passes_logs/2025/01/08/SPB_Silybum_02/SPB_Silybum_02__20250108_095334_TERRA_rec.log

#Pass ID: 20250108_095334_TERRA
#Satellite: TERRA
#Configuration: TERRA
#Start time: 2025-01-08 09:53:33

#Version: 2.0.20230423
#Station: SPB_Silybum_02
#Location: 30.233357 lon 59.946436 lat
#TLE: 1 25994U 99068A   25007.79031535  .00001159  00000+0  24884-3 0  9992
#TLE: 2 25994  98.0229  71.0496 0003578  86.9116 340.1593 14.60381232333028

#Time	Az	El	Level	Level2	SNR	BER	Gain	Gain2
2025-01-08 09:53:35.65	10.19	4.09	
2025-01-08 09:53:36.90	10.10	4.17	
2025-01-08 09:53:38.14	10.01	4.25	
2025-01-08 09:53:39.37	9.92	4.33	
2025-01-08 09:53:40.60	9.82	4.41	
2025-01-08 09:53:41.83	9.73	4.49	
2025-01-08 09:53:43.06	9.64	4.57	
2025-01-08 09:53:44.29	9.54	4.65	
2025-01-08 09:53:45.53	9.45	4.73	
2025-01-08 09:53:46.76	9.35	4.81	
2025-01-08 09:53:47.99	9.26	4.89	
2025-01-08 09:53:49.23	9.16	4.97	
2025-01-08 09:53:50.45	9.06	5.06	
2025-01-08 09:53:51.69	8.96	5.14	
2025-01-08 09:53:52.92	8.87	5.22	
2025-01-08 09:53:54.15	8.77	5.30	
2025-01-08 09:53:55.38	8.67	5.38	
2025-01-08 09:53:56.62	8.57	5.47	
2025-01-08 09:53:57.86	8.46	5.55	
2025-01-08 09:53:59.10	8.36	5.63	
2025-01-08 09:54:00.34	8.26	5.71	
2025-01-08 09:54:01.58	8.15	5.80	
2025-01-08 09:54:02.81	8.05	5.88	
2025-01-08 09:54:04.05	7.95	5.97	
2025-01-08 09:54:05.29	7.84	6.05	
2025-01-08 09:54:06.52	7.73	6.13	
2025-01-08 09:54:07.75	7.63	6.22	
2025-01-08 09:54:08.99	7.52	6.30	
2025-01-08 09:54:10.23	7.41	6.39	
2025-01-08 09:54:11.47	7.30	6.47	
2025-01-08 09:54:12.70	7.19	6.56	
2025-01-08 09:54:13.94	7.08	6.64	
2025-01-08 09:54:15.18	6.97	6.73	
2025-01-08 09:54:16.42	6.86	6.82	
2025-01-08 09:54:17.66	6.74	6.90	
2025-01-08 09:54:18.89	6.63	6.99	
2025-01-08 09:54:20.12	6.52	7.07	
2025-01-08 09:54:21.35	6.40	7.16	
2025-01-08 09:54:22.58	6.29	7.25	
2025-01-08 09:54:23.82	6.17	7.33	
2025-01-08 09:54:25.05	6.05	7.42	
2025-01-08 09:54:26.29	5.93	7.51	
2025-01-08 09:54:27.52	5.81	7.60	
2025-01-08 09:54:28.76	5.69	7.69	
2025-01-08 09:54:29.99	5.57	7.77	
2025-01-08 09:54:31.22	5.45	7.86	
2025-01-08 09:54:32.46	5.33	7.95	
2025-01-08 09:54:33.69	5.21	8.04	
2025-01-08 09:54:34.92	5.08	8.13	
2025-01-08 09:54:36.15	4.96	8.22	
2025-01-08 09:54:37.40	4.83	8.31	
2025-01-08 09:54:38.63	4.71	8.40	
2025-01-08 09:54:39.86	4.58	8.49	
2025-01-08 09:54:41.09	4.45	8.58	
2025-01-08 09:54:42.33	4.32	8.67	
2025-01-08 09:54:43.58	4.19	8.76	
2025-01-08 09:54:44.81	4.06	8.85	
2025-01-08 09:54:46.04	3.93	8.94	
2025-01-08 09:54:47.27	3.80	9.03	
2025-01-08 09:54:48.50	3.66	9.12	
2025-01-08 09:54:49.73	3.53	9.22	
2025-01-08 09:54:50.96	3.39	9.31	
2025-01-08 09:54:52.19	3.26	9.40	
2025-01-08 09:54:53.42	3.12	9.49	
2025-01-08 09:54:54.65	2.98	9.58	
2025-01-08 09:54:55.88	2.84	9.68	
2025-01-08 09:54:57.12	2.70	9.77	
2025-01-08 09:54:58.35	2.56	9.86	
2025-01-08 09:54:59.58	2.42	9.96	
2025-01-08 09:55:00.82	2.27	10.05	
2025-01-08 09:55:02.05	2.13	10.14	
2025-01-08 09:55:03.30	1.98	10.24	
2025-01-08 09:55:04.53	1.84	10.33	
2025-01-08 09:55:05.77	1.69	10.43	
2025-01-08 09:55:07.00	1.54	10.52	
2025-01-08 09:55:08.23	1.39	10.62	
2025-01-08 09:55:09.46	1.24	10.72	
2025-01-08 09:55:10.71	1.09	10.81	
2025-01-08 09:55:11.94	0.93	10.91	
2025-01-08 09:55:13.17	0.78	11.00	
2025-01-08 09:55:14.40	0.63	11.10	
2025-01-08 09:55:15.63	0.47	11.20	
2025-01-08 09:55:16.86	0.31	11.29	
2025-01-08 09:55:18.09	0.15	11.39	
2025-01-08 09:55:19.32	359.99	11.49	
2025-01-08 09:55:20.55	359.83	11.58	
2025-01-08 09:55:21.78	359.67	11.68	
2025-01-08 09:55:23.01	359.51	11.78	
2025-01-08 09:55:24.24	359.34	11.88	
2025-01-08 09:55:25.47	359.18	11.97	
2025-01-08 09:55:26.70	359.01	12.07	
2025-01-08 09:55:27.93	358.84	12.17	
2025-01-08 09:55:29.17	358.67	12.27	
2025-01-08 09:55:30.40	358.50	12.37	
2025-01-08 09:55:31.64	358.33	12.47	
2025-01-08 09:55:32.88	358.16	12.57	
2025-01-08 09:55:34.11	357.98	12.67	
2025-01-08 09:55:35.34	357.81	12.77	
2025-01-08 09:55:36.58	357.63	12.87	
2025-01-08 09:55:37.82	357.45	12.97	
2025-01-08 09:55:39.05	357.27	13.07	
2025-01-08 09:55:40.28	357.09	13.17	
2025-01-08 09:55:41.52	356.90	13.27	
2025-01-08 09:55:42.76	356.72	13.37	
2025-01-08 09:55:43.99	356.53	13.48	
2025-01-08 09:55:45.23	356.35	13.58	
2025-01-08 09:55:46.46	356.16	13.68	
2025-01-08 09:55:47.69	355.97	13.78	
2025-01-08 09:55:48.92	355.78	13.88	
2025-01-08 09:55:50.15	355.59	13.98	
2025-01-08 09:55:51.39	355.39	14.09	
2025-01-08 09:55:52.63	355.20	14.19	
2025-01-08 09:55:53.86	355.00	14.29	
2025-01-08 09:55:55.10	354.80	14.40	
2025-01-08 09:55:56.33	354.60	14.50	
2025-01-08 09:55:57.56	354.40	14.60	
2025-01-08 09:55:58.79	354.20	14.70	
2025-01-08 09:56:00.02	353.99	14.81	
2025-01-08 09:56:01.25	353.79	14.91	
2025-01-08 09:56:02.49	353.58	15.02	
2025-01-08 09:56:03.73	353.37	15.12	
2025-01-08 09:56:04.96	353.16	15.22	
2025-01-08 09:56:06.19	352.95	15.33	
2025-01-08 09:56:07.42	352.73	15.43	
2025-01-08 09:56:08.65	352.52	15.53	
2025-01-08 09:56:09.89	352.30	15.64	
2025-01-08 09:56:11.12	352.08	15.74	
2025-01-08 09:56:12.36	351.86	15.85	
2025-01-08 09:56:13.60	351.64	15.95	
2025-01-08 09:56:14.84	351.41	16.06	
2025-01-08 09:56:16.07	351.19	16.16	
2025-01-08 09:56:17.30	350.96	16.27	
2025-01-08 09:56:18.53	350.73	16.37	
2025-01-08 09:56:19.79	350.49	16.48	
2025-01-08 09:56:21.02	350.26	16.58	
2025-01-08 09:56:22.25	350.03	16.69	
2025-01-08 09:56:23.48	349.79	16.79	
2025-01-08 09:56:24.71	349.56	16.90	
2025-01-08 09:56:25.94	349.32	17.00	
2025-01-08 09:56:27.18	349.07	17.11	
2025-01-08 09:56:28.41	348.83	17.21	
2025-01-08 09:56:29.64	348.59	17.32	
2025-01-08 09:56:30.87	348.34	17.42	
2025-01-08 09:56:32.11	348.09	17.53	
2025-01-08 09:56:33.36	347.84	17.63	
2025-01-08 09:56:34.60	347.58	17.74	
2025-01-08 09:56:35.83	347.33	17.84	
2025-01-08 09:56:37.07	347.07	17.95	
2025-01-08 09:56:38.30	346.81	18.05	
2025-01-08 09:56:39.53	346.55	18.16	
2025-01-08 09:56:40.76	346.29	18.26	
2025-01-08 09:56:42.00	346.03	18.37	
2025-01-08 09:56:43.23	345.76	18.47	
2025-01-08 09:56:44.46	345.49	18.57	
2025-01-08 09:56:45.70	345.22	18.68	
2025-01-08 09:56:46.92	344.95	18.78	
2025-01-08 09:56:48.17	344.68	18.89	
2025-01-08 09:56:49.40	344.40	18.99	
2025-01-08 09:56:50.63	344.12	19.09	
2025-01-08 09:56:51.88	343.84	19.20	
2025-01-08 09:56:53.11	343.56	19.30	
2025-01-08 09:56:54.34	343.27	19.40	
2025-01-08 09:56:55.58	342.99	19.50	
2025-01-08 09:56:56.81	342.70	19.60	
2025-01-08 09:56:58.04	342.41	19.71	
2025-01-08 09:56:59.27	342.12	19.81	
2025-01-08 09:57:00.50	341.82	19.91	
2025-01-08 09:57:01.75	341.52	20.01	
2025-01-08 09:57:02.99	341.22	20.11	
2025-01-08 09:57:04.22	340.92	20.21	
2025-01-08 09:57:05.45	340.62	20.31	
2025-01-08 09:57:06.68	340.32	20.41	
2025-01-08 09:57:07.91	340.01	20.51	
2025-01-08 09:57:09.14	339.70	20.61	
2025-01-08 09:57:10.39	339.39	20.71	
2025-01-08 09:57:11.62	339.08	20.80	
2025-01-08 09:57:12.85	338.76	20.90	
2025-01-08 09:57:14.09	338.44	21.00	
2025-01-08 09:57:15.33	338.12	21.09	
2025-01-08 09:57:16.56	337.80	21.19	
2025-01-08 09:57:17.79	337.48	21.28	
2025-01-08 09:57:19.02	337.15	21.38	
2025-01-08 09:57:20.27	336.82	21.47	
2025-01-08 09:57:21.51	336.49	21.57	
2025-01-08 09:57:22.74	336.16	21.66	
2025-01-08 09:57:23.98	335.82	21.75	
2025-01-08 09:57:25.21	335.48	21.84	
2025-01-08 09:57:26.45	335.14	21.93	
2025-01-08 09:57:27.69	334.80	22.03	
2025-01-08 09:57:28.92	334.46	22.11	
2025-01-08 09:57:30.17	334.11	22.20	
2025-01-08 09:57:31.41	333.76	22.29	
2025-01-08 09:57:32.65	333.41	22.38	
2025-01-08 09:57:33.88	333.06	22.47	
2025-01-08 09:57:35.11	332.71	22.55	
2025-01-08 09:57:36.34	332.35	22.64	
2025-01-08 09:57:37.57	331.99	22.72	
2025-01-08 09:57:38.80	331.64	22.80	
2025-01-08 09:57:40.03	331.28	22.89	
2025-01-08 09:57:41.27	330.91	22.97	
2025-01-08 09:57:42.50	330.55	23.05	
2025-01-08 09:57:43.73	330.18	23.13	
2025-01-08 09:57:44.96	329.81	23.20	
2025-01-08 09:57:46.19	329.44	23.28	
2025-01-08 09:57:47.42	329.07	23.36	
2025-01-08 09:57:48.66	328.69	23.43	
2025-01-08 09:57:49.89	328.31	23.51	
2025-01-08 09:57:51.12	327.94	23.58	
2025-01-08 09:57:52.35	327.56	23.65	
2025-01-08 09:57:53.59	327.17	23.73	
2025-01-08 09:57:54.81	326.79	23.79	
2025-01-08 09:57:56.05	326.40	23.86	
2025-01-08 09:57:57.28	326.02	23.93	
2025-01-08 09:57:58.51	325.63	24.00	
2025-01-08 09:57:59.74	325.24	24.06	
2025-01-08 09:58:00.97	324.84	24.13	
2025-01-08 09:58:02.20	324.45	24.19	
2025-01-08 09:58:03.44	324.05	24.25	
2025-01-08 09:58:04.67	323.65	24.31	
2025-01-08 09:58:05.91	323.25	24.37	
2025-01-08 09:58:07.14	322.85	24.43	
2025-01-08 09:58:08.37	322.45	24.48	
2025-01-08 09:58:09.60	322.05	24.54	
2025-01-08 09:58:10.83	321.64	24.59	
2025-01-08 09:58:12.06	321.23	24.64	
2025-01-08 09:58:13.29	320.83	24.69	
2025-01-08 09:58:14.52	320.42	24.74	
2025-01-08 09:58:15.75	320.01	24.79	
2025-01-08 09:58:16.99	319.59	24.84	
2025-01-08 09:58:18.21	319.18	24.88	
2025-01-08 09:58:19.45	318.76	24.93	
2025-01-08 09:58:20.68	318.35	24.97	
2025-01-08 09:58:21.91	317.93	25.01	
2025-01-08 09:58:23.14	317.51	25.05	
2025-01-08 09:58:24.37	317.10	25.08	
2025-01-08 09:58:25.62	316.67	25.12	
2025-01-08 09:58:26.85	316.25	25.15	
2025-01-08 09:58:28.09	315.82	25.19	
2025-01-08 09:58:29.32	315.40	25.22	
2025-01-08 09:58:30.55	314.98	25.25	
2025-01-08 09:58:31.80	314.55	25.27	
2025-01-08 09:58:33.03	314.12	25.30	
2025-01-08 09:58:34.26	313.69	25.33	
2025-01-08 09:58:35.49	313.27	25.35	
2025-01-08 09:58:36.72	312.84	25.37	
2025-01-08 09:58:37.95	312.41	25.39	
2025-01-08 09:58:39.19	311.98	25.41	
2025-01-08 09:58:40.42	311.55	25.42	
2025-01-08 09:58:41.66	311.12	25.44	
2025-01-08 09:58:42.89	310.69	25.45	
2025-01-08 09:58:44.13	310.26	25.46	
2025-01-08 09:58:45.36	309.83	25.47	
2025-01-08 09:58:46.59	309.40	25.48	
2025-01-08 09:58:47.83	308.96	25.48	
2025-01-08 09:58:49.07	308.53	25.49	
2025-01-08 09:58:50.30	308.10	25.49	
2025-01-08 09:58:51.53	307.67	25.49	
2025-01-08 09:58:52.77	307.23	25.49	
2025-01-08 09:58:54.00	306.80	25.48	
2025-01-08 09:58:55.23	306.37	25.48	
2025-01-08 09:58:56.46	305.94	25.47	
2025-01-08 09:58:57.70	305.51	25.47	
2025-01-08 09:58:58.93	305.08	25.46	
2025-01-08 09:59:00.16	304.65	25.44	
2025-01-08 09:59:01.39	304.22	25.43	
2025-01-08 09:59:02.62	303.79	25.42	
2025-01-08 09:59:03.85	303.36	25.40	
2025-01-08 09:59:05.08	302.93	25.38	
2025-01-08 09:59:06.32	302.50	25.36	
2025-01-08 09:59:07.57	302.06	25.34	
2025-01-08 09:59:08.81	301.63	25.32	
2025-01-08 09:59:10.06	301.20	25.29	
2025-01-08 09:59:11.31	300.77	25.26	
2025-01-08 09:59:12.56	300.34	25.23	
2025-01-08 09:59:13.78	299.92	25.21	
2025-01-08 09:59:15.01	299.50	25.17	
2025-01-08 09:59:16.24	299.07	25.14	
2025-01-08 09:59:17.48	298.65	25.11	
2025-01-08 09:59:18.71	298.23	25.07	
2025-01-08 09:59:19.94	297.81	25.03	
2025-01-08 09:59:21.17	297.39	24.99	
2025-01-08 09:59:22.40	296.98	24.95	
2025-01-08 09:59:23.64	296.56	24.91	
2025-01-08 09:59:24.87	296.14	24.86	
2025-01-08 09:59:26.10	295.73	24.82	
2025-01-08 09:59:27.33	295.32	24.77	
2025-01-08 09:59:28.57	294.90	24.72	
2025-01-08 09:59:29.80	294.49	24.67	
2025-01-08 09:59:31.04	294.08	24.62	
2025-01-08 09:59:32.27	293.68	24.57	
2025-01-08 09:59:33.50	293.27	24.52	
2025-01-08 09:59:34.73	292.87	24.46	
2025-01-08 09:59:35.96	292.47	24.40	
2025-01-08 09:59:37.21	292.06	24.34	
2025-01-08 09:59:38.44	291.66	24.28	
2025-01-08 09:59:39.67	291.26	24.22	
2025-01-08 09:59:40.92	290.86	24.16	
2025-01-08 09:59:42.15	290.47	24.10	
2025-01-08 09:59:43.38	290.07	24.03	
2025-01-08 09:59:44.63	289.68	23.97	
2025-01-08 09:59:45.86	289.29	23.90	
2025-01-08 09:59:47.09	288.90	23.83	
2025-01-08 09:59:48.32	288.51	23.76	
2025-01-08 09:59:49.57	288.12	23.69	
2025-01-08 09:59:50.80	287.74	23.62	
2025-01-08 09:59:52.03	287.36	23.55	
2025-01-08 09:59:53.27	286.98	23.47	
2025-01-08 09:59:54.50	286.60	23.40	
2025-01-08 09:59:55.73	286.23	23.32	
2025-01-08 09:59:56.96	285.86	23.24	
2025-01-08 09:59:58.19	285.49	23.17	
2025-01-08 09:59:59.44	285.11	23.09	
2025-01-08 10:00:00.67	284.75	23.01	
2025-01-08 10:00:01.90	284.38	22.92	
2025-01-08 10:00:03.13	284.02	22.84	
2025-01-08 10:00:04.36	283.66	22.76	
2025-01-08 10:00:05.59	283.30	22.68	
2025-01-08 10:00:06.82	282.94	22.59	
2025-01-08 10:00:08.05	282.59	22.51	
2025-01-08 10:00:09.29	282.23	22.42	
2025-01-08 10:00:10.54	281.88	22.33	
2025-01-08 10:00:11.77	281.53	22.24	
2025-01-08 10:00:13.00	281.18	22.16	
2025-01-08 10:00:14.23	280.84	22.07	
2025-01-08 10:00:15.46	280.50	21.98	
2025-01-08 10:00:16.69	280.16	21.89	
2025-01-08 10:00:17.92	279.82	21.80	
2025-01-08 10:00:19.16	279.48	21.70	
2025-01-08 10:00:20.39	279.14	21.61	
2025-01-08 10:00:21.62	278.81	21.52	
2025-01-08 10:00:22.85	278.48	21.42	
2025-01-08 10:00:24.09	278.15	21.33	
2025-01-08 10:00:25.32	277.83	21.23	
2025-01-08 10:00:26.56	277.50	21.14	
2025-01-08 10:00:27.81	277.18	21.04	
2025-01-08 10:00:29.04	276.86	20.94	
2025-01-08 10:00:30.28	276.54	20.85	
2025-01-08 10:00:31.51	276.22	20.75	
2025-01-08 10:00:32.74	275.91	20.65	
2025-01-08 10:00:33.97	275.60	20.55	
2025-01-08 10:00:35.20	275.29	20.45	
2025-01-08 10:00:36.43	274.98	20.35	
2025-01-08 10:00:37.67	274.68	20.25	
2025-01-08 10:00:38.90	274.37	20.15	
2025-01-08 10:00:40.13	274.07	20.05	
2025-01-08 10:00:41.36	273.78	19.95	
2025-01-08 10:00:42.59	273.48	19.85	
2025-01-08 10:00:43.84	273.18	19.75	
2025-01-08 10:00:45.07	272.89	19.65	
2025-01-08 10:00:46.30	272.60	19.55	
2025-01-08 10:00:47.52	272.31	19.44	
2025-01-08 10:00:48.77	272.02	19.34	
2025-01-08 10:00:50.00	271.74	19.24	
2025-01-08 10:00:51.23	271.46	19.13	
2025-01-08 10:00:52.46	271.18	19.03	
2025-01-08 10:00:53.70	270.90	18.93	
2025-01-08 10:00:54.93	270.62	18.82	
2025-01-08 10:00:56.16	270.35	18.72	
2025-01-08 10:00:57.39	270.08	18.62	
2025-01-08 10:00:58.62	269.81	18.51	
2025-01-08 10:00:59.85	269.54	18.41	
2025-01-08 10:01:01.08	269.27	18.30	
2025-01-08 10:01:02.31	269.01	18.20	
2025-01-08 10:01:03.54	268.75	18.09	
2025-01-08 10:01:04.77	268.49	17.99	
2025-01-08 10:01:06.02	268.23	17.88	
2025-01-08 10:01:07.25	267.97	17.78	
2025-01-08 10:01:08.48	267.72	17.67	
2025-01-08 10:01:09.71	267.46	17.57	
2025-01-08 10:01:10.94	267.21	17.46	
2025-01-08 10:01:12.17	266.96	17.36	
2025-01-08 10:01:13.40	266.72	17.25	
2025-01-08 10:01:14.63	266.47	17.15	
2025-01-08 10:01:15.88	266.23	17.04	
2025-01-08 10:01:17.12	265.98	16.94	
2025-01-08 10:01:18.35	265.74	16.83	
2025-01-08 10:01:19.59	265.50	16.72	
2025-01-08 10:01:20.82	265.27	16.62	
2025-01-08 10:01:22.06	265.03	16.51	
2025-01-08 10:01:23.30	264.80	16.41	
2025-01-08 10:01:24.53	264.57	16.30	
2025-01-08 10:01:25.76	264.34	16.20	
2025-01-08 10:01:26.99	264.11	16.09	
2025-01-08 10:01:28.23	263.88	15.99	
2025-01-08 10:01:29.47	263.66	15.88	
2025-01-08 10:01:30.71	263.43	15.78	
2025-01-08 10:01:31.94	263.21	15.67	
2025-01-08 10:01:33.17	262.99	15.57	
2025-01-08 10:01:34.40	262.77	15.46	
2025-01-08 10:01:35.63	262.56	15.36	
2025-01-08 10:01:36.85	262.35	15.26	
2025-01-08 10:01:38.09	262.13	15.15	
2025-01-08 10:01:39.32	261.92	15.05	
2025-01-08 10:01:40.55	261.71	14.94	
2025-01-08 10:01:41.79	261.50	14.84	
2025-01-08 10:01:43.02	261.30	14.73	
2025-01-08 10:01:44.25	261.09	14.63	
2025-01-08 10:01:45.49	260.89	14.53	
2025-01-08 10:01:46.72	260.69	14.42	
2025-01-08 10:01:47.95	260.49	14.32	
2025-01-08 10:01:49.18	260.29	14.22	
2025-01-08 10:01:50.41	260.09	14.11	
2025-01-08 10:01:51.64	259.90	14.01	
2025-01-08 10:01:52.88	259.70	13.91	
2025-01-08 10:01:54.11	259.51	13.81	
2025-01-08 10:01:55.35	259.31	13.70	
2025-01-08 10:01:56.59	259.12	13.60	
2025-01-08 10:01:57.82	258.93	13.50	
2025-01-08 10:01:59.06	258.75	13.40	
2025-01-08 10:02:00.28	258.56	13.30	
2025-01-08 10:02:01.51	258.38	13.19	
2025-01-08 10:02:02.74	258.19	13.09	
2025-01-08 10:02:03.98	258.01	12.99	
2025-01-08 10:02:05.21	257.83	12.89	
2025-01-08 10:02:06.44	257.65	12.79	
2025-01-08 10:02:07.67	257.48	12.69	
2025-01-08 10:02:08.90	257.30	12.59	
2025-01-08 10:02:10.13	257.12	12.49	
2025-01-08 10:02:11.36	256.95	12.39	
2025-01-08 10:02:12.61	256.78	12.29	
2025-01-08 10:02:13.84	256.60	12.19	
2025-01-08 10:02:15.07	256.43	12.09	
2025-01-08 10:02:16.30	256.27	11.99	
2025-01-08 10:02:17.52	256.10	11.90	
2025-01-08 10:02:18.76	255.93	11.80	
2025-01-08 10:02:19.98	255.77	11.70	
2025-01-08 10:02:21.23	255.60	11.60	
2025-01-08 10:02:22.46	255.44	11.50	
2025-01-08 10:02:23.69	255.28	11.40	
2025-01-08 10:02:24.92	255.12	11.31	
2025-01-08 10:02:26.16	254.96	11.21	
2025-01-08 10:02:27.39	254.80	11.11	
2025-01-08 10:02:28.62	254.64	11.02	
2025-01-08 10:02:29.86	254.49	10.92	
2025-01-08 10:02:31.10	254.33	10.82	
2025-01-08 10:02:32.33	254.18	10.73	
2025-01-08 10:02:33.57	254.02	10.63	
2025-01-08 10:02:34.80	253.87	10.53	
2025-01-08 10:02:36.04	253.72	10.44	
2025-01-08 10:02:37.27	253.57	10.34	
2025-01-08 10:02:38.50	253.42	10.25	
2025-01-08 10:02:39.74	253.28	10.15	
2025-01-08 10:02:40.96	253.13	10.06	
2025-01-08 10:02:42.21	252.98	9.96	
2025-01-08 10:02:43.46	252.84	9.87	
2025-01-08 10:02:44.69	252.70	9.77	
2025-01-08 10:02:45.92	252.55	9.68	
2025-01-08 10:02:47.15	252.41	9.59	
2025-01-08 10:02:48.38	252.27	9.50	
2025-01-08 10:02:49.63	252.13	9.40	
2025-01-08 10:02:50.87	251.99	9.31	
2025-01-08 10:02:52.10	251.86	9.22	
2025-01-08 10:02:53.35	251.72	9.12	
2025-01-08 10:02:54.58	251.58	9.03	
2025-01-08 10:02:55.81	251.45	8.94	
2025-01-08 10:02:57.04	251.32	8.85	
2025-01-08 10:02:58.27	251.18	8.76	
2025-01-08 10:02:59.50	251.05	8.67	
2025-01-08 10:03:00.74	250.92	8.57	
2025-01-08 10:03:01.97	250.79	8.48	
2025-01-08 10:03:03.20	250.66	8.39	
2025-01-08 10:03:04.43	250.54	8.30	
2025-01-08 10:03:05.68	250.41	8.21	
2025-01-08 10:03:06.92	250.28	8.12	
2025-01-08 10:03:08.15	250.15	8.03	
2025-01-08 10:03:09.38	250.03	7.94	
2025-01-08 10:03:10.62	249.91	7.85	
2025-01-08 10:03:11.88	249.78	7.76	
2025-01-08 10:03:13.11	249.66	7.68	
2025-01-08 10:03:14.34	249.54	7.59	
2025-01-08 10:03:15.58	249.42	7.50	
2025-01-08 10:03:16.81	249.30	7.41	
2025-01-08 10:03:18.05	249.18	7.32	
2025-01-08 10:03:19.28	249.06	7.24	
2025-01-08 10:03:20.52	248.94	7.15	
2025-01-08 10:03:21.75	248.83	7.06	
2025-01-08 10:03:23.00	248.71	6.97	
2025-01-08 10:03:24.24	248.59	6.89	
2025-01-08 10:03:25.47	248.48	6.80	
2025-01-08 10:03:26.70	248.37	6.71	
2025-01-08 10:03:27.93	248.25	6.63	
2025-01-08 10:03:29.19	248.14	6.54	
2025-01-08 10:03:30.42	248.03	6.46	
2025-01-08 10:03:31.65	247.92	6.37	
2025-01-08 10:03:32.88	247.81	6.29	
2025-01-08 10:03:34.12	247.70	6.20	
2025-01-08 10:03:35.35	247.59	6.12	
2025-01-08 10:03:36.59	247.48	6.03	
2025-01-08 10:03:37.83	247.38	5.95	
2025-01-08 10:03:39.06	247.27	5.86	
2025-01-08 10:03:40.29	247.16	5.78	
2025-01-08 10:03:41.52	247.06	5.70	
2025-01-08 10:03:42.77	246.95	5.61	
2025-01-08 10:03:44.00	246.85	5.53	
2025-01-08 10:03:45.25	246.75	5.45	
2025-01-08 10:03:46.47	246.65	5.36	
2025-01-08 10:03:47.71	246.54	5.28	
2025-01-08 10:03:48.94	246.44	5.20	
2025-01-08 10:03:50.17	246.34	5.12	
2025-01-08 10:03:51.40	246.24	5.04	
2025-01-08 10:03:52.63	246.14	4.95	
2025-01-08 10:03:53.86	246.05	4.87	
2025-01-08 10:03:55.09	245.95	4.79	
2025-01-08 10:03:56.33	245.85	4.71	
2025-01-08 10:03:57.56	245.75	4.63	
2025-01-08 10:03:58.80	245.66	4.55	
2025-01-08 10:04:00.03	245.56	4.47	
2025-01-08 10:04:01.27	245.47	4.39	
2025-01-08 10:04:02.50	245.37	4.31	
2025-01-08 10:04:03.74	245.28	4.23	
2025-01-08 10:04:04.97	245.19	4.15	
2025-01-08 10:04:06.20	245.09	4.07	

#Closed at: 2025-01-08 10:04:07