passes_logs/2025/01/08/SPB_Silybum_02/SPB_Silybum_02__20250108_083938_AQUA_rec.log

#Pass ID: 20250108_083938_AQUA
#Satellite: AQUA
#Configuration: AQUA
#Start time: 2025-01-08 08:39:38

#Version: 2.0.20230423
#Station: SPB_Silybum_02
#Location: 30.233357 lon 59.946436 lat
#TLE: 1 27424U 02022A   25007.87424311  .00002334  00000+0  48938-3 0  9995
#TLE: 2 27424  98.3576 324.4746 0001447 118.7932 262.7333 14.60655264206582

#Time	Az	El	Level	Level2	SNR	BER	Gain	Gain2
2025-01-08 08:39:40.15	75.99	4.07	
2025-01-08 08:39:40.98	75.88	4.11	
2025-01-08 08:39:41.80	75.78	4.15	
2025-01-08 08:39:42.62	75.68	4.18	
2025-01-08 08:39:43.44	75.58	4.22	
2025-01-08 08:39:44.26	75.48	4.26	
2025-01-08 08:39:45.09	75.37	4.30	
2025-01-08 08:39:45.92	75.27	4.34	
2025-01-08 08:39:46.74	75.16	4.38	
2025-01-08 08:39:47.55	75.06	4.42	
2025-01-08 08:39:48.37	74.96	4.46	
2025-01-08 08:39:49.20	74.85	4.50	
2025-01-08 08:39:50.01	74.75	4.53	
2025-01-08 08:39:50.83	74.64	4.57	
2025-01-08 08:39:51.65	74.54	4.61	
2025-01-08 08:39:52.47	74.43	4.65	
2025-01-08 08:39:53.29	74.32	4.69	
2025-01-08 08:39:54.11	74.22	4.73	
2025-01-08 08:39:54.94	74.11	4.77	
2025-01-08 08:39:55.76	74.00	4.81	
2025-01-08 08:39:56.58	73.90	4.84	
2025-01-08 08:39:57.39	73.79	4.88	
2025-01-08 08:39:58.23	73.68	4.92	
2025-01-08 08:39:59.06	73.57	4.96	
2025-01-08 08:39:59.89	73.46	5.00	
2025-01-08 08:40:00.70	73.35	5.04	
2025-01-08 08:40:01.53	73.24	5.08	
2025-01-08 08:40:02.35	73.13	5.12	
2025-01-08 08:40:03.17	73.02	5.15	
2025-01-08 08:40:03.99	72.91	5.19	
2025-01-08 08:40:04.81	72.80	5.23	
2025-01-08 08:40:05.63	72.69	5.27	
2025-01-08 08:40:06.46	72.58	5.31	
2025-01-08 08:40:07.28	72.47	5.35	
2025-01-08 08:40:08.10	72.35	5.38	
2025-01-08 08:40:08.94	72.24	5.42	
2025-01-08 08:40:09.76	72.13	5.46	
2025-01-08 08:40:10.58	72.01	5.50	
2025-01-08 08:40:11.40	71.90	5.54	
2025-01-08 08:40:12.22	71.79	5.58	
2025-01-08 08:40:13.05	71.67	5.61	
2025-01-08 08:40:13.88	71.56	5.65	
2025-01-08 08:40:14.70	71.44	5.69	
2025-01-08 08:40:15.52	71.33	5.73	
2025-01-08 08:40:16.34	71.21	5.77	
2025-01-08 08:40:17.17	71.10	5.80	
2025-01-08 08:40:17.99	70.98	5.84	
2025-01-08 08:40:18.81	70.86	5.88	
2025-01-08 08:40:19.64	70.75	5.92	
2025-01-08 08:40:20.46	70.63	5.96	
2025-01-08 08:40:21.29	70.51	5.99	
2025-01-08 08:40:22.11	70.39	6.03	
2025-01-08 08:40:22.93	70.28	6.07	
2025-01-08 08:40:23.75	70.16	6.11	
2025-01-08 08:40:24.57	70.04	6.14	
2025-01-08 08:40:25.39	69.92	6.18	
2025-01-08 08:40:26.22	69.80	6.22	
2025-01-08 08:40:27.04	69.68	6.26	
2025-01-08 08:40:27.86	69.56	6.29	
2025-01-08 08:40:28.68	69.44	6.33	
2025-01-08 08:40:29.50	69.32	6.37	
2025-01-08 08:40:30.32	69.20	6.40	
2025-01-08 08:40:31.14	69.08	6.44	
2025-01-08 08:40:31.96	68.96	6.48	
2025-01-08 08:40:32.78	68.84	6.52	
2025-01-08 08:40:33.60	68.71	6.55	
2025-01-08 08:40:34.42	68.59	6.59	
2025-01-08 08:40:35.24	68.47	6.63	
2025-01-08 08:40:36.06	68.34	6.66	
2025-01-08 08:40:36.89	68.22	6.70	
2025-01-08 08:40:37.71	68.10	6.74	
2025-01-08 08:40:38.54	67.97	6.77	
2025-01-08 08:40:39.36	67.85	6.81	
2025-01-08 08:40:40.18	67.72	6.85	
2025-01-08 08:40:41.01	67.59	6.88	
2025-01-08 08:40:41.85	67.47	6.92	
2025-01-08 08:40:42.67	67.34	6.96	
2025-01-08 08:40:43.49	67.21	6.99	
2025-01-08 08:40:44.32	67.08	7.03	
2025-01-08 08:40:45.14	66.96	7.06	
2025-01-08 08:40:45.96	66.83	7.10	
2025-01-08 08:40:46.78	66.70	7.14	
2025-01-08 08:40:47.60	66.57	7.17	
2025-01-08 08:40:48.42	66.45	7.21	
2025-01-08 08:40:49.24	66.32	7.24	
2025-01-08 08:40:50.06	66.19	7.28	
2025-01-08 08:40:50.89	66.06	7.31	
2025-01-08 08:40:51.71	65.93	7.35	
2025-01-08 08:40:52.53	65.80	7.39	
2025-01-08 08:40:53.35	65.67	7.42	
2025-01-08 08:40:54.18	65.54	7.46	
2025-01-08 08:40:55.00	65.40	7.49	
2025-01-08 08:40:55.82	65.27	7.53	
2025-01-08 08:40:56.63	65.14	7.56	
2025-01-08 08:40:57.47	65.01	7.60	
2025-01-08 08:40:58.29	64.87	7.63	
2025-01-08 08:40:59.11	64.74	7.67	
2025-01-08 08:40:59.93	64.61	7.70	
2025-01-08 08:41:00.75	64.47	7.74	
2025-01-08 08:41:01.57	64.34	7.77	
2025-01-08 08:41:02.39	64.21	7.80	
2025-01-08 08:41:03.21	64.07	7.84	
2025-01-08 08:41:04.04	63.94	7.87	
2025-01-08 08:41:04.86	63.80	7.91	
2025-01-08 08:41:05.68	63.66	7.94	
2025-01-08 08:41:06.50	63.53	7.97	
2025-01-08 08:41:07.33	63.39	8.01	
2025-01-08 08:41:08.15	63.25	8.04	
2025-01-08 08:41:08.97	63.12	8.08	
2025-01-08 08:41:09.79	62.98	8.11	
2025-01-08 08:41:10.61	62.84	8.14	
2025-01-08 08:41:11.44	62.70	8.18	
2025-01-08 08:41:12.26	62.56	8.21	
2025-01-08 08:41:13.07	62.43	8.24	
2025-01-08 08:41:13.90	62.29	8.28	
2025-01-08 08:41:14.72	62.15	8.31	
2025-01-08 08:41:15.54	62.01	8.34	
2025-01-08 08:41:16.36	61.87	8.37	
2025-01-08 08:41:17.18	61.73	8.41	
2025-01-08 08:41:18.01	61.58	8.44	
2025-01-08 08:41:18.83	61.44	8.47	
2025-01-08 08:41:19.65	61.30	8.50	
2025-01-08 08:41:20.47	61.16	8.54	
2025-01-08 08:41:21.29	61.02	8.57	
2025-01-08 08:41:22.11	60.87	8.60	
2025-01-08 08:41:22.93	60.73	8.63	
2025-01-08 08:41:23.76	60.59	8.66	
2025-01-08 08:41:24.57	60.44	8.70	
2025-01-08 08:41:25.39	60.30	8.73	
2025-01-08 08:41:26.21	60.16	8.76	
2025-01-08 08:41:27.03	60.01	8.79	
2025-01-08 08:41:27.85	59.87	8.82	
2025-01-08 08:41:28.67	59.72	8.85	
2025-01-08 08:41:29.49	59.58	8.88	
2025-01-08 08:41:30.31	59.43	8.91	
2025-01-08 08:41:31.13	59.28	8.94	
2025-01-08 08:41:31.95	59.14	8.97	
2025-01-08 08:41:32.78	58.99	9.01	
2025-01-08 08:41:33.60	58.84	9.04	
2025-01-08 08:41:34.42	58.69	9.07	
2025-01-08 08:41:35.24	58.55	9.10	
2025-01-08 08:41:36.06	58.40	9.13	
2025-01-08 08:41:36.90	58.24	9.16	
2025-01-08 08:41:37.72	58.10	9.19	
2025-01-08 08:41:38.54	57.95	9.21	
2025-01-08 08:41:39.36	57.80	9.24	
2025-01-08 08:41:40.19	57.65	9.27	
2025-01-08 08:41:41.00	57.50	9.30	
2025-01-08 08:41:41.83	57.34	9.33	
2025-01-08 08:41:42.65	57.19	9.36	
2025-01-08 08:41:43.47	57.04	9.39	
2025-01-08 08:41:44.29	56.89	9.42	
2025-01-08 08:41:45.11	56.74	9.45	
2025-01-08 08:41:45.93	56.59	9.47	
2025-01-08 08:41:46.75	56.43	9.50	
2025-01-08 08:41:47.57	56.28	9.53	
2025-01-08 08:41:48.41	56.12	9.56	
2025-01-08 08:41:49.23	55.97	9.59	
2025-01-08 08:41:50.05	55.82	9.61	
2025-01-08 08:41:50.87	55.66	9.64	
2025-01-08 08:41:51.70	55.51	9.67	
2025-01-08 08:41:52.52	55.35	9.69	
2025-01-08 08:41:53.35	55.20	9.72	
2025-01-08 08:41:54.18	55.04	9.75	
2025-01-08 08:41:55.00	54.88	9.78	
2025-01-08 08:41:55.82	54.73	9.80	
2025-01-08 08:41:56.64	54.57	9.83	
2025-01-08 08:41:57.46	54.41	9.85	
2025-01-08 08:41:58.28	54.26	9.88	
2025-01-08 08:41:59.10	54.10	9.90	
2025-01-08 08:41:59.92	53.94	9.93	
2025-01-08 08:42:00.74	53.78	9.96	
2025-01-08 08:42:01.56	53.63	9.98	
2025-01-08 08:42:02.38	53.47	10.01	
2025-01-08 08:42:03.20	53.31	10.03	
2025-01-08 08:42:04.04	53.15	10.06	
2025-01-08 08:42:04.86	52.99	10.08	
2025-01-08 08:42:05.68	52.83	10.10	
2025-01-08 08:42:06.50	52.67	10.13	
2025-01-08 08:42:07.32	52.51	10.15	
2025-01-08 08:42:08.14	52.35	10.18	
2025-01-08 08:42:08.96	52.19	10.20	
2025-01-08 08:42:09.79	52.02	10.22	
2025-01-08 08:42:10.61	51.86	10.25	
2025-01-08 08:42:11.44	51.70	10.27	
2025-01-08 08:42:12.26	51.54	10.29	
2025-01-08 08:42:13.08	51.38	10.32	
2025-01-08 08:42:13.90	51.21	10.34	
2025-01-08 08:42:14.71	51.05	10.36	
2025-01-08 08:42:15.54	50.89	10.38	
2025-01-08 08:42:16.35	50.73	10.40	
2025-01-08 08:42:17.18	50.56	10.43	
2025-01-08 08:42:18.00	50.40	10.45	
2025-01-08 08:42:18.82	50.23	10.47	
2025-01-08 08:42:19.64	50.07	10.49	
2025-01-08 08:42:20.48	49.90	10.51	
2025-01-08 08:42:21.30	49.74	10.53	
2025-01-08 08:42:22.12	49.57	10.55	
2025-01-08 08:42:22.94	49.41	10.57	
2025-01-08 08:42:23.76	49.24	10.59	
2025-01-08 08:42:24.59	49.07	10.61	
2025-01-08 08:42:25.41	48.91	10.63	
2025-01-08 08:42:26.23	48.74	10.65	
2025-01-08 08:42:27.05	48.57	10.67	
2025-01-08 08:42:27.87	48.41	10.69	
2025-01-08 08:42:28.70	48.24	10.71	
2025-01-08 08:42:29.52	48.07	10.73	
2025-01-08 08:42:30.34	47.90	10.75	
2025-01-08 08:42:31.18	47.73	10.77	
2025-01-08 08:42:32.01	47.56	10.79	
2025-01-08 08:42:32.83	47.39	10.80	
2025-01-08 08:42:33.65	47.23	10.82	
2025-01-08 08:42:34.47	47.06	10.84	
2025-01-08 08:42:35.29	46.89	10.86	
2025-01-08 08:42:36.12	46.72	10.87	
2025-01-08 08:42:36.94	46.55	10.89	
2025-01-08 08:42:37.78	46.38	10.91	
2025-01-08 08:42:38.60	46.21	10.92	
2025-01-08 08:42:39.42	46.04	10.94	
2025-01-08 08:42:40.24	45.87	10.96	
2025-01-08 08:42:41.08	45.69	10.97	
2025-01-08 08:42:41.91	45.52	10.99	
2025-01-08 08:42:42.73	45.35	11.00	
2025-01-08 08:42:43.55	45.18	11.02	
2025-01-08 08:42:44.37	45.01	11.03	
2025-01-08 08:42:45.19	44.84	11.05	
2025-01-08 08:42:46.01	44.67	11.06	
2025-01-08 08:42:46.83	44.49	11.08	
2025-01-08 08:42:47.65	44.32	11.09	
2025-01-08 08:42:48.48	44.15	11.10	
2025-01-08 08:42:49.30	43.98	11.12	
2025-01-08 08:42:50.12	43.80	11.13	
2025-01-08 08:42:50.94	43.63	11.14	
2025-01-08 08:42:51.76	43.46	11.16	
2025-01-08 08:42:52.59	43.28	11.17	
2025-01-08 08:42:53.42	43.11	11.18	
2025-01-08 08:42:54.24	42.94	11.19	
2025-01-08 08:42:55.07	42.76	11.21	
2025-01-08 08:42:55.89	42.59	11.22	
2025-01-08 08:42:56.71	42.42	11.23	
2025-01-08 08:42:57.54	42.24	11.24	
2025-01-08 08:42:58.37	42.06	11.25	
2025-01-08 08:42:59.19	41.89	11.26	
2025-01-08 08:43:00.01	41.72	11.27	
2025-01-08 08:43:00.83	41.54	11.28	
2025-01-08 08:43:01.65	41.37	11.29	
2025-01-08 08:43:02.47	41.19	11.30	
2025-01-08 08:43:03.29	41.02	11.31	
2025-01-08 08:43:04.12	40.84	11.32	
2025-01-08 08:43:04.94	40.67	11.33	
2025-01-08 08:43:05.76	40.49	11.34	
2025-01-08 08:43:06.58	40.32	11.35	
2025-01-08 08:43:07.42	40.14	11.36	
2025-01-08 08:43:08.24	39.96	11.36	
2025-01-08 08:43:09.06	39.79	11.37	
2025-01-08 08:43:09.88	39.61	11.38	
2025-01-08 08:43:10.70	39.44	11.39	
2025-01-08 08:43:11.52	39.26	11.39	
2025-01-08 08:43:12.34	39.09	11.40	
2025-01-08 08:43:13.16	38.91	11.41	
2025-01-08 08:43:13.98	38.73	11.41	
2025-01-08 08:43:14.80	38.56	11.42	
2025-01-08 08:43:15.62	38.38	11.43	
2025-01-08 08:43:16.44	38.21	11.43	
2025-01-08 08:43:17.28	38.03	11.44	
2025-01-08 08:43:18.10	37.85	11.44	
2025-01-08 08:43:18.93	37.67	11.45	
2025-01-08 08:43:19.75	37.50	11.45	
2025-01-08 08:43:20.57	37.32	11.46	
2025-01-08 08:43:21.39	37.14	11.46	
2025-01-08 08:43:22.21	36.97	11.46	
2025-01-08 08:43:23.03	36.79	11.47	
2025-01-08 08:43:23.85	36.61	11.47	
2025-01-08 08:43:24.67	36.44	11.47	
2025-01-08 08:43:25.51	36.26	11.48	
2025-01-08 08:43:26.33	36.08	11.48	
2025-01-08 08:43:27.15	35.90	11.48	
2025-01-08 08:43:27.97	35.73	11.48	
2025-01-08 08:43:28.79	35.55	11.49	
2025-01-08 08:43:29.61	35.37	11.49	
2025-01-08 08:43:30.43	35.20	11.49	
2025-01-08 08:43:31.27	35.01	11.49	
2025-01-08 08:43:32.09	34.84	11.49	
2025-01-08 08:43:32.91	34.66	11.49	
2025-01-08 08:43:33.74	34.48	11.49	
2025-01-08 08:43:34.56	34.31	11.49	
2025-01-08 08:43:35.37	34.13	11.49	
2025-01-08 08:43:36.20	33.95	11.49	
2025-01-08 08:43:37.02	33.78	11.49	
2025-01-08 08:43:37.84	33.60	11.49	
2025-01-08 08:43:38.66	33.42	11.49	
2025-01-08 08:43:39.48	33.24	11.49	
2025-01-08 08:43:40.30	33.07	11.49	
2025-01-08 08:43:41.12	32.89	11.48	
2025-01-08 08:43:41.94	32.71	11.48	
2025-01-08 08:43:42.77	32.54	11.48	
2025-01-08 08:43:43.59	32.36	11.48	
2025-01-08 08:43:44.42	32.18	11.47	
2025-01-08 08:43:45.24	32.00	11.47	
2025-01-08 08:43:46.06	31.83	11.47	
2025-01-08 08:43:46.88	31.65	11.46	
2025-01-08 08:43:47.70	31.47	11.46	
2025-01-08 08:43:48.52	31.30	11.46	
2025-01-08 08:43:49.34	31.12	11.45	
2025-01-08 08:43:50.16	30.95	11.45	
2025-01-08 08:43:50.98	30.77	11.44	
2025-01-08 08:43:51.80	30.59	11.44	
2025-01-08 08:43:52.62	30.42	11.43	
2025-01-08 08:43:53.44	30.24	11.43	
2025-01-08 08:43:54.25	30.07	11.42	
2025-01-08 08:43:55.08	29.89	11.41	
2025-01-08 08:43:55.90	29.71	11.41	
2025-01-08 08:43:56.72	29.54	11.40	
2025-01-08 08:43:57.53	29.37	11.39	
2025-01-08 08:43:58.36	29.19	11.39	
2025-01-08 08:43:59.18	29.01	11.38	
2025-01-08 08:44:00.01	28.84	11.37	
2025-01-08 08:44:00.84	28.66	11.36	
2025-01-08 08:44:01.66	28.48	11.36	
2025-01-08 08:44:02.48	28.31	11.35	
2025-01-08 08:44:03.31	28.13	11.34	
2025-01-08 08:44:04.13	27.96	11.33	
2025-01-08 08:44:04.96	27.78	11.32	
2025-01-08 08:44:05.78	27.61	11.31	
2025-01-08 08:44:06.60	27.43	11.30	
2025-01-08 08:44:07.43	27.25	11.29	
2025-01-08 08:44:08.25	27.08	11.28	
2025-01-08 08:44:09.07	26.91	11.27	
2025-01-08 08:44:09.89	26.73	11.26	
2025-01-08 08:44:10.71	26.56	11.25	
2025-01-08 08:44:11.53	26.39	11.24	
2025-01-08 08:44:12.35	26.21	11.23	
2025-01-08 08:44:13.17	26.04	11.22	
2025-01-08 08:44:13.99	25.87	11.21	
2025-01-08 08:44:14.81	25.69	11.19	
2025-01-08 08:44:15.63	25.52	11.18	
2025-01-08 08:44:16.45	25.35	11.17	
2025-01-08 08:44:17.27	25.18	11.16	
2025-01-08 08:44:18.09	25.00	11.14	
2025-01-08 08:44:18.91	24.83	11.13	
2025-01-08 08:44:19.74	24.66	11.12	
2025-01-08 08:44:20.56	24.49	11.10	
2025-01-08 08:44:21.38	24.31	11.09	
2025-01-08 08:44:22.20	24.14	11.08	
2025-01-08 08:44:23.02	23.97	11.06	
2025-01-08 08:44:23.84	23.80	11.05	
2025-01-08 08:44:24.66	23.63	11.03	
2025-01-08 08:44:25.48	23.46	11.02	
2025-01-08 08:44:26.30	23.29	11.00	
2025-01-08 08:44:27.12	23.12	10.99	
2025-01-08 08:44:27.95	22.95	10.97	
2025-01-08 08:44:28.77	22.78	10.96	
2025-01-08 08:44:29.59	22.61	10.94	
2025-01-08 08:44:30.41	22.44	10.93	
2025-01-08 08:44:31.23	22.27	10.91	
2025-01-08 08:44:32.05	22.10	10.89	
2025-01-08 08:44:32.87	21.93	10.88	
2025-01-08 08:44:33.69	21.76	10.86	
2025-01-08 08:44:34.51	21.59	10.84	
2025-01-08 08:44:35.33	21.42	10.82	
2025-01-08 08:44:36.15	21.26	10.81	
2025-01-08 08:44:36.97	21.09	10.79	
2025-01-08 08:44:37.79	20.92	10.77	
2025-01-08 08:44:38.61	20.75	10.75	
2025-01-08 08:44:39.43	20.59	10.73	
2025-01-08 08:44:40.27	20.42	10.71	
2025-01-08 08:44:41.09	20.25	10.70	
2025-01-08 08:44:41.91	20.08	10.68	
2025-01-08 08:44:42.73	19.92	10.66	
2025-01-08 08:44:43.55	19.75	10.64	
2025-01-08 08:44:44.38	19.58	10.62	
2025-01-08 08:44:45.20	19.42	10.60	
2025-01-08 08:44:46.02	19.25	10.58	
2025-01-08 08:44:46.86	19.08	10.56	
2025-01-08 08:44:47.68	18.92	10.54	
2025-01-08 08:44:48.50	18.75	10.52	
2025-01-08 08:44:49.33	18.59	10.49	
2025-01-08 08:44:50.16	18.42	10.47	
2025-01-08 08:44:50.98	18.26	10.45	
2025-01-08 08:44:51.81	18.09	10.43	
2025-01-08 08:44:52.64	17.93	10.41	
2025-01-08 08:44:53.46	17.77	10.39	
2025-01-08 08:44:54.28	17.60	10.36	
2025-01-08 08:44:55.12	17.44	10.34	
2025-01-08 08:44:55.94	17.27	10.32	
2025-01-08 08:44:56.77	17.11	10.30	
2025-01-08 08:44:57.59	16.95	10.27	
2025-01-08 08:44:58.42	16.79	10.25	
2025-01-08 08:44:59.25	16.62	10.23	
2025-01-08 08:45:00.08	16.46	10.20	
2025-01-08 08:45:00.89	16.30	10.18	
2025-01-08 08:45:01.71	16.14	10.16	
2025-01-08 08:45:02.53	15.98	10.13	
2025-01-08 08:45:03.35	15.82	10.11	
2025-01-08 08:45:04.17	15.66	10.08	
2025-01-08 08:45:04.99	15.51	10.06	
2025-01-08 08:45:05.81	15.35	10.03	
2025-01-08 08:45:06.63	15.19	10.01	
2025-01-08 08:45:07.46	15.03	9.98	
2025-01-08 08:45:08.28	14.87	9.96	
2025-01-08 08:45:09.10	14.71	9.93	
2025-01-08 08:45:09.92	14.56	9.91	
2025-01-08 08:45:10.75	14.40	9.88	
2025-01-08 08:45:11.56	14.24	9.86	
2025-01-08 08:45:12.39	14.09	9.83	
2025-01-08 08:45:13.20	13.93	9.81	
2025-01-08 08:45:14.03	13.77	9.78	
2025-01-08 08:45:14.85	13.62	9.75	
2025-01-08 08:45:15.67	13.46	9.73	
2025-01-08 08:45:16.51	13.31	9.70	
2025-01-08 08:45:17.34	13.15	9.67	
2025-01-08 08:45:18.16	12.99	9.64	
2025-01-08 08:45:18.98	12.84	9.62	
2025-01-08 08:45:19.80	12.69	9.59	
2025-01-08 08:45:20.64	12.53	9.56	
2025-01-08 08:45:21.46	12.38	9.53	
2025-01-08 08:45:22.28	12.23	9.51	
2025-01-08 08:45:23.10	12.07	9.48	
2025-01-08 08:45:23.93	11.92	9.45	
2025-01-08 08:45:24.75	11.77	9.42	
2025-01-08 08:45:25.57	11.62	9.39	
2025-01-08 08:45:26.39	11.47	9.36	
2025-01-08 08:45:27.22	11.31	9.34	
2025-01-08 08:45:28.05	11.16	9.31	
2025-01-08 08:45:28.87	11.01	9.28	
2025-01-08 08:45:29.69	10.86	9.25	
2025-01-08 08:45:30.52	10.71	9.22	
2025-01-08 08:45:31.34	10.56	9.19	
2025-01-08 08:45:32.17	10.41	9.16	
2025-01-08 08:45:32.99	10.27	9.13	
2025-01-08 08:45:33.81	10.12	9.10	
2025-01-08 08:45:34.64	9.97	9.07	
2025-01-08 08:45:35.46	9.82	9.04	
2025-01-08 08:45:36.29	9.67	9.01	
2025-01-08 08:45:37.10	9.53	8.98	
2025-01-08 08:45:37.93	9.38	8.95	
2025-01-08 08:45:38.74	9.24	8.92	
2025-01-08 08:45:39.57	9.09	8.89	
2025-01-08 08:45:40.39	8.94	8.86	
2025-01-08 08:45:41.21	8.80	8.83	
2025-01-08 08:45:42.05	8.65	8.79	
2025-01-08 08:45:42.86	8.51	8.76	
2025-01-08 08:45:43.70	8.36	8.73	
2025-01-08 08:45:44.52	8.22	8.70	
2025-01-08 08:45:45.34	8.07	8.67	
2025-01-08 08:45:46.16	7.93	8.64	
2025-01-08 08:45:46.98	7.79	8.60	
2025-01-08 08:45:47.80	7.65	8.57	
2025-01-08 08:45:48.62	7.51	8.54	
2025-01-08 08:45:49.44	7.36	8.51	
2025-01-08 08:45:50.27	7.22	8.48	
2025-01-08 08:45:51.09	7.08	8.44	
2025-01-08 08:45:51.91	6.94	8.41	
2025-01-08 08:45:52.73	6.80	8.38	
2025-01-08 08:45:53.56	6.66	8.35	
2025-01-08 08:45:54.38	6.52	8.31	
2025-01-08 08:45:55.21	6.38	8.28	
2025-01-08 08:45:56.04	6.24	8.25	
2025-01-08 08:45:56.88	6.10	8.21	
2025-01-08 08:45:57.70	5.96	8.18	
2025-01-08 08:45:58.52	5.82	8.15	
2025-01-08 08:45:59.35	5.68	8.11	
2025-01-08 08:46:00.19	5.54	8.08	
2025-01-08 08:46:01.01	5.41	8.05	
2025-01-08 08:46:01.85	5.27	8.01	
2025-01-08 08:46:02.67	5.13	7.98	
2025-01-08 08:46:03.49	5.00	7.94	
2025-01-08 08:46:04.31	4.86	7.91	
2025-01-08 08:46:05.13	4.73	7.88	
2025-01-08 08:46:05.95	4.59	7.84	
2025-01-08 08:46:06.77	4.46	7.81	
2025-01-08 08:46:07.61	4.32	7.77	
2025-01-08 08:46:08.43	4.19	7.74	
2025-01-08 08:46:09.25	4.05	7.70	
2025-01-08 08:46:10.07	3.92	7.67	
2025-01-08 08:46:10.89	3.79	7.63	
2025-01-08 08:46:11.71	3.66	7.60	
2025-01-08 08:46:12.53	3.53	7.56	
2025-01-08 08:46:13.35	3.39	7.53	
2025-01-08 08:46:14.17	3.26	7.49	
2025-01-08 08:46:14.99	3.13	7.46	
2025-01-08 08:46:15.82	3.00	7.42	
2025-01-08 08:46:16.64	2.87	7.39	
2025-01-08 08:46:17.46	2.74	7.35	
2025-01-08 08:46:18.28	2.61	7.32	
2025-01-08 08:46:19.11	2.48	7.28	
2025-01-08 08:46:19.93	2.35	7.25	
2025-01-08 08:46:20.75	2.23	7.21	
2025-01-08 08:46:21.57	2.10	7.18	
2025-01-08 08:46:22.39	1.97	7.14	
2025-01-08 08:46:23.21	1.84	7.10	
2025-01-08 08:46:24.04	1.71	7.07	
2025-01-08 08:46:24.86	1.59	7.03	
2025-01-08 08:46:25.68	1.46	7.00	
2025-01-08 08:46:26.50	1.34	6.96	
2025-01-08 08:46:27.32	1.21	6.92	
2025-01-08 08:46:28.14	1.09	6.89	
2025-01-08 08:46:28.96	0.96	6.85	
2025-01-08 08:46:29.79	0.84	6.81	
2025-01-08 08:46:30.62	0.71	6.78	
2025-01-08 08:46:31.45	0.58	6.74	
2025-01-08 08:46:32.27	0.46	6.70	
2025-01-08 08:46:33.09	0.34	6.67	
2025-01-08 08:46:33.91	0.22	6.63	
2025-01-08 08:46:34.74	0.09	6.59	
2025-01-08 08:46:35.57	359.97	6.56	
2025-01-08 08:46:36.39	359.85	6.52	
2025-01-08 08:46:37.21	359.73	6.48	
2025-01-08 08:46:38.03	359.61	6.45	
2025-01-08 08:46:38.85	359.48	6.41	
2025-01-08 08:46:39.67	359.36	6.37	
2025-01-08 08:46:40.50	359.24	6.34	
2025-01-08 08:46:41.31	359.13	6.30	
2025-01-08 08:46:42.15	359.00	6.26	
2025-01-08 08:46:42.97	358.88	6.22	
2025-01-08 08:46:43.79	358.77	6.19	
2025-01-08 08:46:44.62	358.65	6.15	
2025-01-08 08:46:45.44	358.53	6.11	
2025-01-08 08:46:46.26	358.41	6.07	
2025-01-08 08:46:47.09	358.29	6.04	
2025-01-08 08:46:47.92	358.17	6.00	
2025-01-08 08:46:48.74	358.06	5.96	
2025-01-08 08:46:49.56	357.94	5.92	
2025-01-08 08:46:50.38	357.83	5.89	
2025-01-08 08:46:51.20	357.71	5.85	
2025-01-08 08:46:52.03	357.59	5.81	
2025-01-08 08:46:52.85	357.48	5.77	
2025-01-08 08:46:53.67	357.36	5.73	
2025-01-08 08:46:54.49	357.25	5.70	
2025-01-08 08:46:55.31	357.14	5.66	
2025-01-08 08:46:56.13	357.02	5.62	
2025-01-08 08:46:56.95	356.91	5.58	
2025-01-08 08:46:57.77	356.80	5.54	
2025-01-08 08:46:58.59	356.68	5.51	
2025-01-08 08:46:59.43	356.57	5.47	
2025-01-08 08:47:00.26	356.46	5.43	
2025-01-08 08:47:01.08	356.34	5.39	
2025-01-08 08:47:01.91	356.23	5.35	
2025-01-08 08:47:02.74	356.12	5.31	
2025-01-08 08:47:03.56	356.01	5.28	
2025-01-08 08:47:04.38	355.90	5.24	
2025-01-08 08:47:05.20	355.79	5.20	
2025-01-08 08:47:06.02	355.68	5.16	
2025-01-08 08:47:06.84	355.57	5.12	
2025-01-08 08:47:07.66	355.46	5.08	
2025-01-08 08:47:08.48	355.35	5.05	
2025-01-08 08:47:09.31	355.24	5.01	
2025-01-08 08:47:10.14	355.13	4.97	
2025-01-08 08:47:10.96	355.03	4.93	
2025-01-08 08:47:11.79	354.92	4.89	
2025-01-08 08:47:12.61	354.81	4.85	
2025-01-08 08:47:13.44	354.70	4.81	
2025-01-08 08:47:14.26	354.60	4.77	
2025-01-08 08:47:15.08	354.49	4.74	
2025-01-08 08:47:15.90	354.39	4.70	
2025-01-08 08:47:16.74	354.28	4.66	
2025-01-08 08:47:17.56	354.17	4.62	
2025-01-08 08:47:18.37	354.07	4.58	
2025-01-08 08:47:19.19	353.96	4.54	
2025-01-08 08:47:20.03	353.86	4.50	
2025-01-08 08:47:20.84	353.75	4.46	
2025-01-08 08:47:21.66	353.65	4.43	
2025-01-08 08:47:22.48	353.55	4.39	
2025-01-08 08:47:23.30	353.44	4.35	
2025-01-08 08:47:24.13	353.34	4.31	
2025-01-08 08:47:24.95	353.24	4.27	
2025-01-08 08:47:25.77	353.14	4.23	
2025-01-08 08:47:26.60	353.03	4.19	
2025-01-08 08:47:27.42	352.93	4.15	
2025-01-08 08:47:28.26	352.83	4.11	
2025-01-08 08:47:29.09	352.73	4.07	
2025-01-08 08:47:29.91	352.63	4.03	

#Closed at: 2025-01-08 08:47:30