passes_logs/2025/01/08/SPB_Silybum_02/SPB_Silybum_02__20250108_224514_SUOMI_NPP_rec.log

#Pass ID: 20250108_224514_SUOMI NPP
#Satellite: SUOMI NPP
#Configuration: NPP
#Start time: 2025-01-08 22:45:14

#Version: 2.0.20230423
#Station: SPB_Silybum_02
#Location: 30.233357 lon 59.946436 lat
#TLE: 1 37849U 11061A   25008.15329241  .00000250  00000+0  13932-3 0  9999
#TLE: 2 37849  98.7439 309.2289 0001915  51.2946 308.8402 14.19535012683945

#Time	Az	El	Level	Level2	SNR	BER	Gain	Gain2
2025-01-08 22:45:16.78	25.51	4.13	
2025-01-08 22:45:18.01	25.60	4.20	
2025-01-08 22:45:19.25	25.70	4.27	
2025-01-08 22:45:20.48	25.79	4.35	
2025-01-08 22:45:21.71	25.88	4.42	
2025-01-08 22:45:22.94	25.98	4.49	
2025-01-08 22:45:24.18	26.08	4.57	
2025-01-08 22:45:25.41	26.17	4.64	
2025-01-08 22:45:26.64	26.27	4.71	
2025-01-08 22:45:27.88	26.37	4.79	
2025-01-08 22:45:29.11	26.46	4.86	
2025-01-08 22:45:30.34	26.56	4.94	
2025-01-08 22:45:31.57	26.66	5.01	
2025-01-08 22:45:32.80	26.76	5.08	
2025-01-08 22:45:34.03	26.86	5.16	
2025-01-08 22:45:35.26	26.96	5.23	
2025-01-08 22:45:36.49	27.06	5.31	
2025-01-08 22:45:37.72	27.16	5.38	
2025-01-08 22:45:38.96	27.26	5.46	
2025-01-08 22:45:40.18	27.36	5.53	
2025-01-08 22:45:41.41	27.46	5.61	
2025-01-08 22:45:42.64	27.57	5.68	
2025-01-08 22:45:43.87	27.67	5.76	
2025-01-08 22:45:45.12	27.77	5.83	
2025-01-08 22:45:46.35	27.88	5.91	
2025-01-08 22:45:47.58	27.98	5.99	
2025-01-08 22:45:48.81	28.09	6.06	
2025-01-08 22:45:50.05	28.19	6.14	
2025-01-08 22:45:51.28	28.30	6.21	
2025-01-08 22:45:52.51	28.41	6.29	
2025-01-08 22:45:53.74	28.52	6.37	
2025-01-08 22:45:54.97	28.62	6.44	
2025-01-08 22:45:56.22	28.73	6.52	
2025-01-08 22:45:57.45	28.84	6.60	
2025-01-08 22:45:58.68	28.95	6.68	
2025-01-08 22:45:59.91	29.06	6.75	
2025-01-08 22:46:01.16	29.17	6.83	
2025-01-08 22:46:02.39	29.29	6.91	
2025-01-08 22:46:03.63	29.40	6.99	
2025-01-08 22:46:04.87	29.51	7.07	
2025-01-08 22:46:06.09	29.62	7.15	
2025-01-08 22:46:07.32	29.74	7.22	
2025-01-08 22:46:08.55	29.85	7.30	
2025-01-08 22:46:09.78	29.96	7.38	
2025-01-08 22:46:11.02	30.08	7.46	
2025-01-08 22:46:12.25	30.20	7.54	
2025-01-08 22:46:13.49	30.31	7.62	
2025-01-08 22:46:14.73	30.43	7.70	
2025-01-08 22:46:15.96	30.55	7.78	
2025-01-08 22:46:17.19	30.67	7.86	
2025-01-08 22:46:18.42	30.79	7.94	
2025-01-08 22:46:19.66	30.91	8.02	
2025-01-08 22:46:20.90	31.03	8.10	
2025-01-08 22:46:22.13	31.15	8.18	
2025-01-08 22:46:23.36	31.27	8.26	
2025-01-08 22:46:24.60	31.39	8.34	
2025-01-08 22:46:25.83	31.52	8.42	
2025-01-08 22:46:27.06	31.64	8.50	
2025-01-08 22:46:28.30	31.76	8.58	
2025-01-08 22:46:29.53	31.89	8.66	
2025-01-08 22:46:30.76	32.01	8.74	
2025-01-08 22:46:32.00	32.14	8.83	
2025-01-08 22:46:33.22	32.27	8.91	
2025-01-08 22:46:34.46	32.39	8.99	
2025-01-08 22:46:35.68	32.52	9.07	
2025-01-08 22:46:36.92	32.65	9.15	
2025-01-08 22:46:38.16	32.78	9.24	
2025-01-08 22:46:39.39	32.91	9.32	
2025-01-08 22:46:40.63	33.04	9.40	
2025-01-08 22:46:41.86	33.17	9.48	
2025-01-08 22:46:43.09	33.31	9.57	
2025-01-08 22:46:44.34	33.44	9.65	
2025-01-08 22:46:45.57	33.58	9.73	
2025-01-08 22:46:46.80	33.71	9.82	
2025-01-08 22:46:48.03	33.84	9.90	
2025-01-08 22:46:49.26	33.98	9.98	
2025-01-08 22:46:50.48	34.12	10.07	
2025-01-08 22:46:51.72	34.25	10.15	
2025-01-08 22:46:52.96	34.39	10.23	
2025-01-08 22:46:54.18	34.53	10.32	
2025-01-08 22:46:55.41	34.67	10.40	
2025-01-08 22:46:56.64	34.81	10.49	
2025-01-08 22:46:57.87	34.95	10.57	
2025-01-08 22:46:59.10	35.09	10.65	
2025-01-08 22:47:00.32	35.24	10.74	
2025-01-08 22:47:01.55	35.38	10.82	
2025-01-08 22:47:02.78	35.52	10.91	
2025-01-08 22:47:04.01	35.67	10.99	
2025-01-08 22:47:05.24	35.81	11.08	
2025-01-08 22:47:06.46	35.96	11.16	
2025-01-08 22:47:07.70	36.11	11.25	
2025-01-08 22:47:08.93	36.26	11.34	
2025-01-08 22:47:10.16	36.41	11.42	
2025-01-08 22:47:11.40	36.56	11.51	
2025-01-08 22:47:12.64	36.71	11.59	
2025-01-08 22:47:13.87	36.86	11.68	
2025-01-08 22:47:15.10	37.01	11.77	
2025-01-08 22:47:16.34	37.17	11.85	
2025-01-08 22:47:17.58	37.32	11.94	
2025-01-08 22:47:18.81	37.48	12.03	
2025-01-08 22:47:20.05	37.64	12.11	
2025-01-08 22:47:21.28	37.79	12.20	
2025-01-08 22:47:22.51	37.95	12.29	
2025-01-08 22:47:23.74	38.11	12.38	
2025-01-08 22:47:24.96	38.27	12.46	
2025-01-08 22:47:26.19	38.43	12.55	
2025-01-08 22:47:27.42	38.59	12.64	
2025-01-08 22:47:28.64	38.75	12.72	
2025-01-08 22:47:29.87	38.92	12.81	
2025-01-08 22:47:31.10	39.08	12.90	
2025-01-08 22:47:32.33	39.25	12.99	
2025-01-08 22:47:33.56	39.41	13.08	
2025-01-08 22:47:34.79	39.58	13.16	
2025-01-08 22:47:36.02	39.75	13.25	
2025-01-08 22:47:37.25	39.92	13.34	
2025-01-08 22:47:38.49	40.09	13.43	
2025-01-08 22:47:39.72	40.26	13.52	
2025-01-08 22:47:40.95	40.43	13.61	
2025-01-08 22:47:42.20	40.61	13.70	
2025-01-08 22:47:43.44	40.78	13.79	
2025-01-08 22:47:44.67	40.96	13.88	
2025-01-08 22:47:45.90	41.13	13.96	
2025-01-08 22:47:47.14	41.31	14.05	
2025-01-08 22:47:48.37	41.49	14.14	
2025-01-08 22:47:49.60	41.67	14.23	
2025-01-08 22:47:50.82	41.85	14.32	
2025-01-08 22:47:52.06	42.03	14.41	
2025-01-08 22:47:53.29	42.21	14.50	
2025-01-08 22:47:54.52	42.40	14.59	
2025-01-08 22:47:55.75	42.58	14.68	
2025-01-08 22:47:56.98	42.77	14.77	
2025-01-08 22:47:58.22	42.96	14.86	
2025-01-08 22:47:59.46	43.15	14.95	
2025-01-08 22:48:00.68	43.33	15.04	
2025-01-08 22:48:01.91	43.52	15.13	
2025-01-08 22:48:03.14	43.72	15.22	
2025-01-08 22:48:04.37	43.91	15.31	
2025-01-08 22:48:05.62	44.10	15.40	
2025-01-08 22:48:06.86	44.30	15.49	
2025-01-08 22:48:08.08	44.49	15.58	
2025-01-08 22:48:09.33	44.69	15.67	
2025-01-08 22:48:10.57	44.89	15.76	
2025-01-08 22:48:11.79	45.09	15.85	
2025-01-08 22:48:13.02	45.29	15.94	
2025-01-08 22:48:14.25	45.49	16.03	
2025-01-08 22:48:15.50	45.70	16.12	
2025-01-08 22:48:16.74	45.91	16.21	
2025-01-08 22:48:17.97	46.11	16.30	
2025-01-08 22:48:19.20	46.32	16.39	
2025-01-08 22:48:20.43	46.52	16.48	
2025-01-08 22:48:21.66	46.73	16.58	
2025-01-08 22:48:22.91	46.95	16.67	
2025-01-08 22:48:24.14	47.16	16.76	
2025-01-08 22:48:25.37	47.37	16.85	
2025-01-08 22:48:26.61	47.59	16.94	
2025-01-08 22:48:27.84	47.80	17.03	
2025-01-08 22:48:29.07	48.02	17.12	
2025-01-08 22:48:30.30	48.23	17.21	
2025-01-08 22:48:31.52	48.45	17.30	
2025-01-08 22:48:32.76	48.67	17.39	
2025-01-08 22:48:33.99	48.89	17.48	
2025-01-08 22:48:35.22	49.12	17.56	
2025-01-08 22:48:36.45	49.34	17.65	
2025-01-08 22:48:37.69	49.57	17.74	
2025-01-08 22:48:38.92	49.79	17.83	
2025-01-08 22:48:40.15	50.02	17.92	
2025-01-08 22:48:41.37	50.25	18.01	
2025-01-08 22:48:42.60	50.48	18.10	
2025-01-08 22:48:43.85	50.72	18.19	
2025-01-08 22:48:45.08	50.95	18.28	
2025-01-08 22:48:46.31	51.18	18.37	
2025-01-08 22:48:47.53	51.42	18.45	
2025-01-08 22:48:48.76	51.65	18.54	
2025-01-08 22:48:50.01	51.90	18.63	
2025-01-08 22:48:51.23	52.13	18.72	
2025-01-08 22:48:52.46	52.37	18.81	
2025-01-08 22:48:53.69	52.62	18.89	
2025-01-08 22:48:54.93	52.86	18.98	
2025-01-08 22:48:56.17	53.11	19.07	
2025-01-08 22:48:57.40	53.36	19.16	
2025-01-08 22:48:58.63	53.60	19.24	
2025-01-08 22:48:59.85	53.85	19.33	
2025-01-08 22:49:01.08	54.10	19.42	
2025-01-08 22:49:02.31	54.35	19.50	
2025-01-08 22:49:03.54	54.61	19.59	
2025-01-08 22:49:04.77	54.86	19.67	
2025-01-08 22:49:06.00	55.12	19.76	
2025-01-08 22:49:07.25	55.38	19.85	
2025-01-08 22:49:08.48	55.64	19.93	
2025-01-08 22:49:09.70	55.90	20.01	
2025-01-08 22:49:10.93	56.16	20.10	
2025-01-08 22:49:12.17	56.43	20.18	
2025-01-08 22:49:13.40	56.69	20.27	
2025-01-08 22:49:14.63	56.96	20.35	
2025-01-08 22:49:15.86	57.23	20.43	
2025-01-08 22:49:17.09	57.49	20.52	
2025-01-08 22:49:18.32	57.76	20.60	
2025-01-08 22:49:19.55	58.04	20.68	
2025-01-08 22:49:20.77	58.31	20.76	
2025-01-08 22:49:22.02	58.59	20.84	
2025-01-08 22:49:23.25	58.86	20.92	
2025-01-08 22:49:24.48	59.14	21.00	
2025-01-08 22:49:25.71	59.42	21.08	
2025-01-08 22:49:26.95	59.70	21.16	
2025-01-08 22:49:28.21	59.99	21.24	
2025-01-08 22:49:29.45	60.28	21.32	
2025-01-08 22:49:30.68	60.56	21.40	
2025-01-08 22:49:31.91	60.85	21.48	
2025-01-08 22:49:33.14	61.13	21.56	
2025-01-08 22:49:34.37	61.42	21.63	
2025-01-08 22:49:35.60	61.71	21.71	
2025-01-08 22:49:36.83	62.00	21.78	
2025-01-08 22:49:38.06	62.30	21.86	
2025-01-08 22:49:39.30	62.59	21.93	
2025-01-08 22:49:40.53	62.89	22.01	
2025-01-08 22:49:41.77	63.19	22.08	
2025-01-08 22:49:43.00	63.49	22.16	
2025-01-08 22:49:44.23	63.79	22.23	
2025-01-08 22:49:45.45	64.09	22.30	
2025-01-08 22:49:46.68	64.39	22.37	
2025-01-08 22:49:47.92	64.70	22.44	
2025-01-08 22:49:49.15	65.00	22.51	
2025-01-08 22:49:50.39	65.31	22.58	
2025-01-08 22:49:51.62	65.62	22.65	
2025-01-08 22:49:52.84	65.93	22.72	
2025-01-08 22:49:54.07	66.24	22.78	
2025-01-08 22:49:55.30	66.55	22.85	
2025-01-08 22:49:56.53	66.86	22.92	
2025-01-08 22:49:57.76	67.18	22.98	
2025-01-08 22:49:58.99	67.49	23.05	
2025-01-08 22:50:00.23	67.81	23.11	
2025-01-08 22:50:01.46	68.13	23.17	
2025-01-08 22:50:02.70	68.46	23.24	
2025-01-08 22:50:03.92	68.77	23.30	
2025-01-08 22:50:05.16	69.10	23.36	
2025-01-08 22:50:06.39	69.42	23.42	
2025-01-08 22:50:07.63	69.75	23.48	
2025-01-08 22:50:08.86	70.08	23.54	
2025-01-08 22:50:10.10	70.41	23.60	
2025-01-08 22:50:11.33	70.73	23.65	
2025-01-08 22:50:12.56	71.06	23.71	
2025-01-08 22:50:13.79	71.39	23.76	
2025-01-08 22:50:15.02	71.73	23.82	
2025-01-08 22:50:16.24	72.06	23.87	
2025-01-08 22:50:17.47	72.39	23.92	
2025-01-08 22:50:18.70	72.73	23.97	
2025-01-08 22:50:19.93	73.06	24.02	
2025-01-08 22:50:21.17	73.40	24.07	
2025-01-08 22:50:22.40	73.74	24.12	
2025-01-08 22:50:23.63	74.08	24.17	
2025-01-08 22:50:24.86	74.42	24.22	
2025-01-08 22:50:26.09	74.76	24.26	
2025-01-08 22:50:27.32	75.10	24.31	
2025-01-08 22:50:28.55	75.45	24.35	
2025-01-08 22:50:29.78	75.79	24.40	
2025-01-08 22:50:31.01	76.14	24.44	
2025-01-08 22:50:32.25	76.49	24.48	
2025-01-08 22:50:33.48	76.83	24.52	
2025-01-08 22:50:34.70	77.18	24.56	
2025-01-08 22:50:35.94	77.53	24.60	
2025-01-08 22:50:37.17	77.88	24.63	
2025-01-08 22:50:38.40	78.23	24.67	
2025-01-08 22:50:39.63	78.58	24.70	
2025-01-08 22:50:40.86	78.93	24.74	
2025-01-08 22:50:42.09	79.29	24.77	
2025-01-08 22:50:43.32	79.64	24.80	
2025-01-08 22:50:44.54	79.99	24.83	
2025-01-08 22:50:45.77	80.35	24.86	
2025-01-08 22:50:47.01	80.70	24.89	
2025-01-08 22:50:48.23	81.06	24.92	
2025-01-08 22:50:49.46	81.41	24.94	
2025-01-08 22:50:50.70	81.77	24.97	
2025-01-08 22:50:51.93	82.13	24.99	
2025-01-08 22:50:53.16	82.49	25.01	
2025-01-08 22:50:54.39	82.85	25.03	
2025-01-08 22:50:55.63	83.21	25.05	
2025-01-08 22:50:56.85	83.57	25.07	
2025-01-08 22:50:58.08	83.93	25.09	
2025-01-08 22:50:59.31	84.29	25.11	
2025-01-08 22:51:00.54	84.65	25.12	
2025-01-08 22:51:01.77	85.01	25.14	
2025-01-08 22:51:03.00	85.37	25.15	
2025-01-08 22:51:04.23	85.73	25.16	
2025-01-08 22:51:05.46	86.10	25.17	
2025-01-08 22:51:06.69	86.46	25.18	
2025-01-08 22:51:07.94	86.83	25.19	
2025-01-08 22:51:09.17	87.19	25.20	
2025-01-08 22:51:10.41	87.55	25.21	
2025-01-08 22:51:11.64	87.92	25.21	
2025-01-08 22:51:12.87	88.28	25.22	
2025-01-08 22:51:14.12	88.65	25.22	
2025-01-08 22:51:15.36	89.02	25.22	
2025-01-08 22:51:16.61	89.39	25.22	
2025-01-08 22:51:17.84	89.75	25.22	
2025-01-08 22:51:19.07	90.11	25.22	
2025-01-08 22:51:20.29	90.47	25.21	
2025-01-08 22:51:21.53	90.84	25.21	
2025-01-08 22:51:22.77	91.21	25.20	
2025-01-08 22:51:24.00	91.57	25.19	
2025-01-08 22:51:25.23	91.93	25.19	
2025-01-08 22:51:26.46	92.29	25.18	
2025-01-08 22:51:27.69	92.66	25.17	
2025-01-08 22:51:28.92	93.02	25.15	
2025-01-08 22:51:30.15	93.38	25.14	
2025-01-08 22:51:31.38	93.74	25.13	
2025-01-08 22:51:32.61	94.10	25.11	
2025-01-08 22:51:33.84	94.46	25.10	
2025-01-08 22:51:35.08	94.83	25.08	
2025-01-08 22:51:36.31	95.19	25.06	
2025-01-08 22:51:37.54	95.55	25.04	
2025-01-08 22:51:38.77	95.91	25.02	
2025-01-08 22:51:40.00	96.26	25.00	
2025-01-08 22:51:41.23	96.62	24.97	
2025-01-08 22:51:42.46	96.98	24.95	
2025-01-08 22:51:43.69	97.34	24.92	
2025-01-08 22:51:44.93	97.70	24.89	
2025-01-08 22:51:46.17	98.06	24.87	
2025-01-08 22:51:47.40	98.41	24.84	
2025-01-08 22:51:48.64	98.77	24.81	
2025-01-08 22:51:49.87	99.12	24.78	
2025-01-08 22:51:51.10	99.48	24.74	
2025-01-08 22:51:52.34	99.83	24.71	
2025-01-08 22:51:53.57	100.18	24.68	
2025-01-08 22:51:54.80	100.54	24.64	
2025-01-08 22:51:56.03	100.89	24.60	
2025-01-08 22:51:57.27	101.24	24.56	
2025-01-08 22:51:58.52	101.59	24.53	
2025-01-08 22:51:59.75	101.94	24.49	
2025-01-08 22:52:00.98	102.29	24.44	
2025-01-08 22:52:02.21	102.63	24.40	
2025-01-08 22:52:03.44	102.98	24.36	
2025-01-08 22:52:04.67	103.32	24.32	
2025-01-08 22:52:05.90	103.67	24.27	
2025-01-08 22:52:07.13	104.01	24.23	
2025-01-08 22:52:08.36	104.35	24.18	
2025-01-08 22:52:09.58	104.69	24.13	
2025-01-08 22:52:10.82	105.03	24.08	
2025-01-08 22:52:12.05	105.37	24.03	
2025-01-08 22:52:13.28	105.71	23.98	
2025-01-08 22:52:14.51	106.04	23.93	
2025-01-08 22:52:15.75	106.38	23.88	
2025-01-08 22:52:16.99	106.72	23.82	
2025-01-08 22:52:18.22	107.05	23.77	
2025-01-08 22:52:19.44	107.38	23.71	
2025-01-08 22:52:20.68	107.71	23.66	
2025-01-08 22:52:21.91	108.04	23.60	
2025-01-08 22:52:23.14	108.37	23.54	
2025-01-08 22:52:24.38	108.70	23.48	
2025-01-08 22:52:25.63	109.03	23.42	
2025-01-08 22:52:26.86	109.36	23.36	
2025-01-08 22:52:28.09	109.68	23.30	
2025-01-08 22:52:29.32	110.00	23.24	
2025-01-08 22:52:30.55	110.32	23.18	
2025-01-08 22:52:31.78	110.64	23.12	
2025-01-08 22:52:33.00	110.96	23.05	
2025-01-08 22:52:34.24	111.28	22.99	
2025-01-08 22:52:35.47	111.60	22.92	
2025-01-08 22:52:36.70	111.91	22.86	
2025-01-08 22:52:37.93	112.22	22.79	
2025-01-08 22:52:39.16	112.54	22.72	
2025-01-08 22:52:40.38	112.84	22.65	
2025-01-08 22:52:41.61	113.15	22.58	
2025-01-08 22:52:42.84	113.46	22.52	
2025-01-08 22:52:44.07	113.77	22.45	
2025-01-08 22:52:45.31	114.08	22.37	
2025-01-08 22:52:46.53	114.38	22.30	
2025-01-08 22:52:47.76	114.68	22.23	
2025-01-08 22:52:49.00	114.98	22.16	
2025-01-08 22:52:50.22	115.28	22.08	
2025-01-08 22:52:51.46	115.58	22.01	
2025-01-08 22:52:52.69	115.88	21.94	
2025-01-08 22:52:53.91	116.17	21.86	
2025-01-08 22:52:55.14	116.47	21.79	
2025-01-08 22:52:56.38	116.76	21.71	
2025-01-08 22:52:57.62	117.06	21.63	
2025-01-08 22:52:58.86	117.35	21.55	
2025-01-08 22:53:00.08	117.63	21.48	
2025-01-08 22:53:01.31	117.92	21.40	
2025-01-08 22:53:02.54	118.21	21.32	
2025-01-08 22:53:03.77	118.49	21.24	
2025-01-08 22:53:04.99	118.77	21.16	
2025-01-08 22:53:06.24	119.06	21.08	
2025-01-08 22:53:07.47	119.34	21.00	
2025-01-08 22:53:08.70	119.62	20.92	
2025-01-08 22:53:09.93	119.90	20.84	
2025-01-08 22:53:11.15	120.17	20.76	
2025-01-08 22:53:12.40	120.45	20.68	
2025-01-08 22:53:13.63	120.72	20.59	
2025-01-08 22:53:14.88	121.00	20.51	
2025-01-08 22:53:16.11	121.27	20.43	
2025-01-08 22:53:17.34	121.54	20.34	
2025-01-08 22:53:18.58	121.81	20.26	
2025-01-08 22:53:19.81	122.07	20.17	
2025-01-08 22:53:21.04	122.34	20.09	
2025-01-08 22:53:22.27	122.60	20.01	
2025-01-08 22:53:23.50	122.86	19.92	
2025-01-08 22:53:24.75	123.13	19.83	
2025-01-08 22:53:25.98	123.39	19.75	
2025-01-08 22:53:27.21	123.64	19.66	
2025-01-08 22:53:28.44	123.90	19.58	
2025-01-08 22:53:29.66	124.15	19.49	
2025-01-08 22:53:30.89	124.41	19.40	
2025-01-08 22:53:32.12	124.66	19.32	
2025-01-08 22:53:33.35	124.91	19.23	
2025-01-08 22:53:34.58	125.16	19.14	
2025-01-08 22:53:35.81	125.40	19.06	
2025-01-08 22:53:37.04	125.65	18.97	
2025-01-08 22:53:38.27	125.90	18.88	
2025-01-08 22:53:39.50	126.14	18.79	
2025-01-08 22:53:40.71	126.38	18.70	
2025-01-08 22:53:41.93	126.62	18.62	
2025-01-08 22:53:43.16	126.86	18.53	
2025-01-08 22:53:44.39	127.09	18.44	
2025-01-08 22:53:45.62	127.33	18.35	
2025-01-08 22:53:46.85	127.57	18.26	
2025-01-08 22:53:48.08	127.80	18.17	
2025-01-08 22:53:49.31	128.03	18.08	
2025-01-08 22:53:50.54	128.26	17.99	
2025-01-08 22:53:51.77	128.49	17.90	
2025-01-08 22:53:53.00	128.72	17.81	
2025-01-08 22:53:54.23	128.95	17.72	
2025-01-08 22:53:55.46	129.18	17.63	
2025-01-08 22:53:56.69	129.40	17.54	
2025-01-08 22:53:57.92	129.63	17.45	
2025-01-08 22:53:59.15	129.85	17.36	
2025-01-08 22:54:00.38	130.07	17.27	
2025-01-08 22:54:01.61	130.29	17.18	
2025-01-08 22:54:02.84	130.51	17.09	
2025-01-08 22:54:04.07	130.72	17.00	
2025-01-08 22:54:05.30	130.94	16.91	
2025-01-08 22:54:06.54	131.16	16.82	
2025-01-08 22:54:07.78	131.37	16.73	
2025-01-08 22:54:09.00	131.58	16.64	
2025-01-08 22:54:10.23	131.79	16.55	
2025-01-08 22:54:11.46	132.00	16.46	
2025-01-08 22:54:12.70	132.21	16.36	
2025-01-08 22:54:13.93	132.42	16.27	
2025-01-08 22:54:15.15	132.62	16.18	
2025-01-08 22:54:16.38	132.83	16.09	
2025-01-08 22:54:17.61	133.03	16.00	
2025-01-08 22:54:18.84	133.24	15.91	
2025-01-08 22:54:20.08	133.44	15.82	
2025-01-08 22:54:21.31	133.64	15.73	
2025-01-08 22:54:22.54	133.84	15.64	
2025-01-08 22:54:23.76	134.03	15.55	
2025-01-08 22:54:24.99	134.23	15.46	
2025-01-08 22:54:26.22	134.43	15.37	
2025-01-08 22:54:27.46	134.62	15.27	
2025-01-08 22:54:28.69	134.81	15.18	
2025-01-08 22:54:29.92	135.01	15.09	
2025-01-08 22:54:31.17	135.20	15.00	
2025-01-08 22:54:32.39	135.39	14.91	
2025-01-08 22:54:33.63	135.58	14.82	
2025-01-08 22:54:34.85	135.76	14.73	
2025-01-08 22:54:36.08	135.95	14.64	
2025-01-08 22:54:37.33	136.14	14.55	
2025-01-08 22:54:38.56	136.32	14.46	
2025-01-08 22:54:39.80	136.51	14.37	
2025-01-08 22:54:41.04	136.69	14.28	
2025-01-08 22:54:42.28	136.87	14.19	
2025-01-08 22:54:43.53	137.06	14.09	
2025-01-08 22:54:44.75	137.23	14.00	
2025-01-08 22:54:45.98	137.41	13.91	
2025-01-08 22:54:47.21	137.59	13.82	
2025-01-08 22:54:48.46	137.77	13.73	
2025-01-08 22:54:49.69	137.94	13.64	
2025-01-08 22:54:50.92	138.12	13.55	
2025-01-08 22:54:52.15	138.29	13.47	
2025-01-08 22:54:53.38	138.46	13.38	
2025-01-08 22:54:54.61	138.63	13.29	
2025-01-08 22:54:55.85	138.80	13.20	
2025-01-08 22:54:57.08	138.97	13.11	
2025-01-08 22:54:58.31	139.14	13.02	
2025-01-08 22:54:59.54	139.30	12.93	
2025-01-08 22:55:00.77	139.47	12.84	
2025-01-08 22:55:02.00	139.63	12.75	
2025-01-08 22:55:03.24	139.80	12.66	
2025-01-08 22:55:04.47	139.96	12.57	
2025-01-08 22:55:05.70	140.12	12.49	
2025-01-08 22:55:06.93	140.29	12.40	
2025-01-08 22:55:08.16	140.45	12.31	
2025-01-08 22:55:09.39	140.60	12.22	
2025-01-08 22:55:10.62	140.76	12.13	
2025-01-08 22:55:11.86	140.92	12.05	
2025-01-08 22:55:13.09	141.08	11.96	
2025-01-08 22:55:14.33	141.23	11.87	
2025-01-08 22:55:15.57	141.39	11.78	
2025-01-08 22:55:16.80	141.54	11.70	
2025-01-08 22:55:18.03	141.70	11.61	
2025-01-08 22:55:19.27	141.85	11.52	
2025-01-08 22:55:20.50	142.00	11.43	
2025-01-08 22:55:21.73	142.15	11.35	
2025-01-08 22:55:22.96	142.30	11.26	
2025-01-08 22:55:24.19	142.45	11.17	
2025-01-08 22:55:25.44	142.60	11.09	
2025-01-08 22:55:26.67	142.75	11.00	
2025-01-08 22:55:27.90	142.89	10.91	
2025-01-08 22:55:29.13	143.04	10.83	
2025-01-08 22:55:30.36	143.18	10.74	
2025-01-08 22:55:31.59	143.33	10.66	
2025-01-08 22:55:32.82	143.47	10.57	
2025-01-08 22:55:34.05	143.61	10.49	
2025-01-08 22:55:35.28	143.75	10.40	
2025-01-08 22:55:36.52	143.89	10.32	
2025-01-08 22:55:37.76	144.03	10.23	
2025-01-08 22:55:38.98	144.17	10.15	
2025-01-08 22:55:40.21	144.31	10.06	
2025-01-08 22:55:41.44	144.45	9.98	
2025-01-08 22:55:42.66	144.58	9.89	
2025-01-08 22:55:43.89	144.72	9.81	
2025-01-08 22:55:45.13	144.85	9.73	
2025-01-08 22:55:46.36	144.99	9.64	
2025-01-08 22:55:47.61	145.12	9.56	
2025-01-08 22:55:48.84	145.26	9.47	
2025-01-08 22:55:50.08	145.39	9.39	
2025-01-08 22:55:51.31	145.52	9.31	
2025-01-08 22:55:52.54	145.65	9.22	
2025-01-08 22:55:53.77	145.78	9.14	
2025-01-08 22:55:55.01	145.91	9.06	
2025-01-08 22:55:56.24	146.04	8.97	
2025-01-08 22:55:57.47	146.17	8.89	
2025-01-08 22:55:58.69	146.29	8.81	
2025-01-08 22:55:59.93	146.42	8.73	
2025-01-08 22:56:01.17	146.55	8.64	
2025-01-08 22:56:02.40	146.67	8.56	
2025-01-08 22:56:03.63	146.80	8.48	
2025-01-08 22:56:04.86	146.92	8.40	
2025-01-08 22:56:06.09	147.04	8.32	
2025-01-08 22:56:07.32	147.17	8.24	
2025-01-08 22:56:08.55	147.29	8.16	
2025-01-08 22:56:09.78	147.41	8.07	
2025-01-08 22:56:11.00	147.53	7.99	
2025-01-08 22:56:12.23	147.65	7.91	
2025-01-08 22:56:13.46	147.77	7.83	
2025-01-08 22:56:14.69	147.89	7.75	
2025-01-08 22:56:15.92	148.00	7.67	
2025-01-08 22:56:17.15	148.12	7.59	
2025-01-08 22:56:18.38	148.24	7.51	
2025-01-08 22:56:19.61	148.35	7.43	
2025-01-08 22:56:20.84	148.47	7.35	
2025-01-08 22:56:22.07	148.58	7.27	
2025-01-08 22:56:23.30	148.70	7.20	
2025-01-08 22:56:24.52	148.81	7.12	
2025-01-08 22:56:25.75	148.92	7.04	
2025-01-08 22:56:26.98	149.04	6.96	
2025-01-08 22:56:28.21	149.15	6.88	
2025-01-08 22:56:29.44	149.26	6.80	
2025-01-08 22:56:30.67	149.37	6.72	
2025-01-08 22:56:31.90	149.48	6.65	
2025-01-08 22:56:33.13	149.59	6.57	
2025-01-08 22:56:34.37	149.70	6.49	
2025-01-08 22:56:35.59	149.81	6.41	
2025-01-08 22:56:36.83	149.92	6.33	
2025-01-08 22:56:38.06	150.02	6.26	
2025-01-08 22:56:39.29	150.13	6.18	
2025-01-08 22:56:40.52	150.24	6.10	
2025-01-08 22:56:41.75	150.34	6.02	
2025-01-08 22:56:42.98	150.45	5.95	
2025-01-08 22:56:44.21	150.55	5.87	
2025-01-08 22:56:45.44	150.66	5.79	
2025-01-08 22:56:46.66	150.76	5.72	
2025-01-08 22:56:47.90	150.86	5.64	
2025-01-08 22:56:49.13	150.97	5.57	
2025-01-08 22:56:50.35	151.07	5.49	
2025-01-08 22:56:51.58	151.17	5.41	
2025-01-08 22:56:52.81	151.27	5.34	
2025-01-08 22:56:54.06	151.37	5.26	
2025-01-08 22:56:55.28	151.47	5.19	
2025-01-08 22:56:56.51	151.57	5.11	
2025-01-08 22:56:57.74	151.67	5.04	
2025-01-08 22:56:58.99	151.77	4.96	
2025-01-08 22:57:00.22	151.87	4.89	
2025-01-08 22:57:01.45	151.97	4.81	
2025-01-08 22:57:02.68	152.06	4.74	
2025-01-08 22:57:03.91	152.16	4.66	
2025-01-08 22:57:05.14	152.26	4.59	
2025-01-08 22:57:06.37	152.35	4.51	
2025-01-08 22:57:07.62	152.45	4.44	
2025-01-08 22:57:08.84	152.54	4.37	
2025-01-08 22:57:10.08	152.64	4.29	
2025-01-08 22:57:11.31	152.73	4.22	
2025-01-08 22:57:12.55	152.83	4.14	
2025-01-08 22:57:13.78	152.92	4.07	

#Closed at: 2025-01-08 22:57:15