passes_logs/2025/01/27/Planum_Noyabrsk/Planum_Noyabrsk__20250127_234845_METEOR-M2_4_rec.log

#Pass ID: 20250127_234845_METEOR-M2 4
#Satellite: METEOR-M2 4
#Configuration: METEOR-M2 4
#Start time: 2025-01-27 23:48:50.839984

#LorettStation: 1.0.0 05.05.2024
#Station: Planum_Noyabrsk
#Location: 75.446886 lon 63.207202 lat
#TLE: 1 59051U 24039A   25027.47939312  .00000117  00000+0  71989-4 0  9998
#TLE: 2 59051  98.6310 350.2269 0006797 185.6342 174.4761 14.22329421 47375

#Time	Az	El	Level	SNR
2025-01-27 23:48:57.023270	359.7	31.0	-65.5	15.6
2025-01-27 23:48:58.165239	359.5	31.2	-65.4	14.8
2025-01-27 23:48:59.307207	359.2	31.4	-65.6	15.7
2025-01-27 23:49:00.447181	359.0	31.6	-65.6	16.0
2025-01-27 23:49:01.588663	358.8	31.8	-65.6	15.3
2025-01-27 23:49:02.730142	358.6	32.0	-66.1	15.3
2025-01-27 23:49:03.871114	358.3	32.2	-65.9	15.3
2025-01-27 23:49:05.012591	358.1	32.4	-65.5	13.6
2025-01-27 23:49:06.154560	357.9	32.6	-65.8	14.3
2025-01-27 23:49:07.295531	357.6	32.8	-65.7	14.6
2025-01-27 23:49:08.437500	357.4	33.0	-65.8	13.8
2025-01-27 23:49:09.579468	357.1	33.2	-63.9	10.7
2025-01-27 23:49:10.721437	356.9	33.4	-65.1	13.9
2025-01-27 23:49:11.868392	356.6	33.6	-65.6	12.8
2025-01-27 23:49:13.008872	356.4	33.8	-65.2	12.4
2025-01-27 23:49:14.151838	356.1	34.0	-64.9	11.1
2025-01-27 23:49:15.292319	355.9	34.2	-66.1	12.8
2025-01-27 23:49:16.435285	355.6	34.4	-65.4	12.2
2025-01-27 23:49:17.577254	355.3	34.6	-62.8	8.1
2025-01-27 23:49:18.719240	355.1	34.8	-64.0	12.1
2025-01-27 23:49:19.862206	354.8	35.0	-65.7	11.6
2025-01-27 23:49:21.004174	354.5	35.2	-67.4	11.7
2025-01-27 23:49:22.145651	354.2	35.5	-65.9	9.4
2025-01-27 23:49:23.287620	353.9	35.7	-66.3	10.3
2025-01-27 23:49:24.428592	353.7	35.9	-66.9	10.3
2025-01-27 23:49:25.569562	353.4	36.1	-63.3	8.5
2025-01-27 23:49:26.710534	353.1	36.3	-64.4	8.9
2025-01-27 23:49:27.852502	352.8	36.5	-65.6	10.1
2025-01-27 23:49:28.994001	352.5	36.7	-65.6	10.2
2025-01-27 23:49:30.133975	352.1	36.9	-63.2	7.5
2025-01-27 23:49:31.276941	351.8	37.1	-63.1	7.6
2025-01-27 23:49:32.418424	351.5	37.4	-65.4	8.1
2025-01-27 23:49:33.560392	351.2	37.6	-64.1	5.7
2025-01-27 23:49:34.701363	350.9	37.8	-63.9	8.1
2025-01-27 23:49:35.843331	350.5	38.0	-64.1	5.0
2025-01-27 23:49:36.984303	350.2	38.2	-63.1	3.4
2025-01-27 23:49:38.125286	349.9	38.4	-64.1	6.4
2025-01-27 23:49:39.267243	349.5	38.6	-64.3	5.0
2025-01-27 23:49:40.410209	349.2	38.8	-63.5	5.5
2025-01-27 23:49:41.555170	348.8	39.1	-59.8	0.0
2025-01-27 23:49:42.696140	348.5	39.3	-58.7	0.0
2025-01-27 23:49:43.838109	348.1	39.5	-62.2	4.3
2025-01-27 23:49:44.979080	347.7	39.7	-61.9	1.0
2025-01-27 23:49:46.123043	347.4	39.9	-62.2	0.0
2025-01-27 23:49:47.263524	347.0	40.1	-61.5	4.2
2025-01-27 23:49:48.405492	346.6	40.3	-63.1	3.8
2025-01-27 23:49:49.546464	346.2	40.6	-59.9	0.0
2025-01-27 23:49:50.689942	345.8	40.8	-61.0	0.0
2025-01-27 23:49:51.830913	345.4	41.0	-57.4	0.0
2025-01-27 23:49:52.974876	345.0	41.2	-64.7	0.2
2025-01-27 23:49:54.117353	344.6	41.4	-61.1	0.0
2025-01-27 23:49:55.257838	344.2	41.6	-61.6	1.0
2025-01-27 23:49:56.399806	343.8	41.8	-62.7	0.0
2025-01-27 23:49:57.546286	343.3	42.1	-57.3	0.0
2025-01-27 23:49:58.687257	342.9	42.3	-57.8	0.0
2025-01-27 23:49:59.833215	342.5	42.5	-62.6	0.0
2025-01-27 23:50:00.976180	342.0	42.7	-62.0	0.0
2025-01-27 23:50:02.117152	341.6	42.9	-62.0	0.0
2025-01-27 23:50:03.258123	341.1	43.1	-64.9	0.7
2025-01-27 23:50:04.399094	340.7	43.3	-63.8	0.0
2025-01-27 23:50:05.541063	340.2	43.5	-61.8	0.0
2025-01-27 23:50:06.683031	339.7	43.7	-60.0	0.0
2025-01-27 23:50:07.824510	339.2	43.9	-59.3	0.0
2025-01-27 23:50:08.966479	338.8	44.1	-64.0	0.0
2025-01-27 23:50:10.107450	338.3	44.3	-66.5	0.0
2025-01-27 23:50:11.248421	337.8	44.5	-63.8	2.0
2025-01-27 23:50:12.390895	337.3	44.7	-63.8	0.6
2025-01-27 23:50:13.530868	336.7	44.9	-64.7	0.0
2025-01-27 23:50:14.672348	336.2	45.1	-61.6	0.0
2025-01-27 23:50:15.814316	335.7	45.3	-58.0	0.0
2025-01-27 23:50:16.956285	335.2	45.5	-65.2	3.6
2025-01-27 23:50:18.095277	334.6	45.7	-64.3	2.2
2025-01-27 23:50:19.238243	334.1	45.9	-63.5	0.0
2025-01-27 23:50:20.379214	333.5	46.1	-63.9	0.0
2025-01-27 23:50:21.523177	333.0	46.3	-65.0	1.0
2025-01-27 23:50:22.663151	332.4	46.4	-62.2	0.0
2025-01-27 23:50:23.805120	331.9	46.6	-64.2	2.2
2025-01-27 23:50:24.949083	331.3	46.8	-63.6	4.5
2025-01-27 23:50:26.092049	330.7	47.0	-62.9	4.6
2025-01-27 23:50:27.235015	330.1	47.1	-62.7	2.6
2025-01-27 23:50:28.380973	329.5	47.3	-62.2	4.8
2025-01-27 23:50:29.521944	328.9	47.5	-61.6	3.6
2025-01-27 23:50:30.663912	328.3	47.6	-59.9	0.0
2025-01-27 23:50:31.804397	327.7	47.8	-62.3	3.1
2025-01-27 23:50:32.946365	327.1	48.0	-60.5	0.0
2025-01-27 23:50:34.090328	326.4	48.1	-63.1	3.7
2025-01-27 23:50:35.233804	325.8	48.3	-63.8	4.1
2025-01-27 23:50:36.375772	325.2	48.4	-64.8	5.4
2025-01-27 23:50:37.516743	324.5	48.6	-63.1	4.0
2025-01-27 23:50:38.658712	323.9	48.7	-64.5	1.9
2025-01-27 23:50:39.799682	323.2	48.8	-64.2	3.7
2025-01-27 23:50:40.942648	322.5	49.0	-65.4	6.7
2025-01-27 23:50:42.082622	321.9	49.1	-65.2	7.2
2025-01-27 23:50:43.223103	321.2	49.2	-66.0	8.1
2025-01-27 23:50:44.365070	320.5	49.3	-66.2	8.0
2025-01-27 23:50:45.506553	319.8	49.5	-63.8	5.7
2025-01-27 23:50:46.647522	319.1	49.6	-65.5	10.0
2025-01-27 23:50:47.790489	318.4	49.7	-67.1	7.7
2025-01-27 23:50:48.931459	317.7	49.8	-67.1	7.0
2025-01-27 23:50:50.073428	317.0	49.9	-68.2	8.4
2025-01-27 23:50:51.215396	316.3	50.0	-67.8	9.5
2025-01-27 23:50:52.357365	315.6	50.1	-68.0	8.6
2025-01-27 23:50:53.503323	314.9	50.2	-67.1	6.8
2025-01-27 23:50:54.646289	314.1	50.3	-67.1	2.7
2025-01-27 23:50:55.786774	313.4	50.3	-68.3	8.4
2025-01-27 23:50:56.929741	312.7	50.4	-68.0	8.4
2025-01-27 23:50:58.070711	311.9	50.5	-67.5	6.8
2025-01-27 23:50:59.210684	311.2	50.5	-68.0	7.7
2025-01-27 23:51:00.357640	310.5	50.6	-67.3	8.9
2025-01-27 23:51:01.499609	309.7	50.7	-66.6	8.7
2025-01-27 23:51:02.640092	309.0	50.7	-65.7	1.7
2025-01-27 23:51:03.784056	308.2	50.7	-66.3	8.8
2025-01-27 23:51:04.927022	307.5	50.8	-63.5	3.8
2025-01-27 23:51:06.069495	306.7	50.8	-66.1	10.0
2025-01-27 23:51:07.211464	306.0	50.8	-66.9	9.9
2025-01-27 23:51:08.352435	305.2	50.9	-66.7	10.5
2025-01-27 23:51:09.494911	304.4	50.9	-65.9	9.9
2025-01-27 23:51:10.634886	303.7	50.9	-66.4	9.5
2025-01-27 23:51:11.776854	302.9	50.9	-66.2	10.5
2025-01-27 23:51:12.916828	302.2	50.9	-66.1	11.2
2025-01-27 23:51:14.059359	301.4	50.9	-65.8	8.9
2025-01-27 23:51:15.200329	300.6	50.9	-66.5	10.3
2025-01-27 23:51:16.342298	299.9	50.9	-66.3	9.5
2025-01-27 23:51:17.482781	299.1	50.9	-65.8	8.0
2025-01-27 23:51:18.624750	298.4	50.8	-66.4	6.7
2025-01-27 23:51:19.765721	297.6	50.8	-66.9	7.8
2025-01-27 23:51:20.907200	296.9	50.8	-67.5	6.7
2025-01-27 23:51:22.048171	296.1	50.7	-67.7	8.0
2025-01-27 23:51:23.194129	295.4	50.7	-67.6	7.4
2025-01-27 23:51:24.337095	294.6	50.6	-68.1	8.5
2025-01-27 23:51:25.478066	293.9	50.6	-67.0	8.8
2025-01-27 23:51:26.621032	293.1	50.5	-67.8	9.6
2025-01-27 23:51:27.761006	292.4	50.4	-68.0	9.4
2025-01-27 23:51:28.902974	291.7	50.4	-67.9	9.4
2025-01-27 23:51:30.042948	290.9	50.3	-67.4	8.9
2025-01-27 23:51:31.185914	290.2	50.2	-68.0	10.7
2025-01-27 23:51:32.326885	289.5	50.1	-68.1	11.1
2025-01-27 23:51:33.468854	288.8	50.0	-66.9	9.3
2025-01-27 23:51:34.632784	288.0	49.9	-67.3	5.9
2025-01-27 23:51:35.774752	287.3	49.8	-68.9	11.0
2025-01-27 23:51:36.915724	286.6	49.7	-68.9	11.0
2025-01-27 23:51:38.058200	285.9	49.6	-69.0	10.1
2025-01-27 23:51:39.203161	285.2	49.5	-69.1	10.8
2025-01-27 23:51:40.344132	284.5	49.4	-68.6	10.7
2025-01-27 23:51:41.487098	283.8	49.3	-67.5	9.4
2025-01-27 23:51:42.629067	283.2	49.2	-68.8	10.4
2025-01-27 23:51:43.774027	282.5	49.0	-69.1	10.9
2025-01-27 23:51:44.917499	281.8	48.9	-68.9	9.8
2025-01-27 23:51:46.061463	281.1	48.8	-68.9	10.5
2025-01-27 23:51:47.202433	280.5	48.6	-68.2	9.0
2025-01-27 23:51:48.345400	279.8	48.5	-68.8	11.0
2025-01-27 23:51:49.485373	279.2	48.3	-67.6	10.0
2025-01-27 23:51:50.629337	278.6	48.2	-68.5	11.1
2025-01-27 23:51:51.770307	277.9	48.0	-68.6	11.5
2025-01-27 23:51:52.912276	277.3	47.9	-68.3	11.4
2025-01-27 23:51:54.053247	276.7	47.7	-68.5	12.3
2025-01-27 23:51:55.195240	276.1	47.5	-68.8	12.8
2025-01-27 23:51:56.335214	275.5	47.4	-68.8	12.0
2025-01-27 23:51:57.477182	274.9	47.2	-67.9	12.6
2025-01-27 23:51:58.617664	274.3	47.0	-68.1	13.3
2025-01-27 23:51:59.759632	273.7	46.9	-67.6	13.1
2025-01-27 23:52:00.901600	273.1	46.7	-68.2	14.7
2025-01-27 23:52:02.043082	272.5	46.5	-67.9	14.1
2025-01-27 23:52:03.187046	272.0	46.3	-68.0	13.0
2025-01-27 23:52:04.330012	271.4	46.1	-67.8	13.3
2025-01-27 23:52:05.472490	270.8	45.9	-67.5	13.0
2025-01-27 23:52:06.613460	270.3	45.8	-68.3	11.7
2025-01-27 23:52:07.755429	269.7	45.6	-68.0	13.0
2025-01-27 23:52:08.896400	269.2	45.4	-67.3	9.7
2025-01-27 23:52:10.037390	268.7	45.2	-68.3	13.1
2025-01-27 23:52:11.179359	268.2	45.0	-68.7	13.3
2025-01-27 23:52:12.321327	267.6	44.8	-69.1	12.6
2025-01-27 23:52:13.462299	267.1	44.6	-68.9	13.3
2025-01-27 23:52:14.604267	266.6	44.4	-69.0	13.3
2025-01-27 23:52:15.744241	266.1	44.2	-68.9	13.0
2025-01-27 23:52:16.886715	265.7	44.0	-69.1	13.0
2025-01-27 23:52:18.027686	265.2	43.8	-69.0	13.3
2025-01-27 23:52:19.171650	264.7	43.6	-69.3	13.5
2025-01-27 23:52:20.316610	264.2	43.4	-69.4	13.5
2025-01-27 23:52:21.457581	263.8	43.2	-69.1	13.9
2025-01-27 23:52:22.599551	263.3	43.0	-69.1	13.6
2025-01-27 23:52:23.747503	262.8	42.7	-69.1	13.5
2025-01-27 23:52:24.890469	262.4	42.5	-69.2	14.0
2025-01-27 23:52:26.032437	262.0	42.3	-69.2	13.5
2025-01-27 23:52:27.175403	261.5	42.1	-69.2	13.9
2025-01-27 23:52:28.316374	261.1	41.9	-69.0	13.9
2025-01-27 23:52:29.458343	260.7	41.7	-68.7	13.9
2025-01-27 23:52:30.599827	260.2	41.5	-68.8	13.8
2025-01-27 23:52:31.740798	259.8	41.3	-68.8	13.3
2025-01-27 23:52:32.882767	259.4	41.0	-68.8	13.4
2025-01-27 23:52:34.025242	259.0	40.8	-68.6	13.3
2025-01-27 23:52:35.165722	258.6	40.6	-68.7	13.5
2025-01-27 23:52:36.308688	258.2	40.4	-68.5	13.7
2025-01-27 23:52:37.450657	257.8	40.2	-68.4	13.7
2025-01-27 23:52:38.590630	257.5	40.0	-68.5	13.7
2025-01-27 23:52:39.732599	257.1	39.8	-68.5	13.5
2025-01-27 23:52:40.875075	256.7	39.5	-68.6	13.9
2025-01-27 23:52:42.019038	256.3	39.3	-68.3	13.7
2025-01-27 23:52:43.160009	256.0	39.1	-68.8	13.8
2025-01-27 23:52:44.301488	255.6	38.9	-68.5	14.6
2025-01-27 23:52:45.444453	255.3	38.7	-68.4	13.8
2025-01-27 23:52:46.586422	254.9	38.5	-68.1	14.0
2025-01-27 23:52:47.729388	254.6	38.2	-68.5	14.6
2025-01-27 23:52:48.870865	254.2	38.0	-68.4	14.2
2025-01-27 23:52:50.014828	253.9	37.8	-68.5	14.5
2025-01-27 23:52:51.156305	253.6	37.6	-68.6	14.7
2025-01-27 23:52:52.298274	253.3	37.4	-68.3	14.2
2025-01-27 23:52:53.439245	252.9	37.2	-68.5	14.0
2025-01-27 23:52:54.581214	252.6	37.0	-68.7	14.6
2025-01-27 23:52:55.722185	252.3	36.7	-68.2	14.1
2025-01-27 23:52:56.864153	252.0	36.5	-68.6	14.9
2025-01-27 23:52:58.005632	251.7	36.3	-68.7	15.1
2025-01-27 23:52:59.146603	251.4	36.1	-68.5	14.8
2025-01-27 23:53:00.286577	251.1	35.9	-67.8	14.1
2025-01-27 23:53:01.429057	250.8	35.7	-68.2	14.4
2025-01-27 23:53:02.569537	250.5	35.5	-68.5	15.3
2025-01-27 23:53:03.712503	250.2	35.3	-69.0	15.4
2025-01-27 23:53:04.856466	250.0	35.1	-68.9	14.8
2025-01-27 23:53:05.997438	249.7	34.8	-68.4	14.4
2025-01-27 23:53:07.141401	249.4	34.6	-69.0	14.5
2025-01-27 23:53:08.282372	249.1	34.4	-68.7	14.6
2025-01-27 23:53:09.423849	248.9	34.2	-67.4	11.6
2025-01-27 23:53:10.565817	248.6	34.0	-67.7	12.8
2025-01-27 23:53:11.707786	248.3	33.8	-68.0	13.5
2025-01-27 23:53:12.849263	248.1	33.6	-68.2	14.6
2025-01-27 23:53:13.991231	247.8	33.4	-67.5	12.9
2025-01-27 23:53:15.133201	247.6	33.2	-68.0	13.8
2025-01-27 23:53:16.273680	247.3	33.0	-67.6	13.1
2025-01-27 23:53:17.414652	247.1	32.8	-67.0	12.5
2025-01-27 23:53:18.556620	246.8	32.6	-67.9	14.2
2025-01-27 23:53:19.697591	246.6	32.4	-67.6	14.1
2025-01-27 23:53:20.840557	246.4	32.2	-67.9	14.3
2025-01-27 23:53:21.984521	246.1	32.0	-67.9	14.9
2025-01-27 23:53:23.130497	245.9	31.8	-68.1	15.0
2025-01-27 23:53:24.273463	245.7	31.6	-68.3	15.2
2025-01-27 23:53:25.414435	245.5	31.4	-68.2	14.6
2025-01-27 23:53:26.555914	245.2	31.2	-67.0	12.6
2025-01-27 23:53:27.698880	245.0	31.0	-66.9	13.1
2025-01-27 23:53:28.839851	244.8	30.8	-67.0	12.2
2025-01-27 23:53:29.983814	244.6	30.6	-67.4	15.1
2025-01-27 23:53:31.129773	244.4	30.4	-67.4	14.0
2025-01-27 23:53:32.271740	244.2	30.2	-68.3	13.3
2025-01-27 23:53:33.417208	244.0	30.1	-70.2	0.0
#Closed at: 2025-01-27 23:48:45.844947