passes_logs/2025/01/27/Planum_Noyabrsk/Planum_Noyabrsk__20250127_045138_NOAA_19_rec.log

#Pass ID: 20250127_045138_NOAA 19
#Satellite: NOAA 19
#Configuration: NOAA 19
#Start time: 2025-01-27 04:51:43.036776

#LorettStation: 1.0.0 05.05.2024
#Station: Planum_Noyabrsk
#Location: 75.446886 lon 63.207202 lat
#TLE: 1 33591U 09005A   25026.61487716  .00000371  00000+0  22199-3 0  9996
#TLE: 2 33591  99.0176  90.4659 0014024  26.0549 334.1326 14.13269616822929

#Time	Az	El	Level	SNR
2025-01-27 04:51:55.284070	47.2	31.9	-57.4	0.0
2025-01-27 04:51:56.426050	47.4	32.1	-60.6	0.0
2025-01-27 04:51:57.567027	47.7	32.2	-63.3	7.1
2025-01-27 04:51:58.710542	47.9	32.4	-57.0	0.0
2025-01-27 04:51:59.852515	48.2	32.6	-61.6	5.0
2025-01-27 04:52:00.997996	48.5	32.8	-61.7	0.0
2025-01-27 04:52:02.142495	48.7	33.0	-59.6	0.0
2025-01-27 04:52:03.283475	49.0	33.1	-60.3	0.0
2025-01-27 04:52:04.425452	49.3	33.3	-60.0	0.0
2025-01-27 04:52:05.572924	49.5	33.5	-60.7	4.5
2025-01-27 04:52:06.712906	49.8	33.7	-60.6	2.3
2025-01-27 04:52:07.853885	50.1	33.9	-61.2	0.0
2025-01-27 04:52:08.995371	50.4	34.1	-57.4	0.0
2025-01-27 04:52:10.137348	50.7	34.2	-62.5	8.0
2025-01-27 04:52:11.278327	51.0	34.4	-60.4	0.0
2025-01-27 04:52:12.421302	51.3	34.6	-58.8	0.0
2025-01-27 04:52:13.565274	51.6	34.8	-58.8	3.3
2025-01-27 04:52:14.708247	51.9	35.0	-56.3	0.0
2025-01-27 04:52:15.848739	52.2	35.2	-58.6	1.2
2025-01-27 04:52:16.991711	52.5	35.3	-57.5	0.0
2025-01-27 04:52:18.133688	52.8	35.5	-56.8	0.0
2025-01-27 04:52:19.276173	53.1	35.7	-59.1	5.2
2025-01-27 04:52:20.417152	53.4	35.9	-55.9	0.0
2025-01-27 04:52:21.559130	53.7	36.1	-56.6	0.0
2025-01-27 04:52:22.700109	54.1	36.3	-57.8	0.0
2025-01-27 04:52:23.843084	54.4	36.4	-58.1	0.0
2025-01-27 04:52:24.987054	54.7	36.6	-58.8	0.0
2025-01-27 04:52:26.132023	55.1	36.8	-56.6	0.0
2025-01-27 04:52:27.274001	55.4	37.0	-54.9	0.0
2025-01-27 04:52:28.416974	55.8	37.2	-61.5	0.0
2025-01-27 04:52:29.558463	56.1	37.4	-55.3	0.0
2025-01-27 04:52:30.699443	56.5	37.6	-58.7	0.0
2025-01-27 04:52:31.840928	56.8	37.7	-57.7	0.0
2025-01-27 04:52:32.981909	57.2	37.9	-58.7	0.0
2025-01-27 04:52:34.122888	57.5	38.1	-57.4	0.0
2025-01-27 04:52:35.264864	57.9	38.3	-58.4	0.0
2025-01-27 04:52:36.405355	58.3	38.5	-57.1	0.0
2025-01-27 04:52:37.547330	58.6	38.7	-60.3	0.0
2025-01-27 04:52:38.690304	59.0	38.8	-55.5	0.0
2025-01-27 04:52:39.833279	59.4	39.0	-57.5	0.0
2025-01-27 04:52:40.973277	59.8	39.2	-59.1	0.0
2025-01-27 04:52:42.114257	60.2	39.4	-57.4	0.0
2025-01-27 04:52:43.256234	60.6	39.6	-55.7	0.0
2025-01-27 04:52:44.396723	61.0	39.7	-57.5	0.0
2025-01-27 04:52:45.541693	61.4	39.9	-52.8	0.0
2025-01-27 04:52:46.684667	61.8	40.1	-58.2	0.0
2025-01-27 04:52:47.825156	62.2	40.3	-55.4	0.0
2025-01-27 04:52:48.966136	62.6	40.5	-55.1	0.0
2025-01-27 04:52:50.107622	63.1	40.6	-57.4	0.0
2025-01-27 04:52:51.250634	63.5	40.8	-55.6	1.1
2025-01-27 04:52:52.392120	63.9	41.0	-55.6	0.7
2025-01-27 04:52:53.534097	64.4	41.2	-58.4	1.9
2025-01-27 04:52:54.680572	64.8	41.3	-57.3	0.0
2025-01-27 04:52:55.820553	65.3	41.5	-59.0	0.3
2025-01-27 04:52:56.964525	65.7	41.7	-58.3	2.6
2025-01-27 04:52:58.106502	66.2	41.8	-59.2	0.1
2025-01-27 04:52:59.250473	66.6	42.0	-58.0	0.0
2025-01-27 04:53:00.392450	67.1	42.2	-52.3	0.0
2025-01-27 04:53:01.535973	67.6	42.3	-57.9	0.0
2025-01-27 04:53:02.676952	68.0	42.5	-57.5	2.4
2025-01-27 04:53:03.821921	68.5	42.7	-58.0	3.3
2025-01-27 04:53:04.963407	69.0	42.8	-58.7	3.5
2025-01-27 04:53:06.107379	69.5	43.0	-59.1	3.2
2025-01-27 04:53:07.250354	70.0	43.1	-56.5	0.0
2025-01-27 04:53:08.393328	70.5	43.3	-57.7	0.0
2025-01-27 04:53:09.535304	71.0	43.5	-55.9	0.0
2025-01-27 04:53:10.677281	71.5	43.6	-59.9	0.0
2025-01-27 04:53:11.822267	72.0	43.8	-59.3	0.0
2025-01-27 04:53:12.964243	72.5	43.9	-54.8	0.0
2025-01-27 04:53:14.105224	73.1	44.1	-55.6	0.0
2025-01-27 04:53:15.248705	73.6	44.2	-57.5	0.0
2025-01-27 04:53:16.389685	74.1	44.3	-55.3	0.0
2025-01-27 04:53:17.531661	74.7	44.5	-57.3	0.0
2025-01-27 04:53:18.675143	75.2	44.6	-58.6	3.7
2025-01-27 04:53:19.817120	75.7	44.7	-55.7	0.0
2025-01-27 04:53:20.961091	76.3	44.9	-57.6	0.0
2025-01-27 04:53:22.102577	76.9	45.0	-57.5	1.3
2025-01-27 04:53:23.248544	77.4	45.1	-58.1	0.0
2025-01-27 04:53:24.390521	78.0	45.3	-56.4	0.7
2025-01-27 04:53:25.533495	78.5	45.4	-57.3	1.6
2025-01-27 04:53:26.674474	79.1	45.5	-57.4	0.5
2025-01-27 04:53:27.817449	79.7	45.6	-57.9	0.5
2025-01-27 04:53:28.959443	80.3	45.7	-56.2	0.0
2025-01-27 04:53:30.103415	80.9	45.9	-56.0	0.0
2025-01-27 04:53:31.243397	81.5	46.0	-56.4	0.0
2025-01-27 04:53:32.386372	82.1	46.1	-57.5	0.0
2025-01-27 04:53:33.527350	82.6	46.2	-56.3	0.0
2025-01-27 04:53:34.669835	83.3	46.3	-54.8	0.0
2025-01-27 04:53:35.814313	83.9	46.4	-55.9	2.8
2025-01-27 04:53:36.956290	84.5	46.5	-57.5	1.8
2025-01-27 04:53:38.098266	85.1	46.5	-55.7	0.0
2025-01-27 04:53:39.239752	85.7	46.6	-54.1	0.0
2025-01-27 04:53:40.380731	86.3	46.7	-57.6	5.3
2025-01-27 04:53:41.521711	86.9	46.8	-58.2	2.1
2025-01-27 04:53:42.663688	87.6	46.9	-55.6	0.0
2025-01-27 04:53:43.805665	88.2	46.9	-57.7	0.7
2025-01-27 04:53:44.947642	88.8	47.0	-55.7	0.0
2025-01-27 04:53:46.090616	89.5	47.1	-55.5	0.0
2025-01-27 04:53:47.232105	90.1	47.1	-58.3	5.0
2025-01-27 04:53:48.372086	90.7	47.2	-55.7	0.0
2025-01-27 04:53:49.516058	91.4	47.2	-57.2	0.0
2025-01-27 04:53:50.658036	92.0	47.3	-55.8	0.0
2025-01-27 04:53:51.800012	92.7	47.3	-57.9	0.0
2025-01-27 04:53:52.942986	93.3	47.4	-60.3	3.7
2025-01-27 04:53:54.084474	94.0	47.4	-56.5	0.0
2025-01-27 04:53:55.225453	94.6	47.5	-55.5	0.0
2025-01-27 04:53:56.368428	95.3	47.5	-56.4	0.0
2025-01-27 04:53:57.509407	95.9	47.5	-59.8	0.0
2025-01-27 04:53:58.652381	96.6	47.5	-56.6	0.0
2025-01-27 04:53:59.794358	97.2	47.6	-57.4	1.4
2025-01-27 04:54:00.939327	97.9	47.6	-56.7	0.7
2025-01-27 04:54:02.080307	98.5	47.6	-59.4	3.2
2025-01-27 04:54:03.225275	99.2	47.6	-61.4	6.8
2025-01-27 04:54:04.366767	99.8	47.6	-60.6	4.1
2025-01-27 04:54:05.508745	100.5	47.6	-59.4	3.5
2025-01-27 04:54:06.649724	101.2	47.6	-63.1	6.0
2025-01-27 04:54:07.791216	101.8	47.6	-61.7	7.2
2025-01-27 04:54:08.938180	102.5	47.6	-59.0	3.0
2025-01-27 04:54:10.080157	103.1	47.6	-59.1	4.1
2025-01-27 04:54:11.219654	103.8	47.5	-57.1	0.0
2025-01-27 04:54:12.362628	104.4	47.5	-57.5	0.0
2025-01-27 04:54:13.502610	105.1	47.5	-62.2	8.8
2025-01-27 04:54:14.645093	105.7	47.4	-60.1	3.5
2025-01-27 04:54:15.785583	106.4	47.4	-59.9	3.9
2025-01-27 04:54:16.927559	107.0	47.4	-59.7	4.6
2025-01-27 04:54:18.069536	107.7	47.3	-60.0	4.4
2025-01-27 04:54:19.210517	108.3	47.3	-60.5	3.5
2025-01-27 04:54:20.352493	109.0	47.2	-60.0	0.0
2025-01-27 04:54:21.493472	109.6	47.2	-59.3	4.0
2025-01-27 04:54:22.635965	110.2	47.1	-61.6	5.7
2025-01-27 04:54:23.776944	110.9	47.0	-61.8	9.2
2025-01-27 04:54:24.917924	111.5	47.0	-61.4	6.6
2025-01-27 04:54:26.063399	112.1	46.9	-59.1	2.8
2025-01-27 04:54:27.205378	112.8	46.8	-59.3	1.7
2025-01-27 04:54:28.347353	113.4	46.8	-57.6	0.0
2025-01-27 04:54:29.492833	114.0	46.7	-59.3	2.8
2025-01-27 04:54:30.634809	114.6	46.6	-59.9	5.6
2025-01-27 04:54:31.777783	115.2	46.5	-61.7	8.3
2025-01-27 04:54:32.918763	115.9	46.4	-61.9	5.6
2025-01-27 04:54:34.063732	116.5	46.3	-61.6	3.5
2025-01-27 04:54:35.210206	117.1	46.2	-62.3	7.5
2025-01-27 04:54:36.352688	117.7	46.1	-58.8	4.0
2025-01-27 04:54:37.496169	118.3	46.0	-62.2	9.7
2025-01-27 04:54:38.636658	118.9	45.9	-61.7	6.4
2025-01-27 04:54:39.779633	119.4	45.8	-63.2	8.2
2025-01-27 04:54:40.919614	120.0	45.7	-62.5	5.3
2025-01-27 04:54:42.061591	120.6	45.6	-61.1	5.6
2025-01-27 04:54:43.203077	121.2	45.5	-61.6	5.8
2025-01-27 04:54:44.344056	121.8	45.3	-62.0	0.0
2025-01-27 04:54:45.485542	122.3	45.2	-64.2	6.4
2025-01-27 04:54:46.627542	122.9	45.1	-64.6	11.1
2025-01-27 04:54:47.769519	123.4	45.0	-62.7	4.7
2025-01-27 04:54:48.909501	124.0	44.8	-61.2	3.0
2025-01-27 04:54:50.054470	124.5	44.7	-61.8	5.2
2025-01-27 04:54:51.197444	125.1	44.5	-60.8	2.9
2025-01-27 04:54:52.339421	125.6	44.4	-62.4	0.3
2025-01-27 04:54:53.479419	126.2	44.3	-61.4	5.1
2025-01-27 04:54:54.627380	126.7	44.1	-61.6	6.5
2025-01-27 04:54:55.769357	127.2	44.0	-64.5	9.1
2025-01-27 04:54:56.910845	127.7	43.8	-63.7	6.2
2025-01-27 04:54:58.051825	128.3	43.7	-63.4	6.7
2025-01-27 04:54:59.193801	128.8	43.5	-64.2	6.4
2025-01-27 04:55:00.336286	129.3	43.4	-59.0	0.0
2025-01-27 04:55:01.481256	129.8	43.2	-63.7	5.2
2025-01-27 04:55:02.622234	130.3	43.1	-62.4	5.6
2025-01-27 04:55:03.765227	130.8	42.9	-61.5	0.0
2025-01-27 04:55:04.906206	131.3	42.7	-61.9	3.1
2025-01-27 04:55:06.049180	131.7	42.6	-59.7	0.0
2025-01-27 04:55:07.195653	132.2	42.4	-61.4	1.5
2025-01-27 04:55:08.339625	132.7	42.3	-61.3	0.4
2025-01-27 04:55:09.479118	133.2	42.1	-62.2	0.0
2025-01-27 04:55:10.622602	133.6	41.9	-63.8	9.7
2025-01-27 04:55:11.764578	134.1	41.8	-63.0	6.7
2025-01-27 04:55:12.907063	134.5	41.6	-63.8	8.0
2025-01-27 04:55:14.053539	135.0	41.4	-61.9	4.0
2025-01-27 04:55:15.196512	135.4	41.2	-59.4	0.0
2025-01-27 04:55:16.338489	135.9	41.1	-63.2	6.9
2025-01-27 04:55:17.482461	136.3	40.9	-64.6	9.7
2025-01-27 04:55:18.625434	136.7	40.7	-64.8	9.7
2025-01-27 04:55:19.766414	137.2	40.5	-64.9	11.1
2025-01-27 04:55:20.908391	137.6	40.4	-64.3	9.2
2025-01-27 04:55:22.049881	138.0	40.2	-63.0	7.0
2025-01-27 04:55:23.192855	138.4	40.0	-63.6	7.7
2025-01-27 04:55:24.335829	138.8	39.8	-63.3	8.7
2025-01-27 04:55:25.477807	139.2	39.7	-63.3	8.5
2025-01-27 04:55:26.620780	139.6	39.5	-63.7	10.6
2025-01-27 04:55:27.762757	140.0	39.3	-64.0	7.8
2025-01-27 04:55:28.903737	140.4	39.1	-64.3	8.9
2025-01-27 04:55:30.046711	140.8	38.9	-64.2	8.8
2025-01-27 04:55:31.188688	141.2	38.7	-64.1	7.6
2025-01-27 04:55:32.339641	141.6	38.6	-64.6	9.1
2025-01-27 04:55:33.480621	141.9	38.4	-65.5	10.4
2025-01-27 04:55:34.621600	142.3	38.2	-65.2	8.3
2025-01-27 04:55:35.762579	142.7	38.0	-64.7	10.8
2025-01-27 04:55:36.904556	143.0	37.8	-65.5	11.8
2025-01-27 04:55:38.046042	143.4	37.6	-65.3	11.0
2025-01-27 04:55:39.188019	143.8	37.5	-65.0	7.3
2025-01-27 04:55:40.328999	144.1	37.3	-65.8	12.1
2025-01-27 04:55:41.470489	144.4	37.1	-64.9	10.1
2025-01-27 04:55:42.616456	144.8	36.9	-65.9	12.2
2025-01-27 04:55:43.757435	145.1	36.7	-66.5	13.3
2025-01-27 04:55:44.899412	145.5	36.5	-65.2	11.0
2025-01-27 04:55:46.041388	145.8	36.3	-66.4	13.8
2025-01-27 04:55:47.183365	146.1	36.2	-65.7	13.9
2025-01-27 04:55:48.332830	146.4	36.0	-65.8	12.3
2025-01-27 04:55:49.479793	146.8	35.8	-66.3	12.8
2025-01-27 04:55:50.621279	147.1	35.6	-65.8	12.5
2025-01-27 04:55:51.762767	147.4	35.4	-66.2	14.5
2025-01-27 04:55:52.906738	147.7	35.2	-65.9	14.0
2025-01-27 04:55:54.047718	148.0	35.1	-66.4	14.4
2025-01-27 04:55:55.190692	148.3	34.9	-66.2	13.4
2025-01-27 04:55:56.332669	148.6	34.7	-66.0	13.5
2025-01-27 04:55:57.474646	148.9	34.5	-66.7	14.7
2025-01-27 04:55:58.619615	149.2	34.3	-66.5	14.0
2025-01-27 04:55:59.760594	149.5	34.1	-66.0	14.0
2025-01-27 04:56:00.902571	149.8	33.9	-66.2	14.6
2025-01-27 04:56:02.042553	150.1	33.8	-65.9	12.3
2025-01-27 04:56:03.184530	150.3	33.6	-66.5	12.6
2025-01-27 04:56:04.328503	150.6	33.4	-66.3	12.4
2025-01-27 04:56:05.469990	150.9	33.2	-66.7	12.5
2025-01-27 04:56:06.612964	151.2	33.0	-66.3	13.4
2025-01-27 04:56:07.757446	151.4	32.9	-66.5	13.3
2025-01-27 04:56:08.898425	151.7	32.7	-65.7	11.8
2025-01-27 04:56:10.039405	152.0	32.5	-65.9	12.7
2025-01-27 04:56:11.180384	152.2	32.3	-66.1	10.4
2025-01-27 04:56:12.322361	152.5	32.1	-66.4	12.3
2025-01-27 04:56:13.463850	152.7	32.0	-66.2	12.0
2025-01-27 04:56:14.607331	153.0	31.8	-66.5	12.5
2025-01-27 04:56:15.752299	153.2	31.6	-67.0	13.1
2025-01-27 04:56:16.893786	153.5	31.4	-66.3	13.4
2025-01-27 04:56:18.034765	153.7	31.2	-66.5	11.8
2025-01-27 04:56:19.177740	154.0	31.1	-66.8	11.9
2025-01-27 04:56:20.321712	154.2	30.9	-66.7	11.5
2025-01-27 04:56:21.462691	154.4	30.7	-66.4	10.7
2025-01-27 04:56:22.604668	154.7	30.5	-67.1	11.1
2025-01-27 04:56:23.746154	154.9	30.4	-67.3	12.4
2025-01-27 04:56:24.888131	155.1	30.2	-67.0	11.4
2025-01-27 04:56:26.030108	155.4	30.0	-68.1	13.2
#Closed at: 2025-01-27 04:51:38.041720