passes_logs/2025/01/27/Planum_Noyabrsk/Planum_Noyabrsk__20250127_165134_NOAA_18_rec.log

#Pass ID: 20250127_165134_NOAA 18
#Satellite: NOAA 18
#Configuration: NOAA 18
#Start time: 2025-01-27 16:51:39.258715

#LorettStation: 1.0.0 05.05.2024
#Station: Planum_Noyabrsk
#Location: 75.446886 lon 63.207202 lat
#TLE: 1 28654U 05018A   25026.55938578  .00000422  00000+0  24727-3 0  9996
#TLE: 2 28654  98.8549 107.4981 0014828 147.3283 212.8810 14.13497870 14732

#Time	Az	El	Level	SNR
2025-01-27 16:51:45.968772	176.6	31.2	-65.3	10.5
2025-01-27 16:51:47.110733	176.7	31.5	-65.5	10.5
2025-01-27 16:51:48.259674	176.8	31.7	-65.6	10.6
2025-01-27 16:51:49.400637	176.9	31.9	-65.7	11.2
2025-01-27 16:51:50.545613	177.0	32.1	-65.7	11.2
2025-01-27 16:51:51.686553	177.1	32.3	-65.8	10.5
2025-01-27 16:51:52.829511	177.2	32.6	-65.4	9.7
2025-01-27 16:51:53.970474	177.3	32.8	-65.4	10.3
2025-01-27 16:51:55.112435	177.4	33.0	-65.2	8.8
2025-01-27 16:51:56.258385	177.5	33.3	-64.7	11.2
2025-01-27 16:51:57.400345	177.6	33.5	-65.6	9.7
2025-01-27 16:51:58.540817	177.8	33.7	-66.5	10.6
2025-01-27 16:51:59.681781	177.9	34.0	-66.7	11.4
2025-01-27 16:52:00.822744	178.0	34.2	-66.3	10.8
2025-01-27 16:52:01.964704	178.1	34.4	-66.5	10.7
2025-01-27 16:52:03.106665	178.2	34.7	-66.0	9.3
2025-01-27 16:52:04.247628	178.4	34.9	-66.6	10.1
2025-01-27 16:52:05.391092	178.5	35.2	-65.4	7.7
2025-01-27 16:52:06.534562	178.6	35.4	-64.8	5.7
2025-01-27 16:52:07.675524	178.7	35.6	-65.1	7.1
2025-01-27 16:52:08.818496	178.9	35.9	-64.4	7.2
2025-01-27 16:52:09.960456	179.0	36.1	-64.8	7.0
2025-01-27 16:52:11.102417	179.1	36.4	-65.4	8.8
2025-01-27 16:52:12.248872	179.3	36.7	-64.9	7.5
2025-01-27 16:52:13.390833	179.4	36.9	-64.9	9.1
2025-01-27 16:52:14.530799	179.6	37.2	-65.8	8.8
2025-01-27 16:52:15.672759	179.7	37.4	-65.2	7.1
2025-01-27 16:52:16.814720	179.8	37.7	-65.4	7.8
2025-01-27 16:52:17.956680	180.0	37.9	-65.8	8.7
2025-01-27 16:52:19.103138	180.1	38.2	-65.5	9.0
2025-01-27 16:52:20.249088	180.3	38.5	-65.2	8.3
2025-01-27 16:52:21.391555	180.5	38.7	-65.3	6.9
2025-01-27 16:52:22.538502	180.6	39.0	-65.3	8.5
2025-01-27 16:52:23.681464	180.8	39.3	-65.0	8.3
2025-01-27 16:52:24.825922	180.9	39.6	-65.5	9.4
2025-01-27 16:52:25.967882	181.1	39.8	-65.1	9.3
2025-01-27 16:52:27.108845	181.3	40.1	-65.1	8.7
2025-01-27 16:52:28.253798	181.4	40.4	-65.6	9.5
2025-01-27 16:52:29.396756	181.6	40.7	-64.9	9.2
2025-01-27 16:52:30.542706	181.8	41.0	-65.0	7.8
2025-01-27 16:52:31.684175	182.0	41.2	-64.8	9.7
2025-01-27 16:52:32.827134	182.2	41.5	-64.8	9.1
2025-01-27 16:52:33.968097	182.3	41.8	-64.4	9.2
2025-01-27 16:52:35.110567	182.5	42.1	-64.5	9.5
2025-01-27 16:52:36.251530	182.7	42.4	-64.3	9.4
2025-01-27 16:52:37.393491	182.9	42.7	-63.9	9.3
2025-01-27 16:52:38.534454	183.1	43.0	-64.1	7.8
2025-01-27 16:52:39.681401	183.3	43.3	-64.6	8.8
2025-01-27 16:52:40.823362	183.5	43.6	-64.4	9.6
2025-01-27 16:52:41.964831	183.7	43.9	-65.4	12.6
2025-01-27 16:52:43.105795	184.0	44.2	-65.0	10.2
2025-01-27 16:52:44.246758	184.2	44.5	-64.6	11.1
2025-01-27 16:52:45.388719	184.4	44.8	-64.5	9.9
2025-01-27 16:52:46.533673	184.6	45.1	-63.9	9.1
2025-01-27 16:52:47.675631	184.9	45.4	-64.1	6.6
2025-01-27 16:52:48.817592	185.1	45.8	-64.3	8.3
2025-01-27 16:52:49.958066	185.3	46.1	-64.4	8.2
2025-01-27 16:52:51.102022	185.6	46.4	-64.6	8.8
2025-01-27 16:52:52.242984	185.8	46.7	-64.4	8.9
2025-01-27 16:52:53.385943	186.1	47.0	-63.4	6.8
2025-01-27 16:52:54.527903	186.4	47.4	-63.8	8.5
2025-01-27 16:52:55.670861	186.6	47.7	-64.8	9.4
2025-01-27 16:52:56.813328	186.9	48.0	-64.4	9.3
2025-01-27 16:52:57.954291	187.2	48.3	-64.5	9.0
2025-01-27 16:52:59.097249	187.5	48.7	-64.6	9.0
2025-01-27 16:53:00.239210	187.8	49.0	-64.7	10.1
2025-01-27 16:53:01.380172	188.1	49.3	-64.5	9.2
2025-01-27 16:53:02.525125	188.4	49.7	-64.5	9.7
2025-01-27 16:53:03.673070	188.7	50.0	-65.1	9.7
2025-01-27 16:53:04.814033	189.0	50.4	-65.8	11.8
2025-01-27 16:53:05.957989	189.3	50.7	-63.4	7.9
2025-01-27 16:53:07.097465	189.6	51.0	-64.2	8.1
2025-01-27 16:53:08.239425	190.0	51.4	-65.0	10.5
2025-01-27 16:53:09.383381	190.3	51.7	-64.9	10.2
2025-01-27 16:53:10.524367	190.7	52.1	-65.2	11.4
2025-01-27 16:53:11.667325	191.0	52.4	-65.2	11.1
2025-01-27 16:53:12.808288	191.4	52.8	-64.8	10.1
2025-01-27 16:53:13.951246	191.8	53.1	-65.0	10.4
2025-01-27 16:53:15.093206	192.2	53.5	-65.1	9.9
2025-01-27 16:53:16.238159	192.6	53.8	-64.8	7.4
2025-01-27 16:53:17.381117	193.0	54.2	-64.9	8.7
2025-01-27 16:53:18.522080	193.4	54.6	-64.0	7.2
2025-01-27 16:53:19.664040	193.8	54.9	-63.9	6.0
2025-01-27 16:53:20.806001	194.3	55.3	-64.2	10.0
2025-01-27 16:53:21.948959	194.7	55.6	-64.4	7.7
2025-01-27 16:53:23.092914	195.2	56.0	-64.4	10.3
2025-01-27 16:53:24.233877	195.7	56.3	-64.6	10.7
2025-01-27 16:53:25.375838	196.2	56.7	-64.1	9.8
2025-01-27 16:53:26.516801	196.7	57.1	-64.1	9.1
2025-01-27 16:53:27.658271	197.2	57.4	-64.1	9.0
2025-01-27 16:53:28.799233	197.7	57.8	-64.0	7.7
2025-01-27 16:53:29.941194	198.2	58.1	-63.6	8.2
2025-01-27 16:53:31.082157	198.8	58.5	-64.6	8.8
2025-01-27 16:53:32.225115	199.4	58.9	-64.1	8.3
2025-01-27 16:53:33.366078	199.9	59.2	-63.3	6.7
2025-01-27 16:53:34.518032	200.6	59.6	-64.7	8.3
2025-01-27 16:53:35.660990	201.2	59.9	-63.7	6.7
2025-01-27 16:53:36.801952	201.8	60.3	-64.8	8.0
2025-01-27 16:53:37.944423	202.5	60.6	-64.3	9.1
2025-01-27 16:53:39.085385	203.1	61.0	-64.2	8.8
2025-01-27 16:53:40.228344	203.8	61.3	-63.5	7.8
2025-01-27 16:53:41.372298	204.5	61.7	-64.3	10.9
2025-01-27 16:53:42.515767	205.3	62.0	-62.9	9.7
2025-01-27 16:53:43.658728	206.0	62.4	-63.4	9.4
2025-01-27 16:53:44.800685	206.8	62.7	-64.0	10.3
2025-01-27 16:53:45.942645	207.6	63.1	-63.9	10.2
2025-01-27 16:53:47.084606	208.4	63.4	-62.7	8.8
2025-01-27 16:53:48.226566	209.3	63.7	-63.0	9.1
2025-01-27 16:53:49.368527	210.1	64.1	-63.4	10.4
2025-01-27 16:53:50.509490	211.0	64.4	-64.3	11.4
2025-01-27 16:53:51.650962	211.9	64.7	-63.2	9.4
2025-01-27 16:53:52.796912	212.9	65.0	-63.0	9.0
2025-01-27 16:53:53.939869	213.8	65.4	-62.9	8.5
2025-01-27 16:53:55.080833	214.8	65.7	-62.6	9.6
2025-01-27 16:53:56.227292	215.9	66.0	-62.2	9.9
2025-01-27 16:53:57.369252	216.9	66.3	-62.9	9.9
2025-01-27 16:53:58.509725	218.0	66.6	-62.5	10.1
2025-01-27 16:53:59.655185	219.1	66.8	-62.3	9.7
2025-01-27 16:54:00.797146	220.3	67.1	-62.1	9.5
2025-01-27 16:54:01.938130	221.4	67.4	-62.4	9.0
2025-01-27 16:54:03.080091	222.6	67.6	-62.3	9.5
2025-01-27 16:54:04.222051	223.9	67.9	-62.9	10.8
2025-01-27 16:54:05.364012	225.1	68.1	-63.2	10.3
2025-01-27 16:54:06.508965	226.4	68.4	-63.3	12.5
2025-01-27 16:54:07.651431	227.7	68.6	-62.0	10.1
2025-01-27 16:54:08.793898	229.1	68.8	-63.1	12.2
2025-01-27 16:54:09.939360	230.5	69.0	-62.0	11.7
2025-01-27 16:54:11.081321	231.9	69.2	-62.0	10.2
2025-01-27 16:54:12.221795	233.3	69.4	-62.4	10.6
2025-01-27 16:54:13.363755	234.8	69.6	-63.5	13.0
2025-01-27 16:54:14.506713	236.3	69.7	-62.5	11.6
2025-01-27 16:54:15.647676	237.8	69.9	-62.3	10.7
2025-01-27 16:54:16.793626	239.3	70.0	-62.8	12.6
2025-01-27 16:54:17.936584	240.9	70.1	-61.0	7.4
2025-01-27 16:54:19.081048	242.4	70.2	-62.7	10.6
2025-01-27 16:54:20.226997	244.0	70.3	-59.9	4.7
2025-01-27 16:54:21.368957	245.6	70.4	-62.2	7.1
2025-01-27 16:54:22.511915	247.3	70.4	-59.5	4.5
2025-01-27 16:54:23.652878	248.9	70.5	-62.3	7.1
2025-01-27 16:54:24.794839	250.5	70.5	-61.7	7.0
2025-01-27 16:54:25.935314	252.1	70.5	-60.6	7.1
2025-01-27 16:54:27.078272	253.8	70.5	-62.4	7.0
2025-01-27 16:54:28.219235	255.4	70.5	-58.3	1.1
2025-01-27 16:54:29.361704	257.0	70.5	-60.2	6.3
2025-01-27 16:54:30.502667	258.7	70.5	-56.8	0.0
2025-01-27 16:54:31.645625	260.3	70.4	-59.4	5.2
2025-01-27 16:54:32.787585	261.9	70.3	-55.9	0.0
2025-01-27 16:54:33.931540	263.5	70.2	-54.3	0.0
2025-01-27 16:54:35.073501	265.1	70.1	-58.9	3.5
2025-01-27 16:54:36.215462	266.6	70.0	-58.8	4.1
2025-01-27 16:54:37.356425	268.2	69.9	-57.7	3.0
2025-01-27 16:54:38.499383	269.7	69.8	-57.5	2.2
2025-01-27 16:54:39.642341	271.2	69.6	-59.2	4.8
2025-01-27 16:54:40.784302	272.7	69.5	-58.9	2.5
2025-01-27 16:54:41.931248	274.1	69.3	-58.5	3.1
2025-01-27 16:54:43.073715	275.5	69.1	-59.7	4.8
2025-01-27 16:54:44.220663	276.9	68.9	-59.5	6.8
2025-01-27 16:54:45.362623	278.3	68.7	-59.2	5.4
2025-01-27 16:54:46.504584	279.6	68.5	-60.4	5.1
2025-01-27 16:54:47.645547	280.9	68.2	-59.6	6.3
2025-01-27 16:54:48.789014	282.2	68.0	-58.1	2.4
2025-01-27 16:54:49.931988	283.4	67.7	-57.9	2.0
2025-01-27 16:54:51.074946	284.7	67.5	-58.0	3.3
2025-01-27 16:54:52.218411	285.8	67.2	-59.2	6.6
2025-01-27 16:54:53.362366	287.0	66.9	-56.7	0.0
2025-01-27 16:54:54.503329	288.1	66.7	-56.2	0.0
2025-01-27 16:54:55.645290	289.2	66.4	-56.5	0.0
2025-01-27 16:54:56.787250	290.3	66.1	-57.1	0.0
2025-01-27 16:54:57.934197	291.3	65.8	-57.0	0.0
2025-01-27 16:54:59.077156	292.3	65.5	-59.6	3.4
2025-01-27 16:55:00.220113	293.3	65.2	-56.3	0.0
2025-01-27 16:55:01.362076	294.3	64.9	-56.4	1.5
2025-01-27 16:55:02.504035	295.2	64.5	-57.8	1.4
2025-01-27 16:55:03.645506	296.1	64.2	-59.6	0.0
2025-01-27 16:55:04.788482	297.0	63.9	-59.0	4.3
2025-01-27 16:55:05.930443	297.8	63.5	-60.1	2.2
2025-01-27 16:55:07.074906	298.6	63.2	-58.5	0.0
2025-01-27 16:55:08.217863	299.4	62.9	-59.4	2.7
2025-01-27 16:55:09.359823	300.2	62.5	-57.9	0.2
2025-01-27 16:55:10.501785	301.0	62.2	-61.6	6.0
2025-01-27 16:55:11.641750	301.7	61.8	-62.3	5.4
2025-01-27 16:55:12.783710	302.4	61.5	-60.0	2.5
2025-01-27 16:55:13.930658	303.1	61.1	-60.3	3.2
2025-01-27 16:55:15.072129	303.8	60.8	-62.2	5.4
2025-01-27 16:55:16.213091	304.5	60.4	-60.1	0.8
2025-01-27 16:55:17.356049	305.1	60.1	-59.2	0.0
2025-01-27 16:55:18.499007	305.8	59.7	-58.1	0.0
2025-01-27 16:55:19.642962	306.4	59.4	-60.0	2.1
2025-01-27 16:55:20.783925	307.0	59.0	-60.0	0.0
2025-01-27 16:55:21.928879	307.5	58.6	-59.1	0.0
2025-01-27 16:55:23.071836	308.1	58.3	-60.9	1.8
2025-01-27 16:55:24.213826	308.6	57.9	-60.7	0.0
2025-01-27 16:55:25.354789	309.2	57.6	-61.3	0.0
2025-01-27 16:55:26.497747	309.7	57.2	-59.6	0.0
2025-01-27 16:55:27.638710	310.2	56.8	-63.4	4.0
2025-01-27 16:55:28.781668	310.7	56.5	-60.9	0.0
2025-01-27 16:55:29.926620	311.2	56.1	-57.7	0.0
2025-01-27 16:55:31.067584	311.6	55.8	-56.7	0.0
2025-01-27 16:55:32.216526	312.1	55.4	-55.9	0.0
2025-01-27 16:55:33.360481	312.5	55.0	-62.3	0.1
2025-01-27 16:55:34.502442	313.0	54.7	-58.2	0.0
2025-01-27 16:55:35.644402	313.4	54.3	-57.0	0.0
2025-01-27 16:55:36.786362	313.8	54.0	-58.2	0.0
2025-01-27 16:55:37.928324	314.2	53.6	-61.6	2.0
2025-01-27 16:55:39.071787	314.6	53.3	-62.3	3.1
2025-01-27 16:55:40.215742	315.0	52.9	-62.2	4.0
2025-01-27 16:55:41.356218	315.4	52.6	-62.3	0.1
2025-01-27 16:55:42.498691	315.7	52.2	-63.8	7.2
2025-01-27 16:55:43.642646	316.1	51.9	-63.2	7.4
2025-01-27 16:55:44.784118	316.4	51.5	-61.1	1.6
2025-01-27 16:55:45.927077	316.8	51.2	-60.8	2.6
2025-01-27 16:55:47.069036	317.1	50.8	-60.9	3.8
2025-01-27 16:55:48.210997	317.4	50.5	-61.2	5.6
2025-01-27 16:55:49.355950	317.8	50.2	-61.0	5.2
2025-01-27 16:55:50.497910	318.1	49.8	-61.9	8.1
2025-01-27 16:55:51.639871	318.4	49.5	-61.5	5.5
2025-01-27 16:55:52.780833	318.7	49.1	-61.3	5.9
2025-01-27 16:55:53.923791	319.0	48.8	-61.6	7.0
2025-01-27 16:55:55.066265	319.3	48.5	-61.3	5.8
2025-01-27 16:55:56.210726	319.5	48.1	-60.4	6.0
2025-01-27 16:55:57.352687	319.8	47.8	-60.7	5.2
2025-01-27 16:55:58.493649	320.1	47.5	-61.6	7.1
2025-01-27 16:55:59.636118	320.4	47.2	-61.5	5.1
2025-01-27 16:56:00.780073	320.6	46.8	-60.1	1.9
2025-01-27 16:56:01.922034	320.9	46.5	-59.5	2.5
2025-01-27 16:56:03.064992	321.1	46.2	-60.0	1.8
2025-01-27 16:56:04.207950	321.4	45.9	-61.5	4.9
2025-01-27 16:56:05.350907	321.6	45.6	-60.8	4.6
2025-01-27 16:56:06.491871	321.8	45.3	-61.5	4.9
2025-01-27 16:56:07.634828	322.1	44.9	-60.7	3.4
2025-01-27 16:56:08.777787	322.3	44.6	-60.5	1.8
2025-01-27 16:56:09.919747	322.5	44.3	-60.3	1.9
2025-01-27 16:56:11.061707	322.7	44.0	-61.8	2.3
2025-01-27 16:56:12.203668	322.9	43.7	-60.5	1.0
2025-01-27 16:56:13.348130	323.2	43.4	-59.9	2.2
2025-01-27 16:56:14.491088	323.4	43.1	-59.4	0.0
2025-01-27 16:56:15.635551	323.6	42.8	-60.6	0.0
2025-01-27 16:56:16.778019	323.8	42.5	-60.4	0.0
2025-01-27 16:56:17.919488	324.0	42.2	-59.7	0.0
2025-01-27 16:56:19.063443	324.1	41.9	-59.2	0.0
2025-01-27 16:56:20.209900	324.3	41.6	-60.7	0.0
2025-01-27 16:56:21.350863	324.5	41.4	-60.4	0.0
2025-01-27 16:56:22.493821	324.7	41.1	-59.5	0.0
2025-01-27 16:56:23.642273	324.9	40.8	-60.7	0.0
2025-01-27 16:56:24.783235	325.1	40.5	-60.4	0.0
2025-01-27 16:56:25.926193	325.2	40.2	-59.4	0.0
2025-01-27 16:56:27.068153	325.4	39.9	-59.3	0.7
2025-01-27 16:56:28.210114	325.6	39.7	-60.2	2.5
2025-01-27 16:56:29.353072	325.7	39.4	-58.0	0.0
2025-01-27 16:56:30.497027	325.9	39.1	-56.9	0.0
2025-01-27 16:56:31.639985	326.1	38.9	-58.0	0.0
2025-01-27 16:56:32.782453	326.2	38.6	-58.1	0.0
2025-01-27 16:56:33.925414	326.4	38.3	-57.7	0.0
2025-01-27 16:56:35.068369	326.5	38.1	-56.9	0.0
2025-01-27 16:56:36.211327	326.7	37.8	-55.9	0.0
2025-01-27 16:56:37.352289	326.8	37.5	-57.0	0.0
2025-01-27 16:56:38.494251	327.0	37.3	-56.7	0.0
2025-01-27 16:56:39.636210	327.1	37.0	-57.1	0.0
2025-01-27 16:56:40.783158	327.2	36.8	-56.6	0.0
2025-01-27 16:56:41.925119	327.4	36.5	-55.5	0.0
2025-01-27 16:56:43.068076	327.5	36.2	-56.5	0.0
2025-01-27 16:56:44.211034	327.6	36.0	-57.4	0.0
2025-01-27 16:56:45.351507	327.8	35.7	-55.8	0.0
2025-01-27 16:56:46.494466	327.9	35.5	-56.4	0.0
2025-01-27 16:56:47.637423	328.0	35.3	-57.3	0.0
2025-01-27 16:56:48.781378	328.2	35.0	-56.7	0.0
2025-01-27 16:56:49.925334	328.3	34.8	-56.1	0.0
2025-01-27 16:56:51.068292	328.4	34.5	-56.2	0.0
2025-01-27 16:56:52.211249	328.5	34.3	-57.2	0.0
2025-01-27 16:56:53.353210	328.7	34.1	-57.5	0.0
2025-01-27 16:56:54.495170	328.8	33.8	-57.4	0.0
2025-01-27 16:56:55.640123	328.9	33.6	-57.5	0.0
2025-01-27 16:56:56.784079	329.0	33.4	-56.3	0.0
2025-01-27 16:56:57.924550	329.1	33.1	-57.5	0.0
2025-01-27 16:56:59.065513	329.2	32.9	-58.3	0.0
2025-01-27 16:57:00.210466	329.3	32.7	-58.8	0.0
2025-01-27 16:57:01.352442	329.4	32.4	-58.2	0.0
2025-01-27 16:57:02.495401	329.6	32.2	-57.5	0.0
2025-01-27 16:57:03.636873	329.7	32.0	-56.8	0.0
2025-01-27 16:57:04.783329	329.8	31.8	-57.0	0.0
2025-01-27 16:57:05.926288	329.9	31.6	-56.8	0.0
2025-01-27 16:57:07.067250	330.0	31.3	-57.3	0.0
2025-01-27 16:57:08.210208	330.1	31.1	-58.1	0.0
2025-01-27 16:57:09.352169	330.2	30.9	-57.6	0.0
2025-01-27 16:57:10.496124	330.3	30.7	-57.0	0.0
2025-01-27 16:57:11.638084	330.4	30.5	-57.1	0.0
2025-01-27 16:57:12.781548	330.5	30.3	-56.3	0.0
2025-01-27 16:57:13.924506	330.6	30.1	-54.2	0.0
2025-01-27 16:57:15.067464	330.7	29.9	-61.8	0.0
#Closed at: 2025-01-27 16:51:34.263432