passes_logs/2025/01/27/Planum_Noyabrsk/Planum_Noyabrsk__20250127_063214_NOAA_19_rec.log

#Pass ID: 20250127_063214_NOAA 19
#Satellite: NOAA 19
#Configuration: NOAA 19
#Start time: 2025-01-27 06:32:19.976944

#LorettStation: 1.0.0 05.05.2024
#Station: Planum_Noyabrsk
#Location: 75.446886 lon 63.207202 lat
#TLE: 1 33591U 09005A   25026.61487716  .00000371  00000+0  22199-3 0  9996
#TLE: 2 33591  99.0176  90.4659 0014024  26.0549 334.1326 14.13269616822929

#Time	Az	El	Level	SNR
2025-01-27 06:32:26.865176	3.4	31.2	-66.9	13.4
2025-01-27 06:32:28.007140	3.2	31.4	-66.9	12.6
2025-01-27 06:32:29.147109	3.0	31.6	-66.9	12.6
2025-01-27 06:32:30.290071	2.8	31.8	-66.4	11.8
2025-01-27 06:32:31.432036	2.6	32.0	-66.9	11.9
2025-01-27 06:32:32.578496	2.4	32.2	-67.0	11.8
2025-01-27 06:32:33.719464	2.2	32.4	-66.1	11.5
2025-01-27 06:32:34.863930	2.0	32.6	-66.2	12.7
2025-01-27 06:32:36.008902	1.8	32.8	-66.1	11.0
2025-01-27 06:32:37.151863	1.6	33.0	-66.7	13.4
2025-01-27 06:32:38.294825	1.4	33.2	-65.6	11.1
2025-01-27 06:32:39.436789	1.2	33.4	-65.7	12.2
2025-01-27 06:32:40.577757	0.9	33.6	-66.5	13.4
2025-01-27 06:32:41.718723	0.7	33.8	-65.7	12.7
2025-01-27 06:32:42.862682	0.5	34.0	-66.6	14.1
2025-01-27 06:32:44.003649	0.3	34.2	-65.3	11.0
2025-01-27 06:32:45.148606	0.0	34.4	-65.8	12.5
2025-01-27 06:32:46.290570	359.8	34.6	-65.3	12.5
2025-01-27 06:32:47.431537	359.6	34.8	-65.4	13.2
2025-01-27 06:32:48.573501	359.4	35.1	-64.9	9.8
2025-01-27 06:32:49.716466	359.1	35.3	-65.0	12.1
2025-01-27 06:32:50.858427	358.9	35.5	-64.5	9.0
2025-01-27 06:32:52.003384	358.6	35.7	-65.3	12.3
2025-01-27 06:32:53.144351	358.4	35.9	-65.4	12.4
2025-01-27 06:32:54.286315	358.1	36.1	-64.4	10.3
2025-01-27 06:32:55.430274	357.9	36.4	-64.5	9.7
2025-01-27 06:32:56.572239	357.6	36.6	-63.6	9.6
2025-01-27 06:32:57.716197	357.3	36.8	-63.2	9.2
2025-01-27 06:32:58.857164	357.1	37.0	-62.2	5.1
2025-01-27 06:32:59.998642	356.8	37.2	-62.4	6.8
2025-01-27 06:33:01.140606	356.5	37.5	-61.1	5.6
2025-01-27 06:33:02.282571	356.3	37.7	-61.2	5.3
2025-01-27 06:33:03.423048	356.0	37.9	-60.9	4.5
2025-01-27 06:33:04.565012	355.7	38.1	-60.7	5.3
2025-01-27 06:33:05.710966	355.4	38.4	-60.3	4.6
2025-01-27 06:33:06.856921	355.1	38.6	-59.5	3.5
2025-01-27 06:33:07.999390	354.8	38.8	-59.7	3.5
2025-01-27 06:33:09.140360	354.5	39.0	-61.1	7.7
2025-01-27 06:33:10.282322	354.2	39.3	-61.4	9.2
2025-01-27 06:33:11.425283	353.9	39.5	-58.7	2.8
2025-01-27 06:33:12.566250	353.6	39.7	-62.5	7.1
2025-01-27 06:33:13.707722	353.2	39.9	-62.0	5.4
2025-01-27 06:33:14.850684	352.9	40.2	-60.3	4.4
2025-01-27 06:33:15.992649	352.6	40.4	-61.4	6.7
2025-01-27 06:33:17.134122	352.3	40.6	-59.0	1.9
2025-01-27 06:33:18.276086	351.9	40.9	-59.7	3.9
2025-01-27 06:33:19.420554	351.6	41.1	-55.8	0.0
2025-01-27 06:33:20.564514	351.2	41.3	-60.0	1.3
2025-01-27 06:33:21.706477	350.9	41.6	-60.5	4.0
2025-01-27 06:33:22.850436	350.5	41.8	-60.4	5.1
2025-01-27 06:33:23.995904	350.2	42.0	-56.1	0.0
2025-01-27 06:33:25.136870	349.8	42.3	-56.0	0.0
2025-01-27 06:33:26.278835	349.4	42.5	-56.2	0.3
2025-01-27 06:33:27.420799	349.0	42.7	-54.2	0.0
2025-01-27 06:33:28.561766	348.6	42.9	-55.1	0.0
2025-01-27 06:33:29.703731	348.3	43.2	-53.9	0.0
2025-01-27 06:33:30.844697	347.9	43.4	-54.4	0.0
2025-01-27 06:33:31.985664	347.5	43.6	-56.9	0.0
2025-01-27 06:33:33.128626	347.0	43.9	-56.6	1.9
2025-01-27 06:33:34.269112	346.6	44.1	-54.4	0.0
2025-01-27 06:33:35.411077	346.2	44.3	-53.3	0.0
2025-01-27 06:33:36.554039	345.8	44.6	-54.7	0.0
2025-01-27 06:33:37.696004	345.4	44.8	-53.6	0.0
2025-01-27 06:33:38.838965	344.9	45.0	-59.5	0.0
2025-01-27 06:33:39.980929	344.5	45.2	-54.4	0.0
2025-01-27 06:33:41.122893	344.0	45.5	-54.1	0.0
2025-01-27 06:33:42.267850	343.6	45.7	-54.6	0.0
2025-01-27 06:33:43.409814	343.1	45.9	-54.2	0.0
2025-01-27 06:33:44.551289	342.6	46.1	-54.2	0.0
2025-01-27 06:33:45.693252	342.1	46.4	-53.9	0.0
2025-01-27 06:33:46.835216	341.7	46.6	-53.7	0.0
2025-01-27 06:33:47.977687	341.2	46.8	-52.7	0.0
2025-01-27 06:33:49.124638	340.7	47.0	-55.3	0.0
2025-01-27 06:33:50.267600	340.2	47.3	-54.5	0.0
2025-01-27 06:33:51.410562	339.6	47.5	-56.1	0.2
2025-01-27 06:33:52.552526	339.1	47.7	-57.5	3.1
2025-01-27 06:33:53.695487	338.6	47.9	-61.0	4.5
2025-01-27 06:33:54.838449	338.1	48.1	-54.1	0.0
2025-01-27 06:33:55.978925	337.5	48.3	-53.5	0.0
2025-01-27 06:33:57.123882	337.0	48.5	-54.0	0.0
2025-01-27 06:33:58.265354	336.4	48.7	-53.9	0.0
2025-01-27 06:33:59.407319	335.8	49.0	-52.2	0.0
2025-01-27 06:34:00.562248	335.3	49.2	-53.6	0.0
2025-01-27 06:34:01.702724	334.7	49.4	-54.1	0.0
2025-01-27 06:34:02.845686	334.1	49.6	-51.4	0.0
2025-01-27 06:34:03.988648	333.5	49.8	-51.8	0.0
2025-01-27 06:34:05.131610	332.9	49.9	-51.2	0.0
2025-01-27 06:34:06.272087	332.3	50.1	-52.5	0.0
2025-01-27 06:34:07.413056	331.7	50.3	-54.7	0.0
2025-01-27 06:34:08.562000	331.0	50.5	-53.8	0.0
2025-01-27 06:34:09.705960	330.4	50.7	-52.0	0.0
2025-01-27 06:34:10.854905	329.7	50.9	-53.2	0.0
2025-01-27 06:34:12.001856	329.1	51.1	-53.2	0.0
2025-01-27 06:34:13.142332	328.4	51.2	-53.5	0.0
2025-01-27 06:34:14.284806	327.8	51.4	-55.5	0.0
2025-01-27 06:34:15.428765	327.1	51.6	-54.6	0.0
2025-01-27 06:34:16.571726	326.4	51.7	-54.7	0.0
2025-01-27 06:34:17.717190	325.7	51.9	-55.1	0.9
2025-01-27 06:34:18.860151	325.0	52.0	-55.2	0.0
2025-01-27 06:34:20.002116	324.3	52.2	-55.1	1.7
2025-01-27 06:34:21.143589	323.6	52.3	-56.6	0.0
2025-01-27 06:34:22.288546	322.9	52.5	-56.3	0.0
2025-01-27 06:34:23.429513	322.2	52.6	-56.9	0.0
2025-01-27 06:34:24.586948	321.4	52.8	-56.7	0.0
2025-01-27 06:34:25.731903	320.7	52.9	-57.0	0.6
2025-01-27 06:34:26.873868	319.9	53.0	-57.7	2.0
2025-01-27 06:34:28.013837	319.2	53.1	-57.1	0.0
2025-01-27 06:34:29.156799	318.4	53.2	-58.3	0.0
2025-01-27 06:34:30.297766	317.7	53.4	-58.5	1.9
2025-01-27 06:34:31.439241	316.9	53.5	-59.6	1.2
2025-01-27 06:34:32.583199	316.1	53.6	-58.0	0.0
2025-01-27 06:34:33.726162	315.4	53.7	-59.9	0.6
2025-01-27 06:34:34.866644	314.6	53.7	-62.8	5.9
2025-01-27 06:34:36.008122	313.8	53.8	-63.3	7.0
2025-01-27 06:34:37.150086	313.0	53.9	-60.4	3.2
2025-01-27 06:34:38.292070	312.2	54.0	-63.4	3.6
2025-01-27 06:34:39.433037	311.4	54.0	-59.6	1.0
2025-01-27 06:34:40.575001	310.6	54.1	-60.3	3.1
2025-01-27 06:34:41.716965	309.8	54.2	-60.0	3.3
2025-01-27 06:34:42.857932	309.0	54.2	-61.1	2.9
2025-01-27 06:34:43.998407	308.2	54.3	-61.9	5.6
2025-01-27 06:34:45.140372	307.3	54.3	-60.5	1.2
2025-01-27 06:34:46.282336	306.5	54.3	-60.7	2.9
2025-01-27 06:34:47.424300	305.7	54.4	-60.8	2.6
2025-01-27 06:34:48.564270	304.9	54.4	-61.1	3.1
2025-01-27 06:34:49.705746	304.1	54.4	-61.0	4.2
2025-01-27 06:34:50.848708	303.2	54.4	-60.1	3.2
2025-01-27 06:34:51.993664	302.4	54.4	-60.7	3.0
2025-01-27 06:34:53.134631	301.6	54.4	-60.4	4.1
2025-01-27 06:34:54.276595	300.8	54.4	-60.4	3.1
2025-01-27 06:34:55.418559	299.9	54.4	-60.5	3.7
2025-01-27 06:34:56.560033	299.1	54.4	-61.1	5.2
2025-01-27 06:34:57.701997	298.3	54.3	-60.6	4.1
2025-01-27 06:34:58.844959	297.5	54.3	-61.3	5.1
2025-01-27 06:34:59.986432	296.7	54.3	-60.9	3.1
2025-01-27 06:35:01.128396	295.9	54.2	-60.6	4.0
2025-01-27 06:35:02.271357	295.0	54.2	-60.2	2.6
2025-01-27 06:35:03.413829	294.2	54.1	-60.8	3.4
2025-01-27 06:35:04.554796	293.4	54.1	-59.3	0.0
2025-01-27 06:35:05.696761	292.6	54.0	-61.0	2.8
2025-01-27 06:35:06.838724	291.8	53.9	-60.5	2.1
2025-01-27 06:35:07.979692	291.0	53.9	-60.9	2.0
2025-01-27 06:35:09.121656	290.2	53.8	-61.6	5.0
2025-01-27 06:35:10.262623	289.5	53.7	-61.5	5.5
2025-01-27 06:35:11.404587	288.7	53.6	-60.5	2.6
2025-01-27 06:35:12.546552	287.9	53.5	-60.7	1.6
2025-01-27 06:35:13.690020	287.1	53.4	-60.8	3.1
2025-01-27 06:35:14.832982	286.4	53.3	-60.0	0.5
2025-01-27 06:35:15.974946	285.6	53.2	-60.1	0.1
2025-01-27 06:35:17.121897	284.9	53.0	-61.1	3.8
2025-01-27 06:35:18.263861	284.1	52.9	-61.7	4.4
2025-01-27 06:35:19.407820	283.4	52.8	-61.1	3.2
2025-01-27 06:35:20.550292	282.6	52.7	-60.6	1.6
2025-01-27 06:35:21.692256	281.9	52.5	-61.6	1.8
2025-01-27 06:35:22.835218	281.2	52.4	-62.0	2.5
2025-01-27 06:35:23.976691	280.5	52.2	-62.7	4.8
2025-01-27 06:35:25.117659	279.8	52.1	-62.8	5.0
2025-01-27 06:35:26.259638	279.1	51.9	-63.4	5.2
2025-01-27 06:35:27.400114	278.4	51.8	-64.0	6.1
2025-01-27 06:35:28.542078	277.7	51.6	-64.1	6.5
2025-01-27 06:35:29.684043	277.0	51.5	-64.2	8.1
2025-01-27 06:35:30.825516	276.4	51.3	-64.7	8.3
2025-01-27 06:35:31.966483	275.7	51.1	-64.8	8.7
2025-01-27 06:35:33.109446	275.0	50.9	-64.5	8.1
2025-01-27 06:35:34.252914	274.4	50.8	-65.3	8.4
2025-01-27 06:35:35.394878	273.8	50.6	-65.4	9.1
2025-01-27 06:35:36.534847	273.1	50.4	-65.0	10.2
2025-01-27 06:35:37.677809	272.5	50.2	-65.4	10.0
2025-01-27 06:35:38.819773	271.9	50.0	-64.4	10.8
2025-01-27 06:35:39.961738	271.3	49.8	-65.3	10.8
2025-01-27 06:35:41.106204	270.7	49.6	-65.0	11.4
2025-01-27 06:35:42.246682	270.1	49.4	-64.9	10.6
2025-01-27 06:35:43.391147	269.5	49.2	-64.8	11.4
2025-01-27 06:35:44.532114	268.9	49.0	-64.9	11.7
2025-01-27 06:35:45.678574	268.4	48.8	-65.1	10.9
2025-01-27 06:35:46.819541	267.8	48.6	-64.7	11.3
2025-01-27 06:35:47.960508	267.3	48.4	-64.5	11.3
2025-01-27 06:35:49.103470	266.7	48.2	-64.7	11.3
2025-01-27 06:35:50.249423	266.2	48.0	-64.6	11.4
2025-01-27 06:35:51.391388	265.6	47.8	-64.4	11.3
2025-01-27 06:35:52.533352	265.1	47.6	-64.7	11.3
2025-01-27 06:35:53.676822	264.6	47.3	-64.6	11.6
2025-01-27 06:35:54.822775	264.1	47.1	-64.3	11.0
2025-01-27 06:35:55.963741	263.6	46.9	-64.2	11.5
2025-01-27 06:35:57.106704	263.1	46.7	-64.5	12.0
2025-01-27 06:35:58.250662	262.6	46.5	-64.6	12.4
2025-01-27 06:35:59.391629	262.1	46.2	-64.9	12.6
2025-01-27 06:36:00.533593	261.6	46.0	-64.4	12.2
2025-01-27 06:36:01.674560	261.2	45.8	-64.6	12.6
2025-01-27 06:36:02.821021	260.7	45.6	-64.9	12.9
2025-01-27 06:36:03.962985	260.3	45.3	-64.2	13.5
2025-01-27 06:36:05.104951	259.8	45.1	-65.0	12.2
2025-01-27 06:36:06.246914	259.4	44.9	-64.8	12.6
2025-01-27 06:36:07.388878	258.9	44.6	-65.0	11.7
2025-01-27 06:36:08.532349	258.5	44.4	-65.5	12.9
2025-01-27 06:36:09.676308	258.1	44.2	-66.0	14.0
2025-01-27 06:36:10.822262	257.7	44.0	-65.8	12.7
2025-01-27 06:36:11.965223	257.2	43.7	-65.1	12.8
2025-01-27 06:36:13.109183	256.8	43.5	-65.8	13.4
2025-01-27 06:36:14.252144	256.4	43.3	-65.7	12.9
2025-01-27 06:36:15.394124	256.1	43.0	-65.7	12.4
2025-01-27 06:36:16.534113	255.7	42.8	-65.7	13.0
2025-01-27 06:36:17.676078	255.3	42.6	-65.6	13.5
2025-01-27 06:36:18.818041	254.9	42.3	-65.6	13.6
2025-01-27 06:36:19.960006	254.5	42.1	-66.4	16.4
2025-01-27 06:36:21.100973	254.2	41.9	-65.8	13.8
2025-01-27 06:36:22.243935	253.8	41.6	-66.0	13.9
2025-01-27 06:36:23.384412	253.5	41.4	-65.8	14.4
2025-01-27 06:36:24.528372	253.1	41.2	-65.7	13.1
2025-01-27 06:36:25.670336	252.8	40.9	-65.6	14.2
2025-01-27 06:36:26.811302	252.4	40.7	-66.1	13.6
2025-01-27 06:36:27.954774	252.1	40.5	-66.4	13.4
2025-01-27 06:36:29.095740	251.8	40.3	-66.0	12.9
2025-01-27 06:36:30.237704	251.4	40.0	-66.4	13.2
2025-01-27 06:36:31.378671	251.1	39.8	-66.0	13.4
2025-01-27 06:36:32.519641	250.8	39.6	-66.1	13.3
2025-01-27 06:36:33.662601	250.5	39.3	-66.8	15.1
2025-01-27 06:36:34.804565	250.2	39.1	-66.7	13.9
2025-01-27 06:36:35.944534	249.9	38.9	-66.2	12.6
2025-01-27 06:36:37.086008	249.6	38.7	-66.3	13.2
2025-01-27 06:36:38.227972	249.3	38.4	-66.4	12.3
2025-01-27 06:36:39.369936	249.0	38.2	-66.2	12.1
2025-01-27 06:36:40.514404	248.7	38.0	-66.3	12.9
2025-01-27 06:36:41.656874	248.4	37.8	-66.7	13.7
2025-01-27 06:36:42.799347	248.1	37.5	-66.4	13.0
2025-01-27 06:36:43.940820	247.8	37.3	-66.1	12.0
2025-01-27 06:36:45.083782	247.6	37.1	-66.4	12.6
2025-01-27 06:36:46.226744	247.3	36.9	-67.2	13.2
2025-01-27 06:36:47.369705	247.0	36.7	-67.4	14.1
2025-01-27 06:36:48.511670	246.8	36.4	-67.7	13.8
2025-01-27 06:36:49.652637	246.5	36.2	-66.8	13.4
2025-01-27 06:36:50.799587	246.3	36.0	-66.8	12.7
2025-01-27 06:36:51.940560	246.0	35.8	-66.9	12.8
2025-01-27 06:36:53.082519	245.8	35.6	-66.7	12.6
2025-01-27 06:36:54.222998	245.5	35.4	-67.3	11.8
2025-01-27 06:36:55.364962	245.3	35.1	-68.1	14.0
2025-01-27 06:36:56.506436	245.0	34.9	-68.1	13.6
2025-01-27 06:36:57.647403	244.8	34.7	-66.6	11.1
2025-01-27 06:36:58.790365	244.6	34.5	-67.3	12.0
2025-01-27 06:36:59.931331	244.4	34.3	-67.0	10.7
2025-01-27 06:37:01.073296	244.1	34.1	-66.8	11.1
2025-01-27 06:37:02.216257	243.9	33.9	-66.8	10.6
2025-01-27 06:37:03.357224	243.7	33.7	-67.0	10.6
2025-01-27 06:37:04.496705	243.5	33.5	-67.2	10.5
2025-01-27 06:37:05.643656	243.3	33.3	-67.4	11.6
2025-01-27 06:37:06.785132	243.0	33.1	-67.5	11.6
2025-01-27 06:37:07.925608	242.8	32.8	-66.5	9.1
2025-01-27 06:37:09.067082	242.6	32.6	-67.5	10.4
2025-01-27 06:37:10.210044	242.4	32.4	-67.0	9.7
2025-01-27 06:37:11.376942	242.2	32.2	-67.2	9.5
2025-01-27 06:37:12.519416	242.0	32.0	-67.4	9.0
2025-01-27 06:37:13.661380	241.8	31.8	-67.4	10.4
2025-01-27 06:37:14.801350	241.6	31.6	-67.4	10.0
2025-01-27 06:37:15.947306	241.4	31.4	-67.1	8.4
2025-01-27 06:37:17.090265	241.2	31.2	-66.8	7.8
2025-01-27 06:37:18.231233	241.1	31.0	-67.2	9.2
2025-01-27 06:37:19.371711	240.9	30.9	-67.7	10.3
2025-01-27 06:37:20.515670	240.7	30.7	-67.4	8.2
2025-01-27 06:37:21.657636	240.5	30.5	-67.1	8.5
2025-01-27 06:37:22.801102	240.3	30.3	-67.4	9.0
2025-01-27 06:37:23.943067	240.2	30.1	-69.3	1.7
#Closed at: 2025-01-27 06:32:14.981770