passes_logs/2025/01/27/Planum_Noyabrsk/Planum_Noyabrsk__20250127_140000_METOP-B_rec.log

#Pass ID: 20250127_140000_METOP-B
#Satellite: METOP-B
#Configuration: METOP-B
#Start time: 2025-01-27 14:00:05.030825

#LorettStation: 1.0.0 05.05.2024
#Station: Planum_Noyabrsk
#Location: 75.446886 lon 63.207202 lat
#TLE: 1 38771U 12049A   25026.58624306  .00000319  00000+0  16556-3 0  9999
#TLE: 2 38771  98.5992  84.4450 0001527  68.7444 291.3896 14.21418795641295

#Time	Az	El	Level	SNR
2025-01-27 14:00:17.257335	105.3	31.9	-48.3	0.0
2025-01-27 14:00:18.402301	105.0	32.1	-49.4	0.0
2025-01-27 14:00:19.548264	104.7	32.3	-48.9	0.0
2025-01-27 14:00:20.689240	104.5	32.4	-51.5	0.0
2025-01-27 14:00:21.832212	104.2	32.6	-52.2	0.0
2025-01-27 14:00:22.975183	103.9	32.8	-48.9	0.0
2025-01-27 14:00:24.123142	103.6	33.0	-46.7	0.0
2025-01-27 14:00:25.267127	103.3	33.2	-47.6	0.0
2025-01-27 14:00:26.408104	103.0	33.4	-46.1	0.0
2025-01-27 14:00:27.551076	102.7	33.5	-51.8	0.0
2025-01-27 14:00:28.692051	102.4	33.7	-46.6	0.0
2025-01-27 14:00:29.841007	102.1	33.9	-50.6	0.0
2025-01-27 14:00:30.983978	101.8	34.1	-46.6	0.0
2025-01-27 14:00:32.125463	101.5	34.3	-49.2	0.0
2025-01-27 14:00:33.268434	101.2	34.5	-46.3	0.0
2025-01-27 14:00:34.410408	100.9	34.6	-52.0	0.0
2025-01-27 14:00:35.552382	100.6	34.8	-49.2	0.0
2025-01-27 14:00:36.695353	100.2	35.0	-50.7	0.0
2025-01-27 14:00:37.838324	99.9	35.2	-47.1	0.0
2025-01-27 14:00:38.981295	99.6	35.4	-50.2	0.0
2025-01-27 14:00:40.127766	99.3	35.6	-48.7	0.0
2025-01-27 14:00:41.269738	98.9	35.8	-51.1	0.0
2025-01-27 14:00:42.410714	98.6	35.9	-50.2	0.0
2025-01-27 14:00:43.550693	98.2	36.1	-51.2	0.0
2025-01-27 14:00:44.693175	97.9	36.3	-51.9	0.0
2025-01-27 14:00:45.836146	97.5	36.5	-51.2	0.0
2025-01-27 14:00:46.977123	97.2	36.7	-52.3	0.0
2025-01-27 14:00:48.123086	96.8	36.9	-49.5	0.0
2025-01-27 14:00:49.265061	96.4	37.0	-49.6	0.0
2025-01-27 14:00:50.406055	96.1	37.2	-50.7	0.0
2025-01-27 14:00:51.549027	95.7	37.4	-54.5	0.0
2025-01-27 14:00:52.690003	95.3	37.6	-53.3	0.0
2025-01-27 14:00:53.831977	94.9	37.8	-53.2	0.0
2025-01-27 14:00:54.973460	94.5	37.9	-49.4	0.0
2025-01-27 14:00:56.116431	94.1	38.1	-49.3	0.0
2025-01-27 14:00:57.258404	93.7	38.3	-49.6	0.0
2025-01-27 14:00:58.401376	93.3	38.5	-53.7	0.0
2025-01-27 14:00:59.544347	92.9	38.7	-53.7	0.0
2025-01-27 14:01:00.690310	92.5	38.8	-54.0	0.0
2025-01-27 14:01:01.832284	92.1	39.0	-54.1	0.0
2025-01-27 14:01:02.975257	91.7	39.2	-53.7	0.0
2025-01-27 14:01:04.117229	91.3	39.4	-51.2	0.0
2025-01-27 14:01:05.259203	90.8	39.5	-52.8	0.0
2025-01-27 14:01:06.400179	90.4	39.7	-53.6	0.0
2025-01-27 14:01:07.544653	90.0	39.9	-52.6	0.0
2025-01-27 14:01:08.686627	89.5	40.1	-54.4	0.0
2025-01-27 14:01:09.832590	89.1	40.2	-49.7	0.0
2025-01-27 14:01:10.979551	88.6	40.4	-52.9	0.0
2025-01-27 14:01:12.121525	88.2	40.6	-49.1	0.0
2025-01-27 14:01:13.264008	87.7	40.7	-50.2	0.0
2025-01-27 14:01:14.406977	87.3	40.9	-52.4	0.0
2025-01-27 14:01:15.549949	86.8	41.0	-48.1	0.0
2025-01-27 14:01:16.690925	86.3	41.2	-49.7	0.0
2025-01-27 14:01:17.833920	85.8	41.4	-53.3	0.0
2025-01-27 14:01:18.975894	85.3	41.5	-52.2	0.0
2025-01-27 14:01:20.120861	84.9	41.7	-50.4	0.0
2025-01-27 14:01:21.262833	84.4	41.8	-49.4	0.0
2025-01-27 14:01:22.405805	83.9	42.0	-51.5	0.0
2025-01-27 14:01:23.547778	83.4	42.1	-49.7	0.0
2025-01-27 14:01:24.691747	82.9	42.3	-47.6	0.0
2025-01-27 14:01:25.834719	82.3	42.4	-52.4	0.0
2025-01-27 14:01:26.975694	81.8	42.6	-55.6	0.0
2025-01-27 14:01:28.126645	81.3	42.7	-50.5	0.0
2025-01-27 14:01:29.268618	80.8	42.9	-55.0	0.0
2025-01-27 14:01:30.411100	80.2	43.0	-53.4	0.0
2025-01-27 14:01:31.553073	79.7	43.1	-53.9	0.0
2025-01-27 14:01:32.696550	79.2	43.3	-56.2	0.0
2025-01-27 14:01:33.839521	78.6	43.4	-54.8	0.0
2025-01-27 14:01:34.981495	78.1	43.5	-55.1	0.0
2025-01-27 14:01:36.128465	77.5	43.7	-53.8	0.0
2025-01-27 14:01:37.269939	76.9	43.8	-55.2	0.0
2025-01-27 14:01:38.409918	76.4	43.9	-55.1	0.0
2025-01-27 14:01:39.550895	75.8	44.0	-56.3	0.0
2025-01-27 14:01:40.693866	75.2	44.2	-56.9	0.0
2025-01-27 14:01:41.836351	74.7	44.3	-54.6	0.0
2025-01-27 14:01:42.977327	74.1	44.4	-56.2	0.0
2025-01-27 14:01:44.120301	73.5	44.5	-55.8	0.0
2025-01-27 14:01:45.269254	72.9	44.6	-53.4	0.0
2025-01-27 14:01:46.415218	72.3	44.7	-54.5	0.0
2025-01-27 14:01:47.558188	71.7	44.8	-56.2	0.0
2025-01-27 14:01:48.700162	71.1	44.9	-56.9	0.1
2025-01-27 14:01:49.842135	70.5	45.0	-58.1	0.0
2025-01-27 14:01:50.983112	69.9	45.1	-57.1	0.0
2025-01-27 14:01:52.129075	69.3	45.1	-53.0	0.0
2025-01-27 14:01:53.271558	68.7	45.2	-57.0	0.0
2025-01-27 14:01:54.417521	68.1	45.3	-57.0	0.5
2025-01-27 14:01:55.566478	67.5	45.4	-55.2	0.0
2025-01-27 14:01:56.709448	66.8	45.4	-56.7	1.7
2025-01-27 14:01:57.853925	66.2	45.5	-57.2	0.0
2025-01-27 14:01:58.995899	65.6	45.6	-57.4	0.0
2025-01-27 14:02:00.136875	65.0	45.6	-53.7	0.0
2025-01-27 14:02:01.278862	64.3	45.7	-58.2	0.0
2025-01-27 14:02:02.425810	63.7	45.7	-59.4	2.6
2025-01-27 14:02:03.567783	63.1	45.8	-57.4	0.0
2025-01-27 14:02:04.712264	62.4	45.8	-56.8	0.0
2025-01-27 14:02:05.853241	61.8	45.9	-59.2	4.0
2025-01-27 14:02:06.997209	61.1	45.9	-61.3	5.4
2025-01-27 14:02:08.141686	60.5	45.9	-59.7	0.0
2025-01-27 14:02:09.287160	59.9	46.0	-60.5	4.1
2025-01-27 14:02:10.430638	59.2	46.0	-59.8	3.7
2025-01-27 14:02:11.572628	58.6	46.0	-59.8	3.4
2025-01-27 14:02:12.716598	57.9	46.0	-57.7	0.0
2025-01-27 14:02:13.856576	57.3	46.0	-60.7	4.0
2025-01-27 14:02:14.999059	56.6	46.1	-58.7	1.2
2025-01-27 14:02:16.142534	56.0	46.1	-60.5	1.9
2025-01-27 14:02:17.285505	55.3	46.1	-57.8	0.0
2025-01-27 14:02:18.426482	54.7	46.1	-60.2	4.2
2025-01-27 14:02:19.569453	54.1	46.0	-58.0	0.0
2025-01-27 14:02:20.714419	53.4	46.0	-59.5	0.0
2025-01-27 14:02:21.857390	52.8	46.0	-59.9	4.2
2025-01-27 14:02:22.998366	52.1	46.0	-59.2	0.0
2025-01-27 14:02:24.143332	51.5	46.0	-58.6	0.0
2025-01-27 14:02:25.285306	50.8	46.0	-60.3	4.0
2025-01-27 14:02:26.427280	50.2	45.9	-58.7	0.9
2025-01-27 14:02:27.568256	49.5	45.9	-57.2	0.0
2025-01-27 14:02:28.711228	48.9	45.8	-57.5	0.3
2025-01-27 14:02:29.855704	48.3	45.8	-58.2	0.0
2025-01-27 14:02:30.997677	47.6	45.8	-58.4	0.0
2025-01-27 14:02:32.140157	47.0	45.7	-58.2	0.0
2025-01-27 14:02:33.285629	46.4	45.6	-57.6	0.0
2025-01-27 14:02:34.429597	45.7	45.6	-57.9	0.0
2025-01-27 14:02:35.570574	45.1	45.5	-56.7	0.0
2025-01-27 14:02:36.713058	44.5	45.5	-57.4	0.0
2025-01-27 14:02:37.855032	43.9	45.4	-58.8	0.0
2025-01-27 14:02:38.999000	43.3	45.3	-58.8	0.5
2025-01-27 14:02:40.143478	42.6	45.2	-58.1	0.0
2025-01-27 14:02:41.285958	42.0	45.2	-57.4	0.0
2025-01-27 14:02:42.427932	41.4	45.1	-58.8	0.0
2025-01-27 14:02:43.570903	40.8	45.0	-60.3	1.0
2025-01-27 14:02:44.711879	40.2	44.9	-58.0	0.0
2025-01-27 14:02:45.854852	39.6	44.8	-55.9	0.0
2025-01-27 14:02:46.996825	39.0	44.7	-58.4	0.0
2025-01-27 14:02:48.142788	38.4	44.6	-57.9	0.0
2025-01-27 14:02:49.284761	37.8	44.5	-57.3	0.0
2025-01-27 14:02:50.432720	37.2	44.4	-57.7	0.0
2025-01-27 14:02:51.576688	36.7	44.3	-58.2	0.0
2025-01-27 14:02:52.718661	36.1	44.2	-57.7	0.0
2025-01-27 14:02:53.860153	35.5	44.1	-58.2	0.0
2025-01-27 14:02:55.001128	35.0	43.9	-58.0	0.0
2025-01-27 14:02:56.146095	34.4	43.8	-57.4	0.0
2025-01-27 14:02:57.287576	33.8	43.7	-58.4	0.0
2025-01-27 14:02:58.429551	33.3	43.6	-58.0	0.0
2025-01-27 14:02:59.570035	32.7	43.4	-57.1	0.0
2025-01-27 14:03:00.713514	32.2	43.3	-58.1	0.0
2025-01-27 14:03:01.856485	31.6	43.2	-56.9	0.0
2025-01-27 14:03:02.997461	31.1	43.0	-56.7	0.0
2025-01-27 14:03:04.139941	30.6	42.9	-57.4	0.0
2025-01-27 14:03:05.280917	30.1	42.8	-56.1	0.0
2025-01-27 14:03:06.423889	29.5	42.6	-56.9	0.0
2025-01-27 14:03:07.564373	29.0	42.5	-56.3	0.0
2025-01-27 14:03:08.710336	28.5	42.3	-56.5	0.0
2025-01-27 14:03:09.854330	28.0	42.2	-56.6	0.0
2025-01-27 14:03:10.996304	27.5	42.0	-56.0	0.0
2025-01-27 14:03:12.139276	27.0	41.9	-56.6	0.0
2025-01-27 14:03:13.281249	26.5	41.7	-56.6	0.0
2025-01-27 14:03:14.426215	26.0	41.6	-56.5	0.0
2025-01-27 14:03:15.571180	25.5	41.4	-57.2	0.0
2025-01-27 14:03:16.716146	25.0	41.3	-57.3	0.0
2025-01-27 14:03:17.858121	24.6	41.1	-56.9	0.0
2025-01-27 14:03:18.999096	24.1	40.9	-56.8	0.0
2025-01-27 14:03:20.141071	23.6	40.8	-57.3	0.0
2025-01-27 14:03:21.283044	23.2	40.6	-59.9	0.0
2025-01-27 14:03:22.426017	22.7	40.4	-57.2	0.0
2025-01-27 14:03:23.566992	22.3	40.3	-56.2	0.0
2025-01-27 14:03:24.710472	21.8	40.1	-57.2	0.0
2025-01-27 14:03:25.853443	21.4	39.9	-57.2	0.0
2025-01-27 14:03:26.994419	20.9	39.8	-55.6	0.0
2025-01-27 14:03:28.138897	20.5	39.6	-59.0	0.0
2025-01-27 14:03:29.279873	20.1	39.4	-59.9	0.0
2025-01-27 14:03:30.423842	19.7	39.2	-58.2	0.0
2025-01-27 14:03:31.565324	19.2	39.1	-58.7	0.0
2025-01-27 14:03:32.707298	18.8	38.9	-56.9	0.0
2025-01-27 14:03:33.849272	18.4	38.7	-56.4	0.0
2025-01-27 14:03:34.992243	18.0	38.5	-59.1	0.0
2025-01-27 14:03:36.136213	17.6	38.4	-56.5	0.0
2025-01-27 14:03:37.277188	17.2	38.2	-56.5	0.0
2025-01-27 14:03:38.421157	16.8	38.0	-57.5	0.0
2025-01-27 14:03:39.565125	16.4	37.8	-58.4	0.0
2025-01-27 14:03:40.707099	16.0	37.6	-59.3	0.0
2025-01-27 14:03:41.849073	15.7	37.5	-57.9	0.0
2025-01-27 14:03:42.993042	15.3	37.3	-58.7	0.0
2025-01-27 14:03:44.136013	14.9	37.1	-58.2	0.0
2025-01-27 14:03:45.278983	14.6	36.9	-59.1	0.0
2025-01-27 14:03:46.423949	14.2	36.7	-59.3	0.7
2025-01-27 14:03:47.564927	13.8	36.5	-57.8	0.0
2025-01-27 14:03:48.707897	13.5	36.4	-61.1	0.0
2025-01-27 14:03:49.850381	13.1	36.2	-60.8	0.9
2025-01-27 14:03:50.991357	12.8	36.0	-60.2	1.7
2025-01-27 14:03:52.134328	12.4	35.8	-61.5	5.2
2025-01-27 14:03:53.278297	12.1	35.6	-61.7	3.8
2025-01-27 14:03:54.421268	11.8	35.5	-60.2	0.0
2025-01-27 14:03:55.567742	11.4	35.3	-60.2	1.9
2025-01-27 14:03:56.708718	11.1	35.1	-61.1	4.9
2025-01-27 14:03:57.853684	10.8	34.9	-60.4	2.5
2025-01-27 14:03:58.996656	10.5	34.7	-61.2	1.1
2025-01-27 14:04:00.140624	10.1	34.5	-60.3	2.6
2025-01-27 14:04:01.281600	9.8	34.3	-61.4	1.6
2025-01-27 14:04:02.426567	9.5	34.2	-61.3	2.9
2025-01-27 14:04:03.570044	9.2	34.0	-60.8	3.0
2025-01-27 14:04:04.715009	8.9	33.8	-61.1	4.4
2025-01-27 14:04:05.857980	8.6	33.6	-62.3	4.2
2025-01-27 14:04:06.999954	8.3	33.4	-61.2	2.8
2025-01-27 14:04:08.141928	8.0	33.3	-62.3	3.8
2025-01-27 14:04:09.283903	7.7	33.1	-63.1	4.0
2025-01-27 14:04:10.426873	7.5	32.9	-61.8	4.2
2025-01-27 14:04:11.568847	7.2	32.7	-61.9	4.4
2025-01-27 14:04:12.710821	6.9	32.5	-62.5	2.9
2025-01-27 14:04:13.853792	6.6	32.3	-63.9	7.9
2025-01-27 14:04:14.996764	6.3	32.2	-62.2	5.4
2025-01-27 14:04:16.138737	6.1	32.0	-62.6	6.3
2025-01-27 14:04:17.282214	5.8	31.8	-63.5	8.6
2025-01-27 14:04:18.425185	5.5	31.6	-63.9	6.7
2025-01-27 14:04:19.568663	5.3	31.4	-63.5	6.6
2025-01-27 14:04:20.712141	5.0	31.3	-64.9	7.7
2025-01-27 14:04:21.855112	4.8	31.1	-64.6	7.2
2025-01-27 14:04:22.997086	4.5	30.9	-64.6	6.6
2025-01-27 14:04:24.142051	4.3	30.7	-64.9	9.5
2025-01-27 14:04:25.284026	4.0	30.6	-65.5	8.7
2025-01-27 14:04:26.425509	3.8	30.4	-64.7	8.1
2025-01-27 14:04:27.568482	3.5	30.2	-64.6	8.5
2025-01-27 14:04:28.709457	3.3	30.0	-62.5	0.0
#Closed at: 2025-01-27 14:00:00.035471