passes_logs/2025/01/27/Planum_Noyabrsk/Planum_Noyabrsk__20250127_163019_NOAA_19_rec.log

#Pass ID: 20250127_163019_NOAA 19
#Satellite: NOAA 19
#Configuration: NOAA 19
#Start time: 2025-01-27 16:30:24.370035

#LorettStation: 1.0.0 05.05.2024
#Station: Planum_Noyabrsk
#Location: 75.446886 lon 63.207202 lat
#TLE: 1 33591U 09005A   25026.61487716  .00000371  00000+0  22199-3 0  9996
#TLE: 2 33591  99.0176  90.4659 0014024  26.0549 334.1326 14.13269616822929

#Time	Az	El	Level	SNR
2025-01-27 16:30:31.239429	223.4	30.8	-64.8	9.2
2025-01-27 16:30:32.380392	223.7	31.0	-64.6	11.2
2025-01-27 16:30:33.522859	224.0	31.1	-63.9	10.8
2025-01-27 16:30:34.663822	224.3	31.3	-64.1	11.6
2025-01-27 16:30:35.809772	224.6	31.4	-64.3	11.6
2025-01-27 16:30:36.952243	224.9	31.5	-64.6	11.8
2025-01-27 16:30:38.097196	225.3	31.7	-64.0	12.1
2025-01-27 16:30:39.238158	225.6	31.8	-64.8	12.2
2025-01-27 16:30:40.382114	225.9	32.0	-64.7	12.8
2025-01-27 16:30:41.527067	226.2	32.1	-64.7	12.4
2025-01-27 16:30:42.669533	226.6	32.2	-65.0	12.7
2025-01-27 16:30:43.811494	226.9	32.4	-64.9	13.2
2025-01-27 16:30:44.955955	227.3	32.5	-64.5	11.2
2025-01-27 16:30:46.098913	227.6	32.6	-65.0	13.6
2025-01-27 16:30:47.239385	227.9	32.8	-65.2	13.2
2025-01-27 16:30:48.382342	228.3	32.9	-64.9	12.7
2025-01-27 16:30:49.523306	228.6	33.0	-65.1	12.2
2025-01-27 16:30:50.665266	229.0	33.2	-65.3	13.7
2025-01-27 16:30:51.807227	229.4	33.3	-65.1	12.6
2025-01-27 16:30:52.947192	229.7	33.4	-64.8	10.8
2025-01-27 16:30:54.088662	230.1	33.6	-64.9	12.2
2025-01-27 16:30:55.230622	230.4	33.7	-65.2	12.0
2025-01-27 16:30:56.371585	230.8	33.8	-65.2	11.3
2025-01-27 16:30:57.513055	231.2	34.0	-65.4	10.9
2025-01-27 16:30:58.655015	231.6	34.1	-65.3	11.8
2025-01-27 16:30:59.795979	231.9	34.2	-65.8	11.8
2025-01-27 16:31:00.939933	232.3	34.3	-65.4	11.0
2025-01-27 16:31:02.079900	232.7	34.5	-65.5	12.4
2025-01-27 16:31:03.221860	233.1	34.6	-65.5	11.5
2025-01-27 16:31:04.365816	233.5	34.7	-65.9	11.5
2025-01-27 16:31:05.509771	233.9	34.8	-65.5	10.6
2025-01-27 16:31:06.650734	234.3	35.0	-66.2	12.2
2025-01-27 16:31:07.791208	234.7	35.1	-65.9	12.2
2025-01-27 16:31:08.934166	235.1	35.2	-65.4	11.7
2025-01-27 16:31:10.080116	235.5	35.3	-65.6	13.1
2025-01-27 16:31:11.221106	235.9	35.4	-65.7	12.6
2025-01-27 16:31:12.363067	236.3	35.6	-66.0	12.3
2025-01-27 16:31:13.504030	236.7	35.7	-65.2	10.6
2025-01-27 16:31:14.645505	237.1	35.8	-65.7	11.6
2025-01-27 16:31:15.785979	237.5	35.9	-65.8	12.5
2025-01-27 16:31:16.928447	237.9	36.0	-65.5	11.6
2025-01-27 16:31:18.070407	238.4	36.1	-65.8	12.7
2025-01-27 16:31:19.211882	238.8	36.2	-66.8	13.9
2025-01-27 16:31:20.352841	239.2	36.3	-65.9	12.2
2025-01-27 16:31:21.494802	239.6	36.4	-66.3	11.9
2025-01-27 16:31:22.636763	240.1	36.5	-66.6	12.5
2025-01-27 16:31:23.778723	240.5	36.6	-66.1	12.1
2025-01-27 16:31:24.923676	240.9	36.7	-65.6	11.3
2025-01-27 16:31:26.065145	241.4	36.8	-65.3	11.3
2025-01-27 16:31:27.206109	241.8	36.9	-65.6	11.8
2025-01-27 16:31:28.347071	242.3	37.0	-65.3	11.7
2025-01-27 16:31:29.490030	242.7	37.1	-65.3	11.0
2025-01-27 16:31:30.630994	243.2	37.2	-65.4	11.8
2025-01-27 16:31:31.773951	243.6	37.3	-65.5	12.8
2025-01-27 16:31:32.913427	244.1	37.4	-65.3	12.5
2025-01-27 16:31:34.055388	244.6	37.5	-65.3	12.5
2025-01-27 16:31:35.196351	245.0	37.6	-65.4	12.0
2025-01-27 16:31:36.338311	245.5	37.7	-65.6	12.4
2025-01-27 16:31:37.479274	245.9	37.7	-65.4	10.6
2025-01-27 16:31:38.621235	246.4	37.8	-65.2	11.0
2025-01-27 16:31:39.763195	246.9	37.9	-65.4	10.9
2025-01-27 16:31:40.904158	247.4	38.0	-65.9	10.7
2025-01-27 16:31:42.045121	247.8	38.1	-66.2	11.3
2025-01-27 16:31:43.185596	248.3	38.1	-66.4	11.3
2025-01-27 16:31:44.327556	248.8	38.2	-66.5	11.9
2025-01-27 16:31:45.469517	249.3	38.3	-66.1	10.6
2025-01-27 16:31:46.612980	249.8	38.3	-66.2	12.8
2025-01-27 16:31:47.754941	250.2	38.4	-66.3	12.0
2025-01-27 16:31:48.898896	250.7	38.5	-66.0	11.5
2025-01-27 16:31:50.040366	251.2	38.5	-66.3	11.4
2025-01-27 16:31:51.181329	251.7	38.6	-65.8	10.7
2025-01-27 16:31:52.322293	252.2	38.6	-66.1	10.8
2025-01-27 16:31:53.463763	252.7	38.7	-66.3	11.7
2025-01-27 16:31:54.605723	253.2	38.7	-65.9	11.6
2025-01-27 16:31:55.747683	253.7	38.8	-66.3	11.7
2025-01-27 16:31:56.889645	254.2	38.8	-65.8	11.5
2025-01-27 16:31:58.030608	254.7	38.9	-66.1	12.4
2025-01-27 16:31:59.171570	255.2	38.9	-66.1	11.8
2025-01-27 16:32:00.312533	255.7	39.0	-66.1	11.6
2025-01-27 16:32:01.454002	256.2	39.0	-65.9	12.3
2025-01-27 16:32:02.595963	256.7	39.0	-66.3	12.2
2025-01-27 16:32:03.735929	257.2	39.1	-66.4	12.3
2025-01-27 16:32:04.881391	257.7	39.1	-66.3	12.8
2025-01-27 16:32:06.025346	258.2	39.1	-66.1	12.4
2025-01-27 16:32:07.166309	258.7	39.1	-66.3	12.8
2025-01-27 16:32:08.309267	259.2	39.2	-66.2	12.9
2025-01-27 16:32:09.450738	259.7	39.2	-65.7	12.2
2025-01-27 16:32:10.592207	260.2	39.2	-65.6	11.3
2025-01-27 16:32:11.740664	260.8	39.2	-65.4	12.7
2025-01-27 16:32:12.884130	261.3	39.2	-65.5	12.3
2025-01-27 16:32:14.026090	261.8	39.2	-65.8	11.9
2025-01-27 16:32:15.168051	262.3	39.2	-65.7	12.4
2025-01-27 16:32:16.309013	262.8	39.2	-65.4	12.0
2025-01-27 16:32:17.448981	263.3	39.2	-65.2	10.6
2025-01-27 16:32:18.591937	263.8	39.2	-65.0	11.9
2025-01-27 16:32:19.739882	264.3	39.2	-64.3	11.8
2025-01-27 16:32:20.881351	264.8	39.2	-64.7	9.2
2025-01-27 16:32:22.023311	265.4	39.2	-64.4	10.0
2025-01-27 16:32:23.164275	265.9	39.2	-64.3	10.0
2025-01-27 16:32:24.308231	266.4	39.2	-64.3	9.7
2025-01-27 16:32:25.451188	266.9	39.2	-64.1	10.4
2025-01-27 16:32:26.593149	267.4	39.2	-64.2	9.2
2025-01-27 16:32:27.734617	267.9	39.2	-63.7	9.6
2025-01-27 16:32:28.879571	268.4	39.1	-63.9	9.6
2025-01-27 16:32:30.021532	268.9	39.1	-63.5	9.1
2025-01-27 16:32:31.163998	269.4	39.1	-63.4	8.3
2025-01-27 16:32:32.311943	269.9	39.0	-63.4	8.0
2025-01-27 16:32:33.452417	270.4	39.0	-63.6	10.0
2025-01-27 16:32:34.593889	270.9	39.0	-63.6	9.2
2025-01-27 16:32:35.738352	271.4	38.9	-63.2	7.8
2025-01-27 16:32:36.881311	272.0	38.9	-63.2	7.5
2025-01-27 16:32:38.022785	272.5	38.9	-62.8	8.8
2025-01-27 16:32:39.166742	272.9	38.8	-63.6	8.6
2025-01-27 16:32:40.306707	273.4	38.8	-63.6	9.1
2025-01-27 16:32:41.448668	273.9	38.7	-63.3	8.3
2025-01-27 16:32:42.590137	274.4	38.7	-63.8	8.0
2025-01-27 16:32:43.733094	274.9	38.6	-63.8	7.9
2025-01-27 16:32:44.875072	275.4	38.6	-63.1	5.8
2025-01-27 16:32:46.017033	275.9	38.5	-63.8	7.5
2025-01-27 16:32:47.159991	276.4	38.4	-64.4	9.1
2025-01-27 16:32:48.301459	276.9	38.4	-64.2	7.0
2025-01-27 16:32:49.443420	277.4	38.3	-64.2	7.9
2025-01-27 16:32:50.584383	277.8	38.2	-63.9	6.5
2025-01-27 16:32:51.726344	278.3	38.2	-64.3	6.5
2025-01-27 16:32:52.868304	278.8	38.1	-64.8	8.5
2025-01-27 16:32:54.010265	279.3	38.0	-64.5	8.0
2025-01-27 16:32:55.152226	279.8	38.0	-64.7	8.3
2025-01-27 16:32:56.302165	280.2	37.9	-65.2	6.9
2025-01-27 16:32:57.444125	280.7	37.8	-65.5	8.1
2025-01-27 16:32:58.586108	281.2	37.7	-65.2	7.8
2025-01-27 16:32:59.731062	281.6	37.6	-65.7	8.4
2025-01-27 16:33:00.872024	282.1	37.6	-65.2	8.1
2025-01-27 16:33:02.014491	282.5	37.5	-64.3	8.9
2025-01-27 16:33:03.155454	283.0	37.4	-65.6	9.0
2025-01-27 16:33:04.299919	283.5	37.3	-65.9	8.6
2025-01-27 16:33:05.443890	283.9	37.2	-65.6	9.6
2025-01-27 16:33:06.584854	284.4	37.1	-65.3	9.2
2025-01-27 16:33:07.730804	284.8	37.0	-66.1	8.6
2025-01-27 16:33:08.873761	285.3	36.9	-65.4	9.7
2025-01-27 16:33:10.013727	285.7	36.8	-65.1	9.3
2025-01-27 16:33:11.157682	286.1	36.7	-65.5	10.4
2025-01-27 16:33:12.298645	286.6	36.6	-65.3	9.7
2025-01-27 16:33:13.441115	287.0	36.5	-65.3	9.9
2025-01-27 16:33:14.584073	287.4	36.4	-65.3	10.9
2025-01-27 16:33:15.729025	287.9	36.3	-65.7	10.6
2025-01-27 16:33:16.870986	288.3	36.2	-65.2	10.7
2025-01-27 16:33:18.014941	288.7	36.1	-65.1	11.1
2025-01-27 16:33:19.157408	289.1	36.0	-65.3	11.8
2025-01-27 16:33:20.299368	289.6	35.9	-65.3	10.6
2025-01-27 16:33:21.442327	290.0	35.8	-65.2	11.6
2025-01-27 16:33:22.583289	290.4	35.6	-64.9	12.1
2025-01-27 16:33:23.726754	290.8	35.5	-65.1	12.0
2025-01-27 16:33:24.868713	291.2	35.4	-65.1	12.0
2025-01-27 16:33:26.016658	291.6	35.3	-64.8	12.3
2025-01-27 16:33:27.158619	292.0	35.2	-65.4	13.2
2025-01-27 16:33:28.300089	292.4	35.1	-64.9	11.4
2025-01-27 16:33:29.443556	292.8	34.9	-64.5	11.8
2025-01-27 16:33:30.585517	293.2	34.8	-64.6	12.5
2025-01-27 16:33:31.729472	293.6	34.7	-64.2	10.4
2025-01-27 16:33:32.871433	294.0	34.6	-65.0	12.8
2025-01-27 16:33:34.015389	294.3	34.4	-64.5	10.5
2025-01-27 16:33:35.159343	294.7	34.3	-64.8	12.7
2025-01-27 16:33:36.305310	295.1	34.2	-65.2	13.1
2025-01-27 16:33:37.448268	295.5	34.1	-64.3	11.9
2025-01-27 16:33:38.595215	295.8	33.9	-65.0	12.6
2025-01-27 16:33:39.737176	296.2	33.8	-65.4	13.4
2025-01-27 16:33:40.878139	296.6	33.7	-65.3	13.4
2025-01-27 16:33:42.021098	296.9	33.5	-64.5	12.6
2025-01-27 16:33:43.161063	297.3	33.4	-65.1	14.0
2025-01-27 16:33:44.306016	297.7	33.3	-64.7	12.9
2025-01-27 16:33:45.446978	298.0	33.2	-64.7	13.6
2025-01-27 16:33:46.589937	298.4	33.0	-64.5	12.4
2025-01-27 16:33:47.731897	298.7	32.9	-65.4	13.1
2025-01-27 16:33:48.873857	299.1	32.8	-65.3	11.5
2025-01-27 16:33:50.014820	299.4	32.6	-65.3	13.0
2025-01-27 16:33:51.156781	299.7	32.5	-65.1	12.6
2025-01-27 16:33:52.296747	300.1	32.4	-65.6	12.8
2025-01-27 16:33:53.438725	300.4	32.2	-64.9	12.2
2025-01-27 16:33:54.580686	300.7	32.1	-65.3	12.9
2025-01-27 16:33:55.722646	301.1	31.9	-65.3	11.8
2025-01-27 16:33:56.865117	301.4	31.8	-65.5	12.2
2025-01-27 16:33:58.009071	301.7	31.7	-65.2	11.0
2025-01-27 16:33:59.151032	302.0	31.5	-64.8	12.1
2025-01-27 16:34:00.300971	302.4	31.4	-65.3	12.2
2025-01-27 16:34:01.443442	302.7	31.3	-64.9	12.0
2025-01-27 16:34:02.585402	303.0	31.1	-65.9	14.2
2025-01-27 16:34:03.728359	303.3	31.0	-64.9	10.2
2025-01-27 16:34:04.869323	303.6	30.8	-66.4	11.4
2025-01-27 16:34:06.011283	303.9	30.7	-65.7	10.9
2025-01-27 16:34:07.155239	304.2	30.6	-65.4	10.3
2025-01-27 16:34:08.298196	304.5	30.4	-65.8	11.0
2025-01-27 16:34:09.439160	304.8	30.3	-65.5	10.8
2025-01-27 16:34:10.581120	305.1	30.1	-66.3	10.7
2025-01-27 16:34:11.723081	305.4	30.0	-64.3	0.0
#Closed at: 2025-01-27 16:30:19.375016