passes_logs/2025/01/27/Planum_Noyabrsk/Planum_Noyabrsk__20250127_144833_NOAA_19_rec.log

#Pass ID: 20250127_144833_NOAA 19
#Satellite: NOAA 19
#Configuration: NOAA 19
#Start time: 2025-01-27 14:48:38.582338

#LorettStation: 1.0.0 05.05.2024
#Station: Planum_Noyabrsk
#Location: 75.446886 lon 63.207202 lat
#TLE: 1 33591U 09005A   25026.61487716  .00000371  00000+0  22199-3 0  9996
#TLE: 2 33591  99.0176  90.4659 0014024  26.0549 334.1326 14.13269616822929

#Time	Az	El	Level	SNR
2025-01-27 14:48:44.780064	131.4	31.1	-53.2	0.0
2025-01-27 14:48:45.923029	131.2	31.3	-56.4	0.0
2025-01-27 14:48:47.064503	131.1	31.6	-57.0	0.0
2025-01-27 14:48:48.211457	131.0	31.8	-54.4	0.0
2025-01-27 14:48:49.353423	130.8	32.0	-56.2	0.0
2025-01-27 14:48:50.496387	130.7	32.2	-54.1	0.0
2025-01-27 14:48:51.637357	130.6	32.4	-58.1	0.0
2025-01-27 14:48:52.781318	130.4	32.7	-50.4	0.0
2025-01-27 14:48:53.923285	130.3	32.9	-51.4	0.0
2025-01-27 14:48:55.065252	130.1	33.1	-56.3	0.0
2025-01-27 14:48:56.207218	130.0	33.3	-56.1	0.0
2025-01-27 14:48:57.349185	129.8	33.6	-56.2	0.0
2025-01-27 14:48:58.491152	129.7	33.8	-54.5	0.0
2025-01-27 14:48:59.632121	129.5	34.0	-56.1	0.0
2025-01-27 14:49:00.774088	129.4	34.3	-51.1	0.0
2025-01-27 14:49:01.917072	129.2	34.5	-55.9	0.0
2025-01-27 14:49:03.060036	129.1	34.7	-57.5	0.0
2025-01-27 14:49:04.202003	128.9	35.0	-56.1	0.0
2025-01-27 14:49:05.343478	128.7	35.2	-55.7	0.0
2025-01-27 14:49:06.484447	128.6	35.4	-56.3	0.0
2025-01-27 14:49:07.626414	128.4	35.7	-57.9	0.0
2025-01-27 14:49:08.767889	128.2	35.9	-49.6	0.0
2025-01-27 14:49:09.909856	128.0	36.2	-57.0	0.0
2025-01-27 14:49:11.050825	127.9	36.4	-57.8	0.0
2025-01-27 14:49:12.192792	127.7	36.7	-57.0	0.0
2025-01-27 14:49:13.334760	127.5	36.9	-56.8	0.0
2025-01-27 14:49:14.476726	127.3	37.2	-54.3	0.0
2025-01-27 14:49:15.621684	127.1	37.4	-52.9	0.0
2025-01-27 14:49:16.762653	126.9	37.7	-49.4	0.0
2025-01-27 14:49:17.904620	126.7	37.9	-56.4	0.0
2025-01-27 14:49:19.045589	126.5	38.2	-59.0	0.0
2025-01-27 14:49:20.187556	126.3	38.4	-56.5	0.0
2025-01-27 14:49:21.328526	126.1	38.7	-55.8	0.0
2025-01-27 14:49:22.473992	125.9	39.0	-50.4	0.0
2025-01-27 14:49:23.616465	125.7	39.2	-52.7	0.0
2025-01-27 14:49:24.758432	125.5	39.5	-56.0	0.0
2025-01-27 14:49:25.899909	125.3	39.7	-55.9	0.0
2025-01-27 14:49:27.041924	125.1	40.0	-55.0	0.0
2025-01-27 14:49:28.183890	124.8	40.3	-56.0	0.0
2025-01-27 14:49:29.326854	124.6	40.6	-54.1	0.0
2025-01-27 14:49:30.469335	124.4	40.8	-54.8	0.0
2025-01-27 14:49:31.613297	124.1	41.1	-51.8	0.0
2025-01-27 14:49:32.753269	123.9	41.4	-51.7	0.0
2025-01-27 14:49:33.899225	123.6	41.7	-55.3	0.0
2025-01-27 14:49:35.042697	123.4	41.9	-56.9	0.0
2025-01-27 14:49:36.183666	123.1	42.2	-55.3	0.0
2025-01-27 14:49:37.326141	122.9	42.5	-56.2	0.0
2025-01-27 14:49:38.467110	122.6	42.8	-56.9	0.0
2025-01-27 14:49:39.609077	122.3	43.1	-57.5	0.0
2025-01-27 14:49:40.752041	122.1	43.3	-51.0	0.0
2025-01-27 14:49:41.894007	121.8	43.6	-57.8	0.0
2025-01-27 14:49:43.036480	121.5	43.9	-57.0	0.0
2025-01-27 14:49:44.176958	121.2	44.2	-58.1	0.0
2025-01-27 14:49:45.319922	120.9	44.5	-58.3	0.0
2025-01-27 14:49:46.461888	120.6	44.8	-58.6	0.0
2025-01-27 14:49:47.606847	120.3	45.1	-58.3	0.0
2025-01-27 14:49:48.749812	120.0	45.4	-59.6	0.0
2025-01-27 14:49:49.890780	119.7	45.7	-60.3	0.0
2025-01-27 14:49:51.031770	119.3	46.0	-58.0	0.0
2025-01-27 14:49:52.172739	119.0	46.3	-59.4	0.0
2025-01-27 14:49:53.315703	118.7	46.6	-60.1	0.0
2025-01-27 14:49:54.456673	118.3	46.9	-60.7	0.0
2025-01-27 14:49:55.599637	118.0	47.2	-58.9	1.6
2025-01-27 14:49:56.741604	117.6	47.5	-52.7	0.0
2025-01-27 14:49:57.883571	117.3	47.8	-58.6	0.0
2025-01-27 14:49:59.026536	116.9	48.1	-59.3	2.2
2025-01-27 14:50:00.169498	116.5	48.4	-53.2	0.0
2025-01-27 14:50:01.311465	116.1	48.7	-54.5	0.0
2025-01-27 14:50:02.452434	115.7	49.0	-58.5	0.1
2025-01-27 14:50:03.595398	115.3	49.3	-58.4	1.9
2025-01-27 14:50:04.735878	114.9	49.6	-57.1	0.0
2025-01-27 14:50:05.884828	114.5	49.9	-58.6	4.7
2025-01-27 14:50:07.025796	114.1	50.2	-57.8	0.0
2025-01-27 14:50:08.169757	113.7	50.5	-56.3	1.1
2025-01-27 14:50:09.312231	113.2	50.8	-60.8	8.6
2025-01-27 14:50:10.454198	112.8	51.1	-57.8	0.0
2025-01-27 14:50:11.594677	112.3	51.4	-57.0	0.3
2025-01-27 14:50:12.741630	111.8	51.7	-52.7	0.0
2025-01-27 14:50:13.884595	111.3	52.0	-57.8	2.6
2025-01-27 14:50:15.027071	110.8	52.3	-56.7	1.0
2025-01-27 14:50:16.171032	110.3	52.7	-56.9	1.9
2025-01-27 14:50:17.312999	109.8	53.0	-61.2	8.1
2025-01-27 14:50:18.453969	109.3	53.3	-59.8	6.9
2025-01-27 14:50:19.595935	108.8	53.6	-59.9	7.5
2025-01-27 14:50:20.738900	108.2	53.9	-58.7	3.0
2025-01-27 14:50:21.880867	107.7	54.2	-57.6	5.4
2025-01-27 14:50:23.022833	107.1	54.5	-60.6	6.3
2025-01-27 14:50:24.165797	106.5	54.8	-58.8	6.9
2025-01-27 14:50:25.307764	105.9	55.1	-58.5	3.6
2025-01-27 14:50:26.450238	105.3	55.4	-58.1	2.9
2025-01-27 14:50:27.594200	104.7	55.7	-58.2	3.4
2025-01-27 14:50:28.738668	104.1	56.0	-59.1	2.1
2025-01-27 14:50:29.879638	103.4	56.3	-59.9	4.0
2025-01-27 14:50:31.020607	102.7	56.6	-58.6	3.3
2025-01-27 14:50:32.162574	102.1	56.8	-57.1	1.9
2025-01-27 14:50:33.304050	101.4	57.1	-58.8	6.6
2025-01-27 14:50:34.444022	100.7	57.4	-58.1	0.0
2025-01-27 14:50:35.586987	100.0	57.7	-57.2	0.0
2025-01-27 14:50:36.728463	99.2	58.0	-55.7	0.0
2025-01-27 14:50:37.870430	98.5	58.2	-58.7	0.4
2025-01-27 14:50:39.014392	97.7	58.5	-59.6	4.3
2025-01-27 14:50:40.156358	96.9	58.8	-59.4	2.9
2025-01-27 14:50:41.301317	96.1	59.0	-59.2	1.3
2025-01-27 14:50:42.444281	95.3	59.3	-58.8	0.0
2025-01-27 14:50:43.593229	94.5	59.6	-57.5	1.7
2025-01-27 14:50:44.734198	93.6	59.8	-53.6	0.0
2025-01-27 14:50:45.876165	92.8	60.1	-58.8	1.8
2025-01-27 14:50:47.018638	91.9	60.3	-58.2	1.6
2025-01-27 14:50:48.163596	91.0	60.5	-57.5	0.0
2025-01-27 14:50:49.306560	90.1	60.8	-58.3	1.3
2025-01-27 14:50:50.447530	89.2	61.0	-57.7	1.1
2025-01-27 14:50:51.591491	88.2	61.2	-58.2	0.0
2025-01-27 14:50:52.734455	87.3	61.4	-59.2	4.6
2025-01-27 14:50:53.876928	86.3	61.6	-59.9	4.9
2025-01-27 14:50:55.022884	85.3	61.8	-57.5	0.0
2025-01-27 14:50:56.164853	84.3	62.0	-58.3	0.0
2025-01-27 14:50:57.311314	83.3	62.2	-57.6	0.0
2025-01-27 14:50:58.452282	82.2	62.4	-58.1	0.0
2025-01-27 14:50:59.594249	81.2	62.5	-58.6	0.1
2025-01-27 14:51:00.736725	80.1	62.7	-52.6	0.0
2025-01-27 14:51:01.878692	79.0	62.9	-57.5	0.0
2025-01-27 14:51:03.021167	77.9	63.0	-54.9	0.0
2025-01-27 14:51:04.163133	76.8	63.1	-58.7	0.9
2025-01-27 14:51:05.308091	75.7	63.3	-56.4	0.0
2025-01-27 14:51:06.450059	74.6	63.4	-59.6	0.0
2025-01-27 14:51:07.590537	73.4	63.5	-61.2	1.8
2025-01-27 14:51:08.736494	72.3	63.6	-52.6	0.0
2025-01-27 14:51:09.878461	71.1	63.7	-61.9	4.0
2025-01-27 14:51:11.021424	69.9	63.8	-59.5	0.0
2025-01-27 14:51:12.163420	68.8	63.8	-58.4	0.0
2025-01-27 14:51:13.305358	67.6	63.9	-60.3	0.0
2025-01-27 14:51:14.447325	66.4	63.9	-57.9	0.0
2025-01-27 14:51:15.590288	65.2	64.0	-56.5	0.0
2025-01-27 14:51:16.732255	64.0	64.0	-53.5	0.0
2025-01-27 14:51:17.874222	62.8	64.0	-57.1	0.0
2025-01-27 14:51:19.015191	61.6	64.0	-57.6	0.0
2025-01-27 14:51:20.155670	60.4	64.0	-56.8	0.0
2025-01-27 14:51:21.296656	59.2	64.0	-59.0	0.3
2025-01-27 14:51:22.439620	58.0	64.0	-57.6	0.0
2025-01-27 14:51:23.581586	56.8	64.0	-59.2	0.0
2025-01-27 14:51:24.725056	55.6	63.9	-57.6	0.0
2025-01-27 14:51:25.867023	54.4	63.9	-59.1	5.4
2025-01-27 14:51:27.010985	53.2	63.8	-57.9	0.0
2025-01-27 14:51:28.152461	52.0	63.8	-57.4	0.0
2025-01-27 14:51:29.294427	50.9	63.7	-58.1	0.0
2025-01-27 14:51:30.438389	49.7	63.6	-57.9	0.0
2025-01-27 14:51:31.586340	48.6	63.5	-57.9	0.0
2025-01-27 14:51:32.727309	47.4	63.4	-57.2	0.0
2025-01-27 14:51:33.870273	46.3	63.3	-57.9	0.0
2025-01-27 14:51:35.010754	45.2	63.1	-57.3	0.0
2025-01-27 14:51:36.153719	44.1	63.0	-57.7	0.0
2025-01-27 14:51:37.294688	43.0	62.8	-56.5	0.0
2025-01-27 14:51:38.437161	41.9	62.7	-57.8	1.2
2025-01-27 14:51:39.584114	40.8	62.5	-58.5	1.4
2025-01-27 14:51:40.729073	39.8	62.4	-58.8	3.0
2025-01-27 14:51:41.870042	38.7	62.2	-57.5	0.0
2025-01-27 14:51:43.012009	37.7	62.0	-57.9	0.0
2025-01-27 14:51:44.153976	36.7	61.8	-58.6	4.5
2025-01-27 14:51:45.298444	35.7	61.6	-60.3	4.9
2025-01-27 14:51:46.441409	34.7	61.4	-61.0	4.5
2025-01-27 14:51:47.582378	33.8	61.2	-59.4	3.8
2025-01-27 14:51:48.729840	32.8	61.0	-57.7	2.6
2025-01-27 14:51:49.871807	31.9	60.7	-59.6	5.7
2025-01-27 14:51:51.012776	31.0	60.5	-60.3	5.5
2025-01-27 14:51:52.154252	30.1	60.3	-58.8	5.5
2025-01-27 14:51:53.300208	29.2	60.0	-60.9	6.3
2025-01-27 14:51:54.445167	28.4	59.8	-60.4	9.0
2025-01-27 14:51:55.588131	27.5	59.6	-60.3	6.5
2025-01-27 14:51:56.731120	26.7	59.3	-59.6	3.2
2025-01-27 14:51:57.873062	25.9	59.0	-60.4	8.5
2025-01-27 14:51:59.020015	25.1	58.8	-60.2	6.2
2025-01-27 14:52:00.161981	24.3	58.5	-60.7	6.4
2025-01-27 14:52:01.304946	23.6	58.2	-59.8	5.0
2025-01-27 14:52:02.447418	22.8	58.0	-63.0	9.9
2025-01-27 14:52:03.589385	22.1	57.7	-61.4	6.1
2025-01-27 14:52:04.731352	21.4	57.4	-59.9	2.7
2025-01-27 14:52:05.874827	20.7	57.1	-61.8	5.3
2025-01-27 14:52:07.018789	20.0	56.8	-61.6	6.2
2025-01-27 14:52:08.163747	19.3	56.6	-60.9	4.7
2025-01-27 14:52:09.305715	18.7	56.3	-62.6	9.1
2025-01-27 14:52:10.448679	18.0	56.0	-62.0	6.4
2025-01-27 14:52:11.590646	17.4	55.7	-61.3	5.5
2025-01-27 14:52:12.733122	16.8	55.4	-61.1	5.8
2025-01-27 14:52:13.876087	16.2	55.1	-61.6	8.3
2025-01-27 14:52:15.017055	15.6	54.8	-61.9	6.0
2025-01-27 14:52:16.159528	15.0	54.5	-62.1	9.3
2025-01-27 14:52:17.301495	14.4	54.2	-61.0	6.2
2025-01-27 14:52:18.444001	13.9	53.9	-62.3	5.9
2025-01-27 14:52:19.584970	13.3	53.6	-61.7	5.4
2025-01-27 14:52:20.727934	12.8	53.3	-60.3	2.2
2025-01-27 14:52:21.869900	12.3	53.0	-62.3	5.9
2025-01-27 14:52:23.016854	11.8	52.7	-62.0	4.6
2025-01-27 14:52:24.157823	11.3	52.4	-61.7	3.8
2025-01-27 14:52:25.299791	10.8	52.1	-62.3	5.0
2025-01-27 14:52:26.439273	10.3	51.8	-62.1	3.6
2025-01-27 14:52:27.581239	9.8	51.4	-62.5	3.3
2025-01-27 14:52:28.722209	9.4	51.1	-61.7	5.7
2025-01-27 14:52:29.863688	8.9	50.8	-61.6	3.5
2025-01-27 14:52:31.006652	8.5	50.5	-61.8	4.7
2025-01-27 14:52:32.150614	8.0	50.2	-60.3	3.1
2025-01-27 14:52:33.292581	7.6	49.9	-60.2	4.3
2025-01-27 14:52:34.436542	7.2	49.6	-60.7	2.5
2025-01-27 14:52:35.578509	6.8	49.3	-62.1	7.6
2025-01-27 14:52:36.719986	6.4	49.0	-61.0	0.0
2025-01-27 14:52:37.858961	6.0	48.7	-60.7	2.3
2025-01-27 14:52:39.001925	5.6	48.4	-62.5	4.7
2025-01-27 14:52:40.147881	5.2	48.1	-61.4	5.0
2025-01-27 14:52:41.288850	4.9	47.8	-60.8	0.7
2025-01-27 14:52:42.430817	4.5	47.5	-61.2	1.1
2025-01-27 14:52:43.571787	4.1	47.2	-60.8	1.0
2025-01-27 14:52:44.714750	3.8	46.9	-59.9	0.0
2025-01-27 14:52:45.858712	3.5	46.6	-62.6	4.2
2025-01-27 14:52:47.000193	3.1	46.3	-62.7	3.9
2025-01-27 14:52:48.143158	2.8	46.0	-62.5	3.5
2025-01-27 14:52:49.284127	2.5	45.7	-62.5	2.4
2025-01-27 14:52:50.427090	2.2	45.4	-62.1	5.0
2025-01-27 14:52:51.567569	1.8	45.1	-63.3	7.1
2025-01-27 14:52:52.709536	1.5	44.8	-61.1	1.7
2025-01-27 14:52:53.852500	1.2	44.6	-62.0	4.1
2025-01-27 14:52:54.992981	0.9	44.3	-61.8	4.4
2025-01-27 14:52:56.135457	0.7	44.0	-61.6	6.2
2025-01-27 14:52:57.276424	0.4	43.7	-62.1	4.7
2025-01-27 14:52:58.418897	0.1	43.4	-61.7	4.8
2025-01-27 14:52:59.558869	359.8	43.1	-61.9	4.4
2025-01-27 14:53:00.701833	359.6	42.8	-61.8	4.0
2025-01-27 14:53:01.841821	359.3	42.6	-61.1	4.4
2025-01-27 14:53:02.983788	359.0	42.3	-60.7	4.8
2025-01-27 14:53:04.126752	358.8	42.0	-61.6	4.4
2025-01-27 14:53:05.273722	358.5	41.7	-62.3	5.8
2025-01-27 14:53:06.415688	358.3	41.5	-60.2	2.3
2025-01-27 14:53:07.558652	358.0	41.2	-61.1	3.8
2025-01-27 14:53:08.700130	357.8	40.9	-60.7	3.2
2025-01-27 14:53:09.841099	357.6	40.6	-60.4	3.6
2025-01-27 14:53:10.985060	357.3	40.4	-60.7	3.4
2025-01-27 14:53:12.129529	357.1	40.1	-60.7	2.4
2025-01-27 14:53:13.270497	356.9	39.8	-60.1	1.5
2025-01-27 14:53:14.412970	356.7	39.6	-61.1	2.1
2025-01-27 14:53:15.553448	356.5	39.3	-61.3	2.6
2025-01-27 14:53:16.695414	356.2	39.1	-58.9	0.0
2025-01-27 14:53:17.836384	356.0	38.8	-60.7	2.0
2025-01-27 14:53:18.977860	355.8	38.5	-60.9	0.2
2025-01-27 14:53:20.120824	355.6	38.3	-60.3	1.4
2025-01-27 14:53:21.261793	355.4	38.0	-61.5	6.0
2025-01-27 14:53:22.405770	355.2	37.8	-60.6	1.3
2025-01-27 14:53:23.547737	355.0	37.5	-60.3	1.1
2025-01-27 14:53:24.689705	354.9	37.3	-60.0	1.7
2025-01-27 14:53:25.833178	354.7	37.0	-60.6	0.0
2025-01-27 14:53:26.973150	354.5	36.8	-60.2	0.0
2025-01-27 14:53:28.115116	354.3	36.5	-59.9	0.0
2025-01-27 14:53:29.257593	354.1	36.3	-60.4	0.0
2025-01-27 14:53:30.398562	354.0	36.0	-60.9	0.0
2025-01-27 14:53:31.542524	353.8	35.8	-59.8	0.0
2025-01-27 14:53:32.684490	353.6	35.6	-56.4	0.0
2025-01-27 14:53:33.827454	353.4	35.3	-59.4	0.0
2025-01-27 14:53:34.968424	353.3	35.1	-59.8	0.0
2025-01-27 14:53:36.109394	353.1	34.9	-58.9	0.0
2025-01-27 14:53:37.251360	353.0	34.6	-58.1	0.0
2025-01-27 14:53:38.393326	352.8	34.4	-60.7	0.3
2025-01-27 14:53:39.535293	352.6	34.2	-60.5	0.0
2025-01-27 14:53:40.675774	352.5	33.9	-55.1	0.0
2025-01-27 14:53:41.821731	352.3	33.7	-58.6	0.0
2025-01-27 14:53:42.964695	352.2	33.5	-58.2	0.0
2025-01-27 14:53:44.111665	352.0	33.2	-59.0	0.0
2025-01-27 14:53:45.253631	351.9	33.0	-56.3	0.0
2025-01-27 14:53:46.396107	351.8	32.8	-58.8	0.0
2025-01-27 14:53:47.540069	351.6	32.6	-58.8	0.0
2025-01-27 14:53:48.682035	351.5	32.4	-57.0	0.0
2025-01-27 14:53:49.824511	351.3	32.1	-57.6	0.0
2025-01-27 14:53:50.970467	351.2	31.9	-57.5	0.0
2025-01-27 14:53:52.112434	351.1	31.7	-57.5	0.0
2025-01-27 14:53:53.253912	350.9	31.5	-57.7	0.0
2025-01-27 14:53:54.394880	350.8	31.3	-56.9	0.0
2025-01-27 14:53:55.538843	350.7	31.1	-57.0	0.0
2025-01-27 14:53:56.681318	350.6	30.9	-55.6	0.0
2025-01-27 14:53:57.825279	350.4	30.7	-57.3	0.0
2025-01-27 14:53:58.966249	350.3	30.4	-57.2	0.0
2025-01-27 14:54:00.108722	350.2	30.2	-57.0	0.0
2025-01-27 14:54:01.250689	350.1	30.0	-60.8	0.0
#Closed at: 2025-01-27 14:48:33.585795