passes_logs/2025/01/27/Planum_Noyabrsk/Planum_Noyabrsk__20250127_065432_NOAA_18_rec.log

#Pass ID: 20250127_065432_NOAA 18
#Satellite: NOAA 18
#Configuration: NOAA 18
#Start time: 2025-01-27 06:54:37.615887

#LorettStation: 1.0.0 05.05.2024
#Station: Planum_Noyabrsk
#Location: 75.446886 lon 63.207202 lat
#TLE: 1 28654U 05018A   25026.55938578  .00000422  00000+0  24727-3 0  9996
#TLE: 2 28654  98.8549 107.4981 0014828 147.3283 212.8810 14.13497870 14732

#Time	Az	El	Level	SNR
2025-01-27 06:54:43.827882	20.1	31.2	-49.3	0.0
2025-01-27 06:54:44.969847	20.1	31.4	-49.9	0.0
2025-01-27 06:54:46.118301	20.1	31.6	-49.0	0.0
2025-01-27 06:54:47.260265	20.1	31.9	-50.3	0.0
2025-01-27 06:54:48.405221	20.1	32.1	-50.6	0.0
2025-01-27 06:54:49.546206	20.1	32.3	-52.3	0.0
2025-01-27 06:54:50.687173	20.1	32.6	-48.7	0.0
2025-01-27 06:54:51.829137	20.1	32.8	-49.5	0.0
2025-01-27 06:54:52.970611	20.1	33.0	-50.6	0.0
2025-01-27 06:54:54.113573	20.1	33.3	-49.0	0.0
2025-01-27 06:54:55.255537	20.1	33.5	-50.0	0.0
2025-01-27 06:54:56.396013	20.1	33.8	-49.0	0.0
2025-01-27 06:54:57.540969	20.0	34.0	-50.1	0.0
2025-01-27 06:54:58.682933	20.0	34.3	-50.6	0.0
2025-01-27 06:54:59.824898	20.0	34.5	-51.2	0.0
2025-01-27 06:55:00.966862	20.0	34.8	-49.9	0.0
2025-01-27 06:55:02.111819	20.0	35.0	-52.0	0.0
2025-01-27 06:55:03.257773	20.0	35.3	-52.3	0.0
2025-01-27 06:55:04.400734	20.0	35.5	-52.5	0.0
2025-01-27 06:55:05.542698	20.0	35.8	-52.7	0.0
2025-01-27 06:55:06.684662	20.0	36.0	-53.3	0.0
2025-01-27 06:55:07.825629	20.0	36.3	-55.2	0.0
2025-01-27 06:55:08.967594	20.0	36.6	-52.6	0.0
2025-01-27 06:55:10.109558	20.0	36.8	-54.6	0.0
2025-01-27 06:55:11.250525	20.0	37.1	-54.3	0.0
2025-01-27 06:55:12.391001	19.9	37.4	-54.7	0.0
2025-01-27 06:55:13.532966	19.9	37.6	-52.9	0.0
2025-01-27 06:55:14.673933	19.9	37.9	-54.7	0.0
2025-01-27 06:55:15.815411	19.9	38.2	-55.0	0.0
2025-01-27 06:55:16.957375	19.9	38.5	-55.7	0.0
2025-01-27 06:55:18.099340	19.9	38.8	-54.7	0.0
2025-01-27 06:55:19.240306	19.9	39.0	-56.2	0.0
2025-01-27 06:55:20.383269	19.9	39.3	-55.2	0.0
2025-01-27 06:55:21.528225	19.9	39.6	-56.9	0.0
2025-01-27 06:55:22.669191	19.9	39.9	-58.5	0.0
2025-01-27 06:55:23.811156	19.8	40.2	-56.8	0.0
2025-01-27 06:55:24.952123	19.8	40.5	-57.3	0.0
2025-01-27 06:55:26.095084	19.8	40.8	-57.7	0.0
2025-01-27 06:55:27.237049	19.8	41.1	-60.0	2.6
2025-01-27 06:55:28.378522	19.8	41.4	-61.1	5.3
2025-01-27 06:55:29.523478	19.8	41.7	-59.2	0.5
2025-01-27 06:55:30.664445	19.8	42.0	-59.2	1.3
2025-01-27 06:55:31.806919	19.8	42.4	-58.9	2.9
2025-01-27 06:55:32.949880	19.7	42.7	-59.6	3.6
2025-01-27 06:55:34.095837	19.7	43.0	-59.2	1.9
2025-01-27 06:55:35.239304	19.7	43.3	-59.1	1.7
2025-01-27 06:55:36.382266	19.7	43.6	-60.1	3.0
2025-01-27 06:55:37.524230	19.7	44.0	-59.9	3.2
2025-01-27 06:55:38.666701	19.7	44.3	-60.5	4.5
2025-01-27 06:55:39.809663	19.6	44.6	-61.2	6.5
2025-01-27 06:55:40.953622	19.6	45.0	-61.3	8.1
2025-01-27 06:55:42.096584	19.6	45.3	-61.3	6.7
2025-01-27 06:55:43.240544	19.6	45.6	-61.4	6.0
2025-01-27 06:55:44.382507	19.6	46.0	-62.0	5.8
2025-01-27 06:55:45.526467	19.6	46.3	-60.7	7.1
2025-01-27 06:55:46.670427	19.5	46.7	-59.8	3.3
2025-01-27 06:55:47.813387	19.5	47.0	-61.2	7.5
2025-01-27 06:55:48.955351	19.5	47.4	-60.5	7.4
2025-01-27 06:55:50.096318	19.5	47.7	-59.7	4.8
2025-01-27 06:55:51.239280	19.5	48.1	-61.9	5.6
2025-01-27 06:55:52.386231	19.4	48.5	-61.1	8.6
2025-01-27 06:55:53.531187	19.4	48.8	-62.1	7.3
2025-01-27 06:55:54.673152	19.4	49.2	-62.1	7.8
2025-01-27 06:55:55.817619	19.4	49.6	-62.7	7.5
2025-01-27 06:55:56.959584	19.3	50.0	-63.0	7.9
2025-01-27 06:55:58.103544	19.3	50.3	-62.2	4.2
2025-01-27 06:55:59.245506	19.3	50.7	-63.5	7.8
2025-01-27 06:56:00.387472	19.3	51.1	-63.0	6.6
2025-01-27 06:56:01.528946	19.2	51.5	-63.2	4.8
2025-01-27 06:56:02.671908	19.2	51.9	-63.8	8.2
2025-01-27 06:56:03.814869	19.2	52.3	-63.4	4.7
2025-01-27 06:56:04.958828	19.1	52.7	-63.6	3.4
2025-01-27 06:56:06.101792	19.1	53.1	-63.9	5.5
2025-01-27 06:56:07.244752	19.1	53.5	-62.4	2.2
2025-01-27 06:56:08.386716	19.0	53.9	-62.6	4.0
2025-01-27 06:56:09.528681	19.0	54.3	-62.5	5.3
2025-01-27 06:56:10.670644	19.0	54.7	-61.8	3.7
2025-01-27 06:56:11.812609	18.9	55.2	-63.6	6.7
2025-01-27 06:56:12.956568	18.9	55.6	-62.0	4.0
2025-01-27 06:56:14.099529	18.8	56.0	-62.1	3.6
2025-01-27 06:56:15.242491	18.8	56.4	-63.3	4.0
2025-01-27 06:56:16.387954	18.8	56.9	-62.2	4.0
2025-01-27 06:56:17.529919	18.7	57.3	-64.4	5.7
2025-01-27 06:56:18.671884	18.7	57.7	-62.2	4.7
2025-01-27 06:56:19.813865	18.6	58.2	-61.6	3.0
2025-01-27 06:56:20.957824	18.6	58.6	-64.1	7.1
2025-01-27 06:56:22.101784	18.5	59.1	-63.2	6.5
2025-01-27 06:56:23.248734	18.5	59.5	-63.4	8.3
2025-01-27 06:56:24.390699	18.4	60.0	-62.6	7.2
2025-01-27 06:56:25.535655	18.4	60.5	-61.7	5.5
2025-01-27 06:56:26.677619	18.3	60.9	-60.6	0.5
2025-01-27 06:56:27.820581	18.2	61.4	-61.5	6.0
2025-01-27 06:56:28.964540	18.2	61.9	-62.1	7.9
2025-01-27 06:56:30.108499	18.1	62.3	-60.4	4.7
2025-01-27 06:56:31.253455	18.0	62.8	-61.7	9.2
2025-01-27 06:56:32.396417	18.0	63.3	-61.4	9.3
2025-01-27 06:56:33.540393	17.9	63.8	-61.5	9.3
2025-01-27 06:56:34.683354	17.8	64.3	-60.9	8.7
2025-01-27 06:56:35.826316	17.7	64.7	-62.0	11.5
2025-01-27 06:56:36.969784	17.6	65.2	-61.1	8.2
2025-01-27 06:56:38.114740	17.5	65.7	-61.8	8.2
2025-01-27 06:56:39.257702	17.4	66.2	-61.6	8.3
2025-01-27 06:56:40.401661	17.3	66.7	-62.2	8.2
2025-01-27 06:56:41.545621	17.2	67.2	-62.6	9.5
2025-01-27 06:56:42.689578	17.1	67.7	-62.5	10.0
2025-01-27 06:56:43.833538	17.0	68.3	-62.4	9.2
2025-01-27 06:56:44.977497	16.9	68.8	-63.6	10.2
2025-01-27 06:56:46.119461	16.7	69.3	-62.6	8.8
2025-01-27 06:56:47.262930	16.6	69.8	-62.6	8.5
2025-01-27 06:56:48.407887	16.5	70.3	-62.7	8.7
2025-01-27 06:56:49.552843	16.3	70.8	-62.5	6.8
2025-01-27 06:56:50.712269	16.1	71.4	-62.3	5.9
2025-01-27 06:56:51.857226	16.0	71.9	-64.0	8.2
2025-01-27 06:56:53.001690	15.8	72.4	-63.3	6.1
2025-01-27 06:56:54.146156	15.6	73.0	-63.7	7.6
2025-01-27 06:56:55.288120	15.4	73.5	-63.8	6.6
2025-01-27 06:56:56.437066	15.1	74.1	-64.0	7.0
2025-01-27 06:56:57.581025	14.9	74.6	-64.1	6.3
2025-01-27 06:56:58.730478	14.6	75.1	-64.1	4.7
2025-01-27 06:56:59.876431	14.3	75.7	-64.6	5.1
2025-01-27 06:57:01.022386	14.0	76.2	-64.2	4.0
2025-01-27 06:57:02.167362	13.7	76.8	-63.2	3.0
2025-01-27 06:57:03.317324	13.3	77.3	-65.8	7.2
2025-01-27 06:57:04.462280	12.9	77.9	-64.4	3.0
2025-01-27 06:57:05.607236	12.5	78.4	-66.2	3.6
2025-01-27 06:57:06.752193	12.0	79.0	-67.1	4.2
2025-01-27 06:57:07.897656	11.4	79.6	-64.2	0.0
2025-01-27 06:57:09.043123	10.8	80.1	-65.0	2.3
2025-01-27 06:57:10.188079	10.1	80.7	-63.1	0.5
2025-01-27 06:57:11.333546	9.4	81.2	-64.6	3.8
2025-01-27 06:57:12.477505	8.5	81.8	-64.5	5.3
2025-01-27 06:57:13.619470	7.5	82.3	-64.9	5.0
2025-01-27 06:57:14.763936	6.3	82.9	-64.3	3.7
2025-01-27 06:57:15.906898	5.0	83.4	-64.1	4.0
2025-01-27 06:57:17.052852	3.3	84.0	-63.2	4.5
2025-01-27 06:57:18.195814	1.4	84.5	-62.5	3.8
2025-01-27 06:57:19.338776	359.0	85.1	-62.4	3.3
2025-01-27 06:57:20.483731	356.1	85.6	-62.3	3.4
2025-01-27 06:57:21.629686	352.4	86.1	-63.4	4.3
2025-01-27 06:57:22.773644	347.6	86.6	-62.7	4.1
2025-01-27 06:57:23.922590	341.1	87.1	-63.5	5.2
2025-01-27 06:57:25.067547	332.5	87.5	-63.1	2.8
2025-01-27 06:57:26.212503	320.9	87.8	-63.2	0.6
2025-01-27 06:57:27.357459	306.1	88.0	-63.2	4.3
2025-01-27 06:57:28.503413	289.2	88.1	-63.8	4.5
2025-01-27 06:57:29.647372	272.7	88.0	-62.8	4.0
2025-01-27 06:57:30.792328	259.0	87.7	-62.8	3.3
2025-01-27 06:57:31.942271	248.4	87.3	-62.9	5.3
2025-01-27 06:57:33.087228	240.6	86.9	-62.3	4.2
2025-01-27 06:57:34.232184	234.8	86.4	-61.9	2.2
2025-01-27 06:57:35.384122	230.4	85.9	-62.2	3.5
2025-01-27 06:57:36.529078	226.9	85.4	-62.7	4.2
2025-01-27 06:57:37.684008	224.2	84.9	-63.1	2.6
2025-01-27 06:57:38.827967	222.0	84.3	-63.2	3.6
2025-01-27 06:57:39.972923	220.2	83.8	-60.9	0.6
2025-01-27 06:57:41.127872	218.6	83.2	-60.7	0.0
2025-01-27 06:57:42.272829	217.3	82.7	-62.1	0.9
2025-01-27 06:57:43.415811	216.2	82.1	-59.9	0.0
2025-01-27 06:57:44.561765	215.3	81.6	-61.7	0.0
2025-01-27 06:57:45.708716	214.5	81.0	-60.8	0.0
2025-01-27 06:57:46.861651	213.7	80.5	-61.3	0.0
2025-01-27 06:57:48.006607	213.1	79.9	-60.8	0.0
2025-01-27 06:57:49.154556	212.5	79.3	-61.6	0.0
2025-01-27 06:57:50.304499	211.9	78.8	-60.3	0.0
2025-01-27 06:57:51.449455	211.5	78.2	-65.1	4.5
2025-01-27 06:57:52.593414	211.0	77.7	-62.6	0.0
2025-01-27 06:57:53.747347	210.7	77.1	-64.5	2.6
2025-01-27 06:57:54.890308	210.3	76.6	-64.8	2.7
2025-01-27 06:57:56.034267	210.0	76.0	-63.8	4.9
2025-01-27 06:57:57.179223	209.7	75.5	-65.8	7.3
2025-01-27 06:57:58.325177	209.4	74.9	-65.4	3.8
2025-01-27 06:57:59.469644	209.1	74.4	-63.7	1.2
2025-01-27 06:58:00.618591	208.9	73.8	-63.7	0.0
2025-01-27 06:58:01.761553	208.7	73.3	-63.2	0.0
2025-01-27 06:58:02.908504	208.5	72.8	-63.3	0.0
2025-01-27 06:58:04.052463	208.3	72.2	-63.1	0.0
2025-01-27 06:58:05.201408	208.1	71.7	-66.2	0.8
2025-01-27 06:58:06.348360	207.9	71.2	-64.8	0.0
2025-01-27 06:58:07.493316	207.7	70.6	-64.1	0.0
2025-01-27 06:58:08.638271	207.6	70.1	-64.4	2.5
2025-01-27 06:58:09.783228	207.4	69.6	-63.5	0.0
2025-01-27 06:58:10.930179	207.3	69.1	-63.9	2.5
2025-01-27 06:58:12.082635	207.2	68.5	-64.3	4.7
2025-01-27 06:58:13.228589	207.1	68.0	-65.8	7.5
2025-01-27 06:58:14.374542	206.9	67.5	-65.9	7.1
2025-01-27 06:58:15.528475	206.8	67.0	-65.8	7.9
2025-01-27 06:58:16.673431	206.7	66.5	-64.6	3.2
2025-01-27 06:58:17.819403	206.6	66.0	-66.2	5.9
2025-01-27 06:58:18.966355	206.5	65.5	-65.6	5.9
2025-01-27 06:58:20.110313	206.4	65.0	-65.1	6.2
2025-01-27 06:58:21.264267	206.4	64.5	-64.3	6.5
2025-01-27 06:58:22.414210	206.3	64.0	-65.4	6.8
2025-01-27 06:58:23.560163	206.2	63.5	-65.4	7.6
2025-01-27 06:58:24.708112	206.1	63.0	-65.1	5.1
2025-01-27 06:58:25.855571	206.0	62.5	-65.6	9.5
2025-01-27 06:58:27.008506	206.0	62.1	-65.4	9.7
2025-01-27 06:58:28.153463	205.9	61.6	-65.5	9.8
2025-01-27 06:58:29.296425	205.8	61.1	-64.6	6.2
2025-01-27 06:58:30.447364	205.8	60.7	-65.2	6.7
2025-01-27 06:58:31.599812	205.7	60.2	-65.1	6.0
2025-01-27 06:58:32.749777	205.7	59.7	-65.1	2.9
2025-01-27 06:58:33.901714	205.6	59.3	-65.7	5.9
2025-01-27 06:58:35.046670	205.6	58.8	-65.0	4.5
2025-01-27 06:58:36.192624	205.5	58.4	-65.8	6.4
2025-01-27 06:58:37.341570	205.5	57.9	-65.8	5.1
2025-01-27 06:58:38.487523	205.4	57.5	-65.7	4.2
2025-01-27 06:58:39.637467	205.4	57.0	-65.1	5.7
2025-01-27 06:58:40.782424	205.3	56.6	-64.7	2.7
2025-01-27 06:58:41.926382	205.3	56.2	-65.6	5.8
2025-01-27 06:58:43.074330	205.2	55.7	-65.1	4.9
2025-01-27 06:58:44.221281	205.2	55.3	-65.5	6.7
2025-01-27 06:58:45.371225	205.2	54.9	-65.9	9.9
2025-01-27 06:58:46.516181	205.1	54.4	-65.5	8.4
2025-01-27 06:58:47.659143	205.1	54.0	-65.7	8.4
2025-01-27 06:58:48.806094	205.1	53.6	-66.0	8.9
2025-01-27 06:58:49.949055	205.0	53.2	-66.3	10.2
2025-01-27 06:58:51.091019	205.0	52.8	-65.6	9.6
2025-01-27 06:58:52.234980	205.0	52.4	-65.6	9.9
2025-01-27 06:58:53.378937	204.9	52.0	-65.4	10.1
2025-01-27 06:58:54.523894	204.9	51.6	-66.5	12.0
2025-01-27 06:58:55.666856	204.9	51.2	-66.7	11.2
2025-01-27 06:58:56.809817	204.8	50.8	-66.3	11.0
2025-01-27 06:58:57.953287	204.8	50.4	-66.2	12.1
2025-01-27 06:58:59.097246	204.8	50.0	-66.0	11.9
2025-01-27 06:59:00.240209	204.8	49.7	-66.6	12.8
2025-01-27 06:59:01.384673	204.7	49.3	-66.4	12.9
2025-01-27 06:59:02.527635	204.7	48.9	-66.4	12.7
2025-01-27 06:59:03.669600	204.7	48.5	-65.9	11.0
2025-01-27 06:59:04.815576	204.7	48.2	-66.3	12.1
2025-01-27 06:59:05.957540	204.6	47.8	-66.4	11.7
2025-01-27 06:59:07.101500	204.6	47.4	-66.1	10.5
2025-01-27 06:59:08.244462	204.6	47.1	-65.7	10.8
2025-01-27 06:59:09.386426	204.6	46.7	-66.4	11.3
2025-01-27 06:59:10.531382	204.6	46.4	-65.6	10.8
2025-01-27 06:59:11.674850	204.5	46.0	-65.6	11.3
2025-01-27 06:59:12.815817	204.5	45.7	-66.3	12.2
2025-01-27 06:59:13.958779	204.5	45.3	-64.8	10.4
2025-01-27 06:59:15.102739	204.5	45.0	-64.8	8.6
2025-01-27 06:59:16.251683	204.5	44.7	-65.3	10.6
2025-01-27 06:59:17.392651	204.4	44.3	-66.3	12.5
2025-01-27 06:59:18.536610	204.4	44.0	-66.5	12.3
2025-01-27 06:59:19.679571	204.4	43.7	-66.5	12.2
2025-01-27 06:59:20.821535	204.4	43.3	-66.9	11.5
2025-01-27 06:59:21.967997	204.4	43.0	-66.7	12.0
2025-01-27 06:59:23.111957	204.4	42.7	-67.0	10.7
2025-01-27 06:59:24.254918	204.3	42.4	-65.5	8.9
2025-01-27 06:59:25.396882	204.3	42.1	-66.4	9.1
2025-01-27 06:59:26.540841	204.3	41.7	-65.2	8.7
2025-01-27 06:59:27.685797	204.3	41.4	-65.3	9.2
2025-01-27 06:59:28.827762	204.3	41.1	-65.7	8.5
2025-01-27 06:59:29.969235	204.3	40.8	-65.7	8.1
2025-01-27 06:59:31.112197	204.3	40.5	-67.7	11.3
2025-01-27 06:59:32.256156	204.3	40.2	-67.3	11.5
2025-01-27 06:59:33.398120	204.2	39.9	-66.8	8.4
2025-01-27 06:59:34.540593	204.2	39.6	-67.6	10.9
2025-01-27 06:59:35.681068	204.2	39.3	-66.8	9.5
2025-01-27 06:59:36.824030	204.2	39.0	-67.0	9.1
2025-01-27 06:59:37.967503	204.2	38.7	-66.2	9.3
2025-01-27 06:59:39.109484	204.2	38.5	-67.4	10.5
2025-01-27 06:59:40.252446	204.2	38.2	-67.2	9.9
2025-01-27 06:59:41.394410	204.2	37.9	-66.9	10.4
2025-01-27 06:59:42.535884	204.2	37.6	-67.5	10.8
2025-01-27 06:59:43.677849	204.1	37.3	-67.0	9.9
2025-01-27 06:59:44.819322	204.1	37.1	-67.4	10.3
2025-01-27 06:59:45.961286	204.1	36.8	-67.2	10.4
2025-01-27 06:59:47.104248	204.1	36.5	-67.0	10.0
2025-01-27 06:59:48.246213	204.1	36.3	-66.5	7.9
2025-01-27 06:59:49.390683	204.1	36.0	-66.6	9.6
2025-01-27 06:59:50.534642	204.1	35.7	-66.8	9.9
2025-01-27 06:59:51.676627	204.1	35.5	-66.4	9.0
2025-01-27 06:59:52.819107	204.1	35.2	-66.6	9.5
2025-01-27 06:59:53.960074	204.1	35.0	-66.5	9.7
2025-01-27 06:59:55.103037	204.1	34.7	-66.6	10.0
2025-01-27 06:59:56.247505	204.1	34.4	-66.2	9.4
2025-01-27 06:59:57.389469	204.0	34.2	-65.9	8.3
2025-01-27 06:59:58.530436	204.0	33.9	-65.7	8.3
2025-01-27 06:59:59.672909	204.0	33.7	-65.7	8.8
2025-01-27 07:00:00.815871	204.0	33.5	-66.0	8.3
2025-01-27 07:00:01.960827	204.0	33.2	-65.8	7.8
2025-01-27 07:00:03.103301	204.0	33.0	-66.0	8.2
2025-01-27 07:00:04.245266	204.0	32.7	-65.8	8.8
2025-01-27 07:00:05.387229	204.0	32.5	-65.8	7.9
2025-01-27 07:00:06.530193	204.0	32.3	-65.9	8.5
2025-01-27 07:00:07.675147	204.0	32.0	-66.0	8.8
2025-01-27 07:00:08.829080	204.0	31.8	-67.0	10.9
2025-01-27 07:00:09.973545	204.0	31.6	-65.6	7.7
2025-01-27 07:00:11.117504	204.0	31.3	-65.4	7.9
2025-01-27 07:00:12.260466	204.0	31.1	-65.5	8.4
2025-01-27 07:00:13.402431	204.0	30.9	-65.8	8.6
2025-01-27 07:00:14.545392	204.0	30.7	-65.6	8.7
2025-01-27 07:00:15.687356	203.9	30.4	-65.6	8.3
2025-01-27 07:00:16.829320	203.9	30.2	-66.2	8.8
2025-01-27 07:00:17.973280	203.9	30.0	-67.6	7.5
#Closed at: 2025-01-27 06:54:32.620691