passes_logs/2025/01/26/Planum_Noyabrsk/Planum_Noyabrsk__20250126_060641_METOP-B_rec.log

#Pass ID: 20250126_060641_METOP-B
#Satellite: METOP-B
#Configuration: METOP-B
#Start time: 2025-01-26 06:06:46.506153

#LorettStation: 1.0.0 05.05.2024
#Station: Planum_Noyabrsk
#Location: 75.446886 lon 63.207202 lat
#TLE: 1 38771U 12049A   25025.53036157  .00000368  00000+0  18796-3 0  9996
#TLE: 2 38771  98.5994  83.4165 0001560  69.7043 290.4302 14.21418220641141

#Time	Az	El	Level	SNR
2025-01-26 06:06:58.760309	359.5	32.1	-63.8	9.6
2025-01-26 06:06:59.901271	359.3	32.3	-63.6	11.0
2025-01-26 06:07:01.044227	359.1	32.5	-64.2	10.0
2025-01-26 06:07:02.188198	358.9	32.7	-63.3	9.0
2025-01-26 06:07:03.331155	358.6	32.9	-62.0	8.1
2025-01-26 06:07:04.472116	358.4	33.1	-63.7	8.7
2025-01-26 06:07:05.618065	358.2	33.3	-63.4	9.8
2025-01-26 06:07:06.760024	357.9	33.5	-63.3	8.8
2025-01-26 06:07:07.901984	357.7	33.7	-63.5	9.0
2025-01-26 06:07:09.043456	357.4	33.9	-63.3	7.8
2025-01-26 06:07:10.186410	357.2	34.1	-63.5	8.9
2025-01-26 06:07:11.330364	356.9	34.4	-62.3	7.3
2025-01-26 06:07:12.474318	356.7	34.6	-62.9	7.6
2025-01-26 06:07:13.619269	356.4	34.8	-63.5	9.8
2025-01-26 06:07:14.761229	356.2	35.0	-63.6	6.9
2025-01-26 06:07:15.907177	355.9	35.2	-63.5	7.8
2025-01-26 06:07:17.049136	355.6	35.4	-62.6	7.0
2025-01-26 06:07:18.191096	355.4	35.6	-62.4	6.2
2025-01-26 06:07:19.335051	355.1	35.8	-61.6	5.6
2025-01-26 06:07:20.476012	354.8	36.1	-62.3	6.0
2025-01-26 06:07:21.619966	354.5	36.3	-61.3	3.1
2025-01-26 06:07:22.765424	354.2	36.5	-61.2	4.5
2025-01-26 06:07:23.905388	353.9	36.7	-61.2	4.7
2025-01-26 06:07:25.048345	353.6	36.9	-61.0	5.1
2025-01-26 06:07:26.190304	353.3	37.1	-61.3	4.7
2025-01-26 06:07:27.333261	353.0	37.4	-61.0	4.2
2025-01-26 06:07:28.478212	352.7	37.6	-60.7	3.9
2025-01-26 06:07:29.620171	352.4	37.8	-60.6	3.8
2025-01-26 06:07:30.763128	352.1	38.0	-60.0	2.5
2025-01-26 06:07:31.903601	351.8	38.2	-60.5	2.9
2025-01-26 06:07:33.048064	351.5	38.5	-60.2	3.1
2025-01-26 06:07:34.195010	351.1	38.7	-59.4	2.0
2025-01-26 06:07:35.338964	350.8	38.9	-59.0	0.0
2025-01-26 06:07:36.481430	350.5	39.1	-59.0	1.4
2025-01-26 06:07:37.623389	350.1	39.3	-58.6	1.0
2025-01-26 06:07:38.768341	349.8	39.6	-58.5	1.3
2025-01-26 06:07:39.910300	349.4	39.8	-57.7	0.1
2025-01-26 06:07:41.052259	349.1	40.0	-57.9	0.0
2025-01-26 06:07:42.194218	348.7	40.2	-57.5	0.0
2025-01-26 06:07:43.338173	348.3	40.5	-57.1	0.0
2025-01-26 06:07:44.481129	348.0	40.7	-57.4	0.0
2025-01-26 06:07:45.623091	347.6	40.9	-57.8	0.0
2025-01-26 06:07:46.764556	347.2	41.1	-59.3	1.0
2025-01-26 06:07:47.905518	346.8	41.4	-56.8	0.0
2025-01-26 06:07:49.047477	346.4	41.6	-57.0	0.0
2025-01-26 06:07:50.189945	346.0	41.8	-56.8	0.0
2025-01-26 06:07:51.330906	345.6	42.0	-57.6	0.0
2025-01-26 06:07:52.471868	345.2	42.2	-56.9	0.0
2025-01-26 06:07:53.615822	344.8	42.5	-56.3	0.0
2025-01-26 06:07:54.757782	344.4	42.7	-56.0	0.0
2025-01-26 06:07:55.898744	343.9	42.9	-56.1	0.0
2025-01-26 06:07:57.040215	343.5	43.1	-56.6	0.0
2025-01-26 06:07:58.184169	343.1	43.3	-58.3	0.0
2025-01-26 06:07:59.325130	342.6	43.6	-55.7	0.0
2025-01-26 06:08:00.472076	342.2	43.8	-56.1	0.0
2025-01-26 06:08:01.615033	341.7	44.0	-56.8	0.0
2025-01-26 06:08:02.755995	341.2	44.2	-56.0	0.0
2025-01-26 06:08:03.896468	340.8	44.4	-56.2	0.0
2025-01-26 06:08:05.038426	340.3	44.6	-56.2	0.0
2025-01-26 06:08:06.179390	339.8	44.9	-56.3	0.0
2025-01-26 06:08:07.330324	339.3	45.1	-55.7	0.0
2025-01-26 06:08:08.473280	338.8	45.3	-56.2	0.0
2025-01-26 06:08:09.616237	338.3	45.5	-56.4	0.0
2025-01-26 06:08:10.765178	337.8	45.7	-58.8	0.0
2025-01-26 06:08:11.908135	337.3	45.9	-58.8	0.6
2025-01-26 06:08:13.049096	336.8	46.1	-55.2	0.0
2025-01-26 06:08:14.191056	336.2	46.3	-55.0	0.0
2025-01-26 06:08:15.333015	335.7	46.5	-55.9	0.0
2025-01-26 06:08:16.477966	335.1	46.7	-54.9	0.0
2025-01-26 06:08:17.619925	334.6	46.9	-57.4	0.0
2025-01-26 06:08:18.761394	334.0	47.1	-56.1	0.0
2025-01-26 06:08:19.903352	333.5	47.3	-56.9	0.0
2025-01-26 06:08:21.047308	332.9	47.5	-56.7	0.0
2025-01-26 06:08:22.190263	332.3	47.7	-56.2	0.0
2025-01-26 06:08:23.333220	331.7	47.9	-55.8	0.0
2025-01-26 06:08:24.474182	331.1	48.1	-55.7	0.0
2025-01-26 06:08:25.616141	330.5	48.2	-55.9	0.0
2025-01-26 06:08:26.758100	329.9	48.4	-58.4	1.2
2025-01-26 06:08:27.903052	329.3	48.6	-58.2	1.1
2025-01-26 06:08:29.046008	328.7	48.8	-58.7	3.3
2025-01-26 06:08:30.187967	328.0	48.9	-59.9	2.3
2025-01-26 06:08:31.331921	327.4	49.1	-58.9	1.9
2025-01-26 06:08:32.474878	326.8	49.3	-59.1	2.1
2025-01-26 06:08:33.615840	326.1	49.4	-57.4	0.0
2025-01-26 06:08:34.758308	325.5	49.6	-57.3	0.0
2025-01-26 06:08:35.901265	324.8	49.8	-60.0	0.0
2025-01-26 06:08:37.043243	324.1	49.9	-58.3	0.0
2025-01-26 06:08:38.187706	323.4	50.0	-58.7	0.0
2025-01-26 06:08:39.327669	322.8	50.2	-60.5	3.8
2025-01-26 06:08:40.470625	322.1	50.3	-60.4	0.5
2025-01-26 06:08:41.617079	321.4	50.5	-61.7	5.9
2025-01-26 06:08:42.759039	320.7	50.6	-62.5	6.9
2025-01-26 06:08:43.900998	319.9	50.7	-62.0	7.1
2025-01-26 06:08:45.044953	319.2	50.8	-59.8	5.2
2025-01-26 06:08:46.187908	318.5	51.0	-60.5	4.7
2025-01-26 06:08:47.330865	317.8	51.1	-59.1	2.4
2025-01-26 06:08:48.472825	317.0	51.2	-58.6	1.5
2025-01-26 06:08:49.614784	316.3	51.3	-59.1	2.3
2025-01-26 06:08:50.756743	315.6	51.4	-59.4	3.2
2025-01-26 06:08:51.907190	314.8	51.5	-60.1	5.2
2025-01-26 06:08:53.050147	314.1	51.6	-60.6	4.4
2025-01-26 06:08:54.195098	313.3	51.6	-59.9	3.7
2025-01-26 06:08:55.338055	312.5	51.7	-62.2	9.1
2025-01-26 06:08:56.483006	311.8	51.8	-60.1	5.5
2025-01-26 06:08:57.623968	311.0	51.9	-60.2	4.7
2025-01-26 06:08:58.766925	310.2	51.9	-60.4	4.9
2025-01-26 06:08:59.907887	309.5	52.0	-61.7	5.6
2025-01-26 06:09:01.050843	308.7	52.0	-60.4	4.7
2025-01-26 06:09:02.195795	307.9	52.1	-61.1	7.1
2025-01-26 06:09:03.338262	307.1	52.1	-60.5	5.8
2025-01-26 06:09:04.479243	306.3	52.2	-60.6	5.9
2025-01-26 06:09:05.620716	305.5	52.2	-60.6	5.9
2025-01-26 06:09:06.761679	304.8	52.2	-61.3	7.6
2025-01-26 06:09:07.906632	304.0	52.2	-61.4	6.2
2025-01-26 06:09:09.047593	303.2	52.2	-61.2	6.7
2025-01-26 06:09:10.190548	302.4	52.3	-62.5	8.9
2025-01-26 06:09:11.331510	301.6	52.3	-63.1	8.4
2025-01-26 06:09:12.474467	300.8	52.2	-61.6	5.9
2025-01-26 06:09:13.616933	300.0	52.2	-61.5	5.8
2025-01-26 06:09:14.757895	299.2	52.2	-61.8	6.4
2025-01-26 06:09:15.899855	298.4	52.2	-61.8	9.6
2025-01-26 06:09:17.041814	297.6	52.2	-61.7	6.2
2025-01-26 06:09:18.185768	296.9	52.1	-61.7	5.9
2025-01-26 06:09:19.332714	296.1	52.1	-63.7	8.2
2025-01-26 06:09:20.473676	295.3	52.1	-63.1	7.7
2025-01-26 06:09:21.616632	294.5	52.0	-64.6	7.8
2025-01-26 06:09:22.758592	293.7	52.0	-64.0	9.4
2025-01-26 06:09:23.901549	293.0	51.9	-64.0	9.9
2025-01-26 06:09:25.042024	292.2	51.8	-63.2	5.8
2025-01-26 06:09:26.182985	291.4	51.8	-64.7	10.5
2025-01-26 06:09:27.328933	290.7	51.7	-64.3	10.2
2025-01-26 06:09:28.470402	289.9	51.6	-64.6	9.8
2025-01-26 06:09:29.615353	289.1	51.5	-62.0	6.3
2025-01-26 06:09:30.758310	288.4	51.4	-64.1	10.0
2025-01-26 06:09:31.898781	287.6	51.3	-61.8	6.1
2025-01-26 06:09:33.041249	286.9	51.2	-61.6	6.4
2025-01-26 06:09:34.182210	286.2	51.1	-61.6	3.6
2025-01-26 06:09:35.325677	285.4	51.0	-63.9	10.5
2025-01-26 06:09:36.467637	284.7	50.9	-62.6	9.6
2025-01-26 06:09:37.613585	284.0	50.8	-63.4	10.6
2025-01-26 06:09:38.754547	283.3	50.7	-62.8	4.9
2025-01-26 06:09:39.898501	282.6	50.5	-61.8	6.5
2025-01-26 06:09:41.039463	281.9	50.4	-61.8	6.5
2025-01-26 06:09:42.181932	281.2	50.3	-62.0	7.1
2025-01-26 06:09:43.323891	280.5	50.1	-62.1	5.6
2025-01-26 06:09:44.466848	279.8	50.0	-62.1	7.4
2025-01-26 06:09:45.608807	279.1	49.8	-62.1	8.2
2025-01-26 06:09:46.749769	278.4	49.7	-62.2	6.9
2025-01-26 06:09:47.890732	277.8	49.5	-62.4	7.3
2025-01-26 06:09:49.037677	277.1	49.4	-63.1	8.2
2025-01-26 06:09:50.178639	276.5	49.2	-62.9	9.4
2025-01-26 06:09:51.322610	275.8	49.0	-62.9	9.4
2025-01-26 06:09:52.464569	275.2	48.9	-62.9	9.0
2025-01-26 06:09:53.613018	274.6	48.7	-63.2	9.2
2025-01-26 06:09:54.754978	273.9	48.5	-63.3	9.2
2025-01-26 06:09:55.897444	273.3	48.3	-63.3	9.1
2025-01-26 06:09:57.041398	272.7	48.2	-64.3	11.4
2025-01-26 06:09:58.184355	272.1	48.0	-64.1	10.9
2025-01-26 06:09:59.325333	271.5	47.8	-63.9	9.5
2025-01-26 06:10:00.467293	270.9	47.6	-64.7	9.2
2025-01-26 06:10:01.609253	270.4	47.4	-65.0	11.1
2025-01-26 06:10:02.751211	269.8	47.2	-64.0	8.9
2025-01-26 06:10:03.899155	269.2	47.0	-64.3	9.9
2025-01-26 06:10:05.043109	268.7	46.8	-65.6	9.7
2025-01-26 06:10:06.191052	268.1	46.6	-65.5	10.0
2025-01-26 06:10:07.332013	267.6	46.4	-65.4	10.1
2025-01-26 06:10:08.473973	267.0	46.2	-64.7	9.5
2025-01-26 06:10:09.616438	266.5	46.0	-64.3	9.1
2025-01-26 06:10:10.757400	266.0	45.8	-64.6	10.0
2025-01-26 06:10:11.899865	265.5	45.6	-65.4	9.1
2025-01-26 06:10:13.042822	265.0	45.4	-64.1	9.2
2025-01-26 06:10:14.187773	264.5	45.2	-64.7	9.3
2025-01-26 06:10:15.331727	264.0	45.0	-64.5	9.9
2025-01-26 06:10:16.472200	263.5	44.7	-64.4	9.6
2025-01-26 06:10:17.616154	263.0	44.5	-64.9	9.9
2025-01-26 06:10:18.760108	262.5	44.3	-64.0	9.2
2025-01-26 06:10:19.904062	262.0	44.1	-65.4	11.4
2025-01-26 06:10:21.046021	261.6	43.9	-64.7	10.3
2025-01-26 06:10:22.187981	261.1	43.7	-64.8	10.1
2025-01-26 06:10:23.335432	260.7	43.4	-64.5	10.5
2025-01-26 06:10:24.477391	260.2	43.2	-64.8	11.3
2025-01-26 06:10:25.619351	259.8	43.0	-64.7	10.6
2025-01-26 06:10:26.760819	259.4	42.8	-64.2	9.3
2025-01-26 06:10:27.903776	258.9	42.6	-64.2	9.6
2025-01-26 06:10:29.045735	258.5	42.3	-65.0	10.9
2025-01-26 06:10:30.188200	258.1	42.1	-64.9	10.8
2025-01-26 06:10:31.330160	257.7	41.9	-64.8	9.7
2025-01-26 06:10:32.471122	257.3	41.7	-64.7	11.2
2025-01-26 06:10:33.614078	256.9	41.4	-64.4	9.7
2025-01-26 06:10:34.755040	256.5	41.2	-64.6	10.5
2025-01-26 06:10:35.896509	256.1	41.0	-65.0	9.9
2025-01-26 06:10:37.039466	255.7	40.8	-64.7	10.4
2025-01-26 06:10:38.183420	255.4	40.5	-64.7	10.1
2025-01-26 06:10:39.324381	255.0	40.3	-64.8	8.8
2025-01-26 06:10:40.473322	254.6	40.1	-65.1	11.5
2025-01-26 06:10:41.619271	254.3	39.9	-65.2	12.0
2025-01-26 06:10:42.760742	253.9	39.7	-65.1	11.5
2025-01-26 06:10:43.906691	253.6	39.4	-65.2	11.3
2025-01-26 06:10:45.048650	253.2	39.2	-64.6	10.7
2025-01-26 06:10:46.190609	252.9	39.0	-64.7	10.7
2025-01-26 06:10:47.333566	252.5	38.8	-64.7	11.0
2025-01-26 06:10:48.475525	252.2	38.5	-64.8	11.0
2025-01-26 06:10:49.618482	251.9	38.3	-64.5	11.0
2025-01-26 06:10:50.764431	251.6	38.1	-64.5	10.9
2025-01-26 06:10:51.907896	251.2	37.9	-64.6	10.9
2025-01-26 06:10:53.048858	250.9	37.7	-64.3	10.4
2025-01-26 06:10:54.191324	250.6	37.4	-64.4	10.4
2025-01-26 06:10:55.334280	250.3	37.2	-64.5	10.8
2025-01-26 06:10:56.477237	250.0	37.0	-64.8	11.1
2025-01-26 06:10:57.618706	249.7	36.8	-65.1	11.6
2025-01-26 06:10:58.761664	249.4	36.6	-64.8	11.0
2025-01-26 06:10:59.902625	249.1	36.3	-64.8	10.8
2025-01-26 06:11:01.060066	248.8	36.1	-65.0	11.2
2025-01-26 06:11:02.202024	248.6	35.9	-64.7	10.5
2025-01-26 06:11:03.342986	248.3	35.7	-64.7	10.5
2025-01-26 06:11:04.485454	248.0	35.5	-65.2	11.1
2025-01-26 06:11:05.627413	247.7	35.3	-64.9	10.6
2025-01-26 06:11:06.768376	247.5	35.0	-65.1	11.3
2025-01-26 06:11:07.910335	247.2	34.8	-64.6	10.4
2025-01-26 06:11:09.053291	246.9	34.6	-64.5	10.1
2025-01-26 06:11:10.197245	246.7	34.4	-64.9	11.0
2025-01-26 06:11:11.339225	246.4	34.2	-64.7	10.4
2025-01-26 06:11:12.481184	246.2	34.0	-65.2	11.3
2025-01-26 06:11:13.623143	245.9	33.8	-64.5	10.5
2025-01-26 06:11:14.764105	245.7	33.6	-64.9	11.2
2025-01-26 06:11:15.908060	245.4	33.4	-64.8	9.8
2025-01-26 06:11:17.050018	245.2	33.2	-64.8	10.6
2025-01-26 06:11:18.192975	245.0	33.0	-64.6	10.5
2025-01-26 06:11:19.334934	244.7	32.8	-64.9	10.4
2025-01-26 06:11:20.475897	244.5	32.6	-64.7	9.9
2025-01-26 06:11:21.616858	244.3	32.3	-64.9	11.2
2025-01-26 06:11:22.759815	244.1	32.1	-64.2	8.8
2025-01-26 06:11:23.901774	243.8	31.9	-64.2	9.1
2025-01-26 06:11:25.043734	243.6	31.7	-64.3	10.5
2025-01-26 06:11:26.185693	243.4	31.5	-64.6	10.2
2025-01-26 06:11:27.327652	243.2	31.3	-64.6	9.8
2025-01-26 06:11:28.470118	243.0	31.1	-64.9	10.8
2025-01-26 06:11:29.612077	242.8	31.0	-64.5	9.5
2025-01-26 06:11:30.755034	242.6	30.8	-64.7	10.5
2025-01-26 06:11:31.897991	242.4	30.6	-64.9	9.0
2025-01-26 06:11:33.041944	242.2	30.4	-64.6	10.3
2025-01-26 06:11:34.183904	242.0	30.2	-66.2	8.0
2025-01-26 06:11:35.325465	241.8	30.0	-67.9	0.0
#Closed at: 2025-01-26 06:06:41.510742