passes_logs/2025/01/26/Planum_Noyabrsk/Planum_Noyabrsk__20250126_092202_METEOR-M2_2_rec.log

#Pass ID: 20250126_092202_METEOR-M2 2
#Satellite: METEOR-M2 2
#Configuration: METEOR-M2 2
#Start time: 2025-01-26 09:22:07.828330

#LorettStation: 1.0.0 05.05.2024
#Station: Planum_Noyabrsk
#Location: 75.446886 lon 63.207202 lat
#TLE: 1 44387U 19038A   25025.53651949  .00000373  00000+0  18192-3 0  9999
#TLE: 2 44387  98.8580   2.0135 0002146  62.7616 297.3781 14.24125422289034

#Time	Az	El	Level	SNR
2025-01-26 09:22:14.637660	149.6	31.4	-66.3	0.0
2025-01-26 09:22:15.779650	149.6	31.6	-67.7	0.0
2025-01-26 09:22:16.927623	149.5	31.8	-68.1	0.0
2025-01-26 09:22:18.068616	149.5	32.1	-68.3	0.0
2025-01-26 09:22:19.212599	149.4	32.3	-68.8	0.0
2025-01-26 09:22:20.353591	149.4	32.5	-67.4	0.0
2025-01-26 09:22:21.496578	149.3	32.8	-68.6	0.0
2025-01-26 09:22:22.642070	149.3	33.0	-67.4	0.0
2025-01-26 09:22:23.783061	149.3	33.3	-68.2	0.0
2025-01-26 09:22:24.928044	149.2	33.5	-68.5	0.0
2025-01-26 09:22:26.072043	149.2	33.8	-68.4	0.0
2025-01-26 09:22:27.214033	149.1	34.0	-68.5	0.0
2025-01-26 09:22:28.356022	149.1	34.3	-69.1	0.0
2025-01-26 09:22:29.497520	149.0	34.5	-68.0	0.0
2025-01-26 09:22:30.642502	149.0	34.8	-69.0	0.0
2025-01-26 09:22:31.784998	148.9	35.1	-67.9	0.0
2025-01-26 09:22:32.932972	148.9	35.3	-68.5	0.0
2025-01-26 09:22:34.073964	148.8	35.6	-69.1	0.0
2025-01-26 09:22:35.214956	148.7	35.8	-68.7	0.0
2025-01-26 09:22:36.356454	148.7	36.1	-67.7	0.0
2025-01-26 09:22:37.498443	148.6	36.4	-68.4	0.0
2025-01-26 09:22:38.640432	148.6	36.7	-69.6	0.0
2025-01-26 09:22:39.782929	148.5	36.9	-68.1	0.0
2025-01-26 09:22:40.924919	148.5	37.2	-68.9	0.0
2025-01-26 09:22:42.067906	148.4	37.5	-70.1	0.0
2025-01-26 09:22:43.210405	148.3	37.8	-68.6	0.0
2025-01-26 09:22:44.350399	148.3	38.1	-69.5	0.0
2025-01-26 09:22:45.493386	148.2	38.4	-69.6	0.0
2025-01-26 09:22:46.635375	148.1	38.6	-68.2	0.0
2025-01-26 09:22:47.777365	148.1	38.9	-69.8	0.0
2025-01-26 09:22:48.923344	148.0	39.2	-69.7	0.0
2025-01-26 09:22:50.063844	147.9	39.5	-69.5	0.0
2025-01-26 09:22:51.206831	147.9	39.8	-69.5	0.0
2025-01-26 09:22:52.347823	147.8	40.1	-69.4	0.0
2025-01-26 09:22:53.488831	147.7	40.4	-69.4	0.0
2025-01-26 09:22:54.631818	147.6	40.7	-68.2	0.0
2025-01-26 09:22:55.772810	147.6	41.1	-69.8	0.0
2025-01-26 09:22:56.915797	147.5	41.4	-67.3	0.0
2025-01-26 09:22:58.057786	147.4	41.7	-66.5	0.0
2025-01-26 09:22:59.200773	147.3	42.0	-67.9	0.0
2025-01-26 09:23:00.343759	147.2	42.3	-68.3	0.0
2025-01-26 09:23:01.485748	147.2	42.7	-68.6	0.0
2025-01-26 09:23:02.628735	147.1	43.0	-68.0	0.0
2025-01-26 09:23:03.770238	147.0	43.3	-67.1	0.0
2025-01-26 09:23:04.912227	146.9	43.6	-65.4	0.0
2025-01-26 09:23:06.056211	146.8	44.0	-66.0	0.0
2025-01-26 09:23:07.198711	146.7	44.3	-65.9	0.0
2025-01-26 09:23:08.339704	146.6	44.7	-68.0	0.0
2025-01-26 09:23:09.481692	146.5	45.0	-67.5	0.0
2025-01-26 09:23:10.629176	146.4	45.4	-67.0	0.0
2025-01-26 09:23:11.770169	146.3	45.7	-68.2	0.0
2025-01-26 09:23:12.916147	146.2	46.1	-70.1	0.0
2025-01-26 09:23:14.067113	146.1	46.4	-69.4	0.0
2025-01-26 09:23:15.210100	146.0	46.8	-67.9	0.0
2025-01-26 09:23:16.351091	145.9	47.1	-68.5	0.0
2025-01-26 09:23:17.494079	145.7	47.5	-66.0	0.0
2025-01-26 09:23:18.635070	145.6	47.9	-66.4	0.0
2025-01-26 09:23:19.778057	145.5	48.2	-66.9	0.0
2025-01-26 09:23:20.921044	145.4	48.6	-66.9	0.0
2025-01-26 09:23:22.064030	145.2	49.0	-65.4	0.0
2025-01-26 09:23:23.208015	145.1	49.4	-67.7	0.0
2025-01-26 09:23:24.350004	145.0	49.8	-66.8	0.0
2025-01-26 09:23:25.491993	144.8	50.1	-64.9	0.0
2025-01-26 09:23:26.635487	144.7	50.5	-67.2	0.0
2025-01-26 09:23:27.777476	144.6	50.9	-66.1	0.0
2025-01-26 09:23:28.922458	144.4	51.3	-67.2	0.0
2025-01-26 09:23:30.064447	144.2	51.7	-66.8	0.0
2025-01-26 09:23:31.210933	144.1	52.1	-67.0	0.0
2025-01-26 09:23:32.352922	143.9	52.5	-65.4	0.0
2025-01-26 09:23:33.493914	143.8	52.9	-66.0	0.0
2025-01-26 09:23:34.636409	143.6	53.3	-65.0	0.0
2025-01-26 09:23:35.778399	143.4	53.8	-63.5	0.0
2025-01-26 09:23:36.920388	143.2	54.2	-63.2	0.0
2025-01-26 09:23:38.063883	143.0	54.6	-64.2	0.0
2025-01-26 09:23:39.205871	142.8	55.0	-64.8	0.0
2025-01-26 09:23:40.347861	142.6	55.5	-62.8	0.0
2025-01-26 09:23:41.489362	142.4	55.9	-63.5	0.0
2025-01-26 09:23:42.634343	142.2	56.3	-63.3	0.0
2025-01-26 09:23:43.777331	142.0	56.8	-63.8	0.0
2025-01-26 09:23:44.918322	141.8	57.2	-65.7	0.0
2025-01-26 09:23:46.060312	141.5	57.6	-62.4	0.0
2025-01-26 09:23:47.201303	141.3	58.1	-64.1	0.0
2025-01-26 09:23:48.342802	141.0	58.5	-63.2	0.0
2025-01-26 09:23:49.484790	140.8	59.0	-63.5	0.0
2025-01-26 09:23:50.626780	140.5	59.4	-63.0	0.0
2025-01-26 09:23:51.767793	140.2	59.9	-62.4	0.0
2025-01-26 09:23:52.909782	139.9	60.3	-64.1	0.0
2025-01-26 09:23:54.052770	139.6	60.8	-63.3	0.0
2025-01-26 09:23:55.193270	139.3	61.3	-64.4	0.0
2025-01-26 09:23:56.333264	139.0	61.7	-64.5	0.0
2025-01-26 09:23:57.474257	138.7	62.2	-64.8	0.0
2025-01-26 09:23:58.615755	138.3	62.7	-63.8	0.0
2025-01-26 09:23:59.757744	137.9	63.1	-63.0	0.0
2025-01-26 09:24:00.901729	137.6	63.6	-66.1	0.0
2025-01-26 09:24:02.048213	137.2	64.1	-63.9	0.0
2025-01-26 09:24:03.190202	136.7	64.6	-64.4	0.0
2025-01-26 09:24:04.335183	136.3	65.1	-64.6	0.0
2025-01-26 09:24:05.476175	135.9	65.5	-64.7	0.0
2025-01-26 09:24:06.618165	135.4	66.0	-66.3	0.0
2025-01-26 09:24:07.761152	134.9	66.5	-64.5	0.0
2025-01-26 09:24:08.902143	134.4	67.0	-64.2	0.0
2025-01-26 09:24:10.045131	133.8	67.5	-63.6	0.0
2025-01-26 09:24:11.188117	133.3	68.0	-64.5	0.0
2025-01-26 09:24:12.330107	132.7	68.5	-65.1	0.0
2025-01-26 09:24:13.471604	132.1	69.0	-64.5	0.0
2025-01-26 09:24:14.613594	131.4	69.5	-65.0	0.0
2025-01-26 09:24:15.754094	130.7	69.9	-64.8	0.0
2025-01-26 09:24:16.896084	130.0	70.4	-65.1	0.0
2025-01-26 09:24:18.038073	129.2	70.9	-64.6	0.0
2025-01-26 09:24:19.181060	128.4	71.4	-64.3	0.0
2025-01-26 09:24:20.326041	127.5	71.9	-64.6	0.0
2025-01-26 09:24:21.469028	126.6	72.4	-64.2	0.0
2025-01-26 09:24:22.613522	125.7	72.9	-64.7	0.0
2025-01-26 09:24:23.755511	124.7	73.3	-64.4	0.0
2025-01-26 09:24:24.897500	123.6	73.8	-63.9	0.0
2025-01-26 09:24:26.039490	122.4	74.3	-63.8	0.0
2025-01-26 09:24:27.185468	121.2	74.8	-63.6	0.0
2025-01-26 09:24:28.326460	119.9	75.2	-63.5	0.0
2025-01-26 09:24:29.468450	118.5	75.7	-63.3	0.0
2025-01-26 09:24:30.610439	117.0	76.1	-63.8	0.0
2025-01-26 09:24:31.751431	115.4	76.6	-64.5	0.0
2025-01-26 09:24:32.893928	113.7	77.0	-63.1	0.0
2025-01-26 09:24:34.038909	111.9	77.4	-64.0	0.0
2025-01-26 09:24:35.180899	109.9	77.8	-63.7	0.0
2025-01-26 09:24:36.329870	107.8	78.2	-63.3	0.0
2025-01-26 09:24:37.471859	105.6	78.6	-64.0	0.0
2025-01-26 09:24:38.614845	103.2	79.0	-63.8	0.0
2025-01-26 09:24:39.756347	100.6	79.3	-63.7	0.0
2025-01-26 09:24:40.899333	97.9	79.6	-63.4	0.0
2025-01-26 09:24:42.040325	95.1	79.9	-62.9	0.0
2025-01-26 09:24:43.182314	92.0	80.2	-66.3	0.0
2025-01-26 09:24:44.324304	88.8	80.4	-63.7	0.0
2025-01-26 09:24:45.465295	85.4	80.6	-62.4	0.0
2025-01-26 09:24:46.606305	81.9	80.8	-62.4	0.0
2025-01-26 09:24:47.750289	78.3	80.9	-66.0	0.0
2025-01-26 09:24:48.891281	74.6	81.0	-63.4	0.0
2025-01-26 09:24:50.035772	70.7	81.1	-62.4	0.0
2025-01-26 09:24:51.176763	66.9	81.1	-64.8	0.0
2025-01-26 09:24:52.319750	63.0	81.1	-62.7	0.0
2025-01-26 09:24:53.466236	59.2	81.1	-64.7	0.0
2025-01-26 09:24:54.607228	55.4	81.0	-62.4	0.0
2025-01-26 09:24:55.749217	51.8	80.8	-62.4	0.0
2025-01-26 09:24:56.891715	48.2	80.7	-67.2	0.0
2025-01-26 09:24:58.032228	44.8	80.5	-62.6	0.0
2025-01-26 09:24:59.175215	41.6	80.3	-64.8	0.0
2025-01-26 09:25:00.319199	38.5	80.0	-61.5	0.0
2025-01-26 09:25:01.460702	35.5	79.7	-61.0	0.0
2025-01-26 09:25:02.602691	32.8	79.4	-60.7	0.0
2025-01-26 09:25:03.744190	30.2	79.1	-61.2	0.0
2025-01-26 09:25:04.884691	27.7	78.7	-61.1	0.0
2025-01-26 09:25:06.026680	25.5	78.3	-60.6	0.0
2025-01-26 09:25:07.168179	23.3	78.0	-60.7	0.0
2025-01-26 09:25:08.310168	21.3	77.5	-61.3	0.0
2025-01-26 09:25:09.451160	19.5	77.1	-61.4	0.0
2025-01-26 09:25:10.593167	17.7	76.7	-60.4	0.0
2025-01-26 09:25:11.735662	16.1	76.3	-62.2	0.0
2025-01-26 09:25:12.880644	14.6	75.8	-60.0	0.0
2025-01-26 09:25:14.022145	13.2	75.4	-61.3	0.0
2025-01-26 09:25:15.163137	11.8	74.9	-61.2	0.0
2025-01-26 09:25:16.306124	10.6	74.5	-61.2	0.0
2025-01-26 09:25:17.447623	9.4	74.0	-60.3	0.0
2025-01-26 09:25:18.593602	8.3	73.5	-65.7	0.0
2025-01-26 09:25:19.735591	7.2	73.0	-59.6	0.0
2025-01-26 09:25:20.877091	6.3	72.6	-62.9	0.0
2025-01-26 09:25:22.019081	5.3	72.1	-60.1	0.0
2025-01-26 09:25:23.164062	4.4	71.6	-63.4	0.0
2025-01-26 09:25:24.306051	3.6	71.1	-62.3	0.0
2025-01-26 09:25:25.447044	2.8	70.6	-60.8	0.0
2025-01-26 09:25:26.588035	2.1	70.1	-60.0	0.0
2025-01-26 09:25:27.731022	1.4	69.6	-60.0	0.0
2025-01-26 09:25:28.872014	0.7	69.1	-62.8	0.0
2025-01-26 09:25:30.014003	0.1	68.7	-59.2	0.0
2025-01-26 09:25:31.155992	359.5	68.2	-61.5	0.0
2025-01-26 09:25:32.299976	358.9	67.7	-64.2	0.0
2025-01-26 09:25:33.443961	358.4	67.2	-61.9	0.0
2025-01-26 09:25:34.583955	357.8	66.7	-61.0	0.0
2025-01-26 09:25:35.730441	357.3	66.2	-60.3	0.0
2025-01-26 09:25:36.873428	356.9	65.7	-59.5	0.0
2025-01-26 09:25:38.014420	356.4	65.2	-60.4	0.0
2025-01-26 09:25:39.157913	356.0	64.8	-59.5	0.0
2025-01-26 09:25:40.301900	355.6	64.3	-59.9	0.0
2025-01-26 09:25:41.443887	355.2	63.8	-60.3	0.0
2025-01-26 09:25:42.586386	354.8	63.3	-61.7	0.0
2025-01-26 09:25:43.725888	354.4	62.9	-60.1	0.0
2025-01-26 09:25:44.867877	354.0	62.4	-59.6	0.0
2025-01-26 09:25:46.014366	353.7	61.9	-58.7	0.0
2025-01-26 09:25:47.158860	353.4	61.5	-60.7	0.0
2025-01-26 09:25:48.299852	353.1	61.0	-59.7	0.0
2025-01-26 09:25:49.441842	352.8	60.5	-60.7	0.0
2025-01-26 09:25:50.584828	352.5	60.1	-61.2	0.0
2025-01-26 09:25:51.728812	352.2	59.6	-61.6	0.0
2025-01-26 09:25:52.870820	351.9	59.2	-58.9	0.0
2025-01-26 09:25:54.012809	351.6	58.7	-58.2	0.0
2025-01-26 09:25:55.154799	351.4	58.3	-58.2	0.0
2025-01-26 09:25:56.300778	351.1	57.8	-57.9	0.0
2025-01-26 09:25:57.445759	350.9	57.4	-57.8	0.0
2025-01-26 09:25:58.587748	350.7	56.9	-57.4	0.0
2025-01-26 09:25:59.731732	350.4	56.5	-57.8	0.0
2025-01-26 09:26:00.873721	350.2	56.1	-62.3	0.0
2025-01-26 09:26:02.017706	350.0	55.6	-58.8	0.0
2025-01-26 09:26:03.158697	349.8	55.2	-61.9	0.0
2025-01-26 09:26:04.301684	349.6	54.8	-57.3	0.0
2025-01-26 09:26:05.441679	349.4	54.4	-57.7	0.0
2025-01-26 09:26:06.584666	349.2	53.9	-58.2	0.0
2025-01-26 09:26:07.725657	349.1	53.5	-57.3	0.0
2025-01-26 09:26:08.867646	348.9	53.1	-58.4	0.0
2025-01-26 09:26:10.011631	348.7	52.7	-58.2	0.0
2025-01-26 09:26:11.152622	348.6	52.3	-62.4	0.0
2025-01-26 09:26:12.295609	348.4	51.9	-60.3	0.0
2025-01-26 09:26:13.437598	348.2	51.5	-61.6	0.0
2025-01-26 09:26:14.579588	348.1	51.1	-63.4	0.0
2025-01-26 09:26:15.720579	347.9	50.7	-62.0	0.0
2025-01-26 09:26:16.862080	347.8	50.3	-61.0	0.0
2025-01-26 09:26:18.003072	347.7	49.9	-55.8	0.0
2025-01-26 09:26:19.146058	347.5	49.6	-60.2	0.0
2025-01-26 09:26:20.288049	347.4	49.2	-60.2	0.0
2025-01-26 09:26:21.433029	347.3	48.8	-58.8	0.0
2025-01-26 09:26:22.574527	347.1	48.4	-61.9	0.0
2025-01-26 09:26:23.716028	347.0	48.1	-62.9	0.0
2025-01-26 09:26:24.859015	346.9	47.7	-59.0	0.0
2025-01-26 09:26:26.003997	346.8	47.3	-55.0	0.0
2025-01-26 09:26:27.145494	346.7	47.0	-58.0	0.0
2025-01-26 09:26:28.287484	346.5	46.6	-57.7	0.0
2025-01-26 09:26:29.429473	346.4	46.3	-64.4	0.0
2025-01-26 09:26:30.571462	346.3	45.9	-63.2	0.0
2025-01-26 09:26:31.712962	346.2	45.5	-61.1	0.0
2025-01-26 09:26:32.854460	346.1	45.2	-59.3	0.0
2025-01-26 09:26:34.000439	346.0	44.9	-58.7	0.0
2025-01-26 09:26:35.141431	345.9	44.5	-57.0	0.0
2025-01-26 09:26:36.284418	345.8	44.2	-56.9	0.0
2025-01-26 09:26:37.424920	345.7	43.8	-58.2	0.0
2025-01-26 09:26:38.568902	345.6	43.5	-59.1	0.0
2025-01-26 09:26:39.711889	345.6	43.2	-59.3	0.0
2025-01-26 09:26:40.853878	345.5	42.9	-53.9	0.0
2025-01-26 09:26:41.995868	345.4	42.5	-54.9	0.0
2025-01-26 09:26:43.137366	345.3	42.2	-55.6	0.0
2025-01-26 09:26:44.278864	345.2	41.9	-57.2	0.0
2025-01-26 09:26:45.423846	345.1	41.6	-54.4	0.0
2025-01-26 09:26:46.565835	345.1	41.3	-53.2	0.0
2025-01-26 09:26:47.708330	345.0	40.9	-54.8	0.0
2025-01-26 09:26:48.849322	344.9	40.6	-55.3	0.0
2025-01-26 09:26:49.996299	344.8	40.3	-56.3	0.0
2025-01-26 09:26:51.138288	344.8	40.0	-56.9	0.0
2025-01-26 09:26:52.281275	344.7	39.7	-57.7	0.0
2025-01-26 09:26:53.422266	344.6	39.4	-54.4	0.0
2025-01-26 09:26:54.566760	344.5	39.1	-56.1	0.0
2025-01-26 09:26:55.708749	344.5	38.8	-55.2	0.0
2025-01-26 09:26:56.850738	344.4	38.6	-56.6	0.0
2025-01-26 09:26:57.992746	344.4	38.3	-56.4	0.0
2025-01-26 09:26:59.133738	344.3	38.0	-63.4	0.0
2025-01-26 09:27:00.277723	344.2	37.7	-58.0	0.0
2025-01-26 09:27:01.420710	344.2	37.4	-56.6	0.0
2025-01-26 09:27:02.562699	344.1	37.1	-54.5	0.0
2025-01-26 09:27:03.706699	344.0	36.9	-55.3	0.0
2025-01-26 09:27:04.849194	344.0	36.6	-55.1	0.0
2025-01-26 09:27:05.993686	343.9	36.3	-56.2	0.0
2025-01-26 09:27:07.133680	343.9	36.0	-54.9	0.0
2025-01-26 09:27:08.275687	343.8	35.8	-55.3	0.0
2025-01-26 09:27:09.417675	343.8	35.5	-56.2	0.0
2025-01-26 09:27:10.562657	343.7	35.2	-56.0	0.0
2025-01-26 09:27:11.705152	343.7	35.0	-53.2	0.0
2025-01-26 09:27:12.847142	343.6	34.7	-55.6	0.0
2025-01-26 09:27:13.990128	343.6	34.5	-56.1	0.0
2025-01-26 09:27:15.131627	343.5	34.2	-55.8	0.0
2025-01-26 09:27:16.274613	343.5	34.0	-56.9	0.0
2025-01-26 09:27:17.418598	343.4	33.7	-57.9	0.0
2025-01-26 09:27:18.559098	343.4	33.5	-56.4	0.0
2025-01-26 09:27:19.701087	343.3	33.2	-56.6	0.0
2025-01-26 09:27:20.843077	343.3	33.0	-56.2	0.0
2025-01-26 09:27:21.990559	343.2	32.7	-55.8	0.0
2025-01-26 09:27:23.132549	343.2	32.5	-55.9	0.0
2025-01-26 09:27:24.277530	343.1	32.3	-59.0	0.0
2025-01-26 09:27:25.419520	343.1	32.0	-55.0	0.0
2025-01-26 09:27:26.560512	343.1	31.8	-53.9	0.0
2025-01-26 09:27:27.701503	343.0	31.6	-56.0	0.0
2025-01-26 09:27:28.846992	343.0	31.3	-55.6	0.0
2025-01-26 09:27:29.990490	342.9	31.1	-53.5	0.0
2025-01-26 09:27:31.134475	342.9	30.9	-55.2	0.0
2025-01-26 09:27:32.276463	342.9	30.6	-51.7	0.0
2025-01-26 09:27:33.416458	342.8	30.4	-55.4	0.0
2025-01-26 09:27:34.559445	342.8	30.2	-54.9	0.0
2025-01-26 09:27:35.702431	342.8	30.0	-57.6	0.0
#Closed at: 2025-01-26 09:22:02.832785