passes_logs/2025/01/26/Planum_Noyabrsk/Planum_Noyabrsk__20250126_160101_METOP-B_rec.log

#Pass ID: 20250126_160101_METOP-B
#Satellite: METOP-B
#Configuration: METOP-B
#Start time: 2025-01-26 16:01:06.530180

#LorettStation: 1.0.0 05.05.2024
#Station: Planum_Noyabrsk
#Location: 75.446886 lon 63.207202 lat
#TLE: 1 38771U 12049A   25025.53036157  .00000368  00000+0  18796-3 0  9996
#TLE: 2 38771  98.5994  83.4165 0001560  69.7043 290.4302 14.21418220641141

#Time	Az	El	Level	SNR
2025-01-26 16:01:17.456493	216.8	31.6	-63.6	9.7
2025-01-26 16:01:18.597454	217.1	31.7	-63.5	9.9
2025-01-26 16:01:19.744400	217.4	31.9	-63.8	9.7
2025-01-26 16:01:20.886359	217.7	32.0	-63.6	10.1
2025-01-26 16:01:22.034302	218.0	32.2	-63.9	10.1
2025-01-26 16:01:23.176260	218.3	32.4	-63.7	9.5
2025-01-26 16:01:24.322208	218.6	32.5	-63.7	9.6
2025-01-26 16:01:25.463186	218.9	32.7	-63.9	9.6
2025-01-26 16:01:26.610149	219.2	32.9	-63.8	10.2
2025-01-26 16:01:27.752108	219.5	33.0	-63.8	10.0
2025-01-26 16:01:28.895065	219.9	33.2	-63.9	10.4
2025-01-26 16:01:30.040527	220.2	33.3	-64.0	10.4
2025-01-26 16:01:31.181485	220.5	33.5	-63.8	10.6
2025-01-26 16:01:32.324443	220.9	33.7	-63.6	10.3
2025-01-26 16:01:33.465910	221.2	33.8	-63.7	10.3
2025-01-26 16:01:34.613853	221.5	34.0	-63.8	10.7
2025-01-26 16:01:35.756809	221.9	34.2	-64.0	11.3
2025-01-26 16:01:36.897771	222.2	34.3	-63.9	10.4
2025-01-26 16:01:38.039238	222.6	34.5	-63.7	10.7
2025-01-26 16:01:39.181197	222.9	34.6	-64.1	10.8
2025-01-26 16:01:40.323662	223.3	34.8	-64.0	10.8
2025-01-26 16:01:41.466619	223.7	35.0	-64.1	11.4
2025-01-26 16:01:42.608576	224.0	35.1	-63.9	11.2
2025-01-26 16:01:43.751043	224.4	35.3	-63.8	10.5
2025-01-26 16:01:44.892004	224.8	35.4	-63.8	10.7
2025-01-26 16:01:46.034961	225.1	35.6	-64.0	11.0
2025-01-26 16:01:47.177916	225.5	35.8	-64.1	11.5
2025-01-26 16:01:48.320872	225.9	35.9	-63.7	10.9
2025-01-26 16:01:49.462831	226.3	36.1	-63.8	10.7
2025-01-26 16:01:50.604301	226.7	36.2	-63.9	11.5
2025-01-26 16:01:51.747257	227.1	36.4	-63.7	11.3
2025-01-26 16:01:52.890214	227.5	36.5	-63.4	11.0
2025-01-26 16:01:54.032172	227.9	36.7	-63.8	11.5
2025-01-26 16:01:55.175128	228.3	36.8	-64.3	11.4
2025-01-26 16:01:56.319082	228.7	37.0	-63.8	11.0
2025-01-26 16:01:57.460043	229.1	37.1	-64.2	11.7
2025-01-26 16:01:58.602510	229.5	37.3	-64.0	11.1
2025-01-26 16:01:59.744469	229.9	37.4	-63.8	11.3
2025-01-26 16:02:00.892411	230.4	37.6	-64.1	11.0
2025-01-26 16:02:02.036365	230.8	37.7	-64.2	11.4
2025-01-26 16:02:03.178324	231.2	37.9	-64.2	11.3
2025-01-26 16:02:04.319792	231.7	38.0	-63.7	11.0
2025-01-26 16:02:05.464743	232.1	38.2	-63.9	10.9
2025-01-26 16:02:06.605705	232.5	38.3	-64.1	11.3
2025-01-26 16:02:07.748706	233.0	38.4	-64.0	11.3
2025-01-26 16:02:08.889639	233.4	38.6	-63.8	11.3
2025-01-26 16:02:10.032596	233.9	38.7	-63.7	10.8
2025-01-26 16:02:11.176566	234.4	38.9	-63.8	11.0
2025-01-26 16:02:12.319522	234.8	39.0	-63.8	10.9
2025-01-26 16:02:13.461481	235.3	39.1	-63.8	10.9
2025-01-26 16:02:14.601459	235.7	39.3	-64.0	11.2
2025-01-26 16:02:15.746410	236.2	39.4	-63.8	11.7
2025-01-26 16:02:16.889367	236.7	39.5	-63.9	11.5
2025-01-26 16:02:18.031325	237.2	39.6	-63.6	11.7
2025-01-26 16:02:19.173284	237.7	39.8	-63.5	11.8
2025-01-26 16:02:20.317239	238.2	39.9	-63.3	11.8
2025-01-26 16:02:21.462189	238.6	40.0	-63.2	11.7
2025-01-26 16:02:22.605145	239.1	40.1	-63.4	11.9
2025-01-26 16:02:23.750104	239.6	40.2	-63.5	11.5
2025-01-26 16:02:24.895047	240.1	40.4	-63.4	11.7
2025-01-26 16:02:26.039000	240.6	40.5	-63.4	11.4
2025-01-26 16:02:27.181977	241.2	40.6	-63.5	11.4
2025-01-26 16:02:28.324933	241.7	40.7	-63.5	11.8
2025-01-26 16:02:29.465895	242.2	40.8	-63.3	11.2
2025-01-26 16:02:30.608851	242.7	40.9	-63.8	11.4
2025-01-26 16:02:31.755797	243.2	41.0	-63.5	11.1
2025-01-26 16:02:32.898754	243.8	41.1	-63.8	11.0
2025-01-26 16:02:34.042215	244.3	41.2	-63.5	10.5
2025-01-26 16:02:35.193150	244.8	41.3	-63.6	10.8
2025-01-26 16:02:36.339098	245.4	41.4	-63.6	10.5
2025-01-26 16:02:37.487041	245.9	41.5	-63.8	10.9
2025-01-26 16:02:38.628003	246.4	41.6	-63.9	10.8
2025-01-26 16:02:39.770960	247.0	41.6	-63.8	10.7
2025-01-26 16:02:40.913937	247.5	41.7	-64.1	10.5
2025-01-26 16:02:42.056893	248.1	41.8	-64.2	11.5
2025-01-26 16:02:43.198852	248.6	41.9	-64.2	10.9
2025-01-26 16:02:44.339813	249.2	42.0	-64.1	9.7
2025-01-26 16:02:45.481772	249.7	42.0	-64.2	10.9
2025-01-26 16:02:46.623731	250.3	42.1	-64.3	9.9
2025-01-26 16:02:47.764204	250.8	42.2	-64.2	10.2
2025-01-26 16:02:48.909155	251.4	42.2	-63.9	10.2
2025-01-26 16:02:50.051114	252.0	42.3	-64.0	10.9
2025-01-26 16:02:51.193072	252.5	42.3	-63.7	10.1
2025-01-26 16:02:52.336028	253.1	42.4	-63.8	10.4
2025-01-26 16:02:53.478986	253.7	42.4	-63.9	10.5
2025-01-26 16:02:54.620453	254.3	42.5	-63.9	10.5
2025-01-26 16:02:55.763409	254.8	42.5	-63.9	10.8
2025-01-26 16:02:56.904370	255.4	42.6	-63.7	10.4
2025-01-26 16:02:58.048324	256.0	42.6	-63.8	10.5
2025-01-26 16:02:59.190282	256.6	42.6	-64.1	10.9
2025-01-26 16:03:00.333745	257.1	42.7	-63.9	10.2
2025-01-26 16:03:01.478205	257.7	42.7	-63.7	10.5
2025-01-26 16:03:02.621162	258.3	42.7	-64.1	9.9
2025-01-26 16:03:03.761634	258.9	42.7	-64.1	10.6
2025-01-26 16:03:04.905603	259.5	42.8	-64.1	9.9
2025-01-26 16:03:06.046564	260.1	42.8	-64.0	9.7
2025-01-26 16:03:07.190518	260.6	42.8	-64.0	9.7
2025-01-26 16:03:08.332477	261.2	42.8	-63.7	9.6
2025-01-26 16:03:09.473438	261.8	42.8	-63.7	9.6
2025-01-26 16:03:10.617392	262.4	42.8	-63.2	9.3
2025-01-26 16:03:11.760348	263.0	42.8	-63.4	9.3
2025-01-26 16:03:12.902306	263.6	42.8	-63.1	8.9
2025-01-26 16:03:14.044266	264.1	42.8	-63.5	9.2
2025-01-26 16:03:15.185734	264.7	42.8	-63.0	8.8
2025-01-26 16:03:16.330685	265.3	42.8	-62.9	8.7
2025-01-26 16:03:17.470650	265.9	42.8	-63.1	9.2
2025-01-26 16:03:18.616614	266.5	42.7	-62.6	9.4
2025-01-26 16:03:19.760568	267.1	42.7	-62.6	8.5
2025-01-26 16:03:20.907513	267.6	42.7	-62.8	9.2
2025-01-26 16:03:22.048983	268.2	42.7	-62.8	9.6
2025-01-26 16:03:23.192936	268.8	42.6	-62.6	9.2
2025-01-26 16:03:24.336890	269.4	42.6	-62.7	9.4
2025-01-26 16:03:25.479358	270.0	42.5	-62.5	9.8
2025-01-26 16:03:26.623310	270.5	42.5	-62.5	8.7
2025-01-26 16:03:27.765270	271.1	42.5	-62.3	8.7
2025-01-26 16:03:28.906231	271.7	42.4	-62.6	8.3
2025-01-26 16:03:30.051182	272.2	42.4	-62.5	7.1
2025-01-26 16:03:31.192143	272.8	42.3	-62.6	8.5
2025-01-26 16:03:32.336097	273.4	42.2	-62.5	7.5
2025-01-26 16:03:33.479053	273.9	42.2	-62.4	8.5
2025-01-26 16:03:34.620015	274.5	42.1	-62.5	9.0
2025-01-26 16:03:35.762971	275.1	42.1	-62.7	7.4
2025-01-26 16:03:36.904930	275.6	42.0	-62.2	6.5
2025-01-26 16:03:38.047886	276.2	41.9	-62.5	8.6
2025-01-26 16:03:39.197332	276.7	41.8	-62.7	8.2
2025-01-26 16:03:40.340288	277.3	41.8	-62.3	6.7
2025-01-26 16:03:41.482247	277.8	41.7	-62.5	7.7
2025-01-26 16:03:42.626200	278.4	41.6	-62.5	7.8
2025-01-26 16:03:43.768159	278.9	41.5	-62.8	8.9
2025-01-26 16:03:44.910118	279.4	41.4	-62.8	8.3
2025-01-26 16:03:46.054071	280.0	41.3	-62.4	8.7
2025-01-26 16:03:47.198025	280.5	41.2	-62.6	7.6
2025-01-26 16:03:48.339494	281.0	41.1	-62.1	8.1
2025-01-26 16:03:49.484445	281.6	41.0	-62.4	8.4
2025-01-26 16:03:50.629396	282.1	40.9	-62.0	7.6
2025-01-26 16:03:51.771355	282.6	40.8	-62.3	8.2
2025-01-26 16:03:52.913316	283.1	40.7	-62.4	8.4
2025-01-26 16:03:54.056270	283.6	40.6	-62.4	8.0
2025-01-26 16:03:55.198229	284.1	40.5	-62.0	7.5
2025-01-26 16:03:56.341185	284.7	40.4	-62.6	7.4
2025-01-26 16:03:57.483145	285.2	40.3	-62.2	6.9
2025-01-26 16:03:58.626117	285.7	40.2	-62.5	8.0
2025-01-26 16:03:59.771068	286.1	40.1	-62.2	6.0
2025-01-26 16:04:00.914024	286.6	39.9	-62.5	7.9
2025-01-26 16:04:02.056003	287.1	39.8	-62.5	8.2
2025-01-26 16:04:03.204943	287.6	39.7	-62.4	7.7
2025-01-26 16:04:04.346902	288.1	39.6	-62.7	7.8
2025-01-26 16:04:05.489858	288.6	39.4	-62.5	8.2
2025-01-26 16:04:06.632814	289.0	39.3	-62.3	7.2
2025-01-26 16:04:07.776768	289.5	39.2	-62.0	7.2
2025-01-26 16:04:08.924223	290.0	39.1	-62.1	6.0
2025-01-26 16:04:10.066182	290.4	38.9	-62.0	7.2
2025-01-26 16:04:11.208141	290.9	38.8	-62.4	6.8
2025-01-26 16:04:12.352095	291.4	38.6	-62.3	6.8
2025-01-26 16:04:13.495051	291.8	38.5	-62.5	7.8
2025-01-26 16:04:14.637009	292.3	38.4	-61.6	6.4
2025-01-26 16:04:15.778968	292.7	38.2	-61.5	5.3
2025-01-26 16:04:16.919930	293.1	38.1	-62.3	6.6
2025-01-26 16:04:18.062887	293.6	37.9	-62.1	8.4
2025-01-26 16:04:19.205354	294.0	37.8	-61.8	7.0
2025-01-26 16:04:20.348311	294.4	37.7	-61.3	6.1
2025-01-26 16:04:21.491283	294.9	37.5	-62.0	8.8
2025-01-26 16:04:22.633731	295.3	37.4	-61.8	7.3
2025-01-26 16:04:23.775690	295.7	37.2	-61.7	6.8
2025-01-26 16:04:24.918647	296.1	37.1	-62.1	9.1
2025-01-26 16:04:26.060114	296.5	36.9	-62.2	9.4
2025-01-26 16:04:27.203070	296.9	36.8	-61.9	7.1
2025-01-26 16:04:28.344032	297.3	36.6	-61.8	5.9
2025-01-26 16:04:29.487494	297.7	36.5	-62.0	7.7
2025-01-26 16:04:30.632445	298.1	36.3	-62.1	8.5
2025-01-26 16:04:31.774404	298.5	36.2	-62.2	8.2
2025-01-26 16:04:32.920353	298.9	36.0	-61.8	6.8
2025-01-26 16:04:34.065303	299.3	35.8	-62.7	8.0
2025-01-26 16:04:35.207262	299.7	35.7	-62.1	9.1
2025-01-26 16:04:36.350218	300.0	35.5	-61.3	7.5
2025-01-26 16:04:37.492177	300.4	35.4	-62.4	9.0
2025-01-26 16:04:38.637128	300.8	35.2	-62.3	7.3
2025-01-26 16:04:39.779593	301.1	35.1	-62.1	7.3
2025-01-26 16:04:40.921552	301.5	34.9	-62.6	7.9
2025-01-26 16:04:42.065505	301.9	34.7	-62.9	9.4
2025-01-26 16:04:43.210472	302.2	34.6	-62.7	7.1
2025-01-26 16:04:44.353429	302.6	34.4	-63.0	9.2
2025-01-26 16:04:45.495387	302.9	34.3	-63.4	8.2
2025-01-26 16:04:46.638368	303.3	34.1	-63.4	8.1
2025-01-26 16:04:47.778868	303.6	33.9	-63.4	8.4
2025-01-26 16:04:48.921824	303.9	33.8	-63.6	7.9
2025-01-26 16:04:50.063799	304.3	33.6	-64.0	8.2
2025-01-26 16:04:51.205758	304.6	33.4	-63.5	6.5
2025-01-26 16:04:52.348715	304.9	33.3	-64.0	7.0
2025-01-26 16:04:53.491687	305.3	33.1	-63.8	6.9
2025-01-26 16:04:54.634644	305.6	33.0	-63.6	7.5
2025-01-26 16:04:55.776602	305.9	32.8	-63.8	8.3
2025-01-26 16:04:56.918073	306.2	32.6	-63.7	8.5
2025-01-26 16:04:58.060032	306.5	32.5	-63.4	7.9
2025-01-26 16:04:59.200993	306.8	32.3	-63.3	7.4
2025-01-26 16:05:00.344970	307.2	32.2	-63.9	8.0
2025-01-26 16:05:01.485930	307.5	32.0	-63.4	8.6
2025-01-26 16:05:02.629883	307.8	31.8	-63.2	8.5
2025-01-26 16:05:03.772839	308.1	31.7	-63.3	8.9
2025-01-26 16:05:04.916793	308.4	31.5	-63.6	9.7
2025-01-26 16:05:06.059749	308.6	31.3	-64.2	8.4
2025-01-26 16:05:07.201708	308.9	31.2	-63.7	7.7
2025-01-26 16:05:08.344664	309.2	31.0	-63.6	8.4
2025-01-26 16:05:09.487621	309.5	30.9	-64.4	9.1
2025-01-26 16:05:10.634075	309.8	30.7	-64.2	7.6
2025-01-26 16:05:11.775036	310.1	30.5	-64.6	8.6
2025-01-26 16:05:12.918990	310.3	30.4	-64.7	9.1
2025-01-26 16:05:14.060949	310.6	30.2	-64.2	7.6
2025-01-26 16:05:15.202907	310.9	30.1	-63.3	4.7
2025-01-26 16:05:16.347861	311.1	29.9	-64.9	0.0
#Closed at: 2025-01-26 16:01:01.533902