passes_logs/2025/01/26/Planum_Noyabrsk/Planum_Noyabrsk__20250126_064457_NOAA_19_rec.log

#Pass ID: 20250126_064457_NOAA 19
#Satellite: NOAA 19
#Configuration: NOAA 19
#Start time: 2025-01-26 06:45:02.838743

#LorettStation: 1.0.0 05.05.2024
#Station: Planum_Noyabrsk
#Location: 75.446886 lon 63.207202 lat
#TLE: 1 33591U 09005A   25025.55292054  .00000417  00000+0  24665-3 0  9998
#TLE: 2 33591  99.0178  89.3960 0014071  28.9408 331.2542 14.13268912822779

#Time	Az	El	Level	SNR
2025-01-26 06:45:13.064666	357.4	31.6	-65.0	7.9
2025-01-26 06:45:14.205627	357.1	31.8	-64.4	6.6
2025-01-26 06:45:15.347587	356.9	32.0	-64.5	7.9
2025-01-26 06:45:16.490542	356.6	32.1	-64.4	7.5
2025-01-26 06:45:17.633007	356.4	32.3	-64.0	7.7
2025-01-26 06:45:18.775473	356.1	32.5	-63.8	7.3
2025-01-26 06:45:19.917431	355.9	32.7	-63.0	5.0
2025-01-26 06:45:21.058901	355.6	32.9	-62.6	4.6
2025-01-26 06:45:22.200860	355.4	33.0	-63.4	7.2
2025-01-26 06:45:23.343325	355.1	33.2	-62.7	6.6
2025-01-26 06:45:24.486281	354.8	33.4	-62.3	5.8
2025-01-26 06:45:25.629237	354.6	33.6	-61.8	4.0
2025-01-26 06:45:26.771196	354.3	33.8	-61.6	4.0
2025-01-26 06:45:27.911667	354.0	34.0	-60.2	0.0
2025-01-26 06:45:29.053628	353.7	34.2	-59.9	0.0
2025-01-26 06:45:30.194587	353.4	34.3	-61.1	2.7
2025-01-26 06:45:31.336546	353.1	34.5	-59.4	0.2
2025-01-26 06:45:32.478505	352.8	34.7	-60.0	1.8
2025-01-26 06:45:33.620464	352.6	34.9	-59.3	0.1
2025-01-26 06:45:34.761932	352.3	35.1	-58.3	0.0
2025-01-26 06:45:35.903891	352.0	35.3	-58.7	0.3
2025-01-26 06:45:37.047845	351.6	35.5	-58.6	0.4
2025-01-26 06:45:38.188805	351.3	35.6	-55.9	0.0
2025-01-26 06:45:39.331762	351.0	35.8	-57.5	0.0
2025-01-26 06:45:40.473721	350.7	36.0	-57.2	0.0
2025-01-26 06:45:41.615189	350.4	36.2	-57.4	0.0
2025-01-26 06:45:42.755153	350.1	36.4	-55.5	0.0
2025-01-26 06:45:43.899106	349.7	36.6	-55.1	0.0
2025-01-26 06:45:45.040579	349.4	36.8	-56.0	0.0
2025-01-26 06:45:46.186527	349.1	37.0	-55.8	0.0
2025-01-26 06:45:47.328486	348.7	37.1	-56.5	0.0
2025-01-26 06:45:48.469955	348.4	37.3	-55.2	0.0
2025-01-26 06:45:49.614906	348.0	37.5	-53.5	0.0
2025-01-26 06:45:50.757862	347.7	37.7	-55.7	0.0
2025-01-26 06:45:51.898334	347.3	37.9	-56.0	0.0
2025-01-26 06:45:53.040293	347.0	38.1	-52.5	0.0
2025-01-26 06:45:54.181254	346.6	38.3	-51.7	0.0
2025-01-26 06:45:55.323232	346.2	38.5	-50.6	0.0
2025-01-26 06:45:56.464193	345.9	38.6	-52.8	0.0
2025-01-26 06:45:57.606152	345.5	38.8	-52.3	0.0
2025-01-26 06:45:58.747625	345.1	39.0	-54.6	0.0
2025-01-26 06:45:59.893574	344.7	39.2	-52.7	0.0
2025-01-26 06:46:01.035532	344.3	39.4	-54.7	0.0
2025-01-26 06:46:02.177000	343.9	39.6	-55.5	0.0
2025-01-26 06:46:03.319464	343.5	39.7	-54.1	0.0
2025-01-26 06:46:04.461423	343.1	39.9	-54.2	0.0
2025-01-26 06:46:05.605882	342.7	40.1	-54.0	0.0
2025-01-26 06:46:06.752828	342.3	40.3	-53.1	0.0
2025-01-26 06:46:07.895784	341.9	40.5	-54.4	0.0
2025-01-26 06:46:09.036255	341.5	40.6	-53.1	0.0
2025-01-26 06:46:10.179211	341.1	40.8	-53.4	0.0
2025-01-26 06:46:11.322167	340.6	41.0	-50.8	0.0
2025-01-26 06:46:12.464144	340.2	41.2	-50.4	0.0
2025-01-26 06:46:13.606104	339.7	41.4	-50.8	0.0
2025-01-26 06:46:14.748061	339.3	41.5	-51.7	0.0
2025-01-26 06:46:15.890020	338.8	41.7	-50.5	0.0
2025-01-26 06:46:17.030981	338.4	41.9	-54.9	0.0
2025-01-26 06:46:18.173938	337.9	42.0	-52.1	0.0
2025-01-26 06:46:19.313902	337.5	42.2	-50.5	0.0
2025-01-26 06:46:20.455861	337.0	42.4	-52.9	0.0
2025-01-26 06:46:21.600811	336.5	42.5	-53.6	0.0
2025-01-26 06:46:22.742771	336.0	42.7	-51.8	0.0
2025-01-26 06:46:23.886724	335.6	42.9	-53.8	0.0
2025-01-26 06:46:25.027685	335.1	43.0	-53.7	0.0
2025-01-26 06:46:26.168159	334.6	43.2	-54.6	0.0
2025-01-26 06:46:27.309120	334.1	43.3	-53.9	0.0
2025-01-26 06:46:28.450588	333.6	43.5	-53.7	0.0
2025-01-26 06:46:29.591550	333.1	43.7	-52.7	0.0
2025-01-26 06:46:30.734506	332.6	43.8	-52.4	0.0
2025-01-26 06:46:31.877462	332.0	44.0	-54.2	0.0
2025-01-26 06:46:33.018424	331.5	44.1	-54.6	0.0
2025-01-26 06:46:34.162377	331.0	44.3	-55.2	0.0
2025-01-26 06:46:35.305333	330.5	44.4	-54.7	0.0
2025-01-26 06:46:36.447292	329.9	44.5	-55.2	0.0
2025-01-26 06:46:37.594237	329.4	44.7	-57.3	1.0
2025-01-26 06:46:38.734202	328.8	44.8	-56.0	0.0
2025-01-26 06:46:39.876160	328.3	44.9	-56.7	0.0
2025-01-26 06:46:41.018119	327.7	45.1	-55.0	0.0
2025-01-26 06:46:42.160078	327.2	45.2	-55.8	0.0
2025-01-26 06:46:43.304033	326.6	45.3	-56.7	0.0
2025-01-26 06:46:44.446987	326.0	45.5	-57.2	0.0
2025-01-26 06:46:45.588947	325.4	45.6	-57.1	0.0
2025-01-26 06:46:46.729908	324.9	45.7	-56.5	0.0
2025-01-26 06:46:47.872373	324.3	45.8	-56.5	0.0
2025-01-26 06:46:49.012337	323.7	45.9	-56.6	0.0
2025-01-26 06:46:50.154297	323.1	46.0	-57.6	0.0
2025-01-26 06:46:51.295258	322.5	46.1	-58.4	2.1
2025-01-26 06:46:52.436725	321.9	46.2	-58.4	0.0
2025-01-26 06:46:53.577686	321.3	46.3	-59.6	0.6
2025-01-26 06:46:54.720642	320.7	46.4	-60.6	4.1
2025-01-26 06:46:55.862601	320.1	46.5	-60.3	2.7
2025-01-26 06:46:57.003076	319.5	46.6	-60.0	3.5
2025-01-26 06:46:58.146538	318.9	46.7	-60.4	3.2
2025-01-26 06:46:59.288496	318.2	46.8	-59.7	4.2
2025-01-26 06:47:00.431453	317.6	46.9	-60.6	2.0
2025-01-26 06:47:01.572921	317.0	46.9	-60.4	4.8
2025-01-26 06:47:02.715877	316.3	47.0	-60.4	4.5
2025-01-26 06:47:03.859830	315.7	47.1	-60.6	3.9
2025-01-26 06:47:05.002787	315.1	47.1	-60.7	4.8
2025-01-26 06:47:06.145743	314.4	47.2	-60.4	5.0
2025-01-26 06:47:07.285217	313.8	47.2	-60.4	4.4
2025-01-26 06:47:08.427176	313.2	47.3	-60.8	6.1
2025-01-26 06:47:09.568137	312.5	47.3	-60.1	5.4
2025-01-26 06:47:10.711094	311.9	47.4	-60.3	6.7
2025-01-26 06:47:11.852055	311.2	47.4	-60.6	6.5
2025-01-26 06:47:12.994013	310.6	47.5	-60.5	5.7
2025-01-26 06:47:14.134976	309.9	47.5	-61.9	8.5
2025-01-26 06:47:15.277931	309.3	47.5	-60.0	5.5
2025-01-26 06:47:16.417895	308.6	47.5	-60.4	7.1
2025-01-26 06:47:17.562846	308.0	47.6	-61.0	5.4
2025-01-26 06:47:18.705331	307.3	47.6	-60.9	6.1
2025-01-26 06:47:19.847270	306.6	47.6	-60.3	6.9
2025-01-26 06:47:20.992221	306.0	47.6	-60.5	5.5
2025-01-26 06:47:22.133697	305.3	47.6	-60.7	5.4
2025-01-26 06:47:23.279645	304.7	47.6	-61.0	7.7
2025-01-26 06:47:24.421604	304.0	47.6	-61.6	6.3
2025-01-26 06:47:25.565067	303.4	47.6	-61.0	5.2
2025-01-26 06:47:26.706028	302.7	47.6	-61.3	6.7
2025-01-26 06:47:27.847987	302.0	47.6	-61.5	3.4
2025-01-26 06:47:28.988458	301.4	47.5	-61.8	6.3
2025-01-26 06:47:30.133409	300.7	47.5	-61.8	3.1
2025-01-26 06:47:31.275367	300.1	47.5	-61.0	3.1
2025-01-26 06:47:32.419321	299.4	47.5	-61.4	4.2
2025-01-26 06:47:33.562277	298.8	47.4	-63.0	6.2
2025-01-26 06:47:34.704236	298.1	47.4	-61.8	4.1
2025-01-26 06:47:35.847209	297.5	47.3	-61.6	4.8
2025-01-26 06:47:36.989168	296.8	47.3	-61.7	5.5
2025-01-26 06:47:38.130129	296.2	47.2	-62.3	5.3
2025-01-26 06:47:39.273086	295.6	47.2	-61.8	4.5
2025-01-26 06:47:40.420031	294.9	47.1	-61.7	4.1
2025-01-26 06:47:41.560992	294.3	47.0	-61.7	4.2
2025-01-26 06:47:42.702952	293.6	47.0	-61.3	4.0
2025-01-26 06:47:43.843913	293.0	46.9	-62.1	4.2
2025-01-26 06:47:44.985872	292.4	46.8	-61.6	4.6
2025-01-26 06:47:46.128337	291.8	46.7	-62.2	4.9
2025-01-26 06:47:47.270295	291.2	46.7	-62.2	4.4
2025-01-26 06:47:48.414265	290.5	46.6	-61.7	6.3
2025-01-26 06:47:49.556222	289.9	46.5	-61.6	5.2
2025-01-26 06:47:50.698181	289.3	46.4	-61.8	4.9
2025-01-26 06:47:51.840140	288.7	46.3	-62.0	6.1
2025-01-26 06:47:52.982099	288.1	46.2	-62.3	5.4
2025-01-26 06:47:54.124060	287.5	46.1	-62.1	4.8
2025-01-26 06:47:55.268012	286.9	46.0	-62.4	5.5
2025-01-26 06:47:56.410968	286.3	45.9	-61.7	4.9
2025-01-26 06:47:57.555918	285.7	45.8	-62.5	5.9
2025-01-26 06:47:58.697877	285.1	45.7	-62.8	6.5
2025-01-26 06:47:59.840344	284.6	45.5	-62.6	5.6
2025-01-26 06:48:00.982817	284.0	45.4	-63.2	5.8
2025-01-26 06:48:02.124776	283.4	45.3	-62.9	6.7
2025-01-26 06:48:03.266245	282.9	45.2	-63.1	5.8
2025-01-26 06:48:04.411701	282.3	45.0	-65.4	12.7
2025-01-26 06:48:05.552663	281.7	44.9	-63.3	7.1
2025-01-26 06:48:06.694131	281.2	44.8	-63.4	7.7
2025-01-26 06:48:07.841076	280.7	44.6	-64.0	9.9
2025-01-26 06:48:08.983036	280.1	44.5	-63.7	8.5
2025-01-26 06:48:10.124503	279.6	44.3	-64.2	9.7
2025-01-26 06:48:11.266462	279.0	44.2	-64.0	9.1
2025-01-26 06:48:12.409418	278.5	44.1	-64.0	11.5
2025-01-26 06:48:13.550379	278.0	43.9	-63.9	11.1
2025-01-26 06:48:14.698829	277.5	43.8	-64.2	11.3
2025-01-26 06:48:15.841785	277.0	43.6	-63.9	11.6
2025-01-26 06:48:16.982261	276.5	43.4	-64.1	12.2
2025-01-26 06:48:18.126221	276.0	43.3	-63.9	12.1
2025-01-26 06:48:19.267175	275.5	43.1	-63.6	11.2
2025-01-26 06:48:20.412126	275.0	43.0	-64.0	11.5
2025-01-26 06:48:21.553089	274.5	42.8	-63.5	11.4
2025-01-26 06:48:22.696044	274.0	42.6	-63.6	11.1
2025-01-26 06:48:23.837513	273.5	42.5	-63.8	11.1
2025-01-26 06:48:24.978474	273.0	42.3	-63.5	10.9
2025-01-26 06:48:26.119436	272.6	42.2	-62.9	10.0
2025-01-26 06:48:27.260397	272.1	42.0	-63.3	10.4
2025-01-26 06:48:28.402356	271.7	41.8	-63.2	10.4
2025-01-26 06:48:29.544314	271.2	41.6	-63.2	9.9
2025-01-26 06:48:30.686273	270.8	41.5	-63.3	9.9
2025-01-26 06:48:31.832222	270.3	41.3	-62.6	9.6
2025-01-26 06:48:32.973183	269.9	41.1	-63.1	8.6
2025-01-26 06:48:34.116139	269.4	40.9	-63.2	8.9
2025-01-26 06:48:35.258098	269.0	40.8	-63.0	8.5
2025-01-26 06:48:36.400057	268.6	40.6	-62.9	7.3
2025-01-26 06:48:37.544517	268.2	40.4	-62.8	6.6
2025-01-26 06:48:38.686476	267.7	40.2	-63.5	8.4
2025-01-26 06:48:39.828435	267.3	40.0	-62.4	6.3
2025-01-26 06:48:40.969903	266.9	39.9	-63.7	8.4
2025-01-26 06:48:42.116849	266.5	39.7	-63.8	7.3
2025-01-26 06:48:43.258808	266.1	39.5	-63.7	8.6
2025-01-26 06:48:44.398771	265.7	39.3	-63.6	7.4
2025-01-26 06:48:45.540730	265.4	39.1	-64.7	10.7
2025-01-26 06:48:46.681691	265.0	38.9	-64.6	9.6
2025-01-26 06:48:47.824157	264.6	38.8	-64.6	9.3
2025-01-26 06:48:48.965119	264.2	38.6	-63.1	7.6
2025-01-26 06:48:50.107078	263.8	38.4	-64.7	9.0
2025-01-26 06:48:51.248039	263.5	38.2	-64.5	10.1
2025-01-26 06:48:52.389998	263.1	38.0	-64.7	9.7
2025-01-26 06:48:53.532954	262.8	37.8	-64.8	9.3
2025-01-26 06:48:54.674914	262.4	37.6	-65.2	9.7
2025-01-26 06:48:55.816891	262.1	37.5	-64.7	8.8
2025-01-26 06:48:56.958849	261.7	37.3	-64.7	9.3
2025-01-26 06:48:58.101805	261.4	37.1	-66.6	12.1
2025-01-26 06:48:59.242276	261.0	36.9	-66.1	11.5
2025-01-26 06:49:00.384742	260.7	36.7	-65.7	10.3
2025-01-26 06:49:01.525703	260.4	36.5	-66.2	11.9
2025-01-26 06:49:02.668171	260.0	36.3	-66.0	11.9
2025-01-26 06:49:03.813122	259.7	36.1	-66.1	11.1
2025-01-26 06:49:04.954084	259.4	36.0	-66.4	11.2
2025-01-26 06:49:06.098037	259.1	35.8	-66.1	10.7
2025-01-26 06:49:07.240994	258.8	35.6	-66.7	12.5
2025-01-26 06:49:08.381955	258.5	35.4	-66.5	12.6
2025-01-26 06:49:09.525909	258.2	35.2	-66.2	12.2
2025-01-26 06:49:10.666870	257.9	35.0	-66.5	12.5
2025-01-26 06:49:11.809826	257.6	34.8	-66.4	12.4
2025-01-26 06:49:12.950787	257.3	34.7	-66.6	11.9
2025-01-26 06:49:14.092747	257.0	34.5	-66.4	12.2
2025-01-26 06:49:15.234705	256.7	34.3	-66.3	13.6
2025-01-26 06:49:16.379656	256.4	34.1	-66.4	13.6
2025-01-26 06:49:17.522612	256.1	33.9	-66.6	13.6
2025-01-26 06:49:18.664571	255.8	33.7	-66.5	12.5
2025-01-26 06:49:19.808524	255.6	33.5	-66.6	12.8
2025-01-26 06:49:20.951481	255.3	33.4	-66.4	12.1
2025-01-26 06:49:22.092442	255.0	33.2	-66.7	13.2
2025-01-26 06:49:23.233404	254.8	33.0	-66.7	13.0
2025-01-26 06:49:24.375362	254.5	32.8	-66.5	12.6
2025-01-26 06:49:25.516831	254.2	32.6	-66.6	13.0
2025-01-26 06:49:26.658299	254.0	32.4	-66.8	12.6
2025-01-26 06:49:27.800258	253.7	32.3	-66.6	12.6
2025-01-26 06:49:28.939224	253.5	32.1	-66.5	12.6
2025-01-26 06:49:30.081200	253.2	31.9	-66.7	13.1
2025-01-26 06:49:31.225153	253.0	31.7	-67.3	12.6
2025-01-26 06:49:32.367112	252.7	31.5	-67.0	13.1
2025-01-26 06:49:33.508581	252.5	31.4	-66.9	12.2
2025-01-26 06:49:34.649541	252.3	31.2	-67.5	12.6
2025-01-26 06:49:35.792498	252.0	31.0	-67.0	12.7
2025-01-26 06:49:36.931972	251.8	30.8	-66.8	11.0
2025-01-26 06:49:38.075927	251.6	30.6	-67.0	12.2
2025-01-26 06:49:39.218881	251.3	30.5	-67.1	11.4
2025-01-26 06:49:40.360841	251.1	30.3	-67.3	12.0
2025-01-26 06:49:41.501802	250.9	30.1	-68.2	7.0
2025-01-26 06:49:42.644759	250.7	29.9	-67.0	0.0
#Closed at: 2025-01-26 06:44:57.842712