passes_logs/2025/01/26/Planum_Noyabrsk/Planum_Noyabrsk__20250126_170432_NOAA_18_rec.log

#Pass ID: 20250126_170432_NOAA 18
#Satellite: NOAA 18
#Configuration: NOAA 18
#Start time: 2025-01-26 17:04:37.197994

#LorettStation: 1.0.0 05.05.2024
#Station: Planum_Noyabrsk
#Location: 75.446886 lon 63.207202 lat
#TLE: 1 28654U 05018A   25025.56838085  .00000481  00000+0  27892-3 0  9999
#TLE: 2 28654  98.8550 106.5171 0014805 149.9907 210.2117 14.13497177 14597

#Time	Az	El	Level	SNR
2025-01-26 17:04:45.404802	188.2	31.5	-65.4	5.5
2025-01-26 17:04:46.548813	188.3	31.7	-65.2	8.7
2025-01-26 17:04:47.689340	188.5	31.9	-64.6	6.3
2025-01-26 17:04:48.835346	188.7	32.1	-64.6	6.2
2025-01-26 17:04:49.975367	188.8	32.3	-65.2	7.4
2025-01-26 17:04:51.118382	189.0	32.5	-64.9	7.8
2025-01-26 17:04:52.260397	189.2	32.7	-65.2	9.0
2025-01-26 17:04:53.401416	189.3	32.9	-65.3	6.7
2025-01-26 17:04:54.545933	189.5	33.1	-64.9	8.7
2025-01-26 17:04:55.687949	189.7	33.4	-64.7	7.5
2025-01-26 17:04:56.829965	189.9	33.6	-64.2	5.5
2025-01-26 17:04:57.970494	190.1	33.8	-64.4	5.6
2025-01-26 17:04:59.112510	190.2	34.0	-66.3	10.3
2025-01-26 17:05:00.254526	190.4	34.2	-66.4	10.8
2025-01-26 17:05:01.396542	190.6	34.5	-65.6	8.0
2025-01-26 17:05:02.538558	190.8	34.7	-65.0	8.0
2025-01-26 17:05:03.680575	191.0	34.9	-66.9	11.4
2025-01-26 17:05:04.823588	191.2	35.1	-65.2	8.3
2025-01-26 17:05:05.967599	191.4	35.4	-66.4	11.7
2025-01-26 17:05:07.108618	191.6	35.6	-65.5	8.2
2025-01-26 17:05:08.250142	191.8	35.8	-65.7	8.2
2025-01-26 17:05:09.391668	192.0	36.1	-64.9	7.6
2025-01-26 17:05:10.532686	192.2	36.3	-65.0	8.9
2025-01-26 17:05:11.675700	192.4	36.5	-64.9	9.2
2025-01-26 17:05:12.816742	192.7	36.8	-66.1	11.0
2025-01-26 17:05:13.956763	192.9	37.0	-65.0	9.1
2025-01-26 17:05:15.098779	193.1	37.2	-65.9	10.9
2025-01-26 17:05:16.240815	193.3	37.5	-66.2	11.6
2025-01-26 17:05:17.382831	193.6	37.7	-64.1	6.9
2025-01-26 17:05:18.525845	193.8	38.0	-66.0	11.7
2025-01-26 17:05:19.670853	194.0	38.2	-65.0	10.0
2025-01-26 17:05:20.810875	194.3	38.5	-65.3	10.0
2025-01-26 17:05:21.955883	194.5	38.7	-64.0	9.5
2025-01-26 17:05:23.099894	194.8	38.9	-64.7	9.9
2025-01-26 17:05:24.241910	195.0	39.2	-65.8	10.4
2025-01-26 17:05:25.383926	195.3	39.4	-64.3	10.4
2025-01-26 17:05:26.525453	195.5	39.7	-64.2	8.9
2025-01-26 17:05:27.666472	195.8	39.9	-63.2	9.1
2025-01-26 17:05:28.809486	196.1	40.2	-63.5	8.7
2025-01-26 17:05:29.949507	196.3	40.5	-63.4	7.0
2025-01-26 17:05:31.096020	196.6	40.7	-64.1	9.0
2025-01-26 17:05:32.237039	196.9	41.0	-63.6	6.9
2025-01-26 17:05:33.380053	197.2	41.2	-64.7	10.2
2025-01-26 17:05:34.521071	197.5	41.5	-64.9	9.8
2025-01-26 17:05:35.663087	197.7	41.7	-64.5	9.3
2025-01-26 17:05:36.806100	198.0	42.0	-64.0	9.3
2025-01-26 17:05:37.951109	198.3	42.3	-65.0	10.7
2025-01-26 17:05:39.092128	198.7	42.5	-64.7	11.1
2025-01-26 17:05:40.234144	199.0	42.8	-65.0	10.7
2025-01-26 17:05:41.375163	199.3	43.0	-65.5	12.1
2025-01-26 17:05:42.519174	199.6	43.3	-66.9	13.3
2025-01-26 17:05:43.665690	199.9	43.6	-65.3	9.3
2025-01-26 17:05:44.807706	200.3	43.8	-65.3	10.3
2025-01-26 17:05:45.951717	200.6	44.1	-65.4	11.3
2025-01-26 17:05:47.092246	201.0	44.4	-65.6	10.5
2025-01-26 17:05:48.234262	201.3	44.6	-65.4	12.7
2025-01-26 17:05:49.375281	201.7	44.9	-65.1	11.0
2025-01-26 17:05:50.517297	202.0	45.2	-65.9	11.2
2025-01-26 17:05:51.659313	202.4	45.5	-64.9	11.1
2025-01-26 17:05:52.800333	202.8	45.7	-66.1	12.4
2025-01-26 17:05:53.941858	203.1	46.0	-66.9	13.6
2025-01-26 17:05:55.083874	203.5	46.3	-66.8	13.8
2025-01-26 17:05:56.224402	203.9	46.5	-66.8	14.5
2025-01-26 17:05:57.365932	204.3	46.8	-66.6	12.1
2025-01-26 17:05:58.505953	204.7	47.1	-64.5	8.0
2025-01-26 17:05:59.647971	205.1	47.4	-64.6	9.1
2025-01-26 17:06:00.790492	205.6	47.6	-65.5	13.4
2025-01-26 17:06:01.933506	206.0	47.9	-64.0	9.4
2025-01-26 17:06:03.074525	206.4	48.2	-64.3	9.1
2025-01-26 17:06:04.216052	206.9	48.5	-65.5	12.5
2025-01-26 17:06:05.355586	207.3	48.7	-64.9	9.4
2025-01-26 17:06:06.497602	207.8	49.0	-65.2	11.5
2025-01-26 17:06:07.639129	208.2	49.3	-65.6	9.1
2025-01-26 17:06:08.780148	208.7	49.5	-65.4	10.1
2025-01-26 17:06:09.926154	209.2	49.8	-66.1	12.7
2025-01-26 17:06:11.068169	209.7	50.1	-66.1	11.1
2025-01-26 17:06:12.210185	210.2	50.4	-66.4	9.2
2025-01-26 17:06:13.352202	210.7	50.6	-66.0	7.8
2025-01-26 17:06:14.493728	211.2	50.9	-66.7	12.3
2025-01-26 17:06:15.635744	211.8	51.2	-66.3	10.1
2025-01-26 17:06:16.777269	212.3	51.4	-66.6	10.7
2025-01-26 17:06:17.922278	212.9	51.7	-66.8	11.8
2025-01-26 17:06:19.065800	213.4	52.0	-66.3	10.3
2025-01-26 17:06:20.206818	214.0	52.2	-66.0	10.3
2025-01-26 17:06:21.347837	214.6	52.5	-66.9	12.3
2025-01-26 17:06:22.489853	215.1	52.7	-66.3	10.2
2025-01-26 17:06:23.631869	215.7	53.0	-66.5	11.0
2025-01-26 17:06:24.772399	216.4	53.3	-67.0	12.3
2025-01-26 17:06:25.915415	217.0	53.5	-67.0	12.0
2025-01-26 17:06:27.056431	217.6	53.8	-66.5	11.0
2025-01-26 17:06:28.201456	218.2	54.0	-66.5	11.7
2025-01-26 17:06:29.344469	218.9	54.3	-66.2	9.6
2025-01-26 17:06:30.486485	219.6	54.5	-66.7	10.9
2025-01-26 17:06:31.627503	220.2	54.7	-66.0	8.9
2025-01-26 17:06:32.771515	220.9	55.0	-66.1	9.5
2025-01-26 17:06:33.913531	221.6	55.2	-65.9	10.2
2025-01-26 17:06:35.056054	222.3	55.5	-66.0	10.6
2025-01-26 17:06:36.197074	223.1	55.7	-66.0	11.8
2025-01-26 17:06:37.337094	223.8	55.9	-65.8	11.1
2025-01-26 17:06:38.480109	224.5	56.1	-66.4	11.8
2025-01-26 17:06:39.626115	225.3	56.4	-65.8	10.4
2025-01-26 17:06:40.768130	226.1	56.6	-65.8	9.4
2025-01-26 17:06:41.913645	226.8	56.8	-65.6	9.3
2025-01-26 17:06:43.056659	227.6	57.0	-64.5	8.1
2025-01-26 17:06:44.200670	228.4	57.2	-66.5	11.3
2025-01-26 17:06:45.341688	229.3	57.4	-66.7	9.8
2025-01-26 17:06:46.484702	230.1	57.6	-64.9	5.0
2025-01-26 17:06:47.627715	230.9	57.8	-64.8	6.5
2025-01-26 17:06:48.771726	231.8	57.9	-66.0	8.2
2025-01-26 17:06:49.915738	232.6	58.1	-65.2	8.9
2025-01-26 17:06:51.057753	233.5	58.3	-66.2	11.2
2025-01-26 17:06:52.200767	234.4	58.5	-64.8	11.3
2025-01-26 17:06:53.342783	235.3	58.6	-64.1	8.8
2025-01-26 17:06:54.485798	236.2	58.8	-63.8	8.9
2025-01-26 17:06:55.629317	237.1	58.9	-63.7	8.7
2025-01-26 17:06:56.770335	238.0	59.1	-64.2	9.1
2025-01-26 17:06:57.912351	239.0	59.2	-63.0	6.6
2025-01-26 17:06:59.061349	239.9	59.3	-62.4	5.6
2025-01-26 17:07:00.203365	240.9	59.4	-63.7	6.2
2025-01-26 17:07:01.344384	241.8	59.6	-65.5	7.7
2025-01-26 17:07:02.487903	242.8	59.7	-63.6	7.3
2025-01-26 17:07:03.628922	243.8	59.8	-63.4	5.7
2025-01-26 17:07:04.771936	244.8	59.9	-65.1	9.8
2025-01-26 17:07:05.914460	245.8	59.9	-62.4	5.1
2025-01-26 17:07:07.056477	246.8	60.0	-65.3	11.1
2025-01-26 17:07:08.348103	247.9	60.1	-66.2	11.3
2025-01-26 17:07:09.492621	248.9	60.2	-65.5	10.7
2025-01-26 17:07:10.633640	249.9	60.2	-62.6	7.5
2025-01-26 17:07:11.774659	250.9	60.3	-65.4	11.2
2025-01-26 17:07:12.915677	252.0	60.3	-65.0	9.4
2025-01-26 17:07:14.056697	253.0	60.3	-62.8	6.0
2025-01-26 17:07:15.198223	254.0	60.3	-64.1	8.0
2025-01-26 17:07:16.342233	255.0	60.3	-65.8	10.4
2025-01-26 17:07:17.485247	256.1	60.4	-65.1	12.3
2025-01-26 17:07:18.635748	257.1	60.3	-61.8	7.0
2025-01-26 17:07:19.776275	258.1	60.3	-63.3	6.6
2025-01-26 17:07:20.919289	259.2	60.3	-65.1	12.0
2025-01-26 17:07:22.060813	260.2	60.3	-62.5	7.6
2025-01-26 17:07:23.204824	261.2	60.3	-64.9	12.1
2025-01-26 17:07:24.347838	262.2	60.2	-64.4	9.2
2025-01-26 17:07:25.490852	263.2	60.2	-63.0	8.8
2025-01-26 17:07:26.633865	264.2	60.1	-64.5	11.7
2025-01-26 17:07:27.776878	265.2	60.0	-61.9	8.3
2025-01-26 17:07:28.917897	266.2	60.0	-63.1	9.9
2025-01-26 17:07:30.059914	267.2	59.9	-62.9	8.4
2025-01-26 17:07:31.201930	268.2	59.8	-63.0	5.7
2025-01-26 17:07:32.343462	269.2	59.7	-63.1	8.1
2025-01-26 17:07:33.484480	270.2	59.6	-64.3	7.5
2025-01-26 17:07:34.627494	271.1	59.5	-64.3	8.5
2025-01-26 17:07:35.768022	272.1	59.3	-62.9	7.4
2025-01-26 17:07:36.911035	273.0	59.2	-63.3	7.1
2025-01-26 17:07:38.053052	274.0	59.1	-62.5	4.3
2025-01-26 17:07:39.193579	274.9	58.9	-63.1	4.5
2025-01-26 17:07:40.337590	275.8	58.8	-63.1	4.1
2025-01-26 17:07:41.478118	276.7	58.6	-62.1	0.8
2025-01-26 17:07:42.621640	277.6	58.5	-64.5	4.1
2025-01-26 17:07:43.762658	278.5	58.3	-61.8	0.0
2025-01-26 17:07:44.904674	279.4	58.2	-64.6	3.1
2025-01-26 17:07:46.046690	280.3	58.0	-63.6	2.5
2025-01-26 17:07:47.187709	281.1	57.8	-65.5	6.6
2025-01-26 17:07:48.328728	281.9	57.6	-60.6	0.0
2025-01-26 17:07:49.471741	282.8	57.4	-61.6	0.0
2025-01-26 17:07:50.615770	283.6	57.2	-62.4	0.0
2025-01-26 17:07:51.758783	284.4	57.0	-64.2	0.0
2025-01-26 17:07:52.899802	285.2	56.8	-62.2	1.0
2025-01-26 17:07:54.042328	286.0	56.6	-66.6	7.3
2025-01-26 17:07:55.183346	286.7	56.4	-64.6	3.6
2025-01-26 17:07:56.329352	287.5	56.2	-65.1	1.5
2025-01-26 17:07:57.471368	288.3	56.0	-63.1	0.7
2025-01-26 17:07:58.613384	289.0	55.7	-65.9	7.1
2025-01-26 17:07:59.755400	289.7	55.5	-65.6	6.8
2025-01-26 17:08:00.896419	290.4	55.3	-66.2	9.2
2025-01-26 17:08:02.037438	291.1	55.0	-66.0	9.4
2025-01-26 17:08:03.179454	291.8	54.8	-63.9	8.3
2025-01-26 17:08:04.320980	292.5	54.6	-63.8	7.4
2025-01-26 17:08:05.464991	293.2	54.3	-65.1	8.2
2025-01-26 17:08:06.608004	293.8	54.1	-65.8	8.1
2025-01-26 17:08:07.756004	294.5	53.8	-64.4	9.1
2025-01-26 17:08:08.898036	295.1	53.6	-64.9	7.7
2025-01-26 17:08:10.040037	295.7	53.3	-65.1	12.0
2025-01-26 17:08:11.182560	296.3	53.1	-63.5	8.0
2025-01-26 17:08:12.322581	296.9	52.8	-65.1	11.9
2025-01-26 17:08:13.463599	297.5	52.5	-65.3	10.9
2025-01-26 17:08:14.606123	298.1	52.3	-65.3	11.5
2025-01-26 17:08:15.746144	298.7	52.0	-63.8	9.0
2025-01-26 17:08:16.887163	299.2	51.7	-65.4	11.0
2025-01-26 17:08:18.034674	299.8	51.5	-64.3	8.6
2025-01-26 17:08:19.175693	300.3	51.2	-63.4	6.6
2025-01-26 17:08:20.317709	300.9	50.9	-63.9	11.4
2025-01-26 17:08:21.458237	301.4	50.7	-63.1	5.5
2025-01-26 17:08:22.600253	301.9	50.4	-63.4	7.5
2025-01-26 17:08:23.741271	302.4	50.1	-64.7	10.2
2025-01-26 17:08:24.888274	302.9	49.9	-65.3	11.0
2025-01-26 17:08:26.030291	303.4	49.6	-65.5	11.1
2025-01-26 17:08:27.172307	303.9	49.3	-64.6	9.3
2025-01-26 17:08:28.314345	304.3	49.1	-62.7	7.0
2025-01-26 17:08:29.455364	304.8	48.8	-64.8	8.9
2025-01-26 17:08:30.598379	305.2	48.5	-64.5	8.8
2025-01-26 17:08:31.741392	305.7	48.2	-63.8	8.4
2025-01-26 17:08:32.882411	306.1	48.0	-63.4	7.2
2025-01-26 17:08:34.025424	306.6	47.7	-63.7	7.7
2025-01-26 17:08:35.167440	307.0	47.4	-64.5	8.6
2025-01-26 17:08:36.309455	307.4	47.1	-62.2	3.8
2025-01-26 17:08:37.449983	307.8	46.9	-63.8	7.3
2025-01-26 17:08:38.591020	308.2	46.6	-64.6	7.4
2025-01-26 17:08:39.734033	308.6	46.3	-64.1	6.4
2025-01-26 17:08:40.876049	309.0	46.1	-63.2	4.7
2025-01-26 17:08:42.021058	309.4	45.8	-63.8	3.7
2025-01-26 17:08:43.162076	309.7	45.5	-64.5	7.1
2025-01-26 17:08:44.304092	310.1	45.2	-63.0	1.7
2025-01-26 17:08:45.445111	310.5	45.0	-63.4	2.8
2025-01-26 17:08:46.588124	310.8	44.7	-62.9	3.0
2025-01-26 17:08:47.728146	311.2	44.4	-64.1	2.4
2025-01-26 17:08:48.872157	311.5	44.2	-64.6	3.2
2025-01-26 17:08:50.015680	311.9	43.9	-64.9	3.3
2025-01-26 17:08:51.157696	312.2	43.6	-62.9	1.2
2025-01-26 17:08:52.300709	312.5	43.4	-63.0	1.7
2025-01-26 17:08:53.442725	312.9	43.1	-62.7	0.1
2025-01-26 17:08:54.584250	313.2	42.8	-62.3	0.0
2025-01-26 17:08:55.726267	313.5	42.6	-64.2	4.7
2025-01-26 17:08:56.867793	313.8	42.3	-61.4	0.0
2025-01-26 17:08:58.010807	314.1	42.1	-61.9	0.0
2025-01-26 17:08:59.151826	314.4	41.8	-64.3	2.1
2025-01-26 17:09:00.297831	314.7	41.5	-63.9	1.9
2025-01-26 17:09:01.438851	315.0	41.3	-63.3	0.0
2025-01-26 17:09:02.580866	315.3	41.0	-65.1	4.1
2025-01-26 17:09:03.725874	315.5	40.8	-62.7	1.8
2025-01-26 17:09:04.866893	315.8	40.5	-63.9	4.0
2025-01-26 17:09:06.008909	316.1	40.3	-64.2	3.5
2025-01-26 17:09:07.149928	316.4	40.0	-62.3	0.0
2025-01-26 17:09:08.291944	316.6	39.8	-63.5	3.5
2025-01-26 17:09:09.432963	316.9	39.5	-62.0	1.2
2025-01-26 17:09:10.574492	317.1	39.3	-63.0	5.4
2025-01-26 17:09:11.714513	317.4	39.0	-63.7	5.2
2025-01-26 17:09:12.857526	317.6	38.8	-64.2	8.1
2025-01-26 17:09:13.998545	317.9	38.5	-64.1	8.1
2025-01-26 17:09:15.140070	318.1	38.3	-62.9	5.1
2025-01-26 17:09:16.280601	318.4	38.0	-63.0	4.9
2025-01-26 17:09:17.422617	318.6	37.8	-62.9	3.9
2025-01-26 17:09:18.565631	318.8	37.5	-61.6	0.9
2025-01-26 17:09:19.706649	319.1	37.3	-61.6	2.8
2025-01-26 17:09:20.851659	319.3	37.1	-62.5	4.4
2025-01-26 17:09:21.992676	319.5	36.8	-60.1	0.0
2025-01-26 17:09:23.137685	319.7	36.6	-61.2	3.3
2025-01-26 17:09:24.278704	319.9	36.4	-60.8	0.0
2025-01-26 17:09:25.419722	320.1	36.1	-63.3	6.0
2025-01-26 17:09:26.560741	320.4	35.9	-63.6	5.9
2025-01-26 17:09:27.702758	320.6	35.7	-61.3	2.5
2025-01-26 17:09:28.842779	320.8	35.4	-60.9	0.0
2025-01-26 17:09:29.986789	321.0	35.2	-61.6	2.5
2025-01-26 17:09:31.129312	321.2	35.0	-62.7	4.2
2025-01-26 17:09:32.272833	321.4	34.7	-62.1	2.4
2025-01-26 17:09:33.414848	321.6	34.5	-61.9	3.5
2025-01-26 17:09:34.557863	321.7	34.3	-62.3	6.0
2025-01-26 17:09:35.698881	321.9	34.1	-62.6	2.0
2025-01-26 17:09:36.842893	322.1	33.9	-60.9	0.0
2025-01-26 17:09:37.985905	322.3	33.6	-62.5	4.6
2025-01-26 17:09:39.133906	322.5	33.4	-61.4	2.1
2025-01-26 17:09:40.275922	322.7	33.2	-60.7	0.0
2025-01-26 17:09:41.416941	322.8	33.0	-60.8	0.0
2025-01-26 17:09:42.558468	323.0	32.8	-60.8	0.0
2025-01-26 17:09:43.700485	323.2	32.6	-62.9	6.3
2025-01-26 17:09:44.842500	323.4	32.3	-61.0	3.0
2025-01-26 17:09:45.987018	323.5	32.1	-60.5	2.8
2025-01-26 17:09:47.128037	323.7	31.9	-60.3	0.6
2025-01-26 17:09:48.269563	323.8	31.7	-61.8	0.0
2025-01-26 17:09:49.411579	324.0	31.5	-61.2	3.2
2025-01-26 17:09:50.553595	324.2	31.3	-61.4	3.9
2025-01-26 17:09:51.715068	324.3	31.1	-57.5	0.0
2025-01-26 17:09:52.857084	324.5	30.9	-61.7	4.4
2025-01-26 17:09:53.999101	324.6	30.7	-59.9	0.0
2025-01-26 17:09:55.142114	324.8	30.5	-58.2	0.0
2025-01-26 17:09:56.283133	324.9	30.3	-59.1	0.0
2025-01-26 17:09:57.425149	325.1	30.1	-61.2	0.0
#Closed at: 2025-01-26 17:04:32.202300