passes_logs/2025/01/26/Planum_Noyabrsk/Planum_Noyabrsk__20250126_050402_NOAA_19_rec.log

#Pass ID: 20250126_050402_NOAA 19
#Satellite: NOAA 19
#Configuration: NOAA 19
#Start time: 2025-01-26 05:04:07.997591

#LorettStation: 1.0.0 05.05.2024
#Station: Planum_Noyabrsk
#Location: 75.446886 lon 63.207202 lat
#TLE: 1 33591U 09005A   25025.55292054  .00000417  00000+0  24665-3 0  9998
#TLE: 2 33591  99.0178  89.3960 0014071  28.9408 331.2542 14.13268912822779

#Time	Az	El	Level	SNR
2025-01-26 05:04:14.207883	39.1	31.1	-62.9	6.9
2025-01-26 05:04:15.350841	39.3	31.2	-63.1	7.1
2025-01-26 05:04:16.492800	39.5	31.4	-63.2	8.5
2025-01-26 05:04:17.640744	39.7	31.6	-61.9	5.0
2025-01-26 05:04:18.782705	39.9	31.8	-61.7	7.1
2025-01-26 05:04:19.927657	40.1	32.0	-62.5	6.0
2025-01-26 05:04:21.068619	40.3	32.2	-62.8	8.0
2025-01-26 05:04:22.210579	40.5	32.4	-61.9	6.5
2025-01-26 05:04:23.352539	40.7	32.7	-62.0	5.5
2025-01-26 05:04:24.494500	40.9	32.9	-62.3	6.6
2025-01-26 05:04:25.638455	41.1	33.1	-62.7	7.3
2025-01-26 05:04:26.780414	41.3	33.3	-62.8	9.9
2025-01-26 05:04:27.933857	41.5	33.5	-61.3	5.1
2025-01-26 05:04:29.076816	41.7	33.7	-62.3	5.7
2025-01-26 05:04:30.217777	42.0	33.9	-62.1	6.7
2025-01-26 05:04:31.358740	42.2	34.1	-62.3	6.4
2025-01-26 05:04:32.501697	42.4	34.3	-61.5	6.6
2025-01-26 05:04:33.643675	42.6	34.5	-59.8	0.5
2025-01-26 05:04:34.784638	42.8	34.7	-58.9	4.9
2025-01-26 05:04:35.927596	43.1	35.0	-60.4	1.4
2025-01-26 05:04:37.069068	43.3	35.2	-60.6	6.7
2025-01-26 05:04:38.217526	43.5	35.4	-62.0	8.4
2025-01-26 05:04:39.358999	43.8	35.6	-60.5	5.5
2025-01-26 05:04:40.500979	44.0	35.8	-61.5	6.5
2025-01-26 05:04:41.640944	44.3	36.0	-60.9	6.3
2025-01-26 05:04:42.782904	44.5	36.3	-60.0	4.2
2025-01-26 05:04:43.925861	44.8	36.5	-60.6	5.3
2025-01-26 05:04:45.070325	45.0	36.7	-59.9	5.0
2025-01-26 05:04:46.212284	45.3	36.9	-60.3	5.3
2025-01-26 05:04:47.356747	45.6	37.2	-58.1	0.0
2025-01-26 05:04:48.498217	45.8	37.4	-59.3	3.4
2025-01-26 05:04:49.641174	46.1	37.6	-59.0	0.0
2025-01-26 05:04:50.784132	46.4	37.8	-58.7	2.2
2025-01-26 05:04:51.926092	46.6	38.1	-59.1	4.4
2025-01-26 05:04:53.067054	46.9	38.3	-59.4	2.2
2025-01-26 05:04:54.208017	47.2	38.5	-59.1	1.8
2025-01-26 05:04:55.349977	47.5	38.7	-56.4	0.0
2025-01-26 05:04:56.490940	47.8	39.0	-60.3	2.6
2025-01-26 05:04:57.632900	48.1	39.2	-59.0	0.0
2025-01-26 05:04:58.773863	48.4	39.4	-60.4	1.8
2025-01-26 05:04:59.916820	48.7	39.7	-58.3	2.2
2025-01-26 05:05:01.063767	49.0	39.9	-58.7	0.0
2025-01-26 05:05:02.209717	49.3	40.1	-59.1	0.0
2025-01-26 05:05:03.351676	49.6	40.4	-58.7	0.0
2025-01-26 05:05:04.496138	50.0	40.6	-58.0	0.0
2025-01-26 05:05:05.639095	50.3	40.8	-59.2	3.1
2025-01-26 05:05:06.781055	50.6	41.1	-59.3	6.7
2025-01-26 05:05:07.922018	51.0	41.3	-57.7	0.0
2025-01-26 05:05:09.062981	51.3	41.5	-58.8	0.0
2025-01-26 05:05:10.203943	51.7	41.8	-60.0	6.6
2025-01-26 05:05:11.346412	52.0	42.0	-58.4	0.0
2025-01-26 05:05:12.488373	52.4	42.2	-59.7	3.1
2025-01-26 05:05:13.630333	52.7	42.5	-57.9	0.0
2025-01-26 05:05:14.775285	53.1	42.7	-56.6	0.0
2025-01-26 05:05:15.917245	53.5	43.0	-62.1	9.1
2025-01-26 05:05:17.059205	53.9	43.2	-59.7	5.3
2025-01-26 05:05:18.202163	54.2	43.4	-61.2	9.1
2025-01-26 05:05:19.350107	54.6	43.7	-55.7	0.0
2025-01-26 05:05:20.493064	55.0	43.9	-56.0	0.0
2025-01-26 05:05:21.635531	55.4	44.1	-58.2	1.8
2025-01-26 05:05:22.780484	55.8	44.4	-56.4	0.0
2025-01-26 05:05:23.922443	56.3	44.6	-57.8	2.2
2025-01-26 05:05:25.063430	56.7	44.9	-57.7	0.0
2025-01-26 05:05:26.205390	57.1	45.1	-60.1	4.5
2025-01-26 05:05:27.346860	57.5	45.3	-59.3	0.0
2025-01-26 05:05:28.488820	58.0	45.6	-57.7	0.0
2025-01-26 05:05:29.630780	58.4	45.8	-59.4	3.6
2025-01-26 05:05:30.771743	58.9	46.0	-56.6	2.3
2025-01-26 05:05:31.912705	59.3	46.3	-58.1	0.1
2025-01-26 05:05:33.055173	59.8	46.5	-58.0	0.0
2025-01-26 05:05:34.196136	60.3	46.7	-58.7	5.0
2025-01-26 05:05:35.338096	60.7	47.0	-59.1	3.4
2025-01-26 05:05:36.478567	61.2	47.2	-59.2	2.9
2025-01-26 05:05:37.621525	61.7	47.4	-58.9	0.8
2025-01-26 05:05:38.762487	62.2	47.7	-59.6	5.0
2025-01-26 05:05:39.905465	62.7	47.9	-61.8	9.5
2025-01-26 05:05:41.048422	63.2	48.1	-60.8	0.0
2025-01-26 05:05:42.190382	63.8	48.3	-59.9	4.4
2025-01-26 05:05:43.336837	64.3	48.6	-59.8	0.8
2025-01-26 05:05:44.479795	64.8	48.8	-59.9	3.2
2025-01-26 05:05:45.619760	65.4	49.0	-59.9	1.8
2025-01-26 05:05:46.762718	65.9	49.2	-54.3	0.0
2025-01-26 05:05:47.903680	66.5	49.5	-61.6	3.6
2025-01-26 05:05:49.044644	67.1	49.7	-59.9	5.6
2025-01-26 05:05:50.191590	67.7	49.9	-59.2	0.0
2025-01-26 05:05:51.332553	68.2	50.1	-56.9	0.0
2025-01-26 05:05:52.474513	68.8	50.3	-57.5	0.0
2025-01-26 05:05:53.615476	69.4	50.5	-57.3	0.4
2025-01-26 05:05:54.758433	70.0	50.7	-52.9	0.0
2025-01-26 05:05:55.899396	70.7	50.9	-58.0	0.0
2025-01-26 05:05:57.043860	71.3	51.1	-53.9	0.0
2025-01-26 05:05:58.187815	71.9	51.3	-53.0	0.0
2025-01-26 05:05:59.327780	72.6	51.5	-56.0	0.0
2025-01-26 05:06:00.470247	73.2	51.7	-56.0	0.0
2025-01-26 05:06:01.611210	73.9	51.9	-54.8	0.0
2025-01-26 05:06:02.753170	74.6	52.1	-55.6	0.0
2025-01-26 05:06:03.894149	75.2	52.3	-56.3	0.0
2025-01-26 05:06:05.037107	75.9	52.4	-56.6	0.0
2025-01-26 05:06:06.178069	76.6	52.6	-54.2	0.0
2025-01-26 05:06:07.320052	77.3	52.8	-54.1	0.0
2025-01-26 05:06:08.461015	78.0	53.0	-56.2	0.0
2025-01-26 05:06:09.601488	78.7	53.1	-55.8	0.0
2025-01-26 05:06:10.742466	79.5	53.3	-55.6	0.0
2025-01-26 05:06:11.883429	80.2	53.4	-56.9	0.0
2025-01-26 05:06:13.026387	80.9	53.6	-56.7	0.0
2025-01-26 05:06:14.167869	81.7	53.7	-57.3	0.0
2025-01-26 05:06:15.309829	82.4	53.9	-56.7	0.0
2025-01-26 05:06:16.452786	83.2	54.0	-55.7	0.0
2025-01-26 05:06:17.595746	84.0	54.1	-55.1	0.0
2025-01-26 05:06:18.736706	84.7	54.3	-58.8	0.0
2025-01-26 05:06:19.879664	85.5	54.4	-58.4	2.4
2025-01-26 05:06:21.020627	86.3	54.5	-58.6	0.0
2025-01-26 05:06:22.168571	87.1	54.6	-56.5	0.0
2025-01-26 05:06:23.310531	87.9	54.7	-56.7	0.0
2025-01-26 05:06:24.453995	88.7	54.8	-59.8	0.0
2025-01-26 05:06:25.595955	89.5	54.9	-59.3	0.0
2025-01-26 05:06:26.739910	90.4	55.0	-56.1	0.0
2025-01-26 05:06:27.880873	91.2	55.1	-59.3	0.0
2025-01-26 05:06:29.022833	92.0	55.2	-59.4	1.4
2025-01-26 05:06:30.165790	92.9	55.3	-59.6	0.0
2025-01-26 05:06:31.306262	93.7	55.3	-57.1	0.0
2025-01-26 05:06:32.451214	94.5	55.4	-59.6	3.3
2025-01-26 05:06:33.592177	95.4	55.5	-60.5	3.4
2025-01-26 05:06:34.734643	96.2	55.5	-58.5	3.7
2025-01-26 05:06:35.878111	97.1	55.6	-59.0	1.6
2025-01-26 05:06:37.021068	97.9	55.6	-58.1	0.0
2025-01-26 05:06:38.163535	98.8	55.6	-58.5	0.0
2025-01-26 05:06:39.304497	99.7	55.6	-58.4	0.0
2025-01-26 05:06:40.445967	100.5	55.7	-59.8	0.0
2025-01-26 05:06:41.587927	101.4	55.7	-61.1	0.0
2025-01-26 05:06:42.729887	102.2	55.7	-59.4	0.4
2025-01-26 05:06:43.870850	103.1	55.7	-59.1	0.0
2025-01-26 05:06:45.011813	104.0	55.7	-60.3	0.0
2025-01-26 05:06:46.153773	104.8	55.7	-61.0	0.0
2025-01-26 05:06:47.298725	105.7	55.7	-59.7	0.5
2025-01-26 05:06:48.440700	106.5	55.6	-59.3	0.0
2025-01-26 05:06:49.582660	107.4	55.6	-59.0	0.0
2025-01-26 05:06:50.724620	108.3	55.6	-58.8	0.5
2025-01-26 05:06:51.870079	109.1	55.5	-59.0	0.0
2025-01-26 05:06:53.011043	110.0	55.5	-58.2	0.0
2025-01-26 05:06:54.155993	110.8	55.4	-59.3	0.0
2025-01-26 05:06:55.298951	111.7	55.4	-61.1	0.0
2025-01-26 05:06:56.438916	112.5	55.3	-59.9	0.0
2025-01-26 05:06:57.581874	113.3	55.2	-60.2	0.0
2025-01-26 05:06:58.724847	114.2	55.1	-59.8	0.0
2025-01-26 05:06:59.866807	115.0	55.1	-60.0	1.0
2025-01-26 05:07:01.008767	115.8	55.0	-59.6	0.4
2025-01-26 05:07:02.150727	116.6	54.9	-59.9	0.0
2025-01-26 05:07:03.292687	117.4	54.8	-60.4	2.1
2025-01-26 05:07:04.435645	118.2	54.7	-59.2	3.3
2025-01-26 05:07:05.581611	119.0	54.6	-60.0	1.5
2025-01-26 05:07:06.725566	119.8	54.4	-59.4	1.0
2025-01-26 05:07:07.867525	120.6	54.3	-61.1	3.5
2025-01-26 05:07:09.009995	121.4	54.2	-60.8	3.6
2025-01-26 05:07:10.150470	122.2	54.1	-61.1	0.7
2025-01-26 05:07:11.293428	122.9	53.9	-60.0	4.9
2025-01-26 05:07:12.434390	123.7	53.8	-62.0	6.5
2025-01-26 05:07:13.579850	124.5	53.6	-60.5	2.3
2025-01-26 05:07:14.722317	125.2	53.5	-61.6	3.5
2025-01-26 05:07:15.865275	125.9	53.3	-61.7	7.3
2025-01-26 05:07:17.006237	126.7	53.2	-62.2	6.9
2025-01-26 05:07:18.149196	127.4	53.0	-62.8	5.9
2025-01-26 05:07:19.297140	128.1	52.8	-61.2	4.5
2025-01-26 05:07:20.438102	128.8	52.7	-61.9	6.7
2025-01-26 05:07:21.582062	129.5	52.5	-62.1	5.6
2025-01-26 05:07:22.722532	130.2	52.3	-62.1	3.2
2025-01-26 05:07:23.864492	130.9	52.1	-62.2	6.0
2025-01-26 05:07:25.005455	131.5	52.0	-62.2	6.0
2025-01-26 05:07:26.151405	132.2	51.8	-62.9	6.5
2025-01-26 05:07:27.294362	132.9	51.6	-62.1	5.9
2025-01-26 05:07:28.435325	133.5	51.4	-61.9	6.1
2025-01-26 05:07:29.576795	134.1	51.2	-60.8	5.8
2025-01-26 05:07:30.719262	134.8	51.0	-63.1	6.8
2025-01-26 05:07:31.862220	135.4	50.8	-62.6	6.6
2025-01-26 05:07:33.008676	136.0	50.6	-62.4	6.8
2025-01-26 05:07:34.151634	136.6	50.4	-62.9	7.8
2025-01-26 05:07:35.293594	137.2	50.2	-63.1	7.2
2025-01-26 05:07:36.436062	137.8	50.0	-63.2	4.0
2025-01-26 05:07:37.578022	138.4	49.7	-62.8	6.8
2025-01-26 05:07:38.718984	138.9	49.5	-62.9	6.3
2025-01-26 05:07:39.864444	139.5	49.3	-62.7	5.9
2025-01-26 05:07:41.006403	140.1	49.1	-62.1	5.4
2025-01-26 05:07:42.152353	140.6	48.9	-63.5	8.0
2025-01-26 05:07:43.298809	141.2	48.6	-63.8	8.7
2025-01-26 05:07:44.441766	141.7	48.4	-62.2	6.1
2025-01-26 05:07:45.583726	142.2	48.2	-63.6	8.1
2025-01-26 05:07:46.725686	142.7	48.0	-64.1	8.1
2025-01-26 05:07:47.866650	143.3	47.7	-63.7	8.1
2025-01-26 05:07:49.008609	143.8	47.5	-64.3	10.2
2025-01-26 05:07:50.149083	144.2	47.3	-65.0	10.5
2025-01-26 05:07:51.291043	144.7	47.0	-64.3	9.0
2025-01-26 05:07:52.432006	145.2	46.8	-65.3	10.0
2025-01-26 05:07:53.574474	145.7	46.6	-65.1	10.4
2025-01-26 05:07:54.719427	146.2	46.3	-64.7	8.1
2025-01-26 05:07:55.861386	146.6	46.1	-65.7	10.4
2025-01-26 05:07:57.002856	147.1	45.9	-65.8	11.7
2025-01-26 05:07:58.143819	147.5	45.6	-65.6	11.0
2025-01-26 05:07:59.285779	148.0	45.4	-65.4	10.9
2025-01-26 05:08:00.426741	148.4	45.2	-65.5	12.0
2025-01-26 05:08:01.568701	148.8	44.9	-65.6	12.9
2025-01-26 05:08:02.709173	149.2	44.7	-65.7	11.8
2025-01-26 05:08:03.850643	149.7	44.5	-66.1	13.1
2025-01-26 05:08:04.992603	150.1	44.2	-65.8	13.7
2025-01-26 05:08:06.132569	150.5	44.0	-65.5	13.6
2025-01-26 05:08:07.273546	150.9	43.7	-65.5	12.3
2025-01-26 05:08:08.416504	151.3	43.5	-66.0	13.6
2025-01-26 05:08:09.557466	151.7	43.3	-66.0	13.0
2025-01-26 05:08:10.698448	152.0	43.0	-65.5	12.7
2025-01-26 05:08:11.840408	152.4	42.8	-65.7	13.4
2025-01-26 05:08:12.984363	152.8	42.5	-65.9	14.5
2025-01-26 05:08:14.131817	153.1	42.3	-65.6	14.7
2025-01-26 05:08:15.273776	153.5	42.1	-65.6	13.4
2025-01-26 05:08:16.414739	153.9	41.8	-65.7	14.4
2025-01-26 05:08:17.557696	154.2	41.6	-65.4	13.7
2025-01-26 05:08:18.702649	154.5	41.4	-65.7	13.5
2025-01-26 05:08:19.843611	154.9	41.1	-65.3	13.7
2025-01-26 05:08:20.989069	155.2	40.9	-65.4	13.4
2025-01-26 05:08:22.130032	155.6	40.7	-65.4	14.0
2025-01-26 05:08:23.272499	155.9	40.4	-65.9	14.5
2025-01-26 05:08:24.418449	156.2	40.2	-65.7	14.4
2025-01-26 05:08:25.559411	156.5	40.0	-65.7	14.0
2025-01-26 05:08:26.701371	156.8	39.7	-66.3	15.7
2025-01-26 05:08:27.842842	157.1	39.5	-66.3	15.7
2025-01-26 05:08:28.983804	157.4	39.3	-66.3	15.0
2025-01-26 05:08:30.127765	157.7	39.0	-66.3	15.7
2025-01-26 05:08:31.269229	158.0	38.8	-66.1	14.9
2025-01-26 05:08:32.411695	158.3	38.6	-66.0	15.1
2025-01-26 05:08:33.553654	158.6	38.3	-66.3	15.3
2025-01-26 05:08:34.696612	158.9	38.1	-66.0	14.8
2025-01-26 05:08:35.838572	159.2	37.9	-65.9	15.4
2025-01-26 05:08:36.980532	159.4	37.7	-65.9	13.8
2025-01-26 05:08:38.120007	159.7	37.4	-66.3	15.0
2025-01-26 05:08:39.261966	160.0	37.2	-66.4	14.7
2025-01-26 05:08:40.402929	160.2	37.0	-66.8	15.8
2025-01-26 05:08:41.545396	160.5	36.8	-66.7	13.9
2025-01-26 05:08:42.686358	160.8	36.5	-66.9	14.3
2025-01-26 05:08:43.827321	161.0	36.3	-66.4	13.7
2025-01-26 05:08:44.968792	161.3	36.1	-66.8	14.3
2025-01-26 05:08:46.111749	161.5	35.9	-66.5	13.9
2025-01-26 05:08:47.251716	161.8	35.7	-67.1	14.9
2025-01-26 05:08:48.393675	162.0	35.4	-66.8	14.3
2025-01-26 05:08:49.535634	162.2	35.2	-66.9	14.0
2025-01-26 05:08:50.677595	162.5	35.0	-66.7	13.9
2025-01-26 05:08:51.823054	162.7	34.8	-67.2	15.6
2025-01-26 05:08:52.964016	162.9	34.6	-67.0	14.2
2025-01-26 05:08:54.105977	163.2	34.4	-67.3	16.0
2025-01-26 05:08:55.245992	163.4	34.2	-66.9	13.7
2025-01-26 05:08:56.395931	163.6	33.9	-66.8	12.9
2025-01-26 05:08:57.536405	163.8	33.7	-67.3	13.6
2025-01-26 05:08:58.678365	164.0	33.5	-67.3	12.8
2025-01-26 05:08:59.820325	164.2	33.3	-67.0	13.0
2025-01-26 05:09:00.962286	164.5	33.1	-67.2	12.3
2025-01-26 05:09:02.103755	164.7	32.9	-67.3	13.1
2025-01-26 05:09:03.243720	164.9	32.7	-67.2	12.0
2025-01-26 05:09:04.384683	165.1	32.5	-67.2	12.4
2025-01-26 05:09:05.525158	165.3	32.3	-67.5	11.3
2025-01-26 05:09:06.667119	165.5	32.1	-67.5	10.6
2025-01-26 05:09:07.808081	165.7	31.9	-67.3	11.6
2025-01-26 05:09:08.949551	165.8	31.7	-67.6	11.2
2025-01-26 05:09:10.091510	166.0	31.5	-67.9	11.6
2025-01-26 05:09:11.241448	166.2	31.3	-67.4	11.6
2025-01-26 05:09:12.384914	166.4	31.1	-67.6	9.8
2025-01-26 05:09:13.526874	166.6	30.9	-67.4	11.2
2025-01-26 05:09:14.667836	166.8	30.7	-67.3	11.0
2025-01-26 05:09:15.810305	167.0	30.5	-67.7	11.0
2025-01-26 05:09:16.955258	167.1	30.3	-67.9	11.8
2025-01-26 05:09:18.096220	167.3	30.1	-68.8	2.4
#Closed at: 2025-01-26 05:04:03.006700