passes_logs/2026/01/27/R4.6S_Anadyr/R4.6S_Anadyr__20260127_025105_KOSAR1-5_rec.log

#Pass ID: 20260127_025105_KOSAR1-5
#Satellite: KOSAR1-5
#Configuration: KOSAR1-5
#almurnet v.1.7.20251203
#Start time: 2026-01-27 02:51:09

#Version: 2.2.20231116
#Station: R4.6S_Anadyr
#Location: 177.4865 lon 64.73178 lat
#TLE: 1 67264U 25313S   26026.51088181  .00010179  00000+0  46997-3 0  9992
#TLE: 2 67264  97.4174 103.4904 0016447 142.6904 217.5477 15.20282047  4400

#Time	Az	El	Level	Level2	SNR	BER	BlckErr	Temp	State	Recorded	gain1	gain2
2026-01-27 02:51:09.25	20.18	0.15	-45.7	-59.1	3.3	1.54e+00	0	29	0	0	60	36356
2026-01-27 02:51:11.26	19.94	0.25	-45.7	-60.4	3.6	1.51e+00	0	29	104	0	60	42513
2026-01-27 02:51:13.28	19.70	0.34	-45.8	-60.4	3.6	1.51e+00	0	29	104	0	60	42687
2026-01-27 02:51:15.29	19.46	0.43	-45.8	-60.5	3.6	1.51e+00	0	29	104	0	60	42926
2026-01-27 02:51:17.32	19.22	0.53	-45.8	-60.5	3.6	1.51e+00	0	29	104	0	60	42728
2026-01-27 02:51:19.33	18.97	0.62	-45.6	-60.4	3.6	1.51e+00	0	29	104	0	60	42325
2026-01-27 02:51:21.36	18.73	0.72	-45.7	-60.3	3.6	1.51e+00	0	29	104	0	60	42167
2026-01-27 02:51:23.38	18.48	0.81	-45.4	-60.2	3.6	1.51e+00	0	29	104	0	60	41569
2026-01-27 02:51:25.40	18.23	0.90	-45.2	-59.9	3.6	1.51e+00	0	29	104	0	60	39996
2026-01-27 02:51:27.41	17.97	1.00	-44.8	-59.5	3.6	1.51e+00	0	29	104	0	60	38229
2026-01-27 02:51:29.43	17.72	1.09	-44.3	-59.0	3.6	1.51e+00	0	29	104	0	60	36191
2026-01-27 02:51:31.45	17.46	1.18	-44.3	-59.0	3.6	1.51e+00	0	29	104	0	60	36080
2026-01-27 02:51:33.47	17.20	1.28	-44.3	-59.0	3.6	1.51e+00	0	29	104	0	60	36249
2026-01-27 02:51:35.49	16.94	1.37	-44.3	-59.0	3.6	1.51e+00	0	29	104	0	60	36059
2026-01-27 02:51:37.51	16.67	1.46	-44.3	-59.0	3.6	1.51e+00	0	29	104	0	60	36003
2026-01-27 02:51:39.53	16.41	1.56	-44.3	-59.0	3.6	1.51e+00	0	29	104	0	60	36043
2026-01-27 02:51:41.55	16.14	1.65	-44.3	-59.0	3.6	1.51e+00	0	29	104	0	60	36003
2026-01-27 02:51:43.57	15.87	1.74	-44.2	-59.0	3.6	1.51e+00	0	29	104	0	60	35963
2026-01-27 02:51:45.59	15.59	1.84	-44.3	-59.0	3.6	1.51e+00	0	29	104	0	60	36139
2026-01-27 02:51:47.60	15.32	1.93	-44.3	-59.0	3.6	1.51e+00	0	29	104	0	60	36023
2026-01-27 02:51:49.62	15.04	2.02	-44.3	-59.0	3.6	1.51e+00	0	29	104	0	60	36114
2026-01-27 02:51:51.64	14.76	2.11	-44.2	-59.0	3.6	1.51e+00	0	29	104	0	60	36046
2026-01-27 02:51:53.66	14.48	2.21	-44.2	-58.9	3.6	1.51e+00	0	29	104	0	60	35926
2026-01-27 02:51:55.68	14.19	2.30	-44.2	-59.0	3.6	1.51e+00	0	29	104	0	60	35993
2026-01-27 02:51:57.70	13.91	2.39	-44.2	-58.9	3.6	1.51e+00	0	29	104	0	60	35907
2026-01-27 02:51:59.72	13.62	2.48	-44.2	-59.0	3.6	1.51e+00	0	29	104	0	60	36150
2026-01-27 02:52:01.74	13.33	2.58	-44.2	-59.0	3.6	1.51e+00	0	29	104	0	60	36022
2026-01-27 02:52:03.76	13.03	2.67	-44.2	-58.9	3.6	1.51e+00	0	29	104	0	60	35825
2026-01-27 02:52:05.77	12.74	2.76	-44.2	-59.0	3.6	1.51e+00	0	29	104	0	60	36050
2026-01-27 02:52:07.80	12.44	2.85	-44.2	-58.9	3.6	1.51e+00	0	29	104	0	60	35788
2026-01-27 02:52:09.81	12.14	2.94	-44.2	-59.0	3.6	1.51e+00	0	29	104	0	60	36112
2026-01-27 02:52:11.83	11.83	3.03	-44.2	-58.9	3.6	1.51e+00	0	29	104	0	60	35879
2026-01-27 02:52:13.85	11.52	3.12	-44.4	-59.1	3.6	1.51e+00	0	29	104	0	60	36530
2026-01-27 02:52:15.87	11.21	3.21	-44.5	-59.2	3.6	1.51e+00	0	29	104	0	60	37062
2026-01-27 02:52:17.89	10.90	3.30	-44.4	-59.1	3.6	1.51e+00	0	29	104	0	60	36514
2026-01-27 02:52:19.91	10.59	3.39	-44.5	-59.3	3.6	1.51e+00	0	29	104	0	60	37221
2026-01-27 02:52:21.93	10.27	3.48	-44.4	-59.2	3.6	1.51e+00	0	29	104	0	60	37037
2026-01-27 02:52:23.95	9.95	3.57	-44.6	-59.3	3.6	1.51e+00	0	29	104	0	60	37551
2026-01-27 02:52:25.97	9.63	3.66	-44.6	-59.3	3.6	1.51e+00	0	29	104	0	60	37284
2026-01-27 02:52:27.99	9.31	3.75	-44.7	-59.4	3.6	1.51e+00	0	29	104	0	60	37713
2026-01-27 02:52:30.01	8.98	3.84	-44.6	-59.3	3.6	1.51e+00	0	29	104	0	60	37527
2026-01-27 02:52:32.02	8.65	3.93	-44.7	-59.4	3.6	1.51e+00	0	29	104	0	60	37987
2026-01-27 02:52:34.04	8.32	4.02	-44.7	-59.4	3.6	1.51e+00	0	29	104	0	60	37989
2026-01-27 02:52:36.06	7.98	4.10	-44.7	-59.4	3.6	1.51e+00	0	29	104	0	60	37989
2026-01-27 02:52:38.08	7.65	4.19	-44.7	-59.4	3.6	1.51e+00	0	29	104	0	60	38029
2026-01-27 02:52:40.10	7.31	4.28	-44.7	-59.5	3.5	1.51e+00	0	29	104	0	60	38255
2026-01-27 02:52:42.12	6.96	4.36	-44.7	-59.4	3.6	1.51e+00	0	29	104	0	60	37942
2026-01-27 02:52:44.14	6.62	4.45	-44.8	-59.5	3.6	1.51e+00	0	29	104	0	60	38404
2026-01-27 02:52:46.16	6.27	4.54	-44.8	-59.5	3.6	1.51e+00	0	29	104	0	60	38186
2026-01-27 02:52:48.18	5.92	4.62	-44.7	-59.5	3.6	1.51e+00	0	29	104	0	60	38378
2026-01-27 02:52:50.20	5.57	4.71	-44.8	-59.5	3.6	1.51e+00	0	29	104	0	60	38254
2026-01-27 02:52:52.22	5.21	4.79	-44.8	-59.5	3.6	1.51e+00	0	29	104	0	60	38491
2026-01-27 02:52:54.24	4.85	4.87	-44.7	-59.5	3.6	1.51e+00	0	29	104	0	60	38197
2026-01-27 02:52:56.26	4.49	4.96	-44.8	-59.5	3.6	1.51e+00	0	29	104	0	60	38496
2026-01-27 02:52:58.28	4.12	5.04	-44.8	-59.5	3.6	1.51e+00	0	29	104	0	60	38125
2026-01-27 02:53:00.30	3.76	5.12	-44.9	-59.6	3.6	1.51e+00	0	29	104	0	60	38840
2026-01-27 02:53:02.31	3.39	5.20	-44.8	-59.5	3.6	1.51e+00	0	29	104	0	60	38330
2026-01-27 02:53:04.33	3.02	5.28	-44.9	-59.6	3.6	1.51e+00	0	29	104	0	60	38609
2026-01-27 02:53:06.35	2.64	5.36	-44.9	-59.5	3.6	1.51e+00	0	29	104	0	60	38414
2026-01-27 02:53:08.37	2.27	5.44	-44.8	-59.6	3.6	1.51e+00	0	29	104	0	60	38645
2026-01-27 02:53:10.39	1.89	5.52	-44.9	-59.6	3.6	1.51e+00	0	29	104	0	60	38813
2026-01-27 02:53:12.41	1.50	5.60	-44.6	-59.6	3.6	1.51e+00	0	29	104	0	60	38932
2026-01-27 02:53:14.43	1.12	5.68	-44.9	-59.6	3.6	1.51e+00	0	29	104	0	60	38904
2026-01-27 02:53:16.45	0.73	5.75	-44.9	-59.6	3.6	1.51e+00	0	29	104	0	60	38757
2026-01-27 02:53:18.47	0.34	5.83	-44.9	-59.6	3.5	1.51e+00	0	29	104	0	60	38679
2026-01-27 02:53:20.49	359.94	5.91	-44.9	-59.6	3.6	1.51e+00	0	29	104	0	60	38777
2026-01-27 02:53:22.51	359.55	5.98	-44.9	-59.6	3.6	1.51e+00	0	29	104	0	60	38859
2026-01-27 02:53:24.53	359.15	6.05	-44.9	-59.6	3.5	1.51e+00	0	29	104	0	60	38696
2026-01-27 02:53:26.56	358.75	6.13	-44.9	-59.7	3.6	1.51e+00	0	29	104	0	60	39003
2026-01-27 02:53:28.58	358.34	6.20	-44.9	-59.6	3.6	1.51e+00	0	29	104	0	60	38908
2026-01-27 02:53:30.60	357.94	6.27	-44.9	-59.7	3.6	1.51e+00	0	29	104	0	60	39230
2026-01-27 02:53:32.62	357.53	6.34	-45.0	-59.7	3.6	1.51e+00	0	29	104	0	60	39075
2026-01-27 02:53:34.64	357.11	6.41	-44.9	-59.6	3.6	1.51e+00	0	29	104	0	60	38815
2026-01-27 02:53:36.66	356.70	6.48	-44.9	-59.6	3.6	1.51e+00	0	29	104	0	60	38625
2026-01-27 02:53:38.68	356.28	6.55	-44.9	-59.6	3.6	1.51e+00	0	29	104	0	60	38769
2026-01-27 02:53:40.70	355.86	6.61	-44.9	-59.6	3.6	1.51e+00	0	29	104	0	60	38749
2026-01-27 02:53:42.72	355.44	6.68	-44.9	-59.7	3.6	1.51e+00	0	29	104	0	60	38974
2026-01-27 02:53:44.74	355.02	6.75	-44.9	-59.7	3.6	1.51e+00	0	29	104	0	60	39094
2026-01-27 02:53:46.76	354.59	6.81	-44.8	-59.6	3.6	1.51e+00	0	29	104	0	60	38772
2026-01-27 02:53:48.78	354.16	6.87	-45.0	-59.7	3.6	1.51e+00	0	29	104	0	60	39055
2026-01-27 02:53:50.80	353.73	6.93	-45.1	-59.8	3.6	1.51e+00	0	29	104	0	60	39644
2026-01-27 02:53:52.81	353.30	6.99	-45.0	-59.7	3.6	1.51e+00	0	29	104	0	60	39248
2026-01-27 02:53:54.83	352.86	7.05	-45.0	-59.8	3.6	1.51e+00	0	29	104	0	60	39453
2026-01-27 02:53:56.85	352.43	7.11	-45.1	-59.8	3.6	1.51e+00	0	29	104	0	60	39550
2026-01-27 02:53:58.87	351.98	7.17	-45.1	-59.8	3.6	1.51e+00	0	29	104	0	60	39515
2026-01-27 02:54:00.86	351.55	7.23	-45.1	-59.8	3.6	1.51e+00	0	29	104	0	60	39414
2026-01-27 02:54:02.88	351.10	7.28	-45.0	-59.8	3.6	1.51e+00	0	29	104	0	60	39753
2026-01-27 02:54:04.90	350.66	7.33	-45.0	-59.8	3.6	1.51e+00	0	29	104	0	60	39539
2026-01-27 02:54:06.91	350.21	7.39	-45.1	-59.8	3.6	1.51e+00	0	29	104	0	60	39790
2026-01-27 02:54:08.93	349.76	7.44	-45.0	-59.8	3.6	1.51e+00	0	29	104	0	60	39563
2026-01-27 02:54:10.95	349.31	7.49	-45.0	-59.8	3.6	1.51e+00	0	29	104	0	60	39657
2026-01-27 02:54:12.97	348.85	7.54	-45.1	-59.8	3.6	1.51e+00	0	29	104	0	60	39619
2026-01-27 02:54:14.99	348.39	7.58	-45.1	-59.8	3.6	1.51e+00	0	29	104	0	60	39744
2026-01-27 02:54:17.01	347.93	7.63	-45.1	-59.7	3.6	1.51e+00	0	29	104	0	60	39404
2026-01-27 02:54:19.03	347.47	7.68	-45.1	-59.8	3.6	1.51e+00	0	29	104	0	60	39687
2026-01-27 02:54:21.05	347.01	7.72	-45.1	-59.8	3.6	1.51e+00	0	29	104	0	60	39524
2026-01-27 02:54:23.07	346.55	7.76	-45.1	-59.8	3.6	1.51e+00	0	29	104	0	60	39748
2026-01-27 02:54:25.09	346.08	7.80	-45.2	-59.9	3.6	1.51e+00	0	29	104	0	60	40270
2026-01-27 02:54:27.11	345.61	7.84	-45.1	-59.8	3.6	1.51e+00	0	29	104	0	60	39764
2026-01-27 02:54:29.12	345.14	7.88	-45.1	-59.8	3.6	1.51e+00	0	29	104	0	60	39537
2026-01-27 02:54:31.14	344.67	7.92	-45.1	-59.8	3.6	1.51e+00	0	29	104	0	60	39786
2026-01-27 02:54:33.16	344.20	7.95	-45.0	-59.8	3.6	1.51e+00	0	29	104	0	60	39480
2026-01-27 02:54:35.18	343.73	7.98	-45.0	-59.8	3.6	1.51e+00	0	29	104	0	60	39612
2026-01-27 02:54:37.20	343.25	8.02	-45.1	-59.8	3.6	1.51e+00	0	29	104	0	60	39448
2026-01-27 02:54:39.23	342.77	8.05	-44.9	-59.8	3.6	1.51e+00	0	29	104	0	60	39633
2026-01-27 02:54:41.24	342.30	8.08	-45.0	-59.8	3.6	1.51e+00	0	29	104	0	60	39410
2026-01-27 02:54:43.27	341.81	8.10	-44.8	-59.8	3.6	1.51e+00	0	29	104	0	60	39702
2026-01-27 02:54:45.29	341.33	8.13	-45.1	-59.8	3.6	1.51e+00	0	29	104	0	60	39529
2026-01-27 02:54:47.30	340.86	8.15	-45.1	-59.8	3.6	1.51e+00	0	29	104	0	60	39632
2026-01-27 02:54:49.32	340.37	8.18	-45.1	-59.7	3.6	1.51e+00	0	29	104	0	60	39403
2026-01-27 02:54:51.35	339.89	8.20	-45.1	-59.8	3.6	1.51e+00	0	29	104	0	60	39587
2026-01-27 02:54:53.37	339.40	8.22	-45.1	-59.7	3.6	1.51e+00	0	29	104	0	60	39305
2026-01-27 02:54:55.39	338.92	8.23	-45.1	-59.8	3.6	1.51e+00	0	29	104	0	60	39641
2026-01-27 02:54:57.41	338.43	8.25	-45.0	-59.8	3.6	1.51e+00	0	29	104	0	60	39667
2026-01-27 02:54:59.43	337.95	8.27	-45.1	-59.8	3.6	1.51e+00	0	29	104	0	60	39757
2026-01-27 02:55:01.44	337.46	8.28	-45.1	-59.8	3.6	1.51e+00	0	29	104	0	60	39543
2026-01-27 02:55:03.46	336.97	8.29	-45.1	-59.8	3.6	1.51e+00	0	29	104	0	60	39781
2026-01-27 02:55:05.49	336.48	8.30	-45.0	-59.8	3.6	1.51e+00	0	29	104	0	60	39509
2026-01-27 02:55:07.50	336.00	8.31	-45.1	-59.8	3.6	1.51e+00	0	29	104	0	60	39756
2026-01-27 02:55:09.52	335.51	8.31	-45.1	-59.8	3.6	1.51e+00	0	29	104	0	60	39837
2026-01-27 02:55:11.54	335.02	8.32	-45.1	-59.8	3.6	1.51e+00	0	29	104	0	60	39800
2026-01-27 02:55:13.56	334.53	8.32	-45.1	-59.8	3.6	1.51e+00	0	29	104	0	60	39800
2026-01-27 02:55:15.58	334.04	8.32	-45.1	-59.9	3.6	1.51e+00	0	29	104	0	60	39892
2026-01-27 02:55:17.60	333.55	8.32	-45.1	-59.8	3.6	1.51e+00	0	30	104	0	60	39473
2026-01-27 02:55:19.62	333.06	8.32	-45.1	-59.9	3.6	1.51e+00	0	29	104	0	60	40084
2026-01-27 02:55:21.63	332.57	8.32	-45.1	-59.9	3.6	1.51e+00	0	29	104	0	60	39901
2026-01-27 02:55:23.65	332.08	8.31	-45.2	-59.9	3.6	1.51e+00	0	30	104	0	60	39958
2026-01-27 02:55:25.68	331.59	8.31	-45.1	-59.9	3.6	1.51e+00	0	29	104	0	60	39877
2026-01-27 02:55:27.69	331.10	8.30	-45.0	-59.9	3.6	1.51e+00	0	30	104	0	60	40016
2026-01-27 02:55:29.72	330.61	8.29	-45.1	-59.8	3.6	1.51e+00	0	30	104	0	60	39773
2026-01-27 02:55:31.73	330.13	8.28	-45.0	-59.8	3.6	1.51e+00	0	29	104	0	60	39853
2026-01-27 02:55:33.75	329.64	8.26	-45.0	-59.8	3.6	1.51e+00	0	30	104	0	60	39844
2026-01-27 02:55:35.77	329.15	8.25	-45.2	-59.9	3.6	1.51e+00	0	29	104	0	60	40109
2026-01-27 02:55:37.79	328.67	8.23	-44.9	-59.9	3.6	1.51e+00	0	30	104	0	60	39897
2026-01-27 02:55:39.81	328.18	8.22	-45.2	-59.9	3.6	1.51e+00	0	30	104	0	60	39957
2026-01-27 02:55:41.83	327.70	8.20	-45.2	-59.9	3.6	1.51e+00	0	30	104	0	60	40026
2026-01-27 02:55:43.85	327.21	8.17	-45.1	-59.9	3.6	1.51e+00	0	30	104	0	60	40012
2026-01-27 02:55:45.87	326.73	8.15	-45.1	-59.9	3.6	1.51e+00	0	30	104	0	60	39933
2026-01-27 02:55:47.89	326.25	8.13	-45.1	-59.9	3.6	1.51e+00	0	30	104	0	60	39974
2026-01-27 02:55:49.91	325.76	8.10	-45.1	-59.8	3.6	1.51e+00	0	29	104	0	60	39804
2026-01-27 02:55:51.93	325.28	8.07	-45.2	-59.9	3.6	1.51e+00	0	29	104	0	60	39960
2026-01-27 02:55:53.95	324.81	8.04	-45.1	-59.8	3.5	1.51e+00	0	30	104	0	60	39733
2026-01-27 02:55:55.97	324.33	8.01	-45.2	-59.9	3.6	1.51e+00	0	30	104	0	60	40006
2026-01-27 02:55:57.98	323.85	7.98	-45.1	-59.9	3.6	1.51e+00	0	29	104	0	60	39929
2026-01-27 02:56:00.00	323.38	7.95	-45.2	-59.9	3.6	1.51e+00	0	30	104	0	60	40162
2026-01-27 02:56:02.02	322.90	7.91	-45.1	-59.8	3.6	1.51e+00	0	29	104	0	60	39610
2026-01-27 02:56:04.04	322.43	7.88	-45.2	-59.9	3.6	1.51e+00	0	29	104	0	60	40132
2026-01-27 02:56:06.06	321.96	7.84	-45.1	-59.8	3.6	1.51e+00	0	29	104	0	60	39803
2026-01-27 02:56:08.08	321.49	7.80	-45.1	-59.9	3.6	1.51e+00	0	30	104	0	60	39994
2026-01-27 02:56:10.11	321.02	7.76	-45.2	-59.9	3.6	1.51e+00	0	30	104	0	60	39942
2026-01-27 02:56:12.12	320.56	7.72	-45.2	-59.9	3.6	1.51e+00	0	29	104	0	60	40024
2026-01-27 02:56:14.15	320.09	7.67	-45.1	-59.9	3.6	1.51e+00	0	30	104	0	60	39886
2026-01-27 02:56:16.17	319.63	7.63	-45.1	-59.9	3.6	1.51e+00	0	29	104	0	60	40130
2026-01-27 02:56:18.19	319.17	7.58	-45.0	-59.9	3.6	1.51e+00	0	29	104	0	60	39896
2026-01-27 02:56:20.21	318.71	7.53	-45.0	-59.9	3.5	1.51e+00	0	29	104	0	60	39950
2026-01-27 02:56:22.23	318.25	7.48	-45.0	-59.8	3.6	1.51e+00	0	30	104	0	60	39765
2026-01-27 02:56:24.25	317.79	7.43	-45.1	-59.9	3.6	1.51e+00	0	30	104	0	60	39991
2026-01-27 02:56:26.27	317.34	7.38	-45.1	-59.8	3.6	1.51e+00	0	30	104	0	60	39735
2026-01-27 02:56:28.29	316.89	7.33	-45.1	-59.8	3.6	1.51e+00	0	30	104	0	60	39701
2026-01-27 02:56:30.31	316.44	7.27	-45.0	-59.8	3.6	1.51e+00	0	30	104	0	60	39664
2026-01-27 02:56:32.33	315.99	7.22	-44.9	-59.8	3.6	1.51e+00	0	30	104	0	60	39686
2026-01-27 02:56:34.35	315.55	7.16	-44.8	-59.7	3.6	1.51e+00	0	30	104	0	60	39269
2026-01-27 02:56:36.37	315.11	7.10	-44.8	-59.8	3.6	1.51e+00	0	30	104	0	60	39628
2026-01-27 02:56:38.39	314.66	7.05	-44.8	-59.8	3.6	1.51e+00	0	30	104	0	60	39503
2026-01-27 02:56:40.41	314.23	6.99	-45.0	-59.8	3.6	1.51e+00	0	30	104	0	60	39472
2026-01-27 02:56:42.43	313.79	6.92	-45.0	-59.8	3.6	1.51e+00	0	30	104	0	60	39590
2026-01-27 02:56:44.44	313.36	6.86	-45.0	-59.8	3.6	1.51e+00	0	30	104	0	60	39548
2026-01-27 02:56:46.46	312.93	6.80	-44.9	-59.8	3.6	1.51e+00	0	30	104	0	60	39462
2026-01-27 02:56:48.48	312.50	6.73	-45.0	-59.7	3.6	1.51e+00	0	30	104	0	60	39232
2026-01-27 02:56:50.51	312.07	6.67	-45.0	-59.7	3.6	1.51e+00	0	30	104	0	60	39315
2026-01-27 02:56:52.53	311.65	6.60	-45.0	-59.7	3.6	1.51e+00	0	30	104	0	60	39173
2026-01-27 02:56:54.55	311.22	6.54	-44.9	-59.7	3.6	1.51e+00	0	29	104	0	60	39092
2026-01-27 02:56:56.57	310.80	6.47	-44.8	-59.7	3.6	1.51e+00	0	29	104	0	60	38988
2026-01-27 02:56:58.59	310.39	6.40	-44.9	-59.7	3.6	1.51e+00	0	30	104	0	60	39161
2026-01-27 02:57:00.61	309.97	6.33	-44.9	-59.7	3.6	1.51e+00	0	30	104	0	60	39026
2026-01-27 02:57:02.63	309.56	6.26	-44.8	-59.7	3.6	1.51e+00	0	30	104	0	60	38960
2026-01-27 02:57:04.65	309.15	6.18	-44.7	-59.6	3.6	1.51e+00	0	30	104	0	60	38669
2026-01-27 02:57:06.67	308.75	6.11	-44.7	-59.6	3.6	1.51e+00	0	30	104	0	60	38859
2026-01-27 02:57:08.69	308.34	6.04	-44.5	-59.6	3.6	1.51e+00	0	30	104	0	60	38822
2026-01-27 02:57:10.71	307.94	5.96	-44.6	-59.6	3.6	1.51e+00	0	30	104	0	60	38855
2026-01-27 02:57:12.73	307.54	5.89	-44.5	-59.6	3.6	1.51e+00	0	29	104	0	60	38702
2026-01-27 02:57:14.75	307.15	5.81	-44.6	-59.6	3.6	1.51e+00	0	30	104	0	60	38761
2026-01-27 02:57:16.76	306.75	5.74	-44.6	-59.5	3.6	1.51e+00	0	30	104	0	60	38507
2026-01-27 02:57:18.78	306.36	5.66	-44.7	-59.5	3.6	1.51e+00	0	30	104	0	60	38494
2026-01-27 02:57:20.80	305.98	5.58	-44.5	-59.5	3.6	1.51e+00	0	30	104	0	60	38167
2026-01-27 02:57:22.82	305.59	5.50	-44.6	-59.5	3.6	1.51e+00	0	30	104	0	60	38393
2026-01-27 02:57:24.84	305.21	5.42	-44.5	-59.5	3.6	1.51e+00	0	30	104	0	60	38124
2026-01-27 02:57:26.86	304.83	5.34	-44.5	-59.5	3.6	1.51e+00	0	30	104	0	60	38382
2026-01-27 02:57:28.88	304.45	5.26	-44.5	-59.4	3.6	1.51e+00	0	30	104	0	60	37948
2026-01-27 02:57:30.90	304.07	5.18	-44.5	-59.5	3.6	1.51e+00	0	30	104	0	60	38298
2026-01-27 02:57:32.92	303.70	5.10	-44.6	-59.3	3.6	1.51e+00	0	30	104	0	60	37592
2026-01-27 02:57:34.94	303.33	5.02	-44.7	-59.5	3.6	1.51e+00	0	30	104	0	60	38122
2026-01-27 02:57:36.96	302.97	4.93	-44.5	-59.4	3.6	1.51e+00	0	30	104	0	60	37712
2026-01-27 02:57:38.98	302.60	4.85	-44.5	-59.4	3.6	1.51e+00	0	30	104	0	60	37874
2026-01-27 02:57:41.00	302.24	4.76	-44.5	-59.3	3.6	1.51e+00	0	30	104	0	60	37374
2026-01-27 02:57:43.02	301.88	4.68	-44.6	-59.4	3.5	1.51e+00	0	30	104	0	60	37856
2026-01-27 02:57:45.04	301.52	4.59	-44.5	-59.3	3.6	1.51e+00	0	30	104	0	60	37231
2026-01-27 02:57:47.06	301.17	4.51	-44.7	-59.4	3.6	1.51e+00	0	30	104	0	60	37754
2026-01-27 02:57:49.08	300.82	4.42	-44.4	-59.2	3.6	1.51e+00	0	30	104	0	60	36874
2026-01-27 02:57:51.10	300.47	4.34	-44.6	-59.3	3.6	1.51e+00	0	30	104	0	60	37475
2026-01-27 02:57:53.12	300.13	4.25	-44.4	-59.1	3.6	1.51e+00	0	30	104	0	60	36717
2026-01-27 02:57:55.14	299.78	4.16	-44.5	-59.3	3.6	1.51e+00	0	30	104	0	60	37293
2026-01-27 02:57:57.15	299.44	4.07	-44.4	-59.1	3.6	1.51e+00	0	30	104	0	60	36679
2026-01-27 02:57:59.17	299.11	3.99	-44.5	-59.2	3.6	1.51e+00	0	30	104	0	60	37111
2026-01-27 02:58:01.19	298.77	3.90	-44.4	-59.0	3.6	1.51e+00	0	30	104	0	60	36319
2026-01-27 02:58:03.21	298.44	3.81	-44.5	-59.2	3.6	1.51e+00	0	30	104	0	60	36938
2026-01-27 02:58:05.23	298.11	3.72	-44.3	-59.0	3.6	1.51e+00	0	30	104	0	60	36160
2026-01-27 02:58:07.24	297.78	3.63	-44.5	-59.2	3.6	1.51e+00	0	30	104	0	60	36984
2026-01-27 02:58:09.27	297.46	3.54	-44.3	-59.0	3.6	1.51e+00	0	30	104	0	60	36062
2026-01-27 02:58:11.29	297.14	3.45	-44.5	-59.1	3.6	1.51e+00	0	30	104	0	60	36722
2026-01-27 02:58:13.31	296.82	3.36	-44.2	-58.9	3.6	1.51e+00	0	30	104	0	60	35751
2026-01-27 02:58:15.32	296.50	3.27	-44.4	-59.1	3.6	1.51e+00	0	30	104	0	60	36633
2026-01-27 02:58:17.35	296.18	3.18	-44.2	-58.9	3.6	1.51e+00	0	30	104	0	60	35604
2026-01-27 02:58:19.36	295.87	3.09	-44.4	-59.1	3.6	1.51e+00	0	30	104	0	60	36393
2026-01-27 02:58:21.38	295.57	3.00	-44.1	-58.8	3.6	1.51e+00	0	30	104	0	60	35279
2026-01-27 02:58:23.41	295.26	2.90	-45.2	-59.9	3.6	1.51e+00	0	30	104	0	60	40079
2026-01-27 02:58:25.42	294.95	2.81	-45.6	-60.2	3.6	1.51e+00	0	30	104	0	60	41526
2026-01-27 02:58:27.44	294.65	2.72	-45.7	-60.4	3.6	1.51e+00	0	30	104	0	60	42270
2026-01-27 02:58:29.46	294.35	2.63	-45.8	-60.4	3.6	1.51e+00	0	30	104	0	60	42700
2026-01-27 02:58:31.48	294.06	2.53	-45.8	-60.5	3.6	1.51e+00	0	30	104	0	60	43001
2026-01-27 02:58:33.50	293.76	2.44	-45.8	-60.6	3.6	1.51e+00	0	30	104	0	60	43249
2026-01-27 02:58:35.52	293.47	2.35	-45.8	-60.6	3.6	1.51e+00	0	29	104	0	60	43478
2026-01-27 02:58:37.54	293.18	2.26	-45.6	-60.5	3.6	1.51e+00	0	30	104	0	60	43191
2026-01-27 02:58:39.56	292.89	2.16	-45.8	-60.5	3.6	1.51e+00	0	30	104	0	60	42780
2026-01-27 02:58:41.58	292.61	2.07	-45.6	-60.4	3.6	1.51e+00	0	30	104	0	60	42607
2026-01-27 02:58:43.60	292.32	1.98	-45.7	-60.4	3.6	1.51e+00	0	30	104	0	60	42458
2026-01-27 02:58:45.63	292.04	1.88	-45.4	-60.3	3.6	1.51e+00	0	30	104	0	60	42094
2026-01-27 02:58:47.65	291.76	1.79	-45.6	-60.3	3.6	1.51e+00	0	30	104	0	60	42136
2026-01-27 02:58:49.67	291.49	1.70	-45.6	-60.4	3.6	1.51e+00	0	30	104	0	60	42238
2026-01-27 02:58:51.68	291.22	1.60	-45.7	-60.3	3.6	1.51e+00	0	30	104	0	60	42176
2026-01-27 02:58:53.71	290.94	1.51	-45.6	-60.4	3.6	1.51e+00	0	30	104	0	60	42243
2026-01-27 02:58:55.73	290.67	1.41	-45.6	-60.3	3.6	1.51e+00	0	30	104	0	60	42136
2026-01-27 02:58:57.75	290.41	1.32	-45.6	-60.3	3.6	1.51e+00	0	30	104	0	60	41984
2026-01-27 02:58:59.77	290.14	1.23	-45.6	-60.3	3.6	1.51e+00	0	30	104	0	60	42098
2026-01-27 02:59:01.79	289.88	1.13	-45.6	-60.4	3.5	1.51e+00	0	30	104	0	60	42283
2026-01-27 02:59:03.81	289.62	1.04	-45.6	-60.3	3.6	1.51e+00	0	30	104	0	60	42072
2026-01-27 02:59:05.83	289.36	0.94	-45.7	-60.4	3.6	1.51e+00	0	30	104	0	60	42253
2026-01-27 02:59:07.85	289.11	0.85	-45.7	-60.4	3.6	1.51e+00	0	30	104	0	60	42439
2026-01-27 02:59:09.87	288.85	0.75	-45.7	-60.4	3.6	1.51e+00	0	30	104	0	60	42227
2026-01-27 02:59:11.89	288.60	0.66	-45.7	-60.4	3.6	1.51e+00	0	30	104	0	60	42614
2026-01-27 02:59:13.91	288.35	0.57	-45.8	-60.5	3.6	1.51e+00	0	30	104	0	60	42963
2026-01-27 02:59:15.93	288.10	0.47	-45.7	-60.4	3.6	1.51e+00	0	30	104	0	60	42240
2026-01-27 02:59:17.94	287.86	0.38	-45.8	-60.5	3.6	1.51e+00	0	30	104	0	60	43159
2026-01-27 02:59:19.97	287.61	0.28	-45.8	-60.5	3.6	1.51e+00	0	30	104	0	60	42764
2026-01-27 02:59:21.98	287.37	0.19	-45.7	-60.4	3.6	1.51e+00	0	30	104	0	60	42358
2026-01-27 02:59:24.01	287.13	0.09	-45.8	-60.4	3.6	1.51e+00	0	30	104	0	60	42609
2026-01-27 02:59:26.02	286.90	0.00	-45.8	-60.4	3.6	1.51e+00	0	30	104	0	60	42501

#Closed at: 2026-01-27 02:59:27
#Recorded file [0 MB]: D:/lorett/data/35029_260127_145109.dat