passes_logs/2026/01/27/R4.6S_Anadyr/R4.6S_Anadyr__20260127_181402_AQUA_rec.log

#Pass ID: 20260127_181402_AQUA
#Satellite: AQUA
#Configuration: AQUA
#almurnet v.1.7.20251203
#Start time: 2026-01-27 18:14:03

#Version: 2.2.20231116
#Station: R4.6S_Anadyr
#Location: 177.4865 lon 64.73178 lat
#TLE: 1 27424U 02022A   26026.85810808  .00001813  00000+0  37258-3 0  9999
#TLE: 2 27424  98.4101 353.4861 0001866  64.3332 317.5249 14.61864179262622

#Time	Az	El	Level	Level2	SNR	BER	BlckErr	Temp	State	Recorded	gain1	gain2
2026-01-27 18:14:03.91	23.74	0.07	-48.6	-63.6	3.5	1.51e+00	0	31	0	0	60	54822
2026-01-27 18:14:06.93	23.58	0.24	-49.0	-66.8	3.5	3.02e+01	0	32	104	0	60	84653
2026-01-27 18:14:09.96	23.42	0.42	-49.0	-66.9	3.5	3.02e+01	0	32	104	0	60	85081
2026-01-27 18:14:13.00	23.26	0.59	-49.1	-66.9	3.5	3.02e+01	0	32	104	0	60	84860
2026-01-27 18:14:16.03	23.09	0.77	-49.0	-66.8	3.5	3.02e+01	0	32	104	0	60	84063
2026-01-27 18:14:19.06	22.93	0.95	-48.8	-66.7	3.5	3.02e+01	0	32	104	0	60	83320
2026-01-27 18:14:22.08	22.76	1.13	-48.4	-66.4	3.5	3.02e+01	0	32	104	0	60	80676
2026-01-27 18:14:25.11	22.59	1.31	-48.2	-66.1	3.5	3.02e+01	0	32	104	0	60	77333
2026-01-27 18:14:28.14	22.41	1.49	-47.5	-65.5	3.5	3.02e+01	0	32	104	0	60	72188
2026-01-27 18:14:31.17	22.24	1.67	-47.5	-65.4	3.5	3.02e+01	0	32	104	0	60	71801
2026-01-27 18:14:34.20	22.06	1.85	-47.5	-65.4	3.5	3.02e+01	0	32	104	0	60	71842
2026-01-27 18:14:37.23	21.88	2.03	-47.5	-65.4	3.5	3.02e+01	0	32	104	0	60	71897
2026-01-27 18:14:40.26	21.69	2.22	-47.5	-65.5	3.5	3.02e+01	0	32	104	0	60	72213
2026-01-27 18:14:43.29	21.51	2.41	-47.5	-65.3	3.5	3.02e+01	0	32	104	0	60	70989
2026-01-27 18:14:46.32	21.32	2.59	-47.5	-65.4	3.5	3.02e+01	0	32	104	0	60	71509
2026-01-27 18:14:49.35	21.12	2.78	-47.4	-65.4	3.5	3.02e+01	0	32	104	0	60	71552
2026-01-27 18:14:52.39	20.93	2.97	-47.4	-65.0	3.5	3.02e+01	0	32	104	0	60	68721
2026-01-27 18:14:55.41	20.73	3.16	-47.4	-65.1	3.5	3.02e+01	0	32	104	0	60	69410
2026-01-27 18:14:58.44	20.53	3.35	-45.9	-59.8	3.5	3.02e+01	0	32	104	0	60	37594
2026-01-27 18:15:01.47	20.33	3.54	-42.3	-53.5	3.5	3.02e+01	0	32	104	0	60	18190
2026-01-27 18:15:04.50	20.12	3.74	-39.3	-49.8	3.5	3.02e+01	0	32	104	0	52	18957
2026-01-27 18:15:07.53	19.91	3.93	-40.3	-51.1	3.5	3.02e+01	0	32	104	0	56	17369
2026-01-27 18:15:10.56	19.69	4.13	-37.9	-48.4	3.5	3.02e+01	0	32	104	0	50	17986
2026-01-27 18:15:13.58	19.48	4.32	-46.2	-60.1	3.5	3.02e+01	0	32	104	0	60	38900
2026-01-27 18:15:16.61	19.26	4.52	-38.7	-49.1	3.5	3.02e+01	0	32	104	0	52	17483
2026-01-27 18:15:19.64	19.03	4.72	-40.3	-51.1	3.5	3.02e+01	0	32	104	0	52	21888
2026-01-27 18:15:22.67	18.80	4.92	-45.0	-57.3	3.5	3.02e+01	0	33	104	0	56	35467
2026-01-27 18:15:25.70	18.57	5.13	-41.0	-51.9	3.5	3.02e+01	0	32	104	0	58	16899
2026-01-27 18:15:28.73	18.34	5.33	-40.8	-51.6	3.5	3.02e+01	0	32	104	0	56	18354
2026-01-27 18:15:31.76	18.10	5.54	-42.0	-53.0	3.5	3.02e+01	0	32	104	0	60	17194
2026-01-27 18:15:34.78	17.86	5.74	-43.5	-55.1	3.5	3.02e+01	0	32	104	0	58	24645
2026-01-27 18:15:37.81	17.61	5.95	-40.9	-51.8	3.5	3.02e+01	0	33	104	0	58	16782
2026-01-27 18:15:40.85	17.36	6.16	-37.9	-48.3	3.5	3.02e+01	0	32	104	0	50	17744
2026-01-27 18:15:43.87	17.10	6.37	-38.9	-49.4	3.5	3.02e+01	0	32	104	0	50	20191
2026-01-27 18:15:46.90	16.84	6.58	-40.3	-51.0	3.5	3.02e+01	0	32	104	0	52	21559
2026-01-27 18:15:49.93	16.58	6.79	-40.3	-50.9	3.5	3.02e+01	0	32	104	0	54	19013
2026-01-27 18:15:52.96	16.31	7.01	-47.8	-64.2	3.5	3.02e+01	0	32	104	0	60	62426
2026-01-27 18:15:55.99	16.04	7.22	-40.1	-50.7	3.5	3.02e+01	0	32	104	0	56	16590
2026-01-27 18:15:59.02	15.76	7.44	-47.5	-62.8	3.5	3.02e+01	0	32	104	0	60	53187
2026-01-27 18:16:02.05	15.48	7.66	-47.9	-64.7	3.5	3.02e+01	0	32	104	0	60	66079
2026-01-27 18:16:05.07	15.20	7.88	-36.1	-46.3	3.6	3.02e+01	0	32	104	0	48	15874
2026-01-27 18:16:08.10	14.90	8.10	-42.7	-53.9	3.5	3.02e+01	0	33	104	0	58	21304
2026-01-27 18:16:11.13	14.61	8.32	-48.0	-64.8	3.5	3.02e+01	0	33	104	0	60	66919
2026-01-27 18:16:14.15	14.31	8.55	-38.1	-48.5	3.6	3.02e+01	0	32	104	0	52	16201
2026-01-27 18:16:17.18	14.00	8.78	-48.0	-64.7	3.5	3.02e+01	0	32	104	0	60	66052
2026-01-27 18:16:20.21	13.69	9.00	-38.6	-49.0	3.5	3.02e+01	0	33	104	0	52	17156
2026-01-27 18:16:23.23	13.37	9.23	-36.3	-46.5	3.5	3.02e+01	0	32	104	0	46	18204
2026-01-27 18:16:26.26	13.05	9.46	-39.4	-49.9	3.5	3.02e+01	0	32	104	0	56	15188
2026-01-27 18:16:29.28	12.72	9.69	-36.1	-46.3	3.6	3.02e+01	0	32	104	0	48	15881
2026-01-27 18:16:32.31	12.38	9.93	-37.9	-48.3	3.5	3.02e+01	0	32	104	0	54	14130
2026-01-27 18:16:35.34	12.04	10.16	-37.6	-48.0	3.6	3.02e+01	0	32	104	0	48	19288
2026-01-27 18:16:38.36	11.69	10.40	-35.3	-45.5	3.6	3.02e+01	0	32	104	0	46	16163
2026-01-27 18:16:41.39	11.34	10.64	-47.6	-62.6	3.5	3.02e+01	0	32	104	0	60	51997
2026-01-27 18:16:44.41	10.98	10.88	-41.6	-52.4	3.5	3.02e+01	0	32	104	0	58	18068
2026-01-27 18:16:47.44	10.61	11.12	-43.9	-55.4	3.5	3.02e+01	0	33	104	0	60	22662
2026-01-27 18:16:50.47	10.24	11.36	-35.3	-45.5	3.5	3.02e+01	0	32	104	0	46	16189
2026-01-27 18:16:53.51	9.86	11.61	-35.3	-45.5	3.5	3.02e+01	0	32	104	0	46	16314
2026-01-27 18:16:56.53	9.47	11.85	-38.5	-48.8	3.5	3.02e+01	0	33	104	0	52	16777
2026-01-27 18:16:59.56	9.07	12.10	-47.1	-60.8	3.5	3.02e+01	0	33	104	0	60	42398
2026-01-27 18:17:02.59	8.67	12.35	-40.4	-51.0	3.6	3.02e+01	0	32	104	0	50	24220
2026-01-27 18:17:05.62	8.26	12.60	-48.3	-64.8	3.5	3.02e+01	0	33	104	0	60	66607
2026-01-27 18:17:08.64	7.84	12.85	-38.7	-49.2	3.5	3.02e+01	0	32	104	0	52	17564
2026-01-27 18:17:11.67	7.42	13.11	-37.6	-47.9	3.5	3.02e+01	0	32	104	0	46	21405
2026-01-27 18:17:14.70	6.98	13.36	-43.6	-54.8	3.5	3.02e+01	0	33	104	0	52	33354
2026-01-27 18:17:17.73	6.54	13.62	-36.4	-46.7	3.5	3.02e+01	0	32	104	0	48	16544
2026-01-27 18:17:20.75	6.09	13.88	-45.1	-57.1	3.4	3.02e+01	0	32	104	0	54	38899
2026-01-27 18:17:23.78	5.63	14.13	-35.4	-45.6	3.5	3.02e+01	0	33	104	0	46	16468
2026-01-27 18:17:26.81	5.16	14.40	-37.2	-47.5	3.6	3.02e+01	0	32	104	0	46	20347
2026-01-27 18:17:29.84	4.69	14.66	-47.0	-60.9	3.5	3.02e+01	0	32	104	0	60	42805
2026-01-27 18:17:32.87	4.20	14.92	-36.5	-46.8	3.5	3.02e+01	0	32	104	0	48	16783
2026-01-27 18:17:35.90	3.70	15.18	-39.7	-50.3	3.5	3.02e+01	0	33	104	0	50	22351
2026-01-27 18:17:38.93	3.20	15.45	-48.3	-64.6	3.5	3.02e+01	0	33	104	0	60	65703
2026-01-27 18:17:41.96	2.68	15.71	-38.7	-49.2	3.5	3.02e+01	0	32	104	0	52	17535
2026-01-27 18:17:44.98	2.16	15.98	-48.3	-64.2	3.5	3.02e+01	0	33	104	0	60	62135
2026-01-27 18:17:48.01	1.62	16.25	-35.2	-45.4	3.6	3.02e+01	0	32	104	0	46	16050
2026-01-27 18:17:51.04	1.07	16.52	-36.9	-47.2	3.5	3.02e+01	0	32	104	0	46	19728
2026-01-27 18:17:54.07	0.51	16.79	-47.2	-61.2	3.5	3.02e+01	0	33	104	0	60	44004
2026-01-27 18:17:57.09	359.95	17.06	-35.0	-45.2	3.5	3.02e+01	0	32	104	0	46	15589
2026-01-27 18:18:00.12	359.37	17.33	-38.4	-48.8	3.6	3.02e+01	0	32	104	0	50	18802
2026-01-27 18:18:03.15	358.78	17.60	-43.2	-54.4	3.5	3.02e+01	0	33	104	0	58	22632
2026-01-27 18:18:06.18	358.18	17.87	-36.0	-46.2	3.5	3.02e+01	0	32	104	0	48	15765
2026-01-27 18:18:09.20	357.56	18.14	-47.1	-61.1	3.6	3.02e+01	0	32	104	0	60	43448
2026-01-27 18:18:12.22	356.94	18.41	-37.3	-47.7	3.5	3.02e+01	0	32	104	0	50	16543
2026-01-27 18:18:15.25	356.30	18.68	-44.9	-56.9	3.6	3.02e+01	0	32	104	0	60	26844
2026-01-27 18:18:18.28	355.65	18.95	-43.1	-54.4	3.6	3.02e+01	0	32	104	0	60	20128
2026-01-27 18:18:21.31	354.99	19.22	-35.5	-45.6	3.5	3.02e+01	0	32	104	0	46	16457
2026-01-27 18:18:24.34	354.31	19.49	-41.9	-52.7	3.5	3.02e+01	0	32	104	0	60	16579
2026-01-27 18:18:27.36	353.63	19.75	-48.6	-65.8	3.5	3.02e+01	0	33	104	0	60	74852
2026-01-27 18:18:30.38	352.93	20.02	-38.5	-48.9	3.5	3.02e+01	0	32	104	0	52	17030
2026-01-27 18:18:33.42	352.21	20.29	-42.2	-53.2	3.5	3.02e+01	0	33	104	0	60	17521
2026-01-27 18:18:36.45	351.48	20.55	-36.3	-46.5	3.5	3.02e+01	0	32	104	0	48	16148
2026-01-27 18:18:39.47	350.75	20.81	-40.6	-51.2	3.6	3.02e+01	0	33	104	0	60	13971
2026-01-27 18:18:42.50	349.99	21.07	-37.3	-47.6	3.5	3.02e+01	0	32	104	0	48	18439
2026-01-27 18:18:45.52	349.23	21.33	-37.1	-47.4	3.5	3.02e+01	0	33	104	0	48	18072
2026-01-27 18:18:48.55	348.44	21.58	-36.1	-46.3	3.5	3.02e+01	0	32	104	0	46	17734
2026-01-27 18:18:51.58	347.65	21.84	-37.9	-48.2	3.6	3.02e+01	0	32	104	0	52	15731
2026-01-27 18:18:54.61	346.84	22.09	-36.6	-46.8	3.5	3.02e+01	0	32	104	0	46	18812
2026-01-27 18:18:57.64	346.02	22.33	-47.1	-60.7	3.5	3.02e+01	0	32	104	0	60	41804
2026-01-27 18:19:00.67	345.18	22.58	-39.6	-50.1	3.5	3.02e+01	0	32	104	0	54	17476
2026-01-27 18:19:03.70	344.33	22.81	-38.2	-48.5	3.5	3.02e+01	0	32	104	0	46	22814
2026-01-27 18:19:06.72	343.47	23.05	-45.0	-56.9	3.5	3.02e+01	0	32	104	0	54	38104
2026-01-27 18:19:09.74	342.59	23.28	-36.8	-47.0	3.5	3.02e+01	0	32	104	0	48	17185
2026-01-27 18:19:12.77	341.70	23.50	-45.0	-56.8	3.5	3.02e+01	0	32	104	0	52	42300
2026-01-27 18:19:15.80	340.80	23.72	-35.5	-45.7	3.5	3.02e+01	0	32	104	0	46	16646
2026-01-27 18:19:18.83	339.88	23.94	-43.0	-54.2	3.5	3.02e+01	0	32	104	0	56	24770
2026-01-27 18:19:21.86	338.95	24.15	-47.1	-60.9	3.5	3.02e+01	0	33	104	0	60	42590
2026-01-27 18:19:24.88	338.00	24.35	-38.3	-48.6	3.5	3.02e+01	0	32	104	0	52	16356
2026-01-27 18:19:27.91	337.05	24.54	-41.3	-52.0	3.5	3.02e+01	0	33	104	0	54	21708
2026-01-27 18:19:30.94	336.08	24.73	-48.2	-63.5	3.5	3.02e+01	0	32	104	0	60	57447
2026-01-27 18:19:33.97	335.09	24.91	-37.2	-47.6	3.5	3.02e+01	0	33	104	0	50	16356
2026-01-27 18:19:37.00	334.10	25.08	-48.3	-64.0	3.5	3.02e+01	0	32	104	0	60	61058
2026-01-27 18:19:40.03	333.10	25.25	-35.2	-45.4	3.5	3.02e+01	0	32	104	0	46	15964
2026-01-27 18:19:43.05	332.08	25.41	-44.4	-56.0	3.5	3.02e+01	0	32	104	0	60	24256
2026-01-27 18:19:46.08	331.06	25.55	-46.4	-59.4	3.5	3.02e+01	0	32	104	0	60	35826
2026-01-27 18:19:49.11	330.02	25.69	-36.6	-46.9	3.5	3.02e+01	0	33	104	0	48	16994
2026-01-27 18:19:52.14	328.98	25.82	-38.4	-48.8	3.5	3.02e+01	0	32	104	0	50	18841
2026-01-27 18:19:55.16	327.93	25.94	-44.2	-55.7	3.5	3.02e+01	0	32	104	0	60	23537
2026-01-27 18:19:58.19	326.86	26.06	-36.6	-46.8	3.5	3.02e+01	0	32	104	0	48	16833
2026-01-27 18:20:01.22	325.79	26.16	-46.9	-60.4	3.5	3.02e+01	0	33	104	0	60	40274
2026-01-27 18:20:04.24	324.72	26.25	-36.7	-46.9	3.6	3.02e+01	0	33	104	0	48	16940
2026-01-27 18:20:07.26	323.64	26.33	-47.8	-55.3	14.0	3.02e+01	54	32	0	0	60	22336
2026-01-27 18:20:10.29	322.55	26.39	-40.9	-42.6	21.2	3.02e+01	58	33	0	5767168	60	5198
2026-01-27 18:20:13.32	321.46	26.45	-34.8	-36.0	29.6	3.02e+01	57	33	0	11010048	44	6124
2026-01-27 18:20:16.35	320.37	26.50	-34.9	-36.1	29.5	3.02e+01	58	33	0	16777216	44	6141
2026-01-27 18:20:19.38	319.27	26.54	-35.0	-36.2	29.4	3.02e+01	62	33	0	22544384	44	6228
2026-01-27 18:20:22.41	318.16	26.56	-34.7	-35.9	29.7	3.02e+01	47	32	0	28311552	44	6031
2026-01-27 18:20:25.43	317.06	26.57	-34.8	-35.9	29.6	3.02e+01	44	32	0	34078720	44	6059
2026-01-27 18:20:28.46	315.96	26.58	-34.8	-36.0	29.5	3.02e+01	58	32	0	39845888	44	6077
2026-01-27 18:20:31.48	314.86	26.57	-34.9	-36.1	29.5	3.02e+01	60	33	0	45613056	44	6186
2026-01-27 18:20:34.51	313.76	26.55	-35.1	-36.4	29.3	3.02e+01	63	32	0	50855936	44	6352
2026-01-27 18:20:37.54	312.66	26.52	-35.1	-36.3	29.4	3.02e+01	59	32	0	56623104	44	6310
2026-01-27 18:20:40.57	311.56	26.47	-34.7	-35.8	29.8	3.02e+01	58	32	0	62390272	44	5989
2026-01-27 18:20:43.59	310.47	26.42	-35.1	-36.3	29.3	3.02e+01	47	32	0	68157440	44	6298
2026-01-27 18:20:46.62	309.38	26.35	-35.2	-36.5	29.3	3.02e+01	50	32	0	73924608	44	6427
2026-01-27 18:20:49.65	308.29	26.28	-34.9	-36.1	29.5	3.02e+01	55	32	0	79167488	44	6168
2026-01-27 18:20:52.68	307.21	26.19	-35.8	-37.1	28.7	3.02e+01	57	32	0	84934656	44	6931
2026-01-27 18:20:55.70	306.14	26.10	-34.9	-36.1	29.4	3.02e+01	59	32	0	90701824	44	6203
2026-01-27 18:20:58.73	305.08	25.99	-34.7	-35.9	29.2	3.02e+01	60	32	0	96468992	44	5997
2026-01-27 18:21:01.76	304.02	25.87	-36.5	-37.9	27.6	3.02e+01	59	32	0	102236160	46	6793
2026-01-27 18:21:04.78	302.97	25.75	-35.4	-36.6	29.0	3.02e+01	60	32	0	108003328	46	5841
2026-01-27 18:21:07.81	301.93	25.61	-36.1	-37.4	28.3	3.02e+01	51	32	0	113246208	46	6390
2026-01-27 18:21:10.83	300.90	25.47	-34.9	-36.1	29.2	3.02e+01	58	32	0	119013376	44	6147
2026-01-27 18:21:13.86	299.88	25.31	-35.9	-37.1	28.6	3.02e+01	61	33	0	124780544	46	6198
2026-01-27 18:21:16.89	298.87	25.15	-36.0	-37.3	28.5	3.02e+01	60	32	0	130547712	46	6328
2026-01-27 18:21:19.91	297.87	24.98	-34.8	-35.9	29.5	3.02e+01	59	32	0	136314880	44	6061
2026-01-27 18:21:22.94	296.88	24.80	-35.6	-36.8	28.9	3.02e+01	58	32	0	142082048	44	6681
2026-01-27 18:21:25.97	295.91	24.62	-35.3	-36.5	29.2	3.02e+01	57	32	0	147324928	46	5749
2026-01-27 18:21:29.00	294.94	24.42	-35.2	-36.4	29.1	3.02e+01	56	32	0	153092096	46	5715
2026-01-27 18:21:32.03	293.99	24.22	-35.7	-36.9	28.6	3.02e+01	52	32	0	158859264	46	6044
2026-01-27 18:21:35.06	293.05	24.02	-36.0	-37.3	28.4	3.02e+01	60	32	0	164626432	46	6288
2026-01-27 18:21:38.09	292.13	23.80	-36.4	-37.6	28.1	3.02e+01	61	32	0	170393600	48	5856
2026-01-27 18:21:41.11	291.22	23.59	-37.2	-38.5	27.2	3.02e+01	58	32	0	175636480	50	5779
2026-01-27 18:21:44.14	290.32	23.36	-36.5	-37.8	27.2	3.02e+01	56	32	0	181403648	48	5983
2026-01-27 18:21:47.16	289.43	23.14	-36.1	-37.4	28.2	3.02e+01	60	32	0	187170816	46	6388
2026-01-27 18:21:50.19	288.56	22.90	-36.1	-37.4	28.2	3.02e+01	45	32	0	192937984	46	6366
2026-01-27 18:21:53.22	287.70	22.66	-35.0	-36.2	29.2	3.02e+01	52	32	0	198705152	44	6244
2026-01-27 18:21:56.25	286.86	22.42	-35.7	-36.9	28.6	3.02e+01	59	32	0	204472320	46	6053
2026-01-27 18:21:59.27	286.03	22.18	-35.6	-36.8	28.9	3.02e+01	61	32	0	209715200	44	6678
2026-01-27 18:22:02.30	285.21	21.93	-35.4	-36.6	29.0	3.02e+01	56	33	0	215482368	44	6509
2026-01-27 18:22:05.32	284.41	21.68	-35.5	-36.7	28.9	3.02e+01	57	33	0	221249536	44	6592
2026-01-27 18:22:08.35	283.62	21.42	-35.4	-36.6	28.9	3.02e+01	54	32	0	227016704	44	6540
2026-01-27 18:22:11.37	282.85	21.16	-35.8	-37.1	28.5	3.02e+01	60	32	0	232783872	46	6157
2026-01-27 18:22:14.40	282.09	20.90	-35.4	-36.6	28.9	3.02e+01	46	32	0	238551040	44	6535
2026-01-27 18:22:17.43	281.34	20.64	-35.3	-36.5	29.2	3.02e+01	46	32	0	243793920	44	6433
2026-01-27 18:22:20.46	280.60	20.38	-35.3	-36.5	29.1	3.02e+01	57	32	0	249561088	44	6461
2026-01-27 18:22:23.49	279.88	20.11	-35.7	-36.9	28.7	3.02e+01	57	32	0	255328256	46	5995
2026-01-27 18:22:26.52	279.17	19.84	-35.2	-36.4	29.1	3.02e+01	59	32	0	261095424	46	5705
2026-01-27 18:22:29.54	278.48	19.58	-35.2	-36.3	29.3	3.02e+01	54	32	0	266862592	46	5645
2026-01-27 18:22:32.57	277.80	19.31	-35.1	-36.3	29.2	3.02e+01	58	32	0	272105472	46	5649
2026-01-27 18:22:35.60	277.13	19.04	-35.0	-36.1	29.3	3.02e+01	47	32	0	277872640	44	6196
2026-01-27 18:22:38.63	276.47	18.77	-35.2	-36.4	28.9	3.02e+01	44	32	0	283639808	44	6362
2026-01-27 18:22:41.66	275.82	18.49	-35.3	-36.5	28.9	3.02e+01	56	32	0	289406976	44	6479
2026-01-27 18:22:44.69	275.19	18.22	-35.3	-36.5	29.0	3.02e+01	58	32	0	295174144	44	6459
2026-01-27 18:22:47.71	274.57	17.95	-35.6	-36.8	28.7	3.02e+01	59	32	0	300941312	44	6725
2026-01-27 18:22:50.74	273.96	17.68	-34.8	-35.9	29.4	3.02e+01	57	32	0	306184192	44	6055
2026-01-27 18:22:53.77	273.36	17.41	-35.4	-36.7	28.7	3.02e+01	59	32	0	311951360	44	6598
2026-01-27 18:22:56.80	272.78	17.14	-35.6	-36.9	28.5	3.02e+01	61	32	0	317718528	44	6729
2026-01-27 18:22:59.82	272.21	16.87	-35.2	-36.4	29.0	3.02e+01	44	32	0	323485696	46	5684
2026-01-27 18:23:02.85	271.64	16.60	-35.3	-36.5	29.0	3.02e+01	47	32	0	329252864	44	6472
2026-01-27 18:23:05.88	271.09	16.33	-34.9	-36.1	29.2	3.02e+01	57	32	0	335020032	44	6176
2026-01-27 18:23:08.91	270.55	16.06	-35.6	-36.9	28.6	3.02e+01	58	32	0	340262912	44	6738
2026-01-27 18:23:11.93	270.01	15.79	-34.9	-36.1	29.3	3.02e+01	52	32	0	346030080	44	6137
2026-01-27 18:23:14.96	269.49	15.52	-35.3	-36.6	28.8	3.02e+01	60	32	0	351797248	44	6517
2026-01-27 18:23:17.99	268.98	15.26	-35.3	-36.5	28.8	3.02e+01	56	32	0	357564416	44	6444
2026-01-27 18:23:21.02	268.48	14.99	-35.0	-36.2	29.2	3.02e+01	61	32	0	363331584	44	6227
2026-01-27 18:23:24.05	267.98	14.73	-35.4	-36.7	28.8	3.02e+01	47	32	0	369098752	44	6601
2026-01-27 18:23:27.07	267.50	14.47	-35.1	-36.3	29.1	3.02e+01	57	32	0	374341632	44	6294
2026-01-27 18:23:30.10	267.03	14.21	-35.3	-36.5	28.9	3.02e+01	57	32	0	380108800	44	6477
2026-01-27 18:23:33.13	266.56	13.94	-35.4	-36.6	28.9	3.02e+01	59	32	0	385875968	44	6542
2026-01-27 18:23:36.16	266.11	13.69	-35.4	-36.7	28.8	3.02e+01	59	32	0	391643136	44	6588
2026-01-27 18:23:39.19	265.66	13.43	-35.4	-36.6	28.8	3.02e+01	59	32	0	397410304	44	6573
2026-01-27 18:23:42.22	265.22	13.17	-35.4	-36.7	28.7	3.02e+01	48	32	0	402653184	44	6581
2026-01-27 18:23:45.24	264.79	12.92	-35.3	-36.5	28.8	3.02e+01	55	32	0	408420352	44	6488
2026-01-27 18:23:48.27	264.36	12.66	-35.4	-36.7	28.7	3.02e+01	57	32	0	414187520	44	6593
2026-01-27 18:23:51.30	263.95	12.41	-35.7	-37.0	28.5	3.02e+01	58	32	0	419954688	44	6826
2026-01-27 18:23:54.33	263.54	12.16	-35.6	-36.8	28.5	3.02e+01	58	33	0	425721856	46	5987
2026-01-27 18:23:57.35	263.14	11.91	-35.4	-36.6	28.7	3.02e+01	60	32	0	431489024	46	5847
2026-01-27 18:24:00.38	262.75	11.66	-35.6	-36.9	28.5	3.02e+01	59	32	0	437256192	46	6017
2026-01-27 18:24:03.40	262.36	11.42	-35.7	-37.0	28.4	3.02e+01	61	32	0	442499072	46	6078
2026-01-27 18:24:06.42	261.99	11.18	-35.7	-37.0	28.4	3.02e+01	61	32	0	448266240	46	6079
2026-01-27 18:24:09.45	261.61	10.93	-35.6	-36.9	28.6	3.02e+01	45	32	0	454033408	46	6017
2026-01-27 18:24:12.48	261.25	10.69	-35.8	-37.1	28.3	3.02e+01	57	32	0	459800576	46	6174
2026-01-27 18:24:15.50	260.89	10.45	-35.9	-37.2	28.2	3.02e+01	59	32	0	465567744	46	6226
2026-01-27 18:24:18.53	260.54	10.21	-36.2	-37.5	28.0	3.02e+01	60	32	0	470810624	46	6463
2026-01-27 18:24:21.56	260.19	9.98	-36.1	-37.3	28.0	3.02e+01	60	32	0	476577792	46	6330
2026-01-27 18:24:24.58	259.85	9.74	-35.9	-37.2	28.2	3.02e+01	61	32	0	482344960	46	6216
2026-01-27 18:24:27.61	259.52	9.51	-36.2	-37.5	28.0	3.02e+01	47	32	0	488112128	46	6439
2026-01-27 18:24:30.63	259.19	9.28	-36.3	-37.6	27.7	3.02e+01	46	32	0	493879296	46	6536
2026-01-27 18:24:33.66	258.87	9.05	-36.1	-37.4	27.9	3.02e+01	61	32	0	499122176	46	6397
2026-01-27 18:24:36.69	258.55	8.82	-36.3	-37.6	27.7	3.02e+01	56	32	0	504889344	46	6560
2026-01-27 18:24:39.72	258.24	8.59	-36.4	-37.7	27.7	3.02e+01	58	32	0	510656512	46	6589
2026-01-27 18:24:42.75	257.94	8.36	-36.5	-37.9	27.5	3.02e+01	57	32	0	516423680	46	6730
2026-01-27 18:24:45.78	257.64	8.14	-36.3	-37.5	27.7	3.02e+01	58	32	0	522190848	46	6482
2026-01-27 18:24:48.80	257.34	7.92	-36.6	-37.9	27.4	3.02e+01	61	32	0	527958016	46	6771
2026-01-27 18:24:51.83	257.05	7.70	-36.8	-38.1	27.2	3.02e+01	59	32	0	533725184	46	6951
2026-01-27 18:24:54.86	256.76	7.48	-36.9	-38.2	27.1	3.02e+01	47	32	0	538968064	46	7005
2026-01-27 18:24:57.89	256.48	7.26	-36.9	-38.2	27.0	3.02e+01	59	32	0	544735232	48	6239
2026-01-27 18:25:00.91	256.21	7.04	-36.5	-37.8	27.4	3.02e+01	57	32	0	550502400	48	5958
2026-01-27 18:25:03.94	255.94	6.83	-36.7	-38.0	27.2	3.02e+01	60	32	0	556269568	48	6082
2026-01-27 18:25:06.97	255.67	6.61	-37.0	-38.4	26.8	3.02e+01	60	32	0	562036736	48	6360
2026-01-27 18:25:10.00	255.40	6.40	-37.0	-38.4	26.8	3.02e+01	61	32	0	567279616	48	6368
2026-01-27 18:25:13.02	255.15	6.19	-37.0	-38.3	26.8	3.02e+01	52	32	0	573046784	48	6346
2026-01-27 18:25:16.05	254.89	5.98	-37.0	-38.3	26.8	3.02e+01	50	32	0	578813952	48	6324
2026-01-27 18:25:19.08	254.64	5.77	-37.3	-38.7	26.5	3.02e+01	61	32	0	584581120	48	6615
2026-01-27 18:25:22.11	254.40	5.56	-37.2	-38.6	26.4	3.02e+01	59	32	0	590348288	48	6544
2026-01-27 18:25:25.14	254.15	5.36	-37.2	-38.6	26.4	3.02e+01	59	32	0	596115456	48	6516
2026-01-27 18:25:28.17	253.91	5.15	-37.4	-38.8	26.3	3.02e+01	59	32	0	601358336	48	6675
2026-01-27 18:25:31.20	253.68	4.95	-37.5	-38.9	26.1	3.02e+01	59	32	0	607125504	48	6796
2026-01-27 18:25:34.23	253.45	4.75	-37.6	-39.0	26.0	3.02e+01	46	32	0	612892672	50	6102
2026-01-27 18:25:37.25	253.22	4.55	-37.9	-39.4	25.7	3.02e+01	54	32	0	618659840	50	6366
2026-01-27 18:25:40.28	253.00	4.35	-37.7	-39.1	25.8	3.02e+01	59	32	0	624427008	50	6192
2026-01-27 18:25:43.31	252.78	4.15	-37.6	-39.0	25.9	3.02e+01	60	32	0	630194176	50	6120
2026-01-27 18:25:46.34	252.56	3.95	-38.1	-39.6	25.3	3.02e+01	60	32	0	635437056	50	6516
2026-01-27 18:25:49.36	252.34	3.76	-38.6	-40.2	24.7	3.02e+01	60	32	0	641204224	50	7012
2026-01-27 18:25:52.39	252.13	3.56	-37.8	-39.2	25.6	3.02e+01	59	32	0	646971392	50	6263
2026-01-27 18:25:55.41	251.93	3.37	-38.0	-39.5	25.3	3.02e+01	61	32	0	652738560	50	6439
2026-01-27 18:25:58.44	251.72	3.18	-37.9	-39.4	25.3	3.02e+01	50	32	0	658505728	50	6382
2026-01-27 18:26:01.47	251.52	2.98	-39.2	-40.9	17.4	3.02e+01	44	32	0	663748608	50	7633
2026-01-27 18:26:04.50	251.32	2.80	-48.8	-66.5	3.5	3.02e+01	0	32	104	664272896	60	81288
2026-01-27 18:26:07.53	251.12	2.61	-49.0	-66.8	3.5	3.02e+01	0	32	104	664272896	60	84308
2026-01-27 18:26:10.55	250.93	2.42	-49.1	-66.9	3.5	3.02e+01	0	33	104	664272896	60	84697
2026-01-27 18:26:13.58	250.74	2.23	-49.1	-66.9	3.5	3.02e+01	0	33	104	664272896	60	85313
2026-01-27 18:26:16.61	250.55	2.05	-48.9	-66.9	3.5	3.02e+01	0	32	104	664272896	60	85425
2026-01-27 18:26:19.64	250.37	1.86	-48.9	-66.8	3.5	3.02e+01	0	33	104	664272896	60	84215
2026-01-27 18:26:22.67	250.19	1.68	-48.5	-66.7	3.5	3.02e+01	0	33	104	664272896	60	83475
2026-01-27 18:26:25.69	250.01	1.50	-47.9	-66.8	3.5	3.02e+01	0	33	104	664272896	60	83739
2026-01-27 18:26:28.72	249.83	1.32	-48.9	-66.7	3.5	3.02e+01	0	33	104	664272896	60	83398
2026-01-27 18:26:31.75	249.66	1.14	-48.9	-66.8	3.5	3.02e+01	0	33	104	664272896	60	83805
2026-01-27 18:26:34.77	249.49	0.96	-48.9	-66.7	3.5	3.02e+01	0	33	104	664272896	60	83510
2026-01-27 18:26:37.80	249.32	0.78	-48.9	-66.8	3.5	3.02e+01	0	33	104	664272896	60	83869
2026-01-27 18:26:40.83	249.15	0.60	-48.9	-66.7	3.5	3.02e+01	0	33	104	664272896	60	83564
2026-01-27 18:26:43.86	248.98	0.42	-48.9	-66.7	3.5	3.02e+01	0	33	104	664272896	60	83355
2026-01-27 18:26:46.89	248.82	0.25	-48.9	-66.7	3.5	3.02e+01	0	33	104	664272896	60	83490
2026-01-27 18:26:49.92	248.66	0.07	-48.9	-66.8	3.5	3.02e+01	0	33	104	664272896	60	83721

#Closed at: 2026-01-27 18:26:52
#Recorded file [664 MB]: D:/lorett/data/35029_260128_061403.dat