passes_logs/2026/01/27/R4.6S_Anadyr/R4.6S_Anadyr__20260127_162034_NOAA_20_JPSS-1_rec.log

#Pass ID: 20260127_162034_NOAA 20 (JPSS-1)
#Satellite: NOAA 20 (JPSS-1)
#Configuration: NOAA 20
#almurnet v.1.7.20251203
#Start time: 2026-01-27 16:20:38

#Version: 2.2.20231116
#Station: R4.6S_Anadyr
#Location: 177.4865 lon 64.73178 lat
#TLE: 1 43013U 17073A   26026.81907703  .00000149  00000+0  91399-4 0  9998
#TLE: 2 43013  98.7647 327.6343 0000991  22.4130 337.7089 14.19540778424411

#Time	Az	El	Level	Level2	SNR	BER	BlckErr	Temp	State	Recorded	gain1	gain2
2026-01-27 16:20:38.02	25.56	0.20	-48.9	-62.7	3.3	1.54e+00	0	31	0	0	60	49494
2026-01-27 16:20:42.06	25.40	0.43	-49.0	-64.3	3.6	1.51e+00	0	31	104	0	60	58997
2026-01-27 16:20:46.10	25.25	0.66	-48.9	-64.2	3.6	1.51e+00	0	31	104	0	60	58753
2026-01-27 16:20:50.13	25.09	0.90	-48.8	-64.1	3.6	1.51e+00	0	31	104	0	60	57660
2026-01-27 16:20:54.17	24.93	1.14	-48.5	-63.6	3.6	1.51e+00	0	31	104	0	60	54973
2026-01-27 16:20:58.21	24.76	1.38	-47.8	-63.0	3.6	1.51e+00	0	31	104	0	60	51127
2026-01-27 16:21:02.25	24.60	1.62	-47.5	-62.7	3.6	1.51e+00	0	31	104	0	60	49464
2026-01-27 16:21:06.29	24.43	1.86	-47.5	-62.6	3.6	1.51e+00	0	31	104	0	60	48869
2026-01-27 16:21:10.32	24.25	2.10	-47.5	-62.6	3.6	1.51e+00	0	31	104	0	60	48889
2026-01-27 16:21:14.36	24.08	2.35	-47.5	-62.7	3.6	1.51e+00	0	32	104	0	60	49329
2026-01-27 16:21:18.40	23.90	2.60	-47.5	-62.6	3.6	1.51e+00	0	31	104	0	60	48605
2026-01-27 16:21:22.44	23.71	2.85	-47.5	-62.0	3.6	1.51e+00	0	32	104	0	60	45251
2026-01-27 16:21:26.48	23.53	3.10	-47.4	-60.0	3.6	1.51e+00	0	32	104	0	60	36180
2026-01-27 16:21:30.52	23.34	3.35	-45.2	-49.2	12.5	1.24e-03	92	32	0	5242880	60	10391
2026-01-27 16:21:34.56	23.14	3.61	-45.9	-50.8	5.5	1.46e+00	0	32	104	10485760	60	12581
2026-01-27 16:21:38.59	22.95	3.87	-45.8	-50.4	11.3	9.83e-02	8	32	0	11534336	60	11915
2026-01-27 16:21:42.62	22.75	4.13	-42.1	-44.0	17.9	0.00e+00	0	32	0	18874368	58	6412
2026-01-27 16:21:46.66	22.54	4.39	-41.7	-43.4	18.1	0.00e+00	91	32	0	27262976	56	6762
2026-01-27 16:21:50.70	22.33	4.65	-41.3	-42.8	19.2	0.00e+00	0	32	0	34603008	56	6312
2026-01-27 16:21:54.74	22.12	4.92	-40.8	-42.2	19.9	0.00e+00	6	32	0	41943040	56	5884
2026-01-27 16:21:58.77	21.90	5.19	-40.9	-42.4	19.6	0.00e+00	6	32	0	49283072	54	6709
2026-01-27 16:22:02.82	21.68	5.46	-40.7	-42.1	19.9	0.00e+00	79	32	0	56623104	54	6528
2026-01-27 16:22:06.85	21.45	5.73	-40.7	-42.1	19.9	0.00e+00	78	32	0	65011712	54	6494
2026-01-27 16:22:10.88	21.22	6.01	-40.3	-41.6	20.6	0.00e+00	0	32	0	72351744	54	6110
2026-01-27 16:22:14.92	20.99	6.29	-40.1	-41.3	20.7	0.00e+00	87	32	0	79691776	54	5962
2026-01-27 16:22:18.96	20.75	6.57	-40.1	-41.4	20.7	0.00e+00	75	32	0	87031808	54	5968
2026-01-27 16:22:23.00	20.50	6.85	-40.1	-41.4	20.7	0.00e+00	9	32	0	95420416	54	5981
2026-01-27 16:22:27.04	20.25	7.14	-39.9	-41.1	20.9	0.00e+00	0	32	0	102760448	54	5823
2026-01-27 16:22:31.07	19.99	7.43	-39.8	-41.0	21.1	0.00e+00	91	32	0	110100480	54	5735
2026-01-27 16:22:35.11	19.73	7.72	-39.8	-40.9	21.3	0.00e+00	0	32	0	117440512	52	6354
2026-01-27 16:22:39.15	19.47	8.01	-39.8	-41.0	21.3	0.00e+00	8	32	0	124780544	52	6438
2026-01-27 16:22:43.18	19.19	8.31	-39.7	-40.9	21.4	0.00e+00	0	32	0	133169152	52	6350
2026-01-27 16:22:47.22	18.92	8.61	-39.7	-40.9	21.4	0.00e+00	92	32	0	140509184	52	6346
2026-01-27 16:22:51.26	18.63	8.91	-39.8	-41.0	21.4	0.00e+00	0	32	0	147849216	52	6395
2026-01-27 16:22:55.29	18.34	9.22	-39.6	-40.7	21.6	0.00e+00	0	32	0	155189248	52	6219
2026-01-27 16:22:59.33	18.04	9.53	-39.7	-40.8	21.5	0.00e+00	0	32	0	162529280	52	6317
2026-01-27 16:23:03.36	17.74	9.84	-39.5	-40.6	21.7	0.00e+00	91	32	0	170917888	52	6155
2026-01-27 16:23:07.40	17.43	10.15	-39.4	-40.5	21.8	0.00e+00	0	32	0	178257920	52	6091
2026-01-27 16:23:11.44	17.11	10.47	-39.5	-40.6	21.8	0.00e+00	72	32	0	185597952	52	6159
2026-01-27 16:23:15.47	16.78	10.79	-39.4	-40.4	21.9	0.00e+00	0	32	0	192937984	52	6029
2026-01-27 16:23:19.51	16.45	11.12	-39.3	-40.3	22.1	0.00e+00	90	32	0	201326592	52	5946
2026-01-27 16:23:23.55	16.11	11.45	-39.4	-40.5	22.0	0.00e+00	6	32	0	208666624	52	6036
2026-01-27 16:23:27.59	15.76	11.78	-39.4	-40.4	22.0	0.00e+00	8	32	0	216006656	52	6011
2026-01-27 16:23:31.61	15.40	12.11	-39.0	-40.0	22.5	0.00e+00	0	32	0	223346688	52	5725
2026-01-27 16:23:35.65	15.04	12.45	-39.0	-40.1	22.4	0.00e+00	92	32	0	230686720	52	5775
2026-01-27 16:23:39.69	14.66	12.79	-39.1	-40.1	22.3	0.00e+00	6	32	0	239075328	52	5788
2026-01-27 16:23:43.73	14.28	13.14	-38.7	-39.7	22.7	0.00e+00	0	32	0	246415360	52	5554
2026-01-27 16:23:47.77	13.88	13.49	-38.6	-39.6	22.8	0.00e+00	15	32	0	253755392	50	6156
2026-01-27 16:23:51.80	13.48	13.84	-38.6	-39.6	22.8	0.00e+00	92	32	0	261095424	50	6137
2026-01-27 16:23:55.84	13.06	14.20	-38.5	-39.5	22.9	0.00e+00	0	32	0	269484032	50	6061
2026-01-27 16:23:59.88	12.64	14.56	-38.5	-39.5	23.0	0.00e+00	75	32	0	276824064	50	6037
2026-01-27 16:24:03.91	12.21	14.92	-38.5	-39.5	23.1	0.00e+00	77	32	0	284164096	50	6036
2026-01-27 16:24:07.95	11.76	15.29	-38.5	-39.5	23.0	0.00e+00	12	32	0	291504128	50	6047
2026-01-27 16:24:11.99	11.30	15.66	-38.7	-39.7	22.8	0.00e+00	71	32	0	298844160	50	6192
2026-01-27 16:24:16.02	10.83	16.03	-38.3	-39.2	23.2	0.00e+00	12	32	0	307232768	50	5888
2026-01-27 16:24:20.06	10.35	16.41	-38.4	-39.3	23.1	0.00e+00	92	32	0	314572800	50	5932
2026-01-27 16:24:24.10	9.86	16.80	-38.3	-39.2	23.2	0.00e+00	0	32	0	321912832	50	5887
2026-01-27 16:24:28.14	9.35	17.18	-38.4	-39.4	23.1	0.00e+00	0	32	0	329252864	50	5988
2026-01-27 16:24:32.18	8.83	17.57	-38.8	-39.8	22.8	0.00e+00	13	32	0	337641472	50	6305
2026-01-27 16:24:36.22	8.29	17.97	-38.7	-39.7	22.8	0.00e+00	92	32	0	344981504	50	6233
2026-01-27 16:24:40.25	7.74	18.36	-38.6	-39.5	23.0	0.00e+00	67	32	0	352321536	50	6080
2026-01-27 16:24:44.29	7.18	18.76	-38.8	-39.8	22.8	0.00e+00	2	32	0	359661568	50	6311
2026-01-27 16:24:48.33	6.60	19.17	-38.9	-39.9	22.7	0.00e+00	0	32	0	367001600	50	6370
2026-01-27 16:24:52.37	6.00	19.58	-39.1	-40.1	22.5	0.00e+00	91	32	0	375390208	50	6504
2026-01-27 16:24:56.40	5.39	19.99	-38.8	-39.8	22.8	0.00e+00	70	32	0	382730240	50	6269
2026-01-27 16:25:00.44	4.76	20.40	-38.7	-39.6	23.0	0.00e+00	76	32	0	390070272	50	6155
2026-01-27 16:25:04.48	4.11	20.82	-38.5	-39.5	23.1	0.00e+00	0	32	0	397410304	50	6063
2026-01-27 16:25:08.52	3.44	21.24	-38.5	-39.4	23.2	0.00e+00	92	32	0	405798912	50	6022
2026-01-27 16:25:12.56	2.76	21.66	-38.5	-39.4	23.2	0.00e+00	6	32	0	413138944	50	6003
2026-01-27 16:25:16.60	2.05	22.09	-38.4	-39.3	23.3	0.00e+00	7	32	0	420478976	50	5932
2026-01-27 16:25:20.64	1.33	22.52	-38.2	-39.1	23.5	0.00e+00	71	32	0	427819008	50	5827
2026-01-27 16:25:24.67	0.58	22.95	-38.3	-39.2	23.3	0.00e+00	92	32	0	435159040	50	5885
2026-01-27 16:25:28.71	359.82	23.38	-38.5	-39.4	23.4	0.00e+00	0	32	0	443547648	50	6002
2026-01-27 16:25:32.75	359.03	23.81	-38.8	-39.8	22.9	0.00e+00	7	32	0	450887680	50	6263
2026-01-27 16:25:36.78	358.22	24.25	-39.2	-40.2	22.4	0.00e+00	18	32	0	458227712	50	6598
2026-01-27 16:25:40.81	357.39	24.68	-39.2	-40.2	22.5	0.00e+00	92	32	0	465567744	50	6550
2026-01-27 16:25:44.85	356.53	25.12	-39.5	-40.5	22.2	0.00e+00	0	32	0	473956352	50	6844
2026-01-27 16:25:48.89	355.65	25.55	-39.3	-40.4	22.4	0.00e+00	0	32	0	481296384	50	6702
2026-01-27 16:25:52.92	354.74	25.99	-39.5	-40.5	22.2	0.00e+00	90	32	0	488636416	50	6802
2026-01-27 16:25:56.96	353.81	26.42	-39.4	-40.4	22.4	0.00e+00	84	32	0	495976448	50	6728
2026-01-27 16:26:01.00	352.85	26.86	-39.2	-40.2	22.6	0.00e+00	13	32	0	503316480	50	6599
2026-01-27 16:26:05.04	351.87	27.29	-39.2	-40.2	22.6	0.00e+00	73	32	0	511705088	50	6599
2026-01-27 16:26:09.08	350.85	27.71	-39.2	-40.3	22.5	0.00e+00	92	32	0	519045120	50	6630
2026-01-27 16:26:13.11	349.82	28.14	-39.0	-40.0	22.8	0.00e+00	0	32	0	526385152	50	6447
2026-01-27 16:26:17.15	348.75	28.56	-39.1	-40.1	22.6	0.00e+00	0	32	0	533725184	50	6485
2026-01-27 16:26:21.19	347.65	28.97	-39.6	-40.6	22.2	0.00e+00	8	32	0	542113792	50	6921
2026-01-27 16:26:25.22	346.53	29.38	-39.8	-40.9	22.0	0.00e+00	92	32	0	549453824	52	6324
2026-01-27 16:26:29.25	345.38	29.78	-41.0	-42.3	20.6	0.00e+00	72	32	0	556793856	54	6667
2026-01-27 16:26:33.29	344.19	30.17	-42.0	-43.5	19.6	0.00e+00	2	32	0	564133888	56	6802
2026-01-27 16:26:37.33	342.98	30.55	-42.1	-43.6	19.3	0.00e+00	2	32	0	571473920	56	6926
2026-01-27 16:26:41.37	341.74	30.93	-42.4	-44.0	19.1	0.00e+00	92	32	0	579862528	56	7191
2026-01-27 16:26:45.40	340.47	31.29	-43.0	-44.8	18.3	0.00e+00	74	32	0	587202560	58	7065
2026-01-27 16:26:49.44	339.17	31.64	-42.7	-44.5	18.5	0.00e+00	5	32	0	594542592	58	6780
2026-01-27 16:26:53.48	337.85	31.98	-41.8	-43.3	19.8	0.00e+00	72	32	0	601882624	58	5918
2026-01-27 16:26:57.52	336.49	32.31	-41.8	-43.3	19.9	0.00e+00	92	32	0	609222656	56	6624
2026-01-27 16:27:01.55	335.11	32.62	-41.4	-42.7	20.2	0.00e+00	7	32	0	617611264	56	6235
2026-01-27 16:27:05.59	333.70	32.91	-40.6	-41.8	21.1	0.00e+00	6	32	0	624951296	54	6293
2026-01-27 16:27:09.63	332.27	33.18	-39.7	-40.8	22.0	0.00e+00	0	32	0	632291328	54	5623
2026-01-27 16:27:13.67	330.81	33.44	-39.5	-40.5	22.3	0.00e+00	92	32	0	639631360	52	6062
2026-01-27 16:27:17.70	329.34	33.68	-39.5	-40.5	22.3	0.00e+00	1	32	0	648019968	52	6090
2026-01-27 16:27:21.74	327.83	33.90	-38.7	-39.6	23.1	0.00e+00	9	32	0	655360000	50	6164
2026-01-27 16:27:25.78	326.31	34.09	-39.1	-40.1	22.7	0.00e+00	0	32	0	662700032	50	6508
2026-01-27 16:27:29.81	324.78	34.27	-38.6	-39.5	23.2	0.00e+00	73	32	0	670040064	50	6075
2026-01-27 16:27:33.85	323.23	34.42	-38.3	-39.2	23.5	0.00e+00	67	32	0	677380096	50	5892
2026-01-27 16:27:37.88	321.66	34.55	-38.1	-39.0	23.5	0.00e+00	66	32	0	685768704	50	5743
2026-01-27 16:27:41.92	320.08	34.65	-38.0	-38.9	23.9	0.00e+00	75	32	0	693108736	50	5647
2026-01-27 16:27:45.96	318.50	34.73	-38.7	-39.7	23.2	0.00e+00	14	32	0	700448768	50	6178
2026-01-27 16:27:49.99	316.91	34.78	-38.5	-39.4	23.4	0.00e+00	14	32	0	707788800	50	6028
2026-01-27 16:27:54.03	315.31	34.81	-38.7	-39.6	23.2	0.00e+00	68	32	0	716177408	50	6125
2026-01-27 16:27:58.07	313.71	34.82	-38.7	-39.7	23.1	0.00e+00	92	32	0	723517440	50	6200
2026-01-27 16:28:02.11	312.11	34.80	-38.9	-39.9	22.8	0.00e+00	0	32	0	730857472	50	6360
2026-01-27 16:28:06.15	310.51	34.75	-38.6	-39.5	23.3	0.00e+00	0	32	0	738197504	50	6055
2026-01-27 16:28:10.19	308.92	34.68	-39.8	-40.9	22.2	0.00e+00	0	32	0	745537536	52	6324
2026-01-27 16:28:14.22	307.34	34.58	-39.7	-40.8	22.3	0.00e+00	91	32	0	753926144	52	6252
2026-01-27 16:28:18.26	305.77	34.46	-40.2	-41.3	21.7	0.00e+00	0	32	0	761266176	52	6688
2026-01-27 16:28:22.30	304.21	34.31	-40.4	-41.6	21.3	0.00e+00	0	32	0	768606208	52	6857
2026-01-27 16:28:26.34	302.67	34.14	-40.2	-41.3	21.6	0.00e+00	0	33	0	775946240	52	6638
2026-01-27 16:28:30.38	301.14	33.95	-40.6	-41.8	21.2	0.00e+00	92	32	0	783286272	52	7011
2026-01-27 16:28:34.41	299.64	33.74	-40.4	-41.5	21.4	0.00e+00	0	32	0	791674880	52	6841
2026-01-27 16:28:38.45	298.15	33.51	-40.4	-41.6	21.4	0.00e+00	69	32	0	799014912	52	6850
2026-01-27 16:28:42.49	296.68	33.26	-40.1	-41.3	21.7	0.00e+00	0	32	0	806354944	52	6617
2026-01-27 16:28:46.53	295.24	32.98	-40.0	-41.1	22.0	0.00e+00	92	32	0	813694976	52	6484
2026-01-27 16:28:50.57	293.82	32.69	-40.0	-41.0	22.0	0.00e+00	7	32	0	822083584	52	6444
2026-01-27 16:28:54.61	292.43	32.39	-40.1	-41.2	21.6	0.00e+00	12	32	0	829423616	52	6560
2026-01-27 16:28:58.64	291.07	32.07	-40.6	-41.8	21.2	0.00e+00	84	32	0	836763648	52	7072
2026-01-27 16:29:02.68	289.73	31.73	-40.7	-41.9	21.2	0.00e+00	92	32	0	844103680	54	6323
2026-01-27 16:29:06.71	288.43	31.38	-40.3	-41.4	21.5	0.00e+00	7	32	0	851443712	54	6030
2026-01-27 16:29:10.75	287.14	31.02	-40.9	-42.1	20.8	0.00e+00	7	32	0	859832320	54	6512
2026-01-27 16:29:14.79	285.89	30.65	-40.6	-41.8	21.2	0.00e+00	91	32	0	867172352	54	6255
2026-01-27 16:29:18.83	284.67	30.27	-40.6	-41.8	21.2	0.00e+00	92	32	0	874512384	54	6252
2026-01-27 16:29:22.86	283.48	29.88	-40.0	-41.1	21.7	0.00e+00	69	32	0	881852416	54	5818
2026-01-27 16:29:26.90	282.31	29.48	-40.2	-41.4	21.6	0.00e+00	0	32	0	890241024	54	5976
2026-01-27 16:29:30.94	281.18	29.07	-40.2	-41.4	21.6	0.00e+00	92	32	0	897581056	52	6705
2026-01-27 16:29:34.98	280.07	28.66	-39.9	-41.0	21.9	0.00e+00	92	32	0	904921088	52	6448
2026-01-27 16:29:39.02	278.99	28.24	-39.5	-40.5	22.4	0.00e+00	4	32	0	912261120	52	6102
2026-01-27 16:29:43.05	277.94	27.81	-38.8	-39.8	23.0	0.00e+00	70	32	0	919601152	52	5578
2026-01-27 16:29:47.09	276.92	27.39	-38.6	-39.6	23.2	0.00e+00	92	32	0	927989760	50	6105
2026-01-27 16:29:51.12	275.93	26.96	-37.9	-38.7	23.9	0.00e+00	0	32	0	935329792	50	5561
2026-01-27 16:29:55.16	274.96	26.52	-37.5	-38.4	24.2	0.00e+00	0	32	0	942669824	48	5970
2026-01-27 16:29:59.19	274.02	26.09	-37.2	-38.0	24.5	0.00e+00	75	32	0	950009856	48	5753
2026-01-27 16:30:03.23	273.10	25.65	-36.6	-37.4	25.0	0.00e+00	92	32	0	957349888	46	6006
2026-01-27 16:30:07.27	272.21	25.21	-36.5	-37.3	25.1	0.00e+00	0	32	0	965738496	46	5928
2026-01-27 16:30:11.30	271.34	24.78	-36.2	-36.9	25.3	0.00e+00	0	32	0	973078528	46	5681
2026-01-27 16:30:15.34	270.50	24.34	-36.2	-36.9	25.3	0.00e+00	0	32	0	980418560	46	5687
2026-01-27 16:30:19.37	269.68	23.91	-36.5	-37.3	25.1	0.00e+00	92	32	0	987758592	46	5923
2026-01-27 16:30:23.39	268.89	23.47	-36.5	-37.2	25.0	0.00e+00	71	32	0	996147200	46	5888
2026-01-27 16:30:27.42	268.12	23.04	-36.5	-37.3	24.9	0.00e+00	0	32	0	1003487232	46	5948
2026-01-27 16:30:31.46	267.36	22.61	-36.9	-37.7	24.7	0.00e+00	77	32	0	1010827264	46	6215
2026-01-27 16:30:35.51	266.63	22.17	-37.1	-37.9	24.6	0.00e+00	86	32	0	1018167296	46	6387
2026-01-27 16:30:39.54	265.92	21.75	-37.2	-38.1	24.4	0.00e+00	8	32	0	1025507328	46	6467
2026-01-27 16:30:43.58	265.22	21.32	-37.3	-38.1	24.4	0.00e+00	9	32	0	1033895936	46	6499
2026-01-27 16:30:47.62	264.55	20.90	-37.6	-38.5	24.1	0.00e+00	0	32	0	1041235968	46	6775
2026-01-27 16:30:51.66	263.89	20.48	-37.6	-38.4	24.1	0.00e+00	92	32	0	1048576000	48	6012
2026-01-27 16:30:55.70	263.26	20.06	-37.5	-38.4	24.1	0.00e+00	7	32	0	1055916032	48	5965
2026-01-27 16:30:59.73	262.64	19.65	-38.0	-38.9	23.7	0.00e+00	6	32	0	1064304640	48	6343
2026-01-27 16:31:03.77	262.03	19.24	-38.3	-39.2	23.3	0.00e+00	68	32	0	1071644672	48	6579
2026-01-27 16:31:07.81	261.44	18.83	-38.5	-39.5	23.1	0.00e+00	9	32	0	1078984704	48	6787
2026-01-27 16:31:11.85	260.87	18.43	-38.8	-39.8	23.0	0.00e+00	0	32	0	1086324736	50	6246
2026-01-27 16:31:15.88	260.32	18.03	-38.9	-39.8	22.8	0.00e+00	74	32	0	1093664768	50	6309
2026-01-27 16:31:19.92	259.77	17.63	-38.6	-39.6	23.0	0.00e+00	92	32	0	1102053376	50	6124
2026-01-27 16:31:23.96	259.25	17.24	-38.8	-39.7	22.8	0.00e+00	7	32	0	1109393408	50	6227
2026-01-27 16:31:28.00	258.73	16.85	-39.0	-40.0	22.6	0.00e+00	74	32	0	1116733440	50	6407
2026-01-27 16:31:32.03	258.23	16.47	-39.2	-40.2	22.4	0.00e+00	82	32	0	1124073472	50	6594
2026-01-27 16:31:36.07	257.74	16.09	-39.2	-40.2	22.3	0.00e+00	92	32	0	1131413504	50	6584
2026-01-27 16:31:40.11	257.27	15.71	-39.1	-40.1	22.5	0.00e+00	0	32	0	1139802112	50	6467
2026-01-27 16:31:44.14	256.81	15.34	-39.1	-40.1	22.5	0.00e+00	0	32	0	1147142144	50	6516
2026-01-27 16:31:48.17	256.35	14.97	-39.0	-40.0	22.5	0.00e+00	7	32	0	1154482176	50	6431
2026-01-27 16:31:52.21	255.91	14.60	-39.0	-40.0	22.5	0.00e+00	90	32	0	1161822208	50	6457
2026-01-27 16:31:56.25	255.48	14.24	-39.2	-40.2	22.4	0.00e+00	74	32	0	1170210816	50	6565
2026-01-27 16:32:00.28	255.07	13.88	-39.4	-40.4	22.2	0.00e+00	80	32	0	1177550848	50	6739
2026-01-27 16:32:04.32	254.66	13.53	-39.4	-40.5	22.1	0.00e+00	0	32	0	1184890880	50	6785
2026-01-27 16:32:08.36	254.26	13.18	-39.5	-40.5	22.0	0.00e+00	92	32	0	1192230912	50	6825
2026-01-27 16:32:12.39	253.87	12.83	-39.3	-40.4	22.1	0.00e+00	76	32	0	1199570944	50	6731
2026-01-27 16:32:16.43	253.49	12.49	-39.5	-40.5	22.0	0.00e+00	75	32	0	1207959552	50	6826
2026-01-27 16:32:20.47	253.12	12.15	-39.4	-40.4	22.1	0.00e+00	78	32	0	1215299584	50	6751
2026-01-27 16:32:24.50	252.75	11.81	-39.6	-40.7	21.8	0.00e+00	90	32	0	1222639616	50	6933
2026-01-27 16:32:28.54	252.40	11.48	-39.7	-40.8	21.6	0.00e+00	6	32	0	1229979648	50	7071
2026-01-27 16:32:32.58	252.05	11.15	-40.2	-41.3	21.2	0.00e+00	0	32	0	1238368256	52	6677
2026-01-27 16:32:36.61	251.72	10.82	-40.4	-41.6	20.9	0.00e+00	0	32	0	1245708288	52	6923
2026-01-27 16:32:40.65	251.39	10.50	-40.5	-41.7	20.8	0.00e+00	92	32	0	1253048320	52	6965
2026-01-27 16:32:44.69	251.06	10.18	-40.5	-41.7	20.9	0.00e+00	0	32	0	1260388352	52	6953
2026-01-27 16:32:48.72	250.75	9.86	-40.4	-41.6	20.9	0.00e+00	6	32	0	1267728384	52	6900
2026-01-27 16:32:52.76	250.44	9.55	-40.5	-41.8	20.7	0.00e+00	67	32	0	1276116992	52	7028
2026-01-27 16:32:56.80	250.14	9.24	-40.8	-42.1	20.3	0.00e+00	76	32	0	1283457024	54	6501
2026-01-27 16:33:00.84	249.84	8.93	-40.6	-41.9	20.5	0.00e+00	82	32	0	1290797056	54	6362
2026-01-27 16:33:04.87	249.55	8.63	-41.0	-42.4	20.1	0.00e+00	0	32	0	1298137088	54	6709
2026-01-27 16:33:08.91	249.27	8.32	-41.2	-42.6	19.8	0.00e+00	92	32	0	1306525696	54	6921
2026-01-27 16:33:12.94	248.99	8.03	-41.2	-42.6	19.8	0.00e+00	2	32	0	1313865728	54	6865
2026-01-27 16:33:16.98	248.72	7.73	-41.5	-43.0	19.3	0.00e+00	3	32	0	1321205760	54	7178
2026-01-27 16:33:21.02	248.45	7.44	-41.6	-43.1	19.1	0.00e+00	78	32	0	1328545792	54	7330
2026-01-27 16:33:25.06	248.19	7.15	-41.9	-43.5	18.8	0.00e+00	92	32	0	1335885824	56	6785
2026-01-27 16:33:29.09	247.94	6.86	-42.1	-43.8	18.4	0.00e+00	0	32	0	1344274432	56	7075
2026-01-27 16:33:33.12	247.69	6.58	-42.3	-44.0	18.2	0.00e+00	0	32	0	1351614464	56	7215
2026-01-27 16:33:37.16	247.45	6.29	-42.6	-44.5	17.7	0.00e+00	2	32	0	1358954496	56	7642
2026-01-27 16:33:41.20	247.21	6.01	-42.8	-44.8	17.3	0.00e+00	92	32	0	1366294528	58	7062
2026-01-27 16:33:45.23	246.97	5.74	-43.0	-45.0	17.0	0.00e+00	3	32	0	1373634560	58	7251
2026-01-27 16:33:49.27	246.74	5.46	-43.3	-45.5	16.5	0.00e+00	79	32	0	1382023168	58	7654
2026-01-27 16:33:53.31	246.51	5.19	-43.2	-45.5	16.4	0.00e+00	0	33	0	1389363200	58	7619
2026-01-27 16:33:57.33	246.29	4.92	-43.6	-46.0	15.8	0.00e+00	90	33	0	1396703232	58	8132
2026-01-27 16:34:01.37	246.08	4.65	-43.5	-45.9	15.9	0.00e+00	0	33	0	1404043264	58	7981
2026-01-27 16:34:05.41	245.86	4.39	-43.6	-46.1	15.6	0.00e+00	80	33	0	1412431872	60	7327
2026-01-27 16:34:09.45	245.65	4.12	-43.8	-46.5	15.2	0.00e+00	82	32	0	1419771904	60	7607
2026-01-27 16:34:13.49	245.45	3.86	-44.1	-47.2	14.4	7.00e-07	91	33	0	1427111936	60	8251
2026-01-27 16:34:17.53	245.25	3.60	-44.4	-47.7	13.6	8.30e-06	5	33	0	1434451968	60	8813
2026-01-27 16:34:21.56	245.05	3.35	-44.8	-48.7	12.6	8.85e-05	0	32	0	1441792000	60	9821
2026-01-27 16:34:25.60	244.86	3.09	-45.0	-49.2	11.8	1.36e-04	0	33	0	1450180608	60	10388
2026-01-27 16:34:29.64	244.67	2.84	-48.5	-63.7	3.6	1.51e+00	0	33	104	1453326336	60	55424
2026-01-27 16:34:33.68	244.48	2.59	-48.9	-64.1	3.6	1.51e+00	0	33	104	1453326336	60	57980
2026-01-27 16:34:37.72	244.29	2.34	-49.0	-64.2	3.6	1.51e+00	0	33	104	1453326336	60	58507
2026-01-27 16:34:41.76	244.11	2.09	-48.9	-64.2	3.6	1.51e+00	0	33	104	1453326336	60	58329
2026-01-27 16:34:45.80	243.94	1.85	-48.7	-64.1	3.6	1.51e+00	0	33	104	1453326336	60	57683
2026-01-27 16:34:49.84	243.76	1.60	-48.8	-64.0	3.6	1.51e+00	0	33	104	1453326336	60	57329
2026-01-27 16:34:53.88	243.59	1.36	-48.9	-64.1	3.6	1.51e+00	0	33	104	1453326336	60	57741
2026-01-27 16:34:57.92	243.42	1.12	-48.9	-64.1	3.6	1.51e+00	0	33	104	1453326336	60	57774
2026-01-27 16:35:01.96	243.26	0.88	-48.9	-64.1	3.6	1.51e+00	0	33	104	1453326336	60	58020
2026-01-27 16:35:06.00	243.09	0.65	-48.9	-64.1	3.6	1.51e+00	0	33	104	1453326336	60	58099
2026-01-27 16:35:10.04	242.93	0.41	-48.8	-64.1	3.6	1.51e+00	0	33	104	1453326336	60	57805
2026-01-27 16:35:14.08	242.78	0.18	-48.8	-64.0	3.6	1.51e+00	0	33	104	1453326336	60	57514
2026-01-27 16:35:18.11	242.62	-0.05	-48.9	-64.0	3.6	1.51e+00	0	33	104	1453326336	60	57586

#Closed at: 2026-01-27 16:35:18
#Recorded file [1453 MB]: D:/lorett/data/35029_260128_042038.dat