passes_logs/2026/01/27/R4.6S_Anadyr/R4.6S_Anadyr__20260127_103353_KOSAR1-5_rec.log

#Pass ID: 20260127_103353_KOSAR1-5
#Satellite: KOSAR1-5
#Configuration: KOSAR1-5
#almurnet v.1.7.20251203
#Start time: 2026-01-27 10:33:59

#Version: 2.2.20231116
#Station: R4.6S_Anadyr
#Location: 177.4865 lon 64.73178 lat
#TLE: 1 67264U 25313S   26026.77415896  .00010358  00000+0  47807-3 0  9997
#TLE: 2 67264  97.4174 103.7494 0016448 141.8368 218.4035 15.20288013  4446

#Time	Az	El	Level	Level2	SNR	BER	BlckErr	Temp	State	Recorded	gain1	gain2
2026-01-27 10:33:59.76	190.36	0.38	-49.0	-50.6	5.7	0.00e+00	0	30	0	0	60	41490
2026-01-27 10:34:02.69	190.52	0.56	-45.5	-60.5	3.6	1.51e+00	0	31	104	0	60	42730
2026-01-27 10:34:05.63	190.69	0.74	-45.7	-60.4	3.6	1.51e+00	0	31	104	0	60	42675
2026-01-27 10:34:08.55	190.86	0.92	-45.6	-60.3	3.6	1.51e+00	0	31	104	0	60	42167
2026-01-27 10:34:11.49	191.03	1.11	-45.6	-60.3	3.6	1.51e+00	0	31	104	0	60	42209
2026-01-27 10:34:14.42	191.20	1.29	-45.2	-59.9	3.6	1.51e+00	0	32	104	0	60	40260
2026-01-27 10:34:17.34	191.38	1.48	-44.7	-59.3	3.6	1.51e+00	0	32	104	0	60	37630
2026-01-27 10:34:20.27	191.56	1.67	-44.3	-59.0	3.6	1.51e+00	0	32	104	0	60	36224
2026-01-27 10:34:23.20	191.74	1.86	-44.3	-59.0	3.6	1.51e+00	0	32	104	0	60	36205
2026-01-27 10:34:26.13	191.92	2.05	-44.3	-59.0	3.6	1.51e+00	0	32	104	0	60	36123
2026-01-27 10:34:29.06	192.11	2.25	-44.3	-59.0	3.6	1.51e+00	0	32	104	0	60	35945
2026-01-27 10:34:31.99	192.30	2.44	-44.3	-59.0	3.6	1.51e+00	0	32	104	0	60	36067
2026-01-27 10:34:34.92	192.50	2.64	-44.3	-59.0	3.6	1.51e+00	0	32	104	0	60	36161
2026-01-27 10:34:37.85	192.69	2.83	-44.3	-59.0	3.6	1.51e+00	0	32	104	0	60	36051
2026-01-27 10:34:40.79	192.90	3.04	-44.3	-59.0	3.5	1.51e+00	0	32	104	0	60	36233
2026-01-27 10:34:43.72	193.10	3.24	-44.3	-59.0	3.5	1.51e+00	0	32	104	0	60	36300
2026-01-27 10:34:46.66	193.31	3.44	-44.3	-59.0	3.6	1.51e+00	0	32	104	0	60	36226
2026-01-27 10:34:49.59	193.52	3.65	-44.3	-59.1	3.6	1.51e+00	0	32	104	0	60	36400
2026-01-27 10:34:52.53	193.73	3.85	-44.3	-59.0	3.6	1.51e+00	0	32	104	0	60	35988
2026-01-27 10:34:55.46	193.95	4.06	-44.5	-59.2	3.6	1.51e+00	0	32	104	0	60	37021
2026-01-27 10:34:58.39	194.17	4.27	-44.4	-59.1	3.6	1.51e+00	0	32	104	0	60	36365
2026-01-27 10:35:01.32	194.40	4.48	-44.4	-59.1	3.6	1.51e+00	0	32	104	0	60	36667
2026-01-27 10:35:04.26	194.63	4.70	-44.6	-59.3	3.6	1.51e+00	0	32	104	0	60	37237
2026-01-27 10:35:07.20	194.86	4.92	-44.7	-59.4	3.6	1.51e+00	0	32	104	0	60	37751
2026-01-27 10:35:10.14	195.10	5.14	-44.5	-59.2	3.6	1.51e+00	0	32	104	0	60	37193
2026-01-27 10:35:13.09	195.35	5.36	-44.6	-59.3	3.6	1.51e+00	0	32	104	0	60	37509
2026-01-27 10:35:16.02	195.59	5.58	-44.7	-59.4	3.6	1.51e+00	0	32	104	0	60	37895
2026-01-27 10:35:18.96	195.85	5.81	-44.8	-59.5	3.6	1.51e+00	0	32	104	0	60	38399
2026-01-27 10:35:21.90	196.10	6.03	-44.7	-59.4	3.6	1.51e+00	0	32	104	0	60	37833
2026-01-27 10:35:24.84	196.37	6.26	-44.8	-59.5	3.6	1.51e+00	0	32	104	0	60	38099
2026-01-27 10:35:27.78	196.63	6.50	-44.9	-59.6	3.6	1.51e+00	0	32	104	0	60	38737
2026-01-27 10:35:30.72	196.91	6.73	-44.9	-59.6	3.6	1.51e+00	0	32	104	0	60	38639
2026-01-27 10:35:33.65	197.18	6.97	-44.8	-59.5	3.6	1.51e+00	0	32	104	0	60	38413
2026-01-27 10:35:36.60	197.47	7.21	-44.9	-59.6	3.6	1.51e+00	0	32	104	0	60	38550
2026-01-27 10:35:39.53	197.76	7.45	-45.0	-59.7	3.6	1.51e+00	0	32	104	0	60	39394
2026-01-27 10:35:42.48	198.05	7.69	-44.9	-59.7	3.6	1.51e+00	0	32	104	0	60	39013
2026-01-27 10:35:45.42	198.35	7.94	-44.9	-59.6	3.6	1.51e+00	0	32	104	0	60	38764
2026-01-27 10:35:48.36	198.66	8.19	-45.0	-59.8	3.6	1.51e+00	0	32	104	0	60	39473
2026-01-27 10:35:51.30	198.97	8.44	-45.0	-59.8	3.6	1.51e+00	0	32	104	0	60	39444
2026-01-27 10:35:54.24	199.29	8.70	-45.0	-59.7	3.6	1.51e+00	0	32	104	0	60	39004
2026-01-27 10:35:57.18	199.62	8.96	-45.0	-59.7	3.6	1.51e+00	0	32	104	0	60	39003
2026-01-27 10:36:00.12	199.95	9.22	-45.0	-59.7	3.6	1.51e+00	0	32	104	0	60	39340
2026-01-27 10:36:03.06	200.30	9.48	-45.1	-59.8	3.6	1.51e+00	0	32	104	0	60	39539
2026-01-27 10:36:05.99	200.64	9.75	-45.0	-59.7	3.6	1.51e+00	0	32	104	0	60	39342
2026-01-27 10:36:08.92	201.00	10.02	-45.0	-59.8	3.6	1.51e+00	0	32	104	0	60	39642
2026-01-27 10:36:11.86	201.36	10.29	-45.1	-59.8	3.6	1.51e+00	0	32	104	0	60	39853
2026-01-27 10:36:14.80	201.74	10.57	-45.2	-59.8	3.6	1.51e+00	0	32	104	0	60	39665
2026-01-27 10:36:17.73	202.12	10.85	-45.0	-59.8	3.6	1.51e+00	0	32	104	0	60	39685
2026-01-27 10:36:20.66	202.50	11.13	-45.1	-59.8	3.6	1.51e+00	0	32	104	0	60	39594
2026-01-27 10:36:23.59	202.90	11.42	-45.2	-59.9	3.6	1.51e+00	0	32	104	0	60	40118
2026-01-27 10:36:26.53	203.31	11.71	-45.2	-59.8	3.6	1.51e+00	0	32	104	0	60	39834
2026-01-27 10:36:29.46	203.73	12.00	-45.2	-59.9	3.6	1.51e+00	0	32	104	0	60	40100
2026-01-27 10:36:32.40	204.15	12.30	-45.2	-59.9	3.6	1.51e+00	0	32	104	0	60	40182
2026-01-27 10:36:35.34	204.59	12.60	-45.2	-59.9	3.6	1.51e+00	0	32	104	0	60	40113
2026-01-27 10:36:38.28	205.04	12.90	-45.3	-59.9	3.6	1.51e+00	0	32	104	0	60	40109
2026-01-27 10:36:41.22	205.50	13.21	-45.2	-59.9	3.6	1.51e+00	0	32	104	0	60	40229
2026-01-27 10:36:44.16	205.97	13.52	-45.3	-60.0	3.6	1.51e+00	0	33	104	0	60	40460
2026-01-27 10:36:47.10	206.45	13.84	-45.3	-60.0	3.6	1.51e+00	0	33	104	0	60	40707
2026-01-27 10:36:50.05	206.95	14.16	-45.3	-60.0	3.6	1.51e+00	0	32	104	0	60	40470
2026-01-27 10:36:53.00	207.46	14.48	-45.3	-60.0	3.6	1.51e+00	0	33	104	0	60	40642
2026-01-27 10:36:55.89	207.97	14.80	-45.4	-60.1	3.5	1.51e+00	0	32	104	0	60	40941
2026-01-27 10:36:58.83	208.51	15.13	-45.4	-60.1	3.6	1.51e+00	0	32	104	0	60	41058
2026-01-27 10:37:01.78	209.05	15.47	-45.3	-60.0	3.6	1.51e+00	0	33	104	0	60	40700
2026-01-27 10:37:04.72	209.62	15.80	-45.3	-60.1	3.6	1.51e+00	0	33	104	0	60	40833
2026-01-27 10:37:07.66	210.19	16.15	-45.3	-60.0	3.6	1.51e+00	0	33	104	0	60	40668
2026-01-27 10:37:10.59	210.78	16.49	-45.3	-60.1	3.6	1.51e+00	0	32	104	0	60	40928
2026-01-27 10:37:13.52	211.39	16.84	-45.3	-60.0	3.6	1.51e+00	0	32	104	0	60	40769
2026-01-27 10:37:16.46	212.02	17.19	-45.3	-60.1	3.6	1.51e+00	0	33	104	0	60	40817
2026-01-27 10:37:19.40	212.66	17.55	-45.4	-60.1	3.6	1.51e+00	0	33	104	0	60	41135
2026-01-27 10:37:22.33	213.31	17.91	-45.3	-60.1	3.6	1.51e+00	0	32	104	0	60	40901
2026-01-27 10:37:25.26	213.99	18.27	-45.3	-60.1	3.6	1.51e+00	0	33	104	0	60	40860
2026-01-27 10:37:28.20	214.68	18.63	-45.3	-60.1	3.6	1.51e+00	0	33	104	0	60	41036
2026-01-27 10:37:31.14	215.40	19.00	-45.4	-60.1	3.6	1.51e+00	0	33	104	0	60	41183
2026-01-27 10:37:34.07	216.13	19.38	-45.4	-60.2	3.6	1.51e+00	0	33	104	0	60	41275
2026-01-27 10:37:37.00	216.88	19.75	-45.3	-60.1	3.6	1.51e+00	0	33	104	0	60	41020
2026-01-27 10:37:39.94	217.66	20.13	-45.3	-60.1	3.6	1.51e+00	0	32	104	0	60	41219
2026-01-27 10:37:42.87	218.46	20.51	-45.4	-60.1	3.6	1.51e+00	0	33	104	0	60	41160
2026-01-27 10:37:45.81	219.28	20.89	-45.3	-60.1	3.6	1.51e+00	0	33	104	0	60	41087
2026-01-27 10:37:48.74	220.12	21.27	-45.4	-60.1	3.6	1.51e+00	0	33	104	0	60	41068
2026-01-27 10:37:51.68	220.99	21.66	-45.4	-60.2	3.6	1.51e+00	0	33	104	0	60	41459
2026-01-27 10:37:54.62	221.88	22.05	-45.4	-60.2	3.6	1.51e+00	0	33	104	0	60	41403
2026-01-27 10:37:57.56	222.80	22.44	-45.5	-60.2	3.6	1.51e+00	0	33	104	0	60	41386
2026-01-27 10:38:00.50	223.74	22.83	-45.4	-60.2	3.6	1.51e+00	0	33	104	0	60	41279
2026-01-27 10:38:03.43	224.71	23.21	-45.4	-60.2	3.6	1.51e+00	0	33	104	0	60	41489
2026-01-27 10:38:06.37	225.70	23.60	-45.4	-60.2	3.6	1.51e+00	0	33	104	0	60	41293
2026-01-27 10:38:09.31	226.73	23.99	-45.5	-60.1	3.6	1.51e+00	0	33	104	0	60	41200
2026-01-27 10:38:12.25	227.78	24.37	-45.4	-60.1	3.6	1.51e+00	0	33	104	0	60	40984
2026-01-27 10:38:15.18	228.86	24.75	-45.5	-60.2	3.6	1.51e+00	0	33	104	0	60	41360
2026-01-27 10:38:18.11	229.96	25.13	-45.4	-60.1	3.6	1.51e+00	0	33	104	0	60	41134
2026-01-27 10:38:21.05	231.10	25.50	-45.5	-60.2	3.6	1.51e+00	0	33	104	0	60	41386
2026-01-27 10:38:23.98	232.26	25.87	-45.5	-60.2	3.6	1.51e+00	0	33	104	0	60	41488
2026-01-27 10:38:26.91	233.46	26.24	-45.5	-60.2	3.6	1.51e+00	0	33	104	0	60	41668
2026-01-27 10:38:29.85	234.69	26.59	-45.5	-60.2	3.6	1.51e+00	0	33	104	0	60	41353
2026-01-27 10:38:32.78	235.94	26.94	-45.5	-60.2	3.6	1.51e+00	0	33	104	0	60	41361
2026-01-27 10:38:35.72	237.23	27.28	-45.5	-60.2	3.6	1.51e+00	0	33	104	0	60	41515
2026-01-27 10:38:38.65	238.54	27.62	-45.5	-60.2	3.6	1.51e+00	0	33	104	0	60	41424
2026-01-27 10:38:41.59	239.89	27.94	-45.5	-60.2	3.6	1.51e+00	0	33	104	0	60	41636
2026-01-27 10:38:44.53	241.27	28.25	-45.6	-60.3	3.6	1.51e+00	0	33	104	0	60	41784
2026-01-27 10:38:47.47	242.67	28.54	-45.6	-60.2	3.6	1.51e+00	0	33	104	0	60	41541
2026-01-27 10:38:50.41	244.10	28.83	-45.6	-60.2	3.6	1.51e+00	0	33	104	0	60	41505
2026-01-27 10:38:53.34	245.56	29.09	-45.6	-60.3	3.6	1.51e+00	0	33	104	0	60	41893
2026-01-27 10:38:56.27	247.04	29.34	-45.6	-60.3	3.6	1.51e+00	0	33	104	0	60	41869
2026-01-27 10:38:59.21	248.54	29.58	-45.5	-60.2	3.6	1.51e+00	0	33	104	0	60	41592
2026-01-27 10:39:02.14	250.07	29.79	-45.5	-60.2	3.6	1.51e+00	0	33	104	0	60	41664
2026-01-27 10:39:05.06	251.61	29.99	-45.6	-60.3	3.6	1.51e+00	0	33	104	0	60	41769
2026-01-27 10:39:08.00	253.18	30.17	-45.5	-60.2	3.6	1.51e+00	0	33	104	0	60	41640
2026-01-27 10:39:10.93	254.77	30.32	-45.6	-60.2	3.6	1.51e+00	0	33	104	0	60	41703
2026-01-27 10:39:13.87	256.37	30.46	-45.6	-60.3	3.6	1.51e+00	0	33	104	0	60	41812
2026-01-27 10:39:16.81	257.99	30.57	-45.6	-60.2	3.6	1.51e+00	0	33	104	0	60	41524
2026-01-27 10:39:19.74	259.61	30.66	-45.6	-60.2	3.6	1.51e+00	0	33	104	0	60	41499
2026-01-27 10:39:22.67	261.25	30.72	-45.6	-60.2	3.6	1.51e+00	0	33	104	0	60	41478
2026-01-27 10:39:25.60	262.88	30.76	-45.5	-60.2	3.6	1.51e+00	0	33	104	0	60	41450
2026-01-27 10:39:28.54	264.53	30.78	-45.5	-60.2	3.6	1.51e+00	0	33	104	0	60	41429
2026-01-27 10:39:31.47	266.17	30.77	-45.5	-60.2	3.6	1.51e+00	0	33	104	0	60	41529
2026-01-27 10:39:34.40	267.81	30.74	-45.5	-60.2	3.6	1.51e+00	0	33	104	0	60	41296
2026-01-27 10:39:37.34	269.45	30.69	-45.5	-60.2	3.6	1.51e+00	0	33	104	0	60	41401
2026-01-27 10:39:40.27	271.08	30.61	-45.5	-60.2	3.6	1.51e+00	0	33	104	0	60	41537
2026-01-27 10:39:43.21	272.70	30.51	-45.5	-60.2	3.6	1.51e+00	0	33	104	0	60	41570
2026-01-27 10:39:46.15	274.31	30.39	-45.5	-60.2	3.6	1.51e+00	0	33	104	0	60	41589
2026-01-27 10:39:49.08	275.90	30.24	-45.5	-60.2	3.6	1.51e+00	0	33	104	0	60	41407
2026-01-27 10:39:52.02	277.48	30.07	-45.5	-60.2	3.6	1.51e+00	0	33	104	0	60	41444
2026-01-27 10:39:54.96	279.04	29.88	-45.6	-60.2	3.6	1.51e+00	0	33	104	0	60	41475
2026-01-27 10:39:57.90	280.59	29.68	-45.5	-60.2	3.6	1.51e+00	0	33	104	0	60	41644
2026-01-27 10:40:00.84	282.10	29.45	-45.5	-60.2	3.6	1.51e+00	0	33	104	0	60	41649
2026-01-27 10:40:03.79	283.60	29.21	-45.5	-60.2	3.6	1.51e+00	0	33	104	0	60	41669
2026-01-27 10:40:06.73	285.08	28.95	-45.5	-60.2	3.6	1.51e+00	0	33	104	0	60	41675
2026-01-27 10:40:09.67	286.52	28.67	-45.5	-60.2	3.6	1.51e+00	0	33	104	0	60	41301
2026-01-27 10:40:12.61	287.94	28.38	-45.5	-60.2	3.6	1.51e+00	0	33	104	0	60	41493
2026-01-27 10:40:15.54	289.32	28.08	-45.5	-60.2	3.6	1.51e+00	0	33	104	0	60	41346
2026-01-27 10:40:18.46	290.67	27.76	-45.4	-60.2	3.6	1.51e+00	0	33	104	0	60	41364
2026-01-27 10:40:21.40	292.00	27.43	-45.5	-60.2	3.6	1.51e+00	0	33	104	0	60	41271
2026-01-27 10:40:24.34	293.30	27.10	-45.4	-60.2	3.6	1.51e+00	0	33	104	0	60	41383
2026-01-27 10:40:27.27	294.57	26.75	-45.4	-60.2	3.6	1.51e+00	0	33	104	0	60	41375
2026-01-27 10:40:30.21	295.81	26.40	-45.3	-60.2	3.6	1.51e+00	0	33	104	0	60	41300
2026-01-27 10:40:33.15	297.02	26.04	-45.3	-60.1	3.6	1.51e+00	0	33	104	0	60	40992
2026-01-27 10:40:36.09	298.21	25.67	-45.3	-60.2	3.6	1.51e+00	0	33	104	0	60	41401
2026-01-27 10:40:39.02	299.35	25.30	-45.1	-60.2	3.6	1.51e+00	0	33	104	0	60	41471
2026-01-27 10:40:41.96	300.48	24.92	-45.1	-60.2	3.6	1.51e+00	0	33	104	0	60	41519
2026-01-27 10:40:44.89	301.57	24.54	-45.1	-60.1	3.5	1.51e+00	0	33	104	0	60	41187
2026-01-27 10:40:47.83	302.63	24.16	-44.9	-60.1	3.6	1.51e+00	0	33	104	0	60	41109
2026-01-27 10:40:50.76	303.66	23.77	-45.0	-60.1	3.6	1.51e+00	0	33	104	0	60	41138
2026-01-27 10:40:53.69	304.67	23.39	-44.9	-60.2	3.6	1.51e+00	0	33	104	0	60	41538
2026-01-27 10:40:56.62	305.65	23.00	-45.1	-60.2	3.6	1.51e+00	0	33	104	0	60	41574
2026-01-27 10:40:59.57	306.61	22.61	-45.2	-60.2	3.6	1.51e+00	0	33	104	0	60	41299
2026-01-27 10:41:02.50	307.53	22.22	-45.2	-60.2	3.6	1.51e+00	0	33	104	0	60	41482
2026-01-27 10:41:05.43	308.43	21.84	-45.2	-60.2	3.6	1.51e+00	0	33	104	0	60	41548
2026-01-27 10:41:08.36	309.31	21.45	-45.1	-60.2	3.6	1.51e+00	0	33	104	0	60	41417
2026-01-27 10:41:11.29	310.16	21.07	-45.0	-60.2	3.6	1.51e+00	0	33	104	0	60	41637
2026-01-27 10:41:14.23	310.99	20.68	-45.0	-60.1	3.6	1.51e+00	0	33	104	0	60	41162
2026-01-27 10:41:17.17	311.80	20.30	-45.1	-60.2	3.6	1.51e+00	0	33	104	0	60	41321
2026-01-27 10:41:20.10	312.59	19.92	-45.4	-60.2	3.6	1.51e+00	0	33	104	0	60	41504
2026-01-27 10:41:23.03	313.35	19.55	-45.3	-60.1	3.6	1.51e+00	0	33	104	0	60	41261
2026-01-27 10:41:25.95	314.09	19.18	-45.3	-60.2	3.6	1.51e+00	0	33	104	0	60	41272
2026-01-27 10:41:28.89	314.82	18.81	-45.0	-60.1	3.6	1.51e+00	0	33	104	0	60	41163
2026-01-27 10:41:31.83	315.52	18.44	-45.3	-60.2	3.6	1.51e+00	0	33	104	0	60	41473
2026-01-27 10:41:34.75	316.20	18.08	-45.3	-60.2	3.6	1.51e+00	0	33	104	0	60	41468
2026-01-27 10:41:37.69	316.87	17.72	-45.3	-60.1	3.6	1.51e+00	0	33	104	0	60	41132
2026-01-27 10:41:40.62	317.52	17.36	-45.3	-60.1	3.6	1.51e+00	0	33	104	0	60	41031
2026-01-27 10:41:43.55	318.15	17.01	-45.3	-60.2	3.6	1.51e+00	0	33	104	0	60	41411
2026-01-27 10:41:46.48	318.76	16.66	-45.2	-60.2	3.6	1.51e+00	0	33	104	0	60	41264
2026-01-27 10:41:49.41	319.36	16.31	-45.1	-60.1	3.6	1.51e+00	0	33	104	0	60	41102
2026-01-27 10:41:52.35	319.95	15.97	-45.4	-60.1	3.6	1.51e+00	0	33	104	0	60	40908
2026-01-27 10:41:55.29	320.52	15.63	-45.3	-60.1	3.6	1.51e+00	0	33	104	0	60	40878
2026-01-27 10:41:58.22	321.07	15.29	-45.3	-60.0	3.6	1.51e+00	0	33	104	0	60	40602
2026-01-27 10:42:01.15	321.61	14.96	-45.3	-60.0	3.6	1.51e+00	0	33	104	0	60	40541
2026-01-27 10:42:04.07	322.13	14.64	-45.3	-60.0	3.6	1.51e+00	0	33	104	0	60	40522
2026-01-27 10:42:07.00	322.65	14.31	-45.3	-60.1	3.6	1.51e+00	0	33	104	0	60	40890
2026-01-27 10:42:09.93	323.15	14.00	-45.2	-59.9	3.6	1.51e+00	0	33	104	0	60	40050
2026-01-27 10:42:12.88	323.64	13.68	-45.3	-59.9	3.6	1.51e+00	0	33	104	0	60	40318
2026-01-27 10:42:15.81	324.12	13.37	-45.2	-60.0	3.6	1.51e+00	0	33	104	0	60	40358
2026-01-27 10:42:18.75	324.58	13.06	-45.3	-60.1	3.6	1.51e+00	0	33	104	0	60	40843
2026-01-27 10:42:21.69	325.04	12.75	-45.3	-60.0	3.6	1.51e+00	0	33	104	0	60	40416
2026-01-27 10:42:24.62	325.48	12.45	-45.3	-59.9	3.6	1.51e+00	0	33	104	0	60	40123
2026-01-27 10:42:27.55	325.91	12.15	-45.2	-60.0	3.6	1.51e+00	0	33	104	0	60	40438
2026-01-27 10:42:30.49	326.34	11.86	-45.1	-59.9	3.6	1.51e+00	0	33	104	0	60	40168
2026-01-27 10:42:33.42	326.75	11.57	-45.1	-59.9	3.6	1.51e+00	0	33	104	0	60	40013
2026-01-27 10:42:36.37	327.15	11.28	-45.1	-59.9	3.6	1.51e+00	0	33	104	0	60	40060
2026-01-27 10:42:39.30	327.55	10.99	-45.2	-60.0	3.6	1.51e+00	0	33	104	0	60	40443
2026-01-27 10:42:42.23	327.93	10.71	-45.1	-59.8	3.6	1.51e+00	0	33	104	0	60	39540
2026-01-27 10:42:45.16	328.31	10.44	-45.1	-59.8	3.6	1.51e+00	0	33	104	0	60	39717
2026-01-27 10:42:48.11	328.68	10.16	-45.1	-59.9	3.6	1.51e+00	0	33	104	0	60	39913
2026-01-27 10:42:51.03	329.04	9.89	-45.2	-59.9	3.6	1.51e+00	0	33	104	0	60	39873
2026-01-27 10:42:53.96	329.39	9.62	-44.9	-59.7	3.6	1.51e+00	0	33	104	0	60	39148
2026-01-27 10:42:56.89	329.74	9.36	-45.0	-59.8	3.6	1.51e+00	0	33	104	0	60	39509
2026-01-27 10:42:59.82	330.08	9.10	-45.0	-59.8	3.6	1.51e+00	0	33	104	0	60	39597
2026-01-27 10:43:02.75	330.41	8.84	-45.0	-59.8	3.6	1.51e+00	0	33	104	0	60	39573
2026-01-27 10:43:05.68	330.73	8.58	-44.9	-59.6	3.6	1.51e+00	0	33	104	0	60	38873
2026-01-27 10:43:08.61	331.05	8.33	-44.9	-59.7	3.6	1.51e+00	0	33	104	0	60	39014
2026-01-27 10:43:11.54	331.36	8.08	-44.8	-59.7	3.6	1.51e+00	0	33	104	0	60	39107
2026-01-27 10:43:14.47	331.66	7.83	-44.8	-59.6	3.6	1.51e+00	0	33	104	0	60	38705
2026-01-27 10:43:17.40	331.96	7.59	-44.8	-59.6	3.6	1.51e+00	0	33	104	0	60	38650
2026-01-27 10:43:20.34	332.26	7.34	-44.8	-59.6	3.6	1.51e+00	0	33	104	0	60	38553
2026-01-27 10:43:23.26	332.54	7.10	-44.9	-59.6	3.6	1.51e+00	0	33	104	0	60	38775
2026-01-27 10:43:26.19	332.82	6.87	-44.5	-59.3	3.6	1.51e+00	0	33	104	0	60	37631
2026-01-27 10:43:29.12	333.10	6.63	-44.7	-59.5	3.6	1.51e+00	0	33	104	0	60	38136
2026-01-27 10:43:32.04	333.37	6.40	-44.1	-58.8	3.6	1.51e+00	0	33	104	0	60	35488
2026-01-27 10:43:34.98	333.64	6.17	-44.4	-59.2	3.6	1.51e+00	0	33	104	0	60	36867
2026-01-27 10:43:37.90	333.90	5.94	-41.1	-55.8	3.6	1.51e+00	0	33	104	0	58	27989
2026-01-27 10:43:40.83	334.15	5.71	-43.8	-58.6	3.6	1.51e+00	0	33	104	0	60	34587
2026-01-27 10:43:43.76	334.41	5.49	-41.0	-55.7	3.6	1.51e+00	0	33	104	0	58	27634
2026-01-27 10:43:46.69	334.65	5.27	-40.7	-55.5	3.6	1.51e+00	0	33	104	0	56	30274
2026-01-27 10:43:49.62	334.89	5.05	-41.0	-55.8	3.6	1.51e+00	0	33	104	0	58	27928
2026-01-27 10:43:52.56	335.13	4.83	-40.8	-55.5	3.6	1.51e+00	0	33	104	0	56	30405
2026-01-27 10:43:55.49	335.37	4.62	-40.8	-55.5	3.6	1.51e+00	0	33	104	0	56	30552
2026-01-27 10:43:58.43	335.60	4.40	-40.9	-55.7	3.6	1.51e+00	0	33	104	0	56	31061
2026-01-27 10:44:01.36	335.82	4.19	-40.9	-55.6	3.6	1.51e+00	0	33	104	0	56	30718
2026-01-27 10:44:04.29	336.05	3.98	-40.8	-55.5	3.6	1.51e+00	0	33	104	0	56	30397
2026-01-27 10:44:07.22	336.27	3.78	-41.0	-55.7	3.6	1.51e+00	0	33	104	0	56	31138
2026-01-27 10:44:10.15	336.48	3.57	-40.8	-55.6	3.6	1.51e+00	0	33	104	0	56	30877
2026-01-27 10:44:13.08	336.69	3.37	-40.9	-55.7	3.6	1.51e+00	0	33	104	0	56	30991
2026-01-27 10:44:16.02	336.90	3.16	-40.8	-55.6	3.6	1.51e+00	0	33	104	0	56	30618
2026-01-27 10:44:18.96	337.11	2.96	-40.9	-55.7	3.6	1.51e+00	0	33	104	0	56	30978
2026-01-27 10:44:21.89	337.31	2.76	-45.2	-59.9	3.6	1.51e+00	0	33	104	0	60	40001
2026-01-27 10:44:24.81	337.50	2.57	-45.5	-60.3	3.6	1.51e+00	0	33	104	0	60	41791
2026-01-27 10:44:27.75	337.70	2.37	-45.4	-60.4	3.6	1.51e+00	0	33	104	0	60	42332
2026-01-27 10:44:30.68	337.89	2.18	-45.5	-60.5	3.6	1.51e+00	0	33	104	0	60	43051
2026-01-27 10:44:33.61	338.08	1.98	-45.6	-60.4	3.6	1.51e+00	0	33	104	0	60	42655
2026-01-27 10:44:36.54	338.27	1.79	-45.4	-60.3	3.6	1.51e+00	0	33	104	0	60	42098
2026-01-27 10:44:39.47	338.45	1.60	-45.5	-60.2	3.6	1.51e+00	0	33	104	0	60	41689
2026-01-27 10:44:42.40	338.63	1.42	-45.5	-60.1	3.6	1.51e+00	0	33	104	0	60	41208
2026-01-27 10:44:45.33	338.81	1.23	-45.5	-60.2	3.6	1.51e+00	0	33	104	0	60	41505
2026-01-27 10:44:48.26	338.98	1.04	-45.4	-60.1	3.5	1.51e+00	0	33	104	0	60	41066
2026-01-27 10:44:51.19	339.16	0.86	-45.4	-60.2	3.6	1.51e+00	0	33	104	0	60	41466
2026-01-27 10:44:54.12	339.33	0.68	-45.4	-60.1	3.6	1.51e+00	0	33	104	0	60	41238
2026-01-27 10:44:57.05	339.49	0.50	-45.5	-60.2	3.6	1.51e+00	0	33	104	0	60	41302
2026-01-27 10:44:59.99	339.66	0.32	-45.5	-60.2	3.6	1.51e+00	0	33	104	0	60	41343
2026-01-27 10:45:02.92	339.82	0.14	-45.4	-60.1	3.6	1.51e+00	0	33	104	0	60	41072
2026-01-27 10:45:05.85	339.98	-0.04	-45.5	-60.2	3.6	1.51e+00	0	33	104	0	60	41545

#Closed at: 2026-01-27 10:45:08
#Recorded file [0 MB]: D:/lorett/data/35029_260127_223359.dat