passes_logs/2026/01/27/R4.6S_Anadyr/R4.6S_Anadyr__20260127_210944_TY-39_rec.log

#Pass ID: 20260127_210944_TY-39
#Satellite: TY-39
#Configuration: TY-39
#almurnet v.1.7.20251203
#Start time: 2026-01-27 21:09:48

#Version: 2.2.20231116
#Station: R4.6S_Anadyr
#Location: 177.4865 lon 64.73178 lat
#TLE: 1 51832U 22019J   26026.87657933  .00002312  00000-0  11128-3 0  9991
#TLE: 2 51832  97.3624  93.2762 0008991  14.8578 345.2919 15.19726420216336

#Time	Az	El	Level	Level2	SNR	BER	BlckErr	Temp	State	Recorded	gain1	gain2
2026-01-27 21:09:48.03	22.95	0.18	-48.6	-60.3	3.5	8.45e-01	0	29	0	0	60	37231
2026-01-27 21:09:51.05	23.22	0.34	-48.9	-51.3	3.6	0.00e+00	0	31	104	0	60	45204
2026-01-27 21:09:54.08	23.50	0.51	-48.9	-51.4	3.6	0.00e+00	0	31	104	0	60	45397
2026-01-27 21:09:57.11	23.79	0.68	-48.8	-51.3	3.6	0.00e+00	0	31	104	0	60	44871
2026-01-27 21:10:00.14	24.07	0.84	-48.7	-51.1	3.6	0.00e+00	0	31	104	0	60	44193
2026-01-27 21:10:03.17	24.36	1.01	-48.3	-50.8	3.6	0.00e+00	0	31	104	0	60	42282
2026-01-27 21:10:06.20	24.66	1.18	-48.1	-50.5	3.6	0.00e+00	0	31	104	0	60	41250
2026-01-27 21:10:09.23	24.96	1.35	-47.5	-50.0	3.6	0.00e+00	0	31	104	0	60	38599
2026-01-27 21:10:12.26	25.26	1.52	-47.3	-49.8	3.6	0.00e+00	0	31	104	0	60	37690
2026-01-27 21:10:15.29	25.57	1.69	-47.3	-49.8	3.6	0.00e+00	0	31	104	0	60	37655
2026-01-27 21:10:18.32	25.88	1.86	-47.2	-49.7	3.6	0.00e+00	0	31	104	0	60	37631
2026-01-27 21:10:21.35	26.20	2.03	-47.2	-49.7	3.6	0.00e+00	0	31	104	0	60	37545
2026-01-27 21:10:24.38	26.52	2.20	-47.2	-49.8	3.6	0.00e+00	0	31	104	0	60	37694
2026-01-27 21:10:27.41	26.84	2.38	-47.2	-49.8	3.6	0.00e+00	0	32	104	0	60	37804
2026-01-27 21:10:30.44	27.17	2.55	-47.2	-49.7	3.6	0.00e+00	0	31	104	0	60	37618
2026-01-27 21:10:33.47	27.51	2.73	-47.2	-49.8	3.6	0.00e+00	0	32	104	0	60	37653
2026-01-27 21:10:36.50	27.85	2.90	-47.3	-49.8	3.5	0.00e+00	0	32	104	0	60	37646
2026-01-27 21:10:39.53	28.19	3.08	-47.2	-49.7	3.6	0.00e+00	0	32	104	0	60	37556
2026-01-27 21:10:42.56	28.54	3.26	-47.4	-49.8	3.6	0.00e+00	0	32	104	0	60	38067
2026-01-27 21:10:45.59	28.89	3.44	-47.0	-49.5	3.6	0.00e+00	0	32	104	0	60	36669
2026-01-27 21:10:48.62	29.25	3.62	-47.2	-49.6	3.6	0.00e+00	0	32	104	0	60	37070
2026-01-27 21:10:51.65	29.62	3.80	-47.5	-50.0	3.6	0.00e+00	0	32	104	0	60	38627
2026-01-27 21:10:54.68	29.99	3.98	-47.5	-50.0	3.6	0.00e+00	0	32	104	0	60	38673
2026-01-27 21:10:57.71	30.37	4.16	-47.5	-50.0	3.6	0.00e+00	0	32	104	0	60	38630
2026-01-27 21:11:00.74	30.75	4.34	-47.5	-50.0	3.6	0.00e+00	0	32	104	0	60	38759
2026-01-27 21:11:03.76	31.14	4.52	-47.5	-50.0	3.6	0.00e+00	0	32	104	0	60	38768
2026-01-27 21:11:06.79	31.53	4.71	-39.2	-39.8	5.4	7.56e-03	1164	32	104	0	46	26725
2026-01-27 21:11:09.82	31.93	4.89	-35.4	-35.8	11.9	2.61e-03	0	32	0	176160768	46	16836
2026-01-27 21:11:12.85	32.34	5.08	-32.9	-33.3	13.2	1.38e-05	0	32	0	402653184	42	15937
2026-01-27 21:11:15.88	32.75	5.26	-33.4	-33.8	12.9	6.90e-06	0	33	0	629145600	42	16853
2026-01-27 21:11:18.91	33.17	5.45	-32.0	-32.4	14.1	0.00e+00	0	33	0	864026624	40	16229
2026-01-27 21:11:21.94	33.59	5.64	-31.6	-32.1	14.2	0.00e+00	0	33	0	1090519040	38	17434
2026-01-27 21:11:24.97	34.03	5.82	-30.1	-30.5	14.9	0.00e+00	0	33	0	1317011456	36	16421
2026-01-27 21:11:28.00	34.46	6.01	-29.3	-29.7	15.3	0.00e+00	0	33	0	1543503872	32	18855
2026-01-27 21:11:31.03	34.91	6.20	-29.0	-29.4	15.5	0.00e+00	0	33	0	1769996288	32	18206
2026-01-27 21:11:34.06	35.36	6.39	-28.9	-29.3	15.5	0.00e+00	0	33	0	1996488704	32	18004
2026-01-27 21:11:37.09	35.82	6.58	-28.9	-29.4	15.5	0.00e+00	0	33	0	2222981120	32	18052
2026-01-27 21:11:40.12	36.29	6.77	-28.9	-29.3	15.4	0.00e+00	0	33	0	2449473536	32	17974
2026-01-27 21:11:43.15	36.77	6.96	-28.5	-28.9	15.6	0.00e+00	0	33	0	2675965952	32	17109
2026-01-27 21:11:46.18	37.25	7.16	-28.5	-28.9	15.7	0.00e+00	0	33	0	2902458368	32	17177
2026-01-27 21:11:49.21	37.74	7.35	-28.3	-28.8	15.7	0.00e+00	0	33	0	3128950784	32	16869
2026-01-27 21:11:52.23	38.23	7.54	-28.6	-29.1	15.6	0.00e+00	0	33	0	3355443200	32	17420
2026-01-27 21:11:55.26	38.74	7.73	-28.6	-29.0	15.5	0.00e+00	0	33	0	3590324224	32	17264
2026-01-27 21:11:58.29	39.26	7.93	-28.0	-28.5	15.5	0.00e+00	0	33	0	3816816640	32	16291
2026-01-27 21:12:01.32	39.78	8.12	-28.0	-28.4	15.7	0.00e+00	0	33	0	4043309056	32	16168
2026-01-27 21:12:04.35	40.31	8.31	-28.0	-28.5	15.7	0.00e+00	0	33	0	4269801472	32	16262
2026-01-27 21:12:07.38	40.85	8.51	-27.9	-28.4	15.9	0.00e+00	0	33	0	4496293888	32	16097
2026-01-27 21:12:10.41	41.40	8.70	-28.0	-28.5	15.7	0.00e+00	0	33	0	4722786304	32	16270
2026-01-27 21:12:13.44	41.95	8.89	-27.7	-28.2	16.0	0.00e+00	0	33	0	4949278720	30	17692
2026-01-27 21:12:16.47	42.52	9.09	-27.8	-28.2	15.9	0.00e+00	0	33	0	5175771136	30	17774
2026-01-27 21:12:19.51	43.10	9.28	-27.7	-28.1	16.0	0.00e+00	0	33	0	5402263552	30	17548
2026-01-27 21:12:22.54	43.68	9.48	-27.5	-28.0	15.9	0.00e+00	0	33	0	5628755968	30	17223
2026-01-27 21:12:25.57	44.27	9.67	-27.5	-28.0	15.9	0.00e+00	0	33	0	5855248384	30	17234
2026-01-27 21:12:28.59	44.88	9.86	-27.4	-27.9	16.1	0.00e+00	0	33	0	6090129408	30	17056
2026-01-27 21:12:31.62	45.49	10.05	-27.5	-28.0	16.0	0.00e+00	0	34	0	6316621824	30	17244
2026-01-27 21:12:34.65	46.11	10.25	-27.4	-27.8	15.9	0.00e+00	0	34	0	6543114240	30	16930
2026-01-27 21:12:37.67	46.74	10.44	-27.4	-27.8	16.0	0.00e+00	0	33	0	6769606656	30	16931
2026-01-27 21:12:40.70	47.38	10.63	-27.1	-27.5	16.0	0.00e+00	0	34	0	6996099072	30	16401
2026-01-27 21:12:43.73	48.03	10.82	-27.1	-27.6	16.1	0.00e+00	0	34	0	7222591488	30	16479
2026-01-27 21:12:46.77	48.70	11.01	-27.1	-27.5	16.1	0.00e+00	0	33	0	7449083904	30	16415
2026-01-27 21:12:49.80	49.37	11.19	-26.9	-27.4	16.2	0.00e+00	0	34	0	7675576320	30	16086
2026-01-27 21:12:52.82	50.05	11.38	-26.9	-27.3	16.1	0.00e+00	0	33	0	7902068736	30	16022
2026-01-27 21:12:55.85	50.74	11.56	-26.8	-27.3	16.1	0.00e+00	0	34	0	8128561152	30	15899
2026-01-27 21:12:58.88	51.44	11.75	-26.9	-27.4	15.9	0.00e+00	0	34	0	8355053568	28	18025
2026-01-27 21:13:01.91	52.16	11.93	-26.7	-27.2	16.2	0.00e+00	0	34	0	8581545984	28	17700
2026-01-27 21:13:04.95	52.88	12.11	-26.8	-27.2	16.1	0.00e+00	0	34	0	8816427008	28	17749
2026-01-27 21:13:07.98	53.62	12.29	-26.6	-27.0	16.3	0.00e+00	0	34	0	9042919424	28	17391
2026-01-27 21:13:11.00	54.36	12.46	-26.5	-27.0	16.2	0.00e+00	0	34	0	9269411840	28	17204
2026-01-27 21:13:14.04	55.12	12.64	-26.5	-27.0	16.2	0.00e+00	0	34	0	9495904256	28	17212
2026-01-27 21:13:17.07	55.88	12.81	-26.4	-26.8	16.0	0.00e+00	0	34	0	9722396672	28	16935
2026-01-27 21:13:20.10	56.66	12.98	-26.3	-26.8	16.4	0.00e+00	0	34	0	9948889088	28	16892
2026-01-27 21:13:23.13	57.45	13.15	-26.4	-26.9	16.0	0.00e+00	0	34	0	10175381504	28	17030
2026-01-27 21:13:26.16	58.24	13.31	-26.4	-26.8	16.3	0.00e+00	0	34	0	10401873920	28	16967
2026-01-27 21:13:29.19	59.05	13.47	-26.1	-26.6	16.3	0.00e+00	0	34	0	10628366336	28	16517
2026-01-27 21:13:32.22	59.87	13.63	-26.1	-26.5	16.3	0.00e+00	0	34	0	10854858752	28	16423
2026-01-27 21:13:35.24	60.69	13.78	-26.0	-26.4	15.2	0.00e+00	0	34	0	11081351168	28	16148
2026-01-27 21:13:38.26	61.53	13.93	-25.9	-26.4	16.2	0.00e+00	0	34	0	11307843584	28	16144
2026-01-27 21:13:41.29	62.38	14.07	-26.1	-26.5	15.8	0.00e+00	0	34	0	11542724608	28	16342
2026-01-27 21:13:44.32	63.23	14.22	-25.9	-26.4	16.3	0.00e+00	0	34	0	11769217024	28	16077
2026-01-27 21:13:47.36	64.10	14.35	-25.9	-26.3	16.4	0.00e+00	0	34	0	11995709440	28	15991
2026-01-27 21:13:50.38	64.97	14.49	-25.9	-26.3	16.5	0.00e+00	0	34	0	12222201856	28	15994
2026-01-27 21:13:53.41	65.86	14.61	-25.8	-26.3	16.4	0.00e+00	0	34	0	12448694272	28	15900
2026-01-27 21:13:56.43	66.75	14.74	-25.8	-26.2	16.0	0.00e+00	0	34	0	12675186688	26	17704
2026-01-27 21:13:59.47	67.65	14.86	-25.9	-26.3	16.5	0.00e+00	0	34	0	12901679104	26	17984
2026-01-27 21:14:02.50	68.56	14.97	-25.8	-26.3	16.3	0.00e+00	0	34	0	13128171520	26	17817
2026-01-27 21:14:05.53	69.48	15.08	-25.8	-26.2	16.4	0.00e+00	0	34	0	13354663936	26	17788
2026-01-27 21:14:08.55	70.40	15.18	-25.7	-26.2	16.2	0.00e+00	0	34	0	13581156352	26	17608
2026-01-27 21:14:11.58	71.34	15.28	-25.7	-26.1	16.3	0.00e+00	0	34	0	13807648768	26	17513
2026-01-27 21:14:14.61	72.28	15.37	-25.8	-26.3	16.5	0.00e+00	0	34	0	14034141184	26	17816
2026-01-27 21:14:17.64	73.22	15.45	-25.7	-26.2	16.5	0.00e+00	0	34	0	14269022208	26	17672
2026-01-27 21:14:20.66	74.17	15.53	-25.6	-26.0	16.5	0.00e+00	0	34	0	14495514624	26	17356
2026-01-27 21:14:23.70	75.13	15.60	-25.7	-26.2	16.5	0.00e+00	0	34	0	14722007040	26	17605
2026-01-27 21:14:26.73	76.09	15.67	-25.6	-26.0	16.5	0.00e+00	0	34	0	14948499456	26	17387
2026-01-27 21:14:29.76	77.06	15.73	-25.5	-25.9	16.2	0.00e+00	0	34	0	15174991872	26	17143
2026-01-27 21:14:32.79	78.03	15.78	-25.6	-26.0	16.5	0.00e+00	0	34	0	15401484288	26	17373
2026-01-27 21:14:35.82	79.01	15.82	-25.6	-26.1	16.6	0.00e+00	0	34	0	15627976704	26	17442
2026-01-27 21:14:38.85	79.99	15.86	-25.6	-26.0	16.3	0.00e+00	0	34	0	15854469120	26	17393
2026-01-27 21:14:41.88	80.97	15.89	-25.6	-26.0	16.3	0.00e+00	0	34	0	16080961536	26	17388
2026-01-27 21:14:44.91	81.95	15.92	-25.4	-25.9	16.5	0.00e+00	0	34	0	16307453952	26	17032
2026-01-27 21:14:47.94	82.94	15.94	-25.5	-26.0	16.5	0.00e+00	0	34	0	16542334976	26	17211
2026-01-27 21:14:50.97	83.92	15.95	-25.6	-26.0	16.5	0.00e+00	0	34	0	16760438784	26	17351
2026-01-27 21:14:54.01	84.91	15.95	-25.4	-25.9	16.5	0.00e+00	0	34	0	16995319808	26	17096
2026-01-27 21:14:57.04	85.90	15.95	-25.6	-26.1	16.4	0.00e+00	0	34	0	17221812224	26	17517
2026-01-27 21:15:00.07	86.89	15.93	-25.4	-25.9	16.5	0.00e+00	0	34	0	17448304640	26	17092
2026-01-27 21:15:03.10	87.87	15.92	-25.6	-26.0	16.5	0.00e+00	0	34	0	17674797056	26	17348
2026-01-27 21:15:06.13	88.86	15.89	-25.4	-25.9	16.6	0.00e+00	0	34	0	17901289472	26	17103
2026-01-27 21:15:09.16	89.84	15.86	-25.5	-25.9	16.6	0.00e+00	0	34	0	18127781888	26	17173
2026-01-27 21:15:12.19	90.82	15.82	-25.6	-26.0	16.5	0.00e+00	0	34	0	18354274304	26	17347
2026-01-27 21:15:15.22	91.79	15.77	-25.6	-26.0	16.5	0.00e+00	0	34	0	18580766720	26	17344
2026-01-27 21:15:18.25	92.76	15.72	-25.7	-26.1	16.5	0.00e+00	0	34	0	18815647744	26	17549
2026-01-27 21:15:21.28	93.73	15.66	-25.6	-26.0	16.4	0.00e+00	0	34	0	19033751552	26	17327
2026-01-27 21:15:24.31	94.69	15.59	-25.6	-26.0	16.6	0.00e+00	0	34	0	19268632576	26	17389
2026-01-27 21:15:27.33	95.65	15.52	-25.7	-26.1	16.5	0.00e+00	0	34	0	19486736384	26	17571
2026-01-27 21:15:30.36	96.60	15.44	-25.6	-26.1	16.5	0.00e+00	0	34	0	19721617408	26	17474
2026-01-27 21:15:33.39	97.55	15.35	-25.9	-26.3	16.5	0.00e+00	0	34	0	19948109824	26	17977
2026-01-27 21:15:36.42	98.49	15.26	-25.7	-26.2	16.4	0.00e+00	0	34	0	20174602240	26	17614
2026-01-27 21:15:39.45	99.42	15.16	-25.8	-26.2	16.5	0.00e+00	0	34	0	20401094656	26	17802
2026-01-27 21:15:42.48	100.35	15.06	-25.8	-26.3	16.5	0.00e+00	0	34	0	20627587072	26	17883
2026-01-27 21:15:45.50	101.26	14.95	-25.8	-26.3	16.5	0.00e+00	0	34	0	20854079488	26	17849
2026-01-27 21:15:48.52	102.17	14.84	-25.7	-26.2	16.5	0.00e+00	0	34	0	21080571904	26	17688
2026-01-27 21:15:51.55	103.07	14.72	-25.8	-26.3	16.4	0.00e+00	0	34	0	21307064320	26	17886
2026-01-27 21:15:54.58	103.96	14.59	-25.9	-26.4	16.5	0.00e+00	0	34	0	21533556736	26	18118
2026-01-27 21:15:57.61	104.85	14.47	-26.0	-26.4	16.4	0.00e+00	0	34	0	21760049152	26	18162
2026-01-27 21:16:00.64	105.73	14.33	-26.0	-26.4	16.5	0.00e+00	0	34	0	21994930176	26	18215
2026-01-27 21:16:03.67	106.59	14.19	-26.2	-26.6	16.4	0.00e+00	0	34	0	22213033984	26	18619
2026-01-27 21:16:06.70	107.45	14.05	-26.2	-26.7	16.4	0.00e+00	0	34	0	22447915008	26	18659
2026-01-27 21:16:09.73	108.30	13.90	-26.2	-26.7	16.4	0.00e+00	0	34	0	22674407424	26	18656
2026-01-27 21:16:12.76	109.13	13.75	-26.1	-26.5	16.4	0.00e+00	0	34	0	22900899840	26	18412
2026-01-27 21:16:15.79	109.96	13.60	-26.2	-26.7	16.4	0.00e+00	0	34	0	23127392256	26	18707
2026-01-27 21:16:18.82	110.78	13.44	-26.3	-26.8	16.4	0.00e+00	0	34	0	23353884672	26	18932
2026-01-27 21:16:21.84	111.59	13.28	-26.3	-26.8	16.3	0.00e+00	0	34	0	23580377088	26	18959
2026-01-27 21:16:24.87	112.38	13.12	-26.3	-26.8	16.4	0.00e+00	0	34	0	23806869504	26	18960
2026-01-27 21:16:27.89	113.17	12.95	-26.4	-26.9	16.4	0.00e+00	0	34	0	24033361920	26	19205
2026-01-27 21:16:30.92	113.94	12.78	-26.4	-26.9	16.4	0.00e+00	0	34	0	24259854336	26	19166
2026-01-27 21:16:33.95	114.71	12.61	-26.5	-26.9	16.4	0.00e+00	0	34	0	24486346752	26	19257
2026-01-27 21:16:36.98	115.46	12.43	-26.6	-27.0	16.3	0.00e+00	0	34	0	24712839168	28	17398
2026-01-27 21:16:40.01	116.21	12.25	-26.6	-27.1	16.3	0.00e+00	0	34	0	24939331584	28	17403
2026-01-27 21:16:43.03	116.94	12.08	-26.7	-27.1	16.3	0.00e+00	0	34	0	25165824000	28	17602
2026-01-27 21:16:46.06	117.67	11.89	-26.7	-27.1	16.3	0.00e+00	0	34	0	25400705024	28	17538
2026-01-27 21:16:49.09	118.38	11.71	-26.7	-27.1	16.2	0.00e+00	0	34	0	25618808832	28	17539
2026-01-27 21:16:52.11	119.08	11.53	-26.8	-27.2	16.3	0.00e+00	0	34	0	25853689856	28	17723
2026-01-27 21:16:55.14	119.77	11.34	-26.9	-27.3	16.2	0.00e+00	0	34	0	26071793664	28	17965
2026-01-27 21:16:58.16	120.45	11.15	-27.0	-27.5	16.2	0.00e+00	0	34	0	26306674688	28	18255
2026-01-27 21:17:01.19	121.13	10.97	-27.3	-27.7	16.1	0.00e+00	0	34	0	26533167104	28	18779
2026-01-27 21:17:04.22	121.79	10.78	-27.2	-27.6	16.2	0.00e+00	0	34	0	26759659520	28	18624
2026-01-27 21:17:07.25	122.44	10.59	-27.1	-27.6	16.1	0.00e+00	0	34	0	26986151936	28	18544
2026-01-27 21:17:10.28	123.08	10.39	-27.1	-27.5	16.2	0.00e+00	0	34	0	27212644352	28	18395
2026-01-27 21:17:13.31	123.71	10.20	-27.4	-27.9	16.1	0.00e+00	0	34	0	27439136768	28	19139
2026-01-27 21:17:16.34	124.34	10.01	-27.3	-27.7	16.1	0.00e+00	0	34	0	27665629184	28	18796
2026-01-27 21:17:19.37	124.95	9.81	-27.5	-27.9	16.1	0.00e+00	0	34	0	27892121600	28	19206
2026-01-27 21:17:22.40	125.55	9.62	-27.5	-27.9	16.0	0.00e+00	0	34	0	28127002624	28	19269
2026-01-27 21:17:25.43	126.14	9.43	-27.7	-28.1	15.9	0.00e+00	0	34	0	28345106432	28	19674
2026-01-27 21:17:28.45	126.73	9.23	-27.8	-28.2	15.9	0.00e+00	0	34	0	28579987456	30	17725
2026-01-27 21:17:31.48	127.30	9.04	-27.8	-28.2	15.9	0.00e+00	0	34	0	28798091264	30	17790
2026-01-27 21:17:34.51	127.87	8.84	-27.9	-28.3	16.0	0.00e+00	0	34	0	29032972288	30	17946
2026-01-27 21:17:37.54	128.42	8.65	-27.7	-28.2	16.1	0.00e+00	0	34	0	29259464704	30	17686
2026-01-27 21:17:40.58	128.97	8.45	-28.0	-28.5	15.9	0.00e+00	0	34	0	29485957120	30	18227
2026-01-27 21:17:43.61	129.51	8.26	-27.9	-28.4	15.9	0.00e+00	0	34	0	29712449536	30	18046
2026-01-27 21:17:46.64	130.04	8.06	-28.3	-28.7	15.8	0.00e+00	0	34	0	29938941952	30	18847
2026-01-27 21:17:49.67	130.56	7.87	-28.2	-28.7	15.8	0.00e+00	0	34	0	30165434368	30	18675
2026-01-27 21:17:52.69	131.08	7.68	-28.6	-29.1	15.7	0.00e+00	0	34	0	30391926784	30	19659
2026-01-27 21:17:55.72	131.58	7.48	-28.3	-28.8	15.8	0.00e+00	0	34	0	30618419200	30	18899
2026-01-27 21:17:58.75	132.08	7.29	-28.6	-29.1	15.6	0.00e+00	0	34	0	30844911616	30	19533
2026-01-27 21:18:01.78	132.57	7.09	-28.3	-28.8	15.8	0.00e+00	0	34	0	31071404032	32	16851
2026-01-27 21:18:04.80	133.05	6.90	-28.3	-28.8	15.8	0.00e+00	0	34	0	31306285056	32	16905
2026-01-27 21:18:07.83	133.52	6.71	-28.8	-29.3	15.6	0.00e+00	0	34	0	31524388864	32	17904
2026-01-27 21:18:10.86	133.99	6.52	-28.8	-29.3	15.6	0.00e+00	0	34	0	31759269888	32	17912
2026-01-27 21:18:13.88	134.45	6.33	-28.8	-29.3	15.6	0.00e+00	0	34	0	31977373696	32	17905
2026-01-27 21:18:16.91	134.90	6.14	-28.7	-29.1	15.6	0.00e+00	0	34	0	32212254720	32	17503
2026-01-27 21:18:19.93	135.34	5.95	-47.9	-50.4	3.6	0.00e+00	0	34	104	32229031936	60	40442
2026-01-27 21:18:22.96	135.78	5.76	-47.8	-50.2	3.6	0.00e+00	0	34	104	32229031936	60	39807
2026-01-27 21:18:25.99	136.21	5.57	-47.9	-50.4	3.6	0.00e+00	0	34	104	32229031936	60	40521
2026-01-27 21:18:29.02	136.64	5.38	-47.9	-50.3	3.6	0.00e+00	0	34	104	32229031936	60	40226
2026-01-27 21:18:32.05	137.06	5.19	-47.9	-50.4	3.6	0.00e+00	0	34	104	32229031936	60	40399
2026-01-27 21:18:35.08	137.47	5.01	-47.7	-50.2	3.6	0.00e+00	0	34	104	32229031936	60	39502
2026-01-27 21:18:38.11	137.87	4.82	-47.8	-50.3	3.6	0.00e+00	0	34	104	32229031936	60	40123
2026-01-27 21:18:41.13	138.27	4.64	-47.5	-50.0	3.6	0.00e+00	0	34	104	32229031936	60	38788
2026-01-27 21:18:44.16	138.66	4.45	-47.4	-49.9	3.6	0.00e+00	0	34	104	32229031936	60	38491
2026-01-27 21:18:47.19	139.05	4.27	-47.3	-49.8	3.6	0.00e+00	0	34	104	32229031936	60	37637
2026-01-27 21:18:50.22	139.43	4.09	-47.1	-49.6	3.6	0.00e+00	0	34	104	32229031936	60	37072
2026-01-27 21:18:53.25	139.81	3.90	-45.8	-48.3	3.6	0.00e+00	0	34	104	32229031936	60	31877
2026-01-27 21:18:56.28	140.18	3.72	-45.5	-48.1	3.6	0.00e+00	0	34	104	32229031936	60	31224
2026-01-27 21:18:59.31	140.54	3.54	-45.7	-48.2	3.6	0.00e+00	0	34	104	32229031936	60	31373
2026-01-27 21:19:02.34	140.90	3.36	-45.6	-48.2	3.6	0.00e+00	0	34	104	32229031936	60	31337
2026-01-27 21:19:05.37	141.25	3.18	-45.3	-47.8	3.6	0.00e+00	0	34	104	32229031936	60	30235
2026-01-27 21:19:08.40	141.60	3.00	-45.2	-48.0	3.6	0.00e+00	0	34	104	32229031936	60	30817
2026-01-27 21:19:11.43	141.94	2.83	-48.1	-50.7	3.6	0.00e+00	0	34	104	32229031936	60	41845
2026-01-27 21:19:14.46	142.28	2.65	-48.6	-51.1	3.6	0.00e+00	0	34	104	32229031936	60	43897
2026-01-27 21:19:17.49	142.61	2.47	-48.9	-51.4	3.6	0.00e+00	0	34	104	32229031936	60	45272
2026-01-27 21:19:20.52	142.94	2.30	-48.9	-51.4	3.6	0.00e+00	0	34	104	32229031936	60	45569
2026-01-27 21:19:23.55	143.27	2.12	-49.0	-51.4	3.6	0.00e+00	0	34	104	32229031936	60	45675
2026-01-27 21:19:26.58	143.59	1.95	-49.0	-51.4	3.6	0.00e+00	0	34	104	32229031936	60	45665
2026-01-27 21:19:29.61	143.90	1.78	-48.9	-51.4	3.6	0.00e+00	0	34	104	32229031936	60	45666
2026-01-27 21:19:32.64	144.21	1.60	-48.8	-51.3	3.6	0.00e+00	0	34	104	32229031936	60	44914
2026-01-27 21:19:35.66	144.51	1.43	-48.9	-51.3	3.6	0.00e+00	0	34	104	32229031936	60	45182
2026-01-27 21:19:38.69	144.81	1.26	-48.9	-51.3	3.6	0.00e+00	0	34	104	32229031936	60	45219
2026-01-27 21:19:41.72	145.11	1.09	-48.9	-51.3	3.6	0.00e+00	0	34	104	32229031936	60	45191
2026-01-27 21:19:44.74	145.40	0.92	-48.9	-51.4	3.6	0.00e+00	0	34	104	32229031936	60	45337
2026-01-27 21:19:47.77	145.69	0.76	-48.9	-51.3	3.5	0.00e+00	0	34	104	32229031936	60	44929
2026-01-27 21:19:50.80	145.98	0.59	-48.9	-51.4	3.6	0.00e+00	0	34	104	32229031936	60	45431
2026-01-27 21:19:53.83	146.26	0.42	-48.9	-51.3	3.6	0.00e+00	0	34	104	32229031936	60	45140
2026-01-27 21:19:56.86	146.54	0.26	-48.9	-51.4	3.6	0.00e+00	0	34	104	32229031936	60	45390
2026-01-27 21:19:59.89	146.81	0.09	-48.9	-51.4	3.6	0.00e+00	0	34	104	32229031936	60	45340
2026-01-27 21:20:02.92	147.08	-0.07	-48.9	-51.3	3.6	0.00e+00	0	34	104	32229031936	60	45129

#Closed at: 2026-01-27 21:20:03
#Recorded file [32229 MB]: D:/lorett/data/35029_260128_090948.dat