passes_logs/2026/01/27/R4.6S_Anadyr/R4.6S_Anadyr__20260127_180022_NOAA_20_JPSS-1_rec.log

#Pass ID: 20260127_180022_NOAA 20 (JPSS-1)
#Satellite: NOAA 20 (JPSS-1)
#Configuration: NOAA 20
#almurnet v.1.7.20251203
#Start time: 2026-01-27 18:00:24

#Version: 2.2.20231116
#Station: R4.6S_Anadyr
#Location: 177.4865 lon 64.73178 lat
#TLE: 1 43013U 17073A   26026.81907703  .00000149  00000+0  91399-4 0  9998
#TLE: 2 43013  98.7647 327.6343 0000991  22.4130 337.7089 14.19540778424411

#Time	Az	El	Level	Level2	SNR	BER	BlckErr	Temp	State	Recorded	gain1	gain2
2026-01-27 18:00:24.67	36.37	0.11	-48.5	-63.5	3.6	1.51e+00	0	30	0	0	60	54302
2026-01-27 18:00:28.71	36.10	0.31	-48.7	-63.9	3.6	1.51e+00	0	31	104	0	60	56526
2026-01-27 18:00:32.75	35.83	0.52	-48.7	-64.0	3.6	1.51e+00	0	31	104	0	60	57005
2026-01-27 18:00:36.79	35.55	0.73	-48.7	-63.9	3.6	1.51e+00	0	31	104	0	60	56552
2026-01-27 18:00:40.83	35.27	0.94	-48.5	-63.7	3.6	1.51e+00	0	31	104	0	60	55653
2026-01-27 18:00:44.88	34.98	1.15	-48.3	-63.5	3.6	1.51e+00	0	31	104	0	60	53860
2026-01-27 18:00:48.91	34.69	1.36	-47.5	-62.7	3.6	1.51e+00	0	32	104	0	60	49413
2026-01-27 18:00:52.96	34.39	1.58	-47.0	-62.1	3.6	1.51e+00	0	32	104	0	60	46233
2026-01-27 18:00:56.99	34.09	1.79	-47.0	-62.2	3.6	1.51e+00	0	32	104	0	60	46358
2026-01-27 18:01:01.03	33.79	2.00	-47.0	-62.2	3.6	1.51e+00	0	32	104	0	60	46411
2026-01-27 18:01:05.07	33.48	2.22	-47.0	-62.1	3.6	1.51e+00	0	32	104	0	60	45794
2026-01-27 18:01:09.11	33.17	2.43	-47.0	-62.1	3.6	1.51e+00	0	32	104	0	60	46218
2026-01-27 18:01:13.15	32.85	2.65	-47.0	-61.9	3.6	1.51e+00	0	32	104	0	60	44891
2026-01-27 18:01:17.18	32.52	2.86	-47.0	-61.3	3.6	1.51e+00	0	32	104	0	60	41746
2026-01-27 18:01:21.22	32.20	3.08	-44.9	-49.1	11.9	1.23e-03	17	32	0	4194304	60	10291
2026-01-27 18:01:25.26	31.86	3.30	-44.4	-47.9	13.5	1.52e-05	0	32	0	7340032	60	9025
2026-01-27 18:01:29.30	31.52	3.52	-41.9	-43.8	17.6	0.00e+00	0	32	0	11534336	56	7073
2026-01-27 18:01:33.34	31.18	3.74	-41.5	-43.3	18.0	0.00e+00	92	32	0	18874368	56	6630
2026-01-27 18:01:37.38	30.83	3.96	-41.1	-42.8	18.5	0.00e+00	16	32	0	26214400	56	6257
2026-01-27 18:01:41.42	30.47	4.18	-41.7	-43.5	17.9	0.00e+00	18	32	0	33554432	56	6812
2026-01-27 18:01:45.46	30.11	4.41	-41.1	-42.8	18.4	0.00e+00	6	32	0	40894464	54	7023
2026-01-27 18:01:49.50	29.75	4.63	-41.3	-42.9	18.7	0.00e+00	92	32	0	49283072	56	6380
2026-01-27 18:01:53.53	29.37	4.85	-41.7	-43.5	18.4	0.00e+00	5	32	0	56623104	56	6774
2026-01-27 18:01:57.57	29.00	5.08	-41.2	-42.7	19.1	0.00e+00	18	32	0	63963136	56	6242
2026-01-27 18:02:01.61	28.61	5.30	-41.0	-42.5	19.3	0.00e+00	5	32	0	71303168	56	6072
2026-01-27 18:02:05.65	28.22	5.53	-41.5	-43.2	18.8	0.00e+00	92	32	0	79691776	56	6541
2026-01-27 18:02:09.69	27.82	5.76	-41.4	-43.0	18.9	0.00e+00	0	32	0	87031808	56	6403
2026-01-27 18:02:13.72	27.42	5.98	-41.7	-43.4	18.6	0.00e+00	0	32	0	94371840	56	6701
2026-01-27 18:02:17.76	27.01	6.21	-41.6	-43.3	18.6	0.00e+00	4	32	0	101711872	56	6649
2026-01-27 18:02:21.80	26.59	6.44	-41.3	-42.9	19.1	0.00e+00	91	32	0	109051904	56	6326
2026-01-27 18:02:25.83	26.17	6.67	-41.3	-42.8	19.1	0.00e+00	20	32	0	117440512	56	6299
2026-01-27 18:02:29.87	25.74	6.90	-41.2	-42.8	19.2	0.00e+00	61	32	0	124780544	56	6256
2026-01-27 18:02:33.91	25.30	7.13	-40.9	-42.4	19.7	0.00e+00	2	32	0	132120576	56	5972
2026-01-27 18:02:37.95	24.86	7.36	-41.1	-42.5	19.5	0.00e+00	20	32	0	139460608	56	6071
2026-01-27 18:02:41.98	24.41	7.59	-41.3	-42.8	19.3	0.00e+00	19	32	0	146800640	56	6268
2026-01-27 18:02:46.02	23.95	7.82	-40.9	-42.4	19.8	0.00e+00	20	32	0	155189248	56	5970
2026-01-27 18:02:50.06	23.48	8.05	-40.5	-41.9	20.1	0.00e+00	90	32	0	162529280	54	6327
2026-01-27 18:02:54.10	23.00	8.29	-40.2	-41.5	20.3	0.00e+00	0	32	0	169869312	54	6097
2026-01-27 18:02:58.13	22.52	8.52	-40.2	-41.4	20.6	0.00e+00	0	32	0	177209344	54	6012
2026-01-27 18:03:02.17	22.03	8.75	-40.0	-41.2	20.7	0.00e+00	21	32	0	185597952	54	5856
2026-01-27 18:03:06.21	21.53	8.98	-40.0	-41.2	20.8	0.00e+00	92	32	0	192937984	54	5885
2026-01-27 18:03:10.24	21.03	9.21	-39.7	-40.8	21.2	0.00e+00	59	32	0	200278016	52	6298
2026-01-27 18:03:14.28	20.51	9.45	-39.7	-40.9	21.1	0.00e+00	0	32	0	207618048	52	6353
2026-01-27 18:03:18.32	19.99	9.68	-39.6	-40.7	21.4	0.00e+00	0	32	0	214958080	52	6240
2026-01-27 18:03:22.36	19.45	9.91	-39.8	-41.0	21.1	0.00e+00	92	32	0	223346688	52	6431
2026-01-27 18:03:26.39	18.91	10.14	-39.7	-40.9	21.2	0.00e+00	62	32	0	230686720	52	6337
2026-01-27 18:03:30.43	18.36	10.37	-40.0	-41.2	21.0	0.00e+00	0	32	0	238026752	52	6554
2026-01-27 18:03:34.47	17.81	10.60	-39.6	-40.7	21.4	0.00e+00	3	32	0	245366784	52	6221
2026-01-27 18:03:38.51	17.24	10.83	-39.6	-40.7	21.5	0.00e+00	92	32	0	253755392	52	6217
2026-01-27 18:03:42.55	16.66	11.06	-39.6	-40.7	21.4	0.00e+00	20	32	0	261095424	52	6212
2026-01-27 18:03:46.58	16.08	11.29	-39.5	-40.7	21.5	0.00e+00	21	32	0	268435456	52	6180
2026-01-27 18:03:50.62	15.48	11.52	-39.6	-40.8	21.3	0.00e+00	75	32	0	275775488	52	6276
2026-01-27 18:03:54.66	14.87	11.75	-39.9	-41.1	21.0	0.00e+00	91	32	0	283115520	52	6537
2026-01-27 18:03:58.70	14.26	11.97	-40.0	-41.2	21.1	0.00e+00	6	32	0	291504128	52	6552
2026-01-27 18:04:02.73	13.64	12.20	-39.7	-40.9	21.2	0.00e+00	3	32	0	298844160	52	6339
2026-01-27 18:04:06.77	13.00	12.42	-39.8	-40.9	21.3	0.00e+00	6	32	0	306184192	52	6374
2026-01-27 18:04:10.80	12.36	12.64	-39.5	-40.7	21.5	0.00e+00	84	32	0	313524224	52	6183
2026-01-27 18:04:14.84	11.70	12.86	-39.3	-40.4	21.8	0.00e+00	62	32	0	321912832	52	6012
2026-01-27 18:04:18.88	11.04	13.08	-39.1	-40.2	21.9	0.00e+00	2	32	0	329252864	52	5847
2026-01-27 18:04:22.92	10.37	13.30	-39.1	-40.1	22.1	0.00e+00	92	32	0	336592896	52	5825
2026-01-27 18:04:26.95	9.68	13.51	-38.6	-39.6	22.6	0.00e+00	59	32	0	343932928	50	6146
2026-01-27 18:04:30.99	8.99	13.72	-38.6	-39.6	22.6	0.00e+00	66	32	0	351272960	50	6124
2026-01-27 18:04:35.03	8.28	13.93	-38.1	-39.1	23.0	0.00e+00	0	32	0	359661568	50	5762
2026-01-27 18:04:39.06	7.57	14.14	-37.9	-38.8	23.3	0.00e+00	92	32	0	367001600	50	5598
2026-01-27 18:04:43.10	6.85	14.34	-37.8	-38.7	23.4	0.00e+00	0	32	0	374341632	50	5555
2026-01-27 18:04:47.14	6.11	14.55	-37.5	-38.4	23.6	0.00e+00	0	32	0	381681664	48	5973
2026-01-27 18:04:51.18	5.37	14.74	-37.3	-38.2	23.3	0.00e+00	0	32	0	389021696	48	5837
2026-01-27 18:04:55.21	4.61	14.94	-37.2	-38.1	23.9	0.00e+00	92	32	0	397410304	48	5769
2026-01-27 18:04:59.25	3.85	15.13	-37.1	-38.0	24.0	0.00e+00	0	32	0	404750336	48	5714
2026-01-27 18:05:03.29	3.07	15.32	-37.2	-38.1	23.9	0.00e+00	0	32	0	412090368	48	5803
2026-01-27 18:05:07.33	2.29	15.50	-37.7	-38.6	23.7	0.00e+00	0	32	0	419430400	48	6120
2026-01-27 18:05:11.37	1.49	15.68	-37.6	-38.5	23.6	0.00e+00	92	32	0	427819008	48	6057
2026-01-27 18:05:15.40	0.69	15.85	-37.4	-38.3	23.9	0.00e+00	2	32	0	435159040	48	5920
2026-01-27 18:05:19.44	359.88	16.02	-37.5	-38.4	23.4	0.00e+00	60	32	0	442499072	48	6000
2026-01-27 18:05:23.48	359.05	16.19	-37.3	-38.1	24.0	0.00e+00	0	32	0	449839104	48	5817
2026-01-27 18:05:27.51	358.22	16.35	-36.9	-37.7	24.3	0.00e+00	92	32	0	457179136	48	5555
2026-01-27 18:05:31.55	357.38	16.51	-36.9	-37.7	24.3	0.00e+00	15	32	0	465567744	48	5520
2026-01-27 18:05:35.60	356.53	16.66	-37.1	-37.9	24.1	0.00e+00	70	32	0	472907776	48	5673
2026-01-27 18:05:39.63	355.68	16.80	-37.0	-37.8	24.2	0.00e+00	84	32	0	480247808	48	5607
2026-01-27 18:05:43.68	354.81	16.94	-37.1	-37.9	24.1	0.00e+00	92	32	0	487587840	48	5680
2026-01-27 18:05:47.71	353.93	17.07	-36.9	-37.7	24.3	0.00e+00	6	32	0	495976448	46	6219
2026-01-27 18:05:51.75	353.05	17.20	-37.0	-37.8	24.2	0.00e+00	22	32	0	503316480	46	6301
2026-01-27 18:05:55.79	352.16	17.32	-37.1	-37.9	24.2	0.00e+00	2	32	0	510656512	46	6367
2026-01-27 18:05:59.83	351.27	17.43	-37.1	-38.0	24.2	0.00e+00	92	32	0	517996544	46	6423
2026-01-27 18:06:03.87	350.36	17.54	-37.0	-37.8	24.3	0.00e+00	60	32	0	525336576	46	6314
2026-01-27 18:06:07.90	349.46	17.64	-37.1	-38.0	23.9	0.00e+00	0	32	0	533725184	46	6415
2026-01-27 18:06:11.94	348.54	17.73	-37.4	-38.3	23.8	0.00e+00	92	32	0	541065216	46	6641
2026-01-27 18:06:15.98	347.62	17.81	-38.0	-38.9	23.4	0.00e+00	69	32	0	548405248	48	6339
2026-01-27 18:06:20.01	346.70	17.89	-37.9	-38.8	23.4	0.00e+00	22	32	0	555745280	48	6275
2026-01-27 18:06:24.05	345.77	17.96	-37.9	-38.8	23.5	0.00e+00	0	32	0	564133888	48	6272
2026-01-27 18:06:28.09	344.83	18.02	-38.1	-39.0	23.2	0.00e+00	92	32	0	571473920	48	6432
2026-01-27 18:06:32.12	343.90	18.08	-38.1	-39.1	23.2	0.00e+00	0	32	0	578813952	48	6474
2026-01-27 18:06:36.16	342.96	18.13	-38.2	-39.1	23.1	0.00e+00	22	32	0	586153984	48	6537
2026-01-27 18:06:40.20	342.01	18.17	-38.1	-39.1	23.1	0.00e+00	17	32	0	593494016	48	6489
2026-01-27 18:06:44.24	341.07	18.20	-38.1	-39.0	23.2	0.00e+00	92	32	0	601882624	48	6432
2026-01-27 18:06:48.28	340.12	18.22	-38.2	-39.2	23.0	0.00e+00	0	32	0	609222656	48	6576
2026-01-27 18:06:52.32	339.17	18.23	-37.9	-38.8	23.3	0.00e+00	0	32	0	616562688	48	6275
2026-01-27 18:06:56.35	338.22	18.24	-38.3	-39.2	23.0	0.00e+00	0	32	0	623902720	48	6593
2026-01-27 18:07:00.39	337.27	18.24	-38.3	-39.3	22.9	0.00e+00	91	32	0	632291328	48	6635
2026-01-27 18:07:04.43	336.32	18.23	-38.0	-38.9	23.2	0.00e+00	66	32	0	639631360	48	6363
2026-01-27 18:07:08.47	335.37	18.21	-37.8	-38.7	23.4	0.00e+00	60	32	0	646971392	48	6190
2026-01-27 18:07:12.50	334.43	18.19	-37.7	-38.6	23.6	0.00e+00	0	32	0	654311424	48	6171
2026-01-27 18:07:16.54	333.48	18.15	-37.8	-38.7	23.5	0.00e+00	92	32	0	661651456	48	6194
2026-01-27 18:07:20.58	332.54	18.11	-37.8	-38.7	23.6	0.00e+00	6	32	0	670040064	48	6188
2026-01-27 18:07:24.62	331.60	18.06	-37.2	-38.1	23.7	0.00e+00	21	32	0	677380096	48	5764
2026-01-27 18:07:28.66	330.66	18.00	-37.1	-38.0	24.1	0.00e+00	80	32	0	684720128	48	5703
2026-01-27 18:07:32.70	329.73	17.94	-37.1	-37.9	24.2	0.00e+00	76	32	0	692060160	48	5680
2026-01-27 18:07:36.74	328.80	17.87	-36.8	-37.6	24.5	0.00e+00	17	32	0	700448768	46	6127
2026-01-27 18:07:40.78	327.87	17.78	-36.6	-37.5	24.6	0.00e+00	1	32	0	707788800	46	6040
2026-01-27 18:07:44.82	326.96	17.70	-36.9	-37.7	24.4	0.00e+00	92	32	0	715128832	46	6231
2026-01-27 18:07:48.86	326.04	17.60	-37.1	-37.9	24.2	0.00e+00	92	32	0	722468864	46	6387
2026-01-27 18:07:52.89	325.14	17.50	-37.3	-38.2	24.1	0.00e+00	0	32	0	729808896	46	6547
2026-01-27 18:07:56.93	324.24	17.39	-37.4	-38.2	23.9	0.00e+00	2	32	0	738197504	46	6602
2026-01-27 18:08:00.96	323.34	17.28	-37.5	-38.4	23.7	0.00e+00	91	32	0	745537536	46	6744
2026-01-27 18:08:05.00	322.45	17.15	-38.0	-38.9	23.3	0.00e+00	22	32	0	752877568	48	6383
2026-01-27 18:08:09.04	321.57	17.03	-38.1	-39.0	23.3	0.00e+00	2	32	0	760217600	48	6420
2026-01-27 18:08:13.08	320.70	16.89	-38.3	-39.2	23.1	0.00e+00	2	32	0	768606208	48	6603
2026-01-27 18:08:17.11	319.84	16.75	-38.2	-39.2	23.1	0.00e+00	92	32	0	775946240	48	6541
2026-01-27 18:08:21.15	318.98	16.60	-37.7	-38.6	23.7	0.00e+00	20	32	0	783286272	48	6104
2026-01-27 18:08:25.19	318.14	16.45	-37.8	-38.7	23.6	0.00e+00	22	32	0	790626304	48	6188
2026-01-27 18:08:29.22	317.30	16.29	-37.9	-38.8	23.5	0.00e+00	60	32	0	797966336	48	6282
2026-01-27 18:08:33.26	316.47	16.13	-37.9	-38.8	23.4	0.00e+00	92	32	0	806354944	48	6270
2026-01-27 18:08:37.29	315.65	15.97	-37.9	-38.9	23.4	0.00e+00	2	32	0	813694976	48	6318
2026-01-27 18:08:41.32	314.84	15.79	-37.8	-38.7	23.5	0.00e+00	0	32	0	821035008	48	6216
2026-01-27 18:08:45.36	314.04	15.62	-38.1	-39.0	23.2	0.00e+00	0	32	0	828375040	48	6458
2026-01-27 18:08:49.39	313.25	15.44	-38.0	-39.0	23.3	0.00e+00	90	32	0	836763648	48	6396
2026-01-27 18:08:53.43	312.47	15.25	-38.0	-38.9	23.3	0.00e+00	60	32	0	844103680	48	6376
2026-01-27 18:08:57.46	311.69	15.06	-38.5	-39.5	22.8	0.00e+00	6	32	0	851443712	48	6790
2026-01-27 18:09:01.50	310.93	14.87	-38.7	-39.7	22.7	0.00e+00	0	32	0	858783744	50	6193
2026-01-27 18:09:05.54	310.18	14.67	-38.6	-39.5	22.7	0.00e+00	92	32	0	866123776	50	6101
2026-01-27 18:09:09.58	309.44	14.47	-38.9	-39.9	22.4	0.00e+00	20	32	0	874512384	50	6364
2026-01-27 18:09:13.61	308.70	14.27	-39.2	-40.2	22.2	0.00e+00	6	32	0	881852416	50	6580
2026-01-27 18:09:17.65	307.98	14.07	-39.4	-40.5	21.9	0.00e+00	91	32	0	889192448	50	6817
2026-01-27 18:09:21.69	307.27	13.86	-39.2	-40.2	22.1	0.00e+00	92	32	0	896532480	50	6602
2026-01-27 18:09:25.72	306.57	13.65	-39.0	-40.0	22.3	0.00e+00	6	32	0	903872512	50	6443
2026-01-27 18:09:29.76	305.88	13.44	-39.8	-40.9	21.6	0.00e+00	13	32	0	912261120	52	6367
2026-01-27 18:09:33.80	305.19	13.22	-39.9	-41.0	21.4	0.00e+00	92	32	0	919601152	52	6423
2026-01-27 18:09:37.84	304.52	13.00	-39.9	-41.1	21.2	0.00e+00	0	32	0	926941184	52	6482
2026-01-27 18:09:41.87	303.86	12.78	-39.8	-41.0	21.5	0.00e+00	0	32	0	934281216	52	6391
2026-01-27 18:09:45.91	303.21	12.56	-39.9	-41.0	21.4	0.00e+00	0	32	0	942669824	52	6438
2026-01-27 18:09:49.95	302.57	12.34	-39.9	-41.0	21.4	0.00e+00	92	32	0	950009856	52	6435
2026-01-27 18:09:53.99	301.93	12.12	-40.0	-41.1	21.3	0.00e+00	17	32	0	957349888	52	6533
2026-01-27 18:09:58.03	301.31	11.89	-39.8	-41.0	21.4	0.00e+00	19	32	0	964689920	52	6420
2026-01-27 18:10:02.07	300.70	11.66	-39.4	-40.5	21.9	0.00e+00	0	32	0	972029952	52	6063
2026-01-27 18:10:06.10	300.10	11.44	-39.2	-40.3	22.0	0.00e+00	91	32	0	980418560	52	5928
2026-01-27 18:10:10.14	299.50	11.21	-39.1	-40.1	22.2	0.00e+00	0	33	0	987758592	52	5785
2026-01-27 18:10:14.18	298.92	10.98	-39.1	-40.1	22.2	0.00e+00	0	32	0	995098624	52	5808
2026-01-27 18:10:18.22	298.34	10.75	-38.8	-39.8	22.5	0.00e+00	0	32	0	1002438656	52	5592
2026-01-27 18:10:22.26	297.77	10.52	-38.5	-39.5	22.7	0.00e+00	92	32	0	1010827264	50	6073
2026-01-27 18:10:26.30	297.22	10.29	-38.3	-39.2	22.9	0.00e+00	0	33	0	1018167296	50	5896
2026-01-27 18:10:30.34	296.67	10.05	-38.4	-39.4	22.7	0.00e+00	10	32	0	1025507328	50	5972
2026-01-27 18:10:34.38	296.13	9.82	-37.9	-38.8	23.2	0.00e+00	0	32	0	1032847360	50	5620
2026-01-27 18:10:38.42	295.60	9.59	-37.7	-38.6	23.4	0.00e+00	92	33	0	1040187392	48	6156
2026-01-27 18:10:42.45	295.08	9.36	-37.8	-38.7	23.3	0.00e+00	0	32	0	1048576000	48	6215
2026-01-27 18:10:46.49	294.56	9.12	-38.2	-39.1	22.9	0.00e+00	7	32	0	1055916032	48	6524
2026-01-27 18:10:50.53	294.06	8.89	-38.1	-39.1	23.0	0.00e+00	7	32	0	1063256064	48	6483
2026-01-27 18:10:54.57	293.56	8.66	-38.1	-39.1	23.0	0.00e+00	92	32	0	1070596096	48	6489
2026-01-27 18:10:58.60	293.07	8.43	-38.3	-39.3	22.7	0.00e+00	9	32	0	1078984704	48	6684
2026-01-27 18:11:02.64	292.59	8.20	-38.6	-39.7	22.4	0.00e+00	77	32	0	1086324736	48	6934
2026-01-27 18:11:06.68	292.11	7.96	-38.7	-39.8	22.3	0.00e+00	76	32	0	1093664768	48	7027
2026-01-27 18:11:10.72	291.65	7.73	-38.5	-39.5	22.5	0.00e+00	92	32	0	1101004800	48	6831
2026-01-27 18:11:14.76	291.19	7.50	-38.5	-39.5	22.4	0.00e+00	7	32	0	1108344832	48	6817
2026-01-27 18:11:18.80	290.74	7.27	-38.8	-39.8	22.1	0.00e+00	66	32	0	1116733440	50	6291
2026-01-27 18:11:22.83	290.30	7.04	-39.0	-40.1	21.9	0.00e+00	42	32	0	1124073472	50	6506
2026-01-27 18:11:26.88	289.86	6.81	-39.4	-40.5	21.4	0.00e+00	0	33	0	1131413504	50	6797
2026-01-27 18:11:30.92	289.43	6.58	-39.3	-40.4	21.6	0.00e+00	0	32	0	1138753536	50	6711
2026-01-27 18:11:34.95	289.01	6.35	-39.6	-40.8	21.1	0.00e+00	8	32	0	1147142144	50	7053
2026-01-27 18:11:38.99	288.59	6.12	-40.1	-41.4	20.6	0.00e+00	90	32	0	1154482176	52	6702
2026-01-27 18:11:43.03	288.18	5.89	-40.2	-41.4	20.5	0.00e+00	67	32	0	1161822208	52	6757
2026-01-27 18:11:47.06	287.78	5.67	-40.3	-41.6	20.3	0.00e+00	0	32	0	1169162240	52	6915
2026-01-27 18:11:51.10	287.38	5.44	-40.4	-41.8	20.2	0.00e+00	2	32	0	1176502272	52	7016
2026-01-27 18:11:55.13	286.99	5.21	-40.4	-41.8	20.0	0.00e+00	92	32	0	1184890880	52	7052
2026-01-27 18:11:59.16	286.61	4.99	-40.8	-42.2	19.6	0.00e+00	9	32	0	1192230912	54	6583
2026-01-27 18:12:03.20	286.23	4.76	-40.8	-42.3	19.6	0.00e+00	0	32	0	1199570944	54	6626
2026-01-27 18:12:07.24	285.86	4.54	-40.7	-42.2	19.6	0.00e+00	0	32	0	1206910976	54	6576
2026-01-27 18:12:11.28	285.49	4.32	-41.3	-42.9	18.8	0.00e+00	91	32	0	1214251008	54	7167
2026-01-27 18:12:15.31	285.13	4.09	-41.5	-43.2	18.6	0.00e+00	0	33	0	1222639616	56	6569
2026-01-27 18:12:19.35	284.78	3.87	-41.6	-43.2	18.4	0.00e+00	0	32	0	1229979648	56	6606
2026-01-27 18:12:23.39	284.43	3.65	-41.5	-43.1	18.5	0.00e+00	7	32	0	1237319680	56	6529
2026-01-27 18:12:27.43	284.08	3.43	-41.6	-43.4	18.2	0.00e+00	70	32	0	1244659712	56	6724
2026-01-27 18:12:31.47	283.74	3.21	-41.6	-43.3	18.3	0.00e+00	77	32	0	1253048320	56	6667
2026-01-27 18:12:35.51	283.41	2.99	-47.1	-57.9	3.5	4.68e-04	0	32	0	1260388352	58	31990
2026-01-27 18:12:39.55	283.08	2.77	-48.6	-63.8	3.6	1.51e+00	0	32	104	1260388352	60	56046
2026-01-27 18:12:43.59	282.76	2.56	-48.8	-64.0	3.6	1.51e+00	0	33	104	1260388352	60	57170
2026-01-27 18:12:47.63	282.44	2.34	-48.9	-64.1	3.5	1.51e+00	0	33	104	1260388352	60	57720
2026-01-27 18:12:51.67	282.13	2.13	-48.6	-64.0	3.6	1.51e+00	0	33	104	1260388352	60	57519
2026-01-27 18:12:55.71	281.82	1.91	-48.7	-63.9	3.6	1.51e+00	0	33	104	1260388352	60	56741
2026-01-27 18:12:59.75	281.51	1.70	-48.6	-63.9	3.6	1.51e+00	0	33	104	1260388352	60	56588
2026-01-27 18:13:03.79	281.21	1.49	-48.7	-63.9	3.6	1.51e+00	0	33	104	1260388352	60	56642
2026-01-27 18:13:07.83	280.92	1.27	-48.7	-63.9	3.6	1.51e+00	0	33	104	1260388352	60	56580
2026-01-27 18:13:11.86	280.63	1.06	-48.7	-63.9	3.6	1.51e+00	0	32	104	1260388352	60	56507
2026-01-27 18:13:15.90	280.34	0.85	-48.7	-64.0	3.6	1.51e+00	0	33	104	1260388352	60	56964
2026-01-27 18:13:19.94	280.06	0.64	-48.7	-63.9	3.6	1.51e+00	0	33	104	1260388352	60	56388
2026-01-27 18:13:23.98	279.78	0.43	-48.6	-63.9	3.6	1.51e+00	0	32	104	1260388352	60	56410
2026-01-27 18:13:28.02	279.50	0.23	-48.6	-63.9	3.6	1.51e+00	0	32	104	1260388352	60	56614
2026-01-27 18:13:32.06	279.23	0.02	-48.6	-63.9	3.5	1.51e+00	0	33	104	1260388352	60	56523

#Closed at: 2026-01-27 18:13:32
#Recorded file [1260 MB]: D:/lorett/data/35029_260128_060024.dat