passes_logs/2026/01/27/R4.6S_Anadyr/R4.6S_Anadyr__20260127_123914_SUOMI_NPP_rec.log

#Pass ID: 20260127_123914_SUOMI NPP
#Satellite: SUOMI NPP
#Configuration: NPP
#almurnet v.1.7.20251203
#Start time: 2026-01-27 12:39:17

#Version: 2.2.20231116
#Station: R4.6S_Anadyr
#Location: 177.4865 lon 64.73178 lat
#TLE: 1 37849U 11061A   26026.87508736  .00000176  00000+0  10464-3 0  9991
#TLE: 2 37849  98.7822 328.8221 0002127  43.3055 316.8288 14.19530452738397

#Time	Az	El	Level	Level2	SNR	BER	BlckErr	Temp	State	Recorded	gain1	gain2
2026-01-27 12:39:17.00	19.05	0.12	-48.8	-61.4	3.4	1.52e+00	0	29	0	0	60	41044
2026-01-27 12:39:21.04	19.32	0.32	-49.0	-64.2	3.6	1.51e+00	0	30	104	0	60	58315
2026-01-27 12:39:25.08	19.61	0.53	-49.0	-64.3	3.6	1.51e+00	0	31	104	0	60	58994
2026-01-27 12:39:29.11	19.89	0.73	-49.0	-64.2	3.6	1.51e+00	0	31	104	0	60	58402
2026-01-27 12:39:33.16	20.18	0.94	-48.8	-63.9	3.6	1.51e+00	0	31	104	0	60	56926
2026-01-27 12:39:37.20	20.47	1.15	-48.4	-63.6	3.6	1.51e+00	0	31	104	0	60	54614
2026-01-27 12:39:41.24	20.77	1.36	-47.5	-62.6	3.6	1.51e+00	0	31	104	0	60	48937
2026-01-27 12:39:45.28	21.07	1.57	-47.4	-62.6	3.6	1.51e+00	0	31	104	0	60	48977
2026-01-27 12:39:49.31	21.37	1.78	-47.5	-62.6	3.6	1.51e+00	0	31	104	0	60	48733
2026-01-27 12:39:53.35	21.68	1.99	-47.4	-62.5	3.6	1.51e+00	0	31	104	0	60	48326
2026-01-27 12:39:57.39	21.99	2.21	-47.4	-62.6	3.6	1.51e+00	0	31	104	0	60	48835
2026-01-27 12:40:01.43	22.31	2.42	-47.4	-61.4	3.6	1.51e+00	0	31	104	0	60	42339
2026-01-27 12:40:05.47	22.63	2.63	-46.8	-54.1	7.2	3.36e-01	0	31	0	1048576	60	18300
2026-01-27 12:40:09.51	22.95	2.85	-41.8	-43.6	17.8	0.00e+00	0	31	0	8388608	56	6917
2026-01-27 12:40:13.55	23.28	3.07	-42.3	-44.3	17.1	0.00e+00	0	31	0	15728640	56	7479
2026-01-27 12:40:17.59	23.62	3.29	-44.1	-47.0	5.9	1.50e+00	0	31	104	22020096	60	8119
2026-01-27 12:40:21.63	23.96	3.50	-43.6	-46.2	15.3	0.00e+00	0	31	104	23068672	60	7362
2026-01-27 12:40:25.67	24.30	3.72	-41.6	-43.3	18.4	0.00e+00	0	31	0	30408704	56	6629
2026-01-27 12:40:29.70	24.65	3.94	-41.8	-43.5	18.2	0.00e+00	0	31	0	37748736	56	6845
2026-01-27 12:40:33.74	25.00	4.17	-42.0	-43.8	18.0	0.00e+00	0	31	0	45088768	56	7048
2026-01-27 12:40:37.78	25.36	4.39	-41.9	-43.7	18.0	0.00e+00	0	31	0	52428800	56	6951
2026-01-27 12:40:41.82	25.72	4.61	-42.1	-43.9	17.9	0.00e+00	0	31	0	59768832	56	7159
2026-01-27 12:40:45.85	26.09	4.84	-41.9	-43.7	18.2	0.00e+00	0	31	0	68157440	56	6942
2026-01-27 12:40:49.89	26.47	5.06	-41.4	-42.9	18.9	0.00e+00	0	31	0	75497472	56	6381
2026-01-27 12:40:53.94	26.85	5.29	-40.9	-42.3	19.6	0.00e+00	0	31	0	82837504	56	5930
2026-01-27 12:40:57.98	27.23	5.52	-41.0	-42.4	19.4	0.00e+00	0	31	0	90177536	56	6002
2026-01-27 12:41:02.02	27.62	5.75	-40.8	-42.3	19.6	0.00e+00	0	31	0	98566144	54	6632
2026-01-27 12:41:06.06	28.02	5.98	-40.5	-41.9	19.9	0.00e+00	0	31	0	105906176	54	6369
2026-01-27 12:41:10.10	28.42	6.21	-40.2	-41.5	20.3	0.00e+00	0	31	0	113246208	54	6067
2026-01-27 12:41:14.14	28.83	6.44	-40.1	-41.4	20.5	0.00e+00	0	31	0	120586240	54	6007
2026-01-27 12:41:18.18	29.25	6.67	-40.2	-41.5	20.4	0.00e+00	0	31	0	127926272	52	6776
2026-01-27 12:41:22.22	29.67	6.90	-40.3	-41.6	20.3	0.00e+00	0	31	0	136314880	52	6888
2026-01-27 12:41:26.25	30.10	7.14	-40.3	-41.6	20.2	0.00e+00	0	31	0	143654912	52	6884
2026-01-27 12:41:30.29	30.53	7.37	-40.2	-41.4	20.5	0.00e+00	0	31	0	150994944	52	6757
2026-01-27 12:41:34.33	30.98	7.61	-40.0	-41.2	21.0	0.00e+00	0	31	0	158334976	52	6569
2026-01-27 12:41:38.37	31.43	7.84	-39.4	-40.5	21.4	0.00e+00	0	31	0	166723584	52	6058
2026-01-27 12:41:42.41	31.88	8.08	-38.8	-39.8	21.9	0.00e+00	0	31	0	174063616	50	6297
2026-01-27 12:41:46.45	32.34	8.32	-39.1	-40.2	21.6	0.00e+00	0	31	0	181403648	50	6562
2026-01-27 12:41:50.49	32.81	8.56	-39.6	-40.8	21.2	0.00e+00	0	32	0	188743680	52	6277
2026-01-27 12:41:54.53	33.29	8.80	-39.0	-40.1	21.8	0.00e+00	0	32	0	196083712	52	5779
2026-01-27 12:41:58.57	33.78	9.04	-39.2	-40.3	21.6	0.00e+00	0	31	0	204472320	52	5947
2026-01-27 12:42:02.61	34.27	9.28	-39.1	-40.2	21.7	0.00e+00	0	32	0	211812352	52	5866
2026-01-27 12:42:06.65	34.77	9.52	-38.9	-40.0	22.0	0.00e+00	0	32	0	219152384	52	5709
2026-01-27 12:42:10.69	35.28	9.76	-39.1	-40.1	21.7	0.00e+00	0	32	0	226492416	52	5824
2026-01-27 12:42:14.73	35.80	10.00	-39.2	-40.4	21.7	0.00e+00	0	31	0	234881024	52	5968
2026-01-27 12:42:18.76	36.32	10.24	-38.9	-40.0	22.0	0.00e+00	0	31	0	242221056	52	5707
2026-01-27 12:42:22.80	36.86	10.48	-38.8	-39.8	22.0	0.00e+00	0	32	0	249561088	50	6317
2026-01-27 12:42:26.84	37.40	10.73	-38.7	-39.7	22.2	0.00e+00	0	31	0	256901120	50	6186
2026-01-27 12:42:30.88	37.95	10.97	-38.5	-39.5	22.3	0.00e+00	0	31	0	264241152	50	6072
2026-01-27 12:42:34.92	38.51	11.21	-38.3	-39.3	22.6	0.00e+00	0	31	0	272629760	50	5923
2026-01-27 12:42:38.96	39.08	11.45	-38.3	-39.3	22.6	0.00e+00	0	31	0	279969792	50	5901
2026-01-27 12:42:43.00	39.66	11.70	-38.4	-39.5	22.4	0.00e+00	0	32	0	287309824	50	6034
2026-01-27 12:42:47.04	40.24	11.94	-38.5	-39.5	22.4	0.00e+00	0	32	0	294649856	50	6091
2026-01-27 12:42:51.08	40.84	12.18	-38.4	-39.4	22.5	0.00e+00	0	32	0	303038464	50	6011
2026-01-27 12:42:55.12	41.45	12.42	-38.1	-39.1	22.8	0.00e+00	0	32	0	310378496	50	5811
2026-01-27 12:42:59.15	42.06	12.66	-38.4	-39.4	22.5	0.00e+00	0	31	0	317718528	50	5979
2026-01-27 12:43:03.19	42.69	12.90	-38.3	-39.3	22.6	0.00e+00	0	32	0	325058560	50	5960
2026-01-27 12:43:07.22	43.32	13.14	-37.7	-38.6	23.2	0.00e+00	0	32	0	332398592	50	5488
2026-01-27 12:43:11.26	43.97	13.38	-38.1	-39.0	22.7	0.00e+00	0	32	0	340787200	48	6451
2026-01-27 12:43:15.30	44.62	13.62	-38.3	-39.3	22.6	0.00e+00	0	32	0	348127232	48	6687
2026-01-27 12:43:19.34	45.29	13.86	-38.0	-39.0	22.9	0.00e+00	0	32	0	355467264	48	6396
2026-01-27 12:43:23.38	45.96	14.09	-37.7	-38.6	23.1	0.00e+00	0	32	0	362807296	48	6159
2026-01-27 12:43:27.42	46.65	14.33	-37.7	-38.6	23.2	0.00e+00	0	32	0	371195904	48	6163
2026-01-27 12:43:31.46	47.35	14.56	-38.2	-39.2	22.5	0.00e+00	0	32	0	378535936	48	6610
2026-01-27 12:43:35.50	48.06	14.79	-38.0	-39.0	22.8	0.00e+00	0	32	0	385875968	48	6462
2026-01-27 12:43:39.54	48.78	15.02	-38.1	-39.1	22.8	0.00e+00	0	32	0	393216000	48	6496
2026-01-27 12:43:43.57	49.50	15.24	-37.9	-38.9	22.9	0.00e+00	0	32	0	400556032	48	6322
2026-01-27 12:43:47.61	50.25	15.47	-38.6	-39.6	22.1	0.00e+00	0	32	0	408944640	48	6902
2026-01-27 12:43:51.65	51.00	15.69	-38.4	-39.4	22.5	0.00e+00	0	32	0	416284672	48	6746
2026-01-27 12:43:55.69	51.76	15.91	-38.8	-39.9	22.2	0.00e+00	0	32	0	423624704	50	6344
2026-01-27 12:43:59.72	52.53	16.13	-38.9	-40.0	22.1	0.00e+00	0	32	0	430964736	50	6443
2026-01-27 12:44:03.77	53.32	16.34	-38.8	-39.9	22.2	0.00e+00	0	32	0	439353344	50	6329
2026-01-27 12:44:07.80	54.11	16.55	-38.8	-39.8	22.3	0.00e+00	0	32	0	446693376	50	6286
2026-01-27 12:44:11.84	54.92	16.76	-39.3	-40.4	21.7	0.00e+00	0	32	0	454033408	50	6752
2026-01-27 12:44:15.88	55.73	16.96	-39.1	-40.2	21.9	0.00e+00	0	32	0	461373440	50	6571
2026-01-27 12:44:19.91	56.56	17.16	-39.4	-40.5	21.6	0.00e+00	0	32	0	468713472	50	6830
2026-01-27 12:44:23.95	57.40	17.35	-39.8	-40.9	21.3	0.00e+00	0	32	0	477102080	52	6386
2026-01-27 12:44:27.99	58.24	17.55	-38.8	-39.9	22.2	0.00e+00	0	32	0	484442112	52	5635
2026-01-27 12:44:32.03	59.10	17.73	-38.8	-39.9	22.1	0.00e+00	0	32	0	491782144	50	6336
2026-01-27 12:44:36.07	59.97	17.91	-38.5	-39.5	22.5	0.00e+00	0	32	0	499122176	50	6089
2026-01-27 12:44:40.11	60.85	18.09	-39.0	-40.1	21.8	0.00e+00	0	32	0	507510784	50	6496
2026-01-27 12:44:44.14	61.74	18.26	-37.9	-38.8	23.0	0.00e+00	0	32	0	514850816	50	5607
2026-01-27 12:44:48.18	62.64	18.43	-38.2	-39.2	22.7	0.00e+00	0	32	0	522190848	48	6558
2026-01-27 12:44:52.22	63.55	18.58	-38.1	-39.1	22.9	0.00e+00	0	32	0	529530880	48	6490
2026-01-27 12:44:56.25	64.46	18.74	-37.7	-38.7	23.1	0.00e+00	0	32	0	536870912	48	6177
2026-01-27 12:45:00.29	65.39	18.89	-37.0	-37.8	23.7	0.00e+00	0	32	0	545259520	48	5617
2026-01-27 12:45:04.33	66.33	19.03	-37.6	-38.5	23.3	0.00e+00	0	32	0	552599552	46	6793
2026-01-27 12:45:08.37	67.27	19.16	-37.2	-38.1	23.5	0.00e+00	0	32	0	559939584	48	5767
2026-01-27 12:45:12.40	68.22	19.29	-37.6	-38.6	23.2	0.00e+00	0	32	0	567279616	48	6127
2026-01-27 12:45:16.44	69.18	19.41	-37.2	-38.0	23.6	0.00e+00	0	32	0	575668224	48	5750
2026-01-27 12:45:20.48	70.15	19.52	-37.4	-38.3	23.4	0.00e+00	0	32	0	583008256	48	5924
2026-01-27 12:45:24.52	71.12	19.62	-37.3	-38.2	23.6	0.00e+00	0	32	0	590348288	48	5844
2026-01-27 12:45:28.56	72.10	19.72	-38.2	-39.2	22.7	0.00e+00	0	32	0	597688320	48	6581
2026-01-27 12:45:32.60	73.08	19.81	-38.5	-39.6	22.3	0.00e+00	0	32	0	605028352	48	6852
2026-01-27 12:45:36.64	74.08	19.89	-38.4	-39.3	22.7	0.00e+00	0	32	0	613416960	48	6674
2026-01-27 12:45:40.68	75.07	19.97	-37.7	-38.7	23.2	0.00e+00	0	32	0	620756992	48	6180
2026-01-27 12:45:44.72	76.07	20.03	-37.6	-38.5	23.2	0.00e+00	0	32	0	628097024	48	6085
2026-01-27 12:45:48.76	77.08	20.09	-37.9	-38.8	23.1	0.00e+00	0	32	0	635437056	48	6289
2026-01-27 12:45:52.80	78.08	20.13	-38.6	-39.6	22.4	0.00e+00	0	32	0	643825664	48	6925
2026-01-27 12:45:56.85	79.10	20.17	-38.8	-39.8	22.2	0.00e+00	0	32	0	651165696	50	6277
2026-01-27 12:46:00.89	80.11	20.20	-38.3	-39.3	22.7	0.00e+00	0	32	0	658505728	50	5899
2026-01-27 12:46:04.92	81.12	20.22	-38.5	-39.5	22.4	0.00e+00	0	32	0	665845760	50	6100
2026-01-27 12:46:08.96	82.14	20.24	-38.3	-39.3	22.7	0.00e+00	0	32	0	673185792	50	5918
2026-01-27 12:46:13.00	83.16	20.24	-38.9	-40.0	22.2	0.00e+00	0	32	0	681574400	50	6415
2026-01-27 12:46:17.04	84.17	20.24	-38.8	-39.8	22.2	0.00e+00	0	32	0	688914432	50	6314
2026-01-27 12:46:21.08	85.19	20.22	-38.9	-40.0	22.2	0.00e+00	0	32	0	696254464	52	5699
2026-01-27 12:46:25.12	86.20	20.20	-38.3	-39.3	22.9	0.00e+00	0	32	0	703594496	50	5930
2026-01-27 12:46:29.16	87.22	20.17	-37.8	-38.8	23.1	0.00e+00	0	32	0	711983104	48	6253
2026-01-27 12:46:33.19	88.23	20.12	-38.3	-39.3	22.6	0.00e+00	0	32	0	719323136	48	6676
2026-01-27 12:46:37.23	89.23	20.08	-38.3	-39.2	22.7	0.00e+00	0	32	0	726663168	48	6608
2026-01-27 12:46:41.27	90.24	20.02	-38.3	-39.3	22.7	0.00e+00	0	32	0	734003200	48	6619
2026-01-27 12:46:45.31	91.24	19.95	-38.0	-39.0	23.0	0.00e+00	0	32	0	741343232	48	6442
2026-01-27 12:46:49.34	92.23	19.88	-37.8	-38.8	23.0	0.00e+00	0	32	0	749731840	48	6278
2026-01-27 12:46:53.39	93.23	19.79	-38.1	-39.0	22.8	0.00e+00	0	32	0	757071872	48	6460
2026-01-27 12:46:57.43	94.21	19.70	-38.6	-39.7	22.5	0.00e+00	0	32	0	764411904	50	6192
2026-01-27 12:47:01.47	95.20	19.60	-38.3	-39.3	22.5	0.00e+00	0	32	0	771751936	50	5904
2026-01-27 12:47:05.50	96.17	19.50	-37.5	-38.4	23.4	0.00e+00	0	32	0	780140544	48	5994
2026-01-27 12:47:09.54	97.13	19.38	-37.5	-38.4	23.3	0.00e+00	0	32	0	787480576	48	6032
2026-01-27 12:47:13.58	98.09	19.26	-37.7	-38.6	23.2	0.00e+00	0	32	0	794820608	48	6140
2026-01-27 12:47:17.62	99.05	19.13	-37.6	-38.5	23.2	0.00e+00	0	32	0	802160640	48	6084
2026-01-27 12:47:21.66	99.99	18.99	-37.1	-38.0	23.8	0.00e+00	0	32	0	809500672	48	5731
2026-01-27 12:47:25.70	100.93	18.85	-37.3	-38.2	23.5	0.00e+00	0	32	0	817889280	48	5892
2026-01-27 12:47:29.74	101.85	18.70	-37.3	-38.2	23.5	0.00e+00	0	32	0	825229312	48	5852
2026-01-27 12:47:33.78	102.77	18.55	-37.8	-38.8	23.1	0.00e+00	0	32	0	832569344	48	6256
2026-01-27 12:47:37.82	103.68	18.38	-37.7	-38.7	23.1	0.00e+00	0	32	0	839909376	48	6212
2026-01-27 12:47:41.86	104.58	18.22	-37.4	-38.4	23.2	0.00e+00	0	32	0	848297984	48	6032
2026-01-27 12:47:45.90	105.47	18.04	-38.1	-39.1	22.8	0.00e+00	0	32	0	855638016	48	6500
2026-01-27 12:47:49.93	106.35	17.87	-38.5	-39.6	22.0	0.00e+00	0	32	0	862978048	48	6887
2026-01-27 12:47:53.97	107.22	17.68	-38.6	-39.7	22.2	0.00e+00	0	32	0	870318080	48	6969
2026-01-27 12:47:58.01	108.08	17.49	-38.0	-39.0	22.8	0.00e+00	0	32	0	877658112	50	5744
2026-01-27 12:48:02.04	108.92	17.30	-38.3	-39.3	22.5	0.00e+00	0	32	0	886046720	50	5956
2026-01-27 12:48:06.08	109.76	17.10	-38.9	-40.0	22.0	0.00e+00	0	32	0	893386752	50	6418
2026-01-27 12:48:10.12	110.59	16.90	-38.6	-39.7	22.3	0.00e+00	0	32	0	900726784	50	6179
2026-01-27 12:48:14.15	111.41	16.70	-38.7	-39.8	22.1	0.00e+00	0	32	0	908066816	50	6292
2026-01-27 12:48:18.20	112.21	16.49	-38.3	-39.3	22.6	0.00e+00	0	32	0	916455424	50	5912
2026-01-27 12:48:22.24	113.01	16.28	-39.4	-40.6	21.5	0.00e+00	0	32	0	923795456	50	6894
2026-01-27 12:48:26.28	113.79	16.06	-39.2	-40.4	21.7	0.00e+00	0	32	0	931135488	52	5967
2026-01-27 12:48:30.32	114.57	15.84	-38.8	-39.9	22.1	0.00e+00	0	32	0	938475520	50	6333
2026-01-27 12:48:34.35	115.33	15.62	-38.5	-39.5	22.4	0.00e+00	0	32	0	945815552	50	6072
2026-01-27 12:48:38.39	116.08	15.40	-38.5	-39.5	22.2	0.00e+00	0	32	0	954204160	50	6091
2026-01-27 12:48:42.43	116.82	15.17	-38.8	-39.9	22.1	0.00e+00	0	32	0	961544192	50	6327
2026-01-27 12:48:46.47	117.55	14.94	-38.6	-39.6	22.3	0.00e+00	0	32	0	968884224	50	6154
2026-01-27 12:48:50.51	118.27	14.71	-38.8	-40.0	21.9	0.00e+00	0	32	0	976224256	50	6421
2026-01-27 12:48:54.54	118.98	14.48	-38.6	-39.7	22.2	0.00e+00	0	32	0	984612864	50	6205
2026-01-27 12:48:58.58	119.67	14.24	-38.7	-39.9	22.0	0.00e+00	0	32	0	991952896	50	6318
2026-01-27 12:49:02.62	120.36	14.01	-38.3	-39.3	22.6	0.00e+00	0	32	0	999292928	50	5954
2026-01-27 12:49:06.66	121.04	13.77	-37.9	-38.9	22.9	0.00e+00	0	32	0	1006632960	48	6322
2026-01-27 12:49:10.70	121.70	13.53	-39.0	-40.1	21.9	0.00e+00	0	32	0	1013972992	50	6502
2026-01-27 12:49:14.74	122.36	13.29	-38.6	-39.7	22.2	0.00e+00	0	32	0	1022361600	50	6223
2026-01-27 12:49:18.78	123.00	13.05	-37.4	-38.3	23.3	0.00e+00	0	32	0	1029701632	48	5934
2026-01-27 12:49:22.82	123.64	12.81	-37.7	-38.7	23.0	0.00e+00	0	32	0	1037041664	48	6192
2026-01-27 12:49:26.86	124.26	12.56	-37.8	-38.7	23.0	0.00e+00	0	32	0	1044381696	48	6210
2026-01-27 12:49:30.89	124.88	12.32	-37.9	-38.9	22.8	0.00e+00	0	32	0	1052770304	48	6340
2026-01-27 12:49:34.93	125.48	12.08	-38.6	-39.7	22.2	0.00e+00	0	32	0	1060110336	48	6952
2026-01-27 12:49:38.97	126.08	11.83	-38.6	-39.6	22.1	0.00e+00	0	32	0	1067450368	50	6155
2026-01-27 12:49:43.01	126.67	11.59	-38.6	-39.7	22.2	0.00e+00	0	32	0	1074790400	50	6188
2026-01-27 12:49:47.05	127.24	11.34	-39.0	-40.1	21.9	0.00e+00	0	32	0	1082130432	50	6488
2026-01-27 12:49:51.09	127.81	11.10	-37.7	-38.7	22.9	0.00e+00	0	32	0	1090519040	50	5516
2026-01-27 12:49:55.12	128.37	10.86	-37.8	-38.8	22.9	0.00e+00	0	32	0	1097859072	48	6283
2026-01-27 12:49:59.16	128.92	10.61	-38.1	-39.1	22.6	0.00e+00	0	32	0	1105199104	48	6485
2026-01-27 12:50:03.19	129.46	10.37	-38.7	-39.7	22.1	0.00e+00	0	32	0	1112539136	48	6990
2026-01-27 12:50:07.23	129.99	10.12	-38.8	-39.9	21.9	0.00e+00	0	32	0	1120927744	50	6352
2026-01-27 12:50:11.27	130.51	9.88	-39.2	-40.3	21.6	0.00e+00	0	32	0	1128267776	50	6686
2026-01-27 12:50:15.30	131.03	9.64	-38.6	-39.7	21.7	0.00e+00	0	32	0	1135607808	50	6182
2026-01-27 12:50:19.34	131.54	9.39	-38.0	-38.9	22.6	0.00e+00	0	32	0	1142947840	50	5690
2026-01-27 12:50:23.38	132.04	9.15	-38.1	-39.0	22.1	0.00e+00	0	32	0	1150287872	48	6449
2026-01-27 12:50:27.42	132.53	8.91	-39.2	-40.3	21.6	0.00e+00	0	32	0	1158676480	50	6641
2026-01-27 12:50:31.46	133.01	8.67	-39.4	-40.5	21.2	0.00e+00	0	32	0	1166016512	50	6833
2026-01-27 12:50:35.49	133.49	8.43	-40.2	-41.5	20.4	0.00e+00	0	32	0	1173356544	52	6826
2026-01-27 12:50:39.53	133.96	8.19	-40.4	-41.7	20.1	0.00e+00	0	32	0	1180696576	52	6980
2026-01-27 12:50:43.57	134.42	7.95	-40.5	-41.9	20.0	0.00e+00	0	32	0	1188036608	54	6361
2026-01-27 12:50:47.61	134.87	7.71	-39.4	-40.7	21.0	0.00e+00	0	32	0	1196425216	52	6235
2026-01-27 12:50:51.65	135.32	7.47	-39.6	-40.8	21.0	0.00e+00	0	32	0	1203765248	52	6296
2026-01-27 12:50:55.69	135.76	7.23	-39.8	-41.0	20.8	0.00e+00	0	32	0	1211105280	52	6435
2026-01-27 12:50:59.73	136.19	7.00	-39.5	-40.7	21.0	0.00e+00	0	32	0	1218445312	52	6201
2026-01-27 12:51:03.77	136.62	6.76	-39.1	-40.3	21.3	0.00e+00	0	32	0	1226833920	52	5909
2026-01-27 12:51:07.81	137.04	6.53	-39.3	-40.4	21.2	0.00e+00	0	32	0	1234173952	52	6031
2026-01-27 12:51:11.86	137.45	6.29	-39.5	-40.8	20.9	0.00e+00	0	32	0	1241513984	52	6248
2026-01-27 12:51:15.90	137.86	6.06	-39.9	-41.3	20.4	0.00e+00	0	32	0	1248854016	52	6617
2026-01-27 12:51:19.93	138.26	5.83	-40.6	-42.1	19.5	0.00e+00	0	32	0	1256194048	52	7292
2026-01-27 12:51:23.98	138.66	5.60	-40.8	-42.4	19.0	0.00e+00	0	32	0	1264582656	54	6735
2026-01-27 12:51:28.02	139.05	5.37	-41.4	-43.3	17.9	0.00e+00	0	32	0	1271922688	54	7458
2026-01-27 12:51:32.05	139.43	5.14	-42.2	-44.5	16.3	0.00e+00	0	32	0	1279262720	56	7673
2026-01-27 12:51:36.09	139.81	4.91	-43.0	-46.8	12.4	1.82e-04	0	32	0	1286602752	58	8856
2026-01-27 12:51:40.13	140.18	4.68	-43.5	-49.0	8.2	4.45e-02	0	32	0	1294991360	58	11456
2026-01-27 12:51:44.17	140.54	4.45	-44.1	-51.3	5.4	4.12e-01	0	32	0	1302331392	60	13328
2026-01-27 12:51:48.21	140.91	4.23	-44.5	-52.5	5.4	5.13e-01	0	32	0	1309671424	60	15231
2026-01-27 12:51:52.25	141.26	4.00	-44.4	-52.1	6.4	2.65e-01	0	32	0	1317011456	60	14575
2026-01-27 12:51:56.28	141.61	3.78	-44.6	-51.4	7.6	1.01e-01	0	32	0	1324351488	60	13504
2026-01-27 12:52:00.32	141.96	3.56	-44.6	-50.1	9.7	1.90e-02	0	32	0	1332740096	60	11589
2026-01-27 12:52:04.36	142.30	3.34	-44.2	-48.8	11.5	2.08e-03	0	32	0	1340080128	60	9929
2026-01-27 12:52:08.40	142.63	3.12	-44.1	-48.2	12.2	1.57e-04	0	32	0	1347420160	60	9293
2026-01-27 12:52:12.44	142.97	2.90	-47.7	-63.3	3.6	1.51e+00	0	32	104	1351614464	60	52965
2026-01-27 12:52:16.47	143.29	2.68	-48.0	-63.9	3.6	1.51e+00	0	32	104	1351614464	60	56483
2026-01-27 12:52:20.51	143.61	2.46	-48.9	-64.1	3.6	1.51e+00	0	32	104	1351614464	60	57861
2026-01-27 12:52:24.55	143.93	2.24	-48.9	-64.2	3.6	1.51e+00	0	32	104	1351614464	60	58405
2026-01-27 12:52:28.59	144.24	2.03	-48.8	-64.1	3.6	1.51e+00	0	32	104	1351614464	60	58148
2026-01-27 12:52:32.63	144.55	1.81	-48.9	-64.1	3.6	1.51e+00	0	32	104	1351614464	60	58043
2026-01-27 12:52:36.67	144.86	1.60	-48.9	-64.0	3.6	1.51e+00	0	32	104	1351614464	60	57593
2026-01-27 12:52:40.71	145.16	1.39	-48.9	-64.1	3.6	1.51e+00	0	32	104	1351614464	60	57822
2026-01-27 12:52:44.75	145.45	1.18	-48.9	-64.1	3.6	1.51e+00	0	32	104	1351614464	60	57632
2026-01-27 12:52:48.78	145.75	0.97	-48.9	-64.1	3.6	1.51e+00	0	32	104	1351614464	60	57794
2026-01-27 12:52:52.82	146.04	0.76	-48.9	-64.1	3.6	1.51e+00	0	32	104	1351614464	60	57626
2026-01-27 12:52:56.86	146.32	0.55	-48.9	-64.1	3.6	1.51e+00	0	32	104	1351614464	60	57844
2026-01-27 12:53:00.90	146.60	0.34	-48.9	-64.1	3.6	1.51e+00	0	32	104	1351614464	60	57890
2026-01-27 12:53:04.94	146.88	0.13	-48.9	-64.1	3.6	1.51e+00	0	32	104	1351614464	60	57747

#Closed at: 2026-01-27 12:53:08
#Recorded file [1351 MB]: D:/lorett/data/35029_260128_003916.dat