passes_logs/2026/01/27/R4.6S_Anadyr/R4.6S_Anadyr__20260127_215123_KOSAR1-5_rec.log

#Pass ID: 20260127_215123_KOSAR1-5
#Satellite: KOSAR1-5
#Configuration: KOSAR1-5
#almurnet v.1.7.20251203
#Start time: 2026-01-27 21:51:26

#Version: 2.2.20231116
#Station: R4.6S_Anadyr
#Location: 177.4865 lon 64.73178 lat
#TLE: 1 67264U 25313S   26027.43234714  .00011684  00000+0  53854-3 0  9991
#TLE: 2 67264  97.4175 104.3970 0016458 139.6900 220.5558 15.20303503  4548

#Time	Az	El	Level	Level2	SNR	BER	BlckErr	Temp	State	Recorded	gain1	gain2
2026-01-27 21:51:26.63	23.53	0.18	-48.9	-50.5	5.7	0.00e+00	0	29	0	0	60	40971
2026-01-27 21:51:29.58	23.81	0.34	-45.6	-60.3	3.6	1.51e+00	0	31	104	0	60	42156
2026-01-27 21:51:32.52	24.09	0.50	-45.7	-60.4	3.6	1.51e+00	0	31	104	0	60	42341
2026-01-27 21:51:35.47	24.37	0.66	-45.6	-60.3	3.6	1.51e+00	0	31	104	0	60	42080
2026-01-27 21:51:38.41	24.66	0.82	-45.5	-60.2	3.6	1.51e+00	0	31	104	0	60	41502
2026-01-27 21:51:41.35	24.95	0.98	-45.3	-60.0	3.6	1.51e+00	0	31	104	0	60	40648
2026-01-27 21:51:44.29	25.24	1.14	-44.9	-59.7	3.6	1.51e+00	0	31	104	0	60	39186
2026-01-27 21:51:47.22	25.54	1.30	-44.4	-59.1	3.6	1.51e+00	0	31	104	0	60	36558
2026-01-27 21:51:50.15	25.84	1.46	-44.1	-58.8	3.6	1.51e+00	0	31	104	0	60	35410
2026-01-27 21:51:53.09	26.15	1.63	-44.1	-58.9	3.6	1.51e+00	0	31	104	0	60	35530
2026-01-27 21:51:56.03	26.46	1.79	-44.1	-58.9	3.6	1.51e+00	0	31	104	0	60	35661
2026-01-27 21:51:58.98	26.77	1.96	-44.1	-58.9	3.6	1.51e+00	0	31	104	0	60	35675
2026-01-27 21:52:01.92	27.09	2.12	-44.1	-58.8	3.6	1.51e+00	0	31	104	0	60	35468
2026-01-27 21:52:04.87	27.42	2.29	-44.1	-58.8	3.6	1.51e+00	0	31	104	0	60	35451
2026-01-27 21:52:07.82	27.75	2.46	-44.1	-58.8	3.6	1.51e+00	0	31	104	0	60	35413
2026-01-27 21:52:10.77	28.08	2.63	-44.0	-58.8	3.6	1.51e+00	0	31	104	0	60	35410
2026-01-27 21:52:13.69	28.42	2.79	-44.0	-58.8	3.6	1.51e+00	0	31	104	0	60	35471
2026-01-27 21:52:16.64	28.76	2.96	-44.0	-58.8	3.6	1.51e+00	0	31	104	0	60	35279
2026-01-27 21:52:19.58	29.11	3.13	-44.0	-58.8	3.6	1.51e+00	0	31	104	0	60	35396
2026-01-27 21:52:22.52	29.46	3.30	-44.1	-58.9	3.6	1.51e+00	0	31	104	0	60	35632
2026-01-27 21:52:25.46	29.82	3.47	-44.1	-58.9	3.6	1.51e+00	0	31	104	0	60	35812
2026-01-27 21:52:28.39	30.18	3.64	-44.3	-59.1	3.6	1.51e+00	0	31	104	0	60	36384
2026-01-27 21:52:31.33	30.55	3.82	-44.0	-58.9	3.6	1.51e+00	0	31	104	0	60	35793
2026-01-27 21:52:34.27	30.92	3.99	-44.1	-59.0	3.6	1.51e+00	0	31	104	0	60	35994
2026-01-27 21:52:37.21	31.30	4.16	-44.2	-59.1	3.6	1.51e+00	0	31	104	0	60	36520
2026-01-27 21:52:40.14	31.68	4.34	-44.4	-59.2	3.6	1.51e+00	0	31	104	0	60	36872
2026-01-27 21:52:43.07	32.07	4.51	-44.0	-58.8	3.6	1.51e+00	0	32	104	0	60	35421
2026-01-27 21:52:46.01	32.47	4.69	-44.2	-59.1	3.6	1.51e+00	0	32	104	0	60	36671
2026-01-27 21:52:48.95	32.87	4.86	-44.2	-59.3	3.6	1.51e+00	0	32	104	0	60	37222
2026-01-27 21:52:51.89	33.27	5.04	-44.6	-59.3	3.6	1.51e+00	0	32	104	0	60	37331
2026-01-27 21:52:54.82	33.69	5.21	-44.2	-59.2	3.6	1.51e+00	0	32	104	0	60	36810
2026-01-27 21:52:57.75	34.11	5.39	-44.3	-59.2	3.6	1.51e+00	0	32	104	0	60	37097
2026-01-27 21:53:00.69	34.53	5.57	-44.6	-59.3	3.6	1.51e+00	0	31	104	0	60	37498
2026-01-27 21:53:03.64	34.97	5.75	-44.6	-59.3	3.6	1.51e+00	0	32	104	0	60	37466
2026-01-27 21:53:06.58	35.41	5.93	-44.6	-59.3	3.6	1.51e+00	0	32	104	0	60	37345
2026-01-27 21:53:09.52	35.85	6.11	-44.6	-59.3	3.6	1.51e+00	0	32	104	0	60	37461
2026-01-27 21:53:12.46	36.31	6.29	-44.7	-59.4	3.6	1.51e+00	0	31	104	0	60	37867
2026-01-27 21:53:15.40	36.77	6.47	-44.6	-59.3	3.6	1.51e+00	0	32	104	0	60	37620
2026-01-27 21:53:18.34	37.23	6.65	-44.6	-59.4	3.6	1.51e+00	0	32	104	0	60	37795
2026-01-27 21:53:21.27	37.71	6.83	-44.6	-59.5	3.6	1.51e+00	0	32	104	0	60	38114
2026-01-27 21:53:24.21	38.19	7.01	-44.7	-59.4	3.6	1.51e+00	0	32	104	0	60	37977
2026-01-27 21:53:27.16	38.68	7.19	-44.7	-59.4	3.6	1.51e+00	0	32	104	0	60	37701
2026-01-27 21:53:30.10	39.18	7.38	-44.7	-59.4	3.6	1.51e+00	0	32	104	0	60	38048
2026-01-27 21:53:33.05	39.68	7.56	-44.2	-59.4	3.6	1.51e+00	0	32	104	0	60	38055
2026-01-27 21:53:35.99	40.20	7.74	-44.6	-59.5	3.6	1.51e+00	0	32	104	0	60	38221
2026-01-27 21:53:38.94	40.72	7.93	-44.3	-59.4	3.6	1.51e+00	0	32	104	0	60	37992
2026-01-27 21:53:41.88	41.25	8.11	-43.9	-59.4	3.6	1.51e+00	0	32	104	0	60	38031
2026-01-27 21:53:44.82	41.78	8.29	-44.8	-59.6	3.6	1.51e+00	0	32	104	0	60	38602
2026-01-27 21:53:47.76	42.33	8.47	-44.9	-59.5	3.6	1.51e+00	0	32	104	0	60	38347
2026-01-27 21:53:50.71	42.88	8.66	-44.8	-59.5	3.6	1.51e+00	0	32	104	0	60	38256
2026-01-27 21:53:53.66	43.45	8.84	-44.8	-59.5	3.6	1.51e+00	0	32	104	0	60	38458
2026-01-27 21:53:56.60	44.02	9.02	-44.8	-59.6	3.6	1.51e+00	0	32	104	0	60	38560
2026-01-27 21:53:59.53	44.59	9.20	-44.9	-59.6	3.6	1.51e+00	0	32	104	0	60	38706
2026-01-27 21:54:02.46	45.18	9.38	-44.9	-59.6	3.6	1.51e+00	0	32	104	0	60	38834
2026-01-27 21:54:05.41	45.78	9.56	-44.7	-59.6	3.6	1.51e+00	0	32	104	0	60	38929
2026-01-27 21:54:08.34	46.38	9.74	-44.9	-59.7	3.6	1.51e+00	0	32	104	0	60	39209
2026-01-27 21:54:11.28	47.00	9.92	-44.4	-59.6	3.6	1.51e+00	0	32	104	0	60	38588
2026-01-27 21:54:14.22	47.62	10.10	-44.7	-59.6	3.6	1.51e+00	0	32	104	0	60	38872
2026-01-27 21:54:17.16	48.25	10.28	-43.8	-59.7	3.6	1.51e+00	0	32	104	0	60	39047
2026-01-27 21:54:20.09	48.89	10.46	-45.0	-59.7	3.6	1.51e+00	0	32	104	0	60	39110
2026-01-27 21:54:23.03	49.55	10.63	-44.2	-59.6	3.6	1.51e+00	0	32	104	0	60	38755
2026-01-27 21:54:25.96	50.21	10.80	-44.6	-59.7	3.6	1.51e+00	0	32	104	0	60	39129
2026-01-27 21:54:28.89	50.88	10.98	-44.4	-59.7	3.6	1.51e+00	0	32	104	0	60	39321
2026-01-27 21:54:31.83	51.56	11.15	-44.9	-59.8	3.6	1.51e+00	0	32	104	0	60	39427
2026-01-27 21:54:34.78	52.25	11.32	-43.7	-59.7	3.6	1.51e+00	0	32	104	0	60	39104
2026-01-27 21:54:37.72	52.95	11.49	-45.0	-59.8	3.6	1.51e+00	0	32	104	0	60	39437
2026-01-27 21:54:40.65	53.66	11.65	-45.1	-59.8	3.6	1.51e+00	0	32	104	0	60	39572
2026-01-27 21:54:43.58	54.37	11.82	-45.0	-59.7	3.6	1.51e+00	0	32	104	0	60	39380
2026-01-27 21:54:46.52	55.10	11.98	-45.0	-59.7	3.6	1.51e+00	0	32	104	0	60	39155
2026-01-27 21:54:49.46	55.84	12.14	-44.2	-59.7	3.6	1.51e+00	0	32	104	0	60	39402
2026-01-27 21:54:52.40	56.59	12.30	-44.4	-59.8	3.6	1.51e+00	0	32	104	0	60	39593
2026-01-27 21:54:55.32	57.34	12.45	-44.0	-59.8	3.6	1.51e+00	0	32	104	0	60	39434
2026-01-27 21:54:58.25	58.11	12.61	-45.1	-59.8	3.6	1.51e+00	0	32	104	0	60	39476
2026-01-27 21:55:01.18	58.88	12.76	-45.0	-59.8	3.6	1.51e+00	0	32	104	0	60	39534
2026-01-27 21:55:04.12	59.67	12.90	-44.3	-59.8	3.6	1.51e+00	0	32	104	0	60	39669
2026-01-27 21:55:07.05	60.47	13.05	-44.3	-59.8	3.6	1.51e+00	0	32	104	0	60	39488
2026-01-27 21:55:10.00	61.27	13.19	-44.4	-59.7	3.6	1.51e+00	0	32	104	0	60	39391
2026-01-27 21:55:12.93	62.09	13.32	-44.1	-59.8	3.6	1.51e+00	0	32	104	0	60	39725
2026-01-27 21:55:15.87	62.91	13.46	-43.5	-59.9	3.6	1.51e+00	0	32	104	0	60	39893
2026-01-27 21:55:18.80	63.74	13.59	-44.6	-59.8	3.6	1.51e+00	0	32	104	0	60	39478
2026-01-27 21:55:21.74	64.58	13.71	-45.0	-59.8	3.6	1.51e+00	0	32	104	0	60	39534
2026-01-27 21:55:24.66	65.42	13.83	-45.1	-59.8	3.6	1.51e+00	0	32	104	0	60	39681
2026-01-27 21:55:27.60	66.28	13.95	-44.9	-59.8	3.6	1.51e+00	0	32	104	0	60	39716
2026-01-27 21:55:30.54	67.14	14.06	-44.5	-59.7	3.6	1.51e+00	0	32	104	0	60	39381
2026-01-27 21:55:33.48	68.02	14.17	-43.9	-59.8	3.6	1.51e+00	0	32	104	0	60	39518
2026-01-27 21:55:36.41	68.90	14.27	-44.8	-59.8	3.6	1.51e+00	0	32	104	0	60	39685
2026-01-27 21:55:39.36	69.79	14.37	-44.8	-59.8	3.6	1.51e+00	0	32	104	0	60	39852
2026-01-27 21:55:42.30	70.68	14.46	-42.9	-59.8	3.6	1.51e+00	0	32	104	0	60	39456
2026-01-27 21:55:45.24	71.58	14.55	-45.0	-59.8	3.6	1.51e+00	0	32	104	0	60	39628
2026-01-27 21:55:48.18	72.49	14.63	-45.0	-59.9	3.6	1.51e+00	0	32	104	0	60	39881
2026-01-27 21:55:51.13	73.41	14.71	-44.5	-59.8	3.6	1.51e+00	0	32	104	0	60	39732
2026-01-27 21:55:54.07	74.32	14.78	-44.7	-59.9	3.6	1.51e+00	0	32	104	0	60	39887
2026-01-27 21:55:57.01	75.25	14.85	-44.7	-59.9	3.6	1.51e+00	0	32	104	0	60	39998
2026-01-27 21:55:59.94	76.17	14.91	-45.0	-59.9	3.6	1.51e+00	0	32	104	0	60	39935
2026-01-27 21:56:02.89	77.11	14.96	-44.7	-59.9	3.6	1.51e+00	0	32	104	0	60	39866
2026-01-27 21:56:05.82	78.04	15.01	-44.8	-59.8	3.6	1.51e+00	0	32	104	0	60	39713
2026-01-27 21:56:08.76	78.98	15.05	-45.0	-59.9	3.6	1.51e+00	0	32	104	0	60	39960
2026-01-27 21:56:11.70	79.92	15.08	-44.4	-59.9	3.6	1.51e+00	0	32	104	0	60	40190
2026-01-27 21:56:14.64	80.87	15.11	-44.8	-59.8	3.6	1.51e+00	0	32	104	0	60	39840
2026-01-27 21:56:17.59	81.82	15.13	-44.7	-59.8	3.6	1.51e+00	0	32	104	0	60	39827
2026-01-27 21:56:20.52	82.76	15.15	-45.1	-59.9	3.6	1.51e+00	0	32	104	0	60	39931
2026-01-27 21:56:23.46	83.71	15.15	-45.0	-59.8	3.6	1.51e+00	0	32	104	0	60	39819
2026-01-27 21:56:26.40	84.66	15.16	-44.8	-59.9	3.6	1.51e+00	0	32	104	0	60	39878
2026-01-27 21:56:29.35	85.62	15.15	-44.9	-59.8	3.6	1.51e+00	0	32	104	0	60	39740
2026-01-27 21:56:32.29	86.57	15.14	-44.5	-59.9	3.6	1.51e+00	0	32	104	0	60	39977
2026-01-27 21:56:35.21	87.51	15.12	-45.0	-59.8	3.6	1.51e+00	0	32	104	0	60	39677
2026-01-27 21:56:38.15	88.46	15.10	-45.1	-59.8	3.6	1.51e+00	0	32	104	0	60	39703
2026-01-27 21:56:41.09	89.40	15.07	-45.1	-59.8	3.6	1.51e+00	0	32	104	0	60	39701
2026-01-27 21:56:44.03	90.35	15.03	-45.0	-59.8	3.6	1.51e+00	0	32	104	0	60	39824
2026-01-27 21:56:46.97	91.29	14.99	-44.8	-59.8	3.6	1.51e+00	0	32	104	0	60	39513
2026-01-27 21:56:49.91	92.22	14.94	-44.5	-59.8	3.6	1.51e+00	0	32	104	0	60	39711
2026-01-27 21:56:52.85	93.16	14.89	-44.4	-59.8	3.6	1.51e+00	0	32	104	0	60	39631
2026-01-27 21:56:55.79	94.09	14.82	-45.0	-59.8	3.6	1.51e+00	0	32	104	0	60	39812
2026-01-27 21:56:58.74	95.01	14.76	-44.9	-59.8	3.6	1.51e+00	0	32	104	0	60	39481
2026-01-27 21:57:01.66	95.93	14.68	-45.0	-59.8	3.6	1.51e+00	0	32	104	0	60	39540
2026-01-27 21:57:04.60	96.84	14.61	-45.0	-59.8	3.6	1.51e+00	0	32	104	0	60	39825
2026-01-27 21:57:07.54	97.75	14.52	-44.9	-59.8	3.6	1.51e+00	0	32	104	0	60	39530
2026-01-27 21:57:10.47	98.65	14.43	-44.9	-59.8	3.6	1.51e+00	0	32	104	0	60	39517
2026-01-27 21:57:13.40	99.54	14.34	-44.7	-59.8	3.6	1.51e+00	0	32	104	0	60	39564
2026-01-27 21:57:16.33	100.43	14.24	-44.9	-59.8	3.6	1.51e+00	0	32	104	0	60	39658
2026-01-27 21:57:19.27	101.31	14.13	-44.9	-59.7	3.6	1.51e+00	0	32	104	0	60	39203
2026-01-27 21:57:22.22	102.19	14.02	-44.9	-59.7	3.6	1.51e+00	0	32	104	0	60	39329
2026-01-27 21:57:25.16	103.06	13.91	-44.9	-59.7	3.6	1.51e+00	0	32	104	0	60	39356
2026-01-27 21:57:28.10	103.92	13.79	-44.9	-59.8	3.6	1.51e+00	0	32	104	0	60	39533
2026-01-27 21:57:31.05	104.77	13.66	-44.9	-59.7	3.6	1.51e+00	0	32	104	0	60	39200
2026-01-27 21:57:33.98	105.61	13.53	-44.8	-59.7	3.6	1.51e+00	0	32	104	0	60	39259
2026-01-27 21:57:36.92	106.45	13.40	-44.5	-59.7	3.6	1.51e+00	0	32	104	0	60	38984
2026-01-27 21:57:39.87	107.28	13.27	-44.7	-59.6	3.6	1.51e+00	0	32	104	0	60	38912
2026-01-27 21:57:42.81	108.09	13.13	-44.7	-59.7	3.6	1.51e+00	0	32	104	0	60	39033
2026-01-27 21:57:45.74	108.90	12.98	-44.7	-59.7	3.6	1.51e+00	0	32	104	0	60	39074
2026-01-27 21:57:48.69	109.70	12.84	-44.9	-59.7	3.6	1.51e+00	0	32	104	0	60	39035
2026-01-27 21:57:51.65	110.49	12.69	-44.9	-59.6	3.5	1.51e+00	0	32	104	0	60	38779
2026-01-27 21:57:54.60	111.28	12.53	-44.6	-59.6	3.6	1.51e+00	0	32	104	0	60	38713
2026-01-27 21:57:57.55	112.05	12.38	-44.8	-59.6	3.6	1.51e+00	0	32	104	0	60	38751
2026-01-27 21:58:00.49	112.81	12.22	-44.9	-59.6	3.6	1.51e+00	0	32	104	0	60	38897
2026-01-27 21:58:03.43	113.56	12.06	-44.8	-59.6	3.6	1.51e+00	0	32	104	0	60	38701
2026-01-27 21:58:06.37	114.30	11.90	-44.8	-59.5	3.6	1.51e+00	0	32	104	0	60	38500
2026-01-27 21:58:09.31	115.03	11.73	-44.9	-59.6	3.6	1.51e+00	0	32	104	0	60	38789
2026-01-27 21:58:12.25	115.75	11.56	-44.8	-59.6	3.6	1.51e+00	0	32	104	0	60	38829
2026-01-27 21:58:15.19	116.47	11.39	-44.8	-59.6	3.6	1.51e+00	0	32	104	0	60	38520
2026-01-27 21:58:18.13	117.17	11.22	-44.8	-59.6	3.6	1.51e+00	0	32	104	0	60	38558
2026-01-27 21:58:21.08	117.86	11.05	-44.8	-59.5	3.6	1.51e+00	0	32	104	0	60	38405
2026-01-27 21:58:24.02	118.55	10.88	-44.8	-59.6	3.6	1.51e+00	0	32	104	0	60	38621
2026-01-27 21:58:26.96	119.22	10.70	-44.8	-59.5	3.6	1.51e+00	0	32	104	0	60	38233
2026-01-27 21:58:29.90	119.88	10.52	-44.8	-59.6	3.5	1.51e+00	0	32	104	0	60	38528
2026-01-27 21:58:32.85	120.54	10.34	-44.8	-59.5	3.6	1.51e+00	0	32	104	0	60	38409
2026-01-27 21:58:35.79	121.18	10.16	-44.8	-59.5	3.6	1.51e+00	0	32	104	0	60	38285
2026-01-27 21:58:38.73	121.82	9.98	-44.8	-59.5	3.6	1.51e+00	0	32	104	0	60	38242
2026-01-27 21:58:41.68	122.45	9.80	-44.8	-59.5	3.6	1.51e+00	0	32	104	0	60	38133
2026-01-27 21:58:44.60	123.06	9.62	-44.8	-59.5	3.5	1.51e+00	0	32	104	0	60	38210
2026-01-27 21:58:47.55	123.67	9.44	-44.7	-59.5	3.6	1.51e+00	0	32	104	0	60	38094
2026-01-27 21:58:50.49	124.27	9.26	-44.7	-59.4	3.6	1.51e+00	0	32	104	0	60	37997
2026-01-27 21:58:53.44	124.86	9.07	-44.6	-59.4	3.6	1.51e+00	0	32	104	0	60	37972
2026-01-27 21:58:56.37	125.44	8.89	-44.7	-59.5	3.6	1.51e+00	0	32	104	0	60	38170
2026-01-27 21:58:59.32	126.01	8.70	-44.5	-59.4	3.6	1.51e+00	0	32	104	0	60	37860
2026-01-27 21:59:02.25	126.57	8.52	-44.4	-59.4	3.6	1.51e+00	0	32	104	0	60	37806
2026-01-27 21:59:05.19	127.12	8.33	-44.7	-59.4	3.6	1.51e+00	0	32	104	0	60	37881
2026-01-27 21:59:08.12	127.67	8.15	-44.6	-59.4	3.6	1.51e+00	0	32	104	0	60	37867
2026-01-27 21:59:11.05	128.20	7.97	-44.5	-59.3	3.6	1.51e+00	0	32	104	0	60	37442
2026-01-27 21:59:13.99	128.73	7.78	-44.5	-59.3	3.6	1.51e+00	0	32	104	0	60	37604
2026-01-27 21:59:16.93	129.25	7.60	-44.6	-59.3	3.6	1.51e+00	0	32	104	0	60	37571
2026-01-27 21:59:19.87	129.77	7.41	-44.7	-59.3	3.6	1.51e+00	0	32	104	0	60	37565
2026-01-27 21:59:22.82	130.27	7.23	-44.5	-59.2	3.6	1.51e+00	0	32	104	0	60	37111
2026-01-27 21:59:25.76	130.77	7.04	-44.6	-59.3	3.6	1.51e+00	0	32	104	0	60	37349
2026-01-27 21:59:28.71	131.26	6.86	-44.5	-59.2	3.6	1.51e+00	0	32	104	0	60	37190
2026-01-27 21:59:31.65	131.75	6.67	-44.5	-59.2	3.6	1.51e+00	0	32	104	0	60	37169
2026-01-27 21:59:34.59	132.22	6.49	-44.5	-59.2	3.6	1.51e+00	0	32	104	0	60	36904
2026-01-27 21:59:37.52	132.69	6.31	-44.5	-59.2	3.6	1.51e+00	0	32	104	0	60	36979
2026-01-27 21:59:40.44	133.14	6.13	-44.5	-59.3	3.6	1.51e+00	0	32	104	0	60	37231
2026-01-27 21:59:43.38	133.60	5.94	-44.5	-59.1	3.6	1.51e+00	0	32	104	0	60	36718
2026-01-27 21:59:46.32	134.05	5.76	-44.5	-59.2	3.6	1.51e+00	0	32	104	0	60	36904
2026-01-27 21:59:49.26	134.49	5.58	-44.5	-59.1	3.6	1.51e+00	0	32	104	0	60	36643
2026-01-27 21:59:52.20	134.92	5.40	-44.5	-59.2	3.6	1.51e+00	0	32	104	0	60	36988
2026-01-27 21:59:55.14	135.35	5.22	-44.3	-59.0	3.6	1.51e+00	0	32	104	0	60	36317
2026-01-27 21:59:58.07	135.76	5.04	-44.4	-59.1	3.6	1.51e+00	0	32	104	0	60	36647
2026-01-27 22:00:01.02	136.18	4.86	-44.3	-59.0	3.6	1.51e+00	0	32	104	0	60	36236
2026-01-27 22:00:03.95	136.59	4.68	-44.4	-59.1	3.6	1.51e+00	0	32	104	0	60	36711
2026-01-27 22:00:06.88	136.99	4.51	-44.2	-58.9	3.6	1.51e+00	0	32	104	0	60	35544
2026-01-27 22:00:09.82	137.38	4.33	-44.2	-58.9	3.6	1.51e+00	0	32	104	0	60	35793
2026-01-27 22:00:12.75	137.77	4.15	-44.2	-58.9	3.6	1.51e+00	0	32	104	0	60	35849
2026-01-27 22:00:15.69	138.16	3.98	-44.2	-58.9	3.6	1.51e+00	0	32	104	0	60	35817
2026-01-27 22:00:18.63	138.53	3.80	-44.0	-58.7	3.6	1.51e+00	0	32	104	0	60	34936
2026-01-27 22:00:21.58	138.91	3.63	-43.9	-58.6	3.6	1.51e+00	0	32	104	0	60	34492
2026-01-27 22:00:24.51	139.27	3.45	-43.3	-58.1	3.6	1.51e+00	0	32	104	0	60	32590
2026-01-27 22:00:27.44	139.64	3.28	-43.3	-58.0	3.5	1.51e+00	0	32	104	0	60	32317
2026-01-27 22:00:30.38	139.99	3.11	-43.1	-57.9	3.6	1.51e+00	0	32	104	0	60	31926
2026-01-27 22:00:33.33	140.35	2.93	-44.5	-59.2	3.6	1.51e+00	0	32	104	0	60	37015
2026-01-27 22:00:36.27	140.69	2.76	-44.9	-59.6	3.6	1.51e+00	0	32	104	0	60	38812
2026-01-27 22:00:39.21	141.03	2.59	-45.3	-60.0	3.6	1.51e+00	0	32	104	0	60	40774
2026-01-27 22:00:42.15	141.37	2.42	-45.5	-60.2	3.6	1.51e+00	0	32	104	0	60	41296
2026-01-27 22:00:45.09	141.70	2.25	-45.5	-60.3	3.6	1.51e+00	0	32	104	0	60	41934
2026-01-27 22:00:48.03	142.03	2.09	-45.5	-60.2	3.6	1.51e+00	0	32	104	0	60	41740
2026-01-27 22:00:50.97	142.35	1.92	-45.7	-60.3	3.6	1.51e+00	0	32	104	0	60	42158
2026-01-27 22:00:53.90	142.67	1.75	-45.6	-60.3	3.6	1.51e+00	0	32	104	0	60	41894
2026-01-27 22:00:56.84	142.99	1.59	-45.5	-60.2	3.5	1.51e+00	0	32	104	0	60	41556
2026-01-27 22:00:59.79	143.30	1.42	-45.5	-60.1	3.6	1.51e+00	0	32	104	0	60	41210
2026-01-27 22:01:02.73	143.60	1.25	-45.5	-60.2	3.6	1.51e+00	0	32	104	0	60	41316
2026-01-27 22:01:05.67	143.90	1.09	-45.4	-60.2	3.6	1.51e+00	0	32	104	0	60	41328
2026-01-27 22:01:08.61	144.20	0.93	-45.4	-60.2	3.6	1.51e+00	0	32	104	0	60	41417
2026-01-27 22:01:11.55	144.49	0.76	-45.4	-60.1	3.6	1.51e+00	0	32	104	0	60	41112
2026-01-27 22:01:14.49	144.78	0.60	-45.4	-60.1	3.6	1.51e+00	0	32	104	0	60	40948
2026-01-27 22:01:17.43	145.07	0.44	-45.4	-60.1	3.6	1.51e+00	0	32	104	0	60	40973
2026-01-27 22:01:20.37	145.35	0.28	-45.4	-60.2	3.6	1.51e+00	0	32	104	0	60	41381
2026-01-27 22:01:23.30	145.63	0.12	-45.4	-60.1	3.6	1.51e+00	0	32	104	0	60	41241
2026-01-27 22:01:26.24	145.90	-0.04	-45.4	-60.1	3.6	1.51e+00	0	32	104	0	60	40919

#Closed at: 2026-01-27 22:01:26
#Recorded file [0 MB]: D:/lorett/data/35029_260128_095126.dat