passes_logs/2026/01/27/R4.6S_Anadyr/R4.6S_Anadyr__20260127_223537_SUOMI_NPP_rec.log

#Pass ID: 20260127_223537_SUOMI NPP
#Satellite: SUOMI NPP
#Configuration: NPP
#almurnet v.1.7.20251203
#Start time: 2026-01-27 22:35:38

#Version: 2.2.20231116
#Station: R4.6S_Anadyr
#Location: 177.4865 lon 64.73178 lat
#TLE: 1 37849U 11061A   26027.57994159  .00000179  00000+0  10588-3 0  9997
#TLE: 2 37849  98.7823 329.5210 0002100  42.0127 318.1210 14.19530762738496

#Time	Az	El	Level	Level2	SNR	BER	BlckErr	Temp	State	Recorded	gain1	gain2
2026-01-27 22:35:38.87	114.96	0.07	-48.8	-61.2	3.4	1.52e+00	0	29	0	0	60	40439
2026-01-27 22:35:42.90	114.80	0.30	-48.8	-64.0	3.6	1.51e+00	0	30	104	0	60	57254
2026-01-27 22:35:46.94	114.63	0.54	-48.8	-64.1	3.6	1.51e+00	0	31	104	0	60	57759
2026-01-27 22:35:50.98	114.46	0.77	-48.7	-64.0	3.6	1.51e+00	0	31	104	0	60	57458
2026-01-27 22:35:55.02	114.28	1.01	-48.7	-63.9	3.6	1.51e+00	0	31	104	0	60	56894
2026-01-27 22:35:59.06	114.11	1.24	-48.3	-63.7	3.6	1.51e+00	0	31	104	0	60	55054
2026-01-27 22:36:03.09	113.93	1.48	-47.8	-63.0	3.6	1.51e+00	0	31	104	0	60	51319
2026-01-27 22:36:07.14	113.74	1.72	-46.9	-62.3	3.6	1.51e+00	0	31	104	0	60	46915
2026-01-27 22:36:11.18	113.56	1.97	-46.9	-62.2	3.6	1.51e+00	0	31	104	0	60	46753
2026-01-27 22:36:15.22	113.37	2.21	-46.9	-62.2	3.6	1.51e+00	0	31	104	0	60	46455
2026-01-27 22:36:19.25	113.18	2.46	-46.9	-62.2	3.6	1.51e+00	0	31	104	0	60	46674
2026-01-27 22:36:23.29	112.98	2.71	-46.9	-62.3	3.6	1.51e+00	0	31	104	0	60	47001
2026-01-27 22:36:27.33	112.78	2.96	-46.9	-61.7	3.6	1.51e+00	0	31	104	0	60	44022
2026-01-27 22:36:31.36	112.58	3.21	-46.9	-61.3	3.6	1.51e+00	0	31	104	0	60	41967
2026-01-27 22:36:35.41	112.37	3.46	-45.2	-50.0	11.2	5.66e-03	92	31	0	3145728	60	11421
2026-01-27 22:36:39.45	112.16	3.72	-42.1	-44.3	16.3	3.67e-01	0	31	104	7340032	60	5909
2026-01-27 22:36:43.48	111.94	3.98	-42.9	-45.6	15.5	0.00e+00	72	31	0	9437184	60	6904
2026-01-27 22:36:47.52	111.73	4.24	-43.0	-46.0	15.3	0.00e+00	86	31	0	16777216	58	8083
2026-01-27 22:36:51.55	111.50	4.50	-41.4	-43.3	18.2	0.00e+00	93	31	0	25165824	56	6644
2026-01-27 22:36:55.59	111.28	4.76	-40.6	-42.1	19.3	0.00e+00	0	31	0	32505856	56	5822
2026-01-27 22:36:59.62	111.05	5.03	-41.2	-43.0	18.3	0.00e+00	18	31	0	39845888	56	6453
2026-01-27 22:37:03.66	110.81	5.30	-40.9	-42.5	18.9	0.00e+00	90	31	0	47185920	54	6834
2026-01-27 22:37:07.70	110.57	5.57	-40.3	-41.8	19.7	0.00e+00	92	31	0	54525952	54	6284
2026-01-27 22:37:11.74	110.32	5.84	-40.5	-42.0	19.5	0.00e+00	0	31	0	61865984	54	6456
2026-01-27 22:37:15.78	110.07	6.12	-40.4	-42.0	19.7	0.00e+00	92	31	0	69206016	52	7171
2026-01-27 22:37:19.82	109.82	6.40	-40.5	-42.3	19.5	0.00e+00	90	31	0	77594624	54	6618
2026-01-27 22:37:23.85	109.56	6.68	-40.1	-41.7	19.9	0.00e+00	0	31	0	84934656	54	6176
2026-01-27 22:37:27.89	109.29	6.96	-39.3	-40.4	21.1	0.00e+00	0	31	0	92274688	52	6027
2026-01-27 22:37:31.93	109.02	7.25	-39.8	-41.1	20.5	0.00e+00	92	31	0	99614720	52	6503
2026-01-27 22:37:35.97	108.74	7.54	-39.8	-41.2	20.6	0.00e+00	92	31	0	108003328	52	6574
2026-01-27 22:37:40.01	108.46	7.83	-39.2	-40.6	21.1	0.00e+00	0	31	0	115343360	52	6130
2026-01-27 22:37:44.04	108.17	8.12	-40.0	-41.3	20.5	0.00e+00	0	31	0	122683392	52	6621
2026-01-27 22:37:48.08	107.88	8.42	-39.9	-41.2	20.6	0.00e+00	73	31	0	130023424	52	6566
2026-01-27 22:37:52.12	107.58	8.72	-39.4	-40.7	21.1	0.00e+00	92	31	0	137363456	52	6194
2026-01-27 22:37:56.16	107.27	9.02	-39.6	-40.9	20.7	0.00e+00	0	31	0	145752064	52	6381
2026-01-27 22:38:00.20	106.95	9.32	-39.7	-40.9	21.1	0.00e+00	92	32	0	153092096	52	6343
2026-01-27 22:38:04.23	106.63	9.63	-39.2	-40.4	21.4	0.00e+00	77	31	0	160432128	52	5975
2026-01-27 22:38:08.27	106.30	9.94	-39.4	-40.6	21.2	0.00e+00	89	31	0	167772160	52	6139
2026-01-27 22:38:12.31	105.97	10.25	-39.1	-40.2	21.4	0.00e+00	0	31	0	176160768	52	5853
2026-01-27 22:38:16.35	105.62	10.57	-39.7	-40.9	20.8	0.00e+00	92	31	0	183500800	52	6360
2026-01-27 22:38:20.39	105.27	10.89	-39.1	-40.3	21.5	0.00e+00	78	31	0	190840832	52	5921
2026-01-27 22:38:24.43	104.91	11.21	-39.1	-40.2	21.5	0.00e+00	18	32	0	198180864	52	5848
2026-01-27 22:38:28.47	104.55	11.54	-39.0	-40.2	21.8	0.00e+00	0	32	0	205520896	52	5829
2026-01-27 22:38:32.51	104.17	11.87	-38.4	-39.4	22.3	0.00e+00	92	31	0	213909504	50	5997
2026-01-27 22:38:36.55	103.79	12.20	-38.4	-39.5	22.2	0.00e+00	90	32	0	221249536	50	6065
2026-01-27 22:38:40.59	103.39	12.54	-38.0	-39.1	22.5	0.00e+00	0	32	0	228589568	50	5808
2026-01-27 22:38:44.63	102.99	12.87	-38.5	-39.6	22.2	0.00e+00	20	32	0	235929600	50	6162
2026-01-27 22:38:48.67	102.58	13.22	-38.2	-39.3	22.4	0.00e+00	80	32	0	244318208	50	5903
2026-01-27 22:38:52.71	102.15	13.56	-38.8	-39.8	22.0	0.00e+00	92	32	0	251658240	50	6314
2026-01-27 22:38:56.75	101.72	13.91	-38.7	-39.7	22.1	0.00e+00	0	32	0	258998272	50	6231
2026-01-27 22:39:00.78	101.28	14.26	-38.2	-39.2	22.4	0.00e+00	92	32	0	266338304	50	5850
2026-01-27 22:39:04.82	100.82	14.62	-38.5	-39.5	22.3	0.00e+00	92	32	0	273678336	50	6095
2026-01-27 22:39:08.86	100.36	14.98	-38.7	-39.8	22.1	0.00e+00	20	32	0	282066944	50	6252
2026-01-27 22:39:12.90	99.88	15.34	-38.8	-39.8	22.1	0.00e+00	0	32	0	289406976	50	6305
2026-01-27 22:39:16.94	99.39	15.70	-38.6	-39.6	22.3	0.00e+00	92	32	0	296747008	50	6152
2026-01-27 22:39:20.98	98.89	16.07	-37.8	-38.8	22.9	0.00e+00	92	32	0	304087040	50	5580
2026-01-27 22:39:25.02	98.37	16.45	-37.9	-38.9	22.9	0.00e+00	0	32	0	312475648	48	6355
2026-01-27 22:39:29.06	97.84	16.82	-38.2	-39.1	22.6	0.00e+00	0	32	0	319815680	48	6535
2026-01-27 22:39:33.10	97.30	17.20	-39.1	-40.2	21.9	0.00e+00	65	32	0	327155712	50	6553
2026-01-27 22:39:37.14	96.75	17.58	-39.3	-40.5	21.5	0.00e+00	92	32	0	334495744	50	6786
2026-01-27 22:39:41.18	96.18	17.97	-38.9	-40.0	22.0	0.00e+00	0	32	0	341835776	50	6433
2026-01-27 22:39:45.22	95.59	18.36	-38.8	-39.9	22.1	0.00e+00	74	32	0	350224384	50	6364
2026-01-27 22:39:49.26	94.99	18.75	-38.5	-39.5	22.3	0.00e+00	85	32	0	357564416	50	6099
2026-01-27 22:39:53.29	94.37	19.14	-38.8	-39.9	22.1	0.00e+00	0	32	0	364904448	50	6319
2026-01-27 22:39:57.33	93.74	19.54	-38.3	-39.3	22.6	0.00e+00	0	32	0	372244480	50	5910
2026-01-27 22:40:01.37	93.09	19.93	-38.2	-39.2	22.6	0.00e+00	92	32	0	380633088	50	5865
2026-01-27 22:40:05.41	92.42	20.34	-38.3	-39.3	22.5	0.00e+00	92	32	0	387973120	50	5933
2026-01-27 22:40:09.44	91.74	20.74	-39.0	-40.2	21.9	0.00e+00	0	32	0	395313152	50	6555
2026-01-27 22:40:13.48	91.04	21.14	-38.7	-39.8	22.2	0.00e+00	0	32	0	402653184	50	6263
2026-01-27 22:40:17.52	90.31	21.55	-38.4	-39.4	22.5	0.00e+00	90	32	0	409993216	50	6028
2026-01-27 22:40:21.56	89.57	21.96	-37.6	-38.6	23.1	0.00e+00	90	32	0	418381824	48	6115
2026-01-27 22:40:25.60	88.81	22.37	-38.2	-39.1	22.8	0.00e+00	0	32	0	425721856	48	6515
2026-01-27 22:40:29.64	88.02	22.78	-38.0	-39.0	22.8	0.00e+00	92	32	0	433061888	48	6406
2026-01-27 22:40:33.68	87.22	23.19	-38.0	-38.9	23.0	0.00e+00	73	32	0	440401920	48	6340
2026-01-27 22:40:37.73	86.39	23.61	-37.9	-38.8	23.0	0.00e+00	0	32	0	448790528	48	6296
2026-01-27 22:40:41.77	85.54	24.02	-38.2	-39.2	22.8	0.00e+00	0	32	0	456130560	48	6575
2026-01-27 22:40:45.80	84.68	24.43	-38.3	-39.3	22.7	0.00e+00	90	32	0	463470592	48	6649
2026-01-27 22:40:49.84	83.78	24.84	-38.9	-39.9	22.1	0.00e+00	71	32	0	470810624	50	6390
2026-01-27 22:40:53.88	82.86	25.25	-38.4	-39.4	22.6	0.00e+00	0	32	0	478150656	50	6002
2026-01-27 22:40:57.92	81.92	25.65	-38.0	-39.0	23.0	0.00e+00	0	32	0	486539264	50	5702
2026-01-27 22:41:01.95	80.96	26.06	-37.7	-38.6	23.2	0.00e+00	92	32	0	493879296	48	6156
2026-01-27 22:41:05.99	79.96	26.46	-36.6	-37.4	24.2	0.00e+00	92	32	0	501219328	46	5985
2026-01-27 22:41:10.03	78.95	26.86	-37.3	-38.2	23.5	0.00e+00	0	32	0	508559360	46	6594
2026-01-27 22:41:14.06	77.91	27.25	-37.8	-38.7	23.1	0.00e+00	23	32	0	516947968	48	6228
2026-01-27 22:41:18.10	76.84	27.64	-38.9	-40.0	22.1	0.00e+00	47	32	0	524288000	50	6417
2026-01-27 22:41:22.14	75.74	28.02	-38.3	-39.2	22.7	0.00e+00	92	32	0	531628032	50	5881
2026-01-27 22:41:26.18	74.62	28.39	-38.2	-39.2	22.7	0.00e+00	0	32	0	538968064	50	5880
2026-01-27 22:41:30.22	73.48	28.76	-38.9	-39.9	22.1	0.00e+00	91	32	0	546308096	50	6379
2026-01-27 22:41:34.26	72.30	29.12	-39.7	-40.9	21.4	0.00e+00	90	32	0	554696704	50	7089
2026-01-27 22:41:38.30	71.10	29.47	-41.2	-42.8	19.7	0.00e+00	0	32	0	562036736	54	7028
2026-01-27 22:41:42.33	69.88	29.80	-40.4	-41.7	20.8	0.00e+00	0	32	0	569376768	54	6198
2026-01-27 22:41:46.37	68.63	30.13	-39.1	-40.2	21.9	0.00e+00	88	32	0	576716800	52	5850
2026-01-27 22:41:50.41	67.35	30.45	-39.6	-40.8	21.7	0.00e+00	90	32	0	585105408	52	6250
2026-01-27 22:41:54.45	66.05	30.75	-39.3	-40.5	21.3	0.00e+00	0	32	0	592445440	52	6065
2026-01-27 22:41:58.49	64.72	31.04	-39.5	-40.7	21.5	0.00e+00	13	32	0	599785472	52	6219
2026-01-27 22:42:02.53	63.37	31.31	-39.1	-40.2	22.1	0.00e+00	92	32	0	607125504	52	5856
2026-01-27 22:42:06.57	62.00	31.57	-38.7	-39.7	22.3	0.00e+00	92	32	0	614465536	50	6221
2026-01-27 22:42:10.61	60.61	31.81	-39.6	-40.8	21.2	0.00e+00	0	32	0	622854144	52	6302
2026-01-27 22:42:14.65	59.19	32.03	-38.4	-39.4	22.8	0.00e+00	92	32	0	630194176	50	6000
2026-01-27 22:42:18.69	57.76	32.24	-38.9	-40.0	22.2	0.00e+00	64	32	0	637534208	50	6400
2026-01-27 22:42:22.73	56.31	32.43	-38.0	-39.0	22.8	0.00e+00	15	32	0	644874240	50	5731
2026-01-27 22:42:26.77	54.85	32.59	-37.4	-38.3	23.4	0.00e+00	0	32	0	653262848	48	5908
2026-01-27 22:42:30.82	53.37	32.74	-39.9	-41.1	21.3	0.00e+00	92	32	0	660602880	52	6482
2026-01-27 22:42:34.85	51.88	32.86	-38.6	-39.6	22.4	0.00e+00	92	32	0	667942912	50	6121
2026-01-27 22:42:38.89	50.38	32.96	-39.2	-40.2	22.0	0.00e+00	0	32	0	675282944	52	5890
2026-01-27 22:42:42.93	48.87	33.04	-37.9	-38.8	23.2	0.00e+00	9	32	0	682622976	50	5583
2026-01-27 22:42:46.97	47.35	33.10	-39.5	-40.6	21.6	0.00e+00	39	32	0	691011584	50	6925
2026-01-27 22:42:51.01	45.83	33.13	-40.3	-41.6	20.8	0.00e+00	44	32	0	698351616	54	6125
2026-01-27 22:42:55.04	44.31	33.15	-40.1	-41.4	21.1	0.00e+00	0	32	0	705691648	54	5994
2026-01-27 22:42:59.08	42.79	33.13	-38.0	-39.0	23.1	0.00e+00	46	32	0	713031680	50	5705
2026-01-27 22:43:03.13	41.26	33.10	-39.5	-40.6	21.8	0.00e+00	92	32	0	721420288	50	6859
2026-01-27 22:43:07.17	39.75	33.04	-39.1	-40.1	21.7	0.00e+00	0	32	0	728760320	50	6522
2026-01-27 22:43:11.21	38.24	32.96	-40.6	-42.0	20.5	0.00e+00	0	32	0	736100352	52	7179
2026-01-27 22:43:15.25	36.74	32.86	-39.6	-40.8	21.2	0.00e+00	76	32	0	743440384	52	6275
2026-01-27 22:43:19.28	35.25	32.74	-39.4	-40.5	21.7	0.00e+00	92	32	0	750780416	52	6103
2026-01-27 22:43:23.32	33.77	32.59	-39.5	-40.7	21.6	0.00e+00	0	32	0	759169024	50	6964
2026-01-27 22:43:27.36	32.31	32.43	-39.5	-40.7	21.5	0.00e+00	0	32	0	766509056	50	6982
2026-01-27 22:43:31.40	30.86	32.24	-38.9	-40.0	22.0	0.00e+00	82	32	0	773849088	52	5713
2026-01-27 22:43:35.44	29.43	32.04	-38.8	-39.9	22.2	0.00e+00	92	32	0	781189120	52	5665
2026-01-27 22:43:39.48	28.02	31.82	-38.6	-39.7	22.4	0.00e+00	24	32	0	789577728	48	6961
2026-01-27 22:43:43.52	26.63	31.58	-38.5	-39.5	22.5	0.00e+00	25	32	0	796917760	50	6079
2026-01-27 22:43:47.56	25.26	31.32	-39.5	-40.7	21.6	0.00e+00	74	32	0	804257792	50	6955
2026-01-27 22:43:51.60	23.92	31.05	-39.7	-40.9	21.5	0.00e+00	0	32	0	811597824	52	6342
2026-01-27 22:43:55.64	22.59	30.76	-40.5	-41.7	20.7	0.00e+00	0	32	0	818937856	52	6996
2026-01-27 22:43:59.68	21.29	30.46	-38.9	-40.0	22.1	0.00e+00	92	32	0	827326464	50	6418
2026-01-27 22:44:03.72	20.02	30.14	-39.3	-40.3	22.0	0.00e+00	92	32	0	834666496	50	6691
2026-01-27 22:44:07.76	18.77	29.82	-37.1	-38.0	23.7	0.00e+00	0	32	0	842006528	48	5713
2026-01-27 22:44:11.80	17.54	29.48	-38.2	-39.2	22.4	0.00e+00	0	32	0	849346560	48	6564
2026-01-27 22:44:15.83	16.35	29.13	-40.0	-41.2	21.5	0.00e+00	83	32	0	857735168	52	6590
2026-01-27 22:44:19.88	15.18	28.77	-38.5	-39.5	22.5	0.00e+00	27	32	0	865075200	50	6052
2026-01-27 22:44:23.92	14.03	28.41	-40.5	-41.9	20.5	0.00e+00	0	32	0	872415232	54	6342
2026-01-27 22:44:27.95	12.92	28.04	-39.6	-40.8	21.5	0.00e+00	17	32	0	879755264	52	6277
2026-01-27 22:44:31.99	11.82	27.66	-40.1	-41.4	20.9	0.00e+00	92	32	0	887095296	52	6748
2026-01-27 22:44:36.03	10.76	27.27	-37.9	-38.9	23.0	0.00e+00	0	32	0	895483904	50	5644
2026-01-27 22:44:40.07	9.72	26.88	-37.5	-38.4	23.4	0.00e+00	0	32	0	902823936	48	6033
2026-01-27 22:44:44.10	8.71	26.48	-38.6	-39.7	22.3	0.00e+00	90	32	0	910163968	48	6958
2026-01-27 22:44:48.14	7.72	26.08	-37.9	-38.9	23.1	0.00e+00	92	32	0	917504000	48	6324
2026-01-27 22:44:52.18	6.75	25.68	-37.8	-38.8	23.1	0.00e+00	0	32	0	925892608	48	6267
2026-01-27 22:44:56.21	5.82	25.28	-37.1	-38.0	23.9	0.00e+00	0	32	0	933232640	48	5737
2026-01-27 22:45:00.25	4.90	24.87	-35.8	-36.6	24.7	0.00e+00	92	32	0	940572672	44	6117
2026-01-27 22:45:04.29	4.01	24.46	-37.2	-38.2	23.6	0.00e+00	0	32	0	947912704	46	6548
2026-01-27 22:45:08.32	3.14	24.05	-36.2	-37.0	24.1	0.00e+00	0	32	0	955252736	46	5720
2026-01-27 22:45:12.36	2.30	23.64	-36.8	-37.7	24.0	0.00e+00	21	32	0	963641344	46	6204
2026-01-27 22:45:16.39	1.48	23.23	-36.7	-37.6	24.0	0.00e+00	91	32	0	970981376	46	6105
2026-01-27 22:45:20.43	0.68	22.82	-36.4	-37.3	24.2	0.00e+00	0	32	0	978321408	46	5931
2026-01-27 22:45:24.47	359.89	22.41	-36.4	-37.2	24.2	0.00e+00	0	32	0	985661440	46	5856
2026-01-27 22:45:28.51	359.13	22.00	-36.8	-37.7	23.9	0.00e+00	22	32	0	993001472	46	6232
2026-01-27 22:45:32.55	358.39	21.60	-37.7	-38.7	23.3	0.00e+00	0	32	0	1001390080	46	6960
2026-01-27 22:45:36.59	357.67	21.19	-37.5	-38.4	23.3	0.00e+00	0	32	0	1008730112	46	6749
2026-01-27 22:45:40.63	356.97	20.79	-37.6	-38.5	23.1	0.00e+00	0	32	0	1016070144	46	6846
2026-01-27 22:45:44.67	356.29	20.38	-38.5	-39.5	22.4	0.00e+00	66	32	0	1023410176	48	6842
2026-01-27 22:45:48.71	355.63	19.98	-37.2	-38.1	23.4	0.00e+00	0	32	0	1031798784	48	5828
2026-01-27 22:45:52.75	354.98	19.59	-37.3	-38.2	23.3	0.00e+00	0	32	0	1039138816	48	5895
2026-01-27 22:45:56.79	354.35	19.19	-37.8	-38.8	23.0	0.00e+00	0	32	0	1046478848	48	6266
2026-01-27 22:46:00.83	353.73	18.80	-37.1	-38.0	23.7	0.00e+00	31	32	0	1053818880	48	5725
2026-01-27 22:46:04.86	353.14	18.41	-37.1	-38.0	23.6	0.00e+00	0	32	0	1062207488	48	5719
2026-01-27 22:46:08.90	352.55	18.02	-37.2	-38.1	23.5	0.00e+00	0	32	0	1069547520	48	5778
2026-01-27 22:46:12.94	351.99	17.64	-37.0	-37.8	23.8	0.00e+00	18	32	0	1076887552	48	5618
2026-01-27 22:46:16.98	351.43	17.26	-36.9	-37.7	23.8	0.00e+00	53	32	0	1084227584	46	6240
2026-01-27 22:46:21.02	350.89	16.88	-38.1	-39.1	22.6	0.00e+00	0	32	0	1091567616	48	6492
2026-01-27 22:46:25.06	350.37	16.51	-40.0	-41.2	20.9	0.00e+00	0	32	0	1099956224	52	6562
2026-01-27 22:46:29.10	349.86	16.14	-38.3	-39.3	22.5	0.00e+00	91	32	0	1107296256	50	5907
2026-01-27 22:46:33.13	349.36	15.77	-37.3	-38.2	23.5	0.00e+00	0	32	0	1114636288	48	5844
2026-01-27 22:46:37.18	348.87	15.41	-38.5	-39.5	22.2	0.00e+00	0	32	0	1121976320	48	6847
2026-01-27 22:46:41.22	348.39	15.04	-39.6	-40.8	21.4	0.00e+00	0	32	0	1130364928	50	7008
2026-01-27 22:46:45.26	347.93	14.69	-39.4	-40.6	21.4	0.00e+00	71	32	0	1137704960	50	6874
2026-01-27 22:46:49.30	347.48	14.33	-39.4	-40.6	21.4	0.00e+00	0	32	0	1145044992	50	6922
2026-01-27 22:46:53.34	347.04	13.98	-38.9	-40.1	21.7	0.00e+00	0	32	0	1152385024	50	6466
2026-01-27 22:46:57.38	346.61	13.63	-39.1	-40.2	21.7	0.00e+00	12	32	0	1159725056	50	6555
2026-01-27 22:47:01.42	346.19	13.29	-39.1	-40.2	21.6	0.00e+00	92	32	0	1168113664	50	6575
2026-01-27 22:47:05.46	345.77	12.95	-38.7	-39.8	22.0	0.00e+00	0	32	0	1175453696	50	6305
2026-01-27 22:47:09.49	345.38	12.61	-38.1	-39.1	22.5	0.00e+00	0	32	0	1182793728	50	5802
2026-01-27 22:47:13.53	344.98	12.28	-38.2	-39.2	22.4	0.00e+00	92	32	0	1190133760	50	5856
2026-01-27 22:47:17.57	344.60	11.94	-39.3	-40.5	21.4	0.00e+00	0	32	0	1198522368	50	6803
2026-01-27 22:47:21.61	344.23	11.62	-40.7	-42.3	19.8	0.00e+00	0	32	0	1205862400	54	6629
2026-01-27 22:47:25.65	343.86	11.29	-41.1	-42.8	19.2	0.00e+00	0	32	0	1213202432	54	7014
2026-01-27 22:47:29.69	343.51	10.97	-40.8	-42.3	19.8	0.00e+00	91	32	0	1220542464	54	6651
2026-01-27 22:47:33.73	343.16	10.65	-40.2	-41.6	20.4	0.00e+00	0	32	0	1227882496	54	6107
2026-01-27 22:47:37.76	342.82	10.34	-39.8	-41.1	20.9	0.00e+00	0	32	0	1236271104	52	6476
2026-01-27 22:47:41.80	342.48	10.02	-39.4	-40.6	21.1	0.00e+00	11	32	0	1243611136	52	6128
2026-01-27 22:47:45.84	342.16	9.71	-39.4	-40.6	21.3	0.00e+00	40	32	0	1250951168	52	6120
2026-01-27 22:47:49.88	341.84	9.41	-39.3	-40.5	21.4	0.00e+00	0	32	0	1258291200	52	6036
2026-01-27 22:47:53.92	341.53	9.10	-39.5	-40.7	21.0	0.00e+00	0	32	0	1266679808	52	6234
2026-01-27 22:47:57.96	341.22	8.80	-40.0	-41.3	20.6	0.00e+00	16	32	0	1274019840	52	6638
2026-01-27 22:48:02.00	340.92	8.50	-40.5	-41.9	19.9	0.00e+00	0	32	0	1281359872	52	7105
2026-01-27 22:48:06.03	340.63	8.21	-40.6	-42.0	19.8	0.00e+00	0	32	0	1288699904	54	6448
2026-01-27 22:48:10.07	340.35	7.91	-40.8	-42.2	19.6	0.00e+00	0	32	0	1296039936	54	6574
2026-01-27 22:48:14.11	340.07	7.62	-41.1	-42.6	19.3	0.00e+00	45	32	0	1304428544	54	6886
2026-01-27 22:48:18.15	339.79	7.34	-41.5	-43.2	18.7	0.00e+00	0	32	0	1311768576	56	6564
2026-01-27 22:48:22.18	339.52	7.05	-42.2	-44.1	18.1	0.00e+00	0	32	0	1319108608	56	7288
2026-01-27 22:48:26.22	339.26	6.77	-41.8	-43.5	18.4	0.00e+00	0	32	0	1326448640	56	6839
2026-01-27 22:48:30.26	339.00	6.49	-41.3	-42.9	18.9	0.00e+00	81	32	0	1334837248	56	6364
2026-01-27 22:48:34.30	338.75	6.21	-40.5	-41.9	19.7	0.00e+00	0	32	0	1342177280	54	6323
2026-01-27 22:48:38.34	338.50	5.94	-40.0	-41.3	20.2	0.00e+00	0	32	0	1349517312	54	5919
2026-01-27 22:48:42.37	338.26	5.66	-40.1	-41.4	19.8	0.00e+00	41	32	0	1356857344	54	6032
2026-01-27 22:48:46.41	338.02	5.39	-41.1	-42.8	18.1	0.00e+00	70	32	0	1364197376	54	7087
2026-01-27 22:48:50.45	337.79	5.12	-42.4	-45.0	15.3	0.00e+00	9	32	0	1372585984	56	8115
2026-01-27 22:48:54.49	337.56	4.86	-43.5	-47.8	11.6	2.68e-04	0	32	0	1379926016	58	9909
2026-01-27 22:48:58.53	337.34	4.59	-44.0	-50.8	7.4	5.56e-02	4	32	0	1387266048	60	12495
2026-01-27 22:49:02.57	337.12	4.33	-44.1	-53.8	4.1	9.20e-01	8	32	0	1394606080	60	17668
2026-01-27 22:49:06.61	336.90	4.07	-44.0	-57.1	3.7	1.49e+00	0	32	104	1395654656	60	25996
2026-01-27 22:49:10.65	336.69	3.81	-43.7	-58.6	3.6	1.51e+00	0	32	104	1395654656	60	30937
2026-01-27 22:49:14.69	336.48	3.56	-43.7	-58.8	3.6	1.51e+00	0	32	104	1395654656	60	31434
2026-01-27 22:49:18.72	336.28	3.31	-43.7	-58.8	3.6	1.51e+00	0	32	104	1395654656	60	31505
2026-01-27 22:49:22.76	336.08	3.05	-43.6	-58.8	3.6	1.51e+00	0	32	104	1395654656	60	31365
2026-01-27 22:49:26.80	335.88	2.80	-48.4	-63.5	3.5	1.51e+00	0	32	104	1395654656	60	53997
2026-01-27 22:49:30.84	335.69	2.56	-48.8	-64.0	3.6	1.51e+00	0	32	104	1395654656	60	57105
2026-01-27 22:49:34.88	335.50	2.31	-48.9	-64.1	3.6	1.51e+00	0	32	104	1395654656	60	58036
2026-01-27 22:49:38.92	335.31	2.07	-48.2	-64.1	3.6	1.51e+00	0	32	104	1395654656	60	57928
2026-01-27 22:49:42.96	335.13	1.82	-48.8	-63.9	3.6	1.51e+00	0	32	104	1395654656	60	56886
2026-01-27 22:49:47.00	334.95	1.58	-48.8	-64.0	3.6	1.51e+00	0	32	104	1395654656	60	57351
2026-01-27 22:49:51.04	334.77	1.34	-48.8	-64.0	3.6	1.51e+00	0	32	104	1395654656	60	57195
2026-01-27 22:49:55.08	334.60	1.11	-48.8	-64.0	3.6	1.51e+00	0	32	104	1395654656	60	57447
2026-01-27 22:49:59.12	334.43	0.87	-48.8	-64.0	3.6	1.51e+00	0	32	104	1395654656	60	57267
2026-01-27 22:50:03.16	334.26	0.64	-48.8	-64.0	3.6	1.51e+00	0	32	104	1395654656	60	57247
2026-01-27 22:50:07.20	334.10	0.40	-48.8	-64.0	3.6	1.51e+00	0	32	104	1395654656	60	57332
2026-01-27 22:50:11.24	333.93	0.17	-48.8	-63.9	3.6	1.51e+00	0	32	104	1395654656	60	56932
2026-01-27 22:50:15.28	333.78	-0.06	-48.8	-63.9	3.6	1.51e+00	0	32	104	1395654656	60	56913

#Closed at: 2026-01-27 22:50:16
#Recorded file [1395 MB]: D:/lorett/data/35029_260128_103538.dat