passes_logs/2026/01/27/R4.6S_Anadyr/R4.6S_Anadyr__20260127_212829_TY-42_rec.log

#Pass ID: 20260127_212829_TY-42
#Satellite: TY-42
#Configuration: TY-42_900M
#almurnet v.1.7.20251203
#Start time: 2026-01-27 21:28:59

#Version: 2.2.20231116
#Station: R4.6S_Anadyr
#Location: 177.4865 lon 64.73178 lat
#TLE: 1 64048U 25103A   26027.68657407  .00008010  00000-0  38191-3 0 09997
#TLE: 2 64048 097.4119 102.8659 0001730 093.3854 305.6563 15.19171009 38743

#Time	Az	El	Level	Level2	SNR	BER	BlckErr	Temp	State	Recorded	gain1	gain2
2026-01-27 21:28:59.21	27.53	1.53	-48.9	-50.2	3.4	0.00e+00	0	29	0	0	60	39801
2026-01-27 21:29:02.16	27.88	1.68	-47.2	-49.7	6.1	0.00e+00	0	31	104	0	60	37423
2026-01-27 21:29:05.10	28.22	1.83	-47.2	-49.7	6.0	0.00e+00	0	31	104	0	60	37234
2026-01-27 21:29:08.03	28.57	1.99	-47.2	-49.7	6.1	0.00e+00	0	31	104	0	60	37259
2026-01-27 21:29:10.97	28.93	2.14	-47.2	-49.7	6.1	0.00e+00	0	31	104	0	60	37262
2026-01-27 21:29:13.92	29.29	2.29	-47.2	-49.7	6.1	0.00e+00	0	31	104	0	60	37270
2026-01-27 21:29:16.85	29.65	2.45	-47.2	-49.7	6.1	0.00e+00	0	32	104	0	60	37336
2026-01-27 21:29:19.81	30.02	2.60	-47.2	-49.6	6.1	0.00e+00	0	32	104	0	60	37183
2026-01-27 21:29:22.74	30.40	2.76	-47.2	-49.7	6.1	0.00e+00	0	32	104	0	60	37214
2026-01-27 21:29:25.68	30.78	2.91	-47.2	-49.7	6.1	0.00e+00	0	32	104	0	60	37299
2026-01-27 21:29:28.63	31.16	3.07	-47.3	-49.8	6.1	0.00e+00	0	32	104	0	60	37992
2026-01-27 21:29:31.57	31.55	3.22	-47.0	-49.5	6.1	0.00e+00	0	32	104	0	60	36455
2026-01-27 21:29:34.51	31.94	3.38	-47.5	-50.0	6.1	0.00e+00	0	32	104	0	60	38690
2026-01-27 21:29:37.46	32.34	3.53	-47.6	-50.1	6.1	0.00e+00	0	32	104	0	60	39070
2026-01-27 21:29:40.38	32.75	3.69	-47.2	-49.8	6.1	0.00e+00	0	32	104	0	60	37706
2026-01-27 21:29:43.32	33.16	3.84	-47.3	-49.8	6.1	0.00e+00	0	32	104	0	60	37849
2026-01-27 21:29:46.27	33.57	4.00	-47.5	-50.0	6.1	0.00e+00	0	32	104	0	60	38700
2026-01-27 21:29:49.21	33.99	4.16	-47.5	-50.0	6.1	0.00e+00	0	32	104	0	60	38650
2026-01-27 21:29:52.15	34.42	4.31	-47.5	-50.0	6.1	0.00e+00	0	32	104	0	60	38834
2026-01-27 21:29:55.10	34.85	4.47	-47.6	-50.0	6.1	0.00e+00	0	32	104	0	60	38738
2026-01-27 21:29:58.05	35.29	4.63	-47.7	-50.2	6.1	0.00e+00	0	32	104	0	60	39513
2026-01-27 21:30:01.00	35.73	4.79	-47.9	-50.3	6.1	0.00e+00	0	32	104	0	60	40098
2026-01-27 21:30:03.94	36.18	4.94	-47.7	-50.2	6.1	0.00e+00	0	33	104	0	60	39748
2026-01-27 21:30:06.87	36.64	5.10	-47.8	-50.2	6.1	0.00e+00	0	33	104	0	60	39844
2026-01-27 21:30:09.80	37.10	5.26	-47.8	-50.3	6.1	0.00e+00	0	33	104	0	60	39914
2026-01-27 21:30:12.74	37.56	5.41	-47.7	-50.2	6.1	0.00e+00	0	33	104	0	60	39861
2026-01-27 21:30:15.67	38.03	5.57	-47.8	-50.3	6.1	0.00e+00	0	33	104	0	60	39923
2026-01-27 21:30:18.61	38.51	5.72	-30.3	-30.6	12.6	0.00e+00	0	33	0	0	28	26333
2026-01-27 21:30:21.55	39.00	5.88	-36.2	-36.5	10.5	0.00e+00	183	33	104	58720256	54	11537
2026-01-27 21:30:24.48	39.49	6.04	-31.1	-31.6	14.7	4.50e-02	0	33	0	268435456	38	16549
2026-01-27 21:30:27.42	39.99	6.19	-30.9	-31.4	14.8	6.30e-03	0	33	0	595591168	36	18121
2026-01-27 21:30:30.36	40.49	6.35	-29.8	-30.2	15.6	5.07e-03	0	33	0	922746880	34	17801
2026-01-27 21:30:33.31	41.01	6.50	-28.0	-28.5	16.1	8.45e-04	0	33	0	1258291200	32	16338
2026-01-27 21:30:36.25	41.52	6.66	-27.1	-27.6	16.3	3.49e-04	0	33	0	1585446912	30	16507
2026-01-27 21:30:39.18	42.05	6.81	-26.3	-26.8	16.2	1.09e-04	0	34	0	1920991232	28	17001
2026-01-27 21:30:42.12	42.58	6.96	-26.5	-27.0	16.2	1.03e-04	0	34	0	2248146944	28	17298
2026-01-27 21:30:45.07	43.12	7.12	-26.3	-26.8	16.4	5.44e-05	0	34	0	2575302656	28	16865
2026-01-27 21:30:48.01	43.66	7.27	-26.3	-26.8	16.5	1.25e-04	0	34	0	2910846976	28	16943
2026-01-27 21:30:50.95	44.22	7.42	-26.0	-26.5	16.6	4.35e-05	0	34	0	3238002688	28	16424
2026-01-27 21:30:53.89	44.78	7.57	-26.2	-26.7	16.6	7.62e-05	0	34	0	3573547008	28	16630
2026-01-27 21:30:56.82	45.34	7.72	-25.9	-26.4	16.6	8.71e-05	0	34	0	3900702720	28	16194
2026-01-27 21:30:59.75	45.91	7.87	-26.0	-26.5	16.7	4.35e-05	0	34	0	4227858432	28	16289
2026-01-27 21:31:02.68	46.49	8.02	-26.1	-26.6	16.5	3.26e-05	0	34	0	4563402752	26	18613
2026-01-27 21:31:05.62	47.08	8.16	-26.2	-26.7	16.6	1.03e-04	0	34	0	4898947072	26	18687
2026-01-27 21:31:08.55	47.67	8.31	-25.7	-26.2	16.7	3.81e-05	0	34	0	5217714176	26	17649
2026-01-27 21:31:11.49	48.27	8.45	-25.8	-26.3	16.6	2.17e-05	0	34	0	5553258496	26	17972
2026-01-27 21:31:14.42	48.88	8.60	-25.9	-26.4	16.4	7.62e-05	0	34	0	5880414208	26	18028
2026-01-27 21:31:17.36	49.50	8.74	-25.8	-26.3	16.6	2.17e-05	0	34	0	6207569920	26	17951
2026-01-27 21:31:20.30	50.12	8.88	-26.1	-26.6	16.5	3.81e-05	0	34	0	6543114240	26	18494
2026-01-27 21:31:23.24	50.75	9.02	-25.9	-26.4	16.4	7.62e-05	0	34	0	6878658560	26	18132
2026-01-27 21:31:26.18	51.39	9.15	-25.9	-26.4	16.1	1.09e-04	0	34	0	7205814272	26	18201
2026-01-27 21:31:29.11	52.03	9.29	-25.8	-26.3	16.7	8.17e-05	0	34	0	7532969984	26	17873
2026-01-27 21:31:32.05	52.69	9.42	-26.1	-26.6	16.4	1.63e-05	0	34	0	7868514304	26	18533
2026-01-27 21:31:34.98	53.35	9.56	-25.9	-26.4	16.2	9.26e-05	0	34	0	8195670016	26	18059
2026-01-27 21:31:37.91	54.01	9.69	-25.6	-26.1	16.3	9.80e-05	0	34	0	8522825728	26	17426
2026-01-27 21:31:40.85	54.68	9.81	-25.1	-25.6	16.7	5.99e-05	0	34	0	8858370048	26	16602
2026-01-27 21:31:43.79	55.37	9.94	-24.9	-25.5	16.7	0.00e+00	0	34	0	9185525760	26	16265
2026-01-27 21:31:46.72	56.05	10.06	-25.3	-25.8	16.8	5.40e-06	0	34	0	9512681472	26	16849
2026-01-27 21:31:49.66	56.75	10.18	-24.9	-25.4	16.8	0.00e+00	0	34	0	9848225792	26	16188
2026-01-27 21:31:52.59	57.45	10.30	-25.3	-25.8	16.6	1.63e-05	0	34	0	10175381504	26	16977
2026-01-27 21:31:55.53	58.16	10.42	-25.0	-25.5	16.8	1.08e-05	0	34	0	10510925824	26	16387
2026-01-27 21:31:58.48	58.88	10.53	-25.0	-25.5	16.4	5.40e-06	0	34	0	10838081536	26	16427
2026-01-27 21:32:01.42	59.60	10.64	-25.0	-25.5	16.8	5.40e-06	0	34	0	11165237248	26	16275
2026-01-27 21:32:04.36	60.33	10.75	-24.9	-25.4	16.7	5.40e-06	0	34	0	11500781568	26	16178
2026-01-27 21:32:07.29	61.06	10.85	-24.9	-25.4	16.6	1.63e-05	0	34	0	11827937280	26	16146
2026-01-27 21:32:10.24	61.80	10.96	-25.1	-25.6	16.4	5.40e-06	0	34	0	12163481600	24	18621
2026-01-27 21:32:13.17	62.55	11.05	-25.3	-25.8	15.9	5.40e-06	0	34	0	12490637312	24	18953
2026-01-27 21:32:16.10	63.30	11.15	-24.6	-25.1	16.2	7.62e-05	0	34	0	12817793024	24	17534
2026-01-27 21:32:19.03	64.06	11.24	-24.7	-25.2	16.8	4.35e-05	0	34	0	13153337344	24	17772
2026-01-27 21:32:21.97	64.82	11.33	-25.1	-25.6	16.8	0.00e+00	0	34	0	13480493056	24	18436
2026-01-27 21:32:24.90	65.59	11.41	-24.8	-25.3	16.8	0.00e+00	0	34	0	13807648768	24	17987
2026-01-27 21:32:27.84	66.37	11.49	-24.7	-25.2	16.8	0.00e+00	0	35	0	14143193088	24	17734
2026-01-27 21:32:30.76	67.14	11.57	-24.9	-25.3	16.4	5.40e-06	0	34	0	14470348800	24	18012
2026-01-27 21:32:33.70	67.93	11.64	-24.9	-25.3	16.3	2.72e-05	0	34	0	14797504512	24	17998
2026-01-27 21:32:36.64	68.72	11.71	-24.8	-25.3	16.3	1.08e-05	0	35	0	15133048832	24	17821
2026-01-27 21:32:39.57	69.51	11.78	-24.6	-25.1	16.1	5.99e-05	0	35	0	15460204544	24	17468
2026-01-27 21:32:42.50	70.30	11.84	-24.6	-25.1	16.8	3.81e-05	0	35	0	15787360256	24	17412
2026-01-27 21:32:45.45	71.11	11.90	-24.6	-25.1	16.8	0.00e+00	0	35	0	16122904576	24	17414
2026-01-27 21:32:48.40	71.92	11.95	-24.6	-25.1	16.8	1.08e-05	0	35	0	16458448896	24	17427
2026-01-27 21:32:51.34	72.73	12.00	-24.8	-25.3	16.8	5.40e-06	0	35	0	16785604608	24	17826
2026-01-27 21:32:54.27	73.54	12.04	-24.9	-25.4	16.8	2.17e-05	0	35	0	17112760320	24	18032
2026-01-27 21:32:57.20	74.35	12.08	-24.8	-25.3	16.6	0.00e+00	0	35	0	17448304640	24	17881
2026-01-27 21:33:00.14	75.17	12.12	-24.7	-25.1	16.6	0.00e+00	0	35	0	17775460352	24	17546
2026-01-27 21:33:03.08	75.99	12.15	-24.9	-25.4	16.5	2.72e-05	0	35	0	18111004672	24	18084
2026-01-27 21:33:06.02	76.81	12.17	-24.8	-25.3	16.4	2.17e-05	0	35	0	18438160384	24	17825
2026-01-27 21:33:08.94	77.63	12.19	-24.8	-25.3	16.5	3.26e-05	0	35	0	18765316096	24	17894
2026-01-27 21:33:11.88	78.45	12.21	-24.9	-25.3	16.6	5.40e-06	0	35	0	19100860416	24	17955
2026-01-27 21:33:14.82	79.28	12.22	-24.9	-25.3	16.6	5.40e-06	0	35	0	19428016128	24	18007
2026-01-27 21:33:17.75	80.10	12.23	-24.8	-25.2	16.6	3.81e-05	0	35	0	19755171840	24	17768
2026-01-27 21:33:20.68	80.93	12.23	-24.8	-25.3	16.5	5.40e-06	0	35	0	20090716160	24	17891
2026-01-27 21:33:23.61	81.75	12.23	-24.9	-25.4	16.6	3.26e-05	0	35	0	20417871872	24	18019
2026-01-27 21:33:26.56	82.58	12.22	-25.0	-25.5	16.6	1.63e-05	0	35	0	20745027584	24	18229
2026-01-27 21:33:29.51	83.41	12.21	-24.8	-25.2	16.6	1.08e-05	0	35	0	21080571904	24	17792
2026-01-27 21:33:32.45	84.23	12.19	-24.7	-25.2	16.6	1.63e-05	0	35	0	21407727616	24	17669
2026-01-27 21:33:35.40	85.06	12.17	-25.0	-25.5	16.5	5.40e-06	0	35	0	21743271936	24	18324
2026-01-27 21:33:38.34	85.88	12.14	-25.0	-25.5	16.6	5.40e-06	0	35	0	22070427648	24	18266
2026-01-27 21:33:41.29	86.71	12.11	-24.8	-25.2	16.6	1.08e-05	0	35	0	22405971968	24	17725
2026-01-27 21:33:44.24	87.53	12.08	-25.0	-25.4	16.6	1.08e-05	0	35	0	22741516288	24	18112
2026-01-27 21:33:47.22	88.36	12.04	-25.0	-25.4	16.6	2.72e-05	0	35	0	23068672000	24	18152
2026-01-27 21:33:50.20	89.18	11.99	-25.0	-25.4	16.6	1.63e-05	0	35	0	23404216320	24	18194
2026-01-27 21:33:53.17	90.00	11.94	-25.0	-25.4	16.5	0.00e+00	0	35	0	23739760640	24	18099
2026-01-27 21:33:56.13	90.81	11.89	-24.8	-25.2	16.5	2.17e-05	0	35	0	24075304960	24	17780
2026-01-27 21:33:59.08	91.62	11.83	-25.1	-25.5	16.5	5.40e-06	0	35	0	24410849280	24	18296
2026-01-27 21:34:02.03	92.42	11.77	-24.8	-25.2	16.6	0.00e+00	0	35	0	24738004992	24	17698
2026-01-27 21:34:05.03	93.23	11.70	-24.8	-25.2	16.6	1.08e-05	0	35	0	25073549312	24	17688
2026-01-27 21:34:08.05	94.05	11.63	-24.9	-25.4	16.6	1.08e-05	0	35	0	25417482240	24	18038
2026-01-27 21:34:11.06	94.85	11.55	-24.9	-25.3	16.5	1.63e-05	0	35	0	25753026560	24	17940
2026-01-27 21:34:14.07	95.65	11.47	-24.9	-25.3	16.6	1.63e-05	0	35	0	26088570880	24	17872
2026-01-27 21:34:17.07	96.45	11.39	-24.8	-25.2	16.6	5.40e-06	0	35	0	26424115200	24	17799
2026-01-27 21:34:20.08	97.24	11.30	-24.9	-25.3	16.6	5.40e-06	0	35	0	26768048128	24	17917
2026-01-27 21:34:23.06	98.01	11.21	-24.9	-25.4	16.7	1.08e-05	0	35	0	27103592448	24	18047
2026-01-27 21:34:26.04	98.78	11.12	-24.9	-25.3	16.5	0.00e+00	0	35	0	27439136768	24	17863
2026-01-27 21:34:29.02	99.55	11.02	-25.0	-25.4	16.6	1.63e-05	0	35	0	27774681088	24	18219
2026-01-27 21:34:32.00	100.31	10.92	-24.9	-25.3	16.7	1.08e-05	0	35	0	28110225408	24	17983
2026-01-27 21:34:34.98	101.06	10.81	-24.9	-25.3	16.8	1.08e-05	0	35	0	28445769728	24	18001
2026-01-27 21:34:37.96	101.81	10.70	-25.2	-25.6	16.7	5.40e-06	0	35	0	28781314048	24	18510
2026-01-27 21:34:40.95	102.55	10.59	-25.1	-25.5	16.6	5.40e-06	0	35	0	29116858368	24	18302
2026-01-27 21:34:43.94	103.29	10.48	-25.2	-25.6	16.6	0.00e+00	0	35	0	29452402688	24	18511
2026-01-27 21:34:46.93	104.01	10.36	-25.1	-25.5	16.8	5.40e-06	0	35	0	29787947008	24	18346
2026-01-27 21:34:49.91	104.73	10.24	-48.1	-50.7	6.1	0.00e+00	0	35	104	30039605248	60	41818
2026-01-27 21:34:52.89	105.45	10.12	-48.1	-50.6	6.1	5.40e-06	0	35	104	30039605248	60	41538
2026-01-27 21:34:55.86	106.15	10.00	-48.2	-50.6	6.1	5.40e-06	0	35	104	30039605248	60	41727
2026-01-27 21:34:58.85	106.85	9.87	-48.1	-50.6	6.1	5.40e-06	0	35	104	30039605248	60	41468
2026-01-27 21:35:01.86	107.55	9.74	-48.0	-50.5	6.1	0.00e+00	0	35	104	30039605248	60	41235
2026-01-27 21:35:04.87	108.24	9.60	-48.0	-50.6	6.1	0.00e+00	0	35	104	30039605248	60	41278
2026-01-27 21:35:07.86	108.91	9.47	-48.0	-50.5	6.1	0.00e+00	0	35	104	30039605248	60	41062
2026-01-27 21:35:10.84	109.58	9.33	-48.0	-50.5	6.1	0.00e+00	0	35	104	30039605248	60	41149
2026-01-27 21:35:13.87	110.26	9.19	-48.1	-50.6	6.1	0.00e+00	0	34	104	30039605248	60	41552
2026-01-27 21:35:16.90	110.92	9.05	-48.1	-50.6	6.1	0.00e+00	0	35	104	30039605248	60	41480
2026-01-27 21:35:19.93	111.58	8.91	-48.2	-50.6	6.1	0.00e+00	0	34	104	30039605248	60	41630
2026-01-27 21:35:22.96	112.23	8.76	-47.9	-50.5	6.1	0.00e+00	0	34	104	30039605248	60	40840
2026-01-27 21:35:25.99	112.87	8.61	-48.2	-50.6	6.1	0.00e+00	0	34	104	30039605248	60	41653
2026-01-27 21:35:29.02	113.50	8.47	-48.1	-50.7	6.1	0.00e+00	0	34	104	30039605248	60	41807
2026-01-27 21:35:32.05	114.13	8.32	-48.1	-50.6	6.1	0.00e+00	0	34	104	30039605248	60	41449
2026-01-27 21:35:35.07	114.74	8.16	-48.2	-50.6	6.1	0.00e+00	0	34	104	30039605248	60	41505
2026-01-27 21:35:38.10	115.35	8.01	-48.2	-50.7	6.1	0.00e+00	0	34	104	30039605248	60	41926
2026-01-27 21:35:41.13	115.95	7.86	-48.1	-50.6	6.1	0.00e+00	0	34	104	30039605248	60	41626
2026-01-27 21:35:44.15	116.55	7.70	-48.1	-50.6	6.1	0.00e+00	0	34	104	30039605248	60	41353
2026-01-27 21:35:47.17	117.13	7.55	-48.1	-50.6	6.1	0.00e+00	0	34	104	30039605248	60	41434
2026-01-27 21:35:50.20	117.71	7.39	-48.2	-50.6	6.1	0.00e+00	0	34	104	30039605248	60	41604
2026-01-27 21:35:53.23	118.29	7.23	-48.1	-50.6	6.1	0.00e+00	0	34	104	30039605248	60	41448
2026-01-27 21:35:56.26	118.85	7.08	-48.1	-50.6	6.1	0.00e+00	0	34	104	30039605248	60	41585
2026-01-27 21:35:59.29	119.41	6.92	-47.9	-50.4	6.1	0.00e+00	0	34	104	30039605248	60	40599
2026-01-27 21:36:02.32	119.96	6.76	-48.1	-50.5	6.1	0.00e+00	0	34	104	30039605248	60	41139
2026-01-27 21:36:05.34	120.50	6.60	-47.8	-50.3	6.1	0.00e+00	0	34	104	30039605248	60	40314
2026-01-27 21:36:08.37	121.04	6.44	-47.7	-50.3	6.1	0.00e+00	0	34	104	30039605248	60	39917
2026-01-27 21:36:11.40	121.56	6.28	-47.8	-50.4	6.1	0.00e+00	0	34	104	30039605248	60	40347
2026-01-27 21:36:14.43	122.09	6.11	-47.8	-50.3	6.1	0.00e+00	0	34	104	30039605248	60	40035
2026-01-27 21:36:17.45	122.60	5.95	-47.9	-50.4	6.1	0.00e+00	0	34	104	30039605248	60	40652
2026-01-27 21:36:20.48	123.11	5.79	-47.8	-50.4	6.1	0.00e+00	0	34	104	30039605248	60	40339
2026-01-27 21:36:23.51	123.61	5.63	-47.9	-50.4	6.1	0.00e+00	0	34	104	30039605248	60	40467
2026-01-27 21:36:26.54	124.10	5.47	-47.9	-50.3	6.1	0.00e+00	0	34	104	30039605248	60	40172
2026-01-27 21:36:29.57	124.59	5.30	-47.9	-50.4	6.1	0.00e+00	0	34	104	30039605248	60	40506
2026-01-27 21:36:32.60	125.07	5.14	-47.9	-50.4	6.1	0.00e+00	0	34	104	30039605248	60	40457
2026-01-27 21:36:35.63	125.55	4.98	-47.9	-50.3	6.1	0.00e+00	0	34	104	30039605248	60	40233
2026-01-27 21:36:38.65	126.01	4.81	-47.8	-50.3	6.1	0.00e+00	0	34	104	30039605248	60	39992
2026-01-27 21:36:41.68	126.47	4.65	-47.8	-50.3	6.1	0.00e+00	0	34	104	30039605248	60	40041
2026-01-27 21:36:44.70	126.93	4.49	-47.8	-50.3	6.1	0.00e+00	0	34	104	30039605248	60	39959
2026-01-27 21:36:47.73	127.38	4.33	-47.8	-50.3	6.1	0.00e+00	0	34	104	30039605248	60	39919
2026-01-27 21:36:50.76	127.82	4.16	-47.6	-50.1	6.1	0.00e+00	0	34	104	30039605248	60	38990
2026-01-27 21:36:53.79	128.26	4.00	-47.7	-50.2	6.1	0.00e+00	0	34	104	30039605248	60	39539
2026-01-27 21:36:56.80	128.69	3.84	-47.7	-50.1	6.1	0.00e+00	0	34	104	30039605248	60	39122
2026-01-27 21:36:59.83	129.11	3.68	-47.7	-50.2	6.1	0.00e+00	0	34	104	30039605248	60	39558
2026-01-27 21:37:02.85	129.53	3.51	-47.3	-49.8	6.1	0.00e+00	0	34	104	30039605248	60	37969
2026-01-27 21:37:05.88	129.95	3.35	-47.5	-50.0	6.1	0.00e+00	0	34	104	30039605248	60	38842
2026-01-27 21:37:08.91	130.35	3.19	-47.4	-49.9	6.1	0.00e+00	0	34	104	30039605248	60	38429
2026-01-27 21:37:11.94	130.76	3.03	-47.6	-50.1	6.1	0.00e+00	0	34	104	30039605248	60	39123
2026-01-27 21:37:14.97	131.16	2.87	-48.4	-50.9	6.1	0.00e+00	0	34	104	30039605248	60	42846
2026-01-27 21:37:18.00	131.55	2.71	-48.7	-51.2	6.1	0.00e+00	0	34	104	30039605248	60	44272
2026-01-27 21:37:21.03	131.94	2.55	-48.9	-51.4	6.1	0.00e+00	0	34	104	30039605248	60	45298
2026-01-27 21:37:24.06	132.32	2.39	-48.7	-51.2	6.1	0.00e+00	0	34	104	30039605248	60	44573
2026-01-27 21:37:27.09	132.70	2.23	-49.0	-51.5	6.1	0.00e+00	0	34	104	30039605248	60	45937
2026-01-27 21:37:30.12	133.07	2.07	-49.0	-51.5	6.1	0.00e+00	0	34	104	30039605248	60	45847
2026-01-27 21:37:33.14	133.43	1.91	-49.0	-51.5	6.1	0.00e+00	0	34	104	30039605248	60	45909
2026-01-27 21:37:36.17	133.80	1.75	-49.0	-51.5	6.1	0.00e+00	0	34	104	30039605248	60	45774
2026-01-27 21:37:39.19	134.15	1.59	-49.0	-51.4	6.1	0.00e+00	0	34	104	30039605248	60	45497
2026-01-27 21:37:42.22	134.51	1.43	-48.9	-51.4	6.1	0.00e+00	0	34	104	30039605248	60	45576
2026-01-27 21:37:45.25	134.85	1.27	-48.9	-51.4	6.1	0.00e+00	0	34	104	30039605248	60	45562
2026-01-27 21:37:48.29	135.20	1.12	-48.9	-51.4	6.1	0.00e+00	0	34	104	30039605248	60	45737
2026-01-27 21:37:51.31	135.54	0.96	-48.9	-51.4	6.1	0.00e+00	0	34	104	30039605248	60	45502
2026-01-27 21:37:54.35	135.87	0.80	-48.9	-51.4	6.1	0.00e+00	0	34	104	30039605248	60	45503
2026-01-27 21:37:57.38	136.20	0.65	-48.9	-51.4	6.1	0.00e+00	0	34	104	30039605248	60	45408
2026-01-27 21:38:00.41	136.53	0.49	-48.9	-51.4	6.1	0.00e+00	0	34	104	30039605248	60	45477
2026-01-27 21:38:03.44	136.85	0.34	-48.9	-51.4	6.1	0.00e+00	0	34	104	30039605248	60	45548
2026-01-27 21:38:06.47	137.17	0.18	-48.9	-51.4	6.1	0.00e+00	0	34	104	30039605248	60	45313
2026-01-27 21:38:09.50	137.49	0.03	-48.9	-51.4	6.1	0.00e+00	0	34	104	30039605248	60	45433

#Closed at: 2026-01-27 21:38:11
#Recorded file [30039 MB]: D:/lorett/data/35029_260128_092859.dat