passes_logs/2026/01/27/R4.6S_Anadyr/R4.6S_Anadyr__20260127_165655_FENGYUN_3D_rec.log

#Pass ID: 20260127_165655_FENGYUN 3D
#Satellite: FENGYUN 3D
#Configuration: FENGYUN 3D
#almurnet v.1.7.20251203
#Start time: 2026-01-27 16:56:57

#Version: 2.2.20231116
#Station: R4.6S_Anadyr
#Location: 177.4865 lon 64.73178 lat
#TLE: 1 43010U 17072A   26026.91415486  .00000072  00000+0  55983-4 0  9991
#TLE: 2 43010  98.9962 358.9161 0002508  89.0320 271.1142 14.19700283424949

#Time	Az	El	Level	Level2	SNR	BER	BlckErr	Temp	State	Recorded	gain1	gain2
2026-01-27 16:56:57.47	21.31	0.13	-48.8	-66.5	3.5	3.02e+01	0	30	0	0	60	81489
2026-01-27 16:57:01.47	21.32	0.37	-48.6	-60.7	3.6	8.45e-01	0	31	104	0	60	39319
2026-01-27 16:57:05.51	21.32	0.61	-48.6	-60.8	3.6	8.45e-01	0	31	104	0	60	39645
2026-01-27 16:57:09.55	21.33	0.86	-48.7	-60.8	3.6	8.44e-01	0	31	104	0	60	39571
2026-01-27 16:57:13.59	21.33	1.11	-48.5	-60.6	3.6	8.47e-01	0	31	104	0	60	38656
2026-01-27 16:57:17.63	21.34	1.36	-48.1	-60.2	3.6	8.45e-01	0	32	104	0	60	36844
2026-01-27 16:57:21.67	21.34	1.61	-47.3	-59.4	3.6	8.44e-01	0	32	104	0	60	33703
2026-01-27 16:57:25.71	21.35	1.87	-47.2	-58.9	3.6	8.44e-01	0	32	104	0	60	31859
2026-01-27 16:57:29.74	21.35	2.13	-47.3	-59.3	3.6	8.44e-01	0	32	104	0	60	33348
2026-01-27 16:57:33.78	21.36	2.39	-47.2	-58.3	3.6	8.45e-01	0	32	104	0	60	29555
2026-01-27 16:57:37.82	21.36	2.65	-46.7	-53.4	4.4	7.56e-01	0	32	0	0	60	16827
2026-01-27 16:57:41.86	21.37	2.91	-46.8	-54.8	4.0	8.31e-01	0	32	0	0	60	19972
2026-01-27 16:57:45.90	21.37	3.18	-43.2	-45.5	13.0	2.57e-04	0	32	0	16777216	60	6804
2026-01-27 16:57:49.94	21.37	3.45	-39.0	-40.1	18.5	0.00e+00	0	32	0	39845888	52	5788
2026-01-27 16:57:53.98	21.38	3.72	-38.7	-39.8	18.6	0.00e+00	0	32	0	62914560	50	6304
2026-01-27 16:57:58.02	21.38	4.00	-47.0	-56.0	3.6	2.42e-01	0	32	104	83886080	60	22809
2026-01-27 16:58:02.06	21.38	4.28	-36.3	-37.1	21.2	0.00e+00	0	32	0	89128960	46	5818
2026-01-27 16:58:06.10	21.39	4.56	-35.3	-36.1	22.4	0.00e+00	0	32	0	111149056	44	5786
2026-01-27 16:58:10.14	21.39	4.84	-34.8	-35.5	23.0	0.00e+00	0	32	0	134217728	42	6077
2026-01-27 16:58:14.18	21.39	5.13	-35.1	-35.8	22.7	0.00e+00	0	32	0	157286400	42	6304
2026-01-27 16:58:18.22	21.39	5.42	-34.7	-35.5	23.1	0.00e+00	0	32	0	179306496	42	6034
2026-01-27 16:58:22.26	21.39	5.72	-34.6	-35.4	23.1	0.00e+00	0	32	0	202375168	42	5979
2026-01-27 16:58:26.30	21.39	6.01	-34.1	-34.8	23.8	0.00e+00	0	32	0	225443840	42	5570
2026-01-27 16:58:30.33	21.39	6.31	-34.8	-35.5	23.1	0.00e+00	0	32	0	247463936	42	6081
2026-01-27 16:58:34.37	21.39	6.62	-34.0	-34.7	23.9	0.00e+00	0	32	0	270532608	42	5523
2026-01-27 16:58:38.41	21.39	6.92	-34.1	-34.8	23.8	0.00e+00	0	32	0	293601280	42	5583
2026-01-27 16:58:42.45	21.39	7.24	-34.2	-35.0	23.8	0.00e+00	0	32	0	315621376	42	5700
2026-01-27 16:58:46.49	21.39	7.55	-33.9	-34.7	24.0	0.00e+00	0	32	0	338690048	42	5511
2026-01-27 16:58:50.53	21.39	7.87	-34.1	-34.8	24.0	0.00e+00	0	32	0	361758720	42	5614
2026-01-27 16:58:54.56	21.39	8.19	-33.8	-34.6	24.2	0.00e+00	0	32	0	383778816	40	6104
2026-01-27 16:58:58.60	21.38	8.52	-33.8	-34.5	24.2	0.00e+00	0	32	0	406847488	40	6058
2026-01-27 16:59:02.64	21.38	8.85	-33.4	-34.1	24.7	0.00e+00	0	32	0	429916160	40	5802
2026-01-27 16:59:06.68	21.38	9.19	-33.4	-34.1	24.6	0.00e+00	0	32	0	451936256	40	5800
2026-01-27 16:59:10.72	21.37	9.53	-33.2	-33.9	24.8	0.00e+00	0	32	0	475004928	40	5678
2026-01-27 16:59:14.76	21.37	9.88	-33.1	-33.8	24.9	0.00e+00	0	32	0	498073600	40	5606
2026-01-27 16:59:18.80	21.37	10.23	-33.3	-33.9	24.8	0.00e+00	0	32	0	520093696	40	5688
2026-01-27 16:59:22.84	21.36	10.58	-33.3	-34.0	24.8	0.00e+00	0	32	0	543162368	40	5736
2026-01-27 16:59:26.87	21.35	10.94	-33.1	-33.7	25.0	0.00e+00	0	32	0	566231040	40	5554
2026-01-27 16:59:30.91	21.35	11.31	-33.0	-33.6	25.1	0.00e+00	0	32	0	588251136	40	5491
2026-01-27 16:59:34.94	21.34	11.68	-32.9	-33.5	25.1	0.00e+00	0	32	0	611319808	40	5435
2026-01-27 16:59:38.98	21.33	12.06	-32.9	-33.6	25.2	0.00e+00	0	32	0	634388480	40	5445
2026-01-27 16:59:43.01	21.32	12.44	-33.0	-33.6	25.2	0.00e+00	0	32	0	656408576	40	5499
2026-01-27 16:59:47.05	21.32	12.83	-32.8	-33.5	25.3	0.00e+00	0	32	0	679477248	40	5378
2026-01-27 16:59:51.09	21.31	13.23	-32.6	-33.3	25.4	0.00e+00	0	32	0	702545920	38	5938
2026-01-27 16:59:55.12	21.29	13.63	-32.3	-32.9	25.9	0.00e+00	0	32	0	724566016	38	5667
2026-01-27 16:59:59.16	21.28	14.04	-31.9	-32.5	26.1	0.00e+00	0	32	0	747634688	38	5426
2026-01-27 17:00:03.20	21.27	14.45	-31.8	-32.4	26.2	0.00e+00	0	32	0	770703360	38	5368
2026-01-27 17:00:07.23	21.26	14.88	-31.5	-32.2	26.5	0.00e+00	0	32	0	792723456	36	5836
2026-01-27 17:00:11.27	21.24	15.31	-31.5	-32.1	26.6	0.00e+00	0	32	0	815792128	36	5807
2026-01-27 17:00:15.31	21.23	15.75	-31.3	-31.9	26.7	0.00e+00	0	32	0	838860800	36	5691
2026-01-27 17:00:19.34	21.21	16.19	-31.4	-32.1	26.6	0.00e+00	0	32	0	860880896	36	5764
2026-01-27 17:00:23.39	21.20	16.65	-31.2	-31.8	26.7	0.00e+00	0	32	0	883949568	36	5620
2026-01-27 17:00:27.42	21.18	17.11	-31.1	-31.7	26.9	0.00e+00	0	32	0	905969664	36	5537
2026-01-27 17:00:31.45	21.16	17.58	-30.9	-31.5	27.0	0.00e+00	0	32	0	929038336	36	5435
2026-01-27 17:00:35.49	21.14	18.07	-30.8	-31.5	27.2	0.00e+00	0	32	0	952107008	36	5389
2026-01-27 17:00:39.52	21.12	18.56	-30.7	-31.3	27.2	0.00e+00	0	32	0	974127104	34	5952
2026-01-27 17:00:43.56	21.10	19.06	-30.6	-31.2	27.2	0.00e+00	0	32	0	997195776	34	5884
2026-01-27 17:00:47.60	21.07	19.57	-30.5	-31.2	27.3	0.00e+00	0	32	0	1020264448	34	5854
2026-01-27 17:00:51.64	21.05	20.10	-30.4	-31.0	27.5	0.00e+00	0	32	0	1043333120	34	5711
2026-01-27 17:00:55.67	21.02	20.63	-30.3	-30.9	27.6	0.00e+00	0	32	0	1065353216	34	5643
2026-01-27 17:00:59.71	20.99	21.17	-30.3	-30.9	27.7	0.00e+00	0	32	0	1088421888	34	5631
2026-01-27 17:01:03.75	20.96	21.73	-30.1	-30.6	27.8	0.00e+00	0	32	0	1110441984	34	5500
2026-01-27 17:01:07.79	20.93	22.30	-30.3	-31.0	27.6	0.00e+00	0	32	0	1133510656	34	5702
2026-01-27 17:01:11.83	20.90	22.89	-30.2	-30.9	27.7	0.00e+00	0	32	0	1156579328	34	5632
2026-01-27 17:01:15.87	20.86	23.49	-30.2	-30.8	27.7	0.00e+00	0	33	0	1178599424	34	5604
2026-01-27 17:01:19.90	20.83	24.10	-30.1	-30.7	27.8	0.00e+00	0	32	0	1201668096	34	5516
2026-01-27 17:01:23.94	20.79	24.72	-29.9	-30.5	28.0	0.00e+00	0	32	0	1224736768	34	5406
2026-01-27 17:01:27.99	20.74	25.37	-29.9	-30.4	28.0	0.00e+00	0	32	0	1247805440	32	6033
2026-01-27 17:01:32.02	20.70	26.02	-29.8	-30.4	28.1	0.00e+00	0	32	0	1269825536	32	5996
2026-01-27 17:01:36.06	20.65	26.70	-29.5	-30.1	28.3	0.00e+00	0	32	0	1292894208	32	5811
2026-01-27 17:01:40.10	20.60	27.39	-29.5	-30.1	28.2	0.00e+00	0	32	0	1314914304	32	5818
2026-01-27 17:01:44.13	20.55	28.10	-29.6	-30.2	28.2	0.00e+00	0	32	0	1337982976	32	5847
2026-01-27 17:01:48.17	20.50	28.82	-29.7	-30.3	28.3	0.00e+00	0	32	0	1361051648	32	5960
2026-01-27 17:01:52.21	20.44	29.57	-29.5	-30.1	28.4	0.00e+00	0	32	0	1383071744	32	5792
2026-01-27 17:01:56.26	20.37	30.34	-29.6	-30.2	28.3	0.00e+00	0	32	0	1406140416	32	5842
2026-01-27 17:02:00.29	20.31	31.13	-29.6	-30.2	28.2	0.00e+00	0	32	0	1429209088	32	5883
2026-01-27 17:02:04.34	20.24	31.94	-29.2	-29.9	28.5	0.00e+00	0	32	0	1452277760	32	5631
2026-01-27 17:02:08.37	20.16	32.77	-28.9	-29.4	28.8	0.00e+00	0	32	0	1474297856	30	6019
2026-01-27 17:02:12.41	20.08	33.63	-29.2	-29.8	28.6	0.00e+00	0	32	0	1497366528	30	6295
2026-01-27 17:02:16.45	20.00	34.51	-29.2	-29.8	28.6	0.00e+00	0	32	0	1519386624	30	6271
2026-01-27 17:02:20.49	19.90	35.42	-29.0	-29.6	28.8	0.00e+00	0	32	0	1542455296	30	6127
2026-01-27 17:02:24.53	19.81	36.36	-29.4	-29.9	28.5	0.00e+00	0	32	0	1565523968	30	6388
2026-01-27 17:02:28.57	19.70	37.32	-28.5	-29.0	29.1	0.00e+00	0	32	0	1587544064	30	5759
2026-01-27 17:02:32.61	19.59	38.31	-29.0	-29.6	28.8	0.00e+00	0	32	0	1610612736	30	6131
2026-01-27 17:02:36.64	19.47	39.33	-29.1	-29.7	28.7	0.00e+00	0	32	0	1633681408	30	6186
2026-01-27 17:02:40.68	19.34	40.38	-29.2	-29.8	28.6	0.00e+00	0	32	0	1655701504	30	6256
2026-01-27 17:02:44.71	19.21	41.46	-29.1	-29.8	28.7	0.00e+00	0	32	0	1678770176	30	6248
2026-01-27 17:02:48.76	19.06	42.58	-29.1	-29.7	28.7	0.00e+00	0	32	0	1701838848	30	6183
2026-01-27 17:02:52.79	18.90	43.73	-29.7	-30.3	28.2	0.00e+00	0	32	0	1723858944	30	6664
2026-01-27 17:02:56.83	18.72	44.91	-29.6	-30.2	28.3	0.00e+00	0	32	0	1746927616	32	5893
2026-01-27 17:03:00.87	18.53	46.14	-30.0	-30.6	28.1	0.00e+00	0	32	0	1769996288	32	6144
2026-01-27 17:03:04.91	18.32	47.40	-29.8	-30.4	28.3	0.00e+00	0	32	0	1792016384	32	5981
2026-01-27 17:03:08.95	18.10	48.69	-29.7	-30.3	28.2	0.00e+00	0	32	0	1815085056	32	5933
2026-01-27 17:03:12.99	17.85	50.03	-29.4	-29.9	28.6	0.00e+00	0	32	0	1838153728	32	5688
2026-01-27 17:03:17.03	17.58	51.41	-30.2	-30.8	27.8	0.00e+00	0	32	0	1860173824	32	6273
2026-01-27 17:03:21.08	17.28	52.83	-30.7	-31.2	27.5	0.00e+00	0	32	0	1883242496	32	6608
2026-01-27 17:03:25.11	16.95	54.28	-30.9	-31.5	27.3	0.00e+00	0	32	0	1906311168	34	6070
2026-01-27 17:03:29.15	16.58	55.78	-30.4	-31.0	27.7	0.00e+00	0	32	0	1928331264	34	5754
2026-01-27 17:03:33.18	16.16	57.32	-30.2	-30.8	27.9	0.00e+00	0	32	0	1951399936	34	5589
2026-01-27 17:03:37.22	15.70	58.90	-29.6	-30.2	28.2	0.00e+00	0	32	0	1974468608	32	5885
2026-01-27 17:03:41.26	15.17	60.52	-29.3	-29.9	28.4	0.00e+00	0	32	0	1996488704	32	5679
2026-01-27 17:03:45.30	14.56	62.19	-29.3	-29.9	28.3	0.00e+00	0	32	0	2019557376	32	5639
2026-01-27 17:03:49.34	13.87	63.89	-28.7	-29.3	28.9	0.00e+00	0	32	0	2042626048	30	5911
2026-01-27 17:03:53.38	13.06	65.62	-28.7	-29.3	29.0	0.00e+00	0	32	0	2064646144	30	5912
2026-01-27 17:03:57.42	12.10	67.39	-28.8	-29.4	28.8	0.00e+00	0	32	0	2087714816	30	6004
2026-01-27 17:04:01.45	10.97	69.19	-28.6	-29.1	29.0	0.00e+00	0	32	0	2110783488	30	5818
2026-01-27 17:04:05.48	9.60	71.01	-28.1	-28.7	29.2	0.00e+00	0	32	0	2132803584	30	5562
2026-01-27 17:04:09.51	7.91	72.86	-27.7	-28.4	29.5	0.00e+00	0	32	0	2155872256	30	5317
2026-01-27 17:04:13.55	5.78	74.72	-27.2	-27.7	29.9	0.00e+00	0	32	0	2178940928	28	5520
2026-01-27 17:04:17.59	3.03	76.58	-27.3	-27.9	29.8	0.00e+00	0	32	0	2200961024	28	5639
2026-01-27 17:04:21.63	359.37	78.42	-27.0	-27.6	29.9	0.00e+00	0	32	0	2224029696	28	5457
2026-01-27 17:04:25.66	354.30	80.22	-27.0	-27.6	30.0	0.00e+00	0	32	0	2247098368	26	6133
2026-01-27 17:04:29.70	346.96	81.92	-27.0	-27.6	30.1	0.00e+00	0	32	0	2269118464	26	6157
2026-01-27 17:04:33.74	335.91	83.44	-26.5	-27.1	30.3	0.00e+00	0	32	0	2292187136	26	5823
2026-01-27 17:04:37.78	319.24	84.59	-27.1	-27.6	29.8	0.00e+00	0	32	0	2314207232	26	6149
2026-01-27 17:04:41.82	296.67	85.09	-26.7	-27.2	30.2	0.00e+00	0	32	0	2337275904	26	5881
2026-01-27 17:04:45.86	273.37	84.75	-27.2	-27.9	29.8	0.00e+00	0	32	0	2360344576	26	6321
2026-01-27 17:04:49.90	255.42	83.70	-27.2	-27.8	29.8	0.00e+00	0	32	0	2383413248	26	6248
2026-01-27 17:04:53.94	243.42	82.24	-26.8	-27.4	29.9	0.00e+00	0	32	0	2405433344	26	5979
2026-01-27 17:04:57.98	235.48	80.56	-26.6	-27.2	30.3	0.00e+00	0	32	0	2428502016	26	5860
2026-01-27 17:05:02.01	230.05	78.78	-26.8	-27.3	30.1	0.00e+00	0	32	0	2451570688	26	5954
2026-01-27 17:05:06.05	226.14	76.94	-26.8	-27.4	30.1	0.00e+00	0	32	0	2473590784	26	5996
2026-01-27 17:05:10.09	223.24	75.08	-27.4	-28.0	29.7	0.00e+00	0	32	0	2496659456	26	6429
2026-01-27 17:05:14.13	221.01	73.21	-27.9	-28.5	29.2	0.00e+00	0	32	0	2519728128	28	6048
2026-01-27 17:05:18.17	219.24	71.36	-28.1	-28.7	29.2	0.00e+00	0	32	0	2541748224	28	6236
2026-01-27 17:05:22.21	217.81	69.52	-28.4	-28.9	29.0	0.00e+00	0	32	0	2564816896	28	6325
2026-01-27 17:05:26.25	216.63	67.71	-28.7	-29.3	28.8	0.00e+00	0	33	0	2587885568	30	5912
2026-01-27 17:05:30.29	215.65	65.93	-28.8	-29.5	28.7	0.00e+00	0	32	0	2609905664	30	6039
2026-01-27 17:05:34.33	214.81	64.19	-28.4	-28.9	29.0	0.00e+00	0	32	0	2632974336	30	5684
2026-01-27 17:05:38.37	214.10	62.48	-28.5	-29.1	29.0	0.00e+00	0	32	0	2656043008	30	5815
2026-01-27 17:05:42.41	213.48	60.80	-29.3	-30.0	28.4	0.00e+00	0	32	0	2678063104	30	6393
2026-01-27 17:05:46.44	212.93	59.17	-29.7	-30.3	28.2	0.00e+00	0	32	0	2701131776	30	6632
2026-01-27 17:05:50.48	212.46	57.58	-30.0	-30.6	27.9	0.00e+00	0	32	0	2723151872	32	6163
2026-01-27 17:05:54.52	212.03	56.03	-30.7	-31.2	27.1	0.00e+00	0	32	0	2746220544	34	5885
2026-01-27 17:05:58.56	211.65	54.52	-30.2	-30.7	27.6	0.00e+00	0	32	0	2769289216	34	5547
2026-01-27 17:06:02.60	211.31	53.05	-29.6	-30.1	28.3	0.00e+00	0	32	0	2792357888	32	5768
2026-01-27 17:06:06.64	211.01	51.62	-29.9	-30.6	27.9	0.00e+00	0	32	0	2814377984	32	6118
2026-01-27 17:06:10.67	210.73	50.23	-29.3	-29.8	28.4	0.00e+00	0	32	0	2837446656	32	5609
2026-01-27 17:06:14.71	210.48	48.88	-29.1	-29.8	28.5	0.00e+00	0	32	0	2860515328	32	5568
2026-01-27 17:06:18.75	210.25	47.58	-29.3	-29.8	28.3	0.00e+00	0	32	0	2882535424	32	5599
2026-01-27 17:06:22.79	210.03	46.31	-29.1	-29.7	28.5	0.00e+00	0	32	0	2905604096	32	5519
2026-01-27 17:06:26.82	209.84	45.08	-28.9	-29.6	28.7	0.00e+00	0	32	0	2927624192	32	5441
2026-01-27 17:06:30.86	209.66	43.88	-29.3	-29.8	28.4	0.00e+00	0	32	0	2950692864	32	5601
2026-01-27 17:06:34.90	209.50	42.72	-29.0	-29.6	28.6	0.00e+00	0	32	0	2973761536	32	5495
2026-01-27 17:06:38.94	209.34	41.59	-28.8	-29.5	28.8	0.00e+00	0	32	0	2996830208	32	5403
2026-01-27 17:06:42.98	209.20	40.50	-28.7	-29.3	28.8	0.00e+00	0	32	0	3018850304	32	5269
2026-01-27 17:06:47.02	209.07	39.44	-28.6	-29.2	29.0	0.00e+00	0	32	0	3041918976	30	5861
2026-01-27 17:06:51.06	208.95	38.41	-28.5	-29.2	28.8	0.00e+00	0	32	0	3064987648	30	5863
2026-01-27 17:06:55.10	208.83	37.41	-28.3	-29.0	29.1	0.00e+00	0	32	0	3087007744	30	5721
2026-01-27 17:06:59.13	208.73	36.44	-28.4	-28.9	29.1	0.00e+00	0	32	0	3110076416	30	5647
2026-01-27 17:07:03.17	208.63	35.50	-28.9	-29.5	28.7	0.00e+00	0	33	0	3132096512	30	6050
2026-01-27 17:07:07.21	208.53	34.58	-29.1	-29.7	28.5	0.00e+00	0	33	0	3155165184	30	6200
2026-01-27 17:07:11.25	208.45	33.70	-29.0	-29.7	28.6	0.00e+00	0	33	0	3178233856	30	6200
2026-01-27 17:07:15.29	208.36	32.83	-29.1	-29.6	28.6	0.00e+00	0	33	0	3201302528	30	6136
2026-01-27 17:07:19.33	208.29	31.99	-29.2	-29.9	28.5	0.00e+00	0	32	0	3223322624	30	6369
2026-01-27 17:07:23.37	208.21	31.17	-29.2	-29.9	28.5	0.00e+00	0	32	0	3246391296	30	6318
2026-01-27 17:07:27.41	208.15	30.38	-29.2	-29.8	28.6	0.00e+00	0	32	0	3269459968	30	6290
2026-01-27 17:07:31.45	208.08	29.60	-28.8	-29.5	28.7	0.00e+00	0	32	0	3291480064	30	6048
2026-01-27 17:07:35.49	208.02	28.85	-29.1	-29.7	28.5	0.00e+00	0	32	0	3314548736	30	6236
2026-01-27 17:07:39.53	207.96	28.12	-29.4	-30.1	28.3	0.00e+00	0	32	0	3336568832	30	6472
2026-01-27 17:07:43.57	207.91	27.40	-29.1	-29.8	28.6	0.00e+00	0	32	0	3359637504	30	6293
2026-01-27 17:07:47.61	207.85	26.71	-29.3	-29.8	28.5	0.00e+00	0	32	0	3382706176	30	6265
2026-01-27 17:07:51.65	207.81	26.03	-29.2	-29.8	28.5	0.00e+00	0	32	0	3405774848	30	6248
2026-01-27 17:07:55.69	207.76	25.36	-29.4	-30.0	28.3	0.00e+00	0	32	0	3427794944	30	6398
2026-01-27 17:07:59.73	207.71	24.72	-29.7	-30.2	28.1	0.00e+00	0	32	0	3450863616	30	6576
2026-01-27 17:08:03.76	207.67	24.09	-29.8	-30.3	28.0	0.00e+00	0	32	0	3473932288	32	5941
2026-01-27 17:08:07.80	207.63	23.47	-29.8	-30.5	28.1	0.00e+00	0	32	0	3495952384	32	6088
2026-01-27 17:08:11.84	207.60	22.87	-29.8	-30.3	28.0	0.00e+00	0	33	0	3519021056	32	5921
2026-01-27 17:08:15.88	207.56	22.28	-29.8	-30.3	28.0	0.00e+00	0	32	0	3541041152	32	5937
2026-01-27 17:08:19.92	207.53	21.71	-30.0	-30.5	27.8	0.00e+00	0	32	0	3564109824	32	6058
2026-01-27 17:08:23.96	207.49	21.15	-30.2	-30.9	27.7	0.00e+00	0	32	0	3587178496	32	6335
2026-01-27 17:08:27.99	207.46	20.60	-30.3	-31.0	27.6	0.00e+00	0	32	0	3610247168	32	6413
2026-01-27 17:08:32.04	207.43	20.06	-30.5	-31.1	27.4	0.00e+00	0	33	0	3632267264	32	6473
2026-01-27 17:08:36.08	207.41	19.53	-30.6	-31.2	27.2	0.00e+00	0	32	0	3655335936	32	6578
2026-01-27 17:08:40.12	207.38	19.02	-30.8	-31.3	27.2	0.00e+00	0	32	0	3678404608	34	5950
2026-01-27 17:08:44.16	207.36	18.51	-31.1	-31.6	27.0	0.00e+00	0	32	0	3700424704	34	6156
2026-01-27 17:08:48.20	207.33	18.02	-31.0	-31.8	26.9	0.00e+00	0	33	0	3723493376	34	6247
2026-01-27 17:08:52.23	207.31	17.53	-31.1	-31.9	26.9	0.00e+00	0	32	0	3745513472	34	6323
2026-01-27 17:08:56.27	207.29	17.06	-31.2	-31.8	26.8	0.00e+00	0	32	0	3768582144	34	6287
2026-01-27 17:09:00.30	207.27	16.59	-31.4	-31.9	26.7	0.00e+00	0	32	0	3791650816	34	6376
2026-01-27 17:09:04.34	207.25	16.13	-31.5	-32.2	26.6	0.00e+00	0	33	0	3814719488	34	6564
2026-01-27 17:09:08.38	207.23	15.68	-31.8	-32.3	26.4	0.00e+00	0	32	0	3836739584	36	5950
2026-01-27 17:09:12.42	207.21	15.24	-31.9	-32.5	26.3	0.00e+00	0	32	0	3859808256	36	6056
2026-01-27 17:09:16.46	207.20	14.81	-32.0	-32.6	26.2	0.00e+00	0	32	0	3882876928	36	6111
2026-01-27 17:09:20.50	207.18	14.38	-32.0	-32.6	26.2	0.00e+00	0	33	0	3904897024	36	6110
2026-01-27 17:09:24.54	207.17	13.97	-32.2	-32.7	26.0	0.00e+00	0	32	0	3927965696	36	6229
2026-01-27 17:09:28.58	207.15	13.55	-32.3	-32.9	25.9	0.00e+00	0	32	0	3949985792	36	6327
2026-01-27 17:09:32.62	207.14	13.15	-32.4	-33.1	25.8	0.00e+00	0	32	0	3973054464	36	6514
2026-01-27 17:09:36.65	207.13	12.75	-32.6	-33.2	25.6	0.00e+00	0	32	0	3996123136	36	6558
2026-01-27 17:09:40.69	207.11	12.36	-32.5	-33.1	25.6	0.00e+00	0	32	0	4019191808	36	6526
2026-01-27 17:09:44.74	207.10	11.97	-32.7	-33.3	25.5	0.00e+00	0	32	0	4041211904	38	5928
2026-01-27 17:09:48.78	207.09	11.60	-32.7	-33.5	25.5	0.00e+00	0	32	0	4064280576	38	6044
2026-01-27 17:09:52.82	207.08	11.22	-32.9	-33.5	25.3	0.00e+00	0	32	0	4087349248	38	6046
2026-01-27 17:09:56.86	207.07	10.85	-33.0	-33.6	25.1	0.00e+00	0	33	0	4109369344	38	6135
2026-01-27 17:10:00.90	207.06	10.49	-33.0	-33.6	25.1	0.00e+00	0	32	0	4132438016	38	6172
2026-01-27 17:10:04.94	207.06	10.13	-33.1	-33.7	25.1	0.00e+00	0	32	0	4155506688	38	6215
2026-01-27 17:10:08.98	207.05	9.78	-33.3	-34.0	24.9	0.00e+00	0	32	0	4177526784	38	6450
2026-01-27 17:10:13.02	207.04	9.43	-33.3	-34.1	24.7	0.00e+00	0	33	0	4200595456	38	6483
2026-01-27 17:10:17.05	207.03	9.09	-33.4	-34.2	24.8	0.00e+00	0	33	0	4223664128	38	6540
2026-01-27 17:10:21.09	207.03	8.76	-33.5	-34.3	24.6	0.00e+00	0	33	0	4245684224	40	5900
2026-01-27 17:10:25.13	207.02	8.42	-33.6	-34.3	24.4	0.00e+00	0	33	0	4268752896	40	5918
2026-01-27 17:10:29.17	207.01	8.09	-33.7	-34.3	24.3	0.00e+00	0	32	0	4290772992	40	5946
2026-01-27 17:10:33.21	207.01	7.77	-34.1	-34.7	24.0	0.00e+00	0	33	0	4313841664	40	6244
2026-01-27 17:10:37.25	207.00	7.45	-34.0	-34.8	24.0	0.00e+00	0	33	0	4336910336	40	6260
2026-01-27 17:10:41.28	207.00	7.13	-34.3	-35.1	23.8	0.00e+00	0	33	0	4359979008	40	6471
2026-01-27 17:10:45.32	207.00	6.82	-34.2	-34.9	23.7	0.00e+00	0	32	0	4381999104	40	6331
2026-01-27 17:10:49.36	206.99	6.51	-34.4	-35.1	23.5	0.00e+00	0	32	0	4405067776	40	6481
2026-01-27 17:10:53.40	206.99	6.21	-34.4	-35.2	23.5	0.00e+00	0	32	0	4428136448	40	6584
2026-01-27 17:10:57.44	206.99	5.90	-34.5	-35.2	23.3	0.00e+00	0	32	0	4450156544	40	6603
2026-01-27 17:11:01.47	206.98	5.61	-34.6	-35.4	23.2	0.00e+00	0	32	0	4473225216	42	6027
2026-01-27 17:11:05.51	206.98	5.31	-35.0	-35.9	22.7	0.00e+00	0	33	0	4495245312	42	6359
2026-01-27 17:11:09.55	206.98	5.02	-35.4	-36.2	22.4	0.00e+00	0	33	0	4518313984	42	6601
2026-01-27 17:11:13.58	206.98	4.73	-35.1	-35.9	22.7	0.00e+00	0	33	0	4541382656	42	6318
2026-01-27 17:11:17.62	206.97	4.45	-35.9	-36.7	21.8	0.00e+00	0	33	0	4563402752	44	6186
2026-01-27 17:11:21.66	206.97	4.16	-35.6	-36.4	22.0	0.00e+00	0	32	0	4586471424	44	6032
2026-01-27 17:11:25.70	206.97	3.88	-36.3	-37.1	21.2	0.00e+00	0	32	0	4609540096	44	6520
2026-01-27 17:11:29.75	206.97	3.61	-36.1	-37.0	21.3	0.00e+00	0	33	0	4632608768	44	6396
2026-01-27 17:11:33.79	206.97	3.33	-35.6	-36.5	21.8	0.00e+00	0	32	0	4654628864	44	6072
2026-01-27 17:11:37.82	206.97	3.06	-35.9	-36.7	21.5	0.00e+00	0	32	0	4677697536	46	5519
2026-01-27 17:11:41.86	206.97	2.79	-48.3	-60.3	3.6	8.46e-01	0	33	104	4681891840	60	37617
2026-01-27 17:11:45.90	206.97	2.53	-48.3	-60.7	3.6	8.46e-01	0	33	104	4681891840	60	39258
2026-01-27 17:11:49.94	206.97	2.27	-48.6	-60.8	3.6	8.46e-01	0	33	104	4681891840	60	39786
2026-01-27 17:11:53.98	206.97	2.00	-48.1	-60.7	3.6	8.44e-01	0	33	104	4681891840	60	39303
2026-01-27 17:11:58.02	206.97	1.75	-48.5	-60.7	3.6	8.45e-01	0	33	104	4681891840	60	39048
2026-01-27 17:12:02.06	206.97	1.49	-48.4	-60.5	3.6	8.46e-01	0	33	104	4681891840	60	38508
2026-01-27 17:12:06.10	206.97	1.24	-48.5	-60.7	3.6	8.46e-01	0	33	104	4681891840	60	39034
2026-01-27 17:12:10.14	206.98	0.98	-48.5	-60.7	3.6	8.46e-01	0	33	104	4681891840	60	39069
2026-01-27 17:12:14.19	206.98	0.73	-48.5	-60.7	3.6	8.45e-01	0	33	104	4681891840	60	39059
2026-01-27 17:12:18.23	206.98	0.49	-48.5	-60.6	3.6	8.44e-01	0	33	104	4681891840	60	38651
2026-01-27 17:12:22.27	206.98	0.24	-48.5	-60.6	3.6	8.45e-01	0	33	104	4681891840	60	38640
2026-01-27 17:12:26.31	206.98	-0.00	-48.5	-60.6	3.6	8.45e-01	0	33	104	4681891840	60	38927

#Closed at: 2026-01-27 17:12:28
#Recorded file [4681 MB]: D:/lorett/data/35029_260128_045657.dat