passes_logs/2026/01/27/R4.6S_Anadyr/R4.6S_Anadyr__20260127_120929_NOAA_21_JPSS-2_rec.log

#Pass ID: 20260127_120929_NOAA 21 (JPSS-2)
#Satellite: NOAA 21 (JPSS-2)
#Configuration: NOAA-21
#almurnet v.1.7.20251203
#Start time: 2026-01-27 12:09:30

#Version: 2.2.20231116
#Station: R4.6S_Anadyr
#Location: 177.4865 lon 64.73178 lat
#TLE: 1 54234U 22150A   26026.78373243  .00000177  00000+0  10458-3 0  9996
#TLE: 2 54234  98.7509 327.5416 0000822 208.1870 151.9262 14.19539807166482

#Time	Az	El	Level	Level2	SNR	BER	BlckErr	Temp	State	Recorded	gain1	gain2
2026-01-27 12:09:30.44	19.31	0.05	-45.5	-59.9	3.5	1.51e+00	0	29	0	0	60	40110
2026-01-27 12:09:34.49	19.63	0.24	-49.1	-62.0	3.5	1.52e+00	0	31	104	0	60	44063
2026-01-27 12:09:38.53	19.96	0.43	-49.1	-61.9	3.5	1.52e+00	0	31	104	0	60	43769
2026-01-27 12:09:42.57	20.29	0.62	-49.1	-61.9	3.5	1.51e+00	0	31	104	0	60	43605
2026-01-27 12:09:46.60	20.62	0.81	-48.9	-61.7	3.5	1.52e+00	0	31	104	0	60	42747
2026-01-27 12:09:50.65	20.96	1.00	-48.5	-61.4	3.5	1.52e+00	0	31	104	0	60	41090
2026-01-27 12:09:54.69	21.30	1.19	-47.8	-60.5	3.5	1.52e+00	0	31	104	0	60	37353
2026-01-27 12:09:58.72	21.65	1.38	-47.5	-60.3	3.5	1.52e+00	0	31	104	0	60	36386
2026-01-27 12:10:02.77	22.00	1.57	-47.5	-60.3	3.5	1.52e+00	0	31	104	0	60	36184
2026-01-27 12:10:06.80	22.36	1.76	-47.5	-60.3	3.5	1.52e+00	0	31	104	0	60	36496
2026-01-27 12:10:10.84	22.72	1.96	-47.5	-60.2	3.5	1.52e+00	0	31	104	0	60	35926
2026-01-27 12:10:14.88	23.08	2.15	-47.5	-60.2	3.5	1.52e+00	0	31	104	0	60	36112
2026-01-27 12:10:18.92	23.45	2.34	-47.5	-60.1	3.5	1.52e+00	0	31	104	0	60	35487
2026-01-27 12:10:22.96	23.83	2.54	-47.4	-59.2	3.6	1.51e+00	0	31	104	0	60	32166
2026-01-27 12:10:27.00	24.20	2.73	-41.0	-42.7	16.9	0.00e+00	123	31	0	7340032	56	6007
2026-01-27 12:10:31.04	24.59	2.93	-38.6	-39.9	19.5	0.00e+00	122	31	0	20971520	50	6141
2026-01-27 12:10:35.08	24.97	3.12	-39.0	-40.3	19.6	0.00e+00	123	31	0	28311552	50	6477
2026-01-27 12:10:39.12	25.37	3.32	-41.6	-43.4	16.3	0.00e+00	122	31	0	34603008	56	6561
2026-01-27 12:10:43.16	25.77	3.51	-41.1	-42.8	17.0	0.00e+00	122	32	0	47185920	54	6841
2026-01-27 12:10:47.20	26.17	3.71	-41.3	-43.0	16.9	0.00e+00	122	32	0	59768832	56	6236
2026-01-27 12:10:51.24	26.58	3.90	-40.6	-42.2	17.8	0.00e+00	123	31	0	72351744	54	6372
2026-01-27 12:10:55.28	26.99	4.10	-39.1	-40.4	19.2	0.00e+00	122	32	0	84934656	52	5839
2026-01-27 12:10:59.32	27.41	4.30	-39.7	-41.1	18.8	0.00e+00	123	32	0	97517568	52	6317
2026-01-27 12:11:03.36	27.83	4.49	-40.1	-41.5	18.3	0.00e+00	122	32	0	110100480	52	6604
2026-01-27 12:11:07.40	28.26	4.69	-39.0	-40.2	19.6	0.00e+00	124	32	0	122683392	50	6398
2026-01-27 12:11:11.44	28.70	4.89	-37.8	-39.0	20.8	0.00e+00	122	32	0	135266304	50	5535
2026-01-27 12:11:15.48	29.14	5.09	-38.1	-39.3	20.5	0.00e+00	122	32	0	147849216	50	5735
2026-01-27 12:11:19.52	29.58	5.28	-37.5	-38.6	21.0	0.00e+00	123	32	0	160432128	48	5988
2026-01-27 12:11:23.57	30.04	5.48	-37.3	-38.4	21.3	0.00e+00	123	32	0	173015040	48	5847
2026-01-27 12:11:27.61	30.49	5.68	-37.2	-38.3	21.5	0.00e+00	123	32	0	185597952	48	5737
2026-01-27 12:11:31.64	30.96	5.88	-37.0	-38.1	21.6	0.00e+00	123	32	0	198180864	48	5628
2026-01-27 12:11:35.69	31.43	6.08	-37.2	-38.3	21.4	0.00e+00	120	32	0	210763776	48	5759
2026-01-27 12:11:39.72	31.90	6.27	-37.4	-38.5	21.5	0.00e+00	122	32	0	224395264	48	5895
2026-01-27 12:11:43.77	32.39	6.47	-36.7	-37.8	22.0	0.00e+00	122	32	0	236978176	46	6069
2026-01-27 12:11:47.81	32.88	6.67	-37.0	-38.0	21.8	0.00e+00	123	32	0	249561088	46	6257
2026-01-27 12:11:51.85	33.37	6.87	-37.2	-38.3	21.6	0.00e+00	123	32	0	262144000	46	6450
2026-01-27 12:11:55.88	33.87	7.06	-37.0	-38.1	21.8	0.00e+00	123	32	0	274726912	46	6281
2026-01-27 12:11:59.92	34.38	7.26	-37.2	-38.2	21.6	0.00e+00	122	32	0	287309824	46	6404
2026-01-27 12:12:03.97	34.90	7.45	-36.8	-37.9	22.0	0.00e+00	120	32	0	299892736	46	6141
2026-01-27 12:12:08.01	35.42	7.65	-36.6	-37.6	22.2	0.00e+00	120	32	0	312475648	46	5943
2026-01-27 12:12:12.05	35.94	7.85	-36.3	-37.4	22.4	0.00e+00	122	32	0	325058560	46	5803
2026-01-27 12:12:16.09	36.48	8.04	-36.4	-37.4	22.4	0.00e+00	120	32	0	337641472	46	5805
2026-01-27 12:12:20.13	37.02	8.23	-36.1	-37.1	22.6	0.00e+00	121	32	0	350224384	46	5634
2026-01-27 12:12:24.18	37.57	8.43	-36.3	-37.3	22.5	0.00e+00	123	32	0	362807296	46	5781
2026-01-27 12:12:28.22	38.13	8.62	-36.3	-37.3	22.5	0.00e+00	122	32	0	375390208	46	5754
2026-01-27 12:12:32.26	38.69	8.81	-36.1	-37.1	22.7	0.00e+00	123	32	0	387973120	46	5613
2026-01-27 12:12:36.30	39.26	9.00	-36.1	-37.0	22.7	0.00e+00	123	32	0	400556032	46	5584
2026-01-27 12:12:40.34	39.84	9.19	-35.9	-36.9	22.9	0.00e+00	123	32	0	413138944	46	5507
2026-01-27 12:12:44.38	40.42	9.38	-35.9	-36.9	22.9	0.00e+00	123	32	0	425721856	44	6147
2026-01-27 12:12:48.43	41.02	9.57	-35.6	-36.6	23.1	0.00e+00	123	32	0	438304768	44	5962
2026-01-27 12:12:52.47	41.62	9.76	-35.8	-36.8	23.0	0.00e+00	123	32	0	450887680	44	6086
2026-01-27 12:12:56.51	42.22	9.94	-35.8	-36.8	23.0	0.00e+00	123	32	0	463470592	44	6066
2026-01-27 12:13:00.55	42.84	10.12	-35.7	-36.6	23.1	0.00e+00	122	32	0	476053504	44	5982
2026-01-27 12:13:04.59	43.46	10.31	-35.7	-36.6	23.2	0.00e+00	122	32	0	488636416	44	5979
2026-01-27 12:13:08.63	44.09	10.49	-35.7	-36.7	23.1	0.00e+00	123	32	0	501219328	44	6009
2026-01-27 12:13:12.67	44.73	10.67	-35.8	-36.8	23.1	0.00e+00	120	32	0	514850816	44	6080
2026-01-27 12:13:16.71	45.37	10.84	-35.8	-36.8	23.1	0.00e+00	120	32	0	527433728	44	6082
2026-01-27 12:13:20.75	46.02	11.02	-36.0	-37.0	23.0	0.00e+00	120	32	0	540016640	44	6225
2026-01-27 12:13:24.79	46.68	11.19	-35.7	-36.7	23.2	0.00e+00	122	32	0	552599552	44	6017
2026-01-27 12:13:28.83	47.35	11.36	-35.6	-36.6	23.3	0.00e+00	122	32	0	565182464	44	5958
2026-01-27 12:13:32.87	48.03	11.53	-35.7	-36.7	23.2	0.00e+00	123	32	0	577765376	44	6006
2026-01-27 12:13:36.92	48.71	11.70	-35.8	-36.7	23.3	0.00e+00	120	32	0	590348288	44	6056
2026-01-27 12:13:40.96	49.40	11.86	-36.0	-36.9	23.0	0.00e+00	123	32	0	602931200	44	6191
2026-01-27 12:13:45.00	50.10	12.02	-35.8	-36.8	23.1	0.00e+00	120	32	0	615514112	44	6093
2026-01-27 12:13:49.04	50.80	12.18	-35.7	-36.6	23.2	0.00e+00	122	32	0	628097024	44	5965
2026-01-27 12:13:53.08	51.51	12.33	-35.7	-36.7	23.2	0.00e+00	123	32	0	640679936	44	6011
2026-01-27 12:13:57.12	52.23	12.48	-35.6	-36.6	23.2	0.00e+00	123	32	0	653262848	44	5927
2026-01-27 12:14:01.16	52.96	12.63	-35.4	-36.4	23.3	0.00e+00	122	32	0	665845760	44	5802
2026-01-27 12:14:05.20	53.69	12.78	-35.6	-36.6	23.2	0.00e+00	123	32	0	678428672	44	5963
2026-01-27 12:14:09.25	54.43	12.92	-35.4	-36.3	23.4	0.00e+00	123	32	0	691011584	44	5787
2026-01-27 12:14:13.29	55.18	13.06	-35.4	-36.4	23.3	0.00e+00	122	32	0	703594496	44	5814
2026-01-27 12:14:17.33	55.94	13.19	-35.7	-36.7	23.3	0.00e+00	122	32	0	716177408	44	6026
2026-01-27 12:14:21.37	56.70	13.33	-35.2	-36.1	23.6	0.00e+00	123	32	0	728760320	44	5631
2026-01-27 12:14:25.41	57.46	13.45	-35.4	-36.3	23.4	0.00e+00	123	32	0	741343232	44	5788
2026-01-27 12:14:29.45	58.24	13.58	-35.2	-36.1	23.6	0.00e+00	123	32	0	753926144	44	5645
2026-01-27 12:14:33.49	59.02	13.70	-35.1	-36.0	23.7	0.00e+00	123	32	0	766509056	44	5565
2026-01-27 12:14:37.53	59.80	13.81	-35.2	-36.1	23.5	0.00e+00	122	32	0	779091968	44	5635
2026-01-27 12:14:41.57	60.60	13.92	-35.3	-36.2	23.6	0.00e+00	122	32	0	791674880	44	5715
2026-01-27 12:14:45.61	61.39	14.03	-35.0	-36.0	23.7	0.00e+00	123	32	0	805306368	44	5547
2026-01-27 12:14:49.65	62.20	14.13	-34.9	-35.9	23.7	0.00e+00	123	32	0	816840704	44	5481
2026-01-27 12:14:53.69	63.01	14.22	-35.0	-35.9	23.8	0.00e+00	122	32	0	830472192	44	5499
2026-01-27 12:14:57.74	63.82	14.31	-34.9	-35.8	23.8	0.00e+00	120	32	0	843055104	44	5464
2026-01-27 12:15:01.78	64.64	14.40	-35.3	-36.3	23.5	0.00e+00	123	32	0	855638016	44	5733
2026-01-27 12:15:05.82	65.46	14.48	-34.9	-35.8	23.8	0.00e+00	123	32	0	868220928	44	5441
2026-01-27 12:15:09.86	66.29	14.56	-35.0	-35.9	23.7	0.00e+00	122	32	0	880803840	44	5493
2026-01-27 12:15:13.90	67.12	14.63	-34.8	-35.8	23.8	0.00e+00	120	32	0	893386752	44	5406
2026-01-27 12:15:17.94	67.96	14.69	-35.0	-35.9	23.7	0.00e+00	120	32	0	905969664	44	5515
2026-01-27 12:15:21.98	68.79	14.75	-35.1	-36.1	23.7	0.00e+00	122	32	0	918552576	44	5598
2026-01-27 12:15:26.02	69.64	14.81	-35.0	-36.0	23.6	0.00e+00	122	32	0	931135488	44	5540
2026-01-27 12:15:30.06	70.48	14.85	-35.4	-36.4	23.3	0.00e+00	123	32	0	943718400	44	5797
2026-01-27 12:15:34.10	71.33	14.90	-35.0	-36.0	23.6	0.00e+00	123	32	0	956301312	44	5537
2026-01-27 12:15:38.14	72.18	14.93	-35.2	-36.1	23.5	0.00e+00	123	32	0	968884224	44	5652
2026-01-27 12:15:42.18	73.03	14.97	-35.3	-36.2	23.6	0.00e+00	123	32	0	981467136	44	5699
2026-01-27 12:15:46.23	73.88	14.99	-35.2	-36.2	23.6	0.00e+00	123	32	0	994050048	44	5675
2026-01-27 12:15:50.27	74.74	15.01	-35.1	-36.0	23.7	0.00e+00	123	32	0	1006632960	44	5565
2026-01-27 12:15:54.31	75.59	15.02	-35.2	-36.2	23.5	0.00e+00	122	32	0	1019215872	44	5688
2026-01-27 12:15:58.35	76.45	15.03	-35.2	-36.1	23.6	0.00e+00	122	32	0	1031798784	44	5654
2026-01-27 12:16:02.39	77.31	15.03	-34.9	-35.8	23.8	0.00e+00	122	32	0	1044381696	44	5454
2026-01-27 12:16:06.43	78.16	15.03	-34.8	-35.7	24.0	0.00e+00	119	32	0	1056964608	42	6023
2026-01-27 12:16:10.47	79.02	15.02	-34.9	-35.8	23.9	0.00e+00	120	32	0	1069547520	42	6129
2026-01-27 12:16:14.51	79.87	15.00	-35.1	-36.0	23.7	0.00e+00	121	32	0	1082130432	42	6250
2026-01-27 12:16:18.54	80.73	14.98	-35.1	-36.0	23.6	0.00e+00	123	32	0	1094713344	42	6254
2026-01-27 12:16:22.58	81.58	14.95	-35.2	-36.1	23.6	0.00e+00	120	32	0	1107296256	42	6350
2026-01-27 12:16:26.62	82.43	14.92	-35.0	-36.0	23.6	0.00e+00	120	32	0	1120927744	42	6214
2026-01-27 12:16:30.66	83.28	14.88	-35.2	-36.1	23.6	0.00e+00	122	32	0	1133510656	42	6324
2026-01-27 12:16:34.70	84.13	14.83	-35.0	-35.9	23.7	0.00e+00	123	32	0	1146093568	42	6179
2026-01-27 12:16:38.74	84.97	14.78	-35.3	-36.3	23.6	0.00e+00	123	32	0	1158676480	42	6425
2026-01-27 12:16:42.78	85.81	14.72	-35.2	-36.2	23.6	0.00e+00	122	32	0	1171259392	42	6382
2026-01-27 12:16:46.82	86.65	14.66	-35.1	-36.1	23.7	0.00e+00	123	32	0	1183842304	42	6305
2026-01-27 12:16:50.86	87.49	14.59	-34.9	-35.9	23.9	0.00e+00	123	32	0	1196425216	42	6155
2026-01-27 12:16:54.90	88.32	14.52	-35.0	-36.0	23.9	0.00e+00	123	32	0	1209008128	42	6231
2026-01-27 12:16:58.94	89.14	14.44	-35.1	-36.0	23.8	0.00e+00	123	32	0	1221591040	42	6271
2026-01-27 12:17:02.98	89.97	14.36	-35.2	-36.1	23.7	0.00e+00	123	32	0	1234173952	42	6348
2026-01-27 12:17:07.02	90.78	14.27	-35.1	-36.0	23.7	0.00e+00	122	32	0	1246756864	42	6269
2026-01-27 12:17:11.06	91.60	14.17	-34.9	-35.8	23.9	0.00e+00	120	32	0	1259339776	42	6094
2026-01-27 12:17:15.10	92.41	14.07	-35.1	-36.0	23.8	0.00e+00	122	32	0	1271922688	42	6263
2026-01-27 12:17:19.15	93.21	13.97	-35.1	-36.0	23.7	0.00e+00	123	32	0	1284505600	42	6275
2026-01-27 12:17:23.18	94.01	13.86	-35.0	-35.9	23.8	0.00e+00	123	32	0	1297088512	42	6204
2026-01-27 12:17:27.22	94.80	13.75	-35.3	-36.2	23.7	0.00e+00	123	32	0	1309671424	42	6398
2026-01-27 12:17:31.26	95.58	13.63	-35.1	-36.1	23.6	0.00e+00	122	32	0	1322254336	42	6280
2026-01-27 12:17:35.30	96.36	13.51	-35.1	-36.1	23.7	0.00e+00	123	32	0	1334837248	42	6280
2026-01-27 12:17:39.34	97.14	13.38	-35.0	-35.9	23.8	0.00e+00	123	32	0	1347420160	42	6191
2026-01-27 12:17:43.39	97.91	13.25	-35.1	-36.1	23.7	0.00e+00	122	32	0	1360003072	42	6289
2026-01-27 12:17:47.43	98.67	13.12	-35.0	-35.9	23.6	0.00e+00	123	32	0	1372585984	42	6205
2026-01-27 12:17:51.47	99.42	12.98	-35.0	-35.9	23.8	0.00e+00	123	32	0	1385168896	42	6181
2026-01-27 12:17:55.51	100.17	12.84	-35.1	-36.0	23.8	0.00e+00	122	32	0	1397751808	42	6217
2026-01-27 12:17:59.55	100.91	12.70	-35.0	-35.9	23.6	0.00e+00	123	32	0	1410334720	42	6187
2026-01-27 12:18:03.59	101.64	12.55	-34.9	-35.9	23.7	0.00e+00	120	32	0	1422917632	42	6146
2026-01-27 12:18:07.63	102.37	12.40	-35.1	-36.0	23.7	0.00e+00	120	32	0	1436549120	42	6275
2026-01-27 12:18:11.67	103.08	12.24	-35.4	-36.4	23.4	0.00e+00	123	32	0	1449132032	42	6555
2026-01-27 12:18:15.71	103.80	12.08	-35.5	-36.5	23.2	0.00e+00	122	32	0	1461714944	42	6591
2026-01-27 12:18:19.75	104.50	11.92	-35.3	-36.3	23.3	0.00e+00	122	32	0	1474297856	42	6435
2026-01-27 12:18:23.79	105.20	11.76	-35.4	-36.3	23.4	0.00e+00	123	32	0	1486880768	42	6467
2026-01-27 12:18:27.83	105.89	11.59	-35.7	-36.7	23.0	0.00e+00	122	32	0	1499463680	42	6739
2026-01-27 12:18:31.86	106.56	11.43	-35.7	-36.7	22.9	0.00e+00	123	32	0	1512046592	44	6036
2026-01-27 12:18:35.90	107.24	11.26	-35.7	-36.7	22.9	0.00e+00	122	32	0	1524629504	44	6025
2026-01-27 12:18:39.94	107.91	11.08	-36.0	-37.0	22.8	0.00e+00	122	32	0	1537212416	44	6232
2026-01-27 12:18:43.98	108.56	10.91	-35.9	-36.9	22.8	0.00e+00	123	32	0	1549795328	44	6192
2026-01-27 12:18:48.02	109.21	10.73	-35.8	-36.8	22.8	0.00e+00	123	32	0	1562378240	44	6091
2026-01-27 12:18:52.06	109.86	10.55	-36.1	-37.1	22.6	0.00e+00	123	32	0	1574961152	44	6292
2026-01-27 12:18:56.10	110.49	10.37	-35.9	-36.9	22.8	0.00e+00	121	32	0	1587544064	44	6151
2026-01-27 12:19:00.14	111.12	10.19	-35.7	-36.8	22.9	0.00e+00	120	32	0	1600126976	44	6092
2026-01-27 12:19:04.18	111.74	10.00	-36.2	-37.2	22.5	0.00e+00	120	32	0	1612709888	44	6364
2026-01-27 12:19:08.22	112.36	9.82	-36.1	-37.2	22.6	0.00e+00	123	32	0	1625292800	44	6353
2026-01-27 12:19:12.27	112.96	9.63	-36.2	-37.2	22.5	0.00e+00	122	32	0	1637875712	44	6368
2026-01-27 12:19:16.31	113.56	9.44	-36.2	-37.2	22.5	0.00e+00	123	32	0	1650458624	44	6423
2026-01-27 12:19:20.35	114.15	9.25	-36.5	-37.5	22.2	0.00e+00	123	32	0	1663041536	44	6635
2026-01-27 12:19:24.39	114.74	9.06	-36.3	-37.3	22.4	0.00e+00	123	32	0	1675624448	44	6456
2026-01-27 12:19:28.43	115.31	8.87	-36.3	-37.4	22.2	0.00e+00	123	32	0	1688207360	44	6499
2026-01-27 12:19:32.47	115.88	8.67	-36.1	-37.1	22.6	0.00e+00	123	32	0	1700790272	44	6350
2026-01-27 12:19:36.51	116.44	8.48	-36.4	-37.4	22.3	0.00e+00	122	32	0	1713373184	44	6558
2026-01-27 12:19:40.55	117.00	8.28	-36.7	-37.8	22.0	0.00e+00	123	32	0	1725956096	44	6826
2026-01-27 12:19:44.59	117.55	8.09	-36.2	-37.3	22.5	0.00e+00	122	32	0	1738539008	46	5742
2026-01-27 12:19:48.64	118.09	7.89	-36.8	-37.8	21.9	0.00e+00	123	32	0	1752170496	46	6126
2026-01-27 12:19:52.67	118.62	7.69	-36.6	-37.7	22.0	0.00e+00	123	32	0	1764753408	46	6010
2026-01-27 12:19:56.71	119.15	7.50	-36.6	-37.7	22.0	0.00e+00	123	32	0	1777336320	46	6024
2026-01-27 12:20:00.76	119.67	7.30	-36.8	-37.9	21.8	0.00e+00	122	32	0	1789919232	46	6179
2026-01-27 12:20:04.80	120.18	7.10	-36.9	-37.9	21.7	0.00e+00	123	32	0	1802502144	46	6198
2026-01-27 12:20:08.83	120.68	6.90	-37.4	-38.5	21.2	0.00e+00	122	32	0	1815085056	46	6630
2026-01-27 12:20:12.87	121.18	6.70	-37.3	-38.4	21.3	0.00e+00	122	32	0	1827667968	46	6514
2026-01-27 12:20:16.91	121.68	6.50	-37.3	-38.4	21.2	0.00e+00	123	32	0	1840250880	46	6521
2026-01-27 12:20:20.96	122.17	6.30	-36.7	-37.8	21.7	0.00e+00	120	32	0	1852833792	46	6126
2026-01-27 12:20:25.00	122.65	6.10	-37.1	-38.3	21.3	0.00e+00	123	32	0	1865416704	46	6438
2026-01-27 12:20:29.03	123.12	5.91	-37.3	-38.5	21.1	0.00e+00	123	32	0	1877999616	46	6606
2026-01-27 12:20:33.08	123.59	5.71	-37.4	-38.5	21.0	0.00e+00	123	32	0	1890582528	46	6610
2026-01-27 12:20:37.12	124.05	5.51	-37.4	-38.5	21.0	0.00e+00	121	32	0	1903165440	46	6646
2026-01-27 12:20:41.16	124.51	5.31	-37.8	-38.9	20.6	0.00e+00	123	32	0	1915748352	48	6193
2026-01-27 12:20:45.20	124.96	5.11	-37.9	-39.0	20.4	0.00e+00	122	32	0	1928331264	48	6272
2026-01-27 12:20:49.24	125.40	4.91	-37.7	-38.9	20.6	0.00e+00	123	32	0	1940914176	48	6147
2026-01-27 12:20:53.28	125.84	4.71	-37.7	-38.9	20.7	0.00e+00	120	32	0	1953497088	48	6142
2026-01-27 12:20:57.32	126.27	4.51	-37.5	-38.7	20.7	0.00e+00	123	32	0	1966080000	48	6015
2026-01-27 12:21:01.36	126.70	4.31	-37.6	-38.8	20.6	0.00e+00	122	32	0	1978662912	48	6074
2026-01-27 12:21:05.40	127.12	4.11	-38.3	-39.6	19.9	0.00e+00	123	32	0	1991245824	48	6666
2026-01-27 12:21:09.44	127.53	3.91	-38.9	-40.3	19.1	0.00e+00	122	32	0	2003828736	48	7214
2026-01-27 12:21:13.49	127.95	3.71	-38.3	-39.6	19.7	0.00e+00	122	32	0	2016411648	50	5969
2026-01-27 12:21:17.53	128.35	3.51	-38.9	-40.2	19.1	0.00e+00	123	32	0	2028994560	50	6412
2026-01-27 12:21:21.57	128.75	3.31	-37.8	-39.0	20.4	0.00e+00	123	32	0	2042626048	48	6265
2026-01-27 12:21:25.61	129.15	3.12	-38.7	-40.0	19.2	0.00e+00	121	32	0	2055208960	50	6221
2026-01-27 12:21:29.66	129.54	2.92	-48.3	-61.2	3.4	1.52e+00	0	32	104	2060451840	60	40373
2026-01-27 12:21:33.70	129.92	2.72	-48.8	-61.7	3.5	1.52e+00	0	32	104	2060451840	60	42450
2026-01-27 12:21:37.74	130.30	2.53	-48.9	-61.8	3.5	1.52e+00	0	32	104	2060451840	60	43145
2026-01-27 12:21:41.78	130.68	2.33	-49.0	-61.8	3.5	1.52e+00	0	32	104	2060451840	60	43329
2026-01-27 12:21:45.82	131.05	2.13	-48.9	-61.8	3.5	1.51e+00	0	32	104	2060451840	60	43166
2026-01-27 12:21:49.86	131.41	1.94	-48.9	-61.8	3.5	1.52e+00	0	32	104	2060451840	60	43174
2026-01-27 12:21:53.90	131.78	1.74	-48.8	-61.8	3.5	1.52e+00	0	32	104	2060451840	60	43093
2026-01-27 12:21:57.94	132.13	1.55	-48.8	-61.8	3.5	1.52e+00	0	32	104	2060451840	60	43153
2026-01-27 12:22:01.98	132.49	1.35	-48.8	-61.7	3.5	1.51e+00	0	32	104	2060451840	60	42838
2026-01-27 12:22:06.02	132.83	1.16	-48.8	-61.8	3.5	1.52e+00	0	32	104	2060451840	60	43087
2026-01-27 12:22:10.06	133.18	0.97	-48.9	-61.8	3.5	1.52e+00	0	32	104	2060451840	60	43323
2026-01-27 12:22:14.10	133.52	0.77	-48.8	-61.8	3.5	1.52e+00	0	32	104	2060451840	60	43107
2026-01-27 12:22:18.14	133.85	0.58	-48.9	-61.8	3.5	1.52e+00	0	32	104	2060451840	60	43115
2026-01-27 12:22:22.18	134.18	0.39	-48.8	-61.8	3.5	1.52e+00	0	32	104	2060451840	60	43047
2026-01-27 12:22:26.22	134.51	0.20	-48.9	-61.8	3.5	1.52e+00	0	32	104	2060451840	60	43111
2026-01-27 12:22:30.26	134.84	0.01	-48.8	-61.8	3.5	1.52e+00	0	32	104	2060451840	60	43084

#Closed at: 2026-01-27 12:22:30
#Recorded file [2060 MB]: D:/lorett/data/35029_260128_000930.dat