passes_logs/2026/01/27/R4.6S_Anadyr/R4.6S_Anadyr__20260127_153019_NOAA_21_JPSS-2_rec.log

#Pass ID: 20260127_153019_NOAA 21 (JPSS-2)
#Satellite: NOAA 21 (JPSS-2)
#Configuration: NOAA-21
#almurnet v.1.7.20251203
#Start time: 2026-01-27 15:30:20

#Version: 2.2.20231116
#Station: R4.6S_Anadyr
#Location: 177.4865 lon 64.73178 lat
#TLE: 1 54234U 22150A   26026.78373243  .00000177  00000+0  10458-3 0  9996
#TLE: 2 54234  98.7509 327.5416 0000822 208.1870 151.9262 14.19539807166482

#Time	Az	El	Level	Level2	SNR	BER	BlckErr	Temp	State	Recorded	gain1	gain2
2026-01-27 15:30:20.16	22.48	0.07	-49.2	-67.0	3.5	3.02e+01	0	30	0	0	60	86246
2026-01-27 15:30:24.19	22.41	0.31	-48.9	-61.8	3.5	1.52e+00	0	31	104	0	60	43197
2026-01-27 15:30:28.23	22.34	0.55	-49.0	-61.9	3.5	1.52e+00	0	31	104	0	60	43552
2026-01-27 15:30:32.28	22.27	0.79	-49.0	-61.8	3.5	1.52e+00	0	31	104	0	60	43360
2026-01-27 15:30:36.31	22.20	1.04	-48.7	-61.6	3.5	1.52e+00	0	31	104	0	60	42109
2026-01-27 15:30:40.35	22.12	1.29	-48.4	-61.2	3.5	1.52e+00	0	31	104	0	60	40249
2026-01-27 15:30:44.39	22.05	1.54	-47.6	-60.2	3.5	1.52e+00	0	31	104	0	60	36103
2026-01-27 15:30:48.42	21.97	1.79	-47.5	-60.1	3.5	1.52e+00	0	32	104	0	60	35646
2026-01-27 15:30:52.46	21.89	2.04	-47.5	-60.3	3.5	1.52e+00	0	32	104	0	60	36280
2026-01-27 15:30:56.51	21.81	2.30	-47.5	-60.4	3.5	1.52e+00	0	32	104	0	60	36674
2026-01-27 15:31:00.55	21.72	2.56	-47.5	-59.5	3.5	1.52e+00	0	32	104	0	60	33232
2026-01-27 15:31:04.59	21.64	2.82	-47.3	-58.2	3.5	1.51e+00	0	32	104	0	60	28403
2026-01-27 15:31:08.62	21.55	3.08	-47.2	-56.9	4.3	1.48e+00	0	32	104	0	60	24581
2026-01-27 15:31:12.67	21.46	3.35	-43.9	-46.7	13.0	1.33e-04	122	32	0	8388608	60	7605
2026-01-27 15:31:16.70	21.37	3.61	-41.9	-43.9	15.8	0.00e+00	122	32	0	20971520	56	6911
2026-01-27 15:31:20.74	21.28	3.88	-41.7	-43.6	15.7	5.49e-03	123	32	0	30408704	58	5958
2026-01-27 15:31:24.78	21.18	4.16	-38.2	-39.8	19.9	0.00e+00	121	32	104	33554432	50	6077
2026-01-27 15:31:28.81	21.09	4.43	-38.0	-39.2	20.4	0.00e+00	121	32	0	45088768	50	5698
2026-01-27 15:31:32.85	20.99	4.71	-38.1	-39.3	20.2	0.00e+00	122	32	0	57671680	48	6437
2026-01-27 15:31:36.89	20.89	4.99	-37.4	-38.5	21.1	0.00e+00	122	32	0	70254592	48	5885
2026-01-27 15:31:40.93	20.78	5.28	-37.5	-38.6	21.0	0.00e+00	123	32	0	83886080	48	5953
2026-01-27 15:31:44.97	20.68	5.57	-37.6	-38.7	20.9	0.00e+00	123	32	0	96468992	48	6011
2026-01-27 15:31:49.01	20.57	5.86	-37.3	-38.3	21.2	0.00e+00	122	32	0	109051904	48	5785
2026-01-27 15:31:53.05	20.46	6.15	-37.1	-38.2	21.5	0.00e+00	123	32	0	121634816	48	5678
2026-01-27 15:31:57.08	20.35	6.45	-37.1	-38.2	21.5	0.00e+00	122	32	0	134217728	46	6355
2026-01-27 15:32:01.12	20.23	6.75	-36.9	-38.0	21.7	0.00e+00	123	32	0	146800640	46	6223
2026-01-27 15:32:05.16	20.11	7.05	-36.7	-37.7	21.9	0.00e+00	123	32	0	159383552	46	6033
2026-01-27 15:32:09.20	19.99	7.36	-36.4	-37.4	22.2	0.00e+00	123	32	0	171966464	46	5814
2026-01-27 15:32:13.24	19.86	7.67	-36.5	-37.5	22.2	0.00e+00	123	32	0	184549376	46	5912
2026-01-27 15:32:17.27	19.74	7.98	-36.4	-37.4	22.2	0.00e+00	123	32	0	197132288	46	5802
2026-01-27 15:32:21.31	19.60	8.30	-36.1	-37.1	22.5	0.00e+00	120	32	0	209715200	46	5609
2026-01-27 15:32:25.35	19.47	8.62	-36.0	-37.0	22.7	0.00e+00	123	32	0	222298112	46	5562
2026-01-27 15:32:29.39	19.33	8.95	-35.6	-36.6	23.0	0.00e+00	123	32	0	234881024	44	5961
2026-01-27 15:32:33.42	19.19	9.28	-35.5	-36.5	23.1	0.00e+00	123	32	0	247463936	44	5895
2026-01-27 15:32:37.47	19.05	9.61	-35.3	-36.3	23.3	0.00e+00	120	32	0	260046848	44	5751
2026-01-27 15:32:41.51	18.90	9.95	-35.3	-36.2	23.4	0.00e+00	123	32	0	272629760	44	5714
2026-01-27 15:32:45.54	18.75	10.29	-35.3	-36.2	23.4	0.00e+00	122	32	0	285212672	44	5703
2026-01-27 15:32:49.58	18.59	10.64	-34.9	-35.9	23.8	0.00e+00	123	32	0	297795584	44	5486
2026-01-27 15:32:53.62	18.43	10.99	-35.0	-35.9	23.7	0.00e+00	120	32	0	310378496	44	5500
2026-01-27 15:32:57.66	18.26	11.35	-34.9	-35.8	23.7	0.00e+00	122	32	0	322961408	44	5440
2026-01-27 15:33:01.70	18.09	11.71	-34.7	-35.6	23.9	0.00e+00	122	32	0	335544320	42	5978
2026-01-27 15:33:05.74	17.92	12.08	-34.7	-35.6	24.0	0.00e+00	121	32	0	348127232	42	5928
2026-01-27 15:33:09.78	17.74	12.45	-34.5	-35.4	24.0	0.00e+00	123	32	0	360710144	42	5849
2026-01-27 15:33:13.81	17.56	12.83	-34.7	-35.6	23.9	0.00e+00	123	32	0	373293056	42	5950
2026-01-27 15:33:17.85	17.37	13.21	-34.6	-35.5	24.0	0.00e+00	123	32	0	385875968	42	5871
2026-01-27 15:33:21.89	17.17	13.60	-34.5	-35.4	24.1	0.00e+00	123	32	0	398458880	42	5805
2026-01-27 15:33:25.93	16.97	14.00	-34.4	-35.3	24.1	0.00e+00	122	32	0	411041792	42	5775
2026-01-27 15:33:29.96	16.76	14.40	-34.5	-35.4	24.1	0.00e+00	122	32	0	423624704	42	5819
2026-01-27 15:33:34.00	16.55	14.81	-34.6	-35.5	24.0	0.00e+00	120	32	0	436207616	42	5914
2026-01-27 15:33:38.04	16.33	15.22	-34.6	-35.5	24.0	0.00e+00	120	32	0	449839104	42	5887
2026-01-27 15:33:42.08	16.11	15.64	-34.8	-35.7	23.9	0.00e+00	122	32	0	462422016	42	6018
2026-01-27 15:33:46.12	15.87	16.07	-34.7	-35.6	24.0	0.00e+00	123	32	0	475004928	42	5964
2026-01-27 15:33:50.16	15.63	16.51	-34.9	-35.8	24.0	0.00e+00	123	32	0	487587840	42	6107
2026-01-27 15:33:54.19	15.39	16.95	-34.9	-35.9	24.0	0.00e+00	123	32	0	500170752	42	6141
2026-01-27 15:33:58.23	15.13	17.40	-34.8	-35.7	24.0	0.00e+00	122	32	0	512753664	42	6038
2026-01-27 15:34:02.27	14.87	17.86	-34.8	-35.7	24.1	0.00e+00	122	32	0	525336576	42	6055
2026-01-27 15:34:06.30	14.60	18.32	-34.8	-35.7	24.0	0.00e+00	122	32	0	537919488	42	6057
2026-01-27 15:34:10.34	14.32	18.80	-34.8	-35.7	24.0	0.00e+00	123	32	0	550502400	42	6019
2026-01-27 15:34:14.38	14.03	19.28	-34.7	-35.6	24.1	0.00e+00	123	32	0	563085312	42	5989
2026-01-27 15:34:18.42	13.72	19.77	-34.8	-35.7	24.0	0.00e+00	123	32	0	575668224	42	6049
2026-01-27 15:34:22.45	13.41	20.27	-34.8	-35.7	24.0	0.00e+00	122	32	0	588251136	42	6052
2026-01-27 15:34:26.50	13.09	20.78	-34.2	-35.1	24.3	0.00e+00	123	32	0	600834048	42	5643
2026-01-27 15:34:30.53	12.76	21.30	-34.0	-34.9	24.5	0.00e+00	123	32	0	613416960	42	5508
2026-01-27 15:34:34.57	12.41	21.83	-33.7	-34.6	24.6	0.00e+00	123	33	0	625999872	40	5987
2026-01-27 15:34:38.60	12.06	22.37	-33.6	-34.5	24.8	0.00e+00	123	32	0	638582784	40	5906
2026-01-27 15:34:42.63	11.69	22.91	-33.5	-34.3	24.9	0.00e+00	123	32	0	651165696	40	5783
2026-01-27 15:34:46.67	11.30	23.47	-33.3	-34.2	25.1	0.00e+00	120	32	0	663748608	40	5667
2026-01-27 15:34:50.71	10.90	24.04	-33.3	-34.1	25.1	0.00e+00	123	32	0	676331520	40	5648
2026-01-27 15:34:54.75	10.49	24.63	-33.4	-34.3	25.0	0.00e+00	122	33	0	688914432	40	5736
2026-01-27 15:34:58.79	10.05	25.22	-33.9	-34.7	24.7	0.00e+00	123	32	0	701497344	40	6056
2026-01-27 15:35:02.83	9.61	25.82	-34.1	-35.0	24.7	0.00e+00	120	32	0	714080256	40	6220
2026-01-27 15:35:06.87	9.14	26.44	-34.0	-34.9	24.8	0.00e+00	120	32	0	726663168	40	6163
2026-01-27 15:35:10.91	8.65	27.07	-34.1	-35.0	24.7	0.00e+00	123	32	0	739246080	40	6225
2026-01-27 15:35:14.95	8.15	27.71	-34.7	-35.6	24.2	0.00e+00	123	32	0	751828992	40	6658
2026-01-27 15:35:18.99	7.62	28.36	-34.3	-35.2	24.4	0.00e+00	122	33	0	764411904	40	6415
2026-01-27 15:35:23.03	7.07	29.03	-34.3	-35.2	24.6	0.00e+00	122	33	0	776994816	40	6407
2026-01-27 15:35:27.07	6.49	29.71	-34.0	-34.9	24.5	0.00e+00	123	32	0	790626304	40	6188
2026-01-27 15:35:31.11	5.89	30.40	-34.3	-35.1	24.2	0.00e+00	123	33	0	802160640	40	6349
2026-01-27 15:35:35.15	5.26	31.11	-34.5	-35.4	24.3	0.00e+00	123	33	0	815792128	40	6559
2026-01-27 15:35:39.19	4.60	31.83	-34.4	-35.2	24.5	0.00e+00	123	33	0	828375040	42	5714
2026-01-27 15:35:43.23	3.92	32.56	-34.4	-35.3	24.2	0.00e+00	122	32	0	840957952	42	5786
2026-01-27 15:35:47.27	3.20	33.30	-35.0	-36.0	24.0	0.00e+00	122	33	0	853540864	42	6249
2026-01-27 15:35:51.30	2.44	34.06	-35.1	-36.0	24.1	0.00e+00	122	32	0	866123776	42	6253
2026-01-27 15:35:55.34	1.65	34.83	-35.3	-36.2	23.9	0.00e+00	123	33	0	878706688	42	6394
2026-01-27 15:35:59.38	0.82	35.62	-35.6	-36.5	23.5	0.00e+00	123	33	0	891289600	42	6648
2026-01-27 15:36:03.42	359.95	36.41	-35.8	-36.8	23.4	0.00e+00	122	33	0	903872512	44	6084
2026-01-27 15:36:07.45	359.03	37.22	-35.9	-36.9	23.4	0.00e+00	122	32	0	916455424	44	6142
2026-01-27 15:36:11.49	358.07	38.04	-36.2	-37.2	23.1	0.00e+00	123	33	0	929038336	44	6361
2026-01-27 15:36:15.53	357.05	38.87	-36.4	-37.4	22.9	0.00e+00	122	33	0	941621248	44	6539
2026-01-27 15:36:19.57	355.98	39.71	-36.5	-37.5	23.0	0.00e+00	123	33	0	954204160	44	6607
2026-01-27 15:36:23.60	354.85	40.55	-36.1	-37.1	23.2	0.00e+00	123	33	0	966787072	44	6280
2026-01-27 15:36:27.64	353.66	41.41	-36.6	-37.6	22.8	0.00e+00	123	33	0	979369984	44	6672
2026-01-27 15:36:31.68	352.41	42.27	-37.0	-38.0	22.4	0.00e+00	121	33	0	991952896	46	6251
2026-01-27 15:36:35.72	351.08	43.13	-37.4	-38.4	22.1	0.00e+00	123	33	0	1004535808	48	5857
2026-01-27 15:36:39.76	349.68	43.99	-36.8	-37.8	22.6	0.00e+00	123	33	0	1017118720	46	6112
2026-01-27 15:36:43.79	348.21	44.85	-38.1	-39.2	21.6	0.00e+00	123	32	0	1029701632	48	6369
2026-01-27 15:36:47.83	346.65	45.71	-37.1	-38.2	22.1	0.00e+00	123	33	0	1042284544	48	5665
2026-01-27 15:36:51.87	345.00	46.57	-37.2	-38.2	22.3	0.00e+00	123	33	0	1054867456	48	5681
2026-01-27 15:36:55.71	343.34	47.37	-37.0	-38.0	22.4	0.00e+00	121	33	0	1067450368	48	5555
2026-01-27 15:36:59.75	341.51	48.20	-36.4	-37.4	22.9	0.00e+00	123	32	0	1080033280	46	5827
2026-01-27 15:37:03.79	339.58	49.01	-36.4	-37.3	23.0	0.00e+00	122	33	0	1092616192	46	5777
2026-01-27 15:37:07.83	337.54	49.80	-36.0	-36.9	23.4	0.00e+00	122	33	0	1105199104	46	5523
2026-01-27 15:37:11.87	335.39	50.56	-36.6	-37.7	22.8	0.00e+00	121	33	0	1117782016	46	6014
2026-01-27 15:37:15.90	333.14	51.28	-36.1	-37.1	23.3	0.00e+00	122	33	0	1130364928	46	5598
2026-01-27 15:37:19.94	330.78	51.97	-35.5	-36.4	23.7	0.00e+00	123	33	0	1142947840	44	5825
2026-01-27 15:37:23.98	328.30	52.62	-34.9	-35.8	24.2	0.00e+00	123	33	0	1156579328	44	5437
2026-01-27 15:37:28.02	325.72	53.21	-34.8	-35.8	24.3	0.00e+00	123	33	0	1169162240	44	5406
2026-01-27 15:37:32.05	323.04	53.75	-34.5	-35.4	24.6	0.00e+00	123	33	0	1181745152	42	5809
2026-01-27 15:37:36.08	320.27	54.23	-35.4	-36.3	23.7	0.00e+00	120	33	0	1194328064	42	6497
2026-01-27 15:37:40.12	317.40	54.65	-35.8	-36.8	23.6	0.00e+00	123	33	0	1206910976	44	6087
2026-01-27 15:37:44.16	314.45	54.99	-34.6	-35.5	24.5	0.00e+00	123	33	0	1219493888	42	5873
2026-01-27 15:37:48.20	311.44	55.25	-34.4	-35.3	24.6	0.00e+00	123	33	0	1232076800	42	5757
2026-01-27 15:37:52.24	308.38	55.44	-34.9	-35.8	24.2	0.00e+00	123	33	0	1244659712	42	6112
2026-01-27 15:37:56.28	305.28	55.55	-35.0	-35.9	24.2	0.00e+00	122	33	0	1257242624	42	6176
2026-01-27 15:38:00.31	302.18	55.57	-34.4	-35.3	24.5	0.00e+00	122	33	0	1269825536	42	5769
2026-01-27 15:38:04.35	299.08	55.51	-35.1	-36.0	24.0	0.00e+00	122	33	0	1282408448	42	6232
2026-01-27 15:38:08.40	295.99	55.37	-34.8	-35.7	24.2	0.00e+00	123	33	0	1294991360	42	6062
2026-01-27 15:38:12.43	292.95	55.15	-35.4	-36.3	23.6	0.00e+00	122	33	0	1307574272	42	6495
2026-01-27 15:38:16.47	289.96	54.85	-35.0	-35.9	24.0	0.00e+00	122	33	0	1320157184	42	6159
2026-01-27 15:38:20.50	287.05	54.47	-34.0	-34.8	24.9	0.00e+00	120	33	0	1332740096	42	5463
2026-01-27 15:38:24.54	284.22	54.03	-34.7	-35.6	24.3	0.00e+00	120	33	0	1345323008	42	5972
2026-01-27 15:38:28.57	281.48	53.52	-35.5	-36.5	23.8	0.00e+00	123	33	0	1357905920	42	6585
2026-01-27 15:38:32.60	278.84	52.96	-34.9	-35.8	24.4	0.00e+00	123	33	0	1370488832	42	6101
2026-01-27 15:38:36.65	276.30	52.34	-35.9	-36.8	23.4	0.00e+00	123	33	0	1383071744	44	6132
2026-01-27 15:38:40.69	273.87	51.67	-35.2	-36.1	23.9	0.00e+00	120	33	0	1395654656	42	6308
2026-01-27 15:38:44.73	271.55	50.96	-35.7	-36.7	22.8	0.00e+00	121	33	0	1408237568	44	6017
2026-01-27 15:38:48.76	269.34	50.22	-36.0	-36.9	23.3	0.00e+00	122	33	0	1420820480	44	6187
2026-01-27 15:38:52.80	267.24	49.44	-36.2	-37.1	23.2	0.00e+00	122	33	0	1433403392	44	6345
2026-01-27 15:38:56.84	265.24	48.64	-37.1	-38.1	22.4	0.00e+00	122	33	0	1445986304	46	6296
2026-01-27 15:39:00.88	263.35	47.82	-36.7	-37.7	22.7	0.00e+00	123	33	0	1458569216	46	6044
2026-01-27 15:39:04.91	261.56	46.98	-36.8	-37.8	22.6	0.00e+00	122	33	0	1471152128	44	6872
2026-01-27 15:39:08.95	259.86	46.13	-36.9	-38.0	21.5	0.00e+00	122	33	0	1483735040	48	5562
2026-01-27 15:39:12.99	258.25	45.27	-36.7	-37.6	22.7	0.00e+00	122	33	0	1496317952	46	5987
2026-01-27 15:39:17.02	256.73	44.41	-38.0	-39.1	21.7	0.00e+00	122	33	0	1508900864	50	5616
2026-01-27 15:39:21.06	255.29	43.54	-35.5	-36.4	24.0	0.00e+00	122	33	0	1522532352	44	5798
2026-01-27 15:39:25.10	253.92	42.68	-37.8	-38.9	21.7	0.00e+00	123	33	0	1534066688	48	6174
2026-01-27 15:39:29.14	252.63	41.81	-36.5	-37.5	22.7	0.00e+00	120	33	0	1547698176	46	5869
2026-01-27 15:39:33.17	251.40	40.95	-37.7	-38.7	22.0	0.00e+00	122	33	0	1560281088	48	6056
2026-01-27 15:39:37.21	250.24	40.10	-36.5	-37.4	23.1	0.00e+00	123	33	0	1572864000	46	5839
2026-01-27 15:39:41.24	249.14	39.25	-34.6	-35.5	24.5	0.00e+00	123	33	0	1585446912	42	5871
2026-01-27 15:39:45.28	248.09	38.42	-37.5	-38.6	22.1	0.00e+00	122	33	0	1598029824	46	6660
2026-01-27 15:39:49.32	247.10	37.59	-37.2	-38.2	22.5	0.00e+00	123	33	0	1610612736	46	6353
2026-01-27 15:39:53.36	246.15	36.77	-36.3	-37.2	22.9	0.00e+00	123	33	0	1623195648	46	5725
2026-01-27 15:39:57.39	245.26	35.97	-36.2	-37.1	23.2	0.00e+00	122	33	0	1635778560	44	6318
2026-01-27 15:40:01.43	244.40	35.18	-36.5	-37.6	22.3	0.00e+00	122	33	0	1648361472	46	5950
2026-01-27 15:40:05.47	243.59	34.39	-35.5	-36.4	23.9	0.00e+00	122	33	0	1660944384	44	5795
2026-01-27 15:40:09.50	242.81	33.63	-35.5	-36.4	23.8	0.00e+00	123	33	0	1673527296	44	5846
2026-01-27 15:40:13.54	242.07	32.87	-35.2	-36.1	23.9	0.00e+00	122	33	0	1686110208	44	5623
2026-01-27 15:40:17.58	241.37	32.13	-34.7	-35.6	24.4	0.00e+00	123	33	0	1698693120	42	5939
2026-01-27 15:40:21.61	240.69	31.40	-34.9	-35.8	24.0	0.00e+00	122	33	0	1711276032	42	6107
2026-01-27 15:40:25.65	240.05	30.69	-35.6	-36.6	23.6	0.00e+00	123	33	0	1723858944	42	6664
2026-01-27 15:40:29.69	239.43	29.99	-34.7	-35.6	24.2	0.00e+00	122	32	0	1736441856	42	5975
2026-01-27 15:40:33.72	238.84	29.30	-34.3	-35.1	24.4	0.00e+00	123	33	0	1749024768	42	5652
2026-01-27 15:40:37.75	238.28	28.63	-34.1	-34.9	24.8	0.00e+00	122	33	0	1761607680	42	5509
2026-01-27 15:40:41.79	237.74	27.96	-34.3	-35.2	24.6	0.00e+00	120	33	0	1774190592	42	5661
2026-01-27 15:40:45.82	237.22	27.32	-34.2	-35.0	24.6	0.00e+00	122	33	0	1786773504	42	5590
2026-01-27 15:40:49.86	236.72	26.68	-34.3	-35.2	24.4	0.00e+00	123	33	0	1799356416	42	5675
2026-01-27 15:40:53.90	236.24	26.05	-34.3	-35.2	24.6	0.00e+00	123	33	0	1811939328	42	5686
2026-01-27 15:40:57.94	235.78	25.44	-34.2	-35.1	24.6	0.00e+00	120	33	0	1824522240	42	5595
2026-01-27 15:41:01.98	235.34	24.84	-34.0	-34.9	24.8	0.00e+00	123	33	0	1837105152	42	5516
2026-01-27 15:41:06.01	234.91	24.25	-33.7	-34.6	25.1	0.00e+00	120	33	0	1849688064	40	5946
2026-01-27 15:41:10.06	234.50	23.67	-34.0	-34.9	25.0	0.00e+00	123	33	0	1862270976	40	6185
2026-01-27 15:41:14.10	234.11	23.10	-34.5	-35.4	24.6	0.00e+00	120	33	0	1874853888	40	6499
2026-01-27 15:41:18.14	233.72	22.55	-35.0	-36.0	24.1	0.00e+00	123	33	0	1887436800	42	6222
2026-01-27 15:41:22.17	233.36	22.00	-34.8	-35.7	23.9	0.00e+00	122	33	0	1900019712	42	6062
2026-01-27 15:41:26.21	233.00	21.47	-34.4	-35.3	24.0	0.00e+00	123	33	0	1912602624	42	5773
2026-01-27 15:41:30.25	232.66	20.94	-33.9	-34.8	24.5	0.00e+00	120	33	0	1925185536	42	5416
2026-01-27 15:41:34.29	232.33	20.43	-33.4	-34.3	25.0	0.00e+00	120	33	0	1937768448	40	5740
2026-01-27 15:41:38.32	232.02	19.92	-33.4	-34.3	25.0	0.00e+00	123	33	0	1951399936	40	5750
2026-01-27 15:41:42.37	231.71	19.42	-33.7	-34.5	25.0	0.00e+00	122	33	0	1963982848	40	5907
2026-01-27 15:41:46.40	231.41	18.93	-33.8	-34.7	24.9	0.00e+00	122	33	0	1976565760	40	6027
2026-01-27 15:41:50.43	231.12	18.46	-34.1	-35.0	24.7	0.00e+00	122	33	0	1989148672	40	6252
2026-01-27 15:41:54.47	230.84	17.98	-34.5	-35.4	24.3	0.00e+00	123	32	0	2001731584	40	6566
2026-01-27 15:41:58.51	230.57	17.52	-35.0	-35.9	24.1	0.00e+00	123	33	0	2014314496	42	6136
2026-01-27 15:42:02.55	230.31	17.06	-35.0	-35.9	24.1	0.00e+00	122	33	0	2026897408	42	6191
2026-01-27 15:42:06.59	230.06	16.62	-35.2	-36.1	23.8	0.00e+00	123	33	0	2039480320	42	6306
2026-01-27 15:42:10.63	229.81	16.18	-35.2	-36.1	23.7	0.00e+00	123	33	0	2052063232	42	6316
2026-01-27 15:42:14.67	229.57	15.74	-35.3	-36.2	23.5	0.00e+00	122	33	0	2064646144	42	6384
2026-01-27 15:42:18.72	229.34	15.32	-35.0	-35.9	23.9	0.00e+00	123	33	0	2077229056	42	6179
2026-01-27 15:42:22.75	229.11	14.90	-35.1	-36.0	23.7	0.00e+00	123	33	0	2089811968	42	6226
2026-01-27 15:42:26.79	228.90	14.49	-35.1	-36.1	23.7	0.00e+00	123	33	0	2102394880	42	6284
2026-01-27 15:42:30.83	228.68	14.08	-35.2	-36.1	23.8	0.00e+00	123	33	0	2114977792	42	6337
2026-01-27 15:42:34.87	228.48	13.68	-35.4	-36.4	23.6	0.00e+00	123	33	0	2127560704	42	6508
2026-01-27 15:42:38.91	228.28	13.29	-35.4	-36.4	23.5	0.00e+00	123	33	0	2140143616	42	6513
2026-01-27 15:42:42.95	228.08	12.90	-35.7	-36.7	23.3	0.00e+00	122	33	0	2152726528	42	6740
2026-01-27 15:42:46.99	227.89	12.52	-35.9	-36.9	23.0	0.00e+00	123	33	0	2165309440	44	6147
2026-01-27 15:42:51.02	227.71	12.14	-36.1	-37.1	22.9	0.00e+00	123	33	0	2177892352	44	6293
2026-01-27 15:42:55.06	227.53	11.77	-36.2	-37.2	22.7	0.00e+00	123	33	0	2190475264	44	6399
2026-01-27 15:42:59.11	227.35	11.40	-36.4	-37.4	22.6	0.00e+00	123	33	0	2203058176	44	6528
2026-01-27 15:43:03.14	227.18	11.04	-36.6	-37.6	22.4	0.00e+00	123	33	0	2215641088	44	6700
2026-01-27 15:43:07.18	227.02	10.69	-36.7	-37.7	22.3	0.00e+00	122	33	0	2228224000	44	6738
2026-01-27 15:43:11.22	226.86	10.34	-37.0	-38.0	22.0	0.00e+00	122	33	0	2240806912	46	6224
2026-01-27 15:43:15.26	226.70	9.99	-37.1	-38.2	21.8	0.00e+00	123	33	0	2253389824	46	6368
2026-01-27 15:43:19.30	226.55	9.65	-37.5	-38.5	21.5	0.00e+00	123	33	0	2265972736	46	6647
2026-01-27 15:43:23.34	226.40	9.31	-37.6	-38.7	21.5	0.00e+00	122	33	0	2278555648	46	6728
2026-01-27 15:43:27.37	226.25	8.98	-37.9	-39.0	21.1	0.00e+00	122	33	0	2292187136	48	6221
2026-01-27 15:43:31.41	226.11	8.65	-38.0	-39.1	20.9	0.00e+00	121	33	0	2303721472	48	6347
2026-01-27 15:43:35.45	225.97	8.32	-38.3	-39.5	20.6	0.00e+00	120	33	0	2317352960	48	6574
2026-01-27 15:43:39.49	225.83	8.00	-38.5	-39.7	20.3	0.00e+00	123	32	0	2329935872	48	6766
2026-01-27 15:43:43.53	225.70	7.69	-38.8	-40.0	20.0	0.00e+00	122	32	0	2342518784	50	6247
2026-01-27 15:43:47.57	225.57	7.37	-39.0	-40.3	19.7	0.00e+00	120	33	0	2355101696	50	6456
2026-01-27 15:43:51.60	225.45	7.07	-39.4	-40.7	19.3	0.00e+00	123	33	0	2367684608	50	6757
2026-01-27 15:43:55.64	225.32	6.76	-39.6	-41.0	19.0	0.00e+00	123	33	0	2380267520	50	6977
2026-01-27 15:43:59.68	225.20	6.46	-39.8	-41.2	18.7	0.00e+00	122	33	0	2392850432	52	6372
2026-01-27 15:44:03.72	225.08	6.16	-40.0	-41.4	18.4	0.00e+00	122	33	0	2405433344	52	6570
2026-01-27 15:44:07.76	224.97	5.86	-40.2	-41.7	18.1	0.00e+00	122	33	0	2418016256	52	6789
2026-01-27 15:44:11.79	224.85	5.57	-40.5	-42.0	17.7	0.00e+00	122	33	0	2430599168	52	7004
2026-01-27 15:44:15.83	224.74	5.28	-40.5	-42.1	17.5	0.00e+00	123	33	0	2443182080	52	7071
2026-01-27 15:44:19.87	224.64	4.99	-40.8	-42.4	17.1	0.00e+00	123	33	0	2455764992	54	6564
2026-01-27 15:44:23.91	224.53	4.71	-40.9	-42.5	17.0	0.00e+00	123	33	0	2468347904	54	6649
2026-01-27 15:44:27.95	224.43	4.43	-41.2	-42.9	16.5	0.00e+00	123	33	0	2480930816	54	6933
2026-01-27 15:44:31.99	224.32	4.15	-41.3	-43.2	16.0	0.00e+00	123	33	0	2493513728	54	7173
2026-01-27 15:44:36.03	224.23	3.88	-41.3	-43.2	16.1	0.00e+00	120	33	0	2506096640	54	7164
2026-01-27 15:44:40.06	224.13	3.60	-41.6	-43.5	15.6	0.00e+00	122	33	0	2518679552	54	7439
2026-01-27 15:44:44.10	224.03	3.33	-41.8	-43.9	15.2	0.00e+00	122	33	0	2531262464	56	6944
2026-01-27 15:44:48.14	223.94	3.07	-41.7	-43.7	15.4	0.00e+00	122	33	0	2543845376	56	6757
2026-01-27 15:44:52.18	223.85	2.80	-48.5	-61.4	3.5	1.52e+00	0	33	104	2548039680	60	41126
2026-01-27 15:44:56.21	223.76	2.54	-49.1	-61.9	3.5	1.52e+00	0	33	104	2548039680	60	43756
2026-01-27 15:45:00.26	223.67	2.28	-49.1	-62.0	3.5	1.52e+00	0	33	104	2548039680	60	44118
2026-01-27 15:45:04.30	223.59	2.02	-49.0	-62.0	3.5	1.52e+00	0	33	104	2548039680	60	44059
2026-01-27 15:45:08.34	223.50	1.77	-49.0	-61.8	3.5	1.52e+00	0	33	104	2548039680	60	43400
2026-01-27 15:45:12.37	223.42	1.51	-48.8	-61.8	3.5	1.52e+00	0	33	104	2548039680	60	43177
2026-01-27 15:45:16.42	223.34	1.26	-49.0	-61.8	3.5	1.52e+00	0	33	104	2548039680	60	43391
2026-01-27 15:45:20.46	223.26	1.01	-49.0	-61.9	3.5	1.52e+00	0	33	104	2548039680	60	43729
2026-01-27 15:45:24.50	223.18	0.77	-49.0	-61.8	3.5	1.52e+00	0	33	104	2548039680	60	43221
2026-01-27 15:45:28.53	223.10	0.52	-49.0	-61.8	3.5	1.52e+00	0	33	104	2548039680	60	43246
2026-01-27 15:45:32.57	223.03	0.28	-49.0	-61.9	3.5	1.51e+00	0	33	104	2548039680	60	43432
2026-01-27 15:45:36.62	222.95	0.04	-48.9	-61.8	3.5	1.52e+00	0	33	104	2548039680	60	43293

#Closed at: 2026-01-27 15:45:39
#Recorded file [2548 MB]: D:/lorett/data/35029_260128_033020.dat