passes_logs/2026/01/27/R4.6S_Anadyr/R4.6S_Anadyr__20260127_145859_AQUA_rec.log

#Pass ID: 20260127_145859_AQUA
#Satellite: AQUA
#Configuration: AQUA
#almurnet v.1.7.20251203
#Start time: 2026-01-27 14:58:59

#Version: 2.2.20231116
#Station: R4.6S_Anadyr
#Location: 177.4865 lon 64.73178 lat
#TLE: 1 27424U 02022A   26026.85810808  .00001813  00000+0  37258-3 0  9999
#TLE: 2 27424  98.4101 353.4861 0001866  64.3332 317.5249 14.61864179262622

#Time	Az	El	Level	Level2	SNR	BER	BlckErr	Temp	State	Recorded	gain1	gain2
2026-01-27 14:58:59.99	19.98	0.04	-49.0	-63.9	3.5	1.51e+00	0	30	0	0	60	56522
2026-01-27 14:59:04.03	20.20	0.27	-49.2	-67.1	3.5	3.02e+01	0	31	104	0	60	86665
2026-01-27 14:59:08.07	20.43	0.50	-49.3	-67.1	3.5	3.02e+01	0	31	104	0	60	87091
2026-01-27 14:59:12.11	20.66	0.74	-49.2	-67.1	3.5	3.02e+01	0	31	104	0	60	87135
2026-01-27 14:59:16.15	20.90	0.97	-48.9	-66.9	3.5	3.02e+01	0	31	104	0	60	85188
2026-01-27 14:59:20.19	21.14	1.21	-48.7	-66.5	3.5	3.02e+01	0	32	104	0	60	81768
2026-01-27 14:59:24.22	21.38	1.44	-47.9	-65.5	3.5	3.02e+01	0	32	104	0	60	72702
2026-01-27 14:59:28.26	21.63	1.68	-47.8	-65.8	3.5	3.02e+01	0	32	104	0	60	74686
2026-01-27 14:59:32.31	21.88	1.93	-47.8	-65.6	3.5	3.02e+01	0	32	104	0	60	73047
2026-01-27 14:59:36.35	22.14	2.17	-47.8	-65.4	3.5	3.02e+01	0	32	104	0	60	71554
2026-01-27 14:59:40.38	22.39	2.41	-47.8	-65.5	3.5	3.02e+01	0	32	104	0	60	72384
2026-01-27 14:59:44.42	22.66	2.66	-47.7	-63.1	3.8	3.02e+01	0	32	104	0	60	55267
2026-01-27 14:59:48.45	22.93	2.91	-46.6	-53.1	12.5	3.02e+01	56	32	0	1048576	60	17450
2026-01-27 14:59:52.49	23.20	3.16	-39.3	-41.0	23.8	3.02e+01	58	32	0	8388608	54	6106
2026-01-27 14:59:56.53	23.48	3.41	-39.5	-41.2	24.0	3.02e+01	57	32	0	15728640	52	6969
2026-01-27 15:00:00.57	23.76	3.67	-39.0	-40.6	24.0	3.02e+01	59	32	0	23592960	52	6507
2026-01-27 15:00:04.60	24.05	3.93	-38.1	-39.6	25.6	3.02e+01	60	32	0	28835840	52	5808
2026-01-27 15:00:08.64	24.35	4.19	-38.3	-39.8	25.3	3.02e+01	60	32	0	36175872	50	6712
2026-01-27 15:00:12.68	24.64	4.45	-38.7	-40.2	25.1	3.02e+01	57	32	0	44040192	52	6228
2026-01-27 15:00:16.71	24.95	4.71	-37.6	-39.0	26.2	3.02e+01	57	32	0	51380224	50	6080
2026-01-27 15:00:20.75	25.26	4.98	-37.9	-39.4	25.8	3.02e+01	58	32	0	58720256	50	6366
2026-01-27 15:00:24.79	25.58	5.25	-37.9	-39.4	25.9	3.02e+01	59	32	0	66584576	50	6365
2026-01-27 15:00:28.82	25.90	5.52	-37.6	-39.0	26.3	3.02e+01	59	32	0	73924608	50	6082
2026-01-27 15:00:32.86	26.23	5.79	-37.5	-38.9	26.5	3.02e+01	58	32	0	81788928	50	6007
2026-01-27 15:00:36.90	26.56	6.07	-37.4	-38.8	26.5	3.02e+01	50	32	0	89128960	50	5990
2026-01-27 15:00:40.93	26.90	6.35	-37.3	-38.7	26.7	3.02e+01	59	32	0	96993280	50	5873
2026-01-27 15:00:44.97	27.25	6.63	-37.2	-38.5	26.9	3.02e+01	61	32	0	104333312	50	5783
2026-01-27 15:00:49.01	27.61	6.91	-36.9	-38.3	27.2	3.02e+01	57	32	0	112197632	48	6278
2026-01-27 15:00:53.04	27.97	7.20	-37.0	-38.3	27.1	3.02e+01	59	32	0	119537664	48	6308
2026-01-27 15:00:57.08	28.34	7.49	-37.1	-38.4	27.1	3.02e+01	44	32	0	126877696	48	6404
2026-01-27 15:01:01.12	28.72	7.78	-36.9	-38.2	27.4	3.02e+01	59	32	0	134742016	48	6270
2026-01-27 15:01:05.16	29.10	8.08	-36.9	-38.2	27.3	3.02e+01	57	32	0	142082048	48	6245
2026-01-27 15:01:09.19	29.50	8.37	-36.8	-38.2	27.4	3.02e+01	60	32	0	149946368	48	6209
2026-01-27 15:01:13.23	29.90	8.67	-36.5	-37.8	27.7	3.02e+01	56	32	0	157286400	48	5981
2026-01-27 15:01:17.27	30.31	8.98	-36.3	-37.6	27.8	3.02e+01	62	32	0	165150720	48	5856
2026-01-27 15:01:21.30	30.73	9.28	-36.5	-37.8	27.7	3.02e+01	52	32	0	172490752	48	5993
2026-01-27 15:01:25.33	31.16	9.59	-36.2	-37.5	28.0	3.02e+01	58	32	0	179830784	48	5788
2026-01-27 15:01:29.37	31.60	9.91	-36.2	-37.5	28.1	3.02e+01	52	32	0	187695104	48	5733
2026-01-27 15:01:33.41	32.05	10.22	-35.9	-37.2	28.3	3.02e+01	59	32	0	195035136	48	5581
2026-01-27 15:01:37.44	32.51	10.54	-36.2	-37.5	28.1	3.02e+01	51	32	0	202899456	46	6472
2026-01-27 15:01:41.48	32.97	10.86	-36.0	-37.3	28.4	3.02e+01	58	32	0	210239488	46	6303
2026-01-27 15:01:45.52	33.46	11.19	-35.8	-37.1	28.5	3.02e+01	45	32	0	218103808	46	6172
2026-01-27 15:01:49.56	33.95	11.52	-35.7	-36.9	28.6	3.02e+01	61	32	0	225443840	46	6039
2026-01-27 15:01:53.59	34.45	11.85	-35.8	-37.0	28.6	3.02e+01	53	32	0	232783872	46	6115
2026-01-27 15:01:57.63	34.97	12.18	-35.7	-37.0	28.6	3.02e+01	62	32	0	240648192	46	6085
2026-01-27 15:02:01.67	35.49	12.52	-35.5	-36.7	28.9	3.02e+01	47	32	0	247988224	46	5904
2026-01-27 15:02:05.70	36.03	12.86	-35.8	-37.1	28.6	3.02e+01	58	32	0	255852544	46	6156
2026-01-27 15:02:09.74	36.59	13.21	-35.5	-36.7	29.0	3.02e+01	53	32	0	263192576	46	5895
2026-01-27 15:02:13.78	37.15	13.55	-35.5	-36.8	28.8	3.02e+01	56	32	0	271056896	46	5956
2026-01-27 15:02:17.81	37.73	13.90	-35.3	-36.5	29.0	3.02e+01	60	32	0	278396928	46	5762
2026-01-27 15:02:21.85	38.33	14.26	-35.3	-36.6	29.1	3.02e+01	58	32	0	285736960	46	5797
2026-01-27 15:02:25.88	38.94	14.61	-35.4	-36.7	29.0	3.02e+01	56	32	0	293601280	46	5877
2026-01-27 15:02:29.92	39.56	14.97	-35.2	-36.4	29.1	3.02e+01	59	32	0	300941312	46	5695
2026-01-27 15:02:33.96	40.21	15.34	-35.2	-36.5	29.1	3.02e+01	61	32	0	308805632	46	5727
2026-01-27 15:02:37.99	40.86	15.70	-35.1	-36.4	29.1	3.02e+01	60	32	0	316145664	46	5674
2026-01-27 15:02:42.03	41.54	16.07	-35.2	-36.5	29.0	3.02e+01	59	32	0	324009984	46	5747
2026-01-27 15:02:46.06	42.23	16.44	-35.0	-36.2	29.4	3.02e+01	57	32	0	331350016	46	5588
2026-01-27 15:02:50.09	42.94	16.81	-35.1	-36.3	29.3	3.02e+01	56	32	0	338690048	44	6291
2026-01-27 15:02:54.13	43.67	17.19	-34.9	-36.2	29.5	3.02e+01	58	32	0	346554368	44	6217
2026-01-27 15:02:58.16	44.41	17.56	-34.9	-36.1	29.6	3.02e+01	59	32	0	353894400	44	6198
2026-01-27 15:03:02.20	45.18	17.94	-35.1	-36.3	29.5	3.02e+01	57	32	0	361758720	44	6298
2026-01-27 15:03:06.24	45.97	18.33	-34.9	-36.1	29.5	3.02e+01	60	32	0	369098752	44	6196
2026-01-27 15:03:10.28	46.78	18.71	-35.0	-36.2	29.5	3.02e+01	63	32	0	376963072	44	6216
2026-01-27 15:03:14.31	47.61	19.09	-34.9	-36.1	29.6	3.02e+01	56	32	0	384303104	44	6199
2026-01-27 15:03:18.35	48.46	19.48	-34.9	-36.1	29.6	3.02e+01	59	32	0	391643136	44	6163
2026-01-27 15:03:22.38	49.33	19.86	-35.0	-36.2	29.5	3.02e+01	53	32	0	399507456	44	6251
2026-01-27 15:03:26.42	50.23	20.25	-34.9	-36.1	29.6	3.02e+01	46	32	0	406847488	44	6192
2026-01-27 15:03:30.46	51.15	20.63	-35.1	-36.3	29.4	3.02e+01	57	32	0	414711808	44	6343
2026-01-27 15:03:34.50	52.09	21.01	-35.2	-36.4	29.4	3.02e+01	46	32	0	422051840	44	6389
2026-01-27 15:03:38.53	53.06	21.40	-35.3	-36.5	29.3	3.02e+01	64	32	0	429916160	44	6451
2026-01-27 15:03:42.57	54.05	21.78	-35.0	-36.3	29.4	3.02e+01	45	32	0	437256192	44	6325
2026-01-27 15:03:46.61	55.07	22.16	-35.1	-36.4	29.3	3.02e+01	59	32	0	445120512	44	6359
2026-01-27 15:03:50.65	56.12	22.53	-35.2	-36.4	29.4	3.02e+01	57	32	0	452460544	44	6355
2026-01-27 15:03:54.69	57.19	22.91	-35.2	-36.4	29.3	3.02e+01	57	32	0	459800576	44	6383
2026-01-27 15:03:58.72	58.29	23.27	-35.4	-36.7	29.1	3.02e+01	52	32	0	467664896	44	6610
2026-01-27 15:04:02.76	59.41	23.64	-35.4	-36.6	29.2	3.02e+01	60	32	0	475004928	44	6558
2026-01-27 15:04:06.80	60.57	23.99	-35.3	-36.6	29.2	3.02e+01	50	32	0	482869248	44	6507
2026-01-27 15:04:10.84	61.75	24.34	-35.5	-36.7	29.2	3.02e+01	60	32	0	490209280	44	6647
2026-01-27 15:04:14.87	62.95	24.69	-35.6	-36.8	29.0	3.02e+01	51	32	0	498073600	44	6681
2026-01-27 15:04:18.91	64.18	25.02	-35.4	-36.7	29.1	3.02e+01	60	32	0	505413632	44	6576
2026-01-27 15:04:22.95	65.44	25.35	-35.6	-36.8	29.0	3.02e+01	41	32	0	512753664	44	6710
2026-01-27 15:04:26.99	66.73	25.67	-35.3	-36.6	29.2	3.02e+01	58	32	0	520617984	44	6511
2026-01-27 15:04:31.03	68.04	25.97	-35.4	-36.7	29.0	3.02e+01	47	32	0	527958016	44	6601
2026-01-27 15:04:35.07	69.38	26.27	-35.5	-36.7	29.0	3.02e+01	59	32	0	535822336	44	6648
2026-01-27 15:04:39.11	70.75	26.55	-35.6	-36.8	29.0	3.02e+01	50	32	0	543162368	44	6676
2026-01-27 15:04:43.14	72.13	26.81	-35.4	-36.6	29.2	3.02e+01	61	32	0	551026688	44	6554
2026-01-27 15:04:47.18	73.54	27.07	-35.4	-36.6	29.1	3.02e+01	64	32	0	558366720	44	6529
2026-01-27 15:04:51.22	74.98	27.30	-35.3	-36.5	29.3	3.02e+01	58	32	0	566231040	44	6444
2026-01-27 15:04:55.26	76.43	27.52	-35.2	-36.5	29.3	3.02e+01	61	32	0	573571072	44	6430
2026-01-27 15:04:59.29	77.91	27.72	-35.2	-36.4	29.3	3.02e+01	60	32	0	580911104	44	6416
2026-01-27 15:05:03.33	79.40	27.91	-35.0	-36.2	29.6	3.02e+01	57	32	0	588775424	44	6239
2026-01-27 15:05:07.36	80.91	28.07	-34.9	-36.1	29.7	3.02e+01	61	32	0	596115456	44	6135
2026-01-27 15:05:11.40	82.43	28.22	-34.9	-36.1	29.6	3.02e+01	59	32	0	603979776	44	6194
2026-01-27 15:05:15.44	83.97	28.34	-34.7	-35.9	29.8	3.02e+01	60	32	0	611319808	44	6050
2026-01-27 15:05:19.47	85.52	28.45	-34.9	-36.1	29.6	3.02e+01	56	32	0	619184128	44	6152
2026-01-27 15:05:23.51	87.08	28.53	-34.7	-35.9	29.7	3.02e+01	59	32	0	626524160	44	6059
2026-01-27 15:05:27.55	88.65	28.59	-34.8	-36.0	29.8	3.02e+01	59	32	0	634388480	44	6068
2026-01-27 15:05:31.59	90.22	28.62	-34.4	-35.6	30.1	3.02e+01	57	32	0	641728512	44	5839
2026-01-27 15:05:35.62	91.79	28.64	-34.3	-35.4	30.1	3.02e+01	60	32	0	649068544	44	5718
2026-01-27 15:05:39.66	93.37	28.63	-34.7	-35.9	29.7	3.02e+01	60	32	0	656932864	44	6055
2026-01-27 15:05:43.69	94.94	28.60	-34.3	-35.5	30.1	3.02e+01	59	32	0	664272896	44	5782
2026-01-27 15:05:47.73	96.51	28.55	-34.6	-35.8	29.9	3.02e+01	44	32	0	672137216	44	5928
2026-01-27 15:05:51.76	98.07	28.48	-34.4	-35.6	30.1	3.02e+01	59	32	0	679477248	44	5792
2026-01-27 15:05:55.80	99.62	28.38	-34.3	-35.5	30.1	3.02e+01	45	32	0	687341568	44	5760
2026-01-27 15:05:59.83	101.17	28.26	-34.1	-35.2	30.4	3.02e+01	61	32	0	694681600	44	5576
2026-01-27 15:06:03.87	102.70	28.13	-34.2	-35.4	30.2	3.02e+01	57	32	0	702545920	44	5674
2026-01-27 15:06:07.90	104.22	27.97	-34.3	-35.5	30.0	3.02e+01	60	32	0	709885952	44	5764
2026-01-27 15:06:11.93	105.71	27.79	-34.1	-35.3	30.3	3.02e+01	44	32	0	717225984	44	5638
2026-01-27 15:06:15.97	107.20	27.59	-34.2	-35.3	30.3	3.02e+01	60	32	0	725090304	44	5659
2026-01-27 15:06:20.01	108.67	27.38	-34.1	-35.3	30.3	3.02e+01	51	32	0	732430336	44	5628
2026-01-27 15:06:24.04	110.11	27.15	-34.3	-35.5	30.1	3.02e+01	62	32	0	740294656	44	5760
2026-01-27 15:06:28.08	111.53	26.90	-34.1	-35.2	30.4	3.02e+01	51	32	0	747634688	44	5587
2026-01-27 15:06:32.12	112.93	26.64	-34.3	-35.4	30.1	3.02e+01	60	32	0	755499008	44	5710
2026-01-27 15:06:36.16	114.31	26.36	-34.3	-35.5	30.1	3.02e+01	50	32	0	762839040	44	5769
2026-01-27 15:06:40.19	115.66	26.07	-34.3	-35.4	30.2	3.02e+01	59	32	0	770179072	44	5714
2026-01-27 15:06:44.23	116.98	25.77	-34.4	-35.6	29.9	3.02e+01	52	32	0	778043392	44	5814
2026-01-27 15:06:48.27	118.28	25.45	-34.2	-35.4	30.1	3.02e+01	57	32	0	785383424	44	5703
2026-01-27 15:06:52.31	119.56	25.13	-34.4	-35.5	30.0	3.02e+01	48	32	0	793247744	44	5783
2026-01-27 15:06:56.34	120.80	24.80	-34.3	-35.5	30.1	3.02e+01	58	32	0	800587776	44	5757
2026-01-27 15:07:00.38	122.02	24.45	-34.4	-35.5	30.0	3.02e+01	58	32	0	808452096	44	5778
2026-01-27 15:07:04.42	123.22	24.10	-34.2	-35.4	30.0	3.02e+01	60	32	0	815792128	44	5693
2026-01-27 15:07:08.46	124.38	23.74	-34.3	-35.4	30.1	3.02e+01	60	32	0	823656448	44	5713
2026-01-27 15:07:12.50	125.52	23.38	-34.4	-35.6	30.1	3.02e+01	59	32	0	830996480	44	5796
2026-01-27 15:07:16.54	126.63	23.01	-34.3	-35.5	30.2	3.02e+01	62	32	0	838336512	44	5737
2026-01-27 15:07:20.58	127.72	22.64	-34.4	-35.6	29.9	3.02e+01	58	32	0	846200832	44	5827
2026-01-27 15:07:24.62	128.78	22.26	-34.3	-35.4	30.0	3.02e+01	53	32	0	853540864	44	5716
2026-01-27 15:07:28.66	129.81	21.88	-34.2	-35.4	30.2	3.02e+01	60	32	0	861405184	44	5687
2026-01-27 15:07:32.70	130.81	21.50	-34.3	-35.5	30.0	3.02e+01	57	32	0	868745216	44	5745
2026-01-27 15:07:36.73	131.79	21.11	-34.2	-35.4	30.1	3.02e+01	58	32	0	876609536	44	5697
2026-01-27 15:07:40.77	132.75	20.73	-34.3	-35.5	30.0	3.02e+01	59	32	0	883949568	44	5754
2026-01-27 15:07:44.81	133.68	20.34	-34.0	-35.2	30.2	3.02e+01	58	32	0	891813888	44	5567
2026-01-27 15:07:48.85	134.59	19.95	-34.1	-35.3	30.0	3.02e+01	60	32	0	899153920	44	5627
2026-01-27 15:07:52.89	135.48	19.56	-34.1	-35.3	30.2	3.02e+01	59	32	0	906493952	42	6308
2026-01-27 15:07:56.93	136.34	19.18	-34.1	-35.3	30.1	3.02e+01	61	32	0	914358272	42	6325
2026-01-27 15:08:00.97	137.18	18.79	-34.0	-35.2	30.2	3.02e+01	58	32	0	921698304	42	6221
2026-01-27 15:08:05.00	137.99	18.41	-34.0	-35.1	30.2	3.02e+01	59	32	0	929562624	42	6195
2026-01-27 15:08:09.04	138.79	18.02	-34.0	-35.2	30.2	3.02e+01	59	32	0	936902656	42	6253
2026-01-27 15:08:13.07	139.57	17.64	-34.1	-35.3	30.1	3.02e+01	57	32	0	944766976	42	6287
2026-01-27 15:08:17.11	140.32	17.26	-34.1	-35.3	30.2	3.02e+01	44	32	0	952107008	42	6288
2026-01-27 15:08:21.15	141.06	16.88	-34.1	-35.2	30.1	3.02e+01	58	32	0	959447040	42	6274
2026-01-27 15:08:25.18	141.78	16.50	-34.0	-35.2	30.2	3.02e+01	58	32	0	967311360	42	6245
2026-01-27 15:08:29.21	142.48	16.13	-34.1	-35.2	30.2	3.02e+01	58	32	0	974651392	42	6267
2026-01-27 15:08:33.25	143.16	15.76	-34.2	-35.4	30.1	3.02e+01	55	32	0	982515712	42	6360
2026-01-27 15:08:37.29	143.83	15.39	-34.2	-35.4	29.9	3.02e+01	59	32	0	989855744	42	6371
2026-01-27 15:08:41.33	144.47	15.02	-34.2	-35.4	29.7	3.02e+01	48	32	0	997720064	42	6376
2026-01-27 15:08:45.37	145.11	14.66	-34.2	-35.4	29.7	3.02e+01	58	32	0	1005060096	42	6369
2026-01-27 15:08:49.40	145.72	14.30	-34.2	-35.4	29.7	3.02e+01	53	32	0	1012400128	42	6386
2026-01-27 15:08:53.43	146.32	13.94	-34.3	-35.5	29.8	3.02e+01	59	32	0	1020264448	42	6466
2026-01-27 15:08:57.47	146.91	13.59	-34.4	-35.6	29.7	3.02e+01	44	32	0	1027604480	42	6517
2026-01-27 15:09:01.51	147.48	13.24	-34.2	-35.4	29.9	3.02e+01	59	32	0	1035468800	42	6401
2026-01-27 15:09:05.55	148.04	12.89	-34.4	-35.5	29.8	3.02e+01	56	32	0	1042808832	42	6486
2026-01-27 15:09:09.58	148.58	12.55	-34.6	-35.8	29.5	3.02e+01	59	32	0	1050673152	42	6698
2026-01-27 15:09:13.62	149.12	12.20	-34.6	-35.8	29.6	3.02e+01	46	32	0	1058013184	42	6699
2026-01-27 15:09:17.66	149.64	11.87	-34.8	-36.1	29.4	3.02e+01	59	32	0	1065877504	42	6886
2026-01-27 15:09:21.70	150.14	11.53	-34.6	-35.8	29.5	3.02e+01	47	32	0	1073217536	42	6650
2026-01-27 15:09:25.73	150.64	11.20	-34.7	-35.9	29.5	3.02e+01	54	32	0	1080557568	42	6727
2026-01-27 15:09:29.77	151.12	10.87	-34.7	-35.9	29.4	3.02e+01	63	32	0	1088421888	42	6761
2026-01-27 15:09:33.81	151.59	10.55	-34.8	-36.0	29.3	3.02e+01	61	32	0	1095761920	42	6846
2026-01-27 15:09:37.84	152.06	10.22	-35.1	-36.3	29.0	3.02e+01	59	32	0	1103626240	44	6303
2026-01-27 15:09:41.89	152.51	9.90	-35.4	-36.6	28.6	3.02e+01	58	32	0	1110966272	44	6564
2026-01-27 15:09:45.92	152.95	9.59	-36.1	-37.4	27.9	3.02e+01	57	32	0	1118830592	46	6379
2026-01-27 15:09:49.97	153.38	9.28	-36.9	-38.3	26.5	3.02e+01	57	32	0	1126170624	46	7101
2026-01-27 15:09:54.01	153.81	8.97	-38.1	-39.7	25.1	3.02e+01	59	32	0	1134034944	50	6575
2026-01-27 15:09:58.04	154.22	8.66	-39.1	-40.8	23.8	3.02e+01	63	32	0	1141374976	52	6716
2026-01-27 15:10:02.08	154.62	8.36	-39.9	-41.7	22.8	3.02e+01	62	32	0	1148715008	52	7441
2026-01-27 15:10:06.12	155.02	8.05	-39.9	-41.8	22.9	3.02e+01	58	32	0	1156579328	54	6656
2026-01-27 15:10:10.15	155.40	7.76	-39.1	-40.8	24.1	3.02e+01	59	32	0	1163919360	54	5953
2026-01-27 15:10:14.19	155.78	7.46	-38.3	-39.8	25.1	3.02e+01	57	32	0	1171783680	52	5966
2026-01-27 15:10:18.23	156.16	7.17	-38.0	-39.5	25.6	3.02e+01	61	32	0	1179123712	50	6435
2026-01-27 15:10:22.27	156.52	6.88	-37.4	-38.8	26.3	3.02e+01	58	32	0	1186988032	50	5940
2026-01-27 15:10:26.31	156.88	6.59	-36.6	-38.0	27.2	3.02e+01	58	32	0	1194328064	48	6084
2026-01-27 15:10:30.34	157.22	6.31	-36.5	-37.8	27.4	3.02e+01	61	32	0	1201668096	48	5953
2026-01-27 15:10:34.38	157.57	6.03	-36.3	-37.6	27.5	3.02e+01	60	32	0	1209532416	48	5848
2026-01-27 15:10:38.42	157.90	5.75	-36.2	-37.5	27.6	3.02e+01	45	32	0	1216872448	48	5780
2026-01-27 15:10:42.45	158.23	5.47	-36.3	-37.7	27.4	3.02e+01	59	32	0	1224736768	48	5860
2026-01-27 15:10:46.48	158.55	5.20	-36.6	-37.9	27.3	3.02e+01	52	32	0	1232076800	48	6031
2026-01-27 15:10:50.52	158.87	4.93	-36.5	-37.8	27.2	3.02e+01	61	32	0	1239941120	48	5972
2026-01-27 15:10:54.56	159.18	4.66	-36.6	-37.9	27.2	3.02e+01	60	32	0	1247281152	48	6056
2026-01-27 15:10:58.59	159.48	4.39	-36.9	-38.3	26.7	3.02e+01	58	32	0	1254621184	48	6319
2026-01-27 15:11:02.63	159.78	4.13	-37.1	-38.5	26.6	3.02e+01	55	32	0	1262485504	48	6454
2026-01-27 15:11:06.67	160.07	3.87	-37.4	-38.8	26.3	3.02e+01	58	32	0	1269825536	48	6697
2026-01-27 15:11:10.71	160.36	3.61	-38.0	-39.4	25.5	3.02e+01	55	32	0	1277689856	50	6423
2026-01-27 15:11:14.75	160.64	3.35	-37.9	-39.4	25.5	3.02e+01	57	32	0	1285029888	50	6403
2026-01-27 15:11:18.79	160.92	3.10	-38.0	-39.4	25.4	3.02e+01	47	32	0	1292894208	50	6418
2026-01-27 15:11:22.83	161.19	2.84	-47.3	-65.0	3.5	3.02e+01	0	32	104	1296039936	60	68096
2026-01-27 15:11:26.88	161.46	2.59	-48.9	-66.8	3.5	3.02e+01	0	32	104	1296039936	60	84555
2026-01-27 15:11:30.91	161.73	2.34	-49.2	-67.1	3.5	3.02e+01	0	32	104	1296039936	60	86798
2026-01-27 15:11:34.96	161.99	2.09	-49.3	-67.2	3.5	3.02e+01	0	32	104	1296039936	60	87908
2026-01-27 15:11:39.00	162.24	1.85	-49.2	-67.1	3.5	3.02e+01	0	33	104	1296039936	60	87142
2026-01-27 15:11:43.03	162.49	1.61	-49.2	-67.1	3.5	3.02e+01	0	32	104	1296039936	60	86994
2026-01-27 15:11:47.07	162.73	1.36	-49.2	-67.1	3.5	3.02e+01	0	32	104	1296039936	60	87580
2026-01-27 15:11:51.11	162.98	1.12	-49.2	-67.1	3.5	3.02e+01	0	32	104	1296039936	60	86849
2026-01-27 15:11:55.15	163.21	0.89	-49.2	-67.0	3.5	3.02e+01	0	32	104	1296039936	60	86449
2026-01-27 15:11:59.19	163.45	0.65	-49.2	-67.1	3.4	3.02e+01	0	32	104	1296039936	60	86899
2026-01-27 15:12:03.22	163.68	0.42	-49.2	-67.1	3.5	3.02e+01	0	32	104	1296039936	60	86770
2026-01-27 15:12:07.26	163.90	0.18	-49.2	-67.2	3.5	3.02e+01	0	32	104	1296039936	60	87704

#Closed at: 2026-01-27 15:12:10
#Recorded file [1296 MB]: D:/lorett/data/35029_260128_025859.dat