passes_logs/2026/01/27/R4.6S_Anadyr/R4.6S_Anadyr__20260127_144015_NOAA_20_JPSS-1_rec.log

#Pass ID: 20260127_144015_NOAA 20 (JPSS-1)
#Satellite: NOAA 20 (JPSS-1)
#Configuration: NOAA 20
#almurnet v.1.7.20251203
#Start time: 2026-01-27 14:40:17

#Version: 2.2.20231116
#Station: R4.6S_Anadyr
#Location: 177.4865 lon 64.73178 lat
#TLE: 1 43013U 17073A   26026.81907703  .00000149  00000+0  91399-4 0  9998
#TLE: 2 43013  98.7647 327.6343 0000991  22.4130 337.7089 14.19540778424411

#Time	Az	El	Level	Level2	SNR	BER	BlckErr	Temp	State	Recorded	gain1	gain2
2026-01-27 14:40:17.53	20.40	0.10	-48.9	-63.8	3.5	1.51e+00	0	30	0	0	60	56020
2026-01-27 14:40:21.57	20.43	0.35	-48.9	-64.1	3.6	1.51e+00	0	31	104	0	60	57920
2026-01-27 14:40:25.61	20.46	0.59	-48.9	-64.2	3.6	1.51e+00	0	31	104	0	60	58545
2026-01-27 14:40:29.65	20.48	0.84	-49.0	-64.2	3.6	1.51e+00	0	31	104	0	60	58426
2026-01-27 14:40:33.69	20.51	1.09	-48.7	-63.9	3.6	1.51e+00	0	32	104	0	60	56815
2026-01-27 14:40:37.72	20.53	1.34	-48.4	-63.6	3.6	1.51e+00	0	32	104	0	60	54482
2026-01-27 14:40:41.77	20.56	1.59	-47.6	-62.8	3.6	1.51e+00	0	32	104	0	60	49677
2026-01-27 14:40:45.81	20.58	1.84	-47.5	-62.7	3.6	1.51e+00	0	32	104	0	60	49118
2026-01-27 14:40:49.85	20.61	2.10	-47.5	-62.7	3.6	1.51e+00	0	32	104	0	60	49329
2026-01-27 14:40:53.89	20.63	2.36	-47.5	-62.3	3.6	1.51e+00	0	32	104	0	60	46931
2026-01-27 14:40:57.93	20.66	2.62	-47.4	-60.4	3.6	1.49e+00	0	32	104	0	60	37734
2026-01-27 14:41:01.96	20.69	2.89	-47.4	-60.0	3.7	1.51e+00	0	32	104	0	60	36241
2026-01-27 14:41:06.00	20.71	3.15	-45.9	-50.7	10.7	4.36e-03	0	32	0	5242880	60	12365
2026-01-27 14:41:10.04	20.74	3.42	-43.5	-46.0	15.7	7.00e-07	92	32	0	12582912	60	7253
2026-01-27 14:41:14.07	20.77	3.69	-44.2	-47.1	14.5	0.00e+00	0	32	0	19922944	60	8223
2026-01-27 14:41:18.11	20.79	3.97	-47.5	-60.0	3.6	4.50e-01	0	32	104	27262976	60	36070
2026-01-27 14:41:22.14	20.82	4.24	-43.9	-46.6	15.3	0.00e+00	76	32	0	27262976	60	7708
2026-01-27 14:41:26.18	20.85	4.53	-43.0	-45.1	17.1	0.00e+00	67	32	0	34603008	60	6504
2026-01-27 14:41:30.22	20.88	4.81	-41.9	-43.7	18.1	0.00e+00	21	32	0	41943040	56	6928
2026-01-27 14:41:34.26	20.90	5.10	-41.5	-43.1	18.9	0.00e+00	0	32	0	50331648	56	6515
2026-01-27 14:41:38.29	20.93	5.38	-41.1	-42.5	19.4	0.00e+00	90	32	0	57671680	56	6095
2026-01-27 14:41:42.33	20.96	5.68	-40.9	-42.4	19.7	0.00e+00	0	32	0	65011712	56	5988
2026-01-27 14:41:46.37	20.99	5.97	-41.0	-42.5	19.7	0.00e+00	2	32	0	72351744	56	6045
2026-01-27 14:41:50.41	21.02	6.27	-40.8	-42.2	20.0	0.00e+00	14	32	0	80740352	56	5857
2026-01-27 14:41:54.44	21.04	6.57	-40.6	-42.0	20.1	0.00e+00	92	32	0	88080384	54	6413
2026-01-27 14:41:58.48	21.07	6.88	-40.4	-41.6	20.5	0.00e+00	14	32	0	95420416	54	6170
2026-01-27 14:42:02.52	21.10	7.19	-40.3	-41.6	20.5	0.00e+00	0	32	0	102760448	54	6128
2026-01-27 14:42:06.55	21.13	7.50	-40.1	-41.4	20.8	0.00e+00	0	32	0	110100480	54	5977
2026-01-27 14:42:10.59	21.16	7.82	-40.1	-41.4	20.8	0.00e+00	92	32	0	118489088	54	5981
2026-01-27 14:42:14.63	21.19	8.14	-40.0	-41.2	21.0	0.00e+00	66	32	0	125829120	54	5876
2026-01-27 14:42:18.67	21.22	8.47	-40.0	-41.2	21.0	0.00e+00	0	32	0	133169152	54	5894
2026-01-27 14:42:22.71	21.25	8.80	-39.8	-41.0	21.3	0.00e+00	0	32	0	140509184	52	6412
2026-01-27 14:42:26.74	21.28	9.14	-39.7	-40.8	21.5	0.00e+00	90	32	0	148897792	52	6271
2026-01-27 14:42:30.78	21.31	9.48	-39.6	-40.8	21.6	0.00e+00	63	32	0	156237824	52	6251
2026-01-27 14:42:34.82	21.34	9.82	-39.5	-40.6	21.8	0.00e+00	64	32	0	163577856	52	6109
2026-01-27 14:42:38.86	21.38	10.17	-39.3	-40.4	21.9	0.00e+00	18	32	0	170917888	52	6014
2026-01-27 14:42:42.90	21.41	10.52	-39.3	-40.3	22.1	0.00e+00	92	32	0	178257920	52	5956
2026-01-27 14:42:46.94	21.44	10.88	-39.6	-40.7	21.6	0.00e+00	0	32	0	186646528	52	6206
2026-01-27 14:42:50.98	21.47	11.25	-39.3	-40.3	22.0	0.00e+00	70	32	0	193986560	52	5957
2026-01-27 14:42:55.02	21.51	11.62	-39.0	-40.1	22.3	0.00e+00	0	32	0	201326592	52	5781
2026-01-27 14:42:59.06	21.54	11.99	-39.1	-40.1	22.3	0.00e+00	92	32	0	208666624	52	5812
2026-01-27 14:43:03.10	21.57	12.37	-38.8	-39.8	22.6	0.00e+00	0	32	0	217055232	52	5601
2026-01-27 14:43:07.13	21.61	12.76	-38.6	-39.6	22.7	0.00e+00	0	32	0	224395264	50	6146
2026-01-27 14:43:11.17	21.64	13.15	-38.6	-39.5	22.8	0.00e+00	90	32	0	231735296	50	6091
2026-01-27 14:43:15.20	21.68	13.55	-38.4	-39.4	23.0	0.00e+00	3	32	0	239075328	50	5989
2026-01-27 14:43:19.24	21.71	13.96	-38.4	-39.3	23.1	0.00e+00	11	32	0	246415360	50	5947
2026-01-27 14:43:23.28	21.75	14.38	-38.3	-39.2	23.2	0.00e+00	0	32	0	254803968	50	5870
2026-01-27 14:43:27.31	21.79	14.80	-38.2	-39.2	23.2	0.00e+00	92	32	0	262144000	50	5848
2026-01-27 14:43:31.35	21.82	15.22	-38.1	-39.0	23.4	0.00e+00	0	32	0	269484032	50	5746
2026-01-27 14:43:35.38	21.86	15.66	-38.2	-39.1	23.2	0.00e+00	0	32	0	276824064	50	5824
2026-01-27 14:43:39.42	21.90	16.10	-38.1	-39.0	23.4	0.00e+00	3	32	0	284164096	50	5724
2026-01-27 14:43:43.46	21.94	16.56	-38.0	-38.9	23.6	0.00e+00	92	32	0	292552704	50	5672
2026-01-27 14:43:47.49	21.98	17.02	-37.8	-38.7	23.7	0.00e+00	0	32	0	299892736	50	5539
2026-01-27 14:43:51.53	22.02	17.49	-37.9	-38.8	23.5	0.00e+00	0	32	0	307232768	48	6262
2026-01-27 14:43:55.56	22.06	17.96	-37.7	-38.6	23.8	0.00e+00	0	32	0	314572800	48	6156
2026-01-27 14:43:59.60	22.10	18.45	-37.7	-38.6	23.7	0.00e+00	91	32	0	322961408	48	6155
2026-01-27 14:44:03.64	22.15	18.95	-37.8	-38.7	23.7	0.00e+00	0	33	0	330301440	48	6191
2026-01-27 14:44:07.68	22.19	19.46	-38.0	-38.9	23.6	0.00e+00	9	32	0	337641472	48	6358
2026-01-27 14:44:11.72	22.23	19.98	-37.9	-38.8	23.6	0.00e+00	0	32	0	344981504	48	6305
2026-01-27 14:44:15.76	22.28	20.51	-38.0	-38.9	23.5	0.00e+00	92	32	0	352321536	48	6340
2026-01-27 14:44:19.80	22.33	21.05	-38.0	-38.9	23.6	0.00e+00	22	32	0	360710144	48	6388
2026-01-27 14:44:23.84	22.37	21.61	-37.9	-38.8	23.7	0.00e+00	71	32	0	368050176	48	6294
2026-01-27 14:44:27.87	22.42	22.17	-38.0	-38.9	23.6	0.00e+00	0	32	0	375390208	48	6358
2026-01-27 14:44:31.91	22.47	22.75	-38.2	-39.2	23.4	0.00e+00	92	32	0	382730240	48	6544
2026-01-27 14:44:35.95	22.52	23.34	-38.1	-39.0	23.5	0.00e+00	0	32	0	391118848	48	6415
2026-01-27 14:44:39.99	22.58	23.95	-38.4	-39.3	23.2	0.00e+00	12	32	0	398458880	48	6643
2026-01-27 14:44:44.03	22.63	24.57	-38.2	-39.1	23.4	0.00e+00	0	32	0	405798912	48	6518
2026-01-27 14:44:48.07	22.69	25.21	-38.2	-39.1	23.4	0.00e+00	90	32	0	413138944	48	6528
2026-01-27 14:44:52.11	22.74	25.86	-38.4	-39.3	23.3	0.00e+00	2	32	0	420478976	48	6669
2026-01-27 14:44:56.15	22.80	26.53	-38.5	-39.4	23.1	0.00e+00	73	32	0	428867584	48	6767
2026-01-27 14:45:00.19	22.86	27.22	-39.0	-40.0	22.6	0.00e+00	92	32	0	436207616	50	6421
2026-01-27 14:45:04.23	22.93	27.92	-39.3	-40.3	22.4	0.00e+00	8	33	0	443547648	50	6679
2026-01-27 14:45:08.26	22.99	28.64	-39.9	-40.9	21.8	0.00e+00	0	33	0	450887680	52	6382
2026-01-27 14:45:12.29	23.06	29.38	-40.1	-41.2	21.4	0.00e+00	0	33	0	459276288	52	6611
2026-01-27 14:45:16.33	23.13	30.14	-40.6	-41.7	21.1	0.00e+00	92	33	0	466616320	52	7000
2026-01-27 14:45:20.37	23.20	30.92	-40.5	-41.6	21.3	0.00e+00	0	32	0	473956352	52	6896
2026-01-27 14:45:24.41	23.28	31.72	-40.5	-41.6	21.3	0.00e+00	13	32	0	481296384	52	6922
2026-01-27 14:45:28.45	23.35	32.55	-40.2	-41.3	21.6	0.00e+00	0	32	0	488636416	52	6691
2026-01-27 14:45:32.49	23.43	33.40	-40.1	-41.2	21.7	0.00e+00	92	32	0	497025024	52	6579
2026-01-27 14:45:36.52	23.52	34.27	-39.1	-40.1	22.4	0.00e+00	0	33	0	504365056	52	5827
2026-01-27 14:45:40.56	23.61	35.16	-38.3	-39.2	23.4	0.00e+00	0	32	0	511705088	50	5880
2026-01-27 14:45:44.60	23.70	36.09	-37.9	-38.7	23.8	0.00e+00	69	33	0	519045120	50	5563
2026-01-27 14:45:48.64	23.80	37.04	-37.4	-38.3	24.2	0.00e+00	92	33	0	526385152	48	5910
2026-01-27 14:45:52.67	23.90	38.02	-37.1	-37.9	24.4	0.00e+00	7	33	0	534773760	48	5657
2026-01-27 14:45:56.71	24.01	39.03	-37.1	-37.9	24.6	0.00e+00	0	32	0	542113792	48	5691
2026-01-27 14:46:00.74	24.12	40.07	-36.8	-37.6	24.9	0.00e+00	0	32	0	549453824	48	5494
2026-01-27 14:46:04.79	24.24	41.14	-37.0	-37.9	24.5	0.00e+00	92	33	0	556793856	46	6328
2026-01-27 14:46:08.82	24.37	42.24	-38.3	-39.2	23.5	0.00e+00	74	33	0	565182464	48	6561
2026-01-27 14:46:12.86	24.50	43.38	-37.9	-38.7	23.9	0.00e+00	6	32	0	572522496	48	6220
2026-01-27 14:46:16.90	24.65	44.55	-38.2	-39.1	23.5	0.00e+00	0	33	0	579862528	48	6528
2026-01-27 14:46:20.94	24.80	45.76	-39.8	-40.8	21.9	0.00e+00	90	32	0	587202560	52	6305
2026-01-27 14:46:24.97	24.96	47.01	-40.3	-41.5	21.4	0.00e+00	76	33	0	594542592	52	6770
2026-01-27 14:46:29.01	25.14	48.29	-41.2	-42.5	20.5	0.00e+00	11	33	0	602931200	54	6779
2026-01-27 14:46:33.04	25.33	49.61	-40.4	-41.5	21.4	0.00e+00	90	32	0	610271232	54	6088
2026-01-27 14:46:37.08	25.54	50.98	-38.3	-39.2	23.5	0.00e+00	28	32	0	617611264	50	5850
2026-01-27 14:46:41.12	25.77	52.38	-36.4	-37.2	25.3	0.00e+00	0	33	0	624951296	46	5839
2026-01-27 14:46:45.16	26.02	53.82	-36.2	-37.0	25.4	0.00e+00	76	33	0	633339904	46	5727
2026-01-27 14:46:49.19	26.29	55.31	-36.7	-37.4	24.9	0.00e+00	92	33	0	640679936	46	6027
2026-01-27 14:46:53.23	26.59	56.84	-36.4	-37.2	25.3	0.00e+00	77	33	0	648019968	46	5843
2026-01-27 14:46:57.27	26.93	58.41	-38.1	-39.0	23.7	0.00e+00	12	32	0	655360000	48	6434
2026-01-27 14:47:01.31	27.30	60.02	-36.0	-36.8	25.7	0.00e+00	0	32	0	662700032	46	5567
2026-01-27 14:47:05.34	27.73	61.67	-35.1	-35.8	26.2	0.00e+00	92	32	0	671088640	44	5625
2026-01-27 14:47:09.38	28.21	63.36	-34.9	-35.6	25.6	0.00e+00	78	32	0	678428672	42	6171
2026-01-27 14:47:13.42	28.77	65.10	-37.4	-38.2	24.4	0.00e+00	76	32	0	685768704	46	6587
2026-01-27 14:47:17.45	29.42	66.86	-38.6	-39.6	23.2	0.00e+00	0	33	0	693108736	50	6108
2026-01-27 14:47:21.49	30.19	68.67	-38.9	-39.9	22.8	0.00e+00	92	32	0	700448768	50	6339
2026-01-27 14:47:25.52	31.10	70.51	-36.8	-37.6	24.9	0.00e+00	0	32	0	708837376	46	6118
2026-01-27 14:47:29.56	32.23	72.38	-38.7	-39.6	23.1	0.00e+00	0	32	0	716177408	50	6159
2026-01-27 14:47:33.60	33.64	74.27	-40.0	-41.1	21.7	0.00e+00	67	32	0	723517440	52	6527
2026-01-27 14:47:37.63	35.44	76.18	-38.6	-39.5	23.1	0.00e+00	92	32	0	730857472	50	6073
2026-01-27 14:47:41.67	37.84	78.10	-38.2	-39.1	23.7	0.00e+00	6	32	0	739246080	48	6488
2026-01-27 14:47:45.71	41.20	80.01	-36.3	-37.1	25.3	0.00e+00	5	32	0	746586112	46	5784
2026-01-27 14:47:49.75	46.15	81.90	-42.3	-43.9	19.1	0.00e+00	0	32	0	753926144	56	7161
2026-01-27 14:47:53.78	54.02	83.70	-38.4	-39.3	23.4	0.00e+00	92	32	0	761266176	50	5932
2026-01-27 14:47:57.82	67.75	85.30	-36.9	-37.7	24.9	0.00e+00	9	32	0	768606208	46	6245
2026-01-27 14:48:01.86	92.39	86.40	-38.1	-39.0	23.4	0.00e+00	0	32	0	776994816	48	6420
2026-01-27 14:48:05.89	126.24	86.49	-38.0	-38.9	23.8	0.00e+00	0	33	0	784334848	50	5642
2026-01-27 14:48:09.93	152.68	85.49	-37.4	-38.2	24.4	0.00e+00	1	33	0	791674880	48	5877
2026-01-27 14:48:13.96	167.58	83.94	-39.0	-40.0	22.8	0.00e+00	77	32	0	799014912	50	6427
2026-01-27 14:48:17.99	176.04	82.16	-41.0	-42.3	21.0	0.00e+00	78	32	0	807403520	56	5916
2026-01-27 14:48:22.03	181.31	80.28	-37.7	-38.6	24.0	0.00e+00	77	33	0	814743552	50	5467
2026-01-27 14:48:26.07	184.83	78.36	-39.4	-40.4	22.3	0.00e+00	56	33	0	822083584	50	6751
2026-01-27 14:48:30.11	187.35	76.44	-42.3	-43.8	19.4	0.00e+00	0	33	0	829423616	58	6306
2026-01-27 14:48:34.14	189.22	74.53	-42.5	-44.1	19.1	0.00e+00	0	32	0	836763648	58	6490
2026-01-27 14:48:38.18	190.67	72.63	-38.3	-39.3	23.6	0.00e+00	92	32	0	845152256	50	5909
2026-01-27 14:48:42.22	191.83	70.75	-37.3	-38.1	24.2	0.00e+00	5	32	0	852492288	46	6535
2026-01-27 14:48:46.26	192.78	68.91	-39.8	-40.9	21.9	0.00e+00	4	32	0	859832320	50	7104
2026-01-27 14:48:50.30	193.56	67.09	-40.8	-42.0	21.3	0.00e+00	0	33	0	867172352	56	5742
2026-01-27 14:48:54.34	194.23	65.31	-40.7	-41.9	21.2	0.00e+00	91	32	0	875560960	54	6345
2026-01-27 14:48:58.38	194.80	63.57	-36.5	-37.3	25.1	0.00e+00	0	32	0	882900992	46	5955
2026-01-27 14:49:02.41	195.29	61.87	-34.7	-35.4	26.6	0.00e+00	70	33	0	890241024	44	5358
2026-01-27 14:49:06.45	195.72	60.20	-37.7	-38.6	24.0	0.00e+00	2	33	0	897581056	48	6132
2026-01-27 14:49:10.49	196.10	58.58	-40.0	-41.1	21.8	0.00e+00	91	33	0	904921088	52	6476
2026-01-27 14:49:14.53	196.44	57.00	-41.1	-42.4	20.9	0.00e+00	0	33	0	913309696	56	5996
2026-01-27 14:49:18.57	196.75	55.46	-37.5	-38.3	24.4	0.00e+00	73	33	0	920649728	48	5959
2026-01-27 14:49:22.61	197.03	53.97	-37.4	-38.3	24.3	0.00e+00	0	32	0	927989760	48	5938
2026-01-27 14:49:26.65	197.28	52.51	-36.6	-37.4	24.9	0.00e+00	92	33	0	935329792	46	5978
2026-01-27 14:49:30.68	197.50	51.10	-39.7	-40.8	22.1	0.00e+00	7	33	0	943718400	50	7015
2026-01-27 14:49:34.72	197.71	49.73	-40.1	-41.2	21.8	0.00e+00	0	33	0	951058432	52	6552
2026-01-27 14:49:38.75	197.91	48.40	-44.7	-47.4	15.7	7.00e-07	0	32	0	958398464	60	8490
2026-01-27 14:49:42.79	198.09	47.11	-37.8	-38.7	24.1	0.00e+00	92	33	0	965738496	50	5521
2026-01-27 14:49:46.83	198.25	45.85	-39.6	-40.7	22.2	0.00e+00	73	32	0	973078528	50	6944
2026-01-27 14:49:50.87	198.41	44.64	-38.0	-38.9	23.9	0.00e+00	7	32	0	981467136	50	5683
2026-01-27 14:49:54.91	198.55	43.45	-35.8	-36.5	25.8	0.00e+00	92	33	0	988807168	46	5421
2026-01-27 14:49:58.94	198.68	42.31	-39.1	-40.1	22.6	0.00e+00	67	32	0	996147200	50	6518
2026-01-27 14:50:02.98	198.81	41.20	-39.0	-40.0	23.0	0.00e+00	0	32	0	1003487232	52	5704
2026-01-27 14:50:07.02	198.93	40.12	-37.9	-38.7	24.0	0.00e+00	13	32	0	1011875840	48	6236
2026-01-27 14:50:11.06	199.04	39.07	-41.4	-42.7	20.2	0.00e+00	92	33	0	1019215872	54	6989
2026-01-27 14:50:15.10	199.15	38.06	-43.5	-45.5	17.7	0.00e+00	3	32	0	1026555904	58	7659
2026-01-27 14:50:19.14	199.25	37.07	-40.8	-42.0	21.0	0.00e+00	0	33	0	1033895936	56	5742
2026-01-27 14:50:23.17	199.35	36.11	-40.1	-41.2	21.8	0.00e+00	72	32	0	1041235968	54	5829
2026-01-27 14:50:27.21	199.44	35.18	-41.5	-42.9	20.2	0.00e+00	92	33	0	1049624576	54	7102
2026-01-27 14:50:31.25	199.53	34.28	-44.6	-47.0	16.1	0.00e+00	17	32	0	1056964608	60	8094
2026-01-27 14:50:35.28	199.61	33.40	-43.2	-45.0	18.2	0.00e+00	2	32	0	1064304640	60	6459
2026-01-27 14:50:39.32	199.69	32.55	-40.9	-42.1	21.0	0.00e+00	0	32	0	1071644672	56	5812
2026-01-27 14:50:43.36	199.77	31.72	-40.1	-41.2	21.7	0.00e+00	92	32	0	1080033280	54	5869
2026-01-27 14:50:47.39	199.84	30.91	-41.2	-42.5	20.4	0.00e+00	9	33	0	1087373312	54	6833
2026-01-27 14:50:51.43	199.91	30.12	-42.3	-43.8	19.3	0.00e+00	0	33	0	1094713344	56	7059
2026-01-27 14:50:55.46	199.98	29.36	-41.9	-43.4	19.7	0.00e+00	10	32	0	1102053376	56	6724
2026-01-27 14:50:59.50	200.05	28.62	-41.0	-42.3	20.8	0.00e+00	92	32	0	1109393408	56	5947
2026-01-27 14:51:03.53	200.11	27.89	-39.6	-40.6	22.3	0.00e+00	2	32	0	1117782016	52	6168
2026-01-27 14:51:07.57	200.17	27.18	-38.8	-39.8	23.1	0.00e+00	0	32	0	1125122048	52	5575
2026-01-27 14:51:11.61	200.23	26.50	-38.6	-39.5	23.3	0.00e+00	38	33	0	1132462080	50	6080
2026-01-27 14:51:15.65	200.29	25.82	-38.4	-39.4	23.3	0.00e+00	51	32	0	1139802112	50	5986
2026-01-27 14:51:19.69	200.35	25.17	-38.4	-39.4	23.3	0.00e+00	7	32	0	1147142144	50	5987
2026-01-27 14:51:23.71	200.40	24.53	-38.2	-39.1	23.5	0.00e+00	6	32	0	1155530752	50	5795
2026-01-27 14:51:27.76	200.45	23.90	-37.7	-38.6	23.9	0.00e+00	6	32	0	1162870784	48	6124
2026-01-27 14:51:31.80	200.50	23.29	-37.2	-38.0	24.1	0.00e+00	22	32	0	1170210816	48	5710
2026-01-27 14:51:35.84	200.55	22.70	-36.8	-37.6	24.8	0.00e+00	63	32	0	1177550848	48	5486
2026-01-27 14:51:39.88	200.60	22.11	-36.8	-37.6	24.8	0.00e+00	20	32	0	1185939456	46	6161
2026-01-27 14:51:43.91	200.65	21.55	-37.1	-37.9	24.6	0.00e+00	90	32	0	1193279488	46	6331
2026-01-27 14:51:47.95	200.69	20.99	-37.2	-38.0	24.4	0.00e+00	68	32	0	1200619520	46	6428
2026-01-27 14:51:51.98	200.74	20.45	-37.3	-38.2	24.3	0.00e+00	0	32	0	1207959552	46	6563
2026-01-27 14:51:56.02	200.78	19.91	-37.7	-38.6	24.0	0.00e+00	68	32	0	1215299584	46	6853
2026-01-27 14:52:00.06	200.83	19.39	-37.8	-38.7	23.8	0.00e+00	90	32	0	1223688192	48	6187
2026-01-27 14:52:04.09	200.87	18.88	-38.1	-39.1	23.5	0.00e+00	0	32	0	1231028224	48	6469
2026-01-27 14:52:08.13	200.91	18.38	-38.0	-38.9	23.6	0.00e+00	2	32	0	1238368256	48	6344
2026-01-27 14:52:12.17	200.95	17.89	-38.1	-39.0	23.6	0.00e+00	67	32	0	1245708288	48	6417
2026-01-27 14:52:16.20	200.99	17.41	-38.3	-39.2	23.2	0.00e+00	92	32	0	1254096896	48	6612
2026-01-27 14:52:20.24	201.02	16.93	-38.4	-39.3	23.2	0.00e+00	14	32	0	1261436928	48	6692
2026-01-27 14:52:24.28	201.06	16.47	-38.6	-39.5	23.0	0.00e+00	14	32	0	1268776960	48	6827
2026-01-27 14:52:28.32	201.10	16.02	-38.6	-39.6	22.9	0.00e+00	0	33	0	1276116992	50	6126
2026-01-27 14:52:32.36	201.14	15.57	-38.7	-39.6	23.0	0.00e+00	92	32	0	1283457024	50	6160
2026-01-27 14:52:36.40	201.17	15.13	-38.7	-39.7	22.9	0.00e+00	62	32	0	1291845632	50	6178
2026-01-27 14:52:40.44	201.21	14.70	-38.7	-39.6	22.9	0.00e+00	61	33	0	1299185664	50	6160
2026-01-27 14:52:44.47	201.24	14.28	-38.6	-39.6	23.0	0.00e+00	2	32	0	1306525696	50	6105
2026-01-27 14:52:48.51	201.27	13.86	-38.8	-39.7	22.9	0.00e+00	92	32	0	1313865728	50	6241
2026-01-27 14:52:52.55	201.31	13.45	-38.9	-39.9	22.6	0.00e+00	64	32	0	1322254336	50	6328
2026-01-27 14:52:56.58	201.34	13.05	-39.1	-40.1	22.5	0.00e+00	65	32	0	1329594368	50	6495
2026-01-27 14:53:00.61	201.37	12.66	-39.4	-40.4	22.2	0.00e+00	58	32	0	1336934400	50	6749
2026-01-27 14:53:04.65	201.40	12.27	-39.6	-40.7	21.9	0.00e+00	90	32	0	1344274432	50	6934
2026-01-27 14:53:08.69	201.43	11.89	-39.8	-40.9	21.8	0.00e+00	17	33	0	1351614464	52	6333
2026-01-27 14:53:12.72	201.46	11.51	-39.9	-41.0	21.6	0.00e+00	5	33	0	1360003072	52	6409
2026-01-27 14:53:16.76	201.49	11.14	-39.9	-41.0	21.5	0.00e+00	5	32	0	1367343104	52	6423
2026-01-27 14:53:20.79	201.52	10.77	-39.8	-40.9	21.6	0.00e+00	92	33	0	1374683136	52	6387
2026-01-27 14:53:24.83	201.55	10.41	-39.8	-40.9	21.6	0.00e+00	63	32	0	1382023168	52	6388
2026-01-27 14:53:28.86	201.58	10.06	-39.8	-40.9	21.6	0.00e+00	29	33	0	1389363200	52	6340
2026-01-27 14:53:32.90	201.61	9.71	-39.7	-40.8	21.7	0.00e+00	91	32	0	1397751808	52	6304
2026-01-27 14:53:36.94	201.64	9.36	-39.7	-40.8	21.6	0.00e+00	92	32	0	1405091840	52	6304
2026-01-27 14:53:40.97	201.67	9.02	-39.7	-40.8	21.7	0.00e+00	63	32	0	1412431872	52	6275
2026-01-27 14:53:45.01	201.69	8.69	-39.5	-40.6	21.8	0.00e+00	62	33	0	1419771904	52	6152
2026-01-27 14:53:49.05	201.72	8.35	-39.6	-40.7	21.7	0.00e+00	91	32	0	1428160512	52	6238
2026-01-27 14:53:53.08	201.75	8.03	-39.7	-40.8	21.4	0.00e+00	0	33	0	1435500544	52	6284
2026-01-27 14:53:57.13	201.77	7.70	-39.6	-40.7	21.4	0.00e+00	2	32	0	1442840576	52	6187
2026-01-27 14:54:01.17	201.80	7.38	-39.7	-40.8	21.5	0.00e+00	56	32	0	1450180608	52	6269
2026-01-27 14:54:05.20	201.83	7.07	-39.7	-40.8	21.5	0.00e+00	92	32	0	1457520640	52	6274
2026-01-27 14:54:09.23	201.85	6.76	-39.9	-41.1	21.1	0.00e+00	21	32	0	1465909248	52	6491
2026-01-27 14:54:13.27	201.88	6.45	-39.8	-40.9	21.3	0.00e+00	2	32	0	1473249280	52	6385
2026-01-27 14:54:17.31	201.90	6.15	-39.8	-40.9	21.3	0.00e+00	2	32	0	1480589312	52	6345
2026-01-27 14:54:21.35	201.93	5.85	-40.0	-41.2	21.0	0.00e+00	92	33	0	1487929344	52	6586
2026-01-27 14:54:25.38	201.95	5.55	-40.3	-41.5	20.8	0.00e+00	0	33	0	1495269376	52	6804
2026-01-27 14:54:29.42	201.98	5.26	-40.4	-41.6	20.5	0.00e+00	27	33	0	1503657984	52	6923
2026-01-27 14:54:33.46	202.00	4.97	-40.2	-41.5	20.6	0.00e+00	0	32	0	1510998016	52	6781
2026-01-27 14:54:37.50	202.03	4.68	-40.4	-41.7	20.4	0.00e+00	92	33	0	1518338048	52	6994
2026-01-27 14:54:41.53	202.05	4.39	-40.5	-41.8	20.2	0.00e+00	0	32	0	1525678080	52	7070
2026-01-27 14:54:45.56	202.07	4.11	-41.1	-42.6	19.4	0.00e+00	0	33	0	1534066688	54	6896
2026-01-27 14:54:49.60	202.10	3.84	-40.8	-42.2	19.8	0.00e+00	0	33	0	1541406720	54	6556
2026-01-27 14:54:53.64	202.12	3.56	-41.2	-42.7	19.2	0.00e+00	92	33	0	1548746752	54	6973
2026-01-27 14:54:57.68	202.14	3.29	-41.4	-43.0	18.8	0.00e+00	24	33	0	1556086784	54	7233
2026-01-27 14:55:01.71	202.16	3.02	-47.8	-61.9	3.6	1.17e-04	0	32	104	1563426816	60	44873
2026-01-27 14:55:05.76	202.19	2.75	-48.6	-64.0	3.6	1.51e+00	0	33	104	1563426816	60	57244
2026-01-27 14:55:09.79	202.21	2.48	-49.0	-64.2	3.6	1.51e+00	0	33	104	1563426816	60	58837
2026-01-27 14:55:13.83	202.23	2.22	-48.3	-64.2	3.6	1.51e+00	0	33	104	1563426816	60	58812
2026-01-27 14:55:17.88	202.25	1.96	-48.8	-64.2	3.6	1.51e+00	0	33	104	1563426816	60	58496
2026-01-27 14:55:21.92	202.28	1.70	-48.9	-64.1	3.6	1.51e+00	0	33	104	1563426816	60	57937
2026-01-27 14:55:25.95	202.30	1.45	-48.9	-64.1	3.6	1.51e+00	0	33	104	1563426816	60	58170
2026-01-27 14:55:29.99	202.32	1.19	-49.0	-64.1	3.6	1.51e+00	0	33	104	1563426816	60	58148
2026-01-27 14:55:34.04	202.34	0.94	-49.0	-64.1	3.6	1.51e+00	0	33	104	1563426816	60	58012
2026-01-27 14:55:38.08	202.36	0.69	-49.0	-64.2	3.6	1.51e+00	0	33	104	1563426816	60	58341
2026-01-27 14:55:42.12	202.38	0.45	-48.9	-64.1	3.6	1.51e+00	0	33	104	1563426816	60	58110
2026-01-27 14:55:46.15	202.40	0.20	-48.9	-64.1	3.6	1.51e+00	0	33	104	1563426816	60	57846
2026-01-27 14:55:50.19	202.42	-0.04	-48.9	-64.1	3.6	1.51e+00	0	33	104	1563426816	60	57961

#Closed at: 2026-01-27 14:55:51
#Recorded file [1563 MB]: D:/lorett/data/35029_260128_024017.dat