passes_logs/2026/01/27/R4.6S_Anadyr/R4.6S_Anadyr__20260127_013650_AQUA_rec.log

#Pass ID: 20260127_013650_AQUA
#Satellite: AQUA
#Configuration: AQUA
#almurnet v.1.7.20251203
#Start time: 2026-01-27 01:36:52

#Version: 2.2.20231116
#Station: R4.6S_Anadyr
#Location: 177.4865 lon 64.73178 lat
#TLE: 1 27424U 02022A   26026.53345137  .00001758  00000+0  36150-3 0  9990
#TLE: 2 27424  98.4100 353.1559 0001880  64.8012  49.4917 14.61862630262575

#Time	Az	El	Level	Level2	SNR	BER	BlckErr	Temp	State	Recorded	gain1	gain2
2026-01-27 01:36:52.75	147.03	0.15	-49.1	-64.0	3.5	1.51e+00	0	26	0	0	60	57434
2026-01-27 01:36:56.77	146.99	0.40	-49.4	-67.2	3.5	3.02e+01	0	27	104	0	60	88604
2026-01-27 01:37:00.80	146.95	0.66	-49.5	-67.3	3.5	3.02e+01	0	27	104	0	60	89658
2026-01-27 01:37:04.85	146.91	0.92	-49.4	-67.3	3.5	3.02e+01	0	27	104	0	60	89098
2026-01-27 01:37:08.88	146.86	1.17	-49.2	-67.0	3.5	3.02e+01	0	28	104	0	60	86519
2026-01-27 01:37:12.92	146.82	1.43	-48.9	-66.7	3.5	3.02e+01	0	28	104	0	60	83431
2026-01-27 01:37:16.96	146.77	1.70	-47.7	-65.0	3.5	3.02e+01	0	28	104	0	60	68662
2026-01-27 01:37:21.00	146.72	1.97	-47.7	-65.1	3.5	3.02e+01	0	28	104	0	60	69293
2026-01-27 01:37:25.04	146.68	2.23	-47.7	-65.0	3.5	3.02e+01	0	28	104	0	60	68755
2026-01-27 01:37:29.08	146.63	2.51	-47.7	-65.4	3.5	3.02e+01	0	28	104	0	60	71388
2026-01-27 01:37:33.11	146.57	2.78	-47.7	-65.1	3.5	3.02e+01	0	28	104	0	60	69253
2026-01-27 01:37:37.16	146.52	3.06	-47.6	-64.6	3.5	3.02e+01	0	28	104	0	60	65209
2026-01-27 01:37:41.20	146.47	3.34	-47.5	-60.6	5.2	3.02e+01	24	28	104	0	60	41394
2026-01-27 01:37:45.24	146.41	3.63	-44.6	-48.5	16.8	3.02e+01	0	28	0	6815744	60	10184
2026-01-27 01:37:49.28	146.36	3.91	-40.5	-42.4	22.7	3.02e+01	0	28	0	14155776	56	6406
2026-01-27 01:37:53.32	146.30	4.21	-44.9	-49.3	16.4	3.02e+01	0	28	0	17825792	60	11191
2026-01-27 01:37:57.36	146.24	4.50	-39.6	-41.4	23.9	3.02e+01	0	28	0	25690112	54	6353
2026-01-27 01:38:01.39	146.18	4.80	-38.3	-39.8	25.5	3.02e+01	0	28	0	33030144	52	5953
2026-01-27 01:38:05.43	146.11	5.10	-38.5	-40.1	25.4	3.02e+01	0	28	0	40894464	50	6899
2026-01-27 01:38:09.47	146.05	5.41	-37.6	-39.0	26.4	3.02e+01	0	28	0	48234496	50	6110
2026-01-27 01:38:13.51	145.98	5.72	-38.0	-39.5	26.0	3.02e+01	0	28	0	56098816	50	6462
2026-01-27 01:38:17.55	145.92	6.03	-37.0	-38.4	27.1	3.02e+01	0	28	0	63438848	50	5661
2026-01-27 01:38:21.59	145.84	6.35	-37.3	-38.7	26.7	3.02e+01	0	28	0	70778880	48	6584
2026-01-27 01:38:25.63	145.77	6.67	-37.1	-38.4	27.0	3.02e+01	0	28	0	78643200	48	6400
2026-01-27 01:38:29.67	145.70	7.00	-37.0	-38.4	27.1	3.02e+01	0	28	0	85983232	48	6373
2026-01-27 01:38:33.71	145.62	7.33	-36.9	-38.2	27.2	3.02e+01	0	28	0	93847552	48	6277
2026-01-27 01:38:37.74	145.54	7.67	-36.6	-37.9	27.6	3.02e+01	0	28	0	101187584	48	6032
2026-01-27 01:38:41.78	145.46	8.01	-36.5	-37.8	27.7	3.02e+01	0	28	0	109051904	48	5956
2026-01-27 01:38:45.82	145.38	8.35	-36.2	-37.5	28.0	3.02e+01	0	28	0	116391936	48	5766
2026-01-27 01:38:49.86	145.29	8.71	-36.2	-37.5	28.1	3.02e+01	0	28	0	124256256	48	5737
2026-01-27 01:38:53.90	145.20	9.06	-36.2	-37.5	28.1	3.02e+01	0	28	0	131596288	46	6432
2026-01-27 01:38:57.93	145.11	9.43	-35.9	-37.2	28.3	3.02e+01	0	28	0	138936320	46	6228
2026-01-27 01:39:01.97	145.02	9.80	-36.0	-37.3	28.3	3.02e+01	0	28	0	146800640	46	6302
2026-01-27 01:39:06.01	144.92	10.17	-35.8	-37.0	28.6	3.02e+01	0	28	0	154140672	46	6112
2026-01-27 01:39:10.06	144.82	10.55	-35.7	-36.9	28.5	3.02e+01	0	28	0	162004992	46	6056
2026-01-27 01:39:14.09	144.72	10.94	-35.8	-37.0	28.5	3.02e+01	0	28	0	169345024	46	6104
2026-01-27 01:39:18.13	144.61	11.34	-39.0	-49.5	3.6	3.02e+01	0	28	104	171442176	52	18183
2026-01-27 01:39:22.17	144.50	11.74	-45.3	-57.4	3.5	3.02e+01	0	28	104	171442176	60	28637
2026-01-27 01:39:26.21	144.38	12.15	-39.9	-50.4	3.4	3.02e+01	0	28	104	171442176	54	17954
2026-01-27 01:39:30.25	144.27	12.57	-46.1	-58.7	3.7	3.02e+01	0	28	104	171442176	60	33051
2026-01-27 01:39:34.29	144.14	12.99	-39.1	-49.6	3.4	3.02e+01	0	28	104	171442176	56	14576
2026-01-27 01:39:38.32	144.02	13.42	-46.2	-58.7	3.5	3.02e+01	0	28	104	171442176	60	33219
2026-01-27 01:39:42.36	143.89	13.87	-40.3	-50.9	3.5	3.02e+01	0	28	104	171442176	54	18963
2026-01-27 01:39:46.40	143.75	14.32	-42.0	-52.9	3.5	3.02e+01	0	28	104	171442176	60	16910
2026-01-27 01:39:50.44	143.61	14.78	-35.2	-45.4	3.5	3.02e+01	0	28	104	171442176	46	16014
2026-01-27 01:39:54.48	143.46	15.25	-43.2	-54.3	3.5	3.02e+01	0	28	104	171442176	60	19981
2026-01-27 01:39:58.52	143.31	15.73	-35.5	-45.7	3.5	3.02e+01	0	28	104	171442176	48	14813
2026-01-27 01:40:02.55	143.16	16.22	-38.8	-49.3	3.3	3.02e+01	0	28	104	171442176	56	14065
2026-01-27 01:40:06.59	142.99	16.72	-35.2	-45.4	3.6	3.02e+01	0	28	104	171442176	46	15951
2026-01-27 01:40:10.63	142.82	17.23	-43.4	-54.5	3.5	3.02e+01	0	28	104	171442176	60	20493
2026-01-27 01:40:14.67	142.65	17.76	-41.3	-52.0	3.6	3.02e+01	0	28	104	171442176	54	21716
2026-01-27 01:40:18.71	142.46	18.30	-38.3	-48.7	3.6	3.02e+01	0	28	104	171442176	52	16636
2026-01-27 01:40:22.75	142.27	18.85	-42.8	-53.6	3.5	3.02e+01	0	28	104	171442176	56	23235
2026-01-27 01:40:26.79	142.07	19.41	-37.4	-47.7	3.5	3.02e+01	0	28	104	171442176	50	16692
2026-01-27 01:40:30.83	141.87	19.99	-37.8	-48.1	3.6	3.02e+01	0	28	104	171442176	46	21919
2026-01-27 01:40:34.87	141.65	20.58	-44.2	-55.5	3.5	3.02e+01	0	28	104	171442176	60	23027
2026-01-27 01:40:38.90	141.42	21.18	-48.9	-65.9	3.5	3.02e+01	0	28	104	171442176	60	75671
2026-01-27 01:40:42.94	141.19	21.81	-38.7	-49.1	3.4	3.02e+01	0	28	104	171442176	54	15478
2026-01-27 01:40:46.98	140.94	22.45	-39.4	-49.8	3.5	3.02e+01	0	28	104	171442176	50	21202
2026-01-27 01:40:51.02	140.68	23.10	-37.4	-47.7	3.5	3.02e+01	0	28	104	171442176	50	16640
2026-01-27 01:40:55.06	140.41	23.78	-40.4	-51.1	3.6	3.02e+01	0	28	104	171442176	52	21787
2026-01-27 01:40:59.10	140.13	24.47	-36.9	-47.1	3.6	3.02e+01	0	28	104	171442176	50	15423
2026-01-27 01:41:03.14	139.83	25.18	-40.2	-50.7	3.6	3.02e+01	0	28	104	171442176	54	18669
2026-01-27 01:41:07.18	139.51	25.92	-42.5	-53.4	3.5	3.02e+01	0	28	104	171442176	60	18053
2026-01-27 01:41:11.21	139.18	26.67	-42.9	-53.7	3.6	3.02e+01	0	28	104	171442176	60	18554
2026-01-27 01:41:15.26	138.84	27.45	-36.8	-47.1	3.6	3.02e+01	0	29	104	171442176	48	17309
2026-01-27 01:41:19.29	138.47	28.25	-37.6	-47.9	3.5	3.02e+01	0	29	104	171442176	52	15137
2026-01-27 01:41:23.33	138.08	29.07	-36.3	-46.5	3.5	3.02e+01	0	28	104	171442176	48	16183
2026-01-27 01:41:27.36	137.68	29.92	-36.7	-46.9	3.6	3.02e+01	0	28	104	171442176	52	13488
2026-01-27 01:41:31.40	137.24	30.79	-41.7	-52.4	3.5	3.02e+01	0	29	104	171442176	58	17946
2026-01-27 01:41:35.44	136.78	31.70	-37.1	-47.3	3.4	3.02e+01	0	28	104	171442176	54	12634
2026-01-27 01:41:39.48	136.30	32.63	-37.4	-47.6	3.5	3.02e+01	0	28	104	171442176	50	16496
2026-01-27 01:41:43.52	135.78	33.59	-35.1	-45.3	3.5	3.02e+01	0	28	104	171442176	46	15776
2026-01-27 01:41:47.56	135.23	34.58	-36.9	-47.1	3.5	3.02e+01	0	29	104	171442176	48	17400
2026-01-27 01:41:51.59	134.64	35.60	-38.4	-48.7	3.5	3.02e+01	0	29	104	171442176	50	18579
2026-01-27 01:41:55.63	134.01	36.65	-37.9	-48.1	3.5	3.02e+01	0	28	104	171442176	50	17352
2026-01-27 01:41:59.67	133.34	37.73	-41.6	-52.3	3.5	3.02e+01	0	29	104	171442176	48	31487
2026-01-27 01:42:03.71	132.62	38.85	-39.1	-49.5	3.5	3.02e+01	0	29	104	171442176	54	16278
2026-01-27 01:42:07.75	131.84	40.01	-45.2	-56.8	3.5	3.02e+01	0	29	104	171442176	58	29917
2026-01-27 01:42:11.78	131.01	41.19	-38.6	-49.1	3.5	3.02e+01	0	29	104	171442176	52	17307
2026-01-27 01:42:15.82	130.11	42.42	-48.9	-64.9	3.5	3.02e+01	0	29	104	171442176	60	67557
2026-01-27 01:42:19.86	129.13	43.67	-37.6	-47.9	3.6	3.02e+01	0	29	104	171442176	50	16999
2026-01-27 01:42:23.90	128.07	44.96	-48.9	-64.7	3.5	3.02e+01	0	29	104	171442176	60	66074
2026-01-27 01:42:27.93	126.92	46.29	-39.0	-49.4	3.5	3.02e+01	0	29	104	171442176	54	15980
2026-01-27 01:42:31.97	125.66	47.64	-49.3	-66.4	3.5	3.02e+01	0	29	104	171442176	60	80790
2026-01-27 01:42:36.01	124.28	49.03	-37.1	-47.3	3.6	3.02e+01	0	29	104	171442176	50	15949
2026-01-27 01:42:40.05	122.77	50.44	-48.9	-64.7	3.5	3.02e+01	0	29	104	171442176	60	66298
2026-01-27 01:42:44.09	121.11	51.87	-35.8	-46.0	3.5	3.02e+01	0	29	104	171442176	46	17156
2026-01-27 01:42:48.13	119.27	53.33	-49.0	-65.1	3.5	3.02e+01	0	29	104	171442176	60	69526
2026-01-27 01:42:52.17	117.24	54.79	-41.4	-52.1	3.5	3.02e+01	0	29	104	171442176	58	17349
2026-01-27 01:42:56.21	114.99	56.25	-48.9	-64.6	3.5	3.02e+01	0	29	104	171442176	60	65035
2026-01-27 01:43:00.24	112.49	57.71	-37.3	-47.5	3.5	3.02e+01	0	29	104	171442176	50	16248
2026-01-27 01:43:04.28	109.69	59.14	-49.3	-66.4	3.5	3.02e+01	0	29	104	171442176	60	80128
2026-01-27 01:43:08.33	106.57	60.55	-37.4	-47.5	3.5	3.02e+01	0	29	104	171442176	50	16256
2026-01-27 01:43:12.37	103.09	61.89	-49.0	-65.0	3.5	3.02e+01	0	29	104	171442176	60	68477
2026-01-27 01:43:16.41	99.22	63.17	-40.8	-51.3	3.5	3.02e+01	0	29	104	171442176	56	17734
2026-01-27 01:43:20.45	94.92	64.34	-49.3	-66.7	3.5	3.02e+01	0	29	104	171442176	60	83355
2026-01-27 01:43:24.49	90.19	65.39	-39.6	-50.2	3.5	3.02e+01	0	29	104	171442176	54	17617
2026-01-27 01:43:28.52	85.03	66.28	-49.1	-65.7	3.5	3.02e+01	0	29	104	171442176	60	74310
2026-01-27 01:43:32.56	79.46	66.99	-40.9	-51.4	3.5	3.02e+01	0	29	104	171442176	56	17908
2026-01-27 01:43:36.60	73.56	67.50	-49.2	-65.9	3.5	3.02e+01	0	29	104	171442176	60	76236
2026-01-27 01:43:40.63	67.44	67.78	-43.3	-54.3	3.5	3.02e+01	0	29	104	171442176	60	19884
2026-01-27 01:43:44.67	61.21	67.82	-49.2	-66.3	3.5	3.02e+01	0	29	104	171442176	60	79299
2026-01-27 01:43:48.71	55.03	67.62	-42.1	-52.9	3.5	3.02e+01	0	29	104	171442176	58	19122
2026-01-27 01:43:52.75	49.04	67.19	-49.1	-65.8	3.5	3.02e+01	0	29	104	171442176	60	75261
2026-01-27 01:43:56.79	43.35	66.54	-43.4	-54.4	3.5	3.02e+01	0	29	104	171442176	60	20292
2026-01-27 01:44:00.83	38.05	65.70	-49.2	-66.6	3.5	3.02e+01	0	29	104	171442176	60	81941
2026-01-27 01:44:04.87	33.18	64.71	-40.4	-50.7	3.5	3.02e+01	0	29	104	171442176	56	16620
2026-01-27 01:44:08.91	28.74	63.57	-49.0	-65.3	3.5	3.02e+01	0	29	104	171442176	60	71056
2026-01-27 01:44:12.95	24.73	62.33	-40.6	-51.7	3.5	3.02e+01	0	29	104	171442176	56	18640
2026-01-27 01:44:16.99	21.13	61.01	-49.2	-66.5	3.5	3.02e+01	0	29	104	171442176	60	81217
2026-01-27 01:44:21.03	17.91	59.63	-38.2	-48.9	3.5	3.02e+01	0	29	104	171442176	52	17029
2026-01-27 01:44:25.07	15.01	58.21	-48.8	-64.6	3.5	3.02e+01	0	29	104	171442176	60	65476
2026-01-27 01:44:29.11	12.41	56.76	-37.8	-48.3	3.5	3.02e+01	0	29	104	171442176	52	15778
2026-01-27 01:44:33.15	10.08	55.30	-49.2	-66.0	3.5	3.02e+01	0	29	104	171442176	60	76519
2026-01-27 01:44:37.19	7.98	53.84	-35.1	-45.2	3.5	3.02e+01	0	29	104	171442176	46	15662
2026-01-27 01:44:41.23	6.09	52.39	-48.6	-63.8	3.5	3.02e+01	0	29	104	171442176	60	59796
2026-01-27 01:44:45.27	4.37	50.95	-36.2	-46.1	3.5	3.02e+01	0	29	104	171442176	48	15469
2026-01-27 01:44:49.31	2.81	49.54	-49.3	-66.5	3.5	3.02e+01	0	29	104	171442176	60	81027
2026-01-27 01:44:53.35	1.40	48.15	-35.6	-45.8	3.5	3.02e+01	0	29	104	171442176	46	16867
2026-01-27 01:44:57.39	0.10	46.79	-44.2	-55.4	3.6	3.02e+01	0	29	104	171442176	60	22604
2026-01-27 01:45:01.43	358.92	45.45	-35.7	-45.7	3.5	3.02e+01	0	29	104	171442176	46	16591
2026-01-27 01:45:05.47	357.83	44.16	-44.5	-56.0	3.6	3.02e+01	0	29	104	171442176	60	24402
2026-01-27 01:45:09.51	356.83	42.89	-37.5	-47.9	3.5	3.02e+01	0	29	104	171442176	50	16920
2026-01-27 01:45:13.55	355.90	41.66	-43.7	-54.7	3.6	3.02e+01	0	29	104	171442176	60	20838
2026-01-27 01:45:17.59	355.05	40.47	-39.2	-49.8	3.5	3.02e+01	0	29	104	171442176	54	16757
2026-01-27 01:45:21.63	354.25	39.30	-40.5	-51.2	3.5	3.02e+01	0	29	104	171442176	60	13941
2026-01-27 01:45:25.67	353.52	38.18	-40.6	-50.9	3.5	3.02e+01	0	29	104	171442176	54	19003
2026-01-27 01:45:29.71	352.83	37.08	-37.9	-48.3	3.5	3.02e+01	0	29	104	171442176	48	19907
2026-01-27 01:45:33.75	352.19	36.02	-39.8	-50.3	3.5	3.02e+01	0	29	104	171442176	52	20003
2026-01-27 01:45:37.79	351.59	35.00	-37.9	-48.3	3.5	3.02e+01	0	29	104	171442176	54	14055
2026-01-27 01:45:41.83	351.03	34.00	-35.8	-45.9	3.5	3.02e+01	0	29	104	171442176	46	17005
2026-01-27 01:45:45.87	350.50	33.03	-43.6	-54.7	3.5	3.02e+01	0	29	104	171442176	56	26213
2026-01-27 01:45:49.91	350.01	32.10	-35.1	-36.3	29.7	3.02e+01	0	29	0	173015040	46	5628
2026-01-27 01:45:53.95	349.54	31.19	-34.3	-35.4	30.3	3.02e+01	0	29	0	180355072	44	5718
2026-01-27 01:45:57.99	349.10	30.31	-34.1	-35.2	30.5	3.02e+01	0	29	0	188219392	44	5589
2026-01-27 01:46:02.03	348.69	29.45	-34.5	-35.7	30.2	3.02e+01	0	29	0	195559424	44	5868
2026-01-27 01:46:06.07	348.29	28.62	-34.7	-35.8	30.0	3.02e+01	0	29	0	203423744	44	5993
2026-01-27 01:46:10.10	347.92	27.82	-34.6	-35.8	30.1	3.02e+01	0	29	0	210763776	44	5953
2026-01-27 01:46:14.14	347.57	27.03	-35.0	-36.2	29.6	3.02e+01	0	29	0	218628096	44	6259
2026-01-27 01:46:18.18	347.24	26.28	-34.8	-36.0	29.8	3.02e+01	0	29	0	225968128	44	6083
2026-01-27 01:46:22.21	346.92	25.54	-34.7	-35.9	30.0	3.02e+01	0	29	0	233832448	44	6027
2026-01-27 01:46:26.26	346.62	24.82	-35.1	-36.3	29.5	3.02e+01	0	29	0	241172480	44	6285
2026-01-27 01:46:30.29	346.33	24.12	-35.1	-36.3	29.6	3.02e+01	0	29	0	248512512	44	6296
2026-01-27 01:46:34.34	346.06	23.44	-35.4	-36.7	29.1	3.02e+01	0	29	0	256376832	44	6580
2026-01-27 01:46:38.37	345.80	22.78	-35.4	-36.6	29.2	3.02e+01	0	29	0	263716864	44	6556
2026-01-27 01:46:42.41	345.55	22.14	-35.2	-36.4	29.4	3.02e+01	0	29	0	271581184	44	6360
2026-01-27 01:46:46.45	345.31	21.51	-35.2	-36.4	29.0	3.02e+01	0	29	0	278921216	44	6408
2026-01-27 01:46:50.49	345.08	20.90	-35.5	-36.7	29.2	3.02e+01	0	29	0	286785536	44	6624
2026-01-27 01:46:54.52	344.87	20.31	-35.5	-36.7	29.1	3.02e+01	0	29	0	294125568	44	6645
2026-01-27 01:46:58.56	344.66	19.73	-35.4	-36.7	29.0	3.02e+01	0	29	0	301989888	44	6582
2026-01-27 01:47:02.60	344.46	19.16	-35.3	-36.5	29.3	3.02e+01	0	29	0	309329920	44	6486
2026-01-27 01:47:06.64	344.27	18.61	-35.2	-36.4	29.4	3.02e+01	0	29	0	316669952	44	6359
2026-01-27 01:47:10.68	344.08	18.07	-35.1	-36.3	29.5	3.02e+01	0	29	0	324534272	44	6279
2026-01-27 01:47:14.71	343.91	17.54	-35.0	-36.2	29.6	3.02e+01	0	29	0	331874304	44	6219
2026-01-27 01:47:18.75	343.74	17.03	-35.0	-36.2	29.4	3.02e+01	0	29	0	339738624	44	6265
2026-01-27 01:47:22.79	343.57	16.52	-35.0	-36.2	29.5	3.02e+01	0	29	0	347078656	44	6219
2026-01-27 01:47:26.83	343.42	16.03	-35.1	-36.3	29.2	3.02e+01	0	29	0	354942976	44	6325
2026-01-27 01:47:30.87	343.26	15.55	-35.0	-36.2	29.2	3.02e+01	0	28	0	362283008	44	6213
2026-01-27 01:47:34.91	343.12	15.08	-35.1	-36.3	29.4	3.02e+01	0	29	0	370147328	44	6282
2026-01-27 01:47:38.95	342.98	14.61	-35.1	-36.4	28.9	3.02e+01	0	29	0	377487360	44	6352
2026-01-27 01:47:42.99	342.84	14.16	-35.0	-36.2	29.4	3.02e+01	0	29	0	384827392	44	6267
2026-01-27 01:47:47.03	342.71	13.72	-35.2	-36.4	29.1	3.02e+01	0	29	0	392691712	44	6418
2026-01-27 01:47:51.07	342.59	13.28	-35.5	-36.7	29.0	3.02e+01	0	29	0	400031744	44	6611
2026-01-27 01:47:55.11	342.47	12.85	-35.4	-36.6	28.9	3.02e+01	0	29	0	407896064	44	6561
2026-01-27 01:47:59.15	342.35	12.43	-35.3	-36.5	29.2	3.02e+01	0	29	0	415236096	44	6438
2026-01-27 01:48:03.19	342.24	12.02	-35.3	-36.5	28.8	3.02e+01	0	29	0	423100416	44	6493
2026-01-27 01:48:07.22	342.13	11.62	-35.4	-36.6	28.7	3.02e+01	0	29	0	430440448	44	6541
2026-01-27 01:48:11.26	342.02	11.22	-35.5	-36.8	28.8	3.02e+01	0	29	0	437780480	44	6652
2026-01-27 01:48:15.30	341.92	10.83	-35.7	-36.9	28.3	3.02e+01	0	29	0	445644800	44	6794
2026-01-27 01:48:19.35	341.82	10.45	-35.8	-37.0	28.5	3.02e+01	0	29	0	452984832	44	6857
2026-01-27 01:48:23.39	341.72	10.07	-36.0	-37.3	27.6	3.02e+01	0	29	0	460849152	46	6321
2026-01-27 01:48:27.43	341.63	9.70	-35.9	-37.2	27.8	3.02e+01	0	29	0	468189184	46	6214
2026-01-27 01:48:31.46	341.54	9.34	-36.0	-37.3	28.4	3.02e+01	0	29	0	476053504	46	6288
2026-01-27 01:48:35.49	341.46	8.98	-36.2	-37.5	27.8	3.02e+01	0	29	0	483393536	46	6429
2026-01-27 01:48:39.53	341.37	8.63	-36.2	-37.5	27.8	3.02e+01	0	29	0	491257856	46	6440
2026-01-27 01:48:43.58	341.29	8.28	-36.5	-37.8	27.6	3.02e+01	0	29	0	498597888	46	6701
2026-01-27 01:48:47.61	341.21	7.93	-36.3	-37.5	27.9	3.02e+01	0	29	0	505937920	46	6482
2026-01-27 01:48:51.65	341.13	7.60	-36.2	-37.5	28.0	3.02e+01	0	29	0	513802240	46	6467
2026-01-27 01:48:55.69	341.06	7.26	-36.5	-37.8	27.8	3.02e+01	0	29	0	521142272	46	6674
2026-01-27 01:48:59.72	340.99	6.94	-36.6	-37.9	27.7	3.02e+01	0	29	0	529006592	46	6742
2026-01-27 01:49:03.76	340.92	6.61	-36.7	-38.0	27.6	3.02e+01	0	29	0	536346624	46	6805
2026-01-27 01:49:07.80	340.85	6.29	-36.6	-37.9	27.5	3.02e+01	0	29	0	544210944	46	6766
2026-01-27 01:49:11.84	340.78	5.98	-37.5	-38.9	26.5	3.02e+01	0	29	0	551550976	48	6786
2026-01-27 01:49:15.87	340.72	5.67	-38.1	-39.6	25.6	3.02e+01	0	29	0	559415296	50	6510
2026-01-27 01:49:19.91	340.66	5.36	-39.4	-41.1	23.4	3.02e+01	0	29	0	566755328	52	6940
2026-01-27 01:49:23.95	340.60	5.06	-40.9	-43.2	20.8	3.02e+01	0	29	0	574095360	54	7841
2026-01-27 01:49:27.99	340.54	4.76	-42.8	-46.8	16.2	3.02e+01	0	29	0	581959680	58	9404
2026-01-27 01:49:32.03	340.48	4.47	-44.1	-50.7	11.6	3.02e+01	0	29	0	589299712	60	13225
2026-01-27 01:49:36.06	340.43	4.17	-44.6	-54.8	6.3	3.02e+01	92	29	0	597164032	60	21037
2026-01-27 01:49:40.10	340.37	3.89	-44.7	-59.9	3.9	3.02e+01	0	29	104	598212608	60	38008
2026-01-27 01:49:44.14	340.32	3.60	-44.9	-60.6	3.5	3.02e+01	0	29	104	598212608	60	41086
2026-01-27 01:49:48.18	340.27	3.32	-44.8	-61.1	3.5	3.02e+01	0	29	104	598212608	60	43569
2026-01-27 01:49:52.22	340.22	3.04	-44.7	-62.4	3.5	3.02e+01	0	29	104	598212608	60	50880
2026-01-27 01:49:56.26	340.17	2.76	-49.0	-66.9	3.5	3.02e+01	0	29	104	598212608	60	84753
2026-01-27 01:50:00.30	340.13	2.49	-49.4	-67.3	3.5	3.02e+01	0	29	104	598212608	60	89006
2026-01-27 01:50:04.34	340.08	2.22	-49.5	-67.4	3.5	3.02e+01	0	29	104	598212608	60	89733
2026-01-27 01:50:08.37	340.04	1.95	-49.3	-67.3	3.5	3.02e+01	0	29	104	598212608	60	89201
2026-01-27 01:50:12.41	339.99	1.69	-49.3	-67.2	3.5	3.02e+01	0	29	104	598212608	60	88141
2026-01-27 01:50:16.45	339.95	1.43	-49.4	-67.2	3.5	3.02e+01	0	29	104	598212608	60	88259
2026-01-27 01:50:20.48	339.91	1.17	-49.4	-67.2	3.5	3.02e+01	0	29	104	598212608	60	88612
2026-01-27 01:50:24.52	339.87	0.91	-49.4	-67.2	3.5	3.02e+01	0	29	104	598212608	60	88622
2026-01-27 01:50:28.57	339.83	0.66	-49.4	-67.3	3.5	3.02e+01	0	29	104	598212608	60	88745
2026-01-27 01:50:32.61	339.80	0.41	-49.4	-67.3	3.5	3.02e+01	0	29	104	598212608	60	88836
2026-01-27 01:50:36.65	339.76	0.16	-49.4	-67.2	3.5	3.02e+01	0	29	104	598212608	60	88626
2026-01-27 01:50:40.68	339.72	-0.09	-49.4	-67.3	3.5	3.02e+01	0	29	104	598212608	60	89061

#Closed at: 2026-01-27 01:50:42
#Recorded file [598 MB]: D:/lorett/data/35029_260127_133652.dat