passes_logs/2026/01/27/R4.6S_Anadyr/R4.6S_Anadyr__20260127_225546_NOAA_20_JPSS-1_rec.log

#Pass ID: 20260127_225546_NOAA 20 (JPSS-1)
#Satellite: NOAA 20 (JPSS-1)
#Configuration: NOAA 20
#almurnet v.1.7.20251203
#Start time: 2026-01-27 22:55:48

#Version: 2.2.20231116
#Station: R4.6S_Anadyr
#Location: 177.4865 lon 64.73178 lat
#TLE: 1 43013U 17073A   26027.59441131  .00000157  00000+0  95517-4 0  9997
#TLE: 2 43013  98.7647 328.4016 0000956  21.7206 338.4011 14.19541123424524

#Time	Az	El	Level	Level2	SNR	BER	BlckErr	Temp	State	Recorded	gain1	gain2
2026-01-27 22:55:48.84	124.68	0.12	-48.8	-63.7	3.5	1.51e+00	0	29	0	0	60	55101
2026-01-27 22:55:52.87	124.56	0.35	-48.7	-64.0	3.6	1.51e+00	0	31	104	0	60	57091
2026-01-27 22:55:56.91	124.43	0.59	-48.8	-64.1	3.6	1.51e+00	0	31	104	0	60	57814
2026-01-27 22:56:00.95	124.29	0.83	-48.9	-64.0	3.6	1.51e+00	0	31	104	0	60	57479
2026-01-27 22:56:04.99	124.16	1.07	-48.5	-63.9	3.6	1.51e+00	0	31	104	0	60	56764
2026-01-27 22:56:09.03	124.02	1.32	-48.3	-63.7	3.6	1.51e+00	0	31	104	0	60	55219
2026-01-27 22:56:13.07	123.89	1.56	-47.7	-63.0	3.6	1.51e+00	0	31	104	0	60	51019
2026-01-27 22:56:17.11	123.74	1.81	-46.9	-62.6	3.6	1.51e+00	0	31	104	0	60	48504
2026-01-27 22:56:21.15	123.60	2.06	-46.8	-62.6	3.6	1.51e+00	0	31	104	0	60	48630
2026-01-27 22:56:25.19	123.45	2.31	-46.8	-62.4	3.6	1.51e+00	0	31	104	0	60	47833
2026-01-27 22:56:29.23	123.31	2.57	-46.9	-62.5	3.6	1.51e+00	0	31	104	0	60	48203
2026-01-27 22:56:33.26	123.15	2.82	-46.8	-62.5	3.6	1.51e+00	0	31	104	0	60	48443
2026-01-27 22:56:37.30	123.00	3.08	-46.8	-61.6	3.6	1.51e+00	0	31	104	0	60	43539
2026-01-27 22:56:41.35	122.84	3.34	-46.7	-60.8	3.6	1.51e+00	0	31	104	0	60	39665
2026-01-27 22:56:45.38	122.68	3.61	-44.3	-48.0	13.8	1.83e-05	7	31	0	5242880	60	9052
2026-01-27 22:56:49.42	122.52	3.87	-47.3	-61.8	3.6	1.51e+00	0	31	104	9437184	60	44579
2026-01-27 22:56:53.46	122.35	4.14	-42.1	-44.3	16.7	1.48e+00	92	31	104	11534336	58	6689
2026-01-27 22:56:57.51	122.18	4.41	-41.2	-42.9	18.9	0.00e+00	92	31	0	17825792	56	6327
2026-01-27 22:57:01.55	122.00	4.68	-41.4	-43.1	18.7	0.00e+00	0	31	0	25165824	56	6497
2026-01-27 22:57:05.59	121.83	4.96	-41.8	-43.6	18.2	0.00e+00	92	31	0	32505856	56	6865
2026-01-27 22:57:09.63	121.65	5.23	-41.3	-42.9	19.1	0.00e+00	92	31	0	39845888	56	6383
2026-01-27 22:57:13.66	121.46	5.51	-40.8	-42.4	19.5	0.00e+00	91	31	0	48234496	56	5998
2026-01-27 22:57:17.70	121.27	5.80	-40.9	-42.5	19.4	0.00e+00	0	31	0	55574528	54	6817
2026-01-27 22:57:21.75	121.08	6.08	-40.2	-41.5	20.2	0.00e+00	92	31	0	62914560	52	6831
2026-01-27 22:57:25.79	120.88	6.37	-40.0	-41.3	20.5	0.00e+00	91	31	0	70254592	54	5911
2026-01-27 22:57:29.82	120.68	6.66	-40.1	-41.4	20.5	0.00e+00	92	31	0	78643200	54	5999
2026-01-27 22:57:33.86	120.48	6.96	-39.6	-40.8	21.1	0.00e+00	85	31	0	85983232	52	6255
2026-01-27 22:57:37.90	120.27	7.25	-40.3	-41.6	20.3	0.00e+00	92	31	0	93323264	52	6895
2026-01-27 22:57:41.94	120.05	7.55	-39.4	-40.5	21.4	0.00e+00	92	31	0	100663296	52	6096
2026-01-27 22:57:45.98	119.83	7.86	-39.6	-40.8	21.2	0.00e+00	92	31	0	108003328	52	6247
2026-01-27 22:57:50.02	119.61	8.17	-39.9	-41.2	20.8	0.00e+00	91	31	0	116391936	52	6576
2026-01-27 22:57:54.05	119.38	8.47	-39.4	-40.6	21.4	0.00e+00	92	31	0	123731968	52	6132
2026-01-27 22:57:58.10	119.15	8.79	-39.4	-40.5	21.6	0.00e+00	92	31	0	131072000	52	6092
2026-01-27 22:58:02.11	118.91	9.10	-39.4	-40.6	21.6	0.00e+00	38	31	0	138412032	52	6136
2026-01-27 22:58:06.15	118.66	9.43	-38.9	-39.9	22.2	0.00e+00	90	31	0	146800640	50	6383
2026-01-27 22:58:10.19	118.41	9.75	-38.8	-39.8	22.1	0.00e+00	92	32	0	154140672	50	6303
2026-01-27 22:58:14.22	118.16	10.08	-38.7	-39.8	22.2	0.00e+00	91	31	0	161480704	50	6299
2026-01-27 22:58:18.27	117.90	10.41	-38.6	-39.6	22.5	0.00e+00	84	31	0	168820736	50	6120
2026-01-27 22:58:22.30	117.63	10.74	-38.6	-39.7	22.5	0.00e+00	92	31	0	176160768	50	6176
2026-01-27 22:58:26.34	117.35	11.08	-38.6	-39.7	22.5	0.00e+00	92	31	0	184549376	50	6187
2026-01-27 22:58:30.38	117.07	11.43	-38.6	-39.6	22.5	0.00e+00	92	31	0	191889408	50	6165
2026-01-27 22:58:34.42	116.78	11.78	-38.7	-39.9	22.4	0.00e+00	0	31	0	199229440	50	6321
2026-01-27 22:58:38.46	116.48	12.13	-38.6	-39.8	22.4	0.00e+00	92	31	0	206569472	50	6292
2026-01-27 22:58:42.49	116.18	12.48	-38.5	-39.6	22.5	0.00e+00	92	31	0	213909504	50	6136
2026-01-27 22:58:46.53	115.87	12.85	-38.6	-39.7	22.5	0.00e+00	92	31	0	222298112	50	6206
2026-01-27 22:58:50.57	115.55	13.21	-38.3	-39.4	22.8	0.00e+00	0	31	0	229638144	50	5976
2026-01-27 22:58:54.61	115.22	13.58	-38.4	-39.3	22.9	0.00e+00	92	32	0	236978176	50	5964
2026-01-27 22:58:58.65	114.88	13.96	-38.4	-39.5	22.7	0.00e+00	92	32	0	244318208	50	6036
2026-01-27 22:59:02.69	114.54	14.34	-38.4	-39.5	22.7	0.00e+00	90	32	0	252706816	50	6048
2026-01-27 22:59:06.73	114.18	14.72	-38.4	-39.5	22.7	0.00e+00	0	32	0	260046848	50	6046
2026-01-27 22:59:10.77	113.82	15.11	-38.4	-39.4	22.8	0.00e+00	90	32	0	267386880	50	5987
2026-01-27 22:59:14.81	113.44	15.50	-38.5	-39.5	22.7	0.00e+00	92	31	0	274726912	50	6070
2026-01-27 22:59:18.85	113.06	15.90	-38.2	-39.1	23.2	0.00e+00	0	32	0	283115520	50	5809
2026-01-27 22:59:22.89	112.66	16.31	-38.1	-39.1	23.2	0.00e+00	0	32	0	290455552	50	5773
2026-01-27 22:59:26.93	112.25	16.72	-38.0	-39.0	23.3	0.00e+00	92	32	0	297795584	50	5714
2026-01-27 22:59:30.97	111.84	17.14	-37.9	-38.9	23.3	0.00e+00	92	32	0	305135616	50	5647
2026-01-27 22:59:35.01	111.41	17.56	-38.0	-38.9	23.3	0.00e+00	82	32	0	312475648	50	5684
2026-01-27 22:59:39.05	110.96	17.98	-38.0	-39.0	23.3	0.00e+00	92	32	0	320864256	50	5699
2026-01-27 22:59:43.09	110.51	18.42	-38.0	-39.0	23.3	0.00e+00	92	32	0	328204288	50	5705
2026-01-27 22:59:47.13	110.04	18.86	-37.9	-38.9	23.4	0.00e+00	90	32	0	335544320	50	5647
2026-01-27 22:59:51.16	109.55	19.30	-38.1	-39.0	23.2	0.00e+00	13	32	0	342884352	50	5740
2026-01-27 22:59:55.20	109.05	19.75	-38.1	-39.0	23.3	0.00e+00	91	32	0	351272960	50	5751
2026-01-27 22:59:59.24	108.54	20.20	-38.0	-39.0	23.4	0.00e+00	92	32	0	358612992	50	5718
2026-01-27 23:00:03.28	108.01	20.66	-38.0	-39.0	23.3	0.00e+00	92	32	0	365953024	50	5701
2026-01-27 23:00:07.31	107.47	21.13	-38.3	-39.2	23.1	0.00e+00	8	32	0	373293056	50	5891
2026-01-27 23:00:11.35	106.90	21.60	-38.3	-39.2	23.2	0.00e+00	92	32	0	380633088	50	5867
2026-01-27 23:00:15.39	106.32	22.08	-38.5	-39.5	22.9	0.00e+00	90	32	0	389021696	50	6059
2026-01-27 23:00:19.43	105.72	22.57	-38.6	-39.6	22.8	0.00e+00	92	32	0	396361728	50	6156
2026-01-27 23:00:23.47	105.10	23.06	-38.5	-39.5	22.9	0.00e+00	67	32	0	403701760	50	6069
2026-01-27 23:00:27.51	104.46	23.55	-38.9	-39.9	22.6	0.00e+00	91	32	0	411041792	50	6358
2026-01-27 23:00:31.54	103.80	24.05	-38.6	-39.6	22.9	0.00e+00	92	32	0	418381824	50	6132
2026-01-27 23:00:35.58	103.12	24.56	-38.3	-39.3	23.1	0.00e+00	92	32	0	426770432	50	5939
2026-01-27 23:00:39.62	102.42	25.07	-38.3	-39.2	23.2	0.00e+00	0	32	0	434110464	50	5872
2026-01-27 23:00:43.66	101.69	25.59	-38.6	-39.6	22.9	0.00e+00	92	32	0	441450496	50	6137
2026-01-27 23:00:47.70	100.93	26.11	-38.9	-39.9	22.7	0.00e+00	92	32	0	448790528	50	6379
2026-01-27 23:00:51.74	100.15	26.64	-39.0	-40.0	22.5	0.00e+00	0	32	0	457179136	50	6425
2026-01-27 23:00:55.78	99.35	27.17	-39.6	-40.6	21.8	0.00e+00	5	32	0	464519168	50	6914
2026-01-27 23:00:59.82	98.52	27.71	-40.1	-41.2	21.5	0.00e+00	90	32	0	471859200	52	6596
2026-01-27 23:01:03.85	97.66	28.24	-40.9	-42.2	20.5	0.00e+00	92	32	0	479199232	54	6593
2026-01-27 23:01:07.90	96.76	28.79	-40.8	-42.0	20.7	0.00e+00	0	32	0	487587840	54	6445
2026-01-27 23:01:11.94	95.84	29.33	-40.8	-42.1	20.6	0.00e+00	92	32	0	494927872	54	6496
2026-01-27 23:01:15.98	94.88	29.88	-40.7	-42.0	20.7	0.00e+00	92	32	0	502267904	54	6418
2026-01-27 23:01:20.02	93.90	30.42	-40.4	-41.6	21.1	0.00e+00	92	32	0	509607936	54	6151
2026-01-27 23:01:24.06	92.87	30.97	-41.4	-42.8	20.0	0.00e+00	0	32	0	516947968	54	7048
2026-01-27 23:01:28.10	91.82	31.51	-41.9	-43.5	19.4	0.00e+00	92	32	0	525336576	56	6773
2026-01-27 23:01:32.14	90.72	32.06	-40.9	-42.2	20.4	0.00e+00	91	32	0	532676608	56	5881
2026-01-27 23:01:36.18	89.59	32.60	-39.8	-40.9	21.7	0.00e+00	90	32	0	540016640	54	5681
2026-01-27 23:01:40.22	88.42	33.14	-40.1	-41.3	21.4	0.00e+00	79	32	0	547356672	54	5900
2026-01-27 23:01:44.26	87.21	33.68	-40.3	-41.5	21.2	0.00e+00	92	32	0	555745280	54	6075
2026-01-27 23:01:48.30	85.96	34.20	-40.0	-41.1	21.7	0.00e+00	92	32	0	563085312	54	5765
2026-01-27 23:01:52.34	84.67	34.73	-40.7	-41.9	20.8	0.00e+00	92	32	0	570425344	54	6372
2026-01-27 23:01:56.38	83.34	35.24	-40.8	-42.1	20.6	0.00e+00	0	32	0	577765376	54	6472
2026-01-27 23:02:00.42	81.96	35.74	-41.6	-43.1	19.8	0.00e+00	92	32	0	585105408	54	7269
2026-01-27 23:02:04.46	80.54	36.23	-41.5	-42.8	20.0	0.00e+00	92	32	0	593494016	56	6315
2026-01-27 23:02:08.50	79.08	36.71	-41.0	-42.3	20.6	0.00e+00	92	32	0	600834048	56	5897
2026-01-27 23:02:12.53	77.58	37.17	-40.4	-41.6	21.1	0.00e+00	7	32	0	608174080	54	6158
2026-01-27 23:02:16.57	76.04	37.62	-40.4	-41.6	21.3	0.00e+00	92	32	0	615514112	54	6132
2026-01-27 23:02:20.61	74.45	38.04	-39.3	-40.3	22.4	0.00e+00	92	32	0	623902720	52	5947
2026-01-27 23:02:24.65	72.82	38.45	-38.9	-39.9	22.8	0.00e+00	33	32	0	631242752	52	5641
2026-01-27 23:02:28.69	71.15	38.83	-38.7	-39.7	22.9	0.00e+00	86	32	0	638582784	50	6220
2026-01-27 23:02:32.73	69.44	39.19	-38.0	-38.9	23.5	0.00e+00	90	32	0	645922816	50	5688
2026-01-27 23:02:36.77	67.70	39.52	-37.6	-38.5	23.9	0.00e+00	91	32	0	653262848	48	6058
2026-01-27 23:02:40.81	65.92	39.83	-37.8	-38.7	23.9	0.00e+00	69	32	0	661651456	48	6191
2026-01-27 23:02:44.85	64.11	40.10	-37.7	-38.6	23.9	0.00e+00	53	32	0	668991488	48	6111
2026-01-27 23:02:48.89	62.26	40.35	-36.9	-37.8	24.6	0.00e+00	92	32	0	676331520	48	5568
2026-01-27 23:02:52.93	60.40	40.56	-37.4	-38.3	24.1	0.00e+00	92	32	0	683671552	48	5915
2026-01-27 23:02:56.96	58.51	40.74	-37.1	-38.0	24.4	0.00e+00	10	32	0	692060160	48	5699
2026-01-27 23:03:01.00	56.61	40.88	-37.2	-38.1	24.4	0.00e+00	92	32	0	699400192	48	5763
2026-01-27 23:03:05.03	54.69	40.98	-37.4	-38.3	24.1	0.00e+00	90	32	0	706740224	48	5928
2026-01-27 23:03:09.07	52.76	41.05	-38.5	-39.5	23.1	0.00e+00	92	32	0	714080256	48	6789
2026-01-27 23:03:13.11	50.82	41.09	-38.9	-39.8	22.8	0.00e+00	0	32	0	721420288	50	6305
2026-01-27 23:03:17.15	48.88	41.08	-39.4	-40.4	22.3	0.00e+00	92	32	0	729808896	50	6752
2026-01-27 23:03:21.19	46.94	41.04	-40.6	-41.9	21.0	0.00e+00	90	32	0	737148928	52	7091
2026-01-27 23:03:25.22	45.01	40.96	-40.1	-41.3	21.4	0.00e+00	12	32	0	744488960	52	6629
2026-01-27 23:03:29.26	43.09	40.85	-42.4	-44.0	19.0	0.00e+00	0	32	0	751828992	56	7228
2026-01-27 23:03:33.30	41.19	40.70	-42.1	-43.7	19.3	0.00e+00	92	32	0	759169024	56	6943
2026-01-27 23:03:37.33	39.31	40.51	-41.9	-43.3	19.5	0.00e+00	92	32	0	767557632	56	6687
2026-01-27 23:03:41.38	37.45	40.29	-41.4	-42.8	20.1	0.00e+00	17	32	0	774897664	56	6282
2026-01-27 23:03:45.41	35.62	40.04	-39.1	-40.1	22.5	0.00e+00	0	32	0	782237696	52	5801
2026-01-27 23:03:49.45	33.82	39.76	-38.4	-39.4	23.2	0.00e+00	92	32	0	789577728	50	5975
2026-01-27 23:03:53.49	32.05	39.45	-36.9	-37.7	24.6	0.00e+00	90	32	0	797966336	48	5535
2026-01-27 23:03:57.53	30.32	39.11	-36.9	-37.7	24.6	0.00e+00	0	32	0	805306368	48	5538
2026-01-27 23:04:01.57	28.62	38.75	-36.2	-36.9	25.2	0.00e+00	26	32	0	812646400	46	5687
2026-01-27 23:04:05.61	26.96	38.36	-36.4	-37.2	25.0	0.00e+00	91	32	0	819986432	46	5887
2026-01-27 23:04:09.65	25.35	37.95	-36.3	-37.1	25.1	0.00e+00	91	32	0	828375040	46	5766
2026-01-27 23:04:13.69	23.77	37.52	-36.8	-37.6	24.5	0.00e+00	67	32	0	835715072	46	6157
2026-01-27 23:04:17.73	22.24	37.07	-37.0	-37.8	24.4	0.00e+00	74	32	0	843055104	46	6277
2026-01-27 23:04:21.77	20.75	36.61	-37.2	-38.1	24.3	0.00e+00	92	32	0	850395136	46	6473
2026-01-27 23:04:25.81	19.30	36.13	-37.4	-38.2	24.1	0.00e+00	0	32	0	857735168	46	6605
2026-01-27 23:04:29.85	17.90	35.64	-37.4	-38.2	24.3	0.00e+00	73	32	0	866123776	46	6585
2026-01-27 23:04:33.88	16.54	35.14	-38.0	-38.9	23.4	0.00e+00	92	32	0	873463808	48	6333
2026-01-27 23:04:37.92	15.22	34.62	-38.6	-39.6	22.9	0.00e+00	91	32	0	880803840	50	6135
2026-01-27 23:04:41.96	13.94	34.10	-39.2	-40.2	22.5	0.00e+00	14	32	0	888143872	50	6595
2026-01-27 23:04:46.00	12.70	33.57	-39.5	-40.6	22.2	0.00e+00	13	32	0	896532480	50	6867
2026-01-27 23:04:50.04	11.51	33.04	-40.2	-41.4	21.3	0.00e+00	92	32	0	903872512	52	6699
2026-01-27 23:04:54.08	10.35	32.50	-40.4	-41.6	21.1	0.00e+00	92	32	0	911212544	52	6864
2026-01-27 23:04:58.12	9.23	31.96	-40.4	-41.6	21.2	0.00e+00	2	32	0	918552576	54	6156
2026-01-27 23:05:02.16	8.15	31.42	-41.0	-42.3	20.4	0.00e+00	0	32	0	925892608	54	6667
2026-01-27 23:05:06.20	7.10	30.87	-40.6	-41.8	20.9	0.00e+00	92	32	0	934281216	54	6265
2026-01-27 23:05:10.24	6.09	30.33	-40.3	-41.4	21.4	0.00e+00	92	32	0	941621248	54	6021
2026-01-27 23:05:14.28	5.11	29.78	-39.8	-40.8	21.9	0.00e+00	69	32	0	948961280	52	6303
2026-01-27 23:05:18.32	4.17	29.24	-39.3	-40.3	22.4	0.00e+00	0	32	0	956301312	52	5943
2026-01-27 23:05:22.36	3.26	28.70	-39.0	-40.0	22.6	0.00e+00	92	32	0	964689920	52	5714
2026-01-27 23:05:26.40	2.37	28.16	-38.7	-39.7	22.9	0.00e+00	87	32	0	972029952	50	6213
2026-01-27 23:05:30.44	1.52	27.63	-38.6	-39.5	23.0	0.00e+00	4	32	0	979369984	50	6078
2026-01-27 23:05:34.48	0.70	27.09	-38.4	-39.3	23.1	0.00e+00	68	32	0	986710016	50	5963
2026-01-27 23:05:38.52	359.90	26.57	-38.5	-39.5	22.9	0.00e+00	91	32	0	994050048	50	6046
2026-01-27 23:05:42.56	359.13	26.04	-38.8	-39.8	22.7	0.00e+00	11	32	0	1002438656	50	6288
2026-01-27 23:05:46.60	358.39	25.52	-38.5	-39.5	23.0	0.00e+00	0	32	0	1009778688	50	6068
2026-01-27 23:05:50.63	357.67	25.01	-38.4	-39.3	23.1	0.00e+00	92	32	0	1017118720	50	5947
2026-01-27 23:05:54.67	356.97	24.50	-38.8	-39.8	22.7	0.00e+00	0	32	0	1024458752	50	6313
2026-01-27 23:05:58.71	356.30	24.00	-39.0	-40.0	22.6	0.00e+00	7	32	0	1032847360	50	6398
2026-01-27 23:06:02.75	355.64	23.50	-38.7	-39.6	22.9	0.00e+00	5	32	0	1040187392	50	6173
2026-01-27 23:06:06.79	355.01	23.00	-38.6	-39.7	22.8	0.00e+00	92	32	0	1047527424	50	6175
2026-01-27 23:06:10.82	354.40	22.52	-38.5	-39.5	23.0	0.00e+00	77	32	0	1054867456	50	6042
2026-01-27 23:06:14.86	353.81	22.04	-38.9	-39.9	22.6	0.00e+00	0	32	0	1062207488	50	6352
2026-01-27 23:06:18.90	353.23	21.56	-38.9	-39.9	22.5	0.00e+00	0	32	0	1070596096	50	6368
2026-01-27 23:06:22.94	352.68	21.09	-39.0	-40.0	22.5	0.00e+00	92	32	0	1077936128	50	6444
2026-01-27 23:06:26.97	352.14	20.63	-38.9	-39.9	22.6	0.00e+00	6	32	0	1085276160	50	6365
2026-01-27 23:06:31.01	351.61	20.17	-38.6	-39.6	22.9	0.00e+00	73	32	0	1092616192	50	6135
2026-01-27 23:06:35.05	351.11	19.72	-38.8	-39.8	22.7	0.00e+00	0	32	0	1101004800	50	6261
2026-01-27 23:06:39.09	350.61	19.27	-38.8	-39.8	22.6	0.00e+00	91	32	0	1108344832	50	6297
2026-01-27 23:06:43.13	350.14	18.83	-38.8	-39.9	22.7	0.00e+00	0	32	0	1115684864	50	6319
2026-01-27 23:06:47.17	349.67	18.39	-38.5	-39.5	22.9	0.00e+00	8	32	0	1123024896	50	6043
2026-01-27 23:06:51.21	349.22	17.96	-38.7	-39.7	22.8	0.00e+00	0	32	0	1130364928	50	6175
2026-01-27 23:06:55.25	348.78	17.54	-39.0	-40.0	22.4	0.00e+00	92	32	0	1138753536	50	6454
2026-01-27 23:06:59.28	348.36	17.12	-39.1	-40.2	22.2	0.00e+00	0	32	0	1146093568	50	6578
2026-01-27 23:07:03.32	347.95	16.71	-39.3	-40.4	22.1	0.00e+00	0	32	0	1153433600	50	6704
2026-01-27 23:07:07.36	347.54	16.30	-39.2	-40.2	22.2	0.00e+00	44	32	0	1160773632	50	6585
2026-01-27 23:07:11.40	347.15	15.90	-39.2	-40.3	22.1	0.00e+00	90	32	0	1168113664	50	6650
2026-01-27 23:07:15.44	346.77	15.50	-39.3	-40.4	22.1	0.00e+00	0	32	0	1176502272	50	6708
2026-01-27 23:07:19.47	346.40	15.11	-39.5	-40.6	21.7	0.00e+00	0	32	0	1183842304	50	6868
2026-01-27 23:07:23.51	346.04	14.72	-39.7	-40.8	21.6	0.00e+00	84	32	0	1191182336	52	6272
2026-01-27 23:07:27.55	345.69	14.34	-39.5	-40.6	21.7	0.00e+00	0	32	0	1198522368	52	6141
2026-01-27 23:07:31.59	345.35	13.96	-39.5	-40.7	21.7	0.00e+00	0	32	0	1206910976	52	6179
2026-01-27 23:07:35.63	345.02	13.59	-40.0	-41.1	21.2	0.00e+00	6	32	0	1214251008	52	6530
2026-01-27 23:07:39.66	344.70	13.22	-40.2	-41.4	21.1	0.00e+00	92	32	0	1221591040	52	6706
2026-01-27 23:07:43.70	344.38	12.86	-40.2	-41.4	21.0	0.00e+00	0	32	0	1228931072	52	6762
2026-01-27 23:07:47.74	344.07	12.50	-39.9	-41.0	21.3	0.00e+00	0	32	0	1236271104	52	6463
2026-01-27 23:07:51.77	343.78	12.14	-40.0	-41.2	21.2	0.00e+00	5	32	0	1244659712	52	6558
2026-01-27 23:07:55.81	343.48	11.79	-40.0	-41.2	21.1	0.00e+00	92	32	0	1251999744	52	6588
2026-01-27 23:07:59.85	343.20	11.45	-40.1	-41.3	21.0	0.00e+00	0	32	0	1259339776	52	6647
2026-01-27 23:08:03.89	342.92	11.11	-40.4	-41.7	20.6	0.00e+00	86	32	0	1266679808	52	6962
2026-01-27 23:08:07.93	342.65	10.77	-40.6	-41.9	20.4	0.00e+00	0	32	0	1275068416	52	7103
2026-01-27 23:08:11.96	342.38	10.43	-40.6	-41.9	20.3	0.00e+00	92	32	0	1282408448	54	6372
2026-01-27 23:08:16.00	342.13	10.10	-40.7	-42.0	20.2	0.00e+00	77	32	0	1289748480	54	6457
2026-01-27 23:08:20.04	341.87	9.78	-40.6	-41.9	20.2	0.00e+00	78	32	0	1297088512	54	6352
2026-01-27 23:08:24.08	341.63	9.46	-40.5	-41.8	20.4	0.00e+00	79	32	0	1304428544	54	6251
2026-01-27 23:08:28.12	341.39	9.14	-40.6	-42.0	20.3	0.00e+00	92	32	0	1312817152	54	6412
2026-01-27 23:08:32.16	341.15	8.82	-40.7	-42.0	20.2	0.00e+00	0	32	0	1320157184	54	6438
2026-01-27 23:08:36.20	340.92	8.51	-40.6	-41.9	20.3	0.00e+00	0	32	0	1327497216	54	6339
2026-01-27 23:08:40.23	340.70	8.20	-40.7	-42.1	20.0	0.00e+00	0	32	0	1334837248	54	6479
2026-01-27 23:08:44.28	340.48	7.89	-40.8	-42.1	20.0	0.00e+00	92	32	0	1343225856	54	6535
2026-01-27 23:08:48.31	340.26	7.59	-41.0	-42.4	19.6	0.00e+00	0	32	0	1350565888	54	6758
2026-01-27 23:08:52.34	340.05	7.29	-40.9	-42.3	19.7	0.00e+00	2	32	0	1357905920	54	6665
2026-01-27 23:08:56.38	339.85	7.00	-41.0	-42.4	19.6	0.00e+00	72	32	0	1365245952	54	6744
2026-01-27 23:09:00.43	339.64	6.70	-40.8	-42.3	19.7	0.00e+00	0	32	0	1372585984	54	6628
2026-01-27 23:09:04.46	339.45	6.41	-41.1	-42.6	19.2	0.00e+00	0	32	0	1380974592	54	6910
2026-01-27 23:09:08.51	339.25	6.13	-40.9	-42.4	19.4	0.00e+00	0	32	0	1388314624	54	6753
2026-01-27 23:09:12.55	339.07	5.84	-41.2	-42.8	19.0	0.00e+00	92	32	0	1395654656	54	7082
2026-01-27 23:09:16.59	338.88	5.56	-41.6	-43.5	17.8	0.00e+00	1	32	0	1402994688	56	6813
2026-01-27 23:09:20.63	338.70	5.28	-42.4	-44.9	15.7	0.00e+00	79	32	0	1411383296	56	8021
2026-01-27 23:09:24.66	338.52	5.01	-43.0	-46.4	13.5	8.30e-06	0	32	0	1418723328	58	8493
2026-01-27 23:09:28.70	338.35	4.73	-43.6	-48.7	10.2	2.97e-03	92	32	0	1426063360	58	10980
2026-01-27 23:09:32.74	338.18	4.46	-44.0	-51.1	6.7	9.45e-02	5	32	0	1433403392	60	13001
2026-01-27 23:09:36.78	338.01	4.19	-43.9	-54.0	4.0	1.28e+00	73	32	0	1440743424	60	18084
2026-01-27 23:09:40.81	337.85	3.93	-43.8	-57.6	3.6	1.51e+00	0	32	104	1440743424	60	27477
2026-01-27 23:09:44.85	337.69	3.66	-43.7	-58.8	3.6	1.51e+00	0	32	104	1440743424	60	31413
2026-01-27 23:09:48.89	337.53	3.40	-43.7	-58.9	3.6	1.51e+00	0	32	104	1440743424	60	31665
2026-01-27 23:09:52.92	337.38	3.14	-43.7	-58.8	3.6	1.51e+00	0	32	104	1440743424	60	31588
2026-01-27 23:09:56.96	337.23	2.88	-47.4	-62.5	3.6	1.51e+00	0	32	104	1440743424	60	48394
2026-01-27 23:10:01.00	337.08	2.63	-48.7	-63.9	3.6	1.51e+00	0	32	104	1440743424	60	56383
2026-01-27 23:10:05.04	336.94	2.37	-48.9	-64.1	3.6	1.51e+00	0	32	104	1440743424	60	57748
2026-01-27 23:10:09.08	336.79	2.12	-48.8	-64.1	3.6	1.51e+00	0	32	104	1440743424	60	58084
2026-01-27 23:10:13.12	336.65	1.87	-48.8	-64.1	3.6	1.51e+00	0	32	104	1440743424	60	57643
2026-01-27 23:10:17.16	336.52	1.63	-48.7	-63.9	3.6	1.51e+00	0	32	104	1440743424	60	56949
2026-01-27 23:10:21.20	336.38	1.38	-48.8	-64.0	3.6	1.51e+00	0	32	104	1440743424	60	57450
2026-01-27 23:10:25.24	336.25	1.14	-48.8	-64.0	3.6	1.51e+00	0	32	104	1440743424	60	57418
2026-01-27 23:10:29.28	336.12	0.90	-48.8	-64.0	3.6	1.51e+00	0	32	104	1440743424	60	57251
2026-01-27 23:10:33.31	335.99	0.66	-48.8	-64.0	3.6	1.51e+00	0	32	104	1440743424	60	57317
2026-01-27 23:10:37.35	335.87	0.42	-48.8	-64.0	3.6	1.51e+00	0	32	104	1440743424	60	57069
2026-01-27 23:10:41.40	335.75	0.18	-48.8	-64.0	3.6	1.51e+00	0	32	104	1440743424	60	57021
2026-01-27 23:10:45.43	335.62	-0.05	-48.8	-63.9	3.6	1.51e+00	0	32	104	1440743424	60	56851

#Closed at: 2026-01-27 23:10:46
#Recorded file [1440 MB]: D:/lorett/data/35029_260128_105548.dat