passes_logs/2026/01/27/R4.6S_Anadyr/R4.6S_Anadyr__20260127_101015_TY-42_rec.log

#Pass ID: 20260127_101015_TY-42
#Satellite: TY-42
#Configuration: TY-42_900M
#almurnet v.1.7.20251203
#Start time: 2026-01-27 10:10:48

#Version: 2.2.20231116
#Station: R4.6S_Anadyr
#Location: 177.4865 lon 64.73178 lat
#TLE: 1 64048U 25103A   26027.24398148  .00008010  00000-0  38191-3 0 09993
#TLE: 2 64048 097.4117 102.4316 0001655 092.8662 047.1811 15.19167201 38679

#Time	Az	El	Level	Level2	SNR	BER	BlckErr	Temp	State	Recorded	gain1	gain2
2026-01-27 10:10:48.07	183.26	2.09	-45.1	-59.5	3.5	1.34e+00	0	30	0	0	60	38374
2026-01-27 10:10:51.09	183.40	2.29	-48.1	-50.5	6.1	0.00e+00	0	31	104	0	60	41089
2026-01-27 10:10:54.13	183.55	2.50	-48.1	-50.5	6.1	0.00e+00	0	31	104	0	60	41156
2026-01-27 10:10:57.16	183.70	2.71	-48.1	-50.5	6.1	0.00e+00	0	31	104	0	60	41141
2026-01-27 10:11:00.19	183.85	2.93	-48.1	-50.6	6.1	0.00e+00	0	32	104	0	60	41267
2026-01-27 10:11:03.22	184.01	3.14	-48.1	-50.5	6.1	0.00e+00	0	32	104	0	60	41217
2026-01-27 10:11:06.25	184.17	3.36	-48.1	-50.5	6.1	0.00e+00	0	32	104	0	60	41176
2026-01-27 10:11:09.27	184.33	3.58	-48.1	-50.5	6.1	0.00e+00	0	32	104	0	60	41252
2026-01-27 10:11:12.30	184.49	3.80	-48.1	-50.5	6.1	0.00e+00	0	32	104	0	60	41159
2026-01-27 10:11:15.33	184.66	4.02	-48.1	-50.5	6.1	0.00e+00	0	32	104	0	60	41172
2026-01-27 10:11:18.36	184.83	4.25	-48.1	-50.6	6.1	0.00e+00	0	32	104	0	60	41715
2026-01-27 10:11:21.39	185.00	4.48	-48.1	-50.6	6.1	0.00e+00	0	32	104	0	60	41493
2026-01-27 10:11:24.42	185.18	4.71	-48.1	-50.6	6.1	0.00e+00	0	32	104	0	60	41504
2026-01-27 10:11:27.45	185.36	4.94	-48.0	-50.5	6.1	0.00e+00	0	32	104	0	60	41005
2026-01-27 10:11:30.48	185.54	5.17	-48.2	-50.7	6.1	0.00e+00	0	32	104	0	60	41943
2026-01-27 10:11:33.50	185.73	5.41	-48.1	-50.6	6.1	0.00e+00	0	32	104	0	60	41668
2026-01-27 10:11:36.53	185.92	5.65	-39.8	-40.3	10.4	0.00e+00	0	32	104	131072	60	12686
2026-01-27 10:11:39.56	186.11	5.90	-28.0	-28.4	15.8	1.46e-02	0	33	0	209846272	32	16164
2026-01-27 10:11:42.59	186.31	6.14	-27.7	-28.1	15.9	1.18e-03	0	33	0	553779200	32	15611
2026-01-27 10:11:45.62	186.51	6.39	-27.2	-27.5	16.0	5.01e-04	0	33	0	889323520	30	16372
2026-01-27 10:11:48.64	186.72	6.64	-27.3	-27.7	16.0	4.20e-04	0	33	0	1233256448	30	16722
2026-01-27 10:11:51.67	186.93	6.90	-27.1	-27.5	16.1	3.27e-04	0	33	0	1577189376	30	16281
2026-01-27 10:11:54.70	187.14	7.16	-26.9	-27.3	16.2	3.05e-04	0	33	0	1921122304	28	17838
2026-01-27 10:11:57.73	187.36	7.42	-26.7	-27.1	16.1	2.72e-04	0	33	0	2256666624	28	17516
2026-01-27 10:12:00.76	187.59	7.68	-26.4	-26.8	16.3	2.12e-04	0	33	0	2600599552	28	16874
2026-01-27 10:12:03.78	187.82	7.95	-26.2	-26.6	16.4	1.20e-04	0	33	0	2944532480	28	16465
2026-01-27 10:12:06.81	188.05	8.22	-26.2	-26.6	16.4	5.44e-05	0	33	0	3280076800	28	16490
2026-01-27 10:12:09.84	188.29	8.50	-25.9	-26.3	16.5	5.44e-05	0	34	0	3624009728	28	15871
2026-01-27 10:12:12.87	188.53	8.78	-26.0	-26.4	16.5	6.53e-05	0	34	0	3959554048	28	16214
2026-01-27 10:12:15.90	188.79	9.06	-25.7	-26.1	16.6	3.26e-05	0	34	0	4303486976	26	17481
2026-01-27 10:12:18.93	189.04	9.35	-25.6	-26.0	16.6	1.08e-05	0	34	0	4647419904	26	17318
2026-01-27 10:12:21.96	189.30	9.64	-25.8	-26.2	16.5	2.17e-05	0	34	0	4982964224	26	17718
2026-01-27 10:12:24.99	189.57	9.94	-25.4	-25.8	16.6	3.81e-05	0	34	0	5326897152	26	16851
2026-01-27 10:12:28.01	189.85	10.23	-25.4	-25.8	16.7	0.00e+00	0	34	0	5662441472	26	16877
2026-01-27 10:12:31.04	190.13	10.54	-25.1	-25.5	16.7	1.08e-05	0	34	0	6006374400	26	16287
2026-01-27 10:12:34.07	190.42	10.85	-25.0	-25.4	16.8	1.63e-05	0	34	0	6341918720	26	16075
2026-01-27 10:12:37.10	190.71	11.16	-24.8	-25.2	16.8	0.00e+00	0	34	0	6685851648	26	15868
2026-01-27 10:12:40.12	191.01	11.48	-24.7	-25.1	16.8	5.40e-06	0	34	0	7021395968	24	17443
2026-01-27 10:12:43.15	191.33	11.80	-24.4	-24.8	16.9	0.00e+00	0	34	0	7365328896	24	16987
2026-01-27 10:12:46.18	191.64	12.13	-24.2	-24.6	16.9	5.40e-06	0	34	0	7709261824	24	16432
2026-01-27 10:12:49.21	191.97	12.46	-24.2	-24.6	16.9	5.40e-06	0	34	0	8044806144	24	16516
2026-01-27 10:12:52.24	192.31	12.80	-24.0	-24.4	16.9	0.00e+00	0	34	0	8388739072	24	16131
2026-01-27 10:12:55.27	192.65	13.14	-23.9	-24.3	17.0	0.00e+00	0	34	0	8732672000	24	16023
2026-01-27 10:12:58.29	193.01	13.49	-23.8	-24.2	17.0	0.00e+00	0	34	0	9068216320	22	17751
2026-01-27 10:13:01.32	193.37	13.84	-23.6	-24.0	17.0	0.00e+00	0	34	0	9412149248	22	17293
2026-01-27 10:13:04.35	193.75	14.20	-23.6	-24.0	17.0	0.00e+00	0	34	0	9756082176	22	17230
2026-01-27 10:13:07.38	194.13	14.57	-23.5	-23.9	17.0	0.00e+00	0	34	0	10100015104	22	17149
2026-01-27 10:13:10.41	194.53	14.94	-23.3	-23.8	17.1	0.00e+00	0	34	0	10435559424	22	16819
2026-01-27 10:13:13.43	194.93	15.32	-23.3	-23.8	17.1	0.00e+00	0	34	0	10779492352	22	16824
2026-01-27 10:13:16.45	195.35	15.71	-23.1	-23.5	17.1	0.00e+00	0	34	0	11115036672	22	16388
2026-01-27 10:13:19.48	195.79	16.10	-23.0	-23.4	17.2	0.00e+00	0	35	0	11458969600	22	16151
2026-01-27 10:13:22.51	196.23	16.50	-22.7	-23.1	17.2	0.00e+00	0	34	0	11794513920	20	17464
2026-01-27 10:13:25.54	196.69	16.90	-22.6	-23.0	17.2	0.00e+00	0	35	0	12138446848	20	17339
2026-01-27 10:13:28.57	197.17	17.32	-22.4	-22.8	17.2	0.00e+00	0	34	0	12473991168	20	16967
2026-01-27 10:13:31.59	197.65	17.74	-22.1	-22.5	17.2	0.00e+00	0	35	0	12817924096	20	16334
2026-01-27 10:13:34.62	198.16	18.16	-22.1	-22.5	17.3	0.00e+00	0	34	0	13153468416	20	16367
2026-01-27 10:13:37.64	198.68	18.60	-22.2	-22.6	17.3	0.00e+00	0	35	0	13497401344	20	16548
2026-01-27 10:13:40.67	199.21	19.04	-21.7	-22.1	17.3	0.00e+00	0	35	0	13832945664	18	17589
2026-01-27 10:13:43.70	199.77	19.49	-21.5	-22.0	17.3	0.00e+00	0	35	0	14176878592	18	17214
2026-01-27 10:13:46.72	200.34	19.95	-21.4	-21.8	17.3	0.00e+00	0	35	0	14520811520	18	17002
2026-01-27 10:13:49.75	200.94	20.42	-21.2	-21.6	17.3	0.00e+00	0	35	0	14864744448	18	16552
2026-01-27 10:13:52.78	201.55	20.90	-21.2	-21.6	17.3	0.00e+00	0	35	0	15200288768	18	16497
2026-01-27 10:13:55.81	202.19	21.38	-20.8	-21.3	17.4	0.00e+00	0	35	0	15544221696	18	15925
2026-01-27 10:13:58.84	202.85	21.87	-20.6	-21.1	17.3	0.00e+00	0	35	0	15888154624	16	17486
2026-01-27 10:14:01.86	203.53	22.37	-20.4	-20.8	17.4	0.00e+00	0	35	0	16223698944	16	16992
2026-01-27 10:14:04.89	204.24	22.88	-20.5	-20.9	17.4	0.00e+00	0	35	0	16567631872	16	17173
2026-01-27 10:14:07.91	204.97	23.40	-20.3	-20.7	17.4	0.00e+00	0	35	0	16903176192	16	16725
2026-01-27 10:14:10.95	205.73	23.93	-19.9	-20.3	17.4	0.00e+00	0	35	0	17247109120	16	16052
2026-01-27 10:14:13.97	206.52	24.46	-19.9	-20.3	17.4	0.00e+00	0	35	0	17582653440	16	15971
2026-01-27 10:14:17.00	207.34	25.00	-19.6	-20.1	17.4	0.00e+00	0	35	0	17926586368	14	17421
2026-01-27 10:14:20.02	208.18	25.55	-19.5	-19.9	17.5	0.00e+00	0	35	0	18262130688	14	17083
2026-01-27 10:14:23.04	209.06	26.11	-19.1	-19.6	17.5	0.00e+00	0	35	0	18606063616	14	16506
2026-01-27 10:14:26.07	209.98	26.67	-19.4	-19.9	17.4	0.00e+00	0	35	0	18941607936	14	17062
2026-01-27 10:14:29.10	210.94	27.25	-18.6	-19.1	17.5	0.00e+00	0	35	0	19285540864	12	17472
2026-01-27 10:14:32.13	211.93	27.83	-18.5	-18.9	17.5	0.00e+00	0	35	0	19621085184	12	17111
2026-01-27 10:14:35.15	212.96	28.41	-18.2	-18.7	17.5	0.00e+00	0	35	0	19965018112	12	16701
2026-01-27 10:14:38.18	214.03	29.00	-18.1	-18.5	17.5	0.00e+00	0	35	0	20308951040	12	16351
2026-01-27 10:14:41.21	215.14	29.59	-17.8	-18.3	17.6	0.00e+00	0	35	0	20652883968	12	15916
2026-01-27 10:14:44.24	216.30	30.19	-17.6	-18.0	17.5	0.00e+00	0	35	0	20988428288	10	17316
2026-01-27 10:14:47.26	217.51	30.79	-17.3	-17.8	17.5	0.00e+00	0	35	0	21332361216	10	16845
2026-01-27 10:14:50.29	218.76	31.39	-17.1	-17.5	17.6	0.00e+00	0	35	0	21676294144	10	16396
2026-01-27 10:14:53.31	220.06	31.99	-16.9	-17.4	17.6	0.00e+00	0	35	0	22011838464	10	16097
2026-01-27 10:14:56.34	221.42	32.59	-16.8	-17.3	17.6	0.00e+00	0	35	0	22355771392	10	15924
2026-01-27 10:14:59.36	222.83	33.18	-16.7	-17.2	17.6	0.00e+00	0	35	0	22691315712	8	17693
2026-01-27 10:15:02.39	224.29	33.77	-16.5	-17.0	17.6	0.00e+00	0	35	0	23035248640	8	17212
2026-01-27 10:15:05.42	225.82	34.35	-16.5	-16.9	17.6	0.00e+00	0	35	0	23370792960	8	17122
2026-01-27 10:15:08.45	227.40	34.93	-16.3	-16.8	17.6	0.00e+00	0	35	0	23714725888	8	16814
2026-01-27 10:15:11.47	229.03	35.49	-16.3	-16.7	17.6	0.00e+00	0	35	0	24050270208	8	16726
2026-01-27 10:15:14.50	230.73	36.03	-16.0	-16.4	17.7	0.00e+00	0	35	0	24394203136	8	16234
2026-01-27 10:15:17.54	232.50	36.57	-16.0	-16.4	17.7	0.00e+00	0	35	0	24738136064	8	16203
2026-01-27 10:15:20.56	234.31	37.07	-15.8	-16.2	17.7	0.00e+00	0	35	0	25073680384	8	15846
2026-01-27 10:15:23.59	236.19	37.56	-15.7	-16.1	17.7	0.00e+00	0	35	0	25417613312	6	17540
2026-01-27 10:15:26.61	238.11	38.02	-15.7	-16.1	17.6	0.00e+00	0	35	0	25753157632	6	17549
2026-01-27 10:15:29.64	240.11	38.45	-15.4	-15.9	17.7	0.00e+00	0	35	0	26097090560	6	17006
2026-01-27 10:15:32.67	242.15	38.85	-15.3	-15.7	17.6	0.00e+00	0	35	0	26441023488	6	16772
2026-01-27 10:15:35.70	244.24	39.22	-15.2	-15.6	17.6	0.00e+00	0	35	0	26776567808	6	16614
2026-01-27 10:15:38.72	246.38	39.54	-15.2	-15.6	17.6	0.00e+00	0	35	0	27120500736	6	16584
2026-01-27 10:15:41.75	248.56	39.83	-15.0	-15.5	17.6	0.00e+00	0	35	0	27464433664	6	16271
2026-01-27 10:15:44.78	250.78	40.07	-14.8	-15.3	17.6	0.00e+00	0	35	0	27799977984	6	15878
2026-01-27 10:15:47.80	253.03	40.27	-14.9	-15.3	17.6	0.00e+00	0	35	0	28143910912	6	16017
2026-01-27 10:15:50.83	255.30	40.43	-15.0	-15.4	17.6	0.00e+00	0	35	0	28487843840	6	16109
2026-01-27 10:15:53.86	257.60	40.53	-14.9	-15.4	17.5	0.00e+00	0	35	0	28823388160	6	16095
2026-01-27 10:15:56.89	259.91	40.59	-15.1	-15.5	17.5	0.00e+00	0	35	0	29167321088	6	16329
2026-01-27 10:15:59.92	262.22	40.59	-14.9	-15.3	17.5	0.00e+00	0	35	0	29502865408	6	16019
2026-01-27 10:16:02.94	264.52	40.55	-15.1	-15.5	17.5	0.00e+00	0	35	0	29846798336	6	16358
2026-01-27 10:16:05.98	266.82	40.45	-15.2	-15.6	17.5	0.00e+00	0	35	0	30182342656	6	16527
2026-01-27 10:16:09.00	269.09	40.31	-15.1	-15.5	17.5	0.00e+00	0	35	0	30526275584	6	16316
2026-01-27 10:16:12.03	271.35	40.12	-15.0	-15.4	17.5	0.00e+00	0	35	0	30870208512	6	16221
2026-01-27 10:16:15.06	273.58	39.89	-15.0	-15.4	17.5	0.00e+00	0	35	0	31205752832	6	16088
2026-01-27 10:16:18.08	275.76	39.61	-15.1	-15.5	17.6	0.00e+00	0	35	0	31549685760	6	16262
2026-01-27 10:16:21.10	277.90	39.30	-15.2	-15.6	17.6	0.00e+00	0	35	0	31885230080	6	16490
2026-01-27 10:16:24.13	280.00	38.94	-15.3	-15.7	17.6	0.00e+00	0	35	0	32229163008	6	16756
2026-01-27 10:16:27.16	282.05	38.55	-49.2	-51.7	6.1	0.00e+00	0	35	104	32237551616	60	47031
2026-01-27 10:16:30.19	284.05	38.13	-49.2	-51.6	6.1	0.00e+00	0	35	104	32237551616	60	46695
2026-01-27 10:16:33.21	285.99	37.68	-49.1	-51.7	6.1	0.00e+00	0	35	104	32237551616	60	46881
2026-01-27 10:16:36.24	287.87	37.20	-49.2	-51.6	6.1	0.00e+00	0	35	104	32237551616	60	46603
2026-01-27 10:16:39.27	289.70	36.69	-49.1	-51.6	6.1	0.00e+00	0	35	104	32237551616	60	46396
2026-01-27 10:16:42.30	291.47	36.17	-49.0	-51.5	6.1	0.00e+00	0	35	104	32237551616	60	46100
2026-01-27 10:16:45.33	293.18	35.63	-48.8	-51.4	6.1	0.00e+00	0	35	104	32237551616	60	45304
2026-01-27 10:16:48.35	294.82	35.08	-48.9	-51.4	6.1	0.00e+00	0	35	104	32237551616	60	45486
2026-01-27 10:16:51.39	296.41	34.51	-48.8	-51.4	6.1	0.00e+00	0	35	104	32237551616	60	45460
2026-01-27 10:16:54.41	297.94	33.93	-48.6	-51.2	6.1	0.00e+00	0	35	104	32237551616	60	44309
2026-01-27 10:16:57.44	299.42	33.34	-48.4	-51.0	6.1	0.00e+00	0	35	104	32237551616	60	43329
2026-01-27 10:17:00.47	300.84	32.75	-48.5	-51.0	6.1	0.00e+00	0	35	104	32237551616	60	43644
2026-01-27 10:17:03.49	302.20	32.16	-48.5	-51.1	6.1	0.00e+00	0	35	104	32237551616	60	43893
2026-01-27 10:17:06.52	303.51	31.56	-48.7	-51.3	6.1	0.00e+00	0	35	104	32237551616	60	45079
2026-01-27 10:17:09.55	304.77	30.96	-48.9	-51.5	6.1	0.00e+00	0	35	104	32237551616	60	45974
2026-01-27 10:17:12.58	305.99	30.37	-49.0	-51.5	6.1	0.00e+00	0	35	104	32237551616	60	46104
2026-01-27 10:17:15.60	307.15	29.77	-49.0	-51.5	6.1	0.00e+00	0	35	104	32237551616	60	45824
2026-01-27 10:17:18.63	308.27	29.18	-48.8	-51.3	6.1	0.00e+00	0	35	104	32237551616	60	45059
2026-01-27 10:17:21.66	309.35	28.59	-48.8	-51.4	6.1	0.00e+00	0	35	104	32237551616	60	45321
2026-01-27 10:17:24.68	310.39	28.01	-48.7	-51.2	6.1	0.00e+00	0	35	104	32237551616	60	44503
2026-01-27 10:17:27.71	311.38	27.44	-48.8	-51.3	6.1	0.00e+00	0	35	104	32237551616	60	45239
2026-01-27 10:17:30.75	312.35	26.86	-49.0	-51.5	6.1	0.00e+00	0	35	104	32237551616	60	45980
2026-01-27 10:17:33.78	313.27	26.30	-48.9	-51.4	6.1	0.00e+00	0	35	104	32237551616	60	45389
2026-01-27 10:17:36.80	314.16	25.74	-48.9	-51.4	6.1	0.00e+00	0	35	104	32237551616	60	45459
2026-01-27 10:17:39.83	315.01	25.20	-48.8	-51.3	6.1	0.00e+00	0	35	104	32237551616	60	45108
2026-01-27 10:17:42.86	315.84	24.65	-49.1	-51.6	6.1	0.00e+00	0	35	104	32237551616	60	46462
2026-01-27 10:17:45.88	316.63	24.12	-48.8	-51.3	6.1	0.00e+00	0	35	104	32237551616	60	45140
2026-01-27 10:17:48.90	317.39	23.60	-48.9	-51.4	6.1	0.00e+00	0	35	104	32237551616	60	45545
2026-01-27 10:17:51.92	318.13	23.08	-49.0	-51.4	6.1	0.00e+00	0	35	104	32237551616	60	45488
2026-01-27 10:17:54.96	318.84	22.57	-49.1	-51.6	6.1	0.00e+00	0	35	104	32237551616	60	46325
2026-01-27 10:17:57.98	319.52	22.07	-48.9	-51.4	6.1	0.00e+00	0	35	104	32237551616	60	45689
2026-01-27 10:18:01.01	320.19	21.58	-48.9	-51.4	6.1	0.00e+00	0	35	104	32237551616	60	45711
2026-01-27 10:18:04.04	320.83	21.10	-48.9	-51.3	6.1	0.00e+00	0	35	104	32237551616	60	45226
2026-01-27 10:18:07.07	321.45	20.62	-49.0	-51.5	6.1	0.00e+00	0	35	104	32237551616	60	45790
2026-01-27 10:18:10.10	322.05	20.16	-49.0	-51.5	6.1	0.00e+00	0	34	104	32237551616	60	45769
2026-01-27 10:18:13.12	322.62	19.70	-49.0	-51.4	6.1	0.00e+00	0	35	104	32237551616	60	45662
2026-01-27 10:18:16.15	323.18	19.25	-48.9	-51.3	6.1	0.00e+00	0	35	104	32237551616	60	45220
2026-01-27 10:18:19.18	323.72	18.80	-49.0	-51.4	6.1	0.00e+00	0	34	104	32237551616	60	45673
2026-01-27 10:18:22.20	324.25	18.37	-48.8	-51.3	6.1	0.00e+00	0	35	104	32237551616	60	45121
2026-01-27 10:18:25.23	324.75	17.94	-48.9	-51.4	6.1	0.00e+00	0	35	104	32237551616	60	45366
2026-01-27 10:18:28.26	325.25	17.52	-48.9	-51.3	6.1	0.00e+00	0	35	104	32237551616	60	45158
2026-01-27 10:18:31.29	325.72	17.11	-48.9	-51.3	6.1	0.00e+00	0	35	104	32237551616	60	45111
2026-01-27 10:18:34.32	326.19	16.70	-48.8	-51.3	6.1	0.00e+00	0	35	104	32237551616	60	45098
2026-01-27 10:18:37.35	326.63	16.30	-48.9	-51.4	6.1	0.00e+00	0	35	104	32237551616	60	45376
2026-01-27 10:18:40.37	327.07	15.91	-48.8	-51.3	6.1	0.00e+00	0	35	104	32237551616	60	45027
2026-01-27 10:18:43.40	327.49	15.53	-48.8	-51.2	6.0	0.00e+00	0	35	104	32237551616	60	44707
2026-01-27 10:18:46.43	327.90	15.15	-48.7	-51.2	6.1	0.00e+00	0	35	104	32237551616	60	44658
2026-01-27 10:18:49.46	328.30	14.78	-48.9	-51.3	6.1	0.00e+00	0	35	104	32237551616	60	44980
2026-01-27 10:18:52.49	328.69	14.41	-48.8	-51.3	6.1	0.00e+00	0	35	104	32237551616	60	45072
2026-01-27 10:18:55.51	329.07	14.05	-48.8	-51.3	6.1	0.00e+00	0	35	104	32237551616	60	45056
2026-01-27 10:18:58.54	329.43	13.70	-48.8	-51.3	6.1	0.00e+00	0	35	104	32237551616	60	44923
2026-01-27 10:19:01.57	329.79	13.35	-48.8	-51.2	6.1	0.00e+00	0	35	104	32237551616	60	44705
2026-01-27 10:19:04.60	330.14	13.01	-48.8	-51.2	6.1	0.00e+00	0	35	104	32237551616	60	44463
2026-01-27 10:19:07.62	330.48	12.67	-48.8	-51.2	6.1	0.00e+00	0	35	104	32237551616	60	44565
2026-01-27 10:19:10.65	330.81	12.34	-48.7	-51.2	6.1	0.00e+00	0	35	104	32237551616	60	44453
2026-01-27 10:19:13.67	331.13	12.01	-48.7	-51.2	6.1	0.00e+00	0	35	104	32237551616	60	44498
2026-01-27 10:19:16.71	331.44	11.69	-48.7	-51.2	6.1	0.00e+00	0	35	104	32237551616	60	44333
2026-01-27 10:19:19.73	331.75	11.37	-48.6	-51.1	6.1	0.00e+00	0	35	104	32237551616	60	43981
2026-01-27 10:19:22.76	332.05	11.06	-48.7	-51.1	6.1	0.00e+00	0	35	104	32237551616	60	44072
2026-01-27 10:19:25.79	332.34	10.75	-48.6	-51.1	6.1	0.00e+00	0	35	104	32237551616	60	44067
2026-01-27 10:19:28.82	332.62	10.45	-48.6	-51.0	6.1	0.00e+00	0	35	104	32237551616	60	43637
2026-01-27 10:19:31.85	332.90	10.15	-48.4	-50.9	6.1	0.00e+00	0	35	104	32237551616	60	43139
2026-01-27 10:19:34.87	333.17	9.85	-48.5	-51.0	6.1	0.00e+00	0	35	104	32237551616	60	43559
2026-01-27 10:19:37.90	333.43	9.56	-48.4	-50.9	6.1	0.00e+00	0	35	104	32237551616	60	42942
2026-01-27 10:19:40.93	333.69	9.28	-48.5	-51.0	6.1	0.00e+00	0	35	104	32237551616	60	43585
2026-01-27 10:19:43.96	333.94	8.99	-48.4	-50.9	6.1	0.00e+00	0	35	104	32237551616	60	42981
2026-01-27 10:19:46.99	334.19	8.71	-48.4	-50.9	6.1	0.00e+00	0	35	104	32237551616	60	43000
2026-01-27 10:19:50.02	334.43	8.44	-48.4	-50.8	6.1	0.00e+00	0	34	104	32237551616	60	42709
2026-01-27 10:19:53.05	334.67	8.17	-48.5	-51.0	6.1	0.00e+00	0	34	104	32237551616	60	43290
2026-01-27 10:19:56.08	334.90	7.90	-48.3	-50.8	6.1	0.00e+00	0	35	104	32237551616	60	42504
2026-01-27 10:19:59.11	335.13	7.63	-48.4	-50.9	6.1	0.00e+00	0	35	104	32237551616	60	42876
2026-01-27 10:20:02.14	335.35	7.37	-48.2	-50.7	6.1	0.00e+00	0	35	104	32237551616	60	42160
2026-01-27 10:20:05.16	335.57	7.11	-48.3	-50.8	6.1	0.00e+00	0	35	104	32237551616	60	42657
2026-01-27 10:20:08.19	335.78	6.86	-47.9	-50.4	6.1	0.00e+00	0	35	104	32237551616	60	40361
2026-01-27 10:20:11.22	335.99	6.61	-48.2	-50.7	6.1	0.00e+00	0	35	104	32237551616	60	41902
2026-01-27 10:20:14.25	336.19	6.36	-46.5	-49.0	6.1	0.00e+00	0	35	104	32237551616	60	34335
2026-01-27 10:20:17.28	336.40	6.11	-45.4	-47.9	6.1	0.00e+00	0	35	104	32237551616	60	30439
2026-01-27 10:20:20.30	336.59	5.87	-46.7	-49.2	6.1	0.00e+00	0	35	104	32237551616	60	35244
2026-01-27 10:20:23.33	336.78	5.63	-47.1	-49.6	6.1	0.00e+00	0	35	104	32237551616	60	36850
2026-01-27 10:20:26.36	336.97	5.39	-44.4	-46.9	6.1	0.00e+00	0	34	104	32237551616	60	27002
2026-01-27 10:20:29.39	337.16	5.16	-46.5	-49.0	6.0	0.00e+00	0	34	104	32237551616	60	34442
2026-01-27 10:20:32.41	337.34	4.92	-44.3	-46.8	6.1	0.00e+00	0	35	104	32237551616	60	26876
2026-01-27 10:20:35.44	337.52	4.69	-44.2	-46.7	6.1	0.00e+00	0	34	104	32237551616	60	26489
2026-01-27 10:20:38.47	337.70	4.47	-44.3	-46.8	6.1	0.00e+00	0	34	104	32237551616	60	26837
2026-01-27 10:20:41.50	337.87	4.24	-44.2	-46.7	6.1	0.00e+00	0	34	104	32237551616	60	26360
2026-01-27 10:20:44.53	338.04	4.02	-44.3	-46.9	6.1	0.00e+00	0	34	104	32237551616	60	26993
2026-01-27 10:20:47.56	338.21	3.80	-44.3	-46.8	6.1	0.00e+00	0	34	104	32237551616	60	26838
2026-01-27 10:20:50.59	338.37	3.58	-44.3	-46.7	6.1	0.00e+00	0	34	104	32237551616	60	26485
2026-01-27 10:20:53.62	338.53	3.36	-44.3	-46.9	6.1	0.00e+00	0	35	104	32237551616	60	26975
2026-01-27 10:20:56.64	338.69	3.15	-44.4	-46.9	6.1	0.00e+00	0	34	104	32237551616	60	27007
2026-01-27 10:20:59.67	338.84	2.93	-44.3	-46.8	6.1	0.00e+00	0	35	104	32237551616	60	26807
2026-01-27 10:21:02.70	339.00	2.72	-48.7	-51.2	6.1	0.00e+00	0	34	104	32237551616	60	44462
2026-01-27 10:21:05.73	339.15	2.52	-49.1	-51.5	6.1	0.00e+00	0	35	104	32237551616	60	46189
2026-01-27 10:21:08.77	339.30	2.31	-49.1	-51.5	6.1	0.00e+00	0	34	104	32237551616	60	46150
2026-01-27 10:21:11.80	339.44	2.10	-49.1	-51.6	6.1	0.00e+00	0	35	104	32237551616	60	46443
2026-01-27 10:21:14.83	339.59	1.90	-48.9	-51.4	6.1	0.00e+00	0	34	104	32237551616	60	45502
2026-01-27 10:21:17.85	339.73	1.70	-48.9	-51.5	6.1	0.00e+00	0	35	104	32237551616	60	45946
2026-01-27 10:21:20.88	339.87	1.50	-48.0	-50.6	6.1	0.00e+00	0	35	104	32237551616	60	41418
2026-01-27 10:21:23.91	340.00	1.30	-49.0	-51.5	6.1	0.00e+00	0	35	104	32237551616	60	46097
2026-01-27 10:21:26.94	340.14	1.11	-49.1	-51.5	6.1	0.00e+00	0	35	104	32237551616	60	46208
2026-01-27 10:21:29.97	340.27	0.91	-49.0	-51.5	6.1	0.00e+00	0	35	104	32237551616	60	46039
2026-01-27 10:21:33.00	340.40	0.72	-49.0	-51.5	6.1	0.00e+00	0	35	104	32237551616	60	46049
2026-01-27 10:21:36.03	340.53	0.53	-49.0	-51.5	6.1	0.00e+00	0	35	104	32237551616	60	45796
2026-01-27 10:21:39.06	340.66	0.34	-49.0	-51.5	6.1	0.00e+00	0	35	104	32237551616	60	46234
2026-01-27 10:21:42.09	340.78	0.15	-49.0	-51.5	6.1	0.00e+00	0	34	104	32237551616	60	46009
2026-01-27 10:21:45.12	340.91	-0.04	-49.0	-51.5	6.1	0.00e+00	0	35	104	32237551616	60	46107

#Closed at: 2026-01-27 10:21:46
#Recorded file [32237 MB]: D:/lorett/data/35029_260127_221048.dat