passes_logs/2026/01/27/R4.6S_Anadyr/R4.6S_Anadyr__20260127_141941_SUOMI_NPP_rec.log

#Pass ID: 20260127_141941_SUOMI NPP
#Satellite: SUOMI NPP
#Configuration: NPP
#almurnet v.1.7.20251203
#Start time: 2026-01-27 14:19:43

#Version: 2.2.20231116
#Station: R4.6S_Anadyr
#Location: 177.4865 lon 64.73178 lat
#TLE: 1 37849U 11061A   26026.87508736  .00000176  00000+0  10464-3 0  9991
#TLE: 2 37849  98.7822 328.8221 0002127  43.3055 316.8288 14.19530452738397

#Time	Az	El	Level	Level2	SNR	BER	BlckErr	Temp	State	Recorded	gain1	gain2
2026-01-27 14:19:43.50	19.74	0.14	-48.8	-61.4	3.4	1.51e+00	0	30	0	0	60	41226
2026-01-27 14:19:47.54	19.82	0.38	-49.0	-64.1	3.6	1.51e+00	0	31	104	0	60	58182
2026-01-27 14:19:51.58	19.89	0.62	-49.0	-64.2	3.6	1.51e+00	0	31	104	0	60	58400
2026-01-27 14:19:55.62	19.97	0.87	-49.0	-64.2	3.6	1.51e+00	0	32	104	0	60	58345
2026-01-27 14:19:59.66	20.05	1.11	-48.8	-64.0	3.6	1.51e+00	0	32	104	0	60	57076
2026-01-27 14:20:03.70	20.13	1.36	-48.3	-63.5	3.6	1.51e+00	0	32	104	0	60	54096
2026-01-27 14:20:07.74	20.21	1.61	-47.6	-62.5	3.6	1.51e+00	0	32	104	0	60	48204
2026-01-27 14:20:11.78	20.29	1.86	-47.6	-62.7	3.6	1.51e+00	0	32	104	0	60	49326
2026-01-27 14:20:15.82	20.37	2.12	-47.6	-62.7	3.6	1.51e+00	0	32	104	0	60	49592
2026-01-27 14:20:19.86	20.46	2.38	-47.5	-62.0	3.6	1.51e+00	0	32	104	0	60	45359
2026-01-27 14:20:23.90	20.54	2.63	-47.5	-60.7	3.6	1.50e+00	0	32	104	0	60	39349
2026-01-27 14:20:27.94	20.63	2.90	-47.1	-55.5	5.3	8.91e-01	0	32	0	1048576	60	21431
2026-01-27 14:20:31.98	20.71	3.16	-44.0	-46.9	15.0	1.67e-05	0	32	0	8388608	60	7995
2026-01-27 14:20:36.02	20.80	3.43	-41.5	-43.2	18.4	0.00e+00	0	32	0	15728640	56	6571
2026-01-27 14:20:40.05	20.89	3.70	-42.9	-45.1	16.5	0.00e+00	56	32	0	24117248	58	7314
2026-01-27 14:20:44.09	20.98	3.97	-47.4	-61.7	3.6	4.89e-01	0	32	104	30408704	60	44106
2026-01-27 14:20:48.13	21.07	4.24	-43.2	-45.6	16.2	0.00e+00	0	32	0	34603008	58	7689
2026-01-27 14:20:52.17	21.17	4.52	-41.0	-42.5	19.2	0.00e+00	0	32	0	41943040	56	6087
2026-01-27 14:20:56.20	21.26	4.80	-40.9	-42.4	19.2	0.00e+00	0	32	0	49283072	54	6720
2026-01-27 14:21:00.24	21.36	5.08	-40.6	-42.0	19.7	0.00e+00	0	32	0	56623104	54	6425
2026-01-27 14:21:04.27	21.45	5.37	-40.5	-41.9	19.8	0.00e+00	0	32	0	65011712	54	6381
2026-01-27 14:21:08.31	21.55	5.66	-40.0	-41.3	20.4	0.00e+00	82	32	0	72351744	52	6642
2026-01-27 14:21:12.35	21.65	5.95	-39.6	-40.8	20.9	0.00e+00	0	32	0	79691776	52	6307
2026-01-27 14:21:16.38	21.76	6.24	-39.8	-41.1	20.8	0.00e+00	0	32	0	87031808	52	6484
2026-01-27 14:21:20.42	21.86	6.54	-39.6	-40.8	21.0	0.00e+00	0	32	0	95420416	52	6292
2026-01-27 14:21:24.46	21.97	6.85	-39.5	-40.7	21.1	0.00e+00	83	32	0	102760448	52	6186
2026-01-27 14:21:28.49	22.08	7.15	-40.0	-41.2	20.5	0.00e+00	0	32	0	110100480	52	6608
2026-01-27 14:21:32.53	22.19	7.46	-39.4	-40.5	21.3	0.00e+00	0	32	0	117440512	52	6074
2026-01-27 14:21:36.56	22.30	7.77	-39.4	-40.6	21.3	0.00e+00	0	32	0	124780544	52	6139
2026-01-27 14:21:40.60	22.41	8.09	-39.2	-40.4	21.4	0.00e+00	84	32	0	133169152	52	5975
2026-01-27 14:21:44.64	22.53	8.41	-39.0	-40.1	21.7	0.00e+00	0	32	0	140509184	52	5815
2026-01-27 14:21:48.67	22.65	8.74	-38.9	-40.0	21.8	0.00e+00	0	32	0	147849216	50	6448
2026-01-27 14:21:52.71	22.77	9.06	-38.8	-39.9	21.9	0.00e+00	0	32	0	155189248	50	6334
2026-01-27 14:21:56.75	22.89	9.40	-38.8	-39.9	21.9	0.00e+00	0	32	0	162529280	50	6344
2026-01-27 14:22:00.79	23.01	9.74	-38.4	-39.4	22.4	0.00e+00	0	32	0	170917888	50	5981
2026-01-27 14:22:04.83	23.14	10.08	-38.6	-39.6	22.2	0.00e+00	0	32	0	178257920	50	6148
2026-01-27 14:22:08.86	23.27	10.43	-38.5	-39.5	22.3	0.00e+00	83	32	0	185597952	50	6051
2026-01-27 14:22:12.90	23.41	10.78	-38.3	-39.3	22.5	0.00e+00	0	32	0	192937984	50	5930
2026-01-27 14:22:16.94	23.54	11.14	-38.2	-39.2	22.6	0.00e+00	0	32	0	201326592	50	5842
2026-01-27 14:22:20.97	23.68	11.50	-38.1	-39.0	22.8	0.00e+00	0	32	0	208666624	50	5757
2026-01-27 14:22:25.01	23.82	11.87	-38.0	-38.9	22.8	0.00e+00	90	32	0	216006656	50	5687
2026-01-27 14:22:29.05	23.97	12.24	-37.9	-38.9	22.7	0.00e+00	0	32	0	223346688	50	5664
2026-01-27 14:22:33.08	24.12	12.62	-37.8	-38.8	22.8	0.00e+00	0	32	0	230686720	50	5616
2026-01-27 14:22:37.12	24.27	13.00	-38.0	-39.0	22.7	0.00e+00	87	32	0	239075328	50	5712
2026-01-27 14:22:41.16	24.42	13.39	-37.9	-38.9	22.9	0.00e+00	32	32	0	246415360	50	5633
2026-01-27 14:22:45.19	24.58	13.79	-38.0	-39.0	22.8	0.00e+00	0	32	0	253755392	50	5696
2026-01-27 14:22:49.22	24.74	14.19	-37.9	-38.8	23.0	0.00e+00	0	32	0	261095424	50	5619
2026-01-27 14:22:53.26	24.91	14.60	-37.9	-38.8	23.0	0.00e+00	88	32	0	269484032	48	6286
2026-01-27 14:22:57.30	25.08	15.02	-37.7	-38.6	23.1	0.00e+00	0	32	0	276824064	48	6144
2026-01-27 14:23:01.33	25.26	15.44	-37.5	-38.4	23.3	0.00e+00	0	32	0	284164096	48	6022
2026-01-27 14:23:05.37	25.44	15.87	-37.8	-38.8	23.1	0.00e+00	0	32	0	291504128	48	6255
2026-01-27 14:23:09.40	25.62	16.31	-37.7	-38.7	23.2	0.00e+00	82	32	0	298844160	48	6177
2026-01-27 14:23:13.44	25.81	16.76	-37.9	-38.9	23.0	0.00e+00	0	32	0	307232768	48	6350
2026-01-27 14:23:17.48	26.01	17.21	-38.2	-39.1	22.9	0.00e+00	0	32	0	314572800	48	6533
2026-01-27 14:23:21.52	26.21	17.68	-37.7	-38.7	23.2	0.00e+00	0	32	0	321912832	48	6190
2026-01-27 14:23:25.55	26.41	18.15	-38.1	-39.1	23.0	0.00e+00	92	32	0	329252864	48	6490
2026-01-27 14:23:29.58	26.63	18.63	-38.1	-39.0	23.0	0.00e+00	0	32	0	337641472	48	6433
2026-01-27 14:23:33.62	26.84	19.12	-38.2	-39.2	23.0	0.00e+00	0	32	0	344981504	48	6560
2026-01-27 14:23:37.66	27.07	19.62	-38.1	-39.0	23.0	0.00e+00	0	32	0	352321536	48	6463
2026-01-27 14:23:41.70	27.30	20.13	-38.2	-39.2	22.8	0.00e+00	0	32	0	359661568	48	6579
2026-01-27 14:23:45.74	27.54	20.64	-38.2	-39.2	22.8	0.00e+00	0	32	0	367001600	48	6579
2026-01-27 14:23:49.77	27.79	21.17	-38.7	-39.8	22.4	0.00e+00	0	33	0	375390208	50	6267
2026-01-27 14:23:53.81	28.04	21.71	-38.4	-39.4	22.7	0.00e+00	68	32	0	382730240	50	6000
2026-01-27 14:23:57.85	28.31	22.27	-37.8	-38.7	23.2	0.00e+00	0	32	0	390070272	48	6221
2026-01-27 14:24:01.88	28.58	22.83	-37.3	-38.2	23.7	0.00e+00	0	32	0	397410304	48	5835
2026-01-27 14:24:05.92	28.86	23.41	-36.8	-37.7	24.0	0.00e+00	0	32	0	404750336	46	6188
2026-01-27 14:24:09.96	29.15	23.99	-36.1	-36.9	24.6	0.00e+00	91	32	0	413138944	46	5654
2026-01-27 14:24:14.00	29.46	24.60	-36.0	-36.8	24.7	0.00e+00	0	32	0	420478976	46	5588
2026-01-27 14:24:18.04	29.77	25.21	-36.1	-36.9	24.5	0.00e+00	0	33	0	427819008	46	5663
2026-01-27 14:24:22.07	30.10	25.84	-36.2	-37.0	24.4	0.00e+00	65	33	0	435159040	46	5712
2026-01-27 14:24:26.11	30.43	26.48	-36.4	-37.3	24.4	0.00e+00	49	33	0	443547648	46	5918
2026-01-27 14:24:30.15	30.79	27.14	-36.5	-37.4	24.3	0.00e+00	0	32	0	450887680	46	5972
2026-01-27 14:24:34.19	31.15	27.81	-36.7	-37.6	24.2	0.00e+00	0	33	0	458227712	46	6120
2026-01-27 14:24:38.23	31.53	28.50	-36.6	-37.4	24.3	0.00e+00	91	33	0	465567744	46	6007
2026-01-27 14:24:42.26	31.93	29.20	-37.1	-38.0	23.8	0.00e+00	0	32	0	472907776	46	6399
2026-01-27 14:24:46.30	32.34	29.92	-37.4	-38.3	23.6	0.00e+00	0	33	0	481296384	48	5940
2026-01-27 14:24:50.34	32.78	30.66	-38.3	-39.3	22.9	0.00e+00	0	33	0	488636416	48	6632
2026-01-27 14:24:54.38	33.23	31.41	-39.0	-40.0	22.3	0.00e+00	75	32	0	495976448	50	6460
2026-01-27 14:24:58.41	33.70	32.19	-39.5	-40.6	21.9	0.00e+00	0	32	0	503316480	50	6850
2026-01-27 14:25:02.44	34.20	32.98	-40.4	-41.6	20.9	0.00e+00	0	32	0	511705088	52	6896
2026-01-27 14:25:06.48	34.72	33.79	-41.1	-42.5	20.3	0.00e+00	0	32	0	519045120	54	6772
2026-01-27 14:25:10.51	35.26	34.62	-39.8	-40.8	21.6	0.00e+00	92	32	0	526385152	52	6313
2026-01-27 14:25:14.54	35.83	35.46	-39.0	-40.0	22.5	0.00e+00	0	32	0	533725184	52	5699
2026-01-27 14:25:18.58	36.44	36.33	-39.2	-40.2	22.0	0.00e+00	0	33	0	541065216	50	6603
2026-01-27 14:25:22.61	37.07	37.22	-40.6	-41.9	20.6	0.00e+00	73	33	0	549453824	54	6321
2026-01-27 14:25:26.65	37.74	38.13	-41.1	-42.4	20.5	0.00e+00	0	33	0	556793856	54	6743
2026-01-27 14:25:30.68	38.45	39.06	-42.0	-43.6	19.7	0.00e+00	0	33	0	564133888	56	6903
2026-01-27 14:25:34.72	39.20	40.02	-41.4	-42.9	20.1	0.00e+00	0	33	0	571473920	56	6350
2026-01-27 14:25:38.76	40.00	40.99	-40.1	-41.3	21.2	0.00e+00	21	33	0	578813952	52	6679
2026-01-27 14:25:42.79	40.84	41.98	-39.6	-40.8	21.7	0.00e+00	0	32	0	587202560	52	6273
2026-01-27 14:25:46.83	41.74	43.00	-39.7	-40.9	21.4	0.00e+00	0	33	0	594542592	52	6321
2026-01-27 14:25:50.86	42.69	44.03	-39.8	-41.0	21.4	0.00e+00	0	33	0	601882624	52	6438
2026-01-27 14:25:54.91	43.71	45.09	-40.4	-41.7	20.8	0.00e+00	70	32	0	609222656	52	6972
2026-01-27 14:25:58.94	44.80	46.16	-40.5	-41.7	21.0	0.00e+00	0	33	0	617611264	52	6970
2026-01-27 14:26:02.98	45.96	47.24	-38.3	-39.3	23.1	0.00e+00	0	33	0	624951296	50	5902
2026-01-27 14:26:07.02	47.21	48.35	-37.1	-38.0	23.7	0.00e+00	77	33	0	632291328	48	5731
2026-01-27 14:26:11.06	48.55	49.47	-37.9	-38.9	23.1	0.00e+00	49	33	0	639631360	48	6323
2026-01-27 14:26:15.10	49.99	50.59	-36.7	-37.5	24.2	0.00e+00	0	33	0	646971392	46	6096
2026-01-27 14:26:19.13	51.54	51.73	-35.7	-36.6	24.8	0.00e+00	0	33	0	655360000	44	6120
2026-01-27 14:26:23.17	53.22	52.87	-36.1	-37.0	24.5	0.00e+00	92	33	0	662700032	44	6401
2026-01-27 14:26:27.21	55.02	54.01	-34.9	-35.7	25.5	0.00e+00	0	33	0	670040064	42	6198
2026-01-27 14:26:31.24	56.97	55.14	-37.2	-38.1	23.8	0.00e+00	0	33	0	677380096	46	6526
2026-01-27 14:26:35.28	59.09	56.26	-35.4	-36.2	25.1	0.00e+00	0	33	0	685768704	44	5830
2026-01-27 14:26:39.31	61.38	57.37	-35.5	-36.3	25.0	0.00e+00	91	33	0	693108736	44	5937
2026-01-27 14:26:43.35	63.86	58.45	-38.8	-39.9	22.4	0.00e+00	0	32	0	700448768	50	6364
2026-01-27 14:26:47.38	66.54	59.49	-37.0	-37.9	23.8	0.00e+00	0	33	0	707788800	48	5689
2026-01-27 14:26:51.42	69.44	60.50	-38.8	-39.8	22.4	0.00e+00	0	32	0	715128832	48	7068
2026-01-27 14:26:55.46	72.58	61.44	-37.4	-38.3	23.5	0.00e+00	92	32	0	723517440	48	5933
2026-01-27 14:26:59.49	75.95	62.32	-36.5	-37.4	24.4	0.00e+00	0	32	0	730857472	46	5969
2026-01-27 14:27:03.53	79.56	63.13	-35.3	-36.1	25.3	0.00e+00	0	33	0	738197504	44	5791
2026-01-27 14:27:07.57	83.42	63.84	-35.8	-36.5	24.9	0.00e+00	4	33	0	745537536	46	5437
2026-01-27 14:27:11.60	87.48	64.44	-38.1	-39.2	23.1	0.00e+00	51	33	0	752877568	48	6544
2026-01-27 14:27:15.64	91.76	64.93	-38.3	-39.2	23.0	0.00e+00	0	32	0	761266176	48	6600
2026-01-27 14:27:19.68	96.20	65.30	-39.9	-41.1	21.7	0.00e+00	0	33	0	768606208	54	5765
2026-01-27 14:27:23.72	100.76	65.53	-38.6	-39.6	22.5	0.00e+00	91	33	0	775946240	50	6143
2026-01-27 14:27:27.75	105.38	65.62	-38.3	-39.3	22.9	0.00e+00	0	33	0	783286272	50	5899
2026-01-27 14:27:31.78	110.00	65.56	-37.8	-38.8	23.3	0.00e+00	0	32	0	791674880	48	6302
2026-01-27 14:27:35.82	114.59	65.36	-35.8	-36.6	24.7	0.00e+00	0	32	0	799014912	46	5476
2026-01-27 14:27:39.86	119.06	65.03	-36.3	-37.1	24.6	0.00e+00	90	33	0	806354944	44	6526
2026-01-27 14:27:43.90	123.38	64.57	-37.2	-38.1	24.1	0.00e+00	0	33	0	813694976	46	6468
2026-01-27 14:27:47.94	127.51	63.99	-34.9	-35.6	25.6	0.00e+00	0	33	0	821035008	44	5466
2026-01-27 14:27:51.98	131.42	63.30	-37.2	-38.1	23.7	0.00e+00	10	33	0	829423616	46	6497
2026-01-27 14:27:56.01	135.09	62.51	-35.4	-36.2	25.2	0.00e+00	92	33	0	836763648	44	5840
2026-01-27 14:28:00.05	138.52	61.65	-33.6	-34.2	26.4	0.00e+00	0	32	0	844103680	40	5894
2026-01-27 14:28:04.09	141.72	60.71	-34.3	-35.0	25.9	0.00e+00	0	33	0	851443712	42	5713
2026-01-27 14:28:08.13	144.68	59.72	-34.5	-35.2	25.7	0.00e+00	21	33	0	859832320	40	6569
2026-01-27 14:28:12.17	147.42	58.68	-34.7	-35.4	25.7	0.00e+00	0	32	0	867172352	42	6016
2026-01-27 14:28:16.20	149.94	57.60	-34.0	-34.8	25.9	0.00e+00	0	32	0	874512384	42	5571
2026-01-27 14:28:20.24	152.27	56.50	-33.8	-34.5	25.4	0.00e+00	0	32	0	881852416	42	5427
2026-01-27 14:28:24.28	154.43	55.37	-34.8	-35.6	25.5	0.00e+00	92	32	0	889192448	42	6159
2026-01-27 14:28:28.32	156.42	54.24	-35.8	-36.6	24.9	0.00e+00	0	33	0	897581056	44	6153
2026-01-27 14:28:32.36	158.26	53.10	-38.1	-39.0	23.3	0.00e+00	0	32	0	904921088	48	6460
2026-01-27 14:28:36.39	159.96	51.95	-38.4	-39.5	22.7	0.00e+00	0	32	0	912261120	48	6776
2026-01-27 14:28:40.43	161.54	50.81	-38.3	-39.4	22.7	0.00e+00	80	33	0	919601152	48	6711
2026-01-27 14:28:44.47	163.01	49.68	-38.7	-39.7	22.7	0.00e+00	0	32	0	927989760	50	6235
2026-01-27 14:28:48.51	164.37	48.56	-38.7	-39.8	22.4	0.00e+00	0	33	0	935329792	48	7011
2026-01-27 14:28:52.54	165.64	47.45	-35.4	-36.2	25.1	0.00e+00	0	32	0	942669824	44	5843
2026-01-27 14:28:56.57	166.82	46.35	-38.6	-39.7	22.6	0.00e+00	0	33	0	950009856	50	6228
2026-01-27 14:29:00.61	167.92	45.28	-35.2	-35.9	25.2	0.00e+00	0	33	0	957349888	44	5680
2026-01-27 14:29:04.64	168.96	44.22	-41.6	-43.3	19.6	0.00e+00	0	33	0	965738496	56	6657
2026-01-27 14:29:08.68	169.92	43.17	-36.4	-37.2	24.3	0.00e+00	89	33	0	973078528	46	5871
2026-01-27 14:29:12.72	170.84	42.15	-38.5	-39.5	22.7	0.00e+00	0	33	0	980418560	50	6091
2026-01-27 14:29:16.75	171.69	41.15	-35.8	-36.6	24.8	0.00e+00	0	33	0	987758592	44	6117
2026-01-27 14:29:20.79	172.50	40.17	-42.0	-43.7	19.2	0.00e+00	0	32	0	995098624	56	6983
2026-01-27 14:29:24.83	173.26	39.21	-37.8	-38.8	23.3	0.00e+00	92	32	0	1003487232	50	5579
2026-01-27 14:29:28.87	173.97	38.27	-36.9	-37.7	24.1	0.00e+00	0	33	0	1010827264	46	6203
2026-01-27 14:29:32.90	174.65	37.35	-40.3	-41.6	21.3	0.00e+00	1	33	0	1018167296	52	6881
2026-01-27 14:29:36.94	175.30	36.45	-36.7	-37.5	24.2	0.00e+00	1	33	0	1025507328	46	6061
2026-01-27 14:29:40.98	175.91	35.57	-35.8	-36.5	25.0	0.00e+00	92	32	0	1033895936	44	6096
2026-01-27 14:29:45.02	176.49	34.72	-36.8	-37.7	24.2	0.00e+00	0	33	0	1041235968	46	6184
2026-01-27 14:29:49.06	177.04	33.88	-39.2	-40.2	21.9	0.00e+00	0	33	0	1048576000	50	6609
2026-01-27 14:29:53.10	177.56	33.06	-40.9	-42.3	20.4	0.00e+00	9	33	0	1055916032	54	6649
2026-01-27 14:29:57.13	178.06	32.26	-38.6	-39.6	22.8	0.00e+00	33	33	0	1063256064	50	6113
2026-01-27 14:30:01.17	178.54	31.48	-38.1	-39.0	23.2	0.00e+00	0	33	0	1071644672	48	6424
2026-01-27 14:30:05.21	178.99	30.72	-39.6	-40.8	21.7	0.00e+00	0	33	0	1078984704	50	7024
2026-01-27 14:30:09.25	179.43	29.98	-39.3	-40.4	22.1	0.00e+00	88	33	0	1086324736	52	5987
2026-01-27 14:30:13.28	179.85	29.25	-38.8	-39.8	22.4	0.00e+00	0	33	0	1093664768	52	5602
2026-01-27 14:30:17.32	180.25	28.54	-38.8	-39.8	22.4	0.00e+00	0	33	0	1102053376	50	6288
2026-01-27 14:30:21.35	180.63	27.85	-36.8	-37.6	24.0	0.00e+00	0	33	0	1109393408	48	5482
2026-01-27 14:30:25.39	181.00	27.17	-36.8	-37.6	24.0	0.00e+00	92	33	0	1116733440	46	6155
2026-01-27 14:30:29.43	181.35	26.51	-36.3	-37.1	24.4	0.00e+00	0	33	0	1124073472	46	5791
2026-01-27 14:30:33.47	181.69	25.86	-36.3	-37.1	24.6	0.00e+00	0	33	0	1131413504	46	5819
2026-01-27 14:30:37.51	182.02	25.23	-37.1	-37.9	23.9	0.00e+00	65	33	0	1139802112	46	6383
2026-01-27 14:30:41.54	182.33	24.61	-37.5	-38.4	23.6	0.00e+00	38	33	0	1147142144	46	6756
2026-01-27 14:30:45.58	182.63	24.00	-36.9	-37.7	24.1	0.00e+00	0	32	0	1154482176	46	6241
2026-01-27 14:30:49.62	182.93	23.41	-36.2	-37.0	24.5	0.00e+00	0	33	0	1161822208	46	5759
2026-01-27 14:30:53.66	183.21	22.83	-36.0	-36.8	24.6	0.00e+00	0	33	0	1170210816	46	5624
2026-01-27 14:30:57.69	183.48	22.26	-35.7	-36.5	24.9	0.00e+00	0	33	0	1177550848	44	6069
2026-01-27 14:31:01.73	183.74	21.71	-35.9	-36.7	24.7	0.00e+00	0	33	0	1184890880	44	6230
2026-01-27 14:31:05.77	184.00	21.16	-36.7	-37.6	24.0	0.00e+00	0	32	0	1192230912	46	6133
2026-01-27 14:31:09.80	184.25	20.63	-37.1	-38.0	23.8	0.00e+00	51	33	0	1199570944	46	6429
2026-01-27 14:31:13.84	184.49	20.11	-36.7	-37.6	24.0	0.00e+00	0	33	0	1207959552	46	6144
2026-01-27 14:31:17.88	184.72	19.59	-35.9	-36.7	24.7	0.00e+00	0	33	0	1215299584	46	5559
2026-01-27 14:31:21.91	184.94	19.09	-35.7	-36.5	24.8	0.00e+00	0	33	0	1222639616	44	6052
2026-01-27 14:31:25.95	185.16	18.60	-36.0	-36.8	24.5	0.00e+00	73	33	0	1229979648	44	6283
2026-01-27 14:31:29.98	185.37	18.12	-36.4	-37.3	24.3	0.00e+00	0	33	0	1238368256	44	6620
2026-01-27 14:31:34.02	185.58	17.64	-36.5	-37.3	24.2	0.00e+00	0	32	0	1245708288	44	6648
2026-01-27 14:31:38.06	185.77	17.17	-36.3	-37.1	24.3	0.00e+00	0	33	0	1253048320	44	6535
2026-01-27 14:31:42.09	185.97	16.72	-36.6	-37.4	24.3	0.00e+00	0	33	0	1260388352	44	6711
2026-01-27 14:31:46.13	186.16	16.27	-36.6	-37.4	24.0	0.00e+00	0	32	0	1267728384	46	6013
2026-01-27 14:31:50.17	186.34	15.83	-37.2	-38.0	23.6	0.00e+00	0	33	0	1276116992	46	6456
2026-01-27 14:31:54.20	186.52	15.39	-37.6	-38.5	23.2	0.00e+00	82	33	0	1283457024	46	6794
2026-01-27 14:31:58.24	186.69	14.97	-37.7	-38.7	23.2	0.00e+00	0	33	0	1290797056	48	6188
2026-01-27 14:32:02.28	186.86	14.55	-38.2	-39.2	22.8	0.00e+00	0	33	0	1298137088	48	6586
2026-01-27 14:32:06.32	187.03	14.13	-38.9	-40.0	22.1	0.00e+00	0	33	0	1306525696	50	6420
2026-01-27 14:32:10.36	187.19	13.73	-39.4	-40.6	21.7	0.00e+00	71	33	0	1313865728	50	6872
2026-01-27 14:32:14.39	187.35	13.33	-39.8	-41.0	21.1	0.00e+00	0	33	0	1321205760	52	6426
2026-01-27 14:32:18.43	187.50	12.94	-40.2	-41.4	20.8	0.00e+00	0	33	0	1328545792	52	6747
2026-01-27 14:32:22.47	187.65	12.55	-40.2	-41.4	20.9	0.00e+00	65	33	0	1335885824	52	6752
2026-01-27 14:32:26.51	187.80	12.17	-39.8	-40.9	21.4	0.00e+00	6	33	0	1344274432	52	6381
2026-01-27 14:32:30.55	187.94	11.79	-39.3	-40.4	21.8	0.00e+00	0	33	0	1351614464	52	6000
2026-01-27 14:32:34.58	188.08	11.42	-38.8	-39.9	22.2	0.00e+00	0	33	0	1358954496	52	5635
2026-01-27 14:32:38.62	188.21	11.06	-38.6	-39.6	22.4	0.00e+00	26	33	0	1366294528	50	6120
2026-01-27 14:32:42.66	188.35	10.70	-38.2	-39.2	22.7	0.00e+00	0	32	0	1373634560	50	5847
2026-01-27 14:32:46.69	188.48	10.35	-37.8	-38.8	23.0	0.00e+00	0	33	0	1382023168	50	5571
2026-01-27 14:32:50.73	188.61	10.00	-37.7	-38.7	23.1	0.00e+00	0	32	0	1389363200	48	6204
2026-01-27 14:32:54.76	188.73	9.65	-37.7	-38.6	23.1	0.00e+00	92	33	0	1396703232	48	6166
2026-01-27 14:32:58.80	188.85	9.31	-37.8	-38.7	23.0	0.00e+00	0	33	0	1404043264	48	6224
2026-01-27 14:33:02.84	188.98	8.98	-37.8	-38.7	23.0	0.00e+00	0	32	0	1412431872	48	6239
2026-01-27 14:33:06.88	189.09	8.65	-37.6	-38.5	23.1	0.00e+00	0	33	0	1419771904	48	6082
2026-01-27 14:33:10.91	189.21	8.32	-37.7	-38.6	23.1	0.00e+00	84	33	0	1427111936	48	6140
2026-01-27 14:33:14.95	189.32	8.00	-38.0	-39.0	22.7	0.00e+00	0	33	0	1434451968	48	6405
2026-01-27 14:33:18.98	189.43	7.68	-38.0	-39.0	22.7	0.00e+00	0	33	0	1441792000	48	6398
2026-01-27 14:33:23.02	189.54	7.36	-38.4	-39.4	22.4	0.00e+00	58	32	0	1450180608	48	6731
2026-01-27 14:33:27.06	189.65	7.05	-38.4	-39.4	22.3	0.00e+00	0	33	0	1457520640	48	6737
2026-01-27 14:33:31.10	189.75	6.75	-38.4	-39.4	22.3	0.00e+00	0	33	0	1464860672	48	6739
2026-01-27 14:33:35.13	189.86	6.44	-38.7	-39.8	22.0	0.00e+00	33	32	0	1472200704	50	6278
2026-01-27 14:33:39.17	189.96	6.14	-38.8	-39.9	21.9	0.00e+00	92	32	0	1480589312	50	6337
2026-01-27 14:33:43.21	190.06	5.84	-39.0	-40.1	21.5	0.00e+00	0	32	0	1487929344	50	6530
2026-01-27 14:33:47.26	190.16	5.55	-39.6	-40.8	20.9	0.00e+00	0	33	0	1495269376	50	7075
2026-01-27 14:33:51.29	190.25	5.26	-39.7	-41.0	20.8	0.00e+00	0	33	0	1502609408	52	6412
2026-01-27 14:33:55.33	190.35	4.97	-39.4	-40.6	21.1	0.00e+00	76	32	0	1509949440	52	6161
2026-01-27 14:33:59.36	190.44	4.69	-39.8	-41.0	20.6	0.00e+00	0	33	0	1518338048	52	6431
2026-01-27 14:34:03.40	190.53	4.41	-39.9	-41.1	20.4	0.00e+00	0	33	0	1525678080	52	6526
2026-01-27 14:34:07.44	190.62	4.13	-39.7	-41.0	20.5	0.00e+00	72	33	0	1533018112	52	6434
2026-01-27 14:34:11.48	190.71	3.85	-40.2	-41.5	20.0	0.00e+00	31	32	0	1540358144	52	6817
2026-01-27 14:34:15.51	190.79	3.58	-40.0	-41.4	20.0	0.00e+00	0	33	0	1547698176	54	6000
2026-01-27 14:34:19.55	190.88	3.31	-40.5	-42.0	19.4	0.00e+00	0	32	0	1556086784	54	6440
2026-01-27 14:34:23.59	190.96	3.04	-40.9	-42.4	19.0	0.00e+00	72	32	0	1563426816	54	6745
2026-01-27 14:34:27.63	191.05	2.78	-48.5	-63.7	3.6	1.51e+00	0	33	104	1565523968	60	55595
2026-01-27 14:34:31.67	191.13	2.51	-48.9	-64.1	3.6	1.51e+00	0	33	104	1565523968	60	57941
2026-01-27 14:34:35.71	191.21	2.25	-48.9	-64.2	3.6	1.51e+00	0	33	104	1565523968	60	58630
2026-01-27 14:34:39.75	191.29	2.00	-48.8	-64.2	3.6	1.51e+00	0	33	104	1565523968	60	58328
2026-01-27 14:34:43.79	191.37	1.74	-48.9	-64.1	3.6	1.51e+00	0	33	104	1565523968	60	58093
2026-01-27 14:34:47.83	191.44	1.49	-48.9	-64.1	3.6	1.51e+00	0	33	104	1565523968	60	57965
2026-01-27 14:34:51.86	191.52	1.24	-48.9	-64.1	3.6	1.51e+00	0	33	104	1565523968	60	57985
2026-01-27 14:34:55.90	191.60	0.99	-48.9	-64.1	3.6	1.51e+00	0	33	104	1565523968	60	58132
2026-01-27 14:34:59.94	191.67	0.74	-48.9	-64.1	3.6	1.51e+00	0	33	104	1565523968	60	57973
2026-01-27 14:35:03.98	191.74	0.49	-48.9	-64.1	3.6	1.51e+00	0	33	104	1565523968	60	57887
2026-01-27 14:35:08.02	191.81	0.25	-48.9	-64.1	3.6	1.51e+00	0	33	104	1565523968	60	58132
2026-01-27 14:35:12.06	191.89	0.01	-48.9	-64.1	3.6	1.51e+00	0	33	104	1565523968	60	57707

#Closed at: 2026-01-27 14:35:12
#Recorded file [1565 MB]: D:/lorett/data/35029_260128_021943.dat