passes_logs/2026/01/27/R4.6S_Anadyr/R4.6S_Anadyr__20260127_005429_NOAA_20_JPSS-1_rec.log

#Pass ID: 20260127_005429_NOAA 20 (JPSS-1)
#Satellite: NOAA 20 (JPSS-1)
#Configuration: NOAA 20
#almurnet v.1.7.20251203
#Start time: 2026-01-27 00:54:31

#Version: 2.2.20231116
#Station: R4.6S_Anadyr
#Location: 177.4865 lon 64.73178 lat
#TLE: 1 43013U 17073A   26026.46665230  .00000148  00000+0  91302-4 0  9998
#TLE: 2 43013  98.7646 327.2856 0001008  22.9532 337.1688 14.19540616424360

#Time	Az	El	Level	Level2	SNR	BER	BlckErr	Temp	State	Recorded	gain1	gain2
2026-01-27 00:54:31.78	173.57	0.14	-49.2	-64.1	3.5	1.51e+00	0	25	0	0	60	57741
2026-01-27 00:54:35.81	173.67	0.38	-49.2	-64.4	3.6	1.51e+00	0	26	104	0	60	60244
2026-01-27 00:54:39.85	173.77	0.62	-49.2	-64.4	3.6	1.51e+00	0	27	104	0	60	60294
2026-01-27 00:54:43.89	173.87	0.87	-49.2	-64.4	3.6	1.51e+00	0	27	104	0	60	59927
2026-01-27 00:54:47.93	173.97	1.11	-49.1	-64.4	3.6	1.51e+00	0	27	104	0	60	59766
2026-01-27 00:54:51.97	174.07	1.36	-49.0	-64.2	3.6	1.51e+00	0	27	104	0	60	58912
2026-01-27 00:54:56.01	174.18	1.61	-48.4	-63.5	3.6	1.51e+00	0	27	104	0	60	54215
2026-01-27 00:55:00.05	174.28	1.86	-47.9	-62.8	3.6	1.51e+00	0	27	104	0	60	50153
2026-01-27 00:55:04.09	174.39	2.12	-47.9	-63.1	3.6	1.51e+00	0	27	104	0	60	51393
2026-01-27 00:55:08.13	174.50	2.38	-47.9	-63.0	3.6	1.51e+00	0	27	104	0	60	50807
2026-01-27 00:55:12.17	174.61	2.64	-47.8	-62.1	3.6	1.51e+00	0	27	104	0	60	45790
2026-01-27 00:55:16.21	174.73	2.90	-47.9	-62.6	3.6	1.51e+00	0	27	104	0	60	48482
2026-01-27 00:55:20.25	174.84	3.16	-46.5	-51.7	10.1	1.32e-01	0	27	0	2097152	60	13934
2026-01-27 00:55:24.28	174.96	3.43	-42.3	-44.2	17.8	0.00e+00	0	27	0	9437184	58	6540
2026-01-27 00:55:28.32	175.08	3.70	-40.3	-41.6	20.3	0.00e+00	0	27	0	16777216	54	6139
2026-01-27 00:55:32.36	175.20	3.97	-41.0	-42.3	19.9	0.00e+00	0	27	0	25165824	58	5310
2026-01-27 00:55:36.40	175.32	4.24	-41.8	-43.4	18.8	0.00e+00	0	27	0	30408704	56	6753
2026-01-27 00:55:40.44	175.44	4.52	-40.6	-41.9	20.1	0.00e+00	0	27	0	37748736	54	6349
2026-01-27 00:55:44.48	175.57	4.80	-40.7	-42.0	20.1	0.00e+00	0	27	0	45088768	54	6425
2026-01-27 00:55:48.52	175.70	5.08	-40.3	-41.6	20.6	0.00e+00	0	27	0	52428800	54	6135
2026-01-27 00:55:52.56	175.83	5.37	-40.8	-42.2	20.0	0.00e+00	0	27	0	60817408	54	6570
2026-01-27 00:55:56.60	175.96	5.66	-40.7	-42.0	20.1	0.00e+00	0	27	0	68157440	54	6446
2026-01-27 00:56:00.64	176.10	5.95	-40.1	-41.4	21.1	0.00e+00	0	27	0	75497472	54	5969
2026-01-27 00:56:04.67	176.24	6.24	-39.8	-41.0	21.3	0.00e+00	0	27	0	82837504	54	5725
2026-01-27 00:56:08.70	176.38	6.54	-39.7	-40.9	21.4	0.00e+00	0	27	0	91226112	52	6341
2026-01-27 00:56:12.74	176.52	6.84	-39.5	-40.7	21.7	0.00e+00	0	27	0	98566144	52	6181
2026-01-27 00:56:16.78	176.67	7.15	-39.7	-40.9	21.5	0.00e+00	0	27	0	105906176	52	6324
2026-01-27 00:56:20.82	176.82	7.46	-39.4	-40.5	21.9	0.00e+00	0	27	0	113246208	52	6051
2026-01-27 00:56:24.86	176.97	7.77	-39.4	-40.5	21.9	0.00e+00	0	27	0	120586240	52	6073
2026-01-27 00:56:28.89	177.12	8.08	-39.3	-40.4	22.0	0.00e+00	0	28	0	128974848	52	5987
2026-01-27 00:56:32.93	177.28	8.40	-39.1	-40.1	22.3	0.00e+00	0	27	0	136314880	52	5822
2026-01-27 00:56:36.97	177.44	8.73	-39.3	-40.3	22.2	0.00e+00	0	27	0	143654912	52	5947
2026-01-27 00:56:41.01	177.61	9.05	-39.4	-40.4	22.0	0.00e+00	0	27	0	150994944	52	6007
2026-01-27 00:56:45.05	177.78	9.39	-39.0	-40.0	22.4	0.00e+00	0	28	0	159383552	52	5745
2026-01-27 00:56:49.09	177.95	9.72	-38.8	-39.8	22.7	0.00e+00	0	27	0	166723584	52	5610
2026-01-27 00:56:53.13	178.12	10.06	-39.0	-40.0	22.6	0.00e+00	0	27	0	174063616	52	5752
2026-01-27 00:56:57.17	178.30	10.41	-38.8	-39.8	22.7	0.00e+00	0	27	0	181403648	50	6273
2026-01-27 00:57:01.21	178.49	10.76	-38.5	-39.5	23.0	0.00e+00	0	27	0	188743680	50	6062
2026-01-27 00:57:05.25	178.67	11.11	-38.4	-39.4	23.2	0.00e+00	0	27	0	197132288	50	5994
2026-01-27 00:57:09.29	178.87	11.47	-38.3	-39.3	23.2	0.00e+00	0	27	0	204472320	50	5901
2026-01-27 00:57:13.33	179.06	11.84	-38.2	-39.2	23.3	0.00e+00	0	27	0	211812352	50	5836
2026-01-27 00:57:17.37	179.26	12.21	-38.3	-39.2	23.3	0.00e+00	0	27	0	219152384	50	5888
2026-01-27 00:57:21.41	179.47	12.58	-38.3	-39.2	23.4	0.00e+00	0	27	0	227540992	50	5868
2026-01-27 00:57:25.45	179.68	12.97	-38.3	-39.3	23.2	0.00e+00	0	28	0	234881024	50	5900
2026-01-27 00:57:29.48	179.89	13.35	-38.3	-39.3	23.3	0.00e+00	0	28	0	242221056	50	5910
2026-01-27 00:57:33.52	180.11	13.74	-38.3	-39.3	23.3	0.00e+00	0	28	0	249561088	50	5905
2026-01-27 00:57:37.56	180.34	14.14	-38.3	-39.2	23.4	0.00e+00	0	27	0	256901120	50	5892
2026-01-27 00:57:41.60	180.57	14.55	-38.3	-39.2	23.4	0.00e+00	0	28	0	265289728	50	5889
2026-01-27 00:57:45.63	180.81	14.96	-38.2	-39.1	23.6	0.00e+00	0	28	0	272629760	50	5785
2026-01-27 00:57:49.67	181.06	15.38	-37.9	-38.8	23.8	0.00e+00	0	28	0	279969792	50	5614
2026-01-27 00:57:53.71	181.31	15.80	-38.2	-39.1	23.5	0.00e+00	0	28	0	287309824	50	5785
2026-01-27 00:57:57.75	181.57	16.23	-38.1	-39.0	23.6	0.00e+00	0	28	0	295698432	50	5742
2026-01-27 00:58:01.79	181.83	16.67	-38.2	-39.1	23.5	0.00e+00	0	28	0	303038464	50	5812
2026-01-27 00:58:05.83	182.10	17.12	-38.1	-39.0	23.6	0.00e+00	0	27	0	310378496	50	5743
2026-01-27 00:58:09.87	182.38	17.57	-38.0	-38.9	23.8	0.00e+00	0	28	0	317718528	50	5688
2026-01-27 00:58:13.91	182.67	18.04	-37.9	-38.8	23.8	0.00e+00	0	28	0	325058560	50	5607
2026-01-27 00:58:17.95	182.97	18.51	-37.9	-38.8	23.8	0.00e+00	0	28	0	333447168	50	5607
2026-01-27 00:58:21.99	183.28	18.99	-37.8	-38.7	23.9	0.00e+00	0	28	0	340787200	50	5556
2026-01-27 00:58:26.02	183.59	19.47	-37.9	-38.8	23.9	0.00e+00	0	28	0	348127232	50	5594
2026-01-27 00:58:30.06	183.92	19.97	-37.8	-38.7	23.9	0.00e+00	0	28	0	355467264	48	6222
2026-01-27 00:58:34.10	184.25	20.48	-37.3	-38.2	24.4	0.00e+00	0	28	0	363855872	48	5836
2026-01-27 00:58:38.14	184.60	20.99	-37.2	-38.0	24.5	0.00e+00	0	28	0	371195904	48	5752
2026-01-27 00:58:42.17	184.95	21.51	-36.6	-37.4	25.1	0.00e+00	0	28	0	378535936	46	5986
2026-01-27 00:58:46.21	185.32	22.05	-36.4	-37.2	25.2	0.00e+00	0	28	0	385875968	46	5868
2026-01-27 00:58:50.25	185.70	22.59	-36.3	-37.1	25.4	0.00e+00	0	28	0	393216000	46	5795
2026-01-27 00:58:54.29	186.10	23.15	-36.6	-37.3	25.2	0.00e+00	0	28	0	401604608	46	5959
2026-01-27 00:58:58.33	186.51	23.72	-36.5	-37.3	25.1	0.00e+00	0	28	0	408944640	46	5899
2026-01-27 00:59:02.38	186.93	24.30	-36.5	-37.4	25.1	0.00e+00	0	28	0	416284672	46	5973
2026-01-27 00:59:06.41	187.37	24.88	-36.5	-37.3	25.2	0.00e+00	0	28	0	423624704	46	5920
2026-01-27 00:59:10.44	187.82	25.48	-36.4	-37.2	25.3	0.00e+00	0	28	0	432013312	46	5878
2026-01-27 00:59:14.48	188.30	26.10	-36.7	-37.6	25.0	0.00e+00	0	28	0	439353344	46	6113
2026-01-27 00:59:18.52	188.79	26.72	-36.8	-37.6	24.9	0.00e+00	0	28	0	446693376	46	6167
2026-01-27 00:59:22.56	189.30	27.36	-36.9	-37.7	24.8	0.00e+00	0	28	0	454033408	46	6194
2026-01-27 00:59:26.60	189.83	28.01	-37.4	-38.2	24.4	0.00e+00	0	28	0	461373440	46	6603
2026-01-27 00:59:30.63	190.37	28.67	-38.0	-38.9	23.8	0.00e+00	0	28	0	469762048	48	6359
2026-01-27 00:59:34.67	190.95	29.35	-38.6	-39.5	23.4	0.00e+00	0	28	0	477102080	48	6829
2026-01-27 00:59:38.71	191.55	30.04	-39.4	-40.4	22.7	0.00e+00	0	28	0	484442112	50	6722
2026-01-27 00:59:42.75	192.17	30.74	-40.2	-41.3	21.9	0.00e+00	0	28	0	491782144	52	6626
2026-01-27 00:59:46.79	192.82	31.46	-40.5	-41.7	21.4	0.00e+00	0	28	0	500170752	52	6977
2026-01-27 00:59:50.83	193.50	32.19	-40.7	-41.9	21.2	0.00e+00	0	28	0	507510784	54	6319
2026-01-27 00:59:54.87	194.21	32.93	-40.3	-41.5	21.6	0.00e+00	0	28	0	514850816	54	6034
2026-01-27 00:59:58.90	194.95	33.69	-39.8	-40.9	22.2	0.00e+00	0	28	0	522190848	54	5648
2026-01-27 01:00:02.94	195.73	34.46	-39.8	-40.8	22.3	0.00e+00	0	28	0	529530880	52	6269
2026-01-27 01:00:06.98	196.54	35.24	-39.8	-40.9	22.3	0.00e+00	0	28	0	537919488	52	6325
2026-01-27 01:00:11.02	197.39	36.04	-38.8	-39.7	23.2	0.00e+00	0	28	0	545259520	50	6204
2026-01-27 01:00:15.06	198.29	36.85	-38.8	-39.7	23.2	0.00e+00	0	28	0	552599552	50	6239
2026-01-27 01:00:19.10	199.23	37.68	-38.8	-39.7	23.3	0.00e+00	0	28	0	559939584	50	6208
2026-01-27 01:00:23.14	200.22	38.51	-38.9	-39.9	23.1	0.00e+00	0	28	0	567279616	50	6342
2026-01-27 01:00:27.17	201.26	39.35	-38.0	-38.8	24.0	0.00e+00	0	28	0	575668224	50	5612
2026-01-27 01:00:31.21	202.35	40.21	-37.9	-38.8	24.0	0.00e+00	0	28	0	583008256	50	5587
2026-01-27 01:00:35.25	203.51	41.08	-37.3	-38.1	24.6	0.00e+00	0	28	0	590348288	48	5826
2026-01-27 01:00:39.29	204.72	41.95	-38.2	-39.1	23.7	0.00e+00	0	28	0	597688320	48	6532
2026-01-27 01:00:43.32	206.00	42.82	-38.3	-39.2	23.8	0.00e+00	0	28	0	606076928	48	6540
2026-01-27 01:00:47.36	207.36	43.71	-38.8	-39.8	23.2	0.00e+00	0	28	0	613416960	50	6256
2026-01-27 01:00:51.40	208.79	44.59	-39.5	-40.5	22.6	0.00e+00	0	28	0	620756992	50	6827
2026-01-27 01:00:55.44	210.30	45.48	-39.2	-40.1	22.8	0.00e+00	0	28	0	628097024	50	6530
2026-01-27 01:00:59.48	211.90	46.36	-41.0	-42.3	20.9	0.00e+00	0	28	0	635437056	54	6631
2026-01-27 01:01:03.52	213.58	47.23	-41.1	-42.3	20.8	0.00e+00	0	28	0	643825664	54	6663
2026-01-27 01:01:07.56	215.36	48.09	-42.3	-43.8	19.5	0.00e+00	0	28	0	651165696	56	7042
2026-01-27 01:01:11.60	217.25	48.94	-41.1	-42.4	20.8	0.00e+00	0	28	0	658505728	56	5992
2026-01-27 01:01:15.64	219.23	49.78	-40.9	-42.1	21.2	0.00e+00	0	28	0	665845760	56	5768
2026-01-27 01:01:19.68	221.33	50.58	-39.2	-40.2	22.7	0.00e+00	0	28	0	674234368	52	5859
2026-01-27 01:01:23.71	223.53	51.36	-38.5	-39.4	23.6	0.00e+00	0	28	0	681574400	50	6001
2026-01-27 01:01:27.75	225.85	52.11	-37.5	-38.4	24.3	0.00e+00	0	28	0	688914432	48	6003
2026-01-27 01:01:31.79	228.29	52.82	-36.8	-37.6	25.1	0.00e+00	0	28	0	696254464	48	5491
2026-01-27 01:01:35.83	230.84	53.48	-37.4	-38.2	24.5	0.00e+00	0	28	0	703594496	48	5863
2026-01-27 01:01:39.87	233.51	54.09	-37.1	-37.9	24.7	0.00e+00	0	28	0	711983104	48	5642
2026-01-27 01:01:43.91	236.28	54.65	-37.6	-38.4	24.4	0.00e+00	0	28	0	719323136	48	6014
2026-01-27 01:01:47.95	239.16	55.14	-37.3	-38.1	24.6	0.00e+00	0	28	0	726663168	48	5771
2026-01-27 01:01:51.99	242.13	55.56	-38.5	-39.5	23.5	0.00e+00	0	28	0	734003200	48	6774
2026-01-27 01:01:56.02	245.18	55.91	-38.2	-39.1	23.7	0.00e+00	0	28	0	742391808	48	6485
2026-01-27 01:02:00.06	248.30	56.18	-40.5	-41.7	21.4	0.00e+00	0	28	0	749731840	52	6929
2026-01-27 01:02:04.10	251.47	56.36	-40.5	-41.7	21.3	0.00e+00	0	28	0	757071872	52	6986
2026-01-27 01:02:08.14	254.67	56.47	-40.5	-41.7	21.5	0.00e+00	0	28	0	764411904	54	6177
2026-01-27 01:02:12.18	257.89	56.49	-39.4	-40.4	22.6	0.00e+00	0	28	0	771751936	52	5999
2026-01-27 01:02:16.22	261.10	56.42	-38.8	-39.8	23.3	0.00e+00	0	28	0	780140544	50	6275
2026-01-27 01:02:20.25	264.28	56.27	-38.9	-39.9	23.2	0.00e+00	0	28	0	787480576	50	6354
2026-01-27 01:02:24.29	267.42	56.03	-39.1	-40.1	22.8	0.00e+00	0	28	0	794820608	50	6472
2026-01-27 01:02:28.33	270.51	55.72	-39.2	-40.2	22.9	0.00e+00	0	28	0	802160640	50	6548
2026-01-27 01:02:32.37	273.51	55.33	-38.7	-39.6	23.5	0.00e+00	0	28	0	810549248	50	6136
2026-01-27 01:02:36.41	276.42	54.86	-38.5	-39.4	23.6	0.00e+00	0	28	0	817889280	50	6016
2026-01-27 01:02:40.45	279.24	54.34	-38.0	-38.9	24.0	0.00e+00	0	28	0	825229312	50	5677
2026-01-27 01:02:44.49	281.95	53.75	-35.9	-36.6	26.0	0.00e+00	0	28	0	832569344	46	5485
2026-01-27 01:02:48.53	284.55	53.11	-34.5	-35.1	27.0	0.00e+00	0	28	0	839909376	42	5815
2026-01-27 01:02:52.57	287.03	52.42	-35.1	-35.8	26.5	0.00e+00	0	28	0	848297984	42	6278
2026-01-27 01:02:56.61	289.40	51.69	-37.7	-38.6	24.2	0.00e+00	0	28	0	855638016	48	6104
2026-01-27 01:03:00.65	291.65	50.93	-40.8	-42.0	20.9	0.00e+00	0	28	0	862978048	52	7190
2026-01-27 01:03:04.69	293.79	50.13	-40.0	-41.1	22.1	0.00e+00	0	28	0	870318080	54	5766
2026-01-27 01:03:08.73	295.81	49.31	-42.7	-44.3	19.2	0.00e+00	0	28	0	878706688	60	5912
2026-01-27 01:03:12.77	297.74	48.48	-46.2	-49.6	13.7	0.00e+00	0	28	0	886046720	60	10913
2026-01-27 01:03:16.81	299.56	47.62	-40.4	-41.4	21.8	0.00e+00	0	28	0	893386752	54	6028
2026-01-27 01:03:20.84	301.27	46.76	-40.5	-41.7	21.5	0.00e+00	0	28	0	900726784	54	6240
2026-01-27 01:03:24.88	302.90	45.88	-40.6	-41.7	20.8	0.00e+00	0	28	0	908066816	52	7002
2026-01-27 01:03:28.91	304.44	45.00	-39.7	-40.7	22.5	0.00e+00	0	28	0	916455424	52	6187
2026-01-27 01:03:32.94	305.90	44.13	-43.1	-44.8	18.6	0.00e+00	0	28	0	923795456	58	7008
2026-01-27 01:03:36.98	307.29	43.25	-39.7	-40.8	22.2	0.00e+00	0	28	0	931135488	52	6254
2026-01-27 01:03:41.02	308.60	42.37	-43.4	-45.2	18.1	0.00e+00	0	28	0	938475520	58	7414
2026-01-27 01:03:45.07	309.84	41.50	-41.3	-42.5	20.8	0.00e+00	0	28	0	946864128	56	6074
2026-01-27 01:03:49.11	311.02	40.63	-42.6	-44.1	19.3	0.00e+00	0	28	0	954204160	58	6507
2026-01-27 01:03:53.15	312.14	39.78	-40.7	-41.8	21.4	0.00e+00	0	28	0	961544192	54	6314
2026-01-27 01:03:57.19	313.20	38.93	-42.3	-43.7	19.6	0.00e+00	0	28	0	968884224	56	6961
2026-01-27 01:04:01.22	314.21	38.10	-40.1	-41.2	21.9	0.00e+00	0	28	0	976224256	54	5871
2026-01-27 01:04:05.27	315.17	37.27	-41.8	-43.2	20.0	0.00e+00	0	28	0	984612864	54	7343
2026-01-27 01:04:09.31	316.09	36.46	-39.5	-40.5	22.8	0.00e+00	0	28	0	991952896	52	6095
2026-01-27 01:04:13.35	316.96	35.66	-39.8	-40.9	22.2	0.00e+00	0	28	0	999292928	50	7098
2026-01-27 01:04:17.39	317.79	34.87	-40.6	-41.7	21.4	0.00e+00	0	28	0	1006632960	54	6243
2026-01-27 01:04:21.43	318.58	34.10	-39.7	-40.7	22.3	0.00e+00	0	28	0	1015021568	52	6219
2026-01-27 01:04:25.47	319.34	33.34	-43.7	-45.7	17.6	0.00e+00	0	28	0	1022361600	58	7796
2026-01-27 01:04:29.51	320.06	32.59	-40.6	-41.8	21.4	0.00e+00	0	28	0	1029701632	54	6265
2026-01-27 01:04:33.55	320.75	31.86	-39.2	-40.2	22.7	0.00e+00	0	28	0	1037041664	52	5850
2026-01-27 01:04:37.59	321.41	31.14	-41.3	-42.6	20.6	0.00e+00	0	28	0	1044381696	54	6869
2026-01-27 01:04:41.62	322.05	30.43	-41.0	-42.2	21.0	0.00e+00	0	28	0	1052770304	54	6579
2026-01-27 01:04:45.66	322.66	29.74	-39.9	-40.9	22.1	0.00e+00	0	28	0	1060110336	54	5689
2026-01-27 01:04:49.70	323.24	29.06	-39.1	-40.0	22.9	0.00e+00	0	28	0	1067450368	52	5722
2026-01-27 01:04:53.74	323.80	28.40	-39.1	-40.0	22.9	0.00e+00	0	28	0	1074790400	52	5744
2026-01-27 01:04:57.78	324.34	27.75	-40.6	-41.8	21.2	0.00e+00	0	28	0	1083179008	52	7058
2026-01-27 01:05:01.82	324.86	27.11	-39.8	-40.8	22.0	0.00e+00	0	28	0	1090519040	54	5603
2026-01-27 01:05:05.86	325.36	26.48	-38.6	-39.5	23.3	0.00e+00	0	28	0	1097859072	50	6096
2026-01-27 01:05:09.89	325.84	25.86	-39.4	-40.4	22.5	0.00e+00	0	28	0	1105199104	50	6758
2026-01-27 01:05:13.93	326.30	25.26	-39.9	-41.0	22.0	0.00e+00	0	28	0	1112539136	52	6410
2026-01-27 01:05:17.97	326.75	24.67	-39.6	-40.7	22.3	0.00e+00	0	28	0	1120927744	52	6192
2026-01-27 01:05:22.01	327.18	24.09	-39.3	-40.2	22.7	0.00e+00	0	28	0	1128267776	52	5896
2026-01-27 01:05:26.05	327.59	23.52	-39.1	-40.0	22.9	0.00e+00	0	28	0	1135607808	52	5757
2026-01-27 01:05:30.09	327.99	22.96	-38.9	-39.9	23.0	0.00e+00	0	28	0	1142947840	52	5651
2026-01-27 01:05:34.13	328.38	22.42	-39.4	-40.5	22.5	0.00e+00	0	28	0	1151336448	52	6048
2026-01-27 01:05:38.17	328.76	21.88	-39.5	-40.6	22.3	0.00e+00	0	28	0	1158676480	52	6116
2026-01-27 01:05:42.20	329.12	21.35	-39.1	-40.1	22.8	0.00e+00	0	28	0	1166016512	52	5798
2026-01-27 01:05:46.24	329.48	20.84	-38.4	-39.3	23.5	0.00e+00	0	28	0	1173356544	50	5907
2026-01-27 01:05:50.28	329.82	20.33	-38.4	-39.3	23.5	0.00e+00	0	28	0	1180696576	50	5902
2026-01-27 01:05:54.32	330.15	19.83	-39.0	-39.9	22.8	0.00e+00	0	28	0	1189085184	50	6383
2026-01-27 01:05:58.36	330.47	19.34	-39.4	-40.4	22.4	0.00e+00	0	28	0	1196425216	50	6764
2026-01-27 01:06:02.40	330.78	18.86	-39.2	-40.2	22.6	0.00e+00	0	28	0	1203765248	50	6563
2026-01-27 01:06:06.44	331.08	18.39	-38.4	-39.3	23.4	0.00e+00	0	28	0	1211105280	50	5935
2026-01-27 01:06:10.48	331.38	17.92	-37.7	-38.5	23.9	0.00e+00	0	28	0	1219493888	48	6075
2026-01-27 01:06:14.52	331.66	17.47	-37.2	-38.0	24.5	0.00e+00	0	28	0	1226833920	48	5724
2026-01-27 01:06:18.55	331.94	17.02	-37.3	-38.1	24.4	0.00e+00	0	28	0	1234173952	48	5794
2026-01-27 01:06:22.59	332.21	16.58	-37.5	-38.3	23.8	0.00e+00	0	28	0	1241513984	48	5962
2026-01-27 01:06:26.63	332.47	16.15	-38.2	-39.1	23.4	0.00e+00	0	28	0	1248854016	48	6508
2026-01-27 01:06:30.66	332.73	15.72	-38.8	-39.8	22.8	0.00e+00	0	28	0	1257242624	50	6299
2026-01-27 01:06:34.70	332.98	15.30	-39.1	-40.2	22.5	0.00e+00	0	28	0	1264582656	50	6542
2026-01-27 01:06:38.74	333.22	14.89	-39.0	-40.0	22.7	0.00e+00	0	28	0	1271922688	50	6402
2026-01-27 01:06:42.78	333.46	14.48	-38.8	-39.7	22.8	0.00e+00	0	28	0	1279262720	50	6240
2026-01-27 01:06:46.81	333.69	14.08	-38.7	-39.6	22.9	0.00e+00	0	28	0	1287651328	50	6154
2026-01-27 01:06:50.85	333.92	13.69	-38.3	-39.2	23.4	0.00e+00	0	28	0	1294991360	50	5842
2026-01-27 01:06:54.89	334.14	13.30	-38.2	-39.1	23.4	0.00e+00	0	28	0	1302331392	50	5799
2026-01-27 01:06:58.93	334.35	12.92	-38.3	-39.2	23.1	0.00e+00	0	28	0	1309671424	50	5895
2026-01-27 01:07:02.97	334.56	12.54	-38.7	-39.6	22.9	0.00e+00	0	28	0	1317011456	50	6152
2026-01-27 01:07:07.01	334.77	12.17	-38.8	-39.8	22.7	0.00e+00	0	28	0	1325400064	50	6309
2026-01-27 01:07:11.05	334.97	11.81	-39.1	-40.1	22.3	0.00e+00	0	28	0	1332740096	50	6517
2026-01-27 01:07:15.09	335.17	11.45	-39.3	-40.4	22.1	0.00e+00	0	28	0	1340080128	50	6737
2026-01-27 01:07:19.13	335.36	11.09	-39.3	-40.4	22.1	0.00e+00	0	28	0	1347420160	50	6736
2026-01-27 01:07:23.17	335.54	10.74	-39.3	-40.4	22.1	0.00e+00	0	28	0	1355808768	50	6702
2026-01-27 01:07:27.20	335.73	10.39	-39.3	-40.3	22.1	0.00e+00	0	28	0	1363148800	50	6689
2026-01-27 01:07:31.24	335.91	10.05	-39.4	-40.5	22.0	0.00e+00	0	28	0	1370488832	50	6771
2026-01-27 01:07:35.28	336.08	9.72	-39.3	-40.3	22.1	0.00e+00	0	28	0	1377828864	50	6661
2026-01-27 01:07:39.32	336.26	9.38	-39.1	-40.1	22.2	0.00e+00	0	28	0	1385168896	50	6512
2026-01-27 01:07:43.36	336.43	9.05	-39.3	-40.4	21.9	0.00e+00	0	28	0	1393557504	50	6735
2026-01-27 01:07:47.40	336.59	8.73	-39.2	-40.2	22.1	0.00e+00	0	28	0	1400897536	50	6587
2026-01-27 01:07:51.44	336.76	8.41	-39.6	-40.7	21.7	0.00e+00	0	28	0	1408237568	50	6972
2026-01-27 01:07:55.48	336.92	8.09	-39.6	-40.7	21.6	0.00e+00	0	28	0	1415577600	50	6959
2026-01-27 01:07:59.51	337.07	7.78	-39.6	-40.7	21.6	0.00e+00	0	28	0	1423966208	50	6984
2026-01-27 01:08:03.55	337.23	7.47	-39.8	-41.0	21.3	0.00e+00	0	28	0	1431306240	52	6415
2026-01-27 01:08:07.58	337.38	7.17	-40.1	-41.3	21.0	0.00e+00	0	28	0	1438646272	52	6642
2026-01-27 01:08:11.62	337.52	6.86	-40.3	-41.5	20.8	0.00e+00	0	28	0	1445986304	52	6831
2026-01-27 01:08:15.66	337.67	6.57	-40.4	-41.7	20.6	0.00e+00	0	28	0	1453326336	52	6945
2026-01-27 01:08:19.70	337.81	6.27	-40.5	-41.8	20.3	0.00e+00	0	28	0	1461714944	52	7061
2026-01-27 01:08:23.73	337.95	5.98	-40.7	-42.1	20.0	0.00e+00	0	28	0	1469054976	52	7286
2026-01-27 01:08:27.77	338.09	5.69	-41.0	-42.6	19.3	0.00e+00	0	28	0	1476395008	54	6852
2026-01-27 01:08:31.81	338.23	5.40	-41.5	-43.3	18.0	0.00e+00	0	28	0	1483735040	54	7482
2026-01-27 01:08:35.85	338.36	5.12	-42.4	-44.9	16.0	0.00e+00	0	28	0	1492123648	56	8000
2026-01-27 01:08:39.89	338.49	4.84	-43.1	-46.5	13.7	1.50e-06	0	28	0	1499463680	58	8552
2026-01-27 01:08:43.92	338.62	4.56	-43.8	-49.1	9.9	6.77e-03	0	28	0	1506803712	60	10301
2026-01-27 01:08:47.96	338.75	4.29	-44.1	-51.9	5.8	2.64e-01	0	28	0	1514143744	60	14185
2026-01-27 01:08:52.00	338.87	4.02	-44.1	-56.6	3.9	1.49e+00	0	28	104	1520435200	60	24307
2026-01-27 01:08:56.03	339.00	3.75	-44.1	-59.0	3.6	1.51e+00	0	28	104	1520435200	60	32255
2026-01-27 01:09:00.07	339.12	3.48	-44.1	-58.8	3.6	1.51e+00	0	28	104	1520435200	60	31571
2026-01-27 01:09:04.11	339.24	3.22	-44.1	-59.2	3.6	1.51e+00	0	28	104	1520435200	60	33037
2026-01-27 01:09:08.15	339.35	2.96	-44.0	-59.2	3.6	1.51e+00	0	28	104	1520435200	60	33043
2026-01-27 01:09:12.19	339.47	2.70	-48.8	-63.9	3.6	1.51e+00	0	28	104	1520435200	60	56845
2026-01-27 01:09:16.23	339.59	2.44	-49.1	-64.3	3.6	1.51e+00	0	28	104	1520435200	60	59482
2026-01-27 01:09:20.26	339.70	2.19	-49.2	-64.4	3.6	1.51e+00	0	28	104	1520435200	60	60088
2026-01-27 01:09:24.31	339.81	1.93	-49.1	-64.3	3.6	1.51e+00	0	28	104	1520435200	60	59533
2026-01-27 01:09:28.34	339.92	1.68	-49.0	-64.2	3.6	1.51e+00	0	28	104	1520435200	60	58863
2026-01-27 01:09:32.38	340.03	1.43	-49.1	-64.3	3.6	1.51e+00	0	28	104	1520435200	60	59212
2026-01-27 01:09:36.42	340.13	1.19	-49.1	-64.3	3.6	1.51e+00	0	28	104	1520435200	60	59043
2026-01-27 01:09:40.46	340.24	0.94	-49.1	-64.2	3.6	1.51e+00	0	28	104	1520435200	60	58832
2026-01-27 01:09:44.50	340.34	0.70	-49.0	-64.2	3.6	1.51e+00	0	28	104	1520435200	60	58827
2026-01-27 01:09:48.54	340.44	0.46	-49.1	-64.3	3.6	1.51e+00	0	28	104	1520435200	60	58968
2026-01-27 01:09:52.58	340.55	0.22	-49.1	-64.2	3.6	1.51e+00	0	28	104	1520435200	60	58923

#Closed at: 2026-01-27 01:09:56
#Recorded file [1520 MB]: D:/lorett/data/35029_260127_125431.dat