passes_logs/2026/01/27/R4.6S_Anadyr/R4.6S_Anadyr__20260127_003348_SUOMI_NPP_rec.log

#Pass ID: 20260127_003348_SUOMI NPP
#Satellite: SUOMI NPP
#Configuration: NPP
#almurnet v.1.7.20251203
#Start time: 2026-01-27 00:33:49

#Version: 2.2.20231116
#Station: R4.6S_Anadyr
#Location: 177.4865 lon 64.73178 lat
#TLE: 1 37849U 11061A   26026.52266023  .00000173  00000+0  10323-3 0  9994
#TLE: 2 37849  98.7822 328.4727 0002140  43.9411 316.1934 14.19530258738341

#Time	Az	El	Level	Level2	SNR	BER	BlckErr	Temp	State	Recorded	gain1	gain2
2026-01-27 00:33:49.22	162.93	0.06	-49.1	-61.7	3.4	1.52e+00	0	25	0	0	60	42666
2026-01-27 00:33:53.25	162.98	0.30	-49.3	-64.5	3.6	1.51e+00	0	26	104	0	60	60614
2026-01-27 00:33:57.29	163.03	0.54	-49.3	-64.6	3.6	1.51e+00	0	26	104	0	60	61280
2026-01-27 00:34:01.33	163.08	0.79	-49.2	-64.4	3.6	1.51e+00	0	26	104	0	60	60081
2026-01-27 00:34:05.37	163.12	1.04	-48.8	-64.1	3.6	1.51e+00	0	26	104	0	60	58282
2026-01-27 00:34:09.41	163.17	1.29	-47.4	-62.5	3.6	1.51e+00	0	26	104	0	60	48159
2026-01-27 00:34:13.45	163.22	1.55	-47.9	-62.9	3.6	1.51e+00	0	26	104	0	60	50455
2026-01-27 00:34:17.49	163.27	1.80	-47.8	-62.9	3.6	1.51e+00	0	26	104	0	60	50676
2026-01-27 00:34:21.53	163.32	2.06	-47.8	-63.0	3.6	1.51e+00	0	27	104	0	60	51260
2026-01-27 00:34:25.56	163.37	2.32	-47.8	-62.8	3.6	1.51e+00	0	27	104	0	60	49992
2026-01-27 00:34:29.60	163.43	2.58	-47.8	-62.0	3.6	1.51e+00	0	27	104	0	60	45342
2026-01-27 00:34:33.64	163.48	2.85	-47.8	-62.5	3.6	1.51e+00	0	27	104	0	60	48166
2026-01-27 00:34:37.68	163.53	3.12	-46.9	-53.2	7.9	1.45e-01	0	27	0	2097152	60	16511
2026-01-27 00:34:41.72	163.59	3.39	-44.5	-47.4	14.5	4.50e-06	0	27	0	9437184	60	8490
2026-01-27 00:34:45.75	163.64	3.66	-43.2	-45.5	16.4	0.00e+00	0	27	0	16777216	60	6784
2026-01-27 00:34:49.79	163.70	3.93	-44.7	-47.9	12.5	2.85e-03	0	27	0	25165824	60	8966
2026-01-27 00:34:53.83	163.75	4.21	-46.4	-51.6	10.1	2.50e-03	0	27	0	25165824	60	13814
2026-01-27 00:34:57.87	163.81	4.49	-45.5	-49.2	12.9	9.68e-05	0	27	0	33554432	60	10393
2026-01-27 00:35:01.90	163.87	4.78	-44.9	-48.0	14.9	3.80e-06	0	27	0	40894464	60	9094
2026-01-27 00:35:05.94	163.93	5.07	-44.4	-47.1	15.0	0.00e+00	0	27	0	48234496	60	8199
2026-01-27 00:35:09.98	163.99	5.36	-44.0	-46.5	15.6	0.00e+00	0	27	0	55574528	60	7636
2026-01-27 00:35:14.02	164.05	5.65	-42.8	-44.8	17.4	0.00e+00	0	27	0	62914560	60	6273
2026-01-27 00:35:18.06	164.11	5.95	-42.8	-44.7	17.6	0.00e+00	0	27	0	71303168	58	7002
2026-01-27 00:35:22.10	164.18	6.25	-42.5	-44.3	18.1	0.00e+00	0	27	0	78643200	58	6666
2026-01-27 00:35:26.14	164.24	6.55	-41.9	-43.5	18.8	0.00e+00	0	27	0	85983232	58	6079
2026-01-27 00:35:30.18	164.31	6.86	-41.9	-43.4	18.8	0.00e+00	0	27	0	93323264	56	6759
2026-01-27 00:35:34.21	164.37	7.17	-41.5	-43.0	19.4	0.00e+00	0	27	0	101711872	56	6425
2026-01-27 00:35:38.25	164.44	7.49	-41.1	-42.5	19.9	0.00e+00	0	27	0	109051904	56	6047
2026-01-27 00:35:42.28	164.51	7.81	-41.1	-42.6	19.8	0.00e+00	0	27	0	116391936	56	6104
2026-01-27 00:35:46.32	164.58	8.13	-41.2	-42.6	19.8	0.00e+00	0	27	0	123731968	56	6159
2026-01-27 00:35:50.35	164.65	8.46	-40.9	-42.2	20.2	0.00e+00	0	27	0	131072000	56	5875
2026-01-27 00:35:54.39	164.72	8.79	-40.4	-41.6	20.6	0.00e+00	0	27	0	139460608	54	6159
2026-01-27 00:35:58.43	164.80	9.13	-40.4	-41.7	20.6	0.00e+00	0	27	0	146800640	54	6194
2026-01-27 00:36:02.47	164.87	9.47	-39.8	-40.9	21.3	0.00e+00	0	27	0	154140672	52	6356
2026-01-27 00:36:06.51	164.95	9.81	-39.7	-40.8	21.4	0.00e+00	0	27	0	161480704	52	6253
2026-01-27 00:36:10.55	165.03	10.16	-39.4	-40.4	21.7	0.00e+00	0	27	0	169869312	52	6028
2026-01-27 00:36:14.58	165.11	10.52	-39.3	-40.4	21.8	0.00e+00	0	27	0	177209344	52	5972
2026-01-27 00:36:18.62	165.19	10.88	-39.2	-40.3	21.9	0.00e+00	0	27	0	184549376	52	5938
2026-01-27 00:36:22.66	165.27	11.24	-38.8	-39.8	22.4	0.00e+00	0	27	0	191889408	52	5616
2026-01-27 00:36:26.70	165.36	11.62	-38.8	-39.8	22.4	0.00e+00	0	27	0	199229440	50	6264
2026-01-27 00:36:30.74	165.45	11.99	-38.5	-39.5	22.6	0.00e+00	0	27	0	207618048	50	6070
2026-01-27 00:36:34.78	165.53	12.38	-38.4	-39.3	22.8	0.00e+00	0	27	0	214958080	50	5939
2026-01-27 00:36:38.82	165.63	12.77	-38.4	-39.4	22.7	0.00e+00	0	27	0	222298112	50	5984
2026-01-27 00:36:42.85	165.72	13.16	-37.9	-38.8	23.1	0.00e+00	0	27	0	229638144	50	5616
2026-01-27 00:36:46.89	165.81	13.56	-37.7	-38.7	23.2	0.00e+00	0	27	0	238026752	48	6187
2026-01-27 00:36:50.93	165.91	13.97	-37.5	-38.4	23.5	0.00e+00	0	27	0	245366784	48	6021
2026-01-27 00:36:54.90	166.01	14.38	-37.8	-38.7	23.1	0.00e+00	0	27	0	252706816	48	6228
2026-01-27 00:36:58.94	166.11	14.80	-37.6	-38.5	23.5	0.00e+00	0	27	0	261095424	48	6044
2026-01-27 00:37:02.97	166.22	15.23	-37.8	-38.7	23.1	0.00e+00	0	27	0	268435456	48	6244
2026-01-27 00:37:07.01	166.32	15.67	-37.9	-38.8	23.2	0.00e+00	0	27	0	275775488	48	6268
2026-01-27 00:37:11.04	166.44	16.11	-37.4	-38.3	23.7	0.00e+00	0	27	0	283115520	48	5915
2026-01-27 00:37:15.08	166.55	16.57	-37.3	-38.1	23.8	0.00e+00	0	27	0	290455552	48	5825
2026-01-27 00:37:19.11	166.66	17.03	-37.5	-38.3	23.6	0.00e+00	0	27	0	298844160	48	5958
2026-01-27 00:37:23.16	166.78	17.50	-37.7	-38.6	23.5	0.00e+00	0	27	0	306184192	48	6167
2026-01-27 00:37:27.19	166.91	17.98	-37.7	-38.6	23.3	0.00e+00	0	27	0	313524224	48	6143
2026-01-27 00:37:31.23	167.03	18.47	-37.9	-38.8	23.3	0.00e+00	0	27	0	320864256	48	6310
2026-01-27 00:37:35.27	167.16	18.97	-38.1	-39.1	23.0	0.00e+00	0	27	0	328204288	48	6507
2026-01-27 00:37:39.31	167.30	19.48	-38.2	-39.1	23.0	0.00e+00	0	27	0	336592896	48	6535
2026-01-27 00:37:43.35	167.44	20.00	-38.6	-39.6	22.7	0.00e+00	0	27	0	343932928	48	6862
2026-01-27 00:37:47.39	167.58	20.53	-39.0	-40.0	22.2	0.00e+00	0	27	0	351272960	50	6427
2026-01-27 00:37:51.43	167.73	21.08	-39.2	-40.3	22.2	0.00e+00	0	27	0	358612992	50	6627
2026-01-27 00:37:55.47	167.88	21.63	-38.8	-39.8	22.6	0.00e+00	0	27	0	367001600	50	6301
2026-01-27 00:37:59.51	168.04	22.20	-39.2	-40.2	22.2	0.00e+00	0	27	0	374341632	50	6581
2026-01-27 00:38:03.54	168.20	22.78	-39.4	-40.5	22.1	0.00e+00	0	27	0	381681664	50	6808
2026-01-27 00:38:07.58	168.37	23.37	-39.0	-40.0	22.4	0.00e+00	0	27	0	389021696	50	6451
2026-01-27 00:38:11.61	168.54	23.97	-38.9	-39.8	22.6	0.00e+00	0	27	0	396361728	50	6300
2026-01-27 00:38:15.65	168.72	24.60	-38.8	-39.7	22.7	0.00e+00	0	27	0	404750336	50	6231
2026-01-27 00:38:19.69	168.91	25.23	-38.9	-39.9	22.5	0.00e+00	0	27	0	412090368	50	6363
2026-01-27 00:38:23.72	169.10	25.88	-38.4	-39.4	22.9	0.00e+00	0	27	0	419430400	50	5965
2026-01-27 00:38:27.75	169.30	26.54	-38.7	-39.6	22.7	0.00e+00	0	27	0	426770432	50	6164
2026-01-27 00:38:31.79	169.51	27.23	-39.1	-40.1	22.3	0.00e+00	0	27	0	435159040	50	6508
2026-01-27 00:38:35.83	169.73	27.93	-38.6	-39.6	22.8	0.00e+00	0	27	0	442499072	50	6142
2026-01-27 00:38:39.87	169.96	28.65	-39.1	-40.1	22.2	0.00e+00	0	27	0	449839104	50	6515
2026-01-27 00:38:43.91	170.19	29.38	-40.1	-41.3	21.5	0.00e+00	0	27	0	457179136	52	6659
2026-01-27 00:38:47.95	170.44	30.14	-39.6	-40.7	21.9	0.00e+00	0	27	0	464519168	54	5540
2026-01-27 00:38:51.98	170.70	30.91	-40.6	-41.8	20.9	0.00e+00	0	27	0	472907776	54	6290
2026-01-27 00:38:56.02	170.97	31.71	-41.6	-43.0	20.0	0.00e+00	0	27	0	480247808	54	7201
2026-01-27 00:39:00.06	171.26	32.53	-41.2	-42.6	20.4	0.00e+00	0	27	0	487587840	54	6851
2026-01-27 00:39:04.10	171.56	33.37	-41.3	-42.7	20.6	0.00e+00	0	27	0	494927872	54	6963
2026-01-27 00:39:08.14	171.87	34.23	-39.4	-40.4	22.2	0.00e+00	0	27	0	503316480	52	5980
2026-01-27 00:39:12.18	172.20	35.11	-38.7	-39.7	22.7	0.00e+00	0	27	0	510656512	50	6195
2026-01-27 00:39:16.22	172.55	36.03	-38.8	-39.8	22.4	0.00e+00	0	27	0	517996544	50	6285
2026-01-27 00:39:20.26	172.91	36.96	-39.4	-40.5	22.1	0.00e+00	0	27	0	525336576	52	6084
2026-01-27 00:39:24.29	173.30	37.92	-40.1	-41.3	21.4	0.00e+00	0	27	0	532676608	52	6690
2026-01-27 00:39:28.33	173.71	38.91	-40.2	-41.4	21.5	0.00e+00	0	27	0	541065216	52	6715
2026-01-27 00:39:32.37	174.15	39.93	-39.2	-40.2	22.3	0.00e+00	0	27	0	548405248	52	5857
2026-01-27 00:39:36.41	174.61	40.97	-38.6	-39.6	22.6	0.00e+00	0	27	0	555745280	50	6125
2026-01-27 00:39:40.44	175.11	42.04	-40.6	-41.9	20.9	0.00e+00	0	27	0	563085312	52	7111
2026-01-27 00:39:44.49	175.63	43.15	-40.4	-41.7	21.1	0.00e+00	0	27	0	571473920	54	6213
2026-01-27 00:39:48.53	176.20	44.28	-40.6	-41.9	20.8	0.00e+00	0	27	0	578813952	52	7097
2026-01-27 00:39:52.57	176.80	45.45	-40.1	-41.3	21.1	0.00e+00	0	27	0	586153984	54	5932
2026-01-27 00:39:56.61	177.46	46.64	-41.3	-42.6	20.2	0.00e+00	0	27	0	593494016	54	6902
2026-01-27 00:40:00.65	178.16	47.87	-41.7	-43.1	20.3	0.00e+00	0	27	0	600834048	56	6528
2026-01-27 00:40:04.68	178.91	49.12	-39.2	-40.3	22.4	0.00e+00	0	27	0	609222656	52	5928
2026-01-27 00:40:08.72	179.74	50.41	-37.3	-38.2	23.8	0.00e+00	0	27	0	616562688	48	5896
2026-01-27 00:40:12.76	180.63	51.73	-35.7	-36.4	24.9	0.00e+00	0	27	0	623902720	44	6021
2026-01-27 00:40:16.79	181.61	53.08	-35.9	-36.6	24.9	0.00e+00	0	27	0	631242752	44	6165
2026-01-27 00:40:20.83	182.68	54.45	-35.4	-36.2	25.3	0.00e+00	0	27	0	639631360	44	5829
2026-01-27 00:40:24.87	183.86	55.85	-34.8	-35.5	25.7	0.00e+00	0	27	0	646971392	42	6074
2026-01-27 00:40:28.91	185.16	57.28	-35.5	-36.3	25.1	0.00e+00	0	27	0	654311424	42	6645
2026-01-27 00:40:32.95	186.61	58.73	-35.1	-35.8	25.4	0.00e+00	0	27	0	661651456	44	5628
2026-01-27 00:40:36.98	188.22	60.19	-36.1	-36.9	24.8	0.00e+00	0	27	0	668991488	46	5685
2026-01-27 00:40:41.02	190.02	61.66	-34.6	-35.4	25.6	0.00e+00	0	27	0	677380096	42	5987
2026-01-27 00:40:45.06	192.06	63.14	-34.4	-35.1	25.9	0.00e+00	0	28	0	684720128	42	5795
2026-01-27 00:40:49.10	194.36	64.62	-34.4	-35.1	25.8	0.00e+00	0	27	0	692060160	42	5810
2026-01-27 00:40:53.14	196.98	66.09	-36.2	-37.1	24.6	0.00e+00	0	27	0	699400192	44	6465
2026-01-27 00:40:57.18	199.97	67.53	-37.4	-38.2	23.8	0.00e+00	0	27	0	707788800	46	6613
2026-01-27 00:41:01.22	203.40	68.93	-39.2	-40.2	22.2	0.00e+00	0	27	0	715128832	50	6604
2026-01-27 00:41:05.25	207.33	70.27	-40.0	-41.1	21.7	0.00e+00	0	27	0	722468864	52	6497
2026-01-27 00:41:09.29	211.87	71.53	-40.7	-41.9	20.7	0.00e+00	0	27	0	729808896	54	6367
2026-01-27 00:41:13.33	217.07	72.67	-38.2	-39.1	23.2	0.00e+00	0	27	0	737148928	50	5791
2026-01-27 00:41:17.37	223.00	73.68	-38.2	-39.1	23.2	0.00e+00	0	27	0	745537536	48	6518
2026-01-27 00:41:21.41	229.66	74.50	-38.4	-39.4	22.8	0.00e+00	0	27	0	752877568	48	6721
2026-01-27 00:41:25.45	236.99	75.10	-37.4	-38.3	23.8	0.00e+00	0	27	0	760217600	48	5937
2026-01-27 00:41:29.49	244.83	75.46	-40.6	-41.9	20.8	0.00e+00	0	27	0	767557632	54	6352
2026-01-27 00:41:33.53	252.91	75.54	-37.1	-37.9	24.0	0.00e+00	0	27	0	775946240	48	5647
2026-01-27 00:41:37.57	260.93	75.35	-38.2	-39.1	23.3	0.00e+00	0	27	0	783286272	48	6473
2026-01-27 00:41:41.61	268.59	74.89	-39.9	-41.0	21.9	0.00e+00	0	27	0	790626304	52	6449
2026-01-27 00:41:45.65	275.67	74.20	-38.0	-38.9	23.6	0.00e+00	0	27	0	797966336	50	5674
2026-01-27 00:41:49.68	282.03	73.31	-39.1	-40.1	22.6	0.00e+00	0	27	0	805306368	52	5788
2026-01-27 00:41:53.72	287.67	72.24	-38.9	-39.9	22.5	0.00e+00	0	27	0	813694976	50	6346
2026-01-27 00:41:57.76	292.60	71.05	-40.6	-41.8	21.0	0.00e+00	0	27	0	821035008	54	6315
2026-01-27 00:42:01.80	296.89	69.76	-38.5	-39.4	23.0	0.00e+00	0	27	0	828375040	50	6004
2026-01-27 00:42:05.84	300.62	68.40	-40.3	-41.5	21.3	0.00e+00	0	27	0	835715072	54	6045
2026-01-27 00:42:09.87	303.86	66.98	-40.5	-41.8	20.9	0.00e+00	0	27	0	844103680	54	6302
2026-01-27 00:42:13.91	306.70	65.53	-37.6	-38.5	23.6	0.00e+00	0	27	0	851443712	48	6102
2026-01-27 00:42:17.95	309.18	64.07	-35.3	-36.0	25.4	0.00e+00	0	27	0	858783744	44	5734
2026-01-27 00:42:21.99	311.37	62.59	-34.4	-35.2	25.9	0.00e+00	0	27	0	866123776	40	6557
2026-01-27 00:42:26.02	313.31	61.12	-36.1	-36.9	24.9	0.00e+00	0	27	0	873463808	46	5639
2026-01-27 00:42:30.06	315.03	59.65	-36.1	-36.9	24.4	0.00e+00	0	27	0	881852416	44	6383
2026-01-27 00:42:34.10	316.58	58.20	-34.9	-35.7	25.6	0.00e+00	0	27	0	889192448	42	6176
2026-01-27 00:42:38.14	317.96	56.76	-35.7	-36.4	25.0	0.00e+00	0	27	0	896532480	44	6027
2026-01-27 00:42:42.17	319.21	55.35	-36.0	-36.9	24.7	0.00e+00	0	27	0	903872512	44	6339
2026-01-27 00:42:46.21	320.35	53.97	-37.0	-37.9	24.1	0.00e+00	0	27	0	911212544	46	6337
2026-01-27 00:42:50.25	321.38	52.61	-37.4	-38.4	23.6	0.00e+00	0	27	0	919601152	46	6721
2026-01-27 00:42:54.30	322.33	51.27	-36.6	-37.5	24.4	0.00e+00	0	27	0	926941184	46	6039
2026-01-27 00:42:58.33	323.20	49.97	-38.9	-40.0	22.5	0.00e+00	0	27	0	934281216	50	6459
2026-01-27 00:43:02.37	323.99	48.70	-38.2	-39.1	23.3	0.00e+00	0	27	0	941621248	50	5801
2026-01-27 00:43:06.41	324.73	47.46	-41.2	-42.8	20.2	0.00e+00	0	27	0	950009856	52	7886
2026-01-27 00:43:10.44	325.41	46.25	-38.9	-39.9	22.6	0.00e+00	0	27	0	957349888	52	5680
2026-01-27 00:43:14.48	326.04	45.07	-40.3	-41.5	21.1	0.00e+00	0	27	0	964689920	52	6818
2026-01-27 00:43:18.52	326.63	43.92	-39.8	-40.9	21.9	0.00e+00	0	27	0	972029952	52	6336
2026-01-27 00:43:22.56	327.18	42.81	-38.6	-39.6	22.8	0.00e+00	0	28	0	979369984	50	6108
2026-01-27 00:43:26.60	327.70	41.72	-38.9	-39.9	22.5	0.00e+00	0	28	0	987758592	48	7136
2026-01-27 00:43:30.64	328.18	40.66	-38.5	-39.5	23.1	0.00e+00	0	27	0	995098624	50	6077
2026-01-27 00:43:34.68	328.63	39.63	-36.1	-36.9	24.9	0.00e+00	0	27	0	1002438656	46	5652
2026-01-27 00:43:38.71	329.06	38.63	-38.7	-39.7	22.7	0.00e+00	0	27	0	1009778688	50	6210
2026-01-27 00:43:42.75	329.46	37.65	-38.4	-39.4	23.0	0.00e+00	0	27	0	1018167296	50	6000
2026-01-27 00:43:46.79	329.84	36.70	-36.7	-37.6	24.6	0.00e+00	0	27	0	1025507328	46	6107
2026-01-27 00:43:50.84	330.21	35.78	-37.9	-38.8	23.5	0.00e+00	0	27	0	1032847360	48	6265
2026-01-27 00:43:54.87	330.55	34.88	-40.2	-41.4	21.4	0.00e+00	0	27	0	1040187392	52	6725
2026-01-27 00:43:58.91	330.87	34.01	-41.6	-43.1	20.0	0.00e+00	0	27	0	1047527424	56	6521
2026-01-27 00:44:02.95	331.18	33.16	-39.0	-40.0	22.5	0.00e+00	0	27	0	1055916032	52	5753
2026-01-27 00:44:06.99	331.48	32.33	-38.1	-39.0	23.5	0.00e+00	0	27	0	1063256064	50	5756
2026-01-27 00:44:11.02	331.76	31.53	-39.1	-40.1	22.4	0.00e+00	0	27	0	1070596096	50	6467
2026-01-27 00:44:15.06	332.02	30.74	-40.0	-41.1	21.6	0.00e+00	0	27	0	1077936128	54	5807
2026-01-27 00:44:19.10	332.28	29.97	-39.7	-40.8	21.9	0.00e+00	0	27	0	1086324736	52	6316
2026-01-27 00:44:23.13	332.52	29.23	-39.0	-40.0	22.4	0.00e+00	0	27	0	1093664768	52	5747
2026-01-27 00:44:27.17	332.76	28.50	-38.5	-39.4	23.0	0.00e+00	0	27	0	1101004800	50	6027
2026-01-27 00:44:31.20	332.98	27.80	-38.2	-39.1	23.1	0.00e+00	0	27	0	1108344832	50	5828
2026-01-27 00:44:35.25	333.20	27.10	-37.9	-38.8	23.4	0.00e+00	0	27	0	1115684864	48	6280
2026-01-27 00:44:39.28	333.41	26.43	-37.6	-38.5	23.6	0.00e+00	0	27	0	1124073472	48	6094
2026-01-27 00:44:43.32	333.61	25.77	-38.8	-39.9	22.6	0.00e+00	0	28	0	1131413504	50	6334
2026-01-27 00:44:47.37	333.80	25.13	-38.5	-39.5	22.8	0.00e+00	0	27	0	1138753536	50	6079
2026-01-27 00:44:51.40	333.99	24.50	-37.2	-38.1	24.0	0.00e+00	0	27	0	1146093568	48	5793
2026-01-27 00:44:55.44	334.17	23.89	-36.9	-37.8	24.1	0.00e+00	0	27	0	1154482176	46	6263
2026-01-27 00:44:59.49	334.34	23.29	-36.7	-37.5	24.1	0.00e+00	0	27	0	1161822208	46	6089
2026-01-27 00:45:03.52	334.51	22.70	-36.7	-37.5	24.1	0.00e+00	0	27	0	1169162240	46	6081
2026-01-27 00:45:07.56	334.67	22.13	-37.1	-38.0	23.9	0.00e+00	0	27	0	1176502272	46	6430
2026-01-27 00:45:11.60	334.83	21.57	-37.8	-38.8	23.4	0.00e+00	0	27	0	1183842304	46	7025
2026-01-27 00:45:15.64	334.98	21.02	-37.3	-38.2	23.7	0.00e+00	0	27	0	1192230912	48	5874
2026-01-27 00:45:19.67	335.13	20.49	-36.6	-37.4	24.2	0.00e+00	0	28	0	1199570944	46	6014
2026-01-27 00:45:23.70	335.27	19.96	-36.3	-37.1	24.5	0.00e+00	0	27	0	1206910976	46	5784
2026-01-27 00:45:27.74	335.41	19.45	-36.2	-37.0	24.6	0.00e+00	0	28	0	1214251008	46	5709
2026-01-27 00:45:31.78	335.54	18.94	-36.3	-37.1	24.4	0.00e+00	0	27	0	1222639616	46	5776
2026-01-27 00:45:35.82	335.68	18.45	-36.3	-37.1	24.3	0.00e+00	0	27	0	1229979648	46	5825
2026-01-27 00:45:39.86	335.80	17.96	-36.7	-37.6	23.9	0.00e+00	0	28	0	1237319680	46	6115
2026-01-27 00:45:43.90	335.93	17.49	-37.5	-38.3	23.6	0.00e+00	0	28	0	1244659712	46	6680
2026-01-27 00:45:47.94	336.05	17.02	-37.7	-38.6	23.4	0.00e+00	0	27	0	1251999744	48	6110
2026-01-27 00:45:51.98	336.17	16.56	-38.1	-39.0	23.0	0.00e+00	0	27	0	1260388352	48	6455
2026-01-27 00:45:56.02	336.28	16.11	-38.1	-39.0	22.7	0.00e+00	0	28	0	1267728384	48	6433
2026-01-27 00:46:00.05	336.39	15.67	-37.9	-38.8	23.1	0.00e+00	0	28	0	1275068416	48	6261
2026-01-27 00:46:04.09	336.50	15.24	-38.0	-38.9	23.1	0.00e+00	0	28	0	1282408448	48	6353
2026-01-27 00:46:08.13	336.61	14.81	-38.0	-38.9	23.0	0.00e+00	0	28	0	1290797056	48	6389
2026-01-27 00:46:12.17	336.71	14.39	-38.3	-39.3	22.7	0.00e+00	0	27	0	1298137088	48	6618
2026-01-27 00:46:16.21	336.81	13.98	-38.6	-39.7	22.4	0.00e+00	0	28	0	1305477120	48	6942
2026-01-27 00:46:20.24	336.91	13.58	-39.0	-40.1	22.0	0.00e+00	0	27	0	1312817152	50	6537
2026-01-27 00:46:24.27	337.01	13.18	-39.6	-40.7	21.6	0.00e+00	0	27	0	1320157184	50	6993
2026-01-27 00:46:28.31	337.10	12.79	-39.5	-40.6	21.6	0.00e+00	0	27	0	1328545792	52	6160
2026-01-27 00:46:32.35	337.20	12.40	-39.5	-40.7	21.6	0.00e+00	0	27	0	1335885824	52	6183
2026-01-27 00:46:36.39	337.29	12.02	-39.6	-40.8	21.5	0.00e+00	0	27	0	1343225856	52	6254
2026-01-27 00:46:40.43	337.38	11.65	-39.6	-40.8	21.4	0.00e+00	0	28	0	1350565888	52	6277
2026-01-27 00:46:44.47	337.47	11.28	-38.9	-39.9	22.2	0.00e+00	0	28	0	1357905920	52	5683
2026-01-27 00:46:48.51	337.55	10.92	-38.8	-39.8	22.1	0.00e+00	0	28	0	1366294528	50	6314
2026-01-27 00:46:52.55	337.64	10.56	-38.8	-39.8	22.2	0.00e+00	0	28	0	1373634560	50	6282
2026-01-27 00:46:56.58	337.72	10.21	-38.4	-39.4	22.5	0.00e+00	0	28	0	1380974592	50	5972
2026-01-27 00:47:00.62	337.80	9.86	-38.3	-39.3	22.6	0.00e+00	0	28	0	1388314624	50	5907
2026-01-27 00:47:04.66	337.88	9.52	-38.5	-39.5	22.4	0.00e+00	0	28	0	1396703232	50	6052
2026-01-27 00:47:08.70	337.96	9.18	-38.3	-39.3	22.5	0.00e+00	0	28	0	1404043264	50	5899
2026-01-27 00:47:12.73	338.03	8.85	-38.1	-39.1	22.8	0.00e+00	0	28	0	1411383296	50	5777
2026-01-27 00:47:16.77	338.11	8.52	-38.0	-39.0	22.8	0.00e+00	0	28	0	1418723328	50	5726
2026-01-27 00:47:20.82	338.18	8.19	-38.2	-39.2	22.6	0.00e+00	0	28	0	1426063360	50	5861
2026-01-27 00:47:24.85	338.26	7.87	-38.1	-39.0	22.5	0.00e+00	0	28	0	1434451968	50	5758
2026-01-27 00:47:28.89	338.33	7.55	-38.2	-39.2	22.6	0.00e+00	0	28	0	1441792000	50	5849
2026-01-27 00:47:32.93	338.40	7.24	-38.1	-39.1	22.4	0.00e+00	0	27	0	1449132032	50	5795
2026-01-27 00:47:36.96	338.47	6.93	-38.4	-39.4	22.2	0.00e+00	0	28	0	1456472064	50	6021
2026-01-27 00:47:41.00	338.54	6.62	-38.6	-39.6	22.1	0.00e+00	0	27	0	1464860672	50	6157
2026-01-27 00:47:45.05	338.60	6.32	-38.5	-39.6	22.2	0.00e+00	0	28	0	1472200704	50	6123
2026-01-27 00:47:49.08	338.67	6.02	-38.8	-39.9	21.8	0.00e+00	0	28	0	1479540736	50	6344
2026-01-27 00:47:53.12	338.74	5.73	-39.0	-40.2	21.4	0.00e+00	0	28	0	1486880768	50	6552
2026-01-27 00:47:57.16	338.80	5.44	-39.6	-40.9	20.5	0.00e+00	0	27	0	1494220800	50	7145
2026-01-27 00:48:01.20	338.86	5.15	-40.7	-42.4	18.6	0.00e+00	0	28	0	1502609408	52	7540
2026-01-27 00:48:05.24	338.93	4.86	-42.1	-44.9	15.4	0.00e+00	0	28	0	1509949440	56	7960
2026-01-27 00:48:09.28	338.99	4.58	-43.2	-47.7	11.4	2.75e-04	0	28	0	1517289472	58	9809
2026-01-27 00:48:13.31	339.05	4.30	-44.0	-51.1	7.2	1.05e-01	0	28	0	1524629504	60	12925
2026-01-27 00:48:17.34	339.11	4.02	-44.1	-53.9	4.2	8.49e-01	0	28	0	1533018112	60	17934
2026-01-27 00:48:21.38	339.17	3.75	-44.2	-57.9	3.6	1.51e+00	0	28	104	1534066688	60	28338
2026-01-27 00:48:25.42	339.23	3.48	-44.3	-59.5	3.6	1.51e+00	0	28	104	1534066688	60	34222
2026-01-27 00:48:29.46	339.29	3.21	-44.2	-59.3	3.6	1.51e+00	0	28	104	1534066688	60	33456
2026-01-27 00:48:33.50	339.34	2.94	-46.2	-61.5	3.6	1.51e+00	0	28	104	1534066688	60	42742
2026-01-27 00:48:37.54	339.40	2.68	-49.0	-64.3	3.6	1.51e+00	0	28	104	1534066688	60	58979
2026-01-27 00:48:41.58	339.46	2.42	-49.3	-64.5	3.6	1.51e+00	0	28	104	1534066688	60	60516
2026-01-27 00:48:45.62	339.51	2.16	-49.3	-64.5	3.6	1.51e+00	0	28	104	1534066688	60	60571
2026-01-27 00:48:49.65	339.57	1.90	-49.2	-64.4	3.6	1.51e+00	0	28	104	1534066688	60	60047
2026-01-27 00:48:53.70	339.62	1.65	-49.2	-64.4	3.6	1.51e+00	0	28	104	1534066688	60	60060
2026-01-27 00:48:57.74	339.67	1.40	-49.2	-64.4	3.6	1.51e+00	0	28	104	1534066688	60	60151
2026-01-27 00:49:01.78	339.73	1.15	-49.1	-64.3	3.6	1.51e+00	0	28	104	1534066688	60	59629
2026-01-27 00:49:05.82	339.78	0.90	-49.2	-64.4	3.6	1.51e+00	0	28	104	1534066688	60	59929
2026-01-27 00:49:09.85	339.83	0.65	-49.2	-64.4	3.6	1.51e+00	0	28	104	1534066688	60	60060
2026-01-27 00:49:13.89	339.88	0.41	-49.2	-64.4	3.6	1.51e+00	0	28	104	1534066688	60	59767
2026-01-27 00:49:17.93	339.93	0.17	-49.2	-64.4	3.6	1.51e+00	0	28	104	1534066688	60	59932

#Closed at: 2026-01-27 00:49:21
#Recorded file [1534 MB]: D:/lorett/data/35029_260127_123349.dat