passes_logs/2026/01/27/R4.6S_Anadyr/R4.6S_Anadyr__20260127_183709_FENGYUN_3D_rec.log

#Pass ID: 20260127_183709_FENGYUN 3D
#Satellite: FENGYUN 3D
#Configuration: FENGYUN 3D
#almurnet v.1.7.20251203
#Start time: 2026-01-27 18:37:10

#Version: 2.2.20231116
#Station: R4.6S_Anadyr
#Location: 177.4865 lon 64.73178 lat
#TLE: 1 43010U 17072A   26026.91415486  .00000072  00000+0  55983-4 0  9991
#TLE: 2 43010  98.9962 358.9161 0002508  89.0320 271.1142 14.19700283424949

#Time	Az	El	Level	Level2	SNR	BER	BlckErr	Temp	State	Recorded	gain1	gain2
2026-01-27 18:37:10.36	27.08	0.03	-48.9	-66.6	3.4	3.02e+01	0	30	0	0	60	82692
2026-01-27 18:37:14.39	26.91	0.26	-48.6	-60.7	3.6	8.46e-01	0	31	104	0	60	39329
2026-01-27 18:37:18.43	26.74	0.49	-48.6	-60.8	3.6	8.44e-01	0	31	104	0	60	39626
2026-01-27 18:37:22.48	26.57	0.73	-48.7	-60.8	3.6	8.44e-01	0	31	104	0	60	39569
2026-01-27 18:37:26.51	26.40	0.96	-48.4	-60.6	3.6	8.46e-01	0	31	104	0	60	38666
2026-01-27 18:37:30.55	26.22	1.20	-48.0	-60.1	3.6	8.44e-01	0	31	104	0	60	36405
2026-01-27 18:37:34.59	26.04	1.43	-47.3	-59.4	3.6	8.45e-01	0	31	104	0	60	33675
2026-01-27 18:37:38.63	25.86	1.67	-47.1	-59.2	3.6	8.45e-01	0	31	104	0	60	33090
2026-01-27 18:37:42.67	25.67	1.91	-47.1	-59.1	3.6	8.46e-01	0	31	104	0	60	32714
2026-01-27 18:37:46.71	25.49	2.16	-47.1	-59.1	3.6	8.46e-01	0	31	104	0	60	32702
2026-01-27 18:37:50.75	25.29	2.40	-47.1	-59.1	3.6	8.45e-01	0	31	104	0	60	32716
2026-01-27 18:37:54.79	25.10	2.65	-47.0	-58.6	3.6	8.45e-01	0	32	104	0	60	30652
2026-01-27 18:37:58.83	24.90	2.89	-47.0	-58.4	3.6	8.45e-01	0	32	104	0	60	30100
2026-01-27 18:38:02.87	24.69	3.14	-45.0	-48.7	9.0	1.20e-01	0	32	0	5242880	60	9870
2026-01-27 18:38:06.91	24.48	3.40	-39.7	-40.9	17.4	0.00e+00	0	32	0	28311552	52	6376
2026-01-27 18:38:10.94	24.27	3.65	-47.0	-58.4	3.6	1.35e-01	0	32	104	37748736	60	29967
2026-01-27 18:38:14.98	24.06	3.90	-39.1	-40.3	18.1	0.00e+00	0	32	0	50331648	52	5898
2026-01-27 18:38:19.02	23.84	4.16	-37.0	-37.9	20.4	0.00e+00	0	32	0	73400320	48	5644
2026-01-27 18:38:23.06	23.62	4.42	-35.4	-36.2	22.0	0.00e+00	0	32	0	95420416	44	5885
2026-01-27 18:38:27.10	23.39	4.68	-35.2	-36.0	22.2	0.00e+00	0	32	0	118489088	44	5748
2026-01-27 18:38:31.15	23.15	4.95	-35.1	-35.9	22.5	0.00e+00	0	32	0	141557760	42	6348
2026-01-27 18:38:35.18	22.92	5.21	-35.3	-36.1	22.4	0.00e+00	0	32	0	163577856	42	6508
2026-01-27 18:38:39.22	22.68	5.48	-35.6	-36.4	22.3	0.00e+00	0	32	0	186646528	42	6706
2026-01-27 18:38:43.26	22.43	5.75	-35.1	-35.9	22.7	0.00e+00	0	32	0	209715200	42	6357
2026-01-27 18:38:47.30	22.18	6.02	-35.4	-36.2	22.4	0.00e+00	0	32	0	231735296	42	6559
2026-01-27 18:38:51.33	21.92	6.30	-34.8	-35.5	23.2	0.00e+00	0	32	0	254803968	42	6060
2026-01-27 18:38:55.37	21.66	6.58	-34.4	-35.2	23.4	0.00e+00	0	32	0	277872640	42	5830
2026-01-27 18:38:59.41	21.39	6.86	-34.3	-35.0	23.6	0.00e+00	0	32	0	299892736	42	5716
2026-01-27 18:39:03.45	21.12	7.14	-34.2	-34.9	23.7	0.00e+00	0	32	0	322961408	42	5689
2026-01-27 18:39:07.49	20.84	7.42	-34.0	-34.7	23.9	0.00e+00	0	32	0	346030080	42	5522
2026-01-27 18:39:11.53	20.56	7.71	-33.9	-34.6	24.1	0.00e+00	0	32	0	368050176	42	5460
2026-01-27 18:39:15.57	20.27	8.00	-33.9	-34.6	24.0	0.00e+00	0	32	0	391118848	42	5491
2026-01-27 18:39:19.61	19.97	8.29	-34.2	-34.9	23.8	0.00e+00	0	32	0	414187520	42	5650
2026-01-27 18:39:23.65	19.67	8.59	-34.2	-34.9	23.8	0.00e+00	0	32	0	436207616	42	5640
2026-01-27 18:39:27.69	19.36	8.89	-33.9	-34.6	24.1	0.00e+00	0	32	0	459276288	42	5484
2026-01-27 18:39:31.73	19.05	9.19	-34.1	-34.8	23.9	0.00e+00	0	32	0	482344960	40	6258
2026-01-27 18:39:35.77	18.72	9.49	-33.7	-34.4	24.4	0.00e+00	0	32	0	504365056	40	5996
2026-01-27 18:39:39.81	18.39	9.80	-33.4	-34.1	24.6	0.00e+00	0	32	0	527433728	40	5778
2026-01-27 18:39:43.85	18.06	10.10	-33.3	-34.0	24.8	0.00e+00	0	32	0	550502400	40	5716
2026-01-27 18:39:47.88	17.71	10.42	-33.3	-34.0	24.8	0.00e+00	0	32	0	572522496	40	5701
2026-01-27 18:39:51.92	17.36	10.73	-33.2	-33.9	24.7	0.00e+00	0	32	0	595591168	40	5659
2026-01-27 18:39:55.96	17.00	11.05	-33.2	-33.9	24.9	0.00e+00	0	32	0	618659840	40	5639
2026-01-27 18:40:00.00	16.63	11.37	-32.8	-33.5	25.2	0.00e+00	0	32	0	640679936	40	5408
2026-01-27 18:40:04.04	16.25	11.69	-32.7	-33.4	25.3	0.00e+00	0	32	0	663748608	38	6000
2026-01-27 18:40:08.08	15.87	12.02	-32.8	-33.5	25.3	0.00e+00	0	32	0	686817280	38	6076
2026-01-27 18:40:12.12	15.47	12.35	-33.0	-33.7	25.1	0.00e+00	0	32	0	708837376	38	6201
2026-01-27 18:40:16.16	15.07	12.68	-33.0	-33.7	25.2	0.00e+00	0	32	0	731906048	38	6201
2026-01-27 18:40:20.19	14.65	13.02	-32.5	-33.2	25.6	0.00e+00	0	32	0	754974720	38	5834
2026-01-27 18:40:24.23	14.23	13.35	-32.8	-33.5	25.3	0.00e+00	0	32	0	776994816	38	6048
2026-01-27 18:40:28.27	13.80	13.70	-32.5	-33.1	25.6	0.00e+00	0	32	0	800063488	38	5817
2026-01-27 18:40:32.31	13.35	14.04	-32.3	-33.0	25.7	0.00e+00	0	32	0	823132160	38	5722
2026-01-27 18:40:36.35	12.90	14.39	-32.1	-32.8	25.9	0.00e+00	0	32	0	845152256	38	5589
2026-01-27 18:40:40.39	12.43	14.74	-32.0	-32.6	26.0	0.00e+00	0	32	0	868220928	38	5485
2026-01-27 18:40:44.42	11.95	15.10	-32.0	-32.7	26.1	0.00e+00	0	32	0	891289600	38	5516
2026-01-27 18:40:48.46	11.46	15.45	-32.0	-32.6	26.1	0.00e+00	0	32	0	913309696	38	5492
2026-01-27 18:40:52.50	10.96	15.81	-32.0	-32.7	26.1	0.00e+00	0	32	0	936378368	38	5552
2026-01-27 18:40:56.55	10.44	16.18	-31.8	-32.5	26.2	0.00e+00	0	32	0	959447040	36	6065
2026-01-27 18:41:00.59	9.91	16.55	-31.7	-32.3	26.4	0.00e+00	0	32	0	981467136	36	5959
2026-01-27 18:41:04.63	9.37	16.92	-31.6	-32.3	26.5	0.00e+00	0	32	0	1004535808	36	5899
2026-01-27 18:41:08.66	8.82	17.29	-31.3	-31.9	26.7	0.00e+00	0	32	0	1027604480	36	5675
2026-01-27 18:41:12.70	8.25	17.66	-31.3	-31.9	26.8	0.00e+00	0	32	0	1049624576	36	5667
2026-01-27 18:41:16.74	7.66	18.04	-31.2	-31.8	26.9	0.00e+00	0	32	0	1072693248	36	5625
2026-01-27 18:41:20.77	7.07	18.42	-31.0	-31.6	27.0	0.00e+00	0	32	0	1095761920	36	5462
2026-01-27 18:41:24.82	6.45	18.81	-31.0	-31.6	27.1	0.00e+00	0	32	0	1117782016	36	5453
2026-01-27 18:41:28.85	5.82	19.19	-31.1	-31.7	26.9	0.00e+00	0	32	0	1140850688	36	5525
2026-01-27 18:41:32.89	5.17	19.58	-31.2	-31.9	26.8	0.00e+00	0	32	0	1163919360	36	5642
2026-01-27 18:41:36.93	4.51	19.97	-30.6	-31.3	27.4	0.00e+00	0	32	0	1185939456	34	5897
2026-01-27 18:41:40.96	3.83	20.36	-30.4	-31.1	27.6	0.00e+00	0	32	0	1209008128	34	5779
2026-01-27 18:41:45.00	3.12	20.76	-30.6	-31.2	27.5	0.00e+00	0	32	0	1232076800	34	5883
2026-01-27 18:41:49.04	2.41	21.15	-30.7	-31.3	27.3	0.00e+00	0	32	0	1254096896	34	5961
2026-01-27 18:41:53.08	1.67	21.55	-30.7	-31.3	27.3	0.00e+00	0	32	0	1277165568	34	5961
2026-01-27 18:41:57.12	0.91	21.95	-30.3	-30.8	27.6	0.00e+00	0	32	0	1300234240	34	5626
2026-01-27 18:42:01.16	0.13	22.34	-30.3	-30.9	27.6	0.00e+00	0	32	0	1322254336	34	5673
2026-01-27 18:42:05.20	359.33	22.74	-30.4	-31.0	27.5	0.00e+00	0	32	0	1345323008	34	5723
2026-01-27 18:42:09.23	358.52	23.14	-30.1	-30.7	27.8	0.00e+00	0	32	0	1368391680	34	5506
2026-01-27 18:42:13.28	357.67	23.54	-30.1	-30.7	27.8	0.00e+00	0	32	0	1390411776	34	5563
2026-01-27 18:42:17.32	356.81	23.94	-30.3	-30.9	27.7	0.00e+00	0	32	0	1413480448	34	5648
2026-01-27 18:42:21.36	355.92	24.33	-30.0	-30.6	27.9	0.00e+00	0	32	0	1436549120	34	5495
2026-01-27 18:42:25.40	355.02	24.73	-29.7	-30.3	28.1	0.00e+00	0	32	0	1458569216	32	5909
2026-01-27 18:42:29.44	354.08	25.12	-29.6	-30.2	28.3	0.00e+00	0	32	0	1481637888	32	5866
2026-01-27 18:42:33.48	353.13	25.51	-29.6	-30.2	28.2	0.00e+00	0	32	0	1504706560	32	5844
2026-01-27 18:42:37.52	352.15	25.90	-29.5	-30.1	28.3	0.00e+00	0	32	0	1526726656	32	5815
2026-01-27 18:42:41.55	351.15	26.28	-29.4	-29.9	28.3	0.00e+00	0	32	0	1549795328	32	5695
2026-01-27 18:42:45.59	350.12	26.66	-29.6	-30.2	28.3	0.00e+00	0	32	0	1572864000	32	5851
2026-01-27 18:42:49.63	349.07	27.03	-29.6	-30.2	28.2	0.00e+00	0	32	0	1594884096	32	5850
2026-01-27 18:42:53.66	347.99	27.40	-29.4	-30.0	28.3	0.00e+00	0	32	0	1617952768	32	5703
2026-01-27 18:42:57.70	346.89	27.76	-29.4	-30.0	28.2	0.00e+00	0	32	0	1641021440	32	5735
2026-01-27 18:43:01.74	345.76	28.11	-29.5	-30.1	28.3	0.00e+00	0	32	0	1663041536	32	5804
2026-01-27 18:43:05.78	344.61	28.46	-29.1	-29.7	28.6	0.00e+00	0	32	0	1686110208	32	5519
2026-01-27 18:43:09.82	343.43	28.79	-29.3	-29.9	28.4	0.00e+00	0	32	0	1708130304	32	5654
2026-01-27 18:43:13.86	342.22	29.12	-29.4	-30.0	28.3	0.00e+00	0	32	0	1731198976	32	5733
2026-01-27 18:43:17.90	341.00	29.43	-29.3	-29.9	28.4	0.00e+00	0	32	0	1754267648	32	5663
2026-01-27 18:43:21.93	339.75	29.73	-29.4	-30.0	28.3	0.00e+00	0	32	0	1777336320	32	5728
2026-01-27 18:43:25.97	338.47	30.02	-29.4	-30.0	28.3	0.00e+00	0	32	0	1799356416	32	5740
2026-01-27 18:43:30.00	337.18	30.30	-29.1	-29.7	28.6	0.00e+00	0	32	0	1822425088	32	5524
2026-01-27 18:43:34.04	335.86	30.56	-29.1	-29.7	28.6	0.00e+00	0	32	0	1845493760	32	5513
2026-01-27 18:43:38.08	334.51	30.81	-28.9	-29.5	28.8	0.00e+00	0	32	0	1867513856	32	5417
2026-01-27 18:43:42.13	333.15	31.04	-29.3	-29.9	28.5	0.00e+00	0	32	0	1890582528	32	5631
2026-01-27 18:43:46.16	331.77	31.26	-29.0	-29.6	28.7	0.00e+00	0	32	0	1912602624	32	5484
2026-01-27 18:43:50.20	330.37	31.45	-29.0	-29.6	28.7	0.00e+00	0	32	0	1935671296	32	5467
2026-01-27 18:43:54.23	328.96	31.63	-28.9	-29.5	28.8	0.00e+00	0	32	0	1958739968	32	5406
2026-01-27 18:43:58.28	327.53	31.79	-29.3	-29.9	28.5	0.00e+00	0	32	0	1981808640	32	5683
2026-01-27 18:44:02.31	326.09	31.93	-28.9	-29.5	28.8	0.00e+00	0	32	0	2003828736	30	6043
2026-01-27 18:44:06.35	324.63	32.05	-28.9	-29.5	28.8	0.00e+00	0	32	0	2026897408	30	6102
2026-01-27 18:44:10.39	323.16	32.15	-28.8	-29.4	28.8	0.00e+00	0	32	0	2049966080	30	5988
2026-01-27 18:44:14.43	321.69	32.23	-28.5	-29.1	29.1	0.00e+00	0	32	0	2071986176	30	5799
2026-01-27 18:44:18.47	320.21	32.29	-29.1	-29.6	28.7	0.00e+00	0	32	0	2095054848	30	6156
2026-01-27 18:44:22.51	318.73	32.32	-29.0	-29.6	28.8	0.00e+00	0	32	0	2117074944	30	6131
2026-01-27 18:44:26.56	317.24	32.33	-28.7	-29.3	29.0	0.00e+00	0	32	0	2140143616	30	5953
2026-01-27 18:44:30.59	315.75	32.33	-29.0	-29.6	28.7	0.00e+00	0	32	0	2163212288	30	6127
2026-01-27 18:44:34.63	314.27	32.30	-29.3	-29.9	28.2	0.00e+00	0	32	0	2186280960	30	6362
2026-01-27 18:44:38.67	312.78	32.24	-29.1	-29.7	28.5	0.00e+00	0	32	0	2208301056	30	6190
2026-01-27 18:44:42.70	311.31	32.17	-28.9	-29.5	28.8	0.00e+00	0	32	0	2231369728	30	6045
2026-01-27 18:44:46.75	309.84	32.08	-28.4	-28.9	29.1	0.00e+00	0	32	0	2254438400	30	5683
2026-01-27 18:44:50.79	308.38	31.96	-28.8	-29.4	28.8	0.00e+00	0	32	0	2276458496	30	6027
2026-01-27 18:44:54.82	306.94	31.82	-29.3	-29.9	28.5	0.00e+00	0	32	0	2299527168	30	6351
2026-01-27 18:44:58.86	305.50	31.67	-29.1	-29.7	28.7	0.00e+00	0	32	0	2321547264	30	6176
2026-01-27 18:45:02.90	304.08	31.49	-28.8	-29.5	28.9	0.00e+00	0	32	0	2344615936	30	6068
2026-01-27 18:45:06.94	302.68	31.30	-28.9	-29.4	28.8	0.00e+00	0	32	0	2367684608	30	5993
2026-01-27 18:45:10.98	301.29	31.09	-29.0	-29.6	28.6	0.00e+00	0	32	0	2390753280	30	6124
2026-01-27 18:45:15.02	299.92	30.86	-28.9	-29.4	28.7	0.00e+00	0	32	0	2412773376	30	6017
2026-01-27 18:45:19.06	298.57	30.62	-28.6	-29.3	29.0	0.00e+00	0	32	0	2435842048	30	5914
2026-01-27 18:45:23.10	297.25	30.36	-29.1	-29.6	28.6	0.00e+00	0	32	0	2458910720	30	6164
2026-01-27 18:45:27.14	295.94	30.08	-29.1	-29.8	28.5	0.00e+00	0	32	0	2480930816	30	6263
2026-01-27 18:45:31.18	294.66	29.79	-29.6	-30.2	28.3	0.00e+00	0	32	0	2503999488	30	6544
2026-01-27 18:45:35.22	293.40	29.49	-29.2	-29.9	28.5	0.00e+00	0	32	0	2526019584	32	5655
2026-01-27 18:45:39.26	292.16	29.18	-29.2	-29.8	28.5	0.00e+00	0	32	0	2549088256	32	5612
2026-01-27 18:45:43.30	290.95	28.86	-29.2	-29.9	28.6	0.00e+00	0	32	0	2572156928	32	5648
2026-01-27 18:45:47.34	289.76	28.52	-29.0	-29.6	28.7	0.00e+00	0	32	0	2595225600	32	5449
2026-01-27 18:45:51.38	288.60	28.18	-29.2	-29.7	28.5	0.00e+00	0	32	0	2617245696	32	5534
2026-01-27 18:45:55.41	287.47	27.83	-29.3	-29.8	28.4	0.00e+00	0	32	0	2640314368	32	5611
2026-01-27 18:45:59.45	286.36	27.47	-29.5	-30.1	28.4	0.00e+00	0	32	0	2663383040	32	5799
2026-01-27 18:46:03.49	285.27	27.10	-29.5	-30.1	28.3	0.00e+00	0	32	0	2685403136	32	5764
2026-01-27 18:46:07.52	284.21	26.73	-29.7	-30.3	28.1	0.00e+00	0	32	0	2708471808	32	5938
2026-01-27 18:46:11.56	283.17	26.35	-29.7	-30.2	27.9	0.00e+00	0	32	0	2730491904	32	5848
2026-01-27 18:46:15.60	282.16	25.97	-29.6	-30.3	28.0	0.00e+00	0	32	0	2753560576	32	5949
2026-01-27 18:46:19.64	281.18	25.58	-29.9	-30.4	27.8	0.00e+00	0	32	0	2776629248	32	6007
2026-01-27 18:46:23.68	280.21	25.19	-29.7	-30.2	27.6	0.00e+00	0	32	0	2799697920	32	5882
2026-01-27 18:46:27.72	279.27	24.80	-29.5	-30.2	27.9	0.00e+00	0	32	0	2821718016	32	5843
2026-01-27 18:46:31.75	278.36	24.40	-29.8	-30.3	27.7	0.00e+00	0	32	0	2844786688	32	5951
2026-01-27 18:46:35.79	277.47	24.01	-29.8	-30.4	27.8	0.00e+00	0	32	0	2867855360	32	6032
2026-01-27 18:46:39.83	276.60	23.61	-30.1	-30.7	27.7	0.00e+00	0	32	0	2889875456	32	6207
2026-01-27 18:46:43.87	275.75	23.21	-30.2	-30.8	27.6	0.00e+00	0	32	0	2912944128	32	6307
2026-01-27 18:46:47.91	274.92	22.81	-30.0	-30.6	27.6	0.00e+00	0	32	0	2934964224	32	6120
2026-01-27 18:46:51.95	274.11	22.41	-30.2	-30.9	27.5	0.00e+00	0	32	0	2958032896	32	6371
2026-01-27 18:46:55.98	273.33	22.01	-30.3	-30.8	27.4	0.00e+00	0	32	0	2981101568	32	6311
2026-01-27 18:47:00.02	272.57	21.61	-30.2	-30.8	27.4	0.00e+00	0	32	0	3004170240	32	6259
2026-01-27 18:47:04.06	271.82	21.21	-30.2	-30.7	27.5	0.00e+00	0	32	0	3026190336	32	6212
2026-01-27 18:47:08.10	271.10	20.82	-30.0	-30.6	27.7	0.00e+00	0	32	0	3049259008	32	6121
2026-01-27 18:47:12.14	270.39	20.42	-30.0	-30.6	27.7	0.00e+00	0	32	0	3072327680	32	6105
2026-01-27 18:47:16.17	269.70	20.03	-30.5	-31.0	27.4	0.00e+00	0	32	0	3094347776	32	6437
2026-01-27 18:47:20.21	269.03	19.63	-30.6	-31.1	27.2	0.00e+00	0	32	0	3117416448	32	6516
2026-01-27 18:47:24.25	268.37	19.24	-30.6	-31.3	27.2	0.00e+00	0	32	0	3139436544	32	6660
2026-01-27 18:47:28.28	267.74	18.86	-30.9	-31.4	27.0	0.00e+00	0	32	0	3162505216	34	6018
2026-01-27 18:47:32.32	267.12	18.47	-30.8	-31.4	27.0	0.00e+00	0	32	0	3185573888	34	5986
2026-01-27 18:47:36.36	266.51	18.09	-30.9	-31.6	26.9	0.00e+00	0	32	0	3207593984	34	6158
2026-01-27 18:47:40.40	265.92	17.71	-31.1	-31.7	26.8	0.00e+00	0	32	0	3230662656	34	6221
2026-01-27 18:47:44.44	265.35	17.33	-31.1	-31.8	26.8	0.00e+00	0	32	0	3253731328	34	6273
2026-01-27 18:47:48.47	264.79	16.96	-31.2	-31.9	26.8	0.00e+00	0	32	0	3276800000	34	6370
2026-01-27 18:47:52.52	264.24	16.59	-31.6	-32.2	26.5	0.00e+00	0	32	0	3298820096	36	5843
2026-01-27 18:47:56.56	263.70	16.22	-31.5	-32.2	26.4	0.00e+00	0	32	0	3321888768	36	5870
2026-01-27 18:48:00.60	263.18	15.85	-31.7	-32.4	26.2	0.00e+00	0	32	0	3343908864	36	6033
2026-01-27 18:48:04.64	262.67	15.49	-32.0	-32.6	26.1	0.00e+00	0	32	0	3366977536	36	6144
2026-01-27 18:48:08.68	262.18	15.13	-31.9	-32.4	26.2	0.00e+00	0	32	0	3390046208	36	6028
2026-01-27 18:48:12.71	261.70	14.77	-31.9	-32.7	26.0	0.00e+00	0	32	0	3412066304	36	6175
2026-01-27 18:48:16.76	261.22	14.42	-32.0	-32.6	26.0	0.00e+00	0	32	0	3435134976	36	6158
2026-01-27 18:48:20.80	260.76	14.07	-32.4	-33.0	25.7	0.00e+00	0	32	0	3458203648	36	6417
2026-01-27 18:48:24.84	260.31	13.72	-32.4	-32.9	25.7	0.00e+00	0	32	0	3480223744	36	6383
2026-01-27 18:48:28.87	259.88	13.38	-32.6	-33.3	25.5	0.00e+00	0	32	0	3503292416	36	6678
2026-01-27 18:48:32.91	259.45	13.04	-32.7	-33.2	25.4	0.00e+00	0	32	0	3526361088	38	5890
2026-01-27 18:48:36.95	259.03	12.70	-32.7	-33.3	25.4	0.00e+00	0	32	0	3548381184	38	5904
2026-01-27 18:48:40.98	258.62	12.37	-32.7	-33.5	25.3	0.00e+00	0	32	0	3571449856	38	6043
2026-01-27 18:48:45.02	258.22	12.04	-32.9	-33.5	25.2	0.00e+00	0	32	0	3594518528	38	6050
2026-01-27 18:48:49.06	257.83	11.71	-32.9	-33.5	25.1	0.00e+00	0	32	0	3616538624	38	6055
2026-01-27 18:48:53.10	257.45	11.39	-32.9	-33.6	25.2	0.00e+00	0	32	0	3639607296	38	6152
2026-01-27 18:48:57.14	257.08	11.06	-33.0	-33.7	25.0	0.00e+00	0	32	0	3662675968	38	6245
2026-01-27 18:49:01.18	256.71	10.74	-33.1	-33.7	25.0	0.00e+00	0	32	0	3684696064	38	6197
2026-01-27 18:49:05.22	256.35	10.43	-33.2	-33.9	24.8	0.00e+00	0	32	0	3707764736	38	6318
2026-01-27 18:49:09.27	256.00	10.11	-33.2	-33.8	24.8	0.00e+00	0	32	0	3730833408	38	6308
2026-01-27 18:49:13.30	255.66	9.81	-33.4	-34.1	24.6	0.00e+00	0	32	0	3752853504	38	6508
2026-01-27 18:49:17.34	255.33	9.50	-33.4	-34.0	24.6	0.00e+00	0	32	0	3775922176	40	5757
2026-01-27 18:49:21.38	255.00	9.19	-33.6	-34.3	24.3	0.00e+00	0	32	0	3798990848	40	5907
2026-01-27 18:49:25.42	254.68	8.89	-33.8	-34.4	24.2	0.00e+00	0	32	0	3822059520	40	6004
2026-01-27 18:49:29.46	254.37	8.59	-34.1	-34.7	23.9	0.00e+00	0	32	0	3844079616	40	6224
2026-01-27 18:49:33.50	254.06	8.30	-34.1	-34.8	24.0	0.00e+00	0	32	0	3867148288	40	6258
2026-01-27 18:49:37.54	253.76	8.00	-33.7	-34.4	24.1	0.00e+00	0	32	0	3889168384	40	5978
2026-01-27 18:49:41.58	253.47	7.71	-33.9	-34.7	24.0	0.00e+00	0	32	0	3912237056	40	6228
2026-01-27 18:49:45.62	253.18	7.42	-34.1	-34.8	23.8	0.00e+00	0	32	0	3935305728	40	6267
2026-01-27 18:49:49.66	252.90	7.14	-34.0	-34.7	23.8	0.00e+00	0	32	0	3957325824	40	6203
2026-01-27 18:49:53.70	252.62	6.85	-34.2	-34.9	23.7	0.00e+00	0	32	0	3980394496	40	6367
2026-01-27 18:49:57.73	252.35	6.57	-34.1	-34.8	23.7	0.00e+00	0	32	0	4003463168	40	6247
2026-01-27 18:50:01.77	252.09	6.30	-34.3	-35.1	23.4	0.00e+00	0	32	0	4025483264	40	6537
2026-01-27 18:50:05.80	251.83	6.02	-34.5	-35.2	23.2	0.00e+00	0	32	0	4048551936	42	5872
2026-01-27 18:50:09.85	251.57	5.75	-34.6	-35.3	23.1	0.00e+00	0	32	0	4071620608	42	5932
2026-01-27 18:50:13.89	251.32	5.47	-34.6	-35.3	23.2	0.00e+00	0	32	0	4093640704	42	5916
2026-01-27 18:50:17.92	251.08	5.21	-34.6	-35.5	23.1	0.00e+00	0	32	0	4116709376	42	6055
2026-01-27 18:50:21.96	250.83	4.94	-34.6	-35.4	23.1	0.00e+00	0	32	0	4139778048	42	5998
2026-01-27 18:50:25.99	250.60	4.67	-34.9	-35.8	22.6	0.00e+00	0	32	0	4161798144	42	6269
2026-01-27 18:50:30.03	250.37	4.41	-35.3	-36.2	22.3	0.00e+00	0	32	0	4184866816	42	6566
2026-01-27 18:50:34.07	250.14	4.15	-35.4	-36.1	22.2	0.00e+00	0	32	0	4207935488	42	6488
2026-01-27 18:50:38.11	249.92	3.89	-35.5	-36.3	21.8	0.00e+00	0	32	0	4229955584	44	5952
2026-01-27 18:50:42.15	249.70	3.64	-35.7	-36.6	21.7	0.00e+00	0	32	0	4253024256	44	6139
2026-01-27 18:50:46.19	249.48	3.38	-35.7	-36.6	21.6	0.00e+00	0	32	0	4276092928	44	6124
2026-01-27 18:50:50.23	249.27	3.13	-35.7	-36.5	21.5	0.00e+00	0	32	0	4298113024	44	6045
2026-01-27 18:50:54.27	249.06	2.88	-48.1	-60.2	3.6	8.45e-01	0	32	104	4310695936	60	37032
2026-01-27 18:50:58.31	248.86	2.63	-48.6	-60.6	3.6	8.45e-01	0	32	104	4310695936	60	38635
2026-01-27 18:51:02.35	248.66	2.38	-48.6	-60.7	3.6	8.46e-01	0	32	104	4310695936	60	39362
2026-01-27 18:51:06.39	248.46	2.14	-48.6	-60.7	3.6	8.45e-01	0	32	104	4310695936	60	39349
2026-01-27 18:51:10.43	248.27	1.90	-48.5	-60.6	3.6	8.45e-01	0	32	104	4310695936	60	38814
2026-01-27 18:51:14.47	248.08	1.65	-48.3	-60.6	3.6	8.45e-01	0	33	104	4310695936	60	38677
2026-01-27 18:51:18.51	247.89	1.41	-48.4	-60.6	3.6	8.45e-01	0	32	104	4310695936	60	38906
2026-01-27 18:51:22.55	247.71	1.18	-48.4	-60.6	3.6	8.46e-01	0	32	104	4310695936	60	38794
2026-01-27 18:51:26.59	247.53	0.94	-48.4	-60.6	3.6	8.44e-01	0	33	104	4310695936	60	38691
2026-01-27 18:51:30.64	247.35	0.70	-48.4	-60.6	3.6	8.46e-01	0	33	104	4310695936	60	38798
2026-01-27 18:51:34.68	247.18	0.47	-48.4	-60.6	3.6	8.45e-01	0	32	104	4310695936	60	38897
2026-01-27 18:51:38.72	247.00	0.24	-48.4	-60.6	3.6	8.45e-01	0	33	104	4310695936	60	38698
2026-01-27 18:51:42.75	246.84	0.01	-48.4	-60.6	3.6	8.45e-01	0	33	104	4310695936	60	38673

#Closed at: 2026-01-27 18:51:45
#Recorded file [4310 MB]: D:/lorett/data/35029_260128_063710.dat