passes_logs/2026/01/27/R4.6S_Anadyr/R4.6S_Anadyr__20260127_125948_NOAA_20_JPSS-1_rec.log

#Pass ID: 20260127_125948_NOAA 20 (JPSS-1)
#Satellite: NOAA 20 (JPSS-1)
#Configuration: NOAA 20
#almurnet v.1.7.20251203
#Start time: 2026-01-27 12:59:49

#Version: 2.2.20231116
#Station: R4.6S_Anadyr
#Location: 177.4865 lon 64.73178 lat
#TLE: 1 43013U 17073A   26026.81907703  .00000149  00000+0  91399-4 0  9998
#TLE: 2 43013  98.7647 327.6343 0000991  22.4130 337.7089 14.19540778424411

#Time	Az	El	Level	Level2	SNR	BER	BlckErr	Temp	State	Recorded	gain1	gain2
2026-01-27 12:59:49.48	18.77	0.07	-48.9	-63.8	3.5	1.51e+00	0	30	0	0	60	56005
2026-01-27 12:59:53.51	18.99	0.29	-49.0	-64.3	3.6	1.51e+00	0	31	104	0	60	59029
2026-01-27 12:59:57.55	19.22	0.51	-49.1	-64.3	3.6	1.51e+00	0	31	104	0	60	59252
2026-01-27 13:00:01.59	19.45	0.73	-49.1	-64.3	3.6	1.51e+00	0	31	104	0	60	59190
2026-01-27 13:00:05.64	19.69	0.95	-48.9	-64.1	3.6	1.51e+00	0	31	104	0	60	57782
2026-01-27 13:00:09.67	19.93	1.17	-48.5	-63.7	3.6	1.51e+00	0	31	104	0	60	55501
2026-01-27 13:00:13.71	20.17	1.40	-47.8	-62.9	3.6	1.51e+00	0	31	104	0	60	50535
2026-01-27 13:00:17.75	20.42	1.62	-47.6	-62.7	3.6	1.51e+00	0	31	104	0	60	49419
2026-01-27 13:00:21.79	20.67	1.85	-47.6	-62.6	3.6	1.51e+00	0	31	104	0	60	48907
2026-01-27 13:00:25.84	20.92	2.08	-47.6	-62.7	3.6	1.51e+00	0	31	104	0	60	49524
2026-01-27 13:00:29.88	21.18	2.31	-47.6	-62.4	3.6	1.51e+00	0	31	104	0	60	47558
2026-01-27 13:00:33.92	21.44	2.54	-47.6	-62.5	3.6	1.51e+00	0	31	104	0	60	48460
2026-01-27 13:00:37.95	21.70	2.77	-45.2	-49.0	12.8	1.09e-03	0	31	0	4194304	60	10137
2026-01-27 13:00:41.99	21.97	3.00	-41.3	-42.9	18.8	0.00e+00	0	31	0	11534336	56	6346
2026-01-27 13:00:46.03	22.24	3.24	-42.6	-44.7	17.1	0.00e+00	0	31	0	18874368	56	7818
2026-01-27 13:00:50.07	22.52	3.48	-47.5	-62.1	3.6	1.28e+00	0	31	104	26214400	60	45884
2026-01-27 13:00:54.10	22.80	3.72	-41.3	-42.9	18.7	0.00e+00	0	32	0	30408704	56	6343
2026-01-27 13:00:58.14	23.08	3.96	-40.9	-42.4	19.4	0.00e+00	0	31	0	37748736	54	6718
2026-01-27 13:01:02.18	23.37	4.20	-40.1	-41.4	20.4	0.00e+00	0	31	0	45088768	54	5971
2026-01-27 13:01:06.22	23.66	4.44	-40.7	-42.1	19.9	0.00e+00	0	32	0	53477376	54	6475
2026-01-27 13:01:10.26	23.96	4.69	-40.2	-41.4	20.3	0.00e+00	0	32	0	60817408	54	6030
2026-01-27 13:01:14.30	24.26	4.93	-40.2	-41.5	20.4	0.00e+00	0	32	0	68157440	54	6080
2026-01-27 13:01:18.34	24.57	5.18	-40.2	-41.4	20.6	0.00e+00	0	32	0	75497472	54	6029
2026-01-27 13:01:22.37	24.88	5.43	-40.2	-41.5	20.6	0.00e+00	0	32	0	82837504	52	6806
2026-01-27 13:01:26.41	25.20	5.68	-40.4	-41.6	20.5	0.00e+00	0	32	0	91226112	52	6923
2026-01-27 13:01:30.45	25.52	5.94	-40.3	-41.6	20.6	0.00e+00	0	32	0	98566144	52	6863
2026-01-27 13:01:34.49	25.85	6.19	-40.1	-41.3	20.9	0.00e+00	0	32	0	105906176	52	6635
2026-01-27 13:01:38.52	26.18	6.45	-40.0	-41.1	21.0	0.00e+00	0	32	0	113246208	52	6538
2026-01-27 13:01:42.56	26.52	6.71	-39.8	-41.0	21.3	0.00e+00	0	32	0	121634816	52	6444
2026-01-27 13:01:46.60	26.87	6.97	-39.6	-40.8	21.5	0.00e+00	0	32	0	128974848	52	6270
2026-01-27 13:01:50.64	27.22	7.23	-39.4	-40.5	21.7	0.00e+00	0	32	0	136314880	52	6083
2026-01-27 13:01:54.69	27.57	7.50	-39.5	-40.6	21.7	0.00e+00	0	32	0	143654912	52	6135
2026-01-27 13:01:58.72	27.94	7.76	-39.4	-40.5	21.7	0.00e+00	0	32	0	150994944	52	6063
2026-01-27 13:02:02.76	28.30	8.03	-39.3	-40.4	21.8	0.00e+00	0	32	0	159383552	52	5995
2026-01-27 13:02:06.80	28.68	8.30	-39.3	-40.3	22.0	0.00e+00	0	32	0	166723584	52	5948
2026-01-27 13:02:10.84	29.06	8.57	-39.6	-40.7	21.6	0.00e+00	0	32	0	174063616	52	6231
2026-01-27 13:02:14.88	29.45	8.85	-39.3	-40.3	22.0	0.00e+00	0	32	0	181403648	52	5964
2026-01-27 13:02:18.92	29.85	9.12	-39.3	-40.4	22.0	0.00e+00	0	32	0	189792256	52	5974
2026-01-27 13:02:22.95	30.25	9.40	-39.0	-40.0	22.3	0.00e+00	0	32	0	197132288	52	5717
2026-01-27 13:02:26.99	30.66	9.68	-38.7	-39.7	22.6	0.00e+00	0	32	0	204472320	52	5560
2026-01-27 13:02:31.03	31.08	9.96	-38.6	-39.6	22.7	0.00e+00	0	32	0	211812352	50	6151
2026-01-27 13:02:35.07	31.51	10.24	-38.6	-39.5	22.8	0.00e+00	0	32	0	219152384	50	6101
2026-01-27 13:02:39.10	31.94	10.53	-38.7	-39.7	22.6	0.00e+00	0	32	0	227540992	50	6197
2026-01-27 13:02:43.14	32.38	10.82	-38.6	-39.6	22.8	0.00e+00	0	32	0	234881024	50	6151
2026-01-27 13:02:47.18	32.83	11.11	-38.7	-39.7	22.7	0.00e+00	0	32	0	242221056	50	6209
2026-01-27 13:02:51.23	33.29	11.40	-38.9	-39.9	22.5	0.00e+00	0	32	0	249561088	50	6379
2026-01-27 13:02:55.26	33.76	11.69	-39.2	-40.2	22.4	0.00e+00	0	32	0	257949696	50	6589
2026-01-27 13:02:59.30	34.24	11.98	-38.7	-39.6	22.8	0.00e+00	0	32	0	265289728	50	6162
2026-01-27 13:03:03.34	34.72	12.28	-38.6	-39.6	22.9	0.00e+00	0	32	0	272629760	50	6144
2026-01-27 13:03:07.38	35.22	12.58	-38.5	-39.5	23.0	0.00e+00	0	32	0	279969792	50	6070
2026-01-27 13:03:11.42	35.72	12.88	-38.5	-39.4	23.0	0.00e+00	0	32	0	287309824	50	6009
2026-01-27 13:03:15.46	36.24	13.18	-38.3	-39.3	23.2	0.00e+00	0	32	0	295698432	50	5910
2026-01-27 13:03:19.50	36.77	13.49	-38.3	-39.3	23.2	0.00e+00	0	32	0	303038464	50	5916
2026-01-27 13:03:23.54	37.30	13.79	-38.4	-39.4	23.1	0.00e+00	0	32	0	310378496	50	5998
2026-01-27 13:03:27.58	37.85	14.10	-38.3	-39.2	23.2	0.00e+00	0	32	0	317718528	50	5850
2026-01-27 13:03:31.62	38.41	14.41	-38.4	-39.3	23.2	0.00e+00	0	32	0	326107136	50	5949
2026-01-27 13:03:35.65	38.98	14.71	-38.1	-39.0	23.4	0.00e+00	0	32	0	333447168	50	5722
2026-01-27 13:03:39.69	39.56	15.03	-38.0	-38.9	22.6	0.00e+00	0	32	0	340787200	50	5687
2026-01-27 13:03:43.73	40.15	15.34	-38.0	-38.9	23.5	0.00e+00	0	32	0	348127232	50	5665
2026-01-27 13:03:47.77	40.76	15.65	-38.0	-38.9	23.6	0.00e+00	0	32	0	355467264	50	5636
2026-01-27 13:03:51.82	41.38	15.97	-37.8	-38.7	23.7	0.00e+00	0	32	0	363855872	50	5518
2026-01-27 13:03:55.85	42.00	16.28	-37.7	-38.5	23.9	0.00e+00	0	32	0	371195904	48	6084
2026-01-27 13:03:59.89	42.65	16.60	-37.3	-38.2	24.2	0.00e+00	0	32	0	378535936	48	5837
2026-01-27 13:04:03.93	43.30	16.92	-37.4	-38.3	24.2	0.00e+00	0	32	0	385875968	48	5917
2026-01-27 13:04:07.96	43.97	17.23	-37.8	-38.7	23.9	0.00e+00	0	32	0	394264576	48	6182
2026-01-27 13:04:12.00	44.66	17.55	-37.9	-38.8	23.6	0.00e+00	0	32	0	401604608	48	6272
2026-01-27 13:04:16.04	45.36	17.87	-38.0	-38.8	23.6	0.00e+00	0	32	0	408944640	48	6317
2026-01-27 13:04:20.08	46.07	18.19	-37.8	-38.7	23.7	0.00e+00	0	32	0	416284672	48	6222
2026-01-27 13:04:24.12	46.80	18.51	-37.5	-38.4	24.0	0.00e+00	0	32	0	423624704	48	6008
2026-01-27 13:04:28.15	47.54	18.82	-37.2	-38.0	24.4	0.00e+00	0	32	0	432013312	48	5759
2026-01-27 13:04:32.19	48.29	19.14	-37.1	-37.9	24.5	0.00e+00	0	32	0	439353344	48	5661
2026-01-27 13:04:36.23	49.07	19.46	-36.6	-37.4	24.9	0.00e+00	0	32	0	446693376	46	6012
2026-01-27 13:04:40.27	49.86	19.77	-36.3	-37.1	25.2	0.00e+00	0	32	0	454033408	46	5774
2026-01-27 13:04:44.31	50.66	20.08	-36.3	-37.1	25.2	0.00e+00	0	32	0	462422016	46	5768
2026-01-27 13:04:48.34	51.48	20.40	-36.2	-37.0	25.2	0.00e+00	0	32	0	469762048	46	5719
2026-01-27 13:04:52.38	52.32	20.71	-36.4	-37.1	25.0	0.00e+00	0	32	0	477102080	46	5828
2026-01-27 13:04:56.42	53.17	21.01	-36.5	-37.3	24.9	0.00e+00	0	32	0	484442112	46	5940
2026-01-27 13:05:00.46	54.04	21.32	-36.3	-37.1	25.2	0.00e+00	0	32	0	491782144	46	5808
2026-01-27 13:05:04.50	54.93	21.62	-36.6	-37.4	24.9	0.00e+00	0	32	0	500170752	46	5971
2026-01-27 13:05:08.54	55.83	21.92	-36.7	-37.5	24.9	0.00e+00	0	32	0	507510784	46	6059
2026-01-27 13:05:12.58	56.75	22.21	-37.2	-38.0	24.4	0.00e+00	0	32	0	514850816	46	6449
2026-01-27 13:05:16.62	57.69	22.50	-37.4	-38.3	24.2	0.00e+00	0	32	0	522190848	46	6658
2026-01-27 13:05:20.66	58.65	22.79	-37.3	-38.1	24.2	0.00e+00	0	32	0	530579456	46	6504
2026-01-27 13:05:24.70	59.62	23.07	-37.4	-38.2	24.3	0.00e+00	0	32	0	537919488	46	6596
2026-01-27 13:05:28.74	60.61	23.35	-37.2	-38.1	24.4	0.00e+00	0	32	0	545259520	46	6468
2026-01-27 13:05:32.77	61.62	23.61	-37.6	-38.4	24.0	0.00e+00	0	32	0	552599552	46	6757
2026-01-27 13:05:36.81	62.64	23.88	-38.2	-39.2	23.4	0.00e+00	0	32	0	559939584	48	6545
2026-01-27 13:05:40.85	63.68	24.13	-38.5	-39.4	23.2	0.00e+00	0	32	0	568328192	48	6726
2026-01-27 13:05:44.88	64.74	24.38	-38.7	-39.6	23.0	0.00e+00	0	32	0	575668224	48	6922
2026-01-27 13:05:48.93	65.81	24.62	-39.3	-40.3	22.4	0.00e+00	0	32	0	583008256	50	6640
2026-01-27 13:05:52.97	66.90	24.86	-39.7	-40.8	22.0	0.00e+00	0	32	0	590348288	50	7031
2026-01-27 13:05:57.01	68.01	25.08	-39.2	-40.2	22.6	0.00e+00	0	32	0	598736896	50	6556
2026-01-27 13:06:01.04	69.13	25.29	-40.3	-41.5	21.3	0.00e+00	0	32	0	606076928	52	6839
2026-01-27 13:06:05.08	70.26	25.50	-40.9	-42.2	20.8	0.00e+00	0	32	0	613416960	54	6556
2026-01-27 13:06:09.12	71.41	25.69	-39.9	-41.0	21.8	0.00e+00	0	32	0	620756992	54	5705
2026-01-27 13:06:13.16	72.58	25.88	-40.0	-41.2	21.7	0.00e+00	0	32	0	628097024	52	6547
2026-01-27 13:06:17.20	73.75	26.05	-40.0	-41.1	21.7	0.00e+00	0	32	0	636485632	52	6473
2026-01-27 13:06:21.23	74.94	26.21	-39.8	-40.9	21.9	0.00e+00	0	32	0	643825664	52	6369
2026-01-27 13:06:25.27	76.14	26.36	-39.5	-40.6	22.2	0.00e+00	0	32	0	651165696	52	6112
2026-01-27 13:06:29.32	77.35	26.49	-38.6	-39.5	23.2	0.00e+00	0	32	0	658505728	50	6087
2026-01-27 13:06:33.36	78.58	26.62	-38.9	-39.9	22.8	0.00e+00	0	32	0	666894336	50	6334
2026-01-27 13:06:37.40	79.81	26.73	-39.3	-40.3	22.4	0.00e+00	0	32	0	674234368	50	6633
2026-01-27 13:06:41.44	81.04	26.82	-39.5	-40.6	22.2	0.00e+00	0	32	0	681574400	50	6849
2026-01-27 13:06:45.48	82.29	26.91	-39.1	-40.1	22.7	0.00e+00	0	32	0	688914432	50	6483
2026-01-27 13:06:49.52	83.54	26.97	-38.8	-39.8	22.9	0.00e+00	0	32	0	696254464	50	6270
2026-01-27 13:06:53.56	84.79	27.03	-38.2	-39.2	23.4	0.00e+00	0	32	0	704643072	50	5844
2026-01-27 13:06:57.60	86.05	27.07	-38.5	-39.5	23.1	0.00e+00	0	32	0	711983104	50	6069
2026-01-27 13:07:01.64	87.31	27.09	-37.8	-38.7	23.7	0.00e+00	0	32	0	719323136	50	5518
2026-01-27 13:07:05.68	88.58	27.10	-38.0	-38.8	23.7	0.00e+00	0	32	0	726663168	48	6311
2026-01-27 13:07:09.72	89.84	27.10	-38.4	-39.3	23.3	0.00e+00	0	32	0	735051776	48	6656
2026-01-27 13:07:13.76	91.10	27.08	-38.3	-39.3	23.2	0.00e+00	0	32	0	742391808	48	6647
2026-01-27 13:07:17.80	92.37	27.05	-39.6	-40.7	22.1	0.00e+00	0	32	0	749731840	50	6952
2026-01-27 13:07:21.84	93.62	27.00	-39.1	-40.1	22.5	0.00e+00	0	32	0	757071872	52	5814
2026-01-27 13:07:25.88	94.88	26.94	-38.2	-39.2	23.5	0.00e+00	0	32	0	764411904	50	5847
2026-01-27 13:07:29.92	96.13	26.86	-38.8	-39.8	22.9	0.00e+00	0	32	0	772800512	50	6298
2026-01-27 13:07:33.95	97.37	26.77	-38.5	-39.5	23.2	0.00e+00	0	32	0	780140544	50	6055
2026-01-27 13:07:37.99	98.60	26.67	-38.3	-39.2	23.4	0.00e+00	0	32	0	787480576	50	5870
2026-01-27 13:07:42.03	99.83	26.55	-38.5	-39.4	23.1	0.00e+00	0	32	0	794820608	50	6022
2026-01-27 13:07:46.07	101.04	26.42	-38.2	-39.1	23.5	0.00e+00	0	32	0	803209216	50	5806
2026-01-27 13:07:50.11	102.25	26.27	-37.9	-38.8	23.7	0.00e+00	0	32	0	810549248	48	6268
2026-01-27 13:07:54.15	103.45	26.12	-37.2	-38.0	24.4	0.00e+00	0	32	0	817889280	48	5735
2026-01-27 13:07:58.19	104.63	25.95	-37.1	-37.9	24.5	0.00e+00	0	32	0	825229312	48	5647
2026-01-27 13:08:02.23	105.81	25.77	-37.1	-38.0	24.5	0.00e+00	0	32	0	832569344	48	5718
2026-01-27 13:08:06.27	106.96	25.58	-36.6	-37.4	25.0	0.00e+00	0	32	0	840957952	46	5974
2026-01-27 13:08:10.31	108.11	25.38	-37.2	-38.0	24.4	0.00e+00	0	32	0	848297984	46	6445
2026-01-27 13:08:14.35	109.24	25.17	-37.3	-38.1	24.3	0.00e+00	0	32	0	855638016	46	6525
2026-01-27 13:08:18.39	110.35	24.95	-36.7	-37.6	24.7	0.00e+00	0	32	0	862978048	46	6107
2026-01-27 13:08:22.43	111.45	24.72	-37.3	-38.1	24.3	0.00e+00	0	32	0	871366656	46	6523
2026-01-27 13:08:26.46	112.54	24.48	-37.9	-38.8	23.8	0.00e+00	0	32	0	878706688	48	6252
2026-01-27 13:08:30.51	113.61	24.23	-37.6	-38.4	24.0	0.00e+00	0	32	0	886046720	48	6032
2026-01-27 13:08:34.55	114.66	23.98	-37.5	-38.4	24.1	0.00e+00	0	32	0	893386752	48	5992
2026-01-27 13:08:38.58	115.69	23.72	-37.8	-38.7	23.7	0.00e+00	0	32	0	900726784	48	6229
2026-01-27 13:08:42.62	116.71	23.45	-37.4	-38.3	24.1	0.00e+00	0	32	0	909115392	48	5914
2026-01-27 13:08:46.66	117.71	23.18	-37.1	-38.0	24.4	0.00e+00	0	32	0	916455424	48	5724
2026-01-27 13:08:50.70	118.69	22.90	-37.3	-38.2	24.2	0.00e+00	0	32	0	923795456	48	5848
2026-01-27 13:08:54.74	119.66	22.61	-37.8	-38.7	23.7	0.00e+00	0	32	0	931135488	48	6211
2026-01-27 13:08:58.78	120.61	22.32	-37.2	-38.0	24.4	0.00e+00	0	32	0	939524096	48	5738
2026-01-27 13:09:02.82	121.54	22.02	-37.7	-38.6	23.8	0.00e+00	0	32	0	946864128	48	6134
2026-01-27 13:09:06.86	122.46	21.73	-37.7	-38.6	23.8	0.00e+00	0	32	0	954204160	48	6126
2026-01-27 13:09:10.90	123.35	21.42	-39.1	-40.2	22.4	0.00e+00	0	32	0	961544192	50	6614
2026-01-27 13:09:14.93	124.23	21.12	-38.6	-39.6	23.0	0.00e+00	0	32	0	968884224	50	6121
2026-01-27 13:09:18.97	125.10	20.81	-39.1	-40.2	22.4	0.00e+00	0	32	0	977272832	50	6557
2026-01-27 13:09:23.01	125.94	20.50	-38.1	-39.0	23.5	0.00e+00	0	32	0	984612864	50	5724
2026-01-27 13:09:27.05	126.77	20.19	-38.7	-39.7	22.9	0.00e+00	0	32	0	991952896	50	6174
2026-01-27 13:09:31.09	127.59	19.87	-38.3	-39.2	23.3	0.00e+00	0	32	0	999292928	50	5872
2026-01-27 13:09:35.13	128.39	19.55	-39.1	-40.1	22.3	0.00e+00	0	32	0	1007681536	50	6517
2026-01-27 13:09:39.17	129.17	19.24	-38.7	-39.7	22.8	0.00e+00	0	32	0	1015021568	50	6220
2026-01-27 13:09:43.21	129.93	18.92	-38.2	-39.1	23.2	0.00e+00	0	32	0	1022361600	50	5814
2026-01-27 13:09:47.26	130.69	18.60	-39.3	-40.3	22.2	0.00e+00	0	32	0	1029701632	50	6674
2026-01-27 13:09:51.29	131.42	18.28	-38.5	-39.5	23.0	0.00e+00	0	32	0	1038090240	50	6034
2026-01-27 13:09:55.33	132.14	17.96	-38.4	-39.4	23.1	0.00e+00	0	32	0	1045430272	50	5992
2026-01-27 13:09:59.37	132.85	17.64	-37.9	-38.9	23.6	0.00e+00	0	32	0	1052770304	50	5633
2026-01-27 13:10:03.41	133.54	17.31	-38.2	-39.1	23.3	0.00e+00	0	32	0	1060110336	50	5786
2026-01-27 13:10:07.45	134.22	16.99	-38.3	-39.2	22.8	0.00e+00	0	32	0	1067450368	50	5873
2026-01-27 13:10:11.49	134.88	16.67	-37.6	-38.5	23.8	0.00e+00	0	32	0	1075838976	48	6054
2026-01-27 13:10:15.53	135.53	16.36	-37.7	-38.5	23.7	0.00e+00	0	32	0	1083179008	48	6098
2026-01-27 13:10:19.57	136.17	16.04	-37.8	-38.7	23.7	0.00e+00	0	32	0	1090519040	48	6184
2026-01-27 13:10:23.61	136.79	15.72	-37.6	-38.5	23.7	0.00e+00	0	32	0	1097859072	48	6098
2026-01-27 13:10:27.65	137.41	15.40	-37.6	-38.5	23.8	0.00e+00	0	32	0	1106247680	48	6058
2026-01-27 13:10:31.69	138.01	15.09	-38.0	-38.9	23.4	0.00e+00	0	32	0	1113587712	48	6385
2026-01-27 13:10:35.73	138.59	14.77	-38.3	-39.3	23.1	0.00e+00	0	32	0	1120927744	48	6623
2026-01-27 13:10:39.76	139.17	14.46	-38.1	-39.0	23.3	0.00e+00	0	32	0	1128267776	48	6451
2026-01-27 13:10:43.80	139.73	14.15	-38.1	-39.1	23.1	0.00e+00	0	32	0	1135607808	48	6496
2026-01-27 13:10:47.85	140.28	13.84	-38.2	-39.1	23.1	0.00e+00	0	32	0	1143996416	48	6520
2026-01-27 13:10:51.88	140.82	13.53	-38.7	-39.7	22.3	0.00e+00	0	32	0	1151336448	48	6987
2026-01-27 13:10:55.92	141.36	13.23	-39.8	-41.0	21.0	0.00e+00	0	32	0	1158676480	52	6453
2026-01-27 13:10:59.96	141.88	12.92	-40.2	-41.4	20.7	0.00e+00	0	32	0	1166016512	52	6754
2026-01-27 13:11:04.00	142.39	12.62	-40.2	-41.5	20.6	0.00e+00	0	32	0	1174405120	52	6819
2026-01-27 13:11:08.04	142.89	12.32	-40.1	-41.3	20.8	0.00e+00	0	32	0	1181745152	52	6685
2026-01-27 13:11:12.08	143.38	12.02	-40.0	-41.2	20.9	0.00e+00	0	32	0	1189085184	52	6583
2026-01-27 13:11:16.12	143.86	11.72	-40.0	-41.2	20.9	0.00e+00	0	32	0	1196425216	52	6615
2026-01-27 13:11:20.17	144.33	11.42	-40.0	-41.2	21.0	0.00e+00	0	32	0	1203765248	52	6559
2026-01-27 13:11:24.21	144.79	11.13	-39.6	-40.7	21.4	0.00e+00	0	32	0	1212153856	52	6236
2026-01-27 13:11:28.25	145.25	10.84	-39.7	-40.8	21.5	0.00e+00	0	32	0	1219493888	52	6293
2026-01-27 13:11:32.29	145.69	10.55	-39.7	-40.9	21.3	0.00e+00	0	32	0	1226833920	52	6333
2026-01-27 13:11:36.33	146.13	10.26	-39.5	-40.6	21.6	0.00e+00	0	32	0	1234173952	52	6172
2026-01-27 13:11:40.37	146.56	9.97	-38.7	-39.7	22.5	0.00e+00	0	32	0	1242562560	52	5559
2026-01-27 13:11:44.41	146.98	9.69	-38.8	-39.9	22.2	0.00e+00	0	32	0	1249902592	50	6332
2026-01-27 13:11:48.45	147.39	9.40	-39.0	-40.0	22.2	0.00e+00	0	32	0	1257242624	50	6456
2026-01-27 13:11:52.49	147.80	9.12	-39.3	-40.4	21.8	0.00e+00	0	32	0	1264582656	50	6705
2026-01-27 13:11:56.53	148.19	8.84	-39.3	-40.5	21.7	0.00e+00	0	32	0	1271922688	50	6770
2026-01-27 13:12:00.56	148.58	8.57	-39.1	-40.2	21.9	0.00e+00	0	32	0	1280311296	50	6599
2026-01-27 13:12:04.60	148.97	8.29	-39.1	-40.2	21.9	0.00e+00	0	32	0	1287651328	50	6575
2026-01-27 13:12:08.64	149.35	8.02	-39.1	-40.2	21.9	0.00e+00	0	32	0	1294991360	50	6575
2026-01-27 13:12:12.68	149.72	7.75	-39.4	-40.6	21.5	0.00e+00	0	32	0	1302331392	50	6885
2026-01-27 13:12:16.72	150.08	7.48	-39.4	-40.5	21.5	0.00e+00	0	32	0	1310720000	50	6838
2026-01-27 13:12:20.76	150.44	7.21	-39.4	-40.5	21.6	0.00e+00	0	32	0	1318060032	50	6806
2026-01-27 13:12:24.79	150.79	6.95	-38.9	-40.0	22.0	0.00e+00	0	32	0	1325400064	50	6392
2026-01-27 13:12:28.83	151.13	6.69	-39.1	-40.2	21.8	0.00e+00	0	32	0	1332740096	50	6573
2026-01-27 13:12:32.87	151.47	6.42	-38.9	-40.0	21.9	0.00e+00	0	32	0	1340080128	50	6418
2026-01-27 13:12:36.91	151.81	6.16	-39.6	-40.8	21.1	0.00e+00	0	32	0	1348468736	52	6290
2026-01-27 13:12:40.95	152.13	5.91	-40.0	-41.3	20.6	0.00e+00	0	32	0	1355808768	52	6644
2026-01-27 13:12:44.99	152.46	5.65	-40.3	-41.6	20.2	0.00e+00	0	32	0	1363148800	52	6888
2026-01-27 13:12:49.02	152.77	5.40	-40.8	-42.3	19.4	0.00e+00	0	32	0	1370488832	54	6668
2026-01-27 13:12:53.06	153.09	5.14	-41.2	-42.8	18.5	0.00e+00	0	32	0	1378877440	54	7051
2026-01-27 13:12:57.10	153.39	4.89	-41.7	-43.6	17.4	0.00e+00	0	32	0	1386217472	56	6915
2026-01-27 13:13:01.15	153.70	4.64	-42.4	-44.8	16.1	0.00e+00	0	32	0	1393557504	56	7864
2026-01-27 13:13:05.19	153.99	4.40	-42.9	-45.8	14.8	0.00e+00	0	32	0	1400897536	58	7898
2026-01-27 13:13:09.23	154.29	4.15	-43.5	-47.0	13.4	1.29e-05	0	32	0	1408237568	58	9078
2026-01-27 13:13:13.27	154.57	3.90	-43.6	-47.1	13.2	1.90e-05	0	32	0	1416626176	58	9212
2026-01-27 13:13:17.31	154.86	3.66	-43.8	-47.5	13.2	4.34e-05	0	32	0	1423966208	60	8525
2026-01-27 13:13:21.35	155.14	3.42	-43.8	-47.2	13.6	1.67e-05	0	32	0	1431306240	60	8312
2026-01-27 13:13:25.39	155.41	3.18	-43.5	-46.6	14.2	2.20e-06	0	32	0	1438646272	60	7722
2026-01-27 13:13:29.43	155.68	2.94	-47.6	-62.8	3.6	1.51e+00	0	32	104	1444937728	60	49848
2026-01-27 13:13:33.47	155.95	2.71	-48.6	-63.8	3.6	1.51e+00	0	32	104	1444937728	60	55867
2026-01-27 13:13:37.51	156.21	2.47	-48.9	-64.1	3.6	1.51e+00	0	32	104	1444937728	60	57875
2026-01-27 13:13:41.55	156.47	2.24	-49.0	-64.2	3.6	1.51e+00	0	32	104	1444937728	60	58521
2026-01-27 13:13:45.59	156.73	2.01	-48.8	-64.1	3.6	1.51e+00	0	32	104	1444937728	60	58075
2026-01-27 13:13:49.63	156.98	1.78	-48.9	-64.1	3.6	1.51e+00	0	32	104	1444937728	60	57835
2026-01-27 13:13:53.67	157.22	1.55	-48.9	-64.1	3.5	1.51e+00	0	32	104	1444937728	60	58186
2026-01-27 13:13:57.70	157.47	1.32	-48.8	-64.1	3.6	1.51e+00	0	33	104	1444937728	60	57830
2026-01-27 13:14:01.74	157.71	1.09	-48.9	-64.1	3.6	1.51e+00	0	32	104	1444937728	60	58086
2026-01-27 13:14:05.78	157.94	0.87	-48.8	-64.1	3.6	1.51e+00	0	32	104	1444937728	60	57902
2026-01-27 13:14:09.82	158.18	0.65	-48.9	-64.1	3.6	1.51e+00	0	32	104	1444937728	60	57994
2026-01-27 13:14:13.86	158.41	0.42	-48.8	-64.0	3.6	1.51e+00	0	33	104	1444937728	60	57594
2026-01-27 13:14:17.90	158.64	0.20	-48.9	-64.1	3.6	1.51e+00	0	32	104	1444937728	60	57796
2026-01-27 13:14:21.93	158.86	-0.02	-48.9	-64.1	3.6	1.51e+00	0	32	104	1444937728	60	57795

#Closed at: 2026-01-27 13:14:24
#Recorded file [1444 MB]: D:/lorett/data/35029_260128_005949.dat