passes_logs/2026/01/27/R4.6S_Anadyr/R4.6S_Anadyr__20260127_193915_NOAA_20_JPSS-1_rec.log

#Pass ID: 20260127_193915_NOAA 20 (JPSS-1)
#Satellite: NOAA 20 (JPSS-1)
#Configuration: NOAA 20
#almurnet v.1.7.20251203
#Start time: 2026-01-27 19:39:16

#Version: 2.2.20231116
#Station: R4.6S_Anadyr
#Location: 177.4865 lon 64.73178 lat
#TLE: 1 43013U 17073A   26026.81907703  .00000149  00000+0  91399-4 0  9998
#TLE: 2 43013  98.7647 327.6343 0000991  22.4130 337.7089 14.19540778424411

#Time	Az	El	Level	Level2	SNR	BER	BlckErr	Temp	State	Recorded	gain1	gain2
2026-01-27 19:39:16.63	56.50	0.05	-48.5	-63.5	3.5	1.51e+00	0	30	0	0	60	54335
2026-01-27 19:39:19.66	56.27	0.20	-48.6	-63.8	3.6	1.51e+00	0	31	104	0	60	56256
2026-01-27 19:39:22.69	56.04	0.34	-48.6	-63.8	3.6	1.51e+00	0	31	104	0	60	56223
2026-01-27 19:39:25.72	55.81	0.49	-48.7	-63.9	3.6	1.51e+00	0	31	104	0	60	56588
2026-01-27 19:39:28.75	55.57	0.64	-48.6	-63.9	3.6	1.51e+00	0	31	104	0	60	56320
2026-01-27 19:39:31.78	55.33	0.79	-48.6	-63.8	3.6	1.51e+00	0	31	104	0	60	56274
2026-01-27 19:39:34.81	55.09	0.93	-48.5	-63.7	3.6	1.51e+00	0	31	104	0	60	55482
2026-01-27 19:39:37.84	54.85	1.08	-48.3	-63.5	3.6	1.51e+00	0	31	104	0	60	54334
2026-01-27 19:39:40.87	54.60	1.23	-47.7	-63.0	3.5	1.51e+00	0	31	104	0	60	50829
2026-01-27 19:39:43.90	54.35	1.38	-47.0	-62.2	3.6	1.51e+00	0	31	104	0	60	46744
2026-01-27 19:39:46.93	54.10	1.53	-47.0	-62.2	3.6	1.51e+00	0	31	104	0	60	46397
2026-01-27 19:39:49.96	53.85	1.68	-47.0	-62.2	3.6	1.51e+00	0	31	104	0	60	46747
2026-01-27 19:39:52.99	53.59	1.83	-47.0	-62.2	3.6	1.51e+00	0	31	104	0	60	46566
2026-01-27 19:39:56.02	53.33	1.98	-47.0	-62.1	3.6	1.51e+00	0	31	104	0	60	46194
2026-01-27 19:39:59.05	53.07	2.13	-47.0	-62.1	3.6	1.51e+00	0	31	104	0	60	45917
2026-01-27 19:40:02.08	52.80	2.28	-47.0	-62.2	3.6	1.51e+00	0	31	104	0	60	46444
2026-01-27 19:40:05.11	52.53	2.43	-47.0	-62.0	3.6	1.51e+00	0	31	104	0	60	45684
2026-01-27 19:40:08.14	52.26	2.58	-47.0	-62.1	3.6	1.51e+00	0	31	104	0	60	45974
2026-01-27 19:40:11.17	51.99	2.73	-47.0	-61.9	3.6	1.51e+00	0	32	104	0	60	45212
2026-01-27 19:40:14.20	51.71	2.88	-46.4	-54.0	6.8	5.17e-01	92	32	0	0	60	18084
2026-01-27 19:40:17.23	51.43	3.04	-44.3	-47.7	13.4	7.60e-06	14	32	0	5242880	60	8780
2026-01-27 19:40:20.26	51.15	3.19	-44.0	-47.1	14.7	5.30e-06	0	32	0	8388608	60	8205
2026-01-27 19:40:23.29	50.87	3.34	-42.5	-44.7	16.2	8.18e-01	90	32	104	11534336	60	6230
2026-01-27 19:40:26.32	50.58	3.49	-42.4	-44.6	16.6	0.00e+00	0	31	0	15728640	58	6883
2026-01-27 19:40:29.34	50.29	3.64	-42.5	-44.8	16.3	0.00e+00	14	31	0	22020096	58	7020
2026-01-27 19:40:32.37	49.99	3.80	-42.7	-45.0	16.2	0.00e+00	90	31	0	27262976	58	7235
2026-01-27 19:40:35.40	49.69	3.95	-42.6	-44.8	16.8	0.00e+00	91	32	0	32505856	58	7068
2026-01-27 19:40:38.42	49.39	4.10	-42.1	-44.1	17.5	0.00e+00	1	32	0	38797312	58	6498
2026-01-27 19:40:41.45	49.09	4.25	-42.1	-44.1	17.5	0.00e+00	92	31	0	44040192	56	7292
2026-01-27 19:40:44.47	48.78	4.41	-41.2	-42.8	18.7	0.00e+00	92	32	0	50331648	56	6270
2026-01-27 19:40:47.50	48.47	4.56	-41.3	-43.0	18.5	0.00e+00	0	32	0	55574528	56	6397
2026-01-27 19:40:50.53	48.16	4.71	-41.2	-42.8	18.7	0.00e+00	0	32	0	60817408	56	6294
2026-01-27 19:40:53.55	47.84	4.86	-41.4	-43.1	18.5	0.00e+00	92	32	0	67108864	56	6509
2026-01-27 19:40:56.58	47.52	5.02	-41.6	-43.3	18.4	0.00e+00	5	31	0	72351744	56	6664
2026-01-27 19:40:59.60	47.20	5.17	-41.2	-42.7	18.4	0.00e+00	9	32	0	78643200	56	6238
2026-01-27 19:41:02.63	46.87	5.32	-41.2	-42.8	18.8	0.00e+00	92	32	0	83886080	56	6279
2026-01-27 19:41:05.66	46.54	5.48	-41.3	-42.9	18.6	7.00e-07	18	32	0	90177536	56	6376
2026-01-27 19:41:08.68	46.20	5.63	-41.1	-42.6	19.1	0.00e+00	0	32	0	95420416	56	6137
2026-01-27 19:41:11.72	45.86	5.78	-41.1	-42.7	19.0	0.00e+00	92	32	0	100663296	56	6200
2026-01-27 19:41:14.74	45.52	5.93	-40.7	-42.2	19.4	0.00e+00	90	32	0	106954752	54	6582
2026-01-27 19:41:17.77	45.17	6.09	-41.0	-42.5	19.1	0.00e+00	0	32	0	112197632	54	6844
2026-01-27 19:41:20.79	44.82	6.24	-40.7	-42.2	19.5	0.00e+00	92	32	0	118489088	54	6558
2026-01-27 19:41:23.82	44.47	6.39	-40.9	-42.3	19.2	0.00e+00	92	32	0	123731968	54	6688
2026-01-27 19:41:26.84	44.11	6.54	-40.9	-42.4	19.5	0.00e+00	0	32	0	128974848	54	6721
2026-01-27 19:41:29.87	43.75	6.70	-41.1	-42.6	19.2	0.00e+00	0	32	0	135266304	54	6883
2026-01-27 19:41:32.90	43.39	6.85	-40.9	-42.3	19.5	0.00e+00	92	32	0	140509184	54	6691
2026-01-27 19:41:35.92	43.02	7.00	-40.7	-42.1	19.8	0.00e+00	63	32	0	146800640	54	6519
2026-01-27 19:41:38.95	42.64	7.15	-40.7	-42.1	19.9	0.00e+00	0	32	0	152043520	54	6472
2026-01-27 19:41:41.97	42.27	7.30	-40.5	-41.8	19.8	0.00e+00	92	32	0	157286400	54	6302
2026-01-27 19:41:45.00	41.89	7.45	-40.3	-41.7	20.0	0.00e+00	49	32	0	163577856	54	6187
2026-01-27 19:41:48.02	41.50	7.60	-40.3	-41.6	20.1	0.00e+00	0	32	0	168820736	54	6119
2026-01-27 19:41:51.05	41.11	7.75	-40.3	-41.6	20.1	0.00e+00	91	32	0	175112192	54	6133
2026-01-27 19:41:54.08	40.72	7.90	-40.2	-41.5	20.3	0.00e+00	92	32	0	180355072	54	6103
2026-01-27 19:41:57.10	40.32	8.05	-40.1	-41.4	20.4	0.00e+00	0	32	0	186646528	52	6733
2026-01-27 19:42:00.13	39.92	8.20	-39.8	-41.0	20.8	0.00e+00	92	32	0	191889408	52	6459
2026-01-27 19:42:03.15	39.52	8.35	-39.9	-41.1	20.8	0.00e+00	92	32	0	197132288	52	6496
2026-01-27 19:42:06.18	39.11	8.50	-40.0	-41.3	20.2	0.00e+00	0	32	0	203423744	52	6658
2026-01-27 19:42:09.21	38.69	8.65	-39.8	-41.0	20.8	0.00e+00	0	32	0	208666624	52	6441
2026-01-27 19:42:12.23	38.27	8.79	-39.8	-41.0	21.1	0.00e+00	92	32	0	214958080	52	6406
2026-01-27 19:42:15.26	37.85	8.94	-40.1	-41.4	20.5	0.00e+00	0	32	0	220200960	52	6720
2026-01-27 19:42:18.29	37.42	9.08	-40.1	-41.3	20.5	0.00e+00	0	32	0	225443840	52	6668
2026-01-27 19:42:21.32	36.99	9.23	-40.2	-41.5	20.4	0.00e+00	92	32	0	231735296	52	6773
2026-01-27 19:42:24.34	36.56	9.37	-39.7	-40.8	21.2	0.00e+00	82	32	0	236978176	52	6303
2026-01-27 19:42:27.36	36.12	9.52	-39.5	-40.6	21.4	0.00e+00	0	32	0	243269632	52	6160
2026-01-27 19:42:30.39	35.67	9.66	-39.7	-40.9	21.2	0.00e+00	92	32	0	248512512	52	6347
2026-01-27 19:42:33.41	35.22	9.80	-39.0	-40.1	21.9	0.00e+00	92	32	0	253755392	52	5776
2026-01-27 19:42:36.44	34.77	9.94	-39.0	-40.1	21.9	0.00e+00	0	32	0	260046848	52	5809
2026-01-27 19:42:39.46	34.31	10.08	-38.8	-39.9	22.0	0.00e+00	0	32	0	265289728	50	6369
2026-01-27 19:42:42.49	33.85	10.22	-38.4	-39.4	22.6	0.00e+00	92	32	0	271581184	50	5975
2026-01-27 19:42:45.52	33.38	10.36	-38.5	-39.5	22.4	0.00e+00	83	32	0	276824064	50	6065
2026-01-27 19:42:48.54	32.91	10.49	-38.4	-39.4	22.6	0.00e+00	4	32	0	283115520	50	6013
2026-01-27 19:42:51.57	32.44	10.63	-38.2	-39.2	22.7	0.00e+00	79	32	0	288358400	50	5844
2026-01-27 19:42:54.60	31.95	10.76	-38.3	-39.3	22.8	0.00e+00	26	32	0	293601280	50	5916
2026-01-27 19:42:57.63	31.47	10.90	-38.0	-38.9	23.1	0.00e+00	0	32	0	299892736	50	5691
2026-01-27 19:43:00.66	30.98	11.03	-38.0	-39.0	22.8	0.00e+00	0	32	0	305135616	50	5723
2026-01-27 19:43:03.68	30.49	11.16	-37.8	-38.8	23.2	0.00e+00	91	32	0	311427072	48	6249
2026-01-27 19:43:06.71	29.99	11.29	-37.6	-38.5	23.4	0.00e+00	81	32	0	316669952	48	6099
2026-01-27 19:43:09.74	29.48	11.42	-37.5	-38.4	22.9	0.00e+00	0	32	0	321912832	48	5982
2026-01-27 19:43:12.76	28.98	11.54	-37.5	-38.4	23.5	0.00e+00	91	32	0	328204288	48	6007
2026-01-27 19:43:15.79	28.47	11.67	-37.6	-38.5	23.4	0.00e+00	0	32	0	333447168	48	6056
2026-01-27 19:43:18.82	27.95	11.79	-37.7	-38.7	23.3	0.00e+00	0	32	0	339738624	48	6194
2026-01-27 19:43:21.85	27.43	11.91	-37.7	-38.7	23.2	0.00e+00	92	32	0	344981504	48	6187
2026-01-27 19:43:24.88	26.90	12.03	-37.8	-38.7	23.0	0.00e+00	2	32	0	350224384	48	6219
2026-01-27 19:43:27.90	26.38	12.15	-37.8	-38.8	23.2	0.00e+00	81	32	0	356515840	48	6273
2026-01-27 19:43:30.92	25.84	12.26	-38.0	-39.0	22.9	0.00e+00	17	32	0	361758720	48	6437
2026-01-27 19:43:33.96	25.30	12.38	-38.0	-39.0	23.0	0.00e+00	63	32	0	368050176	48	6413
2026-01-27 19:43:36.98	24.76	12.49	-37.9	-38.8	23.2	0.00e+00	0	32	0	373293056	48	6307
2026-01-27 19:43:40.01	24.22	12.60	-37.8	-38.8	22.9	0.00e+00	0	32	0	379584512	48	6279
2026-01-27 19:43:43.04	23.67	12.70	-37.8	-38.7	23.2	0.00e+00	91	32	0	384827392	48	6220
2026-01-27 19:43:46.07	23.11	12.81	-37.9	-38.8	23.2	0.00e+00	0	32	0	390070272	48	6284
2026-01-27 19:43:49.09	22.56	12.91	-37.7	-38.6	23.3	0.00e+00	0	32	0	396361728	48	6145
2026-01-27 19:43:52.12	21.99	13.01	-37.8	-38.7	23.3	0.00e+00	90	32	0	401604608	48	6195
2026-01-27 19:43:55.14	21.43	13.11	-37.5	-38.4	23.3	0.00e+00	0	32	0	407896064	48	5976
2026-01-27 19:43:58.16	20.86	13.21	-37.7	-38.7	23.3	0.00e+00	0	32	0	413138944	48	6206
2026-01-27 19:44:01.19	20.29	13.30	-37.6	-38.5	23.4	0.00e+00	92	32	0	418381824	48	6070
2026-01-27 19:44:04.22	19.71	13.39	-37.5	-38.4	23.5	0.00e+00	0	32	0	424673280	48	6033
2026-01-27 19:44:07.25	19.13	13.48	-37.5	-38.4	23.6	0.00e+00	0	32	0	429916160	48	5989
2026-01-27 19:44:10.27	18.55	13.57	-37.5	-38.4	23.6	0.00e+00	2	32	0	436207616	48	5991
2026-01-27 19:44:13.30	17.96	13.65	-37.6	-38.5	23.5	0.00e+00	62	32	0	441450496	48	6046
2026-01-27 19:44:16.33	17.37	13.73	-37.4	-38.3	23.7	0.00e+00	81	32	0	446693376	48	5925
2026-01-27 19:44:19.35	16.78	13.81	-37.5	-38.4	23.6	0.00e+00	0	32	0	452984832	48	6023
2026-01-27 19:44:22.38	16.18	13.89	-37.7	-38.6	23.4	0.00e+00	92	32	0	458227712	48	6139
2026-01-27 19:44:25.40	15.58	13.96	-38.0	-38.9	23.1	0.00e+00	1	32	0	464519168	48	6377
2026-01-27 19:44:28.43	14.98	14.03	-38.1	-39.1	22.9	0.00e+00	0	32	0	469762048	48	6476
2026-01-27 19:44:31.46	14.37	14.09	-38.0	-38.9	23.1	0.00e+00	92	32	0	476053504	48	6379
2026-01-27 19:44:34.49	13.76	14.16	-38.3	-39.2	22.8	0.00e+00	0	32	0	481296384	48	6591
2026-01-27 19:44:37.52	13.15	14.22	-38.3	-39.3	22.8	0.00e+00	0	32	0	486539264	48	6627
2026-01-27 19:44:40.54	12.54	14.27	-38.4	-39.3	22.8	0.00e+00	92	32	0	492830720	48	6691
2026-01-27 19:44:43.57	11.92	14.33	-38.2	-39.2	23.0	0.00e+00	75	32	0	498073600	48	6542
2026-01-27 19:44:46.59	11.31	14.38	-37.8	-38.8	23.1	0.00e+00	6	32	0	504365056	48	6268
2026-01-27 19:44:49.61	10.69	14.42	-37.7	-38.6	23.4	0.00e+00	7	32	0	509607936	48	6139
2026-01-27 19:44:52.64	10.07	14.47	-37.5	-38.4	23.6	0.00e+00	92	32	0	514850816	48	5966
2026-01-27 19:44:55.67	9.44	14.51	-37.8	-38.8	23.3	0.00e+00	8	32	0	521142272	48	6246
2026-01-27 19:44:58.70	8.82	14.55	-37.9	-38.8	23.1	0.00e+00	0	32	0	526385152	48	6298
2026-01-27 19:45:01.73	8.19	14.58	-37.9	-38.8	23.2	0.00e+00	92	32	0	532676608	48	6308
2026-01-27 19:45:04.76	7.56	14.61	-38.0	-38.9	23.1	0.00e+00	3	32	0	537919488	48	6372
2026-01-27 19:45:07.78	6.93	14.64	-37.6	-38.6	23.5	0.00e+00	3	32	0	543162368	48	6109
2026-01-27 19:45:10.80	6.30	14.66	-37.9	-38.8	23.1	0.00e+00	93	32	0	549453824	48	6311
2026-01-27 19:45:13.83	5.67	14.68	-37.9	-38.9	23.2	0.00e+00	0	32	0	554696704	48	6320
2026-01-27 19:45:16.85	5.04	14.70	-37.6	-38.5	23.4	0.00e+00	0	32	0	560988160	48	6087
2026-01-27 19:45:19.88	4.41	14.71	-37.7	-38.7	23.4	0.00e+00	92	32	0	566231040	48	6179
2026-01-27 19:45:22.91	3.77	14.72	-37.7	-38.6	23.4	0.00e+00	2	32	0	572522496	48	6166
2026-01-27 19:45:25.94	3.14	14.73	-37.6	-38.5	23.4	0.00e+00	81	32	0	577765376	48	6085
2026-01-27 19:45:28.96	2.51	14.73	-37.9	-38.8	23.2	0.00e+00	0	32	0	583008256	48	6314
2026-01-27 19:45:31.99	1.87	14.73	-37.9	-38.8	23.2	0.00e+00	90	32	0	589299712	48	6308
2026-01-27 19:45:35.02	1.24	14.73	-37.5	-38.4	22.7	0.00e+00	0	32	0	594542592	48	6009
2026-01-27 19:45:38.05	0.61	14.72	-37.7	-38.6	23.2	0.00e+00	0	32	0	600834048	48	6146
2026-01-27 19:45:41.07	359.97	14.71	-37.8	-38.8	23.3	0.00e+00	91	32	0	606076928	48	6256
2026-01-27 19:45:44.10	359.34	14.69	-37.9	-38.9	23.2	0.00e+00	81	32	0	611319808	48	6329
2026-01-27 19:45:47.12	358.71	14.67	-38.1	-39.1	23.0	0.00e+00	0	32	0	617611264	48	6507
2026-01-27 19:45:50.15	358.08	14.65	-38.3	-39.2	22.9	0.00e+00	93	32	0	622854144	48	6596
2026-01-27 19:45:53.17	357.45	14.63	-38.3	-39.2	22.9	0.00e+00	82	32	0	629145600	48	6611
2026-01-27 19:45:56.20	356.82	14.60	-38.0	-38.9	23.2	0.00e+00	0	32	0	634388480	48	6352
2026-01-27 19:45:59.23	356.19	14.57	-38.1	-39.1	22.7	0.00e+00	28	32	0	639631360	48	6514
2026-01-27 19:46:02.26	355.57	14.53	-38.4	-39.4	22.7	0.00e+00	77	32	0	645922816	48	6737
2026-01-27 19:46:05.29	354.94	14.49	-38.1	-39.1	23.0	0.00e+00	0	32	0	651165696	48	6514
2026-01-27 19:46:08.31	354.32	14.45	-37.8	-38.7	23.4	0.00e+00	0	32	0	657457152	48	6230
2026-01-27 19:46:11.34	353.70	14.41	-37.8	-38.8	23.2	0.00e+00	92	32	0	662700032	48	6264
2026-01-27 19:46:14.37	353.08	14.36	-38.0	-39.0	23.0	0.00e+00	80	32	0	668991488	48	6403
2026-01-27 19:46:17.40	352.46	14.31	-37.9	-38.8	23.3	0.00e+00	2	32	0	674234368	48	6313
2026-01-27 19:46:20.43	351.85	14.25	-37.7	-38.6	23.5	0.00e+00	92	32	0	679477248	48	6112
2026-01-27 19:46:23.46	351.24	14.19	-37.6	-38.6	23.5	0.00e+00	0	32	0	685768704	48	6107
2026-01-27 19:46:26.49	350.63	14.13	-37.7	-38.6	23.4	0.00e+00	0	32	0	691011584	48	6144
2026-01-27 19:46:29.52	350.02	14.07	-37.9	-38.8	23.2	0.00e+00	76	32	0	697303040	48	6296
2026-01-27 19:46:32.54	349.41	14.00	-37.9	-38.9	23.2	0.00e+00	69	32	0	702545920	48	6326
2026-01-27 19:46:35.58	348.81	13.93	-38.1	-39.1	23.0	0.00e+00	75	32	0	707788800	48	6503
2026-01-27 19:46:38.61	348.21	13.86	-37.8	-38.8	23.3	0.00e+00	6	32	0	714080256	48	6256
2026-01-27 19:46:41.64	347.62	13.78	-37.9	-38.8	23.2	0.00e+00	70	32	0	719323136	48	6296
2026-01-27 19:46:44.66	347.02	13.70	-38.0	-39.0	23.0	0.00e+00	6	32	0	725614592	48	6423
2026-01-27 19:46:47.68	346.44	13.62	-38.1	-39.1	23.0	0.00e+00	0	32	0	730857472	48	6472
2026-01-27 19:46:50.70	345.85	13.53	-38.2	-39.2	22.9	0.00e+00	93	32	0	737148928	48	6578
2026-01-27 19:46:53.73	345.27	13.45	-38.2	-39.2	22.8	0.00e+00	0	32	0	742391808	48	6547
2026-01-27 19:46:56.76	344.69	13.36	-38.0	-39.0	23.1	0.00e+00	81	32	0	747634688	48	6391
2026-01-27 19:46:59.79	344.12	13.27	-37.7	-38.6	23.3	0.00e+00	92	32	0	753926144	48	6144
2026-01-27 19:47:02.81	343.55	13.17	-37.7	-38.6	23.3	0.00e+00	6	32	0	759169024	48	6146
2026-01-27 19:47:05.84	342.98	13.07	-37.6	-38.6	23.2	0.00e+00	0	32	0	765460480	48	6137
2026-01-27 19:47:08.87	342.41	12.97	-37.7	-38.6	23.3	0.00e+00	0	32	0	770703360	48	6164
2026-01-27 19:47:11.90	341.85	12.87	-37.7	-38.6	23.3	0.00e+00	82	32	0	775946240	48	6148
2026-01-27 19:47:14.92	341.30	12.77	-37.9	-38.8	23.1	0.00e+00	0	32	0	782237696	48	6305
2026-01-27 19:47:17.95	340.74	12.66	-38.1	-39.0	22.9	0.00e+00	81	32	0	787480576	48	6456
2026-01-27 19:47:20.98	340.20	12.55	-37.9	-38.9	23.1	0.00e+00	90	32	0	793772032	48	6329
2026-01-27 19:47:24.01	339.65	12.44	-37.7	-38.6	23.4	0.00e+00	1	32	0	799014912	48	6159
2026-01-27 19:47:27.03	339.11	12.33	-37.6	-38.6	23.4	0.00e+00	0	32	0	804257792	48	6115
2026-01-27 19:47:30.06	338.58	12.22	-37.8	-38.7	23.1	0.00e+00	91	32	0	810549248	48	6232
2026-01-27 19:47:33.09	338.05	12.10	-37.7	-38.6	23.3	0.00e+00	0	32	0	815792128	48	6113
2026-01-27 19:47:36.12	337.52	11.98	-37.9	-38.8	23.1	0.00e+00	0	32	0	822083584	48	6308
2026-01-27 19:47:39.15	336.99	11.86	-38.2	-39.2	22.7	0.00e+00	10	32	0	827326464	48	6604
2026-01-27 19:47:42.18	336.48	11.74	-38.4	-39.4	22.6	0.00e+00	1	32	0	833617920	48	6752
2026-01-27 19:47:45.20	335.96	11.62	-38.6	-39.6	22.4	0.00e+00	2	32	0	838860800	48	6914
2026-01-27 19:47:48.23	335.45	11.49	-38.8	-39.8	22.1	0.00e+00	14	32	0	844103680	50	6307
2026-01-27 19:47:51.26	334.95	11.36	-39.1	-40.2	21.9	0.00e+00	81	32	0	850395136	50	6547
2026-01-27 19:47:54.29	334.45	11.24	-39.2	-40.3	21.7	0.00e+00	0	32	0	855638016	50	6663
2026-01-27 19:47:57.32	333.95	11.11	-39.5	-40.6	21.4	0.00e+00	80	32	0	861929472	50	6881
2026-01-27 19:48:00.35	333.46	10.98	-39.7	-40.9	21.2	0.00e+00	90	32	0	867172352	52	6323
2026-01-27 19:48:03.38	332.97	10.84	-39.9	-41.1	21.1	0.00e+00	0	32	0	872415232	52	6505
2026-01-27 19:48:06.41	332.49	10.71	-40.1	-41.3	20.9	0.00e+00	6	32	0	878706688	52	6626
2026-01-27 19:48:09.43	332.01	10.58	-40.0	-41.2	20.9	0.00e+00	92	32	0	883949568	52	6571
2026-01-27 19:48:12.46	331.54	10.44	-40.3	-41.6	20.6	0.00e+00	0	32	0	890241024	52	6874
2026-01-27 19:48:15.49	331.07	10.30	-40.8	-42.2	20.2	0.00e+00	5	32	0	895483904	54	6541
2026-01-27 19:48:18.52	330.60	10.16	-40.7	-42.1	20.1	0.00e+00	72	32	0	901775360	54	6498
2026-01-27 19:48:21.54	330.14	10.03	-40.7	-42.0	20.0	0.00e+00	0	32	0	907018240	54	6407
2026-01-27 19:48:24.57	329.68	9.89	-40.8	-42.2	20.0	0.00e+00	78	32	0	912261120	54	6589
2026-01-27 19:48:27.60	329.23	9.74	-40.9	-42.3	19.8	0.00e+00	13	32	0	918552576	54	6645
2026-01-27 19:48:30.63	328.78	9.60	-40.9	-42.3	19.9	0.00e+00	90	32	0	923795456	54	6647
2026-01-27 19:48:33.65	328.34	9.46	-40.8	-42.1	20.1	0.00e+00	0	32	0	930086912	54	6531
2026-01-27 19:48:36.68	327.90	9.32	-40.7	-42.1	20.1	0.00e+00	8	32	0	935329792	54	6495
2026-01-27 19:48:39.71	327.47	9.17	-40.8	-42.1	19.9	0.00e+00	92	32	0	940572672	54	6520
2026-01-27 19:48:42.74	327.04	9.03	-40.9	-42.3	19.9	0.00e+00	74	32	0	946864128	54	6616
2026-01-27 19:48:45.76	326.62	8.88	-40.6	-42.0	20.2	0.00e+00	1	32	0	952107008	54	6413
2026-01-27 19:48:48.79	326.19	8.73	-40.4	-41.7	20.4	0.00e+00	92	32	0	958398464	54	6227
2026-01-27 19:48:51.81	325.78	8.59	-40.3	-41.5	20.5	0.00e+00	9	32	0	963641344	54	6103
2026-01-27 19:48:54.84	325.37	8.44	-40.3	-41.5	20.6	0.00e+00	2	32	0	968884224	54	6086
2026-01-27 19:48:57.87	324.96	8.29	-40.2	-41.4	20.6	0.00e+00	2	32	0	975175680	54	6014
2026-01-27 19:49:00.90	324.55	8.14	-40.0	-41.3	20.8	0.00e+00	78	32	0	980418560	54	5903
2026-01-27 19:49:03.92	324.16	7.99	-40.0	-41.3	20.6	0.00e+00	79	32	0	986710016	54	5900
2026-01-27 19:49:06.95	323.76	7.84	-39.9	-41.2	20.9	0.00e+00	0	32	0	991952896	54	5832
2026-01-27 19:49:09.98	323.37	7.69	-39.5	-40.7	21.4	0.00e+00	92	32	0	998244352	52	6178
2026-01-27 19:49:13.00	322.98	7.54	-39.6	-40.7	21.4	0.00e+00	0	32	0	1003487232	52	6245
2026-01-27 19:49:16.03	322.60	7.39	-39.2	-40.3	21.6	0.00e+00	0	32	0	1008730112	52	5912
2026-01-27 19:49:19.06	322.22	7.24	-39.0	-40.1	21.9	0.00e+00	92	32	0	1015021568	52	5808
2026-01-27 19:49:22.09	321.84	7.09	-39.1	-40.2	21.8	0.00e+00	2	32	0	1020264448	52	5836
2026-01-27 19:49:25.12	321.47	6.94	-39.0	-40.1	21.8	0.00e+00	78	32	0	1026555904	52	5790
2026-01-27 19:49:28.15	321.10	6.79	-38.7	-39.7	21.8	0.00e+00	92	32	0	1031798784	50	6236
2026-01-27 19:49:31.17	320.74	6.64	-38.7	-39.8	22.1	0.00e+00	0	32	0	1037041664	50	6259
2026-01-27 19:49:34.20	320.38	6.48	-38.6	-39.7	21.8	0.00e+00	2	32	0	1043333120	50	6192
2026-01-27 19:49:37.23	320.03	6.33	-39.0	-40.1	21.7	0.00e+00	5	32	0	1048576000	50	6479
2026-01-27 19:49:40.26	319.67	6.18	-38.8	-39.8	22.0	0.00e+00	85	32	0	1054867456	50	6310
2026-01-27 19:49:43.29	319.33	6.03	-39.1	-40.2	21.5	0.00e+00	0	32	0	1060110336	50	6584
2026-01-27 19:49:46.32	318.98	5.87	-39.0	-40.1	21.7	0.00e+00	0	32	0	1066401792	50	6493
2026-01-27 19:49:49.35	318.64	5.72	-39.3	-40.4	21.4	0.00e+00	90	32	0	1071644672	50	6730
2026-01-27 19:49:52.38	318.30	5.57	-39.2	-40.3	21.5	0.00e+00	78	32	0	1076887552	50	6655
2026-01-27 19:49:55.40	317.97	5.41	-39.4	-40.6	21.2	0.00e+00	5	32	0	1083179008	50	6854
2026-01-27 19:49:58.42	317.64	5.26	-39.6	-40.8	21.0	0.00e+00	92	32	0	1088421888	50	7042
2026-01-27 19:50:01.45	317.32	5.11	-39.6	-40.8	21.0	0.00e+00	7	32	0	1094713344	50	7029
2026-01-27 19:50:04.48	316.99	4.96	-39.4	-40.6	21.2	0.00e+00	7	32	0	1099956224	52	6116
2026-01-27 19:50:07.51	316.67	4.80	-40.0	-41.3	20.5	0.00e+00	76	32	0	1105199104	52	6659
2026-01-27 19:50:10.53	316.36	4.65	-39.6	-40.8	20.9	0.00e+00	0	32	0	1111490560	52	6288
2026-01-27 19:50:13.56	316.05	4.50	-39.8	-41.0	20.6	0.00e+00	9	32	0	1116733440	52	6464
2026-01-27 19:50:16.59	315.74	4.34	-39.9	-41.2	20.5	0.00e+00	11	32	0	1123024896	52	6581
2026-01-27 19:50:19.61	315.43	4.19	-40.5	-41.9	19.8	0.00e+00	92	32	0	1128267776	54	6329
2026-01-27 19:50:22.64	315.13	4.04	-40.4	-41.8	19.8	0.00e+00	6	32	0	1133510656	52	7053
2026-01-27 19:50:25.67	314.83	3.89	-40.0	-41.3	20.4	0.00e+00	8	32	0	1139802112	52	6667
2026-01-27 19:50:28.69	314.53	3.74	-40.6	-42.1	19.4	0.00e+00	92	32	0	1145044992	52	7300
2026-01-27 19:50:31.72	314.24	3.58	-40.8	-42.3	19.3	0.00e+00	75	32	0	1151336448	52	7424
2026-01-27 19:50:34.75	313.95	3.43	-40.1	-41.5	20.0	0.00e+00	76	32	0	1156579328	54	6061
2026-01-27 19:50:37.78	313.66	3.28	-41.1	-42.7	18.7	0.00e+00	92	32	0	1162870784	54	7003
2026-01-27 19:50:40.81	313.38	3.13	-41.6	-43.4	18.0	0.00e+00	5	32	0	1168113664	54	7549
2026-01-27 19:50:43.83	313.10	2.98	-47.7	-62.9	3.6	4.64e-02	0	32	104	1173356544	60	50284
2026-01-27 19:50:46.86	312.82	2.82	-48.5	-63.7	3.6	1.51e+00	0	32	104	1173356544	60	55077
2026-01-27 19:50:49.89	312.55	2.67	-48.7	-63.9	3.6	1.51e+00	0	32	104	1173356544	60	56569
2026-01-27 19:50:52.92	312.27	2.52	-48.8	-64.0	3.6	1.51e+00	0	32	104	1173356544	60	57275
2026-01-27 19:50:55.94	312.01	2.37	-48.8	-64.0	3.6	1.51e+00	0	32	104	1173356544	60	57288
2026-01-27 19:50:58.97	311.74	2.22	-48.8	-64.0	3.6	1.51e+00	0	32	104	1173356544	60	57045
2026-01-27 19:51:02.00	311.48	2.07	-48.5	-64.0	3.6	1.51e+00	0	32	104	1173356544	60	57105
2026-01-27 19:51:05.03	311.21	1.92	-48.5	-63.9	3.6	1.51e+00	0	32	104	1173356544	60	56429
2026-01-27 19:51:08.06	310.96	1.77	-48.6	-63.9	3.6	1.51e+00	0	32	104	1173356544	60	56332
2026-01-27 19:51:11.09	310.70	1.62	-48.6	-63.9	3.6	1.51e+00	0	32	104	1173356544	60	56646
2026-01-27 19:51:14.12	310.45	1.47	-48.6	-63.8	3.6	1.51e+00	0	32	104	1173356544	60	56278
2026-01-27 19:51:17.15	310.20	1.32	-48.6	-63.9	3.6	1.51e+00	0	32	104	1173356544	60	56408
2026-01-27 19:51:20.18	309.95	1.17	-48.6	-63.8	3.6	1.51e+00	0	32	104	1173356544	60	56137
2026-01-27 19:51:23.21	309.71	1.03	-48.6	-63.8	3.6	1.51e+00	0	32	104	1173356544	60	56267
2026-01-27 19:51:26.24	309.46	0.88	-48.5	-63.9	3.6	1.51e+00	0	32	104	1173356544	60	56410
2026-01-27 19:51:29.27	309.22	0.73	-48.5	-63.8	3.6	1.51e+00	0	32	104	1173356544	60	56147
2026-01-27 19:51:32.29	308.99	0.58	-48.5	-63.9	3.6	1.51e+00	0	32	104	1173356544	60	56318
2026-01-27 19:51:35.32	308.75	0.43	-48.5	-63.8	3.6	1.51e+00	0	32	104	1173356544	60	56233
2026-01-27 19:51:38.36	308.52	0.29	-48.5	-63.8	3.6	1.51e+00	0	32	104	1173356544	60	55938
2026-01-27 19:51:41.38	308.29	0.14	-48.5	-63.9	3.5	1.51e+00	0	32	104	1173356544	60	56348
2026-01-27 19:51:44.41	308.06	-0.01	-48.5	-63.8	3.6	1.51e+00	0	32	104	1173356544	60	56241

#Closed at: 2026-01-27 19:51:45
#Recorded file [1173 MB]: D:/lorett/data/35029_260128_073916.dat