passes_logs/2026/01/27/R4.6S_Anadyr/R4.6S_Anadyr__20260127_021534_SUOMI_NPP_rec.log

#Pass ID: 20260127_021534_SUOMI NPP
#Satellite: SUOMI NPP
#Configuration: NPP
#almurnet v.1.7.20251203
#Start time: 2026-01-27 02:15:37

#Version: 2.2.20231116
#Station: R4.6S_Anadyr
#Location: 177.4865 lon 64.73178 lat
#TLE: 1 37849U 11061A   26026.52266023  .00000173  00000+0  10323-3 0  9994
#TLE: 2 37849  98.7822 328.4727 0002140  43.9411 316.1934 14.19530258738341

#Time	Az	El	Level	Level2	SNR	BER	BlckErr	Temp	State	Recorded	gain1	gain2
2026-01-27 02:15:37.76	207.33	0.17	-49.2	-63.0	3.3	1.54e+00	0	27	0	0	60	51001
2026-01-27 02:15:41.79	207.58	0.38	-49.2	-64.4	3.5	1.51e+00	0	27	104	0	60	59944
2026-01-27 02:15:45.83	207.84	0.60	-49.1	-64.3	3.6	1.51e+00	0	28	104	0	60	59643
2026-01-27 02:15:49.87	208.10	0.81	-49.1	-64.3	3.6	1.51e+00	0	28	104	0	60	59056
2026-01-27 02:15:53.91	208.36	1.03	-48.9	-64.1	3.6	1.51e+00	0	28	104	0	60	58135
2026-01-27 02:15:57.95	208.63	1.25	-48.4	-63.6	3.6	1.51e+00	0	28	104	0	60	54773
2026-01-27 02:16:01.98	208.90	1.47	-47.7	-62.9	3.6	1.51e+00	0	28	104	0	60	50479
2026-01-27 02:16:06.02	209.18	1.69	-47.7	-62.9	3.6	1.51e+00	0	28	104	0	60	50235
2026-01-27 02:16:10.06	209.46	1.91	-47.7	-62.7	3.6	1.51e+00	0	28	104	0	60	49462
2026-01-27 02:16:14.10	209.74	2.14	-47.7	-62.7	3.6	1.51e+00	0	28	104	0	60	49071
2026-01-27 02:16:18.14	210.03	2.36	-47.7	-62.5	3.6	1.51e+00	0	28	104	0	60	48335
2026-01-27 02:16:22.18	210.32	2.59	-47.7	-61.5	3.6	1.51e+00	0	28	104	0	60	43195
2026-01-27 02:16:26.22	210.62	2.81	-46.1	-51.0	11.0	7.56e-03	0	28	0	4194304	60	12815
2026-01-27 02:16:30.26	210.92	3.04	-44.1	-47.0	14.8	0.00e+00	0	28	0	11534336	60	8046
2026-01-27 02:16:34.30	211.22	3.27	-44.6	-47.6	14.9	1.63e-03	0	28	0	18874368	60	8703
2026-01-27 02:16:38.34	211.53	3.50	-41.4	-43.0	19.0	0.00e+00	0	28	0	22020096	56	6402
2026-01-27 02:16:42.37	211.85	3.74	-41.1	-42.5	19.4	0.00e+00	0	28	0	29360128	56	6077
2026-01-27 02:16:46.41	212.17	3.97	-40.4	-41.8	20.0	0.00e+00	0	28	0	37748736	54	6261
2026-01-27 02:16:50.45	212.49	4.21	-40.4	-41.7	20.0	0.00e+00	0	28	0	45088768	54	6226
2026-01-27 02:16:54.48	212.82	4.44	-40.4	-41.7	20.1	0.00e+00	0	28	0	52428800	54	6223
2026-01-27 02:16:58.52	213.15	4.68	-40.6	-41.9	20.0	0.00e+00	0	28	0	59768832	54	6384
2026-01-27 02:17:02.56	213.49	4.92	-40.6	-42.0	20.0	0.00e+00	0	28	0	68157440	54	6411
2026-01-27 02:17:06.60	213.84	5.16	-40.7	-42.0	19.9	0.00e+00	0	28	0	75497472	54	6439
2026-01-27 02:17:10.63	214.19	5.40	-40.5	-41.8	20.3	0.00e+00	0	28	0	82837504	54	6258
2026-01-27 02:17:14.68	214.54	5.64	-39.7	-40.8	21.1	0.00e+00	0	28	0	90177536	52	6294
2026-01-27 02:17:18.71	214.90	5.89	-39.8	-41.0	21.1	0.00e+00	0	28	0	97517568	52	6392
2026-01-27 02:17:22.75	215.27	6.13	-39.6	-40.8	21.3	0.00e+00	0	28	0	105906176	52	6247
2026-01-27 02:17:26.79	215.64	6.38	-39.7	-40.9	21.2	0.00e+00	0	28	0	113246208	52	6349
2026-01-27 02:17:30.83	216.02	6.63	-39.4	-40.5	21.5	0.00e+00	0	28	0	120586240	52	6087
2026-01-27 02:17:34.87	216.41	6.88	-39.5	-40.7	21.4	0.00e+00	0	28	0	127926272	52	6196
2026-01-27 02:17:38.90	216.80	7.13	-39.2	-40.3	21.9	0.00e+00	0	28	0	136314880	52	5897
2026-01-27 02:17:42.94	217.20	7.38	-39.3	-40.3	21.8	0.00e+00	0	28	0	143654912	52	5961
2026-01-27 02:17:46.98	217.60	7.64	-39.8	-41.0	21.2	0.00e+00	0	28	0	150994944	52	6393
2026-01-27 02:17:51.03	218.02	7.89	-39.7	-40.8	21.3	0.00e+00	0	29	0	158334976	52	6297
2026-01-27 02:17:55.07	218.44	8.15	-39.9	-41.1	21.1	0.00e+00	0	28	0	165675008	52	6471
2026-01-27 02:17:59.11	218.86	8.41	-39.8	-40.9	21.4	0.00e+00	0	28	0	174063616	52	6366
2026-01-27 02:18:03.14	219.29	8.67	-39.1	-40.1	21.9	0.00e+00	0	28	0	181403648	52	5815
2026-01-27 02:18:07.19	219.74	8.93	-38.9	-39.9	22.2	0.00e+00	0	28	0	188743680	52	5681
2026-01-27 02:18:11.22	220.18	9.19	-39.1	-40.1	22.1	0.00e+00	0	28	0	196083712	52	5827
2026-01-27 02:18:15.26	220.64	9.45	-39.0	-40.0	22.1	0.00e+00	0	28	0	204472320	52	5754
2026-01-27 02:18:19.30	221.10	9.72	-39.2	-40.3	21.9	0.00e+00	0	28	0	211812352	52	5920
2026-01-27 02:18:23.33	221.58	9.98	-39.4	-40.5	21.7	0.00e+00	0	28	0	219152384	52	6073
2026-01-27 02:18:27.38	222.06	10.25	-39.6	-40.7	21.5	0.00e+00	0	28	0	226492416	52	6195
2026-01-27 02:18:31.42	222.55	10.52	-39.5	-40.6	21.7	0.00e+00	0	28	0	233832448	52	6138
2026-01-27 02:18:35.46	223.05	10.79	-39.9	-41.0	21.4	0.00e+00	0	28	0	242221056	52	6414
2026-01-27 02:18:39.49	223.55	11.05	-39.8	-40.9	21.4	0.00e+00	0	29	0	249561088	52	6388
2026-01-27 02:18:43.53	224.07	11.33	-39.3	-40.3	21.9	0.00e+00	0	28	0	256901120	52	5935
2026-01-27 02:18:47.56	224.59	11.60	-38.8	-39.8	22.4	0.00e+00	0	29	0	264241152	52	5588
2026-01-27 02:18:51.60	225.13	11.87	-38.7	-39.7	22.4	0.00e+00	0	28	0	272629760	50	6181
2026-01-27 02:18:55.64	225.67	12.14	-38.3	-39.2	22.8	0.00e+00	0	28	0	279969792	50	5874
2026-01-27 02:18:59.68	226.23	12.42	-38.5	-39.4	22.6	0.00e+00	0	29	0	287309824	50	6017
2026-01-27 02:19:03.71	226.79	12.69	-38.7	-39.7	22.5	0.00e+00	0	29	0	294649856	50	6175
2026-01-27 02:19:07.75	227.37	12.97	-38.6	-39.6	22.5	0.00e+00	0	29	0	301989888	50	6112
2026-01-27 02:19:11.79	227.95	13.24	-38.6	-39.6	22.5	0.00e+00	0	29	0	310378496	50	6136
2026-01-27 02:19:15.83	228.55	13.52	-39.0	-40.1	22.1	0.00e+00	0	29	0	317718528	50	6480
2026-01-27 02:19:19.87	229.15	13.79	-38.5	-39.5	22.7	0.00e+00	0	29	0	325058560	50	6067
2026-01-27 02:19:23.90	229.77	14.07	-37.9	-38.9	23.2	0.00e+00	0	29	0	332398592	50	5631
2026-01-27 02:19:27.94	230.40	14.35	-37.8	-38.7	23.3	0.00e+00	0	29	0	340787200	48	6229
2026-01-27 02:19:31.98	231.04	14.62	-37.8	-38.7	23.3	0.00e+00	0	29	0	348127232	48	6239
2026-01-27 02:19:36.02	231.69	14.90	-37.6	-38.5	23.3	0.00e+00	0	29	0	355467264	48	6048
2026-01-27 02:19:40.06	232.36	15.18	-37.9	-38.9	23.2	0.00e+00	0	29	0	362807296	48	6321
2026-01-27 02:19:44.10	233.03	15.45	-38.3	-39.3	22.9	0.00e+00	0	29	0	370147328	48	6642
2026-01-27 02:19:48.15	233.72	15.73	-38.0	-38.9	23.2	0.00e+00	0	29	0	378535936	48	6333
2026-01-27 02:19:52.18	234.42	16.00	-37.7	-38.6	23.4	0.00e+00	0	29	0	385875968	48	6153
2026-01-27 02:19:56.22	235.13	16.27	-37.4	-38.2	23.7	0.00e+00	0	29	0	393216000	48	5883
2026-01-27 02:20:00.26	235.86	16.55	-37.3	-38.2	23.7	0.00e+00	0	29	0	400556032	48	5829
2026-01-27 02:20:04.30	236.60	16.82	-37.0	-37.8	24.0	0.00e+00	0	29	0	408944640	48	5623
2026-01-27 02:20:08.34	237.35	17.09	-37.3	-38.1	23.7	0.00e+00	0	29	0	416284672	48	5821
2026-01-27 02:20:12.37	238.11	17.35	-37.6	-38.5	23.6	0.00e+00	0	29	0	423624704	48	6061
2026-01-27 02:20:16.41	238.89	17.62	-37.5	-38.3	23.6	0.00e+00	0	29	0	430964736	48	5956
2026-01-27 02:20:20.45	239.68	17.88	-37.9	-38.8	23.3	0.00e+00	0	29	0	438304768	48	6297
2026-01-27 02:20:24.49	240.48	18.14	-37.8	-38.7	23.5	0.00e+00	0	29	0	446693376	48	6182
2026-01-27 02:20:28.53	241.30	18.40	-37.9	-38.8	23.3	0.00e+00	0	29	0	454033408	48	6281
2026-01-27 02:20:32.56	242.13	18.65	-37.6	-38.4	23.6	0.00e+00	0	29	0	461373440	48	6028
2026-01-27 02:20:36.60	242.98	18.90	-37.8	-38.7	23.4	0.00e+00	0	29	0	468713472	48	6225
2026-01-27 02:20:40.64	243.83	19.15	-38.3	-39.2	22.9	0.00e+00	0	29	0	477102080	48	6598
2026-01-27 02:20:44.68	244.71	19.39	-38.0	-38.9	23.2	0.00e+00	0	29	0	484442112	48	6339
2026-01-27 02:20:48.72	245.59	19.63	-38.6	-39.6	22.7	0.00e+00	0	29	0	491782144	50	6150
2026-01-27 02:20:52.76	246.49	19.87	-38.3	-39.2	23.0	0.00e+00	0	29	0	499122176	50	5841
2026-01-27 02:20:56.80	247.40	20.10	-39.4	-40.5	22.0	0.00e+00	0	29	0	506462208	50	6822
2026-01-27 02:21:00.84	248.33	20.32	-38.6	-39.5	22.8	0.00e+00	0	29	0	514850816	50	6074
2026-01-27 02:21:04.88	249.26	20.54	-38.7	-39.6	22.6	0.00e+00	0	29	0	522190848	50	6156
2026-01-27 02:21:08.91	250.21	20.75	-38.6	-39.6	22.7	0.00e+00	0	29	0	529530880	50	6121
2026-01-27 02:21:12.95	251.18	20.96	-39.0	-40.0	22.4	0.00e+00	0	29	0	536870912	50	6448
2026-01-27 02:21:16.98	252.15	21.16	-37.9	-38.8	23.5	0.00e+00	0	29	0	545259520	50	5621
2026-01-27 02:21:21.02	253.14	21.35	-37.9	-38.8	23.4	0.00e+00	0	29	0	552599552	48	6283
2026-01-27 02:21:25.05	254.14	21.54	-39.3	-40.3	22.1	0.00e+00	0	29	0	559939584	50	6643
2026-01-27 02:21:29.09	255.15	21.72	-38.3	-39.2	23.1	0.00e+00	0	29	0	567279616	50	5859
2026-01-27 02:21:33.13	256.17	21.89	-38.9	-39.9	22.5	0.00e+00	0	29	0	574619648	50	6338
2026-01-27 02:21:37.17	257.20	22.05	-38.4	-39.4	23.1	0.00e+00	0	29	0	583008256	50	5970
2026-01-27 02:21:41.21	258.25	22.21	-38.8	-39.9	22.4	0.00e+00	0	29	0	590348288	50	6324
2026-01-27 02:21:45.24	259.30	22.35	-37.8	-38.7	23.4	0.00e+00	0	29	0	597688320	50	5553
2026-01-27 02:21:49.28	260.36	22.49	-39.0	-40.0	22.4	0.00e+00	0	29	0	605028352	50	6393
2026-01-27 02:21:53.32	261.43	22.61	-38.2	-39.1	23.2	0.00e+00	0	29	0	612368384	50	5771
2026-01-27 02:21:57.36	262.51	22.73	-38.4	-39.4	23.0	0.00e+00	0	29	0	620756992	50	5983
2026-01-27 02:22:01.39	263.60	22.84	-38.8	-39.8	22.4	0.00e+00	0	29	0	628097024	50	6278
2026-01-27 02:22:05.43	264.69	22.94	-39.6	-40.6	22.0	0.00e+00	0	29	0	635437056	52	6163
2026-01-27 02:22:09.47	265.79	23.02	-39.0	-39.9	22.7	0.00e+00	0	29	0	642777088	52	5683
2026-01-27 02:22:13.51	266.90	23.10	-38.6	-39.5	22.8	0.00e+00	0	29	0	651165696	50	6100
2026-01-27 02:22:17.55	268.01	23.17	-37.7	-38.6	23.6	0.00e+00	0	29	0	658505728	48	6129
2026-01-27 02:22:21.58	269.12	23.22	-39.0	-40.0	22.4	0.00e+00	0	29	0	665845760	50	6449
2026-01-27 02:22:25.62	270.24	23.26	-38.0	-38.9	23.4	0.00e+00	0	29	0	673185792	50	5680
2026-01-27 02:22:29.65	271.36	23.30	-38.6	-39.5	22.9	0.00e+00	0	29	0	680525824	50	6050
2026-01-27 02:22:33.69	272.48	23.32	-38.4	-39.3	23.0	0.00e+00	0	29	0	688914432	50	5943
2026-01-27 02:22:37.73	273.61	23.33	-38.1	-39.0	23.2	0.00e+00	0	29	0	696254464	50	5748
2026-01-27 02:22:41.77	274.73	23.33	-38.4	-39.3	23.0	0.00e+00	0	29	0	703594496	50	5951
2026-01-27 02:22:45.81	275.85	23.32	-38.3	-39.2	23.1	0.00e+00	0	29	0	710934528	50	5890
2026-01-27 02:22:49.84	276.97	23.29	-38.1	-39.0	23.4	0.00e+00	0	29	0	719323136	50	5697
2026-01-27 02:22:53.88	278.09	23.26	-38.0	-38.9	23.3	0.00e+00	0	29	0	726663168	50	5655
2026-01-27 02:22:57.92	279.21	23.21	-37.8	-38.6	23.5	0.00e+00	0	29	0	734003200	48	6165
2026-01-27 02:23:01.96	280.32	23.16	-37.1	-37.9	24.1	0.00e+00	0	29	0	741343232	48	5679
2026-01-27 02:23:06.00	281.43	23.09	-37.5	-38.4	23.6	0.00e+00	0	29	0	748683264	48	5977
2026-01-27 02:23:10.04	282.54	23.01	-37.9	-38.8	23.4	0.00e+00	0	29	0	757071872	48	6267
2026-01-27 02:23:14.08	283.64	22.93	-38.1	-38.9	23.3	0.00e+00	0	29	0	764411904	48	6387
2026-01-27 02:23:18.12	284.73	22.83	-38.1	-39.0	23.2	0.00e+00	0	29	0	771751936	48	6427
2026-01-27 02:23:22.16	285.81	22.72	-38.9	-39.8	22.6	0.00e+00	0	29	0	779091968	50	6310
2026-01-27 02:23:26.20	286.89	22.60	-37.4	-38.2	23.8	0.00e+00	0	29	0	787480576	48	5871
2026-01-27 02:23:30.24	287.96	22.47	-37.1	-37.9	24.1	0.00e+00	0	29	0	794820608	48	5682
2026-01-27 02:23:34.28	289.02	22.34	-36.8	-37.6	24.3	0.00e+00	0	29	0	802160640	46	6124
2026-01-27 02:23:38.31	290.06	22.19	-36.9	-37.7	24.2	0.00e+00	0	29	0	809500672	46	6211
2026-01-27 02:23:42.35	291.10	22.03	-37.3	-38.2	23.9	0.00e+00	0	29	0	816840704	46	6571
2026-01-27 02:23:46.39	292.13	21.87	-37.1	-38.0	23.8	0.00e+00	0	29	0	825229312	46	6397
2026-01-27 02:23:50.43	293.15	21.70	-37.0	-37.8	24.2	0.00e+00	0	29	0	832569344	46	6291
2026-01-27 02:23:54.48	294.16	21.52	-36.6	-37.4	24.5	0.00e+00	0	29	0	839909376	46	5989
2026-01-27 02:23:58.51	295.15	21.34	-36.4	-37.2	24.5	0.00e+00	0	29	0	847249408	46	5875
2026-01-27 02:24:02.55	296.14	21.14	-36.9	-37.8	24.1	0.00e+00	0	29	0	855638016	46	6248
2026-01-27 02:24:06.59	297.11	20.94	-36.9	-37.8	24.0	0.00e+00	0	29	0	862978048	46	6270
2026-01-27 02:24:10.63	298.07	20.74	-37.1	-38.0	23.7	0.00e+00	0	29	0	870318080	46	6398
2026-01-27 02:24:14.67	299.01	20.52	-37.3	-38.2	23.8	0.00e+00	0	29	0	877658112	48	5830
2026-01-27 02:24:18.71	299.94	20.30	-36.7	-37.5	24.3	0.00e+00	0	29	0	884998144	48	5403
2026-01-27 02:24:22.74	300.86	20.08	-37.2	-38.0	23.7	0.00e+00	0	29	0	893386752	46	6419
2026-01-27 02:24:26.78	301.77	19.85	-38.7	-39.7	22.6	0.00e+00	0	29	0	900726784	48	6931
2026-01-27 02:24:30.81	302.66	19.62	-38.5	-39.5	22.8	0.00e+00	0	29	0	908066816	50	6041
2026-01-27 02:24:34.85	303.54	19.38	-38.2	-39.1	23.2	0.00e+00	0	29	0	915406848	50	5774
2026-01-27 02:24:38.89	304.41	19.14	-37.9	-38.8	23.3	0.00e+00	0	29	0	923795456	48	6281
2026-01-27 02:24:42.92	305.26	18.89	-38.1	-39.0	23.1	0.00e+00	0	29	0	931135488	48	6430
2026-01-27 02:24:46.96	306.10	18.64	-38.8	-39.8	22.5	0.00e+00	0	29	0	938475520	50	6278
2026-01-27 02:24:51.00	306.92	18.39	-40.2	-41.4	21.4	0.00e+00	0	29	0	945815552	52	6703
2026-01-27 02:24:55.04	307.74	18.14	-39.0	-40.0	22.4	0.00e+00	0	29	0	953155584	52	5729
2026-01-27 02:24:59.08	308.54	17.88	-38.8	-39.8	22.5	0.00e+00	0	29	0	961544192	50	6274
2026-01-27 02:25:03.11	309.32	17.62	-38.9	-39.9	22.4	0.00e+00	0	29	0	968884224	50	6358
2026-01-27 02:25:07.14	310.09	17.35	-38.4	-39.3	22.8	0.00e+00	0	29	0	976224256	50	5955
2026-01-27 02:25:11.19	310.85	17.09	-38.4	-39.4	22.7	0.00e+00	0	29	0	983564288	50	5991
2026-01-27 02:25:15.23	311.60	16.82	-38.3	-39.2	22.8	0.00e+00	0	29	0	991952896	50	5877
2026-01-27 02:25:19.27	312.33	16.55	-39.0	-40.1	22.1	0.00e+00	0	29	0	999292928	50	6501
2026-01-27 02:25:23.31	313.06	16.28	-38.2	-39.2	22.8	0.00e+00	0	29	0	1006632960	50	5858
2026-01-27 02:25:27.35	313.76	16.01	-37.8	-38.7	23.2	0.00e+00	0	29	0	1013972992	48	6234
2026-01-27 02:25:31.38	314.46	15.74	-38.5	-39.4	22.6	0.00e+00	0	29	0	1021313024	48	6767
2026-01-27 02:25:35.42	315.14	15.47	-38.4	-39.4	22.7	0.00e+00	0	29	0	1029701632	48	6717
2026-01-27 02:25:39.46	315.82	15.20	-39.2	-40.3	22.0	0.00e+00	0	29	0	1037041664	50	6629
2026-01-27 02:25:43.50	316.48	14.92	-38.7	-39.7	22.4	0.00e+00	0	29	0	1044381696	50	6225
2026-01-27 02:25:47.54	317.12	14.65	-38.0	-38.9	23.0	0.00e+00	0	29	0	1051721728	50	5659
2026-01-27 02:25:51.57	317.76	14.37	-37.8	-38.7	23.2	0.00e+00	0	29	0	1060110336	48	6232
2026-01-27 02:25:55.61	318.39	14.10	-37.3	-38.2	23.6	0.00e+00	0	29	0	1067450368	48	5866
2026-01-27 02:25:59.65	319.00	13.83	-37.1	-38.0	23.8	0.00e+00	0	29	0	1074790400	48	5711
2026-01-27 02:26:03.69	319.60	13.55	-38.5	-39.5	22.6	0.00e+00	0	29	0	1082130432	48	6776
2026-01-27 02:26:07.72	320.20	13.28	-38.7	-39.7	22.5	0.00e+00	0	29	0	1089470464	50	6196
2026-01-27 02:26:11.76	320.78	13.00	-39.0	-40.1	22.1	0.00e+00	0	29	0	1097859072	50	6490
2026-01-27 02:26:15.80	321.35	12.73	-39.3	-40.4	21.9	0.00e+00	0	29	0	1105199104	50	6706
2026-01-27 02:26:19.83	321.91	12.46	-38.7	-39.7	22.4	0.00e+00	0	29	0	1112539136	50	6197
2026-01-27 02:26:23.87	322.46	12.19	-38.0	-38.9	23.0	0.00e+00	0	29	0	1119879168	50	5694
2026-01-27 02:26:27.91	323.01	11.92	-38.5	-39.5	22.5	0.00e+00	0	29	0	1127219200	50	6063
2026-01-27 02:26:31.96	323.54	11.65	-38.7	-39.7	22.3	0.00e+00	0	29	0	1135607808	50	6229
2026-01-27 02:26:35.99	324.06	11.38	-39.2	-40.2	21.8	0.00e+00	0	29	0	1142947840	50	6610
2026-01-27 02:26:40.04	324.58	11.11	-40.0	-41.2	21.1	0.00e+00	0	29	0	1150287872	52	6552
2026-01-27 02:26:44.08	325.08	10.84	-39.7	-40.8	21.4	0.00e+00	0	29	0	1157627904	52	6316
2026-01-27 02:26:48.12	325.58	10.57	-38.7	-39.7	22.3	0.00e+00	0	29	0	1166016512	52	5549
2026-01-27 02:26:52.16	326.07	10.31	-38.3	-39.3	22.6	0.00e+00	0	29	0	1173356544	50	5915
2026-01-27 02:26:56.19	326.55	10.05	-38.7	-39.7	22.3	0.00e+00	0	29	0	1180696576	50	6191
2026-01-27 02:27:00.23	327.02	9.78	-39.0	-40.0	22.0	0.00e+00	0	29	0	1188036608	50	6436
2026-01-27 02:27:04.26	327.48	9.52	-39.6	-40.7	21.4	0.00e+00	0	29	0	1195376640	50	6974
2026-01-27 02:27:08.31	327.94	9.26	-39.8	-40.9	21.3	0.00e+00	0	29	0	1203765248	52	6378
2026-01-27 02:27:12.35	328.39	9.00	-40.5	-41.8	20.5	0.00e+00	0	29	0	1211105280	52	7035
2026-01-27 02:27:16.39	328.83	8.74	-39.9	-41.1	21.1	0.00e+00	0	29	0	1218445312	52	6465
2026-01-27 02:27:20.43	329.26	8.49	-39.8	-40.9	21.2	0.00e+00	0	29	0	1225785344	52	6384
2026-01-27 02:27:24.47	329.68	8.23	-40.0	-41.2	20.9	0.00e+00	0	29	0	1234173952	52	6590
2026-01-27 02:27:28.51	330.10	7.98	-40.4	-41.6	20.5	0.00e+00	0	29	0	1241513984	52	6917
2026-01-27 02:27:32.54	330.51	7.72	-39.8	-41.0	21.0	0.00e+00	0	29	0	1248854016	52	6443
2026-01-27 02:27:36.58	330.92	7.47	-39.9	-41.1	21.0	0.00e+00	0	29	0	1256194048	52	6470
2026-01-27 02:27:40.62	331.32	7.22	-39.4	-40.5	21.5	0.00e+00	0	29	0	1263534080	52	6076
2026-01-27 02:27:44.66	331.71	6.97	-39.5	-40.6	21.2	0.00e+00	0	29	0	1271922688	52	6127
2026-01-27 02:27:48.70	332.10	6.72	-39.8	-41.0	20.9	0.00e+00	0	29	0	1279262720	52	6453
2026-01-27 02:27:52.74	332.48	6.48	-40.5	-41.9	20.1	0.00e+00	0	29	0	1286602752	52	7095
2026-01-27 02:27:56.78	332.85	6.23	-40.4	-41.7	20.2	0.00e+00	0	29	0	1293942784	54	6232
2026-01-27 02:28:00.81	333.22	5.99	-40.4	-41.8	19.7	0.00e+00	0	29	0	1302331392	54	6307
2026-01-27 02:28:04.85	333.58	5.75	-40.9	-42.5	18.8	0.00e+00	0	29	0	1309671424	54	6786
2026-01-27 02:28:08.89	333.93	5.51	-42.5	-45.1	15.3	0.00e+00	0	29	0	1317011456	56	8160
2026-01-27 02:28:12.93	334.29	5.27	-43.4	-47.9	10.8	8.69e-04	0	29	0	1324351488	58	10077
2026-01-27 02:28:16.97	334.63	5.03	-44.0	-51.1	6.7	1.19e-01	0	29	0	1332740096	60	13036
2026-01-27 02:28:21.01	334.97	4.79	-44.0	-53.0	4.4	7.43e-01	0	29	0	1340080128	60	16211
2026-01-27 02:28:25.05	335.31	4.56	-44.2	-55.8	3.9	1.41e+00	0	29	0	1344274432	60	22213
2026-01-27 02:28:29.09	335.64	4.32	-44.1	-57.4	3.6	1.51e+00	0	29	104	1344274432	60	26876
2026-01-27 02:28:33.13	335.96	4.09	-44.1	-59.2	3.6	1.51e+00	0	29	104	1344274432	60	32829
2026-01-27 02:28:37.16	336.28	3.86	-44.2	-58.3	3.6	1.51e+00	0	29	104	1344274432	60	29736
2026-01-27 02:28:41.20	336.60	3.63	-44.0	-59.1	3.6	1.51e+00	0	29	104	1344274432	60	32647
2026-01-27 02:28:45.24	336.91	3.40	-44.0	-59.1	3.6	1.51e+00	0	29	104	1344274432	60	32766
2026-01-27 02:28:49.28	337.21	3.17	-44.1	-59.2	3.6	1.51e+00	0	29	104	1344274432	60	33059
2026-01-27 02:28:53.31	337.52	2.94	-44.5	-59.6	3.6	1.51e+00	0	29	104	1344274432	60	34709
2026-01-27 02:28:57.35	337.81	2.72	-48.9	-64.0	3.6	1.51e+00	0	29	104	1344274432	60	57456
2026-01-27 02:29:01.39	338.11	2.50	-49.1	-64.3	3.6	1.51e+00	0	29	104	1344274432	60	59491
2026-01-27 02:29:05.43	338.40	2.27	-49.2	-64.4	3.6	1.51e+00	0	29	104	1344274432	60	59664
2026-01-27 02:29:09.47	338.68	2.05	-48.9	-64.3	3.6	1.51e+00	0	29	104	1344274432	60	59108
2026-01-27 02:29:13.51	338.96	1.83	-48.9	-64.2	3.6	1.51e+00	0	29	104	1344274432	60	58826
2026-01-27 02:29:17.55	339.24	1.61	-49.0	-64.2	3.6	1.51e+00	0	29	104	1344274432	60	58771
2026-01-27 02:29:21.59	339.52	1.39	-49.0	-64.2	3.6	1.51e+00	0	29	104	1344274432	60	58953
2026-01-27 02:29:25.63	339.79	1.18	-49.1	-64.2	3.6	1.51e+00	0	29	104	1344274432	60	58838
2026-01-27 02:29:29.67	340.05	0.96	-49.0	-64.2	3.6	1.51e+00	0	29	104	1344274432	60	58893
2026-01-27 02:29:33.71	340.32	0.75	-49.0	-64.2	3.6	1.51e+00	0	29	104	1344274432	60	58634
2026-01-27 02:29:37.75	340.58	0.53	-49.1	-64.3	3.6	1.51e+00	0	29	104	1344274432	60	59344
2026-01-27 02:29:41.79	340.83	0.32	-49.1	-64.3	3.6	1.51e+00	0	29	104	1344274432	60	59236
2026-01-27 02:29:45.83	341.09	0.11	-49.1	-64.3	3.6	1.51e+00	0	29	104	1344274432	60	59272

#Closed at: 2026-01-27 02:29:47
#Recorded file [1344 MB]: D:/lorett/data/35029_260127_141537.dat