passes_logs/2026/01/27/R4.6S_Anadyr/R4.6S_Anadyr__20260127_234518_NOAA_21_JPSS-2_rec.log

#Pass ID: 20260127_234518_NOAA 21 (JPSS-2)
#Satellite: NOAA 21 (JPSS-2)
#Configuration: NOAA-21
#almurnet v.1.7.20251203
#Start time: 2026-01-27 23:45:20

#Version: 2.2.20231116
#Station: R4.6S_Anadyr
#Location: 177.4865 lon 64.73178 lat
#TLE: 1 54234U 22150A   26027.55906748  .00000170  00000+0  10132-3 0  9996
#TLE: 2 54234  98.7510 328.3076 0000860 204.4692 155.6443 14.19540154166599

#Time	Az	El	Level	Level2	SNR	BER	BlckErr	Temp	State	Recorded	gain1	gain2
2026-01-27 23:45:20.74	144.79	0.15	-45.6	-60.0	3.5	1.51e+00	0	29	0	0	60	40508
2026-01-27 23:45:24.77	144.75	0.40	-48.9	-61.8	3.5	1.52e+00	0	31	104	0	60	42961
2026-01-27 23:45:28.80	144.71	0.64	-48.8	-61.8	3.5	1.51e+00	0	31	104	0	60	43112
2026-01-27 23:45:32.84	144.67	0.89	-48.9	-61.7	3.5	1.52e+00	0	31	104	0	60	42730
2026-01-27 23:45:36.88	144.63	1.14	-48.6	-61.5	3.5	1.52e+00	0	31	104	0	60	41862
2026-01-27 23:45:40.92	144.58	1.39	-48.2	-61.1	3.5	1.52e+00	0	31	104	0	60	39688
2026-01-27 23:45:44.96	144.54	1.65	-46.9	-59.7	3.5	1.52e+00	0	31	104	0	60	33989
2026-01-27 23:45:49.00	144.50	1.90	-46.9	-59.7	3.5	1.52e+00	0	31	104	0	60	33918
2026-01-27 23:45:53.03	144.45	2.16	-46.9	-59.7	3.5	1.52e+00	0	31	104	0	60	33851
2026-01-27 23:45:57.07	144.40	2.42	-46.9	-59.8	3.5	1.52e+00	0	31	104	0	60	34204
2026-01-27 23:46:01.11	144.36	2.69	-46.9	-59.6	3.5	1.52e+00	0	31	104	0	60	33554
2026-01-27 23:46:05.15	144.31	2.95	-46.9	-59.7	3.5	1.52e+00	0	31	104	0	60	33894
2026-01-27 23:46:09.19	144.26	3.22	-46.5	-55.8	4.4	1.43e+00	2	31	104	0	60	21730
2026-01-27 23:46:13.22	144.21	3.49	-43.7	-46.8	12.3	2.59e-03	0	32	0	8388608	60	7696
2026-01-27 23:46:17.26	144.15	3.77	-41.7	-43.7	15.3	7.00e-07	0	32	0	20971520	56	6766
2026-01-27 23:46:21.30	144.10	4.04	-46.7	-58.2	3.5	1.50e+00	0	32	104	28311552	60	28547
2026-01-27 23:46:25.35	144.05	4.32	-41.7	-43.7	15.2	0.00e+00	0	32	0	35651584	56	6766
2026-01-27 23:46:29.38	143.99	4.61	-40.7	-42.5	16.3	0.00e+00	0	32	0	48234496	54	6588
2026-01-27 23:46:33.42	143.93	4.89	-39.8	-41.4	17.7	0.00e+00	0	32	0	60817408	52	6513
2026-01-27 23:46:37.46	143.87	5.18	-38.8	-40.1	19.0	0.00e+00	0	32	0	73400320	50	6330
2026-01-27 23:46:41.50	143.81	5.47	-38.2	-39.5	19.2	0.00e+00	0	32	0	85983232	50	5877
2026-01-27 23:46:45.54	143.75	5.77	-38.4	-39.7	19.3	0.00e+00	0	32	0	98566144	50	6051
2026-01-27 23:46:49.58	143.69	6.06	-38.3	-39.7	19.4	0.00e+00	0	32	0	111149056	50	6055
2026-01-27 23:46:53.63	143.62	6.37	-38.3	-39.7	19.5	0.00e+00	0	32	0	124780544	48	6743
2026-01-27 23:46:57.67	143.56	6.67	-38.3	-39.6	19.6	0.00e+00	0	32	0	137363456	48	6665
2026-01-27 23:47:01.71	143.49	6.98	-37.7	-38.9	20.2	0.00e+00	0	32	0	149946368	48	6167
2026-01-27 23:47:05.75	143.42	7.29	-37.6	-38.7	20.5	0.00e+00	0	32	0	162529280	48	6055
2026-01-27 23:47:09.79	143.35	7.61	-37.5	-38.6	20.7	0.00e+00	0	32	0	175112192	48	5988
2026-01-27 23:47:13.83	143.28	7.93	-37.3	-38.4	20.9	0.00e+00	0	32	0	187695104	48	5853
2026-01-27 23:47:17.87	143.20	8.25	-37.5	-38.6	20.8	0.00e+00	0	32	0	200278016	48	5968
2026-01-27 23:47:21.91	143.12	8.58	-36.9	-38.0	21.4	0.00e+00	0	32	0	212860928	48	5557
2026-01-27 23:47:25.95	143.04	8.92	-37.1	-38.2	21.2	0.00e+00	0	32	0	225443840	48	5704
2026-01-27 23:47:29.99	142.96	9.25	-37.1	-38.2	21.2	0.00e+00	0	32	0	238026752	48	5692
2026-01-27 23:47:34.03	142.88	9.59	-36.8	-37.8	21.7	0.00e+00	0	32	0	250609664	46	6133
2026-01-27 23:47:38.07	142.79	9.94	-36.8	-37.9	21.6	0.00e+00	0	32	0	263192576	46	6143
2026-01-27 23:47:42.11	142.71	10.29	-36.7	-37.8	21.7	0.00e+00	0	32	0	275775488	46	6097
2026-01-27 23:47:46.15	142.61	10.65	-36.7	-37.8	21.6	0.00e+00	0	32	0	288358400	46	6098
2026-01-27 23:47:50.19	142.52	11.01	-36.7	-37.7	21.7	0.00e+00	0	32	0	300941312	46	6054
2026-01-27 23:47:54.23	142.43	11.38	-36.6	-37.7	21.3	0.00e+00	0	32	0	313524224	46	6004
2026-01-27 23:47:58.27	142.33	11.75	-36.5	-37.6	21.8	0.00e+00	0	32	0	326107136	46	5943
2026-01-27 23:48:02.31	142.23	12.13	-36.4	-37.5	22.0	0.00e+00	0	32	0	338690048	46	5866
2026-01-27 23:48:06.35	142.12	12.51	-36.2	-37.2	22.3	0.00e+00	0	32	0	351272960	46	5695
2026-01-27 23:48:10.39	142.01	12.90	-35.8	-36.8	22.6	0.00e+00	0	32	0	363855872	46	5443
2026-01-27 23:48:14.43	141.90	13.30	-35.4	-36.4	23.1	0.00e+00	0	32	0	376438784	44	5808
2026-01-27 23:48:18.47	141.79	13.70	-35.1	-36.1	23.4	0.00e+00	0	32	0	389021696	44	5595
2026-01-27 23:48:22.51	141.67	14.11	-35.0	-35.9	23.6	0.00e+00	0	32	0	401604608	44	5507
2026-01-27 23:48:26.55	141.55	14.52	-34.5	-35.4	24.0	0.00e+00	0	32	0	414187520	42	5845
2026-01-27 23:48:30.59	141.42	14.95	-34.6	-35.5	24.1	0.00e+00	0	32	0	426770432	42	5888
2026-01-27 23:48:34.63	141.29	15.38	-34.5	-35.3	24.2	0.00e+00	0	32	0	440401920	42	5789
2026-01-27 23:48:38.67	141.16	15.81	-34.4	-35.3	24.2	0.00e+00	0	32	0	452984832	42	5759
2026-01-27 23:48:42.71	141.02	16.26	-34.5	-35.3	24.2	0.00e+00	0	32	0	465567744	42	5790
2026-01-27 23:48:46.75	140.88	16.71	-34.5	-35.4	24.1	0.00e+00	0	32	0	478150656	42	5819
2026-01-27 23:48:50.79	140.73	17.17	-34.4	-35.3	24.2	0.00e+00	0	32	0	490733568	42	5774
2026-01-27 23:48:54.83	140.58	17.64	-34.4	-35.3	24.2	0.00e+00	0	32	0	503316480	42	5789
2026-01-27 23:48:58.88	140.42	18.13	-34.4	-35.3	24.2	0.00e+00	0	32	0	515899392	42	5765
2026-01-27 23:49:02.91	140.26	18.61	-34.4	-35.4	24.2	0.00e+00	0	32	0	528482304	42	5793
2026-01-27 23:49:06.95	140.09	19.11	-34.8	-35.7	24.0	0.00e+00	0	32	0	541065216	42	6041
2026-01-27 23:49:11.00	139.92	19.62	-34.7	-35.6	24.1	0.00e+00	0	32	0	553648128	42	5950
2026-01-27 23:49:15.04	139.74	20.14	-34.3	-35.2	24.4	0.00e+00	0	32	0	566231040	42	5664
2026-01-27 23:49:19.08	139.55	20.67	-34.1	-35.0	24.6	0.00e+00	0	32	0	578813952	42	5556
2026-01-27 23:49:23.12	139.35	21.21	-33.8	-34.7	24.8	0.00e+00	0	32	0	591396864	42	5350
2026-01-27 23:49:27.16	139.15	21.76	-33.7	-34.5	24.9	0.00e+00	0	32	0	603979776	40	5907
2026-01-27 23:49:31.20	138.94	22.32	-32.9	-33.7	25.5	0.00e+00	0	32	0	616562688	40	5398
2026-01-27 23:49:35.24	138.72	22.90	-32.8	-33.6	25.5	0.00e+00	0	32	0	629145600	38	5979
2026-01-27 23:49:39.28	138.50	23.49	-32.7	-33.5	25.6	0.00e+00	0	32	0	641728512	38	5899
2026-01-27 23:49:43.32	138.26	24.09	-32.8	-33.6	25.7	0.00e+00	0	32	0	654311424	38	5963
2026-01-27 23:49:47.36	138.01	24.71	-32.7	-33.6	25.6	0.00e+00	0	32	0	666894336	38	5930
2026-01-27 23:49:51.40	137.76	25.33	-32.9	-33.7	25.5	0.00e+00	0	32	0	679477248	38	6038
2026-01-27 23:49:55.44	137.49	25.98	-33.2	-34.1	25.1	0.00e+00	0	32	0	692060160	38	6303
2026-01-27 23:49:59.48	137.21	26.64	-33.6	-34.4	24.9	0.00e+00	0	32	0	704643072	38	6563
2026-01-27 23:50:03.52	136.92	27.31	-34.2	-35.1	24.4	0.00e+00	0	32	0	717225984	40	6287
2026-01-27 23:50:07.56	136.61	28.00	-34.2	-35.1	24.3	0.00e+00	0	32	0	730857472	40	6343
2026-01-27 23:50:11.60	136.29	28.71	-34.4	-35.3	24.1	0.00e+00	0	32	0	742391808	40	6474
2026-01-27 23:50:15.64	135.96	29.43	-34.2	-35.1	24.5	0.00e+00	0	32	0	756023296	40	6331
2026-01-27 23:50:19.67	135.61	30.17	-34.1	-35.0	24.5	0.00e+00	0	32	0	768606208	40	6208
2026-01-27 23:50:23.72	135.24	30.94	-33.8	-34.7	24.5	0.00e+00	0	32	0	781189120	40	6032
2026-01-27 23:50:27.76	134.86	31.71	-33.6	-34.5	24.4	0.00e+00	0	32	0	793772032	40	5913
2026-01-27 23:50:31.80	134.45	32.51	-34.0	-34.9	24.3	0.00e+00	0	32	0	806354944	40	6183
2026-01-27 23:50:35.84	134.02	33.33	-34.6	-35.5	24.2	0.00e+00	0	32	0	818937856	40	6620
2026-01-27 23:50:39.88	133.57	34.17	-34.5	-35.4	24.3	0.00e+00	0	32	0	831520768	40	6548
2026-01-27 23:50:43.92	133.10	35.03	-35.2	-36.1	23.8	0.00e+00	0	32	0	844103680	42	6304
2026-01-27 23:50:47.96	132.60	35.91	-35.9	-36.9	23.2	0.00e+00	0	32	0	856686592	44	6175
2026-01-27 23:50:52.00	132.06	36.82	-36.3	-37.2	22.9	0.00e+00	0	32	0	869269504	44	6412
2026-01-27 23:50:56.04	131.50	37.74	-36.4	-37.4	22.8	0.00e+00	0	32	0	881852416	44	6503
2026-01-27 23:51:00.08	130.91	38.69	-36.2	-37.2	22.9	0.00e+00	0	32	0	894435328	44	6356
2026-01-27 23:51:04.12	130.27	39.66	-35.8	-36.7	23.2	0.00e+00	0	32	0	907018240	44	6057
2026-01-27 23:51:08.17	129.60	40.66	-35.4	-36.3	23.7	0.00e+00	0	32	0	919601152	44	5777
2026-01-27 23:51:12.20	128.88	41.68	-35.3	-36.2	23.7	0.00e+00	0	32	0	932184064	44	5687
2026-01-27 23:51:16.25	128.12	42.72	-36.3	-37.4	22.4	0.00e+00	0	32	0	944766976	44	6509
2026-01-27 23:51:20.29	127.30	43.79	-37.1	-38.1	22.2	0.00e+00	0	32	0	957349888	46	6343
2026-01-27 23:51:24.33	126.42	44.88	-37.3	-38.3	22.1	0.00e+00	0	32	0	969932800	46	6456
2026-01-27 23:51:28.36	125.49	45.98	-36.7	-37.8	22.3	0.00e+00	0	32	0	982515712	46	6075
2026-01-27 23:51:32.40	124.48	47.12	-36.4	-37.3	22.9	0.00e+00	0	32	0	995098624	46	5791
2026-01-27 23:51:36.45	123.39	48.27	-36.0	-37.0	22.8	0.00e+00	0	32	0	1007681536	46	5566
2026-01-27 23:51:40.49	122.22	49.44	-35.6	-36.6	23.2	0.00e+00	0	32	0	1020264448	44	5937
2026-01-27 23:51:44.53	120.95	50.63	-36.2	-37.1	22.7	0.00e+00	0	32	0	1032847360	44	6349
2026-01-27 23:51:48.57	119.58	51.83	-35.6	-36.5	23.4	0.00e+00	0	32	0	1046478848	44	5877
2026-01-27 23:51:52.61	118.09	53.05	-35.8	-36.7	23.4	0.00e+00	0	32	0	1059061760	44	6041
2026-01-27 23:51:56.65	116.47	54.27	-35.2	-36.1	23.3	0.00e+00	0	32	0	1071644672	44	5626
2026-01-27 23:52:00.69	114.70	55.49	-34.1	-35.0	24.6	0.00e+00	0	32	0	1084227584	42	5558
2026-01-27 23:52:04.73	112.78	56.72	-34.2	-35.1	24.1	0.00e+00	0	32	0	1096810496	42	5619
2026-01-27 23:52:08.77	110.67	57.93	-34.0	-35.0	24.5	0.00e+00	0	32	0	1109393408	42	5532
2026-01-27 23:52:12.81	108.36	59.13	-34.3	-35.2	24.4	0.00e+00	0	32	0	1121976320	42	5725
2026-01-27 23:52:16.85	105.84	60.31	-33.9	-34.7	25.0	0.00e+00	0	32	0	1134559232	42	5391
2026-01-27 23:52:20.89	103.07	61.45	-33.1	-34.0	25.4	0.00e+00	0	32	0	1147142144	40	5546
2026-01-27 23:52:24.94	100.04	62.55	-32.9	-33.7	25.6	0.00e+00	0	32	0	1159725056	38	6052
2026-01-27 23:52:28.98	96.73	63.59	-33.1	-34.0	25.3	0.00e+00	0	32	0	1172307968	38	6237
2026-01-27 23:52:33.02	93.12	64.56	-33.6	-34.5	25.1	0.00e+00	0	32	0	1184890880	38	6614
2026-01-27 23:52:37.05	89.22	65.44	-33.5	-34.3	25.0	0.00e+00	0	32	0	1197473792	38	6490
2026-01-27 23:52:41.10	84.99	66.22	-33.2	-34.1	25.1	0.00e+00	0	32	0	1210056704	38	6302
2026-01-27 23:52:45.14	80.48	66.87	-33.0	-33.9	25.3	0.00e+00	0	32	0	1222639616	38	6147
2026-01-27 23:52:49.18	75.72	67.39	-32.6	-33.4	25.8	0.00e+00	0	32	0	1235222528	38	5829
2026-01-27 23:52:53.22	70.74	67.77	-32.7	-33.6	25.7	0.00e+00	0	32	0	1247805440	38	5944
2026-01-27 23:52:57.26	65.62	67.98	-33.0	-33.8	25.3	0.00e+00	0	32	0	1260388352	38	6110
2026-01-27 23:53:01.30	60.43	68.03	-33.3	-34.2	25.1	0.00e+00	0	32	0	1272971264	38	6397
2026-01-27 23:53:05.34	55.26	67.92	-33.0	-33.9	25.4	0.00e+00	0	32	0	1285554176	38	6157
2026-01-27 23:53:09.38	50.19	67.64	-33.1	-34.0	25.2	0.00e+00	0	32	0	1298137088	38	6229
2026-01-27 23:53:13.42	45.29	67.20	-33.4	-34.3	25.2	0.00e+00	0	32	0	1310720000	38	6455
2026-01-27 23:53:17.46	40.63	66.62	-32.9	-33.7	25.4	0.00e+00	0	32	0	1324351488	40	5401
2026-01-27 23:53:21.50	36.24	65.92	-32.8	-33.6	25.7	0.00e+00	0	32	0	1336934400	38	5959
2026-01-27 23:53:25.54	32.15	65.10	-33.4	-34.3	25.3	0.00e+00	0	32	0	1348468736	38	6457
2026-01-27 23:53:29.59	28.36	64.18	-33.4	-34.3	24.7	0.00e+00	0	32	0	1362100224	40	5766
2026-01-27 23:53:33.63	24.88	63.18	-34.5	-35.4	24.4	0.00e+00	0	32	0	1374683136	40	6532
2026-01-27 23:53:37.67	21.69	62.12	-33.9	-34.8	24.4	0.00e+00	0	32	0	1387266048	40	6106
2026-01-27 23:53:41.70	18.78	61.01	-34.6	-35.5	23.5	0.00e+00	0	32	0	1399848960	42	5920
2026-01-27 23:53:45.75	16.11	59.85	-34.1	-35.0	24.6	0.00e+00	0	32	0	1412431872	40	6230
2026-01-27 23:53:49.79	13.68	58.66	-33.8	-34.6	24.7	0.00e+00	0	32	0	1425014784	42	5341
2026-01-27 23:53:53.83	11.46	57.46	-35.4	-36.4	23.5	0.00e+00	0	32	0	1437597696	42	6524
2026-01-27 23:53:57.87	9.43	56.24	-34.9	-35.8	24.0	0.00e+00	0	32	0	1450180608	44	5424
2026-01-27 23:54:01.90	7.58	55.02	-35.8	-36.7	23.3	0.00e+00	0	32	0	1462763520	42	6759
2026-01-27 23:54:05.94	5.87	53.80	-35.3	-36.3	23.1	0.00e+00	0	32	0	1475346432	44	5774
2026-01-27 23:54:09.98	4.31	52.59	-35.4	-36.3	23.3	0.00e+00	0	32	0	1487929344	42	6477
2026-01-27 23:54:14.02	2.87	51.38	-36.3	-37.3	23.1	0.00e+00	0	32	0	1500512256	46	5739
2026-01-27 23:54:18.06	1.54	50.19	-34.6	-35.5	24.4	0.00e+00	0	32	0	1513095168	42	5866
2026-01-27 23:54:22.10	0.32	49.01	-37.3	-38.4	21.5	0.00e+00	0	32	0	1525678080	46	6563
2026-01-27 23:54:26.14	359.18	47.85	-35.7	-36.7	23.3	0.00e+00	0	32	0	1538260992	46	5354
2026-01-27 23:54:30.18	358.13	46.71	-36.1	-37.1	23.2	0.00e+00	0	32	0	1550843904	44	6295
2026-01-27 23:54:34.22	357.15	45.59	-37.5	-38.7	21.7	0.00e+00	0	32	0	1563426816	46	6745
2026-01-27 23:54:38.26	356.24	44.49	-37.4	-38.4	21.9	0.00e+00	0	32	0	1576009728	48	5828
2026-01-27 23:54:42.30	355.39	43.41	-36.2	-37.1	23.0	0.00e+00	0	32	0	1588592640	46	5631
2026-01-27 23:54:46.34	354.60	42.36	-37.3	-38.3	22.0	0.00e+00	0	32	0	1601175552	46	6482
2026-01-27 23:54:50.39	353.85	41.33	-36.9	-38.0	22.0	0.00e+00	0	32	0	1613758464	46	6206
2026-01-27 23:54:54.43	353.16	40.32	-35.5	-36.5	23.0	0.00e+00	0	32	0	1626341376	44	5865
2026-01-27 23:54:58.47	352.50	39.34	-35.3	-36.2	23.7	0.00e+00	0	32	0	1639972864	42	6422
2026-01-27 23:55:02.51	351.88	38.38	-37.0	-38.0	22.4	0.00e+00	0	32	0	1652555776	46	6275
2026-01-27 23:55:06.55	351.30	37.44	-36.5	-37.5	22.8	0.00e+00	0	32	0	1665138688	46	5889
2026-01-27 23:55:10.59	350.76	36.53	-34.9	-35.8	24.0	0.00e+00	0	32	0	1677721600	44	5447
2026-01-27 23:55:14.63	350.24	35.64	-34.9	-35.8	23.9	0.00e+00	0	32	0	1690304512	42	6091
2026-01-27 23:55:18.67	349.75	34.76	-34.7	-35.6	24.2	0.00e+00	0	32	0	1702887424	42	5987
2026-01-27 23:55:22.71	349.29	33.92	-35.3	-36.3	23.4	0.00e+00	0	32	0	1715470336	42	6435
2026-01-27 23:55:26.76	348.85	33.09	-35.2	-36.2	23.8	0.00e+00	0	32	0	1728053248	42	6375
2026-01-27 23:55:30.79	348.43	32.28	-34.2	-35.0	24.7	0.00e+00	0	32	0	1740636160	42	5583
2026-01-27 23:55:34.83	348.03	31.49	-33.9	-34.8	24.9	0.00e+00	0	32	0	1753219072	40	6078
2026-01-27 23:55:38.88	347.66	30.72	-34.5	-35.4	24.4	0.00e+00	0	32	0	1765801984	40	6500
2026-01-27 23:55:42.92	347.30	29.97	-35.0	-35.9	24.0	0.00e+00	0	32	0	1778384896	42	6163
2026-01-27 23:55:46.96	346.96	29.24	-34.5	-35.4	24.3	0.00e+00	0	32	0	1790967808	42	5833
2026-01-27 23:55:51.00	346.63	28.52	-33.8	-34.7	24.7	0.00e+00	0	32	0	1803550720	42	5359
2026-01-27 23:55:55.05	346.32	27.82	-33.4	-34.3	24.9	0.00e+00	0	32	0	1816133632	40	5740
2026-01-27 23:55:59.09	346.02	27.14	-32.8	-33.7	25.4	0.00e+00	0	32	0	1828716544	40	5348
2026-01-27 23:56:03.12	345.73	26.47	-33.0	-33.9	25.3	0.00e+00	0	32	0	1841299456	40	5471
2026-01-27 23:56:07.16	345.46	25.82	-33.4	-34.2	25.1	0.00e+00	0	32	0	1853882368	40	5711
2026-01-27 23:56:11.20	345.20	25.19	-33.7	-34.6	24.8	0.00e+00	0	32	0	1866465280	40	5987
2026-01-27 23:56:15.23	344.95	24.57	-34.0	-34.9	24.6	0.00e+00	0	32	0	1879048192	40	6154
2026-01-27 23:56:19.27	344.71	23.96	-34.2	-35.2	24.5	0.00e+00	0	32	0	1891631104	40	6351
2026-01-27 23:56:23.31	344.48	23.36	-34.5	-35.4	24.3	0.00e+00	0	32	0	1904214016	40	6525
2026-01-27 23:56:27.35	344.26	22.78	-34.6	-35.6	24.2	0.00e+00	0	32	0	1916796928	40	6660
2026-01-27 23:56:31.39	344.04	22.21	-34.3	-35.2	24.4	0.00e+00	0	32	0	1929379840	40	6415
2026-01-27 23:56:35.43	343.84	21.66	-34.1	-35.0	24.5	0.00e+00	0	32	0	1941962752	40	6218
2026-01-27 23:56:39.46	343.64	21.11	-34.1	-35.0	24.4	0.00e+00	0	32	0	1955594240	40	6232
2026-01-27 23:56:43.50	343.45	20.58	-33.8	-34.7	24.5	0.00e+00	0	32	0	1968177152	40	6056
2026-01-27 23:56:47.54	343.27	20.05	-33.8	-34.6	24.5	0.00e+00	0	32	0	1979711488	40	5992
2026-01-27 23:56:51.58	343.09	19.54	-33.5	-34.4	24.6	0.00e+00	0	32	0	1993342976	40	5817
2026-01-27 23:56:55.62	342.92	19.04	-33.6	-34.5	24.6	0.00e+00	0	32	0	2005925888	40	5888
2026-01-27 23:56:59.67	342.76	18.54	-33.8	-34.7	24.6	0.00e+00	0	32	0	2018508800	40	6001
2026-01-27 23:57:03.71	342.60	18.06	-33.7	-34.5	24.7	0.00e+00	0	32	0	2031091712	40	5914
2026-01-27 23:57:07.74	342.45	17.58	-33.9	-34.7	24.5	0.00e+00	0	32	0	2043674624	40	6054
2026-01-27 23:57:11.79	342.30	17.12	-34.2	-35.1	24.3	0.00e+00	0	32	0	2056257536	40	6297
2026-01-27 23:57:15.82	342.16	16.66	-34.5	-35.4	24.1	0.00e+00	0	32	0	2068840448	40	6522
2026-01-27 23:57:19.86	342.02	16.21	-34.7	-35.7	24.0	0.00e+00	0	32	0	2081423360	42	5995
2026-01-27 23:57:23.90	341.89	15.77	-34.8	-35.7	23.9	0.00e+00	0	32	0	2094006272	42	6047
2026-01-27 23:57:27.95	341.76	15.33	-35.0	-35.9	23.8	0.00e+00	0	32	0	2106589184	42	6202
2026-01-27 23:57:31.99	341.63	14.91	-35.2	-36.2	23.6	0.00e+00	0	32	0	2119172096	42	6367
2026-01-27 23:57:36.03	341.51	14.49	-35.4	-36.3	23.4	0.00e+00	0	32	0	2131755008	42	6492
2026-01-27 23:57:40.07	341.39	14.08	-35.6	-36.6	23.2	0.00e+00	0	32	0	2144337920	42	6691
2026-01-27 23:57:44.11	341.28	13.67	-35.6	-36.6	23.2	0.00e+00	0	32	0	2156920832	44	5936
2026-01-27 23:57:48.15	341.17	13.27	-35.7	-36.7	23.0	0.00e+00	0	33	0	2169503744	44	6023
2026-01-27 23:57:52.19	341.06	12.88	-35.6	-36.6	23.1	0.00e+00	0	33	0	2182086656	44	5970
2026-01-27 23:57:56.23	340.96	12.49	-35.6	-36.6	23.1	0.00e+00	0	32	0	2194669568	44	5954
2026-01-27 23:58:00.26	340.86	12.11	-35.5	-36.5	23.2	0.00e+00	0	32	0	2207252480	44	5881
2026-01-27 23:58:04.30	340.76	11.74	-35.6	-36.6	23.0	0.00e+00	0	32	0	2219835392	44	5952
2026-01-27 23:58:08.34	340.67	11.37	-35.5	-36.6	23.0	0.00e+00	0	32	0	2232418304	44	5940
2026-01-27 23:58:12.37	340.57	11.01	-35.5	-36.5	23.1	0.00e+00	0	32	0	2245001216	44	5894
2026-01-27 23:58:16.41	340.48	10.65	-35.6	-36.6	23.0	0.00e+00	0	32	0	2257584128	44	5976
2026-01-27 23:58:20.45	340.40	10.29	-35.8	-36.8	22.8	0.00e+00	0	32	0	2270167040	44	6112
2026-01-27 23:58:24.49	340.31	9.95	-35.5	-36.5	23.0	0.00e+00	0	32	0	2282749952	44	5895
2026-01-27 23:58:28.54	340.23	9.60	-35.6	-36.6	22.9	0.00e+00	0	33	0	2295332864	44	5954
2026-01-27 23:58:32.58	340.15	9.26	-35.6	-36.6	22.9	0.00e+00	0	32	0	2308964352	44	5975
2026-01-27 23:58:36.62	340.07	8.93	-35.6	-36.6	22.9	0.00e+00	0	32	0	2321547264	44	5967
2026-01-27 23:58:40.66	340.00	8.60	-35.8	-36.9	22.7	0.00e+00	0	32	0	2334130176	44	6144
2026-01-27 23:58:44.70	339.92	8.27	-35.9	-36.9	22.6	0.00e+00	0	32	0	2346713088	44	6181
2026-01-27 23:58:48.74	339.85	7.95	-36.1	-37.1	22.4	0.00e+00	0	32	0	2359296000	44	6329
2026-01-27 23:58:52.78	339.78	7.63	-36.4	-37.5	22.2	0.00e+00	0	32	0	2371878912	44	6583
2026-01-27 23:58:56.82	339.72	7.32	-36.6	-37.7	22.1	0.00e+00	0	33	0	2384461824	44	6754
2026-01-27 23:59:00.87	339.65	7.00	-36.8	-37.9	21.8	0.00e+00	0	32	0	2397044736	46	6167
2026-01-27 23:59:04.91	339.59	6.70	-36.9	-38.0	21.6	0.00e+00	0	32	0	2409627648	46	6244
2026-01-27 23:59:08.94	339.52	6.40	-37.1	-38.2	21.4	0.00e+00	0	32	0	2422210560	46	6403
2026-01-27 23:59:12.98	339.46	6.10	-37.1	-38.2	21.3	0.00e+00	0	33	0	2434793472	46	6414
2026-01-27 23:59:17.02	339.40	5.80	-37.5	-38.6	20.8	0.00e+00	0	32	0	2447376384	46	6705
2026-01-27 23:59:21.07	339.35	5.50	-38.2	-39.5	19.9	0.00e+00	0	32	0	2459959296	48	6576
2026-01-27 23:59:25.11	339.29	5.21	-39.1	-40.6	18.1	0.00e+00	0	32	0	2472542208	50	6666
2026-01-27 23:59:29.14	339.24	4.93	-40.8	-43.1	15.0	7.00e-07	0	32	0	2485125120	54	7084
2026-01-27 23:59:33.18	339.18	4.64	-42.2	-45.5	11.4	3.04e-04	0	32	0	2497708032	56	8338
2026-01-27 23:59:37.22	339.13	4.36	-43.0	-47.9	8.2	5.62e-02	0	33	0	2510290944	58	9797
2026-01-27 23:59:41.26	339.08	4.09	-43.7	-52.6	4.6	1.12e+00	0	33	104	2517630976	58	16826
2026-01-27 23:59:45.31	339.03	3.81	-43.9	-56.6	3.5	1.52e+00	0	33	104	2517630976	60	23751
2026-01-27 23:59:49.34	338.98	3.54	-43.9	-55.9	3.5	1.51e+00	0	33	104	2517630976	60	21982
2026-01-27 23:59:53.39	338.94	3.27	-44.0	-56.8	3.6	1.52e+00	0	33	104	2517630976	60	24184
2026-01-27 23:59:57.43	338.89	3.00	-43.9	-56.7	3.5	1.52e+00	0	33	104	2517630976	60	24069
2026-01-28 00:00:01.46	338.85	2.74	-48.6	-61.5	3.5	1.52e+00	0	33	104	2517630976	60	41650
2026-01-28 00:00:05.50	338.80	2.47	-48.9	-61.8	3.5	1.52e+00	0	33	104	2517630976	60	43261
2026-01-28 00:00:09.54	338.76	2.21	-49.1	-61.9	3.5	1.52e+00	0	32	104	2517630976	60	43616
2026-01-28 00:00:13.58	338.72	1.96	-49.0	-61.8	3.5	1.51e+00	0	33	104	2517630976	60	43358
2026-01-28 00:00:17.62	338.68	1.70	-48.8	-61.7	3.5	1.52e+00	0	33	104	2517630976	60	42819
2026-01-28 00:00:21.65	338.64	1.45	-48.9	-61.8	3.5	1.52e+00	0	33	104	2517630976	60	43004
2026-01-28 00:00:25.70	338.60	1.20	-48.9	-61.8	3.5	1.52e+00	0	33	104	2517630976	60	42958
2026-01-28 00:00:29.73	338.56	0.95	-48.8	-61.7	3.5	1.52e+00	0	33	104	2517630976	60	42814
2026-01-28 00:00:33.77	338.53	0.70	-48.8	-61.7	3.5	1.52e+00	0	33	104	2517630976	60	42920
2026-01-28 00:00:37.81	338.49	0.46	-48.8	-61.7	3.5	1.52e+00	0	33	104	2517630976	60	42784
2026-01-28 00:00:41.84	338.46	0.21	-48.8	-61.7	3.5	1.52e+00	0	33	104	2517630976	60	42880
2026-01-28 00:00:45.88	338.42	-0.03	-48.8	-61.7	3.5	1.52e+00	0	33	104	2517630976	60	42744

#Closed at: 2026-01-28 00:00:48
#Recorded file [2517 MB]: D:/lorett/data/35029_260128_114520.dat