passes_logs/2026/01/27/R4.6S_Anadyr/R4.6S_Anadyr__20260127_232511_KOSAR1-5_rec.log

#Pass ID: 20260127_232511_KOSAR1-5
#Satellite: KOSAR1-5
#Configuration: KOSAR1-5
#almurnet v.1.7.20251203
#Start time: 2026-01-27 23:25:12

#Version: 2.2.20231116
#Station: R4.6S_Anadyr
#Location: 177.4865 lon 64.73178 lat
#TLE: 1 67264U 25313S   26027.43234714  .00011684  00000+0  53854-3 0  9991
#TLE: 2 67264  97.4175 104.3970 0016458 139.6900 220.5558 15.20303503  4548

#Time	Az	El	Level	Level2	SNR	BER	BlckErr	Temp	State	Recorded	gain1	gain2
2026-01-27 23:25:12.71	18.07	0.11	-48.8	-63.7	3.5	1.51e+00	0	29	0	0	60	55215
2026-01-27 23:25:15.73	18.12	0.30	-45.5	-60.2	3.6	1.51e+00	0	31	104	0	60	41591
2026-01-27 23:25:18.76	18.16	0.50	-45.6	-60.3	3.5	1.51e+00	0	31	104	0	60	42000
2026-01-27 23:25:21.79	18.21	0.69	-45.7	-60.5	3.6	1.51e+00	0	31	104	0	60	42715
2026-01-27 23:25:24.82	18.26	0.89	-45.6	-60.4	3.6	1.51e+00	0	31	104	0	60	42511
2026-01-27 23:25:27.85	18.31	1.09	-45.6	-60.3	3.6	1.51e+00	0	31	104	0	60	42118
2026-01-27 23:25:30.88	18.36	1.29	-45.4	-60.1	3.6	1.51e+00	0	31	104	0	60	40871
2026-01-27 23:25:33.91	18.40	1.50	-45.0	-59.7	3.6	1.51e+00	0	31	104	0	60	39188
2026-01-27 23:25:36.93	18.45	1.70	-44.5	-59.2	3.6	1.51e+00	0	31	104	0	60	36913
2026-01-27 23:25:39.97	18.51	1.91	-44.5	-59.2	3.6	1.51e+00	0	31	104	0	60	36840
2026-01-27 23:25:43.00	18.56	2.12	-44.4	-59.1	3.6	1.51e+00	0	31	104	0	60	36540
2026-01-27 23:25:46.03	18.61	2.33	-44.5	-59.1	3.6	1.51e+00	0	31	104	0	60	36761
2026-01-27 23:25:49.06	18.66	2.55	-44.4	-59.1	3.6	1.51e+00	0	31	104	0	60	36587
2026-01-27 23:25:52.09	18.72	2.76	-44.4	-59.1	3.6	1.51e+00	0	31	104	0	60	36625
2026-01-27 23:25:55.12	18.77	2.98	-44.4	-59.1	3.6	1.51e+00	0	31	104	0	60	36607
2026-01-27 23:25:58.15	18.83	3.20	-44.4	-59.1	3.6	1.51e+00	0	31	104	0	60	36513
2026-01-27 23:26:01.18	18.88	3.43	-44.4	-59.0	3.6	1.51e+00	0	31	104	0	60	36299
2026-01-27 23:26:04.21	18.94	3.65	-44.4	-59.1	3.6	1.51e+00	0	31	104	0	60	36439
2026-01-27 23:26:07.24	19.00	3.88	-44.4	-59.1	3.6	1.51e+00	0	31	104	0	60	36410
2026-01-27 23:26:10.27	19.06	4.11	-44.4	-59.1	3.6	1.51e+00	0	31	104	0	60	36356
2026-01-27 23:26:13.30	19.12	4.34	-44.5	-59.2	3.6	1.51e+00	0	31	104	0	60	36941
2026-01-27 23:26:16.33	19.18	4.58	-44.5	-59.2	3.6	1.51e+00	0	31	104	0	60	36808
2026-01-27 23:26:19.36	19.24	4.82	-44.5	-59.1	3.6	1.51e+00	0	31	104	0	60	36735
2026-01-27 23:26:22.38	19.30	5.06	-44.6	-59.4	3.6	1.51e+00	0	31	104	0	60	37672
2026-01-27 23:26:25.41	19.37	5.30	-44.6	-59.3	3.6	1.51e+00	0	31	104	0	60	37501
2026-01-27 23:26:28.44	19.43	5.55	-44.5	-59.3	3.6	1.51e+00	0	31	104	0	60	37341
2026-01-27 23:26:31.47	19.50	5.80	-44.6	-59.3	3.6	1.51e+00	0	31	104	0	60	37299
2026-01-27 23:26:34.50	19.56	6.06	-44.7	-59.4	3.6	1.51e+00	0	31	104	0	60	37965
2026-01-27 23:26:37.52	19.63	6.31	-44.7	-59.4	3.6	1.51e+00	0	31	104	0	60	37918
2026-01-27 23:26:40.55	19.70	6.57	-44.7	-59.4	3.6	1.51e+00	0	31	104	0	60	37826
2026-01-27 23:26:43.58	19.77	6.84	-44.7	-59.4	3.6	1.51e+00	0	31	104	0	60	38048
2026-01-27 23:26:46.60	19.84	7.10	-44.8	-59.6	3.6	1.51e+00	0	31	104	0	60	38580
2026-01-27 23:26:49.64	19.92	7.38	-44.8	-59.5	3.6	1.51e+00	0	31	104	0	60	38397
2026-01-27 23:26:52.67	19.99	7.65	-44.8	-59.5	3.6	1.51e+00	0	31	104	0	60	38433
2026-01-27 23:26:55.70	20.07	7.93	-44.8	-59.5	3.6	1.51e+00	0	31	104	0	60	38465
2026-01-27 23:26:58.73	20.15	8.22	-44.8	-59.6	3.6	1.51e+00	0	32	104	0	60	38611
2026-01-27 23:27:01.75	20.23	8.50	-44.9	-59.7	3.6	1.51e+00	0	32	104	0	60	38981
2026-01-27 23:27:04.78	20.31	8.80	-44.9	-59.6	3.6	1.51e+00	0	32	104	0	60	38883
2026-01-27 23:27:07.81	20.39	9.10	-44.9	-59.7	3.6	1.51e+00	0	32	104	0	60	39124
2026-01-27 23:27:10.84	20.48	9.40	-44.8	-59.7	3.6	1.51e+00	0	32	104	0	60	38975
2026-01-27 23:27:13.87	20.56	9.71	-44.9	-59.7	3.6	1.51e+00	0	32	104	0	60	39224
2026-01-27 23:27:16.90	20.65	10.02	-45.0	-59.7	3.6	1.51e+00	0	32	104	0	60	39165
2026-01-27 23:27:19.93	20.74	10.34	-45.0	-59.7	3.6	1.51e+00	0	32	104	0	60	39180
2026-01-27 23:27:22.96	20.84	10.66	-44.9	-59.7	3.6	1.51e+00	0	32	104	0	60	39294
2026-01-27 23:27:25.99	20.93	10.99	-44.9	-59.7	3.6	1.51e+00	0	32	104	0	60	39283
2026-01-27 23:27:29.02	21.03	11.32	-44.9	-59.8	3.6	1.51e+00	0	32	104	0	60	39422
2026-01-27 23:27:32.05	21.13	11.67	-45.1	-59.7	3.5	1.51e+00	0	32	104	0	60	39285
2026-01-27 23:27:35.08	21.23	12.01	-45.1	-59.7	3.6	1.51e+00	0	32	104	0	60	39373
2026-01-27 23:27:38.10	21.34	12.37	-45.1	-59.8	3.6	1.51e+00	0	32	104	0	60	39648
2026-01-27 23:27:41.13	21.45	12.73	-45.1	-59.9	3.6	1.51e+00	0	32	104	0	60	39887
2026-01-27 23:27:44.15	21.56	13.10	-45.1	-59.8	3.6	1.51e+00	0	32	104	0	60	39645
2026-01-27 23:27:47.18	21.67	13.47	-45.1	-59.8	3.6	1.51e+00	0	32	104	0	60	39805
2026-01-27 23:27:50.21	21.79	13.86	-45.1	-59.9	3.6	1.51e+00	0	32	104	0	60	40095
2026-01-27 23:27:53.24	21.91	14.25	-45.1	-59.8	3.6	1.51e+00	0	32	104	0	60	39844
2026-01-27 23:27:56.26	22.03	14.65	-45.1	-59.9	3.6	1.51e+00	0	32	104	0	60	40123
2026-01-27 23:27:59.29	22.16	15.06	-45.2	-59.9	3.6	1.51e+00	0	32	104	0	60	39988
2026-01-27 23:28:02.32	22.29	15.47	-45.0	-59.9	3.6	1.51e+00	0	32	104	0	60	40079
2026-01-27 23:28:05.35	22.43	15.90	-45.3	-59.9	3.6	1.51e+00	0	32	104	0	60	40012
2026-01-27 23:28:08.38	22.57	16.34	-45.1	-59.9	3.6	1.51e+00	0	32	104	0	60	40207
2026-01-27 23:28:11.41	22.71	16.79	-45.2	-60.0	3.6	1.51e+00	0	32	104	0	60	40411
2026-01-27 23:28:14.44	22.86	17.25	-45.1	-60.0	3.6	1.51e+00	0	32	104	0	60	40421
2026-01-27 23:28:17.47	23.02	17.72	-44.9	-60.0	3.6	1.51e+00	0	32	104	0	60	40365
2026-01-27 23:28:20.50	23.18	18.20	-45.0	-60.0	3.6	1.51e+00	0	32	104	0	60	40365
2026-01-27 23:28:23.53	23.34	18.69	-45.2	-60.0	3.6	1.51e+00	0	32	104	0	60	40446
2026-01-27 23:28:26.56	23.51	19.20	-45.2	-60.0	3.6	1.51e+00	0	32	104	0	60	40593
2026-01-27 23:28:29.59	23.69	19.72	-45.3	-60.0	3.6	1.51e+00	0	32	104	0	60	40516
2026-01-27 23:28:32.62	23.87	20.25	-45.3	-60.0	3.6	1.51e+00	0	32	104	0	60	40710
2026-01-27 23:28:35.64	24.06	20.80	-45.3	-60.0	3.6	1.51e+00	0	32	104	0	60	40638
2026-01-27 23:28:38.67	24.26	21.36	-45.4	-60.0	3.6	1.51e+00	0	32	104	0	60	40644
2026-01-27 23:28:41.70	24.47	21.94	-45.4	-60.1	3.6	1.51e+00	0	32	104	0	60	40896
2026-01-27 23:28:44.73	24.68	22.54	-45.4	-60.1	3.6	1.51e+00	0	32	104	0	60	40913
2026-01-27 23:28:47.76	24.91	23.15	-45.4	-60.1	3.6	1.51e+00	0	32	104	0	60	40793
2026-01-27 23:28:50.79	25.14	23.79	-45.3	-60.1	3.6	1.51e+00	0	32	104	0	60	40958
2026-01-27 23:28:53.82	25.38	24.44	-45.4	-60.1	3.6	1.51e+00	0	32	104	0	60	40884
2026-01-27 23:28:56.84	25.64	25.11	-45.3	-60.1	3.6	1.51e+00	0	32	104	0	60	40860
2026-01-27 23:28:59.88	25.91	25.80	-45.2	-60.1	3.6	1.51e+00	0	32	104	0	60	40922
2026-01-27 23:29:02.90	26.19	26.52	-45.4	-60.1	3.6	1.51e+00	0	32	104	0	60	41109
2026-01-27 23:29:05.93	26.48	27.26	-45.4	-60.1	3.6	1.51e+00	0	32	104	0	60	40899
2026-01-27 23:29:08.96	26.79	28.02	-45.4	-60.1	3.6	1.51e+00	0	32	104	0	60	41172
2026-01-27 23:29:11.99	27.11	28.81	-45.3	-60.2	3.6	1.51e+00	0	32	104	0	60	41348
2026-01-27 23:29:15.02	27.46	29.62	-45.3	-60.2	3.6	1.51e+00	0	32	104	0	60	41282
2026-01-27 23:29:18.05	27.82	30.47	-45.3	-60.2	3.6	1.51e+00	0	32	104	0	60	41323
2026-01-27 23:29:21.08	28.20	31.34	-45.5	-60.2	3.6	1.51e+00	0	32	104	0	60	41330
2026-01-27 23:29:24.11	28.60	32.24	-45.3	-60.1	3.6	1.51e+00	0	32	104	0	60	41033
2026-01-27 23:29:27.14	29.03	33.18	-45.3	-60.2	3.6	1.51e+00	0	32	104	0	60	41285
2026-01-27 23:29:30.17	29.49	34.15	-45.5	-60.2	3.6	1.51e+00	0	32	104	0	60	41437
2026-01-27 23:29:33.20	29.98	35.15	-45.5	-60.2	3.6	1.51e+00	0	32	104	0	60	41715
2026-01-27 23:29:36.23	30.50	36.19	-45.4	-60.2	3.6	1.51e+00	0	32	104	0	60	41718
2026-01-27 23:29:39.25	31.05	37.26	-45.5	-60.2	3.6	1.51e+00	0	32	104	0	60	41567
2026-01-27 23:29:42.28	31.64	38.38	-45.2	-60.2	3.6	1.51e+00	0	32	104	0	60	41538
2026-01-27 23:29:45.31	32.28	39.54	-45.6	-60.2	3.6	1.51e+00	0	32	104	0	60	41710
2026-01-27 23:29:48.34	32.97	40.73	-45.5	-60.2	3.6	1.51e+00	0	32	104	0	60	41570
2026-01-27 23:29:51.37	33.72	41.98	-45.4	-60.2	3.6	1.51e+00	0	32	104	0	60	41637
2026-01-27 23:29:54.40	34.52	43.26	-45.6	-60.2	3.6	1.51e+00	0	32	104	0	60	41503
2026-01-27 23:29:57.43	35.40	44.59	-45.6	-60.3	3.6	1.51e+00	0	32	104	0	60	41893
2026-01-27 23:30:00.46	36.36	45.97	-45.6	-60.2	3.6	1.51e+00	0	32	104	0	60	41440
2026-01-27 23:30:03.49	37.41	47.39	-45.5	-60.3	3.6	1.51e+00	0	32	104	0	60	41776
2026-01-27 23:30:06.52	38.56	48.85	-45.5	-60.2	3.6	1.51e+00	0	32	104	0	60	41602
2026-01-27 23:30:09.55	39.83	50.36	-45.5	-60.2	3.6	1.51e+00	0	32	104	0	60	41608
2026-01-27 23:30:12.58	41.24	51.90	-45.5	-60.2	3.6	1.51e+00	0	32	104	0	60	41550
2026-01-27 23:30:15.61	42.81	53.49	-45.5	-60.2	3.6	1.51e+00	0	32	104	0	60	41544
2026-01-27 23:30:18.64	44.57	55.11	-45.6	-60.3	3.6	1.51e+00	0	32	104	0	60	41969
2026-01-27 23:30:21.67	46.54	56.75	-45.7	-60.3	3.6	1.51e+00	0	32	104	0	60	42112
2026-01-27 23:30:24.70	48.77	58.41	-45.6	-60.3	3.6	1.51e+00	0	32	104	0	60	41873
2026-01-27 23:30:27.73	51.29	60.08	-45.5	-60.2	3.6	1.51e+00	0	32	104	0	60	41699
2026-01-27 23:30:30.76	54.18	61.74	-45.5	-60.3	3.6	1.51e+00	0	32	104	0	60	41947
2026-01-27 23:30:33.79	57.47	63.38	-45.6	-60.3	3.6	1.51e+00	0	32	104	0	60	41919
2026-01-27 23:30:36.82	61.26	64.97	-45.6	-60.3	3.6	1.51e+00	0	32	104	0	60	42020
2026-01-27 23:30:39.84	65.60	66.47	-45.7	-60.4	3.5	1.51e+00	0	32	104	0	60	42409
2026-01-27 23:30:42.87	70.59	67.87	-45.5	-60.2	3.6	1.51e+00	0	32	104	0	60	41684
2026-01-27 23:30:45.90	76.27	69.12	-45.5	-60.2	3.6	1.51e+00	0	32	104	0	60	41490
2026-01-27 23:30:48.93	82.67	70.17	-45.5	-60.2	3.6	1.51e+00	0	32	104	0	60	41645
2026-01-27 23:30:51.96	89.76	70.97	-45.5	-60.3	3.6	1.51e+00	0	32	104	0	60	41782
2026-01-27 23:30:54.99	97.38	71.49	-45.5	-60.3	3.6	1.51e+00	0	32	104	0	60	41842
2026-01-27 23:30:58.02	105.32	71.68	-45.5	-60.2	3.6	1.51e+00	0	32	104	0	60	41681
2026-01-27 23:31:01.05	113.30	71.54	-45.5	-60.3	3.6	1.51e+00	0	32	104	0	60	41777
2026-01-27 23:31:04.08	121.00	71.08	-45.5	-60.3	3.6	1.51e+00	0	32	104	0	60	41921
2026-01-27 23:31:07.11	128.18	70.32	-45.5	-60.2	3.6	1.51e+00	0	32	104	0	60	41448
2026-01-27 23:31:10.14	134.71	69.31	-45.5	-60.2	3.6	1.51e+00	0	32	104	0	60	41474
2026-01-27 23:31:13.17	140.53	68.09	-45.5	-60.2	3.6	1.51e+00	0	32	104	0	60	41710
2026-01-27 23:31:16.20	145.63	66.70	-45.5	-60.3	3.6	1.51e+00	0	32	104	0	60	41818
2026-01-27 23:31:19.23	150.09	65.20	-45.5	-60.2	3.6	1.51e+00	0	32	104	0	60	41643
2026-01-27 23:31:22.26	153.97	63.62	-45.2	-60.3	3.6	1.51e+00	0	32	104	0	60	41881
2026-01-27 23:31:25.29	157.35	61.99	-45.4	-60.3	3.6	1.51e+00	0	32	104	0	60	41778
2026-01-27 23:31:28.32	160.30	60.32	-45.3	-60.3	3.6	1.51e+00	0	32	104	0	60	42187
2026-01-27 23:31:31.34	162.87	58.65	-45.2	-60.3	3.6	1.51e+00	0	32	104	0	60	41822
2026-01-27 23:31:34.38	165.16	56.97	-45.1	-60.3	3.6	1.51e+00	0	32	104	0	60	42014
2026-01-27 23:31:37.41	167.17	55.32	-45.5	-60.3	3.6	1.51e+00	0	32	104	0	60	42080
2026-01-27 23:31:40.43	168.95	53.69	-45.5	-60.3	3.6	1.51e+00	0	32	104	0	60	42044
2026-01-27 23:31:43.46	170.55	52.10	-45.6	-60.2	3.6	1.51e+00	0	32	104	0	60	41640
2026-01-27 23:31:46.49	171.99	50.53	-45.5	-60.3	3.6	1.51e+00	0	32	104	0	60	41787
2026-01-27 23:31:49.52	173.28	49.01	-45.6	-60.3	3.6	1.51e+00	0	32	104	0	60	42082
2026-01-27 23:31:52.55	174.46	47.54	-45.5	-60.3	3.6	1.51e+00	0	32	104	0	60	41754
2026-01-27 23:31:55.58	175.52	46.10	-45.6	-60.3	3.6	1.51e+00	0	32	104	0	60	41956
2026-01-27 23:31:58.61	176.49	44.71	-45.5	-60.3	3.6	1.51e+00	0	32	104	0	60	41883
2026-01-27 23:32:01.64	177.38	43.37	-45.3	-60.3	3.6	1.51e+00	0	32	104	0	60	42046
2026-01-27 23:32:04.67	178.20	42.07	-45.3	-60.3	3.6	1.51e+00	0	32	104	0	60	42091
2026-01-27 23:32:07.70	178.96	40.81	-45.5	-60.3	3.6	1.51e+00	0	32	104	0	60	41870
2026-01-27 23:32:10.73	179.65	39.60	-45.6	-60.3	3.6	1.51e+00	0	32	104	0	60	41968
2026-01-27 23:32:13.76	180.30	38.43	-45.6	-60.3	3.6	1.51e+00	0	32	104	0	60	41968
2026-01-27 23:32:16.79	180.90	37.30	-45.6	-60.4	3.6	1.51e+00	0	32	104	0	60	42371
2026-01-27 23:32:19.82	181.47	36.21	-45.6	-60.3	3.6	1.51e+00	0	32	104	0	60	41955
2026-01-27 23:32:22.84	181.99	35.17	-45.7	-60.4	3.6	1.51e+00	0	32	104	0	60	42619
2026-01-27 23:32:25.87	182.48	34.15	-45.7	-60.4	3.6	1.51e+00	0	32	104	0	60	42280
2026-01-27 23:32:28.90	182.94	33.17	-45.7	-60.4	3.6	1.51e+00	0	32	104	0	60	42259
2026-01-27 23:32:31.93	183.37	32.23	-45.6	-60.3	3.6	1.51e+00	0	32	104	0	60	41955
2026-01-27 23:32:34.96	183.78	31.32	-45.5	-60.3	3.6	1.51e+00	0	32	104	0	60	42172
2026-01-27 23:32:37.98	184.17	30.44	-45.4	-60.3	3.6	1.51e+00	0	32	104	0	60	42018
2026-01-27 23:32:41.01	184.53	29.59	-45.4	-60.3	3.6	1.51e+00	0	32	104	0	60	41902
2026-01-27 23:32:44.05	184.88	28.76	-45.3	-60.3	3.6	1.51e+00	0	32	104	0	60	41751
2026-01-27 23:32:47.07	185.20	27.97	-45.4	-60.3	3.6	1.51e+00	0	32	104	0	60	41862
2026-01-27 23:32:50.10	185.51	27.20	-45.3	-60.3	3.6	1.51e+00	0	32	104	0	60	41879
2026-01-27 23:32:53.14	185.81	26.45	-45.4	-60.3	3.6	1.51e+00	0	32	104	0	60	41920
2026-01-27 23:32:56.17	186.09	25.73	-45.4	-60.3	3.6	1.51e+00	0	32	104	0	60	41807
2026-01-27 23:32:59.19	186.36	25.03	-45.4	-60.3	3.6	1.51e+00	0	32	104	0	60	41864
2026-01-27 23:33:02.23	186.62	24.35	-45.4	-60.2	3.6	1.51e+00	0	32	104	0	60	41655
2026-01-27 23:33:05.26	186.86	23.69	-45.4	-60.2	3.6	1.51e+00	0	32	104	0	60	41690
2026-01-27 23:33:08.28	187.09	23.05	-45.4	-60.2	3.6	1.51e+00	0	32	104	0	60	41509
2026-01-27 23:33:11.31	187.32	22.43	-45.4	-60.3	3.6	1.51e+00	0	32	104	0	60	41779
2026-01-27 23:33:14.34	187.53	21.83	-45.2	-60.1	3.6	1.51e+00	0	32	104	0	60	41249
2026-01-27 23:33:17.37	187.74	21.25	-45.2	-60.2	3.6	1.51e+00	0	32	104	0	60	41688
2026-01-27 23:33:20.40	187.94	20.68	-45.1	-60.2	3.6	1.51e+00	0	32	104	0	60	41547
2026-01-27 23:33:23.43	188.13	20.12	-45.1	-60.2	3.6	1.51e+00	0	32	104	0	60	41680
2026-01-27 23:33:26.46	188.32	19.59	-45.2	-60.1	3.6	1.51e+00	0	32	104	0	60	41258
2026-01-27 23:33:29.49	188.49	19.06	-45.1	-60.2	3.6	1.51e+00	0	32	104	0	60	41595
2026-01-27 23:33:32.52	188.66	18.55	-45.2	-60.2	3.6	1.51e+00	0	32	104	0	60	41553
2026-01-27 23:33:35.55	188.83	18.05	-45.3	-60.2	3.6	1.51e+00	0	32	104	0	60	41562
2026-01-27 23:33:38.58	188.99	17.57	-45.3	-60.1	3.6	1.51e+00	0	32	104	0	60	41095
2026-01-27 23:33:41.60	189.14	17.10	-45.2	-60.2	3.6	1.51e+00	0	32	104	0	60	41297
2026-01-27 23:33:44.64	189.29	16.63	-45.2	-60.1	3.6	1.51e+00	0	32	104	0	60	41257
2026-01-27 23:33:47.66	189.43	16.18	-45.2	-60.2	3.6	1.51e+00	0	32	104	0	60	41435
2026-01-27 23:33:50.70	189.57	15.74	-45.1	-60.1	3.6	1.51e+00	0	32	104	0	60	41100
2026-01-27 23:33:53.72	189.71	15.31	-45.2	-60.1	3.6	1.51e+00	0	32	104	0	60	40982
2026-01-27 23:33:56.75	189.84	14.89	-45.1	-60.1	3.6	1.51e+00	0	32	104	0	60	41192
2026-01-27 23:33:59.78	189.97	14.48	-45.1	-60.1	3.6	1.51e+00	0	32	104	0	60	41086
2026-01-27 23:34:02.81	190.09	14.08	-45.4	-60.2	3.6	1.51e+00	0	32	104	0	60	41322
2026-01-27 23:34:05.84	190.21	13.68	-45.2	-60.1	3.6	1.51e+00	0	32	104	0	60	40887
2026-01-27 23:34:08.87	190.32	13.30	-45.1	-60.1	3.6	1.51e+00	0	32	104	0	60	40902
2026-01-27 23:34:11.90	190.44	12.92	-45.1	-60.1	3.6	1.51e+00	0	32	104	0	60	41084
2026-01-27 23:34:14.93	190.55	12.55	-45.2	-60.2	3.6	1.51e+00	0	32	104	0	60	41447
2026-01-27 23:34:17.95	190.65	12.18	-45.2	-60.1	3.6	1.51e+00	0	32	104	0	60	40823
2026-01-27 23:34:20.98	190.76	11.83	-45.3	-60.0	3.6	1.51e+00	0	32	104	0	60	40701
2026-01-27 23:34:24.00	190.86	11.48	-45.3	-60.0	3.6	1.51e+00	0	32	104	0	60	40563
2026-01-27 23:34:27.03	190.96	11.13	-45.2	-60.0	3.6	1.51e+00	0	32	104	0	60	40708
2026-01-27 23:34:30.06	191.06	10.80	-45.1	-59.9	3.5	1.51e+00	0	32	104	0	60	40008
2026-01-27 23:34:33.09	191.15	10.47	-45.0	-59.9	3.6	1.51e+00	0	32	104	0	60	40190
2026-01-27 23:34:36.12	191.24	10.14	-45.2	-59.9	3.6	1.51e+00	0	32	104	0	60	40257
2026-01-27 23:34:39.14	191.33	9.82	-45.2	-60.0	3.6	1.51e+00	0	32	104	0	60	40390
2026-01-27 23:34:42.18	191.42	9.51	-45.1	-59.8	3.6	1.51e+00	0	32	104	0	60	39794
2026-01-27 23:34:45.20	191.50	9.20	-45.0	-59.8	3.6	1.51e+00	0	32	104	0	60	39479
2026-01-27 23:34:48.23	191.59	8.89	-45.0	-59.8	3.6	1.51e+00	0	32	104	0	60	39709
2026-01-27 23:34:51.26	191.67	8.60	-45.1	-59.8	3.6	1.51e+00	0	32	104	0	60	39783
2026-01-27 23:34:54.28	191.75	8.30	-44.9	-59.7	3.6	1.51e+00	0	32	104	0	60	38962
2026-01-27 23:34:57.31	191.83	8.01	-44.9	-59.6	3.6	1.51e+00	0	32	104	0	60	38910
2026-01-27 23:35:00.34	191.90	7.73	-44.9	-59.6	3.6	1.51e+00	0	32	104	0	60	38922
2026-01-27 23:35:03.37	191.98	7.45	-44.9	-59.8	3.6	1.51e+00	0	32	104	0	60	39435
2026-01-27 23:35:06.40	192.05	7.17	-44.7	-59.5	3.6	1.51e+00	0	32	104	0	60	38447
2026-01-27 23:35:09.43	192.12	6.89	-44.8	-59.6	3.6	1.51e+00	0	32	104	0	60	38639
2026-01-27 23:35:12.46	192.20	6.63	-44.7	-59.5	3.6	1.51e+00	0	32	104	0	60	38372
2026-01-27 23:35:15.48	192.26	6.36	-44.8	-59.6	3.6	1.51e+00	0	32	104	0	60	38835
2026-01-27 23:35:18.51	192.33	6.10	-44.6	-59.4	3.6	1.51e+00	0	32	104	0	60	37823
2026-01-27 23:35:21.54	192.40	5.84	-44.7	-59.4	3.6	1.51e+00	0	32	104	0	60	37920
2026-01-27 23:35:24.57	192.46	5.58	-44.6	-59.3	3.6	1.51e+00	0	32	104	0	60	37577
2026-01-27 23:35:27.60	192.53	5.33	-44.8	-59.6	3.6	1.51e+00	0	32	104	0	60	38624
2026-01-27 23:35:30.63	192.59	5.08	-44.6	-59.3	3.6	1.51e+00	0	32	104	0	60	37379
2026-01-27 23:35:33.66	192.65	4.84	-44.5	-59.3	3.6	1.51e+00	0	32	104	0	60	37276
2026-01-27 23:35:36.69	192.71	4.60	-44.5	-59.2	3.6	1.51e+00	0	32	104	0	60	37035
2026-01-27 23:35:39.72	192.77	4.36	-44.6	-59.3	3.6	1.51e+00	0	32	104	0	60	37410
2026-01-27 23:35:42.75	192.83	4.12	-44.4	-59.1	3.6	1.51e+00	0	32	104	0	60	36549
2026-01-27 23:35:45.78	192.89	3.88	-44.3	-59.0	3.6	1.51e+00	0	32	104	0	60	36095
2026-01-27 23:35:48.81	192.95	3.65	-44.3	-59.0	3.6	1.51e+00	0	32	104	0	60	36034
2026-01-27 23:35:51.84	193.00	3.42	-44.3	-59.0	3.6	1.51e+00	0	32	104	0	60	36231
2026-01-27 23:35:54.87	193.06	3.20	-44.3	-58.9	3.6	1.51e+00	0	32	104	0	60	35842
2026-01-27 23:35:57.90	193.11	2.97	-44.3	-59.1	3.6	1.51e+00	0	32	104	0	60	36383
2026-01-27 23:36:00.93	193.17	2.75	-45.2	-59.9	3.6	1.51e+00	0	32	104	0	60	40021
2026-01-27 23:36:03.95	193.22	2.53	-45.5	-60.3	3.6	1.51e+00	0	32	104	0	60	41833
2026-01-27 23:36:06.98	193.27	2.32	-45.7	-60.4	3.6	1.51e+00	0	32	104	0	60	42663
2026-01-27 23:36:10.01	193.32	2.10	-45.8	-60.5	3.6	1.51e+00	0	32	104	0	60	43177
2026-01-27 23:36:13.04	193.37	1.89	-45.9	-60.6	3.6	1.51e+00	0	32	104	0	60	43611
2026-01-27 23:36:16.08	193.42	1.68	-45.5	-60.5	3.6	1.51e+00	0	32	104	0	60	42915
2026-01-27 23:36:19.10	193.47	1.47	-45.7	-60.4	3.6	1.51e+00	0	32	104	0	60	42493
2026-01-27 23:36:22.14	193.52	1.26	-45.8	-60.5	3.6	1.51e+00	0	32	104	0	60	42926
2026-01-27 23:36:25.17	193.56	1.06	-45.6	-60.4	3.6	1.51e+00	0	32	104	0	60	42300
2026-01-27 23:36:28.20	193.61	0.86	-45.6	-60.4	3.6	1.51e+00	0	32	104	0	60	42251
2026-01-27 23:36:31.23	193.65	0.65	-45.6	-60.4	3.6	1.51e+00	0	32	104	0	60	42309
2026-01-27 23:36:34.25	193.70	0.46	-45.6	-60.3	3.6	1.51e+00	0	32	104	0	60	42050
2026-01-27 23:36:37.28	193.74	0.26	-45.6	-60.3	3.6	1.51e+00	0	32	104	0	60	41863
2026-01-27 23:36:40.31	193.79	0.06	-45.6	-60.3	3.6	1.51e+00	0	32	104	0	60	41925
2026-01-27 23:36:43.34	193.83	-0.13	-45.5	-60.3	3.6	1.51e+00	0	32	104	0	60	41799

#Closed at: 2026-01-27 23:36:43
#Recorded file [0 MB]: D:/lorett/data/35029_260128_112512.dat