passes_logs/2026/01/27/R4.6S_Anadyr/R4.6S_Anadyr__20260127_045405_FENGYUN_3D_rec.log

#Pass ID: 20260127_045405_FENGYUN 3D
#Satellite: FENGYUN 3D
#Configuration: FENGYUN 3D
#almurnet v.1.7.20251203
#Start time: 2026-01-27 04:54:07

#Version: 2.2.20231116
#Station: R4.6S_Anadyr
#Location: 177.4865 lon 64.73178 lat
#TLE: 1 43010U 17072A   26026.49129444  .00000151  00000+0  93391-4 0  9993
#TLE: 2 43010  98.9962 358.4866 0002525  88.1664 271.9801 14.19700337424889

#Time	Az	El	Level	Level2	SNR	BER	BlckErr	Temp	State	Recorded	gain1	gain2
2026-01-27 04:54:07.55	225.63	0.08	-49.0	-61.5	3.4	1.52e+00	0	29	0	0	60	41796
2026-01-27 04:54:11.59	225.95	0.27	-48.9	-61.1	3.6	8.46e-01	0	30	104	0	60	40832
2026-01-27 04:54:15.63	226.29	0.46	-48.9	-61.1	3.6	8.44e-01	0	30	104	0	60	41161
2026-01-27 04:54:19.66	226.62	0.65	-48.9	-61.2	3.6	8.44e-01	0	30	104	0	60	41364
2026-01-27 04:54:23.70	226.97	0.84	-48.9	-61.2	3.6	8.45e-01	0	30	104	0	60	41289
2026-01-27 04:54:27.74	227.31	1.03	-48.9	-61.1	3.6	8.46e-01	0	30	104	0	60	40842
2026-01-27 04:54:31.78	227.66	1.22	-47.7	-59.9	3.6	8.45e-01	0	31	104	0	60	35800
2026-01-27 04:54:35.81	228.01	1.41	-46.4	-58.5	3.6	8.46e-01	0	31	104	0	60	30411
2026-01-27 04:54:39.85	228.37	1.61	-46.4	-58.5	3.6	8.45e-01	0	31	104	0	60	30282
2026-01-27 04:54:43.89	228.73	1.80	-46.4	-58.5	3.6	8.46e-01	0	31	104	0	60	30360
2026-01-27 04:54:47.93	229.10	1.99	-46.4	-58.4	3.6	8.46e-01	0	31	104	0	60	30125
2026-01-27 04:54:51.97	229.47	2.19	-46.3	-58.3	3.6	8.45e-01	0	31	104	0	60	29810
2026-01-27 04:54:56.01	229.85	2.38	-46.3	-58.1	3.6	8.46e-01	0	31	104	0	60	29100
2026-01-27 04:55:00.05	230.23	2.58	-46.3	-57.7	3.6	8.45e-01	0	31	104	0	60	27683
2026-01-27 04:55:04.09	230.62	2.77	-46.0	-55.2	3.9	8.42e-01	0	31	104	0	60	20821
2026-01-27 04:55:08.13	231.01	2.97	-46.0	-55.2	3.9	8.42e-01	0	31	104	0	60	20890
2026-01-27 04:55:12.17	231.41	3.16	-46.3	-58.3	3.5	8.46e-01	0	31	104	0	60	29780
2026-01-27 04:55:16.21	231.81	3.36	-46.1	-52.7	4.3	8.01e-01	0	31	0	0	60	15620
2026-01-27 04:55:20.25	232.22	3.55	-46.2	-52.7	4.3	8.01e-01	0	31	0	0	60	15679
2026-01-27 04:55:24.29	232.63	3.75	-46.3	-52.9	4.3	8.05e-01	0	31	0	0	60	15970
2026-01-27 04:55:28.33	233.04	3.95	-46.6	-53.4	4.2	8.16e-01	0	31	0	0	60	16817
2026-01-27 04:55:32.37	233.47	4.14	-46.6	-53.4	4.2	8.10e-01	0	31	0	0	60	16914
2026-01-27 04:55:36.40	233.89	4.34	-46.7	-53.5	4.2	8.11e-01	0	31	0	0	60	17009
2026-01-27 04:55:40.44	234.33	4.54	-46.7	-53.1	4.4	8.01e-01	0	31	0	0	60	16362
2026-01-27 04:55:44.48	234.77	4.73	-46.6	-52.7	4.7	7.65e-01	0	31	0	0	60	15685
2026-01-27 04:55:48.52	235.21	4.93	-46.6	-52.4	5.1	7.25e-01	0	31	0	0	60	15061
2026-01-27 04:55:52.56	235.66	5.13	-46.5	-52.0	5.6	4.66e-01	0	31	0	6291456	60	14331
2026-01-27 04:55:56.59	236.12	5.32	-46.5	-51.8	5.9	3.83e-01	0	31	0	29360128	60	14084
2026-01-27 04:56:00.63	236.58	5.52	-46.1	-51.0	6.7	2.23e-01	0	31	0	52428800	60	12796
2026-01-27 04:56:04.66	237.05	5.72	-46.1	-50.5	7.4	1.23e-01	0	31	0	74448896	60	12114
2026-01-27 04:56:08.70	237.52	5.91	-45.7	-49.5	8.8	3.70e-02	0	31	0	97517568	60	10755
2026-01-27 04:56:12.73	238.00	6.11	-45.4	-48.8	9.7	1.57e-02	0	31	0	119537664	60	9899
2026-01-27 04:56:16.77	238.49	6.31	-44.4	-47.1	11.4	1.63e-03	0	31	0	142606336	60	8231
2026-01-27 04:56:20.81	238.98	6.50	-43.7	-46.1	12.7	1.30e-04	0	31	0	165675008	60	7277
2026-01-27 04:56:24.85	239.48	6.70	-43.3	-45.4	13.5	1.02e-05	0	31	0	187695104	60	6696
2026-01-27 04:56:28.89	239.99	6.89	-42.3	-44.0	15.0	1.10e-06	0	31	0	210763776	58	6424
2026-01-27 04:56:32.92	240.50	7.09	-41.3	-42.7	16.2	0.00e+00	0	31	0	233832448	56	6205
2026-01-27 04:56:36.96	241.02	7.28	-40.1	-41.3	17.7	0.00e+00	0	31	0	255852544	54	5943
2026-01-27 04:56:41.00	241.55	7.48	-39.6	-40.7	18.4	0.00e+00	0	31	0	278921216	52	6210
2026-01-27 04:56:45.04	242.08	7.67	-38.8	-39.8	19.3	0.00e+00	0	31	0	301989888	52	5590
2026-01-27 04:56:49.07	242.62	7.87	-38.2	-39.2	19.8	0.00e+00	0	31	0	324009984	50	5850
2026-01-27 04:56:53.11	243.16	8.06	-37.2	-38.1	21.0	0.00e+00	0	31	0	347078656	48	5768
2026-01-27 04:56:57.15	243.72	8.25	-36.5	-37.3	21.8	0.00e+00	0	31	0	370147328	46	5959
2026-01-27 04:57:01.19	244.28	8.44	-35.9	-36.7	22.4	0.00e+00	0	31	0	392167424	46	5503
2026-01-27 04:57:05.23	244.85	8.63	-35.5	-36.3	22.8	0.00e+00	0	31	0	415236096	44	5940
2026-01-27 04:57:09.27	245.42	8.82	-35.3	-36.0	23.1	0.00e+00	0	31	0	438304768	44	5725
2026-01-27 04:57:13.31	246.01	9.01	-34.8	-35.6	23.6	0.00e+00	0	31	0	460324864	44	5447
2026-01-27 04:57:17.35	246.59	9.19	-34.7	-35.4	23.8	0.00e+00	0	31	0	483393536	42	5996
2026-01-27 04:57:21.38	247.19	9.38	-34.5	-35.2	24.0	0.00e+00	0	31	0	506462208	42	5858
2026-01-27 04:57:25.42	247.79	9.56	-34.2	-35.0	24.3	0.00e+00	0	31	0	528482304	42	5714
2026-01-27 04:57:29.45	248.40	9.74	-33.8	-34.5	24.7	0.00e+00	0	31	0	551550976	42	5398
2026-01-27 04:57:33.49	249.02	9.92	-33.8	-34.5	24.7	0.00e+00	0	31	0	574619648	40	6053
2026-01-27 04:57:37.53	249.65	10.10	-33.5	-34.2	25.0	0.00e+00	0	31	0	596639744	40	5863
2026-01-27 04:57:41.57	250.28	10.28	-33.5	-34.2	25.0	0.00e+00	0	31	0	619708416	40	5867
2026-01-27 04:57:45.60	250.92	10.46	-33.6	-34.2	24.9	0.00e+00	0	31	0	642777088	40	5871
2026-01-27 04:57:49.64	251.57	10.63	-33.5	-34.2	25.0	0.00e+00	0	31	0	664797184	40	5871
2026-01-27 04:57:53.68	252.23	10.80	-33.3	-34.0	25.0	0.00e+00	0	31	0	687865856	40	5743
2026-01-27 04:57:57.71	252.89	10.97	-33.5	-34.2	25.0	0.00e+00	0	31	0	709885952	40	5895
2026-01-27 04:58:01.75	253.56	11.14	-33.5	-34.1	25.0	0.00e+00	0	31	0	732954624	40	5812
2026-01-27 04:58:05.79	254.24	11.30	-33.3	-34.0	25.2	0.00e+00	0	31	0	756023296	40	5730
2026-01-27 04:58:09.82	254.92	11.46	-33.1	-33.7	25.4	0.00e+00	0	31	0	779091968	40	5557
2026-01-27 04:58:13.86	255.61	11.62	-33.0	-33.7	25.5	0.00e+00	0	31	0	801112064	40	5513
2026-01-27 04:58:17.90	256.31	11.78	-33.1	-33.7	25.4	0.00e+00	0	31	0	824180736	40	5536
2026-01-27 04:58:21.94	257.02	11.93	-33.2	-33.8	25.3	0.00e+00	0	31	0	847249408	40	5627
2026-01-27 04:58:25.98	257.74	12.09	-33.0	-33.7	25.5	0.00e+00	0	31	0	869269504	40	5558
2026-01-27 04:58:30.02	258.46	12.23	-32.9	-33.6	25.6	0.00e+00	0	31	0	892338176	40	5450
2026-01-27 04:58:34.06	259.19	12.38	-32.9	-33.5	25.6	0.00e+00	0	31	0	915406848	40	5434
2026-01-27 04:58:38.10	259.92	12.52	-33.2	-33.9	25.3	0.00e+00	0	31	0	937426944	40	5663
2026-01-27 04:58:42.14	260.66	12.66	-32.8	-33.5	25.7	0.00e+00	0	31	0	960495616	40	5411
2026-01-27 04:58:46.17	261.41	12.79	-32.6	-33.2	25.9	0.00e+00	0	31	0	983564288	38	5895
2026-01-27 04:58:50.21	262.16	12.92	-32.8	-33.5	25.7	0.00e+00	0	31	0	1005584384	38	6054
2026-01-27 04:58:54.24	262.92	13.05	-32.8	-33.4	25.7	0.00e+00	0	31	0	1028653056	38	6028
2026-01-27 04:58:58.28	263.69	13.17	-32.6	-33.3	25.8	0.00e+00	0	31	0	1051721728	38	5913
2026-01-27 04:59:02.32	264.47	13.29	-32.5	-33.1	25.8	0.00e+00	0	31	0	1073741824	38	5812
2026-01-27 04:59:06.36	265.25	13.40	-32.7	-33.3	25.8	0.00e+00	0	31	0	1096810496	38	5964
2026-01-27 04:59:10.40	266.03	13.51	-32.7	-33.4	25.8	0.00e+00	0	31	0	1118830592	38	5981
2026-01-27 04:59:14.43	266.82	13.62	-32.8	-33.4	25.8	0.00e+00	0	31	0	1141899264	38	6023
2026-01-27 04:59:18.46	267.61	13.72	-32.6	-33.3	25.8	0.00e+00	0	31	0	1164967936	38	5926
2026-01-27 04:59:22.51	268.42	13.82	-32.7	-33.3	25.9	0.00e+00	0	31	0	1186988032	38	5958
2026-01-27 04:59:26.55	269.22	13.91	-32.6	-33.3	25.9	0.00e+00	0	31	0	1210056704	38	5938
2026-01-27 04:59:30.58	270.03	13.99	-32.5	-33.1	26.0	0.00e+00	0	31	0	1233125376	38	5785
2026-01-27 04:59:34.62	270.85	14.07	-32.4	-33.0	26.1	0.00e+00	0	31	0	1256194048	38	5710
2026-01-27 04:59:38.66	271.67	14.15	-32.2	-32.8	26.2	0.00e+00	0	31	0	1278214144	38	5594
2026-01-27 04:59:42.70	272.49	14.22	-32.4	-33.1	26.1	0.00e+00	0	31	0	1301282816	38	5797
2026-01-27 04:59:46.74	273.32	14.29	-32.8	-33.4	25.8	0.00e+00	0	31	0	1323302912	38	6030
2026-01-27 04:59:50.77	274.15	14.35	-32.7	-33.3	25.9	0.00e+00	0	31	0	1346371584	38	5935
2026-01-27 04:59:54.81	274.98	14.40	-32.4	-33.0	26.1	0.00e+00	0	31	0	1369440256	38	5760
2026-01-27 04:59:58.85	275.82	14.45	-32.5	-33.2	26.0	0.00e+00	0	31	0	1391460352	38	5858
2026-01-27 05:00:02.89	276.65	14.50	-32.4	-33.1	26.2	0.00e+00	0	31	0	1414529024	38	5764
2026-01-27 05:00:06.93	277.49	14.53	-32.4	-33.1	26.0	0.00e+00	0	32	0	1437597696	38	5765
2026-01-27 05:00:10.96	278.34	14.57	-32.2	-32.8	26.3	0.00e+00	0	31	0	1459617792	38	5608
2026-01-27 05:00:15.00	279.18	14.59	-32.3	-32.9	26.2	0.00e+00	0	31	0	1482686464	38	5678
2026-01-27 05:00:19.03	280.02	14.62	-32.5	-33.1	26.1	0.00e+00	0	31	0	1505755136	38	5826
2026-01-27 05:00:23.07	280.87	14.63	-32.6	-33.2	26.0	0.00e+00	0	31	0	1527775232	38	5879
2026-01-27 05:00:27.11	281.72	14.64	-32.6	-33.2	26.0	0.00e+00	0	31	0	1550843904	38	5878
2026-01-27 05:00:31.15	282.56	14.64	-32.5	-33.1	26.0	0.00e+00	0	31	0	1573912576	38	5827
2026-01-27 05:00:35.19	283.41	14.64	-32.5	-33.1	26.1	0.00e+00	0	31	0	1595932672	38	5809
2026-01-27 05:00:39.23	284.26	14.63	-32.4	-33.1	26.1	0.00e+00	0	31	0	1619001344	38	5793
2026-01-27 05:00:43.27	285.11	14.62	-32.6	-33.2	25.9	0.00e+00	0	31	0	1642070016	38	5851
2026-01-27 05:00:47.30	285.95	14.60	-32.7	-33.4	25.4	0.00e+00	0	31	0	1664090112	38	5968
2026-01-27 05:00:51.34	286.79	14.58	-32.6	-33.3	25.9	0.00e+00	0	31	0	1687158784	38	5915
2026-01-27 05:00:55.38	287.64	14.55	-32.6	-33.2	25.9	0.00e+00	0	31	0	1710227456	38	5879
2026-01-27 05:00:59.42	288.48	14.51	-32.5	-33.1	26.0	0.00e+00	0	31	0	1732247552	38	5803
2026-01-27 05:01:03.46	289.32	14.47	-32.6	-33.3	25.9	0.00e+00	0	31	0	1755316224	38	5904
2026-01-27 05:01:07.49	290.15	14.42	-32.8	-33.4	25.8	0.00e+00	0	31	0	1778384896	38	6024
2026-01-27 05:01:11.53	290.98	14.37	-32.6	-33.3	25.9	0.00e+00	0	31	0	1800404992	38	5932
2026-01-27 05:01:15.57	291.81	14.31	-32.6	-33.2	25.9	0.00e+00	0	31	0	1823473664	38	5875
2026-01-27 05:01:19.61	292.64	14.24	-32.6	-33.2	25.9	0.00e+00	0	31	0	1846542336	38	5888
2026-01-27 05:01:23.65	293.46	14.18	-32.7	-33.4	25.9	0.00e+00	0	31	0	1868562432	38	5992
2026-01-27 05:01:27.69	294.28	14.10	-32.6	-33.3	25.9	0.00e+00	0	31	0	1891631104	38	5933
2026-01-27 05:01:31.73	295.10	14.02	-32.8	-33.4	25.7	0.00e+00	0	31	0	1914699776	38	6017
2026-01-27 05:01:35.77	295.91	13.94	-33.0	-33.6	25.7	0.00e+00	0	31	0	1936719872	38	6149
2026-01-27 05:01:39.80	296.71	13.85	-33.0	-33.6	25.6	0.00e+00	0	31	0	1959788544	38	6171
2026-01-27 05:01:43.84	297.51	13.75	-33.0	-33.6	25.6	0.00e+00	0	31	0	1982857216	38	6171
2026-01-27 05:01:47.87	298.31	13.66	-33.0	-33.8	25.6	0.00e+00	0	31	0	2004877312	38	6256
2026-01-27 05:01:51.90	299.09	13.55	-33.2	-33.9	25.3	0.00e+00	0	31	0	2027945984	38	6321
2026-01-27 05:01:55.94	299.88	13.44	-33.1	-33.7	25.5	0.00e+00	0	31	0	2051014656	38	6187
2026-01-27 05:01:59.98	300.66	13.33	-33.1	-33.9	25.5	0.00e+00	0	32	0	2073034752	38	6330
2026-01-27 05:02:04.02	301.43	13.22	-33.1	-33.8	25.5	0.00e+00	0	31	0	2096103424	38	6279
2026-01-27 05:02:08.07	302.20	13.10	-32.9	-33.5	25.8	0.00e+00	0	31	0	2119172096	38	6095
2026-01-27 05:02:12.10	302.96	12.97	-33.3	-34.0	25.5	0.00e+00	0	31	0	2141192192	38	6432
2026-01-27 05:02:16.14	303.72	12.84	-33.1	-33.7	25.6	0.00e+00	0	31	0	2164260864	38	6224
2026-01-27 05:02:20.18	304.46	12.71	-33.2	-33.8	25.5	0.00e+00	0	31	0	2187329536	38	6296
2026-01-27 05:02:24.22	305.21	12.57	-33.3	-34.0	25.4	0.00e+00	0	31	0	2209349632	38	6435
2026-01-27 05:02:28.26	305.94	12.44	-33.3	-34.0	25.3	0.00e+00	0	31	0	2232418304	38	6416
2026-01-27 05:02:32.30	306.67	12.29	-33.6	-34.3	25.2	0.00e+00	0	31	0	2254438400	40	5902
2026-01-27 05:02:36.33	307.39	12.15	-33.9	-34.6	24.8	0.00e+00	0	31	0	2277507072	40	6106
2026-01-27 05:02:40.37	308.10	12.00	-33.5	-34.2	25.1	0.00e+00	0	31	0	2300575744	40	5874
2026-01-27 05:02:44.41	308.81	11.85	-33.5	-34.2	25.1	0.00e+00	0	31	0	2322595840	40	5879
2026-01-27 05:02:48.44	309.51	11.69	-33.6	-34.3	25.0	0.00e+00	0	31	0	2345664512	40	5921
2026-01-27 05:02:52.49	310.20	11.53	-33.6	-34.3	25.1	0.00e+00	0	31	0	2368733184	40	5953
2026-01-27 05:02:56.52	310.89	11.37	-33.6	-34.3	25.1	0.00e+00	0	31	0	2391801856	40	5907
2026-01-27 05:03:00.56	311.56	11.21	-33.7	-34.4	25.0	0.00e+00	0	31	0	2413821952	40	5979
2026-01-27 05:03:04.60	312.24	11.05	-33.6	-34.2	25.0	0.00e+00	0	31	0	2436890624	40	5889
2026-01-27 05:03:08.64	312.90	10.88	-33.6	-34.3	25.0	0.00e+00	0	31	0	2458910720	40	5943
2026-01-27 05:03:12.68	313.55	10.71	-33.7	-34.4	25.0	0.00e+00	0	31	0	2481979392	40	5977
2026-01-27 05:03:16.72	314.20	10.54	-33.8	-34.4	24.8	0.00e+00	0	31	0	2505048064	40	6030
2026-01-27 05:03:20.76	314.84	10.36	-34.1	-34.8	24.5	0.00e+00	0	31	0	2527068160	40	6282
2026-01-27 05:03:24.80	315.48	10.19	-34.3	-35.0	24.4	0.00e+00	0	31	0	2550136832	40	6426
2026-01-27 05:03:28.84	316.10	10.01	-34.3	-35.1	24.5	0.00e+00	0	31	0	2573205504	40	6470
2026-01-27 05:03:32.88	316.72	9.83	-34.1	-34.7	24.6	0.00e+00	0	31	0	2596274176	40	6210
2026-01-27 05:03:36.92	317.34	9.65	-34.1	-34.8	24.5	0.00e+00	0	31	0	2618294272	40	6294
2026-01-27 05:03:40.96	317.94	9.47	-34.0	-34.7	24.5	0.00e+00	0	31	0	2641362944	40	6192
2026-01-27 05:03:45.00	318.54	9.29	-34.1	-34.7	24.5	0.00e+00	0	31	0	2663383040	40	6198
2026-01-27 05:03:49.03	319.13	9.10	-34.2	-34.8	24.3	0.00e+00	0	31	0	2686451712	40	6307
2026-01-27 05:03:53.07	319.71	8.92	-34.2	-34.9	24.3	0.00e+00	0	31	0	2709520384	40	6360
2026-01-27 05:03:57.11	320.28	8.73	-34.4	-35.2	24.1	0.00e+00	0	31	0	2732589056	40	6553
2026-01-27 05:04:01.15	320.85	8.54	-34.4	-35.1	24.0	0.00e+00	0	31	0	2754609152	40	6507
2026-01-27 05:04:05.20	321.42	8.35	-34.6	-35.4	23.8	0.00e+00	0	31	0	2777677824	40	6700
2026-01-27 05:04:09.23	321.97	8.17	-34.8	-35.4	23.8	0.00e+00	0	31	0	2800746496	42	6026
2026-01-27 05:04:13.27	322.52	7.98	-34.7	-35.4	23.8	0.00e+00	0	31	0	2822766592	42	5970
2026-01-27 05:04:17.31	323.06	7.78	-34.9	-35.5	23.6	0.00e+00	0	31	0	2845835264	42	6102
2026-01-27 05:04:21.35	323.59	7.59	-35.2	-36.0	23.4	0.00e+00	0	31	0	2867855360	42	6422
2026-01-27 05:04:25.39	324.12	7.40	-35.0	-35.7	23.5	0.00e+00	0	31	0	2890924032	42	6235
2026-01-27 05:04:29.43	324.64	7.21	-34.9	-35.6	23.6	0.00e+00	0	31	0	2913992704	42	6143
2026-01-27 05:04:33.47	325.15	7.01	-35.1	-35.9	23.3	0.00e+00	0	31	0	2937061376	42	6345
2026-01-27 05:04:37.51	325.66	6.82	-35.0	-35.7	23.4	0.00e+00	0	31	0	2959081472	42	6212
2026-01-27 05:04:41.55	326.16	6.63	-35.1	-35.8	23.3	0.00e+00	0	31	0	2982150144	42	6263
2026-01-27 05:04:45.59	326.66	6.43	-35.6	-36.4	22.9	0.00e+00	0	31	0	3005218816	42	6698
2026-01-27 05:04:49.63	327.14	6.24	-35.7	-36.5	22.6	0.00e+00	0	31	0	3027238912	42	6811
2026-01-27 05:04:53.66	327.63	6.04	-35.3	-36.1	23.0	0.00e+00	0	31	0	3050307584	44	5819
2026-01-27 05:04:57.70	328.10	5.85	-35.3	-36.0	22.9	0.00e+00	0	31	0	3072327680	44	5729
2026-01-27 05:05:01.73	328.57	5.65	-35.5	-36.2	22.8	0.00e+00	0	31	0	3095396352	44	5831
2026-01-27 05:05:05.77	329.03	5.46	-35.6	-36.4	22.5	0.00e+00	0	31	0	3118465024	44	5990
2026-01-27 05:05:09.81	329.49	5.26	-35.9	-36.7	22.2	0.00e+00	0	31	0	3140485120	44	6193
2026-01-27 05:05:13.84	329.94	5.07	-36.0	-36.9	22.2	0.00e+00	0	31	0	3163553792	44	6340
2026-01-27 05:05:17.87	330.39	4.87	-36.2	-37.0	21.9	0.00e+00	0	31	0	3186622464	44	6436
2026-01-27 05:05:21.91	330.83	4.68	-36.1	-36.9	22.0	0.00e+00	0	32	0	3208642560	44	6360
2026-01-27 05:05:25.94	331.26	4.48	-35.8	-36.7	21.9	0.00e+00	0	31	0	3231711232	44	6200
2026-01-27 05:05:29.99	331.70	4.29	-37.3	-38.3	19.7	0.00e+00	0	31	0	3254779904	46	6617
2026-01-27 05:05:34.03	332.12	4.09	-39.7	-41.3	15.4	0.00e+00	0	31	0	3276800000	50	7456
2026-01-27 05:05:38.06	332.54	3.90	-42.7	-46.7	7.7	6.04e-02	0	31	0	3299868672	56	9893
2026-01-27 05:05:42.11	332.95	3.71	-43.7	-53.3	3.7	8.43e-01	0	31	104	3309305856	58	18822
2026-01-27 05:05:46.14	333.36	3.51	-43.8	-55.7	3.6	8.46e-01	0	31	104	3309305856	60	21973
2026-01-27 05:05:50.18	333.76	3.32	-43.9	-56.0	3.6	8.46e-01	0	32	104	3309305856	60	22783
2026-01-27 05:05:54.22	334.16	3.12	-43.9	-56.0	3.6	8.45e-01	0	32	104	3309305856	60	22708
2026-01-27 05:05:58.25	334.55	2.93	-48.2	-60.4	3.6	8.46e-01	0	32	104	3309305856	60	37785
2026-01-27 05:06:02.29	334.94	2.74	-48.9	-61.0	3.6	8.45e-01	0	31	104	3309305856	60	40557
2026-01-27 05:06:06.33	335.33	2.55	-49.1	-61.2	3.6	8.44e-01	0	31	104	3309305856	60	41564
2026-01-27 05:06:10.37	335.71	2.35	-49.1	-61.2	3.6	8.44e-01	0	31	104	3309305856	60	41477
2026-01-27 05:06:14.40	336.08	2.16	-48.8	-61.1	3.6	8.44e-01	0	31	104	3309305856	60	41094
2026-01-27 05:06:18.44	336.45	1.97	-48.8	-61.1	3.6	8.46e-01	0	32	104	3309305856	60	40855
2026-01-27 05:06:22.48	336.82	1.78	-49.0	-61.1	3.6	8.45e-01	0	32	104	3309305856	60	41091
2026-01-27 05:06:26.52	337.18	1.59	-49.0	-61.1	3.6	8.45e-01	0	31	104	3309305856	60	41014
2026-01-27 05:06:30.56	337.53	1.40	-49.0	-61.2	3.6	8.45e-01	0	32	104	3309305856	60	41266
2026-01-27 05:06:34.59	337.88	1.21	-48.9	-61.1	3.6	8.45e-01	0	32	104	3309305856	60	40980
2026-01-27 05:06:38.63	338.23	1.02	-49.0	-61.1	3.6	8.45e-01	0	32	104	3309305856	60	40944
2026-01-27 05:06:42.67	338.58	0.83	-49.0	-61.1	3.6	8.46e-01	0	32	104	3309305856	60	41216
2026-01-27 05:06:46.71	338.92	0.64	-49.0	-61.1	3.6	8.45e-01	0	32	104	3309305856	60	41056
2026-01-27 05:06:50.75	339.25	0.45	-49.0	-61.1	3.6	8.45e-01	0	31	104	3309305856	60	41254
2026-01-27 05:06:54.79	339.59	0.26	-49.0	-61.1	3.6	8.46e-01	0	31	104	3309305856	60	41253
2026-01-27 05:06:58.83	339.91	0.08	-49.0	-61.1	3.6	8.46e-01	0	32	104	3309305856	60	41215
2026-01-27 05:07:02.86	340.24	-0.11	-48.9	-61.1	3.6	8.45e-01	0	32	104	3309305856	60	40976

#Closed at: 2026-01-27 05:07:03
#Recorded file [3309 MB]: D:/lorett/data/35029_260127_165407.dat