passes_logs/2026/01/27/R4.6S_Anadyr/R4.6S_Anadyr__20260127_023653_NOAA_20_JPSS-1_rec.log

#Pass ID: 20260127_023653_NOAA 20 (JPSS-1)
#Satellite: NOAA 20 (JPSS-1)
#Configuration: NOAA 20
#almurnet v.1.7.20251203
#Start time: 2026-01-27 02:36:57

#Version: 2.2.20231116
#Station: R4.6S_Anadyr
#Location: 177.4865 lon 64.73178 lat
#TLE: 1 43013U 17073A   26026.46665230  .00000148  00000+0  91302-4 0  9998
#TLE: 2 43013  98.7646 327.2856 0001008  22.9532 337.1688 14.19540616424360

#Time	Az	El	Level	Level2	SNR	BER	BlckErr	Temp	State	Recorded	gain1	gain2
2026-01-27 02:36:57.35	219.37	0.17	-49.0	-62.8	3.3	1.54e+00	0	27	0	0	60	50104
2026-01-27 02:37:01.38	219.67	0.37	-49.1	-64.3	3.6	1.51e+00	0	28	104	0	60	59396
2026-01-27 02:37:05.43	219.98	0.57	-48.9	-64.3	3.6	1.51e+00	0	28	104	0	60	59340
2026-01-27 02:37:09.47	220.29	0.77	-49.1	-64.3	3.6	1.51e+00	0	28	104	0	60	59511
2026-01-27 02:37:13.51	220.61	0.97	-48.7	-64.2	3.6	1.51e+00	0	28	104	0	60	58471
2026-01-27 02:37:17.55	220.93	1.18	-48.6	-63.7	3.6	1.51e+00	0	28	104	0	60	55560
2026-01-27 02:37:21.59	221.25	1.38	-46.9	-62.1	3.6	1.51e+00	0	28	104	0	60	45944
2026-01-27 02:37:25.63	221.58	1.58	-46.9	-62.1	3.6	1.51e+00	0	28	104	0	60	45929
2026-01-27 02:37:29.67	221.91	1.79	-46.9	-62.1	3.6	1.51e+00	0	28	104	0	60	45849
2026-01-27 02:37:33.71	222.25	1.99	-46.9	-61.9	3.6	1.51e+00	0	28	104	0	60	45117
2026-01-27 02:37:37.75	222.59	2.20	-46.9	-61.9	3.6	1.51e+00	0	28	104	0	60	44761
2026-01-27 02:37:41.79	222.94	2.41	-46.9	-61.9	3.6	1.51e+00	0	28	104	0	60	44955
2026-01-27 02:37:45.82	223.28	2.61	-46.5	-55.2	5.0	8.73e-01	0	28	0	1048576	60	20732
2026-01-27 02:37:49.86	223.64	2.82	-45.3	-50.3	10.4	4.91e-03	0	28	0	8388608	60	11849
2026-01-27 02:37:53.90	224.00	3.03	-46.3	-53.8	5.9	1.79e-01	0	28	0	15728640	60	17639
2026-01-27 02:37:57.94	224.36	3.24	-46.0	-52.0	8.8	1.05e-04	0	28	0	18874368	60	14413
2026-01-27 02:38:01.98	224.73	3.45	-44.3	-47.7	13.5	2.36e-05	0	28	0	26214400	60	8752
2026-01-27 02:38:06.02	225.11	3.66	-44.4	-47.8	13.5	1.90e-05	0	28	0	33554432	60	8887
2026-01-27 02:38:10.06	225.49	3.87	-44.5	-48.0	13.3	2.13e-05	0	28	0	41943040	60	9036
2026-01-27 02:38:14.10	225.87	4.08	-44.4	-47.8	13.6	9.10e-06	0	28	0	49283072	60	8824
2026-01-27 02:38:18.14	226.26	4.30	-44.5	-48.0	13.4	1.90e-05	0	28	0	56623104	60	9083
2026-01-27 02:38:22.18	226.66	4.51	-44.8	-48.4	13.0	2.28e-05	0	28	0	63963136	60	9471
2026-01-27 02:38:26.22	227.06	4.72	-44.9	-48.6	12.9	4.95e-05	0	28	0	72351744	60	9718
2026-01-27 02:38:30.26	227.47	4.94	-45.1	-49.0	12.6	8.31e-05	0	29	0	79691776	60	10143
2026-01-27 02:38:34.30	227.88	5.15	-45.1	-48.9	12.7	8.01e-05	0	29	0	87031808	60	10024
2026-01-27 02:38:38.33	228.30	5.37	-45.2	-49.1	12.5	1.01e-04	0	29	0	94371840	60	10325
2026-01-27 02:38:42.37	228.72	5.58	-45.5	-49.5	12.2	2.64e-04	0	29	0	101711872	60	10755
2026-01-27 02:38:46.41	229.16	5.80	-45.3	-49.3	12.4	1.59e-04	0	29	0	110100480	60	10510
2026-01-27 02:38:50.45	229.59	6.02	-45.5	-49.5	12.3	1.52e-04	0	29	0	117440512	60	10732
2026-01-27 02:38:54.49	230.04	6.23	-45.7	-49.8	11.9	3.06e-04	0	29	0	124780544	60	11199
2026-01-27 02:38:58.53	230.49	6.45	-45.8	-50.0	11.8	3.94e-04	0	29	0	132120576	60	11496
2026-01-27 02:39:02.58	230.94	6.67	-45.9	-50.1	11.7	4.54e-04	0	29	0	140509184	60	11612
2026-01-27 02:39:06.62	231.41	6.89	-45.8	-49.9	12.0	2.92e-04	0	29	0	147849216	60	11348
2026-01-27 02:39:10.65	231.87	7.11	-45.8	-49.7	12.3	1.98e-04	0	29	0	155189248	60	11099
2026-01-27 02:39:14.69	232.35	7.32	-45.7	-49.7	12.3	1.54e-04	0	29	0	162529280	60	11105
2026-01-27 02:39:18.73	232.83	7.54	-45.4	-49.1	13.1	2.44e-05	0	29	0	169869312	60	10260
2026-01-27 02:39:22.77	233.32	7.76	-45.4	-48.9	13.3	1.22e-05	0	29	0	178257920	60	10089
2026-01-27 02:39:26.81	233.82	7.98	-45.2	-48.6	13.8	6.10e-06	0	29	0	185597952	60	9684
2026-01-27 02:39:30.86	234.33	8.20	-45.0	-48.3	13.9	5.30e-06	0	29	0	192937984	60	9418
2026-01-27 02:39:34.90	234.84	8.42	-45.1	-48.1	14.2	0.00e+00	0	29	0	200278016	60	9233
2026-01-27 02:39:38.94	235.36	8.64	-44.9	-47.9	14.4	0.00e+00	0	29	0	208666624	60	9001
2026-01-27 02:39:42.97	235.89	8.86	-44.7	-47.6	14.9	0.00e+00	0	29	0	216006656	60	8691
2026-01-27 02:39:47.01	236.42	9.08	-44.2	-46.8	15.6	0.00e+00	0	29	0	223346688	60	7947
2026-01-27 02:39:51.05	236.96	9.29	-44.0	-46.4	16.1	0.00e+00	0	29	0	230686720	60	7566
2026-01-27 02:39:55.09	237.51	9.51	-43.6	-45.8	16.7	0.00e+00	0	29	0	238026752	60	7010
2026-01-27 02:39:59.13	238.07	9.73	-43.2	-45.3	17.2	0.00e+00	0	29	0	246415360	60	6632
2026-01-27 02:40:03.17	238.64	9.95	-42.8	-44.7	17.8	0.00e+00	0	29	0	253755392	60	6215
2026-01-27 02:40:07.20	239.21	10.16	-42.5	-44.2	18.2	0.00e+00	0	29	0	261095424	58	6606
2026-01-27 02:40:11.24	239.79	10.38	-42.1	-43.8	18.7	0.00e+00	0	29	0	268435456	58	6257
2026-01-27 02:40:15.28	240.38	10.60	-41.5	-43.0	19.6	0.00e+00	0	29	0	276824064	56	6409
2026-01-27 02:40:19.32	240.98	10.81	-41.1	-42.4	20.0	0.00e+00	0	29	0	284164096	56	6005
2026-01-27 02:40:23.36	241.59	11.02	-40.3	-41.5	20.9	0.00e+00	0	29	0	291504128	54	6049
2026-01-27 02:40:27.40	242.21	11.24	-39.8	-40.9	21.4	0.00e+00	0	29	0	298844160	54	5693
2026-01-27 02:40:31.43	242.83	11.45	-39.3	-40.3	22.1	0.00e+00	0	29	0	306184192	52	5952
2026-01-27 02:40:35.47	243.47	11.66	-38.8	-39.8	22.6	0.00e+00	0	29	0	314572800	52	5587
2026-01-27 02:40:39.51	244.11	11.87	-38.6	-39.5	23.0	0.00e+00	0	29	0	321912832	50	6088
2026-01-27 02:40:43.55	244.76	12.07	-38.4	-39.3	23.2	0.00e+00	0	29	0	329252864	50	5929
2026-01-27 02:40:47.58	245.42	12.28	-38.2	-39.1	23.4	0.00e+00	0	29	0	336592896	50	5817
2026-01-27 02:40:51.62	246.09	12.48	-37.9	-38.8	23.6	0.00e+00	0	29	0	344981504	50	5626
2026-01-27 02:40:55.66	246.77	12.68	-38.0	-38.8	23.7	0.00e+00	0	29	0	352321536	50	5630
2026-01-27 02:40:59.70	247.46	12.88	-38.2	-39.1	23.4	0.00e+00	0	29	0	359661568	50	5811
2026-01-27 02:41:03.74	248.15	13.08	-37.9	-38.8	23.6	0.00e+00	0	29	0	367001600	50	5618
2026-01-27 02:41:07.78	248.86	13.28	-37.9	-38.8	23.6	0.00e+00	0	29	0	374341632	48	6286
2026-01-27 02:41:11.82	249.57	13.47	-38.3	-39.2	23.3	0.00e+00	0	29	0	382730240	48	6569
2026-01-27 02:41:15.86	250.30	13.66	-38.2	-39.1	23.5	0.00e+00	0	29	0	390070272	48	6477
2026-01-27 02:41:19.90	251.03	13.85	-38.4	-39.3	23.1	0.00e+00	0	29	0	397410304	48	6692
2026-01-27 02:41:23.93	251.77	14.03	-39.0	-40.0	22.7	0.00e+00	0	29	0	404750336	50	6412
2026-01-27 02:41:27.97	252.52	14.21	-39.2	-40.2	22.5	0.00e+00	0	29	0	413138944	50	6548
2026-01-27 02:41:32.00	253.27	14.39	-39.4	-40.4	22.3	0.00e+00	0	29	0	420478976	50	6760
2026-01-27 02:41:36.04	254.04	14.57	-39.8	-40.9	21.9	0.00e+00	0	29	0	427819008	52	6368
2026-01-27 02:41:40.08	254.82	14.74	-40.0	-41.1	21.7	0.00e+00	0	29	0	435159040	52	6520
2026-01-27 02:41:44.12	255.60	14.91	-40.1	-41.2	21.7	0.00e+00	0	29	0	442499072	52	6558
2026-01-27 02:41:48.16	256.40	15.07	-40.5	-41.6	21.2	0.00e+00	0	29	0	450887680	52	6925
2026-01-27 02:41:52.20	257.20	15.23	-40.6	-41.8	21.1	0.00e+00	0	29	0	458227712	52	7023
2026-01-27 02:41:56.24	258.01	15.39	-40.4	-41.6	21.3	0.00e+00	0	29	0	465567744	52	6868
2026-01-27 02:42:00.28	258.83	15.54	-40.5	-41.7	21.2	0.00e+00	0	29	0	472907776	52	6969
2026-01-27 02:42:04.32	259.65	15.68	-40.0	-41.1	21.8	0.00e+00	0	29	0	481296384	52	6494
2026-01-27 02:42:08.36	260.49	15.82	-39.4	-40.4	22.4	0.00e+00	0	29	0	488636416	52	6012
2026-01-27 02:42:12.41	261.33	15.96	-39.5	-40.5	22.3	0.00e+00	0	29	0	495976448	52	6083
2026-01-27 02:42:16.45	262.18	16.09	-38.9	-39.8	22.9	0.00e+00	0	29	0	503316480	52	5625
2026-01-27 02:42:20.49	263.04	16.22	-38.3	-39.2	23.4	0.00e+00	0	29	0	510656512	50	5891
2026-01-27 02:42:24.53	263.90	16.34	-38.1	-39.0	23.6	0.00e+00	0	29	0	519045120	50	5713
2026-01-27 02:42:28.57	264.77	16.45	-38.6	-39.5	23.2	0.00e+00	0	29	0	526385152	50	6074
2026-01-27 02:42:32.61	265.64	16.56	-38.6	-39.5	23.2	0.00e+00	0	29	0	533725184	50	6089
2026-01-27 02:42:36.65	266.52	16.67	-38.9	-39.9	22.8	0.00e+00	0	29	0	541065216	50	6343
2026-01-27 02:42:40.69	267.41	16.76	-38.7	-39.7	23.0	0.00e+00	0	29	0	549453824	50	6182
2026-01-27 02:42:44.72	268.30	16.86	-38.9	-39.8	23.0	0.00e+00	0	29	0	556793856	50	6298
2026-01-27 02:42:48.77	269.20	16.94	-38.9	-39.9	22.9	0.00e+00	0	29	0	564133888	50	6343
2026-01-27 02:42:52.81	270.10	17.02	-39.2	-40.2	22.6	0.00e+00	0	29	0	571473920	50	6549
2026-01-27 02:42:56.85	271.01	17.09	-38.9	-39.8	23.0	0.00e+00	0	29	0	578813952	50	6306
2026-01-27 02:43:00.89	271.92	17.16	-38.9	-39.9	22.9	0.00e+00	0	29	0	587202560	50	6330
2026-01-27 02:43:04.93	272.83	17.21	-39.2	-40.1	22.7	0.00e+00	0	29	0	594542592	50	6539
2026-01-27 02:43:08.97	273.75	17.27	-39.0	-40.0	22.9	0.00e+00	0	29	0	601882624	50	6392
2026-01-27 02:43:13.01	274.67	17.31	-38.8	-39.7	23.0	0.00e+00	0	29	0	609222656	50	6208
2026-01-27 02:43:17.05	275.59	17.35	-39.1	-40.1	22.7	0.00e+00	0	29	0	617611264	50	6495
2026-01-27 02:43:21.08	276.52	17.38	-39.8	-40.8	22.1	0.00e+00	0	29	0	624951296	52	6291
2026-01-27 02:43:25.12	277.44	17.40	-39.2	-40.2	22.6	0.00e+00	0	29	0	632291328	52	5882
2026-01-27 02:43:29.17	278.37	17.42	-39.1	-40.1	22.8	0.00e+00	0	29	0	639631360	52	5797
2026-01-27 02:43:33.20	279.30	17.43	-39.1	-40.1	22.7	0.00e+00	0	29	0	646971392	52	5801
2026-01-27 02:43:37.24	280.22	17.43	-39.2	-40.2	22.6	0.00e+00	0	29	0	655360000	52	5892
2026-01-27 02:43:41.28	281.15	17.42	-39.0	-40.0	22.8	0.00e+00	0	29	0	662700032	52	5713
2026-01-27 02:43:45.31	282.08	17.41	-38.7	-39.7	23.1	0.00e+00	0	29	0	670040064	52	5520
2026-01-27 02:43:49.35	283.00	17.39	-39.0	-39.9	22.8	0.00e+00	0	29	0	677380096	50	6383
2026-01-27 02:43:53.39	283.93	17.36	-38.9	-39.9	23.0	0.00e+00	0	29	0	685768704	50	6322
2026-01-27 02:43:57.43	284.85	17.33	-38.8	-39.7	23.0	0.00e+00	0	29	0	693108736	50	6240
2026-01-27 02:44:01.47	285.77	17.29	-38.7	-39.7	23.1	0.00e+00	0	29	0	700448768	50	6187
2026-01-27 02:44:05.50	286.68	17.24	-38.9	-39.9	23.0	0.00e+00	0	29	0	707788800	50	6324
2026-01-27 02:44:09.54	287.60	17.19	-39.0	-40.0	22.8	0.00e+00	0	29	0	715128832	50	6427
2026-01-27 02:44:13.58	288.51	17.12	-38.4	-39.3	23.5	0.00e+00	0	29	0	723517440	50	5960
2026-01-27 02:44:17.61	289.41	17.06	-38.5	-39.4	23.3	0.00e+00	0	29	0	730857472	50	6003
2026-01-27 02:44:21.66	290.32	16.98	-38.4	-39.3	23.4	0.00e+00	0	29	0	738197504	50	5940
2026-01-27 02:44:25.70	291.22	16.90	-38.3	-39.2	23.5	0.00e+00	0	29	0	745537536	50	5890
2026-01-27 02:44:29.74	292.11	16.81	-38.2	-39.1	23.6	0.00e+00	0	29	0	753926144	50	5803
2026-01-27 02:44:33.77	292.99	16.72	-37.9	-38.8	23.8	0.00e+00	0	29	0	761266176	50	5605
2026-01-27 02:44:37.82	293.88	16.62	-38.0	-38.9	23.8	0.00e+00	0	29	0	768606208	50	5631
2026-01-27 02:44:41.86	294.75	16.51	-37.9	-38.7	23.9	0.00e+00	0	29	0	775946240	48	6244
2026-01-27 02:44:45.90	295.62	16.40	-38.5	-39.4	23.5	0.00e+00	0	29	0	783286272	48	6727
2026-01-27 02:44:49.94	296.49	16.28	-38.0	-38.9	23.8	0.00e+00	0	29	0	791674880	48	6326
2026-01-27 02:44:53.97	297.34	16.16	-37.4	-38.2	24.4	0.00e+00	0	29	0	799014912	48	5870
2026-01-27 02:44:58.01	298.19	16.03	-37.2	-38.0	24.6	0.00e+00	0	29	0	806354944	48	5715
2026-01-27 02:45:02.05	299.03	15.90	-37.1	-37.9	24.6	0.00e+00	0	29	0	813694976	48	5663
2026-01-27 02:45:06.09	299.87	15.76	-37.4	-38.3	24.3	0.00e+00	0	29	0	822083584	48	5907
2026-01-27 02:45:10.13	300.70	15.62	-37.2	-38.0	24.5	0.00e+00	0	29	0	829423616	48	5743
2026-01-27 02:45:14.17	301.52	15.47	-36.9	-37.7	24.7	0.00e+00	0	29	0	836763648	48	5529
2026-01-27 02:45:18.21	302.33	15.32	-37.1	-37.9	24.5	0.00e+00	0	29	0	844103680	48	5686
2026-01-27 02:45:22.25	303.13	15.16	-37.8	-38.7	23.9	0.00e+00	0	29	0	851443712	48	6215
2026-01-27 02:45:26.29	303.92	15.00	-37.7	-38.6	23.9	0.00e+00	0	29	0	859832320	48	6152
2026-01-27 02:45:30.33	304.71	14.84	-37.8	-38.7	23.9	0.00e+00	0	29	0	867172352	48	6209
2026-01-27 02:45:34.36	305.49	14.67	-37.9	-38.8	23.8	0.00e+00	0	29	0	874512384	48	6292
2026-01-27 02:45:38.40	306.26	14.50	-38.5	-39.4	23.2	0.00e+00	0	29	0	881852416	48	6737
2026-01-27 02:45:42.44	307.02	14.32	-39.5	-40.5	22.3	0.00e+00	0	29	0	890241024	50	6847
2026-01-27 02:45:46.47	307.77	14.14	-40.0	-41.1	21.8	0.00e+00	0	29	0	897581056	52	6475
2026-01-27 02:45:50.51	308.51	13.96	-40.1	-41.2	21.7	0.00e+00	0	29	0	904921088	52	6571
2026-01-27 02:45:54.55	309.24	13.77	-39.6	-40.6	22.2	0.00e+00	0	29	0	912261120	52	6139
2026-01-27 02:45:58.59	309.97	13.59	-39.3	-40.3	22.5	0.00e+00	0	29	0	919601152	52	5924
2026-01-27 02:46:02.62	310.68	13.40	-39.6	-40.7	22.1	0.00e+00	0	29	0	927989760	52	6175
2026-01-27 02:46:06.66	311.39	13.20	-40.1	-41.2	21.6	0.00e+00	0	29	0	935329792	52	6609
2026-01-27 02:46:10.70	312.09	13.01	-40.1	-41.2	21.5	0.00e+00	0	29	0	942669824	52	6586
2026-01-27 02:46:14.74	312.78	12.81	-39.7	-40.8	21.9	0.00e+00	0	29	0	950009856	52	6276
2026-01-27 02:46:18.78	313.46	12.61	-39.6	-40.7	22.0	0.00e+00	0	29	0	958398464	52	6184
2026-01-27 02:46:22.82	314.13	12.41	-39.1	-40.1	22.6	0.00e+00	0	29	0	965738496	52	5799
2026-01-27 02:46:26.85	314.79	12.21	-38.6	-39.5	23.0	0.00e+00	0	29	0	973078528	50	6077
2026-01-27 02:46:30.89	315.44	12.00	-38.9	-39.9	22.6	0.00e+00	0	29	0	980418560	50	6369
2026-01-27 02:46:34.93	316.09	11.80	-39.5	-40.6	22.1	0.00e+00	0	29	0	987758592	50	6863
2026-01-27 02:46:38.97	316.72	11.59	-39.7	-40.7	21.9	0.00e+00	0	29	0	996147200	50	6992
2026-01-27 02:46:43.01	317.35	11.38	-39.2	-40.3	22.4	0.00e+00	0	29	0	1003487232	50	6620
2026-01-27 02:46:47.05	317.97	11.17	-38.3	-39.3	23.3	0.00e+00	0	29	0	1010827264	50	5911
2026-01-27 02:46:51.08	318.58	10.96	-38.3	-39.2	23.2	0.00e+00	0	29	0	1018167296	50	5864
2026-01-27 02:46:55.12	319.18	10.75	-38.8	-39.8	22.7	0.00e+00	0	29	0	1026555904	50	6275
2026-01-27 02:46:59.16	319.77	10.54	-38.8	-39.7	22.8	0.00e+00	0	29	0	1033895936	50	6225
2026-01-27 02:47:03.20	320.36	10.32	-38.9	-39.9	22.6	0.00e+00	0	29	0	1041235968	50	6383
2026-01-27 02:47:07.24	320.93	10.11	-38.9	-39.9	22.6	0.00e+00	0	29	0	1048576000	50	6344
2026-01-27 02:47:11.27	321.50	9.89	-38.5	-39.5	22.9	0.00e+00	0	29	0	1055916032	50	6046
2026-01-27 02:47:15.31	322.06	9.68	-38.7	-39.7	22.8	0.00e+00	0	29	0	1064304640	50	6175
2026-01-27 02:47:19.35	322.61	9.46	-39.1	-40.1	22.3	0.00e+00	0	29	0	1071644672	50	6535
2026-01-27 02:47:23.39	323.16	9.25	-38.7	-39.7	22.7	0.00e+00	0	29	0	1078984704	50	6214
2026-01-27 02:47:27.43	323.69	9.03	-38.7	-39.7	22.6	0.00e+00	0	29	0	1086324736	50	6176
2026-01-27 02:47:31.47	324.22	8.81	-39.2	-40.2	22.2	0.00e+00	0	29	0	1094713344	50	6594
2026-01-27 02:47:35.50	324.74	8.60	-39.4	-40.5	21.8	0.00e+00	0	29	0	1102053376	50	6791
2026-01-27 02:47:39.55	325.26	8.38	-38.9	-39.9	22.2	0.00e+00	0	29	0	1109393408	50	6381
2026-01-27 02:47:43.59	325.77	8.16	-39.1	-40.1	21.8	0.00e+00	0	29	0	1116733440	50	6508
2026-01-27 02:47:47.63	326.27	7.95	-39.4	-40.5	21.8	0.00e+00	0	29	0	1124073472	50	6812
2026-01-27 02:47:51.67	326.76	7.73	-39.6	-40.7	21.5	0.00e+00	0	29	0	1132462080	50	6943
2026-01-27 02:47:55.71	327.25	7.51	-39.5	-40.6	21.5	0.00e+00	0	29	0	1139802112	50	6877
2026-01-27 02:47:59.74	327.72	7.30	-40.0	-41.1	21.2	0.00e+00	0	29	0	1147142144	52	6536
2026-01-27 02:48:03.79	328.20	7.08	-40.3	-41.6	20.8	0.00e+00	0	29	0	1154482176	52	6865
2026-01-27 02:48:07.83	328.66	6.86	-40.1	-41.3	20.9	0.00e+00	0	29	0	1162870784	52	6675
2026-01-27 02:48:11.86	329.12	6.65	-40.6	-41.9	20.5	0.00e+00	0	29	0	1170210816	52	7092
2026-01-27 02:48:15.91	329.57	6.43	-40.6	-41.8	20.4	0.00e+00	0	29	0	1177550848	52	7085
2026-01-27 02:48:19.94	330.02	6.22	-40.7	-42.0	20.3	0.00e+00	0	29	0	1184890880	54	6421
2026-01-27 02:48:23.98	330.46	6.00	-40.7	-42.0	19.9	0.00e+00	0	29	0	1192230912	54	6463
2026-01-27 02:48:28.02	330.89	5.79	-40.6	-41.9	20.2	0.00e+00	0	29	0	1200619520	54	6384
2026-01-27 02:48:32.06	331.32	5.57	-40.8	-42.2	19.9	0.00e+00	0	29	0	1207959552	54	6541
2026-01-27 02:48:36.10	331.74	5.36	-41.1	-42.6	19.5	0.00e+00	0	29	0	1215299584	54	6860
2026-01-27 02:48:40.14	332.16	5.15	-41.3	-42.9	18.8	0.00e+00	0	29	0	1222639616	54	7124
2026-01-27 02:48:44.18	332.57	4.93	-42.3	-44.6	16.1	0.00e+00	0	29	0	1231028224	56	7739
2026-01-27 02:48:48.22	332.98	4.72	-43.4	-48.1	10.8	1.25e-03	0	29	0	1238368256	58	10337
2026-01-27 02:48:52.26	333.37	4.51	-43.9	-52.0	5.4	3.88e-01	0	29	0	1245708288	60	14317
2026-01-27 02:48:56.30	333.77	4.30	-43.9	-57.3	3.6	1.51e+00	0	29	104	1248854016	60	26636
2026-01-27 02:49:00.34	334.16	4.09	-43.9	-59.0	3.6	1.51e+00	0	29	104	1248854016	60	32353
2026-01-27 02:49:04.38	334.54	3.88	-43.8	-58.7	3.6	1.51e+00	0	29	104	1248854016	60	31242
2026-01-27 02:49:08.41	334.92	3.67	-43.9	-59.1	3.6	1.51e+00	0	29	104	1248854016	60	32625
2026-01-27 02:49:12.45	335.29	3.46	-44.0	-59.2	3.6	1.51e+00	0	29	104	1248854016	60	33081
2026-01-27 02:49:16.49	335.66	3.26	-44.0	-59.2	3.6	1.51e+00	0	29	104	1248854016	60	32868
2026-01-27 02:49:20.53	336.02	3.05	-44.0	-59.1	3.6	1.51e+00	0	29	104	1248854016	60	32755
2026-01-27 02:49:24.57	336.38	2.84	-48.6	-63.7	3.6	1.51e+00	0	29	104	1248854016	60	55566
2026-01-27 02:49:28.61	336.73	2.64	-49.0	-64.2	3.6	1.51e+00	0	29	104	1248854016	60	58370
2026-01-27 02:49:32.64	337.08	2.43	-49.2	-64.3	3.6	1.51e+00	0	29	104	1248854016	60	59587
2026-01-27 02:49:36.68	337.43	2.23	-49.1	-64.4	3.6	1.51e+00	0	29	104	1248854016	60	59893
2026-01-27 02:49:40.72	337.77	2.03	-48.9	-64.2	3.5	1.51e+00	0	29	104	1248854016	60	58934
2026-01-27 02:49:44.76	338.10	1.82	-48.9	-64.3	3.6	1.51e+00	0	29	104	1248854016	60	59027
2026-01-27 02:49:48.79	338.43	1.62	-49.0	-64.2	3.6	1.51e+00	0	29	104	1248854016	60	58461
2026-01-27 02:49:52.83	338.76	1.42	-49.0	-64.2	3.6	1.51e+00	0	29	104	1248854016	60	58496
2026-01-27 02:49:56.87	339.08	1.22	-49.0	-64.2	3.6	1.51e+00	0	29	104	1248854016	60	58719
2026-01-27 02:50:00.91	339.40	1.02	-49.0	-64.2	3.6	1.51e+00	0	29	104	1248854016	60	58633
2026-01-27 02:50:04.96	339.72	0.82	-49.1	-64.3	3.5	1.51e+00	0	29	104	1248854016	60	59291
2026-01-27 02:50:09.00	340.03	0.62	-49.0	-64.3	3.6	1.51e+00	0	29	104	1248854016	60	58983
2026-01-27 02:50:13.03	340.34	0.42	-49.0	-64.2	3.6	1.51e+00	0	29	104	1248854016	60	58927
2026-01-27 02:50:17.07	340.64	0.22	-49.0	-64.2	3.6	1.51e+00	0	29	104	1248854016	60	58865
2026-01-27 02:50:21.11	340.94	0.03	-49.0	-64.2	3.6	1.51e+00	0	29	104	1248854016	60	58827

#Closed at: 2026-01-27 02:50:22
#Recorded file [1248 MB]: D:/lorett/data/35029_260127_143657.dat