passes_logs/2026/01/27/R4.6S_Anadyr/R4.6S_Anadyr__20260127_163633_AQUA_rec.log

#Pass ID: 20260127_163633_AQUA
#Satellite: AQUA
#Configuration: AQUA
#almurnet v.1.7.20251203
#Start time: 2026-01-27 16:36:35

#Version: 2.2.20231116
#Station: R4.6S_Anadyr
#Location: 177.4865 lon 64.73178 lat
#TLE: 1 27424U 02022A   26026.85810808  .00001813  00000+0  37258-3 0  9999
#TLE: 2 27424  98.4101 353.4861 0001866  64.3332 317.5249 14.61864179262622

#Time	Az	El	Level	Level2	SNR	BER	BlckErr	Temp	State	Recorded	gain1	gain2
2026-01-27 16:36:35.64	20.01	0.12	-48.9	-63.8	3.6	1.51e+00	0	31	0	0	60	56110
2026-01-27 16:36:39.68	20.00	0.37	-49.2	-67.0	3.5	3.02e+01	0	32	104	0	60	86446
2026-01-27 16:36:43.72	19.99	0.62	-49.1	-67.1	3.5	3.02e+01	0	32	104	0	60	87110
2026-01-27 16:36:47.76	19.98	0.88	-49.2	-67.0	3.5	3.02e+01	0	32	104	0	60	86216
2026-01-27 16:36:51.80	19.97	1.13	-49.0	-67.0	3.5	3.02e+01	0	32	104	0	60	86093
2026-01-27 16:36:55.82	19.96	1.39	-48.4	-66.5	3.5	3.02e+01	0	32	104	0	60	81222
2026-01-27 16:36:59.86	19.95	1.65	-48.1	-66.0	3.5	3.02e+01	0	32	104	0	60	76716
2026-01-27 16:37:03.90	19.94	1.92	-47.9	-63.8	3.5	3.02e+01	0	32	104	0	60	59396
2026-01-27 16:37:07.95	19.92	2.19	-47.9	-65.0	3.5	3.02e+01	0	32	104	0	60	68812
2026-01-27 16:37:11.99	19.91	2.46	-47.9	-65.5	3.5	3.02e+01	0	32	104	0	60	72606
2026-01-27 16:37:16.03	19.89	2.73	-47.7	-60.8	3.8	3.02e+01	0	32	104	0	60	42013
2026-01-27 16:37:20.07	19.88	3.01	-47.6	-58.4	6.0	3.02e+01	91	32	0	3145728	60	31895
2026-01-27 16:37:24.11	19.86	3.29	-46.1	-51.4	13.8	3.02e+01	46	32	0	8388608	60	14284
2026-01-27 16:37:28.15	19.85	3.57	-41.3	-43.4	21.8	3.02e+01	58	32	0	15728640	58	6387
2026-01-27 16:37:32.18	19.83	3.85	-41.3	-43.3	21.9	3.02e+01	36	32	0	23068672	56	7105
2026-01-27 16:37:36.22	19.81	4.14	-47.6	-62.5	3.9	3.02e+01	0	32	104	29884416	60	51212
2026-01-27 16:37:40.26	19.79	4.43	-41.5	-43.6	21.6	3.02e+01	56	32	0	34078720	58	6533
2026-01-27 16:37:44.30	19.77	4.73	-39.6	-41.3	23.9	3.02e+01	57	32	0	41418752	54	6300
2026-01-27 16:37:48.34	19.75	5.03	-37.6	-39.1	26.2	3.02e+01	59	32	0	48758784	50	6151
2026-01-27 16:37:52.38	19.73	5.33	-36.9	-38.3	27.0	3.02e+01	58	32	0	56623104	50	5603
2026-01-27 16:37:56.41	19.71	5.64	-37.6	-39.0	26.3	3.02e+01	57	32	0	63963136	48	6838
2026-01-27 16:38:00.44	19.69	5.95	-37.1	-38.5	26.7	3.02e+01	60	32	0	71827456	48	6467
2026-01-27 16:38:04.48	19.66	6.27	-36.8	-38.1	26.8	3.02e+01	58	32	0	79167488	48	6202
2026-01-27 16:38:08.52	19.64	6.59	-36.7	-38.1	27.3	3.02e+01	59	32	0	87031808	48	6139
2026-01-27 16:38:12.56	19.61	6.91	-36.9	-38.2	26.9	3.02e+01	60	32	0	94371840	48	6274
2026-01-27 16:38:16.60	19.58	7.24	-37.0	-38.4	27.3	3.02e+01	63	32	0	102236160	48	6366
2026-01-27 16:38:20.64	19.55	7.57	-36.0	-37.3	28.0	3.02e+01	62	32	0	109576192	48	5612
2026-01-27 16:38:24.68	19.52	7.91	-36.1	-37.3	28.0	3.02e+01	60	32	0	116916224	46	6345
2026-01-27 16:38:28.71	19.49	8.26	-35.9	-37.2	28.2	3.02e+01	60	32	0	124780544	46	6210
2026-01-27 16:38:32.75	19.46	8.61	-35.8	-37.1	28.4	3.02e+01	59	32	0	132120576	46	6151
2026-01-27 16:38:36.79	19.43	8.96	-35.8	-37.0	28.4	3.02e+01	62	32	0	139984896	46	6129
2026-01-27 16:38:40.83	19.39	9.32	-35.6	-36.8	28.6	3.02e+01	62	32	0	147324928	46	5974
2026-01-27 16:38:44.86	19.36	9.69	-35.5	-36.8	28.7	3.02e+01	57	32	0	155189248	46	5945
2026-01-27 16:38:48.90	19.32	10.06	-35.4	-36.6	28.9	3.02e+01	37	32	0	162529280	46	5819
2026-01-27 16:38:52.94	19.28	10.44	-35.3	-36.5	28.8	3.02e+01	56	32	0	169869312	46	5778
2026-01-27 16:38:56.98	19.24	10.82	-35.4	-36.6	28.9	3.02e+01	57	32	0	177733632	46	5831
2026-01-27 16:39:01.01	19.20	11.21	-35.1	-36.3	29.1	3.02e+01	62	32	0	185073664	46	5617
2026-01-27 16:39:05.05	19.15	11.61	-35.2	-36.4	29.1	3.02e+01	57	32	0	192937984	46	5684
2026-01-27 16:39:09.09	19.11	12.02	-35.0	-36.2	28.8	3.02e+01	57	32	0	200278016	44	6213
2026-01-27 16:39:13.12	19.06	12.43	-34.9	-36.1	29.2	3.02e+01	47	32	0	208142336	44	6149
2026-01-27 16:39:17.16	19.01	12.86	-34.8	-36.0	29.3	3.02e+01	58	32	0	215482368	44	6108
2026-01-27 16:39:21.20	18.96	13.29	-34.7	-35.9	29.5	3.02e+01	47	32	0	223346688	44	5999
2026-01-27 16:39:25.23	18.90	13.72	-34.5	-35.7	29.4	3.02e+01	59	32	0	230686720	44	5924
2026-01-27 16:39:29.27	18.85	14.17	-34.6	-35.8	29.2	3.02e+01	45	32	0	238026752	44	5970
2026-01-27 16:39:33.31	18.79	14.63	-34.6	-35.8	29.6	3.02e+01	57	32	0	245891072	44	5979
2026-01-27 16:39:37.35	18.72	15.10	-34.6	-35.7	29.4	3.02e+01	51	32	0	253231104	44	5920
2026-01-27 16:39:41.39	18.66	15.57	-34.5	-35.6	29.5	3.02e+01	58	32	0	261095424	44	5858
2026-01-27 16:39:45.42	18.59	16.06	-34.4	-35.6	29.9	3.02e+01	46	32	0	268435456	44	5803
2026-01-27 16:39:49.46	18.52	16.56	-34.4	-35.6	29.7	3.02e+01	62	32	0	276299776	44	5831
2026-01-27 16:39:53.50	18.45	17.07	-34.5	-35.7	29.8	3.02e+01	50	32	0	283639808	44	5898
2026-01-27 16:39:57.53	18.37	17.59	-34.5	-35.7	29.8	3.02e+01	58	32	0	290979840	44	5859
2026-01-27 16:40:01.57	18.29	18.12	-34.6	-35.8	29.6	3.02e+01	61	32	0	298844160	44	5942
2026-01-27 16:40:05.61	18.21	18.67	-34.8	-36.0	29.6	3.02e+01	60	32	0	306184192	44	6089
2026-01-27 16:40:09.64	18.12	19.23	-34.8	-35.9	29.4	3.02e+01	60	32	0	314048512	44	6064
2026-01-27 16:40:13.68	18.03	19.81	-34.7	-35.8	29.7	3.02e+01	60	32	0	321388544	44	5991
2026-01-27 16:40:17.72	17.93	20.40	-34.7	-35.9	29.7	3.02e+01	58	32	0	329252864	44	6035
2026-01-27 16:40:21.76	17.83	21.00	-34.9	-36.1	29.3	3.02e+01	55	32	0	336592896	44	6197
2026-01-27 16:40:25.80	17.73	21.62	-35.0	-36.2	29.2	3.02e+01	57	32	0	344457216	44	6251
2026-01-27 16:40:29.84	17.62	22.26	-35.0	-36.2	29.4	3.02e+01	62	32	0	351797248	44	6261
2026-01-27 16:40:33.87	17.50	22.92	-35.1	-36.4	29.2	3.02e+01	60	32	0	359137280	44	6356
2026-01-27 16:40:37.91	17.38	23.59	-35.1	-36.3	29.4	3.02e+01	58	32	0	367001600	44	6285
2026-01-27 16:40:41.95	17.25	24.29	-34.9	-36.1	29.6	3.02e+01	58	32	0	374341632	44	6169
2026-01-27 16:40:45.99	17.11	25.00	-35.0	-36.2	29.4	3.02e+01	58	32	0	382205952	44	6224
2026-01-27 16:40:50.02	16.97	25.74	-35.1	-36.3	29.5	3.02e+01	52	32	0	389545984	44	6302
2026-01-27 16:40:54.07	16.81	26.50	-35.0	-36.2	29.5	3.02e+01	59	32	0	397410304	44	6267
2026-01-27 16:40:58.10	16.65	27.28	-34.6	-35.8	29.9	3.02e+01	61	32	0	404750336	44	5967
2026-01-27 16:41:02.14	16.48	28.08	-34.8	-36.0	29.7	3.02e+01	59	32	0	412090368	44	6087
2026-01-27 16:41:06.18	16.30	28.92	-34.6	-35.8	29.9	3.02e+01	59	32	0	419954688	44	5933
2026-01-27 16:41:10.21	16.11	29.78	-34.3	-35.5	30.1	3.02e+01	48	32	0	427294720	44	5731
2026-01-27 16:41:14.25	15.91	30.66	-34.5	-35.6	29.9	3.02e+01	58	32	0	435159040	44	5851
2026-01-27 16:41:18.29	15.69	31.58	-34.4	-35.5	30.0	3.02e+01	58	32	0	442499072	44	5788
2026-01-27 16:41:22.33	15.46	32.53	-34.1	-35.2	30.4	3.02e+01	61	32	0	450363392	44	5578
2026-01-27 16:41:26.37	15.22	33.51	-34.8	-36.0	29.7	3.02e+01	53	32	0	457703424	44	6065
2026-01-27 16:41:30.40	14.96	34.53	-35.1	-36.3	29.5	3.02e+01	60	32	0	465567744	44	6288
2026-01-27 16:41:34.44	14.67	35.58	-35.5	-36.8	29.0	3.02e+01	57	32	0	472907776	44	6657
2026-01-27 16:41:38.48	14.37	36.67	-36.0	-37.2	28.5	3.02e+01	60	32	0	480247808	46	6277
2026-01-27 16:41:42.51	14.05	37.80	-36.5	-37.8	28.2	3.02e+01	51	32	0	488112128	46	6689
2026-01-27 16:41:46.55	13.70	38.96	-36.4	-37.6	28.6	3.02e+01	60	32	0	495452160	46	6552
2026-01-27 16:41:50.58	13.32	40.17	-36.6	-37.9	28.1	3.02e+01	41	32	0	503316480	46	6770
2026-01-27 16:41:54.63	12.91	41.43	-36.2	-37.5	28.5	3.02e+01	62	32	0	510656512	46	6425
2026-01-27 16:41:58.66	12.46	42.73	-35.9	-37.2	28.8	3.02e+01	45	32	0	518520832	46	6217
2026-01-27 16:42:02.70	11.98	44.07	-35.2	-36.4	29.5	3.02e+01	55	32	0	525860864	46	5678
2026-01-27 16:42:06.74	11.45	45.47	-34.9	-36.1	29.6	3.02e+01	45	32	0	533725184	44	6187
2026-01-27 16:42:10.78	10.86	46.92	-34.8	-36.0	29.7	3.02e+01	61	32	0	541065216	44	6074
2026-01-27 16:42:14.81	10.22	48.41	-35.3	-36.5	29.3	3.02e+01	55	32	0	548405248	44	6458
2026-01-27 16:42:18.85	9.51	49.95	-35.1	-36.3	29.4	3.02e+01	63	32	0	556269568	44	6341
2026-01-27 16:42:22.89	8.71	51.55	-34.8	-36.0	29.7	3.02e+01	55	32	0	563609600	44	6109
2026-01-27 16:42:26.93	7.83	53.20	-34.1	-35.3	30.2	3.02e+01	56	32	0	571473920	44	5629
2026-01-27 16:42:30.96	6.83	54.90	-34.2	-35.3	30.3	3.02e+01	59	32	0	578813952	42	6330
2026-01-27 16:42:35.00	5.70	56.65	-34.6	-35.7	29.9	3.02e+01	59	32	0	586678272	42	6643
2026-01-27 16:42:39.04	4.41	58.44	-35.8	-37.0	28.8	3.02e+01	59	32	0	594018304	44	6842
2026-01-27 16:42:43.08	2.93	60.28	-35.9	-37.1	28.7	3.02e+01	62	32	0	601882624	46	6179
2026-01-27 16:42:47.11	1.22	62.15	-36.3	-37.6	28.3	3.02e+01	62	32	0	609222656	46	6518
2026-01-27 16:42:51.15	359.21	64.05	-36.8	-38.1	27.9	3.02e+01	60	32	0	616562688	48	6141
2026-01-27 16:42:55.19	356.84	65.97	-38.1	-39.5	26.7	3.02e+01	59	32	0	624427008	50	6452
2026-01-27 16:42:59.23	354.01	67.89	-39.1	-40.6	25.5	3.02e+01	58	32	0	631767040	52	6533
2026-01-27 16:43:03.27	350.58	69.80	-39.2	-40.8	25.5	3.02e+01	59	32	0	639631360	52	6672
2026-01-27 16:43:07.31	346.38	71.66	-38.1	-39.5	26.6	3.02e+01	55	32	0	646971392	52	5781
2026-01-27 16:43:11.35	341.19	73.44	-38.8	-40.3	25.9	3.02e+01	61	32	0	654835712	52	6307
2026-01-27 16:43:15.38	334.76	75.07	-38.8	-40.3	25.9	3.02e+01	57	32	0	662175744	52	6281
2026-01-27 16:43:19.41	326.78	76.50	-37.1	-38.5	27.5	3.02e+01	60	32	0	670040064	50	5733
2026-01-27 16:43:23.45	317.05	77.64	-37.2	-38.6	27.3	3.02e+01	61	32	0	677380096	48	6544
2026-01-27 16:43:27.48	305.73	78.36	-38.0	-39.3	26.7	3.02e+01	59	32	0	684720128	50	6328
2026-01-27 16:43:31.52	293.38	78.60	-38.4	-39.9	26.4	3.02e+01	62	32	0	692584448	52	6001
2026-01-27 16:43:35.56	281.09	78.30	-37.2	-38.5	27.5	3.02e+01	59	32	0	699924480	48	6486
2026-01-27 16:43:39.59	269.93	77.53	-37.1	-38.4	27.5	3.02e+01	54	32	0	707788800	48	6392
2026-01-27 16:43:43.63	260.39	76.36	-37.6	-38.9	27.2	3.02e+01	61	32	0	715128832	48	6790
2026-01-27 16:43:47.66	252.59	74.90	-38.8	-40.3	25.9	3.02e+01	53	32	0	722993152	52	6300
2026-01-27 16:43:51.70	246.30	73.23	-38.9	-40.4	25.7	3.02e+01	59	32	0	730333184	52	6391
2026-01-27 16:43:55.74	241.23	71.44	-39.1	-40.5	25.5	3.02e+01	54	32	0	738197504	52	6492
2026-01-27 16:43:59.78	237.13	69.57	-40.5	-42.2	23.9	3.02e+01	63	32	0	745537536	54	7021
2026-01-27 16:44:03.81	233.78	67.66	-40.9	-42.6	23.8	3.02e+01	52	32	0	752877568	56	6535
2026-01-27 16:44:07.84	231.01	65.74	-39.3	-40.8	25.5	3.02e+01	58	32	0	760741888	54	5979
2026-01-27 16:44:11.88	228.68	63.82	-37.8	-39.1	26.8	3.02e+01	48	32	0	768081920	50	6201
2026-01-27 16:44:15.92	226.71	61.92	-36.6	-37.9	27.9	3.02e+01	56	32	0	775946240	48	5998
2026-01-27 16:44:19.96	225.02	60.04	-36.4	-37.7	28.1	3.02e+01	48	32	0	783286272	48	5908
2026-01-27 16:44:23.99	223.56	58.21	-36.1	-37.4	28.5	3.02e+01	60	32	0	791150592	48	5661
2026-01-27 16:44:28.03	222.29	56.42	-34.9	-36.1	29.5	3.02e+01	44	32	0	798490624	44	6180
2026-01-27 16:44:32.07	221.18	54.67	-33.8	-35.0	30.6	3.02e+01	61	32	0	805830656	42	6071
2026-01-27 16:44:36.10	220.19	52.97	-33.5	-34.6	30.7	3.02e+01	46	32	0	813694976	42	5848
2026-01-27 16:44:40.14	219.32	51.33	-34.0	-35.2	30.4	3.02e+01	56	32	0	821035008	42	6230
2026-01-27 16:44:44.18	218.53	49.73	-34.1	-35.3	30.3	3.02e+01	57	32	0	828899328	42	6280
2026-01-27 16:44:48.21	217.83	48.19	-34.9	-36.1	29.4	3.02e+01	58	32	0	836239360	44	6197
2026-01-27 16:44:52.25	217.19	46.69	-34.2	-35.4	29.9	3.02e+01	57	32	0	844103680	44	5660
2026-01-27 16:44:56.30	216.61	45.25	-35.1	-36.3	29.4	3.02e+01	56	32	0	851443712	44	6310
2026-01-27 16:45:00.34	216.08	43.85	-35.0	-36.2	29.5	3.02e+01	60	32	0	858783744	44	6257
2026-01-27 16:45:04.37	215.60	42.51	-34.9	-36.1	29.7	3.02e+01	63	32	0	866648064	44	6165
2026-01-27 16:45:08.41	215.16	41.21	-36.0	-37.3	28.6	3.02e+01	58	32	0	873988096	46	6307
2026-01-27 16:45:12.44	214.75	39.96	-36.1	-37.3	28.6	3.02e+01	59	32	0	881852416	46	6332
2026-01-27 16:45:16.48	214.37	38.75	-36.7	-38.0	28.0	3.02e+01	59	32	0	889192448	46	6849
2026-01-27 16:45:20.52	214.03	37.58	-36.2	-37.5	28.4	3.02e+01	57	32	0	897056768	46	6465
2026-01-27 16:45:24.56	213.70	36.46	-36.0	-37.2	28.7	3.02e+01	63	32	0	904396800	46	6252
2026-01-27 16:45:28.60	213.40	35.37	-35.3	-36.5	29.3	3.02e+01	58	32	0	912261120	46	5745
2026-01-27 16:45:32.63	213.12	34.32	-35.2	-36.4	29.4	3.02e+01	63	32	0	919601152	46	5712
2026-01-27 16:45:36.67	212.86	33.30	-34.4	-35.6	29.9	3.02e+01	57	32	0	926941184	44	5825
2026-01-27 16:45:40.71	212.61	32.32	-34.2	-35.3	30.2	3.02e+01	59	32	0	934805504	44	5653
2026-01-27 16:45:44.74	212.39	31.38	-34.3	-35.5	30.1	3.02e+01	57	32	0	942145536	44	5735
2026-01-27 16:45:48.78	212.17	30.46	-34.1	-35.3	30.1	3.02e+01	59	32	0	950009856	44	5600
2026-01-27 16:45:52.82	211.97	29.57	-33.8	-35.0	30.4	3.02e+01	58	32	0	957349888	42	6067
2026-01-27 16:45:56.86	211.78	28.71	-33.9	-35.0	30.3	3.02e+01	63	32	0	965214208	42	6115
2026-01-27 16:46:00.90	211.59	27.88	-34.2	-35.3	30.1	3.02e+01	46	32	0	972554240	42	6331
2026-01-27 16:46:04.93	211.42	27.08	-34.5	-35.7	29.9	3.02e+01	55	32	0	979894272	42	6586
2026-01-27 16:46:08.97	211.26	26.30	-34.8	-36.0	29.6	3.02e+01	58	32	0	987758592	42	6857
2026-01-27 16:46:13.01	211.11	25.54	-34.8	-36.0	29.5	3.02e+01	60	32	0	995098624	44	6119
2026-01-27 16:46:17.05	210.97	24.80	-35.0	-36.2	29.3	3.02e+01	46	32	0	1002962944	44	6274
2026-01-27 16:46:21.08	210.83	24.09	-34.8	-36.0	29.4	3.02e+01	62	32	0	1010302976	44	6128
2026-01-27 16:46:25.12	210.70	23.39	-34.9	-36.1	29.3	3.02e+01	55	32	0	1018167296	44	6168
2026-01-27 16:46:29.16	210.57	22.72	-35.0	-36.2	29.3	3.02e+01	56	32	0	1025507328	44	6267
2026-01-27 16:46:33.19	210.46	22.07	-35.1	-36.3	29.2	3.02e+01	48	32	0	1033371648	44	6325
2026-01-27 16:46:37.23	210.34	21.43	-35.1	-36.3	29.1	3.02e+01	51	32	0	1040711680	44	6338
2026-01-27 16:46:41.27	210.24	20.81	-34.9	-36.1	29.3	3.02e+01	47	32	0	1048051712	44	6152
2026-01-27 16:46:45.32	210.13	20.20	-34.8	-36.0	29.3	3.02e+01	59	32	0	1055916032	44	6132
2026-01-27 16:46:49.36	210.04	19.61	-34.9	-36.0	29.3	3.02e+01	47	32	0	1063256064	44	6130
2026-01-27 16:46:53.40	209.94	19.04	-34.4	-35.6	29.7	3.02e+01	54	32	0	1071120384	44	5840
2026-01-27 16:46:57.43	209.86	18.48	-34.4	-35.6	29.7	3.02e+01	49	32	0	1078460416	44	5834
2026-01-27 16:47:01.47	209.77	17.93	-34.5	-35.7	29.6	3.02e+01	59	32	0	1086324736	44	5901
2026-01-27 16:47:05.51	209.69	17.40	-34.6	-35.8	29.6	3.02e+01	60	32	0	1093664768	44	5942
2026-01-27 16:47:09.55	209.61	16.87	-34.7	-35.9	29.6	3.02e+01	60	32	0	1101529088	44	6003
2026-01-27 16:47:13.59	209.53	16.36	-34.8	-36.0	29.5	3.02e+01	59	32	0	1108869120	44	6069
2026-01-27 16:47:17.62	209.46	15.87	-34.6	-35.8	29.5	3.02e+01	62	32	0	1116209152	44	5987
2026-01-27 16:47:21.66	209.39	15.38	-34.7	-35.9	29.4	3.02e+01	57	32	0	1124073472	44	6051
2026-01-27 16:47:25.69	209.33	14.90	-34.7	-35.9	29.3	3.02e+01	57	32	0	1131413504	44	6047
2026-01-27 16:47:29.73	209.26	14.44	-34.8	-36.0	29.3	3.02e+01	58	32	0	1139277824	44	6071
2026-01-27 16:47:33.77	209.20	13.98	-34.7	-35.9	29.3	3.02e+01	59	32	0	1146617856	44	6057
2026-01-27 16:47:37.81	209.15	13.53	-34.8	-36.0	29.2	3.02e+01	62	32	0	1154482176	44	6123
2026-01-27 16:47:41.85	209.09	13.09	-34.6	-35.8	29.4	3.02e+01	63	32	0	1161822208	44	5983
2026-01-27 16:47:45.88	209.03	12.67	-34.9	-36.1	29.1	3.02e+01	62	32	0	1169162240	44	6164
2026-01-27 16:47:49.92	208.98	12.24	-34.9	-36.1	29.1	3.02e+01	57	32	0	1177026560	44	6163
2026-01-27 16:47:53.96	208.93	11.83	-35.0	-36.3	29.0	3.02e+01	56	32	0	1184366592	44	6282
2026-01-27 16:47:57.99	208.88	11.42	-35.1	-36.4	28.9	3.02e+01	61	32	0	1192230912	44	6373
2026-01-27 16:48:02.03	208.84	11.02	-35.1	-36.3	28.9	3.02e+01	62	32	0	1199570944	44	6341
2026-01-27 16:48:06.07	208.79	10.63	-35.4	-36.6	28.6	3.02e+01	58	32	0	1207435264	44	6542
2026-01-27 16:48:10.11	208.75	10.25	-35.3	-36.6	28.6	3.02e+01	62	32	0	1214775296	44	6524
2026-01-27 16:48:14.14	208.71	9.87	-35.5	-36.7	28.5	3.02e+01	56	32	0	1222639616	44	6644
2026-01-27 16:48:18.19	208.67	9.50	-35.4	-36.6	28.6	3.02e+01	58	32	0	1229979648	44	6559
2026-01-27 16:48:22.22	208.63	9.13	-35.4	-36.6	28.5	3.02e+01	53	32	0	1237319680	44	6564
2026-01-27 16:48:26.26	208.59	8.77	-35.4	-36.7	28.6	3.02e+01	56	32	0	1245184000	44	6580
2026-01-27 16:48:30.30	208.55	8.42	-35.4	-36.6	28.5	3.02e+01	46	32	0	1252524032	44	6530
2026-01-27 16:48:34.34	208.52	8.07	-35.6	-36.9	28.2	3.02e+01	57	32	0	1260388352	44	6734
2026-01-27 16:48:38.38	208.49	7.72	-35.6	-36.9	28.2	3.02e+01	56	32	0	1267728384	44	6763
2026-01-27 16:48:42.41	208.45	7.39	-35.7	-37.0	28.1	3.02e+01	57	32	0	1275592704	44	6835
2026-01-27 16:48:46.45	208.42	7.05	-35.9	-37.2	28.0	3.02e+01	48	32	0	1282932736	44	6969
2026-01-27 16:48:50.49	208.39	6.72	-35.9	-37.2	28.0	3.02e+01	60	32	0	1290272768	46	6233
2026-01-27 16:48:54.52	208.36	6.40	-36.0	-37.3	27.9	3.02e+01	45	32	0	1298137088	46	6290
2026-01-27 16:48:58.56	208.34	6.08	-36.2	-37.5	27.6	3.02e+01	58	32	0	1305477120	46	6440
2026-01-27 16:49:02.60	208.31	5.76	-36.4	-37.7	27.3	3.02e+01	47	32	0	1313341440	46	6648
2026-01-27 16:49:06.63	208.28	5.45	-36.5	-37.8	27.1	3.02e+01	61	32	0	1320681472	46	6682
2026-01-27 16:49:10.67	208.26	5.14	-36.5	-37.9	27.1	3.02e+01	44	32	0	1328545792	46	6754
2026-01-27 16:49:14.70	208.23	4.84	-36.5	-37.8	27.1	3.02e+01	60	32	0	1335885824	46	6725
2026-01-27 16:49:18.74	208.21	4.54	-37.2	-38.6	26.3	3.02e+01	45	33	0	1343750144	48	6567
2026-01-27 16:49:22.78	208.18	4.25	-36.7	-38.0	26.7	3.02e+01	61	32	0	1351090176	48	6130
2026-01-27 16:49:26.82	208.16	3.95	-37.3	-38.7	26.1	3.02e+01	53	32	0	1358430208	48	6627
2026-01-27 16:49:30.86	208.14	3.66	-37.2	-38.6	26.2	3.02e+01	58	32	0	1366294528	48	6570
2026-01-27 16:49:34.89	208.12	3.38	-37.5	-38.9	25.6	3.02e+01	57	32	0	1373634560	48	6796
2026-01-27 16:49:38.93	208.10	3.10	-37.7	-39.2	25.5	3.02e+01	59	32	0	1381498880	50	6241
2026-01-27 16:49:42.97	208.08	2.82	-48.4	-66.3	3.5	3.02e+01	0	32	104	1384120320	60	79726
2026-01-27 16:49:47.01	208.06	2.54	-48.9	-66.7	3.5	3.02e+01	0	33	104	1384120320	60	82917
2026-01-27 16:49:51.05	208.04	2.27	-49.0	-66.9	3.5	3.02e+01	0	33	104	1384120320	60	84682
2026-01-27 16:49:55.09	208.03	2.00	-48.9	-66.8	3.5	3.02e+01	0	33	104	1384120320	60	84510
2026-01-27 16:49:59.13	208.01	1.73	-48.8	-66.8	3.5	3.02e+01	0	33	104	1384120320	60	84035
2026-01-27 16:50:03.17	207.99	1.47	-48.7	-66.7	3.5	3.02e+01	0	33	104	1384120320	60	82787
2026-01-27 16:50:07.21	207.98	1.20	-48.9	-66.8	3.5	3.02e+01	0	33	104	1384120320	60	83838
2026-01-27 16:50:11.25	207.96	0.94	-48.9	-66.7	3.5	3.02e+01	0	33	104	1384120320	60	83365
2026-01-27 16:50:15.30	207.95	0.69	-48.8	-66.7	3.5	3.02e+01	0	33	104	1384120320	60	83167
2026-01-27 16:50:19.33	207.93	0.43	-48.8	-66.7	3.5	3.02e+01	0	33	104	1384120320	60	82777
2026-01-27 16:50:23.37	207.92	0.18	-48.8	-66.6	3.5	3.02e+01	0	33	104	1384120320	60	82701
2026-01-27 16:50:27.41	207.91	-0.07	-48.8	-66.7	3.5	3.02e+01	0	33	104	1384120320	60	83174

#Closed at: 2026-01-27 16:50:28
#Recorded file [1384 MB]: D:/lorett/data/35029_260128_043635.dat