passes_logs/2026/01/27/R4.6S_Anadyr/R4.6S_Anadyr__20260127_031121_FENGYUN_3D_rec.log

#Pass ID: 20260127_031121_FENGYUN 3D
#Satellite: FENGYUN 3D
#Configuration: FENGYUN 3D
#almurnet v.1.7.20251203
#Start time: 2026-01-27 03:11:24

#Version: 2.2.20231116
#Station: R4.6S_Anadyr
#Location: 177.4865 lon 64.73178 lat
#TLE: 1 43010U 17072A   26026.49129444  .00000151  00000+0  93391-4 0  9993
#TLE: 2 43010  98.9962 358.4866 0002525  88.1664 271.9801 14.19700337424889

#Time	Az	El	Level	Level2	SNR	BER	BlckErr	Temp	State	Recorded	gain1	gain2
2026-01-27 03:11:24.19	179.08	0.18	-48.9	-59.6	3.3	8.40e-01	0	28	0	0	60	34559
2026-01-27 03:11:28.22	179.20	0.41	-49.0	-61.1	3.6	8.45e-01	0	28	104	0	60	41132
2026-01-27 03:11:32.26	179.33	0.65	-49.0	-61.2	3.6	8.46e-01	0	28	104	0	60	41623
2026-01-27 03:11:36.29	179.46	0.90	-48.9	-61.1	3.6	8.45e-01	0	28	104	0	60	41192
2026-01-27 03:11:40.33	179.59	1.14	-48.8	-60.9	3.6	8.45e-01	0	28	104	0	60	40015
2026-01-27 03:11:44.37	179.73	1.38	-48.3	-60.4	3.6	8.45e-01	0	29	104	0	60	37694
2026-01-27 03:11:48.41	179.86	1.63	-47.7	-59.7	3.6	8.47e-01	0	29	104	0	60	34741
2026-01-27 03:11:52.45	180.00	1.88	-47.7	-59.7	3.6	8.46e-01	0	29	104	0	60	34910
2026-01-27 03:11:56.49	180.14	2.13	-47.7	-59.7	3.6	8.46e-01	0	29	104	0	60	34974
2026-01-27 03:12:00.53	180.28	2.39	-47.7	-59.1	3.6	8.46e-01	0	29	104	0	60	32665
2026-01-27 03:12:04.57	180.43	2.64	-47.6	-57.9	3.6	8.42e-01	0	29	104	0	60	28268
2026-01-27 03:12:08.61	180.58	2.90	-45.8	-49.6	8.8	2.20e-01	0	29	0	3145728	60	10855
2026-01-27 03:12:12.65	180.73	3.16	-38.8	-39.8	18.9	0.00e+00	0	29	0	25165824	50	6269
2026-01-27 03:12:16.69	180.88	3.42	-36.3	-37.2	21.5	0.00e+00	0	29	0	48234496	46	5835
2026-01-27 03:12:20.74	181.03	3.69	-43.0	-45.0	10.0	1.10e-06	0	29	0	71303168	54	9104
2026-01-27 03:12:24.78	181.19	3.96	-39.8	-40.9	18.5	4.54e-04	0	29	0	92274688	54	5665
2026-01-27 03:12:28.82	181.35	4.23	-37.8	-38.7	20.4	0.00e+00	0	29	0	114294784	48	6237
2026-01-27 03:12:32.87	181.51	4.50	-36.4	-37.2	21.7	0.00e+00	0	29	0	137363456	46	5868
2026-01-27 03:12:36.91	181.68	4.77	-36.7	-37.6	21.4	0.00e+00	0	29	0	160432128	46	6115
2026-01-27 03:12:40.95	181.85	5.05	-36.3	-37.1	21.8	0.00e+00	0	29	0	182452224	46	5785
2026-01-27 03:12:44.99	182.02	5.33	-36.8	-37.7	21.6	0.00e+00	0	29	0	205520896	46	6176
2026-01-27 03:12:49.03	182.19	5.62	-36.0	-36.8	22.3	0.00e+00	0	29	0	228589568	44	6275
2026-01-27 03:12:53.07	182.37	5.90	-35.1	-35.8	23.2	0.00e+00	0	29	0	250609664	44	5609
2026-01-27 03:12:57.11	182.55	6.19	-35.1	-35.8	23.3	0.00e+00	0	29	0	273678336	42	6282
2026-01-27 03:13:01.15	182.73	6.48	-34.9	-35.7	23.3	0.00e+00	0	29	0	296747008	42	6182
2026-01-27 03:13:05.19	182.92	6.78	-35.0	-35.8	23.3	0.00e+00	0	29	0	318767104	42	6247
2026-01-27 03:13:09.23	183.11	7.08	-35.1	-35.8	23.4	0.00e+00	0	29	0	341835776	42	6279
2026-01-27 03:13:13.27	183.31	7.38	-34.3	-35.0	24.2	0.00e+00	0	29	0	364904448	42	5728
2026-01-27 03:13:17.31	183.51	7.69	-33.9	-34.6	24.6	0.00e+00	0	29	0	386924544	40	6123
2026-01-27 03:13:21.36	183.71	8.00	-34.0	-34.7	24.5	0.00e+00	0	29	0	409993216	40	6177
2026-01-27 03:13:25.39	183.92	8.31	-33.9	-34.6	24.5	0.00e+00	0	29	0	433061888	40	6120
2026-01-27 03:13:29.44	184.13	8.62	-33.9	-34.6	24.6	0.00e+00	0	29	0	455081984	40	6159
2026-01-27 03:13:33.47	184.34	8.94	-33.9	-34.6	24.7	0.00e+00	0	29	0	478150656	40	6107
2026-01-27 03:13:37.51	184.56	9.27	-33.6	-34.3	24.9	0.00e+00	0	29	0	501219328	40	5943
2026-01-27 03:13:41.55	184.79	9.59	-33.4	-34.0	25.0	0.00e+00	0	29	0	524288000	40	5756
2026-01-27 03:13:45.60	185.02	9.93	-33.4	-34.0	25.1	0.00e+00	0	29	0	546308096	40	5758
2026-01-27 03:13:49.64	185.25	10.26	-33.4	-34.0	25.1	0.00e+00	0	29	0	569376768	40	5756
2026-01-27 03:13:53.68	185.49	10.60	-33.2	-33.9	25.3	0.00e+00	0	29	0	591396864	40	5642
2026-01-27 03:13:57.72	185.73	10.95	-33.2	-33.8	25.3	0.00e+00	0	29	0	614465536	40	5610
2026-01-27 03:14:01.76	185.98	11.30	-33.1	-33.8	25.4	0.00e+00	0	29	0	637534208	40	5582
2026-01-27 03:14:05.80	186.24	11.65	-33.4	-34.1	25.2	0.00e+00	0	29	0	660602880	40	5762
2026-01-27 03:14:09.83	186.50	12.01	-33.2	-33.9	25.3	0.00e+00	0	29	0	682622976	40	5637
2026-01-27 03:14:13.87	186.77	12.37	-33.2	-33.8	25.4	0.00e+00	0	29	0	705691648	40	5624
2026-01-27 03:14:17.91	187.04	12.74	-32.9	-33.6	25.6	0.00e+00	0	29	0	728760320	40	5447
2026-01-27 03:14:21.96	187.32	13.11	-33.0	-33.6	25.6	0.00e+00	0	30	0	750780416	40	5491
2026-01-27 03:14:26.00	187.61	13.49	-33.1	-33.8	25.5	0.00e+00	0	29	0	773849088	40	5581
2026-01-27 03:14:30.04	187.91	13.87	-33.0	-33.7	25.6	0.00e+00	0	29	0	795869184	40	5509
2026-01-27 03:14:34.08	188.21	14.26	-32.7	-33.3	26.0	0.00e+00	0	29	0	818937856	38	5964
2026-01-27 03:14:38.12	188.52	14.65	-32.6	-33.2	26.0	0.00e+00	0	29	0	842006528	38	5890
2026-01-27 03:14:42.16	188.84	15.05	-32.3	-32.9	26.3	0.00e+00	0	29	0	865075200	38	5691
2026-01-27 03:14:46.20	189.16	15.46	-32.1	-32.8	26.4	0.00e+00	0	29	0	887095296	38	5592
2026-01-27 03:14:50.24	189.50	15.87	-31.8	-32.4	26.7	0.00e+00	0	29	0	910163968	38	5376
2026-01-27 03:14:54.28	189.84	16.29	-31.7	-32.3	26.9	0.00e+00	0	29	0	933232640	36	5903
2026-01-27 03:14:58.32	190.19	16.72	-31.4	-32.0	27.1	0.00e+00	0	29	0	955252736	36	5728
2026-01-27 03:15:02.36	190.55	17.15	-31.5	-32.1	26.9	0.00e+00	0	29	0	978321408	36	5797
2026-01-27 03:15:06.41	190.93	17.58	-31.3	-31.9	27.2	0.00e+00	0	29	0	1001390080	36	5666
2026-01-27 03:15:10.45	191.31	18.03	-31.3	-31.9	27.1	0.00e+00	0	29	0	1023410176	36	5686
2026-01-27 03:15:14.49	191.70	18.48	-31.3	-31.9	27.2	0.00e+00	0	29	0	1046478848	36	5655
2026-01-27 03:15:18.53	192.11	18.94	-31.1	-31.7	27.4	0.00e+00	0	29	0	1069547520	36	5515
2026-01-27 03:15:22.58	192.53	19.41	-30.9	-31.5	27.5	0.00e+00	0	30	0	1091567616	36	5433
2026-01-27 03:15:26.62	192.96	19.88	-30.9	-31.5	27.5	0.00e+00	0	29	0	1114636288	36	5439
2026-01-27 03:15:30.66	193.40	20.36	-31.0	-31.6	27.3	0.00e+00	0	30	0	1137704960	36	5489
2026-01-27 03:15:34.70	193.86	20.85	-30.7	-31.3	27.7	0.00e+00	0	29	0	1160773632	34	5924
2026-01-27 03:15:38.74	194.33	21.35	-30.4	-31.0	27.9	0.00e+00	0	30	0	1182793728	34	5724
2026-01-27 03:15:42.78	194.82	21.85	-30.5	-31.1	27.8	0.00e+00	0	30	0	1205862400	34	5827
2026-01-27 03:15:46.82	195.32	22.36	-30.3	-30.9	27.9	0.00e+00	0	29	0	1227882496	34	5687
2026-01-27 03:15:50.86	195.84	22.88	-30.2	-30.8	28.0	0.00e+00	0	29	0	1250951168	34	5585
2026-01-27 03:15:54.90	196.37	23.41	-30.2	-30.8	28.0	0.00e+00	0	29	0	1274019840	34	5599
2026-01-27 03:15:58.94	196.92	23.95	-30.2	-30.8	28.1	0.00e+00	0	29	0	1296039936	34	5606
2026-01-27 03:16:02.99	197.50	24.50	-30.3	-30.9	28.0	0.00e+00	0	30	0	1319108608	34	5661
2026-01-27 03:16:07.03	198.09	25.05	-29.7	-30.3	28.4	0.00e+00	0	30	0	1342177280	34	5308
2026-01-27 03:16:11.07	198.70	25.61	-29.8	-30.4	28.3	0.00e+00	0	30	0	1365245952	32	5968
2026-01-27 03:16:15.11	199.33	26.19	-30.1	-30.7	28.1	0.00e+00	0	30	0	1387266048	32	6231
2026-01-27 03:16:19.15	199.99	26.77	-29.8	-30.4	28.4	0.00e+00	0	30	0	1410334720	32	5978
2026-01-27 03:16:23.19	200.67	27.35	-29.7	-30.3	28.4	0.00e+00	0	29	0	1432354816	32	5952
2026-01-27 03:16:27.24	201.38	27.95	-29.7	-30.3	28.4	0.00e+00	0	30	0	1455423488	32	5915
2026-01-27 03:16:31.27	202.11	28.56	-29.8	-30.4	28.3	0.00e+00	0	30	0	1478492160	32	5985
2026-01-27 03:16:35.31	202.87	29.17	-29.6	-30.2	28.5	0.00e+00	0	29	0	1501560832	32	5877
2026-01-27 03:16:39.35	203.66	29.79	-29.8	-30.4	28.4	0.00e+00	0	29	0	1523580928	32	5992
2026-01-27 03:16:43.39	204.48	30.42	-29.7	-30.4	28.2	0.00e+00	0	30	0	1546649600	32	5978
2026-01-27 03:16:47.43	205.33	31.06	-29.7	-30.3	28.4	0.00e+00	0	30	0	1569718272	32	5959
2026-01-27 03:16:51.46	206.21	31.70	-29.3	-29.9	28.7	0.00e+00	0	30	0	1591738368	32	5676
2026-01-27 03:16:55.50	207.13	32.36	-29.5	-30.1	28.6	0.00e+00	0	30	0	1614807040	32	5784
2026-01-27 03:16:59.54	208.09	33.01	-29.7	-30.3	28.4	0.00e+00	0	30	0	1636827136	32	5922
2026-01-27 03:17:03.58	209.08	33.68	-29.4	-30.0	28.6	0.00e+00	0	30	0	1659895808	32	5709
2026-01-27 03:17:07.61	210.12	34.34	-29.5	-30.1	28.6	0.00e+00	0	30	0	1682964480	32	5769
2026-01-27 03:17:11.65	211.19	35.01	-29.5	-30.1	28.5	0.00e+00	0	30	0	1706033152	32	5828
2026-01-27 03:17:15.69	212.32	35.69	-29.3	-29.8	28.8	0.00e+00	0	30	0	1728053248	32	5614
2026-01-27 03:17:19.73	213.49	36.36	-29.5	-30.1	28.6	0.00e+00	0	30	0	1751121920	32	5796
2026-01-27 03:17:23.77	214.71	37.04	-29.4	-30.0	28.7	0.00e+00	0	30	0	1774190592	32	5747
2026-01-27 03:17:27.80	215.97	37.71	-29.3	-30.0	28.7	0.00e+00	0	30	0	1796210688	32	5703
2026-01-27 03:17:31.84	217.29	38.38	-29.0	-29.6	28.9	0.00e+00	0	30	0	1819279360	32	5475
2026-01-27 03:17:35.88	218.67	39.05	-29.3	-29.8	28.8	0.00e+00	0	30	0	1841299456	32	5624
2026-01-27 03:17:39.92	220.10	39.72	-29.4	-30.0	28.7	0.00e+00	0	30	0	1864368128	32	5720
2026-01-27 03:17:43.96	221.59	40.37	-29.2	-29.8	28.7	0.00e+00	0	30	0	1887436800	32	5568
2026-01-27 03:17:48.01	223.15	41.02	-29.4	-30.0	28.6	0.00e+00	0	30	0	1910505472	32	5748
2026-01-27 03:17:52.05	224.76	41.65	-29.2	-29.8	28.8	0.00e+00	0	30	0	1932525568	32	5606
2026-01-27 03:17:56.09	226.44	42.26	-29.4	-29.9	28.7	0.00e+00	0	30	0	1955594240	32	5686
2026-01-27 03:18:00.13	228.17	42.86	-29.5	-30.1	28.6	0.00e+00	0	30	0	1978662912	32	5767
2026-01-27 03:18:04.17	229.98	43.44	-29.5	-30.1	28.6	0.00e+00	0	30	0	2000683008	32	5783
2026-01-27 03:18:08.21	231.84	43.99	-29.9	-30.5	28.4	0.00e+00	0	30	0	2023751680	32	6056
2026-01-27 03:18:12.25	233.77	44.52	-29.5	-30.0	28.6	0.00e+00	0	30	0	2046820352	32	5746
2026-01-27 03:18:16.29	235.77	45.02	-29.6	-30.2	28.6	0.00e+00	0	30	0	2068840448	32	5848
2026-01-27 03:18:20.33	237.82	45.48	-30.0	-30.7	28.3	0.00e+00	0	30	0	2091909120	32	6178
2026-01-27 03:18:24.37	239.93	45.91	-29.6	-30.3	28.5	0.00e+00	0	30	0	2114977792	32	5900
2026-01-27 03:18:28.41	242.10	46.30	-29.9	-30.5	28.4	0.00e+00	0	30	0	2136997888	32	6050
2026-01-27 03:18:32.46	244.32	46.65	-29.9	-30.5	28.2	0.00e+00	0	30	0	2160066560	32	6043
2026-01-27 03:18:36.49	246.58	46.96	-29.8	-30.4	28.4	0.00e+00	0	30	0	2183135232	32	5966
2026-01-27 03:18:40.54	248.89	47.21	-29.4	-30.0	28.6	0.00e+00	0	30	0	2205155328	32	5731
2026-01-27 03:18:44.57	251.22	47.42	-30.0	-30.6	28.2	0.00e+00	0	30	0	2228224000	32	6120
2026-01-27 03:18:48.61	253.58	47.58	-30.0	-30.6	28.1	0.00e+00	0	30	0	2251292672	32	6165
2026-01-27 03:18:52.65	255.97	47.69	-29.2	-29.8	28.8	0.00e+00	0	30	0	2273312768	32	5622
2026-01-27 03:18:56.70	258.37	47.74	-29.6	-30.2	28.5	0.00e+00	0	30	0	2296381440	32	5854
2026-01-27 03:19:00.74	260.77	47.74	-29.6	-30.2	28.5	0.00e+00	0	30	0	2319450112	32	5847
2026-01-27 03:19:04.79	263.17	47.68	-29.5	-30.1	28.4	0.00e+00	0	30	0	2341470208	32	5794
2026-01-27 03:19:08.83	265.56	47.58	-29.8	-30.3	28.4	0.00e+00	0	30	0	2364538880	32	5919
2026-01-27 03:19:12.87	267.92	47.42	-29.8	-30.4	28.4	0.00e+00	0	30	0	2387607552	32	5987
2026-01-27 03:19:16.91	270.25	47.21	-29.7	-30.2	28.5	0.00e+00	0	30	0	2410676224	32	5896
2026-01-27 03:19:20.95	272.55	46.95	-29.7	-30.3	28.5	0.00e+00	0	30	0	2432696320	32	5923
2026-01-27 03:19:24.99	274.81	46.65	-29.9	-30.6	28.3	0.00e+00	0	30	0	2455764992	32	6142
2026-01-27 03:19:29.03	277.03	46.30	-29.9	-30.5	28.3	0.00e+00	0	30	0	2477785088	32	6071
2026-01-27 03:19:33.08	279.20	45.91	-30.0	-30.6	28.2	0.00e+00	0	30	0	2500853760	32	6134
2026-01-27 03:19:37.11	281.30	45.48	-29.9	-30.4	28.4	0.00e+00	0	30	0	2523922432	32	6005
2026-01-27 03:19:41.15	283.35	45.02	-29.5	-30.1	28.6	0.00e+00	0	30	0	2546991104	32	5800
2026-01-27 03:19:45.19	285.33	44.52	-29.6	-30.1	28.6	0.00e+00	0	30	0	2569011200	32	5823
2026-01-27 03:19:49.23	287.26	43.99	-30.3	-30.9	27.9	0.00e+00	0	30	0	2592079872	32	6331
2026-01-27 03:19:53.26	289.12	43.44	-30.1	-30.7	28.2	0.00e+00	0	30	0	2615148544	32	6179
2026-01-27 03:19:57.30	290.92	42.87	-29.6	-30.3	28.4	0.00e+00	0	30	0	2637168640	32	5927
2026-01-27 03:20:01.34	292.65	42.27	-29.9	-30.4	28.3	0.00e+00	0	30	0	2660237312	32	6000
2026-01-27 03:20:05.38	294.32	41.66	-29.6	-30.1	28.6	0.00e+00	0	30	0	2682257408	32	5808
2026-01-27 03:20:09.42	295.93	41.03	-29.4	-30.1	28.7	0.00e+00	0	30	0	2705326080	32	5772
2026-01-27 03:20:13.46	297.48	40.39	-29.4	-29.9	28.5	0.00e+00	0	30	0	2728394752	32	5656
2026-01-27 03:20:17.50	298.97	39.73	-29.5	-30.2	28.6	0.00e+00	0	30	0	2751463424	32	5846
2026-01-27 03:20:21.54	300.39	39.07	-29.2	-29.9	28.8	0.00e+00	0	30	0	2773483520	32	5652
2026-01-27 03:20:25.58	301.77	38.41	-29.3	-30.0	28.7	0.00e+00	0	30	0	2796552192	32	5706
2026-01-27 03:20:29.62	303.09	37.74	-29.3	-29.9	28.6	0.00e+00	0	30	0	2819620864	32	5692
2026-01-27 03:20:33.66	304.35	37.07	-29.4	-30.0	28.2	0.00e+00	0	30	0	2841640960	32	5744
2026-01-27 03:20:37.70	305.57	36.39	-29.4	-30.0	28.3	0.00e+00	0	30	0	2864709632	32	5708
2026-01-27 03:20:41.75	306.74	35.72	-29.5	-30.2	28.5	0.00e+00	0	30	0	2886729728	32	5837
2026-01-27 03:20:45.79	307.86	35.05	-29.5	-30.0	28.6	0.00e+00	0	30	0	2909798400	32	5750
2026-01-27 03:20:49.82	308.93	34.38	-29.5	-30.2	28.5	0.00e+00	0	30	0	2932867072	32	5832
2026-01-27 03:20:53.86	309.97	33.72	-29.4	-30.0	28.6	0.00e+00	0	30	0	2955935744	32	5703
2026-01-27 03:20:57.91	310.96	33.06	-29.3	-29.8	28.6	0.00e+00	0	30	0	2977955840	32	5615
2026-01-27 03:21:01.95	311.92	32.41	-29.8	-30.3	28.2	0.00e+00	0	30	0	3001024512	32	5940
2026-01-27 03:21:05.99	312.83	31.76	-29.7	-30.4	28.4	0.00e+00	0	30	0	3023044608	32	6003
2026-01-27 03:21:10.03	313.72	31.12	-29.7	-30.2	28.4	0.00e+00	0	30	0	3046113280	32	5886
2026-01-27 03:21:14.07	314.57	30.48	-29.9	-30.6	28.3	0.00e+00	0	30	0	3069181952	32	6142
2026-01-27 03:21:18.12	315.39	29.85	-29.7	-30.2	28.4	0.00e+00	0	30	0	3092250624	32	5895
2026-01-27 03:21:22.16	316.17	29.23	-29.6	-30.2	28.5	0.00e+00	0	30	0	3114270720	32	5869
2026-01-27 03:21:26.20	316.93	28.62	-29.9	-30.5	28.2	0.00e+00	0	30	0	3137339392	32	6037
2026-01-27 03:21:30.25	317.66	28.02	-30.0	-30.7	28.1	0.00e+00	0	30	0	3160408064	32	6188
2026-01-27 03:21:34.29	318.37	27.43	-30.1	-30.8	28.1	0.00e+00	0	30	0	3182428160	32	6281
2026-01-27 03:21:38.33	319.05	26.84	-29.8	-30.4	28.2	0.00e+00	0	30	0	3205496832	32	5997
2026-01-27 03:21:42.37	319.71	26.26	-30.2	-30.7	28.0	0.00e+00	0	30	0	3228565504	32	6203
2026-01-27 03:21:46.41	320.34	25.69	-30.2	-30.9	27.9	0.00e+00	0	30	0	3251634176	32	6339
2026-01-27 03:21:50.45	320.95	25.13	-30.2	-30.7	28.0	0.00e+00	0	30	0	3273654272	32	6235
2026-01-27 03:21:54.49	321.54	24.58	-30.2	-30.7	28.0	0.00e+00	0	30	0	3296722944	32	6219
2026-01-27 03:21:58.54	322.12	24.04	-30.3	-30.9	28.0	0.00e+00	0	30	0	3318743040	32	6361
2026-01-27 03:22:02.58	322.67	23.50	-30.2	-30.8	28.0	0.00e+00	0	30	0	3341811712	32	6317
2026-01-27 03:22:06.62	323.20	22.98	-30.6	-31.3	27.7	0.00e+00	0	30	0	3364880384	32	6660
2026-01-27 03:22:10.66	323.72	22.46	-31.2	-31.9	27.2	0.00e+00	0	30	0	3387949056	34	6369
2026-01-27 03:22:14.70	324.22	21.95	-31.2	-31.7	27.2	0.00e+00	0	30	0	3409969152	34	6245
2026-01-27 03:22:18.74	324.71	21.45	-30.9	-31.6	27.4	0.00e+00	0	30	0	3433037824	34	6140
2026-01-27 03:22:22.78	325.18	20.95	-30.8	-31.3	27.5	0.00e+00	0	30	0	3456106496	34	5956
2026-01-27 03:22:26.81	325.64	20.47	-31.0	-31.5	27.4	0.00e+00	0	30	0	3478126592	34	6097
2026-01-27 03:22:30.86	326.08	19.99	-31.2	-31.7	27.2	0.00e+00	0	30	0	3501195264	34	6239
2026-01-27 03:22:34.89	326.51	19.52	-31.4	-32.0	27.0	0.00e+00	0	30	0	3523215360	34	6410
2026-01-27 03:22:38.94	326.93	19.05	-31.4	-32.0	26.9	0.00e+00	0	30	0	3546284032	34	6415
2026-01-27 03:22:42.98	327.34	18.60	-31.7	-32.2	26.8	0.00e+00	0	30	0	3569352704	34	6590
2026-01-27 03:22:47.02	327.74	18.15	-32.1	-32.6	26.5	0.00e+00	0	30	0	3592421376	36	6160
2026-01-27 03:22:51.06	328.12	17.71	-32.2	-32.8	26.3	0.00e+00	0	30	0	3614441472	36	6303
2026-01-27 03:22:55.10	328.49	17.27	-32.1	-32.8	26.4	0.00e+00	0	30	0	3637510144	36	6264
2026-01-27 03:22:59.14	328.86	16.84	-31.9	-32.6	26.5	0.00e+00	0	30	0	3660578816	36	6166
2026-01-27 03:23:03.18	329.21	16.42	-32.0	-32.7	26.5	0.00e+00	0	30	0	3682598912	36	6237
2026-01-27 03:23:07.21	329.56	16.00	-32.3	-32.8	26.3	0.00e+00	0	30	0	3705667584	36	6305
2026-01-27 03:23:11.25	329.89	15.59	-32.6	-33.1	26.0	0.00e+00	0	30	0	3728736256	36	6531
2026-01-27 03:23:15.29	330.22	15.19	-32.7	-33.3	25.9	0.00e+00	0	30	0	3750756352	38	5919
2026-01-27 03:23:19.34	330.54	14.79	-32.9	-33.5	25.6	0.00e+00	0	30	0	3773825024	38	6089
2026-01-27 03:23:23.37	330.85	14.40	-32.8	-33.6	25.8	0.00e+00	0	30	0	3796893696	38	6112
2026-01-27 03:23:27.42	331.16	14.01	-33.1	-33.9	25.4	0.00e+00	0	30	0	3818913792	38	6321
2026-01-27 03:23:31.45	331.45	13.63	-33.1	-33.6	25.5	0.00e+00	0	30	0	3841982464	38	6156
2026-01-27 03:23:35.50	331.74	13.25	-33.3	-33.9	25.2	0.00e+00	0	30	0	3865051136	38	6385
2026-01-27 03:23:39.54	332.03	12.88	-33.4	-34.0	25.2	0.00e+00	0	30	0	3887071232	38	6401
2026-01-27 03:23:43.58	332.30	12.52	-33.4	-34.0	25.1	0.00e+00	0	30	0	3910139904	38	6438
2026-01-27 03:23:47.62	332.57	12.15	-33.4	-34.2	25.1	0.00e+00	0	30	0	3933208576	38	6567
2026-01-27 03:23:51.66	332.84	11.80	-33.6	-34.2	25.0	0.00e+00	0	30	0	3955228672	38	6566
2026-01-27 03:23:55.70	333.09	11.45	-33.6	-34.2	25.0	0.00e+00	0	30	0	3978297344	38	6571
2026-01-27 03:23:59.74	333.35	11.10	-34.2	-34.8	24.4	0.00e+00	0	30	0	4001366016	40	6296
2026-01-27 03:24:03.78	333.59	10.76	-33.9	-34.5	24.6	0.00e+00	0	30	0	4023386112	40	6092
2026-01-27 03:24:07.81	333.84	10.42	-34.2	-35.0	24.3	0.00e+00	0	30	0	4046454784	40	6440
2026-01-27 03:24:11.85	334.07	10.08	-34.3	-34.9	24.3	0.00e+00	0	30	0	4069523456	40	6350
2026-01-27 03:24:15.89	334.30	9.75	-34.4	-35.1	24.1	0.00e+00	0	30	0	4091543552	40	6466
2026-01-27 03:24:19.93	334.53	9.43	-34.3	-34.9	24.2	0.00e+00	0	30	0	4114612224	40	6354
2026-01-27 03:24:23.98	334.75	9.10	-35.0	-35.8	23.6	0.00e+00	0	30	0	4137680896	42	6285
2026-01-27 03:24:28.02	334.97	8.79	-34.6	-35.2	23.8	0.00e+00	0	30	0	4159700992	42	5896
2026-01-27 03:24:32.06	335.19	8.47	-34.5	-35.1	24.0	0.00e+00	0	30	0	4182769664	42	5821
2026-01-27 03:24:36.10	335.40	8.16	-34.4	-35.1	24.1	0.00e+00	0	30	0	4205838336	42	5821
2026-01-27 03:24:40.13	335.60	7.85	-34.4	-35.0	23.9	0.00e+00	0	30	0	4227858432	42	5749
2026-01-27 03:24:44.17	335.80	7.55	-34.5	-35.2	23.9	0.00e+00	0	30	0	4250927104	42	5890
2026-01-27 03:24:48.21	336.00	7.25	-34.6	-35.3	23.6	0.00e+00	0	30	0	4273995776	42	5922
2026-01-27 03:24:52.25	336.20	6.95	-34.8	-35.5	23.4	0.00e+00	0	30	0	4296015872	42	6038
2026-01-27 03:24:56.28	336.39	6.66	-34.6	-35.2	23.5	0.00e+00	0	30	0	4319084544	42	5888
2026-01-27 03:25:00.33	336.57	6.37	-34.5	-35.2	23.6	0.00e+00	0	30	0	4342153216	42	5845
2026-01-27 03:25:04.36	336.76	6.08	-34.9	-35.7	23.0	0.00e+00	0	30	0	4364173312	42	6199
2026-01-27 03:25:08.41	336.94	5.79	-35.6	-36.3	21.9	0.00e+00	0	30	0	4387241984	42	6647
2026-01-27 03:25:12.45	337.12	5.51	-36.5	-37.4	20.6	0.00e+00	0	30	0	4410310656	44	6694
2026-01-27 03:25:16.49	337.29	5.23	-37.7	-38.8	18.6	0.00e+00	0	30	0	4432330752	46	7030
2026-01-27 03:25:20.53	337.46	4.95	-39.5	-40.9	15.9	0.00e+00	0	30	0	4455399424	50	7144
2026-01-27 03:25:24.57	337.63	4.68	-40.9	-43.0	13.0	2.63e-05	0	30	0	4478468096	54	7246
2026-01-27 03:25:28.61	337.80	4.41	-42.4	-46.0	9.3	1.43e-02	0	30	0	4500488192	56	9035
2026-01-27 03:25:32.65	337.96	4.14	-43.3	-48.7	5.6	4.01e-01	0	30	0	4523556864	58	11013
2026-01-27 03:25:36.69	338.12	3.87	-43.7	-52.8	3.9	8.42e-01	0	30	104	4525654016	58	17779
2026-01-27 03:25:40.73	338.28	3.61	-43.8	-54.7	3.6	8.45e-01	0	30	104	4525654016	60	19535
2026-01-27 03:25:44.77	338.44	3.35	-43.8	-55.8	3.6	8.45e-01	0	30	104	4525654016	60	22352
2026-01-27 03:25:48.81	338.59	3.09	-43.9	-56.0	3.6	8.45e-01	0	30	104	4525654016	60	22772
2026-01-27 03:25:52.85	338.74	2.83	-48.2	-60.3	3.5	8.46e-01	0	30	104	4525654016	60	37629
2026-01-27 03:25:56.89	338.89	2.57	-48.9	-61.0	3.6	8.45e-01	0	30	104	4525654016	60	40350
2026-01-27 03:26:00.93	339.04	2.32	-49.0	-61.1	3.6	8.45e-01	0	30	104	4525654016	60	41261
2026-01-27 03:26:04.97	339.18	2.07	-49.0	-61.2	3.6	8.46e-01	0	30	104	4525654016	60	41481
2026-01-27 03:26:09.01	339.32	1.82	-48.7	-61.0	3.6	8.45e-01	0	30	104	4525654016	60	40717
2026-01-27 03:26:13.06	339.47	1.58	-48.8	-60.9	3.6	8.44e-01	0	30	104	4525654016	60	40265
2026-01-27 03:26:17.09	339.60	1.33	-48.9	-61.0	3.6	8.45e-01	0	30	104	4525654016	60	40739
2026-01-27 03:26:21.13	339.74	1.09	-48.9	-61.0	3.6	8.46e-01	0	30	104	4525654016	60	40555
2026-01-27 03:26:25.17	339.87	0.85	-48.9	-61.0	3.6	8.44e-01	0	30	104	4525654016	60	40585
2026-01-27 03:26:29.21	340.01	0.61	-48.9	-61.0	3.6	8.45e-01	0	30	104	4525654016	60	40466
2026-01-27 03:26:33.25	340.14	0.37	-48.9	-61.0	3.6	8.44e-01	0	30	104	4525654016	60	40695
2026-01-27 03:26:37.29	340.27	0.14	-48.9	-61.0	3.6	8.45e-01	0	30	104	4525654016	60	40469
2026-01-27 03:26:41.33	340.40	-0.10	-48.9	-61.0	3.6	8.45e-01	0	30	104	4525654016	60	40589

#Closed at: 2026-01-27 03:26:41
#Recorded file [4525 MB]: D:/lorett/data/35029_260127_151124.dat