passes_logs/2026/01/27/R4.6S_Anadyr/R4.6S_Anadyr__20260127_220619_NOAA_21_JPSS-2_rec.log

#Pass ID: 20260127_220619_NOAA 21 (JPSS-2)
#Satellite: NOAA 21 (JPSS-2)
#Configuration: NOAA-21
#almurnet v.1.7.20251203
#Start time: 2026-01-27 22:06:20

#Version: 2.2.20231116
#Station: R4.6S_Anadyr
#Location: 177.4865 lon 64.73178 lat
#TLE: 1 54234U 22150A   26027.55906748  .00000170  00000+0  10132-3 0  9996
#TLE: 2 54234  98.7510 328.3076 0000860 204.4692 155.6443 14.19540154166599

#Time	Az	El	Level	Level2	SNR	BER	BlckErr	Temp	State	Recorded	gain1	gain2
2026-01-27 22:06:20.09	105.43	0.06	-45.4	-59.8	3.5	1.51e+00	0	29	0	0	60	39681
2026-01-27 22:06:24.00	105.24	0.28	-48.7	-61.6	3.5	1.52e+00	0	31	104	0	60	42231
2026-01-27 22:06:27.92	105.04	0.50	-48.7	-61.6	3.5	1.52e+00	0	31	104	0	60	42163
2026-01-27 22:06:31.85	104.84	0.72	-48.4	-61.7	3.5	1.52e+00	0	31	104	0	60	42542
2026-01-27 22:06:35.77	104.64	0.94	-48.7	-61.6	3.5	1.51e+00	0	31	104	0	60	42321
2026-01-27 22:06:39.69	104.43	1.17	-48.6	-61.5	3.5	1.52e+00	0	31	104	0	60	41487
2026-01-27 22:06:43.61	104.22	1.39	-47.8	-61.0	3.5	1.52e+00	0	31	104	0	60	39572
2026-01-27 22:06:47.53	104.01	1.62	-46.4	-59.9	3.5	1.51e+00	0	31	104	0	60	34746
2026-01-27 22:06:51.45	103.79	1.84	-46.4	-59.9	3.5	1.52e+00	0	31	104	0	60	34663
2026-01-27 22:06:55.37	103.57	2.07	-46.5	-59.9	3.5	1.52e+00	0	31	104	0	60	34737
2026-01-27 22:06:59.29	103.35	2.30	-46.5	-59.9	3.5	1.52e+00	0	31	104	0	60	34642
2026-01-27 22:07:03.20	103.12	2.53	-46.5	-59.9	3.5	1.52e+00	0	32	104	0	60	34765
2026-01-27 22:07:07.13	102.89	2.77	-46.4	-59.8	3.5	1.52e+00	0	32	104	0	60	34382
2026-01-27 22:07:11.04	102.66	3.00	-46.4	-59.5	3.5	1.52e+00	0	32	104	0	60	33272
2026-01-27 22:07:14.96	102.42	3.24	-44.4	-48.6	10.8	1.78e-02	0	32	0	3145728	60	9420
2026-01-27 22:07:18.89	102.18	3.48	-47.1	-60.3	3.5	1.51e+00	0	32	104	13631488	60	36424
2026-01-27 22:07:22.80	101.93	3.72	-41.4	-43.8	5.1	1.42e+00	0	32	104	14680064	56	6808
2026-01-27 22:07:26.71	101.68	3.96	-42.1	-44.2	15.0	0.00e+00	0	32	0	24117248	56	7160
2026-01-27 22:07:30.62	101.42	4.20	-40.0	-41.6	17.7	0.00e+00	0	32	0	35651584	54	5967
2026-01-27 22:07:34.54	101.16	4.44	-40.1	-42.0	17.6	0.00e+00	0	32	0	48234496	52	7022
2026-01-27 22:07:38.46	100.90	4.69	-37.0	-38.2	20.8	0.00e+00	0	32	0	60817408	48	5717
2026-01-27 22:07:42.39	100.63	4.94	-37.6	-38.8	20.5	0.00e+00	0	32	0	72351744	48	6086
2026-01-27 22:07:46.31	100.35	5.19	-38.5	-39.8	19.1	0.00e+00	0	32	0	84934656	48	6806
2026-01-27 22:07:50.23	100.08	5.44	-38.3	-39.6	19.7	0.00e+00	0	32	0	97517568	50	5978
2026-01-27 22:07:54.14	99.79	5.69	-38.8	-40.3	19.1	0.00e+00	0	32	0	109051904	52	5762
2026-01-27 22:07:58.05	99.50	5.94	-38.2	-39.8	19.9	0.00e+00	0	32	0	121634816	50	6089
2026-01-27 22:08:01.96	99.21	6.20	-36.6	-37.8	21.7	0.00e+00	0	32	0	134217728	48	5419
2026-01-27 22:08:05.89	98.91	6.46	-36.4	-37.5	22.0	0.00e+00	0	32	0	146800640	46	5919
2026-01-27 22:08:09.82	98.60	6.72	-36.5	-37.6	22.0	0.00e+00	0	32	0	158334976	46	5962
2026-01-27 22:08:13.79	98.29	6.98	-36.5	-37.6	21.8	0.00e+00	0	32	0	170917888	46	5955
2026-01-27 22:08:17.77	97.96	7.25	-36.8	-37.9	21.6	0.00e+00	0	32	0	183500800	46	6149
2026-01-27 22:08:21.76	97.63	7.52	-36.6	-37.7	21.8	0.00e+00	0	32	0	196083712	46	6018
2026-01-27 22:08:25.75	97.30	7.79	-36.7	-37.7	21.8	0.00e+00	0	32	0	208666624	46	6050
2026-01-27 22:08:29.74	96.96	8.07	-36.5	-37.5	22.1	0.00e+00	0	32	0	221249536	46	5926
2026-01-27 22:08:33.75	96.61	8.35	-36.4	-37.4	22.1	0.00e+00	0	32	0	233832448	46	5849
2026-01-27 22:08:37.71	96.25	8.62	-36.1	-37.2	22.3	0.00e+00	0	32	0	245366784	44	6354
2026-01-27 22:08:41.63	95.90	8.90	-35.9	-36.9	22.6	0.00e+00	0	32	0	257949696	44	6150
2026-01-27 22:08:45.55	95.53	9.18	-35.4	-36.3	23.1	0.00e+00	0	32	0	270532608	44	5785
2026-01-27 22:08:49.48	95.16	9.46	-35.3	-36.3	23.1	0.00e+00	0	32	0	282066944	44	5767
2026-01-27 22:08:53.39	94.78	9.74	-35.5	-36.5	23.0	0.00e+00	0	32	0	294649856	44	5884
2026-01-27 22:08:57.31	94.40	10.02	-35.1	-36.1	23.2	0.00e+00	0	32	0	307232768	44	5613
2026-01-27 22:09:01.23	94.00	10.30	-35.0	-36.0	23.3	0.00e+00	0	32	0	318767104	44	5551
2026-01-27 22:09:05.15	93.60	10.59	-34.8	-35.7	23.5	0.00e+00	0	32	0	331350016	44	5401
2026-01-27 22:09:09.07	93.19	10.88	-34.8	-35.8	23.6	0.00e+00	0	32	0	343932928	42	6081
2026-01-27 22:09:12.99	92.78	11.17	-34.8	-35.7	23.7	0.00e+00	0	32	0	355467264	42	6040
2026-01-27 22:09:16.93	92.35	11.46	-34.7	-35.6	23.8	0.00e+00	0	32	0	368050176	42	5980
2026-01-27 22:09:20.86	91.91	11.76	-34.3	-35.2	24.1	0.00e+00	0	32	0	380633088	42	5666
2026-01-27 22:09:24.81	91.46	12.06	-34.2	-35.2	24.1	0.00e+00	0	32	0	393216000	42	5670
2026-01-27 22:09:28.76	91.00	12.36	-34.5	-35.4	23.9	0.00e+00	0	32	0	405798912	42	5833
2026-01-27 22:09:32.70	90.54	12.66	-34.3	-35.3	24.2	0.00e+00	0	32	0	417333248	42	5727
2026-01-27 22:09:36.70	90.06	12.97	-34.5	-35.4	24.0	0.00e+00	0	32	0	429916160	42	5807
2026-01-27 22:09:40.69	89.56	13.28	-34.3	-35.3	24.1	0.00e+00	0	32	0	442499072	42	5730
2026-01-27 22:09:44.67	89.06	13.59	-34.5	-35.4	24.0	0.00e+00	0	32	0	455081984	42	5823
2026-01-27 22:09:48.70	88.54	13.91	-34.4	-35.4	24.2	0.00e+00	0	32	0	467664896	42	5807
2026-01-27 22:09:52.73	88.01	14.22	-34.4	-35.3	24.1	0.00e+00	0	32	0	480247808	42	5762
2026-01-27 22:09:56.71	87.48	14.54	-34.6	-35.5	23.9	0.00e+00	0	32	0	492830720	42	5921
2026-01-27 22:10:00.69	86.93	14.86	-34.7	-35.6	24.0	0.00e+00	0	32	0	505413632	42	5978
2026-01-27 22:10:04.68	86.37	15.18	-34.5	-35.4	24.1	0.00e+00	0	32	0	517996544	42	5807
2026-01-27 22:10:08.67	85.80	15.50	-34.5	-35.4	24.0	0.00e+00	0	32	0	529530880	42	5821
2026-01-27 22:10:12.68	85.21	15.82	-34.7	-35.6	23.8	0.00e+00	0	32	0	542113792	42	5974
2026-01-27 22:10:16.72	84.60	16.15	-34.7	-35.6	24.0	0.00e+00	0	32	0	554696704	42	5966
2026-01-27 22:10:20.75	83.98	16.47	-34.6	-35.5	23.8	0.00e+00	0	32	0	567279616	42	5902
2026-01-27 22:10:24.79	83.35	16.80	-35.0	-35.9	23.5	0.00e+00	0	32	0	579862528	42	6204
2026-01-27 22:10:28.83	82.70	17.13	-35.0	-35.9	23.7	0.00e+00	0	32	0	593494016	42	6181
2026-01-27 22:10:32.88	82.04	17.46	-34.6	-35.5	24.0	0.00e+00	0	32	0	606076928	42	5896
2026-01-27 22:10:36.91	81.36	17.79	-34.5	-35.4	23.9	0.00e+00	0	32	0	618659840	42	5847
2026-01-27 22:10:40.95	80.67	18.12	-34.4	-35.3	24.1	0.00e+00	0	32	0	631242752	42	5791
2026-01-27 22:10:44.99	79.96	18.45	-34.7	-35.6	24.0	0.00e+00	0	32	0	643825664	42	5955
2026-01-27 22:10:49.04	79.24	18.78	-34.3	-35.2	24.2	0.00e+00	0	32	0	656408576	42	5717
2026-01-27 22:10:53.08	78.50	19.11	-34.2	-35.1	24.4	0.00e+00	0	32	0	668991488	42	5633
2026-01-27 22:10:57.12	77.74	19.44	-34.1	-35.0	24.4	0.00e+00	0	32	0	681574400	42	5550
2026-01-27 22:11:01.16	76.97	19.77	-33.9	-34.8	24.6	0.00e+00	0	32	0	694157312	42	5419
2026-01-27 22:11:05.20	76.18	20.10	-33.7	-34.7	24.4	0.00e+00	0	32	0	706740224	40	5998
2026-01-27 22:11:09.24	75.38	20.42	-34.0	-34.9	24.5	0.00e+00	0	32	0	719323136	40	6155
2026-01-27 22:11:13.27	74.56	20.75	-33.7	-34.6	24.7	0.00e+00	0	32	0	731906048	40	5962
2026-01-27 22:11:17.31	73.71	21.07	-34.0	-34.9	24.5	0.00e+00	0	32	0	744488960	40	6162
2026-01-27 22:11:21.35	72.86	21.38	-33.4	-34.2	24.9	0.00e+00	0	32	0	757071872	40	5705
2026-01-27 22:11:25.39	71.98	21.70	-33.3	-34.2	25.0	0.00e+00	0	32	0	769654784	40	5675
2026-01-27 22:11:29.43	71.08	22.01	-33.5	-34.4	24.9	0.00e+00	0	32	0	782237696	40	5811
2026-01-27 22:11:33.47	70.17	22.32	-33.6	-34.5	24.8	0.00e+00	0	32	0	794820608	40	5878
2026-01-27 22:11:37.51	69.24	22.62	-33.6	-34.5	24.9	0.00e+00	0	32	0	807403520	40	5895
2026-01-27 22:11:41.55	68.29	22.92	-33.7	-34.6	24.7	0.00e+00	0	32	0	819986432	40	5950
2026-01-27 22:11:45.58	67.32	23.21	-33.6	-34.5	24.8	0.00e+00	0	32	0	832569344	40	5918
2026-01-27 22:11:49.62	66.34	23.50	-34.0	-34.9	24.5	0.00e+00	0	32	0	845152256	40	6183
2026-01-27 22:11:53.66	65.33	23.78	-34.0	-34.9	24.5	0.00e+00	0	32	0	857735168	40	6151
2026-01-27 22:11:57.70	64.31	24.06	-34.1	-34.9	24.6	0.00e+00	0	32	0	870318080	40	6197
2026-01-27 22:12:01.74	63.27	24.33	-33.9	-34.8	24.6	0.00e+00	0	32	0	882900992	40	6104
2026-01-27 22:12:05.78	62.21	24.59	-33.8	-34.7	24.8	0.00e+00	0	32	0	895483904	40	6003
2026-01-27 22:12:09.82	61.14	24.84	-34.0	-34.9	24.6	0.00e+00	0	32	0	909115392	40	6146
2026-01-27 22:12:13.86	60.05	25.08	-34.2	-35.1	24.3	0.00e+00	0	32	0	921698304	40	6336
2026-01-27 22:12:17.90	58.94	25.31	-34.0	-34.9	24.5	0.00e+00	0	32	0	934281216	40	6185
2026-01-27 22:12:21.93	57.81	25.53	-33.9	-34.8	24.7	0.00e+00	0	32	0	946864128	40	6113
2026-01-27 22:12:25.97	56.67	25.75	-33.5	-34.4	25.0	0.00e+00	0	32	0	959447040	40	5827
2026-01-27 22:12:30.01	55.52	25.95	-33.4	-34.3	25.0	0.00e+00	0	32	0	972029952	40	5732
2026-01-27 22:12:34.04	54.35	26.14	-33.5	-34.4	24.9	0.00e+00	0	32	0	984612864	40	5834
2026-01-27 22:12:38.08	53.17	26.32	-33.5	-34.4	25.0	0.00e+00	0	32	0	997195776	40	5803
2026-01-27 22:12:42.12	51.97	26.48	-33.3	-34.2	25.1	0.00e+00	0	32	0	1009778688	40	5678
2026-01-27 22:12:46.16	50.76	26.63	-33.5	-34.4	24.9	0.00e+00	0	32	0	1022361600	40	5833
2026-01-27 22:12:50.20	49.54	26.77	-33.5	-34.4	24.8	0.00e+00	0	32	0	1034944512	40	5831
2026-01-27 22:12:54.24	48.31	26.90	-33.7	-34.5	24.8	0.00e+00	0	32	0	1047527424	40	5913
2026-01-27 22:12:58.29	47.07	27.01	-33.7	-34.6	24.8	0.00e+00	0	32	0	1060110336	40	5950
2026-01-27 22:13:02.33	45.82	27.10	-33.6	-34.5	24.9	0.00e+00	0	32	0	1072693248	40	5887
2026-01-27 22:13:06.36	44.57	27.19	-34.0	-34.9	24.5	0.00e+00	0	32	0	1085276160	40	6192
2026-01-27 22:13:10.40	43.31	27.25	-33.9	-34.8	24.3	0.00e+00	0	32	0	1097859072	40	6129
2026-01-27 22:13:14.45	42.04	27.30	-33.7	-34.6	24.7	0.00e+00	0	32	0	1110441984	40	5976
2026-01-27 22:13:18.49	40.78	27.34	-33.6	-34.5	24.7	0.00e+00	0	32	0	1123024896	40	5903
2026-01-27 22:13:22.52	39.51	27.36	-33.6	-34.5	24.8	0.00e+00	0	32	0	1135607808	40	5890
2026-01-27 22:13:26.56	38.24	27.36	-33.7	-34.6	24.6	0.00e+00	0	32	0	1148190720	40	5982
2026-01-27 22:13:30.60	36.97	27.35	-33.5	-34.4	24.8	0.00e+00	0	32	0	1160773632	40	5794
2026-01-27 22:13:34.64	35.70	27.33	-33.3	-34.2	25.1	0.00e+00	0	32	0	1173356544	40	5678
2026-01-27 22:13:38.68	34.43	27.28	-33.5	-34.3	24.9	0.00e+00	0	32	0	1185939456	40	5776
2026-01-27 22:13:42.72	33.17	27.23	-33.5	-34.4	24.9	0.00e+00	0	32	0	1198522368	40	5804
2026-01-27 22:13:46.77	31.91	27.15	-33.7	-34.5	24.8	0.00e+00	0	32	0	1211105280	40	5918
2026-01-27 22:13:50.81	30.66	27.06	-33.6	-34.5	24.8	0.00e+00	0	32	0	1224736768	40	5883
2026-01-27 22:13:54.85	29.42	26.96	-33.5	-34.3	24.9	0.00e+00	0	32	0	1236271104	40	5784
2026-01-27 22:13:58.89	28.18	26.85	-33.6	-34.5	24.8	0.00e+00	0	32	0	1249902592	40	5885
2026-01-27 22:14:02.93	26.96	26.71	-33.8	-34.7	24.9	0.00e+00	0	32	0	1262485504	40	6021
2026-01-27 22:14:06.97	25.74	26.57	-33.5	-34.3	25.0	0.00e+00	0	32	0	1275068416	40	5768
2026-01-27 22:14:11.01	24.54	26.41	-33.7	-34.6	24.9	0.00e+00	0	32	0	1287651328	40	5977
2026-01-27 22:14:15.05	23.35	26.24	-33.7	-34.6	24.9	0.00e+00	0	32	0	1300234240	40	5947
2026-01-27 22:14:19.09	22.18	26.06	-33.8	-34.7	24.8	0.00e+00	0	32	0	1312817152	40	6031
2026-01-27 22:14:23.13	21.01	25.86	-33.7	-34.6	24.9	0.00e+00	0	32	0	1325400064	40	5967
2026-01-27 22:14:27.17	19.87	25.66	-33.8	-34.7	24.8	0.00e+00	0	32	0	1337982976	40	6022
2026-01-27 22:14:31.21	18.73	25.44	-33.4	-34.2	25.1	0.00e+00	0	32	0	1350565888	40	5712
2026-01-27 22:14:35.25	17.62	25.21	-33.6	-34.5	24.8	0.00e+00	0	32	0	1363148800	40	5879
2026-01-27 22:14:39.29	16.52	24.98	-33.2	-34.0	25.2	0.00e+00	0	32	0	1375731712	40	5586
2026-01-27 22:14:43.33	15.44	24.73	-33.4	-34.3	25.0	0.00e+00	0	32	0	1388314624	40	5735
2026-01-27 22:14:47.37	14.37	24.48	-33.6	-34.5	24.6	0.00e+00	0	32	0	1400897536	40	5876
2026-01-27 22:14:51.41	13.32	24.21	-32.7	-33.5	25.6	0.00e+00	0	32	0	1413480448	40	5271
2026-01-27 22:14:55.46	12.29	23.94	-33.4	-34.2	25.1	0.00e+00	0	32	0	1426063360	38	6383
2026-01-27 22:14:59.50	11.28	23.67	-33.3	-34.2	24.9	0.00e+00	0	32	0	1438646272	38	6374
2026-01-27 22:15:03.54	10.28	23.38	-33.7	-34.6	24.8	0.00e+00	0	32	0	1451229184	38	6694
2026-01-27 22:15:07.58	9.31	23.09	-33.3	-34.2	25.0	0.00e+00	0	32	0	1463812096	40	5669
2026-01-27 22:15:11.62	8.35	22.80	-33.3	-34.2	25.1	0.00e+00	0	32	0	1476395008	40	5682
2026-01-27 22:15:15.66	7.41	22.50	-34.1	-35.0	24.4	0.00e+00	0	32	0	1488977920	40	6246
2026-01-27 22:15:19.70	6.49	22.19	-33.8	-34.7	24.6	0.00e+00	0	32	0	1501560832	40	6053
2026-01-27 22:15:23.74	5.59	21.88	-33.9	-34.8	24.8	0.00e+00	0	32	0	1514143744	40	6071
2026-01-27 22:15:27.78	4.70	21.57	-34.0	-34.9	24.7	0.00e+00	0	32	0	1526726656	40	6176
2026-01-27 22:15:31.83	3.84	21.26	-33.6	-34.5	24.9	0.00e+00	0	32	0	1540358144	40	5868
2026-01-27 22:15:35.87	2.99	20.94	-33.9	-34.8	24.5	0.00e+00	0	32	0	1552941056	40	6099
2026-01-27 22:15:39.91	2.16	20.62	-33.8	-34.7	24.8	0.00e+00	0	32	0	1565523968	40	5998
2026-01-27 22:15:43.95	1.34	20.29	-33.8	-34.7	24.8	0.00e+00	0	32	0	1578106880	40	6031
2026-01-27 22:15:47.99	0.55	19.97	-34.0	-34.9	24.7	0.00e+00	0	32	0	1590689792	40	6137
2026-01-27 22:15:52.03	359.77	19.64	-33.8	-34.7	24.6	0.00e+00	0	32	0	1603272704	40	6036
2026-01-27 22:15:56.07	359.01	19.31	-34.0	-34.9	24.4	0.00e+00	0	32	0	1615855616	40	6153
2026-01-27 22:16:00.11	358.26	18.98	-33.9	-34.8	24.4	0.00e+00	0	32	0	1628438528	40	6078
2026-01-27 22:16:04.15	357.53	18.66	-33.8	-34.7	24.5	0.00e+00	0	32	0	1641021440	40	6004
2026-01-27 22:16:08.19	356.82	18.33	-33.8	-34.7	24.5	0.00e+00	0	32	0	1653604352	40	6014
2026-01-27 22:16:12.22	356.12	18.00	-33.9	-34.8	24.6	0.00e+00	0	32	0	1666187264	40	6079
2026-01-27 22:16:16.26	355.44	17.67	-34.4	-35.3	24.3	0.00e+00	0	32	0	1678770176	40	6465
2026-01-27 22:16:20.30	354.77	17.34	-34.1	-35.0	24.4	0.00e+00	0	32	0	1691353088	40	6243
2026-01-27 22:16:24.34	354.12	17.01	-33.9	-34.8	24.6	0.00e+00	0	32	0	1703936000	40	6079
2026-01-27 22:16:28.38	353.48	16.68	-34.1	-35.0	24.5	0.00e+00	0	32	0	1716518912	40	6238
2026-01-27 22:16:32.42	352.85	16.35	-34.6	-35.6	24.0	0.00e+00	0	32	0	1729101824	40	6651
2026-01-27 22:16:36.46	352.24	16.03	-34.3	-35.2	24.2	0.00e+00	0	32	0	1741684736	40	6383
2026-01-27 22:16:40.51	351.64	15.70	-34.0	-34.9	24.5	0.00e+00	0	32	0	1754267648	40	6174
2026-01-27 22:16:44.55	351.06	15.38	-34.9	-35.8	23.9	0.00e+00	0	32	0	1766850560	42	6082
2026-01-27 22:16:48.59	350.49	15.05	-34.9	-35.8	23.7	0.00e+00	0	32	0	1779433472	42	6134
2026-01-27 22:16:52.63	349.93	14.73	-34.4	-35.3	23.9	0.00e+00	0	32	0	1792016384	42	5762
2026-01-27 22:16:56.67	349.38	14.41	-34.5	-35.4	24.1	0.00e+00	0	32	0	1804599296	42	5802
2026-01-27 22:17:00.71	348.85	14.09	-34.8	-35.7	23.8	0.00e+00	0	32	0	1817182208	42	6018
2026-01-27 22:17:04.75	348.32	13.78	-34.8	-35.7	23.7	0.00e+00	0	32	0	1830813696	42	6054
2026-01-27 22:17:08.80	347.81	13.46	-34.5	-35.4	23.8	0.00e+00	0	32	0	1842348032	42	5834
2026-01-27 22:17:12.84	347.31	13.15	-34.0	-34.8	24.3	0.00e+00	0	32	0	1855979520	42	5456
2026-01-27 22:17:16.88	346.82	12.83	-34.3	-35.1	24.3	0.00e+00	0	32	0	1868562432	42	5659
2026-01-27 22:17:20.92	346.34	12.53	-35.0	-36.0	23.6	0.00e+00	0	32	0	1881145344	42	6219
2026-01-27 22:17:24.96	345.87	12.22	-35.3	-36.3	23.2	0.00e+00	0	32	0	1893728256	42	6443
2026-01-27 22:17:29.00	345.41	11.91	-34.8	-35.7	23.5	0.00e+00	0	32	0	1906311168	42	6054
2026-01-27 22:17:33.04	344.96	11.61	-34.6	-35.5	23.8	0.00e+00	0	32	0	1918894080	42	5907
2026-01-27 22:17:37.08	344.52	11.31	-34.9	-35.9	23.6	0.00e+00	0	32	0	1931476992	42	6166
2026-01-27 22:17:41.12	344.09	11.01	-35.6	-36.6	23.0	0.00e+00	0	32	0	1944059904	42	6714
2026-01-27 22:17:45.16	343.67	10.71	-35.8	-36.9	22.8	0.00e+00	0	32	0	1956642816	44	6139
2026-01-27 22:17:49.20	343.25	10.41	-35.8	-36.7	22.7	0.00e+00	0	32	0	1969225728	44	6060
2026-01-27 22:17:53.25	342.85	10.12	-35.8	-36.8	22.7	0.00e+00	0	32	0	1981808640	44	6084
2026-01-27 22:17:57.28	342.45	9.83	-35.7	-36.6	22.9	0.00e+00	0	32	0	1994391552	44	5981
2026-01-27 22:18:01.33	342.06	9.54	-36.1	-37.1	22.5	0.00e+00	0	32	0	2006974464	44	6280
2026-01-27 22:18:05.36	341.68	9.25	-36.4	-37.4	22.3	0.00e+00	0	32	0	2019557376	44	6551
2026-01-27 22:18:09.40	341.31	8.97	-36.7	-37.8	22.0	0.00e+00	0	32	0	2032140288	46	6080
2026-01-27 22:18:13.45	340.94	8.68	-36.9	-37.9	21.7	0.00e+00	0	32	0	2044723200	46	6205
2026-01-27 22:18:17.48	340.59	8.40	-36.7	-37.7	21.8	0.00e+00	0	32	0	2057306112	46	6045
2026-01-27 22:18:21.52	340.24	8.12	-36.8	-37.8	21.9	0.00e+00	0	32	0	2069889024	46	6122
2026-01-27 22:18:25.56	339.89	7.85	-36.9	-37.9	21.8	0.00e+00	0	32	0	2082471936	46	6191
2026-01-27 22:18:29.61	339.55	7.57	-36.7	-37.8	21.9	0.00e+00	0	32	0	2095054848	46	6093
2026-01-27 22:18:33.65	339.22	7.30	-37.3	-38.4	21.3	0.00e+00	0	32	0	2107637760	46	6556
2026-01-27 22:18:37.69	338.90	7.03	-37.4	-38.6	21.2	0.00e+00	0	32	0	2120220672	46	6665
2026-01-27 22:18:41.73	338.58	6.76	-37.5	-38.6	21.0	0.00e+00	0	32	0	2132803584	46	6702
2026-01-27 22:18:45.77	338.27	6.49	-37.4	-38.5	20.9	0.00e+00	0	32	0	2146435072	48	5912
2026-01-27 22:18:49.81	337.96	6.22	-37.9	-39.0	20.3	0.00e+00	0	32	0	2159017984	48	6255
2026-01-27 22:18:53.85	337.66	5.96	-37.3	-38.5	20.8	0.00e+00	0	32	0	2171600896	48	5863
2026-01-27 22:18:57.89	337.37	5.70	-37.7	-38.9	20.0	0.00e+00	0	32	0	2184183808	48	6171
2026-01-27 22:19:01.93	337.08	5.44	-38.6	-40.0	18.4	0.00e+00	0	32	0	2196766720	48	7005
2026-01-27 22:19:05.97	336.79	5.18	-40.3	-42.3	15.5	0.00e+00	0	32	0	2209349632	52	7260
2026-01-27 22:19:10.01	336.51	4.92	-42.4	-46.1	10.3	4.45e-03	0	32	0	2221932544	56	8931
2026-01-27 22:19:14.05	336.24	4.67	-43.3	-49.5	6.0	3.02e-01	0	32	0	2234515456	58	11700
2026-01-27 22:19:18.09	335.97	4.42	-43.7	-54.6	3.6	1.49e+00	0	32	104	2235564032	58	21170
2026-01-27 22:19:22.13	335.71	4.17	-43.9	-54.8	3.7	1.46e+00	0	32	104	2235564032	60	19366
2026-01-27 22:19:26.17	335.45	3.92	-43.8	-56.1	3.5	1.51e+00	0	32	104	2235564032	60	22386
2026-01-27 22:19:30.21	335.19	3.67	-43.7	-56.5	3.5	1.52e+00	0	33	104	2235564032	60	23350
2026-01-27 22:19:34.25	334.94	3.43	-43.6	-56.4	3.5	1.52e+00	0	32	104	2235564032	60	23155
2026-01-27 22:19:38.29	334.70	3.18	-43.6	-56.4	3.5	1.52e+00	0	32	104	2235564032	60	23167
2026-01-27 22:19:42.33	334.46	2.94	-47.8	-60.6	3.5	1.52e+00	0	33	104	2235564032	60	37556
2026-01-27 22:19:46.37	334.22	2.70	-48.6	-61.5	3.5	1.52e+00	0	33	104	2235564032	60	41683
2026-01-27 22:19:50.41	333.99	2.46	-48.9	-61.7	3.5	1.52e+00	0	32	104	2235564032	60	42785
2026-01-27 22:19:54.45	333.76	2.22	-48.9	-61.8	3.5	1.52e+00	0	32	104	2235564032	60	43240
2026-01-27 22:19:58.49	333.53	1.98	-48.8	-61.7	3.5	1.51e+00	0	32	104	2235564032	60	42701
2026-01-27 22:20:02.53	333.31	1.75	-48.6	-61.6	3.5	1.52e+00	0	33	104	2235564032	60	42396
2026-01-27 22:20:06.57	333.09	1.52	-48.8	-61.7	3.5	1.52e+00	0	33	104	2235564032	60	42474
2026-01-27 22:20:10.61	332.88	1.28	-48.8	-61.6	3.5	1.51e+00	0	33	104	2235564032	60	42279
2026-01-27 22:20:14.65	332.67	1.05	-48.8	-61.6	3.5	1.52e+00	0	32	104	2235564032	60	42342
2026-01-27 22:20:18.69	332.46	0.83	-48.8	-61.6	3.5	1.52e+00	0	33	104	2235564032	60	42238
2026-01-27 22:20:22.73	332.26	0.60	-48.8	-61.6	3.5	1.52e+00	0	33	104	2235564032	60	42370
2026-01-27 22:20:26.77	332.06	0.37	-48.8	-61.6	3.5	1.52e+00	0	32	104	2235564032	60	42243
2026-01-27 22:20:30.81	331.86	0.15	-48.8	-61.6	3.5	1.52e+00	0	32	104	2235564032	60	42372
2026-01-27 22:20:34.85	331.67	-0.08	-48.8	-61.6	3.5	1.52e+00	0	33	104	2235564032	60	42355

#Closed at: 2026-01-27 22:20:36
#Recorded file [2235 MB]: D:/lorett/data/35029_260128_100620.dat