passes_logs/2026/01/27/R4.6S_Anadyr/R4.6S_Anadyr__20260127_000401_NOAA_21_JPSS-2_rec.log

#Pass ID: 20260127_000401_NOAA 21 (JPSS-2)
#Satellite: NOAA 21 (JPSS-2)
#Configuration: NOAA-21
#almurnet v.1.7.20251203
#Start time: 2026-01-27 00:04:05

#Version: 2.2.20231116
#Station: R4.6S_Anadyr
#Location: 177.4865 lon 64.73178 lat
#TLE: 1 54234U 22150A   26026.43130734  .00000179  00000+0  10559-3 0  9998
#TLE: 2 54234  98.7509 327.1934 0000805 209.8356 150.2774 14.19539635166435

#Time	Az	El	Level	Level2	SNR	BER	BlckErr	Temp	State	Recorded	gain1	gain2
2026-01-27 00:04:05.61	152.50	0.22	-46.0	-60.4	3.6	1.51e+00	0	25	0	0	60	42399
2026-01-27 00:04:09.52	152.50	0.46	-49.4	-62.2	3.5	1.52e+00	0	27	104	0	60	44965
2026-01-27 00:04:13.43	152.49	0.70	-49.3	-62.2	3.5	1.52e+00	0	27	104	0	60	45047
2026-01-27 00:04:17.36	152.49	0.94	-49.3	-62.1	3.5	1.52e+00	0	27	104	0	60	44600
2026-01-27 00:04:21.27	152.49	1.18	-49.1	-61.9	3.5	1.52e+00	0	27	104	0	60	43876
2026-01-27 00:04:25.20	152.48	1.43	-48.6	-61.4	3.5	1.52e+00	0	27	104	0	60	41383
2026-01-27 00:04:29.12	152.48	1.68	-47.9	-60.7	3.5	1.52e+00	0	27	104	0	60	38063
2026-01-27 00:04:33.04	152.47	1.93	-47.8	-60.6	3.5	1.52e+00	0	27	104	0	60	37406
2026-01-27 00:04:36.95	152.47	2.18	-47.8	-60.6	3.5	1.52e+00	0	27	104	0	60	37694
2026-01-27 00:04:40.87	152.46	2.44	-47.8	-60.6	3.5	1.52e+00	0	27	104	0	60	37799
2026-01-27 00:04:44.79	152.45	2.69	-47.8	-60.0	3.5	1.51e+00	0	27	104	0	60	35216
2026-01-27 00:04:48.70	152.45	2.95	-47.7	-59.3	3.5	1.51e+00	0	27	104	0	60	32524
2026-01-27 00:04:52.62	152.44	3.21	-47.6	-58.0	3.6	1.51e+00	0	27	104	0	60	27824
2026-01-27 00:04:56.54	152.44	3.48	-44.6	-47.7	12.2	6.13e-04	124	28	0	6291456	60	8515
2026-01-27 00:05:00.46	152.43	3.74	-40.4	-41.9	17.9	0.00e+00	121	27	0	18874368	54	6200
2026-01-27 00:05:04.37	152.42	4.01	-47.4	-56.2	4.1	1.23e+00	0	27	104	29360128	60	22713
2026-01-27 00:05:08.28	152.41	4.28	-47.6	-58.3	3.6	4.86e-01	0	27	104	38797312	60	29000
2026-01-27 00:05:12.20	152.41	4.56	-39.6	-41.0	18.9	0.00e+00	122	27	0	47185920	52	6234
2026-01-27 00:05:16.11	152.40	4.84	-38.6	-39.8	20.0	0.00e+00	123	28	0	59768832	50	6078
2026-01-27 00:05:20.03	152.39	5.12	-38.8	-40.1	19.8	0.00e+00	120	28	0	72351744	50	6288
2026-01-27 00:05:23.96	152.38	5.40	-39.0	-40.3	19.7	0.00e+00	122	28	0	83886080	50	6429
2026-01-27 00:05:27.87	152.37	5.69	-38.4	-39.6	20.3	0.00e+00	121	28	0	96468992	50	5946
2026-01-27 00:05:31.80	152.36	5.98	-37.8	-38.9	21.0	0.00e+00	125	28	0	109051904	50	5485
2026-01-27 00:05:35.72	152.35	6.27	-38.4	-39.5	20.4	0.00e+00	121	28	0	121634816	50	5910
2026-01-27 00:05:39.65	152.34	6.57	-37.7	-38.9	21.2	0.00e+00	121	28	0	133169152	50	5474
2026-01-27 00:05:43.56	152.33	6.87	-38.2	-39.4	20.6	0.00e+00	125	28	0	145752064	48	6511
2026-01-27 00:05:47.47	152.31	7.17	-37.6	-38.8	21.2	0.00e+00	122	28	0	157286400	48	6065
2026-01-27 00:05:51.38	152.30	7.48	-37.5	-38.6	21.4	0.00e+00	119	28	0	169869312	48	5929
2026-01-27 00:05:55.29	152.29	7.79	-37.0	-38.1	21.9	0.00e+00	122	28	0	182452224	48	5614
2026-01-27 00:05:59.20	152.27	8.10	-37.1	-38.1	22.0	0.00e+00	121	28	0	193986560	48	5640
2026-01-27 00:06:03.11	152.26	8.42	-36.6	-37.6	22.4	0.00e+00	122	28	0	206569472	46	5946
2026-01-27 00:06:07.03	152.25	8.74	-37.0	-38.1	22.1	0.00e+00	124	28	0	219152384	46	6290
2026-01-27 00:06:10.95	152.23	9.07	-37.1	-38.1	22.1	0.00e+00	122	28	0	230686720	46	6297
2026-01-27 00:06:14.88	152.21	9.40	-36.4	-37.4	22.7	0.00e+00	123	28	0	243269632	46	5828
2026-01-27 00:06:18.78	152.20	9.74	-36.2	-37.1	22.8	0.00e+00	121	28	0	255852544	46	5656
2026-01-27 00:06:22.70	152.18	10.08	-36.5	-37.4	22.6	0.00e+00	122	28	0	267386880	46	5851
2026-01-27 00:06:26.62	152.16	10.42	-36.0	-37.0	23.0	0.00e+00	122	28	0	279969792	46	5569
2026-01-27 00:06:30.54	152.14	10.77	-35.8	-36.8	23.2	0.00e+00	122	28	0	292552704	46	5452
2026-01-27 00:06:34.45	152.12	11.13	-35.7	-36.7	23.3	0.00e+00	120	28	0	305135616	44	5997
2026-01-27 00:06:38.36	152.10	11.48	-35.6	-36.6	23.4	0.00e+00	124	28	0	316669952	44	5949
2026-01-27 00:06:42.28	152.08	11.85	-35.5	-36.4	23.6	0.00e+00	123	28	0	329252864	44	5812
2026-01-27 00:06:46.19	152.06	12.22	-35.3	-36.2	23.7	0.00e+00	123	28	0	341835776	44	5688
2026-01-27 00:06:50.11	152.04	12.60	-35.4	-36.4	23.7	0.00e+00	121	28	0	353370112	44	5801
2026-01-27 00:06:54.04	152.01	12.98	-35.0	-36.0	24.0	0.00e+00	123	28	0	365953024	44	5547
2026-01-27 00:06:57.97	151.99	13.37	-35.1	-36.0	23.9	0.00e+00	125	28	0	378535936	44	5567
2026-01-27 00:07:01.88	151.96	13.77	-35.0	-35.9	24.0	0.00e+00	122	28	0	390070272	44	5481
2026-01-27 00:07:05.81	151.94	14.17	-35.0	-35.9	24.1	0.00e+00	122	28	0	402653184	44	5488
2026-01-27 00:07:09.73	151.91	14.58	-34.9	-35.8	24.0	0.00e+00	123	28	0	415236096	44	5458
2026-01-27 00:07:13.64	151.88	14.99	-34.9	-35.8	24.1	0.00e+00	120	28	0	426770432	44	5426
2026-01-27 00:07:17.56	151.85	15.41	-35.0	-35.9	24.0	0.00e+00	121	28	0	439353344	44	5488
2026-01-27 00:07:21.47	151.82	15.84	-34.9	-35.8	24.2	0.00e+00	121	28	0	451936256	44	5424
2026-01-27 00:07:25.39	151.78	16.28	-34.9	-35.8	24.1	0.00e+00	123	28	0	463470592	44	5426
2026-01-27 00:07:29.30	151.75	16.73	-35.0	-36.0	24.1	0.00e+00	121	28	0	476053504	44	5540
2026-01-27 00:07:33.22	151.71	17.18	-35.1	-36.0	24.1	0.00e+00	123	28	0	488636416	44	5585
2026-01-27 00:07:37.14	151.68	17.64	-35.2	-36.1	23.9	0.00e+00	121	28	0	500170752	44	5643
2026-01-27 00:07:41.06	151.64	18.11	-35.3	-36.2	23.8	0.00e+00	122	28	0	512753664	44	5718
2026-01-27 00:07:44.97	151.60	18.59	-35.4	-36.3	23.8	0.00e+00	123	28	0	525336576	44	5760
2026-01-27 00:07:48.89	151.56	19.08	-35.5	-36.4	23.7	0.00e+00	122	28	0	536870912	44	5854
2026-01-27 00:07:52.80	151.51	19.58	-35.1	-36.0	24.0	0.00e+00	122	28	0	549453824	44	5585
2026-01-27 00:07:56.72	151.47	20.09	-35.0	-35.9	24.2	0.00e+00	125	28	0	562036736	44	5487
2026-01-27 00:08:00.64	151.42	20.61	-34.8	-35.8	24.2	0.00e+00	119	28	0	573571072	42	6065
2026-01-27 00:08:04.56	151.37	21.15	-34.5	-35.4	24.6	0.00e+00	122	28	0	586153984	42	5833
2026-01-27 00:08:08.47	151.32	21.69	-34.1	-35.0	24.9	0.00e+00	124	28	0	598736896	42	5532
2026-01-27 00:08:12.39	151.26	22.24	-33.8	-34.7	25.0	0.00e+00	123	28	0	610271232	42	5384
2026-01-27 00:08:16.30	151.21	22.81	-33.5	-34.4	25.2	0.00e+00	123	28	0	622854144	40	5825
2026-01-27 00:08:20.22	151.15	23.39	-33.5	-34.3	25.2	0.00e+00	123	28	0	635437056	40	5765
2026-01-27 00:08:24.14	151.08	23.98	-33.3	-34.2	25.2	0.00e+00	123	28	0	646971392	40	5700
2026-01-27 00:08:28.05	151.02	24.59	-33.4	-34.3	25.1	0.00e+00	124	28	0	659554304	40	5764
2026-01-27 00:08:31.96	150.95	25.21	-33.8	-34.7	24.9	0.00e+00	120	28	0	672137216	40	5999
2026-01-27 00:08:35.87	150.88	25.84	-34.1	-34.9	24.6	0.00e+00	121	28	0	683671552	40	6203
2026-01-27 00:08:39.78	150.81	26.49	-34.5	-35.4	24.4	0.00e+00	123	28	0	696254464	40	6544
2026-01-27 00:08:43.70	150.73	27.16	-34.8	-35.7	24.2	0.00e+00	121	28	0	708837376	42	6054
2026-01-27 00:08:47.62	150.64	27.85	-35.3	-36.2	23.9	0.00e+00	122	28	0	720371712	42	6373
2026-01-27 00:08:51.53	150.56	28.55	-35.4	-36.4	23.9	0.00e+00	125	28	0	732954624	42	6500
2026-01-27 00:08:55.45	150.47	29.26	-35.0	-35.9	24.3	0.00e+00	119	28	0	745537536	42	6193
2026-01-27 00:08:59.38	150.37	30.01	-34.6	-35.5	24.6	0.00e+00	122	28	0	757071872	42	5871
2026-01-27 00:09:03.30	150.27	30.76	-34.1	-35.0	25.0	0.00e+00	124	28	0	769654784	42	5541
2026-01-27 00:09:07.24	150.16	31.54	-34.1	-35.0	24.8	0.00e+00	122	28	0	782237696	42	5543
2026-01-27 00:09:11.16	150.05	32.34	-34.2	-35.1	24.9	0.00e+00	122	28	0	794820608	42	5609
2026-01-27 00:09:15.08	149.93	33.16	-34.9	-35.8	24.4	0.00e+00	124	28	0	806354944	42	6112
2026-01-27 00:09:18.99	149.80	34.01	-35.3	-36.2	24.2	0.00e+00	121	28	0	818937856	42	6372
2026-01-27 00:09:22.92	149.67	34.88	-35.8	-36.7	23.8	0.00e+00	127	28	0	831520768	42	6756
2026-01-27 00:09:26.84	149.53	35.77	-36.0	-37.0	23.4	0.00e+00	125	28	0	843055104	44	6212
2026-01-27 00:09:30.75	149.38	36.68	-36.3	-37.2	23.3	0.00e+00	121	28	0	855638016	44	6420
2026-01-27 00:09:34.67	149.22	37.62	-36.9	-37.8	22.9	0.00e+00	123	28	0	868220928	46	6130
2026-01-27 00:09:38.58	149.04	38.59	-36.3	-37.3	23.1	0.00e+00	121	28	0	879755264	46	5743
2026-01-27 00:09:42.50	148.86	39.59	-36.6	-37.6	23.0	0.00e+00	121	28	0	892338176	46	5933
2026-01-27 00:09:46.41	148.67	40.61	-36.6	-37.5	23.1	0.00e+00	123	28	0	904921088	46	5907
2026-01-27 00:09:50.34	148.46	41.67	-36.9	-37.9	22.7	0.00e+00	123	28	0	916455424	46	6141
2026-01-27 00:09:54.25	148.24	42.75	-37.0	-38.0	22.7	0.00e+00	121	28	0	929038336	46	6238
2026-01-27 00:09:58.16	148.00	43.87	-37.5	-38.5	22.3	0.00e+00	122	28	0	941621248	46	6632
2026-01-27 00:10:02.07	147.74	45.02	-37.9	-39.0	21.9	0.00e+00	122	28	0	953155584	48	6225
2026-01-27 00:10:06.00	147.46	46.21	-38.2	-39.3	21.7	0.00e+00	121	28	0	965738496	48	6441
2026-01-27 00:10:09.92	147.15	47.42	-37.4	-38.4	22.3	0.00e+00	125	28	0	978321408	48	5833
2026-01-27 00:10:13.83	146.82	48.68	-36.7	-37.7	23.1	0.00e+00	122	28	0	989855744	46	6004
2026-01-27 00:10:17.75	146.46	49.96	-37.2	-38.2	22.6	0.00e+00	124	28	0	1002438656	46	6383
2026-01-27 00:10:21.67	146.07	51.29	-36.7	-37.7	23.0	0.00e+00	122	28	0	1015021568	46	6014
2026-01-27 00:10:25.59	145.64	52.65	-36.5	-37.5	23.1	0.00e+00	124	28	0	1026555904	46	5900
2026-01-27 00:10:29.52	145.17	54.05	-35.7	-36.6	23.6	0.00e+00	123	28	0	1039138816	44	5955
2026-01-27 00:10:33.43	144.64	55.48	-35.0	-35.9	24.2	0.00e+00	122	28	0	1051721728	44	5516
2026-01-27 00:10:37.35	144.06	56.96	-34.9	-35.8	24.4	0.00e+00	123	28	0	1063256064	44	5427
2026-01-27 00:10:41.25	143.41	58.45	-33.9	-34.7	25.2	0.00e+00	120	28	0	1075838976	42	5384
2026-01-27 00:10:45.18	142.68	60.00	-34.3	-35.2	24.9	0.00e+00	123	28	0	1088421888	42	5675
2026-01-27 00:10:49.10	141.85	61.58	-34.0	-34.8	24.9	0.00e+00	123	28	0	1099956224	42	5460
2026-01-27 00:10:53.01	140.91	63.18	-33.3	-34.2	25.3	0.00e+00	123	28	0	1112539136	40	5674
2026-01-27 00:10:56.93	139.82	64.82	-33.2	-34.0	25.6	0.00e+00	121	28	0	1125122048	40	5565
2026-01-27 00:11:00.84	138.57	66.47	-33.1	-33.9	25.7	0.00e+00	124	28	0	1136656384	40	5503
2026-01-27 00:11:04.77	137.10	68.16	-32.4	-33.2	26.1	0.00e+00	122	28	0	1149239296	38	5665
2026-01-27 00:11:08.68	135.36	69.86	-33.4	-34.3	25.5	0.00e+00	122	28	0	1161822208	38	6441
2026-01-27 00:11:12.60	133.26	71.57	-33.5	-34.3	25.3	0.00e+00	123	28	0	1173356544	40	5782
2026-01-27 00:11:16.51	130.72	73.27	-33.1	-33.9	25.8	0.00e+00	124	28	0	1185939456	40	5508
2026-01-27 00:11:20.43	127.55	74.97	-33.3	-34.1	25.6	0.00e+00	121	28	0	1198522368	40	5656
2026-01-27 00:11:24.35	123.55	76.63	-33.1	-33.9	25.4	0.00e+00	123	28	0	1210056704	40	5519
2026-01-27 00:11:28.26	118.42	78.22	-33.8	-34.7	25.3	0.00e+00	121	28	0	1222639616	40	5996
2026-01-27 00:11:32.18	111.69	79.71	-34.2	-35.1	24.8	0.00e+00	122	28	0	1235222528	40	6282
2026-01-27 00:11:36.09	102.82	81.01	-33.6	-34.4	25.3	0.00e+00	122	28	0	1247805440	40	5840
2026-01-27 00:11:40.00	91.26	82.05	-33.7	-34.6	25.3	0.00e+00	124	28	0	1259339776	40	5960
2026-01-27 00:11:43.91	76.99	82.68	-33.8	-34.7	25.2	0.00e+00	121	28	0	1271922688	40	6017
2026-01-27 00:11:47.83	61.15	82.80	-34.1	-34.9	25.1	0.00e+00	123	28	0	1284505600	40	6202
2026-01-27 00:11:51.75	45.96	82.37	-33.9	-34.7	25.3	0.00e+00	120	28	0	1296039936	40	6054
2026-01-27 00:11:55.67	33.17	81.49	-33.7	-34.6	25.3	0.00e+00	120	28	0	1308622848	40	5933
2026-01-27 00:11:59.58	23.21	80.29	-33.7	-34.6	25.1	0.00e+00	121	28	0	1321205760	40	5927
2026-01-27 00:12:03.50	15.64	78.87	-33.8	-34.7	25.1	0.00e+00	123	28	0	1332740096	42	5346
2026-01-27 00:12:07.43	9.88	77.31	-33.5	-34.4	25.4	0.00e+00	122	28	0	1345323008	40	5803
2026-01-27 00:12:11.34	5.46	75.68	-33.2	-34.0	25.6	0.00e+00	121	28	0	1357905920	40	5569
2026-01-27 00:12:15.26	1.98	74.00	-33.3	-34.2	25.2	0.00e+00	122	28	0	1369440256	40	5682
2026-01-27 00:12:19.18	359.19	72.29	-33.7	-34.6	25.2	0.00e+00	121	28	0	1382023168	40	5931
2026-01-27 00:12:23.10	356.92	70.59	-32.4	-33.3	25.5	0.00e+00	123	28	0	1394606080	38	5739
2026-01-27 00:12:27.01	355.05	68.89	-34.8	-35.8	24.5	0.00e+00	122	28	0	1406140416	42	6080
2026-01-27 00:12:30.93	353.47	67.20	-32.8	-33.7	25.7	0.00e+00	124	28	0	1418723328	40	5346
2026-01-27 00:12:34.85	352.13	65.53	-33.9	-34.8	24.8	0.00e+00	120	28	0	1431306240	40	6073
2026-01-27 00:12:38.76	350.99	63.89	-32.2	-32.9	26.3	0.00e+00	121	28	0	1442840576	38	5519
2026-01-27 00:12:42.67	349.99	62.28	-34.6	-35.5	24.5	0.00e+00	122	28	0	1455423488	40	6599
2026-01-27 00:12:46.59	349.12	60.69	-32.9	-33.7	25.7	0.00e+00	122	28	0	1468006400	40	5396
2026-01-27 00:12:50.53	348.34	59.13	-33.6	-34.5	24.8	0.00e+00	125	28	0	1479540736	38	6602
2026-01-27 00:12:54.46	347.66	57.61	-34.2	-35.1	24.4	0.00e+00	122	28	0	1492123648	42	5622
2026-01-27 00:12:58.36	347.05	56.14	-34.0	-34.8	25.1	0.00e+00	123	28	0	1504706560	40	6103
2026-01-27 00:13:02.29	346.50	54.69	-36.1	-37.1	23.3	0.00e+00	122	28	0	1516240896	44	6295
2026-01-27 00:13:06.21	346.01	53.28	-35.4	-36.4	22.9	0.00e+00	120	28	0	1528823808	44	5802
2026-01-27 00:13:10.13	345.56	51.90	-35.3	-36.2	24.1	0.00e+00	122	28	0	1541406720	44	5670
2026-01-27 00:13:14.04	345.16	50.57	-36.8	-37.7	23.0	0.00e+00	122	28	0	1552941056	46	6052
2026-01-27 00:13:17.96	344.79	49.27	-37.7	-38.7	21.9	0.00e+00	122	28	0	1565523968	48	6048
2026-01-27 00:13:21.88	344.45	48.00	-36.5	-37.5	22.8	0.00e+00	120	28	0	1578106880	46	5872
2026-01-27 00:13:25.80	344.13	46.77	-37.0	-38.0	22.6	0.00e+00	120	28	0	1589641216	46	6211
2026-01-27 00:13:29.73	343.84	45.58	-38.2	-39.3	21.5	0.00e+00	121	28	0	1602224128	48	6433
2026-01-27 00:13:33.64	343.58	44.42	-38.6	-39.7	21.0	0.00e+00	123	28	0	1614807040	48	6763
2026-01-27 00:13:37.55	343.33	43.29	-37.2	-38.3	22.1	0.00e+00	122	28	0	1626341376	48	5748
2026-01-27 00:13:41.47	343.10	42.20	-35.6	-36.5	23.9	0.00e+00	120	28	0	1638924288	44	5863
2026-01-27 00:13:45.39	342.89	41.13	-37.7	-38.8	22.0	0.00e+00	123	28	0	1651507200	46	6807
2026-01-27 00:13:49.29	342.69	40.10	-37.9	-39.0	21.8	0.00e+00	122	28	0	1663041536	48	6238
2026-01-27 00:13:53.20	342.50	39.10	-37.3	-38.4	22.2	0.00e+00	123	28	0	1675624448	48	5802
2026-01-27 00:13:57.11	342.33	38.12	-36.8	-37.8	22.8	0.00e+00	123	28	0	1688207360	48	5442
2026-01-27 00:14:01.03	342.17	37.17	-36.3	-37.3	23.2	0.00e+00	123	28	0	1699741696	46	5760
2026-01-27 00:14:04.96	342.01	36.24	-35.6	-36.5	23.8	0.00e+00	121	28	0	1712324608	44	5883
2026-01-27 00:14:08.88	341.87	35.34	-35.8	-36.7	23.5	0.00e+00	123	28	0	1724907520	44	6026
2026-01-27 00:14:12.79	341.73	34.47	-35.4	-36.3	23.9	0.00e+00	124	28	0	1736441856	44	5763
2026-01-27 00:14:16.71	341.60	33.62	-35.0	-35.9	24.2	0.00e+00	119	28	0	1749024768	44	5516
2026-01-27 00:14:20.62	341.48	32.79	-34.8	-35.7	24.5	0.00e+00	125	28	0	1761607680	44	5372
2026-01-27 00:14:24.54	341.37	31.99	-35.2	-36.1	24.1	0.00e+00	124	28	0	1774190592	44	5626
2026-01-27 00:14:28.46	341.26	31.20	-35.2	-36.1	24.1	0.00e+00	124	28	0	1785724928	44	5619
2026-01-27 00:14:32.38	341.16	30.44	-35.0	-35.9	24.1	0.00e+00	123	28	0	1798307840	44	5530
2026-01-27 00:14:36.30	341.06	29.69	-35.1	-36.0	24.1	0.00e+00	122	28	0	1810890752	44	5570
2026-01-27 00:14:40.24	340.97	28.96	-34.8	-35.7	24.2	0.00e+00	123	28	0	1822425088	44	5368
2026-01-27 00:14:44.16	340.88	28.26	-34.5	-35.5	24.1	0.00e+00	122	28	0	1835008000	42	5867
2026-01-27 00:14:48.06	340.80	27.57	-34.4	-35.4	23.7	0.00e+00	122	28	0	1847590912	42	5800
2026-01-27 00:14:51.98	340.72	26.90	-34.6	-35.6	23.4	0.00e+00	123	28	0	1859125248	42	5947
2026-01-27 00:14:55.89	340.65	26.24	-34.6	-35.5	23.8	0.00e+00	122	28	0	1871708160	42	5905
2026-01-27 00:14:59.81	340.57	25.60	-34.4	-35.3	24.1	0.00e+00	121	28	0	1884291072	42	5788
2026-01-27 00:15:03.73	340.51	24.98	-34.3	-35.2	24.4	0.00e+00	123	28	0	1895825408	42	5709
2026-01-27 00:15:07.65	340.44	24.36	-34.0	-34.9	24.8	0.00e+00	122	28	0	1908408320	42	5490
2026-01-27 00:15:11.57	340.38	23.77	-33.9	-34.8	25.0	0.00e+00	123	28	0	1920991232	42	5428
2026-01-27 00:15:15.50	340.32	23.18	-33.9	-34.7	25.0	0.00e+00	123	28	0	1932525568	42	5400
2026-01-27 00:15:19.42	340.27	22.61	-34.0	-34.9	25.0	0.00e+00	123	28	0	1945108480	42	5506
2026-01-27 00:15:23.35	340.21	22.05	-34.0	-34.8	25.0	0.00e+00	123	28	0	1957691392	42	5444
2026-01-27 00:15:27.27	340.16	21.50	-34.2	-35.1	24.7	0.00e+00	123	28	0	1970274304	42	5631
2026-01-27 00:15:31.20	340.11	20.97	-34.4	-35.2	24.6	0.00e+00	125	28	0	1981808640	42	5712
2026-01-27 00:15:35.11	340.07	20.44	-34.6	-35.5	24.4	0.00e+00	120	28	0	1994391552	42	5864
2026-01-27 00:15:39.04	340.02	19.93	-34.7	-35.7	24.3	0.00e+00	122	28	0	2006974464	42	6004
2026-01-27 00:15:42.96	339.98	19.42	-34.9	-35.8	24.2	0.00e+00	122	28	0	2018508800	42	6089
2026-01-27 00:15:46.88	339.94	18.93	-34.9	-35.8	24.1	0.00e+00	123	28	0	2031091712	42	6119
2026-01-27 00:15:50.78	339.90	18.45	-35.1	-36.0	24.0	0.00e+00	123	28	0	2043674624	42	6253
2026-01-27 00:15:54.69	339.86	17.98	-34.9	-35.8	24.2	0.00e+00	124	28	0	2055208960	42	6117
2026-01-27 00:15:58.61	339.83	17.51	-34.9	-35.8	24.2	0.00e+00	121	28	0	2067791872	42	6096
2026-01-27 00:16:02.52	339.79	17.06	-34.9	-35.8	24.1	0.00e+00	122	28	0	2080374784	42	6081
2026-01-27 00:16:06.44	339.76	16.61	-35.0	-35.9	23.9	0.00e+00	122	28	0	2091909120	42	6196
2026-01-27 00:16:10.36	339.73	16.17	-35.2	-36.1	23.7	0.00e+00	121	28	0	2104492032	42	6326
2026-01-27 00:16:14.28	339.70	15.74	-35.2	-36.2	23.7	0.00e+00	122	28	0	2117074944	42	6351
2026-01-27 00:16:18.21	339.67	15.31	-35.5	-36.4	23.4	0.00e+00	123	28	0	2128609280	42	6556
2026-01-27 00:16:22.14	339.64	14.89	-35.6	-36.5	23.6	0.00e+00	121	28	0	2141192192	42	6637
2026-01-27 00:16:26.08	339.62	14.48	-35.6	-36.5	23.5	0.00e+00	123	28	0	2153775104	42	6626
2026-01-27 00:16:30.00	339.59	14.08	-35.6	-36.5	23.4	0.00e+00	122	28	0	2165309440	44	5925
2026-01-27 00:16:33.92	339.57	13.68	-35.6	-36.6	23.4	0.00e+00	121	28	0	2177892352	44	5931
2026-01-27 00:16:37.85	339.55	13.29	-35.5	-36.5	23.5	0.00e+00	122	28	0	2190475264	44	5872
2026-01-27 00:16:41.78	339.53	12.90	-35.7	-36.6	23.3	0.00e+00	121	28	0	2203058176	44	5965
2026-01-27 00:16:45.69	339.51	12.52	-36.0	-36.9	23.0	0.00e+00	121	28	0	2214592512	44	6200
2026-01-27 00:16:49.60	339.49	12.15	-35.9	-36.8	23.2	0.00e+00	121	28	0	2227175424	44	6112
2026-01-27 00:16:53.53	339.47	11.78	-36.0	-36.9	23.1	0.00e+00	124	28	0	2239758336	44	6189
2026-01-27 00:16:57.45	339.45	11.42	-36.1	-37.1	22.9	0.00e+00	123	28	0	2251292672	44	6333
2026-01-27 00:17:01.36	339.43	11.07	-36.5	-37.5	22.6	0.00e+00	123	28	0	2263875584	44	6602
2026-01-27 00:17:05.29	339.42	10.71	-36.4	-37.4	22.6	0.00e+00	123	28	0	2276458496	44	6518
2026-01-27 00:17:09.21	339.40	10.37	-36.3	-37.4	22.6	0.00e+00	121	28	0	2287992832	44	6500
2026-01-27 00:17:13.13	339.39	10.03	-36.5	-37.5	22.4	0.00e+00	124	28	0	2300575744	44	6630
2026-01-27 00:17:17.04	339.37	9.69	-36.7	-37.7	22.3	0.00e+00	124	28	0	2313158656	44	6769
2026-01-27 00:17:20.96	339.36	9.36	-36.8	-37.8	22.2	0.00e+00	121	28	0	2324692992	46	6124
2026-01-27 00:17:24.88	339.35	9.03	-37.1	-38.2	21.8	0.00e+00	122	28	0	2337275904	46	6368
2026-01-27 00:17:28.80	339.33	8.71	-37.1	-38.2	21.8	0.00e+00	120	28	0	2349858816	46	6398
2026-01-27 00:17:32.71	339.32	8.39	-37.4	-38.5	21.5	0.00e+00	123	28	0	2361393152	46	6601
2026-01-27 00:17:36.62	339.31	8.07	-37.6	-38.7	21.3	0.00e+00	123	28	0	2373976064	46	6735
2026-01-27 00:17:40.54	339.30	7.76	-37.5	-38.6	21.4	0.00e+00	123	28	0	2386558976	48	5988
2026-01-27 00:17:44.46	339.29	7.45	-37.9	-39.0	21.1	0.00e+00	123	28	0	2398093312	48	6263
2026-01-27 00:17:48.38	339.28	7.15	-38.0	-39.1	20.9	0.00e+00	122	28	0	2410676224	48	6327
2026-01-27 00:17:52.28	339.27	6.85	-38.1	-39.3	20.7	0.00e+00	123	28	0	2423259136	48	6451
2026-01-27 00:17:56.19	339.27	6.55	-38.1	-39.2	20.6	0.00e+00	120	28	0	2434793472	48	6422
2026-01-27 00:18:00.12	339.26	6.26	-38.0	-39.2	20.6	0.00e+00	123	28	0	2447376384	48	6377
2026-01-27 00:18:04.07	339.25	5.96	-38.1	-39.3	20.5	0.00e+00	124	28	0	2459959296	48	6436
2026-01-27 00:18:08.06	339.25	5.67	-38.4	-39.7	19.9	0.00e+00	123	28	0	2472542208	48	6760
2026-01-27 00:18:12.07	339.24	5.38	-39.4	-40.8	18.5	0.00e+00	122	28	0	2485125120	50	6842
2026-01-27 00:18:16.10	339.23	5.09	-40.4	-42.2	16.3	0.00e+00	122	28	0	2497708032	52	7179
2026-01-27 00:18:20.09	339.23	4.81	-42.0	-44.7	13.1	3.12e-05	123	28	0	2509242368	56	7632
2026-01-27 00:18:24.09	339.22	4.53	-43.2	-47.6	9.0	1.82e-02	123	28	0	2521825280	58	9470
2026-01-27 00:18:28.08	339.22	4.25	-43.9	-51.6	5.6	7.04e-01	123	28	104	2532311040	60	13365
2026-01-27 00:18:32.06	339.21	3.98	-44.2	-54.0	4.1	1.46e+00	0	28	104	2532311040	60	17637
2026-01-27 00:18:36.04	339.21	3.71	-44.2	-56.7	3.5	1.51e+00	0	28	104	2532311040	60	24125
2026-01-27 00:18:40.02	339.21	3.44	-44.2	-56.5	3.5	1.52e+00	0	28	104	2532311040	60	23536
2026-01-27 00:18:44.00	339.21	3.17	-44.3	-57.1	3.5	1.52e+00	0	28	104	2532311040	60	25202
2026-01-27 00:18:47.95	339.20	2.91	-47.4	-60.1	3.5	1.51e+00	0	28	104	2532311040	60	35668
2026-01-27 00:18:51.90	339.20	2.65	-49.0	-61.8	3.5	1.52e+00	0	28	104	2532311040	60	43298
2026-01-27 00:18:55.85	339.20	2.39	-49.2	-62.1	3.5	1.52e+00	0	28	104	2532311040	60	44781
2026-01-27 00:18:59.88	339.20	2.14	-49.2	-62.1	3.5	1.52e+00	0	28	104	2532311040	60	44636
2026-01-27 00:19:03.88	339.20	1.88	-49.1	-62.0	3.5	1.52e+00	0	28	104	2532311040	60	44272
2026-01-27 00:19:07.92	339.20	1.62	-49.1	-61.9	3.5	1.52e+00	0	28	104	2532311040	60	43735
2026-01-27 00:19:11.91	339.20	1.37	-49.1	-62.0	3.5	1.52e+00	0	28	104	2532311040	60	44008
2026-01-27 00:19:15.91	339.20	1.13	-49.2	-62.0	3.5	1.52e+00	0	28	104	2532311040	60	44255
2026-01-27 00:19:19.90	339.20	0.88	-49.1	-62.0	3.5	1.52e+00	0	28	104	2532311040	60	44076
2026-01-27 00:19:23.88	339.20	0.64	-49.2	-62.0	3.5	1.51e+00	0	28	104	2532311040	60	44304
2026-01-27 00:19:27.88	339.20	0.39	-49.1	-62.0	3.5	1.52e+00	0	28	104	2532311040	60	44173
2026-01-27 00:19:31.90	339.20	0.15	-49.2	-62.1	3.5	1.52e+00	0	28	104	2532311040	60	44502
2026-01-27 00:19:35.94	339.20	-0.09	-49.1	-62.0	3.5	1.52e+00	0	28	104	2532311040	60	44162

#Closed at: 2026-01-27 00:19:36
#Recorded file [2532 MB]: D:/lorett/data/35029_260127_120405.dat