passes_logs/2026/01/27/R4.6S_Anadyr/R4.6S_Anadyr__20260127_032905_NOAA_21_JPSS-2_rec.log

#Pass ID: 20260127_032905_NOAA 21 (JPSS-2)
#Satellite: NOAA 21 (JPSS-2)
#Configuration: NOAA-21
#almurnet v.1.7.20251203
#Start time: 2026-01-27 03:29:07

#Version: 2.2.20231116
#Station: R4.6S_Anadyr
#Location: 177.4865 lon 64.73178 lat
#TLE: 1 54234U 22150A   26026.43130734  .00000179  00000+0  10559-3 0  9998
#TLE: 2 54234  98.7509 327.1934 0000805 209.8356 150.2774 14.19539635166435

#Time	Az	El	Level	Level2	SNR	BER	BlckErr	Temp	State	Recorded	gain1	gain2
2026-01-27 03:29:07.28	245.31	0.07	-48.9	-60.5	3.5	8.47e-01	0	28	0	0	60	38483
2026-01-27 03:29:10.31	245.61	0.19	-48.8	-61.9	3.5	1.52e+00	0	30	104	0	60	43579
2026-01-27 03:29:13.34	245.91	0.31	-48.7	-61.9	3.5	1.52e+00	0	30	104	0	60	43612
2026-01-27 03:29:16.37	246.20	0.42	-49.1	-62.0	3.5	1.52e+00	0	30	104	0	60	44049
2026-01-27 03:29:19.40	246.51	0.54	-49.2	-62.0	3.5	1.52e+00	0	30	104	0	60	44360
2026-01-27 03:29:22.43	246.81	0.66	-49.2	-62.1	3.5	1.52e+00	0	30	104	0	60	44599
2026-01-27 03:29:25.46	247.12	0.78	-49.1	-62.0	3.5	1.52e+00	0	30	104	0	60	44061
2026-01-27 03:29:28.49	247.43	0.90	-49.0	-61.8	3.5	1.51e+00	0	30	104	0	60	43264
2026-01-27 03:29:31.52	247.74	1.02	-48.2	-61.0	3.5	1.52e+00	0	30	104	0	60	39452
2026-01-27 03:29:34.55	248.05	1.14	-47.6	-60.4	3.5	1.51e+00	0	30	104	0	60	36961
2026-01-27 03:29:37.58	248.37	1.25	-47.6	-60.3	3.5	1.52e+00	0	30	104	0	60	36421
2026-01-27 03:29:40.61	248.68	1.37	-47.6	-60.4	3.5	1.52e+00	0	30	104	0	60	36605
2026-01-27 03:29:43.63	249.00	1.49	-47.6	-60.4	3.5	1.52e+00	0	30	104	0	60	36794
2026-01-27 03:29:46.66	249.33	1.61	-47.6	-60.3	3.5	1.51e+00	0	30	104	0	60	36474
2026-01-27 03:29:49.69	249.65	1.72	-47.6	-60.3	3.5	1.52e+00	0	30	104	0	60	36527
2026-01-27 03:29:52.72	249.98	1.84	-47.6	-60.4	3.5	1.51e+00	0	30	104	0	60	36677
2026-01-27 03:29:55.75	250.31	1.96	-47.6	-60.3	3.5	1.52e+00	0	30	104	0	60	36385
2026-01-27 03:29:58.78	250.64	2.07	-47.6	-60.3	3.5	1.52e+00	0	30	104	0	60	36426
2026-01-27 03:30:01.81	250.98	2.19	-47.6	-60.4	3.5	1.52e+00	0	30	104	0	60	36599
2026-01-27 03:30:04.83	251.32	2.30	-47.6	-60.4	3.5	1.52e+00	0	30	104	0	60	36709
2026-01-27 03:30:07.86	251.66	2.42	-47.6	-60.3	3.5	1.52e+00	0	30	104	0	60	36391
2026-01-27 03:30:10.89	252.00	2.53	-47.5	-60.2	3.5	1.51e+00	0	30	104	0	60	35869
2026-01-27 03:30:13.92	252.35	2.65	-47.6	-60.2	3.5	1.51e+00	0	30	104	0	60	36033
2026-01-27 03:30:16.95	252.69	2.76	-47.5	-59.5	3.5	1.51e+00	0	31	104	0	60	33201
2026-01-27 03:30:19.98	253.04	2.88	-47.2	-56.9	3.7	1.51e+00	0	31	104	0	60	24656
2026-01-27 03:30:23.01	253.40	2.99	-45.9	-50.6	8.4	4.69e-02	122	30	0	6291456	60	11860
2026-01-27 03:30:26.04	253.75	3.10	-47.3	-59.3	3.5	1.44e+00	0	30	104	11534336	60	32454
2026-01-27 03:30:29.06	254.11	3.21	-44.8	-48.2	10.7	6.63e-05	123	30	0	15728640	60	9006
2026-01-27 03:30:32.09	254.47	3.33	-39.4	-40.7	19.1	0.00e+00	122	30	0	25165824	52	6010
2026-01-27 03:30:35.12	254.84	3.44	-38.1	-39.3	20.3	0.00e+00	123	30	0	35651584	50	5771
2026-01-27 03:30:38.15	255.20	3.55	-39.4	-40.7	19.1	0.00e+00	123	30	0	45088768	50	6745
2026-01-27 03:30:41.18	255.57	3.66	-38.9	-40.2	19.6	0.00e+00	123	30	0	54525952	50	6359
2026-01-27 03:30:44.20	255.94	3.77	-38.3	-39.5	20.2	0.00e+00	122	30	0	63963136	50	5865
2026-01-27 03:30:47.24	256.32	3.88	-38.6	-39.8	19.9	0.00e+00	123	30	0	73400320	50	6098
2026-01-27 03:30:50.27	256.69	3.99	-38.3	-39.5	20.2	0.00e+00	120	30	0	82837504	50	5866
2026-01-27 03:30:53.30	257.07	4.10	-39.1	-40.4	19.5	0.00e+00	123	30	0	92274688	50	6542
2026-01-27 03:30:56.33	257.46	4.20	-38.6	-39.8	20.1	0.00e+00	121	30	0	101711872	50	6105
2026-01-27 03:30:59.36	257.84	4.31	-38.4	-39.6	20.2	0.00e+00	122	30	0	111149056	50	5932
2026-01-27 03:31:02.39	258.23	4.42	-38.5	-39.7	20.2	0.00e+00	120	30	0	120586240	50	6019
2026-01-27 03:31:05.42	258.62	4.52	-38.2	-39.4	20.3	0.00e+00	123	31	0	130023424	50	5823
2026-01-27 03:31:08.45	259.01	4.63	-38.4	-39.6	20.3	0.00e+00	123	31	0	139460608	50	5931
2026-01-27 03:31:11.48	259.41	4.73	-37.9	-39.0	20.7	0.00e+00	122	30	0	148897792	50	5587
2026-01-27 03:31:14.51	259.81	4.84	-38.2	-39.4	20.5	0.00e+00	122	30	0	158334976	50	5822
2026-01-27 03:31:17.54	260.21	4.94	-38.2	-39.4	20.4	0.00e+00	123	30	0	167772160	50	5826
2026-01-27 03:31:20.57	260.61	5.04	-38.1	-39.2	20.7	0.00e+00	121	30	0	177209344	50	5701
2026-01-27 03:31:23.60	261.02	5.14	-38.5	-39.7	20.3	0.00e+00	123	30	0	186646528	50	6020
2026-01-27 03:31:26.63	261.43	5.25	-37.9	-39.0	20.9	0.00e+00	123	30	0	196083712	50	5577
2026-01-27 03:31:29.66	261.84	5.34	-37.9	-39.0	20.9	0.00e+00	120	30	0	205520896	48	6250
2026-01-27 03:31:32.69	262.26	5.44	-37.7	-38.8	21.1	0.00e+00	123	31	0	214958080	48	6120
2026-01-27 03:31:35.72	262.67	5.54	-37.7	-38.8	21.1	0.00e+00	123	30	0	224395264	48	6072
2026-01-27 03:31:38.74	263.09	5.64	-37.4	-38.5	21.4	0.00e+00	122	30	0	233832448	48	5885
2026-01-27 03:31:41.77	263.52	5.74	-37.8	-38.9	21.0	0.00e+00	123	31	0	243269632	48	6160
2026-01-27 03:31:44.80	263.94	5.83	-37.6	-38.7	21.3	0.00e+00	123	31	0	252706816	48	5998
2026-01-27 03:31:47.83	264.37	5.92	-37.6	-38.7	21.3	0.00e+00	122	30	0	262144000	48	5996
2026-01-27 03:31:50.86	264.80	6.02	-37.8	-38.8	21.3	0.00e+00	123	30	0	271581184	48	6131
2026-01-27 03:31:53.89	265.24	6.11	-37.2	-38.3	21.7	0.00e+00	120	30	0	281018368	48	5756
2026-01-27 03:31:56.92	265.67	6.20	-37.3	-38.3	21.6	0.00e+00	123	31	0	290455552	48	5767
2026-01-27 03:31:59.95	266.11	6.29	-37.4	-38.5	21.5	0.00e+00	122	31	0	299892736	48	5890
2026-01-27 03:32:02.98	266.55	6.38	-37.5	-38.6	21.4	0.00e+00	122	30	0	309329920	48	5936
2026-01-27 03:32:06.01	267.00	6.47	-37.5	-38.6	21.4	0.00e+00	123	31	0	318767104	48	5940
2026-01-27 03:32:09.05	267.44	6.56	-37.3	-38.3	21.6	0.00e+00	123	30	0	329252864	48	5780
2026-01-27 03:32:12.08	267.89	6.64	-37.3	-38.3	21.6	0.00e+00	122	30	0	337641472	48	5787
2026-01-27 03:32:15.10	268.34	6.73	-37.2	-38.3	21.7	0.00e+00	123	31	0	348127232	48	5740
2026-01-27 03:32:18.13	268.80	6.81	-37.2	-38.2	21.7	0.00e+00	122	31	0	356515840	48	5718
2026-01-27 03:32:21.16	269.25	6.89	-37.2	-38.3	21.7	0.00e+00	123	31	0	367001600	48	5740
2026-01-27 03:32:24.19	269.71	6.97	-37.2	-38.3	21.8	0.00e+00	122	31	0	376438784	48	5737
2026-01-27 03:32:27.22	270.17	7.05	-37.2	-38.3	21.8	0.00e+00	122	31	0	385875968	48	5733
2026-01-27 03:32:30.25	270.64	7.13	-37.1	-38.2	21.9	0.00e+00	122	31	0	395313152	48	5661
2026-01-27 03:32:33.28	271.10	7.21	-37.2	-38.3	21.7	0.00e+00	123	31	0	404750336	48	5763
2026-01-27 03:32:36.31	271.57	7.28	-37.2	-38.3	21.9	0.00e+00	122	30	0	414187520	48	5736
2026-01-27 03:32:39.34	272.04	7.35	-37.1	-38.2	21.8	0.00e+00	123	31	0	423624704	48	5682
2026-01-27 03:32:42.37	272.52	7.43	-37.0	-38.0	22.0	0.00e+00	123	31	0	433061888	48	5586
2026-01-27 03:32:45.41	272.99	7.50	-36.8	-37.8	22.2	0.00e+00	120	31	0	442499072	48	5444
2026-01-27 03:32:48.43	273.47	7.57	-36.9	-37.9	22.2	0.00e+00	123	31	0	451936256	48	5486
2026-01-27 03:32:51.47	273.95	7.63	-36.9	-38.0	22.1	0.00e+00	120	30	0	461373440	48	5540
2026-01-27 03:32:54.49	274.43	7.70	-37.2	-38.2	21.8	0.00e+00	123	31	0	470810624	48	5702
2026-01-27 03:32:57.53	274.92	7.77	-36.9	-38.0	22.1	0.00e+00	120	31	0	480247808	48	5532
2026-01-27 03:33:00.56	275.40	7.83	-36.8	-37.8	22.2	0.00e+00	123	30	0	489684992	48	5433
2026-01-27 03:33:03.59	275.89	7.89	-36.8	-37.8	22.2	0.00e+00	120	31	0	499122176	46	6090
2026-01-27 03:33:06.62	276.38	7.95	-37.0	-38.1	22.0	0.00e+00	122	31	0	508559360	46	6286
2026-01-27 03:33:09.65	276.87	8.01	-37.2	-38.2	22.1	0.00e+00	123	31	0	517996544	46	6396
2026-01-27 03:33:12.68	277.37	8.07	-37.0	-38.1	22.1	0.00e+00	123	31	0	527433728	46	6278
2026-01-27 03:33:15.71	277.86	8.12	-37.1	-38.1	22.1	0.00e+00	123	31	0	536870912	46	6313
2026-01-27 03:33:18.74	278.36	8.17	-37.0	-38.0	22.2	0.00e+00	122	31	0	546308096	46	6230
2026-01-27 03:33:21.77	278.86	8.23	-36.8	-37.8	22.3	0.00e+00	122	31	0	555745280	46	6119
2026-01-27 03:33:24.80	279.36	8.28	-36.7	-37.7	22.4	0.00e+00	122	31	0	565182464	46	6008
2026-01-27 03:33:27.83	279.86	8.32	-36.9	-37.9	22.2	0.00e+00	122	31	0	574619648	46	6168
2026-01-27 03:33:30.85	280.36	8.37	-37.0	-38.0	22.1	0.00e+00	120	31	0	584056832	46	6227
2026-01-27 03:33:33.88	280.87	8.41	-37.1	-38.1	22.0	0.00e+00	123	31	0	593494016	46	6330
2026-01-27 03:33:36.91	281.37	8.46	-37.0	-38.0	22.2	0.00e+00	122	31	0	602931200	46	6264
2026-01-27 03:33:39.94	281.88	8.50	-36.8	-37.8	22.4	0.00e+00	123	31	0	612368384	46	6117
2026-01-27 03:33:42.97	282.39	8.54	-36.9	-37.9	22.2	0.00e+00	123	31	0	621805568	46	6145
2026-01-27 03:33:46.00	282.90	8.57	-36.8	-37.8	22.3	0.00e+00	123	31	0	631242752	46	6111
2026-01-27 03:33:49.03	283.41	8.61	-36.8	-37.8	22.4	0.00e+00	123	31	0	640679936	46	6108
2026-01-27 03:33:52.06	283.93	8.64	-36.8	-37.8	22.3	0.00e+00	122	31	0	650117120	46	6111
2026-01-27 03:33:55.09	284.44	8.67	-37.0	-38.1	22.1	0.00e+00	123	31	0	659554304	46	6288
2026-01-27 03:33:58.12	284.95	8.70	-36.9	-38.0	22.1	0.00e+00	120	31	0	670040064	46	6210
2026-01-27 03:34:01.15	285.47	8.73	-36.9	-37.9	22.3	0.00e+00	123	31	0	679477248	46	6190
2026-01-27 03:34:04.18	285.99	8.75	-36.7	-37.7	22.4	0.00e+00	123	31	0	688914432	46	6002
2026-01-27 03:34:07.21	286.50	8.78	-36.7	-37.7	22.3	0.00e+00	123	31	0	698351616	46	6048
2026-01-27 03:34:10.24	287.02	8.80	-36.7	-37.8	22.4	0.00e+00	123	31	0	707788800	46	6066
2026-01-27 03:34:13.27	287.54	8.82	-37.0	-38.0	22.2	0.00e+00	123	31	0	717225984	46	6231
2026-01-27 03:34:16.30	288.06	8.83	-36.8	-37.8	22.2	0.00e+00	120	31	0	726663168	46	6126
2026-01-27 03:34:19.33	288.58	8.85	-36.7	-37.7	22.3	0.00e+00	120	31	0	736100352	46	6013
2026-01-27 03:34:22.36	289.10	8.86	-36.8	-37.8	22.2	0.00e+00	123	31	0	745537536	46	6111
2026-01-27 03:34:25.39	289.62	8.87	-36.8	-37.8	22.3	0.00e+00	122	31	0	754974720	46	6087
2026-01-27 03:34:28.42	290.14	8.88	-36.8	-37.8	22.2	0.00e+00	123	31	0	764411904	46	6125
2026-01-27 03:34:31.45	290.67	8.89	-36.8	-37.8	22.2	0.00e+00	122	31	0	773849088	46	6092
2026-01-27 03:34:34.48	291.19	8.89	-36.9	-37.9	22.2	0.00e+00	123	31	0	783286272	46	6163
2026-01-27 03:34:37.51	291.71	8.90	-36.7	-37.7	22.4	0.00e+00	123	31	0	792723456	46	6064
2026-01-27 03:34:40.54	292.23	8.90	-36.6	-37.7	22.4	0.00e+00	122	31	0	802160640	46	6003
2026-01-27 03:34:43.57	292.75	8.90	-36.8	-37.8	22.2	0.00e+00	120	31	0	811597824	46	6082
2026-01-27 03:34:46.59	293.27	8.89	-36.8	-37.9	22.3	0.00e+00	120	31	0	821035008	46	6142
2026-01-27 03:34:49.63	293.80	8.89	-36.5	-37.5	22.5	0.00e+00	120	31	0	830472192	46	5918
2026-01-27 03:34:52.66	294.32	8.88	-36.8	-37.8	22.3	0.00e+00	120	31	0	839909376	46	6094
2026-01-27 03:34:55.69	294.84	8.87	-36.8	-37.8	22.3	0.00e+00	120	31	0	849346560	46	6115
2026-01-27 03:34:58.72	295.36	8.86	-36.8	-37.8	22.3	0.00e+00	122	31	0	858783744	46	6130
2026-01-27 03:35:01.75	295.88	8.85	-36.6	-37.6	22.4	0.00e+00	120	31	0	868220928	46	5977
2026-01-27 03:35:04.78	296.40	8.83	-36.5	-37.5	22.5	0.00e+00	120	31	0	877658112	46	5871
2026-01-27 03:35:07.81	296.92	8.81	-36.5	-37.5	22.6	0.00e+00	123	31	0	887095296	46	5877
2026-01-27 03:35:10.84	297.44	8.79	-36.4	-37.4	22.6	0.00e+00	122	31	0	896532480	46	5813
2026-01-27 03:35:13.87	297.95	8.77	-36.6	-37.6	22.5	0.00e+00	122	31	0	905969664	46	5961
2026-01-27 03:35:16.90	298.47	8.75	-36.5	-37.4	22.6	0.00e+00	123	31	0	915406848	46	5854
2026-01-27 03:35:19.93	298.99	8.72	-36.5	-37.5	22.6	0.00e+00	122	31	0	924844032	46	5869
2026-01-27 03:35:22.96	299.50	8.70	-36.4	-37.4	22.6	0.00e+00	122	31	0	934281216	46	5854
2026-01-27 03:35:25.99	300.01	8.67	-36.5	-37.5	22.5	0.00e+00	121	31	0	943718400	46	5910
2026-01-27 03:35:29.02	300.53	8.64	-36.5	-37.5	22.5	0.00e+00	123	31	0	953155584	46	5875
2026-01-27 03:35:32.05	301.04	8.60	-36.6	-37.6	22.5	0.00e+00	122	31	0	963641344	46	5940
2026-01-27 03:35:35.08	301.55	8.57	-36.6	-37.6	22.5	0.00e+00	123	31	0	972029952	46	5935
2026-01-27 03:35:38.11	302.06	8.53	-36.5	-37.5	22.6	0.00e+00	122	31	0	982515712	46	5872
2026-01-27 03:35:41.14	302.57	8.49	-36.5	-37.5	22.5	0.00e+00	123	31	0	990904320	46	5915
2026-01-27 03:35:44.18	303.08	8.45	-36.6	-37.6	22.5	0.00e+00	122	31	0	1001390080	46	5946
2026-01-27 03:35:47.21	303.58	8.41	-36.7	-37.7	22.4	0.00e+00	122	31	0	1010827264	46	6005
2026-01-27 03:35:50.24	304.08	8.36	-36.8	-37.9	22.3	0.00e+00	123	31	0	1020264448	46	6151
2026-01-27 03:35:53.27	304.59	8.32	-36.8	-37.8	22.3	0.00e+00	122	31	0	1029701632	46	6109
2026-01-27 03:35:56.30	305.09	8.27	-37.1	-38.2	21.9	0.00e+00	120	31	0	1039138816	46	6354
2026-01-27 03:35:59.33	305.59	8.22	-37.1	-38.2	22.0	0.00e+00	123	31	0	1048576000	46	6395
2026-01-27 03:36:02.36	306.08	8.17	-37.2	-38.3	21.8	0.00e+00	122	31	0	1058013184	46	6455
2026-01-27 03:36:05.39	306.58	8.11	-37.1	-38.2	21.9	0.00e+00	123	31	0	1067450368	46	6375
2026-01-27 03:36:08.42	307.07	8.06	-37.2	-38.3	21.8	0.00e+00	123	31	0	1076887552	46	6452
2026-01-27 03:36:11.45	307.57	8.00	-37.2	-38.2	21.9	0.00e+00	123	31	0	1086324736	46	6409
2026-01-27 03:36:14.49	308.06	7.94	-37.1	-38.1	21.8	0.00e+00	123	31	0	1095761920	46	6330
2026-01-27 03:36:17.52	308.55	7.88	-37.1	-38.2	21.8	0.00e+00	122	31	0	1105199104	46	6375
2026-01-27 03:36:20.54	309.03	7.82	-37.1	-38.1	22.0	0.00e+00	121	31	0	1114636288	46	6319
2026-01-27 03:36:23.57	309.51	7.76	-37.0	-38.1	21.9	0.00e+00	121	31	0	1124073472	46	6302
2026-01-27 03:36:26.59	309.99	7.69	-36.9	-37.9	22.1	0.00e+00	122	31	0	1133510656	46	6163
2026-01-27 03:36:29.62	310.47	7.63	-36.8	-37.8	22.1	0.00e+00	124	31	0	1142947840	46	6124
2026-01-27 03:36:32.65	310.95	7.56	-37.0	-38.0	22.0	0.00e+00	122	31	0	1152385024	46	6269
2026-01-27 03:36:35.68	311.43	7.49	-37.1	-38.2	21.9	0.00e+00	123	31	0	1161822208	46	6355
2026-01-27 03:36:38.71	311.90	7.42	-37.0	-38.0	22.1	0.00e+00	121	31	0	1171259392	46	6253
2026-01-27 03:36:41.74	312.37	7.35	-37.2	-38.2	21.9	0.00e+00	122	31	0	1180696576	46	6392
2026-01-27 03:36:44.77	312.84	7.27	-37.2	-38.2	21.7	0.00e+00	123	31	0	1190133760	46	6413
2026-01-27 03:36:47.80	313.31	7.20	-37.2	-38.2	21.8	0.00e+00	122	31	0	1199570944	46	6419
2026-01-27 03:36:50.82	313.77	7.12	-37.2	-38.2	21.9	0.00e+00	123	31	0	1209008128	46	6387
2026-01-27 03:36:53.78	314.22	7.05	-36.9	-37.9	22.1	0.00e+00	122	31	0	1218445312	46	6191
2026-01-27 03:36:56.81	314.68	6.97	-37.0	-38.0	21.9	0.00e+00	122	31	0	1227882496	46	6244
2026-01-27 03:36:59.84	315.14	6.89	-37.0	-38.1	21.8	0.00e+00	123	31	0	1237319680	46	6291
2026-01-27 03:37:02.86	315.59	6.81	-37.1	-38.1	21.8	0.00e+00	123	31	0	1246756864	46	6345
2026-01-27 03:37:05.89	316.04	6.72	-37.0	-38.1	21.9	0.00e+00	123	31	0	1256194048	46	6294
2026-01-27 03:37:08.93	316.49	6.64	-37.0	-38.0	21.9	0.00e+00	123	31	0	1265631232	46	6245
2026-01-27 03:37:11.96	316.94	6.56	-37.1	-38.2	21.7	0.00e+00	123	31	0	1275068416	46	6377
2026-01-27 03:37:14.98	317.38	6.47	-37.4	-38.5	21.4	0.00e+00	123	31	0	1284505600	46	6603
2026-01-27 03:37:18.02	317.83	6.38	-37.5	-38.6	21.4	0.00e+00	122	31	0	1294991360	46	6715
2026-01-27 03:37:21.05	318.27	6.29	-37.4	-38.5	21.4	0.00e+00	123	31	0	1304428544	46	6603
2026-01-27 03:37:24.08	318.70	6.20	-37.0	-38.0	21.8	0.00e+00	123	31	0	1313865728	46	6261
2026-01-27 03:37:27.11	319.14	6.11	-37.1	-38.1	21.7	0.00e+00	123	31	0	1323302912	46	6344
2026-01-27 03:37:30.14	319.57	6.02	-37.1	-38.2	21.7	0.00e+00	122	31	0	1332740096	46	6363
2026-01-27 03:37:33.17	320.00	5.93	-37.6	-38.7	21.4	0.00e+00	120	31	0	1342177280	46	6800
2026-01-27 03:37:36.20	320.43	5.84	-37.7	-38.8	21.1	0.00e+00	123	31	0	1351614464	46	6864
2026-01-27 03:37:39.23	320.85	5.74	-37.7	-38.9	21.0	0.00e+00	123	31	0	1361051648	48	6155
2026-01-27 03:37:42.26	321.27	5.65	-37.5	-38.6	21.3	0.00e+00	122	31	0	1370488832	48	5964
2026-01-27 03:37:45.29	321.69	5.55	-37.4	-38.5	21.4	0.00e+00	123	31	0	1379926016	48	5870
2026-01-27 03:37:48.32	322.10	5.45	-37.4	-38.5	21.3	0.00e+00	123	31	0	1389363200	48	5904
2026-01-27 03:37:51.35	322.52	5.35	-37.7	-38.8	21.1	0.00e+00	122	31	0	1398800384	48	6122
2026-01-27 03:37:54.38	322.93	5.25	-37.8	-39.0	20.9	0.00e+00	120	31	0	1408237568	48	6211
2026-01-27 03:37:57.41	323.34	5.15	-38.0	-39.2	20.7	0.00e+00	122	31	0	1417674752	48	6351
2026-01-27 03:38:00.44	323.74	5.05	-37.8	-38.9	21.0	0.00e+00	122	31	0	1427111936	48	6176
2026-01-27 03:38:03.47	324.14	4.95	-38.0	-39.1	20.7	0.00e+00	122	31	0	1436549120	48	6327
2026-01-27 03:38:06.50	324.54	4.85	-37.6	-38.7	21.0	0.00e+00	120	31	0	1445986304	48	6051
2026-01-27 03:38:09.53	324.94	4.75	-37.9	-39.1	20.7	0.00e+00	122	31	0	1455423488	48	6290
2026-01-27 03:38:12.56	325.33	4.64	-37.5	-38.6	21.0	0.00e+00	122	31	0	1464860672	48	5940
2026-01-27 03:38:15.59	325.73	4.54	-38.2	-39.3	20.5	0.00e+00	123	31	0	1474297856	48	6478
2026-01-27 03:38:18.62	326.11	4.43	-38.3	-39.5	20.3	0.00e+00	123	31	0	1483735040	48	6610
2026-01-27 03:38:21.65	326.50	4.33	-38.1	-39.3	20.5	0.00e+00	122	31	0	1493172224	48	6453
2026-01-27 03:38:24.68	326.88	4.22	-38.4	-39.6	19.9	0.00e+00	122	31	0	1502609408	48	6652
2026-01-27 03:38:27.71	327.27	4.12	-38.2	-39.3	20.2	0.00e+00	123	31	0	1512046592	50	5788
2026-01-27 03:38:30.75	327.64	4.01	-38.8	-40.1	19.6	0.00e+00	122	31	0	1521483776	50	6289
2026-01-27 03:38:33.77	328.02	3.90	-38.1	-39.3	20.5	0.00e+00	121	31	0	1530920960	50	5729
2026-01-27 03:38:36.80	328.39	3.79	-38.4	-39.7	20.0	0.00e+00	123	31	0	1540358144	50	6012
2026-01-27 03:38:39.83	328.76	3.68	-37.9	-39.1	20.3	0.00e+00	123	31	0	1549795328	50	5608
2026-01-27 03:38:42.86	329.13	3.57	-38.2	-39.4	20.0	0.00e+00	122	31	0	1559232512	50	5853
2026-01-27 03:38:45.89	329.49	3.46	-38.6	-39.8	19.4	0.00e+00	123	31	0	1568669696	50	6134
2026-01-27 03:38:48.92	329.86	3.35	-38.9	-40.3	18.7	0.00e+00	123	31	0	1578106880	50	6456
2026-01-27 03:38:51.95	330.22	3.24	-40.0	-41.6	17.3	0.00e+00	123	31	0	1587544064	52	6680
2026-01-27 03:38:54.98	330.57	3.13	-40.8	-42.8	15.5	0.00e+00	123	31	0	1596981248	54	6842
2026-01-27 03:38:58.01	330.93	3.02	-42.1	-44.8	12.7	2.67e-05	122	31	0	1607467008	56	7684
2026-01-27 03:39:01.04	331.28	2.91	-48.6	-61.4	3.5	1.51e+00	0	31	104	1608515584	60	41278
2026-01-27 03:39:04.07	331.63	2.79	-49.0	-61.8	3.5	1.52e+00	0	31	104	1608515584	60	43278
2026-01-27 03:39:07.10	331.98	2.68	-49.1	-61.9	3.5	1.52e+00	0	31	104	1608515584	60	43914
2026-01-27 03:39:10.12	332.32	2.57	-49.2	-62.0	3.5	1.52e+00	0	31	104	1608515584	60	44206
2026-01-27 03:39:13.15	332.66	2.45	-49.0	-62.0	3.5	1.52e+00	0	31	104	1608515584	60	44211
2026-01-27 03:39:16.19	333.00	2.34	-48.8	-61.9	3.5	1.52e+00	0	31	104	1608515584	60	43643
2026-01-27 03:39:19.21	333.34	2.23	-48.9	-61.9	3.5	1.52e+00	0	31	104	1608515584	60	43512
2026-01-27 03:39:22.24	333.67	2.11	-49.0	-61.8	3.5	1.52e+00	0	31	104	1608515584	60	43418
2026-01-27 03:39:25.27	334.01	2.00	-49.0	-61.9	3.5	1.52e+00	0	31	104	1608515584	60	43597
2026-01-27 03:39:28.30	334.33	1.88	-49.0	-61.9	3.5	1.51e+00	0	31	104	1608515584	60	43508
2026-01-27 03:39:31.33	334.66	1.76	-49.0	-61.8	3.5	1.52e+00	0	31	104	1608515584	60	43308
2026-01-27 03:39:34.36	334.99	1.65	-49.0	-61.8	3.5	1.52e+00	0	31	104	1608515584	60	43240
2026-01-27 03:39:37.38	335.31	1.53	-49.0	-61.9	3.5	1.51e+00	0	31	104	1608515584	60	43511
2026-01-27 03:39:40.42	335.63	1.42	-49.0	-61.9	3.5	1.52e+00	0	31	104	1608515584	60	43460
2026-01-27 03:39:43.45	335.95	1.30	-49.0	-61.8	3.5	1.52e+00	0	31	104	1608515584	60	43393
2026-01-27 03:39:46.48	336.26	1.18	-49.0	-61.8	3.5	1.52e+00	0	31	104	1608515584	60	43421
2026-01-27 03:39:49.51	336.57	1.07	-49.0	-61.9	3.5	1.52e+00	0	31	104	1608515584	60	43435
2026-01-27 03:39:52.54	336.88	0.95	-49.0	-61.8	3.5	1.52e+00	0	31	104	1608515584	60	43308
2026-01-27 03:39:55.57	337.19	0.83	-49.0	-61.8	3.5	1.52e+00	0	31	104	1608515584	60	43363
2026-01-27 03:39:58.60	337.50	0.72	-49.0	-61.8	3.5	1.52e+00	0	31	104	1608515584	60	43145
2026-01-27 03:40:01.63	337.80	0.60	-49.0	-61.9	3.5	1.52e+00	0	31	104	1608515584	60	43538
2026-01-27 03:40:04.66	338.10	0.48	-49.0	-61.8	3.5	1.52e+00	0	31	104	1608515584	60	43384
2026-01-27 03:40:07.69	338.40	0.36	-49.0	-61.8	3.5	1.52e+00	0	31	104	1608515584	60	43311
2026-01-27 03:40:10.72	338.70	0.24	-49.0	-61.9	3.5	1.52e+00	0	31	104	1608515584	60	43518
2026-01-27 03:40:13.75	338.99	0.13	-49.0	-61.9	3.5	1.52e+00	0	31	104	1608515584	60	43552
2026-01-27 03:40:16.78	339.29	0.01	-49.0	-61.8	3.5	1.52e+00	0	31	104	1608515584	60	43235

#Closed at: 2026-01-27 03:40:19
#Recorded file [1608 MB]: D:/lorett/data/35029_260127_152907.dat