passes_logs/2026/01/27/R4.6S_Anadyr/R4.6S_Anadyr__20260127_174002_SUOMI_NPP_rec.log

#Pass ID: 20260127_174002_SUOMI NPP
#Satellite: SUOMI NPP
#Configuration: NPP
#almurnet v.1.7.20251203
#Start time: 2026-01-27 17:40:04

#Version: 2.2.20231116
#Station: R4.6S_Anadyr
#Location: 177.4865 lon 64.73178 lat
#TLE: 1 37849U 11061A   26026.87508736  .00000176  00000+0  10464-3 0  9991
#TLE: 2 37849  98.7822 328.8221 0002127  43.3055 316.8288 14.19530452738397

#Time	Az	El	Level	Level2	SNR	BER	BlckErr	Temp	State	Recorded	gain1	gain2
2026-01-27 17:40:04.66	32.96	0.14	-48.5	-60.1	3.5	8.45e-01	0	30	0	0	60	36735
2026-01-27 17:40:08.69	32.72	0.35	-48.7	-63.9	3.6	1.51e+00	0	31	104	0	60	56567
2026-01-27 17:40:12.73	32.46	0.56	-48.7	-63.9	3.6	1.51e+00	0	31	104	0	60	56699
2026-01-27 17:40:16.77	32.21	0.78	-48.7	-63.9	3.6	1.51e+00	0	31	104	0	60	56498
2026-01-27 17:40:20.80	31.95	1.00	-48.5	-63.7	3.6	1.51e+00	0	32	104	0	60	55456
2026-01-27 17:40:24.84	31.68	1.21	-48.2	-63.4	3.6	1.51e+00	0	32	104	0	60	53749
2026-01-27 17:40:28.88	31.42	1.43	-47.5	-62.6	3.6	1.51e+00	0	32	104	0	60	48957
2026-01-27 17:40:32.92	31.14	1.65	-47.1	-62.2	3.6	1.51e+00	0	32	104	0	60	46497
2026-01-27 17:40:36.96	30.87	1.87	-47.2	-62.3	3.6	1.51e+00	0	32	104	0	60	47313
2026-01-27 17:40:41.00	30.59	2.09	-47.1	-62.2	3.6	1.51e+00	0	32	104	0	60	46794
2026-01-27 17:40:45.04	30.30	2.32	-47.1	-62.2	3.6	1.51e+00	0	32	104	0	60	46784
2026-01-27 17:40:49.07	30.01	2.54	-47.1	-62.2	3.6	1.51e+00	0	32	104	0	60	46638
2026-01-27 17:40:53.11	29.72	2.76	-47.1	-61.7	3.6	1.51e+00	0	32	104	0	60	43722
2026-01-27 17:40:57.15	29.42	2.99	-47.1	-60.6	3.6	1.51e+00	0	32	104	0	60	38822
2026-01-27 17:41:01.19	29.11	3.22	-44.0	-47.1	14.0	2.27e-04	0	32	0	4194304	60	8198
2026-01-27 17:41:05.22	28.81	3.45	-44.6	-48.2	13.5	3.97e-02	0	32	0	9437184	60	9291
2026-01-27 17:41:09.26	28.49	3.67	-40.5	-42.1	19.0	0.00e+00	0	32	0	12582912	54	6487
2026-01-27 17:41:13.31	28.17	3.91	-41.0	-42.6	18.5	0.00e+00	91	32	0	20971520	54	6914
2026-01-27 17:41:17.34	27.85	4.14	-41.3	-43.0	18.2	0.00e+00	0	32	0	28311552	54	7190
2026-01-27 17:41:21.38	27.52	4.37	-41.0	-42.7	18.6	0.00e+00	0	32	0	35651584	54	6928
2026-01-27 17:41:25.41	27.18	4.60	-41.2	-42.9	18.5	0.00e+00	70	32	0	42991616	54	7104
2026-01-27 17:41:29.44	26.84	4.84	-41.4	-43.1	18.4	0.00e+00	0	32	0	51380224	54	7324
2026-01-27 17:41:33.48	26.49	5.07	-41.4	-43.1	18.5	0.00e+00	0	32	0	58720256	56	6490
2026-01-27 17:41:37.52	26.14	5.31	-41.0	-42.6	18.9	0.00e+00	0	32	0	66060288	56	6162
2026-01-27 17:41:41.55	25.78	5.55	-40.9	-42.4	19.3	0.00e+00	92	32	0	73400320	56	5994
2026-01-27 17:41:45.59	25.42	5.78	-40.6	-42.0	19.5	0.00e+00	0	32	0	80740352	54	6439
2026-01-27 17:41:49.63	25.05	6.03	-40.3	-41.7	19.7	0.00e+00	0	32	0	89128960	54	6239
2026-01-27 17:41:53.67	24.67	6.27	-40.2	-41.6	19.9	0.00e+00	0	32	0	96468992	54	6127
2026-01-27 17:41:57.70	24.28	6.51	-39.9	-41.1	20.4	0.00e+00	70	32	0	103809024	54	5814
2026-01-27 17:42:01.74	23.89	6.75	-40.0	-41.3	20.4	0.00e+00	0	32	0	111149056	52	6631
2026-01-27 17:42:05.78	23.49	6.99	-39.6	-40.8	20.7	0.00e+00	0	32	0	119537664	52	6291
2026-01-27 17:42:09.82	23.09	7.24	-39.9	-41.2	20.4	0.00e+00	65	32	0	126877696	52	6578
2026-01-27 17:42:13.86	22.68	7.49	-40.1	-41.4	20.3	0.00e+00	92	32	0	134217728	52	6701
2026-01-27 17:42:17.89	22.26	7.73	-40.7	-42.1	19.8	0.00e+00	0	32	0	141557760	52	7287
2026-01-27 17:42:21.93	21.83	7.98	-40.6	-42.0	19.8	0.00e+00	0	32	0	148897792	54	6404
2026-01-27 17:42:25.97	21.40	8.23	-40.2	-41.5	20.2	0.00e+00	70	32	0	157286400	54	6088
2026-01-27 17:42:30.01	20.96	8.48	-39.9	-41.2	20.6	0.00e+00	0	32	0	164626432	54	5851
2026-01-27 17:42:34.04	20.51	8.73	-39.8	-41.0	20.3	0.00e+00	0	32	0	171966464	54	5739
2026-01-27 17:42:38.08	20.05	8.98	-39.7	-40.9	20.9	0.00e+00	0	32	0	179306496	52	6353
2026-01-27 17:42:42.12	19.58	9.23	-40.1	-41.4	20.4	0.00e+00	91	32	0	186646528	52	6696
2026-01-27 17:42:46.16	19.11	9.48	-40.2	-41.5	20.3	0.00e+00	0	32	0	195035136	52	6837
2026-01-27 17:42:50.20	18.62	9.74	-39.9	-41.1	20.6	0.00e+00	0	32	0	202375168	52	6507
2026-01-27 17:42:54.24	18.13	9.99	-39.7	-40.9	20.8	0.00e+00	0	32	0	209715200	52	6390
2026-01-27 17:42:58.27	17.63	10.24	-39.3	-40.5	21.1	0.00e+00	82	32	0	217055232	52	6072
2026-01-27 17:43:02.31	17.12	10.50	-39.1	-40.2	21.5	0.00e+00	0	32	0	225443840	52	5859
2026-01-27 17:43:06.34	16.60	10.75	-38.9	-40.0	21.5	0.00e+00	0	32	0	232783872	52	5742
2026-01-27 17:43:10.38	16.08	11.01	-39.0	-40.1	21.6	0.00e+00	62	32	0	240123904	52	5804
2026-01-27 17:43:14.42	15.54	11.26	-39.5	-40.8	21.1	0.00e+00	0	32	0	247463936	52	6265
2026-01-27 17:43:18.45	14.99	11.52	-39.3	-40.5	21.2	0.00e+00	0	32	0	254803968	52	6068
2026-01-27 17:43:22.49	14.44	11.77	-39.7	-40.9	21.0	0.00e+00	0	32	0	263192576	52	6377
2026-01-27 17:43:26.52	13.87	12.03	-39.0	-40.1	21.6	0.00e+00	91	32	0	270532608	52	5766
2026-01-27 17:43:30.56	13.29	12.28	-38.9	-40.0	21.7	0.00e+00	0	32	0	277872640	50	6403
2026-01-27 17:43:34.60	12.70	12.54	-38.9	-40.0	21.7	0.00e+00	0	32	0	285212672	50	6464
2026-01-27 17:43:38.63	12.11	12.79	-38.9	-40.1	21.6	0.00e+00	0	32	0	293601280	50	6470
2026-01-27 17:43:42.67	11.50	13.05	-40.0	-41.3	20.7	0.00e+00	81	32	0	300941312	52	6630
2026-01-27 17:43:46.71	10.88	13.30	-39.3	-40.4	21.4	0.00e+00	0	32	0	308281344	52	6030
2026-01-27 17:43:50.75	10.25	13.55	-39.0	-40.1	21.7	0.00e+00	0	32	0	315621376	52	5779
2026-01-27 17:43:54.78	9.61	13.81	-39.2	-40.4	21.5	0.00e+00	0	32	0	322961408	52	5967
2026-01-27 17:43:58.81	8.96	14.06	-39.6	-40.8	21.2	0.00e+00	92	32	0	331350016	52	6248
2026-01-27 17:44:02.85	8.29	14.31	-38.9	-40.0	21.7	0.00e+00	0	32	0	338690048	52	5708
2026-01-27 17:44:06.89	7.62	14.55	-39.3	-40.4	21.4	0.00e+00	0	32	0	346030080	52	6032
2026-01-27 17:44:10.93	6.93	14.80	-39.6	-40.8	21.2	0.00e+00	73	32	0	353370112	52	6255
2026-01-27 17:44:14.96	6.23	15.04	-40.1	-41.5	20.6	0.00e+00	0	32	0	361758720	52	6782
2026-01-27 17:44:19.00	5.52	15.29	-39.5	-40.8	21.2	0.00e+00	0	32	0	369098752	52	6261
2026-01-27 17:44:23.04	4.80	15.53	-38.6	-39.7	22.1	0.00e+00	0	32	0	376438784	50	6205
2026-01-27 17:44:27.07	4.07	15.77	-37.9	-38.9	22.7	0.00e+00	48	32	0	383778816	48	6374
2026-01-27 17:44:31.11	3.32	16.00	-37.9	-38.8	22.7	0.00e+00	0	32	0	391118848	48	6310
2026-01-27 17:44:35.15	2.56	16.23	-37.8	-38.8	22.8	0.00e+00	0	32	0	399507456	48	6281
2026-01-27 17:44:39.18	1.80	16.46	-37.5	-38.5	23.2	0.00e+00	0	32	0	406847488	48	6037
2026-01-27 17:44:43.22	1.01	16.69	-37.4	-38.3	23.3	0.00e+00	92	32	0	414187520	48	5925
2026-01-27 17:44:47.26	0.22	16.91	-37.2	-38.2	23.4	0.00e+00	0	32	0	421527552	48	5844
2026-01-27 17:44:51.30	359.42	17.13	-36.9	-37.8	23.7	0.00e+00	0	32	0	429916160	48	5591
2026-01-27 17:44:55.34	358.60	17.35	-36.8	-37.7	23.7	0.00e+00	73	32	0	437256192	46	6186
2026-01-27 17:44:59.37	357.77	17.56	-37.1	-38.0	23.5	0.00e+00	26	32	0	444596224	46	6445
2026-01-27 17:45:03.40	356.93	17.77	-37.1	-38.1	23.3	0.00e+00	0	32	0	451936256	46	6476
2026-01-27 17:45:07.43	356.08	17.97	-37.0	-38.0	23.6	0.00e+00	0	33	0	459276288	46	6395
2026-01-27 17:45:11.47	355.22	18.17	-36.8	-37.7	23.8	0.00e+00	72	32	0	467664896	46	6183
2026-01-27 17:45:15.50	354.34	18.36	-36.3	-37.2	23.8	0.00e+00	0	32	0	475004928	46	5846
2026-01-27 17:45:19.54	353.46	18.54	-35.7	-36.5	24.7	0.00e+00	0	33	0	482344960	44	6076
2026-01-27 17:45:23.58	352.56	18.72	-36.3	-37.2	24.2	0.00e+00	0	33	0	489684992	44	6563
2026-01-27 17:45:27.62	351.65	18.90	-37.3	-38.2	23.4	0.00e+00	92	33	0	497025024	46	6591
2026-01-27 17:45:31.65	350.73	19.07	-36.8	-37.7	23.9	0.00e+00	0	32	0	505413632	46	6174
2026-01-27 17:45:35.69	349.81	19.23	-37.2	-38.2	23.5	0.00e+00	0	33	0	512753664	46	6547
2026-01-27 17:45:39.72	348.87	19.38	-36.3	-37.1	24.1	0.00e+00	0	33	0	520093696	46	5823
2026-01-27 17:45:43.76	347.92	19.53	-35.9	-36.7	24.5	0.00e+00	70	32	0	527433728	46	5548
2026-01-27 17:45:47.80	346.97	19.67	-35.9	-36.7	24.5	0.00e+00	0	32	0	535822336	44	6219
2026-01-27 17:45:51.84	346.00	19.80	-36.6	-37.4	23.9	0.00e+00	0	33	0	543162368	44	6752
2026-01-27 17:45:55.87	345.03	19.92	-36.9	-37.7	23.9	0.00e+00	2	33	0	550502400	46	6238
2026-01-27 17:45:59.91	344.05	20.04	-37.4	-38.4	23.2	0.00e+00	0	32	0	557842432	48	5968
2026-01-27 17:46:03.95	343.06	20.14	-37.9	-38.8	23.0	0.00e+00	0	32	0	565182464	48	6305
2026-01-27 17:46:07.99	342.06	20.24	-37.9	-38.9	22.9	0.00e+00	0	32	0	573571072	48	6337
2026-01-27 17:46:12.03	341.06	20.33	-37.4	-38.3	23.3	0.00e+00	72	33	0	580911104	48	5952
2026-01-27 17:46:16.07	340.05	20.41	-38.7	-39.8	22.1	0.00e+00	0	32	0	588251136	50	6298
2026-01-27 17:46:20.11	339.04	20.49	-38.2	-39.2	22.6	0.00e+00	0	32	0	595591168	50	5856
2026-01-27 17:46:24.15	338.03	20.55	-38.9	-40.1	21.9	0.00e+00	0	32	0	603979776	50	6475
2026-01-27 17:46:28.18	337.01	20.60	-38.1	-39.1	22.7	0.00e+00	76	32	0	611319808	50	5776
2026-01-27 17:46:32.22	335.98	20.64	-37.7	-38.7	23.0	0.00e+00	0	32	0	618659840	48	6190
2026-01-27 17:46:36.25	334.96	20.68	-38.3	-39.3	22.6	0.00e+00	33	32	0	625999872	48	6691
2026-01-27 17:46:40.28	333.93	20.70	-38.4	-39.4	22.5	0.00e+00	0	32	0	633339904	48	6739
2026-01-27 17:46:44.31	332.91	20.72	-38.1	-39.1	22.7	0.00e+00	51	32	0	641728512	48	6529
2026-01-27 17:46:48.35	331.87	20.72	-37.7	-38.6	23.1	0.00e+00	0	32	0	649068544	48	6153
2026-01-27 17:46:52.39	330.84	20.72	-37.1	-38.0	23.5	0.00e+00	0	32	0	656408576	48	5728
2026-01-27 17:46:56.43	329.81	20.70	-37.6	-38.5	23.2	0.00e+00	63	33	0	663748608	48	6103
2026-01-27 17:47:00.47	328.79	20.68	-38.6	-39.7	22.3	0.00e+00	0	33	0	672137216	48	6930
2026-01-27 17:47:04.51	327.76	20.64	-38.1	-39.1	22.6	0.00e+00	0	33	0	679477248	48	6498
2026-01-27 17:47:08.55	326.73	20.60	-36.8	-37.6	23.9	0.00e+00	0	33	0	686817280	46	6168
2026-01-27 17:47:12.58	325.72	20.54	-36.7	-37.5	24.0	0.00e+00	74	33	0	694157312	46	6067
2026-01-27 17:47:16.62	324.70	20.48	-36.1	-36.8	24.4	0.00e+00	0	32	0	701497344	46	5623
2026-01-27 17:47:20.66	323.69	20.41	-36.2	-37.1	24.3	0.00e+00	0	33	0	709885952	46	5781
2026-01-27 17:47:24.70	322.68	20.33	-36.3	-37.1	24.2	0.00e+00	25	32	0	717225984	46	5816
2026-01-27 17:47:28.74	321.68	20.24	-35.9	-36.7	24.5	0.00e+00	71	32	0	724566016	46	5554
2026-01-27 17:47:32.77	320.68	20.14	-36.3	-37.1	24.2	0.00e+00	0	32	0	731906048	46	5818
2026-01-27 17:47:36.81	319.70	20.03	-36.5	-37.4	24.1	0.00e+00	0	33	0	739246080	46	5983
2026-01-27 17:47:40.85	318.71	19.91	-36.7	-37.6	24.1	0.00e+00	11	32	0	747634688	46	6117
2026-01-27 17:47:44.89	317.74	19.79	-37.5	-38.4	23.3	0.00e+00	0	32	0	754974720	46	6765
2026-01-27 17:47:48.92	316.78	19.66	-38.0	-38.9	22.9	0.00e+00	0	33	0	762314752	48	6384
2026-01-27 17:47:52.96	315.82	19.52	-38.3	-39.3	22.6	0.00e+00	0	33	0	769654784	48	6662
2026-01-27 17:47:56.99	314.87	19.37	-39.1	-40.2	21.9	0.00e+00	40	32	0	778043392	50	6599
2026-01-27 17:48:01.03	313.93	19.22	-39.2	-40.3	21.8	0.00e+00	0	32	0	785383424	50	6674
2026-01-27 17:48:05.07	313.01	19.05	-38.5	-39.5	22.3	0.00e+00	0	32	0	792723456	50	6100
2026-01-27 17:48:09.10	312.09	18.89	-37.6	-38.5	23.3	0.00e+00	0	33	0	800063488	48	6084
2026-01-27 17:48:13.14	311.18	18.71	-38.2	-39.2	22.7	0.00e+00	92	32	0	807403520	48	6570
2026-01-27 17:48:17.18	310.28	18.53	-37.6	-38.5	23.1	0.00e+00	0	33	0	815792128	48	6080
2026-01-27 17:48:21.22	309.40	18.34	-36.7	-37.6	23.5	0.00e+00	0	33	0	823132160	48	5442
2026-01-27 17:48:25.25	308.52	18.15	-36.8	-37.6	23.9	0.00e+00	0	32	0	830472192	46	6153
2026-01-27 17:48:29.29	307.66	17.95	-37.9	-38.9	23.0	0.00e+00	12	33	0	837812224	48	6338
2026-01-27 17:48:33.34	306.80	17.75	-38.9	-39.9	22.1	0.00e+00	0	33	0	846200832	50	6376
2026-01-27 17:48:37.37	305.96	17.54	-38.8	-39.8	22.1	0.00e+00	0	32	0	853540864	50	6301
2026-01-27 17:48:41.41	305.13	17.33	-39.4	-40.5	21.7	0.00e+00	71	32	0	860880896	50	6773
2026-01-27 17:48:45.45	304.31	17.12	-38.6	-39.5	22.4	0.00e+00	0	33	0	868220928	50	6096
2026-01-27 17:48:49.49	303.51	16.89	-37.2	-38.1	23.6	0.00e+00	0	32	0	875560960	48	5790
2026-01-27 17:48:53.53	302.71	16.67	-37.1	-38.0	23.6	0.00e+00	0	32	0	883949568	48	5723
2026-01-27 17:48:57.56	301.93	16.44	-38.5	-39.5	22.4	0.00e+00	68	33	0	891289600	48	6814
2026-01-27 17:49:01.59	301.16	16.21	-38.0	-38.9	22.8	0.00e+00	0	33	0	898629632	48	6363
2026-01-27 17:49:05.63	300.40	15.98	-37.7	-38.6	23.1	0.00e+00	0	33	0	905969664	48	6172
2026-01-27 17:49:09.66	299.66	15.74	-39.4	-40.5	21.5	0.00e+00	0	32	0	913309696	50	6805
2026-01-27 17:49:13.69	298.93	15.51	-39.7	-40.9	21.2	0.00e+00	72	33	0	921698304	52	6351
2026-01-27 17:49:17.73	298.20	15.27	-39.1	-40.1	22.0	0.00e+00	0	32	0	929038336	52	5809
2026-01-27 17:49:21.76	297.49	15.02	-38.8	-39.8	22.3	0.00e+00	0	33	0	936378368	50	6275
2026-01-27 17:49:25.80	296.79	14.78	-38.5	-39.5	22.5	0.00e+00	0	33	0	943718400	50	6056
2026-01-27 17:49:29.84	296.11	14.53	-39.2	-40.3	21.8	0.00e+00	7	33	0	952107008	50	6657
2026-01-27 17:49:33.87	295.43	14.28	-39.0	-40.1	21.9	0.00e+00	0	32	0	959447040	50	6484
2026-01-27 17:49:37.91	294.77	14.03	-38.2	-39.1	22.7	0.00e+00	0	32	0	966787072	50	5819
2026-01-27 17:49:41.94	294.11	13.78	-38.7	-39.7	22.1	0.00e+00	90	32	0	974127104	50	6223
2026-01-27 17:49:45.98	293.47	13.53	-38.8	-39.9	22.0	0.00e+00	0	32	0	981467136	50	6352
2026-01-27 17:49:50.02	292.84	13.28	-38.4	-39.4	22.5	0.00e+00	0	33	0	989855744	50	5971
2026-01-27 17:49:54.05	292.22	13.02	-38.0	-39.0	22.7	0.00e+00	0	33	0	997195776	50	5730
2026-01-27 17:49:58.10	291.61	12.77	-37.4	-38.2	23.3	0.00e+00	54	32	0	1004535808	48	5895
2026-01-27 17:50:02.13	291.01	12.51	-36.8	-37.6	24.0	0.00e+00	0	33	0	1011875840	46	6160
2026-01-27 17:50:06.17	290.42	12.26	-36.9	-37.7	23.7	0.00e+00	0	32	0	1019215872	46	6228
2026-01-27 17:50:10.21	289.85	12.00	-37.8	-38.7	22.9	0.00e+00	0	32	0	1027604480	48	6238
2026-01-27 17:50:14.24	289.28	11.75	-37.9	-38.8	22.9	0.00e+00	90	32	0	1034944512	48	6303
2026-01-27 17:50:18.28	288.72	11.49	-37.3	-38.2	23.3	0.00e+00	0	32	0	1042284544	48	5831
2026-01-27 17:50:22.32	288.17	11.23	-37.0	-37.9	23.5	0.00e+00	0	32	0	1049624576	48	5675
2026-01-27 17:50:26.36	287.63	10.98	-37.5	-38.4	23.0	0.00e+00	27	32	0	1058013184	48	6012
2026-01-27 17:50:30.39	287.10	10.72	-38.1	-39.1	22.3	0.00e+00	0	32	0	1065353216	48	6527
2026-01-27 17:50:34.43	286.58	10.47	-38.4	-39.4	22.2	0.00e+00	0	32	0	1072693248	48	6757
2026-01-27 17:50:38.47	286.07	10.21	-38.0	-39.0	22.6	0.00e+00	0	32	0	1080033280	48	6426
2026-01-27 17:50:42.50	285.57	9.96	-37.4	-38.3	23.1	0.00e+00	60	32	0	1087373312	48	5943
2026-01-27 17:50:46.53	285.08	9.71	-37.3	-38.2	23.2	0.00e+00	0	32	0	1095761920	48	5844
2026-01-27 17:50:50.57	284.60	9.45	-38.3	-39.3	22.3	0.00e+00	33	32	0	1103101952	48	6625
2026-01-27 17:50:54.61	284.12	9.20	-38.6	-39.7	22.1	0.00e+00	0	33	0	1110441984	50	6175
2026-01-27 17:50:58.64	283.65	8.95	-38.4	-39.5	22.3	0.00e+00	65	33	0	1117782016	50	6044
2026-01-27 17:51:02.68	283.19	8.70	-38.2	-39.2	22.3	0.00e+00	0	33	0	1126170624	50	5868
2026-01-27 17:51:06.72	282.74	8.45	-38.2	-39.2	22.4	0.00e+00	0	32	0	1133510656	50	5871
2026-01-27 17:51:10.76	282.30	8.20	-38.7	-39.8	21.9	0.00e+00	61	33	0	1140850688	50	6247
2026-01-27 17:51:14.80	281.86	7.95	-39.4	-40.5	21.2	0.00e+00	58	33	0	1148190720	50	6848
2026-01-27 17:51:18.84	281.44	7.70	-39.4	-40.5	21.2	0.00e+00	0	32	0	1155530752	50	6835
2026-01-27 17:51:22.88	281.01	7.45	-39.1	-40.2	21.4	0.00e+00	0	33	0	1163919360	50	6567
2026-01-27 17:51:26.91	280.60	7.21	-39.4	-40.5	21.1	0.00e+00	62	33	0	1171259392	50	6823
2026-01-27 17:51:30.95	280.20	6.96	-40.3	-41.7	20.0	0.00e+00	0	33	0	1178599424	52	6975
2026-01-27 17:51:34.99	279.80	6.72	-40.7	-42.2	19.6	0.00e+00	0	33	0	1185939456	54	6579
2026-01-27 17:51:39.03	279.40	6.47	-40.6	-42.0	19.8	0.00e+00	0	33	0	1194328064	54	6405
2026-01-27 17:51:43.07	279.02	6.23	-39.9	-41.1	20.5	0.00e+00	75	33	0	1201668096	54	5803
2026-01-27 17:51:47.11	278.64	5.99	-39.6	-40.8	20.8	0.00e+00	0	32	0	1209008128	52	6268
2026-01-27 17:51:51.14	278.27	5.75	-40.1	-41.3	20.3	0.00e+00	0	32	0	1216348160	52	6689
2026-01-27 17:51:55.18	277.90	5.51	-40.2	-41.5	20.1	0.00e+00	0	33	0	1223688192	52	6840
2026-01-27 17:51:59.22	277.54	5.27	-39.9	-41.2	20.2	0.00e+00	92	33	0	1232076800	52	6595
2026-01-27 17:52:03.26	277.18	5.04	-39.7	-41.0	20.5	0.00e+00	0	32	0	1239416832	52	6391
2026-01-27 17:52:07.29	276.84	4.80	-39.8	-41.0	20.5	0.00e+00	0	32	0	1246756864	52	6450
2026-01-27 17:52:11.33	276.49	4.57	-39.4	-40.7	20.7	0.00e+00	17	33	0	1254096896	52	6180
2026-01-27 17:52:15.37	276.15	4.33	-39.8	-41.1	20.3	0.00e+00	0	33	0	1262485504	52	6514
2026-01-27 17:52:19.40	275.82	4.10	-40.9	-42.5	18.9	0.00e+00	0	33	0	1269825536	54	6799
2026-01-27 17:52:23.44	275.50	3.87	-41.3	-43.0	18.4	0.00e+00	0	33	0	1277165568	54	7198
2026-01-27 17:52:27.48	275.18	3.64	-42.2	-44.3	17.3	0.00e+00	88	33	0	1284505600	56	7427
2026-01-27 17:52:31.52	274.86	3.41	-42.5	-44.7	16.7	0.00e+00	0	32	0	1291845632	56	7788
2026-01-27 17:52:35.55	274.55	3.18	-42.5	-44.7	16.5	0.00e+00	0	33	0	1300234240	58	6998
2026-01-27 17:52:39.59	274.24	2.95	-48.0	-63.2	3.6	1.51e+00	0	33	104	1305477120	60	52008
2026-01-27 17:52:43.63	273.94	2.73	-48.6	-63.8	3.6	1.51e+00	0	33	104	1305477120	60	55755
2026-01-27 17:52:47.67	273.65	2.50	-48.8	-63.9	3.6	1.51e+00	0	33	104	1305477120	60	56876
2026-01-27 17:52:51.70	273.36	2.28	-48.8	-63.9	3.6	1.51e+00	0	33	104	1305477120	60	56771
2026-01-27 17:52:55.74	273.07	2.06	-48.6	-63.8	3.6	1.51e+00	0	33	104	1305477120	60	56262
2026-01-27 17:52:59.78	272.79	1.84	-48.5	-63.8	3.6	1.51e+00	0	33	104	1305477120	60	56114
2026-01-27 17:53:03.82	272.51	1.61	-48.6	-63.8	3.6	1.51e+00	0	33	104	1305477120	60	56160
2026-01-27 17:53:07.86	272.23	1.39	-48.5	-63.8	3.6	1.51e+00	0	33	104	1305477120	60	55880
2026-01-27 17:53:11.90	271.96	1.18	-48.5	-63.8	3.6	1.51e+00	0	33	104	1305477120	60	56116
2026-01-27 17:53:15.94	271.70	0.96	-48.5	-63.8	3.6	1.51e+00	0	33	104	1305477120	60	56192
2026-01-27 17:53:19.99	271.44	0.74	-48.5	-63.8	3.6	1.51e+00	0	33	104	1305477120	60	56200
2026-01-27 17:53:24.03	271.18	0.53	-48.5	-63.8	3.6	1.51e+00	0	33	104	1305477120	60	55984
2026-01-27 17:53:28.07	270.92	0.31	-48.5	-63.8	3.6	1.51e+00	0	33	104	1305477120	60	55871
2026-01-27 17:53:32.11	270.67	0.10	-48.5	-63.8	3.6	1.51e+00	0	33	104	1305477120	60	55684

#Closed at: 2026-01-27 17:53:35
#Recorded file [1305 MB]: D:/lorett/data/35029_260128_054004.dat