passes_logs/2026/01/27/R4.6S_Anadyr/R4.6S_Anadyr__20260127_160003_SUOMI_NPP_rec.log

#Pass ID: 20260127_160003_SUOMI NPP
#Satellite: SUOMI NPP
#Configuration: NPP
#almurnet v.1.7.20251203
#Start time: 2026-01-27 16:00:06

#Version: 2.2.20231116
#Station: R4.6S_Anadyr
#Location: 177.4865 lon 64.73178 lat
#TLE: 1 37849U 11061A   26026.87508736  .00000176  00000+0  10464-3 0  9991
#TLE: 2 37849  98.7822 328.8221 0002127  43.3055 316.8288 14.19530452738397

#Time	Az	El	Level	Level2	SNR	BER	BlckErr	Temp	State	Recorded	gain1	gain2
2026-01-27 16:00:06.77	23.91	0.16	-48.9	-61.5	3.4	1.52e+00	0	29	0	0	60	41510
2026-01-27 16:00:10.80	23.80	0.40	-48.9	-64.2	3.6	1.51e+00	0	31	104	0	60	58528
2026-01-27 16:00:14.84	23.69	0.64	-49.0	-64.3	3.6	1.51e+00	0	31	104	0	60	59105
2026-01-27 16:00:18.88	23.57	0.88	-49.0	-64.2	3.6	1.51e+00	0	31	104	0	60	58835
2026-01-27 16:00:22.92	23.45	1.12	-48.9	-64.1	3.5	1.51e+00	0	31	104	0	60	57861
2026-01-27 16:00:26.96	23.33	1.37	-48.5	-63.7	3.6	1.51e+00	0	31	104	0	60	55465
2026-01-27 16:00:31.00	23.21	1.62	-47.9	-63.1	3.6	1.51e+00	0	31	104	0	60	51587
2026-01-27 16:00:35.04	23.08	1.86	-47.6	-62.7	3.6	1.51e+00	0	31	104	0	60	49261
2026-01-27 16:00:39.08	22.95	2.11	-47.6	-62.6	3.6	1.51e+00	0	31	104	0	60	48896
2026-01-27 16:00:43.12	22.82	2.37	-47.6	-62.8	3.6	1.51e+00	0	31	104	0	60	49666
2026-01-27 16:00:47.16	22.69	2.62	-47.6	-62.5	3.6	1.51e+00	0	31	104	0	60	48066
2026-01-27 16:00:51.20	22.55	2.88	-47.5	-60.9	3.6	1.50e+00	0	31	104	0	60	40166
2026-01-27 16:00:55.24	22.41	3.14	-47.5	-61.6	3.6	1.51e+00	0	31	104	0	60	43390
2026-01-27 16:00:59.28	22.27	3.40	-45.2	-49.0	12.6	8.67e-04	92	32	0	5242880	60	10213
2026-01-27 16:01:03.32	22.13	3.66	-43.0	-45.3	15.9	0.00e+00	0	32	0	12582912	60	6650
2026-01-27 16:01:07.36	21.98	3.93	-47.5	-62.0	3.7	1.26e+00	0	32	104	14680064	60	45448
2026-01-27 16:01:11.39	21.83	4.20	-42.1	-44.0	17.5	0.00e+00	73	32	0	18874368	58	6405
2026-01-27 16:01:15.43	21.68	4.47	-41.8	-43.6	18.2	0.00e+00	12	31	0	27262976	56	6885
2026-01-27 16:01:19.46	21.52	4.74	-41.6	-43.3	18.7	0.00e+00	0	32	0	34603008	56	6632
2026-01-27 16:01:23.50	21.36	5.02	-39.8	-41.1	20.4	0.00e+00	0	31	0	41943040	54	5800
2026-01-27 16:01:27.54	21.20	5.30	-40.2	-41.6	20.1	0.00e+00	79	32	0	49283072	52	6862
2026-01-27 16:01:31.58	21.03	5.58	-40.1	-41.3	20.2	0.00e+00	0	31	0	56623104	52	6685
2026-01-27 16:01:35.61	20.86	5.86	-39.2	-40.3	21.2	0.00e+00	0	32	0	65011712	52	5940
2026-01-27 16:01:39.65	20.69	6.15	-39.3	-40.4	21.3	0.00e+00	0	32	0	72351744	52	6031
2026-01-27 16:01:43.69	20.51	6.44	-38.9	-40.0	21.6	0.00e+00	85	32	0	79691776	52	5747
2026-01-27 16:01:47.73	20.33	6.73	-39.5	-40.7	21.2	0.00e+00	0	32	0	87031808	52	6219
2026-01-27 16:01:51.77	20.14	7.03	-39.2	-40.4	21.4	0.00e+00	0	31	0	94371840	52	5976
2026-01-27 16:01:55.80	19.95	7.33	-38.9	-39.9	21.8	0.00e+00	0	32	0	102760448	52	5695
2026-01-27 16:01:59.84	19.76	7.63	-39.0	-40.1	21.8	0.00e+00	85	32	0	110100480	52	5803
2026-01-27 16:02:03.88	19.56	7.93	-38.7	-39.7	22.0	0.00e+00	0	32	0	117440512	50	6244
2026-01-27 16:02:07.92	19.36	8.24	-39.0	-40.1	21.7	0.00e+00	0	32	0	124780544	50	6519
2026-01-27 16:02:11.95	19.15	8.55	-38.8	-39.9	21.8	0.00e+00	21	32	0	133169152	50	6348
2026-01-27 16:02:15.99	18.94	8.87	-38.8	-39.9	21.9	0.00e+00	0	32	0	140509184	50	6359
2026-01-27 16:02:20.03	18.72	9.19	-38.6	-39.6	22.1	0.00e+00	0	32	0	147849216	50	6165
2026-01-27 16:02:24.07	18.50	9.51	-38.6	-39.6	22.2	0.00e+00	0	32	0	155189248	50	6159
2026-01-27 16:02:28.11	18.27	9.84	-38.5	-39.5	22.2	0.00e+00	3	32	0	162529280	50	6094
2026-01-27 16:02:32.15	18.03	10.17	-38.5	-39.6	22.2	0.00e+00	0	32	0	170917888	50	6119
2026-01-27 16:02:36.19	17.79	10.51	-38.4	-39.5	22.3	0.00e+00	33	32	0	178257920	50	6055
2026-01-27 16:02:40.22	17.55	10.84	-38.3	-39.2	22.5	0.00e+00	0	32	0	185597952	50	5896
2026-01-27 16:02:44.26	17.30	11.19	-38.3	-39.2	22.6	0.00e+00	28	32	0	192937984	50	5883
2026-01-27 16:02:48.30	17.04	11.53	-38.1	-39.1	22.7	0.00e+00	0	32	0	201326592	50	5804
2026-01-27 16:02:52.34	16.77	11.89	-38.1	-39.1	22.7	0.00e+00	0	32	0	208666624	50	5785
2026-01-27 16:02:56.38	16.50	12.24	-38.2	-39.1	22.7	0.00e+00	0	32	0	216006656	50	5822
2026-01-27 16:03:00.42	16.22	12.60	-38.0	-39.0	22.8	0.00e+00	47	32	0	223346688	50	5711
2026-01-27 16:03:04.46	15.94	12.97	-38.2	-39.1	22.8	0.00e+00	0	32	0	230686720	50	5828
2026-01-27 16:03:08.49	15.65	13.34	-38.6	-39.6	22.3	0.00e+00	0	32	0	239075328	50	6135
2026-01-27 16:03:12.54	15.34	13.71	-38.6	-39.6	22.3	0.00e+00	83	32	0	246415360	50	6165
2026-01-27 16:03:16.56	15.04	14.09	-38.2	-39.2	22.7	0.00e+00	0	32	0	253755392	50	5859
2026-01-27 16:03:20.60	14.72	14.48	-38.1	-39.1	22.8	0.00e+00	0	32	0	261095424	50	5817
2026-01-27 16:03:24.63	14.39	14.87	-37.9	-38.9	23.0	0.00e+00	0	32	0	269484032	50	5642
2026-01-27 16:03:28.66	14.06	15.26	-38.2	-39.2	22.7	0.00e+00	92	32	0	276824064	50	5889
2026-01-27 16:03:32.70	13.71	15.66	-38.0	-39.0	22.8	0.00e+00	0	32	0	284164096	50	5743
2026-01-27 16:03:36.73	13.36	16.07	-38.1	-39.1	22.8	0.00e+00	0	32	0	291504128	50	5790
2026-01-27 16:03:40.77	12.99	16.48	-37.9	-38.8	23.1	0.00e+00	0	32	0	298844160	48	6298
2026-01-27 16:03:44.81	12.61	16.90	-37.6	-38.5	23.3	0.00e+00	45	32	0	307232768	48	6087
2026-01-27 16:03:48.85	12.23	17.32	-37.6	-38.6	23.2	0.00e+00	0	32	0	314572800	48	6116
2026-01-27 16:03:52.89	11.83	17.75	-37.9	-38.8	23.0	0.00e+00	0	32	0	321912832	48	6306
2026-01-27 16:03:56.93	11.42	18.19	-38.3	-39.3	22.7	0.00e+00	0	32	0	329252864	48	6678
2026-01-27 16:04:00.96	11.00	18.63	-38.5	-39.5	22.5	0.00e+00	64	32	0	336592896	48	6818
2026-01-27 16:04:05.00	10.56	19.08	-38.8	-39.9	22.3	0.00e+00	0	32	0	344981504	50	6320
2026-01-27 16:04:09.03	10.11	19.54	-38.5	-39.5	22.6	0.00e+00	0	32	0	352321536	50	6091
2026-01-27 16:04:13.07	9.65	20.00	-39.0	-40.1	22.0	0.00e+00	87	32	0	359661568	50	6492
2026-01-27 16:04:17.10	9.17	20.46	-38.6	-39.6	22.7	0.00e+00	0	32	0	367001600	50	6127
2026-01-27 16:04:21.14	8.67	20.94	-38.1	-39.1	23.0	0.00e+00	0	32	0	375390208	50	5783
2026-01-27 16:04:25.18	8.16	21.42	-37.7	-38.6	23.3	0.00e+00	0	32	0	382730240	48	6127
2026-01-27 16:04:29.22	7.64	21.91	-38.6	-39.7	22.5	0.00e+00	92	32	0	390070272	48	6929
2026-01-27 16:04:33.26	7.09	22.41	-38.6	-39.6	22.5	0.00e+00	0	32	0	397410304	48	6927
2026-01-27 16:04:37.29	6.53	22.91	-38.5	-39.5	22.6	0.00e+00	0	32	0	404750336	50	6101
2026-01-27 16:04:41.33	5.95	23.41	-38.6	-39.7	22.5	0.00e+00	9	32	0	413138944	50	6196
2026-01-27 16:04:45.36	5.35	23.93	-39.6	-40.8	21.6	0.00e+00	92	32	0	420478976	52	6281
2026-01-27 16:04:49.40	4.73	24.45	-39.3	-40.4	22.1	0.00e+00	0	32	0	427819008	52	6004
2026-01-27 16:04:53.43	4.09	24.98	-38.6	-39.6	22.6	0.00e+00	0	32	0	435159040	50	6156
2026-01-27 16:04:57.46	3.42	25.51	-38.6	-39.6	22.6	0.00e+00	0	32	0	443547648	50	6128
2026-01-27 16:05:01.50	2.73	26.06	-38.5	-39.5	22.7	0.00e+00	0	32	0	450887680	50	6058
2026-01-27 16:05:05.54	2.02	26.60	-37.9	-38.8	23.2	0.00e+00	0	32	0	458227712	50	5609
2026-01-27 16:05:09.58	1.28	27.16	-38.7	-39.7	22.6	0.00e+00	0	32	0	465567744	50	6194
2026-01-27 16:05:13.61	0.52	27.72	-38.6	-39.7	22.5	0.00e+00	30	32	0	472907776	50	6179
2026-01-27 16:05:17.65	359.72	28.28	-39.6	-40.8	21.6	0.00e+00	0	32	0	481296384	52	6257
2026-01-27 16:05:21.68	358.90	28.85	-40.4	-41.6	21.0	0.00e+00	0	32	0	488636416	52	6907
2026-01-27 16:05:25.72	358.05	29.43	-39.7	-40.8	21.6	0.00e+00	0	32	0	495976448	52	6303
2026-01-27 16:05:29.76	357.16	30.01	-40.4	-41.6	20.8	0.00e+00	84	32	0	503316480	52	6918
2026-01-27 16:05:33.80	356.24	30.59	-40.7	-42.0	20.6	0.00e+00	0	32	0	511705088	54	6449
2026-01-27 16:05:37.83	355.29	31.18	-40.8	-42.2	20.6	0.00e+00	0	32	0	519045120	54	6566
2026-01-27 16:05:41.87	354.31	31.77	-41.5	-42.9	19.9	0.00e+00	9	32	0	526385152	56	6363
2026-01-27 16:05:45.91	353.28	32.36	-40.5	-41.8	20.9	0.00e+00	18	32	0	533725184	54	6246
2026-01-27 16:05:49.94	352.22	32.95	-41.0	-42.3	20.0	0.00e+00	0	32	0	541065216	54	6642
2026-01-27 16:05:53.98	351.12	33.54	-41.5	-43.0	19.7	0.00e+00	0	32	0	549453824	56	6450
2026-01-27 16:05:58.01	349.97	34.13	-40.1	-41.3	21.3	0.00e+00	0	32	0	556793856	54	5917
2026-01-27 16:06:02.04	348.79	34.72	-38.5	-39.5	22.6	0.00e+00	0	32	0	564133888	50	6046
2026-01-27 16:06:06.08	347.56	35.31	-39.2	-40.3	22.1	0.00e+00	0	32	0	571473920	50	6671
2026-01-27 16:06:10.11	346.28	35.88	-39.9	-41.0	21.6	0.00e+00	0	32	0	578813952	52	6408
2026-01-27 16:06:14.15	344.96	36.46	-40.7	-42.1	20.6	0.00e+00	92	32	0	587202560	54	6487
2026-01-27 16:06:18.19	343.59	37.02	-40.0	-41.1	21.5	0.00e+00	0	32	0	594542592	54	5816
2026-01-27 16:06:22.22	342.17	37.58	-42.3	-44.0	19.0	0.00e+00	0	32	0	601882624	56	7200
2026-01-27 16:06:26.26	340.70	38.12	-41.2	-42.6	20.3	0.00e+00	1	32	0	609222656	56	6135
2026-01-27 16:06:30.29	339.19	38.65	-40.5	-41.8	20.8	0.00e+00	92	32	0	617611264	54	6284
2026-01-27 16:06:34.33	337.62	39.17	-38.7	-39.6	22.6	0.00e+00	0	32	0	624951296	50	6165
2026-01-27 16:06:38.36	336.01	39.66	-39.2	-40.3	22.1	0.00e+00	0	32	0	632291328	50	6652
2026-01-27 16:06:42.40	334.34	40.14	-38.1	-39.1	23.2	0.00e+00	0	32	0	639631360	50	5767
2026-01-27 16:06:46.43	332.63	40.59	-38.6	-39.6	22.6	0.00e+00	0	32	0	646971392	50	6172
2026-01-27 16:06:50.47	330.86	41.02	-37.1	-38.0	23.8	0.00e+00	0	32	0	655360000	48	5732
2026-01-27 16:06:54.50	329.06	41.42	-39.9	-41.1	21.6	0.00e+00	0	32	0	662700032	52	6528
2026-01-27 16:06:58.54	327.20	41.80	-37.5	-38.4	23.6	0.00e+00	66	32	0	670040064	48	6015
2026-01-27 16:07:02.58	325.30	42.14	-36.8	-37.6	24.2	0.00e+00	0	32	0	677380096	46	6148
2026-01-27 16:07:06.62	323.37	42.45	-38.4	-39.4	22.7	0.00e+00	0	32	0	684720128	48	6768
2026-01-27 16:07:10.65	321.40	42.72	-37.9	-38.8	23.3	0.00e+00	0	32	0	693108736	50	5615
2026-01-27 16:07:14.69	319.40	42.96	-38.5	-39.4	23.0	0.00e+00	77	32	0	700448768	50	6017
2026-01-27 16:07:18.73	317.37	43.16	-39.1	-40.1	22.3	0.00e+00	0	32	0	707788800	50	6509
2026-01-27 16:07:22.76	315.32	43.32	-39.5	-40.7	22.1	0.00e+00	0	32	0	715128832	52	6176
2026-01-27 16:07:26.79	313.25	43.43	-39.7	-40.8	21.9	0.00e+00	0	32	0	723517440	50	7056
2026-01-27 16:07:30.82	311.17	43.51	-39.1	-40.2	22.1	0.00e+00	88	32	0	730857472	52	5877
2026-01-27 16:07:34.85	309.08	43.54	-39.8	-41.0	21.7	0.00e+00	0	32	0	738197504	52	6398
2026-01-27 16:07:38.89	306.99	43.53	-40.6	-42.0	20.8	0.00e+00	1	32	0	745537536	52	7210
2026-01-27 16:07:42.92	304.90	43.48	-39.6	-40.6	21.9	0.00e+00	73	32	0	752877568	52	6171
2026-01-27 16:07:46.96	302.82	43.38	-41.4	-42.8	20.0	0.00e+00	16	32	0	761266176	54	7049
2026-01-27 16:07:50.99	300.76	43.25	-41.6	-43.2	19.7	0.00e+00	0	32	0	768606208	56	6556
2026-01-27 16:07:55.03	298.72	43.07	-41.1	-42.4	20.4	0.00e+00	0	32	0	775946240	56	6006
2026-01-27 16:07:59.07	296.70	42.85	-42.1	-43.8	19.1	0.00e+00	92	32	0	783286272	58	6315
2026-01-27 16:08:03.11	294.71	42.60	-41.5	-42.9	19.8	0.00e+00	0	32	0	790626304	56	6374
2026-01-27 16:08:07.15	292.75	42.30	-41.0	-42.5	20.4	0.00e+00	2	32	0	799014912	56	6068
2026-01-27 16:08:11.18	290.83	41.98	-38.0	-39.0	23.2	0.00e+00	0	32	0	806354944	50	5703
2026-01-27 16:08:15.22	288.95	41.62	-37.3	-38.1	23.8	0.00e+00	93	32	0	813694976	48	5814
2026-01-27 16:08:19.26	287.12	41.23	-37.1	-38.0	24.0	0.00e+00	0	32	0	821035008	46	6435
2026-01-27 16:08:23.29	285.33	40.81	-37.0	-37.9	24.0	0.00e+00	0	32	0	829423616	46	6331
2026-01-27 16:08:27.32	283.59	40.37	-37.0	-37.8	24.1	0.00e+00	1	32	0	836763648	48	5612
2026-01-27 16:08:31.36	281.90	39.91	-35.7	-36.4	25.1	0.00e+00	92	32	0	844103680	44	6027
2026-01-27 16:08:35.40	280.25	39.42	-37.3	-38.2	23.7	0.00e+00	0	32	0	851443712	46	6572
2026-01-27 16:08:39.44	278.65	38.91	-36.4	-37.2	24.5	0.00e+00	0	32	0	858783744	46	5883
2026-01-27 16:08:43.47	277.11	38.39	-37.3	-38.2	24.0	0.00e+00	4	32	0	867172352	48	5873
2026-01-27 16:08:47.51	275.61	37.85	-35.4	-36.1	25.2	0.00e+00	0	32	0	874512384	44	5792
2026-01-27 16:08:51.55	274.17	37.30	-38.2	-39.2	23.0	0.00e+00	0	32	0	881852416	48	6579
2026-01-27 16:08:55.58	272.77	36.74	-37.1	-37.9	24.1	0.00e+00	0	32	0	889192448	46	6368
2026-01-27 16:08:59.62	271.42	36.17	-37.7	-38.6	23.5	0.00e+00	84	32	0	897581056	48	6133
2026-01-27 16:09:03.65	270.12	35.59	-38.2	-39.2	23.1	0.00e+00	0	32	0	904921088	50	5846
2026-01-27 16:09:07.69	268.86	35.01	-38.8	-39.8	22.6	0.00e+00	0	32	0	912261120	50	6317
2026-01-27 16:09:11.73	267.65	34.42	-37.2	-38.0	24.0	0.00e+00	0	32	0	919601152	48	5729
2026-01-27 16:09:15.77	266.48	33.82	-39.0	-40.0	22.2	0.00e+00	90	32	0	926941184	50	6459
2026-01-27 16:09:19.81	265.35	33.23	-38.7	-39.7	22.6	0.00e+00	0	32	0	935329792	52	5512
2026-01-27 16:09:23.85	264.26	32.64	-41.6	-43.0	20.0	0.00e+00	0	32	0	942669824	56	6433
2026-01-27 16:09:27.88	263.22	32.04	-43.1	-45.0	18.0	0.00e+00	57	32	0	950009856	60	6423
2026-01-27 16:09:31.92	262.21	31.45	-40.2	-41.4	21.2	0.00e+00	0	32	0	957349888	54	5991
2026-01-27 16:09:35.95	261.24	30.86	-40.2	-41.3	21.5	0.00e+00	0	32	0	964689920	54	5953
2026-01-27 16:09:39.98	260.30	30.28	-40.5	-41.7	20.9	0.00e+00	0	32	0	973078528	54	6204
2026-01-27 16:09:44.02	259.40	29.69	-40.8	-42.0	20.9	0.00e+00	86	32	0	980418560	54	6418
2026-01-27 16:09:48.06	258.53	29.11	-39.4	-40.5	22.1	0.00e+00	0	32	0	987758592	52	6034
2026-01-27 16:09:52.10	257.68	28.54	-39.4	-40.4	22.1	0.00e+00	0	32	0	995098624	52	6012
2026-01-27 16:09:56.14	256.87	27.97	-38.4	-39.3	22.8	0.00e+00	0	32	0	1003487232	50	5963
2026-01-27 16:10:00.18	256.09	27.40	-39.4	-40.4	22.0	0.00e+00	55	32	0	1010827264	50	6715
2026-01-27 16:10:04.21	255.34	26.85	-39.5	-40.6	21.9	0.00e+00	0	32	0	1018167296	50	6876
2026-01-27 16:10:08.24	254.61	26.29	-39.6	-40.7	21.9	0.00e+00	0	32	0	1025507328	52	6178
2026-01-27 16:10:12.28	253.91	25.75	-38.6	-39.6	22.7	0.00e+00	0	32	0	1032847360	50	6116
2026-01-27 16:10:16.31	253.23	25.21	-38.3	-39.3	22.9	0.00e+00	88	32	0	1041235968	50	5903
2026-01-27 16:10:20.35	252.57	24.67	-39.1	-40.0	22.4	0.00e+00	0	32	0	1048576000	50	6457
2026-01-27 16:10:24.38	251.94	24.15	-39.0	-40.0	22.6	0.00e+00	0	32	0	1055916032	50	6416
2026-01-27 16:10:28.42	251.32	23.63	-38.0	-38.9	23.3	0.00e+00	80	32	0	1063256064	50	5656
2026-01-27 16:10:32.45	250.73	23.11	-39.6	-40.7	21.8	0.00e+00	0	32	0	1071644672	50	6972
2026-01-27 16:10:36.49	250.16	22.61	-41.0	-42.3	20.4	0.00e+00	0	32	0	1078984704	54	6691
2026-01-27 16:10:40.53	249.60	22.11	-40.1	-41.2	21.4	0.00e+00	0	32	0	1086324736	54	5863
2026-01-27 16:10:44.56	249.06	21.61	-39.9	-41.0	21.3	0.00e+00	87	32	0	1093664768	54	5748
2026-01-27 16:10:48.59	248.55	21.13	-39.6	-40.6	21.9	0.00e+00	0	32	0	1101004800	52	6158
2026-01-27 16:10:52.63	248.04	20.65	-39.0	-40.0	22.4	0.00e+00	0	32	0	1109393408	52	5729
2026-01-27 16:10:56.67	247.55	20.18	-38.1	-39.1	23.1	0.00e+00	0	32	0	1116733440	50	5765
2026-01-27 16:11:00.71	247.08	19.71	-38.1	-39.0	23.0	0.00e+00	83	32	0	1124073472	48	6464
2026-01-27 16:11:04.75	246.62	19.25	-39.4	-40.5	21.9	0.00e+00	0	32	0	1131413504	50	6803
2026-01-27 16:11:08.78	246.17	18.80	-39.1	-40.1	22.3	0.00e+00	0	32	0	1139802112	50	6499
2026-01-27 16:11:12.82	245.74	18.35	-38.6	-39.6	22.6	0.00e+00	0	32	0	1147142144	50	6106
2026-01-27 16:11:16.85	245.32	17.91	-38.8	-39.8	22.5	0.00e+00	83	32	0	1154482176	50	6254
2026-01-27 16:11:20.89	244.92	17.48	-39.3	-40.4	21.9	0.00e+00	0	32	0	1161822208	50	6720
2026-01-27 16:11:24.93	244.52	17.05	-40.1	-41.2	21.3	0.00e+00	0	32	0	1169162240	52	6602
2026-01-27 16:11:28.96	244.14	16.63	-40.1	-41.3	21.1	0.00e+00	14	32	0	1177550848	52	6633
2026-01-27 16:11:32.99	243.77	16.21	-39.5	-40.5	21.9	0.00e+00	0	32	0	1184890880	52	6083
2026-01-27 16:11:37.03	243.40	15.80	-38.3	-39.2	22.9	0.00e+00	0	32	0	1192230912	50	5887
2026-01-27 16:11:41.07	243.05	15.40	-38.1	-39.0	23.1	0.00e+00	0	32	0	1199570944	50	5759
2026-01-27 16:11:45.11	242.71	15.00	-38.7	-39.7	22.5	0.00e+00	63	32	0	1206910976	50	6218
2026-01-27 16:11:49.14	242.37	14.60	-39.0	-40.0	22.1	0.00e+00	0	32	0	1215299584	50	6406
2026-01-27 16:11:53.16	242.05	14.22	-39.1	-40.1	22.1	0.00e+00	0	32	0	1222639616	50	6472
2026-01-27 16:11:57.20	241.73	13.83	-39.5	-40.6	21.6	0.00e+00	0	32	0	1229979648	50	6863
2026-01-27 16:12:01.23	241.43	13.46	-40.1	-41.3	21.1	0.00e+00	92	32	0	1237319680	52	6646
2026-01-27 16:12:05.27	241.13	13.08	-41.0	-42.3	20.0	0.00e+00	0	32	0	1244659712	54	6679
2026-01-27 16:12:09.30	240.83	12.71	-41.1	-42.5	19.9	0.00e+00	0	32	0	1253048320	54	6770
2026-01-27 16:12:13.33	240.55	12.35	-41.2	-42.6	19.6	0.00e+00	57	32	0	1260388352	54	6895
2026-01-27 16:12:17.37	240.27	11.99	-41.5	-43.0	19.3	0.00e+00	92	32	0	1267728384	54	7222
2026-01-27 16:12:21.41	240.00	11.64	-42.0	-43.6	18.6	0.00e+00	0	32	0	1275068416	56	6882
2026-01-27 16:12:25.45	239.74	11.29	-42.6	-44.4	17.9	0.00e+00	0	32	0	1283457024	56	7573
2026-01-27 16:12:29.48	239.48	10.94	-43.0	-44.9	17.3	0.00e+00	43	32	0	1290797056	58	7141
2026-01-27 16:12:33.52	239.23	10.60	-43.0	-45.1	17.2	0.00e+00	0	32	0	1298137088	58	7260
2026-01-27 16:12:37.56	238.98	10.26	-43.1	-45.2	17.0	0.00e+00	0	32	0	1305477120	58	7343
2026-01-27 16:12:41.59	238.74	9.93	-43.4	-45.6	16.6	0.00e+00	0	32	0	1312817152	58	7705
2026-01-27 16:12:45.63	238.51	9.60	-43.9	-46.3	16.0	0.00e+00	56	32	0	1321205760	60	7447
2026-01-27 16:12:49.66	238.28	9.27	-44.5	-47.2	15.1	0.00e+00	0	32	0	1328545792	60	8295
2026-01-27 16:12:53.70	238.06	8.95	-44.7	-47.7	14.5	0.00e+00	0	32	0	1335885824	60	8802
2026-01-27 16:12:57.74	237.84	8.63	-45.2	-48.5	13.6	4.50e-06	0	32	0	1343225856	60	9634
2026-01-27 16:13:01.77	237.63	8.32	-45.5	-49.2	12.6	5.95e-05	76	32	0	1350565888	60	10437
2026-01-27 16:13:05.81	237.42	8.01	-46.0	-50.3	11.6	6.83e-04	0	32	0	1358954496	60	11825
2026-01-27 16:13:09.85	237.22	7.70	-46.5	-51.7	10.0	6.36e-03	0	32	0	1366294528	60	13949
2026-01-27 16:13:13.88	237.02	7.40	-46.7	-52.5	9.1	2.11e-02	0	32	0	1373634560	60	15179
2026-01-27 16:13:17.91	236.82	7.10	-47.0	-53.5	7.8	7.67e-02	0	32	0	1380974592	60	17112
2026-01-27 16:13:21.94	236.63	6.80	-47.2	-54.3	6.7	1.64e-01	0	32	0	1389363200	60	18851
2026-01-27 16:13:25.98	236.45	6.50	-47.3	-55.3	5.7	3.22e-01	0	32	0	1396703232	60	20937
2026-01-27 16:13:30.01	236.26	6.21	-47.3	-55.9	5.0	5.44e-01	75	32	0	1404043264	60	22598
2026-01-27 16:13:34.04	236.08	5.92	-47.3	-56.1	4.8	6.33e-01	0	32	0	1411383296	60	23135
2026-01-27 16:13:38.08	235.91	5.64	-47.3	-56.3	4.6	7.05e-01	0	32	0	1418723328	60	23693
2026-01-27 16:13:42.11	235.74	5.36	-47.1	-57.0	4.1	9.99e-01	2	32	0	1427111936	60	25513
2026-01-27 16:13:46.14	235.57	5.08	-47.1	-57.8	3.8	1.40e+00	0	32	0	1430257664	60	28019
2026-01-27 16:13:50.18	235.41	4.80	-47.2	-59.9	3.7	1.47e+00	0	32	104	1430257664	60	35825
2026-01-27 16:13:54.21	235.25	4.52	-47.1	-60.5	3.6	1.50e+00	0	32	104	1430257664	60	38117
2026-01-27 16:13:58.24	235.09	4.25	-46.9	-61.7	3.6	1.51e+00	0	32	104	1430257664	60	43795
2026-01-27 16:14:02.27	234.93	3.98	-46.5	-61.7	3.6	1.51e+00	0	32	104	1430257664	60	44091
2026-01-27 16:14:06.30	234.78	3.71	-46.5	-61.6	3.6	1.51e+00	0	32	104	1430257664	60	43638
2026-01-27 16:14:10.34	234.63	3.45	-46.4	-61.5	3.6	1.51e+00	0	32	104	1430257664	60	43118
2026-01-27 16:14:14.37	234.49	3.19	-46.3	-61.5	3.6	1.51e+00	0	32	104	1430257664	60	42802
2026-01-27 16:14:18.40	234.34	2.93	-47.5	-62.7	3.5	1.51e+00	0	32	104	1430257664	60	49528
2026-01-27 16:14:22.44	234.20	2.67	-48.9	-64.1	3.6	1.51e+00	0	32	104	1430257664	60	57828
2026-01-27 16:14:26.48	234.06	2.41	-49.1	-64.3	3.6	1.51e+00	0	32	104	1430257664	60	59195
2026-01-27 16:14:30.53	233.93	2.16	-49.1	-64.3	3.6	1.51e+00	0	32	104	1430257664	60	59336
2026-01-27 16:14:34.56	233.80	1.91	-49.0	-64.2	3.6	1.51e+00	0	32	104	1430257664	60	58290
2026-01-27 16:14:38.60	233.66	1.66	-48.9	-64.1	3.6	1.51e+00	0	32	104	1430257664	60	58114
2026-01-27 16:14:42.64	233.54	1.41	-48.9	-64.1	3.6	1.51e+00	0	32	104	1430257664	60	58233
2026-01-27 16:14:46.68	233.41	1.16	-48.9	-64.1	3.6	1.51e+00	0	32	104	1430257664	60	58199
2026-01-27 16:14:50.72	233.29	0.92	-49.0	-64.2	3.6	1.51e+00	0	32	104	1430257664	60	58619
2026-01-27 16:14:54.75	233.17	0.68	-49.0	-64.1	3.6	1.51e+00	0	32	104	1430257664	60	57925
2026-01-27 16:14:58.79	233.05	0.44	-48.9	-64.1	3.6	1.51e+00	0	32	104	1430257664	60	58163
2026-01-27 16:15:02.83	232.93	0.20	-48.9	-64.1	3.6	1.51e+00	0	33	104	1430257664	60	58095
2026-01-27 16:15:06.87	232.81	-0.04	-49.0	-64.2	3.6	1.51e+00	0	33	104	1430257664	60	58496

#Closed at: 2026-01-27 16:15:08
#Recorded file [1430 MB]: D:/lorett/data/35029_260128_040006.dat