passes_logs/2026/01/27/R4.6S_Anadyr/R4.6S_Anadyr__20260127_133619_FENGYUN_3D_rec.log

#Pass ID: 20260127_133619_FENGYUN 3D
#Satellite: FENGYUN 3D
#Configuration: FENGYUN 3D
#almurnet v.1.7.20251203
#Start time: 2026-01-27 13:36:20

#Version: 2.2.20231116
#Station: R4.6S_Anadyr
#Location: 177.4865 lon 64.73178 lat
#TLE: 1 43010U 17072A   26026.91415486  .00000072  00000+0  55983-4 0  9991
#TLE: 2 43010  98.9962 358.9161 0002508  89.0320 271.1142 14.19700283424949

#Time	Az	El	Level	Level2	SNR	BER	BlckErr	Temp	State	Recorded	gain1	gain2
2026-01-27 13:36:20.62	21.74	0.05	-48.9	-63.8	3.5	1.51e+00	0	30	0	0	60	55938
2026-01-27 13:36:23.65	22.03	0.16	-48.9	-61.0	3.6	8.45e-01	0	31	104	0	60	40619
2026-01-27 13:36:26.68	22.33	0.28	-48.9	-61.0	3.6	8.45e-01	0	31	104	0	60	40701
2026-01-27 13:36:29.71	22.64	0.39	-49.0	-61.1	3.6	8.44e-01	0	31	104	0	60	40865
2026-01-27 13:36:32.73	22.94	0.51	-48.9	-61.1	3.6	8.46e-01	0	31	104	0	60	40891
2026-01-27 13:36:35.76	23.25	0.62	-48.8	-60.9	3.6	8.44e-01	0	31	104	0	60	39997
2026-01-27 13:36:38.79	23.55	0.74	-48.6	-60.7	3.6	8.44e-01	0	31	104	0	60	39332
2026-01-27 13:36:41.82	23.86	0.86	-48.4	-60.5	3.6	8.45e-01	0	31	104	0	60	38098
2026-01-27 13:36:44.85	24.18	0.97	-47.7	-59.8	3.6	8.46e-01	0	31	104	0	60	35496
2026-01-27 13:36:47.87	24.49	1.08	-47.4	-59.4	3.6	8.46e-01	0	31	104	0	60	33923
2026-01-27 13:36:50.91	24.81	1.20	-47.4	-59.4	3.6	8.45e-01	0	32	104	0	60	33856
2026-01-27 13:36:53.94	25.13	1.31	-47.4	-59.4	3.6	8.45e-01	0	32	104	0	60	33610
2026-01-27 13:36:56.95	25.45	1.43	-47.4	-59.4	3.6	8.45e-01	0	32	104	0	60	33797
2026-01-27 13:36:59.97	25.78	1.54	-47.4	-59.4	3.6	8.45e-01	0	32	104	0	60	33737
2026-01-27 13:37:03.01	26.10	1.65	-47.4	-59.4	3.6	8.45e-01	0	32	104	0	60	33678
2026-01-27 13:37:06.03	26.43	1.77	-47.4	-59.4	3.6	8.46e-01	0	32	104	0	60	33904
2026-01-27 13:37:09.06	26.77	1.88	-47.3	-59.4	3.6	8.46e-01	0	32	104	0	60	33715
2026-01-27 13:37:12.09	27.10	1.99	-47.4	-59.4	3.6	8.44e-01	0	32	104	0	60	33672
2026-01-27 13:37:15.12	27.44	2.10	-47.3	-59.4	3.6	8.45e-01	0	32	104	0	60	33851
2026-01-27 13:37:18.15	27.78	2.22	-47.4	-59.4	3.6	8.44e-01	0	32	104	0	60	33928
2026-01-27 13:37:21.18	28.12	2.33	-47.3	-59.2	3.6	8.45e-01	0	32	104	0	60	33081
2026-01-27 13:37:24.20	28.46	2.44	-47.3	-59.4	3.6	8.45e-01	0	32	104	0	60	33588
2026-01-27 13:37:27.24	28.81	2.55	-47.3	-59.4	3.6	8.46e-01	0	32	104	0	60	33684
2026-01-27 13:37:30.27	29.16	2.66	-47.2	-57.7	3.7	8.44e-01	0	32	104	0	60	27630
2026-01-27 13:37:33.29	29.51	2.77	-43.9	-46.5	12.4	6.62e-03	0	32	0	5242880	60	7616
2026-01-27 13:37:36.33	29.87	2.88	-36.2	-37.0	21.4	0.00e+00	0	32	0	22020096	46	5745
2026-01-27 13:37:39.36	30.22	2.99	-38.5	-39.6	18.8	0.00e+00	0	32	0	38797312	48	6893
2026-01-27 13:37:42.39	30.58	3.10	-36.9	-37.8	19.4	0.00e+00	0	32	0	56623104	46	6278
2026-01-27 13:37:45.42	30.94	3.21	-41.2	-42.7	17.2	0.00e+00	0	32	0	60817408	58	5522
2026-01-27 13:37:48.46	31.31	3.32	-38.3	-39.3	19.4	0.00e+00	0	32	0	78643200	48	6628
2026-01-27 13:37:51.49	31.68	3.42	-35.4	-36.2	22.4	0.00e+00	0	32	0	95420416	44	5863
2026-01-27 13:37:54.52	32.05	3.53	-35.8	-36.6	21.9	0.00e+00	0	32	0	112197632	44	6153
2026-01-27 13:37:57.55	32.42	3.64	-36.3	-37.2	21.5	0.00e+00	0	32	0	128974848	44	6591
2026-01-27 13:38:00.58	32.79	3.74	-35.9	-36.7	21.9	0.00e+00	0	32	0	146800640	44	6211
2026-01-27 13:38:03.61	33.17	3.85	-35.6	-36.3	22.1	0.00e+00	0	32	0	163577856	44	5960
2026-01-27 13:38:06.64	33.55	3.95	-35.5	-36.3	22.1	0.00e+00	0	32	0	180355072	44	5948
2026-01-27 13:38:09.67	33.93	4.05	-35.7	-36.5	22.0	0.00e+00	0	32	0	197132288	44	6038
2026-01-27 13:38:12.70	34.32	4.16	-35.3	-36.1	22.6	0.00e+00	0	32	0	214958080	44	5821
2026-01-27 13:38:15.73	34.71	4.26	-35.1	-35.8	22.7	0.00e+00	0	32	0	231735296	44	5624
2026-01-27 13:38:18.76	35.10	4.36	-35.4	-36.1	22.5	0.00e+00	0	32	0	248512512	44	5828
2026-01-27 13:38:21.80	35.49	4.46	-36.0	-36.8	21.9	0.00e+00	0	32	0	265289728	44	6296
2026-01-27 13:38:24.83	35.89	4.56	-35.3	-36.0	22.6	0.00e+00	0	32	0	283115520	44	5761
2026-01-27 13:38:27.86	36.29	4.66	-35.7	-36.5	22.2	0.00e+00	0	32	0	299892736	44	6059
2026-01-27 13:38:30.89	36.69	4.76	-35.5	-36.3	22.2	0.00e+00	0	32	0	316669952	44	5953
2026-01-27 13:38:33.92	37.09	4.86	-35.5	-36.3	22.3	0.00e+00	0	32	0	334495744	44	5902
2026-01-27 13:38:36.95	37.50	4.96	-35.7	-36.5	22.2	0.00e+00	0	32	0	351272960	44	6047
2026-01-27 13:38:39.98	37.91	5.06	-35.5	-36.3	22.3	0.00e+00	0	32	0	368050176	44	5944
2026-01-27 13:38:43.01	38.32	5.15	-34.9	-35.7	22.9	0.00e+00	0	32	0	384827392	44	5544
2026-01-27 13:38:46.04	38.73	5.25	-35.1	-35.9	22.8	0.00e+00	0	32	0	402653184	44	5657
2026-01-27 13:38:49.07	39.15	5.34	-34.7	-35.4	23.3	0.00e+00	0	32	0	419430400	42	6006
2026-01-27 13:38:52.10	39.57	5.43	-35.1	-35.8	23.0	0.00e+00	0	32	0	436207616	42	6304
2026-01-27 13:38:55.13	39.99	5.53	-34.9	-35.6	23.1	0.00e+00	0	32	0	452984832	42	6164
2026-01-27 13:38:58.16	40.41	5.62	-34.9	-35.6	23.2	0.00e+00	0	32	0	469762048	42	6154
2026-01-27 13:39:01.19	40.84	5.71	-34.5	-35.3	23.4	0.00e+00	0	32	0	487587840	42	5908
2026-01-27 13:39:04.22	41.27	5.80	-34.5	-35.2	23.6	0.00e+00	0	32	0	504365056	42	5843
2026-01-27 13:39:07.25	41.70	5.88	-34.5	-35.3	23.5	0.00e+00	0	32	0	521142272	42	5900
2026-01-27 13:39:10.28	42.14	5.97	-34.6	-35.3	23.4	0.00e+00	0	32	0	538968064	42	5930
2026-01-27 13:39:13.31	42.57	6.06	-34.7	-35.4	23.4	0.00e+00	0	32	0	555745280	42	6011
2026-01-27 13:39:16.34	43.01	6.14	-34.6	-35.3	23.5	0.00e+00	0	32	0	572522496	42	5941
2026-01-27 13:39:19.37	43.46	6.23	-34.7	-35.4	23.4	0.00e+00	0	32	0	589299712	42	6029
2026-01-27 13:39:22.40	43.90	6.31	-34.3	-35.1	23.7	0.00e+00	0	32	0	606076928	42	5770
2026-01-27 13:39:25.43	44.35	6.39	-34.6	-35.3	23.5	0.00e+00	0	32	0	623902720	42	5929
2026-01-27 13:39:28.46	44.80	6.47	-34.5	-35.2	23.5	0.00e+00	0	32	0	640679936	42	5867
2026-01-27 13:39:31.49	45.25	6.55	-34.5	-35.2	23.6	0.00e+00	0	32	0	657457152	42	5858
2026-01-27 13:39:34.52	45.70	6.63	-34.4	-35.1	23.7	0.00e+00	0	32	0	675282944	42	5785
2026-01-27 13:39:37.55	46.16	6.71	-34.4	-35.1	23.7	0.00e+00	0	32	0	692060160	42	5823
2026-01-27 13:39:40.58	46.62	6.78	-34.5	-35.3	23.5	0.00e+00	0	32	0	708837376	42	5910
2026-01-27 13:39:43.61	47.08	6.85	-34.3	-35.1	23.7	0.00e+00	0	32	0	725614592	42	5763
2026-01-27 13:39:46.64	47.54	6.93	-34.2	-34.9	23.9	0.00e+00	0	32	0	743440384	42	5659
2026-01-27 13:39:49.67	48.01	7.00	-34.4	-35.1	23.7	0.00e+00	0	32	0	760217600	42	5797
2026-01-27 13:39:52.70	48.48	7.07	-34.4	-35.1	23.7	0.00e+00	0	32	0	776994816	42	5804
2026-01-27 13:39:55.73	48.95	7.14	-34.5	-35.3	23.6	0.00e+00	0	32	0	793772032	42	5908
2026-01-27 13:39:58.76	49.42	7.20	-34.4	-35.1	23.8	0.00e+00	0	32	0	811597824	42	5826
2026-01-27 13:40:01.79	49.89	7.27	-34.3	-35.0	23.9	0.00e+00	0	32	0	828375040	42	5744
2026-01-27 13:40:04.82	50.37	7.33	-34.2	-35.0	23.9	0.00e+00	0	32	0	845152256	42	5710
2026-01-27 13:40:07.85	50.85	7.40	-34.1	-34.8	24.2	0.00e+00	0	32	0	861929472	42	5607
2026-01-27 13:40:10.88	51.33	7.46	-33.8	-34.6	24.3	0.00e+00	0	32	0	879755264	42	5443
2026-01-27 13:40:13.91	51.81	7.52	-34.0	-34.8	24.0	0.00e+00	0	32	0	896532480	42	5573
2026-01-27 13:40:16.94	52.29	7.57	-34.1	-34.8	24.0	0.00e+00	0	32	0	913309696	42	5620
2026-01-27 13:40:19.96	52.78	7.63	-34.0	-34.7	24.2	0.00e+00	0	32	0	930086912	42	5508
2026-01-27 13:40:22.99	53.26	7.68	-33.9	-34.6	24.1	0.00e+00	0	32	0	947912704	40	6129
2026-01-27 13:40:26.02	53.75	7.74	-33.8	-34.6	24.2	0.00e+00	0	32	0	964689920	40	6109
2026-01-27 13:40:29.04	54.24	7.79	-34.0	-34.7	24.0	0.00e+00	0	32	0	981467136	40	6213
2026-01-27 13:40:32.08	54.74	7.84	-34.1	-34.8	23.9	0.00e+00	0	32	0	998244352	40	6309
2026-01-27 13:40:35.10	55.23	7.89	-34.0	-34.8	24.1	0.00e+00	0	32	0	1015021568	40	6251
2026-01-27 13:40:38.14	55.73	7.93	-33.8	-34.6	24.2	0.00e+00	0	32	0	1032847360	40	6105
2026-01-27 13:40:41.16	56.23	7.98	-33.7	-34.4	24.3	0.00e+00	0	32	0	1049624576	40	6021
2026-01-27 13:40:44.19	56.72	8.02	-33.9	-34.6	24.2	0.00e+00	0	32	0	1066401792	40	6155
2026-01-27 13:40:47.23	57.23	8.06	-34.1	-34.8	24.1	0.00e+00	0	32	0	1084227584	40	6306
2026-01-27 13:40:50.25	57.73	8.10	-34.0	-34.8	24.1	0.00e+00	0	32	0	1101004800	40	6260
2026-01-27 13:40:53.28	58.23	8.14	-34.0	-34.7	24.2	0.00e+00	0	32	0	1117782016	40	6199
2026-01-27 13:40:56.31	58.73	8.17	-33.9	-34.6	24.2	0.00e+00	0	32	0	1134559232	40	6151
2026-01-27 13:40:59.35	59.24	8.21	-34.0	-34.7	24.2	0.00e+00	0	32	0	1152385024	40	6202
2026-01-27 13:41:02.38	59.75	8.24	-33.8	-34.5	24.3	0.00e+00	0	32	0	1169162240	40	6060
2026-01-27 13:41:05.41	60.26	8.27	-33.8	-34.5	24.3	0.00e+00	0	32	0	1185939456	40	6070
2026-01-27 13:41:08.44	60.76	8.29	-33.7	-34.4	24.4	0.00e+00	0	32	0	1202716672	40	6007
2026-01-27 13:41:11.47	61.27	8.32	-33.8	-34.5	24.2	0.00e+00	0	32	0	1220542464	40	6055
2026-01-27 13:41:14.50	61.78	8.34	-33.9	-34.6	24.0	0.00e+00	0	32	0	1237319680	40	6155
2026-01-27 13:41:17.53	62.30	8.37	-34.0	-34.7	24.0	0.00e+00	0	32	0	1254096896	40	6192
2026-01-27 13:41:20.56	62.81	8.39	-34.0	-34.8	23.9	0.00e+00	0	32	0	1271922688	40	6282
2026-01-27 13:41:23.60	63.32	8.41	-33.8	-34.5	24.3	0.00e+00	0	32	0	1288699904	40	6058
2026-01-27 13:41:26.63	63.84	8.42	-33.6	-34.3	23.8	0.00e+00	0	32	0	1305477120	40	5900
2026-01-27 13:41:29.66	64.35	8.44	-33.7	-34.4	24.1	0.00e+00	0	32	0	1322254336	40	5989
2026-01-27 13:41:32.69	64.86	8.45	-33.7	-34.3	24.4	0.00e+00	0	33	0	1339031552	40	5960
2026-01-27 13:41:35.72	65.38	8.46	-33.8	-34.5	24.3	0.00e+00	0	32	0	1356857344	40	6075
2026-01-27 13:41:38.75	65.89	8.47	-33.8	-34.6	24.3	0.00e+00	0	32	0	1373634560	40	6117
2026-01-27 13:41:41.79	66.41	8.47	-33.6	-34.4	24.4	0.00e+00	0	33	0	1390411776	40	5965
2026-01-27 13:41:44.82	66.93	8.48	-33.8	-34.5	24.1	0.00e+00	0	32	0	1408237568	40	6095
2026-01-27 13:41:47.84	67.44	8.48	-33.9	-34.6	23.9	0.00e+00	0	32	0	1425014784	40	6126
2026-01-27 13:41:50.87	67.96	8.48	-33.9	-34.6	24.1	0.00e+00	0	32	0	1441792000	40	6170
2026-01-27 13:41:53.90	68.47	8.48	-33.8	-34.5	24.0	0.00e+00	0	32	0	1458569216	40	6036
2026-01-27 13:41:56.94	68.99	8.48	-33.6	-34.3	24.5	0.00e+00	0	32	0	1476395008	40	5929
2026-01-27 13:41:59.97	69.51	8.47	-33.8	-34.5	24.4	0.00e+00	0	32	0	1493172224	40	6086
2026-01-27 13:42:03.00	70.02	8.46	-33.8	-34.5	24.3	0.00e+00	0	33	0	1509949440	40	6090
2026-01-27 13:42:06.03	70.54	8.45	-33.8	-34.5	24.3	0.00e+00	0	32	0	1526726656	40	6067
2026-01-27 13:42:09.06	71.05	8.44	-33.9	-34.6	24.2	0.00e+00	0	32	0	1543503872	40	6122
2026-01-27 13:42:12.09	71.57	8.43	-34.0	-34.7	24.1	0.00e+00	0	32	0	1561329664	40	6185
2026-01-27 13:42:15.12	72.08	8.41	-34.1	-34.8	24.0	0.00e+00	0	32	0	1578106880	40	6266
2026-01-27 13:42:18.15	72.59	8.40	-33.9	-34.7	23.9	0.00e+00	0	32	0	1594884096	40	6176
2026-01-27 13:42:21.18	73.11	8.38	-33.8	-34.6	23.8	0.00e+00	0	32	0	1612709888	40	6108
2026-01-27 13:42:24.21	73.62	8.36	-34.0	-34.7	24.0	0.00e+00	0	32	0	1629487104	40	6176
2026-01-27 13:42:27.24	74.13	8.33	-33.7	-34.4	24.4	0.00e+00	0	33	0	1646264320	40	5987
2026-01-27 13:42:30.27	74.64	8.31	-33.7	-34.4	24.3	0.00e+00	0	33	0	1663041536	40	6006
2026-01-27 13:42:33.30	75.15	8.28	-33.6	-34.3	24.5	0.00e+00	0	33	0	1680867328	40	5929
2026-01-27 13:42:36.32	75.66	8.25	-33.9	-34.6	24.2	0.00e+00	0	32	0	1697644544	40	6132
2026-01-27 13:42:39.35	76.17	8.22	-34.1	-34.8	24.0	0.00e+00	0	32	0	1714421760	40	6255
2026-01-27 13:42:42.38	76.67	8.19	-33.8	-34.5	24.3	0.00e+00	0	32	0	1731198976	40	6099
2026-01-27 13:42:45.41	77.18	8.15	-34.0	-34.6	24.2	0.00e+00	0	33	0	1747976192	40	6140
2026-01-27 13:42:48.44	77.68	8.12	-34.1	-34.8	24.0	0.00e+00	0	33	0	1765801984	40	6274
2026-01-27 13:42:51.47	78.19	8.08	-33.9	-34.6	24.2	0.00e+00	0	33	0	1782579200	40	6145
2026-01-27 13:42:54.49	78.69	8.04	-34.0	-34.7	23.9	0.00e+00	0	33	0	1799356416	40	6196
2026-01-27 13:42:57.52	79.19	8.00	-34.0	-34.6	24.2	0.00e+00	0	33	0	1817182208	40	6157
2026-01-27 13:43:00.55	79.69	7.95	-33.8	-34.6	24.3	0.00e+00	0	33	0	1833959424	40	6123
2026-01-27 13:43:03.58	80.18	7.91	-34.0	-34.7	24.1	0.00e+00	0	33	0	1850736640	40	6241
2026-01-27 13:43:06.61	80.68	7.86	-34.0	-34.7	24.1	0.00e+00	0	33	0	1867513856	40	6233
2026-01-27 13:43:09.64	81.18	7.81	-34.1	-34.8	23.9	0.00e+00	0	32	0	1885339648	40	6307
2026-01-27 13:43:12.67	81.67	7.76	-34.1	-34.8	24.0	0.00e+00	0	33	0	1902116864	40	6317
2026-01-27 13:43:15.69	82.16	7.71	-34.0	-34.7	24.2	0.00e+00	0	33	0	1918894080	40	6214
2026-01-27 13:43:18.72	82.65	7.66	-33.9	-34.6	24.2	0.00e+00	0	32	0	1935671296	40	6139
2026-01-27 13:43:21.75	83.14	7.60	-34.4	-35.1	23.7	0.00e+00	0	33	0	1952448512	40	6487
2026-01-27 13:43:24.77	83.62	7.54	-34.6	-35.4	23.5	0.00e+00	0	33	0	1970274304	42	5967
2026-01-27 13:43:27.81	84.11	7.48	-34.3	-35.1	23.8	0.00e+00	0	33	0	1987051520	42	5805
2026-01-27 13:43:30.83	84.59	7.42	-34.3	-35.1	23.8	0.00e+00	0	33	0	2003828736	42	5815
2026-01-27 13:43:33.86	85.07	7.36	-34.5	-35.2	23.6	0.00e+00	0	32	0	2020605952	42	5849
2026-01-27 13:43:36.90	85.55	7.30	-34.4	-35.1	23.6	0.00e+00	0	32	0	2038431744	42	5803
2026-01-27 13:43:39.92	86.02	7.23	-34.4	-35.2	23.6	0.00e+00	0	32	0	2055208960	42	5871
2026-01-27 13:43:42.95	86.50	7.17	-34.5	-35.3	23.4	0.00e+00	0	32	0	2071986176	42	5961
2026-01-27 13:43:45.98	86.97	7.10	-34.8	-35.6	23.2	0.00e+00	0	33	0	2089811968	42	6173
2026-01-27 13:43:49.00	87.44	7.03	-34.4	-35.1	23.7	0.00e+00	0	33	0	2106589184	42	5792
2026-01-27 13:43:52.03	87.91	6.96	-34.2	-35.0	23.7	0.00e+00	0	32	0	2123366400	42	5728
2026-01-27 13:43:55.05	88.37	6.89	-34.4	-35.2	23.6	0.00e+00	0	33	0	2140143616	42	5832
2026-01-27 13:43:58.08	88.84	6.81	-34.4	-35.2	23.6	0.00e+00	0	32	0	2156920832	42	5843
2026-01-27 13:44:01.11	89.30	6.74	-34.8	-35.5	23.3	0.00e+00	0	32	0	2174746624	42	6075
2026-01-27 13:44:04.15	89.76	6.66	-34.7	-35.4	23.2	0.00e+00	0	33	0	2191523840	42	6028
2026-01-27 13:44:07.17	90.21	6.58	-34.5	-35.3	23.3	0.00e+00	0	32	0	2208301056	42	5953
2026-01-27 13:44:10.20	90.67	6.50	-35.0	-35.8	22.9	0.00e+00	0	32	0	2225078272	42	6295
2026-01-27 13:44:13.22	91.12	6.42	-34.6	-35.4	23.3	0.00e+00	0	33	0	2242904064	42	5995
2026-01-27 13:44:16.26	91.57	6.34	-34.4	-35.1	23.4	0.00e+00	0	33	0	2259681280	42	5790
2026-01-27 13:44:19.29	92.02	6.26	-34.3	-35.0	23.6	0.00e+00	0	33	0	2276458496	42	5742
2026-01-27 13:44:22.31	92.46	6.17	-34.8	-35.6	23.1	0.00e+00	0	33	0	2294284288	42	6157
2026-01-27 13:44:25.34	92.90	6.09	-35.1	-35.9	22.8	0.00e+00	0	32	0	2311061504	42	6329
2026-01-27 13:44:28.37	93.34	6.00	-35.0	-35.9	22.9	0.00e+00	0	32	0	2327838720	42	6322
2026-01-27 13:44:31.40	93.78	5.92	-34.9	-35.7	22.8	0.00e+00	0	33	0	2344615936	42	6217
2026-01-27 13:44:34.43	94.22	5.83	-34.9	-35.7	22.9	0.00e+00	0	32	0	2361393152	42	6226
2026-01-27 13:44:37.46	94.65	5.74	-34.8	-35.5	22.9	0.00e+00	0	32	0	2379218944	42	6088
2026-01-27 13:44:40.48	95.08	5.65	-34.8	-35.6	23.0	0.00e+00	0	32	0	2395996160	42	6137
2026-01-27 13:44:43.52	95.51	5.56	-35.0	-35.8	23.0	0.00e+00	0	32	0	2412773376	42	6249
2026-01-27 13:44:46.55	95.93	5.46	-35.5	-36.2	22.2	0.00e+00	0	32	0	2429550592	42	6589
2026-01-27 13:44:49.58	96.35	5.37	-35.0	-35.8	22.7	0.00e+00	0	32	0	2447376384	42	6294
2026-01-27 13:44:52.61	96.77	5.28	-35.2	-36.0	22.2	0.00e+00	0	32	0	2464153600	42	6425
2026-01-27 13:44:55.64	97.19	5.18	-35.0	-35.7	22.3	0.00e+00	0	32	0	2480930816	42	6228
2026-01-27 13:44:58.66	97.60	5.09	-35.2	-36.1	22.4	0.00e+00	0	32	0	2497708032	42	6466
2026-01-27 13:45:01.69	98.01	4.99	-35.4	-36.4	22.2	0.00e+00	0	32	0	2515533824	42	6694
2026-01-27 13:45:04.72	98.42	4.89	-35.8	-36.7	21.8	0.00e+00	0	32	0	2532311040	44	6180
2026-01-27 13:45:07.75	98.83	4.79	-35.1	-35.9	22.5	0.00e+00	0	32	0	2549088256	44	5656
2026-01-27 13:45:10.77	99.23	4.69	-35.4	-36.2	22.1	0.00e+00	0	32	0	2565865472	44	5839
2026-01-27 13:45:13.80	99.63	4.59	-36.0	-36.9	21.1	0.00e+00	0	33	0	2583691264	44	6320
2026-01-27 13:45:16.83	100.03	4.49	-35.7	-36.5	21.8	0.00e+00	0	33	0	2600468480	44	6083
2026-01-27 13:45:19.86	100.43	4.39	-35.1	-36.1	22.2	0.00e+00	0	33	0	2617245696	44	5780
2026-01-27 13:45:22.88	100.82	4.29	-35.2	-36.2	22.3	0.00e+00	0	32	0	2634022912	44	5831
2026-01-27 13:45:25.91	101.21	4.18	-35.3	-36.2	22.2	0.00e+00	0	33	0	2651848704	44	5885
2026-01-27 13:45:28.94	101.60	4.08	-35.5	-36.4	21.7	0.00e+00	0	32	0	2668625920	44	6017
2026-01-27 13:45:31.97	101.98	3.98	-35.2	-36.0	22.2	0.00e+00	0	33	0	2685403136	44	5702
2026-01-27 13:45:34.99	102.36	3.87	-35.1	-36.1	21.9	0.00e+00	0	33	0	2702180352	44	5799
2026-01-27 13:45:38.02	102.74	3.76	-36.2	-37.2	21.1	0.00e+00	0	32	0	2720006144	44	6541
2026-01-27 13:45:41.04	103.12	3.66	-36.6	-37.5	20.6	0.00e+00	0	32	0	2736783360	46	6072
2026-01-27 13:45:44.07	103.49	3.55	-36.2	-37.2	21.0	0.00e+00	0	33	0	2753560576	46	5860
2026-01-27 13:45:47.10	103.87	3.44	-35.6	-36.5	21.5	0.00e+00	0	33	0	2770337792	44	6065
2026-01-27 13:45:50.13	104.24	3.34	-35.9	-36.8	21.1	0.00e+00	0	33	0	2788163584	44	6307
2026-01-27 13:45:53.16	104.60	3.23	-36.8	-37.9	20.0	0.00e+00	0	33	0	2804940800	46	6356
2026-01-27 13:45:56.19	104.97	3.12	-37.0	-38.2	19.6	0.00e+00	0	32	0	2821718016	46	6600
2026-01-27 13:45:59.21	105.33	3.01	-36.8	-37.9	19.7	0.00e+00	0	32	0	2838495232	46	6322
2026-01-27 13:46:02.23	105.69	2.90	-48.3	-60.5	3.6	8.47e-01	0	33	104	2839543808	60	38186
2026-01-27 13:46:05.26	106.04	2.79	-48.6	-60.8	3.6	8.46e-01	0	32	104	2839543808	60	39547
2026-01-27 13:46:08.30	106.40	2.68	-48.7	-60.8	3.6	8.45e-01	0	33	104	2839543808	60	39827
2026-01-27 13:46:11.33	106.75	2.57	-48.8	-61.0	3.6	8.45e-01	0	33	104	2839543808	60	40461
2026-01-27 13:46:14.36	107.10	2.45	-48.8	-61.0	3.6	8.46e-01	0	33	104	2839543808	60	40353
2026-01-27 13:46:17.38	107.44	2.34	-48.8	-60.9	3.6	8.45e-01	0	33	104	2839543808	60	40189
2026-01-27 13:46:20.41	107.79	2.23	-48.8	-60.9	3.6	8.45e-01	0	33	104	2839543808	60	40281
2026-01-27 13:46:23.44	108.13	2.12	-48.8	-60.9	3.6	8.44e-01	0	33	104	2839543808	60	40128
2026-01-27 13:46:26.48	108.47	2.00	-48.8	-60.9	3.5	8.46e-01	0	33	104	2839543808	60	40018
2026-01-27 13:46:29.51	108.81	1.89	-48.8	-60.9	3.6	8.45e-01	0	33	104	2839543808	60	40166
2026-01-27 13:46:32.54	109.14	1.77	-48.8	-60.9	3.6	8.45e-01	0	33	104	2839543808	60	40013
2026-01-27 13:46:35.57	109.47	1.66	-48.8	-60.9	3.6	8.46e-01	0	33	104	2839543808	60	40102
2026-01-27 13:46:38.59	109.80	1.55	-48.8	-60.9	3.6	8.44e-01	0	33	104	2839543808	60	39963
2026-01-27 13:46:41.63	110.13	1.43	-48.8	-60.9	3.6	8.45e-01	0	33	104	2839543808	60	39952
2026-01-27 13:46:44.66	110.45	1.32	-48.8	-60.9	3.6	8.45e-01	0	33	104	2839543808	60	40006
2026-01-27 13:46:47.68	110.77	1.20	-48.8	-60.9	3.6	8.45e-01	0	33	104	2839543808	60	39992
2026-01-27 13:46:50.71	111.09	1.09	-48.7	-60.8	3.6	8.45e-01	0	33	104	2839543808	60	39846
2026-01-27 13:46:53.74	111.41	0.97	-48.8	-60.9	3.6	8.45e-01	0	33	104	2839543808	60	40262
2026-01-27 13:46:56.77	111.72	0.85	-48.7	-60.9	3.6	8.45e-01	0	33	104	2839543808	60	40032
2026-01-27 13:46:59.80	112.04	0.74	-48.8	-60.8	3.5	8.45e-01	0	33	104	2839543808	60	39822
2026-01-27 13:47:02.83	112.35	0.62	-48.8	-60.9	3.5	8.46e-01	0	33	104	2839543808	60	40176
2026-01-27 13:47:05.86	112.65	0.50	-48.7	-60.9	3.6	8.45e-01	0	33	104	2839543808	60	39989
2026-01-27 13:47:08.89	112.96	0.39	-48.8	-60.9	3.6	8.46e-01	0	33	104	2839543808	60	40315
2026-01-27 13:47:11.92	113.26	0.27	-48.7	-60.9	3.6	8.45e-01	0	33	104	2839543808	60	40032
2026-01-27 13:47:14.95	113.56	0.15	-48.8	-60.9	3.6	8.45e-01	0	33	104	2839543808	60	39981
2026-01-27 13:47:17.98	113.86	0.04	-48.8	-60.9	3.6	8.44e-01	0	33	104	2839543808	60	40069
2026-01-27 13:47:21.00	114.16	-0.08	-48.7	-60.9	3.6	8.45e-01	0	33	104	2839543808	60	40128

#Closed at: 2026-01-27 13:47:21
#Recorded file [2839 MB]: D:/lorett/data/35029_260128_013620.dat