passes_logs/2026/01/27/R4.6S_Anadyr/R4.6S_Anadyr__20260127_191910_SUOMI_NPP_rec.log

#Pass ID: 20260127_191910_SUOMI NPP
#Satellite: SUOMI NPP
#Configuration: NPP
#almurnet v.1.7.20251203
#Start time: 2026-01-27 19:19:13

#Version: 2.2.20231116
#Station: R4.6S_Anadyr
#Location: 177.4865 lon 64.73178 lat
#TLE: 1 37849U 11061A   26026.87508736  .00000176  00000+0  10464-3 0  9991
#TLE: 2 37849  98.7822 328.8221 0002127  43.3055 316.8288 14.19530452738397

#Time	Az	El	Level	Level2	SNR	BER	BlckErr	Temp	State	Recorded	gain1	gain2
2026-01-27 19:19:13.74	50.28	0.16	-48.4	-62.3	3.3	1.54e+00	0	31	0	0	60	47034
2026-01-27 19:19:16.77	50.05	0.31	-48.5	-63.7	3.6	1.51e+00	0	31	104	0	60	55561
2026-01-27 19:19:19.80	49.82	0.46	-48.6	-63.8	3.6	1.51e+00	0	31	104	0	60	55910
2026-01-27 19:19:22.83	49.59	0.61	-48.6	-63.8	3.6	1.51e+00	0	31	104	0	60	55677
2026-01-27 19:19:25.86	49.35	0.76	-48.5	-63.7	3.6	1.51e+00	0	31	104	0	60	55225
2026-01-27 19:19:28.89	49.11	0.90	-48.4	-63.6	3.6	1.51e+00	0	31	104	0	60	54846
2026-01-27 19:19:31.92	48.87	1.05	-48.2	-63.4	3.6	1.51e+00	0	31	104	0	60	53536
2026-01-27 19:19:34.95	48.62	1.20	-47.6	-62.8	3.6	1.51e+00	0	31	104	0	60	50150
2026-01-27 19:19:37.98	48.37	1.35	-46.9	-62.0	3.6	1.51e+00	0	31	104	0	60	45615
2026-01-27 19:19:41.01	48.12	1.50	-46.8	-62.0	3.6	1.51e+00	0	31	104	0	60	45763
2026-01-27 19:19:44.04	47.87	1.65	-46.9	-62.0	3.6	1.51e+00	0	31	104	0	60	45685
2026-01-27 19:19:47.07	47.62	1.80	-46.8	-62.0	3.6	1.51e+00	0	31	104	0	60	45588
2026-01-27 19:19:50.10	47.36	1.95	-46.8	-62.0	3.6	1.51e+00	0	31	104	0	60	45540
2026-01-27 19:19:53.13	47.10	2.10	-46.8	-61.9	3.6	1.51e+00	0	31	104	0	60	45229
2026-01-27 19:19:56.16	46.83	2.25	-46.8	-61.9	3.6	1.51e+00	0	31	104	0	60	45128
2026-01-27 19:19:59.18	46.57	2.40	-46.8	-62.0	3.6	1.51e+00	0	31	104	0	60	45304
2026-01-27 19:20:02.21	46.30	2.55	-46.8	-62.0	3.6	1.51e+00	0	32	104	0	60	45637
2026-01-27 19:20:05.24	46.03	2.71	-46.8	-61.2	3.6	1.51e+00	0	31	104	0	60	41518
2026-01-27 19:20:08.27	45.75	2.86	-46.7	-58.7	3.7	1.51e+00	0	32	104	0	60	30968
2026-01-27 19:20:11.30	45.47	3.01	-44.4	-48.2	12.8	1.12e-03	0	32	0	3145728	60	9320
2026-01-27 19:20:14.32	45.19	3.16	-43.5	-46.2	15.4	1.04e-02	92	32	0	8388608	60	7381
2026-01-27 19:20:17.35	44.91	3.31	-43.9	-47.3	13.4	2.62e-01	0	32	104	9437184	60	8339
2026-01-27 19:20:20.38	44.62	3.46	-43.2	-45.9	15.2	7.00e-07	0	32	0	14680064	58	8006
2026-01-27 19:20:23.41	44.33	3.62	-42.3	-44.5	16.5	0.00e+00	80	32	0	19922944	58	6829
2026-01-27 19:20:26.44	44.04	3.77	-42.5	-44.9	16.1	0.00e+00	69	32	0	25165824	58	7094
2026-01-27 19:20:29.46	43.74	3.92	-41.8	-43.8	17.4	0.00e+00	0	32	0	31457280	56	7036
2026-01-27 19:20:32.49	43.44	4.08	-41.9	-43.9	17.4	0.00e+00	69	32	0	36700160	56	7101
2026-01-27 19:20:35.51	43.14	4.23	-42.0	-44.1	17.1	0.00e+00	42	32	0	42991616	56	7290
2026-01-27 19:20:38.54	42.83	4.38	-41.4	-43.2	18.2	0.00e+00	0	32	0	48234496	56	6557
2026-01-27 19:20:41.57	42.52	4.53	-41.5	-43.3	18.1	0.00e+00	0	32	0	53477376	56	6666
2026-01-27 19:20:44.60	42.21	4.69	-41.6	-43.4	18.0	0.00e+00	91	32	0	59768832	56	6764
2026-01-27 19:20:47.62	41.90	4.84	-42.1	-44.1	17.3	0.00e+00	0	32	0	65011712	56	7336
2026-01-27 19:20:50.65	41.58	4.99	-41.8	-43.7	17.8	0.00e+00	0	32	0	71303168	56	6950
2026-01-27 19:20:53.68	41.25	5.15	-41.5	-43.4	18.0	0.00e+00	90	32	0	76546048	56	6702
2026-01-27 19:20:56.71	40.92	5.30	-41.4	-43.1	18.2	0.00e+00	66	32	0	82837504	56	6489
2026-01-27 19:20:59.73	40.60	5.45	-41.3	-43.0	18.6	0.00e+00	0	32	0	88080384	56	6434
2026-01-27 19:21:02.75	40.26	5.61	-41.0	-42.7	18.7	0.00e+00	70	32	0	93323264	54	6942
2026-01-27 19:21:05.77	39.93	5.76	-40.7	-42.3	19.0	0.00e+00	90	32	0	99614720	54	6632
2026-01-27 19:21:08.80	39.58	5.91	-40.1	-41.5	19.9	0.00e+00	0	32	0	104857600	54	6039
2026-01-27 19:21:11.82	39.24	6.07	-40.0	-41.4	20.0	0.00e+00	0	32	0	111149056	54	5999
2026-01-27 19:21:14.85	38.89	6.22	-40.1	-41.4	20.0	0.00e+00	72	32	0	116391936	54	6008
2026-01-27 19:21:17.87	38.54	6.37	-40.0	-41.3	20.1	0.00e+00	17	32	0	121634816	54	5928
2026-01-27 19:21:20.90	38.18	6.53	-40.2	-41.6	19.8	0.00e+00	0	32	0	127926272	54	6149
2026-01-27 19:21:23.92	37.83	6.68	-40.5	-42.0	19.5	0.00e+00	92	32	0	133169152	54	6417
2026-01-27 19:21:26.94	37.46	6.83	-40.4	-41.8	19.9	0.00e+00	92	32	0	139460608	54	6278
2026-01-27 19:21:29.97	37.09	6.98	-40.6	-42.1	19.5	0.00e+00	0	32	0	144703488	54	6512
2026-01-27 19:21:32.99	36.72	7.14	-40.7	-42.2	19.5	0.00e+00	0	32	0	149946368	54	6598
2026-01-27 19:21:36.02	36.35	7.29	-40.5	-41.9	19.8	0.00e+00	10	32	0	156237824	54	6339
2026-01-27 19:21:39.04	35.97	7.44	-40.8	-42.4	19.2	0.00e+00	0	32	0	161480704	54	6708
2026-01-27 19:21:42.07	35.58	7.59	-40.6	-42.0	19.7	0.00e+00	0	32	0	167772160	54	6461
2026-01-27 19:21:45.10	35.20	7.74	-40.3	-41.7	19.9	0.00e+00	40	32	0	173015040	54	6223
2026-01-27 19:21:48.13	34.80	7.89	-40.2	-41.6	20.1	0.00e+00	0	32	0	178257920	54	6141
2026-01-27 19:21:51.16	34.41	8.04	-40.0	-41.3	20.3	0.00e+00	0	32	0	184549376	54	5939
2026-01-27 19:21:54.18	34.01	8.19	-40.2	-41.6	20.0	0.00e+00	92	32	0	189792256	54	6134
2026-01-27 19:21:57.21	33.60	8.34	-39.7	-41.0	20.6	0.00e+00	92	32	0	196083712	52	6410
2026-01-27 19:22:00.24	33.19	8.49	-40.3	-41.7	20.0	0.00e+00	0	32	0	201326592	52	6951
2026-01-27 19:22:03.27	32.78	8.64	-40.6	-42.1	19.7	0.00e+00	0	32	0	207618048	52	7258
2026-01-27 19:22:06.30	32.36	8.79	-40.5	-42.0	19.7	0.00e+00	92	32	0	212860928	54	6424
2026-01-27 19:22:09.33	31.94	8.93	-40.3	-41.7	20.0	0.00e+00	0	32	0	218103808	54	6181
2026-01-27 19:22:12.35	31.52	9.08	-40.1	-41.5	20.3	0.00e+00	0	32	0	224395264	54	6063
2026-01-27 19:22:15.38	31.09	9.23	-40.4	-41.8	20.1	0.00e+00	0	32	0	229638144	54	6247
2026-01-27 19:22:18.40	30.65	9.37	-39.6	-40.9	20.8	0.00e+00	26	32	0	235929600	52	6323
2026-01-27 19:22:21.43	30.21	9.51	-39.1	-40.3	21.3	0.00e+00	0	32	0	241172480	52	5914
2026-01-27 19:22:24.46	29.77	9.66	-39.1	-40.3	21.3	0.00e+00	0	32	0	246415360	52	5928
2026-01-27 19:22:27.48	29.32	9.80	-39.0	-40.2	21.4	0.00e+00	92	32	0	252706816	52	5833
2026-01-27 19:22:30.51	28.87	9.94	-38.5	-39.6	21.8	0.00e+00	0	32	0	257949696	50	6152
2026-01-27 19:22:33.54	28.41	10.08	-38.2	-39.3	22.2	0.00e+00	0	32	0	264241152	50	5916
2026-01-27 19:22:36.56	27.95	10.22	-38.2	-39.3	22.1	0.00e+00	43	32	0	269484032	50	5913
2026-01-27 19:22:39.59	27.48	10.36	-38.6	-39.8	21.8	0.00e+00	0	32	0	274726912	50	6258
2026-01-27 19:22:42.62	27.01	10.50	-38.7	-39.9	21.7	0.00e+00	0	32	0	281018368	50	6326
2026-01-27 19:22:45.64	26.54	10.64	-38.4	-39.5	22.0	0.00e+00	0	32	0	286261248	50	6048
2026-01-27 19:22:48.67	26.06	10.77	-38.1	-39.1	22.4	0.00e+00	48	32	0	292552704	50	5804
2026-01-27 19:22:51.70	25.57	10.91	-37.5	-38.4	22.8	0.00e+00	0	32	0	297795584	48	6004
2026-01-27 19:22:54.73	25.08	11.04	-37.4	-38.3	22.9	0.00e+00	0	32	0	304087040	48	5935
2026-01-27 19:22:57.76	24.59	11.17	-37.8	-38.8	22.6	0.00e+00	44	32	0	309329920	48	6248
2026-01-27 19:23:00.79	24.09	11.30	-37.8	-38.8	22.7	0.00e+00	0	32	0	314572800	48	6246
2026-01-27 19:23:03.82	23.59	11.43	-37.6	-38.6	22.6	0.00e+00	0	32	0	320864256	48	6135
2026-01-27 19:23:06.84	23.08	11.56	-37.2	-38.1	23.1	0.00e+00	73	32	0	326107136	48	5773
2026-01-27 19:23:09.88	22.57	11.68	-37.1	-38.0	23.3	0.00e+00	0	32	0	332398592	48	5712
2026-01-27 19:23:12.90	22.06	11.81	-37.5	-38.4	23.0	0.00e+00	0	32	0	337641472	48	6026
2026-01-27 19:23:15.93	21.54	11.93	-37.8	-38.9	22.6	0.00e+00	0	32	0	342884352	48	6325
2026-01-27 19:23:18.96	21.01	12.05	-37.9	-39.0	22.5	0.00e+00	47	32	0	349175808	48	6411
2026-01-27 19:23:21.99	20.48	12.17	-37.8	-38.8	22.5	0.00e+00	0	32	0	354418688	48	6276
2026-01-27 19:23:25.02	19.95	12.28	-37.9	-38.9	22.5	0.00e+00	0	32	0	360710144	48	6341
2026-01-27 19:23:28.04	19.41	12.40	-38.1	-39.2	22.4	0.00e+00	40	32	0	365953024	48	6562
2026-01-27 19:23:31.07	18.87	12.51	-38.4	-39.5	22.1	0.00e+00	0	32	0	372244480	48	6790
2026-01-27 19:23:34.10	18.33	12.62	-37.8	-38.8	22.7	0.00e+00	0	32	0	377487360	48	6258
2026-01-27 19:23:37.12	17.78	12.73	-37.4	-38.3	23.1	0.00e+00	46	32	0	382730240	48	5942
2026-01-27 19:23:40.15	17.22	12.84	-37.7	-38.7	22.7	0.00e+00	0	32	0	389021696	48	6177
2026-01-27 19:23:43.18	16.66	12.94	-37.7	-38.7	22.8	0.00e+00	0	32	0	394264576	48	6223
2026-01-27 19:23:46.21	16.10	13.05	-37.6	-38.6	22.9	0.00e+00	0	32	0	400556032	48	6127
2026-01-27 19:23:49.23	15.54	13.15	-37.3	-38.3	23.1	0.00e+00	43	32	0	405798912	48	5898
2026-01-27 19:23:52.26	14.97	13.24	-37.9	-39.0	22.5	0.00e+00	0	32	0	411041792	48	6403
2026-01-27 19:23:55.29	14.39	13.34	-38.4	-39.4	22.1	0.00e+00	0	32	0	417333248	48	6760
2026-01-27 19:23:58.32	13.82	13.43	-38.0	-39.0	22.4	0.00e+00	92	32	0	422576128	48	6455
2026-01-27 19:24:01.35	13.24	13.52	-37.1	-38.0	23.3	0.00e+00	0	32	0	428867584	48	5711
2026-01-27 19:24:04.38	12.65	13.61	-37.0	-37.9	23.4	0.00e+00	0	32	0	434110464	48	5675
2026-01-27 19:24:07.40	12.06	13.69	-36.8	-37.7	23.6	0.00e+00	32	32	0	439353344	48	5512
2026-01-27 19:24:10.43	11.47	13.78	-36.9	-37.7	23.5	0.00e+00	0	32	0	445644800	46	6243
2026-01-27 19:24:13.46	10.88	13.86	-36.8	-37.6	23.6	0.00e+00	0	32	0	450887680	46	6169
2026-01-27 19:24:16.49	10.28	13.93	-36.7	-37.5	23.5	0.00e+00	0	32	0	457179136	46	6088
2026-01-27 19:24:19.52	9.68	14.01	-37.5	-38.4	23.0	0.00e+00	42	32	0	462422016	46	6750
2026-01-27 19:24:22.55	9.07	14.08	-37.7	-38.7	22.8	0.00e+00	0	32	0	468713472	48	6206
2026-01-27 19:24:25.58	8.47	14.14	-37.8	-38.8	22.7	0.00e+00	0	32	0	473956352	48	6249
2026-01-27 19:24:28.61	7.86	14.21	-38.3	-39.3	22.3	0.00e+00	58	32	0	479199232	48	6648
2026-01-27 19:24:31.63	7.25	14.27	-38.1	-39.1	22.3	0.00e+00	0	32	0	485490688	48	6535
2026-01-27 19:24:34.66	6.63	14.33	-38.4	-39.5	22.3	0.00e+00	0	32	0	490733568	48	6807
2026-01-27 19:24:37.68	6.02	14.38	-37.8	-38.8	22.7	0.00e+00	34	32	0	497025024	48	6296
2026-01-27 19:24:40.71	5.40	14.44	-37.2	-38.1	23.3	0.00e+00	48	32	0	502267904	48	5783
2026-01-27 19:24:43.74	4.78	14.48	-37.4	-38.3	23.1	0.00e+00	0	32	0	507510784	48	5956
2026-01-27 19:24:46.77	4.15	14.53	-37.5	-38.4	23.0	0.00e+00	0	32	0	513802240	48	6015
2026-01-27 19:24:49.79	3.53	14.57	-37.8	-38.7	22.7	0.00e+00	92	32	0	519045120	48	6245
2026-01-27 19:24:52.82	2.90	14.61	-37.4	-38.3	23.0	0.00e+00	0	32	0	525336576	48	5963
2026-01-27 19:24:55.85	2.27	14.65	-37.4	-38.3	23.2	0.00e+00	0	32	0	530579456	48	5951
2026-01-27 19:24:58.87	1.65	14.68	-37.8	-38.8	22.7	0.00e+00	76	32	0	536870912	48	6249
2026-01-27 19:25:01.90	1.01	14.71	-38.2	-39.2	22.6	0.00e+00	0	32	0	542113792	48	6569
2026-01-27 19:25:04.93	0.38	14.73	-37.9	-38.9	22.6	0.00e+00	0	32	0	547356672	48	6333
2026-01-27 19:25:07.96	359.75	14.75	-37.8	-38.8	22.8	0.00e+00	0	32	0	553648128	48	6291
2026-01-27 19:25:10.98	359.12	14.77	-37.9	-38.9	22.6	0.00e+00	17	32	0	558891008	48	6318
2026-01-27 19:25:14.01	358.48	14.79	-37.6	-38.5	23.0	0.00e+00	0	32	0	565182464	48	6103
2026-01-27 19:25:17.04	357.84	14.80	-37.6	-38.5	23.0	0.00e+00	0	32	0	570425344	48	6090
2026-01-27 19:25:20.06	357.21	14.80	-38.0	-39.0	22.7	0.00e+00	90	32	0	575668224	48	6393
2026-01-27 19:25:23.09	356.57	14.81	-37.8	-38.8	22.7	0.00e+00	0	32	0	581959680	48	6262
2026-01-27 19:25:26.12	355.94	14.81	-37.5	-38.4	23.2	0.00e+00	0	32	0	587202560	48	6026
2026-01-27 19:25:29.15	355.30	14.81	-37.1	-38.0	23.4	0.00e+00	92	32	0	593494016	48	5715
2026-01-27 19:25:32.18	354.67	14.80	-37.1	-38.0	23.3	0.00e+00	33	32	0	598736896	48	5752
2026-01-27 19:25:35.20	354.03	14.79	-37.6	-38.6	22.9	0.00e+00	33	32	0	603979776	48	6104
2026-01-27 19:25:38.22	353.40	14.78	-38.2	-39.3	22.5	0.00e+00	0	32	0	610271232	48	6644
2026-01-27 19:25:41.25	352.76	14.76	-38.2	-39.2	22.5	0.00e+00	43	32	0	615514112	48	6553
2026-01-27 19:25:44.28	352.13	14.74	-38.6	-39.6	22.0	0.00e+00	0	32	0	621805568	48	6917
2026-01-27 19:25:47.30	351.50	14.71	-38.1	-39.1	22.5	0.00e+00	0	32	0	627048448	48	6528
2026-01-27 19:25:50.33	350.87	14.69	-38.0	-39.0	22.6	0.00e+00	92	32	0	633339904	48	6410
2026-01-27 19:25:53.36	350.24	14.65	-37.3	-38.3	23.1	0.00e+00	0	32	0	638582784	48	5916
2026-01-27 19:25:56.39	349.61	14.62	-37.4	-38.4	23.1	0.00e+00	0	32	0	643825664	48	5968
2026-01-27 19:25:59.42	348.98	14.58	-37.8	-38.8	22.7	0.00e+00	79	32	0	650117120	48	6271
2026-01-27 19:26:02.45	348.35	14.54	-37.4	-38.3	23.2	0.00e+00	0	32	0	655360000	48	5927
2026-01-27 19:26:05.48	347.73	14.50	-36.9	-37.8	23.3	0.00e+00	0	32	0	661651456	48	5604
2026-01-27 19:26:08.50	347.11	14.45	-37.2	-38.2	23.1	0.00e+00	0	32	0	666894336	48	5830
2026-01-27 19:26:11.53	346.49	14.40	-37.5	-38.4	23.0	0.00e+00	24	32	0	672137216	48	6006
2026-01-27 19:26:14.56	345.87	14.34	-38.0	-39.1	22.5	0.00e+00	0	32	0	678428672	48	6487
2026-01-27 19:26:17.59	345.26	14.28	-37.9	-38.9	22.6	0.00e+00	0	32	0	683671552	48	6383
2026-01-27 19:26:20.61	344.65	14.22	-37.9	-38.9	22.7	0.00e+00	89	32	0	689963008	48	6360
2026-01-27 19:26:23.64	344.04	14.16	-37.7	-38.7	22.9	0.00e+00	0	32	0	695205888	48	6195
2026-01-27 19:26:26.66	343.43	14.09	-37.1	-38.0	23.3	0.00e+00	0	32	0	701497344	48	5747
2026-01-27 19:26:29.69	342.83	14.02	-37.3	-38.2	23.3	0.00e+00	84	32	0	706740224	48	5865
2026-01-27 19:26:32.72	342.22	13.95	-37.2	-38.1	23.2	0.00e+00	17	32	0	711983104	48	5806
2026-01-27 19:26:35.74	341.63	13.88	-37.2	-38.2	23.2	0.00e+00	0	32	0	718274560	48	5852
2026-01-27 19:26:38.77	341.03	13.80	-37.5	-38.5	22.9	0.00e+00	0	32	0	723517440	48	6045
2026-01-27 19:26:41.80	340.44	13.72	-38.0	-39.0	22.6	0.00e+00	44	32	0	729808896	48	6424
2026-01-27 19:26:44.82	339.85	13.63	-37.9	-38.9	22.5	0.00e+00	0	32	0	735051776	48	6380
2026-01-27 19:26:47.85	339.27	13.54	-37.8	-38.8	22.6	0.00e+00	0	32	0	740294656	48	6260
2026-01-27 19:26:50.88	338.68	13.46	-38.2	-39.3	22.4	0.00e+00	90	32	0	746586112	48	6628
2026-01-27 19:26:53.90	338.11	13.36	-38.1	-39.2	22.4	0.00e+00	0	32	0	751828992	48	6557
2026-01-27 19:26:56.92	337.53	13.27	-37.6	-38.5	22.9	0.00e+00	0	32	0	758120448	48	6099
2026-01-27 19:26:59.95	336.96	13.17	-37.4	-38.3	23.1	0.00e+00	92	32	0	763363328	48	5923
2026-01-27 19:27:02.98	336.40	13.07	-37.3	-38.2	23.2	0.00e+00	0	32	0	768606208	48	5857
2026-01-27 19:27:06.01	335.83	12.97	-37.0	-37.9	23.5	0.00e+00	0	32	0	774897664	48	5662
2026-01-27 19:27:09.04	335.27	12.87	-36.8	-37.7	23.6	0.00e+00	0	32	0	780140544	46	6187
2026-01-27 19:27:12.06	334.72	12.76	-36.7	-37.6	23.4	0.00e+00	10	32	0	786432000	46	6107
2026-01-27 19:27:15.09	334.17	12.65	-37.6	-38.5	22.5	0.00e+00	0	32	0	791674880	46	6846
2026-01-27 19:27:18.12	333.62	12.54	-37.8	-38.8	22.6	0.00e+00	0	32	0	797966336	48	6310
2026-01-27 19:27:21.13	333.08	12.43	-38.2	-39.2	22.3	0.00e+00	92	32	0	803209216	48	6592
2026-01-27 19:27:24.16	332.54	12.32	-38.4	-39.5	22.1	0.00e+00	0	32	0	808452096	48	6816
2026-01-27 19:27:27.18	332.01	12.20	-38.2	-39.2	22.2	0.00e+00	0	32	0	814743552	48	6604
2026-01-27 19:27:30.21	331.48	12.08	-38.3	-39.4	22.0	0.00e+00	0	32	0	819986432	48	6700
2026-01-27 19:27:33.24	330.96	11.96	-38.5	-39.5	22.0	0.00e+00	33	32	0	826277888	48	6823
2026-01-27 19:27:36.26	330.44	11.84	-38.6	-39.7	22.0	0.00e+00	0	32	0	831520768	50	6186
2026-01-27 19:27:39.30	329.92	11.72	-38.6	-39.6	22.0	0.00e+00	0	32	0	836763648	50	6144
2026-01-27 19:27:42.32	329.41	11.59	-38.7	-39.7	22.0	0.00e+00	48	32	0	843055104	50	6202
2026-01-27 19:27:45.35	328.90	11.46	-38.8	-39.8	21.9	0.00e+00	0	32	0	848297984	50	6293
2026-01-27 19:27:48.38	328.39	11.34	-38.0	-39.0	22.6	0.00e+00	0	32	0	854589440	50	5704
2026-01-27 19:27:51.41	327.89	11.21	-37.9	-38.8	22.6	0.00e+00	54	32	0	859832320	50	5624
2026-01-27 19:27:54.43	327.40	11.07	-38.7	-39.8	21.9	0.00e+00	0	32	0	865075200	50	6247
2026-01-27 19:27:57.46	326.91	10.94	-39.5	-40.7	21.0	0.00e+00	0	32	0	871366656	50	6966
2026-01-27 19:28:00.49	326.43	10.81	-39.8	-41.0	20.9	0.00e+00	92	32	0	876609536	52	6411
2026-01-27 19:28:03.52	325.94	10.67	-39.2	-40.3	21.5	0.00e+00	42	32	0	882900992	52	5963
2026-01-27 19:28:06.54	325.47	10.54	-39.3	-40.4	21.3	0.00e+00	0	32	0	888143872	52	6010
2026-01-27 19:28:09.58	325.00	10.40	-40.6	-42.0	20.1	0.00e+00	0	32	0	894435328	52	7195
2026-01-27 19:28:12.60	324.53	10.26	-41.9	-43.6	18.4	0.00e+00	67	32	0	899678208	56	6924
2026-01-27 19:28:15.62	324.07	10.12	-42.0	-43.7	18.6	0.00e+00	0	32	0	904921088	56	6996
2026-01-27 19:28:18.64	323.61	9.98	-41.4	-42.9	19.2	0.00e+00	0	32	0	911212544	56	6343
2026-01-27 19:28:21.67	323.16	9.84	-41.1	-42.5	19.6	0.00e+00	92	32	0	916455424	56	6067
2026-01-27 19:28:24.70	322.71	9.70	-40.8	-42.2	19.9	0.00e+00	0	32	0	922746880	54	6544
2026-01-27 19:28:27.73	322.26	9.55	-40.6	-41.9	20.0	0.00e+00	0	32	0	927989760	54	6382
2026-01-27 19:28:30.75	321.82	9.41	-40.3	-41.6	20.2	0.00e+00	0	32	0	933232640	54	6152
2026-01-27 19:28:33.78	321.39	9.27	-40.3	-41.6	20.2	0.00e+00	41	32	0	939524096	54	6131
2026-01-27 19:28:36.80	320.96	9.12	-39.8	-41.0	20.7	0.00e+00	0	32	0	944766976	54	5758
2026-01-27 19:28:39.83	320.53	8.97	-39.4	-40.5	21.3	0.00e+00	0	32	0	951058432	52	6054
2026-01-27 19:28:42.86	320.10	8.83	-39.6	-40.8	21.0	0.00e+00	92	32	0	956301312	52	6254
2026-01-27 19:28:45.88	319.69	8.68	-39.2	-40.3	21.4	0.00e+00	0	32	0	961544192	52	5963
2026-01-27 19:28:48.90	319.27	8.53	-39.6	-40.8	21.0	0.00e+00	0	32	0	967835648	52	6273
2026-01-27 19:28:51.94	318.86	8.38	-40.1	-41.3	20.4	0.00e+00	54	32	0	973078528	52	6687
2026-01-27 19:28:54.96	318.46	8.23	-40.0	-41.2	20.6	0.00e+00	0	32	0	979369984	52	6612
2026-01-27 19:28:57.98	318.06	8.09	-39.8	-41.0	20.7	0.00e+00	0	32	0	984612864	52	6432
2026-01-27 19:29:01.01	317.66	7.94	-39.7	-40.9	20.9	0.00e+00	0	32	0	990904320	52	6390
2026-01-27 19:29:04.03	317.27	7.79	-39.5	-40.6	20.9	0.00e+00	17	32	0	996147200	52	6159
2026-01-27 19:29:07.06	316.88	7.63	-39.4	-40.6	21.1	0.00e+00	0	32	0	1001390080	52	6143
2026-01-27 19:29:10.09	316.49	7.48	-39.0	-40.1	21.4	0.00e+00	0	32	0	1007681536	52	5827
2026-01-27 19:29:13.12	316.11	7.33	-38.4	-39.4	22.2	0.00e+00	38	32	0	1012924416	50	6019
2026-01-27 19:29:16.14	315.74	7.18	-38.3	-39.3	22.0	0.00e+00	0	32	0	1019215872	50	5959
2026-01-27 19:29:19.17	315.36	7.03	-38.8	-39.9	21.6	0.00e+00	33	32	0	1024458752	50	6356
2026-01-27 19:29:22.20	314.99	6.88	-38.8	-39.9	21.5	0.00e+00	92	32	0	1029701632	50	6356
2026-01-27 19:29:25.23	314.63	6.72	-38.5	-39.6	21.9	0.00e+00	0	32	0	1035993088	50	6128
2026-01-27 19:29:28.26	314.27	6.57	-38.0	-39.0	22.2	0.00e+00	0	32	0	1041235968	50	5761
2026-01-27 19:29:31.29	313.91	6.42	-38.6	-39.6	21.7	0.00e+00	0	32	0	1047527424	50	6168
2026-01-27 19:29:34.32	313.56	6.26	-39.0	-40.2	21.3	0.00e+00	36	32	0	1052770304	50	6540
2026-01-27 19:29:37.34	313.21	6.11	-39.1	-40.3	21.2	0.00e+00	0	32	0	1058013184	50	6617
2026-01-27 19:29:40.37	312.86	5.96	-39.3	-40.5	21.1	0.00e+00	0	32	0	1064304640	50	6845
2026-01-27 19:29:43.40	312.52	5.80	-39.2	-40.4	21.0	0.00e+00	38	32	0	1069547520	50	6734
2026-01-27 19:29:46.42	312.18	5.65	-39.1	-40.3	21.0	0.00e+00	0	32	0	1075838976	50	6640
2026-01-27 19:29:49.45	311.85	5.50	-39.2	-40.4	20.9	0.00e+00	0	32	0	1081081856	50	6714
2026-01-27 19:29:52.48	311.52	5.34	-39.2	-40.4	21.1	0.00e+00	83	32	0	1087373312	50	6719
2026-01-27 19:29:55.50	311.19	5.19	-39.3	-40.5	20.5	0.00e+00	0	32	0	1092616192	50	6797
2026-01-27 19:29:58.53	310.86	5.04	-38.5	-39.5	21.6	0.00e+00	0	32	0	1097859072	50	6099
2026-01-27 19:30:01.56	310.54	4.88	-38.9	-40.0	21.3	0.00e+00	0	32	0	1104150528	50	6452
2026-01-27 19:30:04.59	310.23	4.73	-39.1	-40.2	21.1	0.00e+00	29	32	0	1109393408	50	6595
2026-01-27 19:30:07.62	309.91	4.58	-39.3	-40.5	20.9	0.00e+00	0	32	0	1115684864	50	6811
2026-01-27 19:30:10.64	309.60	4.43	-40.2	-41.5	19.9	0.00e+00	0	32	0	1120927744	52	6815
2026-01-27 19:30:13.67	309.30	4.27	-40.1	-41.5	20.0	0.00e+00	37	32	0	1126170624	52	6790
2026-01-27 19:30:16.70	308.99	4.12	-39.6	-40.9	20.4	0.00e+00	0	32	0	1132462080	52	6325
2026-01-27 19:30:19.73	308.69	3.97	-39.3	-40.5	20.7	0.00e+00	0	32	0	1137704960	52	6096
2026-01-27 19:30:22.76	308.39	3.81	-38.6	-39.7	21.3	0.00e+00	78	32	0	1143996416	50	6243
2026-01-27 19:30:25.78	308.10	3.66	-39.2	-40.4	20.7	0.00e+00	0	32	0	1149239296	50	6762
2026-01-27 19:30:28.81	307.81	3.51	-39.0	-40.1	21.1	0.00e+00	0	32	0	1155530752	50	6539
2026-01-27 19:30:31.84	307.52	3.36	-38.6	-39.7	21.2	0.00e+00	0	32	0	1160773632	50	6181
2026-01-27 19:30:34.87	307.24	3.20	-39.8	-41.1	20.0	0.00e+00	38	32	0	1166016512	52	6492
2026-01-27 19:30:37.90	306.95	3.05	-41.1	-42.7	18.5	0.00e+00	0	32	0	1172307968	54	6993
2026-01-27 19:30:40.93	306.67	2.90	-48.3	-63.5	3.6	1.51e+00	0	32	104	1173356544	60	54180
2026-01-27 19:30:43.96	306.40	2.75	-48.6	-63.8	3.6	1.51e+00	0	32	104	1173356544	60	56268
2026-01-27 19:30:46.98	306.13	2.60	-48.8	-64.0	3.6	1.51e+00	0	32	104	1173356544	60	57021
2026-01-27 19:30:50.01	305.86	2.45	-48.8	-64.0	3.6	1.51e+00	0	32	104	1173356544	60	57096
2026-01-27 19:30:53.04	305.59	2.30	-48.7	-63.9	3.6	1.51e+00	0	32	104	1173356544	60	56583
2026-01-27 19:30:56.07	305.32	2.14	-48.5	-63.8	3.6	1.51e+00	0	32	104	1173356544	60	56254
2026-01-27 19:30:59.10	305.06	1.99	-48.4	-63.8	3.6	1.51e+00	0	32	104	1173356544	60	55693
2026-01-27 19:31:02.13	304.80	1.84	-48.6	-63.8	3.6	1.51e+00	0	32	104	1173356544	60	55772
2026-01-27 19:31:05.16	304.55	1.69	-48.6	-63.8	3.6	1.51e+00	0	32	104	1173356544	60	55840
2026-01-27 19:31:08.19	304.29	1.54	-48.5	-63.8	3.6	1.51e+00	0	32	104	1173356544	60	56002
2026-01-27 19:31:11.22	304.04	1.39	-48.5	-63.8	3.6	1.51e+00	0	32	104	1173356544	60	56062
2026-01-27 19:31:14.25	303.79	1.25	-48.5	-63.8	3.6	1.51e+00	0	32	104	1173356544	60	56027
2026-01-27 19:31:17.28	303.55	1.10	-48.5	-63.8	3.6	1.51e+00	0	32	104	1173356544	60	55717
2026-01-27 19:31:20.31	303.31	0.95	-48.5	-63.7	3.6	1.51e+00	0	32	104	1173356544	60	55659
2026-01-27 19:31:23.34	303.06	0.80	-48.5	-63.8	3.6	1.51e+00	0	32	104	1173356544	60	56018
2026-01-27 19:31:26.37	302.83	0.65	-48.5	-63.8	3.6	1.51e+00	0	32	104	1173356544	60	56287
2026-01-27 19:31:29.40	302.59	0.50	-48.5	-63.8	3.6	1.51e+00	0	32	104	1173356544	60	55853
2026-01-27 19:31:32.43	302.36	0.36	-48.5	-63.8	3.6	1.51e+00	0	32	104	1173356544	60	56247
2026-01-27 19:31:35.47	302.13	0.21	-48.5	-63.8	3.6	1.51e+00	0	32	104	1173356544	60	55707
2026-01-27 19:31:38.49	301.90	0.06	-48.5	-63.8	3.6	1.51e+00	0	32	104	1173356544	60	55944
2026-01-27 19:31:41.53	301.67	-0.09	-48.5	-63.8	3.6	1.51e+00	0	32	104	1173356544	60	56076

#Closed at: 2026-01-27 19:31:42
#Recorded file [1173 MB]: D:/lorett/data/35029_260128_071913.dat