passes_logs/2026/01/27/R4.6S_Anadyr/R4.6S_Anadyr__20260127_134953_NOAA_21_JPSS-2_rec.log

#Pass ID: 20260127_134953_NOAA 21 (JPSS-2)
#Satellite: NOAA 21 (JPSS-2)
#Configuration: NOAA-21
#almurnet v.1.7.20251203
#Start time: 2026-01-27 13:49:56

#Version: 2.2.20231116
#Station: R4.6S_Anadyr
#Location: 177.4865 lon 64.73178 lat
#TLE: 1 54234U 22150A   26026.78373243  .00000177  00000+0  10458-3 0  9996
#TLE: 2 54234  98.7509 327.5416 0000822 208.1870 151.9262 14.19539807166482

#Time	Az	El	Level	Level2	SNR	BER	BlckErr	Temp	State	Recorded	gain1	gain2
2026-01-27 13:49:56.03	19.18	0.16	-48.8	-60.5	3.5	8.45e-01	0	31	0	0	60	38211
2026-01-27 13:50:00.05	19.30	0.39	-48.9	-61.8	3.5	1.52e+00	0	32	104	0	60	43113
2026-01-27 13:50:04.10	19.43	0.63	-49.0	-61.9	3.5	1.52e+00	0	33	104	0	60	43596
2026-01-27 13:50:08.14	19.56	0.87	-48.9	-61.8	3.5	1.52e+00	0	33	104	0	60	43170
2026-01-27 13:50:12.18	19.69	1.11	-48.7	-61.6	3.5	1.52e+00	0	33	104	0	60	42008
2026-01-27 13:50:16.21	19.82	1.35	-48.3	-61.1	3.5	1.52e+00	0	33	104	0	60	40014
2026-01-27 13:50:20.25	19.95	1.60	-47.5	-60.4	3.5	1.52e+00	0	33	104	0	60	36549
2026-01-27 13:50:24.29	20.09	1.85	-47.5	-60.3	3.5	1.52e+00	0	33	104	0	60	36238
2026-01-27 13:50:28.32	20.23	2.09	-47.5	-60.4	3.5	1.52e+00	0	33	104	0	60	36631
2026-01-27 13:50:32.36	20.37	2.35	-47.5	-60.3	3.5	1.51e+00	0	33	104	0	60	36321
2026-01-27 13:50:36.41	20.51	2.60	-47.4	-58.8	3.5	1.51e+00	0	34	104	0	60	30686
2026-01-27 13:50:40.44	20.66	2.85	-47.1	-56.5	4.4	1.48e+00	0	33	104	0	60	23560
2026-01-27 13:50:44.48	20.80	3.11	-42.7	-44.9	14.9	1.50e-06	122	33	0	9437184	60	6177
2026-01-27 13:50:48.52	20.95	3.37	-38.4	-39.6	19.9	0.00e+00	123	34	0	22020096	50	5981
2026-01-27 13:50:52.56	21.10	3.63	-39.4	-40.8	18.7	0.00e+00	120	34	0	34603008	50	6815
2026-01-27 13:50:56.60	21.26	3.90	-42.7	-44.9	13.6	2.46e-04	121	34	0	47185920	56	7812
2026-01-27 13:51:00.64	21.41	4.17	-40.0	-41.6	18.2	0.00e+00	123	34	0	49283072	54	5944
2026-01-27 13:51:04.68	21.57	4.43	-39.3	-40.6	19.4	0.00e+00	122	34	0	61865984	52	5954
2026-01-27 13:51:08.71	21.73	4.71	-38.2	-39.4	20.1	0.00e+00	122	34	0	74448896	50	5807
2026-01-27 13:51:12.75	21.89	4.98	-38.2	-39.4	20.3	0.00e+00	122	34	0	87031808	50	5812
2026-01-27 13:51:16.79	22.06	5.26	-38.4	-39.6	20.1	0.00e+00	121	34	0	99614720	50	5946
2026-01-27 13:51:20.83	22.23	5.54	-38.5	-39.8	20.0	0.00e+00	123	34	0	112197632	50	6081
2026-01-27 13:51:24.86	22.40	5.82	-38.8	-40.0	19.9	0.00e+00	122	34	0	124780544	50	6262
2026-01-27 13:51:28.90	22.58	6.11	-37.4	-38.5	21.2	0.00e+00	123	34	0	137363456	48	5905
2026-01-27 13:51:32.94	22.75	6.40	-37.2	-38.3	21.3	0.00e+00	122	34	0	149946368	48	5791
2026-01-27 13:51:36.97	22.94	6.69	-37.2	-38.3	21.5	0.00e+00	123	34	0	162529280	48	5728
2026-01-27 13:51:41.01	23.12	6.98	-36.9	-38.0	21.6	0.00e+00	123	34	0	175112192	46	6232
2026-01-27 13:51:45.05	23.31	7.28	-36.7	-37.7	22.0	0.00e+00	123	34	0	187695104	46	6047
2026-01-27 13:51:49.09	23.50	7.58	-36.7	-37.7	21.9	0.00e+00	120	34	0	200278016	46	6055
2026-01-27 13:51:53.13	23.70	7.89	-36.7	-37.7	22.0	0.00e+00	122	34	0	212860928	46	6024
2026-01-27 13:51:57.17	23.90	8.20	-36.4	-37.4	22.3	0.00e+00	123	34	0	225443840	46	5831
2026-01-27 13:52:01.20	24.10	8.51	-36.2	-37.2	22.5	0.00e+00	120	34	0	238026752	46	5722
2026-01-27 13:52:05.24	24.31	8.82	-36.1	-37.2	22.5	0.00e+00	120	34	0	250609664	46	5661
2026-01-27 13:52:09.27	24.52	9.14	-36.0	-37.0	22.7	0.00e+00	123	34	0	263192576	46	5569
2026-01-27 13:52:13.30	24.73	9.46	-35.8	-36.8	22.9	0.00e+00	122	34	0	275775488	46	5449
2026-01-27 13:52:17.34	24.95	9.79	-35.8	-36.8	22.9	0.00e+00	122	34	0	288358400	44	6100
2026-01-27 13:52:21.38	25.18	10.12	-35.5	-36.5	23.2	0.00e+00	123	34	0	300941312	44	5869
2026-01-27 13:52:25.41	25.40	10.46	-35.4	-36.4	23.2	0.00e+00	120	34	0	313524224	44	5800
2026-01-27 13:52:29.45	25.64	10.80	-35.4	-36.3	23.4	0.00e+00	123	34	0	326107136	44	5776
2026-01-27 13:52:33.49	25.88	11.14	-35.5	-36.4	23.2	0.00e+00	123	34	0	338690048	44	5853
2026-01-27 13:52:37.53	26.12	11.49	-35.2	-36.2	23.5	0.00e+00	120	34	0	351272960	44	5668
2026-01-27 13:52:41.57	26.37	11.84	-35.1	-36.0	23.6	0.00e+00	121	34	0	363855872	44	5580
2026-01-27 13:52:45.61	26.63	12.20	-35.1	-36.0	23.6	0.00e+00	123	34	0	377487360	44	5571
2026-01-27 13:52:49.65	26.89	12.56	-34.9	-35.8	23.8	0.00e+00	123	34	0	390070272	44	5449
2026-01-27 13:52:53.69	27.16	12.93	-34.9	-35.8	23.9	0.00e+00	122	34	0	402653184	44	5431
2026-01-27 13:52:57.73	27.43	13.30	-34.8	-35.7	23.9	0.00e+00	123	34	0	415236096	44	5393
2026-01-27 13:53:01.77	27.71	13.68	-34.9	-35.9	23.8	0.00e+00	122	34	0	427819008	42	6150
2026-01-27 13:53:05.81	28.00	14.06	-34.9	-35.8	23.9	0.00e+00	122	34	0	440401920	42	6133
2026-01-27 13:53:09.85	28.29	14.45	-35.0	-35.9	23.9	0.00e+00	123	34	0	452984832	42	6194
2026-01-27 13:53:13.89	28.59	14.85	-34.9	-35.8	24.0	0.00e+00	120	34	0	465567744	42	6087
2026-01-27 13:53:17.93	28.90	15.25	-34.9	-35.9	23.9	0.00e+00	123	34	0	478150656	42	6136
2026-01-27 13:53:21.96	29.22	15.65	-35.0	-35.9	24.0	0.00e+00	123	34	0	490733568	42	6159
2026-01-27 13:53:26.01	29.54	16.07	-35.0	-36.0	23.8	0.00e+00	122	34	0	503316480	42	6222
2026-01-27 13:53:30.05	29.88	16.49	-35.2	-36.1	23.8	0.00e+00	121	35	0	515899392	42	6290
2026-01-27 13:53:34.09	30.22	16.91	-35.1	-36.1	23.7	0.00e+00	122	34	0	528482304	42	6291
2026-01-27 13:53:38.13	30.57	17.34	-35.1	-36.1	23.8	0.00e+00	123	34	0	541065216	42	6278
2026-01-27 13:53:42.16	30.94	17.78	-35.2	-36.1	23.9	0.00e+00	122	34	0	553648128	42	6317
2026-01-27 13:53:46.21	31.31	18.23	-35.1	-36.0	23.9	0.00e+00	122	34	0	566231040	42	6254
2026-01-27 13:53:50.25	31.69	18.68	-35.0	-35.9	23.8	0.00e+00	122	35	0	578813952	42	6193
2026-01-27 13:53:54.28	32.09	19.14	-34.9	-35.8	23.9	0.00e+00	123	34	0	591396864	42	6132
2026-01-27 13:53:58.32	32.49	19.60	-34.6	-35.5	24.3	0.00e+00	122	34	0	603979776	42	5868
2026-01-27 13:54:02.36	32.91	20.08	-34.3	-35.3	24.3	0.00e+00	123	35	0	616562688	42	5728
2026-01-27 13:54:06.40	33.34	20.56	-34.0	-34.9	24.5	0.00e+00	120	34	0	629145600	42	5491
2026-01-27 13:54:10.44	33.78	21.05	-33.9	-34.8	24.6	0.00e+00	122	34	0	641728512	42	5441
2026-01-27 13:54:14.48	34.24	21.55	-33.9	-34.8	24.6	0.00e+00	122	35	0	654311424	42	5455
2026-01-27 13:54:18.52	34.71	22.06	-33.7	-34.6	24.8	0.00e+00	123	34	0	666894336	40	5934
2026-01-27 13:54:22.57	35.20	22.57	-33.7	-34.6	24.7	0.00e+00	123	35	0	679477248	40	5970
2026-01-27 13:54:26.61	35.70	23.10	-33.7	-34.5	24.8	0.00e+00	123	35	0	693108736	40	5916
2026-01-27 13:54:30.65	36.22	23.63	-33.6	-34.4	24.9	0.00e+00	120	35	0	705691648	40	5850
2026-01-27 13:54:34.69	36.76	24.17	-33.4	-34.3	25.0	0.00e+00	121	35	0	718274560	40	5767
2026-01-27 13:54:38.72	37.31	24.72	-33.6	-34.5	25.0	0.00e+00	120	35	0	730857472	40	5893
2026-01-27 13:54:42.76	37.89	25.28	-33.8	-34.7	24.9	0.00e+00	123	35	0	743440384	40	6012
2026-01-27 13:54:46.80	38.48	25.84	-33.8	-34.6	24.9	0.00e+00	123	35	0	756023296	40	5982
2026-01-27 13:54:50.84	39.10	26.42	-34.0	-34.9	24.7	0.00e+00	120	35	0	768606208	40	6172
2026-01-27 13:54:54.88	39.74	27.01	-34.1	-35.0	24.8	0.00e+00	123	35	0	781189120	40	6241
2026-01-27 13:54:58.92	40.40	27.60	-34.4	-35.3	24.4	0.00e+00	120	35	0	793772032	40	6458
2026-01-27 13:55:02.95	41.08	28.20	-34.6	-35.5	24.0	0.00e+00	120	35	0	806354944	40	6641
2026-01-27 13:55:06.99	41.79	28.82	-34.7	-35.6	24.2	0.00e+00	123	35	0	818937856	42	5979
2026-01-27 13:55:11.03	42.53	29.44	-34.4	-35.3	24.3	0.00e+00	122	35	0	831520768	42	5767
2026-01-27 13:55:15.07	43.30	30.07	-34.4	-35.3	24.3	0.00e+00	123	35	0	844103680	42	5767
2026-01-27 13:55:19.10	44.10	30.70	-34.1	-34.9	24.5	0.00e+00	123	35	0	856686592	42	5524
2026-01-27 13:55:23.14	44.93	31.35	-34.0	-34.9	24.6	0.00e+00	122	35	0	869269504	42	5493
2026-01-27 13:55:27.18	45.79	32.01	-34.0	-34.8	24.9	0.00e+00	123	35	0	881852416	42	5461
2026-01-27 13:55:31.22	46.69	32.67	-34.2	-35.1	24.6	0.00e+00	121	35	0	894435328	42	5629
2026-01-27 13:55:35.26	47.62	33.34	-34.6	-35.4	24.4	0.00e+00	123	35	0	907018240	42	5854
2026-01-27 13:55:39.30	48.59	34.01	-35.0	-35.9	24.0	0.00e+00	122	35	0	919601152	42	6187
2026-01-27 13:55:43.34	49.61	34.69	-35.6	-36.5	23.7	0.00e+00	123	35	0	932184064	42	6613
2026-01-27 13:55:47.38	50.66	35.38	-35.4	-36.3	23.7	0.00e+00	122	35	0	944766976	42	6463
2026-01-27 13:55:51.42	51.76	36.07	-36.1	-37.1	23.1	0.00e+00	123	35	0	957349888	44	6278
2026-01-27 13:55:55.46	52.91	36.76	-36.1	-37.0	23.2	0.00e+00	122	35	0	969932800	44	6249
2026-01-27 13:55:59.49	54.10	37.46	-36.2	-37.1	23.1	0.00e+00	120	35	0	982515712	44	6332
2026-01-27 13:56:03.49	55.34	38.15	-36.2	-37.2	23.0	0.00e+00	122	35	0	995098624	44	6383
2026-01-27 13:56:07.53	56.64	38.84	-36.2	-37.2	22.9	0.00e+00	122	35	0	1007681536	44	6372
2026-01-27 13:56:11.57	58.00	39.53	-36.8	-37.8	22.5	0.00e+00	123	35	0	1020264448	46	6102
2026-01-27 13:56:15.61	59.41	40.22	-36.8	-37.8	22.4	0.00e+00	120	35	0	1032847360	46	6110
2026-01-27 13:56:19.65	60.89	40.90	-36.9	-37.9	22.5	0.00e+00	122	35	0	1045430272	46	6154
2026-01-27 13:56:23.69	62.43	41.57	-37.0	-38.0	22.5	0.00e+00	122	34	0	1059061760	46	6220
2026-01-27 13:56:27.73	64.03	42.23	-37.5	-38.6	21.9	0.00e+00	120	34	0	1070596096	46	6684
2026-01-27 13:56:31.77	65.69	42.88	-37.4	-38.5	21.9	0.00e+00	120	34	0	1084227584	46	6632
2026-01-27 13:56:35.81	67.43	43.50	-36.8	-37.8	22.6	0.00e+00	122	34	0	1096810496	46	6129
2026-01-27 13:56:39.84	69.23	44.11	-37.2	-38.2	22.1	0.00e+00	122	34	0	1109393408	46	6389
2026-01-27 13:56:43.88	71.10	44.70	-36.5	-37.5	22.5	0.00e+00	122	34	0	1121976320	46	5886
2026-01-27 13:56:47.92	73.03	45.26	-36.4	-37.4	22.8	0.00e+00	123	34	0	1134559232	46	5847
2026-01-27 13:56:51.96	75.04	45.79	-36.8	-37.9	22.5	0.00e+00	123	34	0	1147142144	46	6151
2026-01-27 13:56:56.00	77.11	46.29	-36.8	-37.8	22.6	0.00e+00	123	34	0	1159725056	46	6100
2026-01-27 13:57:00.03	79.24	46.76	-37.2	-38.2	22.3	0.00e+00	122	34	0	1172307968	46	6376
2026-01-27 13:57:04.07	81.44	47.18	-36.3	-37.2	23.1	0.00e+00	122	34	0	1184890880	46	5700
2026-01-27 13:57:08.11	83.70	47.57	-36.9	-37.8	22.5	0.00e+00	123	34	0	1197473792	46	6128
2026-01-27 13:57:12.15	86.00	47.91	-36.4	-37.4	22.8	0.00e+00	123	34	0	1210056704	46	5818
2026-01-27 13:57:16.19	88.36	48.20	-36.4	-37.4	22.5	0.00e+00	123	34	0	1222639616	46	5815
2026-01-27 13:57:20.22	90.75	48.43	-36.3	-37.3	23.0	0.00e+00	121	34	0	1235222528	46	5744
2026-01-27 13:57:24.26	93.18	48.62	-36.5	-37.4	22.7	0.00e+00	120	34	0	1247805440	46	5848
2026-01-27 13:57:28.29	95.62	48.75	-36.3	-37.3	23.1	0.00e+00	122	34	0	1260388352	46	5753
2026-01-27 13:57:32.33	98.09	48.83	-36.5	-37.4	22.9	0.00e+00	123	34	0	1272971264	46	5851
2026-01-27 13:57:36.37	100.57	48.85	-36.2	-37.2	23.2	0.00e+00	122	34	0	1285554176	46	5664
2026-01-27 13:57:40.41	103.05	48.82	-36.7	-37.8	22.4	0.00e+00	123	34	0	1298137088	46	6075
2026-01-27 13:57:44.45	105.52	48.73	-36.6	-37.5	22.8	0.00e+00	123	34	0	1310720000	46	5909
2026-01-27 13:57:48.49	107.97	48.58	-36.9	-37.9	22.6	0.00e+00	120	34	0	1323302912	46	6167
2026-01-27 13:57:52.52	110.39	48.38	-37.3	-38.4	22.1	0.00e+00	120	34	0	1335885824	46	6528
2026-01-27 13:57:56.56	112.78	48.13	-37.1	-38.1	22.2	0.00e+00	122	34	0	1348468736	48	5649
2026-01-27 13:58:00.60	115.12	47.83	-36.7	-37.7	22.7	0.00e+00	123	34	0	1361051648	46	6061
2026-01-27 13:58:04.64	117.42	47.48	-35.6	-36.5	23.4	0.00e+00	123	34	0	1373634560	44	5913
2026-01-27 13:58:08.68	119.66	47.08	-36.4	-37.4	22.9	0.00e+00	120	34	0	1386217472	44	6523
2026-01-27 13:58:12.72	121.85	46.64	-36.0	-36.9	23.2	0.00e+00	120	34	0	1398800384	44	6204
2026-01-27 13:58:16.75	123.97	46.17	-36.3	-37.3	23.0	0.00e+00	122	34	0	1411383296	44	6470
2026-01-27 13:58:20.79	126.03	45.66	-36.1	-37.1	23.3	0.00e+00	122	34	0	1425014784	44	6284
2026-01-27 13:58:24.83	128.02	45.12	-36.3	-37.2	23.0	0.00e+00	123	34	0	1436549120	44	6413
2026-01-27 13:58:28.87	129.95	44.55	-35.9	-36.9	23.4	0.00e+00	123	34	0	1449132032	44	6139
2026-01-27 13:58:32.91	131.81	43.95	-37.4	-38.5	22.0	0.00e+00	120	34	0	1462763520	46	6600
2026-01-27 13:58:36.95	133.60	43.34	-37.7	-38.7	21.9	0.00e+00	123	34	0	1475346432	48	6063
2026-01-27 13:58:40.98	135.31	42.70	-37.3	-38.3	22.2	0.00e+00	122	34	0	1487929344	48	5762
2026-01-27 13:58:45.02	136.97	42.05	-36.4	-37.4	22.9	0.00e+00	122	34	0	1500512256	46	5801
2026-01-27 13:58:49.06	138.56	41.38	-36.2	-37.1	23.0	0.00e+00	122	34	0	1513095168	46	5632
2026-01-27 13:58:53.10	140.08	40.70	-36.1	-37.0	22.9	0.00e+00	123	34	0	1525678080	46	5587
2026-01-27 13:58:57.13	141.54	40.02	-37.2	-38.2	22.2	0.00e+00	122	34	0	1538260992	46	6396
2026-01-27 13:59:01.17	142.95	39.33	-36.9	-38.0	22.5	0.00e+00	123	34	0	1550843904	46	6216
2026-01-27 13:59:05.21	144.29	38.63	-36.9	-37.9	22.5	0.00e+00	123	34	0	1563426816	46	6168
2026-01-27 13:59:09.25	145.59	37.94	-36.3	-37.2	23.1	0.00e+00	122	33	0	1576009728	46	5701
2026-01-27 13:59:13.29	146.82	37.24	-35.4	-36.3	23.8	0.00e+00	123	34	0	1588592640	44	5759
2026-01-27 13:59:17.33	148.01	36.54	-35.8	-36.7	23.4	0.00e+00	122	34	0	1601175552	44	6063
2026-01-27 13:59:21.37	149.15	35.84	-36.1	-37.1	23.1	0.00e+00	121	34	0	1613758464	44	6289
2026-01-27 13:59:25.40	150.24	35.15	-35.6	-36.5	23.2	0.00e+00	123	34	0	1626341376	44	5902
2026-01-27 13:59:29.44	151.28	34.46	-35.7	-36.7	23.5	0.00e+00	123	34	0	1638924288	44	6003
2026-01-27 13:59:33.48	152.29	33.78	-35.2	-36.2	23.9	0.00e+00	123	34	0	1651507200	44	5666
2026-01-27 13:59:37.52	153.25	33.10	-35.5	-36.4	23.7	0.00e+00	122	33	0	1664090112	44	5845
2026-01-27 13:59:41.55	154.18	32.43	-34.8	-35.7	23.9	0.00e+00	123	34	0	1676673024	44	5371
2026-01-27 13:59:45.60	155.07	31.77	-34.7	-35.6	24.2	0.00e+00	123	33	0	1689255936	42	5936
2026-01-27 13:59:49.64	155.92	31.11	-33.9	-34.8	24.7	0.00e+00	123	34	0	1701838848	42	5437
2026-01-27 13:59:53.68	156.74	30.46	-34.2	-35.0	24.6	0.00e+00	123	33	0	1714421760	42	5593
2026-01-27 13:59:57.71	157.53	29.82	-34.2	-35.1	24.7	0.00e+00	122	33	0	1727004672	42	5620
2026-01-27 14:00:01.75	158.29	29.19	-33.9	-34.7	25.0	0.00e+00	122	33	0	1739587584	42	5378
2026-01-27 14:00:05.79	159.03	28.57	-34.1	-35.0	24.7	0.00e+00	123	33	0	1752170496	40	6238
2026-01-27 14:00:09.83	159.73	27.95	-34.2	-35.1	24.6	0.00e+00	123	33	0	1764753408	40	6341
2026-01-27 14:00:13.87	160.41	27.35	-33.8	-34.6	24.9	0.00e+00	123	33	0	1777336320	40	5984
2026-01-27 14:00:17.91	161.07	26.75	-33.7	-34.6	25.0	0.00e+00	120	33	0	1789919232	40	5956
2026-01-27 14:00:21.94	161.70	26.17	-33.7	-34.5	25.1	0.00e+00	122	33	0	1803550720	40	5922
2026-01-27 14:00:25.98	162.31	25.59	-33.4	-34.3	25.1	0.00e+00	122	33	0	1815085056	40	5748
2026-01-27 14:00:30.02	162.90	25.02	-33.7	-34.6	24.9	0.00e+00	123	34	0	1828716544	40	5941
2026-01-27 14:00:34.07	163.47	24.46	-34.0	-34.9	24.8	0.00e+00	122	34	0	1841299456	40	6189
2026-01-27 14:00:38.11	164.02	23.91	-34.0	-34.8	24.7	0.00e+00	123	33	0	1853882368	40	6112
2026-01-27 14:00:42.15	164.55	23.37	-34.4	-35.4	24.2	0.00e+00	123	34	0	1866465280	40	6500
2026-01-27 14:00:46.19	165.06	22.84	-34.3	-35.2	24.3	0.00e+00	122	33	0	1879048192	40	6387
2026-01-27 14:00:50.22	165.56	22.32	-34.0	-34.9	24.5	0.00e+00	123	33	0	1891631104	40	6181
2026-01-27 14:00:54.26	166.04	21.80	-34.0	-34.9	24.5	0.00e+00	123	33	0	1904214016	40	6154
2026-01-27 14:00:58.31	166.51	21.29	-34.1	-35.0	24.6	0.00e+00	123	33	0	1916796928	40	6212
2026-01-27 14:01:02.34	166.96	20.80	-34.2	-35.1	24.6	0.00e+00	123	34	0	1929379840	40	6317
2026-01-27 14:01:06.39	167.40	20.30	-34.3	-35.2	24.4	0.00e+00	123	33	0	1941962752	40	6411
2026-01-27 14:01:10.42	167.83	19.82	-34.5	-35.5	24.2	0.00e+00	123	33	0	1954545664	40	6576
2026-01-27 14:01:14.47	168.24	19.35	-34.3	-35.2	24.3	0.00e+00	123	33	0	1967128576	40	6414
2026-01-27 14:01:18.50	168.64	18.88	-34.3	-35.2	24.2	0.00e+00	123	33	0	1979711488	40	6364
2026-01-27 14:01:22.55	169.03	18.42	-34.1	-35.0	24.4	0.00e+00	122	33	0	1992294400	40	6225
2026-01-27 14:01:26.58	169.41	17.97	-33.9	-34.8	24.7	0.00e+00	120	33	0	2004877312	40	6084
2026-01-27 14:01:30.62	169.78	17.52	-34.0	-34.9	24.7	0.00e+00	122	33	0	2017460224	40	6140
2026-01-27 14:01:34.67	170.14	17.08	-34.1	-35.0	24.6	0.00e+00	123	33	0	2030043136	40	6251
2026-01-27 14:01:38.71	170.49	16.65	-34.3	-35.2	24.4	0.00e+00	123	33	0	2042626048	40	6398
2026-01-27 14:01:42.75	170.83	16.22	-34.6	-35.5	24.1	0.00e+00	123	33	0	2055208960	40	6641
2026-01-27 14:01:46.79	171.16	15.80	-34.8	-35.7	23.9	0.00e+00	123	33	0	2067791872	42	6051
2026-01-27 14:01:50.82	171.48	15.39	-35.0	-35.9	23.7	0.00e+00	122	33	0	2080374784	42	6168
2026-01-27 14:01:54.86	171.79	14.99	-35.0	-35.9	23.7	0.00e+00	123	33	0	2092957696	42	6185
2026-01-27 14:01:58.90	172.09	14.59	-35.1	-36.1	23.6	0.00e+00	123	33	0	2105540608	42	6283
2026-01-27 14:02:02.94	172.39	14.19	-35.0	-35.9	23.7	0.00e+00	120	33	0	2119172096	42	6192
2026-01-27 14:02:06.98	172.68	13.80	-35.0	-35.9	23.7	0.00e+00	122	33	0	2130706432	42	6168
2026-01-27 14:02:11.02	172.97	13.42	-35.0	-35.9	23.7	0.00e+00	123	33	0	2144337920	42	6176
2026-01-27 14:02:15.06	173.24	13.04	-35.2	-36.1	23.5	0.00e+00	127	33	0	2156920832	42	6310
2026-01-27 14:02:19.10	173.51	12.67	-35.3	-36.3	23.4	0.00e+00	122	33	0	2169503744	42	6433
2026-01-27 14:02:23.14	173.78	12.30	-35.4	-36.3	23.4	0.00e+00	123	33	0	2182086656	42	6497
2026-01-27 14:02:27.18	174.03	11.94	-35.4	-36.3	23.3	0.00e+00	122	33	0	2194669568	42	6484
2026-01-27 14:02:31.22	174.28	11.58	-35.6	-36.5	23.2	0.00e+00	123	33	0	2207252480	42	6634
2026-01-27 14:02:35.26	174.53	11.22	-35.7	-36.6	23.1	0.00e+00	122	33	0	2219835392	42	6708
2026-01-27 14:02:39.30	174.77	10.88	-35.3	-36.2	23.3	0.00e+00	123	33	0	2232418304	42	6413
2026-01-27 14:02:43.34	175.01	10.53	-35.5	-36.4	23.2	0.00e+00	118	33	0	2245001216	42	6541
2026-01-27 14:02:47.37	175.24	10.19	-35.4	-36.3	23.4	0.00e+00	122	33	0	2257584128	42	6496
2026-01-27 14:02:51.41	175.46	9.86	-35.7	-36.7	23.0	0.00e+00	122	33	0	2270167040	42	6757
2026-01-27 14:02:55.45	175.68	9.52	-35.9	-36.9	23.0	0.00e+00	123	33	0	2282749952	44	6135
2026-01-27 14:02:59.48	175.90	9.20	-35.9	-36.9	22.8	0.00e+00	123	33	0	2295332864	44	6173
2026-01-27 14:03:03.52	176.11	8.87	-36.2	-37.2	22.6	0.00e+00	122	33	0	2307915776	44	6412
2026-01-27 14:03:07.56	176.32	8.55	-36.3	-37.3	22.5	0.00e+00	121	33	0	2320498688	44	6425
2026-01-27 14:03:11.60	176.52	8.24	-36.2	-37.2	22.6	0.00e+00	122	33	0	2333081600	44	6391
2026-01-27 14:03:15.64	176.72	7.93	-36.5	-37.5	22.3	0.00e+00	122	33	0	2345664512	44	6585
2026-01-27 14:03:19.68	176.91	7.62	-36.6	-37.6	22.1	0.00e+00	123	33	0	2358247424	44	6690
2026-01-27 14:03:23.73	177.10	7.31	-36.7	-37.7	21.9	0.00e+00	122	33	0	2370830336	44	6797
2026-01-27 14:03:27.77	177.29	7.01	-36.9	-38.0	21.7	0.00e+00	120	33	0	2383413248	46	6230
2026-01-27 14:03:31.80	177.47	6.71	-37.1	-38.1	21.5	0.00e+00	120	33	0	2395996160	46	6329
2026-01-27 14:03:35.84	177.66	6.42	-37.2	-38.3	21.4	0.00e+00	123	33	0	2408579072	46	6461
2026-01-27 14:03:39.88	177.83	6.12	-37.3	-38.4	21.3	0.00e+00	123	33	0	2421161984	46	6513
2026-01-27 14:03:43.91	178.01	5.83	-37.3	-38.4	21.2	0.00e+00	122	33	0	2433744896	46	6571
2026-01-27 14:03:47.95	178.18	5.55	-37.8	-38.9	20.7	0.00e+00	122	33	0	2446327808	48	6172
2026-01-27 14:03:51.99	178.35	5.27	-37.9	-39.0	20.7	0.00e+00	120	33	0	2458910720	48	6239
2026-01-27 14:03:56.02	178.51	4.99	-38.3	-39.5	20.1	0.00e+00	120	33	0	2471493632	48	6581
2026-01-27 14:04:00.06	178.67	4.71	-38.0	-39.2	20.3	0.00e+00	123	33	0	2485125120	48	6395
2026-01-27 14:04:04.10	178.83	4.43	-37.6	-38.7	20.8	0.00e+00	120	33	0	2497708032	48	6021
2026-01-27 14:04:08.14	178.99	4.16	-38.1	-39.2	20.3	0.00e+00	122	33	0	2510290944	48	6412
2026-01-27 14:04:12.18	179.14	3.89	-37.9	-39.0	20.6	0.00e+00	121	33	0	2522873856	48	6265
2026-01-27 14:04:16.21	179.29	3.62	-38.1	-39.3	20.1	0.00e+00	122	33	0	2535456768	48	6472
2026-01-27 14:04:20.25	179.44	3.36	-38.6	-39.9	19.7	0.00e+00	123	33	0	2548039680	48	6937
2026-01-27 14:04:24.29	179.59	3.10	-38.7	-40.0	19.0	0.00e+00	122	33	0	2560622592	50	6224
2026-01-27 14:04:28.33	179.73	2.84	-48.5	-61.4	3.5	1.52e+00	0	33	104	2563768320	60	41034
2026-01-27 14:04:32.37	179.87	2.58	-48.5	-61.7	3.5	1.52e+00	0	33	104	2563768320	60	42819
2026-01-27 14:04:36.40	180.01	2.32	-49.0	-61.8	3.5	1.52e+00	0	33	104	2563768320	60	43252
2026-01-27 14:04:40.44	180.15	2.07	-49.0	-61.9	3.5	1.51e+00	0	33	104	2563768320	60	43464
2026-01-27 14:04:44.48	180.29	1.82	-48.9	-61.8	3.5	1.52e+00	0	34	104	2563768320	60	43170
2026-01-27 14:04:48.52	180.42	1.57	-48.9	-61.8	3.5	1.52e+00	0	33	104	2563768320	60	43029
2026-01-27 14:04:52.55	180.55	1.32	-48.8	-61.7	3.5	1.52e+00	0	33	104	2563768320	60	42730
2026-01-27 14:04:56.59	180.68	1.08	-48.8	-61.8	3.5	1.52e+00	0	33	104	2563768320	60	43077
2026-01-27 14:05:00.63	180.81	0.83	-48.8	-61.7	3.5	1.52e+00	0	33	104	2563768320	60	42841
2026-01-27 14:05:04.68	180.93	0.59	-48.8	-61.7	3.5	1.52e+00	0	33	104	2563768320	60	42777
2026-01-27 14:05:08.71	181.06	0.35	-48.8	-61.7	3.5	1.52e+00	0	33	104	2563768320	60	42928
2026-01-27 14:05:12.75	181.18	0.11	-48.8	-61.7	3.5	1.52e+00	0	33	104	2563768320	60	42710

#Closed at: 2026-01-27 14:05:15
#Recorded file [2563 MB]: D:/lorett/data/35029_260128_014956.dat