passes_logs/2026/01/27/R4.6S_Anadyr/R4.6S_Anadyr__20260127_201650_FENGYUN_3D_rec.log

#Pass ID: 20260127_201650_FENGYUN 3D
#Satellite: FENGYUN 3D
#Configuration: FENGYUN 3D
#almurnet v.1.7.20251203
#Start time: 2026-01-27 20:16:53

#Version: 2.2.20231116
#Station: R4.6S_Anadyr
#Location: 177.4865 lon 64.73178 lat
#TLE: 1 43010U 17072A   26026.91415486  .00000072  00000+0  55983-4 0  9991
#TLE: 2 43010  98.9962 358.9161 0002508  89.0320 271.1142 14.19700283424949

#Time	Az	El	Level	Level2	SNR	BER	BlckErr	Temp	State	Recorded	gain1	gain2
2026-01-27 20:16:53.16	38.67	0.12	-48.5	-63.6	3.5	1.51e+00	0	29	0	0	60	54476
2026-01-27 20:16:57.19	38.40	0.33	-48.6	-60.7	3.6	8.45e-01	0	30	104	0	60	39164
2026-01-27 20:17:01.23	38.12	0.53	-48.6	-60.8	3.6	8.45e-01	0	30	104	0	60	39450
2026-01-27 20:17:05.27	37.84	0.74	-48.6	-60.7	3.6	8.45e-01	0	31	104	0	60	39084
2026-01-27 20:17:09.31	37.55	0.95	-48.5	-60.5	3.6	8.45e-01	0	31	104	0	60	38335
2026-01-27 20:17:13.35	37.26	1.16	-48.2	-60.3	3.6	8.46e-01	0	31	104	0	60	37593
2026-01-27 20:17:17.39	36.96	1.37	-47.5	-59.5	3.6	8.45e-01	0	31	104	0	60	34086
2026-01-27 20:17:21.43	36.66	1.58	-47.0	-59.0	3.6	8.46e-01	0	31	104	0	60	32341
2026-01-27 20:17:25.47	36.35	1.79	-47.0	-59.0	3.6	8.45e-01	0	31	104	0	60	32255
2026-01-27 20:17:29.51	36.04	2.00	-47.0	-59.0	3.6	8.45e-01	0	31	104	0	60	32238
2026-01-27 20:17:33.54	35.73	2.22	-46.9	-58.7	3.6	8.45e-01	0	31	104	0	60	31175
2026-01-27 20:17:37.58	35.41	2.43	-47.0	-58.8	3.6	8.46e-01	0	31	104	0	60	31584
2026-01-27 20:17:41.62	35.08	2.64	-46.9	-58.5	3.6	8.44e-01	0	31	104	0	60	30493
2026-01-27 20:17:45.66	34.75	2.86	-46.9	-58.5	3.6	8.44e-01	0	31	104	0	60	30562
2026-01-27 20:17:49.70	34.42	3.08	-41.0	-42.5	15.7	1.10e-06	0	31	0	14680064	56	6100
2026-01-27 20:17:53.74	34.08	3.29	-38.5	-39.7	18.0	5.60e-05	0	31	0	35651584	50	6183
2026-01-27 20:17:57.77	33.73	3.51	-38.0	-39.1	18.6	0.00e+00	0	31	0	46137344	50	5764
2026-01-27 20:18:01.81	33.38	3.73	-36.4	-37.2	20.7	0.00e+00	0	31	0	69206016	46	5882
2026-01-27 20:18:05.85	33.03	3.95	-36.4	-37.3	21.0	0.00e+00	0	31	0	91226112	46	5931
2026-01-27 20:18:09.89	32.66	4.17	-36.6	-37.4	20.7	0.00e+00	0	31	0	114294784	46	6030
2026-01-27 20:18:13.93	32.30	4.39	-36.0	-36.8	21.4	0.00e+00	0	31	0	137363456	44	6308
2026-01-27 20:18:17.97	31.92	4.61	-35.5	-36.4	21.7	0.00e+00	0	31	0	159383552	44	5975
2026-01-27 20:18:22.01	31.54	4.83	-35.4	-36.3	21.9	0.00e+00	0	31	0	182452224	44	5901
2026-01-27 20:18:26.04	31.16	5.05	-34.9	-35.6	22.6	0.00e+00	0	31	0	205520896	44	5484
2026-01-27 20:18:30.08	30.77	5.28	-35.2	-36.0	22.2	0.00e+00	0	31	0	227540992	44	5731
2026-01-27 20:18:34.11	30.37	5.50	-35.2	-36.0	22.2	0.00e+00	0	31	0	250609664	44	5717
2026-01-27 20:18:38.14	29.97	5.72	-35.2	-36.0	22.2	0.00e+00	0	31	0	273678336	44	5760
2026-01-27 20:18:42.17	29.56	5.95	-35.0	-35.8	22.4	0.00e+00	0	31	0	295698432	44	5620
2026-01-27 20:18:46.20	29.14	6.17	-35.7	-36.5	22.0	0.00e+00	0	31	0	318767104	44	6056
2026-01-27 20:18:50.24	28.72	6.40	-35.0	-35.8	22.6	0.00e+00	0	31	0	341835776	44	5597
2026-01-27 20:18:54.28	28.29	6.62	-34.6	-35.3	23.1	0.00e+00	0	31	0	363855872	42	5959
2026-01-27 20:18:58.31	27.85	6.85	-34.0	-34.7	23.6	0.00e+00	0	31	0	386924544	42	5528
2026-01-27 20:19:02.35	27.41	7.08	-34.0	-34.7	23.7	0.00e+00	0	31	0	408944640	42	5563
2026-01-27 20:19:06.39	26.96	7.30	-34.1	-34.8	23.7	0.00e+00	0	31	0	432013312	42	5591
2026-01-27 20:19:10.43	26.50	7.53	-34.0	-34.8	23.8	0.00e+00	0	31	0	455081984	42	5578
2026-01-27 20:19:14.47	26.03	7.76	-34.1	-34.8	23.8	0.00e+00	0	31	0	477102080	42	5621
2026-01-27 20:19:18.50	25.56	7.99	-34.2	-35.0	23.7	0.00e+00	0	31	0	500170752	42	5698
2026-01-27 20:19:22.54	25.08	8.22	-34.3	-35.1	23.5	0.00e+00	0	31	0	523239424	42	5788
2026-01-27 20:19:26.58	24.59	8.44	-34.2	-35.0	23.8	0.00e+00	0	31	0	546308096	42	5703
2026-01-27 20:19:30.61	24.09	8.67	-34.0	-34.7	24.0	0.00e+00	0	31	0	568328192	40	6223
2026-01-27 20:19:34.65	23.58	8.90	-33.5	-34.2	24.5	0.00e+00	0	31	0	591396864	40	5835
2026-01-27 20:19:38.69	23.07	9.13	-33.6	-34.3	24.3	0.00e+00	0	31	0	613416960	40	5911
2026-01-27 20:19:42.73	22.55	9.36	-33.4	-34.1	24.5	0.00e+00	0	31	0	636485632	40	5795
2026-01-27 20:19:46.77	22.02	9.59	-33.4	-34.1	24.5	0.00e+00	0	31	0	659554304	40	5762
2026-01-27 20:19:50.81	21.48	9.81	-33.4	-34.1	24.6	0.00e+00	0	31	0	681574400	40	5796
2026-01-27 20:19:54.85	20.93	10.04	-33.5	-34.2	24.4	0.00e+00	0	31	0	704643072	40	5884
2026-01-27 20:19:58.89	20.37	10.27	-33.5	-34.1	24.6	0.00e+00	0	31	0	727711744	40	5827
2026-01-27 20:20:02.92	19.81	10.49	-33.4	-34.1	24.5	0.00e+00	0	31	0	750780416	40	5797
2026-01-27 20:20:06.97	19.23	10.72	-33.3	-34.0	24.7	0.00e+00	0	31	0	772800512	40	5709
2026-01-27 20:20:11.00	18.65	10.94	-33.2	-33.9	24.8	0.00e+00	0	31	0	795869184	40	5639
2026-01-27 20:20:15.04	18.06	11.17	-32.9	-33.6	25.1	0.00e+00	0	32	0	817889280	40	5472
2026-01-27 20:20:19.08	17.46	11.39	-33.0	-33.7	25.1	0.00e+00	0	31	0	840957952	38	6207
2026-01-27 20:20:23.12	16.84	11.61	-33.2	-33.8	25.0	0.00e+00	0	31	0	864026624	38	6305
2026-01-27 20:20:27.15	16.23	11.83	-33.0	-33.7	25.2	0.00e+00	0	32	0	886046720	38	6176
2026-01-27 20:20:31.18	15.60	12.05	-32.9	-33.5	25.2	0.00e+00	0	32	0	909115392	38	6096
2026-01-27 20:20:35.21	14.96	12.26	-32.8	-33.4	25.3	0.00e+00	0	31	0	932184064	38	6030
2026-01-27 20:20:39.25	14.31	12.48	-32.7	-33.4	25.3	0.00e+00	0	32	0	954204160	38	6005
2026-01-27 20:20:43.29	13.65	12.69	-32.7	-33.4	25.4	0.00e+00	0	31	0	977272832	38	5987
2026-01-27 20:20:47.33	12.98	12.90	-32.3	-33.0	25.8	0.00e+00	0	31	0	1000341504	38	5742
2026-01-27 20:20:51.37	12.30	13.11	-32.3	-32.9	25.7	0.00e+00	0	31	0	1022361600	38	5683
2026-01-27 20:20:55.40	11.61	13.32	-32.4	-33.0	25.7	0.00e+00	0	31	0	1045430272	38	5752
2026-01-27 20:20:59.45	10.91	13.53	-32.1	-32.7	26.0	0.00e+00	0	31	0	1068498944	38	5564
2026-01-27 20:21:03.48	10.21	13.73	-32.5	-33.2	25.5	0.00e+00	0	31	0	1090519040	38	5857
2026-01-27 20:21:07.52	9.49	13.93	-32.8	-33.4	25.5	0.00e+00	0	31	0	1113587712	38	6014
2026-01-27 20:21:11.55	8.76	14.12	-32.3	-32.9	25.7	0.00e+00	0	31	0	1136656384	38	5683
2026-01-27 20:21:15.59	8.02	14.32	-32.4	-33.1	25.7	0.00e+00	0	31	0	1158676480	38	5791
2026-01-27 20:21:19.63	7.28	14.51	-31.9	-32.5	26.2	0.00e+00	0	31	0	1181745152	38	5417
2026-01-27 20:21:23.67	6.52	14.69	-32.0	-32.7	26.1	0.00e+00	0	32	0	1204813824	38	5534
2026-01-27 20:21:27.70	5.75	14.88	-32.1	-32.8	25.9	0.00e+00	0	31	0	1226833920	38	5580
2026-01-27 20:21:31.74	4.98	15.06	-32.0	-32.6	26.1	0.00e+00	0	31	0	1249902592	38	5495
2026-01-27 20:21:35.78	4.19	15.23	-31.8	-32.5	26.3	0.00e+00	0	31	0	1272971264	38	5389
2026-01-27 20:21:39.82	3.40	15.40	-31.6	-32.2	26.5	0.00e+00	0	31	0	1294991360	36	5871
2026-01-27 20:21:43.79	2.61	15.57	-31.7	-32.3	26.4	0.00e+00	0	32	0	1318060032	36	5912
2026-01-27 20:21:47.82	1.79	15.73	-31.6	-32.3	26.4	0.00e+00	0	32	0	1340080128	36	5949
2026-01-27 20:21:51.86	0.97	15.88	-31.4	-32.0	26.7	0.00e+00	0	32	0	1363148800	36	5758
2026-01-27 20:21:55.90	0.14	16.04	-31.1	-31.7	26.9	0.00e+00	0	32	0	1385168896	36	5547
2026-01-27 20:21:59.94	359.30	16.18	-31.2	-31.8	26.9	0.00e+00	0	32	0	1408237568	36	5583
2026-01-27 20:22:03.97	358.46	16.32	-30.8	-31.4	27.2	0.00e+00	0	31	0	1431306240	36	5354
2026-01-27 20:22:08.01	357.60	16.46	-31.1	-31.7	26.9	0.00e+00	0	31	0	1453326336	36	5508
2026-01-27 20:22:12.05	356.74	16.59	-31.3	-31.9	26.8	0.00e+00	0	32	0	1476395008	36	5670
2026-01-27 20:22:16.08	355.87	16.71	-31.5	-32.1	26.6	0.00e+00	0	32	0	1499463680	36	5783
2026-01-27 20:22:20.12	354.99	16.83	-31.4	-32.0	26.6	0.00e+00	0	32	0	1522532352	36	5715
2026-01-27 20:22:24.16	354.11	16.94	-31.4	-32.0	26.7	0.00e+00	0	31	0	1544552448	36	5739
2026-01-27 20:22:28.20	353.22	17.04	-31.5	-32.1	26.5	0.00e+00	0	32	0	1567621120	36	5785
2026-01-27 20:22:32.24	352.32	17.14	-31.3	-31.9	26.7	0.00e+00	0	32	0	1589641216	36	5672
2026-01-27 20:22:36.27	351.42	17.23	-31.2	-31.7	26.9	0.00e+00	0	32	0	1612709888	36	5566
2026-01-27 20:22:40.31	350.51	17.32	-31.1	-31.7	27.0	0.00e+00	0	32	0	1635778560	36	5542
2026-01-27 20:22:44.35	349.60	17.39	-31.0	-31.6	27.0	0.00e+00	0	32	0	1657798656	36	5460
2026-01-27 20:22:48.39	348.68	17.46	-31.3	-31.9	26.7	0.00e+00	0	32	0	1680867328	36	5664
2026-01-27 20:22:52.43	347.76	17.52	-31.1	-31.8	27.0	0.00e+00	0	32	0	1703936000	36	5579
2026-01-27 20:22:56.46	346.84	17.58	-31.0	-31.7	27.0	0.00e+00	0	31	0	1725956096	36	5530
2026-01-27 20:23:00.50	345.91	17.62	-31.4	-32.1	26.7	0.00e+00	0	32	0	1749024768	36	5772
2026-01-27 20:23:04.54	344.98	17.66	-31.2	-31.8	26.9	0.00e+00	0	32	0	1772093440	36	5628
2026-01-27 20:23:08.57	344.05	17.69	-31.0	-31.6	27.1	0.00e+00	0	32	0	1794113536	36	5493
2026-01-27 20:23:12.61	343.11	17.72	-30.8	-31.5	27.2	0.00e+00	0	32	0	1817182208	36	5380
2026-01-27 20:23:16.65	342.18	17.73	-30.6	-31.2	27.4	0.00e+00	0	31	0	1840250880	34	5876
2026-01-27 20:23:20.68	341.24	17.74	-30.6	-31.2	27.3	0.00e+00	0	32	0	1862270976	34	5883
2026-01-27 20:23:24.72	340.31	17.74	-30.9	-31.5	27.0	0.00e+00	0	32	0	1885339648	34	6103
2026-01-27 20:23:28.76	339.37	17.73	-31.1	-31.7	26.9	0.00e+00	0	32	0	1908408320	34	6221
2026-01-27 20:23:32.80	338.43	17.72	-31.3	-31.9	26.7	0.00e+00	0	32	0	1930428416	34	6383
2026-01-27 20:23:36.83	337.50	17.69	-31.1	-31.7	26.8	0.00e+00	0	31	0	1953497088	34	6203
2026-01-27 20:23:40.86	336.57	17.66	-30.6	-31.2	27.1	0.00e+00	0	31	0	1975517184	34	5861
2026-01-27 20:23:44.90	335.64	17.62	-31.0	-31.6	26.9	0.00e+00	0	31	0	1998585856	34	6125
2026-01-27 20:23:48.94	334.71	17.58	-30.8	-31.4	27.2	0.00e+00	0	31	0	2021654528	34	6027
2026-01-27 20:23:52.98	333.79	17.52	-31.1	-31.7	26.9	0.00e+00	0	32	0	2044723200	34	6177
2026-01-27 20:23:57.02	332.86	17.46	-31.3	-31.8	26.8	0.00e+00	0	32	0	2066743296	34	6309
2026-01-27 20:24:01.06	331.95	17.39	-31.2	-31.8	26.8	0.00e+00	0	31	0	2089811968	34	6289
2026-01-27 20:24:05.09	331.04	17.31	-31.2	-31.8	27.0	0.00e+00	0	32	0	2112880640	34	6297
2026-01-27 20:24:09.14	330.12	17.23	-31.3	-32.0	26.8	0.00e+00	0	32	0	2134900736	34	6402
2026-01-27 20:24:13.18	329.22	17.14	-31.3	-31.9	26.8	0.00e+00	0	32	0	2157969408	34	6330
2026-01-27 20:24:17.21	328.33	17.04	-31.4	-32.0	26.7	0.00e+00	0	31	0	2179989504	34	6423
2026-01-27 20:24:21.25	327.44	16.94	-31.5	-32.1	26.5	0.00e+00	0	32	0	2203058176	34	6516
2026-01-27 20:24:25.29	326.55	16.83	-31.4	-32.1	26.6	0.00e+00	0	31	0	2226126848	34	6497
2026-01-27 20:24:29.33	325.67	16.71	-31.3	-32.0	26.8	0.00e+00	0	31	0	2249195520	34	6394
2026-01-27 20:24:33.36	324.80	16.59	-31.4	-32.1	26.6	0.00e+00	0	31	0	2271215616	34	6487
2026-01-27 20:24:37.40	323.94	16.46	-31.9	-32.6	26.5	0.00e+00	0	32	0	2294284288	36	6104
2026-01-27 20:24:41.43	323.09	16.32	-31.6	-32.2	26.6	0.00e+00	0	32	0	2317352960	36	5884
2026-01-27 20:24:45.47	322.24	16.18	-31.5	-32.2	26.6	0.00e+00	0	32	0	2339373056	36	5855
2026-01-27 20:24:49.51	321.40	16.03	-31.5	-32.1	26.7	0.00e+00	0	32	0	2362441728	36	5789
2026-01-27 20:24:53.54	320.57	15.88	-31.6	-32.2	26.5	0.00e+00	0	32	0	2384461824	36	5878
2026-01-27 20:24:57.58	319.74	15.72	-31.7	-32.4	26.4	0.00e+00	0	32	0	2407530496	36	5990
2026-01-27 20:25:01.62	318.93	15.56	-32.0	-32.7	26.2	0.00e+00	0	32	0	2430599168	36	6183
2026-01-27 20:25:05.66	318.12	15.40	-31.9	-32.6	26.3	0.00e+00	0	31	0	2452619264	36	6116
2026-01-27 20:25:09.70	317.33	15.22	-31.9	-32.5	26.3	0.00e+00	0	32	0	2475687936	36	6067
2026-01-27 20:25:13.74	316.54	15.05	-31.9	-32.6	26.4	0.00e+00	0	32	0	2498756608	36	6106
2026-01-27 20:25:17.78	315.76	14.87	-31.9	-32.4	26.3	0.00e+00	0	32	0	2521825280	36	6033
2026-01-27 20:25:21.82	315.00	14.69	-31.9	-32.5	26.3	0.00e+00	0	32	0	2543845376	36	6059
2026-01-27 20:25:25.85	314.24	14.50	-32.3	-32.9	26.0	0.00e+00	0	32	0	2566914048	36	6390
2026-01-27 20:25:29.89	313.49	14.31	-32.2	-32.8	25.7	0.00e+00	0	32	0	2588934144	36	6277
2026-01-27 20:25:33.93	312.75	14.12	-32.4	-33.0	25.9	0.00e+00	0	32	0	2612002816	36	6455
2026-01-27 20:25:37.97	312.02	13.92	-32.2	-33.0	26.0	0.00e+00	0	31	0	2635071488	36	6391
2026-01-27 20:25:42.01	311.30	13.72	-32.4	-33.0	25.8	0.00e+00	0	32	0	2657091584	36	6405
2026-01-27 20:25:46.04	310.60	13.52	-32.6	-33.2	25.7	0.00e+00	0	32	0	2680160256	36	6551
2026-01-27 20:25:50.08	309.90	13.31	-32.9	-33.6	25.5	0.00e+00	0	32	0	2703228928	38	6165
2026-01-27 20:25:54.12	309.21	13.10	-32.4	-33.1	25.9	0.00e+00	0	32	0	2726297600	38	5790
2026-01-27 20:25:58.16	308.53	12.89	-32.5	-33.2	25.7	0.00e+00	0	32	0	2748317696	38	5852
2026-01-27 20:26:02.20	307.86	12.68	-32.4	-33.0	25.8	0.00e+00	0	32	0	2771386368	38	5713
2026-01-27 20:26:06.24	307.20	12.47	-32.7	-33.3	25.5	0.00e+00	0	32	0	2793406464	38	5897
2026-01-27 20:26:10.28	306.55	12.25	-32.5	-33.2	25.6	0.00e+00	0	32	0	2816475136	38	5894
2026-01-27 20:26:14.32	305.91	12.03	-32.9	-33.4	25.1	0.00e+00	0	31	0	2839543808	38	6033
2026-01-27 20:26:18.35	305.28	11.82	-32.9	-33.6	25.1	0.00e+00	0	32	0	2861563904	38	6156
2026-01-27 20:26:22.39	304.65	11.59	-33.2	-33.9	24.9	0.00e+00	0	31	0	2884632576	38	6361
2026-01-27 20:26:26.43	304.04	11.37	-33.5	-34.3	24.8	0.00e+00	0	32	0	2907701248	38	6621
2026-01-27 20:26:30.47	303.44	11.15	-33.2	-33.8	25.0	0.00e+00	0	32	0	2930769920	38	6289
2026-01-27 20:26:34.51	302.84	10.93	-33.5	-34.2	24.7	0.00e+00	0	32	0	2952790016	38	6587
2026-01-27 20:26:38.55	302.26	10.70	-33.2	-33.9	25.0	0.00e+00	0	31	0	2975858688	38	6327
2026-01-27 20:26:42.59	301.68	10.48	-33.3	-34.0	24.8	0.00e+00	0	32	0	2997878784	38	6404
2026-01-27 20:26:46.63	301.12	10.25	-33.4	-34.2	24.7	0.00e+00	0	32	0	3020947456	38	6564
2026-01-27 20:26:50.67	300.56	10.02	-33.6	-34.2	24.4	0.00e+00	0	32	0	3044016128	38	6575
2026-01-27 20:26:54.70	300.01	9.80	-34.0	-34.6	24.0	0.00e+00	0	31	0	3066036224	40	6150
2026-01-27 20:26:58.74	299.47	9.57	-33.9	-34.5	24.2	0.00e+00	0	31	0	3089104896	40	6056
2026-01-27 20:27:02.78	298.94	9.34	-33.7	-34.4	24.3	0.00e+00	0	32	0	3112173568	40	5989
2026-01-27 20:27:06.82	298.42	9.11	-33.6	-34.2	24.4	0.00e+00	0	32	0	3135242240	40	5850
2026-01-27 20:27:10.86	297.90	8.88	-33.7	-34.4	24.3	0.00e+00	0	32	0	3157262336	40	5974
2026-01-27 20:27:14.91	297.39	8.65	-34.1	-34.7	24.0	0.00e+00	0	31	0	3180331008	40	6212
2026-01-27 20:27:18.94	296.90	8.43	-34.1	-34.9	24.0	0.00e+00	0	32	0	3202351104	40	6327
2026-01-27 20:27:22.98	296.41	8.20	-34.3	-35.1	23.8	0.00e+00	0	32	0	3225419776	40	6484
2026-01-27 20:27:27.02	295.92	7.97	-34.6	-35.4	23.6	0.00e+00	0	32	0	3248488448	40	6710
2026-01-27 20:27:31.05	295.45	7.74	-34.5	-35.3	23.5	0.00e+00	0	32	0	3270508544	40	6648
2026-01-27 20:27:35.09	294.98	7.51	-34.6	-35.3	23.4	0.00e+00	0	32	0	3293577216	42	5934
2026-01-27 20:27:39.13	294.52	7.28	-34.7	-35.5	23.3	0.00e+00	0	32	0	3316645888	42	6080
2026-01-27 20:27:43.17	294.07	7.06	-34.7	-35.4	23.4	0.00e+00	0	32	0	3339714560	42	6029
2026-01-27 20:27:47.21	293.62	6.83	-34.7	-35.4	23.4	0.00e+00	0	31	0	3361734656	42	6012
2026-01-27 20:27:51.26	293.18	6.60	-34.4	-35.2	23.5	0.00e+00	0	31	0	3384803328	42	5835
2026-01-27 20:27:55.29	292.75	6.38	-35.0	-35.7	23.0	0.00e+00	0	31	0	3406823424	42	6187
2026-01-27 20:27:59.34	292.33	6.15	-35.3	-36.0	22.7	0.00e+00	0	32	0	3429892096	42	6436
2026-01-27 20:28:03.37	291.91	5.92	-35.0	-35.9	22.8	0.00e+00	0	32	0	3452960768	42	6326
2026-01-27 20:28:07.42	291.50	5.70	-35.2	-35.9	22.7	0.00e+00	0	31	0	3474980864	42	6367
2026-01-27 20:28:11.45	291.09	5.48	-35.2	-36.1	22.6	0.00e+00	0	32	0	3498049536	42	6489
2026-01-27 20:28:15.49	290.69	5.25	-35.0	-35.8	22.8	0.00e+00	0	32	0	3521118208	42	6297
2026-01-27 20:28:19.53	290.30	5.03	-35.7	-36.5	22.0	0.00e+00	0	32	0	3544186880	44	6040
2026-01-27 20:28:23.57	289.91	4.81	-35.1	-35.8	22.8	0.00e+00	0	32	0	3566206976	42	6291
2026-01-27 20:28:27.61	289.53	4.58	-35.3	-36.0	22.6	0.00e+00	0	32	0	3589275648	44	5734
2026-01-27 20:28:31.65	289.16	4.36	-35.4	-36.1	22.2	0.00e+00	0	32	0	3611295744	44	5828
2026-01-27 20:28:35.69	288.79	4.14	-35.7	-36.6	21.9	0.00e+00	0	32	0	3634364416	44	6109
2026-01-27 20:28:39.73	288.43	3.92	-35.8	-36.6	21.8	0.00e+00	0	32	0	3657433088	44	6121
2026-01-27 20:28:43.77	288.07	3.70	-35.5	-36.3	21.9	0.00e+00	0	31	0	3680501760	44	5916
2026-01-27 20:28:47.81	287.72	3.48	-35.8	-36.6	21.6	0.00e+00	0	32	0	3702521856	44	6167
2026-01-27 20:28:51.85	287.37	3.27	-35.6	-36.3	21.8	0.00e+00	0	31	0	3725590528	44	5961
2026-01-27 20:28:55.90	287.03	3.05	-36.1	-36.9	21.2	0.00e+00	0	31	0	3748659200	44	6348
2026-01-27 20:28:59.94	286.69	2.83	-48.5	-60.6	3.6	8.45e-01	0	31	104	3750756352	60	38679
2026-01-27 20:29:03.98	286.36	2.62	-48.6	-60.8	3.6	8.46e-01	0	32	104	3750756352	60	39638
2026-01-27 20:29:08.02	286.04	2.40	-48.7	-60.9	3.6	8.44e-01	0	32	104	3750756352	60	39999
2026-01-27 20:29:12.06	285.72	2.19	-48.3	-60.8	3.6	8.45e-01	0	32	104	3750756352	60	39835
2026-01-27 20:29:16.10	285.40	1.97	-48.6	-60.7	3.6	8.44e-01	0	32	104	3750756352	60	39343
2026-01-27 20:29:20.14	285.09	1.76	-48.4	-60.7	3.6	8.46e-01	0	32	104	3750756352	60	38981
2026-01-27 20:29:24.18	284.78	1.55	-48.6	-60.7	3.6	8.46e-01	0	32	104	3750756352	60	39402
2026-01-27 20:29:28.22	284.48	1.34	-48.6	-60.7	3.6	8.45e-01	0	32	104	3750756352	60	39317
2026-01-27 20:29:32.26	284.18	1.13	-48.6	-60.7	3.6	8.46e-01	0	32	104	3750756352	60	39050
2026-01-27 20:29:36.30	283.89	0.92	-48.6	-60.7	3.6	8.45e-01	0	32	104	3750756352	60	39055
2026-01-27 20:29:40.33	283.60	0.71	-48.6	-60.7	3.6	8.46e-01	0	32	104	3750756352	60	39270
2026-01-27 20:29:44.37	283.31	0.51	-48.6	-60.7	3.6	8.45e-01	0	32	104	3750756352	60	39099
2026-01-27 20:29:48.41	283.03	0.30	-48.6	-60.7	3.6	8.46e-01	0	32	104	3750756352	60	39261
2026-01-27 20:29:52.45	282.76	0.09	-48.6	-60.7	3.6	8.46e-01	0	32	104	3750756352	60	39181

#Closed at: 2026-01-27 20:29:55
#Recorded file [3750 MB]: D:/lorett/data/35029_260128_081653.dat