passes_logs/2025/01/23/planumMaritime01/planumMaritime01__20250123_184001_METOP-B_rec.log

#Pass ID: 20250123_184001_METOP-B
#Satellite: METOP-B
#Configuration: METOP-B
#Start time: 2025-01-23 18:40:06.086075

#LorettStation: 1.0.0 05.05.2024
#Station: planumMaritime01
#Location: 37.49445 lon 55.92918 lat
#TLE: 1 38771U 12049A   25022.22192915  .00000342  00000+0  17605-3 0  9994
#TLE: 2 38771  98.6000  80.1937 0001632  73.2603 286.8754 14.21415579640663

#Time	Az	El	Level	SNR
2025-01-23 18:40:08.249569	194.0	10.2	-74.4	0.0
2025-01-23 18:40:10.495402	194.2	10.4	-75.6	0.0
2025-01-23 18:40:12.744502	194.3	10.5	-76.4	0.0
2025-01-23 18:40:14.988351	194.5	10.7	-75.9	0.0
2025-01-23 18:40:17.235176	194.7	10.9	-74.9	0.0
2025-01-23 18:40:19.480907	194.8	11.1	-75.6	0.0
2025-01-23 18:40:21.728139	195.0	11.3	-74.8	0.0
2025-01-23 18:40:23.973270	195.2	11.5	-75.9	0.0
2025-01-23 18:40:26.219361	195.4	11.7	-74.8	0.0
2025-01-23 18:40:28.466684	195.6	11.9	-76.7	0.0
2025-01-23 18:40:30.714171	195.7	12.1	-75.0	0.0
2025-01-23 18:40:32.960956	195.9	12.2	-75.9	0.0
2025-01-23 18:40:35.208689	196.1	12.4	-76.1	0.0
2025-01-23 18:40:37.457382	196.3	12.6	-76.4	0.0
2025-01-23 18:40:39.705035	196.5	12.8	-75.5	0.0
2025-01-23 18:40:41.953547	196.7	13.0	-76.3	0.0
2025-01-23 18:40:44.197868	196.9	13.2	-75.9	0.0
2025-01-23 18:40:46.443459	197.1	13.4	-77.1	0.0
2025-01-23 18:40:48.689619	197.3	13.6	-76.0	0.0
2025-01-23 18:40:50.934960	197.5	13.9	-75.1	0.0
2025-01-23 18:40:53.181306	197.7	14.1	-74.4	0.0
2025-01-23 18:40:55.426976	197.9	14.3	-75.0	0.0
2025-01-23 18:40:57.671893	198.2	14.5	-74.8	0.0
2025-01-23 18:40:59.918044	198.4	14.7	-75.5	0.0
2025-01-23 18:41:02.164168	198.6	14.9	-75.5	0.0
2025-01-23 18:41:04.410692	198.8	15.1	-76.6	0.0
2025-01-23 18:41:06.654861	199.1	15.3	-76.2	0.0
2025-01-23 18:41:08.903130	199.3	15.5	-76.1	0.0
2025-01-23 18:41:11.148864	199.5	15.8	-76.3	0.0
2025-01-23 18:41:13.395258	199.8	16.0	-75.5	0.0
2025-01-23 18:41:15.641648	200.0	16.2	-76.2	0.0
2025-01-23 18:41:17.886594	200.3	16.4	-68.1	0.0
2025-01-23 18:41:20.133263	200.5	16.7	-68.1	0.0
2025-01-23 18:41:22.378468	200.8	16.9	-76.4	0.0
2025-01-23 18:41:24.624453	201.0	17.1	-76.4	0.0
2025-01-23 18:41:26.871257	201.3	17.3	-75.9	0.0
2025-01-23 18:41:29.117547	201.5	17.6	-76.1	0.0
2025-01-23 18:41:31.361698	201.8	17.8	-76.0	0.0
2025-01-23 18:41:33.609547	202.1	18.0	-75.8	0.0
2025-01-23 18:41:35.855386	202.4	18.3	-76.6	0.0
2025-01-23 18:41:38.100657	202.6	18.5	-75.7	0.0
2025-01-23 18:41:40.346718	202.9	18.7	-76.4	0.0
2025-01-23 18:41:42.592479	203.2	19.0	-75.9	0.0
2025-01-23 18:41:44.839115	203.5	19.2	-76.1	0.0
2025-01-23 18:41:47.082443	203.8	19.5	-76.2	0.0
2025-01-23 18:41:49.327697	204.1	19.7	-75.7	0.0
2025-01-23 18:41:51.574816	204.4	20.0	-76.3	0.0
2025-01-23 18:41:53.821933	204.7	20.2	-75.7	0.0
2025-01-23 18:41:56.067558	205.0	20.5	-75.7	0.0
2025-01-23 18:41:58.314170	205.4	20.7	-76.2	0.0
2025-01-23 18:42:00.562060	205.7	21.0	-76.2	0.0
2025-01-23 18:42:02.807241	206.0	21.2	-75.9	0.0
2025-01-23 18:42:05.053021	206.4	21.5	-76.2	0.0
2025-01-23 18:42:07.296901	206.7	21.8	-75.8	0.0
2025-01-23 18:42:09.539598	207.1	22.0	-77.5	0.0
2025-01-23 18:42:11.788863	207.4	22.3	-77.0	0.0
2025-01-23 18:42:14.036418	207.8	22.5	-77.1	0.0
2025-01-23 18:42:16.282892	208.2	22.8	-77.3	0.0
2025-01-23 18:42:18.528118	208.5	23.1	-76.1	0.0
2025-01-23 18:42:20.773393	208.9	23.3	-77.1	0.0
2025-01-23 18:42:23.018320	209.3	23.6	-76.2	0.0
2025-01-23 18:42:25.261852	209.7	23.9	-77.1	0.0
2025-01-23 18:42:27.506042	210.1	24.2	-76.6	0.0
2025-01-23 18:42:29.750241	210.5	24.4	-77.1	0.0
2025-01-23 18:42:31.995612	210.9	24.7	-77.1	0.0
2025-01-23 18:42:34.240154	211.3	25.0	-77.3	0.0
2025-01-23 18:42:36.485396	211.8	25.3	-77.5	0.0
2025-01-23 18:42:38.731611	212.2	25.5	-77.6	0.0
2025-01-23 18:42:40.980043	212.6	25.8	-77.6	0.0
2025-01-23 18:42:43.228658	213.1	26.1	-77.4	0.0
2025-01-23 18:42:45.474610	213.6	26.4	-77.8	0.0
2025-01-23 18:42:47.722277	214.0	26.7	-77.8	0.0
2025-01-23 18:42:49.971168	214.5	27.0	-77.7	0.0
2025-01-23 18:42:52.216128	215.0	27.3	-77.8	0.0
2025-01-23 18:42:54.463336	215.5	27.5	-77.6	0.0
2025-01-23 18:42:56.711041	216.0	27.8	-77.5	0.0
2025-01-23 18:42:58.955604	216.5	28.1	-77.5	0.0
2025-01-23 18:43:01.203316	217.0	28.4	-77.8	0.0
2025-01-23 18:43:03.450036	217.5	28.7	-77.7	0.0
2025-01-23 18:43:05.696177	218.1	29.0	-77.1	0.0
2025-01-23 18:43:07.941897	218.6	29.3	-76.9	0.0
2025-01-23 18:43:10.188573	219.2	29.6	-77.7	0.0
2025-01-23 18:43:12.437431	219.8	29.9	-77.7	0.0
2025-01-23 18:43:14.683712	220.3	30.2	-77.1	0.0
2025-01-23 18:43:16.930175	220.9	30.4	-77.3	0.0
2025-01-23 18:43:19.177373	221.5	30.7	-77.4	0.0
2025-01-23 18:43:21.425932	222.1	31.0	-77.6	0.0
2025-01-23 18:43:23.668993	222.8	31.3	-78.1	0.0
2025-01-23 18:43:25.914414	223.4	31.6	-77.9	0.0
2025-01-23 18:43:28.163549	224.0	31.9	-77.6	0.0
2025-01-23 18:43:30.409880	224.7	32.2	-77.9	0.0
2025-01-23 18:43:32.652173	225.4	32.5	-77.6	0.0
2025-01-23 18:43:34.899138	226.0	32.7	-76.9	0.0
2025-01-23 18:43:37.148399	226.7	33.0	-77.8	0.0
2025-01-23 18:43:39.394912	227.4	33.3	-77.7	0.0
2025-01-23 18:43:41.639262	228.1	33.6	-77.8	0.0
2025-01-23 18:43:43.886231	228.9	33.9	-77.8	0.0
2025-01-23 18:43:46.132834	229.6	34.1	-77.9	0.0
2025-01-23 18:43:48.377461	230.3	34.4	-77.6	0.0
2025-01-23 18:43:50.624779	231.1	34.7	-77.3	0.0
2025-01-23 18:43:52.873245	231.9	34.9	-78.0	0.0
2025-01-23 18:43:55.121130	232.7	35.2	-78.0	0.0
2025-01-23 18:43:57.363794	233.5	35.4	-77.5	0.0
2025-01-23 18:43:59.612672	234.3	35.7	-77.2	0.0
2025-01-23 18:44:01.856816	235.1	35.9	-77.6	0.0
2025-01-23 18:44:04.103221	235.9	36.2	-77.3	0.0
2025-01-23 18:44:06.350707	236.8	36.4	-77.5	0.0
2025-01-23 18:44:08.598550	237.6	36.6	-77.1	0.0
2025-01-23 18:44:10.846835	238.5	36.9	-77.2	0.0
2025-01-23 18:44:13.093044	239.4	37.1	-77.6	0.0
2025-01-23 18:44:15.338628	240.3	37.3	-76.6	0.0
2025-01-23 18:44:17.582837	241.2	37.5	-76.9	0.0
2025-01-23 18:44:19.830354	242.1	37.7	-77.5	0.0
2025-01-23 18:44:22.079660	243.0	37.9	-76.4	0.0
2025-01-23 18:44:24.324732	244.0	38.1	-76.4	0.0
2025-01-23 18:44:26.572369	244.9	38.3	-77.5	0.0
2025-01-23 18:44:28.815648	245.9	38.4	-77.1	0.0
2025-01-23 18:44:31.060094	246.8	38.6	-77.2	0.0
2025-01-23 18:44:33.304849	247.8	38.8	-77.2	0.0
2025-01-23 18:44:35.551149	248.8	38.9	-77.8	0.0
2025-01-23 18:44:37.795310	249.8	39.0	-77.8	0.0
2025-01-23 18:44:40.042184	250.8	39.2	-77.9	0.0
2025-01-23 18:44:42.287223	251.8	39.3	-77.2	0.0
2025-01-23 18:44:44.557539	252.8	39.4	-77.8	0.0
2025-01-23 18:44:46.805029	253.9	39.5	-77.3	0.0
2025-01-23 18:44:49.050153	254.9	39.6	-76.6	0.0
2025-01-23 18:44:51.297293	255.9	39.7	-77.6	0.0
2025-01-23 18:44:53.541650	257.0	39.7	-77.5	0.0
2025-01-23 18:44:55.788649	258.0	39.8	-76.8	0.0
2025-01-23 18:44:58.032360	259.1	39.8	-76.4	0.0
2025-01-23 18:45:00.278439	260.1	39.9	-76.3	0.0
2025-01-23 18:45:02.526078	261.2	39.9	-75.7	0.0
2025-01-23 18:45:04.773770	262.2	39.9	-75.7	0.0
2025-01-23 18:45:07.018217	263.3	39.9	-76.3	0.0
2025-01-23 18:45:09.262608	264.3	39.9	-76.0	0.0
2025-01-23 18:45:11.507881	265.4	39.9	-76.0	0.0
2025-01-23 18:45:13.754969	266.4	39.9	-76.8	0.0
2025-01-23 18:45:15.997524	267.5	39.8	-76.6	0.0
2025-01-23 18:45:18.244185	268.5	39.8	-76.6	0.0
2025-01-23 18:45:20.488052	269.6	39.7	-76.2	0.0
2025-01-23 18:45:22.735164	270.6	39.7	-76.3	0.0
2025-01-23 18:45:24.982965	271.6	39.6	-76.8	0.0
2025-01-23 18:45:27.230668	272.7	39.5	-77.1	0.0
2025-01-23 18:45:29.478594	273.7	39.4	-77.3	0.0
2025-01-23 18:45:31.726204	274.7	39.3	-76.6	0.0
2025-01-23 18:45:33.972647	275.7	39.2	-76.3	0.0
2025-01-23 18:45:36.217361	276.7	39.1	-76.6	0.0
2025-01-23 18:45:38.467549	277.7	38.9	-76.6	0.0
2025-01-23 18:45:40.714360	278.7	38.8	-77.1	0.0
2025-01-23 18:45:42.959939	279.7	38.6	-76.3	0.0
2025-01-23 18:45:45.208783	280.7	38.5	-77.2	0.0
2025-01-23 18:45:47.453393	281.6	38.3	-77.2	0.0
2025-01-23 18:45:49.703235	282.6	38.1	-76.5	0.0
2025-01-23 18:45:51.950500	283.5	37.9	-75.8	0.0
2025-01-23 18:45:54.197891	284.4	37.7	-75.9	0.0
2025-01-23 18:45:56.443588	285.3	37.5	-76.3	0.0
2025-01-23 18:45:58.692317	286.2	37.3	-76.7	0.0
2025-01-23 18:46:00.939938	287.1	37.1	-76.8	0.0
2025-01-23 18:46:03.186763	288.0	36.9	-76.5	0.0
2025-01-23 18:46:05.435453	288.9	36.7	-76.6	0.0
2025-01-23 18:46:07.680954	289.7	36.4	-75.8	0.0
2025-01-23 18:46:09.929691	290.6	36.2	-76.2	0.0
2025-01-23 18:46:12.175076	291.4	36.0	-76.2	0.0
2025-01-23 18:46:14.419787	292.2	35.7	-76.5	0.0
2025-01-23 18:46:16.665610	293.1	35.5	-76.4	0.0
2025-01-23 18:46:18.909052	293.9	35.2	-76.8	0.0
2025-01-23 18:46:21.156643	294.6	35.0	-76.5	0.0
2025-01-23 18:46:23.404901	295.4	34.7	-76.3	0.0
2025-01-23 18:46:25.652921	296.2	34.4	-75.8	0.0
2025-01-23 18:46:27.896569	296.9	34.2	-75.2	0.0
2025-01-23 18:46:30.141778	297.7	33.9	-75.7	0.0
2025-01-23 18:46:32.385927	298.4	33.6	-76.1	0.0
2025-01-23 18:46:34.632318	299.1	33.4	-76.6	0.0
2025-01-23 18:46:36.878238	299.8	33.1	-76.0	0.0
2025-01-23 18:46:39.124234	300.5	32.8	-76.4	0.0
2025-01-23 18:46:41.372991	301.2	32.5	-76.7	0.0
2025-01-23 18:46:43.618184	301.8	32.2	-76.1	0.0
2025-01-23 18:46:45.862737	302.5	32.0	-76.1	0.0
2025-01-23 18:46:48.109191	303.1	31.7	-76.0	0.0
2025-01-23 18:46:50.353592	303.7	31.4	-76.7	0.0
2025-01-23 18:46:52.598944	304.4	31.1	-76.6	0.0
2025-01-23 18:46:54.843931	305.0	30.8	-76.5	0.0
2025-01-23 18:46:57.090685	305.6	30.5	-76.7	0.0
2025-01-23 18:46:59.335701	306.2	30.2	-76.4	0.0
2025-01-23 18:47:01.584824	306.7	29.9	-76.4	0.0
2025-01-23 18:47:03.830946	307.3	29.7	-76.4	0.0
2025-01-23 18:47:06.076468	307.9	29.4	-76.8	0.0
2025-01-23 18:47:08.321831	308.4	29.1	-76.7	0.0
2025-01-23 18:47:10.568669	309.0	28.8	-75.9	0.0
2025-01-23 18:47:12.814275	309.5	28.5	-76.0	0.0
2025-01-23 18:47:15.060787	310.0	28.2	-76.8	0.0
2025-01-23 18:47:17.307394	310.5	27.9	-77.0	0.0
2025-01-23 18:47:19.553187	311.0	27.6	-76.7	0.0
2025-01-23 18:47:21.795441	311.5	27.4	-76.1	0.0
2025-01-23 18:47:24.038291	312.0	27.1	-75.2	0.0
2025-01-23 18:47:26.287469	312.5	26.8	-75.6	0.0
2025-01-23 18:47:28.534936	312.9	26.5	-75.8	0.0
2025-01-23 18:47:30.780385	313.4	26.2	-76.2	0.0
2025-01-23 18:47:33.027315	313.8	25.9	-75.7	0.0
2025-01-23 18:47:35.271462	314.3	25.7	-75.7	0.0
2025-01-23 18:47:37.516455	314.7	25.4	-76.0	0.0
2025-01-23 18:47:39.762942	315.2	25.1	-76.0	0.0
2025-01-23 18:47:42.009220	315.6	24.8	-76.2	0.0
2025-01-23 18:47:44.252819	316.0	24.6	-76.4	0.0
2025-01-23 18:47:46.501030	316.4	24.3	-76.8	0.0
2025-01-23 18:47:48.746218	316.8	24.0	-76.0	0.0
2025-01-23 18:47:50.991007	317.2	23.7	-76.7	0.0
2025-01-23 18:47:53.236423	317.6	23.5	-77.1	0.0
2025-01-23 18:47:55.483584	318.0	23.2	-76.9	0.0
2025-01-23 18:47:57.730427	318.3	22.9	-77.3	0.0
2025-01-23 18:47:59.979263	318.7	22.7	-76.4	0.0
2025-01-23 18:48:02.225882	319.1	22.4	-77.2	0.0
2025-01-23 18:48:04.470828	319.4	22.1	-76.2	0.0
2025-01-23 18:48:06.716627	319.8	21.9	-76.9	0.0
2025-01-23 18:48:08.960669	320.1	21.6	-76.9	0.0
2025-01-23 18:48:11.207152	320.5	21.4	-76.7	0.0
2025-01-23 18:48:13.453686	320.8	21.1	-77.1	0.0
2025-01-23 18:48:15.702365	321.1	20.9	-77.1	0.0
2025-01-23 18:48:17.947888	321.5	20.6	-76.9	0.0
2025-01-23 18:48:20.193010	321.8	20.4	-77.3	0.0
2025-01-23 18:48:22.441349	322.1	20.1	-77.2	0.0
2025-01-23 18:48:24.685849	322.4	19.9	-77.0	0.0
2025-01-23 18:48:26.933440	322.7	19.6	-77.2	0.0
2025-01-23 18:48:29.181298	323.0	19.4	-77.1	0.0
2025-01-23 18:48:31.425217	323.3	19.1	-77.5	0.0
2025-01-23 18:48:33.671164	323.6	18.9	-77.2	0.0
2025-01-23 18:48:35.916201	323.9	18.7	-76.8	0.0
2025-01-23 18:48:38.161387	324.2	18.4	-77.5	0.0
2025-01-23 18:48:40.407681	324.4	18.2	-77.2	0.0
2025-01-23 18:48:42.653192	324.7	18.0	-76.9	0.0
2025-01-23 18:48:44.901284	325.0	17.7	-77.2	0.0
2025-01-23 18:48:47.147999	325.2	17.5	-76.8	0.0
2025-01-23 18:48:49.392588	325.5	17.3	-77.1	0.0
2025-01-23 18:48:51.640362	325.8	17.0	-77.1	0.0
2025-01-23 18:48:53.886887	326.0	16.8	-77.2	0.0
2025-01-23 18:48:56.133749	326.3	16.6	-76.9	0.0
2025-01-23 18:48:58.380434	326.5	16.4	-77.0	0.0
2025-01-23 18:49:00.626471	326.8	16.2	-77.1	0.0
2025-01-23 18:49:02.873121	327.0	15.9	-77.5	0.0
2025-01-23 18:49:05.117951	327.2	15.7	-77.2	0.0
2025-01-23 18:49:07.366141	327.5	15.5	-77.4	0.0
2025-01-23 18:49:09.614874	327.7	15.3	-77.5	0.0
2025-01-23 18:49:11.861001	327.9	15.1	-77.3	0.0
2025-01-23 18:49:14.106320	328.1	14.9	-77.0	0.0
2025-01-23 18:49:16.352676	328.4	14.7	-77.3	0.0
2025-01-23 18:49:18.597007	328.6	14.4	-77.1	0.0
2025-01-23 18:49:20.844146	328.8	14.2	-77.3	0.0
2025-01-23 18:49:23.088918	329.0	14.0	-77.1	0.0
2025-01-23 18:49:25.332583	329.2	13.8	-77.2	0.0
2025-01-23 18:49:27.581135	329.4	13.6	-77.5	0.0
2025-01-23 18:49:29.825434	329.6	13.4	-77.6	0.0
2025-01-23 18:49:32.072699	329.8	13.2	-77.1	0.0
2025-01-23 18:49:34.322960	330.0	13.0	-77.3	0.0
2025-01-23 18:49:36.569166	330.2	12.8	-77.0	0.0
2025-01-23 18:49:38.815600	330.4	12.6	-76.3	0.0
2025-01-23 18:49:41.059309	330.6	12.4	-77.3	0.0
2025-01-23 18:49:43.306561	330.8	12.2	-77.2	0.0
2025-01-23 18:49:45.549774	331.0	12.1	-77.1	0.0
2025-01-23 18:49:47.796308	331.2	11.9	-77.0	0.0
2025-01-23 18:49:50.044541	331.4	11.7	-77.2	0.0
2025-01-23 18:49:52.290127	331.5	11.5	-77.0	0.0
2025-01-23 18:49:54.537682	331.7	11.3	-77.3	0.0
2025-01-23 18:49:56.783905	331.9	11.1	-76.8	0.0
2025-01-23 18:49:59.032238	332.1	10.9	-77.2	0.0
2025-01-23 18:50:01.278076	332.2	10.7	-77.3	0.0
2025-01-23 18:50:03.523513	332.4	10.6	-77.3	0.0
2025-01-23 18:50:05.766787	332.6	10.4	-77.2	0.0
2025-01-23 18:50:08.015505	332.7	10.2	-76.7	0.0
#Closed at: 2025-01-23 18:40:01.090279