passes_logs/2025/01/23/planumMaritime01/planumMaritime01__20250123_174141_NOAA_18_rec.log

#Pass ID: 20250123_174141_NOAA 18
#Satellite: NOAA 18
#Configuration: NOAA 18
#Start time: 2025-01-23 17:41:46.338560

#LorettStation: 1.0.0 05.05.2024
#Station: planumMaritime01
#Location: 37.49445 lon 55.92918 lat
#TLE: 1 28654U 05018A   25022.24143052  .00000458  00000+0  26647-3 0  9995
#TLE: 2 28654  98.8556 103.2235 0014680 159.1096 201.0679 14.13493787 14203

#Time	Az	El	Level	SNR
2025-01-23 17:41:48.492755	103.8	10.1	-75.1	0.0
2025-01-23 17:41:50.740459	103.6	10.3	-75.1	0.0
2025-01-23 17:41:52.986980	103.3	10.5	-75.5	0.0
2025-01-23 17:41:55.233375	103.1	10.6	-75.0	0.0
2025-01-23 17:41:57.480159	102.8	10.8	-75.2	0.0
2025-01-23 17:41:59.729535	102.6	10.9	-74.9	0.0
2025-01-23 17:42:01.975425	102.3	11.1	-75.3	0.0
2025-01-23 17:42:04.225021	102.0	11.2	-75.0	0.0
2025-01-23 17:42:06.469621	101.8	11.4	-75.3	0.0
2025-01-23 17:42:08.713523	101.5	11.6	-75.2	0.0
2025-01-23 17:42:10.957968	101.2	11.7	-75.1	0.0
2025-01-23 17:42:13.204415	101.0	11.9	-74.9	0.0
2025-01-23 17:42:15.450281	100.7	12.0	-75.1	0.0
2025-01-23 17:42:17.697079	100.4	12.2	-75.2	0.0
2025-01-23 17:42:19.945198	100.1	12.3	-75.2	0.0
2025-01-23 17:42:22.191559	99.9	12.5	-75.2	0.0
2025-01-23 17:42:24.436578	99.6	12.7	-75.4	0.0
2025-01-23 17:42:26.683848	99.3	12.8	-75.3	0.0
2025-01-23 17:42:28.930287	99.0	13.0	-75.1	0.0
2025-01-23 17:42:31.179017	98.7	13.1	-75.4	0.0
2025-01-23 17:42:33.426241	98.4	13.3	-75.5	0.0
2025-01-23 17:42:35.672277	98.1	13.5	-75.5	0.0
2025-01-23 17:42:37.916889	97.8	13.6	-76.1	0.0
2025-01-23 17:42:40.162370	97.5	13.8	-75.5	0.0
2025-01-23 17:42:42.410776	97.2	14.0	-75.7	0.0
2025-01-23 17:42:44.657209	96.8	14.1	-75.7	0.0
2025-01-23 17:42:46.904113	96.5	14.3	-75.2	0.0
2025-01-23 17:42:49.150132	96.2	14.4	-75.7	0.0
2025-01-23 17:42:51.395610	95.9	14.6	-75.9	0.0
2025-01-23 17:42:53.643713	95.5	14.8	-76.4	0.0
2025-01-23 17:42:55.888765	95.2	14.9	-75.8	0.0
2025-01-23 17:42:58.132355	94.9	15.1	-75.3	0.0
2025-01-23 17:43:00.378608	94.5	15.3	-75.8	0.0
2025-01-23 17:43:02.627024	94.2	15.4	-75.1	0.0
2025-01-23 17:43:04.870810	93.8	15.6	-75.8	0.0
2025-01-23 17:43:07.115100	93.5	15.7	-75.7	0.0
2025-01-23 17:43:09.361099	93.1	15.9	-76.2	0.0
2025-01-23 17:43:11.608727	92.8	16.1	-76.1	0.0
2025-01-23 17:43:13.858460	92.4	16.2	-75.9	0.0
2025-01-23 17:43:16.104971	92.0	16.4	-75.8	0.0
2025-01-23 17:43:18.353447	91.7	16.6	-75.5	0.0
2025-01-23 17:43:20.601479	91.3	16.7	-75.9	0.0
2025-01-23 17:43:22.849603	90.9	16.9	-75.5	0.0
2025-01-23 17:43:25.098816	90.5	17.1	-75.9	0.0
2025-01-23 17:43:27.344231	90.1	17.2	-76.2	0.0
2025-01-23 17:43:29.588965	89.7	17.4	-76.1	0.0
2025-01-23 17:43:31.833828	89.3	17.5	-75.8	0.0
2025-01-23 17:43:34.082240	88.9	17.7	-75.8	0.0
2025-01-23 17:43:36.327904	88.5	17.9	-75.9	0.0
2025-01-23 17:43:38.572730	88.1	18.0	-75.9	0.0
2025-01-23 17:43:40.821173	87.7	18.2	-75.9	0.0
2025-01-23 17:43:43.064628	87.3	18.3	-75.8	0.0
2025-01-23 17:43:45.309880	86.8	18.5	-75.9	0.0
2025-01-23 17:43:47.557252	86.4	18.6	-76.0	0.0
2025-01-23 17:43:49.804282	86.0	18.8	-75.9	0.0
2025-01-23 17:43:52.050614	85.5	19.0	-75.8	0.0
2025-01-23 17:43:54.298900	85.1	19.1	-75.6	0.0
2025-01-23 17:43:56.544603	84.7	19.3	-76.1	0.0
2025-01-23 17:43:58.793288	84.2	19.4	-75.9	0.0
2025-01-23 17:44:01.037037	83.7	19.6	-75.9	0.0
2025-01-23 17:44:03.281862	83.3	19.7	-75.9	0.0
2025-01-23 17:44:05.528904	82.8	19.9	-76.3	0.0
2025-01-23 17:44:07.774643	82.4	20.0	-75.8	0.0
2025-01-23 17:44:10.017325	81.9	20.2	-76.3	0.0
2025-01-23 17:44:12.262040	81.4	20.3	-76.0	0.0
2025-01-23 17:44:14.509733	80.9	20.5	-76.1	0.0
2025-01-23 17:44:16.759589	80.4	20.6	-76.1	0.0
2025-01-23 17:44:19.003487	79.9	20.8	-75.8	0.0
2025-01-23 17:44:21.249320	79.4	20.9	-76.1	0.0
2025-01-23 17:44:23.496420	78.9	21.0	-76.1	0.0
2025-01-23 17:44:25.743532	78.4	21.2	-76.0	0.0
2025-01-23 17:44:27.991280	77.9	21.3	-75.7	0.0
2025-01-23 17:44:30.236967	77.4	21.4	-75.6	0.0
2025-01-23 17:44:32.483722	76.9	21.6	-76.0	0.0
2025-01-23 17:44:34.728986	76.4	21.7	-76.2	0.0
2025-01-23 17:44:36.975763	75.8	21.8	-75.8	0.0
2025-01-23 17:44:39.221442	75.3	22.0	-75.6	0.0
2025-01-23 17:44:41.467954	74.8	22.1	-76.3	0.0
2025-01-23 17:44:43.701176	74.2	22.2	-75.8	0.0
2025-01-23 17:44:45.943481	73.7	22.3	-76.0	0.0
2025-01-23 17:44:48.188097	73.1	22.4	-75.9	0.0
2025-01-23 17:44:50.434713	72.6	22.6	-76.1	0.0
2025-01-23 17:44:52.678582	72.0	22.7	-76.2	0.0
2025-01-23 17:44:54.922381	71.5	22.8	-76.0	0.0
2025-01-23 17:44:57.170595	70.9	22.9	-76.3	0.0
2025-01-23 17:44:59.415875	70.3	23.0	-75.8	0.0
2025-01-23 17:45:01.663327	69.7	23.1	-75.9	0.0
2025-01-23 17:45:03.907998	69.2	23.2	-76.0	0.0
2025-01-23 17:45:06.153040	68.6	23.3	-75.8	0.0
2025-01-23 17:45:08.396789	68.0	23.4	-75.9	0.0
2025-01-23 17:45:10.641681	67.4	23.5	-75.3	0.0
2025-01-23 17:45:12.888955	66.8	23.6	-75.1	0.0
2025-01-23 17:45:15.135257	66.2	23.7	-75.7	0.0
2025-01-23 17:45:17.383254	65.6	23.8	-76.1	0.0
2025-01-23 17:45:19.631034	65.0	23.8	-76.3	0.0
2025-01-23 17:45:21.877252	64.4	23.9	-75.7	0.0
2025-01-23 17:45:24.122951	63.8	24.0	-76.0	0.0
2025-01-23 17:45:26.368150	63.2	24.1	-75.6	0.0
2025-01-23 17:45:28.613989	62.6	24.1	-75.7	0.0
2025-01-23 17:45:30.859096	62.0	24.2	-76.0	0.0
2025-01-23 17:45:33.103631	61.4	24.2	-76.4	0.0
2025-01-23 17:45:35.348479	60.7	24.3	-76.5	0.0
2025-01-23 17:45:37.595248	60.1	24.4	-75.9	0.0
2025-01-23 17:45:39.840485	59.5	24.4	-75.7	0.0
2025-01-23 17:45:42.088428	58.9	24.4	-76.2	0.0
2025-01-23 17:45:44.333624	58.2	24.5	-76.2	0.0
2025-01-23 17:45:46.576587	57.6	24.5	-76.3	0.0
2025-01-23 17:45:48.821350	57.0	24.6	-76.1	0.0
2025-01-23 17:45:51.068307	56.3	24.6	-76.0	0.0
2025-01-23 17:45:53.315646	55.7	24.6	-75.6	0.0
2025-01-23 17:45:55.562401	55.1	24.6	-76.1	0.0
2025-01-23 17:45:57.808700	54.4	24.7	-76.0	0.0
2025-01-23 17:46:00.054029	53.8	24.7	-76.1	0.0
2025-01-23 17:46:02.298664	53.2	24.7	-76.4	0.0
2025-01-23 17:46:04.541451	52.5	24.7	-76.0	0.0
2025-01-23 17:46:06.785276	51.9	24.7	-76.2	0.0
2025-01-23 17:46:09.029420	51.3	24.7	-76.2	0.0
2025-01-23 17:46:11.276450	50.6	24.7	-76.5	0.0
2025-01-23 17:46:13.521175	50.0	24.7	-76.4	0.0
2025-01-23 17:46:15.765110	49.3	24.7	-76.2	0.0
2025-01-23 17:46:18.011134	48.7	24.7	-76.1	0.0
2025-01-23 17:46:20.257144	48.1	24.6	-75.6	0.0
2025-01-23 17:46:22.503319	47.4	24.6	-76.4	0.0
2025-01-23 17:46:24.747070	46.8	24.6	-75.8	0.0
2025-01-23 17:46:26.994923	46.2	24.6	-76.1	0.0
2025-01-23 17:46:29.242667	45.5	24.5	-76.1	0.0
2025-01-23 17:46:31.487853	44.9	24.5	-76.3	0.0
2025-01-23 17:46:33.732815	44.3	24.4	-76.0	0.0
2025-01-23 17:46:35.982092	43.7	24.4	-76.1	0.0
2025-01-23 17:46:38.228142	43.0	24.3	-76.2	0.0
2025-01-23 17:46:40.477612	42.4	24.3	-76.1	0.0
2025-01-23 17:46:42.725694	41.8	24.2	-76.0	0.0
2025-01-23 17:46:44.974256	41.2	24.2	-75.8	0.0
2025-01-23 17:46:47.222161	40.6	24.1	-76.2	0.0
2025-01-23 17:46:49.468008	39.9	24.0	-76.5	0.0
2025-01-23 17:46:51.714211	39.3	24.0	-75.9	0.0
2025-01-23 17:46:53.959583	38.7	23.9	-75.9	0.0
2025-01-23 17:46:56.206829	38.1	23.8	-76.1	0.0
2025-01-23 17:46:58.450160	37.5	23.7	-75.4	0.0
2025-01-23 17:47:00.693501	36.9	23.7	-76.0	0.0
2025-01-23 17:47:02.937993	36.3	23.6	-76.6	0.0
2025-01-23 17:47:05.184908	35.7	23.5	-76.3	0.0
2025-01-23 17:47:07.432834	35.1	23.4	-76.0	0.0
2025-01-23 17:47:09.678641	34.6	23.3	-75.6	0.0
2025-01-23 17:47:11.925441	34.0	23.2	-76.1	0.0
2025-01-23 17:47:14.175534	33.4	23.1	-75.4	0.0
2025-01-23 17:47:16.420270	32.8	23.0	-76.0	0.0
2025-01-23 17:47:18.666567	32.3	22.9	-75.6	0.0
2025-01-23 17:47:20.910463	31.7	22.8	-76.0	0.0
2025-01-23 17:47:23.157191	31.1	22.7	-76.0	0.0
2025-01-23 17:47:25.403607	30.6	22.6	-75.4	0.0
2025-01-23 17:47:27.648867	30.0	22.4	-75.7	0.0
2025-01-23 17:47:29.895104	29.5	22.3	-76.1	0.0
2025-01-23 17:47:32.141893	28.9	22.2	-75.9	0.0
2025-01-23 17:47:34.389015	28.4	22.1	-75.9	0.0
2025-01-23 17:47:36.633283	27.8	22.0	-76.0	0.0
2025-01-23 17:47:38.877361	27.3	21.8	-76.2	0.0
2025-01-23 17:47:41.124333	26.8	21.7	-76.0	0.0
2025-01-23 17:47:43.372955	26.3	21.6	-76.1	0.0
2025-01-23 17:47:45.621532	25.7	21.4	-76.1	0.0
2025-01-23 17:47:47.871016	25.2	21.3	-75.7	0.0
2025-01-23 17:47:50.117296	24.7	21.2	-75.7	0.0
2025-01-23 17:47:52.366649	24.2	21.0	-75.8	0.0
2025-01-23 17:47:54.612612	23.7	20.9	-75.6	0.0
2025-01-23 17:47:56.860363	23.2	20.7	-76.1	0.0
2025-01-23 17:47:59.107982	22.7	20.6	-75.8	0.0
2025-01-23 17:48:01.352595	22.2	20.5	-76.1	0.0
2025-01-23 17:48:03.597843	21.7	20.3	-76.3	0.0
2025-01-23 17:48:05.844268	21.3	20.2	-75.8	0.0
2025-01-23 17:48:08.090594	20.8	20.0	-76.0	0.0
2025-01-23 17:48:10.333707	20.3	19.9	-75.8	0.0
2025-01-23 17:48:12.581902	19.9	19.7	-76.0	0.0
2025-01-23 17:48:14.826414	19.4	19.6	-76.0	0.0
2025-01-23 17:48:17.072781	18.9	19.4	-75.3	0.0
2025-01-23 17:48:19.318011	18.5	19.3	-75.7	0.0
2025-01-23 17:48:21.562203	18.1	19.1	-76.0	0.0
2025-01-23 17:48:23.810217	17.6	18.9	-75.7	0.0
2025-01-23 17:48:26.056273	17.2	18.8	-75.9	0.0
2025-01-23 17:48:28.301562	16.7	18.6	-75.8	0.0
2025-01-23 17:48:30.550174	16.3	18.5	-75.9	0.0
2025-01-23 17:48:32.796577	15.9	18.3	-76.3	0.0
2025-01-23 17:48:35.048195	15.5	18.2	-76.0	0.0
2025-01-23 17:48:37.295791	15.1	18.0	-76.5	0.0
2025-01-23 17:48:39.539775	14.6	17.8	-76.1	0.0
2025-01-23 17:48:41.789512	14.2	17.7	-76.4	0.0
2025-01-23 17:48:44.033975	13.8	17.5	-76.2	0.0
2025-01-23 17:48:46.279176	13.4	17.4	-76.3	0.0
2025-01-23 17:48:48.528381	13.0	17.2	-75.7	0.0
2025-01-23 17:48:50.776089	12.7	17.0	-76.2	0.0
2025-01-23 17:48:53.023243	12.3	16.9	-76.4	0.0
2025-01-23 17:48:55.267642	11.9	16.7	-76.4	0.0
2025-01-23 17:48:57.516183	11.5	16.5	-76.5	0.0
2025-01-23 17:48:59.760829	11.1	16.4	-75.7	0.0
2025-01-23 17:49:02.007594	10.8	16.2	-76.1	0.0
2025-01-23 17:49:04.257553	10.4	16.1	-76.4	0.0
2025-01-23 17:49:06.503796	10.0	15.9	-75.7	0.0
2025-01-23 17:49:08.749781	9.7	15.7	-76.5	0.0
2025-01-23 17:49:10.995915	9.3	15.6	-76.2	0.0
2025-01-23 17:49:13.241875	9.0	15.4	-76.3	0.0
2025-01-23 17:49:15.488631	8.6	15.2	-75.8	0.0
2025-01-23 17:49:17.734973	8.3	15.1	-76.1	0.0
2025-01-23 17:49:19.978926	8.0	14.9	-76.2	0.0
2025-01-23 17:49:22.226863	7.6	14.7	-76.6	0.0
2025-01-23 17:49:24.477105	7.3	14.6	-76.2	0.0
2025-01-23 17:49:26.723204	7.0	14.4	-76.3	0.0
2025-01-23 17:49:28.970257	6.7	14.3	-76.1	0.0
2025-01-23 17:49:31.217040	6.3	14.1	-76.2	0.0
2025-01-23 17:49:33.463466	6.0	13.9	-76.1	0.0
2025-01-23 17:49:35.709660	5.7	13.8	-75.9	0.0
2025-01-23 17:49:37.953119	5.4	13.6	-76.0	0.0
2025-01-23 17:49:40.198519	5.1	13.4	-75.4	0.0
2025-01-23 17:49:42.444492	4.8	13.3	-76.2	0.0
2025-01-23 17:49:44.690890	4.5	13.1	-76.5	0.0
2025-01-23 17:49:46.940377	4.2	13.0	-76.3	0.0
2025-01-23 17:49:49.184169	3.9	12.8	-76.2	0.0
2025-01-23 17:49:51.428140	3.6	12.6	-76.3	0.0
2025-01-23 17:49:53.677873	3.3	12.5	-76.3	0.0
2025-01-23 17:49:55.924961	3.1	12.3	-76.3	0.0
2025-01-23 17:49:58.171563	2.8	12.2	-76.0	0.0
2025-01-23 17:50:00.417300	2.5	12.0	-76.5	0.0
2025-01-23 17:50:02.664377	2.2	11.8	-75.9	0.0
2025-01-23 17:50:04.907721	2.0	11.7	-76.2	0.0
2025-01-23 17:50:07.150930	1.7	11.5	-76.4	0.0
2025-01-23 17:50:09.395089	1.4	11.4	-76.3	0.0
2025-01-23 17:50:11.642509	1.2	11.2	-75.6	0.0
2025-01-23 17:50:13.884425	0.9	11.1	-76.5	0.0
2025-01-23 17:50:16.132062	0.6	10.9	-76.6	0.0
2025-01-23 17:50:18.379789	0.4	10.7	-76.0	0.0
2025-01-23 17:50:20.624546	0.1	10.6	-76.1	0.0
2025-01-23 17:50:22.872232	359.9	10.4	-76.2	0.0
2025-01-23 17:50:25.115104	359.6	10.3	-76.3	0.0
2025-01-23 17:50:27.359922	359.4	10.1	-76.5	0.0
#Closed at: 2025-01-23 17:41:41.342132