passes_logs/2025/01/23/planumMaritime01/planumMaritime01__20250123_062537_METOP-C_rec.log

#Pass ID: 20250123_062537_METOP-C
#Satellite: METOP-C
#Configuration: METOP-C
#Start time: 2025-01-23 06:25:42.549588

#LorettStation: 1.0.0 05.05.2024
#Station: planumMaritime01
#Location: 37.49445 lon 55.92918 lat
#TLE: 1 43689U 18087A   25022.19067051  .00000353  00000+0  18145-3 0  9996
#TLE: 2 43689  98.6954  84.5753 0001740 150.9742 209.1532 14.21486407322236

#Time	Az	El	Level	SNR
2025-01-23 06:25:44.713905	35.5	10.1	-67.0	0.0
2025-01-23 06:25:46.967011	35.7	10.3	-67.3	0.0
2025-01-23 06:25:49.219685	36.0	10.5	-68.4	0.0
2025-01-23 06:25:51.472719	36.2	10.6	-67.4	0.0
2025-01-23 06:25:53.725550	36.5	10.8	-66.9	0.0
2025-01-23 06:25:55.979626	36.8	10.9	-66.6	0.0
2025-01-23 06:25:58.236235	37.0	11.1	-68.1	0.0
2025-01-23 06:26:00.489209	37.3	11.2	-68.9	0.0
2025-01-23 06:26:02.742152	37.6	11.4	-64.1	0.0
2025-01-23 06:26:04.997762	37.8	11.6	-68.5	0.0
2025-01-23 06:26:07.252436	38.1	11.7	-67.5	0.0
2025-01-23 06:26:09.505406	38.4	11.9	-67.6	0.0
2025-01-23 06:26:11.760186	38.7	12.0	-66.8	0.0
2025-01-23 06:26:14.014111	39.0	12.2	-68.5	0.0
2025-01-23 06:26:16.269848	39.3	12.4	-67.7	0.0
2025-01-23 06:26:18.526670	39.6	12.5	-69.0	0.0
2025-01-23 06:26:20.777540	39.9	12.7	-66.2	0.0
2025-01-23 06:26:23.029938	40.2	12.8	-66.7	0.0
2025-01-23 06:26:25.284976	40.5	13.0	-67.3	0.0
2025-01-23 06:26:27.539012	40.8	13.2	-68.3	0.0
2025-01-23 06:26:29.794736	41.1	13.3	-65.9	0.0
2025-01-23 06:26:32.046955	41.4	13.5	-65.9	0.0
2025-01-23 06:26:34.302236	41.7	13.7	-63.3	0.0
2025-01-23 06:26:36.554333	42.0	13.8	-64.5	0.0
2025-01-23 06:26:38.805162	42.3	14.0	-67.0	0.0
2025-01-23 06:26:41.058649	42.7	14.2	-67.0	0.0
2025-01-23 06:26:43.312949	43.0	14.3	-65.2	0.0
2025-01-23 06:26:45.570615	43.3	14.5	-65.6	0.0
2025-01-23 06:26:47.826384	43.7	14.7	-66.2	0.0
2025-01-23 06:26:50.077373	44.0	14.8	-67.2	0.0
2025-01-23 06:26:52.334155	44.4	15.0	-64.5	0.0
2025-01-23 06:26:54.587981	44.7	15.1	-67.1	0.0
2025-01-23 06:26:56.839562	45.1	15.3	-66.1	0.0
2025-01-23 06:26:59.090597	45.4	15.5	-65.6	0.0
2025-01-23 06:27:01.344087	45.8	15.6	-66.0	0.0
2025-01-23 06:27:03.597054	46.1	15.8	-65.2	0.0
2025-01-23 06:27:05.852064	46.5	16.0	-67.3	0.0
2025-01-23 06:27:08.105719	46.9	16.2	-67.4	0.0
2025-01-23 06:27:10.361664	47.3	16.3	-68.0	0.0
2025-01-23 06:27:12.619146	47.6	16.5	-68.0	0.0
2025-01-23 06:27:14.873388	48.0	16.7	-69.1	0.0
2025-01-23 06:27:17.127116	48.4	16.8	-67.5	0.0
2025-01-23 06:27:19.383797	48.8	17.0	-65.4	0.0
2025-01-23 06:27:21.638889	49.2	17.2	-68.4	0.0
2025-01-23 06:27:23.895382	49.6	17.3	-68.2	0.0
2025-01-23 06:27:26.148876	50.0	17.5	-66.9	0.0
2025-01-23 06:27:28.407646	50.4	17.7	-68.3	0.0
2025-01-23 06:27:30.661541	50.8	17.8	-67.9	0.0
2025-01-23 06:27:32.916218	51.3	18.0	-68.0	0.0
2025-01-23 06:27:35.168149	51.7	18.1	-68.7	0.0
2025-01-23 06:27:37.421884	52.1	18.3	-68.7	0.0
2025-01-23 06:27:39.676419	52.5	18.5	-69.5	0.0
2025-01-23 06:27:41.931243	53.0	18.6	-68.7	0.0
2025-01-23 06:27:44.184252	53.4	18.8	-69.8	0.0
2025-01-23 06:27:46.438220	53.9	19.0	-69.2	0.0
2025-01-23 06:27:48.693323	54.3	19.1	-61.9	0.0
2025-01-23 06:27:50.944422	54.8	19.3	-66.0	0.0
2025-01-23 06:27:53.196476	55.2	19.5	-68.8	0.0
2025-01-23 06:27:55.451215	55.7	19.6	-66.1	0.0
2025-01-23 06:27:57.705621	56.2	19.8	-65.9	0.0
2025-01-23 06:27:59.959986	56.6	19.9	-64.2	0.0
2025-01-23 06:28:02.212413	57.1	20.1	-65.8	0.0
2025-01-23 06:28:04.467127	57.6	20.2	-65.7	0.0
2025-01-23 06:28:06.720021	58.1	20.4	-67.9	0.0
2025-01-23 06:28:08.973115	58.6	20.6	-66.1	0.0
2025-01-23 06:28:11.228045	59.1	20.7	-67.2	0.0
2025-01-23 06:28:13.480591	59.6	20.9	-67.4	0.0
2025-01-23 06:28:15.733880	60.1	21.0	-68.9	0.0
2025-01-23 06:28:17.986675	60.6	21.2	-67.9	0.0
2025-01-23 06:28:20.240139	61.1	21.3	-64.9	0.0
2025-01-23 06:28:22.495068	61.7	21.5	-65.6	0.0
2025-01-23 06:28:24.749587	62.2	21.6	-62.7	0.0
2025-01-23 06:28:27.002798	62.7	21.7	-62.5	0.0
2025-01-23 06:28:29.256688	63.3	21.9	-67.3	0.0
2025-01-23 06:28:31.509439	63.8	22.0	-67.5	0.0
2025-01-23 06:28:33.763709	64.4	22.2	-66.4	0.0
2025-01-23 06:28:36.014758	64.9	22.3	-67.1	0.0
2025-01-23 06:28:38.271934	65.5	22.4	-65.4	0.0
2025-01-23 06:28:40.525752	66.0	22.6	-65.6	0.0
2025-01-23 06:28:42.780716	66.6	22.7	-69.3	0.0
2025-01-23 06:28:45.034016	67.2	22.8	-68.1	0.0
2025-01-23 06:28:47.290678	67.8	22.9	-63.8	0.0
2025-01-23 06:28:49.546115	68.3	23.1	-71.8	0.0
2025-01-23 06:28:51.799396	68.9	23.2	-71.0	0.0
2025-01-23 06:28:54.055293	69.5	23.3	-70.0	0.0
2025-01-23 06:28:56.307652	70.1	23.4	-70.6	0.0
2025-01-23 06:28:58.563709	70.7	23.5	-71.0	0.0
2025-01-23 06:29:00.816512	71.3	23.6	-67.8	0.0
2025-01-23 06:29:03.070067	71.9	23.7	-73.5	0.0
2025-01-23 06:29:05.323980	72.5	23.9	-72.9	0.0
2025-01-23 06:29:07.577432	73.1	24.0	-72.7	0.0
2025-01-23 06:29:09.833540	73.8	24.1	-72.0	0.0
2025-01-23 06:29:12.087576	74.4	24.1	-72.9	0.0
2025-01-23 06:29:14.343748	75.0	24.2	-72.9	0.0
2025-01-23 06:29:16.596547	75.6	24.3	-74.7	0.0
2025-01-23 06:29:18.850141	76.3	24.4	-74.9	0.0
2025-01-23 06:29:21.105184	76.9	24.5	-73.5	0.0
2025-01-23 06:29:23.361898	77.6	24.6	-74.1	0.0
2025-01-23 06:29:25.614236	78.2	24.6	-74.9	0.0
2025-01-23 06:29:27.867607	78.8	24.7	-74.8	0.0
2025-01-23 06:29:30.122764	79.5	24.8	-74.0	0.0
2025-01-23 06:29:32.377364	80.1	24.9	-75.1	0.0
2025-01-23 06:29:34.630333	80.8	24.9	-72.5	0.0
2025-01-23 06:29:36.883367	81.5	25.0	-74.3	0.0
2025-01-23 06:29:39.138638	82.1	25.0	-73.2	0.0
2025-01-23 06:29:41.391480	82.8	25.1	-73.8	0.0
2025-01-23 06:29:43.646617	83.4	25.1	-70.9	0.0
2025-01-23 06:29:45.902217	84.1	25.2	-73.9	0.0
2025-01-23 06:29:48.156003	84.8	25.2	-72.2	0.0
2025-01-23 06:29:50.408665	85.4	25.2	-72.2	0.0
2025-01-23 06:29:52.663850	86.1	25.3	-72.1	0.0
2025-01-23 06:29:54.919475	86.8	25.3	-67.0	0.0
2025-01-23 06:29:57.172331	87.5	25.3	-71.3	0.0
2025-01-23 06:29:59.424267	88.1	25.3	-70.5	0.0
2025-01-23 06:30:01.678579	88.8	25.3	-71.8	0.0
2025-01-23 06:30:03.933597	89.5	25.4	-72.3	0.0
2025-01-23 06:30:06.188552	90.2	25.4	-70.3	0.0
2025-01-23 06:30:08.441997	90.8	25.4	-73.1	0.0
2025-01-23 06:30:10.693828	91.5	25.4	-73.1	0.0
2025-01-23 06:30:12.948957	92.2	25.3	-74.0	0.0
2025-01-23 06:30:15.202813	92.9	25.3	-72.9	0.0
2025-01-23 06:30:17.454609	93.5	25.3	-73.3	0.0
2025-01-23 06:30:19.707228	94.2	25.3	-72.6	0.0
2025-01-23 06:30:21.960932	94.9	25.3	-74.1	0.0
2025-01-23 06:30:24.216051	95.5	25.2	-74.1	0.0
2025-01-23 06:30:26.469678	96.2	25.2	-74.4	0.0
2025-01-23 06:30:28.726138	96.9	25.2	-74.0	0.0
2025-01-23 06:30:30.981514	97.5	25.1	-74.9	0.0
2025-01-23 06:30:33.234600	98.2	25.1	-75.2	0.0
2025-01-23 06:30:35.485327	98.9	25.0	-75.1	0.0
2025-01-23 06:30:37.740761	99.5	25.0	-75.3	0.0
2025-01-23 06:30:39.992679	100.2	24.9	-72.8	0.0
2025-01-23 06:30:42.249669	100.9	24.9	-71.8	0.0
2025-01-23 06:30:44.502763	101.5	24.8	-74.3	0.0
2025-01-23 06:30:46.761195	102.2	24.8	-75.9	0.0
2025-01-23 06:30:49.016352	102.8	24.7	-74.7	0.0
2025-01-23 06:30:51.268823	103.5	24.6	-74.7	0.0
2025-01-23 06:30:53.519173	104.1	24.5	-76.4	0.0
2025-01-23 06:30:55.774277	104.7	24.5	-77.4	0.0
2025-01-23 06:30:58.027693	105.4	24.4	-75.1	0.0
2025-01-23 06:31:00.280450	106.0	24.3	-74.8	0.0
2025-01-23 06:31:02.534276	106.6	24.2	-75.2	0.0
2025-01-23 06:31:04.790961	107.3	24.1	-73.1	0.0
2025-01-23 06:31:07.043748	107.9	24.0	-73.7	0.0
2025-01-23 06:31:09.296439	108.5	23.9	-75.5	0.0
2025-01-23 06:31:11.547951	109.1	23.8	-73.3	0.0
2025-01-23 06:31:13.799084	109.7	23.7	-75.6	0.0
2025-01-23 06:31:16.050212	110.3	23.6	-75.2	0.0
2025-01-23 06:31:18.299275	110.9	23.5	-75.3	0.0
2025-01-23 06:31:20.551192	111.5	23.4	-73.9	0.0
2025-01-23 06:31:22.806122	112.1	23.2	-75.0	0.0
2025-01-23 06:31:25.056852	112.7	23.1	-75.1	0.0
2025-01-23 06:31:27.311299	113.3	23.0	-74.3	0.0
2025-01-23 06:31:29.566343	113.9	22.9	-74.4	0.0
2025-01-23 06:31:31.821218	114.5	22.7	-75.2	0.0
2025-01-23 06:31:34.073639	115.0	22.6	-74.4	0.0
2025-01-23 06:31:36.326654	115.6	22.5	-76.0	0.0
2025-01-23 06:31:38.581549	116.2	22.3	-76.9	0.0
2025-01-23 06:31:40.838715	116.7	22.2	-76.1	0.0
2025-01-23 06:31:43.091507	117.3	22.1	-76.4	0.0
2025-01-23 06:31:45.345680	117.8	21.9	-73.5	0.0
2025-01-23 06:31:47.598914	118.4	21.8	-74.0	0.0
2025-01-23 06:31:49.854055	118.9	21.6	-76.3	0.0
2025-01-23 06:31:52.105753	119.4	21.5	-76.3	0.0
2025-01-23 06:31:54.360542	120.0	21.4	-75.3	0.0
2025-01-23 06:31:56.613451	120.5	21.2	-74.7	0.0
2025-01-23 06:31:58.867175	121.0	21.1	-76.8	0.0
2025-01-23 06:32:01.119754	121.5	20.9	-75.3	0.0
2025-01-23 06:32:03.371968	122.0	20.8	-76.2	0.0
2025-01-23 06:32:05.625657	122.5	20.6	-75.8	0.0
2025-01-23 06:32:07.878120	123.0	20.4	-77.6	0.0
2025-01-23 06:32:10.131097	123.5	20.3	-77.1	0.0
2025-01-23 06:32:12.384074	124.0	20.1	-78.2	0.0
2025-01-23 06:32:14.638792	124.5	20.0	-78.3	0.0
2025-01-23 06:32:16.892913	125.0	19.8	-77.3	0.0
2025-01-23 06:32:19.148581	125.5	19.7	-78.3	0.0
2025-01-23 06:32:21.402501	125.9	19.5	-77.4	0.0
2025-01-23 06:32:23.654755	126.4	19.3	-78.1	0.0
2025-01-23 06:32:25.907666	126.9	19.2	-75.3	0.0
2025-01-23 06:32:28.160777	127.3	19.0	-77.3	0.0
2025-01-23 06:32:30.414232	127.8	18.8	-77.7	0.0
2025-01-23 06:32:32.668290	128.2	18.7	-76.6	0.0
2025-01-23 06:32:34.921294	128.7	18.5	-76.8	0.0
2025-01-23 06:32:37.174113	129.1	18.3	-77.3	0.0
2025-01-23 06:32:39.426760	129.5	18.2	-77.6	0.0
2025-01-23 06:32:41.678503	130.0	18.0	-77.7	0.0
2025-01-23 06:32:43.932573	130.4	17.8	-77.9	0.0
2025-01-23 06:32:46.187082	130.8	17.7	-76.6	0.0
2025-01-23 06:32:48.441060	131.2	17.5	-77.9	0.0
2025-01-23 06:32:50.693730	131.6	17.3	-76.8	0.0
2025-01-23 06:32:52.945724	132.0	17.2	-76.6	0.0
2025-01-23 06:32:55.196517	132.4	17.0	-77.2	0.0
2025-01-23 06:32:57.450346	132.8	16.8	-76.7	0.0
2025-01-23 06:32:59.704134	133.2	16.7	-77.0	0.0
2025-01-23 06:33:01.954626	133.6	16.5	-77.7	0.0
2025-01-23 06:33:04.209078	134.0	16.3	-77.3	0.0
2025-01-23 06:33:06.462900	134.4	16.2	-75.9	0.0
2025-01-23 06:33:08.715988	134.7	16.0	-77.4	0.0
2025-01-23 06:33:10.971105	135.1	15.8	-77.4	0.0
2025-01-23 06:33:13.223873	135.5	15.7	-76.9	0.0
2025-01-23 06:33:15.477599	135.8	15.5	-76.5	0.0
2025-01-23 06:33:17.731274	136.2	15.3	-77.4	0.0
2025-01-23 06:33:19.984839	136.6	15.2	-75.9	0.0
2025-01-23 06:33:22.236221	136.9	15.0	-76.9	0.0
2025-01-23 06:33:24.490932	137.3	14.8	-77.7	0.0
2025-01-23 06:33:26.745861	137.6	14.7	-76.9	0.0
2025-01-23 06:33:28.998819	137.9	14.5	-78.1	0.0
2025-01-23 06:33:31.252943	138.3	14.3	-78.9	0.0
2025-01-23 06:33:33.506323	138.6	14.1	-77.8	0.0
2025-01-23 06:33:35.760546	138.9	14.0	-78.3	0.0
2025-01-23 06:33:38.012727	139.3	13.8	-78.4	0.0
2025-01-23 06:33:40.266715	139.6	13.6	-77.7	0.0
2025-01-23 06:33:42.520816	139.9	13.5	-77.7	0.0
2025-01-23 06:33:44.773866	140.2	13.3	-77.8	0.0
2025-01-23 06:33:47.027696	140.5	13.2	-78.1	0.0
2025-01-23 06:33:49.282842	140.8	13.0	-78.0	0.0
2025-01-23 06:33:51.534479	141.1	12.8	-76.8	0.0
2025-01-23 06:33:53.789369	141.4	12.7	-78.1	0.0
2025-01-23 06:33:56.041183	141.7	12.5	-78.3	0.0
2025-01-23 06:33:58.295158	142.0	12.3	-77.8	0.0
2025-01-23 06:34:00.548208	142.3	12.2	-77.0	0.0
2025-01-23 06:34:02.801867	142.6	12.0	-78.1	0.0
2025-01-23 06:34:05.057102	142.9	11.8	-77.6	0.0
2025-01-23 06:34:07.311777	143.2	11.7	-77.1	0.0
2025-01-23 06:34:09.563340	143.5	11.5	-78.0	0.0
2025-01-23 06:34:11.814741	143.7	11.4	-78.0	0.0
2025-01-23 06:34:14.069136	144.0	11.2	-76.6	0.0
2025-01-23 06:34:16.324693	144.3	11.0	-77.4	0.0
2025-01-23 06:34:18.576561	144.6	10.9	-77.8	0.0
2025-01-23 06:34:20.828289	144.8	10.7	-72.0	0.0
2025-01-23 06:34:23.081325	145.1	10.6	-75.7	0.0
2025-01-23 06:34:25.336950	145.3	10.4	-79.2	0.0
2025-01-23 06:34:27.590127	145.6	10.3	-80.4	0.0
2025-01-23 06:34:29.841849	145.9	10.1	-81.2	0.0
#Closed at: 2025-01-23 06:25:37.554180