passes_logs/2025/01/23/planumMaritime01/planumMaritime01__20250123_004106_METEOR-M2_2_rec.log

#Pass ID: 20250123_004106_METEOR-M2 2
#Satellite: METEOR-M2 2
#Configuration: METEOR-M2 2
#Start time: 2025-01-23 00:41:11.729163

#LorettStation: 1.0.0 05.05.2024
#Station: planumMaritime01
#Location: 37.49445 lon 55.92918 lat
#TLE: 1 44387U 19038A   25022.23438579  .00000369  00000+0  17987-3 0  9991
#TLE: 2 44387  98.8577 358.6866 0002200  67.7579 292.3833 14.24122470288565

#Time	Az	El	Level	SNR
2025-01-23 00:41:13.891778	36.7	10.1	-74.4	0.0
2025-01-23 00:41:16.146901	36.9	10.3	-74.8	0.0
2025-01-23 00:41:18.401333	37.2	10.5	-75.2	0.0
2025-01-23 00:41:20.656850	37.5	10.6	-75.5	0.0
2025-01-23 00:41:22.911532	37.8	10.8	-75.5	0.0
2025-01-23 00:41:25.164712	38.0	10.9	-75.3	0.0
2025-01-23 00:41:27.420068	38.3	11.1	-75.5	0.0
2025-01-23 00:41:29.671748	38.6	11.2	-75.5	0.0
2025-01-23 00:41:31.921966	38.9	11.4	-74.2	0.0
2025-01-23 00:41:34.173164	39.1	11.5	-75.7	0.0
2025-01-23 00:41:36.428690	39.4	11.7	-76.5	0.0
2025-01-23 00:41:38.679312	39.7	11.8	-75.4	0.0
2025-01-23 00:41:40.933693	40.0	12.0	-76.0	0.0
2025-01-23 00:41:43.186969	40.3	12.2	-77.0	0.0
2025-01-23 00:41:45.440262	40.6	12.3	-76.3	0.0
2025-01-23 00:41:47.694439	40.9	12.5	-74.9	0.0
2025-01-23 00:41:49.947233	41.2	12.6	-76.1	0.0
2025-01-23 00:41:52.197186	41.5	12.8	-76.2	0.0
2025-01-23 00:41:54.448050	41.9	13.0	-74.4	0.0
2025-01-23 00:41:56.701387	42.2	13.1	-74.4	0.0
2025-01-23 00:41:58.958341	42.5	13.3	-76.0	0.0
2025-01-23 00:42:01.210700	42.8	13.4	-75.6	0.0
2025-01-23 00:42:03.464789	43.1	13.6	-75.4	0.0
2025-01-23 00:42:05.719289	43.5	13.8	-73.6	0.0
2025-01-23 00:42:07.973653	43.8	13.9	-76.1	0.0
2025-01-23 00:42:10.226841	44.1	14.1	-74.2	0.0
2025-01-23 00:42:12.478485	44.5	14.2	-75.9	0.0
2025-01-23 00:42:14.733771	44.8	14.4	-76.1	0.0
2025-01-23 00:42:16.988901	45.2	14.6	-75.8	0.0
2025-01-23 00:42:19.240895	45.5	14.7	-77.1	0.0
2025-01-23 00:42:21.493761	45.9	14.9	-75.7	0.0
2025-01-23 00:42:23.747524	46.2	15.1	-75.3	0.0
2025-01-23 00:42:26.000789	46.6	15.2	-75.3	0.0
2025-01-23 00:42:28.254267	47.0	15.4	-74.7	0.0
2025-01-23 00:42:30.507873	47.3	15.5	-75.4	0.0
2025-01-23 00:42:32.763136	47.7	15.7	-75.3	0.0
2025-01-23 00:42:35.015218	48.1	15.9	-75.5	0.0
2025-01-23 00:42:37.268835	48.5	16.0	-75.6	0.0
2025-01-23 00:42:39.525007	48.9	16.2	-75.4	0.0
2025-01-23 00:42:41.776652	49.3	16.3	-76.1	0.0
2025-01-23 00:42:44.032154	49.7	16.5	-76.0	0.0
2025-01-23 00:42:46.284384	50.1	16.7	-77.0	0.0
2025-01-23 00:42:48.537505	50.5	16.8	-76.8	0.0
2025-01-23 00:42:50.793756	50.9	17.0	-76.2	0.0
2025-01-23 00:42:53.048210	51.3	17.1	-76.1	0.0
2025-01-23 00:42:55.301790	51.7	17.3	-76.3	0.0
2025-01-23 00:42:57.554391	52.1	17.5	-76.2	0.0
2025-01-23 00:42:59.811405	52.5	17.6	-76.0	0.0
2025-01-23 00:43:02.067370	53.0	17.8	-75.6	0.0
2025-01-23 00:43:04.321360	53.4	17.9	-75.8	0.0
2025-01-23 00:43:06.578131	53.9	18.1	-75.5	0.0
2025-01-23 00:43:08.833700	54.3	18.3	-76.4	0.0
2025-01-23 00:43:11.086712	54.7	18.4	-76.2	0.0
2025-01-23 00:43:13.339865	55.2	18.6	-77.6	0.0
2025-01-23 00:43:15.593574	55.7	18.7	-78.0	0.0
2025-01-23 00:43:17.845268	56.1	18.9	-78.6	0.0
2025-01-23 00:43:20.099363	56.6	19.0	-78.7	0.0
2025-01-23 00:43:22.352983	57.1	19.2	-77.3	0.0
2025-01-23 00:43:24.605531	57.5	19.3	-77.3	0.0
2025-01-23 00:43:26.860721	58.0	19.5	-76.1	0.0
2025-01-23 00:43:29.115658	58.5	19.6	-76.0	0.0
2025-01-23 00:43:31.370232	59.0	19.8	-76.1	0.0
2025-01-23 00:43:33.623095	59.5	19.9	-75.9	0.0
2025-01-23 00:43:35.882279	60.0	20.1	-75.2	0.0
2025-01-23 00:43:38.138226	60.5	20.2	-74.0	0.0
2025-01-23 00:43:40.391348	61.0	20.4	-75.1	0.0
2025-01-23 00:43:42.645782	61.5	20.5	-76.2	0.0
2025-01-23 00:43:44.901271	62.0	20.7	-75.0	0.0
2025-01-23 00:43:47.156620	62.5	20.8	-75.7	0.0
2025-01-23 00:43:49.411003	63.1	20.9	-75.7	0.0
2025-01-23 00:43:51.666857	63.6	21.1	-75.8	0.0
2025-01-23 00:43:53.920037	64.1	21.2	-76.3	0.0
2025-01-23 00:43:56.175777	64.7	21.3	-75.6	0.0
2025-01-23 00:43:58.431613	65.2	21.5	-76.7	0.0
2025-01-23 00:44:00.684726	65.8	21.6	-76.4	0.0
2025-01-23 00:44:02.936041	66.3	21.7	-76.4	0.0
2025-01-23 00:44:05.190521	66.9	21.8	-77.1	0.0
2025-01-23 00:44:07.446897	67.5	22.0	-76.9	0.0
2025-01-23 00:44:09.700497	68.0	22.1	-76.0	0.0
2025-01-23 00:44:11.953787	68.6	22.2	-76.3	0.0
2025-01-23 00:44:14.210498	69.2	22.3	-77.5	0.0
2025-01-23 00:44:16.466341	69.8	22.4	-77.7	0.0
2025-01-23 00:44:18.717355	70.3	22.5	-77.5	0.0
2025-01-23 00:44:20.967949	70.9	22.6	-77.8	0.0
2025-01-23 00:44:23.222146	71.5	22.7	-78.4	0.0
2025-01-23 00:44:25.474602	72.1	22.9	-78.5	0.0
2025-01-23 00:44:27.729501	72.7	23.0	-78.7	0.0
2025-01-23 00:44:29.980205	73.3	23.0	-79.2	0.0
2025-01-23 00:44:32.232457	73.9	23.1	-79.2	0.0
2025-01-23 00:44:34.486951	74.5	23.2	-79.0	0.0
2025-01-23 00:44:36.742691	75.2	23.3	-77.7	0.0
2025-01-23 00:44:38.996340	75.8	23.4	-79.5	0.0
2025-01-23 00:44:41.250917	76.4	23.5	-78.8	0.0
2025-01-23 00:44:43.505787	77.0	23.6	-79.1	0.0
2025-01-23 00:44:45.759128	77.7	23.6	-79.5	0.0
2025-01-23 00:44:48.013407	78.3	23.7	-79.5	0.0
2025-01-23 00:44:50.266976	78.9	23.8	-79.0	0.0
2025-01-23 00:44:52.519951	79.6	23.8	-78.7	0.0
2025-01-23 00:44:54.773887	80.2	23.9	-79.4	0.0
2025-01-23 00:44:57.024772	80.8	24.0	-77.7	0.0
2025-01-23 00:44:59.278708	81.5	24.0	-79.1	0.0
2025-01-23 00:45:01.532666	82.1	24.1	-78.8	0.0
2025-01-23 00:45:03.784991	82.8	24.1	-79.5	0.0
2025-01-23 00:45:06.038247	83.4	24.2	-79.4	0.0
2025-01-23 00:45:08.289239	84.1	24.2	-79.0	0.0
2025-01-23 00:45:10.542812	84.7	24.2	-79.6	0.0
2025-01-23 00:45:12.798351	85.4	24.3	-79.3	0.0
2025-01-23 00:45:15.051601	86.0	24.3	-79.6	0.0
2025-01-23 00:45:17.306271	86.7	24.3	-79.5	0.0
2025-01-23 00:45:19.561108	87.4	24.3	-79.5	0.0
2025-01-23 00:45:21.816021	88.0	24.4	-78.6	0.0
2025-01-23 00:45:24.067574	88.7	24.4	-76.8	0.0
2025-01-23 00:45:26.321580	89.3	24.4	-78.2	0.0
2025-01-23 00:45:28.575851	90.0	24.4	-78.1	0.0
2025-01-23 00:45:30.827831	90.7	24.4	-77.8	0.0
2025-01-23 00:45:33.079412	91.3	24.4	-77.5	0.0
2025-01-23 00:45:35.331668	92.0	24.4	-76.3	0.0
2025-01-23 00:45:37.584262	92.6	24.4	-77.7	0.0
2025-01-23 00:45:39.842006	93.3	24.4	-77.9	0.0
2025-01-23 00:45:42.094732	94.0	24.3	-78.6	0.0
2025-01-23 00:45:44.348059	94.6	24.3	-78.0	0.0
2025-01-23 00:45:46.602556	95.3	24.3	-78.3	0.0
2025-01-23 00:45:48.857805	95.9	24.3	-78.8	0.0
2025-01-23 00:45:51.113391	96.6	24.2	-78.3	0.0
2025-01-23 00:45:53.366001	97.2	24.2	-78.2	0.0
2025-01-23 00:45:55.620334	97.9	24.2	-78.2	0.0
2025-01-23 00:45:57.871718	98.5	24.1	-78.2	0.0
2025-01-23 00:46:00.125763	99.2	24.1	-77.9	0.0
2025-01-23 00:46:02.379538	99.8	24.0	-78.6	0.0
2025-01-23 00:46:04.633964	100.5	23.9	-78.5	0.0
2025-01-23 00:46:06.884937	101.1	23.9	-79.3	0.0
2025-01-23 00:46:09.137949	101.8	23.8	-79.3	0.0
2025-01-23 00:46:11.390802	102.4	23.8	-79.7	0.0
2025-01-23 00:46:13.643349	103.0	23.7	-79.9	0.0
2025-01-23 00:46:15.895816	103.7	23.6	-79.5	0.0
2025-01-23 00:46:18.148202	104.3	23.5	-80.1	0.0
2025-01-23 00:46:20.399418	104.9	23.5	-79.8	0.0
2025-01-23 00:46:22.653421	105.5	23.4	-79.8	0.0
2025-01-23 00:46:24.905893	106.2	23.3	-79.2	0.0
2025-01-23 00:46:27.160850	106.8	23.2	-78.3	0.0
2025-01-23 00:46:29.414566	107.4	23.1	-79.7	0.0
2025-01-23 00:46:31.668632	108.0	23.0	-78.1	0.0
2025-01-23 00:46:33.919960	108.6	22.9	-78.4	0.0
2025-01-23 00:46:36.171863	109.2	22.8	-79.5	0.0
2025-01-23 00:46:38.423008	109.8	22.7	-79.5	0.0
2025-01-23 00:46:40.673020	110.4	22.6	-77.7	0.0
2025-01-23 00:46:42.927062	111.0	22.5	-79.3	0.0
2025-01-23 00:46:45.179594	111.6	22.4	-79.1	0.0
2025-01-23 00:46:47.436862	112.2	22.3	-79.4	0.0
2025-01-23 00:46:49.689380	112.7	22.2	-79.4	0.0
2025-01-23 00:46:51.944423	113.3	22.0	-78.3	0.0
2025-01-23 00:46:54.196596	113.9	21.9	-79.8	0.0
2025-01-23 00:46:56.454069	114.4	21.8	-79.9	0.0
2025-01-23 00:46:58.710052	115.0	21.7	-79.5	0.0
2025-01-23 00:47:00.963058	115.6	21.5	-78.5	0.0
2025-01-23 00:47:03.214247	116.1	21.4	-79.6	0.0
2025-01-23 00:47:05.467754	116.7	21.3	-79.1	0.0
2025-01-23 00:47:07.722203	117.2	21.1	-80.2	0.0
2025-01-23 00:47:09.977101	117.7	21.0	-80.1	0.0
2025-01-23 00:47:12.233111	118.3	20.9	-79.8	0.0
2025-01-23 00:47:14.488323	118.8	20.7	-79.3	0.0
2025-01-23 00:47:16.741516	119.3	20.6	-79.7	0.0
2025-01-23 00:47:18.997004	119.8	20.4	-80.0	0.0
2025-01-23 00:47:21.250441	120.3	20.3	-79.8	0.0
2025-01-23 00:47:23.503688	120.9	20.2	-79.7	0.0
2025-01-23 00:47:25.760923	121.4	20.0	-78.8	0.0
2025-01-23 00:47:28.016266	121.9	19.9	-80.3	0.0
2025-01-23 00:47:30.270704	122.4	19.7	-80.3	0.0
2025-01-23 00:47:32.525271	122.8	19.6	-80.0	0.0
2025-01-23 00:47:34.777742	123.3	19.4	-79.8	0.0
2025-01-23 00:47:37.034089	123.8	19.3	-80.4	0.0
2025-01-23 00:47:39.289374	124.3	19.1	-79.9	0.0
2025-01-23 00:47:41.542533	124.8	19.0	-80.7	0.0
2025-01-23 00:47:43.793537	125.2	18.8	-80.7	0.0
2025-01-23 00:47:46.048180	125.7	18.6	-80.0	0.0
2025-01-23 00:47:48.304799	126.1	18.5	-79.4	0.0
2025-01-23 00:47:50.557993	126.6	18.3	-80.4	0.0
2025-01-23 00:47:52.809777	127.0	18.2	-80.4	0.0
2025-01-23 00:47:55.066519	127.5	18.0	-80.4	0.0
2025-01-23 00:47:57.320150	127.9	17.9	-80.1	0.0
2025-01-23 00:47:59.572991	128.4	17.7	-79.6	0.0
2025-01-23 00:48:01.826971	128.8	17.5	-80.1	0.0
2025-01-23 00:48:04.080019	129.2	17.4	-79.3	0.0
2025-01-23 00:48:06.334325	129.6	17.2	-80.1	0.0
2025-01-23 00:48:08.590221	130.1	17.1	-80.2	0.0
2025-01-23 00:48:10.845375	130.5	16.9	-80.2	0.0
2025-01-23 00:48:13.101525	130.9	16.7	-79.6	0.0
2025-01-23 00:48:15.358044	131.3	16.6	-80.1	0.0
2025-01-23 00:48:17.612671	131.7	16.4	-80.2	0.0
2025-01-23 00:48:19.869120	132.1	16.2	-79.7	0.0
2025-01-23 00:48:22.124745	132.5	16.1	-80.2	0.0
2025-01-23 00:48:24.379174	132.9	15.9	-79.9	0.0
2025-01-23 00:48:26.635204	133.2	15.8	-80.0	0.0
2025-01-23 00:48:28.888270	133.6	15.6	-79.9	0.0
2025-01-23 00:48:31.142715	134.0	15.4	-80.1	0.0
2025-01-23 00:48:33.395098	134.4	15.3	-80.0	0.0
2025-01-23 00:48:35.648595	134.7	15.1	-80.2	0.0
2025-01-23 00:48:37.902488	135.1	14.9	-80.2	0.0
2025-01-23 00:48:40.157329	135.5	14.8	-80.3	0.0
2025-01-23 00:48:42.410432	135.8	14.6	-79.9	0.0
2025-01-23 00:48:44.666231	136.2	14.4	-78.7	0.0
2025-01-23 00:48:46.918586	136.5	14.3	-79.1	0.0
2025-01-23 00:48:49.171631	136.9	14.1	-79.6	0.0
2025-01-23 00:48:51.425300	137.2	14.0	-79.1	0.0
2025-01-23 00:48:53.676992	137.5	13.8	-79.1	0.0
2025-01-23 00:48:55.930660	137.9	13.6	-79.0	0.0
2025-01-23 00:48:58.182442	138.2	13.5	-79.2	0.0
2025-01-23 00:49:00.434070	138.5	13.3	-79.1	0.0
2025-01-23 00:49:02.687640	138.8	13.1	-79.4	0.0
2025-01-23 00:49:04.940339	139.2	13.0	-79.1	0.0
2025-01-23 00:49:07.191461	139.5	12.8	-79.5	0.0
2025-01-23 00:49:09.444533	139.8	12.7	-79.1	0.0
2025-01-23 00:49:11.700699	140.1	12.5	-79.4	0.0
2025-01-23 00:49:13.953633	140.4	12.3	-79.5	0.0
2025-01-23 00:49:16.206475	140.7	12.2	-80.0	0.0
2025-01-23 00:49:18.461580	141.0	12.0	-80.1	0.0
2025-01-23 00:49:20.715249	141.3	11.9	-79.9	0.0
2025-01-23 00:49:22.970376	141.6	11.7	-78.7	0.0
2025-01-23 00:49:25.225725	141.9	11.5	-78.8	0.0
2025-01-23 00:49:27.482127	142.2	11.4	-79.1	0.0
2025-01-23 00:49:29.736357	142.5	11.2	-78.2	0.0
2025-01-23 00:49:31.987910	142.7	11.1	-79.8	0.0
2025-01-23 00:49:34.243128	143.0	10.9	-80.6	0.0
2025-01-23 00:49:36.497488	143.3	10.8	-80.2	0.0
2025-01-23 00:49:38.751696	143.6	10.6	-79.1	0.0
2025-01-23 00:49:41.006425	143.8	10.5	-81.4	0.0
2025-01-23 00:49:43.261529	144.1	10.3	-81.8	0.0
2025-01-23 00:49:45.514634	144.4	10.1	-81.9	0.0
#Closed at: 2025-01-23 00:41:06.731992