passes_logs/2025/01/23/planumMaritime01/planumMaritime01__20250123_072326_NOAA_19_rec.log

#Pass ID: 20250123_072326_NOAA 19
#Satellite: NOAA 19
#Configuration: NOAA 19
#Start time: 2025-01-23 07:23:31.937310

#LorettStation: 1.0.0 05.05.2024
#Station: planumMaritime01
#Location: 37.49445 lon 55.92918 lat
#TLE: 1 33591U 09005A   25022.22545190  .00000382  00000+0  22773-3 0  9990
#TLE: 2 33591  99.0184  86.0433 0014227  38.0135 322.2038 14.13265658822568

#Time	Az	El	Level	SNR
2025-01-23 07:23:34.100509	23.0	10.2	-94.4	0.0
2025-01-23 07:23:36.353396	23.1	10.4	-94.2	0.0
2025-01-23 07:23:38.603788	23.2	10.6	-94.2	0.0
2025-01-23 07:23:40.856338	23.4	10.8	-94.7	0.0
2025-01-23 07:23:43.109135	23.5	10.9	-94.5	0.0
2025-01-23 07:23:45.364858	23.6	11.1	-94.5	0.0
2025-01-23 07:23:47.618273	23.7	11.3	-94.8	0.0
2025-01-23 07:23:49.872582	23.8	11.5	-95.0	0.0
2025-01-23 07:23:52.125480	23.9	11.7	-94.7	0.0
2025-01-23 07:23:54.379275	24.0	11.9	-94.6	0.0
2025-01-23 07:23:56.633342	24.1	12.1	-94.9	0.0
2025-01-23 07:23:58.886922	24.2	12.3	-94.7	0.0
2025-01-23 07:24:01.139897	24.3	12.6	-95.0	0.0
2025-01-23 07:24:03.394890	24.4	12.8	-94.8	0.0
2025-01-23 07:24:05.651779	24.6	13.0	-94.4	0.0
2025-01-23 07:24:07.904704	24.7	13.2	-94.8	0.0
2025-01-23 07:24:10.158268	24.8	13.4	-94.9	0.0
2025-01-23 07:24:12.412333	24.9	13.6	-94.3	0.0
2025-01-23 07:24:14.663809	25.0	13.8	-94.6	0.0
2025-01-23 07:24:16.917847	25.2	14.0	-94.6	0.0
2025-01-23 07:24:19.171288	25.3	14.3	-94.7	0.0
2025-01-23 07:24:21.423853	25.4	14.5	-94.6	0.0
2025-01-23 07:24:23.674445	25.6	14.7	-94.7	0.0
2025-01-23 07:24:25.930669	25.7	14.9	-94.8	0.0
2025-01-23 07:24:28.184478	25.8	15.2	-94.9	0.0
2025-01-23 07:24:30.434135	26.0	15.4	-94.8	0.0
2025-01-23 07:24:32.688210	26.1	15.6	-94.5	0.0
2025-01-23 07:24:34.941419	26.2	15.9	-94.7	0.0
2025-01-23 07:24:37.194290	26.4	16.1	-94.7	0.0
2025-01-23 07:24:39.450293	26.5	16.3	-94.9	0.0
2025-01-23 07:24:41.705950	26.7	16.6	-94.4	0.0
2025-01-23 07:24:43.961732	26.8	16.8	-94.7	0.0
2025-01-23 07:24:46.217247	27.0	17.1	-94.6	0.0
2025-01-23 07:24:48.470544	27.1	17.3	-94.6	0.0
2025-01-23 07:24:50.723816	27.3	17.6	-94.7	0.0
2025-01-23 07:24:52.976762	27.4	17.8	-94.8	0.0
2025-01-23 07:24:55.228973	27.6	18.1	-94.6	0.0
2025-01-23 07:24:57.483409	27.7	18.3	-94.6	0.0
2025-01-23 07:24:59.738542	27.9	18.6	-94.8	0.0
2025-01-23 07:25:01.991810	28.1	18.8	-95.2	0.0
2025-01-23 07:25:04.245279	28.2	19.1	-94.4	0.0
2025-01-23 07:25:06.500971	28.4	19.4	-94.9	0.0
2025-01-23 07:25:08.756758	28.6	19.6	-94.8	0.0
2025-01-23 07:25:11.010723	28.8	19.9	-94.7	0.0
2025-01-23 07:25:13.267716	29.0	20.2	-94.5	0.0
2025-01-23 07:25:15.521709	29.1	20.5	-94.8	0.0
2025-01-23 07:25:17.775101	29.3	20.8	-94.7	0.0
2025-01-23 07:25:20.030129	29.5	21.0	-94.6	0.0
2025-01-23 07:25:22.284840	29.7	21.3	-94.7	0.0
2025-01-23 07:25:24.542784	29.9	21.6	-94.6	0.0
2025-01-23 07:25:26.796403	30.1	21.9	-94.8	0.0
2025-01-23 07:25:29.049812	30.3	22.2	-94.7	0.0
2025-01-23 07:25:31.304038	30.5	22.5	-94.9	0.0
2025-01-23 07:25:33.558396	30.7	22.8	-94.9	0.0
2025-01-23 07:25:35.811498	31.0	23.1	-94.7	0.0
2025-01-23 07:25:38.065333	31.2	23.4	-94.8	0.0
2025-01-23 07:25:40.321373	31.4	23.7	-94.9	0.0
2025-01-23 07:25:42.573312	31.6	24.0	-94.8	0.0
2025-01-23 07:25:44.829006	31.9	24.4	-95.0	0.0
2025-01-23 07:25:47.083811	32.1	24.7	-94.3	0.0
2025-01-23 07:25:49.338625	32.4	25.0	-94.9	0.0
2025-01-23 07:25:51.589613	32.6	25.3	-94.6	0.0
2025-01-23 07:25:53.842116	32.9	25.7	-94.6	0.0
2025-01-23 07:25:56.096838	33.1	26.0	-94.6	0.0
2025-01-23 07:25:58.351692	33.4	26.3	-94.5	0.0
2025-01-23 07:26:00.604653	33.6	26.7	-94.6	0.0
2025-01-23 07:26:02.857465	33.9	27.0	-94.8	0.0
2025-01-23 07:26:05.112825	34.2	27.4	-94.8	0.0
2025-01-23 07:26:07.364638	34.5	27.7	-94.6	0.0
2025-01-23 07:26:09.616293	34.8	28.1	-94.7	0.0
2025-01-23 07:26:11.868856	35.1	28.4	-94.8	0.0
2025-01-23 07:26:14.122403	35.4	28.8	-94.8	0.0
2025-01-23 07:26:16.373341	35.7	29.2	-94.7	0.0
2025-01-23 07:26:18.627039	36.0	29.5	-94.7	0.0
2025-01-23 07:26:20.882317	36.3	29.9	-95.0	0.0
2025-01-23 07:26:23.133091	36.7	30.3	-94.8	0.0
2025-01-23 07:26:25.386258	37.0	30.7	-94.7	0.0
2025-01-23 07:26:27.640457	37.4	31.1	-94.8	0.0
2025-01-23 07:26:29.895481	37.7	31.5	-94.5	0.0
2025-01-23 07:26:32.147151	38.1	31.9	-94.7	0.0
2025-01-23 07:26:34.401219	38.5	32.3	-94.6	0.0
2025-01-23 07:26:36.655170	38.9	32.7	-94.8	0.0
2025-01-23 07:26:38.906005	39.2	33.1	-94.6	0.0
2025-01-23 07:26:41.159090	39.6	33.5	-94.4	0.0
2025-01-23 07:26:43.412981	40.1	33.9	-94.6	0.0
2025-01-23 07:26:45.669720	40.5	34.3	-94.8	0.0
2025-01-23 07:26:47.923870	40.9	34.8	-94.7	0.0
2025-01-23 07:26:50.178860	41.4	35.2	-94.7	0.0
2025-01-23 07:26:52.435015	41.8	35.6	-95.0	0.0
2025-01-23 07:26:54.689030	42.3	36.1	-94.8	0.0
2025-01-23 07:26:56.942063	42.8	36.5	-94.9	0.0
2025-01-23 07:26:59.197622	43.3	36.9	-94.9	0.0
2025-01-23 07:27:01.452798	43.8	37.4	-94.9	0.0
2025-01-23 07:27:03.706575	44.3	37.8	-94.7	0.0
2025-01-23 07:27:05.961338	44.8	38.3	-94.8	0.0
2025-01-23 07:27:08.214414	45.4	38.8	-95.0	0.0
2025-01-23 07:27:10.469786	46.0	39.2	-94.7	0.0
2025-01-23 07:27:12.720445	46.5	39.7	-94.6	0.0
2025-01-23 07:27:14.974995	47.1	40.1	-94.9	0.0
2025-01-23 07:27:17.227086	47.8	40.6	-94.8	0.0
2025-01-23 07:27:19.479371	48.4	41.1	-94.9	0.0
2025-01-23 07:27:21.732641	49.1	41.6	-94.5	0.0
2025-01-23 07:27:23.983643	49.7	42.0	-94.9	0.0
2025-01-23 07:27:26.238268	50.4	42.5	-94.5	0.0
2025-01-23 07:27:28.490940	51.1	43.0	-94.8	0.0
2025-01-23 07:27:30.745801	51.9	43.5	-95.1	0.0
2025-01-23 07:27:33.001346	52.6	44.0	-94.6	0.0
2025-01-23 07:27:35.252774	53.4	44.4	-94.9	0.0
2025-01-23 07:27:37.507827	54.2	44.9	-95.0	0.0
2025-01-23 07:27:39.761774	55.0	45.4	-94.9	0.0
2025-01-23 07:27:42.013360	55.9	45.9	-94.6	0.0
2025-01-23 07:27:44.272830	56.8	46.4	-94.9	0.0
2025-01-23 07:27:46.528341	57.7	46.8	-94.8	0.0
2025-01-23 07:27:48.782908	58.6	47.3	-94.4	0.0
2025-01-23 07:27:51.037384	59.6	47.8	-94.7	0.0
2025-01-23 07:27:53.289677	60.6	48.3	-94.7	0.0
2025-01-23 07:27:55.546532	61.6	48.7	-94.7	0.0
2025-01-23 07:27:57.801376	62.6	49.2	-94.6	0.0
2025-01-23 07:28:00.054276	63.7	49.6	-94.9	0.0
2025-01-23 07:28:02.308763	64.8	50.1	-95.0	0.0
2025-01-23 07:28:04.562078	66.0	50.5	-94.6	0.0
2025-01-23 07:28:06.818666	67.2	50.9	-94.4	0.0
2025-01-23 07:28:09.074311	68.4	51.4	-95.0	0.0
2025-01-23 07:28:11.327167	69.6	51.8	-94.7	0.0
2025-01-23 07:28:13.580660	70.9	52.2	-94.8	0.0
2025-01-23 07:28:15.833872	72.2	52.6	-94.5	0.0
2025-01-23 07:28:18.086158	73.6	52.9	-94.8	0.0
2025-01-23 07:28:20.340087	75.0	53.3	-94.8	0.0
2025-01-23 07:28:22.593202	76.4	53.7	-94.7	0.0
2025-01-23 07:28:24.846944	77.8	54.0	-94.9	0.0
2025-01-23 07:28:27.099833	79.3	54.3	-94.7	0.0
2025-01-23 07:28:29.352452	80.8	54.6	-94.8	0.0
2025-01-23 07:28:31.604798	82.4	54.9	-94.6	0.0
2025-01-23 07:28:33.856407	84.0	55.1	-94.6	0.0
2025-01-23 07:28:36.112163	85.6	55.4	-94.9	0.0
2025-01-23 07:28:38.364797	87.2	55.6	-94.8	0.0
2025-01-23 07:28:40.617744	88.9	55.8	-94.7	0.0
2025-01-23 07:28:42.873137	90.5	56.0	-94.8	0.0
2025-01-23 07:28:45.127205	92.2	56.1	-94.9	0.0
2025-01-23 07:28:47.380775	94.0	56.2	-94.7	0.0
2025-01-23 07:28:49.639170	95.7	56.3	-94.8	0.0
2025-01-23 07:28:51.892960	97.4	56.4	-94.8	0.0
2025-01-23 07:28:54.149936	99.2	56.5	-94.7	0.0
2025-01-23 07:28:56.410261	100.9	56.5	-94.7	0.0
2025-01-23 07:28:58.666567	102.7	56.5	-94.9	0.0
2025-01-23 07:29:00.920342	104.5	56.5	-94.8	0.0
2025-01-23 07:29:03.172505	106.2	56.4	-94.9	0.0
2025-01-23 07:29:05.423862	107.9	56.3	-94.9	0.0
2025-01-23 07:29:07.677020	109.7	56.2	-94.6	0.0
2025-01-23 07:29:09.933363	111.4	56.1	-95.0	0.0
2025-01-23 07:29:12.188900	113.1	56.0	-94.8	0.0
2025-01-23 07:29:14.443376	114.8	55.8	-94.8	0.0
2025-01-23 07:29:16.693536	116.4	55.6	-94.9	0.0
2025-01-23 07:29:18.946185	118.1	55.4	-95.0	0.0
2025-01-23 07:29:21.197787	119.7	55.1	-94.8	0.0
2025-01-23 07:29:23.450463	121.2	54.9	-94.8	0.0
2025-01-23 07:29:25.703737	122.8	54.6	-95.0	0.0
2025-01-23 07:29:27.956872	124.3	54.3	-94.6	0.0
2025-01-23 07:29:30.210560	125.8	54.0	-95.1	0.0
2025-01-23 07:29:32.463747	127.2	53.7	-94.5	0.0
2025-01-23 07:29:34.719551	128.7	53.3	-94.6	0.0
2025-01-23 07:29:36.972288	130.1	52.9	-95.0	0.0
2025-01-23 07:29:39.223394	131.4	52.6	-94.7	0.0
2025-01-23 07:29:41.475041	132.7	52.2	-94.9	0.0
2025-01-23 07:29:43.729635	134.0	51.8	-94.4	0.0
2025-01-23 07:29:45.982359	135.3	51.4	-94.8	0.0
2025-01-23 07:29:48.236618	136.5	50.9	-95.0	0.0
2025-01-23 07:29:50.488282	137.6	50.5	-94.6	0.0
2025-01-23 07:29:52.741126	138.8	50.1	-94.8	0.0
2025-01-23 07:29:54.996132	139.9	49.6	-94.8	0.0
2025-01-23 07:29:57.250673	141.0	49.2	-94.8	0.0
2025-01-23 07:29:59.503797	142.0	48.7	-94.8	0.0
2025-01-23 07:30:01.757374	143.1	48.2	-95.1	0.0
2025-01-23 07:30:04.010401	144.1	47.8	-94.9	0.0
2025-01-23 07:30:06.266059	145.0	47.3	-94.9	0.0
2025-01-23 07:30:08.517757	146.0	46.8	-94.6	0.0
2025-01-23 07:30:10.771619	146.9	46.4	-94.8	0.0
2025-01-23 07:30:13.027896	147.7	45.9	-94.9	0.0
2025-01-23 07:30:15.281528	148.6	45.4	-94.8	0.0
2025-01-23 07:30:17.539128	149.4	44.9	-94.7	0.0
2025-01-23 07:30:19.792201	150.2	44.4	-94.7	0.0
2025-01-23 07:30:22.044986	151.0	43.9	-94.8	0.0
2025-01-23 07:30:24.300352	151.8	43.5	-94.7	0.0
2025-01-23 07:30:26.553401	152.5	43.0	-94.8	0.0
2025-01-23 07:30:28.807476	153.2	42.5	-95.0	0.0
2025-01-23 07:30:31.061015	153.9	42.0	-94.6	0.0
2025-01-23 07:30:33.317023	154.6	41.5	-94.5	0.0
2025-01-23 07:30:35.569947	155.2	41.1	-94.7	0.0
2025-01-23 07:30:37.823230	155.9	40.6	-95.0	0.0
2025-01-23 07:30:40.074162	156.5	40.1	-94.9	0.0
2025-01-23 07:30:42.326994	157.1	39.7	-94.7	0.0
2025-01-23 07:30:44.580163	157.7	39.2	-94.9	0.0
2025-01-23 07:30:46.832922	158.2	38.7	-95.0	0.0
2025-01-23 07:30:49.085399	158.8	38.3	-94.7	0.0
2025-01-23 07:30:51.339603	159.3	37.8	-94.9	0.0
2025-01-23 07:30:53.592367	159.8	37.4	-94.9	0.0
2025-01-23 07:30:55.848154	160.4	36.9	-94.9	0.0
2025-01-23 07:30:58.099830	160.9	36.5	-94.9	0.0
2025-01-23 07:31:00.354514	161.3	36.0	-94.6	0.0
2025-01-23 07:31:02.606865	161.8	35.6	-94.8	0.0
2025-01-23 07:31:04.861040	162.3	35.2	-95.0	0.0
2025-01-23 07:31:07.113769	162.7	34.7	-94.8	0.0
2025-01-23 07:31:09.367930	163.1	34.3	-94.6	0.0
2025-01-23 07:31:11.620758	163.6	33.9	-94.8	0.0
2025-01-23 07:31:13.874419	164.0	33.5	-94.7	0.0
2025-01-23 07:31:16.128494	164.4	33.1	-94.5	0.0
2025-01-23 07:31:18.381351	164.8	32.6	-95.0	0.0
2025-01-23 07:31:20.635207	165.2	32.2	-94.8	0.0
2025-01-23 07:31:22.888591	165.5	31.8	-95.0	0.0
2025-01-23 07:31:25.142316	165.9	31.4	-94.8	0.0
2025-01-23 07:31:27.396810	166.3	31.0	-95.0	0.0
2025-01-23 07:31:29.651122	166.6	30.7	-95.0	0.0
2025-01-23 07:31:31.906419	166.9	30.3	-95.2	0.0
2025-01-23 07:31:34.158903	167.3	29.9	-95.0	0.0
2025-01-23 07:31:36.412263	167.6	29.5	-94.9	0.0
2025-01-23 07:31:38.662977	167.9	29.1	-94.9	0.0
2025-01-23 07:31:40.918733	168.2	28.8	-94.7	0.0
2025-01-23 07:31:43.168276	168.5	28.4	-94.9	0.0
2025-01-23 07:31:45.423100	168.8	28.0	-94.5	0.0
2025-01-23 07:31:47.675939	169.1	27.7	-94.8	0.0
2025-01-23 07:31:49.931515	169.4	27.3	-95.1	0.0
2025-01-23 07:31:52.183475	169.7	27.0	-94.6	0.0
2025-01-23 07:31:54.438590	170.0	26.6	-94.9	0.0
2025-01-23 07:31:56.691896	170.2	26.3	-94.6	0.0
2025-01-23 07:31:58.945035	170.5	26.0	-94.9	0.0
2025-01-23 07:32:01.197747	170.8	25.6	-94.6	0.0
2025-01-23 07:32:03.452176	171.0	25.3	-94.6	0.0
2025-01-23 07:32:05.704601	171.2	25.0	-94.8	0.0
2025-01-23 07:32:07.957854	171.5	24.6	-94.8	0.0
2025-01-23 07:32:10.211352	171.7	24.3	-94.8	0.0
2025-01-23 07:32:12.465421	172.0	24.0	-94.6	0.0
2025-01-23 07:32:14.718962	172.2	23.7	-94.7	0.0
2025-01-23 07:32:16.972284	172.4	23.4	-94.7	0.0
2025-01-23 07:32:19.225541	172.6	23.1	-94.9	0.0
2025-01-23 07:32:21.476851	172.8	22.8	-94.6	0.0
2025-01-23 07:32:23.728964	173.1	22.5	-94.9	0.0
2025-01-23 07:32:25.984471	173.3	22.2	-95.1	0.0
2025-01-23 07:32:28.238953	173.5	21.9	-94.8	0.0
2025-01-23 07:32:30.491590	173.7	21.6	-95.0	0.0
2025-01-23 07:32:32.744236	173.9	21.3	-94.6	0.0
2025-01-23 07:32:34.997479	174.1	21.0	-95.1	0.0
2025-01-23 07:32:37.250251	174.3	20.7	-95.0	0.0
2025-01-23 07:32:39.501383	174.4	20.4	-94.5	0.0
2025-01-23 07:32:41.757364	174.6	20.2	-94.9	0.0
2025-01-23 07:32:44.012000	174.8	19.9	-94.8	0.0
2025-01-23 07:32:46.267630	175.0	19.6	-94.9	0.0
2025-01-23 07:32:48.522319	175.2	19.3	-94.5	0.0
2025-01-23 07:32:50.775322	175.3	19.1	-94.9	0.0
2025-01-23 07:32:53.026586	175.5	18.8	-95.1	0.0
2025-01-23 07:32:55.282394	175.7	18.5	-95.0	0.0
2025-01-23 07:32:57.537702	175.8	18.3	-94.7	0.0
2025-01-23 07:32:59.792915	176.0	18.0	-94.6	0.0
2025-01-23 07:33:02.049009	176.1	17.8	-95.0	0.0
2025-01-23 07:33:04.304004	176.3	17.5	-94.7	0.0
2025-01-23 07:33:06.557879	176.5	17.3	-95.0	0.0
2025-01-23 07:33:08.814231	176.6	17.0	-94.8	0.0
2025-01-23 07:33:11.071481	176.8	16.8	-94.7	0.0
2025-01-23 07:33:13.324195	176.9	16.5	-94.8	0.0
2025-01-23 07:33:15.578264	177.0	16.3	-94.8	0.0
2025-01-23 07:33:17.831619	177.2	16.1	-95.0	0.0
2025-01-23 07:33:20.086614	177.3	15.8	-95.0	0.0
2025-01-23 07:33:22.339722	177.5	15.6	-94.4	0.0
2025-01-23 07:33:24.594173	177.6	15.3	-94.8	0.0
2025-01-23 07:33:26.847146	177.7	15.1	-94.7	0.0
2025-01-23 07:33:29.099095	177.9	14.9	-95.0	0.0
2025-01-23 07:33:31.353990	178.0	14.7	-94.9	0.0
2025-01-23 07:33:33.608936	178.1	14.4	-95.0	0.0
2025-01-23 07:33:35.864703	178.2	14.2	-94.7	0.0
2025-01-23 07:33:38.117266	178.4	14.0	-94.6	0.0
2025-01-23 07:33:40.370025	178.5	13.8	-94.7	0.0
2025-01-23 07:33:42.624841	178.6	13.6	-94.9	0.0
2025-01-23 07:33:44.879583	178.7	13.3	-94.5	0.0
2025-01-23 07:33:47.132135	178.9	13.1	-94.9	0.0
2025-01-23 07:33:49.386137	179.0	12.9	-94.8	0.0
2025-01-23 07:33:51.639979	179.1	12.7	-94.8	0.0
2025-01-23 07:33:53.894760	179.2	12.5	-94.8	0.0
2025-01-23 07:33:56.145839	179.3	12.3	-94.9	0.0
2025-01-23 07:33:58.397964	179.4	12.1	-94.9	0.0
2025-01-23 07:34:00.648911	179.5	11.9	-95.0	0.0
2025-01-23 07:34:02.900939	179.6	11.7	-95.1	0.0
2025-01-23 07:34:05.156700	179.7	11.5	-94.8	0.0
2025-01-23 07:34:07.410104	179.8	11.3	-94.8	0.0
2025-01-23 07:34:09.661382	180.0	11.1	-95.1	0.0
2025-01-23 07:34:11.916460	180.1	10.9	-94.8	0.0
2025-01-23 07:34:14.170171	180.2	10.7	-94.7	0.0
2025-01-23 07:34:16.424224	180.3	10.5	-94.9	0.0
2025-01-23 07:34:18.677353	180.4	10.3	-94.7	0.0
2025-01-23 07:34:20.928540	180.5	10.1	-94.9	0.0
#Closed at: 2025-01-23 07:23:26.943350