passes_logs/2025/01/23/planumMaritime01/planumMaritime01__20250123_210345_NOAA_18_rec.log

#Pass ID: 20250123_210345_NOAA 18
#Satellite: NOAA 18
#Configuration: NOAA 18
#Start time: 2025-01-23 21:03:50.181055

#LorettStation: 1.0.0 05.05.2024
#Station: planumMaritime01
#Location: 37.49445 lon 55.92918 lat
#TLE: 1 28654U 05018A   25022.24143052  .00000458  00000+0  26647-3 0  9995
#TLE: 2 28654  98.8556 103.2235 0014680 159.1096 201.0679 14.13493787 14203

#Time	Az	El	Level	SNR
2025-01-23 21:03:52.337172	229.5	10.1	-74.7	0.0
2025-01-23 21:03:53.461269	229.7	10.2	-74.5	0.0
2025-01-23 21:03:54.583804	229.8	10.2	-74.9	0.0
2025-01-23 21:03:55.709160	230.0	10.3	-75.1	0.0
2025-01-23 21:03:56.833497	230.1	10.4	-74.7	0.0
2025-01-23 21:03:57.954971	230.3	10.4	-75.3	0.0
2025-01-23 21:03:59.077374	230.4	10.5	-75.2	0.0
2025-01-23 21:04:00.201135	230.6	10.6	-74.6	0.0
2025-01-23 21:04:01.324800	230.7	10.6	-75.0	0.0
2025-01-23 21:04:02.447908	230.9	10.7	-75.2	0.0
2025-01-23 21:04:03.570815	231.0	10.8	-75.0	0.0
2025-01-23 21:04:04.692092	231.2	10.8	-74.7	0.0
2025-01-23 21:04:05.815862	231.4	10.9	-74.6	0.0
2025-01-23 21:04:06.938544	231.5	10.9	-74.7	0.0
2025-01-23 21:04:08.061475	231.7	11.0	-75.5	0.0
2025-01-23 21:04:09.184225	231.8	11.1	-75.4	0.0
2025-01-23 21:04:10.305848	232.0	11.1	-75.1	0.0
2025-01-23 21:04:11.429472	232.2	11.2	-74.8	0.0
2025-01-23 21:04:12.553681	232.3	11.3	-75.5	0.0
2025-01-23 21:04:13.676650	232.5	11.3	-75.5	0.0
2025-01-23 21:04:14.801307	232.6	11.4	-75.1	0.0
2025-01-23 21:04:15.924476	232.8	11.5	-75.4	0.0
2025-01-23 21:04:17.049088	233.0	11.5	-75.5	0.0
2025-01-23 21:04:18.172753	233.1	11.6	-75.8	0.0
2025-01-23 21:04:19.295054	233.3	11.6	-75.6	0.0
2025-01-23 21:04:20.417985	233.5	11.7	-75.3	0.0
2025-01-23 21:04:21.541082	233.6	11.8	-75.5	0.0
2025-01-23 21:04:22.664089	233.8	11.8	-75.6	0.0
2025-01-23 21:04:23.787079	234.0	11.9	-75.0	0.0
2025-01-23 21:04:24.911197	234.1	12.0	-75.1	0.0
2025-01-23 21:04:26.034963	234.3	12.0	-75.0	0.0
2025-01-23 21:04:27.157562	234.5	12.1	-74.8	0.0
2025-01-23 21:04:28.280930	234.6	12.1	-74.9	0.0
2025-01-23 21:04:29.402928	234.8	12.2	-75.3	0.0
2025-01-23 21:04:30.524719	235.0	12.3	-75.5	0.0
2025-01-23 21:04:31.649345	235.2	12.3	-75.5	0.0
2025-01-23 21:04:32.773042	235.3	12.4	-75.4	0.0
2025-01-23 21:04:33.897367	235.5	12.5	-75.4	0.0
2025-01-23 21:04:35.020709	235.7	12.5	-75.3	0.0
2025-01-23 21:04:36.144584	235.9	12.6	-75.6	0.0
2025-01-23 21:04:37.267960	236.0	12.6	-75.2	0.0
2025-01-23 21:04:38.391439	236.2	12.7	-75.4	0.0
2025-01-23 21:04:39.514640	236.4	12.8	-75.4	0.0
2025-01-23 21:04:40.639116	236.6	12.8	-75.3	0.0
2025-01-23 21:04:41.761578	236.8	12.9	-75.1	0.0
2025-01-23 21:04:42.882977	236.9	12.9	-75.2	0.0
2025-01-23 21:04:44.006823	237.1	13.0	-75.3	0.0
2025-01-23 21:04:45.130021	237.3	13.1	-75.0	0.0
2025-01-23 21:04:46.254292	237.5	13.1	-74.9	0.0
2025-01-23 21:04:47.377642	237.7	13.2	-75.4	0.0
2025-01-23 21:04:48.502210	237.8	13.2	-75.1	0.0
2025-01-23 21:04:49.626766	238.0	13.3	-75.2	0.0
2025-01-23 21:04:50.748618	238.2	13.4	-75.8	0.0
2025-01-23 21:04:51.870451	238.4	13.4	-75.2	0.0
2025-01-23 21:04:52.994482	238.6	13.5	-75.4	0.0
2025-01-23 21:04:54.117724	238.8	13.5	-75.3	0.0
2025-01-23 21:04:55.241519	239.0	13.6	-75.4	0.0
2025-01-23 21:04:56.365535	239.2	13.7	-75.4	0.0
2025-01-23 21:04:57.489889	239.3	13.7	-75.3	0.0
2025-01-23 21:04:58.613054	239.5	13.8	-75.6	0.0
2025-01-23 21:04:59.737492	239.7	13.8	-75.8	0.0
2025-01-23 21:05:00.860023	239.9	13.9	-75.3	0.0
2025-01-23 21:05:01.981949	240.1	14.0	-75.4	0.0
2025-01-23 21:05:03.106481	240.3	14.0	-75.6	0.0
2025-01-23 21:05:04.228805	240.5	14.1	-75.4	0.0
2025-01-23 21:05:05.351768	240.7	14.1	-75.8	0.0
2025-01-23 21:05:06.475752	240.9	14.2	-75.4	0.0
2025-01-23 21:05:07.597431	241.1	14.3	-75.4	0.0
2025-01-23 21:05:08.719722	241.3	14.3	-75.4	0.0
2025-01-23 21:05:09.844666	241.5	14.4	-75.8	0.0
2025-01-23 21:05:10.967177	241.7	14.4	-75.4	0.0
2025-01-23 21:05:12.090649	241.9	14.5	-75.5	0.0
2025-01-23 21:05:13.214425	242.1	14.5	-75.5	0.0
2025-01-23 21:05:14.337756	242.3	14.6	-75.3	0.0
2025-01-23 21:05:15.461379	242.5	14.7	-75.1	0.0
2025-01-23 21:05:16.584853	242.7	14.7	-75.8	0.0
2025-01-23 21:05:17.707545	242.9	14.8	-75.7	0.0
2025-01-23 21:05:18.828795	243.1	14.8	-75.8	0.0
2025-01-23 21:05:19.951884	243.3	14.9	-75.9	0.0
2025-01-23 21:05:21.075319	243.5	14.9	-75.6	0.0
2025-01-23 21:05:22.197401	243.7	15.0	-75.7	0.0
2025-01-23 21:05:23.320104	243.9	15.0	-75.6	0.0
2025-01-23 21:05:24.442372	244.1	15.1	-75.6	0.0
2025-01-23 21:05:25.564866	244.3	15.2	-75.6	0.0
2025-01-23 21:05:26.689833	244.5	15.2	-75.6	0.0
2025-01-23 21:05:27.811992	244.8	15.3	-75.3	0.0
2025-01-23 21:05:28.934432	245.0	15.3	-75.4	0.0
2025-01-23 21:05:30.057395	245.2	15.4	-75.6	0.0
2025-01-23 21:05:31.180101	245.4	15.4	-75.3	0.0
2025-01-23 21:05:32.303031	245.6	15.5	-75.3	0.0
2025-01-23 21:05:33.425322	245.8	15.5	-75.1	0.0
2025-01-23 21:05:34.549391	246.0	15.6	-75.3	0.0
2025-01-23 21:05:35.673439	246.2	15.6	-75.4	0.0
2025-01-23 21:05:36.798135	246.5	15.7	-75.6	0.0
2025-01-23 21:05:37.921180	246.7	15.7	-76.0	0.0
2025-01-23 21:05:39.043065	246.9	15.8	-75.6	0.0
2025-01-23 21:05:40.167408	247.1	15.8	-75.7	0.0
2025-01-23 21:05:41.289530	247.3	15.9	-75.7	0.0
2025-01-23 21:05:42.415154	247.5	15.9	-75.9	0.0
2025-01-23 21:05:43.537929	247.8	16.0	-76.1	0.0
2025-01-23 21:05:44.660830	248.0	16.0	-75.5	0.0
2025-01-23 21:05:45.784901	248.2	16.1	-75.6	0.0
2025-01-23 21:05:46.906946	248.4	16.1	-75.7	0.0
2025-01-23 21:05:48.028655	248.7	16.2	-75.7	0.0
2025-01-23 21:05:49.151910	248.9	16.2	-75.7	0.0
2025-01-23 21:05:50.272874	249.1	16.3	-75.6	0.0
2025-01-23 21:05:51.393398	249.3	16.3	-75.6	0.0
2025-01-23 21:05:52.516105	249.5	16.4	-75.5	0.0
2025-01-23 21:05:53.638558	249.8	16.4	-75.4	0.0
2025-01-23 21:05:54.761201	250.0	16.5	-75.2	0.0
2025-01-23 21:05:55.884455	250.2	16.5	-75.4	0.0
2025-01-23 21:05:57.008264	250.5	16.6	-75.8	0.0
2025-01-23 21:05:58.130276	250.7	16.6	-75.8	0.0
2025-01-23 21:05:59.253960	250.9	16.7	-76.1	0.0
2025-01-23 21:06:00.376015	251.1	16.7	-76.0	0.0
2025-01-23 21:06:01.498398	251.4	16.8	-76.3	0.0
2025-01-23 21:06:02.621432	251.6	16.8	-75.8	0.0
2025-01-23 21:06:03.743403	251.8	16.9	-76.3	0.0
2025-01-23 21:06:04.866470	252.1	16.9	-75.7	0.0
2025-01-23 21:06:05.989551	252.3	16.9	-75.6	0.0
2025-01-23 21:06:07.112322	252.5	17.0	-76.1	0.0
2025-01-23 21:06:08.235284	252.8	17.0	-75.6	0.0
2025-01-23 21:06:09.357765	253.0	17.1	-75.6	0.0
2025-01-23 21:06:10.481807	253.2	17.1	-75.7	0.0
2025-01-23 21:06:11.604418	253.5	17.2	-75.7	0.0
2025-01-23 21:06:12.725511	253.7	17.2	-75.7	0.0
2025-01-23 21:06:13.848990	254.0	17.2	-76.1	0.0
2025-01-23 21:06:14.972083	254.2	17.3	-76.3	0.0
2025-01-23 21:06:16.094396	254.4	17.3	-75.7	0.0
2025-01-23 21:06:17.217605	254.7	17.4	-75.7	0.0
2025-01-23 21:06:18.340108	254.9	17.4	-76.0	0.0
2025-01-23 21:06:19.462142	255.2	17.4	-75.8	0.0
2025-01-23 21:06:20.583581	255.4	17.5	-76.2	0.0
2025-01-23 21:06:21.708269	255.6	17.5	-75.4	0.0
2025-01-23 21:06:22.833204	255.9	17.5	-76.0	0.0
2025-01-23 21:06:23.956357	256.1	17.6	-76.2	0.0
2025-01-23 21:06:25.078831	256.4	17.6	-76.0	0.0
2025-01-23 21:06:26.202436	256.6	17.7	-75.8	0.0
2025-01-23 21:06:27.324888	256.9	17.7	-75.7	0.0
2025-01-23 21:06:28.449980	257.1	17.7	-76.1	0.0
2025-01-23 21:06:29.572936	257.4	17.8	-76.3	0.0
2025-01-23 21:06:30.696666	257.6	17.8	-75.9	0.0
2025-01-23 21:06:31.819241	257.9	17.8	-75.9	0.0
2025-01-23 21:06:32.941619	258.1	17.9	-75.7	0.0
2025-01-23 21:06:34.064837	258.3	17.9	-76.0	0.0
2025-01-23 21:06:35.184946	258.6	17.9	-75.8	0.0
2025-01-23 21:06:36.308196	258.8	18.0	-75.6	0.0
2025-01-23 21:06:37.430615	259.1	18.0	-75.8	0.0
2025-01-23 21:06:38.553079	259.3	18.0	-75.7	0.0
2025-01-23 21:06:39.677311	259.6	18.1	-75.9	0.0
2025-01-23 21:06:40.799420	259.9	18.1	-75.2	0.0
2025-01-23 21:06:41.921862	260.1	18.1	-75.7	0.0
2025-01-23 21:06:43.045061	260.4	18.1	-76.1	0.0
2025-01-23 21:06:44.169187	260.6	18.2	-75.9	0.0
2025-01-23 21:06:45.292659	260.9	18.2	-75.7	0.0
2025-01-23 21:06:46.416000	261.1	18.2	-75.3	0.0
2025-01-23 21:06:47.538080	261.4	18.3	-75.9	0.0
2025-01-23 21:06:48.658868	261.6	18.3	-75.7	0.0
2025-01-23 21:06:49.782384	261.9	18.3	-76.0	0.0
2025-01-23 21:06:50.904223	262.1	18.3	-76.0	0.0
2025-01-23 21:06:52.028308	262.4	18.4	-76.3	0.0
2025-01-23 21:06:53.152221	262.6	18.4	-76.0	0.0
2025-01-23 21:06:54.274981	262.9	18.4	-76.3	0.0
2025-01-23 21:06:55.399181	263.2	18.4	-76.6	0.0
2025-01-23 21:06:56.523334	263.4	18.4	-76.0	0.0
2025-01-23 21:06:57.644097	263.7	18.5	-75.8	0.0
2025-01-23 21:06:58.765651	263.9	18.5	-76.1	0.0
2025-01-23 21:06:59.889640	264.2	18.5	-75.5	0.0
2025-01-23 21:07:01.013503	264.5	18.5	-75.8	0.0
2025-01-23 21:07:02.136322	264.7	18.6	-76.0	0.0
2025-01-23 21:07:03.259372	265.0	18.6	-76.2	0.0
2025-01-23 21:07:04.383753	265.2	18.6	-76.5	0.0
2025-01-23 21:07:05.506433	265.5	18.6	-76.2	0.0
2025-01-23 21:07:06.631022	265.8	18.6	-76.2	0.0
2025-01-23 21:07:07.754156	266.0	18.6	-75.9	0.0
2025-01-23 21:07:08.878001	266.3	18.7	-76.2	0.0
2025-01-23 21:07:10.001525	266.5	18.7	-75.8	0.0
2025-01-23 21:07:11.125350	266.8	18.7	-76.1	0.0
2025-01-23 21:07:12.248055	267.1	18.7	-76.5	0.0
2025-01-23 21:07:13.369926	267.3	18.7	-76.5	0.0
2025-01-23 21:07:14.493053	267.6	18.7	-76.2	0.0
2025-01-23 21:07:15.614948	267.8	18.7	-76.1	0.0
2025-01-23 21:07:16.737332	268.1	18.8	-76.3	0.0
2025-01-23 21:07:17.858845	268.4	18.8	-75.9	0.0
2025-01-23 21:07:18.982569	268.6	18.8	-76.3	0.0
2025-01-23 21:07:20.105408	268.9	18.8	-76.0	0.0
2025-01-23 21:07:21.230894	269.2	18.8	-76.1	0.0
2025-01-23 21:07:22.353530	269.4	18.8	-76.4	0.0
2025-01-23 21:07:23.477748	269.7	18.8	-76.2	0.0
2025-01-23 21:07:24.600427	270.0	18.8	-76.3	0.0
2025-01-23 21:07:25.722067	270.2	18.8	-76.6	0.0
2025-01-23 21:07:26.842599	270.5	18.8	-76.2	0.0
2025-01-23 21:07:27.964697	270.7	18.9	-76.3	0.0
2025-01-23 21:07:29.085341	271.0	18.9	-76.2	0.0
2025-01-23 21:07:30.210208	271.3	18.9	-76.2	0.0
2025-01-23 21:07:31.334680	271.5	18.9	-76.6	0.0
2025-01-23 21:07:32.458491	271.8	18.9	-76.6	0.0
2025-01-23 21:07:33.581812	272.1	18.9	-76.2	0.0
2025-01-23 21:07:34.702923	272.3	18.9	-76.2	0.0
2025-01-23 21:07:35.827779	272.6	18.9	-76.0	0.0
2025-01-23 21:07:36.950690	272.9	18.9	-76.0	0.0
2025-01-23 21:07:38.074159	273.1	18.9	-76.0	0.0
2025-01-23 21:07:39.193818	273.4	18.9	-75.8	0.0
2025-01-23 21:07:40.315559	273.7	18.9	-76.4	0.0
2025-01-23 21:07:41.439502	273.9	18.9	-76.1	0.0
2025-01-23 21:07:42.563603	274.2	18.9	-76.5	0.0
2025-01-23 21:07:43.688506	274.5	18.9	-76.3	0.0
2025-01-23 21:07:44.811413	274.7	18.9	-76.3	0.0
2025-01-23 21:07:45.934545	275.0	18.9	-76.3	0.0
2025-01-23 21:07:47.057854	275.2	18.9	-76.4	0.0
2025-01-23 21:07:48.180624	275.5	18.9	-76.4	0.0
2025-01-23 21:07:49.301812	275.8	18.9	-76.4	0.0
2025-01-23 21:07:50.423398	276.0	18.9	-76.4	0.0
2025-01-23 21:07:51.548401	276.3	18.9	-75.9	0.0
2025-01-23 21:07:52.670166	276.6	18.8	-76.4	0.0
2025-01-23 21:07:53.793225	276.8	18.8	-76.1	0.0
2025-01-23 21:07:54.915694	277.1	18.8	-76.1	0.0
2025-01-23 21:07:56.039092	277.4	18.8	-76.0	0.0
2025-01-23 21:07:57.160934	277.6	18.8	-76.5	0.0
2025-01-23 21:07:58.282909	277.9	18.8	-76.3	0.0
2025-01-23 21:07:59.408032	278.2	18.8	-76.1	0.0
2025-01-23 21:08:00.530575	278.4	18.8	-75.9	0.0
2025-01-23 21:08:01.652702	278.7	18.8	-75.8	0.0
2025-01-23 21:08:02.775160	278.9	18.8	-76.2	0.0
2025-01-23 21:08:03.900507	279.2	18.7	-76.5	0.0
2025-01-23 21:08:05.022580	279.5	18.7	-76.6	0.0
2025-01-23 21:08:06.144869	279.7	18.7	-76.1	0.0
2025-01-23 21:08:07.268023	280.0	18.7	-76.7	0.0
2025-01-23 21:08:08.392426	280.3	18.7	-76.0	0.0
2025-01-23 21:08:09.514922	280.5	18.7	-76.2	0.0
2025-01-23 21:08:10.637779	280.8	18.7	-75.9	0.0
2025-01-23 21:08:11.760385	281.0	18.6	-75.8	0.0
2025-01-23 21:08:12.882231	281.3	18.6	-75.9	0.0
2025-01-23 21:08:14.005679	281.6	18.6	-76.1	0.0
2025-01-23 21:08:15.129195	281.8	18.6	-76.6	0.0
2025-01-23 21:08:16.253634	282.1	18.6	-76.4	0.0
2025-01-23 21:08:17.375873	282.3	18.5	-75.9	0.0
2025-01-23 21:08:18.498176	282.6	18.5	-76.3	0.0
2025-01-23 21:08:19.622803	282.9	18.5	-76.4	0.0
2025-01-23 21:08:20.745770	283.1	18.5	-76.5	0.0
2025-01-23 21:08:21.866961	283.4	18.5	-76.1	0.0
2025-01-23 21:08:22.989669	283.6	18.4	-76.3	0.0
2025-01-23 21:08:24.112304	283.9	18.4	-76.6	0.0
2025-01-23 21:08:25.234019	284.1	18.4	-76.0	0.0
2025-01-23 21:08:26.357936	284.4	18.4	-76.1	0.0
2025-01-23 21:08:27.481875	284.7	18.3	-76.1	0.0
2025-01-23 21:08:28.603152	284.9	18.3	-76.1	0.0
2025-01-23 21:08:29.727480	285.2	18.3	-76.2	0.0
2025-01-23 21:08:30.850673	285.4	18.3	-76.1	0.0
2025-01-23 21:08:31.974897	285.7	18.2	-76.1	0.0
2025-01-23 21:08:33.098624	285.9	18.2	-75.9	0.0
2025-01-23 21:08:34.220342	286.2	18.2	-76.3	0.0
2025-01-23 21:08:35.344095	286.4	18.2	-76.0	0.0
2025-01-23 21:08:36.466782	286.7	18.1	-75.9	0.0
2025-01-23 21:08:37.590390	286.9	18.1	-76.2	0.0
2025-01-23 21:08:38.714618	287.2	18.1	-76.7	0.0
2025-01-23 21:08:39.837086	287.4	18.0	-76.2	0.0
2025-01-23 21:08:40.960662	287.7	18.0	-76.4	0.0
2025-01-23 21:08:42.083853	287.9	18.0	-76.6	0.0
2025-01-23 21:08:43.207678	288.2	18.0	-76.3	0.0
2025-01-23 21:08:44.330726	288.4	17.9	-76.2	0.0
2025-01-23 21:08:45.451855	288.7	17.9	-76.1	0.0
2025-01-23 21:08:46.574408	288.9	17.9	-76.1	0.0
2025-01-23 21:08:47.697543	289.2	17.8	-76.3	0.0
2025-01-23 21:08:48.819912	289.4	17.8	-76.4	0.0
2025-01-23 21:08:49.941308	289.7	17.8	-76.2	0.0
2025-01-23 21:08:51.064415	289.9	17.7	-76.3	0.0
2025-01-23 21:08:52.187419	290.2	17.7	-76.2	0.0
2025-01-23 21:08:53.311068	290.4	17.6	-76.2	0.0
2025-01-23 21:08:54.433141	290.7	17.6	-76.2	0.0
2025-01-23 21:08:55.557749	290.9	17.6	-76.2	0.0
2025-01-23 21:08:56.680804	291.2	17.5	-76.2	0.0
2025-01-23 21:08:57.804244	291.4	17.5	-75.9	0.0
2025-01-23 21:08:58.926146	291.6	17.5	-76.2	0.0
2025-01-23 21:09:00.049997	291.9	17.4	-75.9	0.0
2025-01-23 21:09:01.173314	292.1	17.4	-76.5	0.0
2025-01-23 21:09:02.295658	292.4	17.3	-75.9	0.0
2025-01-23 21:09:03.417103	292.6	17.3	-75.1	0.0
2025-01-23 21:09:04.540147	292.8	17.3	-75.5	0.0
2025-01-23 21:09:05.661503	293.1	17.2	-76.2	0.0
2025-01-23 21:09:06.782810	293.3	17.2	-76.2	0.0
2025-01-23 21:09:07.904531	293.5	17.1	-76.0	0.0
2025-01-23 21:09:09.027879	293.8	17.1	-76.2	0.0
2025-01-23 21:09:10.151760	294.0	17.1	-76.4	0.0
2025-01-23 21:09:11.274626	294.3	17.0	-76.2	0.0
2025-01-23 21:09:12.396624	294.5	17.0	-76.2	0.0
2025-01-23 21:09:13.520184	294.7	16.9	-76.6	0.0
2025-01-23 21:09:14.643357	295.0	16.9	-76.0	0.0
2025-01-23 21:09:15.766242	295.2	16.8	-76.1	0.0
2025-01-23 21:09:16.888912	295.4	16.8	-75.7	0.0
2025-01-23 21:09:18.011021	295.7	16.8	-75.9	0.0
2025-01-23 21:09:19.135748	295.9	16.7	-76.2	0.0
2025-01-23 21:09:20.259032	296.1	16.7	-76.5	0.0
2025-01-23 21:09:21.379757	296.3	16.6	-76.1	0.0
2025-01-23 21:09:22.502959	296.6	16.6	-76.3	0.0
2025-01-23 21:09:23.627762	296.8	16.5	-76.1	0.0
2025-01-23 21:09:24.750842	297.0	16.5	-76.3	0.0
2025-01-23 21:09:25.872155	297.3	16.4	-76.3	0.0
2025-01-23 21:09:26.992377	297.5	16.4	-76.3	0.0
2025-01-23 21:09:28.116311	297.7	16.3	-76.2	0.0
2025-01-23 21:09:29.239055	297.9	16.3	-76.3	0.0
2025-01-23 21:09:30.360991	298.2	16.2	-76.2	0.0
2025-01-23 21:09:31.481874	298.4	16.2	-75.9	0.0
2025-01-23 21:09:32.604013	298.6	16.1	-75.9	0.0
2025-01-23 21:09:33.726541	298.8	16.1	-76.0	0.0
2025-01-23 21:09:34.848683	299.0	16.0	-76.1	0.0
2025-01-23 21:09:35.970778	299.3	16.0	-76.0	0.0
2025-01-23 21:09:37.095363	299.5	15.9	-76.4	0.0
2025-01-23 21:09:38.217405	299.7	15.9	-76.0	0.0
2025-01-23 21:09:39.341567	299.9	15.8	-76.1	0.0
2025-01-23 21:09:40.465401	300.1	15.8	-76.2	0.0
2025-01-23 21:09:41.588317	300.4	15.7	-76.2	0.0
2025-01-23 21:09:42.710060	300.6	15.7	-75.9	0.0
2025-01-23 21:09:43.833805	300.8	15.6	-76.0	0.0
2025-01-23 21:09:44.955592	301.0	15.6	-76.4	0.0
2025-01-23 21:09:46.077886	301.2	15.5	-76.1	0.0
2025-01-23 21:09:47.199841	301.4	15.5	-76.0	0.0
2025-01-23 21:09:48.323106	301.6	15.4	-76.1	0.0
2025-01-23 21:09:49.448541	301.9	15.4	-76.1	0.0
2025-01-23 21:09:50.570955	302.1	15.3	-76.1	0.0
2025-01-23 21:09:51.693263	302.3	15.3	-76.2	0.0
2025-01-23 21:09:52.817146	302.5	15.2	-76.2	0.0
2025-01-23 21:09:53.941111	302.7	15.2	-76.3	0.0
2025-01-23 21:09:55.064524	302.9	15.1	-76.4	0.0
2025-01-23 21:09:56.187004	303.1	15.0	-76.4	0.0
2025-01-23 21:09:57.309960	303.3	15.0	-76.4	0.0
2025-01-23 21:09:58.432303	303.5	14.9	-76.0	0.0
2025-01-23 21:09:59.555052	303.7	14.9	-76.1	0.0
2025-01-23 21:10:00.679301	303.9	14.8	-76.1	0.0
2025-01-23 21:10:01.804221	304.1	14.8	-76.4	0.0
2025-01-23 21:10:02.925746	304.3	14.7	-76.7	0.0
2025-01-23 21:10:04.047554	304.5	14.7	-76.3	0.0
2025-01-23 21:10:05.170796	304.7	14.6	-76.6	0.0
2025-01-23 21:10:06.292103	304.9	14.5	-76.1	0.0
2025-01-23 21:10:07.417166	305.1	14.5	-76.2	0.0
2025-01-23 21:10:08.540370	305.3	14.4	-76.4	0.0
2025-01-23 21:10:09.662918	305.5	14.4	-76.2	0.0
2025-01-23 21:10:10.784989	305.7	14.3	-76.8	0.0
2025-01-23 21:10:11.908184	305.9	14.3	-76.2	0.0
2025-01-23 21:10:13.031934	306.1	14.2	-76.7	0.0
2025-01-23 21:10:14.155814	306.3	14.1	-76.7	0.0
2025-01-23 21:10:15.278516	306.5	14.1	-76.2	0.0
2025-01-23 21:10:16.402908	306.7	14.0	-76.1	0.0
2025-01-23 21:10:17.525561	306.9	14.0	-76.0	0.0
2025-01-23 21:10:18.647838	307.1	13.9	-76.7	0.0
2025-01-23 21:10:19.770568	307.3	13.8	-76.0	0.0
2025-01-23 21:10:20.893348	307.5	13.8	-76.4	0.0
2025-01-23 21:10:22.015719	307.7	13.7	-76.1	0.0
2025-01-23 21:10:23.139030	307.9	13.7	-76.2	0.0
2025-01-23 21:10:24.263086	308.1	13.6	-76.9	0.0
2025-01-23 21:10:25.387107	308.2	13.6	-76.1	0.0
2025-01-23 21:10:26.512778	308.4	13.5	-76.0	0.0
2025-01-23 21:10:27.636439	308.6	13.4	-76.1	0.0
2025-01-23 21:10:28.758784	308.8	13.4	-76.3	0.0
2025-01-23 21:10:29.883560	309.0	13.3	-76.2	0.0
2025-01-23 21:10:31.006018	309.2	13.3	-76.1	0.0
2025-01-23 21:10:32.128823	309.4	13.2	-76.1	0.0
2025-01-23 21:10:33.252879	309.5	13.1	-76.5	0.0
2025-01-23 21:10:34.377618	309.7	13.1	-76.5	0.0
2025-01-23 21:10:35.500644	309.9	13.0	-76.4	0.0
2025-01-23 21:10:36.622118	310.1	13.0	-76.2	0.0
2025-01-23 21:10:37.743638	310.3	12.9	-76.7	0.0
2025-01-23 21:10:38.869372	310.4	12.8	-76.5	0.0
2025-01-23 21:10:39.991723	310.6	12.8	-76.5	0.0
2025-01-23 21:10:41.114687	310.8	12.7	-76.1	0.0
2025-01-23 21:10:42.238037	311.0	12.6	-76.0	0.0
2025-01-23 21:10:43.359832	311.2	12.6	-76.3	0.0
2025-01-23 21:10:44.483542	311.3	12.5	-76.4	0.0
2025-01-23 21:10:45.606543	311.5	12.5	-76.5	0.0
2025-01-23 21:10:46.730087	311.7	12.4	-76.6	0.0
2025-01-23 21:10:47.854670	311.9	12.3	-76.2	0.0
2025-01-23 21:10:48.975799	312.0	12.3	-76.1	0.0
2025-01-23 21:10:50.097364	312.2	12.2	-76.1	0.0
2025-01-23 21:10:51.220327	312.4	12.2	-76.1	0.0
2025-01-23 21:10:52.345187	312.5	12.1	-75.9	0.0
2025-01-23 21:10:53.469972	312.7	12.0	-76.4	0.0
2025-01-23 21:10:54.593381	312.9	12.0	-76.8	0.0
2025-01-23 21:10:55.716078	313.1	11.9	-76.1	0.0
2025-01-23 21:10:56.838913	313.2	11.8	-76.4	0.0
2025-01-23 21:10:57.959802	313.4	11.8	-76.5	0.0
2025-01-23 21:10:59.083672	313.6	11.7	-76.6	0.0
2025-01-23 21:11:00.210290	313.7	11.7	-76.4	0.0
2025-01-23 21:11:01.334288	313.9	11.6	-76.4	0.0
2025-01-23 21:11:02.455721	314.1	11.5	-76.7	0.0
2025-01-23 21:11:03.578593	314.2	11.5	-76.6	0.0
2025-01-23 21:11:04.703191	314.4	11.4	-77.2	0.0
2025-01-23 21:11:05.826704	314.5	11.3	-76.9	0.0
2025-01-23 21:11:06.947857	314.7	11.3	-76.8	0.0
2025-01-23 21:11:08.072620	314.9	11.2	-76.6	0.0
2025-01-23 21:11:09.195700	315.0	11.2	-76.7	0.0
2025-01-23 21:11:10.317055	315.2	11.1	-76.5	0.0
2025-01-23 21:11:11.441580	315.4	11.0	-76.3	0.0
2025-01-23 21:11:12.563925	315.5	11.0	-77.1	0.0
2025-01-23 21:11:13.685531	315.7	10.9	-76.6	0.0
2025-01-23 21:11:14.806550	315.8	10.8	-76.7	0.0
2025-01-23 21:11:15.930644	316.0	10.8	-76.4	0.0
2025-01-23 21:11:17.052385	316.1	10.7	-76.3	0.0
2025-01-23 21:11:18.176283	316.3	10.6	-76.4	0.0
2025-01-23 21:11:19.297218	316.4	10.6	-76.4	0.0
2025-01-23 21:11:20.421266	316.6	10.5	-76.5	0.0
2025-01-23 21:11:21.545777	316.8	10.5	-76.8	0.0
2025-01-23 21:11:22.670660	316.9	10.4	-76.4	0.0
2025-01-23 21:11:23.791774	317.1	10.3	-76.3	0.0
2025-01-23 21:11:24.916336	317.2	10.3	-76.5	0.0
2025-01-23 21:11:26.037953	317.4	10.2	-76.1	0.0
2025-01-23 21:11:27.160254	317.5	10.1	-76.8	0.0
2025-01-23 21:11:28.283179	317.7	10.1	-76.1	0.0
#Closed at: 2025-01-23 21:03:45.184016