passes_logs/2025/01/23/planumMaritime01/planumMaritime01__20250123_181904_METEOR-M2_3_rec.log

#Pass ID: 20250123_181904_METEOR-M2 3
#Satellite: METEOR-M2 3
#Configuration: METEOR-M2 3
#Start time: 2025-01-23 18:19:09.014425

#LorettStation: 1.0.0 05.05.2024
#Station: planumMaritime01
#Location: 37.49445 lon 55.92918 lat
#TLE: 1 57166U 23091A   25022.21022386  .00000083  00000+0  55255-4 0  9991
#TLE: 2 57166  98.6839  80.5850 0003565 200.3362 159.7676 14.23971113 81799

#Time	Az	El	Level	SNR
2025-01-23 18:19:11.179274	180.1	10.2	-75.6	0.0
2025-01-23 18:19:13.422318	180.2	10.4	-75.5	0.0
2025-01-23 18:19:15.669338	180.3	10.6	-75.5	0.0
2025-01-23 18:19:17.919833	180.4	10.8	-76.2	0.0
2025-01-23 18:19:20.166128	180.5	11.0	-76.2	0.0
2025-01-23 18:19:22.409478	180.6	11.2	-76.4	0.0
2025-01-23 18:19:24.653183	180.7	11.4	-75.4	0.0
2025-01-23 18:19:26.901508	180.8	11.6	-75.5	0.0
2025-01-23 18:19:29.151072	180.9	11.8	-75.9	0.0
2025-01-23 18:19:31.394722	181.0	12.0	-75.7	0.0
2025-01-23 18:19:33.639804	181.2	12.2	-75.3	0.0
2025-01-23 18:19:35.884670	181.3	12.4	-75.4	0.0
2025-01-23 18:19:38.128365	181.4	12.6	-74.9	0.0
2025-01-23 18:19:40.373953	181.5	12.8	-75.6	0.0
2025-01-23 18:19:42.618176	181.6	13.0	-75.8	0.0
2025-01-23 18:19:44.861578	181.7	13.3	-76.0	0.0
2025-01-23 18:19:47.102930	181.9	13.5	-76.2	0.0
2025-01-23 18:19:49.350686	182.0	13.7	-75.9	0.0
2025-01-23 18:19:51.596326	182.1	13.9	-75.4	0.0
2025-01-23 18:19:53.843187	182.2	14.1	-75.4	0.0
2025-01-23 18:19:56.088730	182.4	14.4	-75.4	0.0
2025-01-23 18:19:58.334123	182.5	14.6	-75.5	0.0
2025-01-23 18:20:00.578734	182.6	14.8	-76.3	0.0
2025-01-23 18:20:02.825154	182.8	15.1	-76.4	0.0
2025-01-23 18:20:05.069389	182.9	15.3	-76.7	0.0
2025-01-23 18:20:07.317212	183.1	15.5	-75.7	0.0
2025-01-23 18:20:09.563826	183.2	15.8	-75.5	0.0
2025-01-23 18:20:11.811348	183.3	16.0	-75.7	0.0
2025-01-23 18:20:14.056814	183.5	16.3	-75.1	0.0
2025-01-23 18:20:16.304121	183.6	16.5	-76.3	0.0
2025-01-23 18:20:18.549785	183.8	16.8	-75.4	0.0
2025-01-23 18:20:20.798914	183.9	17.0	-75.2	0.0
2025-01-23 18:20:23.046329	184.1	17.3	-75.1	0.0
2025-01-23 18:20:25.292231	184.3	17.5	-76.1	0.0
2025-01-23 18:20:27.539120	184.4	17.8	-76.2	0.0
2025-01-23 18:20:29.784763	184.6	18.0	-75.7	0.0
2025-01-23 18:20:32.033013	184.7	18.3	-76.0	0.0
2025-01-23 18:20:34.277802	184.9	18.6	-75.2	0.0
2025-01-23 18:20:36.524066	185.1	18.8	-75.7	0.0
2025-01-23 18:20:38.769838	185.3	19.1	-75.6	0.0
2025-01-23 18:20:41.014726	185.4	19.4	-76.1	0.0
2025-01-23 18:20:43.262546	185.6	19.6	-76.7	0.0
2025-01-23 18:20:45.509136	185.8	19.9	-75.9	0.0
2025-01-23 18:20:47.753192	186.0	20.2	-75.8	0.0
2025-01-23 18:20:50.001145	186.2	20.5	-74.9	0.0
2025-01-23 18:20:52.245247	186.4	20.8	-75.4	0.0
2025-01-23 18:20:54.489790	186.6	21.1	-75.2	0.0
2025-01-23 18:20:56.735946	186.8	21.4	-75.2	0.0
2025-01-23 18:20:58.982382	187.0	21.7	-75.6	0.0
2025-01-23 18:21:01.228939	187.2	22.0	-75.8	0.0
2025-01-23 18:21:03.476144	187.4	22.3	-76.5	0.0
2025-01-23 18:21:05.721586	187.6	22.6	-77.1	0.0
2025-01-23 18:21:07.967406	187.8	22.9	-75.6	0.0
2025-01-23 18:21:10.211716	188.1	23.2	-75.1	0.0
2025-01-23 18:21:12.458117	188.3	23.5	-75.9	0.0
2025-01-23 18:21:14.705132	188.5	23.8	-75.8	0.0
2025-01-23 18:21:16.951361	188.8	24.2	-76.7	0.0
2025-01-23 18:21:19.197246	189.0	24.5	-76.9	0.0
2025-01-23 18:21:21.445229	189.3	24.8	-76.3	0.0
2025-01-23 18:21:23.690625	189.5	25.2	-77.0	0.0
2025-01-23 18:21:25.936131	189.8	25.5	-75.0	0.0
2025-01-23 18:21:28.180408	190.1	25.9	-77.5	0.0
2025-01-23 18:21:30.425627	190.3	26.2	-76.8	0.0
2025-01-23 18:21:32.670519	190.6	26.6	-76.4	0.0
2025-01-23 18:21:34.917213	190.9	26.9	-77.7	0.0
2025-01-23 18:21:37.163829	191.2	27.3	-77.6	0.0
2025-01-23 18:21:39.409712	191.5	27.6	-77.6	0.0
2025-01-23 18:21:41.655707	191.8	28.0	-77.2	0.0
2025-01-23 18:21:43.902648	192.1	28.4	-76.5	0.0
2025-01-23 18:21:46.148254	192.4	28.7	-76.5	0.0
2025-01-23 18:21:48.397232	192.7	29.1	-77.1	0.0
2025-01-23 18:21:50.643537	193.1	29.5	-77.0	0.0
2025-01-23 18:21:52.887702	193.4	29.9	-77.3	0.0
2025-01-23 18:21:55.135410	193.7	30.3	-77.4	0.0
2025-01-23 18:21:57.380549	194.1	30.7	-76.8	0.0
2025-01-23 18:21:59.625569	194.5	31.1	-77.4	0.0
2025-01-23 18:22:01.872327	194.8	31.5	-77.6	0.0
2025-01-23 18:22:04.119298	195.2	31.9	-77.4	0.0
2025-01-23 18:22:06.366386	195.6	32.3	-76.7	0.0
2025-01-23 18:22:08.613914	196.0	32.7	-77.4	0.0
2025-01-23 18:22:10.858262	196.4	33.2	-76.7	0.0
2025-01-23 18:22:13.103969	196.9	33.6	-77.5	0.0
2025-01-23 18:22:15.349071	197.3	34.0	-76.0	0.0
2025-01-23 18:22:17.598749	197.7	34.5	-77.0	0.0
2025-01-23 18:22:19.845761	198.2	34.9	-77.5	0.0
2025-01-23 18:22:22.092453	198.7	35.3	-75.9	0.0
2025-01-23 18:22:24.336719	199.2	35.8	-77.2	0.0
2025-01-23 18:22:26.580488	199.6	36.2	-76.6	0.0
2025-01-23 18:22:28.826013	200.2	36.7	-77.8	0.0
2025-01-23 18:22:31.071108	200.7	37.2	-76.6	0.0
2025-01-23 18:22:33.316723	201.2	37.6	-77.0	0.0
2025-01-23 18:22:35.559069	201.8	38.1	-77.0	0.0
2025-01-23 18:22:37.807123	202.4	38.6	-78.0	0.0
2025-01-23 18:22:40.052628	202.9	39.0	-77.4	0.0
2025-01-23 18:22:42.299232	203.5	39.5	-78.2	0.0
2025-01-23 18:22:44.543507	204.2	40.0	-77.5	0.0
2025-01-23 18:22:46.786609	204.8	40.5	-77.7	0.0
2025-01-23 18:22:49.035873	205.5	41.0	-77.7	0.0
2025-01-23 18:22:51.282173	206.1	41.5	-77.9	0.0
2025-01-23 18:22:53.526563	206.8	41.9	-77.5	0.0
2025-01-23 18:22:55.772685	207.6	42.4	-77.3	0.0
2025-01-23 18:22:58.021138	208.3	42.9	-77.7	0.0
2025-01-23 18:23:00.266055	209.1	43.4	-77.5	0.0
2025-01-23 18:23:02.512766	209.9	43.9	-77.1	0.0
2025-01-23 18:23:04.759233	210.7	44.4	-76.2	0.0
2025-01-23 18:23:07.012317	211.5	44.9	-77.2	0.0
2025-01-23 18:23:09.259525	212.4	45.4	-77.5	0.0
2025-01-23 18:23:11.507221	213.3	45.9	-76.3	0.0
2025-01-23 18:23:13.753384	214.2	46.4	-76.9	0.0
2025-01-23 18:23:16.000328	215.2	46.9	-78.2	0.0
2025-01-23 18:23:18.245482	216.2	47.4	-76.8	0.0
2025-01-23 18:23:20.494202	217.2	47.9	-77.5	0.0
2025-01-23 18:23:22.741442	218.2	48.4	-77.6	0.0
2025-01-23 18:23:24.987780	219.3	48.8	-77.7	0.0
2025-01-23 18:23:27.234507	220.4	49.3	-77.8	0.0
2025-01-23 18:23:29.482953	221.6	49.8	-78.0	0.0
2025-01-23 18:23:31.728266	222.7	50.2	-77.8	0.0
2025-01-23 18:23:33.975037	224.0	50.7	-77.3	0.0
2025-01-23 18:23:36.221091	225.2	51.1	-77.9	0.0
2025-01-23 18:23:38.466402	226.5	51.5	-77.3	0.0
2025-01-23 18:23:40.712668	227.8	51.9	-77.6	0.0
2025-01-23 18:23:42.955179	229.2	52.3	-77.8	0.0
2025-01-23 18:23:45.201555	230.6	52.7	-78.3	0.0
2025-01-23 18:23:47.448304	232.0	53.1	-78.1	0.0
2025-01-23 18:23:49.694523	233.5	53.4	-77.9	0.0
2025-01-23 18:23:51.939004	235.0	53.8	-77.4	0.0
2025-01-23 18:23:54.183233	236.5	54.1	-77.5	0.0
2025-01-23 18:23:56.431142	238.1	54.4	-76.8	0.0
2025-01-23 18:23:58.674576	239.7	54.7	-76.6	0.0
2025-01-23 18:24:00.920041	241.3	55.0	-78.0	0.0
2025-01-23 18:24:03.168057	243.0	55.2	-78.2	0.0
2025-01-23 18:24:05.412751	244.7	55.4	-78.1	0.0
2025-01-23 18:24:07.656710	246.4	55.6	-78.1	0.0
2025-01-23 18:24:09.900283	248.1	55.8	-77.9	0.0
2025-01-23 18:24:12.145842	249.9	55.9	-78.1	0.0
2025-01-23 18:24:14.393524	251.7	56.0	-78.0	0.0
2025-01-23 18:24:16.638918	253.5	56.1	-77.7	0.0
2025-01-23 18:24:18.886182	255.2	56.2	-77.5	0.0
2025-01-23 18:24:21.132990	257.1	56.2	-76.9	0.0
2025-01-23 18:24:23.379163	258.9	56.2	-77.9	0.0
2025-01-23 18:24:25.622574	260.7	56.2	-77.4	0.0
2025-01-23 18:24:27.867881	262.5	56.2	-77.2	0.0
2025-01-23 18:24:30.114017	264.3	56.1	-77.6	0.0
2025-01-23 18:24:32.359010	266.0	56.0	-77.3	0.0
2025-01-23 18:24:34.603555	267.8	55.9	-77.0	0.0
2025-01-23 18:24:36.847581	269.6	55.7	-78.2	0.0
2025-01-23 18:24:39.089666	271.3	55.6	-77.7	0.0
2025-01-23 18:24:41.336005	273.0	55.4	-78.1	0.0
2025-01-23 18:24:43.582749	274.7	55.2	-77.9	0.0
2025-01-23 18:24:45.825606	276.3	54.9	-76.9	0.0
2025-01-23 18:24:48.072291	278.0	54.6	-77.3	0.0
2025-01-23 18:24:50.315371	279.6	54.4	-77.2	0.0
2025-01-23 18:24:52.564944	281.1	54.0	-77.6	0.0
2025-01-23 18:24:54.810319	282.7	53.7	-77.3	0.0
2025-01-23 18:24:57.055410	284.1	53.4	-77.1	0.0
2025-01-23 18:24:59.302197	285.6	53.0	-76.8	0.0
2025-01-23 18:25:01.548540	287.0	52.6	-77.3	0.0
2025-01-23 18:25:03.797251	288.4	52.3	-77.7	0.0
2025-01-23 18:25:06.043748	289.8	51.9	-77.0	0.0
2025-01-23 18:25:08.287261	291.1	51.4	-76.7	0.0
2025-01-23 18:25:10.533967	292.4	51.0	-77.6	0.0
2025-01-23 18:25:12.783464	293.6	50.6	-76.6	0.0
2025-01-23 18:25:15.030252	294.8	50.1	-77.0	0.0
2025-01-23 18:25:17.274140	296.0	49.7	-77.3	0.0
2025-01-23 18:25:19.522914	297.1	49.2	-76.4	0.0
2025-01-23 18:25:21.769296	298.2	48.7	-76.2	0.0
2025-01-23 18:25:24.013351	299.3	48.3	-76.4	0.0
2025-01-23 18:25:26.259201	300.3	47.8	-76.9	0.0
2025-01-23 18:25:28.507798	301.3	47.3	-76.0	0.0
2025-01-23 18:25:30.752371	302.3	46.8	-76.9	0.0
2025-01-23 18:25:32.997186	303.2	46.3	-76.1	0.0
2025-01-23 18:25:35.244271	304.2	45.8	-76.6	0.0
2025-01-23 18:25:37.491054	305.1	45.4	-76.5	0.0
2025-01-23 18:25:39.735118	305.9	44.9	-76.8	0.0
2025-01-23 18:25:41.977610	306.7	44.4	-75.9	0.0
2025-01-23 18:25:44.222202	307.6	43.9	-76.1	0.0
2025-01-23 18:25:46.467118	308.3	43.4	-76.6	0.0
2025-01-23 18:25:48.710849	309.1	42.9	-76.2	0.0
2025-01-23 18:25:50.957109	309.8	42.4	-75.7	0.0
2025-01-23 18:25:53.203424	310.6	41.9	-76.5	0.0
2025-01-23 18:25:55.448943	311.3	41.4	-76.9	0.0
2025-01-23 18:25:57.693835	311.9	40.9	-77.0	0.0
2025-01-23 18:25:59.940693	312.6	40.4	-76.4	0.0
2025-01-23 18:26:02.184468	313.2	40.0	-77.5	0.0
2025-01-23 18:26:04.431163	313.8	39.5	-76.4	0.0
2025-01-23 18:26:06.676902	314.4	39.0	-76.2	0.0
2025-01-23 18:26:08.921964	315.0	38.5	-77.3	0.0
2025-01-23 18:26:11.166682	315.6	38.1	-77.4	0.0
2025-01-23 18:26:13.410909	316.2	37.6	-78.0	0.0
2025-01-23 18:26:15.653516	316.7	37.1	-77.5	0.0
2025-01-23 18:26:17.896593	317.2	36.7	-76.9	0.0
2025-01-23 18:26:20.142273	317.7	36.2	-76.6	0.0
2025-01-23 18:26:22.387048	318.2	35.8	-77.6	0.0
2025-01-23 18:26:24.631820	318.7	35.3	-76.6	0.0
2025-01-23 18:26:26.879243	319.2	34.9	-77.8	0.0
2025-01-23 18:26:29.125099	319.6	34.5	-77.4	0.0
2025-01-23 18:26:31.370216	320.1	34.0	-78.1	0.0
2025-01-23 18:26:33.614569	320.5	33.6	-77.5	0.0
2025-01-23 18:26:35.860928	320.9	33.2	-77.8	0.0
2025-01-23 18:26:38.105720	321.3	32.7	-78.0	0.0
2025-01-23 18:26:40.349713	321.7	32.3	-78.1	0.0
2025-01-23 18:26:42.596148	322.1	31.9	-77.6	0.0
2025-01-23 18:26:44.841330	322.5	31.5	-78.4	0.0
2025-01-23 18:26:47.087469	322.9	31.1	-78.4	0.0
2025-01-23 18:26:49.332408	323.2	30.7	-78.5	0.0
2025-01-23 18:26:51.578681	323.6	30.3	-78.2	0.0
2025-01-23 18:26:53.823626	323.9	29.9	-78.0	0.0
2025-01-23 18:26:56.067460	324.3	29.5	-78.5	0.0
2025-01-23 18:26:58.312329	324.6	29.2	-78.0	0.0
2025-01-23 18:27:00.558406	324.9	28.8	-78.5	0.0
2025-01-23 18:27:02.805028	325.2	28.4	-77.7	0.0
2025-01-23 18:27:05.052942	325.6	28.0	-78.1	0.0
2025-01-23 18:27:07.295829	325.9	27.7	-77.8	0.0
2025-01-23 18:27:09.540079	326.1	27.3	-77.7	0.0
2025-01-23 18:27:11.787917	326.4	27.0	-78.0	0.0
2025-01-23 18:27:14.030575	326.7	26.6	-78.3	0.0
2025-01-23 18:27:16.277667	327.0	26.3	-77.4	0.0
2025-01-23 18:27:18.520512	327.3	25.9	-77.8	0.0
2025-01-23 18:27:20.767066	327.5	25.6	-78.4	0.0
2025-01-23 18:27:23.012934	327.8	25.2	-78.5	0.0
2025-01-23 18:27:25.256543	328.1	24.9	-78.4	0.0
2025-01-23 18:27:27.504971	328.3	24.6	-78.4	0.0
2025-01-23 18:27:29.747055	328.5	24.2	-78.3	0.0
2025-01-23 18:27:31.993533	328.8	23.9	-78.4	0.0
2025-01-23 18:27:34.239806	329.0	23.6	-78.4	0.0
2025-01-23 18:27:36.485252	329.3	23.3	-78.5	0.0
2025-01-23 18:27:38.729522	329.5	23.0	-77.5	0.0
2025-01-23 18:27:40.975152	329.7	22.7	-78.1	0.0
2025-01-23 18:27:43.219528	329.9	22.4	-76.6	0.0
2025-01-23 18:27:45.465096	330.1	22.1	-77.4	0.0
2025-01-23 18:27:47.707679	330.3	21.8	-77.8	0.0
2025-01-23 18:27:49.952835	330.5	21.5	-77.2	0.0
2025-01-23 18:27:52.196036	330.7	21.2	-77.6	0.0
2025-01-23 18:27:54.443403	330.9	20.9	-77.8	0.0
2025-01-23 18:27:56.691197	331.1	20.6	-76.5	0.0
2025-01-23 18:27:58.933719	331.3	20.3	-77.4	0.0
2025-01-23 18:28:01.176337	331.5	20.0	-77.4	0.0
2025-01-23 18:28:03.419673	331.7	19.8	-77.5	0.0
2025-01-23 18:28:05.664458	331.9	19.5	-76.7	0.0
2025-01-23 18:28:07.910980	332.1	19.2	-76.6	0.0
2025-01-23 18:28:10.157654	332.2	18.9	-76.5	0.0
2025-01-23 18:28:12.405019	332.4	18.7	-77.7	0.0
2025-01-23 18:28:14.650614	332.6	18.4	-77.0	0.0
2025-01-23 18:28:16.896930	332.8	18.1	-75.8	0.0
2025-01-23 18:28:19.141602	332.9	17.9	-78.2	0.0
2025-01-23 18:28:21.385466	333.1	17.6	-77.5	0.0
2025-01-23 18:28:23.634128	333.2	17.4	-77.2	0.0
2025-01-23 18:28:25.878426	333.4	17.1	-78.0	0.0
2025-01-23 18:28:28.124440	333.6	16.9	-77.1	0.0
2025-01-23 18:28:30.371371	333.7	16.6	-77.6	0.0
2025-01-23 18:28:32.617711	333.9	16.4	-77.9	0.0
2025-01-23 18:28:34.864172	334.0	16.1	-76.9	0.0
2025-01-23 18:28:37.109694	334.1	15.9	-77.5	0.0
2025-01-23 18:28:39.360051	334.3	15.7	-77.2	0.0
2025-01-23 18:28:41.608503	334.4	15.4	-77.2	0.0
2025-01-23 18:28:43.850514	334.6	15.2	-78.0	0.0
2025-01-23 18:28:46.096660	334.7	15.0	-78.1	0.0
2025-01-23 18:28:48.339754	334.8	14.7	-77.3	0.0
2025-01-23 18:28:50.583256	335.0	14.5	-77.0	0.0
2025-01-23 18:28:52.828890	335.1	14.3	-77.5	0.0
2025-01-23 18:28:55.076469	335.2	14.1	-77.4	0.0
2025-01-23 18:28:57.319852	335.4	13.8	-77.2	0.0
2025-01-23 18:28:59.566409	335.5	13.6	-77.1	0.0
2025-01-23 18:29:01.813244	335.6	13.4	-78.0	0.0
2025-01-23 18:29:04.060526	335.7	13.2	-78.5	0.0
2025-01-23 18:29:06.306880	335.9	13.0	-77.7	0.0
2025-01-23 18:29:08.554485	336.0	12.8	-78.7	0.0
2025-01-23 18:29:10.802416	336.1	12.5	-77.7	0.0
2025-01-23 18:29:13.048589	336.2	12.3	-77.6	0.0
2025-01-23 18:29:15.295744	336.3	12.1	-77.9	0.0
2025-01-23 18:29:17.541037	336.4	11.9	-77.8	0.0
2025-01-23 18:29:19.788631	336.6	11.7	-77.5	0.0
2025-01-23 18:29:22.034273	336.7	11.5	-77.4	0.0
2025-01-23 18:29:24.279340	336.8	11.3	-76.9	0.0
2025-01-23 18:29:26.524664	336.9	11.1	-77.8	0.0
2025-01-23 18:29:28.769548	337.0	10.9	-77.2	0.0
2025-01-23 18:29:31.012531	337.1	10.7	-77.5	0.0
2025-01-23 18:29:33.257152	337.2	10.5	-77.1	0.0
2025-01-23 18:29:35.503170	337.3	10.3	-76.5	0.0
2025-01-23 18:29:37.750272	337.4	10.1	-78.0	0.0
#Closed at: 2025-01-23 18:19:04.023394