passes_logs/2025/01/23/planumMaritime01/planumMaritime01__20250123_070927_METOP-B_rec.log

#Pass ID: 20250123_070927_METOP-B
#Satellite: METOP-B
#Configuration: METOP-B
#Start time: 2025-01-23 07:09:32.125118

#LorettStation: 1.0.0 05.05.2024
#Station: planumMaritime01
#Location: 37.49445 lon 55.92918 lat
#TLE: 1 38771U 12049A   25022.22192915  .00000342  00000+0  17605-3 0  9994
#TLE: 2 38771  98.6000  80.1937 0001632  73.2603 286.8754 14.21415579640663

#Time	Az	El	Level	SNR
2025-01-23 07:09:34.285183	20.2	10.2	-71.7	0.0
2025-01-23 07:09:36.542919	20.2	10.4	-68.7	0.0
2025-01-23 07:09:38.797645	20.3	10.6	-68.7	0.0
2025-01-23 07:09:41.051231	20.4	10.8	-70.1	0.0
2025-01-23 07:09:43.304481	20.4	11.0	-70.7	0.0
2025-01-23 07:09:45.557392	20.5	11.2	-68.8	0.0
2025-01-23 07:09:47.809107	20.6	11.4	-70.4	0.0
2025-01-23 07:09:50.064560	20.7	11.6	-68.2	0.0
2025-01-23 07:09:52.316144	20.7	11.8	-69.2	0.0
2025-01-23 07:09:54.570538	20.8	12.0	-71.2	0.0
2025-01-23 07:09:56.824466	20.9	12.2	-71.5	0.0
2025-01-23 07:09:59.077720	21.0	12.4	-72.2	0.0
2025-01-23 07:10:01.331725	21.0	12.6	-73.0	0.0
2025-01-23 07:10:03.584631	21.1	12.9	-71.4	0.0
2025-01-23 07:10:05.838556	21.2	13.1	-72.9	0.0
2025-01-23 07:10:08.091390	21.3	13.3	-72.0	0.0
2025-01-23 07:10:10.344212	21.4	13.5	-71.6	0.0
2025-01-23 07:10:12.597632	21.4	13.7	-71.5	0.0
2025-01-23 07:10:14.850832	21.5	14.0	-72.5	0.0
2025-01-23 07:10:17.103650	21.6	14.2	-72.8	0.0
2025-01-23 07:10:19.357114	21.7	14.4	-68.6	0.0
2025-01-23 07:10:21.614236	21.8	14.6	-72.3	0.0
2025-01-23 07:10:23.866150	21.9	14.9	-70.0	0.0
2025-01-23 07:10:26.121932	22.0	15.1	-73.1	0.0
2025-01-23 07:10:28.375151	22.0	15.4	-72.4	0.0
2025-01-23 07:10:30.631691	22.1	15.6	-67.1	0.0
2025-01-23 07:10:32.886261	22.2	15.8	-67.7	0.0
2025-01-23 07:10:35.142550	22.3	16.1	-73.4	0.0
2025-01-23 07:10:37.397312	22.4	16.3	-73.2	0.0
2025-01-23 07:10:39.649955	22.5	16.6	-70.5	0.0
2025-01-23 07:10:41.904753	22.6	16.8	-72.2	0.0
2025-01-23 07:10:44.158183	22.7	17.1	-72.0	0.0
2025-01-23 07:10:46.409314	22.8	17.3	-68.9	0.0
2025-01-23 07:10:48.661446	22.9	17.6	-68.0	0.0
2025-01-23 07:10:50.915348	23.0	17.9	-64.8	0.0
2025-01-23 07:10:53.168228	23.1	18.1	-63.5	0.0
2025-01-23 07:10:55.420239	23.3	18.4	-68.8	0.0
2025-01-23 07:10:57.673497	23.4	18.7	-68.4	0.0
2025-01-23 07:10:59.923868	23.5	19.0	-69.4	0.0
2025-01-23 07:11:02.180400	23.6	19.2	-70.3	0.0
2025-01-23 07:11:04.429791	23.7	19.5	-71.0	0.0
2025-01-23 07:11:06.685951	23.8	19.8	-69.1	0.0
2025-01-23 07:11:08.939920	24.0	20.1	-69.2	0.0
2025-01-23 07:11:11.194524	24.1	20.4	-68.7	0.0
2025-01-23 07:11:13.447013	24.2	20.7	-69.6	0.0
2025-01-23 07:11:15.700543	24.3	21.0	-67.0	0.0
2025-01-23 07:11:17.954246	24.5	21.3	-68.4	0.0
2025-01-23 07:11:20.210733	24.6	21.6	-68.1	0.0
2025-01-23 07:11:22.463930	24.7	21.9	-68.3	0.0
2025-01-23 07:11:24.714168	24.9	22.2	-68.8	0.0
2025-01-23 07:11:26.967692	25.0	22.5	-69.0	0.0
2025-01-23 07:11:29.221728	25.1	22.8	-70.2	0.0
2025-01-23 07:11:31.475107	25.3	23.2	-70.3	0.0
2025-01-23 07:11:33.728630	25.4	23.5	-69.8	0.0
2025-01-23 07:11:35.982403	25.6	23.8	-70.7	0.0
2025-01-23 07:11:38.236811	25.7	24.1	-72.7	0.0
2025-01-23 07:11:40.489559	25.9	24.5	-69.6	0.0
2025-01-23 07:11:42.743689	26.1	24.8	-69.2	0.0
2025-01-23 07:11:44.996086	26.2	25.2	-70.9	0.0
2025-01-23 07:11:47.253142	26.4	25.5	-70.8	0.0
2025-01-23 07:11:49.505361	26.6	25.9	-71.3	0.0
2025-01-23 07:11:51.756878	26.7	26.3	-71.0	0.0
2025-01-23 07:11:54.010334	26.9	26.6	-71.1	0.0
2025-01-23 07:11:56.265805	27.1	27.0	-71.5	0.0
2025-01-23 07:11:58.518237	27.3	27.4	-73.2	0.0
2025-01-23 07:12:00.770040	27.5	27.7	-72.2	0.0
2025-01-23 07:12:03.022028	27.7	28.1	-71.8	0.0
2025-01-23 07:12:05.275430	27.9	28.5	-70.2	0.0
2025-01-23 07:12:07.525293	28.1	28.9	-71.1	0.0
2025-01-23 07:12:09.777517	28.3	29.3	-72.1	0.0
2025-01-23 07:12:12.030555	28.5	29.7	-72.2	0.0
2025-01-23 07:12:14.280329	28.7	30.1	-72.1	0.0
2025-01-23 07:12:16.539909	29.0	30.6	-71.4	0.0
2025-01-23 07:12:18.792547	29.2	31.0	-66.8	0.0
2025-01-23 07:12:21.044835	29.4	31.4	-72.0	0.0
2025-01-23 07:12:23.300764	29.7	31.9	-71.7	0.0
2025-01-23 07:12:25.554667	29.9	32.3	-71.0	0.0
2025-01-23 07:12:27.807831	30.2	32.7	-70.9	0.0
2025-01-23 07:12:30.061164	30.4	33.2	-71.2	0.0
2025-01-23 07:12:32.315290	30.7	33.7	-69.4	0.0
2025-01-23 07:12:34.571743	31.0	34.1	-68.2	0.0
2025-01-23 07:12:36.824629	31.3	34.6	-72.4	0.0
2025-01-23 07:12:39.080944	31.6	35.1	-71.4	0.0
2025-01-23 07:12:41.331471	31.9	35.6	-71.6	0.0
2025-01-23 07:12:43.586082	32.2	36.1	-69.9	0.0
2025-01-23 07:12:45.838461	32.5	36.6	-70.2	0.0
2025-01-23 07:12:48.093258	32.8	37.1	-69.9	0.0
2025-01-23 07:12:50.346030	33.2	37.6	-71.2	0.0
2025-01-23 07:12:52.598306	33.5	38.1	-66.4	0.0
2025-01-23 07:12:54.850823	33.9	38.6	-70.9	0.0
2025-01-23 07:12:57.106565	34.3	39.2	-71.1	0.0
2025-01-23 07:12:59.360037	34.7	39.7	-70.5	0.0
2025-01-23 07:13:01.612732	35.1	40.3	-72.9	0.0
2025-01-23 07:13:03.864004	35.5	40.8	-73.0	0.0
2025-01-23 07:13:06.116568	35.9	41.4	-72.6	0.0
2025-01-23 07:13:08.370453	36.4	42.0	-74.0	0.0
2025-01-23 07:13:10.624527	36.8	42.5	-74.4	0.0
2025-01-23 07:13:12.880023	37.3	43.1	-74.8	0.0
2025-01-23 07:13:15.134165	37.8	43.7	-75.2	0.0
2025-01-23 07:13:17.391808	38.3	44.3	-75.4	0.0
2025-01-23 07:13:19.647604	38.8	44.9	-76.3	0.0
2025-01-23 07:13:21.903355	39.4	45.5	-75.8	0.0
2025-01-23 07:13:24.162131	40.0	46.2	-76.1	0.0
2025-01-23 07:13:26.416579	40.6	46.8	-75.7	0.0
2025-01-23 07:13:28.671966	41.2	47.4	-75.5	0.0
2025-01-23 07:13:30.925447	41.8	48.1	-75.6	0.0
2025-01-23 07:13:33.181136	42.5	48.7	-76.3	0.0
2025-01-23 07:13:35.434698	43.2	49.3	-76.6	0.0
2025-01-23 07:13:37.689092	43.9	50.0	-77.1	0.2
2025-01-23 07:13:39.943388	44.7	50.7	-76.6	0.0
2025-01-23 07:13:42.198332	45.5	51.3	-76.8	0.8
2025-01-23 07:13:44.452920	46.3	52.0	-76.0	0.0
2025-01-23 07:13:46.705767	47.2	52.7	-76.8	1.1
2025-01-23 07:13:48.959883	48.1	53.3	-76.9	1.8
2025-01-23 07:13:51.216595	49.1	54.0	-76.9	1.3
2025-01-23 07:13:53.469440	50.1	54.7	-76.1	1.5
2025-01-23 07:13:55.723436	51.1	55.3	-76.6	1.5
2025-01-23 07:13:57.981341	52.2	56.0	-76.0	2.1
2025-01-23 07:14:00.231992	53.4	56.7	-75.6	0.0
2025-01-23 07:14:02.484441	54.6	57.3	-75.4	3.4
2025-01-23 07:14:04.735357	55.9	58.0	-75.8	4.5
2025-01-23 07:14:06.987878	57.2	58.7	-75.8	5.5
2025-01-23 07:14:09.238422	58.6	59.3	-75.6	5.2
2025-01-23 07:14:11.492428	60.1	59.9	-75.0	6.6
2025-01-23 07:14:13.745084	61.6	60.6	-75.2	5.1
2025-01-23 07:14:15.998719	63.2	61.2	-74.8	5.1
2025-01-23 07:14:18.253337	64.9	61.8	-75.2	6.9
2025-01-23 07:14:20.503642	66.7	62.4	-74.9	9.6
2025-01-23 07:14:22.756915	68.6	62.9	-74.4	8.0
2025-01-23 07:14:25.011498	70.6	63.5	-74.4	8.3
2025-01-23 07:14:27.265713	72.6	64.0	-74.3	8.1
2025-01-23 07:14:29.520539	74.7	64.5	-74.9	9.2
2025-01-23 07:14:31.774319	77.0	64.9	-74.8	8.6
2025-01-23 07:14:34.028828	79.3	65.3	-74.5	10.1
2025-01-23 07:14:36.284980	81.7	65.7	-74.5	9.7
2025-01-23 07:14:38.538565	84.2	66.1	-75.1	9.2
2025-01-23 07:14:40.792834	86.7	66.4	-74.8	9.9
2025-01-23 07:14:43.045983	89.4	66.7	-74.8	10.1
2025-01-23 07:14:45.299440	92.1	66.9	-74.1	9.4
2025-01-23 07:14:47.553812	94.8	67.1	-74.3	7.8
2025-01-23 07:14:49.807727	97.6	67.2	-74.2	9.3
2025-01-23 07:14:52.063400	100.4	67.3	-74.2	10.3
2025-01-23 07:14:54.315614	103.3	67.3	-73.6	8.4
2025-01-23 07:14:56.568840	106.1	67.3	-73.4	7.7
2025-01-23 07:14:58.823249	108.9	67.2	-72.9	6.6
2025-01-23 07:15:01.075708	111.7	67.1	-73.0	8.5
2025-01-23 07:15:03.330317	114.4	66.9	-72.8	7.1
2025-01-23 07:15:05.583906	117.2	66.7	-73.8	8.5
2025-01-23 07:15:07.837356	119.8	66.4	-73.7	7.0
2025-01-23 07:15:10.094780	122.4	66.1	-73.1	7.5
2025-01-23 07:15:12.349349	124.9	65.8	-73.4	7.5
2025-01-23 07:15:14.603021	127.3	65.4	-72.4	5.8
2025-01-23 07:15:16.855066	129.6	65.0	-73.5	6.9
2025-01-23 07:15:19.109701	131.9	64.5	-72.4	6.8
2025-01-23 07:15:21.362969	134.0	64.1	-73.1	7.4
2025-01-23 07:15:23.614904	136.1	63.5	-71.9	5.7
2025-01-23 07:15:25.868913	138.1	63.0	-72.3	6.9
2025-01-23 07:15:28.121916	140.0	62.4	-72.2	5.4
2025-01-23 07:15:30.375157	141.8	61.9	-74.2	9.3
2025-01-23 07:15:32.629013	143.5	61.3	-73.8	6.7
2025-01-23 07:15:34.879831	145.1	60.7	-73.5	5.9
2025-01-23 07:15:37.130650	146.7	60.0	-74.6	6.8
2025-01-23 07:15:39.383705	148.1	59.4	-73.6	4.7
2025-01-23 07:15:41.638432	149.6	58.7	-74.5	6.9
2025-01-23 07:15:43.892295	150.9	58.1	-74.0	3.6
2025-01-23 07:15:46.148263	152.2	57.4	-74.1	2.0
2025-01-23 07:15:48.405843	153.4	56.8	-74.3	3.7
2025-01-23 07:15:50.656849	154.6	56.1	-74.4	2.1
2025-01-23 07:15:52.910318	155.7	55.4	-74.9	3.1
2025-01-23 07:15:55.163525	156.7	54.7	-73.9	0.3
2025-01-23 07:15:57.414866	157.8	54.1	-74.8	2.8
2025-01-23 07:15:59.667959	158.7	53.4	-75.6	4.4
2025-01-23 07:16:01.921660	159.6	52.7	-74.9	1.8
2025-01-23 07:16:04.173656	160.5	52.0	-74.8	0.0
2025-01-23 07:16:06.427553	161.4	51.4	-76.1	0.9
2025-01-23 07:16:08.682688	162.2	50.7	-76.8	1.4
2025-01-23 07:16:10.936335	162.9	50.1	-76.8	0.3
2025-01-23 07:16:13.189144	163.7	49.4	-77.4	0.0
2025-01-23 07:16:15.442278	164.4	48.7	-77.5	0.1
2025-01-23 07:16:17.695029	165.1	48.1	-76.0	0.0
2025-01-23 07:16:19.948709	165.7	47.5	-77.4	0.0
2025-01-23 07:16:22.201615	166.3	46.8	-76.4	0.0
2025-01-23 07:16:24.453227	166.9	46.2	-76.8	0.0
2025-01-23 07:16:26.707147	167.5	45.6	-76.4	0.0
2025-01-23 07:16:28.961756	168.1	45.0	-76.4	0.0
2025-01-23 07:16:31.216881	168.6	44.3	-77.0	0.0
2025-01-23 07:16:33.468206	169.1	43.7	-76.6	0.0
2025-01-23 07:16:35.721491	169.6	43.1	-77.5	0.0
2025-01-23 07:16:37.973991	170.1	42.6	-78.3	0.0
2025-01-23 07:16:40.226275	170.6	42.0	-77.3	0.0
2025-01-23 07:16:42.480401	171.0	41.4	-77.1	0.0
2025-01-23 07:16:44.732366	171.4	40.8	-77.0	0.0
2025-01-23 07:16:46.983728	171.9	40.3	-76.2	0.0
2025-01-23 07:16:49.236680	172.3	39.7	-77.1	0.0
2025-01-23 07:16:51.489907	172.7	39.2	-77.3	0.0
2025-01-23 07:16:53.743776	173.0	38.6	-79.6	0.0
2025-01-23 07:16:55.995682	173.4	38.1	-79.2	0.0
2025-01-23 07:16:58.249108	173.8	37.6	-77.3	0.0
2025-01-23 07:17:00.502827	174.1	37.1	-77.1	0.0
2025-01-23 07:17:02.754961	174.4	36.5	-78.1	0.0
2025-01-23 07:17:05.007246	174.8	36.0	-78.1	0.0
2025-01-23 07:17:07.257683	175.1	35.5	-78.1	0.0
2025-01-23 07:17:09.509984	175.4	35.1	-79.3	0.0
2025-01-23 07:17:11.764292	175.7	34.6	-79.6	0.0
2025-01-23 07:17:14.018908	176.0	34.1	-78.7	0.0
2025-01-23 07:17:16.270876	176.2	33.6	-79.3	0.0
2025-01-23 07:17:18.525973	176.5	33.2	-78.7	0.0
2025-01-23 07:17:20.778537	176.8	32.7	-78.6	0.0
2025-01-23 07:17:23.029756	177.0	32.3	-78.5	0.0
2025-01-23 07:17:25.281906	177.3	31.8	-78.6	0.0
2025-01-23 07:17:27.533505	177.5	31.4	-78.6	0.0
2025-01-23 07:17:29.786004	177.8	30.9	-78.4	0.0
2025-01-23 07:17:32.037941	178.0	30.5	-79.4	0.0
2025-01-23 07:17:34.292120	178.2	30.1	-78.7	0.0
2025-01-23 07:17:36.546946	178.4	29.7	-79.1	0.0
2025-01-23 07:17:38.799994	178.7	29.3	-78.8	0.0
2025-01-23 07:17:41.053712	178.9	28.9	-78.4	0.0
2025-01-23 07:17:43.304447	179.1	28.5	-78.9	0.0
2025-01-23 07:17:45.558150	179.3	28.1	-78.6	0.0
2025-01-23 07:17:47.811262	179.5	27.7	-78.5	0.0
2025-01-23 07:17:50.064454	179.7	27.3	-78.4	0.0
2025-01-23 07:17:52.314663	179.8	26.9	-78.3	0.0
2025-01-23 07:17:54.569060	180.0	26.5	-78.4	0.0
2025-01-23 07:17:56.821950	180.2	26.2	-78.6	0.0
2025-01-23 07:17:59.071086	180.4	25.8	-78.6	0.0
2025-01-23 07:18:01.322515	180.5	25.4	-78.5	0.0
2025-01-23 07:18:03.576228	180.7	25.1	-78.5	0.0
2025-01-23 07:18:05.829049	180.9	24.7	-78.7	0.0
2025-01-23 07:18:08.082952	181.0	24.4	-78.4	0.0
2025-01-23 07:18:10.334583	181.2	24.1	-78.3	0.0
2025-01-23 07:18:12.587436	181.3	23.7	-78.2	0.0
2025-01-23 07:18:14.842098	181.5	23.4	-78.1	0.0
2025-01-23 07:18:17.092524	181.6	23.1	-78.4	0.0
2025-01-23 07:18:19.345173	181.8	22.7	-78.5	0.0
2025-01-23 07:18:21.597824	181.9	22.4	-78.1	0.0
2025-01-23 07:18:23.851373	182.1	22.1	-78.3	0.0
2025-01-23 07:18:26.104024	182.2	21.8	-78.1	0.0
2025-01-23 07:18:28.356202	182.3	21.5	-78.0	0.0
2025-01-23 07:18:30.609429	182.5	21.2	-77.9	0.0
2025-01-23 07:18:32.866708	182.6	20.9	-78.0	0.0
2025-01-23 07:18:35.121388	182.7	20.6	-77.9	0.0
2025-01-23 07:18:37.374215	182.9	20.3	-77.6	0.0
2025-01-23 07:18:39.626403	183.0	20.0	-77.5	0.0
2025-01-23 07:18:41.879110	183.1	19.7	-77.4	0.0
2025-01-23 07:18:44.131082	183.2	19.4	-77.4	0.0
2025-01-23 07:18:46.385923	183.3	19.1	-77.6	0.0
2025-01-23 07:18:48.640780	183.4	18.8	-77.4	0.0
2025-01-23 07:18:50.893609	183.6	18.6	-77.2	0.0
2025-01-23 07:18:53.149124	183.7	18.3	-77.5	0.0
2025-01-23 07:18:55.402932	183.8	18.0	-77.3	0.0
2025-01-23 07:18:57.658294	183.9	17.7	-77.5	0.0
2025-01-23 07:18:59.912829	184.0	17.5	-77.0	0.0
2025-01-23 07:19:02.165194	184.1	17.2	-77.3	0.0
2025-01-23 07:19:04.417194	184.2	17.0	-76.5	0.0
2025-01-23 07:19:06.671832	184.3	16.7	-77.4	0.0
2025-01-23 07:19:08.926126	184.4	16.4	-77.5	0.0
2025-01-23 07:19:11.180490	184.5	16.2	-77.5	0.0
2025-01-23 07:19:13.432186	184.6	15.9	-77.4	0.0
2025-01-23 07:19:15.683352	184.7	15.7	-77.4	0.0
2025-01-23 07:19:17.938413	184.8	15.5	-77.7	0.0
2025-01-23 07:19:20.190866	184.9	15.2	-77.7	0.0
2025-01-23 07:19:22.444456	184.9	15.0	-77.7	0.0
2025-01-23 07:19:24.697673	185.0	14.7	-77.3	0.0
2025-01-23 07:19:26.951200	185.1	14.5	-77.7	0.0
2025-01-23 07:19:29.205059	185.2	14.3	-77.4	0.0
2025-01-23 07:19:31.456106	185.3	14.0	-79.6	0.0
2025-01-23 07:19:33.709797	185.4	13.8	-95.1	0.0
2025-01-23 07:19:35.966599	185.5	13.6	-94.6	0.0
2025-01-23 07:19:38.221434	185.5	13.4	-94.8	0.0
2025-01-23 07:19:40.473237	185.6	13.1	-94.5	0.0
2025-01-23 07:19:42.725420	185.7	12.9	-95.0	0.0
2025-01-23 07:19:44.977880	185.8	12.7	-94.9	0.0
2025-01-23 07:19:47.230639	185.8	12.5	-94.6	0.0
2025-01-23 07:19:49.484303	185.9	12.3	-95.1	0.0
2025-01-23 07:19:51.738502	186.0	12.1	-94.7	0.0
2025-01-23 07:19:53.992461	186.1	11.8	-94.6	0.0
2025-01-23 07:19:56.247814	186.1	11.6	-94.8	0.0
2025-01-23 07:19:58.501867	186.2	11.4	-95.1	0.0
2025-01-23 07:20:00.755512	186.3	11.2	-94.8	0.0
2025-01-23 07:20:03.011591	186.4	11.0	-94.7	0.0
2025-01-23 07:20:05.264779	186.4	10.8	-95.0	0.0
2025-01-23 07:20:07.516149	186.5	10.6	-94.9	0.0
2025-01-23 07:20:09.770449	186.6	10.4	-94.8	0.0
2025-01-23 07:20:12.024221	186.6	10.2	-94.8	0.0
#Closed at: 2025-01-23 07:09:27.128093