passes_logs/2025/01/23/planumMaritime01/planumMaritime01__20250123_154026_NOAA_19_rec.log

#Pass ID: 20250123_154026_NOAA 19
#Satellite: NOAA 19
#Configuration: NOAA 19
#Start time: 2025-01-23 15:40:31.329181

#LorettStation: 1.0.0 05.05.2024
#Station: planumMaritime01
#Location: 37.49445 lon 55.92918 lat
#TLE: 1 33591U 09005A   25022.22545190  .00000382  00000+0  22773-3 0  9990
#TLE: 2 33591  99.0184  86.0433 0014227  38.0135 322.2038 14.13265658822568

#Time	Az	El	Level	SNR
2025-01-23 15:40:33.487244	65.9	10.1	-74.9	0.0
2025-01-23 15:40:34.609824	65.7	10.1	-74.4	0.0
2025-01-23 15:40:35.731432	65.5	10.2	-75.2	0.0
2025-01-23 15:40:36.855558	65.3	10.2	-75.4	0.0
2025-01-23 15:40:37.979498	65.2	10.3	-75.6	0.0
2025-01-23 15:40:39.100729	65.0	10.3	-75.7	0.0
2025-01-23 15:40:40.224618	64.8	10.3	-75.8	0.0
2025-01-23 15:40:41.346704	64.6	10.4	-74.8	0.0
2025-01-23 15:40:42.471417	64.4	10.4	-75.7	0.0
2025-01-23 15:40:43.594335	64.2	10.5	-75.6	0.0
2025-01-23 15:40:44.717714	64.1	10.5	-75.7	0.0
2025-01-23 15:40:45.839534	63.9	10.6	-75.9	0.0
2025-01-23 15:40:46.961176	63.7	10.6	-75.6	0.0
2025-01-23 15:40:48.083930	63.5	10.6	-76.0	0.0
2025-01-23 15:40:49.205465	63.3	10.7	-75.4	0.0
2025-01-23 15:40:50.327823	63.1	10.7	-75.0	0.0
2025-01-23 15:40:51.450637	63.0	10.8	-76.0	0.0
2025-01-23 15:40:52.572406	62.8	10.8	-75.5	0.0
2025-01-23 15:40:53.696670	62.6	10.8	-75.5	0.0
2025-01-23 15:40:54.818807	62.4	10.9	-75.8	0.0
2025-01-23 15:40:55.938953	62.2	10.9	-75.8	0.0
2025-01-23 15:40:57.060785	62.0	11.0	-75.8	0.0
2025-01-23 15:40:58.183568	61.8	11.0	-76.1	0.0
2025-01-23 15:40:59.306728	61.6	11.0	-76.6	0.0
2025-01-23 15:41:00.429258	61.4	11.1	-76.2	0.0
2025-01-23 15:41:01.552360	61.2	11.1	-75.5	0.0
2025-01-23 15:41:02.674205	61.1	11.1	-76.4	0.0
2025-01-23 15:41:03.798601	60.9	11.2	-75.5	0.0
2025-01-23 15:41:04.920323	60.7	11.2	-75.7	0.0
2025-01-23 15:41:06.041615	60.5	11.3	-76.2	0.0
2025-01-23 15:41:07.163054	60.3	11.3	-75.9	0.0
2025-01-23 15:41:08.286354	60.1	11.3	-76.4	0.0
2025-01-23 15:41:09.409551	59.9	11.4	-76.2	0.0
2025-01-23 15:41:10.531911	59.7	11.4	-76.4	0.0
2025-01-23 15:41:11.655298	59.5	11.4	-76.3	0.0
2025-01-23 15:41:12.778612	59.3	11.5	-76.1	0.0
2025-01-23 15:41:13.899679	59.1	11.5	-76.3	0.0
2025-01-23 15:41:15.022793	58.9	11.6	-76.2	0.0
2025-01-23 15:41:16.146722	58.7	11.6	-76.1	0.0
2025-01-23 15:41:17.271502	58.5	11.6	-75.9	0.0
2025-01-23 15:41:18.394934	58.3	11.7	-75.7	0.0
2025-01-23 15:41:19.517952	58.1	11.7	-76.2	0.0
2025-01-23 15:41:20.642051	57.9	11.7	-76.0	0.0
2025-01-23 15:41:21.765340	57.7	11.8	-75.6	0.0
2025-01-23 15:41:22.887495	57.5	11.8	-76.0	0.0
2025-01-23 15:41:24.012499	57.3	11.8	-76.1	0.0
2025-01-23 15:41:25.137028	57.1	11.9	-75.0	0.0
2025-01-23 15:41:26.261897	56.9	11.9	-76.4	0.0
2025-01-23 15:41:27.386392	56.7	11.9	-75.5	0.0
2025-01-23 15:41:28.510486	56.5	11.9	-76.5	0.0
2025-01-23 15:41:29.633398	56.3	12.0	-76.6	0.0
2025-01-23 15:41:30.755043	56.1	12.0	-76.5	0.0
2025-01-23 15:41:31.877271	55.9	12.0	-75.8	0.0
2025-01-23 15:41:33.000705	55.7	12.1	-74.6	0.0
2025-01-23 15:41:34.123210	55.5	12.1	-74.9	0.0
2025-01-23 15:41:35.244965	55.3	12.1	-76.4	0.0
2025-01-23 15:41:36.367450	55.1	12.2	-76.1	0.0
2025-01-23 15:41:37.490765	54.9	12.2	-75.1	0.0
2025-01-23 15:41:38.613058	54.7	12.2	-75.8	0.0
2025-01-23 15:41:39.735614	54.5	12.2	-76.7	0.0
2025-01-23 15:41:40.858736	54.2	12.3	-76.2	0.0
2025-01-23 15:41:41.982935	54.0	12.3	-76.5	0.0
2025-01-23 15:41:43.105486	53.8	12.3	-75.8	0.0
2025-01-23 15:41:44.229032	53.6	12.4	-75.9	0.0
2025-01-23 15:41:45.354179	53.4	12.4	-76.0	0.0
2025-01-23 15:41:46.478912	53.2	12.4	-76.2	0.0
2025-01-23 15:41:47.602631	53.0	12.4	-75.5	0.0
2025-01-23 15:41:48.725632	52.8	12.5	-75.8	0.0
2025-01-23 15:41:49.850104	52.6	12.5	-76.0	0.0
2025-01-23 15:41:50.971699	52.4	12.5	-76.7	0.0
2025-01-23 15:41:52.095222	52.2	12.5	-75.9	0.0
2025-01-23 15:41:53.220727	51.9	12.6	-75.8	0.0
2025-01-23 15:41:54.343981	51.7	12.6	-76.4	0.0
2025-01-23 15:41:55.467364	51.5	12.6	-76.1	0.0
2025-01-23 15:41:56.588806	51.3	12.6	-76.6	0.0
2025-01-23 15:41:57.714547	51.1	12.7	-76.6	0.0
2025-01-23 15:41:58.836804	50.9	12.7	-76.5	0.0
2025-01-23 15:41:59.961458	50.7	12.7	-76.5	0.0
2025-01-23 15:42:01.085466	50.5	12.7	-76.0	0.0
2025-01-23 15:42:02.208184	50.2	12.7	-76.0	0.0
2025-01-23 15:42:03.332433	50.0	12.8	-76.3	0.0
2025-01-23 15:42:04.456331	49.8	12.8	-76.1	0.0
2025-01-23 15:42:05.579726	49.6	12.8	-75.8	0.0
2025-01-23 15:42:06.699263	49.4	12.8	-76.8	0.0
2025-01-23 15:42:07.820731	49.2	12.8	-75.9	0.0
2025-01-23 15:42:08.943118	48.9	12.9	-75.5	0.0
2025-01-23 15:42:10.066659	48.7	12.9	-75.7	0.0
2025-01-23 15:42:11.191707	48.5	12.9	-76.0	0.0
2025-01-23 15:42:12.314179	48.3	12.9	-76.6	0.0
2025-01-23 15:42:13.437501	48.1	12.9	-76.3	0.0
2025-01-23 15:42:14.560121	47.9	12.9	-76.5	0.0
2025-01-23 15:42:15.682290	47.6	13.0	-76.0	0.0
2025-01-23 15:42:16.803521	47.4	13.0	-75.6	0.0
2025-01-23 15:42:17.927026	47.2	13.0	-75.9	0.0
2025-01-23 15:42:19.050315	47.0	13.0	-75.9	0.0
2025-01-23 15:42:20.174704	46.8	13.0	-76.1	0.0
2025-01-23 15:42:21.298164	46.6	13.0	-76.5	0.0
2025-01-23 15:42:22.421253	46.3	13.1	-76.7	0.0
2025-01-23 15:42:23.542536	46.1	13.1	-76.3	0.0
2025-01-23 15:42:24.666207	45.9	13.1	-76.4	0.0
2025-01-23 15:42:25.789681	45.7	13.1	-76.1	0.0
2025-01-23 15:42:26.911208	45.5	13.1	-76.5	0.0
2025-01-23 15:42:28.034991	45.2	13.1	-75.7	0.0
2025-01-23 15:42:29.157653	45.0	13.1	-76.1	0.0
2025-01-23 15:42:30.280220	44.8	13.1	-76.1	0.0
2025-01-23 15:42:31.402397	44.6	13.2	-76.4	0.0
2025-01-23 15:42:32.525302	44.4	13.2	-76.4	0.0
2025-01-23 15:42:33.648083	44.1	13.2	-76.0	0.0
2025-01-23 15:42:34.771021	43.9	13.2	-75.9	0.0
2025-01-23 15:42:35.895331	43.7	13.2	-76.4	0.0
2025-01-23 15:42:37.017856	43.5	13.2	-76.2	0.0
2025-01-23 15:42:38.140692	43.3	13.2	-75.2	0.0
2025-01-23 15:42:39.264293	43.0	13.2	-76.6	0.0
2025-01-23 15:42:40.387259	42.8	13.2	-75.7	0.0
2025-01-23 15:42:41.511378	42.6	13.2	-75.6	0.0
2025-01-23 15:42:42.634482	42.4	13.2	-76.3	0.0
2025-01-23 15:42:43.757332	42.2	13.2	-75.3	0.0
2025-01-23 15:42:44.881043	41.9	13.3	-75.2	0.0
2025-01-23 15:42:46.003743	41.7	13.3	-75.4	0.0
2025-01-23 15:42:47.127445	41.5	13.3	-75.7	0.0
2025-01-23 15:42:48.252827	41.3	13.3	-75.2	0.0
2025-01-23 15:42:49.376258	41.0	13.3	-75.1	0.0
2025-01-23 15:42:50.499393	40.8	13.3	-75.6	0.0
2025-01-23 15:42:51.622807	40.6	13.3	-75.7	0.0
2025-01-23 15:42:52.745170	40.4	13.3	-75.8	0.0
2025-01-23 15:42:53.866955	40.2	13.3	-75.6	0.0
2025-01-23 15:42:54.990127	39.9	13.3	-76.5	0.0
2025-01-23 15:42:56.113634	39.7	13.3	-77.0	0.0
2025-01-23 15:42:57.236562	39.5	13.3	-75.6	0.0
2025-01-23 15:42:58.358027	39.3	13.3	-75.4	0.0
2025-01-23 15:42:59.481937	39.0	13.3	-75.0	0.0
2025-01-23 15:43:00.605407	38.8	13.3	-75.4	0.0
2025-01-23 15:43:01.727821	38.6	13.3	-75.4	0.0
2025-01-23 15:43:02.851153	38.4	13.3	-75.8	0.0
2025-01-23 15:43:03.975134	38.2	13.3	-75.7	0.0
2025-01-23 15:43:05.098841	37.9	13.3	-75.5	0.0
2025-01-23 15:43:06.221017	37.7	13.3	-75.2	0.0
2025-01-23 15:43:07.344038	37.5	13.3	-75.4	0.0
2025-01-23 15:43:08.468128	37.3	13.3	-75.3	0.0
2025-01-23 15:43:09.592466	37.1	13.3	-75.4	0.0
2025-01-23 15:43:10.714165	36.8	13.3	-76.2	0.0
2025-01-23 15:43:11.835815	36.6	13.3	-75.5	0.0
2025-01-23 15:43:12.958708	36.4	13.3	-75.8	0.0
2025-01-23 15:43:14.084837	36.2	13.3	-75.7	0.0
2025-01-23 15:43:15.208571	35.9	13.3	-75.6	0.0
2025-01-23 15:43:16.330312	35.7	13.2	-75.6	0.0
2025-01-23 15:43:17.453869	35.5	13.2	-75.4	0.0
2025-01-23 15:43:18.575543	35.3	13.2	-75.3	0.0
2025-01-23 15:43:19.701415	35.1	13.2	-75.5	0.0
2025-01-23 15:43:20.823439	34.8	13.2	-75.8	0.0
2025-01-23 15:43:21.944349	34.6	13.2	-75.8	0.0
2025-01-23 15:43:23.067762	34.4	13.2	-75.9	0.0
2025-01-23 15:43:24.188636	34.2	13.2	-76.1	0.0
2025-01-23 15:43:25.311941	34.0	13.2	-76.5	0.0
2025-01-23 15:43:26.435167	33.7	13.2	-76.3	0.0
2025-01-23 15:43:27.557959	33.5	13.2	-76.0	0.0
2025-01-23 15:43:28.678748	33.3	13.2	-76.3	0.0
2025-01-23 15:43:29.802004	33.1	13.1	-75.5	0.0
2025-01-23 15:43:30.925970	32.9	13.1	-75.6	0.0
2025-01-23 15:43:32.052251	32.6	13.1	-75.2	0.0
2025-01-23 15:43:33.174198	32.4	13.1	-75.7	0.0
2025-01-23 15:43:34.298354	32.2	13.1	-75.9	0.0
2025-01-23 15:43:35.419902	32.0	13.1	-75.6	0.0
2025-01-23 15:43:36.542345	31.8	13.1	-75.6	0.0
2025-01-23 15:43:37.665090	31.5	13.1	-76.2	0.0
2025-01-23 15:43:38.786824	31.3	13.0	-75.9	0.0
2025-01-23 15:43:39.909033	31.1	13.0	-75.8	0.0
2025-01-23 15:43:41.031705	30.9	13.0	-76.4	0.0
2025-01-23 15:43:42.155663	30.7	13.0	-76.3	0.0
2025-01-23 15:43:43.277626	30.5	13.0	-75.5	0.0
2025-01-23 15:43:44.401485	30.2	13.0	-76.8	0.0
2025-01-23 15:43:45.525805	30.0	12.9	-76.8	0.0
2025-01-23 15:43:46.649525	29.8	12.9	-76.7	0.0
2025-01-23 15:43:47.774684	29.6	12.9	-76.9	0.0
2025-01-23 15:43:48.897225	29.4	12.9	-76.3	0.0
2025-01-23 15:43:50.021970	29.2	12.9	-76.7	0.0
2025-01-23 15:43:51.143587	28.9	12.9	-76.4	0.0
2025-01-23 15:43:52.265781	28.7	12.8	-76.5	0.0
2025-01-23 15:43:53.387712	28.5	12.8	-77.0	0.0
2025-01-23 15:43:54.509583	28.3	12.8	-77.2	0.0
2025-01-23 15:43:55.631181	28.1	12.8	-76.4	0.0
2025-01-23 15:43:56.756890	27.9	12.8	-77.1	0.0
2025-01-23 15:43:57.881197	27.7	12.7	-77.1	0.0
2025-01-23 15:43:59.005620	27.4	12.7	-77.3	0.0
2025-01-23 15:44:00.129046	27.2	12.7	-76.8	0.0
2025-01-23 15:44:01.252014	27.0	12.7	-77.0	0.0
2025-01-23 15:44:02.376350	26.8	12.7	-77.3	0.0
2025-01-23 15:44:03.498792	26.6	12.6	-76.7	0.0
2025-01-23 15:44:04.622769	26.4	12.6	-76.9	0.0
2025-01-23 15:44:05.746034	26.2	12.6	-77.4	0.0
2025-01-23 15:44:06.868336	26.0	12.6	-76.9	0.0
2025-01-23 15:44:07.992487	25.7	12.5	-76.2	0.0
2025-01-23 15:44:09.115114	25.5	12.5	-76.7	0.0
2025-01-23 15:44:10.238926	25.3	12.5	-77.3	0.0
2025-01-23 15:44:11.361892	25.1	12.5	-77.0	0.0
2025-01-23 15:44:12.483433	24.9	12.4	-76.2	0.0
2025-01-23 15:44:13.607635	24.7	12.4	-76.9	0.0
2025-01-23 15:44:14.730649	24.5	12.4	-77.3	0.0
2025-01-23 15:44:15.853705	24.3	12.4	-77.1	0.0
2025-01-23 15:44:16.976846	24.1	12.3	-76.4	0.0
2025-01-23 15:44:18.099602	23.9	12.3	-76.7	0.0
2025-01-23 15:44:19.223555	23.7	12.3	-77.3	0.0
2025-01-23 15:44:20.347574	23.5	12.2	-77.0	0.0
2025-01-23 15:44:21.468839	23.2	12.2	-76.9	0.0
2025-01-23 15:44:22.593578	23.0	12.2	-77.5	0.0
2025-01-23 15:44:23.720117	22.8	12.2	-77.3	0.0
2025-01-23 15:44:24.841757	22.6	12.1	-77.4	0.0
2025-01-23 15:44:25.963240	22.4	12.1	-76.7	0.0
2025-01-23 15:44:27.086783	22.2	12.1	-76.5	0.0
2025-01-23 15:44:28.208511	22.0	12.0	-76.8	0.0
2025-01-23 15:44:29.330976	21.8	12.0	-75.8	0.0
2025-01-23 15:44:30.454616	21.6	12.0	-77.3	0.0
2025-01-23 15:44:31.576885	21.4	11.9	-76.5	0.0
2025-01-23 15:44:32.700365	21.2	11.9	-76.1	0.0
2025-01-23 15:44:33.825175	21.0	11.9	-77.0	0.0
2025-01-23 15:44:34.945939	20.8	11.9	-76.9	0.0
2025-01-23 15:44:36.072032	20.6	11.8	-76.4	0.0
2025-01-23 15:44:37.193835	20.4	11.8	-76.9	0.0
2025-01-23 15:44:38.318693	20.2	11.8	-77.0	0.0
2025-01-23 15:44:39.441295	20.0	11.7	-77.0	0.0
2025-01-23 15:44:40.563924	19.8	11.7	-77.0	0.0
2025-01-23 15:44:41.686861	19.6	11.7	-76.5	0.0
2025-01-23 15:44:42.809514	19.4	11.6	-77.1	0.0
2025-01-23 15:44:43.930965	19.2	11.6	-76.8	0.0
2025-01-23 15:44:45.056130	19.0	11.5	-76.5	0.0
2025-01-23 15:44:46.180471	18.8	11.5	-76.7	0.0
2025-01-23 15:44:47.301918	18.6	11.5	-77.1	0.0
2025-01-23 15:44:48.422437	18.4	11.4	-76.3	0.0
2025-01-23 15:44:49.544563	18.2	11.4	-77.1	0.0
2025-01-23 15:44:50.670165	18.0	11.4	-76.4	0.0
2025-01-23 15:44:51.796158	17.9	11.3	-77.2	0.0
2025-01-23 15:44:52.919549	17.7	11.3	-76.5	0.0
2025-01-23 15:44:54.044838	17.5	11.3	-76.8	0.0
2025-01-23 15:44:55.168184	17.3	11.2	-76.9	0.0
2025-01-23 15:44:56.290534	17.1	11.2	-77.5	0.0
2025-01-23 15:44:57.411926	16.9	11.1	-76.8	0.0
2025-01-23 15:44:58.532378	16.7	11.1	-77.1	0.0
2025-01-23 15:44:59.655688	16.5	11.1	-77.3	0.0
2025-01-23 15:45:00.777843	16.3	11.0	-77.0	0.0
2025-01-23 15:45:01.902083	16.1	11.0	-76.8	0.0
2025-01-23 15:45:03.026645	15.9	11.0	-77.2	0.0
2025-01-23 15:45:04.148977	15.8	10.9	-77.2	0.0
2025-01-23 15:45:05.271756	15.6	10.9	-76.5	0.0
2025-01-23 15:45:06.395553	15.4	10.8	-76.8	0.0
2025-01-23 15:45:07.515404	15.2	10.8	-76.4	0.0
2025-01-23 15:45:08.637080	15.0	10.8	-76.6	0.0
2025-01-23 15:45:09.759420	14.8	10.7	-76.3	0.0
2025-01-23 15:45:10.884178	14.6	10.7	-76.4	0.0
2025-01-23 15:45:12.005728	14.4	10.6	-76.7	0.0
2025-01-23 15:45:13.127799	14.3	10.6	-76.7	0.0
2025-01-23 15:45:14.251442	14.1	10.6	-76.8	0.0
2025-01-23 15:45:15.372723	13.9	10.5	-76.9	0.0
2025-01-23 15:45:16.495917	13.7	10.5	-77.0	0.0
2025-01-23 15:45:17.616791	13.5	10.4	-76.6	0.0
2025-01-23 15:45:18.741795	13.4	10.4	-77.2	0.0
2025-01-23 15:45:19.864090	13.2	10.3	-76.4	0.0
2025-01-23 15:45:20.986390	13.0	10.3	-76.7	0.0
2025-01-23 15:45:22.107383	12.8	10.3	-76.3	0.0
2025-01-23 15:45:23.230207	12.6	10.2	-76.4	0.0
2025-01-23 15:45:24.355066	12.5	10.2	-76.3	0.0
2025-01-23 15:45:25.476660	12.3	10.1	-76.7	0.0
2025-01-23 15:45:26.598984	12.1	10.1	-76.5	0.0
2025-01-23 15:45:27.721292	11.9	10.0	-76.5	0.0
#Closed at: 2025-01-23 15:40:26.332547