passes_logs/2025/01/23/planumMaritime01/planumMaritime01__20250123_192036_NOAA_18_rec.log

#Pass ID: 20250123_192036_NOAA 18
#Satellite: NOAA 18
#Configuration: NOAA 18
#Start time: 2025-01-23 19:20:41.082383

#LorettStation: 1.0.0 05.05.2024
#Station: planumMaritime01
#Location: 37.49445 lon 55.92918 lat
#TLE: 1 28654U 05018A   25022.24143052  .00000458  00000+0  26647-3 0  9995
#TLE: 2 28654  98.8556 103.2235 0014680 159.1096 201.0679 14.13493787 14203

#Time	Az	El	Level	SNR
2025-01-23 19:20:43.239539	163.0	10.2	-73.9	4.0
2025-01-23 19:20:45.484112	163.0	10.4	-74.1	3.3
2025-01-23 19:20:47.731522	163.0	10.6	-74.1	2.3
2025-01-23 19:20:49.977612	163.0	10.8	-74.2	3.8
2025-01-23 19:20:52.220871	163.1	11.0	-73.8	3.3
2025-01-23 19:20:54.466746	163.1	11.2	-73.6	2.9
2025-01-23 19:20:56.713414	163.1	11.4	-73.6	3.8
2025-01-23 19:20:58.956895	163.1	11.6	-74.2	4.2
2025-01-23 19:21:01.202283	163.1	11.8	-73.7	3.6
2025-01-23 19:21:03.449847	163.2	12.0	-73.9	4.0
2025-01-23 19:21:05.694396	163.2	12.2	-73.7	4.4
2025-01-23 19:21:07.943942	163.2	12.4	-74.2	5.1
2025-01-23 19:21:10.187504	163.2	12.6	-74.3	3.7
2025-01-23 19:21:12.430410	163.2	12.9	-73.5	2.5
2025-01-23 19:21:14.677544	163.2	13.1	-74.1	4.3
2025-01-23 19:21:16.927414	163.3	13.3	-74.0	4.8
2025-01-23 19:21:19.176085	163.3	13.5	-74.3	4.4
2025-01-23 19:21:21.422281	163.3	13.7	-74.1	3.6
2025-01-23 19:21:23.669664	163.3	14.0	-74.3	3.5
2025-01-23 19:21:25.916115	163.3	14.2	-74.1	3.4
2025-01-23 19:21:28.161359	163.4	14.4	-74.2	4.7
2025-01-23 19:21:30.409010	163.4	14.7	-74.3	4.2
2025-01-23 19:21:32.652968	163.4	14.9	-74.9	4.6
2025-01-23 19:21:34.900273	163.4	15.1	-74.1	4.1
2025-01-23 19:21:37.148519	163.4	15.4	-74.5	5.5
2025-01-23 19:21:39.395334	163.5	15.6	-74.0	5.2
2025-01-23 19:21:41.644949	163.5	15.9	-73.8	3.7
2025-01-23 19:21:43.892604	163.5	16.1	-74.1	4.4
2025-01-23 19:21:46.140553	163.5	16.3	-74.3	5.4
2025-01-23 19:21:48.387441	163.6	16.6	-74.3	5.2
2025-01-23 19:21:50.629237	163.6	16.9	-73.9	4.9
2025-01-23 19:21:52.877791	163.6	17.1	-74.8	5.2
2025-01-23 19:21:55.122338	163.6	17.4	-74.2	4.0
2025-01-23 19:21:57.369902	163.6	17.6	-74.0	3.9
2025-01-23 19:21:59.612704	163.7	17.9	-74.5	4.8
2025-01-23 19:22:01.858288	163.7	18.2	-74.6	4.3
2025-01-23 19:22:04.101363	163.7	18.4	-74.5	5.2
2025-01-23 19:22:06.345147	163.7	18.7	-74.4	4.3
2025-01-23 19:22:08.590434	163.8	19.0	-74.6	3.5
2025-01-23 19:22:10.839749	163.8	19.3	-74.1	3.4
2025-01-23 19:22:13.085354	163.8	19.5	-74.0	3.9
2025-01-23 19:22:15.329534	163.8	19.8	-74.1	3.8
2025-01-23 19:22:17.577092	163.9	20.1	-74.2	3.8
2025-01-23 19:22:19.821135	163.9	20.4	-74.4	3.9
2025-01-23 19:22:22.064535	163.9	20.7	-74.2	1.6
2025-01-23 19:22:24.313579	163.9	21.0	-74.5	2.6
2025-01-23 19:22:26.561699	164.0	21.3	-74.0	2.3
2025-01-23 19:22:28.810517	164.0	21.6	-74.0	2.9
2025-01-23 19:22:31.056862	164.0	21.9	-74.1	2.9
2025-01-23 19:22:33.302972	164.1	22.2	-74.3	1.9
2025-01-23 19:22:35.550096	164.1	22.6	-74.4	2.6
2025-01-23 19:22:37.796359	164.1	22.9	-74.9	2.8
2025-01-23 19:22:40.046626	164.1	23.2	-74.6	2.9
2025-01-23 19:22:42.290816	164.2	23.5	-74.5	1.3
2025-01-23 19:22:44.539230	164.2	23.9	-74.3	1.2
2025-01-23 19:22:46.785766	164.2	24.2	-74.5	1.7
2025-01-23 19:22:49.031589	164.3	24.6	-74.6	0.0
2025-01-23 19:22:51.277196	164.3	24.9	-74.9	0.0
2025-01-23 19:22:53.522332	164.3	25.3	-74.8	0.0
2025-01-23 19:22:55.766797	164.4	25.6	-74.8	0.0
2025-01-23 19:22:58.013615	164.4	26.0	-74.6	0.0
2025-01-23 19:23:00.260148	164.4	26.3	-74.9	0.0
2025-01-23 19:23:02.510597	164.5	26.7	-74.0	0.0
2025-01-23 19:23:04.756493	164.5	27.1	-75.0	0.0
2025-01-23 19:23:07.001258	164.6	27.5	-75.0	0.0
2025-01-23 19:23:09.246755	164.6	27.9	-75.1	0.0
2025-01-23 19:23:11.491065	164.6	28.2	-74.8	0.0
2025-01-23 19:23:13.736908	164.7	28.6	-74.9	0.0
2025-01-23 19:23:15.979415	164.7	29.0	-75.2	0.0
2025-01-23 19:23:18.223934	164.8	29.5	-75.3	0.0
2025-01-23 19:23:20.469209	164.8	29.9	-74.8	0.0
2025-01-23 19:23:22.715421	164.8	30.3	-75.1	0.0
2025-01-23 19:23:24.962580	164.9	30.7	-75.4	0.0
2025-01-23 19:23:27.208653	164.9	31.2	-75.0	0.0
2025-01-23 19:23:29.454255	165.0	31.6	-75.4	0.0
2025-01-23 19:23:31.702623	165.0	32.0	-75.1	0.0
2025-01-23 19:23:33.952931	165.1	32.5	-75.9	0.0
2025-01-23 19:23:36.198339	165.1	33.0	-75.7	0.0
2025-01-23 19:23:38.442835	165.2	33.4	-75.6	0.0
2025-01-23 19:23:40.687368	165.2	33.9	-75.1	0.0
2025-01-23 19:23:42.934009	165.3	34.4	-75.4	0.0
2025-01-23 19:23:45.179721	165.3	34.9	-75.0	0.0
2025-01-23 19:23:47.425083	165.4	35.4	-75.3	0.0
2025-01-23 19:23:49.670418	165.5	35.9	-75.3	0.0
2025-01-23 19:23:51.916037	165.5	36.4	-75.0	0.0
2025-01-23 19:23:54.163202	165.6	36.9	-75.4	0.0
2025-01-23 19:23:56.409546	165.6	37.4	-75.4	0.0
2025-01-23 19:23:58.655431	165.7	38.0	-75.4	0.0
2025-01-23 19:24:00.901511	165.8	38.5	-74.9	0.0
2025-01-23 19:24:03.145493	165.8	39.1	-74.8	0.0
2025-01-23 19:24:05.391087	165.9	39.7	-75.1	0.0
2025-01-23 19:24:07.635528	166.0	40.2	-75.1	0.0
2025-01-23 19:24:09.883522	166.1	40.8	-75.4	0.0
2025-01-23 19:24:12.130092	166.1	41.4	-75.5	0.0
2025-01-23 19:24:14.380149	166.2	42.0	-75.3	0.0
2025-01-23 19:24:16.625614	166.3	42.6	-74.9	0.0
2025-01-23 19:24:18.872801	166.4	43.2	-75.2	0.0
2025-01-23 19:24:21.118832	166.5	43.9	-74.9	0.0
2025-01-23 19:24:23.364106	166.6	44.5	-75.3	0.0
2025-01-23 19:24:25.612322	166.7	45.2	-75.6	0.0
2025-01-23 19:24:27.858213	166.8	45.8	-75.6	0.0
2025-01-23 19:24:30.102456	166.9	46.5	-75.3	0.0
2025-01-23 19:24:32.349323	167.0	47.2	-75.8	0.0
2025-01-23 19:24:34.593784	167.1	47.9	-75.4	0.0
2025-01-23 19:24:36.842520	167.2	48.6	-75.8	0.0
2025-01-23 19:24:39.088173	167.3	49.3	-75.3	0.0
2025-01-23 19:24:41.333599	167.5	50.1	-75.6	0.0
2025-01-23 19:24:43.577286	167.6	50.8	-75.5	0.0
2025-01-23 19:24:45.822258	167.7	51.6	-75.0	0.0
2025-01-23 19:24:48.067925	167.9	52.3	-75.3	0.0
2025-01-23 19:24:50.314908	168.1	53.1	-75.2	0.0
2025-01-23 19:24:52.559568	168.2	53.9	-75.7	0.0
2025-01-23 19:24:54.805658	168.4	54.7	-75.9	0.0
2025-01-23 19:24:57.049678	168.6	55.5	-75.3	0.0
2025-01-23 19:24:59.294265	168.8	56.3	-75.7	0.0
2025-01-23 19:25:01.538647	169.0	57.2	-75.4	0.0
2025-01-23 19:25:03.783018	169.2	58.0	-75.4	0.0
2025-01-23 19:25:06.027568	169.4	58.9	-75.5	0.0
2025-01-23 19:25:08.271575	169.7	59.8	-75.1	0.0
2025-01-23 19:25:10.521546	169.9	60.7	-75.4	0.0
2025-01-23 19:25:12.764411	170.2	61.6	-75.6	0.0
2025-01-23 19:25:15.010462	170.5	62.5	-75.1	0.0
2025-01-23 19:25:17.256823	170.9	63.4	-75.7	0.0
2025-01-23 19:25:19.504921	171.2	64.3	-76.0	0.0
2025-01-23 19:25:21.749194	171.6	65.3	-75.6	0.0
2025-01-23 19:25:23.996586	172.0	66.2	-75.5	0.0
2025-01-23 19:25:26.244714	172.5	67.2	-75.3	0.0
2025-01-23 19:25:28.490516	173.0	68.2	-75.2	0.0
2025-01-23 19:25:30.735616	173.5	69.2	-75.5	0.0
2025-01-23 19:25:32.981781	174.1	70.2	-75.2	0.0
2025-01-23 19:25:35.226876	174.8	71.2	-75.4	0.0
2025-01-23 19:25:37.475304	175.6	72.2	-75.7	0.0
2025-01-23 19:25:39.722214	176.4	73.2	-75.6	0.0
2025-01-23 19:25:41.967386	177.4	74.2	-75.3	0.0
2025-01-23 19:25:44.214795	178.5	75.2	-75.6	0.0
2025-01-23 19:25:46.461245	179.8	76.3	-75.1	0.0
2025-01-23 19:25:48.708794	181.2	77.3	-75.2	0.0
2025-01-23 19:25:50.954879	183.0	78.3	-75.0	0.0
2025-01-23 19:25:53.200336	185.1	79.3	-75.0	0.0
2025-01-23 19:25:55.447833	187.6	80.3	-75.7	0.0
2025-01-23 19:25:57.696678	190.8	81.3	-75.0	0.0
2025-01-23 19:25:59.945740	194.7	82.3	-75.8	0.0
2025-01-23 19:26:02.192263	199.8	83.2	-75.5	0.0
2025-01-23 19:26:04.439220	206.3	84.1	-75.3	0.0
2025-01-23 19:26:06.685895	214.9	84.8	-75.1	0.0
2025-01-23 19:26:08.929698	226.1	85.4	-75.1	0.0
2025-01-23 19:26:11.177182	239.9	85.8	-75.5	0.0
2025-01-23 19:26:13.422751	255.3	85.9	-75.9	0.0
2025-01-23 19:26:15.668027	270.4	85.7	-75.2	0.0
2025-01-23 19:26:17.915491	283.4	85.2	-75.2	0.0
2025-01-23 19:26:20.161608	293.6	84.6	-75.8	0.0
2025-01-23 19:26:22.410880	301.5	83.8	-75.9	0.0
2025-01-23 19:26:24.658818	307.5	82.9	-75.5	0.0
2025-01-23 19:26:26.904998	312.1	82.0	-75.9	0.0
2025-01-23 19:26:29.151841	315.7	81.0	-75.6	0.0
2025-01-23 19:26:31.399645	318.6	80.0	-75.7	0.0
2025-01-23 19:26:33.645370	321.0	79.0	-75.8	0.0
2025-01-23 19:26:35.890516	323.0	78.0	-75.6	0.0
2025-01-23 19:26:38.136759	324.6	76.9	-75.9	0.0
2025-01-23 19:26:40.383360	326.1	75.9	-76.0	0.0
2025-01-23 19:26:42.629744	327.3	74.9	-75.7	0.0
2025-01-23 19:26:44.876952	328.3	73.9	-75.7	0.0
2025-01-23 19:26:47.123396	329.3	72.9	-75.6	0.0
2025-01-23 19:26:49.369522	330.1	71.8	-76.3	0.0
2025-01-23 19:26:51.613695	330.8	70.8	-76.0	0.0
2025-01-23 19:26:53.859033	331.4	69.8	-75.8	0.0
2025-01-23 19:26:56.106816	332.0	68.8	-76.2	0.0
2025-01-23 19:26:58.351850	332.6	67.9	-75.2	0.0
2025-01-23 19:27:00.596578	333.1	66.9	-75.2	0.0
2025-01-23 19:27:02.846115	333.5	65.9	-75.7	0.0
2025-01-23 19:27:05.095944	333.9	65.0	-75.1	0.0
2025-01-23 19:27:07.340356	334.3	64.0	-76.0	0.0
2025-01-23 19:27:09.586197	334.6	63.1	-75.6	0.0
2025-01-23 19:27:11.831523	334.9	62.2	-75.1	0.0
2025-01-23 19:27:14.077032	335.2	61.3	-74.8	0.0
2025-01-23 19:27:16.321075	335.5	60.4	-75.8	0.0
2025-01-23 19:27:18.567704	335.8	59.5	-75.7	0.0
2025-01-23 19:27:20.817480	336.0	58.6	-75.4	0.0
2025-01-23 19:27:23.064740	336.2	57.8	-75.4	0.0
2025-01-23 19:27:25.310113	336.5	56.9	-75.2	0.0
2025-01-23 19:27:27.557416	336.7	56.1	-76.1	0.0
2025-01-23 19:27:29.806781	336.9	55.2	-75.7	0.0
2025-01-23 19:27:32.056441	337.0	54.4	-75.9	0.0
2025-01-23 19:27:34.305212	337.2	53.6	-76.0	0.0
2025-01-23 19:27:36.548734	337.4	52.8	-75.5	0.0
2025-01-23 19:27:38.794855	337.5	52.1	-75.2	0.0
2025-01-23 19:27:41.042709	337.7	51.3	-75.2	0.0
2025-01-23 19:27:43.287811	337.8	50.6	-75.2	0.0
2025-01-23 19:27:45.533603	337.9	49.8	-75.7	0.0
2025-01-23 19:27:47.778791	338.1	49.1	-75.4	0.0
2025-01-23 19:27:50.026582	338.2	48.4	-75.7	0.0
2025-01-23 19:27:52.274559	338.3	47.7	-75.7	0.0
2025-01-23 19:27:54.518703	338.4	47.0	-75.7	0.0
2025-01-23 19:27:56.765754	338.5	46.3	-76.0	0.0
2025-01-23 19:27:59.010736	338.6	45.6	-75.7	0.0
2025-01-23 19:28:01.261776	338.7	45.0	-75.5	0.0
2025-01-23 19:28:03.510630	338.8	44.3	-75.6	0.0
2025-01-23 19:28:05.755457	338.9	43.7	-75.7	0.0
2025-01-23 19:28:08.003378	339.0	43.0	-75.6	0.0
2025-01-23 19:28:10.247638	339.1	42.4	-75.4	0.0
2025-01-23 19:28:12.492359	339.2	41.8	-75.8	0.0
2025-01-23 19:28:14.740750	339.3	41.2	-75.1	0.0
2025-01-23 19:28:16.985617	339.3	40.6	-75.5	0.0
2025-01-23 19:28:19.233657	339.4	40.0	-75.4	0.0
2025-01-23 19:28:21.480349	339.5	39.5	-75.3	0.0
2025-01-23 19:28:23.727679	339.6	38.9	-75.7	0.0
2025-01-23 19:28:25.974310	339.6	38.4	-75.9	0.0
2025-01-23 19:28:28.220554	339.7	37.8	-76.0	0.0
2025-01-23 19:28:30.466038	339.8	37.3	-75.1	0.0
2025-01-23 19:28:32.711175	339.8	36.8	-75.4	0.0
2025-01-23 19:28:34.957654	339.9	36.2	-75.4	0.0
2025-01-23 19:28:37.201926	340.0	35.7	-75.2	0.0
2025-01-23 19:28:39.446682	340.0	35.2	-75.3	0.0
2025-01-23 19:28:41.690525	340.1	34.7	-75.1	0.0
2025-01-23 19:28:43.935576	340.1	34.2	-74.9	0.0
2025-01-23 19:28:46.180576	340.2	33.8	-75.7	0.0
2025-01-23 19:28:48.424997	340.2	33.3	-75.2	0.0
2025-01-23 19:28:50.669298	340.3	32.8	-75.6	0.0
2025-01-23 19:28:52.914434	340.3	32.4	-75.8	0.0
2025-01-23 19:28:55.160666	340.4	31.9	-75.6	0.0
2025-01-23 19:28:57.406024	340.4	31.5	-75.4	0.0
2025-01-23 19:28:59.652791	340.5	31.0	-75.6	0.0
2025-01-23 19:29:01.898044	340.5	30.6	-76.0	0.0
2025-01-23 19:29:04.142593	340.6	30.2	-76.0	0.0
2025-01-23 19:29:06.383858	340.6	29.8	-76.1	0.0
2025-01-23 19:29:08.628578	340.7	29.3	-76.1	0.0
2025-01-23 19:29:10.875566	340.7	28.9	-76.1	0.0
2025-01-23 19:29:13.121788	340.7	28.5	-75.7	0.0
2025-01-23 19:29:15.368726	340.8	28.1	-75.4	0.0
2025-01-23 19:29:17.613180	340.8	27.8	-76.0	0.0
2025-01-23 19:29:19.860194	340.9	27.4	-76.0	0.0
2025-01-23 19:29:22.105295	340.9	27.0	-75.6	0.0
2025-01-23 19:29:24.346691	340.9	26.6	-75.9	0.0
2025-01-23 19:29:26.590654	341.0	26.2	-76.1	0.0
2025-01-23 19:29:28.834697	341.0	25.9	-75.8	0.0
2025-01-23 19:29:31.080023	341.0	25.5	-76.0	0.0
2025-01-23 19:29:33.327394	341.1	25.2	-75.2	0.0
2025-01-23 19:29:35.575511	341.1	24.8	-75.4	0.0
2025-01-23 19:29:37.820494	341.2	24.5	-75.4	0.0
2025-01-23 19:29:40.063691	341.2	24.1	-75.7	0.0
2025-01-23 19:29:42.307702	341.2	23.8	-75.4	0.0
2025-01-23 19:29:44.553764	341.3	23.5	-76.2	0.0
2025-01-23 19:29:46.798877	341.3	23.1	-75.0	0.0
2025-01-23 19:29:49.046852	341.3	22.8	-75.8	0.0
2025-01-23 19:29:51.292284	341.3	22.5	-75.7	0.0
2025-01-23 19:29:53.537161	341.4	22.2	-76.3	0.0
2025-01-23 19:29:55.781936	341.4	21.9	-75.7	0.0
2025-01-23 19:29:58.030255	341.4	21.5	-75.6	0.0
2025-01-23 19:30:00.276383	341.5	21.2	-75.2	0.0
2025-01-23 19:30:02.521518	341.5	20.9	-75.9	0.0
2025-01-23 19:30:04.769392	341.5	20.6	-75.5	0.0
2025-01-23 19:30:07.019283	341.6	20.3	-75.4	0.0
2025-01-23 19:30:09.264259	341.6	20.1	-75.7	0.0
2025-01-23 19:30:11.510666	341.6	19.8	-75.9	0.0
2025-01-23 19:30:13.755852	341.6	19.5	-75.6	0.0
2025-01-23 19:30:15.997672	341.7	19.2	-76.0	0.0
2025-01-23 19:30:18.244488	341.7	18.9	-75.3	0.0
2025-01-23 19:30:20.489176	341.7	18.7	-75.8	0.0
2025-01-23 19:30:22.733737	341.7	18.4	-75.9	0.0
2025-01-23 19:30:24.982763	341.8	18.1	-76.0	0.0
2025-01-23 19:30:27.229635	341.8	17.8	-76.0	0.0
2025-01-23 19:30:29.477788	341.8	17.6	-75.8	0.0
2025-01-23 19:30:31.725121	341.8	17.3	-75.8	0.0
2025-01-23 19:30:33.970181	341.9	17.1	-75.9	0.0
2025-01-23 19:30:36.217521	341.9	16.8	-75.3	0.0
2025-01-23 19:30:38.466022	341.9	16.6	-76.1	0.0
2025-01-23 19:30:40.711904	341.9	16.3	-76.1	0.0
2025-01-23 19:30:42.956098	342.0	16.1	-76.2	0.0
2025-01-23 19:30:45.201025	342.0	15.8	-75.3	0.0
2025-01-23 19:30:47.445369	342.0	15.6	-75.9	0.0
2025-01-23 19:30:49.694231	342.0	15.3	-75.6	0.0
2025-01-23 19:30:51.943168	342.1	15.1	-75.8	0.0
2025-01-23 19:30:54.187581	342.1	14.9	-75.4	0.0
2025-01-23 19:30:56.434292	342.1	14.6	-75.7	0.0
2025-01-23 19:30:58.680768	342.1	14.4	-75.7	0.0
2025-01-23 19:31:00.926490	342.1	14.2	-76.0	0.0
2025-01-23 19:31:03.171617	342.2	13.9	-75.3	0.0
2025-01-23 19:31:05.417384	342.2	13.7	-75.9	0.0
2025-01-23 19:31:07.664020	342.2	13.5	-75.7	0.0
2025-01-23 19:31:09.908797	342.2	13.3	-75.5	0.0
2025-01-23 19:31:12.151507	342.3	13.0	-75.0	0.0
2025-01-23 19:31:14.399347	342.3	12.8	-76.0	0.0
2025-01-23 19:31:16.647508	342.3	12.6	-75.8	0.0
2025-01-23 19:31:18.894716	342.3	12.4	-75.6	0.0
2025-01-23 19:31:21.141155	342.3	12.2	-75.8	0.0
2025-01-23 19:31:23.387672	342.4	12.0	-75.9	0.0
2025-01-23 19:31:25.632384	342.4	11.8	-75.7	0.0
2025-01-23 19:31:27.878132	342.4	11.6	-75.7	0.0
2025-01-23 19:31:30.122224	342.4	11.4	-75.9	0.0
2025-01-23 19:31:32.369606	342.4	11.2	-75.9	0.0
2025-01-23 19:31:34.618340	342.5	11.0	-75.7	0.0
2025-01-23 19:31:36.863977	342.5	10.8	-75.7	0.0
2025-01-23 19:31:39.110125	342.5	10.6	-76.1	0.0
2025-01-23 19:31:41.358212	342.5	10.4	-75.8	0.0
2025-01-23 19:31:43.607966	342.5	10.2	-75.9	0.0
2025-01-23 19:31:45.857565	342.6	10.0	-75.1	0.0
#Closed at: 2025-01-23 19:20:36.085593