passes_logs/2025/01/23/planumMaritime01/planumMaritime01__20250123_074713_NOAA_18_rec.log

#Pass ID: 20250123_074713_NOAA 18
#Satellite: NOAA 18
#Configuration: NOAA 18
#Start time: 2025-01-23 07:47:18.431822

#LorettStation: 1.0.0 05.05.2024
#Station: planumMaritime01
#Location: 37.49445 lon 55.92918 lat
#TLE: 1 28654U 05018A   25022.24143052  .00000458  00000+0  26647-3 0  9995
#TLE: 2 28654  98.8556 103.2235 0014680 159.1096 201.0679 14.13493787 14203

#Time	Az	El	Level	SNR
2025-01-23 07:47:20.600021	33.2	10.2	-94.8	0.0
2025-01-23 07:47:22.853774	33.4	10.3	-94.3	0.0
2025-01-23 07:47:25.109363	33.6	10.5	-94.2	0.0
2025-01-23 07:47:27.363477	33.9	10.6	-94.6	0.0
2025-01-23 07:47:29.617644	34.1	10.8	-94.6	0.0
2025-01-23 07:47:31.872309	34.3	11.0	-94.4	0.0
2025-01-23 07:47:34.124863	34.6	11.1	-94.6	0.0
2025-01-23 07:47:36.377693	34.8	11.3	-94.5	0.0
2025-01-23 07:47:38.629207	35.1	11.5	-94.7	0.0
2025-01-23 07:47:40.883520	35.3	11.6	-94.6	0.0
2025-01-23 07:47:43.134878	35.6	11.8	-94.5	0.0
2025-01-23 07:47:45.388772	35.8	12.0	-94.7	0.0
2025-01-23 07:47:47.641927	36.1	12.1	-94.6	0.0
2025-01-23 07:47:49.896111	36.3	12.3	-94.8	0.0
2025-01-23 07:47:52.149555	36.6	12.5	-94.7	0.0
2025-01-23 07:47:54.403052	36.9	12.6	-94.6	0.0
2025-01-23 07:47:56.657737	37.1	12.8	-94.8	0.0
2025-01-23 07:47:58.911724	37.4	13.0	-94.8	0.0
2025-01-23 07:48:01.163736	37.7	13.2	-94.4	0.0
2025-01-23 07:48:03.415943	38.0	13.3	-94.5	0.0
2025-01-23 07:48:05.668171	38.2	13.5	-94.9	0.0
2025-01-23 07:48:07.921884	38.5	13.7	-94.5	0.0
2025-01-23 07:48:10.177043	38.8	13.8	-94.9	0.0
2025-01-23 07:48:12.431088	39.1	14.0	-94.4	0.0
2025-01-23 07:48:14.683526	39.4	14.2	-94.5	0.0
2025-01-23 07:48:16.938418	39.7	14.4	-94.8	0.0
2025-01-23 07:48:19.192458	40.0	14.5	-94.4	0.0
2025-01-23 07:48:21.445146	40.3	14.7	-94.6	0.0
2025-01-23 07:48:23.697630	40.6	14.9	-94.6	0.0
2025-01-23 07:48:25.952766	40.9	15.1	-94.6	0.0
2025-01-23 07:48:28.204463	41.2	15.3	-94.5	0.0
2025-01-23 07:48:30.457510	41.5	15.4	-95.0	0.0
2025-01-23 07:48:32.708987	41.8	15.6	-94.8	0.0
2025-01-23 07:48:34.965270	42.2	15.8	-95.0	0.0
2025-01-23 07:48:37.220821	42.5	16.0	-94.5	0.0
2025-01-23 07:48:39.476624	42.8	16.2	-94.7	0.0
2025-01-23 07:48:41.731605	43.2	16.3	-94.7	0.0
2025-01-23 07:48:43.986347	43.5	16.5	-94.7	0.0
2025-01-23 07:48:46.241873	43.9	16.7	-94.5	0.0
2025-01-23 07:48:48.495040	44.2	16.9	-94.7	0.0
2025-01-23 07:48:50.751753	44.6	17.1	-94.9	0.0
2025-01-23 07:48:53.007645	44.9	17.3	-94.8	0.0
2025-01-23 07:48:55.261587	45.3	17.5	-94.6	0.0
2025-01-23 07:48:57.514825	45.6	17.6	-94.8	0.0
2025-01-23 07:48:59.770165	46.0	17.8	-94.8	0.0
2025-01-23 07:49:02.021825	46.4	18.0	-94.6	0.0
2025-01-23 07:49:04.276985	46.8	18.2	-94.6	0.0
2025-01-23 07:49:06.531686	47.1	18.4	-94.7	0.0
2025-01-23 07:49:08.786353	47.5	18.6	-94.7	0.0
2025-01-23 07:49:11.040410	47.9	18.7	-94.7	0.0
2025-01-23 07:49:13.293248	48.3	18.9	-94.9	0.0
2025-01-23 07:49:15.546890	48.7	19.1	-94.4	0.0
2025-01-23 07:49:17.799171	49.1	19.3	-94.7	0.0
2025-01-23 07:49:20.054879	49.5	19.5	-94.8	0.0
2025-01-23 07:49:22.308386	50.0	19.7	-94.7	0.0
2025-01-23 07:49:24.563629	50.4	19.9	-94.8	0.0
2025-01-23 07:49:26.817013	50.8	20.1	-94.5	0.0
2025-01-23 07:49:29.070895	51.2	20.2	-94.5	0.0
2025-01-23 07:49:31.326066	51.7	20.4	-94.8	0.0
2025-01-23 07:49:33.579155	52.1	20.6	-94.7	0.0
2025-01-23 07:49:35.831948	52.6	20.8	-94.5	0.0
2025-01-23 07:49:38.085925	53.0	21.0	-94.8	0.0
2025-01-23 07:49:40.341129	53.5	21.2	-94.7	0.0
2025-01-23 07:49:42.593506	53.9	21.3	-94.9	0.0
2025-01-23 07:49:44.846812	54.4	21.5	-94.9	0.0
2025-01-23 07:49:47.102317	54.9	21.7	-94.8	0.0
2025-01-23 07:49:49.354389	55.3	21.9	-94.6	0.0
2025-01-23 07:49:51.608990	55.8	22.1	-94.7	0.0
2025-01-23 07:49:53.863626	56.3	22.3	-94.4	0.0
2025-01-23 07:49:56.119870	56.8	22.4	-94.8	0.0
2025-01-23 07:49:58.373781	57.3	22.6	-94.7	0.0
2025-01-23 07:50:00.628671	57.8	22.8	-94.5	0.0
2025-01-23 07:50:02.883335	58.3	23.0	-94.7	0.0
2025-01-23 07:50:05.136185	58.9	23.1	-94.9	0.0
2025-01-23 07:50:07.391850	59.4	23.3	-95.0	0.0
2025-01-23 07:50:09.649050	59.9	23.5	-94.4	0.0
2025-01-23 07:50:11.900849	60.4	23.7	-94.7	0.0
2025-01-23 07:50:14.156827	61.0	23.8	-94.7	0.0
2025-01-23 07:50:16.411193	61.5	24.0	-94.4	0.0
2025-01-23 07:50:18.665642	62.1	24.2	-94.7	0.0
2025-01-23 07:50:20.920675	62.6	24.3	-94.8	0.0
2025-01-23 07:50:23.175923	63.2	24.5	-94.7	0.0
2025-01-23 07:50:25.427833	63.8	24.7	-94.6	0.0
2025-01-23 07:50:27.680720	64.4	24.8	-94.7	0.0
2025-01-23 07:50:29.932675	64.9	25.0	-94.8	0.0
2025-01-23 07:50:32.185221	65.5	25.1	-95.0	0.0
2025-01-23 07:50:34.438096	66.1	25.3	-94.8	0.0
2025-01-23 07:50:36.690193	66.7	25.4	-94.6	0.0
2025-01-23 07:50:38.944357	67.3	25.6	-94.9	0.0
2025-01-23 07:50:41.198423	67.9	25.7	-94.7	0.0
2025-01-23 07:50:43.453618	68.5	25.9	-94.7	0.0
2025-01-23 07:50:45.706287	69.2	26.0	-94.6	0.0
2025-01-23 07:50:47.960917	69.8	26.1	-94.5	0.0
2025-01-23 07:50:50.217774	70.4	26.3	-94.6	0.0
2025-01-23 07:50:52.472556	71.1	26.4	-94.6	0.0
2025-01-23 07:50:54.722160	71.7	26.5	-94.5	0.0
2025-01-23 07:50:56.973470	72.3	26.7	-95.0	0.0
2025-01-23 07:50:59.222692	73.0	26.8	-94.9	0.0
2025-01-23 07:51:01.474838	73.6	26.9	-94.9	0.0
2025-01-23 07:51:03.728494	74.3	27.0	-94.5	0.0
2025-01-23 07:51:05.980719	75.0	27.1	-94.5	0.0
2025-01-23 07:51:08.234694	75.6	27.2	-94.8	0.0
2025-01-23 07:51:10.488842	76.3	27.3	-94.6	0.0
2025-01-23 07:51:12.743047	77.0	27.4	-94.5	0.0
2025-01-23 07:51:14.996520	77.7	27.5	-94.9	0.0
2025-01-23 07:51:17.250480	78.4	27.6	-94.4	0.0
2025-01-23 07:51:19.503078	79.1	27.7	-95.0	0.0
2025-01-23 07:51:21.756882	79.8	27.8	-94.6	0.0
2025-01-23 07:51:24.006537	80.5	27.9	-94.7	0.0
2025-01-23 07:51:26.259314	81.2	28.0	-95.0	0.0
2025-01-23 07:51:28.517500	81.9	28.0	-94.4	0.0
2025-01-23 07:51:30.775138	82.6	28.1	-94.7	0.0
2025-01-23 07:51:33.028190	83.3	28.2	-94.8	0.0
2025-01-23 07:51:35.281951	84.0	28.2	-94.7	0.0
2025-01-23 07:51:37.541632	84.7	28.3	-94.8	0.0
2025-01-23 07:51:39.793210	85.4	28.3	-94.8	0.0
2025-01-23 07:51:42.044910	86.2	28.4	-95.1	0.0
2025-01-23 07:51:44.302519	86.9	28.4	-94.5	0.0
2025-01-23 07:51:46.555608	87.6	28.4	-94.8	0.0
2025-01-23 07:51:48.809593	88.3	28.5	-94.8	0.0
2025-01-23 07:51:51.062140	89.1	28.5	-94.6	0.0
2025-01-23 07:51:53.315105	89.8	28.5	-94.7	0.0
2025-01-23 07:51:55.568528	90.5	28.5	-95.0	0.0
2025-01-23 07:51:57.823196	91.2	28.5	-94.7	0.0
2025-01-23 07:52:00.076877	92.0	28.5	-95.0	0.0
2025-01-23 07:52:02.332141	92.7	28.5	-94.7	0.0
2025-01-23 07:52:04.586975	93.4	28.5	-94.6	0.0
2025-01-23 07:52:06.835672	94.2	28.5	-94.7	0.0
2025-01-23 07:52:09.087980	94.9	28.5	-94.7	0.0
2025-01-23 07:52:11.341262	95.6	28.5	-94.9	0.0
2025-01-23 07:52:13.595280	96.4	28.5	-94.4	0.0
2025-01-23 07:52:15.847885	97.1	28.4	-94.9	0.0
2025-01-23 07:52:18.098954	97.8	28.4	-95.0	0.0
2025-01-23 07:52:20.350829	98.5	28.4	-94.8	0.0
2025-01-23 07:52:22.602419	99.2	28.3	-94.9	0.0
2025-01-23 07:52:24.855036	100.0	28.3	-95.1	0.0
2025-01-23 07:52:27.108043	100.7	28.2	-95.0	0.0
2025-01-23 07:52:29.359232	101.4	28.1	-94.9	0.0
2025-01-23 07:52:31.611886	102.1	28.1	-95.0	0.0
2025-01-23 07:52:33.866223	102.8	28.0	-94.5	0.0
2025-01-23 07:52:36.117602	103.5	27.9	-94.6	0.0
2025-01-23 07:52:38.370405	104.2	27.9	-95.0	0.0
2025-01-23 07:52:40.622209	104.9	27.8	-94.5	0.0
2025-01-23 07:52:42.876798	105.6	27.7	-94.6	0.0
2025-01-23 07:52:45.130827	106.3	27.6	-94.9	0.0
2025-01-23 07:52:47.383437	107.0	27.5	-94.7	0.0
2025-01-23 07:52:49.635142	107.7	27.4	-94.7	0.0
2025-01-23 07:52:51.886866	108.4	27.3	-94.4	0.0
2025-01-23 07:52:54.141912	109.0	27.2	-95.0	0.0
2025-01-23 07:52:56.393033	109.7	27.1	-94.8	0.0
2025-01-23 07:52:58.647760	110.4	27.0	-94.6	0.0
2025-01-23 07:53:00.898759	111.1	26.9	-95.1	0.0
2025-01-23 07:53:03.150802	111.7	26.8	-94.5	0.0
2025-01-23 07:53:05.404329	112.4	26.6	-94.6	0.0
2025-01-23 07:53:07.660361	113.0	26.5	-94.6	0.0
2025-01-23 07:53:09.916765	113.7	26.4	-94.5	0.0
2025-01-23 07:53:12.171252	114.3	26.2	-94.7	0.0
2025-01-23 07:53:14.424606	114.9	26.1	-94.4	0.0
2025-01-23 07:53:16.679382	115.6	26.0	-94.8	0.0
2025-01-23 07:53:18.931864	116.2	25.8	-94.7	0.0
2025-01-23 07:53:21.184556	116.8	25.7	-95.0	0.0
2025-01-23 07:53:23.439601	117.4	25.5	-95.2	0.0
2025-01-23 07:53:25.697902	118.0	25.4	-94.9	0.0
2025-01-23 07:53:27.950335	118.6	25.2	-95.0	0.0
2025-01-23 07:53:30.207382	119.2	25.1	-95.2	0.0
2025-01-23 07:53:32.460556	119.8	24.9	-94.8	0.0
2025-01-23 07:53:34.714468	120.4	24.8	-94.6	0.0
2025-01-23 07:53:36.969328	121.0	24.6	-94.8	0.0
2025-01-23 07:53:39.224753	121.5	24.4	-94.7	0.0
2025-01-23 07:53:41.479076	122.1	24.3	-94.6	0.0
2025-01-23 07:53:43.731268	122.7	24.1	-94.8	0.0
2025-01-23 07:53:45.986524	123.2	23.9	-94.7	0.0
2025-01-23 07:53:48.240944	123.8	23.8	-94.8	0.0
2025-01-23 07:53:50.495024	124.3	23.6	-94.6	0.0
2025-01-23 07:53:52.750630	124.8	23.4	-94.9	0.0
2025-01-23 07:53:55.003415	125.4	23.2	-94.8	0.0
2025-01-23 07:53:57.257306	125.9	23.1	-95.1	0.0
2025-01-23 07:53:59.513179	126.4	22.9	-94.6	0.0
2025-01-23 07:54:01.766421	126.9	22.7	-95.0	0.0
2025-01-23 07:54:04.016724	127.4	22.5	-95.1	0.0
2025-01-23 07:54:06.272192	127.9	22.3	-94.8	0.0
2025-01-23 07:54:08.526967	128.4	22.2	-94.7	0.0
2025-01-23 07:54:10.781976	128.9	22.0	-94.8	0.0
2025-01-23 07:54:13.036829	129.4	21.8	-94.7	0.0
2025-01-23 07:54:15.290846	129.9	21.6	-94.6	0.0
2025-01-23 07:54:17.545567	130.4	21.4	-94.8	0.0
2025-01-23 07:54:19.800893	130.8	21.2	-95.0	0.0
2025-01-23 07:54:22.056780	131.3	21.1	-94.8	0.0
2025-01-23 07:54:24.313455	131.8	20.9	-94.6	0.0
2025-01-23 07:54:26.564262	132.2	20.7	-94.9	0.0
2025-01-23 07:54:28.817065	132.7	20.5	-95.0	0.0
2025-01-23 07:54:31.069595	133.1	20.3	-95.0	0.0
2025-01-23 07:54:33.324614	133.5	20.1	-94.7	0.0
2025-01-23 07:54:35.578010	134.0	19.9	-94.8	0.0
2025-01-23 07:54:37.830725	134.4	19.7	-94.7	0.0
2025-01-23 07:54:40.084002	134.8	19.6	-94.8	0.0
2025-01-23 07:54:42.337315	135.2	19.4	-94.6	0.0
2025-01-23 07:54:44.589215	135.7	19.2	-94.8	0.0
2025-01-23 07:54:46.842569	136.1	19.0	-94.8	0.0
2025-01-23 07:54:49.094603	136.5	18.8	-94.7	0.0
2025-01-23 07:54:51.348506	136.9	18.6	-94.6	0.0
2025-01-23 07:54:53.603361	137.3	18.4	-94.6	0.0
2025-01-23 07:54:55.856769	137.6	18.2	-94.9	0.0
2025-01-23 07:54:58.107439	138.0	18.0	-94.9	0.0
2025-01-23 07:55:00.361218	138.4	17.9	-94.9	0.0
2025-01-23 07:55:02.615916	138.8	17.7	-94.9	0.0
2025-01-23 07:55:04.867891	139.2	17.5	-95.1	0.0
2025-01-23 07:55:07.123579	139.5	17.3	-94.9	0.0
2025-01-23 07:55:09.378896	139.9	17.1	-94.9	0.0
2025-01-23 07:55:11.632533	140.2	16.9	-94.7	0.0
2025-01-23 07:55:13.884897	140.6	16.7	-95.0	0.0
2025-01-23 07:55:16.138839	140.9	16.6	-94.7	0.0
2025-01-23 07:55:18.391719	141.3	16.4	-94.7	0.0
2025-01-23 07:55:20.645822	141.6	16.2	-94.8	0.0
2025-01-23 07:55:22.899142	142.0	16.0	-95.1	0.0
2025-01-23 07:55:25.151151	142.3	15.8	-94.9	0.0
2025-01-23 07:55:27.404058	142.6	15.6	-94.9	0.0
2025-01-23 07:55:29.658274	142.9	15.5	-94.8	0.0
2025-01-23 07:55:31.910180	143.3	15.3	-95.1	0.0
2025-01-23 07:55:34.162265	143.6	15.1	-94.8	0.0
2025-01-23 07:55:36.413574	143.9	14.9	-94.9	0.0
2025-01-23 07:55:38.664930	144.2	14.7	-94.9	0.0
2025-01-23 07:55:40.917771	144.5	14.5	-95.0	0.0
2025-01-23 07:55:43.174158	144.8	14.4	-95.0	0.0
2025-01-23 07:55:45.427675	145.1	14.2	-95.0	0.0
2025-01-23 07:55:47.679961	145.4	14.0	-94.7	0.0
2025-01-23 07:55:49.932786	145.7	13.8	-94.7	0.0
2025-01-23 07:55:52.184891	146.0	13.7	-94.6	0.0
2025-01-23 07:55:54.435589	146.3	13.5	-94.9	0.0
2025-01-23 07:55:56.686122	146.6	13.3	-94.4	0.0
2025-01-23 07:55:58.939260	146.8	13.1	-94.9	0.0
2025-01-23 07:56:01.190901	147.1	13.0	-94.8	0.0
2025-01-23 07:56:03.444628	147.4	12.8	-94.8	0.0
2025-01-23 07:56:05.695542	147.7	12.6	-95.1	0.0
2025-01-23 07:56:07.948558	147.9	12.4	-94.6	0.0
2025-01-23 07:56:10.203796	148.2	12.3	-95.0	0.0
2025-01-23 07:56:12.455553	148.4	12.1	-95.1	0.0
2025-01-23 07:56:14.711010	148.7	11.9	-94.8	0.0
2025-01-23 07:56:16.962969	149.0	11.8	-94.7	0.0
2025-01-23 07:56:19.213372	149.2	11.6	-94.8	0.0
2025-01-23 07:56:21.466209	149.5	11.4	-95.1	0.0
2025-01-23 07:56:23.716808	149.7	11.2	-94.6	0.0
2025-01-23 07:56:25.968454	149.9	11.1	-94.8	0.0
2025-01-23 07:56:28.221269	150.2	10.9	-94.5	0.0
2025-01-23 07:56:30.472822	150.4	10.7	-95.0	0.0
2025-01-23 07:56:32.725830	150.7	10.6	-94.7	0.0
2025-01-23 07:56:34.979117	150.9	10.4	-94.5	0.0
2025-01-23 07:56:37.232056	151.1	10.3	-94.8	0.0
2025-01-23 07:56:39.484624	151.4	10.1	-94.9	0.0
#Closed at: 2025-01-23 07:47:13.436670