passes_logs/2025/01/23/planumMaritime01/planumMaritime01__20250123_022031_METEOR-M2_2_rec.log

#Pass ID: 20250123_022031_METEOR-M2 2
#Satellite: METEOR-M2 2
#Configuration: METEOR-M2 2
#Start time: 2025-01-23 02:20:36.881489

#LorettStation: 1.0.0 05.05.2024
#Station: planumMaritime01
#Location: 37.49445 lon 55.92918 lat
#TLE: 1 44387U 19038A   25022.23438579  .00000369  00000+0  17987-3 0  9991
#TLE: 2 44387  98.8577 358.6866 0002200  67.7579 292.3833 14.24122470288565

#Time	Az	El	Level	SNR
2025-01-23 02:20:39.038706	14.1	10.2	-73.0	0.0
2025-01-23 02:20:41.293811	14.0	10.4	-72.9	0.0
2025-01-23 02:20:43.548183	14.0	10.6	-72.4	0.0
2025-01-23 02:20:45.798377	14.0	10.8	-73.4	0.0
2025-01-23 02:20:48.051908	13.9	11.0	-72.7	0.0
2025-01-23 02:20:50.305951	13.9	11.2	-73.2	0.0
2025-01-23 02:20:52.563112	13.8	11.4	-74.0	0.0
2025-01-23 02:20:54.817445	13.8	11.6	-74.2	0.0
2025-01-23 02:20:57.074701	13.8	11.8	-74.6	0.0
2025-01-23 02:20:59.327540	13.7	12.0	-75.0	0.0
2025-01-23 02:21:01.582122	13.7	12.2	-75.8	0.0
2025-01-23 02:21:03.836190	13.6	12.5	-76.4	0.0
2025-01-23 02:21:06.088398	13.6	12.7	-76.9	0.0
2025-01-23 02:21:08.344470	13.5	12.9	-77.5	0.0
2025-01-23 02:21:10.596710	13.5	13.1	-77.4	0.0
2025-01-23 02:21:12.849255	13.5	13.3	-76.0	0.0
2025-01-23 02:21:15.106139	13.4	13.6	-75.5	0.0
2025-01-23 02:21:17.360461	13.4	13.8	-77.7	0.0
2025-01-23 02:21:19.613574	13.3	14.0	-78.1	0.0
2025-01-23 02:21:21.871182	13.3	14.3	-77.3	0.0
2025-01-23 02:21:24.123958	13.2	14.5	-77.5	0.0
2025-01-23 02:21:26.378255	13.2	14.7	-76.3	0.0
2025-01-23 02:21:28.633665	13.1	15.0	-75.8	0.0
2025-01-23 02:21:30.886519	13.0	15.2	-74.7	0.0
2025-01-23 02:21:33.142029	13.0	15.5	-75.7	0.0
2025-01-23 02:21:35.394527	12.9	15.7	-75.5	0.0
2025-01-23 02:21:37.646897	12.9	15.9	-76.2	0.0
2025-01-23 02:21:39.900417	12.8	16.2	-74.2	0.0
2025-01-23 02:21:42.155051	12.8	16.5	-74.6	0.0
2025-01-23 02:21:44.409994	12.7	16.7	-75.5	0.0
2025-01-23 02:21:46.661329	12.6	17.0	-74.3	0.0
2025-01-23 02:21:48.916155	12.6	17.2	-74.5	0.0
2025-01-23 02:21:51.169327	12.5	17.5	-74.7	0.0
2025-01-23 02:21:53.423202	12.4	17.8	-74.9	0.0
2025-01-23 02:21:55.679485	12.4	18.0	-74.0	0.0
2025-01-23 02:21:57.933185	12.3	18.3	-75.0	0.0
2025-01-23 02:22:00.188190	12.2	18.6	-74.5	0.0
2025-01-23 02:22:02.440692	12.2	18.9	-74.3	0.0
2025-01-23 02:22:04.693980	12.1	19.1	-74.7	0.0
2025-01-23 02:22:06.946222	12.0	19.4	-74.0	0.0
2025-01-23 02:22:09.196522	11.9	19.7	-74.7	0.0
2025-01-23 02:22:11.450077	11.9	20.0	-73.9	0.0
2025-01-23 02:22:13.703913	11.8	20.3	-74.5	0.0
2025-01-23 02:22:15.955058	11.7	20.6	-74.9	0.0
2025-01-23 02:22:18.208076	11.6	20.9	-76.5	0.0
2025-01-23 02:22:20.460298	11.5	21.2	-75.1	0.0
2025-01-23 02:22:22.714728	11.4	21.5	-76.8	0.0
2025-01-23 02:22:24.966061	11.4	21.8	-76.7	0.0
2025-01-23 02:22:27.221076	11.3	22.2	-76.7	0.0
2025-01-23 02:22:29.475730	11.2	22.5	-77.0	0.0
2025-01-23 02:22:31.728955	11.1	22.8	-77.8	0.0
2025-01-23 02:22:33.983740	11.0	23.1	-77.9	0.0
2025-01-23 02:22:36.235866	10.9	23.5	-78.5	0.0
2025-01-23 02:22:38.490087	10.8	23.8	-78.5	0.0
2025-01-23 02:22:40.741116	10.7	24.2	-78.4	0.0
2025-01-23 02:22:42.995972	10.6	24.5	-78.5	0.0
2025-01-23 02:22:45.247724	10.4	24.9	-79.2	0.0
2025-01-23 02:22:47.501663	10.3	25.2	-78.7	0.0
2025-01-23 02:22:49.756083	10.2	25.6	-78.3	0.0
2025-01-23 02:22:52.013647	10.1	26.0	-78.3	0.0
2025-01-23 02:22:54.267206	10.0	26.3	-78.3	0.0
2025-01-23 02:22:56.520911	9.9	26.7	-78.4	0.0
2025-01-23 02:22:58.776833	9.7	27.1	-76.7	0.0
2025-01-23 02:23:01.029390	9.6	27.5	-77.7	0.0
2025-01-23 02:23:03.282221	9.5	27.9	-77.8	0.0
2025-01-23 02:23:05.536924	9.3	28.3	-77.5	0.0
2025-01-23 02:23:07.789896	9.2	28.7	-77.5	0.0
2025-01-23 02:23:10.046207	9.0	29.1	-77.2	0.0
2025-01-23 02:23:12.301021	8.9	29.5	-77.6	0.0
2025-01-23 02:23:14.553496	8.7	29.9	-77.3	0.0
2025-01-23 02:23:16.810059	8.6	30.4	-76.5	0.0
2025-01-23 02:23:19.064965	8.4	30.8	-77.2	0.0
2025-01-23 02:23:21.316233	8.2	31.2	-76.5	0.0
2025-01-23 02:23:23.568081	8.1	31.7	-76.3	0.0
2025-01-23 02:23:25.823935	7.9	32.1	-74.4	0.0
2025-01-23 02:23:28.078799	7.7	32.6	-74.3	0.0
2025-01-23 02:23:30.328850	7.5	33.1	-76.2	0.0
2025-01-23 02:23:32.583704	7.3	33.5	-75.8	0.0
2025-01-23 02:23:34.839052	7.1	34.0	-75.4	0.0
2025-01-23 02:23:37.097211	6.9	34.5	-76.8	0.0
2025-01-23 02:23:39.349406	6.7	35.0	-76.0	0.0
2025-01-23 02:23:41.607500	6.5	35.5	-77.4	0.0
2025-01-23 02:23:43.866681	6.3	36.0	-76.5	0.0
2025-01-23 02:23:46.119349	6.0	36.6	-77.3	0.0
2025-01-23 02:23:48.372700	5.8	37.1	-78.3	0.0
2025-01-23 02:23:50.631948	5.5	37.6	-78.3	0.0
2025-01-23 02:23:52.883710	5.3	38.2	-78.8	0.0
2025-01-23 02:23:55.136671	5.0	38.7	-78.8	0.0
2025-01-23 02:23:57.393140	4.7	39.3	-78.7	0.0
2025-01-23 02:23:59.648479	4.4	39.9	-79.6	0.0
2025-01-23 02:24:01.902335	4.1	40.4	-79.6	0.0
2025-01-23 02:24:04.157956	3.8	41.0	-80.1	0.0
2025-01-23 02:24:06.412311	3.5	41.6	-80.5	0.0
2025-01-23 02:24:08.662518	3.2	42.2	-81.0	0.0
2025-01-23 02:24:10.917882	2.8	42.8	-81.1	0.0
2025-01-23 02:24:13.171511	2.5	43.5	-80.8	0.0
2025-01-23 02:24:15.423830	2.1	44.1	-80.9	0.0
2025-01-23 02:24:17.676248	1.7	44.7	-80.9	0.0
2025-01-23 02:24:19.932211	1.3	45.4	-81.2	0.0
2025-01-23 02:24:22.185883	0.8	46.1	-81.2	0.0
2025-01-23 02:24:24.439510	0.4	46.7	-81.3	0.0
2025-01-23 02:24:26.691304	359.9	47.4	-81.3	0.0
2025-01-23 02:24:28.948281	359.4	48.1	-81.1	0.0
2025-01-23 02:24:31.199646	358.9	48.8	-80.4	0.0
2025-01-23 02:24:33.450589	358.4	49.5	-80.7	0.0
2025-01-23 02:24:35.706475	357.8	50.2	-81.4	0.0
2025-01-23 02:24:37.955935	357.3	50.9	-81.4	0.0
2025-01-23 02:24:40.209341	356.6	51.6	-81.5	0.0
2025-01-23 02:24:42.465369	356.0	52.4	-81.2	0.0
2025-01-23 02:24:44.716851	355.3	53.1	-81.3	0.0
2025-01-23 02:24:46.971503	354.6	53.9	-81.3	0.0
2025-01-23 02:24:49.227686	353.8	54.6	-81.2	0.0
2025-01-23 02:24:51.482965	353.0	55.4	-81.6	0.0
2025-01-23 02:24:53.740396	352.2	56.2	-80.5	0.0
2025-01-23 02:24:55.995068	351.3	56.9	-81.3	0.0
2025-01-23 02:24:58.254932	350.3	57.7	-80.8	0.0
2025-01-23 02:25:00.509072	349.3	58.5	-81.4	0.0
2025-01-23 02:25:02.764610	348.3	59.3	-81.3	0.0
2025-01-23 02:25:05.016009	347.1	60.1	-81.3	0.0
2025-01-23 02:25:07.273490	345.9	60.8	-81.4	0.0
2025-01-23 02:25:09.528295	344.6	61.6	-81.4	0.0
2025-01-23 02:25:11.781710	343.3	62.4	-81.8	0.0
2025-01-23 02:25:14.036672	341.8	63.2	-81.6	0.0
2025-01-23 02:25:16.292478	340.3	63.9	-81.6	0.0
2025-01-23 02:25:18.545536	338.6	64.7	-81.7	0.0
2025-01-23 02:25:20.799609	336.9	65.4	-81.8	0.0
2025-01-23 02:25:23.056559	335.0	66.1	-81.6	0.0
2025-01-23 02:25:25.314110	332.9	66.8	-81.7	0.0
2025-01-23 02:25:27.569137	330.8	67.5	-81.7	0.0
2025-01-23 02:25:29.820275	328.5	68.1	-81.8	0.0
2025-01-23 02:25:32.071203	326.1	68.8	-82.0	0.0
2025-01-23 02:25:34.323519	323.5	69.3	-82.0	0.0
2025-01-23 02:25:36.574134	320.7	69.9	-81.9	0.0
2025-01-23 02:25:38.826727	317.8	70.4	-81.9	0.0
2025-01-23 02:25:41.080546	314.7	70.9	-81.8	0.0
2025-01-23 02:25:43.332027	311.5	71.3	-81.9	0.0
2025-01-23 02:25:45.585572	308.1	71.6	-81.9	0.0
2025-01-23 02:25:47.838754	304.6	71.9	-81.9	0.0
2025-01-23 02:25:50.090623	301.0	72.1	-82.0	0.0
2025-01-23 02:25:52.344436	297.3	72.3	-81.9	0.0
2025-01-23 02:25:54.599708	293.6	72.4	-81.9	0.0
2025-01-23 02:25:56.852330	289.9	72.4	-81.9	0.0
2025-01-23 02:25:59.107147	286.1	72.3	-81.8	0.0
2025-01-23 02:26:01.358055	282.4	72.2	-82.1	0.0
2025-01-23 02:26:03.608736	278.8	72.0	-81.8	0.0
2025-01-23 02:26:05.863244	275.3	71.7	-81.7	0.0
2025-01-23 02:26:08.115089	271.9	71.4	-81.9	0.0
2025-01-23 02:26:10.369293	268.6	71.0	-81.9	0.0
2025-01-23 02:26:12.627663	265.5	70.5	-81.7	0.0
2025-01-23 02:26:14.878684	262.5	70.0	-82.0	0.0
2025-01-23 02:26:17.131842	259.7	69.5	-81.9	0.0
2025-01-23 02:26:19.383253	257.1	68.9	-81.8	0.0
2025-01-23 02:26:21.637330	254.6	68.3	-81.8	0.0
2025-01-23 02:26:23.891339	252.2	67.7	-81.7	0.0
2025-01-23 02:26:26.142562	250.0	67.0	-81.7	0.0
2025-01-23 02:26:28.398206	248.0	66.3	-81.9	0.0
2025-01-23 02:26:30.648516	246.1	65.6	-81.7	0.0
2025-01-23 02:26:32.901404	244.3	64.8	-81.6	0.0
2025-01-23 02:26:35.153586	242.6	64.1	-82.0	0.0
2025-01-23 02:26:37.409629	241.0	63.3	-82.0	0.0
2025-01-23 02:26:39.668841	239.5	62.6	-81.8	0.0
2025-01-23 02:26:41.921123	238.1	61.8	-81.9	0.0
2025-01-23 02:26:44.177388	236.8	61.0	-81.7	0.0
2025-01-23 02:26:46.430120	235.6	60.2	-81.8	0.0
2025-01-23 02:26:48.684092	234.5	59.5	-81.7	0.0
2025-01-23 02:26:50.938989	233.4	58.7	-81.8	0.0
2025-01-23 02:26:53.191000	232.4	57.9	-81.7	0.0
2025-01-23 02:26:55.447053	231.4	57.1	-81.7	0.0
2025-01-23 02:26:57.701483	230.5	56.3	-81.6	0.0
2025-01-23 02:26:59.958085	229.6	55.6	-81.5	0.0
2025-01-23 02:27:02.213101	228.8	54.8	-81.7	0.0
2025-01-23 02:27:04.464659	228.0	54.0	-81.6	0.0
2025-01-23 02:27:06.720049	227.3	53.3	-81.7	0.0
2025-01-23 02:27:08.974473	226.6	52.5	-81.4	0.0
2025-01-23 02:27:11.224878	226.0	51.8	-81.6	0.0
2025-01-23 02:27:13.477241	225.3	51.1	-81.6	0.0
2025-01-23 02:27:15.732064	224.7	50.3	-81.5	0.0
2025-01-23 02:27:17.986781	224.2	49.6	-81.8	0.0
2025-01-23 02:27:20.239802	223.6	48.9	-81.3	0.0
2025-01-23 02:27:22.493159	223.1	48.2	-81.8	0.0
2025-01-23 02:27:24.749095	222.6	47.5	-81.6	0.0
2025-01-23 02:27:27.004225	222.1	46.8	-81.5	0.0
2025-01-23 02:27:29.256000	221.7	46.2	-81.3	0.0
2025-01-23 02:27:31.507797	221.2	45.5	-81.3	0.0
2025-01-23 02:27:33.759230	220.8	44.9	-81.5	0.0
2025-01-23 02:27:36.010364	220.4	44.2	-81.2	0.0
2025-01-23 02:27:38.264629	220.0	43.6	-81.5	0.0
2025-01-23 02:27:40.519029	219.7	42.9	-81.3	0.0
2025-01-23 02:27:42.771752	219.3	42.3	-81.5	0.0
2025-01-23 02:27:45.024733	219.0	41.7	-81.7	0.0
2025-01-23 02:27:47.277631	218.7	41.1	-81.5	0.0
2025-01-23 02:27:49.531938	218.3	40.5	-81.5	0.0
2025-01-23 02:27:51.785238	218.0	39.9	-81.5	0.0
2025-01-23 02:27:54.037761	217.7	39.4	-81.6	0.0
2025-01-23 02:27:56.292134	217.5	38.8	-81.3	0.0
2025-01-23 02:27:58.547186	217.2	38.2	-81.3	0.0
2025-01-23 02:28:00.801352	216.9	37.7	-81.3	0.0
2025-01-23 02:28:03.054925	216.7	37.1	-81.3	0.0
2025-01-23 02:28:05.305500	216.4	36.6	-81.1	0.0
2025-01-23 02:28:07.560922	216.2	36.1	-81.3	0.0
2025-01-23 02:28:09.816710	216.0	35.6	-81.2	0.0
2025-01-23 02:28:12.070266	215.7	35.1	-80.9	0.0
2025-01-23 02:28:14.324294	215.5	34.6	-80.9	0.0
2025-01-23 02:28:16.579146	215.3	34.1	-81.0	0.0
2025-01-23 02:28:18.832967	215.1	33.6	-80.9	0.0
2025-01-23 02:28:21.084104	214.9	33.1	-81.0	0.0
2025-01-23 02:28:23.337053	214.7	32.6	-80.9	0.0
2025-01-23 02:28:25.591172	214.5	32.2	-80.9	0.0
2025-01-23 02:28:27.841769	214.4	31.7	-80.8	0.0
2025-01-23 02:28:30.095956	214.2	31.2	-80.6	0.0
2025-01-23 02:28:32.349123	214.0	30.8	-80.8	0.0
2025-01-23 02:28:34.603131	213.8	30.4	-80.7	0.0
2025-01-23 02:28:36.855203	213.7	29.9	-80.4	0.0
2025-01-23 02:28:39.106059	213.5	29.5	-80.7	0.0
2025-01-23 02:28:41.360788	213.4	29.1	-80.4	0.0
2025-01-23 02:28:43.613483	213.2	28.7	-80.6	0.0
2025-01-23 02:28:45.864891	213.1	28.3	-80.5	0.0
2025-01-23 02:28:48.120444	212.9	27.9	-80.6	0.0
2025-01-23 02:28:50.374468	212.8	27.5	-80.5	0.0
2025-01-23 02:28:52.632647	212.7	27.1	-80.4	0.0
2025-01-23 02:28:54.883133	212.5	26.7	-80.5	0.0
2025-01-23 02:28:57.138411	212.4	26.3	-80.3	0.0
2025-01-23 02:28:59.392597	212.3	25.9	-80.6	0.0
2025-01-23 02:29:01.643811	212.2	25.6	-80.5	0.0
2025-01-23 02:29:03.896383	212.1	25.2	-80.7	0.0
2025-01-23 02:29:06.147613	211.9	24.8	-80.6	0.0
2025-01-23 02:29:08.400916	211.8	24.5	-80.4	0.0
2025-01-23 02:29:10.654612	211.7	24.1	-80.5	0.0
2025-01-23 02:29:12.908848	211.6	23.8	-80.2	0.0
2025-01-23 02:29:15.164127	211.5	23.4	-80.2	0.0
2025-01-23 02:29:17.417822	211.4	23.1	-80.3	0.0
2025-01-23 02:29:19.671332	211.3	22.8	-80.4	0.0
2025-01-23 02:29:21.923737	211.2	22.4	-80.6	0.0
2025-01-23 02:29:24.174547	211.1	22.1	-80.4	0.0
2025-01-23 02:29:26.431161	211.0	21.8	-80.5	0.0
2025-01-23 02:29:28.688008	210.9	21.5	-80.5	0.0
2025-01-23 02:29:30.941997	210.8	21.2	-80.4	0.0
2025-01-23 02:29:33.196813	210.8	20.9	-80.5	0.0
2025-01-23 02:29:35.450609	210.7	20.6	-80.5	0.0
2025-01-23 02:29:37.706112	210.6	20.3	-80.6	0.0
2025-01-23 02:29:39.961621	210.5	20.0	-80.6	0.0
2025-01-23 02:29:42.214745	210.4	19.7	-80.5	0.0
2025-01-23 02:29:44.465888	210.3	19.4	-80.4	0.0
2025-01-23 02:29:46.718719	210.3	19.1	-80.5	0.0
2025-01-23 02:29:48.971441	210.2	18.8	-80.7	0.0
2025-01-23 02:29:51.225211	210.1	18.5	-80.5	0.0
2025-01-23 02:29:53.479446	210.0	18.2	-80.3	0.0
2025-01-23 02:29:55.731547	210.0	18.0	-80.4	0.0
2025-01-23 02:29:57.983613	209.9	17.7	-80.6	0.0
2025-01-23 02:30:00.236570	209.8	17.4	-80.3	0.0
2025-01-23 02:30:02.487354	209.8	17.2	-80.3	0.0
2025-01-23 02:30:04.738259	209.7	16.9	-80.3	0.0
2025-01-23 02:30:06.987954	209.6	16.6	-80.5	0.0
2025-01-23 02:30:09.238533	209.6	16.4	-80.5	0.0
2025-01-23 02:30:11.490588	209.5	16.1	-80.4	0.0
2025-01-23 02:30:13.743530	209.5	15.9	-80.3	0.0
2025-01-23 02:30:15.994816	209.4	15.6	-80.7	0.0
2025-01-23 02:30:18.250386	209.3	15.4	-80.3	0.0
2025-01-23 02:30:20.502515	209.3	15.1	-80.3	0.0
2025-01-23 02:30:22.755549	209.2	14.9	-80.0	0.0
2025-01-23 02:30:25.008307	209.2	14.6	-80.0	0.0
2025-01-23 02:30:27.260380	209.1	14.4	-79.7	0.0
2025-01-23 02:30:29.514579	209.1	14.2	-80.0	0.0
2025-01-23 02:30:31.768584	209.0	13.9	-79.8	0.0
2025-01-23 02:30:34.020822	209.0	13.7	-79.6	0.0
2025-01-23 02:30:36.274252	208.9	13.5	-79.6	0.0
2025-01-23 02:30:38.523992	208.9	13.2	-79.5	0.0
2025-01-23 02:30:40.779494	208.8	13.0	-79.6	0.0
2025-01-23 02:30:43.034822	208.8	12.8	-79.8	0.0
2025-01-23 02:30:45.287438	208.7	12.6	-79.6	0.0
2025-01-23 02:30:47.543208	208.7	12.4	-78.9	0.0
2025-01-23 02:30:49.799643	208.6	12.1	-79.5	0.0
2025-01-23 02:30:52.054684	208.6	11.9	-79.5	0.0
2025-01-23 02:30:54.311720	208.5	11.7	-79.3	0.0
2025-01-23 02:30:56.563373	208.5	11.5	-79.1	0.0
2025-01-23 02:30:58.818181	208.4	11.3	-79.0	0.0
2025-01-23 02:31:01.071628	208.4	11.1	-78.9	0.0
2025-01-23 02:31:03.326842	208.4	10.9	-80.5	0.0
2025-01-23 02:31:05.581799	208.3	10.7	-81.1	0.0
2025-01-23 02:31:07.838328	208.3	10.5	-81.9	0.0
2025-01-23 02:31:10.090574	208.2	10.3	-81.9	0.0
2025-01-23 02:31:12.346837	208.2	10.1	-82.1	0.0
#Closed at: 2025-01-23 02:20:31.885692