passes_logs/2025/01/23/planumMaritime01/planumMaritime01__20250123_165945_METOP-B_rec.log

#Pass ID: 20250123_165945_METOP-B
#Satellite: METOP-B
#Configuration: METOP-B
#Start time: 2025-01-23 16:59:50.083242

#LorettStation: 1.0.0 05.05.2024
#Station: planumMaritime01
#Location: 37.49445 lon 55.92918 lat
#TLE: 1 38771U 12049A   25022.22192915  .00000342  00000+0  17605-3 0  9994
#TLE: 2 38771  98.6000  80.1937 0001632  73.2603 286.8754 14.21415579640663

#Time	Az	El	Level	SNR
2025-01-23 16:59:52.246657	133.5	10.2	-76.5	0.0
2025-01-23 16:59:54.495110	133.3	10.4	-75.5	0.0
2025-01-23 16:59:56.741419	133.2	10.6	-76.2	0.0
2025-01-23 16:59:58.988114	133.1	10.8	-75.3	0.0
2025-01-23 17:00:01.234028	132.9	10.9	-75.5	0.0
2025-01-23 17:00:03.478849	132.8	11.1	-75.2	0.0
2025-01-23 17:00:05.725359	132.7	11.3	-75.3	0.0
2025-01-23 17:00:07.969063	132.5	11.5	-75.2	0.0
2025-01-23 17:00:10.215156	132.4	11.7	-75.8	0.0
2025-01-23 17:00:12.460259	132.2	11.9	-76.1	0.0
2025-01-23 17:00:14.706133	132.1	12.1	-76.2	0.0
2025-01-23 17:00:16.950707	131.9	12.3	-75.1	0.0
2025-01-23 17:00:19.195864	131.8	12.5	-75.8	0.0
2025-01-23 17:00:21.442804	131.6	12.7	-75.7	0.0
2025-01-23 17:00:23.693046	131.5	13.0	-75.8	0.0
2025-01-23 17:00:25.940034	131.3	13.2	-75.6	0.0
2025-01-23 17:00:28.186225	131.2	13.4	-76.2	0.0
2025-01-23 17:00:30.433730	131.0	13.6	-76.2	0.0
2025-01-23 17:00:32.679691	130.8	13.8	-76.8	0.0
2025-01-23 17:00:34.923947	130.7	14.0	-76.3	0.0
2025-01-23 17:00:37.170036	130.5	14.2	-75.8	0.0
2025-01-23 17:00:39.415206	130.3	14.5	-75.6	0.0
2025-01-23 17:00:41.660796	130.1	14.7	-76.3	0.0
2025-01-23 17:00:43.908702	130.0	14.9	-76.9	0.0
2025-01-23 17:00:46.155542	129.8	15.1	-76.0	0.0
2025-01-23 17:00:48.401857	129.6	15.3	-76.9	0.0
2025-01-23 17:00:50.649855	129.4	15.6	-76.9	0.0
2025-01-23 17:00:52.894311	129.2	15.8	-77.2	0.0
2025-01-23 17:00:55.141029	129.0	16.0	-75.9	0.0
2025-01-23 17:00:57.390087	128.8	16.3	-75.9	0.0
2025-01-23 17:00:59.637864	128.6	16.5	-77.2	0.0
2025-01-23 17:01:01.884644	128.4	16.7	-75.8	0.0
2025-01-23 17:01:04.129377	128.2	17.0	-76.7	0.0
2025-01-23 17:01:06.374016	128.0	17.2	-76.8	0.0
2025-01-23 17:01:08.624320	127.8	17.5	-75.6	0.0
2025-01-23 17:01:10.871596	127.6	17.7	-76.2	0.0
2025-01-23 17:01:13.119060	127.4	18.0	-76.0	0.0
2025-01-23 17:01:15.364884	127.2	18.2	-77.2	0.0
2025-01-23 17:01:17.614063	126.9	18.5	-76.2	0.0
2025-01-23 17:01:19.860557	126.7	18.7	-76.5	0.0
2025-01-23 17:01:22.106163	126.5	19.0	-76.7	0.0
2025-01-23 17:01:24.352831	126.2	19.2	-76.6	0.0
2025-01-23 17:01:26.599525	126.0	19.5	-76.7	0.0
2025-01-23 17:01:28.845871	125.7	19.8	-77.0	0.0
2025-01-23 17:01:31.090496	125.5	20.0	-76.4	0.0
2025-01-23 17:01:33.333285	125.2	20.3	-75.9	0.0
2025-01-23 17:01:35.579624	125.0	20.6	-76.0	0.0
2025-01-23 17:01:37.826647	124.7	20.8	-76.2	0.0
2025-01-23 17:01:40.072355	124.4	21.1	-77.0	0.0
2025-01-23 17:01:42.319488	124.2	21.4	-76.4	0.0
2025-01-23 17:01:44.564554	123.9	21.7	-76.5	0.0
2025-01-23 17:01:46.809749	123.6	21.9	-76.6	0.0
2025-01-23 17:01:49.059136	123.3	22.2	-75.8	0.0
2025-01-23 17:01:51.305009	123.0	22.5	-75.1	0.0
2025-01-23 17:01:53.550294	122.7	22.8	-67.3	0.0
2025-01-23 17:01:55.797921	122.4	23.1	-76.2	0.0
2025-01-23 17:01:58.044408	122.1	23.4	-76.5	0.0
2025-01-23 17:02:00.289173	121.8	23.7	-76.2	0.0
2025-01-23 17:02:02.537049	121.5	24.0	-76.6	0.0
2025-01-23 17:02:04.784010	121.1	24.3	-76.5	0.0
2025-01-23 17:02:07.028725	120.8	24.6	-76.0	0.0
2025-01-23 17:02:09.277871	120.4	24.9	-77.0	0.0
2025-01-23 17:02:11.524686	120.1	25.2	-76.8	0.0
2025-01-23 17:02:13.768945	119.7	25.5	-75.6	0.0
2025-01-23 17:02:16.015468	119.4	25.8	-77.3	0.0
2025-01-23 17:02:18.261917	119.0	26.1	-77.0	0.0
2025-01-23 17:02:20.509894	118.6	26.4	-77.0	0.0
2025-01-23 17:02:22.754769	118.2	26.8	-76.9	0.0
2025-01-23 17:02:25.000243	117.8	27.1	-75.9	0.0
2025-01-23 17:02:27.243311	117.4	27.4	-76.7	0.0
2025-01-23 17:02:29.487656	117.0	27.7	-77.0	0.0
2025-01-23 17:02:31.732629	116.6	28.1	-76.8	0.0
2025-01-23 17:02:33.978125	116.2	28.4	-77.0	0.0
2025-01-23 17:02:36.222736	115.7	28.7	-77.2	0.0
2025-01-23 17:02:38.468115	115.3	29.1	-75.9	0.0
2025-01-23 17:02:40.714726	114.8	29.4	-75.3	0.0
2025-01-23 17:02:42.961113	114.3	29.7	-75.8	0.0
2025-01-23 17:02:45.208146	113.9	30.1	-75.4	0.0
2025-01-23 17:02:47.455182	113.4	30.4	-75.4	0.0
2025-01-23 17:02:49.703371	112.9	30.8	-75.7	0.0
2025-01-23 17:02:51.950562	112.4	31.1	-75.9	0.0
2025-01-23 17:02:54.199356	111.8	31.4	-76.3	0.0
2025-01-23 17:02:56.443942	111.3	31.8	-76.4	0.0
2025-01-23 17:02:58.690505	110.8	32.1	-76.3	0.0
2025-01-23 17:03:00.938648	110.2	32.5	-77.3	0.0
2025-01-23 17:03:03.184526	109.6	32.8	-76.6	0.0
2025-01-23 17:03:05.429789	109.1	33.2	-76.0	0.0
2025-01-23 17:03:07.679109	108.5	33.6	-77.2	0.0
2025-01-23 17:03:09.954622	107.9	33.9	-77.2	0.0
2025-01-23 17:03:12.202426	107.2	34.3	-76.9	0.0
2025-01-23 17:03:14.450524	106.6	34.6	-75.8	0.0
2025-01-23 17:03:16.696753	105.9	35.0	-77.6	0.0
2025-01-23 17:03:18.943931	105.3	35.3	-77.2	0.0
2025-01-23 17:03:21.188805	104.6	35.7	-77.0	0.0
2025-01-23 17:03:23.434069	103.9	36.0	-75.9	0.0
2025-01-23 17:03:25.675694	103.2	36.4	-76.2	0.0
2025-01-23 17:03:27.921064	102.5	36.7	-75.8	0.0
2025-01-23 17:03:30.163412	101.7	37.1	-75.8	0.0
2025-01-23 17:03:32.408933	101.0	37.4	-76.6	0.0
2025-01-23 17:03:34.655105	100.2	37.8	-77.0	0.0
2025-01-23 17:03:36.901002	99.4	38.1	-77.1	0.0
2025-01-23 17:03:39.149064	98.6	38.4	-77.7	0.0
2025-01-23 17:03:41.395516	97.8	38.8	-76.6	0.0
2025-01-23 17:03:43.641592	97.0	39.1	-76.1	0.0
2025-01-23 17:03:45.888578	96.1	39.4	-77.8	0.0
2025-01-23 17:03:48.136147	95.2	39.8	-77.2	0.0
2025-01-23 17:03:50.385171	94.4	40.1	-76.7	0.0
2025-01-23 17:03:52.633035	93.4	40.4	-77.2	0.0
2025-01-23 17:03:54.880761	92.5	40.7	-77.4	0.0
2025-01-23 17:03:57.126983	91.6	41.0	-76.4	0.0
2025-01-23 17:03:59.371138	90.6	41.3	-77.1	0.0
2025-01-23 17:04:01.616844	89.6	41.6	-76.1	0.0
2025-01-23 17:04:03.865037	88.6	41.9	-75.6	0.0
2025-01-23 17:04:06.110301	87.6	42.1	-77.0	0.0
2025-01-23 17:04:08.359561	86.6	42.4	-77.5	0.0
2025-01-23 17:04:10.605878	85.6	42.7	-76.5	0.0
2025-01-23 17:04:12.850233	84.5	42.9	-77.1	0.0
2025-01-23 17:04:15.095788	83.4	43.2	-76.8	0.0
2025-01-23 17:04:17.341662	82.3	43.4	-77.0	0.0
2025-01-23 17:04:19.590884	81.2	43.6	-76.6	0.0
2025-01-23 17:04:21.835427	80.1	43.8	-76.8	0.0
2025-01-23 17:04:24.084401	78.9	44.0	-76.8	0.0
2025-01-23 17:04:26.328820	77.8	44.2	-76.9	0.0
2025-01-23 17:04:28.575732	76.6	44.3	-76.5	0.0
2025-01-23 17:04:30.821728	75.4	44.5	-76.6	0.0
2025-01-23 17:04:33.065930	74.3	44.6	-77.1	0.0
2025-01-23 17:04:35.313198	73.1	44.8	-77.8	0.0
2025-01-23 17:04:37.561386	71.8	44.9	-77.7	0.0
2025-01-23 17:04:39.804979	70.6	45.0	-77.5	0.0
2025-01-23 17:04:42.049702	69.4	45.1	-78.1	0.0
2025-01-23 17:04:44.293685	68.2	45.2	-77.9	0.0
2025-01-23 17:04:46.541472	66.9	45.2	-78.1	0.0
2025-01-23 17:04:48.791095	65.7	45.3	-77.2	0.0
2025-01-23 17:04:51.035717	64.5	45.3	-77.4	0.0
2025-01-23 17:04:53.282896	63.2	45.3	-78.0	0.0
2025-01-23 17:04:55.528000	62.0	45.3	-76.7	0.0
2025-01-23 17:04:57.774007	60.7	45.3	-77.2	0.0
2025-01-23 17:05:00.019945	59.5	45.3	-77.0	0.0
2025-01-23 17:05:02.266461	58.2	45.2	-77.0	0.0
2025-01-23 17:05:04.514985	57.0	45.2	-77.1	0.0
2025-01-23 17:05:06.759168	55.8	45.1	-78.3	0.0
2025-01-23 17:05:09.005698	54.6	45.0	-76.9	0.0
2025-01-23 17:05:11.254797	53.3	44.9	-76.9	0.0
2025-01-23 17:05:13.503561	52.1	44.8	-77.6	0.0
2025-01-23 17:05:15.751384	50.9	44.7	-77.0	0.0
2025-01-23 17:05:17.998050	49.7	44.5	-77.7	0.0
2025-01-23 17:05:20.242237	48.6	44.4	-78.0	0.0
2025-01-23 17:05:22.486909	47.4	44.2	-76.1	0.0
2025-01-23 17:05:24.732346	46.3	44.0	-77.4	0.0
2025-01-23 17:05:26.978806	45.1	43.8	-77.3	0.0
2025-01-23 17:05:29.225702	44.0	43.6	-76.9	0.0
2025-01-23 17:05:31.474182	42.9	43.4	-77.0	0.0
2025-01-23 17:05:33.719417	41.8	43.2	-78.4	0.0
2025-01-23 17:05:35.965819	40.7	42.9	-77.5	0.0
2025-01-23 17:05:38.214245	39.7	42.7	-78.0	0.0
2025-01-23 17:05:40.458832	38.6	42.4	-76.5	0.0
2025-01-23 17:05:42.705553	37.6	42.2	-78.1	0.0
2025-01-23 17:05:44.950622	36.6	41.9	-76.9	0.0
2025-01-23 17:05:47.196061	35.6	41.6	-76.3	0.0
2025-01-23 17:05:49.441821	34.6	41.3	-76.6	0.0
2025-01-23 17:05:51.686958	33.6	41.0	-77.7	0.0
2025-01-23 17:05:53.931849	32.7	40.7	-77.7	0.0
2025-01-23 17:05:56.176900	31.8	40.4	-76.1	0.0
2025-01-23 17:05:58.423408	30.9	40.1	-76.9	0.0
2025-01-23 17:06:00.668398	30.0	39.8	-76.2	0.0
2025-01-23 17:06:02.915444	29.1	39.5	-77.5	0.0
2025-01-23 17:06:05.164435	28.3	39.1	-78.1	0.0
2025-01-23 17:06:07.411805	27.4	38.8	-77.3	0.0
2025-01-23 17:06:09.658520	26.6	38.5	-77.1	0.0
2025-01-23 17:06:11.905380	25.8	38.1	-77.1	0.0
2025-01-23 17:06:14.154068	25.0	37.8	-77.4	0.0
2025-01-23 17:06:16.398542	24.3	37.5	-77.5	0.0
2025-01-23 17:06:18.644178	23.5	37.1	-77.5	0.0
2025-01-23 17:06:20.892892	22.8	36.8	-78.2	0.0
2025-01-23 17:06:23.140620	22.0	36.4	-78.2	0.0
2025-01-23 17:06:25.389364	21.3	36.1	-78.2	0.0
2025-01-23 17:06:27.634803	20.6	35.7	-77.3	0.0
2025-01-23 17:06:29.883345	20.0	35.4	-77.6	0.0
2025-01-23 17:06:32.127374	19.3	35.0	-77.0	0.0
2025-01-23 17:06:34.373960	18.7	34.7	-77.9	0.0
2025-01-23 17:06:36.620193	18.0	34.3	-77.1	0.0
2025-01-23 17:06:38.865110	17.4	34.0	-78.5	0.0
2025-01-23 17:06:41.113254	16.8	33.6	-77.7	0.0
2025-01-23 17:06:43.362706	16.2	33.2	-78.0	0.0
2025-01-23 17:06:45.610460	15.6	32.9	-78.3	0.0
2025-01-23 17:06:47.857622	15.1	32.5	-77.3	0.0
2025-01-23 17:06:50.103699	14.5	32.2	-77.3	0.0
2025-01-23 17:06:52.350691	14.0	31.9	-78.1	0.0
2025-01-23 17:06:54.594096	13.4	31.5	-78.3	0.0
2025-01-23 17:06:56.843136	12.9	31.2	-77.9	0.0
2025-01-23 17:06:59.091847	12.4	30.8	-77.5	0.0
2025-01-23 17:07:01.339603	11.9	30.5	-77.5	0.0
2025-01-23 17:07:03.586489	11.4	30.1	-78.2	0.0
2025-01-23 17:07:05.832765	11.0	29.8	-77.6	0.0
2025-01-23 17:07:08.078178	10.5	29.5	-77.4	0.0
2025-01-23 17:07:10.328278	10.0	29.1	-78.3	0.0
2025-01-23 17:07:12.574169	9.6	28.8	-76.7	0.0
2025-01-23 17:07:14.820629	9.1	28.5	-76.5	0.0
2025-01-23 17:07:17.067401	8.7	28.1	-77.7	0.0
2025-01-23 17:07:19.311968	8.3	27.8	-78.0	0.0
2025-01-23 17:07:21.562484	7.9	27.5	-77.6	0.0
2025-01-23 17:07:23.808281	7.5	27.2	-77.3	0.0
2025-01-23 17:07:26.052981	7.1	26.8	-77.6	0.0
2025-01-23 17:07:28.297136	6.7	26.5	-77.8	0.0
2025-01-23 17:07:30.543880	6.3	26.2	-77.1	0.0
2025-01-23 17:07:32.791031	5.9	25.9	-77.9	0.0
2025-01-23 17:07:35.038571	5.6	25.6	-78.0	0.0
2025-01-23 17:07:37.287468	5.2	25.3	-77.5	0.0
2025-01-23 17:07:39.536638	4.9	25.0	-78.3	0.0
2025-01-23 17:07:41.783805	4.5	24.7	-78.4	0.0
2025-01-23 17:07:44.030967	4.2	24.4	-77.7	0.0
2025-01-23 17:07:46.277981	3.9	24.1	-77.5	0.0
2025-01-23 17:07:48.525107	3.5	23.8	-78.1	0.0
2025-01-23 17:07:50.773593	3.2	23.5	-78.4	0.0
2025-01-23 17:07:53.019565	2.9	23.2	-77.4	0.0
2025-01-23 17:07:55.267453	2.6	22.9	-76.6	0.0
2025-01-23 17:07:57.513310	2.3	22.6	-78.0	0.0
2025-01-23 17:07:59.761994	2.0	22.3	-77.9	0.0
2025-01-23 17:08:02.006640	1.7	22.0	-78.0	0.0
2025-01-23 17:08:04.252672	1.4	21.8	-77.6	0.0
2025-01-23 17:08:06.498578	1.2	21.5	-77.2	0.0
2025-01-23 17:08:08.744346	0.9	21.2	-78.2	0.0
2025-01-23 17:08:10.989418	0.6	20.9	-76.2	0.0
2025-01-23 17:08:13.233578	0.4	20.7	-77.9	0.0
2025-01-23 17:08:15.477388	0.1	20.4	-76.4	0.0
2025-01-23 17:08:17.726120	359.9	20.1	-76.9	0.0
2025-01-23 17:08:19.975217	359.6	19.9	-76.7	0.0
2025-01-23 17:08:22.222862	359.4	19.6	-77.5	0.0
2025-01-23 17:08:24.469303	359.1	19.3	-76.9	0.0
2025-01-23 17:08:26.715410	358.9	19.1	-76.8	0.0
2025-01-23 17:08:28.962511	358.6	18.8	-75.6	0.0
2025-01-23 17:08:31.209086	358.4	18.6	-78.7	0.0
2025-01-23 17:08:33.456883	358.2	18.3	-77.9	0.0
2025-01-23 17:08:35.701762	358.0	18.1	-77.4	0.0
2025-01-23 17:08:37.948499	357.8	17.8	-77.1	0.0
2025-01-23 17:08:40.195872	357.5	17.6	-78.6	0.0
2025-01-23 17:08:42.441794	357.3	17.3	-78.4	0.0
2025-01-23 17:08:44.692748	357.1	17.1	-78.0	0.0
2025-01-23 17:08:46.939867	356.9	16.9	-77.3	0.0
2025-01-23 17:08:49.186737	356.7	16.6	-77.3	0.0
2025-01-23 17:08:51.431754	356.5	16.4	-77.6	0.0
2025-01-23 17:08:53.680037	356.3	16.2	-77.6	0.0
2025-01-23 17:08:55.923915	356.1	15.9	-77.1	0.0
2025-01-23 17:08:58.170921	356.0	15.7	-77.6	0.0
2025-01-23 17:09:00.419069	355.8	15.5	-76.3	0.0
2025-01-23 17:09:02.669943	355.6	15.2	-76.7	0.0
2025-01-23 17:09:04.913914	355.4	15.0	-76.8	0.0
2025-01-23 17:09:07.159472	355.2	14.8	-77.1	0.0
2025-01-23 17:09:09.405932	355.1	14.6	-76.9	0.0
2025-01-23 17:09:11.650649	354.9	14.4	-76.8	0.0
2025-01-23 17:09:13.898361	354.7	14.1	-77.3	0.0
2025-01-23 17:09:16.142313	354.6	13.9	-76.5	0.0
2025-01-23 17:09:18.387951	354.4	13.7	-77.2	0.0
2025-01-23 17:09:20.635493	354.2	13.5	-77.2	0.0
2025-01-23 17:09:22.879513	354.1	13.3	-77.8	0.0
2025-01-23 17:09:25.126079	353.9	13.1	-77.3	0.0
2025-01-23 17:09:27.370836	353.8	12.9	-76.7	0.0
2025-01-23 17:09:29.614980	353.6	12.7	-77.7	0.0
2025-01-23 17:09:31.860760	353.5	12.5	-78.0	0.0
2025-01-23 17:09:34.106712	353.3	12.3	-77.9	0.0
2025-01-23 17:09:36.354142	353.2	12.1	-77.9	0.0
2025-01-23 17:09:38.600311	353.0	11.9	-77.0	0.0
2025-01-23 17:09:40.848805	352.9	11.7	-77.6	0.0
2025-01-23 17:09:43.097729	352.8	11.5	-77.6	0.0
2025-01-23 17:09:45.343063	352.6	11.3	-77.5	0.0
2025-01-23 17:09:47.591873	352.5	11.1	-76.6	0.0
2025-01-23 17:09:49.836001	352.4	10.9	-77.5	0.0
2025-01-23 17:09:52.081212	352.2	10.7	-78.0	0.0
2025-01-23 17:09:54.325065	352.1	10.5	-76.9	0.0
2025-01-23 17:09:56.572692	352.0	10.3	-76.9	0.0
2025-01-23 17:09:58.818564	351.9	10.1	-76.6	0.0
#Closed at: 2025-01-23 16:59:45.084791