passes_logs/2025/01/23/planumMaritime01/planumMaritime01__20250123_013720_METEOR-M2_4_rec.log

#Pass ID: 20250123_013720_METEOR-M2 4
#Satellite: METEOR-M2 4
#Configuration: METEOR-M2 4
#Start time: 2025-01-23 01:37:25.521798

#LorettStation: 1.0.0 05.05.2024
#Station: planumMaritime01
#Location: 37.49445 lon 55.92918 lat
#TLE: 1 59051U 24039A   25022.20335979  .00000149  00000+0  86414-4 0  9997
#TLE: 2 59051  98.6303 345.0619 0006521 201.7708 158.3194 14.22327575 46625

#Time	Az	El	Level	SNR
2025-01-23 01:37:27.691417	11.5	10.2	-75.2	0.0
2025-01-23 01:37:29.945600	11.4	10.4	-75.2	0.0
2025-01-23 01:37:32.198774	11.3	10.6	-75.1	0.0
2025-01-23 01:37:34.452278	11.2	10.8	-75.8	0.0
2025-01-23 01:37:36.706470	11.2	11.0	-76.8	0.0
2025-01-23 01:37:38.959702	11.1	11.2	-75.4	0.0
2025-01-23 01:37:41.215311	11.0	11.4	-77.8	0.0
2025-01-23 01:37:43.467889	10.9	11.6	-77.6	0.0
2025-01-23 01:37:45.720641	10.9	11.8	-76.8	0.0
2025-01-23 01:37:47.974860	10.8	12.0	-77.5	0.0
2025-01-23 01:37:50.229397	10.7	12.2	-77.6	0.0
2025-01-23 01:37:52.482706	10.6	12.4	-77.5	0.0
2025-01-23 01:37:54.738535	10.5	12.6	-76.5	0.0
2025-01-23 01:37:56.990917	10.4	12.8	-77.0	0.0
2025-01-23 01:37:59.246765	10.3	13.1	-75.8	0.0
2025-01-23 01:38:01.501081	10.2	13.3	-76.7	0.0
2025-01-23 01:38:03.751405	10.2	13.5	-75.5	0.0
2025-01-23 01:38:06.005080	10.1	13.7	-76.5	0.0
2025-01-23 01:38:08.261161	10.0	13.9	-75.3	0.0
2025-01-23 01:38:10.515955	9.9	14.2	-74.2	0.0
2025-01-23 01:38:12.771072	9.8	14.4	-76.1	0.0
2025-01-23 01:38:15.023566	9.7	14.6	-76.2	0.0
2025-01-23 01:38:17.277531	9.6	14.9	-76.3	0.0
2025-01-23 01:38:19.530009	9.5	15.1	-75.7	0.0
2025-01-23 01:38:21.788420	9.4	15.3	-75.9	0.0
2025-01-23 01:38:24.040701	9.3	15.6	-75.0	0.0
2025-01-23 01:38:26.295686	9.1	15.8	-75.8	0.0
2025-01-23 01:38:28.552452	9.0	16.1	-74.9	0.0
2025-01-23 01:38:30.804733	8.9	16.3	-75.0	0.0
2025-01-23 01:38:33.060673	8.8	16.5	-75.5	0.0
2025-01-23 01:38:35.316065	8.7	16.8	-76.1	0.0
2025-01-23 01:38:37.567352	8.6	17.1	-75.6	0.0
2025-01-23 01:38:39.822228	8.5	17.3	-75.9	0.0
2025-01-23 01:38:42.076947	8.3	17.6	-76.6	0.0
2025-01-23 01:38:44.332435	8.2	17.8	-77.0	0.0
2025-01-23 01:38:46.587037	8.1	18.1	-76.7	0.0
2025-01-23 01:38:48.839305	7.9	18.4	-77.0	0.0
2025-01-23 01:38:51.096526	7.8	18.6	-77.3	0.0
2025-01-23 01:38:53.349952	7.7	18.9	-76.3	0.0
2025-01-23 01:38:55.603960	7.5	19.2	-77.4	0.0
2025-01-23 01:38:57.854692	7.4	19.5	-76.9	0.0
2025-01-23 01:39:00.108181	7.3	19.7	-77.1	0.0
2025-01-23 01:39:02.360592	7.1	20.0	-77.2	0.0
2025-01-23 01:39:04.616987	7.0	20.3	-76.7	0.0
2025-01-23 01:39:06.870481	6.8	20.6	-76.3	0.0
2025-01-23 01:39:09.124989	6.6	20.9	-77.7	0.0
2025-01-23 01:39:11.380275	6.5	21.2	-78.4	0.0
2025-01-23 01:39:13.636391	6.3	21.5	-78.6	0.0
2025-01-23 01:39:15.894103	6.2	21.8	-77.8	0.0
2025-01-23 01:39:18.151182	6.0	22.1	-78.2	0.0
2025-01-23 01:39:20.406223	5.8	22.4	-78.3	0.0
2025-01-23 01:39:22.658013	5.6	22.7	-78.6	0.0
2025-01-23 01:39:24.910929	5.5	23.0	-77.2	0.0
2025-01-23 01:39:27.165599	5.3	23.4	-78.3	0.0
2025-01-23 01:39:29.419074	5.1	23.7	-78.0	0.0
2025-01-23 01:39:31.667989	4.9	24.0	-76.8	0.0
2025-01-23 01:39:33.921405	4.7	24.3	-77.1	0.0
2025-01-23 01:39:36.175726	4.5	24.7	-76.3	0.0
2025-01-23 01:39:38.431774	4.3	25.0	-76.3	0.0
2025-01-23 01:39:40.685369	4.1	25.4	-77.1	0.0
2025-01-23 01:39:42.940370	3.9	25.7	-76.8	0.0
2025-01-23 01:39:45.197192	3.7	26.1	-75.9	0.0
2025-01-23 01:39:47.451260	3.4	26.4	-75.4	0.0
2025-01-23 01:39:49.707881	3.2	26.8	-75.4	0.0
2025-01-23 01:39:51.958890	3.0	27.1	-74.7	0.0
2025-01-23 01:39:54.211483	2.7	27.5	-72.8	0.0
2025-01-23 01:39:56.465600	2.5	27.9	-74.1	0.0
2025-01-23 01:39:58.715961	2.2	28.3	-72.6	0.0
2025-01-23 01:40:00.967930	2.0	28.6	-71.8	0.0
2025-01-23 01:40:03.221824	1.7	29.0	-72.4	0.0
2025-01-23 01:40:05.475029	1.4	29.4	-70.9	0.0
2025-01-23 01:40:07.727564	1.1	29.8	-72.4	0.0
2025-01-23 01:40:09.979937	0.9	30.2	-72.8	0.0
2025-01-23 01:40:12.229025	0.6	30.6	-74.2	0.0
2025-01-23 01:40:14.482660	0.3	31.0	-73.9	0.0
2025-01-23 01:40:16.734568	360.0	31.5	-74.0	0.0
2025-01-23 01:40:18.988334	359.6	31.9	-73.8	0.0
2025-01-23 01:40:21.240609	359.3	32.3	-75.1	0.0
2025-01-23 01:40:23.492007	359.0	32.7	-74.6	0.0
2025-01-23 01:40:25.745091	358.6	33.2	-75.9	0.0
2025-01-23 01:40:28.001276	358.3	33.6	-76.3	0.0
2025-01-23 01:40:30.255387	357.9	34.1	-76.9	0.0
2025-01-23 01:40:32.508059	357.5	34.5	-77.6	0.0
2025-01-23 01:40:34.759253	357.1	35.0	-77.2	0.0
2025-01-23 01:40:37.014417	356.7	35.5	-78.2	0.0
2025-01-23 01:40:39.266643	356.3	35.9	-78.4	0.0
2025-01-23 01:40:41.518419	355.9	36.4	-79.4	0.0
2025-01-23 01:40:43.771716	355.5	36.9	-79.8	0.0
2025-01-23 01:40:46.024118	355.0	37.4	-79.2	0.0
2025-01-23 01:40:48.275646	354.6	37.9	-79.0	0.0
2025-01-23 01:40:50.528582	354.1	38.3	-79.1	0.0
2025-01-23 01:40:52.781989	353.6	38.8	-79.7	0.7
2025-01-23 01:40:55.036461	353.1	39.4	-79.6	0.3
2025-01-23 01:40:57.293725	352.6	39.9	-79.3	0.8
2025-01-23 01:40:59.546411	352.0	40.4	-79.8	0.6
2025-01-23 01:41:01.804217	351.5	40.9	-79.7	0.2
2025-01-23 01:41:04.058263	350.9	41.4	-79.7	0.0
2025-01-23 01:41:06.313231	350.3	41.9	-80.1	0.0
2025-01-23 01:41:08.568424	349.7	42.5	-80.2	0.0
2025-01-23 01:41:10.822880	349.0	43.0	-80.2	0.0
2025-01-23 01:41:13.077417	348.4	43.6	-80.3	0.0
2025-01-23 01:41:15.334681	347.7	44.1	-80.6	0.0
2025-01-23 01:41:17.590602	347.0	44.6	-80.4	0.0
2025-01-23 01:41:19.846492	346.2	45.2	-80.3	0.0
2025-01-23 01:41:22.101370	345.5	45.7	-80.9	0.0
2025-01-23 01:41:24.357418	344.7	46.3	-80.7	0.0
2025-01-23 01:41:26.609893	343.9	46.8	-80.9	0.0
2025-01-23 01:41:28.860722	343.0	47.4	-81.0	0.0
2025-01-23 01:41:31.114507	342.2	48.0	-81.2	0.0
2025-01-23 01:41:33.369309	341.3	48.5	-81.2	0.0
2025-01-23 01:41:35.624142	340.3	49.1	-81.2	0.0
2025-01-23 01:41:37.877176	339.3	49.6	-81.4	0.0
2025-01-23 01:41:40.132125	338.3	50.2	-81.3	0.0
2025-01-23 01:41:42.386837	337.3	50.7	-80.8	0.0
2025-01-23 01:41:44.638460	336.2	51.2	-81.0	0.0
2025-01-23 01:41:46.893205	335.1	51.8	-81.3	0.0
2025-01-23 01:41:49.145049	333.9	52.3	-81.3	0.0
2025-01-23 01:41:51.397362	332.7	52.8	-81.3	0.0
2025-01-23 01:41:53.650774	331.4	53.4	-81.5	0.0
2025-01-23 01:41:55.904416	330.1	53.9	-81.6	0.0
2025-01-23 01:41:58.155982	328.8	54.4	-81.4	0.0
2025-01-23 01:42:00.411522	327.4	54.8	-81.6	0.0
2025-01-23 01:42:02.662512	325.9	55.3	-81.4	0.0
2025-01-23 01:42:04.916671	324.4	55.8	-81.5	0.0
2025-01-23 01:42:07.169167	322.9	56.2	-81.5	0.0
2025-01-23 01:42:09.423864	321.3	56.6	-81.5	0.0
2025-01-23 01:42:11.677211	319.7	57.0	-81.5	0.0
2025-01-23 01:42:13.930224	318.0	57.4	-81.7	0.0
2025-01-23 01:42:16.186263	316.3	57.8	-81.5	0.0
2025-01-23 01:42:18.439808	314.5	58.1	-81.4	0.0
2025-01-23 01:42:20.693118	312.7	58.4	-81.6	0.0
2025-01-23 01:42:22.947116	310.8	58.7	-81.4	0.0
2025-01-23 01:42:25.198934	308.9	59.0	-81.2	0.0
2025-01-23 01:42:27.453209	306.9	59.2	-81.4	0.0
2025-01-23 01:42:29.708823	305.0	59.4	-81.1	0.0
2025-01-23 01:42:31.960142	303.0	59.6	-81.1	0.0
2025-01-23 01:42:34.213282	301.0	59.7	-81.1	0.0
2025-01-23 01:42:36.466262	298.9	59.8	-81.2	0.0
2025-01-23 01:42:38.722278	296.8	59.9	-81.2	0.0
2025-01-23 01:42:40.978454	294.8	59.9	-81.1	0.0
2025-01-23 01:42:43.234906	292.7	59.9	-81.0	0.0
2025-01-23 01:42:45.484816	290.6	59.9	-81.1	0.0
2025-01-23 01:42:47.738913	288.6	59.8	-81.1	0.5
2025-01-23 01:42:49.991656	286.5	59.7	-80.8	1.4
2025-01-23 01:42:52.246105	284.5	59.6	-80.7	0.7
2025-01-23 01:42:54.497915	282.5	59.4	-80.8	1.1
2025-01-23 01:42:56.750383	280.5	59.2	-81.0	1.8
2025-01-23 01:42:59.001374	278.6	59.0	-81.0	0.0
2025-01-23 01:43:01.254680	276.7	58.8	-81.0	0.0
2025-01-23 01:43:03.507025	274.8	58.5	-80.9	0.0
2025-01-23 01:43:05.758585	272.9	58.2	-81.0	0.0
2025-01-23 01:43:08.013708	271.1	57.8	-80.9	0.0
2025-01-23 01:43:10.266551	269.4	57.5	-81.0	0.0
2025-01-23 01:43:12.518192	267.7	57.1	-80.6	0.0
2025-01-23 01:43:14.772023	266.0	56.7	-80.8	1.0
2025-01-23 01:43:17.024767	264.4	56.3	-80.9	1.3
2025-01-23 01:43:19.277609	262.9	55.9	-80.9	0.0
2025-01-23 01:43:21.528798	261.4	55.4	-81.1	0.0
2025-01-23 01:43:23.783330	259.9	54.9	-81.2	0.0
2025-01-23 01:43:26.038928	258.5	54.5	-81.1	0.0
2025-01-23 01:43:28.294018	257.1	54.0	-81.2	0.0
2025-01-23 01:43:30.547301	255.8	53.5	-81.3	0.0
2025-01-23 01:43:32.798981	254.5	52.9	-81.2	0.0
2025-01-23 01:43:35.051340	253.3	52.4	-81.4	0.0
2025-01-23 01:43:37.303860	252.1	51.9	-81.3	0.0
2025-01-23 01:43:39.554963	251.0	51.4	-81.3	0.0
2025-01-23 01:43:41.810591	249.9	50.8	-81.3	0.0
2025-01-23 01:43:44.062436	248.8	50.3	-81.4	0.0
2025-01-23 01:43:46.315028	247.8	49.7	-81.3	0.0
2025-01-23 01:43:48.565725	246.8	49.2	-81.5	0.0
2025-01-23 01:43:50.816787	245.9	48.6	-81.4	0.0
2025-01-23 01:43:53.070321	245.0	48.1	-81.6	0.0
2025-01-23 01:43:55.322884	244.1	47.5	-81.7	0.0
2025-01-23 01:43:57.575417	243.2	46.9	-81.5	0.0
2025-01-23 01:43:59.829112	242.4	46.4	-81.4	0.0
2025-01-23 01:44:02.082382	241.6	45.8	-81.7	0.0
2025-01-23 01:44:04.333495	240.8	45.3	-81.5	0.0
2025-01-23 01:44:06.586362	240.1	44.7	-81.5	0.0
2025-01-23 01:44:08.839622	239.4	44.2	-81.5	0.0
2025-01-23 01:44:11.091170	238.7	43.6	-81.5	0.0
2025-01-23 01:44:13.345484	238.0	43.1	-81.6	0.0
2025-01-23 01:44:15.597861	237.4	42.5	-81.5	0.0
2025-01-23 01:44:17.848951	236.7	42.0	-81.4	0.0
2025-01-23 01:44:20.101921	236.1	41.5	-81.5	0.0
2025-01-23 01:44:22.354176	235.5	41.0	-81.3	0.0
2025-01-23 01:44:24.607646	235.0	40.4	-81.6	0.0
2025-01-23 01:44:26.860136	234.4	39.9	-81.4	0.0
2025-01-23 01:44:29.115277	233.9	39.4	-81.4	0.0
2025-01-23 01:44:31.371231	233.4	38.9	-81.3	0.0
2025-01-23 01:44:33.623712	232.9	38.4	-81.2	0.0
2025-01-23 01:44:35.876598	232.4	37.9	-81.3	0.0
2025-01-23 01:44:38.131992	231.9	37.4	-81.3	0.0
2025-01-23 01:44:40.388662	231.5	36.9	-81.2	0.0
2025-01-23 01:44:42.639138	231.0	36.4	-81.2	0.0
2025-01-23 01:44:44.895141	230.6	35.9	-81.2	0.0
2025-01-23 01:44:47.151172	230.2	35.5	-81.0	0.0
2025-01-23 01:44:49.405404	229.8	35.0	-80.8	0.0
2025-01-23 01:44:51.658747	229.4	34.5	-80.8	0.0
2025-01-23 01:44:53.911432	229.0	34.1	-80.9	0.0
2025-01-23 01:44:56.164013	228.6	33.6	-81.2	0.0
2025-01-23 01:44:58.413802	228.3	33.2	-81.0	0.0
2025-01-23 01:45:00.666327	227.9	32.7	-81.0	0.0
2025-01-23 01:45:02.922412	227.6	32.3	-80.8	0.0
2025-01-23 01:45:05.174287	227.3	31.9	-80.5	0.0
2025-01-23 01:45:07.429568	226.9	31.4	-80.6	0.0
2025-01-23 01:45:09.682112	226.6	31.0	-80.5	0.0
2025-01-23 01:45:11.934198	226.3	30.6	-80.7	0.0
2025-01-23 01:45:14.190721	226.0	30.2	-80.6	0.0
2025-01-23 01:45:16.444962	225.7	29.8	-80.4	0.0
2025-01-23 01:45:18.696098	225.4	29.4	-80.2	0.0
2025-01-23 01:45:20.950933	225.2	29.0	-80.3	0.0
2025-01-23 01:45:23.201113	224.9	28.6	-80.3	0.0
2025-01-23 01:45:25.453316	224.6	28.2	-80.4	0.0
2025-01-23 01:45:27.705580	224.4	27.8	-80.3	0.0
2025-01-23 01:45:29.960360	224.1	27.5	-80.5	0.0
2025-01-23 01:45:32.213718	223.9	27.1	-80.5	0.0
2025-01-23 01:45:34.464831	223.7	26.7	-80.3	0.0
2025-01-23 01:45:36.716781	223.4	26.3	-80.4	0.0
2025-01-23 01:45:38.979040	223.2	26.0	-80.5	0.0
2025-01-23 01:45:41.233696	223.0	25.6	-80.2	0.0
2025-01-23 01:45:43.487580	222.8	25.3	-80.3	0.0
2025-01-23 01:45:45.744935	222.5	24.9	-80.3	0.0
2025-01-23 01:45:48.002469	222.3	24.6	-80.2	0.0
2025-01-23 01:45:50.260033	222.1	24.2	-80.2	0.0
2025-01-23 01:45:52.514477	221.9	23.9	-80.3	0.0
2025-01-23 01:45:54.766215	221.7	23.6	-80.2	0.0
2025-01-23 01:45:57.018283	221.5	23.3	-80.2	0.0
2025-01-23 01:45:59.269748	221.4	22.9	-80.4	0.0
2025-01-23 01:46:01.521281	221.2	22.6	-80.0	0.0
2025-01-23 01:46:03.776281	221.0	22.3	-80.1	0.0
2025-01-23 01:46:06.030368	220.8	22.0	-80.2	0.0
2025-01-23 01:46:08.280749	220.7	21.7	-79.8	0.0
2025-01-23 01:46:10.532448	220.5	21.4	-79.9	0.0
2025-01-23 01:46:12.784500	220.3	21.1	-80.1	0.0
2025-01-23 01:46:15.035930	220.2	20.8	-79.9	0.0
2025-01-23 01:46:17.287342	220.0	20.5	-80.1	0.0
2025-01-23 01:46:19.543842	219.8	20.2	-80.0	0.0
2025-01-23 01:46:21.795779	219.7	19.9	-80.1	0.0
2025-01-23 01:46:24.048232	219.5	19.6	-80.2	0.0
2025-01-23 01:46:26.302149	219.4	19.3	-80.0	0.0
2025-01-23 01:46:28.556370	219.3	19.0	-80.1	0.0
2025-01-23 01:46:30.808566	219.1	18.8	-80.3	0.0
2025-01-23 01:46:33.061969	219.0	18.5	-80.2	0.0
2025-01-23 01:46:35.313416	218.8	18.2	-80.2	0.0
2025-01-23 01:46:37.566999	218.7	18.0	-80.1	0.0
2025-01-23 01:46:39.820178	218.6	17.7	-80.1	0.0
2025-01-23 01:46:42.071495	218.4	17.4	-80.2	0.0
2025-01-23 01:46:44.324850	218.3	17.2	-80.2	0.0
2025-01-23 01:46:46.581533	218.2	16.9	-80.2	0.0
2025-01-23 01:46:48.836198	218.1	16.7	-80.1	0.0
2025-01-23 01:46:51.090392	218.0	16.4	-80.3	0.0
2025-01-23 01:46:53.344978	217.8	16.2	-80.1	0.0
2025-01-23 01:46:55.597170	217.7	15.9	-80.1	0.0
2025-01-23 01:46:57.849376	217.6	15.7	-80.3	0.0
2025-01-23 01:47:00.102102	217.5	15.4	-80.0	0.0
2025-01-23 01:47:02.354957	217.4	15.2	-79.8	0.0
2025-01-23 01:47:04.606912	217.3	14.9	-80.0	0.0
2025-01-23 01:47:06.861593	217.2	14.7	-80.0	0.0
2025-01-23 01:47:09.117001	217.1	14.5	-79.9	0.0
2025-01-23 01:47:11.370453	217.0	14.2	-80.0	0.0
2025-01-23 01:47:13.623557	216.9	14.0	-80.0	0.0
2025-01-23 01:47:15.877484	216.8	13.8	-79.9	0.0
2025-01-23 01:47:18.132127	216.7	13.6	-79.8	0.0
2025-01-23 01:47:20.388278	216.6	13.3	-79.9	0.0
2025-01-23 01:47:22.643710	216.5	13.1	-79.8	0.0
2025-01-23 01:47:24.899065	216.4	12.9	-79.7	0.0
2025-01-23 01:47:27.149966	216.3	12.7	-79.9	0.0
2025-01-23 01:47:29.402725	216.2	12.5	-79.7	0.0
2025-01-23 01:47:31.654511	216.1	12.2	-79.5	0.0
2025-01-23 01:47:33.908329	216.0	12.0	-78.4	0.0
2025-01-23 01:47:36.161453	216.0	11.8	-79.4	0.0
2025-01-23 01:47:38.414082	215.9	11.6	-79.0	0.0
2025-01-23 01:47:40.665998	215.8	11.4	-79.0	0.0
2025-01-23 01:47:42.918834	215.7	11.2	-78.7	0.0
2025-01-23 01:47:45.169716	215.6	11.0	-80.0	0.0
2025-01-23 01:47:47.422378	215.5	10.8	-79.9	1.2
2025-01-23 01:47:49.675965	215.5	10.6	-80.7	4.1
2025-01-23 01:47:51.930227	215.4	10.4	-81.7	0.0
2025-01-23 01:47:54.185916	215.3	10.2	-82.0	0.0
#Closed at: 2025-01-23 01:37:20.526011