passes_logs/2025/01/23/planumMaritime01/planumMaritime01__20250123_065012_METEOR-M2_3_rec.log

#Pass ID: 20250123_065012_METEOR-M2 3
#Satellite: METEOR-M2 3
#Configuration: METEOR-M2 3
#Start time: 2025-01-23 06:50:17.171844

#LorettStation: 1.0.0 05.05.2024
#Station: planumMaritime01
#Location: 37.49445 lon 55.92918 lat
#TLE: 1 57166U 23091A   25022.21022386  .00000083  00000+0  55255-4 0  9991
#TLE: 2 57166  98.6839  80.5850 0003565 200.3362 159.7676 14.23971113 81799

#Time	Az	El	Level	SNR
2025-01-23 06:50:19.333125	24.9	10.2	-66.2	0.0
2025-01-23 06:50:21.587883	25.0	10.4	-67.0	0.0
2025-01-23 06:50:23.842384	25.2	10.6	-63.6	0.0
2025-01-23 06:50:26.096937	25.3	10.7	-66.0	0.0
2025-01-23 06:50:28.350742	25.4	10.9	-66.4	0.0
2025-01-23 06:50:30.604964	25.6	11.1	-66.7	0.0
2025-01-23 06:50:32.858980	25.7	11.3	-67.3	0.0
2025-01-23 06:50:35.114059	25.9	11.5	-65.6	0.0
2025-01-23 06:50:37.368129	26.0	11.7	-66.5	0.0
2025-01-23 06:50:39.620191	26.1	11.9	-68.2	0.0
2025-01-23 06:50:41.872108	26.3	12.1	-69.2	0.0
2025-01-23 06:50:44.124828	26.4	12.3	-67.7	0.0
2025-01-23 06:50:46.379325	26.6	12.5	-68.6	0.0
2025-01-23 06:50:48.633587	26.8	12.7	-68.9	0.0
2025-01-23 06:50:50.888287	26.9	12.9	-69.0	0.0
2025-01-23 06:50:53.141155	27.1	13.1	-68.7	0.0
2025-01-23 06:50:55.397103	27.2	13.4	-70.2	0.0
2025-01-23 06:50:57.652546	27.4	13.6	-69.5	0.0
2025-01-23 06:50:59.908140	27.6	13.8	-67.6	0.0
2025-01-23 06:51:02.160370	27.7	14.0	-69.5	0.0
2025-01-23 06:51:04.411728	27.9	14.2	-67.7	0.0
2025-01-23 06:51:06.666493	28.1	14.4	-65.3	0.0
2025-01-23 06:51:08.917739	28.3	14.6	-69.8	0.0
2025-01-23 06:51:11.169426	28.4	14.9	-63.5	0.0
2025-01-23 06:51:13.423218	28.6	15.1	-62.6	0.0
2025-01-23 06:51:15.677723	28.8	15.3	-62.3	0.0
2025-01-23 06:51:17.927382	29.0	15.5	-68.4	0.0
2025-01-23 06:51:20.181513	29.2	15.8	-71.3	0.0
2025-01-23 06:51:22.437177	29.4	16.0	-65.8	0.0
2025-01-23 06:51:24.692679	29.6	16.2	-61.2	0.0
2025-01-23 06:51:26.945827	29.7	16.5	-67.7	0.0
2025-01-23 06:51:29.207798	29.9	16.7	-67.1	0.0
2025-01-23 06:51:31.460683	30.2	17.0	-65.2	0.0
2025-01-23 06:51:33.717419	30.4	17.2	-66.9	0.0
2025-01-23 06:51:35.970186	30.6	17.4	-66.1	0.0
2025-01-23 06:51:38.226001	30.8	17.7	-63.7	0.0
2025-01-23 06:51:40.481469	31.0	17.9	-59.8	0.0
2025-01-23 06:51:42.737691	31.2	18.2	-67.6	0.0
2025-01-23 06:51:44.992190	31.4	18.4	-58.8	0.0
2025-01-23 06:51:47.246393	31.7	18.7	-64.0	0.0
2025-01-23 06:51:49.504309	31.9	18.9	-68.6	0.0
2025-01-23 06:51:51.761852	32.1	19.2	-65.1	0.0
2025-01-23 06:51:54.015247	32.4	19.5	-60.8	0.0
2025-01-23 06:51:56.270785	32.6	19.7	-66.1	0.0
2025-01-23 06:51:58.525823	32.9	20.0	-62.4	0.0
2025-01-23 06:52:00.782271	33.1	20.3	-59.7	0.0
2025-01-23 06:52:03.033351	33.4	20.5	-63.3	0.0
2025-01-23 06:52:05.286725	33.6	20.8	-63.6	0.0
2025-01-23 06:52:07.540974	33.9	21.1	-66.4	0.0
2025-01-23 06:52:09.791262	34.2	21.4	-67.7	0.0
2025-01-23 06:52:12.043315	34.4	21.6	-69.0	0.0
2025-01-23 06:52:14.294422	34.7	21.9	-70.2	0.0
2025-01-23 06:52:16.547329	35.0	22.2	-66.1	0.0
2025-01-23 06:52:18.802986	35.3	22.5	-61.8	0.0
2025-01-23 06:52:21.055548	35.6	22.8	-70.1	0.0
2025-01-23 06:52:23.310536	35.9	23.1	-61.8	0.0
2025-01-23 06:52:25.564553	36.2	23.4	-67.4	0.0
2025-01-23 06:52:27.818216	36.5	23.7	-64.9	0.0
2025-01-23 06:52:30.072124	36.8	24.0	-62.5	0.0
2025-01-23 06:52:32.323070	37.1	24.3	-62.3	0.0
2025-01-23 06:52:34.574377	37.4	24.6	-63.0	0.0
2025-01-23 06:52:36.831289	37.8	24.9	-65.3	0.0
2025-01-23 06:52:39.086182	38.1	25.2	-71.5	0.0
2025-01-23 06:52:41.341711	38.5	25.5	-68.2	0.0
2025-01-23 06:52:43.595585	38.8	25.8	-69.3	0.0
2025-01-23 06:52:45.845812	39.2	26.2	-68.6	0.0
2025-01-23 06:52:48.097393	39.5	26.5	-69.6	0.0
2025-01-23 06:52:50.351023	39.9	26.8	-65.6	0.0
2025-01-23 06:52:52.604792	40.3	27.1	-70.9	0.0
2025-01-23 06:52:54.856645	40.7	27.5	-66.7	0.0
2025-01-23 06:52:57.109715	41.1	27.8	-63.6	0.0
2025-01-23 06:52:59.361928	41.5	28.1	-68.0	0.0
2025-01-23 06:53:01.615745	41.9	28.5	-69.4	0.0
2025-01-23 06:53:03.868981	42.3	28.8	-62.6	0.0
2025-01-23 06:53:06.123067	42.8	29.2	-68.7	0.0
2025-01-23 06:53:08.378390	43.2	29.5	-68.0	0.0
2025-01-23 06:53:10.632720	43.7	29.9	-69.6	0.0
2025-01-23 06:53:12.885334	44.1	30.2	-69.9	0.0
2025-01-23 06:53:15.138894	44.6	30.6	-65.1	0.0
2025-01-23 06:53:17.391599	45.1	30.9	-64.5	0.0
2025-01-23 06:53:19.644946	45.6	31.3	-66.9	0.0
2025-01-23 06:53:21.897317	46.1	31.7	-71.3	0.0
2025-01-23 06:53:24.152123	46.6	32.0	-69.5	0.0
2025-01-23 06:53:26.406378	47.1	32.4	-70.8	0.0
2025-01-23 06:53:28.661319	47.7	32.8	-70.5	0.0
2025-01-23 06:53:30.915866	48.2	33.1	-70.5	0.0
2025-01-23 06:53:33.167021	48.8	33.5	-70.0	0.0
2025-01-23 06:53:35.418148	49.4	33.9	-71.4	0.0
2025-01-23 06:53:37.671381	50.0	34.2	-69.5	0.0
2025-01-23 06:53:39.923468	50.6	34.6	-68.6	0.0
2025-01-23 06:53:42.177354	51.2	35.0	-72.5	0.0
2025-01-23 06:53:44.430959	51.8	35.4	-71.4	0.0
2025-01-23 06:53:46.688229	52.5	35.8	-73.2	0.0
2025-01-23 06:53:48.941672	53.1	36.1	-74.4	0.0
2025-01-23 06:53:51.197647	53.8	36.5	-74.8	0.0
2025-01-23 06:53:53.454461	54.5	36.9	-73.9	0.0
2025-01-23 06:53:55.708125	55.2	37.3	-74.6	0.0
2025-01-23 06:53:57.961639	55.9	37.6	-76.1	0.0
2025-01-23 06:54:00.213718	56.7	38.0	-75.2	0.0
2025-01-23 06:54:02.467542	57.4	38.4	-76.1	0.0
2025-01-23 06:54:04.723426	58.2	38.8	-76.9	0.0
2025-01-23 06:54:06.977205	59.0	39.1	-75.9	0.0
2025-01-23 06:54:09.230601	59.8	39.5	-77.7	0.0
2025-01-23 06:54:11.483480	60.6	39.9	-75.8	0.0
2025-01-23 06:54:13.738693	61.5	40.2	-75.7	0.0
2025-01-23 06:54:15.994598	62.4	40.6	-76.3	0.0
2025-01-23 06:54:18.247917	63.3	41.0	-75.8	0.0
2025-01-23 06:54:20.502276	64.2	41.3	-75.8	0.0
2025-01-23 06:54:22.757580	65.1	41.7	-75.7	0.0
2025-01-23 06:54:25.012001	66.0	42.0	-75.7	0.0
2025-01-23 06:54:27.264848	67.0	42.4	-76.4	0.0
2025-01-23 06:54:29.518567	68.0	42.7	-75.1	0.0
2025-01-23 06:54:31.774299	69.0	43.0	-75.1	0.0
2025-01-23 06:54:34.030799	70.0	43.3	-75.3	0.0
2025-01-23 06:54:36.283437	71.1	43.6	-74.9	0.0
2025-01-23 06:54:38.534929	72.2	43.9	-75.2	0.0
2025-01-23 06:54:40.789389	73.2	44.2	-74.2	0.0
2025-01-23 06:54:43.046798	74.4	44.5	-76.6	0.0
2025-01-23 06:54:45.298949	75.5	44.8	-74.8	0.0
2025-01-23 06:54:47.554917	76.6	45.1	-76.5	0.0
2025-01-23 06:54:49.811150	77.8	45.3	-74.7	0.0
2025-01-23 06:54:52.065458	79.0	45.6	-76.4	0.0
2025-01-23 06:54:54.314763	80.2	45.8	-76.6	0.0
2025-01-23 06:54:56.564990	81.4	46.0	-76.8	0.0
2025-01-23 06:54:58.819879	82.7	46.2	-75.7	0.0
2025-01-23 06:55:01.071155	83.9	46.4	-75.4	0.0
2025-01-23 06:55:03.324526	85.2	46.6	-76.0	0.0
2025-01-23 06:55:05.577508	86.5	46.7	-75.1	0.0
2025-01-23 06:55:07.835091	87.8	46.9	-75.1	0.0
2025-01-23 06:55:10.090021	89.1	47.0	-75.0	0.0
2025-01-23 06:55:12.342839	90.4	47.1	-75.1	0.0
2025-01-23 06:55:14.596423	91.7	47.2	-74.1	0.0
2025-01-23 06:55:16.848668	93.0	47.3	-74.5	0.0
2025-01-23 06:55:19.102493	94.4	47.4	-73.8	0.0
2025-01-23 06:55:21.357000	95.7	47.5	-73.1	0.0
2025-01-23 06:55:23.612960	97.1	47.5	-75.1	0.0
2025-01-23 06:55:25.868970	98.4	47.5	-75.5	0.0
2025-01-23 06:55:28.124369	99.8	47.5	-73.0	0.0
2025-01-23 06:55:30.378386	101.2	47.5	-72.4	0.0
2025-01-23 06:55:32.632821	102.5	47.5	-71.7	0.0
2025-01-23 06:55:34.883490	103.9	47.4	-70.6	0.0
2025-01-23 06:55:37.134843	105.2	47.3	-72.0	0.0
2025-01-23 06:55:39.388827	106.5	47.3	-70.1	0.0
2025-01-23 06:55:41.644881	107.9	47.2	-71.5	0.0
2025-01-23 06:55:43.897106	109.2	47.0	-73.1	0.0
2025-01-23 06:55:46.150965	110.5	46.9	-70.6	0.0
2025-01-23 06:55:48.404174	111.8	46.8	-70.9	0.0
2025-01-23 06:55:50.657391	113.1	46.6	-69.5	0.0
2025-01-23 06:55:52.909621	114.3	46.4	-70.0	0.0
2025-01-23 06:55:55.162017	115.6	46.2	-70.0	0.0
2025-01-23 06:55:57.415058	116.8	46.0	-71.7	0.0
2025-01-23 06:55:59.670165	118.1	45.8	-71.1	0.0
2025-01-23 06:56:01.924028	119.3	45.6	-71.5	0.0
2025-01-23 06:56:04.181838	120.5	45.3	-70.1	0.0
2025-01-23 06:56:06.438005	121.6	45.1	-72.1	0.0
2025-01-23 06:56:08.689787	122.8	44.8	-70.1	0.0
2025-01-23 06:56:10.942418	123.9	44.5	-71.8	0.0
2025-01-23 06:56:13.196364	125.0	44.2	-69.9	0.0
2025-01-23 06:56:15.453136	126.1	44.0	-68.7	0.0
2025-01-23 06:56:17.708750	127.2	43.6	-68.8	0.0
2025-01-23 06:56:19.962985	128.3	43.3	-70.3	0.0
2025-01-23 06:56:22.216348	129.3	43.0	-72.2	0.0
2025-01-23 06:56:24.468892	130.3	42.7	-70.4	0.0
2025-01-23 06:56:26.723055	131.3	42.4	-70.4	0.0
2025-01-23 06:56:28.977150	132.3	42.0	-71.3	0.0
2025-01-23 06:56:31.227629	133.2	41.7	-69.5	0.0
2025-01-23 06:56:33.481539	134.2	41.3	-69.6	0.0
2025-01-23 06:56:35.733164	135.1	41.0	-70.5	0.0
2025-01-23 06:56:37.987953	136.0	40.6	-71.4	0.0
2025-01-23 06:56:40.240243	136.8	40.2	-71.8	0.0
2025-01-23 06:56:42.496704	137.7	39.9	-73.4	0.0
2025-01-23 06:56:44.747005	138.5	39.5	-73.7	0.0
2025-01-23 06:56:47.001299	139.4	39.1	-76.3	0.0
2025-01-23 06:56:49.252174	140.2	38.8	-74.7	0.0
2025-01-23 06:56:51.509083	140.9	38.4	-72.9	0.0
2025-01-23 06:56:53.763187	141.7	38.0	-74.9	0.0
2025-01-23 06:56:56.015820	142.4	37.6	-72.9	0.0
2025-01-23 06:56:58.265688	143.2	37.2	-74.4	0.0
2025-01-23 06:57:00.517147	143.9	36.9	-74.7	0.0
2025-01-23 06:57:02.769597	144.6	36.5	-75.5	0.0
2025-01-23 06:57:05.023279	145.3	36.1	-76.8	0.0
2025-01-23 06:57:07.276737	145.9	35.7	-76.0	0.0
2025-01-23 06:57:09.533729	146.6	35.3	-76.2	0.0
2025-01-23 06:57:11.785870	147.2	35.0	-76.8	0.0
2025-01-23 06:57:14.037272	147.8	34.6	-77.2	0.0
2025-01-23 06:57:16.291084	148.4	34.2	-78.0	0.0
2025-01-23 06:57:18.547022	149.0	33.8	-78.4	0.0
2025-01-23 06:57:20.796560	149.6	33.4	-78.8	2.3
2025-01-23 06:57:23.046785	150.2	33.1	-78.1	0.8
2025-01-23 06:57:25.299054	150.7	32.7	-79.1	1.3
2025-01-23 06:57:27.553442	151.3	32.3	-78.3	0.4
2025-01-23 06:57:29.805813	151.8	32.0	-78.1	0.7
2025-01-23 06:57:32.058445	152.3	31.6	-79.0	2.9
2025-01-23 06:57:34.310696	152.8	31.2	-78.8	1.7
2025-01-23 06:57:36.561464	153.3	30.9	-78.3	1.2
2025-01-23 06:57:38.812235	153.8	30.5	-78.9	2.9
2025-01-23 06:57:41.063664	154.3	30.2	-78.2	1.0
2025-01-23 06:57:43.316671	154.7	29.8	-78.8	0.0
2025-01-23 06:57:45.567832	155.2	29.4	-79.1	2.8
2025-01-23 06:57:47.817806	155.6	29.1	-79.2	3.0
2025-01-23 06:57:50.070432	156.1	28.7	-78.8	3.7
2025-01-23 06:57:52.320184	156.5	28.4	-78.9	3.2
2025-01-23 06:57:54.572746	156.9	28.1	-78.5	2.9
2025-01-23 06:57:56.824353	157.3	27.7	-78.8	3.8
2025-01-23 06:57:59.073933	157.7	27.4	-78.5	3.4
2025-01-23 06:58:01.326340	158.1	27.0	-78.9	3.8
2025-01-23 06:58:03.579366	158.5	26.7	-78.9	3.5
2025-01-23 06:58:05.831559	158.9	26.4	-78.8	2.7
2025-01-23 06:58:08.084776	159.2	26.1	-79.0	3.9
2025-01-23 06:58:10.335876	159.6	25.7	-78.6	1.8
2025-01-23 06:58:12.587809	159.9	25.4	-78.9	1.6
2025-01-23 06:58:14.838928	160.3	25.1	-78.9	2.4
2025-01-23 06:58:17.090927	160.6	24.8	-78.3	2.1
2025-01-23 06:58:19.345347	161.0	24.5	-78.3	1.0
2025-01-23 06:58:21.598106	161.3	24.2	-78.7	1.3
2025-01-23 06:58:23.852617	161.6	23.9	-78.3	2.2
2025-01-23 06:58:26.105076	161.9	23.6	-78.6	1.9
2025-01-23 06:58:28.358095	162.2	23.3	-78.7	1.0
2025-01-23 06:58:30.613451	162.6	23.0	-77.1	0.0
2025-01-23 06:58:32.867085	162.9	22.7	-78.5	0.2
2025-01-23 06:58:35.117959	163.1	22.4	-77.1	0.0
2025-01-23 06:58:37.372188	163.4	22.1	-78.0	1.5
2025-01-23 06:58:39.625697	163.7	21.8	-77.9	0.2
2025-01-23 06:58:41.877543	164.0	21.5	-78.3	0.1
2025-01-23 06:58:44.127212	164.3	21.2	-78.1	0.0
2025-01-23 06:58:46.377145	164.5	20.9	-78.3	1.9
2025-01-23 06:58:48.628724	164.8	20.7	-77.9	1.2
2025-01-23 06:58:50.883872	165.1	20.4	-77.2	0.0
2025-01-23 06:58:53.133382	165.3	20.1	-77.5	1.6
2025-01-23 06:58:55.386083	165.6	19.8	-77.6	0.7
2025-01-23 06:58:57.639113	165.8	19.6	-77.8	1.9
2025-01-23 06:58:59.892068	166.0	19.3	-77.5	0.9
2025-01-23 06:59:02.145938	166.3	19.0	-77.6	1.4
2025-01-23 06:59:04.400026	166.5	18.8	-77.7	0.7
2025-01-23 06:59:06.652797	166.7	18.5	-77.3	0.0
2025-01-23 06:59:08.905699	167.0	18.3	-77.6	0.0
2025-01-23 06:59:11.159387	167.2	18.0	-77.3	0.0
2025-01-23 06:59:13.413459	167.4	17.8	-77.3	0.8
2025-01-23 06:59:15.665725	167.6	17.5	-77.3	1.0
2025-01-23 06:59:17.918366	167.8	17.3	-77.2	0.0
2025-01-23 06:59:20.173126	168.0	17.0	-77.3	1.1
2025-01-23 06:59:22.427595	168.3	16.8	-77.1	0.0
2025-01-23 06:59:24.681774	168.5	16.5	-77.2	0.0
2025-01-23 06:59:26.934227	168.7	16.3	-76.8	0.4
2025-01-23 06:59:29.187059	168.8	16.1	-77.1	0.0
2025-01-23 06:59:31.439494	169.0	15.8	-77.3	0.0
2025-01-23 06:59:33.691918	169.2	15.6	-77.5	0.0
2025-01-23 06:59:35.948164	169.4	15.4	-77.0	0.0
2025-01-23 06:59:38.202751	169.6	15.1	-76.9	0.0
2025-01-23 06:59:40.456625	169.8	14.9	-76.6	0.0
2025-01-23 06:59:42.707695	170.0	14.7	-76.9	0.4
2025-01-23 06:59:44.958599	170.1	14.5	-76.4	0.0
2025-01-23 06:59:47.212137	170.3	14.2	-76.8	0.0
2025-01-23 06:59:49.464754	170.5	14.0	-76.7	0.0
2025-01-23 06:59:51.718580	170.7	13.8	-76.6	0.0
2025-01-23 06:59:53.971053	170.8	13.6	-76.9	0.0
2025-01-23 06:59:56.225835	171.0	13.4	-76.6	0.0
2025-01-23 06:59:58.480554	171.2	13.2	-76.3	0.0
2025-01-23 07:00:00.733586	171.3	12.9	-76.4	0.0
2025-01-23 07:00:02.986331	171.5	12.7	-76.6	0.0
2025-01-23 07:00:05.238398	171.6	12.5	-76.1	0.0
2025-01-23 07:00:07.491927	171.8	12.3	-76.6	0.0
2025-01-23 07:00:09.745694	171.9	12.1	-76.1	0.0
2025-01-23 07:00:11.996565	172.1	11.9	-76.4	0.0
2025-01-23 07:00:14.252710	172.2	11.7	-76.6	0.0
2025-01-23 07:00:16.508418	172.4	11.5	-76.4	0.0
2025-01-23 07:00:18.763325	172.5	11.3	-76.6	0.0
2025-01-23 07:00:21.019516	172.7	11.1	-76.6	0.0
2025-01-23 07:00:23.273311	172.8	10.9	-76.9	0.0
2025-01-23 07:00:25.526613	172.9	10.7	-76.3	0.0
2025-01-23 07:00:27.779405	173.1	10.5	-80.6	0.0
2025-01-23 07:00:30.032472	173.2	10.3	-81.5	0.0
2025-01-23 07:00:32.287595	173.3	10.2	-81.2	0.0
#Closed at: 2025-01-23 06:50:12.174901