passes_logs/2025/01/23/planumMaritime01/planumMaritime01__20250123_171711_NOAA_19_rec.log

#Pass ID: 20250123_171711_NOAA 19
#Satellite: NOAA 19
#Configuration: NOAA 19
#Start time: 2025-01-23 17:17:16.616325

#LorettStation: 1.0.0 05.05.2024
#Station: planumMaritime01
#Location: 37.49445 lon 55.92918 lat
#TLE: 1 33591U 09005A   25022.22545190  .00000382  00000+0  22773-3 0  9990
#TLE: 2 33591  99.0184  86.0433 0014227  38.0135 322.2038 14.13265658822568

#Time	Az	El	Level	SNR
2025-01-23 17:17:18.778377	131.0	10.2	-75.7	0.0
2025-01-23 17:17:21.025841	130.8	10.4	-75.2	0.0
2025-01-23 17:17:23.271924	130.7	10.6	-76.4	0.0
2025-01-23 17:17:25.521134	130.6	10.7	-76.6	0.0
2025-01-23 17:17:27.766011	130.4	10.9	-75.9	0.0
2025-01-23 17:17:30.009160	130.3	11.1	-75.7	0.0
2025-01-23 17:17:32.252620	130.1	11.3	-75.5	0.0
2025-01-23 17:17:34.499862	130.0	11.5	-75.6	0.0
2025-01-23 17:17:36.747143	129.9	11.7	-75.5	0.0
2025-01-23 17:17:38.992286	129.7	11.9	-76.2	0.0
2025-01-23 17:17:41.239656	129.6	12.1	-77.0	0.0
2025-01-23 17:17:43.487547	129.4	12.3	-75.9	0.0
2025-01-23 17:17:45.733705	129.2	12.5	-75.6	0.0
2025-01-23 17:17:47.979643	129.1	12.7	-76.3	0.0
2025-01-23 17:17:50.230315	128.9	12.9	-75.2	0.0
2025-01-23 17:17:52.476140	128.8	13.1	-76.1	0.0
2025-01-23 17:17:54.721887	128.6	13.3	-76.0	0.0
2025-01-23 17:17:56.966977	128.4	13.5	-76.4	0.0
2025-01-23 17:17:59.211646	128.3	13.7	-76.3	0.0
2025-01-23 17:18:01.455185	128.1	14.0	-76.0	0.0
2025-01-23 17:18:03.698562	127.9	14.2	-76.1	0.0
2025-01-23 17:18:05.947084	127.7	14.4	-75.7	0.0
2025-01-23 17:18:08.191693	127.6	14.6	-76.5	0.0
2025-01-23 17:18:10.437440	127.4	14.8	-75.8	0.0
2025-01-23 17:18:12.680032	127.2	15.0	-76.3	0.0
2025-01-23 17:18:14.921874	127.0	15.3	-76.4	0.0
2025-01-23 17:18:17.166983	126.8	15.5	-76.0	0.0
2025-01-23 17:18:19.414184	126.6	15.7	-76.2	0.0
2025-01-23 17:18:21.663294	126.4	15.9	-76.3	0.0
2025-01-23 17:18:23.907725	126.2	16.2	-76.0	0.0
2025-01-23 17:18:26.156695	126.0	16.4	-75.3	0.0
2025-01-23 17:18:28.403386	125.8	16.6	-76.1	0.0
2025-01-23 17:18:30.650542	125.6	16.9	-75.5	0.0
2025-01-23 17:18:32.895049	125.4	17.1	-76.0	0.0
2025-01-23 17:18:35.140153	125.2	17.3	-75.3	0.0
2025-01-23 17:18:37.388099	125.0	17.6	-76.5	0.0
2025-01-23 17:18:39.637053	124.7	17.8	-76.7	0.0
2025-01-23 17:18:41.884614	124.5	18.0	-75.9	0.0
2025-01-23 17:18:44.132151	124.3	18.3	-76.1	0.0
2025-01-23 17:18:46.376916	124.0	18.5	-76.0	0.0
2025-01-23 17:18:48.627251	123.8	18.8	-75.9	0.0
2025-01-23 17:18:50.873693	123.6	19.0	-75.3	0.0
2025-01-23 17:18:53.120692	123.3	19.3	-76.0	0.0
2025-01-23 17:18:55.367840	123.1	19.5	-75.8	0.0
2025-01-23 17:18:57.614059	122.8	19.8	-75.8	0.0
2025-01-23 17:18:59.860838	122.5	20.1	-75.4	0.0
2025-01-23 17:19:02.108320	122.3	20.3	-75.3	0.0
2025-01-23 17:19:04.355203	122.0	20.6	-76.2	0.0
2025-01-23 17:19:06.602686	121.7	20.9	-77.3	0.0
2025-01-23 17:19:08.849526	121.5	21.1	-76.3	0.0
2025-01-23 17:19:11.096219	121.2	21.4	-77.0	0.0
2025-01-23 17:19:13.341223	120.9	21.7	-77.3	0.0
2025-01-23 17:19:15.585380	120.6	21.9	-76.9	0.0
2025-01-23 17:19:17.828572	120.3	22.2	-77.2	0.0
2025-01-23 17:19:20.073487	120.0	22.5	-77.2	0.0
2025-01-23 17:19:22.320543	119.7	22.8	-75.4	0.0
2025-01-23 17:19:24.566593	119.4	23.0	-77.0	0.0
2025-01-23 17:19:26.815260	119.1	23.3	-76.9	0.0
2025-01-23 17:19:29.061841	118.7	23.6	-76.5	0.0
2025-01-23 17:19:31.310151	118.4	23.9	-75.6	0.0
2025-01-23 17:19:33.558696	118.1	24.2	-75.8	0.0
2025-01-23 17:19:35.804425	117.7	24.5	-75.8	0.0
2025-01-23 17:19:38.054850	117.4	24.8	-76.2	0.0
2025-01-23 17:19:40.299421	117.0	25.1	-76.0	0.0
2025-01-23 17:19:42.543146	116.6	25.4	-75.3	0.0
2025-01-23 17:19:44.789610	116.3	25.7	-76.1	0.0
2025-01-23 17:19:47.034670	115.9	26.0	-76.3	0.0
2025-01-23 17:19:49.284426	115.5	26.3	-76.9	0.0
2025-01-23 17:19:51.530004	115.1	26.6	-76.7	0.0
2025-01-23 17:19:53.777755	114.7	26.9	-76.3	0.0
2025-01-23 17:19:56.023867	114.3	27.2	-77.5	0.0
2025-01-23 17:19:58.271593	113.9	27.5	-77.3	0.0
2025-01-23 17:20:00.518378	113.4	27.8	-77.3	0.0
2025-01-23 17:20:02.764697	113.0	28.1	-78.0	0.0
2025-01-23 17:20:05.008517	112.6	28.5	-77.1	0.0
2025-01-23 17:20:07.252330	112.1	28.8	-76.7	0.0
2025-01-23 17:20:09.498084	111.6	29.1	-77.4	0.0
2025-01-23 17:20:11.741748	111.2	29.4	-76.3	0.0
2025-01-23 17:20:13.990039	110.7	29.7	-77.5	0.0
2025-01-23 17:20:16.232088	110.2	30.1	-77.6	0.0
2025-01-23 17:20:18.478811	109.7	30.4	-76.6	0.0
2025-01-23 17:20:20.725900	109.2	30.7	-77.5	0.0
2025-01-23 17:20:22.973628	108.7	31.1	-76.9	0.0
2025-01-23 17:20:25.217733	108.1	31.4	-77.5	0.0
2025-01-23 17:20:27.462186	107.6	31.7	-77.5	0.0
2025-01-23 17:20:29.712951	107.0	32.0	-77.8	0.0
2025-01-23 17:20:31.957966	106.5	32.4	-76.7	0.0
2025-01-23 17:20:34.205838	105.9	32.7	-77.9	0.0
2025-01-23 17:20:36.451910	105.3	33.0	-77.7	0.0
2025-01-23 17:20:38.701034	104.7	33.4	-78.1	0.0
2025-01-23 17:20:40.947921	104.1	33.7	-77.4	0.0
2025-01-23 17:20:43.193647	103.4	34.0	-78.0	0.0
2025-01-23 17:20:45.438611	102.8	34.4	-77.7	0.0
2025-01-23 17:20:47.683755	102.1	34.7	-77.6	0.0
2025-01-23 17:20:49.928338	101.5	35.0	-77.5	0.0
2025-01-23 17:20:52.177480	100.8	35.3	-78.2	0.0
2025-01-23 17:20:54.420906	100.1	35.7	-77.9	0.0
2025-01-23 17:20:56.670041	99.4	36.0	-76.7	0.0
2025-01-23 17:20:58.917249	98.7	36.3	-76.3	0.0
2025-01-23 17:21:01.161362	97.9	36.6	-76.0	0.0
2025-01-23 17:21:03.406252	97.2	37.0	-77.0	0.0
2025-01-23 17:21:05.650576	96.4	37.3	-77.8	0.0
2025-01-23 17:21:07.895789	95.6	37.6	-77.9	0.0
2025-01-23 17:21:10.144438	94.8	37.9	-77.0	0.0
2025-01-23 17:21:12.390345	94.0	38.2	-77.7	0.0
2025-01-23 17:21:14.632853	93.2	38.5	-77.7	0.0
2025-01-23 17:21:16.881931	92.4	38.8	-76.2	0.0
2025-01-23 17:21:19.131034	91.5	39.1	-77.8	0.0
2025-01-23 17:21:21.374045	90.6	39.4	-77.0	0.0
2025-01-23 17:21:23.620120	89.7	39.7	-77.3	0.0
2025-01-23 17:21:25.863879	88.8	39.9	-77.8	0.0
2025-01-23 17:21:28.110057	87.9	40.2	-77.7	0.0
2025-01-23 17:21:30.356139	87.0	40.5	-77.9	0.0
2025-01-23 17:21:32.600287	86.0	40.7	-76.4	0.0
2025-01-23 17:21:34.843510	85.1	41.0	-76.1	0.0
2025-01-23 17:21:37.091310	84.1	41.2	-78.1	0.0
2025-01-23 17:21:39.337377	83.1	41.5	-78.0	0.0
2025-01-23 17:21:41.582576	82.1	41.7	-77.6	0.0
2025-01-23 17:21:43.828077	81.1	41.9	-78.2	0.0
2025-01-23 17:21:46.075471	80.0	42.1	-77.6	0.0
2025-01-23 17:21:48.323668	79.0	42.3	-75.9	0.0
2025-01-23 17:21:50.570815	77.9	42.5	-77.2	0.0
2025-01-23 17:21:52.817979	76.9	42.7	-76.7	0.0
2025-01-23 17:21:55.062547	75.8	42.8	-76.5	0.0
2025-01-23 17:21:57.306782	74.7	43.0	-76.9	0.0
2025-01-23 17:21:59.554940	73.6	43.1	-78.0	0.0
2025-01-23 17:22:01.803188	72.5	43.3	-77.8	0.0
2025-01-23 17:22:04.051569	71.3	43.4	-77.8	0.0
2025-01-23 17:22:06.300074	70.2	43.5	-77.0	0.0
2025-01-23 17:22:08.546607	69.1	43.6	-77.3	0.0
2025-01-23 17:22:10.795605	67.9	43.7	-76.0	0.0
2025-01-23 17:22:13.043763	66.8	43.8	-77.7	0.0
2025-01-23 17:22:15.290632	65.6	43.8	-76.8	0.0
2025-01-23 17:22:17.532456	64.4	43.9	-77.0	0.0
2025-01-23 17:22:19.776858	63.3	43.9	-77.0	0.0
2025-01-23 17:22:22.022707	62.1	43.9	-77.3	0.0
2025-01-23 17:22:24.267707	61.0	43.9	-77.1	0.0
2025-01-23 17:22:26.512887	59.8	43.9	-77.3	0.0
2025-01-23 17:22:28.758800	58.6	43.9	-77.0	0.0
2025-01-23 17:22:31.004503	57.5	43.8	-76.3	0.0
2025-01-23 17:22:33.250878	56.3	43.8	-77.1	0.0
2025-01-23 17:22:35.498235	55.2	43.7	-78.0	0.0
2025-01-23 17:22:37.743780	54.0	43.7	-76.6	0.0
2025-01-23 17:22:39.988808	52.9	43.6	-76.5	0.0
2025-01-23 17:22:42.234830	51.7	43.5	-76.8	0.0
2025-01-23 17:22:44.480808	50.6	43.4	-77.9	0.0
2025-01-23 17:22:46.727930	49.5	43.3	-77.9	0.0
2025-01-23 17:22:48.973521	48.4	43.1	-77.6	0.0
2025-01-23 17:22:51.219237	47.3	43.0	-76.8	0.0
2025-01-23 17:22:53.465776	46.2	42.8	-77.7	0.0
2025-01-23 17:22:55.713504	45.1	42.6	-76.8	0.0
2025-01-23 17:22:57.960668	44.0	42.5	-77.9	0.0
2025-01-23 17:23:00.208023	43.0	42.3	-76.6	0.0
2025-01-23 17:23:02.454241	41.9	42.1	-76.4	0.0
2025-01-23 17:23:04.702800	40.9	41.9	-76.1	0.0
2025-01-23 17:23:06.949613	39.9	41.7	-77.7	0.0
2025-01-23 17:23:09.193585	38.9	41.4	-77.5	0.0
2025-01-23 17:23:11.439787	37.9	41.2	-77.4	0.0
2025-01-23 17:23:13.683860	36.9	41.0	-77.6	0.0
2025-01-23 17:23:15.929369	36.0	40.7	-77.3	0.0
2025-01-23 17:23:18.180575	35.0	40.4	-77.6	0.0
2025-01-23 17:23:20.426818	34.1	40.2	-76.1	0.0
2025-01-23 17:23:22.674667	33.2	39.9	-77.5	0.0
2025-01-23 17:23:24.925068	32.3	39.6	-76.6	0.0
2025-01-23 17:23:27.170889	31.4	39.4	-77.2	0.0
2025-01-23 17:23:29.415949	30.5	39.1	-76.6	0.0
2025-01-23 17:23:31.664554	29.7	38.8	-76.0	0.0
2025-01-23 17:23:33.908335	28.8	38.5	-77.1	0.0
2025-01-23 17:23:36.155273	28.0	38.2	-77.5	0.0
2025-01-23 17:23:38.405902	27.2	37.9	-77.3	0.0
2025-01-23 17:23:40.651140	26.4	37.6	-77.8	0.0
2025-01-23 17:23:42.899665	25.6	37.3	-76.5	0.0
2025-01-23 17:23:45.145313	24.9	36.9	-77.1	0.0
2025-01-23 17:23:47.393637	24.1	36.6	-78.0	0.0
2025-01-23 17:23:49.635462	23.4	36.3	-76.5	0.0
2025-01-23 17:23:51.883115	22.7	36.0	-76.9	0.0
2025-01-23 17:23:54.130715	22.0	35.7	-77.4	0.0
2025-01-23 17:23:56.376147	21.3	35.3	-77.7	0.0
2025-01-23 17:23:58.621385	20.6	35.0	-77.3	0.0
2025-01-23 17:24:00.867201	19.9	34.7	-77.7	0.0
2025-01-23 17:24:03.113074	19.3	34.3	-78.0	0.0
2025-01-23 17:24:05.360757	18.7	34.0	-77.7	0.0
2025-01-23 17:24:07.608457	18.0	33.7	-77.5	0.0
2025-01-23 17:24:09.853109	17.4	33.4	-75.8	0.0
2025-01-23 17:24:12.097790	16.8	33.0	-77.9	0.0
2025-01-23 17:24:14.342050	16.3	32.7	-77.1	0.0
2025-01-23 17:24:16.588656	15.7	32.4	-77.4	0.0
2025-01-23 17:24:18.831073	15.1	32.0	-76.3	0.0
2025-01-23 17:24:21.075512	14.6	31.7	-76.6	0.0
2025-01-23 17:24:23.321296	14.0	31.4	-76.5	0.0
2025-01-23 17:24:25.565658	13.5	31.1	-77.2	0.0
2025-01-23 17:24:27.815629	13.0	30.7	-77.0	0.0
2025-01-23 17:24:30.061139	12.5	30.4	-76.5	0.0
2025-01-23 17:24:32.304954	12.0	30.1	-76.7	0.0
2025-01-23 17:24:34.550096	11.5	29.8	-77.4	0.0
2025-01-23 17:24:36.796583	11.0	29.4	-77.8	0.0
2025-01-23 17:24:39.041612	10.5	29.1	-78.0	0.0
2025-01-23 17:24:41.285657	10.1	28.8	-77.4	0.0
2025-01-23 17:24:43.533713	9.6	28.5	-77.5	0.0
2025-01-23 17:24:45.780122	9.2	28.2	-77.9	0.0
2025-01-23 17:24:48.022620	8.8	27.9	-78.3	0.0
2025-01-23 17:24:50.266720	8.3	27.6	-76.8	0.0
2025-01-23 17:24:52.512636	7.9	27.2	-77.5	0.0
2025-01-23 17:24:54.760940	7.5	26.9	-78.2	0.0
2025-01-23 17:24:57.009188	7.1	26.6	-76.8	0.0
2025-01-23 17:24:59.254659	6.7	26.3	-77.8	0.0
2025-01-23 17:25:01.497980	6.3	26.0	-76.4	0.0
2025-01-23 17:25:03.743389	6.0	25.7	-77.7	0.0
2025-01-23 17:25:05.990122	5.6	25.4	-77.6	0.0
2025-01-23 17:25:08.236740	5.2	25.1	-78.4	0.0
2025-01-23 17:25:10.483003	4.9	24.8	-77.0	0.0
2025-01-23 17:25:12.728719	4.5	24.5	-77.5	0.0
2025-01-23 17:25:14.975242	4.2	24.3	-77.8	0.0
2025-01-23 17:25:17.220507	3.9	24.0	-78.0	0.0
2025-01-23 17:25:19.464717	3.5	23.7	-77.5	0.0
2025-01-23 17:25:21.711193	3.2	23.4	-77.9	0.0
2025-01-23 17:25:23.957683	2.9	23.1	-77.9	0.0
2025-01-23 17:25:26.203718	2.6	22.8	-77.7	0.0
2025-01-23 17:25:28.449248	2.3	22.6	-76.8	0.0
2025-01-23 17:25:30.695103	2.0	22.3	-76.9	0.0
2025-01-23 17:25:32.940301	1.7	22.0	-77.9	0.0
2025-01-23 17:25:35.184347	1.4	21.7	-76.4	0.0
2025-01-23 17:25:37.428151	1.1	21.5	-77.6	0.0
2025-01-23 17:25:39.674363	0.8	21.2	-77.0	0.0
2025-01-23 17:25:41.921970	0.5	20.9	-77.0	0.0
2025-01-23 17:25:44.166590	0.3	20.7	-77.2	0.0
2025-01-23 17:25:46.408281	0.0	20.4	-76.5	0.0
2025-01-23 17:25:48.654753	359.7	20.2	-76.8	0.0
2025-01-23 17:25:50.900465	359.5	19.9	-77.1	0.0
2025-01-23 17:25:53.149136	359.2	19.6	-76.3	0.0
2025-01-23 17:25:55.394970	359.0	19.4	-76.6	0.0
2025-01-23 17:25:57.642624	358.7	19.1	-77.4	0.0
2025-01-23 17:25:59.887951	358.5	18.9	-76.2	0.0
2025-01-23 17:26:02.136093	358.3	18.6	-76.2	0.0
2025-01-23 17:26:04.381269	358.0	18.4	-76.4	0.0
2025-01-23 17:26:06.625925	357.8	18.2	-77.3	0.0
2025-01-23 17:26:08.869021	357.6	17.9	-76.2	0.0
2025-01-23 17:26:11.114036	357.4	17.7	-77.2	0.0
2025-01-23 17:26:13.357215	357.1	17.4	-76.9	0.0
2025-01-23 17:26:15.601409	356.9	17.2	-76.7	0.0
2025-01-23 17:26:17.848096	356.7	17.0	-77.4	0.0
2025-01-23 17:26:20.093902	356.5	16.7	-76.2	0.0
2025-01-23 17:26:22.335888	356.3	16.5	-77.4	0.0
2025-01-23 17:26:24.581668	356.1	16.3	-76.9	0.0
2025-01-23 17:26:26.831582	355.9	16.1	-76.5	0.0
2025-01-23 17:26:29.078576	355.7	15.8	-76.8	0.0
2025-01-23 17:26:31.324835	355.5	15.6	-76.8	0.0
2025-01-23 17:26:33.568466	355.3	15.4	-78.1	0.0
2025-01-23 17:26:35.817248	355.2	15.2	-77.7	0.0
2025-01-23 17:26:38.063089	355.0	14.9	-77.6	0.0
2025-01-23 17:26:40.309365	354.8	14.7	-78.3	0.0
2025-01-23 17:26:42.557365	354.6	14.5	-78.1	0.0
2025-01-23 17:26:44.803010	354.4	14.3	-77.3	0.0
2025-01-23 17:26:47.051563	354.3	14.1	-77.3	0.0
2025-01-23 17:26:49.299451	354.1	13.9	-77.8	0.0
2025-01-23 17:26:51.545392	353.9	13.7	-77.6	0.0
2025-01-23 17:26:53.793736	353.8	13.5	-77.4	0.0
2025-01-23 17:26:56.039605	353.6	13.3	-78.1	0.0
2025-01-23 17:26:58.285278	353.4	13.1	-77.9	0.0
2025-01-23 17:27:00.530302	353.3	12.8	-77.4	0.0
2025-01-23 17:27:02.774819	353.1	12.6	-77.9	0.0
2025-01-23 17:27:05.022980	353.0	12.4	-76.4	0.0
2025-01-23 17:27:07.270720	352.8	12.2	-77.5	0.0
2025-01-23 17:27:09.519300	352.7	12.1	-77.7	0.0
2025-01-23 17:27:11.766273	352.5	11.9	-78.0	0.0
2025-01-23 17:27:14.014108	352.4	11.7	-78.4	0.0
2025-01-23 17:27:16.263127	352.2	11.5	-77.5	0.0
2025-01-23 17:27:18.506998	352.1	11.3	-77.8	0.0
2025-01-23 17:27:20.756244	352.0	11.1	-78.2	0.0
2025-01-23 17:27:23.003148	351.8	10.9	-76.6	0.0
2025-01-23 17:27:25.251174	351.7	10.7	-77.8	0.0
2025-01-23 17:27:27.496288	351.6	10.5	-78.0	0.0
2025-01-23 17:27:29.742802	351.4	10.3	-77.6	0.0
2025-01-23 17:27:31.987863	351.3	10.2	-77.4	0.0
#Closed at: 2025-01-23 17:17:11.619323