passes_logs/2025/01/23/planumMaritime01/planumMaritime01__20250123_185751_NOAA_19_rec.log

#Pass ID: 20250123_185751_NOAA 19
#Satellite: NOAA 19
#Configuration: NOAA 19
#Start time: 2025-01-23 18:57:56.222640

#LorettStation: 1.0.0 05.05.2024
#Station: planumMaritime01
#Location: 37.49445 lon 55.92918 lat
#TLE: 1 33591U 09005A   25022.22545190  .00000382  00000+0  22773-3 0  9990
#TLE: 2 33591  99.0184  86.0433 0014227  38.0135 322.2038 14.13265658822568

#Time	Az	El	Level	SNR
2025-01-23 18:57:58.377737	190.9	10.2	-75.5	0.0
2025-01-23 18:58:00.621822	191.0	10.4	-75.5	0.0
2025-01-23 18:58:02.866346	191.2	10.5	-76.0	0.0
2025-01-23 18:58:05.115195	191.4	10.7	-75.5	0.0
2025-01-23 18:58:07.361899	191.5	10.9	-75.2	0.0
2025-01-23 18:58:09.606177	191.7	11.1	-75.6	0.0
2025-01-23 18:58:11.849217	191.8	11.3	-74.9	0.0
2025-01-23 18:58:14.094924	192.0	11.5	-76.1	0.0
2025-01-23 18:58:16.343222	192.2	11.7	-76.1	0.0
2025-01-23 18:58:18.586129	192.3	11.9	-76.4	0.0
2025-01-23 18:58:20.833431	192.5	12.1	-76.1	0.0
2025-01-23 18:58:23.080029	192.7	12.3	-76.4	0.0
2025-01-23 18:58:25.327188	192.8	12.5	-75.9	0.0
2025-01-23 18:58:27.571645	193.0	12.7	-76.7	0.0
2025-01-23 18:58:29.814078	193.2	12.9	-76.7	0.0
2025-01-23 18:58:32.060999	193.4	13.1	-76.1	0.0
2025-01-23 18:58:34.304635	193.6	13.3	-76.0	0.0
2025-01-23 18:58:36.549014	193.7	13.5	-76.5	0.0
2025-01-23 18:58:38.793242	193.9	13.7	-76.6	0.0
2025-01-23 18:58:41.040003	194.1	13.9	-76.5	0.0
2025-01-23 18:58:43.284922	194.3	14.1	-76.5	0.0
2025-01-23 18:58:45.528679	194.5	14.3	-75.7	0.0
2025-01-23 18:58:47.773314	194.7	14.5	-75.8	0.0
2025-01-23 18:58:50.018663	194.9	14.7	-75.6	0.0
2025-01-23 18:58:52.266925	195.1	14.9	-75.9	0.0
2025-01-23 18:58:54.514906	195.3	15.1	-76.2	0.0
2025-01-23 18:58:56.760744	195.5	15.4	-75.9	0.0
2025-01-23 18:58:59.007779	195.7	15.6	-76.7	0.0
2025-01-23 18:59:01.250781	196.0	15.8	-76.9	0.0
2025-01-23 18:59:03.496989	196.2	16.0	-76.4	0.0
2025-01-23 18:59:05.740304	196.4	16.3	-76.1	0.0
2025-01-23 18:59:07.985507	196.6	16.5	-75.8	0.0
2025-01-23 18:59:10.231231	196.9	16.7	-75.9	0.0
2025-01-23 18:59:12.473123	197.1	16.9	-76.5	0.0
2025-01-23 18:59:14.718388	197.3	17.2	-76.2	0.0
2025-01-23 18:59:16.963336	197.6	17.4	-75.4	0.0
2025-01-23 18:59:19.207470	197.8	17.6	-76.1	0.0
2025-01-23 18:59:21.452908	198.1	17.9	-76.0	0.0
2025-01-23 18:59:23.700799	198.3	18.1	-76.4	0.0
2025-01-23 18:59:25.944857	198.6	18.3	-76.0	0.0
2025-01-23 18:59:28.186656	198.8	18.6	-76.3	0.0
2025-01-23 18:59:30.429808	199.1	18.8	-76.2	0.0
2025-01-23 18:59:32.672517	199.3	19.1	-75.8	0.0
2025-01-23 18:59:34.919791	199.6	19.3	-76.2	0.0
2025-01-23 18:59:37.167597	199.9	19.6	-75.8	0.0
2025-01-23 18:59:39.415100	200.2	19.8	-75.4	0.0
2025-01-23 18:59:41.659437	200.4	20.1	-76.1	0.0
2025-01-23 18:59:43.906874	200.7	20.3	-75.8	0.0
2025-01-23 18:59:46.151277	201.0	20.6	-75.8	0.0
2025-01-23 18:59:48.402331	201.3	20.8	-75.5	0.0
2025-01-23 18:59:50.647920	201.6	21.1	-76.0	0.0
2025-01-23 18:59:52.892491	201.9	21.4	-75.5	0.0
2025-01-23 18:59:55.138307	202.2	21.6	-75.1	0.0
2025-01-23 18:59:57.382197	202.6	21.9	-75.6	0.0
2025-01-23 18:59:59.628238	202.9	22.2	-75.3	0.0
2025-01-23 19:00:01.871885	203.2	22.4	-75.0	0.0
2025-01-23 19:00:04.120042	203.5	22.7	-75.7	0.0
2025-01-23 19:00:06.364744	203.9	23.0	-75.6	0.0
2025-01-23 19:00:08.613064	204.2	23.3	-76.0	0.0
2025-01-23 19:00:10.858323	204.6	23.5	-74.9	0.0
2025-01-23 19:00:13.102139	204.9	23.8	-75.3	0.0
2025-01-23 19:00:15.344987	205.3	24.1	-75.4	0.0
2025-01-23 19:00:17.590983	205.7	24.4	-75.2	0.0
2025-01-23 19:00:19.838512	206.0	24.7	-76.2	0.0
2025-01-23 19:00:22.083786	206.4	24.9	-75.8	0.0
2025-01-23 19:00:24.329766	206.8	25.2	-75.9	0.0
2025-01-23 19:00:26.572804	207.2	25.5	-76.4	0.0
2025-01-23 19:00:28.818463	207.6	25.8	-75.0	0.0
2025-01-23 19:00:31.066331	208.0	26.1	-75.2	0.0
2025-01-23 19:00:33.310004	208.4	26.4	-76.2	0.0
2025-01-23 19:00:35.556353	208.9	26.7	-75.9	0.0
2025-01-23 19:00:37.801228	209.3	27.0	-76.0	0.0
2025-01-23 19:00:40.045309	209.7	27.3	-76.4	0.0
2025-01-23 19:00:42.290877	210.2	27.6	-75.5	0.0
2025-01-23 19:00:44.536203	210.6	27.9	-75.9	0.0
2025-01-23 19:00:46.780427	211.1	28.2	-75.3	0.0
2025-01-23 19:00:49.025954	211.6	28.5	-75.5	0.0
2025-01-23 19:00:51.271178	212.1	28.8	-74.8	0.0
2025-01-23 19:00:53.517269	212.6	29.1	-75.9	0.0
2025-01-23 19:00:55.764249	213.1	29.4	-76.2	0.0
2025-01-23 19:00:58.011479	213.6	29.7	-76.3	0.0
2025-01-23 19:01:00.256214	214.1	30.0	-76.1	0.0
2025-01-23 19:01:02.502298	214.6	30.4	-76.6	0.0
2025-01-23 19:01:04.745528	215.2	30.7	-76.8	0.0
2025-01-23 19:01:06.989647	215.7	31.0	-76.4	0.0
2025-01-23 19:01:09.234617	216.3	31.3	-76.3	0.0
2025-01-23 19:01:11.480920	216.8	31.6	-76.4	0.0
2025-01-23 19:01:13.730549	217.4	31.9	-76.6	0.0
2025-01-23 19:01:15.976390	218.0	32.2	-76.5	0.0
2025-01-23 19:01:18.223731	218.6	32.5	-76.6	0.0
2025-01-23 19:01:20.467052	219.2	32.9	-76.3	0.0
2025-01-23 19:01:22.713400	219.9	33.2	-76.5	0.0
2025-01-23 19:01:24.960702	220.5	33.5	-76.5	0.0
2025-01-23 19:01:27.208087	221.2	33.8	-76.5	0.0
2025-01-23 19:01:29.451736	221.8	34.1	-76.5	0.0
2025-01-23 19:01:31.699745	222.5	34.4	-76.4	0.0
2025-01-23 19:01:33.944907	223.2	34.7	-76.5	0.0
2025-01-23 19:01:36.190514	223.9	35.0	-76.5	0.0
2025-01-23 19:01:38.433037	224.6	35.3	-77.0	0.0
2025-01-23 19:01:40.679644	225.4	35.6	-75.1	0.0
2025-01-23 19:01:42.923380	226.1	35.9	-76.4	0.0
2025-01-23 19:01:45.167350	226.9	36.2	-76.3	0.0
2025-01-23 19:01:47.415122	227.6	36.5	-77.1	0.0
2025-01-23 19:01:49.659270	228.4	36.8	-77.2	0.0
2025-01-23 19:01:51.906722	229.2	37.1	-77.0	0.0
2025-01-23 19:01:54.152572	230.0	37.4	-76.7	0.0
2025-01-23 19:01:56.400416	230.8	37.7	-76.5	0.0
2025-01-23 19:01:58.648740	231.7	37.9	-76.6	0.0
2025-01-23 19:02:00.896102	232.5	38.2	-76.7	0.0
2025-01-23 19:02:03.141658	233.4	38.5	-76.2	0.0
2025-01-23 19:02:05.387596	234.3	38.7	-76.5	0.0
2025-01-23 19:02:07.631090	235.2	39.0	-76.5	0.0
2025-01-23 19:02:09.876782	236.1	39.2	-76.7	0.0
2025-01-23 19:02:12.120414	237.0	39.5	-76.7	0.0
2025-01-23 19:02:14.368997	237.9	39.7	-76.4	0.0
2025-01-23 19:02:16.615262	238.9	39.9	-75.8	0.0
2025-01-23 19:02:18.858830	239.8	40.1	-76.9	0.0
2025-01-23 19:02:21.102307	240.8	40.4	-76.4	0.0
2025-01-23 19:02:23.348018	241.8	40.6	-77.1	0.0
2025-01-23 19:02:25.592282	242.8	40.8	-77.2	0.0
2025-01-23 19:02:27.839707	243.8	40.9	-77.1	0.0
2025-01-23 19:02:30.085493	244.8	41.1	-76.5	0.0
2025-01-23 19:02:32.330665	245.9	41.3	-77.4	0.0
2025-01-23 19:02:34.578981	246.9	41.4	-77.4	0.0
2025-01-23 19:02:36.826137	248.0	41.6	-76.6	0.0
2025-01-23 19:02:39.073138	249.0	41.7	-76.7	0.0
2025-01-23 19:02:41.317842	250.1	41.9	-77.1	0.0
2025-01-23 19:02:43.564231	251.2	42.0	-77.0	0.0
2025-01-23 19:02:45.809944	252.2	42.1	-76.7	0.0
2025-01-23 19:02:48.054690	253.3	42.2	-76.4	0.0
2025-01-23 19:02:50.302300	254.4	42.3	-75.7	0.0
2025-01-23 19:02:52.546926	255.5	42.3	-76.6	0.0
2025-01-23 19:02:54.791511	256.6	42.4	-75.9	0.0
2025-01-23 19:02:57.037645	257.8	42.5	-76.6	0.0
2025-01-23 19:02:59.286610	258.9	42.5	-76.2	0.0
2025-01-23 19:03:01.531939	260.0	42.5	-75.7	0.0
2025-01-23 19:03:03.779127	261.1	42.5	-75.8	0.0
2025-01-23 19:03:06.027892	262.2	42.5	-76.9	0.0
2025-01-23 19:03:08.273269	263.3	42.5	-76.4	0.0
2025-01-23 19:03:10.518230	264.5	42.5	-76.8	0.0
2025-01-23 19:03:12.763706	265.6	42.5	-77.2	0.0
2025-01-23 19:03:15.009018	266.7	42.4	-76.0	0.0
2025-01-23 19:03:17.253853	267.8	42.4	-76.3	0.0
2025-01-23 19:03:19.499685	268.9	42.3	-76.3	0.0
2025-01-23 19:03:21.744198	270.0	42.2	-76.8	0.0
2025-01-23 19:03:23.987722	271.1	42.1	-76.7	0.0
2025-01-23 19:03:26.233622	272.2	42.0	-76.7	0.0
2025-01-23 19:03:28.478666	273.2	41.9	-77.5	0.0
2025-01-23 19:03:30.722085	274.3	41.8	-77.1	0.0
2025-01-23 19:03:32.968279	275.4	41.7	-76.8	0.0
2025-01-23 19:03:35.214099	276.4	41.5	-76.7	0.0
2025-01-23 19:03:37.461555	277.5	41.4	-76.7	0.0
2025-01-23 19:03:39.710512	278.5	41.2	-76.5	0.0
2025-01-23 19:03:41.958408	279.5	41.0	-76.2	0.0
2025-01-23 19:03:44.206345	280.5	40.9	-76.5	0.0
2025-01-23 19:03:46.452474	281.5	40.7	-76.3	0.0
2025-01-23 19:03:48.699039	282.5	40.5	-77.1	0.0
2025-01-23 19:03:50.942572	283.5	40.3	-76.5	0.0
2025-01-23 19:03:53.187249	284.5	40.0	-75.6	0.0
2025-01-23 19:03:55.434060	285.4	39.8	-76.6	0.0
2025-01-23 19:03:57.680933	286.4	39.6	-75.8	0.0
2025-01-23 19:03:59.925059	287.3	39.4	-76.7	0.0
2025-01-23 19:04:02.172417	288.2	39.1	-75.7	0.0
2025-01-23 19:04:04.415191	289.1	38.9	-75.3	0.0
2025-01-23 19:04:06.661145	290.0	38.6	-75.8	0.0
2025-01-23 19:04:08.906286	290.9	38.4	-76.5	0.0
2025-01-23 19:04:11.152026	291.7	38.1	-76.4	0.0
2025-01-23 19:04:13.401151	292.6	37.8	-77.4	0.0
2025-01-23 19:04:15.647177	293.4	37.5	-77.0	0.0
2025-01-23 19:04:17.892177	294.2	37.3	-76.3	0.0
2025-01-23 19:04:20.142172	295.0	37.0	-76.2	0.0
2025-01-23 19:04:22.387774	295.8	36.7	-77.3	0.0
2025-01-23 19:04:24.634286	296.6	36.4	-77.3	0.0
2025-01-23 19:04:26.879349	297.3	36.1	-77.3	0.0
2025-01-23 19:04:29.126464	298.1	35.8	-76.8	0.0
2025-01-23 19:04:31.372971	298.8	35.5	-76.6	0.0
2025-01-23 19:04:33.619905	299.5	35.2	-76.4	0.0
2025-01-23 19:04:35.867139	300.2	34.9	-76.8	0.0
2025-01-23 19:04:38.111989	300.9	34.6	-77.3	0.0
2025-01-23 19:04:40.358593	301.6	34.3	-77.5	0.0
2025-01-23 19:04:42.607947	302.3	34.0	-76.5	0.0
2025-01-23 19:04:44.853995	302.9	33.7	-77.1	0.0
2025-01-23 19:04:47.100723	303.6	33.4	-77.5	0.0
2025-01-23 19:04:49.345720	304.2	33.1	-76.3	0.0
2025-01-23 19:04:51.591461	304.8	32.8	-77.0	0.0
2025-01-23 19:04:53.836435	305.4	32.5	-77.3	0.0
2025-01-23 19:04:56.080222	306.0	32.2	-75.9	0.0
2025-01-23 19:04:58.327814	306.6	31.8	-76.5	0.0
2025-01-23 19:05:00.574855	307.2	31.5	-76.8	0.0
2025-01-23 19:05:02.818803	307.8	31.2	-76.2	0.0
2025-01-23 19:05:05.065287	308.3	30.9	-77.2	0.0
2025-01-23 19:05:07.310704	308.9	30.6	-76.6	0.0
2025-01-23 19:05:09.556238	309.4	30.3	-76.6	0.0
2025-01-23 19:05:11.801827	309.9	30.0	-76.1	0.0
2025-01-23 19:05:14.048995	310.5	29.7	-75.9	0.0
2025-01-23 19:05:16.295795	311.0	29.4	-76.0	0.0
2025-01-23 19:05:18.543077	311.5	29.1	-76.2	0.0
2025-01-23 19:05:20.786654	311.9	28.8	-76.5	0.0
2025-01-23 19:05:23.034314	312.4	28.5	-75.6	0.0
2025-01-23 19:05:25.279926	312.9	28.2	-77.0	0.0
2025-01-23 19:05:27.526169	313.4	27.9	-76.9	0.0
2025-01-23 19:05:29.772530	313.8	27.6	-77.3	0.0
2025-01-23 19:05:32.017323	314.2	27.3	-76.0	0.0
2025-01-23 19:05:34.261464	314.7	27.0	-77.4	0.0
2025-01-23 19:05:36.506993	315.1	26.7	-76.8	0.0
2025-01-23 19:05:38.750611	315.5	26.4	-76.5	0.0
2025-01-23 19:05:40.995252	315.9	26.1	-77.1	0.0
2025-01-23 19:05:43.238256	316.4	25.8	-75.9	0.0
2025-01-23 19:05:45.484580	316.7	25.5	-75.6	0.0
2025-01-23 19:05:47.730635	317.1	25.2	-77.1	0.0
2025-01-23 19:05:49.975038	317.5	24.9	-76.1	0.0
2025-01-23 19:05:52.219266	317.9	24.7	-75.8	0.0
2025-01-23 19:05:54.464466	318.3	24.4	-77.2	0.0
2025-01-23 19:05:56.708177	318.6	24.1	-77.0	0.0
2025-01-23 19:05:58.955798	319.0	23.8	-76.5	0.0
2025-01-23 19:06:01.200192	319.4	23.5	-77.0	0.0
2025-01-23 19:06:03.444218	319.7	23.3	-76.1	0.0
2025-01-23 19:06:05.687264	320.0	23.0	-76.2	0.0
2025-01-23 19:06:07.937745	320.4	22.7	-76.7	0.0
2025-01-23 19:06:10.180077	320.7	22.5	-76.2	0.0
2025-01-23 19:06:12.422947	321.0	22.2	-76.1	0.0
2025-01-23 19:06:14.668552	321.4	21.9	-76.4	0.0
2025-01-23 19:06:16.916962	321.7	21.7	-76.2	0.0
2025-01-23 19:06:19.161096	322.0	21.4	-77.3	0.0
2025-01-23 19:06:21.404822	322.3	21.1	-76.1	0.0
2025-01-23 19:06:23.650926	322.6	20.9	-76.8	0.0
2025-01-23 19:06:25.900300	322.9	20.6	-76.5	0.0
2025-01-23 19:06:28.143397	323.2	20.4	-76.0	0.0
2025-01-23 19:06:30.391291	323.4	20.1	-76.9	0.0
2025-01-23 19:06:32.635659	323.7	19.9	-76.6	0.0
2025-01-23 19:06:34.882133	324.0	19.6	-76.7	0.0
2025-01-23 19:06:37.128331	324.3	19.4	-76.7	0.0
2025-01-23 19:06:39.374984	324.5	19.1	-77.2	0.0
2025-01-23 19:06:41.617778	324.8	18.9	-75.9	0.0
2025-01-23 19:06:43.863641	325.1	18.7	-76.0	0.0
2025-01-23 19:06:46.109811	325.3	18.4	-76.1	0.0
2025-01-23 19:06:48.359007	325.6	18.2	-76.7	0.0
2025-01-23 19:06:50.605895	325.8	17.9	-76.1	0.0
2025-01-23 19:06:52.851803	326.1	17.7	-75.9	0.0
2025-01-23 19:06:55.098773	326.3	17.5	-76.1	0.0
2025-01-23 19:06:57.341688	326.5	17.2	-76.0	0.0
2025-01-23 19:06:59.588920	326.8	17.0	-76.3	0.0
2025-01-23 19:07:01.836065	327.0	16.8	-76.2	0.0
2025-01-23 19:07:04.082301	327.2	16.6	-76.4	0.0
2025-01-23 19:07:06.327026	327.5	16.3	-76.3	0.0
2025-01-23 19:07:08.575427	327.7	16.1	-77.0	0.0
2025-01-23 19:07:10.821108	327.9	15.9	-76.3	0.0
2025-01-23 19:07:13.064804	328.1	15.7	-76.9	0.0
2025-01-23 19:07:15.310900	328.3	15.5	-76.0	0.0
2025-01-23 19:07:17.555886	328.5	15.3	-76.0	0.0
2025-01-23 19:07:19.805766	328.8	15.0	-76.1	0.0
2025-01-23 19:07:22.050619	329.0	14.8	-75.9	0.0
2025-01-23 19:07:24.295143	329.2	14.6	-77.3	0.0
2025-01-23 19:07:26.540985	329.4	14.4	-76.1	0.0
2025-01-23 19:07:28.790039	329.6	14.2	-76.2	0.0
2025-01-23 19:07:31.038905	329.7	14.0	-76.7	0.0
2025-01-23 19:07:33.282516	329.9	13.8	-76.8	0.0
2025-01-23 19:07:35.526196	330.1	13.6	-76.5	0.0
2025-01-23 19:07:37.774118	330.3	13.4	-76.8	0.0
2025-01-23 19:07:40.021791	330.5	13.2	-76.7	0.0
2025-01-23 19:07:42.268641	330.7	13.0	-76.7	0.0
2025-01-23 19:07:44.511723	330.9	12.8	-76.9	0.0
2025-01-23 19:07:46.756835	331.0	12.6	-76.8	0.0
2025-01-23 19:07:49.002030	331.2	12.4	-76.7	0.0
2025-01-23 19:07:51.249149	331.4	12.2	-77.2	0.0
2025-01-23 19:07:53.493875	331.5	12.0	-77.3	0.0
2025-01-23 19:07:55.739908	331.7	11.8	-77.1	0.0
2025-01-23 19:07:57.985729	331.9	11.6	-77.7	0.0
2025-01-23 19:08:00.228384	332.0	11.4	-77.6	0.0
2025-01-23 19:08:02.472061	332.2	11.2	-76.8	0.0
2025-01-23 19:08:04.722446	332.4	11.1	-77.2	0.0
2025-01-23 19:08:06.968044	332.5	10.9	-76.4	0.0
2025-01-23 19:08:09.212986	332.7	10.7	-77.0	0.0
2025-01-23 19:08:11.459558	332.8	10.5	-76.4	0.0
2025-01-23 19:08:13.706782	333.0	10.3	-77.8	0.0
2025-01-23 19:08:15.949060	333.1	10.1	-76.3	0.0
#Closed at: 2025-01-23 18:57:51.223940