passes_logs/2026/01/30/PlanumMoscow/PlanumMoscow__20260130_080539_METOP-C_rec.log

#Pass ID: 20260130_080539_METOP-C
#Satellite: METOP-C
#Configuration: METOP-C
#Start time: 2026-01-30 08:05:44.222483

#LorettStation: 1.0.0 05.05.2024
#Station: PlanumMoscow
#Location: 37.6253844 lon 55.6713361 lat
#TLE: 1 43689U 18087A   25293.88981035  .00000265  00000+0  14109-3 0  9997
#TLE: 2 43689  98.7006 352.4487 0002041 122.1097 238.0279 14.21482740360838

#Time	Az	El	Level	SNR
2026-01-30 08:09:22.746582	6.3	28.9	-61.2	0.0
2026-01-30 08:09:24.989602	6.2	29.3	-60.0	0.0
2026-01-30 08:09:27.232622	6.0	29.7	-62.0	0.0
2026-01-30 08:09:29.477129	5.8	30.1	-62.7	0.0
2026-01-30 08:09:31.720148	5.6	30.6	-63.1	0.0
2026-01-30 08:09:33.964160	5.3	31.0	-63.0	0.0
2026-01-30 08:09:36.208182	5.1	31.4	-63.6	0.0
2026-01-30 08:09:38.452193	4.9	31.9	-63.6	0.0
2026-01-30 08:09:40.696700	4.7	32.3	-62.8	0.0
2026-01-30 08:09:42.943217	4.4	32.8	-63.0	0.0
2026-01-30 08:09:45.186732	4.2	33.2	-63.1	0.0
2026-01-30 08:09:47.430248	4.0	33.7	-62.3	0.0
2026-01-30 08:09:49.673267	3.7	34.1	-62.9	0.0
2026-01-30 08:09:51.920784	3.4	34.6	-64.0	0.0
2026-01-30 08:09:54.165797	3.2	35.1	-62.6	0.0
2026-01-30 08:09:56.409312	2.9	35.6	-64.4	0.0
2026-01-30 08:09:58.651835	2.6	36.1	-62.2	0.0
2026-01-30 08:10:00.895846	2.3	36.6	-63.6	0.0
2026-01-30 08:10:03.139857	2.0	37.1	-63.6	0.0
2026-01-30 08:10:05.383869	1.7	37.6	-62.9	0.0
2026-01-30 08:10:07.626393	1.3	38.1	-64.6	0.0
2026-01-30 08:10:09.870405	1.0	38.7	-62.9	0.0
2026-01-30 08:10:12.115921	0.6	39.2	-63.8	0.0
2026-01-30 08:10:14.358941	0.3	39.8	-65.1	0.0
2026-01-30 08:10:16.601972	359.9	40.3	-64.7	0.0
2026-01-30 08:10:18.846479	359.5	40.9	-64.1	0.0
2026-01-30 08:10:21.089003	359.1	41.4	-65.8	0.0
2026-01-30 08:10:23.333015	358.7	42.0	-66.5	0.0
2026-01-30 08:10:25.577027	358.3	42.6	-66.6	0.0
2026-01-30 08:10:27.821039	357.8	43.2	-66.4	0.0
2026-01-30 08:10:30.065050	357.3	43.8	-66.7	0.0
2026-01-30 08:10:32.310062	356.8	44.4	-65.4	0.0
2026-01-30 08:10:34.553578	356.3	45.0	-67.0	0.0
2026-01-30 08:10:36.797588	355.8	45.6	-66.1	0.0
2026-01-30 08:10:39.046106	355.3	46.2	-66.8	0.0
2026-01-30 08:10:41.291117	354.7	46.9	-67.3	0.0
2026-01-30 08:10:43.536129	354.1	47.5	-66.8	0.0
2026-01-30 08:10:45.780149	353.5	48.2	-67.5	0.0
2026-01-30 08:10:48.023665	352.8	48.8	-67.5	0.0
2026-01-30 08:10:50.267180	352.2	49.5	-66.7	0.0
2026-01-30 08:10:52.511696	351.5	50.1	-67.3	0.0
2026-01-30 08:10:54.755219	350.7	50.8	-68.2	0.0
2026-01-30 08:10:56.999230	349.9	51.5	-67.5	0.0
2026-01-30 08:10:59.242755	349.1	52.1	-68.0	0.0
2026-01-30 08:11:01.485780	348.3	52.8	-67.8	0.0
2026-01-30 08:11:03.729791	347.4	53.5	-68.4	0.0
2026-01-30 08:11:05.973803	346.5	54.2	-68.3	0.0
2026-01-30 08:11:08.217815	345.5	54.8	-68.0	0.0
2026-01-30 08:11:10.465342	344.5	55.5	-67.6	0.0
2026-01-30 08:11:12.709858	343.4	56.2	-68.4	0.0
2026-01-30 08:11:14.952880	342.3	56.9	-68.3	0.0
2026-01-30 08:11:17.196900	341.1	57.6	-67.9	0.0
2026-01-30 08:11:19.443407	339.8	58.2	-68.0	0.0
2026-01-30 08:11:21.687922	338.5	58.9	-68.2	0.0
2026-01-30 08:11:23.931935	337.2	59.6	-67.7	0.0
2026-01-30 08:11:26.177948	335.7	60.2	-67.7	0.0
2026-01-30 08:11:28.422454	334.2	60.9	-68.5	0.0
2026-01-30 08:11:30.666475	332.6	61.5	-68.3	0.0
2026-01-30 08:11:32.909990	330.9	62.1	-68.2	0.0
2026-01-30 08:11:35.156002	329.1	62.7	-68.5	0.0
2026-01-30 08:11:37.399021	327.2	63.3	-68.2	0.0
2026-01-30 08:11:39.643031	325.3	63.8	-69.0	0.0
2026-01-30 08:11:41.892044	323.2	64.4	-68.6	0.0
2026-01-30 08:11:44.137055	321.1	64.9	-68.9	0.0
2026-01-30 08:11:46.379083	318.9	65.3	-69.3	0.0
2026-01-30 08:11:48.622103	316.5	65.8	-69.1	0.0
2026-01-30 08:11:50.865619	314.1	66.2	-69.1	0.0
2026-01-30 08:11:53.109133	311.6	66.5	-69.2	0.0
2026-01-30 08:11:55.353144	309.0	66.9	-69.3	0.0
2026-01-30 08:11:57.598165	306.3	67.1	-69.2	0.0
2026-01-30 08:11:59.843175	303.6	67.4	-68.4	0.0
2026-01-30 08:12:02.087186	300.8	67.6	-69.1	0.0
2026-01-30 08:12:04.331198	297.9	67.7	-69.5	0.0
2026-01-30 08:12:06.574714	295.1	67.8	-69.3	0.0
2026-01-30 08:12:08.817734	292.2	67.8	-68.8	0.0
2026-01-30 08:12:11.060754	289.3	67.8	-69.6	0.0
2026-01-30 08:12:13.305261	286.4	67.7	-69.0	0.0
2026-01-30 08:12:15.548282	283.6	67.6	-69.5	0.0
2026-01-30 08:12:17.791798	280.8	67.4	-69.6	0.0
2026-01-30 08:12:20.035322	278.0	67.2	-69.0	0.0
2026-01-30 08:12:22.278857	275.3	66.9	-69.2	0.0
2026-01-30 08:12:24.522868	272.7	66.6	-68.9	0.0
2026-01-30 08:12:26.766880	270.1	66.3	-68.8	0.0
2026-01-30 08:12:29.011387	267.7	65.9	-68.5	0.0
2026-01-30 08:12:31.254903	265.3	65.5	-68.1	0.0
2026-01-30 08:12:33.497923	263.1	65.0	-68.4	0.0
2026-01-30 08:12:35.741438	260.9	64.5	-68.4	0.0
2026-01-30 08:12:37.984458	258.8	64.0	-67.6	0.0
2026-01-30 08:12:40.227973	256.8	63.4	-68.3	0.0
2026-01-30 08:12:42.471489	254.9	62.9	-68.4	0.0
2026-01-30 08:12:44.715996	253.1	62.3	-67.9	0.0
2026-01-30 08:12:46.959017	251.4	61.7	-68.5	0.0
2026-01-30 08:12:49.203028	249.8	61.0	-68.1	0.0
2026-01-30 08:12:51.446049	248.2	60.4	-68.1	0.0
2026-01-30 08:12:53.690060	246.8	59.7	-68.2	0.0
2026-01-30 08:12:55.933577	245.3	59.1	-66.2	0.0
2026-01-30 08:12:58.175109	244.0	58.4	-66.7	0.0
2026-01-30 08:13:00.418624	242.7	57.7	-63.9	0.0
2026-01-30 08:13:02.662647	241.5	57.1	-66.5	0.0
2026-01-30 08:13:04.906669	240.4	56.4	-65.4	0.0
2026-01-30 08:13:07.151194	239.3	55.7	-66.1	0.0
2026-01-30 08:13:09.395206	238.3	55.0	-65.6	0.0
2026-01-30 08:13:11.644231	237.3	54.3	-63.2	0.0
2026-01-30 08:13:13.888243	236.3	53.6	-64.9	0.0
2026-01-30 08:13:16.131758	235.4	53.0	-64.7	0.0
2026-01-30 08:13:18.377781	234.6	52.3	-65.2	0.0
2026-01-30 08:13:20.623297	233.7	51.6	-65.1	0.0
2026-01-30 08:13:22.867804	233.0	50.9	-64.0	0.0
2026-01-30 08:13:25.110331	232.2	50.3	-64.1	0.0
2026-01-30 08:13:27.354342	231.5	49.6	-64.7	0.0
2026-01-30 08:13:29.596866	230.8	48.9	-64.5	0.0
2026-01-30 08:13:31.840382	230.2	48.3	-64.2	0.0
2026-01-30 08:13:34.083906	229.5	47.6	-65.1	0.0
2026-01-30 08:13:36.329917	228.9	47.0	-64.7	0.0
2026-01-30 08:13:38.574424	228.3	46.4	-65.1	0.0
2026-01-30 08:13:40.818435	227.8	45.7	-64.2	0.0
2026-01-30 08:13:43.061951	227.3	45.1	-64.6	0.0
2026-01-30 08:13:45.306458	226.7	44.5	-65.0	0.0
2026-01-30 08:13:47.552470	226.2	43.9	-64.4	0.0
2026-01-30 08:13:49.798501	225.8	43.3	-64.5	0.0
2026-01-30 08:13:52.043017	225.3	42.7	-64.4	0.0
2026-01-30 08:13:54.287523	224.9	42.1	-64.0	0.0
2026-01-30 08:13:56.530543	224.4	41.5	-64.0	0.0
2026-01-30 08:13:58.774059	224.0	40.9	-64.2	0.0
2026-01-30 08:14:01.017080	223.6	40.4	-64.9	0.0
2026-01-30 08:14:03.260596	223.3	39.8	-64.8	0.0
2026-01-30 08:14:05.503615	222.9	39.3	-64.6	0.0
2026-01-30 08:14:07.748626	222.5	38.7	-65.6	0.0
2026-01-30 08:14:09.992142	222.2	38.2	-64.6	0.0
2026-01-30 08:14:12.238162	221.9	37.7	-65.6	0.0
2026-01-30 08:14:14.481678	221.5	37.1	-66.0	0.0
2026-01-30 08:14:16.725690	221.2	36.6	-65.0	0.0
2026-01-30 08:14:18.968710	220.9	36.1	-65.6	0.0
2026-01-30 08:14:21.215731	220.6	35.6	-65.2	0.0
2026-01-30 08:14:23.460743	220.3	35.1	-65.4	0.0
2026-01-30 08:14:25.704259	220.1	34.6	-65.4	0.0
2026-01-30 08:14:27.949776	219.8	34.2	-65.0	0.0
2026-01-30 08:14:30.193787	219.5	33.7	-65.1	0.0
2026-01-30 08:14:32.438293	219.3	33.2	-64.9	0.0
2026-01-30 08:14:34.681810	219.0	32.8	-65.1	0.0
2026-01-30 08:14:36.925821	218.8	32.3	-64.3	0.0
2026-01-30 08:14:39.169833	218.6	31.9	-65.5	0.0
2026-01-30 08:14:41.413844	218.3	31.4	-65.0	0.0
2026-01-30 08:14:43.656864	218.1	31.0	-64.4	0.0
2026-01-30 08:14:45.900874	217.9	30.6	-64.3	0.0
2026-01-30 08:14:48.145404	217.7	30.1	-63.9	0.0
2026-01-30 08:14:50.388920	217.5	29.7	-64.8	0.0
2026-01-30 08:14:52.632445	217.3	29.3	-64.8	0.0
2026-01-30 08:14:54.875961	217.1	28.9	-65.9	0.0
2026-01-30 08:14:57.119479	216.9	28.5	-65.5	0.0
2026-01-30 08:14:59.367504	216.7	28.1	-66.9	0.0
2026-01-30 08:15:01.611515	216.6	27.7	-65.4	0.0
2026-01-30 08:15:03.856022	216.4	27.3	-65.3	0.0
2026-01-30 08:15:06.101033	216.2	26.9	-66.5	0.0
2026-01-30 08:15:08.346053	216.1	26.6	-65.6	0.0
2026-01-30 08:15:10.589600	215.9	26.2	-65.2	0.0
2026-01-30 08:15:12.833122	215.7	25.8	-65.2	0.0
2026-01-30 08:15:15.078669	215.6	25.5	-65.8	0.0
2026-01-30 08:15:17.322193	215.4	25.1	-65.7	0.0
2026-01-30 08:15:19.565244	215.3	24.8	-64.4	0.0
2026-01-30 08:15:21.809262	215.2	24.4	-65.6	0.0
2026-01-30 08:15:24.058284	215.0	24.1	-66.5	0.0
2026-01-30 08:15:26.301830	214.9	23.7	-65.2	0.0
2026-01-30 08:15:28.545857	214.7	23.4	-65.0	0.0
2026-01-30 08:15:30.789413	214.6	23.1	-66.3	0.0
2026-01-30 08:15:33.036443	214.5	22.7	-67.1	0.0
2026-01-30 08:15:35.280493	214.4	22.4	-67.0	0.0
2026-01-30 08:15:37.524504	214.2	22.1	-67.0	0.0
2026-01-30 08:15:39.768532	214.1	21.8	-66.4	0.0
2026-01-30 08:15:42.013070	214.0	21.5	-66.6	0.0
2026-01-30 08:15:44.257587	213.9	21.2	-65.6	0.0
2026-01-30 08:15:46.500637	213.8	20.9	-67.5	0.0
2026-01-30 08:15:48.744154	213.7	20.6	-67.3	0.0
2026-01-30 08:15:50.988165	213.6	20.3	-67.7	0.0
2026-01-30 08:15:53.230697	213.5	20.0	-66.6	0.0
2026-01-30 08:15:55.474242	213.4	19.7	-66.9	0.0
2026-01-30 08:15:57.717773	213.3	19.4	-66.8	0.0
2026-01-30 08:15:59.962280	213.2	19.1	-66.1	0.0
2026-01-30 08:16:02.206332	213.1	18.8	-65.7	0.0
2026-01-30 08:16:04.449857	213.0	18.6	-65.9	0.0
2026-01-30 08:16:06.692908	212.9	18.3	-66.9	0.0
2026-01-30 08:16:08.935462	212.8	18.0	-66.4	0.0
2026-01-30 08:16:11.179969	212.7	17.7	-66.4	0.0
2026-01-30 08:16:13.426015	212.6	17.5	-66.9	0.0
2026-01-30 08:16:15.670559	212.5	17.2	-66.2	0.0
2026-01-30 08:16:17.913595	212.4	17.0	-67.2	0.0
2026-01-30 08:16:20.157110	212.3	16.7	-66.7	0.0
2026-01-30 08:16:22.402684	212.3	16.4	-66.8	1.9
2026-01-30 08:16:24.646217	212.2	16.2	-65.9	0.0
2026-01-30 08:16:26.888780	212.1	15.9	-65.9	0.0
2026-01-30 08:16:29.134305	212.0	15.7	-66.3	0.5
2026-01-30 08:16:31.377361	211.9	15.4	-65.2	1.3
2026-01-30 08:16:33.619893	211.9	15.2	-65.4	1.8
2026-01-30 08:16:35.863942	211.8	15.0	-65.0	1.1
2026-01-30 08:16:38.108466	211.7	14.7	-65.8	2.5
2026-01-30 08:16:40.351981	211.6	14.5	-65.7	0.0
2026-01-30 08:16:42.595536	211.6	14.3	-66.2	3.2
2026-01-30 08:16:44.839554	211.5	14.0	-66.0	2.2
2026-01-30 08:16:47.082108	211.4	13.8	-66.1	0.0
2026-01-30 08:16:49.326119	211.4	13.6	-64.3	0.0
2026-01-30 08:16:51.571169	211.3	13.3	-65.4	1.1
2026-01-30 08:16:53.817685	211.2	13.1	-65.0	1.3
2026-01-30 08:16:56.059720	211.2	12.9	-65.6	3.5
2026-01-30 08:16:58.302769	211.1	12.7	-63.1	0.0
2026-01-30 08:17:00.545828	211.1	12.5	-66.0	2.8
2026-01-30 08:17:02.788848	211.0	12.3	-65.7	2.8
2026-01-30 08:17:05.032365	210.9	12.0	-65.6	0.0
2026-01-30 08:17:07.275414	210.9	11.8	-64.9	2.4
2026-01-30 08:17:09.518976	210.8	11.6	-65.3	3.8
2026-01-30 08:17:11.765509	210.8	11.4	-65.1	3.7
2026-01-30 08:17:14.008567	210.7	11.2	-65.2	3.4
2026-01-30 08:17:16.253580	210.7	11.0	-64.8	1.7
2026-01-30 08:17:18.498601	210.6	10.8	-65.3	3.3
2026-01-30 08:17:20.741629	210.5	10.6	-65.0	3.6
2026-01-30 08:17:22.984684	210.5	10.4	-64.9	4.5
2026-01-30 08:17:25.227731	210.4	10.2	-64.9	3.7
2026-01-30 08:17:27.472306	210.4	10.0	-64.5	1.6
2026-01-30 08:17:29.715335	210.3	9.8	-62.2	0.0
2026-01-30 08:17:31.961347	210.3	9.6	-64.2	2.3
2026-01-30 08:17:34.203928	210.2	9.4	-64.6	3.8
2026-01-30 08:17:36.448479	210.2	9.2	-65.0	3.7
2026-01-30 08:17:38.693996	210.1	9.0	-64.6	1.4
2026-01-30 08:17:40.938511	210.1	8.9	-64.7	2.9
2026-01-30 08:17:43.181082	210.1	8.7	-64.6	2.1
2026-01-30 08:17:45.424597	210.0	8.5	-64.4	2.0
2026-01-30 08:17:47.668113	210.0	8.3	-64.6	1.6
2026-01-30 08:17:49.911667	209.9	8.1	-64.4	5.0
2026-01-30 08:17:52.154694	209.9	7.9	-63.7	3.4
2026-01-30 08:17:54.398744	209.8	7.8	-64.0	4.3
2026-01-30 08:17:56.642282	209.8	7.6	-64.7	3.0
2026-01-30 08:17:58.884838	209.7	7.4	-64.2	3.2
2026-01-30 08:18:01.130354	209.7	7.2	-64.6	2.9
2026-01-30 08:18:03.373925	209.7	7.1	-63.9	2.2
2026-01-30 08:18:05.617455	209.6	6.9	-64.5	3.9
2026-01-30 08:18:07.863971	209.6	6.7	-65.1	3.2
2026-01-30 08:18:10.107516	209.5	6.5	-64.6	3.3
2026-01-30 08:18:12.352031	209.5	6.4	-64.6	2.9
2026-01-30 08:18:14.595583	209.5	6.2	-64.0	3.1
2026-01-30 08:18:16.839107	209.4	6.0	-63.8	2.1
2026-01-30 08:18:19.083170	209.4	5.9	-63.7	0.4
2026-01-30 08:18:21.327181	209.4	5.7	-66.9	0.0
2026-01-30 08:18:23.571696	209.3	5.5	-67.9	0.0
2026-01-30 08:18:25.814249	209.3	5.4	-70.7	0.0
2026-01-30 08:18:28.058764	209.3	5.2	-72.3	0.0
2026-01-30 08:18:30.302311	209.2	5.1	-71.9	0.0
#Closed at: 2026-01-30 08:05:39.225082