passes_logs/2026/01/30/PlanumMoscow/PlanumMoscow__20260130_072929_METOP-B_rec.log

#Pass ID: 20260130_072929_METOP-B
#Satellite: METOP-B
#Configuration: METOP-B
#Start time: 2026-01-30 07:29:34.017234

#LorettStation: 1.0.0 05.05.2024
#Station: PlanumMoscow
#Location: 37.6253844 lon 55.6713361 lat
#TLE: 1 38771U 12049A   25293.92766658  .00000266  00000+0  14193-3 0  9996
#TLE: 2 38771  98.6882 344.7603 0001609 341.5209  18.5909 14.21379342679275

#Time	Az	El	Level	SNR
2026-01-30 07:33:12.485171	8.7	29.2	-58.3	0.0
2026-01-30 07:33:14.733687	8.6	29.6	-59.1	0.0
2026-01-30 07:33:16.977203	8.4	30.0	-58.8	0.0
2026-01-30 07:33:19.221751	8.3	30.4	-59.6	0.0
2026-01-30 07:33:21.466761	8.1	30.8	-60.9	0.6
2026-01-30 07:33:23.711327	7.9	31.3	-60.5	2.5
2026-01-30 07:33:25.954346	7.8	31.7	-59.0	0.0
2026-01-30 07:33:28.198400	7.6	32.2	-60.4	1.7
2026-01-30 07:33:30.443908	7.4	32.6	-60.5	1.3
2026-01-30 07:33:32.688414	7.2	33.1	-60.5	0.4
2026-01-30 07:33:34.936977	7.1	33.6	-59.2	0.0
2026-01-30 07:33:37.180997	6.9	34.0	-61.4	3.3
2026-01-30 07:33:39.425544	6.7	34.5	-61.4	4.5
2026-01-30 07:33:41.670059	6.5	35.0	-60.2	0.4
2026-01-30 07:33:43.914095	6.2	35.5	-61.6	3.8
2026-01-30 07:33:46.158167	6.0	36.0	-61.7	2.1
2026-01-30 07:33:48.402720	5.8	36.5	-62.3	2.9
2026-01-30 07:33:50.647235	5.6	37.0	-62.3	3.4
2026-01-30 07:33:52.892247	5.3	37.6	-61.9	6.4
2026-01-30 07:33:55.136792	5.1	38.1	-62.8	6.0
2026-01-30 07:33:57.381307	4.8	38.7	-61.9	4.9
2026-01-30 07:33:59.625857	4.5	39.2	-61.3	5.6
2026-01-30 07:34:01.869372	4.3	39.8	-61.5	5.8
2026-01-30 07:34:04.113922	4.0	40.3	-61.3	4.8
2026-01-30 07:34:06.358429	3.7	40.9	-61.8	6.5
2026-01-30 07:34:08.602944	3.4	41.5	-60.3	3.6
2026-01-30 07:34:10.850993	3.0	42.1	-60.2	3.0
2026-01-30 07:34:13.095014	2.7	42.7	-60.5	5.0
2026-01-30 07:34:15.338064	2.3	43.3	-61.1	4.3
2026-01-30 07:34:17.582580	2.0	43.9	-60.8	2.8
2026-01-30 07:34:19.828634	1.6	44.6	-62.1	4.5
2026-01-30 07:34:22.073645	1.2	45.2	-61.7	3.2
2026-01-30 07:34:24.318160	0.8	45.9	-61.5	5.4
2026-01-30 07:34:26.562201	0.4	46.5	-62.3	6.0
2026-01-30 07:34:28.808218	359.9	47.2	-62.4	7.4
2026-01-30 07:34:31.052725	359.5	47.9	-62.9	6.0
2026-01-30 07:34:33.296737	359.0	48.6	-62.8	7.9
2026-01-30 07:34:35.540309	358.5	49.2	-63.0	8.3
2026-01-30 07:34:37.772450	357.9	49.9	-62.9	7.5
2026-01-30 07:34:40.016966	357.4	50.6	-62.9	7.8
2026-01-30 07:34:42.260506	356.8	51.4	-63.3	7.8
2026-01-30 07:34:44.505013	356.2	52.1	-62.3	6.8
2026-01-30 07:34:46.750520	355.5	52.8	-63.5	8.1
2026-01-30 07:34:48.995027	354.8	53.6	-63.5	7.6
2026-01-30 07:34:51.240567	354.1	54.3	-63.6	7.7
2026-01-30 07:34:53.485074	353.3	55.1	-63.5	7.6
2026-01-30 07:34:55.728627	352.5	55.8	-63.8	7.5
2026-01-30 07:34:57.973141	351.7	56.6	-63.8	7.2
2026-01-30 07:35:00.216690	350.8	57.3	-64.4	7.5
2026-01-30 07:35:02.461198	349.9	58.1	-64.2	7.3
2026-01-30 07:35:04.704721	348.9	58.9	-64.1	6.9
2026-01-30 07:35:06.948785	347.8	59.6	-63.9	6.0
2026-01-30 07:35:09.192299	346.7	60.4	-64.0	7.7
2026-01-30 07:35:11.436806	345.5	61.2	-64.2	7.2
2026-01-30 07:35:13.679356	344.2	61.9	-64.5	7.3
2026-01-30 07:35:15.923863	342.8	62.7	-64.2	7.4
2026-01-30 07:35:18.167418	341.4	63.5	-64.5	7.0
2026-01-30 07:35:20.410940	339.8	64.2	-64.7	7.0
2026-01-30 07:35:22.654488	338.2	65.0	-65.0	7.1
2026-01-30 07:35:24.898499	336.4	65.7	-64.9	6.1
2026-01-30 07:35:27.143016	334.5	66.4	-65.0	6.7
2026-01-30 07:35:29.387060	332.5	67.1	-65.1	5.5
2026-01-30 07:35:31.633116	330.4	67.8	-65.7	6.9
2026-01-30 07:35:33.877671	328.1	68.4	-65.7	5.9
2026-01-30 07:35:36.122178	325.7	69.0	-65.5	6.4
2026-01-30 07:35:38.366213	323.1	69.6	-65.4	6.8
2026-01-30 07:35:40.610224	320.3	70.1	-65.9	7.9
2026-01-30 07:35:42.854739	317.4	70.6	-66.1	7.3
2026-01-30 07:35:45.099285	314.4	71.1	-66.7	7.1
2026-01-30 07:35:47.343800	311.2	71.5	-66.4	6.5
2026-01-30 07:35:49.590356	307.8	71.8	-66.8	6.7
2026-01-30 07:35:51.834863	304.3	72.1	-66.3	6.6
2026-01-30 07:35:54.079874	300.7	72.3	-66.6	7.2
2026-01-30 07:35:56.324381	297.1	72.5	-66.2	6.1
2026-01-30 07:35:58.567906	293.3	72.6	-66.5	7.3
2026-01-30 07:36:00.812452	289.6	72.6	-66.7	6.8
2026-01-30 07:36:03.056959	285.9	72.5	-67.1	5.1
2026-01-30 07:36:05.301018	282.2	72.4	-66.5	6.1
2026-01-30 07:36:07.549544	278.6	72.2	-66.9	6.1
2026-01-30 07:36:09.794051	275.0	71.9	-66.5	6.2
2026-01-30 07:36:12.037600	271.6	71.6	-66.9	6.3
2026-01-30 07:36:14.284121	268.4	71.2	-66.9	5.9
2026-01-30 07:36:16.530181	265.2	70.8	-67.0	6.8
2026-01-30 07:36:18.774200	262.3	70.3	-67.1	4.4
2026-01-30 07:36:21.019245	259.5	69.8	-67.5	4.7
2026-01-30 07:36:23.264793	256.8	69.2	-67.4	5.3
2026-01-30 07:36:25.513805	254.3	68.6	-66.8	5.6
2026-01-30 07:36:27.757817	252.0	68.0	-66.7	3.1
2026-01-30 07:36:30.005333	249.8	67.3	-66.8	4.6
2026-01-30 07:36:32.249383	247.7	66.6	-65.6	3.3
2026-01-30 07:36:34.493401	245.8	65.9	-65.8	0.0
2026-01-30 07:36:36.737960	244.0	65.2	-65.8	3.1
2026-01-30 07:36:38.982467	242.3	64.5	-66.1	4.9
2026-01-30 07:36:41.226496	240.7	63.7	-65.8	3.9
2026-01-30 07:36:43.470546	239.2	63.0	-65.4	3.6
2026-01-30 07:36:45.714558	237.8	62.2	-65.8	4.2
2026-01-30 07:36:47.958593	236.5	61.4	-64.6	2.8
2026-01-30 07:36:50.202124	235.3	60.7	-65.1	4.0
2026-01-30 07:36:52.445664	234.2	59.9	-63.7	2.4
2026-01-30 07:36:54.690170	233.1	59.1	-65.6	3.6
2026-01-30 07:36:56.934677	232.0	58.3	-64.0	1.9
2026-01-30 07:36:59.179226	231.1	57.6	-64.4	2.9
2026-01-30 07:37:01.425279	230.2	56.8	-63.8	3.0
2026-01-30 07:37:03.669786	229.3	56.0	-64.2	4.1
2026-01-30 07:37:05.913806	228.5	55.3	-63.9	2.3
2026-01-30 07:37:08.158352	227.7	54.5	-64.0	4.4
2026-01-30 07:37:10.403868	227.0	53.8	-63.8	2.6
2026-01-30 07:37:12.647880	226.3	53.0	-63.0	2.3
2026-01-30 07:37:14.893433	225.6	52.3	-61.5	1.0
2026-01-30 07:37:17.137986	225.0	51.6	-62.7	2.8
2026-01-30 07:37:19.386502	224.4	50.8	-62.5	5.3
2026-01-30 07:37:21.630520	223.8	50.1	-62.4	3.2
2026-01-30 07:37:23.875057	223.3	49.4	-62.1	4.3
2026-01-30 07:37:26.120574	222.7	48.7	-62.6	5.8
2026-01-30 07:37:28.364584	222.2	48.0	-62.3	4.3
2026-01-30 07:37:30.609091	221.8	47.4	-62.5	5.4
2026-01-30 07:37:32.853126	221.3	46.7	-61.8	5.3
2026-01-30 07:37:35.097633	220.9	46.0	-62.8	7.0
2026-01-30 07:37:37.341158	220.5	45.4	-61.5	5.1
2026-01-30 07:37:39.585665	220.1	44.7	-62.5	3.8
2026-01-30 07:37:41.830211	219.7	44.1	-62.0	5.9
2026-01-30 07:37:44.074726	219.3	43.5	-61.6	4.7
2026-01-30 07:37:46.319778	219.0	42.8	-61.3	4.6
2026-01-30 07:37:48.563798	218.6	42.2	-61.4	5.8
2026-01-30 07:37:50.808305	218.3	41.6	-61.5	5.2
2026-01-30 07:37:53.052866	218.0	41.0	-61.8	6.0
2026-01-30 07:37:55.298373	217.7	40.5	-61.4	5.4
2026-01-30 07:37:57.543923	217.4	39.9	-61.5	5.5
2026-01-30 07:37:59.787438	217.1	39.3	-61.6	6.6
2026-01-30 07:38:02.031944	216.8	38.8	-61.8	6.6
2026-01-30 07:38:04.277965	216.5	38.2	-61.9	5.9
2026-01-30 07:38:06.522472	216.3	37.7	-62.1	5.5
2026-01-30 07:38:08.767515	216.0	37.1	-62.3	6.8
2026-01-30 07:38:11.010573	215.8	36.6	-62.6	4.4
2026-01-30 07:38:13.256594	215.6	36.1	-62.6	7.5
2026-01-30 07:38:15.501636	215.3	35.6	-62.6	7.9
2026-01-30 07:38:17.745191	215.1	35.1	-62.0	7.6
2026-01-30 07:38:19.989698	214.9	34.6	-61.4	6.0
2026-01-30 07:38:22.234223	214.7	34.1	-61.9	7.8
2026-01-30 07:38:24.478259	214.5	33.6	-61.7	6.9
2026-01-30 07:38:26.722766	214.3	33.1	-62.3	7.6
2026-01-30 07:38:28.966289	214.1	32.7	-61.9	6.7
2026-01-30 07:38:31.211331	214.0	32.2	-62.5	8.8
2026-01-30 07:38:33.455847	213.8	31.8	-60.7	5.9
2026-01-30 07:38:35.701354	213.6	31.3	-62.3	7.6
2026-01-30 07:38:37.946396	213.4	30.9	-62.5	6.7
2026-01-30 07:38:40.189951	213.3	30.4	-61.7	7.3
2026-01-30 07:38:42.433962	213.1	30.0	-62.1	8.4
2026-01-30 07:38:44.678476	213.0	29.6	-62.2	5.9
2026-01-30 07:38:46.922513	212.8	29.2	-62.3	7.5
2026-01-30 07:38:49.166525	212.7	28.8	-62.5	8.2
2026-01-30 07:38:51.412574	212.5	28.4	-61.3	8.4
2026-01-30 07:38:53.657081	212.4	28.0	-61.7	7.2
2026-01-30 07:38:55.939103	212.3	27.6	-62.6	7.3
2026-01-30 07:38:58.183609	212.1	27.2	-62.6	6.5
2026-01-30 07:39:00.428116	212.0	26.8	-62.0	7.4
2026-01-30 07:39:02.672127	211.9	26.4	-61.3	8.1
2026-01-30 07:39:04.914661	211.8	26.0	-62.4	7.5
2026-01-30 07:39:07.158679	211.6	25.7	-59.9	1.4
2026-01-30 07:39:09.403723	211.5	25.3	-62.4	7.5
2026-01-30 07:39:11.649246	211.4	25.0	-62.8	7.2
2026-01-30 07:39:13.897310	211.3	24.6	-62.4	6.4
2026-01-30 07:39:16.140339	211.2	24.3	-62.8	5.1
2026-01-30 07:39:18.382927	211.1	23.9	-62.8	7.6
2026-01-30 07:39:20.626940	211.0	23.6	-62.6	5.7
2026-01-30 07:39:22.870968	210.9	23.2	-63.3	8.0
2026-01-30 07:39:25.114020	210.8	22.9	-61.1	6.0
2026-01-30 07:39:27.358032	210.7	22.6	-62.1	4.8
2026-01-30 07:39:29.602085	210.6	22.3	-62.9	7.3
2026-01-30 07:39:31.848114	210.5	21.9	-62.6	5.0
2026-01-30 07:39:34.092165	210.4	21.6	-63.4	7.4
2026-01-30 07:39:36.335681	210.3	21.3	-63.3	7.6
2026-01-30 07:39:38.579205	210.3	21.0	-63.3	7.5
2026-01-30 07:39:40.825777	210.2	20.7	-63.3	5.0
2026-01-30 07:39:43.069807	210.1	20.4	-63.6	7.3
2026-01-30 07:39:45.315857	210.0	20.1	-63.1	7.5
2026-01-30 07:39:47.560412	209.9	19.8	-63.6	5.8
2026-01-30 07:39:49.806920	209.9	19.5	-62.7	5.9
2026-01-30 07:39:52.050444	209.8	19.2	-62.5	3.4
2026-01-30 07:39:54.293463	209.7	18.9	-63.2	6.8
2026-01-30 07:39:56.537512	209.6	18.7	-63.5	5.9
2026-01-30 07:39:58.781550	209.6	18.4	-63.1	6.6
2026-01-30 07:40:01.025615	209.5	18.1	-63.6	0.0
2026-01-30 07:40:03.272123	209.4	17.8	-63.8	5.8
2026-01-30 07:40:05.514649	209.4	17.6	-63.5	7.3
2026-01-30 07:40:07.758660	209.3	17.3	-63.5	6.7
2026-01-30 07:40:10.003671	209.2	17.1	-64.1	7.0
2026-01-30 07:40:12.248187	209.2	16.8	-63.9	6.9
2026-01-30 07:40:14.491216	209.1	16.5	-63.8	5.5
2026-01-30 07:40:16.733741	209.0	16.3	-64.5	6.3
2026-01-30 07:40:18.977760	209.0	16.0	-64.1	6.8
2026-01-30 07:40:21.223267	208.9	15.8	-63.7	4.6
2026-01-30 07:40:23.469783	208.9	15.5	-64.2	5.7
2026-01-30 07:40:25.713795	208.8	15.3	-64.1	4.5
2026-01-30 07:40:27.960302	208.7	15.0	-63.2	4.1
2026-01-30 07:40:30.207331	208.7	14.8	-63.8	7.0
2026-01-30 07:40:32.451342	208.6	14.6	-64.1	6.7
2026-01-30 07:40:34.698878	208.6	14.3	-63.1	4.4
2026-01-30 07:40:36.943888	208.5	14.1	-62.4	5.5
2026-01-30 07:40:39.186412	208.5	13.9	-63.5	2.8
2026-01-30 07:40:41.428937	208.4	13.6	-63.1	3.2
2026-01-30 07:40:43.673949	208.4	13.4	-63.9	5.9
2026-01-30 07:40:45.917969	208.3	13.2	-64.2	5.0
2026-01-30 07:40:48.164487	208.3	13.0	-63.2	2.5
2026-01-30 07:40:50.407506	208.2	12.8	-64.2	4.7
2026-01-30 07:40:52.651517	208.2	12.5	-63.5	4.2
2026-01-30 07:40:54.899538	208.1	12.3	-64.1	3.8
2026-01-30 07:40:57.143550	208.1	12.1	-61.8	2.1
2026-01-30 07:40:59.388066	208.1	11.9	-64.0	4.0
2026-01-30 07:41:01.632077	208.0	11.7	-63.0	1.3
2026-01-30 07:41:03.876089	208.0	11.5	-62.4	3.6
2026-01-30 07:41:06.120101	207.9	11.3	-64.7	4.0
2026-01-30 07:41:08.364113	207.9	11.1	-64.3	3.7
2026-01-30 07:41:10.610648	207.9	10.9	-63.9	3.6
2026-01-30 07:41:12.859670	207.8	10.7	-63.8	4.3
2026-01-30 07:41:15.103186	207.8	10.5	-64.5	3.7
2026-01-30 07:41:17.351705	207.7	10.3	-64.5	3.6
2026-01-30 07:41:19.602222	207.7	10.1	-64.5	4.6
2026-01-30 07:41:21.847232	207.7	9.9	-63.8	3.5
2026-01-30 07:41:24.091244	207.6	9.7	-63.8	3.2
2026-01-30 07:41:26.335750	207.6	9.5	-63.8	2.7
2026-01-30 07:41:28.577779	207.5	9.3	-62.3	0.0
2026-01-30 07:41:30.822285	207.5	9.1	-63.5	3.6
2026-01-30 07:41:33.065305	207.5	8.9	-63.4	1.1
2026-01-30 07:41:35.310836	207.4	8.7	-64.4	2.6
2026-01-30 07:41:37.554848	207.4	8.5	-63.4	0.0
2026-01-30 07:41:39.798363	207.4	8.4	-63.9	4.0
2026-01-30 07:41:42.040394	207.3	8.2	-64.3	2.7
2026-01-30 07:41:44.284910	207.3	8.0	-63.9	2.2
2026-01-30 07:41:46.529417	207.3	7.8	-62.9	0.0
2026-01-30 07:41:48.773437	207.2	7.6	-63.1	0.0
2026-01-30 07:41:51.018449	207.2	7.4	-63.6	0.0
2026-01-30 07:41:53.264964	207.2	7.3	-63.1	0.0
2026-01-30 07:41:55.509472	207.2	7.1	-62.5	0.0
2026-01-30 07:41:57.752997	207.1	6.9	-62.6	0.4
2026-01-30 07:42:00.003011	207.1	6.8	-63.6	0.0
2026-01-30 07:42:02.247528	207.1	6.6	-63.2	0.0
2026-01-30 07:42:04.491044	207.0	6.4	-62.6	0.0
2026-01-30 07:42:06.734559	207.0	6.2	-63.4	0.0
2026-01-30 07:42:08.980570	207.0	6.1	-59.2	0.0
2026-01-30 07:42:11.225077	207.0	5.9	-65.9	0.0
2026-01-30 07:42:13.469583	206.9	5.7	-67.2	0.0
2026-01-30 07:42:15.716119	206.9	5.6	-69.6	0.0
2026-01-30 07:42:17.958643	206.9	5.4	-71.4	0.0
2026-01-30 07:42:20.203150	206.9	5.2	-72.1	0.0
2026-01-30 07:42:22.447171	206.8	5.1	-71.5	0.0
#Closed at: 2026-01-30 07:29:29.019794