passes_logs/2026/01/30/PlanumMoscow/PlanumMoscow__20260130_174744_METEOR-M2_3_rec.log

#Pass ID: 20260130_174744_METEOR-M2 3
#Satellite: METEOR-M2 3
#Configuration: METEOR-M2 3
#Start time: 2026-01-30 17:47:49.023215

#LorettStation: 1.0.0 05.05.2024
#Station: PlanumMoscow
#Location: 37.6253844 lon 55.6713361 lat
#TLE: 1 57166U 23091A   25293.99389264  .00000062  00000+0  46113-4 0  9997
#TLE: 2 57166  98.6457 348.4330 0004759 135.3141 224.8422 14.24016546120475

#Time	Az	El	Level	SNR
2026-01-30 17:51:28.044717	163.7	30.0	-65.6	15.1
2026-01-30 17:51:30.289294	163.7	30.5	-65.2	14.8
2026-01-30 17:51:32.530915	163.8	30.9	-66.0	15.8
2026-01-30 17:51:34.771968	163.8	31.4	-65.8	16.0
2026-01-30 17:51:37.015565	163.8	31.8	-65.5	15.9
2026-01-30 17:51:39.257119	163.9	32.3	-65.7	15.6
2026-01-30 17:51:41.500709	163.9	32.8	-65.5	15.2
2026-01-30 17:51:43.744245	163.9	33.3	-65.8	15.3
2026-01-30 17:51:45.984405	164.0	33.8	-66.0	15.3
2026-01-30 17:51:48.228542	164.0	34.3	-66.1	15.7
2026-01-30 17:51:50.470610	164.0	34.8	-66.3	16.1
2026-01-30 17:51:52.713156	164.1	35.3	-66.3	15.5
2026-01-30 17:51:54.953362	164.1	35.8	-66.5	15.6
2026-01-30 17:51:57.196522	164.1	36.3	-66.5	15.9
2026-01-30 17:51:59.436395	164.2	36.9	-66.3	16.0
2026-01-30 17:52:01.677584	164.2	37.4	-65.8	15.1
2026-01-30 17:52:03.917874	164.2	38.0	-66.2	15.3
2026-01-30 17:52:06.158534	164.3	38.6	-66.3	16.0
2026-01-30 17:52:08.400468	164.3	39.1	-66.7	15.8
2026-01-30 17:52:10.642617	164.4	39.7	-66.5	15.9
2026-01-30 17:52:12.885000	164.4	40.3	-66.5	16.0
2026-01-30 17:52:15.125671	164.5	40.9	-66.6	15.6
2026-01-30 17:52:17.367198	164.5	41.5	-66.5	16.3
2026-01-30 17:52:19.609418	164.6	42.2	-66.3	15.6
2026-01-30 17:52:21.847612	164.6	42.8	-66.8	15.6
2026-01-30 17:52:24.087768	164.7	43.5	-66.9	15.1
2026-01-30 17:52:26.334442	164.7	44.1	-66.9	14.8
2026-01-30 17:52:28.575613	164.8	44.8	-67.0	14.7
2026-01-30 17:52:30.817814	164.8	45.5	-67.1	15.1
2026-01-30 17:52:33.060455	164.9	46.2	-67.6	14.8
2026-01-30 17:52:35.299647	165.0	46.9	-67.2	13.4
2026-01-30 17:52:37.541049	165.0	47.6	-67.4	14.6
2026-01-30 17:52:39.780659	165.1	48.4	-67.3	15.5
2026-01-30 17:52:42.023790	165.2	49.1	-67.4	16.1
2026-01-30 17:52:44.265964	165.2	49.9	-67.3	16.0
2026-01-30 17:52:46.506653	165.3	50.6	-67.2	16.5
2026-01-30 17:52:48.746345	165.4	51.4	-67.3	15.8
2026-01-30 17:52:50.988559	165.5	52.2	-67.5	16.4
2026-01-30 17:52:53.230032	165.6	53.0	-67.4	15.3
2026-01-30 17:52:55.469721	165.7	53.9	-67.9	15.4
2026-01-30 17:52:57.710734	165.8	54.7	-68.4	15.1
2026-01-30 17:52:59.954902	165.9	55.6	-68.6	14.2
2026-01-30 17:53:02.196534	166.0	56.4	-68.7	14.1
2026-01-30 17:53:04.435936	166.1	57.3	-68.8	13.9
2026-01-30 17:53:06.678528	166.2	58.2	-69.0	13.7
2026-01-30 17:53:08.918260	166.4	59.1	-69.1	13.4
2026-01-30 17:53:11.162119	166.5	60.0	-69.2	13.2
2026-01-30 17:53:13.402747	166.7	61.0	-69.2	13.0
2026-01-30 17:53:15.643880	166.8	61.9	-69.3	13.0
2026-01-30 17:53:17.885517	167.0	62.9	-69.0	12.7
2026-01-30 17:53:20.126184	167.2	63.8	-69.3	12.6
2026-01-30 17:53:22.371966	167.4	64.8	-69.3	13.1
2026-01-30 17:53:24.617563	167.7	65.8	-69.5	13.2
2026-01-30 17:53:26.856999	167.9	66.8	-69.3	12.9
2026-01-30 17:53:29.098613	168.2	67.9	-69.4	13.0
2026-01-30 17:53:31.340707	168.5	68.9	-69.6	12.4
2026-01-30 17:53:33.580343	168.8	70.0	-69.7	12.8
2026-01-30 17:53:35.820986	169.2	71.0	-69.5	12.6
2026-01-30 17:53:38.062605	169.6	72.1	-69.9	12.3
2026-01-30 17:53:40.304210	170.1	73.2	-69.8	12.6
2026-01-30 17:53:42.550339	170.7	74.3	-69.1	12.3
2026-01-30 17:53:44.790489	171.3	75.4	-69.4	13.4
2026-01-30 17:53:47.031082	172.0	76.5	-69.2	12.8
2026-01-30 17:53:49.269847	172.9	77.6	-68.9	13.6
2026-01-30 17:53:51.510477	173.9	78.7	-69.0	13.5
2026-01-30 17:53:53.752631	175.2	79.8	-69.0	12.7
2026-01-30 17:53:55.994645	176.8	80.9	-69.2	13.2
2026-01-30 17:53:58.234817	178.9	82.0	-69.3	13.1
2026-01-30 17:54:00.474887	181.6	83.1	-69.0	13.1
2026-01-30 17:54:02.716505	185.3	84.2	-68.9	13.7
2026-01-30 17:54:04.959605	190.8	85.3	-68.8	13.7
2026-01-30 17:54:07.204715	199.3	86.3	-69.0	13.7
2026-01-30 17:54:09.445436	213.3	87.1	-69.0	13.1
2026-01-30 17:54:11.688574	236.3	87.7	-69.0	12.6
2026-01-30 17:54:13.928693	265.8	87.7	-69.2	12.2
2026-01-30 17:54:16.169771	290.0	87.2	-69.3	11.6
2026-01-30 17:54:18.409362	304.9	86.4	-69.2	11.3
2026-01-30 17:54:20.652488	313.9	85.4	-68.9	12.3
2026-01-30 17:54:22.892096	319.7	84.4	-68.6	12.2
2026-01-30 17:54:25.133745	323.6	83.3	-68.7	13.1
2026-01-30 17:54:27.376804	326.4	82.2	-68.1	12.8
2026-01-30 17:54:29.617384	328.5	81.1	-68.4	12.5
2026-01-30 17:54:31.862002	330.2	79.9	-68.3	12.2
2026-01-30 17:54:34.103100	331.5	78.8	-68.4	12.0
2026-01-30 17:54:36.346686	332.6	77.7	-68.6	11.8
2026-01-30 17:54:38.588779	333.5	76.6	-68.8	10.8
2026-01-30 17:54:40.833831	334.2	75.5	-68.4	10.5
2026-01-30 17:54:43.073484	334.9	74.4	-68.6	10.8
2026-01-30 17:54:45.312696	335.4	73.3	-68.2	10.8
2026-01-30 17:54:47.553269	335.9	72.2	-68.0	11.0
2026-01-30 17:54:49.794413	336.4	71.2	-67.9	11.5
2026-01-30 17:54:52.035127	336.7	70.1	-67.6	11.7
2026-01-30 17:54:54.276883	337.1	69.1	-67.7	12.0
2026-01-30 17:54:56.514850	337.4	68.0	-67.5	11.8
2026-01-30 17:54:58.754025	337.7	67.0	-67.8	11.3
2026-01-30 17:55:00.992649	337.9	66.0	-68.2	10.7
2026-01-30 17:55:03.231360	338.1	65.0	-68.1	10.6
2026-01-30 17:55:05.475461	338.4	64.0	-67.7	8.7
2026-01-30 17:55:07.716579	338.6	63.0	-67.7	8.5
2026-01-30 17:55:09.956687	338.7	62.1	-68.2	9.0
2026-01-30 17:55:12.197297	338.9	61.1	-67.6	9.3
2026-01-30 17:55:14.437906	339.1	60.2	-67.3	9.6
2026-01-30 17:55:16.678496	339.2	59.3	-67.3	8.9
2026-01-30 17:55:18.918582	339.4	58.4	-68.2	10.9
2026-01-30 17:55:21.158692	339.5	57.5	-67.4	10.3
2026-01-30 17:55:23.399778	339.6	56.6	-67.5	10.2
2026-01-30 17:55:25.640839	339.7	55.7	-67.5	10.5
2026-01-30 17:55:27.880918	339.8	54.9	-67.5	10.4
2026-01-30 17:55:30.121493	339.9	54.0	-67.2	9.8
2026-01-30 17:55:32.361146	340.0	53.2	-67.5	10.8
2026-01-30 17:55:34.602709	340.1	52.4	-67.3	11.2
2026-01-30 17:55:36.843815	340.2	51.6	-66.6	9.8
2026-01-30 17:55:39.088903	340.3	50.8	-67.8	11.5
2026-01-30 17:55:41.326639	340.4	50.0	-67.7	11.4
2026-01-30 17:55:43.566412	340.4	49.3	-67.2	10.8
2026-01-30 17:55:45.806709	340.5	48.5	-67.3	10.3
2026-01-30 17:55:48.046026	340.6	47.8	-67.2	10.8
2026-01-30 17:55:50.287597	340.7	47.1	-67.1	10.1
2026-01-30 17:55:52.529645	340.7	46.4	-66.9	10.0
2026-01-30 17:55:54.771716	340.8	45.7	-66.4	10.8
2026-01-30 17:55:57.019824	340.8	45.0	-67.1	10.5
2026-01-30 17:55:59.260885	340.9	44.3	-67.3	11.2
2026-01-30 17:56:01.501490	341.0	43.6	-66.6	12.0
2026-01-30 17:56:03.744589	341.0	43.0	-66.9	12.3
2026-01-30 17:56:05.986665	341.1	42.4	-66.8	11.8
2026-01-30 17:56:08.228740	341.1	41.7	-66.1	11.9
2026-01-30 17:56:10.471322	341.2	41.1	-65.8	11.3
2026-01-30 17:56:12.716427	341.2	40.5	-65.9	12.0
2026-01-30 17:56:14.958496	341.2	39.9	-65.8	12.2
2026-01-30 17:56:17.198593	341.3	39.3	-65.6	11.7
2026-01-30 17:56:19.441728	341.3	38.7	-65.4	11.3
2026-01-30 17:56:21.680820	341.4	38.2	-64.9	10.8
2026-01-30 17:56:23.920407	341.4	37.6	-65.3	10.1
2026-01-30 17:56:26.161017	341.5	37.1	-65.8	12.8
2026-01-30 17:56:28.401140	341.5	36.5	-65.4	11.6
2026-01-30 17:56:30.641228	341.5	36.0	-65.6	11.2
2026-01-30 17:56:32.880822	341.6	35.5	-66.0	11.8
2026-01-30 17:56:35.120449	341.6	35.0	-65.7	11.2
2026-01-30 17:56:37.359539	341.6	34.4	-65.4	11.5
2026-01-30 17:56:39.600609	341.7	33.9	-65.7	11.7
2026-01-30 17:56:41.840684	341.7	33.5	-65.8	11.9
2026-01-30 17:56:44.082777	341.7	33.0	-65.5	10.5
2026-01-30 17:56:46.321376	341.8	32.5	-65.3	10.1
2026-01-30 17:56:48.560474	341.8	32.0	-65.7	11.9
2026-01-30 17:56:50.801565	341.8	31.6	-65.7	10.6
2026-01-30 17:56:53.040137	341.9	31.1	-65.9	10.9
2026-01-30 17:56:55.285747	341.9	30.7	-65.6	11.0
2026-01-30 17:56:57.526822	341.9	30.2	-65.7	11.5
2026-01-30 17:56:59.766897	342.0	29.8	-65.7	12.2
2026-01-30 17:57:02.010492	342.0	29.4	-65.4	11.4
2026-01-30 17:57:04.252561	342.0	29.0	-65.4	11.1
2026-01-30 17:57:06.491663	342.0	28.6	-65.9	11.5
2026-01-30 17:57:08.734732	342.1	28.1	-64.7	10.3
2026-01-30 17:57:10.974852	342.1	27.7	-65.4	11.3
2026-01-30 17:57:13.216929	342.1	27.3	-65.7	12.6
2026-01-30 17:57:15.457011	342.1	27.0	-65.7	12.3
2026-01-30 17:57:17.696611	342.2	26.6	-65.7	12.5
2026-01-30 17:57:19.938742	342.2	26.2	-66.1	12.3
2026-01-30 17:57:22.179319	342.2	25.8	-66.1	12.1
2026-01-30 17:57:24.422494	342.2	25.5	-65.8	11.4
2026-01-30 17:57:26.667616	342.3	25.1	-66.0	12.4
2026-01-30 17:57:28.905261	342.3	24.7	-65.8	11.1
2026-01-30 17:57:31.148863	342.3	24.4	-65.7	11.3
2026-01-30 17:57:33.392920	342.3	24.0	-65.6	12.1
2026-01-30 17:57:35.636483	342.3	23.7	-65.5	11.7
2026-01-30 17:57:37.879562	342.4	23.4	-65.8	11.1
2026-01-30 17:57:40.119619	342.4	23.0	-65.7	10.8
2026-01-30 17:57:42.359192	342.4	22.7	-66.1	11.4
2026-01-30 17:57:44.599790	342.4	22.4	-65.4	10.0
2026-01-30 17:57:46.839856	342.5	22.0	-65.8	11.3
2026-01-30 17:57:49.080934	342.5	21.7	-65.6	11.1
2026-01-30 17:57:51.323496	342.5	21.4	-65.1	10.7
2026-01-30 17:57:53.564582	342.5	21.1	-65.6	12.1
2026-01-30 17:57:55.804719	342.5	20.8	-65.1	9.9
2026-01-30 17:57:58.044829	342.6	20.5	-65.8	11.5
2026-01-30 17:58:00.286687	342.6	20.2	-65.3	9.4
2026-01-30 17:58:02.528806	342.6	19.9	-65.8	10.2
2026-01-30 17:58:04.770891	342.6	19.6	-64.6	9.4
2026-01-30 17:58:07.010961	342.6	19.3	-65.4	9.3
2026-01-30 17:58:09.252636	342.6	19.0	-64.9	9.1
2026-01-30 17:58:11.491345	342.7	18.7	-65.4	9.5
2026-01-30 17:58:13.732458	342.7	18.5	-65.1	8.9
2026-01-30 17:58:15.974654	342.7	18.2	-64.8	9.7
2026-01-30 17:58:18.216944	342.7	17.9	-64.8	9.6
2026-01-30 17:58:20.456529	342.7	17.7	-65.0	8.9
2026-01-30 17:58:22.696270	342.8	17.4	-64.2	8.8
2026-01-30 17:58:24.937362	342.8	17.1	-64.8	8.6
2026-01-30 17:58:27.178924	342.8	16.9	-64.7	8.1
2026-01-30 17:58:29.418050	342.8	16.6	-65.1	9.3
2026-01-30 17:58:31.660143	342.8	16.3	-65.1	8.4
2026-01-30 17:58:33.900975	342.8	16.1	-65.0	8.1
2026-01-30 17:58:36.141057	342.9	15.8	-64.8	8.1
2026-01-30 17:58:38.382638	342.9	15.6	-64.9	8.5
2026-01-30 17:58:40.625723	342.9	15.4	-65.0	8.3
2026-01-30 17:58:42.864813	342.9	15.1	-64.8	8.4
2026-01-30 17:58:45.108834	342.9	14.9	-64.9	8.3
2026-01-30 17:58:47.350901	342.9	14.6	-64.0	7.5
2026-01-30 17:58:49.590992	343.0	14.4	-64.5	7.7
2026-01-30 17:58:51.831069	343.0	14.2	-64.8	7.9
2026-01-30 17:58:54.072160	343.0	13.9	-64.9	8.2
2026-01-30 17:58:56.311767	343.0	13.7	-65.0	7.7
2026-01-30 17:58:58.551379	343.0	13.5	-64.9	7.3
2026-01-30 17:59:00.794954	343.0	13.3	-64.1	6.1
2026-01-30 17:59:03.034545	343.1	13.0	-64.4	7.9
2026-01-30 17:59:05.278593	343.1	12.8	-64.3	7.2
2026-01-30 17:59:07.519169	343.1	12.6	-64.4	8.3
2026-01-30 17:59:09.762754	343.1	12.4	-64.8	7.8
2026-01-30 17:59:12.003338	343.1	12.2	-64.4	7.7
2026-01-30 17:59:14.244923	343.1	12.0	-64.2	7.1
2026-01-30 17:59:16.486516	343.1	11.7	-64.6	7.7
2026-01-30 17:59:18.728594	343.2	11.5	-64.9	7.9
2026-01-30 17:59:20.970706	343.2	11.3	-64.6	6.8
2026-01-30 17:59:23.213781	343.2	11.1	-64.6	7.4
2026-01-30 17:59:25.454347	343.2	10.9	-64.5	7.4
2026-01-30 17:59:27.696418	343.2	10.7	-64.7	6.1
2026-01-30 17:59:29.942506	343.2	10.5	-65.2	6.7
2026-01-30 17:59:32.182068	343.2	10.3	-64.9	7.2
2026-01-30 17:59:34.421671	343.3	10.1	-64.3	7.7
2026-01-30 17:59:36.662760	343.3	9.9	-64.5	5.8
2026-01-30 17:59:38.904857	343.3	9.7	-64.3	6.6
2026-01-30 17:59:41.146949	343.3	9.5	-64.9	7.1
2026-01-30 17:59:43.387008	343.3	9.4	-64.8	7.2
2026-01-30 17:59:45.626590	343.3	9.2	-64.0	7.0
2026-01-30 17:59:47.868698	343.3	9.0	-64.8	8.0
2026-01-30 17:59:50.111266	343.4	8.8	-64.4	7.7
2026-01-30 17:59:52.352822	343.4	8.6	-63.8	6.8
2026-01-30 17:59:54.593422	343.4	8.4	-64.3	7.4
2026-01-30 17:59:56.835002	343.4	8.2	-64.2	7.4
2026-01-30 17:59:59.076587	343.4	8.1	-64.6	8.1
2026-01-30 18:00:01.316725	343.4	7.9	-63.9	7.4
2026-01-30 18:00:03.557804	343.4	7.7	-64.6	7.5
2026-01-30 18:00:05.798870	343.5	7.5	-64.7	8.1
2026-01-30 18:00:08.040968	343.5	7.3	-64.0	7.1
2026-01-30 18:00:10.282193	343.5	7.2	-63.6	5.3
2026-01-30 18:00:12.522308	343.5	7.0	-64.1	5.8
2026-01-30 18:00:14.764945	343.5	6.8	-64.3	6.0
2026-01-30 18:00:17.006664	343.5	6.7	-64.8	5.2
2026-01-30 18:00:19.246787	343.5	6.5	-64.2	4.6
2026-01-30 18:00:21.488536	343.5	6.3	-63.6	3.4
2026-01-30 18:00:23.730131	343.6	6.1	-64.1	3.9
2026-01-30 18:00:25.972775	343.6	6.0	-65.2	4.7
2026-01-30 18:00:28.214395	343.6	5.8	-67.0	0.0
2026-01-30 18:00:30.455451	343.6	5.7	-68.1	0.0
2026-01-30 18:00:32.696118	343.6	5.5	-66.6	0.0
2026-01-30 18:00:34.936772	343.6	5.3	-67.5	0.0
2026-01-30 18:00:37.178353	343.6	5.2	-66.9	0.0
2026-01-30 18:00:39.422507	343.7	5.0	-68.0	0.0
#Closed at: 2026-01-30 17:47:44.025279