passes_logs/2026/01/30/PlanumMoscow/PlanumMoscow__20260130_011225_METEOR-M2_4_rec.log

#Pass ID: 20260130_011225_METEOR-M2 4
#Satellite: METEOR-M2 4
#Configuration: METEOR-M2 4
#Start time: 2026-01-30 01:12:30.476719

#LorettStation: 1.0.0 05.05.2024
#Station: PlanumMoscow
#Location: 37.6253844 lon 55.6713361 lat
#TLE: 1 59051U 24039A   25293.94737965  .00000087  00000+0  58459-4 0  9998
#TLE: 2 59051  98.6671 251.7071 0007726 135.4772 224.7028 14.22388966 85257

#Time	Az	El	Level	SNR
2026-01-30 01:16:08.919271	11.0	29.3	-55.6	0.0
2026-01-30 01:16:11.163779	10.9	29.7	-55.9	0.0
2026-01-30 01:16:13.411295	10.8	30.1	-56.1	0.9
2026-01-30 01:16:15.655802	10.7	30.6	-56.4	0.4
2026-01-30 01:16:17.898326	10.6	31.0	-56.8	0.2
2026-01-30 01:16:20.141346	10.4	31.4	-57.1	0.1
2026-01-30 01:16:22.385853	10.3	31.9	-56.8	0.0
2026-01-30 01:16:24.630360	10.2	32.4	-57.1	1.1
2026-01-30 01:16:26.874380	10.1	32.8	-57.4	2.1
2026-01-30 01:16:29.122402	9.9	33.3	-57.5	1.7
2026-01-30 01:16:31.365422	9.8	33.8	-57.7	2.4
2026-01-30 01:16:33.608442	9.7	34.3	-57.8	2.5
2026-01-30 01:16:35.852452	9.5	34.8	-57.6	2.3
2026-01-30 01:16:38.095968	9.4	35.3	-58.1	3.3
2026-01-30 01:16:40.340979	9.2	35.8	-58.2	3.5
2026-01-30 01:16:42.584496	9.1	36.3	-58.5	3.6
2026-01-30 01:16:44.828517	8.9	36.8	-58.6	3.0
2026-01-30 01:16:47.074034	8.7	37.4	-58.7	4.6
2026-01-30 01:16:49.320541	8.5	37.9	-59.0	4.0
2026-01-30 01:16:51.564553	8.4	38.5	-59.1	4.8
2026-01-30 01:16:53.808564	8.2	39.0	-59.1	4.6
2026-01-30 01:16:56.051593	8.0	39.6	-59.7	4.6
2026-01-30 01:16:58.295604	7.8	40.2	-59.2	4.0
2026-01-30 01:17:00.538623	7.6	40.8	-59.5	4.7
2026-01-30 01:17:02.787139	7.3	41.4	-59.2	5.6
2026-01-30 01:17:05.031646	7.1	42.0	-59.0	5.2
2026-01-30 01:17:07.276172	6.9	42.6	-58.7	4.8
2026-01-30 01:17:09.520689	6.6	43.2	-59.2	4.7
2026-01-30 01:17:11.767700	6.4	43.8	-59.2	5.0
2026-01-30 01:17:14.012207	6.1	44.5	-59.5	4.9
2026-01-30 01:17:16.259219	5.8	45.2	-59.6	4.2
2026-01-30 01:17:18.505737	5.5	45.8	-59.8	4.6
2026-01-30 01:17:20.749749	5.2	46.5	-59.4	4.6
2026-01-30 01:17:22.995266	4.9	47.2	-59.1	3.5
2026-01-30 01:17:25.238781	4.5	47.9	-59.0	2.9
2026-01-30 01:17:27.487298	4.2	48.6	-59.2	3.0
2026-01-30 01:17:29.731813	3.8	49.3	-59.0	2.1
2026-01-30 01:17:31.974833	3.4	50.1	-59.0	1.5
2026-01-30 01:17:34.217376	3.0	50.8	-59.0	2.0
2026-01-30 01:17:36.466388	2.6	51.6	-58.6	1.4
2026-01-30 01:17:38.710894	2.1	52.3	-59.3	1.9
2026-01-30 01:17:40.955402	1.7	53.1	-59.2	1.2
2026-01-30 01:17:43.199422	1.2	53.9	-59.3	0.8
2026-01-30 01:17:45.442442	0.6	54.7	-59.2	1.8
2026-01-30 01:17:47.686462	0.1	55.5	-59.1	0.9
2026-01-30 01:17:49.930969	359.5	56.3	-59.1	0.4
2026-01-30 01:17:52.175981	358.9	57.1	-59.0	1.0
2026-01-30 01:17:54.419002	358.2	57.9	-59.1	0.5
2026-01-30 01:17:56.664023	357.5	58.8	-59.6	0.2
2026-01-30 01:17:58.908044	356.7	59.6	-59.5	0.0
2026-01-30 01:18:01.153056	355.9	60.5	-59.1	0.0
2026-01-30 01:18:03.395580	355.0	61.3	-59.2	0.0
2026-01-30 01:18:05.639591	354.1	62.2	-59.1	0.0
2026-01-30 01:18:07.882613	353.1	63.0	-59.4	0.0
2026-01-30 01:18:10.126128	352.0	63.9	-59.3	0.0
2026-01-30 01:18:12.369643	350.8	64.8	-59.3	0.0
2026-01-30 01:18:14.614150	349.6	65.7	-59.6	0.0
2026-01-30 01:18:16.857667	348.2	66.5	-59.7	0.0
2026-01-30 01:18:19.101183	346.7	67.4	-59.6	0.0
2026-01-30 01:18:21.344698	345.1	68.2	-59.8	0.0
2026-01-30 01:18:23.586735	343.4	69.1	-59.7	0.6
2026-01-30 01:18:25.833765	341.4	69.9	-59.8	1.2
2026-01-30 01:18:28.076786	339.4	70.8	-59.9	0.6
2026-01-30 01:18:30.320797	337.1	71.6	-60.2	0.0
2026-01-30 01:18:32.564808	334.6	72.3	-60.0	0.0
2026-01-30 01:18:34.808819	331.8	73.1	-60.1	0.6
2026-01-30 01:18:37.051343	328.8	73.8	-60.6	0.6
2026-01-30 01:18:39.295355	325.5	74.5	-60.9	2.6
2026-01-30 01:18:41.544863	321.9	75.1	-60.8	3.3
2026-01-30 01:18:43.791389	318.0	75.6	-61.0	4.3
2026-01-30 01:18:46.033914	313.8	76.1	-60.9	4.2
2026-01-30 01:18:48.277925	309.3	76.5	-61.2	5.1
2026-01-30 01:18:50.523945	304.6	76.9	-61.2	4.7
2026-01-30 01:18:52.767471	299.6	77.1	-61.5	4.4
2026-01-30 01:18:55.011491	294.5	77.2	-62.2	4.7
2026-01-30 01:18:57.254018	289.3	77.3	-62.4	4.9
2026-01-30 01:18:59.496551	284.1	77.2	-62.2	5.7
2026-01-30 01:19:01.741058	279.0	77.1	-62.4	5.8
2026-01-30 01:19:03.985070	274.0	76.8	-62.4	6.3
2026-01-30 01:19:06.233596	269.3	76.4	-62.6	6.4
2026-01-30 01:19:08.479111	264.9	76.0	-62.8	6.6
2026-01-30 01:19:10.727125	260.8	75.5	-62.8	6.7
2026-01-30 01:19:12.970639	256.9	74.9	-63.1	6.8
2026-01-30 01:19:15.217661	253.4	74.3	-63.2	6.8
2026-01-30 01:19:17.461177	250.2	73.6	-63.2	7.4
2026-01-30 01:19:19.705683	247.2	72.9	-63.2	8.1
2026-01-30 01:19:21.949713	244.5	72.1	-63.5	7.2
2026-01-30 01:19:24.196240	242.1	71.4	-63.9	7.4
2026-01-30 01:19:26.440756	239.8	70.5	-63.9	7.8
2026-01-30 01:19:28.688272	237.8	69.7	-64.5	7.4
2026-01-30 01:19:30.936798	235.9	68.9	-64.7	8.0
2026-01-30 01:19:33.183819	234.2	68.0	-64.8	8.9
2026-01-30 01:19:35.426345	232.6	67.2	-65.0	9.2
2026-01-30 01:19:37.669374	231.2	66.3	-65.5	10.0
2026-01-30 01:19:39.911908	229.8	65.4	-65.7	11.2
2026-01-30 01:19:42.157424	228.6	64.5	-66.2	10.8
2026-01-30 01:19:44.401436	227.4	63.7	-66.5	11.4
2026-01-30 01:19:46.649457	226.4	62.8	-66.7	11.5
2026-01-30 01:19:48.893469	225.4	61.9	-67.0	11.8
2026-01-30 01:19:51.135002	224.5	61.1	-67.1	11.2
2026-01-30 01:19:53.379014	223.6	60.2	-67.8	11.2
2026-01-30 01:19:55.623026	222.8	59.3	-67.7	11.4
2026-01-30 01:19:57.869533	222.0	58.5	-67.6	12.1
2026-01-30 01:20:00.113049	221.3	57.7	-67.6	12.8
2026-01-30 01:20:02.357565	220.7	56.8	-67.4	12.9
2026-01-30 01:20:04.605082	220.0	56.0	-67.8	12.4
2026-01-30 01:20:06.849598	219.5	55.2	-67.8	12.4
2026-01-30 01:20:09.093609	218.9	54.4	-67.8	12.2
2026-01-30 01:20:11.337630	218.4	53.6	-68.0	11.2
2026-01-30 01:20:13.586652	217.9	52.8	-68.0	11.6
2026-01-30 01:20:15.829176	217.4	52.0	-68.1	11.2
2026-01-30 01:20:18.071711	217.0	51.3	-67.8	11.2
2026-01-30 01:20:20.319226	216.5	50.5	-67.5	11.1
2026-01-30 01:20:22.562247	216.1	49.8	-67.3	10.6
2026-01-30 01:20:24.806258	215.8	49.0	-67.1	10.7
2026-01-30 01:20:27.050764	215.4	48.3	-66.8	10.5
2026-01-30 01:20:29.294280	215.0	47.6	-67.2	11.1
2026-01-30 01:20:31.537299	214.7	46.9	-66.5	9.8
2026-01-30 01:20:33.779824	214.4	46.2	-66.6	10.3
2026-01-30 01:20:36.022844	214.1	45.5	-67.0	10.7
2026-01-30 01:20:38.265368	213.8	44.9	-66.6	11.3
2026-01-30 01:20:40.509884	213.5	44.2	-66.6	12.3
2026-01-30 01:20:42.753400	213.2	43.6	-66.7	12.3
2026-01-30 01:20:44.997411	213.0	42.9	-66.5	11.4
2026-01-30 01:20:47.240927	212.7	42.3	-66.9	12.5
2026-01-30 01:20:49.483451	212.5	41.7	-66.8	12.4
2026-01-30 01:20:51.727958	212.3	41.1	-66.5	12.3
2026-01-30 01:20:53.972987	212.1	40.5	-66.4	11.3
2026-01-30 01:20:56.216513	211.8	39.9	-66.2	12.5
2026-01-30 01:20:58.460523	211.6	39.3	-66.0	12.8
2026-01-30 01:21:00.703554	211.4	38.7	-65.5	11.8
2026-01-30 01:21:02.947565	211.3	38.2	-65.6	12.1
2026-01-30 01:21:05.193082	211.1	37.6	-65.1	11.5
2026-01-30 01:21:07.436102	210.9	37.1	-64.8	11.2
2026-01-30 01:21:09.679618	210.7	36.5	-64.7	11.2
2026-01-30 01:21:11.925630	210.6	36.0	-64.8	11.1
2026-01-30 01:21:14.170137	210.4	35.5	-64.8	10.9
2026-01-30 01:21:16.413158	210.3	35.0	-64.6	10.4
2026-01-30 01:21:18.656673	210.1	34.5	-64.5	10.6
2026-01-30 01:21:20.900189	210.0	34.0	-64.3	10.7
2026-01-30 01:21:23.142715	209.8	33.5	-63.9	10.6
2026-01-30 01:21:25.389231	209.7	33.0	-63.9	10.1
2026-01-30 01:21:27.638765	209.5	32.5	-63.8	10.4
2026-01-30 01:21:29.883282	209.4	32.1	-63.7	9.9
2026-01-30 01:21:32.127800	209.3	31.6	-63.4	10.1
2026-01-30 01:21:34.371816	209.2	31.1	-63.8	9.2
2026-01-30 01:21:36.615850	209.1	30.7	-64.0	9.5
2026-01-30 01:21:38.859861	208.9	30.3	-64.1	9.9
2026-01-30 01:21:41.103377	208.8	29.8	-63.2	7.4
2026-01-30 01:21:43.345913	208.7	29.4	-63.9	10.0
2026-01-30 01:21:45.589428	208.6	29.0	-64.0	10.0
2026-01-30 01:21:47.833935	208.5	28.6	-64.0	10.4
2026-01-30 01:21:50.077460	208.4	28.2	-64.1	10.5
2026-01-30 01:21:52.322976	208.3	27.8	-64.5	10.5
2026-01-30 01:21:54.568987	208.2	27.4	-64.3	10.8
2026-01-30 01:21:56.812998	208.1	27.0	-64.2	10.8
2026-01-30 01:21:59.057505	208.1	26.6	-64.5	10.8
2026-01-30 01:22:01.302021	208.0	26.2	-64.2	10.1
2026-01-30 01:22:03.544050	207.9	25.8	-62.7	8.3
2026-01-30 01:22:05.787566	207.8	25.5	-64.8	11.1
2026-01-30 01:22:08.032072	207.7	25.1	-64.8	11.3
2026-01-30 01:22:10.275589	207.6	24.7	-65.0	11.2
2026-01-30 01:22:12.520105	207.6	24.4	-65.3	11.9
2026-01-30 01:22:14.764125	207.5	24.0	-65.3	12.8
2026-01-30 01:22:17.008140	207.4	23.7	-65.3	12.7
2026-01-30 01:22:19.250674	207.3	23.4	-65.1	12.8
2026-01-30 01:22:21.493200	207.3	23.0	-65.4	13.2
2026-01-30 01:22:23.737722	207.2	22.7	-65.4	13.3
2026-01-30 01:22:25.980247	207.1	22.4	-65.4	13.1
2026-01-30 01:22:28.224258	207.1	22.0	-65.8	13.7
2026-01-30 01:22:30.467774	207.0	21.7	-66.0	13.9
2026-01-30 01:22:32.711290	207.0	21.4	-65.5	13.9
2026-01-30 01:22:34.959824	206.9	21.1	-65.9	13.7
2026-01-30 01:22:37.202349	206.8	20.8	-66.2	14.1
2026-01-30 01:22:39.446360	206.8	20.5	-66.3	13.7
2026-01-30 01:22:41.689876	206.7	20.2	-66.3	13.6
2026-01-30 01:22:43.932401	206.7	19.9	-66.0	14.2
2026-01-30 01:22:46.176908	206.6	19.6	-66.4	14.4
2026-01-30 01:22:48.420920	206.6	19.3	-66.1	14.1
2026-01-30 01:22:50.664930	206.5	19.0	-66.0	13.4
2026-01-30 01:22:52.908466	206.4	18.7	-66.1	12.6
2026-01-30 01:22:55.153487	206.4	18.4	-66.5	14.0
2026-01-30 01:22:57.396010	206.4	18.2	-66.3	14.2
2026-01-30 01:22:59.639526	206.3	17.9	-66.2	13.8
2026-01-30 01:23:01.887549	206.3	17.6	-66.2	14.1
2026-01-30 01:23:04.129084	206.2	17.4	-66.6	13.7
2026-01-30 01:23:06.373095	206.2	17.1	-66.7	13.1
2026-01-30 01:23:08.621612	206.1	16.8	-66.7	14.0
2026-01-30 01:23:10.865127	206.1	16.6	-66.2	14.3
2026-01-30 01:23:13.109634	206.0	16.3	-66.6	13.7
2026-01-30 01:23:15.353646	206.0	16.1	-66.6	13.8
2026-01-30 01:23:17.602162	206.0	15.8	-66.5	12.9
2026-01-30 01:23:19.845678	205.9	15.6	-66.3	12.6
2026-01-30 01:23:22.088698	205.9	15.3	-66.6	12.4
2026-01-30 01:23:24.332213	205.8	15.1	-66.4	12.7
2026-01-30 01:23:26.576720	205.8	14.8	-66.6	12.0
2026-01-30 01:23:28.819244	205.8	14.6	-66.3	11.2
2026-01-30 01:23:31.062769	205.7	14.3	-66.0	11.9
2026-01-30 01:23:33.311285	205.7	14.1	-66.5	11.6
2026-01-30 01:23:35.555298	205.7	13.9	-66.4	11.7
2026-01-30 01:23:37.799308	205.6	13.6	-66.1	11.9
2026-01-30 01:23:40.042824	205.6	13.4	-65.9	10.6
2026-01-30 01:23:42.291837	205.5	13.2	-66.1	10.8
2026-01-30 01:23:44.535848	205.5	13.0	-66.0	11.3
2026-01-30 01:23:46.781363	205.5	12.7	-65.9	11.1
2026-01-30 01:23:49.026888	205.5	12.5	-66.0	10.6
2026-01-30 01:23:51.270899	205.4	12.3	-66.0	10.6
2026-01-30 01:23:53.514910	205.4	12.1	-66.1	10.5
2026-01-30 01:23:55.758921	205.4	11.9	-65.5	9.3
2026-01-30 01:23:58.005951	205.3	11.7	-65.7	10.5
2026-01-30 01:24:00.249469	205.3	11.5	-65.5	9.9
2026-01-30 01:24:02.491498	205.3	11.2	-65.2	8.3
2026-01-30 01:24:04.735510	205.2	11.0	-65.5	10.3
2026-01-30 01:24:06.980027	205.2	10.8	-65.5	9.7
2026-01-30 01:24:09.222057	205.2	10.6	-65.5	9.4
2026-01-30 01:24:11.465078	205.2	10.4	-65.4	9.4
2026-01-30 01:24:13.711595	205.1	10.2	-65.0	8.6
2026-01-30 01:24:15.956625	205.1	10.0	-64.9	8.2
2026-01-30 01:24:18.199644	205.1	9.8	-65.2	8.1
2026-01-30 01:24:20.442665	205.1	9.6	-65.2	8.3
2026-01-30 01:24:22.686676	205.0	9.4	-64.9	8.3
2026-01-30 01:24:24.929201	205.0	9.3	-65.1	7.8
2026-01-30 01:24:27.173212	205.0	9.1	-65.0	7.5
2026-01-30 01:24:29.418718	205.0	8.9	-64.7	7.5
2026-01-30 01:24:31.671227	204.9	8.7	-64.6	7.4
2026-01-30 01:24:33.916743	204.9	8.5	-64.9	7.4
2026-01-30 01:24:36.159764	204.9	8.3	-64.6	6.9
2026-01-30 01:24:38.404270	204.9	8.1	-64.6	6.1
2026-01-30 01:24:40.650292	204.9	8.0	-64.2	6.5
2026-01-30 01:24:42.893816	204.8	7.8	-64.5	5.8
2026-01-30 01:24:45.137837	204.8	7.6	-63.7	5.5
2026-01-30 01:24:47.380360	204.8	7.4	-64.0	4.6
2026-01-30 01:24:49.624380	204.8	7.2	-63.3	4.1
2026-01-30 01:24:51.868887	204.8	7.1	-63.4	4.5
2026-01-30 01:24:54.111909	204.7	6.9	-63.0	3.9
2026-01-30 01:24:56.356424	204.7	6.7	-63.0	3.5
2026-01-30 01:24:58.601436	204.7	6.5	-62.9	3.1
2026-01-30 01:25:00.847954	204.7	6.4	-63.0	2.9
2026-01-30 01:25:03.092461	204.7	6.2	-62.5	2.2
2026-01-30 01:25:05.335505	204.6	6.0	-63.0	2.4
2026-01-30 01:25:07.579032	204.6	5.9	-68.4	1.0
2026-01-30 01:25:09.823043	204.6	5.7	-69.5	0.0
2026-01-30 01:25:12.067576	204.6	5.5	-70.8	0.0
2026-01-30 01:25:14.311587	204.6	5.4	-69.0	0.0
2026-01-30 01:25:16.556094	204.6	5.2	-68.7	0.0
2026-01-30 01:25:18.799618	204.5	5.0	-66.0	0.0
#Closed at: 2026-01-30 01:12:25.478907