passes_logs/2026/01/15/R3.2S_Murmansk/R3.2S_Murmansk__20260115_194603_TY-39_rec.log

#Pass ID: 20260115_194603_TY-39
#Satellite: TY-39
#Configuration: TY-39
#almurnet v.1.7.20251203
#Start time: 2026-01-15 19:46:03

#Version: 2.2.20231116
#Station: R3.2S_Murmansk
#Location: 33.079688 lon 68.888172 lat
#TLE: 1 51832U 22019J   26014.95856198  .00001434  00000-0  70377-4 0  9997
#TLE: 2 51832  97.3654  81.6497 0010051  52.2384 307.9760 15.19636883214527

#Time	Az	El	Level	Level2	SNR	BER	BlckErr	Temp	State	Recorded	gain1	gain2
2026-01-15 19:46:03.02	201.02	1.96	-57.1	-59.3	3.7	0.00e+00	0	46	0	0	86	17836
2026-01-15 19:46:06.06	201.26	2.15	-57.1	-59.3	3.7	0.00e+00	0	47	104	0	85	18856
2026-01-15 19:46:09.09	201.50	2.35	-57.1	-59.2	3.7	0.00e+00	0	47	104	0	85	18817
2026-01-15 19:46:12.12	201.75	2.54	-57.1	-59.2	3.7	0.00e+00	0	47	104	0	85	18765
2026-01-15 19:46:15.15	202.00	2.74	-57.1	-59.3	3.7	0.00e+00	0	48	104	0	85	18823
2026-01-15 19:46:18.18	202.26	2.94	-57.1	-59.3	3.7	0.00e+00	0	48	104	0	85	18819
2026-01-15 19:46:21.21	202.52	3.14	-57.1	-59.2	3.7	0.00e+00	0	49	104	0	85	18771
2026-01-15 19:46:24.25	202.78	3.34	-57.1	-59.2	3.7	0.00e+00	0	48	104	0	85	18812
2026-01-15 19:46:27.28	203.05	3.55	-57.1	-59.2	3.7	0.00e+00	0	49	104	0	85	18798
2026-01-15 19:46:30.31	203.33	3.75	-57.1	-59.2	3.7	0.00e+00	0	49	104	0	85	18766
2026-01-15 19:46:33.34	203.61	3.96	-57.1	-59.2	3.7	0.00e+00	0	49	104	0	85	18765
2026-01-15 19:46:36.37	203.89	4.17	-57.1	-59.2	3.7	0.00e+00	0	49	104	0	85	18771
2026-01-15 19:46:39.40	204.18	4.38	-57.1	-59.2	3.7	0.00e+00	0	50	104	0	85	18774
2026-01-15 19:46:42.44	204.47	4.59	-57.1	-59.2	3.7	0.00e+00	0	50	104	0	85	18760
2026-01-15 19:46:45.47	204.77	4.80	-57.1	-59.2	3.7	0.00e+00	0	50	104	0	85	18777
2026-01-15 19:46:48.50	205.07	5.02	-57.1	-59.2	3.7	0.00e+00	0	50	104	0	85	18777
2026-01-15 19:46:51.53	205.38	5.24	-57.1	-59.3	3.7	0.00e+00	0	51	104	0	85	18873
2026-01-15 19:46:54.56	205.70	5.46	-57.2	-59.3	3.7	0.00e+00	0	51	104	0	85	19022
2026-01-15 19:46:57.59	206.02	5.68	-57.2	-59.3	3.7	0.00e+00	0	51	104	0	85	18927
2026-01-15 19:47:00.61	206.34	5.90	-57.1	-59.3	3.7	0.00e+00	0	51	104	0	85	18868
2026-01-15 19:47:03.64	206.68	6.12	-57.2	-59.3	3.7	0.00e+00	0	52	104	0	85	19033
2026-01-15 19:47:06.67	207.01	6.35	-57.3	-59.4	3.7	0.00e+00	0	52	104	0	85	19218
2026-01-15 19:47:09.70	207.36	6.58	-43.9	-43.7	12.6	1.99e-01	0	53	0	41943040	59	14083
2026-01-15 19:47:12.73	207.71	6.81	-43.6	-43.5	12.8	4.85e-05	0	53	0	276824064	59	13756
2026-01-15 19:47:15.75	208.07	7.04	-43.4	-43.4	12.9	3.46e-05	0	53	0	503316480	58	14284
2026-01-15 19:47:18.78	208.44	7.27	-43.6	-43.5	12.9	2.77e-05	0	53	0	729808896	58	14531
2026-01-15 19:47:21.81	208.81	7.51	-43.5	-43.5	12.9	1.38e-05	0	54	0	947912704	58	14493
2026-01-15 19:47:24.84	209.19	7.75	-43.2	-43.2	13.1	2.77e-05	0	54	0	1182793728	58	13966
2026-01-15 19:47:27.87	209.58	7.99	-43.2	-43.1	13.2	2.08e-05	0	54	0	1409286144	58	13903
2026-01-15 19:47:30.90	209.97	8.23	-43.4	-43.4	13.0	6.90e-06	0	54	0	1635778560	57	15133
2026-01-15 19:47:33.93	210.38	8.48	-42.9	-42.8	13.4	6.90e-06	0	54	0	1862270976	57	14257
2026-01-15 19:47:36.95	210.79	8.72	-42.7	-42.6	13.5	6.90e-06	0	55	0	2088763392	57	13923
2026-01-15 19:47:39.98	211.21	8.97	-42.8	-42.7	13.5	6.90e-06	0	55	0	2315255808	57	14068
2026-01-15 19:47:43.01	211.64	9.23	-42.9	-42.8	13.4	6.90e-06	0	55	0	2541748224	57	14178
2026-01-15 19:47:46.04	212.08	9.48	-42.7	-42.6	13.5	0.00e+00	0	55	0	2776629248	57	13863
2026-01-15 19:47:49.07	212.52	9.74	-42.4	-42.4	13.7	0.00e+00	0	56	0	2994733056	56	14295
2026-01-15 19:47:52.09	212.98	9.99	-42.3	-42.3	13.7	0.00e+00	0	56	0	3221225472	56	14157
2026-01-15 19:47:55.12	213.45	10.25	-42.6	-42.5	13.6	0.00e+00	0	56	0	3456106496	56	14508
2026-01-15 19:47:58.15	213.92	10.52	-42.4	-42.3	13.8	6.90e-06	0	56	0	3682598912	56	14154
2026-01-15 19:48:01.18	214.41	10.78	-42.4	-42.4	13.7	6.90e-06	0	56	0	3909091328	56	14276
2026-01-15 19:48:04.20	214.91	11.05	-42.3	-42.2	13.8	0.00e+00	0	56	0	4127195136	56	14091
2026-01-15 19:48:07.23	215.41	11.32	-42.1	-42.0	13.9	0.00e+00	0	57	0	4362076160	56	13743
2026-01-15 19:48:10.26	215.93	11.59	-42.1	-42.0	14.0	0.00e+00	0	57	0	4588568576	55	14517
2026-01-15 19:48:13.29	216.46	11.86	-42.0	-41.9	14.0	0.00e+00	0	57	0	4815060992	55	14370
2026-01-15 19:48:16.32	217.01	12.14	-41.8	-41.8	14.2	0.00e+00	0	57	0	5041553408	55	14139
2026-01-15 19:48:19.34	217.56	12.41	-41.9	-41.8	14.2	0.00e+00	0	57	0	5268045824	55	14167
2026-01-15 19:48:22.37	218.13	12.69	-41.7	-41.6	14.2	0.00e+00	0	57	0	5494538240	55	13916
2026-01-15 19:48:25.40	218.71	12.97	-41.6	-41.5	14.3	0.00e+00	0	57	0	5721030656	55	13675
2026-01-15 19:48:28.42	219.30	13.26	-41.4	-41.3	14.4	0.00e+00	0	57	0	5955911680	54	14253
2026-01-15 19:48:31.45	219.91	13.54	-41.4	-41.3	14.4	0.00e+00	0	58	0	6182404096	54	14178
2026-01-15 19:48:34.48	220.53	13.83	-41.4	-41.3	14.4	0.00e+00	0	58	0	6400507904	54	14161
2026-01-15 19:48:37.51	221.16	14.12	-41.3	-41.2	14.5	0.00e+00	0	58	0	6627000320	54	13962
2026-01-15 19:48:40.54	221.81	14.41	-41.0	-41.0	14.6	0.00e+00	0	58	0	6861881344	54	13639
2026-01-15 19:48:43.57	222.48	14.70	-41.0	-40.9	14.6	0.00e+00	0	58	0	7088373760	53	14406
2026-01-15 19:48:46.59	223.15	15.00	-41.0	-40.9	14.6	0.00e+00	0	59	0	7314866176	53	14393
2026-01-15 19:48:49.62	223.85	15.29	-40.9	-40.8	14.7	0.00e+00	0	59	0	7541358592	53	14137
2026-01-15 19:48:52.65	224.56	15.59	-40.7	-40.7	14.8	0.00e+00	0	59	0	7767851008	53	13959
2026-01-15 19:48:55.68	225.29	15.88	-40.6	-40.5	14.8	0.00e+00	0	59	0	7994343424	53	13670
2026-01-15 19:48:58.70	226.03	16.18	-40.7	-40.7	14.8	0.00e+00	0	59	0	8220835840	53	13956
2026-01-15 19:49:01.73	226.79	16.48	-40.4	-40.3	14.9	0.00e+00	0	59	0	8447328256	52	14226
2026-01-15 19:49:04.77	227.57	16.78	-40.4	-40.3	15.0	0.00e+00	0	59	0	8673820672	52	14151
2026-01-15 19:49:07.80	228.37	17.08	-40.2	-40.1	15.0	0.00e+00	0	59	0	8900313088	52	13821
2026-01-15 19:49:10.83	229.18	17.37	-40.1	-40.0	15.1	0.00e+00	0	59	0	9135194112	52	13736
2026-01-15 19:49:13.86	230.02	17.67	-40.0	-39.9	15.1	0.00e+00	0	59	0	9361686528	52	13519
2026-01-15 19:49:16.89	230.87	17.97	-40.1	-40.0	15.1	0.00e+00	0	60	0	9579790336	51	14485
2026-01-15 19:49:19.92	231.74	18.26	-40.0	-39.9	15.1	0.00e+00	0	59	0	9814671360	51	14414
2026-01-15 19:49:22.95	232.63	18.56	-40.0	-39.9	15.1	0.00e+00	0	60	0	10041163776	51	14422
2026-01-15 19:49:25.98	233.54	18.85	-40.0	-39.9	15.2	0.00e+00	0	60	0	10267656192	51	14310
2026-01-15 19:49:29.01	234.47	19.14	-39.7	-39.6	15.3	0.00e+00	0	60	0	10494148608	51	13804
2026-01-15 19:49:32.04	235.42	19.43	-39.8	-39.7	15.3	0.00e+00	0	60	0	10720641024	51	13985
2026-01-15 19:49:35.06	236.39	19.72	-39.6	-39.5	15.3	0.00e+00	0	60	0	10947133440	51	13769
2026-01-15 19:49:38.09	237.38	20.00	-39.5	-39.4	15.4	0.00e+00	0	60	0	11173625856	51	13624
2026-01-15 19:49:41.12	238.39	20.28	-39.5	-39.4	15.3	0.00e+00	0	60	0	11408506880	50	14284
2026-01-15 19:49:44.15	239.43	20.55	-39.5	-39.4	15.4	0.00e+00	0	60	0	11634999296	50	14349
2026-01-15 19:49:47.18	240.48	20.82	-39.2	-39.1	15.5	0.00e+00	0	60	0	11853103104	50	13900
2026-01-15 19:49:50.20	241.55	21.08	-39.2	-39.1	15.5	0.00e+00	0	60	0	12079595520	50	13945
2026-01-15 19:49:53.23	242.64	21.34	-39.3	-39.1	15.5	0.00e+00	0	60	0	12314476544	50	13948
2026-01-15 19:49:56.26	243.75	21.59	-39.1	-39.0	15.5	0.00e+00	0	60	0	12540968960	50	13748
2026-01-15 19:49:59.29	244.89	21.83	-39.0	-38.9	15.6	0.00e+00	0	60	0	12767461376	50	13590
2026-01-15 19:50:02.31	246.04	22.07	-38.9	-38.8	15.6	0.00e+00	0	61	0	12985565184	49	14272
2026-01-15 19:50:05.34	247.21	22.30	-39.0	-38.9	15.6	0.00e+00	0	61	0	13220446208	49	14282
2026-01-15 19:50:08.37	248.40	22.52	-38.8	-38.7	15.6	0.00e+00	0	61	0	13446938624	49	14094
2026-01-15 19:50:11.40	249.61	22.73	-38.7	-38.6	15.7	0.00e+00	0	61	0	13673431040	49	13909
2026-01-15 19:50:14.43	250.83	22.93	-38.8	-38.7	15.6	0.00e+00	0	61	0	13899923456	49	13959
2026-01-15 19:50:17.46	252.08	23.11	-38.7	-38.6	15.7	0.00e+00	0	61	0	14126415872	49	13892
2026-01-15 19:50:20.49	253.34	23.29	-38.7	-38.6	15.7	0.00e+00	0	61	0	14352908288	49	13861
2026-01-15 19:50:23.52	254.61	23.46	-38.9	-38.8	15.6	0.00e+00	0	61	0	14579400704	49	14165
2026-01-15 19:50:26.54	255.90	23.61	-38.9	-38.8	15.6	0.00e+00	0	61	0	14814281728	49	14115
2026-01-15 19:50:29.57	257.20	23.75	-38.6	-38.5	15.7	0.00e+00	0	61	0	15032385536	49	13770
2026-01-15 19:50:32.59	258.51	23.88	-38.6	-38.5	15.7	0.00e+00	0	61	0	15258877952	49	13748
2026-01-15 19:50:35.62	259.83	23.99	-38.6	-38.4	15.7	0.00e+00	0	61	0	15493758976	49	13624
2026-01-15 19:50:38.65	261.17	24.09	-38.4	-38.3	15.8	0.00e+00	0	61	0	15720251392	48	14235
2026-01-15 19:50:41.68	262.51	24.18	-38.4	-38.3	15.7	0.00e+00	0	62	0	15946743808	48	14241
2026-01-15 19:50:44.70	263.86	24.25	-38.4	-38.3	15.8	0.00e+00	0	61	0	16164847616	48	14243
2026-01-15 19:50:47.73	265.22	24.31	-38.5	-38.4	15.8	0.00e+00	0	61	0	16399728640	48	14336
2026-01-15 19:50:50.76	266.58	24.35	-38.4	-38.3	15.8	0.00e+00	0	62	0	16626221056	48	14203
2026-01-15 19:50:53.79	267.94	24.37	-38.4	-38.3	15.8	0.00e+00	0	62	0	16852713472	48	14247
2026-01-15 19:50:56.81	269.30	24.38	-38.4	-38.3	15.8	0.00e+00	0	62	0	17079205888	48	14241
2026-01-15 19:50:59.84	270.67	24.37	-38.4	-38.3	15.8	0.00e+00	0	62	0	17305698304	48	14272
2026-01-15 19:51:02.87	272.03	24.35	-38.6	-38.5	15.7	0.00e+00	0	62	0	17532190720	48	14515
2026-01-15 19:51:05.90	273.39	24.32	-38.5	-38.4	15.8	0.00e+00	0	62	0	17758683136	48	14404
2026-01-15 19:51:08.92	274.75	24.26	-38.7	-38.6	15.7	0.00e+00	0	62	0	17993564160	48	14651
2026-01-15 19:51:11.95	276.10	24.20	-38.6	-38.5	15.7	0.00e+00	0	62	0	18220056576	48	14543
2026-01-15 19:51:14.98	277.44	24.12	-38.6	-38.5	15.8	0.00e+00	0	62	0	18438160384	48	14531
2026-01-15 19:51:18.01	278.78	24.02	-38.7	-38.6	15.7	0.00e+00	0	62	0	18664652800	48	14659
2026-01-15 19:51:21.04	280.10	23.91	-38.7	-38.6	15.7	0.00e+00	0	62	0	18899533824	48	14748
2026-01-15 19:51:24.07	281.42	23.79	-38.7	-38.7	15.7	0.00e+00	0	62	0	19126026240	48	14778
2026-01-15 19:51:27.09	282.71	23.65	-38.9	-38.8	15.6	0.00e+00	0	62	0	19352518656	48	15032
2026-01-15 19:51:30.13	284.01	23.50	-38.8	-38.7	15.7	0.00e+00	0	62	0	19579011072	48	14893
2026-01-15 19:51:33.16	285.28	23.33	-39.0	-38.9	15.6	0.00e+00	0	62	0	19805503488	48	15138
2026-01-15 19:51:36.19	286.54	23.16	-39.0	-38.9	15.6	0.00e+00	0	62	0	20031995904	48	15166
2026-01-15 19:51:39.21	287.78	22.98	-39.0	-38.9	15.6	0.00e+00	0	62	0	20258488320	48	15150
2026-01-15 19:51:42.25	289.01	22.78	-39.0	-38.9	15.6	0.00e+00	0	62	0	20484980736	48	15169
2026-01-15 19:51:45.27	290.21	22.57	-39.2	-39.1	15.5	0.00e+00	0	62	0	20711473152	48	15524
2026-01-15 19:51:48.31	291.41	22.36	-39.2	-39.1	15.5	0.00e+00	0	62	0	20937965568	48	15584
2026-01-15 19:51:51.34	292.58	22.13	-39.3	-39.2	15.5	0.00e+00	0	62	0	21172846592	49	14808
2026-01-15 19:51:54.37	293.73	21.90	-39.3	-39.2	15.5	0.00e+00	0	62	0	21399339008	49	14785
2026-01-15 19:51:57.40	294.86	21.66	-39.3	-39.2	15.5	0.00e+00	0	62	0	21617442816	49	14832
2026-01-15 19:52:00.43	295.98	21.41	-39.5	-39.4	15.4	0.00e+00	0	62	0	21852323840	49	15289
2026-01-15 19:52:03.46	297.07	21.16	-39.6	-39.5	15.5	0.00e+00	0	62	0	22078816256	49	15331
2026-01-15 19:52:06.49	298.14	20.90	-39.7	-39.6	15.4	0.00e+00	0	62	0	22305308672	49	15492
2026-01-15 19:52:09.51	299.19	20.63	-39.6	-39.5	15.5	0.00e+00	0	62	0	22531801088	49	15443
2026-01-15 19:52:12.54	300.22	20.36	-39.7	-39.6	15.4	0.00e+00	0	62	0	22758293504	49	15487
2026-01-15 19:52:15.57	301.23	20.09	-39.8	-39.7	15.4	0.00e+00	0	62	0	22984785920	50	14808
2026-01-15 19:52:18.60	302.22	19.81	-39.9	-39.8	15.3	0.00e+00	0	62	0	23211278336	50	15054
2026-01-15 19:52:21.63	303.19	19.52	-39.9	-39.8	15.3	0.00e+00	0	62	0	23446159360	50	15103
2026-01-15 19:52:24.67	304.15	19.24	-40.0	-39.9	15.3	0.00e+00	0	62	0	23672651776	50	15249
2026-01-15 19:52:27.70	305.08	18.95	-40.1	-40.0	15.2	0.00e+00	0	62	0	23890755584	51	14518
2026-01-15 19:52:30.73	305.99	18.66	-40.1	-40.0	15.2	0.00e+00	0	62	0	24125636608	51	14539
2026-01-15 19:52:33.76	306.88	18.37	-40.3	-40.2	15.2	0.00e+00	0	62	0	24352129024	51	14837
2026-01-15 19:52:36.79	307.75	18.07	-40.6	-40.5	15.1	0.00e+00	0	62	0	24578621440	51	15311
2026-01-15 19:52:39.82	308.60	17.78	-40.5	-40.4	15.1	0.00e+00	0	62	0	24805113856	51	15290
2026-01-15 19:52:42.85	309.44	17.48	-40.6	-40.5	15.0	0.00e+00	0	62	0	25031606272	51	15431
2026-01-15 19:52:45.87	310.25	17.19	-40.7	-40.6	15.0	0.00e+00	0	62	0	25258098688	51	15550
2026-01-15 19:52:48.90	311.04	16.89	-40.7	-40.6	14.9	0.00e+00	0	62	0	25484591104	52	14691
2026-01-15 19:52:51.93	311.82	16.60	-40.7	-40.6	14.9	0.00e+00	0	62	0	25719472128	52	14636
2026-01-15 19:52:54.96	312.58	16.30	-40.7	-40.6	14.9	0.00e+00	0	63	0	25937575936	52	14741
2026-01-15 19:52:57.98	313.33	16.01	-40.8	-40.7	14.9	0.00e+00	0	63	0	26164068352	52	14831
2026-01-15 19:53:01.01	314.05	15.71	-40.9	-40.8	14.8	0.00e+00	0	63	0	26390560768	52	15088
2026-01-15 19:53:04.04	314.77	15.42	-41.0	-40.9	14.7	0.00e+00	0	63	0	26625441792	52	15207
2026-01-15 19:53:07.07	315.46	15.13	-41.0	-41.0	14.7	0.00e+00	0	62	0	26851934208	52	15316
2026-01-15 19:53:10.10	316.14	14.84	-41.2	-41.1	14.6	0.00e+00	0	63	0	27070038016	53	14752
2026-01-15 19:53:13.12	316.80	14.55	-41.2	-41.1	14.6	0.00e+00	0	63	0	27304919040	53	14658
2026-01-15 19:53:16.15	317.45	14.26	-41.3	-41.2	14.6	0.00e+00	0	63	0	27531411456	53	14918
2026-01-15 19:53:19.18	318.09	13.97	-41.4	-41.3	14.5	0.00e+00	0	63	0	27757903872	53	15104
2026-01-15 19:53:22.21	318.71	13.69	-41.4	-41.4	14.5	0.00e+00	0	63	0	27984396288	53	15131
2026-01-15 19:53:25.24	319.32	13.40	-41.7	-41.6	14.3	0.00e+00	0	63	0	28210888704	53	15631
2026-01-15 19:53:28.27	319.91	13.12	-41.7	-41.6	14.4	0.00e+00	0	63	0	28437381120	54	14725
2026-01-15 19:53:31.30	320.49	12.84	-41.7	-41.6	14.3	0.00e+00	0	63	0	28663873536	54	14760
2026-01-15 19:53:34.33	321.06	12.56	-41.9	-41.8	14.2	0.00e+00	0	63	0	28898754560	54	15109
2026-01-15 19:53:37.36	321.61	12.29	-41.9	-41.8	14.2	0.00e+00	0	63	0	29125246976	54	15017
2026-01-15 19:53:40.39	322.16	12.01	-42.1	-42.0	14.1	0.00e+00	0	63	0	29343350784	54	15392
2026-01-15 19:53:43.41	322.69	11.74	-42.2	-42.2	14.0	0.00e+00	0	63	0	29569843200	55	14797
2026-01-15 19:53:46.44	323.21	11.47	-42.2	-42.2	14.0	0.00e+00	0	63	0	29804724224	55	14822
2026-01-15 19:53:49.47	323.72	11.20	-42.4	-42.3	14.0	0.00e+00	0	63	0	30031216640	55	15010
2026-01-15 19:53:52.49	324.21	10.94	-42.4	-42.4	13.9	0.00e+00	0	63	0	30257709056	55	15123
2026-01-15 19:53:55.52	324.70	10.68	-42.5	-42.4	13.9	0.00e+00	0	63	0	30484201472	55	15184
2026-01-15 19:53:58.55	325.18	10.42	-42.5	-42.5	13.8	0.00e+00	0	63	0	30710693888	55	15311
2026-01-15 19:54:01.58	325.65	10.16	-42.7	-42.6	13.7	6.90e-06	0	63	0	30937186304	55	15632
2026-01-15 19:54:04.61	326.10	9.90	-42.7	-42.6	13.6	6.90e-06	0	63	0	31163678720	56	14773
2026-01-15 19:54:07.64	326.55	9.65	-42.7	-42.6	13.6	0.00e+00	0	63	0	31390171136	56	14679
2026-01-15 19:54:10.66	326.99	9.39	-42.8	-42.7	13.5	0.00e+00	0	63	0	31616663552	56	14916
2026-01-15 19:54:13.69	327.42	9.14	-42.9	-42.9	13.5	6.90e-06	0	63	0	31843155968	56	15123
2026-01-15 19:54:16.72	327.84	8.90	-42.9	-42.8	13.5	6.90e-06	0	63	0	32069648384	56	15119
2026-01-15 19:54:19.75	328.25	8.65	-43.0	-42.9	13.4	0.00e+00	0	63	0	32304529408	56	15267
2026-01-15 19:54:22.78	328.66	8.41	-43.3	-43.3	13.2	2.08e-05	0	63	0	32522633216	57	14988
2026-01-15 19:54:25.80	329.06	8.17	-43.3	-43.2	13.2	1.38e-05	0	63	0	32749125632	57	14861
2026-01-15 19:54:28.83	329.44	7.93	-43.7	-43.6	12.9	1.38e-05	0	63	0	32984006656	58	14721
2026-01-15 19:54:31.86	329.83	7.69	-44.1	-44.1	12.6	4.16e-05	0	63	0	33210499072	58	15525
2026-01-15 19:54:34.88	330.20	7.45	-44.6	-44.6	12.2	1.18e-04	0	63	0	33436991488	59	15509
2026-01-15 19:54:37.91	330.57	7.22	-44.1	-44.1	12.6	2.08e-05	0	63	0	33655095296	59	14609
2026-01-15 19:54:40.94	330.93	6.99	-44.0	-44.0	12.6	2.77e-05	0	63	0	33889976320	59	14500
2026-01-15 19:54:43.97	331.28	6.76	-44.2	-44.2	12.5	5.54e-05	0	63	0	34116468736	59	14819
2026-01-15 19:54:47.00	331.63	6.53	-43.8	-43.8	12.8	4.16e-05	0	63	0	34342961152	59	14143
2026-01-15 19:54:50.02	331.97	6.31	-43.8	-43.7	12.8	6.93e-05	0	63	0	34569453568	59	14044
2026-01-15 19:54:53.05	332.30	6.09	-44.5	-44.5	12.2	7.62e-05	0	63	0	34795945984	59	15370
2026-01-15 19:54:56.08	332.63	5.86	-44.1	-44.0	12.8	6.93e-05	0	63	0	35022438400	60	13775
2026-01-15 19:54:59.10	332.95	5.65	-44.5	-44.4	12.2	8.32e-05	0	63	0	35248930816	59	15250
2026-01-15 19:55:02.13	333.26	5.43	-44.2	-44.2	12.3	4.16e-05	0	63	0	35483811840	59	14880
2026-01-15 19:55:05.16	333.57	5.21	-44.5	-44.4	12.4	7.62e-05	0	63	0	35710304256	60	14407
2026-01-15 19:55:08.19	333.88	5.00	-57.1	-59.3	3.7	1.04e-04	0	63	104	35794190336	84	20055
2026-01-15 19:55:11.22	334.18	4.78	-58.1	-60.3	3.7	1.04e-04	0	63	104	35794190336	86	19947
2026-01-15 19:55:14.25	334.47	4.57	-58.5	-60.6	3.7	1.04e-04	0	62	104	35794190336	87	19648
2026-01-15 19:55:17.28	334.76	4.36	-58.7	-60.9	3.6	1.04e-04	0	62	104	35794190336	87	20221
2026-01-15 19:55:20.30	335.05	4.16	-58.8	-61.0	3.7	1.04e-04	0	62	104	35794190336	88	19263
2026-01-15 19:55:23.33	335.33	3.95	-58.8	-61.0	3.7	1.04e-04	0	62	104	35794190336	88	19289
2026-01-15 19:55:26.36	335.60	3.75	-58.8	-60.9	3.7	1.04e-04	0	62	104	35794190336	88	19190
2026-01-15 19:55:29.39	335.87	3.55	-58.7	-60.9	3.7	1.04e-04	0	62	104	35794190336	88	19077
2026-01-15 19:55:32.42	336.14	3.34	-58.7	-60.8	3.7	1.04e-04	0	62	104	35794190336	88	18971
2026-01-15 19:55:35.45	336.40	3.14	-58.6	-60.8	3.7	1.04e-04	0	62	104	35794190336	88	18908
2026-01-15 19:55:38.48	336.66	2.95	-58.6	-60.8	3.7	1.04e-04	0	62	104	35794190336	88	18916
2026-01-15 19:55:41.51	336.91	2.75	-58.6	-60.8	3.7	1.04e-04	0	62	104	35794190336	88	18839
2026-01-15 19:55:44.54	337.16	2.56	-58.6	-60.7	3.7	1.04e-04	0	62	104	35794190336	88	18788
2026-01-15 19:55:47.57	337.41	2.36	-58.6	-60.7	3.7	1.04e-04	0	62	104	35794190336	88	18774
2026-01-15 19:55:50.59	337.65	2.17	-58.6	-60.7	3.7	1.04e-04	0	62	104	35794190336	88	18771
2026-01-15 19:55:53.62	337.89	1.98	-58.6	-60.7	3.7	1.04e-04	0	62	104	35794190336	88	18706

#Closed at: 2026-01-15 19:55:56
#Recorded file [35794 MB]: D:/lorett/data/31041_260115_224602.dat