passes_logs/2026/01/15/R3.2S_Murmansk/R3.2S_Murmansk__20260115_013210_NOAA_20_JPSS-1_rec.log

#Pass ID: 20260115_013210_NOAA 20 (JPSS-1)
#Satellite: NOAA 20 (JPSS-1)
#Configuration: NOAA 20
#almurnet v.1.7.20251203
#Start time: 2026-01-15 01:32:11

#Version: 2.2.20231116
#Station: R3.2S_Murmansk
#Location: 33.079688 lon 68.888172 lat
#TLE: 1 43013U 17073A   26014.55467351  .00000038  00000+0  38801-4 0  9992
#TLE: 2 43013  98.7635 315.4987 0001517  39.9279 320.2008 14.19535859422677

#Time	Az	El	Level	Level2	SNR	BER	BlckErr	Temp	State	Recorded	gain1	gain2
2026-01-15 01:32:11.79	28.19	2.11	-57.9	-73.9	3.8	1.49e+00	0	26	0	0	82	22153
2026-01-15 01:32:15.77	28.12	2.37	-57.8	-73.8	3.8	1.49e+00	0	26	104	0	80	24644
2026-01-15 01:32:19.77	28.05	2.63	-57.9	-73.8	3.8	1.49e+00	0	26	104	0	80	24648
2026-01-15 01:32:23.75	27.98	2.88	-57.9	-73.6	3.8	1.49e+00	0	27	104	0	80	24099
2026-01-15 01:32:27.75	27.90	3.15	-57.8	-72.9	3.8	1.49e+00	0	27	104	0	80	22258
2026-01-15 01:32:31.75	27.82	3.41	-57.8	-72.3	3.8	1.49e+00	0	27	104	0	80	20675
2026-01-15 01:32:35.74	27.74	3.68	-57.8	-73.3	3.8	1.49e+00	0	27	104	0	80	23274
2026-01-15 01:32:39.72	27.66	3.95	-57.6	-69.4	4.5	1.37e+00	10	27	0	0	80	14801
2026-01-15 01:32:43.72	27.58	4.22	-57.2	-65.5	6.6	2.13e-01	0	27	0	7340032	80	9472
2026-01-15 01:32:47.70	27.49	4.49	-56.8	-63.4	8.5	3.45e-02	0	27	0	14680064	80	7423
2026-01-15 01:32:51.69	27.40	4.77	-56.8	-63.6	8.3	2.46e-02	0	27	0	22020096	80	7556
2026-01-15 01:32:55.68	27.31	5.05	-56.6	-61.9	10.0	3.43e-02	0	27	0	30408704	79	6623
2026-01-15 01:32:59.67	27.22	5.33	-57.4	-65.0	7.5	5.31e-04	0	27	0	37748736	79	9426
2026-01-15 01:33:03.63	27.13	5.61	-54.0	-56.6	13.5	0.00e+00	0	27	0	45088768	74	4786
2026-01-15 01:33:07.61	27.03	5.90	-53.8	-56.3	13.7	0.00e+00	0	27	0	52428800	74	4642
2026-01-15 01:33:11.61	26.94	6.20	-53.8	-56.3	13.7	0.00e+00	0	27	0	59768832	74	4608
2026-01-15 01:33:15.59	26.84	6.49	-53.7	-56.1	13.7	0.00e+00	0	27	0	67108864	73	4774
2026-01-15 01:33:19.58	26.73	6.79	-53.6	-55.9	13.8	0.00e+00	0	27	0	74448896	73	4702
2026-01-15 01:33:23.56	26.63	7.09	-53.5	-55.8	13.9	0.00e+00	0	27	0	81788928	73	4610
2026-01-15 01:33:27.57	26.52	7.40	-53.4	-55.6	14.0	0.00e+00	0	27	0	89128960	73	4518
2026-01-15 01:33:31.57	26.41	7.71	-53.4	-55.6	14.0	0.00e+00	0	28	0	97517568	73	4532
2026-01-15 01:33:35.56	26.30	8.02	-53.3	-55.5	14.1	0.00e+00	0	27	0	104857600	73	4442
2026-01-15 01:33:39.55	26.18	8.33	-53.1	-55.2	14.1	0.00e+00	0	28	0	112197632	72	4579
2026-01-15 01:33:43.55	26.06	8.65	-53.2	-55.3	14.1	0.00e+00	0	28	0	119537664	72	4619
2026-01-15 01:33:47.54	25.94	8.98	-52.9	-54.9	14.2	0.00e+00	0	28	0	126877696	72	4439
2026-01-15 01:33:51.53	25.82	9.31	-52.8	-54.8	14.3	0.00e+00	0	28	0	134217728	72	4364
2026-01-15 01:33:55.54	25.69	9.64	-52.7	-54.6	14.3	0.00e+00	0	28	0	141557760	71	4516
2026-01-15 01:33:59.52	25.56	9.98	-52.6	-54.5	14.4	0.00e+00	0	27	0	149946368	71	4453
2026-01-15 01:34:03.53	25.42	10.32	-52.4	-54.2	14.5	0.00e+00	0	28	0	157286400	71	4340
2026-01-15 01:34:07.54	25.28	10.67	-52.4	-54.2	14.5	0.00e+00	0	28	0	164626432	71	4333
2026-01-15 01:34:11.52	25.14	11.02	-52.4	-54.2	14.5	0.00e+00	0	28	0	171966464	71	4309
2026-01-15 01:34:15.52	24.99	11.37	-52.4	-54.2	14.5	0.00e+00	0	28	0	179306496	71	4320
2026-01-15 01:34:19.53	24.84	11.74	-52.3	-54.1	14.6	0.00e+00	0	28	0	186646528	71	4244
2026-01-15 01:34:23.53	24.69	12.10	-52.2	-54.0	14.6	0.00e+00	0	28	0	195035136	71	4224
2026-01-15 01:34:27.52	24.53	12.47	-52.2	-53.9	14.5	0.00e+00	0	28	0	202375168	70	4423
2026-01-15 01:34:31.54	24.36	12.85	-52.1	-53.9	14.6	0.00e+00	0	28	0	209715200	70	4414
2026-01-15 01:34:35.54	24.19	13.24	-52.0	-53.8	14.6	0.00e+00	0	28	0	217055232	70	4348
2026-01-15 01:34:39.54	24.02	13.63	-52.1	-53.8	14.6	0.00e+00	0	28	0	224395264	70	4380
2026-01-15 01:34:43.54	23.84	14.02	-52.1	-53.9	14.6	0.00e+00	0	28	0	231735296	70	4398
2026-01-15 01:34:47.55	23.66	14.42	-52.0	-53.7	14.6	0.00e+00	0	28	0	240123904	70	4325
2026-01-15 01:34:51.55	23.47	14.83	-51.9	-53.6	14.7	0.00e+00	0	28	0	247463936	70	4270
2026-01-15 01:34:55.53	23.28	15.24	-52.0	-53.7	14.6	0.00e+00	0	28	0	254803968	70	4332
2026-01-15 01:34:59.53	23.07	15.66	-52.1	-53.9	14.6	0.00e+00	0	28	0	262144000	70	4392
2026-01-15 01:35:03.53	22.87	16.09	-52.1	-53.8	14.6	0.00e+00	0	28	0	269484032	70	4356
2026-01-15 01:35:07.51	22.65	16.52	-52.2	-53.9	14.6	0.00e+00	0	28	0	276824064	70	4437
2026-01-15 01:35:11.53	22.43	16.97	-52.1	-53.8	14.6	0.00e+00	0	28	0	284164096	70	4371
2026-01-15 01:35:15.54	22.21	17.42	-52.1	-53.8	14.7	0.00e+00	0	28	0	292552704	70	4347
2026-01-15 01:35:19.55	21.97	17.88	-52.0	-53.7	14.7	0.00e+00	0	28	0	299892736	70	4305
2026-01-15 01:35:23.54	21.73	18.35	-52.0	-53.7	14.7	0.00e+00	0	28	0	307232768	70	4296
2026-01-15 01:35:27.55	21.48	18.82	-52.0	-53.7	14.7	0.00e+00	0	28	0	314572800	70	4323
2026-01-15 01:35:31.54	21.22	19.30	-51.9	-53.6	14.7	0.00e+00	0	28	0	321912832	70	4271
2026-01-15 01:35:35.53	20.95	19.79	-51.9	-53.5	14.8	0.00e+00	0	28	0	329252864	70	4228
2026-01-15 01:35:39.53	20.67	20.30	-51.9	-53.5	14.8	0.00e+00	0	28	0	336592896	70	4209
2026-01-15 01:35:43.53	20.39	20.81	-51.8	-53.5	14.8	0.00e+00	0	28	0	344981504	70	4203
2026-01-15 01:35:47.51	20.09	21.32	-51.8	-53.4	14.8	0.00e+00	0	28	0	352321536	70	4191
2026-01-15 01:35:51.51	19.78	21.86	-51.8	-53.4	14.8	0.00e+00	0	28	0	359661568	70	4183
2026-01-15 01:35:55.50	19.46	22.39	-51.8	-53.4	14.8	0.00e+00	0	28	0	367001600	70	4184
2026-01-15 01:35:59.49	19.13	22.95	-52.0	-53.7	14.7	0.00e+00	0	28	0	374341632	70	4301
2026-01-15 01:36:03.49	18.79	23.51	-52.2	-53.9	14.6	0.00e+00	0	28	0	381681664	70	4407
2026-01-15 01:36:07.47	18.43	24.08	-52.3	-54.0	14.5	0.00e+00	0	28	0	389021696	70	4453
2026-01-15 01:36:11.46	18.06	24.66	-52.6	-54.3	14.4	0.00e+00	0	28	0	397410304	70	4651
2026-01-15 01:36:15.45	17.68	25.26	-52.9	-54.7	14.3	0.00e+00	0	28	0	404750336	70	4852
2026-01-15 01:36:19.45	17.28	25.87	-53.2	-55.1	14.3	0.00e+00	0	28	0	412090368	71	4768
2026-01-15 01:36:23.45	16.86	26.49	-53.7	-55.8	14.1	0.00e+00	0	28	0	419430400	72	4880
2026-01-15 01:36:27.44	16.42	27.12	-54.1	-56.2	13.9	0.00e+00	0	28	0	426770432	73	4864
2026-01-15 01:36:31.44	15.97	27.77	-54.3	-56.6	13.8	0.00e+00	0	28	0	434110464	73	5065
2026-01-15 01:36:35.43	15.50	28.43	-54.5	-56.9	13.7	0.00e+00	0	28	0	441450496	74	4953
2026-01-15 01:36:39.42	15.00	29.10	-54.7	-57.2	13.6	0.00e+00	0	28	0	449839104	74	5120
2026-01-15 01:36:43.40	14.49	29.79	-54.8	-57.3	13.5	0.00e+00	0	28	0	457179136	74	5180
2026-01-15 01:36:47.39	13.95	30.49	-55.0	-57.6	13.5	0.00e+00	0	28	0	464519168	75	5044
2026-01-15 01:36:51.37	13.39	31.20	-55.0	-57.6	13.4	0.00e+00	0	28	0	471859200	75	5074
2026-01-15 01:36:55.35	12.80	31.93	-54.8	-57.3	13.6	0.00e+00	0	28	0	479199232	75	4891
2026-01-15 01:36:59.34	12.19	32.67	-54.8	-57.2	13.7	0.00e+00	0	28	0	486539264	75	4844
2026-01-15 01:37:03.32	11.54	33.43	-54.8	-57.3	13.7	0.00e+00	0	28	0	493879296	75	4888
2026-01-15 01:37:07.32	10.86	34.21	-54.8	-57.2	13.7	0.00e+00	0	28	0	501219328	75	4836
2026-01-15 01:37:11.30	10.15	34.99	-55.1	-57.6	13.5	0.00e+00	0	28	0	509607936	75	5092
2026-01-15 01:37:15.28	9.40	35.79	-55.2	-57.8	13.4	0.00e+00	0	28	0	516947968	75	5190
2026-01-15 01:37:19.27	8.62	36.61	-54.9	-57.4	13.6	0.00e+00	0	28	0	524288000	75	4943
2026-01-15 01:37:23.24	7.79	37.44	-55.6	-58.4	13.2	0.00e+00	0	28	0	531628032	76	5233
2026-01-15 01:37:27.22	6.92	38.28	-55.7	-58.5	13.2	0.00e+00	0	28	0	538968064	76	5282
2026-01-15 01:37:31.20	6.00	39.14	-55.9	-58.9	13.0	0.00e+00	0	28	0	546308096	77	5250
2026-01-15 01:37:35.18	5.03	40.01	-55.7	-58.5	13.2	0.00e+00	0	28	0	553648128	77	5026
2026-01-15 01:37:39.16	4.01	40.89	-55.9	-58.7	13.1	0.00e+00	0	28	0	560988160	77	5116
2026-01-15 01:37:43.13	2.93	41.78	-55.9	-58.8	13.1	0.00e+00	0	28	0	568328192	77	5178
2026-01-15 01:37:47.12	1.78	42.69	-55.1	-57.6	13.7	0.00e+00	0	28	0	576716800	76	4772
2026-01-15 01:37:51.10	0.56	43.60	-54.5	-56.7	14.0	0.00e+00	0	28	0	584056832	75	4596
2026-01-15 01:37:55.09	359.28	44.52	-54.6	-56.8	14.0	0.00e+00	0	28	0	591396864	75	4606
2026-01-15 01:37:59.08	357.91	45.44	-55.0	-57.4	13.7	0.00e+00	0	28	0	598736896	75	4949
2026-01-15 01:38:03.06	356.46	46.36	-54.9	-57.2	13.8	0.00e+00	0	28	0	606076928	75	4860
2026-01-15 01:38:07.05	354.93	47.29	-54.4	-56.6	14.1	0.00e+00	0	28	0	613416960	75	4520
2026-01-15 01:38:11.03	353.30	48.21	-54.2	-56.2	14.2	0.00e+00	0	28	0	620756992	74	4597
2026-01-15 01:38:15.00	351.58	49.11	-54.6	-56.8	13.9	0.00e+00	0	28	0	628097024	74	4913
2026-01-15 01:38:18.97	349.75	50.01	-54.8	-57.1	13.7	0.00e+00	0	28	0	636485632	74	5096
2026-01-15 01:38:22.95	347.80	50.90	-53.5	-55.4	14.4	0.00e+00	0	28	0	643825664	73	4423
2026-01-15 01:38:26.93	345.74	51.76	-53.1	-54.8	14.6	0.00e+00	0	28	0	651165696	72	4373
2026-01-15 01:38:30.91	343.56	52.60	-52.3	-53.9	14.8	0.00e+00	0	28	0	658505728	71	4183
2026-01-15 01:38:34.89	341.25	53.40	-51.3	-52.7	15.0	0.00e+00	0	28	0	665845760	69	4066
2026-01-15 01:38:38.87	338.81	54.17	-51.7	-53.2	14.7	0.00e+00	0	28	0	673185792	68	4588
2026-01-15 01:38:42.84	336.24	54.89	-52.3	-53.9	14.6	0.00e+00	0	28	0	680525824	69	4681
2026-01-15 01:38:46.83	333.54	55.56	-53.3	-55.1	14.4	0.00e+00	0	28	0	687865856	71	4799
2026-01-15 01:38:50.82	330.70	56.17	-53.3	-55.1	14.4	0.00e+00	0	28	0	695205888	71	4777
2026-01-15 01:38:54.81	327.75	56.72	-54.1	-56.2	14.1	0.00e+00	0	28	0	703594496	73	4819
2026-01-15 01:38:58.79	324.69	57.20	-54.8	-57.0	13.8	0.00e+00	0	28	0	710934528	74	5027
2026-01-15 01:39:02.79	321.51	57.60	-54.0	-56.0	14.3	0.00e+00	0	28	0	718274560	74	4465
2026-01-15 01:39:06.76	318.27	57.91	-53.7	-55.5	14.4	0.00e+00	0	28	0	725614592	73	4482
2026-01-15 01:39:10.76	314.94	58.14	-52.8	-54.5	14.7	0.00e+00	0	28	0	732954624	72	4194
2026-01-15 01:39:14.75	311.57	58.28	-52.8	-54.4	14.7	0.00e+00	0	28	0	740294656	72	4189
2026-01-15 01:39:18.72	308.20	58.32	-52.2	-53.7	14.9	0.00e+00	0	28	0	747634688	71	4091
2026-01-15 01:39:22.70	304.82	58.27	-52.7	-54.4	14.6	0.00e+00	0	28	0	756023296	70	4664
2026-01-15 01:39:26.70	301.45	58.13	-52.2	-53.7	14.8	0.00e+00	0	28	0	763363328	70	4311
2026-01-15 01:39:30.68	298.14	57.89	-51.4	-52.8	15.0	0.00e+00	0	28	0	770703360	69	4114
2026-01-15 01:39:34.67	294.89	57.57	-51.8	-53.3	14.8	0.00e+00	0	28	0	778043392	69	4362
2026-01-15 01:39:38.67	291.71	57.17	-51.1	-52.4	15.0	0.00e+00	0	28	0	785383424	68	4193
2026-01-15 01:39:42.67	288.64	56.68	-52.2	-53.8	14.7	0.00e+00	0	28	0	792723456	69	4638
2026-01-15 01:39:46.65	285.70	56.13	-52.0	-53.5	14.8	0.00e+00	0	28	0	800063488	69	4465
2026-01-15 01:39:50.63	282.88	55.51	-53.0	-54.7	14.5	0.00e+00	0	28	0	807403520	71	4588
2026-01-15 01:39:54.63	280.18	54.83	-51.4	-52.8	15.0	0.00e+00	0	28	0	815792128	69	4119
2026-01-15 01:39:58.61	277.61	54.10	-51.8	-53.3	14.8	0.00e+00	0	28	0	823132160	69	4357
2026-01-15 01:40:02.59	275.18	53.33	-51.3	-52.7	14.9	0.00e+00	0	28	0	830472192	68	4340
2026-01-15 01:40:06.58	272.88	52.52	-52.5	-54.1	14.6	0.00e+00	0	28	0	837812224	70	4542
2026-01-15 01:40:10.56	270.70	51.68	-52.9	-54.6	14.5	0.00e+00	0	28	0	845152256	70	4774
2026-01-15 01:40:14.55	268.64	50.81	-54.4	-56.6	14.0	0.00e+00	0	28	0	852492288	74	4762
2026-01-15 01:40:18.54	266.70	49.92	-54.8	-57.1	13.8	0.00e+00	0	28	0	859832320	74	5051
2026-01-15 01:40:22.54	264.86	49.01	-55.8	-58.5	13.3	0.00e+00	0	28	0	867172352	77	5027
2026-01-15 01:40:26.52	263.14	48.10	-55.9	-58.6	13.2	0.00e+00	0	28	0	875560960	77	5087
2026-01-15 01:40:30.51	261.52	47.18	-55.9	-58.7	13.1	0.00e+00	0	28	0	882900992	77	5143
2026-01-15 01:40:34.49	259.99	46.25	-55.9	-58.7	13.2	0.00e+00	0	28	0	890241024	77	5132
2026-01-15 01:40:38.49	258.55	45.32	-55.2	-57.6	13.8	0.00e+00	0	28	0	897581056	77	4542
2026-01-15 01:40:42.49	257.18	44.40	-54.7	-57.0	13.9	0.00e+00	0	28	0	904921088	75	4738
2026-01-15 01:40:46.47	255.90	43.48	-54.8	-57.1	13.8	0.00e+00	0	28	0	912261120	75	4765
2026-01-15 01:40:50.46	254.69	42.56	-54.7	-57.0	13.9	0.00e+00	0	28	0	919601152	75	4717
2026-01-15 01:40:54.47	253.55	41.65	-54.9	-57.2	13.8	0.00e+00	0	28	0	927989760	75	4848
2026-01-15 01:40:58.47	252.46	40.76	-55.0	-57.4	13.7	0.00e+00	0	28	0	935329792	75	4949
2026-01-15 01:41:02.47	251.44	39.87	-55.0	-57.4	13.7	0.00e+00	0	28	0	942669824	75	4936
2026-01-15 01:41:06.46	250.47	39.00	-55.1	-57.6	13.6	0.00e+00	0	28	0	950009856	75	5054
2026-01-15 01:41:10.44	249.56	38.14	-55.5	-58.1	13.4	0.00e+00	0	28	0	957349888	76	5089
2026-01-15 01:41:14.42	248.69	37.30	-55.0	-57.4	13.7	0.00e+00	0	28	0	964689920	76	4698
2026-01-15 01:41:18.43	247.86	36.46	-55.0	-57.3	13.8	0.00e+00	0	28	0	972029952	76	4639
2026-01-15 01:41:22.41	247.08	35.64	-55.5	-58.1	13.4	0.00e+00	0	28	0	980418560	76	5077
2026-01-15 01:41:26.39	246.33	34.84	-55.4	-57.9	13.5	0.00e+00	0	28	0	987758592	76	4976
2026-01-15 01:41:30.40	245.62	34.05	-55.4	-57.9	13.5	0.00e+00	0	28	0	995098624	76	4970
2026-01-15 01:41:34.39	244.95	33.28	-55.3	-57.8	13.5	0.00e+00	0	28	0	1002438656	76	4886
2026-01-15 01:41:38.39	244.30	32.51	-55.4	-58.0	13.4	0.00e+00	0	28	0	1009778688	76	5041
2026-01-15 01:41:42.38	243.69	31.77	-55.4	-58.0	13.4	0.00e+00	0	28	0	1017118720	76	4997
2026-01-15 01:41:46.39	243.10	31.04	-55.2	-57.6	13.6	0.00e+00	0	28	0	1024458752	76	4801
2026-01-15 01:41:50.38	242.54	30.32	-55.0	-57.4	13.7	0.00e+00	0	28	0	1032847360	76	4671
2026-01-15 01:41:54.40	242.00	29.62	-55.3	-57.8	13.5	0.00e+00	0	28	0	1040187392	76	4918
2026-01-15 01:41:58.41	241.48	28.93	-55.0	-57.4	13.8	0.00e+00	0	28	0	1047527424	76	4658
2026-01-15 01:42:02.42	240.99	28.25	-54.9	-57.3	13.8	0.00e+00	0	28	0	1054867456	76	4608
2026-01-15 01:42:06.42	240.52	27.59	-54.9	-57.4	13.7	0.00e+00	0	28	0	1062207488	76	4680
2026-01-15 01:42:10.43	240.06	26.94	-54.4	-56.7	14.0	0.00e+00	0	28	0	1069547520	75	4560
2026-01-15 01:42:14.43	239.63	26.31	-53.9	-55.9	14.2	0.00e+00	0	28	0	1077936128	74	4422
2026-01-15 01:42:18.43	239.21	25.69	-54.0	-56.1	14.1	0.00e+00	0	28	0	1085276160	74	4539
2026-01-15 01:42:22.42	238.81	25.08	-53.9	-56.0	14.2	0.00e+00	0	28	0	1092616192	74	4443
2026-01-15 01:42:26.42	238.43	24.49	-53.4	-55.3	14.4	0.00e+00	0	28	0	1099956224	73	4358
2026-01-15 01:42:30.40	238.06	23.91	-53.6	-55.6	14.3	0.00e+00	0	28	0	1107296256	73	4502
2026-01-15 01:42:34.41	237.70	23.33	-54.1	-56.3	13.9	0.00e+00	0	28	0	1114636288	73	4893
2026-01-15 01:42:38.40	237.36	22.77	-54.1	-56.3	13.9	0.00e+00	0	28	0	1121976320	73	4919
2026-01-15 01:42:42.41	237.03	22.22	-53.6	-55.7	14.2	0.00e+00	0	28	0	1130364928	73	4548
2026-01-15 01:42:46.39	236.71	21.68	-53.7	-55.7	14.2	0.00e+00	0	28	0	1137704960	73	4581
2026-01-15 01:42:50.38	236.40	21.15	-53.7	-55.8	14.2	0.00e+00	0	28	0	1145044992	73	4605
2026-01-15 01:42:54.39	236.11	20.63	-53.6	-55.6	14.2	0.00e+00	0	28	0	1152385024	73	4533
2026-01-15 01:42:58.40	235.82	20.12	-53.4	-55.4	14.3	0.00e+00	0	28	0	1159725056	73	4396
2026-01-15 01:43:02.40	235.54	19.62	-53.2	-55.1	14.4	0.00e+00	0	28	0	1167065088	72	4506
2026-01-15 01:43:06.39	235.27	19.13	-53.2	-55.1	14.4	0.00e+00	0	28	0	1175453696	72	4518
2026-01-15 01:43:10.38	235.02	18.65	-53.4	-55.4	14.2	0.00e+00	0	28	0	1182793728	72	4697
2026-01-15 01:43:14.38	234.77	18.17	-53.7	-55.8	14.0	0.00e+00	0	28	0	1190133760	72	4889
2026-01-15 01:43:18.36	234.52	17.71	-53.5	-55.6	14.1	0.00e+00	0	28	0	1197473792	72	4785
2026-01-15 01:43:22.36	234.29	17.25	-53.5	-55.5	14.2	0.00e+00	0	28	0	1204813824	72	4718
2026-01-15 01:43:26.34	234.06	16.81	-53.6	-55.6	14.1	0.00e+00	0	28	0	1212153856	72	4809
2026-01-15 01:43:30.33	233.84	16.37	-53.5	-55.6	14.1	0.00e+00	0	28	0	1219493888	72	4787
2026-01-15 01:43:34.32	233.63	15.93	-53.9	-56.0	13.9	0.00e+00	0	28	0	1226833920	72	5040
2026-01-15 01:43:38.33	233.42	15.50	-53.9	-56.0	14.0	0.00e+00	0	28	0	1235222528	73	4759
2026-01-15 01:43:42.32	233.22	15.08	-54.0	-56.2	13.9	0.00e+00	0	28	0	1242562560	73	4860
2026-01-15 01:43:46.32	233.02	14.67	-54.0	-56.2	13.9	0.00e+00	0	28	0	1249902592	73	4838
2026-01-15 01:43:50.33	232.83	14.26	-54.0	-56.2	13.9	0.00e+00	0	28	0	1257242624	73	4835
2026-01-15 01:43:54.31	232.65	13.86	-54.1	-56.5	13.8	0.00e+00	0	28	0	1264582656	73	4986
2026-01-15 01:43:58.30	232.47	13.47	-54.4	-56.8	13.6	0.00e+00	0	28	0	1271922688	73	5185
2026-01-15 01:44:02.29	232.30	13.08	-54.3	-56.6	13.7	0.00e+00	0	28	0	1279262720	73	5096
2026-01-15 01:44:06.29	232.13	12.70	-54.1	-56.5	13.7	0.00e+00	0	28	0	1287651328	73	4998
2026-01-15 01:44:10.28	231.96	12.32	-54.0	-56.2	13.8	0.00e+00	0	28	0	1294991360	73	4865
2026-01-15 01:44:14.25	231.80	11.95	-54.1	-56.4	13.7	0.00e+00	0	28	0	1302331392	73	4951
2026-01-15 01:44:18.26	231.65	11.59	-54.2	-56.6	13.7	0.00e+00	0	28	0	1309671424	73	5078
2026-01-15 01:44:22.25	231.49	11.23	-54.4	-56.9	13.6	0.00e+00	0	28	0	1317011456	74	4946
2026-01-15 01:44:26.24	231.35	10.87	-54.8	-57.5	13.2	0.00e+00	0	28	0	1324351488	74	5334
2026-01-15 01:44:30.23	231.20	10.52	-54.8	-57.6	13.2	0.00e+00	0	28	0	1331691520	74	5345
2026-01-15 01:44:34.22	231.06	10.18	-55.2	-58.1	12.9	0.00e+00	0	28	0	1340080128	75	5364
2026-01-15 01:44:38.21	230.93	9.83	-55.0	-57.9	13.1	0.00e+00	0	28	0	1347420160	75	5252
2026-01-15 01:44:42.20	230.79	9.50	-55.0	-57.9	13.1	0.00e+00	0	28	0	1354760192	75	5221
2026-01-15 01:44:46.19	230.66	9.17	-54.9	-57.8	13.1	0.00e+00	0	28	0	1362100224	75	5184
2026-01-15 01:44:50.16	230.54	8.84	-55.0	-57.9	13.0	0.00e+00	0	28	0	1369440256	75	5268
2026-01-15 01:44:54.15	230.41	8.52	-55.0	-58.0	13.0	0.00e+00	0	28	0	1376780288	75	5299
2026-01-15 01:44:58.12	230.29	8.20	-55.2	-58.3	12.8	0.00e+00	0	28	0	1384120320	75	5487
2026-01-15 01:45:02.11	230.17	7.88	-55.4	-58.6	12.5	0.00e+00	0	28	0	1391460352	75	5719
2026-01-15 01:45:06.08	230.06	7.57	-55.6	-59.0	12.4	0.00e+00	0	28	0	1398800384	76	5624
2026-01-15 01:45:10.06	229.95	7.26	-55.6	-58.9	12.4	0.00e+00	0	28	0	1407188992	76	5558
2026-01-15 01:45:14.04	229.84	6.96	-55.7	-59.1	12.4	1.50e-06	0	28	0	1414529024	77	5360
2026-01-15 01:45:18.02	229.73	6.66	-55.7	-59.2	12.3	7.00e-07	0	28	0	1421869056	77	5464
2026-01-15 01:45:22.00	229.63	6.36	-56.1	-60.0	11.8	2.20e-06	0	28	0	1429209088	77	5925
2026-01-15 01:45:25.98	229.52	6.06	-55.7	-59.3	12.2	0.00e+00	0	28	0	1436549120	77	5519
2026-01-15 01:45:29.97	229.42	5.77	-55.9	-59.7	11.9	2.20e-06	0	28	0	1443889152	77	5767
2026-01-15 01:45:33.97	229.33	5.48	-55.6	-59.1	12.3	7.00e-07	0	28	0	1451229184	77	5402
2026-01-15 01:45:37.98	229.23	5.20	-55.6	-59.1	12.2	7.00e-07	0	28	0	1459617792	77	5390
2026-01-15 01:45:41.99	229.14	4.91	-59.4	-75.4	3.8	1.49e+00	0	28	104	1463812096	83	24970
2026-01-15 01:45:45.99	229.04	4.63	-60.1	-76.3	3.8	1.49e+00	0	28	104	1463812096	85	24423
2026-01-15 01:45:49.98	228.95	4.35	-60.4	-76.5	3.8	1.49e+00	0	28	104	1463812096	85	25133
2026-01-15 01:45:53.96	228.87	4.08	-60.5	-76.6	3.8	1.49e+00	0	28	104	1463812096	86	23970
2026-01-15 01:45:57.97	228.78	3.81	-60.6	-76.7	3.8	1.49e+00	0	28	104	1463812096	86	24165
2026-01-15 01:46:01.96	228.70	3.54	-60.7	-76.7	3.8	1.49e+00	0	28	104	1463812096	86	24355
2026-01-15 01:46:05.95	228.61	3.27	-60.6	-76.7	3.8	1.49e+00	0	28	104	1463812096	86	24296
2026-01-15 01:46:09.94	228.53	3.01	-60.6	-76.6	3.8	1.49e+00	0	28	104	1463812096	86	24105
2026-01-15 01:46:13.94	228.45	2.75	-60.5	-76.6	3.8	1.49e+00	0	28	104	1463812096	86	24099
2026-01-15 01:46:17.94	228.38	2.49	-60.5	-76.6	3.8	1.49e+00	0	28	104	1463812096	86	24023
2026-01-15 01:46:21.93	228.30	2.23	-60.5	-76.6	3.8	1.49e+00	0	28	104	1463812096	86	23940
2026-01-15 01:46:25.91	228.23	1.98	-60.5	-76.6	3.8	1.49e+00	0	28	104	1463812096	86	23987

#Closed at: 2026-01-15 01:46:26
#Recorded file [1463 MB]: D:/lorett/data/31004_260115_043211.dat