passes_logs/2026/01/15/R3.2S_Murmansk/R3.2S_Murmansk__20260115_061011_SUOMI_NPP_rec.log

#Pass ID: 20260115_061011_SUOMI NPP
#Satellite: SUOMI NPP
#Configuration: NPP
#almurnet v.1.7.20251203
#Start time: 2026-01-15 06:10:10

#Version: 2.2.20231116
#Station: R3.2S_Murmansk
#Location: 33.079688 lon 68.888172 lat
#TLE: 1 37849U 11061A   26014.61059675  .00000037  00000+0  38639-4 0  9994
#TLE: 2 37849  98.7810 316.6625 0002460  64.3781 295.7649 14.19525105736658

#Time	Az	El	Level	Level2	SNR	BER	BlckErr	Temp	State	Recorded	gain1	gain2
2026-01-15 06:10:10.66	77.58	1.98	-58.1	-74.1	3.8	1.49e+00	0	26	0	0	82	22647
2026-01-15 06:10:14.67	77.34	2.21	-58.1	-74.1	3.8	1.49e+00	0	26	104	0	81	23897
2026-01-15 06:10:18.67	77.09	2.44	-58.0	-74.0	3.8	1.49e+00	0	26	104	0	81	23786
2026-01-15 06:10:22.67	76.84	2.67	-58.1	-74.1	3.8	1.49e+00	0	26	104	0	81	23875
2026-01-15 06:10:26.68	76.58	2.91	-58.1	-74.1	3.8	1.49e+00	0	26	104	0	81	23992
2026-01-15 06:10:30.68	76.33	3.15	-58.1	-74.1	3.8	1.49e+00	0	26	104	0	81	23931
2026-01-15 06:10:34.67	76.06	3.38	-58.1	-74.1	3.8	1.49e+00	0	27	104	0	81	23934
2026-01-15 06:10:38.65	75.80	3.62	-58.1	-74.1	3.8	1.49e+00	0	27	104	0	81	23963
2026-01-15 06:10:42.63	75.52	3.86	-58.1	-74.0	3.8	1.49e+00	0	27	104	0	81	23805
2026-01-15 06:10:46.61	75.25	4.10	-58.1	-74.0	3.8	1.49e+00	0	27	104	0	81	23640
2026-01-15 06:10:50.59	74.97	4.34	-58.0	-72.3	3.8	1.49e+00	0	27	104	0	81	19413
2026-01-15 06:10:54.57	74.68	4.59	-57.8	-69.3	4.6	1.02e+00	0	27	0	2097152	81	13784
2026-01-15 06:10:58.56	74.39	4.83	-57.6	-67.0	5.8	3.48e-01	0	27	0	9437184	81	10545
2026-01-15 06:11:02.55	74.09	5.08	-57.0	-63.9	8.0	2.81e-01	0	27	0	16777216	80	7898
2026-01-15 06:11:06.55	73.79	5.33	-55.9	-60.6	11.0	2.89e-02	0	27	0	22020096	78	6026
2026-01-15 06:11:10.55	73.48	5.58	-55.4	-59.5	11.8	2.21e-05	0	27	0	30408704	77	5642
2026-01-15 06:11:14.56	73.17	5.84	-55.2	-59.1	12.0	2.20e-06	0	27	0	37748736	76	5716
2026-01-15 06:11:18.56	72.85	6.09	-54.6	-58.0	12.7	0.00e+00	0	27	0	45088768	75	5297
2026-01-15 06:11:22.54	72.52	6.35	-54.4	-57.7	12.9	0.00e+00	0	27	0	52428800	75	5115
2026-01-15 06:11:26.56	72.19	6.60	-54.4	-57.7	12.9	0.00e+00	0	27	0	59768832	75	5101
2026-01-15 06:11:30.54	71.85	6.86	-54.3	-57.5	13.0	0.00e+00	0	27	0	67108864	74	5295
2026-01-15 06:11:34.54	71.51	7.12	-54.4	-57.5	13.0	0.00e+00	0	27	0	74448896	74	5302
2026-01-15 06:11:38.53	71.16	7.39	-54.7	-58.1	12.6	0.00e+00	0	27	0	82837504	74	5676
2026-01-15 06:11:42.52	70.80	7.65	-54.5	-57.8	12.8	0.00e+00	0	27	0	90177536	74	5493
2026-01-15 06:11:46.49	70.44	7.91	-54.8	-58.4	12.5	0.00e+00	0	27	0	97517568	74	5859
2026-01-15 06:11:50.47	70.07	8.18	-54.6	-58.1	12.7	0.00e+00	0	27	0	104857600	75	5360
2026-01-15 06:11:54.46	69.69	8.45	-54.4	-57.7	13.0	0.00e+00	0	27	0	112197632	75	5114
2026-01-15 06:11:58.46	69.31	8.72	-54.3	-57.5	13.1	0.00e+00	0	27	0	119537664	75	5016
2026-01-15 06:12:02.44	68.92	8.99	-54.1	-57.3	13.1	0.00e+00	0	27	0	126877696	74	5175
2026-01-15 06:12:06.43	68.52	9.27	-53.9	-56.9	13.4	0.00e+00	0	27	0	134217728	74	4946
2026-01-15 06:12:10.44	68.11	9.54	-54.0	-57.0	13.3	0.00e+00	0	27	0	142606336	74	4996
2026-01-15 06:12:14.44	67.69	9.82	-54.2	-57.1	13.3	0.00e+00	0	28	0	149946368	74	5087
2026-01-15 06:12:18.42	67.27	10.10	-54.0	-56.9	13.4	0.00e+00	0	27	0	157286400	74	4969
2026-01-15 06:12:22.43	66.83	10.38	-53.9	-56.8	13.5	0.00e+00	0	28	0	164626432	74	4873
2026-01-15 06:12:26.42	66.39	10.66	-54.0	-56.9	13.4	0.00e+00	0	27	0	171966464	74	4947
2026-01-15 06:12:30.41	65.94	10.94	-54.3	-57.2	13.2	0.00e+00	0	27	0	179306496	74	5147
2026-01-15 06:12:34.42	65.48	11.23	-54.3	-57.2	13.2	0.00e+00	0	27	0	187695104	74	5159
2026-01-15 06:12:38.43	65.01	11.52	-54.4	-57.4	13.1	0.00e+00	0	27	0	195035136	74	5258
2026-01-15 06:12:42.41	64.54	11.81	-54.6	-57.7	12.9	0.00e+00	0	27	0	202375168	74	5459
2026-01-15 06:12:46.40	64.05	12.09	-54.1	-57.0	13.4	0.00e+00	0	27	0	209715200	74	5013
2026-01-15 06:12:50.39	63.55	12.38	-53.6	-56.2	13.7	0.00e+00	0	27	0	217055232	73	4841
2026-01-15 06:12:54.38	63.05	12.68	-53.5	-56.0	13.8	0.00e+00	0	27	0	224395264	73	4747
2026-01-15 06:12:58.37	62.53	12.97	-53.3	-55.7	14.0	0.00e+00	0	28	0	231735296	73	4585
2026-01-15 06:13:02.35	62.00	13.26	-53.4	-55.9	13.8	0.00e+00	0	28	0	239075328	72	4952
2026-01-15 06:13:06.33	61.46	13.56	-53.5	-56.0	13.8	0.00e+00	0	28	0	247463936	72	5005
2026-01-15 06:13:10.32	60.91	13.85	-53.3	-55.8	13.8	0.00e+00	0	28	0	254803968	72	4899
2026-01-15 06:13:14.32	60.35	14.15	-53.2	-55.6	13.9	0.00e+00	0	28	0	262144000	72	4812
2026-01-15 06:13:18.32	59.78	14.45	-53.3	-55.9	13.8	0.00e+00	0	28	0	269484032	72	4939
2026-01-15 06:13:22.31	59.19	14.75	-53.1	-55.6	13.9	0.00e+00	0	28	0	276824064	72	4800
2026-01-15 06:13:26.30	58.60	15.05	-53.3	-56.0	13.8	0.00e+00	0	27	0	284164096	72	5003
2026-01-15 06:13:30.31	57.98	15.35	-53.4	-56.1	13.7	0.00e+00	0	28	0	291504128	72	5095
2026-01-15 06:13:34.31	57.36	15.65	-53.7	-56.5	13.5	0.00e+00	0	28	0	299892736	72	5312
2026-01-15 06:13:38.30	56.73	15.95	-53.5	-56.2	13.6	0.00e+00	0	28	0	307232768	72	5146
2026-01-15 06:13:42.31	56.07	16.25	-53.8	-56.7	13.5	0.00e+00	0	28	0	314572800	72	5406
2026-01-15 06:13:46.31	55.41	16.55	-54.1	-57.1	13.3	0.00e+00	0	28	0	321912832	73	5359
2026-01-15 06:13:50.29	54.74	16.85	-53.6	-56.4	13.7	0.00e+00	0	28	0	329252864	73	4961
2026-01-15 06:13:54.28	54.05	17.15	-53.3	-55.8	14.0	0.00e+00	0	28	0	336592896	73	4642
2026-01-15 06:13:58.28	53.35	17.45	-53.5	-56.2	13.8	0.00e+00	0	28	0	343932928	73	4858
2026-01-15 06:14:02.26	52.63	17.74	-53.4	-56.0	13.9	0.00e+00	0	28	0	352321536	73	4743
2026-01-15 06:14:06.25	51.90	18.04	-53.4	-56.0	13.9	0.00e+00	0	28	0	359661568	73	4751
2026-01-15 06:14:10.26	51.15	18.34	-53.6	-56.2	13.8	0.00e+00	0	28	0	367001600	73	4844
2026-01-15 06:14:14.26	50.39	18.63	-53.6	-56.3	13.7	0.00e+00	0	28	0	374341632	73	4922
2026-01-15 06:14:18.24	49.62	18.92	-53.2	-55.6	13.9	0.00e+00	0	28	0	381681664	72	4789
2026-01-15 06:14:22.25	48.82	19.21	-53.0	-55.4	14.0	0.00e+00	0	28	0	389021696	72	4657
2026-01-15 06:14:26.25	48.02	19.50	-52.9	-55.4	14.0	0.00e+00	0	28	0	396361728	71	4935
2026-01-15 06:14:30.24	47.19	19.78	-52.4	-54.7	14.3	0.00e+00	0	28	0	404750336	71	4559
2026-01-15 06:14:34.25	46.35	20.06	-52.2	-54.3	14.3	0.00e+00	0	28	0	412090368	70	4628
2026-01-15 06:14:38.25	45.50	20.34	-52.0	-54.1	14.3	0.00e+00	0	28	0	419430400	70	4545
2026-01-15 06:14:42.25	44.63	20.61	-52.1	-54.2	14.4	0.00e+00	0	28	0	426770432	70	4550
2026-01-15 06:14:46.24	43.75	20.88	-52.0	-54.1	14.4	0.00e+00	0	28	0	434110464	70	4514
2026-01-15 06:14:50.22	42.85	21.15	-51.8	-53.8	14.5	0.00e+00	0	28	0	441450496	70	4384
2026-01-15 06:14:54.20	41.94	21.41	-51.6	-53.5	14.5	0.00e+00	0	27	0	448790528	69	4477
2026-01-15 06:14:58.18	41.01	21.66	-51.7	-53.7	14.5	0.00e+00	0	28	0	457179136	69	4548
2026-01-15 06:15:02.16	40.07	21.91	-51.5	-53.3	14.6	0.00e+00	0	28	0	464519168	69	4372
2026-01-15 06:15:06.14	39.11	22.15	-51.5	-53.3	14.6	0.00e+00	0	28	0	471859200	69	4370
2026-01-15 06:15:10.13	38.14	22.38	-51.6	-53.5	14.6	0.00e+00	0	28	0	479199232	69	4461
2026-01-15 06:15:14.15	37.14	22.62	-51.4	-53.2	14.7	0.00e+00	0	28	0	486539264	69	4306
2026-01-15 06:15:18.12	36.14	22.84	-51.6	-53.5	14.6	0.00e+00	0	28	0	493879296	69	4462
2026-01-15 06:15:22.09	35.13	23.05	-52.1	-54.0	14.4	0.00e+00	0	28	0	501219328	69	4737
2026-01-15 06:15:26.08	34.09	23.25	-52.1	-54.0	14.4	0.00e+00	0	28	0	508559360	69	4707
2026-01-15 06:15:30.07	33.05	23.45	-51.7	-53.5	14.6	0.00e+00	0	28	0	516947968	69	4446
2026-01-15 06:15:34.07	31.99	23.64	-51.4	-53.1	14.7	0.00e+00	0	28	0	524288000	69	4265
2026-01-15 06:15:38.07	30.91	23.82	-51.3	-53.0	14.7	0.00e+00	0	28	0	531628032	69	4226
2026-01-15 06:15:42.07	29.83	23.99	-51.4	-53.1	14.6	0.00e+00	0	28	0	538968064	68	4504
2026-01-15 06:15:46.06	28.73	24.15	-52.4	-54.3	14.2	0.00e+00	0	28	0	546308096	69	4925
2026-01-15 06:15:50.06	27.62	24.29	-53.5	-55.9	13.9	0.00e+00	0	28	0	553648128	72	4963
2026-01-15 06:15:54.04	26.51	24.43	-52.8	-55.0	14.3	0.00e+00	0	28	0	560988160	72	4473
2026-01-15 06:15:58.03	25.38	24.56	-52.9	-55.1	14.1	0.00e+00	0	28	0	569376768	71	4807
2026-01-15 06:16:02.01	24.25	24.67	-52.8	-55.0	14.1	0.00e+00	0	28	0	576716800	71	4741
2026-01-15 06:16:06.02	23.11	24.77	-53.0	-55.3	14.0	0.00e+00	0	28	0	584056832	71	4917
2026-01-15 06:16:10.02	21.95	24.86	-53.6	-56.1	13.7	0.00e+00	0	28	0	591396864	72	5055
2026-01-15 06:16:14.00	20.80	24.94	-53.4	-55.9	13.8	0.00e+00	0	28	0	598736896	72	4940
2026-01-15 06:16:18.02	19.63	25.01	-53.0	-55.2	14.2	0.00e+00	0	28	0	606076928	72	4589
2026-01-15 06:16:22.03	18.46	25.06	-53.6	-56.2	13.7	0.00e+00	0	28	0	614465536	72	5120
2026-01-15 06:16:26.02	17.29	25.10	-53.3	-55.6	14.0	0.00e+00	0	28	0	621805568	72	4805
2026-01-15 06:16:30.02	16.12	25.12	-52.6	-54.8	14.3	0.00e+00	0	28	0	629145600	71	4602
2026-01-15 06:16:34.02	14.95	25.14	-52.9	-55.2	14.1	0.00e+00	0	28	0	636485632	71	4848
2026-01-15 06:16:38.01	13.77	25.14	-53.4	-55.9	13.8	0.00e+00	0	28	0	643825664	72	4974
2026-01-15 06:16:42.01	12.60	25.12	-53.0	-55.4	14.1	0.00e+00	0	28	0	651165696	72	4652
2026-01-15 06:16:45.99	11.43	25.10	-52.3	-54.4	14.4	0.00e+00	0	28	0	658505728	71	4397
2026-01-15 06:16:49.98	10.27	25.06	-52.0	-54.0	14.5	0.00e+00	0	28	0	665845760	70	4459
2026-01-15 06:16:53.96	9.10	25.01	-52.1	-54.1	14.5	0.00e+00	0	28	0	674234368	70	4514
2026-01-15 06:16:57.93	7.95	24.94	-51.0	-52.6	14.8	0.00e+00	0	28	0	681574400	68	4245
2026-01-15 06:17:01.91	6.80	24.86	-51.1	-52.8	14.7	0.00e+00	0	28	0	688914432	68	4354
2026-01-15 06:17:05.90	5.65	24.77	-51.1	-52.8	14.8	0.00e+00	0	28	0	696254464	68	4351
2026-01-15 06:17:09.89	4.51	24.67	-51.5	-53.2	14.5	0.00e+00	0	28	0	703594496	68	4572
2026-01-15 06:17:13.89	3.37	24.56	-51.8	-53.5	14.5	0.00e+00	0	28	0	710934528	68	4746
2026-01-15 06:17:17.89	2.24	24.43	-51.6	-53.3	14.6	0.00e+00	0	28	0	718274560	68	4601
2026-01-15 06:17:21.91	1.12	24.29	-52.7	-54.7	14.2	0.00e+00	0	28	0	726663168	70	4826
2026-01-15 06:17:25.91	0.01	24.15	-51.8	-53.5	14.7	0.00e+00	0	28	0	734003200	70	4236
2026-01-15 06:17:29.89	358.92	23.99	-52.7	-54.6	14.2	0.00e+00	0	28	0	741343232	70	4809
2026-01-15 06:17:33.87	357.84	23.82	-53.1	-55.3	14.0	0.00e+00	0	28	0	748683264	71	4893
2026-01-15 06:17:37.87	356.77	23.64	-53.3	-55.7	13.9	0.00e+00	0	28	0	756023296	71	5145
2026-01-15 06:17:41.87	355.71	23.45	-53.0	-55.3	14.1	0.00e+00	0	28	0	763363328	72	4625
2026-01-15 06:17:45.86	354.66	23.26	-53.5	-56.0	13.8	0.00e+00	0	28	0	770703360	72	5002
2026-01-15 06:17:49.86	353.63	23.05	-53.6	-56.2	13.8	0.00e+00	0	28	0	779091968	73	4845
2026-01-15 06:17:53.82	352.62	22.84	-53.1	-55.4	14.1	0.00e+00	0	28	0	786432000	72	4677
2026-01-15 06:17:57.80	351.62	22.62	-53.2	-55.7	14.0	0.00e+00	0	28	0	793772032	72	4819
2026-01-15 06:18:01.80	350.63	22.39	-53.9	-56.6	13.6	0.00e+00	0	28	0	801112064	73	5070
2026-01-15 06:18:05.79	349.65	22.15	-53.1	-55.5	14.0	0.00e+00	0	28	0	808452096	72	4733
2026-01-15 06:18:09.78	348.69	21.91	-54.1	-57.1	13.3	0.00e+00	0	28	0	815792128	73	5361
2026-01-15 06:18:13.79	347.74	21.66	-53.4	-56.0	13.9	0.00e+00	0	28	0	823132160	73	4742
2026-01-15 06:18:17.79	346.81	21.41	-52.7	-55.0	14.2	0.00e+00	0	28	0	830472192	71	4724
2026-01-15 06:18:21.78	345.90	21.15	-53.0	-55.4	13.9	0.00e+00	0	28	0	838860800	71	4974
2026-01-15 06:18:25.78	345.00	20.88	-52.4	-54.5	14.3	0.00e+00	0	28	0	846200832	71	4486
2026-01-15 06:18:29.77	344.12	20.61	-51.5	-53.3	14.6	0.00e+00	0	28	0	853540864	69	4378
2026-01-15 06:18:33.78	343.25	20.34	-52.1	-54.1	14.3	0.00e+00	0	28	0	860880896	69	4809
2026-01-15 06:18:37.77	342.40	20.06	-52.4	-54.6	14.2	0.00e+00	0	28	0	868220928	70	4772
2026-01-15 06:18:41.77	341.56	19.78	-52.7	-55.0	14.0	0.00e+00	0	28	0	875560960	70	5036
2026-01-15 06:18:45.76	340.74	19.50	-52.4	-54.7	14.1	0.00e+00	0	28	0	882900992	70	4830
2026-01-15 06:18:49.75	339.94	19.21	-51.8	-53.8	14.5	0.00e+00	0	28	0	891289600	70	4363
2026-01-15 06:18:53.73	339.15	18.92	-52.4	-54.5	14.2	0.00e+00	0	28	0	898629632	70	4754
2026-01-15 06:18:57.73	338.37	18.63	-52.0	-54.0	14.5	0.00e+00	0	28	0	905969664	70	4467
2026-01-15 06:19:01.71	337.62	18.34	-52.5	-54.7	14.2	0.00e+00	0	28	0	913309696	70	4832
2026-01-15 06:19:05.69	336.88	18.05	-52.1	-54.1	14.4	0.00e+00	0	28	0	920649728	70	4509
2026-01-15 06:19:09.69	336.14	17.75	-52.0	-53.9	14.5	0.00e+00	0	28	0	927989760	70	4419
2026-01-15 06:19:13.69	335.43	17.45	-52.0	-53.9	14.5	0.00e+00	0	28	0	935329792	70	4404
2026-01-15 06:19:17.70	334.72	17.15	-52.4	-54.4	14.3	0.00e+00	0	28	0	943718400	70	4697
2026-01-15 06:19:21.70	334.03	16.86	-51.6	-53.4	14.6	0.00e+00	0	28	0	951058432	69	4399
2026-01-15 06:19:25.70	333.36	16.56	-51.6	-53.4	14.6	0.00e+00	0	28	0	958398464	69	4425
2026-01-15 06:19:29.68	332.70	16.26	-52.0	-53.9	14.4	0.00e+00	0	28	0	965738496	69	4676
2026-01-15 06:19:33.68	332.05	15.96	-52.1	-54.0	14.4	0.00e+00	0	28	0	973078528	69	4720
2026-01-15 06:19:37.69	331.42	15.66	-51.3	-53.0	14.7	0.00e+00	0	28	0	980418560	69	4224
2026-01-15 06:19:41.68	330.79	15.36	-52.0	-53.9	14.4	0.00e+00	0	28	0	988807168	69	4674
2026-01-15 06:19:45.67	330.19	15.06	-52.7	-54.8	14.1	0.00e+00	0	28	0	996147200	70	4893
2026-01-15 06:19:49.66	329.59	14.76	-52.1	-54.1	14.4	0.00e+00	0	28	0	1003487232	70	4500
2026-01-15 06:19:53.64	329.01	14.46	-52.1	-53.9	14.5	0.00e+00	0	28	0	1010827264	70	4441
2026-01-15 06:19:57.63	328.44	14.16	-52.3	-54.3	14.3	0.00e+00	0	28	0	1018167296	70	4612
2026-01-15 06:20:01.61	327.88	13.87	-53.3	-55.6	13.8	0.00e+00	0	28	0	1025507328	71	5079
2026-01-15 06:20:05.60	327.33	13.57	-53.4	-55.7	13.9	0.00e+00	0	28	0	1032847360	72	4859
2026-01-15 06:20:09.59	326.79	13.28	-52.5	-54.4	14.3	0.00e+00	0	28	0	1040187392	71	4438
2026-01-15 06:20:13.59	326.26	12.98	-52.4	-54.3	14.3	0.00e+00	0	28	0	1048576000	70	4635
2026-01-15 06:20:17.59	325.75	12.69	-52.4	-54.3	14.3	0.00e+00	0	28	0	1055916032	70	4630
2026-01-15 06:20:21.58	325.24	12.40	-52.5	-54.5	14.2	0.00e+00	0	28	0	1063256064	70	4746
2026-01-15 06:20:25.58	324.74	12.11	-53.0	-55.3	14.0	0.00e+00	0	28	0	1070596096	71	4881
2026-01-15 06:20:29.56	324.26	11.82	-53.2	-55.5	13.8	0.00e+00	0	28	0	1077936128	71	5031
2026-01-15 06:20:33.56	323.78	11.53	-53.3	-55.7	13.8	0.00e+00	0	28	0	1085276160	71	5130
2026-01-15 06:20:37.52	323.32	11.25	-53.8	-56.4	13.5	0.00e+00	0	28	0	1092616192	72	5252
2026-01-15 06:20:41.49	322.86	10.97	-53.7	-56.2	13.6	0.00e+00	0	28	0	1099956224	72	5119
2026-01-15 06:20:45.48	322.41	10.68	-53.2	-55.4	14.0	0.00e+00	0	28	0	1108344832	72	4696
2026-01-15 06:20:49.45	321.98	10.40	-53.2	-55.4	14.0	0.00e+00	0	28	0	1115684864	72	4697
2026-01-15 06:20:53.43	321.55	10.12	-53.7	-56.2	13.6	0.00e+00	0	28	0	1123024896	72	5131
2026-01-15 06:20:57.44	321.12	9.84	-53.9	-56.5	13.5	0.00e+00	0	28	0	1130364928	73	5039
2026-01-15 06:21:01.44	320.70	9.57	-53.7	-56.2	13.7	0.00e+00	0	28	0	1137704960	73	4817
2026-01-15 06:21:05.46	320.30	9.29	-53.4	-55.7	13.9	0.00e+00	0	28	0	1145044992	73	4577
2026-01-15 06:21:09.47	319.89	9.01	-53.8	-56.3	13.6	0.00e+00	0	28	0	1153433600	73	4898
2026-01-15 06:21:13.48	319.50	8.74	-53.8	-56.5	13.5	0.00e+00	0	28	0	1160773632	73	4999
2026-01-15 06:21:17.48	319.12	8.47	-54.4	-57.4	13.1	0.00e+00	0	28	0	1168113664	74	5228
2026-01-15 06:21:21.51	318.74	8.20	-54.5	-57.6	12.9	0.00e+00	0	28	0	1175453696	74	5353
2026-01-15 06:21:25.51	318.37	7.93	-54.6	-57.6	12.9	0.00e+00	0	28	0	1182793728	74	5377
2026-01-15 06:21:29.51	318.00	7.67	-54.5	-57.4	13.0	0.00e+00	0	28	0	1190133760	74	5263
2026-01-15 06:21:33.52	317.65	7.40	-54.8	-57.9	12.7	0.00e+00	0	28	0	1198522368	74	5559
2026-01-15 06:21:37.51	317.30	7.14	-54.8	-58.0	12.6	0.00e+00	0	28	0	1205862400	74	5634
2026-01-15 06:21:41.48	316.96	6.88	-55.2	-58.8	12.2	0.00e+00	0	28	0	1213202432	75	5808
2026-01-15 06:21:45.46	316.62	6.62	-55.3	-58.9	12.1	1.50e-06	0	28	0	1220542464	75	5897
2026-01-15 06:21:49.42	316.30	6.37	-54.9	-58.2	12.6	0.00e+00	0	28	0	1227882496	75	5403
2026-01-15 06:21:53.38	315.97	6.11	-54.6	-57.6	13.0	0.00e+00	0	28	0	1235222528	75	5073
2026-01-15 06:21:57.34	315.66	5.86	-53.9	-56.6	13.4	0.00e+00	0	28	0	1242562560	74	4775
2026-01-15 06:22:01.33	315.35	5.61	-53.9	-56.6	13.4	0.00e+00	0	28	0	1249902592	74	4777
2026-01-15 06:22:05.29	315.04	5.36	-54.0	-56.8	13.3	0.00e+00	0	28	0	1257242624	74	4904
2026-01-15 06:22:09.24	314.74	5.12	-54.6	-57.7	12.7	0.00e+00	0	28	0	1264582656	74	5424
2026-01-15 06:22:13.22	314.45	4.87	-59.1	-75.1	3.8	1.49e+00	0	28	104	1269825536	83	24089
2026-01-15 06:22:17.21	314.16	4.62	-60.1	-76.1	3.8	1.49e+00	0	28	104	1269825536	85	24088
2026-01-15 06:22:21.19	313.87	4.38	-60.5	-76.5	3.9	1.49e+00	0	28	104	1269825536	86	23781
2026-01-15 06:22:25.16	313.59	4.14	-60.6	-76.7	3.8	1.49e+00	0	28	104	1269825536	86	24281
2026-01-15 06:22:29.14	313.32	3.90	-60.7	-76.8	3.8	1.49e+00	0	28	104	1269825536	86	24547
2026-01-15 06:22:33.12	313.05	3.66	-60.7	-76.8	3.8	1.49e+00	0	28	104	1269825536	86	24427
2026-01-15 06:22:37.07	312.78	3.42	-60.6	-76.7	3.8	1.49e+00	0	28	104	1269825536	86	24132
2026-01-15 06:22:41.06	312.52	3.18	-60.5	-76.6	3.8	1.49e+00	0	28	104	1269825536	86	24017
2026-01-15 06:22:45.03	312.26	2.95	-60.5	-76.6	3.8	1.49e+00	0	28	104	1269825536	86	23923
2026-01-15 06:22:49.02	312.01	2.72	-60.5	-76.6	3.8	1.49e+00	0	28	104	1269825536	86	23900
2026-01-15 06:22:52.98	311.76	2.49	-60.5	-76.5	3.8	1.49e+00	0	28	104	1269825536	86	23835
2026-01-15 06:22:56.96	311.52	2.25	-60.5	-76.5	3.8	1.49e+00	0	28	104	1269825536	86	23774
2026-01-15 06:23:00.94	311.28	2.03	-60.4	-76.5	3.8	1.49e+00	0	28	104	1269825536	86	23730

#Closed at: 2026-01-15 06:23:03
#Recorded file [1269 MB]: D:/lorett/data/31004_260115_091010.dat