passes_logs/2026/01/15/R3.2S_Murmansk/R3.2S_Murmansk__20260115_102313_AQUA_rec.log

#Pass ID: 20260115_102313_AQUA
#Satellite: AQUA
#Configuration: AQUA
#almurnet v.1.7.20251203
#Start time: 2026-01-15 10:23:12

#Version: 2.2.20231116
#Station: R3.2S_Murmansk
#Location: 33.079688 lon 68.888172 lat
#TLE: 1 27424U 02022A   26014.61231444  .00000653  00000+0  14070-3 0  9991
#TLE: 2 27424  98.4080 341.0332 0002042  78.9336 335.9961 14.61820174260839

#Time	Az	El	Level	Level2	SNR	BER	BlckErr	Temp	State	Recorded	gain1	gain2
2026-01-15 10:23:12.88	130.24	1.96	-58.0	-77.4	3.8	7.47e-01	0	26	0	0	85	32245
2026-01-15 10:23:16.84	130.14	2.22	-57.8	-77.1	3.8	7.45e-01	0	26	104	0	83	35248
2026-01-15 10:23:20.81	130.04	2.49	-57.8	-77.2	3.8	7.43e-01	0	26	104	0	83	35351
2026-01-15 10:23:24.81	129.93	2.75	-57.8	-77.1	3.8	7.46e-01	0	26	104	0	83	35241
2026-01-15 10:23:28.80	129.82	3.03	-57.8	-76.5	3.8	7.45e-01	0	26	104	0	83	32716
2026-01-15 10:23:32.80	129.70	3.30	-57.8	-77.0	3.8	7.44e-01	0	26	104	0	83	34485
2026-01-15 10:23:36.78	129.59	3.58	-57.8	-75.4	3.8	7.46e-01	0	26	104	0	83	28685
2026-01-15 10:23:40.75	129.47	3.85	-57.6	-69.5	6.2	6.76e-01	92	27	0	2097152	83	14573
2026-01-15 10:23:44.72	129.35	4.14	-57.5	-68.4	6.9	6.58e-01	92	27	0	9437184	83	12953
2026-01-15 10:23:48.72	129.23	4.42	-56.6	-63.3	11.2	6.15e-01	0	27	0	17301504	82	7605
2026-01-15 10:23:52.71	129.10	4.71	-54.1	-57.4	14.3	6.10e-01	0	27	0	24641536	77	5108
2026-01-15 10:23:56.68	128.97	5.00	-52.1	-54.5	15.0	6.07e-01	0	27	0	31981568	73	4633
2026-01-15 10:24:00.66	128.84	5.30	-54.8	-58.6	14.1	6.08e-01	0	27	0	39321600	78	5536
2026-01-15 10:24:04.65	128.70	5.60	-52.0	-54.3	15.1	6.08e-01	0	27	0	47185920	73	4523
2026-01-15 10:24:08.65	128.56	5.90	-52.5	-54.9	14.9	6.06e-01	0	27	0	54525952	73	4853
2026-01-15 10:24:12.61	128.42	6.21	-52.7	-55.2	14.8	6.06e-01	0	27	0	61865984	73	4998
2026-01-15 10:24:16.59	128.27	6.52	-51.6	-53.8	15.2	6.08e-01	0	27	0	69206016	72	4510
2026-01-15 10:24:20.56	128.12	6.83	-51.6	-53.7	15.2	6.08e-01	0	27	0	77070336	72	4461
2026-01-15 10:24:24.55	127.97	7.15	-51.6	-53.7	15.2	6.08e-01	0	27	0	84410368	72	4459
2026-01-15 10:24:28.54	127.81	7.47	-51.5	-53.6	15.2	6.06e-01	0	27	0	91750400	72	4421
2026-01-15 10:24:32.52	127.65	7.80	-51.5	-53.6	15.2	6.06e-01	0	27	0	99090432	72	4425
2026-01-15 10:24:36.51	127.48	8.13	-51.4	-53.5	15.1	6.07e-01	0	27	0	106954752	71	4618
2026-01-15 10:24:40.48	127.31	8.47	-51.3	-53.3	15.2	6.07e-01	0	27	0	114294784	71	4545
2026-01-15 10:24:44.48	127.13	8.81	-51.3	-53.3	15.2	6.07e-01	0	27	0	121634816	71	4500
2026-01-15 10:24:48.44	126.95	9.15	-51.0	-52.9	15.3	6.08e-01	0	27	0	128974848	71	4340
2026-01-15 10:24:52.41	126.76	9.50	-51.1	-53.0	15.3	6.07e-01	0	27	0	136839168	71	4374
2026-01-15 10:24:56.39	126.57	9.86	-51.0	-52.9	15.4	6.06e-01	0	27	0	144179200	71	4293
2026-01-15 10:25:00.36	126.38	10.22	-50.9	-52.7	15.2	6.05e-01	0	27	0	151519232	70	4491
2026-01-15 10:25:04.35	126.17	10.59	-50.7	-52.6	15.3	6.07e-01	0	27	0	158859264	70	4404
2026-01-15 10:25:08.33	125.97	10.96	-50.7	-52.6	15.3	6.08e-01	0	27	0	166723584	70	4397
2026-01-15 10:25:12.32	125.75	11.34	-50.5	-52.3	15.4	6.07e-01	0	27	0	174063616	70	4272
2026-01-15 10:25:16.30	125.53	11.73	-50.6	-52.4	15.4	6.05e-01	0	27	0	181403648	70	4311
2026-01-15 10:25:20.28	125.30	12.12	-50.5	-52.3	15.3	6.06e-01	0	27	0	188743680	69	4499
2026-01-15 10:25:24.27	125.07	12.52	-50.3	-52.1	15.3	6.07e-01	0	27	0	196083712	69	4395
2026-01-15 10:25:28.25	124.82	12.93	-50.5	-52.3	15.3	6.07e-01	0	27	0	203948032	69	4495
2026-01-15 10:25:32.24	124.57	13.34	-50.3	-52.1	15.3	6.07e-01	0	28	0	211288064	69	4409
2026-01-15 10:25:36.22	124.31	13.76	-50.3	-52.1	15.3	6.06e-01	0	27	0	218628096	69	4404
2026-01-15 10:25:40.22	124.05	14.19	-50.5	-52.3	15.3	6.07e-01	0	27	0	225968128	69	4519
2026-01-15 10:25:44.18	123.77	14.62	-50.2	-51.9	15.4	6.07e-01	0	27	0	233832448	69	4316
2026-01-15 10:25:48.16	123.49	15.07	-50.1	-51.8	15.4	6.07e-01	0	27	0	241172480	69	4291
2026-01-15 10:25:52.13	123.19	15.52	-50.1	-51.8	15.4	6.06e-01	0	28	0	248512512	69	4251
2026-01-15 10:25:56.12	122.89	15.98	-50.1	-51.8	15.4	6.05e-01	0	28	0	255852544	69	4270
2026-01-15 10:26:00.11	122.57	16.45	-50.1	-51.7	15.4	6.08e-01	0	28	0	263716864	69	4232
2026-01-15 10:26:04.09	122.25	16.93	-50.1	-51.8	15.4	6.06e-01	0	27	0	271056896	69	4251
2026-01-15 10:26:08.08	121.91	17.42	-50.0	-51.7	15.4	6.07e-01	0	28	0	278396928	69	4226
2026-01-15 10:26:12.05	121.56	17.92	-50.0	-51.7	15.4	6.05e-01	0	28	0	285736960	69	4210
2026-01-15 10:26:16.03	121.20	18.42	-50.2	-51.9	15.4	6.04e-01	0	28	0	293601280	69	4317
2026-01-15 10:26:20.02	120.82	18.94	-50.1	-51.8	15.4	6.06e-01	0	28	0	300941312	69	4263
2026-01-15 10:26:24.00	120.43	19.47	-50.0	-51.6	15.5	6.05e-01	0	28	0	308281344	69	4192
2026-01-15 10:26:27.98	120.02	20.02	-50.1	-51.8	15.4	6.06e-01	0	28	0	315621376	69	4253
2026-01-15 10:26:31.95	119.60	20.57	-50.5	-61.9	3.8	7.48e-01	0	28	104	321912832	69	13724
2026-01-15 10:26:35.92	119.16	21.13	-59.0	-76.8	3.7	7.45e-01	0	28	104	321912832	85	30126
2026-01-15 10:26:39.92	118.70	21.71	-50.9	-62.3	3.9	7.39e-01	0	28	104	321912832	70	13421
2026-01-15 10:26:43.89	118.23	22.30	-59.0	-76.8	3.7	7.50e-01	0	28	104	321912832	85	30234
2026-01-15 10:26:47.87	117.73	22.90	-51.1	-62.3	4.1	7.39e-01	0	28	104	321912832	71	12757
2026-01-15 10:26:51.85	117.21	23.52	-59.0	-76.5	3.7	7.48e-01	0	28	104	321912832	85	29093
2026-01-15 10:26:55.82	116.67	24.14	-50.8	-62.3	3.9	7.46e-01	0	28	104	321912832	70	13484
2026-01-15 10:26:59.79	116.11	24.78	-58.9	-76.1	3.8	7.49e-01	0	28	104	321912832	85	27890
2026-01-15 10:27:03.76	115.53	25.44	-50.4	-61.7	3.8	7.44e-01	0	28	104	321912832	70	12660
2026-01-15 10:27:07.73	114.91	26.11	-58.8	-75.3	3.7	7.47e-01	0	28	104	321912832	85	25512
2026-01-15 10:27:11.73	114.26	26.80	-50.6	-62.0	3.8	7.43e-01	0	28	104	321912832	70	13056
2026-01-15 10:27:15.70	113.59	27.50	-58.2	-73.4	3.8	7.49e-01	0	28	104	321912832	83	22822
2026-01-15 10:27:19.68	112.89	28.22	-50.2	-61.5	3.8	7.47e-01	0	28	104	321912832	69	13025
2026-01-15 10:27:23.64	112.15	28.95	-57.8	-72.5	3.8	7.53e-01	0	28	104	321912832	83	20610
2026-01-15 10:27:27.63	111.37	29.69	-50.3	-61.6	3.8	7.46e-01	0	28	104	321912832	69	13257
2026-01-15 10:27:31.61	110.55	30.46	-57.6	-71.9	3.8	7.49e-01	0	28	104	321912832	82	20330
2026-01-15 10:27:35.58	109.70	31.23	-50.2	-61.4	3.8	7.45e-01	0	28	104	321912832	69	12946
2026-01-15 10:27:39.57	108.79	32.03	-57.1	-70.8	3.8	7.48e-01	0	28	104	321912832	81	19007
2026-01-15 10:27:43.55	107.84	32.83	-50.1	-61.4	3.9	7.44e-01	0	28	104	321912832	69	12817
2026-01-15 10:27:47.52	106.84	33.65	-56.4	-69.5	3.8	7.47e-01	0	28	104	321912832	80	17430
2026-01-15 10:27:51.50	105.79	34.49	-50.7	-62.1	3.9	7.46e-01	0	28	104	321912832	70	13144
2026-01-15 10:27:55.47	104.68	35.33	-55.7	-68.3	3.8	7.46e-01	0	28	104	321912832	78	16888
2026-01-15 10:27:59.45	103.51	36.19	-51.5	-63.0	3.9	7.48e-01	0	28	104	321912832	72	12974
2026-01-15 10:28:03.42	102.27	37.06	-55.7	-68.0	3.9	7.47e-01	0	28	104	321912832	78	16375
2026-01-15 10:28:07.41	100.95	37.94	-51.8	-63.3	3.9	7.46e-01	0	28	104	321912832	72	13467
2026-01-15 10:28:11.40	99.56	38.83	-54.5	-66.6	3.8	7.47e-01	0	28	104	321912832	76	15628
2026-01-15 10:28:15.39	98.10	39.72	-52.2	-63.8	3.8	7.43e-01	0	28	104	321912832	73	13484
2026-01-15 10:28:19.36	96.55	40.60	-54.2	-66.1	3.8	7.46e-01	0	28	104	321912832	75	15725
2026-01-15 10:28:23.34	94.91	41.49	-51.9	-63.4	3.9	7.42e-01	0	28	104	321912832	73	12842
2026-01-15 10:28:27.33	93.17	42.38	-53.4	-65.1	3.8	7.48e-01	0	28	104	321912832	74	14823
2026-01-15 10:28:31.31	91.34	43.25	-51.7	-63.2	3.8	7.47e-01	0	28	104	321912832	72	13395
2026-01-15 10:28:35.29	89.40	44.11	-52.5	-64.1	3.8	7.45e-01	0	28	104	321912832	73	13984
2026-01-15 10:28:39.26	87.36	44.95	-51.5	-62.9	3.8	7.41e-01	0	28	104	321912832	72	12870
2026-01-15 10:28:43.25	85.19	45.77	-52.6	-64.2	3.9	7.47e-01	0	28	104	321912832	73	14093
2026-01-15 10:28:47.24	82.91	46.56	-51.7	-63.2	3.9	7.46e-01	0	28	104	321912832	72	13369
2026-01-15 10:28:51.21	80.53	47.31	-52.4	-64.0	3.9	7.45e-01	0	28	104	321912832	73	13862
2026-01-15 10:28:55.19	78.03	48.01	-52.1	-63.6	3.8	7.48e-01	0	28	104	321912832	73	13238
2026-01-15 10:28:59.16	75.41	48.67	-52.2	-63.6	3.9	7.47e-01	0	28	104	321912832	73	13164
2026-01-15 10:29:03.16	72.67	49.27	-52.2	-63.8	3.8	7.45e-01	0	28	104	321912832	73	13441
2026-01-15 10:29:07.13	69.84	49.80	-52.3	-63.7	3.9	7.47e-01	0	28	104	321912832	73	13364
2026-01-15 10:29:11.12	66.91	50.26	-52.1	-63.7	3.8	7.49e-01	0	28	104	321912832	73	13279
2026-01-15 10:29:15.09	63.90	50.65	-52.4	-64.0	3.9	7.47e-01	0	28	104	321912832	74	12990
2026-01-15 10:29:19.06	60.83	50.95	-51.7	-63.2	3.8	7.45e-01	0	28	104	321912832	72	13357
2026-01-15 10:29:23.04	57.69	51.17	-52.7	-64.3	3.9	7.46e-01	0	28	104	321912832	74	13552
2026-01-15 10:29:27.03	54.51	51.30	-51.6	-63.1	3.8	7.48e-01	0	28	104	321912832	72	13171
2026-01-15 10:29:31.02	51.31	51.33	-52.6	-64.3	3.9	7.45e-01	0	28	104	321912832	74	13516
2026-01-15 10:29:35.02	48.10	51.27	-51.4	-62.8	3.8	7.45e-01	0	28	104	321912832	72	12743
2026-01-15 10:29:39.01	44.93	51.12	-52.6	-64.3	3.9	7.47e-01	0	28	104	321912832	74	13451
2026-01-15 10:29:43.00	41.80	50.88	-51.6	-63.1	3.8	7.49e-01	0	28	104	321912832	72	13182
2026-01-15 10:29:46.98	38.74	50.56	-56.0	-68.9	3.8	7.47e-01	0	28	104	321912832	79	17099
2026-01-15 10:29:50.97	35.74	50.15	-52.7	-64.5	3.9	7.46e-01	0	28	104	321912832	74	13861
2026-01-15 10:29:54.95	32.84	49.67	-53.2	-65.0	3.9	7.45e-01	0	28	104	321912832	75	13762
2026-01-15 10:29:58.93	30.03	49.12	-51.5	-63.1	3.9	7.48e-01	0	28	104	321912832	71	13986
2026-01-15 10:30:02.92	27.33	48.50	-55.2	-67.7	3.8	7.44e-01	0	28	104	321912832	78	15763
2026-01-15 10:30:06.91	24.74	47.83	-51.7	-63.3	3.9	7.45e-01	0	28	104	321912832	72	13431
2026-01-15 10:30:10.91	22.25	47.11	-55.2	-67.8	3.8	7.49e-01	0	28	104	321912832	78	16058
2026-01-15 10:30:14.90	19.89	46.35	-51.8	-63.2	3.9	7.45e-01	0	28	104	321912832	72	13389
2026-01-15 10:30:18.88	17.66	45.56	-53.8	-65.7	3.9	7.45e-01	0	28	104	321912832	76	14165
2026-01-15 10:30:22.85	15.54	44.74	-50.9	-62.3	3.9	7.46e-01	0	28	104	321912832	71	12699
2026-01-15 10:30:26.84	13.52	43.89	-54.1	-66.2	3.8	7.46e-01	0	28	104	321912832	75	15851
2026-01-15 10:30:30.80	11.62	43.03	-52.2	-63.7	3.8	7.46e-01	0	28	104	321912832	73	13406
2026-01-15 10:30:34.79	9.81	42.16	-54.6	-66.7	3.9	7.44e-01	0	28	104	321912832	78	14183
2026-01-15 10:30:38.76	8.11	41.28	-51.8	-63.2	3.8	7.43e-01	0	28	104	321912832	72	13344
2026-01-15 10:30:42.74	6.50	40.39	-54.4	-66.6	3.8	7.48e-01	0	28	104	321912832	76	15684
2026-01-15 10:30:46.72	4.98	39.50	-52.4	-64.1	3.8	7.48e-01	0	28	104	321912832	74	13249
2026-01-15 10:30:50.70	3.53	38.62	-55.8	-68.3	3.9	7.45e-01	0	28	104	321912832	80	15192
2026-01-15 10:30:54.68	2.17	37.74	-52.4	-64.2	3.9	7.46e-01	0	28	104	321912832	74	13392
2026-01-15 10:30:58.67	0.88	36.86	-54.6	-66.7	3.8	7.47e-01	0	28	104	321912832	76	15920
2026-01-15 10:31:02.65	359.66	36.00	-53.6	-65.6	3.8	7.46e-01	0	28	104	321912832	76	13955
2026-01-15 10:31:06.64	358.50	35.15	-54.3	-66.1	3.8	7.46e-01	0	28	104	321912832	77	13931
2026-01-15 10:31:10.62	357.41	34.30	-52.0	-63.6	3.9	7.45e-01	0	28	104	321912832	73	13244
2026-01-15 10:31:14.61	356.37	33.47	-53.6	-65.7	3.9	7.44e-01	0	28	104	321912832	76	14093
2026-01-15 10:31:18.58	355.38	32.66	-52.6	-64.4	3.9	7.45e-01	0	28	104	321912832	74	13603
2026-01-15 10:31:22.55	354.45	31.86	-53.5	-65.4	3.8	7.46e-01	0	28	104	321912832	76	13606
2026-01-15 10:31:26.52	353.57	31.08	-52.8	-64.1	3.9	7.47e-01	0	28	104	321912832	74	13149
2026-01-15 10:31:30.52	352.72	30.30	-53.5	-65.2	3.8	7.47e-01	0	28	104	321912832	76	13401
2026-01-15 10:31:34.51	351.91	29.54	-52.6	-64.3	3.9	7.43e-01	0	28	104	321912832	74	13564
2026-01-15 10:31:38.50	351.14	28.80	-52.9	-64.7	3.8	7.47e-01	0	28	104	321912832	75	13394
2026-01-15 10:31:42.49	350.41	28.07	-53.0	-64.5	3.9	7.41e-01	0	28	104	321912832	75	12960
2026-01-15 10:31:46.45	349.72	27.37	-51.2	-62.8	3.9	7.48e-01	0	28	104	321912832	71	13494
2026-01-15 10:31:50.44	349.06	26.67	-54.1	-66.1	3.9	7.44e-01	0	28	104	321912832	77	13974
2026-01-15 10:31:54.42	348.42	25.99	-53.7	-65.5	3.9	7.45e-01	0	28	104	321912832	76	13878
2026-01-15 10:31:58.39	347.82	25.32	-55.2	-67.6	3.9	7.46e-01	0	28	104	321912832	79	14845
2026-01-15 10:32:02.36	347.24	24.67	-53.8	-65.4	3.8	7.48e-01	0	28	104	321912832	76	13678
2026-01-15 10:32:06.34	346.68	24.04	-55.8	-69.1	3.9	7.44e-01	0	28	104	321912832	81	15740
2026-01-15 10:32:10.33	346.15	23.41	-53.0	-64.7	3.9	7.42e-01	0	28	104	321912832	75	13333
2026-01-15 10:32:14.30	345.64	22.80	-55.7	-68.2	3.9	7.49e-01	0	28	104	321912832	80	14979
2026-01-15 10:32:18.29	345.15	22.20	-54.2	-66.3	3.9	7.49e-01	0	28	104	321912832	77	14363
2026-01-15 10:32:22.27	344.69	21.62	-56.2	-69.3	3.9	7.41e-01	0	28	104	321912832	81	15973
2026-01-15 10:32:26.27	344.23	21.05	-53.8	-65.6	3.9	7.43e-01	0	28	104	321912832	76	13906
2026-01-15 10:32:30.26	343.80	20.49	-55.7	-59.2	13.8	6.03e-01	0	28	0	322961408	80	5303
2026-01-15 10:32:34.24	343.38	19.94	-50.9	-52.6	15.3	6.04e-01	0	28	0	330301440	70	4425
2026-01-15 10:32:38.21	342.98	19.40	-50.6	-52.3	15.4	6.03e-01	0	28	0	337641472	70	4281
2026-01-15 10:32:42.17	342.60	18.88	-50.7	-52.4	15.3	6.04e-01	0	28	0	344981504	70	4337
2026-01-15 10:32:46.17	342.23	18.36	-50.7	-52.4	15.4	6.02e-01	0	28	0	352321536	70	4335
2026-01-15 10:32:50.14	341.87	17.86	-50.9	-52.6	15.3	6.03e-01	0	28	0	360185856	70	4427
2026-01-15 10:32:54.11	341.53	17.37	-50.8	-52.6	15.3	6.03e-01	0	28	0	367525888	70	4395
2026-01-15 10:32:58.09	341.19	16.88	-50.7	-52.5	15.3	6.03e-01	0	28	0	374865920	70	4358
2026-01-15 10:33:02.06	340.87	16.41	-50.8	-52.6	15.3	6.04e-01	0	28	0	382205952	70	4398
2026-01-15 10:33:06.06	340.56	15.94	-50.7	-52.4	15.4	6.03e-01	0	28	0	390070272	70	4321
2026-01-15 10:33:10.04	340.26	15.48	-50.8	-52.6	15.3	6.02e-01	0	28	0	397410304	70	4394
2026-01-15 10:33:14.01	339.97	15.03	-50.7	-52.5	15.3	6.03e-01	0	28	0	404750336	70	4362
2026-01-15 10:33:18.01	339.69	14.59	-51.0	-52.8	15.3	6.03e-01	0	28	0	412090368	70	4518
2026-01-15 10:33:21.99	339.42	14.16	-50.9	-52.7	15.3	6.00e-01	0	28	0	419954688	70	4474
2026-01-15 10:33:25.97	339.16	13.73	-50.9	-52.7	15.3	6.03e-01	0	28	0	427294720	70	4469
2026-01-15 10:33:29.97	338.90	13.32	-50.8	-52.6	15.3	6.03e-01	0	28	0	434634752	70	4422
2026-01-15 10:33:33.95	338.66	12.91	-50.9	-52.7	15.3	6.05e-01	0	28	0	441974784	70	4477
2026-01-15 10:33:37.93	338.42	12.50	-51.0	-52.8	15.3	6.03e-01	0	28	0	449839104	70	4510
2026-01-15 10:33:41.92	338.19	12.11	-51.0	-52.8	15.3	6.04e-01	0	28	0	457179136	70	4506
2026-01-15 10:33:45.90	337.96	11.72	-50.9	-52.7	15.3	6.04e-01	0	28	0	464519168	70	4459
2026-01-15 10:33:49.88	337.75	11.33	-51.2	-53.1	15.2	6.06e-01	0	28	0	471859200	70	4665
2026-01-15 10:33:53.85	337.54	10.96	-51.4	-53.3	15.1	6.02e-01	0	28	0	479723520	70	4788
2026-01-15 10:33:57.84	337.33	10.59	-51.5	-53.4	15.1	6.02e-01	0	28	0	487063552	70	4849
2026-01-15 10:34:01.82	337.13	10.22	-51.4	-53.4	15.2	6.05e-01	0	28	0	494403584	71	4557
2026-01-15 10:34:05.81	336.94	9.86	-51.5	-53.5	15.1	6.04e-01	0	28	0	501743616	71	4640
2026-01-15 10:34:09.77	336.75	9.51	-51.6	-53.6	15.1	6.03e-01	0	28	0	509083648	71	4683
2026-01-15 10:34:13.75	336.57	9.16	-51.4	-53.3	15.2	6.04e-01	0	28	0	516947968	71	4544
2026-01-15 10:34:17.73	336.39	8.81	-51.6	-53.6	15.1	6.05e-01	0	28	0	524288000	71	4655
2026-01-15 10:34:21.71	336.22	8.47	-51.7	-53.8	15.0	6.04e-01	0	28	0	531628032	71	4761
2026-01-15 10:34:25.68	336.05	8.14	-51.7	-53.8	15.1	6.03e-01	0	28	0	538968064	71	4766
2026-01-15 10:34:29.66	335.89	7.81	-51.8	-53.9	15.0	6.03e-01	0	28	0	546832384	71	4838
2026-01-15 10:34:33.64	335.73	7.49	-51.9	-54.0	15.0	6.03e-01	0	28	0	554172416	71	4887
2026-01-15 10:34:37.62	335.57	7.17	-52.0	-54.1	14.9	6.04e-01	0	28	0	561512448	71	4972
2026-01-15 10:34:41.60	335.42	6.85	-52.1	-54.3	15.0	6.04e-01	0	28	0	568852480	72	4768
2026-01-15 10:34:45.57	335.27	6.54	-52.2	-54.4	15.0	6.04e-01	0	28	0	576192512	72	4823
2026-01-15 10:34:49.55	335.13	6.23	-52.1	-54.4	15.0	6.04e-01	0	28	0	584056832	72	4821
2026-01-15 10:34:53.53	334.99	5.92	-52.2	-54.5	14.9	6.03e-01	0	28	0	591396864	72	4908
2026-01-15 10:34:57.52	334.86	5.62	-52.1	-54.3	15.0	6.02e-01	0	28	0	598736896	72	4805
2026-01-15 10:35:01.49	334.72	5.33	-52.4	-54.9	14.9	6.03e-01	0	28	0	606076928	73	4837
2026-01-15 10:35:05.47	334.59	5.03	-55.3	-59.5	13.8	6.04e-01	0	28	0	613941248	78	6193
2026-01-15 10:35:09.48	334.47	4.74	-59.5	-78.9	3.8	7.48e-01	0	28	104	614465536	86	36193
2026-01-15 10:35:13.49	334.34	4.45	-59.9	-79.3	3.8	7.50e-01	0	28	104	614465536	87	35981
2026-01-15 10:35:17.50	334.22	4.16	-60.1	-79.5	3.8	7.46e-01	0	28	104	614465536	88	34861
2026-01-15 10:35:21.49	334.10	3.88	-60.2	-79.6	3.8	7.47e-01	0	28	104	614465536	88	34939
2026-01-15 10:35:25.48	333.99	3.60	-60.2	-79.6	3.8	7.46e-01	0	28	104	614465536	88	34941
2026-01-15 10:35:29.46	333.88	3.33	-60.2	-79.5	3.9	7.47e-01	0	28	104	614465536	88	34824
2026-01-15 10:35:33.45	333.77	3.06	-60.1	-79.5	3.8	7.46e-01	0	28	104	614465536	88	34571
2026-01-15 10:35:37.43	333.66	2.79	-60.0	-79.4	3.8	7.46e-01	0	28	104	614465536	88	34368
2026-01-15 10:35:41.42	333.55	2.52	-60.0	-79.4	3.8	7.49e-01	0	28	104	614465536	88	34253
2026-01-15 10:35:45.41	333.45	2.26	-60.0	-79.4	3.8	7.47e-01	0	28	104	614465536	88	34305
2026-01-15 10:35:49.40	333.35	2.00	-60.0	-79.4	3.8	7.45e-01	0	28	104	614465536	88	34220

#Closed at: 2026-01-15 10:35:51
#Recorded file [614 MB]: D:/lorett/data/31004_260115_132312.dat