passes_logs/2026/01/15/R3.2S_Murmansk/R3.2S_Murmansk__20260115_120754_FENGYUN_3D_rec.log

#Pass ID: 20260115_120754_FENGYUN 3D
#Satellite: FENGYUN 3D
#Configuration: FENGYUN 3D
#almurnet v.1.7.20251203
#Start time: 2026-01-15 12:07:57

#Version: 2.2.20231116
#Station: R3.2S_Murmansk
#Location: 33.079688 lon 68.888172 lat
#TLE: 1 43010U 17072A   26014.65117763 -.00000217  00000+0 -80772-4 0  9993
#TLE: 2 43010  98.9933 346.4618 0002330 108.4699 251.6730 14.19694700423204

#Time	Az	El	Level	Level2	SNR	BER	BlckErr	Temp	State	Recorded	gain1	gain2
2026-01-15 12:07:57.05	165.37	2.15	-58.6	-71.5	3.8	8.45e-01	0	26	0	0	83	15812
2026-01-15 12:08:01.03	165.44	2.41	-58.5	-70.8	3.8	8.45e-01	0	26	104	0	82	15535
2026-01-15 12:08:05.02	165.52	2.66	-58.5	-71.0	3.8	8.44e-01	0	26	104	0	82	15881
2026-01-15 12:08:09.01	165.60	2.93	-58.5	-70.9	3.8	8.44e-01	0	26	104	0	82	15738
2026-01-15 12:08:12.99	165.68	3.19	-58.6	-71.0	3.8	8.46e-01	0	26	104	0	82	15922
2026-01-15 12:08:16.98	165.77	3.45	-58.5	-71.1	3.8	8.45e-01	0	27	104	0	82	15991
2026-01-15 12:08:20.95	165.85	3.72	-57.8	-65.3	5.3	7.38e-01	0	27	0	0	82	8237
2026-01-15 12:08:24.93	165.93	3.99	-56.7	-61.6	8.1	5.51e-02	0	27	0	19922944	80	5996
2026-01-15 12:08:28.91	166.02	4.27	-55.4	-58.9	10.3	1.64e-03	0	27	0	42991616	77	5255
2026-01-15 12:08:32.87	166.11	4.54	-53.2	-55.5	12.5	0.00e+00	0	27	0	65011712	72	4712
2026-01-15 12:08:36.86	166.19	4.82	-51.6	-53.4	13.5	0.00e+00	0	27	0	87031808	69	4433
2026-01-15 12:08:40.85	166.28	5.10	-52.7	-54.9	12.7	0.00e+00	0	27	0	110100480	70	4959
2026-01-15 12:08:44.82	166.38	5.39	-50.5	-52.1	14.0	1.48e-05	0	27	0	132120576	67	4281
2026-01-15 12:08:48.80	166.47	5.67	-50.3	-51.9	14.0	0.00e+00	0	27	0	154140672	66	4410
2026-01-15 12:08:52.79	166.56	5.97	-50.0	-51.6	14.1	0.00e+00	0	27	0	177209344	66	4269
2026-01-15 12:08:56.75	166.66	6.26	-49.8	-51.3	14.3	0.00e+00	0	27	0	199229440	66	4144
2026-01-15 12:09:00.72	166.76	6.55	-49.9	-51.5	14.2	0.00e+00	0	27	0	221249536	66	4197
2026-01-15 12:09:04.70	166.86	6.86	-50.0	-51.5	14.2	0.00e+00	0	27	0	244318208	66	4227
2026-01-15 12:09:08.68	166.96	7.16	-49.7	-51.2	14.4	0.00e+00	0	27	0	266338304	66	4089
2026-01-15 12:09:12.64	167.06	7.47	-49.7	-51.2	14.4	0.00e+00	0	27	0	288358400	66	4064
2026-01-15 12:09:16.62	167.17	7.78	-50.0	-51.5	14.2	0.00e+00	0	28	0	311427072	66	4229
2026-01-15 12:09:20.61	167.27	8.09	-49.9	-51.4	14.2	0.00e+00	0	28	0	333447168	65	4441
2026-01-15 12:09:24.58	167.38	8.41	-49.5	-51.0	14.4	0.00e+00	0	27	0	355467264	65	4200
2026-01-15 12:09:28.58	167.50	8.74	-49.4	-50.9	14.4	0.00e+00	0	28	0	378535936	65	4169
2026-01-15 12:09:32.54	167.61	9.06	-49.5	-50.9	14.4	0.00e+00	0	27	0	400556032	65	4179
2026-01-15 12:09:36.53	167.72	9.40	-49.2	-50.7	14.6	0.00e+00	0	28	0	422576128	65	4061
2026-01-15 12:09:40.51	167.84	9.73	-49.3	-50.7	14.5	0.00e+00	0	28	0	445644800	65	4085
2026-01-15 12:09:44.52	167.96	10.08	-49.4	-50.9	14.5	0.00e+00	0	27	0	467664896	65	4148
2026-01-15 12:09:48.49	168.09	10.42	-49.3	-50.8	14.5	0.00e+00	0	27	0	489684992	65	4111
2026-01-15 12:09:52.47	168.21	10.77	-49.3	-50.8	14.5	0.00e+00	0	28	0	512753664	65	4115
2026-01-15 12:09:56.46	168.34	11.13	-49.3	-50.7	14.6	0.00e+00	0	28	0	534773760	65	4086
2026-01-15 12:10:00.45	168.47	11.49	-49.4	-50.9	14.5	0.00e+00	0	28	0	557842432	65	4165
2026-01-15 12:10:04.44	168.61	11.86	-49.2	-50.7	14.6	0.00e+00	0	28	0	579862528	65	4073
2026-01-15 12:10:08.43	168.75	12.23	-49.1	-50.5	14.5	0.00e+00	0	28	0	601882624	64	4231
2026-01-15 12:10:12.41	168.89	12.61	-49.0	-50.4	14.6	0.00e+00	0	28	0	624951296	64	4163
2026-01-15 12:10:16.37	169.03	12.99	-48.8	-50.2	14.7	0.00e+00	0	28	0	646971392	64	4071
2026-01-15 12:10:20.35	169.18	13.37	-48.8	-50.2	14.6	0.00e+00	0	28	0	670040064	63	4316
2026-01-15 12:10:24.34	169.33	13.77	-48.4	-49.8	14.8	0.00e+00	0	28	0	692060160	63	4115
2026-01-15 12:10:28.33	169.48	14.17	-48.4	-49.7	14.8	0.00e+00	0	28	0	714080256	63	4074
2026-01-15 12:10:32.28	169.64	14.58	-48.2	-49.6	14.9	0.00e+00	0	28	0	736100352	63	4006
2026-01-15 12:10:36.25	169.80	14.99	-47.9	-49.2	14.9	0.00e+00	0	28	0	759169024	62	4075
2026-01-15 12:10:40.24	169.97	15.41	-47.9	-49.2	14.9	0.00e+00	0	28	0	781189120	62	4080
2026-01-15 12:10:44.22	170.14	15.84	-47.7	-49.0	15.0	0.00e+00	0	28	0	804257792	62	3966
2026-01-15 12:10:48.20	170.32	16.28	-47.7	-48.9	14.9	0.00e+00	0	28	0	826277888	61	4182
2026-01-15 12:10:52.18	170.50	16.72	-47.6	-48.8	14.9	0.00e+00	0	28	0	848297984	61	4145
2026-01-15 12:10:56.15	170.68	17.17	-47.6	-48.9	14.9	0.00e+00	0	28	0	871366656	61	4154
2026-01-15 12:11:00.12	170.87	17.63	-47.5	-48.7	14.9	0.00e+00	0	28	0	893386752	61	4084
2026-01-15 12:11:04.10	171.07	18.10	-47.5	-48.8	14.9	0.00e+00	0	28	0	915406848	61	4114
2026-01-15 12:11:08.09	171.27	18.58	-47.4	-48.7	15.0	0.00e+00	0	28	0	937426944	61	4078
2026-01-15 12:11:12.06	171.48	19.06	-47.2	-48.5	15.0	0.00e+00	0	28	0	960495616	61	3979
2026-01-15 12:11:16.05	171.69	19.56	-47.2	-48.4	14.9	0.00e+00	0	28	0	982515712	60	4193
2026-01-15 12:11:20.04	171.91	20.07	-47.1	-48.4	14.9	0.00e+00	0	28	0	1005584384	60	4149
2026-01-15 12:11:24.02	172.14	20.58	-47.1	-48.3	15.0	0.00e+00	0	28	0	1027604480	60	4136
2026-01-15 12:11:28.00	172.37	21.11	-46.8	-48.1	15.1	0.00e+00	0	28	0	1049624576	60	4019
2026-01-15 12:11:31.98	172.62	21.65	-47.0	-48.3	14.9	0.00e+00	0	28	0	1072693248	59	4350
2026-01-15 12:11:35.97	172.87	22.20	-46.8	-48.0	15.0	0.00e+00	0	28	0	1094713344	59	4242
2026-01-15 12:11:39.95	173.13	22.76	-46.8	-48.0	15.0	0.00e+00	0	28	0	1117782016	59	4235
2026-01-15 12:11:43.93	173.40	23.33	-46.7	-47.9	15.0	0.00e+00	0	28	0	1139802112	59	4190
2026-01-15 12:11:47.91	173.67	23.91	-46.6	-47.8	15.0	0.00e+00	0	28	0	1161822208	59	4144
2026-01-15 12:11:51.89	173.96	24.51	-46.6	-47.8	15.1	0.00e+00	0	28	0	1183842304	59	4124
2026-01-15 12:11:55.87	174.26	25.12	-46.5	-47.8	15.1	0.00e+00	0	28	0	1206910976	59	4104
2026-01-15 12:11:59.83	174.57	25.74	-46.3	-47.5	15.2	0.00e+00	0	28	0	1228931072	59	3987
2026-01-15 12:12:03.81	174.89	26.38	-46.2	-47.4	15.2	0.00e+00	0	28	0	1251999744	59	3917
2026-01-15 12:12:07.78	175.22	27.03	-46.2	-47.4	15.1	0.00e+00	0	28	0	1274019840	58	4153
2026-01-15 12:12:11.77	175.57	27.70	-46.5	-47.8	15.0	0.00e+00	0	28	0	1296039936	58	4358
2026-01-15 12:12:15.78	175.93	28.38	-46.5	-47.7	15.0	0.00e+00	0	28	0	1319108608	58	4314
2026-01-15 12:12:19.75	176.31	29.08	-46.2	-47.4	15.1	0.00e+00	0	28	0	1341128704	58	4176
2026-01-15 12:12:23.74	176.70	29.80	-46.2	-47.4	15.1	0.00e+00	0	28	0	1363148800	58	4163
2026-01-15 12:12:27.71	177.11	30.53	-46.0	-47.1	15.2	0.00e+00	0	28	0	1386217472	58	4051
2026-01-15 12:12:31.70	177.54	31.28	-46.0	-47.2	15.1	0.00e+00	0	28	0	1408237568	58	4082
2026-01-15 12:12:35.68	177.99	32.05	-46.1	-47.3	15.1	0.00e+00	0	28	0	1430257664	58	4110
2026-01-15 12:12:39.65	178.46	32.83	-46.2	-47.4	15.1	0.00e+00	0	28	0	1453326336	58	4154
2026-01-15 12:12:43.62	178.95	33.63	-46.2	-47.3	15.1	0.00e+00	0	28	0	1475346432	58	4100
2026-01-15 12:12:47.59	179.46	34.45	-46.0	-47.1	15.2	0.00e+00	0	28	0	1497366528	58	4011
2026-01-15 12:12:51.59	180.01	35.30	-45.5	-46.6	15.2	0.00e+00	0	28	0	1520435200	57	4019
2026-01-15 12:12:55.58	180.58	36.17	-45.7	-46.7	15.2	0.00e+00	0	28	0	1542455296	57	4078
2026-01-15 12:12:59.56	181.18	37.05	-45.8	-46.9	15.1	0.00e+00	0	28	0	1565523968	57	4157
2026-01-15 12:13:03.55	181.82	37.96	-45.9	-47.0	15.1	0.00e+00	0	28	0	1587544064	57	4234
2026-01-15 12:13:07.53	182.49	38.88	-45.7	-46.7	15.1	0.00e+00	0	28	0	1609564160	57	4088
2026-01-15 12:13:11.51	183.20	39.83	-46.3	-47.4	15.0	0.00e+00	0	28	0	1632632832	57	4400
2026-01-15 12:13:15.49	183.95	40.80	-46.0	-47.0	15.1	0.00e+00	0	28	0	1654652928	57	4227
2026-01-15 12:13:19.48	184.75	41.79	-46.1	-47.1	15.1	0.00e+00	0	28	0	1676673024	57	4281
2026-01-15 12:13:23.48	185.60	42.80	-46.4	-47.5	15.1	0.00e+00	0	28	0	1699741696	58	4203
2026-01-15 12:13:27.45	186.50	43.83	-46.3	-47.4	15.1	0.00e+00	0	28	0	1721761792	58	4177
2026-01-15 12:13:31.43	187.46	44.88	-46.8	-47.9	15.0	0.00e+00	0	28	0	1743781888	58	4399
2026-01-15 12:13:35.41	188.48	45.95	-46.4	-47.5	15.1	0.00e+00	0	28	0	1766850560	58	4207
2026-01-15 12:13:39.39	189.58	47.04	-46.4	-47.5	15.1	0.00e+00	0	28	0	1788870656	58	4211
2026-01-15 12:13:43.38	190.76	48.14	-46.5	-47.6	15.0	0.00e+00	0	28	0	1811939328	58	4251
2026-01-15 12:13:47.35	192.01	49.26	-46.8	-47.9	15.0	0.00e+00	0	28	0	1833959424	58	4408
2026-01-15 12:13:51.34	193.37	50.40	-46.7	-47.8	15.0	0.00e+00	0	28	0	1855979520	58	4347
2026-01-15 12:13:55.32	194.83	51.54	-46.7	-47.8	15.1	0.00e+00	0	28	0	1879048192	59	4104
2026-01-15 12:13:59.30	196.41	52.69	-47.2	-48.3	15.0	0.00e+00	0	28	0	1901068288	59	4369
2026-01-15 12:14:03.27	198.11	53.84	-47.3	-48.5	14.9	0.00e+00	0	28	0	1923088384	59	4461
2026-01-15 12:14:07.26	199.95	54.99	-46.8	-47.9	15.2	0.00e+00	0	28	0	1946157056	60	3932
2026-01-15 12:14:11.25	201.95	56.14	-46.9	-48.0	15.1	0.00e+00	0	28	0	1968177152	60	3990
2026-01-15 12:14:15.25	204.13	57.28	-46.9	-48.0	15.1	0.00e+00	0	28	0	1991245824	60	3994
2026-01-15 12:14:19.24	206.49	58.40	-46.7	-47.8	15.1	0.00e+00	0	28	0	2013265920	59	4104
2026-01-15 12:14:23.23	209.04	59.48	-46.5	-47.6	15.2	0.00e+00	0	28	0	2035286016	59	4029
2026-01-15 12:14:27.22	211.82	60.54	-46.1	-47.2	15.2	0.00e+00	0	28	0	2058354688	58	4069
2026-01-15 12:14:31.19	214.81	61.54	-45.8	-46.8	15.3	0.00e+00	0	28	0	2080374784	58	3898
2026-01-15 12:14:35.18	218.06	62.48	-46.0	-47.0	15.2	0.00e+00	0	28	0	2102394880	58	3989
2026-01-15 12:14:39.18	221.58	63.36	-46.0	-47.1	15.2	0.00e+00	0	28	0	2125463552	58	4019
2026-01-15 12:14:43.17	225.34	64.15	-45.9	-46.9	15.2	0.00e+00	0	28	0	2147483648	58	3956
2026-01-15 12:14:47.13	229.31	64.84	-45.9	-47.0	15.2	0.00e+00	0	28	0	2170552320	58	3982
2026-01-15 12:14:51.11	233.54	65.42	-45.7	-46.8	15.3	0.00e+00	0	28	0	2192572416	58	3869
2026-01-15 12:14:55.10	237.98	65.88	-45.7	-46.7	15.2	0.00e+00	0	28	0	2214592512	57	4076
2026-01-15 12:14:59.09	242.58	66.21	-45.8	-46.9	15.1	0.00e+00	0	28	0	2237661184	57	4176
2026-01-15 12:15:03.07	247.28	66.39	-45.5	-46.5	15.2	0.00e+00	0	28	0	2259681280	57	3964
2026-01-15 12:15:07.08	252.06	66.43	-45.8	-46.8	15.2	0.00e+00	0	28	0	2282749952	57	4126
2026-01-15 12:15:11.08	256.82	66.33	-45.8	-46.9	15.1	0.00e+00	0	28	0	2304770048	57	4175
2026-01-15 12:15:15.08	261.50	66.08	-45.7	-46.8	15.2	0.00e+00	0	28	0	2327838720	57	4112
2026-01-15 12:15:19.05	266.01	65.69	-46.1	-47.2	15.1	0.00e+00	0	28	0	2349858816	57	4293
2026-01-15 12:15:23.03	270.35	65.17	-46.0	-47.1	15.2	0.00e+00	0	28	0	2371878912	57	4278
2026-01-15 12:15:27.00	274.47	64.54	-46.3	-47.4	15.0	0.00e+00	0	28	0	2393899008	57	4400
2026-01-15 12:15:30.99	278.36	63.81	-46.0	-47.1	15.1	0.00e+00	0	28	0	2416967680	57	4254
2026-01-15 12:15:34.97	281.99	62.98	-45.8	-46.9	15.1	0.00e+00	0	28	0	2438987776	57	4150
2026-01-15 12:15:38.95	285.37	62.08	-46.3	-47.3	15.0	0.00e+00	0	28	0	2462056448	57	4384
2026-01-15 12:15:42.93	288.51	61.11	-45.9	-47.0	15.1	0.00e+00	0	28	0	2484076544	57	4203
2026-01-15 12:15:46.92	291.41	60.08	-46.5	-47.6	15.0	0.00e+00	0	28	0	2506096640	58	4260
2026-01-15 12:15:50.91	294.08	59.02	-46.5	-47.5	15.1	0.00e+00	0	28	0	2529165312	58	4236
2026-01-15 12:15:54.90	296.54	57.92	-47.0	-48.1	15.0	0.00e+00	0	28	0	2551185408	59	4263
2026-01-15 12:15:58.89	298.82	56.79	-47.2	-48.4	15.0	0.00e+00	0	28	0	2573205504	59	4399
2026-01-15 12:16:02.87	300.90	55.66	-47.2	-48.3	15.1	0.00e+00	0	28	0	2596274176	60	4104
2026-01-15 12:16:06.85	302.83	54.51	-47.2	-48.4	15.0	0.00e+00	0	28	0	2618294272	60	4148
2026-01-15 12:16:10.84	304.61	53.36	-47.2	-48.3	15.0	0.00e+00	0	28	0	2641362944	60	4124
2026-01-15 12:16:14.84	306.26	52.20	-47.0	-48.1	15.0	0.00e+00	0	28	0	2663383040	59	4255
2026-01-15 12:16:18.80	307.78	51.07	-47.1	-48.2	15.0	0.00e+00	0	28	0	2685403136	59	4306
2026-01-15 12:16:22.78	309.19	49.93	-46.9	-48.0	15.1	0.00e+00	0	28	0	2708471808	59	4198
2026-01-15 12:16:26.76	310.50	48.81	-46.8	-47.9	15.1	0.00e+00	0	28	0	2730491904	59	4177
2026-01-15 12:16:30.74	311.72	47.70	-46.6	-47.6	15.1	0.00e+00	0	28	0	2752512000	59	4051
2026-01-15 12:16:34.72	312.86	46.60	-46.9	-48.0	15.1	0.00e+00	0	28	0	2775580672	59	4213
2026-01-15 12:16:38.71	313.93	45.52	-46.0	-47.0	15.2	0.00e+00	0	28	0	2797600768	58	4000
2026-01-15 12:16:42.68	314.92	44.47	-46.6	-47.7	15.1	0.00e+00	0	28	0	2819620864	58	4292
2026-01-15 12:16:46.66	315.85	43.43	-46.5	-47.5	15.0	0.00e+00	0	28	0	2842689536	58	4222
2026-01-15 12:16:50.63	316.73	42.41	-46.3	-47.3	15.1	0.00e+00	0	28	0	2864709632	58	4135
2026-01-15 12:16:54.64	317.56	41.41	-46.1	-47.1	15.2	0.00e+00	0	28	0	2887778304	58	4050
2026-01-15 12:16:58.61	318.33	40.43	-46.1	-47.2	15.2	0.00e+00	0	28	0	2909798400	58	4071
2026-01-15 12:17:02.58	319.06	39.48	-46.2	-47.3	15.1	0.00e+00	0	28	0	2931818496	58	4103
2026-01-15 12:17:06.57	319.76	38.54	-46.2	-47.3	15.1	0.00e+00	0	28	0	2954887168	58	4112
2026-01-15 12:17:10.53	320.41	37.64	-45.6	-46.6	15.2	0.00e+00	0	28	0	2976907264	57	4029
2026-01-15 12:17:14.51	321.03	36.74	-45.7	-46.7	15.2	0.00e+00	0	28	0	2998927360	57	4092
2026-01-15 12:17:18.50	321.62	35.87	-45.9	-47.0	15.1	0.00e+00	0	28	0	3021996032	57	4198
2026-01-15 12:17:22.49	322.18	35.01	-46.0	-47.0	15.1	0.00e+00	0	28	0	3044016128	57	4230
2026-01-15 12:17:26.45	322.71	34.18	-46.2	-47.3	15.0	0.00e+00	0	28	0	3066036224	57	4363
2026-01-15 12:17:30.45	323.22	33.37	-46.3	-47.4	15.0	0.00e+00	0	28	0	3089104896	57	4393
2026-01-15 12:17:34.46	323.70	32.57	-46.1	-47.1	15.1	0.00e+00	0	28	0	3111124992	57	4288
2026-01-15 12:17:38.43	324.16	31.79	-46.2	-47.3	15.0	0.00e+00	0	28	0	3133145088	57	4365
2026-01-15 12:17:42.42	324.61	31.04	-46.3	-47.4	15.0	0.00e+00	0	28	0	3156213760	57	4401
2026-01-15 12:17:46.42	325.03	30.29	-46.3	-47.4	15.1	0.00e+00	0	28	0	3178233856	58	4189
2026-01-15 12:17:50.38	325.43	29.57	-46.1	-47.2	15.1	0.00e+00	0	28	0	3201302528	58	4064
2026-01-15 12:17:54.36	325.82	28.87	-46.1	-47.2	15.1	0.00e+00	0	28	0	3223322624	58	4064
2026-01-15 12:17:58.36	326.19	28.18	-46.4	-47.5	15.1	0.00e+00	0	28	0	3246391296	58	4200
2026-01-15 12:18:02.33	326.55	27.50	-46.4	-47.5	15.1	0.00e+00	0	28	0	3268411392	58	4208
2026-01-15 12:18:06.31	326.89	26.84	-46.3	-47.4	15.1	0.00e+00	0	28	0	3290431488	58	4159
2026-01-15 12:18:10.30	327.22	26.20	-46.2	-47.2	15.1	0.00e+00	0	28	0	3313500160	58	4087
2026-01-15 12:18:14.29	327.54	25.57	-46.2	-47.3	15.1	0.00e+00	0	28	0	3335520256	58	4110
2026-01-15 12:18:18.26	327.84	24.95	-46.4	-47.5	15.1	0.00e+00	0	28	0	3357540352	58	4222
2026-01-15 12:18:22.23	328.14	24.35	-46.6	-47.7	15.0	0.00e+00	0	28	0	3379560448	58	4298
2026-01-15 12:18:26.23	328.42	23.76	-46.7	-47.8	15.0	0.00e+00	0	28	0	3402629120	58	4350
2026-01-15 12:18:30.22	328.70	23.18	-46.9	-48.1	15.0	0.00e+00	0	28	0	3424649216	59	4243
2026-01-15 12:18:34.20	328.96	22.62	-47.1	-48.3	14.9	0.00e+00	0	28	0	3447717888	59	4345
2026-01-15 12:18:38.20	329.22	22.06	-47.3	-48.4	14.9	0.00e+00	0	28	0	3469737984	59	4434
2026-01-15 12:18:42.18	329.47	21.52	-47.2	-48.3	15.0	0.00e+00	0	28	0	3491758080	60	4127
2026-01-15 12:18:46.16	329.71	20.99	-47.1	-48.3	15.0	0.00e+00	0	28	0	3514826752	60	4100
2026-01-15 12:18:50.13	329.94	20.47	-47.1	-48.2	15.0	0.00e+00	0	28	0	3536846848	60	4056
2026-01-15 12:18:54.11	330.17	19.96	-47.0	-48.1	15.1	0.00e+00	0	28	0	3559915520	60	4019
2026-01-15 12:18:58.09	330.39	19.46	-47.1	-48.1	15.0	0.00e+00	0	28	0	3581935616	60	4050
2026-01-15 12:19:02.07	330.60	18.97	-47.3	-48.4	14.9	0.00e+00	0	28	0	3603955712	60	4183
2026-01-15 12:19:06.06	330.81	18.49	-47.4	-48.5	14.9	0.00e+00	0	28	0	3627024384	60	4239
2026-01-15 12:19:10.03	331.01	18.02	-47.7	-48.8	14.8	0.00e+00	0	28	0	3649044480	60	4382
2026-01-15 12:19:14.02	331.20	17.55	-47.8	-49.0	14.8	0.00e+00	0	28	0	3671064576	60	4470
2026-01-15 12:19:18.01	331.39	17.09	-48.0	-49.1	14.8	0.00e+00	0	28	0	3694133248	61	4282
2026-01-15 12:19:21.99	331.58	16.65	-48.0	-49.1	14.8	0.00e+00	0	28	0	3716153344	61	4283
2026-01-15 12:19:25.96	331.76	16.21	-48.0	-49.2	14.8	0.00e+00	0	28	0	3738173440	61	4297
2026-01-15 12:19:29.95	331.94	15.78	-48.0	-49.2	14.8	0.00e+00	0	28	0	3761242112	61	4310
2026-01-15 12:19:33.92	332.11	15.35	-48.0	-49.1	14.8	0.00e+00	0	28	0	3783262208	61	4279
2026-01-15 12:19:37.91	332.27	14.93	-48.1	-49.3	14.7	0.00e+00	0	28	0	3806330880	61	4364
2026-01-15 12:19:41.89	332.44	14.52	-48.2	-49.4	14.7	0.00e+00	0	28	0	3828350976	61	4414
2026-01-15 12:19:45.88	332.59	14.12	-48.3	-49.5	14.7	0.00e+00	0	28	0	3850371072	61	4476
2026-01-15 12:19:49.86	332.75	13.72	-48.4	-49.7	14.7	0.00e+00	0	28	0	3873439744	62	4298
2026-01-15 12:19:53.83	332.90	13.33	-48.5	-49.7	14.7	0.00e+00	0	28	0	3895459840	62	4339
2026-01-15 12:19:57.82	333.05	12.94	-48.7	-50.0	14.6	0.00e+00	0	28	0	3917479936	62	4446
2026-01-15 12:20:01.80	333.19	12.57	-48.8	-50.1	14.5	0.00e+00	0	28	0	3940548608	62	4511
2026-01-15 12:20:05.78	333.34	12.19	-48.9	-50.2	14.6	0.00e+00	0	28	0	3962568704	63	4297
2026-01-15 12:20:09.78	333.47	11.82	-48.9	-50.2	14.6	0.00e+00	0	28	0	3984588800	63	4302
2026-01-15 12:20:13.76	333.61	11.46	-49.0	-50.3	14.5	0.00e+00	0	28	0	4007657472	63	4374
2026-01-15 12:20:17.74	333.74	11.10	-49.2	-50.4	14.5	0.00e+00	0	28	0	4029677568	63	4433
2026-01-15 12:20:21.73	333.87	10.75	-49.4	-50.7	14.5	0.00e+00	0	28	0	4051697664	64	4333
2026-01-15 12:20:25.72	334.00	10.40	-49.3	-50.6	14.5	0.00e+00	0	28	0	4074766336	64	4286
2026-01-15 12:20:29.69	334.12	10.06	-49.5	-50.8	14.4	0.00e+00	0	28	0	4096786432	64	4381
2026-01-15 12:20:33.68	334.25	9.72	-49.5	-50.9	14.4	0.00e+00	0	28	0	4119855104	64	4395
2026-01-15 12:20:37.66	334.37	9.39	-49.7	-51.0	14.3	0.00e+00	0	28	0	4141875200	64	4478
2026-01-15 12:20:41.64	334.48	9.06	-49.5	-50.9	14.4	0.00e+00	0	28	0	4163895296	64	4410
2026-01-15 12:20:45.62	334.60	8.73	-49.8	-51.2	14.3	0.00e+00	0	28	0	4186963968	64	4554
2026-01-15 12:20:49.59	334.71	8.41	-50.0	-51.4	14.3	0.00e+00	0	28	0	4208984064	65	4392
2026-01-15 12:20:53.58	334.82	8.09	-50.0	-51.4	14.2	0.00e+00	0	28	0	4231004160	65	4437
2026-01-15 12:20:57.56	334.93	7.78	-50.3	-51.7	14.2	0.00e+00	0	28	0	4254072832	66	4320
2026-01-15 12:21:01.54	335.04	7.47	-50.4	-51.9	14.2	0.00e+00	0	28	0	4276092928	67	4153
2026-01-15 12:21:05.51	335.14	7.17	-50.5	-52.0	14.0	3.40e-06	0	28	0	4298113024	66	4474
2026-01-15 12:21:09.48	335.25	6.87	-50.3	-51.8	14.2	0.00e+00	0	28	0	4321181696	67	4112
2026-01-15 12:21:13.45	335.35	6.57	-50.6	-52.1	14.0	0.00e+00	0	28	0	4343201792	66	4545
2026-01-15 12:21:17.45	335.45	6.27	-50.5	-52.1	14.0	0.00e+00	0	28	0	4366270464	66	4505
2026-01-15 12:21:21.44	335.55	5.98	-50.7	-52.2	14.0	0.00e+00	0	28	0	4388290560	67	4323
2026-01-15 12:21:25.42	335.65	5.69	-50.9	-52.5	13.9	0.00e+00	0	28	0	4410310656	67	4458
2026-01-15 12:21:29.39	335.74	5.40	-51.4	-53.1	13.5	0.00e+00	0	28	0	4432330752	67	4805
2026-01-15 12:21:33.40	335.84	5.12	-51.3	-52.9	13.8	0.00e+00	0	28	0	4455399424	68	4410
2026-01-15 12:21:37.39	335.93	4.84	-59.4	-72.4	3.8	8.45e-01	0	28	104	4469030912	83	17611
2026-01-15 12:21:41.42	336.02	4.56	-60.3	-73.3	3.8	8.46e-01	0	28	104	4469030912	85	17436
2026-01-15 12:21:45.43	336.11	4.28	-60.6	-73.7	3.8	8.44e-01	0	28	104	4469030912	86	17159
2026-01-15 12:21:49.45	336.20	4.01	-60.7	-73.8	3.8	8.47e-01	0	28	104	4469030912	86	17312
2026-01-15 12:21:53.47	336.29	3.74	-60.7	-73.8	3.8	8.46e-01	0	28	104	4469030912	86	17336
2026-01-15 12:21:57.49	336.37	3.47	-60.6	-73.7	3.8	8.46e-01	0	28	104	4469030912	86	17232
2026-01-15 12:22:01.51	336.46	3.20	-60.6	-73.7	3.8	8.45e-01	0	28	104	4469030912	86	17129
2026-01-15 12:22:05.53	336.54	2.94	-60.5	-73.6	3.8	8.46e-01	0	28	104	4469030912	86	17066
2026-01-15 12:22:09.53	336.63	2.68	-60.5	-73.6	3.8	8.46e-01	0	28	104	4469030912	86	16933
2026-01-15 12:22:13.51	336.71	2.42	-60.5	-73.6	3.8	8.46e-01	0	28	104	4469030912	86	16951
2026-01-15 12:22:17.51	336.79	2.17	-60.5	-73.6	3.8	8.46e-01	0	28	104	4469030912	86	16924

#Closed at: 2026-01-15 12:22:20
#Recorded file [4469 MB]: D:/lorett/data/31004_260115_150756.dat