passes_logs/2026/01/15/R3.2S_Murmansk/R3.2S_Murmansk__20260115_011129_SUOMI_NPP_rec.log

#Pass ID: 20260115_011129_SUOMI NPP
#Satellite: SUOMI NPP
#Configuration: NPP
#almurnet v.1.7.20251203
#Start time: 2026-01-15 01:11:29

#Version: 2.2.20231116
#Station: R3.2S_Murmansk
#Location: 33.079688 lon 68.888172 lat
#TLE: 1 37849U 11061A   26014.61059675  .00000037  00000+0  38639-4 0  9994
#TLE: 2 37849  98.7810 316.6625 0002460  64.3781 295.7649 14.19525105736658

#Time	Az	El	Level	Level2	SNR	BER	BlckErr	Temp	State	Recorded	gain1	gain2
2026-01-15 01:11:29.84	26.30	2.01	-58.3	-74.3	3.8	1.49e+00	0	26	0	0	83	21857
2026-01-15 01:11:33.84	26.27	2.26	-58.3	-74.3	3.8	1.49e+00	0	26	104	0	81	24495
2026-01-15 01:11:37.83	26.24	2.52	-58.3	-74.3	3.8	1.49e+00	0	26	104	0	81	24527
2026-01-15 01:11:41.81	26.21	2.78	-58.3	-74.3	3.8	1.49e+00	0	26	104	0	81	24432
2026-01-15 01:11:45.81	26.18	3.04	-58.3	-74.1	3.8	1.49e+00	0	26	104	0	81	24031
2026-01-15 01:11:49.83	26.14	3.31	-58.2	-73.9	3.8	1.49e+00	0	27	104	0	81	23324
2026-01-15 01:11:53.83	26.11	3.58	-58.3	-74.1	3.8	1.49e+00	0	27	104	0	81	24048
2026-01-15 01:11:57.83	26.07	3.85	-58.3	-74.0	3.8	1.49e+00	0	27	104	0	81	23630
2026-01-15 01:12:01.84	26.04	4.12	-58.0	-69.0	4.8	1.16e+00	0	27	0	1048576	81	13384
2026-01-15 01:12:05.85	26.00	4.40	-57.3	-64.8	7.6	5.47e-02	0	27	0	8388608	81	8241
2026-01-15 01:12:09.86	25.96	4.68	-56.8	-62.9	9.2	1.25e-02	0	27	0	15728640	80	7008
2026-01-15 01:12:13.87	25.92	4.96	-56.9	-63.4	8.8	6.69e-03	0	27	0	23068672	80	7387
2026-01-15 01:12:17.89	25.88	5.25	-57.9	-67.8	5.5	1.74e-02	0	27	0	30408704	80	12274
2026-01-15 01:12:21.88	25.84	5.54	-55.0	-58.7	12.3	1.50e-06	0	27	0	38797312	76	5464
2026-01-15 01:12:25.89	25.80	5.83	-54.9	-58.5	12.5	0.00e+00	0	27	0	46137344	76	5327
2026-01-15 01:12:29.89	25.75	6.12	-54.8	-58.3	12.7	0.00e+00	0	27	0	53477376	76	5180
2026-01-15 01:12:33.87	25.71	6.42	-54.7	-58.2	12.6	0.00e+00	0	27	0	60817408	75	5428
2026-01-15 01:12:37.88	25.66	6.72	-54.5	-57.8	12.9	0.00e+00	0	27	0	68157440	75	5184
2026-01-15 01:12:41.88	25.61	7.03	-54.5	-57.8	12.9	0.00e+00	0	28	0	75497472	75	5183
2026-01-15 01:12:45.87	25.57	7.34	-54.4	-57.6	13.0	0.00e+00	0	27	0	83886080	75	5069
2026-01-15 01:12:49.87	25.51	7.65	-54.3	-57.5	13.1	0.00e+00	0	28	0	91226112	75	5007
2026-01-15 01:12:53.87	25.46	7.97	-54.4	-57.5	13.0	0.00e+00	0	27	0	98566144	74	5325
2026-01-15 01:12:57.88	25.41	8.29	-54.1	-57.1	13.3	0.00e+00	0	28	0	105906176	74	5069
2026-01-15 01:13:01.87	25.35	8.61	-54.1	-57.1	13.3	0.00e+00	0	28	0	113246208	74	5044
2026-01-15 01:13:05.87	25.30	8.94	-53.9	-56.8	13.5	0.00e+00	0	28	0	120586240	74	4886
2026-01-15 01:13:09.85	25.24	9.27	-53.8	-56.6	13.6	0.00e+00	0	28	0	127926272	74	4801
2026-01-15 01:13:13.83	25.18	9.61	-53.9	-56.7	13.6	0.00e+00	0	28	0	136314880	74	4867
2026-01-15 01:13:17.82	25.12	9.95	-53.9	-56.7	13.5	0.00e+00	0	28	0	143654912	74	4842
2026-01-15 01:13:21.82	25.05	10.29	-53.7	-56.3	13.6	0.00e+00	0	28	0	150994944	73	4921
2026-01-15 01:13:25.82	24.99	10.65	-53.6	-56.2	13.7	0.00e+00	0	28	0	158334976	73	4818
2026-01-15 01:13:29.81	24.92	11.00	-53.5	-56.1	13.8	0.00e+00	0	28	0	165675008	73	4764
2026-01-15 01:13:33.80	24.85	11.36	-53.5	-56.0	13.8	0.00e+00	0	28	0	173015040	73	4715
2026-01-15 01:13:37.79	24.78	11.73	-53.4	-55.9	13.9	0.00e+00	0	28	0	180355072	73	4694
2026-01-15 01:13:41.79	24.70	12.10	-53.4	-55.9	13.9	0.00e+00	0	28	0	188743680	73	4681
2026-01-15 01:13:45.78	24.63	12.48	-53.2	-55.6	14.0	0.00e+00	0	28	0	196083712	73	4510
2026-01-15 01:13:49.79	24.55	12.86	-53.2	-55.6	13.9	0.00e+00	0	28	0	203423744	72	4792
2026-01-15 01:13:53.79	24.47	13.25	-53.2	-55.6	14.0	0.00e+00	0	28	0	210763776	72	4767
2026-01-15 01:13:57.78	24.38	13.65	-53.2	-55.6	13.9	0.00e+00	0	28	0	218103808	72	4783
2026-01-15 01:14:01.79	24.29	14.05	-53.1	-55.5	14.0	0.00e+00	0	28	0	225443840	72	4712
2026-01-15 01:14:05.78	24.20	14.46	-53.1	-55.5	14.0	0.00e+00	0	28	0	232783872	72	4731
2026-01-15 01:14:09.77	24.11	14.88	-53.1	-55.5	14.0	0.00e+00	0	28	0	241172480	72	4725
2026-01-15 01:14:13.78	24.02	15.30	-52.9	-55.3	14.1	0.00e+00	0	28	0	248512512	72	4604
2026-01-15 01:14:17.78	23.92	15.74	-52.8	-55.0	14.2	0.00e+00	0	28	0	255852544	72	4476
2026-01-15 01:14:21.76	23.81	16.17	-52.5	-54.7	14.3	0.00e+00	0	28	0	263192576	71	4570
2026-01-15 01:14:25.75	23.71	16.62	-52.4	-54.5	14.4	0.00e+00	0	28	0	270532608	71	4444
2026-01-15 01:14:29.73	23.60	17.07	-52.5	-54.6	14.3	0.00e+00	0	28	0	277872640	71	4494
2026-01-15 01:14:33.72	23.48	17.53	-52.4	-54.4	14.4	0.00e+00	0	28	0	285212672	71	4440
2026-01-15 01:14:37.71	23.37	18.01	-52.5	-54.6	14.3	0.00e+00	0	28	0	293601280	71	4520
2026-01-15 01:14:41.69	23.24	18.48	-52.3	-54.3	14.5	0.00e+00	0	28	0	300941312	71	4361
2026-01-15 01:14:45.68	23.12	18.97	-52.3	-54.3	14.5	0.00e+00	0	28	0	308281344	71	4362
2026-01-15 01:14:49.67	22.99	19.47	-52.2	-54.1	14.4	0.00e+00	0	28	0	315621376	70	4529
2026-01-15 01:14:53.66	22.85	19.98	-52.3	-54.3	14.4	0.00e+00	0	28	0	322961408	70	4634
2026-01-15 01:14:57.68	22.71	20.51	-52.3	-54.3	14.4	0.00e+00	0	28	0	330301440	70	4609
2026-01-15 01:15:01.66	22.56	21.04	-52.2	-54.1	14.4	0.00e+00	0	28	0	337641472	70	4540
2026-01-15 01:15:05.65	22.41	21.58	-52.2	-54.2	14.4	0.00e+00	0	28	0	346030080	70	4553
2026-01-15 01:15:09.66	22.25	22.14	-52.2	-54.2	14.4	0.00e+00	0	28	0	353370112	70	4588
2026-01-15 01:15:13.67	22.08	22.70	-52.2	-54.1	14.5	0.00e+00	0	28	0	360710144	70	4525
2026-01-15 01:15:17.65	21.91	23.28	-52.3	-54.2	14.4	0.00e+00	0	28	0	368050176	70	4594
2026-01-15 01:15:21.65	21.73	23.87	-51.8	-53.6	14.7	0.00e+00	0	28	0	375390208	70	4247
2026-01-15 01:15:25.66	21.54	24.48	-52.1	-54.1	14.4	0.00e+00	0	28	0	382730240	69	4772
2026-01-15 01:15:29.65	21.35	25.10	-52.6	-54.6	14.3	0.00e+00	0	28	0	390070272	70	4774
2026-01-15 01:15:33.63	21.15	25.73	-52.9	-55.1	14.2	0.00e+00	0	28	0	398458880	71	4766
2026-01-15 01:15:37.60	20.93	26.38	-52.1	-54.0	14.6	0.00e+00	0	28	0	405798912	70	4453
2026-01-15 01:15:41.61	20.71	27.04	-52.6	-54.5	14.3	0.00e+00	0	28	0	413138944	70	4758
2026-01-15 01:15:45.60	20.48	27.72	-52.9	-54.9	14.3	0.00e+00	0	28	0	420478976	71	4657
2026-01-15 01:15:49.59	20.24	28.42	-53.1	-55.2	14.1	0.00e+00	0	28	0	427819008	71	4844
2026-01-15 01:15:53.58	19.98	29.13	-52.9	-55.0	14.3	0.00e+00	0	28	0	435159040	71	4707
2026-01-15 01:15:57.57	19.71	29.86	-53.9	-56.3	13.8	0.00e+00	0	28	0	442499072	72	5197
2026-01-15 01:16:01.57	19.43	30.61	-54.0	-56.5	13.8	0.00e+00	0	28	0	449839104	73	4986
2026-01-15 01:16:05.57	19.14	31.39	-53.9	-56.3	13.9	0.00e+00	0	28	0	458227712	73	4889
2026-01-15 01:16:09.57	18.83	32.18	-54.9	-57.7	13.2	0.00e+00	0	28	0	465567744	74	5463
2026-01-15 01:16:13.56	18.50	32.99	-55.5	-58.7	12.9	0.00e+00	0	28	0	472907776	76	5419
2026-01-15 01:16:17.56	18.16	33.82	-55.3	-58.4	13.0	0.00e+00	0	28	0	480247808	76	5276
2026-01-15 01:16:21.56	17.79	34.67	-56.0	-59.9	12.3	0.00e+00	0	28	0	487587840	77	5863
2026-01-15 01:16:25.55	17.41	35.55	-54.6	-57.4	13.5	0.00e+00	0	28	0	494927872	75	4948
2026-01-15 01:16:29.54	17.00	36.44	-55.1	-58.4	12.9	0.00e+00	0	28	0	502267904	75	5536
2026-01-15 01:16:33.54	16.57	37.37	-53.8	-56.3	14.0	0.00e+00	0	28	0	510656512	74	4599
2026-01-15 01:16:37.51	16.12	38.31	-52.6	-54.7	14.4	0.00e+00	0	28	0	517996544	71	4570
2026-01-15 01:16:41.51	15.63	39.28	-53.5	-56.0	13.9	0.00e+00	0	28	0	525336576	72	4995
2026-01-15 01:16:45.48	15.12	40.27	-53.4	-55.6	14.1	0.00e+00	0	28	0	532676608	72	4787
2026-01-15 01:16:49.48	14.57	41.29	-54.0	-56.8	13.6	0.00e+00	0	28	0	540016640	73	5195
2026-01-15 01:16:53.46	13.98	42.34	-53.8	-56.6	13.7	0.00e+00	0	28	0	547356672	73	5092
2026-01-15 01:16:57.46	13.35	43.42	-54.7	-58.0	13.1	0.00e+00	0	28	0	554696704	74	5630
2026-01-15 01:17:01.47	12.68	44.52	-54.3	-57.8	13.1	0.00e+00	0	28	0	563085312	74	5491
2026-01-15 01:17:05.46	11.95	45.65	-53.0	-55.7	14.0	0.00e+00	0	28	0	570425344	72	4861
2026-01-15 01:17:09.45	11.17	46.80	-53.9	-56.6	13.7	0.00e+00	0	28	0	577765376	73	5091
2026-01-15 01:17:13.43	10.33	47.98	-53.3	-55.6	14.1	0.00e+00	0	28	0	585105408	72	4784
2026-01-15 01:17:17.43	9.42	49.19	-53.2	-55.6	14.1	0.00e+00	0	28	0	592445440	72	4763
2026-01-15 01:17:21.42	8.44	50.42	-53.0	-55.3	14.2	0.00e+00	0	28	0	599785472	71	4879
2026-01-15 01:17:25.41	7.37	51.68	-53.0	-55.1	14.3	0.00e+00	0	28	0	607125504	71	4806
2026-01-15 01:17:29.41	6.20	52.96	-53.3	-55.7	14.1	0.00e+00	0	28	0	615514112	72	4846
2026-01-15 01:17:33.40	4.92	54.26	-52.3	-54.3	14.5	0.00e+00	0	28	0	622854144	70	4612
2026-01-15 01:17:37.40	3.52	55.57	-51.9	-53.8	14.6	0.00e+00	0	28	0	630194176	70	4353
2026-01-15 01:17:41.40	1.97	56.90	-54.1	-56.8	13.7	0.00e+00	0	28	0	637534208	73	5196
2026-01-15 01:17:45.38	0.28	58.24	-54.0	-56.4	13.9	0.00e+00	0	28	0	644874240	73	4975
2026-01-15 01:17:49.35	358.41	59.57	-53.5	-55.8	14.1	0.00e+00	0	28	0	652214272	72	4912
2026-01-15 01:17:53.35	356.32	60.91	-53.5	-55.8	14.1	0.00e+00	0	28	0	659554304	72	4876
2026-01-15 01:17:57.35	353.99	62.25	-53.4	-55.7	14.1	0.00e+00	0	28	0	667942912	72	4854
2026-01-15 01:18:01.36	351.39	63.56	-51.2	-53.0	14.9	0.00e+00	0	28	0	675282944	69	4196
2026-01-15 01:18:05.35	348.50	64.84	-52.0	-53.9	14.5	0.00e+00	0	28	0	682622976	69	4674
2026-01-15 01:18:09.34	345.26	66.08	-53.1	-55.3	14.3	0.00e+00	0	28	0	689963008	71	4879
2026-01-15 01:18:13.35	341.62	67.26	-56.2	-59.7	12.5	0.00e+00	0	28	0	697303040	77	5779
2026-01-15 01:18:17.35	337.57	68.35	-54.5	-57.0	13.8	0.00e+00	0	28	0	704643072	75	4725
2026-01-15 01:18:21.35	333.07	69.35	-54.5	-56.9	13.9	0.00e+00	0	28	0	711983104	74	4938
2026-01-15 01:18:25.33	328.14	70.23	-54.5	-57.1	13.7	0.00e+00	0	28	0	720371712	75	4766
2026-01-15 01:18:29.33	322.72	70.96	-54.2	-56.5	13.9	0.00e+00	0	28	0	727711744	73	5025
2026-01-15 01:18:33.33	316.90	71.52	-55.2	-58.1	13.4	0.00e+00	0	28	0	735051776	75	5349
2026-01-15 01:18:37.32	310.77	71.89	-55.8	-59.1	12.8	7.00e-07	0	28	0	742391808	78	5087
2026-01-15 01:18:41.32	304.43	72.06	-54.8	-57.5	13.6	0.00e+00	0	28	0	749731840	75	5024
2026-01-15 01:18:45.29	298.09	72.02	-53.5	-55.6	14.3	0.00e+00	0	28	0	757071872	73	4504
2026-01-15 01:18:49.27	291.83	71.78	-53.4	-55.3	14.4	0.00e+00	0	28	0	764411904	73	4375
2026-01-15 01:18:53.26	285.81	71.33	-55.3	-58.0	13.3	0.00e+00	0	28	0	772800512	75	5332
2026-01-15 01:18:57.26	280.14	70.70	-55.4	-58.1	13.5	0.00e+00	0	28	0	780140544	76	5080
2026-01-15 01:19:01.27	274.88	69.90	-56.0	-59.3	12.8	0.00e+00	0	28	0	787480576	77	5483
2026-01-15 01:19:05.27	270.09	68.98	-56.3	-59.5	12.8	0.00e+00	0	28	0	794820608	77	5637
2026-01-15 01:19:09.27	265.77	67.93	-54.9	-57.4	13.6	0.00e+00	0	28	0	802160640	75	4966
2026-01-15 01:19:13.27	261.88	66.80	-53.0	-54.8	14.5	0.00e+00	0	28	0	809500672	72	4386
2026-01-15 01:19:17.27	258.40	65.60	-53.1	-55.2	14.4	0.00e+00	0	28	0	816840704	72	4556
2026-01-15 01:19:21.27	255.30	64.34	-52.6	-54.5	14.5	0.00e+00	0	28	0	825229312	71	4467
2026-01-15 01:19:25.27	252.52	63.04	-52.0	-53.8	14.7	0.00e+00	0	28	0	832569344	70	4352
2026-01-15 01:19:29.26	250.04	61.72	-51.9	-53.6	14.8	0.00e+00	0	28	0	839909376	70	4285
2026-01-15 01:19:33.26	247.80	60.38	-52.6	-54.7	14.4	0.00e+00	0	28	0	847249408	71	4576
2026-01-15 01:19:37.25	245.80	59.04	-53.5	-55.8	14.1	0.00e+00	0	28	0	854589440	72	4922
2026-01-15 01:19:41.25	243.99	57.69	-52.6	-54.6	14.5	0.00e+00	0	28	0	861929472	71	4497
2026-01-15 01:19:45.22	242.36	56.36	-53.1	-55.3	14.1	0.00e+00	0	28	0	869269504	71	4912
2026-01-15 01:19:49.21	240.88	55.04	-51.1	-52.9	14.6	0.00e+00	0	28	0	877658112	67	4672
2026-01-15 01:19:53.19	239.53	53.73	-53.4	-55.8	14.0	0.00e+00	0	28	0	884998144	71	5200
2026-01-15 01:19:57.19	238.29	52.43	-53.7	-56.4	13.7	0.00e+00	0	28	0	892338176	72	5275
2026-01-15 01:20:01.18	237.16	51.16	-54.4	-57.4	13.4	0.00e+00	0	28	0	899678208	74	5273
2026-01-15 01:20:05.17	236.12	49.91	-53.7	-56.2	13.9	0.00e+00	0	28	0	907018240	73	4857
2026-01-15 01:20:09.17	235.16	48.69	-51.7	-53.4	14.7	0.00e+00	0	28	0	914358272	69	4425
2026-01-15 01:20:13.17	234.28	47.48	-52.8	-54.8	14.4	0.00e+00	0	28	0	921698304	71	4630
2026-01-15 01:20:17.16	233.46	46.31	-54.2	-56.6	13.8	0.00e+00	0	28	0	930086912	73	5084
2026-01-15 01:20:21.16	232.70	45.16	-53.6	-55.8	14.1	0.00e+00	0	28	0	937426944	73	4611
2026-01-15 01:20:25.17	231.99	44.04	-54.3	-56.9	13.9	0.00e+00	0	28	0	944766976	75	4663
2026-01-15 01:20:29.15	231.34	42.95	-56.4	-60.3	12.1	9.10e-06	0	28	0	952107008	78	5822
2026-01-15 01:20:33.15	230.72	41.88	-56.0	-59.8	12.4	0.00e+00	0	28	0	959447040	77	5847
2026-01-15 01:20:37.14	230.15	40.84	-53.7	-56.1	13.9	0.00e+00	0	28	0	966787072	74	4526
2026-01-15 01:20:41.11	229.62	39.83	-55.4	-58.6	12.9	0.00e+00	0	28	0	974127104	75	5707
2026-01-15 01:20:45.08	229.11	38.85	-55.4	-58.7	12.8	0.00e+00	0	28	0	981467136	76	5461
2026-01-15 01:20:49.05	228.64	37.89	-56.1	-60.1	12.2	0.00e+00	0	28	0	989855744	77	6000
2026-01-15 01:20:53.05	228.19	36.95	-53.0	-55.1	14.4	0.00e+00	0	28	0	997195776	72	4503
2026-01-15 01:20:57.03	227.77	36.04	-52.6	-54.6	14.5	0.00e+00	0	28	0	1004535808	71	4511
2026-01-15 01:21:01.03	227.37	35.14	-54.3	-57.0	13.6	0.00e+00	0	28	0	1011875840	73	5284
2026-01-15 01:21:05.02	227.00	34.28	-56.3	-60.2	12.2	2.20e-06	0	28	0	1019215872	78	5737
2026-01-15 01:21:09.00	226.64	33.43	-55.4	-58.6	13.1	0.00e+00	0	28	0	1026555904	76	5402
2026-01-15 01:21:13.00	226.30	32.61	-54.4	-56.9	13.9	0.00e+00	0	28	0	1033895936	75	4670
2026-01-15 01:21:16.99	225.98	31.81	-54.1	-56.7	13.8	0.00e+00	0	28	0	1041235968	74	4819
2026-01-15 01:21:20.99	225.67	31.02	-55.2	-58.4	13.0	0.00e+00	0	28	0	1049624576	75	5577
2026-01-15 01:21:24.99	225.38	30.26	-56.1	-60.1	12.1	2.20e-06	0	28	0	1056964608	77	5997
2026-01-15 01:21:28.98	225.11	29.51	-56.3	-60.5	11.9	1.22e-05	0	28	0	1064304640	78	5959
2026-01-15 01:21:32.98	224.84	28.78	-56.0	-59.8	12.4	0.00e+00	0	28	0	1071644672	78	5482
2026-01-15 01:21:36.97	224.59	28.08	-55.3	-58.4	13.2	0.00e+00	0	28	0	1078984704	77	4982
2026-01-15 01:21:40.97	224.35	27.38	-54.2	-56.7	13.9	0.00e+00	0	28	0	1086324736	75	4577
2026-01-15 01:21:44.97	224.12	26.71	-52.8	-54.7	14.5	0.00e+00	0	28	0	1094713344	72	4314
2026-01-15 01:21:48.93	223.90	26.05	-52.6	-54.5	14.5	0.00e+00	0	28	0	1102053376	71	4465
2026-01-15 01:21:52.92	223.69	25.41	-54.0	-56.5	13.8	0.00e+00	0	28	0	1109393408	73	4986
2026-01-15 01:21:56.89	223.49	24.78	-55.5	-58.8	12.8	0.00e+00	0	28	0	1116733440	76	5493
2026-01-15 01:22:00.88	223.30	24.17	-55.3	-58.5	13.1	0.00e+00	0	28	0	1124073472	77	4990
2026-01-15 01:22:04.88	223.11	23.57	-54.7	-57.4	13.6	0.00e+00	0	28	0	1131413504	76	4695
2026-01-15 01:22:08.88	222.93	22.98	-54.1	-56.5	13.9	0.00e+00	0	28	0	1138753536	74	4735
2026-01-15 01:22:12.86	222.76	22.40	-53.9	-56.3	14.0	0.00e+00	0	28	0	1146093568	74	4621
2026-01-15 01:22:16.86	222.60	21.84	-53.5	-55.9	14.1	0.00e+00	0	28	0	1154482176	73	4652
2026-01-15 01:22:20.85	222.44	21.29	-53.0	-55.2	14.3	0.00e+00	0	28	0	1161822208	72	4546
2026-01-15 01:22:24.85	222.29	20.75	-53.0	-55.2	14.2	0.00e+00	0	28	0	1169162240	72	4591
2026-01-15 01:22:28.86	222.14	20.22	-53.3	-55.7	14.1	0.00e+00	0	28	0	1176502272	72	4822
2026-01-15 01:22:32.85	222.00	19.70	-53.4	-55.7	14.0	0.00e+00	0	28	0	1183842304	72	4861
2026-01-15 01:22:36.86	221.86	19.19	-53.3	-55.7	14.0	0.00e+00	0	28	0	1191182336	72	4819
2026-01-15 01:22:40.84	221.73	18.70	-53.5	-55.9	13.9	0.00e+00	0	28	0	1198522368	72	4952
2026-01-15 01:22:44.84	221.61	18.21	-54.2	-56.9	13.5	0.00e+00	0	28	0	1206910976	73	5222
2026-01-15 01:22:48.83	221.48	17.73	-55.0	-58.2	13.0	0.00e+00	0	28	0	1214251008	75	5425
2026-01-15 01:22:52.83	221.36	17.26	-54.8	-57.8	13.2	0.00e+00	0	28	0	1221591040	75	5187
2026-01-15 01:22:56.83	221.25	16.80	-54.4	-57.2	13.5	0.00e+00	0	28	0	1228931072	75	4816
2026-01-15 01:23:00.84	221.14	16.35	-53.8	-56.2	13.9	0.00e+00	0	28	0	1236271104	74	4589
2026-01-15 01:23:04.85	221.03	15.90	-53.7	-56.1	13.9	0.00e+00	0	28	0	1243611136	73	4809
2026-01-15 01:23:08.83	220.93	15.47	-54.2	-56.9	13.5	0.00e+00	0	28	0	1250951168	73	5224
2026-01-15 01:23:12.83	220.83	15.04	-54.7	-57.7	13.1	0.00e+00	0	28	0	1259339776	74	5406
2026-01-15 01:23:16.82	220.73	14.62	-55.3	-58.1	13.1	0.00e+00	0	28	0	1266679808	76	5087
2026-01-15 01:23:20.82	220.64	14.20	-55.3	-58.1	13.2	0.00e+00	0	28	0	1274019840	76	5051
2026-01-15 01:23:24.80	220.55	13.80	-54.6	-57.1	13.6	0.00e+00	0	28	0	1281359872	75	4771
2026-01-15 01:23:28.80	220.46	13.39	-54.0	-56.2	13.9	0.00e+00	0	28	0	1288699904	74	4566
2026-01-15 01:23:32.79	220.37	13.00	-53.7	-55.8	14.1	0.00e+00	0	28	0	1296039936	74	4378
2026-01-15 01:23:36.79	220.29	12.61	-53.5	-55.5	14.1	0.00e+00	0	28	0	1303379968	73	4480
2026-01-15 01:23:40.77	220.21	12.23	-53.2	-55.2	14.3	0.00e+00	0	28	0	1311768576	73	4311
2026-01-15 01:23:44.75	220.13	11.86	-53.3	-55.3	14.1	0.00e+00	0	28	0	1319108608	72	4636
2026-01-15 01:23:48.74	220.06	11.49	-53.5	-55.7	14.0	0.00e+00	0	28	0	1326448640	72	4820
2026-01-15 01:23:52.72	219.99	11.12	-53.8	-56.1	13.9	0.00e+00	0	28	0	1333788672	73	4771
2026-01-15 01:23:56.71	219.91	10.76	-54.1	-56.4	13.7	0.00e+00	0	28	0	1341128704	73	4982
2026-01-15 01:24:00.70	219.85	10.41	-54.1	-56.5	13.6	0.00e+00	0	28	0	1348468736	73	5014
2026-01-15 01:24:04.68	219.78	10.06	-54.5	-57.1	13.5	0.00e+00	0	28	0	1355808768	74	5049
2026-01-15 01:24:08.67	219.71	9.71	-54.7	-57.4	13.3	0.00e+00	0	28	0	1363148800	74	5229
2026-01-15 01:24:12.68	219.65	9.37	-54.9	-57.6	13.2	0.00e+00	0	28	0	1371537408	75	5089
2026-01-15 01:24:16.68	219.59	9.04	-55.0	-57.8	13.1	0.00e+00	0	28	0	1378877440	75	5169
2026-01-15 01:24:20.68	219.53	8.71	-55.2	-58.1	12.9	0.00e+00	0	28	0	1386217472	75	5376
2026-01-15 01:24:24.69	219.47	8.38	-55.2	-58.2	12.8	0.00e+00	0	28	0	1393557504	75	5449
2026-01-15 01:24:28.68	219.41	8.05	-55.3	-58.3	12.7	0.00e+00	0	28	0	1400897536	75	5518
2026-01-15 01:24:32.67	219.36	7.74	-55.3	-58.4	12.7	0.00e+00	0	28	0	1408237568	75	5557
2026-01-15 01:24:36.65	219.30	7.42	-55.5	-58.8	12.6	0.00e+00	0	28	0	1416626176	76	5486
2026-01-15 01:24:40.63	219.25	7.11	-55.6	-59.0	12.4	0.00e+00	0	28	0	1423966208	76	5654
2026-01-15 01:24:44.62	219.20	6.81	-55.4	-58.7	12.6	0.00e+00	0	28	0	1431306240	76	5431
2026-01-15 01:24:48.61	219.15	6.50	-55.7	-59.3	12.2	0.00e+00	0	28	0	1438646272	76	5793
2026-01-15 01:24:52.59	219.10	6.20	-55.8	-59.4	12.1	0.00e+00	0	28	0	1445986304	77	5543
2026-01-15 01:24:56.56	219.05	5.91	-55.7	-59.4	12.1	0.00e+00	0	28	0	1453326336	77	5558
2026-01-15 01:25:00.54	219.01	5.62	-55.8	-59.5	12.0	3.80e-06	0	28	0	1460666368	77	5615
2026-01-15 01:25:04.53	218.96	5.32	-56.0	-60.0	11.6	2.20e-06	0	28	0	1468006400	77	5968
2026-01-15 01:25:08.53	218.92	5.04	-56.0	-60.0	11.6	3.50e-05	0	28	0	1475346432	77	5951
2026-01-15 01:25:12.53	218.88	4.75	-59.9	-76.0	3.8	1.49e+00	0	28	104	1477443584	84	24997
2026-01-15 01:25:16.52	218.83	4.47	-60.3	-76.4	3.8	1.49e+00	0	28	104	1477443584	85	24774
2026-01-15 01:25:20.52	218.79	4.19	-60.5	-76.6	3.8	1.49e+00	0	28	104	1477443584	86	23966
2026-01-15 01:25:24.51	218.75	3.92	-60.6	-76.7	3.8	1.49e+00	0	28	104	1477443584	86	24237
2026-01-15 01:25:28.52	218.72	3.64	-60.7	-76.8	3.8	1.49e+00	0	28	104	1477443584	86	24450
2026-01-15 01:25:32.50	218.68	3.38	-60.7	-76.8	3.8	1.49e+00	0	28	104	1477443584	86	24583
2026-01-15 01:25:36.51	218.64	3.11	-60.7	-76.7	3.8	1.49e+00	0	28	104	1477443584	86	24381
2026-01-15 01:25:40.52	218.61	2.84	-60.6	-76.7	3.8	1.49e+00	0	28	104	1477443584	86	24192
2026-01-15 01:25:44.53	218.57	2.58	-60.6	-76.6	3.8	1.49e+00	0	28	104	1477443584	86	24096
2026-01-15 01:25:48.24	218.54	2.34	-60.6	-76.6	3.8	1.49e+00	0	28	104	1477443584	86	24121
2026-01-15 01:25:52.26	218.50	2.08	-60.6	-76.6	3.8	1.49e+00	0	28	104	1477443584	86	24118

#Closed at: 2026-01-15 01:25:53
#Recorded file [1477 MB]: D:/lorett/data/31004_260115_041129.dat