passes_logs/2026/01/15/R3.2S_Murmansk/R3.2S_Murmansk__20260115_071004_FENGYUN_3D_rec.log

#Pass ID: 20260115_071004_FENGYUN 3D
#Satellite: FENGYUN 3D
#Configuration: FENGYUN 3D
#almurnet v.1.7.20251203
#Start time: 2026-01-15 07:10:04

#Version: 2.2.20231116
#Station: R3.2S_Murmansk
#Location: 33.079688 lon 68.888172 lat
#TLE: 1 43010U 17072A   26014.65117763 -.00000217  00000+0 -80772-4 0  9993
#TLE: 2 43010  98.9933 346.4618 0002330 108.4699 251.6730 14.19694700423204

#Time	Az	El	Level	Level2	SNR	BER	BlckErr	Temp	State	Recorded	gain1	gain2
2026-01-15 07:10:04.24	61.91	1.96	-58.1	-71.1	3.8	8.48e-01	0	26	0	0	82	16097
2026-01-15 07:10:08.20	61.66	2.19	-58.1	-71.1	3.8	8.46e-01	0	26	104	0	81	16944
2026-01-15 07:10:12.19	61.41	2.42	-58.1	-71.0	3.8	8.47e-01	0	26	104	0	81	16880
2026-01-15 07:10:16.19	61.15	2.65	-58.1	-71.1	3.8	8.44e-01	0	26	104	0	81	16943
2026-01-15 07:10:20.16	60.88	2.88	-58.1	-71.1	3.8	8.44e-01	0	26	104	0	81	16921
2026-01-15 07:10:24.15	60.62	3.11	-58.1	-71.1	3.8	8.47e-01	0	26	104	0	81	17018
2026-01-15 07:10:28.15	60.34	3.35	-58.1	-71.0	3.8	8.46e-01	0	26	104	0	81	16877
2026-01-15 07:10:32.14	60.06	3.58	-58.1	-71.1	3.8	8.46e-01	0	27	104	0	81	17040
2026-01-15 07:10:36.13	59.78	3.82	-58.1	-70.8	3.8	8.45e-01	0	27	104	0	81	16351
2026-01-15 07:10:40.14	59.49	4.06	-58.1	-71.1	3.8	8.45e-01	0	27	104	0	81	17052
2026-01-15 07:10:44.13	59.20	4.30	-57.9	-68.7	3.8	8.43e-01	0	27	104	0	81	12866
2026-01-15 07:10:48.13	58.90	4.54	-57.2	-64.2	5.7	6.47e-01	0	27	0	1048576	81	7687
2026-01-15 07:10:52.14	58.60	4.78	-56.2	-60.8	8.4	3.79e-02	0	27	0	24117248	79	5789
2026-01-15 07:10:56.14	58.29	5.03	-55.9	-60.2	8.9	1.98e-02	0	27	0	46137344	78	5754
2026-01-15 07:11:00.12	57.98	5.27	-52.9	-55.0	12.7	1.10e-06	0	27	0	68157440	72	4490
2026-01-15 07:11:04.11	57.66	5.52	-52.8	-54.9	12.7	0.00e+00	0	27	0	88080384	71	4696
2026-01-15 07:11:08.10	57.34	5.77	-51.4	-53.1	13.7	0.00e+00	0	27	0	110100480	69	4265
2026-01-15 07:11:12.06	57.01	6.01	-50.9	-52.5	13.9	0.00e+00	0	27	0	133169152	68	4226
2026-01-15 07:11:16.05	56.67	6.26	-51.1	-52.7	13.8	0.00e+00	0	27	0	155189248	68	4321
2026-01-15 07:11:20.06	56.33	6.52	-50.9	-52.5	13.9	0.00e+00	0	27	0	178257920	68	4228
2026-01-15 07:11:24.06	55.98	6.77	-50.4	-52.0	14.0	0.00e+00	0	27	0	200278016	67	4213
2026-01-15 07:11:28.05	55.63	7.03	-50.5	-52.1	14.0	0.00e+00	0	27	0	223346688	67	4268
2026-01-15 07:11:32.05	55.26	7.29	-50.7	-52.3	13.9	0.00e+00	0	27	0	245366784	67	4355
2026-01-15 07:11:36.05	54.89	7.54	-50.1	-51.5	14.2	0.00e+00	0	27	0	267386880	66	4234
2026-01-15 07:11:40.02	54.52	7.80	-49.9	-51.3	14.3	0.00e+00	0	27	0	290455552	66	4144
2026-01-15 07:11:44.00	54.14	8.06	-50.0	-51.4	14.3	0.00e+00	0	27	0	312475648	66	4173
2026-01-15 07:11:48.02	53.75	8.33	-49.6	-51.0	14.3	0.00e+00	0	27	0	335544320	65	4240
2026-01-15 07:11:52.01	53.35	8.59	-49.8	-51.2	14.3	0.00e+00	0	27	0	357564416	65	4321
2026-01-15 07:11:56.00	52.95	8.86	-50.0	-51.4	14.2	0.00e+00	0	27	0	379584512	65	4424
2026-01-15 07:11:59.98	52.54	9.12	-49.8	-51.2	14.3	0.00e+00	0	28	0	402653184	65	4306
2026-01-15 07:12:03.96	52.12	9.39	-49.6	-51.0	14.4	0.00e+00	0	27	0	424673280	65	4201
2026-01-15 07:12:07.93	51.70	9.66	-49.6	-51.0	14.4	0.00e+00	0	27	0	447741952	65	4197
2026-01-15 07:12:11.91	51.26	9.93	-49.8	-51.2	14.3	0.00e+00	0	27	0	469762048	65	4307
2026-01-15 07:12:15.88	50.82	10.20	-49.6	-51.0	14.4	0.00e+00	0	27	0	491782144	65	4205
2026-01-15 07:12:19.86	50.37	10.48	-49.2	-50.5	14.5	0.00e+00	0	28	0	513802240	64	4209
2026-01-15 07:12:23.85	49.91	10.75	-49.0	-50.3	14.6	0.00e+00	0	27	0	536870912	64	4138
2026-01-15 07:12:27.82	49.44	11.03	-49.0	-50.3	14.6	0.00e+00	0	27	0	558891008	64	4120
2026-01-15 07:12:31.81	48.96	11.30	-49.0	-50.4	14.6	0.00e+00	0	27	0	581959680	64	4147
2026-01-15 07:12:35.78	48.47	11.58	-48.9	-50.1	14.7	0.00e+00	0	27	0	603979776	64	4047
2026-01-15 07:12:39.76	47.98	11.86	-48.9	-50.2	14.7	0.00e+00	0	27	0	625999872	64	4059
2026-01-15 07:12:43.75	47.47	12.14	-48.7	-50.0	14.7	0.00e+00	0	27	0	649068544	64	3995
2026-01-15 07:12:47.73	46.95	12.42	-48.8	-50.1	14.7	0.00e+00	0	27	0	671088640	64	4040
2026-01-15 07:12:51.72	46.42	12.70	-48.6	-49.9	14.7	0.00e+00	0	28	0	693108736	63	4161
2026-01-15 07:12:55.70	45.88	12.99	-48.6	-49.8	14.7	0.00e+00	0	27	0	716177408	63	4140
2026-01-15 07:12:59.68	45.34	13.27	-48.4	-49.7	14.8	0.00e+00	0	27	0	738197504	63	4065
2026-01-15 07:13:03.69	44.77	13.55	-48.3	-49.6	14.8	0.00e+00	0	27	0	761266176	63	4013
2026-01-15 07:13:07.70	44.20	13.84	-48.3	-49.5	14.9	0.00e+00	0	27	0	783286272	63	3972
2026-01-15 07:13:11.70	43.61	14.13	-48.4	-49.6	14.8	0.00e+00	0	27	0	806354944	63	4031
2026-01-15 07:13:15.71	43.01	14.41	-48.3	-49.6	14.8	0.00e+00	0	27	0	828375040	63	4008
2026-01-15 07:13:19.70	42.41	14.70	-48.1	-49.3	14.8	0.00e+00	0	28	0	850395136	62	4121
2026-01-15 07:13:23.71	41.79	14.99	-47.9	-49.1	14.9	0.00e+00	0	28	0	873463808	62	4038
2026-01-15 07:13:27.72	41.15	15.27	-48.0	-49.2	14.8	0.00e+00	0	28	0	895483904	62	4059
2026-01-15 07:13:31.73	40.51	15.56	-48.0	-49.2	14.9	0.00e+00	0	28	0	918552576	62	4065
2026-01-15 07:13:35.75	39.84	15.85	-47.8	-49.0	14.9	0.00e+00	0	27	0	941621248	62	4004
2026-01-15 07:13:39.76	39.17	16.14	-47.7	-48.9	15.0	0.00e+00	0	28	0	963641344	62	3946
2026-01-15 07:13:43.78	38.49	16.42	-47.7	-48.9	15.0	0.00e+00	0	28	0	986710016	62	3949
2026-01-15 07:13:47.79	37.79	16.71	-47.8	-49.0	14.9	0.00e+00	0	27	0	1008730112	62	3987
2026-01-15 07:13:51.80	37.07	16.99	-47.8	-49.0	15.0	0.00e+00	0	28	0	1031798784	62	3979
2026-01-15 07:13:55.82	36.35	17.27	-47.4	-48.6	15.0	0.00e+00	0	28	0	1053818880	61	4024
2026-01-15 07:13:59.83	35.61	17.55	-47.3	-48.4	15.0	0.00e+00	0	27	0	1076887552	61	3955
2026-01-15 07:14:03.85	34.85	17.83	-47.2	-48.4	15.1	0.00e+00	0	28	0	1098907648	61	3926
2026-01-15 07:14:07.86	34.08	18.11	-47.1	-48.2	15.0	0.00e+00	0	27	0	1121976320	60	4098
2026-01-15 07:14:11.88	33.30	18.38	-47.0	-48.1	15.0	0.00e+00	0	28	0	1143996416	60	4030
2026-01-15 07:14:15.89	32.50	18.65	-46.7	-47.8	15.1	0.00e+00	0	28	0	1167065088	60	3911
2026-01-15 07:14:19.90	31.69	18.92	-47.0	-48.1	15.0	0.00e+00	0	28	0	1189085184	60	4034
2026-01-15 07:14:23.91	30.86	19.18	-46.8	-48.0	15.1	0.00e+00	0	28	0	1212153856	60	3965
2026-01-15 07:14:27.93	30.02	19.45	-46.7	-47.9	15.1	0.00e+00	0	28	0	1234173952	60	3914
2026-01-15 07:14:31.93	29.17	19.70	-46.9	-48.1	15.0	0.00e+00	0	28	0	1257242624	60	4011
2026-01-15 07:14:35.93	28.30	19.96	-46.9	-48.1	14.9	0.00e+00	0	28	0	1279262720	59	4259
2026-01-15 07:14:39.94	27.42	20.20	-47.0	-48.1	14.9	0.00e+00	0	28	0	1302331392	59	4291
2026-01-15 07:14:43.93	26.52	20.45	-47.2	-48.4	14.9	0.00e+00	0	28	0	1324351488	59	4392
2026-01-15 07:14:47.93	25.61	20.68	-47.1	-48.2	14.9	0.00e+00	0	28	0	1347420160	59	4316
2026-01-15 07:14:51.91	24.69	20.92	-47.0	-48.1	14.9	0.00e+00	0	28	0	1369440256	59	4285
2026-01-15 07:14:55.89	23.76	21.14	-46.7	-47.8	15.1	0.00e+00	0	28	0	1392508928	59	4102
2026-01-15 07:14:59.87	22.81	21.36	-46.9	-48.1	15.0	0.00e+00	0	28	0	1414529024	59	4250
2026-01-15 07:15:03.84	21.85	21.57	-46.7	-47.8	15.0	0.00e+00	0	28	0	1436549120	59	4145
2026-01-15 07:15:07.82	20.88	21.78	-46.8	-47.9	15.0	0.00e+00	0	28	0	1458569216	59	4188
2026-01-15 07:15:11.81	19.89	21.98	-46.6	-47.8	15.1	0.00e+00	0	28	0	1481637888	59	4104
2026-01-15 07:15:15.79	18.89	22.17	-46.7	-47.9	15.0	0.00e+00	0	28	0	1503657984	59	4155
2026-01-15 07:15:19.76	17.88	22.35	-46.5	-47.6	15.1	0.00e+00	0	28	0	1525678080	59	4016
2026-01-15 07:15:23.74	16.86	22.52	-46.4	-47.5	15.1	0.00e+00	0	28	0	1548746752	59	3993
2026-01-15 07:15:27.72	15.82	22.69	-46.5	-47.6	15.1	0.00e+00	0	28	0	1570766848	59	4019
2026-01-15 07:15:31.69	14.78	22.84	-46.4	-47.5	15.2	0.00e+00	0	28	0	1593835520	59	3977
2026-01-15 07:15:35.67	13.73	22.99	-46.7	-47.8	15.1	0.00e+00	0	28	0	1615855616	59	4118
2026-01-15 07:15:39.66	12.66	23.12	-46.6	-47.7	15.1	0.00e+00	0	28	0	1637875712	59	4072
2026-01-15 07:15:43.63	11.59	23.25	-46.6	-47.7	15.1	0.00e+00	0	28	0	1659895808	59	4056
2026-01-15 07:15:47.61	10.50	23.37	-46.2	-47.3	15.2	0.00e+00	0	28	0	1682964480	59	3900
2026-01-15 07:15:51.58	9.42	23.47	-46.0	-47.1	15.1	0.00e+00	0	28	0	1704984576	58	4048
2026-01-15 07:15:55.55	8.32	23.57	-46.0	-47.0	15.2	0.00e+00	0	28	0	1728053248	58	4001
2026-01-15 07:15:59.52	7.22	23.65	-46.1	-47.2	15.1	0.00e+00	0	28	0	1750073344	58	4090
2026-01-15 07:16:03.51	6.11	23.72	-46.3	-47.4	15.1	0.00e+00	0	28	0	1772093440	58	4158
2026-01-15 07:16:07.47	5.00	23.78	-46.1	-47.2	15.1	0.00e+00	0	28	0	1794113536	58	4058
2026-01-15 07:16:11.45	3.88	23.83	-46.1	-47.1	15.2	0.00e+00	0	28	0	1817182208	58	4044
2026-01-15 07:16:15.44	2.76	23.87	-46.1	-47.1	15.1	0.00e+00	0	28	0	1839202304	58	4048
2026-01-15 07:16:19.41	1.63	23.89	-46.0	-47.1	15.2	0.00e+00	0	28	0	1861222400	58	4021
2026-01-15 07:16:23.40	0.51	23.91	-46.1	-47.1	15.1	0.00e+00	0	28	0	1884291072	58	4044
2026-01-15 07:16:27.39	359.38	23.91	-45.9	-47.0	15.2	0.00e+00	0	28	0	1906311168	58	3973
2026-01-15 07:16:31.39	358.25	23.90	-46.0	-47.1	15.2	0.00e+00	0	28	0	1929379840	58	4015
2026-01-15 07:16:35.39	357.12	23.87	-46.1	-47.2	15.1	0.00e+00	0	28	0	1951399936	58	4063
2026-01-15 07:16:39.39	355.99	23.84	-46.0	-47.0	15.2	0.00e+00	0	28	0	1974468608	58	4000
2026-01-15 07:16:43.39	354.87	23.79	-46.0	-47.0	15.2	0.00e+00	0	28	0	1996488704	58	3996
2026-01-15 07:16:47.37	353.75	23.73	-46.0	-47.1	15.2	0.00e+00	0	28	0	2018508800	58	4022
2026-01-15 07:16:51.37	352.63	23.66	-45.9	-46.9	15.2	0.00e+00	0	28	0	2041577472	58	3950
2026-01-15 07:16:55.36	351.53	23.58	-46.0	-47.1	15.2	0.00e+00	0	28	0	2063597568	58	4023
2026-01-15 07:16:59.35	350.43	23.49	-46.1	-47.1	15.1	0.00e+00	0	28	0	2086666240	58	4048
2026-01-15 07:17:03.34	349.33	23.38	-46.1	-47.2	15.1	0.00e+00	0	28	0	2108686336	58	4074
2026-01-15 07:17:07.33	348.24	23.27	-46.1	-47.2	15.1	0.00e+00	0	28	0	2130706432	58	4072
2026-01-15 07:17:11.31	347.17	23.15	-46.1	-47.1	15.1	0.00e+00	0	28	0	2153775104	58	4045
2026-01-15 07:17:15.29	346.10	23.01	-46.2	-47.3	15.1	0.00e+00	0	28	0	2175795200	58	4100
2026-01-15 07:17:19.26	345.05	22.87	-46.0	-47.0	15.2	0.00e+00	0	28	0	2198863872	58	4000
2026-01-15 07:17:23.24	344.00	22.71	-46.1	-47.2	15.1	0.00e+00	0	28	0	2220883968	58	4083
2026-01-15 07:17:27.21	342.96	22.55	-46.2	-47.3	15.1	0.00e+00	0	28	0	2242904064	58	4109
2026-01-15 07:17:31.18	341.94	22.38	-46.1	-47.2	15.1	0.00e+00	0	28	0	2264924160	58	4093
2026-01-15 07:17:35.17	340.93	22.19	-46.1	-47.2	15.1	0.00e+00	0	28	0	2287992832	58	4052
2026-01-15 07:17:39.15	339.92	22.01	-46.2	-47.3	15.1	0.00e+00	0	28	0	2310012928	58	4123
2026-01-15 07:17:43.16	338.93	21.81	-46.4	-47.5	15.0	0.00e+00	0	28	0	2333081600	58	4211
2026-01-15 07:17:47.15	337.95	21.60	-46.3	-47.4	15.1	0.00e+00	0	28	0	2355101696	58	4154
2026-01-15 07:17:51.13	336.99	21.39	-46.5	-47.6	15.0	0.00e+00	0	28	0	2377121792	58	4260
2026-01-15 07:17:55.10	336.04	21.17	-46.3	-47.4	15.1	0.00e+00	0	28	0	2400190464	58	4150
2026-01-15 07:17:59.08	335.10	20.95	-46.4	-47.5	15.0	0.00e+00	0	28	0	2422210560	58	4205
2026-01-15 07:18:03.07	334.18	20.72	-46.5	-47.6	15.0	0.00e+00	0	28	0	2444230656	58	4290
2026-01-15 07:18:07.04	333.27	20.48	-46.6	-47.7	15.0	0.00e+00	0	28	0	2467299328	58	4330
2026-01-15 07:18:11.05	332.37	20.24	-46.9	-48.0	15.0	0.00e+00	0	28	0	2489319424	59	4221
2026-01-15 07:18:15.02	331.49	19.99	-46.9	-48.0	15.0	0.00e+00	0	28	0	2512388096	59	4204
2026-01-15 07:18:18.98	330.63	19.74	-46.7	-47.8	15.0	0.00e+00	0	28	0	2534408192	59	4142
2026-01-15 07:18:22.97	329.78	19.49	-47.2	-48.3	14.9	0.00e+00	0	28	0	2556428288	59	4370
2026-01-15 07:18:26.96	328.94	19.23	-47.3	-48.5	14.9	0.00e+00	0	28	0	2579496960	59	4458
2026-01-15 07:18:30.95	328.12	18.97	-47.2	-48.3	14.9	0.00e+00	0	28	0	2601517056	59	4382
2026-01-15 07:18:34.96	327.30	18.70	-47.3	-48.5	14.9	0.00e+00	0	28	0	2624585728	59	4456
2026-01-15 07:18:38.95	326.51	18.43	-47.2	-48.3	14.9	0.00e+00	0	28	0	2646605824	59	4367
2026-01-15 07:18:42.97	325.72	18.16	-47.2	-48.4	14.9	0.00e+00	0	28	0	2669674496	59	4422
2026-01-15 07:18:46.97	324.95	17.88	-47.2	-48.4	14.9	0.00e+00	0	28	0	2691694592	59	4399
2026-01-15 07:18:50.98	324.19	17.60	-47.1	-48.2	15.0	0.00e+00	0	28	0	2714763264	60	4077
2026-01-15 07:18:54.98	323.45	17.32	-46.9	-48.0	15.1	0.00e+00	0	28	0	2736783360	60	3964
2026-01-15 07:18:58.99	322.72	17.04	-46.8	-47.9	15.1	0.00e+00	0	28	0	2759852032	60	3956
2026-01-15 07:19:02.99	322.01	16.76	-46.9	-48.0	15.0	0.00e+00	0	28	0	2781872128	60	4004
2026-01-15 07:19:06.99	321.31	16.48	-47.0	-48.1	15.0	0.00e+00	0	28	0	2804940800	60	4040
2026-01-15 07:19:11.00	320.62	16.19	-47.4	-48.5	14.9	0.00e+00	0	28	0	2826960896	60	4239
2026-01-15 07:19:15.00	319.95	15.91	-47.5	-48.6	14.8	0.00e+00	0	28	0	2848980992	60	4280
2026-01-15 07:19:19.00	319.29	15.62	-47.5	-48.6	14.8	0.00e+00	0	28	0	2872049664	60	4286
2026-01-15 07:19:23.01	318.64	15.33	-47.4	-48.6	14.8	0.00e+00	0	28	0	2894069760	60	4264
2026-01-15 07:19:26.98	318.01	15.05	-47.5	-48.7	14.8	0.00e+00	0	28	0	2917138432	60	4296
2026-01-15 07:19:30.97	317.39	14.76	-47.7	-48.9	14.8	0.00e+00	0	28	0	2939158528	60	4394
2026-01-15 07:19:34.95	316.78	14.48	-47.8	-49.0	14.7	0.00e+00	0	28	0	2961178624	60	4455
2026-01-15 07:19:38.95	316.18	14.19	-47.8	-49.0	14.7	0.00e+00	0	28	0	2984247296	60	4447
2026-01-15 07:19:42.93	315.60	13.91	-47.9	-49.1	14.7	0.00e+00	0	28	0	3006267392	60	4508
2026-01-15 07:19:46.91	315.02	13.62	-48.0	-49.2	14.8	0.00e+00	0	28	0	3029336064	61	4304
2026-01-15 07:19:50.89	314.46	13.34	-48.0	-49.2	14.7	0.00e+00	0	28	0	3051356160	61	4340
2026-01-15 07:19:54.89	313.91	13.05	-48.3	-49.5	14.6	0.00e+00	0	28	0	3073376256	61	4491
2026-01-15 07:19:58.89	313.36	12.77	-48.3	-49.5	14.6	0.00e+00	0	28	0	3096444928	61	4466
2026-01-15 07:20:02.92	312.83	12.48	-48.3	-49.5	14.6	0.00e+00	0	28	0	3118465024	61	4463
2026-01-15 07:20:06.93	312.30	12.20	-48.4	-49.6	14.7	0.00e+00	0	28	0	3141533696	62	4273
2026-01-15 07:20:10.92	311.79	11.92	-48.4	-49.6	14.7	0.00e+00	0	28	0	3163553792	62	4272
2026-01-15 07:20:14.90	311.29	11.64	-48.8	-50.1	14.5	0.00e+00	0	28	0	3186622464	62	4497
2026-01-15 07:20:18.88	310.80	11.36	-48.6	-49.8	14.6	0.00e+00	0	28	0	3208642560	62	4369
2026-01-15 07:20:22.87	310.32	11.08	-48.7	-50.0	14.5	0.00e+00	0	28	0	3230662656	62	4468
2026-01-15 07:20:26.87	309.85	10.81	-49.0	-50.3	14.5	0.00e+00	0	28	0	3253731328	63	4350
2026-01-15 07:20:30.87	309.38	10.53	-49.2	-50.5	14.4	0.00e+00	0	28	0	3275751424	63	4457
2026-01-15 07:20:34.88	308.93	10.26	-49.2	-50.5	14.4	0.00e+00	0	28	0	3298820096	63	4464
2026-01-15 07:20:38.89	308.48	9.98	-49.0	-50.3	14.5	0.00e+00	0	28	0	3320840192	63	4391
2026-01-15 07:20:42.90	308.04	9.71	-49.0	-50.3	14.5	0.00e+00	0	28	0	3343908864	63	4358
2026-01-15 07:20:46.92	307.61	9.44	-49.2	-50.5	14.4	0.00e+00	0	28	0	3365928960	63	4482
2026-01-15 07:20:50.94	307.18	9.17	-49.4	-50.7	14.3	0.00e+00	0	28	0	3388997632	63	4593
2026-01-15 07:20:54.96	306.77	8.90	-49.3	-50.7	14.4	0.00e+00	0	28	0	3412066304	64	4306
2026-01-15 07:20:58.97	306.36	8.63	-49.3	-50.7	14.4	0.00e+00	0	28	0	3434086400	64	4314
2026-01-15 07:21:02.99	305.96	8.36	-49.5	-50.9	14.3	0.00e+00	0	28	0	3457155072	64	4404
2026-01-15 07:21:07.02	305.57	8.10	-49.8	-51.2	14.2	0.00e+00	0	28	0	3479175168	64	4562
2026-01-15 07:21:11.04	305.18	7.83	-49.9	-51.3	14.1	0.00e+00	0	28	0	3502243840	64	4641
2026-01-15 07:21:15.05	304.80	7.57	-49.8	-51.2	14.2	0.00e+00	0	28	0	3524263936	64	4568
2026-01-15 07:21:19.07	304.43	7.31	-49.8	-51.3	14.2	0.00e+00	0	28	0	3547332608	65	4352
2026-01-15 07:21:23.09	304.07	7.05	-49.8	-51.2	14.2	0.00e+00	0	28	0	3570401280	65	4330
2026-01-15 07:21:27.10	303.71	6.80	-49.7	-51.1	14.3	0.00e+00	0	28	0	3592421376	65	4280
2026-01-15 07:21:31.12	303.36	6.54	-49.9	-51.3	14.2	0.00e+00	0	28	0	3615490048	65	4390
2026-01-15 07:21:35.15	303.01	6.28	-49.9	-51.4	14.1	0.00e+00	0	28	0	3637510144	65	4416
2026-01-15 07:21:39.17	302.67	6.03	-49.8	-51.3	14.2	0.00e+00	0	28	0	3660578816	65	4346
2026-01-15 07:21:43.19	302.34	5.78	-50.0	-51.5	14.0	0.00e+00	0	28	0	3682598912	65	4479
2026-01-15 07:21:47.21	302.01	5.53	-50.3	-51.8	13.9	0.00e+00	0	28	0	3705667584	65	4637
2026-01-15 07:21:51.23	301.69	5.28	-50.4	-52.0	13.9	0.00e+00	0	28	0	3727687680	66	4456
2026-01-15 07:21:55.23	301.38	5.03	-50.4	-51.9	13.9	0.00e+00	0	28	0	3750756352	66	4431
2026-01-15 07:21:59.24	301.07	4.79	-59.7	-72.6	3.8	8.46e-01	0	28	104	3753902080	84	17043
2026-01-15 07:22:03.25	300.76	4.55	-60.2	-73.2	3.8	8.46e-01	0	28	104	3753902080	85	17262
2026-01-15 07:22:07.26	300.46	4.30	-60.5	-73.6	3.8	8.45e-01	0	28	104	3753902080	86	16958
2026-01-15 07:22:11.25	300.17	4.06	-60.6	-73.7	3.8	8.46e-01	0	28	104	3753902080	86	17231
2026-01-15 07:22:15.24	299.88	3.83	-60.7	-73.8	3.8	8.45e-01	0	28	104	3753902080	86	17322
2026-01-15 07:22:19.24	299.60	3.59	-60.6	-73.7	3.9	8.45e-01	0	28	104	3753902080	86	17119
2026-01-15 07:22:23.25	299.32	3.35	-60.5	-73.5	3.8	8.45e-01	0	28	104	3753902080	86	16850
2026-01-15 07:22:27.27	299.05	3.12	-60.3	-73.5	3.8	8.45e-01	0	28	104	3753902080	86	16715
2026-01-15 07:22:31.29	298.78	2.88	-60.3	-73.4	3.8	8.45e-01	0	28	104	3753902080	86	16552
2026-01-15 07:22:35.31	298.51	2.65	-60.3	-73.4	3.8	8.46e-01	0	28	104	3753902080	86	16558
2026-01-15 07:22:39.32	298.25	2.42	-60.2	-73.4	3.8	8.45e-01	0	28	104	3753902080	86	16511
2026-01-15 07:22:43.34	297.99	2.19	-60.3	-73.4	3.8	8.45e-01	0	28	104	3753902080	86	16621
2026-01-15 07:22:47.36	297.74	1.96	-60.3	-73.4	3.8	8.46e-01	0	28	104	3753902080	86	16532

#Closed at: 2026-01-15 07:22:48
#Recorded file [3753 MB]: D:/lorett/data/31004_260115_101004.dat