passes_logs/2026/01/15/R3.2S_Murmansk/R3.2S_Murmansk__20260115_210159_NOAA_21_JPSS-2_rec.log

#Pass ID: 20260115_210159_NOAA 21 (JPSS-2)
#Satellite: NOAA 21 (JPSS-2)
#Configuration: NOAA-21
#almurnet v.1.7.20251203
#Start time: 2026-01-15 21:02:00

#Version: 2.2.20231116
#Station: R3.2S_Murmansk
#Location: 33.079688 lon 68.888172 lat
#TLE: 1 54234U 22150A   26015.43562254  .00000028  00000+0  34201-4 0  9996
#TLE: 2 54234  98.7498 316.3301 0000635 288.4972  71.6135 14.19534768164873

#Time	Az	El	Level	Level2	SNR	BER	BlckErr	Temp	State	Recorded	gain1	gain2
2026-01-15 21:02:00.05	18.59	2.01	-56.1	-68.9	3.8	1.49e+00	0	40	0	0	84	15067
2026-01-15 21:02:03.08	18.90	2.13	-56.0	-68.7	3.8	1.49e+00	0	41	104	0	82	16582
2026-01-15 21:02:06.11	19.22	2.26	-56.0	-68.6	3.8	1.49e+00	0	41	104	0	82	16397
2026-01-15 21:02:09.14	19.54	2.38	-56.0	-68.6	3.8	1.49e+00	0	41	104	0	82	16499
2026-01-15 21:02:12.17	19.87	2.51	-56.0	-68.7	3.8	1.49e+00	0	41	104	0	82	16543
2026-01-15 21:02:15.19	20.19	2.63	-56.0	-68.6	3.8	1.49e+00	0	41	104	0	82	16496
2026-01-15 21:02:18.23	20.52	2.76	-56.0	-68.7	3.8	1.49e+00	0	42	104	0	82	16628
2026-01-15 21:02:21.26	20.85	2.88	-56.0	-68.7	3.8	1.49e+00	0	42	104	0	82	16673
2026-01-15 21:02:24.29	21.19	3.00	-56.0	-68.7	3.8	1.49e+00	0	42	104	0	82	16567
2026-01-15 21:02:27.32	21.52	3.13	-56.0	-68.7	3.8	1.49e+00	0	42	104	0	82	16570
2026-01-15 21:02:30.35	21.86	3.25	-56.0	-68.6	3.8	1.49e+00	0	42	104	0	82	16425
2026-01-15 21:02:33.37	22.20	3.37	-56.0	-68.7	3.8	1.49e+00	0	42	104	0	82	16527
2026-01-15 21:02:36.40	22.55	3.49	-56.0	-68.6	3.8	1.49e+00	0	43	104	0	82	16476
2026-01-15 21:02:39.43	22.90	3.62	-56.0	-68.5	3.8	1.49e+00	0	42	104	0	82	16229
2026-01-15 21:02:42.47	23.25	3.74	-56.0	-68.6	3.8	1.49e+00	0	43	104	0	82	16437
2026-01-15 21:02:45.50	23.60	3.86	-56.0	-68.7	3.8	1.49e+00	0	43	104	0	82	16601
2026-01-15 21:02:48.53	23.96	3.98	-56.0	-68.6	3.8	1.49e+00	0	43	104	0	82	16459
2026-01-15 21:02:51.56	24.31	4.10	-56.0	-68.7	3.8	1.49e+00	0	43	104	0	82	16594
2026-01-15 21:02:54.59	24.68	4.22	-56.0	-68.6	3.8	1.49e+00	0	43	104	0	82	16434
2026-01-15 21:02:57.62	25.04	4.34	-56.0	-68.7	3.8	1.49e+00	0	43	104	0	82	16659
2026-01-15 21:03:00.65	25.41	4.46	-56.0	-68.3	3.8	1.49e+00	0	44	104	0	82	15850
2026-01-15 21:03:03.67	25.78	4.58	-55.9	-67.9	3.8	1.49e+00	0	43	104	0	82	15128
2026-01-15 21:03:06.70	26.15	4.70	-55.8	-66.4	3.9	1.49e+00	0	44	104	0	82	12722
2026-01-15 21:03:09.73	26.53	4.82	-55.1	-61.7	6.0	3.88e-01	0	44	0	2097152	82	7389
2026-01-15 21:03:12.76	26.91	4.94	-54.3	-59.0	8.3	4.16e-02	0	44	0	11534336	80	6124
2026-01-15 21:03:15.79	27.29	5.05	-53.8	-57.4	10.4	2.03e-02	0	44	0	20971520	79	5383
2026-01-15 21:03:18.81	27.67	5.17	-50.6	-52.2	16.0	0.00e+00	0	44	0	27262976	73	4161
2026-01-15 21:03:21.84	28.06	5.29	-50.8	-52.5	15.8	0.00e+00	0	44	0	36700160	72	4561
2026-01-15 21:03:24.87	28.45	5.40	-50.5	-52.0	16.3	0.00e+00	0	44	0	47185920	71	4593
2026-01-15 21:03:27.90	28.84	5.52	-50.2	-51.7	16.7	0.00e+00	0	44	0	56623104	72	4175
2026-01-15 21:03:30.92	29.24	5.63	-50.4	-52.0	16.4	0.00e+00	0	44	0	66060288	72	4318
2026-01-15 21:03:33.96	29.64	5.75	-50.1	-51.5	16.9	0.00e+00	0	44	0	75497472	72	4088
2026-01-15 21:03:36.98	30.04	5.86	-50.2	-51.6	16.9	0.00e+00	0	45	0	84934656	71	4384
2026-01-15 21:03:40.01	30.45	5.97	-50.3	-51.8	16.7	0.00e+00	0	45	0	94371840	71	4474
2026-01-15 21:03:43.04	30.86	6.09	-50.2	-51.6	16.9	0.00e+00	0	45	0	103809024	71	4388
2026-01-15 21:03:46.07	31.27	6.20	-50.2	-51.6	17.0	0.00e+00	0	45	0	113246208	71	4382
2026-01-15 21:03:49.10	31.68	6.31	-49.9	-51.3	17.3	0.00e+00	0	45	0	122683392	71	4208
2026-01-15 21:03:52.12	32.10	6.42	-50.0	-51.4	17.2	0.00e+00	0	45	0	132120576	71	4279
2026-01-15 21:03:55.15	32.52	6.53	-50.0	-51.4	17.2	0.00e+00	0	45	0	141557760	71	4276
2026-01-15 21:03:58.18	32.94	6.63	-49.8	-51.2	17.4	0.00e+00	0	45	0	150994944	71	4164
2026-01-15 21:04:01.21	33.37	6.74	-49.6	-50.9	17.7	0.00e+00	0	45	0	160432128	71	4034
2026-01-15 21:04:04.23	33.80	6.85	-49.7	-51.0	17.6	0.00e+00	0	45	0	169869312	71	4096
2026-01-15 21:04:07.26	34.23	6.95	-49.8	-51.2	17.5	0.00e+00	0	45	0	179306496	70	4405
2026-01-15 21:04:10.29	34.67	7.06	-49.4	-50.7	17.9	0.00e+00	0	45	0	188743680	70	4182
2026-01-15 21:04:13.32	35.11	7.16	-49.6	-50.9	17.8	0.00e+00	0	45	0	198180864	70	4254
2026-01-15 21:04:16.35	35.55	7.26	-49.8	-51.1	17.6	0.00e+00	0	45	0	207618048	70	4371
2026-01-15 21:04:19.38	35.99	7.37	-49.6	-50.8	17.8	0.00e+00	0	45	0	217055232	70	4239
2026-01-15 21:04:22.41	36.44	7.47	-49.7	-51.0	17.7	0.00e+00	0	46	0	226492416	70	4331
2026-01-15 21:04:25.44	36.89	7.57	-49.7	-51.0	17.7	0.00e+00	0	46	0	235929600	70	4298
2026-01-15 21:04:28.47	37.35	7.66	-49.5	-50.8	17.9	0.00e+00	0	46	0	245366784	70	4227
2026-01-15 21:04:31.50	37.80	7.76	-49.6	-50.9	17.8	0.00e+00	0	46	0	254803968	70	4254
2026-01-15 21:04:34.52	38.26	7.86	-49.5	-50.8	18.0	0.00e+00	0	46	0	264241152	70	4199
2026-01-15 21:04:37.55	38.72	7.95	-49.7	-51.0	17.7	0.00e+00	0	46	0	273678336	70	4305
2026-01-15 21:04:40.57	39.19	8.04	-49.3	-50.5	18.3	0.00e+00	0	46	0	283115520	70	4069
2026-01-15 21:04:43.60	39.66	8.14	-49.3	-50.5	18.2	0.00e+00	0	46	0	292552704	70	4090
2026-01-15 21:04:46.63	40.13	8.23	-49.5	-50.7	18.0	0.00e+00	0	46	0	301989888	70	4187
2026-01-15 21:04:49.65	40.60	8.32	-49.6	-50.9	17.9	0.00e+00	0	46	0	311427072	70	4270
2026-01-15 21:04:52.68	41.08	8.40	-49.6	-50.9	17.9	0.00e+00	0	46	0	320864256	70	4269
2026-01-15 21:04:55.71	41.56	8.49	-49.5	-50.7	18.0	0.00e+00	0	46	0	330301440	70	4185
2026-01-15 21:04:58.74	42.04	8.58	-49.3	-50.6	18.2	0.00e+00	0	46	0	339738624	70	4109
2026-01-15 21:05:01.77	42.52	8.66	-49.2	-50.4	18.3	0.00e+00	0	46	0	349175808	70	4047
2026-01-15 21:05:04.80	43.01	8.74	-49.3	-50.5	18.3	0.00e+00	0	46	0	358612992	70	4085
2026-01-15 21:05:07.82	43.50	8.82	-49.2	-50.4	18.4	0.00e+00	0	46	0	368050176	70	4009
2026-01-15 21:05:10.85	43.99	8.90	-49.4	-50.6	18.2	0.00e+00	0	46	0	378535936	70	4142
2026-01-15 21:05:13.88	44.49	8.98	-49.4	-50.6	18.2	0.00e+00	0	46	0	387973120	70	4119
2026-01-15 21:05:16.91	44.99	9.06	-49.4	-50.6	18.2	0.00e+00	0	46	0	396361728	70	4123
2026-01-15 21:05:19.94	45.49	9.13	-49.3	-50.6	18.3	0.00e+00	0	46	0	405798912	70	4101
2026-01-15 21:05:22.96	45.99	9.21	-49.3	-50.6	18.2	0.00e+00	0	47	0	416284672	70	4106
2026-01-15 21:05:25.99	46.50	9.28	-49.3	-50.5	18.3	0.00e+00	0	46	0	425721856	70	4090
2026-01-15 21:05:29.02	47.01	9.35	-49.7	-51.1	17.8	0.00e+00	0	46	0	435159040	70	4343
2026-01-15 21:05:32.05	47.52	9.41	-49.5	-50.8	18.1	0.00e+00	0	46	0	444596224	70	4208
2026-01-15 21:05:35.08	48.03	9.48	-49.3	-50.5	18.4	0.00e+00	0	47	0	454033408	70	4069
2026-01-15 21:05:38.11	48.54	9.54	-49.1	-50.3	18.5	0.00e+00	0	47	0	463470592	70	3970
2026-01-15 21:05:41.14	49.06	9.61	-49.1	-50.3	18.5	0.00e+00	0	46	0	472907776	69	4215
2026-01-15 21:05:44.17	49.58	9.67	-49.4	-50.6	18.3	0.00e+00	0	47	0	482344960	69	4373
2026-01-15 21:05:47.20	50.10	9.72	-49.5	-50.8	18.1	0.00e+00	0	47	0	491782144	69	4449
2026-01-15 21:05:50.23	50.62	9.78	-49.3	-50.6	18.3	0.00e+00	0	47	0	501219328	69	4344
2026-01-15 21:05:53.26	51.15	9.84	-49.3	-50.5	18.3	0.00e+00	0	47	0	510656512	69	4325
2026-01-15 21:05:56.29	51.68	9.89	-49.4	-50.6	18.3	0.00e+00	0	47	0	520093696	69	4363
2026-01-15 21:05:59.32	52.21	9.94	-49.2	-50.4	18.5	0.00e+00	0	47	0	529530880	69	4249
2026-01-15 21:06:02.35	52.74	9.99	-49.1	-50.2	18.6	0.00e+00	0	47	0	538968064	69	4185
2026-01-15 21:06:05.38	53.27	10.03	-49.1	-50.3	18.6	0.00e+00	0	47	0	548405248	69	4208
2026-01-15 21:06:08.41	53.80	10.08	-49.2	-50.4	18.5	0.00e+00	0	47	0	557842432	69	4248
2026-01-15 21:06:11.44	54.34	10.12	-49.3	-50.5	18.4	0.00e+00	0	47	0	567279616	69	4310
2026-01-15 21:06:14.47	54.88	10.16	-49.0	-50.2	18.7	0.00e+00	0	47	0	576716800	69	4158
2026-01-15 21:06:17.50	55.42	10.20	-49.3	-50.5	18.3	0.00e+00	0	47	0	586153984	69	4313
2026-01-15 21:06:20.53	55.96	10.23	-49.3	-50.5	18.4	0.00e+00	0	47	0	595591168	69	4309
2026-01-15 21:06:23.56	56.50	10.27	-49.3	-50.5	18.3	0.00e+00	0	47	0	605028352	69	4331
2026-01-15 21:06:26.60	57.04	10.30	-49.2	-50.4	18.5	0.00e+00	0	47	0	614465536	69	4265
2026-01-15 21:06:29.62	57.58	10.33	-49.2	-50.3	18.5	0.00e+00	0	47	0	623902720	69	4238
2026-01-15 21:06:32.66	58.13	10.36	-49.1	-50.3	18.5	0.00e+00	0	47	0	633339904	69	4226
2026-01-15 21:06:35.69	58.67	10.38	-49.0	-50.2	18.6	0.00e+00	0	47	0	642777088	69	4172
2026-01-15 21:06:38.72	59.22	10.40	-48.8	-49.9	18.9	0.00e+00	0	47	0	652214272	69	4028
2026-01-15 21:06:41.75	59.77	10.42	-48.8	-49.9	18.9	0.00e+00	0	47	0	661651456	69	4023
2026-01-15 21:06:44.77	60.31	10.44	-48.8	-49.9	18.9	0.00e+00	0	47	0	671088640	69	4045
2026-01-15 21:06:47.80	60.86	10.46	-48.9	-50.0	18.8	0.00e+00	0	47	0	680525824	69	4087
2026-01-15 21:06:50.83	61.41	10.47	-49.1	-50.3	18.5	0.00e+00	0	47	0	689963008	69	4231
2026-01-15 21:06:53.86	61.96	10.48	-48.9	-50.1	18.7	0.00e+00	0	47	0	700448768	69	4122
2026-01-15 21:06:56.89	62.51	10.49	-49.0	-50.2	18.7	0.00e+00	0	47	0	708837376	69	4161
2026-01-15 21:06:59.92	63.06	10.50	-49.0	-50.1	18.7	0.00e+00	0	47	0	718274560	69	4136
2026-01-15 21:07:02.95	63.61	10.50	-49.0	-50.2	18.6	0.00e+00	0	47	0	728760320	69	4162
2026-01-15 21:07:05.98	64.16	10.50	-49.0	-50.2	18.6	0.00e+00	0	48	0	738197504	69	4152
2026-01-15 21:07:09.01	64.71	10.50	-48.9	-50.1	18.7	0.00e+00	0	48	0	747634688	69	4112
2026-01-15 21:07:12.04	65.26	10.50	-48.8	-50.0	18.9	0.00e+00	0	47	0	756023296	69	4052
2026-01-15 21:07:15.08	65.81	10.49	-48.8	-49.9	18.9	0.00e+00	0	47	0	766509056	69	4046
2026-01-15 21:07:18.11	66.37	10.49	-48.8	-49.9	18.9	0.00e+00	0	47	0	775946240	69	4021
2026-01-15 21:07:21.14	66.92	10.48	-48.9	-50.0	18.8	0.00e+00	0	48	0	785383424	69	4092
2026-01-15 21:07:24.17	67.46	10.46	-49.0	-50.2	18.7	0.00e+00	0	47	0	794820608	69	4155
2026-01-15 21:07:27.20	68.01	10.45	-49.0	-50.2	18.6	0.00e+00	0	48	0	804257792	69	4170
2026-01-15 21:07:30.22	68.56	10.43	-49.0	-50.1	18.7	0.00e+00	0	47	0	813694976	69	4131
2026-01-15 21:07:33.26	69.11	10.41	-48.9	-50.1	18.8	0.00e+00	0	47	0	823132160	69	4110
2026-01-15 21:07:36.29	69.66	10.39	-48.9	-50.1	18.8	0.00e+00	0	47	0	832569344	69	4107
2026-01-15 21:07:39.32	70.20	10.37	-49.1	-50.3	18.6	0.00e+00	0	48	0	842006528	69	4201
2026-01-15 21:07:42.35	70.75	10.34	-48.9	-50.0	18.8	0.00e+00	0	47	0	851443712	69	4071
2026-01-15 21:07:45.38	71.29	10.32	-48.9	-50.1	18.7	0.00e+00	0	47	0	860880896	69	4115
2026-01-15 21:07:48.41	71.84	10.29	-48.9	-50.1	18.7	0.00e+00	0	47	0	870318080	69	4108
2026-01-15 21:07:51.44	72.38	10.25	-49.0	-50.1	18.7	0.00e+00	0	47	0	879755264	69	4144
2026-01-15 21:07:54.46	72.92	10.22	-49.2	-50.5	18.4	0.00e+00	0	47	0	889192448	69	4295
2026-01-15 21:07:57.49	73.46	10.18	-49.0	-50.1	18.7	0.00e+00	0	47	0	898629632	69	4136
2026-01-15 21:08:00.53	74.00	10.14	-49.2	-50.4	18.4	0.00e+00	0	48	0	908066816	69	4261
2026-01-15 21:08:03.56	74.54	10.10	-49.2	-50.4	18.4	0.00e+00	0	48	0	917504000	69	4273
2026-01-15 21:08:06.59	75.07	10.06	-49.2	-50.4	18.4	0.00e+00	0	48	0	926941184	69	4276
2026-01-15 21:08:09.61	75.61	10.01	-49.3	-50.5	18.2	0.00e+00	0	48	0	936378368	69	4339
2026-01-15 21:08:12.64	76.14	9.96	-49.1	-50.3	18.5	0.00e+00	0	47	0	945815552	69	4204
2026-01-15 21:08:15.67	76.67	9.91	-49.0	-50.2	18.6	0.00e+00	0	47	0	955252736	69	4152
2026-01-15 21:08:18.70	77.20	9.86	-49.2	-50.4	18.4	0.00e+00	0	47	0	964689920	69	4277
2026-01-15 21:08:21.73	77.73	9.81	-49.1	-50.3	18.5	0.00e+00	0	48	0	974127104	69	4205
2026-01-15 21:08:24.76	78.25	9.75	-49.1	-50.3	18.4	0.00e+00	0	48	0	983564288	69	4236
2026-01-15 21:08:27.79	78.78	9.70	-49.0	-50.1	18.6	0.00e+00	0	47	0	993001472	69	4145
2026-01-15 21:08:30.82	79.30	9.64	-48.8	-50.0	18.8	0.00e+00	0	47	0	1002438656	69	4061
2026-01-15 21:08:33.85	79.82	9.58	-48.8	-49.9	18.8	0.00e+00	0	48	0	1011875840	69	4039
2026-01-15 21:08:36.88	80.33	9.51	-49.1	-50.3	18.5	0.00e+00	0	48	0	1022361600	69	4223
2026-01-15 21:08:39.90	80.85	9.45	-48.8	-50.0	18.8	0.00e+00	0	48	0	1030750208	69	4066
2026-01-15 21:08:42.93	81.36	9.38	-49.1	-50.3	18.5	0.00e+00	0	48	0	1040187392	69	4230
2026-01-15 21:08:45.96	81.87	9.31	-49.0	-50.2	18.6	0.00e+00	0	48	0	1050673152	69	4159
2026-01-15 21:08:48.99	82.38	9.24	-48.9	-50.0	18.8	0.00e+00	0	48	0	1060110336	69	4098
2026-01-15 21:08:52.02	82.89	9.17	-49.0	-50.2	18.5	0.00e+00	0	48	0	1069547520	69	4171
2026-01-15 21:08:55.05	83.39	9.09	-49.2	-50.4	18.4	0.00e+00	0	48	0	1078984704	69	4259
2026-01-15 21:08:58.09	83.89	9.02	-49.0	-50.2	18.5	0.00e+00	0	48	0	1088421888	69	4157
2026-01-15 21:09:01.11	84.39	8.94	-49.2	-50.4	18.3	0.00e+00	0	48	0	1097859072	69	4253
2026-01-15 21:09:04.14	84.89	8.86	-49.2	-50.5	18.3	0.00e+00	0	48	0	1107296256	69	4307
2026-01-15 21:09:07.17	85.38	8.78	-49.0	-50.2	18.5	0.00e+00	0	48	0	1116733440	69	4156
2026-01-15 21:09:10.20	85.87	8.70	-49.4	-50.6	18.1	0.00e+00	0	48	0	1126170624	69	4373
2026-01-15 21:09:13.23	86.36	8.62	-49.1	-50.3	18.4	0.00e+00	0	48	0	1135607808	69	4227
2026-01-15 21:09:16.26	86.84	8.53	-49.2	-50.5	18.3	0.00e+00	0	48	0	1145044992	69	4295
2026-01-15 21:09:19.30	87.33	8.44	-49.0	-50.2	18.5	0.00e+00	0	48	0	1154482176	69	4163
2026-01-15 21:09:22.33	87.81	8.36	-49.2	-50.4	18.3	0.00e+00	0	48	0	1163919360	69	4253
2026-01-15 21:09:25.36	88.29	8.27	-49.1	-50.3	18.3	0.00e+00	0	48	0	1173356544	69	4232
2026-01-15 21:09:28.39	88.76	8.18	-49.4	-50.7	18.1	0.00e+00	0	48	0	1182793728	69	4407
2026-01-15 21:09:31.42	89.23	8.08	-49.5	-50.8	17.9	0.00e+00	0	48	0	1192230912	69	4450
2026-01-15 21:09:34.45	89.70	7.99	-49.4	-50.6	18.0	0.00e+00	0	48	0	1201668096	69	4390
2026-01-15 21:09:37.48	90.17	7.89	-49.5	-50.8	17.8	0.00e+00	0	48	0	1211105280	69	4451
2026-01-15 21:09:40.51	90.63	7.80	-49.4	-50.7	17.9	0.00e+00	0	48	0	1220542464	69	4424
2026-01-15 21:09:43.54	91.09	7.70	-49.3	-50.5	18.1	0.00e+00	0	48	0	1229979648	69	4332
2026-01-15 21:09:46.57	91.55	7.60	-49.4	-50.7	17.9	0.00e+00	0	48	0	1239416832	69	4429
2026-01-15 21:09:49.60	92.00	7.50	-49.8	-51.2	17.5	0.00e+00	0	48	0	1248854016	70	4413
2026-01-15 21:09:52.63	92.45	7.40	-49.9	-51.3	17.3	0.00e+00	0	48	0	1258291200	70	4452
2026-01-15 21:09:55.66	92.90	7.30	-49.6	-50.9	17.7	0.00e+00	0	48	0	1267728384	70	4287
2026-01-15 21:09:58.69	93.34	7.20	-49.8	-51.1	17.5	0.00e+00	0	48	0	1277165568	70	4385
2026-01-15 21:10:01.72	93.79	7.10	-49.6	-51.0	17.6	0.00e+00	0	48	0	1286602752	70	4306
2026-01-15 21:10:04.75	94.22	6.99	-49.6	-50.9	17.6	0.00e+00	0	48	0	1296039936	70	4291
2026-01-15 21:10:07.78	94.66	6.88	-49.9	-51.3	17.3	0.00e+00	0	48	0	1305477120	70	4443
2026-01-15 21:10:10.81	95.09	6.78	-50.1	-51.5	17.0	0.00e+00	0	48	0	1314914304	71	4311
2026-01-15 21:10:13.84	95.52	6.67	-49.8	-51.2	17.3	0.00e+00	0	48	0	1324351488	71	4158
2026-01-15 21:10:16.87	95.95	6.56	-49.8	-51.2	17.3	0.00e+00	0	48	0	1334837248	71	4173
2026-01-15 21:10:19.90	96.37	6.45	-49.7	-51.1	17.3	0.00e+00	0	48	0	1343225856	71	4126
2026-01-15 21:10:22.93	96.79	6.34	-49.8	-51.2	17.3	0.00e+00	0	48	0	1352663040	71	4172
2026-01-15 21:10:25.96	97.21	6.23	-49.8	-51.1	17.3	0.00e+00	0	48	0	1363148800	71	4141
2026-01-15 21:10:28.99	97.63	6.12	-49.9	-51.3	17.2	0.00e+00	0	48	0	1372585984	71	4208
2026-01-15 21:10:32.02	98.04	6.01	-49.8	-51.2	17.3	0.00e+00	0	48	0	1382023168	71	4173
2026-01-15 21:10:35.04	98.45	5.89	-49.9	-51.2	17.2	0.00e+00	0	48	0	1390411776	71	4192
2026-01-15 21:10:38.08	98.85	5.78	-49.7	-51.1	17.3	0.00e+00	0	48	0	1400897536	71	4111
2026-01-15 21:10:41.11	99.26	5.66	-50.1	-51.6	16.8	0.00e+00	0	48	0	1410334720	71	4361
2026-01-15 21:10:44.14	99.65	5.55	-49.9	-51.3	17.0	0.00e+00	0	48	0	1419771904	71	4236
2026-01-15 21:10:47.17	100.05	5.43	-50.4	-51.9	16.4	0.00e+00	0	48	0	1429209088	72	4276
2026-01-15 21:10:50.19	100.44	5.32	-50.6	-52.2	16.1	0.00e+00	0	48	0	1438646272	72	4440
2026-01-15 21:10:53.22	100.83	5.20	-50.4	-52.0	16.3	0.00e+00	0	48	0	1448083456	72	4319
2026-01-15 21:10:56.25	101.22	5.08	-49.8	-51.2	17.1	0.00e+00	0	48	0	1457520640	71	4179
2026-01-15 21:10:59.28	101.61	4.96	-56.9	-69.7	3.8	1.49e+00	0	48	104	1464860672	84	16532
2026-01-15 21:11:02.32	101.99	4.85	-57.5	-70.3	3.8	1.49e+00	0	48	104	1464860672	85	16808
2026-01-15 21:11:05.35	102.37	4.73	-57.9	-70.7	3.8	1.49e+00	0	48	104	1464860672	86	16513
2026-01-15 21:11:08.38	102.74	4.61	-58.1	-70.9	3.8	1.49e+00	0	48	104	1464860672	86	16915
2026-01-15 21:11:11.41	103.12	4.49	-58.2	-71.0	3.8	1.49e+00	0	48	104	1464860672	86	17187
2026-01-15 21:11:14.43	103.48	4.37	-58.3	-71.1	3.8	1.49e+00	0	49	104	1464860672	87	16378
2026-01-15 21:11:17.46	103.85	4.24	-58.4	-71.1	3.8	1.49e+00	0	48	104	1464860672	87	16495
2026-01-15 21:11:20.49	104.21	4.12	-58.4	-71.2	3.8	1.49e+00	0	49	104	1464860672	87	16530
2026-01-15 21:11:23.53	104.58	4.00	-58.4	-71.2	3.8	1.49e+00	0	48	104	1464860672	87	16590
2026-01-15 21:11:26.56	104.94	3.88	-58.4	-71.2	3.8	1.49e+00	0	48	104	1464860672	87	16629
2026-01-15 21:11:29.59	105.29	3.76	-58.4	-71.1	3.8	1.49e+00	0	48	104	1464860672	87	16490
2026-01-15 21:11:32.62	105.64	3.63	-58.3	-71.2	3.8	1.49e+00	0	48	104	1464860672	87	16514
2026-01-15 21:11:35.65	105.99	3.51	-58.3	-71.1	3.8	1.49e+00	0	49	104	1464860672	87	16413
2026-01-15 21:11:38.68	106.34	3.39	-58.3	-71.1	3.8	1.49e+00	0	49	104	1464860672	87	16390
2026-01-15 21:11:41.71	106.68	3.26	-58.3	-71.1	3.8	1.49e+00	0	48	104	1464860672	87	16429
2026-01-15 21:11:44.73	107.02	3.14	-58.3	-71.1	3.8	1.49e+00	0	48	104	1464860672	87	16392
2026-01-15 21:11:47.76	107.36	3.02	-58.3	-71.1	3.8	1.49e+00	0	48	104	1464860672	87	16404
2026-01-15 21:11:50.79	107.70	2.89	-58.3	-71.1	3.8	1.49e+00	0	48	104	1464860672	87	16391
2026-01-15 21:11:53.82	108.03	2.77	-58.3	-71.1	3.8	1.49e+00	0	49	104	1464860672	87	16388
2026-01-15 21:11:56.84	108.36	2.64	-58.3	-71.1	3.8	1.49e+00	0	48	104	1464860672	87	16381
2026-01-15 21:11:59.87	108.69	2.52	-58.3	-71.1	3.8	1.49e+00	0	49	104	1464860672	87	16405
2026-01-15 21:12:02.90	109.02	2.39	-58.3	-71.1	3.8	1.49e+00	0	49	104	1464860672	87	16362
2026-01-15 21:12:05.94	109.34	2.26	-58.3	-71.1	3.8	1.49e+00	0	48	104	1464860672	87	16357
2026-01-15 21:12:08.97	109.66	2.14	-58.3	-71.1	3.8	1.49e+00	0	49	104	1464860672	87	16394
2026-01-15 21:12:12.00	109.98	2.01	-58.3	-71.1	3.8	1.49e+00	0	49	104	1464860672	87	16329

#Closed at: 2026-01-15 21:12:14
#Recorded file [1464 MB]: D:/lorett/data/31041_260116_000159.dat