passes_logs/2026/01/15/R3.2S_Murmansk/R3.2S_Murmansk__20260115_022010_AQUA_rec.log

#Pass ID: 20260115_022010_AQUA
#Satellite: AQUA
#Configuration: AQUA
#almurnet v.1.7.20251203
#Start time: 2026-01-15 02:20:09

#Version: 2.2.20231116
#Station: R3.2S_Murmansk
#Location: 33.079688 lon 68.888172 lat
#TLE: 1 27424U 02022A   26014.61231444  .00000653  00000+0  14070-3 0  9991
#TLE: 2 27424  98.4080 341.0332 0002042  78.9336 335.9961 14.61820174260839

#Time	Az	El	Level	Level2	SNR	BER	BlckErr	Temp	State	Recorded	gain1	gain2
2026-01-15 02:20:09.99	23.60	1.99	-57.9	-77.1	3.8	7.46e-01	0	25	0	0	84	33213
2026-01-15 02:20:13.97	23.62	2.25	-57.8	-77.1	3.8	7.44e-01	0	26	104	0	83	35020
2026-01-15 02:20:17.96	23.63	2.52	-57.8	-76.0	3.8	7.47e-01	0	26	104	0	83	30813
2026-01-15 02:20:21.96	23.64	2.79	-57.7	-73.6	3.9	7.42e-01	0	26	104	0	83	23580
2026-01-15 02:20:25.96	23.66	3.07	-57.7	-72.9	3.9	7.43e-01	0	26	104	0	83	21568
2026-01-15 02:20:29.96	23.67	3.34	-57.6	-71.2	5.1	7.07e-01	0	26	0	0	83	17735
2026-01-15 02:20:33.98	23.68	3.63	-56.9	-64.7	10.1	6.15e-01	0	26	0	6291456	83	8406
2026-01-15 02:20:37.97	23.70	3.91	-55.4	-59.9	13.3	6.03e-01	0	26	0	14155776	80	5776
2026-01-15 02:20:41.98	23.71	4.20	-54.4	-57.9	14.2	6.04e-01	0	26	0	21495808	78	5126
2026-01-15 02:20:45.98	23.72	4.49	-54.7	-58.5	13.8	6.02e-01	0	26	0	28835840	77	5851
2026-01-15 02:20:49.98	23.74	4.78	-55.7	-60.6	12.8	6.03e-01	0	26	0	36175872	79	6592
2026-01-15 02:20:53.98	23.75	5.08	-54.0	-57.2	14.4	6.04e-01	0	26	0	44040192	77	5029
2026-01-15 02:20:57.98	23.76	5.38	-57.6	-71.0	5.5	7.01e-01	23	27	0	51380224	82	18458
2026-01-15 02:21:01.98	23.77	5.69	-54.2	-57.5	14.3	6.02e-01	0	27	0	57147392	77	5182
2026-01-15 02:21:05.98	23.79	5.99	-53.2	-55.9	14.8	6.04e-01	0	27	0	65011712	75	4818
2026-01-15 02:21:09.97	23.80	6.31	-52.3	-54.6	15.0	6.04e-01	0	27	0	72351744	73	4665
2026-01-15 02:21:13.95	23.81	6.62	-52.0	-54.3	15.0	6.04e-01	0	27	0	79691776	72	4767
2026-01-15 02:21:17.95	23.82	6.95	-51.7	-53.8	15.2	6.02e-01	0	27	0	87556096	72	4508
2026-01-15 02:21:21.94	23.84	7.27	-52.0	-54.2	15.0	6.04e-01	0	27	0	94896128	72	4751
2026-01-15 02:21:25.94	23.85	7.60	-51.5	-53.5	15.3	6.03e-01	0	27	0	102236160	72	4382
2026-01-15 02:21:29.93	23.86	7.94	-51.4	-53.4	15.2	6.03e-01	0	27	0	109576192	71	4589
2026-01-15 02:21:33.91	23.87	8.28	-51.4	-53.5	15.2	6.04e-01	0	27	0	117440512	71	4600
2026-01-15 02:21:37.92	23.88	8.62	-51.0	-53.0	15.3	6.03e-01	0	27	0	124780544	71	4348
2026-01-15 02:21:41.91	23.89	8.98	-51.0	-53.0	15.3	6.04e-01	0	27	0	132120576	71	4349
2026-01-15 02:21:45.91	23.90	9.33	-50.9	-52.8	15.4	6.05e-01	0	27	0	139984896	71	4255
2026-01-15 02:21:49.90	23.92	9.70	-50.9	-52.8	15.3	6.04e-01	0	27	0	147324928	70	4505
2026-01-15 02:21:53.90	23.93	10.06	-50.7	-52.5	15.3	6.03e-01	0	27	0	154664960	70	4377
2026-01-15 02:21:57.89	23.94	10.44	-50.8	-52.6	15.3	6.04e-01	0	27	0	162529280	70	4424
2026-01-15 02:22:01.87	23.95	10.82	-50.6	-52.4	15.4	6.02e-01	0	27	0	169869312	70	4317
2026-01-15 02:22:05.85	23.96	11.21	-50.7	-52.5	15.3	6.03e-01	0	27	0	177209344	70	4369
2026-01-15 02:22:09.85	23.97	11.60	-50.6	-52.4	15.4	6.01e-01	0	27	0	184549376	70	4295
2026-01-15 02:22:13.84	23.98	12.00	-50.6	-52.4	15.4	6.03e-01	0	27	0	192413696	70	4326
2026-01-15 02:22:17.82	23.99	12.41	-50.5	-52.3	15.4	6.02e-01	0	27	0	199753728	70	4252
2026-01-15 02:22:21.79	23.99	12.83	-50.6	-52.4	15.4	6.03e-01	0	27	0	207093760	70	4317
2026-01-15 02:22:25.78	24.00	13.25	-50.4	-52.1	15.3	6.05e-01	0	27	0	214433792	69	4440
2026-01-15 02:22:29.77	24.01	13.69	-50.2	-51.9	15.4	6.05e-01	0	27	0	221773824	69	4311
2026-01-15 02:22:33.76	24.02	14.13	-50.0	-51.7	15.4	6.03e-01	0	27	0	229638144	69	4215
2026-01-15 02:22:37.75	24.03	14.58	-49.9	-51.6	15.3	6.01e-01	0	27	0	236978176	68	4411
2026-01-15 02:22:41.75	24.04	15.04	-50.0	-51.7	15.3	6.03e-01	0	27	0	244318208	68	4473
2026-01-15 02:22:45.72	24.05	15.51	-50.1	-51.8	15.3	6.04e-01	0	27	0	251658240	68	4543
2026-01-15 02:22:49.73	24.05	15.99	-50.1	-51.8	15.3	6.02e-01	0	27	0	259522560	68	4532
2026-01-15 02:22:53.74	24.06	16.49	-50.1	-51.8	15.3	6.04e-01	0	27	0	266862592	68	4517
2026-01-15 02:22:57.73	24.07	16.99	-49.9	-51.6	15.3	6.03e-01	0	27	0	274202624	68	4425
2026-01-15 02:23:01.72	24.07	17.51	-49.8	-51.4	15.4	6.02e-01	0	27	0	282066944	68	4333
2026-01-15 02:23:05.69	24.08	18.03	-49.9	-51.6	15.3	6.02e-01	0	27	0	289406976	68	4410
2026-01-15 02:23:09.69	24.08	18.57	-50.0	-51.7	15.3	6.02e-01	0	27	0	296747008	68	4479
2026-01-15 02:23:13.66	24.09	19.12	-50.1	-51.8	15.3	6.02e-01	0	27	0	304087040	68	4509
2026-01-15 02:23:17.64	24.09	19.69	-50.0	-51.7	15.3	6.04e-01	0	27	0	311951360	68	4458
2026-01-15 02:23:21.64	24.10	20.27	-50.1	-51.8	15.3	6.03e-01	0	27	0	319291392	68	4500
2026-01-15 02:23:25.62	24.10	20.87	-50.3	-52.0	15.2	6.02e-01	0	27	0	326631424	68	4651
2026-01-15 02:23:29.62	24.10	21.48	-50.4	-52.1	15.2	6.04e-01	0	27	0	333971456	68	4703
2026-01-15 02:23:33.62	24.11	22.11	-50.5	-52.2	15.2	6.04e-01	0	27	0	341835776	68	4746
2026-01-15 02:23:37.62	24.11	22.76	-50.4	-52.1	15.2	6.01e-01	0	27	0	349175808	68	4690
2026-01-15 02:23:41.62	24.11	23.43	-50.5	-52.3	15.2	6.03e-01	0	27	0	356515840	68	4768
2026-01-15 02:23:45.60	24.11	24.11	-50.6	-52.3	15.3	6.02e-01	0	27	0	364380160	69	4533
2026-01-15 02:23:49.62	24.11	24.82	-50.4	-52.1	15.3	6.01e-01	0	27	0	371720192	69	4434
2026-01-15 02:23:53.61	24.11	25.55	-50.5	-52.2	15.3	6.03e-01	0	27	0	379060224	69	4473
2026-01-15 02:23:57.61	24.11	26.30	-50.4	-52.1	15.3	6.03e-01	0	27	0	386924544	69	4413
2026-01-15 02:24:01.59	24.10	27.07	-50.3	-52.0	15.4	6.02e-01	0	27	0	394264576	69	4356
2026-01-15 02:24:05.57	24.10	27.86	-50.2	-51.8	15.4	6.04e-01	0	27	0	401604608	69	4275
2026-01-15 02:24:09.57	24.09	28.68	-50.1	-51.8	15.4	6.05e-01	0	27	0	408944640	69	4270
2026-01-15 02:24:13.54	24.09	29.52	-49.9	-51.5	15.4	6.01e-01	0	27	0	416808960	68	4355
2026-01-15 02:24:17.52	24.08	30.40	-50.1	-51.7	15.3	6.03e-01	0	27	0	424148992	68	4485
2026-01-15 02:24:21.50	24.07	31.30	-49.9	-51.5	15.4	6.04e-01	0	27	0	431489024	68	4372
2026-01-15 02:24:25.49	24.06	32.24	-49.9	-51.6	15.3	6.02e-01	0	27	0	438829056	68	4399
2026-01-15 02:24:29.47	24.05	33.20	-50.1	-51.7	15.3	6.02e-01	0	27	0	446693376	68	4469
2026-01-15 02:24:33.45	24.04	34.20	-50.5	-52.2	15.2	6.01e-01	0	27	0	454033408	68	4751
2026-01-15 02:24:37.44	24.02	35.24	-50.9	-52.6	15.2	6.02e-01	0	27	0	461373440	69	4704
2026-01-15 02:24:41.43	24.00	36.32	-51.1	-52.9	15.1	6.03e-01	0	27	0	468713472	69	4858
2026-01-15 02:24:45.42	23.98	37.43	-51.9	-53.9	15.1	6.04e-01	0	27	0	476577792	71	4819
2026-01-15 02:24:49.41	23.96	38.59	-52.3	-54.3	15.1	6.03e-01	0	27	0	483917824	72	4805
2026-01-15 02:24:53.40	23.93	39.79	-52.1	-54.0	15.1	6.01e-01	0	27	0	491257856	72	4642
2026-01-15 02:24:57.39	23.90	41.03	-51.8	-53.6	15.3	6.03e-01	0	27	0	498597888	72	4433
2026-01-15 02:25:01.40	23.87	42.33	-51.2	-53.0	15.3	6.01e-01	0	28	0	506462208	71	4364
2026-01-15 02:25:05.40	23.83	43.67	-50.8	-52.5	15.3	6.03e-01	0	27	0	513802240	70	4367
2026-01-15 02:25:09.38	23.79	45.06	-50.3	-52.0	15.4	6.03e-01	0	27	0	521142272	69	4343
2026-01-15 02:25:13.37	23.74	46.51	-50.3	-52.0	15.4	6.02e-01	0	27	0	529006592	69	4345
2026-01-15 02:25:17.34	23.69	48.00	-50.4	-52.0	15.3	6.05e-01	0	27	0	536346624	69	4384
2026-01-15 02:25:21.33	23.62	49.56	-50.4	-52.0	15.4	6.04e-01	0	27	0	543686656	69	4370
2026-01-15 02:25:25.33	23.55	51.17	-49.9	-51.5	15.5	6.03e-01	0	28	0	551026688	69	4122
2026-01-15 02:25:29.31	23.47	52.85	-49.7	-51.3	15.4	6.03e-01	0	27	0	558891008	68	4245
2026-01-15 02:25:33.32	23.38	54.59	-49.8	-51.4	15.4	6.03e-01	0	27	0	566231040	68	4316
2026-01-15 02:25:37.31	23.27	56.39	-50.5	-52.2	15.2	6.02e-01	0	27	0	573571072	68	4729
2026-01-15 02:25:41.31	23.15	58.25	-51.4	-53.2	15.2	6.02e-01	0	27	0	580911104	70	4754
2026-01-15 02:25:45.30	23.00	60.18	-52.1	-54.1	15.1	6.02e-01	0	27	0	588775424	72	4665
2026-01-15 02:25:49.29	22.83	62.16	-52.5	-54.5	15.1	6.03e-01	0	27	0	596115456	73	4599
2026-01-15 02:25:53.29	22.62	64.22	-52.9	-55.0	15.1	6.02e-01	0	27	0	603455488	74	4619
2026-01-15 02:25:57.28	22.37	66.33	-54.1	-56.6	14.7	6.03e-01	0	27	0	611319808	75	5253
2026-01-15 02:26:01.28	22.05	68.50	-54.7	-57.4	14.7	6.04e-01	0	27	0	618659840	77	5128
2026-01-15 02:26:05.31	21.66	70.74	-54.6	-57.3	14.7	6.04e-01	0	28	0	625999872	77	5048
2026-01-15 02:26:09.30	21.15	73.02	-53.9	-56.2	15.1	6.04e-01	0	28	0	633339904	77	4481
2026-01-15 02:26:13.28	20.46	75.33	-53.7	-56.0	15.0	6.03e-01	0	28	0	641204224	76	4640
2026-01-15 02:26:17.27	19.50	77.69	-52.7	-54.7	15.2	6.03e-01	0	27	0	648544256	74	4465
2026-01-15 02:26:21.26	18.05	80.08	-51.8	-53.7	15.3	6.03e-01	0	28	0	655884288	72	4466
2026-01-15 02:26:25.25	15.65	82.49	-51.1	-52.8	15.4	6.03e-01	0	28	0	663224320	71	4273
2026-01-15 02:26:29.22	10.97	84.88	-51.3	-53.0	15.3	6.04e-01	0	28	0	671088640	71	4375
2026-01-15 02:26:33.22	358.07	87.22	-51.4	-53.2	15.3	6.03e-01	0	28	0	678428672	71	4471
2026-01-15 02:26:37.20	295.13	88.72	-51.2	-52.9	15.1	6.05e-01	0	27	0	685768704	70	4591
2026-01-15 02:26:41.20	232.61	87.19	-51.6	-53.4	15.1	6.01e-01	0	28	0	693633024	71	4575
2026-01-15 02:26:45.20	219.89	84.86	-51.7	-53.6	15.2	6.05e-01	0	28	0	700973056	71	4676
2026-01-15 02:26:49.20	215.23	82.44	-50.9	-52.6	15.5	6.04e-01	0	28	0	708313088	71	4166
2026-01-15 02:26:53.19	212.85	80.03	-51.2	-53.0	15.2	6.03e-01	0	27	0	715653120	70	4623
2026-01-15 02:26:57.19	211.42	77.63	-53.6	-55.9	14.9	6.04e-01	0	28	0	723517440	75	4818
2026-01-15 02:27:01.18	210.46	75.27	-54.4	-57.0	14.7	6.04e-01	0	27	0	730857472	76	5170
2026-01-15 02:27:05.17	209.78	72.95	-53.3	-55.5	15.0	6.01e-01	0	27	0	738197504	75	4647
2026-01-15 02:27:09.16	209.27	70.68	-54.4	-56.9	14.7	6.04e-01	0	27	0	746061824	76	5137
2026-01-15 02:27:13.16	208.88	68.45	-55.2	-58.0	14.5	6.02e-01	0	28	0	753401856	78	5183
2026-01-15 02:27:17.15	208.57	66.28	-54.5	-57.1	14.7	6.02e-01	0	28	0	760741888	77	4959
2026-01-15 02:27:21.13	208.32	64.17	-53.3	-55.5	15.1	6.03e-01	0	28	0	768081920	75	4600
2026-01-15 02:27:25.12	208.11	62.12	-52.2	-54.1	15.3	6.03e-01	0	28	0	775946240	73	4397
2026-01-15 02:27:29.11	207.94	60.13	-51.9	-53.8	15.3	6.05e-01	0	27	0	783286272	73	4254
2026-01-15 02:27:33.10	207.79	58.20	-51.2	-52.9	15.4	6.01e-01	0	27	0	790626304	71	4330
2026-01-15 02:27:37.10	207.66	56.33	-50.6	-52.3	15.4	6.02e-01	0	27	0	797966336	70	4274
2026-01-15 02:27:41.09	207.56	54.53	-49.7	-51.3	15.4	6.02e-01	0	28	0	805830656	68	4268
2026-01-15 02:27:45.09	207.46	52.79	-49.8	-51.4	15.4	6.03e-01	0	27	0	813170688	68	4316
2026-01-15 02:27:49.09	207.38	51.11	-50.2	-51.8	15.3	6.01e-01	0	27	0	820510720	68	4502
2026-01-15 02:27:53.07	207.31	49.49	-50.7	-52.4	15.3	6.04e-01	0	27	0	828375040	69	4564
2026-01-15 02:27:57.06	207.25	47.93	-50.5	-52.2	15.4	6.03e-01	0	27	0	835715072	70	4214
2026-01-15 02:28:01.04	207.19	46.43	-50.5	-52.2	15.4	6.01e-01	0	28	0	843055104	70	4206
2026-01-15 02:28:05.03	207.15	44.98	-50.5	-52.2	15.4	6.04e-01	0	28	0	850395136	70	4222
2026-01-15 02:28:09.04	207.10	43.58	-50.9	-52.6	15.3	6.02e-01	0	28	0	858259456	70	4407
2026-01-15 02:28:13.03	207.06	42.24	-50.7	-52.3	15.3	6.03e-01	0	28	0	865599488	69	4539
2026-01-15 02:28:17.02	207.03	40.95	-51.5	-53.4	15.1	6.02e-01	0	27	0	872939520	70	4853
2026-01-15 02:28:20.99	207.00	39.71	-51.8	-53.7	15.1	6.03e-01	0	27	0	880279552	71	4712
2026-01-15 02:28:24.96	206.97	38.51	-51.8	-53.7	15.1	6.02e-01	0	28	0	888143872	71	4714
2026-01-15 02:28:28.94	206.95	37.35	-51.5	-53.4	15.2	6.03e-01	0	28	0	895483904	71	4558
2026-01-15 02:28:32.93	206.93	36.24	-51.3	-53.1	15.3	6.04e-01	0	28	0	902823936	71	4394
2026-01-15 02:28:36.92	206.91	35.16	-50.6	-52.3	15.4	6.04e-01	0	27	0	910163968	70	4247
2026-01-15 02:28:40.93	206.89	34.11	-50.2	-51.8	15.4	6.04e-01	0	28	0	918028288	69	4254
2026-01-15 02:28:44.93	206.88	33.10	-50.0	-51.6	15.5	6.03e-01	0	28	0	925368320	69	4178
2026-01-15 02:28:48.93	206.86	32.13	-49.6	-51.2	15.4	6.02e-01	0	28	0	932708352	68	4220
2026-01-15 02:28:52.92	206.85	31.19	-49.4	-50.9	15.5	6.03e-01	0	28	0	940572672	68	4097
2026-01-15 02:28:56.91	206.84	30.29	-49.6	-51.1	15.5	6.04e-01	0	28	0	947912704	68	4178
2026-01-15 02:29:00.88	206.83	29.41	-49.8	-51.4	15.4	6.00e-01	0	27	0	955252736	68	4327
2026-01-15 02:29:04.86	206.83	28.57	-49.9	-51.5	15.4	6.01e-01	0	28	0	962592768	68	4367
2026-01-15 02:29:08.87	206.82	27.74	-49.9	-51.5	15.3	6.03e-01	0	28	0	970457088	68	4344
2026-01-15 02:29:12.87	206.81	26.94	-49.8	-51.4	15.4	6.00e-01	0	28	0	977797120	68	4335
2026-01-15 02:29:16.86	206.81	26.17	-49.8	-51.4	15.4	6.03e-01	0	27	0	985137152	68	4323
2026-01-15 02:29:20.85	206.81	25.42	-50.1	-51.7	15.3	6.03e-01	0	28	0	992477184	68	4476
2026-01-15 02:29:24.84	206.80	24.70	-50.6	-52.3	15.2	6.03e-01	0	28	0	1000341504	68	4790
2026-01-15 02:29:28.84	206.80	23.99	-50.6	-52.4	15.3	6.03e-01	0	28	0	1007681536	69	4553
2026-01-15 02:29:32.82	206.80	23.31	-50.6	-52.3	15.3	6.02e-01	0	28	0	1015021568	69	4530
2026-01-15 02:29:36.79	206.80	22.64	-50.4	-52.1	15.3	6.02e-01	0	28	0	1022885888	69	4440
2026-01-15 02:29:40.78	206.80	21.99	-50.4	-52.1	15.3	6.02e-01	0	27	0	1030225920	69	4414
2026-01-15 02:29:44.78	206.80	21.36	-50.3	-51.9	15.3	6.03e-01	0	28	0	1037565952	69	4336
2026-01-15 02:29:48.77	206.80	20.75	-50.3	-52.0	15.4	6.04e-01	0	28	0	1044905984	69	4365
2026-01-15 02:29:52.78	206.81	20.15	-50.3	-52.0	15.4	6.02e-01	0	28	0	1052770304	69	4349
2026-01-15 02:29:56.77	206.81	19.57	-50.3	-52.1	15.3	6.03e-01	0	28	0	1060110336	69	4392
2026-01-15 02:30:00.76	206.81	19.00	-50.4	-52.1	15.3	6.05e-01	0	27	0	1067450368	69	4433
2026-01-15 02:30:04.75	206.82	18.44	-50.5	-52.2	15.3	6.00e-01	0	28	0	1074790400	69	4485
2026-01-15 02:30:08.76	206.82	17.90	-50.5	-52.2	15.3	6.03e-01	0	27	0	1082654720	69	4488
2026-01-15 02:30:12.76	206.82	17.37	-50.5	-52.2	15.3	6.03e-01	0	28	0	1089994752	69	4477
2026-01-15 02:30:16.74	206.83	16.86	-50.5	-52.3	15.3	6.03e-01	0	28	0	1097334784	69	4497
2026-01-15 02:30:20.73	206.83	16.35	-50.5	-52.3	15.3	6.03e-01	0	28	0	1105199104	69	4496
2026-01-15 02:30:24.72	206.84	15.86	-50.3	-52.0	15.3	6.04e-01	0	28	0	1112539136	69	4382
2026-01-15 02:30:28.70	206.84	15.38	-50.2	-52.0	15.3	6.01e-01	0	28	0	1119879168	69	4349
2026-01-15 02:30:32.69	206.85	14.91	-50.2	-51.8	15.4	6.02e-01	0	28	0	1127219200	69	4288
2026-01-15 02:30:36.68	206.86	14.45	-50.2	-51.9	15.4	6.03e-01	0	28	0	1135083520	69	4301
2026-01-15 02:30:40.66	206.86	14.00	-50.2	-51.9	15.4	6.04e-01	0	27	0	1142423552	69	4295
2026-01-15 02:30:44.66	206.87	13.55	-50.1	-51.8	15.4	6.04e-01	0	27	0	1149763584	69	4282
2026-01-15 02:30:48.66	206.88	13.12	-50.1	-51.8	15.4	6.03e-01	0	28	0	1157627904	69	4282
2026-01-15 02:30:52.64	206.88	12.69	-50.1	-51.8	15.4	6.01e-01	0	28	0	1164967936	69	4261
2026-01-15 02:30:56.62	206.89	12.28	-50.0	-51.7	15.4	6.01e-01	0	27	0	1172307968	69	4235
2026-01-15 02:31:00.58	206.90	11.87	-50.1	-51.8	15.4	6.04e-01	0	28	0	1179648000	69	4265
2026-01-15 02:31:04.56	206.90	11.47	-50.2	-51.9	15.4	6.03e-01	0	28	0	1187512320	69	4298
2026-01-15 02:31:08.56	206.91	11.07	-50.2	-51.9	15.4	6.03e-01	0	28	0	1194852352	69	4321
2026-01-15 02:31:12.54	206.92	10.68	-50.2	-51.9	15.4	6.02e-01	0	28	0	1202192384	69	4331
2026-01-15 02:31:16.52	206.93	10.30	-50.3	-52.1	15.3	6.03e-01	0	28	0	1209532416	69	4406
2026-01-15 02:31:20.52	206.94	9.93	-50.5	-52.3	15.2	6.04e-01	0	27	0	1217396736	69	4511
2026-01-15 02:31:24.53	206.95	9.56	-50.5	-52.3	15.2	6.03e-01	0	28	0	1224736768	69	4526
2026-01-15 02:31:28.51	206.95	9.19	-50.6	-52.4	15.2	6.04e-01	0	28	0	1232076800	69	4583
2026-01-15 02:31:32.49	206.96	8.84	-50.8	-52.7	15.1	6.02e-01	0	27	0	1239416832	69	4726
2026-01-15 02:31:36.47	206.97	8.49	-50.9	-52.8	15.1	6.03e-01	0	28	0	1247281152	69	4786
2026-01-15 02:31:40.47	206.98	8.14	-50.9	-52.8	15.2	6.04e-01	0	27	0	1254621184	70	4528
2026-01-15 02:31:44.47	206.99	7.80	-51.2	-53.1	15.1	6.05e-01	0	27	0	1261961216	70	4702
2026-01-15 02:31:48.45	207.00	7.46	-51.3	-53.3	15.1	6.02e-01	0	27	0	1269301248	70	4805
2026-01-15 02:31:52.46	207.01	7.13	-51.4	-53.5	15.1	6.05e-01	0	28	0	1277165568	71	4608
2026-01-15 02:31:56.46	207.02	6.80	-51.3	-53.3	15.2	6.02e-01	0	28	0	1284505600	71	4540
2026-01-15 02:32:00.45	207.03	6.48	-51.5	-53.6	15.1	6.02e-01	0	27	0	1291845632	71	4687
2026-01-15 02:32:04.46	207.04	6.16	-51.7	-53.9	15.0	6.02e-01	0	28	0	1299709952	71	4841
2026-01-15 02:32:08.44	207.05	5.85	-51.4	-53.6	15.1	6.04e-01	0	28	0	1307049984	71	4686
2026-01-15 02:32:12.43	207.06	5.54	-52.3	-54.7	14.8	6.04e-01	0	27	0	1314390016	72	5022
2026-01-15 02:32:16.42	207.07	5.24	-52.3	-54.7	14.9	6.02e-01	0	28	0	1321730048	72	5003
2026-01-15 02:32:20.43	207.08	4.94	-58.7	-78.0	3.8	7.49e-01	0	28	104	1328021504	85	34786
2026-01-15 02:32:24.41	207.09	4.64	-59.5	-78.8	3.8	7.49e-01	0	27	104	1328021504	86	36063
2026-01-15 02:32:28.39	207.10	4.35	-59.8	-79.1	3.8	7.47e-01	0	27	104	1328021504	87	34916
2026-01-15 02:32:32.39	207.11	4.06	-59.9	-79.2	3.8	7.45e-01	0	28	104	1328021504	87	35644
2026-01-15 02:32:36.39	207.12	3.77	-60.0	-79.3	3.8	7.47e-01	0	28	104	1328021504	87	35982
2026-01-15 02:32:40.38	207.13	3.49	-60.0	-79.4	3.8	7.49e-01	0	28	104	1328021504	87	36379
2026-01-15 02:32:44.37	207.14	3.20	-60.0	-79.4	3.8	7.47e-01	0	28	104	1328021504	87	36335
2026-01-15 02:32:48.39	207.15	2.93	-60.0	-79.4	3.8	7.47e-01	0	28	104	1328021504	87	36201
2026-01-15 02:32:52.39	207.16	2.65	-60.0	-79.4	3.8	7.44e-01	0	28	104	1328021504	87	36108
2026-01-15 02:32:56.42	207.17	2.38	-60.0	-79.3	3.8	7.49e-01	0	28	104	1328021504	87	36015
2026-01-15 02:33:00.43	207.18	2.11	-59.9	-79.3	3.8	7.44e-01	0	28	104	1328021504	87	36050

#Closed at: 2026-01-15 02:33:03
#Recorded file [1328 MB]: D:/lorett/data/31004_260115_052009.dat