passes_logs/2026/01/15/R3.2S_Murmansk/R3.2S_Murmansk__20260115_072809_KANOPUS-V_5_rec.log

#Pass ID: 20260115_072809_KANOPUS-V 5
#Satellite: KANOPUS-V 5
#Configuration: KANOPUS-V_8320
#almurnet v.1.7.20251203
#Start time: 2026-01-15 07:28:09

#Version: 2.2.20231116
#Station: R3.2S_Murmansk
#Location: 33.079688 lon 68.888172 lat
#TLE: 1 43876U 18111A   26014.64517351  .00002226  00000+0  96418-4 0  9998
#TLE: 2 43876  97.3685 283.1659 0001742  85.8061 274.3376 15.23434183391418

#Time	Az	El	Level	Level2	SNR	BER	BlckErr	Temp	State	Recorded	gain1	gain2
2026-01-15 07:28:09.53	150.98	2.03	-59.3	-69.0	3.8	7.44e-01	0	26	0	0	83	10611
2026-01-15 07:28:12.52	150.96	2.25	-59.3	-69.0	3.8	7.45e-01	0	26	104	0	83	10599
2026-01-15 07:28:15.50	150.94	2.46	-59.3	-69.0	3.8	7.45e-01	0	26	104	0	83	10624
2026-01-15 07:28:18.49	150.91	2.67	-59.3	-69.0	3.8	7.47e-01	0	27	104	0	83	10577
2026-01-15 07:28:21.50	150.89	2.89	-59.3	-69.0	3.8	7.47e-01	0	27	104	0	83	10539
2026-01-15 07:28:24.49	150.87	3.11	-59.3	-69.0	3.8	7.46e-01	0	27	104	0	83	10538
2026-01-15 07:28:27.47	150.85	3.34	-59.3	-69.0	3.8	7.44e-01	0	27	104	0	83	10601
2026-01-15 07:28:30.49	150.83	3.56	-59.1	-68.3	3.8	7.45e-01	0	27	104	0	82	10325
2026-01-15 07:28:33.46	150.80	3.79	-58.6	-66.2	4.0	7.37e-01	0	27	104	0	81	8635
2026-01-15 07:28:36.46	150.78	4.02	-58.1	-64.6	4.4	7.25e-01	0	27	0	25165824	80	7585
2026-01-15 07:28:39.44	150.75	4.25	-56.4	-60.7	6.6	6.54e-01	0	27	0	71303168	77	5788
2026-01-15 07:28:42.42	150.73	4.49	-55.0	-58.7	8.2	6.28e-01	0	27	0	115343360	74	5406
2026-01-15 07:28:45.40	150.70	4.72	-53.5	-56.6	9.8	6.11e-01	0	27	0	161480704	71	5055
2026-01-15 07:28:48.39	150.67	4.96	-53.2	-56.2	10.0	6.09e-01	0	27	0	207618048	70	5136
2026-01-15 07:28:51.39	150.64	5.21	-52.8	-55.6	10.6	6.05e-01	0	27	0	253755392	70	4794
2026-01-15 07:28:54.39	150.61	5.46	-53.6	-56.6	9.7	6.16e-01	0	27	0	299892736	70	5379
2026-01-15 07:28:57.38	150.58	5.71	-53.0	-55.9	10.4	6.08e-01	0	27	0	346030080	70	4954
2026-01-15 07:29:00.37	150.55	5.96	-53.0	-55.8	10.4	6.09e-01	0	28	0	392167424	70	4925
2026-01-15 07:29:03.35	150.52	6.22	-52.9	-55.7	10.5	6.10e-01	0	28	0	438304768	69	5150
2026-01-15 07:29:06.33	150.49	6.48	-53.0	-55.8	10.5	6.08e-01	0	27	0	484442112	69	5184
2026-01-15 07:29:09.33	150.46	6.74	-52.7	-55.5	10.7	6.09e-01	0	28	0	530579456	69	5016
2026-01-15 07:29:12.33	150.42	7.01	-52.4	-55.0	11.2	6.08e-01	0	28	0	576716800	69	4751
2026-01-15 07:29:15.32	150.38	7.28	-52.5	-55.2	11.0	6.08e-01	0	28	0	620756992	69	4849
2026-01-15 07:29:18.31	150.35	7.56	-52.5	-55.2	11.1	6.06e-01	0	28	0	666894336	69	4848
2026-01-15 07:29:21.29	150.31	7.84	-52.1	-54.7	11.4	6.06e-01	0	28	0	713031680	68	4857
2026-01-15 07:29:24.27	150.27	8.12	-51.9	-54.4	11.6	6.07e-01	0	28	0	759169024	68	4705
2026-01-15 07:29:27.25	150.23	8.40	-51.7	-54.3	11.7	6.06e-01	0	28	0	805306368	67	4885
2026-01-15 07:29:30.23	150.19	8.70	-51.4	-54.0	12.0	6.04e-01	0	28	0	851443712	67	4714
2026-01-15 07:29:33.22	150.15	8.99	-51.5	-54.1	11.9	6.01e-01	0	28	0	897581056	67	4763
2026-01-15 07:29:36.18	150.10	9.29	-51.4	-53.9	12.0	6.05e-01	0	28	0	943718400	67	4701
2026-01-15 07:29:39.17	150.06	9.60	-51.2	-53.7	12.2	6.03e-01	0	28	0	987758592	67	4591
2026-01-15 07:29:42.15	150.01	9.91	-51.1	-53.6	12.2	6.01e-01	0	28	0	1033895936	66	4795
2026-01-15 07:29:45.13	149.96	10.23	-51.2	-53.8	12.1	6.06e-01	0	28	0	1080033280	66	4872
2026-01-15 07:29:48.11	149.91	10.55	-51.2	-53.7	12.1	6.04e-01	0	28	0	1126170624	66	4852
2026-01-15 07:29:51.09	149.86	10.87	-50.9	-53.4	12.4	6.04e-01	0	28	0	1172307968	66	4695
2026-01-15 07:29:54.08	149.80	11.21	-50.8	-53.3	12.4	6.04e-01	0	28	0	1218445312	66	4639
2026-01-15 07:29:57.07	149.75	11.55	-50.7	-53.3	12.4	6.05e-01	0	28	0	1262485504	65	4887
2026-01-15 07:30:00.07	149.69	11.90	-50.5	-53.0	12.6	6.05e-01	0	28	0	1308622848	65	4718
2026-01-15 07:30:03.08	149.63	12.25	-50.5	-53.0	12.6	6.05e-01	0	28	0	1356857344	65	4737
2026-01-15 07:30:06.08	149.57	12.61	-50.3	-52.8	12.7	6.03e-01	0	28	0	1402994688	65	4650
2026-01-15 07:30:09.07	149.50	12.98	-50.3	-52.8	12.7	6.04e-01	0	28	0	1447034880	65	4646
2026-01-15 07:30:12.06	149.44	13.36	-50.0	-52.5	12.8	6.01e-01	0	28	0	1493172224	64	4739
2026-01-15 07:30:15.04	149.37	13.74	-50.0	-52.5	12.9	6.02e-01	0	28	0	1539309568	64	4713
2026-01-15 07:30:18.05	149.30	14.13	-49.9	-52.3	12.9	6.02e-01	0	28	0	1585446912	64	4648
2026-01-15 07:30:21.04	149.22	14.53	-49.7	-52.1	13.0	6.03e-01	0	28	0	1631584256	64	4545
2026-01-15 07:30:24.04	149.15	14.94	-49.7	-52.1	13.0	6.02e-01	0	28	0	1677721600	63	4805
2026-01-15 07:30:27.03	149.07	15.36	-49.5	-51.9	13.2	6.00e-01	0	28	0	1723858944	63	4658
2026-01-15 07:30:30.02	148.99	15.79	-49.4	-51.7	13.2	6.03e-01	0	28	0	1769996288	63	4586
2026-01-15 07:30:33.01	148.90	16.22	-49.1	-51.4	13.3	6.05e-01	0	28	0	1816133632	62	4699
2026-01-15 07:30:35.98	148.81	16.67	-49.1	-51.4	13.3	6.04e-01	0	28	0	1862270976	62	4683
2026-01-15 07:30:38.97	148.72	17.12	-48.9	-51.2	13.4	6.05e-01	0	28	0	1906311168	62	4579
2026-01-15 07:30:41.94	148.62	17.59	-48.8	-51.0	13.5	6.05e-01	0	28	0	1952448512	62	4491
2026-01-15 07:30:44.93	148.52	18.07	-48.7	-51.0	13.6	6.02e-01	0	28	0	1998585856	62	4465
2026-01-15 07:30:47.94	148.42	18.57	-48.5	-50.8	13.6	6.01e-01	0	28	0	2044723200	61	4600
2026-01-15 07:30:50.97	148.31	19.08	-48.4	-50.7	13.6	6.03e-01	0	28	0	2090860544	61	4558
2026-01-15 07:30:53.96	148.19	19.60	-48.3	-50.5	13.7	6.03e-01	0	28	0	2136997888	61	4482
2026-01-15 07:30:56.99	148.07	20.14	-48.3	-50.5	13.7	6.02e-01	0	28	0	2183135232	61	4470
2026-01-15 07:31:00.00	147.95	20.69	-48.1	-50.2	13.7	6.04e-01	0	28	0	2229272576	60	4570
2026-01-15 07:31:03.00	147.82	21.25	-47.8	-49.9	13.9	6.04e-01	0	28	0	2275409920	60	4433
2026-01-15 07:31:06.00	147.68	21.83	-47.9	-50.0	13.9	6.03e-01	0	28	0	2321547264	60	4451
2026-01-15 07:31:08.98	147.54	22.43	-47.9	-49.9	13.9	6.02e-01	0	28	0	2367684608	60	4440
2026-01-15 07:31:11.96	147.39	23.04	-47.9	-50.0	13.9	6.02e-01	0	28	0	2413821952	60	4457
2026-01-15 07:31:14.94	147.23	23.67	-47.9	-50.1	13.8	6.02e-01	0	28	0	2459959296	60	4496
2026-01-15 07:31:17.92	147.07	24.32	-47.9	-50.1	13.8	6.03e-01	0	28	0	2503999488	60	4513
2026-01-15 07:31:20.89	146.90	24.99	-47.9	-50.0	13.9	6.03e-01	0	28	0	2550136832	60	4468
2026-01-15 07:31:23.86	146.72	25.67	-47.8	-49.9	13.9	6.05e-01	0	28	0	2596274176	60	4419
2026-01-15 07:31:26.84	146.53	26.39	-47.8	-49.9	13.8	6.03e-01	0	28	0	2642411520	59	4683
2026-01-15 07:31:29.83	146.33	27.12	-47.9	-50.1	13.7	6.02e-01	0	28	0	2688548864	59	4802
2026-01-15 07:31:32.81	146.11	27.88	-48.1	-50.4	13.6	6.03e-01	0	28	0	2734686208	59	4938
2026-01-15 07:31:35.79	145.89	28.67	-48.2	-50.4	13.6	6.03e-01	0	28	0	2778726400	59	4973
2026-01-15 07:31:38.78	145.65	29.48	-48.2	-50.4	13.6	6.02e-01	0	28	0	2824863744	59	4938
2026-01-15 07:31:41.75	145.40	30.32	-48.0	-50.3	13.7	6.01e-01	0	28	0	2871001088	59	4902
2026-01-15 07:31:44.73	145.13	31.19	-48.2	-50.6	13.6	5.99e-01	0	28	0	2917138432	59	5042
2026-01-15 07:31:47.71	144.85	32.09	-48.3	-50.8	13.5	6.05e-01	0	28	0	2963275776	59	5190
2026-01-15 07:31:50.68	144.55	33.02	-48.0	-50.7	13.6	6.02e-01	0	28	0	3009413120	59	5135
2026-01-15 07:31:53.66	144.23	33.99	-47.9	-50.4	13.7	6.03e-01	0	28	0	3053453312	59	4975
2026-01-15 07:31:56.64	143.88	34.99	-47.6	-50.2	13.8	6.02e-01	0	28	0	3099590656	59	4826
2026-01-15 07:31:59.65	143.51	36.04	-47.4	-50.1	13.9	6.03e-01	0	28	0	3145728000	59	4794
2026-01-15 07:32:02.65	143.11	37.13	-47.0	-49.5	14.0	6.03e-01	0	28	0	3191865344	58	4752
2026-01-15 07:32:05.64	142.68	38.26	-46.5	-49.0	14.2	5.98e-01	0	28	0	3238002688	57	4721
2026-01-15 07:32:08.63	142.22	39.42	-46.3	-49.0	14.2	6.01e-01	0	28	0	3284140032	57	4707
2026-01-15 07:32:11.61	141.72	40.63	-46.0	-48.7	14.2	6.02e-01	0	28	0	3330277376	56	4836
2026-01-15 07:32:14.60	141.18	41.88	-45.7	-48.4	14.3	6.02e-01	0	28	0	3376414720	55	4983
2026-01-15 07:32:17.58	140.60	43.18	-45.7	-48.6	14.3	6.03e-01	0	28	0	3422552064	55	5077
2026-01-15 07:32:20.58	139.95	44.54	-45.1	-47.6	14.5	6.02e-01	0	28	0	3468689408	54	4774
2026-01-15 07:32:23.56	139.25	45.94	-45.4	-48.1	14.3	5.97e-01	0	28	0	3512729600	54	5047
2026-01-15 07:32:26.54	138.48	47.38	-45.0	-47.6	14.5	6.06e-01	0	28	0	3558866944	54	4765
2026-01-15 07:32:29.52	137.63	48.88	-45.4	-48.1	14.3	6.02e-01	0	28	0	3605004288	54	5100
2026-01-15 07:32:32.50	136.69	50.43	-45.6	-48.5	14.1	5.96e-01	0	28	0	3651141632	54	5316
2026-01-15 07:32:35.48	135.64	52.03	-45.9	-48.6	14.2	6.00e-01	0	29	0	3697278976	55	5088
2026-01-15 07:32:38.46	134.46	53.68	-46.7	-49.3	14.0	6.01e-01	0	28	0	3741319168	56	5202
2026-01-15 07:32:41.43	133.14	55.37	-46.6	-49.1	14.1	5.93e-01	0	28	0	3787456512	56	5091
2026-01-15 07:32:44.40	131.65	57.10	-46.7	-49.5	13.9	5.94e-01	0	28	0	3833593856	56	5282
2026-01-15 07:32:47.38	129.94	58.88	-46.5	-49.1	14.0	5.93e-01	0	28	0	3879731200	56	5090
2026-01-15 07:32:50.34	127.99	60.67	-48.2	-49.3	13.8	5.94e-01	0	28	0	3925868544	59	4359
2026-01-15 07:32:53.33	125.71	62.51	-61.2	-71.0	3.8	7.45e-01	0	28	104	3930062848	85	11884
2026-01-15 07:32:56.31	123.05	64.34	-61.2	-71.0	3.8	7.46e-01	0	28	104	3930062848	85	11869
2026-01-15 07:32:59.30	119.92	66.18	-61.2	-71.0	3.8	7.47e-01	0	28	104	3930062848	85	11866
2026-01-15 07:33:02.28	116.23	67.97	-61.3	-71.0	3.8	7.45e-01	0	28	104	3930062848	85	11879
2026-01-15 07:33:05.27	111.80	69.71	-61.2	-71.0	3.8	7.47e-01	0	28	104	3930062848	85	11913
2026-01-15 07:33:08.26	106.51	71.35	-61.3	-71.1	3.8	7.45e-01	0	28	104	3930062848	85	11989
2026-01-15 07:33:11.24	100.20	72.83	-61.3	-71.1	3.8	7.46e-01	0	28	104	3930062848	85	11983
2026-01-15 07:33:14.24	92.67	74.09	-61.3	-71.1	3.8	7.46e-01	0	28	104	3930062848	85	11985
2026-01-15 07:33:17.22	84.02	75.06	-61.3	-71.0	3.8	7.46e-01	0	28	104	3930062848	85	11936
2026-01-15 07:33:20.20	74.36	75.66	-61.4	-71.2	3.8	7.45e-01	0	28	104	3930062848	85	12106
2026-01-15 07:33:23.19	64.12	75.84	-61.4	-71.2	3.8	7.46e-01	0	28	104	3930062848	86	11502
2026-01-15 07:33:26.17	53.96	75.58	-61.5	-71.2	3.8	7.46e-01	0	28	104	3930062848	86	11476
2026-01-15 07:33:29.15	44.46	74.91	-61.4	-71.2	3.8	7.46e-01	0	29	104	3930062848	86	11458
2026-01-15 07:33:32.14	35.98	73.89	-61.5	-71.2	3.8	7.46e-01	0	28	104	3930062848	86	11533
2026-01-15 07:33:35.11	28.74	72.59	-61.5	-71.3	3.8	7.46e-01	0	28	104	3930062848	86	11572
2026-01-15 07:33:38.09	22.62	71.09	-61.5	-71.3	3.8	7.46e-01	0	28	104	3930062848	86	11579
2026-01-15 07:33:41.07	17.50	69.44	-61.5	-71.2	3.8	7.46e-01	0	28	104	3930062848	86	11541
2026-01-15 07:33:44.05	13.22	67.70	-61.5	-71.3	3.8	7.46e-01	0	28	104	3930062848	86	11574
2026-01-15 07:33:47.04	9.61	65.89	-61.5	-71.3	3.8	7.46e-01	0	28	104	3930062848	86	11569
2026-01-15 07:33:50.02	6.58	64.06	-61.5	-71.3	3.8	7.46e-01	0	28	104	3930062848	86	11590
2026-01-15 07:33:53.02	3.98	62.22	-61.5	-71.3	3.8	7.45e-01	0	28	104	3930062848	86	11578
2026-01-15 07:33:56.00	1.77	60.40	-61.6	-71.3	3.8	7.46e-01	0	28	104	3930062848	86	11633
2026-01-15 07:33:58.99	359.84	58.59	-61.6	-71.3	3.8	7.45e-01	0	28	104	3930062848	86	11606
2026-01-15 07:34:01.97	358.17	56.83	-61.6	-71.3	3.8	7.45e-01	0	29	104	3930062848	86	11672
2026-01-15 07:34:04.97	356.70	55.09	-61.5	-71.3	3.8	7.46e-01	0	29	104	3930062848	86	11560
2026-01-15 07:34:07.94	355.41	53.41	-61.5	-71.3	3.8	7.47e-01	0	29	104	3930062848	86	11578
2026-01-15 07:34:10.93	354.26	51.77	-61.5	-71.3	3.8	7.46e-01	0	28	104	3930062848	86	11557
2026-01-15 07:34:13.93	353.22	50.18	-61.5	-71.2	3.8	7.45e-01	0	28	104	3930062848	86	11530
2026-01-15 07:34:16.92	352.29	48.63	-61.5	-71.2	3.8	7.46e-01	0	28	104	3930062848	86	11474
2026-01-15 07:34:19.90	351.46	47.15	-61.5	-71.2	3.8	7.45e-01	0	28	104	3930062848	86	11509
2026-01-15 07:34:22.90	350.70	45.71	-61.5	-71.2	3.8	7.45e-01	0	28	104	3930062848	86	11491
2026-01-15 07:34:25.88	350.01	44.32	-61.4	-71.2	3.8	7.45e-01	0	28	104	3930062848	86	11444
2026-01-15 07:34:28.87	349.38	42.99	-61.4	-71.2	3.8	7.47e-01	0	29	104	3930062848	86	11424
2026-01-15 07:34:31.86	348.80	41.70	-61.5	-71.2	3.8	7.47e-01	0	28	104	3930062848	86	11459
2026-01-15 07:34:34.84	348.27	40.46	-61.4	-71.2	3.8	7.46e-01	0	28	104	3930062848	86	11470
2026-01-15 07:34:37.82	347.79	39.26	-61.4	-71.1	3.8	7.46e-01	0	28	104	3930062848	86	11414
2026-01-15 07:34:40.79	347.34	38.12	-61.4	-71.2	3.8	7.46e-01	0	28	104	3930062848	86	11426
2026-01-15 07:34:43.76	346.92	37.01	-61.4	-71.1	3.8	7.46e-01	0	28	104	3930062848	86	11355
2026-01-15 07:34:46.73	346.53	35.94	-61.3	-71.1	3.8	7.46e-01	0	28	104	3930062848	86	11325
2026-01-15 07:34:49.71	346.16	34.91	-61.3	-71.1	3.8	7.46e-01	0	29	104	3930062848	86	11291
2026-01-15 07:34:52.69	345.82	33.92	-61.3	-71.1	3.8	7.46e-01	0	28	104	3930062848	86	11304
2026-01-15 07:34:55.67	345.51	32.96	-61.3	-71.0	3.8	7.45e-01	0	28	104	3930062848	86	11224
2026-01-15 07:34:58.65	345.21	32.03	-61.3	-71.0	3.8	7.44e-01	0	28	104	3930062848	86	11226
2026-01-15 07:35:01.63	344.93	31.14	-61.2	-71.0	3.8	7.46e-01	0	28	104	3930062848	86	11211
2026-01-15 07:35:04.61	344.66	30.28	-61.2	-70.9	3.8	7.44e-01	0	29	104	3930062848	86	11144
2026-01-15 07:35:07.59	344.42	29.44	-61.2	-70.9	3.8	7.45e-01	0	29	104	3930062848	86	11153
2026-01-15 07:35:10.59	344.18	28.63	-61.2	-71.0	3.8	7.46e-01	0	28	104	3930062848	86	11169
2026-01-15 07:35:13.58	343.96	27.85	-61.2	-70.9	3.8	7.46e-01	0	28	104	3930062848	86	11072
2026-01-15 07:35:16.56	343.75	27.10	-61.1	-70.9	3.8	7.45e-01	0	28	104	3930062848	86	11071
2026-01-15 07:35:19.54	343.55	26.37	-61.1	-70.9	3.8	7.44e-01	0	28	104	3930062848	86	11072
2026-01-15 07:35:22.52	343.36	25.66	-61.1	-70.8	3.8	7.46e-01	0	28	104	3930062848	86	11029
2026-01-15 07:35:25.49	343.18	24.98	-61.1	-70.8	3.8	7.47e-01	0	28	104	3930062848	86	10954
2026-01-15 07:35:28.48	343.01	24.31	-61.1	-70.8	3.8	7.45e-01	0	28	104	3930062848	86	11004
2026-01-15 07:35:31.45	342.85	23.67	-61.0	-70.8	3.8	7.45e-01	0	28	104	3930062848	86	10949
2026-01-15 07:35:34.44	342.70	23.04	-61.0	-70.8	3.8	7.44e-01	0	28	104	3930062848	86	10911
2026-01-15 07:35:37.42	342.55	22.44	-61.0	-70.7	3.8	7.44e-01	0	28	104	3930062848	86	10847
2026-01-15 07:35:40.39	342.41	21.85	-61.0	-70.7	3.8	7.44e-01	0	28	104	3930062848	86	10850
2026-01-15 07:35:43.36	342.28	21.28	-61.0	-70.7	3.8	7.45e-01	0	29	104	3930062848	86	10828
2026-01-15 07:35:46.35	342.15	20.72	-60.9	-70.6	3.8	7.44e-01	0	28	104	3930062848	86	10776
2026-01-15 07:35:49.33	342.03	20.17	-60.9	-70.7	3.8	7.46e-01	0	28	104	3930062848	86	10784
2026-01-15 07:35:52.31	341.91	19.65	-60.9	-70.6	3.8	7.46e-01	0	29	104	3930062848	86	10746
2026-01-15 07:35:55.29	341.80	19.13	-60.9	-70.6	3.8	7.46e-01	0	28	104	3930062848	86	10726
2026-01-15 07:35:58.28	341.69	18.63	-60.9	-70.6	3.8	7.45e-01	0	29	104	3930062848	86	10708
2026-01-15 07:36:01.26	341.59	18.14	-60.9	-70.6	3.8	7.46e-01	0	29	104	3930062848	86	10712
2026-01-15 07:36:04.24	341.49	17.66	-60.8	-70.5	3.8	7.46e-01	0	28	104	3930062848	86	10643
2026-01-15 07:36:07.24	341.40	17.20	-60.8	-70.5	3.8	7.45e-01	0	29	104	3930062848	86	10649
2026-01-15 07:36:10.22	341.31	16.74	-60.8	-70.5	3.8	7.45e-01	0	28	104	3930062848	86	10631
2026-01-15 07:36:13.20	341.22	16.30	-60.8	-70.5	3.8	7.45e-01	0	28	104	3930062848	86	10588
2026-01-15 07:36:16.18	341.13	15.86	-60.7	-70.5	3.8	7.46e-01	0	28	104	3930062848	86	10562
2026-01-15 07:36:19.17	341.05	15.44	-60.7	-70.5	3.8	7.45e-01	0	29	104	3930062848	86	10540
2026-01-15 07:36:22.15	340.97	15.03	-60.7	-70.4	3.8	7.46e-01	0	28	104	3930062848	86	10495
2026-01-15 07:36:25.12	340.90	14.62	-60.7	-70.4	3.8	7.44e-01	0	29	104	3930062848	85	11038
2026-01-15 07:36:28.11	340.83	14.22	-60.6	-70.3	3.8	7.46e-01	0	28	104	3930062848	85	11014
2026-01-15 07:36:31.09	340.76	13.84	-60.6	-70.3	3.8	7.46e-01	0	28	104	3930062848	85	11016
2026-01-15 07:36:34.07	340.69	13.46	-60.6	-70.3	3.8	7.43e-01	0	29	104	3930062848	85	10942
2026-01-15 07:36:37.06	340.63	13.08	-60.6	-70.3	3.8	7.46e-01	0	28	104	3930062848	85	10965
2026-01-15 07:36:40.05	340.56	12.72	-60.5	-70.2	3.8	7.45e-01	0	29	104	3930062848	85	10889
2026-01-15 07:36:43.03	340.50	12.36	-60.5	-70.2	3.8	7.46e-01	0	28	104	3930062848	85	10897
2026-01-15 07:36:46.02	340.45	12.01	-60.5	-70.2	3.8	7.45e-01	0	28	104	3930062848	85	10890
2026-01-15 07:36:48.98	340.39	11.66	-60.5	-70.3	3.8	7.46e-01	0	28	104	3930062848	85	10906
2026-01-15 07:36:51.94	340.34	11.33	-60.4	-70.2	3.8	7.44e-01	0	28	104	3930062848	85	10787
2026-01-15 07:36:54.92	340.28	10.99	-60.4	-70.1	3.8	7.47e-01	0	29	104	3930062848	85	10727
2026-01-15 07:36:57.89	340.23	10.67	-60.4	-70.1	3.8	7.47e-01	0	28	104	3930062848	85	10711
2026-01-15 07:37:00.86	340.18	10.35	-60.4	-70.2	3.8	7.46e-01	0	28	104	3930062848	85	10808
2026-01-15 07:37:03.84	340.14	10.03	-60.3	-70.0	3.8	7.48e-01	0	28	104	3930062848	85	10623
2026-01-15 07:37:06.81	340.09	9.72	-60.3	-70.0	3.8	7.45e-01	0	28	104	3930062848	85	10638
2026-01-15 07:37:09.79	340.05	9.42	-60.3	-70.0	3.8	7.46e-01	0	28	104	3930062848	85	10623
2026-01-15 07:37:12.77	340.00	9.12	-60.3	-70.0	3.8	7.45e-01	0	28	104	3930062848	85	10603
2026-01-15 07:37:15.74	339.96	8.82	-60.1	-69.9	3.8	7.48e-01	0	28	104	3930062848	84	11078
2026-01-15 07:37:18.71	339.92	8.53	-60.2	-69.9	3.8	7.46e-01	0	28	104	3930062848	84	11091
2026-01-15 07:37:21.71	339.88	8.25	-60.1	-69.9	3.8	7.45e-01	0	29	104	3930062848	84	11069
2026-01-15 07:37:24.70	339.85	7.96	-60.2	-69.9	3.8	7.45e-01	0	28	104	3930062848	84	11047
2026-01-15 07:37:27.69	339.81	7.68	-60.0	-69.7	3.8	7.46e-01	0	28	104	3930062848	84	10870
2026-01-15 07:37:30.67	339.77	7.41	-60.0	-69.7	3.8	7.46e-01	0	29	104	3930062848	84	10887
2026-01-15 07:37:33.65	339.74	7.14	-60.0	-69.7	3.8	7.46e-01	0	28	104	3930062848	84	10841
2026-01-15 07:37:36.62	339.71	6.88	-60.0	-69.7	3.8	7.46e-01	0	29	104	3930062848	84	10816
2026-01-15 07:37:39.60	339.68	6.61	-59.9	-69.6	3.8	7.44e-01	0	29	104	3930062848	84	10754
2026-01-15 07:37:42.56	339.64	6.36	-59.9	-69.6	3.8	7.46e-01	0	28	104	3930062848	84	10764
2026-01-15 07:37:45.54	339.61	6.10	-59.9	-69.6	3.8	7.46e-01	0	28	104	3930062848	84	10725
2026-01-15 07:37:48.51	339.59	5.85	-59.9	-69.6	3.8	7.43e-01	0	28	104	3930062848	84	10717
2026-01-15 07:37:51.49	339.56	5.60	-59.7	-69.4	3.8	7.47e-01	0	28	104	3930062848	84	10532
2026-01-15 07:37:54.47	339.53	5.35	-59.8	-69.5	3.8	7.45e-01	0	29	104	3930062848	84	10563
2026-01-15 07:37:57.44	339.50	5.11	-59.6	-69.4	3.8	7.45e-01	0	29	104	3930062848	83	11034
2026-01-15 07:38:00.44	339.48	4.87	-60.4	-70.1	3.8	7.46e-01	0	29	104	3930062848	83	12011
2026-01-15 07:38:03.46	339.45	4.63	-61.1	-70.8	3.8	7.47e-01	0	28	104	3930062848	85	11629
2026-01-15 07:38:06.48	339.43	4.39	-61.4	-71.1	3.8	7.47e-01	0	29	104	3930062848	85	12051
2026-01-15 07:38:09.50	339.40	4.16	-61.6	-71.3	3.8	7.45e-01	0	29	104	3930062848	86	11650
2026-01-15 07:38:12.51	339.38	3.93	-61.6	-71.3	3.8	7.47e-01	0	29	104	3930062848	86	11676
2026-01-15 07:38:15.50	339.36	3.70	-61.7	-71.4	3.8	7.47e-01	0	29	104	3930062848	86	11774
2026-01-15 07:38:18.49	339.34	3.47	-61.7	-71.4	3.8	7.46e-01	0	29	104	3930062848	86	11813
2026-01-15 07:38:21.47	339.32	3.25	-61.7	-71.4	3.8	7.46e-01	0	29	104	3930062848	86	11798
2026-01-15 07:38:24.45	339.30	3.03	-61.6	-71.4	3.8	7.46e-01	0	29	104	3930062848	86	11691
2026-01-15 07:38:27.44	339.28	2.82	-61.6	-71.3	3.8	7.47e-01	0	28	104	3930062848	86	11642
2026-01-15 07:38:30.42	339.26	2.60	-61.5	-71.3	3.8	7.45e-01	0	29	104	3930062848	86	11603
2026-01-15 07:38:33.41	339.24	2.39	-61.5	-71.2	3.8	7.44e-01	0	28	104	3930062848	86	11538
2026-01-15 07:38:36.39	339.22	2.18	-61.5	-71.2	3.8	7.45e-01	0	28	104	3930062848	86	11509
2026-01-15 07:38:39.37	339.21	1.97	-61.5	-71.2	3.8	7.46e-01	0	28	104	3930062848	86	11471

#Closed at: 2026-01-15 07:38:41
#Recorded file [3930 MB]: D:/lorett/data/31004_260115_102809.dat