passes_logs/2026/01/15/R3.2S_Murmansk/R3.2S_Murmansk__20260115_043114_SUOMI_NPP_rec.log

#Pass ID: 20260115_043114_SUOMI NPP
#Satellite: SUOMI NPP
#Configuration: NPP
#almurnet v.1.7.20251203
#Start time: 2026-01-15 04:31:16

#Version: 2.2.20231116
#Station: R3.2S_Murmansk
#Location: 33.079688 lon 68.888172 lat
#TLE: 1 37849U 11061A   26014.61059675  .00000037  00000+0  38639-4 0  9994
#TLE: 2 37849  98.7810 316.6625 0002460  64.3781 295.7649 14.19525105736658

#Time	Az	El	Level	Level2	SNR	BER	BlckErr	Temp	State	Recorded	gain1	gain2
2026-01-15 04:31:16.68	52.25	2.11	-58.2	-74.2	3.8	1.49e+00	0	26	0	0	82	22943
2026-01-15 04:31:20.67	52.00	2.33	-58.2	-74.2	3.8	1.49e+00	0	26	104	0	81	24189
2026-01-15 04:31:24.69	51.74	2.57	-58.2	-74.2	3.8	1.49e+00	0	26	104	0	81	24276
2026-01-15 04:31:28.69	51.48	2.80	-58.2	-74.2	3.8	1.49e+00	0	26	104	0	81	24302
2026-01-15 04:31:32.70	51.21	3.03	-58.2	-74.2	3.8	1.49e+00	0	26	104	0	81	24237
2026-01-15 04:31:36.70	50.94	3.27	-58.2	-74.2	3.8	1.49e+00	0	26	104	0	81	24206
2026-01-15 04:31:40.72	50.67	3.50	-58.2	-74.2	3.8	1.49e+00	0	26	104	0	81	24364
2026-01-15 04:31:44.72	50.39	3.74	-58.2	-74.1	3.8	1.49e+00	0	26	104	0	81	24113
2026-01-15 04:31:48.72	50.11	3.98	-58.2	-74.2	3.8	1.49e+00	0	27	104	0	81	24300
2026-01-15 04:31:52.73	49.82	4.22	-58.2	-73.5	3.8	1.49e+00	0	27	104	0	81	22457
2026-01-15 04:31:56.75	49.53	4.46	-58.1	-71.0	4.1	1.46e+00	0	27	0	0	81	16828
2026-01-15 04:32:00.75	49.23	4.71	-57.8	-68.0	5.3	6.86e-01	0	27	0	5242880	81	11852
2026-01-15 04:32:04.76	48.92	4.95	-57.6	-66.6	6.2	2.81e-01	0	27	0	12582912	81	10076
2026-01-15 04:32:08.76	48.62	5.20	-57.9	-68.9	4.9	3.30e-01	0	27	0	19922944	81	13140
2026-01-15 04:32:12.76	48.30	5.45	-56.4	-61.5	10.5	9.34e-04	0	27	0	25165824	79	6308
2026-01-15 04:32:16.76	47.98	5.70	-55.8	-60.1	11.5	2.44e-05	0	27	0	32505856	78	5716
2026-01-15 04:32:20.78	47.66	5.95	-55.4	-59.4	12.0	2.20e-06	0	27	0	39845888	77	5536
2026-01-15 04:32:24.77	47.32	6.20	-55.2	-58.9	12.3	7.00e-07	0	27	0	48234496	76	5561
2026-01-15 04:32:28.77	46.99	6.45	-55.2	-58.9	12.2	1.50e-06	0	27	0	55574528	76	5545
2026-01-15 04:32:32.76	46.64	6.71	-54.9	-58.3	12.7	0.00e+00	0	27	0	62914560	76	5174
2026-01-15 04:32:36.76	46.29	6.96	-54.6	-57.7	13.0	0.00e+00	0	27	0	70254592	75	5150
2026-01-15 04:32:40.77	45.94	7.22	-54.7	-58.1	12.7	0.00e+00	0	27	0	77594624	75	5343
2026-01-15 04:32:44.79	45.57	7.48	-54.8	-58.3	12.5	0.00e+00	0	27	0	84934656	75	5527
2026-01-15 04:32:48.81	45.20	7.75	-54.7	-58.2	12.7	0.00e+00	0	27	0	93323264	75	5404
2026-01-15 04:32:52.81	44.82	8.01	-54.9	-58.4	12.5	0.00e+00	0	27	0	100663296	75	5547
2026-01-15 04:32:56.81	44.44	8.27	-54.9	-58.5	12.5	7.00e-07	0	27	0	108003328	75	5637
2026-01-15 04:33:00.83	44.05	8.54	-54.4	-57.5	13.2	0.00e+00	0	27	0	115343360	75	5034
2026-01-15 04:33:04.84	43.65	8.81	-54.2	-57.3	13.2	0.00e+00	0	28	0	122683392	74	5174
2026-01-15 04:33:08.84	43.24	9.08	-54.2	-57.2	13.3	0.00e+00	0	27	0	130023424	74	5155
2026-01-15 04:33:12.84	42.83	9.35	-54.0	-56.9	13.4	0.00e+00	0	27	0	138412032	74	4933
2026-01-15 04:33:16.84	42.40	9.62	-54.1	-57.1	13.4	0.00e+00	0	27	0	145752064	74	5060
2026-01-15 04:33:20.83	41.97	9.89	-54.2	-57.1	13.3	0.00e+00	0	28	0	153092096	74	5071
2026-01-15 04:33:24.81	41.54	10.16	-54.1	-56.9	13.5	0.00e+00	0	28	0	160432128	74	4961
2026-01-15 04:33:28.80	41.09	10.44	-54.2	-57.0	13.4	0.00e+00	0	28	0	167772160	74	5032
2026-01-15 04:33:32.80	40.64	10.72	-54.3	-57.1	13.3	0.00e+00	0	28	0	175112192	74	5089
2026-01-15 04:33:36.79	40.17	10.99	-54.5	-57.5	13.2	0.00e+00	0	27	0	182452224	74	5285
2026-01-15 04:33:40.81	39.69	11.28	-54.3	-57.2	13.3	0.00e+00	0	27	0	190840832	74	5154
2026-01-15 04:33:44.79	39.21	11.56	-54.2	-57.0	13.4	0.00e+00	0	27	0	198180864	74	4992
2026-01-15 04:33:48.79	38.72	11.84	-53.8	-56.5	13.7	0.00e+00	0	28	0	205520896	74	4715
2026-01-15 04:33:52.79	38.22	12.12	-53.9	-56.5	13.7	0.00e+00	0	28	0	212860928	74	4730
2026-01-15 04:33:56.80	37.70	12.41	-53.4	-55.8	13.9	0.00e+00	0	28	0	220200960	73	4636
2026-01-15 04:34:00.81	37.18	12.69	-53.5	-56.0	13.8	0.00e+00	0	28	0	227540992	73	4756
2026-01-15 04:34:04.82	36.64	12.98	-53.6	-56.0	13.9	0.00e+00	0	28	0	234881024	73	4747
2026-01-15 04:34:08.83	36.10	13.27	-53.4	-55.7	14.0	0.00e+00	0	28	0	243269632	73	4572
2026-01-15 04:34:12.81	35.54	13.55	-53.3	-55.7	14.0	0.00e+00	0	28	0	250609664	73	4561
2026-01-15 04:34:16.81	34.98	13.84	-53.3	-55.7	14.0	0.00e+00	0	28	0	257949696	73	4589
2026-01-15 04:34:20.79	34.40	14.13	-53.1	-55.5	14.0	0.00e+00	0	28	0	265289728	72	4733
2026-01-15 04:34:24.77	33.81	14.42	-53.5	-56.1	13.7	0.00e+00	0	28	0	272629760	72	5042
2026-01-15 04:34:28.76	33.21	14.71	-53.6	-56.3	13.6	0.00e+00	0	28	0	279969792	72	5169
2026-01-15 04:34:32.77	32.60	15.00	-53.9	-56.7	13.5	0.00e+00	0	28	0	287309824	73	5120
2026-01-15 04:34:36.76	31.97	15.29	-53.7	-56.4	13.7	0.00e+00	0	28	0	295698432	73	4930
2026-01-15 04:34:40.76	31.34	15.58	-53.7	-56.4	13.7	0.00e+00	0	28	0	303038464	73	4933
2026-01-15 04:34:44.76	30.68	15.86	-53.9	-56.6	13.6	0.00e+00	0	28	0	310378496	73	5047
2026-01-15 04:34:48.76	30.02	16.15	-54.2	-57.1	13.3	0.00e+00	0	28	0	317718528	73	5391
2026-01-15 04:34:52.76	29.34	16.44	-53.8	-56.5	13.6	0.00e+00	0	28	0	325058560	73	4999
2026-01-15 04:34:56.76	28.65	16.73	-53.8	-56.5	13.6	0.00e+00	0	28	0	332398592	73	5021
2026-01-15 04:35:00.77	27.95	17.02	-53.7	-56.3	13.7	0.00e+00	0	28	0	340787200	73	4901
2026-01-15 04:35:04.75	27.23	17.30	-53.6	-56.2	13.7	0.00e+00	0	28	0	348127232	73	4869
2026-01-15 04:35:08.74	26.50	17.58	-53.5	-56.1	13.8	0.00e+00	0	28	0	355467264	73	4760
2026-01-15 04:35:12.74	25.76	17.87	-54.1	-56.9	13.4	0.00e+00	0	28	0	362807296	73	5236
2026-01-15 04:35:16.73	25.00	18.15	-53.6	-56.1	13.8	0.00e+00	0	28	0	370147328	73	4772
2026-01-15 04:35:20.72	24.23	18.42	-53.2	-55.5	14.1	0.00e+00	0	28	0	377487360	72	4715
2026-01-15 04:35:24.72	23.44	18.70	-53.2	-55.7	14.0	0.00e+00	0	28	0	384827392	72	4822
2026-01-15 04:35:28.70	22.64	18.97	-52.7	-55.0	14.1	0.00e+00	0	28	0	392167424	71	4727
2026-01-15 04:35:32.68	21.83	19.24	-52.4	-54.5	14.3	0.00e+00	0	28	0	400556032	71	4490
2026-01-15 04:35:36.68	20.99	19.51	-52.1	-54.1	14.3	0.00e+00	0	28	0	407896064	70	4537
2026-01-15 04:35:40.67	20.15	19.77	-52.4	-54.6	14.2	0.00e+00	0	28	0	415236096	70	4764
2026-01-15 04:35:44.67	19.29	20.03	-52.1	-54.1	14.4	0.00e+00	0	28	0	422576128	70	4541
2026-01-15 04:35:48.66	18.41	20.28	-52.3	-54.4	14.3	0.00e+00	0	28	0	429916160	70	4690
2026-01-15 04:35:52.67	17.52	20.53	-52.3	-54.4	14.3	0.00e+00	0	28	0	437256192	70	4673
2026-01-15 04:35:56.67	16.61	20.78	-51.9	-53.9	14.5	0.00e+00	0	28	0	444596224	70	4398
2026-01-15 04:36:00.65	15.70	21.02	-51.8	-53.7	14.5	0.00e+00	0	28	0	452984832	69	4593
2026-01-15 04:36:04.63	14.77	21.25	-51.6	-53.4	14.6	0.00e+00	0	28	0	460324864	69	4426
2026-01-15 04:36:08.62	13.82	21.48	-51.7	-53.5	14.6	0.00e+00	0	28	0	467664896	69	4473
2026-01-15 04:36:12.62	12.86	21.70	-51.6	-53.4	14.7	0.00e+00	0	28	0	475004928	69	4399
2026-01-15 04:36:16.60	11.89	21.91	-51.5	-53.3	14.7	0.00e+00	0	28	0	482344960	69	4355
2026-01-15 04:36:20.61	10.89	22.12	-52.0	-53.9	14.5	0.00e+00	0	28	0	489684992	69	4652
2026-01-15 04:36:24.60	9.89	22.32	-51.6	-53.4	14.6	0.00e+00	0	28	0	497025024	69	4412
2026-01-15 04:36:28.58	8.88	22.51	-51.7	-53.5	14.6	0.00e+00	0	28	0	505413632	69	4468
2026-01-15 04:36:32.56	7.86	22.69	-51.8	-53.6	14.6	0.00e+00	0	28	0	512753664	69	4519
2026-01-15 04:36:36.54	6.82	22.87	-51.5	-53.2	14.7	0.00e+00	0	28	0	520093696	69	4314
2026-01-15 04:36:40.54	5.77	23.03	-51.5	-53.2	14.7	0.00e+00	0	28	0	527433728	69	4294
2026-01-15 04:36:44.54	4.71	23.19	-51.8	-53.6	14.6	0.00e+00	0	28	0	534773760	69	4506
2026-01-15 04:36:48.54	3.64	23.33	-52.5	-54.5	14.3	0.00e+00	0	28	0	542113792	70	4749
2026-01-15 04:36:52.54	2.55	23.47	-53.5	-55.9	13.9	0.00e+00	0	28	0	549453824	72	4972
2026-01-15 04:36:56.54	1.46	23.59	-53.1	-55.2	14.2	0.00e+00	0	28	0	557842432	72	4592
2026-01-15 04:37:00.53	0.36	23.71	-53.0	-55.2	14.1	0.00e+00	0	28	0	565182464	71	4837
2026-01-15 04:37:04.53	359.26	23.81	-52.5	-54.6	14.4	0.00e+00	0	28	0	572522496	71	4504
2026-01-15 04:37:08.51	358.15	23.90	-53.3	-55.7	13.9	0.00e+00	0	28	0	579862528	71	5151
2026-01-15 04:37:12.52	357.02	23.98	-53.2	-55.5	14.1	0.00e+00	0	28	0	587202560	72	4707
2026-01-15 04:37:16.52	355.89	24.05	-53.9	-56.5	13.6	0.00e+00	0	28	0	594542592	73	5033
2026-01-15 04:37:20.50	354.77	24.11	-53.3	-55.6	14.2	0.00e+00	0	28	0	601882624	73	4526
2026-01-15 04:37:24.49	353.64	24.15	-54.1	-56.8	13.6	0.00e+00	0	28	0	610271232	73	5173
2026-01-15 04:37:28.48	352.50	24.19	-53.7	-56.2	13.9	0.00e+00	0	28	0	617611264	73	4850
2026-01-15 04:37:32.47	351.36	24.21	-53.4	-55.7	14.1	0.00e+00	0	28	0	624951296	73	4589
2026-01-15 04:37:36.46	350.23	24.21	-52.8	-55.0	14.2	0.00e+00	0	28	0	632291328	71	4757
2026-01-15 04:37:40.46	349.08	24.21	-53.6	-56.2	13.7	0.00e+00	0	28	0	639631360	72	5139
2026-01-15 04:37:44.45	347.95	24.19	-52.7	-54.9	14.2	0.00e+00	0	28	0	646971392	71	4687
2026-01-15 04:37:48.44	346.81	24.16	-52.5	-54.7	14.3	0.00e+00	0	28	0	654311424	71	4552
2026-01-15 04:37:52.44	345.68	24.12	-51.9	-53.8	14.6	0.00e+00	0	28	0	662700032	70	4387
2026-01-15 04:37:56.45	344.54	24.07	-52.5	-54.5	14.3	0.00e+00	0	28	0	670040064	70	4721
2026-01-15 04:38:00.43	343.42	24.00	-52.1	-53.9	14.6	0.00e+00	0	28	0	677380096	70	4404
2026-01-15 04:38:04.42	342.30	23.93	-51.6	-53.3	14.7	0.00e+00	0	28	0	684720128	69	4382
2026-01-15 04:38:08.43	341.18	23.84	-51.3	-53.0	14.7	0.00e+00	0	28	0	692060160	68	4457
2026-01-15 04:38:12.43	340.07	23.74	-51.5	-53.1	14.7	0.00e+00	0	28	0	699400192	68	4541
2026-01-15 04:38:16.43	338.96	23.63	-51.9	-53.7	14.6	0.00e+00	0	28	0	706740224	69	4573
2026-01-15 04:38:20.41	337.87	23.51	-52.3	-54.2	14.4	0.00e+00	0	28	0	714080256	69	4826
2026-01-15 04:38:24.42	336.79	23.37	-52.1	-53.9	14.5	0.00e+00	0	28	0	722468864	69	4679
2026-01-15 04:38:28.41	335.71	23.23	-52.4	-54.3	14.4	0.00e+00	0	28	0	729808896	70	4613
2026-01-15 04:38:32.39	334.65	23.08	-52.2	-54.1	14.5	0.00e+00	0	28	0	737148928	70	4501
2026-01-15 04:38:36.38	333.60	22.92	-52.9	-55.0	14.3	0.00e+00	0	28	0	744488960	71	4707
2026-01-15 04:38:40.38	332.55	22.74	-53.0	-55.2	14.1	0.00e+00	0	28	0	751828992	71	4836
2026-01-15 04:38:44.37	331.52	22.56	-53.1	-55.4	14.1	0.00e+00	0	28	0	759169024	72	4660
2026-01-15 04:38:48.37	330.50	22.38	-53.0	-55.2	14.2	0.00e+00	0	28	0	766509056	72	4562
2026-01-15 04:38:52.36	329.50	22.18	-53.6	-56.1	13.8	7.00e-07	0	28	0	774897664	72	5065
2026-01-15 04:38:56.36	328.51	21.97	-53.1	-55.3	14.2	0.00e+00	0	28	0	782237696	72	4644
2026-01-15 04:39:00.37	327.52	21.76	-52.8	-54.9	14.4	0.00e+00	0	28	0	789577728	72	4421
2026-01-15 04:39:04.36	326.56	21.54	-53.2	-55.5	14.1	0.00e+00	0	28	0	796917760	72	4725
2026-01-15 04:39:08.35	325.61	21.32	-53.7	-56.2	13.7	0.00e+00	0	28	0	804257792	72	5155
2026-01-15 04:39:12.37	324.66	21.08	-53.6	-56.2	13.8	0.00e+00	0	28	0	811597824	72	5132
2026-01-15 04:39:16.37	323.74	20.84	-54.8	-58.2	12.9	0.00e+00	0	28	0	819986432	74	5743
2026-01-15 04:39:20.37	322.83	20.60	-54.0	-56.7	13.7	0.00e+00	0	28	0	827326464	74	4851
2026-01-15 04:39:24.37	321.93	20.35	-53.0	-55.3	14.2	0.00e+00	0	28	0	834666496	72	4615
2026-01-15 04:39:28.36	321.05	20.10	-52.4	-54.5	14.4	0.00e+00	0	28	0	842006528	71	4487
2026-01-15 04:39:32.35	320.19	19.84	-52.1	-54.1	14.5	0.00e+00	0	28	0	849346560	70	4502
2026-01-15 04:39:36.33	319.34	19.58	-51.5	-53.4	14.6	0.00e+00	0	28	0	856686592	69	4416
2026-01-15 04:39:40.31	318.51	19.32	-52.4	-54.6	14.2	0.00e+00	0	28	0	864026624	69	5055
2026-01-15 04:39:44.31	317.69	19.05	-53.4	-56.0	13.8	0.00e+00	0	28	0	872415232	72	5026
2026-01-15 04:39:48.33	316.88	18.77	-53.3	-55.8	13.9	0.00e+00	0	28	0	879755264	72	4909
2026-01-15 04:39:52.33	316.08	18.50	-52.7	-55.0	14.1	0.00e+00	0	28	0	887095296	71	4707
2026-01-15 04:39:56.35	315.30	18.22	-51.9	-53.9	14.5	0.00e+00	0	28	0	894435328	70	4429
2026-01-15 04:40:00.34	314.54	17.94	-52.5	-54.7	14.2	0.00e+00	0	28	0	901775360	70	4843
2026-01-15 04:40:04.36	313.79	17.66	-52.7	-54.9	14.1	0.00e+00	0	28	0	909115392	70	4983
2026-01-15 04:40:08.36	313.05	17.37	-52.9	-55.1	14.0	0.00e+00	0	28	0	917504000	70	5096
2026-01-15 04:40:12.37	312.33	17.09	-52.8	-55.1	14.2	0.00e+00	0	28	0	924844032	71	4772
2026-01-15 04:40:16.36	311.62	16.80	-52.6	-54.8	14.3	0.00e+00	0	28	0	932184064	71	4609
2026-01-15 04:40:20.37	310.93	16.51	-52.2	-54.1	14.5	0.00e+00	0	28	0	939524096	70	4536
2026-01-15 04:40:24.37	310.25	16.22	-52.4	-54.4	14.3	0.00e+00	0	28	0	946864128	70	4698
2026-01-15 04:40:28.35	309.58	15.94	-51.9	-53.7	14.6	0.00e+00	0	28	0	954204160	70	4304
2026-01-15 04:40:32.34	308.93	15.65	-51.7	-53.4	14.6	0.00e+00	0	28	0	961544192	69	4440
2026-01-15 04:40:36.34	308.29	15.36	-52.0	-53.8	14.5	0.00e+00	0	28	0	969932800	69	4638
2026-01-15 04:40:40.33	307.66	15.07	-52.3	-54.2	14.3	0.00e+00	0	28	0	977272832	69	4854
2026-01-15 04:40:44.33	307.04	14.78	-52.1	-53.9	14.4	0.00e+00	0	28	0	984612864	69	4689
2026-01-15 04:40:48.34	306.43	14.49	-51.7	-53.5	14.6	0.00e+00	0	28	0	991952896	69	4479
2026-01-15 04:40:52.33	305.84	14.20	-52.9	-55.0	14.1	0.00e+00	0	28	0	999292928	70	5011
2026-01-15 04:40:56.33	305.26	13.91	-52.9	-55.1	14.1	0.00e+00	0	28	0	1006632960	71	4763
2026-01-15 04:41:00.34	304.69	13.62	-52.6	-54.6	14.3	0.00e+00	0	28	0	1015021568	71	4520
2026-01-15 04:41:04.34	304.13	13.33	-52.5	-54.5	14.4	0.00e+00	0	28	0	1022361600	71	4464
2026-01-15 04:41:08.36	303.58	13.04	-52.4	-54.3	14.3	0.00e+00	0	28	0	1029701632	70	4649
2026-01-15 04:41:12.34	303.05	12.76	-53.3	-55.5	14.0	0.00e+00	0	28	0	1037041664	71	4996
2026-01-15 04:41:16.35	302.52	12.47	-53.4	-55.6	14.1	0.00e+00	0	28	0	1044381696	73	4545
2026-01-15 04:41:20.35	302.00	12.19	-52.8	-54.8	14.3	0.00e+00	0	28	0	1051721728	72	4366
2026-01-15 04:41:24.33	301.50	11.91	-52.7	-54.7	14.3	0.00e+00	0	28	0	1059061760	71	4589
2026-01-15 04:41:28.34	301.00	11.62	-52.8	-54.8	14.2	0.00e+00	0	28	0	1067450368	71	4621
2026-01-15 04:41:32.32	300.52	11.34	-52.8	-54.9	14.2	0.00e+00	0	28	0	1074790400	71	4672
2026-01-15 04:41:36.32	300.04	11.06	-53.3	-55.6	13.9	0.00e+00	0	28	0	1082130432	71	5044
2026-01-15 04:41:40.31	299.57	10.78	-53.7	-56.2	13.7	0.00e+00	0	28	0	1089470464	72	5131
2026-01-15 04:41:44.31	299.11	10.51	-53.6	-56.0	13.8	0.00e+00	0	28	0	1096810496	72	5025
2026-01-15 04:41:48.30	298.66	10.23	-54.0	-56.6	13.5	0.00e+00	0	28	0	1104150528	73	5091
2026-01-15 04:41:52.32	298.22	9.95	-54.5	-57.4	13.2	0.00e+00	0	28	0	1111490560	74	5247
2026-01-15 04:41:56.32	297.79	9.68	-53.8	-56.2	13.8	0.00e+00	0	28	0	1119879168	74	4582
2026-01-15 04:42:00.32	297.36	9.41	-53.5	-55.8	13.9	0.00e+00	0	28	0	1127219200	73	4637
2026-01-15 04:42:04.33	296.95	9.14	-53.5	-55.9	13.8	0.00e+00	0	28	0	1134559232	72	4937
2026-01-15 04:42:08.32	296.54	8.87	-54.0	-56.5	13.6	0.00e+00	0	28	0	1141899264	73	5036
2026-01-15 04:42:12.32	296.14	8.60	-54.0	-56.6	13.5	0.00e+00	0	28	0	1149239296	73	5091
2026-01-15 04:42:16.32	295.74	8.34	-53.7	-56.1	13.8	0.00e+00	0	28	0	1156579328	73	4790
2026-01-15 04:42:20.33	295.36	8.07	-53.7	-56.1	13.7	0.00e+00	0	28	0	1164967936	73	4777
2026-01-15 04:42:24.33	294.98	7.81	-53.7	-56.2	13.7	0.00e+00	0	28	0	1172307968	73	4841
2026-01-15 04:42:28.32	294.61	7.55	-54.0	-56.7	13.4	0.00e+00	0	28	0	1179648000	73	5101
2026-01-15 04:42:32.30	294.24	7.29	-54.8	-57.9	12.8	0.00e+00	0	28	0	1186988032	74	5553
2026-01-15 04:42:36.30	293.88	7.03	-55.2	-58.6	12.4	0.00e+00	0	28	0	1194328064	75	5709
2026-01-15 04:42:40.28	293.53	6.77	-55.3	-58.8	12.3	1.50e-06	0	28	0	1201668096	75	5826
2026-01-15 04:42:44.28	293.19	6.52	-55.5	-59.2	12.3	0.00e+00	0	28	0	1209008128	77	5411
2026-01-15 04:42:48.27	292.85	6.26	-55.5	-59.1	12.3	0.00e+00	0	28	0	1217396736	77	5358
2026-01-15 04:42:52.26	292.52	6.01	-55.5	-59.1	12.3	0.00e+00	0	28	0	1224736768	77	5378
2026-01-15 04:42:56.26	292.19	5.76	-55.8	-59.7	11.9	0.00e+00	0	29	0	1232076800	77	5728
2026-01-15 04:43:00.26	291.87	5.51	-56.0	-60.2	11.5	2.20e-06	0	28	0	1239416832	77	6097
2026-01-15 04:43:04.25	291.55	5.26	-55.9	-60.0	11.6	9.90e-06	0	28	0	1246756864	77	5987
2026-01-15 04:43:08.24	291.24	5.02	-55.7	-59.6	11.8	1.83e-05	0	28	0	1254096896	77	5685
2026-01-15 04:43:12.25	290.94	4.77	-60.0	-76.1	3.8	1.49e+00	0	28	104	1255145472	85	23897
2026-01-15 04:43:16.25	290.64	4.53	-60.3	-76.4	3.8	1.49e+00	0	28	104	1255145472	85	24783
2026-01-15 04:43:20.25	290.34	4.29	-60.6	-76.6	3.8	1.49e+00	0	28	104	1255145472	86	24015
2026-01-15 04:43:24.25	290.05	4.05	-60.6	-76.7	3.8	1.49e+00	0	28	104	1255145472	86	24346
2026-01-15 04:43:28.27	289.77	3.80	-60.7	-76.8	3.8	1.49e+00	0	28	104	1255145472	86	24568
2026-01-15 04:43:32.25	289.49	3.57	-60.7	-76.8	3.8	1.49e+00	0	29	104	1255145472	86	24591
2026-01-15 04:43:36.24	289.21	3.33	-60.7	-76.8	3.8	1.49e+00	0	28	104	1255145472	86	24493
2026-01-15 04:43:40.23	288.94	3.10	-60.6	-76.7	3.8	1.49e+00	0	29	104	1255145472	86	24293
2026-01-15 04:43:44.22	288.68	2.86	-60.6	-76.7	3.8	1.49e+00	0	29	104	1255145472	86	24223
2026-01-15 04:43:48.23	288.41	2.63	-60.6	-76.6	3.8	1.49e+00	0	29	104	1255145472	86	24068
2026-01-15 04:43:52.23	288.16	2.40	-60.5	-76.6	3.8	1.49e+00	0	29	104	1255145472	86	24098
2026-01-15 04:43:56.24	287.90	2.17	-60.5	-76.6	3.8	1.49e+00	0	28	104	1255145472	86	23960
2026-01-15 04:44:00.25	287.65	1.94	-60.5	-76.6	3.8	1.49e+00	0	29	104	1255145472	86	23960

#Closed at: 2026-01-15 04:44:00
#Recorded file [1255 MB]: D:/lorett/data/31004_260115_073116.dat