passes_logs/2026/01/15/R3.2S_Murmansk/R3.2S_Murmansk__20260115_045137_NOAA_20_JPSS-1_rec.log

#Pass ID: 20260115_045137_NOAA 20 (JPSS-1)
#Satellite: NOAA 20 (JPSS-1)
#Configuration: NOAA 20
#almurnet v.1.7.20251203
#Start time: 2026-01-15 04:51:37

#Version: 2.2.20231116
#Station: R3.2S_Murmansk
#Location: 33.079688 lon 68.888172 lat
#TLE: 1 43013U 17073A   26014.55467351  .00000038  00000+0  38801-4 0  9992
#TLE: 2 43013  98.7635 315.4987 0001517  39.9279 320.2008 14.19535859422677

#Time	Az	El	Level	Level2	SNR	BER	BlckErr	Temp	State	Recorded	gain1	gain2
2026-01-15 04:51:37.17	57.79	1.99	-58.2	-74.3	3.8	1.49e+00	0	26	0	0	82	23048
2026-01-15 04:51:41.15	57.53	2.21	-58.2	-74.2	3.8	1.49e+00	0	26	104	0	81	24313
2026-01-15 04:51:45.14	57.28	2.44	-58.2	-74.2	3.8	1.49e+00	0	26	104	0	81	24320
2026-01-15 04:51:49.13	57.01	2.67	-58.2	-74.2	3.8	1.49e+00	0	26	104	0	81	24339
2026-01-15 04:51:53.12	56.74	2.90	-58.2	-74.2	3.8	1.49e+00	0	26	104	0	81	24277
2026-01-15 04:51:57.11	56.47	3.13	-58.2	-74.2	3.8	1.49e+00	0	27	104	0	81	24386
2026-01-15 04:52:01.09	56.20	3.37	-58.2	-74.2	3.8	1.49e+00	0	27	104	0	81	24317
2026-01-15 04:52:05.07	55.91	3.60	-58.2	-74.2	3.8	1.49e+00	0	27	104	0	81	24355
2026-01-15 04:52:09.05	55.63	3.83	-58.2	-74.1	3.8	1.49e+00	0	27	104	0	81	24022
2026-01-15 04:52:13.07	55.34	4.07	-58.2	-74.2	3.8	1.49e+00	0	27	104	0	81	24370
2026-01-15 04:52:17.08	55.04	4.31	-58.2	-73.1	3.8	1.49e+00	0	27	104	0	81	21411
2026-01-15 04:52:21.07	54.74	4.55	-58.0	-70.2	4.3	1.31e+00	92	27	0	0	81	15360
2026-01-15 04:52:25.05	54.43	4.79	-57.8	-67.5	5.6	4.67e-01	0	27	0	7340032	81	11200
2026-01-15 04:52:29.05	54.12	5.04	-57.8	-67.4	5.6	3.66e-01	0	27	0	14680064	81	11110
2026-01-15 04:52:33.05	53.80	5.28	-57.7	-65.4	7.2	5.64e-01	0	27	0	19922944	81	8818
2026-01-15 04:52:37.05	53.48	5.53	-56.7	-61.9	10.2	7.82e-04	0	27	0	27262976	79	6573
2026-01-15 04:52:41.05	53.15	5.77	-56.2	-60.4	11.3	1.43e-04	0	27	0	34603008	78	5912
2026-01-15 04:52:45.05	52.81	6.02	-55.4	-58.8	12.4	0.00e+00	0	27	0	41943040	77	5195
2026-01-15 04:52:49.03	52.47	6.27	-55.4	-58.8	12.4	0.00e+00	0	27	0	50331648	76	5495
2026-01-15 04:52:53.01	52.13	6.52	-55.2	-58.5	12.6	0.00e+00	0	27	0	57671680	76	5321
2026-01-15 04:52:56.99	51.77	6.77	-55.2	-58.5	12.6	0.00e+00	0	27	0	65011712	76	5291
2026-01-15 04:53:00.98	51.42	7.03	-55.4	-58.8	12.5	0.00e+00	0	28	0	72351744	76	5467
2026-01-15 04:53:04.98	51.05	7.28	-55.2	-58.3	12.8	7.00e-07	0	27	0	79691776	76	5167
2026-01-15 04:53:08.99	50.67	7.54	-55.3	-58.4	12.7	0.00e+00	0	27	0	87031808	76	5254
2026-01-15 04:53:12.99	50.29	7.80	-55.2	-58.2	12.8	0.00e+00	0	28	0	94371840	76	5151
2026-01-15 04:53:16.97	49.91	8.06	-55.3	-58.5	12.7	0.00e+00	0	27	0	101711872	76	5293
2026-01-15 04:53:20.96	49.51	8.32	-55.0	-58.0	13.0	0.00e+00	0	27	0	110100480	76	4992
2026-01-15 04:53:24.96	49.11	8.58	-54.8	-57.6	13.3	0.00e+00	0	27	0	117440512	76	4774
2026-01-15 04:53:28.95	48.70	8.84	-54.8	-57.6	13.3	0.00e+00	0	28	0	124780544	76	4795
2026-01-15 04:53:32.94	48.29	9.11	-54.7	-57.4	13.4	0.00e+00	0	27	0	132120576	76	4697
2026-01-15 04:53:36.94	47.86	9.37	-54.9	-57.8	13.2	0.00e+00	0	27	0	139460608	76	4892
2026-01-15 04:53:40.93	47.43	9.64	-54.9	-57.6	13.3	0.00e+00	0	28	0	146800640	76	4808
2026-01-15 04:53:44.91	46.99	9.91	-55.0	-57.9	13.1	0.00e+00	0	28	0	154140672	76	4937
2026-01-15 04:53:48.89	46.54	10.18	-54.9	-57.7	13.2	0.00e+00	0	28	0	162529280	76	4855
2026-01-15 04:53:52.87	46.09	10.45	-54.9	-57.6	13.3	0.00e+00	0	27	0	169869312	76	4800
2026-01-15 04:53:56.87	45.62	10.72	-54.9	-57.7	13.3	0.00e+00	0	28	0	177209344	76	4859
2026-01-15 04:54:00.87	45.14	11.00	-54.8	-57.5	13.4	0.00e+00	0	28	0	184549376	76	4706
2026-01-15 04:54:04.87	44.66	11.27	-54.5	-57.1	13.5	0.00e+00	0	28	0	191889408	75	4786
2026-01-15 04:54:08.87	44.16	11.55	-54.3	-56.8	13.7	0.00e+00	0	28	0	199229440	75	4636
2026-01-15 04:54:12.87	43.66	11.82	-54.3	-56.7	13.7	0.00e+00	0	28	0	206569472	75	4597
2026-01-15 04:54:16.89	43.14	12.10	-54.3	-56.8	13.7	0.00e+00	0	28	0	214958080	75	4602
2026-01-15 04:54:20.89	42.61	12.38	-54.3	-56.7	13.7	0.00e+00	0	28	0	222298112	75	4575
2026-01-15 04:54:24.88	42.08	12.66	-54.2	-56.6	13.7	0.00e+00	0	28	0	229638144	74	4779
2026-01-15 04:54:28.88	41.54	12.94	-54.1	-56.5	13.8	0.00e+00	0	28	0	236978176	74	4711
2026-01-15 04:54:32.88	40.98	13.22	-53.7	-55.9	14.1	0.00e+00	0	28	0	244318208	74	4437
2026-01-15 04:54:36.88	40.41	13.50	-53.7	-55.9	13.9	0.00e+00	0	28	0	251658240	73	4694
2026-01-15 04:54:40.88	39.83	13.78	-53.9	-56.2	13.8	0.00e+00	0	28	0	260046848	73	4845
2026-01-15 04:54:44.87	39.25	14.06	-53.9	-56.2	13.8	0.00e+00	0	28	0	267386880	73	4854
2026-01-15 04:54:48.85	38.65	14.34	-54.0	-56.3	13.8	0.00e+00	0	28	0	274726912	73	4883
2026-01-15 04:54:52.84	38.04	14.63	-54.0	-56.3	13.8	0.00e+00	0	28	0	282066944	73	4919
2026-01-15 04:54:56.83	37.41	14.91	-54.1	-56.4	13.7	0.00e+00	0	28	0	289406976	73	4979
2026-01-15 04:55:00.80	36.78	15.19	-54.2	-56.6	13.6	0.00e+00	0	28	0	296747008	73	5092
2026-01-15 04:55:04.77	36.14	15.46	-54.3	-56.7	13.6	0.00e+00	0	28	0	304087040	73	5159
2026-01-15 04:55:08.79	35.47	15.75	-54.4	-56.8	13.6	0.00e+00	0	28	0	311427072	73	5186
2026-01-15 04:55:12.77	34.80	16.02	-54.2	-56.6	13.7	0.00e+00	0	28	0	319815680	73	5059
2026-01-15 04:55:16.77	34.12	16.30	-54.5	-57.0	13.5	0.00e+00	0	28	0	327155712	74	5016
2026-01-15 04:55:20.77	33.42	16.58	-54.4	-56.8	13.7	0.00e+00	0	28	0	334495744	74	4905
2026-01-15 04:55:24.77	32.70	16.86	-54.4	-56.8	13.6	0.00e+00	0	28	0	341835776	74	4895
2026-01-15 04:55:28.76	31.98	17.13	-54.4	-56.8	13.6	0.00e+00	0	28	0	349175808	74	4911
2026-01-15 04:55:32.74	31.24	17.40	-54.3	-56.6	13.7	0.00e+00	0	28	0	356515840	74	4792
2026-01-15 04:55:36.76	30.49	17.67	-54.1	-56.3	13.9	0.00e+00	0	28	0	363855872	74	4634
2026-01-15 04:55:40.76	29.72	17.94	-53.8	-55.9	14.1	0.00e+00	0	28	0	372244480	74	4414
2026-01-15 04:55:44.76	28.94	18.21	-53.4	-55.4	14.3	0.00e+00	0	28	0	379584512	73	4424
2026-01-15 04:55:48.75	28.14	18.47	-52.8	-54.6	14.5	0.00e+00	0	28	0	386924544	72	4289
2026-01-15 04:55:52.73	27.34	18.73	-52.7	-54.5	14.6	0.00e+00	0	28	0	394264576	72	4229
2026-01-15 04:55:56.72	26.52	18.99	-52.6	-54.4	14.5	0.00e+00	0	28	0	401604608	71	4432
2026-01-15 04:56:00.70	25.69	19.24	-52.3	-54.1	14.6	0.00e+00	0	28	0	408944640	71	4260
2026-01-15 04:56:04.71	24.83	19.49	-52.3	-54.1	14.7	0.00e+00	0	28	0	416284672	71	4253
2026-01-15 04:56:08.70	23.97	19.73	-52.2	-53.9	14.6	0.00e+00	0	28	0	424673280	70	4394
2026-01-15 04:56:12.67	23.10	19.97	-52.1	-53.8	14.6	0.00e+00	0	28	0	432013312	70	4353
2026-01-15 04:56:16.67	22.21	20.21	-52.2	-53.9	14.6	0.00e+00	0	28	0	439353344	70	4424
2026-01-15 04:56:20.68	21.30	20.44	-52.3	-54.0	14.6	0.00e+00	0	28	0	446693376	70	4462
2026-01-15 04:56:24.68	20.38	20.66	-52.3	-54.0	14.6	0.00e+00	0	28	0	454033408	70	4444
2026-01-15 04:56:28.69	19.44	20.88	-52.4	-54.1	14.5	0.00e+00	0	28	0	461373440	70	4531
2026-01-15 04:56:32.69	18.49	21.09	-52.2	-53.8	14.6	0.00e+00	0	28	0	468713472	70	4389
2026-01-15 04:56:36.69	17.53	21.30	-52.0	-53.6	14.7	0.00e+00	0	28	0	477102080	70	4268
2026-01-15 04:56:40.69	16.56	21.50	-51.7	-53.3	14.7	0.00e+00	0	28	0	484442112	69	4381
2026-01-15 04:56:44.68	15.58	21.69	-51.7	-53.3	14.7	0.00e+00	0	28	0	491782144	69	4388
2026-01-15 04:56:48.68	14.58	21.87	-51.5	-53.1	14.8	0.00e+00	0	28	0	499122176	69	4275
2026-01-15 04:56:52.67	13.57	22.04	-51.7	-53.4	14.7	0.00e+00	0	28	0	506462208	69	4395
2026-01-15 04:56:56.64	12.56	22.21	-51.6	-53.2	14.8	0.00e+00	0	28	0	513802240	69	4316
2026-01-15 04:57:00.62	11.54	22.37	-52.0	-53.7	14.6	0.00e+00	0	28	0	521142272	69	4559
2026-01-15 04:57:04.61	10.50	22.51	-51.8	-53.4	14.7	0.00e+00	0	28	0	529530880	69	4423
2026-01-15 04:57:08.61	9.45	22.65	-52.3	-54.0	14.5	0.00e+00	0	28	0	536870912	69	4751
2026-01-15 04:57:12.59	8.39	22.78	-53.0	-54.9	14.3	0.00e+00	0	28	0	544210944	71	4679
2026-01-15 04:57:16.58	7.33	22.90	-52.8	-54.6	14.4	0.00e+00	0	28	0	551550976	71	4528
2026-01-15 04:57:20.59	6.25	23.01	-53.2	-55.2	14.2	0.00e+00	0	28	0	558891008	71	4829
2026-01-15 04:57:24.59	5.17	23.11	-53.1	-55.0	14.3	0.00e+00	0	28	0	566231040	71	4713
2026-01-15 04:57:28.57	4.08	23.20	-53.6	-55.7	14.1	0.00e+00	0	28	0	573571072	72	4859
2026-01-15 04:57:32.56	2.99	23.27	-53.8	-55.9	14.0	0.00e+00	0	28	0	580911104	72	4981
2026-01-15 04:57:36.55	1.89	23.34	-53.7	-55.8	14.1	0.00e+00	0	28	0	589299712	73	4627
2026-01-15 04:57:40.56	0.78	23.39	-53.6	-55.6	14.3	0.00e+00	0	28	0	596639744	73	4501
2026-01-15 04:57:44.54	359.68	23.43	-53.6	-55.6	14.2	0.00e+00	0	28	0	603979776	73	4502
2026-01-15 04:57:48.55	358.56	23.47	-53.6	-55.6	14.2	0.00e+00	0	28	0	611319808	73	4535
2026-01-15 04:57:52.53	357.46	23.49	-53.3	-55.2	14.4	0.00e+00	0	28	0	618659840	73	4293
2026-01-15 04:57:56.50	356.35	23.49	-53.6	-55.6	14.2	0.00e+00	0	28	0	625999872	73	4515
2026-01-15 04:58:00.48	355.24	23.49	-52.9	-54.7	14.5	0.00e+00	0	28	0	633339904	72	4335
2026-01-15 04:58:04.47	354.13	23.47	-52.7	-54.5	14.5	0.00e+00	0	28	0	641728512	71	4456
2026-01-15 04:58:08.47	353.02	23.45	-52.8	-54.6	14.5	0.00e+00	0	28	0	649068544	71	4494
2026-01-15 04:58:12.47	351.91	23.41	-52.3	-54.1	14.7	0.00e+00	0	28	0	656408576	71	4243
2026-01-15 04:58:16.47	350.80	23.36	-52.0	-53.7	14.7	0.00e+00	0	28	0	663748608	70	4302
2026-01-15 04:58:20.46	349.70	23.30	-51.6	-53.1	14.8	0.00e+00	0	28	0	671088640	69	4270
2026-01-15 04:58:24.46	348.61	23.23	-51.4	-52.9	14.9	0.00e+00	0	28	0	678428672	69	4192
2026-01-15 04:58:28.45	347.52	23.14	-51.3	-52.8	15.0	0.00e+00	0	28	0	685768704	69	4112
2026-01-15 04:58:32.44	346.43	23.05	-51.2	-52.7	14.9	0.00e+00	0	28	0	694157312	68	4326
2026-01-15 04:58:36.44	345.36	22.94	-51.5	-53.0	14.7	0.00e+00	0	28	0	701497344	68	4480
2026-01-15 04:58:40.45	344.28	22.83	-51.6	-53.2	14.7	0.00e+00	0	28	0	708837376	68	4549
2026-01-15 04:58:44.45	343.22	22.70	-51.9	-53.6	14.6	0.00e+00	0	28	0	716177408	69	4506
2026-01-15 04:58:48.45	342.16	22.57	-52.1	-53.7	14.6	0.00e+00	0	28	0	723517440	69	4592
2026-01-15 04:58:52.44	341.12	22.42	-52.3	-54.0	14.5	0.00e+00	0	28	0	730857472	69	4743
2026-01-15 04:58:56.42	340.09	22.27	-52.5	-54.2	14.5	0.00e+00	0	28	0	738197504	70	4598
2026-01-15 04:59:00.38	339.08	22.11	-52.8	-54.6	14.4	0.00e+00	0	28	0	745537536	70	4791
2026-01-15 04:59:04.35	338.07	21.93	-53.0	-54.9	14.3	0.00e+00	0	28	0	753926144	71	4695
2026-01-15 04:59:08.34	337.08	21.76	-52.9	-54.8	14.4	0.00e+00	0	28	0	761266176	71	4614
2026-01-15 04:59:12.33	336.09	21.57	-53.3	-55.2	14.2	0.00e+00	0	28	0	768606208	71	4842
2026-01-15 04:59:16.32	335.11	21.37	-53.4	-55.4	14.1	0.00e+00	0	28	0	775946240	71	4964
2026-01-15 04:59:20.33	334.15	21.17	-53.6	-55.6	14.1	0.00e+00	0	28	0	783286272	72	4799
2026-01-15 04:59:24.33	333.19	20.96	-53.3	-55.2	14.3	0.00e+00	0	28	0	790626304	72	4578
2026-01-15 04:59:28.30	332.26	20.75	-53.5	-55.5	14.1	0.00e+00	0	28	0	797966336	72	4756
2026-01-15 04:59:32.31	331.34	20.52	-53.1	-55.0	14.4	1.50e-06	0	28	0	806354944	72	4455
2026-01-15 04:59:36.31	330.42	20.30	-53.2	-55.1	14.3	0.00e+00	0	28	0	813694976	72	4504
2026-01-15 04:59:40.32	329.52	20.06	-53.1	-55.0	14.3	0.00e+00	0	28	0	821035008	72	4492
2026-01-15 04:59:44.31	328.64	19.82	-53.0	-54.9	14.4	0.00e+00	0	28	0	828375040	72	4400
2026-01-15 04:59:48.31	327.77	19.58	-52.9	-54.8	14.5	0.00e+00	0	28	0	835715072	72	4344
2026-01-15 04:59:52.30	326.92	19.33	-53.0	-54.9	14.4	0.00e+00	0	28	0	843055104	72	4405
2026-01-15 04:59:56.30	326.08	19.08	-53.1	-55.1	14.3	0.00e+00	0	28	0	851443712	72	4499
2026-01-15 05:00:00.28	325.25	18.83	-52.9	-54.7	14.5	0.00e+00	0	28	0	858783744	72	4320
2026-01-15 05:00:04.25	324.44	18.57	-53.0	-54.9	14.4	0.00e+00	0	28	0	866123776	72	4401
2026-01-15 05:00:08.23	323.65	18.31	-53.2	-55.1	14.3	0.00e+00	0	28	0	873463808	72	4509
2026-01-15 05:00:12.22	322.86	18.05	-53.2	-55.2	14.3	0.00e+00	0	28	0	880803840	72	4570
2026-01-15 05:00:16.21	322.09	17.78	-53.1	-55.0	14.3	0.00e+00	0	28	0	888143872	72	4492
2026-01-15 05:00:20.20	321.33	17.51	-53.2	-55.2	14.3	0.00e+00	0	28	0	895483904	72	4551
2026-01-15 05:00:24.21	320.59	17.24	-53.2	-55.2	14.2	0.00e+00	0	28	0	902823936	72	4556
2026-01-15 05:00:28.23	319.85	16.96	-53.0	-54.9	14.4	0.00e+00	0	28	0	911212544	72	4418
2026-01-15 05:00:32.20	319.14	16.69	-52.9	-54.7	14.5	0.00e+00	0	28	0	918552576	72	4339
2026-01-15 05:00:36.19	318.44	16.41	-52.5	-54.3	14.5	0.00e+00	0	28	0	925892608	71	4365
2026-01-15 05:00:40.20	317.74	16.13	-52.6	-54.4	14.5	0.00e+00	0	28	0	933232640	71	4419
2026-01-15 05:00:44.17	317.07	15.86	-52.8	-54.6	14.4	0.00e+00	0	28	0	940572672	71	4540
2026-01-15 05:00:48.18	316.40	15.58	-52.5	-54.3	14.5	0.00e+00	0	28	0	947912704	71	4353
2026-01-15 05:00:52.19	315.75	15.29	-52.2	-54.0	14.5	0.00e+00	0	28	0	955252736	70	4462
2026-01-15 05:00:56.20	315.10	15.01	-52.3	-54.0	14.5	0.00e+00	0	28	0	963641344	70	4484
2026-01-15 05:01:00.20	314.47	14.73	-52.4	-54.1	14.5	0.00e+00	0	28	0	970981376	70	4543
2026-01-15 05:01:04.18	313.86	14.45	-52.2	-54.0	14.6	0.00e+00	0	28	0	978321408	70	4445
2026-01-15 05:01:08.17	313.26	14.17	-52.3	-54.1	14.5	0.00e+00	0	28	0	985661440	70	4514
2026-01-15 05:01:12.15	312.67	13.89	-52.5	-54.3	14.4	0.00e+00	0	28	0	993001472	70	4632
2026-01-15 05:01:16.15	312.08	13.61	-52.6	-54.4	14.4	0.00e+00	0	28	0	1000341504	70	4675
2026-01-15 05:01:20.14	311.51	13.33	-52.9	-54.8	14.2	0.00e+00	0	28	0	1007681536	70	4926
2026-01-15 05:01:24.13	310.96	13.05	-53.2	-55.2	14.1	0.00e+00	0	28	0	1016070144	71	4855
2026-01-15 05:01:28.13	310.41	12.77	-52.9	-54.8	14.3	0.00e+00	0	28	0	1023410176	71	4627
2026-01-15 05:01:32.12	309.87	12.49	-52.7	-54.6	14.3	0.00e+00	0	28	0	1030750208	71	4530
2026-01-15 05:01:36.12	309.34	12.21	-53.0	-55.0	14.2	0.00e+00	0	28	0	1038090240	71	4709
2026-01-15 05:01:40.10	308.82	11.93	-53.3	-55.4	14.0	0.00e+00	0	28	0	1045430272	71	4976
2026-01-15 05:01:44.10	308.31	11.66	-53.3	-55.4	14.0	0.00e+00	0	28	0	1052770304	71	4968
2026-01-15 05:01:48.11	307.81	11.38	-53.4	-55.4	14.1	0.00e+00	0	28	0	1060110336	72	4703
2026-01-15 05:01:52.11	307.33	11.10	-53.5	-55.6	14.0	0.00e+00	0	28	0	1068498944	72	4786
2026-01-15 05:01:56.11	306.85	10.83	-53.6	-55.8	13.9	0.00e+00	0	28	0	1075838976	72	4908
2026-01-15 05:02:00.09	306.38	10.56	-53.6	-55.8	13.8	0.00e+00	0	28	0	1083179008	72	4926
2026-01-15 05:02:04.07	305.92	10.29	-53.8	-56.2	13.7	0.00e+00	0	28	0	1090519040	72	5104
2026-01-15 05:02:08.07	305.46	10.02	-53.8	-56.1	13.8	0.00e+00	0	28	0	1097859072	73	4780
2026-01-15 05:02:12.07	305.02	9.75	-53.7	-56.0	13.8	0.00e+00	0	28	0	1105199104	73	4756
2026-01-15 05:02:16.06	304.58	9.48	-53.9	-56.3	13.7	0.00e+00	0	28	0	1112539136	73	4884
2026-01-15 05:02:20.04	304.16	9.21	-54.0	-56.4	13.7	0.00e+00	0	28	0	1119879168	73	4928
2026-01-15 05:02:24.04	303.74	8.95	-54.2	-56.7	13.5	0.00e+00	0	28	0	1128267776	73	5111
2026-01-15 05:02:28.02	303.33	8.68	-54.3	-56.9	13.3	0.00e+00	0	28	0	1135607808	73	5252
2026-01-15 05:02:32.01	302.92	8.42	-54.4	-57.1	13.2	0.00e+00	0	28	0	1142947840	73	5365
2026-01-15 05:02:36.00	302.53	8.16	-54.5	-57.2	13.2	0.00e+00	0	28	0	1150287872	74	5157
2026-01-15 05:02:40.00	302.14	7.90	-54.7	-57.5	13.0	0.00e+00	0	28	0	1157627904	74	5332
2026-01-15 05:02:44.00	301.75	7.64	-54.8	-57.8	12.9	0.00e+00	0	28	0	1164967936	74	5479
2026-01-15 05:02:47.99	301.38	7.38	-54.4	-57.2	13.3	0.00e+00	0	28	0	1172307968	74	5101
2026-01-15 05:02:51.99	301.01	7.13	-54.6	-57.5	13.0	0.00e+00	0	28	0	1180696576	74	5327
2026-01-15 05:02:55.99	300.64	6.87	-54.7	-57.6	13.0	0.00e+00	0	28	0	1188036608	74	5373
2026-01-15 05:02:59.99	300.29	6.62	-54.6	-57.5	13.1	0.00e+00	0	28	0	1195376640	75	5023
2026-01-15 05:03:03.98	299.94	6.37	-55.0	-58.2	12.7	0.00e+00	0	28	0	1202716672	75	5420
2026-01-15 05:03:07.96	299.60	6.12	-55.3	-58.5	12.6	0.00e+00	0	28	0	1210056704	76	5331
2026-01-15 05:03:11.95	299.26	5.87	-55.3	-58.6	12.5	0.00e+00	0	28	0	1217396736	76	5392
2026-01-15 05:03:15.93	298.93	5.62	-55.2	-58.5	12.5	0.00e+00	0	28	0	1224736768	76	5298
2026-01-15 05:03:19.93	298.60	5.38	-55.3	-58.7	12.4	0.00e+00	0	28	0	1233125376	76	5460
2026-01-15 05:03:23.91	298.28	5.13	-55.5	-59.2	12.1	1.50e-06	0	28	0	1240465408	76	5750
2026-01-15 05:03:27.91	297.97	4.89	-59.0	-74.9	3.8	1.49e+00	0	28	104	1245708288	83	23382
2026-01-15 05:03:31.92	297.66	4.65	-60.0	-76.1	3.8	1.49e+00	0	28	104	1245708288	85	23886
2026-01-15 05:03:35.91	297.36	4.41	-60.4	-76.5	3.8	1.49e+00	0	28	104	1245708288	85	24992
2026-01-15 05:03:39.91	297.06	4.17	-60.7	-76.7	3.8	1.49e+00	0	28	104	1245708288	86	24400
2026-01-15 05:03:43.91	296.76	3.93	-60.8	-76.8	3.8	1.49e+00	0	28	104	1245708288	86	24612
2026-01-15 05:03:47.89	296.48	3.69	-60.7	-76.8	3.8	1.49e+00	0	28	104	1245708288	86	24591
2026-01-15 05:03:51.89	296.19	3.46	-60.7	-76.7	3.8	1.49e+00	0	28	104	1245708288	86	24370
2026-01-15 05:03:55.89	295.91	3.23	-60.6	-76.6	3.8	1.49e+00	0	28	104	1245708288	86	24088
2026-01-15 05:03:59.89	295.64	2.99	-60.5	-76.6	3.8	1.49e+00	0	28	104	1245708288	86	23922
2026-01-15 05:04:03.89	295.37	2.76	-60.4	-76.5	3.9	1.49e+00	0	28	104	1245708288	86	23828
2026-01-15 05:04:07.86	295.10	2.53	-60.5	-76.5	3.8	1.49e+00	0	28	104	1245708288	86	23847
2026-01-15 05:04:11.85	294.84	2.30	-60.5	-76.5	3.8	1.49e+00	0	28	104	1245708288	86	23782
2026-01-15 05:04:15.83	294.59	2.08	-60.4	-76.5	3.8	1.49e+00	0	28	104	1245708288	86	23759

#Closed at: 2026-01-15 05:04:18
#Recorded file [1245 MB]: D:/lorett/data/31004_260115_075136.dat