passes_logs/2026/01/15/R3.2S_Murmansk/R3.2S_Murmansk__20260115_233254_NOAA_20_JPSS-1_rec.log

#Pass ID: 20260115_233254_NOAA 20 (JPSS-1)
#Satellite: NOAA 20 (JPSS-1)
#Configuration: NOAA 20
#almurnet v.1.7.20251203
#Start time: 2026-01-15 23:32:55

#Version: 2.2.20231116
#Station: R3.2S_Murmansk
#Location: 33.079688 lon 68.888172 lat
#TLE: 1 43013U 17073A   26015.47098083  .00000029  00000+0  34851-4 0  9997
#TLE: 2 43013  98.7636 316.4053 0001479  38.6686 321.4595 14.19536048422808

#Time	Az	El	Level	Level2	SNR	BER	BlckErr	Temp	State	Recorded	gain1	gain2
2026-01-15 23:32:55.13	21.02	2.07	-56.6	-71.2	3.8	1.49e+00	0	41	0	0	85	18634
2026-01-15 23:32:59.17	21.16	2.32	-56.4	-70.2	3.8	1.49e+00	0	41	104	0	83	18613
2026-01-15 23:33:03.20	21.31	2.57	-56.4	-70.2	3.8	1.49e+00	0	41	104	0	83	18560
2026-01-15 23:33:07.24	21.46	2.82	-56.4	-69.8	3.8	1.49e+00	0	42	104	0	83	17859
2026-01-15 23:33:11.28	21.61	3.08	-56.1	-66.1	4.9	1.03e+00	0	42	0	1048576	83	11599
2026-01-15 23:33:15.32	21.76	3.34	-56.1	-66.0	5.0	9.39e-01	0	42	0	9437184	83	11427
2026-01-15 23:33:19.36	21.92	3.60	-55.8	-64.0	6.3	2.69e-01	0	43	0	16777216	83	9082
2026-01-15 23:33:23.40	22.07	3.86	-55.0	-60.5	9.7	7.15e-03	0	43	0	24117248	81	6827
2026-01-15 23:33:27.43	22.23	4.13	-53.6	-57.0	13.5	8.31e-05	0	43	0	31457280	79	5134
2026-01-15 23:33:31.47	22.40	4.40	-53.5	-56.8	13.8	7.60e-06	0	43	0	39845888	78	5285
2026-01-15 23:33:35.51	22.56	4.67	-54.3	-58.5	12.0	1.35e-04	0	43	0	47185920	79	6096
2026-01-15 23:33:39.55	22.73	4.94	-55.4	-62.1	8.1	3.52e-02	0	43	0	54525952	81	8178
2026-01-15 23:33:43.59	22.90	5.22	-55.5	-61.9	8.0	8.05e-01	0	43	0	61865984	82	7604
2026-01-15 23:33:47.63	23.08	5.50	-53.5	-56.6	14.1	3.00e-06	0	43	0	69206016	78	5179
2026-01-15 23:33:51.67	23.26	5.78	-53.1	-55.8	15.0	1.50e-06	0	44	0	77594624	78	4743
2026-01-15 23:33:55.70	23.44	6.07	-52.9	-55.6	15.2	0.00e+00	0	44	0	84934656	77	4895
2026-01-15 23:33:59.74	23.62	6.35	-52.8	-55.4	15.4	0.00e+00	0	44	0	92274688	77	4804
2026-01-15 23:34:03.77	23.81	6.64	-52.8	-55.3	15.7	0.00e+00	0	44	0	99614720	76	5002
2026-01-15 23:34:07.82	24.00	6.94	-52.5	-54.9	16.0	0.00e+00	0	44	0	106954752	76	4793
2026-01-15 23:34:11.85	24.19	7.24	-52.2	-54.4	16.6	0.00e+00	0	44	0	115343360	76	4531
2026-01-15 23:34:15.88	24.39	7.54	-52.2	-54.4	16.6	0.00e+00	0	45	0	122683392	76	4527
2026-01-15 23:34:19.92	24.59	7.84	-52.2	-54.3	16.7	0.00e+00	0	44	0	130023424	76	4487
2026-01-15 23:34:23.95	24.79	8.15	-52.2	-54.3	16.8	0.00e+00	0	45	0	137363456	76	4475
2026-01-15 23:34:27.99	25.00	8.46	-52.0	-54.1	17.0	0.00e+00	0	45	0	145752064	75	4617
2026-01-15 23:34:32.02	25.22	8.77	-52.0	-54.0	17.2	0.00e+00	0	45	0	153092096	75	4564
2026-01-15 23:34:36.05	25.43	9.09	-51.7	-53.6	17.6	0.00e+00	0	45	0	160432128	75	4358
2026-01-15 23:34:40.09	25.66	9.41	-51.6	-53.5	17.7	0.00e+00	0	45	0	167772160	75	4309
2026-01-15 23:34:44.12	25.88	9.73	-51.7	-53.6	17.6	0.00e+00	0	45	0	175112192	75	4345
2026-01-15 23:34:48.16	26.11	10.06	-51.4	-53.2	18.1	0.00e+00	0	45	0	183500800	74	4407
2026-01-15 23:34:52.19	26.35	10.40	-51.4	-53.2	18.1	0.00e+00	0	45	0	190840832	74	4403
2026-01-15 23:34:56.23	26.59	10.73	-51.5	-53.3	18.0	0.00e+00	0	46	0	198180864	74	4470
2026-01-15 23:35:00.27	26.84	11.08	-51.4	-53.2	18.1	0.00e+00	0	46	0	205520896	74	4392
2026-01-15 23:35:04.30	27.09	11.42	-51.4	-53.1	18.2	0.00e+00	0	46	0	212860928	74	4363
2026-01-15 23:35:08.33	27.34	11.77	-51.3	-53.1	18.3	0.00e+00	0	46	0	221249536	74	4344
2026-01-15 23:35:12.38	27.61	12.13	-51.3	-53.0	18.3	0.00e+00	0	46	0	228589568	74	4316
2026-01-15 23:35:16.41	27.88	12.49	-51.0	-52.7	18.7	0.00e+00	0	46	0	235929600	74	4155
2026-01-15 23:35:20.45	28.15	12.85	-50.9	-52.4	18.9	0.00e+00	0	46	0	243269632	73	4286
2026-01-15 23:35:24.49	28.43	13.22	-50.8	-52.3	19.1	0.00e+00	0	46	0	251658240	73	4228
2026-01-15 23:35:28.53	28.72	13.60	-50.7	-52.2	19.2	0.00e+00	0	46	0	258998272	73	4189
2026-01-15 23:35:32.57	29.02	13.98	-50.6	-52.1	19.3	0.00e+00	0	46	0	266338304	73	4108
2026-01-15 23:35:36.61	29.32	14.37	-50.6	-52.1	19.4	0.00e+00	0	46	0	273678336	73	4099
2026-01-15 23:35:40.64	29.63	14.76	-50.5	-51.9	19.5	0.00e+00	0	46	0	282066944	72	4288
2026-01-15 23:35:44.68	29.95	15.15	-50.5	-52.0	19.5	0.00e+00	0	46	0	289406976	72	4297
2026-01-15 23:35:48.72	30.27	15.56	-50.5	-52.0	19.5	0.00e+00	0	46	0	296747008	72	4325
2026-01-15 23:35:52.76	30.61	15.97	-50.6	-52.1	19.4	0.00e+00	0	46	0	304087040	72	4382
2026-01-15 23:35:56.79	30.95	16.38	-50.6	-52.1	19.4	0.00e+00	0	46	0	311427072	72	4355
2026-01-15 23:36:00.83	31.30	16.80	-50.5	-52.0	19.5	0.00e+00	0	46	0	319815680	72	4301
2026-01-15 23:36:04.87	31.67	17.23	-50.5	-51.9	19.6	0.00e+00	0	46	0	327155712	72	4280
2026-01-15 23:36:08.91	32.04	17.67	-50.7	-52.2	19.3	0.00e+00	0	46	0	334495744	72	4414
2026-01-15 23:36:12.94	32.42	18.11	-50.9	-52.4	19.1	0.00e+00	0	47	0	341835776	72	4539
2026-01-15 23:36:16.98	32.81	18.55	-51.1	-52.7	18.9	0.00e+00	0	47	0	349175808	72	4664
2026-01-15 23:36:21.02	33.22	19.01	-51.0	-52.6	19.0	0.00e+00	0	47	0	357564416	72	4599
2026-01-15 23:36:25.06	33.63	19.47	-50.9	-52.5	19.1	0.00e+00	0	47	0	364904448	72	4565
2026-01-15 23:36:29.10	34.06	19.94	-51.0	-52.6	19.0	0.00e+00	0	47	0	372244480	72	4602
2026-01-15 23:36:33.15	34.50	20.42	-51.1	-52.7	19.0	0.00e+00	0	47	0	379584512	72	4653
2026-01-15 23:36:37.18	34.96	20.90	-50.9	-52.4	19.2	0.00e+00	0	47	0	387973120	72	4537
2026-01-15 23:36:41.22	35.43	21.39	-50.7	-52.2	19.4	0.00e+00	0	47	0	395313152	72	4412
2026-01-15 23:36:45.26	35.91	21.89	-50.7	-52.2	19.5	0.00e+00	0	47	0	402653184	72	4401
2026-01-15 23:36:49.30	36.41	22.40	-50.8	-52.3	19.4	0.00e+00	0	47	0	409993216	72	4468
2026-01-15 23:36:53.33	36.92	22.92	-51.1	-52.6	19.0	0.00e+00	0	47	0	418381824	72	4643
2026-01-15 23:36:57.38	37.45	23.44	-51.0	-52.5	19.1	0.00e+00	0	47	0	425721856	72	4592
2026-01-15 23:37:01.42	38.00	23.97	-50.7	-52.2	19.5	0.00e+00	0	47	0	433061888	72	4393
2026-01-15 23:37:05.45	38.57	24.51	-50.5	-51.9	19.8	0.00e+00	0	47	0	440401920	72	4259
2026-01-15 23:37:09.49	39.16	25.06	-50.8	-52.3	19.4	0.00e+00	0	47	0	447741952	72	4466
2026-01-15 23:37:13.53	39.76	25.62	-51.0	-52.5	19.2	0.00e+00	0	47	0	456130560	72	4588
2026-01-15 23:37:17.57	40.39	26.19	-50.9	-52.4	19.3	0.00e+00	0	47	0	463470592	72	4523
2026-01-15 23:37:21.61	41.04	26.76	-51.0	-52.5	19.2	0.00e+00	0	47	0	470810624	72	4576
2026-01-15 23:37:25.64	41.71	27.35	-51.7	-53.4	18.4	0.00e+00	0	48	0	478150656	73	4773
2026-01-15 23:37:29.68	42.41	27.94	-52.1	-53.9	17.9	0.00e+00	0	48	0	485490688	74	4805
2026-01-15 23:37:33.72	43.14	28.54	-51.9	-53.7	18.1	0.00e+00	0	48	0	493879296	74	4685
2026-01-15 23:37:37.76	43.89	29.15	-52.5	-54.4	17.4	0.00e+00	0	48	0	501219328	75	4807
2026-01-15 23:37:41.79	44.67	29.76	-52.8	-54.8	17.1	0.00e+00	0	48	0	508559360	76	4736
2026-01-15 23:37:45.83	45.48	30.39	-52.9	-55.0	16.9	0.00e+00	0	47	0	515899392	76	4865
2026-01-15 23:37:49.87	46.32	31.02	-52.6	-54.6	17.3	0.00e+00	0	48	0	524288000	76	4637
2026-01-15 23:37:53.91	47.19	31.66	-51.9	-53.6	18.3	0.00e+00	0	47	0	531628032	75	4362
2026-01-15 23:37:57.94	48.10	32.30	-52.1	-53.9	18.0	0.00e+00	0	48	0	538968064	75	4504
2026-01-15 23:38:01.98	49.04	32.95	-51.5	-53.1	18.8	0.00e+00	0	48	0	546308096	74	4350
2026-01-15 23:38:06.02	50.02	33.61	-51.6	-53.2	18.7	0.00e+00	0	48	0	553648128	74	4422
2026-01-15 23:38:10.06	51.05	34.27	-51.8	-53.5	18.5	0.00e+00	0	48	0	562036736	74	4548
2026-01-15 23:38:14.09	52.11	34.94	-51.6	-53.3	18.7	0.00e+00	0	48	0	569376768	74	4442
2026-01-15 23:38:18.14	53.22	35.61	-51.9	-53.6	18.3	0.00e+00	0	48	0	576716800	74	4626
2026-01-15 23:38:22.17	54.37	36.28	-51.5	-53.1	18.8	0.00e+00	0	48	0	584056832	74	4380
2026-01-15 23:38:26.21	55.57	36.95	-50.7	-52.1	19.8	0.00e+00	0	48	0	591396864	73	4117
2026-01-15 23:38:30.24	56.82	37.62	-51.0	-52.5	19.4	0.00e+00	0	48	0	599785472	73	4315
2026-01-15 23:38:34.28	58.12	38.29	-51.4	-52.9	19.0	0.00e+00	0	48	0	607125504	73	4528
2026-01-15 23:38:38.32	59.48	38.95	-50.8	-52.2	19.7	0.00e+00	0	48	0	614465536	73	4188
2026-01-15 23:38:42.36	60.89	39.61	-51.9	-53.6	18.4	0.00e+00	0	48	0	621805568	74	4638
2026-01-15 23:38:46.40	62.36	40.27	-51.6	-53.2	18.7	0.00e+00	0	48	0	630194176	75	4188
2026-01-15 23:38:50.44	63.88	40.91	-51.2	-52.7	19.3	0.00e+00	0	48	0	637534208	74	4177
2026-01-15 23:38:54.47	65.47	41.54	-50.9	-52.3	19.6	0.00e+00	0	48	0	644874240	73	4239
2026-01-15 23:38:58.51	67.12	42.16	-50.9	-52.4	19.6	0.00e+00	0	48	0	652214272	72	4523
2026-01-15 23:39:02.55	68.83	42.76	-51.1	-52.6	19.4	0.00e+00	0	48	0	660602880	73	4360
2026-01-15 23:39:06.59	70.61	43.34	-52.1	-53.8	18.2	0.00e+00	0	48	0	667942912	74	4736
2026-01-15 23:39:10.62	72.45	43.90	-52.2	-54.0	18.0	0.00e+00	0	48	0	675282944	75	4564
2026-01-15 23:39:14.66	74.35	44.43	-52.8	-54.8	17.3	0.00e+00	0	48	0	682622976	76	4745
2026-01-15 23:39:18.70	76.32	44.93	-51.7	-53.4	18.6	0.00e+00	0	48	0	689963008	75	4266
2026-01-15 23:39:22.74	78.35	45.41	-52.8	-54.8	17.3	0.00e+00	0	48	0	698351616	76	4710
2026-01-15 23:39:26.78	80.43	45.84	-52.2	-53.9	18.1	0.00e+00	0	48	0	705691648	76	4276
2026-01-15 23:39:30.82	82.58	46.25	-52.0	-53.7	18.3	0.00e+00	0	48	0	713031680	75	4434
2026-01-15 23:39:34.86	84.77	46.61	-52.7	-54.6	17.4	0.00e+00	0	48	0	720371712	77	4391
2026-01-15 23:39:38.89	87.01	46.92	-51.6	-53.2	18.7	0.00e+00	0	48	0	727711744	75	4189
2026-01-15 23:39:42.93	89.29	47.19	-52.6	-54.6	17.4	0.00e+00	0	48	0	736100352	75	4890
2026-01-15 23:39:46.97	91.61	47.42	-51.7	-53.3	18.7	0.00e+00	0	48	0	743440384	75	4237
2026-01-15 23:39:51.01	93.96	47.59	-53.1	-55.3	16.7	0.00e+00	0	48	0	750780416	76	4993
2026-01-15 23:39:55.05	96.34	47.71	-51.1	-52.6	19.4	0.00e+00	0	48	0	758120448	74	4110
2026-01-15 23:39:59.09	98.73	47.78	-52.2	-54.0	18.0	0.00e+00	0	48	0	766509056	74	4855
2026-01-15 23:40:03.13	101.12	47.80	-52.6	-54.6	17.4	0.00e+00	0	48	0	773849088	76	4627
2026-01-15 23:40:07.16	103.51	47.77	-52.5	-54.4	17.6	0.00e+00	0	48	0	781189120	76	4533
2026-01-15 23:40:11.20	105.89	47.68	-53.1	-55.3	16.7	0.00e+00	0	48	0	788529152	76	4991
2026-01-15 23:40:15.24	108.26	47.54	-52.2	-54.0	18.1	0.00e+00	0	48	0	796917760	76	4298
2026-01-15 23:40:19.28	110.60	47.35	-52.1	-53.9	18.2	0.00e+00	0	48	0	804257792	74	4784
2026-01-15 23:40:23.32	112.91	47.10	-52.8	-54.8	17.2	0.00e+00	0	48	0	811597824	76	4736
2026-01-15 23:40:27.36	115.19	46.82	-52.6	-54.6	17.4	0.00e+00	0	48	0	818937856	77	4349
2026-01-15 23:40:31.39	117.41	46.48	-53.7	-56.2	15.8	0.00e+00	0	48	0	826277888	78	4955
2026-01-15 23:40:35.43	119.59	46.11	-53.9	-56.4	15.6	0.00e+00	0	48	0	834666496	78	5076
2026-01-15 23:40:39.47	121.72	45.69	-53.2	-55.4	16.6	0.00e+00	0	48	0	842006528	78	4518
2026-01-15 23:40:43.51	123.79	45.24	-51.8	-53.5	18.4	0.00e+00	0	48	0	849346560	75	4319
2026-01-15 23:40:47.55	125.80	44.76	-51.1	-52.6	19.3	0.00e+00	0	48	0	856686592	74	4145
2026-01-15 23:40:51.58	127.74	44.24	-51.3	-52.9	19.1	0.00e+00	0	48	0	864026624	73	4502
2026-01-15 23:40:55.62	129.62	43.70	-50.7	-52.1	19.7	0.00e+00	0	48	0	872415232	73	4142
2026-01-15 23:40:59.66	131.45	43.13	-50.1	-51.4	20.5	0.00e+00	0	48	0	879755264	71	4284
2026-01-15 23:41:03.70	133.20	42.54	-50.1	-51.4	20.6	0.00e+00	0	48	0	887095296	71	4261
2026-01-15 23:41:07.74	134.90	41.93	-50.5	-51.9	20.0	0.00e+00	0	48	0	894435328	72	4281
2026-01-15 23:41:11.78	136.53	41.31	-51.4	-53.0	19.0	0.00e+00	0	48	0	902823936	73	4551
2026-01-15 23:41:15.81	138.10	40.67	-50.5	-51.9	20.0	0.00e+00	0	48	0	910163968	73	4017
2026-01-15 23:41:19.85	139.61	40.02	-51.5	-53.2	18.8	0.00e+00	0	48	0	917504000	75	4151
2026-01-15 23:41:23.89	141.06	39.36	-52.7	-54.7	17.3	0.00e+00	0	48	0	924844032	75	4973
2026-01-15 23:41:27.93	142.45	38.70	-51.1	-52.6	19.2	0.00e+00	0	48	0	933232640	73	4385
2026-01-15 23:41:31.96	143.79	38.03	-53.3	-55.5	16.4	0.00e+00	0	48	0	940572672	78	4582
2026-01-15 23:41:36.01	145.08	37.35	-53.3	-55.6	16.4	0.00e+00	0	48	0	947912704	77	4918
2026-01-15 23:41:40.04	146.31	36.68	-53.1	-55.3	16.6	0.00e+00	0	48	0	955252736	78	4465
2026-01-15 23:41:44.09	147.50	36.01	-53.9	-56.5	15.3	0.00e+00	0	48	0	962592768	78	5142
2026-01-15 23:41:48.13	148.64	35.33	-52.5	-54.4	17.5	0.00e+00	0	48	0	970981376	77	4274
2026-01-15 23:41:52.17	149.73	34.66	-54.1	-56.8	15.1	0.00e+00	0	48	0	978321408	78	5316
2026-01-15 23:41:56.21	150.78	33.99	-51.8	-53.4	18.4	0.00e+00	0	49	0	985661440	75	4288
2026-01-15 23:42:00.24	151.79	33.33	-52.3	-54.2	17.7	0.00e+00	0	48	0	993001472	75	4680
2026-01-15 23:42:04.28	152.76	32.67	-53.6	-56.1	15.7	0.00e+00	0	48	0	1000341504	79	4647
2026-01-15 23:42:08.32	153.69	32.02	-51.7	-53.3	18.5	0.00e+00	0	48	0	1008730112	74	4476
2026-01-15 23:42:12.36	154.59	31.38	-53.4	-55.8	16.1	0.00e+00	0	48	0	1016070144	77	5010
2026-01-15 23:42:16.39	155.45	30.74	-52.8	-54.9	17.0	0.00e+00	0	48	0	1023410176	77	4508
2026-01-15 23:42:20.44	156.28	30.10	-53.2	-55.5	16.3	0.00e+00	0	49	0	1030750208	76	5132
2026-01-15 23:42:24.47	157.08	29.48	-52.6	-54.7	17.1	0.00e+00	0	48	0	1039138816	77	4400
2026-01-15 23:42:28.52	157.85	28.86	-51.5	-53.1	18.6	0.00e+00	0	48	0	1046478848	74	4370
2026-01-15 23:42:32.55	158.59	28.26	-52.6	-54.7	17.1	0.00e+00	0	49	0	1053818880	75	4957
2026-01-15 23:42:36.59	159.31	27.66	-52.1	-53.9	17.9	0.00e+00	0	48	0	1061158912	76	4273
2026-01-15 23:42:40.63	160.00	27.07	-50.9	-52.3	19.3	0.00e+00	0	48	0	1069547520	73	4235
2026-01-15 23:42:44.68	160.67	26.48	-51.0	-52.6	19.1	0.00e+00	0	48	0	1076887552	73	4363
2026-01-15 23:42:48.72	161.31	25.91	-51.5	-53.2	18.5	0.00e+00	0	49	0	1084227584	73	4688
2026-01-15 23:42:52.76	161.93	25.34	-51.8	-53.6	18.1	0.00e+00	0	48	0	1091567616	74	4607
2026-01-15 23:42:56.80	162.53	24.78	-51.1	-52.7	19.0	0.00e+00	0	48	0	1098907648	74	4167
2026-01-15 23:43:00.84	163.11	24.24	-51.5	-53.2	18.5	0.00e+00	0	49	0	1107296256	74	4401
2026-01-15 23:43:04.88	163.67	23.70	-51.7	-53.4	18.2	0.00e+00	0	48	0	1114636288	74	4530
2026-01-15 23:43:08.91	164.21	23.16	-51.4	-53.1	18.5	0.00e+00	0	48	0	1121976320	74	4361
2026-01-15 23:43:12.94	164.73	22.64	-50.6	-52.1	19.5	0.00e+00	0	49	0	1129316352	73	4125
2026-01-15 23:43:16.98	165.24	22.13	-50.8	-52.3	19.3	0.00e+00	0	48	0	1136656384	73	4235
2026-01-15 23:43:21.02	165.73	21.62	-51.1	-52.7	18.9	0.00e+00	0	49	0	1145044992	73	4393
2026-01-15 23:43:25.05	166.21	21.12	-51.3	-53.0	18.6	0.00e+00	0	49	0	1152385024	73	4546
2026-01-15 23:43:29.10	166.67	20.63	-51.1	-52.7	18.8	0.00e+00	0	49	0	1159725056	73	4410
2026-01-15 23:43:33.13	167.12	20.15	-51.1	-52.6	18.9	0.00e+00	0	48	0	1167065088	73	4391
2026-01-15 23:43:37.16	167.55	19.67	-51.2	-52.8	18.8	0.00e+00	0	48	0	1175453696	73	4453
2026-01-15 23:43:41.20	167.98	19.20	-51.5	-53.3	18.2	0.00e+00	0	48	0	1182793728	73	4721
2026-01-15 23:43:45.24	168.39	18.74	-51.7	-53.5	18.0	0.00e+00	0	49	0	1190133760	73	4846
2026-01-15 23:43:49.28	168.79	18.29	-51.3	-53.0	18.5	0.00e+00	0	49	0	1197473792	74	4335
2026-01-15 23:43:53.32	169.18	17.84	-50.8	-52.3	19.2	0.00e+00	0	48	0	1204813824	73	4206
2026-01-15 23:43:57.36	169.55	17.40	-50.5	-52.0	19.5	0.00e+00	0	49	0	1213202432	72	4294
2026-01-15 23:44:01.39	169.92	16.97	-50.6	-52.2	19.3	0.00e+00	0	49	0	1220542464	72	4392
2026-01-15 23:44:05.43	170.28	16.54	-51.0	-52.6	18.8	0.00e+00	0	49	0	1227882496	72	4621
2026-01-15 23:44:09.47	170.62	16.12	-51.1	-52.7	18.7	0.00e+00	0	48	0	1235222528	72	4697
2026-01-15 23:44:13.51	170.96	15.71	-50.9	-52.5	18.9	0.00e+00	0	49	0	1243611136	72	4598
2026-01-15 23:44:17.55	171.29	15.30	-50.7	-52.2	19.2	0.00e+00	0	49	0	1250951168	72	4421
2026-01-15 23:44:21.58	171.61	14.90	-50.8	-52.3	19.0	0.00e+00	0	48	0	1258291200	72	4485
2026-01-15 23:44:25.62	171.93	14.50	-51.0	-52.6	18.8	0.00e+00	0	48	0	1265631232	72	4605
2026-01-15 23:44:29.66	172.23	14.11	-51.3	-53.0	18.3	0.00e+00	0	49	0	1272971264	73	4586
2026-01-15 23:44:33.70	172.53	13.72	-51.6	-53.5	17.9	0.00e+00	0	48	0	1281359872	73	4828
2026-01-15 23:44:37.74	172.82	13.34	-51.9	-53.8	17.5	0.00e+00	0	49	0	1288699904	74	4745
2026-01-15 23:44:41.78	173.11	12.97	-51.8	-53.7	17.7	0.00e+00	0	49	0	1296039936	74	4658
2026-01-15 23:44:45.82	173.38	12.60	-51.6	-53.5	17.8	0.00e+00	0	49	0	1303379968	74	4572
2026-01-15 23:44:49.86	173.65	12.23	-51.5	-53.3	18.0	0.00e+00	0	49	0	1311768576	74	4472
2026-01-15 23:44:53.90	173.92	11.87	-51.2	-52.9	18.4	0.00e+00	0	49	0	1319108608	74	4252
2026-01-15 23:44:57.94	174.18	11.52	-51.2	-52.9	18.3	0.00e+00	0	49	0	1326448640	74	4271
2026-01-15 23:45:01.97	174.43	11.17	-51.4	-53.1	18.1	0.00e+00	0	49	0	1333788672	74	4378
2026-01-15 23:45:06.01	174.68	10.82	-51.5	-53.4	17.8	0.00e+00	0	49	0	1341128704	74	4514
2026-01-15 23:45:10.04	174.92	10.48	-51.7	-53.7	17.5	0.00e+00	0	48	0	1349517312	74	4656
2026-01-15 23:45:14.08	175.16	10.14	-51.9	-54.0	17.2	0.00e+00	0	49	0	1356857344	74	4817
2026-01-15 23:45:18.12	175.39	9.81	-52.2	-54.4	16.7	0.00e+00	0	49	0	1364197376	74	5061
2026-01-15 23:45:22.16	175.62	9.48	-52.3	-54.4	16.7	0.00e+00	0	49	0	1371537408	75	4806
2026-01-15 23:45:26.19	175.84	9.16	-52.2	-54.3	16.7	0.00e+00	0	49	0	1379926016	75	4759
2026-01-15 23:45:30.24	176.06	8.83	-52.0	-54.1	17.0	0.00e+00	0	49	0	1387266048	75	4617
2026-01-15 23:45:34.28	176.27	8.52	-51.9	-54.0	17.1	0.00e+00	0	48	0	1394606080	75	4554
2026-01-15 23:45:38.31	176.48	8.20	-51.9	-54.0	17.0	0.00e+00	0	49	0	1401946112	75	4577
2026-01-15 23:45:42.35	176.68	7.89	-51.8	-53.9	17.1	0.00e+00	0	49	0	1409286144	75	4498
2026-01-15 23:45:46.38	176.89	7.59	-51.6	-53.6	17.3	0.00e+00	0	49	0	1417674752	75	4371
2026-01-15 23:45:50.42	177.08	7.28	-51.9	-54.0	16.9	0.00e+00	0	49	0	1425014784	75	4574
2026-01-15 23:45:54.46	177.28	6.98	-51.9	-54.0	16.9	0.00e+00	0	48	0	1432354816	75	4576
2026-01-15 23:45:58.50	177.47	6.68	-52.2	-54.5	16.4	0.00e+00	0	48	0	1439694848	75	4840
2026-01-15 23:46:02.54	177.65	6.39	-52.2	-54.4	16.4	0.00e+00	0	48	0	1448083456	75	4797
2026-01-15 23:46:06.58	177.84	6.10	-52.2	-54.4	16.3	0.00e+00	0	49	0	1455423488	75	4800
2026-01-15 23:46:10.62	178.02	5.81	-52.7	-55.2	15.5	0.00e+00	0	49	0	1462763520	76	4982
2026-01-15 23:46:14.66	178.19	5.53	-52.7	-55.4	15.3	0.00e+00	0	48	0	1470103552	76	5053
2026-01-15 23:46:18.70	178.37	5.25	-52.5	-55.0	15.6	0.00e+00	0	49	0	1477443584	76	4842
2026-01-15 23:46:22.75	178.54	4.97	-56.3	-66.2	5.4	2.07e-02	0	49	0	1485832192	83	11758
2026-01-15 23:46:26.79	178.70	4.69	-57.9	-72.8	3.8	1.49e+00	0	49	104	1485832192	86	21243
2026-01-15 23:46:30.83	178.87	4.42	-58.2	-73.2	3.8	1.49e+00	0	49	104	1485832192	86	22146
2026-01-15 23:46:34.87	179.03	4.14	-58.4	-73.4	3.8	1.49e+00	0	49	104	1485832192	87	21271
2026-01-15 23:46:38.91	179.19	3.88	-58.4	-73.5	3.8	1.49e+00	0	49	104	1485832192	87	21529
2026-01-15 23:46:42.95	179.35	3.61	-58.4	-73.5	3.8	1.49e+00	0	49	104	1485832192	87	21508
2026-01-15 23:46:46.99	179.50	3.35	-58.4	-73.4	3.8	1.49e+00	0	49	104	1485832192	87	21350
2026-01-15 23:46:51.03	179.65	3.08	-58.4	-73.4	3.8	1.49e+00	0	49	104	1485832192	87	21273
2026-01-15 23:46:55.07	179.80	2.82	-58.4	-73.4	3.8	1.49e+00	0	49	104	1485832192	87	21334
2026-01-15 23:46:59.11	179.95	2.57	-58.3	-73.4	3.8	1.49e+00	0	49	104	1485832192	87	21287
2026-01-15 23:47:03.15	180.09	2.31	-58.3	-73.3	3.8	1.49e+00	0	49	104	1485832192	87	21255
2026-01-15 23:47:07.18	180.23	2.06	-58.3	-73.3	3.8	1.49e+00	0	49	104	1485832192	87	21200

#Closed at: 2026-01-15 23:47:10
#Recorded file [1485 MB]: D:/lorett/data/31041_260116_023254.dat