passes_logs/2026/01/15/R3.2S_Murmansk/R3.2S_Murmansk__20260115_110933_SUOMI_NPP_rec.log

#Pass ID: 20260115_110933_SUOMI NPP
#Satellite: SUOMI NPP
#Configuration: NPP
#almurnet v.1.7.20251203
#Start time: 2026-01-15 11:09:34

#Version: 2.2.20231116
#Station: R3.2S_Murmansk
#Location: 33.079688 lon 68.888172 lat
#TLE: 1 37849U 11061A   26014.61059675  .00000037  00000+0  38639-4 0  9994
#TLE: 2 37849  98.7810 316.6625 0002460  64.3781 295.7649 14.19525105736658

#Time	Az	El	Level	Level2	SNR	BER	BlckErr	Temp	State	Recorded	gain1	gain2
2026-01-15 11:09:34.22	190.41	2.05	-58.9	-74.9	3.8	1.49e+00	0	26	0	0	84	22108
2026-01-15 11:09:38.18	190.60	2.29	-58.7	-74.7	3.8	1.49e+00	0	26	104	0	82	24212
2026-01-15 11:09:42.13	190.79	2.53	-58.7	-74.7	3.8	1.49e+00	0	26	104	0	82	24260
2026-01-15 11:09:46.10	190.99	2.78	-58.7	-74.6	3.8	1.49e+00	0	27	104	0	82	23868
2026-01-15 11:09:50.05	191.18	3.02	-58.7	-74.6	3.8	1.49e+00	0	27	104	0	82	24100
2026-01-15 11:09:54.02	191.38	3.27	-58.7	-74.6	3.8	1.49e+00	0	27	104	0	82	23932
2026-01-15 11:09:57.97	191.59	3.52	-58.7	-74.7	3.8	1.49e+00	0	27	104	0	82	24157
2026-01-15 11:10:01.93	191.79	3.77	-58.7	-73.9	3.8	1.49e+00	0	27	104	0	82	22222
2026-01-15 11:10:05.92	192.00	4.03	-58.4	-69.9	4.6	1.08e+00	0	27	0	1048576	82	14029
2026-01-15 11:10:09.92	192.22	4.29	-58.1	-66.9	6.2	2.72e-01	0	27	0	8388608	82	9942
2026-01-15 11:10:13.91	192.44	4.55	-57.3	-63.2	9.2	9.29e-03	0	27	0	15728640	81	6876
2026-01-15 11:10:17.88	192.66	4.81	-56.2	-60.4	11.4	2.36e-05	0	27	0	23068672	78	5858
2026-01-15 11:10:21.88	192.88	5.07	-57.0	-62.3	10.0	3.05e-05	0	27	0	30408704	79	6905
2026-01-15 11:10:25.84	193.11	5.34	-56.9	-61.9	10.4	2.20e-04	0	27	0	38797312	78	7021
2026-01-15 11:10:29.84	193.35	5.61	-55.6	-59.1	12.3	7.00e-07	0	28	0	46137344	77	5345
2026-01-15 11:10:33.83	193.58	5.88	-55.8	-59.4	12.1	7.00e-07	0	28	0	53477376	77	5544
2026-01-15 11:10:37.81	193.83	6.16	-55.8	-59.5	12.1	0.00e+00	0	28	0	60817408	77	5598
2026-01-15 11:10:41.81	194.07	6.43	-55.7	-59.2	12.3	7.00e-07	0	27	0	68157440	77	5439
2026-01-15 11:10:45.78	194.32	6.71	-55.8	-59.2	12.3	0.00e+00	0	28	0	75497472	77	5452
2026-01-15 11:10:49.77	194.58	6.99	-55.5	-58.8	12.6	0.00e+00	0	28	0	82837504	77	5165
2026-01-15 11:10:53.78	194.84	7.28	-55.5	-58.7	12.7	0.00e+00	0	28	0	91226112	77	5120
2026-01-15 11:10:57.74	195.10	7.57	-55.4	-58.5	12.8	0.00e+00	0	28	0	98566144	77	5003
2026-01-15 11:11:01.72	195.37	7.86	-55.3	-58.3	13.0	0.00e+00	0	28	0	105906176	77	4901
2026-01-15 11:11:05.71	195.64	8.15	-55.1	-57.9	13.1	0.00e+00	0	28	0	113246208	76	4979
2026-01-15 11:11:09.68	195.92	8.44	-55.0	-57.8	13.2	0.00e+00	0	28	0	120586240	76	4907
2026-01-15 11:11:13.69	196.21	8.74	-54.7	-57.4	13.5	0.00e+00	0	28	0	127926272	76	4653
2026-01-15 11:11:17.67	196.50	9.04	-54.5	-57.0	13.5	0.00e+00	0	28	0	135266304	75	4728
2026-01-15 11:11:21.67	196.80	9.35	-54.4	-56.8	13.6	0.00e+00	0	28	0	142606336	75	4644
2026-01-15 11:11:25.68	197.10	9.66	-54.2	-56.6	13.7	0.00e+00	0	28	0	150994944	74	4779
2026-01-15 11:11:29.65	197.41	9.97	-54.1	-56.4	13.8	0.00e+00	0	28	0	158334976	74	4705
2026-01-15 11:11:33.63	197.73	10.28	-54.0	-56.3	13.9	0.00e+00	0	28	0	165675008	74	4606
2026-01-15 11:11:37.61	198.05	10.60	-54.0	-56.2	13.9	0.00e+00	0	28	0	173015040	74	4598
2026-01-15 11:11:41.59	198.38	10.92	-54.0	-56.3	13.9	0.00e+00	0	28	0	180355072	74	4599
2026-01-15 11:11:45.57	198.71	11.25	-54.0	-56.3	13.9	0.00e+00	0	28	0	187695104	74	4624
2026-01-15 11:11:49.55	199.05	11.57	-54.1	-56.4	13.8	0.00e+00	0	28	0	195035136	74	4659
2026-01-15 11:11:53.53	199.40	11.90	-54.1	-56.5	13.8	0.00e+00	0	28	0	202375168	74	4714
2026-01-15 11:11:57.51	199.76	12.24	-54.0	-56.2	13.9	0.00e+00	0	28	0	209715200	74	4584
2026-01-15 11:12:01.49	200.12	12.58	-57.4	-62.1	10.1	7.80e-04	0	28	0	218103808	80	6408
2026-01-15 11:12:05.47	200.50	12.92	-57.2	-61.8	10.9	3.35e-05	0	28	0	225443840	80	6164
2026-01-15 11:12:09.43	200.88	13.26	-55.5	-58.4	13.0	0.00e+00	0	28	0	232783872	77	4957
2026-01-15 11:12:13.41	201.27	13.61	-54.7	-57.3	13.6	0.00e+00	0	28	0	240123904	76	4602
2026-01-15 11:12:17.40	201.67	13.97	-53.9	-56.1	13.9	0.00e+00	0	28	0	247463936	73	4776
2026-01-15 11:12:21.37	202.07	14.32	-53.6	-55.7	14.1	0.00e+00	0	28	0	254803968	73	4586
2026-01-15 11:12:25.34	202.49	14.69	-53.3	-55.3	14.3	0.00e+00	0	28	0	262144000	73	4346
2026-01-15 11:12:29.32	202.92	15.05	-53.4	-55.4	14.2	0.00e+00	0	28	0	269484032	73	4415
2026-01-15 11:12:33.29	203.35	15.42	-53.4	-55.4	14.2	0.00e+00	0	28	0	276824064	73	4402
2026-01-15 11:12:37.27	203.80	15.79	-53.6	-55.7	14.1	0.00e+00	0	28	0	284164096	73	4571
2026-01-15 11:12:41.24	204.26	16.17	-53.8	-55.9	14.0	0.00e+00	0	28	0	292552704	73	4654
2026-01-15 11:12:45.23	204.73	16.55	-53.8	-55.9	14.0	0.00e+00	0	28	0	299892736	73	4682
2026-01-15 11:12:49.19	205.21	16.94	-53.9	-56.1	13.9	0.00e+00	0	28	0	307232768	73	4791
2026-01-15 11:12:53.17	205.71	17.33	-53.7	-55.9	14.1	0.00e+00	0	28	0	314572800	73	4659
2026-01-15 11:12:57.15	206.21	17.72	-53.6	-55.6	14.2	0.00e+00	0	28	0	321912832	73	4515
2026-01-15 11:13:01.13	206.73	18.12	-53.4	-55.4	14.3	0.00e+00	0	28	0	329252864	73	4434
2026-01-15 11:13:05.10	207.27	18.52	-53.5	-55.6	14.2	0.00e+00	0	28	0	336592896	73	4497
2026-01-15 11:13:09.08	207.81	18.93	-53.8	-56.0	14.0	0.00e+00	0	28	0	343932928	73	4726
2026-01-15 11:13:13.07	208.38	19.34	-54.0	-56.2	13.9	0.00e+00	0	28	0	351272960	73	4822
2026-01-15 11:13:17.04	208.95	19.76	-53.9	-56.1	14.0	0.00e+00	0	28	0	359661568	73	4772
2026-01-15 11:13:21.04	209.55	20.18	-53.9	-56.0	14.0	0.00e+00	0	28	0	367001600	73	4729
2026-01-15 11:13:25.01	210.15	20.60	-53.8	-55.9	14.1	0.00e+00	0	28	0	374341632	73	4654
2026-01-15 11:13:28.99	210.78	21.03	-53.8	-55.9	14.1	0.00e+00	0	28	0	381681664	73	4670
2026-01-15 11:13:32.97	211.42	21.46	-54.0	-56.2	13.9	0.00e+00	0	28	0	389021696	73	4826
2026-01-15 11:13:36.95	212.08	21.90	-54.0	-56.2	14.0	0.00e+00	0	28	0	396361728	73	4828
2026-01-15 11:13:40.93	212.76	22.34	-53.5	-55.4	14.3	0.00e+00	0	28	0	403701760	73	4436
2026-01-15 11:13:44.90	213.45	22.78	-53.3	-55.2	14.3	0.00e+00	0	28	0	411041792	72	4594
2026-01-15 11:13:48.88	214.17	23.23	-53.4	-55.4	14.2	0.00e+00	0	28	0	419430400	72	4683
2026-01-15 11:13:52.86	214.90	23.68	-53.2	-55.1	14.3	0.00e+00	0	28	0	426770432	72	4512
2026-01-15 11:13:56.86	215.67	24.13	-52.9	-54.7	14.5	0.00e+00	0	28	0	434110464	72	4328
2026-01-15 11:14:00.86	216.45	24.59	-53.5	-55.4	14.2	0.00e+00	0	28	0	441450496	72	4700
2026-01-15 11:14:04.81	217.24	25.04	-53.6	-55.6	14.1	0.00e+00	0	28	0	448790528	72	4802
2026-01-15 11:14:08.78	218.06	25.50	-53.1	-55.0	14.4	0.00e+00	0	28	0	456130560	72	4444
2026-01-15 11:14:12.76	218.91	25.96	-53.5	-55.5	14.2	0.00e+00	0	28	0	463470592	72	4752
2026-01-15 11:14:16.75	219.79	26.42	-53.4	-55.4	14.2	0.00e+00	0	28	0	470810624	72	4655
2026-01-15 11:14:20.73	220.68	26.89	-53.3	-55.2	14.3	0.00e+00	0	28	0	479199232	72	4573
2026-01-15 11:14:24.72	221.61	27.35	-53.1	-55.0	14.4	0.00e+00	0	28	0	486539264	72	4465
2026-01-15 11:14:28.70	222.56	27.82	-52.7	-54.4	14.5	0.00e+00	0	28	0	493879296	71	4426
2026-01-15 11:14:32.66	223.53	28.28	-53.0	-54.8	14.4	0.00e+00	0	28	0	501219328	71	4607
2026-01-15 11:14:36.63	224.53	28.74	-53.4	-55.3	14.3	0.00e+00	0	28	0	508559360	72	4644
2026-01-15 11:14:40.61	225.57	29.20	-53.7	-55.7	14.1	0.00e+00	0	28	0	515899392	72	4833
2026-01-15 11:14:44.57	226.62	29.65	-54.3	-56.5	13.8	0.00e+00	0	28	0	523239424	73	5017
2026-01-15 11:14:48.56	227.72	30.10	-54.3	-56.4	14.0	0.00e+00	0	28	0	530579456	74	4694
2026-01-15 11:14:52.55	228.84	30.55	-55.4	-58.0	13.3	0.00e+00	0	28	0	537919488	75	5332
2026-01-15 11:14:56.54	230.00	31.00	-56.2	-59.3	12.8	0.00e+00	0	28	0	546308096	77	5468
2026-01-15 11:15:00.54	231.19	31.44	-56.2	-59.2	12.9	0.00e+00	0	28	0	553648128	78	5146
2026-01-15 11:15:04.52	232.41	31.87	-56.6	-60.0	12.5	0.00e+00	0	28	0	560988160	78	5593
2026-01-15 11:15:08.51	233.66	32.29	-56.0	-58.9	13.1	0.00e+00	0	28	0	568328192	78	4949
2026-01-15 11:15:12.50	234.94	32.70	-56.4	-59.5	12.7	0.00e+00	0	28	0	575668224	78	5335
2026-01-15 11:15:16.49	236.26	33.11	-56.7	-60.0	12.4	7.00e-07	0	28	0	583008256	79	5340
2026-01-15 11:15:20.48	237.60	33.50	-55.9	-58.7	13.2	0.00e+00	0	28	0	590348288	78	4833
2026-01-15 11:15:24.45	238.97	33.88	-56.5	-59.7	12.6	0.00e+00	0	28	0	597688320	78	5456
2026-01-15 11:15:28.44	240.38	34.24	-54.1	-56.2	14.1	0.00e+00	0	28	0	606076928	74	4564
2026-01-15 11:15:32.42	241.82	34.59	-55.6	-58.3	13.3	0.00e+00	0	28	0	613416960	76	5169
2026-01-15 11:15:36.39	243.28	34.92	-54.9	-57.2	13.8	0.00e+00	0	28	0	620756992	76	4568
2026-01-15 11:15:40.37	244.78	35.24	-53.5	-55.4	14.4	0.00e+00	0	28	0	628097024	73	4405
2026-01-15 11:15:44.36	246.31	35.53	-54.2	-56.3	14.0	0.00e+00	0	28	0	635437056	73	4886
2026-01-15 11:15:48.35	247.86	35.81	-53.2	-55.1	14.4	0.00e+00	0	28	0	642777088	72	4502
2026-01-15 11:15:52.33	249.43	36.06	-53.7	-55.7	14.2	0.00e+00	0	28	0	650117120	73	4573
2026-01-15 11:15:56.33	251.04	36.30	-53.8	-55.8	14.1	0.00e+00	0	28	0	658505728	72	4895
2026-01-15 11:16:00.30	252.65	36.51	-53.2	-55.1	14.4	0.00e+00	0	28	0	665845760	72	4499
2026-01-15 11:16:04.27	254.29	36.69	-54.3	-56.4	13.9	0.00e+00	0	28	0	673185792	73	4957
2026-01-15 11:16:08.25	255.94	36.85	-53.8	-55.8	14.2	0.00e+00	0	28	0	680525824	73	4644
2026-01-15 11:16:12.22	257.61	36.98	-53.8	-55.8	14.2	0.00e+00	0	28	0	687865856	73	4617
2026-01-15 11:16:16.20	259.29	37.09	-54.5	-56.7	13.8	0.00e+00	0	28	0	695205888	74	4859
2026-01-15 11:16:20.17	260.98	37.17	-54.6	-56.9	13.9	0.00e+00	0	28	0	702545920	75	4680
2026-01-15 11:16:24.14	262.67	37.22	-54.5	-56.7	14.0	0.00e+00	0	28	0	709885952	75	4594
2026-01-15 11:16:28.13	264.38	37.25	-55.2	-57.7	13.5	0.00e+00	0	28	0	717225984	75	5142
2026-01-15 11:16:32.11	266.08	37.24	-55.0	-57.3	13.7	0.00e+00	0	28	0	724566016	75	4914
2026-01-15 11:16:36.10	267.78	37.21	-55.3	-57.9	13.3	0.00e+00	0	28	0	732954624	75	5237
2026-01-15 11:16:40.09	269.48	37.16	-55.9	-58.7	13.3	0.00e+00	0	28	0	740294656	78	4822
2026-01-15 11:16:44.06	271.17	37.07	-54.2	-56.3	14.1	0.00e+00	0	28	0	747634688	74	4634
2026-01-15 11:16:48.05	272.85	36.96	-55.3	-57.9	13.5	0.00e+00	0	28	0	754974720	75	5241
2026-01-15 11:16:52.03	274.52	36.82	-54.8	-57.1	13.8	0.00e+00	0	28	0	762314752	75	4784
2026-01-15 11:16:56.01	276.17	36.65	-54.7	-56.9	13.9	0.00e+00	0	28	0	769654784	75	4674
2026-01-15 11:17:00.00	277.80	36.46	-55.5	-58.1	13.3	0.00e+00	0	28	0	776994816	76	5092
2026-01-15 11:17:03.98	279.42	36.25	-57.1	-60.7	12.0	7.00e-07	0	28	0	784334848	79	5776
2026-01-15 11:17:07.95	281.00	36.02	-57.0	-60.6	12.1	0.00e+00	0	28	0	792723456	79	5718
2026-01-15 11:17:11.92	282.57	35.76	-55.8	-58.5	13.4	0.00e+00	0	28	0	800063488	78	4742
2026-01-15 11:17:15.90	284.11	35.48	-57.5	-61.6	11.6	4.04e-05	0	28	0	807403520	80	6059
2026-01-15 11:17:19.89	285.63	35.18	-55.8	-58.5	13.3	0.00e+00	0	28	0	814743552	77	4993
2026-01-15 11:17:23.87	287.11	34.86	-54.9	-57.2	13.9	0.00e+00	0	28	0	822083584	76	4548
2026-01-15 11:17:27.82	288.56	34.53	-57.7	-61.9	11.3	2.59e-05	0	28	0	829423616	80	6239
2026-01-15 11:17:31.82	289.99	34.18	-56.4	-59.4	12.9	0.00e+00	0	28	0	836763648	79	4980
2026-01-15 11:17:35.81	291.39	33.81	-55.1	-57.4	13.7	0.00e+00	0	28	0	844103680	76	4676
2026-01-15 11:17:39.79	292.76	33.43	-55.4	-57.8	13.5	0.00e+00	0	28	0	851443712	76	4922
2026-01-15 11:17:43.76	294.09	33.04	-55.0	-57.3	13.8	0.00e+00	0	28	0	859832320	76	4650
2026-01-15 11:17:47.73	295.39	32.64	-58.4	-64.2	9.6	5.67e-03	0	28	0	867172352	82	7233
2026-01-15 11:17:51.72	296.66	32.23	-53.3	-55.1	14.5	0.00e+00	0	28	0	874512384	73	4271
2026-01-15 11:17:55.70	297.90	31.81	-53.8	-55.8	14.4	0.00e+00	0	28	0	881852416	74	4344
2026-01-15 11:17:59.67	299.11	31.38	-53.6	-55.5	14.3	0.00e+00	0	28	0	889192448	72	4727
2026-01-15 11:18:03.65	300.28	30.94	-52.8	-54.5	14.7	0.00e+00	0	28	0	896532480	72	4238
2026-01-15 11:18:07.63	301.43	30.50	-54.4	-56.6	13.9	0.00e+00	0	28	0	903872512	73	5072
2026-01-15 11:18:11.61	302.54	30.05	-52.4	-54.0	14.7	0.00e+00	0	28	0	911212544	71	4232
2026-01-15 11:18:15.59	303.62	29.60	-54.7	-57.0	13.7	0.00e+00	0	28	0	919601152	74	5031
2026-01-15 11:18:19.57	304.68	29.15	-53.5	-55.4	14.3	0.00e+00	0	28	0	926941184	72	4666
2026-01-15 11:18:23.54	305.70	28.69	-54.8	-57.2	13.7	0.00e+00	0	28	0	934281216	75	4840
2026-01-15 11:18:27.53	306.70	28.23	-53.6	-55.5	14.3	0.00e+00	0	28	0	941621248	73	4462
2026-01-15 11:18:31.51	307.67	27.77	-52.6	-54.3	14.6	0.00e+00	0	28	0	948961280	71	4344
2026-01-15 11:18:35.50	308.62	27.31	-53.4	-55.3	14.3	0.00e+00	0	28	0	956301312	71	4900
2026-01-15 11:18:39.48	309.53	26.85	-53.9	-55.9	14.2	0.00e+00	0	28	0	963641344	74	4398
2026-01-15 11:18:43.47	310.43	26.39	-53.5	-55.4	14.2	0.00e+00	0	28	0	970981376	72	4670
2026-01-15 11:18:47.43	311.29	25.93	-52.8	-54.6	14.5	0.00e+00	0	28	0	978321408	72	4268
2026-01-15 11:18:51.43	312.13	25.47	-51.9	-53.5	14.8	0.00e+00	0	28	0	986710016	70	4209
2026-01-15 11:18:55.41	312.95	25.01	-53.2	-55.1	14.3	0.00e+00	0	28	0	994050048	71	4765
2026-01-15 11:18:59.37	313.74	24.56	-52.9	-54.7	14.4	0.00e+00	0	28	0	1001390080	71	4565
2026-01-15 11:19:03.36	314.52	24.11	-53.4	-55.3	14.3	0.00e+00	0	28	0	1008730112	72	4631
2026-01-15 11:19:07.35	315.27	23.66	-52.0	-53.6	14.8	0.00e+00	0	28	0	1016070144	70	4260
2026-01-15 11:19:11.34	316.00	23.21	-51.7	-53.2	14.8	0.00e+00	0	28	0	1023410176	69	4332
2026-01-15 11:19:15.30	316.71	22.77	-52.7	-54.4	14.4	0.00e+00	0	28	0	1030750208	70	4689
2026-01-15 11:19:19.28	317.40	22.33	-52.2	-53.8	14.6	0.00e+00	0	28	0	1038090240	70	4387
2026-01-15 11:19:23.27	318.08	21.89	-52.1	-53.8	14.7	0.00e+00	0	28	0	1046478848	70	4355
2026-01-15 11:19:27.26	318.74	21.46	-52.5	-54.3	14.5	0.00e+00	0	28	0	1053818880	70	4613
2026-01-15 11:19:31.24	319.37	21.03	-52.4	-54.0	14.6	0.00e+00	0	28	0	1061158912	70	4493
2026-01-15 11:19:35.21	319.99	20.60	-52.3	-53.9	14.6	0.00e+00	0	28	0	1068498944	70	4426
2026-01-15 11:19:39.19	320.60	20.18	-52.9	-54.7	14.3	0.00e+00	0	28	0	1075838976	70	4835
2026-01-15 11:19:43.17	321.19	19.77	-52.4	-54.1	14.5	0.00e+00	0	28	0	1083179008	70	4524
2026-01-15 11:19:47.15	321.76	19.35	-52.1	-53.7	14.7	0.00e+00	0	28	0	1090519040	70	4313
2026-01-15 11:19:51.15	322.32	18.94	-52.3	-54.0	14.6	0.00e+00	0	28	0	1097859072	70	4461
2026-01-15 11:19:55.13	322.87	18.54	-53.7	-55.7	14.1	0.00e+00	0	28	0	1106247680	72	4841
2026-01-15 11:19:59.09	323.40	18.14	-54.8	-57.3	13.5	0.00e+00	0	28	0	1113587712	74	5196
2026-01-15 11:20:03.06	323.91	17.75	-54.5	-56.8	13.8	0.00e+00	0	28	0	1120927744	75	4621
2026-01-15 11:20:07.04	324.42	17.35	-53.7	-55.7	14.1	0.00e+00	0	28	0	1128267776	73	4561
2026-01-15 11:20:11.01	324.91	16.97	-53.6	-55.6	14.2	0.00e+00	0	28	0	1135607808	73	4540
2026-01-15 11:20:14.99	325.39	16.58	-54.1	-56.4	13.8	0.00e+00	0	28	0	1142947840	73	4936
2026-01-15 11:20:18.97	325.86	16.21	-53.9	-56.0	14.0	0.00e+00	0	28	0	1150287872	73	4757
2026-01-15 11:20:22.94	326.31	15.83	-53.5	-55.5	14.3	0.00e+00	0	28	0	1157627904	73	4447
2026-01-15 11:20:26.92	326.76	15.46	-53.5	-55.5	14.2	0.00e+00	0	28	0	1164967936	73	4481
2026-01-15 11:20:30.90	327.20	15.09	-53.9	-56.0	14.0	0.00e+00	0	28	0	1172307968	73	4743
2026-01-15 11:20:34.89	327.63	14.73	-53.3	-55.3	14.3	0.00e+00	0	28	0	1180696576	73	4352
2026-01-15 11:20:38.88	328.04	14.37	-53.0	-54.9	14.4	0.00e+00	0	28	0	1188036608	72	4394
2026-01-15 11:20:42.86	328.45	14.02	-52.9	-54.7	14.4	0.00e+00	0	28	0	1195376640	72	4336
2026-01-15 11:20:46.85	328.85	13.66	-53.5	-55.6	14.1	0.00e+00	0	28	0	1202716672	72	4780
2026-01-15 11:20:50.82	329.24	13.32	-53.4	-55.4	14.1	0.00e+00	0	28	0	1210056704	72	4689
2026-01-15 11:20:54.80	329.62	12.97	-53.5	-55.6	14.1	0.00e+00	0	28	0	1217396736	72	4791
2026-01-15 11:20:58.78	329.99	12.63	-53.5	-55.6	14.1	0.00e+00	0	28	0	1224736768	72	4780
2026-01-15 11:21:02.77	330.36	12.30	-54.1	-56.4	13.8	0.00e+00	0	28	0	1232076800	73	4928
2026-01-15 11:21:06.75	330.71	11.97	-54.2	-56.6	13.8	0.00e+00	0	28	0	1240465408	74	4765
2026-01-15 11:21:10.74	331.07	11.64	-54.8	-57.4	13.3	0.00e+00	0	28	0	1247805440	74	5242
2026-01-15 11:21:14.73	331.41	11.31	-54.5	-57.1	13.5	0.00e+00	0	28	0	1255145472	74	5049
2026-01-15 11:21:18.70	331.74	10.99	-54.0	-56.3	13.9	0.00e+00	0	28	0	1262485504	74	4617
2026-01-15 11:21:22.69	332.07	10.67	-53.7	-55.8	14.1	0.00e+00	0	28	0	1269825536	74	4373
2026-01-15 11:21:26.68	332.39	10.35	-53.4	-55.5	14.2	0.00e+00	0	28	0	1277165568	73	4442
2026-01-15 11:21:30.65	332.71	10.04	-53.4	-55.5	14.2	0.00e+00	0	28	0	1284505600	73	4448
2026-01-15 11:21:34.63	333.02	9.73	-53.4	-55.5	14.1	0.00e+00	0	28	0	1291845632	73	4458
2026-01-15 11:21:38.61	333.32	9.43	-53.5	-55.5	14.1	0.00e+00	0	28	0	1299185664	73	4492
2026-01-15 11:21:42.60	333.62	9.13	-53.6	-55.8	14.0	0.00e+00	0	28	0	1307574272	73	4615
2026-01-15 11:21:46.57	333.91	8.83	-53.8	-56.1	13.8	0.00e+00	0	28	0	1314914304	73	4764
2026-01-15 11:21:50.55	334.19	8.53	-53.9	-56.2	13.8	0.00e+00	0	28	0	1322254336	73	4842
2026-01-15 11:21:54.53	334.47	8.24	-54.1	-56.5	13.6	0.00e+00	0	28	0	1329594368	73	5028
2026-01-15 11:21:58.53	334.75	7.95	-54.6	-57.1	13.4	0.00e+00	0	28	0	1336934400	74	5092
2026-01-15 11:22:02.51	335.02	7.66	-55.0	-57.8	13.0	0.00e+00	0	28	0	1344274432	75	5211
2026-01-15 11:22:06.49	335.29	7.37	-55.1	-58.1	12.9	0.00e+00	0	28	0	1351614464	75	5363
2026-01-15 11:22:10.47	335.55	7.09	-55.3	-58.5	12.6	0.00e+00	0	28	0	1358954496	75	5602
2026-01-15 11:22:14.43	335.80	6.81	-55.6	-58.9	12.5	7.00e-07	0	28	0	1367343104	76	5557
2026-01-15 11:22:18.41	336.05	6.54	-55.6	-58.8	12.5	0.00e+00	0	28	0	1374683136	76	5524
2026-01-15 11:22:22.39	336.30	6.26	-55.7	-59.0	12.4	0.00e+00	0	28	0	1382023168	76	5646
2026-01-15 11:22:26.38	336.54	5.99	-55.3	-58.3	12.8	0.00e+00	0	28	0	1389363200	76	5195
2026-01-15 11:22:30.37	336.78	5.72	-55.4	-58.5	12.6	0.00e+00	0	29	0	1396703232	76	5335
2026-01-15 11:22:34.33	337.02	5.45	-55.5	-58.8	12.5	0.00e+00	0	28	0	1404043264	76	5479
2026-01-15 11:22:38.32	337.25	5.19	-55.7	-59.2	12.1	0.00e+00	0	29	0	1411383296	76	5770
2026-01-15 11:22:42.29	337.48	4.92	-59.2	-74.8	3.8	9.33e-01	0	29	104	1418723328	83	23112
2026-01-15 11:22:46.29	337.70	4.66	-60.2	-76.2	3.8	1.49e+00	0	29	104	1418723328	85	24364
2026-01-15 11:22:50.28	337.92	4.40	-60.6	-76.7	3.8	1.49e+00	0	29	104	1418723328	86	24258
2026-01-15 11:22:54.25	338.14	4.15	-60.7	-76.8	3.8	1.49e+00	0	28	104	1418723328	86	24440
2026-01-15 11:22:58.22	338.35	3.90	-60.7	-76.8	3.8	1.49e+00	0	29	104	1418723328	86	24620
2026-01-15 11:23:02.20	338.56	3.64	-60.8	-76.9	3.8	1.49e+00	0	28	104	1418723328	86	24732
2026-01-15 11:23:06.19	338.77	3.39	-60.7	-76.8	3.8	1.49e+00	0	28	104	1418723328	86	24439
2026-01-15 11:23:10.18	338.97	3.15	-60.6	-76.7	3.8	1.49e+00	0	29	104	1418723328	86	24338
2026-01-15 11:23:14.15	339.17	2.90	-60.6	-76.7	3.8	1.49e+00	0	28	104	1418723328	86	24167
2026-01-15 11:23:18.12	339.37	2.66	-60.6	-76.7	3.8	1.49e+00	0	29	104	1418723328	86	24174
2026-01-15 11:23:22.11	339.56	2.41	-60.6	-76.7	3.8	1.49e+00	0	28	104	1418723328	86	24206
2026-01-15 11:23:26.09	339.75	2.17	-60.5	-76.6	3.8	1.49e+00	0	28	104	1418723328	86	23998
2026-01-15 11:23:30.07	339.94	1.94	-60.5	-76.6	3.8	1.49e+00	0	28	104	1418723328	86	23962

#Closed at: 2026-01-15 11:23:30
#Recorded file [1418 MB]: D:/lorett/data/31004_260115_140934.dat