passes_logs/2026/01/15/R3.2S_Murmansk/R3.2S_Murmansk__20260115_113042_NOAA_20_JPSS-1_rec.log

#Pass ID: 20260115_113042_NOAA 20 (JPSS-1)
#Satellite: NOAA 20 (JPSS-1)
#Configuration: NOAA 20
#almurnet v.1.7.20251203
#Start time: 2026-01-15 11:30:42

#Version: 2.2.20231116
#Station: R3.2S_Murmansk
#Location: 33.079688 lon 68.888172 lat
#TLE: 1 43013U 17073A   26014.55467351  .00000038  00000+0  38801-4 0  9992
#TLE: 2 43013  98.7635 315.4987 0001517  39.9279 320.2008 14.19535859422677

#Time	Az	El	Level	Level2	SNR	BER	BlckErr	Temp	State	Recorded	gain1	gain2
2026-01-15 11:30:42.58	201.44	2.03	-59.0	-75.0	3.8	1.49e+00	0	26	0	0	84	22377
2026-01-15 11:30:46.55	201.67	2.26	-58.8	-74.8	3.8	1.49e+00	0	26	104	0	82	24447
2026-01-15 11:30:50.53	201.91	2.49	-58.8	-74.8	3.8	1.49e+00	0	27	104	0	82	24516
2026-01-15 11:30:54.49	202.16	2.72	-58.8	-74.8	3.8	1.49e+00	0	27	104	0	82	24412
2026-01-15 11:30:58.46	202.40	2.96	-58.8	-74.7	3.8	1.49e+00	0	27	104	0	82	24326
2026-01-15 11:31:02.43	202.65	3.20	-58.8	-74.7	3.8	1.49e+00	0	27	104	0	82	24183
2026-01-15 11:31:06.40	202.91	3.44	-58.8	-74.7	3.8	1.49e+00	0	27	104	0	82	24381
2026-01-15 11:31:10.35	203.17	3.68	-58.8	-74.6	3.8	1.49e+00	0	27	104	0	82	24086
2026-01-15 11:31:14.32	203.43	3.92	-58.8	-74.8	3.8	1.49e+00	0	27	104	0	82	24514
2026-01-15 11:31:18.27	203.70	4.16	-58.7	-73.1	3.8	1.49e+00	0	27	104	0	82	20257
2026-01-15 11:31:22.26	203.97	4.41	-58.4	-69.0	5.1	5.53e-01	0	27	0	3145728	82	12532
2026-01-15 11:31:26.24	204.24	4.66	-57.8	-64.7	8.2	4.43e-02	0	28	0	10485760	82	7636
2026-01-15 11:31:30.23	204.53	4.91	-56.3	-60.4	11.6	1.06e-04	0	27	0	17825792	79	5546
2026-01-15 11:31:34.19	204.81	5.16	-56.9	-61.8	10.5	5.97e-04	0	28	0	25165824	79	6551
2026-01-15 11:31:38.17	205.10	5.41	-55.8	-59.4	12.2	4.78e-04	0	27	0	33554432	78	5222
2026-01-15 11:31:42.14	205.39	5.67	-55.8	-59.4	12.1	3.00e-06	0	28	0	40894464	77	5569
2026-01-15 11:31:46.13	205.69	5.93	-55.5	-58.7	12.6	0.00e+00	0	28	0	48234496	77	5149
2026-01-15 11:31:50.10	206.00	6.18	-55.5	-58.8	12.6	0.00e+00	0	28	0	55574528	77	5163
2026-01-15 11:31:54.07	206.31	6.44	-55.5	-58.7	12.7	0.00e+00	0	28	0	62914560	77	5133
2026-01-15 11:31:58.03	206.62	6.71	-54.9	-57.8	13.2	0.00e+00	0	28	0	70254592	76	4886
2026-01-15 11:32:02.00	206.94	6.97	-54.8	-57.6	13.3	0.00e+00	0	28	0	77594624	76	4772
2026-01-15 11:32:05.98	207.27	7.24	-54.6	-57.2	13.4	0.00e+00	0	28	0	84934656	75	4863
2026-01-15 11:32:09.96	207.60	7.51	-54.4	-56.9	13.6	0.00e+00	0	28	0	92274688	75	4681
2026-01-15 11:32:13.91	207.94	7.78	-54.3	-56.7	13.7	0.00e+00	0	28	0	99614720	75	4593
2026-01-15 11:32:17.89	208.28	8.05	-54.2	-56.6	13.8	0.00e+00	0	28	0	108003328	75	4511
2026-01-15 11:32:21.87	208.63	8.33	-54.1	-56.5	13.8	0.00e+00	0	28	0	115343360	74	4713
2026-01-15 11:32:25.85	208.99	8.61	-54.0	-56.3	13.8	0.00e+00	0	28	0	122683392	74	4650
2026-01-15 11:32:29.83	209.35	8.89	-54.0	-56.3	13.8	0.00e+00	0	28	0	130023424	74	4641
2026-01-15 11:32:33.81	209.72	9.17	-54.1	-56.4	13.8	0.00e+00	0	28	0	137363456	74	4680
2026-01-15 11:32:37.79	210.10	9.45	-53.9	-56.1	14.0	0.00e+00	0	28	0	144703488	74	4539
2026-01-15 11:32:41.75	210.48	9.74	-53.8	-56.1	14.0	0.00e+00	0	28	0	152043520	74	4495
2026-01-15 11:32:45.74	210.87	10.03	-53.7	-55.9	14.1	0.00e+00	0	28	0	159383552	74	4421
2026-01-15 11:32:49.72	211.27	10.32	-53.8	-56.0	14.0	0.00e+00	0	28	0	167772160	74	4485
2026-01-15 11:32:53.72	211.68	10.61	-53.7	-55.8	14.1	0.00e+00	0	28	0	175112192	73	4623
2026-01-15 11:32:57.69	212.09	10.91	-53.7	-55.8	14.1	0.00e+00	0	28	0	182452224	73	4616
2026-01-15 11:33:01.66	212.51	11.20	-53.5	-55.6	14.2	0.00e+00	0	28	0	189792256	73	4524
2026-01-15 11:33:05.65	212.95	11.51	-53.4	-55.4	14.3	0.00e+00	0	28	0	197132288	73	4422
2026-01-15 11:33:09.61	213.38	11.81	-53.4	-55.4	14.2	0.00e+00	0	28	0	204472320	73	4435
2026-01-15 11:33:13.58	213.83	12.11	-53.4	-55.4	14.3	0.00e+00	0	28	0	211812352	73	4431
2026-01-15 11:33:17.57	214.29	12.42	-53.5	-55.5	14.2	0.00e+00	0	28	0	219152384	73	4488
2026-01-15 11:33:21.54	214.75	12.73	-53.8	-55.9	14.1	0.00e+00	0	28	0	226492416	73	4675
2026-01-15 11:33:25.52	215.23	13.04	-53.6	-55.7	14.1	0.00e+00	0	28	0	234881024	73	4594
2026-01-15 11:33:29.50	215.72	13.35	-53.6	-55.7	14.2	0.00e+00	0	28	0	242221056	73	4556
2026-01-15 11:33:33.46	216.21	13.67	-53.5	-55.6	14.2	0.00e+00	0	28	0	249561088	73	4517
2026-01-15 11:33:37.44	216.72	13.98	-53.6	-55.7	14.2	0.00e+00	0	28	0	256901120	73	4547
2026-01-15 11:33:41.41	217.23	14.30	-53.7	-55.7	14.1	0.00e+00	0	28	0	264241152	73	4587
2026-01-15 11:33:45.39	217.76	14.62	-53.5	-55.5	14.3	0.00e+00	0	28	0	271581184	73	4459
2026-01-15 11:33:49.39	218.30	14.95	-53.6	-55.6	14.2	0.00e+00	0	28	0	278921216	73	4545
2026-01-15 11:33:53.36	218.85	15.28	-53.7	-55.8	14.1	0.00e+00	0	28	0	286261248	73	4627
2026-01-15 11:33:57.34	219.41	15.60	-53.7	-55.7	14.2	0.00e+00	0	28	0	293601280	73	4588
2026-01-15 11:34:01.32	219.98	15.93	-53.5	-55.5	14.2	0.00e+00	0	28	0	301989888	73	4475
2026-01-15 11:34:05.30	220.57	16.27	-53.6	-55.6	14.2	0.00e+00	0	28	0	309329920	73	4505
2026-01-15 11:34:09.28	221.17	16.60	-53.7	-55.7	14.2	0.00e+00	0	28	0	316669952	73	4574
2026-01-15 11:34:13.28	221.78	16.94	-53.5	-55.4	14.3	0.00e+00	0	28	0	324009984	73	4436
2026-01-15 11:34:17.24	222.41	17.27	-53.3	-55.3	14.4	0.00e+00	0	28	0	331350016	73	4360
2026-01-15 11:34:21.23	223.05	17.61	-53.3	-55.2	14.4	0.00e+00	0	28	0	338690048	73	4328
2026-01-15 11:34:25.22	223.70	17.95	-53.0	-54.8	14.5	0.00e+00	0	28	0	346030080	72	4351
2026-01-15 11:34:29.18	224.37	18.29	-52.6	-54.3	14.6	0.00e+00	0	28	0	353370112	71	4385
2026-01-15 11:34:33.17	225.05	18.63	-52.7	-54.5	14.5	0.00e+00	0	28	0	361758720	71	4469
2026-01-15 11:34:37.15	225.75	18.97	-52.6	-54.3	14.6	0.00e+00	0	28	0	369098752	71	4382
2026-01-15 11:34:41.15	226.46	19.31	-52.6	-54.4	14.6	0.00e+00	0	28	0	376438784	71	4411
2026-01-15 11:34:45.14	227.19	19.66	-52.5	-54.3	14.6	0.00e+00	0	28	0	383778816	71	4351
2026-01-15 11:34:49.12	227.94	20.00	-52.5	-54.2	14.6	0.00e+00	0	28	0	391118848	71	4323
2026-01-15 11:34:53.10	228.70	20.34	-52.3	-54.0	14.7	0.00e+00	0	28	0	398458880	71	4226
2026-01-15 11:34:57.08	229.47	20.69	-52.1	-53.7	14.7	0.00e+00	0	28	0	405798912	70	4339
2026-01-15 11:35:01.05	230.27	21.03	-52.0	-53.6	14.8	0.00e+00	0	28	0	413138944	70	4266
2026-01-15 11:35:05.03	231.08	21.37	-51.8	-53.4	14.9	0.00e+00	0	28	0	421527552	70	4157
2026-01-15 11:35:09.03	231.91	21.71	-51.6	-53.1	14.8	0.00e+00	0	28	0	428867584	69	4277
2026-01-15 11:35:13.00	232.75	22.04	-51.9	-53.5	14.7	0.00e+00	0	28	0	436207616	69	4467
2026-01-15 11:35:16.98	233.62	22.38	-52.3	-54.0	14.5	0.00e+00	0	28	0	443547648	69	4737
2026-01-15 11:35:20.96	234.50	22.71	-52.4	-54.1	14.6	0.00e+00	0	28	0	450887680	70	4510
2026-01-15 11:35:24.94	235.40	23.04	-52.4	-54.2	14.6	0.00e+00	0	28	0	458227712	70	4551
2026-01-15 11:35:28.92	236.32	23.37	-52.5	-54.1	14.6	0.00e+00	0	28	0	465567744	70	4545
2026-01-15 11:35:32.90	237.26	23.70	-52.7	-54.4	14.5	0.00e+00	0	28	0	472907776	70	4683
2026-01-15 11:35:36.85	238.21	24.01	-52.7	-54.5	14.4	0.00e+00	0	28	0	480247808	70	4725
2026-01-15 11:35:40.82	239.19	24.33	-53.2	-55.0	14.3	0.00e+00	0	28	0	487587840	71	4750
2026-01-15 11:35:44.82	240.19	24.64	-53.1	-54.9	14.4	0.00e+00	0	28	0	495976448	71	4670
2026-01-15 11:35:48.79	241.20	24.94	-53.1	-54.9	14.4	0.00e+00	0	28	0	503316480	71	4687
2026-01-15 11:35:52.77	242.23	25.24	-53.5	-55.4	14.3	0.00e+00	0	28	0	510656512	72	4691
2026-01-15 11:35:56.77	243.29	25.54	-53.6	-55.6	14.2	0.00e+00	0	28	0	517996544	72	4804
2026-01-15 11:36:00.75	244.37	25.82	-54.2	-56.4	13.9	0.00e+00	0	28	0	525336576	73	4975
2026-01-15 11:36:04.73	245.46	26.10	-54.6	-56.8	13.8	0.00e+00	0	28	0	532676608	74	4917
2026-01-15 11:36:08.71	246.57	26.37	-54.8	-57.1	13.7	0.00e+00	0	28	0	540016640	74	5090
2026-01-15 11:36:12.69	247.69	26.63	-54.8	-57.2	13.6	0.00e+00	0	28	0	547356672	74	5138
2026-01-15 11:36:16.69	248.85	26.88	-55.1	-57.6	13.5	0.00e+00	0	28	0	555745280	75	5087
2026-01-15 11:36:20.66	250.01	27.12	-54.7	-57.1	13.8	0.00e+00	0	28	0	563085312	75	4794
2026-01-15 11:36:24.64	251.19	27.35	-54.7	-57.0	13.8	0.00e+00	0	28	0	570425344	75	4715
2026-01-15 11:36:28.61	252.38	27.57	-54.6	-56.8	13.9	0.00e+00	0	28	0	577765376	75	4633
2026-01-15 11:36:32.60	253.59	27.78	-54.7	-57.1	13.8	0.00e+00	0	28	0	585105408	75	4773
2026-01-15 11:36:36.59	254.82	27.98	-54.7	-57.1	13.8	0.00e+00	0	28	0	592445440	75	4774
2026-01-15 11:36:40.56	256.06	28.16	-55.6	-58.4	13.2	0.00e+00	0	28	0	599785472	76	5227
2026-01-15 11:36:44.54	257.32	28.33	-56.3	-59.4	12.7	0.00e+00	0	28	0	607125504	77	5560
2026-01-15 11:36:48.52	258.58	28.49	-55.6	-58.2	13.4	0.00e+00	0	28	0	615514112	77	4868
2026-01-15 11:36:52.51	259.87	28.63	-55.3	-57.8	13.6	0.00e+00	0	28	0	622854144	77	4639
2026-01-15 11:36:56.51	261.16	28.76	-55.5	-58.1	13.5	0.00e+00	0	28	0	630194176	77	4765
2026-01-15 11:37:00.48	262.46	28.87	-55.7	-58.4	13.3	0.00e+00	0	28	0	637534208	77	4981
2026-01-15 11:37:04.46	263.76	28.96	-55.7	-58.5	13.3	0.00e+00	0	28	0	644874240	77	5024
2026-01-15 11:37:08.43	265.07	29.04	-55.4	-58.0	13.5	0.00e+00	0	28	0	652214272	77	4755
2026-01-15 11:37:12.42	266.40	29.11	-55.2	-57.6	13.6	0.00e+00	0	28	0	659554304	76	4807
2026-01-15 11:37:16.41	267.72	29.16	-55.2	-57.7	13.6	0.00e+00	0	28	0	666894336	76	4822
2026-01-15 11:37:20.39	269.05	29.19	-54.5	-56.7	14.0	0.00e+00	0	28	0	675282944	75	4567
2026-01-15 11:37:24.36	270.38	29.21	-54.8	-57.2	13.7	0.00e+00	0	28	0	682622976	75	4855
2026-01-15 11:37:28.36	271.71	29.20	-55.3	-57.9	13.5	0.00e+00	0	28	0	689963008	76	4929
2026-01-15 11:37:32.34	273.04	29.19	-54.2	-56.3	14.2	0.00e+00	0	28	0	697303040	75	4388
2026-01-15 11:37:36.30	274.36	29.15	-54.3	-56.5	14.0	0.00e+00	0	28	0	704643072	74	4730
2026-01-15 11:37:40.30	275.69	29.10	-54.7	-57.0	13.8	0.00e+00	0	28	0	711983104	74	5041
2026-01-15 11:37:44.27	277.00	29.04	-54.7	-56.9	13.8	0.00e+00	0	28	0	719323136	74	4964
2026-01-15 11:37:48.25	278.32	28.96	-55.6	-58.3	13.3	0.00e+00	0	28	0	726663168	76	5183
2026-01-15 11:37:52.22	279.62	28.86	-55.0	-57.3	13.8	0.00e+00	0	28	0	734003200	76	4633
2026-01-15 11:37:56.20	280.91	28.75	-54.9	-57.3	13.7	0.00e+00	0	28	0	742391808	75	4911
2026-01-15 11:38:00.16	282.19	28.62	-56.5	-59.7	12.7	0.00e+00	0	28	0	749731840	78	5427
2026-01-15 11:38:04.14	283.47	28.48	-55.5	-58.1	13.5	0.00e+00	0	28	0	757071872	77	4794
2026-01-15 11:38:08.12	284.73	28.32	-55.3	-57.7	13.7	0.00e+00	0	28	0	764411904	77	4578
2026-01-15 11:38:12.11	285.99	28.15	-54.9	-57.2	13.9	0.00e+00	0	28	0	771751936	76	4553
2026-01-15 11:38:16.10	287.23	27.97	-55.1	-57.5	13.7	0.00e+00	0	28	0	779091968	76	4748
2026-01-15 11:38:20.07	288.45	27.77	-54.3	-56.4	14.2	0.00e+00	0	28	0	786432000	75	4419
2026-01-15 11:38:24.06	289.66	27.56	-53.4	-55.3	14.5	0.00e+00	0	28	0	793772032	73	4364
2026-01-15 11:38:28.04	290.85	27.34	-53.4	-55.2	14.5	0.00e+00	0	28	0	802160640	73	4330
2026-01-15 11:38:32.01	292.03	27.11	-53.7	-55.6	14.3	0.00e+00	0	28	0	809500672	73	4516
2026-01-15 11:38:35.99	293.19	26.87	-53.5	-55.3	14.5	0.00e+00	0	28	0	816840704	73	4379
2026-01-15 11:38:39.97	294.33	26.62	-53.6	-55.5	14.4	0.00e+00	0	28	0	824180736	73	4459
2026-01-15 11:38:43.96	295.45	26.36	-54.0	-56.1	14.1	0.00e+00	0	28	0	831520768	73	4775
2026-01-15 11:38:47.94	296.56	26.09	-54.1	-56.1	14.1	0.00e+00	0	28	0	838860800	73	4803
2026-01-15 11:38:51.91	297.64	25.82	-54.0	-56.0	14.1	0.00e+00	0	28	0	846200832	73	4759
2026-01-15 11:38:55.90	298.71	25.53	-53.4	-55.3	14.5	0.00e+00	0	28	0	853540864	73	4362
2026-01-15 11:38:59.90	299.77	25.24	-54.1	-56.1	14.1	0.00e+00	0	28	0	860880896	73	4813
2026-01-15 11:39:03.87	300.80	24.94	-54.2	-56.3	14.0	0.00e+00	0	28	0	869269504	73	4888
2026-01-15 11:39:07.86	301.81	24.64	-53.7	-55.6	14.3	0.00e+00	0	28	0	876609536	73	4514
2026-01-15 11:39:11.83	302.80	24.33	-53.3	-55.1	14.5	0.00e+00	0	28	0	883949568	73	4271
2026-01-15 11:39:15.82	303.77	24.02	-53.1	-54.8	14.6	0.00e+00	0	28	0	891289600	72	4380
2026-01-15 11:39:19.79	304.73	23.70	-53.8	-55.8	14.1	0.00e+00	0	28	0	898629632	72	4923
2026-01-15 11:39:23.77	305.66	23.38	-53.2	-55.0	14.5	0.00e+00	0	28	0	905969664	72	4442
2026-01-15 11:39:27.74	306.57	23.05	-53.6	-55.5	14.2	0.00e+00	0	28	0	913309696	72	4752
2026-01-15 11:39:31.73	307.47	22.72	-53.3	-55.1	14.4	0.00e+00	0	28	0	920649728	72	4535
2026-01-15 11:39:35.70	308.35	22.39	-54.3	-56.5	13.9	0.00e+00	0	28	0	927989760	73	5011
2026-01-15 11:39:39.68	309.21	22.06	-54.1	-56.1	14.2	0.00e+00	0	28	0	936378368	74	4540
2026-01-15 11:39:43.65	310.05	21.72	-54.8	-57.1	13.7	0.00e+00	0	28	0	943718400	74	5094
2026-01-15 11:39:47.64	310.88	21.38	-54.3	-56.5	14.1	0.00e+00	0	28	0	951058432	75	4461
2026-01-15 11:39:51.63	311.69	21.04	-54.3	-56.5	14.0	0.00e+00	0	28	0	958398464	74	4735
2026-01-15 11:39:55.61	312.48	20.71	-54.0	-56.1	14.2	0.00e+00	0	28	0	965738496	74	4502
2026-01-15 11:39:59.60	313.25	20.37	-53.7	-55.6	14.3	0.00e+00	0	28	0	973078528	73	4541
2026-01-15 11:40:03.59	314.01	20.02	-54.6	-57.0	13.7	0.00e+00	0	28	0	980418560	74	4999
2026-01-15 11:40:07.58	314.76	19.68	-53.8	-55.8	14.3	0.00e+00	0	28	0	988807168	74	4390
2026-01-15 11:40:11.56	315.48	19.34	-54.5	-56.7	13.9	0.00e+00	0	28	0	996147200	74	4851
2026-01-15 11:40:15.54	316.19	19.00	-54.3	-56.6	13.9	0.00e+00	0	28	0	1003487232	74	4765
2026-01-15 11:40:19.51	316.88	18.66	-53.8	-55.9	14.3	0.00e+00	0	28	0	1010827264	74	4394
2026-01-15 11:40:23.50	317.56	18.32	-53.9	-55.9	14.2	0.00e+00	0	28	0	1018167296	74	4431
2026-01-15 11:40:27.48	318.23	17.99	-53.5	-55.5	14.3	0.00e+00	0	28	0	1025507328	73	4442
2026-01-15 11:40:31.46	318.88	17.65	-53.8	-55.9	14.1	0.00e+00	0	28	0	1032847360	73	4686
2026-01-15 11:40:35.46	319.52	17.31	-53.8	-55.8	14.2	0.00e+00	0	28	0	1040187392	73	4628
2026-01-15 11:40:39.45	320.14	16.98	-53.4	-55.3	14.4	0.00e+00	0	28	0	1047527424	73	4377
2026-01-15 11:40:43.42	320.75	16.65	-53.5	-55.4	14.3	0.00e+00	0	28	0	1055916032	73	4423
2026-01-15 11:40:47.38	321.35	16.32	-53.4	-55.3	14.4	0.00e+00	0	28	0	1063256064	73	4373
2026-01-15 11:40:51.35	321.93	15.99	-53.3	-55.2	14.4	0.00e+00	0	28	0	1070596096	73	4330
2026-01-15 11:40:55.33	322.50	15.66	-53.1	-55.0	14.4	0.00e+00	0	28	0	1077936128	72	4475
2026-01-15 11:40:59.30	323.06	15.34	-53.4	-55.3	14.3	0.00e+00	0	28	0	1085276160	72	4626
2026-01-15 11:41:03.29	323.61	15.01	-53.7	-55.8	14.0	0.00e+00	0	28	0	1092616192	72	4916
2026-01-15 11:41:07.28	324.15	14.69	-53.7	-55.7	14.1	0.00e+00	0	28	0	1099956224	72	4862
2026-01-15 11:41:11.26	324.68	14.37	-53.7	-55.8	14.0	0.00e+00	0	28	0	1107296256	72	4893
2026-01-15 11:41:15.25	325.19	14.05	-53.7	-55.9	14.0	0.00e+00	0	28	0	1114636288	72	4927
2026-01-15 11:41:19.25	325.70	13.73	-53.7	-55.8	14.0	0.00e+00	0	28	0	1123024896	72	4873
2026-01-15 11:41:23.22	326.20	13.42	-53.8	-56.0	13.9	0.00e+00	0	28	0	1130364928	72	4999
2026-01-15 11:41:27.20	326.68	13.11	-54.2	-56.5	13.7	0.00e+00	0	28	0	1137704960	73	5016
2026-01-15 11:41:31.20	327.16	12.80	-54.7	-57.3	13.4	0.00e+00	0	28	0	1145044992	74	5166
2026-01-15 11:41:35.18	327.62	12.49	-54.8	-57.3	13.4	0.00e+00	0	28	0	1152385024	74	5197
2026-01-15 11:41:39.16	328.08	12.19	-54.8	-57.3	13.3	0.00e+00	0	28	0	1159725056	74	5209
2026-01-15 11:41:43.13	328.53	11.89	-54.8	-57.4	13.4	0.00e+00	0	28	0	1167065088	74	5266
2026-01-15 11:41:47.09	328.96	11.59	-54.8	-57.4	13.5	0.00e+00	0	28	0	1174405120	75	4950
2026-01-15 11:41:51.07	329.39	11.29	-54.8	-57.3	13.5	0.00e+00	0	28	0	1182793728	75	4920
2026-01-15 11:41:55.06	329.82	10.99	-54.6	-57.0	13.7	0.00e+00	0	28	0	1190133760	75	4737
2026-01-15 11:41:59.05	330.23	10.70	-54.7	-57.3	13.5	0.00e+00	0	28	0	1197473792	75	4881
2026-01-15 11:42:03.05	330.64	10.41	-54.9	-57.6	13.3	0.00e+00	0	28	0	1204813824	75	5043
2026-01-15 11:42:07.03	331.04	10.12	-54.8	-57.4	13.4	0.00e+00	0	28	0	1212153856	75	4970
2026-01-15 11:42:11.01	331.43	9.83	-54.6	-57.2	13.5	0.00e+00	0	28	0	1219493888	75	4825
2026-01-15 11:42:14.99	331.82	9.55	-54.4	-56.8	13.7	0.00e+00	0	28	0	1226833920	75	4641
2026-01-15 11:42:18.97	332.19	9.26	-54.0	-56.2	13.9	0.00e+00	0	28	0	1234173952	74	4583
2026-01-15 11:42:22.95	332.56	8.98	-54.1	-56.5	13.8	0.00e+00	0	28	0	1242562560	74	4712
2026-01-15 11:42:26.93	332.93	8.70	-54.6	-57.1	13.4	0.00e+00	0	28	0	1249902592	74	5100
2026-01-15 11:42:30.91	333.29	8.43	-54.7	-57.4	13.3	0.00e+00	0	28	0	1257242624	74	5247
2026-01-15 11:42:34.90	333.64	8.15	-54.7	-57.3	13.3	0.00e+00	0	28	0	1264582656	74	5212
2026-01-15 11:42:38.88	333.98	7.88	-54.5	-57.1	13.4	0.00e+00	0	28	0	1271922688	74	5091
2026-01-15 11:42:42.85	334.32	7.61	-54.4	-56.9	13.5	0.00e+00	0	28	0	1279262720	74	4962
2026-01-15 11:42:46.83	334.65	7.35	-54.5	-57.1	13.4	0.00e+00	0	28	0	1286602752	74	5078
2026-01-15 11:42:50.81	334.98	7.08	-54.7	-57.4	13.2	0.00e+00	0	28	0	1293942784	74	5261
2026-01-15 11:42:54.78	335.30	6.82	-55.0	-58.0	12.9	7.00e-07	0	28	0	1302331392	75	5307
2026-01-15 11:42:58.75	335.62	6.56	-55.3	-58.4	12.7	0.00e+00	0	28	0	1309671424	75	5546
2026-01-15 11:43:02.74	335.93	6.30	-54.5	-57.2	13.4	0.00e+00	0	28	0	1317011456	75	4822
2026-01-15 11:43:06.72	336.24	6.04	-54.8	-57.7	13.1	0.00e+00	0	28	0	1324351488	75	5108
2026-01-15 11:43:10.71	336.54	5.78	-54.4	-57.0	13.4	0.00e+00	0	28	0	1331691520	75	4742
2026-01-15 11:43:14.68	336.83	5.53	-54.5	-57.2	13.2	0.00e+00	0	28	0	1339031552	74	5127
2026-01-15 11:43:18.65	337.12	5.28	-54.6	-57.5	13.0	0.00e+00	0	28	0	1346371584	74	5305
2026-01-15 11:43:22.64	337.41	5.03	-54.8	-57.7	13.0	0.00e+00	0	28	0	1353711616	75	5130
2026-01-15 11:43:26.63	337.70	4.78	-59.9	-75.9	3.8	1.49e+00	0	28	104	1356857344	84	24914
2026-01-15 11:43:30.66	337.98	4.53	-60.4	-76.5	3.8	1.49e+00	0	28	104	1356857344	85	25038
2026-01-15 11:43:34.67	338.25	4.28	-60.6	-76.7	3.8	1.49e+00	0	28	104	1356857344	86	24322
2026-01-15 11:43:38.69	338.52	4.04	-60.7	-76.8	3.8	1.49e+00	0	28	104	1356857344	86	24534
2026-01-15 11:43:42.66	338.79	3.79	-60.8	-76.8	3.8	1.49e+00	0	28	104	1356857344	86	24689
2026-01-15 11:43:46.66	339.05	3.55	-60.6	-76.7	3.8	1.49e+00	0	29	104	1356857344	86	24371
2026-01-15 11:43:50.64	339.31	3.32	-60.6	-76.7	3.8	1.49e+00	0	28	104	1356857344	86	24196
2026-01-15 11:43:54.61	339.56	3.08	-60.5	-76.7	3.8	1.49e+00	0	28	104	1356857344	86	24132
2026-01-15 11:43:58.60	339.81	2.84	-60.5	-76.6	3.8	1.49e+00	0	28	104	1356857344	86	24091
2026-01-15 11:44:02.59	340.06	2.61	-60.5	-76.6	3.8	1.49e+00	0	28	104	1356857344	86	24049
2026-01-15 11:44:06.58	340.30	2.38	-60.4	-76.5	3.8	1.49e+00	0	29	104	1356857344	86	23813
2026-01-15 11:44:10.56	340.54	2.15	-60.4	-76.5	3.8	1.49e+00	0	28	104	1356857344	86	23762
2026-01-15 11:44:14.55	340.78	1.92	-60.4	-76.5	3.8	1.49e+00	0	28	104	1356857344	86	23705

#Closed at: 2026-01-15 11:44:14
#Recorded file [1356 MB]: D:/lorett/data/31004_260115_143042.dat