passes_logs/2026/01/15/R3.2S_Murmansk/R3.2S_Murmansk__20260115_063027_NOAA_20_JPSS-1_rec.log

#Pass ID: 20260115_063027_NOAA 20 (JPSS-1)
#Satellite: NOAA 20 (JPSS-1)
#Configuration: NOAA 20
#almurnet v.1.7.20251203
#Start time: 2026-01-15 06:30:28

#Version: 2.2.20231116
#Station: R3.2S_Murmansk
#Location: 33.079688 lon 68.888172 lat
#TLE: 1 43013U 17073A   26014.55467351  .00000038  00000+0  38801-4 0  9992
#TLE: 2 43013  98.7635 315.4987 0001517  39.9279 320.2008 14.19535859422677

#Time	Az	El	Level	Level2	SNR	BER	BlckErr	Temp	State	Recorded	gain1	gain2
2026-01-15 06:30:28.18	85.13	2.07	-58.1	-74.1	3.8	1.49e+00	0	26	0	0	82	22739
2026-01-15 06:30:32.17	84.90	2.30	-58.1	-74.1	3.8	1.49e+00	0	26	104	0	81	23952
2026-01-15 06:30:36.16	84.66	2.54	-58.1	-74.1	3.8	1.49e+00	0	26	104	0	81	23968
2026-01-15 06:30:40.14	84.43	2.77	-58.1	-74.1	3.9	1.49e+00	0	26	104	0	81	24003
2026-01-15 06:30:44.13	84.19	3.01	-58.1	-74.1	3.8	1.49e+00	0	27	104	0	81	24028
2026-01-15 06:30:48.10	83.94	3.25	-58.1	-74.1	3.8	1.49e+00	0	27	104	0	81	23982
2026-01-15 06:30:52.07	83.70	3.49	-58.1	-74.1	3.8	1.49e+00	0	27	104	0	81	24025
2026-01-15 06:30:56.04	83.44	3.73	-58.1	-74.0	3.8	1.49e+00	0	27	104	0	81	23767
2026-01-15 06:31:00.03	83.19	3.98	-58.1	-74.1	3.8	1.49e+00	0	27	104	0	81	23977
2026-01-15 06:31:04.01	82.92	4.22	-58.1	-73.0	3.8	1.49e+00	0	27	104	0	81	21047
2026-01-15 06:31:08.00	82.66	4.47	-57.9	-70.5	4.2	1.34e+00	0	27	0	0	81	15869
2026-01-15 06:31:11.99	82.39	4.72	-57.7	-67.9	5.3	4.90e-01	0	27	0	6291456	81	11731
2026-01-15 06:31:15.99	82.11	4.97	-57.5	-66.4	6.2	2.13e-01	0	27	0	13631488	81	9871
2026-01-15 06:31:19.98	81.83	5.22	-57.9	-69.8	4.4	5.45e-01	28	27	0	20971520	81	14641
2026-01-15 06:31:23.98	81.54	5.48	-56.1	-60.6	11.1	1.23e-04	0	27	0	26214400	78	6019
2026-01-15 06:31:27.98	81.24	5.74	-56.0	-60.1	11.5	1.52e-05	0	27	0	33554432	78	5699
2026-01-15 06:31:31.96	80.95	6.00	-55.9	-59.9	11.6	1.22e-05	0	27	0	40894464	78	5584
2026-01-15 06:31:35.95	80.64	6.26	-55.7	-59.4	12.0	2.20e-06	0	28	0	49283072	77	5553
2026-01-15 06:31:39.91	80.34	6.52	-55.3	-58.6	12.6	0.00e+00	0	27	0	56623104	77	5048
2026-01-15 06:31:43.89	80.02	6.78	-55.2	-58.4	12.7	0.00e+00	0	28	0	63963136	76	5238
2026-01-15 06:31:47.86	79.70	7.04	-55.1	-58.2	12.8	0.00e+00	0	27	0	71303168	76	5128
2026-01-15 06:31:51.87	79.37	7.31	-55.1	-58.2	12.8	0.00e+00	0	27	0	78643200	76	5133
2026-01-15 06:31:55.88	79.04	7.58	-55.0	-58.1	12.8	0.00e+00	0	28	0	85983232	76	5083
2026-01-15 06:31:59.88	78.70	7.86	-54.8	-57.8	13.1	0.00e+00	0	28	0	93323264	76	4896
2026-01-15 06:32:03.88	78.35	8.13	-54.8	-57.7	13.1	0.00e+00	0	28	0	101711872	76	4867
2026-01-15 06:32:07.88	78.00	8.41	-54.8	-57.7	13.1	0.00e+00	0	28	0	109051904	76	4851
2026-01-15 06:32:11.87	77.64	8.68	-54.9	-57.7	13.1	0.00e+00	0	28	0	116391936	76	4869
2026-01-15 06:32:15.87	77.27	8.96	-54.9	-57.8	13.1	0.00e+00	0	28	0	123731968	76	4893
2026-01-15 06:32:19.86	76.89	9.25	-54.6	-57.3	13.3	0.00e+00	0	27	0	131072000	75	4903
2026-01-15 06:32:23.86	76.51	9.53	-54.8	-57.6	13.1	0.00e+00	0	28	0	138412032	75	5095
2026-01-15 06:32:27.86	76.12	9.82	-54.6	-57.3	13.3	0.00e+00	0	28	0	145752064	75	4900
2026-01-15 06:32:31.86	75.72	10.10	-54.8	-57.6	13.1	0.00e+00	0	28	0	154140672	75	5079
2026-01-15 06:32:35.88	75.31	10.40	-54.7	-57.6	13.2	0.00e+00	0	28	0	161480704	75	5048
2026-01-15 06:32:39.90	74.89	10.69	-54.6	-57.4	13.3	0.00e+00	0	28	0	168820736	75	4934
2026-01-15 06:32:43.90	74.46	10.98	-54.5	-57.2	13.4	0.00e+00	0	27	0	176160768	75	4855
2026-01-15 06:32:47.88	74.03	11.28	-54.3	-56.9	13.6	0.00e+00	0	28	0	183500800	75	4652
2026-01-15 06:32:51.89	73.59	11.58	-54.2	-56.7	13.7	0.00e+00	0	28	0	190840832	75	4593
2026-01-15 06:32:55.88	73.14	11.87	-54.3	-56.8	13.6	0.00e+00	0	28	0	199229440	75	4649
2026-01-15 06:32:59.89	72.68	12.18	-54.3	-56.8	13.6	0.00e+00	0	28	0	206569472	75	4649
2026-01-15 06:33:03.89	72.20	12.48	-54.6	-57.2	13.4	0.00e+00	0	28	0	213909504	75	4849
2026-01-15 06:33:07.89	71.72	12.78	-54.3	-56.7	13.7	0.00e+00	0	28	0	221249536	75	4590
2026-01-15 06:33:11.88	71.23	13.09	-54.2	-56.6	13.8	0.00e+00	0	28	0	228589568	75	4525
2026-01-15 06:33:15.89	70.73	13.40	-54.1	-56.4	13.8	0.00e+00	0	28	0	235929600	74	4685
2026-01-15 06:33:19.87	70.22	13.71	-54.0	-56.3	13.8	0.00e+00	0	28	0	243269632	74	4651
2026-01-15 06:33:23.85	69.70	14.02	-53.9	-56.2	13.9	0.00e+00	0	28	0	251658240	74	4580
2026-01-15 06:33:27.84	69.16	14.33	-54.0	-56.3	13.9	0.00e+00	0	28	0	258998272	74	4610
2026-01-15 06:33:31.83	68.61	14.65	-53.8	-56.0	14.0	0.00e+00	0	28	0	266338304	74	4469
2026-01-15 06:33:35.82	68.06	14.96	-53.7	-56.0	13.9	0.00e+00	0	28	0	273678336	73	4711
2026-01-15 06:33:39.82	67.49	15.28	-53.8	-56.0	13.9	0.00e+00	0	28	0	281018368	73	4722
2026-01-15 06:33:43.82	66.90	15.60	-53.7	-55.9	14.0	0.00e+00	0	28	0	288358400	73	4688
2026-01-15 06:33:47.83	66.30	15.92	-53.7	-55.9	13.9	0.00e+00	0	28	0	295698432	73	4703
2026-01-15 06:33:51.82	65.69	16.24	-53.6	-55.8	14.1	0.00e+00	0	28	0	304087040	73	4601
2026-01-15 06:33:55.82	65.07	16.56	-53.6	-55.8	14.0	0.00e+00	0	28	0	311427072	73	4619
2026-01-15 06:33:59.82	64.43	16.88	-53.8	-56.0	13.9	0.00e+00	0	28	0	318767104	73	4724
2026-01-15 06:34:03.82	63.78	17.20	-53.9	-56.1	13.9	0.00e+00	0	28	0	326107136	73	4785
2026-01-15 06:34:07.82	63.12	17.53	-53.9	-56.1	13.9	0.00e+00	0	28	0	333447168	73	4811
2026-01-15 06:34:11.81	62.44	17.85	-53.9	-56.1	13.9	0.00e+00	0	28	0	340787200	73	4798
2026-01-15 06:34:15.80	61.75	18.17	-53.7	-55.9	14.0	0.00e+00	0	28	0	348127232	73	4687
2026-01-15 06:34:19.77	61.04	18.49	-53.8	-55.9	14.0	0.00e+00	0	28	0	356515840	73	4700
2026-01-15 06:34:23.77	60.32	18.81	-53.9	-56.2	13.9	0.00e+00	0	28	0	363855872	73	4819
2026-01-15 06:34:27.76	59.58	19.13	-54.0	-56.3	13.8	0.00e+00	0	28	0	371195904	73	4919
2026-01-15 06:34:31.75	58.82	19.45	-53.6	-55.8	14.1	0.00e+00	0	28	0	378535936	73	4603
2026-01-15 06:34:35.73	58.05	19.77	-53.5	-55.6	14.2	0.00e+00	0	28	0	385875968	73	4504
2026-01-15 06:34:39.72	57.27	20.09	-53.4	-55.4	14.3	0.00e+00	0	28	0	393216000	73	4434
2026-01-15 06:34:43.69	56.47	20.40	-53.3	-55.3	14.3	0.00e+00	0	28	0	400556032	73	4375
2026-01-15 06:34:47.68	55.64	20.71	-53.0	-55.0	14.3	0.00e+00	0	28	0	408944640	72	4448
2026-01-15 06:34:51.67	54.81	21.02	-52.8	-54.7	14.5	0.00e+00	0	28	0	416284672	72	4328
2026-01-15 06:34:55.66	53.95	21.33	-52.4	-54.2	14.6	0.00e+00	0	28	0	423624704	71	4320
2026-01-15 06:34:59.65	53.08	21.64	-52.1	-53.8	14.6	0.00e+00	0	28	0	430964736	70	4382
2026-01-15 06:35:03.64	52.19	21.94	-52.1	-53.9	14.6	0.00e+00	0	28	0	438304768	70	4393
2026-01-15 06:35:07.63	51.28	22.23	-52.2	-53.9	14.6	0.00e+00	0	28	0	445644800	70	4402
2026-01-15 06:35:11.60	50.36	22.52	-52.2	-53.9	14.6	0.00e+00	0	28	0	452984832	70	4441
2026-01-15 06:35:15.58	49.43	22.81	-52.2	-53.9	14.6	0.00e+00	0	28	0	460324864	70	4401
2026-01-15 06:35:19.54	48.47	23.09	-52.1	-53.8	14.6	0.00e+00	0	28	0	467664896	70	4375
2026-01-15 06:35:23.51	47.50	23.36	-52.1	-53.7	14.7	0.00e+00	0	28	0	476053504	70	4339
2026-01-15 06:35:27.50	46.51	23.63	-52.4	-54.1	14.5	0.00e+00	0	28	0	483393536	70	4527
2026-01-15 06:35:31.47	45.50	23.90	-52.4	-54.2	14.5	0.00e+00	0	28	0	490733568	70	4567
2026-01-15 06:35:35.47	44.47	24.15	-52.5	-54.3	14.5	0.00e+00	0	28	0	498073600	70	4602
2026-01-15 06:35:39.47	43.43	24.40	-52.2	-53.9	14.6	0.00e+00	0	28	0	505413632	70	4399
2026-01-15 06:35:43.47	42.36	24.64	-52.1	-53.8	14.7	0.00e+00	0	28	0	512753664	70	4356
2026-01-15 06:35:47.45	41.29	24.87	-52.1	-53.8	14.6	0.00e+00	0	28	0	520093696	70	4374
2026-01-15 06:35:51.45	40.19	25.09	-51.9	-53.5	14.8	0.00e+00	0	28	0	528482304	70	4215
2026-01-15 06:35:55.44	39.08	25.30	-51.8	-53.4	14.8	0.00e+00	0	28	0	535822336	70	4190
2026-01-15 06:35:59.43	37.96	25.51	-52.1	-53.8	14.6	0.00e+00	0	28	0	543162368	70	4378
2026-01-15 06:36:03.42	36.83	25.70	-52.4	-54.1	14.5	0.00e+00	0	28	0	550502400	70	4528
2026-01-15 06:36:07.41	35.68	25.88	-52.7	-54.5	14.4	0.00e+00	0	28	0	557842432	70	4718
2026-01-15 06:36:11.41	34.51	26.04	-53.2	-55.2	14.1	0.00e+00	0	28	0	565182464	71	4840
2026-01-15 06:36:15.39	33.34	26.20	-53.1	-55.0	14.3	0.00e+00	0	28	0	572522496	71	4734
2026-01-15 06:36:19.38	32.15	26.34	-53.3	-55.3	14.2	0.00e+00	0	28	0	579862528	71	4880
2026-01-15 06:36:23.38	30.95	26.47	-53.6	-55.7	14.0	0.00e+00	0	28	0	588251136	72	4837
2026-01-15 06:36:27.37	29.75	26.59	-53.5	-55.5	14.1	0.00e+00	0	28	0	595591168	72	4759
2026-01-15 06:36:31.35	28.54	26.69	-53.5	-55.5	14.1	0.00e+00	0	28	0	602931200	72	4738
2026-01-15 06:36:35.34	27.32	26.78	-53.9	-56.1	14.0	0.00e+00	0	28	0	610271232	73	4786
2026-01-15 06:36:39.35	26.08	26.85	-54.0	-56.1	14.0	0.00e+00	0	28	0	617611264	73	4808
2026-01-15 06:36:43.35	24.85	26.91	-53.9	-56.1	14.0	0.00e+00	0	28	0	624951296	73	4765
2026-01-15 06:36:47.36	23.60	26.96	-54.1	-56.3	13.9	0.00e+00	0	28	0	632291328	73	4902
2026-01-15 06:36:51.34	22.37	26.99	-53.7	-55.8	14.1	0.00e+00	0	28	0	640679936	73	4629
2026-01-15 06:36:55.33	21.13	27.01	-53.3	-55.3	14.4	0.00e+00	0	28	0	648019968	73	4358
2026-01-15 06:36:59.33	19.88	27.01	-53.2	-55.1	14.5	0.00e+00	0	28	0	655360000	73	4270
2026-01-15 06:37:03.33	18.64	26.99	-52.8	-54.6	14.6	0.00e+00	0	28	0	662700032	72	4279
2026-01-15 06:37:07.33	17.39	26.97	-52.9	-54.8	14.5	0.00e+00	0	28	0	670040064	72	4355
2026-01-15 06:37:11.32	16.16	26.92	-52.9	-54.7	14.5	0.00e+00	0	28	0	677380096	72	4335
2026-01-15 06:37:15.30	14.93	26.86	-52.6	-54.4	14.5	0.00e+00	0	28	0	684720128	71	4394
2026-01-15 06:37:19.29	13.70	26.79	-52.2	-53.9	14.7	0.00e+00	0	28	0	693108736	71	4163
2026-01-15 06:37:23.29	12.48	26.70	-52.1	-53.8	14.7	0.00e+00	0	28	0	700448768	70	4361
2026-01-15 06:37:27.28	11.26	26.60	-52.2	-53.8	14.6	0.00e+00	0	28	0	707788800	70	4390
2026-01-15 06:37:31.26	10.06	26.49	-52.4	-54.1	14.5	0.00e+00	0	28	0	715128832	70	4544
2026-01-15 06:37:35.25	8.86	26.36	-52.3	-54.0	14.6	0.00e+00	0	28	0	722468864	70	4463
2026-01-15 06:37:39.25	7.67	26.22	-52.5	-54.3	14.5	0.00e+00	0	28	0	729808896	70	4627
2026-01-15 06:37:43.27	6.49	26.06	-52.7	-54.5	14.4	0.00e+00	0	28	0	737148928	70	4745
2026-01-15 06:37:47.27	5.32	25.90	-52.9	-54.8	14.4	0.00e+00	0	28	0	745537536	71	4603
2026-01-15 06:37:51.27	4.17	25.72	-53.2	-55.0	14.3	0.00e+00	0	28	0	752877568	71	4759
2026-01-15 06:37:55.25	3.04	25.53	-53.5	-55.6	14.1	0.00e+00	0	28	0	760217600	72	4771
2026-01-15 06:37:59.25	1.91	25.33	-53.7	-55.8	14.0	0.00e+00	0	28	0	767557632	72	4904
2026-01-15 06:38:03.27	0.79	25.12	-53.6	-55.6	14.1	0.00e+00	0	28	0	774897664	72	4790
2026-01-15 06:38:07.29	359.69	24.90	-53.8	-55.9	14.0	0.00e+00	0	28	0	782237696	72	4966
2026-01-15 06:38:11.29	358.61	24.67	-53.8	-55.9	14.0	0.00e+00	0	28	0	790626304	72	4959
2026-01-15 06:38:15.29	357.55	24.43	-53.7	-55.7	14.1	0.00e+00	0	28	0	797966336	72	4846
2026-01-15 06:38:19.27	356.51	24.18	-53.8	-55.9	13.9	0.00e+00	0	28	0	805306368	72	4980
2026-01-15 06:38:23.25	355.48	23.93	-53.6	-55.6	14.1	0.00e+00	0	28	0	812646400	72	4800
2026-01-15 06:38:27.23	354.47	23.67	-53.6	-55.7	14.1	0.00e+00	0	28	0	819986432	72	4847
2026-01-15 06:38:31.21	353.48	23.40	-53.4	-55.4	14.2	0.00e+00	0	28	0	827326464	72	4660
2026-01-15 06:38:35.22	352.50	23.12	-53.1	-54.9	14.4	0.00e+00	0	28	0	834666496	72	4441
2026-01-15 06:38:39.24	351.53	22.84	-52.8	-54.6	14.5	0.00e+00	0	28	0	843055104	72	4262
2026-01-15 06:38:43.23	350.59	22.55	-52.6	-54.4	14.5	0.00e+00	0	28	0	850395136	71	4420
2026-01-15 06:38:47.23	349.66	22.26	-52.5	-54.2	14.6	0.00e+00	0	28	0	857735168	71	4323
2026-01-15 06:38:51.22	348.76	21.97	-52.5	-54.2	14.6	0.00e+00	0	28	0	865075200	71	4307
2026-01-15 06:38:55.22	347.87	21.67	-52.6	-54.4	14.5	0.00e+00	0	28	0	872415232	71	4411
2026-01-15 06:38:59.22	346.99	21.36	-52.5	-54.2	14.6	0.00e+00	0	28	0	879755264	71	4334
2026-01-15 06:39:03.21	346.14	21.06	-52.3	-54.0	14.6	0.00e+00	0	28	0	887095296	70	4446
2026-01-15 06:39:07.21	345.30	20.75	-52.0	-53.6	14.7	0.00e+00	0	28	0	895483904	70	4284
2026-01-15 06:39:11.20	344.48	20.43	-51.8	-53.4	14.8	0.00e+00	0	28	0	902823936	70	4155
2026-01-15 06:39:15.21	343.67	20.12	-51.7	-53.3	14.7	0.00e+00	0	28	0	910163968	69	4353
2026-01-15 06:39:19.21	342.88	19.80	-51.5	-53.0	14.8	0.00e+00	0	28	0	917504000	69	4225
2026-01-15 06:39:23.20	342.11	19.48	-51.5	-53.0	14.8	0.00e+00	0	28	0	924844032	69	4223
2026-01-15 06:39:27.19	341.36	19.16	-51.4	-52.9	14.9	0.00e+00	0	28	0	932184064	69	4184
2026-01-15 06:39:31.17	340.62	18.84	-51.3	-52.8	14.9	0.00e+00	0	28	0	939524096	69	4145
2026-01-15 06:39:35.16	339.90	18.52	-51.4	-53.0	14.9	0.00e+00	0	28	0	947912704	69	4204
2026-01-15 06:39:39.15	339.19	18.20	-51.5	-53.0	14.8	0.00e+00	0	28	0	955252736	69	4225
2026-01-15 06:39:43.14	338.50	17.88	-51.6	-53.2	14.8	0.00e+00	0	28	0	962592768	69	4292
2026-01-15 06:39:47.14	337.82	17.56	-51.9	-53.6	14.6	0.00e+00	0	28	0	969932800	69	4506
2026-01-15 06:39:51.13	337.15	17.24	-51.9	-53.6	14.6	0.00e+00	0	28	0	977272832	69	4520
2026-01-15 06:39:55.13	336.50	16.91	-52.2	-54.0	14.5	0.00e+00	0	28	0	984612864	69	4711
2026-01-15 06:39:59.12	335.87	16.59	-52.6	-54.4	14.4	0.00e+00	0	28	0	991952896	70	4693
2026-01-15 06:40:03.12	335.25	16.27	-52.6	-54.4	14.4	0.00e+00	0	28	0	999292928	70	4704
2026-01-15 06:40:07.11	334.64	15.95	-52.7	-54.5	14.3	0.00e+00	0	28	0	1007681536	70	4747
2026-01-15 06:40:11.12	334.04	15.63	-52.7	-54.6	14.3	0.00e+00	0	28	0	1015021568	70	4788
2026-01-15 06:40:15.10	333.46	15.32	-52.7	-54.6	14.3	7.00e-07	0	28	0	1022361600	70	4798
2026-01-15 06:40:19.09	332.89	15.00	-52.8	-54.7	14.2	0.00e+00	0	28	0	1029701632	70	4865
2026-01-15 06:40:23.09	332.33	14.69	-53.0	-55.0	14.2	0.00e+00	0	28	0	1037041664	71	4721
2026-01-15 06:40:27.06	331.79	14.37	-53.2	-55.2	14.1	0.00e+00	0	28	0	1044381696	71	4832
2026-01-15 06:40:31.03	331.26	14.06	-53.2	-55.2	14.1	0.00e+00	0	28	0	1051721728	71	4838
2026-01-15 06:40:35.04	330.73	13.75	-53.3	-55.3	14.1	0.00e+00	0	28	0	1060110336	71	4917
2026-01-15 06:40:39.03	330.22	13.44	-53.2	-55.3	14.1	0.00e+00	0	28	0	1067450368	71	4887
2026-01-15 06:40:43.02	329.72	13.13	-53.4	-55.5	14.1	0.00e+00	0	28	0	1074790400	72	4722
2026-01-15 06:40:47.01	329.23	12.83	-53.6	-55.8	13.9	0.00e+00	0	28	0	1082130432	72	4882
2026-01-15 06:40:51.01	328.75	12.52	-53.7	-56.0	13.8	0.00e+00	0	28	0	1089470464	72	5009
2026-01-15 06:40:55.00	328.28	12.22	-54.0	-56.3	13.8	0.00e+00	0	28	0	1096810496	73	4896
2026-01-15 06:40:59.00	327.82	11.92	-54.1	-56.5	13.6	0.00e+00	0	28	0	1104150528	73	5041
2026-01-15 06:41:03.00	327.37	11.62	-54.2	-56.7	13.6	0.00e+00	0	28	0	1112539136	73	5106
2026-01-15 06:41:07.02	326.92	11.32	-54.2	-56.7	13.5	0.00e+00	0	28	0	1119879168	73	5110
2026-01-15 06:41:11.00	326.49	11.03	-54.2	-56.6	13.6	0.00e+00	0	28	0	1127219200	73	5067
2026-01-15 06:41:15.00	326.07	10.74	-54.3	-56.8	13.5	0.00e+00	0	28	0	1134559232	73	5204
2026-01-15 06:41:18.97	325.66	10.45	-54.2	-56.7	13.5	0.00e+00	0	28	0	1141899264	73	5104
2026-01-15 06:41:22.95	325.25	10.16	-54.3	-56.9	13.4	0.00e+00	0	28	0	1149239296	73	5229
2026-01-15 06:41:26.94	324.85	9.87	-54.5	-57.1	13.4	0.00e+00	0	28	0	1156579328	74	5063
2026-01-15 06:41:30.91	324.47	9.59	-54.5	-57.1	13.4	0.00e+00	0	28	0	1163919360	74	5074
2026-01-15 06:41:34.91	324.08	9.30	-54.6	-57.3	13.3	0.00e+00	0	28	0	1172307968	74	5175
2026-01-15 06:41:38.89	323.71	9.02	-54.8	-57.7	13.0	0.00e+00	0	28	0	1179648000	74	5430
2026-01-15 06:41:42.87	323.34	8.75	-55.0	-57.9	12.9	0.00e+00	0	28	0	1186988032	75	5248
2026-01-15 06:41:46.86	322.98	8.47	-55.1	-58.2	12.8	0.00e+00	0	28	0	1194328064	75	5429
2026-01-15 06:41:50.87	322.63	8.19	-55.1	-58.2	12.8	0.00e+00	0	28	0	1201668096	75	5406
2026-01-15 06:41:54.84	322.28	7.92	-55.0	-57.9	12.9	0.00e+00	0	28	0	1209008128	75	5274
2026-01-15 06:41:58.82	321.95	7.65	-54.8	-57.7	13.1	0.00e+00	0	28	0	1216348160	75	5101
2026-01-15 06:42:02.79	321.61	7.38	-54.8	-57.7	13.1	0.00e+00	0	28	0	1224736768	75	5106
2026-01-15 06:42:06.78	321.29	7.11	-54.8	-57.8	13.0	0.00e+00	0	28	0	1232076800	75	5168
2026-01-15 06:42:10.77	320.97	6.85	-55.1	-58.2	12.7	0.00e+00	0	28	0	1239416832	75	5436
2026-01-15 06:42:14.77	320.65	6.58	-55.1	-58.3	12.6	0.00e+00	0	28	0	1246756864	75	5527
2026-01-15 06:42:18.77	320.34	6.32	-55.0	-58.1	12.7	0.00e+00	0	28	0	1254096896	75	5375
2026-01-15 06:42:22.78	320.04	6.06	-55.4	-58.9	12.3	0.00e+00	0	28	0	1261436928	75	5856
2026-01-15 06:42:26.79	319.74	5.80	-55.4	-58.9	12.3	0.00e+00	0	28	0	1268776960	76	5538
2026-01-15 06:42:30.79	319.45	5.54	-55.6	-59.1	12.2	1.50e-06	0	28	0	1277165568	76	5707
2026-01-15 06:42:34.80	319.16	5.29	-55.6	-59.3	12.0	0.00e+00	0	28	0	1284505600	76	5807
2026-01-15 06:42:38.81	318.88	5.03	-55.9	-59.8	11.7	9.90e-06	0	28	0	1291845632	77	5843
2026-01-15 06:42:42.82	318.60	4.78	-59.7	-75.7	3.8	1.49e+00	0	28	104	1293942784	84	24227
2026-01-15 06:42:46.83	318.33	4.53	-60.3	-76.3	3.8	1.49e+00	0	28	104	1293942784	85	24620
2026-01-15 06:42:50.83	318.06	4.28	-60.6	-76.6	3.8	1.49e+00	0	28	104	1293942784	86	24042
2026-01-15 06:42:54.84	317.80	4.03	-60.7	-76.8	3.8	1.49e+00	0	28	104	1293942784	86	24507
2026-01-15 06:42:58.86	317.54	3.79	-60.7	-76.8	3.8	1.49e+00	0	28	104	1293942784	86	24463
2026-01-15 06:43:02.85	317.29	3.54	-60.6	-76.6	3.8	1.49e+00	0	28	104	1293942784	86	24092
2026-01-15 06:43:06.86	317.04	3.30	-60.5	-76.5	3.8	1.49e+00	0	28	104	1293942784	86	23832
2026-01-15 06:43:10.88	316.79	3.06	-60.5	-76.6	3.8	1.49e+00	0	28	104	1293942784	86	23917
2026-01-15 06:43:14.89	316.55	2.82	-60.4	-76.5	3.8	1.49e+00	0	28	104	1293942784	86	23686
2026-01-15 06:43:18.88	316.31	2.58	-60.4	-76.5	3.8	1.49e+00	0	28	104	1293942784	86	23595
2026-01-15 06:43:22.88	316.08	2.35	-60.3	-76.4	3.8	1.49e+00	0	28	104	1293942784	86	23512
2026-01-15 06:43:26.90	315.85	2.11	-60.3	-76.4	3.8	1.49e+00	0	28	104	1293942784	86	23546

#Closed at: 2026-01-15 06:43:30
#Recorded file [1293 MB]: D:/lorett/data/31004_260115_093028.dat