passes_logs/2026/01/15/R3.2S_Murmansk/R3.2S_Murmansk__20260115_094911_NOAA_20_JPSS-1_rec.log

#Pass ID: 20260115_094911_NOAA 20 (JPSS-1)
#Satellite: NOAA 20 (JPSS-1)
#Configuration: NOAA 20
#almurnet v.1.7.20251203
#Start time: 2026-01-15 09:49:14

#Version: 2.2.20231116
#Station: R3.2S_Murmansk
#Location: 33.079688 lon 68.888172 lat
#TLE: 1 43013U 17073A   26014.55467351  .00000038  00000+0  38801-4 0  9992
#TLE: 2 43013  98.7635 315.4987 0001517  39.9279 320.2008 14.19535859422677

#Time	Az	El	Level	Level2	SNR	BER	BlckErr	Temp	State	Recorded	gain1	gain2
2026-01-15 09:49:14.32	158.82	2.15	-58.5	-74.5	3.8	1.49e+00	0	26	0	0	82	23708
2026-01-15 09:49:18.36	158.87	2.41	-58.5	-74.4	3.8	1.49e+00	0	26	104	0	82	23576
2026-01-15 09:49:22.40	158.91	2.68	-58.4	-74.3	3.8	1.49e+00	0	26	104	0	82	23262
2026-01-15 09:49:26.43	158.96	2.94	-58.5	-74.3	3.8	1.49e+00	0	26	104	0	82	23203
2026-01-15 09:49:30.46	159.00	3.21	-58.5	-74.4	3.8	1.49e+00	0	26	104	0	82	23532
2026-01-15 09:49:34.50	159.05	3.48	-58.4	-73.7	3.8	1.49e+00	0	27	104	0	82	21591
2026-01-15 09:49:38.54	159.10	3.76	-58.3	-70.6	4.3	1.33e+00	19	27	0	0	82	15163
2026-01-15 09:49:42.57	159.15	4.03	-58.0	-68.0	5.4	4.74e-01	0	27	0	6291456	82	11203
2026-01-15 09:49:46.61	159.19	4.31	-57.5	-64.9	7.7	7.27e-02	0	27	0	13631488	81	8275
2026-01-15 09:49:50.64	159.24	4.60	-56.6	-61.7	10.3	1.11e-03	0	27	0	20971520	79	6473
2026-01-15 09:49:54.67	159.29	4.88	-55.9	-60.0	11.6	1.44e-05	0	27	0	29360128	78	5615
2026-01-15 09:49:58.70	159.35	5.17	-57.1	-62.6	9.7	1.05e-03	0	27	0	36700160	79	7203
2026-01-15 09:50:02.72	159.40	5.46	-55.8	-59.6	11.9	1.44e-05	0	27	0	44040192	78	5395
2026-01-15 09:50:06.75	159.45	5.75	-55.7	-59.5	12.0	3.00e-06	0	27	0	51380224	77	5612
2026-01-15 09:50:10.78	159.50	6.05	-55.8	-59.6	12.0	1.50e-06	0	27	0	59768832	77	5662
2026-01-15 09:50:14.79	159.56	6.35	-55.6	-59.2	12.2	0.00e+00	0	27	0	67108864	77	5440
2026-01-15 09:50:18.83	159.61	6.66	-55.4	-58.7	12.6	0.00e+00	0	27	0	74448896	77	5137
2026-01-15 09:50:22.86	159.67	6.97	-55.3	-58.5	12.7	0.00e+00	0	27	0	81788928	77	5029
2026-01-15 09:50:26.89	159.72	7.28	-55.2	-58.3	12.9	0.00e+00	0	27	0	89128960	77	4872
2026-01-15 09:50:30.92	159.78	7.59	-55.1	-58.1	13.0	0.00e+00	0	27	0	96468992	76	5048
2026-01-15 09:50:34.95	159.84	7.91	-54.9	-57.8	13.2	0.00e+00	0	27	0	104857600	76	4890
2026-01-15 09:50:38.98	159.90	8.24	-54.8	-57.7	13.2	0.00e+00	0	27	0	112197632	76	4825
2026-01-15 09:50:43.01	159.96	8.57	-54.9	-57.7	13.2	0.00e+00	0	27	0	119537664	76	4867
2026-01-15 09:50:47.03	160.02	8.90	-54.9	-57.7	13.2	0.00e+00	0	27	0	126877696	76	4866
2026-01-15 09:50:51.07	160.09	9.24	-54.9	-57.6	13.3	0.00e+00	0	27	0	134217728	76	4814
2026-01-15 09:50:55.09	160.15	9.58	-54.5	-57.1	13.5	0.00e+00	0	28	0	142606336	75	4780
2026-01-15 09:50:59.13	160.21	9.92	-54.3	-56.9	13.6	0.00e+00	0	28	0	149946368	75	4656
2026-01-15 09:51:03.15	160.28	10.28	-54.3	-56.8	13.7	0.00e+00	0	27	0	157286400	75	4651
2026-01-15 09:51:07.18	160.35	10.63	-54.4	-56.9	13.6	0.00e+00	0	27	0	164626432	75	4665
2026-01-15 09:51:11.22	160.42	10.99	-54.1	-56.5	13.8	0.00e+00	0	27	0	173015040	74	4729
2026-01-15 09:51:15.25	160.49	11.36	-54.1	-56.4	13.8	0.00e+00	0	27	0	180355072	74	4701
2026-01-15 09:51:19.28	160.56	11.73	-54.0	-56.2	13.9	0.00e+00	0	27	0	187695104	74	4597
2026-01-15 09:51:23.32	160.63	12.11	-53.9	-56.1	14.0	0.00e+00	0	28	0	195035136	74	4528
2026-01-15 09:51:27.35	160.71	12.50	-53.8	-56.1	14.0	0.00e+00	0	28	0	202375168	74	4505
2026-01-15 09:51:31.38	160.79	12.89	-53.7	-55.9	14.1	0.00e+00	0	28	0	210763776	74	4411
2026-01-15 09:51:35.41	160.86	13.29	-53.6	-55.8	14.1	0.00e+00	0	28	0	218103808	73	4620
2026-01-15 09:51:39.45	160.94	13.69	-53.4	-55.5	14.2	0.00e+00	0	28	0	225443840	73	4462
2026-01-15 09:51:43.47	161.03	14.10	-53.5	-55.6	14.2	0.00e+00	0	28	0	232783872	73	4496
2026-01-15 09:51:47.50	161.11	14.52	-53.3	-55.3	14.3	0.00e+00	0	28	0	240123904	73	4380
2026-01-15 09:51:51.53	161.19	14.94	-53.3	-55.3	14.3	0.00e+00	0	28	0	248512512	73	4376
2026-01-15 09:51:55.57	161.28	15.37	-53.2	-55.2	14.3	0.00e+00	0	28	0	255852544	72	4549
2026-01-15 09:51:59.60	161.37	15.81	-53.1	-55.1	14.3	0.00e+00	0	27	0	263192576	72	4530
2026-01-15 09:52:03.62	161.46	16.26	-53.2	-55.1	14.3	0.00e+00	0	28	0	270532608	72	4530
2026-01-15 09:52:07.66	161.56	16.72	-53.1	-55.1	14.3	0.00e+00	0	28	0	277872640	72	4517
2026-01-15 09:52:11.69	161.66	17.18	-53.3	-55.3	14.2	0.00e+00	0	27	0	286261248	72	4640
2026-01-15 09:52:15.72	161.76	17.66	-53.4	-55.4	14.1	0.00e+00	0	28	0	293601280	72	4698
2026-01-15 09:52:19.76	161.86	18.14	-53.4	-55.4	14.2	0.00e+00	0	28	0	300941312	72	4691
2026-01-15 09:52:23.79	161.96	18.63	-53.5	-55.5	14.1	0.00e+00	0	28	0	308281344	72	4746
2026-01-15 09:52:27.83	162.07	19.14	-53.4	-55.4	14.2	0.00e+00	0	28	0	316669952	72	4665
2026-01-15 09:52:31.86	162.18	19.65	-53.4	-55.5	14.2	0.00e+00	0	28	0	324009984	72	4715
2026-01-15 09:52:35.90	162.30	20.17	-53.5	-55.5	14.1	0.00e+00	0	28	0	331350016	72	4756
2026-01-15 09:52:39.93	162.42	20.71	-53.7	-55.8	14.0	0.00e+00	0	28	0	338690048	72	4907
2026-01-15 09:52:43.96	162.54	21.26	-53.6	-55.6	14.1	0.00e+00	0	28	0	346030080	72	4813
2026-01-15 09:52:47.98	162.66	21.81	-53.6	-55.7	14.0	0.00e+00	0	28	0	354418688	72	4856
2026-01-15 09:52:52.01	162.79	22.38	-53.7	-55.8	14.0	0.00e+00	0	28	0	361758720	72	4902
2026-01-15 09:52:56.05	162.93	22.97	-53.8	-55.9	14.0	0.00e+00	0	28	0	369098752	72	4960
2026-01-15 09:53:00.07	163.07	23.56	-53.8	-55.8	14.0	0.00e+00	0	28	0	376438784	72	4924
2026-01-15 09:53:04.11	163.21	24.18	-53.6	-55.6	14.1	0.00e+00	0	28	0	383778816	72	4810
2026-01-15 09:53:08.14	163.36	24.80	-53.8	-55.9	14.0	0.00e+00	0	28	0	392167424	72	4978
2026-01-15 09:53:12.17	163.51	25.44	-53.9	-56.0	14.0	0.00e+00	0	28	0	399507456	73	4738
2026-01-15 09:53:16.20	163.67	26.10	-54.0	-56.2	13.9	0.00e+00	0	28	0	406847488	73	4852
2026-01-15 09:53:20.23	163.84	26.77	-54.0	-56.1	14.0	0.00e+00	0	28	0	414187520	73	4792
2026-01-15 09:53:24.26	164.01	27.46	-54.3	-56.5	13.8	0.00e+00	0	28	0	421527552	73	5032
2026-01-15 09:53:28.29	164.19	28.17	-54.5	-56.8	13.8	0.00e+00	0	28	0	429916160	74	4885
2026-01-15 09:53:32.31	164.38	28.89	-54.8	-57.2	13.5	0.00e+00	0	28	0	437256192	74	5144
2026-01-15 09:53:36.33	164.57	29.63	-54.9	-57.4	13.6	0.00e+00	0	28	0	444596224	75	4946
2026-01-15 09:53:40.36	164.78	30.39	-55.1	-57.7	13.4	0.00e+00	0	28	0	451936256	75	5112
2026-01-15 09:53:44.39	164.99	31.18	-55.2	-57.9	13.3	0.00e+00	0	28	0	459276288	75	5234
2026-01-15 09:53:48.41	165.21	31.98	-55.4	-58.1	13.3	0.00e+00	0	28	0	467664896	76	5074
2026-01-15 09:53:52.44	165.44	32.81	-55.1	-57.7	13.6	0.00e+00	0	28	0	475004928	76	4828
2026-01-15 09:53:56.47	165.69	33.66	-54.8	-57.1	13.8	0.00e+00	0	28	0	482344960	76	4543
2026-01-15 09:54:00.50	165.95	34.53	-54.0	-56.1	14.1	0.00e+00	0	28	0	489684992	74	4501
2026-01-15 09:54:04.53	166.22	35.43	-53.4	-55.3	14.4	0.00e+00	0	28	0	498073600	73	4373
2026-01-15 09:54:08.56	166.50	36.35	-52.9	-54.7	14.6	0.00e+00	0	28	0	505413632	72	4318
2026-01-15 09:54:12.59	166.80	37.30	-52.9	-54.7	14.6	0.00e+00	0	28	0	512753664	72	4320
2026-01-15 09:54:16.62	167.12	38.28	-53.1	-54.9	14.5	0.00e+00	0	28	0	520093696	72	4407
2026-01-15 09:54:20.64	167.46	39.28	-53.5	-55.4	14.3	0.00e+00	0	28	0	527433728	72	4680
2026-01-15 09:54:24.68	167.82	40.31	-53.7	-55.7	14.1	0.00e+00	0	28	0	535822336	72	4863
2026-01-15 09:54:28.70	168.20	41.37	-54.1	-56.3	14.0	0.00e+00	0	28	0	543162368	73	4877
2026-01-15 09:54:32.73	168.61	42.47	-53.9	-55.9	14.2	0.00e+00	0	28	0	550502400	73	4679
2026-01-15 09:54:36.76	169.04	43.59	-53.5	-55.4	14.4	0.00e+00	0	28	0	557842432	73	4416
2026-01-15 09:54:40.79	169.50	44.75	-53.9	-56.0	14.1	0.00e+00	0	28	0	565182464	73	4731
2026-01-15 09:54:44.82	170.00	45.94	-55.1	-57.6	13.5	0.00e+00	0	28	0	573571072	75	5059
2026-01-15 09:54:48.85	170.54	47.16	-55.0	-57.4	13.6	0.00e+00	0	28	0	580911104	75	4978
2026-01-15 09:54:52.88	171.12	48.42	-54.5	-56.7	13.9	0.00e+00	0	28	0	588251136	75	4578
2026-01-15 09:54:56.92	171.75	49.71	-53.9	-55.9	14.3	0.00e+00	0	28	0	595591168	74	4403
2026-01-15 09:55:00.95	172.44	51.04	-52.6	-54.2	14.6	0.00e+00	0	28	0	602931200	71	4339
2026-01-15 09:55:04.98	173.18	52.39	-51.1	-52.6	14.9	0.00e+00	0	28	0	611319808	68	4246
2026-01-15 09:55:09.01	174.00	53.78	-50.2	-51.6	15.2	0.00e+00	0	28	0	618659840	67	4018
2026-01-15 09:55:13.03	174.90	55.21	-50.6	-52.0	14.9	0.00e+00	0	28	0	625999872	66	4449
2026-01-15 09:55:17.06	175.89	56.66	-50.7	-52.1	14.9	0.00e+00	0	28	0	633339904	66	4510
2026-01-15 09:55:21.08	177.00	58.14	-51.8	-53.4	14.7	0.00e+00	0	28	0	640679936	68	4680
2026-01-15 09:55:25.12	178.23	59.66	-51.5	-53.0	14.9	0.00e+00	0	28	0	649068544	69	4204
2026-01-15 09:55:29.15	179.62	61.19	-50.9	-52.3	15.0	0.00e+00	0	28	0	656408576	68	4125
2026-01-15 09:55:33.18	181.18	62.75	-50.6	-51.9	15.0	0.00e+00	0	28	0	663748608	67	4173
2026-01-15 09:55:37.21	182.96	64.32	-51.6	-53.1	14.8	0.00e+00	0	28	0	671088640	68	4517
2026-01-15 09:55:41.25	185.01	65.90	-53.0	-54.7	14.4	0.00e+00	0	28	0	678428672	71	4583
2026-01-15 09:55:45.28	187.37	67.48	-53.9	-55.9	14.1	0.00e+00	0	28	0	686817280	72	4976
2026-01-15 09:55:49.30	190.10	69.05	-54.1	-56.2	14.1	0.00e+00	0	28	0	694157312	73	4827
2026-01-15 09:55:53.33	193.32	70.59	-54.1	-56.1	14.1	0.00e+00	0	28	0	701497344	73	4788
2026-01-15 09:55:57.36	197.11	72.09	-54.6	-56.8	13.9	0.00e+00	0	28	0	708837376	74	4914
2026-01-15 09:56:01.39	201.62	73.52	-55.3	-57.8	13.6	0.00e+00	0	28	0	716177408	76	4899
2026-01-15 09:56:05.42	207.00	74.85	-55.1	-57.5	13.8	0.00e+00	0	28	0	724566016	76	4723
2026-01-15 09:56:09.45	213.39	76.04	-54.6	-56.8	14.0	0.00e+00	0	28	0	731906048	75	4648
2026-01-15 09:56:13.49	220.92	77.05	-55.1	-57.5	13.7	0.00e+00	0	28	0	739246080	75	5000
2026-01-15 09:56:17.53	229.58	77.80	-54.0	-56.0	14.3	0.00e+00	0	28	0	746586112	74	4466
2026-01-15 09:56:21.56	239.14	78.26	-54.4	-56.6	14.1	0.00e+00	0	28	0	753926144	75	4516
2026-01-15 09:56:25.58	249.16	78.38	-55.1	-57.5	13.8	0.00e+00	0	28	0	762314752	76	4726
2026-01-15 09:56:29.62	259.14	78.15	-54.9	-57.1	13.8	0.00e+00	0	28	0	769654784	74	5086
2026-01-15 09:56:33.63	268.40	77.60	-56.2	-59.1	13.1	0.00e+00	0	28	0	776994816	78	5045
2026-01-15 09:56:37.67	276.71	76.76	-56.8	-60.1	12.5	0.00e+00	0	28	0	784334848	78	5661
2026-01-15 09:56:41.71	283.88	75.69	-56.2	-59.1	13.1	0.00e+00	0	28	0	792723456	78	5072
2026-01-15 09:56:45.73	289.92	74.45	-56.8	-60.1	12.6	0.00e+00	0	28	0	800063488	78	5705
2026-01-15 09:56:49.75	295.00	73.09	-54.2	-56.2	14.3	0.00e+00	0	28	0	807403520	75	4334
2026-01-15 09:56:53.78	299.27	71.64	-53.9	-55.8	14.3	0.00e+00	0	28	0	814743552	73	4640
2026-01-15 09:56:57.81	302.87	70.13	-53.9	-55.8	14.2	0.00e+00	0	28	0	822083584	73	4643
2026-01-15 09:57:01.83	305.92	68.58	-54.9	-57.2	13.8	0.00e+00	0	28	0	830472192	75	4861
2026-01-15 09:57:05.86	308.54	67.01	-55.2	-57.6	13.8	0.00e+00	0	28	0	837812224	77	4514
2026-01-15 09:57:09.89	310.79	65.44	-52.5	-54.0	14.8	0.00e+00	0	28	0	845152256	71	4235
2026-01-15 09:57:13.90	312.74	63.87	-50.5	-51.8	15.1	0.00e+00	0	28	0	852492288	67	4130
2026-01-15 09:57:17.92	314.45	62.31	-51.0	-52.4	14.9	0.00e+00	0	28	0	859832320	67	4424
2026-01-15 09:57:21.88	315.93	60.79	-51.9	-53.5	14.8	0.00e+00	0	28	0	867172352	69	4443
2026-01-15 09:57:25.92	317.27	59.26	-55.0	-57.3	13.9	0.00e+00	0	28	0	875560960	75	4898
2026-01-15 09:57:29.94	318.46	57.76	-54.8	-57.1	13.9	0.00e+00	0	28	0	882900992	75	4773
2026-01-15 09:57:33.96	319.53	56.29	-53.3	-55.0	14.6	0.00e+00	0	28	0	890241024	73	4240
2026-01-15 09:57:37.98	320.50	54.86	-52.4	-54.0	14.7	0.00e+00	0	28	0	897581056	70	4476
2026-01-15 09:57:42.02	321.38	53.44	-50.5	-51.9	15.1	0.00e+00	0	28	0	904921088	67	4159
2026-01-15 09:57:46.05	322.17	52.06	-52.9	-54.7	14.5	0.00e+00	0	28	0	912261120	70	4817
2026-01-15 09:57:50.08	322.90	50.72	-55.6	-58.2	13.5	0.00e+00	0	28	0	920649728	76	5101
2026-01-15 09:57:54.11	323.57	49.41	-57.8	-62.0	11.4	3.81e-05	0	28	0	927989760	81	5974
2026-01-15 09:57:58.14	324.19	48.13	-57.7	-61.9	11.5	1.14e-05	0	28	0	935329792	80	6231
2026-01-15 09:58:02.17	324.76	46.89	-55.3	-57.7	13.8	0.00e+00	0	28	0	942669824	77	4560
2026-01-15 09:58:06.20	325.28	45.68	-55.4	-57.8	13.7	0.00e+00	0	28	0	951058432	77	4620
2026-01-15 09:58:10.24	325.77	44.50	-53.0	-54.7	14.6	0.00e+00	0	28	0	958398464	72	4299
2026-01-15 09:58:14.27	326.23	43.35	-52.2	-53.8	14.8	0.00e+00	0	28	0	965738496	70	4350
2026-01-15 09:58:18.30	326.66	42.24	-55.0	-57.4	13.7	0.00e+00	0	28	0	973078528	75	4955
2026-01-15 09:58:22.33	327.06	41.16	-52.5	-54.0	14.8	0.00e+00	0	28	0	980418560	71	4235
2026-01-15 09:58:26.35	327.43	40.11	-53.6	-55.5	14.3	0.00e+00	0	28	0	988807168	72	4725
2026-01-15 09:58:30.38	327.79	39.09	-55.6	-58.2	13.4	0.00e+00	0	28	0	996147200	76	5138
2026-01-15 09:58:34.41	328.12	38.09	-53.5	-55.3	14.5	0.00e+00	0	28	0	1003487232	73	4384
2026-01-15 09:58:38.45	328.43	37.13	-53.6	-55.4	14.3	0.00e+00	0	28	0	1010827264	72	4683
2026-01-15 09:58:42.48	328.73	36.19	-55.1	-57.5	13.7	0.00e+00	0	28	0	1018167296	75	5009
2026-01-15 09:58:46.51	329.01	35.27	-54.7	-57.0	13.9	0.00e+00	0	28	0	1026555904	75	4715
2026-01-15 09:58:50.53	329.28	34.39	-53.7	-55.6	14.4	0.00e+00	0	28	0	1033895936	73	4502
2026-01-15 09:58:54.56	329.54	33.52	-54.7	-56.9	13.8	0.00e+00	0	28	0	1041235968	74	4969
2026-01-15 09:58:58.60	329.78	32.68	-55.5	-58.0	13.5	0.00e+00	0	28	0	1048576000	76	5028
2026-01-15 09:59:02.62	330.01	31.86	-55.5	-58.1	13.5	0.00e+00	0	28	0	1055916032	76	5044
2026-01-15 09:59:06.65	330.23	31.07	-55.5	-58.1	13.4	0.00e+00	0	28	0	1064304640	76	5079
2026-01-15 09:59:10.69	330.44	30.29	-55.1	-57.5	13.8	0.00e+00	0	28	0	1071644672	76	4708
2026-01-15 09:59:14.72	330.65	29.53	-54.0	-56.0	14.2	0.00e+00	0	28	0	1078984704	74	4480
2026-01-15 09:59:18.75	330.84	28.80	-53.6	-55.5	14.4	0.00e+00	0	28	0	1086324736	73	4465
2026-01-15 09:59:22.78	331.03	28.08	-53.5	-55.3	14.4	0.00e+00	0	28	0	1093664768	73	4384
2026-01-15 09:59:26.81	331.21	27.38	-53.3	-55.1	14.5	0.00e+00	0	28	0	1102053376	73	4261
2026-01-15 09:59:30.85	331.38	26.70	-53.3	-55.1	14.5	0.00e+00	0	28	0	1109393408	73	4281
2026-01-15 09:59:34.88	331.54	26.03	-53.3	-55.1	14.5	0.00e+00	0	28	0	1116733440	73	4271
2026-01-15 09:59:38.90	331.70	25.38	-53.3	-55.1	14.5	0.00e+00	0	28	0	1124073472	73	4287
2026-01-15 09:59:42.94	331.86	24.75	-52.8	-54.5	14.6	0.00e+00	0	28	0	1132462080	72	4234
2026-01-15 09:59:46.97	332.01	24.13	-52.5	-54.2	14.7	0.00e+00	0	28	0	1139802112	71	4317
2026-01-15 09:59:50.99	332.15	23.52	-52.3	-54.0	14.8	0.00e+00	0	28	0	1147142144	71	4199
2026-01-15 09:59:55.01	332.29	22.93	-52.2	-53.8	14.7	0.00e+00	0	28	0	1154482176	70	4384
2026-01-15 09:59:59.04	332.42	22.35	-52.1	-53.7	14.7	0.00e+00	0	28	0	1161822208	70	4324
2026-01-15 10:00:03.07	332.55	21.79	-52.1	-53.7	14.7	0.00e+00	0	28	0	1170210816	70	4308
2026-01-15 10:00:07.11	332.68	21.23	-52.2	-53.9	14.7	0.00e+00	0	28	0	1177550848	70	4409
2026-01-15 10:00:11.14	332.80	20.69	-52.2	-53.9	14.7	0.00e+00	0	28	0	1184890880	70	4412
2026-01-15 10:00:15.17	332.92	20.16	-52.3	-53.9	14.6	0.00e+00	0	28	0	1192230912	70	4436
2026-01-15 10:00:19.20	333.04	19.64	-52.4	-54.1	14.6	0.00e+00	0	28	0	1199570944	70	4539
2026-01-15 10:00:23.23	333.15	19.13	-52.6	-54.4	14.5	0.00e+00	0	28	0	1207959552	70	4652
2026-01-15 10:00:27.25	333.26	18.64	-52.7	-54.6	14.4	0.00e+00	0	28	0	1215299584	70	4764
2026-01-15 10:00:31.28	333.36	18.15	-52.8	-54.7	14.3	0.00e+00	0	28	0	1222639616	70	4836
2026-01-15 10:00:35.31	333.47	17.67	-53.0	-54.9	14.3	0.00e+00	0	28	0	1229979648	71	4684
2026-01-15 10:00:39.35	333.57	17.20	-53.1	-55.1	14.3	0.00e+00	0	28	0	1237319680	71	4761
2026-01-15 10:00:43.38	333.67	16.74	-53.3	-55.3	14.2	0.00e+00	0	28	0	1245708288	71	4872
2026-01-15 10:00:47.41	333.76	16.28	-53.3	-55.3	14.1	0.00e+00	0	28	0	1253048320	71	4916
2026-01-15 10:00:51.44	333.85	15.84	-53.6	-55.7	14.1	0.00e+00	0	28	0	1260388352	72	4832
2026-01-15 10:00:55.47	333.95	15.40	-53.4	-55.3	14.2	0.00e+00	0	28	0	1267728384	72	4650
2026-01-15 10:00:59.49	334.04	14.97	-53.4	-55.5	14.2	0.00e+00	0	28	0	1275068416	72	4706
2026-01-15 10:01:03.52	334.12	14.55	-53.5	-55.5	14.1	0.00e+00	0	28	0	1283457024	72	4758
2026-01-15 10:01:07.55	334.21	14.14	-53.4	-55.5	14.1	0.00e+00	0	28	0	1290797056	72	4724
2026-01-15 10:01:11.58	334.29	13.73	-53.5	-55.6	14.1	0.00e+00	0	28	0	1298137088	72	4802
2026-01-15 10:01:15.61	334.37	13.33	-53.5	-55.6	14.1	0.00e+00	0	28	0	1305477120	72	4800
2026-01-15 10:01:19.64	334.45	12.94	-53.5	-55.5	14.1	0.00e+00	0	28	0	1312817152	72	4755
2026-01-15 10:01:23.67	334.53	12.55	-53.4	-55.4	14.1	0.00e+00	0	28	0	1321205760	72	4691
2026-01-15 10:01:27.70	334.61	12.17	-53.4	-55.5	14.1	0.00e+00	0	28	0	1328545792	72	4707
2026-01-15 10:01:31.73	334.68	11.79	-53.5	-55.5	14.1	0.00e+00	0	28	0	1335885824	72	4753
2026-01-15 10:01:35.76	334.76	11.42	-53.5	-55.6	14.0	0.00e+00	0	28	0	1343225856	72	4764
2026-01-15 10:01:39.78	334.83	11.06	-53.4	-55.4	14.1	0.00e+00	0	28	0	1350565888	72	4698
2026-01-15 10:01:43.80	334.90	10.70	-53.6	-55.7	14.0	0.00e+00	0	28	0	1358954496	72	4845
2026-01-15 10:01:47.83	334.97	10.34	-53.6	-55.8	13.9	0.00e+00	0	28	0	1366294528	72	4890
2026-01-15 10:01:51.86	335.04	9.99	-53.6	-55.8	13.9	0.00e+00	0	28	0	1373634560	72	4901
2026-01-15 10:01:55.88	335.11	9.65	-53.7	-55.9	13.9	0.00e+00	0	28	0	1380974592	72	4959
2026-01-15 10:01:59.91	335.17	9.31	-53.5	-55.7	14.0	0.00e+00	0	28	0	1388314624	72	4828
2026-01-15 10:02:03.94	335.24	8.97	-53.7	-56.0	13.8	0.00e+00	0	28	0	1396703232	72	4990
2026-01-15 10:02:07.97	335.30	8.64	-53.7	-56.0	13.8	0.00e+00	0	28	0	1404043264	72	5010
2026-01-15 10:02:11.99	335.37	8.32	-53.8	-56.1	13.7	0.00e+00	0	28	0	1411383296	72	5044
2026-01-15 10:02:16.03	335.43	7.99	-53.9	-56.2	13.8	6.10e-06	0	28	0	1418723328	73	4856
2026-01-15 10:02:20.06	335.49	7.68	-53.9	-56.3	13.7	0.00e+00	0	28	0	1427111936	73	4902
2026-01-15 10:02:24.08	335.55	7.36	-54.1	-56.6	13.5	0.00e+00	0	28	0	1434451968	73	5081
2026-01-15 10:02:28.11	335.61	7.05	-54.1	-56.6	13.6	0.00e+00	0	28	0	1441792000	73	5046
2026-01-15 10:02:32.14	335.67	6.74	-54.2	-56.8	13.4	0.00e+00	0	28	0	1449132032	73	5190
2026-01-15 10:02:36.16	335.72	6.44	-54.2	-56.8	13.3	0.00e+00	0	28	0	1456472064	73	5212
2026-01-15 10:02:40.19	335.78	6.14	-54.3	-57.0	13.2	0.00e+00	0	28	0	1463812096	73	5312
2026-01-15 10:02:44.23	335.84	5.85	-54.3	-57.0	13.3	0.00e+00	0	28	0	1472200704	74	5011
2026-01-15 10:02:48.26	335.89	5.55	-54.5	-57.3	13.1	0.00e+00	0	28	0	1479540736	74	5177
2026-01-15 10:02:52.29	335.95	5.26	-54.7	-57.6	12.9	0.00e+00	0	28	0	1486880768	74	5393
2026-01-15 10:02:56.33	336.00	4.97	-59.1	-74.3	3.8	1.21e+00	0	28	104	1494220800	83	21947
2026-01-15 10:03:00.36	336.05	4.69	-60.1	-76.2	3.8	1.49e+00	0	28	104	1494220800	85	24210
2026-01-15 10:03:04.40	336.11	4.41	-60.5	-76.6	3.8	1.49e+00	0	28	104	1494220800	86	23865
2026-01-15 10:03:08.42	336.16	4.13	-60.6	-76.7	3.8	1.49e+00	0	28	104	1494220800	86	24236
2026-01-15 10:03:12.46	336.21	3.86	-60.7	-76.8	3.8	1.49e+00	0	28	104	1494220800	86	24490
2026-01-15 10:03:16.49	336.26	3.58	-60.7	-76.8	3.8	1.49e+00	0	28	104	1494220800	86	24446
2026-01-15 10:03:20.52	336.31	3.32	-60.6	-76.7	3.8	1.49e+00	0	28	104	1494220800	86	24160
2026-01-15 10:03:24.56	336.36	3.05	-60.5	-76.6	3.8	1.49e+00	0	28	104	1494220800	86	24022
2026-01-15 10:03:28.59	336.41	2.78	-60.5	-76.6	3.8	1.49e+00	0	28	104	1494220800	86	23927
2026-01-15 10:03:32.63	336.46	2.52	-60.5	-76.5	3.8	1.49e+00	0	28	104	1494220800	86	23849
2026-01-15 10:03:36.67	336.51	2.26	-60.5	-76.6	3.8	1.49e+00	0	28	104	1494220800	86	23912
2026-01-15 10:03:40.69	336.55	2.00	-60.5	-76.6	3.8	1.49e+00	0	28	104	1494220800	86	23890

#Closed at: 2026-01-15 10:03:43
#Recorded file [1494 MB]: D:/lorett/data/31004_260115_124914.dat