passes_logs/2026/01/15/R3.2S_Murmansk/R3.2S_Murmansk__20260115_004149_NOAA_21_JPSS-2_rec.log

#Pass ID: 20260115_004149_NOAA 21 (JPSS-2)
#Satellite: NOAA 21 (JPSS-2)
#Configuration: NOAA-21
#almurnet v.1.7.20251203
#Start time: 2026-01-15 00:41:49

#Version: 2.2.20231116
#Station: R3.2S_Murmansk
#Location: 33.079688 lon 68.888172 lat
#TLE: 1 54234U 22150A   26014.58979933  .00000039  00000+0  39403-4 0  9998
#TLE: 2 54234  98.7497 315.4945 0000653 294.6373  65.4735 14.19534652164756

#Time	Az	El	Level	Level2	SNR	BER	BlckErr	Temp	State	Recorded	gain1	gain2
2026-01-15 00:41:49.64	24.53	2.03	-58.1	-71.9	3.8	1.49e+00	0	26	0	0	82	17514
2026-01-15 00:41:53.62	24.54	2.28	-58.0	-71.7	3.8	1.49e+00	0	26	104	0	81	18131
2026-01-15 00:41:57.58	24.55	2.54	-58.0	-71.3	3.8	1.49e+00	0	26	104	0	81	17400
2026-01-15 00:42:01.57	24.56	2.80	-58.0	-71.0	3.8	1.49e+00	0	26	104	0	81	16741
2026-01-15 00:42:05.57	24.58	3.06	-58.0	-71.1	3.8	1.49e+00	0	26	104	0	81	16951
2026-01-15 00:42:09.58	24.59	3.33	-57.8	-68.8	3.9	1.47e+00	0	26	104	0	81	13077
2026-01-15 00:42:13.59	24.60	3.60	-56.4	-61.3	8.5	4.35e-02	0	26	0	8388608	79	6182
2026-01-15 00:42:17.59	24.62	3.87	-55.4	-59.2	10.2	1.28e-03	0	27	0	20971520	77	5453
2026-01-15 00:42:21.59	24.63	4.15	-55.0	-58.5	10.6	3.37e-04	0	27	0	33554432	75	5640
2026-01-15 00:42:25.58	24.64	4.42	-55.1	-58.6	10.6	1.89e-04	0	27	0	46137344	75	5711
2026-01-15 00:42:29.56	24.65	4.70	-55.9	-60.2	9.4	3.28e-03	0	27	0	58720256	76	6446
2026-01-15 00:42:33.54	24.67	4.98	-56.9	-63.0	7.1	8.18e-02	0	27	0	70254592	78	7910
2026-01-15 00:42:37.53	24.68	5.27	-57.0	-63.0	5.2	1.47e+00	0	27	104	80740352	80	7092
2026-01-15 00:42:41.51	24.69	5.55	-52.6	-54.6	13.2	0.00e+00	0	27	0	92274688	71	4528
2026-01-15 00:42:45.48	24.70	5.84	-52.2	-54.0	13.5	0.00e+00	0	27	0	103809024	70	4461
2026-01-15 00:42:49.47	24.71	6.14	-52.1	-53.9	13.6	0.00e+00	0	27	0	116391936	70	4402
2026-01-15 00:42:53.44	24.73	6.43	-52.1	-53.8	13.6	0.00e+00	0	27	0	128974848	70	4386
2026-01-15 00:42:57.43	24.74	6.74	-51.8	-53.5	13.8	0.00e+00	0	27	0	141557760	70	4214
2026-01-15 00:43:01.43	24.75	7.04	-51.8	-53.5	13.7	0.00e+00	0	27	0	154140672	69	4478
2026-01-15 00:43:05.42	24.76	7.35	-51.7	-53.4	13.8	0.00e+00	0	27	0	166723584	69	4440
2026-01-15 00:43:09.42	24.77	7.66	-51.5	-53.1	14.0	0.00e+00	0	27	0	179306496	69	4281
2026-01-15 00:43:13.41	24.78	7.98	-51.5	-53.1	14.0	0.00e+00	0	27	0	191889408	69	4274
2026-01-15 00:43:17.42	24.79	8.30	-51.4	-53.0	14.0	0.00e+00	0	27	0	204472320	69	4213
2026-01-15 00:43:21.43	24.80	8.63	-51.3	-52.9	14.0	0.00e+00	0	27	0	217055232	68	4406
2026-01-15 00:43:25.41	24.82	8.96	-51.1	-52.6	14.1	0.00e+00	0	27	0	228589568	68	4266
2026-01-15 00:43:29.40	24.83	9.29	-51.0	-52.5	14.2	0.00e+00	0	27	0	241172480	68	4194
2026-01-15 00:43:33.39	24.84	9.63	-50.8	-52.3	14.3	0.00e+00	0	27	0	253755392	68	4130
2026-01-15 00:43:37.38	24.85	9.97	-50.9	-52.4	14.3	0.00e+00	0	27	0	266338304	68	4151
2026-01-15 00:43:41.39	24.86	10.32	-50.5	-51.9	14.3	0.00e+00	0	27	0	278921216	67	4181
2026-01-15 00:43:45.38	24.87	10.67	-50.5	-51.9	14.3	0.00e+00	0	27	0	291504128	67	4158
2026-01-15 00:43:49.37	24.88	11.03	-50.4	-51.8	14.4	0.00e+00	0	27	0	304087040	67	4137
2026-01-15 00:43:53.36	24.89	11.39	-50.3	-51.7	14.5	0.00e+00	0	28	0	316669952	67	4065
2026-01-15 00:43:57.35	24.89	11.76	-50.1	-51.5	14.4	0.00e+00	0	27	0	329252864	66	4235
2026-01-15 00:44:01.35	24.90	12.13	-50.2	-51.6	14.4	0.00e+00	0	27	0	341835776	66	4246
2026-01-15 00:44:05.35	24.91	12.51	-50.1	-51.5	14.4	0.00e+00	0	28	0	354418688	66	4214
2026-01-15 00:44:09.34	24.92	12.90	-50.0	-51.4	14.5	0.00e+00	0	27	0	365953024	66	4173
2026-01-15 00:44:13.34	24.93	13.29	-50.0	-51.4	14.5	0.00e+00	0	27	0	378535936	66	4146
2026-01-15 00:44:17.34	24.94	13.69	-49.9	-51.3	14.6	0.00e+00	0	27	0	391118848	66	4102
2026-01-15 00:44:21.34	24.95	14.09	-49.9	-51.2	14.6	0.00e+00	0	27	0	403701760	66	4078
2026-01-15 00:44:25.33	24.95	14.51	-49.8	-51.1	14.6	0.00e+00	0	28	0	416284672	66	4047
2026-01-15 00:44:29.31	24.96	14.92	-49.8	-51.1	14.6	0.00e+00	0	28	0	428867584	66	4005
2026-01-15 00:44:33.30	24.97	15.35	-49.8	-51.0	14.7	0.00e+00	0	28	0	441450496	66	4000
2026-01-15 00:44:37.31	24.97	15.78	-49.8	-51.1	14.7	0.00e+00	0	27	0	454033408	66	4016
2026-01-15 00:44:41.29	24.98	16.22	-49.8	-51.1	14.6	0.00e+00	0	28	0	466616320	66	4039
2026-01-15 00:44:45.29	24.99	16.67	-49.9	-51.3	14.6	0.00e+00	0	28	0	479199232	66	4108
2026-01-15 00:44:49.28	24.99	17.13	-49.9	-51.3	14.6	0.00e+00	0	28	0	490733568	66	4109
2026-01-15 00:44:53.28	25.00	17.60	-50.0	-51.3	14.6	0.00e+00	0	28	0	503316480	66	4118
2026-01-15 00:44:57.27	25.00	18.08	-50.0	-51.3	14.6	0.00e+00	0	28	0	515899392	66	4110
2026-01-15 00:45:01.23	25.01	18.56	-49.9	-51.2	14.6	0.00e+00	0	28	0	528482304	66	4086
2026-01-15 00:45:05.23	25.01	19.05	-49.9	-51.1	14.6	0.00e+00	0	28	0	541065216	66	4050
2026-01-15 00:45:09.22	25.02	19.56	-49.8	-51.1	14.7	0.00e+00	0	28	0	553648128	66	4029
2026-01-15 00:45:13.23	25.02	20.08	-49.7	-51.0	14.7	0.00e+00	0	28	0	566231040	66	3998
2026-01-15 00:45:17.23	25.02	20.60	-49.6	-50.9	14.6	0.00e+00	0	28	0	578813952	65	4172
2026-01-15 00:45:21.23	25.03	21.14	-49.3	-50.6	14.7	0.00e+00	0	28	0	591396864	65	4014
2026-01-15 00:45:25.21	25.03	21.69	-48.9	-50.1	14.8	0.00e+00	0	28	0	603979776	64	4038
2026-01-15 00:45:29.21	25.03	22.25	-48.8	-50.0	14.8	0.00e+00	0	27	0	615514112	64	4001
2026-01-15 00:45:33.21	25.03	22.83	-48.6	-49.8	14.8	0.00e+00	0	28	0	628097024	63	4114
2026-01-15 00:45:37.21	25.03	23.42	-48.5	-49.6	14.8	0.00e+00	0	28	0	640679936	63	4041
2026-01-15 00:45:41.22	25.03	24.02	-48.5	-49.7	14.8	0.00e+00	0	28	0	653262848	63	4057
2026-01-15 00:45:45.22	25.03	24.64	-48.6	-49.8	14.8	0.00e+00	0	28	0	665845760	63	4101
2026-01-15 00:45:49.22	25.03	25.27	-48.8	-49.9	14.8	0.00e+00	0	28	0	678428672	63	4180
2026-01-15 00:45:53.22	25.03	25.92	-49.0	-50.2	14.7	0.00e+00	0	28	0	691011584	63	4301
2026-01-15 00:45:57.21	25.02	26.58	-49.3	-50.5	14.6	0.00e+00	0	28	0	703594496	63	4482
2026-01-15 00:46:01.19	25.02	27.26	-49.6	-50.9	14.5	0.00e+00	0	28	0	716177408	64	4418
2026-01-15 00:46:05.18	25.01	27.95	-50.1	-51.4	14.5	0.00e+00	0	28	0	728760320	65	4399
2026-01-15 00:46:09.17	25.01	28.67	-50.4	-51.7	14.3	0.00e+00	0	28	0	741343232	65	4584
2026-01-15 00:46:13.16	25.00	29.40	-50.3	-51.7	14.4	0.00e+00	0	28	0	752877568	65	4559
2026-01-15 00:46:17.17	24.99	30.15	-49.8	-51.1	14.5	0.00e+00	0	28	0	765460480	65	4282
2026-01-15 00:46:21.19	24.98	30.93	-49.4	-50.6	14.7	0.00e+00	0	28	0	778043392	65	4051
2026-01-15 00:46:25.20	24.97	31.73	-49.1	-50.3	14.8	0.00e+00	0	28	0	790626304	64	4133
2026-01-15 00:46:29.19	24.96	32.55	-49.3	-50.5	14.7	0.00e+00	0	28	0	803209216	64	4226
2026-01-15 00:46:33.19	24.95	33.39	-49.8	-51.0	14.5	0.00e+00	0	28	0	815792128	64	4492
2026-01-15 00:46:37.20	24.93	34.25	-50.6	-51.9	14.4	0.00e+00	0	28	0	828375040	66	4421
2026-01-15 00:46:41.21	24.92	35.14	-51.3	-52.8	14.1	0.00e+00	0	28	0	840957952	67	4628
2026-01-15 00:46:45.21	24.90	36.06	-52.2	-53.8	13.9	0.00e+00	0	28	0	853540864	69	4610
2026-01-15 00:46:49.20	24.88	37.00	-52.2	-53.8	13.9	0.00e+00	0	28	0	866123776	69	4629
2026-01-15 00:46:53.19	24.86	37.97	-51.6	-53.0	14.3	0.00e+00	0	28	0	878706688	69	4231
2026-01-15 00:46:57.17	24.83	38.96	-51.1	-52.5	14.4	0.00e+00	0	28	0	891289600	68	4222
2026-01-15 00:47:01.16	24.80	39.99	-51.2	-52.6	14.3	0.00e+00	0	28	0	902823936	68	4251
2026-01-15 00:47:05.15	24.77	41.04	-51.6	-53.0	14.2	0.00e+00	0	28	0	915406848	68	4484
2026-01-15 00:47:09.15	24.74	42.13	-52.3	-53.9	13.9	0.00e+00	0	28	0	927989760	69	4679
2026-01-15 00:47:13.15	24.70	43.26	-52.3	-53.9	14.0	0.00e+00	0	28	0	940572672	70	4414
2026-01-15 00:47:17.15	24.66	44.42	-52.2	-53.8	14.1	0.00e+00	0	28	0	953155584	70	4358
2026-01-15 00:47:21.15	24.61	45.61	-52.9	-54.6	13.7	0.00e+00	0	28	0	965738496	70	4798
2026-01-15 00:47:25.15	24.56	46.84	-52.8	-54.6	13.8	0.00e+00	0	28	0	978321408	71	4499
2026-01-15 00:47:29.17	24.51	48.12	-51.6	-53.1	14.3	0.00e+00	0	28	0	990904320	69	4257
2026-01-15 00:47:33.18	24.44	49.43	-51.5	-52.9	14.3	0.00e+00	0	28	0	1003487232	69	4164
2026-01-15 00:47:37.19	24.37	50.78	-51.3	-52.7	14.3	0.00e+00	0	28	0	1016070144	68	4297
2026-01-15 00:47:41.19	24.30	52.16	-51.7	-53.2	14.1	0.00e+00	0	28	0	1028653056	68	4598
2026-01-15 00:47:45.20	24.21	53.59	-50.8	-52.1	14.6	0.00e+00	0	28	0	1041235968	68	4025
2026-01-15 00:47:49.21	24.11	55.06	-50.1	-51.3	14.6	0.00e+00	0	28	0	1053818880	66	4134
2026-01-15 00:47:53.22	24.00	56.58	-50.1	-51.4	14.6	0.00e+00	0	28	0	1066401792	66	4164
2026-01-15 00:47:57.21	23.87	58.13	-49.6	-50.8	14.7	0.00e+00	0	28	0	1078984704	65	4125
2026-01-15 00:48:01.19	23.73	59.71	-49.1	-50.3	14.8	0.00e+00	0	28	0	1090519040	64	4136
2026-01-15 00:48:05.19	23.57	61.35	-48.8	-49.9	14.9	0.00e+00	0	28	0	1103101952	64	3933
2026-01-15 00:48:09.18	23.38	63.02	-48.4	-49.5	14.9	0.00e+00	0	28	0	1115684864	63	3965
2026-01-15 00:48:13.17	23.16	64.73	-48.6	-49.8	14.8	0.00e+00	0	28	0	1128267776	63	4111
2026-01-15 00:48:17.17	22.90	66.49	-48.2	-49.3	14.9	0.00e+00	0	28	0	1140850688	62	4119
2026-01-15 00:48:21.18	22.58	68.29	-48.5	-49.6	14.8	0.00e+00	0	28	0	1153433600	62	4284
2026-01-15 00:48:25.18	22.21	70.12	-48.4	-49.5	14.8	0.00e+00	0	28	0	1166016512	62	4214
2026-01-15 00:48:29.19	21.74	71.99	-48.2	-49.4	14.9	0.00e+00	0	28	0	1178599424	62	4152
2026-01-15 00:48:33.19	21.16	73.89	-48.2	-49.3	14.9	0.00e+00	0	28	0	1191182336	62	4130
2026-01-15 00:48:37.19	20.41	75.82	-48.1	-49.1	14.9	0.00e+00	0	28	0	1203765248	62	4048
2026-01-15 00:48:41.20	19.40	77.77	-48.2	-49.3	14.9	0.00e+00	0	28	0	1216348160	62	4135
2026-01-15 00:48:45.21	17.99	79.75	-48.7	-49.9	14.7	0.00e+00	0	28	0	1228931072	62	4392
2026-01-15 00:48:49.20	15.89	81.72	-48.7	-49.9	14.8	0.00e+00	0	28	0	1240465408	62	4403
2026-01-15 00:48:53.22	12.42	83.71	-48.8	-49.9	14.8	0.00e+00	0	28	0	1253048320	63	4192
2026-01-15 00:48:57.20	5.82	85.65	-49.0	-50.2	14.7	0.00e+00	0	28	0	1265631232	63	4322
2026-01-15 00:49:01.19	349.21	87.45	-48.5	-49.7	14.9	0.00e+00	0	28	0	1278214144	63	4058
2026-01-15 00:49:05.18	295.69	88.45	-48.4	-49.6	14.9	0.00e+00	0	28	0	1290797056	63	4009
2026-01-15 00:49:09.19	243.29	87.40	-49.0	-50.1	14.7	0.00e+00	0	28	0	1303379968	63	4286
2026-01-15 00:49:13.19	227.22	85.59	-48.5	-49.6	14.9	0.00e+00	0	28	0	1315962880	63	4015
2026-01-15 00:49:17.19	220.77	83.64	-48.4	-49.5	14.9	0.00e+00	0	28	0	1328545792	63	3998
2026-01-15 00:49:21.18	217.38	81.66	-48.9	-50.0	14.8	0.00e+00	0	28	0	1341128704	63	4233
2026-01-15 00:49:25.17	215.31	79.68	-48.7	-49.9	14.8	0.00e+00	0	28	0	1353711616	63	4153
2026-01-15 00:49:29.17	213.92	77.71	-48.3	-49.4	15.0	0.00e+00	0	28	0	1366294528	63	3927
2026-01-15 00:49:33.14	212.93	75.77	-48.4	-49.6	15.0	0.00e+00	0	28	0	1377828864	63	4005
2026-01-15 00:49:37.13	212.19	73.85	-49.0	-50.2	14.8	0.00e+00	0	28	0	1390411776	63	4315
2026-01-15 00:49:41.12	211.61	71.96	-48.8	-49.9	14.8	0.00e+00	0	28	0	1402994688	63	4172
2026-01-15 00:49:45.12	211.14	70.09	-49.3	-50.6	14.6	0.00e+00	0	28	0	1415577600	64	4251
2026-01-15 00:49:49.11	210.77	68.26	-48.6	-49.7	14.9	0.00e+00	0	28	0	1428160512	63	4055
2026-01-15 00:49:53.10	210.46	66.46	-50.6	-52.0	14.4	0.00e+00	0	28	0	1440743424	66	4444
2026-01-15 00:49:57.10	210.20	64.70	-48.3	-49.3	15.0	0.00e+00	0	28	0	1453326336	63	3912
2026-01-15 00:50:01.08	209.98	62.99	-50.5	-51.9	14.5	0.00e+00	0	28	0	1465909248	66	4402
2026-01-15 00:50:05.06	209.79	61.32	-49.0	-50.1	14.8	0.00e+00	0	28	0	1478492160	64	4035
2026-01-15 00:50:09.05	209.62	59.68	-50.2	-51.4	14.5	0.00e+00	0	28	0	1490026496	65	4441
2026-01-15 00:50:13.04	209.48	58.09	-49.9	-51.2	14.6	0.00e+00	0	28	0	1502609408	66	4057
2026-01-15 00:50:17.02	209.35	56.54	-49.9	-51.2	14.6	0.00e+00	0	28	0	1515192320	65	4303
2026-01-15 00:50:21.02	209.24	55.03	-51.4	-52.9	14.3	0.00e+00	0	28	0	1527775232	68	4394
2026-01-15 00:50:25.02	209.14	53.56	-50.0	-51.2	14.7	0.00e+00	0	28	0	1540358144	66	4080
2026-01-15 00:50:29.02	209.06	52.12	-51.2	-52.7	14.2	0.00e+00	0	28	0	1552941056	67	4556
2026-01-15 00:50:33.02	208.98	50.74	-52.6	-54.2	13.9	0.00e+00	0	28	0	1565523968	70	4551
2026-01-15 00:50:37.02	208.91	49.39	-52.1	-53.7	14.0	0.00e+00	0	28	0	1578106880	70	4308
2026-01-15 00:50:41.01	208.84	48.08	-52.1	-53.6	14.1	0.00e+00	0	28	0	1590689792	70	4276
2026-01-15 00:50:45.00	208.79	46.81	-52.8	-54.5	13.7	0.00e+00	0	28	0	1603272704	70	4706
2026-01-15 00:50:48.97	208.74	45.58	-52.5	-54.1	13.8	0.00e+00	0	28	0	1614807040	70	4538
2026-01-15 00:50:52.96	208.69	44.39	-52.4	-54.0	13.9	0.00e+00	0	28	0	1627389952	70	4456
2026-01-15 00:50:56.96	208.65	43.23	-51.7	-53.1	14.2	0.00e+00	0	28	0	1639972864	69	4273
2026-01-15 00:51:00.95	208.61	42.10	-52.0	-53.5	14.0	0.00e+00	0	28	0	1652555776	69	4472
2026-01-15 00:51:04.94	208.57	41.01	-52.6	-54.2	13.9	0.00e+00	0	28	0	1665138688	70	4585
2026-01-15 00:51:08.94	208.54	39.94	-52.6	-54.2	13.9	0.00e+00	0	28	0	1677721600	70	4564
2026-01-15 00:51:12.94	208.51	38.91	-52.7	-54.4	13.9	0.00e+00	0	28	0	1690304512	71	4402
2026-01-15 00:51:16.93	208.49	37.91	-51.9	-53.4	14.2	0.00e+00	0	28	0	1702887424	70	4187
2026-01-15 00:51:20.93	208.46	36.94	-51.1	-52.5	14.4	0.00e+00	0	28	0	1715470336	68	4224
2026-01-15 00:51:24.93	208.44	35.99	-51.1	-52.5	14.4	0.00e+00	0	28	0	1728053248	68	4225
2026-01-15 00:51:28.93	208.42	35.08	-50.5	-51.9	14.5	0.00e+00	0	28	0	1739587584	67	4148
2026-01-15 00:51:32.94	208.40	34.18	-50.6	-51.9	14.5	0.00e+00	0	28	0	1752170496	67	4177
2026-01-15 00:51:36.93	208.39	33.32	-50.7	-52.1	14.4	0.00e+00	0	28	0	1764753408	67	4262
2026-01-15 00:51:40.94	208.37	32.47	-50.3	-51.6	14.6	0.00e+00	0	28	0	1777336320	67	4043
2026-01-15 00:51:44.95	208.36	31.65	-50.1	-51.4	14.6	0.00e+00	0	28	0	1789919232	66	4177
2026-01-15 00:51:48.94	208.35	30.85	-50.1	-51.4	14.6	0.00e+00	0	28	0	1802502144	66	4185
2026-01-15 00:51:52.93	208.34	30.08	-50.1	-51.4	14.6	0.00e+00	0	28	0	1815085056	66	4147
2026-01-15 00:51:56.94	208.33	29.32	-50.2	-51.5	14.5	0.00e+00	0	28	0	1827667968	66	4219
2026-01-15 00:52:00.94	208.32	28.58	-49.9	-51.2	14.6	0.00e+00	0	28	0	1840250880	66	4063
2026-01-15 00:52:04.92	208.31	27.87	-49.4	-50.6	14.7	0.00e+00	0	28	0	1852833792	65	4016
2026-01-15 00:52:08.90	208.31	27.17	-49.2	-50.3	14.7	0.00e+00	0	28	0	1865416704	64	4143
2026-01-15 00:52:12.90	208.30	26.49	-49.1	-50.3	14.7	0.00e+00	0	28	0	1877999616	64	4129
2026-01-15 00:52:16.89	208.30	25.83	-49.0	-50.2	14.7	0.00e+00	0	28	0	1889533952	64	4059
2026-01-15 00:52:20.90	208.29	25.18	-49.0	-50.2	14.7	0.00e+00	0	28	0	1902116864	64	4067
2026-01-15 00:52:24.90	208.29	24.54	-49.0	-50.1	14.8	0.00e+00	0	28	0	1914699776	64	4045
2026-01-15 00:52:28.92	208.29	23.92	-48.9	-50.0	14.8	0.00e+00	0	28	0	1927282688	64	3994
2026-01-15 00:52:32.93	208.29	23.32	-49.0	-50.2	14.8	0.00e+00	0	28	0	1939865600	64	4078
2026-01-15 00:52:36.92	208.28	22.73	-49.1	-50.2	14.7	0.00e+00	0	28	0	1952448512	64	4094
2026-01-15 00:52:40.90	208.28	22.15	-49.2	-50.4	14.7	0.00e+00	0	28	0	1965031424	64	4172
2026-01-15 00:52:44.89	208.28	21.59	-49.3	-50.6	14.6	0.00e+00	0	28	0	1977614336	64	4263
2026-01-15 00:52:48.90	208.28	21.04	-49.5	-50.8	14.6	0.00e+00	0	28	0	1990197248	64	4355
2026-01-15 00:52:52.90	208.29	20.49	-49.6	-50.9	14.5	0.00e+00	0	28	0	2002780160	64	4435
2026-01-15 00:52:56.89	208.29	19.97	-49.6	-50.9	14.5	0.00e+00	0	28	0	2015363072	64	4422
2026-01-15 00:53:00.89	208.29	19.45	-49.6	-50.9	14.5	0.00e+00	0	28	0	2026897408	64	4427
2026-01-15 00:53:04.87	208.29	18.94	-49.6	-50.9	14.5	0.00e+00	0	28	0	2039480320	64	4412
2026-01-15 00:53:08.85	208.29	18.45	-49.7	-51.0	14.5	0.00e+00	0	28	0	2052063232	64	4465
2026-01-15 00:53:12.83	208.30	17.96	-49.8	-51.1	14.4	0.00e+00	0	28	0	2064646144	64	4528
2026-01-15 00:53:16.82	208.30	17.49	-49.9	-51.2	14.4	0.00e+00	0	28	0	2077229056	64	4560
2026-01-15 00:53:20.83	208.30	17.02	-50.1	-51.4	14.4	0.00e+00	0	28	0	2089811968	65	4402
2026-01-15 00:53:24.81	208.31	16.56	-50.1	-51.4	14.4	0.00e+00	0	28	0	2102394880	65	4439
2026-01-15 00:53:28.80	208.31	16.11	-50.3	-51.6	14.3	0.00e+00	0	28	0	2114977792	65	4539
2026-01-15 00:53:32.79	208.32	15.67	-50.5	-51.9	14.3	0.00e+00	0	28	0	2127560704	66	4433
2026-01-15 00:53:36.78	208.32	15.23	-50.4	-51.8	14.3	0.00e+00	0	28	0	2139095040	66	4357
2026-01-15 00:53:40.78	208.33	14.80	-50.6	-52.0	14.3	0.00e+00	0	28	0	2151677952	66	4455
2026-01-15 00:53:44.79	208.33	14.38	-50.7	-52.1	14.2	0.00e+00	0	28	0	2164260864	66	4529
2026-01-15 00:53:48.79	208.34	13.97	-50.6	-52.0	14.2	0.00e+00	0	28	0	2176843776	66	4491
2026-01-15 00:53:52.78	208.34	13.56	-50.7	-52.2	14.2	0.00e+00	0	28	0	2189426688	66	4573
2026-01-15 00:53:56.78	208.35	13.16	-50.7	-52.1	14.2	0.00e+00	0	28	0	2202009600	66	4516
2026-01-15 00:54:00.78	208.35	12.77	-50.8	-52.2	14.1	0.00e+00	0	28	0	2214592512	66	4595
2026-01-15 00:54:04.75	208.36	12.39	-50.7	-52.1	14.2	0.00e+00	0	28	0	2227175424	66	4531
2026-01-15 00:54:08.75	208.37	12.00	-50.9	-52.4	14.1	0.00e+00	0	28	0	2239758336	66	4663
2026-01-15 00:54:12.72	208.37	11.63	-50.8	-52.3	14.1	0.00e+00	0	28	0	2252341248	66	4605
2026-01-15 00:54:16.71	208.38	11.26	-51.0	-52.5	14.1	0.00e+00	0	28	0	2264924160	67	4477
2026-01-15 00:54:20.70	208.39	10.90	-51.0	-52.5	14.1	0.00e+00	0	28	0	2276458496	67	4460
2026-01-15 00:54:24.70	208.40	10.54	-51.0	-52.5	14.1	0.00e+00	0	28	0	2289041408	67	4487
2026-01-15 00:54:28.70	208.40	10.19	-51.1	-52.6	14.0	0.00e+00	0	28	0	2301624320	67	4519
2026-01-15 00:54:32.70	208.41	9.84	-51.2	-52.7	14.0	0.00e+00	0	28	0	2314207232	67	4592
2026-01-15 00:54:36.70	208.42	9.50	-51.4	-53.0	13.8	0.00e+00	0	28	0	2326790144	67	4745
2026-01-15 00:54:40.70	208.43	9.16	-51.6	-53.2	13.9	0.00e+00	0	28	0	2339373056	68	4585
2026-01-15 00:54:44.69	208.43	8.82	-51.7	-53.4	13.8	0.00e+00	0	28	0	2351955968	68	4667
2026-01-15 00:54:48.69	208.44	8.49	-51.8	-53.4	13.8	0.00e+00	0	28	0	2364538880	68	4684
2026-01-15 00:54:52.68	208.45	8.17	-51.9	-53.6	13.7	0.00e+00	0	28	0	2377121792	69	4524
2026-01-15 00:54:56.68	208.46	7.84	-51.9	-53.6	13.7	0.00e+00	0	28	0	2389704704	69	4529
2026-01-15 00:55:00.69	208.47	7.53	-52.0	-53.7	13.6	0.00e+00	0	28	0	2401239040	69	4590
2026-01-15 00:55:04.65	208.48	7.22	-52.2	-54.0	13.5	0.00e+00	0	28	0	2413821952	69	4728
2026-01-15 00:55:08.64	208.48	6.91	-52.4	-54.2	13.4	0.00e+00	0	28	0	2426404864	69	4864
2026-01-15 00:55:12.60	208.49	6.60	-52.4	-54.3	13.4	0.00e+00	0	28	0	2438987776	70	4624
2026-01-15 00:55:16.59	208.50	6.30	-52.5	-54.4	13.3	0.00e+00	0	28	0	2451570688	70	4701
2026-01-15 00:55:20.59	208.51	6.00	-52.6	-54.6	13.2	0.00e+00	0	28	0	2464153600	70	4775
2026-01-15 00:55:24.58	208.52	5.71	-52.7	-54.7	13.1	0.00e+00	0	28	0	2476736512	70	4869
2026-01-15 00:55:28.59	208.53	5.41	-53.0	-55.0	13.0	0.00e+00	0	28	0	2489319424	71	4754
2026-01-15 00:55:32.60	208.54	5.12	-53.0	-55.1	13.0	0.00e+00	0	28	0	2501902336	71	4770
2026-01-15 00:55:36.60	208.55	4.84	-59.4	-73.3	3.8	1.49e+00	0	28	104	2508193792	83	19519
2026-01-15 00:55:40.60	208.56	4.55	-60.1	-74.0	3.8	1.49e+00	0	28	104	2508193792	85	18760
2026-01-15 00:55:44.90	208.57	4.25	-60.4	-74.2	3.8	1.49e+00	0	28	104	2508193792	85	19230
2026-01-15 00:55:48.91	208.58	3.97	-60.5	-74.3	3.8	1.49e+00	0	28	104	2508193792	86	18505
2026-01-15 00:55:52.92	208.59	3.70	-60.6	-74.4	3.8	1.49e+00	0	28	104	2508193792	86	18660
2026-01-15 00:55:56.94	208.60	3.43	-60.6	-74.5	3.8	1.49e+00	0	28	104	2508193792	86	18796
2026-01-15 00:56:00.95	208.61	3.16	-60.6	-74.4	3.8	1.49e+00	0	28	104	2508193792	86	18660
2026-01-15 00:56:04.97	208.62	2.89	-60.5	-74.3	3.8	1.49e+00	0	28	104	2508193792	86	18503
2026-01-15 00:56:08.98	208.63	2.62	-60.5	-74.3	3.8	1.49e+00	0	28	104	2508193792	86	18498
2026-01-15 00:56:13.01	208.64	2.36	-60.5	-74.3	3.8	1.49e+00	0	28	104	2508193792	86	18494
2026-01-15 00:56:17.01	208.65	2.10	-60.5	-74.3	3.8	1.49e+00	0	28	104	2508193792	86	18432

#Closed at: 2026-01-15 00:56:19
#Recorded file [2508 MB]: D:/lorett/data/31004_260115_034149.dat