passes_logs/2026/01/15/R3.2S_Murmansk/R3.2S_Murmansk__20260115_214955_KANOPUS-V_5_rec.log

#Pass ID: 20260115_214955_KANOPUS-V 5
#Satellite: KANOPUS-V 5
#Configuration: KANOPUS-V_8320
#almurnet v.1.7.20251203
#Start time: 2026-01-15 21:49:56

#Version: 2.2.20231116
#Station: R3.2S_Murmansk
#Location: 33.079688 lon 68.888172 lat
#TLE: 1 43876U 18111A   26015.49905314  .00001973  00000+0  85765-4 0  9993
#TLE: 2 43876  97.3687 284.0041 0001787  87.7096 272.4345 15.23439440391543

#Time	Az	El	Level	Level2	SNR	BER	BlckErr	Temp	State	Recorded	gain1	gain2
2026-01-15 21:49:56.43	20.84	2.07	-57.4	-66.3	3.8	7.44e-01	0	42	0	0	86	9962
2026-01-15 21:49:59.46	20.92	2.28	-57.4	-66.3	3.8	7.45e-01	0	42	104	0	85	10562
2026-01-15 21:50:02.49	21.00	2.49	-57.4	-66.2	3.8	7.44e-01	0	42	104	0	85	10498
2026-01-15 21:50:05.52	21.08	2.71	-57.4	-66.2	3.8	7.44e-01	0	43	104	0	85	10518
2026-01-15 21:50:08.55	21.16	2.93	-57.4	-66.2	3.8	7.47e-01	0	42	104	0	85	10500
2026-01-15 21:50:11.58	21.24	3.15	-57.3	-66.2	3.8	7.45e-01	0	43	104	0	85	10489
2026-01-15 21:50:14.61	21.33	3.37	-57.3	-66.2	3.8	7.46e-01	0	43	104	0	85	10475
2026-01-15 21:50:17.64	21.41	3.59	-57.2	-66.2	3.8	7.45e-01	0	43	104	0	85	10493
2026-01-15 21:50:20.67	21.50	3.82	-57.3	-66.2	3.8	7.46e-01	0	43	104	0	85	10458
2026-01-15 21:50:23.70	21.59	4.05	-57.3	-66.2	3.8	7.45e-01	0	43	104	0	85	10491
2026-01-15 21:50:26.73	21.68	4.28	-57.3	-66.2	3.8	7.44e-01	0	44	104	0	85	10489
2026-01-15 21:50:29.76	21.77	4.51	-57.4	-66.2	3.8	7.44e-01	0	44	104	0	85	10501
2026-01-15 21:50:32.79	21.86	4.75	-57.3	-66.2	3.8	7.45e-01	0	44	104	0	85	10490
2026-01-15 21:50:35.82	21.96	4.99	-57.4	-66.2	3.8	7.44e-01	0	44	104	0	85	10522
2026-01-15 21:50:38.85	22.06	5.23	-57.3	-66.2	3.8	7.46e-01	0	44	104	0	85	10455
2026-01-15 21:50:41.88	22.15	5.48	-57.5	-66.4	3.8	7.46e-01	0	44	104	0	85	10749
2026-01-15 21:50:44.91	22.25	5.73	-57.5	-66.4	3.8	7.46e-01	0	44	104	0	85	10746
2026-01-15 21:50:47.94	22.36	5.98	-57.5	-66.3	3.8	7.45e-01	0	44	104	0	85	10607
2026-01-15 21:50:50.97	22.46	6.24	-57.5	-66.4	3.8	7.45e-01	0	45	104	0	85	10678
2026-01-15 21:50:54.00	22.57	6.49	-57.7	-66.5	3.8	7.45e-01	0	45	104	0	85	10843
2026-01-15 21:50:57.03	22.68	6.76	-57.7	-66.5	3.8	7.45e-01	0	45	104	0	85	10864
2026-01-15 21:51:00.05	22.79	7.02	-57.6	-66.4	3.8	7.46e-01	0	45	104	0	85	10768
2026-01-15 21:51:03.08	22.90	7.29	-57.6	-66.5	3.8	7.46e-01	0	45	104	0	86	10215
2026-01-15 21:51:06.11	23.01	7.57	-57.8	-66.7	3.8	7.44e-01	0	45	104	0	86	10423
2026-01-15 21:51:09.14	23.13	7.84	-57.8	-66.6	3.8	7.45e-01	0	45	104	0	86	10408
2026-01-15 21:51:12.17	23.25	8.12	-57.7	-66.6	3.8	7.45e-01	0	45	104	0	86	10340
2026-01-15 21:51:15.19	23.38	8.41	-57.8	-66.6	3.8	7.45e-01	0	46	104	0	86	10383
2026-01-15 21:51:18.22	23.50	8.70	-57.9	-66.8	3.8	7.43e-01	0	46	104	0	86	10554
2026-01-15 21:51:21.25	23.63	8.99	-57.9	-66.8	3.8	7.45e-01	0	46	104	0	86	10569
2026-01-15 21:51:24.28	23.76	9.29	-57.9	-66.7	3.8	7.45e-01	0	46	104	0	86	10472
2026-01-15 21:51:27.31	23.90	9.60	-57.9	-66.7	3.8	7.46e-01	0	46	104	0	86	10518
2026-01-15 21:51:30.34	24.03	9.90	-58.0	-66.8	3.8	7.45e-01	0	46	104	0	86	10609
2026-01-15 21:51:33.37	24.17	10.22	-58.0	-66.9	3.8	7.46e-01	0	46	104	0	86	10689
2026-01-15 21:51:36.40	24.32	10.54	-57.9	-66.8	3.8	7.45e-01	0	46	104	0	86	10620
2026-01-15 21:51:39.43	24.47	10.86	-58.0	-66.8	3.8	7.45e-01	0	46	104	0	86	10567
2026-01-15 21:51:42.45	24.62	11.19	-58.0	-66.8	3.8	7.46e-01	0	46	104	0	86	10646
2026-01-15 21:51:45.48	24.77	11.53	-58.1	-66.9	3.8	7.43e-01	0	46	104	0	86	10728
2026-01-15 21:51:48.51	24.93	11.87	-58.0	-66.9	3.8	7.44e-01	0	46	104	0	86	10735
2026-01-15 21:51:51.54	25.10	12.22	-58.0	-66.9	3.8	7.44e-01	0	47	104	0	86	10703
2026-01-15 21:51:54.57	25.27	12.57	-58.1	-66.9	3.8	7.44e-01	0	46	104	0	86	10755
2026-01-15 21:51:57.60	25.44	12.94	-58.1	-67.0	3.8	7.45e-01	0	46	104	0	86	10850
2026-01-15 21:52:00.63	25.62	13.31	-58.1	-67.0	3.8	7.44e-01	0	47	104	0	86	10866
2026-01-15 21:52:03.65	25.80	13.68	-58.1	-67.0	3.8	7.45e-01	0	47	104	0	86	10813
2026-01-15 21:52:06.68	25.99	14.07	-58.2	-67.0	3.8	7.46e-01	0	47	104	0	86	10857
2026-01-15 21:52:09.71	26.18	14.46	-58.2	-67.1	3.8	7.47e-01	0	47	104	0	86	10916
2026-01-15 21:52:12.74	26.38	14.86	-58.2	-67.1	3.8	7.46e-01	0	47	104	0	86	10927
2026-01-15 21:52:15.77	26.59	15.27	-58.2	-67.0	3.8	7.45e-01	0	47	104	0	87	10291
2026-01-15 21:52:18.80	26.80	15.69	-58.2	-67.1	3.8	7.44e-01	0	47	104	0	87	10349
2026-01-15 21:52:21.83	27.02	16.11	-58.3	-67.2	3.8	7.46e-01	0	47	104	0	87	10434
2026-01-15 21:52:24.86	27.24	16.55	-58.3	-67.1	3.8	7.45e-01	0	47	104	0	87	10379
2026-01-15 21:52:27.89	27.48	17.00	-58.3	-67.1	3.8	7.46e-01	0	47	104	0	87	10370
2026-01-15 21:52:30.92	27.72	17.45	-58.3	-67.2	3.8	7.47e-01	0	47	104	0	87	10417
2026-01-15 21:52:33.95	27.97	17.92	-58.3	-67.2	3.8	7.45e-01	0	47	104	0	87	10474
2026-01-15 21:52:36.98	28.23	18.40	-58.3	-67.2	3.8	7.45e-01	0	47	104	0	87	10477
2026-01-15 21:52:40.01	28.49	18.89	-58.3	-67.2	3.8	7.45e-01	0	48	104	0	87	10482
2026-01-15 21:52:43.03	28.77	19.39	-58.3	-67.2	3.8	7.46e-01	0	47	104	0	87	10483
2026-01-15 21:52:46.06	29.06	19.91	-58.4	-67.3	3.8	7.44e-01	0	47	104	0	87	10545
2026-01-15 21:52:49.09	29.36	20.44	-58.4	-67.2	3.8	7.45e-01	0	47	104	0	87	10516
2026-01-15 21:52:52.12	29.67	20.98	-58.4	-67.2	3.8	7.46e-01	0	48	104	0	87	10531
2026-01-15 21:52:55.15	29.99	21.54	-58.4	-67.3	3.8	7.45e-01	0	48	104	0	87	10561
2026-01-15 21:52:58.18	30.33	22.11	-58.4	-67.3	3.8	7.46e-01	0	48	104	0	87	10621
2026-01-15 21:53:01.20	30.68	22.70	-58.5	-67.3	3.8	7.44e-01	0	48	104	0	87	10621
2026-01-15 21:53:04.23	31.04	23.30	-58.4	-67.3	3.8	7.44e-01	0	48	104	0	87	10589
2026-01-15 21:53:07.26	31.42	23.93	-58.5	-67.3	3.8	7.46e-01	0	48	104	0	87	10652
2026-01-15 21:53:10.29	31.82	24.56	-58.5	-67.4	3.8	7.45e-01	0	48	104	0	87	10670
2026-01-15 21:53:13.32	32.23	25.22	-58.5	-67.4	3.8	7.45e-01	0	48	104	0	87	10704
2026-01-15 21:53:16.35	32.67	25.90	-58.5	-67.4	3.8	7.46e-01	0	48	104	0	87	10722
2026-01-15 21:53:19.37	33.12	26.59	-58.5	-67.4	3.8	7.46e-01	0	48	104	0	87	10663
2026-01-15 21:53:22.40	33.60	27.31	-58.6	-67.4	3.8	7.44e-01	0	48	104	0	87	10767
2026-01-15 21:53:25.43	34.10	28.05	-58.6	-67.5	3.8	7.46e-01	0	48	104	0	87	10789
2026-01-15 21:53:28.46	34.63	28.81	-58.6	-67.4	3.8	7.46e-01	0	48	104	0	87	10738
2026-01-15 21:53:31.49	35.18	29.59	-58.6	-67.4	3.8	7.45e-01	0	48	104	0	87	10752
2026-01-15 21:53:34.52	35.77	30.40	-58.6	-67.4	3.8	7.45e-01	0	48	104	0	87	10775
2026-01-15 21:53:37.55	36.38	31.24	-58.6	-67.5	3.8	7.45e-01	0	48	104	0	87	10836
2026-01-15 21:53:40.57	37.03	32.09	-58.6	-67.5	3.8	7.44e-01	0	48	104	0	87	10849
2026-01-15 21:53:43.61	37.73	32.98	-58.6	-67.5	3.8	7.45e-01	0	48	104	0	87	10821
2026-01-15 21:53:46.63	38.46	33.89	-58.7	-67.5	3.8	7.44e-01	0	48	104	0	87	10864
2026-01-15 21:53:49.66	39.23	34.83	-58.7	-67.6	3.8	7.45e-01	0	48	104	0	87	10911
2026-01-15 21:53:52.69	40.06	35.79	-58.7	-67.5	3.8	7.47e-01	0	48	104	0	87	10884
2026-01-15 21:53:55.72	40.94	36.79	-58.7	-67.6	3.8	7.45e-01	0	49	104	0	87	10915
2026-01-15 21:53:58.75	41.87	37.81	-58.7	-67.6	3.8	7.44e-01	0	48	104	0	88	10298
2026-01-15 21:54:01.77	42.87	38.86	-58.7	-67.6	3.8	7.45e-01	0	48	104	0	88	10332
2026-01-15 21:54:04.81	43.95	39.94	-58.7	-67.6	3.8	7.44e-01	0	48	104	0	88	10373
2026-01-15 21:54:07.84	45.10	41.05	-58.7	-67.6	3.8	7.46e-01	0	48	104	0	88	10328
2026-01-15 21:54:10.87	46.33	42.19	-58.7	-67.6	3.8	7.45e-01	0	48	104	0	88	10339
2026-01-15 21:54:13.89	47.66	43.34	-58.8	-67.6	3.8	7.46e-01	0	48	104	0	88	10403
2026-01-15 21:54:16.92	49.09	44.53	-58.8	-67.6	3.8	7.45e-01	0	48	104	0	88	10398
2026-01-15 21:54:19.95	50.64	45.73	-58.8	-67.6	3.8	7.46e-01	0	49	104	0	88	10387
2026-01-15 21:54:22.98	52.32	46.95	-58.8	-67.7	3.8	7.45e-01	0	48	104	0	88	10438
2026-01-15 21:54:26.01	54.13	48.19	-58.8	-67.7	3.8	7.46e-01	0	49	104	0	88	10458
2026-01-15 21:54:29.04	56.11	49.43	-58.8	-67.7	3.8	7.48e-01	0	48	104	0	88	10452
2026-01-15 21:54:32.07	58.25	50.67	-58.8	-67.7	3.8	7.44e-01	0	49	104	0	88	10483
2026-01-15 21:54:35.10	60.58	51.90	-58.8	-67.7	3.8	7.45e-01	0	49	104	0	88	10445
2026-01-15 21:54:38.13	63.11	53.12	-58.8	-67.7	3.8	7.46e-01	0	49	104	0	88	10474
2026-01-15 21:54:41.15	65.86	54.31	-58.8	-67.7	3.8	7.47e-01	0	49	104	0	88	10505
2026-01-15 21:54:44.18	68.85	55.45	-58.8	-67.7	3.8	7.45e-01	0	49	104	0	88	10513
2026-01-15 21:54:47.21	72.09	56.55	-58.8	-67.7	3.8	7.46e-01	0	49	104	0	88	10496
2026-01-15 21:54:50.24	75.60	57.57	-58.8	-67.7	3.8	7.47e-01	0	49	104	0	88	10493
2026-01-15 21:54:53.27	79.37	58.50	-58.9	-67.7	3.8	7.45e-01	0	49	104	0	88	10502
2026-01-15 21:54:56.30	83.41	59.33	-58.8	-67.8	3.8	7.45e-01	0	49	104	0	88	10539
2026-01-15 21:54:59.33	87.69	60.03	-58.8	-67.7	3.8	7.45e-01	0	49	104	0	88	10481
2026-01-15 21:55:02.35	92.17	60.59	-58.8	-67.7	3.8	7.46e-01	0	49	104	0	88	10491
2026-01-15 21:55:05.38	96.85	61.00	-58.9	-67.7	3.8	7.45e-01	0	49	104	0	88	10500
2026-01-15 21:55:08.41	101.65	61.24	-58.9	-67.7	3.8	7.47e-01	0	49	104	0	88	10518
2026-01-15 21:55:11.44	106.51	61.30	-58.8	-67.8	3.8	7.45e-01	0	49	104	0	88	10550
2026-01-15 21:55:14.46	111.34	61.19	-58.9	-67.8	3.8	7.46e-01	0	49	104	0	88	10553
2026-01-15 21:55:17.49	116.12	60.91	-58.9	-67.7	3.8	7.46e-01	0	49	104	0	88	10518
2026-01-15 21:55:20.52	120.75	60.46	-58.9	-67.7	3.8	7.45e-01	0	49	104	0	88	10510
2026-01-15 21:55:23.55	125.20	59.86	-58.8	-67.7	3.8	7.45e-01	0	49	104	0	88	10531
2026-01-15 21:55:26.58	129.42	59.12	-58.8	-67.7	3.8	7.46e-01	0	49	104	0	88	10457
2026-01-15 21:55:29.61	133.39	58.26	-58.9	-67.8	3.8	7.44e-01	0	49	104	0	88	10556
2026-01-15 21:55:32.64	137.10	57.30	-58.8	-67.7	3.8	7.46e-01	0	49	104	0	88	10506
2026-01-15 21:55:35.66	140.53	56.26	-58.8	-67.7	3.8	7.45e-01	0	49	104	0	88	10505
2026-01-15 21:55:38.69	143.71	55.15	-58.8	-67.7	3.8	7.44e-01	0	49	104	0	88	10470
2026-01-15 21:55:41.72	146.64	53.98	-58.8	-67.7	3.8	7.44e-01	0	49	104	0	88	10482
2026-01-15 21:55:44.75	149.34	52.78	-58.8	-67.8	3.8	7.45e-01	0	49	104	0	88	10537
2026-01-15 21:55:47.78	151.82	51.55	-58.8	-67.7	3.8	7.46e-01	0	49	104	0	88	10519
2026-01-15 21:55:50.81	154.10	50.31	-58.8	-67.7	3.8	7.45e-01	0	49	104	0	88	10469
2026-01-15 21:55:53.84	156.20	49.07	-58.8	-67.7	3.8	7.44e-01	0	49	104	0	88	10469
2026-01-15 21:55:56.86	158.12	47.83	-58.8	-67.7	3.8	7.45e-01	0	49	104	0	88	10456
2026-01-15 21:55:59.89	159.90	46.59	-58.8	-67.7	3.8	7.45e-01	0	49	104	0	88	10460
2026-01-15 21:56:02.92	161.54	45.37	-58.8	-67.7	3.8	7.46e-01	0	49	104	0	88	10416
2026-01-15 21:56:05.95	163.06	44.17	-58.8	-67.7	3.8	7.44e-01	0	49	104	0	88	10419
2026-01-15 21:56:08.98	164.47	42.99	-58.8	-67.7	3.8	7.44e-01	0	49	104	0	88	10425
2026-01-15 21:56:12.00	165.77	41.83	-58.8	-67.6	3.8	7.44e-01	0	49	104	0	88	10387
2026-01-15 21:56:15.03	166.98	40.70	-58.7	-67.6	3.8	7.46e-01	0	49	104	0	88	10412
2026-01-15 21:56:18.06	168.11	39.60	-58.7	-67.7	3.8	7.49e-01	0	49	104	0	88	10422
2026-01-15 21:56:21.09	169.17	38.52	-58.7	-67.6	3.8	7.46e-01	0	49	104	0	88	10386
2026-01-15 21:56:24.12	170.15	37.47	-58.7	-67.6	3.8	7.46e-01	0	49	104	0	88	10330
2026-01-15 21:56:27.15	171.07	36.45	-58.7	-67.6	3.8	7.45e-01	0	49	104	0	88	10344
2026-01-15 21:56:30.18	171.94	35.46	-58.7	-67.6	3.8	7.45e-01	0	49	104	0	88	10332
2026-01-15 21:56:33.21	172.75	34.50	-58.7	-67.5	3.8	7.45e-01	0	49	104	0	88	10247
2026-01-15 21:56:36.24	173.51	33.56	-58.6	-67.5	3.8	7.45e-01	0	49	104	0	88	10289
2026-01-15 21:56:39.27	174.24	32.66	-58.6	-67.5	3.8	7.46e-01	0	49	104	0	88	10288
2026-01-15 21:56:42.29	174.91	31.78	-58.6	-67.5	3.8	7.46e-01	0	49	104	0	88	10243
2026-01-15 21:56:45.32	175.56	30.92	-58.6	-67.5	3.8	7.45e-01	0	49	104	0	88	10226
2026-01-15 21:56:48.35	176.16	30.10	-58.6	-67.5	3.8	7.44e-01	0	49	104	0	88	10194
2026-01-15 21:56:51.38	176.74	29.29	-58.6	-67.4	3.8	7.45e-01	0	49	104	0	88	10171
2026-01-15 21:56:54.41	177.29	28.51	-58.6	-67.4	3.8	7.46e-01	0	49	104	0	88	10158
2026-01-15 21:56:57.44	177.81	27.75	-58.5	-67.4	3.8	7.44e-01	0	49	104	0	88	10141
2026-01-15 21:57:00.47	178.30	27.02	-58.5	-67.4	3.8	7.46e-01	0	49	104	0	88	10109
2026-01-15 21:57:03.50	178.77	26.30	-58.5	-67.4	3.8	7.46e-01	0	49	104	0	88	10081
2026-01-15 21:57:06.52	179.22	25.61	-58.5	-67.4	3.8	7.45e-01	0	49	104	0	88	10100
2026-01-15 21:57:09.55	179.65	24.94	-58.5	-67.3	3.8	7.45e-01	0	49	104	0	88	10056
2026-01-15 21:57:12.58	180.06	24.28	-58.5	-67.3	3.8	7.45e-01	0	49	104	0	88	10039
2026-01-15 21:57:15.61	180.45	23.65	-58.4	-67.3	3.8	7.46e-01	0	49	104	0	88	9997
2026-01-15 21:57:18.64	180.83	23.03	-58.4	-67.3	3.8	7.46e-01	0	49	104	0	88	10036
2026-01-15 21:57:21.67	181.19	22.43	-58.4	-67.3	3.8	7.45e-01	0	49	104	0	88	10012
2026-01-15 21:57:24.69	181.53	21.84	-58.4	-67.3	3.8	7.45e-01	0	49	104	0	88	9980
2026-01-15 21:57:27.72	181.86	21.27	-58.4	-67.3	3.8	7.46e-01	0	49	104	0	88	9948
2026-01-15 21:57:30.75	182.18	20.72	-58.4	-67.2	3.8	7.45e-01	0	49	104	0	88	9941
2026-01-15 21:57:33.78	182.49	20.18	-58.3	-67.2	3.8	7.46e-01	0	49	104	0	88	9884
2026-01-15 21:57:36.81	182.78	19.65	-58.3	-67.2	3.8	7.47e-01	0	49	104	0	88	9903
2026-01-15 21:57:39.84	183.07	19.14	-58.3	-67.2	3.8	7.44e-01	0	49	104	0	88	9880
2026-01-15 21:57:42.87	183.34	18.64	-58.3	-67.2	3.8	7.45e-01	0	49	104	0	88	9857
2026-01-15 21:57:45.90	183.61	18.15	-58.3	-67.1	3.8	7.47e-01	0	50	104	0	88	9823
2026-01-15 21:57:48.92	183.86	17.67	-58.3	-67.1	3.8	7.43e-01	0	49	104	0	88	9787
2026-01-15 21:57:51.95	184.11	17.20	-58.2	-67.1	3.8	7.45e-01	0	49	104	0	88	9794
2026-01-15 21:57:54.98	184.35	16.75	-58.2	-67.1	3.8	7.45e-01	0	49	104	0	88	9788
2026-01-15 21:57:58.01	184.58	16.30	-58.2	-67.1	3.8	7.43e-01	0	49	104	0	88	9742
2026-01-15 21:58:01.04	184.80	15.87	-58.2	-67.1	3.8	7.45e-01	0	49	104	0	88	9777
2026-01-15 21:58:04.06	185.02	15.44	-58.2	-67.1	3.8	7.43e-01	0	49	104	0	88	9731
2026-01-15 21:58:07.09	185.23	15.03	-58.2	-67.1	3.8	7.43e-01	0	49	104	0	88	9738
2026-01-15 21:58:10.12	185.43	14.62	-58.1	-67.0	3.8	7.46e-01	0	49	104	0	88	9671
2026-01-15 21:58:13.15	185.63	14.22	-58.1	-67.0	3.8	7.45e-01	0	49	104	0	88	9664
2026-01-15 21:58:16.18	185.82	13.83	-58.1	-66.9	3.8	7.45e-01	0	49	104	0	88	9604
2026-01-15 21:58:19.21	186.00	13.45	-58.1	-67.0	3.8	7.45e-01	0	50	104	0	88	9646
2026-01-15 21:58:22.24	186.18	13.07	-58.1	-67.0	3.8	7.46e-01	0	49	104	0	88	9608
2026-01-15 21:58:25.26	186.36	12.70	-58.1	-66.9	3.8	7.46e-01	0	49	104	0	88	9572
2026-01-15 21:58:28.29	186.53	12.34	-58.0	-66.9	3.8	7.44e-01	0	50	104	0	88	9519
2026-01-15 21:58:31.32	186.69	11.99	-58.0	-66.9	3.8	7.45e-01	0	49	104	0	88	9554
2026-01-15 21:58:34.35	186.86	11.64	-58.0	-66.9	3.8	7.46e-01	0	49	104	0	88	9566
2026-01-15 21:58:37.38	187.01	11.30	-58.0	-66.9	3.8	7.45e-01	0	49	104	0	87	10105
2026-01-15 21:58:40.41	187.17	10.96	-58.0	-66.8	3.8	7.44e-01	0	49	104	0	87	10042
2026-01-15 21:58:43.44	187.32	10.63	-58.0	-66.8	3.8	7.45e-01	0	49	104	0	87	10043
2026-01-15 21:58:46.47	187.46	10.31	-58.0	-66.8	3.8	7.46e-01	0	50	104	0	87	9992
2026-01-15 21:58:49.50	187.60	9.99	-57.9	-66.8	3.8	7.45e-01	0	49	104	0	87	9980
2026-01-15 21:58:52.53	187.74	9.68	-57.9	-66.8	3.8	7.44e-01	0	49	104	0	87	9965
2026-01-15 21:58:55.55	187.88	9.37	-57.9	-66.7	3.8	7.44e-01	0	49	104	0	87	9900
2026-01-15 21:58:58.58	188.01	9.07	-57.9	-66.7	3.8	7.46e-01	0	49	104	0	87	9934
2026-01-15 21:59:01.61	188.14	8.77	-57.8	-66.7	3.8	7.45e-01	0	49	104	0	87	9879
2026-01-15 21:59:04.64	188.26	8.48	-57.8	-66.7	3.8	7.45e-01	0	50	104	0	87	9878
2026-01-15 21:59:07.68	188.39	8.19	-57.8	-66.6	3.8	7.45e-01	0	49	104	0	87	9797
2026-01-15 21:59:10.70	188.51	7.90	-57.8	-66.7	3.8	7.44e-01	0	50	104	0	87	9856
2026-01-15 21:59:13.74	188.63	7.62	-57.7	-66.6	3.8	7.45e-01	0	50	104	0	87	9734
2026-01-15 21:59:16.77	188.74	7.34	-57.7	-66.5	3.8	7.47e-01	0	50	104	0	87	9713
2026-01-15 21:59:19.80	188.86	7.07	-57.6	-66.5	3.8	7.46e-01	0	49	104	0	87	9659
2026-01-15 21:59:22.82	188.97	6.80	-57.7	-66.5	3.8	7.46e-01	0	49	104	0	87	9675
2026-01-15 21:59:25.85	189.07	6.54	-57.5	-66.4	3.8	7.46e-01	0	50	104	0	87	9536
2026-01-15 21:59:28.88	189.18	6.28	-57.6	-66.5	3.8	7.44e-01	0	49	104	0	87	9624
2026-01-15 21:59:31.91	189.29	6.02	-57.5	-66.3	3.8	7.45e-01	0	50	104	0	86	9999
2026-01-15 21:59:34.94	189.39	5.76	-57.5	-66.4	3.8	7.45e-01	0	50	104	0	86	10107
2026-01-15 21:59:37.97	189.49	5.51	-57.3	-66.2	3.8	7.45e-01	0	49	104	0	86	9903
2026-01-15 21:59:41.00	189.59	5.26	-57.4	-66.3	3.8	7.45e-01	0	50	104	0	86	10008
2026-01-15 21:59:44.03	189.68	5.02	-57.3	-66.2	3.8	7.47e-01	0	49	104	0	86	9832
2026-01-15 21:59:47.06	189.78	4.77	-58.2	-67.1	3.8	7.45e-01	0	50	104	0	87	10379
2026-01-15 21:59:50.09	189.87	4.53	-58.6	-67.5	3.8	7.45e-01	0	49	104	0	87	10840
2026-01-15 21:59:53.12	189.96	4.30	-58.8	-67.7	3.8	7.45e-01	0	50	104	0	88	10453
2026-01-15 21:59:56.15	190.05	4.06	-58.9	-67.8	3.8	7.45e-01	0	49	104	0	88	10639
2026-01-15 21:59:59.18	190.14	3.83	-59.0	-67.9	3.8	7.44e-01	0	50	104	0	88	10749
2026-01-15 22:00:02.22	190.22	3.60	-59.1	-68.0	3.8	7.45e-01	0	50	104	0	88	10862
2026-01-15 22:00:05.25	190.31	3.38	-59.1	-68.0	3.8	7.46e-01	0	49	104	0	88	10804
2026-01-15 22:00:08.28	190.39	3.15	-59.1	-68.0	3.8	7.45e-01	0	50	104	0	88	10784
2026-01-15 22:00:11.31	190.47	2.93	-59.0	-67.9	3.8	7.45e-01	0	49	104	0	88	10770
2026-01-15 22:00:14.34	190.56	2.71	-59.0	-67.9	3.8	7.46e-01	0	50	104	0	88	10721
2026-01-15 22:00:17.37	190.63	2.49	-59.0	-67.9	3.8	7.44e-01	0	49	104	0	88	10728
2026-01-15 22:00:20.40	190.71	2.28	-59.0	-67.9	3.8	7.44e-01	0	49	104	0	88	10676
2026-01-15 22:00:23.43	190.79	2.07	-59.0	-67.9	3.8	7.45e-01	0	49	104	0	88	10664

#Closed at: 2026-01-15 22:00:25
#Recorded file [0 MB]: D:/lorett/data/31041_260116_004956.dat