passes_logs/2026/01/15/R3.2S_Murmansk/R3.2S_Murmansk__20260115_083227_2024-110A_rec.log

#Pass ID: 20260115_083227_2024-110A
#Satellite: 2024-110A
#Configuration: 01B_900M
#almurnet v.1.7.20251203
#Start time: 2026-01-15 08:32:29

#Version: 2.2.20231116
#Station: R3.2S_Murmansk
#Location: 33.079688 lon 68.888172 lat
#TLE: 1 60012U 24110A   26014.61020317  .00004527  00000+0  27571-3 0  9992
#TLE: 2 60012  97.5746 107.6203 0010233  68.3028 291.9290 15.10856151 88702

#Time	Az	El	Level	Level2	SNR	BER	BlckErr	Temp	State	Recorded	gain1	gain2
2026-01-15 08:32:29.41	23.49	2.10	-57.5	-60.8	6.1	0.00e+00	0	29	0	0	80	22690
2026-01-15 08:32:32.44	23.79	2.27	-57.6	-60.8	6.1	0.00e+00	0	28	104	0	81	21437
2026-01-15 08:32:35.46	24.10	2.45	-57.6	-60.8	6.2	0.00e+00	0	28	104	0	81	21472
2026-01-15 08:32:38.48	24.41	2.62	-57.6	-60.8	6.1	0.00e+00	0	29	104	0	80	22752
2026-01-15 08:32:41.51	24.73	2.80	-57.6	-60.8	6.1	0.00e+00	0	29	104	0	80	22797
2026-01-15 08:32:44.53	25.05	2.98	-57.6	-60.8	6.1	0.00e+00	0	29	104	0	80	22746
2026-01-15 08:32:47.56	25.37	3.16	-57.6	-60.8	6.2	0.00e+00	0	29	104	0	80	22755
2026-01-15 08:32:50.58	25.70	3.34	-57.6	-60.8	6.1	0.00e+00	0	29	104	0	80	22764
2026-01-15 08:32:53.61	26.04	3.52	-57.6	-60.8	6.2	0.00e+00	0	29	104	0	80	22756
2026-01-15 08:32:56.64	26.38	3.70	-57.6	-60.8	6.1	0.00e+00	0	29	104	0	80	22824
2026-01-15 08:32:59.67	26.73	3.88	-57.6	-60.8	6.2	0.00e+00	0	29	104	0	80	22713
2026-01-15 08:33:02.69	27.08	4.07	-57.6	-60.8	6.2	0.00e+00	0	29	104	0	80	22821
2026-01-15 08:33:05.71	27.43	4.25	-57.6	-60.8	6.1	0.00e+00	0	29	104	0	80	22837
2026-01-15 08:33:08.74	27.79	4.44	-57.6	-60.8	6.2	0.00e+00	0	29	104	0	80	22809
2026-01-15 08:33:11.76	28.16	4.62	-57.5	-60.8	6.1	0.00e+00	0	29	104	0	80	22746
2026-01-15 08:33:14.78	28.53	4.81	-57.5	-60.8	6.2	0.00e+00	0	29	104	0	80	22666
2026-01-15 08:33:17.81	28.91	5.00	-57.6	-60.8	6.2	0.00e+00	0	29	104	0	80	22685
2026-01-15 08:33:20.83	29.29	5.19	-57.6	-60.9	6.2	0.00e+00	0	29	104	0	81	21665
2026-01-15 08:33:23.85	29.68	5.37	-57.8	-61.0	6.2	0.00e+00	0	29	104	0	81	21909
2026-01-15 08:33:26.88	30.08	5.56	-57.9	-61.1	6.1	0.00e+00	0	30	104	0	81	22177
2026-01-15 08:33:29.90	30.48	5.76	-57.6	-60.8	6.2	0.00e+00	0	29	104	0	81	21578
2026-01-15 08:33:32.93	30.89	5.95	-57.8	-61.0	6.1	0.00e+00	0	30	104	0	81	21972
2026-01-15 08:33:35.95	31.30	6.14	-57.9	-61.1	6.1	0.00e+00	0	30	104	0	81	22307
2026-01-15 08:33:38.98	31.72	6.33	-58.0	-61.2	6.1	0.00e+00	0	30	104	0	81	22454
2026-01-15 08:33:42.00	32.15	6.53	-57.9	-61.1	6.2	0.00e+00	0	30	104	0	81	22259
2026-01-15 08:33:45.03	32.58	6.72	-58.0	-61.2	6.2	0.00e+00	0	30	104	0	81	22531
2026-01-15 08:33:48.06	33.02	6.92	-58.1	-61.4	6.1	0.00e+00	0	30	104	0	82	21733
2026-01-15 08:33:51.07	33.47	7.11	-58.3	-61.5	6.1	0.00e+00	0	30	104	0	82	22002
2026-01-15 08:33:54.10	33.93	7.31	-58.1	-61.3	6.1	0.00e+00	0	30	104	0	82	21597
2026-01-15 08:33:57.12	34.39	7.51	-58.2	-61.4	6.2	0.00e+00	0	30	104	0	82	21795
2026-01-15 08:34:00.13	34.86	7.70	-58.3	-61.5	6.2	0.00e+00	0	30	104	0	82	21997
2026-01-15 08:34:03.16	35.34	7.90	-58.4	-61.5	6.1	0.00e+00	0	30	104	0	82	22106
2026-01-15 08:34:06.18	35.82	8.10	-58.3	-61.5	6.1	0.00e+00	0	30	104	0	82	21942
2026-01-15 08:34:09.20	36.31	8.30	-58.3	-61.6	6.2	0.00e+00	0	30	104	0	82	22178
2026-01-15 08:34:12.23	36.82	8.50	-58.3	-61.5	6.1	0.00e+00	0	30	104	0	82	22076
2026-01-15 08:34:15.25	37.32	8.70	-58.5	-61.7	6.2	0.00e+00	0	30	104	0	82	22445
2026-01-15 08:34:18.27	37.84	8.90	-58.3	-61.6	6.1	0.00e+00	0	30	104	0	82	22155
2026-01-15 08:34:21.30	38.37	9.11	-58.4	-61.6	6.1	0.00e+00	0	30	104	0	82	22292
2026-01-15 08:34:24.32	38.90	9.31	-58.4	-61.7	6.2	0.00e+00	0	30	104	0	82	22392
2026-01-15 08:34:27.35	39.45	9.51	-58.5	-61.7	6.1	0.00e+00	0	30	104	0	82	22526
2026-01-15 08:34:30.37	40.00	9.71	-58.5	-61.7	6.1	0.00e+00	0	30	104	0	82	22416
2026-01-15 08:34:33.38	40.56	9.91	-58.5	-61.7	6.2	0.00e+00	0	31	104	0	82	22534
2026-01-15 08:34:36.41	41.13	10.11	-58.5	-61.6	6.1	0.00e+00	0	30	104	0	82	22306
2026-01-15 08:34:39.43	41.71	10.31	-58.5	-61.7	6.1	0.00e+00	0	30	104	0	82	22618
2026-01-15 08:34:42.45	42.30	10.52	-58.5	-61.7	6.1	0.00e+00	0	30	104	0	82	22463
2026-01-15 08:34:45.47	42.90	10.72	-58.5	-61.7	6.1	0.00e+00	0	30	104	0	82	22481
2026-01-15 08:34:48.49	43.51	10.92	-58.6	-61.8	6.2	0.00e+00	0	30	104	0	83	21423
2026-01-15 08:34:51.52	44.13	11.12	-58.7	-61.9	6.2	0.00e+00	0	30	104	0	83	21660
2026-01-15 08:34:54.54	44.75	11.32	-58.6	-61.8	6.1	0.00e+00	0	30	104	0	83	21507
2026-01-15 08:34:57.57	45.39	11.52	-58.6	-61.8	6.2	0.00e+00	0	30	104	0	83	21446
2026-01-15 08:35:00.59	46.04	11.72	-58.6	-61.8	6.2	0.00e+00	0	30	104	0	83	21565
2026-01-15 08:35:03.62	46.70	11.92	-58.7	-61.9	6.2	0.00e+00	0	30	104	0	83	21710
2026-01-15 08:35:06.65	47.37	12.11	-58.7	-61.9	6.2	0.00e+00	0	30	104	0	83	21759
2026-01-15 08:35:09.67	48.05	12.31	-58.7	-61.9	6.1	0.00e+00	0	30	104	0	83	21743
2026-01-15 08:35:12.69	48.74	12.50	-58.7	-61.9	6.1	0.00e+00	0	30	104	0	83	21814
2026-01-15 08:35:15.72	49.44	12.70	-58.7	-61.9	6.2	0.00e+00	0	30	104	0	83	21689
2026-01-15 08:35:18.75	50.15	12.89	-58.8	-62.0	6.2	0.00e+00	0	31	104	0	83	21934
2026-01-15 08:35:21.77	50.87	13.08	-58.7	-62.0	6.2	0.00e+00	0	30	104	0	83	21871
2026-01-15 08:35:24.80	51.61	13.27	-58.7	-61.9	6.2	0.00e+00	0	30	104	0	83	21823
2026-01-15 08:35:27.81	52.35	13.45	-58.8	-62.0	6.2	0.00e+00	0	30	104	0	83	22072
2026-01-15 08:35:30.83	53.10	13.63	-58.8	-62.1	6.1	0.00e+00	0	31	104	0	83	22128
2026-01-15 08:35:33.86	53.87	13.82	-58.8	-62.0	6.2	0.00e+00	0	31	104	0	83	22044
2026-01-15 08:35:36.88	54.64	13.99	-58.8	-62.0	6.1	0.00e+00	0	31	104	0	83	22080
2026-01-15 08:35:39.90	55.43	14.17	-58.8	-62.1	6.2	0.00e+00	0	31	104	0	83	22196
2026-01-15 08:35:42.93	56.23	14.34	-58.9	-62.1	6.1	0.00e+00	0	30	104	0	83	22276
2026-01-15 08:35:45.95	57.04	14.51	-58.8	-62.1	6.1	0.00e+00	0	31	104	0	83	22142
2026-01-15 08:35:48.98	57.86	14.68	-58.8	-62.1	6.1	0.00e+00	0	31	104	0	83	22132
2026-01-15 08:35:52.00	58.68	14.84	-58.8	-62.1	6.2	0.00e+00	0	31	104	0	83	22187
2026-01-15 08:35:55.02	59.52	15.00	-58.9	-62.1	6.2	0.00e+00	0	31	104	0	83	22341
2026-01-15 08:35:58.05	60.37	15.16	-58.9	-62.0	6.1	0.00e+00	0	30	104	0	83	22096
2026-01-15 08:36:01.08	61.24	15.31	-58.9	-62.1	6.2	0.00e+00	0	31	104	0	83	22225
2026-01-15 08:36:04.10	62.10	15.46	-58.9	-62.1	6.2	0.00e+00	0	31	104	0	83	22342
2026-01-15 08:36:07.12	62.98	15.60	-58.9	-62.2	6.1	0.00e+00	0	31	104	0	83	22460
2026-01-15 08:36:10.15	63.87	15.74	-58.9	-62.1	6.1	0.00e+00	0	31	104	0	83	22290
2026-01-15 08:36:13.17	64.77	15.87	-58.9	-62.1	6.1	0.00e+00	0	31	104	0	83	22223
2026-01-15 08:36:16.19	65.67	16.00	-58.9	-62.2	6.1	0.00e+00	0	31	104	0	83	22414
2026-01-15 08:36:19.21	66.59	16.12	-59.0	-62.2	6.1	0.00e+00	0	31	104	0	83	22485
2026-01-15 08:36:22.23	67.51	16.24	-58.9	-62.1	6.1	0.00e+00	0	31	104	0	83	22301
2026-01-15 08:36:25.25	68.44	16.35	-58.9	-62.1	6.2	0.00e+00	0	31	104	0	83	22114
2026-01-15 08:36:28.27	69.38	16.46	-58.9	-62.2	6.2	0.00e+00	0	31	104	0	83	22382
2026-01-15 08:36:31.29	70.33	16.56	-59.0	-62.2	6.2	0.00e+00	0	31	104	0	83	22474
2026-01-15 08:36:34.32	71.28	16.65	-58.9	-62.2	6.1	0.00e+00	0	31	104	0	83	22384
2026-01-15 08:36:37.35	72.25	16.74	-58.9	-62.1	6.1	0.00e+00	0	31	104	0	83	22331
2026-01-15 08:36:40.37	73.21	16.82	-59.0	-62.2	6.1	0.00e+00	0	31	104	0	83	22474
2026-01-15 08:36:43.40	74.19	16.89	-59.0	-62.2	6.1	0.00e+00	0	31	104	0	83	22422
2026-01-15 08:36:46.42	75.16	16.96	-59.0	-62.2	6.1	0.00e+00	0	31	104	0	83	22458
2026-01-15 08:36:49.44	76.14	17.01	-59.0	-62.2	6.2	0.00e+00	0	31	104	0	83	22574
2026-01-15 08:36:52.46	77.13	17.07	-59.0	-62.2	6.2	0.00e+00	0	31	104	0	83	22535
2026-01-15 08:36:55.48	78.12	17.11	-59.0	-62.2	6.1	0.00e+00	0	31	104	0	83	22558
2026-01-15 08:36:58.49	79.10	17.15	-59.0	-62.2	6.2	0.00e+00	0	31	104	0	83	22560
2026-01-15 08:37:01.51	80.10	17.18	-59.0	-62.2	6.1	0.00e+00	0	31	104	0	83	22510
2026-01-15 08:37:04.54	81.10	17.20	-59.0	-62.2	6.1	0.00e+00	0	31	104	0	83	22473
2026-01-15 08:37:07.55	82.09	17.22	-58.9	-62.2	6.2	0.00e+00	0	31	104	0	83	22443
2026-01-15 08:37:10.58	83.09	17.22	-59.0	-62.2	6.1	0.00e+00	0	31	104	0	83	22548
2026-01-15 08:37:13.61	84.10	17.22	-59.0	-62.2	6.1	0.00e+00	0	31	104	0	83	22449
2026-01-15 08:37:16.64	85.10	17.22	-59.0	-62.2	6.1	0.00e+00	0	31	104	0	83	22484
2026-01-15 08:37:19.66	86.10	17.20	-59.0	-62.2	6.2	0.00e+00	0	31	104	0	83	22572
2026-01-15 08:37:22.67	87.09	17.18	-59.0	-62.2	6.1	0.00e+00	0	31	104	0	83	22603
2026-01-15 08:37:25.69	88.08	17.15	-59.0	-62.2	6.2	0.00e+00	0	31	104	0	83	22514
2026-01-15 08:37:28.72	89.08	17.11	-59.0	-62.2	6.2	0.00e+00	0	31	104	0	83	22533
2026-01-15 08:37:31.75	90.07	17.07	-58.9	-62.2	6.1	0.00e+00	0	31	104	0	83	22410
2026-01-15 08:37:34.78	91.06	17.02	-59.0	-62.2	6.2	0.00e+00	0	31	104	0	83	22449
2026-01-15 08:37:37.80	92.04	16.96	-58.9	-62.1	6.2	0.00e+00	0	31	104	0	83	22352
2026-01-15 08:37:40.83	93.02	16.89	-59.0	-62.2	6.2	0.00e+00	0	31	104	0	83	22471
2026-01-15 08:37:43.84	93.99	16.82	-59.0	-62.2	6.2	0.00e+00	0	31	104	0	83	22497
2026-01-15 08:37:46.87	94.96	16.74	-59.0	-62.2	6.2	0.00e+00	0	31	104	0	83	22565
2026-01-15 08:37:49.90	95.93	16.65	-58.9	-62.2	6.1	0.00e+00	0	31	104	0	83	22395
2026-01-15 08:37:52.92	96.88	16.56	-59.0	-62.2	6.1	0.00e+00	0	31	104	0	83	22466
2026-01-15 08:37:55.94	97.83	16.46	-59.0	-62.2	6.1	0.00e+00	0	31	104	0	83	22495
2026-01-15 08:37:58.97	98.77	16.35	-59.0	-62.2	6.2	0.00e+00	0	31	104	0	83	22544
2026-01-15 08:38:02.00	99.70	16.24	-59.0	-62.2	6.1	0.00e+00	0	31	104	0	83	22430
2026-01-15 08:38:05.03	100.63	16.12	-59.0	-62.2	6.1	0.00e+00	0	31	104	0	83	22616
2026-01-15 08:38:08.05	101.55	16.00	-59.0	-62.2	6.2	0.00e+00	0	31	104	0	83	22615
2026-01-15 08:38:11.08	102.46	15.87	-59.0	-62.2	6.1	0.00e+00	0	31	104	0	83	22531
2026-01-15 08:38:14.10	103.36	15.74	-59.0	-62.2	6.1	0.00e+00	0	31	104	0	83	22540
2026-01-15 08:38:17.12	104.25	15.60	-59.0	-62.2	6.1	0.00e+00	0	31	104	0	83	22513
2026-01-15 08:38:20.14	105.13	15.46	-59.0	-62.2	6.2	0.00e+00	0	31	104	0	83	22569
2026-01-15 08:38:23.17	106.00	15.31	-59.0	-62.3	6.2	0.00e+00	0	31	104	0	83	22643
2026-01-15 08:38:26.19	106.86	15.16	-59.0	-62.2	6.2	0.00e+00	0	31	104	0	83	22567
2026-01-15 08:38:29.21	107.71	15.00	-59.0	-62.2	6.2	0.00e+00	0	31	104	0	83	22608
2026-01-15 08:38:32.24	108.55	14.84	-59.0	-62.2	6.2	0.00e+00	0	31	104	0	83	22601
2026-01-15 08:38:35.26	109.38	14.68	-59.0	-62.2	6.1	0.00e+00	0	31	104	0	83	22586
2026-01-15 08:38:38.28	110.20	14.51	-59.0	-62.2	6.2	0.00e+00	0	31	104	0	83	22575
2026-01-15 08:38:41.31	111.01	14.34	-59.0	-62.3	6.2	0.00e+00	0	31	104	0	83	22652
2026-01-15 08:38:44.34	111.81	14.16	-59.0	-62.2	6.2	0.00e+00	0	31	104	0	83	22525
2026-01-15 08:38:47.36	112.60	13.99	-59.0	-62.2	6.1	0.00e+00	0	31	104	0	83	22601
2026-01-15 08:38:50.39	113.38	13.81	-59.0	-62.2	6.2	0.00e+00	0	31	104	0	83	22601
2026-01-15 08:38:53.41	114.14	13.63	-59.0	-62.3	6.1	0.00e+00	0	31	104	0	83	22765
2026-01-15 08:38:56.43	114.90	13.44	-59.0	-62.2	6.2	0.00e+00	0	31	104	0	83	22570
2026-01-15 08:38:59.46	115.65	13.25	-58.9	-62.2	6.2	0.00e+00	0	31	104	0	83	22440
2026-01-15 08:39:02.48	116.38	13.07	-58.9	-62.2	6.2	0.00e+00	0	31	104	0	83	22475
2026-01-15 08:39:05.50	117.10	12.88	-59.0	-62.2	6.2	0.00e+00	0	31	104	0	83	22537
2026-01-15 08:39:08.52	117.81	12.68	-59.0	-62.2	6.1	0.00e+00	0	31	104	0	83	22444
2026-01-15 08:39:11.55	118.52	12.49	-58.9	-62.1	6.2	0.00e+00	0	31	104	0	83	22324
2026-01-15 08:39:14.55	119.20	12.30	-58.9	-62.1	6.2	0.00e+00	0	31	104	0	83	22275
2026-01-15 08:39:17.58	119.89	12.10	-58.8	-62.0	6.2	0.00e+00	0	31	104	0	83	22016
2026-01-15 08:39:20.61	120.56	11.90	-58.8	-62.0	6.2	0.00e+00	0	31	104	0	83	21925
2026-01-15 08:39:23.63	121.22	11.70	-58.7	-62.0	6.2	0.00e+00	0	31	104	0	83	21983
2026-01-15 08:39:26.65	121.87	11.50	-58.7	-62.0	6.1	0.00e+00	0	31	104	0	83	21977
2026-01-15 08:39:29.67	122.51	11.30	-58.7	-61.9	6.2	0.00e+00	0	31	104	0	83	21805
2026-01-15 08:39:32.69	123.13	11.10	-58.7	-61.9	6.2	0.00e+00	0	31	104	0	83	21804
2026-01-15 08:39:35.72	123.76	10.90	-58.7	-61.9	6.1	0.00e+00	0	31	104	0	83	21751
2026-01-15 08:39:38.75	124.37	10.70	-58.7	-61.9	6.1	0.00e+00	0	31	104	0	83	21715
2026-01-15 08:39:41.78	124.97	10.50	-58.6	-61.9	6.1	0.00e+00	0	31	104	0	83	21671
2026-01-15 08:39:44.80	125.56	10.29	-58.6	-61.9	6.2	0.00e+00	0	31	104	0	83	21607
2026-01-15 08:39:47.82	126.14	10.09	-58.5	-61.8	6.2	0.00e+00	0	31	104	0	83	21478
2026-01-15 08:39:50.85	126.71	9.89	-58.6	-61.8	6.1	0.00e+00	0	31	104	0	83	21574
2026-01-15 08:39:53.87	127.27	9.69	-58.5	-61.7	6.1	0.00e+00	0	31	104	0	83	21256
2026-01-15 08:39:56.90	127.83	9.48	-58.5	-61.7	6.1	0.00e+00	0	31	104	0	83	21351
2026-01-15 08:39:59.92	128.37	9.28	-58.5	-61.7	6.2	0.00e+00	0	31	104	0	83	21266
2026-01-15 08:40:02.95	128.91	9.08	-58.5	-61.7	6.2	0.00e+00	0	31	104	0	83	21358
2026-01-15 08:40:05.97	129.43	8.88	-58.4	-61.7	6.2	0.00e+00	0	31	104	0	83	21115
2026-01-15 08:40:08.99	129.95	8.67	-58.4	-61.7	6.2	0.00e+00	0	31	104	0	83	21188
2026-01-15 08:40:12.01	130.46	8.47	-58.4	-61.6	6.2	0.00e+00	0	31	104	0	83	20973
2026-01-15 08:40:15.05	130.97	8.27	-58.4	-61.7	6.2	0.00e+00	0	31	104	0	83	21180
2026-01-15 08:40:18.07	131.46	8.07	-58.3	-61.6	6.2	0.00e+00	0	31	104	0	83	20880
2026-01-15 08:40:21.09	131.94	7.87	-58.3	-61.6	6.1	0.00e+00	0	31	104	0	83	20894
2026-01-15 08:40:24.12	132.42	7.67	-58.3	-61.5	6.1	0.00e+00	0	31	104	0	83	20769
2026-01-15 08:40:27.15	132.89	7.47	-58.4	-61.6	6.1	0.00e+00	0	31	104	0	83	20955
2026-01-15 08:40:30.17	133.36	7.27	-58.2	-61.5	6.2	0.00e+00	0	31	104	0	83	20654
2026-01-15 08:40:33.20	133.81	7.08	-58.2	-61.4	6.2	0.00e+00	0	31	104	0	83	20613
2026-01-15 08:40:36.22	134.26	6.88	-58.2	-61.4	6.2	0.00e+00	0	31	104	0	83	20569
2026-01-15 08:40:39.24	134.70	6.68	-58.3	-61.5	6.2	0.00e+00	0	31	104	0	83	20758
2026-01-15 08:40:42.26	135.13	6.49	-58.1	-61.3	6.2	0.00e+00	0	31	104	0	83	20387
2026-01-15 08:40:45.29	135.56	6.29	-58.1	-61.3	6.2	0.00e+00	0	31	104	0	83	20290
2026-01-15 08:40:48.32	135.98	6.10	-58.0	-61.3	6.2	0.00e+00	0	31	104	0	83	20175
2026-01-15 08:40:51.35	136.40	5.90	-58.1	-61.3	6.1	0.00e+00	0	31	104	0	83	20362
2026-01-15 08:40:54.36	136.80	5.71	-58.0	-61.2	6.2	0.00e+00	0	31	104	0	83	20154
2026-01-15 08:40:57.39	137.21	5.52	-57.9	-61.2	6.1	0.00e+00	0	31	104	0	83	20056
2026-01-15 08:41:00.41	137.60	5.33	-57.9	-61.1	6.1	0.00e+00	0	31	104	0	82	20992
2026-01-15 08:41:03.44	137.99	5.14	-57.9	-61.1	6.2	0.00e+00	0	31	104	0	82	21094
2026-01-15 08:41:06.46	138.37	4.95	-58.2	-61.4	6.1	0.00e+00	0	31	104	0	82	21694
2026-01-15 08:41:09.48	138.75	4.76	-59.0	-62.2	6.1	0.00e+00	0	31	104	0	83	22479
2026-01-15 08:41:12.51	139.12	4.57	-59.5	-62.7	6.2	0.00e+00	0	31	104	0	84	22595
2026-01-15 08:41:15.53	139.49	4.39	-59.8	-63.0	6.2	0.00e+00	0	31	104	0	85	22044
2026-01-15 08:41:18.56	139.85	4.20	-59.9	-63.2	6.2	0.00e+00	0	31	104	0	85	22370
2026-01-15 08:41:21.59	140.20	4.02	-60.0	-63.2	6.1	0.00e+00	0	31	104	0	85	22622
2026-01-15 08:41:24.61	140.55	3.83	-60.1	-63.3	6.2	0.00e+00	0	31	104	0	85	22884
2026-01-15 08:41:27.63	140.90	3.65	-60.2	-63.4	6.1	0.00e+00	0	31	104	0	86	21790
2026-01-15 08:41:30.66	141.24	3.47	-60.1	-63.4	6.2	0.00e+00	0	31	104	0	86	21611
2026-01-15 08:41:33.69	141.57	3.28	-60.1	-63.3	6.2	0.00e+00	0	31	104	0	86	21543
2026-01-15 08:41:36.71	141.90	3.10	-60.1	-63.3	6.1	0.00e+00	0	31	104	0	86	21529
2026-01-15 08:41:39.74	142.23	2.92	-60.0	-63.2	6.2	0.00e+00	0	31	104	0	86	21338
2026-01-15 08:41:42.76	142.54	2.75	-60.0	-63.2	6.2	0.00e+00	0	31	104	0	86	21353
2026-01-15 08:41:45.79	142.86	2.57	-60.0	-63.2	6.2	0.00e+00	0	31	104	0	86	21288
2026-01-15 08:41:48.82	143.17	2.39	-60.0	-63.2	6.2	0.00e+00	0	31	104	0	86	21207
2026-01-15 08:41:51.84	143.48	2.21	-60.0	-63.2	6.2	0.00e+00	0	31	104	0	86	21239
2026-01-15 08:41:54.85	143.78	2.04	-60.0	-63.2	6.2	0.00e+00	0	31	104	0	86	21268
2026-01-15 08:41:57.87	144.08	1.86	-59.9	-63.2	6.1	0.00e+00	0	31	104	0	86	21164

#Closed at: 2026-01-15 08:41:58
#Recorded file [0 MB]: D:/lorett/data/31004_260115_113229.dat