passes_logs/2026/01/15/R3.2S_Murmansk/R3.2S_Murmansk__20260115_125241_SUOMI_NPP_rec.log

#Pass ID: 20260115_125241_SUOMI NPP
#Satellite: SUOMI NPP
#Configuration: NPP
#almurnet v.1.7.20251203
#Start time: 2026-01-15 12:52:42

#Version: 2.2.20231116
#Station: R3.2S_Murmansk
#Location: 33.079688 lon 68.888172 lat
#TLE: 1 37849U 11061A   26014.61059675  .00000037  00000+0  38639-4 0  9994
#TLE: 2 37849  98.7810 316.6625 0002460  64.3781 295.7649 14.19525105736658

#Time	Az	El	Level	Level2	SNR	BER	BlckErr	Temp	State	Recorded	gain1	gain2
2026-01-15 12:52:42.29	237.04	2.02	-59.0	-75.0	3.8	1.49e+00	0	26	0	0	84	22464
2026-01-15 12:52:45.29	237.33	2.16	-58.8	-74.8	3.8	1.49e+00	0	26	104	0	82	24542
2026-01-15 12:52:48.29	237.61	2.30	-58.8	-74.8	3.8	1.49e+00	0	26	104	0	82	24596
2026-01-15 12:52:51.31	237.90	2.44	-58.8	-74.8	3.8	1.49e+00	0	26	104	0	82	24659
2026-01-15 12:52:54.32	238.20	2.58	-58.8	-74.8	3.8	1.49e+00	0	26	104	0	82	24668
2026-01-15 12:52:57.32	238.49	2.73	-58.8	-74.8	3.8	1.49e+00	0	26	104	0	82	24604
2026-01-15 12:53:00.31	238.79	2.87	-58.8	-74.8	3.8	1.49e+00	0	27	104	0	82	24629
2026-01-15 12:53:03.31	239.09	3.01	-58.8	-74.8	3.8	1.49e+00	0	27	104	0	82	24567
2026-01-15 12:53:06.32	239.39	3.15	-58.8	-74.8	3.8	1.49e+00	0	27	104	0	82	24458
2026-01-15 12:53:09.31	239.69	3.29	-58.8	-74.8	3.8	1.49e+00	0	27	104	0	82	24562
2026-01-15 12:53:12.29	240.00	3.43	-58.8	-74.8	3.8	1.49e+00	0	27	104	0	82	24666
2026-01-15 12:53:15.30	240.31	3.57	-58.8	-74.8	3.8	1.49e+00	0	27	104	0	82	24583
2026-01-15 12:53:18.30	240.62	3.71	-58.8	-74.9	3.8	1.49e+00	0	27	104	0	82	24752
2026-01-15 12:53:21.31	240.94	3.86	-58.8	-74.9	3.8	1.49e+00	0	27	104	0	82	24770
2026-01-15 12:53:24.31	241.26	4.00	-58.8	-74.8	3.8	1.49e+00	0	27	104	0	82	24474
2026-01-15 12:53:27.29	241.58	4.14	-58.8	-74.7	3.8	1.49e+00	0	27	104	0	82	24172
2026-01-15 12:53:30.29	241.91	4.28	-58.8	-74.5	3.8	1.49e+00	0	27	104	0	82	23808
2026-01-15 12:53:33.28	242.23	4.42	-58.8	-74.9	3.8	1.49e+00	0	27	104	0	82	24768
2026-01-15 12:53:36.27	242.57	4.56	-58.7	-71.7	4.1	1.46e+00	0	27	0	0	82	17135
2026-01-15 12:53:39.26	242.90	4.70	-58.4	-68.1	5.5	4.41e-01	0	27	0	3145728	82	11396
2026-01-15 12:53:42.26	243.24	4.84	-57.4	-63.3	9.2	2.05e-02	0	27	0	9437184	81	6931
2026-01-15 12:53:45.26	243.58	4.99	-55.5	-58.8	12.5	0.00e+00	0	27	0	14680064	77	5200
2026-01-15 12:53:48.24	243.92	5.13	-56.2	-60.0	11.7	2.14e-04	0	27	0	20971520	79	5335
2026-01-15 12:53:51.25	244.27	5.27	-56.6	-61.3	10.9	9.00e-05	0	27	0	26214400	79	6140
2026-01-15 12:53:54.25	244.62	5.41	-54.6	-57.6	12.9	0.00e+00	0	27	0	31457280	74	5394
2026-01-15 12:53:57.24	244.97	5.55	-54.2	-57.0	13.4	0.00e+00	0	27	0	37748736	74	5003
2026-01-15 12:54:00.25	245.33	5.69	-54.2	-57.0	13.4	0.00e+00	0	27	0	42991616	74	5034
2026-01-15 12:54:03.24	245.69	5.83	-54.5	-57.4	13.2	0.00e+00	0	27	0	48234496	74	5235
2026-01-15 12:54:06.24	246.05	5.97	-54.7	-57.8	12.9	0.00e+00	0	28	0	54525952	74	5472
2026-01-15 12:54:09.24	246.42	6.11	-54.4	-57.4	13.2	0.00e+00	0	27	0	59768832	74	5225
2026-01-15 12:54:12.25	246.79	6.25	-54.6	-57.6	13.0	0.00e+00	0	27	0	65011712	74	5363
2026-01-15 12:54:15.24	247.16	6.39	-54.6	-57.6	13.0	0.00e+00	0	28	0	71303168	74	5385
2026-01-15 12:54:18.24	247.54	6.53	-54.4	-57.2	13.3	0.00e+00	0	27	0	76546048	74	5157
2026-01-15 12:54:21.24	247.92	6.67	-54.6	-57.5	13.1	0.00e+00	0	28	0	82837504	74	5339
2026-01-15 12:54:24.22	248.30	6.81	-54.5	-57.4	13.2	0.00e+00	0	27	0	88080384	74	5243
2026-01-15 12:54:27.21	248.69	6.95	-54.1	-56.8	13.5	0.00e+00	0	28	0	93323264	74	4908
2026-01-15 12:54:30.21	249.08	7.08	-54.2	-57.0	13.4	0.00e+00	0	28	0	99614720	74	5041
2026-01-15 12:54:33.20	249.47	7.22	-54.3	-57.1	13.4	0.00e+00	0	28	0	104857600	74	5045
2026-01-15 12:54:36.20	249.87	7.36	-54.0	-56.6	13.6	0.00e+00	0	28	0	110100480	74	4796
2026-01-15 12:54:39.20	250.27	7.50	-54.0	-56.7	13.6	0.00e+00	0	28	0	116391936	74	4827
2026-01-15 12:54:42.18	250.68	7.63	-53.8	-56.4	13.7	0.00e+00	0	28	0	121634816	74	4688
2026-01-15 12:54:45.18	251.09	7.77	-53.6	-56.1	13.8	0.00e+00	0	28	0	126877696	73	4785
2026-01-15 12:54:48.17	251.50	7.90	-53.5	-55.9	13.9	0.00e+00	0	28	0	133169152	73	4667
2026-01-15 12:54:51.17	251.91	8.04	-53.4	-55.8	13.9	0.00e+00	0	28	0	138412032	73	4643
2026-01-15 12:54:54.17	252.34	8.17	-53.7	-56.2	13.8	0.00e+00	0	27	0	143654912	73	4859
2026-01-15 12:54:57.16	252.76	8.31	-53.8	-56.5	13.6	0.00e+00	0	28	0	149946368	73	4991
2026-01-15 12:55:00.14	253.18	8.44	-53.7	-56.3	13.7	0.00e+00	0	28	0	155189248	73	4894
2026-01-15 12:55:03.13	253.61	8.57	-53.7	-56.2	13.8	0.00e+00	0	28	0	160432128	73	4830
2026-01-15 12:55:06.13	254.05	8.70	-53.8	-56.4	13.7	0.00e+00	0	28	0	166723584	73	4957
2026-01-15 12:55:09.12	254.49	8.83	-53.9	-56.6	13.6	0.00e+00	0	28	0	171966464	73	5060
2026-01-15 12:55:12.12	254.93	8.96	-53.9	-56.6	13.6	0.00e+00	0	28	0	177209344	73	5061
2026-01-15 12:55:15.13	255.38	9.09	-53.8	-56.4	13.7	0.00e+00	0	28	0	183500800	73	4969
2026-01-15 12:55:18.10	255.82	9.22	-53.9	-56.5	13.6	0.00e+00	0	28	0	188743680	73	5005
2026-01-15 12:55:21.10	256.28	9.35	-53.8	-56.4	13.7	0.00e+00	0	28	0	195035136	73	4980
2026-01-15 12:55:24.11	256.74	9.48	-53.7	-56.3	13.8	0.00e+00	0	28	0	200278016	73	4884
2026-01-15 12:55:27.11	257.20	9.60	-53.7	-56.3	13.8	0.00e+00	0	28	0	205520896	73	4906
2026-01-15 12:55:30.11	257.67	9.73	-53.7	-56.2	13.8	0.00e+00	0	28	0	211812352	73	4853
2026-01-15 12:55:33.10	258.13	9.85	-54.0	-56.7	13.5	0.00e+00	0	28	0	217055232	73	5132
2026-01-15 12:55:36.07	258.60	9.97	-54.1	-56.9	13.5	0.00e+00	0	28	0	222298112	73	5219
2026-01-15 12:55:39.06	259.08	10.09	-53.8	-56.5	13.7	0.00e+00	0	28	0	228589568	73	4994
2026-01-15 12:55:42.04	259.56	10.21	-53.9	-56.5	13.6	0.00e+00	0	28	0	233832448	73	5008
2026-01-15 12:55:45.01	260.04	10.33	-54.0	-56.7	13.5	0.00e+00	0	28	0	239075328	73	5142
2026-01-15 12:55:48.01	260.53	10.45	-54.2	-57.0	13.4	0.00e+00	0	28	0	245366784	73	5317
2026-01-15 12:55:51.01	261.02	10.56	-54.1	-56.8	13.5	0.00e+00	0	28	0	250609664	73	5218
2026-01-15 12:55:54.01	261.51	10.68	-54.0	-56.7	13.6	0.00e+00	0	28	0	255852544	73	5157
2026-01-15 12:55:56.99	262.01	10.79	-54.2	-57.0	13.4	0.00e+00	0	28	0	262144000	73	5319
2026-01-15 12:55:59.98	262.51	10.91	-54.2	-57.0	13.4	0.00e+00	0	28	0	267386880	73	5283
2026-01-15 12:56:02.98	263.02	11.02	-54.6	-57.6	13.2	0.00e+00	0	28	0	272629760	74	5389
2026-01-15 12:56:05.97	263.53	11.13	-54.6	-57.6	13.2	0.00e+00	0	28	0	278921216	74	5374
2026-01-15 12:56:08.96	264.04	11.23	-54.5	-57.5	13.2	0.00e+00	0	28	0	284164096	74	5309
2026-01-15 12:56:11.97	264.56	11.34	-54.7	-57.8	13.1	0.00e+00	0	28	0	289406976	74	5493
2026-01-15 12:56:14.96	265.08	11.45	-54.7	-57.9	13.0	0.00e+00	0	28	0	295698432	74	5555
2026-01-15 12:56:17.96	265.61	11.55	-54.6	-57.6	13.2	0.00e+00	0	28	0	300941312	74	5384
2026-01-15 12:56:20.97	266.14	11.65	-54.5	-57.4	13.3	0.00e+00	0	28	0	307232768	74	5278
2026-01-15 12:56:23.98	266.68	11.75	-54.5	-57.6	13.2	0.00e+00	0	28	0	312475648	74	5355
2026-01-15 12:56:26.99	267.21	11.85	-54.5	-57.4	13.3	0.00e+00	0	28	0	317718528	74	5267
2026-01-15 12:56:29.99	267.75	11.95	-54.4	-57.3	13.3	0.00e+00	0	28	0	324009984	74	5198
2026-01-15 12:56:32.98	268.30	12.04	-54.2	-57.0	13.5	0.00e+00	0	28	0	329252864	74	5011
2026-01-15 12:56:35.99	268.84	12.13	-54.3	-57.2	13.4	0.00e+00	0	28	0	334495744	74	5121
2026-01-15 12:56:38.98	269.39	12.22	-54.3	-57.2	13.4	0.00e+00	0	28	0	340787200	74	5124
2026-01-15 12:56:41.96	269.94	12.31	-54.4	-57.3	13.4	0.00e+00	0	28	0	346030080	74	5196
2026-01-15 12:56:44.96	270.50	12.40	-54.4	-57.3	13.4	0.00e+00	0	28	0	351272960	74	5191
2026-01-15 12:56:47.94	271.05	12.48	-54.2	-57.0	13.5	0.00e+00	0	28	0	357564416	74	5013
2026-01-15 12:56:50.92	271.61	12.56	-54.0	-56.6	13.7	0.00e+00	0	28	0	362807296	74	4786
2026-01-15 12:56:53.93	272.18	12.64	-53.8	-56.3	13.8	0.00e+00	0	28	0	369098752	73	4909
2026-01-15 12:56:56.93	272.75	12.72	-53.6	-56.0	13.9	0.00e+00	0	28	0	374341632	73	4748
2026-01-15 12:56:59.93	273.32	12.79	-54.0	-56.6	13.6	0.00e+00	0	28	0	379584512	73	5090
2026-01-15 12:57:02.93	273.89	12.86	-53.9	-56.4	13.7	0.00e+00	0	28	0	385875968	73	4963
2026-01-15 12:57:05.93	274.47	12.93	-53.6	-55.8	14.0	0.00e+00	0	28	0	391118848	73	4641
2026-01-15 12:57:08.92	275.04	13.00	-53.7	-56.1	13.9	0.00e+00	0	28	0	396361728	73	4773
2026-01-15 12:57:11.93	275.63	13.07	-53.9	-56.3	13.7	0.00e+00	0	28	0	402653184	73	4919
2026-01-15 12:57:14.93	276.21	13.13	-53.5	-55.8	14.0	0.00e+00	0	28	0	407896064	73	4618
2026-01-15 12:57:17.93	276.80	13.19	-53.7	-56.0	13.9	0.00e+00	0	28	0	413138944	73	4712
2026-01-15 12:57:20.93	277.38	13.25	-54.3	-57.0	13.4	0.00e+00	0	28	0	419430400	73	5295
2026-01-15 12:57:23.93	277.97	13.30	-53.9	-56.3	13.7	0.00e+00	0	28	0	424673280	73	4917
2026-01-15 12:57:26.91	278.56	13.35	-54.3	-56.9	13.5	0.00e+00	0	28	0	429916160	73	5265
2026-01-15 12:57:29.89	279.15	13.40	-55.5	-58.8	12.6	0.00e+00	0	28	0	436207616	76	5527
2026-01-15 12:57:32.87	279.75	13.45	-55.1	-58.1	13.1	0.00e+00	0	28	0	441450496	76	5071
2026-01-15 12:57:35.86	280.34	13.49	-54.5	-57.1	13.6	0.00e+00	0	28	0	446693376	75	4775
2026-01-15 12:57:38.85	280.94	13.54	-55.0	-57.9	13.2	0.00e+00	0	28	0	452984832	75	5239
2026-01-15 12:57:41.84	281.54	13.57	-54.8	-57.6	13.3	0.00e+00	0	28	0	458227712	75	5064
2026-01-15 12:57:44.82	282.14	13.61	-54.5	-57.0	13.6	0.00e+00	0	28	0	464519168	75	4754
2026-01-15 12:57:47.82	282.74	13.64	-54.5	-57.3	13.5	0.00e+00	0	28	0	469762048	75	4871
2026-01-15 12:57:50.82	283.35	13.67	-54.1	-56.5	13.8	0.00e+00	0	28	0	475004928	74	4737
2026-01-15 12:57:53.80	283.95	13.70	-53.8	-56.1	14.0	0.00e+00	0	28	0	481296384	74	4525
2026-01-15 12:57:56.81	284.56	13.72	-54.1	-56.5	13.8	0.00e+00	0	28	0	486539264	74	4756
2026-01-15 12:57:59.80	285.16	13.75	-54.0	-56.4	13.9	0.00e+00	0	28	0	491782144	74	4699
2026-01-15 12:58:02.78	285.77	13.76	-53.3	-55.5	14.2	0.00e+00	0	28	0	498073600	73	4463
2026-01-15 12:58:05.78	286.38	13.78	-53.3	-55.5	14.1	0.00e+00	0	28	0	503316480	72	4739
2026-01-15 12:58:08.78	286.99	13.79	-53.5	-55.8	13.9	0.00e+00	0	28	0	508559360	72	4901
2026-01-15 12:58:11.77	287.60	13.80	-53.8	-56.1	13.8	0.00e+00	0	28	0	514850816	72	5100
2026-01-15 12:58:14.76	288.21	13.81	-54.0	-56.5	13.7	0.00e+00	0	28	0	520093696	73	4992
2026-01-15 12:58:17.76	288.82	13.81	-53.7	-56.1	13.9	0.00e+00	0	28	0	525336576	73	4800
2026-01-15 12:58:20.76	289.43	13.81	-53.8	-56.2	13.9	0.00e+00	0	28	0	531628032	73	4818
2026-01-15 12:58:23.76	290.04	13.81	-54.1	-56.6	13.7	0.00e+00	0	28	0	536870912	73	5095
2026-01-15 12:58:26.76	290.65	13.80	-54.0	-56.4	13.7	0.00e+00	0	28	0	543162368	73	4971
2026-01-15 12:58:29.76	291.26	13.80	-53.9	-56.3	13.8	0.00e+00	0	28	0	548405248	73	4881
2026-01-15 12:58:32.75	291.87	13.78	-54.2	-56.7	13.6	0.00e+00	0	28	0	553648128	73	5139
2026-01-15 12:58:35.74	292.48	13.77	-53.8	-56.1	13.9	0.00e+00	0	28	0	559939584	73	4807
2026-01-15 12:58:38.74	293.08	13.75	-53.6	-55.9	14.0	0.00e+00	0	28	0	565182464	73	4684
2026-01-15 12:58:41.73	293.69	13.73	-53.7	-56.0	14.0	0.00e+00	0	28	0	570425344	73	4731
2026-01-15 12:58:44.70	294.29	13.71	-53.2	-55.4	14.2	0.00e+00	0	28	0	576716800	73	4414
2026-01-15 12:58:47.70	294.90	13.68	-52.9	-55.0	14.4	0.00e+00	0	28	0	581959680	72	4443
2026-01-15 12:58:50.70	295.50	13.66	-53.1	-55.2	14.3	0.00e+00	0	28	0	587202560	72	4552
2026-01-15 12:58:53.69	296.10	13.62	-53.1	-55.1	14.3	0.00e+00	0	28	0	593494016	72	4538
2026-01-15 12:58:56.67	296.70	13.59	-53.1	-55.2	14.2	0.00e+00	0	28	0	598736896	72	4563
2026-01-15 12:58:59.65	297.30	13.55	-53.6	-55.8	14.0	0.00e+00	0	28	0	603979776	72	4908
2026-01-15 12:59:02.64	297.90	13.51	-53.4	-55.6	14.0	0.00e+00	0	28	0	610271232	72	4803
2026-01-15 12:59:05.65	298.50	13.47	-53.2	-55.2	14.2	0.00e+00	0	28	0	615514112	72	4582
2026-01-15 12:59:08.64	299.09	13.42	-53.4	-55.6	14.1	0.00e+00	0	28	0	620756992	72	4771
2026-01-15 12:59:11.64	299.69	13.38	-53.5	-55.7	14.0	0.00e+00	0	28	0	627048448	72	4853
2026-01-15 12:59:14.64	300.28	13.32	-53.3	-55.4	14.1	0.00e+00	0	28	0	632291328	72	4693
2026-01-15 12:59:17.62	300.86	13.27	-53.1	-55.2	14.3	0.00e+00	0	28	0	638582784	72	4551
2026-01-15 12:59:20.60	301.45	13.21	-53.2	-55.3	14.2	0.00e+00	0	28	0	643825664	72	4614
2026-01-15 12:59:23.61	302.04	13.16	-52.9	-54.9	14.4	0.00e+00	0	28	0	649068544	72	4401
2026-01-15 12:59:26.61	302.62	13.09	-52.8	-54.7	14.5	0.00e+00	0	28	0	655360000	72	4307
2026-01-15 12:59:29.62	303.20	13.03	-52.7	-54.6	14.4	0.00e+00	0	28	0	660602880	71	4495
2026-01-15 12:59:32.61	303.78	12.96	-52.6	-54.5	14.4	0.00e+00	0	28	0	665845760	71	4489
2026-01-15 12:59:35.61	304.35	12.89	-52.5	-54.4	14.5	0.00e+00	0	28	0	672137216	71	4427
2026-01-15 12:59:38.60	304.93	12.82	-52.8	-54.8	14.3	0.00e+00	0	28	0	677380096	71	4605
2026-01-15 12:59:41.59	305.49	12.75	-53.1	-55.2	14.1	0.00e+00	0	28	0	682622976	71	4825
2026-01-15 12:59:44.57	306.06	12.67	-53.0	-55.1	14.2	0.00e+00	0	28	0	688914432	71	4769
2026-01-15 12:59:47.56	306.62	12.60	-52.8	-54.7	14.3	0.00e+00	0	28	0	694157312	71	4597
2026-01-15 12:59:50.57	307.18	12.52	-52.9	-54.9	14.2	0.00e+00	0	28	0	699400192	71	4665
2026-01-15 12:59:53.56	307.74	12.43	-52.7	-54.7	14.3	0.00e+00	0	28	0	705691648	71	4551
2026-01-15 12:59:56.55	308.30	12.35	-52.4	-54.2	14.5	0.00e+00	0	28	0	710934528	71	4318
2026-01-15 12:59:59.55	308.85	12.26	-52.2	-54.0	14.5	0.00e+00	0	28	0	716177408	70	4444
2026-01-15 13:00:02.55	309.40	12.17	-52.4	-54.3	14.4	0.00e+00	0	28	0	722468864	70	4641
2026-01-15 13:00:05.55	309.94	12.08	-52.5	-54.4	14.3	0.00e+00	0	28	0	727711744	70	4705
2026-01-15 13:00:08.56	310.49	11.99	-52.6	-54.6	14.3	0.00e+00	0	28	0	734003200	70	4768
2026-01-15 13:00:11.55	311.03	11.90	-52.6	-54.5	14.3	0.00e+00	0	28	0	739246080	70	4727
2026-01-15 13:00:14.54	311.56	11.80	-52.6	-54.5	14.3	0.00e+00	0	28	0	744488960	70	4734
2026-01-15 13:00:17.53	312.09	11.70	-52.7	-54.7	14.2	0.00e+00	0	28	0	750780416	70	4858
2026-01-15 13:00:20.53	312.62	11.60	-53.0	-55.2	14.1	0.00e+00	0	28	0	756023296	71	4815
2026-01-15 13:00:23.52	313.14	11.50	-52.9	-55.0	14.1	0.00e+00	0	28	0	761266176	71	4727
2026-01-15 13:00:26.52	313.67	11.40	-53.4	-55.7	14.0	0.00e+00	0	28	0	767557632	72	4835
2026-01-15 13:00:29.52	314.18	11.29	-53.8	-56.2	13.7	0.00e+00	0	28	0	772800512	72	5123
2026-01-15 13:00:32.52	314.70	11.18	-53.7	-56.0	13.8	0.00e+00	0	28	0	778043392	72	5017
2026-01-15 13:00:35.52	315.21	11.07	-53.6	-55.9	13.9	0.00e+00	0	28	0	784334848	72	4928
2026-01-15 13:00:38.52	315.72	10.96	-53.4	-55.7	13.9	0.00e+00	0	28	0	789577728	72	4846
2026-01-15 13:00:41.52	316.22	10.85	-54.2	-56.8	13.5	0.00e+00	0	28	0	795869184	73	5184
2026-01-15 13:00:44.53	316.72	10.74	-54.7	-57.6	13.1	0.00e+00	0	28	0	801112064	74	5374
2026-01-15 13:00:47.52	317.22	10.63	-54.4	-57.1	13.4	0.00e+00	0	28	0	806354944	74	5089
2026-01-15 13:00:50.51	317.71	10.51	-54.4	-57.1	13.4	0.00e+00	0	28	0	812646400	74	5084
2026-01-15 13:00:53.49	318.19	10.40	-54.6	-57.5	13.2	0.00e+00	0	28	0	817889280	74	5307
2026-01-15 13:00:56.49	318.68	10.28	-54.8	-57.8	13.0	0.00e+00	0	28	0	823132160	74	5503
2026-01-15 13:00:59.49	319.16	10.16	-54.3	-57.0	13.5	0.00e+00	0	28	0	829423616	74	5005
2026-01-15 13:01:02.47	319.63	10.04	-54.5	-57.3	13.3	0.00e+00	0	28	0	834666496	74	5200
2026-01-15 13:01:05.46	320.10	9.92	-54.9	-58.1	12.8	0.00e+00	0	28	0	839909376	74	5667
2026-01-15 13:01:08.45	320.57	9.80	-54.8	-57.8	13.0	0.00e+00	0	28	0	846200832	75	5211
2026-01-15 13:01:11.43	321.03	9.67	-54.6	-57.5	13.2	0.00e+00	0	28	0	851443712	75	5030
2026-01-15 13:01:14.44	321.50	9.55	-54.7	-57.7	13.1	0.00e+00	0	28	0	856686592	75	5121
2026-01-15 13:01:17.43	321.95	9.42	-54.7	-57.7	13.1	0.00e+00	0	28	0	862978048	75	5141
2026-01-15 13:01:20.42	322.41	9.30	-54.7	-57.9	13.0	0.00e+00	0	28	0	868220928	75	5226
2026-01-15 13:01:23.43	322.86	9.17	-54.8	-57.9	13.0	0.00e+00	0	28	0	873463808	75	5270
2026-01-15 13:01:26.42	323.30	9.04	-54.5	-57.5	13.2	0.00e+00	0	28	0	879755264	75	5038
2026-01-15 13:01:29.42	323.75	8.91	-54.2	-57.0	13.5	0.00e+00	0	28	0	884998144	75	4742
2026-01-15 13:01:32.42	324.19	8.78	-53.9	-56.4	13.7	0.00e+00	0	28	0	891289600	74	4692
2026-01-15 13:01:35.41	324.62	8.65	-54.2	-56.9	13.5	0.00e+00	0	28	0	896532480	74	4946
2026-01-15 13:01:38.40	325.05	8.52	-54.5	-57.4	13.2	0.00e+00	0	28	0	901775360	74	5239
2026-01-15 13:01:41.38	325.48	8.39	-54.8	-57.9	12.9	0.00e+00	0	28	0	908066816	74	5565
2026-01-15 13:01:44.38	325.90	8.26	-54.7	-57.7	13.1	0.00e+00	0	28	0	913309696	75	5137
2026-01-15 13:01:47.38	326.32	8.13	-54.4	-57.2	13.3	0.00e+00	0	28	0	918552576	75	4838
2026-01-15 13:01:50.38	326.74	7.99	-54.3	-57.1	13.4	0.00e+00	0	28	0	924844032	75	4809
2026-01-15 13:01:53.37	327.15	7.86	-54.2	-57.0	13.5	0.00e+00	0	28	0	930086912	75	4710
2026-01-15 13:01:56.34	327.56	7.72	-54.3	-57.1	13.3	0.00e+00	0	28	0	935329792	74	5067
2026-01-15 13:01:59.34	327.96	7.59	-53.9	-56.5	13.6	0.00e+00	0	28	0	941621248	74	4759
2026-01-15 13:02:02.34	328.36	7.45	-53.9	-56.5	13.6	0.00e+00	0	28	0	946864128	74	4736
2026-01-15 13:02:05.33	328.76	7.32	-54.1	-56.7	13.4	0.00e+00	0	28	0	952107008	73	5154
2026-01-15 13:02:08.32	329.16	7.18	-54.0	-56.6	13.4	0.00e+00	0	28	0	958398464	73	5099
2026-01-15 13:02:11.32	329.55	7.05	-53.4	-55.8	13.9	0.00e+00	0	28	0	963641344	73	4623
2026-01-15 13:02:14.32	329.94	6.91	-53.8	-56.4	13.6	0.00e+00	0	28	0	968884224	73	4940
2026-01-15 13:02:17.33	330.32	6.77	-54.1	-56.7	13.4	0.00e+00	0	28	0	975175680	73	5147
2026-01-15 13:02:20.33	330.70	6.63	-54.0	-56.7	13.4	0.00e+00	0	28	0	980418560	73	5140
2026-01-15 13:02:23.33	331.08	6.49	-54.0	-56.7	13.4	0.00e+00	0	28	0	986710016	73	5143
2026-01-15 13:02:26.34	331.46	6.35	-54.5	-57.4	13.1	0.00e+00	0	28	0	991952896	74	5238
2026-01-15 13:02:29.35	331.83	6.22	-54.5	-57.5	13.0	0.00e+00	0	28	0	997195776	74	5308
2026-01-15 13:02:32.37	332.20	6.08	-54.8	-58.0	12.7	0.00e+00	0	28	0	1003487232	74	5627
2026-01-15 13:02:35.38	332.56	5.94	-54.5	-57.6	13.1	0.00e+00	0	28	0	1008730112	75	5057
2026-01-15 13:02:38.38	332.92	5.80	-54.3	-57.2	13.2	0.00e+00	0	28	0	1013972992	75	4869
2026-01-15 13:02:41.38	333.28	5.66	-54.2	-57.1	13.2	0.00e+00	0	28	0	1020264448	74	5069
2026-01-15 13:02:44.39	333.64	5.52	-54.4	-57.4	13.0	0.00e+00	0	28	0	1025507328	74	5259
2026-01-15 13:02:47.38	333.99	5.38	-54.2	-57.2	13.1	0.00e+00	0	28	0	1031798784	74	5111
2026-01-15 13:02:50.40	334.34	5.24	-54.2	-57.3	12.9	0.00e+00	0	28	0	1037041664	74	5204
2026-01-15 13:02:53.39	334.68	5.10	-54.3	-57.7	12.6	7.00e-07	0	28	0	1042284544	74	5460
2026-01-15 13:02:56.38	335.02	4.96	-59.2	-74.9	3.8	1.23e+00	0	28	104	1047527424	83	23561
2026-01-15 13:02:59.39	335.36	4.82	-60.1	-76.2	3.8	1.49e+00	0	28	104	1047527424	85	24142
2026-01-15 13:03:02.37	335.69	4.68	-60.4	-76.5	3.8	1.49e+00	0	28	104	1047527424	85	25018
2026-01-15 13:03:05.36	336.02	4.54	-60.6	-76.7	3.8	1.49e+00	0	28	104	1047527424	86	24222
2026-01-15 13:03:08.36	336.35	4.40	-60.7	-76.7	3.8	1.49e+00	0	28	104	1047527424	86	24399
2026-01-15 13:03:11.36	336.68	4.26	-60.7	-76.8	3.8	1.49e+00	0	28	104	1047527424	86	24451
2026-01-15 13:03:14.37	337.00	4.12	-60.7	-76.8	3.8	1.49e+00	0	28	104	1047527424	86	24491
2026-01-15 13:03:17.38	337.32	3.98	-60.6	-76.7	3.9	1.49e+00	0	28	104	1047527424	86	24369
2026-01-15 13:03:20.38	337.64	3.84	-60.6	-76.7	3.8	1.49e+00	0	28	104	1047527424	86	24194
2026-01-15 13:03:23.38	337.96	3.69	-60.6	-76.7	3.8	1.49e+00	0	28	104	1047527424	86	24186
2026-01-15 13:03:26.38	338.27	3.55	-60.5	-76.6	3.8	1.49e+00	0	28	104	1047527424	86	24112
2026-01-15 13:03:29.38	338.58	3.41	-60.5	-76.6	3.8	1.49e+00	0	28	104	1047527424	86	24059
2026-01-15 13:03:32.37	338.88	3.27	-60.5	-76.6	3.8	1.49e+00	0	28	104	1047527424	86	23996
2026-01-15 13:03:35.37	339.19	3.13	-60.5	-76.6	3.8	1.49e+00	0	28	104	1047527424	86	23935
2026-01-15 13:03:38.36	339.48	3.00	-60.5	-76.6	3.8	1.49e+00	0	28	104	1047527424	86	23973
2026-01-15 13:03:41.37	339.78	2.86	-60.5	-76.6	3.8	1.49e+00	0	28	104	1047527424	86	23859
2026-01-15 13:03:44.36	340.08	2.72	-60.5	-76.6	3.8	1.49e+00	0	28	104	1047527424	86	23931
2026-01-15 13:03:47.35	340.37	2.58	-60.5	-76.6	3.8	1.49e+00	0	28	104	1047527424	86	23980
2026-01-15 13:03:50.35	340.66	2.44	-60.5	-76.6	3.8	1.49e+00	0	28	104	1047527424	86	23859
2026-01-15 13:03:53.35	340.95	2.30	-60.5	-76.6	3.8	1.49e+00	0	28	104	1047527424	86	23858
2026-01-15 13:03:56.32	341.23	2.16	-60.5	-76.6	3.8	1.49e+00	0	28	104	1047527424	86	23921
2026-01-15 13:03:59.33	341.51	2.02	-60.5	-76.5	3.8	1.49e+00	0	29	104	1047527424	86	23850

#Closed at: 2026-01-15 13:04:02
#Recorded file [1047 MB]: D:/lorett/data/31004_260115_155242.dat