passes_logs/2026/01/15/R3.2S_Murmansk/R3.2S_Murmansk__20260115_080920_NOAA_20_JPSS-1_rec.log

#Pass ID: 20260115_080920_NOAA 20 (JPSS-1)
#Satellite: NOAA 20 (JPSS-1)
#Configuration: NOAA 20
#almurnet v.1.7.20251203
#Start time: 2026-01-15 08:09:20

#Version: 2.2.20231116
#Station: R3.2S_Murmansk
#Location: 33.079688 lon 68.888172 lat
#TLE: 1 43013U 17073A   26014.55467351  .00000038  00000+0  38801-4 0  9992
#TLE: 2 43013  98.7635 315.4987 0001517  39.9279 320.2008 14.19535859422677

#Time	Az	El	Level	Level2	SNR	BER	BlckErr	Temp	State	Recorded	gain1	gain2
2026-01-15 08:09:20.57	119.82	1.98	-58.2	-74.2	3.8	1.49e+00	0	26	0	0	82	22968
2026-01-15 08:09:24.61	119.70	2.23	-58.2	-74.2	3.8	1.49e+00	0	26	104	0	81	24353
2026-01-15 08:09:28.65	119.58	2.49	-58.2	-74.2	3.8	1.49e+00	0	26	104	0	81	24336
2026-01-15 08:09:32.68	119.45	2.75	-58.2	-74.2	3.8	1.49e+00	0	26	104	0	81	24263
2026-01-15 08:09:36.71	119.32	3.01	-58.2	-74.2	3.8	1.49e+00	0	26	104	0	81	24199
2026-01-15 08:09:40.75	119.19	3.27	-58.2	-74.2	3.8	1.49e+00	0	27	104	0	81	24231
2026-01-15 08:09:44.78	119.05	3.53	-58.2	-74.0	3.8	1.49e+00	0	26	104	0	81	23612
2026-01-15 08:09:48.81	118.91	3.80	-58.1	-72.5	3.8	1.49e+00	0	27	104	0	81	19930
2026-01-15 08:09:52.85	118.77	4.07	-57.9	-69.1	4.7	8.84e-01	0	27	0	1048576	81	13488
2026-01-15 08:09:56.87	118.63	4.34	-57.6	-66.4	6.2	2.60e-01	0	27	0	8388608	81	9897
2026-01-15 08:10:00.90	118.48	4.62	-56.7	-62.5	9.5	7.40e-03	0	27	0	16777216	80	6674
2026-01-15 08:10:04.94	118.33	4.89	-55.0	-58.5	12.4	7.00e-07	0	27	0	24117248	76	5292
2026-01-15 08:10:08.96	118.18	5.17	-56.1	-60.7	11.0	1.44e-05	0	27	0	31457280	77	6423
2026-01-15 08:10:13.00	118.02	5.46	-55.0	-58.3	12.6	3.05e-05	0	27	0	38797312	76	5216
2026-01-15 08:10:17.03	117.86	5.74	-54.6	-57.6	12.9	0.00e+00	0	27	0	46137344	75	5100
2026-01-15 08:10:21.06	117.70	6.03	-54.6	-57.6	13.0	0.00e+00	0	27	0	54525952	75	5064
2026-01-15 08:10:25.08	117.53	6.32	-54.4	-57.3	13.2	0.00e+00	0	27	0	61865984	75	4877
2026-01-15 08:10:29.11	117.36	6.61	-54.6	-57.5	13.0	0.00e+00	0	27	0	69206016	75	5034
2026-01-15 08:10:33.13	117.19	6.91	-54.6	-57.5	13.1	0.00e+00	0	27	0	76546048	75	5017
2026-01-15 08:10:37.17	117.01	7.21	-54.5	-57.3	13.2	0.00e+00	0	27	0	83886080	75	4917
2026-01-15 08:10:41.19	116.83	7.52	-54.5	-57.2	13.3	0.00e+00	0	27	0	92274688	75	4868
2026-01-15 08:10:45.22	116.65	7.82	-54.4	-57.1	13.4	0.00e+00	0	27	0	99614720	75	4814
2026-01-15 08:10:49.26	116.46	8.13	-54.4	-57.1	13.4	0.00e+00	0	27	0	106954752	75	4775
2026-01-15 08:10:53.28	116.26	8.45	-54.4	-57.0	13.5	0.00e+00	0	27	0	114294784	75	4722
2026-01-15 08:10:57.32	116.06	8.77	-54.2	-56.8	13.6	0.00e+00	0	27	0	121634816	75	4611
2026-01-15 08:11:01.35	115.86	9.09	-54.0	-56.5	13.7	0.00e+00	0	27	0	130023424	74	4735
2026-01-15 08:11:05.38	115.65	9.41	-54.1	-56.5	13.7	0.00e+00	0	27	0	137363456	74	4748
2026-01-15 08:11:09.41	115.44	9.74	-53.9	-56.2	13.9	0.00e+00	0	27	0	144703488	74	4563
2026-01-15 08:11:13.44	115.22	10.08	-53.7	-56.0	14.0	0.00e+00	0	27	0	152043520	74	4473
2026-01-15 08:11:17.48	115.00	10.41	-53.6	-55.8	14.0	0.00e+00	0	27	0	160432128	73	4617
2026-01-15 08:11:21.51	114.77	10.76	-53.4	-55.6	14.1	0.00e+00	0	27	0	167772160	73	4524
2026-01-15 08:11:25.54	114.53	11.10	-53.5	-55.7	14.1	0.00e+00	0	27	0	175112192	73	4564
2026-01-15 08:11:29.56	114.29	11.45	-53.5	-55.7	14.0	0.00e+00	0	27	0	182452224	73	4583
2026-01-15 08:11:33.59	114.04	11.81	-53.3	-55.4	14.2	0.00e+00	0	27	0	189792256	73	4419
2026-01-15 08:11:37.62	113.79	12.17	-53.3	-55.4	14.2	0.00e+00	0	27	0	198180864	73	4398
2026-01-15 08:11:41.65	113.53	12.53	-53.1	-55.1	14.2	0.00e+00	0	28	0	205520896	72	4523
2026-01-15 08:11:45.68	113.26	12.90	-53.2	-55.2	14.2	0.00e+00	0	28	0	212860928	72	4574
2026-01-15 08:11:49.71	112.99	13.27	-53.2	-55.2	14.2	0.00e+00	0	28	0	220200960	72	4582
2026-01-15 08:11:53.75	112.71	13.65	-53.3	-55.4	14.1	0.00e+00	0	28	0	227540992	72	4675
2026-01-15 08:11:57.78	112.42	14.04	-53.2	-55.2	14.2	0.00e+00	0	28	0	235929600	72	4569
2026-01-15 08:12:01.81	112.12	14.43	-53.2	-55.2	14.2	0.00e+00	0	28	0	243269632	72	4574
2026-01-15 08:12:05.85	111.81	14.83	-53.1	-55.1	14.3	0.00e+00	0	28	0	250609664	72	4531
2026-01-15 08:12:09.88	111.50	15.23	-53.1	-55.1	14.3	0.00e+00	0	28	0	257949696	72	4506
2026-01-15 08:12:13.91	111.18	15.63	-53.2	-55.2	14.3	0.00e+00	0	27	0	265289728	72	4547
2026-01-15 08:12:17.94	110.84	16.05	-53.1	-55.1	14.3	0.00e+00	0	28	0	273678336	72	4522
2026-01-15 08:12:21.96	110.50	16.46	-53.2	-55.2	14.2	0.00e+00	0	28	0	281018368	72	4583
2026-01-15 08:12:25.99	110.15	16.89	-53.2	-55.2	14.2	0.00e+00	0	27	0	288358400	72	4580
2026-01-15 08:12:30.02	109.79	17.32	-53.3	-55.3	14.2	0.00e+00	0	28	0	295698432	72	4633
2026-01-15 08:12:34.05	109.42	17.76	-53.6	-55.7	14.0	0.00e+00	0	27	0	303038464	72	4842
2026-01-15 08:12:38.08	109.03	18.20	-53.5	-55.6	14.0	0.00e+00	0	27	0	311427072	72	4797
2026-01-15 08:12:42.11	108.63	18.65	-53.6	-55.7	14.0	0.00e+00	0	28	0	318767104	72	4839
2026-01-15 08:12:46.15	108.22	19.11	-53.5	-55.5	14.1	0.00e+00	0	28	0	326107136	72	4739
2026-01-15 08:12:50.18	107.80	19.58	-53.5	-55.6	14.1	0.00e+00	0	28	0	333447168	72	4765
2026-01-15 08:12:54.22	107.36	20.05	-53.6	-55.7	14.1	0.00e+00	0	28	0	341835776	72	4826
2026-01-15 08:12:58.25	106.91	20.53	-53.7	-55.8	14.0	0.00e+00	0	28	0	349175808	72	4894
2026-01-15 08:13:02.28	106.45	21.02	-53.7	-55.9	13.9	0.00e+00	0	27	0	356515840	72	4952
2026-01-15 08:13:06.31	105.97	21.51	-53.6	-55.7	14.0	0.00e+00	0	27	0	363855872	72	4833
2026-01-15 08:13:10.34	105.47	22.01	-53.5	-55.5	14.1	0.00e+00	0	27	0	371195904	72	4757
2026-01-15 08:13:14.37	104.96	22.52	-53.4	-55.4	14.2	0.00e+00	0	28	0	379584512	72	4686
2026-01-15 08:13:18.41	104.43	23.04	-53.6	-55.6	14.1	0.00e+00	0	28	0	386924544	72	4806
2026-01-15 08:13:22.44	103.88	23.56	-53.6	-55.7	14.0	0.00e+00	0	28	0	394264576	72	4818
2026-01-15 08:13:26.45	103.32	24.09	-53.5	-55.6	14.1	0.00e+00	0	28	0	401604608	72	4768
2026-01-15 08:13:30.47	102.73	24.63	-53.6	-55.7	14.0	0.00e+00	0	28	0	408944640	72	4824
2026-01-15 08:13:34.49	102.12	25.18	-53.6	-55.7	14.0	0.00e+00	0	28	0	417333248	72	4851
2026-01-15 08:13:38.53	101.49	25.73	-53.7	-55.8	14.0	0.00e+00	0	28	0	424673280	72	4879
2026-01-15 08:13:42.56	100.84	26.30	-53.6	-55.6	14.1	0.00e+00	0	28	0	432013312	72	4801
2026-01-15 08:13:46.59	100.16	26.87	-53.8	-55.9	13.9	0.00e+00	0	28	0	439353344	72	4968
2026-01-15 08:13:50.63	99.46	27.45	-53.6	-55.7	14.1	0.00e+00	0	28	0	446693376	72	4863
2026-01-15 08:13:54.67	98.73	28.03	-53.7	-55.8	14.0	0.00e+00	0	28	0	455081984	72	4899
2026-01-15 08:13:58.70	97.97	28.62	-53.9	-56.1	14.0	0.00e+00	0	28	0	462422016	73	4781
2026-01-15 08:14:02.73	97.18	29.22	-54.4	-56.7	13.7	0.00e+00	0	28	0	469762048	73	5136
2026-01-15 08:14:06.77	96.36	29.83	-55.1	-57.7	13.3	0.00e+00	0	28	0	477102080	75	5141
2026-01-15 08:14:10.79	95.52	30.44	-55.5	-58.4	13.1	0.00e+00	0	28	0	484442112	76	5230
2026-01-15 08:14:14.82	94.63	31.06	-56.0	-59.1	12.8	0.00e+00	0	28	0	492830720	77	5359
2026-01-15 08:14:18.85	93.72	31.68	-56.1	-59.3	12.7	0.00e+00	0	28	0	500170752	77	5492
2026-01-15 08:14:22.88	92.77	32.31	-55.9	-58.9	12.9	0.00e+00	0	28	0	507510784	77	5258
2026-01-15 08:14:26.91	91.77	32.94	-55.9	-59.0	12.8	0.00e+00	0	28	0	514850816	77	5307
2026-01-15 08:14:30.93	90.75	33.57	-55.9	-58.9	12.9	0.00e+00	0	28	0	523239424	77	5254
2026-01-15 08:14:34.97	89.67	34.21	-55.6	-58.5	13.1	0.00e+00	0	28	0	530579456	77	5009
2026-01-15 08:14:39.00	88.56	34.85	-55.4	-58.1	13.4	0.00e+00	0	28	0	537919488	77	4771
2026-01-15 08:14:43.03	87.40	35.48	-54.8	-57.3	13.7	0.00e+00	0	28	0	545259520	76	4599
2026-01-15 08:14:47.06	86.19	36.12	-54.5	-56.8	13.9	0.00e+00	0	28	0	552599552	75	4642
2026-01-15 08:14:51.08	84.94	36.75	-54.6	-56.9	13.8	0.00e+00	0	28	0	560988160	75	4699
2026-01-15 08:14:55.11	83.64	37.38	-54.5	-56.8	13.9	0.00e+00	0	28	0	568328192	75	4637
2026-01-15 08:14:59.15	82.28	38.00	-54.7	-57.1	13.7	0.00e+00	0	28	0	575668224	75	4779
2026-01-15 08:15:03.17	80.87	38.62	-54.8	-57.2	13.7	0.00e+00	0	28	0	583008256	75	4854
2026-01-15 08:15:07.20	79.41	39.22	-54.8	-57.3	13.7	0.00e+00	0	28	0	590348288	75	4888
2026-01-15 08:15:11.23	77.89	39.82	-54.9	-57.4	13.6	0.00e+00	0	28	0	598736896	75	4959
2026-01-15 08:15:15.27	76.31	40.40	-54.6	-56.9	13.9	0.00e+00	0	28	0	606076928	75	4663
2026-01-15 08:15:19.29	74.69	40.96	-53.8	-55.8	14.3	0.00e+00	0	28	0	613416960	74	4350
2026-01-15 08:15:23.32	73.00	41.50	-53.3	-55.2	14.5	0.00e+00	0	28	0	620756992	73	4297
2026-01-15 08:15:27.35	71.26	42.03	-53.2	-55.1	14.4	0.00e+00	0	28	0	628097024	72	4534
2026-01-15 08:15:31.39	69.45	42.53	-53.0	-54.8	14.6	0.00e+00	0	28	0	636485632	72	4354
2026-01-15 08:15:35.41	67.60	43.00	-53.5	-55.4	14.3	0.00e+00	0	28	0	643825664	72	4684
2026-01-15 08:15:39.43	65.69	43.44	-53.8	-55.8	14.1	0.00e+00	0	28	0	651165696	73	4646
2026-01-15 08:15:43.46	63.73	43.85	-53.7	-55.7	14.3	0.00e+00	0	28	0	658505728	73	4587
2026-01-15 08:15:47.49	61.72	44.23	-53.7	-55.7	14.3	0.00e+00	0	28	0	665845760	73	4571
2026-01-15 08:15:51.52	59.67	44.57	-53.8	-55.8	14.2	0.00e+00	0	28	0	674234368	73	4620
2026-01-15 08:15:55.56	57.56	44.87	-53.9	-56.0	14.1	0.00e+00	0	28	0	681574400	73	4740
2026-01-15 08:15:59.59	55.43	45.12	-54.5	-56.9	13.8	0.00e+00	0	28	0	688914432	74	4935
2026-01-15 08:16:03.61	53.27	45.34	-54.5	-56.7	13.9	0.00e+00	0	28	0	696254464	74	4859
2026-01-15 08:16:07.64	51.07	45.51	-55.1	-57.6	13.5	0.00e+00	0	28	0	703594496	75	5076
2026-01-15 08:16:11.67	48.86	45.63	-54.9	-57.3	13.7	0.00e+00	0	28	0	711983104	75	4901
2026-01-15 08:16:15.70	46.63	45.71	-54.8	-57.2	13.7	0.00e+00	0	28	0	719323136	75	4867
2026-01-15 08:16:19.73	44.39	45.73	-54.9	-57.3	13.7	0.00e+00	0	28	0	726663168	75	4890
2026-01-15 08:16:23.76	42.16	45.71	-55.0	-57.5	13.6	0.00e+00	0	28	0	734003200	75	4995
2026-01-15 08:16:27.79	39.93	45.64	-55.2	-57.7	13.4	0.00e+00	0	28	0	741343232	75	5146
2026-01-15 08:16:31.83	37.71	45.52	-55.3	-57.9	13.4	0.00e+00	0	28	0	749731840	75	5230
2026-01-15 08:16:35.87	35.51	45.36	-55.9	-58.9	13.0	0.00e+00	0	28	0	757071872	77	5242
2026-01-15 08:16:39.90	33.34	45.15	-56.0	-58.9	13.0	0.00e+00	0	28	0	764411904	77	5250
2026-01-15 08:16:43.92	31.21	44.90	-55.4	-58.0	13.5	0.00e+00	0	28	0	771751936	77	4710
2026-01-15 08:16:47.95	29.11	44.60	-55.3	-57.8	13.6	0.00e+00	0	28	0	779091968	77	4621
2026-01-15 08:16:51.97	27.05	44.27	-54.4	-56.6	14.0	0.00e+00	0	28	0	787480576	75	4514
2026-01-15 08:16:56.00	25.04	43.90	-54.0	-56.0	14.3	0.00e+00	0	28	0	794820608	74	4461
2026-01-15 08:17:00.03	23.07	43.49	-53.1	-55.0	14.5	0.00e+00	0	28	0	802160640	72	4453
2026-01-15 08:17:04.06	21.16	43.05	-52.6	-54.4	14.6	0.00e+00	0	28	0	809500672	71	4395
2026-01-15 08:17:08.09	19.30	42.59	-51.9	-53.4	14.9	0.00e+00	0	28	0	817889280	70	4193
2026-01-15 08:17:12.12	17.49	42.09	-51.8	-53.4	14.8	0.00e+00	0	28	0	825229312	69	4408
2026-01-15 08:17:16.16	15.74	41.57	-51.4	-52.8	14.9	0.00e+00	0	28	0	832569344	69	4143
2026-01-15 08:17:20.19	14.05	41.03	-52.0	-53.6	14.7	0.00e+00	0	28	0	839909376	69	4508
2026-01-15 08:17:24.22	12.42	40.47	-51.4	-52.9	14.9	0.00e+00	0	28	0	847249408	69	4160
2026-01-15 08:17:28.24	10.84	39.90	-52.0	-53.6	14.7	0.00e+00	0	28	0	855638016	69	4512
2026-01-15 08:17:32.27	9.32	39.31	-52.0	-53.6	14.7	0.00e+00	0	28	0	862978048	69	4530
2026-01-15 08:17:36.31	7.85	38.70	-52.3	-54.0	14.5	0.00e+00	0	28	0	870318080	69	4725
2026-01-15 08:17:40.34	6.44	38.09	-52.9	-54.7	14.4	0.00e+00	0	28	0	877658112	71	4588
2026-01-15 08:17:44.37	5.08	37.47	-52.8	-54.5	14.5	0.00e+00	0	28	0	884998144	71	4492
2026-01-15 08:17:48.39	3.78	36.84	-53.4	-55.3	14.2	0.00e+00	0	28	0	893386752	71	4886
2026-01-15 08:17:52.42	2.52	36.21	-53.8	-55.8	14.1	0.00e+00	0	28	0	900726784	72	4894
2026-01-15 08:17:56.44	1.31	35.58	-54.5	-56.7	13.9	0.00e+00	0	28	0	908066816	74	4854
2026-01-15 08:18:00.47	0.15	34.95	-55.2	-57.7	13.4	0.00e+00	0	28	0	915406848	75	5154
2026-01-15 08:18:04.50	359.03	34.31	-55.7	-58.5	13.2	0.00e+00	0	28	0	922746880	76	5291
2026-01-15 08:18:08.53	357.96	33.68	-56.3	-59.5	12.6	0.00e+00	0	28	0	931135488	77	5600
2026-01-15 08:18:12.56	356.92	33.04	-56.6	-60.0	12.4	0.00e+00	0	28	0	938475520	78	5597
2026-01-15 08:18:16.59	355.93	32.42	-56.1	-59.1	13.0	0.00e+00	0	28	0	945815552	78	5066
2026-01-15 08:18:20.62	354.98	31.79	-56.0	-59.0	13.0	0.00e+00	0	28	0	953155584	78	5007
2026-01-15 08:18:24.65	354.06	31.17	-55.8	-58.7	13.2	0.00e+00	0	28	0	960495616	78	4836
2026-01-15 08:18:28.67	353.18	30.55	-55.0	-57.5	13.7	0.00e+00	0	28	0	968884224	76	4706
2026-01-15 08:18:32.70	352.33	29.94	-55.1	-57.7	13.6	0.00e+00	0	28	0	976224256	76	4825
2026-01-15 08:18:36.73	351.51	29.34	-55.2	-57.8	13.5	0.00e+00	0	28	0	983564288	76	4874
2026-01-15 08:18:40.76	350.72	28.74	-54.9	-57.3	13.8	0.00e+00	0	28	0	990904320	76	4631
2026-01-15 08:18:44.79	349.96	28.15	-55.2	-57.8	13.5	0.00e+00	0	28	0	998244352	76	4903
2026-01-15 08:18:48.83	349.23	27.56	-55.0	-57.4	13.6	0.00e+00	0	28	0	1006632960	76	4694
2026-01-15 08:18:52.86	348.53	26.99	-55.0	-57.5	13.7	0.00e+00	0	27	0	1013972992	76	4731
2026-01-15 08:18:56.88	347.85	26.42	-54.4	-56.7	13.9	0.00e+00	0	28	0	1021313024	75	4587
2026-01-15 08:19:00.91	347.19	25.86	-54.3	-56.5	14.0	0.00e+00	0	28	0	1028653056	75	4480
2026-01-15 08:19:04.94	346.56	25.30	-54.2	-56.4	14.0	0.00e+00	0	28	0	1035993088	74	4703
2026-01-15 08:19:08.98	345.95	24.75	-54.4	-56.7	13.8	0.00e+00	0	28	0	1044381696	74	4836
2026-01-15 08:19:13.01	345.36	24.21	-54.2	-56.4	14.0	0.00e+00	0	28	0	1051721728	74	4665
2026-01-15 08:19:17.05	344.79	23.68	-53.9	-56.1	14.1	0.00e+00	0	28	0	1059061760	74	4499
2026-01-15 08:19:21.07	344.25	23.16	-53.8	-55.8	14.2	0.00e+00	0	28	0	1066401792	74	4388
2026-01-15 08:19:25.10	343.72	22.64	-53.6	-55.7	14.2	0.00e+00	0	28	0	1073741824	73	4559
2026-01-15 08:19:29.13	343.20	22.13	-53.8	-55.9	14.1	0.00e+00	0	28	0	1082130432	73	4658
2026-01-15 08:19:33.16	342.71	21.63	-53.8	-55.8	14.1	0.00e+00	0	28	0	1089470464	73	4638
2026-01-15 08:19:37.20	342.23	21.14	-53.6	-55.6	14.2	0.00e+00	0	28	0	1096810496	73	4545
2026-01-15 08:19:41.22	341.76	20.65	-53.7	-55.8	14.1	0.00e+00	0	28	0	1104150528	73	4645
2026-01-15 08:19:45.25	341.31	20.18	-54.0	-56.1	14.0	0.00e+00	0	28	0	1112539136	73	4795
2026-01-15 08:19:49.29	340.88	19.70	-54.0	-56.1	13.9	0.00e+00	0	28	0	1119879168	73	4805
2026-01-15 08:19:53.32	340.46	19.24	-54.0	-56.2	13.9	0.00e+00	0	28	0	1127219200	73	4855
2026-01-15 08:19:57.35	340.05	18.78	-53.9	-56.1	13.9	0.00e+00	0	28	0	1134559232	73	4806
2026-01-15 08:20:01.39	339.65	18.33	-54.0	-56.2	13.9	0.00e+00	0	28	0	1141899264	73	4866
2026-01-15 08:20:05.42	339.26	17.88	-54.1	-56.4	13.8	0.00e+00	0	28	0	1150287872	73	4933
2026-01-15 08:20:09.45	338.89	17.45	-54.2	-56.5	13.7	0.00e+00	0	28	0	1157627904	73	5004
2026-01-15 08:20:13.48	338.53	17.02	-54.5	-57.0	13.6	0.00e+00	0	28	0	1164967936	74	4998
2026-01-15 08:20:17.51	338.18	16.59	-54.5	-57.0	13.6	0.00e+00	0	28	0	1172307968	74	4987
2026-01-15 08:20:21.55	337.84	16.17	-54.4	-56.7	13.7	0.00e+00	0	28	0	1179648000	74	4868
2026-01-15 08:20:25.58	337.50	15.76	-54.3	-56.7	13.8	0.00e+00	0	28	0	1188036608	74	4820
2026-01-15 08:20:29.60	337.18	15.35	-54.2	-56.5	13.8	0.00e+00	0	28	0	1195376640	74	4726
2026-01-15 08:20:33.62	336.87	14.95	-54.1	-56.3	13.9	0.00e+00	0	28	0	1202716672	74	4631
2026-01-15 08:20:37.66	336.56	14.56	-54.3	-56.7	13.7	0.00e+00	0	28	0	1210056704	74	4817
2026-01-15 08:20:41.69	336.27	14.17	-54.4	-56.8	13.6	0.00e+00	0	28	0	1217396736	74	4923
2026-01-15 08:20:45.72	335.98	13.78	-54.6	-57.1	13.5	3.80e-06	0	28	0	1225785344	74	5075
2026-01-15 08:20:49.75	335.70	13.40	-54.6	-57.1	13.5	0.00e+00	0	28	0	1233125376	74	5063
2026-01-15 08:20:53.79	335.43	13.03	-54.6	-57.1	13.5	1.22e-05	0	28	0	1240465408	74	5080
2026-01-15 08:20:57.82	335.16	12.66	-54.5	-57.0	13.5	1.29e-05	0	28	0	1247805440	74	5025
2026-01-15 08:21:01.85	334.90	12.30	-54.6	-57.3	13.4	8.30e-06	0	28	0	1255145472	74	5161
2026-01-15 08:21:05.87	334.65	11.94	-54.8	-57.4	13.3	0.00e+00	0	28	0	1263534080	74	5278
2026-01-15 08:21:09.90	334.40	11.58	-54.7	-57.4	13.3	0.00e+00	0	28	0	1270874112	74	5254
2026-01-15 08:21:13.92	334.16	11.23	-54.7	-57.3	13.3	0.00e+00	0	28	0	1278214144	74	5186
2026-01-15 08:21:17.95	333.93	10.89	-54.6	-57.2	13.4	0.00e+00	0	28	0	1285554176	74	5113
2026-01-15 08:21:21.97	333.70	10.55	-54.6	-57.2	13.3	1.37e-05	0	28	0	1293942784	74	5138
2026-01-15 08:21:26.00	333.48	10.21	-54.6	-57.2	13.3	0.00e+00	0	28	0	1301282816	74	5123
2026-01-15 08:21:30.03	333.26	9.88	-54.7	-57.4	13.2	0.00e+00	0	28	0	1308622848	74	5220
2026-01-15 08:21:34.06	333.05	9.55	-55.0	-57.9	13.0	0.00e+00	0	28	0	1315962880	75	5230
2026-01-15 08:21:38.09	332.84	9.22	-55.0	-57.9	13.0	0.00e+00	0	28	0	1323302912	75	5254
2026-01-15 08:21:42.12	332.64	8.90	-55.0	-58.0	12.9	0.00e+00	0	28	0	1330642944	75	5315
2026-01-15 08:21:46.14	332.45	8.58	-55.2	-58.3	12.7	7.00e-07	0	28	0	1339031552	75	5499
2026-01-15 08:21:50.17	332.25	8.27	-55.1	-58.2	12.8	3.28e-05	0	28	0	1346371584	75	5422
2026-01-15 08:21:54.19	332.07	7.96	-55.2	-58.4	12.6	0.00e+00	0	28	0	1353711616	75	5569
2026-01-15 08:21:58.21	331.88	7.65	-55.2	-58.3	12.7	4.50e-06	0	28	0	1361051648	75	5483
2026-01-15 08:22:02.25	331.70	7.35	-55.3	-58.5	12.6	0.00e+00	0	28	0	1368391680	75	5613
2026-01-15 08:22:06.28	331.53	7.05	-55.2	-58.4	12.5	0.00e+00	0	28	0	1376780288	75	5589
2026-01-15 08:22:10.30	331.36	6.75	-55.3	-58.6	12.4	0.00e+00	0	28	0	1384120320	75	5692
2026-01-15 08:22:14.32	331.19	6.46	-55.2	-58.5	12.5	0.00e+00	0	28	0	1391460352	75	5639
2026-01-15 08:22:18.35	331.02	6.17	-55.5	-59.0	12.3	7.00e-07	0	28	0	1398800384	76	5601
2026-01-15 08:22:22.38	330.86	5.88	-55.6	-59.2	12.1	1.50e-06	0	28	0	1407188992	76	5733
2026-01-15 08:22:26.41	330.70	5.59	-55.6	-59.2	12.1	0.00e+00	0	28	0	1414529024	76	5738
2026-01-15 08:22:30.44	330.55	5.31	-55.7	-59.3	12.0	7.00e-07	0	28	0	1421869056	76	5829
2026-01-15 08:22:34.47	330.40	5.03	-56.5	-61.2	11.0	1.50e-06	0	28	0	1429209088	78	6456
2026-01-15 08:22:38.50	330.25	4.75	-59.8	-75.9	3.8	1.49e+00	0	28	104	1430257664	84	24805
2026-01-15 08:22:42.53	330.11	4.48	-60.3	-76.3	3.8	1.49e+00	0	28	104	1430257664	85	24656
2026-01-15 08:22:46.56	329.97	4.21	-60.4	-76.5	3.8	1.49e+00	0	28	104	1430257664	85	25128
2026-01-15 08:22:50.59	329.83	3.94	-60.5	-76.6	3.8	1.49e+00	0	28	104	1430257664	86	24055
2026-01-15 08:22:54.62	329.69	3.67	-60.5	-76.6	3.8	1.49e+00	0	28	104	1430257664	86	24094
2026-01-15 08:22:58.66	329.56	3.41	-60.5	-76.6	3.8	1.49e+00	0	28	104	1430257664	86	23932
2026-01-15 08:23:02.69	329.43	3.15	-60.5	-76.6	3.8	1.49e+00	0	28	104	1430257664	86	23869
2026-01-15 08:23:06.72	329.30	2.89	-60.4	-76.5	3.8	1.49e+00	0	28	104	1430257664	86	23726
2026-01-15 08:23:10.75	329.17	2.63	-60.4	-76.5	3.8	1.49e+00	0	28	104	1430257664	86	23621
2026-01-15 08:23:14.79	329.05	2.37	-60.3	-76.4	3.9	1.49e+00	0	28	104	1430257664	86	23533
2026-01-15 08:23:18.82	328.93	2.12	-60.4	-76.4	3.8	1.49e+00	0	28	104	1430257664	86	23572
2026-01-15 08:23:22.86	328.81	1.87	-60.3	-76.4	3.8	1.49e+00	0	28	104	1430257664	86	23458

#Closed at: 2026-01-15 08:23:22
#Recorded file [1430 MB]: D:/lorett/data/31004_260115_110920.dat