passes_logs/2026/01/15/R3.2S_Murmansk/R3.2S_Murmansk__20260115_035051_FENGYUN_3D_rec.log

#Pass ID: 20260115_035051_FENGYUN 3D
#Satellite: FENGYUN 3D
#Configuration: FENGYUN 3D
#almurnet v.1.7.20251203
#Start time: 2026-01-15 03:50:52

#Version: 2.2.20231116
#Station: R3.2S_Murmansk
#Location: 33.079688 lon 68.888172 lat
#TLE: 1 43010U 17072A   26014.65117763 -.00000217  00000+0 -80772-4 0  9993
#TLE: 2 43010  98.9933 346.4618 0002330 108.4699 251.6730 14.19694700423204

#Time	Az	El	Level	Level2	SNR	BER	BlckErr	Temp	State	Recorded	gain1	gain2
2026-01-15 03:50:52.83	30.03	2.10	-58.0	-71.0	3.8	8.45e-01	0	26	0	0	82	15878
2026-01-15 03:50:56.82	29.94	2.35	-58.0	-71.0	3.8	8.45e-01	0	26	104	0	81	16731
2026-01-15 03:51:00.83	29.85	2.60	-58.0	-70.9	3.8	8.45e-01	0	26	104	0	81	16639
2026-01-15 03:51:04.82	29.76	2.86	-58.0	-70.8	3.8	8.46e-01	0	26	104	0	81	16403
2026-01-15 03:51:08.81	29.66	3.12	-57.9	-70.3	3.8	8.46e-01	0	26	104	0	81	15546
2026-01-15 03:51:12.80	29.56	3.39	-57.8	-69.3	3.8	8.45e-01	0	26	104	0	81	13830
2026-01-15 03:51:16.79	29.46	3.65	-57.9	-70.1	3.8	8.45e-01	0	26	104	0	81	15055
2026-01-15 03:51:20.77	29.36	3.92	-57.7	-67.3	4.2	8.36e-01	0	26	0	0	81	10965
2026-01-15 03:51:24.74	29.26	4.18	-56.9	-63.2	6.3	2.75e-01	0	27	0	10485760	80	7229
2026-01-15 03:51:28.72	29.15	4.46	-55.8	-60.2	8.8	1.45e-02	0	27	0	32505856	78	5735
2026-01-15 03:51:32.72	29.04	4.73	-55.6	-59.7	9.1	8.87e-03	0	27	0	54525952	77	5762
2026-01-15 03:51:36.71	28.93	5.01	-56.0	-60.7	8.3	3.27e-02	0	27	0	77594624	77	6445
2026-01-15 03:51:40.70	28.82	5.29	-53.8	-56.3	11.9	3.52e-02	0	27	0	97517568	74	4607
2026-01-15 03:51:44.70	28.70	5.57	-50.9	-52.5	13.8	0.00e+00	0	27	0	119537664	68	4239
2026-01-15 03:51:48.68	28.58	5.86	-50.7	-52.3	13.8	0.00e+00	0	27	0	141557760	67	4381
2026-01-15 03:51:52.68	28.46	6.15	-50.7	-52.3	13.9	0.00e+00	0	27	0	163577856	67	4357
2026-01-15 03:51:56.66	28.33	6.44	-50.5	-52.1	13.9	0.00e+00	0	27	0	186646528	66	4506
2026-01-15 03:52:00.65	28.21	6.74	-50.3	-51.8	14.0	0.00e+00	0	27	0	208666624	66	4391
2026-01-15 03:52:04.63	28.07	7.04	-50.2	-51.8	14.1	0.00e+00	0	27	0	231735296	66	4341
2026-01-15 03:52:08.64	27.94	7.34	-50.2	-51.7	14.1	0.00e+00	0	27	0	253755392	66	4332
2026-01-15 03:52:12.63	27.80	7.65	-50.3	-51.7	14.1	0.00e+00	0	27	0	276824064	66	4339
2026-01-15 03:52:16.63	27.66	7.96	-49.7	-51.1	14.4	0.00e+00	0	27	0	298844160	66	4045
2026-01-15 03:52:20.61	27.52	8.27	-49.6	-51.0	14.3	0.00e+00	0	27	0	320864256	65	4229
2026-01-15 03:52:24.61	27.37	8.59	-49.7	-51.2	14.3	0.00e+00	0	27	0	343932928	65	4292
2026-01-15 03:52:28.60	27.22	8.91	-49.5	-50.9	14.4	0.00e+00	0	27	0	365953024	65	4156
2026-01-15 03:52:32.59	27.07	9.23	-49.3	-50.6	14.5	0.00e+00	0	27	0	389021696	65	4050
2026-01-15 03:52:36.56	26.91	9.56	-49.1	-50.4	14.5	0.00e+00	0	27	0	411041792	64	4185
2026-01-15 03:52:40.56	26.75	9.89	-49.2	-50.5	14.5	0.00e+00	0	27	0	433061888	64	4232
2026-01-15 03:52:44.56	26.58	10.23	-49.0	-50.3	14.6	0.00e+00	0	27	0	456130560	64	4137
2026-01-15 03:52:48.55	26.41	10.57	-48.9	-50.2	14.6	0.00e+00	0	27	0	478150656	64	4087
2026-01-15 03:52:52.54	26.24	10.92	-48.9	-50.2	14.6	0.00e+00	0	27	0	501219328	64	4085
2026-01-15 03:52:56.53	26.06	11.27	-48.9	-50.3	14.6	0.00e+00	0	27	0	523239424	64	4099
2026-01-15 03:53:00.53	25.87	11.62	-49.0	-50.2	14.6	0.00e+00	0	28	0	546308096	64	4091
2026-01-15 03:53:04.54	25.68	11.99	-48.8	-50.1	14.6	0.00e+00	0	27	0	568328192	63	4251
2026-01-15 03:53:08.55	25.49	12.35	-48.6	-49.8	14.7	0.00e+00	0	27	0	591396864	63	4130
2026-01-15 03:53:12.54	25.29	12.72	-48.5	-49.8	14.7	0.00e+00	0	27	0	613416960	63	4109
2026-01-15 03:53:16.54	25.08	13.10	-48.6	-49.8	14.7	0.00e+00	0	27	0	636485632	63	4135
2026-01-15 03:53:20.54	24.87	13.48	-48.3	-49.6	14.8	0.00e+00	0	28	0	658505728	63	4008
2026-01-15 03:53:24.54	24.65	13.87	-48.3	-49.5	14.9	0.00e+00	0	27	0	680525824	63	3971
2026-01-15 03:53:28.52	24.43	14.26	-48.3	-49.5	14.9	0.00e+00	0	27	0	703594496	63	3991
2026-01-15 03:53:32.52	24.20	14.66	-48.2	-49.4	14.9	0.00e+00	0	27	0	725614592	63	3958
2026-01-15 03:53:36.53	23.96	15.07	-48.2	-49.4	14.9	0.00e+00	0	27	0	748683264	63	3953
2026-01-15 03:53:40.53	23.72	15.48	-48.2	-49.4	14.8	0.00e+00	0	27	0	770703360	62	4148
2026-01-15 03:53:44.55	23.46	15.90	-47.8	-48.9	15.0	0.00e+00	0	28	0	793772032	62	3943
2026-01-15 03:53:48.55	23.20	16.33	-47.6	-48.8	14.9	0.00e+00	0	27	0	815792128	61	4103
2026-01-15 03:53:52.55	22.94	16.76	-47.2	-48.3	15.1	0.00e+00	0	27	0	838860800	61	3906
2026-01-15 03:53:56.54	22.66	17.20	-47.0	-48.1	15.0	0.00e+00	0	28	0	860880896	60	4011
2026-01-15 03:54:00.55	22.38	17.65	-47.0	-48.1	15.0	0.00e+00	0	28	0	883949568	60	4035
2026-01-15 03:54:04.56	22.08	18.10	-47.1	-48.2	15.0	0.00e+00	0	28	0	905969664	60	4067
2026-01-15 03:54:08.57	21.78	18.57	-47.0	-48.2	15.0	0.00e+00	0	28	0	929038336	60	4056
2026-01-15 03:54:12.57	21.47	19.04	-47.0	-48.1	15.0	0.00e+00	0	27	0	951058432	60	4034
2026-01-15 03:54:16.57	21.15	19.52	-46.9	-48.0	15.0	0.00e+00	0	28	0	973078528	60	4003
2026-01-15 03:54:20.58	20.81	20.00	-46.8	-47.9	15.1	0.00e+00	0	28	0	996147200	60	3943
2026-01-15 03:54:24.57	20.47	20.50	-46.8	-47.9	15.1	0.00e+00	0	28	0	1018167296	60	3932
2026-01-15 03:54:28.57	20.11	21.00	-47.0	-48.1	14.9	0.00e+00	0	28	0	1041235968	59	4263
2026-01-15 03:54:32.57	19.74	21.51	-46.9	-48.0	15.0	0.00e+00	0	28	0	1063256064	59	4214
2026-01-15 03:54:36.57	19.36	22.04	-46.6	-47.7	15.1	0.00e+00	0	28	0	1086324736	59	4096
2026-01-15 03:54:40.58	18.96	22.57	-46.6	-47.7	15.1	0.00e+00	0	28	0	1108344832	59	4078
2026-01-15 03:54:44.56	18.55	23.11	-46.6	-47.7	15.1	0.00e+00	0	28	0	1131413504	59	4075
2026-01-15 03:54:48.55	18.13	23.66	-46.6	-47.7	15.1	0.00e+00	0	28	0	1153433600	59	4065
2026-01-15 03:54:52.57	17.68	24.22	-46.4	-47.5	15.2	0.00e+00	0	27	0	1176502272	59	3964
2026-01-15 03:54:56.57	17.23	24.79	-46.3	-47.4	15.2	0.00e+00	0	27	0	1198522368	59	3955
2026-01-15 03:55:00.57	16.75	25.37	-46.3	-47.4	15.2	0.00e+00	0	27	0	1220542464	59	3947
2026-01-15 03:55:04.57	16.26	25.97	-46.3	-47.4	15.2	0.00e+00	0	28	0	1243611136	59	3951
2026-01-15 03:55:08.58	15.74	26.57	-46.2	-47.3	15.3	0.00e+00	0	28	0	1265631232	59	3872
2026-01-15 03:55:12.57	15.21	27.19	-46.2	-47.3	15.2	0.00e+00	0	28	0	1288699904	59	3894
2026-01-15 03:55:16.57	14.65	27.81	-46.1	-47.1	15.1	0.00e+00	0	28	0	1310720000	58	4051
2026-01-15 03:55:20.59	14.07	28.45	-46.0	-47.1	15.2	0.00e+00	0	28	0	1333788672	58	4041
2026-01-15 03:55:24.59	13.47	29.10	-46.2	-47.2	15.1	0.00e+00	0	28	0	1355808768	58	4097
2026-01-15 03:55:28.59	12.84	29.76	-45.9	-47.0	15.2	0.00e+00	0	27	0	1378877440	58	3968
2026-01-15 03:55:32.60	12.18	30.43	-45.7	-46.8	15.1	0.00e+00	0	28	0	1400897536	57	4101
2026-01-15 03:55:36.59	11.49	31.11	-45.7	-46.8	15.1	0.00e+00	0	28	0	1423966208	57	4120
2026-01-15 03:55:40.59	10.78	31.81	-45.5	-46.6	15.2	0.00e+00	0	28	0	1445986304	57	4019
2026-01-15 03:55:44.60	10.03	32.52	-45.3	-46.4	15.3	0.00e+00	0	27	0	1469054976	57	3924
2026-01-15 03:55:48.61	9.25	33.23	-45.6	-46.7	15.2	0.00e+00	0	28	0	1491075072	57	4078
2026-01-15 03:55:52.61	8.43	33.96	-45.4	-46.5	15.2	0.00e+00	0	28	0	1514143744	57	3960
2026-01-15 03:55:56.62	7.57	34.70	-45.3	-46.4	15.1	0.00e+00	0	28	0	1536163840	56	4173
2026-01-15 03:56:00.61	6.67	35.45	-45.4	-46.5	15.1	0.00e+00	0	28	0	1559232512	56	4214
2026-01-15 03:56:04.61	5.73	36.20	-45.5	-46.5	15.1	0.00e+00	0	28	0	1581252608	56	4225
2026-01-15 03:56:08.62	4.75	36.97	-45.7	-46.7	15.1	0.00e+00	0	28	0	1604321280	56	4329
2026-01-15 03:56:12.62	3.71	37.74	-45.5	-46.6	15.1	0.00e+00	0	28	0	1626341376	56	4272
2026-01-15 03:56:16.63	2.62	38.52	-45.7	-46.7	15.1	0.00e+00	0	28	0	1649410048	56	4315
2026-01-15 03:56:20.65	1.48	39.31	-45.8	-46.9	15.0	0.00e+00	0	28	0	1671430144	56	4411
2026-01-15 03:56:24.64	0.28	40.10	-45.6	-46.7	15.1	0.00e+00	0	28	0	1694498816	56	4320
2026-01-15 03:56:28.66	359.02	40.90	-45.5	-46.5	15.1	0.00e+00	0	28	0	1716518912	56	4230
2026-01-15 03:56:32.65	357.70	41.69	-45.8	-46.8	15.0	0.00e+00	0	28	0	1739587584	56	4375
2026-01-15 03:56:36.64	356.32	42.48	-45.5	-46.6	15.1	0.00e+00	0	28	0	1761607680	56	4244
2026-01-15 03:56:40.65	354.85	43.27	-45.8	-46.9	15.1	0.00e+00	0	28	0	1783627776	56	4395
2026-01-15 03:56:44.65	353.32	44.05	-45.6	-46.7	15.1	0.00e+00	0	28	0	1806696448	56	4304
2026-01-15 03:56:48.66	351.71	44.83	-45.8	-46.8	15.1	0.00e+00	0	28	0	1828716544	56	4384
2026-01-15 03:56:52.67	350.01	45.60	-46.1	-47.1	15.1	0.00e+00	0	28	0	1851785216	57	4285
2026-01-15 03:56:56.67	348.24	46.35	-46.3	-47.3	15.0	0.00e+00	0	28	0	1873805312	57	4382
2026-01-15 03:57:00.65	346.38	47.07	-46.5	-47.6	15.0	0.00e+00	0	28	0	1896873984	58	4263
2026-01-15 03:57:04.66	344.43	47.78	-46.5	-47.6	15.1	0.00e+00	0	28	0	1918894080	58	4245
2026-01-15 03:57:08.68	342.38	48.46	-46.4	-47.5	15.1	0.00e+00	0	28	0	1941962752	58	4196
2026-01-15 03:57:12.67	340.25	49.11	-46.9	-48.0	15.0	0.00e+00	0	28	0	1963982848	59	4237
2026-01-15 03:57:16.68	338.03	49.73	-46.8	-47.9	15.1	0.00e+00	0	28	0	1987051520	59	4180
2026-01-15 03:57:20.69	335.71	50.30	-46.6	-47.7	15.1	0.00e+00	0	28	0	2009071616	59	4081
2026-01-15 03:57:24.67	333.33	50.83	-47.0	-48.2	15.0	0.00e+00	0	28	0	2031091712	59	4297
2026-01-15 03:57:28.67	330.85	51.31	-47.0	-48.1	15.0	0.00e+00	0	28	0	2054160384	59	4289
2026-01-15 03:57:32.67	328.30	51.73	-46.9	-48.0	15.0	0.00e+00	0	28	0	2076180480	59	4205
2026-01-15 03:57:36.66	325.68	52.10	-47.0	-48.2	15.0	0.00e+00	0	28	0	2099249152	59	4295
2026-01-15 03:57:40.66	322.99	52.41	-46.9	-47.9	15.0	0.00e+00	0	28	0	2121269248	59	4192
2026-01-15 03:57:44.66	320.26	52.65	-46.9	-48.0	15.0	0.00e+00	0	28	0	2144337920	59	4228
2026-01-15 03:57:48.66	317.48	52.82	-46.7	-47.8	15.1	0.00e+00	0	28	0	2166358016	59	4119
2026-01-15 03:57:52.65	314.69	52.93	-46.8	-47.8	15.1	0.00e+00	0	28	0	2189426688	59	4133
2026-01-15 03:57:56.66	311.86	52.96	-46.9	-48.0	15.0	0.00e+00	0	28	0	2211446784	59	4202
2026-01-15 03:58:00.65	309.06	52.93	-46.7	-47.8	15.1	0.00e+00	0	28	0	2234515456	59	4119
2026-01-15 03:58:04.64	306.26	52.82	-46.5	-47.6	15.2	0.00e+00	0	28	0	2256535552	59	4018
2026-01-15 03:58:08.65	303.48	52.64	-46.7	-47.7	15.1	0.00e+00	0	28	0	2279604224	59	4097
2026-01-15 03:58:12.65	300.74	52.40	-46.8	-47.9	15.1	0.00e+00	0	28	0	2301624320	59	4165
2026-01-15 03:58:16.65	298.06	52.09	-47.0	-48.1	15.0	0.00e+00	0	28	0	2323644416	59	4249
2026-01-15 03:58:20.65	295.44	51.72	-46.6	-47.7	15.1	0.00e+00	0	28	0	2346713088	59	4058
2026-01-15 03:58:24.66	292.88	51.29	-46.6	-47.7	15.1	0.00e+00	0	28	0	2368733184	59	4061
2026-01-15 03:58:28.63	290.42	50.81	-46.8	-47.9	15.1	0.00e+00	0	28	0	2391801856	59	4171
2026-01-15 03:58:32.62	288.03	50.28	-46.9	-48.0	15.0	0.00e+00	0	28	0	2413821952	59	4197
2026-01-15 03:58:36.61	285.73	49.70	-46.7	-47.8	15.1	0.00e+00	0	28	0	2435842048	59	4131
2026-01-15 03:58:40.61	283.50	49.09	-46.8	-47.9	15.0	0.00e+00	0	28	0	2458910720	59	4181
2026-01-15 03:58:44.60	281.38	48.44	-46.6	-47.7	15.1	0.00e+00	0	28	0	2480930816	59	4083
2026-01-15 03:58:48.59	279.35	47.75	-46.4	-47.5	15.2	0.00e+00	0	28	0	2503999488	59	3963
2026-01-15 03:58:52.60	277.39	47.04	-46.2	-47.3	15.1	0.00e+00	0	28	0	2526019584	58	4101
2026-01-15 03:58:56.59	275.53	46.31	-45.8	-46.8	15.3	0.00e+00	0	28	0	2549088256	58	3884
2026-01-15 03:59:00.60	273.75	45.56	-45.9	-47.0	15.1	0.00e+00	0	28	0	2571108352	57	4201
2026-01-15 03:59:04.60	272.06	44.80	-46.1	-47.1	15.1	0.00e+00	0	28	0	2594177024	57	4285
2026-01-15 03:59:08.59	270.45	44.02	-45.7	-46.8	15.2	0.00e+00	0	28	0	2616197120	57	4104
2026-01-15 03:59:12.59	268.92	43.23	-45.4	-46.4	15.3	0.00e+00	0	28	0	2639265792	57	3949
2026-01-15 03:59:16.59	267.46	42.44	-45.7	-46.7	15.2	0.00e+00	0	28	0	2661285888	57	4098
2026-01-15 03:59:20.60	266.07	41.65	-45.7	-46.7	15.2	0.00e+00	0	27	0	2683305984	57	4085
2026-01-15 03:59:24.60	264.74	40.85	-45.6	-46.6	15.2	0.00e+00	0	28	0	2706374656	57	4030
2026-01-15 03:59:28.60	263.49	40.06	-46.0	-47.1	15.1	0.00e+00	0	28	0	2728394752	57	4259
2026-01-15 03:59:32.59	262.29	39.27	-45.6	-46.7	15.2	0.00e+00	0	28	0	2751463424	57	4069
2026-01-15 03:59:36.58	261.15	38.48	-45.7	-46.7	15.1	0.00e+00	0	28	0	2773483520	57	4091
2026-01-15 03:59:40.59	260.07	37.70	-45.7	-46.8	15.2	0.00e+00	0	28	0	2796552192	57	4103
2026-01-15 03:59:44.60	259.03	36.92	-45.4	-46.4	15.3	0.00e+00	0	28	0	2818572288	57	3921
2026-01-15 03:59:48.59	258.04	36.15	-45.5	-46.6	15.2	0.00e+00	0	28	0	2841640960	57	4026
2026-01-15 03:59:52.59	257.10	35.40	-45.3	-46.4	15.3	0.00e+00	0	28	0	2863661056	57	3931
2026-01-15 03:59:56.59	256.20	34.65	-45.0	-46.0	15.2	0.00e+00	0	28	0	2886729728	56	3984
2026-01-15 04:00:00.59	255.35	33.91	-45.4	-46.5	15.1	0.00e+00	0	28	0	2908749824	56	4203
2026-01-15 04:00:04.57	254.53	33.18	-45.4	-46.4	15.1	0.00e+00	0	28	0	2930769920	56	4176
2026-01-15 04:00:08.57	253.75	32.46	-45.7	-46.8	15.1	0.00e+00	0	28	0	2953838592	56	4341
2026-01-15 04:00:12.56	253.00	31.76	-45.7	-46.7	15.1	0.00e+00	0	28	0	2975858688	56	4340
2026-01-15 04:00:16.56	252.28	31.06	-45.7	-46.8	15.1	0.00e+00	0	28	0	2998927360	56	4365
2026-01-15 04:00:20.57	251.59	30.38	-45.7	-46.7	15.1	0.00e+00	0	28	0	3020947456	56	4335
2026-01-15 04:00:24.57	250.93	29.70	-46.0	-47.0	15.1	0.00e+00	0	28	0	3044016128	57	4233
2026-01-15 04:00:28.57	250.30	29.04	-46.0	-47.0	15.1	0.00e+00	0	28	0	3066036224	57	4232
2026-01-15 04:00:32.54	249.70	28.40	-46.1	-47.2	15.0	0.00e+00	0	28	0	3088056320	57	4317
2026-01-15 04:00:36.52	249.12	27.76	-45.9	-47.0	15.1	0.00e+00	0	28	0	3111124992	57	4203
2026-01-15 04:00:40.52	248.57	27.13	-46.2	-47.2	15.0	0.00e+00	0	28	0	3133145088	57	4336
2026-01-15 04:00:44.51	248.03	26.52	-46.2	-47.2	15.0	0.00e+00	0	28	0	3156213760	57	4338
2026-01-15 04:00:48.51	247.52	25.91	-46.1	-47.2	15.0	0.00e+00	0	28	0	3178233856	57	4306
2026-01-15 04:00:52.51	247.02	25.32	-46.1	-47.2	15.0	0.00e+00	0	28	0	3200253952	57	4330
2026-01-15 04:00:56.49	246.54	24.74	-46.0	-47.1	15.1	0.00e+00	0	28	0	3223322624	57	4249
2026-01-15 04:01:00.47	246.09	24.17	-46.2	-47.3	15.0	0.00e+00	0	28	0	3245342720	57	4342
2026-01-15 04:01:04.48	245.64	23.60	-46.1	-47.2	15.0	0.00e+00	0	28	0	3268411392	57	4329
2026-01-15 04:01:08.49	245.21	23.05	-46.1	-47.1	15.0	0.00e+00	0	28	0	3290431488	57	4284
2026-01-15 04:01:12.49	244.80	22.51	-46.3	-47.3	15.0	0.00e+00	0	28	0	3313500160	57	4378
2026-01-15 04:01:16.50	244.40	21.97	-46.6	-47.7	15.0	0.00e+00	0	28	0	3335520256	58	4301
2026-01-15 04:01:20.51	244.02	21.45	-46.7	-47.9	15.0	0.00e+00	0	28	0	3358588928	58	4399
2026-01-15 04:01:24.50	243.65	20.93	-46.7	-47.9	15.0	0.00e+00	0	28	0	3380609024	59	4147
2026-01-15 04:01:28.49	243.29	20.43	-46.8	-47.9	15.0	0.00e+00	0	28	0	3403677696	59	4151
2026-01-15 04:01:32.49	242.94	19.93	-46.9	-48.0	15.0	0.00e+00	0	28	0	3425697792	59	4201
2026-01-15 04:01:36.47	242.61	19.45	-47.0	-48.1	14.9	0.00e+00	0	28	0	3447717888	59	4283
2026-01-15 04:01:40.45	242.28	18.97	-47.0	-48.1	14.9	0.00e+00	0	28	0	3470786560	59	4290
2026-01-15 04:01:44.44	241.97	18.50	-47.2	-48.3	14.9	0.00e+00	0	28	0	3492806656	59	4377
2026-01-15 04:01:48.42	241.67	18.04	-47.3	-48.5	14.9	0.00e+00	0	28	0	3514826752	59	4453
2026-01-15 04:01:52.41	241.37	17.59	-47.2	-48.4	14.9	0.00e+00	0	28	0	3537895424	60	4147
2026-01-15 04:01:56.42	241.09	17.14	-47.3	-48.5	14.9	0.00e+00	0	28	0	3559915520	60	4195
2026-01-15 04:02:00.43	240.81	16.69	-47.4	-48.5	14.9	0.00e+00	0	28	0	3582984192	60	4227
2026-01-15 04:02:04.42	240.54	16.26	-47.3	-48.5	14.9	0.00e+00	0	28	0	3605004288	60	4220
2026-01-15 04:02:08.42	240.28	15.84	-47.3	-48.4	14.9	0.00e+00	0	28	0	3628072960	60	4172
2026-01-15 04:02:12.43	240.02	15.41	-47.4	-48.6	14.9	0.00e+00	0	28	0	3650093056	60	4254
2026-01-15 04:02:16.43	239.78	15.00	-47.6	-48.8	14.8	0.00e+00	0	28	0	3673161728	60	4347
2026-01-15 04:02:20.41	239.54	14.60	-47.9	-49.0	14.8	0.00e+00	0	28	0	3695181824	61	4232
2026-01-15 04:02:24.42	239.31	14.19	-48.0	-49.2	14.8	0.00e+00	0	28	0	3717201920	61	4300
2026-01-15 04:02:28.42	239.08	13.80	-48.1	-49.3	14.7	0.00e+00	0	28	0	3740270592	61	4373
2026-01-15 04:02:32.42	238.86	13.41	-48.3	-49.5	14.7	0.00e+00	0	28	0	3762290688	61	4487
2026-01-15 04:02:36.41	238.65	13.03	-48.3	-49.5	14.6	0.00e+00	0	28	0	3785359360	61	4490
2026-01-15 04:02:40.40	238.44	12.65	-48.4	-49.6	14.7	0.00e+00	0	28	0	3807379456	62	4250
2026-01-15 04:02:44.38	238.24	12.28	-48.4	-49.6	14.7	0.00e+00	0	28	0	3829399552	62	4289
2026-01-15 04:02:48.39	238.04	11.91	-48.3	-49.6	14.7	0.00e+00	0	28	0	3852468224	62	4251
2026-01-15 04:02:52.37	237.85	11.55	-48.5	-49.7	14.6	0.00e+00	0	28	0	3874488320	62	4316
2026-01-15 04:02:56.37	237.66	11.19	-48.6	-49.8	14.6	0.00e+00	0	28	0	3897556992	62	4371
2026-01-15 04:03:00.39	237.48	10.84	-48.6	-49.8	14.6	0.00e+00	0	28	0	3920625664	62	4355
2026-01-15 04:03:04.39	237.30	10.49	-48.7	-50.0	14.6	0.00e+00	0	28	0	3942645760	62	4458
2026-01-15 04:03:08.39	237.13	10.15	-48.8	-50.1	14.5	0.00e+00	0	28	0	3964665856	62	4504
2026-01-15 04:03:12.37	236.96	9.81	-48.8	-50.1	14.6	0.00e+00	0	28	0	3987734528	63	4280
2026-01-15 04:03:16.38	236.79	9.48	-49.0	-50.3	14.5	0.00e+00	0	28	0	4009754624	63	4386
2026-01-15 04:03:20.38	236.63	9.15	-49.1	-50.4	14.5	0.00e+00	0	28	0	4032823296	63	4416
2026-01-15 04:03:24.38	236.48	8.82	-49.2	-50.5	14.4	0.00e+00	0	28	0	4054843392	63	4468
2026-01-15 04:03:28.37	236.32	8.50	-49.3	-50.7	14.5	0.00e+00	0	28	0	4076863488	64	4294
2026-01-15 04:03:32.35	236.17	8.18	-49.4	-50.8	14.4	0.00e+00	0	28	0	4099932160	64	4360
2026-01-15 04:03:36.34	236.03	7.87	-49.5	-50.9	14.3	0.00e+00	0	28	0	4121952256	64	4427
2026-01-15 04:03:40.31	235.89	7.56	-49.7	-51.1	14.2	0.00e+00	0	28	0	4145020928	64	4495
2026-01-15 04:03:44.29	235.75	7.25	-49.6	-50.9	14.4	0.00e+00	0	28	0	4167041024	65	4189
2026-01-15 04:03:48.28	235.61	6.95	-49.7	-51.2	14.3	0.00e+00	0	28	0	4189061120	65	4292
2026-01-15 04:03:52.27	235.48	6.65	-50.0	-51.5	14.1	0.00e+00	0	28	0	4212129792	65	4455
2026-01-15 04:03:56.28	235.35	6.35	-49.9	-51.3	14.2	0.00e+00	0	28	0	4234149888	65	4375
2026-01-15 04:04:00.28	235.22	6.06	-50.0	-51.5	14.1	0.00e+00	0	28	0	4257218560	65	4445
2026-01-15 04:04:04.28	235.10	5.77	-50.1	-51.6	14.0	0.00e+00	0	28	0	4279238656	65	4521
2026-01-15 04:04:08.29	234.97	5.48	-50.4	-52.0	13.9	0.00e+00	0	28	0	4302307328	66	4460
2026-01-15 04:04:12.28	234.85	5.20	-50.4	-51.9	13.9	0.00e+00	0	28	0	4324327424	66	4409
2026-01-15 04:04:16.29	234.74	4.91	-59.1	-71.9	3.8	8.46e-01	0	28	104	4343201792	83	16663
2026-01-15 04:04:20.28	234.62	4.64	-60.1	-73.1	3.8	8.45e-01	0	28	104	4343201792	85	17008
2026-01-15 04:04:24.29	234.51	4.36	-60.3	-73.4	3.8	8.46e-01	0	28	104	4343201792	85	17623
2026-01-15 04:04:28.28	234.40	4.09	-60.4	-73.5	3.8	8.46e-01	0	28	104	4343201792	85	17807
2026-01-15 04:04:32.28	234.29	3.82	-60.5	-73.6	3.8	8.46e-01	0	28	104	4343201792	86	16993
2026-01-15 04:04:36.26	234.19	3.55	-60.6	-73.7	3.8	8.45e-01	0	28	104	4343201792	86	17171
2026-01-15 04:04:40.26	234.09	3.28	-60.6	-73.7	3.8	8.47e-01	0	28	104	4343201792	86	17097
2026-01-15 04:04:44.26	233.99	3.02	-60.5	-73.6	3.8	8.45e-01	0	28	104	4343201792	86	16921
2026-01-15 04:04:48.27	233.89	2.76	-60.5	-73.6	3.8	8.46e-01	0	28	104	4343201792	86	16972
2026-01-15 04:04:52.27	233.79	2.50	-60.5	-73.5	3.8	8.45e-01	0	28	104	4343201792	86	16861
2026-01-15 04:04:56.27	233.69	2.24	-60.5	-73.5	3.8	8.46e-01	0	28	104	4343201792	86	16886
2026-01-15 04:05:00.26	233.60	1.99	-60.5	-73.5	3.8	8.46e-01	0	28	104	4343201792	86	16851

#Closed at: 2026-01-15 04:05:01
#Recorded file [4343 MB]: D:/lorett/data/31004_260115_065052.dat