passes_logs/2026/01/15/R3.2S_Murmansk/R3.2S_Murmansk__20260115_074858_SUOMI_NPP_rec.log

#Pass ID: 20260115_074858_SUOMI NPP
#Satellite: SUOMI NPP
#Configuration: NPP
#almurnet v.1.7.20251203
#Start time: 2026-01-15 07:49:00

#Version: 2.2.20231116
#Station: R3.2S_Murmansk
#Location: 33.079688 lon 68.888172 lat
#TLE: 1 37849U 11061A   26014.61059675  .00000037  00000+0  38639-4 0  9994
#TLE: 2 37849  98.7810 316.6625 0002460  64.3781 295.7649 14.19525105736658

#Time	Az	El	Level	Level2	SNR	BER	BlckErr	Temp	State	Recorded	gain1	gain2
2026-01-15 07:49:00.07	110.63	2.08	-58.3	-74.3	3.8	1.49e+00	0	26	0	0	83	21839
2026-01-15 07:49:04.06	110.48	2.32	-58.2	-74.2	3.8	1.49e+00	0	26	104	0	81	24310
2026-01-15 07:49:08.02	110.32	2.57	-58.2	-74.2	3.8	1.49e+00	0	26	104	0	81	24255
2026-01-15 07:49:11.97	110.16	2.82	-58.2	-74.2	3.8	1.49e+00	0	26	104	0	81	24381
2026-01-15 07:49:15.92	110.00	3.07	-58.2	-74.2	3.8	1.49e+00	0	26	104	0	81	24296
2026-01-15 07:49:19.89	109.83	3.32	-58.2	-74.1	3.8	1.49e+00	0	26	104	0	81	24003
2026-01-15 07:49:23.91	109.66	3.58	-58.2	-74.1	3.8	1.49e+00	0	26	104	0	81	23864
2026-01-15 07:49:27.94	109.48	3.85	-58.3	-74.1	3.9	1.49e+00	0	27	104	0	81	23939
2026-01-15 07:49:31.96	109.30	4.11	-58.1	-71.1	4.1	1.47e+00	0	26	0	0	81	16929
2026-01-15 07:49:35.99	109.12	4.38	-57.8	-67.8	5.4	4.61e-01	0	26	0	5242880	81	11667
2026-01-15 07:49:40.00	108.94	4.64	-57.5	-65.6	6.9	1.18e-01	0	27	0	13631488	81	8967
2026-01-15 07:49:44.03	108.75	4.92	-57.2	-64.0	8.2	2.73e-02	0	27	0	20971520	81	7522
2026-01-15 07:49:48.05	108.55	5.19	-55.9	-59.9	11.7	2.09e-04	0	27	0	28311552	78	5542
2026-01-15 07:49:52.07	108.36	5.47	-55.5	-59.2	12.1	7.00e-07	0	27	0	33554432	77	5410
2026-01-15 07:49:56.08	108.16	5.74	-55.3	-58.6	12.5	7.00e-07	0	27	0	40894464	77	5087
2026-01-15 07:50:00.10	107.95	6.02	-55.3	-58.7	12.4	0.00e+00	0	27	0	48234496	76	5414
2026-01-15 07:50:04.11	107.74	6.31	-55.3	-58.7	12.4	0.00e+00	0	27	0	56623104	76	5432
2026-01-15 07:50:08.11	107.53	6.59	-55.1	-58.3	12.6	0.00e+00	0	27	0	63963136	76	5187
2026-01-15 07:50:12.13	107.31	6.88	-55.0	-58.1	12.8	0.00e+00	0	27	0	71303168	76	5082
2026-01-15 07:50:16.14	107.09	7.17	-55.2	-58.5	12.5	0.00e+00	0	27	0	78643200	76	5287
2026-01-15 07:50:20.16	106.86	7.47	-55.1	-58.3	12.7	0.00e+00	0	27	0	85983232	76	5191
2026-01-15 07:50:24.19	106.63	7.77	-54.7	-57.6	13.2	0.00e+00	0	27	0	93323264	76	4788
2026-01-15 07:50:28.21	106.39	8.07	-54.9	-57.8	13.0	0.00e+00	0	27	0	101711872	76	4897
2026-01-15 07:50:32.21	106.15	8.37	-55.0	-58.1	12.9	0.00e+00	0	27	0	109051904	76	5071
2026-01-15 07:50:36.22	105.90	8.68	-54.7	-57.5	13.2	0.00e+00	0	27	0	116391936	76	4740
2026-01-15 07:50:40.24	105.65	8.99	-54.1	-56.6	13.5	0.00e+00	0	27	0	123731968	74	4800
2026-01-15 07:50:44.26	105.39	9.30	-54.1	-56.6	13.5	0.00e+00	0	27	0	131072000	74	4776
2026-01-15 07:50:48.25	105.12	9.62	-54.0	-56.5	13.6	0.00e+00	0	27	0	138412032	74	4741
2026-01-15 07:50:52.26	104.85	9.94	-53.5	-56.1	13.7	0.00e+00	0	27	0	146800640	73	4777
2026-01-15 07:50:56.28	104.57	10.26	-53.9	-56.7	13.4	0.00e+00	0	27	0	154140672	73	5101
2026-01-15 07:51:00.27	104.29	10.59	-53.9	-56.7	13.4	0.00e+00	0	27	0	161480704	73	5136
2026-01-15 07:51:04.28	104.00	10.92	-53.8	-56.6	13.5	0.00e+00	0	27	0	168820736	73	5048
2026-01-15 07:51:08.30	103.70	11.26	-53.7	-56.4	13.6	0.00e+00	0	27	0	176160768	73	4951
2026-01-15 07:51:12.31	103.40	11.60	-53.7	-56.5	13.5	0.00e+00	0	27	0	183500800	73	5018
2026-01-15 07:51:16.34	103.08	11.94	-53.5	-56.2	13.7	0.00e+00	0	27	0	191889408	73	4855
2026-01-15 07:51:20.37	102.76	12.29	-53.3	-55.9	13.8	0.00e+00	0	27	0	199229440	72	4955
2026-01-15 07:51:24.40	102.43	12.64	-53.4	-55.9	13.8	0.00e+00	0	27	0	206569472	72	4979
2026-01-15 07:51:28.43	102.09	13.00	-53.4	-55.9	13.8	0.00e+00	0	27	0	213909504	72	4954
2026-01-15 07:51:32.46	101.75	13.36	-53.0	-55.4	14.0	0.00e+00	0	27	0	221249536	72	4688
2026-01-15 07:51:36.48	101.39	13.72	-53.0	-55.3	14.0	0.00e+00	0	27	0	229638144	72	4633
2026-01-15 07:51:40.49	101.03	14.09	-53.2	-55.5	13.9	0.00e+00	0	27	0	236978176	72	4742
2026-01-15 07:51:44.52	100.66	14.46	-53.4	-55.9	13.8	0.00e+00	0	27	0	244318208	72	4936
2026-01-15 07:51:48.55	100.27	14.84	-53.5	-56.0	13.8	0.00e+00	0	28	0	251658240	72	4995
2026-01-15 07:51:52.56	99.88	15.22	-53.9	-56.6	13.5	0.00e+00	0	28	0	258998272	73	5069
2026-01-15 07:51:56.57	99.48	15.61	-53.6	-56.1	13.8	0.00e+00	0	27	0	267386880	73	4814
2026-01-15 07:52:00.59	99.06	16.00	-53.9	-56.5	13.6	0.00e+00	0	28	0	274726912	73	5031
2026-01-15 07:52:04.61	98.63	16.39	-53.5	-56.0	13.9	0.00e+00	0	27	0	282066944	73	4724
2026-01-15 07:52:08.63	98.20	16.79	-53.3	-55.6	14.0	0.00e+00	0	28	0	289406976	72	4806
2026-01-15 07:52:12.64	97.75	17.20	-52.8	-54.9	14.3	0.00e+00	0	27	0	296747008	72	4414
2026-01-15 07:52:16.66	97.29	17.61	-52.8	-54.8	14.2	0.00e+00	0	28	0	305135616	71	4648
2026-01-15 07:52:20.69	96.81	18.03	-52.8	-54.8	14.2	0.00e+00	0	27	0	312475648	71	4649
2026-01-15 07:52:24.71	96.32	18.45	-53.3	-55.5	13.9	0.00e+00	0	28	0	319815680	71	5001
2026-01-15 07:52:28.72	95.82	18.87	-53.4	-55.7	13.9	0.00e+00	0	28	0	327155712	72	4836
2026-01-15 07:52:32.74	95.30	19.30	-53.1	-55.3	14.1	0.00e+00	0	28	0	334495744	72	4619
2026-01-15 07:52:36.76	94.76	19.74	-53.3	-55.6	14.0	0.00e+00	0	28	0	341835776	72	4766
2026-01-15 07:52:40.77	94.22	20.17	-53.6	-56.1	13.8	0.00e+00	0	28	0	350224384	72	5065
2026-01-15 07:52:44.79	93.65	20.62	-53.8	-56.4	13.7	0.00e+00	0	27	0	357564416	72	5267
2026-01-15 07:52:48.81	93.07	21.07	-54.0	-56.6	13.7	0.00e+00	0	28	0	364904448	73	5042
2026-01-15 07:52:52.82	92.47	21.52	-54.1	-56.7	13.6	0.00e+00	0	27	0	372244480	73	5117
2026-01-15 07:52:56.83	91.85	21.98	-54.3	-57.0	13.5	0.00e+00	0	27	0	379584512	74	4989
2026-01-15 07:53:00.84	91.22	22.44	-53.6	-56.0	13.8	0.00e+00	0	28	0	387973120	73	4733
2026-01-15 07:53:04.85	90.56	22.91	-53.2	-55.4	14.2	0.00e+00	0	28	0	395313152	73	4439
2026-01-15 07:53:08.88	89.88	23.39	-53.0	-55.2	14.2	0.00e+00	0	28	0	402653184	72	4570
2026-01-15 07:53:12.88	89.19	23.86	-52.8	-55.0	14.3	0.00e+00	0	28	0	409993216	72	4454
2026-01-15 07:53:16.89	88.47	24.34	-52.9	-55.0	14.4	0.00e+00	0	28	0	417333248	72	4470
2026-01-15 07:53:20.91	87.73	24.83	-53.5	-55.8	13.9	0.00e+00	0	28	0	424673280	72	4882
2026-01-15 07:53:24.91	86.96	25.31	-54.0	-56.5	13.8	0.00e+00	0	28	0	433061888	73	5028
2026-01-15 07:53:28.92	86.17	25.80	-54.6	-57.5	13.3	0.00e+00	0	28	0	440401920	74	5319
2026-01-15 07:53:32.94	85.36	26.30	-54.7	-57.9	13.0	0.00e+00	0	28	0	447741952	74	5530
2026-01-15 07:53:36.95	84.52	26.79	-55.0	-58.3	12.9	0.00e+00	0	28	0	455081984	75	5493
2026-01-15 07:53:40.97	83.65	27.29	-54.3	-57.2	13.5	0.00e+00	0	28	0	462422016	75	4827
2026-01-15 07:53:44.98	82.75	27.79	-53.6	-56.2	13.9	0.00e+00	0	28	0	470810624	73	4829
2026-01-15 07:53:48.99	81.83	28.29	-53.8	-56.3	13.8	0.00e+00	0	28	0	478150656	73	4890
2026-01-15 07:53:53.00	80.87	28.79	-54.0	-56.6	13.7	0.00e+00	0	28	0	485490688	73	5095
2026-01-15 07:53:57.01	79.89	29.29	-53.7	-56.2	13.9	0.00e+00	0	28	0	492830720	73	4840
2026-01-15 07:54:01.03	78.87	29.79	-54.4	-57.4	13.4	0.00e+00	0	28	0	500170752	74	5260
2026-01-15 07:54:05.04	77.82	30.29	-54.4	-57.2	13.5	0.00e+00	0	28	0	507510784	74	5147
2026-01-15 07:54:09.06	76.74	30.78	-54.3	-57.0	13.6	0.00e+00	0	28	0	515899392	74	5016
2026-01-15 07:54:13.07	75.63	31.27	-54.5	-57.4	13.4	0.00e+00	0	28	0	523239424	74	5244
2026-01-15 07:54:17.09	74.48	31.76	-54.8	-58.2	13.0	0.00e+00	0	28	0	530579456	74	5730
2026-01-15 07:54:21.10	73.29	32.24	-55.1	-58.9	12.4	0.00e+00	0	28	0	537919488	75	5903
2026-01-15 07:54:25.12	72.07	32.72	-55.3	-59.4	12.2	0.00e+00	0	28	0	545259520	75	6246
2026-01-15 07:54:29.13	70.81	33.19	-55.4	-59.3	12.4	0.00e+00	0	28	0	552599552	76	5805
2026-01-15 07:54:33.15	69.52	33.64	-56.4	-61.4	11.1	3.66e-05	0	28	0	560988160	78	6630
2026-01-15 07:54:37.16	68.19	34.09	-56.4	-61.4	11.0	1.63e-04	0	28	0	568328192	79	6248
2026-01-15 07:54:41.19	66.82	34.53	-54.9	-58.4	12.8	0.00e+00	0	28	0	575668224	75	5566
2026-01-15 07:54:45.21	65.41	34.95	-55.6	-60.0	11.9	7.00e-07	0	28	0	583008256	76	6337
2026-01-15 07:54:49.23	63.97	35.36	-55.5	-59.7	12.1	0.00e+00	0	28	0	590348288	76	6117
2026-01-15 07:54:53.25	62.49	35.75	-55.7	-59.7	12.2	0.00e+00	0	28	0	598736896	77	5763
2026-01-15 07:54:57.28	60.98	36.13	-54.3	-57.4	13.3	0.00e+00	0	28	0	606076928	75	4938
2026-01-15 07:55:01.29	59.43	36.48	-53.5	-56.4	13.7	0.00e+00	0	28	0	613416960	73	4941
2026-01-15 07:55:05.30	57.86	36.81	-53.4	-56.1	13.9	0.00e+00	0	28	0	620756992	73	4788
2026-01-15 07:55:09.33	56.24	37.12	-52.9	-55.3	14.2	0.00e+00	0	28	0	628097024	72	4601
2026-01-15 07:55:13.34	54.60	37.41	-53.1	-55.7	13.9	0.00e+00	0	28	0	635437056	72	4858
2026-01-15 07:55:17.36	52.93	37.68	-53.4	-56.3	13.6	0.00e+00	0	28	0	643825664	72	5187
2026-01-15 07:55:21.38	51.24	37.91	-51.1	-52.9	14.7	0.00e+00	0	28	0	651165696	68	4393
2026-01-15 07:55:25.40	49.52	38.12	-51.6	-53.4	14.6	0.00e+00	0	28	0	658505728	69	4441
2026-01-15 07:55:29.41	47.78	38.30	-52.5	-54.6	14.3	0.00e+00	0	28	0	665845760	70	4763
2026-01-15 07:55:33.42	46.03	38.45	-52.3	-54.3	14.4	0.00e+00	0	28	0	673185792	70	4635
2026-01-15 07:55:37.44	44.25	38.57	-52.3	-54.2	14.4	0.00e+00	0	28	0	681574400	70	4572
2026-01-15 07:55:41.43	42.48	38.66	-52.2	-54.1	14.5	0.00e+00	0	28	0	688914432	70	4494
2026-01-15 07:55:45.45	40.69	38.72	-53.0	-55.2	14.1	0.00e+00	0	28	0	696254464	71	4829
2026-01-15 07:55:49.48	38.89	38.74	-53.7	-56.3	13.8	0.00e+00	0	28	0	703594496	72	5208
2026-01-15 07:55:53.49	37.10	38.74	-53.8	-56.3	13.8	0.00e+00	0	28	0	710934528	73	4909
2026-01-15 07:55:57.51	35.30	38.70	-53.8	-56.4	13.8	0.00e+00	0	28	0	718274560	73	4940
2026-01-15 07:56:01.53	33.51	38.63	-54.5	-57.6	13.2	0.00e+00	0	28	0	726663168	74	5384
2026-01-15 07:56:05.54	31.74	38.53	-55.1	-58.8	12.5	0.00e+00	0	28	0	734003200	75	5793
2026-01-15 07:56:09.56	29.97	38.40	-55.1	-59.0	12.5	0.00e+00	0	28	0	741343232	75	5990
2026-01-15 07:56:13.56	28.23	38.23	-55.0	-58.8	12.7	0.00e+00	0	28	0	748683264	76	5499
2026-01-15 07:56:17.56	26.51	38.04	-54.7	-58.5	12.7	0.00e+00	0	28	0	756023296	75	5624
2026-01-15 07:56:21.58	24.80	37.82	-55.7	-61.1	11.1	9.10e-06	0	28	0	764411904	76	7159
2026-01-15 07:56:25.59	23.12	37.58	-54.1	-57.5	13.2	0.00e+00	0	28	0	771751936	74	5322
2026-01-15 07:56:29.61	21.46	37.30	-53.9	-57.2	13.3	0.00e+00	0	28	0	779091968	74	5123
2026-01-15 07:56:33.63	19.83	37.01	-52.5	-54.8	14.2	0.00e+00	0	28	0	786432000	71	4645
2026-01-15 07:56:37.65	18.23	36.69	-51.9	-53.9	14.5	0.00e+00	0	28	0	793772032	70	4422
2026-01-15 07:56:41.67	16.67	36.35	-52.6	-55.0	14.1	0.00e+00	0	28	0	801112064	70	4987
2026-01-15 07:56:45.69	15.14	35.98	-52.2	-54.2	14.4	0.00e+00	0	28	0	809500672	70	4593
2026-01-15 07:56:49.70	13.64	35.60	-53.8	-56.8	13.6	0.00e+00	0	28	0	816840704	73	5169
2026-01-15 07:56:53.72	12.18	35.21	-53.4	-55.9	14.0	0.00e+00	0	28	0	824180736	73	4702
2026-01-15 07:56:57.73	10.76	34.79	-53.5	-55.9	13.9	0.00e+00	0	28	0	831520768	72	4943
2026-01-15 07:57:01.58	9.43	34.39	-53.8	-56.3	13.7	0.00e+00	0	28	0	838860800	73	4925
2026-01-15 07:57:05.59	8.08	33.95	-53.4	-55.7	13.9	0.00e+00	0	28	0	846200832	71	5148
2026-01-15 07:57:09.60	6.77	33.50	-53.8	-56.3	13.8	0.00e+00	0	28	0	854589440	73	4911
2026-01-15 07:57:13.61	5.49	33.04	-54.0	-56.6	13.7	0.00e+00	0	28	0	861929472	73	5050
2026-01-15 07:57:17.64	4.24	32.57	-54.3	-57.1	13.5	0.00e+00	0	28	0	869269504	74	5083
2026-01-15 07:57:21.66	3.03	32.09	-54.9	-57.9	13.1	0.00e+00	0	28	0	876609536	75	5255
2026-01-15 07:57:25.68	1.86	31.61	-55.4	-58.8	12.6	0.00e+00	0	28	0	883949568	75	5834
2026-01-15 07:57:29.70	0.72	31.12	-53.3	-55.5	14.2	0.00e+00	0	28	0	891289600	73	4459
2026-01-15 07:57:33.73	359.62	30.63	-52.7	-54.6	14.4	0.00e+00	0	28	0	899678208	71	4516
2026-01-15 07:57:37.74	358.55	30.13	-53.9	-56.3	13.8	0.00e+00	0	28	0	907018240	72	5184
2026-01-15 07:57:41.76	357.52	29.63	-55.5	-58.8	12.8	0.00e+00	0	28	0	914358272	76	5490
2026-01-15 07:57:45.78	356.51	29.14	-55.0	-57.9	13.3	0.00e+00	0	28	0	921698304	76	4952
2026-01-15 07:57:49.81	355.54	28.63	-54.3	-57.0	13.7	0.00e+00	0	28	0	929038336	75	4730
2026-01-15 07:57:53.83	354.59	28.13	-53.8	-56.2	13.8	0.00e+00	0	28	0	937426944	73	4869
2026-01-15 07:57:57.86	353.68	27.63	-52.7	-54.7	14.4	0.00e+00	0	28	0	944766976	71	4569
2026-01-15 07:58:01.87	352.79	27.14	-53.8	-56.3	13.7	0.00e+00	0	28	0	952107008	72	5180
2026-01-15 07:58:05.88	351.94	26.64	-54.2	-56.8	13.7	0.00e+00	0	28	0	959447040	74	4875
2026-01-15 07:58:09.90	351.11	26.15	-53.2	-55.4	14.2	0.00e+00	0	28	0	966787072	72	4663
2026-01-15 07:58:13.92	350.30	25.65	-52.9	-54.9	14.4	0.00e+00	0	28	0	975175680	72	4439
2026-01-15 07:58:17.94	349.52	25.16	-53.2	-55.4	14.2	0.00e+00	0	28	0	982515712	72	4676
2026-01-15 07:58:21.95	348.77	24.68	-53.8	-56.3	13.8	0.00e+00	0	28	0	989855744	73	4886
2026-01-15 07:58:25.98	348.03	24.20	-54.0	-56.6	13.7	0.00e+00	0	28	0	997195776	73	5063
2026-01-15 07:58:29.99	347.33	23.72	-54.7	-57.6	13.2	0.00e+00	0	28	0	1004535808	74	5360
2026-01-15 07:58:34.01	346.64	23.25	-54.0	-56.5	13.8	0.00e+00	0	28	0	1011875840	74	4753
2026-01-15 07:58:38.03	345.97	22.78	-53.1	-55.2	14.2	0.00e+00	0	28	0	1020264448	72	4556
2026-01-15 07:58:42.04	345.32	22.31	-53.7	-55.9	13.9	0.00e+00	0	28	0	1027604480	72	4973
2026-01-15 07:58:46.06	344.70	21.85	-53.1	-55.1	14.2	0.00e+00	0	28	0	1034944512	72	4544
2026-01-15 07:58:50.07	344.09	21.39	-53.1	-55.2	14.2	0.00e+00	0	28	0	1042284544	72	4594
2026-01-15 07:58:54.09	343.50	20.94	-54.9	-57.9	13.1	0.00e+00	0	28	0	1049624576	74	5531
2026-01-15 07:58:58.12	342.92	20.49	-54.9	-57.9	13.2	0.00e+00	0	28	0	1058013184	75	5241
2026-01-15 07:59:02.15	342.36	20.05	-54.2	-56.7	13.8	0.00e+00	0	28	0	1065353216	75	4598
2026-01-15 07:59:06.16	341.82	19.62	-53.7	-56.1	13.9	0.00e+00	0	28	0	1072693248	73	4799
2026-01-15 07:59:10.18	341.30	19.18	-53.9	-56.3	13.8	0.00e+00	0	28	0	1080033280	73	4895
2026-01-15 07:59:14.20	340.79	18.76	-53.6	-55.9	14.0	0.00e+00	0	28	0	1087373312	73	4696
2026-01-15 07:59:18.20	340.29	18.34	-52.8	-54.9	14.3	0.00e+00	0	28	0	1094713344	72	4426
2026-01-15 07:59:22.21	339.81	17.92	-53.4	-55.7	13.9	0.00e+00	0	28	0	1103101952	72	4858
2026-01-15 07:59:26.24	339.34	17.51	-54.2	-56.9	13.5	0.00e+00	0	28	0	1110441984	73	5247
2026-01-15 07:59:30.26	338.88	17.10	-54.0	-56.5	13.6	0.00e+00	0	28	0	1117782016	73	5024
2026-01-15 07:59:34.27	338.44	16.70	-54.0	-56.4	13.7	0.00e+00	0	28	0	1125122048	73	4972
2026-01-15 07:59:38.29	338.01	16.30	-54.1	-56.6	13.6	0.00e+00	0	28	0	1132462080	73	5067
2026-01-15 07:59:42.30	337.59	15.91	-54.2	-56.7	13.5	0.00e+00	0	28	0	1140850688	73	5146
2026-01-15 07:59:46.33	337.18	15.52	-54.5	-57.4	13.3	0.00e+00	0	28	0	1148190720	74	5220
2026-01-15 07:59:50.35	336.78	15.13	-54.5	-57.4	13.3	0.00e+00	0	28	0	1155530752	74	5228
2026-01-15 07:59:54.37	336.40	14.75	-53.9	-56.4	13.8	0.00e+00	0	28	0	1162870784	74	4672
2026-01-15 07:59:58.39	336.02	14.38	-53.4	-55.6	14.1	0.00e+00	0	28	0	1170210816	73	4538
2026-01-15 08:00:02.42	335.65	14.01	-53.3	-55.6	14.1	0.00e+00	0	28	0	1178599424	73	4508
2026-01-15 08:00:06.43	335.29	13.64	-53.2	-55.4	13.9	0.00e+00	0	28	0	1185939456	72	4705
2026-01-15 08:00:10.45	334.94	13.28	-53.4	-55.6	13.9	0.00e+00	0	28	0	1193279488	72	4807
2026-01-15 08:00:14.47	334.60	12.92	-53.5	-55.9	13.8	0.00e+00	0	28	0	1200619520	72	4961
2026-01-15 08:00:18.49	334.27	12.57	-53.7	-56.2	13.6	0.00e+00	0	28	0	1207959552	72	5124
2026-01-15 08:00:22.50	333.95	12.22	-54.1	-56.8	13.4	0.00e+00	0	28	0	1215299584	73	5171
2026-01-15 08:00:26.53	333.63	11.88	-54.5	-57.3	13.2	0.00e+00	0	28	0	1223688192	74	5214
2026-01-15 08:00:30.53	333.32	11.54	-54.5	-57.3	13.2	3.00e-06	0	28	0	1231028224	74	5191
2026-01-15 08:00:34.55	333.02	11.20	-54.6	-57.6	13.1	0.00e+00	0	28	0	1238368256	74	5362
2026-01-15 08:00:38.58	332.73	10.87	-55.1	-58.3	12.7	0.00e+00	0	28	0	1245708288	75	5525
2026-01-15 08:00:42.60	332.44	10.54	-55.2	-58.7	12.5	0.00e+00	0	28	0	1253048320	75	5776
2026-01-15 08:00:46.62	332.16	10.21	-55.2	-58.6	12.5	7.00e-07	0	28	0	1261436928	75	5698
2026-01-15 08:00:50.65	331.89	9.89	-54.9	-58.1	12.8	0.00e+00	0	28	0	1268776960	75	5393
2026-01-15 08:00:54.66	331.62	9.57	-54.6	-57.6	13.1	0.00e+00	0	28	0	1276116992	75	5073
2026-01-15 08:00:58.67	331.36	9.25	-54.6	-57.5	13.1	0.00e+00	0	28	0	1283457024	75	5003
2026-01-15 08:01:02.71	331.10	8.94	-54.6	-57.6	13.1	0.00e+00	0	28	0	1290797056	75	5090
2026-01-15 08:01:06.73	330.85	8.63	-54.9	-58.0	12.8	0.00e+00	0	28	0	1299185664	75	5322
2026-01-15 08:01:10.75	330.61	8.32	-54.9	-58.1	12.7	0.00e+00	0	28	0	1306525696	75	5398
2026-01-15 08:01:14.78	330.37	8.02	-55.0	-58.2	12.6	0.00e+00	0	28	0	1313865728	75	5447
2026-01-15 08:01:18.79	330.13	7.72	-55.2	-58.6	12.4	0.00e+00	0	28	0	1321205760	75	5704
2026-01-15 08:01:22.82	329.90	7.43	-55.6	-59.3	12.1	0.00e+00	0	28	0	1328545792	76	5844
2026-01-15 08:01:26.85	329.68	7.13	-55.5	-59.1	12.2	7.00e-07	0	28	0	1336934400	76	5696
2026-01-15 08:01:30.87	329.46	6.84	-55.7	-59.6	11.9	1.50e-06	0	28	0	1344274432	76	6002
2026-01-15 08:01:34.90	329.25	6.55	-55.7	-59.5	11.9	1.50e-06	0	28	0	1351614464	76	5941
2026-01-15 08:01:38.94	329.04	6.27	-55.8	-59.8	11.7	8.30e-06	0	28	0	1358954496	76	6156
2026-01-15 08:01:42.94	328.83	5.98	-55.7	-59.5	11.8	5.30e-06	0	28	0	1366294528	76	5990
2026-01-15 08:01:46.95	328.63	5.71	-55.4	-59.1	12.1	7.00e-07	0	28	0	1373634560	76	5677
2026-01-15 08:01:50.97	328.43	5.43	-55.5	-59.2	12.0	7.00e-07	0	28	0	1382023168	76	5758
2026-01-15 08:01:54.98	328.24	5.15	-55.4	-59.0	12.2	0.00e+00	0	28	0	1389363200	76	5595
2026-01-15 08:01:59.01	328.05	4.88	-59.2	-75.2	3.8	1.49e+00	0	28	104	1394606080	83	24260
2026-01-15 08:02:03.04	327.86	4.61	-54.4	-75.5	3.7	1.49e+00	0	28	104	1394606080	75	39913
2026-01-15 08:02:07.06	327.68	4.34	-60.4	-76.5	3.8	1.49e+00	0	28	104	1394606080	85	25067
2026-01-15 08:02:11.09	327.50	4.08	-60.5	-76.6	3.8	1.49e+00	0	28	104	1394606080	86	24010
2026-01-15 08:02:15.13	327.33	3.81	-60.6	-76.7	3.8	1.49e+00	0	28	104	1394606080	86	24265
2026-01-15 08:02:19.15	327.16	3.55	-60.6	-76.7	3.8	1.49e+00	0	28	104	1394606080	86	24151
2026-01-15 08:02:23.19	326.99	3.29	-60.5	-76.6	3.8	1.49e+00	0	28	104	1394606080	86	23951
2026-01-15 08:02:27.22	326.82	3.04	-60.5	-76.6	3.8	1.49e+00	0	28	104	1394606080	86	23860
2026-01-15 08:02:31.25	326.66	2.78	-60.4	-76.5	3.8	1.49e+00	0	28	104	1394606080	86	23814
2026-01-15 08:02:35.27	326.50	2.53	-60.5	-76.6	3.8	1.49e+00	0	28	104	1394606080	86	23866
2026-01-15 08:02:39.31	326.35	2.28	-60.4	-76.5	3.9	1.49e+00	0	28	104	1394606080	86	23743
2026-01-15 08:02:43.34	326.19	2.03	-60.3	-76.4	3.8	1.49e+00	0	28	104	1394606080	86	23508

#Closed at: 2026-01-15 08:02:44
#Recorded file [1394 MB]: D:/lorett/data/31004_260115_104859.dat