passes_logs/2026/01/15/R3.2S_Murmansk/R3.2S_Murmansk__20260115_103923_TY-42_rec.log

#Pass ID: 20260115_103923_TY-42
#Satellite: TY-42
#Configuration: TY-42_900M
#almurnet v.1.7.20251203
#Start time: 2026-01-15 10:39:24

#Version: 2.2.20231116
#Station: R3.2S_Murmansk
#Location: 33.079688 lon 68.888172 lat
#TLE: 1 64048U 25103A   26014.69425926  .00008005  00000-0  38191-3 0 09997
#TLE: 2 64048 097.4117 090.1174 0001564 091.0855 218.1626 15.19145944 36760

#Time	Az	El	Level	Level2	SNR	BER	BlckErr	Temp	State	Recorded	gain1	gain2
2026-01-15 10:39:24.07	22.39	2.04	-58.0	-61.3	6.1	0.00e+00	0	33	0	0	83	20207
2026-01-15 10:39:27.05	22.24	2.24	-58.0	-61.3	6.2	0.00e+00	0	33	104	0	83	20256
2026-01-15 10:39:30.04	22.09	2.44	-58.0	-61.2	6.2	0.00e+00	0	33	104	0	83	20104
2026-01-15 10:39:33.04	21.94	2.65	-58.0	-61.2	6.2	0.00e+00	0	33	104	0	83	20148
2026-01-15 10:39:36.02	21.78	2.85	-58.0	-61.3	6.2	0.00e+00	0	33	104	0	83	20227
2026-01-15 10:39:39.01	21.62	3.06	-58.1	-61.3	6.2	0.00e+00	0	33	104	0	83	20192
2026-01-15 10:39:42.00	21.46	3.27	-58.1	-61.3	6.2	0.00e+00	0	34	104	0	83	20335
2026-01-15 10:39:44.99	21.29	3.48	-58.1	-61.3	6.2	0.00e+00	0	34	104	0	83	20303
2026-01-15 10:39:47.98	21.12	3.70	-58.1	-61.3	6.2	0.00e+00	0	34	104	0	83	20378
2026-01-15 10:39:50.97	20.95	3.91	-58.1	-61.3	6.2	0.00e+00	0	34	104	0	83	20330
2026-01-15 10:39:53.94	20.78	4.13	-58.1	-61.4	6.2	0.00e+00	0	34	104	0	83	20435
2026-01-15 10:39:56.91	20.60	4.35	-58.2	-61.4	6.2	0.00e+00	0	34	104	0	83	20409
2026-01-15 10:39:59.91	20.41	4.57	-58.2	-61.4	6.2	0.00e+00	0	34	104	0	83	20484
2026-01-15 10:40:02.89	20.23	4.79	-58.2	-61.4	6.2	0.00e+00	0	34	104	0	83	20539
2026-01-15 10:40:05.87	20.04	5.02	-58.2	-61.4	6.2	0.00e+00	0	35	104	0	83	20536
2026-01-15 10:40:08.84	19.84	5.25	-58.2	-61.4	6.2	0.00e+00	0	35	104	0	83	20563
2026-01-15 10:40:11.83	19.64	5.48	-58.4	-61.6	6.1	0.00e+00	0	35	104	0	83	21084
2026-01-15 10:40:14.80	19.44	5.71	-58.3	-61.5	6.1	0.00e+00	0	35	104	0	83	20710
2026-01-15 10:40:17.78	19.23	5.95	-58.5	-61.7	6.2	0.00e+00	0	35	104	0	83	21128
2026-01-15 10:40:20.77	19.02	6.19	-58.4	-61.6	6.2	0.00e+00	0	35	104	0	83	21052
2026-01-15 10:40:23.74	18.80	6.43	-58.5	-61.8	6.1	0.00e+00	0	35	104	0	83	21387
2026-01-15 10:40:26.73	18.58	6.67	-58.5	-61.7	6.1	0.00e+00	0	35	104	0	83	21286
2026-01-15 10:40:29.72	18.35	6.92	-58.6	-61.8	6.2	0.00e+00	0	35	104	0	83	21508
2026-01-15 10:40:32.70	18.12	7.17	-58.6	-61.8	6.2	0.00e+00	0	35	104	0	83	21492
2026-01-15 10:40:35.68	17.89	7.42	-58.6	-61.9	6.1	0.00e+00	0	35	104	0	83	21617
2026-01-15 10:40:38.66	17.64	7.67	-58.6	-61.8	6.2	0.00e+00	0	35	104	0	83	21580
2026-01-15 10:40:41.62	17.40	7.93	-58.7	-61.9	6.1	0.00e+00	0	35	104	0	83	21775
2026-01-15 10:40:44.61	17.14	8.19	-58.7	-61.9	6.2	0.00e+00	0	36	104	0	83	21820
2026-01-15 10:40:47.60	16.88	8.46	-58.7	-62.0	6.2	0.00e+00	0	35	104	0	83	21918
2026-01-15 10:40:50.57	16.62	8.72	-58.8	-61.9	6.2	0.00e+00	0	35	104	0	83	21852
2026-01-15 10:40:53.54	16.35	8.99	-47.8	-48.2	9.6	0.00e+00	0	36	104	58720256	63	14136
2026-01-15 10:40:56.52	16.07	9.26	-44.1	-44.4	12.0	0.00e+00	0	37	0	226492416	55	14607
2026-01-15 10:40:59.50	15.79	9.54	-43.8	-44.2	12.1	5.31e-02	0	37	0	562036736	54	14987
2026-01-15 10:41:02.48	15.49	9.82	-43.6	-43.9	12.2	1.55e-02	0	37	0	897581056	54	14516
2026-01-15 10:41:05.48	15.19	10.11	-43.7	-44.0	12.2	1.14e-02	0	37	0	1233125376	54	14724
2026-01-15 10:41:08.45	14.89	10.40	-43.3	-43.7	12.3	1.18e-02	0	37	0	1568669696	53	14949
2026-01-15 10:41:11.44	14.57	10.69	-43.1	-43.5	12.3	1.18e-02	0	38	0	1904214016	53	14622
2026-01-15 10:41:14.42	14.25	10.98	-43.0	-43.3	12.4	1.07e-02	0	37	0	2239758336	53	14322
2026-01-15 10:41:17.41	13.91	11.28	-42.8	-43.1	12.4	7.66e-03	0	38	0	2575302656	52	14894
2026-01-15 10:41:20.39	13.57	11.59	-42.7	-43.0	12.4	7.15e-03	0	38	0	2910846976	52	14772
2026-01-15 10:41:23.37	13.23	11.89	-42.4	-42.7	12.5	6.47e-03	0	38	0	3254779904	51	15058
2026-01-15 10:41:26.36	12.87	12.21	-42.3	-42.6	12.6	5.35e-03	0	38	0	3581935616	51	14877
2026-01-15 10:41:29.35	12.50	12.52	-42.0	-42.3	12.7	4.54e-03	0	38	0	3917479936	51	14362
2026-01-15 10:41:32.33	12.12	12.85	-41.9	-42.2	12.7	3.32e-03	0	38	0	4261412864	50	14996
2026-01-15 10:41:35.32	11.73	13.17	-41.7	-42.0	12.7	2.78e-03	0	38	0	4596957184	50	14719
2026-01-15 10:41:38.32	11.33	13.50	-41.3	-41.6	12.8	1.90e-03	0	38	0	4924112896	49	14834
2026-01-15 10:41:41.28	10.92	13.83	-41.1	-41.4	12.9	1.49e-03	0	39	0	5268045824	49	14550
2026-01-15 10:41:44.27	10.50	14.17	-41.0	-41.3	12.9	1.10e-03	0	39	0	5603590144	49	14380
2026-01-15 10:41:47.26	10.07	14.52	-40.9	-41.2	12.9	1.04e-03	0	38	0	5930745856	48	15022
2026-01-15 10:41:50.23	9.62	14.87	-40.7	-40.9	13.0	7.58e-04	0	39	0	6274678784	48	14588
2026-01-15 10:41:53.21	9.16	15.22	-40.4	-40.7	13.1	7.34e-04	0	39	0	6601834496	48	14186
2026-01-15 10:41:56.18	8.69	15.58	-39.5	-39.8	12.9	9.15e-04	0	38	0	6937378816	46	14434
2026-01-15 10:41:59.15	8.21	15.94	-39.5	-39.8	13.0	9.06e-04	0	39	0	7272923136	46	14383
2026-01-15 10:42:02.13	7.71	16.31	-39.2	-39.5	13.0	8.68e-04	0	39	0	7608467456	45	14643
2026-01-15 10:42:05.10	7.20	16.68	-39.0	-39.3	13.1	7.58e-04	0	39	0	7944011776	45	14387
2026-01-15 10:42:08.06	6.67	17.06	-38.8	-39.1	13.1	4.15e-04	0	39	0	8271167488	44	14858
2026-01-15 10:42:11.04	6.12	17.44	-38.7	-39.0	13.1	3.67e-04	0	39	0	8615100416	44	14613
2026-01-15 10:42:14.01	5.56	17.83	-38.5	-38.8	13.2	1.95e-04	0	39	0	8942256128	44	14347
2026-01-15 10:42:16.96	4.99	18.22	-38.5	-38.8	13.2	2.19e-04	0	39	0	9277800448	44	14292
2026-01-15 10:42:19.92	4.39	18.62	-38.3	-38.6	13.2	1.43e-04	0	39	0	9613344768	43	14807
2026-01-15 10:42:22.90	3.78	19.03	-38.1	-38.4	13.2	1.19e-04	0	39	0	9940500480	43	14532
2026-01-15 10:42:25.87	3.14	19.43	-38.0	-38.2	13.3	1.29e-04	0	39	0	10284433408	43	14272
2026-01-15 10:42:28.85	2.48	19.85	-37.8	-38.1	13.3	6.19e-05	0	39	0	10611589120	42	14832
2026-01-15 10:42:31.83	1.81	20.27	-37.7	-37.9	13.3	6.19e-05	0	39	0	10955522048	42	14600
2026-01-15 10:42:34.80	1.11	20.70	-37.6	-37.8	13.4	8.58e-05	0	39	0	11282677760	42	14438
2026-01-15 10:42:37.78	0.38	21.13	-37.4	-37.7	13.4	2.38e-05	0	39	0	11618222080	42	14182
2026-01-15 10:42:40.76	359.64	21.56	-37.3	-37.5	13.4	3.33e-05	0	39	0	11953766400	41	14728
2026-01-15 10:42:43.74	358.87	22.00	-37.1	-37.3	13.4	4.76e-05	0	39	0	12289310720	41	14440
2026-01-15 10:42:46.70	358.08	22.45	-37.1	-37.3	13.4	4.76e-05	0	39	0	12624855040	41	14372
2026-01-15 10:42:49.66	357.26	22.89	-37.0	-37.3	13.5	9.50e-06	0	39	0	12952010752	41	14303
2026-01-15 10:42:52.62	356.41	23.34	-36.8	-37.1	13.4	1.90e-05	0	39	0	13287555072	40	14816
2026-01-15 10:42:55.60	355.54	23.80	-36.5	-36.8	13.5	1.90e-05	0	39	0	13623099392	40	14352
2026-01-15 10:42:58.58	354.63	24.25	-36.3	-36.6	13.5	1.90e-05	0	39	0	13958643712	39	14855
2026-01-15 10:43:01.57	353.69	24.72	-36.3	-36.6	13.4	9.50e-06	0	39	0	14294188032	39	14802
2026-01-15 10:43:04.54	352.72	25.18	-36.3	-36.6	13.5	0.00e+00	0	40	0	14629732352	39	14794
2026-01-15 10:43:07.51	351.72	25.64	-35.8	-36.0	13.5	0.00e+00	0	39	0	14965276672	38	14753
2026-01-15 10:43:10.49	350.69	26.11	-35.7	-35.9	13.5	9.50e-06	0	39	0	15300820992	38	14552
2026-01-15 10:43:13.44	349.63	26.57	-35.6	-35.8	13.6	4.70e-06	0	39	0	15627976704	38	14377
2026-01-15 10:43:16.41	348.53	27.03	-35.2	-35.5	13.5	4.70e-06	0	39	0	15963521024	37	14683
2026-01-15 10:43:19.38	347.39	27.49	-35.3	-35.5	13.5	0.00e+00	0	40	0	16299065344	37	14746
2026-01-15 10:43:22.38	346.21	27.95	-35.1	-35.3	13.6	0.00e+00	0	39	0	16634609664	37	14413
2026-01-15 10:43:25.37	344.99	28.41	-34.8	-35.1	13.5	4.70e-06	0	39	0	16978542592	36	14792
2026-01-15 10:43:28.36	343.73	28.86	-34.8	-35.0	13.6	0.00e+00	0	40	0	17305698304	36	14708
2026-01-15 10:43:31.32	342.45	29.31	-34.7	-35.0	13.6	0.00e+00	0	39	0	17641242624	36	14633
2026-01-15 10:43:34.30	341.12	29.74	-34.7	-35.0	13.6	0.00e+00	0	39	0	17976786944	36	14609
2026-01-15 10:43:37.28	339.75	30.17	-34.5	-34.8	13.6	0.00e+00	0	40	0	18312331264	36	14362
2026-01-15 10:43:40.26	338.34	30.59	-34.5	-34.8	13.6	0.00e+00	0	39	0	18647875584	36	14309
2026-01-15 10:43:43.23	336.89	30.99	-34.5	-34.8	13.6	0.00e+00	0	40	0	18983419904	36	14292
2026-01-15 10:43:46.22	335.40	31.39	-34.4	-34.6	13.7	0.00e+00	0	39	0	19318964224	36	14070
2026-01-15 10:43:49.20	333.87	31.77	-31.7	-32.0	13.6	0.00e+00	0	39	0	19654508544	30	14612
2026-01-15 10:43:52.18	332.30	32.13	-31.6	-31.8	13.6	0.00e+00	0	40	0	19990052864	30	14416
2026-01-15 10:43:55.17	330.69	32.47	-31.5	-31.7	13.6	0.00e+00	0	39	0	20325597184	30	14265
2026-01-15 10:43:58.16	329.04	32.80	-31.5	-31.7	13.6	0.00e+00	0	39	0	20661141504	30	14234
2026-01-15 10:44:01.14	327.37	33.10	-31.4	-31.7	13.6	0.00e+00	0	39	0	20996685824	30	14165
2026-01-15 10:44:04.12	325.66	33.37	-31.2	-31.4	13.5	4.70e-06	0	39	0	21332230144	29	14602
2026-01-15 10:44:07.10	323.93	33.63	-31.2	-31.5	13.6	0.00e+00	0	40	0	21667774464	29	14675
2026-01-15 10:44:10.09	322.16	33.85	-31.2	-31.4	13.5	1.43e-05	0	39	0	22003318784	29	14565
2026-01-15 10:44:13.07	320.37	34.05	-31.1	-31.4	13.5	0.00e+00	0	40	0	22338863104	29	14547
2026-01-15 10:44:16.06	318.55	34.22	-31.2	-31.5	13.5	0.00e+00	0	39	0	22674407424	29	14664
2026-01-15 10:44:19.05	316.71	34.36	-31.2	-31.4	13.5	9.50e-06	0	40	0	23009951744	29	14570
2026-01-15 10:44:22.04	314.86	34.47	-31.0	-31.3	13.5	4.70e-06	0	40	0	23345496064	29	14335
2026-01-15 10:44:25.02	313.00	34.54	-30.9	-31.2	13.6	4.70e-06	0	40	0	23689428992	29	14195
2026-01-15 10:44:27.99	311.15	34.58	-30.9	-31.2	13.6	4.70e-06	0	40	0	24016584704	29	14130
2026-01-15 10:44:30.97	309.28	34.60	-30.9	-31.2	13.6	0.00e+00	0	40	0	24352129024	29	14206
2026-01-15 10:44:33.94	307.42	34.57	-31.0	-31.2	13.6	0.00e+00	0	40	0	24687673344	29	14231
2026-01-15 10:44:36.93	305.55	34.52	-31.1	-31.4	13.5	0.00e+00	0	40	0	25023217664	29	14461
2026-01-15 10:44:39.92	303.69	34.43	-31.1	-31.3	13.5	4.70e-06	0	40	0	25358761984	29	14426
2026-01-15 10:44:42.89	301.86	34.31	-31.2	-31.4	13.5	4.70e-06	0	40	0	25694306304	29	14557
2026-01-15 10:44:45.89	300.02	34.16	-31.2	-31.5	13.5	0.00e+00	0	40	0	26029850624	29	14662
2026-01-15 10:44:48.88	298.21	33.98	-31.3	-31.5	13.5	0.00e+00	0	40	0	26373783552	29	14755
2026-01-15 10:44:51.87	296.42	33.77	-31.4	-31.6	13.5	0.00e+00	0	40	0	26709327872	29	14940
2026-01-15 10:44:54.86	294.65	33.54	-31.4	-31.7	13.5	4.70e-06	0	40	0	27036483584	29	15019
2026-01-15 10:44:57.85	292.92	33.27	-31.3	-31.6	13.6	4.70e-06	0	40	0	27380416512	29	14797
2026-01-15 10:45:00.83	291.22	32.99	-31.4	-31.7	13.6	3.33e-05	0	40	0	27715960832	29	15059
2026-01-15 10:45:03.80	289.56	32.68	-31.4	-31.7	13.5	4.70e-06	0	40	0	28043116544	29	15071
2026-01-15 10:45:06.79	287.93	32.34	-31.5	-31.8	13.6	9.50e-06	0	39	0	28387049472	29	15224
2026-01-15 10:45:09.77	286.33	31.99	-31.7	-32.0	13.6	0.00e+00	0	40	0	28722593792	29	15507
2026-01-15 10:45:12.76	284.77	31.62	-31.6	-31.9	13.6	0.00e+00	0	40	0	29049749504	29	15425
2026-01-15 10:45:15.75	283.25	31.24	-31.8	-32.1	13.6	4.70e-06	0	40	0	29393682432	29	15661
2026-01-15 10:45:18.73	281.77	30.84	-31.9	-32.1	13.6	4.70e-06	0	40	0	29729226752	29	15805
2026-01-15 10:45:21.72	280.33	30.43	-32.0	-32.3	13.6	4.70e-06	0	40	0	30056382464	29	16125
2026-01-15 10:45:24.71	278.92	30.00	-32.1	-32.4	13.6	9.50e-06	0	40	0	30400315392	29	16262
2026-01-15 10:45:27.70	277.56	29.57	-32.2	-32.5	13.6	4.70e-06	0	40	0	30735859712	30	15631
2026-01-15 10:45:30.68	276.24	29.12	-32.3	-32.7	13.6	0.00e+00	0	40	0	31071404032	30	15841
2026-01-15 10:45:33.66	274.96	28.67	-32.5	-32.8	13.6	4.70e-06	0	40	0	31406948352	30	16028
2026-01-15 10:45:36.64	273.72	28.22	-32.6	-32.9	13.6	9.50e-06	0	40	0	31742492672	30	16253
2026-01-15 10:45:39.62	272.52	27.76	-32.8	-33.1	13.6	1.90e-05	0	40	0	32078036992	31	15746
2026-01-15 10:45:42.61	271.35	27.30	-33.0	-33.2	13.6	3.33e-05	0	40	0	32413581312	31	15992
2026-01-15 10:45:45.60	270.21	26.83	-32.9	-33.2	13.6	9.50e-06	0	40	0	32749125632	31	15905
2026-01-15 10:45:48.59	269.12	26.36	-33.0	-33.3	13.6	9.50e-06	0	40	0	33084669952	31	16149
2026-01-15 10:45:51.58	268.05	25.89	-33.2	-33.5	13.6	4.70e-06	0	40	0	33420214272	32	15621
2026-01-15 10:45:54.56	267.03	25.43	-33.4	-33.7	13.6	0.00e+00	0	40	0	33755758592	32	15839
2026-01-15 10:45:57.54	266.04	24.96	-33.6	-33.9	13.6	1.43e-05	0	40	0	34091302912	32	16235
2026-01-15 10:46:00.53	265.08	24.50	-33.7	-34.0	13.6	1.90e-05	0	40	0	34426847232	33	15476
2026-01-15 10:46:03.51	264.15	24.03	-34.0	-34.3	13.5	1.90e-05	0	40	0	34762391552	33	16182
2026-01-15 10:46:06.49	263.25	23.57	-34.0	-34.3	13.5	9.50e-06	0	40	0	35097935872	33	16129
2026-01-15 10:46:09.47	262.38	23.12	-34.2	-34.5	13.5	6.19e-05	0	40	0	35433480192	34	15541
2026-01-15 10:46:12.45	261.54	22.67	-34.5	-34.7	13.5	3.81e-05	0	40	0	35769024512	34	16005
2026-01-15 10:46:15.44	260.72	22.22	-34.6	-34.9	13.4	6.19e-05	0	40	0	36104568832	34	16216
2026-01-15 10:46:18.42	259.93	21.77	-34.7	-35.0	13.4	6.67e-05	0	40	0	36440113152	35	15551
2026-01-15 10:46:21.41	259.17	21.33	-35.0	-35.3	13.4	9.05e-05	0	40	0	36775657472	35	16099
2026-01-15 10:46:24.40	258.43	20.89	-34.9	-35.2	13.4	1.81e-04	0	40	0	37111201792	35	15989
2026-01-15 10:46:27.38	257.71	20.46	-37.6	-37.9	13.5	7.15e-05	0	40	0	37446746112	41	15325
2026-01-15 10:46:30.36	257.02	20.04	-37.8	-38.1	13.4	7.62e-05	0	40	0	37782290432	41	15799
2026-01-15 10:46:33.34	256.35	19.62	-38.1	-38.3	13.4	9.53e-05	0	40	0	38117834752	41	16196
2026-01-15 10:46:36.30	255.70	19.20	-38.3	-38.6	13.4	1.24e-04	0	40	0	38453379072	42	15748
2026-01-15 10:46:39.29	255.07	18.79	-38.5	-38.8	13.3	1.76e-04	0	40	0	38788923392	42	16159
2026-01-15 10:46:42.29	254.46	18.39	-38.7	-39.0	13.4	1.57e-04	0	40	0	39124467712	43	15514
2026-01-15 10:46:45.27	253.86	17.99	-38.9	-39.2	13.3	2.29e-04	0	40	0	39468400640	43	15834
2026-01-15 10:46:48.25	253.29	17.59	-39.0	-39.3	13.3	2.34e-04	0	40	0	39795556352	43	16167
2026-01-15 10:46:51.23	252.73	17.20	-39.2	-39.5	13.3	2.86e-04	0	40	0	40131100672	44	15534
2026-01-15 10:46:54.20	252.19	16.82	-39.3	-39.6	13.2	3.86e-04	0	40	0	40466644992	44	15812
2026-01-15 10:46:57.17	251.67	16.44	-39.6	-39.8	13.2	3.67e-04	0	40	0	40793800704	44	16194
2026-01-15 10:47:00.15	251.16	16.07	-39.6	-39.9	13.3	5.34e-04	0	40	0	41137733632	45	15391
2026-01-15 10:47:03.14	250.66	15.70	-39.9	-40.2	13.2	1.25e-03	0	40	0	41473277952	45	15844
2026-01-15 10:47:06.13	250.18	15.34	-39.9	-40.2	13.2	1.40e-03	0	40	0	41808822272	45	15944
2026-01-15 10:47:09.11	249.71	14.98	-59.8	-63.1	6.2	1.86e-03	0	40	104	42060480512	85	22206
2026-01-15 10:47:12.09	249.26	14.63	-59.8	-63.0	6.2	1.86e-03	0	39	104	42060480512	85	22081
2026-01-15 10:47:15.09	248.82	14.28	-59.8	-63.0	6.2	1.86e-03	0	39	104	42060480512	85	22095
2026-01-15 10:47:18.07	248.39	13.94	-59.8	-63.1	6.2	1.86e-03	0	39	104	42060480512	85	22125
2026-01-15 10:47:21.06	247.97	13.60	-59.8	-63.1	6.2	3.34e-04	0	39	104	42060480512	85	22172
2026-01-15 10:47:24.06	247.56	13.26	-59.7	-63.0	6.2	3.34e-04	0	39	104	42060480512	85	21929
2026-01-15 10:47:27.02	247.17	12.94	-59.7	-63.0	6.2	3.34e-04	0	39	104	42060480512	85	21873
2026-01-15 10:47:30.01	246.78	12.61	-59.7	-63.0	6.2	3.34e-04	0	39	104	42060480512	85	21953
2026-01-15 10:47:33.00	246.41	12.29	-59.7	-62.9	6.2	0.00e+00	0	39	104	42060480512	85	21837
2026-01-15 10:47:35.99	246.04	11.98	-59.7	-62.9	6.1	0.00e+00	0	39	104	42060480512	85	21838
2026-01-15 10:47:38.98	245.68	11.67	-59.7	-62.9	6.1	0.00e+00	0	38	104	42060480512	85	21773
2026-01-15 10:47:41.97	245.34	11.36	-59.7	-62.9	6.2	0.00e+00	0	38	104	42060480512	85	21811
2026-01-15 10:47:44.95	245.00	11.06	-59.7	-62.9	6.2	0.00e+00	0	38	104	42060480512	85	21710
2026-01-15 10:47:47.94	244.67	10.76	-59.6	-62.8	6.2	0.00e+00	0	38	104	42060480512	85	21593
2026-01-15 10:47:50.93	244.35	10.46	-59.6	-62.8	6.2	0.00e+00	0	38	104	42060480512	85	21523
2026-01-15 10:47:53.91	244.04	10.17	-59.6	-62.9	6.2	0.00e+00	0	38	104	42060480512	85	21651
2026-01-15 10:47:56.89	243.73	9.88	-59.6	-62.8	6.2	0.00e+00	0	38	104	42060480512	85	21537
2026-01-15 10:47:59.88	243.43	9.60	-59.5	-62.7	6.2	0.00e+00	0	38	104	42060480512	85	21201
2026-01-15 10:48:02.86	243.14	9.32	-59.5	-62.7	6.2	0.00e+00	0	38	104	42060480512	85	21197
2026-01-15 10:48:05.83	242.86	9.05	-59.5	-62.7	6.2	0.00e+00	0	38	104	42060480512	85	21299
2026-01-15 10:48:08.81	242.58	8.77	-59.4	-62.7	6.2	0.00e+00	0	38	104	42060480512	85	21138
2026-01-15 10:48:11.79	242.31	8.50	-59.3	-62.6	6.2	0.00e+00	0	38	104	42060480512	85	20978
2026-01-15 10:48:14.77	242.05	8.24	-59.3	-62.6	6.2	0.00e+00	0	38	104	42060480512	85	20895
2026-01-15 10:48:17.75	241.79	7.98	-59.3	-62.6	6.2	0.00e+00	0	38	104	42060480512	85	20934
2026-01-15 10:48:20.73	241.54	7.72	-59.3	-62.5	6.2	0.00e+00	0	38	104	42060480512	85	20785
2026-01-15 10:48:23.71	241.29	7.46	-59.2	-62.4	6.2	0.00e+00	0	38	104	42060480512	85	20497
2026-01-15 10:48:26.69	241.05	7.20	-59.1	-62.3	6.2	0.00e+00	0	38	104	42060480512	85	20392
2026-01-15 10:48:29.69	240.82	6.95	-59.2	-62.4	6.2	0.00e+00	0	38	104	42060480512	85	20609
2026-01-15 10:48:32.66	240.59	6.71	-59.2	-62.4	6.2	0.00e+00	0	38	104	42060480512	85	20444
2026-01-15 10:48:35.64	240.36	6.46	-59.0	-62.3	6.2	0.00e+00	0	38	104	42060480512	85	20184
2026-01-15 10:48:38.63	240.14	6.22	-59.0	-62.2	6.2	0.00e+00	0	38	104	42060480512	85	20084
2026-01-15 10:48:41.62	239.92	5.98	-59.1	-62.3	6.2	0.00e+00	0	38	104	42060480512	85	20319
2026-01-15 10:48:44.59	239.71	5.74	-59.0	-62.3	6.2	0.00e+00	0	38	104	42060480512	85	20232
2026-01-15 10:48:47.59	239.50	5.50	-58.9	-62.1	6.2	0.00e+00	0	38	104	42060480512	85	19837
2026-01-15 10:48:50.57	239.30	5.27	-58.9	-62.1	6.2	0.00e+00	0	38	104	42060480512	84	20950
2026-01-15 10:48:53.55	239.10	5.04	-58.9	-62.2	6.2	0.00e+00	0	37	104	42060480512	84	21122
2026-01-15 10:48:56.53	238.91	4.81	-59.8	-63.0	6.2	0.00e+00	0	38	104	42060480512	85	22032
2026-01-15 10:48:59.52	238.72	4.59	-60.2	-63.5	6.2	0.00e+00	0	37	104	42060480512	86	21864
2026-01-15 10:49:02.47	238.53	4.37	-60.4	-63.6	6.2	0.00e+00	0	38	104	42060480512	86	22296
2026-01-15 10:49:05.46	238.35	4.14	-60.5	-63.7	6.2	0.00e+00	0	38	104	42060480512	86	22570
2026-01-15 10:49:08.44	238.17	3.93	-60.6	-63.8	6.2	0.00e+00	0	38	104	42060480512	86	22743
2026-01-15 10:49:11.42	237.99	3.71	-60.6	-63.8	6.2	0.00e+00	0	37	104	42060480512	86	22765
2026-01-15 10:49:14.41	237.82	3.49	-60.6	-63.8	6.2	0.00e+00	0	37	104	42060480512	87	21600
2026-01-15 10:49:17.40	237.65	3.28	-60.6	-63.9	6.2	0.00e+00	0	38	104	42060480512	87	21660
2026-01-15 10:49:20.37	237.49	3.07	-60.7	-63.9	6.2	0.00e+00	0	38	104	42060480512	87	21760
2026-01-15 10:49:23.33	237.33	2.86	-60.5	-63.8	6.2	0.00e+00	0	37	104	42060480512	87	21517
2026-01-15 10:49:26.30	237.17	2.66	-60.5	-63.7	6.2	0.00e+00	0	37	104	42060480512	87	21331
2026-01-15 10:49:29.27	237.01	2.45	-60.5	-63.7	6.2	0.00e+00	0	37	104	42060480512	87	21325
2026-01-15 10:49:32.26	236.86	2.25	-60.4	-63.7	6.2	0.00e+00	0	38	104	42060480512	87	21223
2026-01-15 10:49:35.23	236.71	2.05	-60.4	-63.7	6.2	0.00e+00	0	37	104	42060480512	87	21184

#Closed at: 2026-01-15 10:49:37
#Recorded file [42060 MB]: D:/lorett/data/31004_260115_133923.dat