passes_logs/2026/01/15/R3.2S_Murmansk/R3.2S_Murmansk__20260115_134943_FENGYUN_3D_rec.log

#Pass ID: 20260115_134943_FENGYUN 3D
#Satellite: FENGYUN 3D
#Configuration: FENGYUN 3D
#almurnet v.1.7.20251203
#Start time: 2026-01-15 13:49:44

#Version: 2.2.20231116
#Station: R3.2S_Murmansk
#Location: 33.079688 lon 68.888172 lat
#TLE: 1 43010U 17072A   26014.65117763 -.00000217  00000+0 -80772-4 0  9993
#TLE: 2 43010  98.9933 346.4618 0002330 108.4699 251.6730 14.19694700423204

#Time	Az	El	Level	Level2	SNR	BER	BlckErr	Temp	State	Recorded	gain1	gain2
2026-01-15 13:49:44.97	208.76	2.09	-58.7	-71.7	3.8	8.46e-01	0	26	0	0	82	17127
2026-01-15 13:49:48.97	209.04	2.32	-58.7	-71.7	3.8	8.46e-01	0	26	104	0	82	17150
2026-01-15 13:49:52.95	209.31	2.54	-58.6	-71.6	3.8	8.46e-01	0	26	104	0	82	16980
2026-01-15 13:49:56.94	209.59	2.77	-58.7	-71.7	3.8	8.46e-01	0	26	104	0	82	17178
2026-01-15 13:50:00.90	209.88	3.00	-58.7	-71.5	3.8	8.46e-01	0	26	104	0	82	16768
2026-01-15 13:50:04.89	210.16	3.23	-58.7	-71.5	3.8	8.45e-01	0	27	104	0	82	16767
2026-01-15 13:50:08.88	210.46	3.46	-58.7	-71.5	3.8	8.46e-01	0	26	104	0	82	16698
2026-01-15 13:50:12.87	210.75	3.69	-58.7	-71.6	3.8	8.46e-01	0	27	104	0	82	17024
2026-01-15 13:50:16.88	211.06	3.93	-58.7	-71.2	3.8	8.46e-01	0	27	104	0	82	16136
2026-01-15 13:50:20.89	211.37	4.16	-58.6	-70.5	3.8	8.45e-01	0	27	104	0	82	14945
2026-01-15 13:50:24.90	211.68	4.40	-57.6	-63.9	6.3	3.01e-01	0	27	0	5242880	81	7406
2026-01-15 13:50:28.89	212.00	4.64	-55.6	-59.0	10.3	2.52e-03	0	27	0	27262976	77	5307
2026-01-15 13:50:32.88	212.32	4.88	-52.1	-53.9	13.4	0.00e+00	0	27	0	49283072	70	4423
2026-01-15 13:50:36.88	212.64	5.12	-54.7	-57.3	11.6	1.16e-03	0	27	0	71303168	76	4640
2026-01-15 13:50:40.87	212.98	5.36	-50.8	-52.4	14.0	0.00e+00	0	27	0	93323264	68	4162
2026-01-15 13:50:44.85	213.31	5.60	-50.4	-51.9	14.1	0.00e+00	0	27	0	116391936	67	4191
2026-01-15 13:50:48.85	213.66	5.85	-50.1	-51.5	14.2	0.00e+00	0	27	0	138412032	66	4223
2026-01-15 13:50:52.84	214.00	6.10	-50.3	-51.8	14.1	0.00e+00	0	27	0	161480704	66	4348
2026-01-15 13:50:56.83	214.36	6.35	-50.4	-51.9	14.0	0.00e+00	0	27	0	183500800	66	4430
2026-01-15 13:51:00.82	214.72	6.60	-50.4	-51.9	14.1	0.00e+00	0	27	0	205520896	66	4439
2026-01-15 13:51:04.80	215.08	6.85	-50.1	-51.5	14.3	0.00e+00	0	27	0	228589568	66	4221
2026-01-15 13:51:08.79	215.45	7.10	-49.7	-51.1	14.5	0.00e+00	0	27	0	250609664	66	4025
2026-01-15 13:51:12.78	215.83	7.35	-50.2	-51.6	14.2	0.00e+00	0	27	0	273678336	66	4284
2026-01-15 13:51:16.77	216.21	7.61	-50.1	-51.5	14.3	0.00e+00	0	27	0	295698432	66	4212
2026-01-15 13:51:20.78	216.61	7.87	-49.4	-50.8	14.5	0.00e+00	0	27	0	317718528	65	4102
2026-01-15 13:51:24.77	217.00	8.13	-49.5	-50.9	14.5	0.00e+00	0	27	0	340787200	65	4151
2026-01-15 13:51:28.77	217.41	8.39	-49.5	-50.9	14.5	0.00e+00	0	27	0	362807296	65	4168
2026-01-15 13:51:32.76	217.82	8.65	-49.8	-51.2	14.3	0.00e+00	0	27	0	385875968	65	4313
2026-01-15 13:51:36.77	218.24	8.91	-49.6	-50.9	14.5	0.00e+00	0	27	0	407896064	65	4191
2026-01-15 13:51:40.76	218.66	9.18	-50.1	-51.5	14.2	0.00e+00	0	27	0	429916160	65	4462
2026-01-15 13:51:44.77	219.10	9.45	-50.0	-51.4	14.2	0.00e+00	0	28	0	452984832	65	4440
2026-01-15 13:51:48.77	219.54	9.72	-49.8	-51.1	14.4	0.00e+00	0	28	0	475004928	65	4284
2026-01-15 13:51:52.76	219.99	9.98	-49.4	-50.7	14.6	0.00e+00	0	28	0	498073600	65	4063
2026-01-15 13:51:56.75	220.45	10.26	-49.2	-50.5	14.6	0.00e+00	0	28	0	520093696	64	4199
2026-01-15 13:52:00.73	220.91	10.53	-49.1	-50.4	14.6	0.00e+00	0	27	0	543162368	64	4191
2026-01-15 13:52:04.72	221.38	10.80	-49.1	-50.4	14.6	0.00e+00	0	28	0	565182464	64	4193
2026-01-15 13:52:08.71	221.86	11.07	-48.9	-50.2	14.7	0.00e+00	0	28	0	587202560	64	4075
2026-01-15 13:52:12.71	222.36	11.35	-48.9	-50.2	14.7	0.00e+00	0	28	0	610271232	64	4057
2026-01-15 13:52:16.71	222.86	11.63	-49.0	-50.3	14.6	0.00e+00	0	27	0	632291328	63	4388
2026-01-15 13:52:20.70	223.37	11.91	-48.8	-50.1	14.7	0.00e+00	0	27	0	655360000	63	4267
2026-01-15 13:52:24.69	223.88	12.19	-48.6	-49.9	14.7	0.00e+00	0	28	0	677380096	63	4152
2026-01-15 13:52:28.69	224.41	12.47	-48.7	-49.9	14.7	0.00e+00	0	28	0	700448768	63	4192
2026-01-15 13:52:32.67	224.95	12.75	-48.7	-50.0	14.7	0.00e+00	0	28	0	722468864	63	4206
2026-01-15 13:52:36.67	225.50	13.03	-48.5	-49.7	14.8	0.00e+00	0	28	0	745537536	63	4083
2026-01-15 13:52:40.67	226.06	13.32	-48.6	-49.8	14.8	0.00e+00	0	28	0	767557632	63	4114
2026-01-15 13:52:44.67	226.63	13.60	-48.3	-49.5	14.9	0.00e+00	0	28	0	790626304	63	3964
2026-01-15 13:52:48.66	227.20	13.89	-48.3	-49.5	14.9	0.00e+00	0	28	0	812646400	63	4001
2026-01-15 13:52:52.66	227.80	14.18	-48.4	-49.6	14.9	0.00e+00	0	28	0	834666496	63	4041
2026-01-15 13:52:56.64	228.39	14.46	-48.0	-49.2	14.9	0.00e+00	0	28	0	857735168	62	4066
2026-01-15 13:53:00.62	229.01	14.75	-47.7	-48.9	15.0	0.00e+00	0	28	0	879755264	62	3935
2026-01-15 13:53:04.61	229.63	15.03	-48.1	-49.3	14.9	0.00e+00	0	28	0	901775360	62	4107
2026-01-15 13:53:08.59	230.26	15.32	-48.0	-49.2	14.9	0.00e+00	0	28	0	924844032	62	4060
2026-01-15 13:53:12.58	230.91	15.61	-47.8	-49.0	15.0	0.00e+00	0	28	0	946864128	62	3975
2026-01-15 13:53:16.56	231.57	15.90	-47.8	-49.0	15.0	0.00e+00	0	28	0	968884224	62	3974
2026-01-15 13:53:20.53	232.24	16.18	-47.7	-48.9	15.0	0.00e+00	0	28	0	991952896	62	3919
2026-01-15 13:53:24.54	232.92	16.47	-47.6	-48.8	14.9	0.00e+00	0	28	0	1013972992	61	4104
2026-01-15 13:53:28.54	233.62	16.76	-47.6	-48.8	14.9	0.00e+00	0	28	0	1037041664	61	4104
2026-01-15 13:53:32.53	234.33	17.04	-47.4	-48.5	15.0	0.00e+00	0	28	0	1059061760	61	4002
2026-01-15 13:53:36.53	235.06	17.33	-47.4	-48.5	15.0	0.00e+00	0	28	0	1082130432	61	4004
2026-01-15 13:53:40.51	235.79	17.61	-47.5	-48.6	15.0	0.00e+00	0	28	0	1104150528	61	4025
2026-01-15 13:53:44.51	236.54	17.89	-47.4	-48.6	15.0	0.00e+00	0	28	0	1126170624	61	4017
2026-01-15 13:53:48.50	237.31	18.17	-47.4	-48.6	15.0	0.00e+00	0	28	0	1149239296	61	4007
2026-01-15 13:53:52.49	238.08	18.45	-47.1	-48.3	15.0	0.00e+00	0	28	0	1171259392	60	4104
2026-01-15 13:53:56.47	238.87	18.73	-47.0	-48.2	15.1	0.00e+00	0	28	0	1194328064	60	4052
2026-01-15 13:54:00.46	239.68	19.00	-46.9	-48.1	15.1	0.00e+00	0	28	0	1216348160	60	4007
2026-01-15 13:54:04.43	240.50	19.27	-47.0	-48.1	15.1	0.00e+00	0	28	0	1238368256	60	4005
2026-01-15 13:54:08.41	241.33	19.54	-47.2	-48.3	15.0	0.00e+00	0	28	0	1261436928	60	4128
2026-01-15 13:54:12.40	242.17	19.81	-47.0	-48.1	15.1	0.00e+00	0	28	0	1283457024	60	4031
2026-01-15 13:54:16.38	243.03	20.07	-47.1	-48.2	15.0	0.00e+00	0	28	0	1305477120	60	4097
2026-01-15 13:54:20.38	243.91	20.33	-47.1	-48.2	15.0	0.00e+00	0	28	0	1328545792	60	4080
2026-01-15 13:54:24.39	244.81	20.59	-47.0	-48.1	15.1	0.00e+00	0	28	0	1350565888	60	4015
2026-01-15 13:54:28.38	245.71	20.84	-47.2	-48.4	14.9	0.00e+00	0	28	0	1373634560	59	4395
2026-01-15 13:54:32.38	246.64	21.08	-47.3	-48.5	14.9	0.00e+00	0	28	0	1395654656	59	4452
2026-01-15 13:54:36.37	247.57	21.32	-46.7	-47.8	15.1	0.00e+00	0	28	0	1418723328	59	4132
2026-01-15 13:54:40.37	248.52	21.56	-47.1	-48.3	14.9	0.00e+00	0	28	0	1440743424	59	4373
2026-01-15 13:54:44.36	249.48	21.79	-47.0	-48.1	15.0	0.00e+00	0	28	0	1462763520	59	4270
2026-01-15 13:54:48.36	250.46	22.01	-46.9	-48.1	15.0	0.00e+00	0	28	0	1485832192	59	4252
2026-01-15 13:54:52.35	251.45	22.23	-46.9	-48.0	15.0	0.00e+00	0	28	0	1507852288	59	4226
2026-01-15 13:54:56.35	252.46	22.44	-46.6	-47.7	15.1	0.00e+00	0	28	0	1530920960	59	4092
2026-01-15 13:55:00.34	253.47	22.64	-46.8	-47.9	15.0	0.00e+00	0	28	0	1552941056	59	4191
2026-01-15 13:55:04.33	254.50	22.83	-46.7	-47.9	15.1	0.00e+00	0	28	0	1576009728	59	4146
2026-01-15 13:55:08.32	255.54	23.02	-46.5	-47.6	15.1	0.00e+00	0	28	0	1598029824	59	4030
2026-01-15 13:55:12.28	256.59	23.20	-46.7	-47.9	15.1	0.00e+00	0	28	0	1620049920	59	4147
2026-01-15 13:55:16.25	257.64	23.36	-46.5	-47.6	15.1	0.00e+00	0	28	0	1643118592	59	4023
2026-01-15 13:55:20.24	258.72	23.52	-46.7	-47.8	15.1	0.00e+00	0	28	0	1665138688	59	4117
2026-01-15 13:55:24.24	259.81	23.67	-46.4	-47.5	15.2	0.00e+00	0	28	0	1687158784	59	3977
2026-01-15 13:55:28.22	260.90	23.82	-46.5	-47.6	15.1	0.00e+00	0	28	0	1710227456	59	4010
2026-01-15 13:55:32.21	262.00	23.95	-46.4	-47.5	15.2	0.00e+00	0	28	0	1732247552	59	3977
2026-01-15 13:55:36.21	263.12	24.07	-46.6	-47.7	15.1	0.00e+00	0	28	0	1755316224	59	4064
2026-01-15 13:55:40.21	264.24	24.18	-46.3	-47.3	15.2	0.00e+00	0	28	0	1777336320	59	3907
2026-01-15 13:55:44.20	265.37	24.28	-46.2	-47.3	15.2	0.00e+00	0	28	0	1799356416	59	3894
2026-01-15 13:55:48.20	266.51	24.36	-46.3	-47.4	15.2	0.00e+00	0	28	0	1822425088	59	3947
2026-01-15 13:55:52.19	267.65	24.44	-46.3	-47.3	15.2	0.00e+00	0	28	0	1844445184	59	3907
2026-01-15 13:55:56.18	268.79	24.50	-46.6	-47.7	15.0	0.00e+00	0	28	0	1867513856	58	4339
2026-01-15 13:56:00.18	269.94	24.56	-46.3	-47.4	15.1	0.00e+00	0	28	0	1889533952	58	4180
2026-01-15 13:56:04.17	271.10	24.60	-46.6	-47.7	15.0	0.00e+00	0	28	0	1912602624	58	4295
2026-01-15 13:56:08.16	272.25	24.63	-46.5	-47.6	15.0	0.00e+00	0	28	0	1934622720	58	4277
2026-01-15 13:56:12.15	273.41	24.64	-46.3	-47.4	15.1	0.00e+00	0	28	0	1956642816	58	4184
2026-01-15 13:56:16.15	274.57	24.65	-46.4	-47.5	15.1	0.00e+00	0	28	0	1979711488	58	4201
2026-01-15 13:56:20.15	275.73	24.64	-46.4	-47.5	15.1	0.00e+00	0	28	0	2001731584	58	4216
2026-01-15 13:56:24.15	276.89	24.62	-46.5	-47.6	15.0	0.00e+00	0	28	0	2024800256	58	4257
2026-01-15 13:56:28.14	278.04	24.59	-46.5	-47.5	15.0	0.00e+00	0	28	0	2046820352	58	4233
2026-01-15 13:56:32.15	279.20	24.55	-46.4	-47.5	15.1	0.00e+00	0	28	0	2069889024	58	4203
2026-01-15 13:56:36.14	280.35	24.49	-46.5	-47.7	15.0	0.00e+00	0	28	0	2091909120	58	4298
2026-01-15 13:56:40.14	281.49	24.43	-46.5	-47.6	15.0	0.00e+00	0	28	0	2114977792	58	4253
2026-01-15 13:56:44.15	282.64	24.35	-46.5	-47.6	15.0	0.00e+00	0	28	0	2136997888	58	4261
2026-01-15 13:56:48.13	283.77	24.26	-46.6	-47.7	15.0	0.00e+00	0	28	0	2160066560	58	4313
2026-01-15 13:56:52.13	284.90	24.16	-46.6	-47.7	15.0	0.00e+00	0	28	0	2182086656	58	4336
2026-01-15 13:56:56.14	286.02	24.05	-46.4	-47.5	15.0	0.00e+00	0	28	0	2204106752	58	4223
2026-01-15 13:57:00.13	287.13	23.93	-46.7	-47.9	15.0	0.00e+00	0	28	0	2227175424	58	4395
2026-01-15 13:57:04.12	288.23	23.79	-46.8	-47.9	14.9	0.00e+00	0	28	0	2249195520	58	4440
2026-01-15 13:57:08.11	289.32	23.65	-47.0	-48.2	15.0	0.00e+00	0	28	0	2272264192	59	4294
2026-01-15 13:57:12.10	290.40	23.50	-46.8	-47.9	15.0	0.00e+00	0	28	0	2294284288	59	4190
2026-01-15 13:57:16.08	291.47	23.34	-46.9	-48.0	15.0	0.00e+00	0	28	0	2316304384	59	4207
2026-01-15 13:57:20.08	292.53	23.17	-47.0	-48.1	15.0	0.00e+00	0	28	0	2339373056	59	4283
2026-01-15 13:57:24.07	293.58	22.99	-47.0	-48.1	15.0	0.00e+00	0	28	0	2361393152	59	4275
2026-01-15 13:57:28.07	294.62	22.80	-47.2	-48.4	14.9	0.00e+00	0	28	0	2384461824	59	4403
2026-01-15 13:57:32.07	295.65	22.61	-47.1	-48.3	15.0	0.00e+00	0	28	0	2406481920	59	4346
2026-01-15 13:57:36.07	296.66	22.40	-47.4	-48.5	14.9	0.00e+00	0	28	0	2429550592	59	4467
2026-01-15 13:57:40.05	297.65	22.20	-47.3	-48.4	14.9	0.00e+00	0	28	0	2451570688	59	4417
2026-01-15 13:57:44.06	298.64	21.98	-47.1	-48.2	15.0	0.00e+00	0	28	0	2473590784	60	4093
2026-01-15 13:57:48.05	299.61	21.76	-47.0	-48.0	15.1	0.00e+00	0	28	0	2496659456	60	3999
2026-01-15 13:57:52.06	300.58	21.52	-47.1	-48.2	15.1	0.00e+00	0	28	0	2518679552	60	4062
2026-01-15 13:57:56.06	301.52	21.29	-47.2	-48.3	15.0	0.00e+00	0	28	0	2541748224	60	4116
2026-01-15 13:58:00.05	302.45	21.05	-47.2	-48.4	15.0	0.00e+00	0	28	0	2563768320	60	4147
2026-01-15 13:58:04.02	303.36	20.81	-46.9	-47.9	15.1	0.00e+00	0	28	0	2586836992	60	3943
2026-01-15 13:58:08.01	304.26	20.56	-47.3	-48.4	15.0	0.00e+00	0	28	0	2608857088	60	4183
2026-01-15 13:58:11.99	305.14	20.30	-47.4	-48.5	14.9	0.00e+00	0	28	0	2630877184	60	4218
2026-01-15 13:58:15.98	306.02	20.04	-47.3	-48.4	15.0	0.00e+00	0	28	0	2653945856	60	4177
2026-01-15 13:58:19.97	306.87	19.78	-47.3	-48.4	15.0	0.00e+00	0	28	0	2675965952	60	4170
2026-01-15 13:58:23.98	307.72	19.52	-47.4	-48.5	14.9	0.00e+00	0	28	0	2699034624	60	4214
2026-01-15 13:58:27.98	308.55	19.25	-47.6	-48.8	14.9	0.00e+00	0	28	0	2721054720	60	4349
2026-01-15 13:58:31.96	309.36	18.98	-47.6	-48.8	14.8	0.00e+00	0	28	0	2743074816	60	4345
2026-01-15 13:58:35.89	310.15	18.71	-47.9	-49.1	14.9	0.00e+00	0	28	0	2766143488	61	4263
2026-01-15 13:58:39.88	310.94	18.43	-47.9	-49.1	14.9	0.00e+00	0	28	0	2788163584	61	4249
2026-01-15 13:58:43.87	311.71	18.16	-48.0	-49.2	14.8	0.00e+00	0	28	0	2811232256	61	4321
2026-01-15 13:58:47.88	312.48	17.87	-47.8	-48.9	14.9	0.00e+00	0	28	0	2833252352	61	4163
2026-01-15 13:58:51.88	313.22	17.59	-47.9	-49.1	14.8	0.00e+00	0	28	0	2856321024	61	4256
2026-01-15 13:58:55.89	313.96	17.31	-48.1	-49.3	14.8	0.00e+00	0	28	0	2878341120	61	4354
2026-01-15 13:58:59.89	314.68	17.03	-47.8	-49.0	14.9	0.00e+00	0	28	0	2901409792	61	4206
2026-01-15 13:59:03.87	315.38	16.74	-48.2	-49.4	14.7	0.00e+00	0	28	0	2923429888	61	4423
2026-01-15 13:59:07.86	316.08	16.46	-48.5	-49.7	14.7	0.00e+00	0	28	0	2945449984	62	4310
2026-01-15 13:59:11.85	316.76	16.17	-48.3	-49.4	14.8	0.00e+00	0	28	0	2968518656	62	4192
2026-01-15 13:59:15.83	317.42	15.89	-48.5	-49.7	14.7	0.00e+00	0	28	0	2990538752	62	4299
2026-01-15 13:59:19.83	318.08	15.60	-48.5	-49.7	14.7	0.00e+00	0	28	0	3013607424	62	4310
2026-01-15 13:59:23.83	318.73	15.32	-48.5	-49.7	14.7	0.00e+00	0	28	0	3035627520	62	4310
2026-01-15 13:59:27.83	319.36	15.03	-48.4	-49.6	14.8	0.00e+00	0	28	0	3057647616	62	4253
2026-01-15 13:59:31.83	319.98	14.74	-48.5	-49.7	14.7	0.00e+00	0	28	0	3080716288	62	4317
2026-01-15 13:59:35.85	320.60	14.46	-48.6	-49.8	14.7	0.00e+00	0	28	0	3103784960	62	4391
2026-01-15 13:59:39.84	321.19	14.17	-48.4	-49.6	14.7	0.00e+00	0	28	0	3125805056	62	4277
2026-01-15 13:59:43.84	321.78	13.89	-48.4	-49.6	14.7	0.00e+00	0	28	0	3148873728	62	4289
2026-01-15 13:59:47.84	322.36	13.60	-48.7	-50.0	14.6	0.00e+00	0	28	0	3170893824	62	4465
2026-01-15 13:59:51.83	322.92	13.32	-48.9	-50.1	14.6	0.00e+00	0	28	0	3192913920	62	4544
2026-01-15 13:59:55.84	323.48	13.04	-49.1	-50.4	14.6	0.00e+00	0	28	0	3215982592	63	4394
2026-01-15 13:59:59.85	324.03	12.76	-49.1	-50.4	14.5	0.00e+00	0	28	0	3238002688	63	4414
2026-01-15 14:00:03.84	324.56	12.48	-49.2	-50.6	14.5	0.00e+00	0	28	0	3261071360	63	4498
2026-01-15 14:00:07.83	325.09	12.20	-49.1	-50.4	14.5	0.00e+00	0	28	0	3283091456	63	4414
2026-01-15 14:00:11.82	325.60	11.92	-49.2	-50.5	14.5	0.00e+00	0	28	0	3305111552	63	4491
2026-01-15 14:00:15.79	326.11	11.64	-49.1	-50.3	14.6	0.00e+00	0	28	0	3328180224	63	4378
2026-01-15 14:00:19.78	326.61	11.37	-49.0	-50.2	14.6	0.00e+00	0	28	0	3350200320	63	4326
2026-01-15 14:00:23.79	327.10	11.09	-49.3	-50.6	14.4	0.00e+00	0	28	0	3373268992	63	4526
2026-01-15 14:00:27.79	327.58	10.82	-49.6	-51.0	14.4	0.00e+00	0	28	0	3395289088	64	4457
2026-01-15 14:00:31.79	328.05	10.55	-49.5	-50.9	14.4	0.00e+00	0	28	0	3418357760	64	4400
2026-01-15 14:00:35.78	328.51	10.28	-49.4	-50.7	14.5	0.00e+00	0	28	0	3440377856	64	4330
2026-01-15 14:00:39.79	328.97	10.01	-49.3	-50.6	14.5	0.00e+00	0	28	0	3462397952	64	4254
2026-01-15 14:00:43.78	329.42	9.74	-49.5	-50.8	14.4	0.00e+00	0	28	0	3485466624	64	4386
2026-01-15 14:00:47.78	329.86	9.48	-49.5	-50.9	14.4	0.00e+00	0	28	0	3507486720	64	4406
2026-01-15 14:00:51.78	330.29	9.21	-49.6	-50.9	14.4	0.00e+00	0	28	0	3530555392	64	4419
2026-01-15 14:00:55.77	330.72	8.95	-49.9	-51.3	14.3	0.00e+00	0	28	0	3552575488	65	4357
2026-01-15 14:00:59.77	331.13	8.69	-50.1	-51.6	14.2	0.00e+00	0	28	0	3575644160	65	4498
2026-01-15 14:01:03.74	331.54	8.43	-50.3	-51.8	14.1	0.00e+00	0	28	0	3597664256	65	4611
2026-01-15 14:01:07.73	331.95	8.17	-50.0	-51.4	14.4	0.00e+00	0	28	0	3619684352	66	4179
2026-01-15 14:01:11.72	332.34	7.91	-50.5	-52.1	14.0	0.00e+00	0	28	0	3642753024	66	4500
2026-01-15 14:01:15.72	332.73	7.66	-50.4	-51.9	14.1	0.00e+00	0	28	0	3664773120	66	4430
2026-01-15 14:01:19.71	333.12	7.40	-50.5	-52.0	14.0	0.00e+00	0	28	0	3687841792	66	4481
2026-01-15 14:01:23.68	333.49	7.15	-50.3	-51.8	14.1	0.00e+00	0	28	0	3709861888	66	4380
2026-01-15 14:01:27.68	333.86	6.90	-50.8	-52.3	13.9	0.00e+00	0	28	0	3731881984	66	4643
2026-01-15 14:01:31.67	334.23	6.65	-50.9	-52.5	13.8	0.00e+00	0	28	0	3754950656	66	4733
2026-01-15 14:01:35.66	334.59	6.40	-50.7	-52.2	14.0	0.00e+00	0	28	0	3776970752	67	4337
2026-01-15 14:01:39.66	334.94	6.15	-50.8	-52.3	13.9	0.00e+00	0	28	0	3800039424	67	4391
2026-01-15 14:01:43.64	335.29	5.91	-51.0	-52.7	13.8	0.00e+00	0	28	0	3822059520	67	4547
2026-01-15 14:01:47.62	335.63	5.67	-51.0	-52.7	13.7	0.00e+00	0	28	0	3844079616	67	4565
2026-01-15 14:01:51.61	335.97	5.43	-51.7	-53.5	13.4	0.00e+00	0	28	0	3867148288	68	4727
2026-01-15 14:01:55.61	336.30	5.18	-51.3	-53.0	13.6	0.00e+00	0	28	0	3889168384	68	4475
2026-01-15 14:01:59.62	336.63	4.94	-59.2	-72.3	3.8	8.44e-01	0	28	104	3906994176	83	17388
2026-01-15 14:02:03.62	336.95	4.71	-60.2	-73.2	3.8	8.45e-01	0	28	104	3906994176	85	17235
2026-01-15 14:02:07.61	337.27	4.47	-60.5	-73.6	3.8	8.46e-01	0	28	104	3906994176	86	17011
2026-01-15 14:02:11.60	337.58	4.23	-60.6	-73.7	3.8	8.45e-01	0	28	104	3906994176	86	17265
2026-01-15 14:02:15.58	337.89	4.00	-60.7	-73.7	3.8	8.46e-01	0	28	104	3906994176	86	17266
2026-01-15 14:02:19.56	338.19	3.77	-60.6	-73.7	3.8	8.45e-01	0	28	104	3906994176	86	17152
2026-01-15 14:02:23.56	338.49	3.54	-60.5	-73.6	3.8	8.44e-01	0	28	104	3906994176	86	16979
2026-01-15 14:02:27.55	338.79	3.31	-60.5	-73.6	3.8	8.46e-01	0	28	104	3906994176	86	16920
2026-01-15 14:02:31.53	339.08	3.08	-60.5	-73.6	3.8	8.46e-01	0	28	104	3906994176	86	16961
2026-01-15 14:02:35.53	339.36	2.85	-60.4	-73.5	3.8	8.46e-01	0	28	104	3906994176	86	16873
2026-01-15 14:02:39.54	339.65	2.63	-60.5	-73.6	3.8	8.46e-01	0	28	104	3906994176	86	16930
2026-01-15 14:02:43.53	339.93	2.40	-60.4	-73.5	3.8	8.45e-01	0	28	104	3906994176	86	16845
2026-01-15 14:02:47.54	340.20	2.18	-60.4	-73.5	3.8	8.46e-01	0	28	104	3906994176	86	16816
2026-01-15 14:02:51.52	340.47	1.96	-60.4	-73.5	3.8	8.44e-01	0	28	104	3906994176	86	16742

#Closed at: 2026-01-15 14:02:53
#Recorded file [3906 MB]: D:/lorett/data/31004_260115_164944.dat