passes_logs/2026/01/15/R3.2S_Murmansk/R3.2S_Murmansk__20260115_224227_NOAA_21_JPSS-2_rec.log

#Pass ID: 20260115_224227_NOAA 21 (JPSS-2)
#Satellite: NOAA 21 (JPSS-2)
#Configuration: NOAA-21
#almurnet v.1.7.20251203
#Start time: 2026-01-15 22:42:27

#Version: 2.2.20231116
#Station: R3.2S_Murmansk
#Location: 33.079688 lon 68.888172 lat
#TLE: 1 54234U 22150A   26015.43562254  .00000028  00000+0  34201-4 0  9996
#TLE: 2 54234  98.7498 316.3301 0000635 288.4972  71.6135 14.19534768164873

#Time	Az	El	Level	Level2	SNR	BER	BlckErr	Temp	State	Recorded	gain1	gain2
2026-01-15 22:42:27.55	19.26	2.01	-56.6	-69.3	3.8	1.49e+00	0	40	0	0	85	14914
2026-01-15 22:42:31.58	19.50	2.24	-56.5	-69.2	3.8	1.49e+00	0	41	104	0	83	16680
2026-01-15 22:42:35.62	19.74	2.48	-56.5	-69.2	3.8	1.49e+00	0	41	104	0	83	16572
2026-01-15 22:42:39.65	19.99	2.71	-56.5	-69.2	3.8	1.49e+00	0	41	104	0	83	16594
2026-01-15 22:42:43.69	20.24	2.95	-56.4	-68.3	3.8	1.49e+00	0	42	104	0	83	15042
2026-01-15 22:42:47.73	20.50	3.19	-56.4	-68.4	3.8	1.49e+00	0	42	104	0	83	15089
2026-01-15 22:42:51.77	20.75	3.43	-56.3	-67.1	3.9	1.48e+00	0	42	104	0	83	13001
2026-01-15 22:42:55.81	21.02	3.67	-56.1	-65.2	4.3	1.46e+00	0	42	104	0	83	10520
2026-01-15 22:42:59.85	21.29	3.92	-55.9	-64.1	4.8	1.16e+00	0	42	104	0	83	9180
2026-01-15 22:43:03.89	21.56	4.16	-54.9	-59.8	8.1	8.04e-02	0	43	0	6291456	81	6333
2026-01-15 22:43:07.93	21.83	4.41	-53.2	-56.0	12.1	4.99e-04	0	43	0	18874368	78	4858
2026-01-15 22:43:11.96	22.11	4.66	-52.9	-55.7	12.5	8.54e-05	0	43	0	32505856	76	5239
2026-01-15 22:43:16.00	22.40	4.91	-53.8	-57.2	11.0	1.53e-03	0	43	0	45088768	78	5529
2026-01-15 22:43:20.04	22.69	5.16	-55.8	-64.0	4.9	2.24e-01	0	43	0	56623104	82	9639
2026-01-15 22:43:24.08	22.98	5.42	-50.2	-51.7	16.7	0.00e+00	0	43	0	67108864	72	4159
2026-01-15 22:43:28.12	23.28	5.68	-50.3	-51.8	16.8	0.00e+00	0	43	0	79691776	71	4465
2026-01-15 22:43:32.15	23.58	5.93	-49.9	-51.3	17.2	0.00e+00	0	44	0	93323264	71	4214
2026-01-15 22:43:36.20	23.89	6.19	-50.1	-51.5	17.0	0.00e+00	0	44	0	105906176	71	4319
2026-01-15 22:43:40.24	24.20	6.46	-49.9	-51.3	17.2	0.00e+00	0	44	0	117440512	71	4241
2026-01-15 22:43:44.28	24.52	6.72	-50.2	-51.6	17.0	0.00e+00	0	44	0	131072000	71	4380
2026-01-15 22:43:48.32	24.85	6.99	-50.0	-51.5	17.1	0.00e+00	0	44	0	143654912	72	4055
2026-01-15 22:43:52.36	25.18	7.26	-50.1	-51.6	17.1	0.00e+00	0	44	0	156237824	71	4354
2026-01-15 22:43:56.40	25.52	7.53	-49.8	-51.1	17.6	0.00e+00	0	44	0	168820736	71	4116
2026-01-15 22:44:00.44	25.86	7.80	-49.6	-50.9	17.9	0.00e+00	0	45	0	181403648	71	4021
2026-01-15 22:44:04.48	26.21	8.08	-49.7	-51.0	17.7	0.00e+00	0	45	0	193986560	71	4098
2026-01-15 22:44:08.52	26.56	8.35	-49.5	-50.8	18.0	0.00e+00	0	45	0	206569472	70	4213
2026-01-15 22:44:12.56	26.92	8.63	-49.3	-50.5	18.3	0.00e+00	0	45	0	219152384	70	4073
2026-01-15 22:44:16.60	27.29	8.91	-49.1	-50.3	18.6	0.00e+00	0	45	0	231735296	70	3960
2026-01-15 22:44:20.64	27.66	9.20	-49.1	-50.3	18.6	0.00e+00	0	45	0	244318208	69	4202
2026-01-15 22:44:24.68	28.05	9.48	-48.9	-50.0	18.8	0.00e+00	0	45	0	256901120	69	4081
2026-01-15 22:44:28.72	28.43	9.77	-48.7	-49.8	19.1	0.00e+00	0	45	0	269484032	69	3987
2026-01-15 22:44:32.75	28.83	10.06	-48.6	-49.7	19.2	0.00e+00	0	45	0	282066944	69	3937
2026-01-15 22:44:36.80	29.23	10.35	-48.6	-49.7	19.2	0.00e+00	0	45	0	294649856	69	3929
2026-01-15 22:44:40.84	29.65	10.65	-48.4	-49.4	19.4	0.00e+00	0	45	0	307232768	68	4051
2026-01-15 22:44:44.88	30.06	10.95	-48.2	-49.3	19.6	0.00e+00	0	45	0	319815680	68	3963
2026-01-15 22:44:48.92	30.49	11.25	-48.4	-49.4	19.5	0.00e+00	0	46	0	332398592	68	4048
2026-01-15 22:44:52.96	30.93	11.55	-48.2	-49.3	19.7	0.00e+00	0	46	0	344981504	68	3961
2026-01-15 22:44:57.00	31.37	11.85	-48.1	-49.1	19.8	0.00e+00	0	46	0	357564416	68	3888
2026-01-15 22:45:01.04	31.83	12.16	-48.2	-49.2	19.7	0.00e+00	0	46	0	370147328	68	3953
2026-01-15 22:45:05.08	32.29	12.47	-47.9	-48.9	20.0	0.00e+00	0	46	0	382730240	67	4006
2026-01-15 22:45:09.12	32.76	12.78	-47.9	-48.9	20.0	0.00e+00	0	46	0	395313152	67	4010
2026-01-15 22:45:13.17	33.24	13.09	-48.0	-49.0	19.9	0.00e+00	0	46	0	408944640	67	4061
2026-01-15 22:45:17.21	33.74	13.41	-47.9	-49.0	19.9	0.00e+00	0	46	0	421527552	67	4052
2026-01-15 22:45:21.25	34.24	13.73	-47.9	-48.9	20.0	0.00e+00	0	46	0	434110464	67	4039
2026-01-15 22:45:25.29	34.75	14.05	-48.1	-49.2	19.8	0.00e+00	0	46	0	446693376	67	4150
2026-01-15 22:45:29.33	35.27	14.37	-48.2	-49.3	19.7	0.00e+00	0	46	0	459276288	67	4209
2026-01-15 22:45:33.37	35.81	14.69	-48.3	-49.3	19.7	0.00e+00	0	46	0	471859200	67	4239
2026-01-15 22:45:37.41	36.35	15.02	-48.2	-49.2	19.8	0.00e+00	0	46	0	484442112	67	4184
2026-01-15 22:45:41.46	36.91	15.35	-48.0	-49.0	20.0	0.00e+00	0	47	0	497025024	67	4073
2026-01-15 22:45:45.50	37.48	15.68	-48.2	-49.3	19.8	0.00e+00	0	46	0	509607936	67	4201
2026-01-15 22:45:49.54	38.06	16.01	-48.3	-49.4	19.6	0.00e+00	0	47	0	522190848	67	4258
2026-01-15 22:45:53.58	38.66	16.34	-48.2	-49.3	19.7	0.00e+00	0	47	0	534773760	67	4202
2026-01-15 22:45:57.62	39.26	16.68	-48.5	-49.6	19.5	0.00e+00	0	46	0	547356672	67	4361
2026-01-15 22:46:01.66	39.88	17.02	-48.8	-49.9	19.3	0.00e+00	0	47	0	559939584	68	4263
2026-01-15 22:46:05.70	40.52	17.36	-48.7	-49.7	19.4	0.00e+00	0	47	0	572522496	68	4192
2026-01-15 22:46:09.74	41.17	17.70	-48.6	-49.6	19.6	0.00e+00	0	47	0	585105408	68	4121
2026-01-15 22:46:13.78	41.83	18.04	-48.7	-49.8	19.5	0.00e+00	0	47	0	597688320	68	4205
2026-01-15 22:46:17.83	42.51	18.38	-48.6	-49.7	19.5	0.00e+00	0	47	0	610271232	68	4158
2026-01-15 22:46:21.87	43.20	18.72	-48.2	-49.1	20.0	0.00e+00	0	47	0	622854144	68	3913
2026-01-15 22:46:25.91	43.91	19.07	-48.3	-49.3	20.0	0.00e+00	0	47	0	635437056	68	3962
2026-01-15 22:46:29.95	44.63	19.41	-47.7	-48.7	20.3	0.00e+00	0	47	0	648019968	67	3926
2026-01-15 22:46:33.98	45.37	19.76	-47.3	-48.2	20.7	0.00e+00	0	47	0	660602880	66	3954
2026-01-15 22:46:38.02	46.12	20.10	-47.7	-48.6	20.4	0.00e+00	0	47	0	673185792	66	4137
2026-01-15 22:46:42.05	46.89	20.44	-47.5	-48.4	20.6	0.00e+00	0	47	0	686817280	66	4044
2026-01-15 22:46:46.09	47.68	20.79	-47.3	-48.2	20.9	0.00e+00	0	47	0	698351616	66	3914
2026-01-15 22:46:50.13	48.49	21.13	-47.1	-48.0	21.0	0.00e+00	0	47	0	710934528	66	3862
2026-01-15 22:46:54.16	49.31	21.47	-46.7	-47.5	21.4	0.00e+00	0	47	0	724566016	65	3852
2026-01-15 22:46:58.20	50.15	21.81	-46.5	-47.3	21.6	0.00e+00	0	47	0	737148928	65	3763
2026-01-15 22:47:02.24	51.01	22.15	-46.6	-47.4	21.5	0.00e+00	0	47	0	748683264	64	4043
2026-01-15 22:47:06.27	51.89	22.49	-46.4	-47.2	21.7	0.00e+00	0	47	0	762314752	64	3951
2026-01-15 22:47:10.31	52.78	22.82	-46.4	-47.2	21.7	0.00e+00	0	47	0	774897664	64	3953
2026-01-15 22:47:14.34	53.70	23.16	-46.6	-47.5	21.5	0.00e+00	0	47	0	787480576	64	4060
2026-01-15 22:47:18.38	54.63	23.48	-46.8	-47.6	21.4	0.00e+00	0	47	0	800063488	64	4140
2026-01-15 22:47:22.42	55.59	23.81	-46.8	-47.7	21.4	0.00e+00	0	47	0	812646400	64	4155
2026-01-15 22:47:26.45	56.56	24.13	-46.9	-47.8	21.2	0.00e+00	0	48	0	825229312	64	4234
2026-01-15 22:47:30.49	57.55	24.44	-47.1	-48.0	21.0	0.00e+00	0	48	0	837812224	64	4309
2026-01-15 22:47:34.53	58.57	24.75	-47.1	-47.9	21.1	0.00e+00	0	48	0	850395136	65	4037
2026-01-15 22:47:38.56	59.60	25.06	-47.8	-48.8	20.4	0.00e+00	0	48	0	862978048	66	4201
2026-01-15 22:47:42.60	60.65	25.36	-47.4	-48.3	20.8	0.00e+00	0	48	0	875560960	66	4001
2026-01-15 22:47:46.64	61.72	25.65	-47.2	-48.1	20.9	0.00e+00	0	48	0	888143872	66	3873
2026-01-15 22:47:50.67	62.81	25.93	-47.3	-48.2	20.9	0.00e+00	0	47	0	900726784	66	3955
2026-01-15 22:47:54.71	63.92	26.21	-47.1	-48.0	21.1	0.00e+00	0	48	0	913309696	66	3839
2026-01-15 22:47:58.75	65.05	26.48	-47.2	-48.0	21.0	0.00e+00	0	47	0	925892608	66	3868
2026-01-15 22:48:02.79	66.20	26.74	-47.1	-48.0	21.2	0.00e+00	0	48	0	938475520	66	3831
2026-01-15 22:48:06.83	67.36	26.98	-47.3	-48.2	20.9	0.00e+00	0	48	0	951058432	66	3944
2026-01-15 22:48:10.86	68.54	27.22	-46.9	-47.7	21.3	0.00e+00	0	48	0	963641344	65	3940
2026-01-15 22:48:14.90	69.74	27.45	-47.3	-48.2	20.9	0.00e+00	0	48	0	976224256	65	4189
2026-01-15 22:48:18.94	70.96	27.66	-47.4	-48.3	20.9	0.00e+00	0	48	0	988807168	65	4196
2026-01-15 22:48:22.98	72.19	27.87	-47.4	-48.3	20.9	0.00e+00	0	48	0	1001390080	65	4204
2026-01-15 22:48:27.02	73.44	28.06	-47.5	-48.4	20.7	0.00e+00	0	48	0	1013972992	65	4285
2026-01-15 22:48:31.06	74.70	28.24	-47.2	-48.1	21.0	0.00e+00	0	48	0	1026555904	65	4120
2026-01-15 22:48:35.10	75.98	28.40	-47.3	-48.2	20.9	0.00e+00	0	48	0	1039138816	65	4190
2026-01-15 22:48:39.14	77.27	28.55	-47.4	-48.3	20.9	0.00e+00	0	48	0	1051721728	65	4208
2026-01-15 22:48:43.18	78.57	28.68	-47.7	-48.6	20.6	0.00e+00	0	48	0	1064304640	66	4132
2026-01-15 22:48:47.23	79.88	28.80	-47.4	-48.3	20.7	0.00e+00	0	48	0	1076887552	66	3998
2026-01-15 22:48:51.26	81.19	28.90	-47.6	-48.5	20.7	0.00e+00	0	48	0	1090519040	66	4077
2026-01-15 22:48:55.30	82.52	28.99	-47.4	-48.3	20.9	0.00e+00	0	48	0	1103101952	66	3988
2026-01-15 22:48:59.34	83.85	29.06	-47.3	-48.2	21.0	0.00e+00	0	48	0	1114636288	66	3949
2026-01-15 22:49:03.38	85.19	29.12	-47.5	-48.4	20.7	0.00e+00	0	48	0	1128267776	66	4050
2026-01-15 22:49:07.41	86.53	29.16	-47.4	-48.2	20.8	0.00e+00	0	48	0	1140850688	66	3955
2026-01-15 22:49:11.45	87.88	29.18	-47.0	-47.9	21.2	0.00e+00	0	48	0	1153433600	66	3802
2026-01-15 22:49:15.49	89.22	29.18	-47.4	-48.3	20.8	0.00e+00	0	48	0	1166016512	66	4000
2026-01-15 22:49:19.53	90.57	29.17	-47.5	-48.5	20.7	0.00e+00	0	48	0	1178599424	66	4058
2026-01-15 22:49:23.57	91.91	29.14	-47.7	-48.6	20.6	0.00e+00	0	48	0	1191182336	66	4128
2026-01-15 22:49:27.61	93.25	29.10	-47.6	-48.5	20.6	0.00e+00	0	48	0	1203765248	66	4098
2026-01-15 22:49:31.65	94.59	29.03	-47.6	-48.5	20.7	0.00e+00	0	48	0	1216348160	66	4090
2026-01-15 22:49:35.69	95.92	28.95	-47.5	-48.4	20.8	0.00e+00	0	48	0	1228931072	66	4043
2026-01-15 22:49:39.72	97.24	28.86	-47.4	-48.3	20.9	0.00e+00	0	48	0	1241513984	66	3985
2026-01-15 22:49:43.76	98.56	28.75	-47.5	-48.4	20.8	0.00e+00	0	48	0	1254096896	66	4027
2026-01-15 22:49:47.80	99.87	28.62	-47.5	-48.4	20.7	0.00e+00	0	48	0	1266679808	66	4047
2026-01-15 22:49:51.84	101.16	28.48	-47.3	-48.2	21.0	0.00e+00	0	48	0	1279262720	66	3915
2026-01-15 22:49:55.88	102.45	28.33	-47.5	-48.4	20.7	0.00e+00	0	48	0	1291845632	66	4017
2026-01-15 22:49:59.92	103.72	28.16	-47.4	-48.3	20.7	0.00e+00	0	48	0	1304428544	66	3997
2026-01-15 22:50:03.96	104.98	27.97	-47.3	-48.2	20.8	0.00e+00	0	48	0	1317011456	66	3938
2026-01-15 22:50:08.00	106.22	27.77	-47.3	-48.2	20.9	0.00e+00	0	48	0	1329594368	66	3925
2026-01-15 22:50:12.04	107.45	27.56	-47.1	-48.0	21.1	0.00e+00	0	48	0	1342177280	66	3834
2026-01-15 22:50:16.08	108.66	27.34	-47.2	-48.1	21.0	0.00e+00	0	48	0	1354760192	66	3890
2026-01-15 22:50:20.12	109.86	27.11	-46.9	-47.8	21.3	0.00e+00	0	48	0	1367343104	65	3972
2026-01-15 22:50:24.16	111.04	26.87	-47.1	-47.9	21.2	0.00e+00	0	48	0	1379926016	65	4044
2026-01-15 22:50:28.20	112.20	26.61	-47.0	-47.9	21.2	0.00e+00	0	48	0	1392508928	65	4028
2026-01-15 22:50:32.24	113.34	26.35	-46.9	-47.7	21.3	0.00e+00	0	48	0	1405091840	65	3948
2026-01-15 22:50:36.28	114.46	26.07	-47.0	-47.9	21.1	0.00e+00	0	48	0	1418723328	65	4025
2026-01-15 22:50:40.32	115.57	25.79	-47.4	-48.3	20.7	0.00e+00	0	48	0	1430257664	65	4225
2026-01-15 22:50:44.35	116.65	25.51	-47.1	-48.0	21.1	0.00e+00	0	48	0	1443889152	65	4053
2026-01-15 22:50:48.39	117.71	25.21	-47.2	-48.1	20.9	0.00e+00	0	48	0	1456472064	65	4137
2026-01-15 22:50:52.43	118.76	24.91	-47.3	-48.3	20.8	0.00e+00	0	48	0	1469054976	65	4198
2026-01-15 22:50:56.47	119.79	24.60	-46.8	-47.6	21.4	0.00e+00	0	48	0	1481637888	65	3899
2026-01-15 22:51:00.51	120.80	24.28	-47.1	-48.0	21.0	0.00e+00	0	48	0	1494220800	65	4096
2026-01-15 22:51:04.55	121.78	23.96	-46.9	-47.8	21.1	0.00e+00	0	48	0	1506803712	65	3990
2026-01-15 22:51:08.59	122.75	23.64	-47.3	-48.2	20.9	0.00e+00	0	48	0	1519386624	65	4159
2026-01-15 22:51:12.63	123.70	23.31	-47.3	-48.2	20.8	0.00e+00	0	48	0	1531969536	65	4184
2026-01-15 22:51:16.67	124.63	22.98	-47.1	-48.0	21.0	0.00e+00	0	48	0	1544552448	65	4075
2026-01-15 22:51:20.71	125.54	22.64	-47.1	-48.0	21.0	0.00e+00	0	48	0	1557135360	65	4092
2026-01-15 22:51:24.75	126.43	22.30	-46.7	-47.6	21.3	0.00e+00	0	48	0	1569718272	65	3888
2026-01-15 22:51:28.79	127.30	21.96	-46.6	-47.5	21.4	0.00e+00	0	48	0	1582301184	65	3831
2026-01-15 22:51:32.83	128.16	21.62	-47.0	-47.9	20.9	0.00e+00	0	48	0	1594884096	65	4041
2026-01-15 22:51:36.87	128.99	21.28	-47.3	-48.2	20.8	0.00e+00	0	48	0	1607467008	65	4152
2026-01-15 22:51:40.91	129.81	20.93	-47.3	-48.2	20.7	0.00e+00	0	48	0	1620049920	65	4178
2026-01-15 22:51:44.95	130.61	20.59	-47.1	-48.1	20.8	0.00e+00	0	48	0	1632632832	65	4101
2026-01-15 22:51:49.00	131.40	20.24	-47.3	-48.2	20.7	0.00e+00	0	48	0	1645215744	65	4156
2026-01-15 22:51:53.04	132.16	19.89	-47.3	-48.2	20.7	0.00e+00	0	48	0	1657798656	65	4173
2026-01-15 22:51:57.08	132.91	19.54	-47.2	-48.1	20.7	0.00e+00	0	48	0	1670381568	65	4132
2026-01-15 22:52:01.12	133.64	19.20	-47.4	-48.3	20.5	0.00e+00	0	48	0	1682964480	65	4238
2026-01-15 22:52:05.17	134.36	18.85	-47.7	-48.7	20.2	0.00e+00	0	48	0	1695547392	65	4397
2026-01-15 22:52:09.21	135.06	18.50	-47.9	-48.9	20.0	0.00e+00	0	48	0	1708130304	66	4268
2026-01-15 22:52:13.25	135.75	18.16	-47.6	-48.5	20.3	0.00e+00	0	48	0	1721761792	66	4097
2026-01-15 22:52:17.29	136.42	17.82	-47.6	-48.5	20.3	0.00e+00	0	48	0	1734344704	66	4093
2026-01-15 22:52:21.33	137.08	17.47	-47.7	-48.6	20.2	0.00e+00	0	48	0	1745879040	66	4137
2026-01-15 22:52:25.38	137.72	17.13	-47.3	-48.2	20.6	0.00e+00	0	48	0	1759510528	66	3917
2026-01-15 22:52:29.42	138.35	16.79	-47.4	-48.4	20.4	0.00e+00	0	49	0	1772093440	66	4013
2026-01-15 22:52:33.46	138.97	16.45	-47.5	-48.5	20.3	0.00e+00	0	48	0	1784676352	66	4065
2026-01-15 22:52:37.50	139.57	16.11	-47.6	-48.6	20.2	0.00e+00	0	48	0	1797259264	66	4113
2026-01-15 22:52:41.54	140.16	15.78	-47.5	-48.4	20.3	0.00e+00	0	48	0	1809842176	66	4041
2026-01-15 22:52:45.59	140.73	15.44	-47.8	-48.7	20.0	0.00e+00	0	48	0	1822425088	66	4187
2026-01-15 22:52:49.63	141.30	15.11	-48.0	-49.0	19.8	0.00e+00	0	48	0	1835008000	66	4302
2026-01-15 22:52:53.67	141.85	14.78	-48.0	-49.0	19.7	0.00e+00	0	48	0	1847590912	66	4326
2026-01-15 22:52:57.71	142.39	14.46	-48.1	-49.1	19.7	0.00e+00	0	48	0	1860173824	66	4354
2026-01-15 22:53:01.74	142.92	14.13	-48.3	-49.4	19.4	0.00e+00	0	48	0	1872756736	67	4262
2026-01-15 22:53:05.78	143.44	13.81	-48.1	-49.1	19.6	0.00e+00	0	48	0	1885339648	67	4144
2026-01-15 22:53:09.82	143.94	13.49	-48.4	-49.4	19.3	0.00e+00	0	48	0	1897922560	67	4291
2026-01-15 22:53:13.86	144.44	13.17	-48.5	-49.6	19.1	0.00e+00	0	48	0	1910505472	67	4388
2026-01-15 22:53:17.91	144.93	12.85	-48.4	-49.5	19.2	0.00e+00	0	48	0	1923088384	67	4311
2026-01-15 22:53:21.94	145.41	12.54	-48.5	-49.6	19.2	0.00e+00	0	48	0	1935671296	67	4341
2026-01-15 22:53:25.98	145.87	12.23	-48.3	-49.4	19.3	0.00e+00	0	48	0	1948254208	67	4248
2026-01-15 22:53:30.02	146.33	11.92	-48.6	-49.7	19.0	0.00e+00	0	48	0	1960837120	67	4420
2026-01-15 22:53:34.06	146.78	11.61	-48.4	-49.5	19.2	0.00e+00	0	48	0	1973420032	67	4305
2026-01-15 22:53:38.10	147.22	11.30	-48.3	-49.4	19.2	0.00e+00	0	48	0	1986002944	67	4273
2026-01-15 22:53:42.13	147.65	11.00	-48.4	-49.5	19.1	0.00e+00	0	48	0	1998585856	67	4329
2026-01-15 22:53:46.17	148.07	10.70	-48.7	-49.8	18.8	0.00e+00	0	48	0	2011168768	67	4471
2026-01-15 22:53:50.21	148.49	10.40	-48.8	-50.0	18.7	0.00e+00	0	48	0	2023751680	68	4314
2026-01-15 22:53:54.25	148.89	10.11	-49.0	-50.2	18.5	0.00e+00	0	48	0	2037383168	68	4432
2026-01-15 22:53:58.29	149.29	9.81	-49.0	-50.2	18.5	0.00e+00	0	48	0	2049966080	68	4432
2026-01-15 22:54:02.33	149.69	9.52	-49.2	-50.4	18.3	0.00e+00	0	48	0	2061500416	68	4521
2026-01-15 22:54:06.37	150.07	9.23	-49.1	-50.3	18.4	0.00e+00	0	48	0	2075131904	68	4449
2026-01-15 22:54:10.41	150.45	8.95	-49.1	-50.3	18.3	0.00e+00	0	49	0	2087714816	69	4221
2026-01-15 22:54:14.45	150.82	8.66	-49.0	-50.2	18.4	0.00e+00	0	49	0	2100297728	69	4148
2026-01-15 22:54:18.49	151.18	8.38	-48.9	-50.1	18.5	0.00e+00	0	48	0	2112880640	69	4129
2026-01-15 22:54:22.53	151.54	8.10	-49.0	-50.1	18.4	0.00e+00	0	49	0	2125463552	69	4143
2026-01-15 22:54:26.57	151.89	7.82	-49.3	-50.5	18.0	0.00e+00	0	48	0	2138046464	69	4337
2026-01-15 22:54:30.61	152.23	7.55	-49.5	-50.9	17.7	0.00e+00	0	49	0	2150629376	69	4501
2026-01-15 22:54:34.64	152.57	7.27	-49.8	-51.1	17.3	0.00e+00	0	48	0	2163212288	70	4390
2026-01-15 22:54:38.68	152.90	7.00	-49.5	-50.9	17.5	0.00e+00	0	48	0	2175795200	70	4245
2026-01-15 22:54:42.72	153.23	6.73	-49.8	-51.3	17.1	0.00e+00	0	48	0	2188378112	70	4443
2026-01-15 22:54:46.77	153.55	6.47	-49.7	-51.1	17.2	0.00e+00	0	48	0	2200961024	70	4376
2026-01-15 22:54:50.81	153.86	6.20	-49.6	-51.0	17.2	0.00e+00	0	48	0	2213543936	70	4319
2026-01-15 22:54:54.84	154.17	5.94	-49.9	-51.4	16.8	0.00e+00	0	48	0	2226126848	70	4522
2026-01-15 22:54:58.88	154.48	5.68	-50.1	-51.6	16.6	0.00e+00	0	48	0	2238709760	71	4370
2026-01-15 22:55:02.93	154.78	5.42	-50.7	-52.4	15.8	0.00e+00	0	48	0	2251292672	71	4787
2026-01-15 22:55:06.97	155.07	5.16	-50.5	-52.1	16.1	0.00e+00	0	49	0	2263875584	71	4640
2026-01-15 22:55:11.01	155.36	4.90	-57.2	-69.9	3.8	1.49e+00	0	49	104	2273312768	84	17083
2026-01-15 22:55:15.05	155.64	4.65	-57.9	-70.7	3.8	1.49e+00	0	49	104	2273312768	86	16564
2026-01-15 22:55:19.08	155.92	4.40	-58.2	-71.0	3.8	1.49e+00	0	49	104	2273312768	86	17140
2026-01-15 22:55:23.12	156.20	4.15	-58.4	-71.2	3.8	1.49e+00	0	48	104	2273312768	87	16599
2026-01-15 22:55:27.16	156.47	3.90	-58.5	-71.3	3.8	1.49e+00	0	49	104	2273312768	87	16737
2026-01-15 22:55:31.20	156.74	3.65	-58.4	-71.2	3.8	1.49e+00	0	49	104	2273312768	87	16652
2026-01-15 22:55:35.24	157.00	3.41	-58.4	-71.2	3.8	1.49e+00	0	49	104	2273312768	87	16617
2026-01-15 22:55:39.28	157.26	3.17	-58.4	-71.2	3.8	1.49e+00	0	49	104	2273312768	87	16537
2026-01-15 22:55:43.32	157.52	2.93	-58.4	-71.2	3.8	1.49e+00	0	49	104	2273312768	87	16575
2026-01-15 22:55:47.36	157.77	2.69	-58.3	-71.1	3.8	1.49e+00	0	49	104	2273312768	87	16502
2026-01-15 22:55:51.40	158.01	2.45	-58.3	-71.1	3.8	1.49e+00	0	49	104	2273312768	87	16455
2026-01-15 22:55:55.44	158.26	2.21	-45.2	-69.9	3.9	1.50e+00	0	49	104	2273312768	63	56925
2026-01-15 22:55:59.48	158.50	1.98	-43.8	-68.1	3.6	1.54e+00	0	49	104	2273312768	57	65535

#Closed at: 2026-01-15 22:56:00
#Recorded file [2273 MB]: D:/lorett/data/31041_260116_014227.dat