passes_logs/2026/01/15/R3.2S_Murmansk/R3.2S_Murmansk__20260115_025139_SUOMI_NPP_rec.log

#Pass ID: 20260115_025139_SUOMI NPP
#Satellite: SUOMI NPP
#Configuration: NPP
#almurnet v.1.7.20251203
#Start time: 2026-01-15 02:51:41

#Version: 2.2.20231116
#Station: R3.2S_Murmansk
#Location: 33.079688 lon 68.888172 lat
#TLE: 1 37849U 11061A   26014.61059675  .00000037  00000+0  38639-4 0  9994
#TLE: 2 37849  98.7810 316.6625 0002460  64.3781 295.7649 14.19525105736658

#Time	Az	El	Level	Level2	SNR	BER	BlckErr	Temp	State	Recorded	gain1	gain2
2026-01-15 02:51:41.36	35.94	2.10	-58.0	-74.0	3.8	1.49e+00	0	26	0	0	82	22416
2026-01-15 02:51:45.36	35.77	2.35	-58.0	-74.0	3.8	1.49e+00	0	26	104	0	81	23816
2026-01-15 02:51:49.34	35.59	2.59	-58.0	-74.0	3.8	1.49e+00	0	26	104	0	81	23792
2026-01-15 02:51:53.33	35.41	2.84	-58.0	-74.0	3.8	1.49e+00	0	26	104	0	81	23802
2026-01-15 02:51:57.32	35.22	3.09	-58.1	-74.0	3.8	1.49e+00	0	26	104	0	81	23849
2026-01-15 02:52:01.32	35.03	3.34	-58.1	-74.0	3.8	1.49e+00	0	26	104	0	81	23726
2026-01-15 02:52:05.32	34.84	3.59	-58.1	-73.9	3.8	1.49e+00	0	26	104	0	81	23572
2026-01-15 02:52:09.29	34.65	3.85	-58.0	-73.6	3.8	1.49e+00	0	26	104	0	81	22563
2026-01-15 02:52:13.28	34.45	4.11	-58.0	-72.4	3.8	1.49e+00	0	26	104	0	81	19822
2026-01-15 02:52:17.28	34.25	4.37	-57.9	-70.1	4.3	1.37e+00	16	27	0	0	81	15068
2026-01-15 02:52:21.28	34.04	4.63	-57.5	-67.1	5.7	4.01e-01	0	27	0	7340032	81	10662
2026-01-15 02:52:25.27	33.83	4.89	-57.4	-65.9	6.5	1.78e-01	0	27	0	14680064	81	9342
2026-01-15 02:52:29.27	33.61	5.16	-56.7	-62.9	9.2	1.20e-04	0	27	0	22020096	78	7857
2026-01-15 02:52:33.26	33.39	5.43	-56.0	-60.8	10.8	2.56e-04	0	27	0	27262976	78	6199
2026-01-15 02:52:37.26	33.17	5.70	-55.8	-60.2	11.3	3.73e-05	0	27	0	34603008	77	6108
2026-01-15 02:52:41.26	32.94	5.97	-55.0	-58.7	12.3	7.00e-07	0	27	0	42991616	76	5457
2026-01-15 02:52:45.25	32.71	6.24	-55.0	-58.7	12.3	0.00e+00	0	27	0	50331648	76	5414
2026-01-15 02:52:49.25	32.47	6.52	-54.6	-58.1	12.7	0.00e+00	0	27	0	57671680	75	5362
2026-01-15 02:52:53.24	32.23	6.80	-54.6	-58.0	12.7	0.00e+00	0	27	0	65011712	75	5320
2026-01-15 02:52:57.22	31.98	7.09	-54.5	-57.8	12.9	0.00e+00	0	27	0	72351744	75	5165
2026-01-15 02:53:01.21	31.73	7.37	-54.3	-57.4	13.1	0.00e+00	0	27	0	79691776	75	4959
2026-01-15 02:53:05.21	31.47	7.66	-54.1	-57.1	13.3	0.00e+00	0	27	0	87031808	74	5081
2026-01-15 02:53:09.19	31.21	7.95	-54.1	-57.1	13.3	0.00e+00	0	27	0	95420416	74	5052
2026-01-15 02:53:13.19	30.94	8.24	-54.0	-56.8	13.4	0.00e+00	0	27	0	102760448	74	4910
2026-01-15 02:53:17.19	30.67	8.54	-53.9	-56.7	13.5	0.00e+00	0	27	0	110100480	74	4855
2026-01-15 02:53:21.18	30.39	8.84	-54.0	-56.8	13.4	0.00e+00	0	27	0	117440512	74	4876
2026-01-15 02:53:25.18	30.10	9.14	-53.9	-56.6	13.5	0.00e+00	0	27	0	124780544	74	4814
2026-01-15 02:53:29.17	29.81	9.45	-53.9	-56.7	13.5	0.00e+00	0	27	0	132120576	74	4839
2026-01-15 02:53:33.17	29.50	9.76	-53.8	-56.5	13.6	0.00e+00	0	27	0	139460608	74	4750
2026-01-15 02:53:37.16	29.20	10.07	-53.9	-56.8	13.5	0.00e+00	0	27	0	147849216	74	4886
2026-01-15 02:53:41.15	28.89	10.38	-53.6	-56.3	13.6	0.00e+00	0	27	0	155189248	73	4889
2026-01-15 02:53:45.13	28.57	10.70	-53.7	-56.4	13.5	0.00e+00	0	27	0	162529280	73	4960
2026-01-15 02:53:49.13	28.24	11.02	-53.3	-55.8	13.9	0.00e+00	0	27	0	169869312	73	4608
2026-01-15 02:53:53.13	27.90	11.34	-53.2	-55.6	13.9	0.00e+00	0	27	0	177209344	72	4797
2026-01-15 02:53:57.11	27.56	11.67	-53.0	-55.3	14.0	0.00e+00	0	27	0	184549376	72	4622
2026-01-15 02:54:01.10	27.21	12.00	-53.0	-55.3	14.0	0.00e+00	0	27	0	191889408	72	4611
2026-01-15 02:54:05.08	26.85	12.33	-53.0	-55.3	14.0	0.00e+00	0	27	0	199229440	72	4630
2026-01-15 02:54:09.08	26.48	12.67	-53.2	-55.6	13.9	0.00e+00	0	27	0	207618048	72	4763
2026-01-15 02:54:13.07	26.10	13.01	-53.0	-55.3	14.0	0.00e+00	0	28	0	214958080	72	4610
2026-01-15 02:54:17.06	25.72	13.35	-53.4	-55.7	13.8	0.00e+00	0	27	0	222298112	72	4854
2026-01-15 02:54:21.06	25.32	13.70	-53.2	-55.5	14.0	0.00e+00	0	27	0	229638144	72	4722
2026-01-15 02:54:25.05	24.91	14.05	-53.4	-55.7	13.8	0.00e+00	0	28	0	236978176	72	4870
2026-01-15 02:54:29.04	24.50	14.41	-53.5	-55.9	13.8	0.00e+00	0	27	0	244318208	72	4983
2026-01-15 02:54:33.04	24.07	14.77	-53.3	-55.7	13.9	0.00e+00	0	27	0	251658240	72	4835
2026-01-15 02:54:37.02	23.64	15.13	-53.1	-55.3	14.1	0.00e+00	0	27	0	260046848	72	4608
2026-01-15 02:54:41.03	23.19	15.50	-52.7	-54.7	14.3	0.00e+00	0	27	0	267386880	71	4558
2026-01-15 02:54:45.03	22.72	15.87	-52.7	-54.7	14.3	0.00e+00	0	28	0	274726912	71	4554
2026-01-15 02:54:49.02	22.25	16.24	-52.6	-54.5	14.4	0.00e+00	0	27	0	282066944	71	4464
2026-01-15 02:54:53.02	21.77	16.62	-52.9	-55.0	14.2	0.00e+00	0	28	0	289406976	71	4725
2026-01-15 02:54:57.02	21.27	17.00	-53.0	-55.2	14.0	0.00e+00	0	28	0	296747008	71	4824
2026-01-15 02:55:01.03	20.76	17.39	-53.1	-55.3	14.0	0.00e+00	0	28	0	305135616	71	4905
2026-01-15 02:55:05.02	20.24	17.77	-52.8	-54.8	14.2	0.00e+00	0	28	0	312475648	71	4641
2026-01-15 02:55:09.01	19.70	18.16	-53.3	-55.5	13.9	0.00e+00	0	28	0	319815680	71	5025
2026-01-15 02:55:13.01	19.14	18.56	-53.1	-55.3	14.0	0.00e+00	0	27	0	327155712	71	4872
2026-01-15 02:55:17.00	18.58	18.96	-53.7	-56.2	13.7	0.00e+00	0	28	0	334495744	72	5115
2026-01-15 02:55:21.00	17.99	19.36	-53.5	-55.7	14.1	0.00e+00	0	28	0	341835776	73	4560
2026-01-15 02:55:25.03	17.39	19.77	-53.7	-56.1	13.9	0.00e+00	0	27	0	349175808	73	4779
2026-01-15 02:55:29.05	16.77	20.18	-53.5	-55.7	14.0	0.00e+00	0	28	0	357564416	73	4587
2026-01-15 02:55:33.05	16.14	20.60	-53.8	-56.2	13.8	0.00e+00	0	28	0	364904448	73	4845
2026-01-15 02:55:37.04	15.49	21.01	-53.2	-55.4	14.2	0.00e+00	0	28	0	372244480	73	4396
2026-01-15 02:55:41.04	14.82	21.43	-53.4	-55.8	13.9	0.00e+00	0	27	0	379584512	72	4895
2026-01-15 02:55:45.04	14.13	21.85	-52.9	-55.0	14.3	0.00e+00	0	28	0	386924544	72	4443
2026-01-15 02:55:49.02	13.43	22.27	-53.6	-55.9	13.9	0.00e+00	0	28	0	394264576	72	4982
2026-01-15 02:55:53.01	12.70	22.70	-53.3	-55.5	14.1	0.00e+00	0	28	0	401604608	72	4729
2026-01-15 02:55:57.00	11.96	23.12	-54.1	-56.7	13.7	0.00e+00	0	28	0	409993216	73	5105
2026-01-15 02:56:01.00	11.19	23.55	-53.9	-56.4	13.7	0.00e+00	0	28	0	417333248	73	4956
2026-01-15 02:56:04.98	10.40	23.98	-54.6	-57.6	13.2	0.00e+00	0	28	0	424673280	74	5376
2026-01-15 02:56:08.98	9.59	24.41	-53.8	-56.3	13.9	0.00e+00	0	28	0	432013312	74	4613
2026-01-15 02:56:12.96	8.76	24.84	-53.9	-56.4	13.7	0.00e+00	0	28	0	439353344	73	4969
2026-01-15 02:56:16.96	7.90	25.27	-53.8	-56.3	13.8	0.00e+00	0	28	0	446693376	73	4898
2026-01-15 02:56:20.97	7.01	25.71	-53.9	-56.4	13.7	0.00e+00	0	28	0	454033408	73	4959
2026-01-15 02:56:24.97	6.11	26.14	-53.8	-56.2	13.9	0.00e+00	0	27	0	462422016	73	4835
2026-01-15 02:56:28.96	5.18	26.57	-53.7	-56.1	13.9	0.00e+00	0	28	0	469762048	73	4761
2026-01-15 02:56:32.95	4.22	26.99	-53.4	-55.7	14.1	0.00e+00	0	27	0	477102080	73	4547
2026-01-15 02:56:36.95	3.23	27.42	-53.7	-56.0	14.0	0.00e+00	0	28	0	484442112	73	4720
2026-01-15 02:56:40.95	2.22	27.84	-54.0	-56.4	13.9	0.00e+00	0	28	0	491782144	74	4657
2026-01-15 02:56:44.94	1.18	28.26	-53.3	-55.4	14.2	0.00e+00	0	27	0	499122176	72	4675
2026-01-15 02:56:48.93	0.12	28.67	-52.9	-55.0	14.3	0.00e+00	0	28	0	506462208	72	4481
2026-01-15 02:56:52.93	359.02	29.08	-53.6	-56.1	13.8	0.00e+00	0	27	0	514850816	72	5062
2026-01-15 02:56:56.91	357.91	29.48	-54.1	-56.9	13.5	0.00e+00	0	28	0	522190848	73	5221
2026-01-15 02:57:00.90	356.76	29.88	-55.4	-59.0	12.5	0.00e+00	0	28	0	529530880	76	5628
2026-01-15 02:57:04.89	355.58	30.26	-54.6	-57.5	13.4	0.00e+00	0	28	0	536870912	75	5009
2026-01-15 02:57:08.88	354.37	30.64	-55.0	-58.4	12.9	0.00e+00	0	28	0	544210944	75	5565
2026-01-15 02:57:12.88	353.14	31.01	-55.7	-59.6	12.2	0.00e+00	0	28	0	551550976	76	6009
2026-01-15 02:57:16.89	351.87	31.37	-56.1	-60.7	11.5	5.30e-06	0	28	0	558891008	77	6468
2026-01-15 02:57:20.91	350.57	31.72	-55.8	-60.2	11.9	4.50e-06	0	28	0	567279616	77	6122
2026-01-15 02:57:24.91	349.25	32.05	-55.0	-58.3	13.1	0.00e+00	0	28	0	574619648	76	5197
2026-01-15 02:57:28.90	347.90	32.37	-55.2	-58.7	12.7	0.00e+00	0	28	0	581959680	76	5442
2026-01-15 02:57:32.91	346.52	32.67	-55.1	-58.7	12.7	0.00e+00	0	28	0	589299712	75	5723
2026-01-15 02:57:36.89	345.13	32.96	-54.6	-58.0	13.1	0.00e+00	0	28	0	596639744	75	5296
2026-01-15 02:57:40.90	343.70	33.23	-55.5	-59.5	12.3	7.00e-07	0	28	0	603979776	76	5945
2026-01-15 02:57:44.91	342.25	33.48	-53.6	-56.2	13.8	0.00e+00	0	28	0	611319808	73	4824
2026-01-15 02:57:48.92	340.78	33.71	-52.7	-55.0	14.2	0.00e+00	0	28	0	619708416	71	4719
2026-01-15 02:57:52.93	339.28	33.93	-52.9	-55.3	14.1	0.00e+00	0	28	0	627048448	71	4878
2026-01-15 02:57:56.93	337.77	34.12	-53.7	-56.3	13.8	0.00e+00	0	28	0	634388480	73	4918
2026-01-15 02:58:00.92	336.25	34.29	-53.0	-55.2	14.2	0.00e+00	0	28	0	641728512	72	4569
2026-01-15 02:58:04.90	334.72	34.43	-51.9	-53.8	14.5	0.00e+00	0	28	0	649068544	70	4381
2026-01-15 02:58:08.89	333.17	34.56	-53.4	-55.9	13.8	0.00e+00	0	28	0	656408576	71	5221
2026-01-15 02:58:12.89	331.60	34.66	-52.4	-54.3	14.5	0.00e+00	0	28	0	664797184	71	4386
2026-01-15 02:58:16.88	330.03	34.73	-53.5	-55.7	14.0	0.00e+00	0	28	0	672137216	72	4852
2026-01-15 02:58:20.86	328.46	34.78	-53.3	-55.5	14.2	0.00e+00	0	28	0	679477248	72	4732
2026-01-15 02:58:24.86	326.88	34.81	-53.5	-55.7	14.0	0.00e+00	0	28	0	686817280	72	4837
2026-01-15 02:58:28.85	325.30	34.81	-54.3	-56.9	13.6	0.00e+00	0	28	0	694157312	73	5220
2026-01-15 02:58:32.84	323.71	34.79	-54.0	-56.6	13.7	0.00e+00	0	28	0	701497344	73	5093
2026-01-15 02:58:36.83	322.14	34.74	-54.5	-57.4	13.4	0.00e+00	0	28	0	708837376	74	5229
2026-01-15 02:58:40.82	320.57	34.67	-53.7	-56.3	14.0	0.00e+00	0	28	0	717225984	74	4600
2026-01-15 02:58:44.83	319.00	34.57	-54.2	-57.0	13.4	0.00e+00	0	28	0	724566016	73	5332
2026-01-15 02:58:48.84	317.44	34.45	-54.7	-57.7	13.3	0.00e+00	0	28	0	731906048	75	5139
2026-01-15 02:58:52.84	315.89	34.30	-53.8	-56.5	13.7	0.00e+00	0	28	0	739246080	73	5009
2026-01-15 02:58:56.84	314.36	34.14	-54.7	-57.8	13.1	0.00e+00	0	28	0	746586112	74	5519
2026-01-15 02:59:00.82	312.86	33.95	-53.9	-56.6	13.8	0.00e+00	0	28	0	753926144	74	4772
2026-01-15 02:59:04.82	311.37	33.74	-54.2	-57.1	13.4	0.00e+00	0	28	0	761266176	73	5374
2026-01-15 02:59:08.82	309.89	33.51	-53.5	-56.0	14.0	0.00e+00	0	28	0	769654784	73	4731
2026-01-15 02:59:12.80	308.45	33.26	-53.0	-55.4	14.0	0.00e+00	0	28	0	776994816	71	4956
2026-01-15 02:59:16.81	307.01	32.99	-55.0	-58.6	12.7	0.00e+00	0	28	0	784334848	75	5697
2026-01-15 02:59:20.79	305.62	32.71	-53.1	-55.3	14.2	0.00e+00	0	28	0	791674880	72	4606
2026-01-15 02:59:24.79	304.24	32.40	-54.1	-56.8	13.6	0.00e+00	0	28	0	799014912	73	5197
2026-01-15 02:59:28.78	302.89	32.09	-55.3	-59.0	12.6	0.00e+00	0	28	0	806354944	75	5976
2026-01-15 02:59:32.79	301.56	31.76	-55.0	-58.3	13.1	0.00e+00	0	28	0	813694976	76	5190
2026-01-15 02:59:36.78	300.26	31.41	-54.9	-58.2	13.1	0.00e+00	0	28	0	822083584	76	5141
2026-01-15 02:59:40.80	298.98	31.05	-53.8	-56.5	13.8	0.00e+00	0	28	0	829423616	74	4728
2026-01-15 02:59:44.80	297.74	30.69	-52.6	-54.7	14.3	0.00e+00	0	28	0	836763648	71	4576
2026-01-15 02:59:48.80	296.53	30.31	-54.7	-57.9	13.2	0.00e+00	0	28	0	844103680	74	5535
2026-01-15 02:59:52.81	295.34	29.92	-54.2	-56.9	13.8	0.00e+00	0	28	0	851443712	75	4652
2026-01-15 02:59:56.82	294.18	29.52	-55.5	-59.0	12.6	0.00e+00	0	28	0	858783744	76	5620
2026-01-15 03:00:00.82	293.05	29.12	-55.1	-58.2	13.1	0.00e+00	0	28	0	867172352	76	5152
2026-01-15 03:00:04.84	291.94	28.71	-54.5	-57.3	13.6	0.00e+00	0	28	0	874512384	75	4898
2026-01-15 03:00:08.83	290.87	28.30	-55.0	-58.0	13.2	0.00e+00	0	28	0	881852416	75	5322
2026-01-15 03:00:12.82	289.83	27.88	-53.4	-55.5	14.2	0.00e+00	0	28	0	889192448	73	4486
2026-01-15 03:00:16.81	288.82	27.46	-53.6	-55.9	14.0	0.00e+00	0	28	0	896532480	72	4935
2026-01-15 03:00:20.81	287.83	27.03	-53.8	-56.2	13.9	0.00e+00	0	28	0	903872512	73	4848
2026-01-15 03:00:24.80	286.87	26.60	-53.2	-55.3	14.3	0.00e+00	0	28	0	911212544	72	4619
2026-01-15 03:00:28.81	285.93	26.17	-53.2	-55.3	14.2	0.00e+00	0	28	0	919601152	72	4634
2026-01-15 03:00:32.82	285.01	25.74	-52.1	-53.9	14.6	0.00e+00	0	28	0	926941184	70	4416
2026-01-15 03:00:36.82	284.13	25.31	-52.0	-53.8	14.5	0.00e+00	0	28	0	934281216	69	4640
2026-01-15 03:00:40.83	283.26	24.87	-52.7	-54.7	14.2	0.00e+00	0	28	0	941621248	70	4870
2026-01-15 03:00:44.83	282.42	24.44	-52.2	-54.0	14.5	0.00e+00	0	28	0	948961280	70	4446
2026-01-15 03:00:48.83	281.60	24.01	-52.2	-54.1	14.5	0.00e+00	0	27	0	956301312	70	4518
2026-01-15 03:00:52.83	280.81	23.58	-52.1	-54.0	14.5	0.00e+00	0	28	0	964689920	70	4445
2026-01-15 03:00:56.82	280.04	23.15	-52.0	-53.8	14.6	0.00e+00	0	28	0	972029952	70	4344
2026-01-15 03:01:00.81	279.29	22.72	-52.2	-54.1	14.5	0.00e+00	0	28	0	979369984	70	4497
2026-01-15 03:01:04.80	278.56	22.29	-52.4	-54.3	14.4	0.00e+00	0	28	0	986710016	70	4599
2026-01-15 03:01:08.80	277.85	21.87	-52.5	-54.5	14.3	0.00e+00	0	28	0	994050048	70	4739
2026-01-15 03:01:12.78	277.16	21.45	-53.0	-55.0	14.2	0.00e+00	0	28	0	1001390080	71	4747
2026-01-15 03:01:16.78	276.49	21.03	-53.3	-55.4	14.1	0.00e+00	0	28	0	1008730112	71	4942
2026-01-15 03:01:20.79	275.83	20.61	-54.0	-56.5	13.7	0.00e+00	0	28	0	1017118720	73	5025
2026-01-15 03:01:24.80	275.20	20.20	-53.3	-55.4	14.2	0.00e+00	0	28	0	1024458752	73	4440
2026-01-15 03:01:28.80	274.58	19.79	-53.3	-55.5	14.1	0.00e+00	0	28	0	1031798784	72	4744
2026-01-15 03:01:32.79	273.97	19.38	-53.4	-55.6	14.0	0.00e+00	0	28	0	1039138816	72	4782
2026-01-15 03:01:36.80	273.39	18.98	-52.3	-54.2	14.5	0.00e+00	0	28	0	1046478848	71	4332
2026-01-15 03:01:40.80	272.82	18.57	-52.4	-54.3	14.5	0.00e+00	0	28	0	1053818880	71	4383
2026-01-15 03:01:44.80	272.26	18.18	-52.7	-54.6	14.3	0.00e+00	0	28	0	1061158912	71	4545
2026-01-15 03:01:48.78	271.72	17.79	-52.4	-54.3	14.4	0.00e+00	0	28	0	1069547520	70	4619
2026-01-15 03:01:52.78	271.19	17.40	-52.3	-54.1	14.4	0.00e+00	0	28	0	1076887552	70	4543
2026-01-15 03:01:56.77	270.68	17.01	-52.8	-54.9	14.1	0.00e+00	0	28	0	1084227584	70	4962
2026-01-15 03:02:00.78	270.18	16.63	-54.5	-57.2	13.4	0.00e+00	0	28	0	1091567616	74	5143
2026-01-15 03:02:04.78	269.69	16.25	-54.0	-56.4	13.8	0.00e+00	0	28	0	1098907648	74	4697
2026-01-15 03:02:08.76	269.22	15.88	-52.6	-54.5	14.4	0.00e+00	0	28	0	1106247680	71	4483
2026-01-15 03:02:12.76	268.75	15.50	-52.8	-54.9	14.2	0.00e+00	0	28	0	1113587712	71	4684
2026-01-15 03:02:16.76	268.30	15.14	-53.8	-56.3	13.6	0.00e+00	0	28	0	1121976320	72	5211
2026-01-15 03:02:20.76	267.86	14.77	-54.1	-56.7	13.5	0.00e+00	0	28	0	1129316352	73	5144
2026-01-15 03:02:24.75	267.43	14.41	-53.7	-56.1	13.8	0.00e+00	0	28	0	1136656384	73	4794
2026-01-15 03:02:28.75	267.01	14.06	-54.0	-56.5	13.7	0.00e+00	0	28	0	1143996416	73	5023
2026-01-15 03:02:32.77	266.60	13.70	-54.1	-56.7	13.6	0.00e+00	0	28	0	1151336448	73	5108
2026-01-15 03:02:36.78	266.20	13.35	-54.2	-56.8	13.5	0.00e+00	0	28	0	1158676480	73	5206
2026-01-15 03:02:40.78	265.81	13.01	-54.2	-56.9	13.5	0.00e+00	0	28	0	1167065088	74	4945
2026-01-15 03:02:44.78	265.43	12.66	-53.9	-56.4	13.8	0.00e+00	0	28	0	1174405120	74	4652
2026-01-15 03:02:48.79	265.06	12.32	-53.6	-56.0	13.9	0.00e+00	0	28	0	1181745152	73	4719
2026-01-15 03:02:52.80	264.70	11.99	-53.4	-55.7	14.0	0.00e+00	0	28	0	1189085184	73	4582
2026-01-15 03:02:56.81	264.34	11.66	-54.1	-56.7	13.5	0.00e+00	0	28	0	1196425216	73	5141
2026-01-15 03:03:00.82	263.99	11.33	-55.1	-58.3	12.7	0.00e+00	0	28	0	1203765248	75	5522
2026-01-15 03:03:04.82	263.65	11.00	-55.3	-58.7	12.5	0.00e+00	0	28	0	1212153856	76	5412
2026-01-15 03:03:08.80	263.33	10.68	-55.2	-58.4	12.9	0.00e+00	0	28	0	1219493888	76	5229
2026-01-15 03:03:12.79	263.00	10.36	-54.8	-57.8	13.2	0.00e+00	0	28	0	1226833920	76	4922
2026-01-15 03:03:16.80	262.69	10.05	-54.4	-57.2	13.4	0.00e+00	0	28	0	1234173952	75	4830
2026-01-15 03:03:20.78	262.38	9.74	-54.0	-56.6	13.6	0.00e+00	0	28	0	1241513984	74	4786
2026-01-15 03:03:24.78	262.08	9.43	-53.9	-56.5	13.6	0.00e+00	0	28	0	1248854016	74	4729
2026-01-15 03:03:28.78	261.78	9.12	-53.9	-56.5	13.6	0.00e+00	0	28	0	1256194048	74	4718
2026-01-15 03:03:32.76	261.49	8.82	-54.3	-57.1	13.3	0.00e+00	0	27	0	1263534080	74	5075
2026-01-15 03:03:36.75	261.21	8.52	-54.8	-57.8	12.9	0.00e+00	0	28	0	1271922688	74	5524
2026-01-15 03:03:40.73	260.93	8.22	-55.2	-58.6	12.5	0.00e+00	0	28	0	1279262720	75	5698
2026-01-15 03:03:44.72	260.66	7.93	-55.1	-58.3	12.7	0.00e+00	0	28	0	1286602752	75	5520
2026-01-15 03:03:48.72	260.40	7.64	-55.1	-58.4	12.6	0.00e+00	0	28	0	1293942784	75	5547
2026-01-15 03:03:52.70	260.14	7.35	-55.0	-58.3	12.7	0.00e+00	0	28	0	1301282816	75	5501
2026-01-15 03:03:56.69	259.88	7.06	-55.2	-58.7	12.4	7.00e-07	0	28	0	1308622848	75	5732
2026-01-15 03:04:00.68	259.63	6.78	-55.3	-58.8	12.4	0.00e+00	0	28	0	1315962880	76	5478
2026-01-15 03:04:04.68	259.39	6.50	-55.5	-59.1	12.2	7.00e-07	0	28	0	1324351488	76	5676
2026-01-15 03:04:08.68	259.15	6.22	-55.3	-58.7	12.4	7.00e-07	0	28	0	1331691520	76	5453
2026-01-15 03:04:12.67	258.91	5.95	-55.2	-58.6	12.5	0.00e+00	0	28	0	1339031552	76	5357
2026-01-15 03:04:16.65	258.69	5.67	-54.7	-57.8	13.0	0.00e+00	0	28	0	1346371584	76	4910
2026-01-15 03:04:20.61	258.46	5.40	-54.6	-57.7	12.9	0.00e+00	0	28	0	1353711616	75	5119
2026-01-15 03:04:24.61	258.24	5.13	-54.6	-57.7	12.9	0.00e+00	0	28	0	1361051648	75	5145
2026-01-15 03:04:28.60	258.02	4.87	-59.6	-75.7	3.8	1.49e+00	0	28	104	1365245952	84	24171
2026-01-15 03:04:32.60	257.81	4.60	-60.1	-76.2	3.8	1.49e+00	0	28	104	1365245952	85	24335
2026-01-15 03:04:36.60	257.60	4.34	-60.4	-76.5	3.8	1.49e+00	0	28	104	1365245952	85	25112
2026-01-15 03:04:40.59	257.40	4.08	-60.6	-76.7	3.8	1.49e+00	0	28	104	1365245952	86	24249
2026-01-15 03:04:44.59	257.19	3.82	-60.7	-76.8	3.8	1.49e+00	0	28	104	1365245952	86	24430
2026-01-15 03:04:48.59	257.00	3.57	-60.6	-76.7	3.8	1.49e+00	0	28	104	1365245952	86	24297
2026-01-15 03:04:52.58	256.80	3.31	-60.5	-76.6	3.8	1.49e+00	0	28	104	1365245952	86	24071
2026-01-15 03:04:56.58	256.61	3.06	-60.5	-76.6	3.8	1.49e+00	0	28	104	1365245952	86	24053
2026-01-15 03:05:00.56	256.43	2.81	-60.5	-76.6	3.8	1.49e+00	0	28	104	1365245952	86	23964
2026-01-15 03:05:04.55	256.24	2.57	-60.5	-76.6	3.8	1.49e+00	0	28	104	1365245952	86	23864
2026-01-15 03:05:08.54	256.06	2.32	-60.5	-76.5	3.8	1.49e+00	0	28	104	1365245952	86	23841
2026-01-15 03:05:12.52	255.89	2.08	-60.4	-76.5	3.8	1.49e+00	0	28	104	1365245952	86	23774

#Closed at: 2026-01-15 03:05:13
#Recorded file [1365 MB]: D:/lorett/data/31004_260115_055141.dat