passes_logs/2026/01/15/R3.2S_Murmansk/R3.2S_Murmansk__20260115_092831_SUOMI_NPP_rec.log

#Pass ID: 20260115_092831_SUOMI NPP
#Satellite: SUOMI NPP
#Configuration: NPP
#almurnet v.1.7.20251203
#Start time: 2026-01-15 09:28:32

#Version: 2.2.20231116
#Station: R3.2S_Murmansk
#Location: 33.079688 lon 68.888172 lat
#TLE: 1 37849U 11061A   26014.61059675  .00000037  00000+0  38639-4 0  9994
#TLE: 2 37849  98.7810 316.6625 0002460  64.3781 295.7649 14.19525105736658

#Time	Az	El	Level	Level2	SNR	BER	BlckErr	Temp	State	Recorded	gain1	gain2
2026-01-15 09:28:32.61	148.75	2.09	-58.2	-74.2	3.8	1.49e+00	0	26	0	0	82	22909
2026-01-15 09:28:36.65	148.74	2.35	-58.2	-74.2	3.8	1.49e+00	0	26	104	0	81	24192
2026-01-15 09:28:40.68	148.74	2.61	-58.2	-74.2	3.8	1.49e+00	0	26	104	0	81	24197
2026-01-15 09:28:44.72	148.74	2.88	-58.2	-74.2	3.8	1.49e+00	0	26	104	0	81	24202
2026-01-15 09:28:48.75	148.74	3.15	-58.2	-74.2	3.8	1.49e+00	0	26	104	0	81	24151
2026-01-15 09:28:52.79	148.74	3.42	-58.2	-73.8	3.8	1.49e+00	0	26	104	0	81	23155
2026-01-15 09:28:56.82	148.73	3.69	-58.1	-72.3	3.8	1.49e+00	0	27	104	0	81	19485
2026-01-15 09:29:00.85	148.73	3.97	-57.9	-69.0	4.7	9.45e-01	0	27	0	1048576	81	13409
2026-01-15 09:29:04.89	148.73	4.25	-57.5	-65.4	7.1	1.08e-01	0	27	0	8388608	81	8772
2026-01-15 09:29:08.93	148.72	4.53	-56.8	-62.6	9.4	8.68e-03	0	27	0	15728640	80	6779
2026-01-15 09:29:12.97	148.72	4.82	-56.0	-60.5	11.0	2.90e-04	0	27	0	24117248	78	5969
2026-01-15 09:29:17.01	148.71	5.11	-57.0	-63.0	9.2	3.00e-03	0	27	0	31457280	79	7517
2026-01-15 09:29:21.04	148.71	5.40	-57.4	-65.9	6.6	1.96e-03	0	27	0	38797312	79	10473
2026-01-15 09:29:25.07	148.70	5.70	-55.6	-59.5	11.8	7.60e-06	0	27	0	46137344	77	5624
2026-01-15 09:29:29.10	148.70	5.99	-55.6	-59.3	12.0	3.80e-06	0	27	0	53477376	77	5522
2026-01-15 09:29:33.13	148.69	6.30	-55.6	-59.3	12.0	7.00e-07	0	27	0	61865984	77	5510
2026-01-15 09:29:37.15	148.69	6.60	-55.6	-59.3	12.1	4.50e-06	0	27	0	69206016	77	5481
2026-01-15 09:29:41.17	148.68	6.91	-55.6	-59.3	12.1	2.20e-06	0	27	0	76546048	77	5494
2026-01-15 09:29:45.21	148.67	7.22	-55.5	-58.9	12.3	1.50e-06	0	27	0	83886080	77	5276
2026-01-15 09:29:49.22	148.67	7.54	-55.4	-58.8	12.5	0.00e+00	0	27	0	91226112	77	5187
2026-01-15 09:29:53.25	148.66	7.86	-55.2	-58.4	12.8	0.00e+00	0	27	0	99614720	77	4932
2026-01-15 09:29:57.27	148.65	8.18	-55.2	-58.3	12.8	0.00e+00	0	27	0	106954752	76	5186
2026-01-15 09:30:01.30	148.64	8.51	-55.3	-58.4	12.7	0.00e+00	0	27	0	114294784	76	5262
2026-01-15 09:30:05.33	148.63	8.84	-55.2	-58.3	12.8	0.00e+00	0	27	0	121634816	76	5191
2026-01-15 09:30:09.36	148.62	9.18	-55.0	-57.9	13.0	0.00e+00	0	27	0	128974848	76	4979
2026-01-15 09:30:13.39	148.61	9.52	-55.0	-57.9	13.1	0.00e+00	0	27	0	137363456	76	4951
2026-01-15 09:30:17.42	148.60	9.87	-54.9	-57.7	13.2	0.00e+00	0	27	0	144703488	76	4836
2026-01-15 09:30:21.44	148.59	10.22	-54.7	-57.4	13.4	0.00e+00	0	27	0	152043520	76	4702
2026-01-15 09:30:25.47	148.57	10.58	-54.6	-57.3	13.3	0.00e+00	0	27	0	159383552	75	4892
2026-01-15 09:30:29.50	148.56	10.94	-54.4	-57.0	13.5	0.00e+00	0	27	0	166723584	75	4721
2026-01-15 09:30:33.53	148.55	11.31	-54.2	-56.7	13.7	0.00e+00	0	27	0	175112192	75	4556
2026-01-15 09:30:37.56	148.53	11.68	-54.1	-56.5	13.7	0.00e+00	0	28	0	182452224	74	4716
2026-01-15 09:30:41.59	148.52	12.06	-54.1	-56.5	13.7	0.00e+00	0	27	0	189792256	74	4736
2026-01-15 09:30:45.61	148.50	12.45	-53.9	-56.2	13.8	0.00e+00	0	27	0	197132288	74	4590
2026-01-15 09:30:49.64	148.48	12.84	-53.8	-56.1	13.9	0.00e+00	0	27	0	204472320	74	4497
2026-01-15 09:30:53.68	148.47	13.24	-53.8	-56.0	14.0	0.00e+00	0	28	0	212860928	74	4482
2026-01-15 09:30:57.70	148.45	13.64	-53.7	-55.9	13.9	0.00e+00	0	27	0	220200960	73	4682
2026-01-15 09:31:01.72	148.43	14.05	-53.7	-55.9	13.9	0.00e+00	0	28	0	227540992	73	4701
2026-01-15 09:31:05.75	148.41	14.47	-53.4	-55.4	14.2	0.00e+00	0	28	0	234881024	73	4433
2026-01-15 09:31:09.78	148.39	14.90	-53.2	-55.2	14.3	0.00e+00	0	27	0	242221056	73	4329
2026-01-15 09:31:13.82	148.36	15.33	-52.7	-55.0	14.3	0.00e+00	0	27	0	250609664	72	4478
2026-01-15 09:31:17.85	148.34	15.77	-52.6	-54.9	14.2	0.00e+00	0	28	0	257949696	71	4676
2026-01-15 09:31:21.88	148.32	16.22	-52.5	-54.7	14.3	0.00e+00	0	27	0	265289728	71	4593
2026-01-15 09:31:25.92	148.29	16.68	-52.5	-54.8	14.3	0.00e+00	0	28	0	272629760	71	4627
2026-01-15 09:31:29.95	148.26	17.15	-52.6	-54.9	14.2	0.00e+00	0	28	0	281018368	71	4668
2026-01-15 09:31:33.98	148.23	17.62	-52.8	-55.2	14.1	0.00e+00	0	28	0	288358400	71	4842
2026-01-15 09:31:38.02	148.21	18.11	-52.6	-54.9	14.2	0.00e+00	0	28	0	295698432	71	4672
2026-01-15 09:31:42.05	148.17	18.60	-52.6	-54.9	14.3	0.00e+00	0	28	0	303038464	71	4660
2026-01-15 09:31:46.07	148.14	19.11	-52.5	-54.8	14.3	0.00e+00	0	28	0	310378496	71	4600
2026-01-15 09:31:50.09	148.11	19.62	-52.6	-54.9	14.2	0.00e+00	0	28	0	318767104	71	4705
2026-01-15 09:31:54.13	148.07	20.15	-52.7	-55.1	14.1	0.00e+00	0	28	0	326107136	71	4785
2026-01-15 09:31:58.16	148.03	20.68	-52.9	-55.4	14.0	0.00e+00	0	28	0	333447168	71	4932
2026-01-15 09:32:02.20	147.99	21.24	-53.0	-55.6	13.9	0.00e+00	0	28	0	340787200	71	5065
2026-01-15 09:32:06.22	147.95	21.80	-53.0	-55.5	14.0	0.00e+00	0	28	0	348127232	71	5014
2026-01-15 09:32:10.25	147.91	22.37	-52.9	-55.3	14.1	0.00e+00	0	28	0	356515840	71	4919
2026-01-15 09:32:14.29	147.86	22.96	-53.0	-55.3	14.1	0.00e+00	0	28	0	363855872	71	4924
2026-01-15 09:32:18.32	147.82	23.56	-52.6	-54.8	14.3	0.00e+00	0	28	0	371195904	71	4616
2026-01-15 09:32:22.34	147.77	24.17	-52.5	-54.6	14.4	0.00e+00	0	28	0	378535936	71	4529
2026-01-15 09:32:26.37	147.71	24.80	-52.6	-54.8	14.3	0.00e+00	0	28	0	385875968	71	4616
2026-01-15 09:32:30.39	147.66	25.45	-52.5	-54.5	14.4	0.00e+00	0	28	0	394264576	71	4471
2026-01-15 09:32:34.43	147.60	26.11	-52.2	-54.1	14.5	0.00e+00	0	28	0	401604608	70	4511
2026-01-15 09:32:38.46	147.54	26.79	-52.7	-54.7	14.2	0.00e+00	0	28	0	408944640	70	4863
2026-01-15 09:32:42.49	147.47	27.48	-53.0	-55.1	14.2	0.00e+00	0	28	0	416284672	71	4787
2026-01-15 09:32:46.52	147.40	28.20	-53.2	-55.5	14.0	0.00e+00	0	28	0	423624704	71	5017
2026-01-15 09:32:50.55	147.33	28.93	-53.1	-55.3	14.2	0.00e+00	0	28	0	432013312	72	4648
2026-01-15 09:32:54.58	147.25	29.68	-54.2	-57.0	13.5	0.00e+00	0	28	0	439353344	73	5332
2026-01-15 09:32:58.61	147.17	30.45	-53.9	-56.4	13.9	0.00e+00	0	28	0	446693376	74	4662
2026-01-15 09:33:02.64	147.08	31.25	-54.5	-57.2	13.5	0.00e+00	0	28	0	454033408	74	5116
2026-01-15 09:33:06.68	146.99	32.06	-55.7	-59.2	12.5	0.00e+00	0	28	0	462422016	76	5778
2026-01-15 09:33:10.71	146.90	32.90	-55.7	-59.2	12.7	0.00e+00	0	28	0	469762048	77	5413
2026-01-15 09:33:14.73	146.79	33.76	-55.6	-59.2	12.7	0.00e+00	0	28	0	477102080	77	5405
2026-01-15 09:33:18.77	146.69	34.65	-54.5	-57.3	13.6	0.00e+00	0	28	0	484442112	75	4926
2026-01-15 09:33:22.80	146.57	35.56	-53.1	-55.4	14.2	0.00e+00	0	28	0	491782144	72	4679
2026-01-15 09:33:26.84	146.45	36.51	-52.6	-54.7	14.4	0.00e+00	0	28	0	500170752	71	4561
2026-01-15 09:33:30.87	146.31	37.47	-51.5	-53.3	14.7	0.00e+00	0	28	0	507510784	69	4364
2026-01-15 09:33:34.90	146.17	38.47	-51.7	-53.7	14.6	0.00e+00	0	28	0	514850816	69	4552
2026-01-15 09:33:38.93	146.02	39.49	-52.0	-53.9	14.5	0.00e+00	0	28	0	522190848	69	4700
2026-01-15 09:33:42.95	145.86	40.55	-51.6	-53.5	14.6	0.00e+00	0	28	0	529530880	69	4492
2026-01-15 09:33:46.98	145.69	41.64	-52.1	-54.3	14.4	0.00e+00	0	28	0	537919488	69	4880
2026-01-15 09:33:51.02	145.50	42.76	-52.4	-54.7	14.3	0.00e+00	0	28	0	545259520	70	4832
2026-01-15 09:33:55.05	145.30	43.91	-53.3	-56.0	13.9	0.00e+00	0	28	0	552599552	71	5312
2026-01-15 09:33:59.08	145.08	45.10	-53.4	-56.0	14.0	0.00e+00	0	28	0	559939584	72	5020
2026-01-15 09:34:03.10	144.84	46.33	-54.2	-57.1	13.5	0.00e+00	0	28	0	567279616	73	5353
2026-01-15 09:34:07.13	144.58	47.59	-54.6	-58.1	13.1	0.00e+00	0	28	0	575668224	75	5379
2026-01-15 09:34:11.15	144.30	48.89	-54.1	-57.4	13.3	0.00e+00	0	28	0	583008256	73	5592
2026-01-15 09:34:15.19	144.00	50.23	-52.4	-54.9	14.3	0.00e+00	0	28	0	590348288	71	4676
2026-01-15 09:34:19.22	143.66	51.61	-51.9	-54.4	14.3	0.00e+00	0	28	0	597688320	69	4933
2026-01-15 09:34:23.24	143.29	53.02	-53.3	-55.8	14.0	0.00e+00	0	28	0	605028352	72	4922
2026-01-15 09:34:27.28	142.87	54.48	-51.7	-53.6	14.7	0.00e+00	0	28	0	613416960	70	4261
2026-01-15 09:34:31.31	142.42	55.98	-52.7	-54.9	14.2	0.00e+00	0	28	0	620756992	70	4977
2026-01-15 09:34:35.33	141.90	57.52	-53.8	-56.2	13.8	0.00e+00	0	28	0	628097024	72	5108
2026-01-15 09:34:39.37	141.32	59.10	-54.7	-57.5	13.4	0.00e+00	0	28	0	635437056	75	5027
2026-01-15 09:34:43.39	140.67	60.71	-54.3	-57.1	13.5	0.00e+00	0	28	0	642777088	74	5099
2026-01-15 09:34:47.39	139.93	62.35	-52.8	-55.1	14.3	0.00e+00	0	28	0	651165696	72	4509
2026-01-15 09:34:51.43	139.07	64.04	-51.1	-52.9	14.7	0.00e+00	0	28	0	658505728	68	4415
2026-01-15 09:34:55.46	138.08	65.76	-52.3	-54.2	14.3	0.00e+00	0	28	0	665845760	69	4840
2026-01-15 09:34:59.50	136.90	67.52	-54.1	-56.5	13.9	0.00e+00	0	28	0	673185792	74	4753
2026-01-15 09:35:03.53	135.51	69.30	-54.7	-57.1	13.8	0.00e+00	0	28	0	680525824	76	4541
2026-01-15 09:35:07.56	133.83	71.10	-53.9	-56.2	14.0	0.00e+00	0	28	0	688914432	73	4815
2026-01-15 09:35:11.59	131.77	72.91	-52.1	-53.9	14.5	0.00e+00	0	28	0	696254464	69	4685
2026-01-15 09:35:15.63	129.17	74.72	-54.1	-56.4	13.9	0.00e+00	0	28	0	703594496	73	4981
2026-01-15 09:35:19.66	125.86	76.52	-55.9	-59.2	12.7	0.00e+00	0	28	0	710934528	76	5754
2026-01-15 09:35:23.68	121.51	78.28	-55.5	-58.6	13.1	0.00e+00	0	28	0	718274560	77	5086
2026-01-15 09:35:27.71	115.59	79.97	-54.5	-57.2	13.5	0.00e+00	0	28	0	726663168	74	5117
2026-01-15 09:35:31.74	107.35	81.53	-52.3	-54.2	14.4	0.00e+00	0	28	0	734003200	70	4587
2026-01-15 09:35:35.77	95.70	82.84	-52.6	-54.5	14.4	0.00e+00	0	28	0	741343232	70	4746
2026-01-15 09:35:39.80	79.76	83.75	-51.9	-53.6	14.7	0.00e+00	0	28	0	748683264	70	4267
2026-01-15 09:35:43.83	60.43	84.06	-52.6	-54.5	14.4	0.00e+00	0	28	0	757071872	70	4729
2026-01-15 09:35:47.86	41.39	83.66	-52.9	-54.8	14.4	0.00e+00	0	28	0	764411904	71	4628
2026-01-15 09:35:51.89	26.04	82.69	-52.5	-54.3	14.6	0.00e+00	0	28	0	771751936	71	4389
2026-01-15 09:35:55.92	14.92	81.33	-54.2	-56.7	13.8	0.00e+00	0	28	0	779091968	74	4854
2026-01-15 09:35:59.95	7.04	79.76	-55.9	-59.2	12.9	0.00e+00	0	28	0	786432000	78	5135
2026-01-15 09:36:03.97	1.39	78.06	-56.9	-61.0	11.9	0.00e+00	0	28	0	794820608	78	6280
2026-01-15 09:36:08.00	357.19	76.29	-54.0	-56.1	14.2	0.00e+00	0	28	0	802160640	74	4498
2026-01-15 09:36:12.03	353.99	74.49	-54.0	-56.1	14.1	0.00e+00	0	28	0	809500672	74	4538
2026-01-15 09:36:16.06	351.48	72.68	-54.8	-57.4	13.6	0.00e+00	0	28	0	816840704	75	4940
2026-01-15 09:36:20.10	349.47	70.87	-54.4	-56.7	13.9	0.00e+00	0	28	0	824180736	74	4841
2026-01-15 09:36:24.12	347.84	69.08	-54.2	-56.4	14.0	0.00e+00	0	28	0	832569344	74	4658
2026-01-15 09:36:28.15	346.48	67.31	-55.4	-58.4	13.2	0.00e+00	0	28	0	839909376	76	5223
2026-01-15 09:36:32.17	345.34	65.57	-54.4	-57.0	13.7	0.00e+00	0	28	0	847249408	74	5034
2026-01-15 09:36:36.20	344.36	63.85	-55.3	-58.4	13.1	0.00e+00	0	28	0	854589440	75	5561
2026-01-15 09:36:40.22	343.52	62.18	-54.2	-56.6	13.9	0.00e+00	0	28	0	861929472	74	4798
2026-01-15 09:36:44.24	342.79	60.54	-52.7	-54.7	14.4	0.00e+00	0	28	0	870318080	71	4575
2026-01-15 09:36:48.28	342.14	58.92	-50.7	-52.3	15.0	0.00e+00	0	28	0	877658112	68	4109
2026-01-15 09:36:52.31	341.58	57.36	-53.9	-56.5	13.8	0.00e+00	0	28	0	884998144	73	5031
2026-01-15 09:36:56.34	341.07	55.83	-52.5	-54.6	14.5	0.00e+00	0	28	0	892338176	71	4515
2026-01-15 09:37:00.38	340.62	54.33	-53.1	-55.2	14.3	0.00e+00	0	28	0	899678208	72	4568
2026-01-15 09:37:04.40	340.21	52.89	-53.1	-55.1	14.3	0.00e+00	0	28	0	908066816	72	4526
2026-01-15 09:37:08.44	339.85	51.48	-54.3	-57.1	13.5	0.00e+00	0	28	0	915406848	74	5075
2026-01-15 09:37:12.47	339.51	50.11	-54.7	-57.8	13.4	0.00e+00	0	28	0	922746880	76	4874
2026-01-15 09:37:16.50	339.21	48.78	-56.1	-60.0	12.2	0.00e+00	0	28	0	930086912	77	5981
2026-01-15 09:37:20.53	338.93	47.48	-54.5	-57.1	13.7	0.00e+00	0	28	0	937426944	75	4812
2026-01-15 09:37:24.57	338.68	46.23	-53.2	-55.2	14.3	0.00e+00	0	28	0	945815552	72	4557
2026-01-15 09:37:28.60	338.45	45.01	-56.8	-61.0	11.6	1.50e-06	0	28	0	953155584	78	6307
2026-01-15 09:37:32.63	338.23	43.83	-55.5	-58.5	13.2	0.00e+00	0	28	0	960495616	77	5007
2026-01-15 09:37:36.66	338.03	42.68	-53.7	-56.0	14.1	0.00e+00	0	28	0	967835648	73	4718
2026-01-15 09:37:40.69	337.85	41.56	-55.7	-59.7	12.4	7.00e-07	0	28	0	975175680	76	6072
2026-01-15 09:37:44.73	337.67	40.48	-54.1	-56.8	13.8	0.00e+00	0	28	0	983564288	74	4911
2026-01-15 09:37:48.74	337.52	39.44	-54.0	-56.6	13.8	0.00e+00	0	28	0	990904320	74	4812
2026-01-15 09:37:52.77	337.37	38.42	-55.2	-59.1	12.4	0.00e+00	0	28	0	998244352	75	6044
2026-01-15 09:37:56.80	337.23	37.43	-54.5	-57.7	13.1	0.00e+00	0	28	0	1005584384	75	5109
2026-01-15 09:38:00.84	337.10	36.47	-54.6	-57.8	13.2	0.00e+00	0	28	0	1012924416	74	5465
2026-01-15 09:38:04.87	336.98	35.53	-53.8	-56.5	13.7	0.00e+00	0	28	0	1021313024	73	5027
2026-01-15 09:38:08.90	336.86	34.63	-55.7	-59.9	12.2	0.00e+00	0	28	0	1028653056	76	6236
2026-01-15 09:38:12.93	336.76	33.74	-57.1	-63.5	9.6	1.88e-02	0	28	0	1035993088	79	7969
2026-01-15 09:38:16.96	336.66	32.89	-54.9	-58.0	13.2	0.00e+00	0	28	0	1043333120	76	5009
2026-01-15 09:38:20.99	336.56	32.05	-53.9	-56.6	13.7	0.00e+00	0	28	0	1051721728	73	5045
2026-01-15 09:38:25.02	336.47	31.24	-54.7	-57.8	13.2	0.00e+00	0	28	0	1059061760	74	5483
2026-01-15 09:38:29.06	336.39	30.45	-54.8	-57.9	13.2	0.00e+00	0	28	0	1066401792	74	5539
2026-01-15 09:38:33.09	336.31	29.69	-56.6	-61.4	11.3	1.06e-05	0	28	0	1073741824	78	6633
2026-01-15 09:38:37.12	336.23	28.94	-56.6	-61.6	11.2	9.38e-05	0	28	0	1081081856	79	6355
2026-01-15 09:38:41.15	336.16	28.21	-54.7	-57.6	13.5	0.00e+00	0	28	0	1089470464	76	4787
2026-01-15 09:38:45.18	336.10	27.50	-53.4	-55.6	14.2	0.00e+00	0	28	0	1096810496	73	4513
2026-01-15 09:38:49.21	336.03	26.81	-53.1	-55.3	14.2	0.00e+00	0	28	0	1104150528	72	4626
2026-01-15 09:38:53.24	335.97	26.13	-53.2	-55.4	14.1	0.00e+00	0	28	0	1111490560	72	4701
2026-01-15 09:38:57.27	335.91	25.48	-53.4	-55.9	13.9	0.00e+00	0	28	0	1118830592	72	4930
2026-01-15 09:39:01.31	335.86	24.83	-53.8	-56.4	13.8	0.00e+00	0	28	0	1127219200	73	4957
2026-01-15 09:39:05.34	335.81	24.21	-53.8	-56.5	13.7	0.00e+00	0	28	0	1134559232	73	5008
2026-01-15 09:39:09.37	335.76	23.59	-53.5	-56.0	13.9	0.00e+00	0	28	0	1141899264	73	4743
2026-01-15 09:39:13.40	335.71	23.00	-53.9	-56.6	13.6	0.00e+00	0	28	0	1149239296	73	5095
2026-01-15 09:39:17.43	335.67	22.41	-53.6	-56.1	13.8	0.00e+00	0	28	0	1156579328	73	4800
2026-01-15 09:39:21.46	335.63	21.84	-52.8	-55.0	14.3	0.00e+00	0	28	0	1164967936	72	4448
2026-01-15 09:39:25.49	335.59	21.28	-52.1	-54.1	14.5	0.00e+00	0	28	0	1172307968	70	4499
2026-01-15 09:39:29.52	335.55	20.74	-52.2	-54.2	14.4	0.00e+00	0	28	0	1179648000	70	4590
2026-01-15 09:39:33.56	335.52	20.20	-52.6	-54.9	14.1	0.00e+00	0	28	0	1186988032	70	4944
2026-01-15 09:39:37.59	335.48	19.68	-52.6	-54.8	14.1	0.00e+00	0	28	0	1194328064	70	4920
2026-01-15 09:39:41.61	335.45	19.17	-52.8	-55.1	14.0	0.00e+00	0	28	0	1202716672	70	5086
2026-01-15 09:39:45.65	335.42	18.66	-53.2	-55.7	13.8	0.00e+00	0	28	0	1210056704	71	5157
2026-01-15 09:39:49.68	335.39	18.17	-53.6	-56.4	13.6	0.00e+00	0	28	0	1217396736	72	5223
2026-01-15 09:39:53.70	335.36	17.69	-54.1	-57.2	13.2	0.00e+00	0	28	0	1224736768	73	5418
2026-01-15 09:39:57.73	335.34	17.21	-53.8	-56.6	13.5	0.00e+00	0	28	0	1233125376	73	5069
2026-01-15 09:40:01.74	335.31	16.75	-53.2	-55.7	14.0	0.00e+00	0	28	0	1240465408	73	4548
2026-01-15 09:40:05.78	335.29	16.30	-53.0	-55.4	13.9	0.00e+00	0	28	0	1247805440	72	4702
2026-01-15 09:40:09.81	335.27	15.85	-52.9	-55.3	14.1	0.00e+00	0	28	0	1255145472	72	4629
2026-01-15 09:40:13.84	335.24	15.41	-52.4	-55.9	13.9	0.00e+00	0	28	0	1262485504	71	5252
2026-01-15 09:40:17.87	335.22	14.98	-53.0	-56.3	13.6	0.00e+00	0	28	0	1270874112	71	5508
2026-01-15 09:40:21.90	335.20	14.55	-53.9	-56.8	13.4	0.00e+00	0	28	0	1278214144	73	5175
2026-01-15 09:40:25.93	335.19	14.14	-54.0	-57.0	13.3	0.00e+00	0	28	0	1285554176	73	5328
2026-01-15 09:40:29.96	335.17	13.73	-54.0	-57.0	13.3	0.00e+00	0	28	0	1292894208	73	5305
2026-01-15 09:40:34.00	335.15	13.32	-54.1	-57.0	13.3	0.00e+00	0	28	0	1300234240	73	5338
2026-01-15 09:40:38.03	335.14	12.93	-53.7	-56.5	13.6	0.00e+00	0	28	0	1308622848	73	5015
2026-01-15 09:40:42.06	335.12	12.54	-53.6	-56.2	13.7	0.00e+00	0	28	0	1315962880	73	4868
2026-01-15 09:40:46.08	335.11	12.15	-53.5	-56.2	13.7	0.00e+00	0	28	0	1323302912	73	4835
2026-01-15 09:40:50.11	335.10	11.78	-53.6	-56.3	13.6	0.00e+00	0	28	0	1330642944	73	4896
2026-01-15 09:40:54.14	335.08	11.40	-53.4	-56.0	13.8	0.00e+00	0	28	0	1337982976	73	4723
2026-01-15 09:40:58.17	335.07	11.04	-53.6	-56.3	13.6	0.00e+00	0	28	0	1346371584	73	4895
2026-01-15 09:41:02.20	335.06	10.68	-53.8	-56.4	13.6	0.00e+00	0	28	0	1353711616	73	4966
2026-01-15 09:41:06.22	335.05	10.32	-53.6	-56.2	13.7	0.00e+00	0	28	0	1361051648	73	4831
2026-01-15 09:41:10.26	335.04	9.97	-53.5	-56.1	13.7	0.00e+00	0	28	0	1368391680	73	4786
2026-01-15 09:41:14.28	335.03	9.62	-53.7	-56.3	13.6	0.00e+00	0	28	0	1375731712	73	4921
2026-01-15 09:41:18.32	335.03	9.28	-53.6	-56.1	13.7	0.00e+00	0	28	0	1384120320	73	4788
2026-01-15 09:41:22.36	335.02	8.94	-53.6	-56.2	13.6	0.00e+00	0	28	0	1391460352	73	4841
2026-01-15 09:41:26.39	335.01	8.61	-53.6	-56.1	13.7	0.00e+00	0	28	0	1398800384	73	4786
2026-01-15 09:41:30.42	335.01	8.28	-53.8	-56.3	13.6	0.00e+00	0	28	0	1406140416	73	4924
2026-01-15 09:41:34.46	335.00	7.96	-53.6	-56.1	13.7	0.00e+00	0	28	0	1413480448	73	4790
2026-01-15 09:41:38.49	334.99	7.64	-53.7	-56.3	13.6	0.00e+00	0	28	0	1421869056	73	4885
2026-01-15 09:41:42.51	334.99	7.33	-53.7	-56.3	13.6	0.00e+00	0	28	0	1429209088	73	4873
2026-01-15 09:41:46.54	334.99	7.01	-53.8	-56.4	13.5	0.00e+00	0	28	0	1436549120	73	4966
2026-01-15 09:41:50.56	334.98	6.71	-53.6	-56.2	13.6	0.00e+00	0	28	0	1443889152	73	4828
2026-01-15 09:41:54.59	334.98	6.40	-53.8	-56.5	13.4	0.00e+00	0	28	0	1451229184	73	5021
2026-01-15 09:41:58.63	334.97	6.10	-53.9	-56.6	13.3	0.00e+00	0	28	0	1459617792	73	5087
2026-01-15 09:42:02.66	334.97	5.80	-53.7	-56.4	13.4	0.00e+00	0	28	0	1466957824	73	4956
2026-01-15 09:42:06.69	334.97	5.51	-54.0	-56.8	13.1	0.00e+00	0	28	0	1474297856	73	5211
2026-01-15 09:42:10.73	334.97	5.22	-53.9	-56.9	13.0	0.00e+00	0	28	0	1481637888	73	5226
2026-01-15 09:42:14.76	334.97	4.93	-59.2	-75.2	3.8	1.49e+00	0	28	104	1487929344	83	24347
2026-01-15 09:42:18.77	334.97	4.65	-60.1	-76.2	3.8	1.49e+00	0	28	104	1487929344	85	24139
2026-01-15 09:42:22.81	334.96	4.37	-60.5	-76.6	3.8	1.49e+00	0	28	104	1487929344	86	23894
2026-01-15 09:42:26.84	334.96	4.09	-60.6	-76.6	3.8	1.49e+00	0	28	104	1487929344	86	24097
2026-01-15 09:42:30.87	334.96	3.81	-60.6	-76.7	3.8	1.49e+00	0	28	104	1487929344	86	24176
2026-01-15 09:42:34.91	334.96	3.54	-60.6	-76.7	3.8	1.49e+00	0	28	104	1487929344	86	24179
2026-01-15 09:42:38.94	334.97	3.27	-60.5	-76.6	3.8	1.49e+00	0	28	104	1487929344	86	23994
2026-01-15 09:42:42.97	334.97	3.00	-60.5	-76.6	3.8	1.49e+00	0	28	104	1487929344	86	23887
2026-01-15 09:42:47.01	334.97	2.73	-60.4	-76.5	3.8	1.49e+00	0	28	104	1487929344	86	23682
2026-01-15 09:42:51.05	334.97	2.47	-60.4	-76.4	3.8	1.49e+00	0	28	104	1487929344	86	23548
2026-01-15 09:42:55.08	334.97	2.21	-60.4	-76.4	3.8	1.49e+00	0	28	104	1487929344	86	23554
2026-01-15 09:42:59.12	334.97	1.95	-60.3	-76.4	3.8	1.49e+00	0	28	104	1487929344	86	23473

#Closed at: 2026-01-15 09:42:59
#Recorded file [1487 MB]: D:/lorett/data/31004_260115_122832.dat