passes_logs/2026/01/15/R3.2S_Murmansk/R3.2S_Murmansk__20260115_131428_NOAA_20_JPSS-1_rec.log

#Pass ID: 20260115_131428_NOAA 20 (JPSS-1)
#Satellite: NOAA 20 (JPSS-1)
#Configuration: NOAA 20
#almurnet v.1.7.20251203
#Start time: 2026-01-15 13:14:29

#Version: 2.2.20231116
#Station: R3.2S_Murmansk
#Location: 33.079688 lon 68.888172 lat
#TLE: 1 43013U 17073A   26014.55467351  .00000038  00000+0  38801-4 0  9992
#TLE: 2 43013  98.7635 315.4987 0001517  39.9279 320.2008 14.19535859422677

#Time	Az	El	Level	Level2	SNR	BER	BlckErr	Temp	State	Recorded	gain1	gain2
2026-01-15 13:14:29.86	250.03	2.05	-59.0	-75.0	3.8	1.49e+00	0	26	0	0	84	22484
2026-01-15 13:14:32.87	250.35	2.18	-58.8	-74.8	3.8	1.49e+00	0	26	104	0	82	24666
2026-01-15 13:14:35.88	250.67	2.30	-58.8	-74.8	3.8	1.49e+00	0	26	104	0	82	24653
2026-01-15 13:14:38.87	250.98	2.43	-58.8	-74.8	3.8	1.49e+00	0	26	104	0	82	24649
2026-01-15 13:14:41.87	251.31	2.55	-58.8	-74.9	3.8	1.49e+00	0	26	104	0	82	24695
2026-01-15 13:14:44.86	251.63	2.68	-58.8	-74.8	3.8	1.49e+00	0	26	104	0	82	24648
2026-01-15 13:14:47.85	251.96	2.80	-58.8	-74.8	3.8	1.49e+00	0	26	104	0	82	24554
2026-01-15 13:14:50.85	252.29	2.92	-58.8	-74.8	3.8	1.49e+00	0	26	104	0	82	24636
2026-01-15 13:14:53.86	252.63	3.05	-58.8	-74.8	3.8	1.49e+00	0	27	104	0	82	24527
2026-01-15 13:14:56.86	252.96	3.17	-58.8	-74.8	3.8	1.49e+00	0	27	104	0	82	24548
2026-01-15 13:14:59.86	253.30	3.29	-58.8	-74.8	3.8	1.49e+00	0	27	104	0	82	24476
2026-01-15 13:15:02.85	253.64	3.41	-58.8	-74.8	3.8	1.49e+00	0	27	104	0	82	24461
2026-01-15 13:15:05.85	253.99	3.54	-58.8	-74.8	3.8	1.49e+00	0	27	104	0	82	24450
2026-01-15 13:15:08.84	254.33	3.66	-58.8	-74.8	3.8	1.49e+00	0	27	104	0	82	24453
2026-01-15 13:15:11.83	254.68	3.78	-58.8	-74.8	3.8	1.49e+00	0	27	104	0	82	24519
2026-01-15 13:15:14.82	255.03	3.90	-58.8	-74.8	3.8	1.49e+00	0	27	104	0	82	24459
2026-01-15 13:15:17.83	255.39	4.02	-58.8	-74.8	3.8	1.49e+00	0	27	104	0	82	24637
2026-01-15 13:15:20.81	255.75	4.14	-58.8	-74.8	3.8	1.49e+00	0	27	104	0	82	24611
2026-01-15 13:15:23.79	256.10	4.26	-58.8	-74.8	3.8	1.49e+00	0	27	104	0	82	24424
2026-01-15 13:15:26.80	256.47	4.38	-58.8	-74.8	3.8	1.49e+00	0	27	104	0	82	24442
2026-01-15 13:15:29.79	256.84	4.50	-58.8	-74.5	3.8	1.49e+00	0	27	104	0	82	23694
2026-01-15 13:15:32.80	257.21	4.62	-58.8	-74.6	3.8	1.49e+00	0	27	104	0	82	23941
2026-01-15 13:15:35.80	257.58	4.74	-58.5	-69.4	4.9	1.01e+00	0	27	0	1048576	82	13177
2026-01-15 13:15:38.80	257.96	4.86	-58.0	-65.4	7.5	9.84e-02	0	27	0	6291456	82	8323
2026-01-15 13:15:41.78	258.33	4.97	-56.4	-60.7	11.4	2.59e-05	0	27	0	11534336	79	5723
2026-01-15 13:15:44.77	258.71	5.09	-57.4	-63.4	9.3	1.24e-03	0	27	0	17825792	79	7811
2026-01-15 13:15:47.77	259.10	5.21	-57.5	-63.5	9.5	2.89e-05	0	27	0	23068672	80	7464
2026-01-15 13:15:50.77	259.48	5.32	-54.9	-57.8	13.0	0.00e+00	0	27	0	29360128	76	4924
2026-01-15 13:15:53.78	259.87	5.44	-54.9	-57.8	13.1	0.00e+00	0	27	0	34603008	76	4914
2026-01-15 13:15:56.79	260.27	5.55	-54.7	-57.5	13.3	0.00e+00	0	27	0	39845888	76	4754
2026-01-15 13:15:59.77	260.66	5.67	-54.7	-57.5	13.2	0.00e+00	0	27	0	46137344	75	5016
2026-01-15 13:16:02.77	261.06	5.78	-54.6	-57.4	13.3	0.00e+00	0	28	0	51380224	75	4956
2026-01-15 13:16:05.76	261.46	5.89	-54.8	-57.6	13.1	0.00e+00	0	27	0	56623104	75	5097
2026-01-15 13:16:08.74	261.86	6.01	-54.8	-57.6	13.1	0.00e+00	0	28	0	62914560	75	5092
2026-01-15 13:16:11.73	262.27	6.12	-54.6	-57.4	13.3	0.00e+00	0	27	0	68157440	75	4947
2026-01-15 13:16:14.74	262.68	6.23	-54.8	-57.7	13.1	0.00e+00	0	28	0	73400320	75	5106
2026-01-15 13:16:17.73	263.10	6.34	-54.8	-57.7	13.1	0.00e+00	0	27	0	79691776	75	5155
2026-01-15 13:16:20.73	263.51	6.45	-55.1	-58.2	12.8	0.00e+00	0	28	0	84934656	75	5415
2026-01-15 13:16:23.74	263.93	6.56	-54.9	-57.8	13.0	0.00e+00	0	28	0	90177536	75	5167
2026-01-15 13:16:26.75	264.36	6.66	-54.9	-57.8	13.0	0.00e+00	0	28	0	96468992	75	5200
2026-01-15 13:16:29.76	264.79	6.77	-54.8	-57.7	13.1	0.00e+00	0	28	0	101711872	75	5135
2026-01-15 13:16:32.77	265.22	6.88	-54.9	-57.8	13.0	0.00e+00	0	27	0	108003328	75	5200
2026-01-15 13:16:35.76	265.65	6.98	-54.8	-57.7	13.1	0.00e+00	0	28	0	113246208	75	5103
2026-01-15 13:16:38.76	266.08	7.08	-55.0	-58.0	12.9	0.00e+00	0	28	0	118489088	75	5285
2026-01-15 13:16:41.76	266.52	7.19	-54.6	-57.4	13.2	0.00e+00	0	28	0	124780544	75	4979
2026-01-15 13:16:44.78	266.96	7.29	-54.5	-57.2	13.3	0.00e+00	0	28	0	130023424	75	4844
2026-01-15 13:16:47.77	267.41	7.39	-55.0	-58.1	12.7	0.00e+00	0	28	0	135266304	75	5396
2026-01-15 13:16:50.77	267.85	7.49	-56.1	-60.5	11.1	5.18e-05	0	28	0	141557760	77	6342
2026-01-15 13:16:53.77	268.30	7.59	-56.7	-62.5	9.3	4.20e-03	0	28	0	146800640	78	7507
2026-01-15 13:16:56.75	268.75	7.69	-56.9	-63.9	8.1	2.22e-02	0	28	0	152043520	79	8275
2026-01-15 13:16:59.75	269.21	7.78	-57.1	-64.9	7.1	8.60e-02	0	28	0	158334976	79	9386
2026-01-15 13:17:02.73	269.66	7.88	-57.0	-64.3	7.8	5.32e-02	0	28	0	163577856	79	8689
2026-01-15 13:17:05.72	270.12	7.97	-58.0	-68.7	5.2	1.67e-03	0	28	0	169869312	81	12879
2026-01-15 13:17:08.72	270.59	8.06	-55.7	-59.3	12.2	3.00e-06	0	28	0	173015040	78	5194
2026-01-15 13:17:11.69	271.05	8.15	-55.3	-58.4	12.9	0.00e+00	0	28	0	179306496	77	4946
2026-01-15 13:17:14.69	271.52	8.25	-54.8	-57.5	13.4	0.00e+00	0	28	0	184549376	76	4707
2026-01-15 13:17:17.69	271.99	8.33	-54.8	-57.5	13.2	0.00e+00	0	28	0	189792256	75	5003
2026-01-15 13:17:20.69	272.47	8.42	-54.9	-57.7	13.2	0.00e+00	0	28	0	196083712	75	5106
2026-01-15 13:17:23.68	272.94	8.51	-55.1	-58.0	13.0	0.00e+00	0	28	0	201326592	75	5281
2026-01-15 13:17:26.68	273.42	8.59	-55.1	-58.0	13.0	0.00e+00	0	28	0	206569472	75	5315
2026-01-15 13:17:29.68	273.91	8.68	-55.0	-57.9	13.1	0.00e+00	0	28	0	212860928	75	5238
2026-01-15 13:17:32.66	274.39	8.76	-54.9	-57.7	13.2	0.00e+00	0	28	0	218103808	75	5145
2026-01-15 13:17:35.66	274.88	8.84	-55.0	-57.8	13.2	0.00e+00	0	28	0	223346688	75	5170
2026-01-15 13:17:38.66	275.37	8.92	-54.9	-57.6	13.2	0.00e+00	0	28	0	229638144	75	5072
2026-01-15 13:17:41.65	275.86	8.99	-55.0	-57.8	13.2	0.00e+00	0	28	0	234881024	75	5181
2026-01-15 13:17:44.65	276.36	9.07	-55.0	-57.8	13.1	0.00e+00	0	28	0	241172480	75	5201
2026-01-15 13:17:47.65	276.86	9.14	-55.3	-58.3	12.9	0.00e+00	0	28	0	246415360	75	5465
2026-01-15 13:17:50.63	277.35	9.21	-55.2	-58.1	12.9	0.00e+00	0	28	0	251658240	75	5402
2026-01-15 13:17:53.63	277.86	9.28	-54.9	-57.7	13.2	0.00e+00	0	28	0	257949696	75	5136
2026-01-15 13:17:56.63	278.36	9.35	-54.8	-57.5	13.3	0.00e+00	0	28	0	263192576	75	5009
2026-01-15 13:17:59.61	278.87	9.42	-54.8	-57.5	13.3	0.00e+00	0	28	0	268435456	75	5040
2026-01-15 13:18:02.61	279.38	9.49	-54.7	-57.4	13.4	0.00e+00	0	28	0	274726912	75	4942
2026-01-15 13:18:05.61	279.89	9.55	-54.8	-57.5	13.3	0.00e+00	0	28	0	279969792	75	4994
2026-01-15 13:18:08.59	280.40	9.61	-54.9	-57.7	13.3	0.00e+00	0	28	0	285212672	75	5119
2026-01-15 13:18:11.58	280.91	9.67	-54.8	-57.5	13.3	0.00e+00	0	28	0	291504128	75	5013
2026-01-15 13:18:14.58	281.43	9.73	-54.8	-57.4	13.4	0.00e+00	0	28	0	296747008	75	4955
2026-01-15 13:18:17.57	281.95	9.78	-54.7	-57.4	13.4	0.00e+00	0	28	0	301989888	75	4928
2026-01-15 13:18:20.56	282.47	9.84	-54.6	-57.2	13.5	0.00e+00	0	28	0	308281344	75	4840
2026-01-15 13:18:23.56	283.00	9.89	-54.8	-57.4	13.5	0.00e+00	0	28	0	313524224	75	4930
2026-01-15 13:18:26.56	283.52	9.94	-54.8	-57.4	13.4	0.00e+00	0	28	0	318767104	75	4948
2026-01-15 13:18:29.56	284.05	9.99	-55.0	-57.7	13.3	0.00e+00	0	28	0	325058560	75	5109
2026-01-15 13:18:32.55	284.58	10.03	-55.0	-57.6	13.3	0.00e+00	0	28	0	330301440	75	5091
2026-01-15 13:18:35.55	285.11	10.08	-55.1	-57.8	13.2	0.00e+00	0	28	0	336592896	75	5210
2026-01-15 13:18:38.54	285.64	10.12	-55.1	-57.9	13.2	0.00e+00	0	28	0	341835776	75	5240
2026-01-15 13:18:41.53	286.17	10.16	-55.2	-58.1	13.1	0.00e+00	0	28	0	347078656	75	5356
2026-01-15 13:18:44.52	286.70	10.20	-55.7	-58.8	12.8	0.00e+00	0	28	0	353370112	76	5474
2026-01-15 13:18:47.51	287.24	10.23	-55.6	-58.6	12.9	0.00e+00	0	28	0	358612992	76	5387
2026-01-15 13:18:50.50	287.77	10.27	-55.8	-58.9	12.7	0.00e+00	0	28	0	363855872	76	5536
2026-01-15 13:18:53.51	288.31	10.30	-56.1	-59.4	12.5	0.00e+00	0	28	0	370147328	77	5553
2026-01-15 13:18:56.50	288.85	10.33	-56.2	-59.5	12.4	0.00e+00	0	28	0	375390208	77	5629
2026-01-15 13:18:59.50	289.39	10.35	-56.0	-59.3	12.6	0.00e+00	0	28	0	380633088	77	5470
2026-01-15 13:19:02.50	289.93	10.38	-55.7	-58.7	12.9	0.00e+00	0	28	0	386924544	77	5153
2026-01-15 13:19:05.50	290.47	10.40	-55.8	-58.8	12.9	0.00e+00	0	28	0	392167424	77	5166
2026-01-15 13:19:08.50	291.02	10.42	-55.7	-58.7	13.0	0.00e+00	0	28	0	397410304	77	5114
2026-01-15 13:19:11.48	291.56	10.44	-55.7	-58.7	13.0	0.00e+00	0	28	0	403701760	77	5103
2026-01-15 13:19:14.47	292.10	10.45	-55.7	-58.7	13.0	0.00e+00	0	28	0	408944640	77	5101
2026-01-15 13:19:17.49	292.65	10.47	-55.5	-58.3	13.2	0.00e+00	0	28	0	415236096	77	4909
2026-01-15 13:19:20.49	293.19	10.48	-55.5	-58.3	13.2	0.00e+00	0	28	0	420478976	77	4895
2026-01-15 13:19:23.49	293.74	10.49	-55.6	-58.5	13.2	0.00e+00	0	28	0	425721856	77	4998
2026-01-15 13:19:26.49	294.28	10.49	-55.3	-58.0	13.4	0.00e+00	0	28	0	432013312	77	4753
2026-01-15 13:19:29.51	294.83	10.50	-55.3	-58.1	13.4	0.00e+00	0	28	0	437256192	77	4761
2026-01-15 13:19:32.51	295.38	10.50	-55.5	-58.3	13.3	0.00e+00	0	28	0	442499072	77	4898
2026-01-15 13:19:35.52	295.92	10.50	-55.4	-58.1	13.3	0.00e+00	0	28	0	448790528	77	4807
2026-01-15 13:19:38.51	296.47	10.50	-54.9	-57.5	13.6	0.00e+00	0	28	0	454033408	76	4723
2026-01-15 13:19:41.51	297.01	10.49	-54.8	-57.3	13.7	0.00e+00	0	28	0	459276288	76	4613
2026-01-15 13:19:44.52	297.56	10.49	-54.8	-57.2	13.7	0.00e+00	0	28	0	465567744	76	4584
2026-01-15 13:19:47.52	298.11	10.48	-54.7	-57.1	13.6	0.00e+00	0	28	0	470810624	75	4802
2026-01-15 13:19:50.51	298.65	10.46	-54.6	-57.0	13.7	0.00e+00	0	28	0	477102080	75	4749
2026-01-15 13:19:53.52	299.20	10.45	-54.5	-56.9	13.8	0.00e+00	0	28	0	482344960	75	4666
2026-01-15 13:19:56.53	299.74	10.43	-54.2	-56.5	13.9	0.00e+00	0	28	0	487587840	74	4707
2026-01-15 13:19:59.54	300.29	10.42	-54.3	-56.6	13.8	0.00e+00	0	28	0	493879296	74	4797
2026-01-15 13:20:02.54	300.83	10.40	-54.3	-56.7	13.8	0.00e+00	0	28	0	499122176	74	4828
2026-01-15 13:20:05.55	301.37	10.37	-54.3	-56.6	13.8	0.00e+00	0	28	0	504365056	74	4772
2026-01-15 13:20:08.55	301.91	10.35	-54.3	-56.6	13.8	0.00e+00	0	28	0	510656512	74	4795
2026-01-15 13:20:11.55	302.45	10.32	-54.1	-56.3	14.0	0.00e+00	0	28	0	515899392	74	4636
2026-01-15 13:20:14.56	302.99	10.29	-54.2	-56.5	13.9	0.00e+00	0	28	0	522190848	74	4708
2026-01-15 13:20:17.55	303.53	10.26	-54.4	-56.7	13.7	0.00e+00	0	28	0	527433728	74	4854
2026-01-15 13:20:20.55	304.06	10.23	-54.4	-56.8	13.7	0.00e+00	0	28	0	532676608	74	4885
2026-01-15 13:20:23.56	304.60	10.19	-54.2	-56.4	13.9	0.00e+00	0	28	0	538968064	74	4695
2026-01-15 13:20:26.57	305.13	10.15	-54.2	-56.5	13.9	0.00e+00	0	28	0	544210944	74	4711
2026-01-15 13:20:29.57	305.67	10.11	-54.3	-56.6	13.8	0.00e+00	0	28	0	549453824	74	4787
2026-01-15 13:20:32.59	306.20	10.07	-54.5	-56.9	13.6	0.00e+00	0	28	0	555745280	74	4976
2026-01-15 13:20:35.61	306.73	10.02	-54.5	-57.0	13.6	0.00e+00	0	28	0	560988160	74	4992
2026-01-15 13:20:38.62	307.26	9.98	-54.6	-57.1	13.5	0.00e+00	0	28	0	567279616	74	5066
2026-01-15 13:20:41.63	307.79	9.93	-54.7	-57.3	13.4	0.00e+00	0	28	0	572522496	74	5176
2026-01-15 13:20:44.63	308.32	9.88	-54.4	-56.9	13.6	0.00e+00	0	28	0	577765376	74	4932
2026-01-15 13:20:47.65	308.84	9.83	-54.2	-56.6	13.8	0.00e+00	0	28	0	584056832	74	4770
2026-01-15 13:20:50.66	309.36	9.77	-54.2	-56.5	13.8	0.00e+00	0	28	0	589299712	74	4751
2026-01-15 13:20:53.68	309.89	9.71	-54.3	-56.7	13.7	0.00e+00	0	28	0	595591168	74	4827
2026-01-15 13:20:56.69	310.40	9.66	-54.4	-56.8	13.7	0.00e+00	0	28	0	600834048	74	4901
2026-01-15 13:20:59.70	310.92	9.60	-54.3	-56.6	13.8	0.00e+00	0	28	0	606076928	74	4812
2026-01-15 13:21:02.70	311.43	9.53	-54.1	-56.4	13.8	0.00e+00	0	28	0	612368384	74	4668
2026-01-15 13:21:05.69	311.94	9.47	-53.8	-56.0	14.1	0.00e+00	0	28	0	617611264	74	4463
2026-01-15 13:21:08.69	312.45	9.40	-54.0	-56.3	13.9	0.00e+00	0	28	0	622854144	74	4632
2026-01-15 13:21:11.70	312.96	9.34	-53.8	-56.0	14.0	0.00e+00	0	28	0	629145600	74	4483
2026-01-15 13:21:14.70	313.46	9.27	-54.1	-56.4	13.9	0.00e+00	0	28	0	634388480	74	4656
2026-01-15 13:21:17.69	313.96	9.20	-54.1	-56.4	13.8	0.00e+00	0	28	0	639631360	74	4701
2026-01-15 13:21:20.68	314.46	9.13	-54.2	-56.6	13.7	0.00e+00	0	28	0	645922816	74	4783
2026-01-15 13:21:23.68	314.95	9.05	-54.2	-56.6	13.7	0.00e+00	0	28	0	651165696	74	4792
2026-01-15 13:21:26.68	315.45	8.98	-54.4	-56.8	13.6	0.00e+00	0	28	0	657457152	74	4909
2026-01-15 13:21:29.66	315.93	8.90	-54.1	-56.5	13.8	0.00e+00	0	28	0	662700032	74	4711
2026-01-15 13:21:32.64	316.42	8.82	-53.9	-56.2	13.9	0.00e+00	0	28	0	667942912	74	4573
2026-01-15 13:21:35.63	316.90	8.74	-54.0	-56.2	13.9	0.00e+00	0	28	0	674234368	74	4588
2026-01-15 13:21:38.61	317.38	8.66	-54.4	-56.9	13.5	0.00e+00	0	28	0	679477248	74	4959
2026-01-15 13:21:41.59	317.86	8.58	-54.6	-57.2	13.4	0.00e+00	0	28	0	684720128	74	5142
2026-01-15 13:21:44.58	318.34	8.49	-54.7	-57.3	13.4	0.00e+00	0	28	0	691011584	75	4877
2026-01-15 13:21:47.58	318.81	8.41	-54.6	-57.1	13.5	0.00e+00	0	28	0	696254464	75	4812
2026-01-15 13:21:50.56	319.28	8.32	-54.5	-57.0	13.6	0.00e+00	0	28	0	701497344	75	4742
2026-01-15 13:21:53.56	319.75	8.23	-54.6	-57.2	13.5	0.00e+00	0	28	0	707788800	75	4833
2026-01-15 13:21:56.55	320.22	8.14	-54.7	-57.3	13.4	0.00e+00	0	28	0	713031680	75	4924
2026-01-15 13:21:59.54	320.68	8.05	-55.1	-57.9	13.1	0.00e+00	0	28	0	718274560	75	5279
2026-01-15 13:22:02.53	321.14	7.96	-55.3	-58.3	12.9	0.00e+00	0	28	0	724566016	75	5473
2026-01-15 13:22:05.51	321.60	7.87	-55.8	-59.0	12.5	0.00e+00	0	28	0	729808896	76	5650
2026-01-15 13:22:08.49	322.05	7.77	-55.7	-59.0	12.5	0.00e+00	0	28	0	735051776	76	5626
2026-01-15 13:22:11.48	322.50	7.68	-55.9	-59.3	12.3	0.00e+00	0	28	0	741343232	77	5492
2026-01-15 13:22:14.48	322.95	7.58	-55.7	-58.9	12.5	0.00e+00	0	28	0	746586112	77	5278
2026-01-15 13:22:17.47	323.40	7.48	-55.6	-58.8	12.7	0.00e+00	0	28	0	751828992	77	5177
2026-01-15 13:22:20.47	323.84	7.38	-55.7	-59.0	12.5	0.00e+00	0	28	0	758120448	77	5281
2026-01-15 13:22:23.45	324.28	7.28	-55.8	-59.1	12.4	7.00e-07	0	28	0	763363328	77	5373
2026-01-15 13:22:26.43	324.72	7.18	-56.1	-59.8	12.0	1.50e-06	0	28	0	768606208	77	5822
2026-01-15 13:22:29.42	325.15	7.08	-56.4	-60.3	11.6	1.37e-05	0	28	0	774897664	78	5855
2026-01-15 13:22:32.40	325.58	6.98	-56.7	-61.1	11.1	5.56e-05	0	28	0	780140544	78	6382
2026-01-15 13:22:35.40	326.01	6.87	-56.5	-60.7	11.3	3.12e-05	0	28	0	785383424	78	6092
2026-01-15 13:22:38.39	326.44	6.77	-56.5	-60.6	11.4	1.29e-05	0	28	0	791674880	78	6033
2026-01-15 13:22:41.38	326.86	6.66	-56.3	-60.2	11.8	5.30e-06	0	28	0	796917760	78	5739
2026-01-15 13:22:44.37	327.28	6.55	-56.2	-60.0	11.8	2.20e-06	0	28	0	803209216	78	5647
2026-01-15 13:22:47.36	327.70	6.45	-56.3	-60.3	11.6	3.80e-06	0	28	0	808452096	78	5846
2026-01-15 13:22:50.34	328.11	6.34	-56.5	-60.6	11.4	2.59e-05	0	28	0	813694976	78	6023
2026-01-15 13:22:53.32	328.52	6.23	-56.3	-60.3	11.6	1.50e-06	0	28	0	819986432	78	5843
2026-01-15 13:22:56.31	328.93	6.12	-56.1	-59.9	11.9	2.20e-06	0	28	0	825229312	78	5585
2026-01-15 13:22:59.30	329.33	6.01	-55.7	-59.2	12.3	0.00e+00	0	28	0	830472192	77	5411
2026-01-15 13:23:02.31	329.73	5.90	-56.1	-59.9	11.7	7.00e-07	0	28	0	836763648	77	5917
2026-01-15 13:23:05.31	330.13	5.79	-56.1	-59.9	11.9	3.35e-05	0	28	0	842006528	78	5530
2026-01-15 13:23:08.31	330.53	5.67	-56.4	-60.6	11.4	3.58e-05	0	28	0	847249408	78	5995
2026-01-15 13:23:11.31	330.93	5.56	-56.0	-59.7	12.0	7.00e-07	0	28	0	853540864	78	5423
2026-01-15 13:23:14.29	331.31	5.45	-55.6	-59.0	12.3	0.00e+00	0	28	0	858783744	77	5338
2026-01-15 13:23:17.30	331.70	5.33	-55.5	-58.9	12.4	0.00e+00	0	28	0	864026624	77	5247
2026-01-15 13:23:20.29	332.09	5.22	-55.4	-58.8	12.6	7.00e-07	0	28	0	870318080	77	5173
2026-01-15 13:23:23.27	332.47	5.10	-55.6	-59.1	12.3	0.00e+00	0	28	0	875560960	77	5370
2026-01-15 13:23:26.27	332.85	4.99	-59.1	-74.5	3.8	7.69e-01	0	28	104	880803840	83	22411
2026-01-15 13:23:29.27	333.22	4.87	-60.0	-76.1	3.8	1.49e+00	0	28	104	880803840	85	24013
2026-01-15 13:23:32.27	333.60	4.75	-60.4	-76.4	3.8	1.49e+00	0	28	104	880803840	85	24962
2026-01-15 13:23:35.27	333.97	4.63	-60.6	-76.7	3.8	1.49e+00	0	28	104	880803840	86	24198
2026-01-15 13:23:38.28	334.34	4.52	-60.7	-76.8	3.8	1.49e+00	0	28	104	880803840	86	24425
2026-01-15 13:23:41.27	334.70	4.40	-60.7	-76.8	3.8	1.49e+00	0	28	104	880803840	86	24423
2026-01-15 13:23:44.27	335.07	4.28	-60.7	-76.8	3.8	1.49e+00	0	28	104	880803840	86	24569
2026-01-15 13:23:47.26	335.42	4.16	-60.6	-76.8	3.8	1.49e+00	0	28	104	880803840	86	24447
2026-01-15 13:23:50.25	335.78	4.04	-60.6	-76.7	3.9	1.49e+00	0	28	104	880803840	86	24242
2026-01-15 13:23:53.25	336.13	3.92	-60.5	-76.6	3.8	1.49e+00	0	28	104	880803840	86	24123
2026-01-15 13:23:56.25	336.49	3.80	-60.5	-76.6	3.8	1.49e+00	0	28	104	880803840	86	23959
2026-01-15 13:23:59.25	336.83	3.68	-60.5	-76.6	3.8	1.49e+00	0	28	104	880803840	86	24074
2026-01-15 13:24:02.24	337.18	3.56	-60.5	-76.6	3.8	1.49e+00	0	28	104	880803840	86	23937
2026-01-15 13:24:05.23	337.52	3.44	-60.5	-76.6	3.8	1.49e+00	0	28	104	880803840	86	23915
2026-01-15 13:24:08.22	337.86	3.32	-60.5	-76.5	3.8	1.49e+00	0	28	104	880803840	86	23854
2026-01-15 13:24:11.21	338.20	3.20	-60.4	-76.5	3.8	1.49e+00	0	28	104	880803840	86	23795
2026-01-15 13:24:14.19	338.53	3.08	-60.4	-76.5	3.8	1.49e+00	0	28	104	880803840	86	23790
2026-01-15 13:24:17.19	338.86	2.95	-60.4	-76.5	3.8	1.49e+00	0	28	104	880803840	86	23783
2026-01-15 13:24:20.18	339.19	2.83	-60.4	-76.5	3.8	1.49e+00	0	28	104	880803840	86	23808
2026-01-15 13:24:23.17	339.52	2.71	-60.4	-76.5	3.8	1.49e+00	0	28	104	880803840	86	23772
2026-01-15 13:24:26.17	339.84	2.59	-60.4	-76.5	3.8	1.49e+00	0	28	104	880803840	86	23748
2026-01-15 13:24:29.15	340.16	2.46	-60.4	-76.5	3.8	1.49e+00	0	28	104	880803840	86	23717
2026-01-15 13:24:32.16	340.48	2.34	-60.4	-76.5	3.8	1.49e+00	0	28	104	880803840	86	23657
2026-01-15 13:24:35.16	340.80	2.22	-60.4	-76.5	3.8	1.49e+00	0	28	104	880803840	86	23632
2026-01-15 13:24:38.17	341.12	2.09	-60.4	-76.5	3.8	1.49e+00	0	28	104	880803840	86	23631

#Closed at: 2026-01-15 13:24:41
#Recorded file [880 MB]: D:/lorett/data/31004_260115_161429.dat