passes_logs/2026/01/15/R3.2S_Murmansk/R3.2S_Murmansk__20260115_213140_SUOMI_NPP_rec.log

#Pass ID: 20260115_213140_SUOMI NPP
#Satellite: SUOMI NPP
#Configuration: NPP
#almurnet v.1.7.20251203
#Start time: 2026-01-15 21:31:42

#Version: 2.2.20231116
#Station: R3.2S_Murmansk
#Location: 33.079688 lon 68.888172 lat
#TLE: 1 37849U 11061A   26015.52691075  .00000052  00000+0  45753-4 0  9993
#TLE: 2 37849  98.7811 317.5709 0002448  62.7632 297.3794 14.19525354736784

#Time	Az	El	Level	Level2	SNR	BER	BlckErr	Temp	State	Recorded	gain1	gain2
2026-01-15 21:31:42.20	18.63	2.09	-56.4	-71.2	3.8	1.49e+00	0	41	0	0	84	19746
2026-01-15 21:31:45.21	18.92	2.23	-56.2	-71.2	3.8	1.49e+00	0	41	104	0	83	20814
2026-01-15 21:31:48.24	19.21	2.37	-56.3	-71.2	3.8	1.49e+00	0	41	104	0	83	20924
2026-01-15 21:31:51.27	19.50	2.51	-56.3	-71.2	3.8	1.49e+00	0	41	104	0	83	20885
2026-01-15 21:31:54.30	19.80	2.65	-56.3	-71.2	3.8	1.49e+00	0	41	104	0	83	20859
2026-01-15 21:31:57.33	20.09	2.79	-56.3	-71.2	3.8	1.49e+00	0	41	104	0	83	20939
2026-01-15 21:32:00.36	20.39	2.93	-56.3	-71.2	3.8	1.49e+00	0	42	104	0	83	20888
2026-01-15 21:32:03.39	20.70	3.08	-56.3	-71.2	3.8	1.49e+00	0	42	104	0	83	20859
2026-01-15 21:32:06.42	21.00	3.22	-56.3	-71.1	3.8	1.49e+00	0	42	104	0	83	20621
2026-01-15 21:32:09.45	21.31	3.36	-56.3	-71.1	3.8	1.49e+00	0	42	104	0	83	20634
2026-01-15 21:32:12.48	21.62	3.50	-56.3	-71.2	3.8	1.49e+00	0	42	104	0	83	20918
2026-01-15 21:32:15.51	21.94	3.64	-56.2	-71.2	3.8	1.49e+00	0	42	104	0	83	20861
2026-01-15 21:32:18.54	22.25	3.78	-56.2	-71.2	3.8	1.49e+00	0	43	104	0	83	20924
2026-01-15 21:32:21.57	22.57	3.92	-56.3	-71.1	3.8	1.49e+00	0	43	104	0	83	20693
2026-01-15 21:32:24.60	22.90	4.06	-56.2	-71.0	3.8	1.49e+00	0	43	104	0	83	20509
2026-01-15 21:32:27.63	23.22	4.21	-56.2	-71.1	3.8	1.49e+00	0	43	104	0	83	20640
2026-01-15 21:32:30.66	23.55	4.35	-56.2	-70.9	3.8	1.49e+00	0	43	104	0	83	20109
2026-01-15 21:32:33.69	23.88	4.49	-56.2	-71.0	3.8	1.49e+00	0	43	104	0	83	20491
2026-01-15 21:32:36.72	24.22	4.63	-55.9	-66.0	4.8	1.20e+00	0	43	0	0	83	11437
2026-01-15 21:32:39.75	24.56	4.77	-55.4	-62.7	7.2	1.67e-01	0	43	0	6291456	82	8325
2026-01-15 21:32:42.78	24.90	4.91	-55.0	-61.0	9.0	1.72e-02	0	44	0	11534336	81	7207
2026-01-15 21:32:45.81	25.24	5.05	-55.5	-62.8	7.3	4.72e-02	0	44	0	17825792	81	8913
2026-01-15 21:32:48.83	25.59	5.20	-52.8	-55.4	15.1	7.60e-06	0	44	0	22020096	77	4791
2026-01-15 21:32:51.86	25.94	5.34	-52.5	-55.0	15.5	0.00e+00	0	44	0	28311552	77	4591
2026-01-15 21:32:54.89	26.29	5.48	-52.3	-54.7	15.9	0.00e+00	0	44	0	33554432	76	4655
2026-01-15 21:32:57.91	26.65	5.62	-52.4	-54.9	15.7	0.00e+00	0	44	0	39845888	76	4770
2026-01-15 21:33:00.94	27.01	5.76	-52.4	-54.8	15.9	0.00e+00	0	44	0	45088768	76	4746
2026-01-15 21:33:03.97	27.38	5.90	-52.3	-54.6	16.0	0.00e+00	0	44	0	50331648	76	4624
2026-01-15 21:33:07.00	27.74	6.04	-52.3	-54.6	16.1	0.00e+00	0	44	0	56623104	75	4905
2026-01-15 21:33:10.03	28.11	6.18	-51.7	-53.8	17.0	0.00e+00	0	44	0	61865984	74	4720
2026-01-15 21:33:13.05	28.49	6.32	-51.6	-53.5	17.2	0.00e+00	0	45	0	68157440	74	4594
2026-01-15 21:33:16.08	28.87	6.46	-51.1	-53.0	17.7	0.00e+00	0	44	0	73400320	74	4295
2026-01-15 21:33:19.11	29.25	6.60	-51.8	-53.9	16.9	0.00e+00	0	44	0	79691776	74	4793
2026-01-15 21:33:22.14	29.63	6.74	-51.6	-53.6	17.1	0.00e+00	0	45	0	84934656	74	4615
2026-01-15 21:33:25.17	30.02	6.88	-51.5	-53.5	17.3	0.00e+00	0	45	0	90177536	74	4553
2026-01-15 21:33:28.20	30.41	7.01	-51.9	-54.0	16.7	0.00e+00	0	45	0	96468992	74	4868
2026-01-15 21:33:31.23	30.81	7.15	-51.4	-53.3	17.5	0.00e+00	0	45	0	101711872	74	4483
2026-01-15 21:33:34.26	31.21	7.29	-51.6	-53.6	17.3	0.00e+00	0	45	0	108003328	74	4617
2026-01-15 21:33:37.28	31.61	7.43	-51.8	-53.8	17.0	0.00e+00	0	45	0	113246208	74	4727
2026-01-15 21:33:40.31	32.01	7.56	-51.9	-54.0	16.9	0.00e+00	0	45	0	118489088	74	4845
2026-01-15 21:33:43.33	32.42	7.70	-51.9	-54.0	17.0	0.00e+00	0	45	0	124780544	74	4828
2026-01-15 21:33:46.36	32.84	7.83	-52.2	-54.4	16.6	0.00e+00	0	45	0	130023424	74	5046
2026-01-15 21:33:49.39	33.25	7.97	-52.4	-54.6	16.4	0.00e+00	0	45	0	136314880	75	4902
2026-01-15 21:33:52.42	33.67	8.10	-51.9	-53.9	17.0	0.00e+00	0	45	0	141557760	75	4534
2026-01-15 21:33:55.45	34.10	8.24	-51.7	-53.6	17.3	0.00e+00	0	45	0	146800640	75	4377
2026-01-15 21:33:58.48	34.53	8.37	-51.6	-53.5	17.4	0.00e+00	0	45	0	153092096	74	4584
2026-01-15 21:34:01.50	34.96	8.50	-51.9	-53.9	17.1	0.00e+00	0	45	0	158334976	74	4813
2026-01-15 21:34:04.53	35.39	8.64	-51.8	-53.8	17.3	0.00e+00	0	45	0	164626432	74	4729
2026-01-15 21:34:07.56	35.83	8.77	-51.6	-53.5	17.4	0.00e+00	0	46	0	169869312	74	4580
2026-01-15 21:34:10.59	36.28	8.90	-51.8	-53.8	17.2	0.00e+00	0	46	0	175112192	74	4729
2026-01-15 21:34:13.62	36.73	9.03	-51.9	-53.9	17.2	0.00e+00	0	46	0	181403648	74	4764
2026-01-15 21:34:16.65	37.18	9.16	-52.0	-54.0	17.1	0.00e+00	0	46	0	186646528	74	4849
2026-01-15 21:34:19.67	37.63	9.28	-51.6	-53.5	17.5	0.00e+00	0	46	0	192937984	74	4571
2026-01-15 21:34:22.70	38.09	9.41	-51.8	-53.7	17.3	0.00e+00	0	46	0	198180864	74	4687
2026-01-15 21:34:25.73	38.55	9.54	-51.9	-53.9	17.1	0.00e+00	0	46	0	204472320	74	4808
2026-01-15 21:34:28.76	39.02	9.66	-52.3	-54.5	16.6	0.00e+00	0	46	0	209715200	75	4840
2026-01-15 21:34:31.78	39.49	9.79	-52.2	-54.3	16.8	0.00e+00	0	46	0	214958080	75	4736
2026-01-15 21:34:34.81	39.97	9.91	-52.1	-54.1	17.0	0.00e+00	0	46	0	221249536	75	4644
2026-01-15 21:34:37.84	40.44	10.03	-52.1	-54.1	17.0	0.00e+00	0	46	0	226492416	75	4618
2026-01-15 21:34:40.87	40.93	10.15	-52.2	-54.3	16.9	0.00e+00	0	46	0	232783872	75	4713
2026-01-15 21:34:43.90	41.41	10.27	-52.5	-54.7	16.4	0.00e+00	0	46	0	238026752	75	4951
2026-01-15 21:34:46.92	41.90	10.39	-52.2	-54.4	16.8	0.00e+00	0	46	0	244318208	75	4763
2026-01-15 21:34:49.95	42.40	10.51	-52.4	-54.6	16.5	0.00e+00	0	46	0	249561088	75	4898
2026-01-15 21:34:52.98	42.89	10.62	-52.3	-54.5	16.7	0.00e+00	0	46	0	254803968	75	4818
2026-01-15 21:34:56.01	43.40	10.74	-52.6	-54.9	16.4	0.00e+00	0	46	0	261095424	75	5042
2026-01-15 21:34:59.03	43.90	10.85	-52.4	-54.5	16.6	0.00e+00	0	46	0	266338304	75	4870
2026-01-15 21:35:02.06	44.41	10.96	-52.2	-54.3	16.8	0.00e+00	0	46	0	272629760	75	4753
2026-01-15 21:35:05.09	44.92	11.07	-52.3	-54.4	16.7	0.00e+00	0	46	0	277872640	75	4801
2026-01-15 21:35:08.12	45.44	11.18	-52.2	-54.3	16.9	0.00e+00	0	47	0	283115520	75	4745
2026-01-15 21:35:11.15	45.96	11.29	-52.3	-54.4	16.9	0.00e+00	0	46	0	289406976	75	4770
2026-01-15 21:35:14.17	46.48	11.39	-51.9	-53.8	17.3	0.00e+00	0	47	0	294649856	75	4483
2026-01-15 21:35:17.20	47.01	11.50	-52.0	-54.0	17.2	0.00e+00	0	46	0	300941312	75	4558
2026-01-15 21:35:20.23	47.54	11.60	-52.1	-54.1	17.1	0.00e+00	0	47	0	306184192	75	4642
2026-01-15 21:35:23.26	48.08	11.70	-52.2	-54.2	17.0	0.00e+00	0	47	0	311427072	75	4692
2026-01-15 21:35:26.29	48.61	11.80	-52.1	-54.1	17.1	0.00e+00	0	47	0	317718528	75	4625
2026-01-15 21:35:29.32	49.16	11.89	-52.1	-54.1	17.1	0.00e+00	0	47	0	322961408	75	4629
2026-01-15 21:35:32.35	49.70	11.99	-52.1	-54.1	17.1	0.00e+00	0	47	0	329252864	75	4618
2026-01-15 21:35:35.37	50.25	12.08	-51.7	-53.5	17.6	0.00e+00	0	47	0	334495744	75	4337
2026-01-15 21:35:38.40	50.80	12.17	-51.5	-53.2	18.0	0.00e+00	0	47	0	340787200	74	4436
2026-01-15 21:35:41.43	51.36	12.26	-51.5	-53.3	17.9	0.00e+00	0	47	0	346030080	74	4473
2026-01-15 21:35:44.46	51.91	12.35	-51.7	-53.5	17.7	0.00e+00	0	47	0	351272960	74	4585
2026-01-15 21:35:47.49	52.48	12.43	-51.9	-53.8	17.4	0.00e+00	0	47	0	357564416	74	4741
2026-01-15 21:35:50.52	53.04	12.51	-51.4	-53.2	17.9	0.00e+00	0	47	0	362807296	74	4411
2026-01-15 21:35:53.55	53.61	12.59	-51.3	-53.0	18.1	0.00e+00	0	47	0	369098752	74	4321
2026-01-15 21:35:56.57	54.18	12.67	-51.6	-53.4	17.9	0.00e+00	0	47	0	374341632	74	4510
2026-01-15 21:35:59.61	54.75	12.74	-50.9	-52.5	18.6	0.00e+00	0	47	0	380633088	73	4328
2026-01-15 21:36:02.64	55.33	12.82	-50.8	-52.4	18.7	0.00e+00	0	47	0	385875968	73	4278
2026-01-15 21:36:05.67	55.91	12.89	-51.7	-53.6	17.6	0.00e+00	0	47	0	391118848	74	4624
2026-01-15 21:36:08.70	56.49	12.95	-51.5	-53.3	17.9	0.00e+00	0	47	0	397410304	74	4474
2026-01-15 21:36:11.73	57.08	13.02	-51.6	-53.4	17.8	0.00e+00	0	47	0	402653184	74	4544
2026-01-15 21:36:14.76	57.66	13.08	-52.9	-55.3	16.1	0.00e+00	0	47	0	408944640	76	4993
2026-01-15 21:36:17.79	58.25	13.14	-52.8	-55.1	16.2	0.00e+00	0	47	0	414187520	76	4880
2026-01-15 21:36:20.82	58.84	13.20	-52.0	-53.9	17.3	0.00e+00	0	47	0	419430400	75	4529
2026-01-15 21:36:23.85	59.44	13.26	-52.3	-54.5	16.8	0.00e+00	0	47	0	425721856	75	4830
2026-01-15 21:36:26.88	60.04	13.31	-52.3	-54.4	16.9	0.00e+00	0	47	0	430964736	75	4776
2026-01-15 21:36:29.91	60.63	13.36	-51.9	-53.8	17.5	0.00e+00	0	47	0	437256192	75	4453
2026-01-15 21:36:32.94	61.23	13.40	-52.1	-54.1	17.2	0.00e+00	0	47	0	442499072	75	4621
2026-01-15 21:36:35.96	61.83	13.45	-51.9	-53.9	17.4	0.00e+00	0	47	0	447741952	75	4516
2026-01-15 21:36:38.99	62.44	13.49	-51.3	-53.0	18.2	0.00e+00	0	47	0	454033408	74	4305
2026-01-15 21:36:42.02	63.04	13.53	-51.5	-53.3	17.9	0.00e+00	0	47	0	459276288	74	4472
2026-01-15 21:36:45.04	63.65	13.56	-51.6	-53.4	17.8	0.00e+00	0	47	0	465567744	74	4544
2026-01-15 21:36:48.07	64.26	13.60	-51.0	-52.7	18.5	0.00e+00	0	47	0	470810624	74	4150
2026-01-15 21:36:51.10	64.86	13.63	-50.4	-51.9	19.2	0.00e+00	0	47	0	477102080	72	4279
2026-01-15 21:36:54.13	65.48	13.65	-50.8	-52.4	18.8	0.00e+00	0	47	0	482344960	72	4497
2026-01-15 21:36:57.16	66.09	13.68	-50.9	-52.5	18.7	0.00e+00	0	47	0	487587840	72	4589
2026-01-15 21:37:00.19	66.70	13.70	-51.2	-52.9	18.3	0.00e+00	0	47	0	493879296	72	4799
2026-01-15 21:37:03.22	67.31	13.72	-51.3	-53.0	18.3	0.00e+00	0	47	0	499122176	73	4559
2026-01-15 21:37:06.25	67.93	13.73	-50.9	-52.6	18.6	0.00e+00	0	47	0	505413632	73	4346
2026-01-15 21:37:09.28	68.54	13.74	-51.2	-53.0	18.2	0.00e+00	0	47	0	510656512	73	4557
2026-01-15 21:37:12.31	69.16	13.75	-51.3	-53.1	18.1	0.00e+00	0	47	0	516947968	73	4616
2026-01-15 21:37:15.33	69.77	13.76	-51.0	-52.7	18.5	0.00e+00	0	47	0	522190848	73	4421
2026-01-15 21:37:18.36	70.39	13.76	-51.2	-52.9	18.3	0.00e+00	0	47	0	527433728	73	4532
2026-01-15 21:37:21.39	71.00	13.76	-51.1	-52.8	18.4	0.00e+00	0	47	0	533725184	73	4448
2026-01-15 21:37:24.42	71.62	13.76	-50.9	-52.6	18.6	0.00e+00	0	48	0	538968064	73	4344
2026-01-15 21:37:27.45	72.23	13.75	-51.1	-52.8	18.4	0.00e+00	0	47	0	545259520	73	4447
2026-01-15 21:37:30.48	72.85	13.74	-50.8	-52.4	18.8	0.00e+00	0	47	0	550502400	73	4252
2026-01-15 21:37:33.51	73.46	13.73	-50.2	-51.6	19.5	0.00e+00	0	47	0	555745280	72	4136
2026-01-15 21:37:36.54	74.08	13.71	-50.2	-51.6	19.6	0.00e+00	0	47	0	562036736	71	4386
2026-01-15 21:37:39.56	74.69	13.70	-50.3	-51.8	19.4	0.00e+00	0	48	0	567279616	71	4470
2026-01-15 21:37:42.59	75.30	13.68	-50.3	-51.8	19.4	0.00e+00	0	47	0	573571072	71	4471
2026-01-15 21:37:45.62	75.91	13.65	-50.7	-52.3	19.0	0.00e+00	0	47	0	578813952	71	4711
2026-01-15 21:37:48.65	76.52	13.62	-50.9	-52.5	18.7	0.00e+00	0	47	0	584056832	72	4560
2026-01-15 21:37:51.68	77.13	13.59	-50.6	-52.1	19.0	0.00e+00	0	47	0	590348288	72	4388
2026-01-15 21:37:54.70	77.74	13.56	-50.8	-52.4	18.8	0.00e+00	0	47	0	595591168	72	4501
2026-01-15 21:37:57.73	78.35	13.53	-51.0	-52.7	18.5	0.00e+00	0	47	0	601882624	72	4686
2026-01-15 21:38:00.76	78.95	13.49	-50.8	-52.4	18.8	0.00e+00	0	48	0	607125504	72	4499
2026-01-15 21:38:03.79	79.56	13.44	-50.6	-52.1	19.0	0.00e+00	0	48	0	612368384	72	4375
2026-01-15 21:38:06.82	80.16	13.40	-50.4	-51.9	19.2	0.00e+00	0	48	0	618659840	72	4266
2026-01-15 21:38:09.85	80.76	13.35	-50.2	-51.6	19.5	0.00e+00	0	47	0	623902720	72	4125
2026-01-15 21:38:12.88	81.36	13.30	-50.1	-51.5	19.6	0.00e+00	0	48	0	630194176	71	4340
2026-01-15 21:38:15.91	81.96	13.25	-50.0	-51.5	19.6	0.00e+00	0	48	0	635437056	71	4292
2026-01-15 21:38:18.94	82.55	13.20	-49.9	-51.3	19.8	0.00e+00	0	48	0	641728512	71	4227
2026-01-15 21:38:21.96	83.14	13.14	-50.0	-51.4	19.8	0.00e+00	0	48	0	646971392	71	4264
2026-01-15 21:38:24.99	83.73	13.08	-50.3	-51.8	19.4	0.00e+00	0	48	0	652214272	71	4445
2026-01-15 21:38:28.02	84.32	13.01	-50.4	-51.9	19.2	0.00e+00	0	48	0	658505728	71	4538
2026-01-15 21:38:31.05	84.91	12.95	-50.4	-51.9	19.2	0.00e+00	0	48	0	663748608	71	4522
2026-01-15 21:38:34.07	85.49	12.88	-50.2	-51.6	19.5	0.00e+00	0	48	0	670040064	71	4376
2026-01-15 21:38:37.10	86.07	12.81	-50.0	-51.3	19.8	0.00e+00	0	48	0	675282944	71	4240
2026-01-15 21:38:40.13	86.65	12.74	-49.9	-51.3	19.8	0.00e+00	0	48	0	681574400	71	4216
2026-01-15 21:38:43.16	87.22	12.66	-49.6	-51.0	20.1	0.00e+00	0	48	0	686817280	71	4061
2026-01-15 21:38:46.18	87.79	12.58	-49.6	-50.9	20.1	0.00e+00	0	47	0	692060160	71	4045
2026-01-15 21:38:49.21	88.36	12.50	-49.7	-51.0	20.0	0.00e+00	0	48	0	698351616	71	4092
2026-01-15 21:38:52.24	88.93	12.42	-50.0	-51.4	19.7	0.00e+00	0	48	0	703594496	71	4255
2026-01-15 21:38:55.26	89.49	12.33	-50.2	-51.7	19.4	0.00e+00	0	48	0	709885952	71	4410
2026-01-15 21:38:58.29	90.05	12.25	-49.9	-51.3	19.8	0.00e+00	0	48	0	715128832	71	4209
2026-01-15 21:39:01.32	90.60	12.16	-49.9	-51.3	19.7	0.00e+00	0	48	0	720371712	71	4234
2026-01-15 21:39:04.35	91.16	12.07	-50.3	-51.8	19.3	0.00e+00	0	48	0	726663168	71	4485
2026-01-15 21:39:07.38	91.71	11.97	-50.4	-51.9	19.2	0.00e+00	0	48	0	731906048	71	4530
2026-01-15 21:39:10.41	92.25	11.88	-50.5	-52.0	19.0	0.00e+00	0	48	0	738197504	71	4598
2026-01-15 21:39:13.44	92.80	11.78	-50.9	-52.6	18.4	0.00e+00	0	48	0	743440384	72	4624
2026-01-15 21:39:16.47	93.34	11.68	-51.0	-52.7	18.4	0.00e+00	0	48	0	748683264	72	4654
2026-01-15 21:39:19.50	93.87	11.58	-50.8	-52.5	18.5	0.00e+00	0	48	0	754974720	72	4570
2026-01-15 21:39:22.52	94.40	11.48	-51.0	-52.7	18.4	0.00e+00	0	47	0	760217600	72	4661
2026-01-15 21:39:25.55	94.93	11.38	-51.7	-53.7	17.4	0.00e+00	0	48	0	766509056	73	4938
2026-01-15 21:39:28.58	95.46	11.27	-52.0	-54.1	17.0	0.00e+00	0	48	0	771751936	74	4871
2026-01-15 21:39:31.61	95.98	11.16	-51.8	-53.8	17.3	0.00e+00	0	48	0	778043392	74	4730
2026-01-15 21:39:34.64	96.50	11.05	-52.1	-54.2	16.9	0.00e+00	0	48	0	783286272	74	4954
2026-01-15 21:39:37.67	97.01	10.94	-52.3	-54.5	16.6	0.00e+00	0	48	0	788529152	75	4839
2026-01-15 21:39:40.69	97.52	10.83	-51.8	-53.7	17.4	0.00e+00	0	48	0	794820608	75	4418
2026-01-15 21:39:43.72	98.03	10.72	-51.4	-53.3	17.8	0.00e+00	0	48	0	800063488	74	4448
2026-01-15 21:39:46.75	98.53	10.60	-52.0	-54.0	17.0	0.00e+00	0	48	0	806354944	74	4863
2026-01-15 21:39:49.78	99.03	10.48	-52.2	-54.3	16.7	0.00e+00	0	48	0	811597824	75	4742
2026-01-15 21:39:52.80	99.52	10.37	-52.2	-54.4	16.6	0.00e+00	0	48	0	817889280	75	4782
2026-01-15 21:39:55.83	100.01	10.25	-52.5	-54.8	16.3	0.00e+00	0	48	0	823132160	75	4994
2026-01-15 21:39:58.86	100.50	10.13	-52.4	-54.6	16.4	0.00e+00	0	48	0	828375040	75	4899
2026-01-15 21:40:01.88	100.98	10.01	-52.3	-54.5	16.5	0.00e+00	0	48	0	834666496	75	4853
2026-01-15 21:40:04.91	101.46	9.88	-52.5	-54.8	16.3	0.00e+00	0	48	0	839909376	75	4998
2026-01-15 21:40:07.94	101.94	9.76	-52.0	-54.2	16.8	0.00e+00	0	48	0	846200832	75	4652
2026-01-15 21:40:10.97	102.41	9.63	-51.5	-53.3	17.6	0.00e+00	0	48	0	851443712	75	4241
2026-01-15 21:40:14.00	102.88	9.51	-51.4	-53.3	17.6	0.00e+00	0	48	0	856686592	74	4477
2026-01-15 21:40:17.03	103.34	9.38	-51.7	-53.7	17.2	0.00e+00	0	48	0	862978048	74	4698
2026-01-15 21:40:20.06	103.80	9.25	-52.4	-54.6	16.4	0.00e+00	0	48	0	868220928	75	4917
2026-01-15 21:40:23.09	104.26	9.12	-52.3	-54.6	16.4	0.00e+00	0	48	0	874512384	75	4886
2026-01-15 21:40:26.11	104.71	8.99	-51.9	-53.9	17.0	0.00e+00	0	48	0	879755264	75	4525
2026-01-15 21:40:29.14	105.16	8.86	-51.6	-53.5	17.4	0.00e+00	0	48	0	884998144	75	4324
2026-01-15 21:40:32.17	105.60	8.73	-51.7	-53.6	17.3	0.00e+00	0	48	0	891289600	75	4389
2026-01-15 21:40:35.19	106.04	8.60	-51.4	-53.3	17.6	0.00e+00	0	48	0	896532480	74	4447
2026-01-15 21:40:38.22	106.48	8.47	-51.5	-53.4	17.5	0.00e+00	0	48	0	902823936	74	4510
2026-01-15 21:40:41.25	106.91	8.33	-51.7	-53.7	17.2	0.00e+00	0	48	0	908066816	74	4658
2026-01-15 21:40:44.28	107.34	8.20	-51.6	-53.6	17.3	0.00e+00	0	48	0	913309696	74	4623
2026-01-15 21:40:47.31	107.77	8.06	-51.2	-53.1	17.8	0.00e+00	0	48	0	919601152	74	4345
2026-01-15 21:40:50.34	108.19	7.93	-51.2	-53.0	17.8	0.00e+00	0	48	0	924844032	74	4322
2026-01-15 21:40:53.37	108.61	7.79	-51.2	-53.1	17.8	0.00e+00	0	48	0	931135488	74	4354
2026-01-15 21:40:56.40	109.02	7.65	-51.3	-53.1	17.7	0.00e+00	0	48	0	936378368	74	4388
2026-01-15 21:40:59.43	109.43	7.52	-51.5	-53.4	17.4	0.00e+00	0	48	0	942669824	74	4530
2026-01-15 21:41:02.46	109.84	7.38	-51.4	-53.3	17.5	0.00e+00	0	48	0	947912704	74	4493
2026-01-15 21:41:05.48	110.24	7.24	-51.6	-53.6	17.2	0.00e+00	0	48	0	953155584	74	4645
2026-01-15 21:41:08.51	110.64	7.10	-51.6	-53.6	17.3	0.00e+00	0	48	0	959447040	74	4617
2026-01-15 21:41:11.54	111.04	6.96	-52.0	-54.2	16.5	0.00e+00	0	48	0	964689920	74	4983
2026-01-15 21:41:14.57	111.43	6.82	-51.6	-53.6	17.2	0.00e+00	0	48	0	970981376	74	4643
2026-01-15 21:41:17.60	111.82	6.68	-51.6	-53.5	17.2	0.00e+00	0	48	0	976224256	74	4595
2026-01-15 21:41:20.62	112.20	6.55	-51.3	-53.2	17.5	0.00e+00	0	48	0	982515712	74	4430
2026-01-15 21:41:23.65	112.58	6.40	-51.8	-54.0	16.7	0.00e+00	0	48	0	987758592	74	4826
2026-01-15 21:41:26.68	112.96	6.26	-52.1	-54.3	16.3	0.00e+00	0	48	0	993001472	74	5038
2026-01-15 21:41:29.71	113.34	6.12	-51.7	-53.8	16.9	0.00e+00	0	48	0	999292928	75	4453
2026-01-15 21:41:32.74	113.71	5.98	-51.9	-54.1	16.5	0.00e+00	0	48	0	1004535808	75	4626
2026-01-15 21:41:35.77	114.08	5.84	-51.8	-54.0	16.6	0.00e+00	0	48	0	1010827264	74	4823
2026-01-15 21:41:38.79	114.44	5.70	-51.9	-54.1	16.4	0.00e+00	0	48	0	1016070144	74	4908
2026-01-15 21:41:41.82	114.80	5.56	-51.8	-54.0	16.4	0.00e+00	0	48	0	1021313024	74	4850
2026-01-15 21:41:44.85	115.16	5.42	-51.9	-54.2	16.2	0.00e+00	0	48	0	1027604480	74	4975
2026-01-15 21:41:47.88	115.51	5.27	-51.9	-54.2	16.1	0.00e+00	0	48	0	1032847360	74	4970
2026-01-15 21:41:50.90	115.86	5.13	-52.1	-54.6	15.7	0.00e+00	0	48	0	1039138816	74	5199
2026-01-15 21:41:53.93	116.21	4.99	-56.1	-65.6	5.6	0.00e+00	0	48	0	1044381696	82	11653
2026-01-15 21:41:56.97	116.55	4.85	-57.5	-72.5	3.8	1.49e+00	0	48	104	1044381696	85	21534
2026-01-15 21:42:00.00	116.90	4.70	-57.9	-72.9	3.8	1.49e+00	0	48	104	1044381696	86	21455
2026-01-15 21:42:03.03	117.23	4.56	-58.1	-73.1	3.8	1.49e+00	0	48	104	1044381696	86	21967
2026-01-15 21:42:06.05	117.57	4.42	-58.2	-73.2	3.8	1.49e+00	0	48	104	1044381696	86	22221
2026-01-15 21:42:09.09	117.90	4.28	-58.3	-73.3	3.8	1.49e+00	0	48	104	1044381696	87	21164
2026-01-15 21:42:12.12	118.23	4.13	-58.3	-73.3	3.8	1.49e+00	0	48	104	1044381696	87	21215
2026-01-15 21:42:15.15	118.56	3.99	-58.4	-73.4	3.8	1.49e+00	0	48	104	1044381696	87	21316
2026-01-15 21:42:18.18	118.88	3.85	-58.4	-73.4	3.8	1.49e+00	0	48	104	1044381696	87	21422
2026-01-15 21:42:21.21	119.20	3.71	-58.4	-73.4	3.8	1.49e+00	0	48	104	1044381696	87	21493
2026-01-15 21:42:24.24	119.52	3.56	-58.4	-73.4	3.8	1.49e+00	0	48	104	1044381696	87	21503
2026-01-15 21:42:27.27	119.83	3.42	-58.4	-73.4	3.8	1.49e+00	0	48	104	1044381696	87	21380
2026-01-15 21:42:30.30	120.14	3.28	-58.4	-73.4	3.8	1.49e+00	0	48	104	1044381696	87	21421
2026-01-15 21:42:33.32	120.45	3.14	-58.4	-73.4	3.8	1.49e+00	0	48	104	1044381696	87	21316
2026-01-15 21:42:36.35	120.75	2.99	-58.4	-73.4	3.8	1.49e+00	0	48	104	1044381696	87	21352
2026-01-15 21:42:39.38	121.05	2.85	-58.3	-73.4	3.8	1.49e+00	0	48	104	1044381696	87	21315
2026-01-15 21:42:42.41	121.35	2.71	-58.3	-73.4	3.8	1.49e+00	0	48	104	1044381696	87	21284
2026-01-15 21:42:45.44	121.65	2.57	-58.3	-73.3	3.8	1.49e+00	0	48	104	1044381696	87	21259
2026-01-15 21:42:48.47	121.95	2.43	-58.3	-73.4	3.8	1.49e+00	0	48	104	1044381696	87	21294
2026-01-15 21:42:51.50	122.24	2.28	-58.3	-73.4	3.8	1.49e+00	0	48	104	1044381696	87	21264
2026-01-15 21:42:54.53	122.53	2.14	-58.3	-73.3	3.8	1.49e+00	0	48	104	1044381696	87	21226
2026-01-15 21:42:57.56	122.81	2.00	-58.3	-73.3	3.8	1.49e+00	0	48	104	1044381696	87	21228

#Closed at: 2026-01-15 21:42:59
#Recorded file [1044 MB]: D:/lorett/data/31041_260116_003142.dat