passes_logs/2026/01/15/R3.2S_Murmansk/R3.2S_Murmansk__20260115_031212_NOAA_20_JPSS-1_rec.log

#Pass ID: 20260115_031212_NOAA 20 (JPSS-1)
#Satellite: NOAA 20 (JPSS-1)
#Configuration: NOAA 20
#almurnet v.1.7.20251203
#Start time: 2026-01-15 03:12:14

#Version: 2.2.20231116
#Station: R3.2S_Murmansk
#Location: 33.079688 lon 68.888172 lat
#TLE: 1 43013U 17073A   26014.55467351  .00000038  00000+0  38801-4 0  9992
#TLE: 2 43013  98.7635 315.4987 0001517  39.9279 320.2008 14.19535859422677

#Time	Az	El	Level	Level2	SNR	BER	BlckErr	Temp	State	Recorded	gain1	gain2
2026-01-15 03:12:14.12	39.27	2.09	-58.2	-74.2	3.8	1.49e+00	0	26	0	0	82	22893
2026-01-15 03:12:18.11	39.06	2.33	-58.2	-74.2	3.8	1.49e+00	0	26	104	0	81	24137
2026-01-15 03:12:22.10	38.86	2.57	-58.2	-74.2	3.8	1.49e+00	0	26	104	0	81	24262
2026-01-15 03:12:26.09	38.65	2.81	-58.2	-74.2	3.8	1.49e+00	0	26	104	0	81	24135
2026-01-15 03:12:30.10	38.44	3.05	-58.2	-74.1	3.8	1.49e+00	0	26	104	0	81	24062
2026-01-15 03:12:34.09	38.22	3.30	-58.2	-74.2	3.8	1.49e+00	0	26	104	0	81	24256
2026-01-15 03:12:38.10	38.00	3.55	-58.2	-74.1	3.8	1.49e+00	0	27	104	0	81	24094
2026-01-15 03:12:42.09	37.78	3.80	-58.2	-74.1	3.8	1.49e+00	0	27	104	0	81	24011
2026-01-15 03:12:46.10	37.55	4.05	-58.2	-73.3	3.8	1.49e+00	0	27	104	0	81	21958
2026-01-15 03:12:50.10	37.32	4.30	-58.1	-71.4	4.0	1.48e+00	0	27	104	0	81	17525
2026-01-15 03:12:54.11	37.08	4.56	-57.8	-68.0	5.2	6.28e-01	0	27	0	4194304	81	11892
2026-01-15 03:12:58.11	36.84	4.82	-57.6	-65.9	6.6	1.64e-01	0	27	0	11534336	81	9370
2026-01-15 03:13:02.11	36.59	5.08	-57.6	-65.6	6.9	1.31e-01	0	27	0	18874368	81	9042
2026-01-15 03:13:06.11	36.34	5.34	-58.0	-70.9	4.1	3.67e-01	0	27	0	26214400	81	16657
2026-01-15 03:13:10.11	36.09	5.60	-55.4	-58.9	12.3	1.50e-06	0	27	0	33554432	77	5273
2026-01-15 03:13:14.08	35.83	5.87	-55.4	-58.8	12.4	0.00e+00	0	27	0	40894464	77	5168
2026-01-15 03:13:18.08	35.56	6.14	-54.9	-58.0	12.9	0.00e+00	0	27	0	48234496	76	4999
2026-01-15 03:13:22.07	35.29	6.40	-55.0	-58.1	12.9	0.00e+00	0	27	0	55574528	76	5069
2026-01-15 03:13:26.08	35.02	6.68	-55.0	-58.0	13.0	0.00e+00	0	27	0	62914560	76	4998
2026-01-15 03:13:30.06	34.74	6.95	-55.0	-57.9	13.0	0.00e+00	0	27	0	70254592	76	4968
2026-01-15 03:13:34.05	34.45	7.23	-55.1	-58.0	12.9	0.00e+00	0	27	0	78643200	76	5037
2026-01-15 03:13:38.03	34.16	7.50	-55.1	-58.0	13.0	0.00e+00	0	27	0	85983232	76	5026
2026-01-15 03:13:42.02	33.86	7.78	-54.8	-57.6	13.3	0.00e+00	0	27	0	93323264	76	4764
2026-01-15 03:13:46.00	33.56	8.07	-54.8	-57.7	13.2	0.00e+00	0	27	0	100663296	76	4830
2026-01-15 03:13:50.01	33.25	8.35	-54.5	-57.1	13.4	0.00e+00	0	27	0	108003328	75	4793
2026-01-15 03:13:54.01	32.93	8.64	-54.6	-57.3	13.3	0.00e+00	0	27	0	115343360	75	4877
2026-01-15 03:13:58.01	32.60	8.93	-54.6	-57.2	13.4	0.00e+00	0	27	0	122683392	75	4863
2026-01-15 03:14:02.01	32.27	9.23	-54.4	-57.0	13.5	0.00e+00	0	27	0	130023424	75	4706
2026-01-15 03:14:06.00	31.94	9.52	-54.2	-56.6	13.8	0.00e+00	0	27	0	138412032	75	4529
2026-01-15 03:14:10.01	31.59	9.82	-54.2	-56.7	13.6	0.00e+00	0	27	0	145752064	74	4821
2026-01-15 03:14:14.01	31.24	10.12	-54.1	-56.6	13.7	0.00e+00	0	27	0	153092096	74	4774
2026-01-15 03:14:17.99	30.88	10.42	-54.2	-56.6	13.7	0.00e+00	0	27	0	160432128	74	4791
2026-01-15 03:14:21.98	30.51	10.73	-54.2	-56.6	13.7	0.00e+00	0	27	0	167772160	74	4799
2026-01-15 03:14:25.96	30.13	11.03	-54.2	-56.6	13.7	0.00e+00	0	28	0	175112192	74	4767
2026-01-15 03:14:29.94	29.75	11.34	-54.0	-56.3	13.8	0.00e+00	0	27	0	182452224	74	4617
2026-01-15 03:14:33.93	29.36	11.66	-53.9	-56.1	13.9	0.00e+00	0	28	0	190840832	74	4543
2026-01-15 03:14:37.92	28.96	11.97	-53.8	-56.0	14.0	0.00e+00	0	28	0	198180864	74	4487
2026-01-15 03:14:41.91	28.55	12.29	-54.0	-56.3	13.9	0.00e+00	0	28	0	205520896	74	4612
2026-01-15 03:14:45.90	28.13	12.61	-54.0	-56.3	13.9	0.00e+00	0	28	0	212860928	74	4624
2026-01-15 03:14:49.90	27.70	12.94	-54.0	-56.3	13.8	0.00e+00	0	28	0	220200960	74	4637
2026-01-15 03:14:53.89	27.26	13.26	-54.0	-56.3	13.9	0.00e+00	0	28	0	227540992	74	4633
2026-01-15 03:14:57.88	26.81	13.59	-54.1	-56.5	13.8	0.00e+00	0	28	0	234881024	74	4721
2026-01-15 03:15:01.86	26.35	13.92	-54.0	-56.3	13.9	0.00e+00	0	28	0	243269632	74	4616
2026-01-15 03:15:05.85	25.88	14.26	-54.1	-56.4	13.9	0.00e+00	0	28	0	250609664	74	4684
2026-01-15 03:15:09.85	25.40	14.60	-54.1	-56.4	13.9	0.00e+00	0	28	0	257949696	74	4679
2026-01-15 03:15:13.83	24.91	14.93	-54.1	-56.4	13.9	0.00e+00	0	28	0	265289728	74	4673
2026-01-15 03:15:17.83	24.40	15.28	-54.0	-56.3	13.9	0.00e+00	0	28	0	272629760	74	4616
2026-01-15 03:15:21.82	23.88	15.62	-53.9	-56.1	14.0	0.00e+00	0	28	0	279969792	74	4515
2026-01-15 03:15:25.81	23.36	15.97	-53.8	-56.0	14.1	0.00e+00	0	28	0	287309824	74	4458
2026-01-15 03:15:29.78	22.82	16.32	-53.9	-56.1	14.0	0.00e+00	0	28	0	294649856	74	4527
2026-01-15 03:15:33.77	22.26	16.67	-53.8	-55.9	14.1	0.00e+00	0	28	0	303038464	74	4437
2026-01-15 03:15:37.75	21.70	17.02	-53.7	-55.8	14.1	0.00e+00	0	28	0	310378496	73	4604
2026-01-15 03:15:41.73	21.11	17.38	-53.7	-55.8	14.1	0.00e+00	0	28	0	317718528	73	4613
2026-01-15 03:15:45.73	20.52	17.73	-53.4	-55.4	14.3	0.00e+00	0	28	0	325058560	73	4439
2026-01-15 03:15:49.71	19.91	18.09	-53.5	-55.6	14.2	0.00e+00	0	28	0	332398592	73	4495
2026-01-15 03:15:53.71	19.28	18.46	-55.8	-58.9	12.9	0.00e+00	0	28	0	339738624	78	4945
2026-01-15 03:15:57.72	18.64	18.82	-53.7	-55.8	14.2	0.00e+00	0	28	0	347078656	74	4350
2026-01-15 03:16:01.72	17.98	19.19	-53.6	-55.7	14.1	0.00e+00	0	28	0	355467264	73	4567
2026-01-15 03:16:05.70	17.31	19.55	-53.3	-55.2	14.4	0.00e+00	0	28	0	362807296	73	4314
2026-01-15 03:16:09.70	16.61	19.92	-53.5	-55.5	14.3	0.00e+00	0	28	0	370147328	73	4465
2026-01-15 03:16:13.70	15.91	20.29	-53.7	-55.8	14.1	0.00e+00	0	28	0	377487360	73	4638
2026-01-15 03:16:17.70	15.18	20.66	-53.8	-55.9	14.1	0.00e+00	0	28	0	384827392	73	4663
2026-01-15 03:16:21.69	14.44	21.03	-53.8	-55.8	14.1	0.00e+00	0	28	0	392167424	73	4651
2026-01-15 03:16:25.68	13.68	21.40	-53.8	-55.8	14.1	0.00e+00	0	28	0	399507456	73	4647
2026-01-15 03:16:29.65	12.90	21.77	-53.7	-55.7	14.2	0.00e+00	0	28	0	407896064	73	4570
2026-01-15 03:16:33.63	12.10	22.13	-53.5	-55.4	14.3	0.00e+00	0	28	0	415236096	73	4434
2026-01-15 03:16:37.61	11.29	22.50	-53.3	-55.2	14.4	0.00e+00	0	28	0	422576128	73	4305
2026-01-15 03:16:41.59	10.45	22.87	-53.1	-55.0	14.4	0.00e+00	0	28	0	429916160	72	4442
2026-01-15 03:16:45.58	9.59	23.23	-52.9	-54.7	14.6	0.00e+00	0	28	0	437256192	72	4311
2026-01-15 03:16:49.57	8.72	23.59	-52.7	-54.4	14.5	0.00e+00	0	28	0	444596224	71	4437
2026-01-15 03:16:53.57	7.82	23.96	-52.8	-54.6	14.5	0.00e+00	0	28	0	451936256	71	4501
2026-01-15 03:16:57.56	6.90	24.31	-52.6	-54.4	14.6	0.00e+00	0	28	0	459276288	71	4393
2026-01-15 03:17:01.57	5.95	24.67	-52.4	-54.1	14.7	0.00e+00	0	28	0	467664896	71	4251
2026-01-15 03:17:05.55	4.99	25.02	-52.4	-54.1	14.7	0.00e+00	0	28	0	475004928	71	4269
2026-01-15 03:17:09.55	4.00	25.36	-52.5	-54.2	14.6	0.00e+00	0	28	0	482344960	71	4318
2026-01-15 03:17:13.53	3.00	25.70	-52.9	-54.7	14.4	0.00e+00	0	28	0	489684992	71	4558
2026-01-15 03:17:17.53	1.97	26.04	-53.2	-55.1	14.3	0.00e+00	0	28	0	497025024	71	4814
2026-01-15 03:17:21.50	0.92	26.37	-53.0	-54.8	14.4	0.00e+00	0	28	0	504365056	71	4650
2026-01-15 03:17:25.49	359.85	26.69	-53.6	-55.5	14.2	0.00e+00	0	28	0	511705088	72	4758
2026-01-15 03:17:29.49	358.75	27.00	-53.4	-55.4	14.3	0.00e+00	0	28	0	520093696	72	4661
2026-01-15 03:17:33.47	357.64	27.31	-53.8	-55.8	14.1	0.00e+00	0	28	0	527433728	72	4902
2026-01-15 03:17:37.44	356.51	27.60	-53.8	-55.8	14.1	0.00e+00	0	28	0	534773760	72	4897
2026-01-15 03:17:41.43	355.35	27.89	-53.8	-55.8	14.2	0.00e+00	0	28	0	542113792	73	4615
2026-01-15 03:17:45.41	354.17	28.17	-53.7	-55.7	14.2	0.00e+00	0	28	0	549453824	73	4568
2026-01-15 03:17:49.39	352.97	28.43	-53.7	-55.7	14.2	0.00e+00	0	28	0	556793856	73	4588
2026-01-15 03:17:53.39	351.75	28.69	-53.9	-56.0	14.1	0.00e+00	0	28	0	564133888	73	4734
2026-01-15 03:17:57.38	350.51	28.93	-54.2	-56.4	13.9	0.00e+00	0	28	0	571473920	73	4945
2026-01-15 03:18:01.38	349.25	29.16	-53.9	-56.0	14.1	0.00e+00	0	28	0	579862528	73	4737
2026-01-15 03:18:05.37	347.98	29.37	-54.2	-56.3	14.0	0.00e+00	0	28	0	587202560	73	4896
2026-01-15 03:18:09.37	346.68	29.57	-54.5	-56.7	13.9	0.00e+00	0	28	0	594542592	74	4869
2026-01-15 03:18:13.35	345.38	29.75	-54.2	-56.3	14.1	0.00e+00	0	28	0	601882624	74	4625
2026-01-15 03:18:17.34	344.06	29.92	-54.5	-56.7	13.8	0.00e+00	0	28	0	609222656	74	4850
2026-01-15 03:18:21.35	342.72	30.08	-54.3	-56.4	14.0	0.00e+00	0	28	0	616562688	74	4669
2026-01-15 03:18:25.35	341.37	30.21	-54.3	-56.5	14.0	0.00e+00	0	28	0	623902720	74	4709
2026-01-15 03:18:29.33	340.01	30.33	-54.5	-56.7	13.9	0.00e+00	0	28	0	632291328	74	4820
2026-01-15 03:18:33.31	338.65	30.43	-54.9	-57.3	13.6	0.00e+00	0	28	0	639631360	74	5217
2026-01-15 03:18:37.29	337.28	30.51	-54.8	-57.1	13.8	0.00e+00	0	28	0	646971392	75	4776
2026-01-15 03:18:41.26	335.91	30.57	-55.0	-57.4	13.6	0.00e+00	0	28	0	654311424	75	4957
2026-01-15 03:18:45.23	334.53	30.62	-55.2	-57.7	13.5	0.00e+00	0	28	0	661651456	75	5104
2026-01-15 03:18:49.23	333.14	30.64	-55.4	-58.0	13.5	0.00e+00	0	28	0	668991488	76	4989
2026-01-15 03:18:53.23	331.74	30.65	-55.7	-58.4	13.2	0.00e+00	0	28	0	676331520	76	5263
2026-01-15 03:18:57.21	330.36	30.64	-55.3	-57.8	13.5	0.00e+00	0	28	0	683671552	76	4911
2026-01-15 03:19:01.23	328.96	30.60	-55.0	-57.3	13.8	0.00e+00	0	28	0	692060160	76	4643
2026-01-15 03:19:05.22	327.57	30.55	-54.6	-56.9	13.9	0.00e+00	0	28	0	699400192	75	4685
2026-01-15 03:19:09.20	326.20	30.48	-54.3	-56.4	14.1	0.00e+00	0	28	0	706740224	75	4438
2026-01-15 03:19:13.20	324.82	30.40	-54.7	-56.9	13.9	0.00e+00	0	28	0	714080256	75	4691
2026-01-15 03:19:17.19	323.46	30.29	-54.7	-57.0	13.9	0.00e+00	0	28	0	721420288	75	4716
2026-01-15 03:19:21.20	322.10	30.17	-54.4	-56.6	14.1	0.00e+00	0	28	0	728760320	75	4503
2026-01-15 03:19:25.20	320.75	30.03	-54.4	-56.5	14.1	0.00e+00	0	28	0	736100352	75	4461
2026-01-15 03:19:29.20	319.41	29.87	-54.4	-56.6	14.1	0.00e+00	0	28	0	744488960	75	4499
2026-01-15 03:19:33.18	318.10	29.70	-54.1	-56.2	14.1	0.00e+00	0	28	0	751828992	74	4569
2026-01-15 03:19:37.17	316.80	29.51	-54.4	-56.6	14.0	0.00e+00	0	28	0	759169024	74	4784
2026-01-15 03:19:41.16	315.51	29.30	-54.6	-56.8	13.8	0.00e+00	0	28	0	766509056	74	4911
2026-01-15 03:19:45.16	314.24	29.08	-54.8	-57.2	13.7	0.00e+00	0	28	0	773849088	74	5121
2026-01-15 03:19:49.16	312.98	28.85	-54.8	-57.1	13.8	0.00e+00	0	28	0	781189120	75	4805
2026-01-15 03:19:53.14	311.75	28.60	-54.8	-57.1	13.8	0.00e+00	0	28	0	788529152	75	4813
2026-01-15 03:19:57.13	310.54	28.35	-55.2	-57.7	13.5	0.00e+00	0	28	0	796917760	75	5128
2026-01-15 03:20:01.12	309.34	28.08	-55.0	-57.4	13.7	0.00e+00	0	28	0	804257792	75	4937
2026-01-15 03:20:05.12	308.17	27.80	-54.5	-56.6	14.0	0.00e+00	0	28	0	811597824	75	4533
2026-01-15 03:20:09.12	307.01	27.50	-54.6	-56.8	14.0	0.00e+00	0	28	0	818937856	75	4631
2026-01-15 03:20:13.12	305.88	27.20	-54.6	-56.8	13.9	0.00e+00	0	28	0	826277888	75	4639
2026-01-15 03:20:17.12	304.76	26.89	-54.1	-56.1	14.2	0.00e+00	0	28	0	833617920	74	4518
2026-01-15 03:20:21.13	303.67	26.57	-54.2	-56.3	14.1	0.00e+00	0	28	0	840957952	74	4631
2026-01-15 03:20:25.13	302.60	26.25	-54.1	-56.1	14.2	0.00e+00	0	28	0	849346560	74	4526
2026-01-15 03:20:29.14	301.55	25.92	-53.7	-55.6	14.4	0.00e+00	0	28	0	856686592	74	4280
2026-01-15 03:20:33.12	300.53	25.58	-53.5	-55.4	14.4	0.00e+00	0	28	0	864026624	73	4431
2026-01-15 03:20:37.11	299.53	25.24	-53.3	-55.1	14.5	0.00e+00	0	28	0	871366656	73	4277
2026-01-15 03:20:41.09	298.56	24.89	-53.3	-55.1	14.5	0.00e+00	0	28	0	878706688	73	4264
2026-01-15 03:20:45.07	297.60	24.54	-53.0	-54.7	14.6	0.00e+00	0	28	0	886046720	72	4332
2026-01-15 03:20:49.05	296.67	24.18	-52.5	-54.2	14.7	0.00e+00	0	28	0	893386752	71	4311
2026-01-15 03:20:53.05	295.75	23.82	-52.6	-54.3	14.7	0.00e+00	0	28	0	901775360	71	4349
2026-01-15 03:20:57.06	294.85	23.46	-52.1	-53.7	14.7	0.00e+00	0	28	0	909115392	70	4325
2026-01-15 03:21:01.06	293.98	23.09	-52.1	-53.7	14.8	0.00e+00	0	28	0	916455424	70	4340
2026-01-15 03:21:05.06	293.13	22.73	-51.6	-53.1	14.9	0.00e+00	0	28	0	923795456	69	4256
2026-01-15 03:21:09.05	292.29	22.36	-51.5	-52.9	14.9	0.00e+00	0	28	0	931135488	69	4193
2026-01-15 03:21:13.04	291.48	21.99	-51.7	-53.2	14.8	0.00e+00	0	28	0	938475520	69	4306
2026-01-15 03:21:17.05	290.69	21.62	-51.3	-52.8	15.0	0.00e+00	0	28	0	945815552	69	4128
2026-01-15 03:21:21.05	289.91	21.25	-51.6	-53.1	14.9	0.00e+00	0	28	0	954204160	69	4270
2026-01-15 03:21:25.04	289.15	20.88	-51.9	-53.5	14.7	0.00e+00	0	28	0	961544192	69	4454
2026-01-15 03:21:29.03	288.42	20.51	-51.8	-53.3	14.8	0.00e+00	0	28	0	968884224	69	4391
2026-01-15 03:21:33.02	287.70	20.14	-52.0	-53.6	14.7	0.00e+00	0	28	0	976224256	69	4533
2026-01-15 03:21:37.00	287.00	19.77	-52.1	-53.7	14.6	0.00e+00	0	28	0	983564288	69	4574
2026-01-15 03:21:40.98	286.31	19.40	-52.3	-54.0	14.5	0.00e+00	0	28	0	990904320	69	4743
2026-01-15 03:21:44.96	285.65	19.04	-52.6	-54.4	14.5	0.00e+00	0	28	0	998244352	70	4676
2026-01-15 03:21:48.95	284.99	18.67	-52.8	-54.6	14.4	0.00e+00	0	28	0	1005584384	70	4766
2026-01-15 03:21:52.93	284.36	18.31	-52.8	-54.6	14.4	0.00e+00	0	28	0	1013972992	70	4777
2026-01-15 03:21:56.92	283.74	17.95	-52.9	-54.7	14.4	0.00e+00	0	28	0	1021313024	71	4586
2026-01-15 03:22:00.90	283.13	17.59	-53.0	-54.9	14.4	0.00e+00	0	28	0	1028653056	71	4653
2026-01-15 03:22:04.90	282.54	17.23	-53.2	-55.1	14.3	0.00e+00	0	28	0	1035993088	71	4781
2026-01-15 03:22:08.91	281.96	16.87	-53.2	-55.1	14.3	0.00e+00	0	28	0	1043333120	71	4788
2026-01-15 03:22:12.90	281.39	16.52	-53.3	-55.2	14.3	0.00e+00	0	28	0	1050673152	71	4825
2026-01-15 03:22:16.90	280.84	16.17	-53.4	-55.3	14.2	0.00e+00	0	28	0	1058013184	72	4650
2026-01-15 03:22:20.90	280.30	15.82	-53.5	-55.5	14.2	0.00e+00	0	28	0	1066401792	72	4754
2026-01-15 03:22:24.89	279.77	15.47	-53.5	-55.6	14.2	0.00e+00	0	28	0	1073741824	72	4767
2026-01-15 03:22:28.87	279.26	15.13	-53.8	-55.9	14.0	0.00e+00	0	28	0	1081081856	72	4957
2026-01-15 03:22:32.88	278.76	14.79	-54.0	-56.1	14.0	0.00e+00	0	28	0	1088421888	73	4790
2026-01-15 03:22:36.88	278.27	14.45	-54.0	-56.2	13.9	0.00e+00	0	28	0	1095761920	73	4839
2026-01-15 03:22:40.87	277.79	14.11	-54.2	-56.4	13.9	0.00e+00	0	28	0	1103101952	73	4962
2026-01-15 03:22:44.87	277.32	13.78	-54.2	-56.4	13.8	0.00e+00	0	28	0	1111490560	73	4965
2026-01-15 03:22:48.85	276.86	13.44	-54.1	-56.4	13.9	0.00e+00	0	28	0	1118830592	73	4939
2026-01-15 03:22:52.85	276.42	13.12	-54.1	-56.4	13.9	0.00e+00	0	28	0	1126170624	73	4927
2026-01-15 03:22:56.82	275.98	12.79	-54.2	-56.4	13.8	0.00e+00	0	28	0	1133510656	73	4951
2026-01-15 03:23:00.81	275.55	12.47	-54.3	-56.6	13.7	0.00e+00	0	28	0	1140850688	73	5099
2026-01-15 03:23:04.81	275.14	12.15	-54.3	-56.6	13.7	0.00e+00	0	28	0	1148190720	73	5076
2026-01-15 03:23:08.82	274.73	11.83	-54.4	-56.7	13.7	0.00e+00	0	28	0	1155530752	73	5153
2026-01-15 03:23:12.81	274.33	11.51	-54.6	-57.0	13.6	0.00e+00	0	28	0	1162870784	74	4993
2026-01-15 03:23:16.81	273.93	11.20	-54.7	-57.2	13.4	0.00e+00	0	28	0	1171259392	74	5158
2026-01-15 03:23:20.79	273.55	10.89	-54.6	-57.1	13.5	0.00e+00	0	28	0	1178599424	74	5093
2026-01-15 03:23:24.81	273.18	10.58	-54.9	-57.5	13.3	0.00e+00	0	28	0	1185939456	74	5303
2026-01-15 03:23:28.81	272.81	10.28	-55.0	-57.7	13.3	0.00e+00	0	28	0	1193279488	75	5143
2026-01-15 03:23:32.80	272.45	9.97	-55.0	-57.6	13.3	0.00e+00	0	28	0	1200619520	75	5095
2026-01-15 03:23:36.78	272.10	9.67	-54.6	-57.2	13.6	0.00e+00	0	28	0	1207959552	75	4821
2026-01-15 03:23:40.77	271.76	9.38	-54.6	-57.1	13.6	0.00e+00	0	28	0	1215299584	75	4766
2026-01-15 03:23:44.77	271.42	9.08	-54.6	-57.2	13.5	0.00e+00	0	28	0	1223688192	75	4815
2026-01-15 03:23:48.77	271.09	8.79	-55.1	-57.9	13.0	0.00e+00	0	28	0	1231028224	75	5268
2026-01-15 03:23:52.76	270.77	8.50	-55.9	-59.6	12.0	0.00e+00	0	28	0	1238368256	76	6002
2026-01-15 03:23:56.76	270.45	8.21	-56.1	-60.1	11.6	7.60e-06	0	28	0	1245708288	77	6014
2026-01-15 03:24:00.76	270.14	7.93	-56.4	-61.1	10.7	1.99e-04	0	28	0	1253048320	77	6782
2026-01-15 03:24:04.76	269.84	7.64	-57.1	-63.0	9.3	3.99e-03	0	28	0	1260388352	79	7467
2026-01-15 03:24:08.77	269.54	7.36	-57.2	-64.0	8.2	3.02e-02	0	28	0	1268776960	79	8462
2026-01-15 03:24:12.77	269.25	7.08	-57.1	-63.3	8.9	1.51e-02	0	28	0	1276116992	79	7788
2026-01-15 03:24:16.76	268.96	6.81	-56.9	-62.5	9.6	2.68e-03	0	28	0	1283457024	79	7057
2026-01-15 03:24:20.76	268.68	6.54	-56.8	-62.2	9.9	2.32e-03	0	28	0	1290797056	79	6874
2026-01-15 03:24:24.77	268.40	6.26	-56.9	-62.2	10.0	1.62e-03	0	28	0	1298137088	79	6830
2026-01-15 03:24:28.78	268.13	5.99	-56.7	-61.4	10.7	3.20e-04	0	28	0	1305477120	79	6254
2026-01-15 03:24:32.78	267.87	5.73	-56.4	-60.7	11.3	5.41e-05	0	28	0	1312817152	79	5723
2026-01-15 03:24:36.79	267.61	5.46	-55.8	-59.5	12.1	6.80e-06	0	28	0	1321205760	78	5298
2026-01-15 03:24:40.77	267.35	5.20	-55.7	-59.2	12.4	0.00e+00	0	28	0	1328545792	78	5108
2026-01-15 03:24:44.76	267.11	4.94	-59.3	-75.4	3.8	1.49e+00	0	28	104	1333788672	83	24746
2026-01-15 03:24:48.76	266.86	4.68	-60.2	-76.2	3.8	1.49e+00	0	28	104	1333788672	85	24353
2026-01-15 03:24:52.75	266.62	4.42	-60.5	-76.6	3.8	1.49e+00	0	28	104	1333788672	86	23956
2026-01-15 03:24:56.72	266.38	4.17	-60.7	-76.8	3.8	1.49e+00	0	28	104	1333788672	86	24598
2026-01-15 03:25:00.73	266.15	3.92	-60.8	-76.9	3.8	1.49e+00	0	28	104	1333788672	86	24876
2026-01-15 03:25:04.73	265.92	3.66	-60.9	-76.9	3.8	1.49e+00	0	28	104	1333788672	86	24969
2026-01-15 03:25:08.73	265.70	3.42	-60.8	-76.8	3.8	1.49e+00	0	28	104	1333788672	86	24635
2026-01-15 03:25:12.73	265.48	3.17	-60.7	-76.8	3.8	1.49e+00	0	29	104	1333788672	86	24577
2026-01-15 03:25:16.73	265.26	2.92	-60.7	-76.8	3.8	1.49e+00	0	28	104	1333788672	86	24439
2026-01-15 03:25:20.73	265.05	2.68	-60.7	-76.8	3.8	1.49e+00	0	28	104	1333788672	86	24426
2026-01-15 03:25:24.74	264.84	2.44	-60.6	-76.7	3.8	1.49e+00	0	28	104	1333788672	86	24318
2026-01-15 03:25:28.73	264.64	2.20	-60.6	-76.7	3.8	1.49e+00	0	29	104	1333788672	86	24307
2026-01-15 03:25:32.74	264.43	1.96	-60.6	-76.7	3.8	1.49e+00	0	28	104	1333788672	86	24303

#Closed at: 2026-01-15 03:25:34
#Recorded file [1333 MB]: D:/lorett/data/31004_260115_061213.dat