passes_logs/2026/01/15/R3.2S_Murmansk/R3.2S_Murmansk__20260115_053047_FENGYUN_3D_rec.log

#Pass ID: 20260115_053047_FENGYUN 3D
#Satellite: FENGYUN 3D
#Configuration: FENGYUN 3D
#almurnet v.1.7.20251203
#Start time: 2026-01-15 05:30:48

#Version: 2.2.20231116
#Station: R3.2S_Murmansk
#Location: 33.079688 lon 68.888172 lat
#TLE: 1 43010U 17072A   26014.65117763 -.00000217  00000+0 -80772-4 0  9993
#TLE: 2 43010  98.9933 346.4618 0002330 108.4699 251.6730 14.19694700423204

#Time	Az	El	Level	Level2	SNR	BER	BlckErr	Temp	State	Recorded	gain1	gain2
2026-01-15 05:30:48.26	42.08	2.05	-58.1	-71.1	3.8	8.45e-01	0	26	0	0	82	15964
2026-01-15 05:30:52.25	41.87	2.28	-58.0	-71.0	3.8	8.44e-01	0	26	104	0	81	16855
2026-01-15 05:30:56.23	41.66	2.52	-58.0	-71.0	3.8	8.45e-01	0	26	104	0	81	16796
2026-01-15 05:31:00.24	41.44	2.76	-58.0	-71.1	3.8	8.45e-01	0	26	104	0	81	16908
2026-01-15 05:31:04.23	41.22	3.00	-58.0	-71.0	3.8	8.45e-01	0	26	104	0	81	16749
2026-01-15 05:31:08.24	40.99	3.25	-58.0	-71.0	3.8	8.45e-01	0	26	104	0	81	16848
2026-01-15 05:31:12.24	40.76	3.50	-58.1	-71.0	3.8	8.46e-01	0	26	104	0	81	16778
2026-01-15 05:31:16.24	40.53	3.74	-58.1	-70.9	3.8	8.46e-01	0	26	104	0	81	16684
2026-01-15 05:31:20.25	40.29	3.99	-58.0	-70.7	3.8	8.44e-01	0	27	104	0	81	16249
2026-01-15 05:31:24.25	40.05	4.24	-57.8	-67.9	4.1	8.43e-01	0	27	104	0	81	11769
2026-01-15 05:31:28.25	39.80	4.50	-57.2	-64.1	5.7	4.79e-01	0	27	0	1048576	81	7626
2026-01-15 05:31:32.26	39.55	4.75	-56.3	-61.1	8.0	4.81e-02	0	27	0	24117248	79	6048
2026-01-15 05:31:36.25	39.30	5.01	-56.3	-61.3	7.9	4.19e-02	0	27	0	46137344	78	6497
2026-01-15 05:31:40.24	39.04	5.27	-57.1	-63.6	6.0	5.91e-01	0	27	0	68157440	79	8057
2026-01-15 05:31:44.23	38.77	5.53	-51.9	-53.7	13.4	0.00e+00	0	27	0	84934656	70	4317
2026-01-15 05:31:48.21	38.50	5.79	-50.9	-52.6	13.8	0.00e+00	0	27	0	106954752	68	4256
2026-01-15 05:31:52.20	38.23	6.05	-50.1	-51.6	14.1	0.00e+00	0	27	0	130023424	66	4271
2026-01-15 05:31:56.20	37.95	6.32	-50.0	-51.5	14.2	0.00e+00	0	27	0	152043520	66	4218
2026-01-15 05:32:00.21	37.66	6.59	-50.1	-51.6	14.1	0.00e+00	0	27	0	175112192	66	4280
2026-01-15 05:32:04.21	37.37	6.86	-50.1	-51.5	14.2	0.00e+00	0	27	0	197132288	66	4232
2026-01-15 05:32:08.22	37.07	7.13	-49.9	-51.4	14.3	0.00e+00	0	27	0	220200960	66	4170
2026-01-15 05:32:12.23	36.77	7.41	-49.7	-51.1	14.3	0.00e+00	0	27	0	242221056	65	4283
2026-01-15 05:32:16.22	36.46	7.69	-49.6	-51.1	14.3	0.00e+00	0	27	0	265289728	65	4245
2026-01-15 05:32:20.20	36.14	7.97	-49.6	-51.0	14.4	0.00e+00	0	27	0	287309824	65	4199
2026-01-15 05:32:24.19	35.82	8.25	-49.6	-51.0	14.4	0.00e+00	0	27	0	309329920	65	4205
2026-01-15 05:32:28.18	35.49	8.53	-49.4	-50.8	14.5	0.00e+00	0	27	0	332398592	65	4120
2026-01-15 05:32:32.18	35.16	8.82	-49.9	-51.3	14.2	0.00e+00	0	27	0	354418688	65	4374
2026-01-15 05:32:36.20	34.81	9.11	-49.5	-50.9	14.4	0.00e+00	0	27	0	377487360	65	4170
2026-01-15 05:32:40.20	34.46	9.40	-49.5	-50.8	14.5	0.00e+00	0	27	0	399507456	65	4135
2026-01-15 05:32:44.19	34.11	9.69	-49.4	-50.8	14.5	0.00e+00	0	27	0	422576128	65	4127
2026-01-15 05:32:48.17	33.74	9.98	-49.2	-50.5	14.5	0.00e+00	0	28	0	444596224	64	4229
2026-01-15 05:32:52.15	33.37	10.28	-49.0	-50.3	14.6	0.00e+00	0	27	0	466616320	64	4130
2026-01-15 05:32:56.15	32.99	10.58	-49.1	-50.4	14.5	0.00e+00	0	28	0	489684992	64	4172
2026-01-15 05:33:00.13	32.60	10.88	-48.9	-50.2	14.7	0.00e+00	0	28	0	511705088	64	4058
2026-01-15 05:33:04.12	32.21	11.19	-49.0	-50.3	14.5	0.00e+00	0	27	0	534773760	63	4356
2026-01-15 05:33:08.12	31.80	11.50	-48.7	-50.0	14.6	0.00e+00	0	28	0	556793856	63	4231
2026-01-15 05:33:12.11	31.39	11.80	-48.7	-50.0	14.6	0.00e+00	0	28	0	578813952	63	4233
2026-01-15 05:33:16.11	30.96	12.12	-48.7	-49.9	14.7	0.00e+00	0	28	0	601882624	63	4188
2026-01-15 05:33:20.10	30.53	12.43	-48.6	-49.9	14.7	0.00e+00	0	28	0	623902720	63	4146
2026-01-15 05:33:24.09	30.09	12.75	-48.6	-49.8	14.7	0.00e+00	0	28	0	646971392	63	4128
2026-01-15 05:33:28.09	29.64	13.07	-48.4	-49.7	14.8	0.00e+00	0	28	0	668991488	63	4067
2026-01-15 05:33:32.09	29.17	13.39	-48.4	-49.7	14.8	0.00e+00	0	28	0	692060160	63	4058
2026-01-15 05:33:36.09	28.70	13.71	-48.5	-49.7	14.8	0.00e+00	0	28	0	714080256	63	4084
2026-01-15 05:33:40.08	28.21	14.04	-48.2	-49.4	14.9	0.00e+00	0	27	0	737148928	63	3931
2026-01-15 05:33:44.08	27.72	14.37	-48.1	-49.3	14.8	0.00e+00	0	28	0	759169024	62	4114
2026-01-15 05:33:48.08	27.21	14.70	-47.9	-49.1	14.9	0.00e+00	0	28	0	781189120	62	4047
2026-01-15 05:33:52.07	26.69	15.03	-48.0	-49.2	14.9	0.00e+00	0	28	0	804257792	62	4087
2026-01-15 05:33:56.06	26.16	15.37	-47.9	-49.1	14.9	0.00e+00	0	28	0	826277888	62	4007
2026-01-15 05:34:00.05	25.62	15.71	-47.7	-48.9	15.0	0.00e+00	0	28	0	849346560	62	3946
2026-01-15 05:34:04.03	25.07	16.04	-47.6	-48.8	14.9	0.00e+00	0	27	0	871366656	61	4104
2026-01-15 05:34:08.03	24.50	16.38	-47.4	-48.6	15.0	0.00e+00	0	28	0	893386752	61	4029
2026-01-15 05:34:12.02	23.92	16.73	-47.2	-48.4	15.1	0.00e+00	0	28	0	916455424	61	3923
2026-01-15 05:34:16.01	23.32	17.07	-47.3	-48.5	14.9	0.00e+00	0	28	0	938475520	60	4214
2026-01-15 05:34:20.01	22.71	17.42	-47.4	-48.5	14.9	0.00e+00	0	28	0	961544192	60	4229
2026-01-15 05:34:24.02	22.08	17.77	-47.2	-48.4	14.9	0.00e+00	0	28	0	983564288	60	4153
2026-01-15 05:34:28.03	21.44	18.12	-47.0	-48.2	15.0	0.00e+00	0	28	0	1006632960	60	4054
2026-01-15 05:34:32.02	20.79	18.47	-46.9	-48.0	15.0	0.00e+00	0	28	0	1028653056	60	4002
2026-01-15 05:34:36.02	20.12	18.82	-46.9	-48.0	15.1	0.00e+00	0	28	0	1051721728	60	3976
2026-01-15 05:34:40.02	19.43	19.17	-46.9	-48.0	15.1	0.00e+00	0	28	0	1073741824	60	3965
2026-01-15 05:34:44.02	18.73	19.52	-47.2	-48.3	15.0	0.00e+00	0	28	0	1096810496	60	4122
2026-01-15 05:34:48.01	18.01	19.88	-46.9	-48.0	15.1	0.00e+00	0	28	0	1118830592	60	3993
2026-01-15 05:34:51.99	17.28	20.23	-47.1	-48.3	14.9	0.00e+00	0	28	0	1140850688	59	4359
2026-01-15 05:34:55.97	16.52	20.58	-47.1	-48.2	14.9	0.00e+00	0	28	0	1163919360	59	4320
2026-01-15 05:34:59.95	15.76	20.93	-47.0	-48.1	14.9	0.00e+00	0	28	0	1185939456	59	4278
2026-01-15 05:35:03.94	14.97	21.28	-47.1	-48.2	14.9	0.00e+00	0	28	0	1207959552	59	4337
2026-01-15 05:35:07.94	14.16	21.63	-46.9	-48.0	15.0	0.00e+00	0	28	0	1231028224	59	4219
2026-01-15 05:35:11.94	13.33	21.98	-46.9	-48.0	15.0	0.00e+00	0	28	0	1253048320	59	4242
2026-01-15 05:35:15.94	12.49	22.33	-46.6	-47.7	15.1	0.00e+00	0	28	0	1276116992	59	4094
2026-01-15 05:35:19.93	11.62	22.67	-46.6	-47.8	15.1	0.00e+00	0	28	0	1298137088	59	4104
2026-01-15 05:35:23.90	10.74	23.01	-46.5	-47.6	15.1	0.00e+00	0	28	0	1320157184	59	4019
2026-01-15 05:35:27.90	9.84	23.35	-46.3	-47.4	15.2	0.00e+00	0	28	0	1343225856	59	3953
2026-01-15 05:35:31.88	8.92	23.69	-46.3	-47.4	15.2	0.00e+00	0	28	0	1365245952	59	3954
2026-01-15 05:35:35.90	7.97	24.02	-46.3	-47.4	15.2	0.00e+00	0	28	0	1388314624	59	3945
2026-01-15 05:35:39.89	7.00	24.35	-46.4	-47.5	15.2	0.00e+00	0	28	0	1410334720	59	3971
2026-01-15 05:35:43.89	6.02	24.67	-46.6	-47.7	15.1	0.00e+00	0	28	0	1433403392	59	4071
2026-01-15 05:35:47.88	5.01	24.99	-46.3	-47.4	15.2	0.00e+00	0	28	0	1455423488	59	3924
2026-01-15 05:35:51.86	3.99	25.30	-46.3	-47.4	15.2	0.00e+00	0	28	0	1478492160	59	3945
2026-01-15 05:35:55.83	2.95	25.60	-46.2	-47.3	15.2	0.00e+00	0	28	0	1500512256	59	3907
2026-01-15 05:35:59.82	1.89	25.90	-46.1	-47.1	15.1	0.00e+00	0	28	0	1522532352	58	4050
2026-01-15 05:36:03.83	0.80	26.19	-46.1	-47.2	15.1	0.00e+00	0	28	0	1545601024	58	4069
2026-01-15 05:36:07.82	359.69	26.47	-46.2	-47.3	15.1	0.00e+00	0	28	0	1567621120	58	4105
2026-01-15 05:36:11.83	358.56	26.74	-46.1	-47.1	15.1	0.00e+00	0	28	0	1590689792	58	4048
2026-01-15 05:36:15.83	357.42	27.00	-46.3	-47.4	15.1	0.00e+00	0	28	0	1612709888	58	4168
2026-01-15 05:36:19.82	356.25	27.25	-46.1	-47.2	15.1	0.00e+00	0	28	0	1634729984	58	4085
2026-01-15 05:36:23.81	355.07	27.49	-46.1	-47.2	15.1	0.00e+00	0	28	0	1657798656	58	4056
2026-01-15 05:36:27.79	353.88	27.72	-45.9	-47.0	15.2	0.00e+00	0	28	0	1679818752	58	3961
2026-01-15 05:36:31.78	352.66	27.93	-45.9	-46.9	15.2	0.00e+00	0	28	0	1702887424	58	3950
2026-01-15 05:36:35.78	351.43	28.13	-46.0	-47.0	15.2	0.00e+00	0	28	0	1724907520	58	3999
2026-01-15 05:36:39.79	350.18	28.32	-45.9	-46.9	15.2	0.00e+00	0	28	0	1747976192	58	3953
2026-01-15 05:36:43.79	348.91	28.50	-45.6	-46.7	15.2	0.00e+00	0	28	0	1769996288	57	4055
2026-01-15 05:36:47.77	347.64	28.66	-45.7	-46.8	15.1	0.00e+00	0	28	0	1792016384	57	4105
2026-01-15 05:36:51.77	346.35	28.80	-45.5	-46.5	15.2	0.00e+00	0	28	0	1815085056	57	3998
2026-01-15 05:36:55.74	345.06	28.93	-45.4	-46.5	15.2	0.00e+00	0	28	0	1837105152	57	3978
2026-01-15 05:36:59.72	343.76	29.04	-45.6	-46.6	15.2	0.00e+00	0	28	0	1860173824	57	4050
2026-01-15 05:37:03.71	342.44	29.14	-45.3	-46.3	15.3	0.00e+00	0	28	0	1882193920	57	3881
2026-01-15 05:37:07.69	341.12	29.22	-45.4	-46.4	15.2	0.00e+00	0	28	0	1904214016	57	3946
2026-01-15 05:37:11.68	339.79	29.28	-45.3	-46.3	15.3	0.00e+00	0	28	0	1927282688	57	3898
2026-01-15 05:37:15.68	338.45	29.33	-45.7	-46.8	15.1	0.00e+00	0	28	0	1949302784	57	4099
2026-01-15 05:37:19.66	337.12	29.36	-45.4	-46.5	15.2	0.00e+00	0	28	0	1972371456	57	3979
2026-01-15 05:37:23.66	335.78	29.37	-45.3	-46.3	15.3	0.00e+00	0	28	0	1994391552	57	3902
2026-01-15 05:37:27.66	334.44	29.36	-45.2	-46.2	15.3	0.00e+00	0	28	0	2016411648	57	3862
2026-01-15 05:37:31.65	333.10	29.34	-45.4	-46.4	15.2	0.00e+00	0	28	0	2039480320	57	3943
2026-01-15 05:37:35.63	331.77	29.30	-45.4	-46.4	15.3	0.00e+00	0	28	0	2061500416	57	3935
2026-01-15 05:37:39.62	330.44	29.24	-45.5	-46.5	15.2	0.00e+00	0	28	0	2084569088	57	3995
2026-01-15 05:37:43.62	329.11	29.16	-45.4	-46.4	15.2	0.00e+00	0	28	0	2106589184	57	3934
2026-01-15 05:37:47.62	327.79	29.07	-45.5	-46.6	15.2	0.00e+00	0	28	0	2128609280	57	4010
2026-01-15 05:37:51.61	326.48	28.96	-45.1	-46.1	15.2	0.00e+00	0	28	0	2151677952	56	4028
2026-01-15 05:37:55.61	325.17	28.83	-45.3	-46.3	15.1	0.00e+00	0	28	0	2173698048	56	4117
2026-01-15 05:37:59.61	323.88	28.69	-45.5	-46.5	15.1	0.00e+00	0	28	0	2196766720	56	4226
2026-01-15 05:38:03.61	322.60	28.53	-45.5	-46.6	15.1	0.00e+00	0	28	0	2218786816	56	4249
2026-01-15 05:38:07.60	321.33	28.36	-45.5	-46.6	15.1	0.00e+00	0	28	0	2240806912	56	4272
2026-01-15 05:38:11.60	320.08	28.17	-45.5	-46.5	15.1	0.00e+00	0	28	0	2263875584	56	4226
2026-01-15 05:38:15.61	318.84	27.97	-45.8	-46.8	15.0	0.00e+00	0	28	0	2286944256	56	4379
2026-01-15 05:38:19.61	317.62	27.76	-45.6	-46.7	15.1	0.00e+00	0	28	0	2308964352	56	4316
2026-01-15 05:38:23.61	316.41	27.53	-45.7	-46.8	15.1	0.00e+00	0	28	0	2330984448	56	4342
2026-01-15 05:38:27.59	315.23	27.30	-45.7	-46.8	15.0	0.00e+00	0	28	0	2354053120	56	4351
2026-01-15 05:38:31.58	314.06	27.05	-45.8	-46.9	15.0	0.00e+00	0	28	0	2376073216	56	4403
2026-01-15 05:38:35.58	312.91	26.79	-45.6	-46.6	15.1	0.00e+00	0	28	0	2399141888	56	4286
2026-01-15 05:38:39.58	311.78	26.52	-45.7	-46.8	15.1	0.00e+00	0	28	0	2421161984	56	4356
2026-01-15 05:38:43.57	310.67	26.24	-46.0	-47.1	15.1	0.00e+00	0	28	0	2444230656	57	4255
2026-01-15 05:38:47.56	309.58	25.95	-46.1	-47.2	15.0	0.00e+00	0	28	0	2466250752	57	4294
2026-01-15 05:38:51.56	308.50	25.66	-46.1	-47.2	15.0	0.00e+00	0	28	0	2489319424	57	4320
2026-01-15 05:38:55.55	307.45	25.36	-46.3	-47.4	15.0	0.00e+00	0	28	0	2511339520	57	4397
2026-01-15 05:38:59.54	306.42	25.05	-46.3	-47.4	15.0	0.00e+00	0	28	0	2533359616	57	4414
2026-01-15 05:39:03.53	305.41	24.73	-45.9	-47.0	15.1	0.00e+00	0	28	0	2556428288	57	4222
2026-01-15 05:39:07.52	304.42	24.41	-46.2	-47.3	15.0	0.00e+00	0	28	0	2578448384	57	4363
2026-01-15 05:39:11.52	303.45	24.08	-46.4	-47.5	15.0	0.00e+00	0	28	0	2601517056	57	4455
2026-01-15 05:39:15.53	302.50	23.75	-46.2	-47.3	15.0	0.00e+00	0	28	0	2623537152	57	4360
2026-01-15 05:39:19.53	301.57	23.41	-46.3	-47.4	15.0	0.00e+00	0	28	0	2645557248	57	4423
2026-01-15 05:39:23.52	300.66	23.07	-46.3	-47.4	15.0	0.00e+00	0	28	0	2668625920	58	4168
2026-01-15 05:39:27.52	299.77	22.73	-46.7	-47.8	15.0	0.00e+00	0	28	0	2690646016	58	4360
2026-01-15 05:39:31.51	298.90	22.39	-46.9	-48.0	15.0	0.00e+00	0	28	0	2713714688	59	4240
2026-01-15 05:39:35.52	298.04	22.04	-46.9	-48.0	15.0	0.00e+00	0	28	0	2735734784	59	4209
2026-01-15 05:39:39.51	297.21	21.69	-47.0	-48.1	15.0	0.00e+00	0	28	0	2758803456	59	4274
2026-01-15 05:39:43.52	296.40	21.34	-46.8	-47.9	15.0	0.00e+00	0	28	0	2780823552	59	4162
2026-01-15 05:39:47.52	295.60	20.98	-47.0	-48.2	15.0	0.00e+00	0	28	0	2803892224	59	4299
2026-01-15 05:39:51.52	294.83	20.63	-47.1	-48.2	14.9	0.00e+00	0	28	0	2825912320	59	4330
2026-01-15 05:39:55.52	294.07	20.28	-47.1	-48.3	14.9	0.00e+00	0	28	0	2848980992	59	4347
2026-01-15 05:39:59.49	293.33	19.93	-46.9	-48.0	15.0	0.00e+00	0	28	0	2871001088	59	4210
2026-01-15 05:40:03.46	292.61	19.57	-47.1	-48.3	14.9	0.00e+00	0	28	0	2893021184	59	4344
2026-01-15 05:40:07.45	291.91	19.22	-47.2	-48.3	14.9	0.00e+00	0	28	0	2915041280	59	4387
2026-01-15 05:40:11.44	291.22	18.87	-47.0	-48.1	15.0	0.00e+00	0	28	0	2938109952	60	4049
2026-01-15 05:40:15.44	290.54	18.52	-47.2	-48.3	15.0	0.00e+00	0	28	0	2960130048	60	4144
2026-01-15 05:40:19.43	289.88	18.17	-47.2	-48.4	14.9	0.00e+00	0	28	0	2983198720	60	4149
2026-01-15 05:40:23.42	289.24	17.82	-47.2	-48.3	15.0	0.00e+00	0	28	0	3005218816	60	4124
2026-01-15 05:40:27.41	288.61	17.47	-47.2	-48.4	15.0	0.00e+00	0	28	0	3028287488	60	4146
2026-01-15 05:40:31.41	288.00	17.12	-47.5	-48.7	14.9	0.00e+00	0	28	0	3050307584	60	4300
2026-01-15 05:40:35.40	287.40	16.78	-47.7	-48.9	14.8	0.00e+00	0	28	0	3072327680	60	4412
2026-01-15 05:40:39.39	286.81	16.43	-47.7	-48.9	14.8	0.00e+00	0	28	0	3095396352	60	4420
2026-01-15 05:40:43.37	286.24	16.09	-48.4	-49.2	14.7	0.00e+00	0	28	0	3117416448	61	4336
2026-01-15 05:40:47.39	285.68	15.75	-48.0	-49.2	14.8	0.00e+00	0	28	0	3140485120	61	4332
2026-01-15 05:40:51.39	285.13	15.41	-48.2	-49.4	14.7	0.00e+00	0	28	0	3162505216	61	4403
2026-01-15 05:40:55.39	284.59	15.07	-48.2	-49.4	14.7	0.00e+00	0	28	0	3185573888	61	4404
2026-01-15 05:40:59.38	284.07	14.74	-48.2	-49.4	14.7	0.00e+00	0	28	0	3207593984	61	4405
2026-01-15 05:41:03.35	283.56	14.41	-48.2	-49.4	14.7	0.00e+00	0	28	0	3229614080	61	4431
2026-01-15 05:41:07.34	283.07	14.08	-48.1	-49.3	14.7	0.00e+00	0	28	0	3252682752	61	4353
2026-01-15 05:41:11.33	282.58	13.75	-48.3	-49.5	14.7	0.00e+00	0	28	0	3274702848	61	4452
2026-01-15 05:41:15.34	282.10	13.43	-48.5	-49.8	14.7	0.00e+00	0	28	0	3297771520	62	4346
2026-01-15 05:41:19.33	281.63	13.11	-48.6	-49.8	14.6	0.00e+00	0	28	0	3319791616	62	4372
2026-01-15 05:41:23.34	281.18	12.78	-48.6	-49.9	14.6	0.00e+00	0	28	0	3342860288	62	4408
2026-01-15 05:41:27.33	280.73	12.47	-48.7	-50.0	14.6	0.00e+00	0	28	0	3364880384	62	4461
2026-01-15 05:41:31.33	280.29	12.15	-48.7	-49.9	14.7	0.00e+00	0	28	0	3386900480	63	4190
2026-01-15 05:41:35.33	279.87	11.84	-48.6	-49.8	14.7	0.00e+00	0	28	0	3409969152	63	4137
2026-01-15 05:41:39.32	279.45	11.53	-48.9	-50.1	14.6	0.00e+00	0	28	0	3431989248	63	4281
2026-01-15 05:41:43.30	279.04	11.22	-49.1	-50.4	14.5	0.00e+00	0	28	0	3455057920	63	4396
2026-01-15 05:41:47.29	278.64	10.91	-49.0	-50.3	14.5	0.00e+00	0	28	0	3477078016	63	4381
2026-01-15 05:41:51.30	278.25	10.61	-49.0	-50.3	14.5	0.00e+00	0	28	0	3499098112	63	4364
2026-01-15 05:41:55.30	277.87	10.31	-49.1	-50.4	14.5	0.00e+00	0	28	0	3522166784	63	4436
2026-01-15 05:41:59.27	277.49	10.01	-49.3	-50.7	14.4	0.00e+00	0	28	0	3544186880	63	4548
2026-01-15 05:42:03.25	277.13	9.72	-49.4	-50.7	14.4	0.00e+00	0	28	0	3567255552	63	4577
2026-01-15 05:42:07.24	276.77	9.42	-49.4	-50.7	14.4	0.00e+00	0	28	0	3589275648	64	4332
2026-01-15 05:42:11.23	276.42	9.13	-49.4	-50.7	14.4	0.00e+00	0	28	0	3612344320	64	4330
2026-01-15 05:42:15.22	276.07	8.84	-49.4	-50.8	14.4	0.00e+00	0	28	0	3634364416	64	4346
2026-01-15 05:42:19.20	275.73	8.56	-49.4	-50.8	14.4	0.00e+00	0	28	0	3656384512	64	4367
2026-01-15 05:42:23.21	275.40	8.27	-49.6	-51.0	14.3	0.00e+00	0	28	0	3679453184	64	4444
2026-01-15 05:42:27.20	275.08	7.99	-50.1	-51.5	14.1	0.00e+00	0	28	0	3701473280	65	4468
2026-01-15 05:42:31.18	274.76	7.71	-49.9	-51.3	14.2	0.00e+00	0	28	0	3724541952	65	4357
2026-01-15 05:42:35.17	274.45	7.43	-49.6	-51.0	14.3	0.00e+00	0	28	0	3746562048	65	4239
2026-01-15 05:42:39.16	274.14	7.16	-49.5	-50.9	14.4	0.00e+00	0	28	0	3768582144	65	4153
2026-01-15 05:42:43.16	273.84	6.88	-50.2	-51.6	14.0	0.00e+00	0	28	0	3791650816	65	4544
2026-01-15 05:42:47.16	273.55	6.61	-50.1	-51.6	14.0	0.00e+00	0	28	0	3813670912	65	4525
2026-01-15 05:42:51.18	273.26	6.34	-50.3	-51.8	14.0	0.00e+00	0	28	0	3836739584	66	4387
2026-01-15 05:42:55.17	272.97	6.07	-50.7	-52.3	13.8	0.00e+00	0	28	0	3858759680	66	4616
2026-01-15 05:42:59.15	272.70	5.81	-50.6	-52.2	13.8	0.00e+00	0	28	0	3880779776	66	4570
2026-01-15 05:43:03.14	272.42	5.55	-50.5	-52.1	13.9	0.00e+00	0	28	0	3903848448	66	4522
2026-01-15 05:43:07.13	272.16	5.28	-50.7	-52.4	13.7	0.00e+00	0	28	0	3925868544	66	4655
2026-01-15 05:43:11.11	271.89	5.03	-50.8	-52.5	13.7	0.00e+00	0	28	0	3948937216	67	4467
2026-01-15 05:43:15.08	271.64	4.77	-59.7	-72.8	3.8	8.46e-01	0	28	104	3952082944	84	17306
2026-01-15 05:43:19.08	271.39	4.51	-60.1	-73.2	3.8	8.46e-01	0	28	104	3952082944	85	17102
2026-01-15 05:43:23.08	271.14	4.26	-60.3	-73.4	3.8	8.46e-01	0	28	104	3952082944	85	17641
2026-01-15 05:43:27.09	270.89	4.01	-60.5	-73.6	3.8	8.45e-01	0	28	104	3952082944	86	17000
2026-01-15 05:43:31.10	270.65	3.76	-60.7	-73.8	3.8	8.45e-01	0	28	104	3952082944	86	17283
2026-01-15 05:43:35.11	270.41	3.51	-60.6	-73.7	3.8	8.46e-01	0	28	104	3952082944	86	17096
2026-01-15 05:43:39.09	270.18	3.26	-60.5	-73.5	3.8	8.45e-01	0	28	104	3952082944	86	16887
2026-01-15 05:43:43.08	269.96	3.02	-60.4	-73.5	3.8	8.45e-01	0	28	104	3952082944	86	16787
2026-01-15 05:43:47.09	269.73	2.78	-60.4	-73.5	3.8	8.46e-01	0	28	104	3952082944	86	16799
2026-01-15 05:43:51.09	269.51	2.53	-60.4	-73.5	3.9	8.46e-01	0	28	104	3952082944	86	16736
2026-01-15 05:43:55.10	269.30	2.29	-60.4	-73.5	3.8	8.46e-01	0	28	104	3952082944	86	16719
2026-01-15 05:43:59.10	269.09	2.06	-60.3	-73.4	3.8	8.47e-01	0	28	104	3952082944	86	16605

#Closed at: 2026-01-15 05:44:02
#Recorded file [3952 MB]: D:/lorett/data/31004_260115_083048.dat