passes_logs/2026/01/15/R3.2S_Murmansk/R3.2S_Murmansk__20260115_085856_NOAA_21_JPSS-2_rec.log

#Pass ID: 20260115_085856_NOAA 21 (JPSS-2)
#Satellite: NOAA 21 (JPSS-2)
#Configuration: NOAA-21
#almurnet v.1.7.20251203
#Start time: 2026-01-15 08:58:57

#Version: 2.2.20231116
#Station: R3.2S_Murmansk
#Location: 33.079688 lon 68.888172 lat
#TLE: 1 54234U 22150A   26014.58979933  .00000039  00000+0  39403-4 0  9998
#TLE: 2 54234  98.7497 315.4945 0000653 294.6373  65.4735 14.19534652164756

#Time	Az	El	Level	Level2	SNR	BER	BlckErr	Temp	State	Recorded	gain1	gain2
2026-01-15 08:58:57.94	138.83	2.11	-58.1	-71.9	3.8	1.49e+00	0	26	0	0	81	18604
2026-01-15 08:59:01.98	138.79	2.37	-58.1	-71.9	3.8	1.49e+00	0	26	104	0	81	18646
2026-01-15 08:59:06.02	138.74	2.63	-58.1	-71.9	3.8	1.49e+00	0	26	104	0	81	18527
2026-01-15 08:59:10.05	138.69	2.90	-58.1	-71.9	3.8	1.49e+00	0	26	104	0	81	18576
2026-01-15 08:59:14.09	138.64	3.16	-58.1	-71.8	3.8	1.49e+00	0	26	104	0	81	18377
2026-01-15 08:59:18.12	138.59	3.43	-57.9	-70.1	3.8	1.49e+00	0	27	104	0	81	15052
2026-01-15 08:59:22.16	138.54	3.71	-57.7	-66.6	4.8	1.05e+00	0	27	104	0	81	10113
2026-01-15 08:59:26.20	138.49	3.98	-57.4	-65.2	5.6	4.81e-01	0	27	0	9437184	80	9098
2026-01-15 08:59:30.22	138.43	4.26	-56.6	-61.9	8.1	4.77e-02	0	27	0	22020096	79	6588
2026-01-15 08:59:34.25	138.38	4.54	-54.4	-57.4	11.5	2.59e-05	0	27	0	34603008	75	4936
2026-01-15 08:59:38.29	138.32	4.83	-52.9	-55.1	12.8	0.00e+00	0	27	0	47185920	71	4764
2026-01-15 08:59:42.32	138.26	5.11	-55.0	-58.2	11.1	4.96e-03	0	27	0	59768832	76	5158
2026-01-15 08:59:46.35	138.21	5.40	-55.2	-58.8	10.4	1.76e-02	0	27	0	72351744	77	5199
2026-01-15 08:59:50.38	138.14	5.70	-52.5	-54.5	13.2	0.00e+00	0	27	0	84934656	71	4469
2026-01-15 08:59:54.42	138.08	5.99	-52.5	-54.5	13.3	0.00e+00	0	27	0	97517568	71	4454
2026-01-15 08:59:58.46	138.02	6.30	-52.2	-54.1	13.4	0.00e+00	0	27	0	110100480	70	4503
2026-01-15 09:00:02.50	137.95	6.60	-52.2	-54.0	13.5	0.00e+00	0	27	0	122683392	70	4488
2026-01-15 09:00:06.52	137.89	6.91	-52.0	-53.8	13.6	0.00e+00	0	27	0	135266304	70	4350
2026-01-15 09:00:10.56	137.82	7.22	-52.0	-53.7	13.7	0.00e+00	0	27	0	147849216	70	4336
2026-01-15 09:00:14.58	137.75	7.53	-51.7	-53.4	13.9	0.00e+00	0	27	0	160432128	70	4182
2026-01-15 09:00:18.61	137.67	7.85	-51.8	-53.6	13.8	0.00e+00	0	27	0	173015040	70	4244
2026-01-15 09:00:22.64	137.60	8.17	-52.0	-53.7	13.7	0.00e+00	0	27	0	185597952	70	4331
2026-01-15 09:00:26.67	137.52	8.50	-51.7	-53.4	13.8	0.00e+00	0	27	0	198180864	69	4433
2026-01-15 09:00:30.71	137.45	8.83	-51.5	-53.2	14.0	0.00e+00	0	27	0	210763776	69	4299
2026-01-15 09:00:34.74	137.37	9.16	-51.4	-53.0	14.0	0.00e+00	0	27	0	223346688	69	4237
2026-01-15 09:00:38.77	137.28	9.50	-51.4	-53.0	14.1	0.00e+00	0	27	0	235929600	69	4198
2026-01-15 09:00:42.81	137.20	9.85	-51.3	-52.8	14.1	0.00e+00	0	27	0	248512512	69	4135
2026-01-15 09:00:46.84	137.11	10.20	-51.1	-52.7	14.1	0.00e+00	0	27	0	261095424	68	4300
2026-01-15 09:00:50.88	137.02	10.55	-51.1	-52.6	14.1	0.00e+00	0	27	0	273678336	68	4285
2026-01-15 09:00:54.92	136.93	10.91	-51.0	-52.5	14.2	0.00e+00	0	27	0	286261248	68	4207
2026-01-15 09:00:58.95	136.83	11.28	-50.9	-52.4	14.2	0.00e+00	0	27	0	298844160	68	4172
2026-01-15 09:01:02.99	136.74	11.65	-51.0	-52.5	14.2	0.00e+00	0	27	0	312475648	68	4196
2026-01-15 09:01:07.00	136.64	12.02	-50.4	-51.8	14.4	0.00e+00	0	27	0	324009984	67	4115
2026-01-15 09:01:11.04	136.53	12.40	-50.4	-51.8	14.4	0.00e+00	0	27	0	336592896	67	4135
2026-01-15 09:01:15.07	136.43	12.79	-50.1	-51.5	14.4	0.00e+00	0	27	0	349175808	66	4233
2026-01-15 09:01:19.10	136.32	13.18	-50.2	-51.6	14.4	0.00e+00	0	27	0	361758720	66	4271
2026-01-15 09:01:23.14	136.20	13.58	-50.2	-51.6	14.4	0.00e+00	0	27	0	375390208	66	4250
2026-01-15 09:01:27.17	136.09	13.99	-50.2	-51.6	14.4	0.00e+00	0	27	0	386924544	66	4280
2026-01-15 09:01:31.20	135.97	14.40	-50.1	-51.5	14.4	0.00e+00	0	28	0	400556032	66	4220
2026-01-15 09:01:35.21	135.85	14.82	-50.1	-51.5	14.4	0.00e+00	0	27	0	412090368	66	4217
2026-01-15 09:01:39.25	135.72	15.24	-50.1	-51.4	14.4	0.00e+00	0	27	0	425721856	66	4186
2026-01-15 09:01:43.28	135.59	15.68	-50.1	-51.4	14.5	0.00e+00	0	27	0	437256192	66	4181
2026-01-15 09:01:47.30	135.45	16.12	-50.2	-51.6	14.4	0.00e+00	0	28	0	450887680	66	4273
2026-01-15 09:01:51.34	135.31	16.57	-50.2	-51.6	14.4	0.00e+00	0	28	0	463470592	66	4244
2026-01-15 09:01:55.37	135.16	17.03	-50.2	-51.6	14.4	0.00e+00	0	28	0	476053504	66	4255
2026-01-15 09:01:59.40	135.01	17.49	-50.2	-51.5	14.4	0.00e+00	0	27	0	488636416	66	4219
2026-01-15 09:02:03.44	134.86	17.97	-50.1	-51.4	14.5	0.00e+00	0	28	0	501219328	66	4182
2026-01-15 09:02:07.47	134.70	18.45	-50.1	-51.5	14.5	0.00e+00	0	28	0	513802240	66	4214
2026-01-15 09:02:11.50	134.53	18.95	-50.1	-51.4	14.5	0.00e+00	0	28	0	526385152	66	4163
2026-01-15 09:02:15.54	134.36	19.45	-50.0	-51.4	14.5	0.00e+00	0	28	0	538968064	66	4151
2026-01-15 09:02:19.58	134.18	19.96	-50.0	-51.4	14.5	0.00e+00	0	28	0	551550976	66	4156
2026-01-15 09:02:23.62	133.99	20.49	-49.9	-51.2	14.6	0.00e+00	0	28	0	564133888	66	4088
2026-01-15 09:02:27.65	133.80	21.02	-49.6	-50.9	14.6	0.00e+00	0	28	0	576716800	65	4173
2026-01-15 09:02:31.68	133.60	21.57	-49.5	-50.8	14.6	0.00e+00	0	28	0	589299712	65	4111
2026-01-15 09:02:35.71	133.39	22.13	-49.1	-50.3	14.7	0.00e+00	0	28	0	601882624	64	4119
2026-01-15 09:02:39.75	133.18	22.70	-48.8	-50.0	14.8	0.00e+00	0	28	0	614465536	64	3998
2026-01-15 09:02:43.79	132.95	23.28	-48.6	-49.8	14.8	0.00e+00	0	28	0	627048448	63	4122
2026-01-15 09:02:47.81	132.72	23.87	-48.6	-49.7	14.8	0.00e+00	0	28	0	639631360	63	4095
2026-01-15 09:02:51.85	132.48	24.48	-48.8	-50.0	14.7	0.00e+00	0	28	0	652214272	63	4194
2026-01-15 09:02:55.88	132.22	25.11	-49.0	-50.2	14.7	0.00e+00	0	28	0	664797184	63	4293
2026-01-15 09:02:59.92	131.96	25.74	-49.0	-50.3	14.6	0.00e+00	0	28	0	677380096	63	4346
2026-01-15 09:03:03.95	131.69	26.39	-49.4	-50.6	14.5	0.00e+00	0	28	0	689963008	63	4533
2026-01-15 09:03:07.98	131.40	27.06	-49.7	-51.0	14.5	0.00e+00	0	28	0	702545920	64	4447
2026-01-15 09:03:12.01	131.10	27.74	-49.9	-51.3	14.5	0.00e+00	0	28	0	715128832	65	4342
2026-01-15 09:03:16.03	130.78	28.44	-50.1	-51.5	14.4	0.00e+00	0	28	0	727711744	65	4446
2026-01-15 09:03:20.07	130.45	29.16	-50.0	-51.3	14.5	0.00e+00	0	28	0	740294656	65	4347
2026-01-15 09:03:24.11	130.11	29.89	-49.8	-51.1	14.5	0.00e+00	0	28	0	752877568	65	4265
2026-01-15 09:03:28.14	129.75	30.64	-49.5	-50.8	14.7	0.00e+00	0	28	0	765460480	65	4105
2026-01-15 09:03:32.18	129.37	31.41	-49.4	-50.6	14.7	0.00e+00	0	28	0	778043392	65	4021
2026-01-15 09:03:36.21	128.97	32.20	-49.5	-50.7	14.7	0.00e+00	0	28	0	790626304	65	4085
2026-01-15 09:03:40.24	128.55	33.01	-50.1	-51.4	14.4	0.00e+00	0	28	0	803209216	65	4411
2026-01-15 09:03:44.28	128.11	33.84	-50.2	-51.5	14.4	0.00e+00	0	28	0	815792128	65	4461
2026-01-15 09:03:48.32	127.64	34.69	-50.3	-51.7	14.4	0.00e+00	0	28	0	828375040	65	4559
2026-01-15 09:03:52.35	127.15	35.56	-51.4	-52.9	14.0	0.00e+00	0	28	0	840957952	67	4686
2026-01-15 09:03:56.39	126.63	36.45	-52.0	-53.6	14.0	0.00e+00	0	28	0	853540864	69	4530
2026-01-15 09:04:00.41	126.08	37.36	-52.0	-53.6	14.0	0.00e+00	0	28	0	866123776	69	4519
2026-01-15 09:04:04.45	125.50	38.30	-52.1	-53.7	13.9	0.00e+00	0	28	0	878706688	69	4575
2026-01-15 09:04:08.48	124.88	39.26	-51.5	-52.9	14.3	0.00e+00	0	28	0	891289600	69	4173
2026-01-15 09:04:12.51	124.22	40.24	-51.5	-53.0	14.3	0.00e+00	0	28	0	903872512	69	4199
2026-01-15 09:04:16.54	123.52	41.24	-51.2	-52.7	14.4	0.00e+00	0	28	0	916455424	69	4052
2026-01-15 09:04:20.57	122.78	42.27	-51.7	-53.2	14.2	0.00e+00	0	28	0	929038336	69	4294
2026-01-15 09:04:24.60	121.98	43.32	-52.4	-54.0	13.8	0.00e+00	0	28	0	941621248	69	4732
2026-01-15 09:04:28.64	121.13	44.40	-52.9	-54.7	13.7	0.00e+00	0	28	0	954204160	71	4549
2026-01-15 09:04:32.68	120.21	45.49	-52.7	-54.3	13.8	0.00e+00	0	28	0	966787072	71	4368
2026-01-15 09:04:36.71	119.24	46.61	-52.3	-53.9	14.1	0.00e+00	0	28	0	979369984	71	4170
2026-01-15 09:04:40.74	118.18	47.75	-52.2	-53.7	14.0	0.00e+00	0	28	0	991952896	70	4326
2026-01-15 09:04:44.78	117.04	48.91	-51.3	-52.7	14.4	0.00e+00	0	28	0	1004535808	69	4069
2026-01-15 09:04:48.81	115.82	50.08	-52.0	-53.5	14.0	0.00e+00	0	28	0	1017118720	69	4482
2026-01-15 09:04:52.84	114.49	51.27	-51.6	-53.0	14.3	0.00e+00	0	28	0	1030750208	69	4227
2026-01-15 09:04:56.88	113.05	52.48	-51.2	-52.5	14.3	0.00e+00	0	28	0	1042284544	68	4242
2026-01-15 09:05:00.91	111.49	53.69	-51.3	-52.8	14.3	0.00e+00	0	28	0	1055916032	68	4342
2026-01-15 09:05:04.95	109.79	54.91	-50.9	-52.3	14.5	0.00e+00	0	28	0	1068498944	68	4102
2026-01-15 09:05:08.98	107.94	56.13	-50.0	-51.3	14.6	0.00e+00	0	28	0	1080033280	66	4103
2026-01-15 09:05:13.01	105.92	57.34	-50.0	-51.3	14.6	0.00e+00	0	28	0	1093664768	66	4121
2026-01-15 09:05:17.04	103.71	58.54	-49.9	-51.1	14.7	0.00e+00	0	28	0	1106247680	66	4051
2026-01-15 09:05:21.08	101.28	59.72	-49.3	-50.5	14.8	0.00e+00	0	28	0	1118830592	65	3994
2026-01-15 09:05:25.12	98.63	60.87	-49.5	-50.7	14.7	0.00e+00	0	28	0	1131413504	65	4064
2026-01-15 09:05:29.15	95.73	61.98	-48.6	-49.7	14.9	0.00e+00	0	28	0	1143996416	63	4080
2026-01-15 09:05:33.17	92.58	63.04	-48.9	-50.1	14.7	0.00e+00	0	28	0	1156579328	63	4260
2026-01-15 09:05:37.20	89.12	64.03	-49.3	-50.5	14.7	0.00e+00	0	28	0	1169162240	63	4456
2026-01-15 09:05:41.24	85.37	64.95	-49.2	-50.3	14.8	0.00e+00	0	28	0	1181745152	64	4145
2026-01-15 09:05:45.28	81.30	65.77	-49.3	-50.5	14.7	0.00e+00	0	28	0	1194328064	64	4233
2026-01-15 09:05:49.32	76.95	66.48	-49.1	-50.3	14.8	0.00e+00	0	28	0	1206910976	64	4112
2026-01-15 09:05:53.35	72.34	67.06	-48.9	-50.1	14.8	0.00e+00	0	28	0	1219493888	64	4022
2026-01-15 09:05:57.38	67.49	67.50	-48.8	-50.0	14.8	0.00e+00	0	28	0	1232076800	63	4200
2026-01-15 09:06:01.41	62.48	67.78	-48.9	-50.1	14.7	0.00e+00	0	28	0	1244659712	63	4258
2026-01-15 09:06:05.46	57.33	67.91	-48.8	-49.9	14.8	0.00e+00	0	28	0	1257242624	63	4179
2026-01-15 09:06:09.48	52.20	67.87	-49.4	-50.6	14.7	0.00e+00	0	28	0	1269825536	64	4259
2026-01-15 09:06:13.52	47.11	67.67	-48.6	-49.7	14.9	0.00e+00	0	28	0	1282408448	63	4068
2026-01-15 09:06:17.54	42.18	67.31	-49.0	-50.2	14.7	0.00e+00	0	28	0	1294991360	63	4329
2026-01-15 09:06:21.58	37.42	66.80	-49.9	-51.2	14.6	0.00e+00	0	28	0	1307574272	65	4293
2026-01-15 09:06:25.61	32.94	66.16	-49.5	-50.8	14.7	0.00e+00	0	28	0	1320157184	65	4107
2026-01-15 09:06:29.65	28.72	65.40	-49.1	-50.3	14.6	0.00e+00	0	28	0	1332740096	63	4377
2026-01-15 09:06:33.68	24.81	64.54	-50.2	-51.5	14.4	0.00e+00	0	28	0	1345323008	65	4449
2026-01-15 09:06:37.72	21.19	63.59	-49.9	-51.1	14.6	0.00e+00	0	28	0	1357905920	65	4279
2026-01-15 09:06:41.75	17.88	62.56	-49.8	-51.0	14.5	0.00e+00	0	28	0	1370488832	65	4233
2026-01-15 09:06:45.79	14.84	61.48	-50.5	-51.8	14.4	0.00e+00	0	28	0	1383071744	66	4383
2026-01-15 09:06:49.81	12.07	60.35	-49.2	-50.4	14.9	0.00e+00	0	28	0	1395654656	65	3927
2026-01-15 09:06:53.85	9.52	59.19	-51.9	-53.4	14.1	0.00e+00	0	28	0	1408237568	68	4674
2026-01-15 09:06:57.88	7.21	58.00	-49.5	-50.7	14.7	0.00e+00	0	28	0	1420820480	65	4075
2026-01-15 09:07:01.91	5.09	56.80	-51.8	-53.3	13.9	0.00e+00	0	28	0	1433403392	68	4604
2026-01-15 09:07:05.95	3.15	55.58	-49.3	-50.4	14.8	0.00e+00	0	28	0	1445986304	64	4161
2026-01-15 09:07:09.98	1.37	54.37	-52.2	-53.7	13.9	0.00e+00	0	28	0	1458569216	69	4591
2026-01-15 09:07:14.02	359.74	53.15	-50.9	-52.3	14.5	0.00e+00	0	28	0	1471152128	68	4107
2026-01-15 09:07:18.05	358.24	51.95	-52.3	-53.9	13.8	0.00e+00	0	28	0	1483735040	69	4673
2026-01-15 09:07:22.08	356.85	50.75	-51.5	-52.9	14.3	0.00e+00	0	28	0	1496317952	69	4177
2026-01-15 09:07:26.11	355.58	49.57	-50.6	-51.8	14.5	0.00e+00	0	28	0	1508900864	67	4137
2026-01-15 09:07:30.15	354.39	48.41	-52.6	-54.2	13.7	0.00e+00	0	28	0	1521483776	70	4588
2026-01-15 09:07:34.18	353.30	47.26	-52.2	-53.8	14.0	0.00e+00	0	28	0	1534066688	70	4352
2026-01-15 09:07:38.21	352.28	46.14	-52.5	-54.1	13.9	0.00e+00	0	28	0	1546649600	70	4505
2026-01-15 09:07:42.25	351.33	45.03	-54.2	-56.4	13.0	0.00e+00	0	28	0	1559232512	73	4952
2026-01-15 09:07:46.29	350.45	43.95	-52.4	-53.9	14.1	0.00e+00	0	28	0	1571815424	71	4165
2026-01-15 09:07:50.31	349.63	42.89	-52.6	-54.2	13.9	0.00e+00	0	28	0	1584398336	70	4582
2026-01-15 09:07:54.35	348.86	41.85	-53.2	-55.0	13.7	0.00e+00	0	28	0	1596981248	72	4463
2026-01-15 09:07:58.38	348.13	40.83	-52.3	-53.9	14.0	0.00e+00	0	28	0	1609564160	71	4161
2026-01-15 09:08:02.42	347.46	39.84	-51.4	-52.8	14.4	0.00e+00	0	28	0	1622147072	69	4115
2026-01-15 09:08:06.45	346.82	38.87	-52.0	-53.5	14.1	0.00e+00	0	28	0	1634729984	69	4442
2026-01-15 09:08:10.47	346.22	37.93	-52.7	-54.3	13.8	0.00e+00	0	28	0	1647312896	70	4648
2026-01-15 09:08:14.51	345.65	37.00	-51.8	-53.2	14.3	0.00e+00	0	28	0	1659895808	70	4084
2026-01-15 09:08:18.54	345.12	36.10	-51.3	-52.7	14.4	0.00e+00	0	28	0	1673527296	69	4078
2026-01-15 09:08:22.57	344.61	35.23	-50.8	-52.1	14.5	0.00e+00	0	28	0	1685061632	68	4050
2026-01-15 09:08:26.61	344.13	34.37	-50.8	-52.2	14.4	0.00e+00	0	28	0	1698693120	67	4310
2026-01-15 09:08:30.63	343.68	33.53	-51.2	-52.6	14.2	0.00e+00	0	28	0	1710227456	67	4530
2026-01-15 09:08:34.67	343.25	32.71	-50.3	-51.6	14.6	0.00e+00	0	28	0	1723858944	67	4006
2026-01-15 09:08:38.69	342.84	31.92	-49.4	-50.6	14.8	0.00e+00	0	28	0	1736441856	65	4042
2026-01-15 09:08:42.73	342.45	31.14	-49.8	-51.0	14.6	0.00e+00	0	28	0	1749024768	65	4230
2026-01-15 09:08:46.77	342.08	30.38	-50.1	-51.5	14.5	0.00e+00	0	28	0	1761607680	65	4445
2026-01-15 09:08:50.80	341.73	29.64	-50.3	-51.6	14.4	0.00e+00	0	28	0	1774190592	65	4531
2026-01-15 09:08:54.83	341.40	28.92	-50.2	-51.5	14.4	0.00e+00	0	28	0	1786773504	65	4465
2026-01-15 09:08:58.86	341.08	28.21	-49.7	-50.9	14.6	0.00e+00	0	28	0	1799356416	65	4191
2026-01-15 09:09:02.90	340.77	27.52	-49.1	-50.3	14.7	0.00e+00	0	28	0	1811939328	64	4132
2026-01-15 09:09:06.94	340.47	26.85	-48.9	-50.0	14.8	0.00e+00	0	28	0	1824522240	64	3994
2026-01-15 09:09:10.96	340.20	26.19	-49.2	-50.4	14.7	0.00e+00	0	28	0	1837105152	64	4191
2026-01-15 09:09:14.98	339.93	25.55	-49.5	-50.7	14.6	0.00e+00	0	28	0	1849688064	64	4311
2026-01-15 09:09:19.02	339.67	24.92	-49.7	-51.0	14.5	0.00e+00	0	28	0	1862270976	64	4464
2026-01-15 09:09:23.04	339.42	24.31	-50.1	-51.4	14.5	0.00e+00	0	28	0	1874853888	65	4415
2026-01-15 09:09:27.08	339.19	23.71	-50.0	-51.3	14.5	0.00e+00	0	28	0	1887436800	65	4389
2026-01-15 09:09:31.11	338.96	23.12	-50.1	-51.5	14.4	0.00e+00	0	28	0	1900019712	65	4443
2026-01-15 09:09:35.14	338.74	22.54	-50.1	-51.5	14.4	0.00e+00	0	28	0	1912602624	65	4452
2026-01-15 09:09:39.18	338.53	21.98	-49.8	-51.1	14.5	0.00e+00	0	28	0	1925185536	65	4276
2026-01-15 09:09:43.21	338.33	21.43	-49.8	-51.1	14.5	0.00e+00	0	28	0	1937768448	65	4264
2026-01-15 09:09:47.25	338.13	20.89	-49.7	-51.0	14.6	0.00e+00	0	28	0	1950351360	65	4201
2026-01-15 09:09:51.27	337.95	20.36	-49.6	-50.9	14.6	0.00e+00	0	28	0	1962934272	65	4150
2026-01-15 09:09:55.30	337.77	19.84	-49.5	-50.8	14.7	0.00e+00	0	28	0	1975517184	65	4118
2026-01-15 09:09:59.32	337.59	19.34	-49.4	-50.7	14.7	0.00e+00	0	28	0	1988100096	65	4069
2026-01-15 09:10:03.36	337.42	18.84	-49.4	-50.7	14.7	0.00e+00	0	28	0	2000683008	65	4059
2026-01-15 09:10:07.40	337.26	18.35	-49.5	-50.8	14.6	0.00e+00	0	28	0	2013265920	65	4118
2026-01-15 09:10:11.43	337.10	17.87	-49.7	-50.9	14.6	0.00e+00	0	28	0	2025848832	65	4181
2026-01-15 09:10:15.47	336.95	17.40	-49.8	-51.1	14.5	0.00e+00	0	28	0	2038431744	65	4271
2026-01-15 09:10:19.51	336.81	16.93	-50.0	-51.4	14.4	0.00e+00	0	28	0	2051014656	65	4396
2026-01-15 09:10:23.54	336.66	16.48	-50.2	-51.5	14.4	0.00e+00	0	28	0	2063597568	65	4469
2026-01-15 09:10:27.58	336.53	16.04	-50.4	-51.8	14.3	0.00e+00	0	28	0	2076180480	65	4613
2026-01-15 09:10:31.61	336.40	15.60	-50.5	-51.9	14.3	0.00e+00	0	28	0	2088763392	66	4433
2026-01-15 09:10:35.64	336.27	15.17	-50.7	-52.1	14.2	0.00e+00	0	28	0	2101346304	66	4545
2026-01-15 09:10:39.67	336.14	14.75	-50.9	-52.3	14.1	0.00e+00	0	28	0	2113929216	66	4636
2026-01-15 09:10:43.70	336.02	14.33	-51.1	-52.6	14.1	0.00e+00	0	28	0	2126512128	67	4511
2026-01-15 09:10:47.72	335.91	13.92	-51.1	-52.6	14.1	0.00e+00	0	28	0	2139095040	67	4521
2026-01-15 09:10:51.75	335.80	13.52	-51.1	-52.6	14.1	0.00e+00	0	28	0	2151677952	67	4536
2026-01-15 09:10:55.78	335.69	13.13	-51.1	-52.7	14.0	0.00e+00	0	28	0	2164260864	67	4554
2026-01-15 09:10:59.81	335.58	12.74	-51.0	-52.5	14.1	0.00e+00	0	28	0	2176843776	67	4487
2026-01-15 09:11:03.85	335.48	12.35	-51.0	-52.5	14.1	0.00e+00	0	28	0	2189426688	67	4465
2026-01-15 09:11:07.89	335.38	11.97	-50.9	-52.4	14.2	0.00e+00	0	28	0	2202009600	67	4400
2026-01-15 09:11:11.93	335.28	11.60	-51.0	-52.5	14.1	0.00e+00	0	28	0	2214592512	67	4479
2026-01-15 09:11:15.97	335.19	11.23	-50.9	-52.4	14.1	0.00e+00	0	28	0	2227175424	67	4429
2026-01-15 09:11:20.00	335.09	10.87	-50.8	-52.2	14.2	0.00e+00	0	28	0	2239758336	67	4320
2026-01-15 09:11:24.04	335.01	10.52	-50.8	-52.2	14.2	0.00e+00	0	28	0	2252341248	67	4340
2026-01-15 09:11:28.07	334.92	10.16	-50.9	-52.4	14.1	0.00e+00	0	28	0	2264924160	67	4432
2026-01-15 09:11:32.10	334.84	9.82	-50.9	-52.3	14.2	6.10e-06	0	28	0	2277507072	67	4378
2026-01-15 09:11:36.14	334.75	9.48	-51.1	-52.6	14.0	0.00e+00	0	28	0	2290089984	67	4516
2026-01-15 09:11:40.17	334.67	9.14	-51.1	-52.7	14.0	3.00e-06	0	28	0	2302672896	67	4563
2026-01-15 09:11:44.20	334.60	8.81	-51.6	-53.2	13.9	0.00e+00	0	28	0	2315255808	68	4591
2026-01-15 09:11:48.23	334.52	8.48	-51.4	-52.9	14.0	0.00e+00	0	28	0	2327838720	68	4431
2026-01-15 09:11:52.26	334.45	8.16	-51.5	-53.1	13.9	0.00e+00	0	28	0	2340421632	68	4506
2026-01-15 09:11:56.29	334.38	7.84	-51.6	-53.2	13.8	0.00e+00	0	28	0	2353004544	68	4559
2026-01-15 09:12:00.32	334.31	7.52	-51.7	-53.4	13.7	0.00e+00	0	28	0	2365587456	68	4679
2026-01-15 09:12:04.36	334.24	7.21	-51.9	-53.6	13.6	0.00e+00	0	28	0	2378170368	68	4777
2026-01-15 09:12:08.40	334.18	6.90	-51.9	-53.6	13.7	0.00e+00	0	28	0	2391801856	69	4524
2026-01-15 09:12:12.43	334.11	6.59	-52.1	-53.8	13.6	0.00e+00	0	28	0	2403336192	69	4641
2026-01-15 09:12:16.46	334.05	6.29	-52.0	-53.8	13.6	0.00e+00	0	28	0	2416967680	69	4623
2026-01-15 09:12:20.49	333.99	5.99	-52.3	-54.1	13.5	0.00e+00	0	28	0	2429550592	70	4544
2026-01-15 09:12:24.52	333.93	5.70	-52.5	-54.4	13.3	0.00e+00	0	28	0	2442133504	70	4689
2026-01-15 09:12:28.56	333.88	5.41	-52.7	-54.7	13.1	0.00e+00	0	28	0	2454716416	70	4817
2026-01-15 09:12:32.59	333.82	5.12	-52.6	-54.6	13.2	0.00e+00	0	28	0	2467299328	71	4533
2026-01-15 09:12:36.62	333.77	4.83	-59.4	-73.2	3.8	1.49e+00	0	28	104	2474639360	83	19304
2026-01-15 09:12:40.65	333.71	4.55	-60.2	-74.0	3.8	1.49e+00	0	28	104	2474639360	85	18804
2026-01-15 09:12:44.69	333.66	4.27	-60.4	-74.3	3.8	1.49e+00	0	28	104	2474639360	85	19470
2026-01-15 09:12:48.72	333.61	3.99	-60.5	-74.4	3.8	1.49e+00	0	28	104	2474639360	86	18604
2026-01-15 09:12:52.76	333.56	3.72	-60.6	-74.4	3.8	1.49e+00	0	28	104	2474639360	86	18694
2026-01-15 09:12:56.79	333.51	3.45	-60.5	-74.4	3.8	1.49e+00	0	28	104	2474639360	86	18581
2026-01-15 09:13:00.82	333.47	3.18	-60.5	-74.3	3.8	1.49e+00	0	28	104	2474639360	86	18469
2026-01-15 09:13:04.85	333.42	2.91	-60.4	-74.3	3.8	1.49e+00	0	28	104	2474639360	86	18471
2026-01-15 09:13:08.89	333.38	2.65	-60.4	-74.3	3.8	1.49e+00	0	28	104	2474639360	86	18350
2026-01-15 09:13:12.92	333.33	2.39	-60.4	-74.2	3.8	1.49e+00	0	28	104	2474639360	86	18257
2026-01-15 09:13:16.96	333.29	2.13	-60.4	-74.3	3.8	1.49e+00	0	28	104	2474639360	86	18352
2026-01-15 09:13:20.99	333.25	1.87	-60.3	-74.2	3.8	1.49e+00	0	28	104	2474639360	86	18141

#Closed at: 2026-01-15 09:13:21
#Recorded file [2474 MB]: D:/lorett/data/31004_260115_115857.dat