passes_logs/2026/01/15/R3.2S_Murmansk/R3.2S_Murmansk__20260115_055516_KANOPUS-V_5_rec.log

#Pass ID: 20260115_055516_KANOPUS-V 5
#Satellite: KANOPUS-V 5
#Configuration: KANOPUS-V_8320
#almurnet v.1.7.20251203
#Start time: 2026-01-15 05:55:18

#Version: 2.2.20231116
#Station: R3.2S_Murmansk
#Location: 33.079688 lon 68.888172 lat
#TLE: 1 43876U 18111A   26014.64517351  .00002226  00000+0  96418-4 0  9998
#TLE: 2 43876  97.3685 283.1659 0001742  85.8061 274.3376 15.23434183391418

#Time	Az	El	Level	Level2	SNR	BER	BlckErr	Temp	State	Recorded	gain1	gain2
2026-01-15 05:55:18.12	109.63	2.08	-59.2	-68.9	3.8	7.45e-01	0	26	0	0	83	10495
2026-01-15 05:55:21.10	109.41	2.28	-59.2	-69.0	3.8	7.45e-01	0	26	104	0	83	10539
2026-01-15 05:55:24.11	109.19	2.48	-59.2	-68.9	3.8	7.46e-01	0	26	104	0	83	10515
2026-01-15 05:55:27.10	108.96	2.68	-59.2	-69.0	3.8	7.45e-01	0	26	104	0	83	10575
2026-01-15 05:55:30.10	108.74	2.88	-59.2	-68.9	3.8	7.45e-01	0	27	104	0	83	10493
2026-01-15 05:55:33.09	108.50	3.08	-59.2	-69.0	3.8	7.46e-01	0	27	104	0	83	10534
2026-01-15 05:55:36.09	108.27	3.28	-59.2	-69.0	3.8	7.46e-01	0	27	104	0	83	10537
2026-01-15 05:55:39.09	108.02	3.49	-59.2	-69.0	3.8	7.47e-01	0	27	104	0	83	10538
2026-01-15 05:55:42.09	107.78	3.69	-59.2	-68.9	3.8	7.45e-01	0	27	104	0	83	10522
2026-01-15 05:55:45.10	107.52	3.90	-59.2	-68.8	3.8	7.45e-01	0	27	104	0	83	10348
2026-01-15 05:55:48.10	107.27	4.11	-59.2	-68.8	3.8	7.46e-01	0	27	104	0	83	10353
2026-01-15 05:55:51.09	107.01	4.32	-59.2	-68.7	3.8	7.45e-01	0	27	104	0	83	10291
2026-01-15 05:55:54.10	106.74	4.54	-58.3	-65.2	4.2	7.34e-01	0	27	0	4194304	81	7697
2026-01-15 05:55:57.10	106.47	4.75	-57.6	-63.2	5.0	7.06e-01	0	28	0	50331648	79	6844
2026-01-15 05:56:00.11	106.19	4.97	-57.1	-62.0	5.7	6.82e-01	0	27	0	96468992	78	6298
2026-01-15 05:56:03.10	105.91	5.19	-53.9	-56.9	9.7	6.18e-01	0	27	0	142606336	72	4972
2026-01-15 05:56:06.10	105.62	5.41	-53.6	-56.6	9.8	6.16e-01	0	27	0	171966464	70	5397
2026-01-15 05:56:09.11	105.33	5.64	-52.8	-55.6	10.7	6.11e-01	0	27	0	218103808	70	4776
2026-01-15 05:56:12.12	105.03	5.86	-52.7	-55.4	10.9	6.10e-01	0	27	0	264241152	70	4675
2026-01-15 05:56:15.11	104.72	6.09	-52.9	-55.8	10.5	6.10e-01	0	28	0	310378496	69	5174
2026-01-15 05:56:18.11	104.41	6.32	-52.6	-55.3	10.8	6.11e-01	0	28	0	356515840	69	4921
2026-01-15 05:56:21.09	104.09	6.55	-52.5	-55.2	10.9	6.07e-01	0	27	0	402653184	69	4852
2026-01-15 05:56:24.08	103.77	6.78	-52.5	-55.2	10.9	6.12e-01	0	28	0	448790528	69	4866
2026-01-15 05:56:27.06	103.44	7.01	-52.3	-55.0	11.2	6.10e-01	0	28	0	492830720	69	4710
2026-01-15 05:56:30.05	103.10	7.25	-52.1	-54.7	11.2	6.06e-01	0	28	0	538968064	68	4863
2026-01-15 05:56:33.05	102.76	7.49	-51.6	-54.2	11.7	6.00e-01	0	28	0	585105408	67	4845
2026-01-15 05:56:36.05	102.40	7.73	-51.6	-54.2	11.6	6.06e-01	0	28	0	631242752	67	4870
2026-01-15 05:56:39.04	102.04	7.97	-51.5	-54.1	11.7	6.07e-01	0	28	0	677380096	67	4806
2026-01-15 05:56:42.04	101.67	8.22	-51.5	-54.2	11.7	6.05e-01	0	28	0	723517440	67	4819
2026-01-15 05:56:45.04	101.30	8.47	-51.4	-54.1	11.8	6.08e-01	0	28	0	769654784	67	4764
2026-01-15 05:56:48.05	100.91	8.72	-51.6	-54.2	11.7	6.04e-01	0	28	0	815792128	67	4851
2026-01-15 05:56:50.98	100.52	8.97	-51.3	-53.9	11.9	6.02e-01	0	28	0	861929472	67	4668
2026-01-15 05:56:53.97	100.12	9.22	-51.1	-53.6	12.0	6.03e-01	0	28	0	908066816	66	4807
2026-01-15 05:56:56.96	99.71	9.48	-51.1	-53.7	12.0	6.00e-01	0	28	0	954204160	66	4844
2026-01-15 05:56:59.96	99.29	9.74	-50.9	-53.4	12.2	6.05e-01	0	28	0	1000341504	66	4689
2026-01-15 05:57:02.95	98.86	10.00	-51.0	-53.6	12.2	6.02e-01	0	28	0	1046478848	66	4763
2026-01-15 05:57:05.95	98.42	10.27	-50.8	-53.4	12.3	6.04e-01	0	28	0	1092616192	66	4670
2026-01-15 05:57:08.95	97.97	10.54	-50.5	-53.1	12.4	6.00e-01	0	28	0	1138753536	65	4809
2026-01-15 05:57:11.95	97.51	10.81	-50.5	-53.1	12.4	6.02e-01	0	28	0	1184890880	65	4794
2026-01-15 05:57:14.95	97.04	11.08	-50.5	-53.1	12.4	6.02e-01	0	28	0	1231028224	65	4771
2026-01-15 05:57:17.95	96.55	11.35	-50.3	-52.7	12.6	6.01e-01	0	28	0	1277165568	65	4577
2026-01-15 05:57:20.93	96.06	11.63	-50.2	-52.6	12.7	6.05e-01	0	28	0	1323302912	65	4508
2026-01-15 05:57:23.91	95.56	11.91	-50.0	-52.3	12.7	6.08e-01	0	28	0	1369440256	64	4648
2026-01-15 05:57:26.91	95.04	12.19	-49.8	-52.0	12.9	6.05e-01	0	28	0	1413480448	64	4480
2026-01-15 05:57:29.90	94.51	12.47	-49.7	-52.0	12.9	6.05e-01	0	28	0	1459617792	63	4748
2026-01-15 05:57:32.88	93.97	12.75	-49.5	-51.8	13.0	6.04e-01	0	28	0	1505755136	63	4641
2026-01-15 05:57:35.87	93.42	13.04	-49.5	-51.9	13.0	6.06e-01	0	28	0	1551892480	63	4682
2026-01-15 05:57:38.88	92.85	13.33	-49.4	-51.8	13.1	6.06e-01	0	28	0	1598029824	63	4609
2026-01-15 05:57:41.87	92.27	13.63	-49.3	-51.7	13.2	6.03e-01	0	28	0	1644167168	63	4546
2026-01-15 05:57:44.86	91.67	13.92	-49.3	-51.6	13.2	5.99e-01	0	28	0	1690304512	63	4501
2026-01-15 05:57:47.86	91.06	14.22	-49.1	-51.4	13.2	6.01e-01	0	28	0	1736441856	62	4682
2026-01-15 05:57:50.85	90.43	14.52	-49.0	-51.3	13.3	5.92e-01	0	28	0	1782579200	62	4601
2026-01-15 05:57:53.85	89.79	14.82	-48.8	-51.1	13.4	5.91e-01	0	28	0	1828716544	62	4499
2026-01-15 05:57:56.85	89.13	15.12	-48.7	-51.0	13.3	5.90e-01	0	28	0	1874853888	61	4706
2026-01-15 05:57:59.84	88.46	15.42	-48.6	-50.9	13.4	5.92e-01	0	28	0	1918894080	61	4705
2026-01-15 05:58:02.85	87.77	15.73	-48.6	-50.9	13.4	5.89e-01	0	28	0	1967128576	61	4705
2026-01-15 05:58:05.85	87.06	16.03	-48.4	-50.7	13.5	5.88e-01	0	28	0	2013265920	61	4567
2026-01-15 05:58:08.85	86.33	16.34	-48.4	-50.6	13.6	5.89e-01	0	28	0	2059403264	61	4530
2026-01-15 05:58:11.85	85.59	16.65	-48.3	-50.6	13.6	5.92e-01	0	28	0	2105540608	61	4508
2026-01-15 05:58:14.84	84.83	16.96	-48.1	-50.3	13.6	5.90e-01	0	28	0	2149580800	60	4629
2026-01-15 05:58:17.84	84.05	17.27	-47.9	-50.2	13.7	5.90e-01	0	28	0	2195718144	60	4559
2026-01-15 05:58:20.83	83.25	17.57	-47.8	-50.0	13.8	5.91e-01	0	28	0	2241855488	60	4488
2026-01-15 05:58:23.82	82.43	17.88	-47.9	-50.2	13.6	5.90e-01	0	28	0	2287992832	59	4822
2026-01-15 05:58:26.82	81.60	18.19	-47.9	-50.2	13.6	6.05e-01	0	28	0	2334130176	59	4858
2026-01-15 05:58:29.81	80.74	18.50	-47.9	-50.2	13.6	6.05e-01	0	28	0	2380267520	59	4835
2026-01-15 05:58:32.80	79.86	18.80	-47.9	-50.1	13.6	6.05e-01	0	28	0	2426404864	59	4810
2026-01-15 05:58:35.77	78.97	19.11	-47.9	-50.1	13.6	6.04e-01	0	28	0	2472542208	59	4786
2026-01-15 05:58:38.76	78.05	19.41	-47.9	-50.1	13.6	6.04e-01	0	28	0	2518679552	59	4762
2026-01-15 05:58:41.76	77.11	19.71	-47.8	-50.0	13.7	6.07e-01	0	28	0	2564816896	59	4758
2026-01-15 05:58:44.76	76.15	20.01	-47.8	-50.2	13.7	6.06e-01	0	28	0	2610954240	59	4863
2026-01-15 05:58:47.77	75.16	20.30	-47.4	-49.7	13.9	6.07e-01	0	28	0	2657091584	59	4565
2026-01-15 05:58:50.77	74.15	20.59	-47.3	-49.5	13.9	6.03e-01	0	28	0	2703228928	59	4453
2026-01-15 05:58:53.75	73.13	20.88	-47.6	-49.7	13.8	6.04e-01	0	29	0	2749366272	59	4575
2026-01-15 05:58:56.74	72.08	21.16	-47.6	-49.9	13.8	6.04e-01	0	28	0	2793406464	59	4666
2026-01-15 05:58:59.74	71.01	21.44	-47.7	-50.1	13.7	6.03e-01	0	28	0	2839543808	59	4801
2026-01-15 05:59:02.74	69.91	21.71	-47.6	-49.9	13.8	6.04e-01	0	28	0	2885681152	59	4684
2026-01-15 05:59:05.74	68.80	21.97	-47.4	-49.7	13.9	6.02e-01	0	28	0	2931818496	59	4569
2026-01-15 05:59:08.73	67.66	22.22	-47.5	-49.8	13.8	6.04e-01	0	28	0	2977955840	59	4605
2026-01-15 05:59:11.74	66.50	22.47	-47.6	-49.9	13.8	6.04e-01	0	28	0	3024093184	59	4693
2026-01-15 05:59:14.72	65.33	22.71	-47.6	-49.9	13.8	6.03e-01	0	28	0	3070230528	59	4704
2026-01-15 05:59:17.72	64.13	22.94	-47.3	-49.7	13.9	6.04e-01	0	28	0	3116367872	59	4561
2026-01-15 05:59:20.72	62.91	23.16	-47.4	-49.9	13.9	6.02e-01	0	28	0	3162505216	59	4654
2026-01-15 05:59:23.72	61.67	23.37	-47.4	-49.7	13.9	6.03e-01	0	28	0	3208642560	59	4588
2026-01-15 05:59:26.72	60.41	23.57	-47.4	-49.8	13.9	6.06e-01	0	28	0	3254779904	59	4600
2026-01-15 05:59:29.71	59.14	23.76	-47.6	-49.9	13.8	6.03e-01	0	28	0	3300917248	59	4697
2026-01-15 05:59:32.69	57.86	23.93	-47.6	-49.9	13.8	6.04e-01	0	28	0	3347054592	59	4704
2026-01-15 05:59:35.69	56.56	24.09	-47.8	-50.2	13.7	6.03e-01	0	28	0	3391094784	59	4829
2026-01-15 05:59:38.69	55.24	24.24	-47.7	-50.1	13.7	6.04e-01	0	28	0	3437232128	59	4793
2026-01-15 05:59:41.69	53.90	24.37	-47.8	-50.2	13.7	6.05e-01	0	29	0	3483369472	59	4835
2026-01-15 05:59:44.70	52.55	24.49	-47.9	-50.4	13.6	6.04e-01	0	28	0	3531603968	59	4954
2026-01-15 05:59:47.69	51.20	24.59	-48.0	-50.6	13.6	6.03e-01	0	28	0	3575644160	59	5066
2026-01-15 05:59:50.70	49.83	24.68	-48.0	-50.7	13.5	6.04e-01	0	28	0	3623878656	59	5158
2026-01-15 05:59:53.71	48.45	24.76	-48.3	-51.0	13.4	6.04e-01	0	28	0	3670016000	59	5308
2026-01-15 05:59:56.70	47.08	24.81	-48.2	-51.0	13.4	6.03e-01	0	28	0	3716153344	59	5297
2026-01-15 05:59:59.68	45.70	24.85	-48.4	-51.2	13.4	6.03e-01	0	28	0	3760193536	60	5123
2026-01-15 06:00:02.66	44.32	24.87	-48.2	-51.0	13.5	6.04e-01	0	28	0	3806330880	60	5016
2026-01-15 06:00:05.66	42.94	24.88	-48.2	-51.1	13.5	6.04e-01	0	28	0	3852468224	60	5049
2026-01-15 06:00:08.65	41.55	24.87	-48.1	-50.9	13.6	6.04e-01	0	28	0	3898605568	60	4952
2026-01-15 06:00:11.66	40.16	24.84	-48.2	-51.1	13.5	6.04e-01	0	28	0	3944742912	60	5045
2026-01-15 06:00:14.65	38.78	24.80	-48.4	-51.2	13.4	6.03e-01	0	28	0	3990880256	60	5114
2026-01-15 06:00:17.65	37.41	24.74	-48.3	-51.0	13.5	6.04e-01	0	28	0	4037017600	60	5024
2026-01-15 06:00:20.66	36.03	24.66	-48.3	-51.2	13.4	6.04e-01	0	29	0	4083154944	60	5141
2026-01-15 06:00:23.65	34.67	24.57	-48.2	-51.0	13.5	6.05e-01	0	28	0	4129292288	60	5013
2026-01-15 06:00:26.63	33.33	24.47	-48.5	-51.3	13.3	6.04e-01	0	28	0	4175429632	60	5193
2026-01-15 06:00:29.59	32.01	24.35	-48.4	-51.1	13.4	6.02e-01	0	28	0	4219469824	60	5063
2026-01-15 06:00:32.60	30.67	24.21	-48.3	-50.9	13.5	6.04e-01	0	29	0	4267704320	60	4929
2026-01-15 06:00:35.59	29.36	24.06	-48.4	-51.0	13.5	6.04e-01	0	28	0	4311744512	60	5027
2026-01-15 06:00:38.57	28.07	23.90	-48.2	-50.8	13.6	6.03e-01	0	28	0	4357881856	60	4893
2026-01-15 06:00:41.56	26.79	23.72	-48.2	-50.9	13.6	6.01e-01	0	28	0	4404019200	60	4950
2026-01-15 06:00:44.56	25.52	23.53	-48.3	-51.0	13.5	6.02e-01	0	28	0	4450156544	60	5006
2026-01-15 06:00:47.55	24.27	23.33	-48.1	-50.8	13.6	6.03e-01	0	28	0	4496293888	60	4871
2026-01-15 06:00:50.56	23.04	23.12	-48.2	-51.0	13.5	6.03e-01	0	28	0	4542431232	60	4987
2026-01-15 06:00:53.55	21.83	22.90	-48.2	-50.9	13.5	6.03e-01	0	29	0	4588568576	60	4933
2026-01-15 06:00:56.55	20.63	22.67	-48.3	-50.9	13.5	6.02e-01	0	28	0	4634705920	60	4963
2026-01-15 06:00:59.56	19.46	22.43	-48.3	-50.9	13.5	6.03e-01	0	28	0	4680843264	60	4969
2026-01-15 06:01:02.55	18.31	22.18	-48.5	-51.1	13.4	6.02e-01	0	28	0	4726980608	60	5059
2026-01-15 06:01:05.55	17.18	21.92	-48.3	-50.7	13.6	6.04e-01	0	28	0	4773117952	60	4854
2026-01-15 06:01:08.55	16.07	21.66	-48.5	-51.2	13.4	6.02e-01	0	29	0	4819255296	60	5102
2026-01-15 06:01:11.55	14.98	21.38	-48.5	-51.1	13.4	6.01e-01	0	28	0	4865392640	60	5085
2026-01-15 06:01:14.56	13.91	21.11	-48.4	-51.1	13.4	6.03e-01	0	28	0	4911529984	60	5057
2026-01-15 06:01:17.55	12.87	20.83	-48.4	-51.0	13.4	6.01e-01	0	28	0	4957667328	60	5032
2026-01-15 06:01:20.55	11.85	20.54	-48.4	-51.0	13.4	6.02e-01	0	28	0	5003804672	60	5036
2026-01-15 06:01:23.54	10.86	20.25	-48.6	-51.2	13.3	6.02e-01	0	28	0	5047844864	60	5127
2026-01-15 06:01:26.54	9.88	19.96	-48.6	-51.2	13.3	6.01e-01	0	28	0	5093982208	60	5101
2026-01-15 06:01:29.51	8.93	19.66	-48.6	-51.2	13.3	6.03e-01	0	29	0	5140119552	60	5129
2026-01-15 06:01:32.51	8.00	19.36	-48.6	-51.3	13.3	6.02e-01	0	28	0	5186256896	60	5188
2026-01-15 06:01:35.50	7.09	19.06	-48.6	-51.3	13.3	6.03e-01	0	28	0	5232394240	60	5178
2026-01-15 06:01:38.50	6.19	18.75	-48.8	-51.4	13.2	6.04e-01	0	28	0	5278531584	60	5240
2026-01-15 06:01:41.50	5.32	18.45	-48.7	-51.3	13.2	5.90e-01	0	29	0	5324668928	60	5205
2026-01-15 06:01:44.50	4.47	18.14	-48.8	-51.4	13.2	5.90e-01	0	28	0	5370806272	60	5248
2026-01-15 06:01:47.51	3.64	17.83	-49.0	-51.7	13.1	5.90e-01	0	28	0	5416943616	61	5131
2026-01-15 06:01:50.50	2.83	17.53	-49.0	-51.6	13.2	5.92e-01	0	29	0	5463080960	61	5046
2026-01-15 06:01:53.50	2.03	17.22	-60.4	-70.2	3.8	7.46e-01	0	28	104	5496635392	83	12130
2026-01-15 06:01:56.49	1.26	16.91	-60.5	-70.3	3.8	7.46e-01	0	29	104	5496635392	84	11570
2026-01-15 06:01:59.48	0.51	16.60	-60.5	-70.2	3.8	7.45e-01	0	28	104	5496635392	84	11547
2026-01-15 06:02:02.48	359.77	16.30	-60.5	-70.3	3.8	7.44e-01	0	29	104	5496635392	84	11552
2026-01-15 06:02:05.47	359.06	15.99	-60.5	-70.2	3.8	7.45e-01	0	29	104	5496635392	84	11542
2026-01-15 06:02:08.46	358.36	15.69	-60.5	-70.2	3.8	7.47e-01	0	28	104	5496635392	84	11446
2026-01-15 06:02:11.45	357.67	15.39	-60.4	-70.1	3.8	7.45e-01	0	28	104	5496635392	84	11393
2026-01-15 06:02:14.45	357.01	15.08	-60.4	-70.2	3.8	7.46e-01	0	28	104	5496635392	84	11452
2026-01-15 06:02:17.46	356.35	14.78	-60.4	-70.2	3.8	7.44e-01	0	28	104	5496635392	84	11429
2026-01-15 06:02:20.46	355.71	14.48	-60.4	-70.2	3.8	7.44e-01	0	29	104	5496635392	84	11446
2026-01-15 06:02:23.45	355.10	14.19	-60.4	-70.1	3.8	7.44e-01	0	29	104	5496635392	84	11357
2026-01-15 06:02:26.44	354.49	13.89	-60.4	-70.1	3.8	7.46e-01	0	28	104	5496635392	84	11360
2026-01-15 06:02:29.45	353.90	13.60	-60.4	-70.1	3.8	7.45e-01	0	28	104	5496635392	84	11351
2026-01-15 06:02:32.44	353.32	13.31	-60.3	-70.1	3.8	7.45e-01	0	29	104	5496635392	84	11334
2026-01-15 06:02:35.44	352.76	13.02	-60.3	-70.0	3.8	7.45e-01	0	28	104	5496635392	84	11221
2026-01-15 06:02:38.43	352.21	12.73	-60.3	-70.1	3.8	7.46e-01	0	29	104	5496635392	84	11300
2026-01-15 06:02:41.42	351.67	12.45	-60.3	-70.0	3.8	7.47e-01	0	29	104	5496635392	84	11284
2026-01-15 06:02:44.42	351.15	12.16	-60.3	-70.0	3.8	7.45e-01	0	28	104	5496635392	84	11197
2026-01-15 06:02:47.42	350.63	11.88	-60.2	-70.0	3.8	7.45e-01	0	28	104	5496635392	84	11172
2026-01-15 06:02:50.41	350.13	11.61	-60.2	-69.9	3.8	7.46e-01	0	28	104	5496635392	84	11138
2026-01-15 06:02:53.41	349.64	11.33	-60.2	-69.9	3.8	7.46e-01	0	28	104	5496635392	84	11157
2026-01-15 06:02:56.42	349.16	11.06	-60.2	-69.9	3.8	7.45e-01	0	29	104	5496635392	84	11115
2026-01-15 06:02:59.43	348.69	10.79	-60.1	-69.8	3.8	7.45e-01	0	29	104	5496635392	84	11027
2026-01-15 06:03:02.42	348.24	10.52	-60.1	-69.9	3.8	7.44e-01	0	29	104	5496635392	84	11070
2026-01-15 06:03:05.41	347.80	10.25	-60.2	-69.9	3.8	7.46e-01	0	28	104	5496635392	84	11098
2026-01-15 06:03:08.41	347.36	9.99	-60.1	-69.8	3.8	7.46e-01	0	28	104	5496635392	84	10967
2026-01-15 06:03:11.41	346.93	9.73	-60.1	-69.8	3.8	7.45e-01	0	29	104	5496635392	84	10929
2026-01-15 06:03:14.40	346.52	9.47	-60.1	-69.8	3.8	7.46e-01	0	29	104	5496635392	84	10927
2026-01-15 06:03:17.38	346.11	9.22	-60.1	-69.8	3.8	7.45e-01	0	29	104	5496635392	84	10984
2026-01-15 06:03:20.37	345.72	8.96	-60.0	-69.7	3.8	7.45e-01	0	28	104	5496635392	84	10893
2026-01-15 06:03:23.37	345.33	8.71	-60.0	-69.8	3.8	7.47e-01	0	28	104	5496635392	84	10905
2026-01-15 06:03:26.36	344.95	8.46	-60.0	-69.7	3.8	7.45e-01	0	28	104	5496635392	84	10867
2026-01-15 06:03:29.33	344.58	8.22	-60.0	-69.7	3.8	7.46e-01	0	29	104	5496635392	84	10865
2026-01-15 06:03:32.33	344.21	7.97	-59.9	-69.7	3.8	7.46e-01	0	28	104	5496635392	84	10782
2026-01-15 06:03:35.31	343.86	7.73	-59.8	-69.6	3.8	7.46e-01	0	28	104	5496635392	84	10683
2026-01-15 06:03:38.29	343.51	7.49	-59.9	-69.6	3.8	7.45e-01	0	28	104	5496635392	84	10718
2026-01-15 06:03:41.28	343.17	7.25	-59.9	-69.6	3.8	7.47e-01	0	28	104	5496635392	84	10703
2026-01-15 06:03:44.29	342.83	7.02	-59.8	-69.5	3.8	7.47e-01	0	28	104	5496635392	84	10626
2026-01-15 06:03:47.29	342.50	6.78	-59.7	-69.5	3.8	7.45e-01	0	29	104	5496635392	84	10534
2026-01-15 06:03:50.28	342.18	6.55	-59.8	-69.5	3.8	7.46e-01	0	29	104	5496635392	84	10557
2026-01-15 06:03:53.27	341.87	6.32	-59.6	-69.3	3.8	7.45e-01	0	29	104	5496635392	83	11002
2026-01-15 06:03:56.28	341.56	6.09	-59.5	-69.2	3.8	7.45e-01	0	29	104	5496635392	83	10893
2026-01-15 06:03:59.28	341.25	5.87	-59.4	-69.1	3.8	7.45e-01	0	28	104	5496635392	83	10751
2026-01-15 06:04:02.27	340.96	5.64	-59.5	-69.2	3.8	7.45e-01	0	29	104	5496635392	83	10830
2026-01-15 06:04:05.27	340.67	5.42	-59.5	-69.2	3.8	7.45e-01	0	29	104	5496635392	83	10896
2026-01-15 06:04:08.27	340.38	5.20	-59.4	-69.1	3.8	7.46e-01	0	29	104	5496635392	83	10702
2026-01-15 06:04:11.27	340.10	4.98	-59.2	-69.0	3.8	7.46e-01	0	29	104	5496635392	83	10566
2026-01-15 06:04:14.27	339.83	4.77	-60.3	-70.0	3.8	7.46e-01	0	29	104	5496635392	83	11942
2026-01-15 06:04:17.27	339.56	4.55	-61.0	-70.8	3.8	7.47e-01	0	28	104	5496635392	85	11566
2026-01-15 06:04:20.28	339.30	4.34	-61.3	-71.1	3.8	7.46e-01	0	29	104	5496635392	85	11966
2026-01-15 06:04:23.28	339.04	4.13	-61.5	-71.2	3.8	7.45e-01	0	29	104	5496635392	86	11492
2026-01-15 06:04:26.28	338.79	3.92	-61.6	-71.3	3.8	7.46e-01	0	29	104	5496635392	86	11590
2026-01-15 06:04:29.27	338.54	3.71	-61.7	-71.4	3.8	7.45e-01	0	29	104	5496635392	86	11767
2026-01-15 06:04:32.27	338.30	3.50	-61.6	-71.4	3.8	7.47e-01	0	29	104	5496635392	86	11754
2026-01-15 06:04:35.26	338.06	3.30	-61.6	-71.3	3.8	7.46e-01	0	29	104	5496635392	86	11641
2026-01-15 06:04:38.25	337.82	3.10	-61.5	-71.3	3.8	7.46e-01	0	29	104	5496635392	86	11600
2026-01-15 06:04:41.24	337.59	2.90	-61.5	-71.2	3.8	7.47e-01	0	28	104	5496635392	86	11505
2026-01-15 06:04:44.25	337.37	2.70	-61.5	-71.2	3.8	7.45e-01	0	29	104	5496635392	86	11525
2026-01-15 06:04:47.25	337.14	2.50	-61.5	-71.2	3.8	7.46e-01	0	29	104	5496635392	86	11532
2026-01-15 06:04:50.23	336.93	2.30	-61.5	-71.2	3.8	7.45e-01	0	29	104	5496635392	86	11495
2026-01-15 06:04:53.25	336.71	2.11	-61.5	-71.2	3.8	7.45e-01	0	29	104	5496635392	86	11461

#Closed at: 2026-01-15 06:04:55
#Recorded file [5496 MB]: D:/lorett/data/31004_260115_085517.dat