passes_logs/2025/01/27/LEX_Murmansk/LEX_Murmansk__20250127_063129_NOAA_19_rec.log

#Pass ID: 20250127_063129_NOAA 19
#Satellite: NOAA 19
#Configuration: NOAA 19
#Start time: 2025-01-27 06:31:24.922843

#LorettStation: 1.0.0 05.05.2024
#Station: LEX_Murmansk
#Location: 33.156738 lon 68.926811 lat
#TLE: 1 33591U 09005A   25026.11929750  .00000374  00000+0  22339-3 0  9999
#TLE: 2 33591  99.0177  89.9666 0014047  27.3849 332.8061 14.13269171823112

#Time	Az	El	Level	SNR
2025-01-27 06:31:37.170557	44.3	15.8	-90.6	1.9
2025-01-27 06:31:38.335628	44.5	15.9	-90.4	0.6
2025-01-27 06:31:39.501006	44.7	15.9	-90.3	4.2
2025-01-27 06:31:40.657938	44.9	16.0	-90.1	3.2
2025-01-27 06:31:41.821512	45.1	16.1	-90.2	3.6
2025-01-27 06:31:42.978289	45.3	16.2	-90.7	2.6
2025-01-27 06:31:44.130536	45.5	16.2	-90.4	2.3
2025-01-27 06:31:45.298461	45.7	16.3	-90.3	2.9
2025-01-27 06:31:46.461940	46.0	16.4	-90.9	2.8
2025-01-27 06:31:47.624947	46.2	16.5	-91.5	5.1
2025-01-27 06:31:48.794110	46.4	16.5	-91.3	4.6
2025-01-27 06:31:49.952496	46.6	16.6	-91.3	3.2
2025-01-27 06:31:51.121671	46.8	16.7	-91.3	3.7
2025-01-27 06:31:52.286760	47.0	16.8	-91.0	2.6
2025-01-27 06:31:53.457451	47.2	16.8	-91.2	3.9
2025-01-27 06:31:54.619643	47.4	16.9	-91.3	3.1
2025-01-27 06:31:55.771130	47.6	17.0	-91.1	2.4
2025-01-27 06:31:56.940185	47.9	17.0	-91.3	2.4
2025-01-27 06:31:58.106353	48.1	17.1	-90.9	2.5
2025-01-27 06:31:59.271236	48.3	17.2	-90.9	2.1
2025-01-27 06:32:00.425205	48.5	17.3	-91.2	3.9
2025-01-27 06:32:01.590939	48.7	17.3	-91.2	8.3
2025-01-27 06:32:02.749783	49.0	17.4	-91.2	8.5
2025-01-27 06:32:03.910066	49.2	17.5	-90.9	9.0
2025-01-27 06:32:05.066583	49.4	17.5	-91.1	6.0
2025-01-27 06:32:06.237765	49.6	17.6	-90.8	6.0
2025-01-27 06:32:07.399966	49.9	17.7	-91.0	4.4
2025-01-27 06:32:08.566580	50.1	17.8	-90.9	5.0
2025-01-27 06:32:09.729611	50.3	17.8	-91.1	5.0
2025-01-27 06:32:10.890368	50.5	17.9	-91.3	5.7
2025-01-27 06:32:12.052530	50.8	18.0	-91.3	7.8
2025-01-27 06:32:13.217479	51.0	18.0	-91.2	11.7
2025-01-27 06:32:14.382038	51.2	18.1	-91.0	12.8
2025-01-27 06:32:15.547745	51.5	18.2	-91.3	11.8
2025-01-27 06:32:16.716717	51.7	18.2	-91.2	8.2
2025-01-27 06:32:17.879659	51.9	18.3	-91.1	5.2
2025-01-27 06:32:19.040366	52.2	18.4	-91.2	4.1
2025-01-27 06:32:20.222012	52.4	18.4	-90.7	2.3
2025-01-27 06:32:21.384865	52.6	18.5	-90.6	2.4
2025-01-27 06:32:22.553077	52.9	18.6	-91.1	3.8
2025-01-27 06:32:23.716391	53.1	18.6	-91.2	5.0
2025-01-27 06:32:24.876102	53.4	18.7	-90.9	5.7
2025-01-27 06:32:26.044753	53.6	18.8	-90.8	7.2
2025-01-27 06:32:27.209038	53.8	18.8	-90.2	7.6
2025-01-27 06:32:28.377213	54.1	18.9	-90.3	10.2
2025-01-27 06:32:29.545732	54.3	19.0	-90.7	10.0
2025-01-27 06:32:30.709491	54.6	19.0	-90.6	11.4
2025-01-27 06:32:31.872355	54.8	19.1	-91.3	11.0
2025-01-27 06:32:33.036685	55.1	19.2	-91.2	9.8
2025-01-27 06:32:34.199763	55.3	19.2	-90.8	6.7
2025-01-27 06:32:35.362544	55.6	19.3	-90.8	4.9
2025-01-27 06:32:36.528786	55.8	19.4	-91.0	6.5
2025-01-27 06:32:37.693643	56.1	19.4	-90.8	5.9
2025-01-27 06:32:38.861982	56.3	19.5	-91.0	9.0
2025-01-27 06:32:40.021049	56.6	19.6	-91.1	11.6
2025-01-27 06:32:41.178255	56.8	19.6	-91.1	12.3
2025-01-27 06:32:42.340881	57.1	19.7	-91.1	12.6
2025-01-27 06:32:43.512589	57.3	19.7	-91.1	13.8
2025-01-27 06:32:44.672002	57.6	19.8	-91.3	10.3
2025-01-27 06:32:45.840562	57.9	19.9	-90.6	6.0
2025-01-27 06:32:47.012224	58.1	19.9	-90.3	7.4
2025-01-27 06:32:48.172228	58.4	20.0	-90.5	4.1
2025-01-27 06:32:49.335583	58.6	20.0	-90.7	2.0
2025-01-27 06:32:50.499349	58.9	20.1	-90.7	5.2
2025-01-27 06:32:51.662648	59.2	20.2	-90.4	1.8
2025-01-27 06:32:52.829302	59.4	20.2	-91.2	3.7
2025-01-27 06:32:53.998094	59.7	20.3	-90.8	7.7
2025-01-27 06:32:55.156987	60.0	20.3	-91.0	8.9
2025-01-27 06:32:56.317224	60.2	20.4	-90.7	9.4
2025-01-27 06:32:57.485188	60.5	20.4	-90.5	11.3
2025-01-27 06:32:58.646486	60.8	20.5	-90.6	12.4
2025-01-27 06:32:59.811141	61.0	20.5	-90.7	14.2
2025-01-27 06:33:00.968598	61.3	20.6	-90.8	13.0
2025-01-27 06:33:02.133773	61.6	20.6	-90.7	12.7
2025-01-27 06:33:03.297628	61.9	20.7	-90.7	8.7
2025-01-27 06:33:04.457869	62.1	20.8	-90.6	10.8
2025-01-27 06:33:05.625617	62.4	20.8	-90.5	8.4
2025-01-27 06:33:06.788094	62.7	20.9	-91.2	5.5
2025-01-27 06:33:07.949464	63.0	20.9	-90.8	8.4
2025-01-27 06:33:09.113065	63.2	21.0	-91.0	6.0
2025-01-27 06:33:10.277443	63.5	21.0	-91.1	9.3
2025-01-27 06:33:11.441581	63.8	21.1	-91.5	12.0
2025-01-27 06:33:12.611981	64.1	21.1	-91.4	14.5
2025-01-27 06:33:13.780378	64.4	21.2	-91.1	14.9
2025-01-27 06:33:14.944168	64.6	21.2	-91.0	14.6
2025-01-27 06:33:16.109869	64.9	21.2	-91.0	14.3
2025-01-27 06:33:17.277464	65.2	21.3	-90.7	12.4
2025-01-27 06:33:18.438618	65.5	21.3	-90.6	9.5
2025-01-27 06:33:19.605168	65.8	21.4	-90.4	8.2
2025-01-27 06:33:20.778109	66.1	21.4	-90.5	7.1
2025-01-27 06:33:21.946759	66.3	21.5	-90.6	5.7
2025-01-27 06:33:23.109871	66.6	21.5	-90.6	4.7
2025-01-27 06:33:24.272226	66.9	21.6	-90.5	4.0
2025-01-27 06:33:25.431972	67.2	21.6	-90.8	5.4
2025-01-27 06:33:26.596469	67.5	21.6	-90.7	3.4
2025-01-27 06:33:27.759441	67.8	21.7	-90.7	10.8
2025-01-27 06:33:28.924875	68.1	21.7	-90.6	6.3
2025-01-27 06:33:30.092567	68.4	21.8	-90.4	7.4
2025-01-27 06:33:31.255220	68.7	21.8	-90.2	11.1
2025-01-27 06:33:32.417690	69.0	21.8	-90.6	10.1
2025-01-27 06:33:33.582842	69.3	21.9	-90.7	10.9
2025-01-27 06:33:34.744144	69.5	21.9	-91.0	12.5
2025-01-27 06:33:35.909562	69.8	21.9	-91.2	12.4
2025-01-27 06:33:37.076958	70.1	22.0	-91.2	12.6
2025-01-27 06:33:38.246162	70.4	22.0	-91.0	13.6
2025-01-27 06:33:39.407293	70.7	22.0	-91.1	11.9
2025-01-27 06:33:40.573521	71.0	22.1	-91.5	10.7
2025-01-27 06:33:41.729565	71.3	22.1	-90.9	11.1
2025-01-27 06:33:42.897920	71.6	22.1	-91.3	9.8
2025-01-27 06:33:44.063928	71.9	22.2	-90.9	8.2
2025-01-27 06:33:45.228083	72.2	22.2	-91.1	12.6
2025-01-27 06:33:46.388105	72.5	22.2	-91.2	10.0
2025-01-27 06:33:47.549271	72.8	22.2	-90.9	5.8
2025-01-27 06:33:48.712205	73.1	22.3	-91.2	12.2
2025-01-27 06:33:49.879083	73.4	22.3	-91.0	10.6
2025-01-27 06:33:51.051880	73.7	22.3	-91.1	7.6
2025-01-27 06:33:52.211743	74.0	22.4	-91.0	11.3
2025-01-27 06:33:53.376155	74.3	22.4	-91.2	10.6
2025-01-27 06:33:54.533107	74.6	22.4	-91.5	10.1
2025-01-27 06:33:55.699301	74.9	22.4	-91.2	9.6
2025-01-27 06:33:56.861379	75.2	22.4	-91.2	10.7
2025-01-27 06:33:58.028847	75.6	22.5	-91.4	10.6
2025-01-27 06:33:59.198693	75.9	22.5	-91.1	10.2
2025-01-27 06:34:00.350833	76.2	22.5	-91.0	11.1
2025-01-27 06:34:01.507287	76.5	22.5	-91.3	8.7
2025-01-27 06:34:02.666320	76.8	22.5	-91.1	8.5
2025-01-27 06:34:03.832587	77.1	22.6	-91.0	8.8
2025-01-27 06:34:04.993249	77.4	22.6	-91.0	7.4
2025-01-27 06:34:06.156672	77.7	22.6	-90.9	8.8
2025-01-27 06:34:07.319995	78.0	22.6	-91.2	10.3
2025-01-27 06:34:08.486582	78.3	22.6	-91.0	6.3
2025-01-27 06:34:09.647700	78.6	22.6	-91.2	6.4
2025-01-27 06:34:10.809317	78.9	22.6	-91.1	10.5
2025-01-27 06:34:11.970462	79.2	22.6	-91.1	4.9
2025-01-27 06:34:13.137928	79.5	22.7	-90.7	4.9
2025-01-27 06:34:14.300441	79.9	22.7	-90.7	8.7
2025-01-27 06:34:15.463776	80.2	22.7	-91.0	4.1
2025-01-27 06:34:16.635534	80.5	22.7	-91.1	4.2
2025-01-27 06:34:17.796589	80.8	22.7	-91.3	4.6
2025-01-27 06:34:18.963044	81.1	22.7	-91.2	4.0
2025-01-27 06:34:20.118039	81.4	22.7	-91.2	4.8
2025-01-27 06:34:21.284511	81.7	22.7	-91.0	3.2
2025-01-27 06:34:22.452438	82.0	22.7	-90.9	5.0
2025-01-27 06:34:23.613743	82.3	22.7	-90.7	5.4
2025-01-27 06:34:24.774458	82.6	22.7	-90.5	6.9
2025-01-27 06:34:25.938960	82.9	22.7	-90.6	3.9
2025-01-27 06:34:27.107972	83.3	22.7	-90.6	4.3
2025-01-27 06:34:28.273719	83.6	22.7	-90.4	3.8
2025-01-27 06:34:29.442534	83.9	22.7	-90.3	6.3
2025-01-27 06:34:30.608121	84.2	22.7	-90.7	6.4
2025-01-27 06:34:31.774145	84.5	22.7	-91.0	5.2
2025-01-27 06:34:32.940284	84.8	22.7	-91.5	7.3
2025-01-27 06:34:34.105512	85.1	22.7	-91.2	5.3
2025-01-27 06:34:35.269614	85.4	22.7	-91.1	7.1
2025-01-27 06:34:36.435445	85.7	22.7	-91.0	4.5
2025-01-27 06:34:37.604296	86.1	22.7	-91.3	4.7
2025-01-27 06:34:38.780727	86.4	22.7	-91.3	9.7
2025-01-27 06:34:39.941108	86.7	22.6	-91.4	6.0
2025-01-27 06:34:41.113652	87.0	22.6	-90.9	7.3
2025-01-27 06:34:42.275471	87.3	22.6	-90.9	9.0
2025-01-27 06:34:43.449406	87.6	22.6	-91.2	7.6
2025-01-27 06:34:44.611183	87.9	22.6	-90.9	5.9
2025-01-27 06:34:45.772806	88.2	22.6	-91.0	10.2
2025-01-27 06:34:46.933484	88.5	22.6	-90.8	4.3
2025-01-27 06:34:48.091853	88.8	22.6	-90.8	1.2
2025-01-27 06:34:49.259411	89.1	22.5	-90.7	2.1
2025-01-27 06:34:50.423069	89.4	22.5	-90.8	2.6
2025-01-27 06:34:51.588177	89.7	22.5	-91.1	4.4
2025-01-27 06:34:52.750005	90.1	22.5	-91.4	5.6
2025-01-27 06:34:53.915369	90.4	22.5	-91.2	3.8
2025-01-27 06:34:55.084725	90.7	22.4	-91.5	4.2
2025-01-27 06:34:56.241520	91.0	22.4	-91.2	5.9
2025-01-27 06:34:57.411808	91.3	22.4	-91.2	4.2
2025-01-27 06:34:58.577817	91.6	22.4	-91.0	4.2
2025-01-27 06:34:59.742742	91.9	22.4	-90.9	5.6
2025-01-27 06:35:00.898010	92.2	22.3	-91.4	6.0
2025-01-27 06:35:02.052987	92.5	22.3	-90.9	4.3
2025-01-27 06:35:03.216848	92.8	22.3	-90.9	2.7
2025-01-27 06:35:04.379984	93.1	22.3	-90.9	8.0
2025-01-27 06:35:05.546104	93.4	22.2	-91.1	3.8
2025-01-27 06:35:06.710685	93.7	22.2	-91.2	7.0
2025-01-27 06:35:07.880149	94.0	22.2	-91.1	8.6
2025-01-27 06:35:09.043291	94.3	22.1	-90.9	5.4
2025-01-27 06:35:10.204496	94.6	22.1	-91.0	8.8
2025-01-27 06:35:11.386335	94.9	22.1	-91.3	6.4
2025-01-27 06:35:12.547492	95.2	22.0	-91.2	4.0
2025-01-27 06:35:13.710396	95.5	22.0	-91.4	6.6
2025-01-27 06:35:14.873477	95.8	22.0	-91.2	8.2
2025-01-27 06:35:16.039468	96.1	21.9	-90.9	5.4
2025-01-27 06:35:17.201092	96.4	21.9	-91.0	11.1
2025-01-27 06:35:18.364540	96.7	21.9	-91.2	8.9
2025-01-27 06:35:19.529032	97.0	21.8	-90.9	4.5
2025-01-27 06:35:20.695285	97.3	21.8	-91.0	8.9
2025-01-27 06:35:21.857338	97.5	21.8	-91.2	10.5
2025-01-27 06:35:23.036103	97.8	21.7	-91.1	7.2
2025-01-27 06:35:24.197938	98.1	21.7	-90.9	9.3
2025-01-27 06:35:25.362078	98.4	21.6	-90.6	8.6
2025-01-27 06:35:26.531105	98.7	21.6	-90.9	6.8
2025-01-27 06:35:27.698231	99.0	21.6	-90.8	9.0
2025-01-27 06:35:28.862236	99.3	21.5	-90.5	9.9
2025-01-27 06:35:30.027947	99.6	21.5	-90.4	4.9
2025-01-27 06:35:31.189342	99.9	21.4	-90.4	7.2
2025-01-27 06:35:32.360733	100.2	21.4	-91.1	11.4
2025-01-27 06:35:33.526021	100.4	21.3	-91.3	8.1
2025-01-27 06:35:34.691771	100.7	21.3	-90.8	10.8
2025-01-27 06:35:35.852688	101.0	21.3	-91.2	12.2
2025-01-27 06:35:37.020681	101.3	21.2	-91.3	8.3
2025-01-27 06:35:38.188208	101.6	21.2	-91.0	11.9
2025-01-27 06:35:39.357195	101.9	21.1	-91.1	13.5
2025-01-27 06:35:40.520677	102.1	21.1	-91.2	8.1
2025-01-27 06:35:41.683044	102.4	21.0	-91.1	13.8
2025-01-27 06:35:42.848072	102.7	21.0	-91.4	13.0
2025-01-27 06:35:44.013321	103.0	20.9	-91.3	8.4
2025-01-27 06:35:45.179727	103.2	20.9	-91.1	14.0
2025-01-27 06:35:46.334794	103.5	20.8	-90.4	13.0
2025-01-27 06:35:47.494498	103.8	20.8	-90.7	6.9
2025-01-27 06:35:48.663053	104.1	20.7	-90.3	10.9
2025-01-27 06:35:49.826427	104.3	20.7	-90.8	13.4
2025-01-27 06:35:50.991899	104.6	20.6	-90.9	7.4
2025-01-27 06:35:52.155247	104.9	20.6	-90.8	9.9
2025-01-27 06:35:53.316347	105.2	20.5	-90.8	10.9
2025-01-27 06:35:54.484057	105.4	20.4	-90.7	5.8
2025-01-27 06:35:55.637673	105.7	20.4	-90.7	4.6
2025-01-27 06:35:56.805689	106.0	20.3	-90.7	12.6
2025-01-27 06:35:57.969504	106.2	20.3	-91.1	6.6
2025-01-27 06:35:59.132470	106.5	20.2	-91.1	4.3
2025-01-27 06:36:00.284848	106.8	20.2	-91.0	11.0
2025-01-27 06:36:01.454060	107.0	20.1	-91.2	4.3
2025-01-27 06:36:02.619643	107.3	20.0	-91.5	4.5
2025-01-27 06:36:03.784872	107.5	20.0	-91.5	9.7
2025-01-27 06:36:04.948175	107.8	19.9	-91.0	5.7
2025-01-27 06:36:06.107891	108.1	19.9	-91.1	6.7
2025-01-27 06:36:07.273429	108.3	19.8	-90.3	9.0
2025-01-27 06:36:08.436104	108.6	19.7	-90.1	5.1
2025-01-27 06:36:09.605511	108.8	19.7	-90.6	7.3
2025-01-27 06:36:10.770041	109.1	19.6	-90.5	8.6
2025-01-27 06:36:11.935604	109.3	19.6	-90.8	6.0
2025-01-27 06:36:13.100075	109.6	19.5	-90.6	5.6
2025-01-27 06:36:14.277518	109.9	19.4	-90.5	8.6
2025-01-27 06:36:15.445144	110.1	19.4	-91.1	7.0
2025-01-27 06:36:16.610986	110.4	19.3	-91.5	5.7
2025-01-27 06:36:17.777757	110.6	19.2	-91.0	9.8
2025-01-27 06:36:18.942599	110.9	19.2	-90.8	8.8
2025-01-27 06:36:20.107013	111.1	19.1	-90.7	6.1
2025-01-27 06:36:21.272490	111.4	19.1	-90.7	5.4
2025-01-27 06:36:22.437039	111.6	19.0	-90.6	8.4
2025-01-27 06:36:23.597960	111.8	18.9	-90.3	6.9
2025-01-27 06:36:24.757661	112.1	18.9	-91.0	7.9
2025-01-27 06:36:25.914357	112.3	18.8	-90.9	9.6
2025-01-27 06:36:27.079233	112.6	18.7	-90.9	7.4
2025-01-27 06:36:28.237782	112.8	18.7	-90.7	9.1
2025-01-27 06:36:29.402117	113.1	18.6	-90.9	9.6
2025-01-27 06:36:30.565526	113.3	18.5	-91.1	7.6
2025-01-27 06:36:31.727130	113.5	18.5	-91.1	7.6
2025-01-27 06:36:32.890139	113.8	18.4	-90.9	9.2
2025-01-27 06:36:34.056931	114.0	18.3	-91.2	7.4
2025-01-27 06:36:35.220114	114.2	18.3	-90.8	11.3
2025-01-27 06:36:36.379256	114.5	18.2	-90.9	11.1
2025-01-27 06:36:37.546677	114.7	18.1	-90.9	9.7
2025-01-27 06:36:38.709025	114.9	18.0	-90.8	10.9
2025-01-27 06:36:39.875210	115.2	18.0	-90.5	7.9
2025-01-27 06:36:41.039113	115.4	17.9	-91.0	7.8
2025-01-27 06:36:42.205359	115.6	17.8	-90.8	11.1
2025-01-27 06:36:43.369969	115.8	17.8	-91.0	10.6
2025-01-27 06:36:44.536015	116.1	17.7	-90.9	7.2
2025-01-27 06:36:45.698066	116.3	17.6	-90.6	12.7
2025-01-27 06:36:46.864702	116.5	17.6	-90.8	11.5
2025-01-27 06:36:48.028577	116.7	17.5	-91.1	5.6
2025-01-27 06:36:49.191836	117.0	17.4	-91.1	11.0
2025-01-27 06:36:50.354249	117.2	17.3	-91.2	9.2
2025-01-27 06:36:51.521913	117.4	17.3	-91.4	6.2
2025-01-27 06:36:52.685056	117.6	17.2	-91.1	7.0
2025-01-27 06:36:53.841910	117.8	17.1	-91.2	7.7
2025-01-27 06:36:55.006827	118.1	17.1	-90.9	4.3
2025-01-27 06:36:56.164666	118.3	17.0	-90.9	6.8
2025-01-27 06:36:57.334156	118.5	16.9	-90.7	11.3
2025-01-27 06:36:58.499588	118.7	16.8	-91.1	6.8
2025-01-27 06:36:59.664119	118.9	16.8	-90.7	6.9
2025-01-27 06:37:00.816023	119.1	16.7	-90.5	7.9
2025-01-27 06:37:01.976019	119.3	16.6	-90.4	8.4
2025-01-27 06:37:03.140871	119.6	16.5	-90.6	8.4
2025-01-27 06:37:04.306397	119.8	16.5	-90.6	10.0
2025-01-27 06:37:05.469736	120.0	16.4	-90.5	10.8
2025-01-27 06:37:06.633503	120.2	16.3	-90.6	7.0
2025-01-27 06:37:07.795508	120.4	16.2	-90.4	7.1
2025-01-27 06:37:08.959086	120.6	16.2	-90.5	5.8
2025-01-27 06:37:10.124622	120.8	16.1	-90.7	4.5
2025-01-27 06:37:11.287332	121.0	16.0	-90.9	5.1
2025-01-27 06:37:12.422679	121.2	16.0	-90.8	5.3
2025-01-27 06:37:13.542942	121.4	15.9	-90.9	4.8
2025-01-27 06:37:14.695827	121.6	15.8	-91.1	5.3
2025-01-27 06:37:15.856746	121.8	15.7	-90.9	2.1
2025-01-27 06:37:17.017754	122.0	15.7	-91.6	3.4
2025-01-27 06:37:18.178482	122.2	15.6	-91.5	3.0
2025-01-27 06:37:19.340729	122.4	15.5	-91.4	6.2
2025-01-27 06:37:20.513420	122.6	15.4	-91.2	5.3
2025-01-27 06:37:21.680095	122.8	15.4	-91.3	6.2
2025-01-27 06:37:22.844403	123.0	15.3	-91.4	5.7
2025-01-27 06:37:24.001791	123.2	15.2	-90.8	2.9
2025-01-27 06:37:25.166958	123.4	15.1	-90.8	5.8
2025-01-27 06:37:26.324799	123.5	15.1	-90.9	7.5
2025-01-27 06:37:27.490396	123.7	15.0	-91.1	7.1
2025-01-27 06:37:28.654656	123.9	14.9	-91.0	7.8
2025-01-27 06:37:29.821511	124.1	14.8	-90.6	7.0
2025-01-27 06:37:30.982998	124.3	14.7	-91.1	6.4
2025-01-27 06:37:32.147833	124.5	14.7	-91.1	6.9
#Closed at: 2025-01-27 06:31:29.953311