passes_logs/2025/01/27/LEX_Murmansk/LEX_Murmansk__20250127_081141_NOAA_19_rec.log

#Pass ID: 20250127_081141_NOAA 19
#Satellite: NOAA 19
#Configuration: NOAA 19
#Start time: 2025-01-27 08:11:35.974514

#LorettStation: 1.0.0 05.05.2024
#Station: LEX_Murmansk
#Location: 33.156738 lon 68.926811 lat
#TLE: 1 33591U 09005A   25026.11929750  .00000374  00000+0  22339-3 0  9999
#TLE: 2 33591  99.0177  89.9666 0014047  27.3849 332.8061 14.13269171823112

#Time	Az	El	Level	SNR
2025-01-27 08:11:48.203416	29.1	16.3	-91.1	2.8
2025-01-27 08:11:50.516784	29.2	16.5	-91.2	1.7
2025-01-27 08:11:52.833896	29.3	16.8	-90.7	1.3
2025-01-27 08:11:55.142244	29.5	17.0	-90.6	1.8
2025-01-27 08:11:57.459609	29.6	17.3	-91.1	5.6
2025-01-27 08:11:59.778889	29.8	17.5	-90.8	4.4
2025-01-27 08:12:02.085910	29.9	17.8	-90.8	5.9
2025-01-27 08:12:04.412523	30.0	18.1	-90.8	6.0
2025-01-27 08:12:06.730437	30.2	18.3	-91.0	3.8
2025-01-27 08:12:09.044638	30.3	18.6	-90.9	1.5
2025-01-27 08:12:11.361840	30.5	18.9	-91.0	5.3
2025-01-27 08:12:13.673133	30.6	19.2	-91.3	9.6
2025-01-27 08:12:15.993705	30.8	19.4	-91.2	6.4
2025-01-27 08:12:18.312863	31.0	19.7	-91.4	3.8
2025-01-27 08:12:20.627425	31.1	20.0	-91.0	7.1
2025-01-27 08:12:22.937546	31.3	20.3	-91.1	3.2
2025-01-27 08:12:25.254525	31.5	20.6	-91.3	2.9
2025-01-27 08:12:27.574110	31.6	20.9	-91.2	8.2
2025-01-27 08:12:29.888312	31.8	21.2	-91.5	10.7
2025-01-27 08:12:32.208909	32.0	21.5	-91.2	8.1
2025-01-27 08:12:34.517595	32.2	21.8	-91.5	13.4
2025-01-27 08:12:36.836792	32.3	22.1	-91.2	13.3
2025-01-27 08:12:39.140547	32.5	22.4	-91.1	6.5
2025-01-27 08:12:41.469590	32.7	22.7	-91.1	3.7
2025-01-27 08:12:43.785930	32.9	23.0	-90.9	4.7
2025-01-27 08:12:46.098344	33.1	23.3	-90.7	12.1
2025-01-27 08:12:48.423100	33.3	23.7	-90.6	9.4
2025-01-27 08:12:50.734654	33.5	24.0	-91.4	6.8
2025-01-27 08:12:53.044140	33.7	24.3	-91.3	11.3
2025-01-27 08:12:55.367982	33.9	24.7	-91.5	7.3
2025-01-27 08:12:57.686969	34.2	25.0	-91.2	2.6
2025-01-27 08:12:59.996118	34.4	25.3	-91.3	4.7
2025-01-27 08:13:02.296080	34.6	25.7	-91.2	7.1
2025-01-27 08:13:04.616830	34.8	26.0	-91.5	7.3
2025-01-27 08:13:06.934752	35.1	26.4	-91.1	7.0
2025-01-27 08:13:09.259280	35.3	26.7	-91.3	2.8
2025-01-27 08:13:11.557318	35.6	27.1	-91.3	4.2
2025-01-27 08:13:13.867160	35.8	27.5	-91.4	1.0
2025-01-27 08:13:16.179790	36.1	27.8	-91.1	4.3
2025-01-27 08:13:18.493665	36.4	28.2	-91.2	4.9
2025-01-27 08:13:20.800485	36.6	28.6	-91.3	5.7
2025-01-27 08:13:23.109286	36.9	29.0	-91.2	4.8
2025-01-27 08:13:25.421399	37.2	29.4	-91.2	5.2
2025-01-27 08:13:27.739163	37.5	29.8	-91.2	8.3
2025-01-27 08:13:30.050963	37.8	30.2	-91.1	7.1
2025-01-27 08:13:32.369876	38.1	30.6	-91.4	3.7
2025-01-27 08:13:34.680176	38.4	31.0	-91.4	3.4
2025-01-27 08:13:36.995307	38.7	31.4	-91.0	8.9
2025-01-27 08:13:39.295865	39.0	31.8	-91.3	14.3
2025-01-27 08:13:41.612620	39.4	32.2	-91.3	11.4
2025-01-27 08:13:43.926383	39.7	32.7	-91.5	10.1
2025-01-27 08:13:46.225520	40.1	33.1	-91.0	14.7
2025-01-27 08:13:48.536641	40.4	33.5	-91.1	14.2
2025-01-27 08:13:50.850549	40.8	34.0	-90.8	3.3
2025-01-27 08:13:53.178816	41.2	34.4	-90.7	2.4
2025-01-27 08:13:55.485878	41.6	34.9	-91.1	8.7
2025-01-27 08:13:57.806741	42.0	35.3	-91.1	12.7
2025-01-27 08:14:00.117023	42.4	35.8	-91.1	9.5
2025-01-27 08:14:02.414937	42.8	36.3	-91.4	8.4
2025-01-27 08:14:04.734823	43.3	36.8	-91.3	12.7
2025-01-27 08:14:07.042771	43.7	37.2	-91.4	15.9
2025-01-27 08:14:09.358904	44.2	37.7	-91.4	6.3
2025-01-27 08:14:11.678407	44.6	38.2	-91.4	3.5
2025-01-27 08:14:14.003560	45.1	38.7	-91.1	7.8
2025-01-27 08:14:16.324080	45.6	39.2	-91.2	12.7
2025-01-27 08:14:18.637266	46.2	39.7	-91.3	15.9
2025-01-27 08:14:20.948332	46.7	40.2	-91.2	13.0
2025-01-27 08:14:23.252723	47.3	40.7	-91.0	9.2
2025-01-27 08:14:25.565767	47.8	41.2	-91.2	15.8
2025-01-27 08:14:27.868296	48.4	41.8	-91.3	15.5
2025-01-27 08:14:30.171821	49.0	42.3	-91.2	6.2
2025-01-27 08:14:32.499724	49.7	42.8	-91.3	6.2
2025-01-27 08:14:34.814544	50.3	43.3	-91.2	4.9
2025-01-27 08:14:37.137272	51.0	43.9	-91.4	10.5
2025-01-27 08:14:39.462572	51.7	44.4	-91.2	13.9
2025-01-27 08:14:41.780592	52.4	45.0	-91.4	10.2
2025-01-27 08:14:44.094517	53.2	45.5	-91.2	8.9
2025-01-27 08:14:46.413122	53.9	46.1	-91.4	11.9
2025-01-27 08:14:48.725219	54.7	46.6	-91.5	6.6
2025-01-27 08:14:51.037720	55.5	47.2	-91.3	3.4
2025-01-27 08:14:53.355409	56.4	47.7	-91.5	3.2
2025-01-27 08:14:55.664031	57.3	48.3	-91.7	4.3
2025-01-27 08:14:57.973890	58.2	48.8	-91.7	3.3
2025-01-27 08:15:00.293405	59.1	49.4	-91.0	2.8
2025-01-27 08:15:02.615200	60.1	49.9	-90.7	5.4
2025-01-27 08:15:04.926904	61.1	50.4	-91.1	2.7
2025-01-27 08:15:07.229714	62.2	51.0	-91.2	5.5
2025-01-27 08:15:09.537606	63.3	51.5	-91.4	6.1
2025-01-27 08:15:11.854797	64.4	52.0	-91.1	4.4
2025-01-27 08:15:14.161935	65.6	52.6	-91.4	12.1
2025-01-27 08:15:16.490151	66.8	53.1	-91.6	10.7
2025-01-27 08:15:18.812721	68.1	53.6	-91.6	12.5
2025-01-27 08:15:21.126840	69.4	54.1	-91.6	7.5
2025-01-27 08:15:23.428985	70.7	54.6	-91.5	6.4
2025-01-27 08:15:25.754682	72.1	55.1	-91.5	3.9
2025-01-27 08:15:28.076597	73.5	55.5	-91.5	6.6
2025-01-27 08:15:30.385918	75.0	56.0	-90.9	8.7
2025-01-27 08:15:32.708082	76.6	56.4	-90.9	14.6
2025-01-27 08:15:35.025193	78.1	56.9	-91.1	16.7
2025-01-27 08:15:37.336342	79.8	57.3	-91.3	15.1
2025-01-27 08:15:39.650240	81.4	57.6	-91.3	10.7
2025-01-27 08:15:41.962002	83.2	58.0	-91.5	9.1
2025-01-27 08:15:44.279696	84.9	58.3	-91.3	4.3
2025-01-27 08:15:46.599981	86.7	58.7	-91.4	10.0
2025-01-27 08:15:48.904125	88.6	58.9	-91.4	10.7
2025-01-27 08:15:51.218575	90.5	59.2	-91.5	12.4
2025-01-27 08:15:53.526388	92.4	59.4	-91.4	12.4
2025-01-27 08:15:55.845245	94.4	59.6	-91.4	13.2
2025-01-27 08:15:58.161117	96.4	59.8	-91.6	10.8
2025-01-27 08:16:00.465226	98.4	60.0	-91.3	7.7
2025-01-27 08:16:02.776235	100.4	60.1	-91.3	14.3
2025-01-27 08:16:05.090928	102.4	60.2	-91.4	6.4
2025-01-27 08:16:07.406761	104.5	60.2	-91.4	4.9
2025-01-27 08:16:09.711599	106.6	60.2	-91.4	8.8
2025-01-27 08:16:12.017614	108.6	60.2	-91.4	5.6
2025-01-27 08:16:14.320928	110.7	60.2	-91.4	14.5
2025-01-27 08:16:16.634505	112.7	60.1	-91.3	9.0
2025-01-27 08:16:18.954580	114.8	60.0	-91.7	5.6
2025-01-27 08:16:21.259946	116.8	59.8	-91.3	12.6
2025-01-27 08:16:23.587035	118.8	59.7	-91.7	7.8
2025-01-27 08:16:25.906874	120.7	59.4	-91.4	10.9
2025-01-27 08:16:28.214055	122.7	59.2	-91.1	11.8
2025-01-27 08:16:30.521339	124.5	59.0	-91.7	10.4
2025-01-27 08:16:32.835204	126.4	58.7	-91.7	14.0
2025-01-27 08:16:35.120308	128.2	58.4	-91.3	12.1
2025-01-27 08:16:37.439769	130.0	58.0	-90.9	7.9
2025-01-27 08:16:39.752201	131.7	57.7	-91.0	19.3
2025-01-27 08:16:42.060287	133.4	57.3	-91.2	11.3
2025-01-27 08:16:44.371893	135.0	56.9	-91.4	14.8
2025-01-27 08:16:46.689496	136.6	56.5	-91.4	15.5
2025-01-27 08:16:49.002222	138.1	56.0	-91.4	13.3
2025-01-27 08:16:51.308623	139.6	55.6	-91.3	12.9
2025-01-27 08:16:53.619108	141.0	55.1	-91.5	15.3
2025-01-27 08:16:55.934966	142.4	54.6	-91.6	7.4
2025-01-27 08:16:58.236498	143.8	54.1	-91.0	13.4
2025-01-27 08:17:00.556998	145.1	53.6	-91.1	9.8
2025-01-27 08:17:02.885739	146.3	53.1	-91.3	8.8
2025-01-27 08:17:05.198172	147.5	52.6	-91.1	16.0
2025-01-27 08:17:07.502657	148.7	52.1	-91.4	3.8
2025-01-27 08:17:09.811205	149.8	51.6	-91.3	7.7
2025-01-27 08:17:12.120498	150.9	51.0	-91.0	5.7
2025-01-27 08:17:14.431822	152.0	50.5	-91.2	4.2
2025-01-27 08:17:16.749399	153.0	49.9	-91.3	12.0
2025-01-27 08:17:19.067892	154.0	49.4	-91.3	6.8
2025-01-27 08:17:21.383650	154.9	48.8	-91.2	8.3
2025-01-27 08:17:23.682221	155.9	48.3	-91.3	14.1
2025-01-27 08:17:25.999568	156.7	47.7	-91.5	7.7
2025-01-27 08:17:28.304553	157.6	47.2	-91.0	10.8
2025-01-27 08:17:30.550852	158.4	46.7	-91.3	14.0
2025-01-27 08:17:32.792758	159.2	46.1	-90.8	13.3
2025-01-27 08:17:35.033561	159.9	45.6	-91.3	8.0
2025-01-27 08:17:37.275140	160.6	45.1	-90.9	13.0
2025-01-27 08:17:39.532117	161.3	44.6	-91.3	6.2
2025-01-27 08:17:41.840584	162.0	44.0	-90.8	3.6
2025-01-27 08:17:44.135651	162.7	43.5	-90.8	8.5
2025-01-27 08:17:46.445159	163.4	42.9	-91.4	8.1
2025-01-27 08:17:48.752561	164.0	42.4	-91.0	10.1
2025-01-27 08:17:51.063593	164.6	41.9	-91.0	6.2
2025-01-27 08:17:53.365241	165.2	41.4	-91.4	8.8
2025-01-27 08:17:55.681871	165.8	40.9	-91.5	11.8
2025-01-27 08:17:57.998022	166.4	40.3	-91.8	5.4
2025-01-27 08:18:00.316724	166.9	39.8	-91.5	5.3
2025-01-27 08:18:02.629595	167.4	39.3	-91.5	5.0
2025-01-27 08:18:04.943346	167.9	38.8	-91.3	8.4
2025-01-27 08:18:07.268737	168.4	38.3	-91.4	7.4
2025-01-27 08:18:09.588734	168.9	37.8	-91.4	3.5
2025-01-27 08:18:11.904995	169.4	37.4	-91.5	3.9
2025-01-27 08:18:14.208242	169.8	36.9	-91.0	11.5
2025-01-27 08:18:16.516418	170.3	36.4	-91.3	10.3
2025-01-27 08:18:18.839586	170.7	35.9	-91.5	12.1
2025-01-27 08:18:21.144277	171.1	35.5	-91.4	11.7
2025-01-27 08:18:23.465521	171.5	35.0	-91.6	10.0
2025-01-27 08:18:25.775022	171.9	34.5	-91.5	5.7
2025-01-27 08:18:28.078171	172.3	34.1	-91.2	4.1
2025-01-27 08:18:30.385989	172.7	33.7	-91.3	6.3
2025-01-27 08:18:32.702717	173.0	33.2	-91.5	11.3
2025-01-27 08:18:35.006980	173.4	32.8	-91.1	8.4
2025-01-27 08:18:37.320271	173.7	32.4	-91.1	10.2
2025-01-27 08:18:39.644098	174.1	31.9	-91.2	10.3
2025-01-27 08:18:41.957762	174.4	31.5	-91.2	7.1
2025-01-27 08:18:44.283940	174.7	31.1	-91.3	8.2
2025-01-27 08:18:46.605432	175.0	30.7	-91.0	4.8
2025-01-27 08:18:48.914279	175.3	30.3	-91.0	4.5
2025-01-27 08:18:51.208521	175.6	29.9	-91.6	9.4
2025-01-27 08:18:53.514398	175.9	29.5	-91.7	7.3
2025-01-27 08:18:55.826548	176.2	29.1	-91.4	9.4
2025-01-27 08:18:58.135521	176.5	28.7	-91.2	9.3
2025-01-27 08:19:00.439766	176.8	28.3	-91.7	7.2
2025-01-27 08:19:02.764327	177.0	27.9	-91.8	6.9
2025-01-27 08:19:05.084968	177.3	27.6	-91.6	5.0
2025-01-27 08:19:07.392738	177.5	27.2	-91.6	6.5
2025-01-27 08:19:09.703394	177.8	26.8	-91.7	10.3
2025-01-27 08:19:12.025472	178.0	26.5	-91.5	10.0
2025-01-27 08:19:14.343803	178.3	26.1	-91.3	9.9
2025-01-27 08:19:16.656836	178.5	25.8	-91.4	7.6
2025-01-27 08:19:18.972286	178.7	25.4	-91.4	5.9
2025-01-27 08:19:21.283898	179.0	25.1	-91.3	10.4
2025-01-27 08:19:23.605623	179.2	24.7	-91.4	8.0
2025-01-27 08:19:25.923272	179.4	24.4	-91.3	10.2
2025-01-27 08:19:28.241848	179.6	24.1	-91.2	8.2
2025-01-27 08:19:30.553781	179.8	23.7	-91.3	7.2
2025-01-27 08:19:32.867939	180.0	23.4	-91.7	7.9
2025-01-27 08:19:35.179995	180.2	23.1	-91.6	10.4
2025-01-27 08:19:37.508402	180.4	22.8	-91.5	5.7
2025-01-27 08:19:39.813236	180.6	22.5	-91.1	6.4
2025-01-27 08:19:42.123601	180.8	22.2	-91.1	4.1
2025-01-27 08:19:44.425751	181.0	21.8	-91.5	4.9
2025-01-27 08:19:46.735907	181.1	21.5	-91.5	7.4
2025-01-27 08:19:49.047883	181.3	21.2	-91.3	4.6
2025-01-27 08:19:51.373168	181.5	20.9	-90.7	2.7
2025-01-27 08:19:53.680740	181.7	20.7	-90.5	6.2
2025-01-27 08:19:55.998276	181.8	20.4	-91.3	7.5
2025-01-27 08:19:58.316679	182.0	20.1	-91.3	7.1
2025-01-27 08:20:00.628690	182.2	19.8	-91.0	5.4
2025-01-27 08:20:02.930266	182.3	19.5	-91.4	3.3
2025-01-27 08:20:05.238125	182.5	19.2	-91.2	7.1
2025-01-27 08:20:07.545407	182.6	19.0	-91.2	4.3
2025-01-27 08:20:09.859236	182.8	18.7	-91.3	4.3
2025-01-27 08:20:12.171258	182.9	18.4	-91.3	4.5
2025-01-27 08:20:14.454520	183.1	18.1	-91.1	3.6
2025-01-27 08:20:16.750273	183.2	17.9	-91.5	3.0
2025-01-27 08:20:19.064447	183.4	17.6	-91.1	2.9
2025-01-27 08:20:21.380194	183.5	17.4	-91.3	3.9
2025-01-27 08:20:23.683444	183.6	17.1	-91.4	3.5
2025-01-27 08:20:25.989089	183.8	16.9	-91.4	6.4
2025-01-27 08:20:28.303157	183.9	16.6	-91.3	4.4
2025-01-27 08:20:30.624423	184.0	16.4	-91.6	3.7
2025-01-27 08:20:32.938382	184.2	16.1	-91.3	2.8
2025-01-27 08:20:35.230818	184.3	15.9	-91.3	5.5
2025-01-27 08:20:37.540867	184.4	15.6	-91.6	3.7
2025-01-27 08:20:39.862988	184.5	15.4	-91.5	2.6
2025-01-27 08:20:42.169503	184.7	15.1	-91.3	5.0
2025-01-27 08:20:44.483688	184.8	14.9	-90.8	4.3
2025-01-27 08:20:46.796957	184.9	14.7	-91.1	7.4
#Closed at: 2025-01-27 08:11:41.009501