passes_logs/2025/01/27/LEX_Murmansk/LEX_Murmansk__20250127_115545_NOAA_18_rec.log

#Pass ID: 20250127_115545_NOAA 18
#Satellite: NOAA 18
#Configuration: NOAA 18
#Start time: 2025-01-27 11:55:40.328561

#LorettStation: 1.0.0 05.05.2024
#Station: LEX_Murmansk
#Location: 33.156738 lon 68.926811 lat
#TLE: 1 28654U 05018A   25026.13466944  .00000433  00000+0  25315-3 0  9999
#TLE: 2 28654  98.8549 107.0777 0014815 148.4880 211.7182 14.13497478 14758

#Time	Az	El	Level	SNR
2025-01-27 11:55:52.494640	23.0	16.2	-91.1	8.0
2025-01-27 11:55:53.640678	22.9	16.3	-91.0	9.3
2025-01-27 11:55:54.790977	22.8	16.4	-91.2	9.1
2025-01-27 11:55:55.938641	22.7	16.5	-90.9	9.6
2025-01-27 11:55:57.084266	22.5	16.6	-91.1	7.6
2025-01-27 11:55:58.227884	22.4	16.7	-90.9	6.5
2025-01-27 11:55:59.379301	22.3	16.8	-90.8	6.7
2025-01-27 11:56:00.521880	22.2	16.9	-91.1	9.6
2025-01-27 11:56:01.673271	22.0	17.1	-91.2	8.6
2025-01-27 11:56:02.821107	21.9	17.2	-91.1	7.0
2025-01-27 11:56:03.966220	21.8	17.3	-90.9	9.7
2025-01-27 11:56:05.112934	21.6	17.4	-90.5	9.6
2025-01-27 11:56:06.258314	21.5	17.5	-90.6	8.6
2025-01-27 11:56:07.407616	21.4	17.6	-90.6	9.2
2025-01-27 11:56:08.554030	21.3	17.7	-90.9	10.6
2025-01-27 11:56:09.702695	21.1	17.9	-91.3	9.5
2025-01-27 11:56:10.849167	21.0	18.0	-91.2	13.0
2025-01-27 11:56:11.995967	20.8	18.1	-90.8	8.2
2025-01-27 11:56:13.143112	20.7	18.2	-90.7	10.8
2025-01-27 11:56:14.297244	20.6	18.3	-90.8	11.2
2025-01-27 11:56:15.441058	20.4	18.4	-90.5	14.6
2025-01-27 11:56:16.589208	20.3	18.6	-90.8	13.5
2025-01-27 11:56:17.736916	20.2	18.7	-91.1	11.1
2025-01-27 11:56:18.879884	20.0	18.8	-90.6	10.1
2025-01-27 11:56:20.029453	19.9	18.9	-90.8	8.7
2025-01-27 11:56:21.173730	19.7	19.0	-91.1	11.3
2025-01-27 11:56:22.321007	19.6	19.2	-90.9	11.2
2025-01-27 11:56:23.465533	19.4	19.3	-91.1	9.8
2025-01-27 11:56:24.609329	19.3	19.4	-91.3	10.8
2025-01-27 11:56:25.751760	19.1	19.5	-91.6	13.7
2025-01-27 11:56:26.899827	19.0	19.6	-90.8	10.3
2025-01-27 11:56:28.050924	18.8	19.8	-90.8	8.7
2025-01-27 11:56:29.196507	18.7	19.9	-91.4	9.0
2025-01-27 11:56:30.343070	18.5	20.0	-90.7	9.7
2025-01-27 11:56:31.486470	18.4	20.1	-90.8	11.7
2025-01-27 11:56:32.631094	18.2	20.3	-91.5	10.4
2025-01-27 11:56:33.779091	18.1	20.4	-91.0	11.6
2025-01-27 11:56:34.922897	17.9	20.5	-90.9	10.5
2025-01-27 11:56:36.067953	17.7	20.6	-91.3	11.0
2025-01-27 11:56:37.218879	17.6	20.8	-91.3	10.9
2025-01-27 11:56:38.367754	17.4	20.9	-90.6	9.7
2025-01-27 11:56:39.524947	17.2	21.0	-90.8	8.8
2025-01-27 11:56:40.667033	17.1	21.1	-91.7	9.3
2025-01-27 11:56:41.822826	16.9	21.3	-91.2	9.6
2025-01-27 11:56:42.971285	16.7	21.4	-90.9	9.8
2025-01-27 11:56:44.115370	16.6	21.5	-91.1	10.9
2025-01-27 11:56:45.263239	16.4	21.7	-90.8	10.4
2025-01-27 11:56:46.411863	16.2	21.8	-91.0	8.6
2025-01-27 11:56:47.559501	16.0	21.9	-91.1	8.9
2025-01-27 11:56:48.713712	15.9	22.0	-91.1	10.2
2025-01-27 11:56:49.861756	15.7	22.2	-90.3	9.4
2025-01-27 11:56:51.003172	15.5	22.3	-90.3	8.5
2025-01-27 11:56:52.150102	15.3	22.4	-90.1	11.9
2025-01-27 11:56:53.301578	15.2	22.6	-90.6	11.0
2025-01-27 11:56:54.444361	15.0	22.7	-90.6	10.3
2025-01-27 11:56:55.591787	14.8	22.8	-91.3	8.5
2025-01-27 11:56:56.750465	14.6	23.0	-90.8	9.9
2025-01-27 11:56:57.893320	14.4	23.1	-90.9	7.1
2025-01-27 11:56:59.041576	14.2	23.2	-91.0	9.0
2025-01-27 11:57:00.186274	14.0	23.4	-91.1	8.6
2025-01-27 11:57:01.334082	13.8	23.5	-90.6	11.7
2025-01-27 11:57:02.479361	13.6	23.6	-90.8	15.0
2025-01-27 11:57:03.626455	13.4	23.8	-91.2	10.5
2025-01-27 11:57:04.771537	13.2	23.9	-90.9	12.2
2025-01-27 11:57:05.915017	13.0	24.0	-90.9	11.7
2025-01-27 11:57:07.067931	12.8	24.2	-90.9	9.5
2025-01-27 11:57:08.210839	12.6	24.3	-90.9	14.1
2025-01-27 11:57:09.358056	12.4	24.4	-90.8	11.6
2025-01-27 11:57:10.506148	12.2	24.6	-91.3	13.0
2025-01-27 11:57:11.653017	12.0	24.7	-90.9	12.4
2025-01-27 11:57:12.794493	11.8	24.8	-90.7	9.5
2025-01-27 11:57:13.942369	11.6	25.0	-91.5	10.6
2025-01-27 11:57:15.089069	11.4	25.1	-91.3	8.1
2025-01-27 11:57:16.241113	11.1	25.2	-90.8	11.3
2025-01-27 11:57:17.386418	10.9	25.4	-90.6	7.3
2025-01-27 11:57:18.536539	10.7	25.5	-91.5	8.1
2025-01-27 11:57:19.690407	10.5	25.6	-91.1	12.5
2025-01-27 11:57:20.837376	10.3	25.8	-90.8	13.0
2025-01-27 11:57:21.987142	10.0	25.9	-91.5	12.1
2025-01-27 11:57:23.137981	9.8	26.1	-90.7	13.6
2025-01-27 11:57:24.284841	9.6	26.2	-91.1	9.9
2025-01-27 11:57:25.428695	9.3	26.3	-91.7	10.1
2025-01-27 11:57:26.579011	9.1	26.5	-91.5	13.7
2025-01-27 11:57:27.731041	8.9	26.6	-91.3	12.6
2025-01-27 11:57:28.879143	8.6	26.8	-91.2	9.8
2025-01-27 11:57:30.025463	8.4	26.9	-91.5	8.5
2025-01-27 11:57:31.176306	8.1	27.0	-91.1	10.8
2025-01-27 11:57:32.327251	7.9	27.2	-90.9	8.6
2025-01-27 11:57:33.472828	7.6	27.3	-91.3	9.2
2025-01-27 11:57:34.616036	7.4	27.5	-90.9	12.8
2025-01-27 11:57:35.766145	7.1	27.6	-91.0	10.9
2025-01-27 11:57:36.910554	6.9	27.7	-91.2	10.3
2025-01-27 11:57:38.054928	6.6	27.9	-91.2	7.0
2025-01-27 11:57:39.203745	6.4	28.0	-90.9	10.9
2025-01-27 11:57:40.356790	6.1	28.1	-91.0	8.1
2025-01-27 11:57:41.504735	5.8	28.3	-91.3	9.7
2025-01-27 11:57:42.653552	5.6	28.4	-90.8	10.0
2025-01-27 11:57:43.805831	5.3	28.6	-91.1	12.0
2025-01-27 11:57:44.951094	5.0	28.7	-91.3	6.8
2025-01-27 11:57:46.108778	4.8	28.8	-90.7	7.1
2025-01-27 11:57:47.257646	4.5	29.0	-90.6	6.9
2025-01-27 11:57:48.405395	4.2	29.1	-91.4	6.1
2025-01-27 11:57:49.550844	3.9	29.3	-91.1	9.3
2025-01-27 11:57:50.697229	3.7	29.4	-90.8	12.3
2025-01-27 11:57:51.848556	3.4	29.5	-91.4	7.7
2025-01-27 11:57:52.994536	3.1	29.7	-91.6	9.7
2025-01-27 11:57:54.141262	2.8	29.8	-89.8	8.5
2025-01-27 11:57:55.286523	2.5	30.0	-90.0	6.5
2025-01-27 11:57:56.432633	2.2	30.1	-90.6	9.3
2025-01-27 11:57:57.577656	1.9	30.2	-90.9	8.6
2025-01-27 11:57:58.717401	1.6	30.4	-91.1	10.4
2025-01-27 11:57:59.864334	1.3	30.5	-91.2	6.0
2025-01-27 11:58:01.008844	1.0	30.7	-90.8	8.0
2025-01-27 11:58:02.156173	0.7	30.8	-90.8	10.9
2025-01-27 11:58:03.297259	0.4	30.9	-91.1	8.6
2025-01-27 11:58:04.444454	0.1	31.1	-91.3	9.4
2025-01-27 11:58:05.603572	359.7	31.2	-91.3	9.8
2025-01-27 11:58:06.750721	359.4	31.3	-91.0	10.5
2025-01-27 11:58:07.894075	359.1	31.5	-91.4	10.3
2025-01-27 11:58:09.040847	358.8	31.6	-91.7	8.4
2025-01-27 11:58:10.165345	358.5	31.7	-90.9	12.3
2025-01-27 11:58:11.285598	358.1	31.9	-91.6	9.3
2025-01-27 11:58:12.405741	357.8	32.0	-91.6	7.9
2025-01-27 11:58:13.525968	357.5	32.1	-91.2	8.1
2025-01-27 11:58:14.646806	357.2	32.3	-91.8	9.4
2025-01-27 11:58:15.768194	356.8	32.4	-91.6	10.7
2025-01-27 11:58:16.889527	356.5	32.5	-91.3	8.0
2025-01-27 11:58:18.010174	356.1	32.6	-91.7	7.6
2025-01-27 11:58:19.130353	355.8	32.8	-91.1	10.0
2025-01-27 11:58:20.270445	355.5	32.9	-90.8	8.7
2025-01-27 11:58:21.413259	355.1	33.0	-91.7	7.4
2025-01-27 11:58:22.560399	354.7	33.2	-91.4	5.4
2025-01-27 11:58:23.713882	354.4	33.3	-91.2	7.0
2025-01-27 11:58:24.857824	354.0	33.4	-90.6	8.6
2025-01-27 11:58:26.016775	353.6	33.5	-91.4	8.3
2025-01-27 11:58:27.165367	353.3	33.7	-90.4	10.2
2025-01-27 11:58:28.313095	352.9	33.8	-90.6	14.0
2025-01-27 11:58:29.458967	352.5	33.9	-91.5	8.0
2025-01-27 11:58:30.602902	352.2	34.0	-91.3	12.5
2025-01-27 11:58:31.751812	351.8	34.2	-91.1	13.6
2025-01-27 11:58:32.894912	351.4	34.3	-91.2	10.7
2025-01-27 11:58:34.044883	351.0	34.4	-91.1	11.5
2025-01-27 11:58:35.197933	350.6	34.5	-90.6	10.0
2025-01-27 11:58:36.343036	350.2	34.6	-90.7	10.5
2025-01-27 11:58:37.487834	349.8	34.8	-90.8	11.3
2025-01-27 11:58:38.635031	349.4	34.9	-90.8	12.5
2025-01-27 11:58:39.786212	349.0	35.0	-90.8	15.1
2025-01-27 11:58:40.931232	348.6	35.1	-91.2	10.5
2025-01-27 11:58:42.081323	348.2	35.2	-90.6	11.4
2025-01-27 11:58:43.226488	347.8	35.3	-90.6	12.9
2025-01-27 11:58:44.369155	347.4	35.4	-90.9	10.8
2025-01-27 11:58:45.515141	347.0	35.5	-91.2	11.9
2025-01-27 11:58:46.659132	346.6	35.6	-91.2	14.1
2025-01-27 11:58:47.806057	346.1	35.7	-91.6	12.4
2025-01-27 11:58:48.951181	345.7	35.8	-91.4	10.5
2025-01-27 11:58:50.100171	345.3	36.0	-90.9	10.1
2025-01-27 11:58:51.249692	344.9	36.1	-91.2	11.4
2025-01-27 11:58:52.395929	344.4	36.2	-91.3	9.4
2025-01-27 11:58:53.544034	344.0	36.2	-91.3	9.3
2025-01-27 11:58:54.694220	343.6	36.3	-90.9	13.6
2025-01-27 11:58:55.839661	343.1	36.4	-91.1	10.6
2025-01-27 11:58:56.989290	342.7	36.5	-91.7	7.3
2025-01-27 11:58:58.139425	342.2	36.6	-90.1	13.0
2025-01-27 11:58:59.298253	341.8	36.7	-90.4	13.2
2025-01-27 11:59:00.439565	341.3	36.8	-90.6	7.1
2025-01-27 11:59:01.581167	340.9	36.9	-90.2	9.0
2025-01-27 11:59:02.727909	340.4	37.0	-91.0	11.0
2025-01-27 11:59:03.886106	340.0	37.1	-91.2	10.6
2025-01-27 11:59:05.035094	339.5	37.1	-91.4	10.8
2025-01-27 11:59:06.182363	339.1	37.2	-91.3	10.3
2025-01-27 11:59:07.334208	338.6	37.3	-91.1	13.3
2025-01-27 11:59:08.479775	338.1	37.4	-91.3	14.5
2025-01-27 11:59:09.625741	337.7	37.4	-91.8	12.8
2025-01-27 11:59:10.777185	337.2	37.5	-91.4	13.7
2025-01-27 11:59:11.922623	336.7	37.6	-91.6	13.9
2025-01-27 11:59:13.071148	336.3	37.6	-91.5	11.6
2025-01-27 11:59:14.213115	335.8	37.7	-91.2	15.2
2025-01-27 11:59:15.363761	335.3	37.8	-91.2	10.9
2025-01-27 11:59:16.515243	334.8	37.8	-91.5	8.8
2025-01-27 11:59:17.658670	334.3	37.9	-91.2	11.8
2025-01-27 11:59:18.807692	333.9	37.9	-91.3	13.4
2025-01-27 11:59:19.951026	333.4	38.0	-91.6	8.9
2025-01-27 11:59:21.097522	332.9	38.0	-91.0	10.1
2025-01-27 11:59:22.253753	332.4	38.1	-91.3	16.4
2025-01-27 11:59:23.404978	331.9	38.1	-91.1	14.1
2025-01-27 11:59:24.555472	331.4	38.2	-91.6	16.5
2025-01-27 11:59:25.701786	330.9	38.2	-91.7	17.8
2025-01-27 11:59:26.857235	330.4	38.3	-91.6	15.9
2025-01-27 11:59:28.010424	329.9	38.3	-91.3	15.7
2025-01-27 11:59:29.159921	329.4	38.3	-91.2	17.3
2025-01-27 11:59:30.307365	328.9	38.4	-91.5	17.1
2025-01-27 11:59:31.453802	328.5	38.4	-91.4	16.0
2025-01-27 11:59:32.605559	328.0	38.4	-91.7	16.5
2025-01-27 11:59:33.753020	327.5	38.4	-91.6	16.2
2025-01-27 11:59:34.897171	327.0	38.5	-91.6	10.7
2025-01-27 11:59:36.044421	326.5	38.5	-91.3	12.6
2025-01-27 11:59:37.195148	326.0	38.5	-91.3	14.8
2025-01-27 11:59:38.344690	325.5	38.5	-91.3	12.2
2025-01-27 11:59:39.489358	325.0	38.5	-91.6	11.5
2025-01-27 11:59:40.640937	324.5	38.5	-91.1	14.0
2025-01-27 11:59:41.783854	324.0	38.5	-91.5	13.0
2025-01-27 11:59:42.938341	323.4	38.5	-91.5	9.7
2025-01-27 11:59:44.084816	322.9	38.5	-91.0	9.8
2025-01-27 11:59:45.231745	322.4	38.5	-91.3	13.8
2025-01-27 11:59:46.385761	321.9	38.5	-91.3	9.0
2025-01-27 11:59:47.536142	321.4	38.5	-91.7	10.9
2025-01-27 11:59:48.688487	320.9	38.5	-91.4	14.2
2025-01-27 11:59:49.835581	320.4	38.5	-91.6	15.4
2025-01-27 11:59:50.989646	319.9	38.5	-91.2	11.5
2025-01-27 11:59:52.138152	319.4	38.5	-91.2	16.3
2025-01-27 11:59:53.284573	318.9	38.5	-91.5	14.6
2025-01-27 11:59:54.437904	318.4	38.5	-91.7	12.0
2025-01-27 11:59:55.582749	317.9	38.4	-91.5	10.4
2025-01-27 11:59:56.733978	317.4	38.4	-91.6	16.3
2025-01-27 11:59:57.885024	316.9	38.4	-91.7	8.4
2025-01-27 11:59:59.033780	316.4	38.3	-91.1	7.3
2025-01-27 12:00:00.175935	315.9	38.3	-91.5	12.8
2025-01-27 12:00:01.323107	315.4	38.3	-91.2	8.0
2025-01-27 12:00:02.475288	315.0	38.2	-90.4	6.3
2025-01-27 12:00:03.618849	314.5	38.2	-90.4	11.2
2025-01-27 12:00:04.763465	314.0	38.2	-90.5	14.5
2025-01-27 12:00:05.910538	313.5	38.1	-90.3	10.3
2025-01-27 12:00:07.060747	313.0	38.1	-91.2	11.9
2025-01-27 12:00:08.207636	312.5	38.0	-91.5	11.1
2025-01-27 12:00:09.356612	312.0	38.0	-91.4	13.6
2025-01-27 12:00:10.505692	311.5	37.9	-91.2	13.4
2025-01-27 12:00:11.650648	311.1	37.9	-91.8	14.0
2025-01-27 12:00:12.800853	310.6	37.8	-91.9	13.9
2025-01-27 12:00:13.948779	310.1	37.7	-91.2	15.4
2025-01-27 12:00:15.096740	309.6	37.7	-91.5	12.3
2025-01-27 12:00:16.244526	309.1	37.6	-91.5	19.4
2025-01-27 12:00:17.392535	308.7	37.5	-91.4	13.4
2025-01-27 12:00:18.539438	308.2	37.5	-91.8	5.7
2025-01-27 12:00:19.683968	307.7	37.4	-92.0	9.2
2025-01-27 12:00:20.831952	307.3	37.3	-91.5	10.6
2025-01-27 12:00:21.978706	306.8	37.3	-91.5	13.2
2025-01-27 12:00:23.127141	306.3	37.2	-91.7	14.4
2025-01-27 12:00:24.274563	305.9	37.1	-91.3	16.7
2025-01-27 12:00:25.420261	305.4	37.0	-91.3	16.8
2025-01-27 12:00:26.566628	305.0	36.9	-91.7	14.8
2025-01-27 12:00:27.711685	304.5	36.8	-91.8	13.9
2025-01-27 12:00:28.860028	304.1	36.8	-91.5	13.9
2025-01-27 12:00:30.010476	303.6	36.7	-91.5	12.6
2025-01-27 12:00:31.158758	303.2	36.6	-91.4	11.4
2025-01-27 12:00:32.304152	302.7	36.5	-91.1	11.8
2025-01-27 12:00:33.453828	302.3	36.4	-91.5	11.9
2025-01-27 12:00:34.599635	301.8	36.3	-91.7	13.7
2025-01-27 12:00:35.747251	301.4	36.2	-91.4	12.3
2025-01-27 12:00:36.891282	301.0	36.1	-92.0	13.6
2025-01-27 12:00:38.036696	300.5	36.0	-91.6	10.3
2025-01-27 12:00:39.183550	300.1	35.9	-91.1	11.3
2025-01-27 12:00:40.329422	299.7	35.8	-91.1	11.4
2025-01-27 12:00:41.475389	299.3	35.7	-91.4	10.4
2025-01-27 12:00:42.623730	298.8	35.6	-91.5	12.5
2025-01-27 12:00:43.771557	298.4	35.5	-91.4	13.6
2025-01-27 12:00:44.917602	298.0	35.4	-91.5	13.9
2025-01-27 12:00:46.067801	297.6	35.3	-91.4	11.3
2025-01-27 12:00:47.216918	297.2	35.2	-91.3	10.7
2025-01-27 12:00:48.363145	296.8	35.0	-91.2	8.8
2025-01-27 12:00:49.512542	296.4	34.9	-91.5	14.6
2025-01-27 12:00:50.660473	296.0	34.8	-91.5	12.8
2025-01-27 12:00:51.811997	295.6	34.7	-91.6	5.9
2025-01-27 12:00:52.959521	295.2	34.6	-91.7	8.3
2025-01-27 12:00:54.110424	294.8	34.5	-91.3	10.9
2025-01-27 12:00:55.251855	294.4	34.3	-91.0	5.2
2025-01-27 12:00:56.396298	294.0	34.2	-91.6	7.2
2025-01-27 12:00:57.540191	293.6	34.1	-91.6	9.3
2025-01-27 12:00:58.687927	293.2	34.0	-91.3	9.6
2025-01-27 12:00:59.831822	292.9	33.9	-91.6	7.3
2025-01-27 12:01:00.986557	292.5	33.7	-91.9	5.1
2025-01-27 12:01:02.133623	292.1	33.6	-91.3	5.2
2025-01-27 12:01:03.277027	291.7	33.5	-91.4	7.2
2025-01-27 12:01:04.421578	291.4	33.4	-91.8	7.5
2025-01-27 12:01:05.569580	291.0	33.2	-91.5	6.3
2025-01-27 12:01:06.713702	290.7	33.1	-90.7	6.3
2025-01-27 12:01:07.855427	290.3	33.0	-90.4	4.4
2025-01-27 12:01:09.000748	289.9	32.8	-90.8	5.3
2025-01-27 12:01:10.149570	289.6	32.7	-90.3	6.2
2025-01-27 12:01:11.293506	289.2	32.6	-91.2	6.6
2025-01-27 12:01:12.439569	288.9	32.4	-91.9	4.5
2025-01-27 12:01:13.585158	288.6	32.3	-91.9	6.0
2025-01-27 12:01:14.738438	288.2	32.2	-91.5	5.5
2025-01-27 12:01:15.895888	287.9	32.0	-91.4	6.1
2025-01-27 12:01:17.043937	287.5	31.9	-91.5	7.4
2025-01-27 12:01:18.193831	287.2	31.8	-91.5	10.3
2025-01-27 12:01:19.338007	286.9	31.6	-91.2	8.9
2025-01-27 12:01:20.489641	286.5	31.5	-91.6	9.5
2025-01-27 12:01:21.631517	286.2	31.4	-91.6	6.4
2025-01-27 12:01:22.778824	285.9	31.2	-91.6	7.6
2025-01-27 12:01:23.928396	285.6	31.1	-91.6	11.6
2025-01-27 12:01:25.073217	285.3	31.0	-91.4	10.5
2025-01-27 12:01:26.218864	285.0	30.8	-91.3	10.6
2025-01-27 12:01:27.373217	284.6	30.7	-91.4	11.3
2025-01-27 12:01:28.523929	284.3	30.5	-91.6	10.7
2025-01-27 12:01:29.672472	284.0	30.4	-91.5	14.3
2025-01-27 12:01:30.825731	283.7	30.3	-91.5	12.7
2025-01-27 12:01:31.981011	283.4	30.1	-91.8	13.0
2025-01-27 12:01:33.128340	283.1	30.0	-91.1	9.4
2025-01-27 12:01:34.276558	282.8	29.8	-91.2	8.8
2025-01-27 12:01:35.428745	282.5	29.7	-91.7	9.2
2025-01-27 12:01:36.573410	282.2	29.6	-91.5	8.9
2025-01-27 12:01:37.727019	282.0	29.4	-91.3	10.2
2025-01-27 12:01:38.876306	281.7	29.3	-91.3	6.9
2025-01-27 12:01:40.027427	281.4	29.1	-91.8	7.5
2025-01-27 12:01:41.192341	281.1	29.0	-91.3	8.0
2025-01-27 12:01:42.338809	280.8	28.9	-91.4	8.8
2025-01-27 12:01:43.481397	280.5	28.7	-91.6	6.1
2025-01-27 12:01:44.630282	280.3	28.6	-91.4	7.1
2025-01-27 12:01:45.774520	280.0	28.4	-91.6	9.9
2025-01-27 12:01:46.921220	279.7	28.3	-91.6	8.2
2025-01-27 12:01:48.069762	279.5	28.2	-91.2	7.2
2025-01-27 12:01:49.216465	279.2	28.0	-91.4	8.5
2025-01-27 12:01:50.364893	278.9	27.9	-91.7	9.9
2025-01-27 12:01:51.511936	278.7	27.7	-91.7	10.7
2025-01-27 12:01:52.661697	278.4	27.6	-91.8	13.1
2025-01-27 12:01:53.819616	278.2	27.5	-91.8	10.5
2025-01-27 12:01:54.963836	277.9	27.3	-91.6	13.2
2025-01-27 12:01:56.114803	277.7	27.2	-91.1	9.2
2025-01-27 12:01:57.263928	277.4	27.0	-91.5	9.8
2025-01-27 12:01:58.413710	277.2	26.9	-91.6	9.0
2025-01-27 12:01:59.563718	276.9	26.7	-91.1	13.4
2025-01-27 12:02:00.708566	276.7	26.6	-91.7	14.6
2025-01-27 12:02:01.857553	276.5	26.5	-91.5	11.0
2025-01-27 12:02:03.006605	276.2	26.3	-91.5	12.9
2025-01-27 12:02:04.155313	276.0	26.2	-91.2	15.3
2025-01-27 12:02:05.302961	275.8	26.1	-91.4	15.0
2025-01-27 12:02:06.456634	275.5	25.9	-91.7	10.3
2025-01-27 12:02:07.602049	275.3	25.8	-91.5	10.6
2025-01-27 12:02:08.749772	275.1	25.6	-91.2	14.3
2025-01-27 12:02:09.897034	274.8	25.5	-91.4	9.6
2025-01-27 12:02:11.044152	274.6	25.4	-90.4	11.2
2025-01-27 12:02:12.197010	274.4	25.2	-90.1	12.8
2025-01-27 12:02:13.347781	274.2	25.1	-90.6	12.9
2025-01-27 12:02:14.504103	274.0	24.9	-90.7	14.3
2025-01-27 12:02:15.654637	273.7	24.8	-91.6	15.3
2025-01-27 12:02:16.803491	273.5	24.7	-91.2	14.4
2025-01-27 12:02:17.952137	273.3	24.5	-91.6	15.4
2025-01-27 12:02:19.098327	273.1	24.4	-91.5	11.5
2025-01-27 12:02:20.245592	272.9	24.3	-91.0	15.3
2025-01-27 12:02:21.400263	272.7	24.1	-91.6	11.4
2025-01-27 12:02:22.545117	272.5	24.0	-91.4	11.2
2025-01-27 12:02:23.691401	272.3	23.9	-91.4	10.4
2025-01-27 12:02:24.840494	272.1	23.7	-91.9	10.7
2025-01-27 12:02:25.990485	271.9	23.6	-91.6	8.9
2025-01-27 12:02:27.140442	271.7	23.5	-91.7	11.9
2025-01-27 12:02:28.293819	271.5	23.3	-91.5	9.8
2025-01-27 12:02:29.442615	271.3	23.2	-91.9	5.6
2025-01-27 12:02:30.589560	271.1	23.1	-91.4	11.9
2025-01-27 12:02:31.736036	270.9	22.9	-91.7	12.1
2025-01-27 12:02:32.885198	270.7	22.8	-91.6	10.6
2025-01-27 12:02:34.033150	270.5	22.7	-91.6	9.5
2025-01-27 12:02:35.187364	270.4	22.5	-91.3	14.6
2025-01-27 12:02:36.332750	270.2	22.4	-91.5	12.9
2025-01-27 12:02:37.481516	270.0	22.3	-91.5	11.0
2025-01-27 12:02:38.625983	269.8	22.1	-91.2	8.1
2025-01-27 12:02:39.772968	269.6	22.0	-91.8	12.0
2025-01-27 12:02:40.924910	269.4	21.9	-91.7	10.9
2025-01-27 12:02:42.072570	269.3	21.7	-91.3	10.8
2025-01-27 12:02:43.221754	269.1	21.6	-90.9	11.2
2025-01-27 12:02:44.366429	268.9	21.5	-91.4	5.5
2025-01-27 12:02:45.511612	268.8	21.4	-91.9	7.0
2025-01-27 12:02:46.651454	268.6	21.2	-91.7	6.2
2025-01-27 12:02:47.796997	268.4	21.1	-91.8	10.7
2025-01-27 12:02:48.945764	268.2	21.0	-91.6	5.7
2025-01-27 12:02:50.099769	268.1	20.8	-91.4	4.6
2025-01-27 12:02:51.243534	267.9	20.7	-91.5	9.8
2025-01-27 12:02:52.393115	267.8	20.6	-91.6	8.1
2025-01-27 12:02:53.537327	267.6	20.5	-91.5	6.5
2025-01-27 12:02:54.685248	267.4	20.3	-92.1	7.0
2025-01-27 12:02:55.849505	267.3	20.2	-91.6	8.6
2025-01-27 12:02:56.994550	267.1	20.1	-91.4	5.3
2025-01-27 12:02:58.140926	267.0	20.0	-91.4	9.1
2025-01-27 12:02:59.289712	266.8	19.8	-91.4	7.1
2025-01-27 12:03:00.427275	266.6	19.7	-91.5	5.6
2025-01-27 12:03:01.582317	266.5	19.6	-91.4	5.3
2025-01-27 12:03:02.727799	266.3	19.5	-91.7	7.3
2025-01-27 12:03:03.878052	266.2	19.3	-91.6	5.9
2025-01-27 12:03:05.022401	266.0	19.2	-91.2	1.7
2025-01-27 12:03:06.165211	265.9	19.1	-91.4	6.4
2025-01-27 12:03:07.318417	265.7	19.0	-91.4	3.3
2025-01-27 12:03:08.474019	265.6	18.9	-91.5	4.4
2025-01-27 12:03:09.619642	265.5	18.7	-91.5	3.0
2025-01-27 12:03:10.767845	265.3	18.6	-91.5	5.1
2025-01-27 12:03:11.914466	265.2	18.5	-91.5	4.3
2025-01-27 12:03:13.055007	265.0	18.4	-90.9	7.8
2025-01-27 12:03:14.196723	264.9	18.3	-91.4	10.4
2025-01-27 12:03:15.343873	264.7	18.1	-90.3	6.9
2025-01-27 12:03:16.487535	264.6	18.0	-90.7	8.5
2025-01-27 12:03:17.635343	264.5	17.9	-91.1	7.8
2025-01-27 12:03:18.784549	264.3	17.8	-90.6	10.4
2025-01-27 12:03:19.929906	264.2	17.7	-91.4	5.1
2025-01-27 12:03:21.077855	264.1	17.6	-91.5	5.1
2025-01-27 12:03:22.219097	263.9	17.4	-91.4	7.6
2025-01-27 12:03:23.363962	263.8	17.3	-91.4	8.1
2025-01-27 12:03:24.511097	263.7	17.2	-91.5	9.4
2025-01-27 12:03:25.658123	263.5	17.1	-91.6	11.1
2025-01-27 12:03:26.804981	263.4	17.0	-91.0	9.5
2025-01-27 12:03:27.954150	263.3	16.9	-91.4	10.1
2025-01-27 12:03:29.096296	263.2	16.8	-91.9	11.4
2025-01-27 12:03:30.243694	263.0	16.6	-91.5	11.4
2025-01-27 12:03:31.389045	262.9	16.5	-91.8	7.5
2025-01-27 12:03:32.544044	262.8	16.4	-91.7	10.4
2025-01-27 12:03:33.693611	262.7	16.3	-91.5	10.0
2025-01-27 12:03:34.841369	262.5	16.2	-91.7	6.4
2025-01-27 12:03:35.988929	262.4	16.1	-91.7	6.5
2025-01-27 12:03:37.137005	262.3	16.0	-91.6	9.2
2025-01-27 12:03:38.279980	262.2	15.9	-91.4	10.8
2025-01-27 12:03:39.427078	262.1	15.7	-91.5	8.2
2025-01-27 12:03:40.572593	261.9	15.6	-91.2	5.9
2025-01-27 12:03:41.720273	261.8	15.5	-91.5	12.4
2025-01-27 12:03:42.865675	261.7	15.4	-91.3	9.3
2025-01-27 12:03:44.013698	261.6	15.3	-91.5	9.4
2025-01-27 12:03:45.160969	261.5	15.2	-91.2	10.7
2025-01-27 12:03:46.308177	261.4	15.1	-91.3	8.0
2025-01-27 12:03:47.456775	261.3	15.0	-91.4	9.5
2025-01-27 12:03:48.598490	261.2	14.9	-91.5	9.2
2025-01-27 12:03:49.746089	261.0	14.8	-91.8	9.1
2025-01-27 12:03:50.896936	260.9	14.7	-91.4	8.9
2025-01-27 12:03:52.040194	260.8	14.6	-91.4	8.6
#Closed at: 2025-01-27 11:55:45.301817