passes_logs/2025/01/27/LEX_Murmansk/LEX_Murmansk__20250127_131316_NOAA_19_rec.log

#Pass ID: 20250127_131316_NOAA 19
#Satellite: NOAA 19
#Configuration: NOAA 19
#Start time: 2025-01-27 13:13:11.636358

#LorettStation: 1.0.0 05.05.2024
#Station: LEX_Murmansk
#Location: 33.156738 lon 68.926811 lat
#TLE: 1 33591U 09005A   25026.11929750  .00000374  00000+0  22339-3 0  9999
#TLE: 2 33591  99.0177  89.9666 0014047  27.3849 332.8061 14.13269171823112

#Time	Az	El	Level	SNR
2025-01-27 13:13:23.805052	39.2	15.9	-89.6	3.4
2025-01-27 13:13:24.969856	39.0	16.0	-90.0	1.0
2025-01-27 13:13:26.132043	38.9	16.1	-90.0	2.6
2025-01-27 13:13:27.286243	38.7	16.1	-90.1	1.2
2025-01-27 13:13:28.446594	38.5	16.2	-89.9	3.6
2025-01-27 13:13:29.614372	38.3	16.3	-90.0	3.4
2025-01-27 13:13:30.775549	38.1	16.4	-89.7	2.8
2025-01-27 13:13:31.938605	37.9	16.5	-89.9	3.3
2025-01-27 13:13:33.098756	37.7	16.6	-89.8	3.7
2025-01-27 13:13:34.254218	37.5	16.6	-90.2	2.9
2025-01-27 13:13:35.423741	37.3	16.7	-90.2	4.2
2025-01-27 13:13:36.579415	37.1	16.8	-90.3	3.8
2025-01-27 13:13:37.743265	36.9	16.9	-90.1	5.1
2025-01-27 13:13:38.905826	36.7	17.0	-90.1	3.9
2025-01-27 13:13:40.061154	36.5	17.1	-90.0	2.1
2025-01-27 13:13:41.229336	36.3	17.2	-89.9	3.4
2025-01-27 13:13:42.387442	36.1	17.2	-90.1	4.8
2025-01-27 13:13:43.544524	35.9	17.3	-90.2	5.4
2025-01-27 13:13:44.708404	35.7	17.4	-90.4	4.2
2025-01-27 13:13:45.870181	35.5	17.5	-90.1	4.0
2025-01-27 13:13:47.032742	35.3	17.6	-90.2	3.4
2025-01-27 13:13:48.189026	35.1	17.7	-90.3	1.2
2025-01-27 13:13:49.348028	34.9	17.7	-90.2	2.4
2025-01-27 13:13:50.510789	34.7	17.8	-90.3	2.5
2025-01-27 13:13:51.671839	34.4	17.9	-90.2	2.7
2025-01-27 13:13:52.829801	34.2	18.0	-90.0	3.5
2025-01-27 13:13:53.993458	34.0	18.1	-90.2	6.5
2025-01-27 13:13:55.155379	33.8	18.1	-90.2	4.8
2025-01-27 13:13:56.328771	33.6	18.2	-90.3	6.8
2025-01-27 13:13:57.485576	33.4	18.3	-90.6	8.2
2025-01-27 13:13:58.628288	33.1	18.4	-90.4	7.6
2025-01-27 13:13:59.791521	32.9	18.5	-90.3	5.7
2025-01-27 13:14:00.946645	32.7	18.6	-90.2	5.1
2025-01-27 13:14:02.106475	32.5	18.6	-90.2	4.9
2025-01-27 13:14:03.263855	32.3	18.7	-90.5	4.5
2025-01-27 13:14:04.430012	32.0	18.8	-90.7	4.8
2025-01-27 13:14:05.590887	31.8	18.9	-90.1	6.2
2025-01-27 13:14:06.754441	31.6	19.0	-90.4	5.0
2025-01-27 13:14:07.914447	31.4	19.0	-90.5	5.6
2025-01-27 13:14:09.078937	31.1	19.1	-90.7	4.4
2025-01-27 13:14:10.235269	30.9	19.2	-90.6	5.4
2025-01-27 13:14:11.401991	30.7	19.3	-90.5	5.0
2025-01-27 13:14:12.561671	30.4	19.4	-90.5	4.1
2025-01-27 13:14:13.719136	30.2	19.4	-90.4	2.3
2025-01-27 13:14:14.877085	30.0	19.5	-90.6	3.3
2025-01-27 13:14:16.041947	29.7	19.6	-90.5	3.8
2025-01-27 13:14:17.196955	29.5	19.7	-90.4	6.2
2025-01-27 13:14:18.362028	29.2	19.8	-90.3	6.3
2025-01-27 13:14:19.523838	29.0	19.8	-90.5	10.5
2025-01-27 13:14:20.687618	28.8	19.9	-90.4	12.0
2025-01-27 13:14:21.849487	28.5	20.0	-90.3	10.0
2025-01-27 13:14:23.010092	28.3	20.1	-90.4	7.3
2025-01-27 13:14:24.167601	28.0	20.1	-90.2	7.9
2025-01-27 13:14:25.325241	27.8	20.2	-89.6	2.3
2025-01-27 13:14:26.485348	27.5	20.3	-90.0	4.4
2025-01-27 13:14:27.642845	27.3	20.4	-89.9	6.8
2025-01-27 13:14:28.804665	27.0	20.4	-89.6	6.0
2025-01-27 13:14:29.965772	26.8	20.5	-90.1	6.9
2025-01-27 13:14:31.130384	26.5	20.6	-90.2	8.5
2025-01-27 13:14:32.294002	26.3	20.7	-90.2	10.9
2025-01-27 13:14:33.456042	26.0	20.7	-90.4	7.4
2025-01-27 13:14:34.616125	25.8	20.8	-90.5	9.8
2025-01-27 13:14:35.789331	25.5	20.9	-90.4	6.3
2025-01-27 13:14:36.953308	25.2	21.0	-90.3	6.6
2025-01-27 13:14:38.115183	25.0	21.0	-90.1	4.7
2025-01-27 13:14:39.270881	24.7	21.1	-90.2	4.0
2025-01-27 13:14:40.431800	24.4	21.2	-90.3	1.8
2025-01-27 13:14:41.592260	24.2	21.2	-90.4	3.8
2025-01-27 13:14:42.748555	23.9	21.3	-90.6	4.8
2025-01-27 13:14:43.906498	23.7	21.4	-90.3	4.6
2025-01-27 13:14:45.065346	23.4	21.4	-90.4	6.2
2025-01-27 13:14:46.227798	23.1	21.5	-90.4	8.0
2025-01-27 13:14:47.386896	22.8	21.6	-90.7	10.0
2025-01-27 13:14:48.550532	22.6	21.7	-90.6	9.8
2025-01-27 13:14:49.714755	22.3	21.7	-90.3	8.6
2025-01-27 13:14:50.866716	22.0	21.8	-90.4	7.1
2025-01-27 13:14:52.030167	21.8	21.9	-90.3	7.5
2025-01-27 13:14:53.188799	21.5	21.9	-90.1	5.6
2025-01-27 13:14:54.345724	21.2	22.0	-90.5	4.2
2025-01-27 13:14:55.505051	20.9	22.0	-90.5	6.3
2025-01-27 13:14:56.664158	20.6	22.1	-90.1	5.2
2025-01-27 13:14:57.821618	20.4	22.2	-90.5	7.0
2025-01-27 13:14:58.986732	20.1	22.2	-90.6	8.0
2025-01-27 13:15:00.148347	19.8	22.3	-90.1	5.8
2025-01-27 13:15:01.299599	19.5	22.4	-90.2	7.2
2025-01-27 13:15:02.452738	19.2	22.4	-90.5	8.9
2025-01-27 13:15:03.612341	18.9	22.5	-90.7	7.7
2025-01-27 13:15:04.777726	18.7	22.5	-90.6	6.6
2025-01-27 13:15:05.935097	18.4	22.6	-90.7	7.4
2025-01-27 13:15:07.094043	18.1	22.7	-90.1	6.3
2025-01-27 13:15:08.258424	17.8	22.7	-90.4	3.2
2025-01-27 13:15:09.414452	17.5	22.8	-90.3	4.8
2025-01-27 13:15:10.578330	17.2	22.8	-89.8	3.6
2025-01-27 13:15:11.737539	16.9	22.9	-89.8	4.0
2025-01-27 13:15:12.896081	16.6	22.9	-90.4	4.3
2025-01-27 13:15:14.055261	16.3	23.0	-90.4	6.0
2025-01-27 13:15:15.221676	16.0	23.0	-90.0	3.3
2025-01-27 13:15:16.380998	15.7	23.1	-89.9	6.5
2025-01-27 13:15:17.539781	15.4	23.1	-90.3	5.4
2025-01-27 13:15:18.705260	15.1	23.2	-90.6	7.0
2025-01-27 13:15:19.868127	14.8	23.2	-90.8	11.2
2025-01-27 13:15:21.031527	14.5	23.3	-90.4	7.8
2025-01-27 13:15:22.190803	14.2	23.3	-90.4	7.4
2025-01-27 13:15:23.349697	13.9	23.4	-90.4	9.3
2025-01-27 13:15:24.505546	13.6	23.4	-90.7	9.7
2025-01-27 13:15:25.668287	13.3	23.5	-90.4	7.0
2025-01-27 13:15:26.832067	13.0	23.5	-90.3	5.0
2025-01-27 13:15:27.993205	12.7	23.6	-90.0	6.2
2025-01-27 13:15:29.156753	12.4	23.6	-90.0	5.2
2025-01-27 13:15:30.321055	12.1	23.7	-90.0	3.5
2025-01-27 13:15:31.486965	11.8	23.7	-90.2	7.2
2025-01-27 13:15:32.640683	11.5	23.8	-89.7	6.8
2025-01-27 13:15:33.803131	11.1	23.8	-90.2	6.7
2025-01-27 13:15:34.958556	10.8	23.8	-90.1	8.0
2025-01-27 13:15:36.120355	10.5	23.9	-90.2	8.3
2025-01-27 13:15:37.277022	10.2	23.9	-90.1	8.1
2025-01-27 13:15:38.442875	9.9	23.9	-90.2	9.3
2025-01-27 13:15:39.594587	9.6	24.0	-90.2	8.9
2025-01-27 13:15:40.756976	9.3	24.0	-90.2	7.8
2025-01-27 13:15:41.912521	8.9	24.0	-90.3	6.6
2025-01-27 13:15:43.067769	8.6	24.1	-90.1	6.1
2025-01-27 13:15:44.226917	8.3	24.1	-90.1	5.4
2025-01-27 13:15:45.391276	8.0	24.1	-90.1	6.0
2025-01-27 13:15:46.548115	7.7	24.2	-90.3	4.9
2025-01-27 13:15:47.714560	7.3	24.2	-90.1	3.3
2025-01-27 13:15:48.877475	7.0	24.2	-90.2	3.6
2025-01-27 13:15:50.035928	6.7	24.3	-90.0	4.7
2025-01-27 13:15:51.183394	6.4	24.3	-90.3	3.9
2025-01-27 13:15:52.347197	6.1	24.3	-90.3	2.6
2025-01-27 13:15:53.505262	5.7	24.3	-90.3	3.8
2025-01-27 13:15:54.657816	5.4	24.4	-90.5	3.6
2025-01-27 13:15:55.813561	5.1	24.4	-90.4	4.5
2025-01-27 13:15:56.974358	4.8	24.4	-90.2	4.8
2025-01-27 13:15:58.132491	4.5	24.4	-90.1	6.5
2025-01-27 13:15:59.288208	4.1	24.5	-90.1	7.7
2025-01-27 13:16:00.443409	3.8	24.5	-89.8	6.9
2025-01-27 13:16:01.607529	3.5	24.5	-90.2	6.8
2025-01-27 13:16:02.766211	3.2	24.5	-90.1	9.3
2025-01-27 13:16:03.929359	2.8	24.5	-90.1	10.5
2025-01-27 13:16:05.093215	2.5	24.5	-90.0	10.8
2025-01-27 13:16:06.252807	2.2	24.6	-89.9	13.3
2025-01-27 13:16:07.419998	1.8	24.6	-90.0	11.7
2025-01-27 13:16:08.580935	1.5	24.6	-89.8	8.3
2025-01-27 13:16:09.739879	1.2	24.6	-89.8	7.0
2025-01-27 13:16:10.894515	0.9	24.6	-90.0	8.6
2025-01-27 13:16:12.053323	0.5	24.6	-89.9	7.7
2025-01-27 13:16:13.227987	0.2	24.6	-90.1	6.4
2025-01-27 13:16:14.383767	359.9	24.6	-89.8	7.4
2025-01-27 13:16:15.538405	359.5	24.6	-89.9	6.7
2025-01-27 13:16:16.698459	359.2	24.6	-90.1	4.0
2025-01-27 13:16:17.861015	358.9	24.6	-90.3	5.6
2025-01-27 13:16:19.021196	358.6	24.6	-90.1	6.2
2025-01-27 13:16:20.185651	358.2	24.6	-90.0	5.9
2025-01-27 13:16:21.355483	357.9	24.6	-90.2	3.4
2025-01-27 13:16:22.723337	357.5	24.6	-90.1	5.7
2025-01-27 13:16:23.880279	357.2	24.6	-90.5	6.1
2025-01-27 13:16:25.036939	356.9	24.6	-90.7	8.1
2025-01-27 13:16:26.193097	356.5	24.6	-90.4	6.5
2025-01-27 13:16:27.351382	356.2	24.6	-90.6	6.1
2025-01-27 13:16:28.712187	355.8	24.6	-90.6	7.4
2025-01-27 13:16:29.965928	355.5	24.6	-90.7	7.2
2025-01-27 13:16:31.123433	355.1	24.6	-90.7	9.5
2025-01-27 13:16:32.279475	354.8	24.6	-90.8	10.6
2025-01-27 13:16:33.431271	354.5	24.6	-90.3	8.3
2025-01-27 13:16:34.577315	354.2	24.6	-90.7	9.0
2025-01-27 13:16:35.736092	353.8	24.6	-90.6	9.6
2025-01-27 13:16:36.890401	353.5	24.6	-90.5	10.6
2025-01-27 13:16:38.051767	353.2	24.5	-90.4	11.8
2025-01-27 13:16:39.210119	352.8	24.5	-90.7	11.5
2025-01-27 13:16:40.371678	352.5	24.5	-90.5	11.4
2025-01-27 13:16:41.526984	352.2	24.5	-90.7	11.3
2025-01-27 13:16:42.687453	351.9	24.5	-90.7	10.0
2025-01-27 13:16:43.843413	351.5	24.5	-90.6	10.8
2025-01-27 13:16:44.997131	351.2	24.4	-90.6	9.6
2025-01-27 13:16:46.151619	350.9	24.4	-90.5	11.0
2025-01-27 13:16:47.319346	350.6	24.4	-90.5	10.3
2025-01-27 13:16:48.477880	350.3	24.4	-90.7	10.6
2025-01-27 13:16:49.641915	349.9	24.3	-90.6	10.4
2025-01-27 13:16:50.794502	349.6	24.3	-90.4	10.1
2025-01-27 13:16:51.958109	349.3	24.3	-90.5	7.8
2025-01-27 13:16:53.121997	349.0	24.3	-90.4	9.6
2025-01-27 13:16:54.285405	348.6	24.2	-90.0	9.7
2025-01-27 13:16:55.438105	348.3	24.2	-90.3	10.2
2025-01-27 13:16:56.592103	348.0	24.2	-90.4	8.5
2025-01-27 13:16:57.759463	347.7	24.1	-90.1	6.0
2025-01-27 13:16:58.917568	347.4	24.1	-90.4	10.3
2025-01-27 13:17:00.075142	347.1	24.1	-90.3	9.6
2025-01-27 13:17:01.229625	346.7	24.0	-90.3	9.6
2025-01-27 13:17:02.390522	346.4	24.0	-90.3	8.7
2025-01-27 13:17:03.556820	346.1	24.0	-90.3	8.3
2025-01-27 13:17:04.713362	345.8	23.9	-90.3	6.2
2025-01-27 13:17:05.873425	345.5	23.9	-90.7	6.4
2025-01-27 13:17:07.041630	345.2	23.9	-90.7	7.9
2025-01-27 13:17:08.205370	344.8	23.8	-90.5	5.3
2025-01-27 13:17:09.369957	344.5	23.8	-90.3	7.0
2025-01-27 13:17:10.530357	344.2	23.7	-90.6	6.6
2025-01-27 13:17:11.693586	343.9	23.7	-90.4	5.1
2025-01-27 13:17:12.860478	343.6	23.7	-90.8	6.6
2025-01-27 13:17:14.023722	343.3	23.6	-90.8	7.6
2025-01-27 13:17:15.179078	343.0	23.6	-90.6	4.9
2025-01-27 13:17:16.335665	342.7	23.5	-90.3	3.2
2025-01-27 13:17:17.500459	342.4	23.5	-90.5	5.5
2025-01-27 13:17:18.660224	342.1	23.4	-90.5	6.1
2025-01-27 13:17:19.821954	341.8	23.4	-91.0	4.2
2025-01-27 13:17:20.978636	341.5	23.3	-90.8	7.2
2025-01-27 13:17:22.137709	341.2	23.3	-90.5	5.2
2025-01-27 13:17:23.296466	340.9	23.2	-90.6	5.3
2025-01-27 13:17:24.461913	340.6	23.2	-90.5	7.0
2025-01-27 13:17:25.604202	340.3	23.1	-90.3	8.2
2025-01-27 13:17:26.763697	340.0	23.1	-90.7	5.9
2025-01-27 13:17:27.919035	339.7	23.0	-90.5	7.0
2025-01-27 13:17:29.087688	339.4	23.0	-90.7	9.3
2025-01-27 13:17:30.248891	339.1	22.9	-90.6	6.5
2025-01-27 13:17:31.412310	338.8	22.9	-90.6	7.7
2025-01-27 13:17:32.575554	338.5	22.8	-90.5	8.8
2025-01-27 13:17:33.742735	338.2	22.8	-90.6	6.8
2025-01-27 13:17:34.893335	337.9	22.7	-90.6	7.8
2025-01-27 13:17:36.052586	337.6	22.7	-90.7	8.8
2025-01-27 13:17:37.219673	337.3	22.6	-90.5	6.8
2025-01-27 13:17:38.373297	337.0	22.5	-90.3	9.8
2025-01-27 13:17:39.536542	336.8	22.5	-90.6	8.4
2025-01-27 13:17:40.692304	336.5	22.4	-90.5	8.9
2025-01-27 13:17:41.849675	336.2	22.4	-90.5	8.6
2025-01-27 13:17:43.007900	335.9	22.3	-90.3	12.8
2025-01-27 13:17:44.170565	335.6	22.2	-90.2	11.3
2025-01-27 13:17:45.323166	335.3	22.2	-90.6	5.8
2025-01-27 13:17:46.484658	335.1	22.1	-90.5	2.7
2025-01-27 13:17:47.639851	334.8	22.0	-90.7	4.2
2025-01-27 13:17:48.799559	334.5	22.0	-90.6	9.1
2025-01-27 13:17:49.960293	334.2	21.9	-90.6	4.5
2025-01-27 13:17:51.122919	334.0	21.9	-90.3	3.0
2025-01-27 13:17:52.274458	333.7	21.8	-90.5	8.6
2025-01-27 13:17:53.427767	333.4	21.7	-90.3	4.9
2025-01-27 13:17:54.597207	333.1	21.7	-90.7	8.0
2025-01-27 13:17:55.749974	332.9	21.6	-90.5	8.7
2025-01-27 13:17:56.917641	332.6	21.5	-90.9	4.7
2025-01-27 13:17:58.072733	332.3	21.5	-90.6	6.5
2025-01-27 13:17:59.224758	332.1	21.4	-90.3	9.1
2025-01-27 13:18:00.382288	331.8	21.3	-90.4	6.7
2025-01-27 13:18:01.538818	331.5	21.2	-90.2	5.3
2025-01-27 13:18:02.699870	331.3	21.2	-90.5	5.8
2025-01-27 13:18:03.863454	331.0	21.1	-90.3	4.3
2025-01-27 13:18:05.019258	330.8	21.0	-90.8	5.6
2025-01-27 13:18:06.177208	330.5	21.0	-90.4	2.5
2025-01-27 13:18:07.339523	330.2	20.9	-90.4	2.0
2025-01-27 13:18:08.498356	330.0	20.8	-90.4	3.1
2025-01-27 13:18:09.659336	329.7	20.7	-90.9	3.9
2025-01-27 13:18:10.818076	329.5	20.7	-90.9	1.5
2025-01-27 13:18:11.982003	329.2	20.6	-90.7	4.4
2025-01-27 13:18:13.138793	329.0	20.5	-90.2	2.4
2025-01-27 13:18:14.298221	328.7	20.5	-90.4	2.3
2025-01-27 13:18:15.447952	328.5	20.4	-90.2	4.0
2025-01-27 13:18:16.615834	328.2	20.3	-90.3	1.7
2025-01-27 13:18:17.776746	328.0	20.2	-90.0	1.4
2025-01-27 13:18:18.945897	327.7	20.1	-90.0	1.3
2025-01-27 13:18:20.109027	327.5	20.1	-89.8	2.0
2025-01-27 13:18:21.266513	327.2	20.0	-90.2	1.5
2025-01-27 13:18:22.430211	327.0	19.9	-90.2	3.1
2025-01-27 13:18:23.586093	326.7	19.8	-90.3	3.2
2025-01-27 13:18:24.752041	326.5	19.8	-90.4	1.8
2025-01-27 13:18:25.905154	326.3	19.7	-90.3	3.4
2025-01-27 13:18:27.066578	326.0	19.6	-90.3	2.8
2025-01-27 13:18:28.218577	325.8	19.5	-90.3	2.7
2025-01-27 13:18:29.382462	325.6	19.5	-90.3	2.2
2025-01-27 13:18:30.541418	325.3	19.4	-90.5	2.5
2025-01-27 13:18:31.709457	325.1	19.3	-90.3	3.2
2025-01-27 13:18:32.867232	324.9	19.2	-89.8	3.1
2025-01-27 13:18:34.024316	324.6	19.1	-90.5	4.0
2025-01-27 13:18:35.185016	324.4	19.1	-90.3	3.7
2025-01-27 13:18:36.338856	324.2	19.0	-90.4	3.3
2025-01-27 13:18:37.502724	323.9	18.9	-90.2	2.3
2025-01-27 13:18:38.666044	323.7	18.8	-90.3	4.2
2025-01-27 13:18:39.822040	323.5	18.7	-90.1	3.7
2025-01-27 13:18:40.979137	323.3	18.7	-89.7	8.5
2025-01-27 13:18:42.141673	323.0	18.6	-89.8	4.4
2025-01-27 13:18:43.295483	322.8	18.5	-89.8	3.2
2025-01-27 13:18:44.463420	322.6	18.4	-90.0	0.8
2025-01-27 13:18:45.620788	322.4	18.3	-89.9	1.3
2025-01-27 13:18:46.784041	322.2	18.3	-89.9	3.8
2025-01-27 13:18:47.945414	322.0	18.2	-90.0	2.1
2025-01-27 13:18:49.107464	321.7	18.1	-90.2	1.1
2025-01-27 13:18:50.264436	321.5	18.0	-89.8	2.1
2025-01-27 13:18:51.420528	321.3	17.9	-90.1	2.8
2025-01-27 13:18:52.584134	321.1	17.8	-90.2	4.1
2025-01-27 13:18:53.748930	320.9	17.8	-90.4	1.1
2025-01-27 13:18:54.909905	320.7	17.7	-90.6	4.1
2025-01-27 13:18:56.065958	320.5	17.6	-90.4	3.5
2025-01-27 13:18:57.226383	320.3	17.5	-90.0	2.5
2025-01-27 13:18:58.384002	320.1	17.4	-90.5	3.6
2025-01-27 13:18:59.546407	319.9	17.3	-90.8	6.1
2025-01-27 13:19:00.694576	319.7	17.3	-90.3	3.3
2025-01-27 13:19:01.857044	319.5	17.2	-90.4	2.8
2025-01-27 13:19:03.020968	319.3	17.1	-90.5	5.3
2025-01-27 13:19:04.189147	319.1	17.0	-90.5	1.8
2025-01-27 13:19:05.345168	318.9	16.9	-90.4	3.0
2025-01-27 13:19:06.499930	318.7	16.8	-90.2	4.2
2025-01-27 13:19:07.662025	318.5	16.8	-90.0	2.9
2025-01-27 13:19:08.814930	318.3	16.7	-90.3	3.9
2025-01-27 13:19:09.959353	318.1	16.6	-89.8	2.2
2025-01-27 13:19:11.079946	317.9	16.5	-90.2	4.0
2025-01-27 13:19:12.200043	317.7	16.4	-89.8	3.4
2025-01-27 13:19:13.321102	317.5	16.4	-89.6	4.1
2025-01-27 13:19:14.440956	317.3	16.3	-90.1	2.3
2025-01-27 13:19:15.561536	317.2	16.2	-89.9	5.0
2025-01-27 13:19:16.682672	317.0	16.1	-90.0	2.6
2025-01-27 13:19:17.803622	316.8	16.0	-90.0	1.0
2025-01-27 13:19:18.924877	316.6	15.9	-90.0	3.0
2025-01-27 13:19:20.051250	316.4	15.9	-90.1	3.4
2025-01-27 13:19:21.197812	316.2	15.8	-89.9	4.5
2025-01-27 13:19:22.361646	316.1	15.7	-90.0	2.8
2025-01-27 13:19:23.512707	315.9	15.6	-89.9	5.1
2025-01-27 13:19:24.671116	315.7	15.5	-90.0	3.9
2025-01-27 13:19:25.837905	315.5	15.4	-89.6	5.5
2025-01-27 13:19:27.000926	315.3	15.4	-90.0	3.9
2025-01-27 13:19:28.163596	315.2	15.3	-89.7	7.3
2025-01-27 13:19:29.325285	315.0	15.2	-89.7	6.3
2025-01-27 13:19:30.489426	314.8	15.1	-89.4	5.9
2025-01-27 13:19:31.643781	314.6	15.0	-89.6	5.2
2025-01-27 13:19:32.802506	314.5	14.9	-89.9	2.2
2025-01-27 13:19:33.959314	314.3	14.9	-90.0	3.1
2025-01-27 13:19:35.115993	314.1	14.8	-90.2	7.2
2025-01-27 13:19:36.275274	314.0	14.7	-89.7	3.3
2025-01-27 13:19:37.430091	313.8	14.6	-90.1	4.6
#Closed at: 2025-01-27 13:13:16.603168