passes_logs/2025/01/27/LEX_Murmansk/LEX_Murmansk__20250127_151538_NOAA_18_rec.log

#Pass ID: 20250127_151538_NOAA 18
#Satellite: NOAA 18
#Configuration: NOAA 18
#Start time: 2025-01-27 15:15:33.208394

#LorettStation: 1.0.0 05.05.2024
#Station: LEX_Murmansk
#Location: 33.156738 lon 68.926811 lat
#TLE: 1 28654U 05018A   25027.12567402  .00000414  00000+0  24299-3 0  9999
#TLE: 2 28654  98.8547 108.0587 0014840 145.8119 214.4012 14.13498347 14893

#Time	Az	El	Level	SNR
2025-01-27 15:15:45.368842	53.8	15.9	-90.1	7.0
2025-01-27 15:15:46.525826	53.6	16.0	-90.3	8.6
2025-01-27 15:15:47.666688	53.4	16.1	-90.3	6.8
2025-01-27 15:15:48.814087	53.3	16.2	-90.6	9.6
2025-01-27 15:15:49.972213	53.1	16.2	-90.6	10.8
2025-01-27 15:15:51.126784	52.9	16.3	-90.4	10.3
2025-01-27 15:15:52.284715	52.7	16.4	-90.5	8.9
2025-01-27 15:15:53.449301	52.5	16.5	-90.7	8.5
2025-01-27 15:15:54.606364	52.3	16.6	-90.8	8.9
2025-01-27 15:15:55.771700	52.1	16.7	-90.6	12.4
2025-01-27 15:15:56.935389	51.9	16.8	-90.4	9.5
2025-01-27 15:15:58.101507	51.7	16.8	-90.2	8.8
2025-01-27 15:15:59.259229	51.5	16.9	-89.9	10.1
2025-01-27 15:16:00.416562	51.3	17.0	-90.4	4.7
2025-01-27 15:16:01.595899	51.1	17.1	-90.6	9.4
2025-01-27 15:16:02.747563	50.9	17.2	-90.7	8.0
2025-01-27 15:16:03.901846	50.7	17.3	-90.3	7.4
2025-01-27 15:16:05.061298	50.5	17.4	-90.3	8.5
2025-01-27 15:16:06.219999	50.3	17.4	-90.4	6.6
2025-01-27 15:16:07.383003	50.1	17.5	-90.2	7.9
2025-01-27 15:16:08.542353	49.9	17.6	-90.2	7.8
2025-01-27 15:16:09.703678	49.7	17.7	-90.7	9.3
2025-01-27 15:16:10.868545	49.5	17.8	-90.6	8.2
2025-01-27 15:16:12.033505	49.3	17.9	-90.4	8.7
2025-01-27 15:16:13.204663	49.1	18.0	-90.3	10.9
2025-01-27 15:16:14.355768	48.9	18.0	-90.3	7.9
2025-01-27 15:16:15.517151	48.7	18.1	-90.4	9.5
2025-01-27 15:16:16.685585	48.5	18.2	-90.6	11.2
2025-01-27 15:16:17.848608	48.3	18.3	-90.2	9.0
2025-01-27 15:16:19.013347	48.0	18.4	-90.1	9.5
2025-01-27 15:16:20.176018	47.8	18.5	-90.2	12.9
2025-01-27 15:16:21.340791	47.6	18.6	-90.4	9.8
2025-01-27 15:16:22.507446	47.4	18.6	-90.6	7.3
2025-01-27 15:16:23.666450	47.2	18.7	-90.6	8.1
2025-01-27 15:16:24.825841	47.0	18.8	-90.5	9.2
2025-01-27 15:16:25.990291	46.7	18.9	-90.6	7.3
2025-01-27 15:16:27.147753	46.5	19.0	-90.2	9.3
2025-01-27 15:16:28.306179	46.3	19.1	-89.6	7.8
2025-01-27 15:16:29.465712	46.1	19.1	-89.4	10.7
2025-01-27 15:16:30.632157	45.8	19.2	-89.5	5.7
2025-01-27 15:16:31.807593	45.6	19.3	-89.7	8.0
2025-01-27 15:16:32.969195	45.4	19.4	-90.7	6.8
2025-01-27 15:16:34.130589	45.1	19.5	-90.5	9.9
2025-01-27 15:16:35.302703	44.9	19.6	-90.2	9.4
2025-01-27 15:16:36.471526	44.7	19.6	-90.1	7.9
2025-01-27 15:16:37.629104	44.4	19.7	-90.3	6.6
2025-01-27 15:16:38.790444	44.2	19.8	-90.3	11.4
2025-01-27 15:16:39.954635	44.0	19.9	-90.4	11.7
2025-01-27 15:16:41.120368	43.7	20.0	-90.5	13.0
2025-01-27 15:16:42.280028	43.5	20.0	-90.1	13.6
2025-01-27 15:16:43.443303	43.2	20.1	-90.5	5.8
2025-01-27 15:16:44.601542	43.0	20.2	-90.7	8.9
2025-01-27 15:16:45.767249	42.8	20.3	-90.8	8.2
2025-01-27 15:16:46.930735	42.5	20.4	-90.9	6.4
2025-01-27 15:16:48.092792	42.3	20.4	-90.3	7.6
2025-01-27 15:16:49.247924	42.0	20.5	-90.4	10.6
2025-01-27 15:16:50.410527	41.8	20.6	-90.7	6.8
2025-01-27 15:16:51.574323	41.5	20.7	-90.5	9.4
2025-01-27 15:16:52.734414	41.3	20.7	-90.7	10.2
2025-01-27 15:16:53.893626	41.0	20.8	-90.5	16.0
2025-01-27 15:16:55.046345	40.8	20.9	-90.5	11.6
2025-01-27 15:16:56.207713	40.5	21.0	-90.6	11.6
2025-01-27 15:16:57.370092	40.2	21.1	-90.6	10.3
2025-01-27 15:16:58.535333	40.0	21.1	-90.9	10.9
2025-01-27 15:16:59.689158	39.7	21.2	-90.8	10.7
2025-01-27 15:17:00.844622	39.5	21.3	-90.7	5.5
2025-01-27 15:17:02.005703	39.2	21.4	-90.8	8.1
2025-01-27 15:17:03.167716	39.0	21.4	-90.3	8.7
2025-01-27 15:17:04.320776	38.7	21.5	-90.3	11.3
2025-01-27 15:17:05.482508	38.4	21.6	-90.9	13.4
2025-01-27 15:17:06.645079	38.2	21.6	-90.9	11.5
2025-01-27 15:17:07.801052	37.9	21.7	-90.6	12.0
2025-01-27 15:17:08.923789	37.6	21.8	-90.4	6.4
2025-01-27 15:17:10.044450	37.4	21.9	-90.4	6.1
2025-01-27 15:17:11.165000	37.1	21.9	-90.5	8.7
2025-01-27 15:17:12.285555	36.8	22.0	-90.2	12.6
2025-01-27 15:17:13.406756	36.6	22.1	-90.7	6.9
2025-01-27 15:17:14.527766	36.3	22.1	-90.4	6.1
2025-01-27 15:17:15.648860	36.0	22.2	-90.5	10.1
2025-01-27 15:17:16.769177	35.8	22.3	-89.5	13.6
2025-01-27 15:17:17.893416	35.5	22.3	-89.8	7.8
2025-01-27 15:17:19.021722	35.2	22.4	-89.4	7.3
2025-01-27 15:17:20.177208	35.0	22.5	-89.0	9.2
2025-01-27 15:17:21.321141	34.7	22.5	-89.6	10.4
2025-01-27 15:17:22.483485	34.4	22.6	-89.8	11.1
2025-01-27 15:17:23.630135	34.1	22.7	-90.5	12.7
2025-01-27 15:17:24.789351	33.8	22.7	-90.6	14.7
2025-01-27 15:17:25.945757	33.5	22.8	-90.5	11.6
2025-01-27 15:17:27.102088	33.3	22.8	-90.7	9.0
2025-01-27 15:17:28.265223	33.0	22.9	-91.0	8.5
2025-01-27 15:17:29.431019	32.7	23.0	-90.8	8.9
2025-01-27 15:17:30.591563	32.4	23.0	-90.8	11.8
2025-01-27 15:17:31.759084	32.1	23.1	-91.0	13.4
2025-01-27 15:17:32.920946	31.8	23.2	-90.7	11.8
2025-01-27 15:17:34.088688	31.5	23.2	-90.7	12.8
2025-01-27 15:17:35.248339	31.2	23.3	-90.4	13.4
2025-01-27 15:17:36.406426	30.9	23.3	-90.8	11.2
2025-01-27 15:17:37.571784	30.6	23.4	-90.7	8.4
2025-01-27 15:17:38.734469	30.3	23.4	-90.6	11.6
2025-01-27 15:17:39.897284	30.0	23.5	-90.9	11.7
2025-01-27 15:17:41.060687	29.7	23.6	-91.1	8.2
2025-01-27 15:17:42.226963	29.4	23.6	-90.9	10.0
2025-01-27 15:17:43.387066	29.1	23.7	-90.7	8.6
2025-01-27 15:17:44.547303	28.8	23.7	-90.8	5.9
2025-01-27 15:17:45.712523	28.5	23.8	-91.0	11.7
2025-01-27 15:17:46.876906	28.2	23.8	-90.5	9.8
2025-01-27 15:17:48.041573	27.9	23.9	-90.3	8.3
2025-01-27 15:17:49.205544	27.6	23.9	-90.2	16.4
2025-01-27 15:17:50.370717	27.3	24.0	-91.0	8.9
2025-01-27 15:17:51.530874	26.9	24.0	-91.2	10.9
2025-01-27 15:17:52.694762	26.6	24.1	-91.0	12.7
2025-01-27 15:17:53.856986	26.3	24.1	-91.0	11.0
2025-01-27 15:17:55.019995	26.0	24.2	-90.7	14.6
2025-01-27 15:17:56.172586	25.7	24.2	-90.9	15.3
2025-01-27 15:17:57.334713	25.4	24.2	-90.7	9.7
2025-01-27 15:17:58.492693	25.1	24.3	-90.9	14.1
2025-01-27 15:17:59.655384	24.7	24.3	-91.1	14.4
2025-01-27 15:18:00.809053	24.4	24.4	-91.0	14.5
2025-01-27 15:18:01.971694	24.1	24.4	-90.9	15.3
2025-01-27 15:18:03.132010	23.8	24.4	-90.7	16.0
2025-01-27 15:18:04.293903	23.5	24.5	-91.1	9.4
2025-01-27 15:18:05.456757	23.1	24.5	-91.3	7.6
2025-01-27 15:18:06.611821	22.8	24.6	-91.0	9.4
2025-01-27 15:18:07.777413	22.5	24.6	-91.3	9.8
2025-01-27 15:18:08.937527	22.2	24.6	-91.3	11.6
2025-01-27 15:18:10.102436	21.9	24.7	-90.9	16.1
2025-01-27 15:18:11.268152	21.5	24.7	-90.7	14.2
2025-01-27 15:18:12.432632	21.2	24.7	-90.8	18.4
2025-01-27 15:18:13.592700	20.9	24.8	-91.0	14.6
2025-01-27 15:18:14.749666	20.5	24.8	-91.1	9.3
2025-01-27 15:18:15.907566	20.2	24.8	-91.0	12.0
2025-01-27 15:18:17.075320	19.9	24.8	-90.7	10.0
2025-01-27 15:18:18.240978	19.6	24.9	-90.7	12.7
2025-01-27 15:18:19.400722	19.2	24.9	-91.0	10.5
2025-01-27 15:18:20.555741	18.9	24.9	-90.9	9.9
2025-01-27 15:18:21.683860	18.6	24.9	-90.9	9.3
2025-01-27 15:18:22.805154	18.3	25.0	-91.2	9.5
2025-01-27 15:18:23.925948	17.9	25.0	-90.4	7.6
2025-01-27 15:18:25.045774	17.6	25.0	-90.0	6.9
2025-01-27 15:18:26.165738	17.3	25.0	-89.9	10.4
2025-01-27 15:18:27.286067	17.0	25.0	-89.8	10.0
2025-01-27 15:18:28.408046	16.7	25.1	-91.0	6.6
2025-01-27 15:18:29.528590	16.3	25.1	-91.1	9.9
2025-01-27 15:18:30.654745	16.0	25.1	-91.2	12.5
2025-01-27 15:18:31.797736	15.7	25.1	-90.8	11.9
2025-01-27 15:18:32.955228	15.4	25.1	-90.7	11.9
2025-01-27 15:18:34.114322	15.0	25.1	-90.3	11.9
2025-01-27 15:18:35.271290	14.7	25.1	-90.2	13.3
2025-01-27 15:18:36.424352	14.4	25.2	-90.8	11.4
2025-01-27 15:18:37.590276	14.0	25.2	-90.8	5.6
2025-01-27 15:18:38.752054	13.7	25.2	-90.5	11.5
2025-01-27 15:18:39.916173	13.3	25.2	-90.8	9.5
2025-01-27 15:18:41.083807	13.0	25.2	-90.5	9.5
2025-01-27 15:18:42.249085	12.7	25.2	-91.0	10.8
2025-01-27 15:18:43.413179	12.3	25.2	-90.7	10.9
2025-01-27 15:18:44.569197	12.0	25.2	-90.9	13.5
2025-01-27 15:18:45.727790	11.7	25.2	-90.9	15.0
2025-01-27 15:18:46.893627	11.3	25.2	-91.1	7.9
2025-01-27 15:18:48.055798	11.0	25.2	-91.0	7.0
2025-01-27 15:18:49.221835	10.7	25.2	-90.6	10.6
2025-01-27 15:18:50.385214	10.3	25.2	-90.5	7.1
2025-01-27 15:18:51.544549	10.0	25.2	-90.5	6.2
2025-01-27 15:18:52.705979	9.7	25.2	-91.1	11.1
2025-01-27 15:18:53.868128	9.3	25.2	-91.5	5.5
2025-01-27 15:18:55.026228	9.0	25.2	-90.6	5.8
2025-01-27 15:18:56.189776	8.6	25.2	-90.6	12.0
2025-01-27 15:18:57.359727	8.3	25.2	-90.8	5.1
2025-01-27 15:18:58.517209	8.0	25.1	-90.9	6.8
2025-01-27 15:18:59.682174	7.6	25.1	-90.9	11.9
2025-01-27 15:19:00.836648	7.3	25.1	-91.0	8.2
2025-01-27 15:19:02.000931	7.0	25.1	-90.9	7.1
2025-01-27 15:19:03.165426	6.6	25.1	-90.5	8.5
2025-01-27 15:19:04.329047	6.3	25.1	-90.6	9.1
2025-01-27 15:19:05.491242	6.0	25.1	-90.9	7.9
2025-01-27 15:19:06.654667	5.6	25.0	-90.7	9.4
2025-01-27 15:19:07.812689	5.3	25.0	-90.9	9.8
2025-01-27 15:19:08.969817	5.0	25.0	-90.9	8.1
2025-01-27 15:19:10.131464	4.6	25.0	-90.4	10.3
2025-01-27 15:19:11.296045	4.3	25.0	-90.6	8.6
2025-01-27 15:19:12.447065	4.0	24.9	-91.0	6.5
2025-01-27 15:19:13.596765	3.7	24.9	-91.0	11.9
2025-01-27 15:19:14.717717	3.3	24.9	-91.1	10.6
2025-01-27 15:19:15.838473	3.0	24.9	-90.8	8.9
2025-01-27 15:19:16.959918	2.7	24.8	-89.9	10.1
2025-01-27 15:19:18.080965	2.4	24.8	-89.8	11.2
2025-01-27 15:19:19.201133	2.1	24.8	-89.8	9.3
2025-01-27 15:19:20.322776	1.8	24.8	-90.0	13.4
2025-01-27 15:19:21.444132	1.4	24.7	-90.1	11.1
2025-01-27 15:19:22.565239	1.1	24.7	-90.2	10.9
2025-01-27 15:19:23.687803	0.8	24.7	-90.1	11.4
2025-01-27 15:19:24.827681	0.5	24.6	-91.4	12.4
2025-01-27 15:19:25.987827	0.2	24.6	-91.2	15.2
2025-01-27 15:19:27.145218	359.8	24.6	-90.8	14.7
2025-01-27 15:19:28.306854	359.5	24.5	-90.6	9.7
2025-01-27 15:19:29.461506	359.2	24.5	-91.0	15.2
2025-01-27 15:19:30.624884	358.9	24.4	-91.2	12.0
2025-01-27 15:19:31.784524	358.6	24.4	-91.2	11.3
2025-01-27 15:19:32.945073	358.2	24.4	-91.1	14.9
2025-01-27 15:19:34.111212	357.9	24.3	-90.9	13.3
2025-01-27 15:19:35.267931	357.6	24.3	-90.8	14.6
2025-01-27 15:19:36.441132	357.3	24.2	-91.1	13.8
2025-01-27 15:19:37.608566	357.0	24.2	-91.0	16.5
2025-01-27 15:19:38.763031	356.7	24.2	-90.8	11.2
2025-01-27 15:19:39.919419	356.3	24.1	-91.0	16.2
2025-01-27 15:19:41.043302	356.0	24.1	-90.8	13.4
2025-01-27 15:19:42.194134	355.7	24.0	-90.9	15.4
2025-01-27 15:19:43.350011	355.4	24.0	-90.9	13.6
2025-01-27 15:19:44.497004	355.1	23.9	-91.1	13.4
2025-01-27 15:19:45.645949	354.8	23.9	-91.0	13.2
2025-01-27 15:19:46.799023	354.5	23.8	-91.2	12.4
2025-01-27 15:19:47.949009	354.2	23.8	-90.7	15.5
2025-01-27 15:19:49.102729	353.9	23.7	-90.8	14.1
2025-01-27 15:19:50.254738	353.6	23.7	-90.7	16.2
2025-01-27 15:19:51.418456	353.3	23.6	-91.1	17.5
2025-01-27 15:19:52.580000	353.0	23.6	-91.2	14.2
2025-01-27 15:19:53.740837	352.7	23.5	-91.3	14.0
2025-01-27 15:19:54.899058	352.4	23.4	-91.4	14.6
2025-01-27 15:19:56.062731	352.1	23.4	-91.0	17.3
2025-01-27 15:19:57.221510	351.8	23.3	-90.9	15.0
2025-01-27 15:19:58.377002	351.5	23.3	-90.8	11.9
2025-01-27 15:19:59.538711	351.2	23.2	-91.1	11.5
2025-01-27 15:20:00.694972	350.9	23.2	-91.1	17.9
2025-01-27 15:20:01.857703	350.6	23.1	-91.2	12.0
2025-01-27 15:20:03.020049	350.3	23.0	-91.4	15.5
2025-01-27 15:20:04.183449	350.0	23.0	-90.9	13.2
2025-01-27 15:20:05.341335	349.7	22.9	-91.2	12.8
2025-01-27 15:20:06.508600	349.4	22.9	-91.0	11.9
2025-01-27 15:20:07.675518	349.1	22.8	-91.4	11.4
2025-01-27 15:20:08.841225	348.8	22.7	-91.3	10.0
2025-01-27 15:20:10.005014	348.6	22.7	-91.3	12.7
2025-01-27 15:20:11.168639	348.3	22.6	-90.9	11.6
2025-01-27 15:20:12.334831	348.0	22.5	-90.6	8.9
2025-01-27 15:20:13.495400	347.7	22.5	-91.0	5.6
2025-01-27 15:20:14.655365	347.4	22.4	-90.8	11.3
2025-01-27 15:20:15.815285	347.1	22.3	-91.3	6.3
2025-01-27 15:20:16.976356	346.9	22.3	-90.9	5.5
2025-01-27 15:20:18.134938	346.6	22.2	-90.5	5.3
2025-01-27 15:20:19.306354	346.3	22.1	-90.3	7.9
2025-01-27 15:20:20.469961	346.0	22.1	-90.8	8.2
2025-01-27 15:20:21.620634	345.8	22.0	-91.0	13.1
2025-01-27 15:20:22.763862	345.5	21.9	-91.3	8.4
2025-01-27 15:20:23.925240	345.2	21.8	-90.4	7.2
2025-01-27 15:20:25.077805	345.0	21.8	-90.1	11.0
2025-01-27 15:20:26.242760	344.7	21.7	-90.2	13.0
2025-01-27 15:20:27.405666	344.4	21.6	-89.9	9.7
2025-01-27 15:20:28.560294	344.1	21.6	-91.2	6.2
2025-01-27 15:20:29.687889	343.9	21.5	-91.1	13.0
2025-01-27 15:20:30.808461	343.6	21.4	-90.8	9.6
2025-01-27 15:20:31.929569	343.4	21.3	-91.1	9.5
2025-01-27 15:20:33.049673	343.1	21.3	-90.7	8.8
2025-01-27 15:20:34.169658	342.9	21.2	-90.7	14.2
2025-01-27 15:20:35.291449	342.6	21.1	-91.0	14.8
2025-01-27 15:20:36.411460	342.4	21.0	-90.8	6.8
2025-01-27 15:20:37.532904	342.1	21.0	-90.9	8.7
2025-01-27 15:20:38.657036	341.9	20.9	-91.0	4.7
2025-01-27 15:20:39.795106	341.6	20.8	-91.0	6.3
2025-01-27 15:20:40.957910	341.4	20.7	-91.5	6.0
2025-01-27 15:20:42.115999	341.1	20.7	-90.9	7.8
2025-01-27 15:20:43.280100	340.9	20.6	-90.6	8.0
2025-01-27 15:20:44.430187	340.6	20.5	-91.1	10.0
2025-01-27 15:20:45.587735	340.4	20.4	-91.1	9.1
2025-01-27 15:20:46.751771	340.1	20.4	-91.1	9.0
2025-01-27 15:20:47.915798	339.9	20.3	-91.2	9.8
2025-01-27 15:20:49.079708	339.6	20.2	-91.0	13.0
2025-01-27 15:20:50.239180	339.4	20.1	-91.0	14.5
2025-01-27 15:20:51.401091	339.2	20.0	-91.2	11.4
2025-01-27 15:20:52.559708	338.9	20.0	-91.1	4.8
2025-01-27 15:20:53.718854	338.7	19.9	-91.0	5.5
2025-01-27 15:20:54.890595	338.4	19.8	-91.3	5.2
2025-01-27 15:20:56.050693	338.2	19.7	-90.7	4.3
2025-01-27 15:20:57.212109	338.0	19.6	-91.0	5.6
2025-01-27 15:20:58.375716	337.7	19.5	-91.3	6.1
2025-01-27 15:20:59.544006	337.5	19.5	-91.3	6.9
2025-01-27 15:21:00.693560	337.3	19.4	-91.2	6.9
2025-01-27 15:21:01.860541	337.0	19.3	-91.1	3.1
2025-01-27 15:21:03.021167	336.8	19.2	-91.1	4.6
2025-01-27 15:21:04.189037	336.6	19.1	-91.1	7.2
2025-01-27 15:21:05.351007	336.4	19.0	-91.3	4.6
2025-01-27 15:21:06.517710	336.1	19.0	-91.0	4.9
2025-01-27 15:21:07.676961	335.9	18.9	-90.9	6.4
2025-01-27 15:21:08.833144	335.7	18.8	-91.4	8.3
2025-01-27 15:21:09.975681	335.5	18.7	-91.3	7.0
2025-01-27 15:21:11.097213	335.3	18.6	-91.0	8.6
2025-01-27 15:21:12.244393	335.0	18.5	-91.0	6.5
2025-01-27 15:21:13.376459	334.8	18.5	-91.1	5.0
2025-01-27 15:21:14.512271	334.6	18.4	-91.5	5.9
2025-01-27 15:21:15.653250	334.4	18.3	-91.1	6.9
2025-01-27 15:21:16.796256	334.2	18.2	-90.8	8.2
2025-01-27 15:21:17.960065	334.0	18.1	-91.1	5.1
2025-01-27 15:21:19.104876	333.8	18.0	-91.3	9.2
2025-01-27 15:21:20.258443	333.6	18.0	-91.0	4.0
2025-01-27 15:21:21.420222	333.3	17.9	-91.4	4.4
2025-01-27 15:21:22.581937	333.1	17.8	-91.0	6.9
2025-01-27 15:21:23.740777	332.9	17.7	-91.1	5.1
2025-01-27 15:21:24.904902	332.7	17.6	-91.3	5.3
2025-01-27 15:21:26.064678	332.5	17.5	-91.2	5.9
2025-01-27 15:21:27.231549	332.3	17.4	-90.7	4.8
2025-01-27 15:21:28.391447	332.1	17.4	-89.3	5.8
2025-01-27 15:21:29.550075	331.9	17.3	-89.5	4.1
2025-01-27 15:21:30.714625	331.7	17.2	-90.2	4.5
2025-01-27 15:21:31.873298	331.5	17.1	-90.2	5.2
2025-01-27 15:21:33.040970	331.3	17.0	-91.1	5.7
2025-01-27 15:21:34.204883	331.1	16.9	-90.9	5.3
2025-01-27 15:21:35.368783	330.9	16.8	-91.3	5.0
2025-01-27 15:21:36.521141	330.7	16.8	-91.1	4.2
2025-01-27 15:21:37.672300	330.5	16.7	-91.0	5.0
2025-01-27 15:21:38.800297	330.3	16.6	-91.0	5.5
2025-01-27 15:21:39.948395	330.2	16.5	-91.1	4.3
2025-01-27 15:21:41.094026	330.0	16.4	-90.9	5.3
2025-01-27 15:21:42.245754	329.8	16.3	-91.0	10.6
2025-01-27 15:21:43.402072	329.6	16.2	-91.1	7.4
2025-01-27 15:21:44.565995	329.4	16.2	-91.2	6.8
2025-01-27 15:21:45.712747	329.2	16.1	-90.9	10.4
2025-01-27 15:21:46.870244	329.0	16.0	-91.4	6.9
2025-01-27 15:21:48.036374	328.9	15.9	-91.3	5.5
2025-01-27 15:21:49.195990	328.7	15.8	-91.0	13.8
2025-01-27 15:21:50.365348	328.5	15.7	-91.1	8.0
2025-01-27 15:21:51.524443	328.3	15.6	-91.3	4.7
2025-01-27 15:21:52.689787	328.1	15.6	-91.1	8.9
2025-01-27 15:21:53.853145	328.0	15.5	-90.9	5.9
2025-01-27 15:21:55.012855	327.8	15.4	-91.1	4.4
2025-01-27 15:21:56.170316	327.6	15.3	-91.3	3.9
2025-01-27 15:21:57.327139	327.4	15.2	-91.1	3.9
2025-01-27 15:21:58.490059	327.2	15.1	-90.9	4.9
2025-01-27 15:21:59.653875	327.1	15.0	-90.9	10.0
2025-01-27 15:22:00.810214	326.9	14.9	-91.1	7.8
2025-01-27 15:22:01.968031	326.7	14.9	-91.2	4.8
2025-01-27 15:22:03.135104	326.6	14.8	-90.8	6.7
2025-01-27 15:22:04.287447	326.4	14.7	-91.1	5.2
#Closed at: 2025-01-27 15:15:38.177684