passes_logs/2025/01/27/LEX_Murmansk/LEX_Murmansk__20250127_083415_NOAA_18_rec.log

#Pass ID: 20250127_083415_NOAA 18
#Satellite: NOAA 18
#Configuration: NOAA 18
#Start time: 2025-01-27 08:34:09.916657

#LorettStation: 1.0.0 05.05.2024
#Station: LEX_Murmansk
#Location: 33.156738 lon 68.926811 lat
#TLE: 1 28654U 05018A   25026.13466944  .00000433  00000+0  25315-3 0  9999
#TLE: 2 28654  98.8549 107.0777 0014815 148.4880 211.7182 14.13497478 14758

#Time	Az	El	Level	SNR
2025-01-27 08:34:30.232085	34.3	16.9	-90.8	12.2
2025-01-27 08:34:31.395560	34.5	17.0	-90.8	9.8
2025-01-27 08:34:32.556161	34.6	17.1	-91.3	7.8
2025-01-27 08:34:33.714591	34.7	17.3	-91.1	12.0
2025-01-27 08:34:34.868324	34.9	17.4	-91.3	8.6
2025-01-27 08:34:36.031716	35.0	17.5	-91.0	7.8
2025-01-27 08:34:37.194263	35.2	17.6	-90.9	9.5
2025-01-27 08:34:38.356811	35.3	17.7	-91.2	9.1
2025-01-27 08:34:39.519125	35.4	17.8	-91.6	9.5
2025-01-27 08:34:40.684121	35.6	18.0	-91.9	9.9
2025-01-27 08:34:41.841247	35.7	18.1	-91.5	6.7
2025-01-27 08:34:43.003513	35.9	18.2	-91.5	8.6
2025-01-27 08:34:44.164155	36.0	18.3	-91.2	7.8
2025-01-27 08:34:45.327118	36.2	18.4	-91.2	8.0
2025-01-27 08:34:46.488372	36.3	18.5	-91.6	10.9
2025-01-27 08:34:47.656792	36.5	18.7	-91.3	11.4
2025-01-27 08:34:48.817781	36.6	18.8	-91.4	11.5
2025-01-27 08:34:49.988084	36.8	18.9	-91.5	11.5
2025-01-27 08:34:51.156022	36.9	19.0	-91.2	11.0
2025-01-27 08:34:52.319938	37.1	19.1	-91.2	10.7
2025-01-27 08:34:53.481518	37.2	19.3	-91.7	9.8
2025-01-27 08:34:54.638417	37.4	19.4	-91.8	10.9
2025-01-27 08:34:55.801246	37.5	19.5	-91.5	11.4
2025-01-27 08:34:56.964026	37.7	19.6	-91.6	7.5
2025-01-27 08:34:58.131397	37.9	19.7	-91.3	8.2
2025-01-27 08:34:59.296033	38.0	19.9	-91.2	9.7
2025-01-27 08:35:00.454810	38.2	20.0	-91.2	8.8
2025-01-27 08:35:01.610550	38.3	20.1	-91.4	9.7
2025-01-27 08:35:02.774612	38.5	20.2	-91.8	13.4
2025-01-27 08:35:03.938376	38.7	20.4	-91.5	11.5
2025-01-27 08:35:05.097895	38.8	20.5	-90.9	12.0
2025-01-27 08:35:06.261305	39.0	20.6	-91.3	11.8
2025-01-27 08:35:07.426749	39.2	20.7	-91.5	11.8
2025-01-27 08:35:08.590345	39.3	20.9	-91.4	10.8
2025-01-27 08:35:09.756893	39.5	21.0	-91.4	12.6
2025-01-27 08:35:10.919543	39.7	21.1	-91.2	11.5
2025-01-27 08:35:12.081261	39.9	21.2	-90.7	13.6
2025-01-27 08:35:13.245797	40.0	21.4	-90.9	14.3
2025-01-27 08:35:14.407321	40.2	21.5	-90.8	15.6
2025-01-27 08:35:15.568606	40.4	21.6	-90.9	11.8
2025-01-27 08:35:16.729281	40.6	21.7	-91.4	14.2
2025-01-27 08:35:17.890949	40.8	21.9	-91.9	8.2
2025-01-27 08:35:19.058675	40.9	22.0	-91.7	5.6
2025-01-27 08:35:20.220642	41.1	22.1	-90.9	11.1
2025-01-27 08:35:21.383709	41.3	22.3	-91.1	8.7
2025-01-27 08:35:22.548209	41.5	22.4	-91.5	9.6
2025-01-27 08:35:23.710468	41.7	22.5	-91.4	12.5
2025-01-27 08:35:24.875429	41.9	22.7	-91.1	13.1
2025-01-27 08:35:26.036946	42.1	22.8	-91.0	12.3
2025-01-27 08:35:27.203745	42.3	22.9	-90.1	11.2
2025-01-27 08:35:28.364112	42.5	23.1	-89.9	10.3
2025-01-27 08:35:29.529283	42.7	23.2	-90.4	7.7
2025-01-27 08:35:30.694514	42.9	23.3	-91.5	13.9
2025-01-27 08:35:31.849976	43.1	23.4	-91.6	15.2
2025-01-27 08:35:33.015544	43.3	23.6	-91.5	16.0
2025-01-27 08:35:34.173179	43.5	23.7	-91.2	14.7
2025-01-27 08:35:35.338711	43.7	23.8	-91.1	12.3
2025-01-27 08:35:36.503989	43.9	24.0	-91.3	9.8
2025-01-27 08:35:37.672595	44.1	24.1	-91.6	13.6
2025-01-27 08:35:38.838697	44.3	24.3	-91.5	11.7
2025-01-27 08:35:40.002746	44.5	24.4	-91.5	10.4
2025-01-27 08:35:41.161659	44.7	24.5	-91.5	14.1
2025-01-27 08:35:42.322505	45.0	24.7	-91.5	13.3
2025-01-27 08:35:43.484282	45.2	24.8	-91.7	11.9
2025-01-27 08:35:44.649410	45.4	24.9	-91.4	12.3
2025-01-27 08:35:45.811076	45.6	25.1	-91.6	13.0
2025-01-27 08:35:46.972171	45.8	25.2	-91.6	10.5
2025-01-27 08:35:48.134102	46.1	25.3	-91.1	11.4
2025-01-27 08:35:49.294131	46.3	25.5	-91.0	9.4
2025-01-27 08:35:50.458578	46.5	25.6	-91.7	9.3
2025-01-27 08:35:51.621524	46.8	25.8	-91.8	9.4
2025-01-27 08:35:52.782149	47.0	25.9	-91.7	10.8
2025-01-27 08:35:53.959414	47.2	26.0	-91.5	12.2
2025-01-27 08:35:55.119792	47.5	26.2	-91.5	11.1
2025-01-27 08:35:56.284190	47.7	26.3	-91.3	11.3
2025-01-27 08:35:57.444390	47.9	26.4	-91.5	8.4
2025-01-27 08:35:58.605752	48.2	26.6	-91.6	8.7
2025-01-27 08:35:59.769645	48.4	26.7	-91.6	10.6
2025-01-27 08:36:00.917926	48.7	26.9	-91.7	9.8
2025-01-27 08:36:02.075150	48.9	27.0	-91.1	10.5
2025-01-27 08:36:03.232560	49.2	27.1	-91.1	9.9
2025-01-27 08:36:04.391590	49.4	27.3	-91.6	8.5
2025-01-27 08:36:05.551831	49.7	27.4	-91.5	10.5
2025-01-27 08:36:06.707373	49.9	27.6	-91.5	11.0
2025-01-27 08:36:07.871938	50.2	27.7	-91.1	11.9
2025-01-27 08:36:09.034044	50.5	27.8	-91.2	10.4
2025-01-27 08:36:10.202369	50.7	28.0	-90.9	10.9
2025-01-27 08:36:11.362505	51.0	28.1	-91.0	10.4
2025-01-27 08:36:12.525593	51.3	28.3	-91.6	12.0
2025-01-27 08:36:13.686097	51.5	28.4	-91.7	11.8
2025-01-27 08:36:14.847750	51.8	28.5	-91.5	12.5
2025-01-27 08:36:16.011930	52.1	28.7	-91.5	13.6
2025-01-27 08:36:17.174358	52.4	28.8	-91.3	12.1
2025-01-27 08:36:18.341048	52.7	29.0	-91.2	12.7
2025-01-27 08:36:19.506767	52.9	29.1	-91.3	12.0
2025-01-27 08:36:20.674375	53.2	29.2	-90.5	13.1
2025-01-27 08:36:21.834657	53.5	29.4	-90.5	13.2
2025-01-27 08:36:23.000954	53.8	29.5	-90.7	11.7
2025-01-27 08:36:24.189450	54.1	29.7	-90.4	11.6
2025-01-27 08:36:25.354751	54.4	29.8	-90.1	11.7
2025-01-27 08:36:26.521581	54.7	29.9	-90.6	12.2
2025-01-27 08:36:27.685928	55.0	30.1	-91.6	16.1
2025-01-27 08:36:28.847065	55.3	30.2	-91.6	16.7
2025-01-27 08:36:30.023390	55.6	30.4	-91.4	17.4
2025-01-27 08:36:31.188556	55.9	30.5	-91.3	14.9
2025-01-27 08:36:32.351683	56.2	30.6	-91.5	15.0
2025-01-27 08:36:33.515294	56.6	30.8	-91.9	13.0
2025-01-27 08:36:34.675427	56.9	30.9	-91.8	17.0
2025-01-27 08:36:35.834188	57.2	31.1	-91.9	15.6
2025-01-27 08:36:36.996428	57.5	31.2	-91.8	17.8
2025-01-27 08:36:38.163738	57.8	31.3	-91.3	17.7
2025-01-27 08:36:39.327419	58.2	31.5	-91.2	12.1
2025-01-27 08:36:40.495332	58.5	31.6	-91.3	13.2
2025-01-27 08:36:41.661980	58.8	31.7	-91.6	15.8
2025-01-27 08:36:42.824916	59.2	31.9	-91.8	14.2
2025-01-27 08:36:43.986172	59.5	32.0	-91.9	10.6
2025-01-27 08:36:45.142605	59.8	32.1	-91.6	14.9
2025-01-27 08:36:46.308540	60.2	32.3	-91.3	15.9
2025-01-27 08:36:47.472525	60.5	32.4	-91.3	12.2
2025-01-27 08:36:48.636180	60.9	32.5	-91.5	16.7
2025-01-27 08:36:49.799139	61.2	32.7	-91.4	18.4
2025-01-27 08:36:50.963351	61.6	32.8	-91.3	17.7
2025-01-27 08:36:52.148201	62.0	32.9	-91.4	16.9
2025-01-27 08:36:53.312157	62.3	33.1	-91.5	16.3
2025-01-27 08:36:54.477337	62.7	33.2	-91.7	16.5
2025-01-27 08:36:55.639303	63.1	33.3	-91.6	18.2
2025-01-27 08:36:56.803486	63.4	33.5	-91.2	16.7
2025-01-27 08:36:57.973054	63.8	33.6	-91.6	15.1
2025-01-27 08:36:59.134408	64.2	33.7	-91.5	19.8
2025-01-27 08:37:00.295684	64.6	33.8	-91.5	22.7
2025-01-27 08:37:01.455246	64.9	34.0	-91.9	17.1
2025-01-27 08:37:02.623136	65.3	34.1	-91.8	20.6
2025-01-27 08:37:03.775504	65.7	34.2	-91.6	21.0
2025-01-27 08:37:04.936797	66.1	34.3	-91.4	21.5
2025-01-27 08:37:06.106418	66.5	34.5	-91.2	17.6
2025-01-27 08:37:07.272286	66.9	34.6	-91.2	18.5
2025-01-27 08:37:08.426412	67.3	34.7	-91.1	14.4
2025-01-27 08:37:09.594543	67.7	34.8	-91.3	16.6
2025-01-27 08:37:10.761603	68.1	34.9	-91.8	17.9
2025-01-27 08:37:11.925617	68.5	35.1	-91.8	12.6
2025-01-27 08:37:13.091772	68.9	35.2	-91.5	15.1
2025-01-27 08:37:14.250554	69.3	35.3	-91.2	18.0
2025-01-27 08:37:15.414530	69.8	35.4	-91.6	13.3
2025-01-27 08:37:16.574052	70.2	35.5	-91.6	13.9
2025-01-27 08:37:17.734101	70.6	35.6	-91.4	20.0
2025-01-27 08:37:18.898278	71.0	35.7	-91.7	16.8
2025-01-27 08:37:20.061596	71.4	35.8	-91.2	17.1
2025-01-27 08:37:21.224368	71.9	35.9	-91.4	20.2
2025-01-27 08:37:22.389359	72.3	36.0	-91.5	20.3
2025-01-27 08:37:23.542885	72.7	36.1	-91.4	19.8
2025-01-27 08:37:24.707992	73.2	36.2	-91.3	19.2
2025-01-27 08:37:25.872720	73.6	36.3	-91.4	17.2
2025-01-27 08:37:27.042301	74.1	36.4	-90.5	16.4
2025-01-27 08:37:28.212391	74.5	36.5	-90.4	18.7
2025-01-27 08:37:29.376193	75.0	36.6	-90.4	12.1
2025-01-27 08:37:30.543118	75.4	36.7	-90.9	12.8
2025-01-27 08:37:31.706115	75.9	36.8	-91.6	17.7
2025-01-27 08:37:32.867455	76.3	36.9	-91.6	14.2
2025-01-27 08:37:34.027961	76.8	37.0	-91.7	14.5
2025-01-27 08:37:35.189808	77.3	37.1	-91.4	19.1
2025-01-27 08:37:36.349401	77.7	37.2	-91.3	18.0
2025-01-27 08:37:37.510493	78.2	37.2	-91.5	20.1
2025-01-27 08:37:38.672783	78.7	37.3	-91.5	21.5
2025-01-27 08:37:39.832483	79.1	37.4	-91.5	19.0
2025-01-27 08:37:40.998571	79.6	37.5	-91.4	18.9
2025-01-27 08:37:42.161288	80.1	37.6	-91.0	17.6
2025-01-27 08:37:43.320238	80.5	37.6	-91.3	17.4
2025-01-27 08:37:44.478155	81.0	37.7	-91.4	14.4
2025-01-27 08:37:45.635513	81.5	37.8	-91.6	20.2
2025-01-27 08:37:46.801202	82.0	37.8	-91.4	18.3
2025-01-27 08:37:47.977187	82.5	37.9	-91.8	14.5
2025-01-27 08:37:49.142374	83.0	38.0	-91.4	17.1
2025-01-27 08:37:50.308233	83.5	38.0	-91.3	15.2
2025-01-27 08:37:51.475807	84.0	38.1	-91.4	14.1
2025-01-27 08:37:52.633446	84.4	38.1	-91.4	16.1
2025-01-27 08:37:53.800466	84.9	38.2	-91.5	17.0
2025-01-27 08:37:54.962089	85.4	38.2	-91.7	12.1
2025-01-27 08:37:56.123529	85.9	38.3	-91.2	14.1
2025-01-27 08:37:57.288143	86.4	38.3	-91.9	17.7
2025-01-27 08:37:58.449682	86.9	38.4	-91.6	13.6
2025-01-27 08:37:59.617832	87.4	38.4	-91.9	14.0
2025-01-27 08:38:00.768680	87.9	38.5	-91.8	15.8
2025-01-27 08:38:01.929309	88.4	38.5	-91.8	16.7
2025-01-27 08:38:03.093753	88.9	38.5	-91.6	14.7
2025-01-27 08:38:04.256401	89.5	38.6	-91.4	15.6
2025-01-27 08:38:05.413357	90.0	38.6	-91.5	17.3
2025-01-27 08:38:06.572280	90.5	38.6	-91.4	15.6
2025-01-27 08:38:07.729219	91.0	38.7	-91.7	13.7
2025-01-27 08:38:08.904721	91.5	38.7	-91.1	13.7
2025-01-27 08:38:10.070386	92.0	38.7	-91.3	12.8
2025-01-27 08:38:11.234422	92.5	38.7	-91.5	14.1
2025-01-27 08:38:12.399554	93.0	38.7	-91.7	9.3
2025-01-27 08:38:13.550358	93.5	38.7	-91.6	11.2
2025-01-27 08:38:14.711227	94.0	38.7	-91.6	15.2
2025-01-27 08:38:15.867466	94.6	38.8	-91.7	15.1
2025-01-27 08:38:17.035764	95.1	38.8	-91.8	15.5
2025-01-27 08:38:18.192104	95.6	38.8	-91.5	18.3
2025-01-27 08:38:19.359959	96.1	38.8	-91.5	16.9
2025-01-27 08:38:20.521663	96.6	38.8	-91.7	14.9
2025-01-27 08:38:21.684066	97.1	38.8	-91.4	18.3
2025-01-27 08:38:22.844260	97.6	38.7	-91.5	16.0
2025-01-27 08:38:24.007732	98.1	38.7	-91.5	14.8
2025-01-27 08:38:25.169945	98.7	38.7	-91.4	19.6
2025-01-27 08:38:26.327578	99.2	38.7	-91.5	15.7
2025-01-27 08:38:27.506170	99.7	38.7	-91.6	13.5
2025-01-27 08:38:28.662492	100.2	38.7	-91.8	19.6
2025-01-27 08:38:29.823685	100.7	38.6	-91.8	18.1
2025-01-27 08:38:30.990298	101.2	38.6	-91.7	15.6
2025-01-27 08:38:32.159018	101.7	38.6	-90.6	15.3
2025-01-27 08:38:33.324349	102.2	38.6	-90.5	14.7
2025-01-27 08:38:34.493073	102.7	38.5	-90.9	15.4
2025-01-27 08:38:35.648360	103.2	38.5	-91.7	18.7
2025-01-27 08:38:36.813704	103.8	38.5	-91.7	15.5
2025-01-27 08:38:37.984973	104.3	38.4	-91.9	12.7
2025-01-27 08:38:39.149447	104.8	38.4	-91.6	14.0
2025-01-27 08:38:40.318161	105.3	38.3	-91.3	14.4
2025-01-27 08:38:41.481248	105.8	38.3	-91.7	12.6
2025-01-27 08:38:42.639806	106.3	38.2	-91.5	12.8
2025-01-27 08:38:43.796642	106.8	38.2	-91.5	13.4
2025-01-27 08:38:44.953919	107.3	38.1	-91.6	16.2
2025-01-27 08:38:46.117477	107.7	38.1	-91.3	14.6
2025-01-27 08:38:47.282374	108.2	38.0	-91.0	13.4
2025-01-27 08:38:48.446807	108.7	38.0	-91.2	16.1
2025-01-27 08:38:49.603370	109.2	37.9	-91.7	17.4
2025-01-27 08:38:50.764731	109.7	37.8	-91.6	16.2
2025-01-27 08:38:51.922538	110.2	37.8	-91.9	19.1
2025-01-27 08:38:53.085506	110.7	37.7	-91.2	17.6
2025-01-27 08:38:54.255480	111.2	37.6	-91.4	15.1
2025-01-27 08:38:55.408030	111.6	37.5	-91.7	16.5
2025-01-27 08:38:56.563325	112.1	37.5	-91.7	17.4
2025-01-27 08:38:57.728960	112.6	37.4	-91.8	16.4
2025-01-27 08:38:58.900053	113.0	37.3	-91.7	14.7
2025-01-27 08:39:00.058344	113.5	37.2	-91.6	14.2
2025-01-27 08:39:01.217154	114.0	37.1	-91.6	15.8
2025-01-27 08:39:02.375044	114.4	37.1	-91.2	16.1
2025-01-27 08:39:03.527113	114.9	37.0	-91.6	15.6
2025-01-27 08:39:04.687972	115.4	36.9	-91.7	16.1
2025-01-27 08:39:05.849908	115.8	36.8	-91.6	15.2
2025-01-27 08:39:07.021722	116.3	36.7	-91.6	15.0
2025-01-27 08:39:08.189369	116.7	36.6	-90.6	16.2
2025-01-27 08:39:09.345547	117.2	36.5	-91.1	16.4
2025-01-27 08:39:10.512526	117.6	36.4	-91.7	19.1
2025-01-27 08:39:11.660300	118.1	36.3	-91.6	14.5
2025-01-27 08:39:12.830109	118.5	36.2	-91.8	13.9
2025-01-27 08:39:13.988047	119.0	36.1	-91.5	14.2
2025-01-27 08:39:15.166582	119.4	36.0	-91.5	15.2
2025-01-27 08:39:16.324280	119.8	35.9	-90.5	14.3
2025-01-27 08:39:17.499657	120.3	35.8	-90.9	15.2
2025-01-27 08:39:18.662836	120.7	35.7	-90.8	16.5
2025-01-27 08:39:19.822652	121.1	35.6	-90.3	14.3
2025-01-27 08:39:20.995650	121.5	35.5	-90.8	13.7
2025-01-27 08:39:22.157653	122.0	35.4	-90.3	14.0
2025-01-27 08:39:23.325739	122.4	35.2	-90.6	12.6
2025-01-27 08:39:24.487091	122.8	35.1	-90.4	14.5
2025-01-27 08:39:25.658192	123.2	35.0	-90.9	16.9
2025-01-27 08:39:26.818420	123.6	34.9	-90.7	14.5
2025-01-27 08:39:27.986442	124.0	34.8	-90.6	14.7
2025-01-27 08:39:29.151513	124.4	34.7	-90.5	12.8
2025-01-27 08:39:30.310838	124.8	34.5	-90.5	11.4
2025-01-27 08:39:31.473950	125.2	34.4	-90.6	13.5
2025-01-27 08:39:32.631647	125.6	34.3	-90.7	14.5
2025-01-27 08:39:33.801464	126.0	34.2	-90.8	14.0
2025-01-27 08:39:34.966212	126.4	34.0	-90.7	11.9
2025-01-27 08:39:36.124054	126.8	33.9	-90.2	13.7
2025-01-27 08:39:37.291107	127.2	33.8	-90.6	15.4
2025-01-27 08:39:38.455673	127.6	33.7	-90.4	13.3
2025-01-27 08:39:39.622013	127.9	33.5	-90.9	15.1
2025-01-27 08:39:40.783134	128.3	33.4	-90.6	12.4
2025-01-27 08:39:41.951719	128.7	33.3	-90.6	13.5
2025-01-27 08:39:43.111768	129.0	33.1	-90.4	12.7
2025-01-27 08:39:44.274623	129.4	33.0	-90.2	13.8
2025-01-27 08:39:45.442301	129.8	32.9	-91.2	13.3
2025-01-27 08:39:46.598882	130.1	32.8	-91.4	15.0
2025-01-27 08:39:47.761377	130.5	32.6	-91.8	16.6
2025-01-27 08:39:48.923809	130.8	32.5	-91.7	14.0
2025-01-27 08:39:50.088003	131.2	32.3	-91.4	15.7
2025-01-27 08:39:51.246777	131.5	32.2	-91.4	13.6
2025-01-27 08:39:52.420219	131.9	32.1	-91.5	14.8
2025-01-27 08:39:53.575895	132.2	31.9	-91.4	12.5
2025-01-27 08:39:54.737169	132.6	31.8	-91.5	14.7
2025-01-27 08:39:55.897950	132.9	31.7	-91.4	14.8
2025-01-27 08:39:57.054496	133.2	31.5	-91.2	16.4
2025-01-27 08:39:58.216221	133.6	31.4	-91.0	13.2
2025-01-27 08:39:59.379225	133.9	31.3	-91.0	12.2
2025-01-27 08:40:00.537335	134.2	31.1	-91.6	13.8
2025-01-27 08:40:01.694653	134.5	31.0	-91.4	14.7
2025-01-27 08:40:02.859862	134.9	30.8	-91.3	13.2
2025-01-27 08:40:04.016993	135.2	30.7	-91.1	14.4
2025-01-27 08:40:05.179366	135.5	30.6	-91.2	12.3
2025-01-27 08:40:06.328787	135.8	30.4	-91.2	10.4
2025-01-27 08:40:07.490829	136.1	30.3	-91.5	9.9
2025-01-27 08:40:08.653628	136.4	30.1	-91.3	10.1
2025-01-27 08:40:09.814253	136.7	30.0	-91.4	11.5
2025-01-27 08:40:10.978770	137.0	29.9	-91.8	13.4
2025-01-27 08:40:12.140000	137.3	29.7	-91.5	11.4
2025-01-27 08:40:13.301616	137.6	29.6	-91.3	6.9
2025-01-27 08:40:14.462257	137.9	29.4	-91.4	11.3
2025-01-27 08:40:15.625180	138.2	29.3	-91.7	8.9
2025-01-27 08:40:16.783054	138.5	29.2	-91.6	10.1
2025-01-27 08:40:17.947884	138.8	29.0	-91.9	9.9
2025-01-27 08:40:19.115800	139.1	28.9	-91.4	11.5
2025-01-27 08:40:20.276853	139.4	28.7	-91.1	8.2
2025-01-27 08:40:21.444542	139.6	28.6	-91.6	7.2
2025-01-27 08:40:22.605089	139.9	28.5	-91.7	8.4
2025-01-27 08:40:23.761184	140.2	28.3	-91.5	10.4
2025-01-27 08:40:24.928802	140.5	28.2	-91.4	8.6
2025-01-27 08:40:26.082059	140.7	28.0	-91.2	8.4
2025-01-27 08:40:27.243296	141.0	27.9	-91.3	7.8
2025-01-27 08:40:28.407185	141.3	27.8	-91.5	11.0
2025-01-27 08:40:29.567763	141.5	27.6	-91.4	8.4
2025-01-27 08:40:30.731040	141.8	27.5	-91.6	9.8
2025-01-27 08:40:31.895042	142.0	27.3	-91.8	12.7
2025-01-27 08:40:33.063600	142.3	27.2	-91.5	10.8
2025-01-27 08:40:34.222647	142.6	27.0	-91.5	10.3
2025-01-27 08:40:35.381839	142.8	26.9	-91.5	12.6
2025-01-27 08:40:36.534393	143.1	26.8	-91.8	12.1
2025-01-27 08:40:37.697921	143.3	26.6	-91.8	11.1
2025-01-27 08:40:38.858767	143.6	26.5	-91.8	9.9
2025-01-27 08:40:40.028027	143.8	26.3	-91.6	10.6
2025-01-27 08:40:41.191033	144.0	26.2	-91.2	10.7
2025-01-27 08:40:42.354217	144.3	26.1	-91.3	9.8
2025-01-27 08:40:43.521100	144.5	25.9	-91.7	7.8
2025-01-27 08:40:44.681685	144.8	25.8	-90.9	12.8
2025-01-27 08:40:45.843463	145.0	25.6	-90.7	13.2
2025-01-27 08:40:47.002949	145.2	25.5	-90.8	11.5
2025-01-27 08:40:48.167206	145.5	25.4	-90.5	12.6
2025-01-27 08:40:49.330740	145.7	25.2	-91.5	14.4
2025-01-27 08:40:50.498022	145.9	25.1	-91.6	10.6
2025-01-27 08:40:51.661307	146.1	25.0	-91.5	14.4
2025-01-27 08:40:52.815659	146.4	24.8	-91.7	13.7
2025-01-27 08:40:53.980230	146.6	24.7	-91.5	13.4
2025-01-27 08:40:55.139845	146.8	24.5	-91.2	13.6
2025-01-27 08:40:56.302558	147.0	24.4	-91.2	11.8
2025-01-27 08:40:57.467240	147.2	24.3	-91.1	14.7
2025-01-27 08:40:58.637267	147.4	24.1	-91.4	14.0
2025-01-27 08:40:59.795226	147.6	24.0	-91.7	14.7
2025-01-27 08:41:00.958100	147.9	23.9	-91.8	14.9
2025-01-27 08:41:02.122396	148.1	23.7	-91.6	12.8
2025-01-27 08:41:03.291282	148.3	23.6	-91.3	11.2
2025-01-27 08:41:04.453433	148.5	23.5	-91.7	10.1
2025-01-27 08:41:05.632648	148.7	23.3	-91.7	14.5
2025-01-27 08:41:06.790049	148.9	23.2	-92.0	12.0
2025-01-27 08:41:07.954314	149.1	23.1	-92.0	10.7
2025-01-27 08:41:09.117651	149.3	22.9	-91.7	11.0
2025-01-27 08:41:10.283631	149.5	22.8	-91.5	10.7
2025-01-27 08:41:11.457575	149.7	22.7	-91.8	8.3
2025-01-27 08:41:12.615215	149.9	22.5	-91.9	10.3
2025-01-27 08:41:13.783686	150.1	22.4	-91.8	10.6
2025-01-27 08:41:14.953308	150.3	22.3	-91.9	11.3
2025-01-27 08:41:16.110234	150.4	22.1	-91.4	10.7
2025-01-27 08:41:17.274805	150.6	22.0	-91.5	11.6
2025-01-27 08:41:18.443134	150.8	21.9	-91.5	11.4
2025-01-27 08:41:19.615804	151.0	21.7	-91.9	12.6
2025-01-27 08:41:20.781597	151.2	21.6	-92.0	10.6
2025-01-27 08:41:21.942981	151.4	21.5	-91.7	10.4
2025-01-27 08:41:23.100560	151.5	21.3	-91.5	9.3
2025-01-27 08:41:24.262152	151.7	21.2	-91.3	10.4
2025-01-27 08:41:25.427431	151.9	21.1	-91.6	5.5
2025-01-27 08:41:26.581460	152.1	21.0	-91.8	9.0
2025-01-27 08:41:27.747478	152.2	20.8	-91.8	10.3
2025-01-27 08:41:28.906593	152.4	20.7	-90.7	10.9
2025-01-27 08:41:30.069932	152.6	20.6	-90.7	10.6
2025-01-27 08:41:31.236608	152.8	20.5	-90.5	8.3
2025-01-27 08:41:32.393554	152.9	20.3	-90.6	7.4
2025-01-27 08:41:33.560812	153.1	20.2	-90.9	10.0
2025-01-27 08:41:34.717890	153.3	20.1	-91.2	9.7
2025-01-27 08:41:35.879881	153.4	20.0	-92.0	9.6
2025-01-27 08:41:37.040264	153.6	19.8	-91.4	8.5
2025-01-27 08:41:38.210353	153.7	19.7	-91.6	10.3
2025-01-27 08:41:39.372613	153.9	19.6	-91.6	10.5
2025-01-27 08:41:40.537723	154.1	19.5	-91.8	7.9
2025-01-27 08:41:41.703621	154.2	19.3	-91.6	10.2
2025-01-27 08:41:42.870581	154.4	19.2	-91.7	7.9
2025-01-27 08:41:44.037904	154.5	19.1	-91.8	8.6
2025-01-27 08:41:45.196847	154.7	19.0	-91.6	9.4
2025-01-27 08:41:46.367336	154.8	18.9	-90.6	6.3
2025-01-27 08:41:47.523078	155.0	18.7	-91.0	7.4
2025-01-27 08:41:48.694145	155.1	18.6	-90.8	6.0
2025-01-27 08:41:49.869232	155.3	18.5	-90.8	6.9
2025-01-27 08:41:51.025797	155.4	18.4	-90.8	5.8
2025-01-27 08:41:52.197003	155.6	18.3	-90.7	4.5
2025-01-27 08:41:53.353801	155.7	18.1	-91.8	5.1
2025-01-27 08:41:54.515591	155.9	18.0	-92.2	3.8
2025-01-27 08:41:55.677400	156.0	17.9	-92.0	7.1
2025-01-27 08:41:56.832163	156.2	17.8	-91.9	5.6
2025-01-27 08:41:57.995240	156.3	17.7	-92.2	5.5
2025-01-27 08:41:59.156759	156.5	17.5	-91.8	6.3
2025-01-27 08:42:00.315326	156.6	17.4	-91.8	7.4
2025-01-27 08:42:01.479919	156.7	17.3	-92.0	5.8
2025-01-27 08:42:02.644270	156.9	17.2	-91.7	6.8
2025-01-27 08:42:03.806878	157.0	17.1	-91.7	5.2
2025-01-27 08:42:04.974057	157.2	17.0	-91.5	5.5
2025-01-27 08:42:06.134442	157.3	16.9	-91.4	5.5
2025-01-27 08:42:07.292649	157.4	16.7	-91.6	5.8
2025-01-27 08:42:08.460809	157.6	16.6	-91.8	7.2
2025-01-27 08:42:09.623248	157.7	16.5	-91.9	5.3
2025-01-27 08:42:10.786567	157.8	16.4	-92.0	6.2
2025-01-27 08:42:11.945460	157.9	16.3	-91.9	6.8
2025-01-27 08:42:13.108241	158.1	16.2	-91.7	6.6
2025-01-27 08:42:14.268223	158.2	16.1	-91.6	4.9
2025-01-27 08:42:15.428077	158.3	16.0	-92.2	4.6
2025-01-27 08:42:16.591558	158.5	15.8	-91.8	6.3
2025-01-27 08:42:17.754009	158.6	15.7	-91.9	6.9
2025-01-27 08:42:18.914962	158.7	15.6	-91.7	4.7
2025-01-27 08:42:20.078360	158.8	15.5	-91.3	4.7
2025-01-27 08:42:21.239906	159.0	15.4	-91.3	5.7
2025-01-27 08:42:22.398841	159.1	15.3	-91.6	8.6
2025-01-27 08:42:23.560286	159.2	15.2	-92.0	6.1
2025-01-27 08:42:24.721414	159.3	15.1	-92.0	9.5
2025-01-27 08:42:25.883240	159.4	15.0	-92.0	7.9
2025-01-27 08:42:27.038996	159.6	14.9	-91.6	6.7
2025-01-27 08:42:28.203629	159.7	14.8	-91.5	7.0
2025-01-27 08:42:29.373277	159.8	14.6	-91.7	5.2
2025-01-27 08:42:30.535809	159.9	14.5	-91.0	3.7
#Closed at: 2025-01-27 08:34:15.001184