passes_logs/2025/01/27/LEX_Murmansk/LEX_Murmansk__20250127_095229_NOAA_19_rec.log

#Pass ID: 20250127_095229_NOAA 19
#Satellite: NOAA 19
#Configuration: NOAA 19
#Start time: 2025-01-27 09:52:24.732138

#LorettStation: 1.0.0 05.05.2024
#Station: LEX_Murmansk
#Location: 33.156738 lon 68.926811 lat
#TLE: 1 33591U 09005A   25026.11929750  .00000374  00000+0  22339-3 0  9999
#TLE: 2 33591  99.0177  89.9666 0014047  27.3849 332.8061 14.13269171823112

#Time	Az	El	Level	SNR
2025-01-27 09:52:36.931940	23.9	16.3	-91.1	4.1
2025-01-27 09:52:39.226478	23.7	16.5	-90.8	1.0
2025-01-27 09:52:41.519308	23.6	16.8	-91.2	4.9
2025-01-27 09:52:43.813947	23.5	17.0	-91.2	6.3
2025-01-27 09:52:46.108574	23.3	17.3	-90.8	2.3
2025-01-27 09:52:48.400812	23.2	17.5	-91.1	1.0
2025-01-27 09:52:50.698695	23.1	17.8	-91.2	4.2
2025-01-27 09:52:52.994546	22.9	18.1	-90.8	10.9
2025-01-27 09:52:55.281817	22.8	18.3	-91.1	6.1
2025-01-27 09:52:57.576047	22.6	18.6	-90.4	8.0
2025-01-27 09:52:59.876800	22.5	18.9	-90.5	8.0
2025-01-27 09:53:02.163499	22.4	19.1	-90.1	4.3
2025-01-27 09:53:04.460715	22.2	19.4	-90.5	2.4
2025-01-27 09:53:06.754614	22.0	19.7	-90.6	3.6
2025-01-27 09:53:09.044072	21.9	20.0	-91.2	8.7
2025-01-27 09:53:11.339485	21.7	20.3	-90.7	6.4
2025-01-27 09:53:13.635346	21.6	20.5	-91.4	7.7
2025-01-27 09:53:15.924142	21.4	20.8	-91.3	11.6
2025-01-27 09:53:18.226228	21.2	21.1	-90.8	5.1
2025-01-27 09:53:20.517627	21.0	21.4	-91.3	2.8
2025-01-27 09:53:22.809991	20.9	21.7	-91.2	3.1
2025-01-27 09:53:25.107694	20.7	22.0	-91.0	11.7
2025-01-27 09:53:27.405272	20.5	22.3	-91.4	8.8
2025-01-27 09:53:29.693836	20.3	22.6	-91.0	5.8
2025-01-27 09:53:31.987738	20.1	23.0	-91.5	11.7
2025-01-27 09:53:34.285687	19.9	23.3	-91.3	8.4
2025-01-27 09:53:36.584860	19.7	23.6	-91.6	4.2
2025-01-27 09:53:38.874201	19.5	23.9	-91.3	1.5
2025-01-27 09:53:41.163303	19.3	24.2	-90.4	5.7
2025-01-27 09:53:43.454644	19.1	24.6	-90.5	7.6
2025-01-27 09:53:45.741218	18.8	24.9	-90.9	6.3
2025-01-27 09:53:48.037322	18.6	25.2	-90.3	8.3
2025-01-27 09:53:50.321323	18.4	25.6	-90.9	9.5
2025-01-27 09:53:52.610403	18.2	25.9	-90.6	3.8
2025-01-27 09:53:54.897487	17.9	26.3	-90.8	3.5
2025-01-27 09:53:57.187257	17.7	26.6	-91.2	5.7
2025-01-27 09:53:59.473532	17.4	27.0	-91.5	10.4
2025-01-27 09:54:01.768629	17.2	27.4	-91.0	7.0
2025-01-27 09:54:04.056558	16.9	27.7	-91.0	7.6
2025-01-27 09:54:06.345534	16.6	28.1	-91.4	7.0
2025-01-27 09:54:08.635898	16.4	28.5	-91.3	6.5
2025-01-27 09:54:10.928099	16.1	28.8	-91.1	3.8
2025-01-27 09:54:13.210915	15.8	29.2	-91.2	2.3
2025-01-27 09:54:15.507420	15.5	29.6	-91.7	6.3
2025-01-27 09:54:17.804272	15.2	30.0	-90.7	9.0
2025-01-27 09:54:20.103958	14.9	30.4	-91.3	6.8
2025-01-27 09:54:22.395691	14.5	30.8	-91.2	3.5
2025-01-27 09:54:24.684578	14.2	31.2	-91.6	7.2
2025-01-27 09:54:26.976003	13.9	31.6	-91.1	7.1
2025-01-27 09:54:29.264603	13.5	32.0	-91.1	2.8
2025-01-27 09:54:31.552556	13.2	32.4	-91.2	4.1
2025-01-27 09:54:33.848387	12.8	32.8	-91.4	7.2
2025-01-27 09:54:36.133565	12.4	33.3	-91.1	10.9
2025-01-27 09:54:38.426547	12.0	33.7	-91.3	11.1
2025-01-27 09:54:40.722849	11.6	34.1	-91.0	7.3
2025-01-27 09:54:43.010878	11.2	34.6	-91.3	14.2
2025-01-27 09:54:45.299601	10.8	35.0	-91.1	14.1
2025-01-27 09:54:47.593163	10.4	35.5	-91.0	5.9
2025-01-27 09:54:49.888045	10.0	35.9	-91.2	5.5
2025-01-27 09:54:52.168990	9.5	36.4	-90.4	7.6
2025-01-27 09:54:54.462194	9.0	36.8	-90.6	12.1
2025-01-27 09:54:56.747875	8.6	37.3	-90.8	11.4
2025-01-27 09:54:59.045393	8.1	37.8	-90.9	9.6
2025-01-27 09:55:01.340409	7.5	38.3	-90.8	6.0
2025-01-27 09:55:03.630246	7.0	38.7	-90.6	14.2
2025-01-27 09:55:05.927798	6.5	39.2	-90.7	12.4
2025-01-27 09:55:08.224152	5.9	39.7	-90.5	6.6
2025-01-27 09:55:10.513577	5.3	40.2	-90.5	5.4
2025-01-27 09:55:12.806043	4.8	40.7	-90.9	5.9
2025-01-27 09:55:15.093408	4.1	41.2	-91.0	15.3
2025-01-27 09:55:17.390621	3.5	41.7	-90.8	14.8
2025-01-27 09:55:19.687340	2.9	42.2	-90.8	11.1
2025-01-27 09:55:21.980821	2.2	42.7	-90.8	12.8
2025-01-27 09:55:24.269101	1.5	43.2	-89.8	11.5
2025-01-27 09:55:26.563860	0.8	43.7	-90.1	16.8
2025-01-27 09:55:28.852733	0.0	44.2	-90.2	11.9
2025-01-27 09:55:31.148398	359.3	44.7	-90.3	6.3
2025-01-27 09:55:33.446927	358.5	45.2	-91.1	5.8
2025-01-27 09:55:35.747659	357.7	45.7	-90.4	6.2
2025-01-27 09:55:38.035431	356.8	46.2	-90.4	14.5
2025-01-27 09:55:40.324073	356.0	46.7	-90.7	15.2
2025-01-27 09:55:42.622259	355.1	47.3	-89.9	10.1
2025-01-27 09:55:44.917461	354.1	47.8	-89.0	7.4
2025-01-27 09:55:47.212251	353.2	48.3	-89.8	6.8
2025-01-27 09:55:49.507868	352.2	48.8	-89.4	10.2
2025-01-27 09:55:51.796803	351.2	49.3	-90.8	13.0
2025-01-27 09:55:54.095502	350.1	49.8	-90.6	4.9
2025-01-27 09:55:56.385130	349.0	50.2	-90.7	4.6
2025-01-27 09:55:58.673128	347.9	50.7	-91.2	5.9
2025-01-27 09:56:00.961787	346.7	51.2	-90.9	5.1
2025-01-27 09:56:03.258404	345.5	51.6	-90.9	5.0
2025-01-27 09:56:05.546163	344.3	52.1	-91.3	4.0
2025-01-27 09:56:07.847542	343.0	52.5	-91.2	11.6
2025-01-27 09:56:10.140191	341.7	53.0	-90.3	13.7
2025-01-27 09:56:12.430823	340.4	53.4	-91.4	12.1
2025-01-27 09:56:14.728188	339.0	53.8	-90.4	6.3
2025-01-27 09:56:17.018964	337.5	54.2	-91.0	2.7
2025-01-27 09:56:19.316985	336.1	54.6	-90.6	5.7
2025-01-27 09:56:21.599383	334.6	54.9	-90.7	16.3
2025-01-27 09:56:23.895556	333.0	55.3	-89.6	15.9
2025-01-27 09:56:26.187814	331.4	55.6	-90.2	13.6
2025-01-27 09:56:28.474670	329.8	55.9	-89.8	6.9
2025-01-27 09:56:30.768432	328.2	56.2	-90.5	5.8
2025-01-27 09:56:33.072794	326.5	56.4	-90.0	7.2
2025-01-27 09:56:35.368596	324.7	56.7	-90.8	5.6
2025-01-27 09:56:37.661636	323.0	56.9	-91.3	6.3
2025-01-27 09:56:39.948447	321.2	57.1	-91.3	6.5
2025-01-27 09:56:42.242799	319.4	57.2	-91.0	6.8
2025-01-27 09:56:44.529411	317.6	57.4	-91.1	10.7
2025-01-27 09:56:46.818481	315.8	57.5	-90.9	11.5
2025-01-27 09:56:49.105186	314.0	57.5	-90.6	14.6
2025-01-27 09:56:51.403998	312.1	57.6	-90.7	14.0
2025-01-27 09:56:53.698226	310.3	57.6	-90.9	15.0
2025-01-27 09:56:55.983809	308.4	57.6	-91.6	15.6
2025-01-27 09:56:58.273843	306.6	57.6	-91.4	13.7
2025-01-27 09:57:00.551493	304.7	57.5	-91.3	13.9
2025-01-27 09:57:02.839771	302.9	57.4	-91.4	9.9
2025-01-27 09:57:05.135324	301.1	57.3	-91.2	12.1
2025-01-27 09:57:07.426710	299.3	57.1	-91.2	9.6
2025-01-27 09:57:09.724004	297.5	57.0	-91.1	7.3
2025-01-27 09:57:12.007812	295.8	56.8	-91.1	10.3
2025-01-27 09:57:14.301414	294.0	56.5	-91.2	17.3
2025-01-27 09:57:16.587561	292.3	56.3	-91.5	10.9
2025-01-27 09:57:18.878833	290.7	56.0	-91.3	16.7
2025-01-27 09:57:21.171468	289.0	55.7	-90.4	10.9
2025-01-27 09:57:23.458598	287.4	55.4	-91.0	6.0
2025-01-27 09:57:25.751564	285.9	55.1	-90.6	12.5
2025-01-27 09:57:28.042970	284.3	54.7	-91.3	8.0
2025-01-27 09:57:30.338908	282.9	54.4	-91.4	14.8
2025-01-27 09:57:32.630040	281.4	54.0	-91.2	8.8
2025-01-27 09:57:34.929452	280.0	53.6	-91.3	9.8
2025-01-27 09:57:37.224797	278.6	53.2	-91.4	14.8
2025-01-27 09:57:39.518760	277.3	52.7	-91.0	8.6
2025-01-27 09:57:41.810243	276.0	52.3	-91.5	17.5
2025-01-27 09:57:44.106125	274.8	51.9	-91.0	9.9
2025-01-27 09:57:46.393555	273.5	51.4	-90.9	12.4
2025-01-27 09:57:48.686162	272.4	50.9	-91.3	17.2
2025-01-27 09:57:50.986943	271.2	50.4	-91.4	12.6
2025-01-27 09:57:53.282154	270.1	50.0	-91.1	16.1
2025-01-27 09:57:55.571858	269.0	49.5	-91.4	14.5
2025-01-27 09:57:57.865032	268.0	49.0	-91.3	17.5
2025-01-27 09:58:00.153127	267.0	48.5	-91.3	15.4
2025-01-27 09:58:02.437908	266.0	48.0	-91.1	16.6
2025-01-27 09:58:04.727201	265.1	47.5	-91.6	19.8
2025-01-27 09:58:07.018638	264.2	47.0	-91.2	18.8
2025-01-27 09:58:09.312807	263.3	46.5	-91.1	20.4
2025-01-27 09:58:11.607917	262.4	46.0	-91.5	17.4
2025-01-27 09:58:13.912075	261.6	45.4	-90.9	15.5
2025-01-27 09:58:16.206723	260.8	44.9	-91.2	18.6
2025-01-27 09:58:18.491359	260.0	44.4	-91.5	13.0
2025-01-27 09:58:20.781377	259.3	43.9	-91.0	20.5
2025-01-27 09:58:23.072901	258.6	43.4	-91.1	12.9
2025-01-27 09:58:25.365077	257.9	42.9	-90.5	17.5
2025-01-27 09:58:27.650475	257.2	42.4	-90.6	14.3
2025-01-27 09:58:29.943322	256.5	41.9	-90.6	13.7
2025-01-27 09:58:32.232459	255.9	41.4	-90.8	16.4
2025-01-27 09:58:34.528598	255.3	40.9	-91.2	15.0
2025-01-27 09:58:36.813907	254.7	40.4	-91.0	13.6
2025-01-27 09:58:39.101869	254.1	39.9	-90.9	10.2
2025-01-27 09:58:41.394246	253.5	39.4	-90.8	10.6
2025-01-27 09:58:43.694202	253.0	39.0	-90.3	10.3
2025-01-27 09:58:45.981961	252.4	38.5	-90.8	5.0
2025-01-27 09:58:48.275669	251.9	38.0	-91.4	12.3
2025-01-27 09:58:50.565679	251.4	37.5	-91.6	6.6
2025-01-27 09:58:52.850081	250.9	37.1	-91.5	9.8
2025-01-27 09:58:55.143528	250.5	36.6	-91.1	9.7
2025-01-27 09:58:57.436407	250.0	36.2	-91.6	11.9
2025-01-27 09:58:59.726021	249.6	35.7	-90.6	12.0
2025-01-27 09:59:02.017389	249.1	35.2	-90.5	11.3
2025-01-27 09:59:04.304612	248.7	34.8	-90.5	14.0
2025-01-27 09:59:06.589209	248.3	34.4	-90.3	8.1
2025-01-27 09:59:08.882979	247.9	33.9	-90.7	11.3
2025-01-27 09:59:11.176906	247.5	33.5	-89.9	10.6
2025-01-27 09:59:13.467223	247.1	33.1	-91.3	12.6
2025-01-27 09:59:15.759226	246.7	32.6	-91.6	15.6
2025-01-27 09:59:18.045252	246.4	32.2	-91.2	13.8
2025-01-27 09:59:20.342969	246.0	31.8	-91.2	12.7
2025-01-27 09:59:22.643726	245.7	31.4	-91.2	10.1
2025-01-27 09:59:24.930255	245.4	31.0	-91.3	7.7
2025-01-27 09:59:27.215465	245.0	30.6	-90.8	14.2
2025-01-27 09:59:29.505285	244.7	30.2	-91.7	10.8
2025-01-27 09:59:31.794448	244.4	29.8	-91.4	13.0
2025-01-27 09:59:34.092001	244.1	29.4	-90.8	13.4
2025-01-27 09:59:36.381928	243.8	29.0	-91.4	12.5
2025-01-27 09:59:38.679177	243.5	28.7	-91.5	13.9
2025-01-27 09:59:40.967001	243.2	28.3	-91.1	9.1
2025-01-27 09:59:43.258982	243.0	27.9	-91.1	12.6
2025-01-27 09:59:45.547307	242.7	27.5	-90.5	6.9
2025-01-27 09:59:47.838820	242.4	27.2	-90.5	11.3
2025-01-27 09:59:50.134696	242.2	26.8	-90.4	9.0
2025-01-27 09:59:52.431365	241.9	26.5	-91.5	7.5
2025-01-27 09:59:54.731306	241.7	26.1	-91.6	6.7
2025-01-27 09:59:57.034475	241.4	25.8	-91.2	4.0
2025-01-27 09:59:59.322000	241.2	25.4	-91.0	3.7
2025-01-27 10:00:01.612068	241.0	25.1	-91.8	4.9
2025-01-27 10:00:03.905162	240.8	24.8	-91.4	3.1
2025-01-27 10:00:06.200478	240.5	24.4	-91.0	4.1
2025-01-27 10:00:08.494459	240.3	24.1	-91.5	4.3
2025-01-27 10:00:10.789434	240.1	23.8	-91.2	4.3
2025-01-27 10:00:13.087348	239.9	23.4	-91.2	5.1
2025-01-27 10:00:15.376351	239.7	23.1	-91.3	8.1
2025-01-27 10:00:17.670701	239.5	22.8	-91.4	6.2
2025-01-27 10:00:19.963116	239.3	22.5	-91.4	7.3
2025-01-27 10:00:22.256130	239.1	22.2	-90.7	6.8
2025-01-27 10:00:24.547419	239.0	21.9	-90.5	4.1
2025-01-27 10:00:26.845721	238.8	21.6	-91.2	7.9
2025-01-27 10:00:29.135183	238.6	21.3	-91.1	5.3
2025-01-27 10:00:31.430111	238.4	21.0	-91.1	4.4
2025-01-27 10:00:33.727888	238.2	20.7	-91.5	5.2
2025-01-27 10:00:36.013987	238.1	20.4	-91.5	4.6
2025-01-27 10:00:38.301587	237.9	20.1	-91.1	5.4
2025-01-27 10:00:40.592766	237.8	19.9	-91.1	7.2
2025-01-27 10:00:42.879789	237.6	19.6	-91.7	9.4
2025-01-27 10:00:45.175653	237.4	19.3	-91.1	11.0
2025-01-27 10:00:47.468792	237.3	19.0	-91.3	8.1
2025-01-27 10:00:49.757621	237.1	18.8	-91.4	9.6
2025-01-27 10:00:52.055505	237.0	18.5	-91.6	8.4
2025-01-27 10:00:54.346052	236.8	18.2	-91.4	5.9
2025-01-27 10:00:56.642278	236.7	18.0	-91.7	5.7
2025-01-27 10:00:58.931893	236.6	17.7	-91.5	5.1
2025-01-27 10:01:01.213786	236.4	17.4	-91.2	5.7
2025-01-27 10:01:03.506844	236.3	17.2	-91.6	8.3
2025-01-27 10:01:05.798419	236.2	16.9	-91.4	6.8
2025-01-27 10:01:08.099164	236.0	16.7	-90.5	5.7
2025-01-27 10:01:10.394710	235.9	16.4	-91.0	4.8
2025-01-27 10:01:12.692191	235.8	16.2	-91.0	6.0
2025-01-27 10:01:14.983411	235.7	15.9	-91.0	4.1
2025-01-27 10:01:17.278364	235.5	15.7	-91.0	6.0
2025-01-27 10:01:19.565451	235.4	15.5	-91.4	7.4
2025-01-27 10:01:21.864233	235.3	15.2	-90.6	7.4
2025-01-27 10:01:24.156713	235.2	15.0	-90.8	4.5
2025-01-27 10:01:26.445372	235.1	14.8	-90.9	4.1
2025-01-27 10:01:28.743005	235.0	14.5	-90.7	5.7
#Closed at: 2025-01-27 09:52:29.740738