passes_logs/2025/01/27/LEX_Murmansk/LEX_Murmansk__20250127_145219_NOAA_19_rec.log

#Pass ID: 20250127_145219_NOAA 19
#Satellite: NOAA 19
#Configuration: NOAA 19
#Start time: 2025-01-27 14:52:14.592012

#LorettStation: 1.0.0 05.05.2024
#Station: LEX_Murmansk
#Location: 33.156738 lon 68.926811 lat
#TLE: 1 33591U 09005A   25027.18125374  .00000353  00000+0  21226-3 0  9998
#TLE: 2 33591  99.0174  91.0366 0013998  24.4913 335.6921 14.13269986823260

#Time	Az	El	Level	SNR
2025-01-27 14:52:26.779083	71.2	16.0	-89.9	8.5
2025-01-27 14:52:27.927205	71.1	16.1	-90.0	8.8
2025-01-27 14:52:29.096634	70.9	16.2	-90.0	6.1
2025-01-27 14:52:30.261259	70.7	16.3	-89.9	3.5
2025-01-27 14:52:31.422204	70.6	16.4	-90.0	2.0
2025-01-27 14:52:32.588266	70.4	16.5	-90.0	2.7
2025-01-27 14:52:33.749568	70.2	16.6	-90.1	3.9
2025-01-27 14:52:34.915416	70.1	16.7	-89.9	4.8
2025-01-27 14:52:36.075966	69.9	16.8	-89.8	8.0
2025-01-27 14:52:37.248360	69.7	16.9	-89.5	9.9
2025-01-27 14:52:38.402481	69.5	17.0	-89.8	13.1
2025-01-27 14:52:39.563956	69.4	17.1	-90.4	11.6
2025-01-27 14:52:40.718353	69.2	17.2	-90.1	3.6
2025-01-27 14:52:41.880690	69.0	17.3	-90.1	5.9
2025-01-27 14:52:43.037105	68.8	17.4	-90.2	4.9
2025-01-27 14:52:44.193870	68.7	17.5	-90.0	7.5
2025-01-27 14:52:45.340492	68.5	17.6	-90.0	10.2
2025-01-27 14:52:46.488296	68.3	17.7	-90.2	13.9
2025-01-27 14:52:47.641701	68.1	17.8	-90.2	7.6
2025-01-27 14:52:48.795489	67.9	17.9	-90.0	5.5
2025-01-27 14:52:49.949810	67.7	18.0	-90.0	5.4
2025-01-27 14:52:51.100392	67.6	18.1	-89.9	4.2
2025-01-27 14:52:52.252294	67.4	18.2	-90.1	5.2
2025-01-27 14:52:53.411772	67.2	18.3	-90.2	3.6
2025-01-27 14:52:54.568702	67.0	18.4	-90.4	8.9
2025-01-27 14:52:55.725510	66.8	18.5	-90.5	7.1
2025-01-27 14:52:56.878000	66.6	18.6	-90.3	12.9
2025-01-27 14:52:58.030401	66.4	18.7	-90.0	9.9
2025-01-27 14:52:59.193471	66.2	18.8	-90.0	7.8
2025-01-27 14:53:00.346509	66.0	18.9	-89.9	8.1
2025-01-27 14:53:01.505472	65.8	19.0	-89.5	8.9
2025-01-27 14:53:02.654854	65.6	19.1	-90.1	7.3
2025-01-27 14:53:03.814240	65.4	19.2	-89.9	7.4
2025-01-27 14:53:04.973031	65.2	19.3	-89.9	10.9
2025-01-27 14:53:06.138204	65.0	19.4	-89.2	10.0
2025-01-27 14:53:07.300910	64.8	19.5	-89.4	11.6
2025-01-27 14:53:08.460523	64.6	19.6	-89.8	4.8
2025-01-27 14:53:09.619268	64.4	19.7	-89.8	7.0
2025-01-27 14:53:10.767211	64.2	19.8	-90.0	5.1
2025-01-27 14:53:11.891814	64.0	19.9	-90.3	5.6
2025-01-27 14:53:13.054948	63.8	20.0	-89.9	3.2
2025-01-27 14:53:14.199343	63.6	20.1	-89.8	2.7
2025-01-27 14:53:15.364267	63.4	20.2	-89.9	6.3
2025-01-27 14:53:16.518059	63.1	20.3	-90.3	8.8
2025-01-27 14:53:17.669629	62.9	20.4	-90.2	7.8
2025-01-27 14:53:18.814381	62.7	20.5	-90.0	7.8
2025-01-27 14:53:19.970820	62.5	20.6	-90.2	10.2
2025-01-27 14:53:21.130691	62.3	20.7	-90.0	10.6
2025-01-27 14:53:22.298156	62.1	20.8	-90.1	8.1
2025-01-27 14:53:23.463099	61.8	20.9	-90.3	5.4
2025-01-27 14:53:24.629982	61.6	21.0	-90.6	11.0
2025-01-27 14:53:25.789026	61.4	21.1	-90.5	7.8
2025-01-27 14:53:26.952269	61.1	21.2	-90.5	12.8
2025-01-27 14:53:28.108460	60.9	21.3	-90.1	10.2
2025-01-27 14:53:29.271396	60.7	21.4	-90.0	10.6
2025-01-27 14:53:30.426114	60.5	21.5	-90.2	7.1
2025-01-27 14:53:31.596298	60.2	21.6	-89.9	8.7
2025-01-27 14:53:32.758678	60.0	21.7	-90.0	3.7
2025-01-27 14:53:33.922822	59.7	21.8	-90.1	3.1
2025-01-27 14:53:35.088672	59.5	21.9	-89.8	4.0
2025-01-27 14:53:36.249114	59.3	22.0	-90.4	4.7
2025-01-27 14:53:37.408337	59.0	22.1	-90.0	4.9
2025-01-27 14:53:38.569854	58.8	22.2	-90.1	8.5
2025-01-27 14:53:39.734841	58.5	22.3	-90.0	7.5
2025-01-27 14:53:40.899282	58.3	22.4	-89.7	14.0
2025-01-27 14:53:42.062282	58.0	22.5	-90.0	13.9
2025-01-27 14:53:43.217793	57.8	22.6	-90.0	10.6
2025-01-27 14:53:44.383110	57.5	22.7	-90.2	8.2
2025-01-27 14:53:45.547814	57.3	22.8	-90.2	9.3
2025-01-27 14:53:46.708631	57.0	22.9	-90.2	4.9
2025-01-27 14:53:47.872346	56.8	22.9	-89.5	5.6
2025-01-27 14:53:49.031673	56.5	23.0	-89.6	6.5
2025-01-27 14:53:50.196045	56.2	23.1	-89.5	9.2
2025-01-27 14:53:51.358661	56.0	23.2	-89.8	9.5
2025-01-27 14:53:52.525863	55.7	23.3	-90.1	9.1
2025-01-27 14:53:53.686314	55.5	23.4	-89.9	8.1
2025-01-27 14:53:54.851592	55.2	23.5	-89.8	6.4
2025-01-27 14:53:56.011434	54.9	23.6	-90.0	5.8
2025-01-27 14:53:57.174099	54.7	23.7	-90.1	1.3
2025-01-27 14:53:58.335626	54.4	23.8	-90.2	2.6
2025-01-27 14:53:59.500083	54.1	23.9	-90.2	2.5
2025-01-27 14:54:00.654906	53.8	24.0	-90.3	4.8
2025-01-27 14:54:01.829275	53.6	24.1	-90.3	3.5
2025-01-27 14:54:02.979626	53.3	24.2	-90.1	6.5
2025-01-27 14:54:04.139919	53.0	24.3	-90.2	6.8
2025-01-27 14:54:05.305198	52.7	24.4	-90.0	10.5
2025-01-27 14:54:06.469200	52.4	24.5	-90.5	7.0
2025-01-27 14:54:07.636956	52.2	24.5	-90.4	9.8
2025-01-27 14:54:08.793997	51.9	24.6	-90.6	7.9
2025-01-27 14:54:09.959610	51.6	24.7	-90.6	6.2
2025-01-27 14:54:11.121175	51.3	24.8	-90.4	5.9
2025-01-27 14:54:12.284548	51.0	24.9	-90.4	3.6
2025-01-27 14:54:13.447912	50.7	25.0	-90.2	6.4
2025-01-27 14:54:14.602496	50.4	25.1	-90.4	4.0
2025-01-27 14:54:15.771281	50.1	25.2	-90.3	8.4
2025-01-27 14:54:16.926427	49.8	25.2	-89.6	9.8
2025-01-27 14:54:18.089527	49.5	25.3	-89.3	8.1
2025-01-27 14:54:19.248655	49.2	25.4	-89.3	7.2
2025-01-27 14:54:20.393486	48.9	25.5	-89.0	7.9
2025-01-27 14:54:21.557801	48.6	25.6	-89.8	3.5
2025-01-27 14:54:22.720969	48.3	25.7	-90.0	2.7
2025-01-27 14:54:23.884303	48.0	25.8	-90.2	4.5
2025-01-27 14:54:25.051387	47.7	25.8	-90.2	2.5
2025-01-27 14:54:26.212627	47.4	25.9	-90.2	1.5
2025-01-27 14:54:27.376927	47.1	26.0	-90.2	3.5
2025-01-27 14:54:28.535075	46.8	26.1	-90.6	4.0
2025-01-27 14:54:29.697732	46.4	26.2	-90.3	6.3
2025-01-27 14:54:30.864745	46.1	26.2	-89.2	4.7
2025-01-27 14:54:32.033213	45.8	26.3	-90.0	6.0
2025-01-27 14:54:33.175206	45.5	26.4	-90.5	5.8
2025-01-27 14:54:34.297245	45.2	26.5	-90.0	4.9
2025-01-27 14:54:35.418252	44.9	26.5	-90.5	9.6
2025-01-27 14:54:36.539252	44.6	26.6	-90.4	7.0
2025-01-27 14:54:37.660191	44.2	26.7	-90.7	6.5
2025-01-27 14:54:38.780370	43.9	26.7	-90.6	4.8
2025-01-27 14:54:39.901951	43.6	26.8	-90.1	4.1
2025-01-27 14:54:41.023958	43.3	26.9	-90.5	5.2
2025-01-27 14:54:42.144496	43.0	27.0	-90.4	6.4
2025-01-27 14:54:43.265960	42.7	27.0	-90.2	5.5
2025-01-27 14:54:44.423779	42.3	27.1	-90.1	9.0
2025-01-27 14:54:45.579624	42.0	27.2	-90.0	10.2
2025-01-27 14:54:46.743073	41.7	27.2	-90.3	8.9
2025-01-27 14:54:47.899262	41.3	27.3	-90.4	4.8
2025-01-27 14:54:49.053690	41.0	27.4	-90.3	6.9
2025-01-27 14:54:50.218087	40.6	27.4	-90.2	7.3
2025-01-27 14:54:51.375998	40.3	27.5	-90.7	11.5
2025-01-27 14:54:52.536353	40.0	27.5	-90.6	8.7
2025-01-27 14:54:53.701042	39.6	27.6	-90.5	6.2
2025-01-27 14:54:54.862467	39.3	27.7	-90.2	5.1
2025-01-27 14:54:56.028616	38.9	27.7	-89.7	5.4
2025-01-27 14:54:57.193274	38.6	27.8	-90.1	2.8
2025-01-27 14:54:58.344396	38.2	27.8	-90.6	2.3
2025-01-27 14:54:59.465235	37.9	27.9	-90.5	4.5
2025-01-27 14:55:00.616711	37.5	27.9	-90.7	2.1
2025-01-27 14:55:01.765421	37.2	28.0	-90.6	2.5
2025-01-27 14:55:02.914514	36.8	28.0	-90.6	2.3
2025-01-27 14:55:04.080910	36.5	28.1	-90.3	3.7
2025-01-27 14:55:05.236688	36.1	28.2	-90.2	5.9
2025-01-27 14:55:06.397575	35.8	28.2	-90.3	6.7
2025-01-27 14:55:07.552011	35.4	28.2	-90.5	6.5
2025-01-27 14:55:08.703857	35.0	28.3	-90.5	9.6
2025-01-27 14:55:09.864720	34.7	28.3	-90.5	9.1
2025-01-27 14:55:10.999112	34.3	28.4	-90.2	9.6
2025-01-27 14:55:12.137648	34.0	28.4	-90.5	8.7
2025-01-27 14:55:13.295527	33.6	28.5	-90.4	6.2
2025-01-27 14:55:14.441322	33.2	28.5	-90.6	5.5
2025-01-27 14:55:15.600941	32.9	28.5	-90.7	5.0
2025-01-27 14:55:16.752373	32.5	28.6	-90.3	4.7
2025-01-27 14:55:17.911942	32.2	28.6	-90.3	6.7
2025-01-27 14:55:19.071293	31.8	28.7	-90.4	7.6
2025-01-27 14:55:20.228796	31.4	28.7	-90.2	3.5
2025-01-27 14:55:21.392955	31.0	28.7	-90.0	4.8
2025-01-27 14:55:22.556449	30.7	28.8	-90.3	6.3
2025-01-27 14:55:23.714042	30.3	28.8	-90.1	4.2
2025-01-27 14:55:24.873346	29.9	28.8	-89.8	7.7
2025-01-27 14:55:26.032781	29.6	28.8	-89.8	8.2
2025-01-27 14:55:27.196801	29.2	28.9	-90.2	4.6
2025-01-27 14:55:28.360337	28.8	28.9	-90.5	4.2
2025-01-27 14:55:29.529677	28.4	28.9	-90.0	7.4
2025-01-27 14:55:30.694102	28.1	28.9	-90.2	6.8
2025-01-27 14:55:31.859543	27.7	29.0	-88.8	6.3
2025-01-27 14:55:33.024713	27.3	29.0	-89.7	7.5
2025-01-27 14:55:34.184335	26.9	29.0	-90.5	8.3
2025-01-27 14:55:35.348113	26.6	29.0	-90.4	7.4
2025-01-27 14:55:36.511280	26.2	29.0	-90.4	6.8
2025-01-27 14:55:37.668111	25.8	29.0	-90.2	7.7
2025-01-27 14:55:38.827764	25.4	29.1	-90.6	5.7
2025-01-27 14:55:39.994866	25.0	29.1	-90.6	6.7
2025-01-27 14:55:41.154649	24.7	29.1	-90.7	6.5
2025-01-27 14:55:42.321948	24.3	29.1	-90.5	3.1
2025-01-27 14:55:43.484123	23.9	29.1	-90.6	1.3
2025-01-27 14:55:44.620026	23.5	29.1	-90.8	2.8
2025-01-27 14:55:45.778118	23.2	29.1	-90.5	2.4
2025-01-27 14:55:46.938971	22.8	29.1	-90.6	2.7
2025-01-27 14:55:48.100482	22.4	29.1	-90.3	4.2
2025-01-27 14:55:49.264807	22.0	29.1	-90.5	3.0
2025-01-27 14:55:50.427784	21.6	29.1	-90.7	5.4
2025-01-27 14:55:51.594815	21.3	29.1	-90.8	2.9
2025-01-27 14:55:52.753122	20.9	29.1	-90.4	2.9
2025-01-27 14:55:53.912049	20.5	29.1	-90.5	3.9
2025-01-27 14:55:55.080350	20.1	29.1	-90.3	0.5
2025-01-27 14:55:56.243385	19.7	29.1	-90.1	3.2
2025-01-27 14:55:57.404740	19.4	29.1	-90.4	4.4
2025-01-27 14:55:58.568371	19.0	29.1	-90.5	6.2
2025-01-27 14:55:59.725020	18.6	29.0	-90.6	5.2
2025-01-27 14:56:00.878411	18.2	29.0	-90.3	5.8
2025-01-27 14:56:02.046253	17.9	29.0	-90.4	5.0
2025-01-27 14:56:03.211655	17.5	29.0	-90.4	5.0
2025-01-27 14:56:04.375347	17.1	29.0	-90.5	5.3
2025-01-27 14:56:05.535961	16.7	29.0	-90.7	6.6
2025-01-27 14:56:06.703115	16.4	28.9	-90.5	6.4
2025-01-27 14:56:07.865210	16.0	28.9	-90.6	6.2
2025-01-27 14:56:09.024496	15.6	28.9	-90.7	7.1
2025-01-27 14:56:10.192735	15.2	28.9	-90.4	5.4
2025-01-27 14:56:11.357406	14.9	28.8	-90.5	6.3
2025-01-27 14:56:12.524957	14.5	28.8	-90.6	5.4
2025-01-27 14:56:13.681820	14.1	28.8	-90.2	6.5
2025-01-27 14:56:14.841845	13.7	28.8	-90.5	7.9
2025-01-27 14:56:15.998912	13.4	28.7	-90.8	8.6
2025-01-27 14:56:17.162759	13.0	28.7	-90.4	9.8
2025-01-27 14:56:18.330110	12.6	28.7	-90.7	6.3
2025-01-27 14:56:19.489994	12.3	28.6	-90.4	7.2
2025-01-27 14:56:20.653992	11.9	28.6	-90.3	6.4
2025-01-27 14:56:21.817155	11.5	28.5	-90.7	5.2
2025-01-27 14:56:22.979562	11.2	28.5	-90.3	4.4
2025-01-27 14:56:24.141393	10.8	28.5	-90.2	6.1
2025-01-27 14:56:25.304304	10.4	28.4	-90.1	4.6
2025-01-27 14:56:26.468910	10.1	28.4	-90.6	5.0
2025-01-27 14:56:27.648021	9.7	28.3	-90.6	3.7
2025-01-27 14:56:28.812158	9.3	28.3	-90.8	6.2
2025-01-27 14:56:29.968561	9.0	28.2	-90.8	5.8
2025-01-27 14:56:31.133401	8.6	28.2	-90.2	7.6
2025-01-27 14:56:32.297340	8.3	28.2	-90.4	7.1
2025-01-27 14:56:33.462871	7.9	28.1	-90.6	7.1
2025-01-27 14:56:34.626784	7.6	28.0	-90.9	3.8
2025-01-27 14:56:35.789707	7.2	28.0	-90.8	4.1
2025-01-27 14:56:36.956347	6.8	27.9	-90.6	4.8
2025-01-27 14:56:38.119421	6.5	27.9	-90.5	2.5
2025-01-27 14:56:39.281042	6.1	27.8	-90.5	3.3
2025-01-27 14:56:40.445423	5.8	27.8	-90.7	3.4
2025-01-27 14:56:41.613104	5.4	27.7	-90.4	3.4
2025-01-27 14:56:42.772594	5.1	27.7	-90.3	8.2
2025-01-27 14:56:43.940642	4.8	27.6	-90.6	5.2
2025-01-27 14:56:45.106107	4.4	27.5	-90.9	5.4
2025-01-27 14:56:46.268002	4.1	27.5	-90.7	6.3
2025-01-27 14:56:47.434843	3.7	27.4	-90.7	9.3
2025-01-27 14:56:48.598868	3.4	27.3	-90.6	3.2
2025-01-27 14:56:49.760782	3.0	27.3	-90.8	5.8
2025-01-27 14:56:50.920043	2.7	27.2	-90.5	8.6
2025-01-27 14:56:52.080286	2.4	27.2	-90.5	4.0
2025-01-27 14:56:53.237535	2.0	27.1	-90.5	8.8
2025-01-27 14:56:54.400836	1.7	27.0	-90.6	10.1
2025-01-27 14:56:55.569450	1.4	26.9	-91.0	6.1
2025-01-27 14:56:56.727099	1.0	26.9	-90.8	6.8
2025-01-27 14:56:57.892553	0.7	26.8	-90.1	3.3
2025-01-27 14:56:59.054533	0.4	26.7	-90.2	7.1
2025-01-27 14:57:00.204735	0.1	26.7	-90.8	7.8
2025-01-27 14:57:01.359229	359.7	26.6	-90.6	8.9
2025-01-27 14:57:02.518427	359.4	26.5	-90.8	9.0
2025-01-27 14:57:03.672056	359.1	26.4	-90.6	10.0
2025-01-27 14:57:04.835890	358.8	26.4	-90.9	8.8
2025-01-27 14:57:06.004972	358.5	26.3	-91.0	7.7
2025-01-27 14:57:07.166426	358.1	26.2	-90.8	11.4
2025-01-27 14:57:08.325605	357.8	26.1	-90.8	11.4
2025-01-27 14:57:09.485691	357.5	26.0	-91.0	10.9
2025-01-27 14:57:10.642920	357.2	26.0	-90.9	5.0
2025-01-27 14:57:11.810998	356.9	25.9	-91.0	10.2
2025-01-27 14:57:12.974881	356.6	25.8	-90.9	10.5
2025-01-27 14:57:14.138306	356.3	25.7	-90.8	13.1
2025-01-27 14:57:15.302886	356.0	25.6	-90.7	10.1
2025-01-27 14:57:16.460409	355.7	25.6	-90.2	8.1
2025-01-27 14:57:17.626755	355.4	25.5	-90.2	9.1
2025-01-27 14:57:18.789959	355.1	25.4	-89.8	5.1
2025-01-27 14:57:19.949474	354.8	25.3	-90.0	6.6
2025-01-27 14:57:21.113558	354.5	25.2	-90.3	5.0
2025-01-27 14:57:22.276392	354.2	25.1	-90.4	3.4
2025-01-27 14:57:23.441794	353.9	25.0	-91.0	5.6
2025-01-27 14:57:24.606750	353.6	25.0	-90.8	5.6
2025-01-27 14:57:25.775434	353.3	24.9	-91.0	4.7
2025-01-27 14:57:26.933634	353.0	24.8	-90.6	4.8
2025-01-27 14:57:28.089119	352.7	24.7	-90.8	3.0
2025-01-27 14:57:29.251569	352.4	24.6	-90.6	2.6
2025-01-27 14:57:30.414658	352.2	24.5	-90.6	6.0
2025-01-27 14:57:31.570098	351.9	24.4	-90.6	4.0
2025-01-27 14:57:32.695618	351.6	24.3	-90.4	2.4
2025-01-27 14:57:33.816639	351.3	24.3	-91.0	4.6
2025-01-27 14:57:34.937629	351.1	24.2	-90.5	4.5
2025-01-27 14:57:36.057440	350.8	24.1	-90.5	5.1
2025-01-27 14:57:37.177872	350.5	24.0	-90.1	5.9
2025-01-27 14:57:38.297952	350.3	23.9	-89.9	3.5
2025-01-27 14:57:39.418434	350.0	23.8	-90.1	7.2
2025-01-27 14:57:40.539685	349.8	23.7	-90.7	6.4
2025-01-27 14:57:41.661311	349.5	23.6	-90.7	6.6
2025-01-27 14:57:42.795999	349.2	23.5	-90.3	4.6
2025-01-27 14:57:43.954947	349.0	23.4	-90.4	9.2
2025-01-27 14:57:45.119195	348.7	23.3	-90.8	7.9
2025-01-27 14:57:46.250908	348.5	23.3	-90.8	11.1
2025-01-27 14:57:47.385215	348.2	23.2	-90.8	8.5
2025-01-27 14:57:48.541935	347.9	23.1	-90.3	13.4
2025-01-27 14:57:49.682823	347.7	23.0	-90.6	12.1
2025-01-27 14:57:50.842718	347.4	22.9	-90.7	6.4
2025-01-27 14:57:51.998982	347.2	22.8	-90.8	7.9
2025-01-27 14:57:53.156384	346.9	22.7	-90.4	3.7
2025-01-27 14:57:54.316791	346.7	22.6	-90.2	6.0
2025-01-27 14:57:55.474941	346.4	22.5	-91.1	3.9
2025-01-27 14:57:56.628572	346.2	22.4	-90.8	3.8
2025-01-27 14:57:57.783542	345.9	22.3	-90.7	6.2
2025-01-27 14:57:58.940310	345.7	22.2	-90.8	3.9
2025-01-27 14:58:00.101428	345.5	22.1	-90.6	7.9
2025-01-27 14:58:01.255314	345.2	22.0	-90.0	5.5
2025-01-27 14:58:02.421855	345.0	21.9	-90.4	5.7
2025-01-27 14:58:03.582467	344.7	21.8	-91.1	5.6
2025-01-27 14:58:04.746132	344.5	21.7	-90.9	4.2
2025-01-27 14:58:05.914093	344.3	21.6	-90.8	3.4
2025-01-27 14:58:07.077503	344.0	21.5	-90.8	6.0
2025-01-27 14:58:08.236375	343.8	21.4	-90.9	5.3
2025-01-27 14:58:09.395967	343.6	21.3	-90.5	3.1
2025-01-27 14:58:10.557270	343.3	21.2	-90.4	6.2
2025-01-27 14:58:11.720390	343.1	21.1	-90.7	4.3
2025-01-27 14:58:12.879611	342.9	21.0	-90.7	4.8
2025-01-27 14:58:14.060003	342.7	20.9	-90.8	6.0
2025-01-27 14:58:15.220621	342.4	20.8	-90.4	3.2
2025-01-27 14:58:16.378094	342.2	20.7	-90.6	3.1
2025-01-27 14:58:17.549248	342.0	20.6	-90.6	3.8
2025-01-27 14:58:18.715105	341.8	20.5	-90.5	6.2
2025-01-27 14:58:19.869499	341.6	20.4	-90.7	2.8
2025-01-27 14:58:21.034826	341.3	20.3	-90.6	5.8
2025-01-27 14:58:22.198366	341.1	20.2	-90.4	1.2
2025-01-27 14:58:23.356290	340.9	20.1	-90.5	4.4
2025-01-27 14:58:24.524606	340.7	20.0	-90.6	3.2
2025-01-27 14:58:25.686201	340.5	19.9	-90.7	3.9
2025-01-27 14:58:26.852265	340.3	19.8	-90.7	3.6
2025-01-27 14:58:28.011596	340.1	19.7	-90.7	2.8
2025-01-27 14:58:29.176329	339.9	19.6	-90.6	1.0
2025-01-27 14:58:30.335494	339.7	19.5	-89.3	1.1
2025-01-27 14:58:31.496782	339.5	19.4	-89.7	4.5
2025-01-27 14:58:32.654947	339.3	19.3	-89.9	1.8
2025-01-27 14:58:33.814272	339.1	19.2	-90.0	0.6
2025-01-27 14:58:34.977542	338.9	19.1	-90.5	3.8
2025-01-27 14:58:36.140481	338.7	19.0	-90.7	4.3
2025-01-27 14:58:37.303043	338.5	18.9	-90.3	2.0
2025-01-27 14:58:38.463906	338.3	18.8	-90.3	1.7
2025-01-27 14:58:39.615815	338.1	18.7	-90.2	6.3
2025-01-27 14:58:40.777531	337.9	18.6	-90.5	2.8
2025-01-27 14:58:41.945383	337.7	18.5	-90.5	4.7
2025-01-27 14:58:43.098923	337.5	18.4	-90.3	4.6
2025-01-27 14:58:44.265409	337.3	18.3	-90.3	5.0
2025-01-27 14:58:45.430097	337.1	18.2	-90.4	6.6
2025-01-27 14:58:46.596865	336.9	18.1	-90.4	3.4
2025-01-27 14:58:47.758815	336.7	18.0	-90.6	3.1
2025-01-27 14:58:48.923202	336.6	17.9	-90.3	2.8
2025-01-27 14:58:50.083173	336.4	17.8	-90.7	3.0
2025-01-27 14:58:51.242413	336.2	17.7	-90.5	3.5
2025-01-27 14:58:52.406875	336.0	17.6	-90.4	1.5
2025-01-27 14:58:53.573909	335.8	17.5	-90.3	2.0
2025-01-27 14:58:54.733650	335.7	17.4	-90.3	2.1
2025-01-27 14:58:55.899016	335.5	17.3	-90.6	1.8
2025-01-27 14:58:57.065424	335.3	17.2	-90.5	2.6
2025-01-27 14:58:58.227000	335.1	17.1	-90.8	1.7
2025-01-27 14:58:59.395138	335.0	17.0	-90.2	3.3
2025-01-27 14:59:00.537855	334.8	16.9	-90.2	2.0
2025-01-27 14:59:01.702362	334.6	16.8	-90.3	3.7
2025-01-27 14:59:02.867598	334.4	16.7	-90.5	2.5
2025-01-27 14:59:04.029291	334.3	16.6	-90.5	3.5
2025-01-27 14:59:05.196351	334.1	16.5	-90.1	1.6
2025-01-27 14:59:06.357118	333.9	16.4	-90.6	1.9
2025-01-27 14:59:07.523006	333.8	16.3	-90.7	2.7
2025-01-27 14:59:08.674523	333.6	16.3	-90.8	3.1
2025-01-27 14:59:09.848628	333.4	16.2	-90.6	3.4
2025-01-27 14:59:11.009744	333.3	16.1	-90.5	3.0
2025-01-27 14:59:12.172688	333.1	16.0	-90.4	1.4
2025-01-27 14:59:13.328342	333.0	15.9	-90.7	3.3
2025-01-27 14:59:14.494030	332.8	15.8	-90.5	2.3
2025-01-27 14:59:15.663527	332.6	15.7	-91.0	4.4
2025-01-27 14:59:16.827131	332.5	15.6	-90.5	2.2
2025-01-27 14:59:17.991298	332.3	15.5	-90.7	1.7
2025-01-27 14:59:19.152827	332.2	15.4	-90.2	1.7
2025-01-27 14:59:20.308166	332.0	15.3	-90.4	1.9
2025-01-27 14:59:21.475038	331.9	15.2	-90.7	2.7
2025-01-27 14:59:22.641998	331.7	15.1	-90.6	5.6
2025-01-27 14:59:23.805688	331.6	15.0	-90.5	1.7
2025-01-27 14:59:24.972170	331.4	14.9	-90.5	5.1
2025-01-27 14:59:26.135512	331.3	14.8	-90.5	3.3
2025-01-27 14:59:27.298340	331.1	14.7	-90.3	4.6
2025-01-27 14:59:28.462905	331.0	14.6	-90.3	3.1
#Closed at: 2025-01-27 14:52:19.597613