passes_logs/2025/01/27/LEX_Murmansk/LEX_Murmansk__20250127_181145_NOAA_19_rec.log

#Pass ID: 20250127_181145_NOAA 19
#Satellite: NOAA 19
#Configuration: NOAA 19
#Start time: 2025-01-27 18:11:40.623714

#LorettStation: 1.0.0 05.05.2024
#Station: LEX_Murmansk
#Location: 33.156738 lon 68.926811 lat
#TLE: 1 33591U 09005A   25027.18125374  .00000353  00000+0  21226-3 0  9998
#TLE: 2 33591  99.0174  91.0366 0013998  24.4913 335.6921 14.13269986823260

#Time	Az	El	Level	SNR
2025-01-27 18:11:52.969176	166.9	16.3	-90.9	5.0
2025-01-27 18:11:55.213192	166.9	16.6	-89.8	3.2
2025-01-27 18:11:57.458707	167.0	16.8	-90.1	3.3
2025-01-27 18:11:59.774853	167.1	17.1	-90.6	2.9
2025-01-27 18:12:02.083776	167.2	17.4	-90.5	2.8
2025-01-27 18:12:04.405742	167.3	17.6	-91.0	2.6
2025-01-27 18:12:06.728087	167.4	17.9	-90.7	5.7
2025-01-27 18:12:09.052911	167.5	18.2	-90.8	4.4
2025-01-27 18:12:11.372172	167.6	18.5	-90.7	3.1
2025-01-27 18:12:13.693694	167.7	18.7	-90.3	3.2
2025-01-27 18:12:16.019260	167.8	19.0	-90.6	3.7
2025-01-27 18:12:18.332065	167.9	19.3	-90.7	2.4
2025-01-27 18:12:20.649231	168.0	19.6	-90.8	2.8
2025-01-27 18:12:22.977340	168.1	19.9	-90.4	3.9
2025-01-27 18:12:25.297390	168.2	20.2	-90.4	5.8
2025-01-27 18:12:27.619894	168.3	20.5	-91.1	8.3
2025-01-27 18:12:29.952026	168.4	20.8	-90.8	9.6
2025-01-27 18:12:32.279325	168.5	21.1	-90.8	4.2
2025-01-27 18:12:34.604941	168.6	21.4	-90.4	1.5
2025-01-27 18:12:36.925705	168.7	21.7	-90.9	3.6
2025-01-27 18:12:39.211556	168.9	22.1	-90.4	3.2
2025-01-27 18:12:41.396454	169.0	22.4	-90.3	5.8
2025-01-27 18:12:43.637506	169.1	22.7	-90.6	4.7
2025-01-27 18:12:45.880734	169.2	23.0	-91.0	6.6
2025-01-27 18:12:48.124018	169.3	23.3	-90.6	5.2
2025-01-27 18:12:50.419351	169.5	23.6	-90.9	2.8
2025-01-27 18:12:52.727493	169.6	24.0	-90.9	2.7
2025-01-27 18:12:55.040564	169.7	24.3	-90.8	9.2
2025-01-27 18:12:57.366676	169.9	24.7	-91.0	9.6
2025-01-27 18:12:59.687145	170.0	25.0	-90.8	5.7
2025-01-27 18:13:01.999257	170.2	25.4	-90.8	11.7
2025-01-27 18:13:04.317862	170.3	25.8	-90.8	10.2
2025-01-27 18:13:06.636320	170.5	26.1	-90.9	3.1
2025-01-27 18:13:08.957760	170.6	26.5	-91.1	2.0
2025-01-27 18:13:11.286195	170.8	26.9	-90.3	5.9
2025-01-27 18:13:13.612250	170.9	27.3	-90.2	5.6
2025-01-27 18:13:15.940389	171.1	27.7	-90.4	3.0
2025-01-27 18:13:18.257993	171.3	28.1	-90.5	6.4
2025-01-27 18:13:20.576933	171.4	28.5	-90.6	7.5
2025-01-27 18:13:22.905290	171.6	28.9	-90.9	2.6
2025-01-27 18:13:25.219232	171.8	29.3	-90.7	3.0
2025-01-27 18:13:27.534181	172.0	29.7	-91.0	3.1
2025-01-27 18:13:29.857759	172.2	30.1	-91.3	4.8
2025-01-27 18:13:32.181868	172.4	30.6	-90.6	3.8
2025-01-27 18:13:34.498722	172.6	31.0	-90.1	7.3
2025-01-27 18:13:36.825431	172.8	31.5	-90.3	10.1
2025-01-27 18:13:39.141557	173.0	31.9	-90.1	5.6
2025-01-27 18:13:41.470045	173.2	32.4	-89.9	2.6
2025-01-27 18:13:43.793448	173.4	32.8	-90.0	3.0
2025-01-27 18:13:46.118825	173.6	33.3	-90.7	9.9
2025-01-27 18:13:48.437455	173.9	33.8	-91.1	14.0
2025-01-27 18:13:50.778371	174.1	34.3	-91.0	5.7
2025-01-27 18:13:53.113035	174.4	34.8	-90.5	6.7
2025-01-27 18:13:55.443583	174.6	35.3	-91.2	9.0
2025-01-27 18:13:57.769977	174.9	35.8	-91.3	3.3
2025-01-27 18:14:00.094268	175.2	36.3	-90.5	2.9
2025-01-27 18:14:02.411160	175.4	36.8	-90.5	3.3
2025-01-27 18:14:04.740105	175.7	37.3	-90.1	5.6
2025-01-27 18:14:07.054627	176.0	37.9	-90.0	10.9
2025-01-27 18:14:09.374982	176.3	38.4	-90.0	3.3
2025-01-27 18:14:11.680937	176.6	38.9	-90.3	5.6
2025-01-27 18:14:13.994908	177.0	39.5	-90.6	4.9
2025-01-27 18:14:16.322619	177.3	40.1	-90.8	4.9
2025-01-27 18:14:18.642221	177.7	40.6	-90.7	4.0
2025-01-27 18:14:20.971858	178.0	41.2	-90.7	6.1
2025-01-27 18:14:23.299859	178.4	41.8	-90.4	10.7
2025-01-27 18:14:25.616806	178.8	42.4	-91.4	11.6
2025-01-27 18:14:27.935473	179.2	43.0	-91.5	11.4
2025-01-27 18:14:30.269194	179.6	43.6	-90.8	8.6
2025-01-27 18:14:32.593960	180.1	44.3	-91.0	17.1
2025-01-27 18:14:34.921178	180.5	44.9	-91.1	9.8
2025-01-27 18:14:37.246582	181.0	45.5	-90.7	5.3
2025-01-27 18:14:39.564688	181.5	46.2	-90.5	5.4
2025-01-27 18:14:41.883506	182.0	46.8	-91.2	8.3
2025-01-27 18:14:44.202479	182.5	47.5	-90.8	12.8
2025-01-27 18:14:46.520768	183.1	48.2	-91.5	12.3
2025-01-27 18:14:48.800635	183.6	48.8	-90.9	10.5
2025-01-27 18:14:51.123267	184.2	49.5	-90.9	8.6
2025-01-27 18:14:53.445411	184.9	50.2	-90.7	12.4
2025-01-27 18:14:55.771557	185.5	50.9	-91.3	14.9
2025-01-27 18:14:58.092321	186.2	51.6	-91.1	9.2
2025-01-27 18:15:00.406143	186.9	52.3	-91.1	2.5
2025-01-27 18:15:02.725766	187.7	53.1	-91.0	1.8
2025-01-27 18:15:05.056633	188.5	53.8	-91.0	8.2
2025-01-27 18:15:07.381283	189.3	54.5	-91.1	11.6
2025-01-27 18:15:09.710303	190.2	55.3	-91.4	9.6
2025-01-27 18:15:12.027175	191.2	56.0	-90.8	7.5
2025-01-27 18:15:14.343257	192.1	56.7	-91.1	8.6
2025-01-27 18:15:16.661545	193.2	57.5	-91.4	6.3
2025-01-27 18:15:18.985469	194.2	58.2	-91.3	6.9
2025-01-27 18:15:21.311209	195.4	58.9	-91.3	9.0
2025-01-27 18:15:23.631430	196.6	59.7	-91.1	8.4
2025-01-27 18:15:25.952358	197.9	60.4	-91.2	8.9
2025-01-27 18:15:28.288795	199.3	61.1	-90.5	2.2
2025-01-27 18:15:30.616219	200.7	61.9	-91.3	6.4
2025-01-27 18:15:32.945731	202.2	62.6	-91.4	9.5
2025-01-27 18:15:35.266927	203.9	63.3	-91.0	12.5
2025-01-27 18:15:37.586780	205.6	64.0	-91.0	15.1
2025-01-27 18:15:39.916530	207.4	64.6	-91.1	9.5
2025-01-27 18:15:42.239535	209.3	65.3	-91.0	10.5
2025-01-27 18:15:44.551891	211.4	65.9	-90.9	7.4
2025-01-27 18:15:46.891386	213.5	66.5	-90.8	8.1
2025-01-27 18:15:49.192941	215.8	67.1	-90.7	8.8
2025-01-27 18:15:51.514190	218.2	67.7	-91.1	13.9
2025-01-27 18:15:53.844615	220.7	68.2	-91.4	19.1
2025-01-27 18:15:56.163029	223.4	68.7	-91.2	13.0
2025-01-27 18:15:58.487748	226.2	69.1	-91.4	12.3
2025-01-27 18:16:00.798605	229.1	69.5	-91.3	10.4
2025-01-27 18:16:03.119807	232.1	69.8	-91.2	7.1
2025-01-27 18:16:05.440498	235.2	70.1	-91.2	4.7
2025-01-27 18:16:07.763141	238.4	70.3	-90.7	4.9
2025-01-27 18:16:10.087358	241.7	70.5	-90.3	2.3
2025-01-27 18:16:12.410984	245.1	70.6	-91.0	7.9
2025-01-27 18:16:14.737555	248.4	70.7	-90.8	6.9
2025-01-27 18:16:17.059020	251.8	70.7	-91.1	15.8
2025-01-27 18:16:19.376172	255.1	70.6	-90.6	17.7
2025-01-27 18:16:21.699713	258.5	70.5	-91.5	12.8
2025-01-27 18:16:24.027654	261.7	70.3	-91.2	16.2
2025-01-27 18:16:26.357730	264.9	70.0	-91.0	20.1
2025-01-27 18:16:28.673061	268.0	69.7	-90.8	23.3
2025-01-27 18:16:30.996970	271.0	69.4	-91.1	12.5
2025-01-27 18:16:33.322985	273.8	68.9	-91.3	21.0
2025-01-27 18:16:35.652704	276.6	68.5	-90.6	21.1
2025-01-27 18:16:37.973213	279.2	68.0	-90.7	21.9
2025-01-27 18:16:40.284201	281.7	67.5	-90.2	18.6
2025-01-27 18:16:42.608923	284.0	66.9	-91.2	14.5
2025-01-27 18:16:44.931827	286.3	66.3	-91.5	18.6
2025-01-27 18:16:47.269079	288.4	65.7	-91.1	14.0
2025-01-27 18:16:49.593823	290.4	65.1	-91.2	10.0
2025-01-27 18:16:51.920678	292.3	64.4	-91.0	6.7
2025-01-27 18:16:54.263941	294.1	63.7	-91.0	0.9
2025-01-27 18:16:56.592797	295.8	63.0	-90.7	3.4
2025-01-27 18:16:58.914978	297.3	62.3	-90.8	9.9
2025-01-27 18:17:01.243233	298.8	61.6	-90.6	15.2
2025-01-27 18:17:03.560638	300.2	60.9	-91.0	13.0
2025-01-27 18:17:05.889819	301.6	60.2	-91.0	11.8
2025-01-27 18:17:08.210724	302.8	59.4	-90.6	11.4
2025-01-27 18:17:10.523445	304.0	58.7	-90.8	14.4
2025-01-27 18:17:12.838706	305.1	58.0	-91.1	10.3
2025-01-27 18:17:15.165543	306.2	57.2	-90.5	8.1
2025-01-27 18:17:17.489587	307.2	56.5	-90.8	10.2
2025-01-27 18:17:19.815220	308.2	55.8	-90.9	8.2
2025-01-27 18:17:22.139100	309.1	55.0	-90.7	4.0
2025-01-27 18:17:24.469430	310.0	54.3	-90.8	6.3
2025-01-27 18:17:26.796871	310.8	53.6	-90.7	3.4
2025-01-27 18:17:29.117293	311.6	52.9	-90.7	5.5
2025-01-27 18:17:31.447434	312.3	52.1	-91.1	4.9
2025-01-27 18:17:33.775675	313.0	51.4	-91.4	8.7
2025-01-27 18:17:36.107396	313.7	50.7	-90.9	8.4
2025-01-27 18:17:38.441835	314.4	50.0	-91.5	5.3
2025-01-27 18:17:40.749425	315.0	49.4	-91.0	11.7
2025-01-27 18:17:43.071033	315.6	48.7	-90.7	10.2
2025-01-27 18:17:45.398973	316.1	48.0	-91.1	8.4
2025-01-27 18:17:47.732208	316.7	47.3	-91.1	6.6
2025-01-27 18:17:50.051998	317.2	46.7	-90.3	9.0
2025-01-27 18:17:52.378627	317.7	46.0	-90.9	3.7
2025-01-27 18:17:54.694164	318.2	45.4	-90.8	2.6
2025-01-27 18:17:57.012667	318.7	44.8	-90.6	8.2
2025-01-27 18:17:59.329971	319.1	44.1	-90.6	9.3
2025-01-27 18:18:01.652458	319.5	43.5	-90.6	9.6
2025-01-27 18:18:03.980021	319.9	42.9	-91.0	15.8
2025-01-27 18:18:06.310173	320.3	42.3	-91.1	17.4
2025-01-27 18:18:08.640840	320.7	41.7	-91.0	13.9
2025-01-27 18:18:10.952689	321.1	41.1	-91.0	12.4
2025-01-27 18:18:13.279007	321.5	40.5	-90.6	4.5
2025-01-27 18:18:15.605799	321.8	40.0	-90.5	8.1
2025-01-27 18:18:17.932610	322.1	39.4	-91.0	11.6
2025-01-27 18:18:20.257422	322.5	38.9	-91.3	7.6
2025-01-27 18:18:22.590428	322.8	38.3	-90.9	8.0
2025-01-27 18:18:24.909769	323.1	37.8	-91.1	8.2
2025-01-27 18:18:27.227678	323.4	37.2	-91.0	7.3
2025-01-27 18:18:29.551256	323.7	36.7	-91.2	8.1
2025-01-27 18:18:31.890507	323.9	36.2	-91.4	3.0
2025-01-27 18:18:34.221119	324.2	35.7	-90.7	2.8
2025-01-27 18:18:36.540665	324.5	35.2	-91.0	6.6
2025-01-27 18:18:38.867075	324.7	34.7	-91.4	6.2
2025-01-27 18:18:41.177670	325.0	34.2	-91.2	9.6
2025-01-27 18:18:43.485182	325.2	33.7	-91.1	10.3
2025-01-27 18:18:45.822152	325.4	33.3	-91.0	10.9
2025-01-27 18:18:48.144482	325.7	32.8	-90.8	5.4
2025-01-27 18:18:50.460318	325.9	32.4	-91.2	8.1
2025-01-27 18:18:52.782726	326.1	31.9	-90.9	5.9
2025-01-27 18:18:55.104795	326.3	31.5	-91.1	8.9
2025-01-27 18:18:57.436967	326.5	31.0	-91.0	14.1
2025-01-27 18:18:59.765055	326.7	30.6	-90.1	10.7
2025-01-27 18:19:02.079167	326.9	30.2	-90.4	6.1
2025-01-27 18:19:04.403915	327.1	29.7	-91.0	3.8
2025-01-27 18:19:06.731017	327.3	29.3	-90.9	4.1
2025-01-27 18:19:09.061668	327.5	28.9	-91.3	8.4
2025-01-27 18:19:11.382209	327.6	28.5	-91.5	6.6
2025-01-27 18:19:13.711237	327.8	28.1	-90.6	5.8
2025-01-27 18:19:16.037852	328.0	27.7	-90.6	6.7
2025-01-27 18:19:18.358826	328.1	27.3	-90.7	5.0
2025-01-27 18:19:20.671404	328.3	26.9	-90.9	3.7
2025-01-27 18:19:23.002132	328.5	26.6	-91.0	6.8
2025-01-27 18:19:25.327054	328.6	26.2	-90.7	5.4
2025-01-27 18:19:27.647204	328.8	25.8	-91.0	10.2
2025-01-27 18:19:29.977075	328.9	25.5	-90.2	11.7
2025-01-27 18:19:32.307874	329.0	25.1	-91.0	3.8
2025-01-27 18:19:34.634329	329.2	24.7	-90.9	4.3
2025-01-27 18:19:36.971597	329.3	24.4	-90.6	4.6
2025-01-27 18:19:39.304310	329.5	24.1	-90.4	1.7
2025-01-27 18:19:41.625684	329.6	23.7	-90.3	7.0
2025-01-27 18:19:43.954238	329.7	23.4	-91.3	8.1
2025-01-27 18:19:46.282365	329.8	23.0	-90.5	4.9
2025-01-27 18:19:48.600674	330.0	22.7	-91.4	4.4
2025-01-27 18:19:50.918400	330.1	22.4	-90.4	5.7
2025-01-27 18:19:53.243951	330.2	22.1	-90.8	3.5
2025-01-27 18:19:55.565699	330.3	21.8	-91.1	11.8
2025-01-27 18:19:57.888687	330.4	21.4	-90.5	14.9
2025-01-27 18:20:00.214691	330.6	21.1	-90.4	2.7
2025-01-27 18:20:02.529291	330.7	20.8	-90.1	3.6
2025-01-27 18:20:04.857986	330.8	20.5	-90.5	2.7
2025-01-27 18:20:07.179324	330.9	20.2	-90.6	1.5
2025-01-27 18:20:09.499899	331.0	19.9	-90.7	5.3
2025-01-27 18:20:11.822110	331.1	19.6	-90.8	2.7
2025-01-27 18:20:14.152940	331.2	19.4	-90.7	3.1
2025-01-27 18:20:16.476627	331.3	19.1	-90.9	1.5
2025-01-27 18:20:18.793462	331.4	18.8	-90.7	4.2
2025-01-27 18:20:21.116388	331.5	18.5	-90.7	3.2
2025-01-27 18:20:23.445754	331.6	18.2	-91.3	3.0
2025-01-27 18:20:25.761767	331.7	18.0	-90.8	3.7
2025-01-27 18:20:28.064162	331.8	17.7	-90.4	0.8
2025-01-27 18:20:30.385950	331.9	17.4	-90.5	5.9
2025-01-27 18:20:32.695162	332.0	17.2	-90.8	1.9
2025-01-27 18:20:34.935459	332.0	16.9	-91.0	0.8
2025-01-27 18:20:37.278636	332.1	16.7	-91.3	2.3
2025-01-27 18:20:39.519279	332.2	16.4	-91.2	2.7
2025-01-27 18:20:41.760890	332.3	16.2	-91.1	4.1
2025-01-27 18:20:44.036446	332.4	15.9	-91.2	6.1
2025-01-27 18:20:46.347430	332.5	15.7	-91.3	3.6
2025-01-27 18:20:48.660496	332.5	15.4	-91.1	1.1
2025-01-27 18:20:50.983249	332.6	15.2	-90.4	3.7
2025-01-27 18:20:53.309013	332.7	14.9	-91.1	4.1
2025-01-27 18:20:55.625830	332.8	14.7	-91.1	1.8
2025-01-27 18:20:57.947070	332.9	14.5	-91.3	4.5
#Closed at: 2025-01-27 18:11:45.554160