passes_logs/2025/01/27/LEX_Murmansk/LEX_Murmansk__20250127_201530_NOAA_18_rec.log

#Pass ID: 20250127_201530_NOAA 18
#Satellite: NOAA 18
#Configuration: NOAA 18
#Start time: 2025-01-27 20:15:25.451056

#LorettStation: 1.0.0 05.05.2024
#Station: LEX_Murmansk
#Location: 33.156738 lon 68.926811 lat
#TLE: 1 28654U 05018A   25027.12567402  .00000414  00000+0  24299-3 0  9999
#TLE: 2 28654  98.8547 108.0587 0014840 145.8119 214.4012 14.13498347 14893

#Time	Az	El	Level	SNR
2025-01-27 20:15:37.618666	196.9	16.2	-92.5	5.2
2025-01-27 20:15:38.765796	197.0	16.3	-92.6	6.5
2025-01-27 20:15:39.914516	197.1	16.4	-92.9	5.9
2025-01-27 20:15:41.058950	197.2	16.5	-92.5	5.0
2025-01-27 20:15:42.209269	197.4	16.6	-92.5	4.9
2025-01-27 20:15:43.358578	197.5	16.7	-92.7	5.3
2025-01-27 20:15:44.507982	197.6	16.9	-92.7	6.1
2025-01-27 20:15:45.654971	197.7	17.0	-92.6	4.9
2025-01-27 20:15:46.800260	197.8	17.1	-92.8	3.3
2025-01-27 20:15:47.940585	198.0	17.2	-92.8	5.3
2025-01-27 20:15:49.085456	198.1	17.3	-91.2	7.9
2025-01-27 20:15:50.234241	198.2	17.4	-91.4	8.5
2025-01-27 20:15:51.380054	198.3	17.6	-91.5	6.0
2025-01-27 20:15:52.524935	198.4	17.7	-92.6	7.0
2025-01-27 20:15:53.671779	198.6	17.8	-92.5	6.9
2025-01-27 20:15:54.817855	198.7	17.9	-93.2	9.2
2025-01-27 20:15:55.962521	198.8	18.0	-92.2	10.9
2025-01-27 20:15:57.114171	199.0	18.1	-92.2	8.9
2025-01-27 20:15:58.262878	199.1	18.3	-92.8	5.5
2025-01-27 20:15:59.410645	199.2	18.4	-92.5	5.5
2025-01-27 20:16:00.558999	199.3	18.5	-92.9	10.0
2025-01-27 20:16:01.702728	199.5	18.6	-93.0	10.7
2025-01-27 20:16:02.853571	199.6	18.8	-92.6	12.8
2025-01-27 20:16:04.001496	199.7	18.9	-92.8	9.0
2025-01-27 20:16:05.145913	199.9	19.0	-92.6	8.4
2025-01-27 20:16:06.293259	200.0	19.1	-92.3	10.0
2025-01-27 20:16:07.446328	200.2	19.2	-92.6	8.5
2025-01-27 20:16:08.588387	200.3	19.4	-92.9	6.6
2025-01-27 20:16:09.734462	200.4	19.5	-92.8	8.8
2025-01-27 20:16:10.876755	200.6	19.6	-92.4	10.0
2025-01-27 20:16:12.020368	200.7	19.7	-92.6	8.5
2025-01-27 20:16:13.173071	200.9	19.9	-92.8	9.1
2025-01-27 20:16:14.320301	201.0	20.0	-92.5	14.6
2025-01-27 20:16:15.468433	201.2	20.1	-93.0	9.9
2025-01-27 20:16:16.622047	201.3	20.3	-92.9	13.6
2025-01-27 20:16:17.770272	201.4	20.4	-93.0	13.2
2025-01-27 20:16:18.922083	201.6	20.5	-92.7	13.8
2025-01-27 20:16:20.064949	201.7	20.6	-92.7	12.9
2025-01-27 20:16:21.214959	201.9	20.8	-92.9	11.1
2025-01-27 20:16:22.366650	202.1	20.9	-92.3	9.5
2025-01-27 20:16:23.523706	202.2	21.0	-92.6	6.3
2025-01-27 20:16:24.666015	202.4	21.2	-92.6	10.9
2025-01-27 20:16:25.813960	202.5	21.3	-92.7	11.9
2025-01-27 20:16:26.962860	202.7	21.4	-92.7	7.0
2025-01-27 20:16:28.107203	202.8	21.6	-92.6	10.3
2025-01-27 20:16:29.253491	203.0	21.7	-92.6	12.1
2025-01-27 20:16:30.396355	203.2	21.8	-92.8	14.9
2025-01-27 20:16:31.545239	203.3	22.0	-93.2	15.1
2025-01-27 20:16:32.696439	203.5	22.1	-92.8	17.3
2025-01-27 20:16:33.846032	203.7	22.2	-92.8	11.4
2025-01-27 20:16:34.995348	203.8	22.4	-92.7	11.3
2025-01-27 20:16:36.141460	204.0	22.5	-92.6	13.4
2025-01-27 20:16:37.288960	204.2	22.6	-92.5	11.1
2025-01-27 20:16:38.436580	204.3	22.8	-92.2	11.3
2025-01-27 20:16:39.581440	204.5	22.9	-92.6	13.4
2025-01-27 20:16:40.731670	204.7	23.0	-92.9	11.6
2025-01-27 20:16:41.883953	204.9	23.2	-92.6	6.4
2025-01-27 20:16:43.036206	205.0	23.3	-92.8	7.1
2025-01-27 20:16:44.181528	205.2	23.5	-92.7	7.3
2025-01-27 20:16:45.333031	205.4	23.6	-92.3	8.5
2025-01-27 20:16:46.481508	205.6	23.7	-92.8	11.4
2025-01-27 20:16:47.627693	205.8	23.9	-92.4	11.6
2025-01-27 20:16:48.779037	205.9	24.0	-92.6	11.2
2025-01-27 20:16:49.926595	206.1	24.2	-92.9	11.2
2025-01-27 20:16:51.072547	206.3	24.3	-92.4	14.5
2025-01-27 20:16:52.217597	206.5	24.4	-92.4	14.6
2025-01-27 20:16:53.366697	206.7	24.6	-92.4	12.0
2025-01-27 20:16:54.514995	206.9	24.7	-92.4	10.7
2025-01-27 20:16:55.664122	207.1	24.9	-91.8	13.4
2025-01-27 20:16:56.808473	207.3	25.0	-91.9	18.3
2025-01-27 20:16:57.958316	207.5	25.2	-91.6	8.4
2025-01-27 20:16:59.103837	207.7	25.3	-92.7	10.8
2025-01-27 20:17:00.245765	207.9	25.4	-92.8	14.9
2025-01-27 20:17:01.395044	208.1	25.6	-92.6	5.9
2025-01-27 20:17:02.548481	208.3	25.7	-93.0	6.9
2025-01-27 20:17:03.693149	208.5	25.9	-93.0	8.7
2025-01-27 20:17:04.841167	208.7	26.0	-93.1	7.6
2025-01-27 20:17:05.986422	208.9	26.2	-92.9	8.1
2025-01-27 20:17:07.137684	209.1	26.3	-92.6	4.7
2025-01-27 20:17:08.283147	209.4	26.5	-92.7	10.8
2025-01-27 20:17:09.429190	209.6	26.6	-93.2	8.3
2025-01-27 20:17:10.575545	209.8	26.8	-92.8	7.6
2025-01-27 20:17:11.726297	210.0	26.9	-92.9	7.7
2025-01-27 20:17:12.873215	210.2	27.1	-92.8	7.9
2025-01-27 20:17:14.017056	210.5	27.2	-92.7	8.2
2025-01-27 20:17:15.168924	210.7	27.4	-92.7	13.5
2025-01-27 20:17:16.314603	210.9	27.5	-92.5	11.7
2025-01-27 20:17:17.465106	211.2	27.7	-92.7	8.9
2025-01-27 20:17:18.612726	211.4	27.8	-92.7	10.4
2025-01-27 20:17:19.760160	211.6	28.0	-92.9	10.1
2025-01-27 20:17:20.913435	211.9	28.1	-92.5	8.0
2025-01-27 20:17:22.056082	212.1	28.3	-92.7	4.7
2025-01-27 20:17:23.208052	212.3	28.4	-92.2	6.2
2025-01-27 20:17:24.355349	212.6	28.6	-92.6	3.7
2025-01-27 20:17:25.502582	212.8	28.7	-92.7	2.8
2025-01-27 20:17:26.652353	213.1	28.9	-92.7	3.0
2025-01-27 20:17:27.799204	213.3	29.0	-93.0	6.0
2025-01-27 20:17:28.945763	213.6	29.2	-92.9	4.9
2025-01-27 20:17:30.093912	213.8	29.3	-92.0	7.0
2025-01-27 20:17:31.241398	214.1	29.5	-92.4	8.9
2025-01-27 20:17:32.386962	214.4	29.6	-92.8	7.0
2025-01-27 20:17:33.535459	214.6	29.8	-92.8	6.0
2025-01-27 20:17:34.687676	214.9	30.0	-92.7	10.1
2025-01-27 20:17:35.832911	215.2	30.1	-92.9	14.9
2025-01-27 20:17:36.981641	215.4	30.3	-92.4	10.2
2025-01-27 20:17:38.131662	215.7	30.4	-92.5	12.4
2025-01-27 20:17:39.282401	216.0	30.6	-92.2	12.2
2025-01-27 20:17:40.426382	216.3	30.7	-92.5	6.9
2025-01-27 20:17:41.576796	216.5	30.9	-92.7	6.7
2025-01-27 20:17:42.724247	216.8	31.0	-93.0	8.7
2025-01-27 20:17:43.872480	217.1	31.2	-92.9	3.9
2025-01-27 20:17:45.028237	217.4	31.4	-92.6	6.2
2025-01-27 20:17:46.176360	217.7	31.5	-92.0	10.6
2025-01-27 20:17:47.323205	218.0	31.7	-92.2	11.9
2025-01-27 20:17:48.474059	218.3	31.8	-92.3	13.2
2025-01-27 20:17:49.619854	218.6	32.0	-92.7	13.5
2025-01-27 20:17:50.764302	218.9	32.1	-92.8	16.7
2025-01-27 20:17:51.912898	219.2	32.3	-92.9	7.3
2025-01-27 20:17:53.064199	219.5	32.4	-93.1	11.5
2025-01-27 20:17:54.211873	219.8	32.6	-92.7	14.5
2025-01-27 20:17:55.351672	220.1	32.7	-92.8	13.3
2025-01-27 20:17:56.502843	220.5	32.9	-92.9	11.4
2025-01-27 20:17:57.649333	220.8	33.1	-92.5	13.5
2025-01-27 20:17:58.796082	221.1	33.2	-92.9	17.9
2025-01-27 20:17:59.941987	221.4	33.4	-93.3	17.4
2025-01-27 20:18:01.081309	221.8	33.5	-92.6	20.7
2025-01-27 20:18:02.227797	222.1	33.7	-92.7	13.9
2025-01-27 20:18:03.381515	222.4	33.8	-92.4	13.5
2025-01-27 20:18:04.529391	222.8	34.0	-92.9	12.4
2025-01-27 20:18:05.680794	223.1	34.1	-92.8	18.4
2025-01-27 20:18:06.823959	223.5	34.3	-92.7	15.3
2025-01-27 20:18:07.974659	223.8	34.4	-92.8	5.4
2025-01-27 20:18:09.118456	224.2	34.6	-91.6	14.7
2025-01-27 20:18:10.263024	224.5	34.7	-91.7	17.4
2025-01-27 20:18:11.410056	224.9	34.9	-91.9	14.6
2025-01-27 20:18:12.562385	225.2	35.0	-91.3	17.3
2025-01-27 20:18:13.705179	225.6	35.2	-92.8	17.7
2025-01-27 20:18:14.851625	226.0	35.3	-92.7	15.5
2025-01-27 20:18:15.993640	226.3	35.5	-92.9	20.8
2025-01-27 20:18:17.142417	226.7	35.6	-92.5	21.4
2025-01-27 20:18:18.291062	227.1	35.8	-92.9	19.2
2025-01-27 20:18:19.439694	227.5	35.9	-92.6	15.1
2025-01-27 20:18:20.582266	227.8	36.1	-93.0	11.8
2025-01-27 20:18:21.733297	228.2	36.2	-93.0	18.3
2025-01-27 20:18:22.889645	228.6	36.4	-92.5	14.9
2025-01-27 20:18:24.037107	229.0	36.5	-92.9	16.2
2025-01-27 20:18:25.187341	229.4	36.6	-93.0	20.4
2025-01-27 20:18:26.339253	229.8	36.8	-92.7	21.3
2025-01-27 20:18:27.488375	230.2	36.9	-93.0	22.2
2025-01-27 20:18:28.636936	230.6	37.1	-92.9	18.4
2025-01-27 20:18:29.786874	231.1	37.2	-93.0	19.8
2025-01-27 20:18:30.933901	231.5	37.3	-93.0	13.8
2025-01-27 20:18:32.078946	231.9	37.5	-92.7	12.1
2025-01-27 20:18:33.227429	232.3	37.6	-92.9	19.8
2025-01-27 20:18:34.378375	232.7	37.7	-92.7	13.0
2025-01-27 20:18:35.529812	233.2	37.9	-93.2	9.7
2025-01-27 20:18:36.682321	233.6	38.0	-92.8	16.5
2025-01-27 20:18:37.830029	234.0	38.1	-93.1	19.3
2025-01-27 20:18:38.972706	234.5	38.3	-93.3	13.3
2025-01-27 20:18:40.118856	234.9	38.4	-92.5	18.6
2025-01-27 20:18:41.266407	235.4	38.5	-92.5	19.5
2025-01-27 20:18:42.419311	235.8	38.6	-92.7	18.7
2025-01-27 20:18:43.566158	236.3	38.8	-92.5	19.7
2025-01-27 20:18:44.713557	236.7	38.9	-93.0	19.0
2025-01-27 20:18:45.860412	237.2	39.0	-93.1	18.7
2025-01-27 20:18:47.007897	237.6	39.1	-93.0	15.3
2025-01-27 20:18:48.159564	238.1	39.2	-93.1	16.8
2025-01-27 20:18:49.309125	238.6	39.4	-92.5	16.8
2025-01-27 20:18:50.458270	239.1	39.5	-92.7	14.4
2025-01-27 20:18:51.605918	239.5	39.6	-92.9	14.9
2025-01-27 20:18:52.750487	240.0	39.7	-92.7	21.3
2025-01-27 20:18:53.899448	240.5	39.8	-92.7	17.0
2025-01-27 20:18:55.046786	241.0	39.9	-92.5	17.2
2025-01-27 20:18:56.194276	241.5	40.0	-92.1	17.8
2025-01-27 20:18:57.336681	242.0	40.1	-92.1	19.0
2025-01-27 20:18:58.481404	242.4	40.2	-92.8	20.9
2025-01-27 20:18:59.627878	242.9	40.3	-92.5	21.1
2025-01-27 20:19:00.770800	243.4	40.4	-92.6	19.6
2025-01-27 20:19:01.920464	243.9	40.5	-92.7	19.0
2025-01-27 20:19:03.069793	244.5	40.6	-92.4	18.2
2025-01-27 20:19:04.217134	245.0	40.7	-92.6	18.7
2025-01-27 20:19:05.366017	245.5	40.8	-92.6	11.4
2025-01-27 20:19:06.511149	246.0	40.8	-92.7	11.9
2025-01-27 20:19:07.665018	246.5	40.9	-92.3	18.7
2025-01-27 20:19:08.821617	247.0	41.0	-92.4	16.0
2025-01-27 20:19:09.965860	247.5	41.1	-92.7	11.5
2025-01-27 20:19:11.110791	248.1	41.1	-92.4	16.9
2025-01-27 20:19:12.258483	248.6	41.2	-92.5	19.9
2025-01-27 20:19:13.405815	249.1	41.3	-90.7	10.1
2025-01-27 20:19:14.552479	249.7	41.4	-91.2	16.8
2025-01-27 20:19:15.695603	250.2	41.4	-91.2	20.9
2025-01-27 20:19:16.860023	250.7	41.5	-91.4	19.9
2025-01-27 20:19:17.982078	251.3	41.5	-92.3	22.9
2025-01-27 20:19:19.102281	251.8	41.6	-91.6	23.4
2025-01-27 20:19:20.223837	252.3	41.6	-91.9	22.4
2025-01-27 20:19:21.344090	252.8	41.7	-92.1	22.8
2025-01-27 20:19:22.466690	253.4	41.7	-91.9	16.2
2025-01-27 20:19:23.587991	253.9	41.8	-92.4	23.4
2025-01-27 20:19:24.708111	254.4	41.8	-92.6	21.7
2025-01-27 20:19:25.828101	255.0	41.9	-92.4	24.4
2025-01-27 20:19:26.951786	255.5	41.9	-92.4	25.9
2025-01-27 20:19:28.083926	256.1	41.9	-92.1	22.4
2025-01-27 20:19:29.232505	256.6	42.0	-92.3	18.6
2025-01-27 20:19:30.378303	257.2	42.0	-92.5	22.8
2025-01-27 20:19:31.524016	257.7	42.0	-92.7	19.6
2025-01-27 20:19:32.668892	258.3	42.0	-93.0	20.9
2025-01-27 20:19:33.816233	258.8	42.1	-93.1	21.0
2025-01-27 20:19:34.963337	259.4	42.1	-92.8	14.2
2025-01-27 20:19:36.110648	259.9	42.1	-92.3	20.9
2025-01-27 20:19:37.259601	260.5	42.1	-92.4	22.4
2025-01-27 20:19:38.407009	261.0	42.1	-92.5	14.0
2025-01-27 20:19:39.556035	261.6	42.1	-92.8	13.7
2025-01-27 20:19:40.700641	262.2	42.1	-92.7	12.1
2025-01-27 20:19:41.848474	262.7	42.1	-93.0	5.1
2025-01-27 20:19:43.004077	263.3	42.1	-93.0	8.3
2025-01-27 20:19:44.155773	263.8	42.1	-92.2	12.6
2025-01-27 20:19:45.298970	264.4	42.1	-92.6	10.2
2025-01-27 20:19:46.447657	264.9	42.1	-93.2	8.5
2025-01-27 20:19:47.594332	265.5	42.1	-92.8	10.1
2025-01-27 20:19:48.738861	266.1	42.0	-92.8	14.6
2025-01-27 20:19:49.886406	266.6	42.0	-92.6	14.7
2025-01-27 20:19:51.033231	267.2	42.0	-92.7	9.0
2025-01-27 20:19:52.180537	267.7	42.0	-92.2	12.7
2025-01-27 20:19:53.329139	268.3	41.9	-92.4	10.5
2025-01-27 20:19:54.476260	268.8	41.9	-92.7	18.3
2025-01-27 20:19:55.624488	269.4	41.9	-92.7	18.1
2025-01-27 20:19:56.770494	269.9	41.8	-92.9	8.7
2025-01-27 20:19:57.915331	270.5	41.8	-93.1	14.8
2025-01-27 20:19:59.059812	271.0	41.7	-92.7	19.0
2025-01-27 20:20:00.200895	271.5	41.7	-92.8	18.5
2025-01-27 20:20:01.345759	272.1	41.6	-92.7	15.7
2025-01-27 20:20:02.494592	272.6	41.6	-92.8	21.1
2025-01-27 20:20:03.644633	273.2	41.5	-93.0	24.1
2025-01-27 20:20:04.795729	273.7	41.5	-92.8	18.6
2025-01-27 20:20:05.945743	274.2	41.4	-92.6	14.8
2025-01-27 20:20:07.095121	274.8	41.4	-92.6	19.1
2025-01-27 20:20:08.240387	275.3	41.3	-92.9	20.5
2025-01-27 20:20:09.383835	275.8	41.2	-92.4	9.2
2025-01-27 20:20:10.531657	276.4	41.1	-92.7	19.1
2025-01-27 20:20:11.678668	276.9	41.1	-92.9	9.6
2025-01-27 20:20:12.840144	277.4	41.0	-93.0	16.2
2025-01-27 20:20:13.985365	277.9	40.9	-92.8	15.0
2025-01-27 20:20:15.133072	278.4	40.8	-92.5	18.8
2025-01-27 20:20:16.285855	279.0	40.8	-92.6	17.1
2025-01-27 20:20:17.430813	279.5	40.7	-92.6	15.1
2025-01-27 20:20:18.579505	280.0	40.6	-91.4	16.7
2025-01-27 20:20:19.726168	280.5	40.5	-91.4	17.6
2025-01-27 20:20:20.875136	281.0	40.4	-91.4	15.3
2025-01-27 20:20:22.020437	281.5	40.3	-92.8	12.8
2025-01-27 20:20:23.171210	282.0	40.2	-92.0	16.7
2025-01-27 20:20:24.320204	282.5	40.1	-92.6	20.9
2025-01-27 20:20:25.465010	283.0	40.0	-92.8	14.6
2025-01-27 20:20:26.616408	283.5	39.9	-92.7	18.9
2025-01-27 20:20:27.761102	284.0	39.8	-92.7	20.0
2025-01-27 20:20:28.898965	284.4	39.7	-92.5	15.1
2025-01-27 20:20:30.050110	284.9	39.6	-92.5	17.2
2025-01-27 20:20:31.200151	285.4	39.5	-92.3	22.5
2025-01-27 20:20:32.346116	285.9	39.4	-92.6	20.4
2025-01-27 20:20:33.495888	286.3	39.2	-92.7	14.8
2025-01-27 20:20:34.650345	286.8	39.1	-92.6	27.5
2025-01-27 20:20:35.791258	287.3	39.0	-93.0	12.0
2025-01-27 20:20:36.934630	287.7	38.9	-92.6	17.9
2025-01-27 20:20:38.060423	288.2	38.8	-92.3	14.7
2025-01-27 20:20:39.181806	288.6	38.7	-92.6	14.7
2025-01-27 20:20:40.303207	289.0	38.5	-92.3	24.1
2025-01-27 20:20:41.424380	289.5	38.4	-92.8	25.5
2025-01-27 20:20:42.544651	289.9	38.3	-92.6	20.0
2025-01-27 20:20:43.665354	290.3	38.2	-92.6	17.3
2025-01-27 20:20:44.787830	290.8	38.0	-92.9	14.2
2025-01-27 20:20:45.908448	291.2	37.9	-92.7	15.0
2025-01-27 20:20:47.033466	291.6	37.8	-93.1	17.8
2025-01-27 20:20:48.167998	292.0	37.6	-92.7	13.5
2025-01-27 20:20:49.313490	292.5	37.5	-92.8	17.7
2025-01-27 20:20:50.455990	292.9	37.4	-92.9	15.3
2025-01-27 20:20:51.601999	293.3	37.2	-92.9	21.4
2025-01-27 20:20:52.742198	293.7	37.1	-93.0	15.6
2025-01-27 20:20:53.892755	294.1	37.0	-93.1	5.7
2025-01-27 20:20:55.048067	294.5	36.8	-93.0	17.1
2025-01-27 20:20:56.191128	294.9	36.7	-93.1	24.1
2025-01-27 20:20:57.341157	295.3	36.5	-92.7	22.3
2025-01-27 20:20:58.490279	295.7	36.4	-93.1	13.1
2025-01-27 20:20:59.634726	296.1	36.3	-92.9	15.0
2025-01-27 20:21:00.779791	296.5	36.1	-93.0	18.7
2025-01-27 20:21:01.923391	296.9	36.0	-93.2	14.9
2025-01-27 20:21:03.068845	297.3	35.8	-93.3	12.1
2025-01-27 20:21:04.217830	297.6	35.7	-92.9	18.0
2025-01-27 20:21:05.365143	298.0	35.5	-92.7	12.5
2025-01-27 20:21:06.515265	298.4	35.4	-93.3	9.2
2025-01-27 20:21:07.660851	298.8	35.2	-92.6	12.1
2025-01-27 20:21:08.807821	299.1	35.1	-92.7	12.0
2025-01-27 20:21:09.955539	299.5	34.9	-93.0	7.2
2025-01-27 20:21:11.103460	299.9	34.8	-92.6	8.2
2025-01-27 20:21:12.254079	300.2	34.6	-92.8	4.6
2025-01-27 20:21:13.402036	300.6	34.5	-93.0	4.7
2025-01-27 20:21:14.550694	300.9	34.3	-92.8	4.8
2025-01-27 20:21:15.698923	301.3	34.2	-92.8	5.6
2025-01-27 20:21:16.851224	301.6	34.0	-91.0	8.3
2025-01-27 20:21:17.997454	301.9	33.9	-92.8	7.9
2025-01-27 20:21:19.141926	302.3	33.7	-92.7	8.0
2025-01-27 20:21:20.290825	302.6	33.6	-92.5	8.7
2025-01-27 20:21:21.435427	302.9	33.4	-92.9	9.9
2025-01-27 20:21:22.582608	303.3	33.3	-91.8	9.3
2025-01-27 20:21:23.728204	303.6	33.1	-91.4	11.2
2025-01-27 20:21:24.874350	303.9	32.9	-91.4	8.5
2025-01-27 20:21:26.026504	304.2	32.8	-91.8	13.0
2025-01-27 20:21:27.171442	304.6	32.6	-92.6	16.6
2025-01-27 20:21:28.316412	304.9	32.5	-92.6	5.2
2025-01-27 20:21:29.464736	305.2	32.3	-93.0	8.6
2025-01-27 20:21:30.609046	305.5	32.2	-93.0	10.5
2025-01-27 20:21:31.758277	305.8	32.0	-92.2	13.1
2025-01-27 20:21:32.902568	306.1	31.9	-92.4	11.4
2025-01-27 20:21:34.056211	306.4	31.7	-92.5	14.0
2025-01-27 20:21:35.202334	306.7	31.6	-92.5	9.5
2025-01-27 20:21:36.348604	307.0	31.4	-92.5	7.0
2025-01-27 20:21:37.496422	307.3	31.2	-93.1	10.2
2025-01-27 20:21:38.645259	307.6	31.1	-92.8	14.7
2025-01-27 20:21:39.792102	307.8	30.9	-92.6	17.2
2025-01-27 20:21:40.937590	308.1	30.8	-93.0	9.3
2025-01-27 20:21:42.088450	308.4	30.6	-92.5	10.4
2025-01-27 20:21:43.235367	308.7	30.5	-92.5	22.9
2025-01-27 20:21:44.385091	309.0	30.3	-93.0	10.3
2025-01-27 20:21:45.538077	309.2	30.2	-92.9	9.0
2025-01-27 20:21:46.680759	309.5	30.0	-92.8	15.6
2025-01-27 20:21:47.826407	309.8	29.9	-92.9	19.5
2025-01-27 20:21:48.974439	310.0	29.7	-92.5	12.6
2025-01-27 20:21:50.119902	310.3	29.5	-92.4	14.0
2025-01-27 20:21:51.267402	310.5	29.4	-93.0	14.8
2025-01-27 20:21:52.396793	310.8	29.2	-92.9	9.8
2025-01-27 20:21:53.517928	311.1	29.1	-92.8	18.2
2025-01-27 20:21:54.638442	311.3	28.9	-93.1	9.8
2025-01-27 20:21:55.759261	311.5	28.8	-92.8	12.7
2025-01-27 20:21:56.880191	311.8	28.6	-92.8	18.6
2025-01-27 20:21:58.002035	312.0	28.5	-92.7	17.2
2025-01-27 20:21:59.124362	312.3	28.3	-92.4	12.8
2025-01-27 20:22:00.244190	312.5	28.2	-92.5	15.8
2025-01-27 20:22:01.368999	312.7	28.0	-92.2	9.2
2025-01-27 20:22:02.490100	313.0	27.9	-92.8	11.9
2025-01-27 20:22:03.637757	313.2	27.7	-93.2	13.9
2025-01-27 20:22:04.784574	313.4	27.6	-93.0	17.2
2025-01-27 20:22:05.931798	313.7	27.4	-92.8	7.5
2025-01-27 20:22:07.073355	313.9	27.3	-92.6	7.9
2025-01-27 20:22:08.214187	314.1	27.1	-92.5	9.5
2025-01-27 20:22:09.367900	314.3	27.0	-92.2	11.0
2025-01-27 20:22:10.513153	314.6	26.9	-92.9	7.7
2025-01-27 20:22:11.658097	314.8	26.7	-92.9	17.5
2025-01-27 20:22:12.804278	315.0	26.6	-92.7	10.4
2025-01-27 20:22:13.951133	315.2	26.4	-92.9	11.1
2025-01-27 20:22:15.099890	315.4	26.3	-92.6	13.1
2025-01-27 20:22:16.247023	315.6	26.1	-92.4	13.9
2025-01-27 20:22:17.392099	315.9	26.0	-92.5	16.3
2025-01-27 20:22:18.537745	316.1	25.8	-93.1	5.4
2025-01-27 20:22:19.685056	316.3	25.7	-92.7	9.1
2025-01-27 20:22:20.829950	316.5	25.5	-93.0	12.6
2025-01-27 20:22:21.980275	316.7	25.4	-93.3	14.6
2025-01-27 20:22:23.129018	316.9	25.2	-92.5	5.0
2025-01-27 20:22:24.271168	317.1	25.1	-92.4	16.9
2025-01-27 20:22:25.417161	317.3	25.0	-93.0	8.4
2025-01-27 20:22:26.562516	317.5	24.8	-91.4	8.1
2025-01-27 20:22:27.709445	317.7	24.7	-91.5	13.4
2025-01-27 20:22:28.858346	317.9	24.5	-91.8	10.5
2025-01-27 20:22:30.008580	318.1	24.4	-91.8	3.1
2025-01-27 20:22:31.155684	318.2	24.2	-92.5	10.8
2025-01-27 20:22:32.302869	318.4	24.1	-92.6	11.3
2025-01-27 20:22:33.451406	318.6	24.0	-93.1	12.4
2025-01-27 20:22:34.600765	318.8	23.8	-92.6	5.3
2025-01-27 20:22:35.748865	319.0	23.7	-93.0	9.5
2025-01-27 20:22:36.899181	319.2	23.5	-93.0	10.5
2025-01-27 20:22:38.043682	319.4	23.4	-92.8	3.3
2025-01-27 20:22:39.187906	319.5	23.3	-92.8	9.2
2025-01-27 20:22:40.335770	319.7	23.1	-93.0	2.5
2025-01-27 20:22:41.481020	319.9	23.0	-92.9	5.4
2025-01-27 20:22:42.624642	320.1	22.8	-93.2	8.4
2025-01-27 20:22:43.771464	320.2	22.7	-93.3	5.1
2025-01-27 20:22:44.919307	320.4	22.6	-92.7	5.9
2025-01-27 20:22:46.067366	320.6	22.4	-92.8	6.4
2025-01-27 20:22:47.211777	320.7	22.3	-92.9	10.5
2025-01-27 20:22:48.365685	320.9	22.2	-92.5	7.0
2025-01-27 20:22:49.513691	321.1	22.0	-93.1	7.1
2025-01-27 20:22:50.655170	321.2	21.9	-93.3	10.3
2025-01-27 20:22:51.799738	321.4	21.8	-93.1	11.0
2025-01-27 20:22:52.944736	321.6	21.6	-92.9	8.4
2025-01-27 20:22:54.088800	321.7	21.5	-93.0	11.3
2025-01-27 20:22:55.235100	321.9	21.4	-92.8	11.0
2025-01-27 20:22:56.380895	322.0	21.2	-93.0	7.5
2025-01-27 20:22:57.527405	322.2	21.1	-93.3	11.4
2025-01-27 20:22:58.670298	322.4	21.0	-93.1	9.2
2025-01-27 20:22:59.816989	322.5	20.9	-93.3	7.7
2025-01-27 20:23:00.958955	322.7	20.7	-93.1	3.8
2025-01-27 20:23:02.108593	322.8	20.6	-92.9	4.7
2025-01-27 20:23:03.259148	323.0	20.5	-93.1	5.1
2025-01-27 20:23:04.408901	323.1	20.3	-93.3	4.1
2025-01-27 20:23:05.553855	323.3	20.2	-93.3	4.3
2025-01-27 20:23:06.700456	323.4	20.1	-92.8	5.5
2025-01-27 20:23:07.844605	323.5	20.0	-93.1	5.5
2025-01-27 20:23:08.995448	323.7	19.8	-93.2	4.3
2025-01-27 20:23:10.138758	323.8	19.7	-91.9	6.1
2025-01-27 20:23:11.285597	324.0	19.6	-90.7	4.6
2025-01-27 20:23:12.432671	324.1	19.5	-92.4	5.7
2025-01-27 20:23:13.579669	324.3	19.3	-93.0	5.2
2025-01-27 20:23:14.731759	324.4	19.2	-93.0	5.7
2025-01-27 20:23:15.876726	324.5	19.1	-93.0	6.3
2025-01-27 20:23:17.019098	324.7	19.0	-92.7	3.9
2025-01-27 20:23:18.165571	324.8	18.8	-92.6	4.7
2025-01-27 20:23:19.305931	324.9	18.7	-92.1	4.5
2025-01-27 20:23:20.450751	325.1	18.6	-93.0	5.3
2025-01-27 20:23:21.598069	325.2	18.5	-92.7	5.6
2025-01-27 20:23:22.744209	325.3	18.4	-92.2	5.6
2025-01-27 20:23:23.895765	325.5	18.2	-92.7	5.4
2025-01-27 20:23:25.039876	325.6	18.1	-93.2	4.9
2025-01-27 20:23:26.184934	325.7	18.0	-92.6	3.2
2025-01-27 20:23:27.332211	325.9	17.9	-92.5	3.5
2025-01-27 20:23:28.474967	326.0	17.8	-92.8	4.9
2025-01-27 20:23:29.629433	326.1	17.6	-92.7	5.6
2025-01-27 20:23:30.774564	326.2	17.5	-92.8	5.7
2025-01-27 20:23:31.922009	326.4	17.4	-93.3	3.8
2025-01-27 20:23:33.068552	326.5	17.3	-92.7	4.9
2025-01-27 20:23:34.216492	326.6	17.2	-92.5	8.1
2025-01-27 20:23:35.368355	326.7	17.0	-92.6	6.3
2025-01-27 20:23:36.511070	326.8	16.9	-93.1	4.4
2025-01-27 20:23:37.659040	327.0	16.8	-92.7	9.8
2025-01-27 20:23:38.806301	327.1	16.7	-92.9	7.8
2025-01-27 20:23:39.953629	327.2	16.6	-93.1	5.7
2025-01-27 20:23:41.101589	327.3	16.5	-92.4	10.6
2025-01-27 20:23:42.249313	327.4	16.4	-92.5	6.8
2025-01-27 20:23:43.401000	327.6	16.2	-92.6	3.3
2025-01-27 20:23:44.545549	327.7	16.1	-92.6	8.4
2025-01-27 20:23:45.695446	327.8	16.0	-92.8	5.5
2025-01-27 20:23:46.840683	327.9	15.9	-93.1	5.4
2025-01-27 20:23:47.985861	328.0	15.8	-93.1	6.5
2025-01-27 20:23:49.135579	328.1	15.7	-92.6	4.0
2025-01-27 20:23:50.280430	328.2	15.6	-93.2	6.9
2025-01-27 20:23:51.430250	328.3	15.5	-93.0	5.5
2025-01-27 20:23:52.582298	328.4	15.4	-92.8	5.7
2025-01-27 20:23:53.727255	328.6	15.2	-93.0	8.9
2025-01-27 20:23:54.873575	328.7	15.1	-93.4	8.2
2025-01-27 20:23:56.018379	328.8	15.0	-93.3	5.8
2025-01-27 20:23:57.180996	328.9	14.9	-93.0	8.0
2025-01-27 20:23:58.328251	329.0	14.8	-92.6	4.9
2025-01-27 20:23:59.476018	329.1	14.7	-93.0	8.7
2025-01-27 20:24:00.614258	329.2	14.6	-92.8	8.6
#Closed at: 2025-01-27 20:15:30.424785