passes_logs/2025/01/27/LEX_Murmansk/LEX_Murmansk__20250127_195428_NOAA_19_rec.log

#Pass ID: 20250127_195428_NOAA 19
#Satellite: NOAA 19
#Configuration: NOAA 19
#Start time: 2025-01-27 19:54:23.409095

#LorettStation: 1.0.0 05.05.2024
#Station: LEX_Murmansk
#Location: 33.156738 lon 68.926811 lat
#TLE: 1 33591U 09005A   25027.18125374  .00000353  00000+0  21226-3 0  9998
#TLE: 2 33591  99.0174  91.0366 0013998  24.4913 335.6921 14.13269986823260

#Time	Az	El	Level	SNR
2025-01-27 19:54:35.701108	226.7	15.9	-92.5	7.4
2025-01-27 19:54:36.860867	226.9	16.0	-92.4	3.5
2025-01-27 19:54:38.028490	227.1	16.1	-92.4	3.4
2025-01-27 19:54:39.189494	227.3	16.2	-92.3	4.4
2025-01-27 19:54:40.357873	227.4	16.3	-92.6	3.5
2025-01-27 19:54:41.517690	227.6	16.4	-92.4	7.4
2025-01-27 19:54:42.668707	227.8	16.5	-92.6	11.0
2025-01-27 19:54:43.841999	228.0	16.6	-92.2	11.2
2025-01-27 19:54:45.011568	228.2	16.6	-92.2	7.3
2025-01-27 19:54:46.175119	228.4	16.7	-92.5	5.0
2025-01-27 19:54:47.344261	228.6	16.8	-92.5	4.1
2025-01-27 19:54:48.509557	228.8	16.9	-92.5	2.6
2025-01-27 19:54:49.664998	229.0	17.0	-92.4	1.0
2025-01-27 19:54:50.829964	229.2	17.1	-92.7	2.2
2025-01-27 19:54:52.000528	229.4	17.2	-92.3	5.5
2025-01-27 19:54:53.158883	229.6	17.3	-92.4	5.3
2025-01-27 19:54:54.324875	229.8	17.4	-92.2	8.0
2025-01-27 19:54:55.492166	230.0	17.5	-92.5	7.1
2025-01-27 19:54:56.658201	230.2	17.5	-92.4	4.0
2025-01-27 19:54:57.823551	230.4	17.6	-92.7	8.5
2025-01-27 19:54:58.989073	230.6	17.7	-92.5	6.6
2025-01-27 19:55:00.148869	230.8	17.8	-92.4	5.3
2025-01-27 19:55:01.310606	231.0	17.9	-92.1	5.1
2025-01-27 19:55:02.469507	231.2	18.0	-92.5	10.0
2025-01-27 19:55:03.633189	231.4	18.1	-92.5	13.8
2025-01-27 19:55:04.790504	231.6	18.2	-92.5	12.3
2025-01-27 19:55:05.950425	231.8	18.3	-92.6	12.3
2025-01-27 19:55:07.108696	232.0	18.3	-92.2	10.1
2025-01-27 19:55:08.268844	232.2	18.4	-92.6	4.0
2025-01-27 19:55:09.431440	232.4	18.5	-92.6	4.3
2025-01-27 19:55:10.605436	232.7	18.6	-93.0	7.8
2025-01-27 19:55:11.771200	232.9	18.7	-92.9	1.4
2025-01-27 19:55:12.936171	233.1	18.8	-92.8	5.8
2025-01-27 19:55:14.102119	233.3	18.9	-92.9	4.9
2025-01-27 19:55:15.267563	233.5	19.0	-92.7	6.0
2025-01-27 19:55:16.431544	233.8	19.1	-92.9	8.0
2025-01-27 19:55:17.593527	234.0	19.1	-93.1	11.7
2025-01-27 19:55:18.756288	234.2	19.2	-93.0	8.3
2025-01-27 19:55:19.918694	234.4	19.3	-92.8	8.2
2025-01-27 19:55:21.092955	234.7	19.4	-92.9	5.7
2025-01-27 19:55:22.251080	234.9	19.5	-92.6	4.5
2025-01-27 19:55:23.415398	235.1	19.6	-92.6	4.0
2025-01-27 19:55:24.569361	235.3	19.7	-92.9	7.9
2025-01-27 19:55:25.729787	235.6	19.8	-92.9	7.1
2025-01-27 19:55:26.898557	235.8	19.8	-92.8	9.3
2025-01-27 19:55:28.063521	236.0	19.9	-92.9	10.8
2025-01-27 19:55:29.227750	236.3	20.0	-92.9	7.0
2025-01-27 19:55:30.396213	236.5	20.1	-93.0	4.0
2025-01-27 19:55:31.563712	236.7	20.2	-93.0	5.1
2025-01-27 19:55:32.727076	237.0	20.3	-92.7	3.0
2025-01-27 19:55:33.888063	237.2	20.4	-92.7	4.0
2025-01-27 19:55:35.056165	237.5	20.4	-92.5	3.1
2025-01-27 19:55:36.217287	237.7	20.5	-92.4	1.8
2025-01-27 19:55:37.378348	238.0	20.6	-93.0	3.5
2025-01-27 19:55:38.542424	238.2	20.7	-92.9	5.3
2025-01-27 19:55:39.708000	238.4	20.8	-93.2	6.5
2025-01-27 19:55:40.875312	238.7	20.9	-92.7	10.7
2025-01-27 19:55:42.035392	238.9	21.0	-91.8	10.8
2025-01-27 19:55:43.199441	239.2	21.0	-92.0	8.7
2025-01-27 19:55:44.377246	239.5	21.1	-92.2	8.1
2025-01-27 19:55:45.542415	239.7	21.2	-92.2	4.8
2025-01-27 19:55:46.711460	240.0	21.3	-92.7	2.5
2025-01-27 19:55:47.871951	240.2	21.4	-92.7	6.0
2025-01-27 19:55:49.041880	240.5	21.5	-92.5	6.5
2025-01-27 19:55:50.204191	240.7	21.5	-92.7	10.3
2025-01-27 19:55:51.362113	241.0	21.6	-93.0	9.2
2025-01-27 19:55:52.532573	241.3	21.7	-92.9	10.6
2025-01-27 19:55:53.688830	241.5	21.8	-93.0	11.6
2025-01-27 19:55:54.850403	241.8	21.9	-92.8	10.2
2025-01-27 19:55:56.012200	242.0	21.9	-92.8	6.8
2025-01-27 19:55:57.178807	242.3	22.0	-92.5	5.3
2025-01-27 19:55:58.343600	242.6	22.1	-92.5	2.1
2025-01-27 19:55:59.503920	242.8	22.2	-92.4	4.7
2025-01-27 19:56:00.658047	243.1	22.3	-92.8	3.6
2025-01-27 19:56:01.823631	243.4	22.3	-92.8	2.5
2025-01-27 19:56:02.984581	243.7	22.4	-92.6	2.9
2025-01-27 19:56:04.145239	243.9	22.5	-92.7	0.1
2025-01-27 19:56:05.305499	244.2	22.6	-92.6	5.0
2025-01-27 19:56:06.468170	244.5	22.7	-93.0	6.0
2025-01-27 19:56:07.636897	244.8	22.7	-93.3	5.2
2025-01-27 19:56:08.793833	245.0	22.8	-93.2	5.3
2025-01-27 19:56:09.962178	245.3	22.9	-93.2	2.1
2025-01-27 19:56:11.120151	245.6	23.0	-93.2	1.9
2025-01-27 19:56:12.285555	245.9	23.0	-92.7	2.0
2025-01-27 19:56:13.440170	246.2	23.1	-93.1	4.7
2025-01-27 19:56:14.597211	246.5	23.2	-93.0	3.9
2025-01-27 19:56:15.762571	246.8	23.3	-92.9	1.6
2025-01-27 19:56:16.926445	247.0	23.3	-92.9	4.4
2025-01-27 19:56:18.087293	247.3	23.4	-92.8	3.7
2025-01-27 19:56:19.256051	247.6	23.5	-92.9	3.5
2025-01-27 19:56:20.418222	247.9	23.5	-92.9	4.0
2025-01-27 19:56:21.581336	248.2	23.6	-92.9	8.8
2025-01-27 19:56:22.747518	248.5	23.7	-93.1	4.9
2025-01-27 19:56:23.901821	248.8	23.8	-93.2	7.1
2025-01-27 19:56:25.064962	249.1	23.8	-92.9	5.8
2025-01-27 19:56:26.225320	249.4	23.9	-93.0	3.2
2025-01-27 19:56:27.390584	249.7	24.0	-92.9	2.6
2025-01-27 19:56:28.555272	250.0	24.0	-92.8	2.4
2025-01-27 19:56:29.711576	250.3	24.1	-92.9	0.8
2025-01-27 19:56:30.876669	250.6	24.2	-93.2	2.4
2025-01-27 19:56:32.038982	250.9	24.2	-92.9	2.3
2025-01-27 19:56:33.205939	251.2	24.3	-93.0	2.3
2025-01-27 19:56:34.359537	251.5	24.3	-93.0	0.7
2025-01-27 19:56:35.523394	251.8	24.4	-92.8	6.9
2025-01-27 19:56:36.688927	252.1	24.5	-92.9	7.2
2025-01-27 19:56:37.857617	252.5	24.5	-93.0	13.2
2025-01-27 19:56:39.021093	252.8	24.6	-93.1	9.8
2025-01-27 19:56:40.189909	253.1	24.6	-93.0	7.9
2025-01-27 19:56:41.347824	253.4	24.7	-92.7	13.0
2025-01-27 19:56:42.512521	253.7	24.8	-92.7	5.8
2025-01-27 19:56:43.666450	254.0	24.8	-92.9	6.6
2025-01-27 19:56:44.828391	254.3	24.9	-93.0	6.0
2025-01-27 19:56:45.995759	254.7	24.9	-92.8	5.9
2025-01-27 19:56:47.158859	255.0	25.0	-91.7	5.4
2025-01-27 19:56:48.326205	255.3	25.0	-91.8	3.9
2025-01-27 19:56:49.487419	255.6	25.1	-92.0	5.9
2025-01-27 19:56:50.651855	256.0	25.1	-93.1	8.9
2025-01-27 19:56:51.807766	256.3	25.2	-92.9	8.3
2025-01-27 19:56:52.975619	256.6	25.3	-93.0	10.2
2025-01-27 19:56:54.133354	256.9	25.3	-92.8	4.2
2025-01-27 19:56:55.302662	257.3	25.3	-92.6	7.0
2025-01-27 19:56:56.468273	257.6	25.4	-92.7	6.2
2025-01-27 19:56:57.628744	257.9	25.4	-92.4	8.0
2025-01-27 19:56:58.795714	258.2	25.5	-92.5	5.2
2025-01-27 19:56:59.959771	258.6	25.5	-92.6	5.8
2025-01-27 19:57:01.117154	258.9	25.6	-92.8	5.2
2025-01-27 19:57:02.280999	259.2	25.6	-92.9	2.7
2025-01-27 19:57:03.446615	259.6	25.7	-92.8	7.5
2025-01-27 19:57:04.612412	259.9	25.7	-92.6	5.0
2025-01-27 19:57:05.777842	260.3	25.7	-92.3	5.6
2025-01-27 19:57:06.941678	260.6	25.8	-92.4	4.2
2025-01-27 19:57:08.100707	260.9	25.8	-92.3	3.5
2025-01-27 19:57:09.263566	261.3	25.9	-92.4	2.5
2025-01-27 19:57:10.423937	261.6	25.9	-92.6	3.6
2025-01-27 19:57:11.590619	261.9	25.9	-92.5	5.0
2025-01-27 19:57:12.751494	262.3	26.0	-92.9	8.4
2025-01-27 19:57:13.905954	262.6	26.0	-92.8	8.7
2025-01-27 19:57:15.070960	263.0	26.0	-92.6	9.0
2025-01-27 19:57:16.239771	263.3	26.1	-92.6	7.6
2025-01-27 19:57:17.399770	263.6	26.1	-92.7	19.0
2025-01-27 19:57:18.567061	264.0	26.1	-92.6	13.9
2025-01-27 19:57:19.733531	264.3	26.2	-92.6	11.3
2025-01-27 19:57:20.894916	264.7	26.2	-92.5	16.6
2025-01-27 19:57:22.053987	265.0	26.2	-92.6	13.7
2025-01-27 19:57:23.216588	265.4	26.2	-92.6	15.3
2025-01-27 19:57:24.379233	265.7	26.3	-92.9	8.3
2025-01-27 19:57:25.539858	266.1	26.3	-92.8	11.7
2025-01-27 19:57:26.703671	266.4	26.3	-92.8	6.0
2025-01-27 19:57:27.867032	266.8	26.3	-92.6	12.1
2025-01-27 19:57:29.024860	267.1	26.3	-92.9	12.2
2025-01-27 19:57:30.189998	267.5	26.4	-92.4	4.2
2025-01-27 19:57:31.353723	267.8	26.4	-92.4	8.1
2025-01-27 19:57:32.517928	268.2	26.4	-92.6	8.6
2025-01-27 19:57:33.673415	268.5	26.4	-92.9	4.0
2025-01-27 19:57:34.833175	268.8	26.4	-92.6	9.5
2025-01-27 19:57:36.006799	269.2	26.4	-92.7	12.1
2025-01-27 19:57:37.172907	269.6	26.5	-92.5	10.6
2025-01-27 19:57:38.339499	269.9	26.5	-92.5	6.9
2025-01-27 19:57:39.502676	270.3	26.5	-92.6	9.9
2025-01-27 19:57:40.663593	270.6	26.5	-92.3	13.6
2025-01-27 19:57:41.824320	271.0	26.5	-92.6	9.1
2025-01-27 19:57:42.989172	271.3	26.5	-92.5	10.6
2025-01-27 19:57:44.156727	271.7	26.5	-92.2	14.5
2025-01-27 19:57:45.322408	272.0	26.5	-92.7	8.2
2025-01-27 19:57:46.487408	272.4	26.5	-92.8	19.5
2025-01-27 19:57:47.647621	272.7	26.5	-92.7	11.9
2025-01-27 19:57:48.811182	273.1	26.5	-92.8	18.9
2025-01-27 19:57:49.975692	273.4	26.5	-92.7	15.1
2025-01-27 19:57:51.144470	273.8	26.5	-92.5	13.6
2025-01-27 19:57:52.300498	274.1	26.5	-92.5	7.6
2025-01-27 19:57:53.466962	274.5	26.5	-92.5	12.7
2025-01-27 19:57:54.624877	274.8	26.5	-92.5	8.4
2025-01-27 19:57:55.788371	275.2	26.5	-92.6	7.1
2025-01-27 19:57:56.952647	275.5	26.5	-93.0	5.8
2025-01-27 19:57:58.117535	275.9	26.5	-92.5	6.5
2025-01-27 19:57:59.274558	276.2	26.5	-92.6	7.1
2025-01-27 19:58:00.432725	276.6	26.5	-92.7	5.2
2025-01-27 19:58:01.596403	276.9	26.4	-92.8	7.0
2025-01-27 19:58:02.763515	277.3	26.4	-92.8	3.4
2025-01-27 19:58:03.920496	277.6	26.4	-93.0	1.7
2025-01-27 19:58:05.092121	278.0	26.4	-92.5	1.8
2025-01-27 19:58:06.261924	278.3	26.4	-92.5	3.6
2025-01-27 19:58:07.423594	278.7	26.4	-92.7	5.5
2025-01-27 19:58:08.590833	279.0	26.4	-93.1	3.4
2025-01-27 19:58:09.752166	279.4	26.3	-92.9	2.7
2025-01-27 19:58:10.917191	279.7	26.3	-92.7	1.1
2025-01-27 19:58:12.082793	280.1	26.3	-92.8	4.7
2025-01-27 19:58:13.252595	280.4	26.3	-92.3	1.9
2025-01-27 19:58:14.425218	280.8	26.2	-92.8	4.2
2025-01-27 19:58:15.588012	281.1	26.2	-93.0	1.9
2025-01-27 19:58:16.759120	281.5	26.2	-92.6	3.8
2025-01-27 19:58:17.920973	281.8	26.2	-92.6	4.2
2025-01-27 19:58:19.088853	282.1	26.1	-92.4	5.1
2025-01-27 19:58:20.255685	282.5	26.1	-92.9	2.2
2025-01-27 19:58:21.413414	282.8	26.1	-93.0	6.6
2025-01-27 19:58:22.577486	283.2	26.1	-93.1	3.2
2025-01-27 19:58:23.741647	283.5	26.0	-92.8	3.9
2025-01-27 19:58:24.897236	283.9	26.0	-92.9	2.8
2025-01-27 19:58:26.061364	284.2	26.0	-92.9	5.4
2025-01-27 19:58:27.229428	284.5	25.9	-92.7	1.5
2025-01-27 19:58:28.395433	284.9	25.9	-92.6	3.4
2025-01-27 19:58:29.560354	285.2	25.8	-92.5	3.6
2025-01-27 19:58:30.724988	285.5	25.8	-92.9	0.9
2025-01-27 19:58:31.885019	285.9	25.8	-93.3	4.4
2025-01-27 19:58:33.049959	286.2	25.7	-93.1	4.2
2025-01-27 19:58:34.208589	286.6	25.7	-92.9	3.8
2025-01-27 19:58:35.377156	286.9	25.6	-92.9	4.2
2025-01-27 19:58:36.540057	287.2	25.6	-92.7	3.6
2025-01-27 19:58:37.705839	287.6	25.6	-91.8	4.0
2025-01-27 19:58:38.871240	287.9	25.5	-92.1	3.3
2025-01-27 19:58:40.030582	288.2	25.5	-91.7	4.1
2025-01-27 19:58:41.194479	288.5	25.4	-91.6	3.5
2025-01-27 19:58:42.354375	288.9	25.4	-92.8	2.7
2025-01-27 19:58:43.510632	289.2	25.3	-93.0	2.3
2025-01-27 19:58:44.668167	289.5	25.3	-92.7	5.1
2025-01-27 19:58:45.847940	289.8	25.2	-93.1	4.8
2025-01-27 19:58:47.016106	290.2	25.2	-92.9	2.3
2025-01-27 19:58:48.174432	290.5	25.1	-93.1	2.4
2025-01-27 19:58:49.334320	290.8	25.1	-93.1	1.2
2025-01-27 19:58:50.504863	291.1	25.0	-93.1	5.6
2025-01-27 19:58:51.668546	291.5	25.0	-93.1	5.2
2025-01-27 19:58:52.833952	291.8	24.9	-93.1	2.3
2025-01-27 19:58:53.994495	292.1	24.9	-93.0	4.9
2025-01-27 19:58:55.150932	292.4	24.8	-93.1	4.3
2025-01-27 19:58:56.317370	292.7	24.7	-92.9	5.1
2025-01-27 19:58:57.477835	293.0	24.7	-93.1	3.3
2025-01-27 19:58:58.641599	293.3	24.6	-93.2	4.1
2025-01-27 19:58:59.810381	293.7	24.6	-93.0	4.2
2025-01-27 19:59:00.968121	294.0	24.5	-93.1	4.3
2025-01-27 19:59:02.130466	294.3	24.4	-92.8	3.4
2025-01-27 19:59:03.290506	294.6	24.4	-92.9	3.1
2025-01-27 19:59:04.454765	294.9	24.3	-93.0	4.3
2025-01-27 19:59:05.616111	295.2	24.3	-92.9	4.4
2025-01-27 19:59:06.774585	295.5	24.2	-93.1	1.5
2025-01-27 19:59:07.936010	295.8	24.1	-92.6	9.0
2025-01-27 19:59:09.110009	296.1	24.1	-93.3	5.7
2025-01-27 19:59:10.276351	296.4	24.0	-92.9	2.6
2025-01-27 19:59:11.438479	296.7	23.9	-93.0	5.0
2025-01-27 19:59:12.597825	297.0	23.9	-92.8	2.1
2025-01-27 19:59:13.766840	297.3	23.8	-92.7	2.3
2025-01-27 19:59:14.930827	297.6	23.7	-92.7	6.5
2025-01-27 19:59:16.091175	297.9	23.7	-92.9	5.4
2025-01-27 19:59:17.256699	298.2	23.6	-93.1	3.1
2025-01-27 19:59:18.416548	298.5	23.5	-92.9	4.9
2025-01-27 19:59:19.585805	298.8	23.4	-92.8	6.6
2025-01-27 19:59:20.751863	299.1	23.4	-92.8	2.7
2025-01-27 19:59:21.910558	299.3	23.3	-93.1	2.4
2025-01-27 19:59:23.079547	299.6	23.2	-93.1	3.4
2025-01-27 19:59:24.242063	299.9	23.2	-93.1	2.8
2025-01-27 19:59:25.403922	300.2	23.1	-93.1	1.4
2025-01-27 19:59:26.566924	300.5	23.0	-93.1	4.1
2025-01-27 19:59:27.730300	300.8	22.9	-92.9	2.8
2025-01-27 19:59:28.883991	301.0	22.9	-93.2	2.1
2025-01-27 19:59:30.048611	301.3	22.8	-92.9	4.1
2025-01-27 19:59:31.210629	301.6	22.7	-92.9	1.5
2025-01-27 19:59:32.368010	301.9	22.6	-93.0	1.2
2025-01-27 19:59:33.532672	302.2	22.6	-92.9	3.6
2025-01-27 19:59:34.695596	302.4	22.5	-93.1	4.3
2025-01-27 19:59:35.862358	302.7	22.4	-92.7	2.6
2025-01-27 19:59:37.026845	303.0	22.3	-92.6	3.2
2025-01-27 19:59:38.190629	303.2	22.2	-93.0	3.5
2025-01-27 19:59:39.354713	303.5	22.2	-93.1	4.7
2025-01-27 19:59:40.519370	303.8	22.1	-93.2	2.3
2025-01-27 19:59:41.687995	304.0	22.0	-92.8	5.3
2025-01-27 19:59:42.851127	304.3	21.9	-92.0	11.0
2025-01-27 19:59:44.016963	304.6	21.8	-92.0	5.3
2025-01-27 19:59:45.175058	304.8	21.8	-92.1	11.3
2025-01-27 19:59:46.345083	305.1	21.7	-93.1	4.0
2025-01-27 19:59:47.505914	305.4	21.6	-93.3	3.1
2025-01-27 19:59:48.669758	305.6	21.5	-93.1	5.1
2025-01-27 19:59:49.832668	305.9	21.4	-93.2	2.1
2025-01-27 19:59:50.986022	306.1	21.4	-92.3	0.8
2025-01-27 19:59:52.257847	306.4	21.3	-93.1	2.5
2025-01-27 19:59:53.418735	306.6	21.2	-93.0	2.3
2025-01-27 19:59:54.577718	306.9	21.1	-92.8	1.5
2025-01-27 19:59:55.743661	307.1	21.0	-93.2	1.5
2025-01-27 19:59:56.908645	307.4	20.9	-93.0	1.9
2025-01-27 19:59:58.075038	307.6	20.9	-92.9	2.7
2025-01-27 19:59:59.228548	307.9	20.8	-93.0	1.0
2025-01-27 20:00:00.381398	308.1	20.7	-93.0	2.6
2025-01-27 20:00:01.545454	308.4	20.6	-92.6	1.6
2025-01-27 20:00:02.708708	308.6	20.5	-92.8	2.2
2025-01-27 20:00:03.876667	308.9	20.4	-92.7	1.1
2025-01-27 20:00:05.036030	309.1	20.3	-92.8	1.2
2025-01-27 20:00:06.203304	309.3	20.3	-92.6	0.9
2025-01-27 20:00:07.365497	309.6	20.2	-93.0	3.3
2025-01-27 20:00:08.527093	309.8	20.1	-93.3	0.4
2025-01-27 20:00:09.694468	310.0	20.0	-93.2	3.0
2025-01-27 20:00:10.857677	310.3	19.9	-93.1	4.2
2025-01-27 20:00:12.020530	310.5	19.8	-93.0	1.4
2025-01-27 20:00:13.184750	310.7	19.7	-93.0	2.1
2025-01-27 20:00:14.352454	311.0	19.7	-92.6	4.1
2025-01-27 20:00:15.505516	311.2	19.6	-92.7	3.8
2025-01-27 20:00:16.676212	311.4	19.5	-92.8	5.2
2025-01-27 20:00:17.834242	311.6	19.4	-92.8	8.8
2025-01-27 20:00:19.001802	311.9	19.3	-93.1	4.8
2025-01-27 20:00:20.166905	312.1	19.2	-92.9	4.5
2025-01-27 20:00:21.331167	312.3	19.1	-93.0	11.7
2025-01-27 20:00:22.499640	312.5	19.1	-93.1	4.1
2025-01-27 20:00:23.661902	312.8	19.0	-92.8	2.3
2025-01-27 20:00:24.826321	313.0	18.9	-93.1	5.8
2025-01-27 20:00:25.992114	313.2	18.8	-93.3	3.7
2025-01-27 20:00:27.160076	313.4	18.7	-93.0	0.7
2025-01-27 20:00:28.323699	313.6	18.6	-93.0	4.0
2025-01-27 20:00:29.486433	313.8	18.5	-93.1	4.3
2025-01-27 20:00:30.654081	314.0	18.4	-92.9	2.8
2025-01-27 20:00:31.816464	314.3	18.3	-92.9	1.9
2025-01-27 20:00:32.982164	314.5	18.3	-92.8	2.7
2025-01-27 20:00:34.142606	314.7	18.2	-92.6	0.7
2025-01-27 20:00:35.300453	314.9	18.1	-93.0	1.7
2025-01-27 20:00:36.467612	315.1	18.0	-92.9	5.1
2025-01-27 20:00:37.628406	315.3	17.9	-93.1	4.9
2025-01-27 20:00:38.794493	315.5	17.8	-92.9	6.2
2025-01-27 20:00:39.957186	315.7	17.7	-92.7	6.9
2025-01-27 20:00:41.124141	315.9	17.6	-93.0	4.9
2025-01-27 20:00:42.288425	316.1	17.6	-92.9	6.8
2025-01-27 20:00:43.449411	316.3	17.5	-92.8	8.9
2025-01-27 20:00:44.609944	316.5	17.4	-92.7	7.8
2025-01-27 20:00:45.765496	316.7	17.3	-92.9	3.9
2025-01-27 20:00:46.928051	316.9	17.2	-92.9	3.8
2025-01-27 20:00:48.093363	317.1	17.1	-93.0	10.5
2025-01-27 20:00:49.255731	317.3	17.0	-92.7	2.3
2025-01-27 20:00:50.415647	317.5	16.9	-93.0	2.9
2025-01-27 20:00:51.583913	317.7	16.8	-93.2	3.3
2025-01-27 20:00:52.743844	317.8	16.8	-93.2	3.3
2025-01-27 20:00:53.912122	318.0	16.7	-92.9	5.0
2025-01-27 20:00:55.066779	318.2	16.6	-92.9	2.5
2025-01-27 20:00:56.231119	318.4	16.5	-92.9	2.3
2025-01-27 20:00:57.393776	318.6	16.4	-93.1	3.4
2025-01-27 20:00:58.557722	318.8	16.3	-92.9	2.3
2025-01-27 20:00:59.720178	319.0	16.2	-92.9	3.8
2025-01-27 20:01:00.874453	319.1	16.1	-92.7	1.7
2025-01-27 20:01:02.039083	319.3	16.1	-92.8	4.5
2025-01-27 20:01:03.198843	319.5	16.0	-93.0	6.0
2025-01-27 20:01:04.362414	319.7	15.9	-93.3	1.9
2025-01-27 20:01:05.512150	319.9	15.8	-92.7	5.3
2025-01-27 20:01:06.679453	320.0	15.7	-92.9	5.8
2025-01-27 20:01:07.843421	320.2	15.6	-93.3	8.2
2025-01-27 20:01:09.020565	320.4	15.5	-92.9	1.9
2025-01-27 20:01:10.186675	320.6	15.4	-92.6	6.5
2025-01-27 20:01:11.364040	320.8	15.4	-93.0	6.7
2025-01-27 20:01:12.529541	320.9	15.3	-93.2	2.9
2025-01-27 20:01:13.695099	321.1	15.2	-92.9	2.9
2025-01-27 20:01:14.848775	321.3	15.1	-93.0	4.3
2025-01-27 20:01:16.012064	321.4	15.0	-93.0	4.1
2025-01-27 20:01:17.176166	321.6	14.9	-92.9	1.9
2025-01-27 20:01:18.340053	321.8	14.8	-92.6	4.1
2025-01-27 20:01:19.504355	321.9	14.7	-92.5	3.1
2025-01-27 20:01:20.668062	322.1	14.7	-93.1	3.1
#Closed at: 2025-01-27 19:54:28.476840