passes_logs/2025/01/27/LEX_Murmansk/LEX_Murmansk__20250127_113313_NOAA_19_rec.log

#Pass ID: 20250127_113313_NOAA 19
#Satellite: NOAA 19
#Configuration: NOAA 19
#Start time: 2025-01-27 11:33:08.395001

#LorettStation: 1.0.0 05.05.2024
#Station: LEX_Murmansk
#Location: 33.156738 lon 68.926811 lat
#TLE: 1 33591U 09005A   25026.11929750  .00000374  00000+0  22339-3 0  9999
#TLE: 2 33591  99.0177  89.9666 0014047  27.3849 332.8061 14.13269171823112

#Time	Az	El	Level	SNR
2025-01-27 11:33:22.543082	25.3	16.2	-91.2	3.1
2025-01-27 11:33:23.690727	25.1	16.3	-91.0	2.1
2025-01-27 11:33:24.837502	25.0	16.4	-90.9	2.6
2025-01-27 11:33:25.995071	24.8	16.5	-91.1	3.5
2025-01-27 11:33:27.141514	24.6	16.6	-90.5	2.3
2025-01-27 11:33:28.286764	24.5	16.7	-90.9	2.7
2025-01-27 11:33:29.432581	24.3	16.8	-91.1	2.8
2025-01-27 11:33:30.574580	24.2	16.9	-91.0	2.3
2025-01-27 11:33:31.725353	24.0	17.0	-91.0	1.6
2025-01-27 11:33:32.873360	23.8	17.1	-91.1	1.4
2025-01-27 11:33:34.021361	23.7	17.2	-91.1	2.9
2025-01-27 11:33:35.172748	23.5	17.3	-91.0	3.6
2025-01-27 11:33:36.322021	23.4	17.4	-91.0	8.0
2025-01-27 11:33:37.469246	23.2	17.6	-91.1	8.1
2025-01-27 11:33:38.617953	23.0	17.7	-91.4	5.3
2025-01-27 11:33:39.770696	22.9	17.8	-90.8	5.3
2025-01-27 11:33:40.923011	22.7	17.9	-90.7	5.7
2025-01-27 11:33:42.069134	22.5	18.0	-91.1	7.5
2025-01-27 11:33:43.213905	22.3	18.1	-90.7	5.6
2025-01-27 11:33:44.361468	22.2	18.2	-91.0	9.9
2025-01-27 11:33:45.512261	22.0	18.3	-90.7	8.2
2025-01-27 11:33:46.658259	21.8	18.4	-90.5	6.6
2025-01-27 11:33:47.809879	21.6	18.5	-90.6	3.1
2025-01-27 11:33:48.963357	21.5	18.6	-90.3	3.4
2025-01-27 11:33:50.113921	21.3	18.7	-90.8	2.1
2025-01-27 11:33:51.266771	21.1	18.8	-91.1	4.9
2025-01-27 11:33:52.410349	20.9	18.9	-91.3	1.9
2025-01-27 11:33:53.562635	20.7	19.0	-91.1	4.3
2025-01-27 11:33:54.693595	20.6	19.1	-91.1	3.4
2025-01-27 11:33:55.839540	20.4	19.2	-91.1	7.2
2025-01-27 11:33:56.994065	20.2	19.3	-91.1	9.2
2025-01-27 11:33:58.147596	20.0	19.4	-90.9	8.5
2025-01-27 11:33:59.299025	19.8	19.5	-91.4	6.4
2025-01-27 11:34:00.452727	19.6	19.6	-90.8	5.8
2025-01-27 11:34:01.603500	19.4	19.8	-91.2	4.5
2025-01-27 11:34:02.750618	19.2	19.9	-91.1	2.9
2025-01-27 11:34:03.898061	19.0	20.0	-91.3	4.0
2025-01-27 11:34:05.047427	18.8	20.1	-91.3	8.8
2025-01-27 11:34:06.196538	18.6	20.2	-91.0	10.0
2025-01-27 11:34:07.356152	18.4	20.3	-90.8	4.8
2025-01-27 11:34:08.502170	18.2	20.4	-91.3	3.8
2025-01-27 11:34:09.646804	18.0	20.5	-91.3	4.1
2025-01-27 11:34:10.790910	17.8	20.6	-91.1	3.6
2025-01-27 11:34:11.940333	17.6	20.7	-91.0	1.7
2025-01-27 11:34:13.091593	17.4	20.8	-91.2	5.6
2025-01-27 11:34:14.236941	17.2	20.9	-90.8	4.4
2025-01-27 11:34:15.383573	17.0	21.0	-91.0	5.6
2025-01-27 11:34:16.534695	16.8	21.1	-91.3	8.5
2025-01-27 11:34:17.689084	16.6	21.2	-91.0	1.5
2025-01-27 11:34:18.839508	16.4	21.4	-90.9	5.7
2025-01-27 11:34:19.987928	16.2	21.5	-90.9	7.8
2025-01-27 11:34:21.138331	16.0	21.6	-91.0	3.2
2025-01-27 11:34:22.291331	15.7	21.7	-91.2	5.5
2025-01-27 11:34:23.437929	15.5	21.8	-90.9	6.0
2025-01-27 11:34:24.586497	15.3	21.9	-91.2	4.9
2025-01-27 11:34:25.737400	15.1	22.0	-91.2	8.7
2025-01-27 11:34:26.881998	14.8	22.1	-91.4	5.4
2025-01-27 11:34:28.035052	14.6	22.2	-91.0	7.8
2025-01-27 11:34:29.181678	14.4	22.3	-91.1	4.2
2025-01-27 11:34:30.327465	14.2	22.4	-91.3	3.5
2025-01-27 11:34:31.478226	13.9	22.5	-90.9	2.0
2025-01-27 11:34:32.633658	13.7	22.6	-91.1	5.2
2025-01-27 11:34:33.777918	13.5	22.7	-91.2	0.4
2025-01-27 11:34:34.923303	13.2	22.9	-91.2	5.5
2025-01-27 11:34:36.075463	13.0	23.0	-91.2	7.9
2025-01-27 11:34:37.234291	12.8	23.1	-90.8	9.3
2025-01-27 11:34:38.385520	12.5	23.2	-90.9	10.9
2025-01-27 11:34:39.539989	12.3	23.3	-91.2	11.6
2025-01-27 11:34:40.687058	12.0	23.4	-91.1	9.5
2025-01-27 11:34:41.834229	11.8	23.5	-90.8	6.3
2025-01-27 11:34:42.985769	11.5	23.6	-91.1	8.3
2025-01-27 11:34:44.131383	11.3	23.7	-91.3	6.4
2025-01-27 11:34:45.273667	11.0	23.8	-90.9	6.5
2025-01-27 11:34:46.420825	10.8	23.9	-91.2	5.2
2025-01-27 11:34:47.567596	10.5	24.0	-91.3	9.5
2025-01-27 11:34:48.718612	10.3	24.1	-91.0	9.1
2025-01-27 11:34:49.857942	10.0	24.2	-90.5	6.7
2025-01-27 11:34:51.013935	9.8	24.3	-90.9	7.7
2025-01-27 11:34:52.161708	9.5	24.4	-90.5	4.0
2025-01-27 11:34:53.318477	9.3	24.5	-90.4	2.2
2025-01-27 11:34:54.469238	9.0	24.6	-91.0	3.7
2025-01-27 11:34:55.615140	8.7	24.7	-91.2	3.5
2025-01-27 11:34:56.763271	8.5	24.9	-91.3	2.2
2025-01-27 11:34:57.909092	8.2	25.0	-90.7	4.2
2025-01-27 11:34:59.072879	7.9	25.1	-90.6	7.8
2025-01-27 11:35:00.214311	7.6	25.2	-90.8	7.6
2025-01-27 11:35:01.363847	7.4	25.3	-91.1	10.3
2025-01-27 11:35:02.512759	7.1	25.4	-91.2	6.5
2025-01-27 11:35:03.667631	6.8	25.5	-91.5	8.5
2025-01-27 11:35:04.820293	6.5	25.6	-91.1	6.0
2025-01-27 11:35:05.967070	6.3	25.7	-91.2	3.9
2025-01-27 11:35:07.118207	6.0	25.8	-91.4	5.9
2025-01-27 11:35:08.265454	5.7	25.9	-90.8	2.6
2025-01-27 11:35:09.430857	5.4	26.0	-91.3	6.7
2025-01-27 11:35:10.579815	5.1	26.1	-91.1	7.1
2025-01-27 11:35:11.730292	4.8	26.2	-91.1	8.2
2025-01-27 11:35:12.879895	4.5	26.3	-90.9	5.8
2025-01-27 11:35:14.023034	4.2	26.4	-91.4	11.3
2025-01-27 11:35:15.179534	3.9	26.5	-90.9	8.2
2025-01-27 11:35:16.325324	3.6	26.6	-91.1	4.8
2025-01-27 11:35:17.482304	3.3	26.7	-91.4	5.9
2025-01-27 11:35:18.625271	3.0	26.7	-91.7	6.0
2025-01-27 11:35:19.776527	2.7	26.8	-91.3	1.2
2025-01-27 11:35:20.924081	2.4	26.9	-91.5	4.7
2025-01-27 11:35:22.071275	2.1	27.0	-91.4	4.9
2025-01-27 11:35:23.219682	1.8	27.1	-90.9	2.2
2025-01-27 11:35:24.365831	1.5	27.2	-91.1	3.8
2025-01-27 11:35:25.510500	1.2	27.3	-91.3	7.1
2025-01-27 11:35:26.659947	0.9	27.4	-91.2	7.3
2025-01-27 11:35:27.801774	0.6	27.5	-91.3	7.5
2025-01-27 11:35:28.949855	0.2	27.6	-91.4	8.4
2025-01-27 11:35:30.094176	359.9	27.7	-91.3	8.2
2025-01-27 11:35:31.245947	359.6	27.8	-91.3	7.6
2025-01-27 11:35:32.391924	359.3	27.8	-91.4	8.1
2025-01-27 11:35:33.546496	359.0	27.9	-91.7	5.5
2025-01-27 11:35:34.697043	358.6	28.0	-91.6	3.3
2025-01-27 11:35:35.843464	358.3	28.1	-91.2	3.2
2025-01-27 11:35:36.996800	358.0	28.2	-91.1	3.5
2025-01-27 11:35:38.139981	357.6	28.3	-91.6	5.8
2025-01-27 11:35:39.288478	357.3	28.3	-91.0	1.7
2025-01-27 11:35:40.434679	357.0	28.4	-91.3	8.4
2025-01-27 11:35:41.583019	356.6	28.5	-91.3	6.9
2025-01-27 11:35:42.737324	356.3	28.6	-91.1	7.7
2025-01-27 11:35:43.885612	356.0	28.7	-90.9	7.4
2025-01-27 11:35:45.034446	355.6	28.8	-91.1	4.5
2025-01-27 11:35:46.174160	355.3	28.8	-91.3	4.5
2025-01-27 11:35:47.328974	354.9	28.9	-91.4	3.8
2025-01-27 11:35:48.477123	354.6	29.0	-91.3	4.2
2025-01-27 11:35:49.622233	354.2	29.1	-91.5	4.9
2025-01-27 11:35:50.768254	353.9	29.1	-91.7	2.0
2025-01-27 11:35:51.915141	353.5	29.2	-91.3	2.2
2025-01-27 11:35:53.069581	353.2	29.3	-91.4	3.7
2025-01-27 11:35:54.225682	352.8	29.3	-91.0	2.5
2025-01-27 11:35:55.376609	352.5	29.4	-91.0	4.3
2025-01-27 11:35:56.521945	352.1	29.5	-90.8	5.2
2025-01-27 11:35:57.670563	351.8	29.5	-90.8	6.1
2025-01-27 11:35:58.821930	351.4	29.6	-91.7	8.3
2025-01-27 11:35:59.966629	351.0	29.7	-91.2	5.6
2025-01-27 11:36:01.116857	350.7	29.7	-91.1	7.4
2025-01-27 11:36:02.262585	350.3	29.8	-91.3	4.8
2025-01-27 11:36:03.410529	349.9	29.9	-91.4	2.0
2025-01-27 11:36:04.560249	349.6	29.9	-91.3	5.7
2025-01-27 11:36:05.709881	349.2	30.0	-91.0	5.5
2025-01-27 11:36:06.858547	348.8	30.0	-91.3	5.9
2025-01-27 11:36:08.007828	348.5	30.1	-91.4	6.3
2025-01-27 11:36:09.160428	348.1	30.2	-90.6	6.7
2025-01-27 11:36:10.308504	347.7	30.2	-91.0	4.2
2025-01-27 11:36:11.458062	347.3	30.3	-91.5	6.8
2025-01-27 11:36:12.607003	347.0	30.3	-91.0	6.5
2025-01-27 11:36:13.761957	346.6	30.4	-91.1	6.6
2025-01-27 11:36:14.907643	346.2	30.4	-91.4	8.7
2025-01-27 11:36:16.060561	345.8	30.5	-91.1	7.9
2025-01-27 11:36:17.210590	345.4	30.5	-90.9	8.8
2025-01-27 11:36:18.359649	345.1	30.6	-91.1	9.4
2025-01-27 11:36:19.509035	344.7	30.6	-91.2	10.0
2025-01-27 11:36:20.662536	344.3	30.6	-91.3	9.4
2025-01-27 11:36:21.812845	343.9	30.7	-91.3	8.0
2025-01-27 11:36:22.964627	343.5	30.7	-91.4	9.4
2025-01-27 11:36:24.115571	343.1	30.8	-90.9	9.0
2025-01-27 11:36:25.262436	342.7	30.8	-91.0	5.7
2025-01-27 11:36:26.421163	342.3	30.8	-91.4	5.7
2025-01-27 11:36:27.568266	342.0	30.9	-91.2	4.7
2025-01-27 11:36:28.718789	341.6	30.9	-91.2	3.7
2025-01-27 11:36:29.863541	341.2	30.9	-91.2	4.8
2025-01-27 11:36:31.016914	340.8	30.9	-91.1	5.5
2025-01-27 11:36:32.166144	340.4	31.0	-91.2	3.4
2025-01-27 11:36:33.314332	340.0	31.0	-91.0	3.4
2025-01-27 11:36:34.464227	339.6	31.0	-91.0	4.7
2025-01-27 11:36:35.616812	339.2	31.1	-91.2	4.0
2025-01-27 11:36:36.767736	338.8	31.1	-91.4	3.1
2025-01-27 11:36:37.917847	338.4	31.1	-91.2	4.2
2025-01-27 11:36:39.069247	338.0	31.1	-91.2	5.0
2025-01-27 11:36:40.214766	337.6	31.1	-91.0	5.2
2025-01-27 11:36:41.365995	337.2	31.1	-91.2	5.7
2025-01-27 11:36:42.508270	336.8	31.2	-91.2	9.0
2025-01-27 11:36:43.655975	336.4	31.2	-91.2	8.0
2025-01-27 11:36:44.808692	336.0	31.2	-91.2	9.4
2025-01-27 11:36:45.960265	335.6	31.2	-91.3	10.5
2025-01-27 11:36:47.116695	335.2	31.2	-91.2	12.4
2025-01-27 11:36:48.265063	334.8	31.2	-90.7	10.4
2025-01-27 11:36:49.410584	334.4	31.2	-91.3	13.0
2025-01-27 11:36:50.550869	334.0	31.2	-91.2	12.3
2025-01-27 11:36:51.699478	333.6	31.2	-91.1	11.4
2025-01-27 11:36:52.848596	333.2	31.2	-91.5	12.6
2025-01-27 11:36:53.997538	332.8	31.2	-91.5	11.8
2025-01-27 11:36:55.140940	332.5	31.2	-91.2	12.4
2025-01-27 11:36:56.285697	332.1	31.2	-91.2	9.6
2025-01-27 11:36:57.435080	331.7	31.2	-91.4	11.5
2025-01-27 11:36:58.581516	331.3	31.2	-90.8	10.9
2025-01-27 11:36:59.726463	330.9	31.2	-90.8	8.2
2025-01-27 11:37:00.868683	330.5	31.2	-90.6	8.1
2025-01-27 11:37:02.014990	330.1	31.1	-90.8	6.4
2025-01-27 11:37:03.167422	329.7	31.1	-91.4	7.4
2025-01-27 11:37:04.312991	329.3	31.1	-91.0	5.9
2025-01-27 11:37:05.461926	328.9	31.1	-91.0	8.5
2025-01-27 11:37:06.608549	328.5	31.1	-91.4	7.9
2025-01-27 11:37:07.761548	328.1	31.1	-91.4	5.2
2025-01-27 11:37:08.909831	327.7	31.0	-91.4	9.7
2025-01-27 11:37:10.057727	327.3	31.0	-91.0	9.4
2025-01-27 11:37:11.206535	326.9	31.0	-91.0	4.8
2025-01-27 11:37:12.356640	326.5	31.0	-91.2	6.9
2025-01-27 11:37:13.507720	326.1	30.9	-91.2	7.2
2025-01-27 11:37:14.651729	325.7	30.9	-91.4	9.1
2025-01-27 11:37:15.796021	325.3	30.9	-91.5	4.0
2025-01-27 11:37:16.949472	325.0	30.8	-91.3	6.7
2025-01-27 11:37:18.103014	324.6	30.8	-91.0	10.5
2025-01-27 11:37:19.254637	324.2	30.8	-90.8	5.3
2025-01-27 11:37:20.407555	323.8	30.7	-91.0	7.1
2025-01-27 11:37:21.556829	323.4	30.7	-91.4	9.2
2025-01-27 11:37:22.704299	323.0	30.7	-91.4	5.8
2025-01-27 11:37:23.861257	322.6	30.6	-91.3	5.6
2025-01-27 11:37:25.006130	322.2	30.6	-91.3	9.2
2025-01-27 11:37:26.154630	321.9	30.5	-91.1	4.3
2025-01-27 11:37:27.298209	321.5	30.5	-91.0	6.3
2025-01-27 11:37:28.451781	321.1	30.4	-91.0	7.3
2025-01-27 11:37:29.599588	320.7	30.4	-91.4	7.6
2025-01-27 11:37:30.747128	320.3	30.3	-91.7	4.3
2025-01-27 11:37:31.890340	320.0	30.3	-91.4	2.5
2025-01-27 11:37:33.040381	319.6	30.2	-91.2	9.0
2025-01-27 11:37:34.190294	319.2	30.2	-91.5	4.4
2025-01-27 11:37:35.340720	318.8	30.1	-91.3	2.5
2025-01-27 11:37:36.489719	318.5	30.1	-91.3	8.1
2025-01-27 11:37:37.634619	318.1	30.0	-91.4	9.4
2025-01-27 11:37:38.791159	317.7	30.0	-91.2	4.4
2025-01-27 11:37:39.939081	317.4	29.9	-91.1	4.8
2025-01-27 11:37:41.094789	317.0	29.8	-91.1	7.7
2025-01-27 11:37:42.241089	316.6	29.8	-91.0	5.6
2025-01-27 11:37:43.387091	316.3	29.7	-91.1	8.1
2025-01-27 11:37:44.529777	315.9	29.6	-90.7	8.5
2025-01-27 11:37:45.679606	315.5	29.6	-91.4	4.1
2025-01-27 11:37:46.827633	315.2	29.5	-91.4	5.6
2025-01-27 11:37:47.973618	314.8	29.4	-90.9	8.3
2025-01-27 11:37:49.124977	314.5	29.4	-91.1	4.7
2025-01-27 11:37:50.279249	314.1	29.3	-91.1	6.4
2025-01-27 11:37:51.431982	313.8	29.2	-91.3	5.6
2025-01-27 11:37:52.585767	313.4	29.2	-91.3	6.4
2025-01-27 11:37:53.736564	313.1	29.1	-91.5	2.1
2025-01-27 11:37:54.883928	312.7	29.0	-91.2	4.0
2025-01-27 11:37:56.032355	312.4	28.9	-91.2	6.1
2025-01-27 11:37:57.183122	312.0	28.9	-91.5	2.9
2025-01-27 11:37:58.340369	311.7	28.8	-91.1	4.2
2025-01-27 11:37:59.490164	311.3	28.7	-91.3	7.3
2025-01-27 11:38:00.633310	311.0	28.6	-91.3	6.5
2025-01-27 11:38:01.786925	310.7	28.5	-91.7	3.7
2025-01-27 11:38:02.932574	310.3	28.5	-90.9	3.8
2025-01-27 11:38:04.091103	310.0	28.4	-90.9	7.7
2025-01-27 11:38:05.244989	309.6	28.3	-90.4	4.8
2025-01-27 11:38:06.390150	309.3	28.2	-90.9	8.9
2025-01-27 11:38:07.540320	309.0	28.1	-91.5	7.8
2025-01-27 11:38:08.687420	308.7	28.0	-91.2	4.9
2025-01-27 11:38:09.835009	308.3	28.0	-91.3	4.2
2025-01-27 11:38:10.980317	308.0	27.9	-91.3	8.1
2025-01-27 11:38:12.130178	307.7	27.8	-91.3	9.3
2025-01-27 11:38:13.285413	307.4	27.7	-91.1	4.6
2025-01-27 11:38:14.449203	307.0	27.6	-91.4	6.9
2025-01-27 11:38:15.599343	306.7	27.5	-91.3	8.6
2025-01-27 11:38:16.747503	306.4	27.4	-91.5	6.9
2025-01-27 11:38:17.891601	306.1	27.3	-91.6	7.2
2025-01-27 11:38:19.037941	305.8	27.3	-91.3	8.5
2025-01-27 11:38:20.191184	305.5	27.2	-91.1	4.1
2025-01-27 11:38:21.338777	305.2	27.1	-91.2	4.4
2025-01-27 11:38:22.490137	304.9	27.0	-91.3	4.5
2025-01-27 11:38:23.636847	304.5	26.9	-91.2	10.3
2025-01-27 11:38:24.783990	304.2	26.8	-91.5	3.5
2025-01-27 11:38:25.933020	303.9	26.7	-91.4	4.0
2025-01-27 11:38:27.082340	303.6	26.6	-91.6	6.0
2025-01-27 11:38:28.231526	303.3	26.5	-91.3	1.9
2025-01-27 11:38:29.377700	303.1	26.4	-91.3	12.4
2025-01-27 11:38:30.524854	302.8	26.3	-91.5	6.7
2025-01-27 11:38:31.675300	302.5	26.2	-91.3	8.3
2025-01-27 11:38:32.826022	302.2	26.1	-91.2	6.6
2025-01-27 11:38:33.972810	301.9	26.0	-91.8	5.9
2025-01-27 11:38:35.116868	301.6	25.9	-91.5	9.5
2025-01-27 11:38:36.260459	301.3	25.8	-91.3	3.7
2025-01-27 11:38:37.418416	301.0	25.7	-91.4	7.5
2025-01-27 11:38:38.576823	300.7	25.6	-91.4	7.6
2025-01-27 11:38:39.726470	300.5	25.5	-91.5	4.5
2025-01-27 11:38:40.874345	300.2	25.4	-91.5	8.4
2025-01-27 11:38:42.022504	299.9	25.3	-91.3	11.7
2025-01-27 11:38:43.165915	299.6	25.2	-91.3	2.7
2025-01-27 11:38:44.316543	299.4	25.1	-91.5	6.5
2025-01-27 11:38:45.468095	299.1	25.0	-91.3	6.0
2025-01-27 11:38:46.615163	298.8	24.9	-91.7	4.2
2025-01-27 11:38:47.768394	298.6	24.8	-91.4	1.9
2025-01-27 11:38:48.921670	298.3	24.7	-91.7	3.9
2025-01-27 11:38:50.070316	298.0	24.6	-91.3	7.5
2025-01-27 11:38:51.217115	297.8	24.5	-91.4	0.9
2025-01-27 11:38:52.362369	297.5	24.4	-91.5	4.5
2025-01-27 11:38:53.507052	297.3	24.3	-91.5	5.2
2025-01-27 11:38:54.657862	297.0	24.2	-91.4	5.2
2025-01-27 11:38:55.809570	296.7	24.1	-91.2	4.9
2025-01-27 11:38:56.962036	296.5	24.0	-91.2	4.5
2025-01-27 11:38:58.111866	296.2	23.9	-91.2	2.7
2025-01-27 11:38:59.265920	296.0	23.8	-91.5	5.2
2025-01-27 11:39:00.411924	295.7	23.7	-91.6	9.7
2025-01-27 11:39:01.563960	295.5	23.5	-91.7	8.2
2025-01-27 11:39:02.711120	295.2	23.4	-91.8	4.0
2025-01-27 11:39:03.861077	295.0	23.3	-91.4	7.0
2025-01-27 11:39:05.009477	294.8	23.2	-91.1	6.4
2025-01-27 11:39:06.160248	294.5	23.1	-91.2	8.4
2025-01-27 11:39:07.313939	294.3	23.0	-91.0	3.5
2025-01-27 11:39:08.459030	294.0	22.9	-91.1	4.3
2025-01-27 11:39:09.607123	293.8	22.8	-90.9	3.0
2025-01-27 11:39:10.753691	293.6	22.7	-91.1	6.0
2025-01-27 11:39:11.904668	293.3	22.6	-91.7	4.5
2025-01-27 11:39:13.057441	293.1	22.5	-91.2	2.4
2025-01-27 11:39:14.207753	292.9	22.4	-91.3	4.4
2025-01-27 11:39:15.343941	292.7	22.3	-91.5	2.0
2025-01-27 11:39:16.490051	292.4	22.2	-91.3	3.6
2025-01-27 11:39:17.639130	292.2	22.1	-91.6	4.7
2025-01-27 11:39:18.782396	292.0	22.0	-91.7	4.7
2025-01-27 11:39:19.930997	291.8	21.8	-91.4	4.6
2025-01-27 11:39:21.079432	291.5	21.7	-91.3	5.3
2025-01-27 11:39:22.225502	291.3	21.6	-91.4	2.2
2025-01-27 11:39:23.374458	291.1	21.5	-91.0	5.4
2025-01-27 11:39:24.516792	290.9	21.4	-91.5	7.3
2025-01-27 11:39:25.675785	290.7	21.3	-91.3	3.7
2025-01-27 11:39:26.823650	290.5	21.2	-90.9	6.7
2025-01-27 11:39:27.971070	290.3	21.1	-91.0	6.3
2025-01-27 11:39:29.125862	290.1	21.0	-90.8	5.6
2025-01-27 11:39:30.270640	289.8	20.9	-90.8	7.3
2025-01-27 11:39:31.420268	289.6	20.8	-91.2	10.2
2025-01-27 11:39:32.564856	289.4	20.7	-90.9	7.6
2025-01-27 11:39:33.713294	289.2	20.6	-91.1	5.3
2025-01-27 11:39:34.863273	289.0	20.5	-91.1	3.5
2025-01-27 11:39:36.011698	288.8	20.4	-90.6	7.1
2025-01-27 11:39:37.162313	288.6	20.2	-90.8	6.8
2025-01-27 11:39:38.309570	288.4	20.1	-91.0	7.3
2025-01-27 11:39:39.464924	288.2	20.0	-91.2	2.9
2025-01-27 11:39:40.608815	288.0	19.9	-90.8	3.2
2025-01-27 11:39:41.756547	287.8	19.8	-90.8	6.1
2025-01-27 11:39:42.903015	287.7	19.7	-91.1	3.7
2025-01-27 11:39:44.049624	287.5	19.6	-91.0	3.4
2025-01-27 11:39:45.200935	287.3	19.5	-90.6	2.6
2025-01-27 11:39:46.346615	287.1	19.4	-90.9	4.1
2025-01-27 11:39:47.502295	286.9	19.3	-91.5	6.4
2025-01-27 11:39:48.646616	286.7	19.2	-91.2	3.7
2025-01-27 11:39:49.790925	286.5	19.1	-91.7	5.5
2025-01-27 11:39:50.936993	286.4	19.0	-91.7	4.2
2025-01-27 11:39:52.091037	286.2	18.9	-91.7	3.4
2025-01-27 11:39:53.239073	286.0	18.8	-91.1	4.3
2025-01-27 11:39:54.385955	285.8	18.7	-91.6	7.3
2025-01-27 11:39:55.534947	285.6	18.6	-91.7	3.8
2025-01-27 11:39:56.686284	285.5	18.5	-91.3	6.1
2025-01-27 11:39:57.827185	285.3	18.4	-91.4	4.1
2025-01-27 11:39:58.978783	285.1	18.2	-91.6	3.2
2025-01-27 11:40:00.128455	284.9	18.1	-91.3	3.8
2025-01-27 11:40:01.273194	284.8	18.0	-91.4	5.9
2025-01-27 11:40:02.418006	284.6	17.9	-91.5	4.2
2025-01-27 11:40:03.560635	284.4	17.8	-91.2	3.4
2025-01-27 11:40:04.709106	284.3	17.7	-91.5	3.6
2025-01-27 11:40:05.858010	284.1	17.6	-91.4	7.4
2025-01-27 11:40:07.012986	283.9	17.5	-91.6	5.0
2025-01-27 11:40:08.160174	283.8	17.4	-91.3	5.4
2025-01-27 11:40:09.307525	283.6	17.3	-91.5	3.7
2025-01-27 11:40:10.454549	283.4	17.2	-91.8	5.3
2025-01-27 11:40:11.604326	283.3	17.1	-91.7	5.3
2025-01-27 11:40:12.753263	283.1	17.0	-91.3	4.9
2025-01-27 11:40:13.899688	282.9	16.9	-91.7	2.1
2025-01-27 11:40:15.046444	282.8	16.8	-91.7	4.6
2025-01-27 11:40:16.199786	282.6	16.7	-91.2	3.5
2025-01-27 11:40:17.342914	282.5	16.6	-91.4	4.0
2025-01-27 11:40:18.499516	282.3	16.5	-91.8	3.8
2025-01-27 11:40:19.646418	282.2	16.4	-91.5	4.8
2025-01-27 11:40:20.794824	282.0	16.3	-91.7	4.8
2025-01-27 11:40:21.942620	281.9	16.2	-91.6	3.4
2025-01-27 11:40:23.090980	281.7	16.1	-91.6	4.0
2025-01-27 11:40:24.240384	281.6	16.0	-91.5	3.3
2025-01-27 11:40:25.383332	281.4	15.9	-91.5	4.7
2025-01-27 11:40:26.534250	281.3	15.8	-91.7	5.7
2025-01-27 11:40:27.692953	281.1	15.7	-91.5	6.5
2025-01-27 11:40:28.835976	281.0	15.6	-91.4	4.0
2025-01-27 11:40:29.980524	280.8	15.5	-91.9	6.0
2025-01-27 11:40:31.126874	280.7	15.4	-91.5	4.8
2025-01-27 11:40:32.271893	280.5	15.3	-91.3	8.2
2025-01-27 11:40:33.418620	280.4	15.2	-91.7	5.7
2025-01-27 11:40:34.565680	280.3	15.1	-91.7	6.8
2025-01-27 11:40:35.714550	280.1	15.0	-91.4	5.4
2025-01-27 11:40:36.861984	280.0	14.9	-91.6	5.6
2025-01-27 11:40:38.014051	279.8	14.8	-91.5	2.6
2025-01-27 11:40:39.163323	279.7	14.7	-91.5	6.4
2025-01-27 11:40:40.321074	279.6	14.6	-91.4	5.5
#Closed at: 2025-01-27 11:33:13.325808