passes_logs/2025/01/27/LEX_Murmansk/LEX_Murmansk__20250127_133612_NOAA_18_rec.log

#Pass ID: 20250127_133612_NOAA 18
#Satellite: NOAA 18
#Configuration: NOAA 18
#Start time: 2025-01-27 13:36:07.054397

#LorettStation: 1.0.0 05.05.2024
#Station: LEX_Murmansk
#Location: 33.156738 lon 68.926811 lat
#TLE: 1 28654U 05018A   25027.12567402  .00000414  00000+0  24299-3 0  9999
#TLE: 2 28654  98.8547 108.0587 0014840 145.8119 214.4012 14.13498347 14893

#Time	Az	El	Level	SNR
2025-01-27 13:36:21.208287	29.8	16.1	-89.3	9.7
2025-01-27 13:36:22.356519	29.6	16.2	-89.9	8.5
2025-01-27 13:36:23.500800	29.4	16.2	-90.0	7.5
2025-01-27 13:36:24.650544	29.2	16.3	-90.0	7.8
2025-01-27 13:36:25.799853	29.0	16.4	-90.1	8.0
2025-01-27 13:36:26.945015	28.9	16.5	-90.1	4.9
2025-01-27 13:36:28.091871	28.7	16.6	-89.6	7.9
2025-01-27 13:36:29.245316	28.5	16.7	-89.8	7.5
2025-01-27 13:36:30.387354	28.3	16.8	-90.0	8.1
2025-01-27 13:36:31.530427	28.1	16.8	-90.2	8.0
2025-01-27 13:36:32.681581	27.9	16.9	-90.1	9.0
2025-01-27 13:36:33.830239	27.7	17.0	-90.3	10.0
2025-01-27 13:36:34.977242	27.5	17.1	-90.0	6.8
2025-01-27 13:36:36.125146	27.3	17.2	-89.7	7.1
2025-01-27 13:36:37.275093	27.1	17.3	-90.0	9.8
2025-01-27 13:36:38.421708	26.9	17.4	-90.0	7.5
2025-01-27 13:36:39.563503	26.7	17.4	-89.7	10.0
2025-01-27 13:36:40.708050	26.5	17.5	-90.0	12.2
2025-01-27 13:36:41.857233	26.4	17.6	-90.2	12.0
2025-01-27 13:36:43.004105	26.1	17.7	-89.7	8.3
2025-01-27 13:36:44.149941	25.9	17.8	-90.0	7.6
2025-01-27 13:36:45.297082	25.7	17.9	-89.9	10.1
2025-01-27 13:36:46.444905	25.5	18.0	-89.5	6.5
2025-01-27 13:36:47.589240	25.3	18.0	-90.2	7.4
2025-01-27 13:36:48.739099	25.1	18.1	-90.2	7.6
2025-01-27 13:36:49.886088	24.9	18.2	-89.9	9.1
2025-01-27 13:36:51.033733	24.7	18.3	-89.8	6.8
2025-01-27 13:36:52.178176	24.5	18.4	-89.6	7.5
2025-01-27 13:36:53.323728	24.3	18.5	-89.7	10.7
2025-01-27 13:36:54.478093	24.1	18.6	-90.1	8.4
2025-01-27 13:36:55.622297	23.9	18.6	-90.1	12.0
2025-01-27 13:36:56.766691	23.7	18.7	-90.1	13.3
2025-01-27 13:36:57.909877	23.4	18.8	-90.2	10.9
2025-01-27 13:36:59.058570	23.2	18.9	-90.1	9.3
2025-01-27 13:37:00.202063	23.0	19.0	-89.9	15.3
2025-01-27 13:37:01.342177	22.8	19.1	-90.2	10.5
2025-01-27 13:37:02.488357	22.6	19.1	-90.0	11.0
2025-01-27 13:37:03.639821	22.3	19.2	-90.5	10.7
2025-01-27 13:37:04.784148	22.1	19.3	-90.5	11.3
2025-01-27 13:37:05.932790	21.9	19.4	-90.4	8.8
2025-01-27 13:37:07.075136	21.7	19.5	-90.1	6.4
2025-01-27 13:37:08.222054	21.4	19.6	-90.2	8.9
2025-01-27 13:37:09.370859	21.2	19.6	-89.9	7.1
2025-01-27 13:37:10.513808	21.0	19.7	-89.8	7.4
2025-01-27 13:37:11.668170	20.8	19.8	-89.8	9.3
2025-01-27 13:37:12.815744	20.5	19.9	-90.0	9.7
2025-01-27 13:37:13.966642	20.3	20.0	-89.9	11.7
2025-01-27 13:37:15.112801	20.1	20.1	-89.5	10.6
2025-01-27 13:37:16.260579	19.8	20.1	-89.7	11.7
2025-01-27 13:37:17.409835	19.6	20.2	-90.2	10.3
2025-01-27 13:37:18.553893	19.3	20.3	-90.1	7.4
2025-01-27 13:37:19.699972	19.1	20.4	-90.3	12.7
2025-01-27 13:37:20.837845	18.9	20.5	-89.9	7.5
2025-01-27 13:37:21.984897	18.6	20.5	-90.1	6.5
2025-01-27 13:37:23.132822	18.4	20.6	-90.0	9.0
2025-01-27 13:37:24.278842	18.1	20.7	-89.7	10.7
2025-01-27 13:37:25.426065	17.9	20.8	-89.9	10.0
2025-01-27 13:37:26.584715	17.6	20.9	-89.9	12.1
2025-01-27 13:37:27.732436	17.4	20.9	-90.6	10.3
2025-01-27 13:37:28.877725	17.1	21.0	-90.4	9.4
2025-01-27 13:37:30.019953	16.9	21.1	-90.4	8.6
2025-01-27 13:37:31.165345	16.6	21.2	-90.1	9.4
2025-01-27 13:37:32.311010	16.4	21.3	-90.1	9.2
2025-01-27 13:37:33.459124	16.1	21.3	-90.3	6.8
2025-01-27 13:37:34.607330	15.9	21.4	-90.4	9.1
2025-01-27 13:37:35.753583	15.6	21.5	-90.3	10.8
2025-01-27 13:37:36.900659	15.4	21.6	-90.3	6.2
2025-01-27 13:37:38.048476	15.1	21.6	-90.6	5.8
2025-01-27 13:37:39.196856	14.8	21.7	-90.2	9.1
2025-01-27 13:37:40.344733	14.6	21.8	-90.0	11.2
2025-01-27 13:37:41.490465	14.3	21.9	-90.6	10.9
2025-01-27 13:37:42.636638	14.0	21.9	-90.7	12.7
2025-01-27 13:37:43.782585	13.8	22.0	-90.4	10.7
2025-01-27 13:37:44.926012	13.5	22.1	-90.3	8.6
2025-01-27 13:37:46.069359	13.2	22.1	-90.0	9.7
2025-01-27 13:37:47.218813	13.0	22.2	-90.2	13.6
2025-01-27 13:37:48.367250	12.7	22.3	-90.3	11.3
2025-01-27 13:37:49.511933	12.4	22.4	-90.4	11.5
2025-01-27 13:37:50.657102	12.2	22.4	-90.2	11.7
2025-01-27 13:37:51.803468	11.9	22.5	-90.6	12.7
2025-01-27 13:37:52.947777	11.6	22.6	-90.2	13.9
2025-01-27 13:37:54.095862	11.3	22.6	-90.4	10.0
2025-01-27 13:37:55.242495	11.1	22.7	-89.5	9.7
2025-01-27 13:37:56.385035	10.8	22.8	-89.3	10.1
2025-01-27 13:37:57.534984	10.5	22.8	-89.5	10.6
2025-01-27 13:37:58.682434	10.2	22.9	-89.8	13.8
2025-01-27 13:37:59.832808	9.9	23.0	-90.1	14.9
2025-01-27 13:38:00.975455	9.6	23.0	-90.3	8.2
2025-01-27 13:38:02.122660	9.4	23.1	-90.2	11.0
2025-01-27 13:38:03.267904	9.1	23.2	-90.0	13.1
2025-01-27 13:38:04.414795	8.8	23.2	-90.0	9.8
2025-01-27 13:38:05.564209	8.5	23.3	-90.5	11.8
2025-01-27 13:38:06.710792	8.2	23.4	-90.2	14.4
2025-01-27 13:38:07.859853	7.9	23.4	-90.1	15.1
2025-01-27 13:38:09.005627	7.6	23.5	-90.3	13.0
2025-01-27 13:38:10.148778	7.3	23.5	-90.1	14.1
2025-01-27 13:38:11.298611	7.0	23.6	-89.8	15.2
2025-01-27 13:38:12.446231	6.7	23.7	-89.8	14.7
2025-01-27 13:38:13.592186	6.4	23.7	-90.3	12.4
2025-01-27 13:38:14.741394	6.1	23.8	-90.1	13.7
2025-01-27 13:38:15.888035	5.8	23.8	-90.2	11.3
2025-01-27 13:38:17.037283	5.5	23.9	-90.4	9.5
2025-01-27 13:38:18.183586	5.2	23.9	-90.0	13.3
2025-01-27 13:38:19.330334	4.9	24.0	-90.1	12.2
2025-01-27 13:38:20.475620	4.6	24.0	-90.2	10.5
2025-01-27 13:38:21.625049	4.3	24.1	-89.9	10.4
2025-01-27 13:38:22.775473	4.0	24.1	-90.1	11.8
2025-01-27 13:38:23.921560	3.7	24.2	-90.7	13.5
2025-01-27 13:38:25.070601	3.4	24.2	-90.7	15.2
2025-01-27 13:38:26.215851	3.1	24.3	-90.4	14.8
2025-01-27 13:38:27.360375	2.8	24.3	-90.3	11.3
2025-01-27 13:38:28.507180	2.5	24.4	-90.3	11.8
2025-01-27 13:38:29.649372	2.2	24.4	-90.5	15.4
2025-01-27 13:38:30.791993	1.8	24.5	-90.7	13.8
2025-01-27 13:38:31.935557	1.5	24.5	-90.4	10.0
2025-01-27 13:38:33.081631	1.2	24.6	-90.3	7.8
2025-01-27 13:38:34.229141	0.9	24.6	-90.5	10.3
2025-01-27 13:38:35.378727	0.6	24.7	-90.2	9.1
2025-01-27 13:38:36.519984	0.3	24.7	-90.5	8.9
2025-01-27 13:38:37.666590	359.9	24.7	-90.1	12.5
2025-01-27 13:38:38.813959	359.6	24.8	-90.5	12.0
2025-01-27 13:38:39.962827	359.3	24.8	-90.6	10.1
2025-01-27 13:38:41.114958	359.0	24.9	-90.5	10.4
2025-01-27 13:38:42.259259	358.7	24.9	-90.6	14.2
2025-01-27 13:38:43.408285	358.3	24.9	-90.3	8.9
2025-01-27 13:38:44.555478	358.0	25.0	-90.6	9.4
2025-01-27 13:38:45.710074	357.7	25.0	-90.7	11.0
2025-01-27 13:38:46.855925	357.4	25.0	-90.3	12.1
2025-01-27 13:38:48.006310	357.0	25.1	-90.7	14.9
2025-01-27 13:38:49.156484	356.7	25.1	-90.0	14.7
2025-01-27 13:38:50.300006	356.4	25.1	-90.0	14.0
2025-01-27 13:38:51.446552	356.1	25.2	-90.1	13.8
2025-01-27 13:38:52.589782	355.7	25.2	-90.4	12.1
2025-01-27 13:38:53.738443	355.4	25.2	-90.1	15.2
2025-01-27 13:38:54.882353	355.1	25.2	-90.3	11.5
2025-01-27 13:38:56.032661	354.7	25.3	-90.6	11.7
2025-01-27 13:38:57.183019	354.4	25.3	-90.4	13.0
2025-01-27 13:38:58.328890	354.1	25.3	-90.2	14.7
2025-01-27 13:38:59.479335	353.8	25.3	-90.3	9.7
2025-01-27 13:39:00.622054	353.4	25.4	-90.5	11.6
2025-01-27 13:39:01.763702	353.1	25.4	-90.4	14.0
2025-01-27 13:39:02.910013	352.8	25.4	-90.6	9.8
2025-01-27 13:39:04.058452	352.4	25.4	-90.3	9.5
2025-01-27 13:39:05.208355	352.1	25.4	-90.2	13.7
2025-01-27 13:39:06.356205	351.8	25.5	-90.5	10.7
2025-01-27 13:39:07.504605	351.4	25.5	-90.7	7.6
2025-01-27 13:39:08.650733	351.1	25.5	-90.5	9.6
2025-01-27 13:39:09.795495	350.8	25.5	-89.5	11.6
2025-01-27 13:39:10.938111	350.4	25.5	-89.8	12.5
2025-01-27 13:39:12.085546	350.1	25.5	-89.4	12.6
2025-01-27 13:39:13.233568	349.8	25.5	-89.3	14.1
2025-01-27 13:39:14.382304	349.4	25.5	-89.8	13.9
2025-01-27 13:39:15.525863	349.1	25.5	-89.6	14.6
2025-01-27 13:39:16.675896	348.8	25.6	-90.9	13.9
2025-01-27 13:39:17.818256	348.4	25.6	-90.9	11.4
2025-01-27 13:39:18.958888	348.1	25.6	-89.8	9.0
2025-01-27 13:39:20.106959	347.7	25.6	-89.5	12.0
2025-01-27 13:39:21.255091	347.4	25.6	-89.7	10.4
2025-01-27 13:39:22.406491	347.1	25.6	-89.6	9.2
2025-01-27 13:39:23.552038	346.7	25.6	-90.1	7.2
2025-01-27 13:39:24.701075	346.4	25.6	-90.2	6.9
2025-01-27 13:39:25.851177	346.1	25.6	-90.1	6.9
2025-01-27 13:39:26.999785	345.7	25.6	-90.7	4.8
2025-01-27 13:39:28.149955	345.4	25.6	-90.4	8.5
2025-01-27 13:39:29.297332	345.1	25.5	-90.6	5.8
2025-01-27 13:39:30.443824	344.7	25.5	-91.1	7.7
2025-01-27 13:39:31.598496	344.4	25.5	-90.7	8.3
2025-01-27 13:39:32.743134	344.0	25.5	-90.5	13.4
2025-01-27 13:39:33.893248	343.7	25.5	-90.9	7.0
2025-01-27 13:39:35.043143	343.4	25.5	-90.6	7.0
2025-01-27 13:39:36.191500	343.0	25.5	-90.7	10.6
2025-01-27 13:39:37.335876	342.7	25.5	-90.7	10.3
2025-01-27 13:39:38.484325	342.4	25.5	-90.4	7.2
2025-01-27 13:39:39.628486	342.0	25.5	-90.8	6.9
2025-01-27 13:39:40.771533	341.7	25.4	-91.0	10.0
2025-01-27 13:39:41.921250	341.4	25.4	-90.5	6.7
2025-01-27 13:39:43.069886	341.0	25.4	-90.7	9.9
2025-01-27 13:39:44.219126	340.7	25.4	-90.4	9.6
2025-01-27 13:39:45.370605	340.4	25.4	-90.8	4.8
2025-01-27 13:39:46.521060	340.0	25.3	-90.7	10.3
2025-01-27 13:39:47.666662	339.7	25.3	-90.8	8.4
2025-01-27 13:39:48.817033	339.4	25.3	-90.8	8.3
2025-01-27 13:39:49.963443	339.0	25.3	-91.0	8.6
2025-01-27 13:39:51.106750	338.7	25.2	-90.4	7.0
2025-01-27 13:39:52.254390	338.4	25.2	-90.4	8.9
2025-01-27 13:39:53.405490	338.1	25.2	-90.7	9.1
2025-01-27 13:39:54.552418	337.7	25.2	-90.5	9.5
2025-01-27 13:39:55.700892	337.4	25.1	-90.9	9.1
2025-01-27 13:39:56.847377	337.1	25.1	-90.7	6.0
2025-01-27 13:39:57.996107	336.7	25.1	-90.5	8.7
2025-01-27 13:39:59.140404	336.4	25.0	-90.7	6.9
2025-01-27 13:40:00.283043	336.1	25.0	-90.6	8.7
2025-01-27 13:40:01.431141	335.8	25.0	-90.3	12.9
2025-01-27 13:40:02.579858	335.4	24.9	-90.7	10.2
2025-01-27 13:40:03.725492	335.1	24.9	-90.8	14.1
2025-01-27 13:40:04.873238	334.8	24.9	-90.4	11.4
2025-01-27 13:40:06.019952	334.5	24.8	-90.6	12.0
2025-01-27 13:40:07.166219	334.2	24.8	-90.7	10.2
2025-01-27 13:40:08.312644	333.8	24.7	-90.4	9.3
2025-01-27 13:40:09.464371	333.5	24.7	-90.7	8.2
2025-01-27 13:40:10.608518	333.2	24.7	-90.5	7.9
2025-01-27 13:40:11.755399	332.9	24.6	-90.6	6.8
2025-01-27 13:40:12.907239	332.6	24.6	-90.8	11.3
2025-01-27 13:40:14.055415	332.3	24.5	-90.7	10.1
2025-01-27 13:40:15.201353	331.9	24.5	-90.6	11.9
2025-01-27 13:40:16.349119	331.6	24.4	-90.5	9.7
2025-01-27 13:40:17.496824	331.3	24.4	-90.8	8.0
2025-01-27 13:40:18.643083	331.0	24.3	-90.8	11.7
2025-01-27 13:40:19.790204	330.7	24.3	-90.5	10.0
2025-01-27 13:40:20.935567	330.4	24.2	-91.0	10.0
2025-01-27 13:40:22.081685	330.1	24.2	-90.8	11.1
2025-01-27 13:40:23.229813	329.8	24.1	-90.4	10.2
2025-01-27 13:40:24.377094	329.5	24.1	-90.7	7.9
2025-01-27 13:40:25.520192	329.2	24.0	-90.9	6.2
2025-01-27 13:40:26.663868	328.9	24.0	-90.6	11.6
2025-01-27 13:40:27.813862	328.5	23.9	-90.9	9.9
2025-01-27 13:40:28.961953	328.2	23.9	-91.2	8.8
2025-01-27 13:40:30.107229	327.9	23.8	-90.4	8.3
2025-01-27 13:40:31.250359	327.6	23.8	-90.5	11.1
2025-01-27 13:40:32.397001	327.3	23.7	-90.6	8.1
2025-01-27 13:40:33.549426	327.0	23.6	-90.4	8.8
2025-01-27 13:40:34.698887	326.7	23.6	-90.7	5.5
2025-01-27 13:40:35.844333	326.5	23.5	-90.8	7.1
2025-01-27 13:40:36.991117	326.2	23.5	-90.4	5.9
2025-01-27 13:40:38.143055	325.9	23.4	-90.5	8.4
2025-01-27 13:40:39.284542	325.6	23.3	-90.6	5.8
2025-01-27 13:40:40.426726	325.3	23.3	-90.6	8.9
2025-01-27 13:40:41.576388	325.0	23.2	-90.8	8.2
2025-01-27 13:40:42.721647	324.7	23.2	-91.2	8.9
2025-01-27 13:40:43.869697	324.4	23.1	-91.0	10.1
2025-01-27 13:40:45.017961	324.1	23.0	-90.4	7.8
2025-01-27 13:40:46.169118	323.8	23.0	-90.7	5.9
2025-01-27 13:40:47.314754	323.6	22.9	-90.6	5.8
2025-01-27 13:40:48.458564	323.3	22.8	-90.5	3.1
2025-01-27 13:40:49.606765	323.0	22.8	-90.9	2.7
2025-01-27 13:40:50.755009	322.7	22.7	-90.9	5.4
2025-01-27 13:40:51.902311	322.4	22.6	-90.7	5.4
2025-01-27 13:40:53.047408	322.2	22.6	-90.9	3.2
2025-01-27 13:40:54.193962	321.9	22.5	-90.6	10.2
2025-01-27 13:40:55.344065	321.6	22.4	-90.3	7.9
2025-01-27 13:40:56.491143	321.3	22.3	-90.5	8.6
2025-01-27 13:40:57.638108	321.0	22.3	-90.6	8.8
2025-01-27 13:40:58.788341	320.8	22.2	-90.9	8.3
2025-01-27 13:40:59.938086	320.5	22.1	-90.7	7.4
2025-01-27 13:41:01.072958	320.2	22.1	-90.7	4.5
2025-01-27 13:41:02.220177	320.0	22.0	-90.2	5.9
2025-01-27 13:41:03.372059	319.7	21.9	-90.4	5.7
2025-01-27 13:41:04.524091	319.4	21.8	-90.4	7.8
2025-01-27 13:41:05.667890	319.2	21.8	-90.7	8.6
2025-01-27 13:41:06.818635	318.9	21.7	-90.6	9.3
2025-01-27 13:41:07.965692	318.6	21.6	-90.3	8.9
2025-01-27 13:41:09.112757	318.4	21.5	-90.7	7.6
2025-01-27 13:41:10.261492	318.1	21.5	-90.5	8.8
2025-01-27 13:41:11.406458	317.9	21.4	-90.3	7.1
2025-01-27 13:41:12.558790	317.6	21.3	-90.9	3.1
2025-01-27 13:41:13.703019	317.4	21.2	-90.8	7.9
2025-01-27 13:41:14.847799	317.1	21.1	-90.3	4.4
2025-01-27 13:41:15.998376	316.8	21.1	-90.6	5.7
2025-01-27 13:41:17.144299	316.6	21.0	-90.7	11.4
2025-01-27 13:41:18.293873	316.3	20.9	-90.4	6.4
2025-01-27 13:41:19.444027	316.1	20.8	-90.7	6.6
2025-01-27 13:41:20.592580	315.8	20.8	-90.4	7.7
2025-01-27 13:41:21.743058	315.6	20.7	-90.7	4.4
2025-01-27 13:41:22.890501	315.4	20.6	-90.7	10.1
2025-01-27 13:41:24.043418	315.1	20.5	-90.7	9.8
2025-01-27 13:41:25.187779	314.9	20.4	-90.5	5.7
2025-01-27 13:41:26.331048	314.6	20.4	-90.3	8.4
2025-01-27 13:41:27.475679	314.4	20.3	-90.5	7.5
2025-01-27 13:41:28.620822	314.1	20.2	-90.7	7.3
2025-01-27 13:41:29.766917	313.9	20.1	-90.7	4.0
2025-01-27 13:41:30.907612	313.7	20.0	-90.7	8.2
2025-01-27 13:41:32.049396	313.4	19.9	-90.7	4.3
2025-01-27 13:41:33.193104	313.2	19.9	-90.5	5.0
2025-01-27 13:41:34.333686	313.0	19.8	-90.5	3.8
2025-01-27 13:41:35.477736	312.7	19.7	-90.5	3.4
2025-01-27 13:41:36.626119	312.5	19.6	-90.9	4.0
2025-01-27 13:41:37.773103	312.3	19.5	-90.7	5.1
2025-01-27 13:41:38.921223	312.1	19.4	-90.6	5.4
2025-01-27 13:41:40.064231	311.8	19.4	-90.5	3.7
2025-01-27 13:41:41.214550	311.6	19.3	-90.2	8.6
2025-01-27 13:41:42.358019	311.4	19.2	-90.2	7.5
2025-01-27 13:41:43.500943	311.2	19.1	-90.8	6.0
2025-01-27 13:41:44.648881	310.9	19.0	-90.5	7.4
2025-01-27 13:41:45.795694	310.7	18.9	-90.3	5.0
2025-01-27 13:41:46.945763	310.5	18.9	-90.7	4.1
2025-01-27 13:41:48.089437	310.3	18.8	-90.4	5.6
2025-01-27 13:41:49.235692	310.1	18.7	-90.3	4.4
2025-01-27 13:41:50.385795	309.9	18.6	-90.5	5.3
2025-01-27 13:41:51.531872	309.6	18.5	-91.0	4.7
2025-01-27 13:41:52.677454	309.4	18.4	-90.6	4.5
2025-01-27 13:41:53.823035	309.2	18.3	-90.7	5.9
2025-01-27 13:41:54.968778	309.0	18.3	-90.8	5.8
2025-01-27 13:41:56.119503	308.8	18.2	-90.2	5.4
2025-01-27 13:41:57.267563	308.6	18.1	-90.4	6.5
2025-01-27 13:41:58.416432	308.4	18.0	-90.5	4.8
2025-01-27 13:41:59.557650	308.2	17.9	-90.3	6.0
2025-01-27 13:42:00.678263	308.0	17.8	-90.3	7.0
2025-01-27 13:42:01.800416	307.8	17.8	-90.4	7.7
2025-01-27 13:42:02.936038	307.6	17.7	-90.4	6.9
2025-01-27 13:42:04.076006	307.4	17.6	-90.0	2.6
2025-01-27 13:42:05.208884	307.2	17.5	-90.2	4.1
2025-01-27 13:42:06.355105	307.0	17.4	-89.9	5.5
2025-01-27 13:42:07.484591	306.8	17.3	-90.4	4.7
2025-01-27 13:42:08.613452	306.6	17.2	-90.2	6.8
2025-01-27 13:42:09.759489	306.4	17.1	-90.5	9.0
2025-01-27 13:42:10.904119	306.2	17.1	-90.5	6.6
2025-01-27 13:42:12.048877	306.0	17.0	-90.4	4.1
2025-01-27 13:42:13.197453	305.8	16.9	-90.4	9.3
2025-01-27 13:42:14.345641	305.6	16.8	-90.5	10.2
2025-01-27 13:42:15.496773	305.4	16.7	-90.6	6.2
2025-01-27 13:42:16.639999	305.2	16.6	-90.4	5.9
2025-01-27 13:42:17.781183	305.1	16.5	-90.5	7.2
2025-01-27 13:42:18.927789	304.9	16.5	-89.7	9.1
2025-01-27 13:42:20.079129	304.7	16.4	-89.5	8.7
2025-01-27 13:42:21.226041	304.5	16.3	-89.6	10.9
2025-01-27 13:42:22.364204	304.3	16.2	-89.5	9.8
2025-01-27 13:42:23.509962	304.1	16.1	-89.4	8.6
2025-01-27 13:42:24.655937	304.0	16.0	-89.6	10.6
2025-01-27 13:42:25.801651	303.8	15.9	-89.7	7.4
2025-01-27 13:42:26.945280	303.6	15.8	-90.5	6.7
2025-01-27 13:42:28.091574	303.4	15.8	-90.3	4.7
2025-01-27 13:42:29.240253	303.2	15.7	-90.4	8.5
2025-01-27 13:42:30.399960	303.1	15.6	-90.2	5.2
2025-01-27 13:42:31.543615	302.9	15.5	-90.4	5.9
2025-01-27 13:42:32.692435	302.7	15.4	-90.6	6.0
2025-01-27 13:42:33.831986	302.5	15.3	-90.6	7.3
2025-01-27 13:42:34.976896	302.4	15.2	-90.8	6.1
2025-01-27 13:42:36.124450	302.2	15.2	-90.3	5.7
2025-01-27 13:42:37.271814	302.0	15.1	-90.4	7.5
2025-01-27 13:42:38.419347	301.9	15.0	-90.5	6.8
2025-01-27 13:42:39.567765	301.7	14.9	-90.4	8.1
2025-01-27 13:42:40.710361	301.5	14.8	-90.4	9.8
2025-01-27 13:42:41.858458	301.4	14.7	-90.4	6.0
2025-01-27 13:42:43.005627	301.2	14.6	-90.1	8.8
#Closed at: 2025-01-27 13:36:12.014548