passes_logs/2025/01/27/LEX_Murmansk/LEX_Murmansk__20250127_163123_NOAA_19_rec.log

#Pass ID: 20250127_163123_NOAA 19
#Satellite: NOAA 19
#Configuration: NOAA 19
#Start time: 2025-01-27 16:31:18.623173

#LorettStation: 1.0.0 05.05.2024
#Station: LEX_Murmansk
#Location: 33.156738 lon 68.926811 lat
#TLE: 1 33591U 09005A   25027.18125374  .00000353  00000+0  21226-3 0  9998
#TLE: 2 33591  99.0174  91.0366 0013998  24.4913 335.6921 14.13269986823260

#Time	Az	El	Level	SNR
2025-01-27 16:31:30.769043	115.8	16.3	-90.7	2.0
2025-01-27 16:31:31.935911	115.8	16.4	-90.5	5.1
2025-01-27 16:31:33.096191	115.7	16.5	-90.3	5.5
2025-01-27 16:31:34.255429	115.6	16.6	-90.4	2.0
2025-01-27 16:31:35.421114	115.5	16.7	-90.2	7.7
2025-01-27 16:31:36.585864	115.4	16.9	-90.2	4.6
2025-01-27 16:31:37.747599	115.3	17.0	-90.3	12.9
2025-01-27 16:31:38.914120	115.2	17.1	-90.6	6.1
2025-01-27 16:31:40.076679	115.2	17.3	-90.7	3.8
2025-01-27 16:31:41.232266	115.1	17.4	-90.7	2.2
2025-01-27 16:31:42.402869	115.0	17.5	-90.3	3.5
2025-01-27 16:31:43.548857	114.9	17.6	-90.8	3.7
2025-01-27 16:31:44.717114	114.8	17.8	-90.8	7.2
2025-01-27 16:31:45.881158	114.7	17.9	-90.8	8.0
2025-01-27 16:31:47.049393	114.6	18.0	-90.3	12.2
2025-01-27 16:31:48.216356	114.5	18.2	-90.4	10.9
2025-01-27 16:31:49.372706	114.4	18.3	-90.4	10.4
2025-01-27 16:31:50.538624	114.3	18.4	-90.8	6.9
2025-01-27 16:31:51.703735	114.2	18.6	-90.7	6.7
2025-01-27 16:31:52.864785	114.1	18.7	-90.2	12.0
2025-01-27 16:31:54.027944	114.0	18.8	-90.3	8.4
2025-01-27 16:31:55.195815	113.9	19.0	-90.3	9.2
2025-01-27 16:31:56.356125	113.8	19.1	-90.3	3.7
2025-01-27 16:31:57.512453	113.7	19.2	-90.9	2.5
2025-01-27 16:31:58.676572	113.6	19.4	-91.1	3.7
2025-01-27 16:31:59.840935	113.5	19.5	-90.3	1.7
2025-01-27 16:32:00.998237	113.4	19.6	-90.4	3.3
2025-01-27 16:32:02.167063	113.3	19.8	-90.3	2.2
2025-01-27 16:32:03.324822	113.2	19.9	-90.5	8.6
2025-01-27 16:32:04.490698	113.1	20.1	-90.9	8.8
2025-01-27 16:32:05.655779	113.0	20.2	-90.9	12.3
2025-01-27 16:32:06.821268	112.9	20.3	-91.0	3.1
2025-01-27 16:32:08.002093	112.8	20.5	-91.0	6.4
2025-01-27 16:32:09.167107	112.7	20.6	-90.7	7.1
2025-01-27 16:32:10.329019	112.6	20.8	-90.5	12.1
2025-01-27 16:32:11.499501	112.4	20.9	-90.6	7.5
2025-01-27 16:32:12.664703	112.3	21.1	-91.0	5.0
2025-01-27 16:32:13.824044	112.2	21.2	-90.6	1.8
2025-01-27 16:32:14.985020	112.1	21.4	-90.8	2.5
2025-01-27 16:32:16.159630	112.0	21.5	-90.7	2.1
2025-01-27 16:32:17.326469	111.9	21.7	-90.7	2.0
2025-01-27 16:32:18.484999	111.7	21.8	-90.8	4.0
2025-01-27 16:32:19.656525	111.6	22.0	-90.1	7.4
2025-01-27 16:32:20.821957	111.5	22.1	-90.2	7.3
2025-01-27 16:32:21.980505	111.4	22.3	-90.3	6.0
2025-01-27 16:32:23.135552	111.2	22.4	-90.5	7.0
2025-01-27 16:32:24.299739	111.1	22.6	-90.5	4.1
2025-01-27 16:32:25.462054	111.0	22.7	-90.5	9.7
2025-01-27 16:32:26.625581	110.9	22.9	-90.6	7.4
2025-01-27 16:32:27.793880	110.7	23.0	-90.7	13.1
2025-01-27 16:32:28.954668	110.6	23.2	-90.6	6.4
2025-01-27 16:32:30.120409	110.5	23.3	-90.3	5.1
2025-01-27 16:32:31.286790	110.3	23.5	-90.2	2.7
2025-01-27 16:32:32.455719	110.2	23.6	-90.2	2.5
2025-01-27 16:32:33.607807	110.1	23.8	-90.2	2.4
2025-01-27 16:32:34.771940	109.9	24.0	-90.0	2.5
2025-01-27 16:32:35.941384	109.8	24.1	-90.5	3.8
2025-01-27 16:32:37.107134	109.6	24.3	-90.4	3.6
2025-01-27 16:32:38.271166	109.5	24.4	-90.6	4.1
2025-01-27 16:32:39.434223	109.3	24.6	-90.9	2.9
2025-01-27 16:32:40.599660	109.2	24.8	-90.9	3.4
2025-01-27 16:32:41.768103	109.1	24.9	-90.8	2.1
2025-01-27 16:32:42.925928	108.9	25.1	-90.9	2.0
2025-01-27 16:32:44.094146	108.8	25.3	-90.3	5.5
2025-01-27 16:32:45.260506	108.6	25.4	-90.2	10.2
2025-01-27 16:32:46.426359	108.4	25.6	-91.0	4.4
2025-01-27 16:32:47.589804	108.3	25.8	-91.2	4.5
2025-01-27 16:32:48.753879	108.1	25.9	-91.0	0.9
2025-01-27 16:32:49.922903	108.0	26.1	-91.1	2.2
2025-01-27 16:32:51.081783	107.8	26.3	-90.7	2.4
2025-01-27 16:32:52.250839	107.6	26.4	-89.9	1.0
2025-01-27 16:32:53.415902	107.5	26.6	-90.2	2.2
2025-01-27 16:32:54.577516	107.3	26.8	-90.4	0.8
2025-01-27 16:32:55.731479	107.2	27.0	-90.4	0.7
2025-01-27 16:32:56.892064	107.0	27.1	-91.1	5.3
2025-01-27 16:32:58.054170	106.8	27.3	-90.7	3.1
2025-01-27 16:32:59.219373	106.6	27.5	-90.7	3.6
2025-01-27 16:33:00.377070	106.5	27.7	-90.9	4.8
2025-01-27 16:33:01.545810	106.3	27.8	-90.7	7.9
2025-01-27 16:33:02.712875	106.1	28.0	-90.5	9.1
2025-01-27 16:33:03.868980	105.9	28.2	-90.6	13.0
2025-01-27 16:33:05.035376	105.7	28.4	-90.6	7.1
2025-01-27 16:33:06.200852	105.6	28.6	-90.6	5.4
2025-01-27 16:33:07.370422	105.4	28.7	-91.1	2.4
2025-01-27 16:33:08.535841	105.2	28.9	-91.0	3.9
2025-01-27 16:33:09.699065	105.0	29.1	-91.1	2.2
2025-01-27 16:33:10.863028	104.8	29.3	-90.7	2.9
2025-01-27 16:33:12.027726	104.6	29.5	-90.9	8.4
2025-01-27 16:33:13.184868	104.4	29.7	-90.7	12.0
2025-01-27 16:33:14.348571	104.2	29.8	-90.7	8.8
2025-01-27 16:33:15.513452	104.0	30.0	-91.0	10.8
2025-01-27 16:33:16.678502	103.8	30.2	-90.9	7.1
2025-01-27 16:33:17.838163	103.6	30.4	-90.3	8.3
2025-01-27 16:33:19.000253	103.4	30.6	-90.8	9.4
2025-01-27 16:33:20.165038	103.1	30.8	-90.9	12.6
2025-01-27 16:33:21.325787	102.9	31.0	-90.6	17.9
2025-01-27 16:33:22.496612	102.7	31.2	-90.7	12.7
2025-01-27 16:33:23.654288	102.5	31.4	-90.5	13.5
2025-01-27 16:33:24.813368	102.3	31.6	-89.6	9.7
2025-01-27 16:33:25.960943	102.0	31.8	-90.1	8.9
2025-01-27 16:33:27.124774	101.8	31.9	-89.9	6.7
2025-01-27 16:33:28.292532	101.6	32.1	-90.0	0.3
2025-01-27 16:33:29.458117	101.3	32.3	-89.6	3.3
2025-01-27 16:33:30.623536	101.1	32.5	-90.0	4.9
2025-01-27 16:33:31.786895	100.9	32.7	-91.1	9.4
2025-01-27 16:33:32.951231	100.6	32.9	-90.6	12.6
2025-01-27 16:33:34.116921	100.4	33.1	-90.9	15.6
2025-01-27 16:33:35.269808	100.1	33.3	-90.5	15.6
2025-01-27 16:33:36.440628	99.9	33.5	-90.9	10.6
2025-01-27 16:33:37.594772	99.6	33.7	-90.8	8.1
2025-01-27 16:33:38.758574	99.4	33.9	-91.0	7.7
2025-01-27 16:33:39.932177	99.1	34.1	-91.1	15.7
2025-01-27 16:33:41.089896	98.8	34.3	-90.9	16.4
2025-01-27 16:33:42.250811	98.6	34.5	-91.0	14.6
2025-01-27 16:33:43.413802	98.3	34.8	-91.3	14.8
2025-01-27 16:33:44.576894	98.0	35.0	-91.2	12.4
2025-01-27 16:33:45.741304	97.7	35.2	-91.0	10.4
2025-01-27 16:33:46.903837	97.4	35.4	-91.1	9.0
2025-01-27 16:33:48.066145	97.2	35.6	-90.8	5.1
2025-01-27 16:33:49.234075	96.9	35.8	-90.6	1.5
2025-01-27 16:33:50.394453	96.6	36.0	-90.7	7.6
2025-01-27 16:33:51.561804	96.3	36.2	-90.7	8.9
2025-01-27 16:33:52.723069	96.0	36.4	-90.6	10.8
2025-01-27 16:33:53.887692	95.7	36.6	-91.0	14.9
2025-01-27 16:33:55.050974	95.4	36.8	-90.8	12.1
2025-01-27 16:33:56.214391	95.0	37.0	-91.0	12.4
2025-01-27 16:33:57.383867	94.7	37.2	-91.2	6.9
2025-01-27 16:33:58.540955	94.4	37.5	-91.2	7.3
2025-01-27 16:33:59.704164	94.1	37.7	-90.7	5.4
2025-01-27 16:34:00.859730	93.8	37.9	-91.0	5.8
2025-01-27 16:34:02.016647	93.4	38.1	-91.2	7.1
2025-01-27 16:34:03.193598	93.1	38.3	-91.0	6.8
2025-01-27 16:34:04.360958	92.7	38.5	-91.1	3.6
2025-01-27 16:34:05.524097	92.4	38.7	-91.2	6.3
2025-01-27 16:34:06.673736	92.0	38.9	-91.4	6.6
2025-01-27 16:34:07.830848	91.7	39.1	-90.9	6.6
2025-01-27 16:34:08.999450	91.3	39.4	-91.0	5.3
2025-01-27 16:34:10.159756	90.9	39.6	-90.7	5.7
2025-01-27 16:34:11.320490	90.6	39.8	-90.9	5.1
2025-01-27 16:34:12.489571	90.2	40.0	-90.4	6.2
2025-01-27 16:34:13.650401	89.8	40.2	-90.7	5.8
2025-01-27 16:34:14.816785	89.4	40.4	-90.3	8.0
2025-01-27 16:34:15.979877	89.0	40.6	-90.6	12.3
2025-01-27 16:34:17.142485	88.6	40.8	-91.0	13.0
2025-01-27 16:34:18.304433	88.2	41.0	-91.0	12.5
2025-01-27 16:34:19.465902	87.8	41.2	-90.8	8.2
2025-01-27 16:34:20.625963	87.4	41.5	-90.4	8.5
2025-01-27 16:34:21.791744	87.0	41.7	-90.5	3.4
2025-01-27 16:34:22.956331	86.6	41.9	-90.5	4.2
2025-01-27 16:34:24.117736	86.1	42.1	-90.1	6.6
2025-01-27 16:34:25.285290	85.7	42.3	-90.1	7.1
2025-01-27 16:34:26.452256	85.3	42.5	-90.1	10.8
2025-01-27 16:34:27.620064	84.8	42.7	-90.2	14.3
2025-01-27 16:34:28.790080	84.4	42.9	-90.6	15.9
2025-01-27 16:34:29.950578	83.9	43.1	-90.4	15.7
2025-01-27 16:34:31.117236	83.4	43.3	-90.2	13.1
2025-01-27 16:34:32.282440	83.0	43.5	-90.3	8.3
2025-01-27 16:34:33.441423	82.5	43.7	-90.2	5.7
2025-01-27 16:34:34.606412	82.0	43.9	-90.1	7.6
2025-01-27 16:34:35.779203	81.5	44.1	-90.4	3.6
2025-01-27 16:34:36.945157	81.0	44.3	-90.3	5.0
2025-01-27 16:34:38.107530	80.5	44.5	-90.4	4.6
2025-01-27 16:34:39.271762	80.0	44.7	-90.1	3.2
2025-01-27 16:34:40.431749	79.5	44.9	-90.3	5.8
2025-01-27 16:34:41.598541	79.0	45.1	-90.3	7.5
2025-01-27 16:34:42.762769	78.5	45.2	-90.1	9.3
2025-01-27 16:34:43.897477	78.0	45.4	-90.7	11.7
2025-01-27 16:34:45.018818	77.5	45.6	-91.1	13.7
2025-01-27 16:34:46.171957	76.9	45.8	-91.0	12.8
2025-01-27 16:34:47.338327	76.4	46.0	-90.4	7.0
2025-01-27 16:34:48.499900	75.8	46.1	-90.1	7.5
2025-01-27 16:34:49.665845	75.3	46.3	-90.9	9.0
2025-01-27 16:34:50.821883	74.7	46.5	-91.4	4.2
2025-01-27 16:34:51.987808	74.1	46.7	-91.1	7.5
2025-01-27 16:34:53.156148	73.5	46.8	-90.2	8.0
2025-01-27 16:34:54.321817	72.9	47.0	-90.4	6.0
2025-01-27 16:34:55.482383	72.4	47.2	-91.1	7.9
2025-01-27 16:34:56.645321	71.8	47.3	-90.8	11.8
2025-01-27 16:34:57.820084	71.1	47.5	-90.8	6.4
2025-01-27 16:34:58.984872	70.5	47.6	-91.0	5.4
2025-01-27 16:35:00.140786	69.9	47.8	-90.5	9.2
2025-01-27 16:35:01.298694	69.3	47.9	-90.4	6.2
2025-01-27 16:35:02.463844	68.7	48.1	-90.4	11.4
2025-01-27 16:35:03.618963	68.0	48.2	-90.3	5.4
2025-01-27 16:35:04.776104	67.4	48.3	-90.9	5.8
2025-01-27 16:35:05.942504	66.8	48.5	-90.7	4.9
2025-01-27 16:35:07.100716	66.1	48.6	-90.6	3.3
2025-01-27 16:35:08.264529	65.5	48.7	-90.5	2.1
2025-01-27 16:35:09.432023	64.8	48.9	-90.0	4.0
2025-01-27 16:35:10.595854	64.1	49.0	-90.4	2.0
2025-01-27 16:35:11.761465	63.5	49.1	-90.4	1.8
2025-01-27 16:35:12.921706	62.8	49.2	-90.3	3.5
2025-01-27 16:35:14.078537	62.1	49.3	-90.3	4.1
2025-01-27 16:35:15.243950	61.4	49.4	-90.6	4.5
2025-01-27 16:35:16.410633	60.7	49.5	-90.4	6.5
2025-01-27 16:35:17.580340	60.0	49.6	-90.4	5.1
2025-01-27 16:35:18.753603	59.3	49.7	-90.7	3.6
2025-01-27 16:35:19.919310	58.6	49.8	-90.7	5.3
2025-01-27 16:35:21.084007	57.9	49.9	-91.0	0.8
2025-01-27 16:35:22.251556	57.2	50.0	-91.1	3.6
2025-01-27 16:35:23.414682	56.5	50.0	-91.0	8.9
2025-01-27 16:35:24.574698	55.8	50.1	-90.5	7.0
2025-01-27 16:35:25.734143	55.0	50.2	-90.4	7.6
2025-01-27 16:35:26.899467	54.3	50.2	-90.5	6.0
2025-01-27 16:35:28.061608	53.6	50.3	-91.0	6.9
2025-01-27 16:35:29.224804	52.9	50.3	-91.1	3.1
2025-01-27 16:35:30.391240	52.1	50.4	-91.2	1.8
2025-01-27 16:35:31.559482	51.4	50.4	-91.0	6.0
2025-01-27 16:35:32.722592	50.7	50.4	-91.1	4.0
2025-01-27 16:35:33.883119	49.9	50.5	-91.1	4.7
2025-01-27 16:35:35.050898	49.2	50.5	-91.4	4.7
2025-01-27 16:35:36.213923	48.5	50.5	-91.0	3.5
2025-01-27 16:35:37.385494	47.7	50.5	-90.8	6.0
2025-01-27 16:35:38.547867	47.0	50.5	-91.0	5.0
2025-01-27 16:35:39.713465	46.2	50.5	-91.2	4.0
2025-01-27 16:35:40.879750	45.5	50.5	-91.0	4.9
2025-01-27 16:35:42.038979	44.7	50.5	-90.7	7.1
2025-01-27 16:35:43.206539	44.0	50.5	-91.0	5.1
2025-01-27 16:35:44.366206	43.3	50.5	-91.0	4.9
2025-01-27 16:35:45.528771	42.5	50.5	-91.0	7.5
2025-01-27 16:35:46.685970	41.8	50.4	-91.2	7.1
2025-01-27 16:35:47.843552	41.1	50.4	-91.2	8.8
2025-01-27 16:35:49.009362	40.3	50.4	-91.5	10.4
2025-01-27 16:35:50.180863	39.6	50.3	-91.1	8.7
2025-01-27 16:35:51.351367	38.9	50.3	-90.9	8.5
2025-01-27 16:35:52.511180	38.1	50.2	-91.5	13.5
2025-01-27 16:35:53.671788	37.4	50.2	-91.0	9.6
2025-01-27 16:35:54.828480	36.7	50.1	-90.8	13.3
2025-01-27 16:35:55.988500	36.0	50.1	-91.1	15.7
2025-01-27 16:35:57.149556	35.3	50.0	-90.9	10.6
2025-01-27 16:35:58.319824	34.6	49.9	-90.8	10.9
2025-01-27 16:35:59.483776	33.8	49.8	-90.5	14.3
2025-01-27 16:36:00.636564	33.1	49.7	-90.2	15.8
2025-01-27 16:36:01.796916	32.4	49.7	-90.5	14.1
2025-01-27 16:36:02.958099	31.8	49.6	-90.9	17.1
2025-01-27 16:36:04.118415	31.1	49.5	-90.9	15.3
2025-01-27 16:36:05.282724	30.4	49.4	-91.0	15.7
2025-01-27 16:36:06.447983	29.7	49.3	-91.1	12.8
2025-01-27 16:36:07.604697	29.0	49.2	-91.1	14.2
2025-01-27 16:36:08.761409	28.4	49.0	-91.2	17.3
2025-01-27 16:36:09.926163	27.7	48.9	-91.1	18.4
2025-01-27 16:36:11.088743	27.0	48.8	-91.0	15.8
2025-01-27 16:36:12.244599	26.4	48.7	-90.8	15.2
2025-01-27 16:36:13.413594	25.7	48.5	-90.3	14.5
2025-01-27 16:36:14.573137	25.1	48.4	-91.0	15.1
2025-01-27 16:36:15.740862	24.4	48.3	-91.4	12.8
2025-01-27 16:36:16.904585	23.8	48.1	-91.2	11.4
2025-01-27 16:36:18.063802	23.2	48.0	-91.4	11.8
2025-01-27 16:36:19.226815	22.5	47.9	-91.3	13.0
2025-01-27 16:36:20.394827	21.9	47.7	-91.2	14.0
2025-01-27 16:36:21.566563	21.3	47.5	-91.1	14.6
2025-01-27 16:36:22.723034	20.7	47.4	-90.9	15.2
2025-01-27 16:36:23.888758	20.1	47.2	-91.2	16.3
2025-01-27 16:36:25.056526	19.5	47.1	-91.2	13.6
2025-01-27 16:36:26.227208	18.9	46.9	-91.0	14.5
2025-01-27 16:36:27.392138	18.3	46.7	-91.1	14.2
2025-01-27 16:36:28.553813	17.8	46.6	-90.9	16.6
2025-01-27 16:36:29.716843	17.2	46.4	-90.8	16.6
2025-01-27 16:36:30.889867	16.6	46.2	-91.4	20.0
2025-01-27 16:36:32.051169	16.1	46.1	-91.0	20.0
2025-01-27 16:36:33.217551	15.5	45.9	-91.0	17.0
2025-01-27 16:36:34.377672	15.0	45.7	-91.1	19.4
2025-01-27 16:36:35.540045	14.5	45.5	-91.2	19.6
2025-01-27 16:36:36.705924	13.9	45.3	-90.9	17.0
2025-01-27 16:36:37.869683	13.4	45.1	-90.9	14.1
2025-01-27 16:36:39.045083	12.9	45.0	-91.4	16.3
2025-01-27 16:36:40.204141	12.4	44.8	-91.0	15.6
2025-01-27 16:36:41.367985	11.9	44.6	-91.5	15.3
2025-01-27 16:36:42.536763	11.4	44.4	-91.4	16.6
2025-01-27 16:36:43.697014	10.9	44.2	-90.9	9.5
2025-01-27 16:36:44.859305	10.4	44.0	-90.7	13.5
2025-01-27 16:36:46.033957	9.9	43.8	-91.0	14.6
2025-01-27 16:36:47.193158	9.4	43.6	-91.3	7.2
2025-01-27 16:36:48.356468	8.9	43.4	-91.4	11.1
2025-01-27 16:36:49.520719	8.5	43.2	-91.5	11.7
2025-01-27 16:36:50.678277	8.0	43.0	-91.3	9.4
2025-01-27 16:36:51.834113	7.6	42.8	-91.4	5.1
2025-01-27 16:36:52.996064	7.1	42.6	-91.3	10.0
2025-01-27 16:36:54.158149	6.7	42.4	-91.3	5.9
2025-01-27 16:36:55.322777	6.3	42.2	-91.2	5.4
2025-01-27 16:36:56.484408	5.8	42.0	-91.0	8.2
2025-01-27 16:36:57.655009	5.4	41.8	-91.0	9.0
2025-01-27 16:36:58.813678	5.0	41.6	-91.0	3.7
2025-01-27 16:36:59.976367	4.6	41.4	-91.0	8.1
2025-01-27 16:37:01.130914	4.2	41.2	-90.5	9.5
2025-01-27 16:37:02.284301	3.8	40.9	-91.0	3.3
2025-01-27 16:37:03.449173	3.4	40.7	-91.1	6.2
2025-01-27 16:37:04.606533	3.0	40.5	-90.9	9.3
2025-01-27 16:37:05.774473	2.6	40.3	-91.1	7.1
2025-01-27 16:37:06.934271	2.2	40.1	-91.3	10.3
2025-01-27 16:37:08.099547	1.8	39.9	-91.2	12.8
2025-01-27 16:37:09.265055	1.5	39.7	-91.1	14.1
2025-01-27 16:37:10.424173	1.1	39.5	-91.3	15.4
2025-01-27 16:37:11.582439	0.7	39.3	-91.4	18.1
2025-01-27 16:37:12.747785	0.4	39.1	-91.4	12.7
2025-01-27 16:37:13.914518	0.0	38.9	-91.0	16.2
2025-01-27 16:37:15.074471	359.7	38.6	-90.9	15.8
2025-01-27 16:37:16.240611	359.3	38.4	-90.9	14.8
2025-01-27 16:37:17.411825	359.0	38.2	-91.1	14.2
2025-01-27 16:37:18.571662	358.6	38.0	-91.2	10.0
2025-01-27 16:37:19.736076	358.3	37.8	-91.3	9.4
2025-01-27 16:37:20.904326	358.0	37.6	-91.4	8.4
2025-01-27 16:37:22.062130	357.7	37.4	-91.4	7.9
2025-01-27 16:37:23.224008	357.3	37.2	-91.1	5.5
2025-01-27 16:37:24.383177	357.0	37.0	-91.2	5.1
2025-01-27 16:37:25.546979	356.7	36.8	-90.9	7.3
2025-01-27 16:37:26.715806	356.4	36.6	-91.0	4.9
2025-01-27 16:37:27.880024	356.1	36.3	-90.7	4.0
2025-01-27 16:37:29.049378	355.8	36.1	-91.3	7.0
2025-01-27 16:37:30.211055	355.5	35.9	-90.9	4.8
2025-01-27 16:37:31.379997	355.2	35.7	-91.1	3.7
2025-01-27 16:37:32.542296	354.9	35.5	-91.0	8.3
2025-01-27 16:37:33.703773	354.7	35.3	-91.0	3.8
2025-01-27 16:37:34.864272	354.4	35.1	-91.0	7.9
2025-01-27 16:37:36.026779	354.1	34.9	-91.2	7.6
2025-01-27 16:37:37.191477	353.8	34.7	-91.0	8.5
2025-01-27 16:37:38.352824	353.6	34.5	-90.9	9.4
2025-01-27 16:37:39.519204	353.3	34.3	-90.9	8.5
2025-01-27 16:37:40.682795	353.0	34.1	-90.6	7.7
2025-01-27 16:37:41.847082	352.8	33.9	-90.6	12.6
2025-01-27 16:37:43.011140	352.5	33.7	-90.7	5.7
2025-01-27 16:37:44.177636	352.3	33.5	-90.6	4.8
2025-01-27 16:37:45.326219	352.0	33.3	-90.9	4.8
2025-01-27 16:37:46.493011	351.8	33.1	-90.7	4.6
2025-01-27 16:37:47.654997	351.5	32.9	-90.7	4.8
2025-01-27 16:37:48.820838	351.3	32.7	-90.6	1.9
2025-01-27 16:37:49.982968	351.0	32.5	-90.4	2.6
2025-01-27 16:37:51.146272	350.8	32.3	-90.4	5.2
2025-01-27 16:37:52.310134	350.6	32.1	-90.5	0.4
2025-01-27 16:37:53.472093	350.3	31.9	-90.7	4.4
2025-01-27 16:37:54.634887	350.1	31.7	-91.3	6.1
2025-01-27 16:37:55.792190	349.9	31.5	-91.3	7.9
2025-01-27 16:37:56.953560	349.7	31.3	-91.3	7.4
2025-01-27 16:37:58.121566	349.5	31.2	-91.1	5.5
2025-01-27 16:37:59.284209	349.2	31.0	-91.2	8.4
2025-01-27 16:38:00.442304	349.0	30.8	-90.8	7.0
2025-01-27 16:38:01.601277	348.8	30.6	-91.0	10.6
2025-01-27 16:38:02.764485	348.6	30.4	-90.7	4.7
2025-01-27 16:38:03.926259	348.4	30.2	-90.6	9.2
2025-01-27 16:38:05.101290	348.2	30.0	-90.5	13.5
2025-01-27 16:38:06.270419	348.0	29.8	-90.1	4.4
2025-01-27 16:38:07.431915	347.8	29.6	-90.1	4.4
2025-01-27 16:38:08.598359	347.6	29.5	-89.9	3.6
2025-01-27 16:38:09.762109	347.4	29.3	-91.1	1.8
2025-01-27 16:38:10.924114	347.2	29.1	-91.0	3.7
2025-01-27 16:38:12.088235	347.0	28.9	-91.3	6.3
2025-01-27 16:38:13.262849	346.8	28.7	-91.0	4.0
2025-01-27 16:38:14.426323	346.6	28.6	-91.1	7.0
2025-01-27 16:38:15.585392	346.5	28.4	-91.2	3.8
2025-01-27 16:38:16.750427	346.3	28.2	-91.7	3.0
2025-01-27 16:38:17.910061	346.1	28.0	-91.4	7.4
2025-01-27 16:38:19.076737	345.9	27.8	-91.2	2.8
2025-01-27 16:38:20.242008	345.7	27.7	-91.2	4.9
2025-01-27 16:38:21.407552	345.6	27.5	-91.2	6.8
2025-01-27 16:38:22.568933	345.4	27.3	-91.5	7.3
2025-01-27 16:38:23.736671	345.2	27.1	-91.5	4.8
2025-01-27 16:38:24.899767	345.1	27.0	-91.3	4.8
2025-01-27 16:38:26.062111	344.9	26.8	-91.0	7.9
2025-01-27 16:38:27.229887	344.7	26.6	-91.0	5.3
2025-01-27 16:38:28.390065	344.6	26.5	-90.8	3.8
2025-01-27 16:38:29.554430	344.4	26.3	-91.4	2.1
2025-01-27 16:38:30.713334	344.3	26.1	-90.9	5.4
2025-01-27 16:38:31.878423	344.1	26.0	-90.9	3.5
2025-01-27 16:38:33.040945	343.9	25.8	-91.1	10.2
2025-01-27 16:38:34.206594	343.8	25.6	-91.4	8.0
2025-01-27 16:38:35.370752	343.6	25.5	-91.2	7.2
2025-01-27 16:38:36.527528	343.5	25.3	-91.4	10.1
2025-01-27 16:38:37.694796	343.3	25.1	-91.5	4.9
2025-01-27 16:38:38.860772	343.2	25.0	-91.3	6.6
2025-01-27 16:38:40.022328	343.0	24.8	-91.2	3.6
2025-01-27 16:38:41.187947	342.9	24.6	-91.1	5.3
2025-01-27 16:38:42.352428	342.8	24.5	-91.4	4.0
2025-01-27 16:38:43.516112	342.6	24.3	-91.3	9.3
2025-01-27 16:38:44.675908	342.5	24.2	-91.2	6.3
2025-01-27 16:38:45.841439	342.3	24.0	-91.5	3.2
2025-01-27 16:38:47.004755	342.2	23.8	-91.3	4.6
2025-01-27 16:38:48.167159	342.1	23.7	-91.0	1.5
2025-01-27 16:38:49.332068	341.9	23.5	-91.2	9.8
2025-01-27 16:38:50.498337	341.8	23.4	-91.3	9.7
2025-01-27 16:38:51.658573	341.7	23.2	-91.4	9.2
2025-01-27 16:38:52.813622	341.5	23.1	-91.0	4.0
2025-01-27 16:38:53.978976	341.4	22.9	-91.6	6.3
2025-01-27 16:38:55.139566	341.3	22.8	-91.3	10.6
2025-01-27 16:38:56.308657	341.1	22.6	-91.3	1.5
2025-01-27 16:38:57.472034	341.0	22.5	-91.2	3.3
2025-01-27 16:38:58.639117	340.9	22.3	-91.3	4.4
2025-01-27 16:38:59.802957	340.8	22.2	-91.0	3.6
2025-01-27 16:39:00.956976	340.7	22.0	-90.4	6.3
2025-01-27 16:39:02.117078	340.5	21.9	-90.4	2.6
2025-01-27 16:39:03.284993	340.4	21.7	-90.4	3.3
2025-01-27 16:39:04.448569	340.3	21.6	-90.3	5.5
2025-01-27 16:39:05.609852	340.2	21.4	-90.6	6.7
2025-01-27 16:39:06.775416	340.1	21.3	-91.0	4.1
2025-01-27 16:39:07.946730	340.0	21.1	-90.7	7.1
2025-01-27 16:39:09.112413	339.8	21.0	-90.5	6.2
2025-01-27 16:39:10.274722	339.7	20.8	-90.4	5.6
2025-01-27 16:39:11.444980	339.6	20.7	-90.6	4.9
2025-01-27 16:39:12.604363	339.5	20.6	-90.5	4.1
2025-01-27 16:39:13.762738	339.4	20.4	-90.8	3.7
2025-01-27 16:39:14.922273	339.3	20.3	-90.7	2.9
2025-01-27 16:39:16.083043	339.2	20.1	-90.8	2.1
2025-01-27 16:39:17.246835	339.1	20.0	-91.0	3.2
2025-01-27 16:39:18.411649	339.0	19.9	-90.6	2.1
2025-01-27 16:39:19.572679	338.9	19.7	-91.0	1.8
2025-01-27 16:39:20.733863	338.8	19.6	-91.2	2.6
2025-01-27 16:39:21.998882	338.7	19.4	-91.0	0.7
2025-01-27 16:39:23.145966	338.6	19.3	-90.7	2.4
2025-01-27 16:39:24.294608	338.5	19.2	-90.3	6.1
2025-01-27 16:39:25.447045	338.4	19.0	-90.6	4.2
2025-01-27 16:39:26.612777	338.3	18.9	-90.7	2.9
2025-01-27 16:39:27.776252	338.2	18.8	-90.6	0.5
2025-01-27 16:39:28.943914	338.1	18.6	-90.5	2.4
2025-01-27 16:39:30.106150	338.0	18.5	-89.8	4.4
2025-01-27 16:39:31.274802	337.9	18.4	-90.2	2.0
2025-01-27 16:39:32.438434	337.8	18.2	-90.9	2.3
2025-01-27 16:39:33.603068	337.7	18.1	-90.7	1.9
2025-01-27 16:39:34.768054	337.6	18.0	-90.4	3.4
2025-01-27 16:39:35.922423	337.5	17.9	-89.9	5.4
2025-01-27 16:39:37.079968	337.4	17.7	-89.7	2.9
2025-01-27 16:39:38.243611	337.3	17.6	-89.7	3.9
2025-01-27 16:39:39.516162	337.2	17.5	-90.1	2.3
2025-01-27 16:39:40.677221	337.1	17.3	-90.0	2.0
2025-01-27 16:39:41.837701	337.0	17.2	-90.2	2.8
2025-01-27 16:39:42.996726	337.0	17.1	-90.7	1.0
2025-01-27 16:39:44.165006	336.9	17.0	-90.6	3.6
2025-01-27 16:39:45.321226	336.8	16.8	-90.4	1.3
2025-01-27 16:39:46.478604	336.7	16.7	-90.6	3.8
2025-01-27 16:39:47.646898	336.6	16.6	-90.8	3.8
2025-01-27 16:39:48.808575	336.5	16.5	-91.1	2.9
2025-01-27 16:39:49.958859	336.5	16.3	-90.7	2.1
2025-01-27 16:39:51.121202	336.4	16.2	-90.8	3.4
2025-01-27 16:39:52.284071	336.3	16.1	-90.7	6.2
2025-01-27 16:39:53.461306	336.2	16.0	-91.1	3.6
2025-01-27 16:39:54.629468	336.1	15.9	-91.1	7.3
2025-01-27 16:39:55.792615	336.1	15.7	-91.1	3.6
2025-01-27 16:39:56.957557	336.0	15.6	-91.0	2.0
2025-01-27 16:39:58.124895	335.9	15.5	-91.0	2.1
2025-01-27 16:39:59.289395	335.8	15.4	-91.0	3.5
2025-01-27 16:40:00.446636	335.7	15.3	-91.3	2.1
2025-01-27 16:40:01.604626	335.7	15.1	-91.1	3.0
2025-01-27 16:40:02.774649	335.6	15.0	-91.1	3.7
2025-01-27 16:40:03.939763	335.5	14.9	-91.0	3.9
2025-01-27 16:40:05.105739	335.4	14.8	-91.3	4.9
2025-01-27 16:40:06.267957	335.4	14.7	-91.0	8.7
2025-01-27 16:40:07.435716	335.3	14.6	-91.2	9.3
#Closed at: 2025-01-27 16:31:23.556474