passes_logs/2025/01/27/LEX_Murmansk/LEX_Murmansk__20250127_101455_NOAA_18_rec.log

#Pass ID: 20250127_101455_NOAA 18
#Satellite: NOAA 18
#Configuration: NOAA 18
#Start time: 2025-01-27 10:14:50.429892

#LorettStation: 1.0.0 05.05.2024
#Station: LEX_Murmansk
#Location: 33.156738 lon 68.926811 lat
#TLE: 1 28654U 05018A   25026.13466944  .00000433  00000+0  25315-3 0  9999
#TLE: 2 28654  98.8549 107.0777 0014815 148.4880 211.7182 14.13497478 14758

#Time	Az	El	Level	SNR
2025-01-27 10:15:02.681323	24.8	16.3	-91.1	8.4
2025-01-27 10:15:04.996057	24.8	16.6	-90.9	7.3
2025-01-27 10:15:07.307612	24.8	16.8	-90.4	6.6
2025-01-27 10:15:09.608258	24.8	17.1	-91.3	6.0
2025-01-27 10:15:11.919609	24.8	17.4	-91.1	8.1
2025-01-27 10:15:14.230605	24.7	17.6	-90.3	5.4
2025-01-27 10:15:16.531683	24.7	17.9	-91.0	7.4
2025-01-27 10:15:18.852703	24.7	18.2	-90.9	9.1
2025-01-27 10:15:21.158667	24.7	18.5	-91.1	8.0
2025-01-27 10:15:23.462506	24.6	18.7	-91.0	5.7
2025-01-27 10:15:25.763562	24.6	19.0	-91.2	9.7
2025-01-27 10:15:28.070608	24.6	19.3	-91.0	7.9
2025-01-27 10:15:30.379949	24.6	19.6	-91.0	8.0
2025-01-27 10:15:32.685975	24.5	19.9	-91.0	8.4
2025-01-27 10:15:34.999867	24.5	20.2	-91.4	11.9
2025-01-27 10:15:37.317728	24.5	20.5	-90.2	11.4
2025-01-27 10:15:39.622088	24.4	20.8	-90.7	7.0
2025-01-27 10:15:41.936753	24.4	21.1	-90.9	8.5
2025-01-27 10:15:44.246512	24.4	21.4	-90.8	11.8
2025-01-27 10:15:46.554093	24.3	21.7	-91.4	11.3
2025-01-27 10:15:48.858860	24.3	22.1	-91.2	13.2
2025-01-27 10:15:51.158711	24.3	22.4	-91.0	16.0
2025-01-27 10:15:53.468119	24.2	22.7	-91.2	11.1
2025-01-27 10:15:55.769312	24.2	23.0	-91.5	12.6
2025-01-27 10:15:58.087613	24.2	23.4	-90.9	11.0
2025-01-27 10:16:00.388563	24.1	23.7	-90.8	14.9
2025-01-27 10:16:02.698928	24.1	24.1	-91.1	16.0
2025-01-27 10:16:05.006794	24.1	24.4	-91.3	14.7
2025-01-27 10:16:07.324822	24.0	24.8	-91.0	14.0
2025-01-27 10:16:09.628663	24.0	25.1	-91.1	13.1
2025-01-27 10:16:11.930480	23.9	25.5	-91.4	12.2
2025-01-27 10:16:14.245157	23.9	25.9	-90.9	9.5
2025-01-27 10:16:16.553115	23.8	26.2	-90.9	11.2
2025-01-27 10:16:18.852790	23.8	26.6	-91.2	10.3
2025-01-27 10:16:21.161568	23.7	27.0	-91.3	11.6
2025-01-27 10:16:23.479495	23.7	27.4	-91.4	9.6
2025-01-27 10:16:25.797916	23.6	27.8	-91.8	10.0
2025-01-27 10:16:28.110300	23.6	28.2	-91.4	11.6
2025-01-27 10:16:30.429253	23.5	28.6	-91.2	10.6
2025-01-27 10:16:32.736177	23.5	29.0	-91.0	12.5
2025-01-27 10:16:35.039293	23.4	29.4	-91.3	13.1
2025-01-27 10:16:37.347449	23.3	29.9	-91.1	12.0
2025-01-27 10:16:39.662637	23.3	30.3	-91.5	11.0
2025-01-27 10:16:41.962442	23.2	30.7	-90.7	11.5
2025-01-27 10:16:44.265577	23.1	31.2	-89.9	11.4
2025-01-27 10:16:46.573424	23.1	31.6	-91.1	8.2
2025-01-27 10:16:48.876498	23.0	32.1	-91.5	13.2
2025-01-27 10:16:51.173914	22.9	32.6	-91.2	15.1
2025-01-27 10:16:53.476334	22.9	33.0	-91.4	11.6
2025-01-27 10:16:55.775795	22.8	33.5	-91.2	16.3
2025-01-27 10:16:58.093673	22.7	34.0	-91.1	14.6
2025-01-27 10:17:00.398329	22.6	34.5	-91.4	12.4
2025-01-27 10:17:02.715412	22.5	35.0	-91.3	16.0
2025-01-27 10:17:05.031100	22.4	35.5	-91.4	10.9
2025-01-27 10:17:07.340776	22.3	36.0	-91.5	17.5
2025-01-27 10:17:09.651979	22.3	36.6	-91.4	17.4
2025-01-27 10:17:11.967306	22.2	37.1	-91.3	14.0
2025-01-27 10:17:14.278093	22.0	37.7	-91.2	17.3
2025-01-27 10:17:16.592080	21.9	38.2	-91.1	15.7
2025-01-27 10:17:18.903181	21.8	38.8	-91.5	9.9
2025-01-27 10:17:21.207898	21.7	39.4	-91.2	17.2
2025-01-27 10:17:23.527566	21.6	40.0	-91.5	14.6
2025-01-27 10:17:25.838187	21.5	40.5	-91.0	18.2
2025-01-27 10:17:28.143468	21.3	41.1	-91.1	17.3
2025-01-27 10:17:30.450384	21.2	41.8	-91.4	15.8
2025-01-27 10:17:32.753970	21.1	42.4	-91.1	18.4
2025-01-27 10:17:35.059080	20.9	43.0	-91.2	19.6
2025-01-27 10:17:37.368423	20.8	43.7	-91.3	15.1
2025-01-27 10:17:39.703979	20.6	44.3	-91.2	16.5
2025-01-27 10:17:42.013675	20.4	45.0	-91.6	14.8
2025-01-27 10:17:44.324794	20.3	45.7	-91.3	17.8
2025-01-27 10:17:46.634790	20.1	46.4	-90.1	16.9
2025-01-27 10:17:48.949878	19.9	47.1	-90.7	13.2
2025-01-27 10:17:51.272508	19.7	47.8	-91.0	13.1
2025-01-27 10:17:53.575930	19.5	48.5	-91.4	19.5
2025-01-27 10:17:55.886983	19.2	49.3	-91.4	16.1
2025-01-27 10:17:58.192703	19.0	50.0	-91.2	17.0
2025-01-27 10:18:00.501507	18.8	50.8	-91.3	8.2
2025-01-27 10:18:02.807683	18.5	51.5	-91.1	11.4
2025-01-27 10:18:05.112094	18.2	52.3	-90.8	10.3
2025-01-27 10:18:07.423277	17.9	53.1	-91.3	15.0
2025-01-27 10:18:09.736318	17.6	53.9	-91.2	13.5
2025-01-27 10:18:12.051561	17.3	54.7	-91.4	10.4
2025-01-27 10:18:14.358924	17.0	55.6	-91.0	9.4
2025-01-27 10:18:16.665607	16.6	56.4	-91.5	11.1
2025-01-27 10:18:18.972167	16.2	57.3	-91.0	13.1
2025-01-27 10:18:21.279676	15.8	58.1	-91.2	17.3
2025-01-27 10:18:23.584432	15.4	59.0	-91.5	6.0
2025-01-27 10:18:25.896357	14.9	59.9	-91.5	9.9
2025-01-27 10:18:28.213288	14.4	60.8	-91.1	12.1
2025-01-27 10:18:30.518701	13.8	61.7	-91.1	18.1
2025-01-27 10:18:32.819648	13.2	62.7	-91.5	22.2
2025-01-27 10:18:35.128943	12.6	63.6	-91.0	17.4
2025-01-27 10:18:37.438454	11.9	64.5	-91.5	13.4
2025-01-27 10:18:39.750390	11.1	65.5	-91.3	14.1
2025-01-27 10:18:42.057451	10.3	66.4	-91.2	17.6
2025-01-27 10:18:44.373062	9.4	67.4	-91.5	19.8
2025-01-27 10:18:46.679162	8.4	68.4	-90.9	19.9
2025-01-27 10:18:48.990488	7.3	69.3	-91.1	12.3
2025-01-27 10:18:51.303751	6.1	70.3	-90.5	10.6
2025-01-27 10:18:53.615606	4.7	71.3	-90.5	9.8
2025-01-27 10:18:55.930818	3.2	72.3	-91.4	15.0
2025-01-27 10:18:58.232680	1.5	73.2	-90.8	19.7
2025-01-27 10:19:00.530331	359.6	74.2	-91.5	17.6
2025-01-27 10:19:02.825990	357.5	75.1	-91.2	15.9
2025-01-27 10:19:05.131410	355.0	76.1	-91.3	15.6
2025-01-27 10:19:07.440907	352.2	77.0	-91.2	16.0
2025-01-27 10:19:09.748200	348.9	77.8	-91.1	21.2
2025-01-27 10:19:12.048595	345.1	78.7	-91.1	16.0
2025-01-27 10:19:14.359264	340.8	79.5	-91.4	17.4
2025-01-27 10:19:16.679654	335.7	80.2	-91.5	22.4
2025-01-27 10:19:18.977480	329.9	80.8	-91.1	20.5
2025-01-27 10:19:21.276502	323.2	81.3	-91.2	25.2
2025-01-27 10:19:23.601117	315.8	81.8	-91.3	22.2
2025-01-27 10:19:25.919184	307.8	82.0	-91.4	24.0
2025-01-27 10:19:28.223315	299.4	82.1	-91.2	24.2
2025-01-27 10:19:30.540519	291.0	82.0	-91.2	20.6
2025-01-27 10:19:32.851828	283.0	81.8	-91.2	22.8
2025-01-27 10:19:35.170034	275.5	81.4	-90.9	21.3
2025-01-27 10:19:37.482881	268.8	80.8	-91.0	18.5
2025-01-27 10:19:39.798602	262.9	80.2	-91.4	21.3
2025-01-27 10:19:42.092837	257.9	79.5	-90.8	19.5
2025-01-27 10:19:44.396048	253.5	78.7	-91.4	17.4
2025-01-27 10:19:46.700331	249.7	77.9	-91.3	24.7
2025-01-27 10:19:49.007403	246.4	77.0	-91.4	16.8
2025-01-27 10:19:51.306178	243.5	76.1	-91.2	21.9
2025-01-27 10:19:53.618676	241.0	75.2	-91.3	19.7
2025-01-27 10:19:55.932346	238.9	74.2	-90.3	13.5
2025-01-27 10:19:58.243399	236.9	73.2	-90.8	22.4
2025-01-27 10:20:00.549252	235.2	72.3	-91.2	14.4
2025-01-27 10:20:02.855942	233.7	71.3	-91.5	15.8
2025-01-27 10:20:05.163184	232.4	70.3	-91.2	22.3
2025-01-27 10:20:07.456575	231.2	69.4	-91.5	15.2
2025-01-27 10:20:09.756647	230.1	68.4	-91.2	17.3
2025-01-27 10:20:12.063896	229.1	67.4	-91.1	12.1
2025-01-27 10:20:14.374382	228.2	66.4	-91.0	13.8
2025-01-27 10:20:16.681249	227.3	65.5	-91.2	18.2
2025-01-27 10:20:18.982547	226.6	64.5	-91.1	19.0
2025-01-27 10:20:21.283774	225.9	63.6	-91.3	22.8
2025-01-27 10:20:23.587666	225.2	62.7	-91.2	20.0
2025-01-27 10:20:25.883495	224.6	61.7	-91.7	22.0
2025-01-27 10:20:28.190450	224.1	60.8	-91.1	20.2
2025-01-27 10:20:30.501760	223.6	59.9	-91.1	22.8
2025-01-27 10:20:32.816626	223.1	59.0	-91.1	22.6
2025-01-27 10:20:35.134936	222.6	58.1	-91.0	22.3
2025-01-27 10:20:37.449309	222.2	57.3	-91.2	20.2
2025-01-27 10:20:39.754621	221.8	56.4	-91.4	23.4
2025-01-27 10:20:42.057550	221.5	55.6	-91.2	13.8
2025-01-27 10:20:44.365555	221.1	54.7	-91.1	14.2
2025-01-27 10:20:46.669027	220.8	53.9	-91.7	24.2
2025-01-27 10:20:48.974914	220.5	53.1	-91.1	12.6
2025-01-27 10:20:51.281618	220.2	52.3	-91.3	18.3
2025-01-27 10:20:53.600628	219.9	51.5	-91.2	17.5
2025-01-27 10:20:55.906890	219.7	50.7	-91.4	16.8
2025-01-27 10:20:58.216288	219.4	50.0	-90.3	15.7
2025-01-27 10:21:00.523552	219.2	49.2	-90.6	15.3
2025-01-27 10:21:02.838667	219.0	48.5	-91.1	15.1
2025-01-27 10:21:05.149590	218.7	47.7	-91.2	17.0
2025-01-27 10:21:07.462360	218.5	47.0	-91.4	13.1
2025-01-27 10:21:09.770172	218.3	46.3	-91.5	14.9
2025-01-27 10:21:12.073335	218.2	45.6	-91.4	8.6
2025-01-27 10:21:14.373077	218.0	44.9	-91.6	6.4
2025-01-27 10:21:16.684682	217.8	44.3	-91.6	11.4
2025-01-27 10:21:18.994905	217.7	43.6	-91.3	9.9
2025-01-27 10:21:21.298351	217.5	43.0	-91.4	11.5
2025-01-27 10:21:23.604205	217.4	42.3	-91.3	12.0
2025-01-27 10:21:25.925265	217.2	41.7	-91.7	10.0
2025-01-27 10:21:28.235750	217.1	41.1	-91.2	11.6
2025-01-27 10:21:30.547657	216.9	40.5	-91.2	7.8
2025-01-27 10:21:32.849376	216.8	39.9	-91.5	6.4
2025-01-27 10:21:35.147011	216.7	39.3	-91.2	9.3
2025-01-27 10:21:37.451935	216.6	38.7	-91.7	9.0
2025-01-27 10:21:39.759632	216.5	38.1	-91.5	9.8
2025-01-27 10:21:42.062808	216.4	37.6	-91.2	10.1
2025-01-27 10:21:44.365150	216.3	37.0	-91.5	9.8
2025-01-27 10:21:46.668800	216.2	36.5	-91.5	9.8
2025-01-27 10:21:48.973261	216.1	35.9	-91.5	8.8
2025-01-27 10:21:51.278122	216.0	35.4	-91.2	10.9
2025-01-27 10:21:53.578069	215.9	34.9	-91.3	8.0
2025-01-27 10:21:55.881940	215.8	34.4	-91.6	14.4
2025-01-27 10:21:58.198693	215.7	33.9	-91.6	12.4
2025-01-27 10:22:00.497538	215.6	33.4	-91.4	6.7
2025-01-27 10:22:02.803656	215.5	32.9	-90.3	9.7
2025-01-27 10:22:05.102577	215.5	32.4	-90.2	7.5
2025-01-27 10:22:07.424313	215.4	32.0	-91.7	9.1
2025-01-27 10:22:09.732989	215.3	31.5	-91.4	13.0
2025-01-27 10:22:12.033139	215.3	31.1	-91.6	13.5
2025-01-27 10:22:14.333293	215.2	30.6	-91.2	11.3
2025-01-27 10:22:16.651312	215.1	30.2	-91.4	10.1
2025-01-27 10:22:18.958629	215.1	29.7	-91.7	8.0
2025-01-27 10:22:21.268836	215.0	29.3	-91.6	5.4
2025-01-27 10:22:23.577142	214.9	28.9	-91.7	5.9
2025-01-27 10:22:25.888834	214.9	28.5	-91.8	8.3
2025-01-27 10:22:28.202419	214.8	28.1	-91.4	4.8
2025-01-27 10:22:30.516165	214.8	27.6	-91.6	6.4
2025-01-27 10:22:32.816554	214.7	27.3	-91.2	8.6
2025-01-27 10:22:35.129211	214.7	26.9	-91.7	9.5
2025-01-27 10:22:37.436336	214.6	26.5	-91.5	7.7
2025-01-27 10:22:39.741794	214.6	26.1	-91.8	8.2
2025-01-27 10:22:42.055258	214.5	25.7	-91.5	12.4
2025-01-27 10:22:44.368486	214.5	25.3	-91.5	11.2
2025-01-27 10:22:46.682090	214.4	25.0	-91.8	12.0
2025-01-27 10:22:48.996753	214.4	24.6	-91.2	10.5
2025-01-27 10:22:51.311561	214.3	24.3	-91.3	13.6
2025-01-27 10:22:53.634378	214.3	23.9	-91.5	11.7
2025-01-27 10:22:55.953938	214.2	23.5	-91.5	12.8
2025-01-27 10:22:58.270044	214.2	23.2	-91.2	12.8
2025-01-27 10:23:00.567072	214.2	22.9	-91.9	7.4
2025-01-27 10:23:02.876988	214.1	22.5	-91.3	6.9
2025-01-27 10:23:05.184130	214.1	22.2	-91.4	10.8
2025-01-27 10:23:07.491859	214.1	21.9	-91.0	8.9
2025-01-27 10:23:09.797381	214.0	21.6	-91.2	10.5
2025-01-27 10:23:12.109634	214.0	21.2	-91.8	9.1
2025-01-27 10:23:14.433681	214.0	20.9	-91.9	8.9
2025-01-27 10:23:16.730634	213.9	20.6	-91.6	10.8
2025-01-27 10:23:19.034362	213.9	20.3	-91.9	8.6
2025-01-27 10:23:21.339684	213.9	20.0	-91.3	9.6
2025-01-27 10:23:23.644015	213.8	19.7	-91.7	8.2
2025-01-27 10:23:25.959587	213.8	19.4	-91.8	7.6
2025-01-27 10:23:28.267530	213.8	19.1	-91.8	6.8
2025-01-27 10:23:30.578264	213.8	18.8	-91.6	5.2
2025-01-27 10:23:32.890247	213.7	18.6	-91.7	4.5
2025-01-27 10:23:35.188875	213.7	18.3	-91.8	6.3
2025-01-27 10:23:37.500134	213.7	18.0	-91.4	6.8
2025-01-27 10:23:39.805235	213.6	17.7	-90.4	7.7
2025-01-27 10:23:42.115225	213.6	17.4	-91.5	7.2
2025-01-27 10:23:44.429494	213.6	17.2	-91.9	6.5
2025-01-27 10:23:46.732807	213.6	16.9	-91.7	6.3
2025-01-27 10:23:49.056149	213.6	16.6	-91.5	5.7
2025-01-27 10:23:51.348893	213.5	16.4	-88.1	4.7
2025-01-27 10:23:53.660433	213.5	16.1	-91.8	5.5
2025-01-27 10:23:55.960835	213.5	15.9	-91.8	2.2
2025-01-27 10:23:58.265751	213.5	15.6	-91.7	5.1
2025-01-27 10:24:00.568422	213.4	15.4	-91.5	4.9
2025-01-27 10:24:02.885991	213.4	15.1	-91.8	4.9
2025-01-27 10:24:05.186991	213.4	14.9	-91.8	6.0
2025-01-27 10:24:07.487878	213.4	14.6	-91.8	5.2
#Closed at: 2025-01-27 10:14:55.479197