passes_logs/2025/01/27/LEX_Murmansk/LEX_Murmansk__20250127_165427_NOAA_18_rec.log

#Pass ID: 20250127_165427_NOAA 18
#Satellite: NOAA 18
#Configuration: NOAA 18
#Start time: 2025-01-27 16:54:22.699127

#LorettStation: 1.0.0 05.05.2024
#Station: LEX_Murmansk
#Location: 33.156738 lon 68.926811 lat
#TLE: 1 28654U 05018A   25027.12567402  .00000414  00000+0  24299-3 0  9999
#TLE: 2 28654  98.8547 108.0587 0014840 145.8119 214.4012 14.13498347 14893

#Time	Az	El	Level	SNR
2025-01-27 16:54:34.947233	94.1	16.1	-89.7	8.6
2025-01-27 16:54:36.112308	93.9	16.3	-90.2	7.2
2025-01-27 16:54:37.275139	93.8	16.4	-90.2	13.8
2025-01-27 16:54:38.435953	93.7	16.5	-90.4	9.7
2025-01-27 16:54:39.598425	93.5	16.6	-90.6	6.8
2025-01-27 16:54:40.761770	93.4	16.7	-90.5	11.8
2025-01-27 16:54:41.928275	93.3	16.8	-90.5	10.5
2025-01-27 16:54:43.092615	93.1	16.9	-90.4	9.6
2025-01-27 16:54:44.254295	93.0	17.0	-90.1	14.2
2025-01-27 16:54:45.419770	92.9	17.2	-90.2	6.4
2025-01-27 16:54:46.579101	92.7	17.3	-90.6	9.5
2025-01-27 16:54:47.743941	92.6	17.4	-90.7	8.2
2025-01-27 16:54:48.905043	92.5	17.5	-90.7	10.6
2025-01-27 16:54:50.070106	92.3	17.6	-90.4	6.1
2025-01-27 16:54:51.231024	92.2	17.7	-89.9	16.8
2025-01-27 16:54:52.399107	92.0	17.8	-90.4	15.1
2025-01-27 16:54:53.558175	91.9	18.0	-90.5	8.1
2025-01-27 16:54:54.723794	91.7	18.1	-90.8	8.5
2025-01-27 16:54:55.888328	91.6	18.2	-90.6	6.4
2025-01-27 16:54:57.056244	91.5	18.3	-90.3	7.9
2025-01-27 16:54:58.219876	91.3	18.4	-90.5	10.0
2025-01-27 16:54:59.380641	91.2	18.5	-90.7	9.3
2025-01-27 16:55:00.539867	91.0	18.7	-90.8	7.8
2025-01-27 16:55:01.703070	90.9	18.8	-91.2	7.9
2025-01-27 16:55:02.868188	90.7	18.9	-90.9	8.8
2025-01-27 16:55:04.033217	90.5	19.0	-90.7	15.1
2025-01-27 16:55:05.199774	90.4	19.1	-90.7	5.3
2025-01-27 16:55:06.355879	90.2	19.3	-90.5	6.0
2025-01-27 16:55:07.519355	90.1	19.4	-90.4	6.7
2025-01-27 16:55:08.683586	89.9	19.5	-90.7	11.6
2025-01-27 16:55:09.845461	89.8	19.6	-90.6	9.6
2025-01-27 16:55:11.008132	89.6	19.7	-90.9	12.2
2025-01-27 16:55:12.185559	89.4	19.9	-90.3	7.7
2025-01-27 16:55:13.348708	89.3	20.0	-90.2	10.9
2025-01-27 16:55:14.515499	89.1	20.1	-90.7	7.2
2025-01-27 16:55:15.679855	88.9	20.2	-90.7	11.1
2025-01-27 16:55:16.839713	88.8	20.3	-90.7	11.8
2025-01-27 16:55:18.001169	88.6	20.5	-90.8	8.2
2025-01-27 16:55:19.159099	88.4	20.6	-89.4	12.2
2025-01-27 16:55:20.328069	88.2	20.7	-90.2	13.5
2025-01-27 16:55:21.492475	88.1	20.8	-90.6	10.1
2025-01-27 16:55:22.657256	87.9	21.0	-90.1	13.0
2025-01-27 16:55:23.823755	87.7	21.1	-90.0	10.6
2025-01-27 16:55:24.988374	87.5	21.2	-90.2	9.7
2025-01-27 16:55:26.153953	87.4	21.3	-90.6	7.7
2025-01-27 16:55:27.319610	87.2	21.5	-90.7	13.4
2025-01-27 16:55:28.478899	87.0	21.6	-90.7	13.6
2025-01-27 16:55:29.639637	86.8	21.7	-90.6	10.2
2025-01-27 16:55:30.804002	86.6	21.8	-90.4	12.3
2025-01-27 16:55:31.971844	86.4	22.0	-90.6	8.7
2025-01-27 16:55:33.136404	86.2	22.1	-90.5	8.6
2025-01-27 16:55:34.305619	86.1	22.2	-90.7	7.2
2025-01-27 16:55:35.468670	85.9	22.4	-90.4	8.3
2025-01-27 16:55:36.629819	85.7	22.5	-90.2	10.1
2025-01-27 16:55:37.798251	85.5	22.6	-89.9	9.6
2025-01-27 16:55:38.953136	85.3	22.7	-90.3	7.1
2025-01-27 16:55:40.116887	85.1	22.9	-90.7	10.2
2025-01-27 16:55:41.276942	84.9	23.0	-90.5	9.1
2025-01-27 16:55:42.436450	84.7	23.1	-90.5	7.1
2025-01-27 16:55:43.598721	84.5	23.3	-90.3	6.7
2025-01-27 16:55:44.763118	84.3	23.4	-90.2	6.9
2025-01-27 16:55:45.921065	84.1	23.5	-90.3	9.2
2025-01-27 16:55:47.087190	83.9	23.6	-90.0	7.6
2025-01-27 16:55:48.244864	83.6	23.8	-89.7	5.5
2025-01-27 16:55:49.407272	83.4	23.9	-89.9	7.7
2025-01-27 16:55:50.568629	83.2	24.0	-90.5	7.8
2025-01-27 16:55:51.731918	83.0	24.2	-90.7	9.3
2025-01-27 16:55:52.900400	82.8	24.3	-90.9	6.2
2025-01-27 16:55:54.059059	82.6	24.4	-90.7	7.6
2025-01-27 16:55:55.225017	82.3	24.6	-90.8	6.8
2025-01-27 16:55:56.386993	82.1	24.7	-90.7	5.8
2025-01-27 16:55:57.552496	81.9	24.8	-90.5	6.9
2025-01-27 16:55:58.710395	81.7	25.0	-90.8	7.7
2025-01-27 16:55:59.869240	81.4	25.1	-90.7	6.1
2025-01-27 16:56:01.023748	81.2	25.2	-91.0	7.8
2025-01-27 16:56:02.185179	81.0	25.4	-90.6	7.0
2025-01-27 16:56:03.350293	80.7	25.5	-91.0	5.8
2025-01-27 16:56:04.517774	80.5	25.6	-90.7	5.7
2025-01-27 16:56:05.682324	80.3	25.8	-90.9	5.6
2025-01-27 16:56:06.842372	80.0	25.9	-90.7	5.8
2025-01-27 16:56:08.010905	79.8	26.0	-90.9	5.9
2025-01-27 16:56:09.171045	79.5	26.2	-90.4	7.5
2025-01-27 16:56:10.339270	79.3	26.3	-90.4	7.4
2025-01-27 16:56:11.503974	79.0	26.4	-90.2	7.9
2025-01-27 16:56:12.669203	78.8	26.6	-90.7	8.5
2025-01-27 16:56:13.828025	78.5	26.7	-91.1	8.1
2025-01-27 16:56:14.983941	78.3	26.8	-90.8	3.5
2025-01-27 16:56:16.149083	78.0	27.0	-90.6	8.5
2025-01-27 16:56:17.311310	77.8	27.1	-90.7	9.9
2025-01-27 16:56:18.474424	77.5	27.2	-90.8	7.7
2025-01-27 16:56:19.640866	77.2	27.4	-90.9	9.2
2025-01-27 16:56:20.804509	77.0	27.5	-91.1	9.3
2025-01-27 16:56:21.964052	76.7	27.6	-90.8	9.9
2025-01-27 16:56:23.110271	76.4	27.8	-90.8	9.7
2025-01-27 16:56:24.238306	76.2	27.9	-90.6	8.8
2025-01-27 16:56:25.358569	75.9	28.0	-91.0	7.5
2025-01-27 16:56:26.478316	75.6	28.1	-91.1	6.5
2025-01-27 16:56:27.598594	75.3	28.3	-91.1	9.5
2025-01-27 16:56:28.719962	75.1	28.4	-91.1	10.8
2025-01-27 16:56:29.841179	74.8	28.5	-90.7	8.4
2025-01-27 16:56:30.963193	74.5	28.7	-90.7	9.9
2025-01-27 16:56:32.083892	74.2	28.8	-90.6	12.5
2025-01-27 16:56:33.208407	74.0	28.9	-90.7	12.7
2025-01-27 16:56:34.341423	73.7	29.0	-90.3	12.5
2025-01-27 16:56:35.506278	73.4	29.2	-90.5	7.7
2025-01-27 16:56:36.665955	73.1	29.3	-90.3	9.6
2025-01-27 16:56:37.830527	72.8	29.4	-90.5	6.3
2025-01-27 16:56:38.987459	72.5	29.6	-90.7	6.8
2025-01-27 16:56:40.144549	72.2	29.7	-90.5	11.5
2025-01-27 16:56:41.308015	71.9	29.8	-90.7	12.7
2025-01-27 16:56:42.471421	71.5	29.9	-90.7	13.0
2025-01-27 16:56:43.639109	71.2	30.1	-90.8	15.2
2025-01-27 16:56:44.807275	70.9	30.2	-90.7	19.1
2025-01-27 16:56:45.963589	70.6	30.3	-90.7	16.5
2025-01-27 16:56:47.127065	70.3	30.5	-90.7	13.9
2025-01-27 16:56:48.287382	70.0	30.6	-90.4	10.4
2025-01-27 16:56:49.447100	69.6	30.7	-90.3	9.6
2025-01-27 16:56:50.612866	69.3	30.8	-90.6	14.6
2025-01-27 16:56:51.781256	69.0	31.0	-90.5	10.6
2025-01-27 16:56:52.946748	68.6	31.1	-91.0	15.9
2025-01-27 16:56:54.111041	68.3	31.2	-90.8	13.5
2025-01-27 16:56:55.273329	67.9	31.3	-90.4	16.5
2025-01-27 16:56:56.437085	67.6	31.5	-90.9	15.2
2025-01-27 16:56:57.598416	67.3	31.6	-91.2	14.2
2025-01-27 16:56:58.765097	66.9	31.7	-90.6	13.3
2025-01-27 16:56:59.914492	66.6	31.8	-91.1	11.9
2025-01-27 16:57:01.038785	66.2	31.9	-91.4	12.2
2025-01-27 16:57:02.199472	65.9	32.1	-91.1	16.0
2025-01-27 16:57:03.343719	65.5	32.2	-91.4	17.6
2025-01-27 16:57:04.506479	65.2	32.3	-91.2	12.1
2025-01-27 16:57:05.674169	64.8	32.4	-91.3	14.5
2025-01-27 16:57:06.839363	64.4	32.5	-91.1	13.8
2025-01-27 16:57:08.006039	64.1	32.7	-91.1	13.4
2025-01-27 16:57:09.158679	63.7	32.8	-91.0	15.9
2025-01-27 16:57:10.314029	63.3	32.9	-90.6	13.6
2025-01-27 16:57:11.478024	62.9	33.0	-91.0	17.6
2025-01-27 16:57:12.642716	62.6	33.1	-91.2	16.0
2025-01-27 16:57:13.808178	62.2	33.2	-91.5	15.9
2025-01-27 16:57:14.973461	61.8	33.3	-91.2	15.1
2025-01-27 16:57:16.138271	61.4	33.4	-91.1	16.2
2025-01-27 16:57:17.310703	61.0	33.5	-90.9	17.4
2025-01-27 16:57:18.472767	60.6	33.7	-90.9	12.6
2025-01-27 16:57:19.632454	60.2	33.8	-91.2	16.4
2025-01-27 16:57:20.800171	59.8	33.9	-91.4	17.0
2025-01-27 16:57:21.959501	59.4	34.0	-91.2	15.2
2025-01-27 16:57:23.124225	59.0	34.1	-90.8	15.9
2025-01-27 16:57:24.287835	58.6	34.2	-90.8	17.5
2025-01-27 16:57:25.444910	58.2	34.3	-91.5	18.6
2025-01-27 16:57:26.610841	57.8	34.4	-91.5	18.8
2025-01-27 16:57:27.771384	57.4	34.5	-91.3	16.8
2025-01-27 16:57:28.936256	57.0	34.6	-91.3	10.7
2025-01-27 16:57:30.101230	56.6	34.6	-91.1	13.7
2025-01-27 16:57:31.267275	56.1	34.7	-91.0	16.8
2025-01-27 16:57:32.430911	55.7	34.8	-91.1	9.6
2025-01-27 16:57:33.590389	55.3	34.9	-91.0	10.8
2025-01-27 16:57:34.757847	54.9	35.0	-90.9	15.4
2025-01-27 16:57:35.920158	54.4	35.1	-91.0	8.2
2025-01-27 16:57:37.083013	54.0	35.2	-91.0	10.5
2025-01-27 16:57:38.250748	53.6	35.3	-90.9	15.1
2025-01-27 16:57:39.416489	53.1	35.3	-90.8	10.7
2025-01-27 16:57:40.573866	52.7	35.4	-91.2	15.5
2025-01-27 16:57:41.743871	52.2	35.5	-90.9	17.1
2025-01-27 16:57:42.912747	51.8	35.6	-90.9	18.1
2025-01-27 16:57:44.070285	51.4	35.6	-91.3	18.3
2025-01-27 16:57:45.233059	50.9	35.7	-90.9	18.2
2025-01-27 16:57:46.396484	50.5	35.8	-91.0	13.8
2025-01-27 16:57:47.552615	50.0	35.8	-90.7	14.3
2025-01-27 16:57:48.716513	49.6	35.9	-91.0	14.6
2025-01-27 16:57:49.880252	49.1	36.0	-91.5	11.6
2025-01-27 16:57:51.043513	48.7	36.0	-91.5	10.0
2025-01-27 16:57:52.207413	48.2	36.1	-91.2	17.2
2025-01-27 16:57:53.364985	47.7	36.2	-91.2	15.9
2025-01-27 16:57:54.524351	47.3	36.2	-91.3	10.6
2025-01-27 16:57:55.684334	46.8	36.3	-90.9	17.1
2025-01-27 16:57:56.850661	46.4	36.3	-90.9	15.6
2025-01-27 16:57:58.016215	45.9	36.4	-91.4	12.4
2025-01-27 16:57:59.181654	45.4	36.4	-91.3	17.7
2025-01-27 16:58:00.331825	45.0	36.5	-90.9	16.8
2025-01-27 16:58:01.491171	44.5	36.5	-91.0	15.3
2025-01-27 16:58:02.656003	44.0	36.6	-91.2	15.3
2025-01-27 16:58:03.821067	43.6	36.6	-91.2	15.4
2025-01-27 16:58:04.989459	43.1	36.6	-90.7	17.8
2025-01-27 16:58:06.158059	42.6	36.7	-90.4	15.7
2025-01-27 16:58:07.325903	42.1	36.7	-90.2	17.6
2025-01-27 16:58:08.490515	41.6	36.7	-90.4	15.7
2025-01-27 16:58:09.651203	41.2	36.8	-90.5	14.8
2025-01-27 16:58:10.816935	40.7	36.8	-90.6	16.5
2025-01-27 16:58:11.976757	40.2	36.8	-90.7	11.5
2025-01-27 16:58:13.145249	39.7	36.8	-90.1	15.9
2025-01-27 16:58:14.309322	39.3	36.8	-90.4	16.4
2025-01-27 16:58:15.476649	38.8	36.9	-90.8	10.8
2025-01-27 16:58:16.638385	38.3	36.9	-91.0	12.0
2025-01-27 16:58:17.803264	37.8	36.9	-90.4	17.5
2025-01-27 16:58:18.970414	37.3	36.9	-90.4	10.6
2025-01-27 16:58:20.127273	36.8	36.9	-90.6	13.3
2025-01-27 16:58:21.294904	36.4	36.9	-90.8	13.3
2025-01-27 16:58:22.457795	35.9	36.9	-90.0	9.9
2025-01-27 16:58:23.620294	35.4	36.9	-90.7	15.5
2025-01-27 16:58:24.786486	34.9	36.9	-91.0	14.2
2025-01-27 16:58:25.951256	34.4	36.9	-90.6	12.2
2025-01-27 16:58:27.120657	34.0	36.9	-90.6	12.5
2025-01-27 16:58:28.280845	33.5	36.9	-91.3	15.4
2025-01-27 16:58:29.444890	33.0	36.9	-91.2	11.3
2025-01-27 16:58:30.598765	32.5	36.9	-91.0	10.4
2025-01-27 16:58:31.758961	32.0	36.9	-91.2	15.4
2025-01-27 16:58:32.922127	31.6	36.8	-91.0	10.2
2025-01-27 16:58:34.089267	31.1	36.8	-90.7	15.0
2025-01-27 16:58:35.249258	30.6	36.8	-90.7	14.2
2025-01-27 16:58:36.416579	30.1	36.8	-90.4	10.0
2025-01-27 16:58:37.578037	29.6	36.8	-90.9	12.7
2025-01-27 16:58:38.740317	29.2	36.7	-90.9	17.0
2025-01-27 16:58:39.902555	28.7	36.7	-91.4	15.3
2025-01-27 16:58:41.063601	28.2	36.7	-90.9	16.2
2025-01-27 16:58:42.228723	27.7	36.6	-90.9	15.0
2025-01-27 16:58:43.386258	27.3	36.6	-91.0	15.8
2025-01-27 16:58:44.552773	26.8	36.5	-91.5	18.6
2025-01-27 16:58:45.716557	26.3	36.5	-91.5	13.6
2025-01-27 16:58:46.883202	25.9	36.5	-91.0	15.6
2025-01-27 16:58:48.048297	25.4	36.4	-90.9	14.8
2025-01-27 16:58:49.213979	24.9	36.4	-91.1	15.4
2025-01-27 16:58:50.376342	24.5	36.3	-91.0	14.9
2025-01-27 16:58:51.538099	24.0	36.3	-91.3	7.8
2025-01-27 16:58:52.704716	23.5	36.2	-91.2	13.6
2025-01-27 16:58:53.874215	23.1	36.1	-91.2	12.3
2025-01-27 16:58:55.033271	22.6	36.1	-90.8	16.9
2025-01-27 16:58:56.194480	22.2	36.0	-90.8	19.7
2025-01-27 16:58:57.359680	21.7	36.0	-90.9	16.9
2025-01-27 16:58:58.523754	21.2	35.9	-90.8	16.0
2025-01-27 16:58:59.688195	20.8	35.8	-91.2	9.7
2025-01-27 16:59:00.847161	20.3	35.8	-91.3	12.5
2025-01-27 16:59:02.006509	19.9	35.7	-91.6	9.7
2025-01-27 16:59:03.174270	19.4	35.6	-91.2	9.9
2025-01-27 16:59:04.336315	19.0	35.6	-91.0	15.9
2025-01-27 16:59:05.504539	18.6	35.5	-91.3	16.2
2025-01-27 16:59:06.668143	18.1	35.4	-91.2	15.2
2025-01-27 16:59:07.835659	17.7	35.3	-91.2	11.6
2025-01-27 16:59:09.001145	17.2	35.2	-91.1	8.5
2025-01-27 16:59:10.155156	16.8	35.2	-90.7	11.3
2025-01-27 16:59:11.321737	16.4	35.1	-90.9	18.7
2025-01-27 16:59:12.478185	16.0	35.0	-91.3	12.7
2025-01-27 16:59:13.637644	15.5	34.9	-91.4	15.7
2025-01-27 16:59:14.795880	15.1	34.8	-90.9	11.3
2025-01-27 16:59:15.960661	14.7	34.7	-91.5	12.5
2025-01-27 16:59:17.122848	14.3	34.6	-91.3	12.5
2025-01-27 16:59:18.290037	13.8	34.5	-91.2	12.9
2025-01-27 16:59:19.456054	13.4	34.4	-91.1	15.5
2025-01-27 16:59:20.614762	13.0	34.3	-91.2	12.8
2025-01-27 16:59:21.778663	12.6	34.2	-90.1	15.0
2025-01-27 16:59:22.940237	12.2	34.1	-90.3	15.6
2025-01-27 16:59:24.103984	11.8	34.0	-90.0	15.4
2025-01-27 16:59:25.269572	11.4	33.9	-90.4	17.7
2025-01-27 16:59:26.436752	11.0	33.8	-90.2	16.0
2025-01-27 16:59:27.601410	10.6	33.7	-91.4	15.7
2025-01-27 16:59:28.768604	10.2	33.6	-91.2	17.2
2025-01-27 16:59:29.924605	9.8	33.5	-90.9	11.8
2025-01-27 16:59:31.079802	9.4	33.4	-91.1	16.1
2025-01-27 16:59:32.243967	9.0	33.3	-91.0	11.4
2025-01-27 16:59:33.407899	8.6	33.2	-91.2	12.1
2025-01-27 16:59:34.572780	8.3	33.1	-91.4	10.8
2025-01-27 16:59:35.736983	7.9	33.0	-91.1	9.7
2025-01-27 16:59:36.898747	7.5	32.9	-91.1	8.9
2025-01-27 16:59:38.056153	7.1	32.7	-91.1	14.1
2025-01-27 16:59:39.217565	6.8	32.6	-91.1	10.6
2025-01-27 16:59:40.375757	6.4	32.5	-91.4	11.6
2025-01-27 16:59:41.544253	6.0	32.4	-91.4	14.2
2025-01-27 16:59:42.708241	5.7	32.3	-91.4	17.5
2025-01-27 16:59:43.875646	5.3	32.2	-91.1	10.4
2025-01-27 16:59:45.035488	4.9	32.0	-90.8	11.1
2025-01-27 16:59:46.199044	4.6	31.9	-90.8	14.9
2025-01-27 16:59:47.366121	4.2	31.8	-91.0	12.0
2025-01-27 16:59:48.527082	3.9	31.7	-90.6	9.6
2025-01-27 16:59:49.689893	3.5	31.6	-91.0	9.8
2025-01-27 16:59:50.846227	3.2	31.4	-91.4	7.9
2025-01-27 16:59:52.007880	2.8	31.3	-91.4	6.2
2025-01-27 16:59:53.169122	2.5	31.2	-91.1	6.0
2025-01-27 16:59:54.324603	2.2	31.1	-91.2	8.9
2025-01-27 16:59:55.480840	1.8	30.9	-91.3	3.3
2025-01-27 16:59:56.648793	1.5	30.8	-91.5	10.3
2025-01-27 16:59:57.812971	1.2	30.7	-91.5	10.3
2025-01-27 16:59:58.977963	0.9	30.6	-91.4	5.6
2025-01-27 17:00:00.135209	0.5	30.4	-91.1	8.1
2025-01-27 17:00:01.292971	0.2	30.3	-90.8	10.4
2025-01-27 17:00:02.454856	359.9	30.2	-91.3	8.8
2025-01-27 17:00:03.618215	359.6	30.0	-91.2	8.5
2025-01-27 17:00:04.782250	359.3	29.9	-91.4	10.3
2025-01-27 17:00:05.946897	358.9	29.8	-91.0	7.2
2025-01-27 17:00:07.104272	358.6	29.7	-91.1	12.6
2025-01-27 17:00:08.273753	358.3	29.5	-90.9	9.9
2025-01-27 17:00:09.431395	358.0	29.4	-91.1	9.8
2025-01-27 17:00:10.590939	357.7	29.3	-90.9	11.9
2025-01-27 17:00:11.756666	357.4	29.1	-91.8	9.5
2025-01-27 17:00:12.920923	357.1	29.0	-91.3	15.1
2025-01-27 17:00:14.084297	356.8	28.9	-91.1	14.2
2025-01-27 17:00:15.252157	356.5	28.7	-91.0	7.4
2025-01-27 17:00:16.406367	356.3	28.6	-90.9	11.6
2025-01-27 17:00:17.575180	356.0	28.5	-91.0	16.0
2025-01-27 17:00:18.739155	355.7	28.3	-90.7	15.9
2025-01-27 17:00:19.905203	355.4	28.2	-90.9	11.5
2025-01-27 17:00:21.061691	355.1	28.1	-91.1	11.6
2025-01-27 17:00:22.228750	354.8	27.9	-91.2	7.9
2025-01-27 17:00:23.392328	354.6	27.8	-91.3	10.3
2025-01-27 17:00:24.545647	354.3	27.7	-91.0	7.9
2025-01-27 17:00:25.705387	354.0	27.5	-91.3	11.4
2025-01-27 17:00:26.875726	353.8	27.4	-91.3	7.4
2025-01-27 17:00:28.042676	353.5	27.3	-91.5	5.3
2025-01-27 17:00:29.197268	353.2	27.1	-91.3	5.9
2025-01-27 17:00:30.358643	353.0	27.0	-91.1	7.0
2025-01-27 17:00:31.519697	352.7	26.9	-91.3	6.8
2025-01-27 17:00:32.687470	352.5	26.7	-91.4	6.0
2025-01-27 17:00:33.845664	352.2	26.6	-91.5	10.0
2025-01-27 17:00:35.008714	351.9	26.5	-91.0	8.3
2025-01-27 17:00:36.170123	351.7	26.3	-90.9	7.8
2025-01-27 17:00:37.337102	351.4	26.2	-91.1	11.1
2025-01-27 17:00:38.501035	351.2	26.1	-91.1	14.0
2025-01-27 17:00:39.661429	351.0	25.9	-91.5	15.6
2025-01-27 17:00:40.824590	350.7	25.8	-91.5	7.7
2025-01-27 17:00:41.984647	350.5	25.7	-91.4	12.9
2025-01-27 17:00:43.146014	350.2	25.5	-91.1	10.9
2025-01-27 17:00:44.303567	350.0	25.4	-91.3	9.9
2025-01-27 17:00:45.467844	349.8	25.3	-91.3	6.7
2025-01-27 17:00:46.633553	349.5	25.1	-91.2	12.5
2025-01-27 17:00:47.794324	349.3	25.0	-91.2	18.5
2025-01-27 17:00:48.955498	349.1	24.9	-91.3	7.7
2025-01-27 17:00:50.122291	348.8	24.7	-90.9	10.8
2025-01-27 17:00:51.269824	348.6	24.6	-90.8	6.5
2025-01-27 17:00:52.437060	348.4	24.5	-91.0	5.0
2025-01-27 17:00:53.595359	348.2	24.3	-91.3	4.2
2025-01-27 17:00:54.758515	348.0	24.2	-91.4	11.1
2025-01-27 17:00:55.917760	347.7	24.1	-91.1	11.3
2025-01-27 17:00:57.078657	347.5	23.9	-90.8	9.6
2025-01-27 17:00:58.246420	347.3	23.8	-91.3	14.6
2025-01-27 17:00:59.409014	347.1	23.7	-91.2	9.0
2025-01-27 17:01:00.560590	346.9	23.6	-91.2	14.3
2025-01-27 17:01:01.725936	346.7	23.4	-91.4	11.3
2025-01-27 17:01:02.893064	346.5	23.3	-91.3	8.6
2025-01-27 17:01:04.056563	346.3	23.2	-91.2	11.4
2025-01-27 17:01:05.224571	346.1	23.0	-91.1	6.3
2025-01-27 17:01:06.389563	345.9	22.9	-90.5	10.4
2025-01-27 17:01:07.558069	345.7	22.8	-91.0	12.1
2025-01-27 17:01:08.721619	345.5	22.6	-90.9	15.8
2025-01-27 17:01:09.876726	345.3	22.5	-91.0	7.8
2025-01-27 17:01:11.040189	345.1	22.4	-91.3	8.4
2025-01-27 17:01:12.196609	344.9	22.3	-91.0	15.6
2025-01-27 17:01:13.360099	344.7	22.1	-91.0	5.7
2025-01-27 17:01:14.524838	344.5	22.0	-90.9	8.2
2025-01-27 17:01:15.692204	344.3	21.9	-91.0	13.2
2025-01-27 17:01:16.855030	344.1	21.7	-90.9	13.0
2025-01-27 17:01:18.016155	343.9	21.6	-90.7	8.0
2025-01-27 17:01:19.182277	343.8	21.5	-89.7	12.0
2025-01-27 17:01:20.342187	343.6	21.4	-90.0	10.9
2025-01-27 17:01:21.502719	343.4	21.2	-90.4	8.4
2025-01-27 17:01:22.664305	343.2	21.1	-90.4	13.1
2025-01-27 17:01:23.825254	343.0	21.0	-89.8	12.3
2025-01-27 17:01:24.986261	342.9	20.9	-89.7	11.5
2025-01-27 17:01:26.157174	342.7	20.7	-89.7	6.0
2025-01-27 17:01:27.317179	342.5	20.6	-89.8	6.7
2025-01-27 17:01:28.479733	342.4	20.5	-89.8	7.3
2025-01-27 17:01:29.636063	342.2	20.4	-90.3	3.5
2025-01-27 17:01:30.793156	342.0	20.3	-89.9	8.0
2025-01-27 17:01:31.950850	341.8	20.1	-90.2	4.7
2025-01-27 17:01:33.112081	341.7	20.0	-90.3	5.0
2025-01-27 17:01:34.276358	341.5	19.9	-90.3	5.1
2025-01-27 17:01:35.435224	341.4	19.8	-91.2	6.2
2025-01-27 17:01:36.599712	341.2	19.6	-91.1	6.3
2025-01-27 17:01:37.767306	341.0	19.5	-90.8	4.0
2025-01-27 17:01:38.928047	340.9	19.4	-91.2	4.1
2025-01-27 17:01:40.092243	340.7	19.3	-90.9	4.6
2025-01-27 17:01:41.255743	340.5	19.2	-91.1	5.3
2025-01-27 17:01:42.419712	340.4	19.0	-91.2	8.6
2025-01-27 17:01:43.587591	340.2	18.9	-90.8	5.4
2025-01-27 17:01:44.752810	340.1	18.8	-90.5	8.6
2025-01-27 17:01:45.921793	339.9	18.7	-90.7	6.0
2025-01-27 17:01:47.085868	339.8	18.6	-90.4	4.2
2025-01-27 17:01:48.250716	339.6	18.4	-90.6	6.3
2025-01-27 17:01:49.415636	339.5	18.3	-90.9	5.7
2025-01-27 17:01:50.576458	339.3	18.2	-91.4	6.6
2025-01-27 17:01:51.731945	339.2	18.1	-91.3	6.3
2025-01-27 17:01:52.891567	339.0	18.0	-90.4	5.6
2025-01-27 17:01:54.055499	338.9	17.9	-90.3	5.6
2025-01-27 17:01:55.222046	338.8	17.7	-90.3	8.6
2025-01-27 17:01:56.386855	338.6	17.6	-90.8	5.5
2025-01-27 17:01:57.553235	338.5	17.5	-90.8	8.0
2025-01-27 17:01:58.707292	338.3	17.4	-90.7	10.0
2025-01-27 17:01:59.866748	338.2	17.3	-90.6	6.2
2025-01-27 17:02:01.021785	338.1	17.2	-90.8	6.5
2025-01-27 17:02:02.181355	337.9	17.1	-90.4	5.4
2025-01-27 17:02:03.343898	337.8	16.9	-90.6	4.7
2025-01-27 17:02:04.507813	337.7	16.8	-91.1	5.6
2025-01-27 17:02:05.662517	337.5	16.7	-90.8	4.4
2025-01-27 17:02:06.824983	337.4	16.6	-91.2	4.4
2025-01-27 17:02:07.987227	337.3	16.5	-91.1	6.1
2025-01-27 17:02:09.143641	337.1	16.4	-90.9	6.6
2025-01-27 17:02:10.306821	337.0	16.3	-91.0	5.5
2025-01-27 17:02:11.463236	336.9	16.2	-90.6	7.3
2025-01-27 17:02:12.626127	336.7	16.1	-90.9	4.6
2025-01-27 17:02:13.820115	336.6	15.9	-91.0	7.8
2025-01-27 17:02:14.982498	336.5	15.8	-91.1	8.4
2025-01-27 17:02:16.142246	336.4	15.7	-90.9	6.2
2025-01-27 17:02:17.301728	336.2	15.6	-91.0	7.3
2025-01-27 17:02:18.465555	336.1	15.5	-91.0	5.7
2025-01-27 17:02:19.633859	336.0	15.4	-91.2	5.6
2025-01-27 17:02:20.789438	335.9	15.3	-91.2	11.2
2025-01-27 17:02:21.958460	335.7	15.2	-91.0	7.5
2025-01-27 17:02:23.122120	335.6	15.1	-91.0	2.8
2025-01-27 17:02:24.282299	335.5	15.0	-91.0	5.4
2025-01-27 17:02:25.449186	335.4	14.9	-91.2	5.5
2025-01-27 17:02:26.609083	335.3	14.7	-91.5	6.6
2025-01-27 17:02:27.772627	335.2	14.6	-91.3	9.4
2025-01-27 17:02:28.935411	335.0	14.5	-91.4	5.8
#Closed at: 2025-01-27 16:54:27.715721