passes_logs/2026/01/04/XPeterburg/XPeterburg__20260104_122009_FENGYUN_3D_rec.log

#Pass ID: 20260104_122009_FENGYUN 3D
#Satellite: FENGYUN 3D
#Configuration: FENGYUN 3D
#Start time: 2026-01-04 12:20:04

#Version: 1.5.20200625
#Station: XPeterburg
#Location: 30.318091 lon 59.932769 lat
#TLE: 1 43010U 17072A   25359.21279514  .00000061  00000+0  50555-4 0  9990
#TLE: 2 43010  98.9914 325.7104 0001525 146.5453 213.5819 14.19687267420302

#Time	Az	El	Level	Level2	SNR	BER	Gain	Gain2
2026-01-04 12:20:04.46	151.54	67.93	-37.1	-37.8	3.7	8390682	92	2686
2026-01-04 12:20:04.86	151.47	68.11	-33.1	-33.6	8.8	7665412	83	2599
2026-01-04 12:20:05.26	151.40	68.29	-32.4	-31.8	9.7	257766	83	2308
2026-01-04 12:20:05.67	151.33	68.48	-31.9	-31.3	10.4	129615	82	2305
2026-01-04 12:20:06.07	151.26	68.66	-31.5	-30.9	11.0	37273	81	2307
2026-01-04 12:20:06.47	151.18	68.84	-31.1	-30.8	11.4	21102	80	2358
2026-01-04 12:20:06.87	151.11	69.03	-30.9	-30.2	11.7	14099	80	2279
2026-01-04 12:20:07.27	151.03	69.21	-30.4	-29.8	12.0	5527	79	2285
2026-01-04 12:20:07.68	150.95	69.40	-30.3	-30.0	12.3	3776	78	2384
2026-01-04 12:20:08.08	150.87	69.58	-30.1	-29.7	12.5	2471	78	2340
2026-01-04 12:20:08.48	150.79	69.76	-30.2	-29.8	12.4	1911	78	2359
2026-01-04 12:20:08.88	150.71	69.95	-30.4	-30.1	12.2	2094	78	2400
2026-01-04 12:20:09.28	150.63	70.13	-30.7	-30.9	11.8	4257	78	2511
2026-01-04 12:20:09.69	150.54	70.32	-31.1	-31.2	11.2	9304	79	2489
2026-01-04 12:20:10.09	150.45	70.51	-31.8	-32.2	10.6	18928	80	2561
2026-01-04 12:20:10.49	150.36	70.69	-31.8	-32.1	10.6	42858	80	2555
2026-01-04 12:20:10.89	150.27	70.88	-31.6	-31.3	10.7	54622	81	2360
2026-01-04 12:20:11.30	150.18	71.07	-31.6	-31.1	10.8	42388	81	2336
2026-01-04 12:20:11.70	150.08	71.26	-31.6	-31.2	10.7	34858	81	2345
2026-01-04 12:20:12.10	149.99	71.44	-31.3	-30.5	11.1	35499	81	2253
2026-01-04 12:20:12.50	149.89	71.63	-31.4	-31.2	11.1	18218	80	2408
2026-01-04 12:20:12.90	149.78	71.82	-31.2	-30.9	11.3	21366	80	2362
2026-01-04 12:20:13.31	149.68	72.01	-31.1	-30.6	11.5	17292	80	2322
2026-01-04 12:20:13.71	149.57	72.20	-31.2	-30.7	11.5	14099	80	2342
2026-01-04 12:20:14.11	149.46	72.38	-31.0	-30.4	11.7	11569	80	2304
2026-01-04 12:20:14.51	149.35	72.57	-30.9	-30.3	11.8	7301	80	2288
2026-01-04 12:20:14.91	149.24	72.76	-31.1	-30.7	11.6	7003	80	2349
2026-01-04 12:20:15.32	149.12	72.95	-31.2	-30.7	11.6	8903	80	2349
2026-01-04 12:20:15.72	149.00	73.14	-31.2	-30.9	11.5	11672	80	2376
2026-01-04 12:20:16.12	148.88	73.33	-31.2	-30.9	11.4	11672	80	2372
2026-01-04 12:20:16.52	148.76	73.52	-31.3	-31.1	11.3	13744	80	2395
2026-01-04 12:20:16.93	148.62	73.72	-31.3	-31.0	11.5	14133	80	2392
2026-01-04 12:20:17.33	148.49	73.91	-31.1	-30.6	11.7	13023	80	2329
2026-01-04 12:20:17.73	148.36	74.10	-31.0	-30.4	11.8	7644	80	2305
2026-01-04 12:20:18.13	148.22	74.29	-31.0	-30.4	11.9	6500	80	2302
2026-01-04 12:20:18.53	148.08	74.48	-31.1	-30.6	11.9	5470	80	2324
2026-01-04 12:20:18.94	147.93	74.67	-31.1	-30.7	11.9	5985	80	2342
2026-01-04 12:20:19.34	147.78	74.86	-31.2	-30.8	11.9	5046	80	2366
2026-01-04 12:20:19.74	147.63	75.05	-31.2	-30.9	11.8	5241	80	2367
2026-01-04 12:20:20.14	147.47	75.25	-31.1	-30.6	12.0	5344	80	2335
2026-01-04 12:20:20.54	147.31	75.44	-31.0	-30.4	12.2	4119	80	2304
2026-01-04 12:20:20.95	147.14	75.63	-30.8	-30.1	12.4	2826	80	2266
2026-01-04 12:20:21.35	146.97	75.83	-30.9	-30.3	12.3	2334	80	2290
2026-01-04 12:20:21.75	146.79	76.02	-31.1	-30.7	12.1	2746	80	2343
2026-01-04 12:20:22.15	146.61	76.21	-31.2	-31.0	11.9	4829	80	2401
2026-01-04 12:20:22.55	146.43	76.40	-31.3	-31.2	11.8	6065	80	2433
2026-01-04 12:20:22.96	146.23	76.60	-31.2	-31.0	11.9	7312	80	2391
2026-01-04 12:20:23.36	146.03	76.79	-31.0	-30.5	12.2	5355	80	2329
2026-01-04 12:20:23.76	145.83	76.98	-30.5	-30.0	12.4	3490	79	2321
2026-01-04 12:20:24.16	145.62	77.18	-30.4	-29.6	12.6	1934	79	2261
2026-01-04 12:20:24.56	145.40	77.37	-29.8	-29.5	12.6	1647	78	2386
2026-01-04 12:20:24.97	145.17	77.57	-30.2	-29.8	12.7	1419	78	2343
2026-01-04 12:20:25.37	144.94	77.76	-30.0	-29.4	12.9	1007	78	2289
2026-01-04 12:20:25.77	144.70	77.95	-29.8	-28.9	13.0	755	78	2223
2026-01-04 12:20:26.17	144.46	78.14	-29.7	-29.1	13.1	480	77	2314
2026-01-04 12:20:26.57	144.20	78.34	-29.6	-28.9	13.2	457	77	2283
2026-01-04 12:20:26.98	143.93	78.53	-29.5	-28.7	13.2	514	77	2254
2026-01-04 12:20:27.38	143.66	78.73	-29.4	-28.5	13.3	286	77	2227
2026-01-04 12:20:27.78	143.37	78.92	-29.4	-28.6	13.3	228	77	2237
2026-01-04 12:20:28.18	143.08	79.11	-29.5	-28.7	13.2	251	77	2250
2026-01-04 12:20:28.58	142.78	79.30	-29.7	-29.1	13.0	560	77	2312
2026-01-04 12:20:28.99	142.45	79.50	-30.0	-29.8	12.7	617	77	2411
2026-01-04 12:20:29.39	142.12	79.69	-30.3	-30.4	12.4	1544	77	2504
2026-01-04 12:20:29.79	141.78	79.89	-30.7	-30.8	12.1	2735	78	2488
2026-01-04 12:20:30.19	141.43	80.08	-30.6	-30.5	12.3	2414	78	2452
2026-01-04 12:20:30.60	141.05	80.27	-30.6	-30.6	12.3	2574	78	2461
2026-01-04 12:20:31.00	140.67	80.46	-30.3	-30.0	12.7	2323	78	2374
2026-01-04 12:20:31.40	140.27	80.66	-30.5	-30.4	12.6	1888	78	2436
2026-01-04 12:20:31.80	139.85	80.85	-30.2	-29.8	12.8	1281	78	2343
2026-01-04 12:20:32.20	139.42	81.04	-30.1	-29.6	13.0	904	78	2322
2026-01-04 12:20:32.61	138.95	81.23	-30.1	-29.6	13.0	698	78	2329
2026-01-04 12:20:33.01	138.47	81.42	-30.1	-29.6	13.0	549	78	2328
2026-01-04 12:20:33.41	137.98	81.61	-30.3	-29.9	12.9	663	78	2371
2026-01-04 12:20:33.81	137.46	81.80	-30.4	-30.2	12.7	1018	78	2413
2026-01-04 12:20:34.21	136.91	81.99	-30.1	-29.6	13.1	995	78	2326
2026-01-04 12:20:34.61	136.34	82.18	-29.9	-29.2	13.3	526	78	2260
2026-01-04 12:20:35.02	135.73	82.37	-29.7	-29.1	13.6	194	77	2313
2026-01-04 12:20:35.42	135.09	82.55	-29.5	-28.8	13.8	114	77	2270
2026-01-04 12:20:35.82	134.43	82.74	-29.8	-29.4	13.5	160	77	2348
2026-01-04 12:20:36.22	133.73	82.92	-30.2	-30.2	13.1	194	77	2464
2026-01-04 12:20:36.62	132.99	83.11	-30.5	-30.9	12.7	457	77	2569
2026-01-04 12:20:37.03	132.20	83.29	-30.8	-31.1	12.3	2002	78	2530
2026-01-04 12:20:37.43	131.38	83.47	-30.8	-31.1	12.3	3021	78	2530
2026-01-04 12:20:37.83	130.51	83.65	-30.9	-31.2	12.3	2723	78	2545
2026-01-04 12:20:38.23	129.59	83.83	-30.9	-31.3	12.2	2964	78	2557
2026-01-04 12:20:38.64	128.59	84.01	-30.9	-30.8	12.1	3021	79	2421
2026-01-04 12:20:39.04	127.55	84.19	-31.2	-31.4	11.8	5081	79	2514
2026-01-04 12:20:39.44	126.45	84.36	-31.8	-32.1	11.3	8777	80	2559
2026-01-04 12:20:39.84	125.28	84.53	-32.2	-32.4	10.7	16193	81	2535
2026-01-04 12:20:40.24	124.04	84.70	-32.5	-32.7	10.3	49770	82	2520
2026-01-04 12:20:40.65	122.67	84.87	-32.7	-33.1	10.1	73631	82	2570
2026-01-04 12:20:41.05	121.26	85.03	-32.7	-33.1	10.1	89618	82	2572
2026-01-04 12:20:41.45	119.74	85.19	-32.5	-32.7	10.3	77259	82	2501
2026-01-04 12:20:41.85	118.13	85.35	-32.4	-32.4	10.6	61958	82	2455
2026-01-04 12:20:42.25	116.40	85.50	-32.3	-32.2	10.6	42675	82	2419
2026-01-04 12:20:42.66	114.50	85.65	-32.5	-32.4	10.5	44506	82	2452
2026-01-04 12:20:43.06	112.52	85.80	-32.5	-32.5	10.4	49850	82	2459
2026-01-04 12:20:43.46	110.40	85.94	-32.6	-32.8	10.2	62782	82	2507
2026-01-04 12:20:43.86	108.14	86.07	-32.6	-32.8	10.2	69065	82	2513
2026-01-04 12:20:44.26	105.72	86.19	-32.8	-33.2	10.0	86563	82	2580
2026-01-04 12:20:44.67	103.08	86.31	-32.9	-33.0	9.8	101291	83	2477
2026-01-04 12:20:45.07	100.33	86.42	-33.0	-33.2	9.7	122955	83	2511
2026-01-04 12:20:45.47	97.41	86.53	-33.1	-33.4	9.6	152011	83	2549
2026-01-04 12:20:45.87	94.33	86.62	-33.2	-33.7	9.4	167747	83	2585
2026-01-04 12:20:46.27	91.08	86.70	-33.3	-33.9	9.3	199184	83	2627
2026-01-04 12:20:46.68	87.60	86.77	-33.4	-34.1	9.2	217803	83	2654
2026-01-04 12:20:47.08	84.05	86.83	-33.5	-34.2	9.2	236892	83	2693
2026-01-04 12:20:47.48	80.39	86.88	-33.6	-34.0	9.0	268707	84	2587
2026-01-04 12:20:47.88	76.64	86.91	-33.6	-34.0	9.1	270080	84	2586
2026-01-04 12:20:48.28	72.82	86.93	-33.5	-33.9	9.2	263900	84	2566
2026-01-04 12:20:48.69	68.87	86.93	-33.5	-33.9	9.2	250236	84	2565
2026-01-04 12:20:49.09	65.03	86.93	-33.6	-34.1	9.2	239570	84	2597
2026-01-04 12:20:49.49	61.22	86.90	-33.7	-34.2	9.2	253063	84	2627
2026-01-04 12:20:49.89	57.48	86.87	-33.7	-34.4	9.1	268249	84	2658
2026-01-04 12:20:50.29	53.85	86.82	-33.7	-34.4	9.0	273525	84	2656
2026-01-04 12:20:50.70	50.25	86.76	-33.7	-34.4	9.0	302455	84	2647
2026-01-04 12:20:51.10	46.88	86.68	-33.7	-34.3	9.0	297786	84	2634
2026-01-04 12:20:51.50	43.67	86.60	-33.7	-34.3	8.9	291034	84	2642
2026-01-04 12:20:51.90	40.63	86.50	-33.7	-34.4	8.8	320800	84	2671
2026-01-04 12:20:52.31	37.68	86.40	-33.8	-34.7	8.7	356254	84	2713
2026-01-04 12:20:52.71	34.97	86.29	-33.8	-34.8	8.6	418807	84	2736
2026-01-04 12:20:53.11	32.43	86.17	-33.7	-34.4	8.9	417560	84	2686
2026-01-04 12:20:53.51	30.05	86.04	-33.3	-33.6	9.3	264461	84	2545
2026-01-04 12:20:53.91	27.82	85.91	-32.9	-32.6	9.9	172302	84	2379
2026-01-04 12:20:54.31	25.73	85.77	-32.5	-32.2	10.5	99918	83	2373
2026-01-04 12:20:54.72	23.73	85.62	-32.3	-32.2	11.0	33840	82	2439
2026-01-04 12:20:55.12	21.91	85.47	-32.1	-31.8	11.3	22075	82	2382
2026-01-04 12:20:55.52	20.21	85.32	-32.0	-31.7	11.4	16021	82	2369
2026-01-04 12:20:55.92	18.61	85.16	-32.0	-31.6	11.4	14293	82	2352
2026-01-04 12:20:56.32	17.12	85.00	-31.9	-31.4	11.4	13504	82	2331
2026-01-04 12:20:56.73	15.69	84.83	-31.9	-31.4	11.4	13343	82	2341
2026-01-04 12:20:57.13	14.38	84.66	-31.8	-31.3	11.5	13114	82	2324
2026-01-04 12:20:57.53	13.15	84.50	-31.6	-31.4	11.7	11993	81	2389
2026-01-04 12:20:57.93	12.00	84.32	-31.4	-30.8	12.0	6317	81	2313
2026-01-04 12:20:58.34	10.89	84.15	-31.1	-30.7	12.4	4085	80	2353
2026-01-04 12:20:58.74	9.87	83.97	-30.8	-30.0	12.8	1842	80	2247
2026-01-04 12:20:59.14	8.91	83.79	-30.3	-29.4	13.1	789	79	2233
2026-01-04 12:20:59.54	8.00	83.62	-30.1	-29.6	13.3	480	78	2323
2026-01-04 12:20:59.94	7.14	83.44	-30.0	-29.4	13.4	286	78	2297
2026-01-04 12:21:00.35	6.31	83.25	-30.1	-29.7	13.2	366	78	2342
2026-01-04 12:21:00.75	5.54	83.07	-30.1	-29.7	13.3	320	78	2341
2026-01-04 12:21:01.15	4.81	82.88	-30.1	-29.7	13.3	377	78	2341
2026-01-04 12:21:01.55	4.12	82.70	-29.9	-29.2	13.5	240	78	2271
2026-01-04 12:21:01.95	3.47	82.51	-29.7	-29.2	13.6	171	77	2340
2026-01-04 12:21:02.36	2.83	82.32	-29.6	-29.1	13.7	171	77	2321
2026-01-04 12:21:02.76	2.23	82.14	-29.5	-28.8	13.7	68	77	2285
2026-01-04 12:21:03.16	1.67	81.95	-29.5	-28.8	13.7	160	77	2290
2026-01-04 12:21:03.56	1.13	81.76	-29.5	-29.0	13.6	57	77	2317
2026-01-04 12:21:03.96	0.61	81.57	-29.6	-29.1	13.6	114	77	2329
2026-01-04 12:21:04.37	0.11	81.38	-29.5	-28.9	13.7	183	77	2303
2026-01-04 12:21:04.77	359.64	81.19	-29.5	-29.0	13.6	171	77	2311
2026-01-04 12:21:05.17	359.19	81.00	-29.4	-28.7	13.7	171	77	2271
2026-01-04 12:21:05.57	358.76	80.81	-29.3	-28.4	13.8	80	77	2224
2026-01-04 12:21:05.97	358.35	80.62	-29.2	-28.7	14.0	91	76	2327
2026-01-04 12:21:06.38	357.94	80.42	-29.0	-28.3	14.1	34	76	2268
2026-01-04 12:21:06.78	357.56	80.23	-28.8	-27.8	14.2	45	76	2211
2026-01-04 12:21:07.18	357.20	80.04	-28.5	-27.8	14.3	11	75	2275
2026-01-04 12:21:07.58	356.84	79.85	-28.5	-27.8	14.3	34	75	2269
2026-01-04 12:21:07.98	356.51	79.66	-28.5	-27.8	14.3	34	75	2262
2026-01-04 12:21:08.39	356.17	79.46	-28.4	-27.7	14.3	45	75	2260
2026-01-04 12:21:08.79	355.86	79.27	-28.4	-27.7	14.4	22	75	2257
2026-01-04 12:21:09.19	355.56	79.07	-28.4	-27.5	14.5	22	75	2240
2026-01-04 12:21:09.59	355.27	78.88	-28.3	-27.5	14.6	0	75	2238
2026-01-04 12:21:10.00	354.98	78.68	-28.4	-27.7	14.6	0	75	2262
2026-01-04 12:21:10.40	354.71	78.49	-28.5	-27.9	14.5	0	75	2296
2026-01-04 12:21:10.80	354.45	78.30	-28.6	-28.2	14.4	0	75	2331
2026-01-04 12:21:11.20	354.19	78.11	-28.6	-28.2	14.4	45	75	2338
2026-01-04 12:21:11.60	353.95	77.91	-28.7	-28.2	14.4	34	75	2343
2026-01-04 12:21:12.01	353.71	77.72	-28.7	-28.3	14.4	11	75	2348
2026-01-04 12:21:12.41	353.48	77.53	-28.6	-28.2	14.5	0	75	2331
2026-01-04 12:21:12.81	353.25	77.33	-28.7	-28.2	14.5	11	75	2335
2026-01-04 12:21:13.21	353.04	77.14	-28.6	-28.2	14.6	0	75	2339
2026-01-04 12:21:13.61	352.83	76.95	-28.7	-28.3	14.5	11	75	2355
2026-01-04 12:21:14.02	352.62	76.75	-28.8	-28.5	14.3	0	75	2383
2026-01-04 12:21:14.42	352.43	76.56	-28.9	-28.6	14.2	11	75	2395
2026-01-04 12:21:14.82	352.24	76.37	-28.8	-28.6	14.2	34	75	2383
2026-01-04 12:21:15.22	352.05	76.18	-28.8	-28.4	14.3	22	75	2354
2026-01-04 12:21:15.63	351.87	75.98	-28.7	-28.3	14.2	22	75	2342
2026-01-04 12:21:16.03	351.69	75.79	-28.6	-28.1	14.3	34	75	2315
2026-01-04 12:21:16.43	351.52	75.60	-28.7	-28.2	14.2	34	75	2324
2026-01-04 12:21:16.83	351.36	75.41	-28.7	-28.3	14.1	22	75	2334
2026-01-04 12:21:17.23	351.20	75.21	-28.9	-28.5	13.9	22	75	2366
2026-01-04 12:21:17.64	351.04	75.02	-29.0	-28.8	13.7	57	75	2412
2026-01-04 12:21:18.04	350.89	74.83	-29.1	-29.1	13.5	102	75	2448
2026-01-04 12:21:18.44	350.74	74.64	-29.3	-29.4	13.3	160	75	2495
2026-01-04 12:21:18.84	350.59	74.45	-29.3	-29.5	13.2	274	75	2510
2026-01-04 12:21:19.25	350.45	74.25	-29.4	-29.6	13.2	331	75	2527
2026-01-04 12:21:19.65	350.31	74.06	-29.4	-29.6	13.2	400	75	2525
2026-01-04 12:21:20.05	350.18	73.87	-29.3	-29.6	13.3	492	75	2524
2026-01-04 12:21:20.45	350.05	73.68	-29.3	-29.5	13.3	377	75	2515
2026-01-04 12:21:20.85	349.92	73.49	-29.3	-29.4	13.4	205	75	2495
2026-01-04 12:21:21.26	349.80	73.30	-29.4	-29.6	13.3	354	75	2527
2026-01-04 12:21:21.66	349.67	73.11	-29.4	-29.7	13.3	183	75	2542
2026-01-04 12:21:22.06	349.56	72.92	-29.8	-29.9	13.1	457	76	2503
2026-01-04 12:21:22.46	349.44	72.73	-30.0	-29.8	12.7	675	77	2427
2026-01-04 12:21:22.86	349.33	72.55	-30.2	-30.3	12.5	1155	77	2486
2026-01-04 12:21:23.27	349.21	72.35	-30.4	-30.7	12.3	2220	77	2549
2026-01-04 12:21:23.67	349.11	72.17	-30.5	-30.9	12.1	3158	77	2591
2026-01-04 12:21:24.07	349.00	71.98	-30.6	-30.7	12.0	4119	78	2484
2026-01-04 12:21:24.47	348.90	71.79	-30.8	-31.1	11.7	7106	78	2550
2026-01-04 12:21:24.88	348.80	71.60	-30.8	-31.1	11.7	7884	78	2547
2026-01-04 12:21:25.28	348.70	71.41	-31.1	-31.1	11.3	11627	79	2473
2026-01-04 12:21:25.68	348.60	71.23	-31.0	-31.0	11.2	13549	79	2455
2026-01-04 12:21:26.08	348.51	71.04	-31.2	-31.4	10.9	15415	79	2518
2026-01-04 12:21:26.48	348.41	70.86	-31.4	-31.8	10.7	23609	79	2578
2026-01-04 12:21:26.89	348.32	70.67	-31.5	-31.4	10.8	49106	80	2442
2026-01-04 12:21:27.29	348.23	70.48	-36.6	-38.9	4.9	41324	89	3207

#Closed at: 2026-01-04 12:21:27