passes_logs/2026/01/04/XPeterburg/XPeterburg__20260104_085952_FENGYUN_3F_rec.log

#Pass ID: 20260104_085952_FENGYUN 3F
#Satellite: FENGYUN 3F
#Configuration: FENGYUN 3F
#Start time: 2026-01-04 08:59:46

#Version: 1.5.20200625
#Station: XPeterburg
#Location: 30.318091 lon 59.932769 lat
#TLE: 1 57490U 23111A   25359.20461847  .00000075  00000+0  55793-4 0  9993
#TLE: 2 57490  98.7067  67.2960 0000833 117.6209 242.5052 14.19896763124173

#Time	Az	El	Level	Level2	SNR	BER	Gain	Gain2
2026-01-04 08:59:46.37	51.01	67.75	-38.6	-40.7	3.3	8393875	94	6299
2026-01-04 08:59:46.77	51.30	67.90	-38.6	-41.7	3.5	8426937	94	7024
2026-01-04 08:59:47.17	51.59	68.05	-38.6	-40.9	3.3	8401473	94	6365
2026-01-04 08:59:47.57	51.89	68.20	-38.6	-42.0	3.6	8443130	94	7284
2026-01-04 08:59:47.97	52.20	68.35	-38.6	-40.7	3.3	8413993	94	6309
2026-01-04 08:59:48.38	52.51	68.50	-38.6	-42.1	3.6	8413078	94	7377
2026-01-04 08:59:48.78	52.83	68.65	-38.5	-40.6	3.3	8424259	94	6228
2026-01-04 08:59:49.18	53.14	68.80	-38.5	-42.1	3.6	8426925	94	7403
2026-01-04 08:59:49.58	53.47	68.94	-38.5	-40.6	3.3	8405605	94	6205
2026-01-04 08:59:49.98	53.79	69.09	-38.5	-42.0	3.6	8397926	94	7328
2026-01-04 08:59:50.39	54.14	69.24	-38.6	-40.7	3.3	8426731	94	6276
2026-01-04 08:59:50.79	54.47	69.39	-38.6	-42.2	3.6	8402904	94	7450
2026-01-04 08:59:51.19	54.82	69.53	-38.6	-40.9	3.4	8412620	94	6386
2026-01-04 08:59:51.59	55.16	69.68	-38.6	-42.3	3.6	8392787	94	7496
2026-01-04 08:59:51.99	55.52	69.82	-38.6	-41.2	3.4	8445362	94	6618
2026-01-04 08:59:52.40	55.89	69.97	-38.5	-40.6	3.3	8391517	94	6223
2026-01-04 08:59:52.80	56.25	70.11	-38.5	-40.9	3.4	8451427	94	6537
2026-01-04 08:59:53.20	56.62	70.26	-38.4	-40.0	3.3	8398303	94	5941
2026-01-04 08:59:53.60	57.00	70.40	-38.3	-40.6	3.5	8431056	94	6441
2026-01-04 08:59:54.00	57.38	70.54	-38.2	-39.4	3.3	8396392	94	5651
2026-01-04 08:59:54.41	57.78	70.69	-38.2	-40.5	3.6	8442764	94	6458
2026-01-04 08:59:54.81	58.17	70.83	-38.3	-39.6	3.3	8425025	94	5763
2026-01-04 08:59:55.21	58.57	70.97	-38.3	-40.8	3.6	8410572	94	6584
2026-01-04 08:59:55.61	58.98	71.11	-38.1	-39.3	3.3	8423240	94	5630
2026-01-04 08:59:56.01	59.39	71.24	-38.1	-40.6	3.6	8418743	94	6583
2026-01-04 08:59:56.42	59.82	71.39	-38.0	-39.0	3.3	8410514	94	5500
2026-01-04 08:59:56.82	60.25	71.52	-38.3	-40.6	3.6	8398487	95	6384
2026-01-04 08:59:57.22	60.68	71.66	-38.3	-39.3	3.3	8436321	95	5504
2026-01-04 08:59:57.62	61.12	71.79	-38.5	-41.5	3.6	8386974	95	6902
2026-01-04 08:59:58.02	61.57	71.93	-38.6	-40.6	3.3	8433849	95	6190
2026-01-04 08:59:58.42	62.02	72.06	-38.6	-41.9	3.6	8397605	95	7180
2026-01-04 08:59:58.83	62.49	72.20	-38.6	-40.6	3.4	8452777	95	6213
2026-01-04 08:59:59.23	62.96	72.33	-38.6	-40.3	3.3	8388587	95	6013
2026-01-04 08:59:59.63	63.44	72.46	-38.6	-41.1	3.4	8444057	95	6542
2026-01-04 09:00:00.03	63.92	72.59	-38.6	-40.2	3.3	8385601	95	5914
2026-01-04 09:00:00.43	64.41	72.72	-38.5	-40.8	3.5	8425140	95	6454
2026-01-04 09:00:00.84	64.92	72.85	-38.5	-39.9	3.3	8405548	95	5769
2026-01-04 09:00:01.04	65.18	72.91	-38.5	-41.2	3.6	8440258	95	6756
2026-01-04 09:00:01.45	65.70	73.04	-38.5	-40.1	3.4	8401885	95	5956
2026-01-04 09:00:01.85	66.22	73.17	-38.4	-41.2	3.6	8384262	95	6751
2026-01-04 09:00:02.25	66.75	73.29	-38.5	-40.4	3.4	8451107	95	6137
2026-01-04 09:00:02.65	67.28	73.41	-38.5	-39.8	3.3	8394161	95	5741
2026-01-04 09:00:03.05	67.82	73.53	-38.6	-40.7	3.5	8429740	95	6271
2026-01-04 09:00:03.46	68.39	73.66	-38.7	-40.4	3.3	8405147	95	6003
2026-01-04 09:00:03.86	68.95	73.78	-38.7	-41.7	3.5	8442626	95	6886
2026-01-04 09:00:04.26	69.52	73.89	-38.8	-40.9	3.3	8398979	95	6255
2026-01-04 09:00:04.66	70.10	74.01	-38.8	-42.1	3.6	8448463	95	7224
2026-01-04 09:00:05.06	70.68	74.12	-38.7	-40.7	3.3	8420070	95	6171
2026-01-04 09:00:05.47	71.29	74.24	-38.7	-42.2	3.6	8413536	95	7303
2026-01-04 09:00:05.87	71.90	74.35	-38.7	-40.4	3.3	8414897	95	5998
2026-01-04 09:00:06.27	72.51	74.46	-38.6	-41.7	3.6	8415767	95	6993
2026-01-04 09:00:06.67	73.13	74.57	-38.7	-40.5	3.3	8400077	95	6068
2026-01-04 09:00:07.07	73.76	74.67	-38.7	-42.0	3.6	8383666	95	7153
2026-01-04 09:00:07.47	74.40	74.78	-38.7	-40.3	3.3	8425289	95	5930
2026-01-04 09:00:07.88	75.07	74.88	-38.6	-41.5	3.6	8386402	95	6862
2026-01-04 09:00:08.28	75.73	74.98	-38.7	-40.3	3.3	8425415	95	5930
2026-01-04 09:00:08.68	76.39	75.08	-38.7	-41.7	3.6	8414886	95	6943
2026-01-04 09:00:09.08	77.07	75.18	-38.7	-40.6	3.4	8447319	95	6115
2026-01-04 09:00:09.48	77.76	75.27	-38.7	-41.8	3.6	8389183	95	6990
2026-01-04 09:00:09.89	78.47	75.37	-38.8	-41.1	3.4	8425518	95	6410
2026-01-04 09:00:10.29	79.17	75.46	-38.8	-40.5	3.3	8398075	95	5984
2026-01-04 09:00:10.69	79.89	75.55	-38.8	-41.0	3.5	8436367	95	6356
2026-01-04 09:00:11.09	80.61	75.64	-38.7	-40.2	3.3	8411819	95	5824
2026-01-04 09:00:11.49	81.34	75.72	-38.7	-41.2	3.5	8445590	95	6558
2026-01-04 09:00:11.89	82.08	75.80	-38.8	-40.5	3.3	8398361	95	5968
2026-01-04 09:00:12.30	82.85	75.89	-38.8	-41.6	3.6	8412139	95	6788
2026-01-04 09:00:12.70	83.61	75.96	-38.9	-40.5	3.3	8407871	95	5947
2026-01-04 09:00:13.10	84.37	76.04	-38.8	-41.9	3.6	8430347	95	6963
2026-01-04 09:00:13.50	85.15	76.11	-38.9	-40.2	3.3	8408512	96	5676
2026-01-04 09:00:13.90	85.93	76.18	-38.8	-41.8	3.6	8391620	95	6942
2026-01-04 09:00:14.31	86.75	76.25	-38.9	-40.7	3.3	8431743	95	6052
2026-01-04 09:00:14.71	87.55	76.32	-39.0	-42.5	3.6	8401451	95	7323
2026-01-04 09:00:15.11	88.35	76.38	-39.0	-40.9	3.3	8417015	95	6163
2026-01-04 09:00:15.51	89.17	76.44	-38.9	-41.9	3.6	8388027	95	6987
2026-01-04 09:00:15.91	89.99	76.50	-38.9	-40.7	3.4	8445590	95	6073
2026-01-04 09:00:16.32	90.84	76.56	-38.9	-42.1	3.6	8388198	95	7108
2026-01-04 09:00:16.72	91.68	76.61	-38.9	-40.8	3.3	8448646	95	6132
2026-01-04 09:00:17.12	92.52	76.66	-38.9	-41.9	3.6	8395420	95	7006
2026-01-04 09:00:17.52	93.37	76.71	-38.8	-40.7	3.4	8428882	95	6161
2026-01-04 09:00:17.92	94.23	76.75	-38.8	-40.4	3.3	8406131	95	5938
2026-01-04 09:00:18.33	95.11	76.79	-38.9	-41.5	3.4	8442810	95	6606
2026-01-04 09:00:18.73	95.98	76.83	-39.1	-41.5	3.3	8397972	95	6500
2026-01-04 09:00:19.13	96.85	76.87	-39.2	-42.6	3.5	8448852	95	7293
2026-01-04 09:00:19.53	97.73	76.90	-39.1	-41.6	3.3	8408351	95	6533
2026-01-04 09:00:19.94	98.63	76.93	-39.1	-42.8	3.6	8414463	95	7565
2026-01-04 09:00:20.34	99.52	76.95	-39.1	-41.4	3.3	8405937	95	6461
2026-01-04 09:00:20.74	100.41	76.98	-39.1	-42.4	3.6	8373332	96	7271
2026-01-04 09:00:21.14	101.30	77.00	-39.0	-40.8	3.3	8436149	96	6065
2026-01-04 09:00:21.54	102.19	77.02	-38.9	-41.9	3.6	8387100	96	6969
2026-01-04 09:00:21.95	103.11	77.03	-38.9	-40.2	3.3	8425380	96	5767
2026-01-04 09:00:22.35	104.01	77.04	-38.9	-41.8	3.6	8419567	96	6894
2026-01-04 09:00:22.75	104.91	77.05	-38.8	-40.1	3.3	8379947	96	5726
2026-01-04 09:00:23.15	105.81	77.05	-38.8	-41.7	3.6	8393177	96	6832
2026-01-04 09:00:23.55	106.71	77.05	-38.7	-40.6	3.4	8438289	95	6107
2026-01-04 09:00:23.96	107.63	77.05	-38.6	-41.3	3.6	8388599	95	6738
2026-01-04 09:00:24.36	108.53	77.05	-38.6	-40.4	3.4	8447856	95	6062
2026-01-04 09:00:24.76	109.43	77.04	-38.8	-40.6	3.3	8391586	95	6028
2026-01-04 09:00:25.16	110.33	77.03	-38.9	-41.7	3.5	8444915	95	6773
2026-01-04 09:00:25.56	111.23	77.02	-38.8	-40.5	3.3	8389228	95	5969
2026-01-04 09:00:25.97	112.15	77.00	-38.8	-42.1	3.6	8436767	95	7200
2026-01-04 09:00:26.37	113.04	76.98	-39.0	-41.4	3.3	8389595	95	6504
2026-01-04 09:00:26.77	113.93	76.95	-39.2	-43.2	3.6	8421157	95	7822
2026-01-04 09:00:27.17	114.81	76.93	-39.2	-42.0	3.3	8400352	95	6810
2026-01-04 09:00:27.58	115.71	76.90	-39.2	-43.6	3.6	8431251	95	8091
2026-01-04 09:00:27.98	116.59	76.87	-39.2	-42.0	3.3	8407058	95	6765
2026-01-04 09:00:28.38	117.46	76.83	-39.1	-43.2	3.6	8393188	95	7836
2026-01-04 09:00:28.78	118.33	76.79	-39.1	-41.5	3.3	8415641	95	6491
2026-01-04 09:00:29.18	119.19	76.75	-39.2	-43.2	3.6	8411132	95	7770
2026-01-04 09:00:29.59	120.07	76.71	-39.1	-41.5	3.3	8405239	95	6510
2026-01-04 09:00:29.99	120.92	76.66	-38.8	-42.0	3.6	8397926	95	7067
2026-01-04 09:00:30.39	121.77	76.61	-38.7	-40.2	3.4	8444709	95	5876
2026-01-04 09:00:30.79	122.60	76.56	-38.7	-41.7	3.6	8400844	95	6915
2026-01-04 09:00:31.20	123.45	76.50	-38.9	-41.0	3.4	8439605	95	6335
2026-01-04 09:00:31.60	124.28	76.44	-38.9	-40.8	3.3	8403167	95	6097
2026-01-04 09:00:32.00	125.09	76.38	-38.8	-41.3	3.4	8444183	95	6507
2026-01-04 09:00:32.40	125.90	76.32	-38.7	-40.3	3.3	8395889	95	5875
2026-01-04 09:00:32.80	126.70	76.25	-38.9	-41.8	3.5	8434284	95	6888
2026-01-04 09:00:33.21	127.51	76.18	-39.0	-41.1	3.3	8420196	95	6242
2026-01-04 09:00:33.61	128.30	76.11	-39.0	-42.1	3.6	8429340	95	7052
2026-01-04 09:00:34.01	129.07	76.04	-38.9	-40.7	3.3	8407985	95	6075
2026-01-04 09:00:34.41	129.84	75.96	-38.8	-41.7	3.6	8428127	95	6914
2026-01-04 09:00:34.81	130.60	75.89	-38.8	-40.5	3.3	8407859	95	5951
2026-01-04 09:00:35.22	131.37	75.80	-39.0	-42.4	3.6	8388965	95	7277
2026-01-04 09:00:35.62	132.11	75.72	-38.9	-40.6	3.3	8430038	95	6028
2026-01-04 09:00:36.02	132.84	75.64	-38.7	-41.5	3.6	8409027	95	6752
2026-01-04 09:00:36.42	133.57	75.55	-38.9	-40.7	3.3	8417873	95	6035
2026-01-04 09:00:36.82	134.28	75.46	-39.1	-42.8	3.6	8423400	95	7540
2026-01-04 09:00:37.22	134.98	75.37	-39.2	-41.7	3.3	8452377	95	6594
2026-01-04 09:00:37.63	135.70	75.27	-39.2	-43.1	3.6	8376411	95	7706
2026-01-04 09:00:38.03	136.38	75.18	-39.1	-41.3	3.4	8389572	96	6309
2026-01-04 09:00:38.43	137.06	75.08	-39.0	-42.1	3.6	8324398	96	7018
2026-01-04 09:00:38.83	137.73	74.98	-39.0	-41.1	3.4	8448520	96	6288
2026-01-04 09:00:39.23	138.39	74.88	-38.9	-40.5	3.3	8393280	96	5874
2026-01-04 09:00:39.64	139.05	74.77	-38.9	-40.9	3.4	8434661	96	6232
2026-01-04 09:00:40.04	139.69	74.67	-38.8	-40.5	3.3	8380359	95	5987
2026-01-04 09:00:40.44	140.33	74.56	-38.7	-40.8	3.5	8413593	95	6323
2026-01-04 09:00:40.84	140.95	74.46	-38.6	-39.9	3.3	8408134	95	5736
2026-01-04 09:00:41.25	141.58	74.34	-38.7	-41.3	3.6	8431526	95	6667
2026-01-04 09:00:41.65	142.18	74.23	-38.6	-40.1	3.3	8404644	95	5808
2026-01-04 09:00:42.05	142.78	74.12	-38.5	-41.0	3.6	8398899	95	6601
2026-01-04 09:00:42.45	143.36	74.00	-38.0	-39.0	3.5	8404197	94	5474
2026-01-04 09:00:42.85	143.94	73.89	-37.8	-39.7	3.6	8396507	94	6135
2026-01-04 09:00:43.26	144.52	73.77	-37.8	-38.7	3.6	8376171	93	5457
2026-01-04 09:00:43.66	145.08	73.65	-37.6	-38.1	3.7	8368801	93	5225
2026-01-04 09:00:44.06	145.64	73.53	-37.5	-37.8	3.8	8340911	93	5079
2026-01-04 09:00:44.46	146.18	73.41	-37.7	-39.7	3.7	8348911	93	6215
2026-01-04 09:00:44.87	146.73	73.28	-37.8	-38.9	3.6	8408740	93	5554
2026-01-04 09:00:45.27	147.25	73.16	-37.9	-40.4	3.6	8374591	93	6588
2026-01-04 09:00:45.67	147.77	73.03	-37.9	-39.2	3.6	8410285	93	5738
2026-01-04 09:00:46.07	148.28	72.91	-37.9	-40.4	3.6	8386550	93	6568
2026-01-04 09:00:46.48	148.80	72.78	-37.8	-39.2	3.6	8432487	93	5791
2026-01-04 09:00:46.88	149.29	72.65	-37.8	-38.9	3.6	8367370	93	5572
2026-01-04 09:00:47.28	149.78	72.52	-37.9	-39.6	3.6	8422061	93	6007
2026-01-04 09:00:47.68	150.26	72.39	-38.0	-39.4	3.5	8376708	93	5803
2026-01-04 09:00:48.08	150.73	72.26	-37.9	-39.9	3.7	8421764	93	6233
2026-01-04 09:00:48.48	151.20	72.13	-37.6	-38.2	3.7	8375530	93	5283
2026-01-04 09:00:48.89	151.67	71.99	-37.4	-38.9	4.0	8407379	93	5854
2026-01-04 09:00:49.29	152.12	71.85	-37.4	-37.7	3.8	8361167	93	5088
2026-01-04 09:00:49.69	152.56	71.72	-37.4	-37.7	3.8	8330852	93	5099
2026-01-04 09:00:50.09	153.00	71.58	-37.4	-39.2	3.7	8375598	93	6038
2026-01-04 09:00:50.49	153.43	71.45	-37.5	-37.9	3.7	8356338	93	5163
2026-01-04 09:00:50.90	153.86	71.30	-37.3	-37.5	3.8	8340888	93	5042
2026-01-04 09:00:51.30	154.28	71.17	-37.2	-37.5	3.9	8311237	92	5136
2026-01-04 09:00:51.70	154.69	71.03	-37.2	-37.5	3.9	8296028	92	5130
2026-01-04 09:00:52.10	155.09	70.89	-37.4	-38.1	3.7	8324409	92	5359
2026-01-04 09:00:52.50	155.49	70.75	-37.5	-39.3	3.8	8382156	92	6063
2026-01-04 09:00:52.91	155.89	70.60	-37.5	-38.5	3.7	8363582	92	5522
2026-01-04 09:00:53.31	156.28	70.46	-39.0	-43.0	3.6	8432590	95	7734
2026-01-04 09:00:53.71	156.66	70.32	-39.1	-41.7	3.3	8399105	95	6631

#Closed at: 2026-01-04 09:00:54