passes_logs/2026/01/04/XPeterburg/XPeterburg__20260104_022730_FENGYUN_3D_rec.log

#Pass ID: 20260104_022730_FENGYUN 3D
#Satellite: FENGYUN 3D
#Configuration: FENGYUN 3D
#Start time: 2026-01-04 02:27:26

#Version: 1.5.20200625
#Station: XPeterburg
#Location: 30.318091 lon 59.932769 lat
#TLE: 1 43010U 17072A   25359.21279514  .00000061  00000+0  50555-4 0  9990
#TLE: 2 43010  98.9914 325.7104 0001525 146.5453 213.5819 14.19687267420302

#Time	Az	El	Level	Level2	SNR	BER	Gain	Gain2
2026-01-04 02:27:26.62	24.15	68.35	-32.6	-31.6	5.1	7546360	83	2187
2026-01-04 02:27:27.02	24.19	68.54	-29.9	-29.9	12.5	5174285	77	2443
2026-01-04 02:27:27.43	24.24	68.72	-29.5	-29.0	13.0	1052	77	2308
2026-01-04 02:27:27.83	24.29	68.91	-29.3	-28.4	13.3	560	77	2209
2026-01-04 02:27:28.23	24.33	69.09	-29.2	-28.7	13.4	228	76	2321
2026-01-04 02:27:28.63	24.38	69.27	-29.2	-28.7	13.4	251	76	2317
2026-01-04 02:27:29.03	24.43	69.46	-29.3	-28.9	13.3	331	76	2351
2026-01-04 02:27:29.44	24.48	69.65	-29.6	-29.4	13.0	434	76	2411
2026-01-04 02:27:29.84	24.53	69.83	-30.0	-29.8	12.5	732	77	2408
2026-01-04 02:27:30.24	24.59	70.02	-30.8	-31.0	11.6	5756	78	2518
2026-01-04 02:27:30.64	24.64	70.20	-32.0	-32.0	10.2	24799	81	2451
2026-01-04 02:27:31.04	24.69	70.39	-33.3	-33.7	8.4	105995	83	2590
2026-01-04 02:27:31.45	24.75	70.58	-33.7	-34.1	7.6	882808	84	2578
2026-01-04 02:27:31.85	24.80	70.77	-33.3	-33.1	8.2	1003097	84	2407
2026-01-04 02:27:32.25	24.86	70.95	-32.7	-32.4	9.2	605072	83	2382
2026-01-04 02:27:32.65	24.92	71.14	-32.6	-32.1	9.5	228080	83	2326
2026-01-04 02:27:33.06	24.98	71.33	-32.4	-31.9	9.7	188610	83	2304
2026-01-04 02:27:33.46	25.04	71.52	-32.5	-31.9	9.7	135005	83	2305
2026-01-04 02:27:33.86	25.10	71.71	-32.5	-32.1	9.7	133804	83	2335
2026-01-04 02:27:34.26	25.17	71.90	-32.5	-32.1	9.7	133621	83	2350
2026-01-04 02:27:34.67	25.23	72.09	-32.6	-32.2	9.7	138084	83	2357
2026-01-04 02:27:35.07	25.30	72.28	-32.5	-32.1	9.7	140213	83	2352
2026-01-04 02:27:35.47	25.37	72.47	-32.5	-32.1	9.8	125598	83	2344
2026-01-04 02:27:35.87	25.44	72.66	-32.3	-31.7	10.1	113113	83	2295
2026-01-04 02:27:36.27	25.51	72.85	-32.2	-31.9	10.3	89366	82	2385
2026-01-04 02:27:36.68	25.58	73.05	-32.0	-31.6	10.5	57460	82	2341
2026-01-04 02:27:37.08	25.66	73.24	-31.7	-31.4	11.0	42469	81	2362
2026-01-04 02:27:37.48	25.73	73.43	-31.5	-30.9	11.2	26699	81	2299
2026-01-04 02:27:37.88	25.81	73.62	-31.5	-30.8	11.1	18344	81	2278
2026-01-04 02:27:38.28	25.89	73.81	-31.5	-30.8	11.0	20690	81	2273
2026-01-04 02:27:38.69	25.98	74.01	-31.6	-31.0	10.8	31105	81	2303
2026-01-04 02:27:39.09	26.06	74.20	-31.6	-31.1	10.6	35717	81	2306
2026-01-04 02:27:39.49	26.15	74.39	-31.6	-31.1	10.7	40901	81	2310
2026-01-04 02:27:39.89	26.23	74.58	-31.6	-31.0	10.7	43224	81	2293
2026-01-04 02:27:40.30	26.33	74.78	-31.6	-31.0	10.8	37662	81	2294
2026-01-04 02:27:40.70	26.42	74.97	-31.6	-31.0	10.8	36666	81	2307
2026-01-04 02:27:41.10	26.52	75.17	-31.5	-30.8	11.0	30624	81	2277
2026-01-04 02:27:41.50	26.61	75.36	-31.3	-30.5	11.3	23677	81	2235
2026-01-04 02:27:41.91	26.72	75.56	-31.3	-30.8	11.5	12439	80	2336
2026-01-04 02:27:42.31	26.82	75.75	-31.0	-30.3	11.8	9086	80	2275
2026-01-04 02:27:42.71	26.93	75.95	-30.9	-30.1	12.0	6694	80	2238
2026-01-04 02:27:43.11	27.04	76.14	-30.9	-30.1	12.1	3936	80	2245
2026-01-04 02:27:43.52	27.15	76.34	-31.1	-30.5	12.0	3833	80	2305
2026-01-04 02:27:43.92	27.27	76.54	-31.4	-31.2	11.6	8239	80	2412
2026-01-04 02:27:44.32	27.39	76.73	-31.8	-32.1	11.2	12599	80	2539
2026-01-04 02:27:44.72	27.51	76.93	-32.0	-32.1	10.8	22315	81	2485
2026-01-04 02:27:45.12	27.64	77.12	-32.1	-32.3	10.8	35545	81	2520
2026-01-04 02:27:45.53	27.77	77.33	-32.0	-32.1	11.0	33817	81	2481
2026-01-04 02:27:45.93	27.91	77.52	-31.7	-31.5	11.3	26939	81	2391
2026-01-04 02:27:46.33	28.05	77.72	-31.5	-31.0	11.7	12050	81	2328
2026-01-04 02:27:46.73	28.19	77.91	-31.4	-30.8	11.8	8777	81	2296
2026-01-04 02:27:47.14	28.35	78.12	-31.4	-30.8	11.7	8949	81	2298
2026-01-04 02:27:47.54	28.50	78.31	-31.4	-30.9	11.6	9292	81	2301
2026-01-04 02:27:47.94	28.66	78.51	-31.3	-30.6	11.6	9601	81	2262
2026-01-04 02:27:48.34	28.83	78.71	-31.2	-30.8	11.7	8583	80	2353
2026-01-04 02:27:48.75	29.00	78.91	-31.1	-30.5	11.9	7781	80	2305
2026-01-04 02:27:49.15	29.18	79.11	-31.1	-30.4	11.8	7255	80	2291
2026-01-04 02:27:49.55	29.36	79.30	-31.1	-30.5	11.7	6980	80	2298
2026-01-04 02:27:49.95	29.56	79.50	-31.2	-30.7	11.5	9372	80	2327
2026-01-04 02:27:50.36	29.76	79.70	-31.4	-31.0	11.3	15369	80	2370
2026-01-04 02:27:50.76	29.97	79.90	-31.7	-31.7	10.9	20679	80	2466
2026-01-04 02:27:51.16	30.18	80.10	-31.9	-32.1	10.7	29960	80	2522
2026-01-04 02:27:51.57	30.41	80.30	-32.2	-32.3	10.3	49312	81	2483
2026-01-04 02:27:51.97	30.65	80.50	-32.4	-32.7	10.0	69751	81	2556
2026-01-04 02:27:52.37	30.89	80.70	-32.5	-33.0	10.0	100009	81	2602
2026-01-04 02:27:52.77	31.15	80.90	-32.4	-32.4	10.0	101314	82	2435
2026-01-04 02:27:53.17	31.41	81.09	-32.2	-31.9	10.3	94699	82	2369
2026-01-04 02:27:53.58	31.70	81.30	-31.9	-31.3	10.7	52745	82	2278
2026-01-04 02:27:53.98	31.99	81.49	-31.6	-31.0	11.1	33187	81	2305
2026-01-04 02:27:54.38	32.30	81.69	-31.5	-30.8	11.4	22441	81	2266
2026-01-04 02:27:54.78	32.62	81.89	-31.4	-30.7	11.4	13378	81	2262
2026-01-04 02:27:55.19	32.96	82.09	-31.5	-30.9	11.4	13046	81	2284
2026-01-04 02:27:55.59	33.32	82.29	-31.6	-31.1	11.3	14453	81	2324
2026-01-04 02:27:55.99	33.69	82.49	-31.5	-30.8	11.5	14316	81	2284
2026-01-04 02:27:56.39	34.08	82.68	-31.4	-30.8	11.6	13423	81	2276
2026-01-04 02:27:56.79	34.50	82.88	-31.3	-31.0	11.8	7472	80	2363
2026-01-04 02:27:57.20	34.95	83.08	-31.1	-30.4	12.1	5882	80	2291
2026-01-04 02:27:57.60	35.42	83.28	-31.2	-30.7	12.0	4222	80	2317
2026-01-04 02:27:58.00	35.91	83.48	-31.1	-30.5	12.1	4280	80	2290
2026-01-04 02:27:58.40	36.44	83.67	-31.2	-30.7	11.9	4062	80	2324
2026-01-04 02:27:58.80	37.00	83.87	-31.5	-31.3	11.5	8708	80	2413
2026-01-04 02:27:59.21	37.61	84.07	-31.6	-31.6	11.3	13240	80	2466
2026-01-04 02:27:59.61	38.24	84.26	-31.9	-32.2	11.0	18287	80	2557
2026-01-04 02:28:00.01	38.93	84.45	-31.9	-31.8	10.8	29479	81	2425
2026-01-04 02:28:00.42	39.68	84.65	-31.9	-31.8	11.0	31150	81	2417
2026-01-04 02:28:00.82	40.46	84.84	-31.8	-31.5	11.1	21823	81	2376
2026-01-04 02:28:01.22	41.31	85.04	-31.7	-31.4	11.2	18367	81	2372
2026-01-04 02:28:01.62	42.23	85.23	-31.9	-31.8	11.0	17864	81	2433
2026-01-04 02:28:02.02	43.22	85.41	-32.0	-32.1	10.8	28118	81	2481
2026-01-04 02:28:02.43	44.33	85.61	-32.3	-32.7	10.5	35533	81	2590
2026-01-04 02:28:02.83	45.50	85.79	-32.5	-33.1	10.3	50468	81	2642
2026-01-04 02:28:03.23	46.78	85.98	-32.4	-32.9	10.5	60390	81	2605
2026-01-04 02:28:03.63	48.19	86.16	-32.3	-32.7	10.6	53421	81	2575
2026-01-04 02:28:04.03	49.74	86.34	-32.1	-32.3	10.9	33245	81	2504
2026-01-04 02:28:04.44	51.48	86.52	-32.0	-32.1	11.0	29411	81	2476
2026-01-04 02:28:04.84	53.37	86.69	-31.9	-31.9	11.1	23929	81	2440
2026-01-04 02:28:05.24	55.46	86.86	-32.0	-31.9	11.2	20301	81	2447
2026-01-04 02:28:05.64	57.79	87.02	-32.0	-32.0	11.2	20633	81	2470
2026-01-04 02:28:06.04	60.39	87.18	-31.9	-31.9	11.3	18768	81	2453
2026-01-04 02:28:06.45	63.36	87.34	-31.8	-31.7	11.3	15632	81	2423
2026-01-04 02:28:06.85	66.62	87.48	-31.7	-31.4	11.4	14728	81	2378
2026-01-04 02:28:07.25	70.25	87.62	-31.9	-31.7	11.3	14019	81	2418
2026-01-04 02:28:07.65	74.31	87.74	-31.9	-31.9	11.3	16593	81	2448
2026-01-04 02:28:08.06	78.94	87.86	-31.7	-31.3	11.5	15541	81	2362
2026-01-04 02:28:08.46	83.93	87.96	-31.4	-30.8	11.8	8045	81	2286
2026-01-04 02:28:08.86	89.37	88.04	-31.3	-31.0	12.1	6843	80	2382
2026-01-04 02:28:09.26	95.22	88.10	-31.1	-30.6	12.3	4497	80	2327
2026-01-04 02:28:09.66	101.39	88.14	-30.8	-30.0	12.6	1796	80	2236
2026-01-04 02:28:10.07	107.92	88.16	-30.6	-30.1	12.7	1224	79	2315
2026-01-04 02:28:10.47	114.34	88.15	-30.5	-29.8	12.7	1258	79	2275
2026-01-04 02:28:10.87	120.64	88.12	-30.6	-30.0	12.7	1190	79	2294
2026-01-04 02:28:11.27	126.68	88.07	-30.7	-30.1	12.6	1361	79	2320
2026-01-04 02:28:11.68	132.49	88.00	-30.7	-30.4	12.5	1636	79	2356
2026-01-04 02:28:12.08	137.72	87.91	-30.8	-30.4	12.5	1522	79	2369
2026-01-04 02:28:12.48	142.49	87.81	-30.8	-30.4	12.4	1808	79	2368
2026-01-04 02:28:12.88	146.80	87.69	-30.7	-30.3	12.5	2014	79	2341
2026-01-04 02:28:13.29	150.76	87.56	-30.5	-29.9	12.7	1567	79	2280
2026-01-04 02:28:13.69	154.21	87.42	-30.3	-29.3	13.0	812	79	2209
2026-01-04 02:28:14.09	157.30	87.27	-30.2	-29.6	13.2	526	78	2313
2026-01-04 02:28:14.49	160.06	87.11	-30.0	-29.4	13.4	274	78	2281
2026-01-04 02:28:14.90	162.59	86.95	-29.9	-29.1	13.6	91	78	2240
2026-01-04 02:28:15.30	164.80	86.78	-29.8	-29.0	13.7	148	78	2221
2026-01-04 02:28:15.70	166.80	86.61	-29.7	-29.1	13.9	45	77	2306
2026-01-04 02:28:16.10	168.60	86.43	-29.6	-28.9	14.0	80	77	2274
2026-01-04 02:28:16.51	170.27	86.25	-29.6	-29.0	14.0	45	77	2293
2026-01-04 02:28:16.91	171.74	86.07	-29.7	-29.2	13.8	91	77	2327
2026-01-04 02:28:17.31	173.09	85.89	-29.9	-29.6	13.6	171	77	2387
2026-01-04 02:28:17.71	174.32	85.70	-29.9	-29.6	13.6	57	77	2387
2026-01-04 02:28:18.11	175.45	85.52	-29.7	-29.2	13.7	148	77	2324
2026-01-04 02:28:18.52	176.51	85.32	-29.4	-28.6	14.0	68	77	2236
2026-01-04 02:28:18.92	177.47	85.14	-29.2	-28.6	14.3	22	76	2299
2026-01-04 02:28:19.32	178.35	84.94	-29.0	-28.2	14.5	11	76	2243
2026-01-04 02:28:19.72	179.17	84.75	-28.8	-27.8	14.7	0	76	2194
2026-01-04 02:28:20.13	179.95	84.56	-28.8	-27.8	14.7	11	76	2189
2026-01-04 02:28:20.53	180.66	84.36	-28.9	-28.0	14.6	11	76	2213
2026-01-04 02:28:20.93	181.32	84.17	-29.0	-28.1	14.5	22	76	2237
2026-01-04 02:28:21.33	181.94	83.97	-28.9	-28.1	14.5	11	76	2237
2026-01-04 02:28:21.73	182.51	83.78	-28.8	-27.9	14.6	11	76	2212
2026-01-04 02:28:22.14	183.07	83.58	-28.9	-28.0	14.6	11	76	2221
2026-01-04 02:28:22.54	183.58	83.38	-28.9	-27.9	14.6	0	76	2210
2026-01-04 02:28:22.94	184.06	83.19	-28.8	-27.8	14.7	0	76	2187
2026-01-04 02:28:23.34	184.52	82.99	-28.9	-28.0	14.5	0	76	2218
2026-01-04 02:28:23.75	184.96	82.79	-28.6	-28.0	14.6	22	75	2287
2026-01-04 02:28:24.15	185.36	82.59	-28.7	-28.1	14.5	0	75	2304
2026-01-04 02:28:24.55	185.75	82.39	-28.9	-28.4	14.3	22	75	2347
2026-01-04 02:28:24.95	186.11	82.19	-28.8	-28.5	14.3	11	75	2355
2026-01-04 02:28:25.36	186.46	81.99	-28.9	-28.7	14.1	22	75	2381
2026-01-04 02:28:25.76	186.79	81.79	-29.0	-28.7	14.0	11	75	2383
2026-01-04 02:28:26.16	187.11	81.60	-29.0	-28.7	13.9	91	75	2391
2026-01-04 02:28:26.56	187.41	81.40	-28.9	-28.4	14.0	45	75	2344
2026-01-04 02:28:26.97	187.70	81.19	-28.8	-28.3	14.1	45	75	2325
2026-01-04 02:28:27.37	187.97	81.00	-28.7	-28.0	14.2	34	75	2286
2026-01-04 02:28:27.77	188.23	80.80	-28.7	-28.1	14.3	22	75	2298
2026-01-04 02:28:28.17	188.48	80.60	-28.7	-28.0	14.3	22	75	2287
2026-01-04 02:28:28.58	188.73	80.40	-28.5	-27.6	14.6	11	75	2233
2026-01-04 02:28:28.98	188.96	80.20	-28.4	-27.5	14.6	11	75	2220
2026-01-04 02:28:29.38	189.18	80.00	-28.3	-27.2	14.8	11	75	2180
2026-01-04 02:28:29.79	189.39	79.80	-28.3	-27.7	14.8	0	74	2299
2026-01-04 02:28:30.19	189.60	79.60	-28.2	-27.5	14.7	0	74	2278
2026-01-04 02:28:30.59	189.79	79.40	-28.3	-27.8	14.5	0	74	2315
2026-01-04 02:28:30.99	189.98	79.20	-28.4	-27.9	14.4	11	74	2323
2026-01-04 02:28:31.40	190.17	79.00	-28.4	-27.9	14.3	0	74	2319
2026-01-04 02:28:31.80	190.34	78.80	-28.4	-27.9	14.2	34	74	2324
2026-01-04 02:28:32.20	190.51	78.61	-28.5	-28.1	14.1	22	74	2351
2026-01-04 02:28:32.60	190.67	78.41	-28.6	-28.4	14.0	11	74	2395
2026-01-04 02:28:33.01	190.83	78.21	-28.8	-28.8	13.8	45	74	2465
2026-01-04 02:28:33.41	190.99	78.01	-29.0	-28.7	13.6	68	75	2380
2026-01-04 02:28:33.81	191.13	77.81	-29.0	-28.7	13.7	148	75	2390
2026-01-04 02:28:34.21	191.28	77.62	-28.9	-28.5	13.9	137	75	2356
2026-01-04 02:28:34.51	191.38	77.47	-28.7	-28.0	14.2	34	75	2291
2026-01-04 02:28:34.91	191.51	77.27	-28.6	-27.8	14.3	34	75	2263
2026-01-04 02:28:35.32	191.65	77.07	-28.6	-28.0	14.3	22	75	2280
2026-01-04 02:28:35.72	191.77	76.88	-28.8	-28.2	14.2	22	75	2314
2026-01-04 02:28:36.12	191.90	76.68	-28.9	-28.5	14.0	45	75	2362
2026-01-04 02:28:36.52	192.01	76.49	-28.9	-28.5	14.0	11	75	2357
2026-01-04 02:28:36.93	192.13	76.29	-28.7	-28.3	14.1	11	75	2325
2026-01-04 02:28:37.33	192.25	76.09	-28.5	-27.8	14.4	0	75	2258
2026-01-04 02:28:37.73	192.35	75.90	-28.5	-27.6	14.5	0	75	2236
2026-01-04 02:28:38.13	192.46	75.70	-28.6	-27.9	14.4	0	75	2268
2026-01-04 02:28:38.53	192.56	75.51	-28.7	-28.2	14.3	11	75	2321
2026-01-04 02:28:38.94	192.67	75.31	-29.0	-28.8	14.0	34	75	2397
2026-01-04 02:28:39.34	192.76	75.11	-29.2	-29.2	13.8	34	75	2463
2026-01-04 02:28:39.74	192.86	74.92	-29.3	-29.4	13.7	102	75	2498
2026-01-04 02:28:40.14	192.95	74.73	-29.2	-29.1	13.9	91	75	2454
2026-01-04 02:28:40.55	193.04	74.53	-29.0	-28.7	14.1	34	75	2388
2026-01-04 02:28:40.95	193.13	74.34	-28.7	-28.2	14.2	68	75	2318
2026-01-04 02:28:41.35	193.22	74.14	-28.5	-27.7	14.3	34	75	2241
2026-01-04 02:28:41.75	193.30	73.95	-28.4	-27.5	14.3	11	75	2217
2026-01-04 02:28:42.15	193.38	73.76	-28.4	-27.4	14.2	11	75	2199
2026-01-04 02:28:42.56	193.46	73.56	-28.4	-27.4	14.1	11	75	2194
2026-01-04 02:28:42.96	193.54	73.37	-28.4	-27.4	14.0	91	75	2201
2026-01-04 02:28:43.36	193.62	73.18	-28.5	-27.6	13.9	68	75	2225
2026-01-04 02:28:43.76	193.69	72.99	-28.6	-27.8	13.9	34	75	2252
2026-01-04 02:28:44.17	193.76	72.79	-28.7	-28.2	13.7	194	75	2309
2026-01-04 02:28:44.57	193.83	72.60	-29.0	-28.7	13.4	125	75	2384
2026-01-04 02:28:44.97	193.90	72.41	-29.0	-28.7	13.4	125	75	2386
2026-01-04 02:28:45.37	193.97	72.22	-29.1	-28.9	13.3	183	75	2416
2026-01-04 02:28:45.77	194.04	72.03	-29.2	-29.1	13.2	228	75	2438
2026-01-04 02:28:46.18	194.10	71.84	-29.3	-29.3	13.2	400	75	2470
2026-01-04 02:28:46.58	194.17	71.65	-29.4	-29.5	13.1	297	75	2501
2026-01-04 02:28:46.98	194.23	71.46	-29.4	-29.6	13.1	480	75	2512
2026-01-04 02:28:47.38	194.29	71.27	-29.8	-29.8	12.9	778	76	2471
2026-01-04 02:28:47.78	194.35	71.08	-29.8	-30.0	12.8	1167	76	2498
2026-01-04 02:28:48.19	194.41	70.89	-29.9	-29.6	12.6	1338	77	2376
2026-01-04 02:28:48.59	194.46	70.71	-29.9	-29.6	12.6	1132	77	2370
2026-01-04 02:28:48.99	194.52	70.52	-29.8	-29.3	12.8	1384	77	2335
2026-01-04 02:28:49.40	194.58	70.33	-38.5	-43.4	3.6	6737640	93	4330

#Closed at: 2026-01-04 02:28:49