passes_logs/2026/01/08/R2.0S_Moscow/R2.0S_Moscow__20260108_234644_SUOMI_NPP_rec.log

#Pass ID: 20260108_234644_SUOMI NPP
#Satellite: SUOMI NPP
#Configuration: NPP
#almurnet v.1.7.20251203
#Start time: 2026-01-08 23:46:46

#Version: 2.2.20231116
#Station: R2.0S_Moscow
#Location: 37.707566 lon 55.798166 lat
#TLE: 1 37849U 11061A   26008.05542337  .00000108  00000+0  71976-4 0  9997
#TLE: 2 37849  98.7805 310.1641 0002540  75.6410 284.5048 14.19523335735721

#Time	Az	El	Level	Level2	SNR	BER	BlckErr	Temp	State	Recorded	gain1	gain2
2026-01-08 23:46:46.20	16.05	2.10	-42.2	-57.0	3.8	1.49e+00	0	48	0	0	56	19209
2026-01-08 23:46:50.24	16.06	2.36	-42.0	-56.8	3.8	1.49e+00	0	48	104	0	55	19939
2026-01-08 23:46:54.28	16.07	2.62	-42.0	-56.8	3.8	1.49e+00	0	48	104	0	55	19880
2026-01-08 23:46:58.32	16.08	2.88	-42.0	-56.8	3.8	1.49e+00	0	49	104	0	55	19906
2026-01-08 23:47:02.37	16.09	3.15	-42.0	-56.8	3.8	1.49e+00	0	49	104	0	55	19912
2026-01-08 23:47:06.41	16.10	3.42	-42.0	-56.8	3.8	1.49e+00	0	49	104	0	55	19964
2026-01-08 23:47:10.46	16.11	3.69	-42.0	-56.8	3.8	1.49e+00	0	49	104	0	55	19926
2026-01-08 23:47:14.50	16.12	3.97	-42.0	-56.8	3.8	1.49e+00	0	50	104	0	55	19908
2026-01-08 23:47:18.54	16.12	4.25	-42.0	-56.8	3.8	1.49e+00	0	50	104	0	55	19916
2026-01-08 23:47:22.59	16.13	4.53	-42.0	-56.8	3.8	1.49e+00	0	50	104	0	55	19861
2026-01-08 23:47:26.63	16.14	4.81	-42.0	-56.8	3.8	1.49e+00	0	50	104	0	55	19909
2026-01-08 23:47:30.67	16.15	5.10	-42.0	-56.8	3.8	1.49e+00	0	51	104	0	55	19864
2026-01-08 23:47:34.72	16.16	5.39	-42.0	-56.8	3.8	1.49e+00	0	51	104	0	55	19863
2026-01-08 23:47:38.76	16.16	5.68	-42.0	-56.8	3.8	1.49e+00	0	51	104	0	55	19937
2026-01-08 23:47:42.80	16.17	5.98	-42.0	-56.8	3.8	1.49e+00	0	51	104	0	55	19870
2026-01-08 23:47:46.84	16.18	6.28	-42.0	-56.6	3.8	1.49e+00	0	51	104	0	55	19540
2026-01-08 23:47:50.88	16.19	6.58	-42.0	-56.3	3.8	1.49e+00	0	52	104	0	55	18916
2026-01-08 23:47:54.92	16.19	6.89	-41.9	-55.2	3.8	1.49e+00	0	52	104	0	55	16526
2026-01-08 23:47:58.97	16.20	7.20	-41.6	-51.8	4.7	1.08e+00	0	52	0	1048576	55	11208
2026-01-08 23:48:03.01	16.20	7.52	-40.8	-47.4	8.0	1.09e-01	0	52	0	8388608	53	7569
2026-01-08 23:48:07.05	16.21	7.83	-40.4	-46.2	9.2	1.78e-02	0	52	0	15728640	52	7012
2026-01-08 23:48:11.09	16.22	8.16	-41.2	-46.7	9.5	1.42e-01	0	52	0	23068672	53	6987
2026-01-08 23:48:15.13	16.22	8.48	-41.5	-55.7	3.8	1.35e+00	0	53	104	30408704	54	18701
2026-01-08 23:48:19.16	16.23	8.81	-41.5	-46.9	9.4	1.73e-02	0	53	0	36700160	54	6793
2026-01-08 23:48:23.20	16.23	9.15	-41.3	-46.4	10.1	7.91e-03	0	53	0	44040192	54	6411
2026-01-08 23:48:27.24	16.24	9.49	-41.2	-45.8	10.8	3.21e-03	0	53	0	51380224	54	5990
2026-01-08 23:48:31.28	16.24	9.84	-41.1	-45.7	11.1	1.76e-03	0	53	0	58720256	54	5867
2026-01-08 23:48:35.32	16.24	10.19	-41.0	-45.4	11.5	7.90e-04	0	53	0	66060288	54	5669
2026-01-08 23:48:39.35	16.25	10.54	-41.1	-45.5	11.4	1.09e-03	0	53	0	74448896	54	5737
2026-01-08 23:48:43.39	16.25	10.90	-40.9	-45.1	11.8	4.78e-04	0	53	0	81788928	53	5800
2026-01-08 23:48:47.43	16.25	11.27	-40.9	-44.9	12.1	2.77e-04	0	54	0	89128960	53	5680
2026-01-08 23:48:51.47	16.26	11.64	-40.9	-44.9	12.1	1.74e-04	0	54	0	96468992	53	5701
2026-01-08 23:48:55.51	16.26	12.01	-40.7	-44.4	12.7	1.06e-04	0	54	0	104857600	53	5382
2026-01-08 23:48:59.54	16.26	12.40	-40.6	-44.3	12.8	5.87e-05	0	54	0	112197632	53	5287
2026-01-08 23:49:03.58	16.26	12.78	-40.6	-44.2	12.9	5.87e-05	0	54	0	119537664	53	5238
2026-01-08 23:49:07.62	16.26	13.18	-40.4	-43.9	13.3	2.28e-05	0	54	0	126877696	52	5348
2026-01-08 23:49:11.66	16.26	13.58	-40.4	-43.9	13.2	2.59e-05	0	54	0	134217728	52	5358
2026-01-08 23:49:15.69	16.27	13.99	-40.3	-43.6	13.5	1.06e-05	0	54	0	142606336	52	5211
2026-01-08 23:49:19.73	16.26	14.40	-40.1	-43.3	14.0	3.80e-06	0	54	0	149946368	52	5002
2026-01-08 23:49:23.77	16.26	14.83	-40.2	-43.3	14.2	2.20e-06	0	54	0	157286400	51	5291
2026-01-08 23:49:27.80	16.26	15.26	-40.0	-43.0	14.4	7.00e-07	0	55	0	164626432	51	5134
2026-01-08 23:49:31.84	16.26	15.69	-40.0	-43.0	14.4	0.00e+00	0	55	0	171966464	51	5148
2026-01-08 23:49:35.88	16.26	16.14	-40.0	-43.0	14.4	1.50e-06	0	55	0	180355072	51	5115
2026-01-08 23:49:39.91	16.26	16.59	-39.9	-43.0	14.4	0.00e+00	0	55	0	187695104	51	5123
2026-01-08 23:49:43.95	16.25	17.06	-39.9	-42.9	14.6	0.00e+00	0	55	0	195035136	51	5052
2026-01-08 23:49:47.99	16.25	17.53	-39.9	-42.8	14.7	0.00e+00	0	55	0	202375168	51	5033
2026-01-08 23:49:52.02	16.24	18.01	-39.6	-42.4	15.1	0.00e+00	0	55	0	210763776	51	4810
2026-01-08 23:49:56.06	16.24	18.50	-39.9	-42.8	14.8	0.00e+00	0	55	0	218103808	51	5006
2026-01-08 23:50:00.10	16.23	19.00	-40.0	-42.9	14.7	0.00e+00	0	55	0	225443840	51	5093
2026-01-08 23:50:04.14	16.23	19.51	-40.1	-43.1	14.6	0.00e+00	0	55	0	232783872	51	5175
2026-01-08 23:50:08.17	16.22	20.03	-40.0	-42.9	14.7	0.00e+00	0	55	0	240123904	51	5097
2026-01-08 23:50:12.21	16.21	20.57	-39.9	-42.8	14.9	0.00e+00	0	55	0	248512512	51	5017
2026-01-08 23:50:16.26	16.20	21.11	-40.0	-43.0	14.7	0.00e+00	0	55	0	255852544	51	5102
2026-01-08 23:50:20.29	16.19	21.67	-40.2	-43.2	14.5	0.00e+00	0	55	0	263192576	51	5273
2026-01-08 23:50:24.33	16.18	22.24	-40.1	-43.1	14.7	1.50e-06	0	55	0	270532608	51	5183
2026-01-08 23:50:28.37	16.17	22.82	-40.2	-43.1	14.6	7.00e-07	0	55	0	278921216	51	5209
2026-01-08 23:50:32.41	16.15	23.42	-40.1	-43.0	14.8	7.00e-07	0	55	0	286261248	51	5127
2026-01-08 23:50:36.45	16.14	24.03	-40.3	-43.2	14.5	0.00e+00	0	55	0	293601280	51	5273
2026-01-08 23:50:40.48	16.12	24.65	-40.2	-43.1	14.7	0.00e+00	0	55	0	300941312	51	5189
2026-01-08 23:50:44.52	16.11	25.29	-40.0	-42.8	15.0	7.00e-07	0	55	0	308281344	51	5014
2026-01-08 23:50:48.56	16.09	25.95	-40.1	-43.0	14.7	0.00e+00	0	56	0	316669952	51	5144
2026-01-08 23:50:52.59	16.07	26.62	-40.3	-43.2	14.5	0.00e+00	0	56	0	324009984	51	5278
2026-01-08 23:50:56.63	16.05	27.31	-40.4	-43.4	14.4	0.00e+00	0	56	0	331350016	51	5385
2026-01-08 23:51:00.67	16.02	28.02	-40.5	-43.5	14.3	0.00e+00	0	56	0	338690048	51	5458
2026-01-08 23:51:04.71	16.00	28.74	-41.1	-44.5	13.2	1.52e-05	0	56	0	347078656	53	5452
2026-01-08 23:51:08.74	15.97	29.49	-41.3	-44.9	12.9	6.33e-05	0	56	0	354418688	53	5707
2026-01-08 23:51:12.78	15.94	30.25	-41.2	-44.8	13.0	8.77e-05	0	56	0	361758720	53	5597
2026-01-08 23:51:16.82	15.91	31.04	-41.3	-45.0	13.0	7.70e-05	0	56	0	369098752	53	5770
2026-01-08 23:51:20.86	15.88	31.85	-41.1	-44.6	13.1	4.65e-05	0	56	0	376438784	53	5513
2026-01-08 23:51:24.90	15.84	32.68	-40.9	-44.3	13.6	1.83e-05	0	56	0	384827392	53	5311
2026-01-08 23:51:28.94	15.81	33.54	-41.2	-44.9	13.0	3.73e-05	0	56	0	392167424	53	5665
2026-01-08 23:51:32.97	15.77	34.42	-40.7	-43.8	14.1	7.00e-07	0	56	0	399507456	53	5010
2026-01-08 23:51:37.01	15.72	35.32	-40.2	-43.0	14.9	0.00e+00	0	56	0	406847488	52	4858
2026-01-08 23:51:41.05	15.67	36.26	-39.9	-42.5	15.4	0.00e+00	0	56	0	415236096	51	4856
2026-01-08 23:51:45.09	15.62	37.22	-39.6	-42.1	15.8	0.00e+00	0	56	0	422576128	50	4922
2026-01-08 23:51:49.12	15.57	38.20	-39.4	-41.9	16.0	0.00e+00	0	56	0	429916160	50	4777
2026-01-08 23:51:53.16	15.51	39.22	-39.2	-41.6	16.3	0.00e+00	0	56	0	437256192	50	4614
2026-01-08 23:51:57.20	15.44	40.28	-39.2	-41.7	16.2	0.00e+00	0	56	0	444596224	50	4660
2026-01-08 23:52:01.24	15.37	41.36	-39.3	-41.8	16.1	0.00e+00	0	56	0	452984832	50	4747
2026-01-08 23:52:05.27	15.29	42.47	-39.9	-42.6	15.4	0.00e+00	0	56	0	460324864	50	5189
2026-01-08 23:52:09.31	15.21	43.62	-39.9	-42.7	15.2	0.00e+00	0	56	0	467664896	50	5256
2026-01-08 23:52:13.35	15.12	44.81	-40.2	-43.2	14.7	0.00e+00	0	56	0	475004928	51	5244
2026-01-08 23:52:17.39	15.02	46.03	-41.5	-45.6	12.2	1.48e-04	0	56	0	483393536	53	6145
2026-01-08 23:52:21.42	14.91	47.29	-41.0	-44.9	13.0	2.97e-05	0	56	0	490733568	53	5659
2026-01-08 23:52:25.46	14.79	48.59	-41.1	-45.2	12.5	1.82e-04	0	56	0	498073600	53	5885
2026-01-08 23:52:29.50	14.66	49.93	-40.9	-44.4	13.5	1.90e-05	0	56	0	505413632	53	5371
2026-01-08 23:52:33.53	14.52	51.31	-39.3	-41.8	16.1	0.00e+00	0	56	0	512753664	50	4710
2026-01-08 23:52:37.57	14.36	52.73	-40.2	-43.1	15.0	0.00e+00	0	56	0	521142272	50	5484
2026-01-08 23:52:41.61	14.18	54.19	-38.4	-40.4	17.5	0.00e+00	0	56	0	528482304	48	4536
2026-01-08 23:52:45.65	13.98	55.70	-39.6	-42.2	15.9	0.00e+00	0	56	0	535822336	50	4933
2026-01-08 23:52:49.68	13.76	57.24	-40.2	-43.0	15.0	0.00e+00	0	56	0	543162368	50	5430
2026-01-08 23:52:53.72	13.50	58.83	-40.7	-44.0	14.0	1.50e-06	0	56	0	551550976	51	5755
2026-01-08 23:52:57.76	13.22	60.47	-40.6	-43.8	14.2	0.00e+00	0	56	0	558891008	52	5315
2026-01-08 23:53:01.80	12.89	62.14	-39.8	-42.4	15.5	7.00e-07	0	56	0	566231040	51	4806
2026-01-08 23:53:05.83	12.51	63.86	-38.3	-40.3	17.7	0.00e+00	0	56	0	573571072	48	4450
2026-01-08 23:53:09.87	12.06	65.61	-39.6	-41.9	16.1	0.00e+00	0	56	0	580911104	50	4813
2026-01-08 23:53:13.91	11.53	67.41	-40.9	-44.1	13.7	1.52e-05	0	57	0	589299712	53	5217
2026-01-08 23:53:17.95	10.91	69.24	-42.4	-47.2	10.5	3.15e-03	0	56	0	596639744	55	6627
2026-01-08 23:53:21.99	10.14	71.11	-42.4	-46.7	11.3	2.56e-03	0	57	0	603979776	56	5884
2026-01-08 23:53:26.02	9.19	73.01	-41.9	-46.0	11.8	9.81e-04	0	57	0	611319808	55	5755
2026-01-08 23:53:30.06	7.98	74.93	-41.6	-45.5	12.2	3.81e-04	0	57	0	619708416	54	5761
2026-01-08 23:53:34.10	6.40	76.88	-42.7	-48.2	9.5	8.43e-03	0	57	0	627048448	55	7421
2026-01-08 23:53:38.14	4.23	78.83	-42.6	-47.9	9.8	1.03e-02	0	57	0	634388480	56	6761
2026-01-08 23:53:42.17	1.12	80.79	-41.4	-45.2	12.5	7.01e-05	0	57	0	641728512	54	5529
2026-01-08 23:53:46.21	356.31	82.72	-40.1	-42.8	14.8	7.00e-07	0	57	0	649068544	52	4730
2026-01-08 23:53:50.25	348.05	84.58	-39.1	-41.4	16.3	0.00e+00	0	57	0	657457152	50	4501
2026-01-08 23:53:54.29	331.92	86.22	-40.7	-43.8	13.8	1.50e-06	0	57	0	664797184	52	5315
2026-01-08 23:53:58.33	299.09	87.21	-42.8	-48.3	9.4	1.20e-02	0	57	0	672137216	56	7051
2026-01-08 23:54:02.36	258.67	86.85	-41.8	-46.3	11.2	4.34e-03	0	57	0	679477248	55	5928
2026-01-08 23:54:06.40	235.26	85.45	-40.0	-42.8	14.8	3.80e-06	0	57	0	687865856	52	4751
2026-01-08 23:54:10.44	223.91	83.66	-39.9	-42.5	15.3	0.00e+00	0	57	0	695205888	51	4839
2026-01-08 23:54:14.48	217.69	81.76	-39.9	-42.5	15.2	0.00e+00	0	57	0	702545920	50	5150
2026-01-08 23:54:18.51	213.87	79.81	-41.0	-44.5	13.2	2.42e-04	0	57	0	709885952	54	5106
2026-01-08 23:54:22.55	211.29	77.85	-40.9	-44.1	13.5	1.50e-06	0	57	0	717225984	52	5514
2026-01-08 23:54:26.59	209.45	75.89	-40.6	-43.6	14.2	3.00e-06	0	57	0	725614592	52	5179
2026-01-08 23:54:30.63	208.07	73.95	-39.9	-42.4	15.6	0.00e+00	0	57	0	732954624	51	4773
2026-01-08 23:54:34.66	207.00	72.04	-41.1	-44.5	13.3	9.10e-06	0	57	0	740294656	52	5726
2026-01-08 23:54:38.70	206.15	70.16	-42.0	-46.0	11.8	2.60e-04	0	57	0	747634688	54	6068
2026-01-08 23:54:42.74	205.45	68.30	-42.4	-46.9	10.9	3.57e-04	0	57	0	754974720	55	6351
2026-01-08 23:54:46.79	204.88	66.48	-41.7	-45.3	12.4	1.20e-04	0	57	0	763363328	54	5648
2026-01-08 23:54:50.83	204.39	64.70	-40.9	-43.9	13.9	4.50e-06	0	57	0	770703360	53	5077
2026-01-08 23:54:54.86	203.98	62.96	-40.7	-43.6	14.2	2.20e-06	0	57	0	778043392	53	4916
2026-01-08 23:54:58.90	203.63	61.26	-39.0	-41.0	16.9	0.00e+00	0	57	0	785383424	48	4856
2026-01-08 23:55:02.93	203.32	59.60	-38.7	-40.6	17.3	0.00e+00	0	57	0	793772032	49	4366
2026-01-08 23:55:06.97	203.05	57.98	-41.0	-44.0	13.8	1.50e-06	0	57	0	801112064	52	5434
2026-01-08 23:55:11.01	202.81	56.41	-40.2	-42.8	15.1	0.00e+00	0	57	0	808452096	52	4753
2026-01-08 23:55:15.05	202.60	54.88	-40.2	-42.7	15.2	0.00e+00	0	57	0	815792128	51	4959
2026-01-08 23:55:19.08	202.41	53.39	-40.5	-43.4	14.6	0.00e+00	0	57	0	823132160	52	5043
2026-01-08 23:55:23.12	202.24	51.95	-41.2	-44.4	13.5	7.00e-07	0	57	0	831520768	53	5395
2026-01-08 23:55:27.16	202.09	50.54	-41.9	-45.8	12.1	2.47e-04	0	57	0	838860800	54	5933
2026-01-08 23:55:31.20	201.95	49.18	-41.4	-44.8	13.1	1.52e-05	0	57	0	846200832	53	5619
2026-01-08 23:55:35.24	201.82	47.85	-42.2	-46.2	11.7	1.67e-03	0	57	0	853540864	56	5562
2026-01-08 23:55:39.27	201.71	46.57	-39.9	-42.2	15.7	0.00e+00	0	57	0	861929472	51	4703
2026-01-08 23:55:43.31	201.60	45.33	-41.5	-44.8	13.1	2.28e-05	0	57	0	869269504	53	5629
2026-01-08 23:55:47.35	201.51	44.12	-41.8	-45.4	12.4	8.08e-04	0	57	0	876609536	55	5369
2026-01-08 23:55:51.39	201.42	42.95	-40.4	-43.0	14.9	0.00e+00	0	57	0	883949568	52	4842
2026-01-08 23:55:55.42	201.34	41.81	-41.8	-45.5	12.3	4.27e-05	0	57	0	891289600	54	5749
2026-01-08 23:55:59.46	201.26	40.71	-41.2	-44.4	13.5	9.10e-06	0	57	0	899678208	54	5079
2026-01-08 23:56:03.50	201.19	39.64	-41.8	-45.5	12.4	2.51e-05	0	57	0	907018240	54	5734
2026-01-08 23:56:07.54	201.13	38.60	-41.8	-45.6	12.6	2.97e-05	0	57	0	914358272	54	5845
2026-01-08 23:56:11.58	201.07	37.59	-42.1	-46.2	11.6	1.75e-03	0	57	0	921698304	55	5905
2026-01-08 23:56:15.62	201.01	36.62	-41.9	-45.7	12.1	2.70e-04	0	57	0	930086912	54	5917
2026-01-08 23:56:19.65	200.96	35.67	-41.2	-44.3	13.5	2.74e-05	0	57	0	937426944	54	5019
2026-01-08 23:56:23.69	200.91	34.75	-40.8	-43.8	14.1	7.00e-07	0	57	0	944766976	52	5298
2026-01-08 23:56:27.73	200.87	33.85	-43.6	-50.0	7.8	3.20e-02	0	57	0	952107008	57	8149
2026-01-08 23:56:31.77	200.83	32.98	-42.6	-47.2	10.7	1.33e-02	0	57	0	959447040	57	5897
2026-01-08 23:56:35.81	200.79	32.13	-41.3	-44.6	13.3	1.03e-04	0	57	0	967835648	54	5172
2026-01-08 23:56:39.84	200.75	31.31	-41.0	-44.2	13.6	1.37e-05	0	57	0	975175680	53	5226
2026-01-08 23:56:43.88	200.72	30.51	-41.1	-44.4	13.4	9.90e-06	0	57	0	982515712	53	5344
2026-01-08 23:56:47.91	200.69	29.73	-41.3	-44.6	13.1	1.52e-05	0	57	0	989855744	53	5490
2026-01-08 23:56:51.95	200.66	28.98	-42.4	-46.8	10.9	1.89e-03	0	57	0	998244352	55	6281
2026-01-08 23:56:55.98	200.63	28.24	-41.8	-45.6	12.1	1.69e-04	0	57	0	1005584384	55	5512
2026-01-08 23:57:00.02	200.60	27.52	-40.4	-43.1	14.7	7.00e-07	0	57	0	1012924416	52	4914
2026-01-08 23:57:04.06	200.58	26.82	-39.5	-41.7	16.1	0.00e+00	0	57	0	1020264448	50	4683
2026-01-08 23:57:08.10	200.56	26.14	-39.7	-42.1	15.7	0.00e+00	0	57	0	1027604480	50	4896
2026-01-08 23:57:12.13	200.54	25.47	-41.0	-44.2	13.6	7.60e-06	0	57	0	1035993088	52	5558
2026-01-08 23:57:16.17	200.52	24.82	-40.9	-44.0	13.6	1.60e-05	0	57	0	1043333120	53	5146
2026-01-08 23:57:20.21	200.50	24.19	-39.9	-42.4	15.4	0.00e+00	0	57	0	1050673152	51	4794
2026-01-08 23:57:24.25	200.48	23.57	-39.8	-42.3	15.5	0.00e+00	0	57	0	1058013184	51	4736
2026-01-08 23:57:28.29	200.46	22.96	-40.5	-43.3	14.5	7.00e-07	0	57	0	1065353216	51	5312
2026-01-08 23:57:32.32	200.45	22.37	-40.5	-43.3	14.5	7.00e-07	0	57	0	1073741824	51	5290
2026-01-08 23:57:36.36	200.43	21.80	-40.1	-42.6	15.2	0.00e+00	0	57	0	1081081856	51	4901
2026-01-08 23:57:40.40	200.42	21.23	-40.1	-42.7	15.1	0.00e+00	0	57	0	1088421888	51	4927
2026-01-08 23:57:44.44	200.41	20.68	-40.2	-42.9	14.9	7.00e-07	0	57	0	1095761920	51	5059
2026-01-08 23:57:48.48	200.40	20.14	-40.5	-43.4	14.2	2.20e-06	0	57	0	1104150528	52	5087
2026-01-08 23:57:52.51	200.38	19.61	-40.6	-43.7	14.0	2.20e-06	0	57	0	1111490560	52	5234
2026-01-08 23:57:56.55	200.37	19.09	-41.0	-44.2	13.4	1.14e-05	0	57	0	1118830592	52	5560
2026-01-08 23:58:00.59	200.37	18.58	-41.6	-45.3	12.3	1.71e-04	0	57	0	1126170624	53	5987
2026-01-08 23:58:04.63	200.36	18.09	-42.0	-46.1	11.4	1.08e-03	0	57	0	1133510656	54	6187
2026-01-08 23:58:08.66	200.35	17.60	-42.1	-46.4	11.1	2.83e-03	0	57	0	1141899264	55	6033
2026-01-08 23:58:12.70	200.34	17.12	-42.0	-46.3	11.1	1.73e-03	0	57	0	1149239296	55	5990
2026-01-08 23:58:16.74	200.33	16.66	-41.8	-45.9	11.6	7.05e-04	0	57	0	1156579328	55	5684
2026-01-08 23:58:20.78	200.33	16.20	-41.4	-45.0	12.5	1.13e-04	0	57	0	1163919360	54	5446
2026-01-08 23:58:24.82	200.32	15.74	-41.2	-44.7	12.9	5.34e-05	0	57	0	1172307968	54	5227
2026-01-08 23:58:28.86	200.32	15.30	-41.1	-44.6	12.9	4.11e-05	0	57	0	1179648000	53	5495
2026-01-08 23:58:32.89	200.31	14.87	-41.2	-44.8	12.7	5.79e-05	0	57	0	1186988032	53	5611
2026-01-08 23:58:36.93	200.31	14.44	-41.1	-44.5	12.9	5.26e-05	0	57	0	1194328064	53	5463
2026-01-08 23:58:40.97	200.30	14.02	-41.0	-44.4	12.9	3.66e-05	0	57	0	1201668096	53	5395
2026-01-08 23:58:45.01	200.30	13.61	-41.0	-44.4	13.0	4.11e-05	0	57	0	1210056704	53	5374
2026-01-08 23:58:49.05	200.30	13.20	-41.0	-44.5	12.9	6.25e-05	0	57	0	1217396736	53	5417
2026-01-08 23:58:53.08	200.29	12.80	-41.0	-44.5	12.8	7.01e-05	0	57	0	1224736768	53	5429
2026-01-08 23:58:57.12	200.29	12.41	-41.1	-44.6	12.7	5.87e-05	0	57	0	1232076800	53	5478
2026-01-08 23:59:01.16	200.29	12.02	-41.1	-44.7	12.6	1.44e-04	0	57	0	1240465408	53	5547
2026-01-08 23:59:05.20	200.29	11.64	-41.1	-44.8	12.4	1.45e-04	0	57	0	1247805440	53	5612
2026-01-08 23:59:09.23	200.29	11.27	-41.1	-44.7	12.5	1.45e-04	0	57	0	1255145472	53	5590
2026-01-08 23:59:13.27	200.28	10.90	-41.1	-44.9	12.3	1.62e-04	0	57	0	1262485504	53	5659
2026-01-08 23:59:17.31	200.28	10.54	-41.1	-44.8	12.3	1.75e-04	0	57	0	1269825536	53	5653
2026-01-08 23:59:21.35	200.28	10.18	-41.1	-44.9	12.2	1.69e-04	0	57	0	1278214144	53	5668
2026-01-08 23:59:25.39	200.28	9.83	-41.1	-44.8	12.3	1.53e-04	0	57	0	1285554176	53	5635
2026-01-08 23:59:29.43	200.28	9.48	-40.9	-44.5	12.6	1.18e-04	0	57	0	1292894208	53	5426
2026-01-08 23:59:33.46	200.28	9.13	-40.9	-44.6	12.4	1.82e-04	0	57	0	1300234240	53	5477
2026-01-08 23:59:37.50	200.28	8.80	-40.9	-44.6	12.3	1.52e-04	0	57	0	1308622848	53	5501
2026-01-08 23:59:41.54	200.28	8.46	-41.1	-45.1	11.8	3.75e-04	0	57	0	1315962880	53	5793
2026-01-08 23:59:45.58	200.29	8.13	-41.1	-45.0	11.9	5.42e-04	0	57	0	1323302912	53	5743
2026-01-08 23:59:49.61	200.29	7.81	-44.7	-59.0	3.8	1.49e+00	0	57	104	1327497216	59	20370
2026-01-08 23:59:53.65	200.29	7.49	-44.9	-59.5	3.8	1.49e+00	0	57	104	1327497216	60	20348
2026-01-08 23:59:57.69	200.29	7.17	-44.9	-59.4	3.8	1.49e+00	0	57	104	1327497216	60	20174
2026-01-09 00:00:01.74	200.29	6.86	-44.9	-59.3	3.8	1.49e+00	0	57	104	1327497216	60	20035
2026-01-09 00:00:05.77	200.29	6.55	-44.8	-59.3	3.8	1.49e+00	0	57	104	1327497216	60	19957
2026-01-09 00:00:09.82	200.30	6.24	-44.8	-59.3	3.8	1.49e+00	0	57	104	1327497216	60	19928
2026-01-09 00:00:13.86	200.30	5.94	-44.8	-59.2	3.8	1.49e+00	0	57	104	1327497216	60	19835
2026-01-09 00:00:17.91	200.30	5.64	-44.8	-59.3	3.8	1.49e+00	0	57	104	1327497216	60	19889
2026-01-09 00:00:21.95	200.30	5.34	-44.8	-59.2	3.8	1.49e+00	0	57	104	1327497216	60	19813
2026-01-09 00:00:25.99	200.31	5.05	-44.8	-59.2	3.8	1.49e+00	0	57	104	1327497216	60	19799
2026-01-09 00:00:30.03	200.31	4.76	-44.8	-59.2	3.8	1.49e+00	0	57	104	1327497216	60	19833
2026-01-09 00:00:34.08	200.31	4.47	-44.8	-59.3	3.8	1.49e+00	0	57	104	1327497216	60	19843
2026-01-09 00:00:38.12	200.31	4.19	-44.8	-59.2	3.8	1.49e+00	0	57	104	1327497216	60	19793
2026-01-09 00:00:42.16	200.32	3.91	-44.8	-59.2	3.8	1.49e+00	0	57	104	1327497216	60	19813
2026-01-09 00:00:46.20	200.32	3.63	-44.8	-59.2	3.8	1.49e+00	0	57	104	1327497216	60	19818
2026-01-09 00:00:50.24	200.33	3.36	-44.8	-59.2	3.8	1.49e+00	0	57	104	1327497216	60	19824
2026-01-09 00:00:54.29	200.33	3.09	-44.8	-59.2	3.8	1.49e+00	0	57	104	1327497216	60	19812
2026-01-09 00:00:58.33	200.33	2.82	-44.8	-59.2	3.8	1.49e+00	0	57	104	1327497216	60	19790
2026-01-09 00:01:02.38	200.34	2.55	-44.8	-59.2	3.8	1.49e+00	0	57	104	1327497216	60	19707
2026-01-09 00:01:06.42	200.34	2.29	-44.7	-59.2	3.8	1.49e+00	0	57	104	1327497216	60	19726
2026-01-09 00:01:10.46	200.34	2.03	-44.7	-59.2	3.8	1.49e+00	0	57	104	1327497216	60	19753

#Closed at: 2026-01-09 00:01:13
#Recorded file [1327 MB]: D:/lorett/data/31039_260109_024646.dat