passes_logs/2026/01/08/R2.0S_Moscow/R2.0S_Moscow__20260108_081730_SUOMI_NPP_rec.log

#Pass ID: 20260108_081730_SUOMI NPP
#Satellite: SUOMI NPP
#Configuration: NPP
#almurnet v.1.7.20251203
#Start time: 2026-01-08 08:17:32

#Version: 2.2.20231116
#Station: R2.0S_Moscow
#Location: 37.707566 lon 55.798166 lat
#TLE: 1 37849U 11061A   26005.94084933  .00000134  00000+0  84554-4 0  9990
#TLE: 2 37849  98.7803 308.0679 0002567  79.1029 281.0436 14.19522657735426

#Time	Az	El	Level	Level2	SNR	BER	BlckErr	Temp	State	Recorded	gain1	gain2
2026-01-08 08:17:32.42	110.53	2.12	-36.8	-51.2	4.0	1.50e+00	0	47	0	0	43	20791
2026-01-08 08:17:35.44	110.32	2.29	-35.1	-50.8	4.2	1.50e+00	0	48	104	0	42	21226
2026-01-08 08:17:38.45	110.11	2.46	-36.5	-51.8	4.1	1.50e+00	0	48	104	0	42	23645
2026-01-08 08:17:41.48	109.90	2.63	-35.9	-52.0	4.2	1.50e+00	0	48	104	0	43	23012
2026-01-08 08:17:44.50	109.68	2.80	-35.6	-51.8	4.1	1.50e+00	0	48	104	0	42	23687
2026-01-08 08:17:47.52	109.46	2.97	-35.1	-52.1	4.1	1.50e+00	0	49	0	0	41	26043
2026-01-08 08:17:50.54	109.24	3.14	-35.1	-52.4	4.0	1.50e+00	0	49	104	0	41	26804
2026-01-08 08:17:53.56	109.02	3.32	-25.8	-45.8	4.1	1.50e+00	0	49	104	0	40	13328
2026-01-08 08:17:56.58	108.79	3.49	-36.6	-50.6	4.0	1.51e+00	0	49	104	0	40	23151
2026-01-08 08:17:59.61	108.56	3.67	-35.1	-52.0	4.1	1.50e+00	0	49	104	0	42	24257
2026-01-08 08:18:02.62	108.33	3.84	-28.2	-47.1	3.7	1.50e+00	0	49	104	0	30	27530
2026-01-08 08:18:05.65	108.10	4.02	-33.9	-51.2	4.0	1.50e+00	0	49	104	0	40	24697
2026-01-08 08:18:08.67	107.86	4.20	-26.2	-43.9	4.0	1.50e+00	0	50	104	0	38	12029
2026-01-08 08:18:11.69	107.62	4.37	-35.9	-50.7	4.2	1.50e+00	0	50	104	0	42	20933
2026-01-08 08:18:14.72	107.37	4.55	-36.2	-51.4	4.1	1.50e+00	0	50	104	0	38	28560
2026-01-08 08:18:17.75	107.12	4.73	-35.1	-50.7	4.1	1.50e+00	0	50	104	0	42	20876
2026-01-08 08:18:20.78	106.87	4.91	-36.2	-50.1	4.2	1.50e+00	0	50	104	0	41	20748
2026-01-08 08:18:23.80	106.62	5.09	-36.6	-52.0	4.2	1.50e+00	0	51	104	0	42	24350
2026-01-08 08:18:26.83	106.36	5.27	-33.1	-50.7	4.1	1.50e+00	0	51	104	0	40	23440
2026-01-08 08:18:29.85	106.10	5.46	-36.4	-51.9	4.2	1.50e+00	0	51	104	0	41	25470
2026-01-08 08:18:32.88	105.84	5.64	-36.2	-50.2	4.0	1.50e+00	0	51	104	0	41	20868
2026-01-08 08:18:35.91	105.57	5.82	-35.0	-50.6	4.0	1.50e+00	0	51	104	0	43	19497
2026-01-08 08:18:38.93	105.30	6.01	-32.6	-49.9	4.3	1.50e+00	0	51	104	0	34	30124
2026-01-08 08:18:41.96	105.02	6.19	-35.4	-51.0	4.2	1.50e+00	0	52	104	0	40	24359
2026-01-08 08:18:44.99	104.75	6.38	-37.0	-50.9	4.1	1.50e+00	0	52	104	0	41	22735
2026-01-08 08:18:48.02	104.46	6.57	-35.5	-50.8	3.9	1.50e+00	0	52	104	0	43	19851
2026-01-08 08:18:51.04	104.18	6.75	-28.4	-47.9	4.1	1.50e+00	0	52	104	0	27	35965
2026-01-08 08:18:54.07	103.89	6.94	-32.8	-49.2	4.0	1.50e+00	0	52	104	0	34	27710
2026-01-08 08:18:57.09	103.60	7.13	-34.8	-50.6	4.1	1.50e+00	0	52	104	0	39	24656
2026-01-08 08:19:00.11	103.30	7.32	-34.2	-51.9	4.0	1.50e+00	0	52	104	0	41	25321
2026-01-08 08:19:03.15	103.00	7.51	-34.9	-49.8	4.2	1.50e+00	0	52	104	0	39	22391
2026-01-08 08:19:06.17	102.69	7.70	-30.6	-46.8	4.4	1.44e+00	0	53	104	0	38	16877
2026-01-08 08:19:09.18	102.39	7.89	-35.1	-44.3	6.6	4.94e-01	0	52	0	3145728	40	11167
2026-01-08 08:19:12.21	102.07	8.08	-38.2	-52.9	4.2	1.50e+00	0	52	104	5242880	45	22747
2026-01-08 08:19:15.23	101.76	8.27	-36.2	-48.6	4.7	5.82e-01	0	53	0	6291456	43	15441
2026-01-08 08:19:18.25	101.44	8.47	-33.5	-46.5	5.1	8.60e-01	0	53	0	7340032	40	14390
2026-01-08 08:19:21.28	101.11	8.66	-35.7	-48.9	4.3	1.47e+00	0	53	104	9437184	41	17917
2026-01-08 08:19:24.31	100.78	8.86	-30.5	-48.0	4.3	1.49e+00	0	53	104	9437184	35	22803
2026-01-08 08:19:27.33	100.44	9.05	-34.8	-47.4	4.5	1.46e+00	0	53	104	9437184	39	16948
2026-01-08 08:19:30.36	100.10	9.25	-34.3	-46.0	4.5	1.43e+00	0	53	104	9437184	39	14527
2026-01-08 08:19:33.38	99.76	9.44	-35.7	-46.3	4.4	1.43e+00	0	53	104	9437184	37	16831
2026-01-08 08:19:36.40	99.41	9.64	-34.9	-48.7	4.0	1.50e+00	0	53	104	9437184	38	20932
2026-01-08 08:19:39.42	99.06	9.84	-34.7	-45.3	5.6	1.34e+00	0	53	104	9437184	39	13294
2026-01-08 08:19:42.45	98.70	10.03	-33.8	-45.6	6.4	6.86e-01	0	54	0	11534336	41	12272
2026-01-08 08:19:45.47	98.34	10.23	-36.1	-46.3	6.1	7.40e-01	0	54	0	16777216	43	11888
2026-01-08 08:19:48.50	97.97	10.43	-37.5	-45.8	6.9	3.23e-01	0	54	0	22020096	45	10003
2026-01-08 08:19:51.53	97.59	10.63	-38.2	-45.7	7.8	2.90e-01	0	53	0	28311552	49	7877
2026-01-08 08:19:54.55	97.21	10.83	-39.8	-46.9	7.5	2.07e-01	0	54	0	33554432	51	8069
2026-01-08 08:19:57.57	96.83	11.03	-38.7	-45.7	9.1	6.52e-02	0	54	0	38797312	49	7840
2026-01-08 08:20:00.59	96.44	11.23	-40.6	-46.3	8.9	2.19e-02	0	54	0	45088768	51	7538
2026-01-08 08:20:03.61	96.04	11.43	-41.3	-47.5	8.3	6.43e-02	0	54	0	50331648	53	7688
2026-01-08 08:20:06.64	95.64	11.63	-41.1	-47.1	8.7	3.32e-02	0	54	0	56623104	53	7339
2026-01-08 08:20:09.66	95.24	11.83	-41.0	-46.1	9.9	1.01e-02	0	54	0	61865984	53	6508
2026-01-08 08:20:12.68	94.83	12.03	-41.4	-46.9	9.1	2.09e-02	0	54	0	67108864	53	7182
2026-01-08 08:20:15.71	94.41	12.23	-41.1	-46.1	10.0	6.14e-03	0	54	0	73400320	53	6504
2026-01-08 08:20:18.73	93.98	12.44	-41.0	-45.7	10.4	4.95e-03	0	54	0	78643200	53	6258
2026-01-08 08:20:21.75	93.56	12.64	-40.9	-45.5	10.7	2.87e-03	0	54	0	84934656	53	6129
2026-01-08 08:20:24.77	93.12	12.84	-40.9	-45.5	10.7	3.17e-03	0	54	0	90177536	53	6105
2026-01-08 08:20:27.80	92.68	13.04	-41.0	-45.9	10.1	6.89e-03	0	54	0	95420416	53	6414
2026-01-08 08:20:30.82	92.23	13.24	-41.0	-45.9	10.2	6.76e-03	0	55	0	101711872	53	6403
2026-01-08 08:20:33.84	91.78	13.44	-40.8	-45.2	11.0	2.59e-03	0	54	0	106954752	53	5881
2026-01-08 08:20:36.86	91.32	13.64	-40.8	-45.5	10.7	4.17e-03	0	55	0	113246208	53	6124
2026-01-08 08:20:39.89	90.85	13.85	-40.2	-44.3	11.7	7.54e-04	0	55	0	118489088	52	5638
2026-01-08 08:20:42.91	90.38	14.05	-40.5	-45.0	11.0	1.88e-03	0	55	0	124780544	52	6096
2026-01-08 08:20:45.94	89.90	14.25	-40.1	-44.2	11.8	4.36e-04	0	55	0	130023424	52	5562
2026-01-08 08:20:48.96	89.41	14.45	-40.2	-44.1	12.1	1.36e-04	0	55	0	135266304	51	5798
2026-01-08 08:20:51.98	88.92	14.65	-40.7	-45.3	10.6	2.41e-03	0	55	0	141557760	52	6333
2026-01-08 08:20:55.01	88.42	14.85	-40.6	-45.3	10.5	4.00e-03	0	55	0	146800640	52	6340
2026-01-08 08:20:58.03	87.91	15.05	-40.7	-46.1	9.5	1.04e-02	0	55	0	153092096	52	6886
2026-01-08 08:21:01.06	87.40	15.25	-40.6	-46.2	9.2	2.06e-02	0	55	0	158334976	52	6960
2026-01-08 08:21:04.08	86.88	15.44	-40.8	-47.3	7.8	7.54e-02	0	55	0	163577856	52	7957
2026-01-08 08:21:07.10	86.35	15.64	-40.6	-47.0	7.9	8.02e-02	0	55	0	169869312	52	7718
2026-01-08 08:21:10.13	85.82	15.84	-40.5	-46.9	8.0	1.01e-01	0	55	0	175112192	52	7602
2026-01-08 08:21:13.16	85.28	16.03	-40.3	-45.9	9.2	2.39e-02	0	55	0	181403648	52	6731
2026-01-08 08:21:16.18	84.73	16.22	-40.4	-45.8	9.4	2.28e-02	0	55	0	186646528	52	6655
2026-01-08 08:21:19.21	84.17	16.42	-40.5	-45.4	10.1	5.78e-03	0	55	0	191889408	52	6371
2026-01-08 08:21:22.23	83.61	16.61	-40.4	-44.8	10.9	5.04e-03	0	55	0	198180864	52	5979
2026-01-08 08:21:25.25	83.04	16.80	-40.2	-44.2	11.7	1.10e-03	0	55	0	203423744	52	5585
2026-01-08 08:21:28.28	82.46	16.99	-40.0	-43.5	12.7	1.14e-04	0	55	0	209715200	51	5447
2026-01-08 08:21:31.31	81.88	17.17	-40.1	-43.7	12.5	6.33e-05	0	55	0	214958080	51	5575
2026-01-08 08:21:34.33	81.29	17.36	-40.0	-43.7	12.4	1.87e-04	0	55	0	220200960	51	5554
2026-01-08 08:21:37.36	80.69	17.54	-39.8	-43.9	11.8	3.42e-04	0	55	0	226492416	51	5663
2026-01-08 08:21:40.38	80.08	17.73	-39.6	-44.0	11.3	1.10e-03	0	55	0	231735296	51	5730
2026-01-08 08:21:43.40	79.47	17.90	-39.8	-44.6	10.4	3.96e-03	0	56	0	238026752	51	6187
2026-01-08 08:21:46.43	78.84	18.08	-39.9	-44.6	10.4	4.22e-03	0	55	0	243269632	51	6186
2026-01-08 08:21:49.45	78.22	18.26	-40.1	-45.0	10.1	6.60e-03	0	55	0	248512512	51	6487
2026-01-08 08:21:52.48	77.58	18.43	-40.2	-44.8	10.6	4.34e-03	0	55	0	254803968	51	6347
2026-01-08 08:21:55.50	76.94	18.60	-40.0	-44.5	11.0	2.07e-03	0	55	0	260046848	51	6115
2026-01-08 08:21:58.52	76.29	18.77	-39.8	-44.1	11.5	1.26e-03	0	56	0	266338304	51	5815
2026-01-08 08:22:01.55	75.63	18.93	-39.5	-43.6	11.8	5.68e-04	0	56	0	271581184	51	5528
2026-01-08 08:22:04.57	74.97	19.09	-39.3	-43.1	12.5	1.43e-04	0	56	0	277872640	50	5499
2026-01-08 08:22:07.60	74.29	19.25	-39.2	-42.7	13.2	2.28e-05	0	55	0	283115520	50	5226
2026-01-08 08:22:10.62	73.62	19.41	-39.4	-43.0	13.0	3.58e-05	0	55	0	288358400	50	5416
2026-01-08 08:22:13.65	72.93	19.56	-39.6	-43.1	12.9	4.88e-05	0	56	0	294649856	50	5525
2026-01-08 08:22:16.67	72.24	19.71	-39.4	-42.7	13.4	9.10e-06	0	55	0	299892736	50	5279
2026-01-08 08:22:19.69	71.54	19.86	-39.7	-43.2	13.1	3.20e-05	0	56	0	306184192	50	5547
2026-01-08 08:22:22.72	70.83	20.00	-39.5	-42.7	13.9	6.80e-06	0	55	0	311427072	50	5268
2026-01-08 08:22:25.74	70.12	20.14	-39.4	-42.3	14.5	1.50e-06	0	56	0	316669952	50	5025
2026-01-08 08:22:28.76	69.40	20.27	-39.0	-41.5	15.5	0.00e+00	0	56	0	322961408	50	4592
2026-01-08 08:22:31.78	68.68	20.40	-38.8	-41.2	16.1	0.00e+00	0	55	0	328204288	49	4675
2026-01-08 08:22:34.81	67.95	20.53	-38.8	-41.1	16.3	0.00e+00	0	56	0	334495744	49	4629
2026-01-08 08:22:37.83	67.21	20.65	-38.6	-40.8	16.7	0.00e+00	0	56	0	339738624	48	4743
2026-01-08 08:22:40.85	66.47	20.77	-39.0	-41.3	16.3	0.00e+00	0	56	0	344981504	48	4990
2026-01-08 08:22:43.88	65.72	20.88	-39.6	-42.3	15.3	0.00e+00	0	56	0	351272960	49	5281
2026-01-08 08:22:46.90	64.97	20.99	-39.9	-42.7	14.8	0.00e+00	0	56	0	356515840	50	5260
2026-01-08 08:22:49.93	64.21	21.09	-40.2	-43.2	14.4	0.00e+00	0	56	0	362807296	51	5265
2026-01-08 08:22:52.95	63.45	21.19	-40.2	-43.2	14.4	1.50e-06	0	56	0	368050176	51	5260
2026-01-08 08:22:55.98	62.68	21.28	-39.9	-42.8	14.9	0.00e+00	0	55	0	373293056	51	4994
2026-01-08 08:22:59.00	61.90	21.37	-39.9	-42.6	14.9	0.00e+00	0	56	0	379584512	51	4926
2026-01-08 08:23:02.02	61.13	21.45	-40.3	-43.4	14.2	0.00e+00	0	56	0	384827392	51	5400
2026-01-08 08:23:05.05	60.35	21.53	-40.3	-43.5	14.1	1.50e-06	0	56	0	391118848	51	5419
2026-01-08 08:23:08.07	59.56	21.60	-40.0	-42.8	14.8	0.00e+00	0	56	0	396361728	51	5023
2026-01-08 08:23:11.08	58.78	21.67	-40.4	-43.4	14.2	0.00e+00	0	56	0	401604608	51	5389
2026-01-08 08:23:14.11	57.98	21.73	-40.2	-43.2	14.4	0.00e+00	0	56	0	407896064	51	5237
2026-01-08 08:23:17.12	57.19	21.78	-40.0	-42.8	14.8	0.00e+00	0	56	0	413138944	51	5022
2026-01-08 08:23:20.15	56.39	21.83	-40.6	-43.9	13.7	1.50e-06	0	56	0	419430400	51	5715
2026-01-08 08:23:23.18	55.59	21.87	-40.7	-44.2	13.3	1.67e-05	0	56	0	424673280	52	5555
2026-01-08 08:23:26.20	54.79	21.91	-40.9	-44.6	12.9	4.88e-05	0	56	0	429916160	52	5843
2026-01-08 08:23:29.23	53.99	21.94	-40.4	-43.7	13.9	6.10e-06	0	56	0	436207616	52	5262
2026-01-08 08:23:32.25	53.19	21.97	-39.9	-42.8	14.8	0.00e+00	0	56	0	441450496	51	5006
2026-01-08 08:23:35.28	52.38	21.99	-39.4	-42.1	15.5	0.00e+00	0	56	0	447741952	50	4876
2026-01-08 08:23:38.30	51.57	22.00	-39.4	-42.1	15.6	0.00e+00	0	56	0	452984832	50	4873
2026-01-08 08:23:41.32	50.77	22.01	-39.6	-42.3	15.3	0.00e+00	0	56	0	459276288	50	5038
2026-01-08 08:23:44.35	49.96	22.01	-40.0	-42.9	14.8	0.00e+00	0	56	0	464519168	50	5374
2026-01-08 08:23:47.37	49.15	22.01	-40.0	-43.0	14.7	0.00e+00	0	56	0	469762048	50	5418
2026-01-08 08:23:50.40	48.34	22.00	-39.6	-42.3	15.4	0.00e+00	0	56	0	476053504	50	4998
2026-01-08 08:23:53.43	47.54	21.98	-39.4	-42.0	15.8	0.00e+00	0	56	0	481296384	50	4815
2026-01-08 08:23:56.45	46.73	21.96	-39.6	-42.2	15.6	0.00e+00	0	56	0	487587840	50	4962
2026-01-08 08:23:59.47	45.93	21.93	-39.1	-41.4	16.4	0.00e+00	0	56	0	492830720	50	4518
2026-01-08 08:24:02.49	45.13	21.89	-39.4	-41.9	15.9	0.00e+00	0	56	0	498073600	49	5060
2026-01-08 08:24:05.52	44.33	21.85	-39.1	-41.5	16.3	0.00e+00	0	56	0	504365056	49	4825
2026-01-08 08:24:08.54	43.53	21.81	-38.8	-41.0	16.7	0.00e+00	0	56	0	509607936	49	4577
2026-01-08 08:24:11.56	42.74	21.75	-39.0	-41.2	16.5	0.00e+00	0	56	0	515899392	49	4689
2026-01-08 08:24:14.59	41.94	21.70	-39.2	-41.5	16.2	0.00e+00	0	56	0	521142272	49	4840
2026-01-08 08:24:17.60	41.16	21.63	-39.1	-41.4	16.3	0.00e+00	0	56	0	526385152	49	4790
2026-01-08 08:24:20.62	40.37	21.56	-38.9	-41.2	16.6	0.00e+00	0	56	0	532676608	49	4653
2026-01-08 08:24:23.65	39.59	21.49	-38.8	-40.9	16.8	0.00e+00	0	56	0	537919488	49	4537
2026-01-08 08:24:26.67	38.81	21.41	-39.1	-41.5	16.2	0.00e+00	0	56	0	544210944	49	4825
2026-01-08 08:24:29.69	38.04	21.32	-39.7	-42.4	15.4	0.00e+00	0	56	0	549453824	50	5048
2026-01-08 08:24:32.72	37.27	21.23	-39.3	-41.7	16.0	0.00e+00	0	56	0	554696704	50	4701
2026-01-08 08:24:35.74	36.51	21.14	-39.6	-42.2	15.6	0.00e+00	0	56	0	560988160	50	4948
2026-01-08 08:24:38.76	35.75	21.04	-40.0	-42.8	14.9	0.00e+00	0	56	0	566231040	50	5333
2026-01-08 08:24:41.78	35.00	20.93	-40.4	-43.5	14.2	7.00e-07	0	56	0	572522496	51	5451
2026-01-08 08:24:44.80	34.25	20.82	-40.6	-43.9	13.8	5.30e-06	0	56	0	577765376	52	5347
2026-01-08 08:24:47.83	33.50	20.71	-40.3	-43.4	14.3	1.50e-06	0	56	0	583008256	52	5078
2026-01-08 08:24:50.85	32.77	20.59	-40.1	-43.0	14.8	7.00e-07	0	56	0	589299712	51	5105
2026-01-08 08:24:53.87	32.04	20.47	-40.4	-43.5	14.2	7.00e-07	0	56	0	594542592	51	5451
2026-01-08 08:24:56.89	31.31	20.34	-39.9	-42.6	15.1	0.00e+00	0	56	0	600834048	51	4922
2026-01-08 08:24:59.92	30.59	20.21	-39.8	-42.5	15.3	0.00e+00	0	56	0	606076928	51	4820
2026-01-08 08:25:02.95	29.88	20.07	-39.5	-42.1	15.6	0.00e+00	0	56	0	611319808	51	4630
2026-01-08 08:25:05.97	29.17	19.93	-39.7	-42.4	15.3	0.00e+00	0	56	0	617611264	50	5084
2026-01-08 08:25:08.99	28.47	19.79	-40.1	-43.0	14.7	7.00e-07	0	56	0	622854144	50	5443
2026-01-08 08:25:12.02	27.78	19.64	-40.7	-44.1	13.6	1.37e-05	0	56	0	629145600	52	5489
2026-01-08 08:25:15.05	27.09	19.49	-40.6	-44.0	13.6	8.30e-06	0	56	0	634388480	52	5431
2026-01-08 08:25:18.07	26.41	19.34	-41.2	-45.2	12.4	8.92e-05	0	56	0	640679936	52	6241
2026-01-08 08:25:21.10	25.74	19.18	-41.5	-45.8	11.8	6.87e-04	0	56	0	645922816	53	6293
2026-01-08 08:25:24.12	25.07	19.02	-41.0	-44.8	12.9	7.01e-05	0	56	0	651165696	53	5598
2026-01-08 08:25:27.15	24.41	18.85	-40.1	-43.0	14.7	1.50e-06	0	56	0	657457152	51	5123
2026-01-08 08:25:30.18	23.76	18.69	-39.3	-41.9	15.7	0.00e+00	0	56	0	662700032	50	4777
2026-01-08 08:25:33.20	23.12	18.52	-39.2	-41.6	16.0	0.00e+00	0	56	0	668991488	50	4644
2026-01-08 08:25:36.23	22.48	18.35	-39.5	-42.1	15.5	0.00e+00	0	56	0	674234368	50	4920
2026-01-08 08:25:39.25	21.85	18.18	-39.2	-41.8	15.9	0.00e+00	0	56	0	679477248	50	4714
2026-01-08 08:25:42.28	21.23	18.00	-39.1	-41.6	16.1	0.00e+00	0	56	0	685768704	50	4599
2026-01-08 08:25:45.30	20.62	17.82	-40.0	-43.0	14.6	0.00e+00	0	56	0	691011584	50	5430
2026-01-08 08:25:48.33	20.01	17.64	-40.6	-44.1	13.5	1.06e-05	0	56	0	697303040	51	5801
2026-01-08 08:25:51.36	19.41	17.46	-40.3	-43.6	13.9	5.30e-06	0	56	0	702545920	52	5212
2026-01-08 08:25:54.38	18.81	17.28	-40.1	-43.1	14.4	7.00e-07	0	56	0	707788800	52	4926
2026-01-08 08:25:57.40	18.23	17.09	-39.8	-42.6	15.0	0.00e+00	0	56	0	714080256	51	4876
2026-01-08 08:26:00.43	17.65	16.90	-39.5	-42.2	15.4	0.00e+00	0	56	0	719323136	50	4946
2026-01-08 08:26:03.46	17.08	16.71	-39.8	-42.6	14.9	0.00e+00	0	56	0	725614592	50	5207
2026-01-08 08:26:06.48	16.52	16.52	-40.3	-43.4	14.1	1.50e-06	0	56	0	730857472	51	5394
2026-01-08 08:26:09.50	15.96	16.33	-40.1	-43.2	14.4	0.00e+00	0	56	0	736100352	51	5231
2026-01-08 08:26:12.53	15.41	16.14	-40.2	-43.3	14.3	7.00e-07	0	56	0	742391808	51	5293
2026-01-08 08:26:15.55	14.87	15.95	-40.3	-43.5	14.0	2.20e-06	0	56	0	747634688	51	5425
2026-01-08 08:26:18.58	14.33	15.75	-40.2	-43.3	14.2	2.20e-06	0	56	0	753926144	51	5327
2026-01-08 08:26:21.60	13.81	15.56	-40.1	-43.1	14.5	0.00e+00	0	56	0	759169024	51	5173
2026-01-08 08:26:24.62	13.29	15.36	-39.6	-42.3	15.2	0.00e+00	0	56	0	765460480	51	4730
2026-01-08 08:26:27.65	12.77	15.16	-39.5	-42.2	15.3	0.00e+00	0	56	0	770703360	50	4939
2026-01-08 08:26:30.67	12.27	14.97	-39.6	-42.2	15.3	0.00e+00	0	56	0	775946240	50	4964
2026-01-08 08:26:33.70	11.77	14.77	-38.9	-41.2	16.2	0.00e+00	0	56	0	782237696	49	4677
2026-01-08 08:26:36.72	11.27	14.57	-38.8	-41.0	16.3	0.00e+00	0	56	0	787480576	49	4596
2026-01-08 08:26:39.74	10.79	14.37	-39.2	-41.7	15.7	0.00e+00	0	57	0	793772032	49	4946
2026-01-08 08:26:42.77	10.31	14.17	-39.2	-41.8	15.5	0.00e+00	0	57	0	799014912	49	4985
2026-01-08 08:26:45.79	9.83	13.97	-39.6	-42.4	14.8	0.00e+00	0	56	0	804257792	49	5344
2026-01-08 08:26:48.82	9.37	13.77	-39.2	-41.8	15.2	0.00e+00	0	56	0	810549248	49	4996
2026-01-08 08:26:51.85	8.91	13.57	-39.0	-41.5	15.5	0.00e+00	0	56	0	815792128	49	4845
2026-01-08 08:26:54.87	8.45	13.37	-39.0	-41.7	15.1	0.00e+00	0	56	0	822083584	49	4959
2026-01-08 08:26:57.89	8.01	13.16	-39.5	-42.7	14.0	7.00e-07	0	56	0	827326464	49	5541
2026-01-08 08:27:00.92	7.56	12.96	-39.7	-43.1	13.4	1.29e-05	0	56	0	832569344	50	5496
2026-01-08 08:27:03.94	7.13	12.76	-39.5	-42.9	13.6	3.00e-06	0	57	0	838860800	50	5357
2026-01-08 08:27:06.96	6.70	12.56	-39.0	-42.1	14.1	3.00e-06	0	56	0	844103680	50	4908
2026-01-08 08:27:09.99	6.28	12.36	-38.7	-41.8	14.1	1.50e-06	0	56	0	850395136	49	4998
2026-01-08 08:27:13.01	5.86	12.16	-39.4	-43.5	12.0	1.33e-04	0	56	0	855638016	49	6081
2026-01-08 08:27:16.03	5.45	11.96	-40.4	-46.9	8.0	4.06e-02	0	56	0	860880896	51	8012
2026-01-08 08:27:19.05	5.04	11.76	-40.6	-49.9	5.1	5.33e-01	0	56	0	867172352	51	11385
2026-01-08 08:27:22.07	4.64	11.56	-40.5	-53.7	3.8	1.49e+00	0	56	104	869269504	51	17527
2026-01-08 08:27:25.10	4.25	11.36	-40.3	-54.8	3.8	1.49e+00	0	56	104	869269504	51	20000
2026-01-08 08:27:28.13	3.86	11.16	-40.0	-54.6	3.8	1.49e+00	0	56	104	869269504	51	19531
2026-01-08 08:27:31.15	3.47	10.96	-40.1	-54.9	3.8	1.49e+00	0	56	104	869269504	51	20136
2026-01-08 08:27:34.18	3.09	10.76	-40.1	-54.7	3.8	1.49e+00	0	57	104	869269504	51	19687
2026-01-08 08:27:37.20	2.72	10.56	-40.0	-54.7	3.8	1.49e+00	0	56	104	869269504	51	19697
2026-01-08 08:27:40.23	2.35	10.36	-39.9	-54.5	3.8	1.49e+00	0	56	104	869269504	51	19252
2026-01-08 08:27:43.26	1.99	10.17	-39.8	-54.4	3.8	1.49e+00	0	56	104	869269504	51	19167
2026-01-08 08:27:46.29	1.63	9.97	-39.9	-54.5	3.8	1.49e+00	0	57	104	869269504	51	19237
2026-01-08 08:27:49.32	1.28	9.77	-39.7	-54.5	3.8	1.49e+00	0	56	104	869269504	51	19183
2026-01-08 08:27:52.34	0.93	9.58	-39.8	-54.4	3.8	1.49e+00	0	56	104	869269504	51	19098
2026-01-08 08:27:55.38	0.58	9.38	-39.7	-54.5	3.8	1.49e+00	0	57	104	869269504	51	19301
2026-01-08 08:27:58.40	0.25	9.18	-39.6	-54.5	3.8	1.49e+00	0	57	104	869269504	51	19185
2026-01-08 08:28:01.43	359.91	8.99	-39.6	-54.5	3.8	1.49e+00	0	57	104	869269504	50	20480
2026-01-08 08:28:04.45	359.58	8.80	-39.5	-54.5	3.8	1.49e+00	0	57	104	869269504	50	20344
2026-01-08 08:28:07.48	359.26	8.60	-39.4	-54.4	3.8	1.49e+00	0	57	104	869269504	50	20254
2026-01-08 08:28:10.51	358.94	8.41	-39.4	-54.4	3.8	1.49e+00	0	57	104	869269504	50	20279
2026-01-08 08:28:13.53	358.62	8.22	-39.0	-54.3	3.8	1.49e+00	0	56	104	869269504	48	22443
2026-01-08 08:28:16.55	358.31	8.03	-39.4	-54.5	3.8	1.49e+00	0	57	104	869269504	49	21576
2026-01-08 08:28:19.58	358.00	7.83	-44.9	-59.5	3.8	1.49e+00	0	57	104	869269504	60	20432
2026-01-08 08:28:22.60	357.70	7.64	-45.2	-59.9	3.8	1.49e+00	0	57	104	869269504	61	20134
2026-01-08 08:28:25.62	357.40	7.45	-45.3	-59.9	3.8	1.49e+00	0	57	104	869269504	61	20159
2026-01-08 08:28:28.65	357.10	7.27	-45.1	-59.8	3.8	1.49e+00	0	56	104	869269504	60	21052
2026-01-08 08:28:31.68	356.81	7.08	-45.1	-59.7	3.8	1.49e+00	0	57	104	869269504	60	20889
2026-01-08 08:28:34.71	356.52	6.89	-45.1	-59.6	3.8	1.49e+00	0	57	104	869269504	60	20714
2026-01-08 08:28:37.74	356.24	6.70	-45.0	-59.6	3.8	1.49e+00	0	56	104	869269504	60	20729
2026-01-08 08:28:40.76	355.96	6.52	-45.0	-59.6	3.8	1.49e+00	0	57	104	869269504	60	20694
2026-01-08 08:28:43.79	355.68	6.33	-45.0	-59.6	3.8	1.49e+00	0	57	104	869269504	60	20712
2026-01-08 08:28:46.82	355.41	6.14	-45.0	-59.6	3.8	1.49e+00	0	56	104	869269504	60	20646
2026-01-08 08:28:49.85	355.14	5.96	-45.0	-59.6	3.8	1.49e+00	0	57	104	869269504	60	20630
2026-01-08 08:28:52.87	354.87	5.78	-45.0	-59.6	3.8	1.49e+00	0	57	104	869269504	60	20679
2026-01-08 08:28:55.90	354.61	5.59	-45.0	-59.6	3.8	1.49e+00	0	57	104	869269504	60	20656
2026-01-08 08:28:58.93	354.35	5.41	-45.0	-59.6	3.8	1.49e+00	0	57	104	869269504	60	20620
2026-01-08 08:29:01.95	354.10	5.23	-45.0	-59.6	3.8	1.49e+00	0	57	104	869269504	60	20644
2026-01-08 08:29:04.98	353.84	5.05	-45.0	-59.6	3.8	1.49e+00	0	57	104	869269504	60	20609
2026-01-08 08:29:07.99	353.60	4.87	-45.0	-59.6	3.8	1.49e+00	0	57	104	869269504	60	20586
2026-01-08 08:29:11.01	353.35	4.69	-45.0	-59.6	3.8	1.49e+00	0	57	104	869269504	60	20612
2026-01-08 08:29:14.03	353.11	4.51	-45.0	-59.6	3.8	1.49e+00	0	57	104	869269504	60	20604
2026-01-08 08:29:17.05	352.87	4.34	-45.0	-59.6	3.8	1.49e+00	0	57	104	869269504	60	20585
2026-01-08 08:29:20.07	352.63	4.16	-45.0	-59.6	3.8	1.49e+00	0	57	104	869269504	60	20641
2026-01-08 08:29:23.09	352.40	3.98	-45.0	-59.5	3.8	1.49e+00	0	57	104	869269504	60	20530
2026-01-08 08:29:26.12	352.17	3.81	-45.0	-59.6	3.8	1.49e+00	0	57	104	869269504	60	20594
2026-01-08 08:29:29.14	351.94	3.63	-45.0	-59.6	3.8	1.49e+00	0	57	104	869269504	60	20604
2026-01-08 08:29:32.17	351.72	3.46	-45.0	-59.6	3.8	1.49e+00	0	57	104	869269504	60	20565
2026-01-08 08:29:35.20	351.50	3.28	-45.0	-59.6	3.8	1.49e+00	0	57	104	869269504	60	20568
2026-01-08 08:29:38.22	351.28	3.11	-45.0	-59.6	3.8	1.49e+00	0	57	104	869269504	60	20541
2026-01-08 08:29:41.25	351.06	2.94	-45.0	-59.5	3.8	1.49e+00	0	57	104	869269504	60	20534
2026-01-08 08:29:44.28	350.85	2.77	-45.0	-59.5	3.8	1.49e+00	0	57	104	869269504	60	20485
2026-01-08 08:29:47.31	350.63	2.59	-44.9	-59.5	3.8	1.49e+00	0	57	104	869269504	60	20482
2026-01-08 08:29:50.34	350.43	2.42	-44.9	-59.5	3.8	1.49e+00	0	57	104	869269504	60	20499
2026-01-08 08:29:53.37	350.22	2.25	-44.9	-59.5	3.8	1.49e+00	0	57	104	869269504	60	20475
2026-01-08 08:29:56.40	350.01	2.08	-44.9	-59.5	3.8	1.49e+00	0	57	104	869269504	60	20422

#Closed at: 2026-01-08 08:29:59
#Recorded file [869 MB]: D:/lorett/data/31039_260108_111732.dat