passes_logs/2026/01/08/R2.0S_Moscow/R2.0S_Moscow__20260108_014610_SUOMI_NPP_rec.log

#Pass ID: 20260108_014610_SUOMI NPP
#Satellite: SUOMI NPP
#Configuration: NPP
#almurnet v.1.7.20251203
#Start time: 2026-01-08 01:46:10

#Version: 2.2.20231116
#Station: R2.0S_Moscow
#Location: 37.707566 lon 55.798166 lat
#TLE: 1 37849U 11061A   26005.94084933  .00000134  00000+0  84554-4 0  9990
#TLE: 2 37849  98.7803 308.0679 0002567  79.1029 281.0436 14.19522657735426

#Time	Az	El	Level	Level2	SNR	BER	BlckErr	Temp	State	Recorded	gain1	gain2
2026-01-08 01:46:10.44	9.32	1.98	-39.3	-54.4	3.8	1.49e+00	0	46	0	0	50	20103
2026-01-08 01:46:13.48	9.09	2.15	-39.3	-54.3	3.8	1.49e+00	0	47	104	0	49	21260
2026-01-08 01:46:16.51	8.85	2.31	-39.3	-54.3	3.8	1.49e+00	0	47	104	0	49	21233
2026-01-08 01:46:19.54	8.62	2.47	-39.3	-54.4	3.8	1.49e+00	0	47	104	0	49	21300
2026-01-08 01:46:22.57	8.37	2.63	-39.3	-54.3	3.8	1.49e+00	0	48	104	0	49	21232
2026-01-08 01:46:25.60	8.13	2.79	-39.3	-54.3	3.8	1.49e+00	0	48	104	0	49	21230
2026-01-08 01:46:28.62	7.88	2.95	-39.3	-54.3	3.8	1.49e+00	0	48	104	0	49	21212
2026-01-08 01:46:31.66	7.63	3.12	-39.3	-54.3	3.8	1.49e+00	0	48	104	0	49	21234
2026-01-08 01:46:34.68	7.38	3.28	-39.3	-54.3	3.8	1.49e+00	0	49	104	0	49	21192
2026-01-08 01:46:37.71	7.13	3.44	-39.3	-54.3	3.8	1.49e+00	0	49	104	0	49	21243
2026-01-08 01:46:40.74	6.87	3.61	-39.3	-54.3	3.8	1.49e+00	0	49	104	0	49	21203
2026-01-08 01:46:43.77	6.61	3.77	-39.3	-54.3	3.8	1.49e+00	0	49	104	0	49	21230
2026-01-08 01:46:46.80	6.34	3.94	-39.3	-54.3	3.8	1.49e+00	0	49	104	0	49	21241
2026-01-08 01:46:49.83	6.07	4.10	-39.3	-54.3	3.8	1.49e+00	0	49	104	0	49	21182
2026-01-08 01:46:52.85	5.80	4.27	-39.3	-54.3	3.8	1.49e+00	0	50	104	0	49	21162
2026-01-08 01:46:55.88	5.53	4.43	-39.3	-54.3	3.8	1.49e+00	0	50	104	0	49	21199
2026-01-08 01:46:58.91	5.25	4.60	-39.3	-54.3	3.8	1.49e+00	0	50	104	0	49	21199
2026-01-08 01:47:01.94	4.97	4.77	-39.3	-54.3	3.8	1.49e+00	0	50	104	0	49	21186
2026-01-08 01:47:04.97	4.69	4.93	-39.3	-54.3	3.8	1.49e+00	0	50	104	0	49	21231
2026-01-08 01:47:08.00	4.40	5.10	-39.3	-54.3	3.8	1.49e+00	0	50	104	0	49	21169
2026-01-08 01:47:11.03	4.11	5.27	-39.3	-54.3	3.8	1.49e+00	0	51	104	0	49	21193
2026-01-08 01:47:14.05	3.81	5.44	-39.3	-54.3	3.8	1.49e+00	0	51	104	0	49	21173
2026-01-08 01:47:17.08	3.52	5.61	-39.2	-54.3	3.8	1.49e+00	0	51	104	0	49	21196
2026-01-08 01:47:20.11	3.22	5.77	-39.3	-54.3	3.8	1.49e+00	0	51	104	0	49	21223
2026-01-08 01:47:23.14	2.91	5.94	-39.3	-54.3	3.8	1.49e+00	0	51	104	0	49	21163
2026-01-08 01:47:26.17	2.60	6.11	-39.3	-54.3	3.8	1.49e+00	0	51	104	0	49	21219
2026-01-08 01:47:29.19	2.29	6.28	-39.3	-54.3	3.8	1.49e+00	0	51	104	0	49	21201
2026-01-08 01:47:32.22	1.97	6.45	-39.3	-54.3	3.8	1.49e+00	0	52	104	0	49	21223
2026-01-08 01:47:35.25	1.65	6.62	-39.3	-54.3	3.8	1.49e+00	0	51	104	0	49	21183
2026-01-08 01:47:38.28	1.33	6.80	-39.3	-54.3	3.8	1.49e+00	0	52	104	0	49	21111
2026-01-08 01:47:41.30	1.00	6.97	-39.3	-54.3	3.8	1.49e+00	0	52	104	0	49	21187
2026-01-08 01:47:44.33	0.67	7.14	-39.3	-54.3	3.8	1.49e+00	0	52	104	0	49	21188
2026-01-08 01:47:47.36	0.33	7.31	-39.3	-54.3	3.8	1.49e+00	0	52	104	0	49	21191
2026-01-08 01:47:50.39	359.99	7.48	-39.3	-54.3	3.8	1.49e+00	0	52	104	0	49	21164
2026-01-08 01:47:53.41	359.65	7.65	-39.3	-54.3	3.8	1.49e+00	0	52	104	0	49	21223
2026-01-08 01:47:56.44	359.30	7.83	-39.3	-54.3	3.8	1.49e+00	0	52	104	0	49	21173
2026-01-08 01:47:59.47	358.95	8.00	-39.3	-54.3	3.8	1.49e+00	0	53	104	0	49	21157
2026-01-08 01:48:02.50	358.59	8.17	-39.3	-54.4	3.8	1.49e+00	0	52	104	0	49	21276
2026-01-08 01:48:05.52	358.23	8.34	-38.8	-54.3	3.8	1.49e+00	0	52	104	0	49	21209
2026-01-08 01:48:08.55	357.86	8.51	-38.5	-54.3	3.8	1.49e+00	0	53	104	0	49	21186
2026-01-08 01:48:11.58	357.49	8.69	-39.1	-54.3	3.8	1.49e+00	0	53	104	0	48	22368
2026-01-08 01:48:14.61	357.11	8.86	-39.0	-54.3	3.8	1.49e+00	0	53	104	0	49	21196
2026-01-08 01:48:17.64	356.73	9.03	-39.3	-54.3	3.8	1.49e+00	0	53	104	0	49	21066
2026-01-08 01:48:20.67	356.35	9.21	-39.5	-54.3	3.8	1.49e+00	0	53	104	0	50	20001
2026-01-08 01:48:23.70	355.96	9.38	-38.7	-54.3	3.8	1.49e+00	0	53	104	0	49	21074
2026-01-08 01:48:26.72	355.57	9.55	-39.7	-54.4	3.8	1.49e+00	0	53	104	0	50	20216
2026-01-08 01:48:29.75	355.17	9.72	-39.9	-54.4	3.8	1.49e+00	0	53	104	0	50	20295
2026-01-08 01:48:32.78	354.76	9.89	-39.8	-54.4	3.8	1.49e+00	0	53	104	0	50	20257
2026-01-08 01:48:35.81	354.36	10.07	-39.9	-54.5	3.8	1.49e+00	0	53	104	0	50	20418
2026-01-08 01:48:38.83	353.94	10.24	-39.9	-54.5	3.8	1.49e+00	0	53	104	0	50	20304
2026-01-08 01:48:41.87	353.52	10.41	-39.6	-54.6	3.8	1.49e+00	0	54	104	0	50	20603
2026-01-08 01:48:44.90	353.10	10.58	-39.9	-54.5	3.8	1.49e+00	0	54	104	0	51	19357
2026-01-08 01:48:47.93	352.67	10.75	-39.8	-55.0	3.8	1.49e+00	0	54	104	0	51	20408
2026-01-08 01:48:50.96	352.24	10.92	-40.3	-54.9	3.8	1.49e+00	0	54	104	0	51	20145
2026-01-08 01:48:53.98	351.80	11.09	-40.6	-55.1	3.8	1.49e+00	0	54	104	0	51	20726
2026-01-08 01:48:57.01	351.36	11.26	-40.3	-54.9	3.8	1.49e+00	0	54	104	0	51	20076
2026-01-08 01:49:00.04	350.91	11.43	-40.6	-55.3	3.8	1.49e+00	0	54	104	0	51	21137
2026-01-08 01:49:03.07	350.45	11.60	-40.5	-55.0	3.8	1.49e+00	0	54	104	0	52	19320
2026-01-08 01:49:06.10	349.99	11.77	-40.3	-55.1	3.8	1.49e+00	0	54	104	0	52	19436
2026-01-08 01:49:09.13	349.52	11.93	-40.5	-55.2	3.8	1.49e+00	0	54	104	0	52	19770
2026-01-08 01:49:12.15	349.05	12.10	-40.2	-55.3	3.8	1.49e+00	0	54	104	0	52	19916
2026-01-08 01:49:15.18	348.58	12.26	-40.9	-55.5	3.8	1.49e+00	0	54	104	0	52	20339
2026-01-08 01:49:18.21	348.10	12.43	-41.0	-55.7	3.8	1.49e+00	0	54	104	0	52	20893
2026-01-08 01:49:21.24	347.61	12.59	-40.9	-55.5	3.8	1.49e+00	0	54	104	0	52	20333
2026-01-08 01:49:24.27	347.12	12.76	-41.1	-55.7	3.8	1.49e+00	0	54	104	0	52	20997
2026-01-08 01:49:27.30	346.62	12.92	-41.1	-55.7	3.8	1.49e+00	0	54	104	0	52	20975
2026-01-08 01:49:30.33	346.11	13.08	-41.0	-55.7	3.8	1.49e+00	0	54	104	0	53	19626
2026-01-08 01:49:33.36	345.60	13.24	-40.7	-55.3	3.8	1.49e+00	0	55	104	0	52	20018
2026-01-08 01:49:36.39	345.09	13.40	-40.5	-55.1	3.8	1.49e+00	0	54	104	0	52	19482
2026-01-08 01:49:39.42	344.57	13.55	-40.6	-55.3	3.8	1.49e+00	0	54	104	0	52	20018
2026-01-08 01:49:42.45	344.04	13.71	-40.7	-55.4	3.8	1.49e+00	0	55	104	0	52	20104
2026-01-08 01:49:45.48	343.51	13.86	-40.6	-55.2	3.8	1.49e+00	0	55	104	0	52	19762
2026-01-08 01:49:48.51	342.97	14.01	-40.6	-55.3	3.8	1.49e+00	0	55	104	0	52	19863
2026-01-08 01:49:51.53	342.43	14.16	-40.4	-55.2	3.8	1.49e+00	0	55	104	0	52	19749
2026-01-08 01:49:54.56	341.88	14.31	-40.4	-55.1	3.8	1.49e+00	0	55	104	0	52	19408
2026-01-08 01:49:57.59	341.32	14.46	-40.3	-55.0	3.8	1.49e+00	0	55	104	0	51	20448
2026-01-08 01:50:00.62	340.76	14.61	-40.5	-55.0	3.8	1.49e+00	0	55	104	0	51	20505
2026-01-08 01:50:03.64	340.20	14.75	-40.9	-54.5	3.8	1.49e+00	0	55	104	0	52	18286
2026-01-08 01:50:06.67	339.62	14.89	-40.9	-50.8	4.8	1.13e+00	0	55	0	0	52	11921
2026-01-08 01:50:09.70	339.05	15.03	-39.9	-44.7	10.7	8.24e-03	0	55	0	6291456	51	6258
2026-01-08 01:50:12.73	338.46	15.17	-38.6	-41.8	14.2	0.00e+00	0	55	0	11534336	49	5029
2026-01-08 01:50:15.76	337.88	15.30	-39.7	-43.3	13.4	1.60e-05	0	55	0	16777216	49	5939
2026-01-08 01:50:18.79	337.28	15.44	-39.4	-42.5	14.3	7.00e-07	0	55	0	23068672	50	5150
2026-01-08 01:50:21.81	336.68	15.57	-39.9	-43.0	14.2	4.50e-06	0	55	0	28311552	50	5449
2026-01-08 01:50:24.84	336.08	15.70	-40.0	-43.1	14.3	3.00e-06	0	55	0	34603008	50	5495
2026-01-08 01:50:27.87	335.47	15.82	-39.5	-42.1	15.3	0.00e+00	0	55	0	39845888	50	4915
2026-01-08 01:50:30.90	334.86	15.94	-39.4	-42.0	15.5	0.00e+00	0	55	0	45088768	50	4828
2026-01-08 01:50:33.92	334.24	16.06	-39.7	-42.4	15.2	0.00e+00	0	55	0	51380224	50	5074
2026-01-08 01:50:36.95	333.61	16.18	-39.5	-42.1	15.5	0.00e+00	0	55	0	56623104	50	4876
2026-01-08 01:50:39.98	332.98	16.30	-39.4	-41.9	15.8	0.00e+00	0	55	0	62914560	50	4784
2026-01-08 01:50:43.01	332.35	16.41	-39.8	-42.6	15.0	0.00e+00	0	55	0	68157440	50	5194
2026-01-08 01:50:46.04	331.71	16.51	-40.2	-43.2	14.4	0.00e+00	0	55	0	73400320	51	5254
2026-01-08 01:50:49.06	331.07	16.62	-39.8	-42.5	15.2	0.00e+00	0	56	0	79691776	51	4853
2026-01-08 01:50:52.09	330.42	16.72	-39.6	-42.2	15.5	0.00e+00	0	55	0	84934656	51	4673
2026-01-08 01:50:55.12	329.77	16.82	-39.3	-41.7	16.0	0.00e+00	0	55	0	91226112	50	4688
2026-01-08 01:50:58.15	329.11	16.91	-38.7	-40.9	16.9	0.00e+00	0	56	0	96468992	49	4499
2026-01-08 01:51:01.18	328.45	17.01	-38.8	-40.9	16.8	0.00e+00	0	55	0	102760448	49	4542
2026-01-08 01:51:04.21	327.78	17.09	-39.2	-41.5	16.3	0.00e+00	0	55	0	108003328	49	4827
2026-01-08 01:51:07.24	327.11	17.18	-39.4	-41.8	16.0	0.00e+00	0	55	0	113246208	49	5017
2026-01-08 01:51:10.26	326.44	17.26	-39.4	-41.9	15.9	0.00e+00	0	55	0	119537664	49	5070
2026-01-08 01:51:13.29	325.77	17.33	-39.9	-42.5	15.2	0.00e+00	0	55	0	124780544	50	5153
2026-01-08 01:51:16.32	325.09	17.41	-40.2	-43.1	14.7	0.00e+00	0	55	0	131072000	50	5516
2026-01-08 01:51:19.35	324.40	17.47	-40.1	-43.0	14.8	0.00e+00	0	55	0	136314880	51	5124
2026-01-08 01:51:22.38	323.72	17.54	-40.1	-43.0	14.8	0.00e+00	0	55	0	141557760	51	5124
2026-01-08 01:51:25.41	323.03	17.60	-40.3	-43.2	14.6	7.00e-07	0	56	0	147849216	51	5225
2026-01-08 01:51:28.44	322.34	17.66	-39.6	-42.2	15.5	0.00e+00	0	56	0	153092096	51	4671
2026-01-08 01:51:31.47	321.64	17.71	-39.4	-41.9	15.9	0.00e+00	0	56	0	159383552	50	4778
2026-01-08 01:51:34.49	320.95	17.76	-39.5	-41.9	15.9	0.00e+00	0	56	0	164626432	50	4798
2026-01-08 01:51:37.52	320.25	17.80	-39.8	-42.4	15.4	0.00e+00	0	56	0	170917888	50	5073
2026-01-08 01:51:40.55	319.55	17.84	-40.0	-42.8	15.0	0.00e+00	0	56	0	176160768	50	5316
2026-01-08 01:51:43.58	318.85	17.88	-40.3	-43.4	14.4	7.00e-07	0	56	0	181403648	51	5376
2026-01-08 01:51:46.61	318.14	17.91	-40.5	-43.9	13.8	5.30e-06	0	56	0	187695104	52	5348
2026-01-08 01:51:49.64	317.44	17.93	-40.7	-44.2	13.5	5.30e-06	0	56	0	192937984	52	5556
2026-01-08 01:51:52.66	316.73	17.95	-40.4	-43.7	13.9	2.20e-06	0	56	0	199229440	52	5273
2026-01-08 01:51:55.68	316.03	17.97	-40.0	-42.9	14.7	1.50e-06	0	56	0	204472320	51	5097
2026-01-08 01:51:58.71	315.32	17.98	-39.9	-42.8	14.9	0.00e+00	0	56	0	209715200	51	5006
2026-01-08 01:52:01.74	314.61	17.99	-39.6	-42.2	15.5	0.00e+00	0	56	0	216006656	51	4692
2026-01-08 01:52:04.77	313.90	18.00	-39.8	-42.5	15.2	0.00e+00	0	56	0	221249536	51	4835
2026-01-08 01:52:07.80	313.19	18.00	-40.0	-42.8	15.0	0.00e+00	0	56	0	227540992	51	5006
2026-01-08 01:52:10.82	312.48	17.99	-40.1	-43.1	14.6	1.50e-06	0	56	0	232783872	51	5170
2026-01-08 01:52:13.85	311.77	17.98	-40.1	-43.0	14.7	0.00e+00	0	56	0	239075328	51	5110
2026-01-08 01:52:16.88	311.06	17.97	-40.1	-43.0	14.8	0.00e+00	0	56	0	244318208	51	5124
2026-01-08 01:52:19.91	310.36	17.95	-40.1	-43.0	14.7	0.00e+00	0	56	0	249561088	51	5147
2026-01-08 01:52:22.94	309.65	17.93	-40.5	-43.8	14.0	2.20e-06	0	56	0	255852544	51	5615
2026-01-08 01:52:25.96	308.95	17.90	-40.8	-44.3	13.3	1.75e-05	0	56	0	261095424	52	5654
2026-01-08 01:52:28.99	308.24	17.87	-40.4	-43.7	13.9	4.50e-06	0	56	0	267386880	52	5243
2026-01-08 01:52:32.02	307.54	17.83	-40.0	-42.9	14.8	0.00e+00	0	56	0	272629760	51	5074
2026-01-08 01:52:35.05	306.84	17.79	-39.7	-42.5	15.3	0.00e+00	0	56	0	277872640	51	4815
2026-01-08 01:52:38.08	306.14	17.74	-39.8	-42.6	15.2	0.00e+00	0	56	0	284164096	51	4888
2026-01-08 01:52:41.10	305.44	17.69	-39.9	-42.3	15.5	7.00e-07	0	56	0	289406976	51	4749
2026-01-08 01:52:44.13	304.75	17.64	-39.8	-42.2	15.6	0.00e+00	0	56	0	295698432	51	4695
2026-01-08 01:52:47.16	304.06	17.58	-39.6	-41.9	15.9	0.00e+00	0	56	0	300941312	51	4538
2026-01-08 01:52:50.18	303.37	17.52	-39.3	-41.5	16.3	0.00e+00	0	56	0	306184192	50	4591
2026-01-08 01:52:53.21	302.68	17.46	-39.0	-41.2	16.6	0.00e+00	0	56	0	312475648	49	4672
2026-01-08 01:52:56.24	302.00	17.39	-39.2	-41.4	16.4	0.00e+00	0	56	0	317718528	49	4761
2026-01-08 01:52:59.27	301.32	17.31	-39.4	-41.7	16.0	0.00e+00	0	56	0	324009984	49	4976
2026-01-08 01:53:02.30	300.64	17.23	-39.9	-42.5	15.3	0.00e+00	0	56	0	329252864	50	5129
2026-01-08 01:53:05.32	299.97	17.15	-39.9	-42.5	15.3	0.00e+00	0	56	0	335544320	50	5137
2026-01-08 01:53:08.35	299.30	17.07	-40.0	-42.6	15.3	0.00e+00	0	56	0	340787200	50	5170
2026-01-08 01:53:11.38	298.64	16.98	-39.9	-42.5	15.3	0.00e+00	0	56	0	346030080	50	5129
2026-01-08 01:53:14.41	297.98	16.89	-40.3	-43.1	14.7	0.00e+00	0	56	0	352321536	51	5164
2026-01-08 01:53:17.43	297.32	16.79	-40.0	-42.6	15.1	1.50e-06	0	56	0	357564416	51	4920
2026-01-08 01:53:20.46	296.67	16.69	-40.2	-42.9	14.9	0.00e+00	0	56	0	363855872	51	5051
2026-01-08 01:53:23.48	296.02	16.59	-40.2	-43.0	14.8	0.00e+00	0	56	0	369098752	51	5112
2026-01-08 01:53:26.52	295.37	16.48	-40.1	-42.7	15.0	0.00e+00	0	56	0	374341632	51	4970
2026-01-08 01:53:29.54	294.74	16.37	-40.4	-43.3	14.4	0.00e+00	0	56	0	380633088	51	5312
2026-01-08 01:53:32.57	294.10	16.26	-40.6	-43.7	14.0	1.50e-06	0	56	0	385875968	51	5554
2026-01-08 01:53:35.60	293.47	16.15	-40.4	-43.3	14.4	7.00e-07	0	56	0	392167424	51	5314
2026-01-08 01:53:38.62	292.85	16.03	-40.3	-43.2	14.5	0.00e+00	0	56	0	397410304	51	5219
2026-01-08 01:53:41.65	292.23	15.91	-40.0	-42.7	14.9	0.00e+00	0	56	0	403701760	51	4968
2026-01-08 01:53:44.67	291.62	15.78	-40.0	-42.7	14.9	0.00e+00	0	56	0	408944640	51	4935
2026-01-08 01:53:47.70	291.01	15.66	-39.5	-41.9	15.7	0.00e+00	0	56	0	414187520	51	4534
2026-01-08 01:53:50.73	290.40	15.53	-39.4	-41.8	15.9	0.00e+00	0	56	0	420478976	50	4729
2026-01-08 01:53:53.75	289.80	15.40	-39.5	-41.9	15.7	0.00e+00	0	56	0	425721856	50	4795
2026-01-08 01:53:56.79	289.21	15.26	-39.5	-41.9	15.7	0.00e+00	0	56	0	432013312	50	4807
2026-01-08 01:53:59.82	288.62	15.13	-40.2	-43.1	14.4	0.00e+00	0	56	0	437256192	51	5206
2026-01-08 01:54:02.84	288.04	14.99	-40.6	-43.7	13.7	4.50e-06	0	56	0	442499072	52	5258
2026-01-08 01:54:05.86	287.46	14.85	-40.4	-43.4	14.0	7.00e-07	0	56	0	448790528	52	5085
2026-01-08 01:54:08.89	286.89	14.71	-40.2	-43.1	14.4	0.00e+00	0	56	0	454033408	52	4883
2026-01-08 01:54:11.92	286.32	14.56	-40.4	-43.4	14.0	1.50e-06	0	56	0	460324864	52	5071
2026-01-08 01:54:14.94	285.76	14.42	-40.5	-43.6	13.8	6.10e-06	0	56	0	465567744	52	5181
2026-01-08 01:54:17.97	285.21	14.27	-40.3	-43.3	14.1	3.80e-06	0	56	0	470810624	52	4996
2026-01-08 01:54:21.00	284.66	14.12	-40.3	-43.2	14.1	3.00e-06	0	56	0	477102080	52	4983
2026-01-08 01:54:24.03	284.11	13.97	-40.1	-43.0	14.4	7.00e-07	0	56	0	482344960	52	4858
2026-01-08 01:54:27.06	283.57	13.81	-39.9	-42.6	14.9	7.00e-07	0	56	0	488636416	51	4890
2026-01-08 01:54:30.08	283.04	13.66	-40.4	-43.3	14.1	7.00e-07	0	56	0	493879296	51	5332
2026-01-08 01:54:33.11	282.51	13.50	-40.4	-43.5	14.0	3.00e-06	0	56	0	500170752	51	5413
2026-01-08 01:54:36.14	281.99	13.34	-40.3	-43.2	14.2	2.20e-06	0	56	0	505413632	51	5272
2026-01-08 01:54:39.17	281.47	13.18	-40.2	-43.1	14.3	7.00e-07	0	56	0	510656512	51	5172
2026-01-08 01:54:42.20	280.96	13.02	-40.6	-43.8	13.7	3.80e-06	0	56	0	516947968	51	5635
2026-01-08 01:54:45.22	280.46	12.86	-41.1	-44.8	12.5	1.11e-04	0	56	0	522190848	53	5644
2026-01-08 01:54:48.25	279.96	12.70	-42.0	-46.9	10.3	2.77e-03	0	56	0	528482304	54	6747
2026-01-08 01:54:51.27	279.47	12.54	-41.9	-46.6	10.6	5.64e-03	0	56	0	533725184	54	6530
2026-01-08 01:54:54.29	278.98	12.37	-41.6	-45.9	11.2	1.45e-03	0	56	0	538968064	54	6050
2026-01-08 01:54:57.32	278.50	12.21	-41.5	-45.6	11.6	7.16e-04	0	56	0	545259520	54	5806
2026-01-08 01:55:00.34	278.02	12.04	-40.9	-44.5	12.6	1.27e-04	0	56	0	550502400	53	5446
2026-01-08 01:55:03.37	277.55	11.88	-40.6	-44.1	13.1	2.74e-05	0	56	0	556793856	53	5164
2026-01-08 01:55:06.40	277.08	11.71	-40.9	-44.6	12.5	9.30e-05	0	56	0	562036736	53	5493
2026-01-08 01:55:09.42	276.62	11.54	-40.9	-44.5	12.5	1.07e-04	0	56	0	567279616	53	5457
2026-01-08 01:55:12.45	276.17	11.37	-40.4	-43.8	13.3	2.44e-05	0	56	0	573571072	52	5301
2026-01-08 01:55:15.48	275.71	11.20	-40.2	-43.5	13.5	9.10e-06	0	56	0	578813952	52	5137
2026-01-08 01:55:18.50	275.27	11.03	-40.2	-43.5	13.4	1.44e-05	0	56	0	585105408	52	5121
2026-01-08 01:55:21.53	274.83	10.86	-40.3	-43.8	13.0	2.21e-05	0	56	0	590348288	52	5303
2026-01-08 01:55:24.56	274.39	10.69	-40.7	-44.6	12.0	2.28e-04	0	56	0	596639744	52	5799
2026-01-08 01:55:27.59	273.96	10.52	-40.9	-45.3	11.0	1.41e-03	0	56	0	601882624	52	6346
2026-01-08 01:55:30.62	273.54	10.35	-41.0	-45.7	10.5	2.69e-03	0	56	0	607125504	52	6579
2026-01-08 01:55:33.64	273.12	10.18	-41.1	-46.1	10.1	6.53e-03	0	56	0	613416960	52	6908
2026-01-08 01:55:36.67	272.71	10.00	-41.1	-46.2	9.9	7.60e-03	0	56	0	618659840	52	6987
2026-01-08 01:55:39.70	272.30	9.83	-40.8	-45.7	10.4	5.96e-03	0	56	0	624951296	52	6581
2026-01-08 01:55:42.72	271.89	9.66	-40.7	-45.3	10.6	3.46e-03	0	56	0	630194176	52	6329
2026-01-08 01:55:45.75	271.49	9.49	-40.6	-45.2	10.7	3.49e-03	0	56	0	635437056	52	6261
2026-01-08 01:55:48.78	271.10	9.31	-40.7	-45.7	10.0	7.00e-03	0	56	0	641728512	52	6592
2026-01-08 01:55:51.81	270.70	9.14	-40.8	-46.2	9.5	1.26e-02	0	56	0	646971392	52	6963
2026-01-08 01:55:54.83	270.32	8.97	-40.7	-46.4	9.0	2.46e-02	0	56	0	653262848	52	7125
2026-01-08 01:55:57.86	269.94	8.80	-40.7	-46.9	8.3	4.31e-02	0	56	0	658505728	52	7571
2026-01-08 01:56:00.89	269.56	8.62	-40.7	-47.9	7.0	1.44e-01	0	56	0	663748608	52	8536
2026-01-08 01:56:03.92	269.19	8.45	-40.7	-49.1	5.8	3.40e-01	0	56	0	670040064	52	9791
2026-01-08 01:56:06.94	268.82	8.28	-40.7	-50.6	4.8	7.59e-01	0	56	0	675282944	52	11606
2026-01-08 01:56:09.97	268.46	8.10	-40.7	-51.6	4.2	1.34e+00	0	56	0	679477248	52	13092
2026-01-08 01:56:13.00	268.10	7.93	-44.7	-59.1	3.8	1.49e+00	0	56	104	679477248	59	20705
2026-01-08 01:56:16.02	267.74	7.76	-45.0	-59.7	3.8	1.49e+00	0	56	104	679477248	60	20815
2026-01-08 01:56:19.05	267.39	7.59	-45.2	-59.8	3.8	1.49e+00	0	56	104	679477248	60	21189
2026-01-08 01:56:22.08	267.05	7.41	-45.2	-59.8	3.8	1.49e+00	0	56	104	679477248	60	21174
2026-01-08 01:56:25.10	266.71	7.24	-45.1	-59.8	3.8	1.49e+00	0	56	104	679477248	60	21135
2026-01-08 01:56:28.13	266.37	7.07	-45.1	-59.8	3.8	1.49e+00	0	56	104	679477248	60	21130
2026-01-08 01:56:31.16	266.03	6.90	-45.1	-59.8	3.8	1.49e+00	0	56	104	679477248	60	21087
2026-01-08 01:56:34.19	265.70	6.73	-45.1	-59.8	3.8	1.49e+00	0	57	104	679477248	60	21052
2026-01-08 01:56:37.22	265.38	6.55	-45.1	-59.8	3.8	1.49e+00	0	56	104	679477248	60	21043
2026-01-08 01:56:40.25	265.06	6.38	-45.1	-59.8	3.8	1.49e+00	0	56	104	679477248	60	21070
2026-01-08 01:56:43.28	264.74	6.21	-45.1	-59.8	3.8	1.49e+00	0	56	104	679477248	60	21029
2026-01-08 01:56:46.31	264.42	6.04	-45.1	-59.8	3.8	1.49e+00	0	57	104	679477248	60	21037
2026-01-08 01:56:49.33	264.11	5.87	-45.1	-59.7	3.8	1.49e+00	0	57	104	679477248	60	20953
2026-01-08 01:56:52.36	263.80	5.70	-45.1	-59.7	3.8	1.49e+00	0	56	104	679477248	60	20986
2026-01-08 01:56:55.39	263.50	5.53	-45.1	-59.7	3.8	1.49e+00	0	56	104	679477248	60	20990
2026-01-08 01:56:58.42	263.20	5.36	-45.1	-59.7	3.8	1.49e+00	0	57	104	679477248	60	21009
2026-01-08 01:57:01.45	262.90	5.20	-45.1	-59.7	3.8	1.49e+00	0	56	104	679477248	60	21006
2026-01-08 01:57:04.48	262.61	5.03	-45.1	-59.7	3.8	1.49e+00	0	57	104	679477248	60	20988
2026-01-08 01:57:07.51	262.32	4.86	-45.1	-59.7	3.8	1.49e+00	0	56	104	679477248	60	20994
2026-01-08 01:57:10.53	262.04	4.69	-45.1	-59.7	3.8	1.49e+00	0	56	104	679477248	60	20950
2026-01-08 01:57:13.56	261.75	4.53	-45.0	-59.7	3.8	1.49e+00	0	56	104	679477248	60	20964
2026-01-08 01:57:16.60	261.47	4.36	-45.0	-59.7	3.8	1.49e+00	0	56	104	679477248	60	20926
2026-01-08 01:57:19.62	261.20	4.19	-45.1	-59.7	3.8	1.49e+00	0	56	104	679477248	60	20965
2026-01-08 01:57:22.66	260.92	4.03	-45.0	-59.7	3.8	1.49e+00	0	56	104	679477248	60	21007
2026-01-08 01:57:25.69	260.65	3.86	-45.0	-59.7	3.8	1.49e+00	0	56	104	679477248	60	21003
2026-01-08 01:57:28.72	260.39	3.70	-45.1	-59.7	3.8	1.49e+00	0	56	104	679477248	60	20954
2026-01-08 01:57:31.75	260.12	3.53	-45.0	-59.8	3.8	1.49e+00	0	57	104	679477248	60	21021
2026-01-08 01:57:34.78	259.86	3.37	-45.0	-59.7	3.8	1.49e+00	0	57	104	679477248	60	20958
2026-01-08 01:57:37.81	259.60	3.20	-45.1	-59.7	3.8	1.49e+00	0	57	104	679477248	60	20983
2026-01-08 01:57:40.84	259.35	3.04	-45.0	-59.7	3.8	1.49e+00	0	57	104	679477248	60	20904
2026-01-08 01:57:43.87	259.10	2.88	-45.0	-59.7	3.8	1.49e+00	0	56	104	679477248	60	20916
2026-01-08 01:57:46.90	258.85	2.71	-45.0	-59.7	3.8	1.49e+00	0	56	104	679477248	60	20970
2026-01-08 01:57:49.93	258.60	2.55	-45.0	-59.7	3.8	1.49e+00	0	56	104	679477248	60	20979
2026-01-08 01:57:52.95	258.36	2.39	-45.0	-59.7	3.8	1.49e+00	0	57	104	679477248	60	20950
2026-01-08 01:57:55.98	258.12	2.23	-45.0	-59.7	3.8	1.49e+00	0	57	104	679477248	60	21002
2026-01-08 01:57:59.01	257.88	2.07	-45.0	-59.7	3.8	1.49e+00	0	56	104	679477248	60	20890

#Closed at: 2026-01-08 01:58:01
#Recorded file [679 MB]: D:/lorett/data/31039_260108_044610.dat