passes_logs/2026/01/08/R2.0S_Moscow/R2.0S_Moscow__20260108_222717_NOAA_20_JPSS-1_rec.log

#Pass ID: 20260108_222717_NOAA 20 (JPSS-1)
#Satellite: NOAA 20 (JPSS-1)
#Configuration: NOAA 20
#almurnet v.1.7.20251203
#Start time: 2026-01-08 22:27:17

#Version: 2.2.20231116
#Station: R2.0S_Moscow
#Location: 37.707566 lon 55.798166 lat
#TLE: 1 43013U 17073A   26008.42245989  .00000120  00000+0  77990-4 0  9996
#TLE: 2 43013  98.7631 309.4315 0001737  48.7960 311.3365 14.19534455421802

#Time	Az	El	Level	Level2	SNR	BER	BlckErr	Temp	State	Recorded	gain1	gain2
2026-01-08 22:27:17.81	23.01	2.00	-41.8	-57.1	3.8	1.49e+00	0	48	0	0	55	20748
2026-01-08 22:27:21.85	23.25	2.24	-41.6	-57.2	3.8	1.49e+00	0	48	104	0	54	22024
2026-01-08 22:27:25.89	23.49	2.47	-41.9	-57.1	3.8	1.49e+00	0	48	104	0	54	21943
2026-01-08 22:27:29.94	23.73	2.71	-41.9	-57.1	3.8	1.49e+00	0	49	104	0	54	22004
2026-01-08 22:27:33.98	23.98	2.95	-41.7	-57.1	3.8	1.49e+00	0	49	104	0	54	21925
2026-01-08 22:27:38.02	24.23	3.19	-41.7	-57.1	3.8	1.49e+00	0	49	104	0	54	21967
2026-01-08 22:27:42.07	24.49	3.43	-41.7	-57.1	3.8	1.49e+00	0	49	104	0	54	21981
2026-01-08 22:27:46.11	24.75	3.67	-41.9	-57.1	3.8	1.49e+00	0	50	104	0	54	21922
2026-01-08 22:27:50.15	25.01	3.92	-41.9	-57.1	3.8	1.49e+00	0	50	104	0	54	21948
2026-01-08 22:27:54.20	25.28	4.17	-41.7	-57.1	3.8	1.49e+00	0	50	104	0	54	21965
2026-01-08 22:27:58.24	25.55	4.42	-41.8	-57.1	3.8	1.49e+00	0	50	104	0	54	21951
2026-01-08 22:28:02.28	25.83	4.67	-41.8	-57.1	3.8	1.49e+00	0	50	104	0	54	21944
2026-01-08 22:28:06.32	26.11	4.92	-41.9	-57.1	3.8	1.49e+00	0	51	104	0	54	22000
2026-01-08 22:28:10.37	26.40	5.17	-42.0	-57.1	3.8	1.49e+00	0	51	104	0	54	21957
2026-01-08 22:28:14.41	26.69	5.43	-41.9	-57.1	3.8	1.49e+00	0	51	104	0	54	21952
2026-01-08 22:28:18.46	26.98	5.69	-41.7	-57.1	3.8	1.49e+00	0	51	104	0	54	21903
2026-01-08 22:28:22.50	27.28	5.95	-41.9	-57.1	3.8	1.49e+00	0	52	104	0	54	21763
2026-01-08 22:28:26.54	27.59	6.21	-41.8	-57.0	3.8	1.49e+00	0	52	104	0	54	21554
2026-01-08 22:28:30.59	27.90	6.48	-41.9	-56.9	3.8	1.49e+00	0	52	104	0	54	21481
2026-01-08 22:28:34.63	28.22	6.74	-41.7	-56.8	3.8	1.49e+00	0	52	104	0	54	21127
2026-01-08 22:28:38.68	28.54	7.01	-41.9	-57.0	3.8	1.49e+00	0	52	104	0	54	21607
2026-01-08 22:28:42.71	28.86	7.28	-41.2	-50.2	5.9	4.17e-01	0	52	0	3145728	54	9919
2026-01-08 22:28:46.76	29.20	7.55	-39.9	-44.7	11.2	1.92e-03	0	53	0	10485760	51	6274
2026-01-08 22:28:50.80	29.53	7.83	-40.3	-45.8	10.1	5.83e-03	0	53	0	17825792	51	7109
2026-01-08 22:28:54.84	29.88	8.11	-40.4	-45.9	10.2	1.58e-02	0	53	0	25165824	52	6746
2026-01-08 22:28:58.88	30.23	8.38	-41.8	-49.4	7.0	4.63e-03	0	53	0	30408704	54	9031
2026-01-08 22:29:02.92	30.59	8.67	-40.7	-45.0	11.5	9.31e-04	0	53	0	37748736	53	5763
2026-01-08 22:29:06.96	30.95	8.95	-40.9	-45.3	11.4	1.02e-03	0	53	0	46137344	53	5951
2026-01-08 22:29:11.00	31.32	9.24	-40.8	-44.9	11.8	5.87e-04	0	53	0	53477376	53	5718
2026-01-08 22:29:15.04	31.70	9.52	-40.6	-44.5	12.4	1.90e-04	0	54	0	60817408	53	5414
2026-01-08 22:29:19.08	32.08	9.81	-40.5	-44.2	12.6	8.31e-05	0	53	0	68157440	52	5578
2026-01-08 22:29:23.11	32.48	10.11	-40.6	-44.3	12.6	8.01e-05	0	54	0	76546048	52	5640
2026-01-08 22:29:27.15	32.88	10.40	-40.7	-44.3	12.7	9.46e-05	0	54	0	83886080	52	5618
2026-01-08 22:29:31.19	33.28	10.70	-40.7	-44.3	12.7	5.95e-05	0	54	0	91226112	52	5645
2026-01-08 22:29:35.23	33.70	11.00	-40.7	-44.2	12.9	4.80e-05	0	54	0	98566144	52	5555
2026-01-08 22:29:39.26	34.12	11.30	-40.7	-44.2	13.0	5.64e-05	0	54	0	105906176	52	5529
2026-01-08 22:29:43.30	34.55	11.61	-40.5	-43.9	13.3	1.14e-05	0	54	0	114294784	52	5352
2026-01-08 22:29:47.34	35.00	11.91	-40.3	-43.5	13.7	9.10e-06	0	54	0	121634816	52	5138
2026-01-08 22:29:51.37	35.44	12.22	-40.4	-43.7	13.6	1.37e-05	0	54	0	128974848	52	5229
2026-01-08 22:29:55.41	35.90	12.53	-40.3	-43.4	13.9	3.80e-06	0	54	0	136314880	52	5052
2026-01-08 22:29:59.45	36.37	12.85	-40.3	-43.4	13.8	3.00e-06	0	55	0	144703488	52	5090
2026-01-08 22:30:03.49	36.85	13.16	-40.5	-43.7	13.6	9.90e-06	0	55	0	152043520	52	5253
2026-01-08 22:30:07.53	37.34	13.48	-40.6	-43.9	13.4	1.29e-05	0	55	0	159383552	52	5366
2026-01-08 22:30:11.56	37.84	13.80	-40.5	-43.6	13.7	9.90e-06	0	55	0	166723584	52	5204
2026-01-08 22:30:15.61	38.35	14.13	-40.4	-43.6	13.8	5.30e-06	0	55	0	174063616	52	5181
2026-01-08 22:30:19.65	38.87	14.45	-40.5	-43.6	13.7	3.80e-06	0	55	0	182452224	52	5200
2026-01-08 22:30:23.68	39.40	14.78	-40.3	-43.4	14.1	5.30e-06	0	55	0	189792256	52	5053
2026-01-08 22:30:27.72	39.94	15.11	-40.3	-43.2	14.2	7.00e-07	0	55	0	197132288	52	4981
2026-01-08 22:30:31.77	40.50	15.45	-40.3	-43.2	14.2	2.20e-06	0	55	0	204472320	52	4971
2026-01-08 22:30:35.80	41.06	15.78	-40.3	-43.3	14.2	3.00e-06	0	55	0	212860928	52	5006
2026-01-08 22:30:39.84	41.64	16.12	-40.2	-43.1	14.4	0.00e+00	0	55	0	220200960	52	4915
2026-01-08 22:30:43.88	42.23	16.46	-40.1	-42.9	14.7	7.00e-07	0	55	0	227540992	52	4773
2026-01-08 22:30:47.92	42.84	16.80	-40.1	-42.9	14.8	0.00e+00	0	55	0	234881024	51	5053
2026-01-08 22:30:51.96	43.46	17.14	-40.1	-42.8	14.9	1.50e-06	0	55	0	242221056	51	5001
2026-01-08 22:30:56.00	44.09	17.48	-40.1	-42.8	14.9	0.00e+00	0	55	0	250609664	51	5030
2026-01-08 22:31:00.03	44.73	17.83	-40.1	-42.7	15.0	0.00e+00	0	55	0	257949696	51	4976
2026-01-08 22:31:04.07	45.40	18.17	-40.0	-42.6	15.2	0.00e+00	0	55	0	265289728	51	4907
2026-01-08 22:31:08.11	46.07	18.52	-40.0	-42.6	15.2	0.00e+00	0	56	0	272629760	51	4871
2026-01-08 22:31:12.15	46.76	18.87	-39.9	-42.5	15.3	0.00e+00	0	55	0	281018368	51	4823
2026-01-08 22:31:16.18	47.47	19.22	-39.7	-42.2	15.6	0.00e+00	0	56	0	288358400	51	4689
2026-01-08 22:31:20.22	48.19	19.57	-39.6	-42.0	15.8	0.00e+00	0	56	0	295698432	51	4565
2026-01-08 22:31:24.26	48.93	19.92	-39.6	-42.1	15.8	0.00e+00	0	56	0	303038464	51	4608
2026-01-08 22:31:28.30	49.69	20.27	-39.5	-41.8	16.0	0.00e+00	0	56	0	310378496	50	4746
2026-01-08 22:31:32.33	50.46	20.62	-39.5	-41.8	16.0	0.00e+00	0	56	0	318767104	50	4737
2026-01-08 22:31:36.37	51.25	20.98	-39.4	-41.7	16.1	0.00e+00	0	56	0	326107136	50	4668
2026-01-08 22:31:40.42	52.06	21.33	-39.7	-42.1	15.7	0.00e+00	0	56	0	333447168	50	4902
2026-01-08 22:31:44.45	52.88	21.68	-39.5	-41.9	15.9	0.00e+00	0	56	0	340787200	50	4803
2026-01-08 22:31:48.49	53.73	22.02	-39.7	-42.1	15.7	0.00e+00	0	56	0	349175808	50	4906
2026-01-08 22:31:52.53	54.59	22.37	-39.6	-42.0	15.8	0.00e+00	0	56	0	356515840	50	4856
2026-01-08 22:31:56.57	55.47	22.72	-39.4	-41.8	16.1	0.00e+00	0	56	0	363855872	50	4709
2026-01-08 22:32:00.61	56.38	23.06	-39.6	-42.0	15.9	0.00e+00	0	56	0	371195904	50	4865
2026-01-08 22:32:04.64	57.30	23.40	-39.8	-42.3	15.6	0.00e+00	0	56	0	378535936	50	5036
2026-01-08 22:32:08.68	58.24	23.73	-39.9	-42.4	15.5	0.00e+00	0	56	0	386924544	50	5087
2026-01-08 22:32:12.72	59.20	24.07	-40.1	-42.7	15.2	0.00e+00	0	56	0	394264576	50	5239
2026-01-08 22:32:16.75	60.18	24.39	-40.2	-42.8	15.1	0.00e+00	0	56	0	401604608	50	5310
2026-01-08 22:32:20.79	61.18	24.72	-40.1	-42.7	15.2	0.00e+00	0	56	0	408944640	50	5235
2026-01-08 22:32:24.83	62.20	25.04	-40.5	-43.3	14.7	7.00e-07	0	56	0	417333248	51	5285
2026-01-08 22:32:28.87	63.24	25.35	-40.7	-43.7	14.1	1.50e-06	0	56	0	424673280	52	5239
2026-01-08 22:32:32.91	64.30	25.66	-40.8	-43.8	14.0	1.50e-06	0	56	0	432013312	52	5323
2026-01-08 22:32:36.94	65.38	25.95	-40.9	-44.1	13.8	2.20e-06	0	56	0	439353344	52	5498
2026-01-08 22:32:40.98	66.49	26.25	-41.3	-44.7	13.1	2.28e-05	0	56	0	446693376	53	5540
2026-01-08 22:32:45.02	67.61	26.53	-41.3	-44.8	13.0	3.73e-05	0	56	0	455081984	53	5603
2026-01-08 22:32:49.06	68.75	26.81	-41.4	-44.9	12.9	5.03e-05	0	56	0	462422016	53	5682
2026-01-08 22:32:53.09	69.91	27.07	-41.3	-44.8	13.0	4.80e-05	0	56	0	469762048	53	5613
2026-01-08 22:32:57.13	71.09	27.33	-41.4	-44.8	13.0	3.96e-05	0	56	0	477102080	53	5648
2026-01-08 22:33:01.17	72.29	27.57	-41.4	-44.9	13.0	5.03e-05	0	56	0	485490688	53	5661
2026-01-08 22:33:05.21	73.51	27.80	-41.4	-44.8	13.0	2.97e-05	0	56	0	492830720	53	5643
2026-01-08 22:33:09.25	74.74	28.03	-42.1	-46.2	11.6	7.99e-04	0	56	0	500170752	54	6251
2026-01-08 22:33:13.28	75.99	28.24	-42.2	-46.5	11.3	1.48e-03	0	56	0	507510784	55	6087
2026-01-08 22:33:17.32	77.26	28.43	-42.0	-46.0	11.8	7.09e-04	0	56	0	514850816	55	5757
2026-01-08 22:33:21.36	78.54	28.61	-41.7	-45.5	12.4	2.16e-04	0	56	0	523239424	55	5410
2026-01-08 22:33:25.40	79.83	28.78	-41.8	-45.6	12.2	2.24e-04	0	56	0	530579456	55	5504
2026-01-08 22:33:29.44	81.14	28.93	-42.2	-46.4	11.4	9.08e-04	0	56	0	537919488	55	6030
2026-01-08 22:33:33.47	82.46	29.07	-42.0	-46.1	11.7	5.77e-04	0	56	0	545259520	55	5798
2026-01-08 22:33:37.51	83.79	29.19	-41.7	-45.4	12.4	1.81e-04	0	57	0	553648128	55	5399
2026-01-08 22:33:41.55	85.13	29.30	-41.7	-45.3	12.5	8.62e-05	0	56	0	560988160	55	5316
2026-01-08 22:33:45.59	86.48	29.39	-41.7	-45.5	12.4	1.17e-04	0	56	0	568328192	55	5403
2026-01-08 22:33:49.62	87.83	29.46	-41.2	-44.4	13.5	6.80e-06	0	56	0	575668224	54	5097
2026-01-08 22:33:53.66	89.19	29.52	-42.0	-45.9	12.0	2.69e-04	0	57	0	583008256	54	6054
2026-01-08 22:33:57.70	90.56	29.55	-41.2	-44.5	13.5	1.52e-05	0	56	0	591396864	54	5114
2026-01-08 22:34:01.74	91.92	29.57	-41.1	-44.3	13.6	9.10e-06	0	56	0	598736896	53	5298
2026-01-08 22:34:05.77	93.29	29.58	-41.5	-44.9	12.9	3.89e-05	0	57	0	606076928	53	5716
2026-01-08 22:34:09.81	94.66	29.56	-41.1	-44.3	13.6	6.10e-06	0	57	0	613416960	53	5285
2026-01-08 22:34:13.85	96.02	29.53	-41.7	-45.3	12.6	5.49e-05	0	57	0	620756992	53	5987
2026-01-08 22:34:17.89	97.38	29.48	-41.9	-45.8	12.1	3.94e-04	0	57	0	629145600	54	5932
2026-01-08 22:34:21.93	98.74	29.41	-41.5	-44.9	13.0	2.05e-05	0	57	0	636485632	54	5388
2026-01-08 22:34:25.96	100.09	29.33	-42.4	-46.8	11.0	1.60e-03	0	57	0	643825664	55	6326
2026-01-08 22:34:30.00	101.44	29.23	-41.8	-45.6	12.3	1.99e-04	0	57	0	651165696	55	5524
2026-01-08 22:34:34.04	102.77	29.11	-41.8	-45.7	12.3	2.65e-04	0	56	0	659554304	55	5530
2026-01-08 22:34:38.08	104.10	28.98	-41.8	-45.7	12.2	1.51e-04	0	56	0	666894336	55	5565
2026-01-08 22:34:42.12	105.41	28.83	-41.9	-45.7	12.2	3.27e-04	0	57	0	674234368	55	5559
2026-01-08 22:34:46.15	106.71	28.67	-41.2	-44.4	13.5	1.14e-05	0	57	0	681574400	54	5093
2026-01-08 22:34:50.19	108.00	28.49	-40.9	-44.0	13.9	3.00e-06	0	57	0	688914432	53	5112
2026-01-08 22:34:54.23	109.28	28.30	-41.3	-44.6	13.3	1.22e-05	0	57	0	697303040	53	5486
2026-01-08 22:34:58.27	110.54	28.10	-40.8	-43.8	14.1	3.00e-06	0	57	0	704643072	53	5013
2026-01-08 22:35:02.30	111.78	27.88	-40.4	-43.1	14.8	0.00e+00	0	57	0	711983104	52	4907
2026-01-08 22:35:06.34	113.00	27.65	-41.0	-44.2	13.7	7.60e-06	0	57	0	719323136	52	5566
2026-01-08 22:35:10.38	114.21	27.41	-41.3	-44.7	13.2	1.83e-05	0	57	0	727711744	53	5536
2026-01-08 22:35:14.42	115.40	27.15	-41.0	-44.2	13.7	9.10e-06	0	56	0	735051776	53	5233
2026-01-08 22:35:18.46	116.57	26.89	-40.7	-43.6	14.2	0.00e+00	0	57	0	742391808	53	4924
2026-01-08 22:35:22.50	117.73	26.62	-41.2	-44.5	13.3	1.52e-05	0	57	0	749731840	53	5453
2026-01-08 22:35:26.54	118.86	26.33	-41.2	-44.6	13.3	1.52e-05	0	57	0	757071872	53	5488
2026-01-08 22:35:30.58	119.97	26.04	-40.9	-44.0	13.9	7.00e-07	0	57	0	765460480	53	5139
2026-01-08 22:35:34.61	121.06	25.74	-40.5	-43.4	14.5	7.00e-07	0	57	0	772800512	53	4768
2026-01-08 22:35:38.65	122.14	25.44	-40.2	-42.8	15.0	0.00e+00	0	57	0	780140544	52	4759
2026-01-08 22:35:42.69	123.19	25.12	-40.5	-43.4	14.4	0.00e+00	0	57	0	787480576	52	5079
2026-01-08 22:35:46.73	124.22	24.81	-40.5	-43.4	14.4	0.00e+00	0	57	0	795869184	52	5055
2026-01-08 22:35:50.77	125.24	24.48	-40.1	-42.8	15.0	7.00e-07	0	57	0	803209216	52	4738
2026-01-08 22:35:54.81	126.23	24.15	-40.7	-43.7	14.0	3.80e-06	0	57	0	810549248	52	5254
2026-01-08 22:35:58.85	127.20	23.82	-40.3	-43.1	14.7	3.35e-05	0	57	0	817889280	52	4885
2026-01-08 22:36:02.88	128.15	23.48	-41.3	-44.8	12.9	3.35e-05	0	57	0	825229312	53	5619
2026-01-08 22:36:06.92	129.08	23.14	-41.0	-44.2	13.6	6.10e-05	0	57	0	833617920	53	5252
2026-01-08 22:36:10.95	129.99	22.80	-41.3	-45.0	12.4	3.19e-03	0	57	0	840957952	53	5759
2026-01-08 22:36:14.99	130.88	22.45	-40.4	-43.3	14.5	1.50e-06	0	57	0	848297984	52	5000
2026-01-08 22:36:19.03	131.75	22.10	-41.3	-44.7	13.1	4.65e-05	0	57	0	855638016	53	5546
2026-01-08 22:36:23.07	132.61	21.75	-40.6	-43.6	14.1	3.80e-06	0	57	0	864026624	52	5214
2026-01-08 22:36:27.11	133.44	21.40	-41.3	-44.8	12.8	4.04e-05	0	57	0	871366656	53	5648
2026-01-08 22:36:31.14	134.26	21.05	-40.4	-43.3	14.4	7.00e-07	0	57	0	878706688	52	5020
2026-01-08 22:36:35.18	135.06	20.69	-40.3	-43.2	14.5	7.00e-07	0	57	0	886046720	52	4953
2026-01-08 22:36:39.21	135.84	20.34	-40.1	-42.8	14.9	7.00e-07	0	57	0	893386752	52	4739
2026-01-08 22:36:43.26	136.60	19.98	-40.3	-43.2	14.5	7.00e-07	0	57	0	901775360	52	4950
2026-01-08 22:36:47.30	137.35	19.63	-40.3	-43.1	14.6	0.00e+00	0	57	0	909115392	52	4897
2026-01-08 22:36:51.33	138.08	19.28	-40.1	-42.8	14.9	0.00e+00	0	57	0	916455424	52	4716
2026-01-08 22:36:55.37	138.79	18.92	-39.8	-42.4	15.4	0.00e+00	0	57	0	923795456	51	4778
2026-01-08 22:36:59.41	139.49	18.57	-39.5	-41.8	15.9	0.00e+00	0	57	0	932184064	50	4740
2026-01-08 22:37:03.44	140.17	18.22	-39.8	-42.3	15.3	4.50e-06	0	57	0	939524096	50	5014
2026-01-08 22:37:07.48	140.84	17.87	-40.1	-42.8	14.9	0.00e+00	0	57	0	946864128	50	5299
2026-01-08 22:37:11.52	141.49	17.52	-40.0	-42.7	15.0	0.00e+00	0	57	0	954204160	50	5250
2026-01-08 22:37:15.54	142.13	17.18	-39.8	-42.3	15.3	0.00e+00	0	57	0	961544192	50	5030
2026-01-08 22:37:19.58	142.75	16.83	-39.9	-42.5	15.1	7.00e-07	0	57	0	969932800	50	5146
2026-01-08 22:37:23.62	143.36	16.49	-40.1	-42.9	14.8	0.00e+00	0	57	0	977272832	50	5362
2026-01-08 22:37:27.66	143.96	16.14	-40.2	-43.1	14.5	7.00e-07	0	57	0	984612864	51	5171
2026-01-08 22:37:31.69	144.54	15.81	-40.7	-43.8	13.8	1.50e-06	0	57	0	991952896	51	5625
2026-01-08 22:37:35.73	145.11	15.47	-40.4	-43.5	14.0	5.30e-06	0	57	0	999292928	52	5120
2026-01-08 22:37:39.77	145.67	15.13	-40.6	-43.7	13.8	7.60e-06	0	57	0	1007681536	52	5268
2026-01-08 22:37:43.81	146.22	14.80	-40.9	-44.2	13.2	1.06e-05	0	57	0	1015021568	52	5586
2026-01-08 22:37:47.84	146.75	14.47	-41.0	-44.6	12.8	7.55e-05	0	57	0	1022361600	52	5801
2026-01-08 22:37:51.88	147.27	14.14	-41.0	-44.4	12.9	5.49e-05	0	57	0	1029701632	52	5718
2026-01-08 22:37:55.92	147.79	13.81	-40.7	-43.9	13.5	2.21e-05	0	57	0	1038090240	52	5368
2026-01-08 22:37:59.96	148.29	13.48	-40.5	-43.7	13.6	1.90e-05	0	57	0	1045430272	52	5242
2026-01-08 22:38:04.00	148.78	13.16	-40.7	-44.0	13.3	1.60e-05	0	57	0	1052770304	52	5447
2026-01-08 22:38:08.03	149.26	12.84	-40.8	-44.3	12.9	5.10e-04	0	57	0	1060110336	52	5633
2026-01-08 22:38:12.07	149.73	12.52	-40.7	-44.1	13.1	8.46e-05	0	57	0	1067450368	52	5503
2026-01-08 22:38:16.10	150.19	12.21	-40.3	-43.4	14.0	2.20e-06	0	57	0	1075838976	52	5043
2026-01-08 22:38:20.14	150.64	11.90	-40.4	-43.6	13.7	6.10e-06	0	57	0	1083179008	52	5192
2026-01-08 22:38:24.18	151.09	11.59	-40.7	-44.1	13.1	3.12e-05	0	57	0	1090519040	52	5517
2026-01-08 22:38:28.22	151.52	11.28	-40.8	-44.2	13.0	4.04e-05	0	57	0	1097859072	52	5582
2026-01-08 22:38:32.25	151.95	10.97	-40.5	-43.7	13.5	1.06e-05	0	57	0	1106247680	52	5242
2026-01-08 22:38:36.29	152.36	10.67	-40.3	-43.5	13.6	7.60e-06	0	57	0	1113587712	52	5134
2026-01-08 22:38:40.33	152.77	10.37	-40.4	-43.7	13.4	5.30e-06	0	57	0	1120927744	52	5229
2026-01-08 22:38:44.36	153.17	10.07	-40.6	-44.0	13.1	2.67e-05	0	57	0	1128267776	52	5419
2026-01-08 22:38:48.40	153.56	9.78	-40.5	-43.9	13.1	3.58e-05	0	57	0	1135607808	52	5390
2026-01-08 22:38:52.44	153.95	9.48	-40.4	-43.8	13.2	2.44e-05	0	57	0	1143996416	52	5290
2026-01-08 22:38:56.48	154.33	9.19	-40.3	-43.6	13.2	4.19e-05	0	57	0	1151336448	52	5216
2026-01-08 22:39:00.52	154.70	8.90	-40.5	-44.1	12.7	8.62e-05	0	57	0	1158676480	52	5497
2026-01-08 22:39:04.56	155.06	8.61	-40.7	-44.4	12.3	1.63e-04	0	57	0	1166016512	52	5710
2026-01-08 22:39:08.59	155.42	8.33	-40.7	-44.5	12.2	1.62e-04	0	57	0	1174405120	52	5729
2026-01-08 22:39:12.64	155.77	8.05	-40.7	-44.6	12.0	3.10e-04	0	57	0	1181745152	52	5839
2026-01-08 22:39:16.67	156.11	7.77	-44.8	-59.4	3.8	1.49e+00	0	57	104	1183842304	60	20183
2026-01-08 22:39:20.71	156.45	7.49	-45.1	-59.7	3.8	1.49e+00	0	57	104	1183842304	60	20818
2026-01-08 22:39:24.75	156.78	7.22	-44.9	-59.4	3.8	1.49e+00	0	57	104	1183842304	60	20187
2026-01-08 22:39:28.80	157.11	6.94	-44.8	-59.3	3.8	1.49e+00	0	57	104	1183842304	60	19995
2026-01-08 22:39:32.84	157.43	6.67	-44.8	-59.3	3.8	1.49e+00	0	57	104	1183842304	60	19916
2026-01-08 22:39:36.88	157.74	6.40	-44.8	-59.3	3.8	1.49e+00	0	57	104	1183842304	60	19956
2026-01-08 22:39:40.92	158.05	6.14	-44.8	-59.3	3.8	1.49e+00	0	57	104	1183842304	60	19843
2026-01-08 22:39:44.96	158.36	5.87	-44.8	-59.2	3.8	1.49e+00	0	57	104	1183842304	60	19838
2026-01-08 22:39:49.00	158.66	5.61	-44.7	-59.2	3.8	1.49e+00	0	57	104	1183842304	60	19792
2026-01-08 22:39:53.04	158.95	5.35	-44.7	-59.2	3.8	1.49e+00	0	57	104	1183842304	60	19748
2026-01-08 22:39:57.08	159.24	5.09	-44.7	-59.2	3.8	1.49e+00	0	57	104	1183842304	60	19720
2026-01-08 22:40:01.13	159.52	4.83	-44.7	-59.2	3.8	1.49e+00	0	57	104	1183842304	60	19672
2026-01-08 22:40:05.17	159.80	4.58	-44.7	-59.2	3.8	1.49e+00	0	57	104	1183842304	60	19728
2026-01-08 22:40:09.21	160.07	4.32	-44.7	-59.2	3.8	1.49e+00	0	57	104	1183842304	60	19673
2026-01-08 22:40:13.26	160.34	4.07	-44.7	-59.2	3.8	1.49e+00	0	57	104	1183842304	60	19712
2026-01-08 22:40:17.30	160.61	3.82	-44.7	-59.2	3.8	1.49e+00	0	57	104	1183842304	60	19726
2026-01-08 22:40:21.34	160.87	3.57	-44.7	-59.2	3.8	1.49e+00	0	57	104	1183842304	60	19692
2026-01-08 22:40:25.38	161.13	3.33	-44.7	-59.2	3.8	1.49e+00	0	58	104	1183842304	60	19702
2026-01-08 22:40:29.42	161.38	3.08	-44.7	-59.2	3.8	1.49e+00	0	57	104	1183842304	60	19723
2026-01-08 22:40:33.47	161.63	2.84	-44.7	-59.2	3.8	1.49e+00	0	57	104	1183842304	60	19753
2026-01-08 22:40:37.51	161.88	2.60	-44.7	-59.2	3.8	1.49e+00	0	57	104	1183842304	60	19684
2026-01-08 22:40:41.55	162.12	2.36	-44.7	-59.2	3.8	1.49e+00	0	57	104	1183842304	60	19647
2026-01-08 22:40:45.59	162.35	2.12	-44.7	-59.2	3.8	1.49e+00	0	57	104	1183842304	60	19698

#Closed at: 2026-01-08 22:40:49
#Recorded file [1183 MB]: D:/lorett/data/31039_260109_012717.dat