passes_logs/2026/01/08/R2.0S_Moscow/R2.0S_Moscow__20260108_024614_FENGYUN_3D_rec.log

#Pass ID: 20260108_024614_FENGYUN 3D
#Satellite: FENGYUN 3D
#Configuration: FENGYUN 3D
#almurnet v.1.7.20251203
#Start time: 2026-01-08 02:55:06

#Version: 2.2.20231116
#Station: R2.0S_Moscow
#Location: 37.707566 lon 55.798166 lat
#TLE: 1 43010U 17072A   26006.26440730  .00000376  00000+0  19957-3 0  9994
#TLE: 2 43010  98.9925 337.9455 0002045 123.9195 236.2175 14.19693586422016

#Time	Az	El	Level	Level2	SNR	BER	BlckErr	Temp	State	Recorded	gain1	gain2
2026-01-08 02:55:06.90	258.87	27.47	-45.2	-63.6	3.8	8.46e-01	0	56	0	0	61	30893
2026-01-08 02:55:08.91	258.41	27.23	-45.2	-56.8	3.8	8.45e-01	0	56	104	0	62	13358
2026-01-08 02:55:10.93	257.94	26.99	-45.2	-56.8	3.8	8.45e-01	0	56	104	0	62	13271
2026-01-08 02:55:12.94	257.49	26.75	-45.1	-56.8	3.8	8.46e-01	0	56	104	0	62	13284
2026-01-08 02:55:14.96	257.04	26.51	-45.0	-56.6	3.8	8.47e-01	0	56	104	0	61	13803
2026-01-08 02:55:16.98	256.60	26.27	-44.8	-56.2	3.8	8.47e-01	0	56	104	0	61	13246
2026-01-08 02:55:19.00	256.16	26.03	-44.8	-56.3	3.8	8.45e-01	0	56	104	0	61	13404
2026-01-08 02:55:21.02	255.73	25.79	-44.8	-56.5	3.8	8.46e-01	0	56	104	0	61	13619
2026-01-08 02:55:23.04	255.31	25.55	-44.8	-56.3	3.8	8.46e-01	0	56	104	0	61	13345
2026-01-08 02:55:25.06	254.89	25.32	-44.8	-56.1	3.8	8.45e-01	0	56	104	0	61	12981
2026-01-08 02:55:27.07	254.49	25.08	-44.8	-56.1	3.8	8.47e-01	0	56	104	0	61	13063
2026-01-08 02:55:29.09	254.08	24.84	-44.8	-56.4	3.8	8.46e-01	0	56	104	0	61	13462
2026-01-08 02:55:31.11	253.68	24.61	-44.8	-56.4	3.8	8.43e-01	0	56	104	0	61	13531
2026-01-08 02:55:33.13	253.29	24.37	-44.8	-56.3	3.8	8.46e-01	0	56	104	0	61	13352
2026-01-08 02:55:35.14	252.91	24.14	-44.8	-56.2	3.8	8.47e-01	0	57	104	0	61	13255
2026-01-08 02:55:37.16	252.53	23.90	-44.6	-54.7	3.8	8.45e-01	0	56	104	0	61	11100
2026-01-08 02:55:39.18	252.15	23.67	-44.4	-52.9	4.2	8.40e-01	0	57	0	0	60	9557
2026-01-08 02:55:41.20	251.78	23.44	-44.5	-53.7	3.9	8.41e-01	0	57	104	0	60	10495
2026-01-08 02:55:43.22	251.42	23.21	-44.7	-55.8	3.8	8.45e-01	0	57	104	0	60	13270
2026-01-08 02:55:45.24	251.06	22.97	-44.7	-55.0	3.8	8.45e-01	0	57	104	0	60	12223
2026-01-08 02:55:47.26	250.71	22.74	-44.0	-51.2	4.8	8.16e-01	0	57	0	0	60	7842
2026-01-08 02:55:49.27	250.36	22.52	-43.0	-47.6	7.4	1.69e-01	0	56	0	6291456	58	5852
2026-01-08 02:55:51.29	250.02	22.29	-42.4	-46.4	8.7	4.30e-02	0	57	0	17825792	56	5670
2026-01-08 02:55:53.31	249.68	22.06	-43.6	-49.3	6.0	2.67e-01	0	57	0	29360128	57	7472
2026-01-08 02:55:55.33	249.35	21.83	-43.9	-50.2	5.3	7.83e-01	0	56	0	31457280	59	7428
2026-01-08 02:55:57.35	249.02	21.61	-39.6	-41.8	13.3	1.21e-04	0	57	0	41943040	51	4464
2026-01-08 02:55:59.36	248.70	21.39	-36.0	-37.4	17.6	0.00e+00	0	57	0	53477376	44	4035
2026-01-08 02:56:01.38	248.38	21.16	-34.6	-35.9	19.0	0.00e+00	0	57	0	65011712	40	4259
2026-01-08 02:56:03.40	248.07	20.94	-34.0	-35.2	19.7	0.00e+00	0	57	0	76546048	39	4150
2026-01-08 02:56:05.41	247.76	20.72	-35.9	-37.3	17.6	2.58e-03	0	57	0	85983232	44	3965
2026-01-08 02:56:07.43	247.46	20.50	-34.5	-35.7	19.2	0.00e+00	0	57	0	97517568	40	4176
2026-01-08 02:56:09.45	247.16	20.28	-34.5	-35.7	19.2	0.00e+00	0	56	0	109051904	40	4163
2026-01-08 02:56:11.47	246.86	20.06	-34.4	-35.6	19.3	0.00e+00	0	57	0	120586240	40	4102
2026-01-08 02:56:13.48	246.57	19.85	-34.3	-35.6	19.3	0.00e+00	0	57	0	131072000	40	4100
2026-01-08 02:56:15.50	246.28	19.63	-34.3	-35.5	19.3	0.00e+00	0	57	0	142606336	40	4077
2026-01-08 02:56:17.52	246.00	19.42	-34.3	-35.5	19.3	0.00e+00	0	57	0	154140672	40	4083
2026-01-08 02:56:19.54	245.72	19.20	-34.3	-35.5	19.3	0.00e+00	0	57	0	165675008	40	4078
2026-01-08 02:56:21.56	245.44	18.99	-34.2	-35.4	19.4	0.00e+00	0	57	0	177209344	40	4032
2026-01-08 02:56:23.57	245.17	18.78	-34.2	-35.4	19.4	0.00e+00	0	57	0	187695104	40	4050
2026-01-08 02:56:25.59	244.91	18.57	-34.3	-35.5	19.2	0.00e+00	0	57	0	199229440	40	4095
2026-01-08 02:56:27.60	244.64	18.36	-34.3	-35.6	19.2	0.00e+00	0	57	0	210763776	40	4104
2026-01-08 02:56:29.62	244.38	18.15	-34.5	-35.7	19.0	0.00e+00	0	57	0	222298112	40	4181
2026-01-08 02:56:31.64	244.12	17.95	-34.6	-35.8	18.9	0.00e+00	0	57	0	233832448	40	4234
2026-01-08 02:56:33.66	243.87	17.74	-34.6	-35.9	18.9	0.00e+00	0	57	0	245366784	40	4251
2026-01-08 02:56:35.68	243.62	17.54	-34.8	-36.0	18.8	0.00e+00	0	57	0	255852544	40	4311
2026-01-08 02:56:37.70	243.37	17.33	-34.9	-36.2	18.6	0.00e+00	0	57	0	267386880	40	4398
2026-01-08 02:56:39.71	243.13	17.13	-35.1	-36.4	18.3	0.00e+00	0	57	0	278921216	40	4537
2026-01-08 02:56:41.73	242.89	16.93	-35.1	-36.3	18.4	0.00e+00	0	57	0	290455552	40	4486
2026-01-08 02:56:43.75	242.66	16.73	-35.0	-36.3	18.4	0.00e+00	0	57	0	301989888	40	4482
2026-01-08 02:56:45.77	242.42	16.53	-35.1	-36.4	18.4	0.00e+00	0	57	0	313524224	40	4503
2026-01-08 02:56:47.79	242.19	16.33	-35.1	-36.4	18.4	0.00e+00	0	57	0	324009984	40	4497
2026-01-08 02:56:49.81	241.96	16.14	-35.1	-36.4	18.3	0.00e+00	0	57	0	335544320	40	4505
2026-01-08 02:56:51.82	241.74	15.94	-35.2	-36.5	18.2	0.00e+00	0	57	0	347078656	40	4569
2026-01-08 02:56:53.84	241.52	15.75	-35.3	-36.6	18.1	0.00e+00	0	57	0	358612992	41	4357
2026-01-08 02:56:55.86	241.30	15.55	-35.2	-36.5	18.2	0.00e+00	0	57	0	370147328	41	4306
2026-01-08 02:56:57.88	241.09	15.36	-35.3	-36.7	18.0	0.00e+00	0	57	0	380633088	41	4405
2026-01-08 02:56:59.90	240.87	15.17	-35.2	-36.6	18.1	0.00e+00	0	57	0	392167424	41	4350
2026-01-08 02:57:01.92	240.66	14.98	-35.2	-36.5	18.2	0.00e+00	0	57	0	403701760	41	4326
2026-01-08 02:57:03.94	240.46	14.79	-35.3	-36.7	18.0	0.00e+00	0	57	0	415236096	41	4392
2026-01-08 02:57:05.96	240.25	14.60	-35.3	-36.7	18.0	0.00e+00	0	57	0	426770432	41	4403
2026-01-08 02:57:07.98	240.05	14.42	-35.4	-36.7	18.0	0.00e+00	0	57	0	438304768	41	4419
2026-01-08 02:57:09.99	239.85	14.23	-35.4	-36.7	17.9	0.00e+00	0	57	0	448790528	41	4435
2026-01-08 02:57:12.01	239.65	14.05	-35.6	-37.0	17.7	0.00e+00	0	57	0	460324864	41	4562
2026-01-08 02:57:14.02	239.46	13.86	-35.6	-37.0	17.7	0.00e+00	0	57	0	471859200	41	4553
2026-01-08 02:57:16.05	239.27	13.68	-35.6	-37.0	17.6	0.00e+00	0	57	0	483393536	41	4580
2026-01-08 02:57:18.06	239.08	13.50	-35.7	-37.1	17.6	0.00e+00	0	57	0	494927872	41	4620
2026-01-08 02:57:20.08	238.89	13.32	-35.8	-37.2	17.4	0.00e+00	0	57	0	506462208	42	4433
2026-01-08 02:57:22.10	238.70	13.14	-35.9	-37.4	17.3	0.00e+00	0	57	0	516947968	42	4495
2026-01-08 02:57:24.11	238.52	12.96	-36.0	-37.4	17.3	0.00e+00	0	57	0	528482304	42	4514
2026-01-08 02:57:26.13	238.34	12.79	-36.1	-37.6	17.1	0.00e+00	0	57	0	540016640	42	4599
2026-01-08 02:57:28.15	238.16	12.61	-36.0	-37.5	17.2	0.00e+00	0	57	0	551550976	42	4547
2026-01-08 02:57:30.17	237.99	12.43	-36.1	-37.6	17.1	0.00e+00	0	57	0	563085312	42	4600
2026-01-08 02:57:32.19	237.81	12.26	-36.1	-37.5	17.1	0.00e+00	0	57	0	573571072	42	4569
2026-01-08 02:57:34.21	237.64	12.09	-36.1	-37.6	17.0	0.00e+00	0	57	0	585105408	42	4601
2026-01-08 02:57:36.23	237.47	11.91	-36.0	-37.4	17.1	0.00e+00	0	57	0	596639744	42	4540
2026-01-08 02:57:38.25	237.30	11.74	-36.1	-37.5	17.0	0.00e+00	0	57	0	608174080	42	4589
2026-01-08 02:57:40.27	237.14	11.57	-36.1	-37.6	17.0	0.00e+00	0	57	0	619708416	42	4607
2026-01-08 02:57:42.29	236.97	11.40	-36.3	-37.8	16.8	0.00e+00	0	57	0	631242752	43	4464
2026-01-08 02:57:44.31	236.81	11.23	-36.4	-37.9	16.6	0.00e+00	0	57	0	642777088	43	4534
2026-01-08 02:57:46.33	236.65	11.07	-36.4	-37.9	16.6	0.00e+00	0	57	0	653262848	43	4527
2026-01-08 02:57:48.34	236.50	10.90	-36.3	-37.9	16.6	0.00e+00	0	57	0	664797184	43	4495
2026-01-08 02:57:50.36	236.34	10.73	-36.3	-37.8	16.7	0.00e+00	0	57	0	676331520	43	4477
2026-01-08 02:57:52.38	236.18	10.57	-36.3	-37.9	16.6	0.00e+00	0	57	0	687865856	43	4506
2026-01-08 02:57:54.40	236.03	10.40	-36.5	-38.1	16.4	0.00e+00	0	57	0	699400192	43	4606
2026-01-08 02:57:56.41	235.88	10.24	-36.5	-38.1	16.4	0.00e+00	0	57	0	710934528	43	4616
2026-01-08 02:57:58.43	235.73	10.08	-36.6	-38.2	16.2	0.00e+00	0	57	0	721420288	43	4700
2026-01-08 02:58:00.45	235.58	9.92	-36.5	-38.1	16.3	0.00e+00	0	57	0	732954624	43	4638
2026-01-08 02:58:02.47	235.44	9.76	-36.6	-38.2	16.3	0.00e+00	0	57	0	744488960	43	4653
2026-01-08 02:58:04.49	235.29	9.60	-36.9	-38.5	16.1	0.00e+00	0	57	0	756023296	44	4558
2026-01-08 02:58:06.51	235.15	9.44	-37.1	-38.8	15.7	0.00e+00	0	57	0	767557632	44	4738
2026-01-08 02:58:08.52	235.01	9.28	-37.2	-38.8	15.7	0.00e+00	0	57	0	778043392	44	4736
2026-01-08 02:58:10.54	234.87	9.12	-37.1	-38.8	15.7	0.00e+00	0	57	0	789577728	44	4736
2026-01-08 02:58:12.56	234.73	8.97	-37.1	-38.7	15.8	0.00e+00	0	57	0	801112064	44	4679
2026-01-08 02:58:14.58	234.60	8.81	-36.9	-38.5	16.0	0.00e+00	0	57	0	812646400	44	4567
2026-01-08 02:58:16.60	234.46	8.66	-36.9	-38.5	16.0	0.00e+00	0	57	0	824180736	44	4558
2026-01-08 02:58:18.62	234.33	8.50	-36.9	-38.5	15.9	0.00e+00	0	57	0	835715072	44	4592
2026-01-08 02:58:20.64	234.20	8.35	-36.9	-38.5	15.9	0.00e+00	0	57	0	846200832	44	4596
2026-01-08 02:58:22.66	234.07	8.20	-37.1	-38.7	15.8	0.00e+00	0	57	0	857735168	44	4686
2026-01-08 02:58:24.67	233.94	8.05	-37.1	-38.8	15.7	0.00e+00	0	57	0	869269504	44	4714
2026-01-08 02:58:26.69	233.81	7.90	-44.7	-56.1	3.8	8.46e-01	0	57	104	874512384	59	14595
2026-01-08 02:58:28.71	233.68	7.75	-45.0	-56.6	3.8	8.45e-01	0	57	104	874512384	60	14690
2026-01-08 02:58:30.72	233.56	7.60	-45.2	-56.8	3.8	8.46e-01	0	57	104	874512384	60	14967
2026-01-08 02:58:32.75	233.44	7.45	-45.3	-56.9	3.8	8.46e-01	0	57	104	874512384	61	14278
2026-01-08 02:58:34.76	233.31	7.30	-45.2	-56.9	3.8	8.46e-01	0	57	104	874512384	61	14298
2026-01-08 02:58:36.78	233.19	7.15	-45.2	-56.9	3.8	8.46e-01	0	57	104	874512384	61	14221
2026-01-08 02:58:38.80	233.07	7.01	-45.2	-56.8	3.8	8.46e-01	0	57	104	874512384	61	14162
2026-01-08 02:58:40.82	232.95	6.86	-45.2	-56.8	3.8	8.46e-01	0	57	104	874512384	61	14154
2026-01-08 02:58:42.84	232.84	6.72	-45.2	-56.8	3.8	8.47e-01	0	57	104	874512384	61	14155
2026-01-08 02:58:44.85	232.72	6.57	-45.1	-56.8	3.8	8.45e-01	0	57	104	874512384	61	14140
2026-01-08 02:58:46.87	232.61	6.43	-45.1	-56.8	3.8	8.45e-01	0	57	104	874512384	61	14159
2026-01-08 02:58:48.89	232.49	6.29	-45.1	-56.8	3.8	8.46e-01	0	57	104	874512384	61	14102
2026-01-08 02:58:50.91	232.38	6.15	-45.1	-56.8	3.8	8.46e-01	0	57	104	874512384	61	14125
2026-01-08 02:58:52.93	232.27	6.00	-45.1	-56.8	3.8	8.46e-01	0	57	104	874512384	61	14080
2026-01-08 02:58:54.95	232.16	5.86	-45.1	-56.8	3.8	8.46e-01	0	57	104	874512384	61	14090
2026-01-08 02:58:56.97	232.05	5.72	-45.1	-56.8	3.8	8.45e-01	0	57	104	874512384	61	14104
2026-01-08 02:58:58.99	231.94	5.58	-45.1	-56.8	3.8	8.47e-01	0	57	104	874512384	61	14127
2026-01-08 02:59:01.01	231.83	5.44	-45.1	-56.8	3.8	8.46e-01	0	57	104	874512384	61	14089
2026-01-08 02:59:03.03	231.73	5.31	-45.1	-56.8	3.8	8.46e-01	0	57	104	874512384	61	14125
2026-01-08 02:59:05.04	231.62	5.17	-45.1	-56.8	3.8	8.45e-01	0	57	104	874512384	61	14135
2026-01-08 02:59:07.06	231.52	5.03	-45.1	-56.8	3.8	8.47e-01	0	57	104	874512384	61	14062
2026-01-08 02:59:09.07	231.41	4.90	-45.1	-56.8	3.8	8.46e-01	0	57	104	874512384	61	14081
2026-01-08 02:59:11.10	231.31	4.76	-45.1	-56.8	3.8	8.46e-01	0	57	104	874512384	61	14060
2026-01-08 02:59:13.12	231.21	4.62	-45.1	-56.8	3.8	8.46e-01	0	57	104	874512384	61	14076
2026-01-08 02:59:15.13	231.11	4.49	-45.1	-56.8	3.8	8.46e-01	0	57	104	874512384	61	14063
2026-01-08 02:59:17.16	231.01	4.36	-45.1	-56.8	3.8	8.46e-01	0	57	104	874512384	61	14111
2026-01-08 02:59:19.17	230.91	4.22	-45.1	-56.8	3.8	8.47e-01	0	57	104	874512384	61	14088
2026-01-08 02:59:21.18	230.82	4.09	-45.1	-56.8	3.8	8.46e-01	0	58	104	874512384	61	14047
2026-01-08 02:59:23.21	230.72	3.96	-45.1	-56.8	3.8	8.47e-01	0	57	104	874512384	61	14082
2026-01-08 02:59:25.22	230.62	3.83	-45.1	-56.8	3.8	8.46e-01	0	57	104	874512384	61	14073
2026-01-08 02:59:27.24	230.53	3.70	-45.1	-56.8	3.8	8.45e-01	0	58	104	874512384	61	14054
2026-01-08 02:59:29.26	230.44	3.56	-45.1	-56.7	3.8	8.47e-01	0	57	104	874512384	61	14030
2026-01-08 02:59:31.28	230.34	3.43	-45.1	-56.7	3.8	8.46e-01	0	57	104	874512384	61	14016
2026-01-08 02:59:33.30	230.25	3.30	-45.1	-56.8	3.8	8.45e-01	0	57	104	874512384	61	14050
2026-01-08 02:59:35.32	230.16	3.18	-45.1	-56.7	3.8	8.47e-01	0	58	104	874512384	61	14003
2026-01-08 02:59:37.34	230.07	3.05	-45.1	-56.7	3.8	8.46e-01	0	57	104	874512384	61	14034
2026-01-08 02:59:39.35	229.98	2.92	-45.1	-56.8	3.8	8.46e-01	0	57	104	874512384	61	14059
2026-01-08 02:59:41.37	229.89	2.79	-45.1	-56.7	3.8	8.45e-01	0	58	104	874512384	61	14044
2026-01-08 02:59:43.40	229.80	2.67	-45.1	-56.8	3.8	8.46e-01	0	58	104	874512384	61	14049
2026-01-08 02:59:45.41	229.72	2.54	-45.1	-56.8	3.8	8.46e-01	0	57	104	874512384	61	14067
2026-01-08 02:59:47.43	229.63	2.41	-45.1	-56.8	3.8	8.46e-01	0	58	104	874512384	61	14075
2026-01-08 02:59:49.44	229.55	2.29	-45.1	-56.8	3.8	8.47e-01	0	57	104	874512384	61	14084
2026-01-08 02:59:51.46	229.46	2.16	-45.1	-56.8	3.8	8.46e-01	0	57	104	874512384	61	14048
2026-01-08 02:59:53.48	229.38	2.04	-45.1	-56.7	3.8	8.46e-01	0	57	104	874512384	61	14020
2026-01-08 02:59:55.50	229.29	1.92	-45.1	-56.8	3.8	8.46e-01	0	58	104	874512384	61	14071

#Closed at: 2026-01-08 02:59:56
#Recorded file [874 MB]: D:/lorett/data/31039_260108_055506.dat