passes_logs/2026/01/08/R2.0S_Moscow/R2.0S_Moscow__20260108_002620_NOAA_20_JPSS-1_rec.log

#Pass ID: 20260108_002620_NOAA 20 (JPSS-1)
#Satellite: NOAA 20 (JPSS-1)
#Configuration: NOAA 20
#almurnet v.1.7.20251203
#Start time: 2026-01-08 00:26:20

#Version: 2.2.20231116
#Station: R2.0S_Moscow
#Location: 37.707566 lon 55.798166 lat
#TLE: 1 43013U 17073A   26006.30790171  .00000126  00000+0  80695-4 0  9991
#TLE: 2 43013  98.7629 307.3394 0001808  51.8724 308.2615 14.19533762421505

#Time	Az	El	Level	Level2	SNR	BER	BlckErr	Temp	State	Recorded	gain1	gain2
2026-01-08 00:26:20.82	13.11	1.99	-40.1	-54.6	3.8	1.49e+00	0	48	0	0	51	19484
2026-01-08 00:26:24.85	13.00	2.25	-40.0	-54.6	3.8	1.49e+00	0	48	104	0	51	19479
2026-01-08 00:26:28.89	12.88	2.50	-40.0	-54.6	3.8	1.49e+00	0	49	104	0	51	19496
2026-01-08 00:26:32.93	12.75	2.76	-40.0	-54.6	3.8	1.49e+00	0	49	104	0	51	19435
2026-01-08 00:26:36.97	12.63	3.02	-40.0	-54.6	3.8	1.49e+00	0	49	104	0	51	19445
2026-01-08 00:26:41.01	12.50	3.28	-40.0	-54.5	3.8	1.49e+00	0	49	104	0	51	19306
2026-01-08 00:26:45.04	12.37	3.54	-40.0	-54.5	3.8	1.49e+00	0	49	104	0	51	19243
2026-01-08 00:26:49.09	12.23	3.81	-40.0	-54.4	3.8	1.49e+00	0	50	104	0	51	19145
2026-01-08 00:26:53.13	12.10	4.08	-40.0	-54.3	3.8	1.49e+00	0	50	104	0	51	18920
2026-01-08 00:26:57.17	11.96	4.35	-40.0	-54.3	3.8	1.49e+00	0	50	104	0	51	18750
2026-01-08 00:27:01.20	11.82	4.62	-40.0	-54.3	3.8	1.49e+00	0	50	104	0	51	18745
2026-01-08 00:27:05.24	11.67	4.90	-40.0	-54.2	3.8	1.49e+00	0	51	104	0	51	18636
2026-01-08 00:27:09.27	11.52	5.18	-40.0	-54.2	3.8	1.49e+00	0	51	104	0	51	18558
2026-01-08 00:27:13.31	11.37	5.46	-40.0	-54.3	3.8	1.49e+00	0	51	104	0	51	18747
2026-01-08 00:27:17.35	11.22	5.74	-40.0	-54.3	3.8	1.49e+00	0	51	104	0	51	18824
2026-01-08 00:27:21.39	11.06	6.03	-40.0	-54.4	3.8	1.49e+00	0	52	104	0	51	19016
2026-01-08 00:27:25.42	10.90	6.32	-40.0	-54.4	3.8	1.49e+00	0	52	104	0	51	19157
2026-01-08 00:27:29.46	10.73	6.61	-40.0	-54.5	3.8	1.49e+00	0	52	104	0	51	19205
2026-01-08 00:27:33.51	10.56	6.91	-40.0	-54.3	3.8	1.49e+00	0	52	104	0	51	18882
2026-01-08 00:27:37.54	10.39	7.21	-40.0	-54.3	3.8	1.49e+00	0	52	104	0	51	18922
2026-01-08 00:27:41.59	10.21	7.51	-40.0	-54.3	3.8	1.49e+00	0	52	104	0	51	18823
2026-01-08 00:27:45.62	10.03	7.82	-40.0	-54.4	3.8	1.49e+00	0	52	104	0	51	18989
2026-01-08 00:27:49.65	9.85	8.13	-40.0	-54.5	3.8	1.49e+00	0	52	104	0	51	19323
2026-01-08 00:27:53.69	9.66	8.44	-40.1	-54.5	3.8	1.49e+00	0	53	104	0	51	19319
2026-01-08 00:27:57.73	9.46	8.76	-40.0	-54.5	3.8	1.49e+00	0	53	104	0	51	19355
2026-01-08 00:28:01.77	9.27	9.08	-40.1	-54.5	3.8	1.49e+00	0	53	104	0	51	19380
2026-01-08 00:28:05.80	9.06	9.40	-40.1	-54.5	3.8	1.49e+00	0	53	104	0	51	19345
2026-01-08 00:28:09.84	8.86	9.73	-40.1	-54.6	3.8	1.49e+00	0	53	104	0	51	19459
2026-01-08 00:28:13.88	8.64	10.06	-40.2	-54.5	3.8	1.49e+00	0	53	104	0	51	19334
2026-01-08 00:28:17.92	8.42	10.40	-40.4	-54.4	3.8	1.49e+00	0	53	104	0	51	19003
2026-01-08 00:28:21.96	8.20	10.74	-40.2	-53.5	3.8	1.49e+00	0	54	104	0	51	17247
2026-01-08 00:28:25.99	7.97	11.09	-40.7	-50.4	4.9	8.51e-01	0	54	0	2097152	52	11362
2026-01-08 00:28:30.03	7.73	11.44	-41.2	-48.3	7.2	1.77e-01	0	54	0	9437184	53	8375
2026-01-08 00:28:34.07	7.49	11.79	-40.7	-45.6	10.3	9.51e-03	0	54	0	16777216	53	6175
2026-01-08 00:28:38.10	7.24	12.15	-39.6	-43.0	13.2	4.88e-05	0	54	0	24117248	51	5134
2026-01-08 00:28:42.14	6.99	12.51	-39.1	-42.2	14.1	4.50e-06	0	54	0	32505856	50	4959
2026-01-08 00:28:46.17	6.73	12.88	-39.5	-42.7	13.8	2.20e-06	0	54	0	39845888	50	5235
2026-01-08 00:28:50.21	6.46	13.25	-39.6	-42.6	14.1	5.30e-06	0	54	0	47185920	50	5180
2026-01-08 00:28:54.24	6.19	13.63	-39.6	-42.6	14.3	7.00e-07	0	54	0	54525952	50	5160
2026-01-08 00:28:58.28	5.90	14.01	-39.5	-42.3	14.8	0.00e+00	0	54	0	61865984	50	4984
2026-01-08 00:29:02.31	5.61	14.40	-39.5	-42.2	15.0	0.00e+00	0	54	0	70254592	50	4948
2026-01-08 00:29:06.34	5.31	14.80	-39.5	-42.1	15.2	0.00e+00	0	54	0	77594624	50	4898
2026-01-08 00:29:10.37	5.01	15.20	-39.7	-42.3	15.1	0.00e+00	0	54	0	84934656	50	5017
2026-01-08 00:29:14.40	4.69	15.60	-39.6	-42.2	15.2	0.00e+00	0	55	0	92274688	50	4973
2026-01-08 00:29:18.43	4.36	16.01	-39.7	-42.3	15.3	0.00e+00	0	55	0	99614720	50	5024
2026-01-08 00:29:22.47	4.03	16.43	-39.7	-42.3	15.3	0.00e+00	0	55	0	108003328	50	5012
2026-01-08 00:29:26.51	3.68	16.85	-39.8	-42.3	15.4	0.00e+00	0	55	0	115343360	50	5019
2026-01-08 00:29:30.55	3.33	17.28	-39.8	-42.4	15.3	0.00e+00	0	55	0	122683392	50	5063
2026-01-08 00:29:34.58	2.96	17.72	-39.9	-42.4	15.3	0.00e+00	0	55	0	130023424	50	5088
2026-01-08 00:29:38.62	2.58	18.16	-39.9	-42.5	15.3	0.00e+00	0	55	0	138412032	50	5150
2026-01-08 00:29:42.65	2.20	18.61	-40.2	-42.9	15.0	0.00e+00	0	55	0	145752064	50	5349
2026-01-08 00:29:46.68	1.79	19.07	-40.2	-42.9	14.9	0.00e+00	0	55	0	153092096	51	5063
2026-01-08 00:29:50.72	1.38	19.53	-40.3	-43.0	14.9	0.00e+00	0	55	0	160432128	51	5150
2026-01-08 00:29:54.75	0.95	20.00	-40.3	-43.0	14.9	0.00e+00	0	55	0	167772160	51	5144
2026-01-08 00:29:58.79	0.51	20.48	-40.5	-43.4	14.5	1.50e-06	0	55	0	176160768	51	5357
2026-01-08 00:30:02.82	0.06	20.97	-40.6	-43.6	14.3	0.00e+00	0	55	0	183500800	52	5164
2026-01-08 00:30:06.85	359.59	21.46	-40.7	-43.7	14.2	7.00e-07	0	55	0	190840832	52	5236
2026-01-08 00:30:10.89	359.10	21.96	-40.8	-43.8	14.1	7.00e-07	0	55	0	198180864	52	5307
2026-01-08 00:30:14.92	358.60	22.47	-40.8	-43.9	14.0	3.00e-06	0	55	0	205520896	52	5347
2026-01-08 00:30:18.96	358.07	22.99	-41.1	-44.2	13.7	5.30e-06	0	55	0	213909504	52	5574
2026-01-08 00:30:23.00	357.54	23.51	-41.0	-44.1	13.8	6.10e-06	0	55	0	221249536	52	5518
2026-01-08 00:30:27.03	356.98	24.04	-40.8	-43.9	14.2	7.00e-07	0	55	0	228589568	52	5344
2026-01-08 00:30:31.07	356.40	24.58	-40.9	-44.0	14.0	3.00e-06	0	55	0	235929600	52	5433
2026-01-08 00:30:35.10	355.80	25.13	-40.9	-43.9	14.1	2.20e-06	0	55	0	244318208	52	5390
2026-01-08 00:30:39.13	355.18	25.69	-40.8	-43.8	14.3	1.50e-06	0	55	0	251658240	52	5304
2026-01-08 00:30:43.17	354.54	26.25	-40.8	-43.8	14.3	0.00e+00	0	55	0	258998272	52	5303
2026-01-08 00:30:47.21	353.87	26.82	-41.0	-44.1	14.0	4.50e-06	0	55	0	266338304	52	5504
2026-01-08 00:30:51.24	353.18	27.40	-40.7	-43.5	14.5	7.00e-07	0	55	0	273678336	52	5156
2026-01-08 00:30:55.28	352.46	27.99	-40.6	-43.3	14.8	7.00e-07	0	55	0	282066944	52	5023
2026-01-08 00:30:59.32	351.72	28.58	-40.7	-43.6	14.5	7.00e-07	0	55	0	289406976	52	5199
2026-01-08 00:31:03.35	350.94	29.18	-40.8	-43.7	14.5	0.00e+00	0	55	0	296747008	52	5240
2026-01-08 00:31:07.39	350.14	29.79	-40.9	-43.8	14.4	7.00e-07	0	55	0	304087040	52	5315
2026-01-08 00:31:11.42	349.30	30.41	-41.1	-44.1	14.0	3.00e-06	0	56	0	311427072	52	5523
2026-01-08 00:31:15.46	348.43	31.03	-41.5	-44.8	13.4	2.05e-05	0	56	0	319815680	53	5613
2026-01-08 00:31:19.49	347.53	31.65	-41.9	-45.5	12.7	8.16e-05	0	56	0	327155712	54	5735
2026-01-08 00:31:23.53	346.59	32.29	-41.8	-45.3	12.9	6.17e-05	0	56	0	334495744	54	5631
2026-01-08 00:31:27.57	345.61	32.92	-41.7	-45.2	13.0	5.11e-05	0	56	0	341835776	54	5576
2026-01-08 00:31:31.61	344.59	33.56	-42.1	-45.9	12.3	1.37e-04	0	56	0	350224384	54	6028
2026-01-08 00:31:35.64	343.53	34.20	-42.0	-45.8	12.5	1.59e-04	0	56	0	357564416	54	5941
2026-01-08 00:31:39.68	342.43	34.85	-41.9	-45.6	12.8	7.78e-05	0	56	0	364904448	54	5804
2026-01-08 00:31:43.72	341.28	35.49	-42.0	-45.6	12.8	8.85e-05	0	56	0	372244480	54	5820
2026-01-08 00:31:47.75	340.09	36.14	-41.6	-44.8	13.5	8.30e-06	0	56	0	379584512	54	5313
2026-01-08 00:31:51.79	338.84	36.78	-41.6	-44.9	13.5	8.30e-06	0	56	0	387973120	54	5378
2026-01-08 00:31:55.83	337.55	37.42	-41.3	-44.3	14.0	1.50e-06	0	56	0	395313152	54	5026
2026-01-08 00:31:59.86	336.21	38.05	-41.5	-44.6	13.8	2.20e-06	0	56	0	402653184	54	5215
2026-01-08 00:32:03.90	334.81	38.68	-41.6	-44.9	13.5	1.29e-05	0	56	0	409993216	54	5371
2026-01-08 00:32:07.93	333.36	39.29	-41.6	-44.8	13.6	1.14e-05	0	56	0	418381824	54	5325
2026-01-08 00:32:11.97	331.84	39.90	-42.0	-45.7	12.6	7.32e-05	0	56	0	425721856	54	5884
2026-01-08 00:32:16.01	330.28	40.49	-42.1	-45.9	12.5	9.46e-05	0	56	0	433061888	54	5996
2026-01-08 00:32:20.04	328.65	41.07	-41.8	-45.3	13.1	4.42e-05	0	56	0	440401920	54	5609
2026-01-08 00:32:24.08	326.97	41.63	-41.0	-43.9	14.5	0.00e+00	0	56	0	447741952	54	4802
2026-01-08 00:32:28.12	325.22	42.17	-40.3	-42.8	15.7	0.00e+00	0	56	0	456130560	52	4708
2026-01-08 00:32:32.16	323.42	42.69	-40.0	-42.4	16.1	0.00e+00	0	56	0	463470592	52	4514
2026-01-08 00:32:36.20	321.56	43.18	-40.2	-42.6	15.9	0.00e+00	0	56	0	470810624	51	4892
2026-01-08 00:32:40.23	319.64	43.64	-40.0	-42.4	16.2	0.00e+00	0	56	0	478150656	51	4761
2026-01-08 00:32:44.27	317.67	44.06	-40.8	-43.6	14.8	0.00e+00	0	56	0	485490688	52	5207
2026-01-08 00:32:48.31	315.65	44.46	-40.7	-43.4	15.1	0.00e+00	0	56	0	493879296	52	5056
2026-01-08 00:32:52.35	313.57	44.81	-41.0	-43.9	14.5	0.00e+00	0	56	0	501219328	52	5343
2026-01-08 00:32:56.38	311.46	45.13	-41.2	-44.1	14.3	7.00e-07	0	56	0	508559360	52	5511
2026-01-08 00:33:00.42	309.30	45.41	-41.0	-44.0	14.5	0.00e+00	0	56	0	515899392	52	5406
2026-01-08 00:33:04.45	307.12	45.64	-41.3	-44.3	14.1	4.50e-06	0	56	0	524288000	53	5338
2026-01-08 00:33:08.49	304.90	45.82	-41.6	-44.9	13.5	1.37e-05	0	56	0	531628032	53	5675
2026-01-08 00:33:12.52	302.66	45.96	-41.7	-45.1	13.4	1.83e-05	0	56	0	538968064	53	5830
2026-01-08 00:33:16.56	300.39	46.05	-41.7	-45.0	13.4	2.74e-05	0	56	0	546308096	54	5443
2026-01-08 00:33:20.60	298.12	46.09	-41.7	-45.1	13.3	1.60e-05	0	56	0	553648128	54	5493
2026-01-08 00:33:24.64	295.85	46.08	-41.6	-44.9	13.5	1.75e-05	0	56	0	562036736	54	5360
2026-01-08 00:33:28.67	293.59	46.02	-41.6	-44.8	13.6	6.10e-06	0	56	0	569376768	54	5308
2026-01-08 00:33:32.71	291.33	45.91	-41.9	-45.4	12.9	5.11e-05	0	56	0	576716800	54	5679
2026-01-08 00:33:36.75	289.09	45.75	-41.9	-45.4	13.0	2.13e-05	0	56	0	584056832	54	5657
2026-01-08 00:33:40.78	286.88	45.55	-42.4	-46.4	11.8	1.74e-04	0	56	0	592445440	55	6056
2026-01-08 00:33:44.82	284.70	45.30	-42.4	-46.2	12.3	2.52e-04	0	56	0	599785472	56	5543
2026-01-08 00:33:48.86	282.56	45.00	-42.6	-46.7	11.8	5.64e-04	0	56	0	607125504	56	5879
2026-01-08 00:33:52.89	280.46	44.67	-41.8	-45.2	13.1	2.67e-05	0	56	0	614465536	55	5260
2026-01-08 00:33:56.93	278.40	44.30	-41.5	-44.8	13.6	9.10e-06	0	56	0	621805568	55	4993
2026-01-08 00:34:00.97	276.40	43.89	-40.6	-43.3	15.0	0.00e+00	0	56	0	630194176	53	4737
2026-01-08 00:34:05.00	274.45	43.45	-40.7	-43.5	14.8	0.00e+00	0	56	0	637534208	52	5102
2026-01-08 00:34:09.04	272.55	42.97	-40.1	-42.4	15.9	0.00e+00	0	56	0	644874240	52	4543
2026-01-08 00:34:13.07	270.71	42.47	-39.6	-41.7	16.7	0.00e+00	0	56	0	652214272	50	4701
2026-01-08 00:34:17.11	268.93	41.94	-39.0	-41.0	17.5	0.00e+00	0	56	0	660602880	50	4296
2026-01-08 00:34:21.14	267.21	41.40	-38.6	-40.5	17.9	0.00e+00	0	56	0	667942912	48	4560
2026-01-08 00:34:25.17	265.55	40.83	-39.2	-41.2	17.2	0.00e+00	0	56	0	675282944	49	4667
2026-01-08 00:34:29.21	263.94	40.24	-38.6	-40.4	18.0	0.00e+00	0	56	0	682622976	49	4267
2026-01-08 00:34:33.24	262.39	39.64	-39.1	-41.1	17.3	0.00e+00	0	56	0	689963008	49	4618
2026-01-08 00:34:37.28	260.90	39.03	-39.0	-40.9	17.5	0.00e+00	0	56	0	698351616	49	4518
2026-01-08 00:34:41.31	259.47	38.40	-39.2	-41.2	17.2	0.00e+00	0	56	0	705691648	49	4687
2026-01-08 00:34:45.35	258.08	37.77	-39.5	-41.7	16.7	0.00e+00	0	56	0	713031680	49	4928
2026-01-08 00:34:49.38	256.76	37.14	-39.8	-42.1	16.3	0.00e+00	0	56	0	720371712	50	4882
2026-01-08 00:34:53.42	255.48	36.49	-40.0	-42.3	16.0	0.00e+00	0	56	0	727711744	50	5025
2026-01-08 00:34:57.45	254.26	35.85	-40.3	-42.7	15.7	0.00e+00	0	56	0	736100352	51	4976
2026-01-08 00:35:01.49	253.08	35.20	-41.1	-44.0	14.2	1.50e-06	0	57	0	743440384	52	5459
2026-01-08 00:35:05.52	251.94	34.55	-41.2	-44.3	14.0	1.50e-06	0	57	0	750780416	52	5598
2026-01-08 00:35:09.56	250.85	33.91	-41.9	-45.4	12.8	5.34e-05	0	56	0	758120448	54	5715
2026-01-08 00:35:13.60	249.81	33.26	-42.0	-45.7	12.5	1.19e-04	0	57	0	766509056	54	5882
2026-01-08 00:35:17.64	248.80	32.62	-42.1	-46.0	12.2	3.12e-04	0	56	0	773849088	55	5733
2026-01-08 00:35:21.68	247.83	31.98	-42.5	-46.7	11.5	8.31e-04	0	56	0	781189120	55	6204
2026-01-08 00:35:25.71	246.91	31.35	-41.8	-45.3	12.8	1.49e-04	0	56	0	788529152	55	5326
2026-01-08 00:35:29.75	246.01	30.73	-41.9	-45.6	12.6	1.09e-04	0	56	0	795869184	55	5488
2026-01-08 00:35:33.78	245.15	30.11	-41.9	-45.5	12.7	1.06e-04	0	56	0	804257792	55	5449
2026-01-08 00:35:37.82	244.33	29.49	-41.5	-44.8	13.3	1.98e-05	0	56	0	811597824	55	5041
2026-01-08 00:35:41.85	243.53	28.88	-41.4	-44.7	13.5	9.10e-06	0	56	0	818937856	54	5226
2026-01-08 00:35:45.89	242.77	28.28	-41.4	-44.6	13.6	1.60e-05	0	56	0	826277888	54	5196
2026-01-08 00:35:49.92	242.03	27.69	-41.0	-44.0	14.2	0.00e+00	0	57	0	833617920	54	4815
2026-01-08 00:35:53.95	241.32	27.10	-40.9	-43.8	14.3	0.00e+00	0	57	0	842006528	53	5041
2026-01-08 00:35:57.98	240.64	26.53	-41.0	-44.0	14.1	1.50e-06	0	56	0	849346560	53	5119
2026-01-08 00:36:02.02	239.97	25.95	-40.8	-43.7	14.5	0.00e+00	0	56	0	856686592	53	4947
2026-01-08 00:36:06.05	239.34	25.39	-41.1	-44.1	14.1	5.30e-06	0	56	0	864026624	53	5179
2026-01-08 00:36:10.09	238.72	24.84	-40.9	-43.8	14.3	1.50e-06	0	56	0	872415232	53	5029
2026-01-08 00:36:14.12	238.13	24.29	-40.4	-43.1	15.1	7.00e-07	0	56	0	879755264	52	4891
2026-01-08 00:36:18.16	237.56	23.75	-40.4	-43.1	15.0	0.00e+00	0	56	0	887095296	52	4885
2026-01-08 00:36:22.20	237.00	23.22	-40.8	-43.6	14.5	0.00e+00	0	57	0	894435328	52	5199
2026-01-08 00:36:26.23	236.47	22.70	-40.9	-43.8	14.3	7.00e-07	0	56	0	901775360	52	5325
2026-01-08 00:36:30.27	235.95	22.18	-40.8	-43.8	14.3	0.00e+00	0	56	0	910163968	52	5289
2026-01-08 00:36:34.31	235.45	21.67	-40.8	-43.8	14.3	7.00e-07	0	56	0	917504000	52	5308
2026-01-08 00:36:38.34	234.97	21.18	-40.6	-43.4	14.6	0.00e+00	0	56	0	924844032	52	5056
2026-01-08 00:36:42.37	234.50	20.68	-40.6	-43.4	14.6	0.00e+00	0	56	0	932184064	52	5083
2026-01-08 00:36:46.41	234.05	20.20	-40.7	-43.5	14.5	0.00e+00	0	57	0	939524096	52	5151
2026-01-08 00:36:50.44	233.61	19.72	-40.7	-43.5	14.5	0.00e+00	0	56	0	947912704	52	5157
2026-01-08 00:36:54.47	233.19	19.25	-40.7	-43.6	14.4	0.00e+00	0	57	0	955252736	52	5205
2026-01-08 00:36:58.51	232.77	18.79	-40.5	-43.3	14.7	7.00e-07	0	56	0	962592768	52	4987
2026-01-08 00:37:02.55	232.37	18.33	-40.7	-43.6	14.4	7.00e-07	0	56	0	969932800	52	5193
2026-01-08 00:37:06.58	231.99	17.89	-41.0	-44.1	13.8	7.00e-07	0	56	0	978321408	52	5514
2026-01-08 00:37:10.61	231.61	17.44	-40.9	-44.0	13.9	3.80e-06	0	56	0	985661440	52	5435
2026-01-08 00:37:14.62	231.25	17.01	-40.8	-43.8	14.1	7.00e-07	0	56	0	993001472	52	5313
2026-01-08 00:37:18.66	230.89	16.58	-40.9	-44.1	13.8	4.50e-06	0	57	0	1000341504	52	5467
2026-01-08 00:37:22.70	230.55	16.16	-41.1	-44.3	13.6	6.80e-06	0	56	0	1007681536	52	5624
2026-01-08 00:37:26.73	230.21	15.74	-41.0	-44.1	13.7	9.10e-06	0	56	0	1016070144	52	5518
2026-01-08 00:37:30.77	229.89	15.33	-40.9	-44.0	13.8	5.30e-06	0	56	0	1023410176	52	5444
2026-01-08 00:37:34.80	229.57	14.93	-40.9	-44.0	13.8	3.00e-06	0	56	0	1030750208	52	5453
2026-01-08 00:37:38.84	229.26	14.53	-41.1	-44.4	13.4	1.60e-05	0	56	0	1038090240	52	5700
2026-01-08 00:37:42.87	228.97	14.14	-41.2	-44.5	13.2	2.05e-05	0	57	0	1046478848	52	5788
2026-01-08 00:37:46.90	228.67	13.75	-41.2	-44.7	13.1	3.50e-05	0	57	0	1053818880	53	5550
2026-01-08 00:37:50.94	228.39	13.37	-41.3	-44.9	12.9	5.18e-05	0	56	0	1061158912	53	5668
2026-01-08 00:37:54.97	228.11	12.99	-41.2	-44.6	13.1	4.50e-05	0	57	0	1068498944	53	5528
2026-01-08 00:37:59.00	227.85	12.62	-41.3	-44.8	12.9	4.73e-05	0	57	0	1075838976	53	5605
2026-01-08 00:38:03.03	227.58	12.25	-41.3	-44.8	12.9	4.04e-05	0	56	0	1084227584	53	5602
2026-01-08 00:38:07.06	227.33	11.89	-41.3	-44.9	12.7	6.48e-05	0	56	0	1091567616	53	5692
2026-01-08 00:38:11.09	227.08	11.53	-41.4	-45.0	12.5	7.62e-05	0	56	0	1098907648	53	5778
2026-01-08 00:38:15.13	226.84	11.18	-41.4	-45.2	12.4	1.70e-04	0	57	0	1106247680	53	5881
2026-01-08 00:38:19.16	226.60	10.83	-41.4	-45.1	12.5	1.07e-04	0	57	0	1113587712	53	5790
2026-01-08 00:38:23.20	226.37	10.49	-41.6	-45.4	12.1	2.31e-04	0	57	0	1121976320	53	6061
2026-01-08 00:38:27.23	226.14	10.15	-41.6	-45.6	11.8	4.44e-04	0	57	0	1129316352	53	6202
2026-01-08 00:38:31.26	225.92	9.81	-41.7	-45.8	11.6	5.28e-04	0	56	0	1136656384	54	5959
2026-01-08 00:38:35.29	225.71	9.48	-41.6	-45.7	11.7	5.81e-04	0	56	0	1143996416	54	5889
2026-01-08 00:38:39.33	225.50	9.15	-41.5	-45.6	11.8	4.97e-04	0	57	0	1151336448	54	5812
2026-01-08 00:38:43.36	225.29	8.83	-41.6	-45.7	11.7	6.48e-04	0	57	0	1159725056	54	5861
2026-01-08 00:38:47.40	225.09	8.51	-41.4	-45.5	11.8	5.81e-04	0	57	0	1167065088	54	5758
2026-01-08 00:38:51.43	224.90	8.20	-41.6	-45.8	11.4	8.47e-04	0	57	0	1174405120	54	5964
2026-01-08 00:38:55.47	224.70	7.88	-44.8	-59.4	3.8	1.49e+00	0	57	104	1178599424	60	20184
2026-01-08 00:38:59.51	224.52	7.57	-45.2	-59.8	3.8	1.49e+00	0	57	104	1178599424	60	21158
2026-01-08 00:39:03.54	224.33	7.27	-45.2	-59.9	3.8	1.49e+00	0	57	104	1178599424	61	20072
2026-01-08 00:39:07.57	224.15	6.97	-45.1	-59.8	3.8	1.49e+00	0	57	104	1178599424	61	19993
2026-01-08 00:39:11.61	223.98	6.67	-45.1	-59.8	3.8	1.49e+00	0	57	104	1178599424	61	19965
2026-01-08 00:39:15.65	223.81	6.37	-45.1	-59.8	3.8	1.49e+00	0	57	104	1178599424	61	19984
2026-01-08 00:39:19.69	223.64	6.08	-45.1	-59.8	3.8	1.49e+00	0	57	104	1178599424	61	19923
2026-01-08 00:39:23.73	223.47	5.79	-45.1	-59.8	3.8	1.49e+00	0	57	104	1178599424	61	19952
2026-01-08 00:39:27.77	223.31	5.50	-45.1	-59.8	3.8	1.49e+00	0	57	104	1178599424	61	19964
2026-01-08 00:39:31.81	223.15	5.22	-45.1	-59.8	3.8	1.49e+00	0	57	104	1178599424	61	20009
2026-01-08 00:39:35.84	223.00	4.94	-45.1	-59.8	3.8	1.49e+00	0	57	104	1178599424	61	19905
2026-01-08 00:39:39.88	222.85	4.66	-45.1	-59.8	3.8	1.49e+00	0	57	104	1178599424	61	19909
2026-01-08 00:39:43.92	222.70	4.38	-45.1	-59.8	3.8	1.49e+00	0	57	104	1178599424	61	19934
2026-01-08 00:39:47.95	222.55	4.11	-45.1	-59.8	3.8	1.49e+00	0	57	104	1178599424	61	19900
2026-01-08 00:39:51.99	222.41	3.84	-45.1	-59.8	3.8	1.49e+00	0	57	104	1178599424	61	19927
2026-01-08 00:39:56.02	222.27	3.57	-45.1	-59.8	3.8	1.49e+00	0	57	104	1178599424	61	19860
2026-01-08 00:40:00.06	222.13	3.31	-45.1	-59.8	3.8	1.49e+00	0	57	104	1178599424	61	19904
2026-01-08 00:40:04.10	222.00	3.04	-45.1	-59.8	3.8	1.49e+00	0	57	104	1178599424	61	19847
2026-01-08 00:40:08.13	221.87	2.78	-45.1	-59.8	3.8	1.49e+00	0	57	104	1178599424	61	19848
2026-01-08 00:40:12.17	221.74	2.52	-45.1	-59.8	3.8	1.49e+00	0	57	104	1178599424	61	19862
2026-01-08 00:40:16.21	221.61	2.27	-45.1	-59.8	3.8	1.49e+00	0	57	104	1178599424	61	19871
2026-01-08 00:40:20.24	221.49	2.01	-45.1	-59.7	3.8	1.49e+00	0	57	104	1178599424	61	19782

#Closed at: 2026-01-08 00:40:20
#Recorded file [1178 MB]: D:/lorett/data/31039_260108_032620.dat