passes_logs/2026/01/08/R2.0S_Moscow/R2.0S_Moscow__20260108_105658_FENGYUN_3D_rec.log

#Pass ID: 20260108_105658_FENGYUN 3D
#Satellite: FENGYUN 3D
#Configuration: FENGYUN 3D
#almurnet v.1.7.20251203
#Start time: 2026-01-08 10:58:20

#Version: 2.2.20231116
#Station: R2.0S_Moscow
#Location: 37.707566 lon 55.798166 lat
#TLE: 1 43010U 17072A   26006.26440730  .00000376  00000+0  19957-3 0  9994
#TLE: 2 43010  98.9925 337.9455 0002045 123.9195 236.2175 14.19693586422016

#Time	Az	El	Level	Level2	SNR	BER	BlckErr	Temp	State	Recorded	gain1	gain2
2026-01-08 10:58:20.13	127.27	7.49	-45.9	-64.8	3.8	7.45e-01	0	58	0	0	62	33478
2026-01-08 10:58:23.15	127.09	7.72	-45.4	-57.1	3.8	8.46e-01	0	59	104	0	62	13729
2026-01-08 10:58:26.18	126.90	7.94	-45.2	-56.9	3.8	8.45e-01	0	59	104	0	62	13443
2026-01-08 10:58:29.21	126.72	8.17	-44.7	-56.4	3.8	8.47e-01	0	59	104	0	60	14306
2026-01-08 10:58:32.24	126.52	8.40	-33.7	-49.8	3.9	8.46e-01	0	58	104	0	47	14067
2026-01-08 10:58:35.27	126.33	8.63	-42.2	-54.5	4.1	8.44e-01	0	59	104	0	54	16176
2026-01-08 10:58:38.30	126.13	8.86	-42.5	-54.3	3.8	8.45e-01	0	58	104	0	54	15763
2026-01-08 10:58:41.33	125.93	9.10	-41.7	-53.5	4.0	8.45e-01	0	58	104	0	43	27151
2026-01-08 10:58:44.36	125.73	9.34	-39.9	-53.2	4.2	8.44e-01	0	59	104	0	53	14788
2026-01-08 10:58:47.39	125.52	9.57	-42.9	-55.0	3.9	8.46e-01	0	59	104	0	55	16269
2026-01-08 10:58:50.42	125.31	9.82	-27.9	-45.0	4.0	8.46e-01	0	59	104	0	28	24324
2026-01-08 10:58:53.45	125.09	10.06	-43.3	-54.6	3.8	8.46e-01	0	59	104	0	54	16458
2026-01-08 10:58:56.48	124.87	10.30	-39.2	-52.3	3.8	8.45e-01	0	59	104	0	53	13265
2026-01-08 10:58:59.51	124.65	10.55	-39.5	-50.3	4.3	8.36e-01	0	59	0	0	53	10538
2026-01-08 10:59:02.54	124.42	10.80	-40.4	-49.3	4.7	7.96e-01	0	59	0	0	52	10047
2026-01-08 10:59:05.58	124.19	11.05	-41.8	-47.6	6.3	5.27e-01	0	59	0	2097152	54	7357
2026-01-08 10:59:08.61	123.95	11.30	-31.2	-42.6	5.7	5.69e-01	0	58	0	14680064	40	9250
2026-01-08 10:59:11.63	123.72	11.56	-39.3	-42.3	10.8	4.30e-02	0	59	0	29360128	48	5612
2026-01-08 10:59:14.66	123.47	11.81	-42.4	-51.3	4.1	7.34e-01	0	59	104	42991616	49	14940
2026-01-08 10:59:17.69	123.22	12.07	-39.8	-44.1	9.8	2.94e-02	0	59	0	50331648	51	5850
2026-01-08 10:59:20.72	122.97	12.33	-36.2	-39.3	12.0	1.25e-02	0	58	0	66060288	43	5281
2026-01-08 10:59:23.75	122.71	12.60	-30.2	-37.6	7.2	5.27e-01	0	59	0	75497472	29	9724
2026-01-08 10:59:26.78	122.45	12.86	-31.3	-38.0	8.4	6.05e-01	0	59	0	84934656	33	8114
2026-01-08 10:59:29.80	122.19	13.13	-36.0	-39.0	11.3	1.62e-01	0	59	0	98566144	42	5437
2026-01-08 10:59:32.83	121.91	13.40	-36.3	-38.8	14.0	4.58e-03	0	59	0	115343360	43	5006
2026-01-08 10:59:35.86	121.64	13.67	-36.7	-39.0	13.4	5.49e-03	0	59	0	132120576	43	5128
2026-01-08 10:59:38.89	121.36	13.95	-36.9	-39.1	14.6	3.15e-03	0	59	0	149946368	44	4922
2026-01-08 10:59:41.92	121.07	14.23	-36.1	-39.0	14.2	1.44e-03	0	59	0	166723584	44	4870
2026-01-08 10:59:44.95	120.77	14.51	-35.6	-38.8	13.2	5.29e-03	0	59	0	183500800	42	5312
2026-01-08 10:59:47.98	120.47	14.79	-35.9	-38.7	14.9	2.02e-03	0	58	0	200278016	43	4959
2026-01-08 10:59:51.01	120.17	15.08	-35.6	-38.4	12.9	4.64e-03	0	59	0	218103808	43	4788
2026-01-08 10:59:54.04	119.86	15.36	-36.5	-38.5	15.2	5.40e-03	0	59	0	234881024	43	4828
2026-01-08 10:59:57.07	119.54	15.66	-34.6	-38.1	13.4	9.20e-03	0	59	0	251658240	41	5197
2026-01-08 11:00:00.11	119.22	15.95	-36.3	-38.2	15.8	6.19e-04	0	59	0	268435456	43	4654
2026-01-08 11:00:03.13	118.89	16.24	-36.4	-38.2	16.0	1.96e-04	0	59	0	286261248	43	4675
2026-01-08 11:00:06.17	118.55	16.54	-36.2	-37.9	16.3	2.63e-05	0	59	0	303038464	43	4541
2026-01-08 11:00:09.20	118.20	16.84	-36.2	-37.9	16.4	4.00e-05	0	59	0	319815680	43	4507
2026-01-08 11:00:12.23	117.85	17.15	-36.2	-37.9	16.4	1.10e-06	0	59	0	336592896	43	4508
2026-01-08 11:00:15.26	117.49	17.45	-36.1	-37.9	16.3	0.00e+00	0	59	0	354418688	43	4511
2026-01-08 11:00:18.29	117.13	17.76	-36.3	-38.0	16.4	0.00e+00	0	59	0	371195904	43	4549
2026-01-08 11:00:21.32	116.76	18.07	-36.2	-37.9	16.5	0.00e+00	0	59	0	387973120	43	4508
2026-01-08 11:00:24.35	116.37	18.39	-35.9	-37.5	16.8	0.00e+00	0	59	0	404750336	43	4336
2026-01-08 11:00:27.38	115.98	18.71	-35.9	-37.5	16.9	0.00e+00	0	59	0	422576128	43	4326
2026-01-08 11:00:30.40	115.59	19.02	-35.9	-37.5	16.8	0.00e+00	0	59	0	439353344	43	4322
2026-01-08 11:00:33.43	115.18	19.35	-35.8	-37.5	16.9	2.20e-06	0	59	0	456130560	42	4546
2026-01-08 11:00:36.46	114.77	19.67	-35.7	-37.4	17.0	0.00e+00	0	59	0	472907776	42	4494
2026-01-08 11:00:39.49	114.34	20.00	-35.6	-37.2	17.2	0.00e+00	0	59	0	490733568	41	4678
2026-01-08 11:00:42.52	113.91	20.33	-35.4	-37.0	17.4	0.00e+00	0	58	0	507510784	41	4559
2026-01-08 11:00:45.55	113.46	20.66	-35.5	-37.0	17.4	0.00e+00	0	59	0	524288000	41	4576
2026-01-08 11:00:48.58	113.01	21.00	-35.6	-37.1	17.4	0.00e+00	0	59	0	541065216	41	4623
2026-01-08 11:00:51.61	112.55	21.34	-35.3	-36.9	17.6	0.00e+00	0	59	0	558891008	41	4500
2026-01-08 11:00:54.64	112.07	21.68	-35.1	-36.5	17.9	0.00e+00	0	59	0	575668224	41	4324
2026-01-08 11:00:57.67	111.59	22.02	-34.9	-36.4	18.1	0.00e+00	0	59	0	592445440	41	4263
2026-01-08 11:01:00.70	111.09	22.36	-35.1	-36.6	17.9	0.00e+00	0	59	0	609222656	41	4344
2026-01-08 11:01:03.73	110.59	22.71	-35.1	-36.6	17.9	0.00e+00	0	59	0	627048448	41	4344
2026-01-08 11:01:06.76	110.07	23.06	-34.9	-36.3	18.1	0.00e+00	0	58	0	643825664	41	4240
2026-01-08 11:01:09.79	109.54	23.41	-34.8	-36.3	18.2	0.00e+00	0	59	0	660602880	41	4194
2026-01-08 11:01:12.83	108.99	23.77	-34.9	-36.3	18.2	0.00e+00	0	59	0	677380096	41	4220
2026-01-08 11:01:15.85	108.44	24.12	-35.1	-36.6	17.9	0.00e+00	0	59	0	695205888	41	4343
2026-01-08 11:01:18.88	107.87	24.48	-34.9	-36.3	18.1	0.00e+00	0	59	0	711983104	41	4238
2026-01-08 11:01:21.91	107.29	24.84	-34.7	-36.1	18.4	0.00e+00	0	59	0	728760320	41	4123
2026-01-08 11:01:24.95	106.69	25.21	-34.5	-35.9	18.6	0.00e+00	0	59	0	745537536	40	4261
2026-01-08 11:01:27.97	106.09	25.57	-34.5	-35.8	18.6	0.00e+00	0	59	0	763363328	40	4242
2026-01-08 11:01:31.00	105.46	25.93	-34.6	-36.0	18.6	0.00e+00	0	59	0	780140544	40	4293
2026-01-08 11:01:34.03	104.82	26.30	-34.6	-36.0	18.5	0.00e+00	0	59	0	796917760	40	4331
2026-01-08 11:01:37.06	104.17	26.66	-34.4	-35.8	18.7	0.00e+00	0	59	0	813694976	40	4230
2026-01-08 11:01:40.09	103.50	27.03	-34.3	-35.7	18.8	0.00e+00	0	59	0	831520768	40	4166
2026-01-08 11:01:43.12	102.82	27.40	-34.3	-35.7	18.9	0.00e+00	0	59	0	848297984	40	4165
2026-01-08 11:01:46.15	102.12	27.77	-34.5	-35.8	18.7	0.00e+00	0	59	0	865075200	40	4239
2026-01-08 11:01:49.18	101.40	28.13	-34.2	-35.6	19.0	0.00e+00	0	59	0	882900992	40	4108
2026-01-08 11:01:52.21	100.67	28.50	-34.3	-35.7	18.9	0.00e+00	0	59	0	899678208	40	4146
2026-01-08 11:01:55.24	99.92	28.87	-34.3	-35.7	18.9	0.00e+00	0	59	0	916455424	40	4153
2026-01-08 11:01:58.27	99.15	29.24	-34.4	-35.7	18.8	0.00e+00	0	59	0	933232640	40	4188
2026-01-08 11:02:01.30	98.37	29.60	-34.3	-35.7	18.9	0.00e+00	0	59	0	950009856	40	4148
2026-01-08 11:02:04.33	97.56	29.96	-34.2	-35.5	19.0	0.00e+00	0	59	0	967835648	40	4097
2026-01-08 11:02:07.36	96.74	30.33	-34.1	-35.4	19.1	0.00e+00	0	59	0	984612864	40	4046
2026-01-08 11:02:10.39	95.90	30.69	-34.2	-35.6	19.0	0.00e+00	0	59	0	1001390080	40	4109
2026-01-08 11:02:13.42	95.04	31.04	-34.2	-35.5	19.1	0.00e+00	0	59	0	1018167296	40	4085
2026-01-08 11:02:16.45	94.17	31.40	-34.0	-35.3	19.3	0.00e+00	0	59	0	1035993088	39	4237
2026-01-08 11:02:19.48	93.27	31.75	-34.0	-35.3	19.3	0.00e+00	0	59	0	1052770304	39	4229
2026-01-08 11:02:22.51	92.35	32.09	-33.8	-35.1	19.5	0.00e+00	0	59	0	1069547520	39	4128
2026-01-08 11:02:25.53	91.42	32.43	-33.9	-35.2	19.5	0.00e+00	0	59	0	1087373312	39	4146
2026-01-08 11:02:28.56	90.46	32.77	-33.8	-35.1	19.5	0.00e+00	0	59	0	1104150528	39	4119
2026-01-08 11:02:31.60	89.48	33.10	-33.8	-35.1	19.5	0.00e+00	0	59	0	1120927744	39	4109
2026-01-08 11:02:34.63	88.48	33.43	-34.1	-35.5	19.2	0.00e+00	0	59	0	1137704960	39	4299
2026-01-08 11:02:37.66	87.47	33.75	-33.9	-35.2	19.5	0.00e+00	0	59	0	1154482176	39	4189
2026-01-08 11:02:40.68	86.43	34.06	-34.0	-35.3	19.4	0.00e+00	0	59	0	1172307968	39	4222
2026-01-08 11:02:43.71	85.38	34.36	-33.9	-35.2	19.5	0.00e+00	0	59	0	1189085184	39	4157
2026-01-08 11:02:46.74	84.30	34.65	-33.9	-35.2	19.4	0.00e+00	0	59	0	1205862400	39	4167
2026-01-08 11:02:49.77	83.20	34.94	-33.8	-35.1	19.6	0.00e+00	0	59	0	1222639616	39	4137
2026-01-08 11:02:52.80	82.09	35.22	-34.1	-35.4	19.3	0.00e+00	0	59	0	1240465408	39	4254
2026-01-08 11:02:55.83	80.96	35.48	-34.2	-35.5	19.2	0.00e+00	0	59	0	1257242624	39	4314
2026-01-08 11:02:58.85	79.81	35.74	-33.9	-35.2	19.5	0.00e+00	0	59	0	1274019840	39	4175
2026-01-08 11:03:01.89	78.64	35.98	-33.8	-35.1	19.6	0.00e+00	0	59	0	1291845632	39	4124
2026-01-08 11:03:04.91	77.45	36.21	-33.8	-35.1	19.6	0.00e+00	0	59	0	1308622848	39	4140
2026-01-08 11:03:07.94	76.25	36.43	-33.7	-35.0	19.7	0.00e+00	0	59	0	1325400064	39	4060
2026-01-08 11:03:10.97	75.03	36.64	-33.8	-35.1	19.7	0.00e+00	0	59	0	1342177280	39	4109
2026-01-08 11:03:14.00	73.80	36.83	-33.9	-35.1	19.6	0.00e+00	0	59	0	1358954496	39	4140
2026-01-08 11:03:17.03	72.55	37.01	-34.0	-35.3	19.4	0.00e+00	0	59	0	1376780288	39	4236
2026-01-08 11:03:20.06	71.29	37.17	-33.6	-34.8	19.9	0.00e+00	0	59	0	1393557504	39	3979
2026-01-08 11:03:23.09	70.02	37.32	-34.0	-35.3	19.5	0.00e+00	0	59	0	1410334720	39	4203
2026-01-08 11:03:26.12	68.73	37.45	-34.1	-35.4	19.3	0.00e+00	0	59	0	1427111936	39	4272
2026-01-08 11:03:29.15	67.44	37.57	-34.2	-35.5	19.3	0.00e+00	0	59	0	1444937728	39	4305
2026-01-08 11:03:32.19	66.13	37.67	-34.1	-35.4	19.3	0.00e+00	0	59	0	1461714944	39	4291
2026-01-08 11:03:35.22	64.83	37.75	-34.0	-35.2	19.5	0.00e+00	0	59	0	1478492160	39	4184
2026-01-08 11:03:38.25	63.51	37.82	-33.9	-35.2	19.5	0.00e+00	0	59	0	1496317952	39	4176
2026-01-08 11:03:41.28	62.19	37.86	-34.1	-35.5	19.3	0.00e+00	0	59	0	1513095168	39	4308
2026-01-08 11:03:44.31	60.87	37.90	-34.0	-35.3	19.5	0.00e+00	0	59	0	1529872384	39	4196
2026-01-08 11:03:47.34	59.54	37.91	-33.9	-35.2	19.5	0.00e+00	0	59	0	1546649600	39	4186
2026-01-08 11:03:50.38	58.21	37.91	-34.0	-35.3	19.4	0.00e+00	0	59	0	1563426816	39	4217
2026-01-08 11:03:53.41	56.89	37.89	-33.9	-35.2	19.6	0.00e+00	0	59	0	1581252608	39	4150
2026-01-08 11:03:56.44	55.57	37.85	-33.8	-35.0	19.7	0.00e+00	0	59	0	1598029824	39	4091
2026-01-08 11:03:59.47	54.25	37.79	-33.8	-35.0	19.7	0.00e+00	0	59	0	1614807040	39	4087
2026-01-08 11:04:02.50	52.94	37.72	-33.9	-35.2	19.6	0.00e+00	0	59	0	1632632832	39	4169
2026-01-08 11:04:05.53	51.63	37.63	-33.9	-35.2	19.5	0.00e+00	0	59	0	1649410048	39	4185
2026-01-08 11:04:08.56	50.33	37.53	-33.8	-35.1	19.7	0.00e+00	0	59	0	1666187264	39	4112
2026-01-08 11:04:11.59	49.04	37.40	-33.5	-34.7	20.0	0.00e+00	0	59	0	1682964480	39	3944
2026-01-08 11:04:14.62	47.77	37.27	-33.5	-34.7	20.1	0.00e+00	0	59	0	1700790272	38	4166
2026-01-08 11:04:17.65	46.50	37.11	-33.6	-34.8	20.0	0.00e+00	0	59	0	1717567488	38	4227
2026-01-08 11:04:20.68	45.25	36.94	-33.9	-35.2	19.6	0.00e+00	0	59	0	1734344704	38	4418
2026-01-08 11:04:23.71	44.00	36.76	-33.7	-34.9	19.8	0.00e+00	0	59	0	1751121920	38	4268
2026-01-08 11:04:26.74	42.78	36.56	-33.9	-35.2	19.6	0.00e+00	0	59	0	1768947712	38	4412
2026-01-08 11:04:29.77	41.57	36.35	-33.8	-35.0	19.8	0.00e+00	0	59	0	1785724928	38	4322
2026-01-08 11:04:32.80	40.37	36.13	-33.8	-35.0	19.8	0.00e+00	0	59	0	1802502144	38	4338
2026-01-08 11:04:35.83	39.20	35.90	-34.1	-35.5	19.3	0.00e+00	0	59	0	1820327936	38	4546
2026-01-08 11:04:38.86	38.04	35.65	-33.8	-35.1	19.7	0.00e+00	0	59	0	1837105152	39	4131
2026-01-08 11:04:41.90	36.89	35.39	-33.9	-35.2	19.6	0.00e+00	0	59	0	1853882368	39	4170
2026-01-08 11:04:44.93	35.77	35.12	-33.9	-35.0	20.1	0.00e+00	0	59	0	1870659584	39	4087
2026-01-08 11:04:47.96	34.66	34.84	-33.9	-35.0	20.2	0.00e+00	0	59	0	1887436800	39	4087
2026-01-08 11:04:51.00	33.57	34.55	-34.0	-35.1	20.1	0.00e+00	0	59	0	1905262592	39	4134
2026-01-08 11:04:54.03	32.51	34.25	-33.9	-35.0	20.2	0.00e+00	0	59	0	1922039808	39	4094
2026-01-08 11:04:57.06	31.46	33.95	-34.0	-35.1	20.0	0.00e+00	0	59	0	1938817024	39	4138
2026-01-08 11:05:00.09	30.43	33.64	-34.1	-35.3	19.9	0.00e+00	0	59	0	1956642816	39	4194
2026-01-08 11:05:03.13	29.42	33.31	-34.0	-35.2	20.0	0.00e+00	0	59	0	1973420032	39	4148
2026-01-08 11:05:06.16	28.44	32.99	-34.1	-35.2	19.9	0.00e+00	0	59	0	1990197248	39	4193
2026-01-08 11:05:09.19	27.47	32.66	-34.1	-35.2	20.0	0.00e+00	0	59	0	2006974464	39	4181
2026-01-08 11:05:12.23	26.52	32.32	-34.3	-35.5	19.7	0.00e+00	0	59	0	2024800256	39	4313
2026-01-08 11:05:15.26	25.60	31.97	-34.3	-35.5	19.7	0.00e+00	0	59	0	2041577472	39	4296
2026-01-08 11:05:18.29	24.69	31.63	-34.0	-35.1	20.0	0.00e+00	0	59	0	2058354688	39	4135
2026-01-08 11:05:21.32	23.80	31.28	-34.0	-35.1	20.0	0.00e+00	0	59	0	2075131904	39	4140
2026-01-08 11:05:24.36	22.93	30.92	-33.9	-35.1	20.1	0.00e+00	0	59	0	2092957696	39	4105
2026-01-08 11:05:27.39	22.08	30.57	-34.2	-35.4	19.8	0.00e+00	0	59	0	2109734912	39	4246
2026-01-08 11:05:30.42	21.25	30.21	-34.1	-35.3	19.8	0.00e+00	0	59	0	2126512128	39	4226
2026-01-08 11:05:33.45	20.44	29.85	-34.3	-35.5	19.6	0.00e+00	0	59	0	2144337920	39	4328
2026-01-08 11:05:36.48	19.65	29.48	-34.3	-35.5	19.7	0.00e+00	0	59	0	2161115136	39	4315
2026-01-08 11:05:39.51	18.87	29.12	-34.4	-35.6	19.5	0.00e+00	0	59	0	2177892352	39	4376
2026-01-08 11:05:42.54	18.12	28.75	-34.4	-35.6	19.5	0.00e+00	0	59	0	2194669568	39	4361
2026-01-08 11:05:45.57	17.38	28.39	-34.4	-35.6	19.5	0.00e+00	0	59	0	2211446784	39	4376
2026-01-08 11:05:48.61	16.65	28.02	-34.4	-35.6	19.5	0.00e+00	0	59	0	2229272576	39	4384
2026-01-08 11:05:51.64	15.94	27.65	-34.6	-35.9	19.2	0.00e+00	0	59	0	2246049792	39	4503
2026-01-08 11:05:54.67	15.25	27.29	-34.6	-35.8	19.3	0.00e+00	0	59	0	2262827008	39	4461
2026-01-08 11:05:57.70	14.58	26.92	-34.7	-35.9	19.2	0.00e+00	0	59	0	2280652800	39	4525
2026-01-08 11:06:00.73	13.92	26.56	-34.8	-36.0	19.0	0.00e+00	0	59	0	2297430016	40	4322
2026-01-08 11:06:03.76	13.28	26.19	-34.9	-36.1	18.9	0.00e+00	0	59	0	2314207232	40	4382
2026-01-08 11:06:06.79	12.65	25.83	-34.9	-36.1	18.9	0.00e+00	0	59	0	2330984448	40	4374
2026-01-08 11:06:09.83	12.03	25.46	-34.9	-36.2	18.8	0.00e+00	0	59	0	2348810240	40	4404
2026-01-08 11:06:12.86	11.43	25.10	-34.9	-36.2	18.8	0.00e+00	0	59	0	2365587456	40	4425
2026-01-08 11:06:15.89	10.84	24.74	-34.9	-36.1	18.8	0.00e+00	0	59	0	2382364672	40	4391
2026-01-08 11:06:18.92	10.27	24.39	-34.8	-36.1	18.9	0.00e+00	0	59	0	2399141888	40	4359
2026-01-08 11:06:21.95	9.71	24.03	-34.9	-36.1	18.8	0.00e+00	0	59	0	2416967680	40	4383
2026-01-08 11:06:24.98	9.16	23.68	-34.9	-36.2	18.8	0.00e+00	0	59	0	2433744896	40	4419
2026-01-08 11:06:28.01	8.63	23.32	-35.1	-36.4	18.5	0.00e+00	0	59	0	2450522112	40	4536
2026-01-08 11:06:31.04	8.10	22.97	-35.1	-36.4	18.6	0.00e+00	0	59	0	2468347904	40	4503
2026-01-08 11:06:34.08	7.59	22.63	-34.9	-36.2	18.7	0.00e+00	0	59	0	2485125120	40	4393
2026-01-08 11:06:37.10	7.09	22.28	-34.9	-36.1	18.7	0.00e+00	0	59	0	2501902336	40	4387
2026-01-08 11:06:40.12	6.61	21.94	-35.0	-36.3	18.6	0.00e+00	0	59	0	2518679552	40	4459
2026-01-08 11:06:43.15	6.13	21.60	-35.1	-36.4	18.5	0.00e+00	0	59	0	2535456768	40	4510
2026-01-08 11:06:46.18	5.66	21.26	-35.2	-36.5	18.3	0.00e+00	0	58	0	2553282560	41	4334
2026-01-08 11:06:49.21	5.20	20.93	-35.3	-36.6	18.2	0.00e+00	0	59	0	2570059776	41	4378
2026-01-08 11:06:52.24	4.76	20.59	-35.4	-36.7	18.1	0.00e+00	0	59	0	2586836992	41	4421
2026-01-08 11:06:55.27	4.32	20.26	-35.3	-36.6	18.1	0.00e+00	0	59	0	2603614208	41	4391
2026-01-08 11:06:58.29	3.89	19.93	-35.4	-36.7	18.0	0.00e+00	0	59	0	2621440000	41	4436
2026-01-08 11:07:01.32	3.48	19.61	-35.4	-36.8	18.0	0.00e+00	0	59	0	2638217216	41	4446
2026-01-08 11:07:04.35	3.07	19.29	-35.5	-36.9	17.8	0.00e+00	0	59	0	2654994432	41	4533
2026-01-08 11:07:07.37	2.67	18.97	-35.7	-37.1	17.6	0.00e+00	0	59	0	2671771648	41	4603
2026-01-08 11:07:10.40	2.28	18.65	-35.6	-37.0	17.6	0.00e+00	0	59	0	2689597440	41	4561
2026-01-08 11:07:13.42	1.89	18.34	-35.6	-37.0	17.6	0.00e+00	0	59	0	2706374656	41	4569
2026-01-08 11:07:16.45	1.52	18.02	-35.6	-37.0	17.5	0.00e+00	0	59	0	2723151872	41	4597
2026-01-08 11:07:19.48	1.15	17.71	-35.8	-37.3	17.2	0.00e+00	0	59	0	2739929088	42	4452
2026-01-08 11:07:22.50	0.79	17.41	-35.9	-37.4	17.0	0.00e+00	0	59	0	2757754880	42	4510
2026-01-08 11:07:25.53	0.44	17.11	-36.1	-37.6	16.7	0.00e+00	0	59	0	2774532096	42	4647
2026-01-08 11:07:28.57	0.09	16.80	-36.2	-37.7	16.6	0.00e+00	0	59	0	2791309312	43	4435
2026-01-08 11:07:31.59	359.75	16.50	-36.3	-37.9	16.3	0.00e+00	0	59	0	2808086528	43	4508
2026-01-08 11:07:34.62	359.42	16.21	-36.2	-37.8	16.3	0.00e+00	0	59	0	2825912320	43	4472
2026-01-08 11:07:37.66	359.09	15.91	-36.3	-37.9	16.2	0.00e+00	0	59	0	2842689536	43	4512
2026-01-08 11:07:40.69	358.78	15.62	-36.2	-37.8	16.1	0.00e+00	0	59	0	2859466752	43	4491
2026-01-08 11:07:43.72	358.46	15.33	-36.4	-38.1	15.7	0.00e+00	0	59	0	2877292544	43	4614
2026-01-08 11:07:46.75	358.16	15.05	-36.5	-38.2	15.5	0.00e+00	0	59	0	2894069760	43	4703
2026-01-08 11:07:49.79	357.86	14.76	-36.9	-38.8	15.0	0.00e+00	0	59	0	2910846976	44	4710
2026-01-08 11:07:52.82	357.56	14.48	-36.8	-38.7	14.9	0.00e+00	0	59	0	2927624192	44	4692
2026-01-08 11:07:55.85	357.27	14.20	-36.7	-38.6	14.8	0.00e+00	0	59	0	2944401408	44	4645
2026-01-08 11:07:58.88	356.99	13.93	-36.1	-38.0	15.2	0.00e+00	0	59	0	2962227200	44	4313
2026-01-08 11:08:01.91	356.71	13.65	-36.5	-38.5	14.4	0.00e+00	0	59	0	2979004416	44	4569
2026-01-08 11:08:04.94	356.44	13.38	-37.1	-39.5	13.0	1.25e-05	0	59	0	2995781632	44	5139
2026-01-08 11:08:07.97	356.17	13.11	-38.7	-42.4	9.4	1.07e-02	0	59	0	3013607424	47	6052
2026-01-08 11:08:11.00	355.91	12.85	-39.6	-45.2	6.3	1.93e-01	0	59	0	3030384640	49	7411
2026-01-08 11:08:14.04	355.65	12.58	-40.2	-49.3	4.1	8.36e-01	0	59	0	3034578944	51	10538
2026-01-08 11:08:17.07	355.40	12.32	-40.3	-51.7	3.8	8.46e-01	0	59	104	3034578944	51	13965
2026-01-08 11:08:20.10	355.15	12.06	-40.3	-52.0	3.8	8.47e-01	0	59	104	3034578944	51	14509
2026-01-08 11:08:23.13	354.91	11.80	-40.3	-52.2	3.8	8.46e-01	0	59	104	3034578944	51	14872
2026-01-08 11:08:26.16	354.67	11.55	-40.2	-52.0	3.8	8.45e-01	0	59	104	3034578944	51	14485
2026-01-08 11:08:29.19	354.44	11.29	-40.0	-51.7	3.8	8.46e-01	0	59	104	3034578944	51	13898
2026-01-08 11:08:32.22	354.20	11.04	-40.0	-51.7	3.8	8.47e-01	0	59	104	3034578944	51	14021
2026-01-08 11:08:35.25	353.98	10.79	-40.0	-51.7	3.8	8.46e-01	0	59	104	3034578944	51	13913
2026-01-08 11:08:38.28	353.76	10.55	-40.1	-51.8	3.8	8.47e-01	0	59	104	3034578944	51	14207
2026-01-08 11:08:41.30	353.54	10.30	-39.9	-51.8	3.8	8.45e-01	0	59	104	3034578944	51	14047
2026-01-08 11:08:44.33	353.32	10.06	-40.1	-51.9	3.8	8.45e-01	0	59	104	3034578944	51	14360
2026-01-08 11:08:47.36	353.11	9.82	-40.1	-51.8	3.8	8.46e-01	0	59	104	3034578944	51	14105
2026-01-08 11:08:50.39	352.91	9.58	-40.3	-52.1	3.8	8.47e-01	0	59	104	3034578944	51	14576
2026-01-08 11:08:53.42	352.70	9.34	-40.3	-52.0	3.8	8.45e-01	0	59	104	3034578944	51	14530
2026-01-08 11:08:56.45	352.50	9.11	-40.4	-52.1	3.8	8.47e-01	0	59	104	3034578944	51	14571
2026-01-08 11:08:59.48	352.30	8.87	-40.4	-52.1	3.8	8.46e-01	0	59	104	3034578944	51	14614
2026-01-08 11:09:02.51	352.11	8.64	-40.4	-52.1	3.8	8.45e-01	0	59	104	3034578944	51	14633
2026-01-08 11:09:05.53	351.92	8.41	-40.4	-52.1	3.8	8.46e-01	0	59	104	3034578944	51	14547
2026-01-08 11:09:08.56	351.73	8.18	-40.5	-52.1	3.8	8.46e-01	0	59	104	3034578944	51	14704
2026-01-08 11:09:11.59	351.55	7.96	-40.4	-52.1	3.8	8.46e-01	0	59	104	3034578944	51	14692
2026-01-08 11:09:14.63	351.37	7.73	-44.6	-56.1	3.8	8.46e-01	0	59	104	3034578944	59	14603
2026-01-08 11:09:17.66	351.19	7.51	-45.1	-56.8	3.8	8.46e-01	0	59	104	3034578944	60	14915
2026-01-08 11:09:20.68	351.01	7.29	-45.2	-56.9	3.8	8.46e-01	0	59	104	3034578944	60	15097
2026-01-08 11:09:23.71	350.84	7.07	-45.1	-56.8	3.8	8.46e-01	0	59	104	3034578944	60	14965
2026-01-08 11:09:26.74	350.67	6.85	-45.1	-56.7	3.8	8.46e-01	0	59	104	3034578944	60	14815
2026-01-08 11:09:29.77	350.50	6.64	-45.0	-56.6	3.8	8.46e-01	0	59	104	3034578944	60	14650
2026-01-08 11:09:32.81	350.34	6.42	-45.0	-56.6	3.8	8.46e-01	0	59	104	3034578944	60	14660
2026-01-08 11:09:35.84	350.18	6.21	-45.0	-56.6	3.8	8.47e-01	0	59	104	3034578944	60	14677
2026-01-08 11:09:38.87	350.02	6.00	-45.0	-56.6	3.8	8.45e-01	0	59	104	3034578944	60	14594
2026-01-08 11:09:41.90	349.86	5.78	-45.0	-56.6	3.8	8.47e-01	0	59	104	3034578944	60	14595
2026-01-08 11:09:44.93	349.71	5.58	-45.0	-56.6	3.8	8.46e-01	0	59	104	3034578944	60	14584
2026-01-08 11:09:47.97	349.55	5.37	-45.0	-56.6	3.8	8.46e-01	0	59	104	3034578944	60	14600
2026-01-08 11:09:51.00	349.40	5.16	-45.0	-56.6	3.8	8.46e-01	0	59	104	3034578944	60	14575
2026-01-08 11:09:54.03	349.26	4.96	-45.0	-56.6	3.8	8.47e-01	0	59	104	3034578944	60	14587
2026-01-08 11:09:57.06	349.11	4.75	-45.0	-56.6	3.8	8.46e-01	0	59	104	3034578944	60	14596
2026-01-08 11:10:00.09	348.97	4.55	-45.0	-56.6	3.8	8.46e-01	0	59	104	3034578944	60	14591
2026-01-08 11:10:03.12	348.83	4.35	-45.0	-56.6	3.8	8.47e-01	0	59	104	3034578944	60	14584
2026-01-08 11:10:06.15	348.69	4.15	-45.0	-56.6	3.8	8.44e-01	0	59	104	3034578944	60	14589
2026-01-08 11:10:09.18	348.55	3.95	-45.0	-56.6	3.8	8.45e-01	0	59	104	3034578944	60	14593
2026-01-08 11:10:12.22	348.42	3.76	-44.9	-56.6	3.8	8.46e-01	0	59	104	3034578944	60	14588
2026-01-08 11:10:15.25	348.28	3.56	-45.0	-56.6	3.8	8.46e-01	0	59	104	3034578944	60	14558
2026-01-08 11:10:18.28	348.15	3.37	-45.0	-56.6	3.8	8.46e-01	0	59	104	3034578944	60	14559
2026-01-08 11:10:21.32	348.02	3.17	-44.9	-56.6	3.8	8.45e-01	0	59	104	3034578944	60	14553
2026-01-08 11:10:24.35	347.90	2.98	-45.0	-56.6	3.8	8.47e-01	0	59	104	3034578944	60	14593
2026-01-08 11:10:27.38	347.77	2.79	-45.0	-56.6	3.8	8.47e-01	0	59	104	3034578944	60	14588
2026-01-08 11:10:30.41	347.65	2.60	-44.9	-56.6	3.8	8.46e-01	0	59	104	3034578944	60	14555
2026-01-08 11:10:33.44	347.52	2.41	-44.9	-56.6	3.8	8.45e-01	0	59	104	3034578944	60	14555
2026-01-08 11:10:36.48	347.40	2.23	-44.9	-56.5	3.8	8.46e-01	0	59	104	3034578944	60	14531
2026-01-08 11:10:39.51	347.28	2.04	-45.0	-56.5	3.8	8.47e-01	0	59	104	3034578944	60	14528

#Closed at: 2026-01-08 11:10:41
#Recorded file [3034 MB]: D:/lorett/data/31039_260108_135819.dat