passes_logs/2026/01/08/R2.0S_Moscow/R2.0S_Moscow__20260108_095607_SUOMI_NPP_rec.log

#Pass ID: 20260108_095607_SUOMI NPP
#Satellite: SUOMI NPP
#Configuration: NPP
#almurnet v.1.7.20251203
#Start time: 2026-01-08 09:56:08

#Version: 2.2.20231116
#Station: R2.0S_Moscow
#Location: 37.707566 lon 55.798166 lat
#TLE: 1 37849U 11061A   26005.94084933  .00000134  00000+0  84554-4 0  9990
#TLE: 2 37849  98.7803 308.0679 0002567  79.1029 281.0436 14.19522657735426

#Time	Az	El	Level	Level2	SNR	BER	BlckErr	Temp	State	Recorded	gain1	gain2
2026-01-08 09:56:08.83	158.94	2.11	-44.0	-58.4	3.8	1.49e+00	0	47	0	0	59	18972
2026-01-08 09:56:12.87	158.94	2.37	-43.9	-58.3	3.8	1.49e+00	0	48	104	0	59	18932
2026-01-08 09:56:16.91	158.94	2.63	-44.0	-58.4	3.8	1.49e+00	0	48	104	0	59	19066
2026-01-08 09:56:20.96	158.94	2.90	-44.0	-58.3	3.8	1.49e+00	0	48	104	0	59	18947
2026-01-08 09:56:25.01	158.94	3.17	-44.0	-58.4	3.8	1.49e+00	0	48	104	0	59	18970
2026-01-08 09:56:29.05	158.94	3.45	-43.9	-58.4	3.8	1.49e+00	0	49	104	0	59	18963
2026-01-08 09:56:33.09	158.94	3.72	-44.0	-58.3	3.8	1.49e+00	0	49	104	0	59	18937
2026-01-08 09:56:37.14	158.94	4.00	-43.9	-58.4	3.8	1.49e+00	0	49	104	0	59	18957
2026-01-08 09:56:41.18	158.94	4.28	-44.0	-58.4	3.8	1.49e+00	0	49	104	0	59	18958
2026-01-08 09:56:45.22	158.93	4.56	-44.0	-58.3	3.8	1.49e+00	0	50	104	0	59	18922
2026-01-08 09:56:49.27	158.93	4.85	-43.9	-58.3	3.8	1.49e+00	0	50	104	0	59	18804
2026-01-08 09:56:53.31	158.93	5.14	-43.9	-58.3	3.8	1.49e+00	0	50	104	0	59	18747
2026-01-08 09:56:57.36	158.93	5.44	-43.9	-58.2	3.8	1.49e+00	0	50	104	0	59	18559
2026-01-08 09:57:01.40	158.92	5.73	-43.9	-58.2	3.8	1.49e+00	0	51	104	0	59	18631
2026-01-08 09:57:05.45	158.92	6.03	-43.9	-58.1	3.8	1.49e+00	0	51	104	0	59	18431
2026-01-08 09:57:09.49	158.92	6.34	-43.9	-58.1	3.8	1.49e+00	0	51	104	0	59	18339
2026-01-08 09:57:13.53	158.91	6.64	-43.9	-58.2	3.8	1.49e+00	0	51	104	0	59	18714
2026-01-08 09:57:17.58	158.91	6.96	-43.8	-56.6	3.8	1.49e+00	0	51	104	0	59	15470
2026-01-08 09:57:21.62	158.90	7.27	-43.4	-52.3	5.3	6.69e-01	0	52	0	3145728	58	10026
2026-01-08 09:57:25.67	158.90	7.59	-42.7	-48.8	8.2	7.51e-02	0	52	0	10485760	57	7081
2026-01-08 09:57:29.71	158.89	7.91	-41.8	-46.6	10.3	8.49e-03	0	52	0	18874368	55	6138
2026-01-08 09:57:33.75	158.89	8.24	-42.3	-47.8	9.3	2.69e-02	0	52	0	22020096	55	7081
2026-01-08 09:57:37.79	158.88	8.57	-41.6	-46.0	10.9	2.17e-03	0	52	0	29360128	55	5764
2026-01-08 09:57:41.83	158.88	8.91	-41.4	-45.5	11.6	4.75e-04	0	52	0	36700160	54	5768
2026-01-08 09:57:45.88	158.87	9.25	-41.4	-45.5	11.6	7.22e-04	0	53	0	45088768	54	5768
2026-01-08 09:57:49.92	158.86	9.59	-41.3	-45.2	12.0	2.07e-04	0	53	0	52428800	54	5579
2026-01-08 09:57:53.96	158.85	9.94	-41.2	-44.9	12.3	2.39e-04	0	53	0	59768832	54	5369
2026-01-08 09:57:58.00	158.85	10.30	-41.0	-44.6	12.7	8.62e-05	0	53	0	67108864	53	5484
2026-01-08 09:58:02.05	158.84	10.66	-41.2	-44.9	12.5	8.54e-05	0	53	0	75497472	53	5684
2026-01-08 09:58:06.08	158.83	11.02	-41.2	-44.8	12.5	1.11e-04	0	53	0	82837504	53	5655
2026-01-08 09:58:10.12	158.82	11.40	-41.2	-44.8	12.6	1.20e-04	0	53	0	90177536	53	5654
2026-01-08 09:58:14.17	158.81	11.77	-41.0	-44.5	13.1	4.50e-05	0	53	0	97517568	53	5406
2026-01-08 09:58:18.21	158.80	12.16	-40.8	-44.0	13.5	1.29e-05	0	53	0	104857600	53	5131
2026-01-08 09:58:22.25	158.79	12.55	-40.6	-43.7	13.9	4.50e-06	0	53	0	113246208	53	4941
2026-01-08 09:58:26.29	158.78	12.94	-40.6	-43.6	14.1	7.00e-07	0	53	0	120586240	53	4889
2026-01-08 09:58:30.34	158.76	13.34	-40.6	-43.6	14.2	1.50e-06	0	54	0	127926272	52	5164
2026-01-08 09:58:34.38	158.75	13.75	-40.6	-43.7	14.1	0.00e+00	0	54	0	135266304	52	5220
2026-01-08 09:58:38.42	158.74	14.17	-40.6	-43.5	14.2	2.20e-06	0	54	0	143654912	52	5158
2026-01-08 09:58:42.46	158.72	14.59	-40.5	-43.3	14.5	1.50e-06	0	54	0	150994944	52	5038
2026-01-08 09:58:46.51	158.71	15.02	-40.2	-42.9	14.9	0.00e+00	0	54	0	158334976	52	4813
2026-01-08 09:58:50.55	158.69	15.46	-40.1	-42.8	15.1	0.00e+00	0	54	0	165675008	52	4728
2026-01-08 09:58:54.59	158.67	15.91	-40.1	-42.7	15.2	0.00e+00	0	54	0	174063616	52	4685
2026-01-08 09:58:58.63	158.66	16.36	-40.1	-42.8	15.1	0.00e+00	0	54	0	181403648	52	4730
2026-01-08 09:59:02.67	158.64	16.82	-39.9	-42.4	15.6	0.00e+00	0	54	0	188743680	51	4785
2026-01-08 09:59:06.72	158.62	17.30	-40.0	-42.4	15.5	0.00e+00	0	54	0	196083712	51	4812
2026-01-08 09:59:10.76	158.60	17.78	-40.0	-42.5	15.5	0.00e+00	0	54	0	203423744	51	4854
2026-01-08 09:59:14.80	158.58	18.27	-40.2	-42.7	15.3	0.00e+00	0	54	0	211812352	51	4962
2026-01-08 09:59:18.85	158.55	18.77	-40.0	-42.5	15.5	0.00e+00	0	54	0	219152384	51	4852
2026-01-08 09:59:22.89	158.53	19.28	-39.9	-42.4	15.7	0.00e+00	0	54	0	226492416	51	4760
2026-01-08 09:59:26.92	158.51	19.80	-40.2	-42.8	15.3	0.00e+00	0	55	0	233832448	51	5022
2026-01-08 09:59:30.97	158.48	20.34	-40.4	-43.0	15.1	0.00e+00	0	55	0	242221056	51	5141
2026-01-08 09:59:35.01	158.45	20.88	-40.4	-43.2	15.0	7.00e-07	0	55	0	249561088	51	5221
2026-01-08 09:59:39.05	158.42	21.44	-40.3	-43.0	15.1	0.00e+00	0	55	0	256901120	51	5125
2026-01-08 09:59:43.10	158.39	22.01	-40.5	-43.2	14.9	0.00e+00	0	55	0	264241152	51	5236
2026-01-08 09:59:47.14	158.36	22.60	-40.5	-43.3	14.9	7.00e-07	0	55	0	271581184	51	5302
2026-01-08 09:59:51.18	158.33	23.19	-40.3	-43.0	15.2	0.00e+00	0	55	0	279969792	51	5114
2026-01-08 09:59:55.22	158.29	23.80	-40.0	-42.4	15.7	0.00e+00	0	55	0	287309824	51	4807
2026-01-08 09:59:59.26	158.26	24.43	-40.2	-42.7	15.5	0.00e+00	0	55	0	294649856	51	4934
2026-01-08 10:00:03.31	158.22	25.07	-40.2	-42.7	15.5	7.00e-07	0	55	0	301989888	51	4975
2026-01-08 10:00:07.35	158.17	25.73	-39.8	-42.1	16.1	0.00e+00	0	55	0	310378496	51	4605
2026-01-08 10:00:11.39	158.13	26.40	-39.6	-41.9	16.3	0.00e+00	0	55	0	317718528	51	4515
2026-01-08 10:00:15.43	158.08	27.09	-40.1	-42.6	15.7	0.00e+00	0	55	0	325058560	51	4883
2026-01-08 10:00:19.47	158.04	27.80	-40.5	-43.2	15.0	0.00e+00	0	55	0	332398592	51	5228
2026-01-08 10:00:23.51	157.98	28.52	-40.5	-43.3	14.8	0.00e+00	0	55	0	339738624	52	5004
2026-01-08 10:00:27.55	157.93	29.27	-41.1	-44.2	14.0	7.00e-07	0	55	0	348127232	52	5545
2026-01-08 10:00:31.59	157.87	30.04	-41.5	-44.8	13.3	6.80e-06	0	55	0	355467264	53	5620
2026-01-08 10:00:35.63	157.81	30.83	-41.4	-44.6	13.5	9.90e-06	0	56	0	362807296	53	5506
2026-01-08 10:00:39.67	157.75	31.63	-42.2	-46.1	12.0	2.83e-04	0	55	0	370147328	55	5826
2026-01-08 10:00:43.72	157.68	32.47	-43.2	-48.3	9.9	7.40e-03	0	55	0	378535936	56	7116
2026-01-08 10:00:47.76	157.60	33.33	-43.0	-47.8	10.5	4.25e-03	0	55	0	385875968	57	6299
2026-01-08 10:00:51.80	157.53	34.21	-42.6	-47.0	11.4	1.19e-03	0	55	0	393216000	57	5727
2026-01-08 10:00:55.84	157.44	35.11	-41.0	-43.9	14.3	1.50e-06	0	56	0	400556032	53	5085
2026-01-08 10:00:59.89	157.35	36.05	-40.4	-43.0	15.2	0.00e+00	0	56	0	408944640	52	4829
2026-01-08 10:01:03.93	157.26	37.01	-40.3	-42.8	15.5	0.00e+00	0	56	0	416284672	51	5013
2026-01-08 10:01:07.97	157.16	38.00	-39.5	-41.7	16.5	0.00e+00	0	56	0	423624704	51	4420
2026-01-08 10:01:12.01	157.05	39.02	-39.8	-42.1	16.2	0.00e+00	0	56	0	430964736	51	4602
2026-01-08 10:01:16.05	156.93	40.07	-39.5	-41.6	16.6	0.00e+00	0	56	0	438304768	50	4641
2026-01-08 10:01:20.09	156.81	41.15	-39.4	-41.4	16.8	0.00e+00	0	56	0	446693376	50	4545
2026-01-08 10:01:24.13	156.67	42.27	-40.4	-43.0	15.4	0.00e+00	0	56	0	454033408	51	5132
2026-01-08 10:01:28.18	156.53	43.42	-40.2	-42.7	15.6	0.00e+00	0	56	0	461373440	51	4950
2026-01-08 10:01:32.22	156.37	44.61	-41.1	-44.1	14.1	2.20e-06	0	56	0	468713472	52	5523
2026-01-08 10:01:36.26	156.20	45.83	-41.1	-44.1	14.1	1.50e-06	0	56	0	477102080	53	5170
2026-01-08 10:01:40.31	156.01	47.09	-42.4	-46.5	11.6	4.53e-04	0	56	0	484442112	55	6081
2026-01-08 10:01:44.35	155.81	48.39	-42.2	-46.0	12.5	9.91e-05	0	56	0	491782144	56	5406
2026-01-08 10:01:48.39	155.59	49.73	-41.3	-44.4	13.8	9.10e-06	0	56	0	499122176	54	5052
2026-01-08 10:01:52.43	155.35	51.10	-39.8	-42.1	16.1	0.00e+00	0	56	0	506462208	51	4641
2026-01-08 10:01:56.47	155.08	52.52	-40.6	-43.4	14.9	0.00e+00	0	56	0	514850816	51	5350
2026-01-08 10:02:00.52	154.78	53.99	-40.1	-42.6	15.6	0.00e+00	0	56	0	522190848	52	4609
2026-01-08 10:02:04.56	154.45	55.49	-40.1	-42.4	15.8	0.00e+00	0	56	0	529530880	50	5091
2026-01-08 10:02:08.60	154.08	57.03	-40.1	-42.4	15.8	0.00e+00	0	56	0	536870912	50	5100
2026-01-08 10:02:12.65	153.66	58.62	-41.4	-44.6	13.5	1.75e-05	0	56	0	545259520	54	5216
2026-01-08 10:02:16.69	153.19	60.25	-42.0	-45.7	12.4	8.92e-05	0	56	0	552599552	54	5887
2026-01-08 10:02:20.73	152.65	61.91	-41.0	-44.0	14.3	1.06e-05	0	56	0	559939584	54	4818
2026-01-08 10:02:24.78	152.03	63.63	-38.9	-40.9	17.3	0.00e+00	0	56	0	567279616	49	4502
2026-01-08 10:02:28.82	151.31	65.37	-39.4	-41.4	16.7	0.00e+00	0	56	0	575668224	49	4814
2026-01-08 10:02:32.86	150.46	67.15	-40.9	-43.7	14.4	0.00e+00	0	56	0	583008256	53	4957
2026-01-08 10:02:36.90	149.45	68.96	-41.7	-45.3	12.2	1.36e-04	0	56	0	590348288	54	5628
2026-01-08 10:02:40.94	148.23	70.80	-42.4	-47.2	10.6	3.69e-03	0	56	0	597688320	55	6631
2026-01-08 10:02:44.99	146.72	72.67	-39.6	-41.8	16.2	0.00e+00	0	56	0	605028352	50	4752
2026-01-08 10:02:49.03	144.83	74.56	-40.5	-43.3	14.8	0.00e+00	0	56	0	613416960	51	5298
2026-01-08 10:02:53.07	142.38	76.44	-42.1	-46.1	11.9	4.13e-04	0	56	0	620756992	55	5838
2026-01-08 10:02:57.11	139.11	78.32	-42.5	-47.0	11.1	1.77e-03	0	56	0	628097024	56	6084
2026-01-08 10:03:01.16	134.55	80.18	-42.0	-46.2	11.7	1.28e-03	0	56	0	635437056	55	5902
2026-01-08 10:03:05.20	127.89	81.95	-40.2	-43.0	14.9	1.90e-05	0	56	0	643825664	52	4823
2026-01-08 10:03:09.24	117.62	83.57	-39.3	-41.6	16.4	0.00e+00	0	56	0	651165696	50	4647
2026-01-08 10:03:13.29	101.29	84.87	-39.9	-42.4	15.6	0.00e+00	0	56	0	658505728	50	5058
2026-01-08 10:03:17.33	77.49	85.53	-39.9	-42.4	15.6	0.00e+00	0	56	0	665845760	51	4809
2026-01-08 10:03:21.38	51.45	85.27	-40.7	-43.7	14.3	0.00e+00	0	56	0	673185792	51	5573
2026-01-08 10:03:25.42	31.65	84.22	-39.1	-41.2	16.8	0.00e+00	0	56	0	681574400	50	4414
2026-01-08 10:03:29.46	18.96	82.72	-40.4	-43.3	14.8	0.00e+00	0	56	0	688914432	51	5292
2026-01-08 10:03:33.50	10.89	81.01	-41.4	-45.1	12.8	2.59e-05	0	56	0	696254464	53	5823
2026-01-08 10:03:37.54	5.50	79.19	-42.4	-47.1	10.9	1.75e-03	0	56	0	703594496	55	6507
2026-01-08 10:03:41.59	1.70	77.32	-40.8	-43.8	14.3	0.00e+00	0	56	0	711983104	52	5286
2026-01-08 10:03:45.62	358.93	75.44	-40.0	-42.6	15.5	0.00e+00	0	56	0	719323136	52	4600
2026-01-08 10:03:49.67	356.80	73.55	-39.5	-41.7	16.5	0.00e+00	0	56	0	726663168	50	4673
2026-01-08 10:03:53.71	355.14	71.68	-41.0	-44.2	13.9	3.00e-06	0	56	0	734003200	52	5565
2026-01-08 10:03:57.75	353.80	69.83	-41.8	-45.7	12.4	5.03e-05	0	56	0	742391808	54	5881
2026-01-08 10:04:01.79	352.70	68.01	-42.5	-47.1	10.8	2.32e-03	0	56	0	749731840	55	6570
2026-01-08 10:04:05.84	351.78	66.21	-41.3	-44.8	13.3	4.57e-05	0	56	0	757071872	54	5284
2026-01-08 10:04:09.88	351.00	64.46	-40.5	-43.5	14.7	7.60e-06	0	56	0	764411904	51	5425
2026-01-08 10:04:13.92	350.34	62.74	-40.4	-43.4	14.8	0.00e+00	0	56	0	771751936	51	5383
2026-01-08 10:04:17.96	349.77	61.06	-39.6	-42.1	16.1	0.00e+00	0	56	0	780140544	49	5180
2026-01-08 10:04:22.00	349.27	59.41	-39.5	-41.8	16.3	0.00e+00	0	56	0	787480576	50	4715
2026-01-08 10:04:26.04	348.83	57.81	-40.1	-42.7	15.4	2.20e-06	0	57	0	794820608	51	4950
2026-01-08 10:04:30.08	348.44	56.26	-39.6	-42.0	16.1	0.00e+00	0	57	0	802160640	50	4847
2026-01-08 10:04:34.13	348.09	54.74	-38.9	-41.1	17.0	0.00e+00	0	56	0	810549248	48	4924
2026-01-08 10:04:38.17	347.78	53.26	-39.9	-42.5	15.7	0.00e+00	0	57	0	817889280	51	4828
2026-01-08 10:04:42.21	347.50	51.83	-42.1	-47.0	10.9	3.10e-04	0	56	0	825229312	55	6422
2026-01-08 10:04:46.25	347.24	50.44	-40.1	-42.8	15.3	0.00e+00	0	57	0	832569344	51	5002
2026-01-08 10:04:50.29	347.01	49.09	-40.4	-43.4	14.6	7.00e-07	0	57	0	840957952	52	5082
2026-01-08 10:04:54.33	346.80	47.77	-41.6	-45.5	12.4	8.67e-04	0	57	0	848297984	55	5461
2026-01-08 10:04:58.37	346.61	46.50	-40.8	-43.8	14.3	7.00e-07	0	57	0	855638016	52	5299
2026-01-08 10:05:02.41	346.43	45.27	-43.8	-51.0	7.1	2.38e-02	0	57	0	862978048	58	8633
2026-01-08 10:05:06.45	346.27	44.07	-41.1	-44.3	13.8	3.00e-06	0	57	0	870318080	53	5311
2026-01-08 10:05:10.50	346.12	42.90	-41.9	-46.0	12.1	1.34e-04	0	56	0	878706688	54	6116
2026-01-08 10:05:14.54	345.99	41.77	-43.4	-50.7	7.4	1.35e-01	0	57	0	886046720	57	8783
2026-01-08 10:05:18.58	345.86	40.68	-41.2	-44.8	13.2	9.00e-04	0	57	0	893386752	54	5310
2026-01-08 10:05:22.63	345.74	39.61	-41.0	-44.5	13.5	4.50e-06	0	57	0	900726784	52	5763
2026-01-08 10:05:26.67	345.63	38.58	-42.1	-47.2	10.6	5.43e-03	0	57	0	909115392	55	6613
2026-01-08 10:05:30.71	345.53	37.58	-41.9	-46.6	11.1	1.10e-03	0	57	0	916455424	55	6172
2026-01-08 10:05:34.75	345.43	36.61	-41.0	-44.6	13.3	4.65e-05	0	57	0	923795456	54	5215
2026-01-08 10:05:38.79	345.34	35.67	-41.0	-44.4	13.5	5.30e-06	0	57	0	931135488	53	5401
2026-01-08 10:05:42.84	345.26	34.75	-42.5	-48.2	9.8	5.11e-03	0	57	0	939524096	55	7403
2026-01-08 10:05:46.88	345.18	33.86	-43.4	-51.4	6.6	3.15e-01	0	57	0	946864128	57	9544
2026-01-08 10:05:50.92	345.10	33.00	-41.6	-45.7	12.2	7.93e-04	0	57	0	954204160	55	5556
2026-01-08 10:05:54.97	345.03	32.16	-41.4	-45.2	12.6	6.40e-05	0	57	0	961544192	54	5587
2026-01-08 10:05:59.01	344.97	31.34	-40.9	-44.3	13.6	3.73e-05	0	57	0	968884224	53	5339
2026-01-08 10:06:03.05	344.91	30.54	-41.4	-45.1	12.8	3.89e-05	0	57	0	977272832	53	5833
2026-01-08 10:06:07.09	344.85	29.77	-41.9	-46.4	11.3	7.70e-04	0	57	0	984612864	54	6370
2026-01-08 10:06:11.14	344.80	29.01	-41.9	-46.4	11.4	1.13e-03	0	57	0	991952896	54	6385
2026-01-08 10:06:15.18	344.75	28.28	-40.9	-44.2	13.5	2.51e-05	0	57	0	999292928	53	5266
2026-01-08 10:06:19.22	344.70	27.57	-40.1	-43.0	14.8	0.00e+00	0	57	0	1007681536	52	4841
2026-01-08 10:06:23.26	344.65	26.87	-40.2	-43.0	14.9	0.00e+00	0	57	0	1015021568	51	5125
2026-01-08 10:06:27.30	344.61	26.19	-40.4	-43.5	14.3	0.00e+00	0	57	0	1022361600	52	5133
2026-01-08 10:06:31.34	344.57	25.53	-40.9	-44.4	13.3	1.44e-05	0	57	0	1029701632	52	5665
2026-01-08 10:06:35.38	344.53	24.88	-40.7	-44.1	13.4	2.36e-05	0	57	0	1037041664	52	5524
2026-01-08 10:06:39.42	344.50	24.25	-40.0	-42.9	14.6	7.00e-07	0	57	0	1045430272	51	5095
2026-01-08 10:06:43.46	344.46	23.64	-39.6	-42.4	15.1	0.00e+00	0	57	0	1052770304	51	4778
2026-01-08 10:06:47.51	344.43	23.03	-39.4	-42.2	15.0	0.00e+00	0	57	0	1060110336	50	4976
2026-01-08 10:06:51.55	344.40	22.45	-38.9	-41.7	15.3	0.00e+00	0	57	0	1067450368	49	4950
2026-01-08 10:06:55.59	344.37	21.87	-38.3	-40.8	16.0	0.00e+00	0	57	0	1075838976	48	4721
2026-01-08 10:06:59.63	344.35	21.31	-39.6	-43.4	12.7	3.20e-05	0	57	0	1083179008	49	6013
2026-01-08 10:07:03.68	344.32	20.76	-40.8	-49.1	6.0	2.33e-01	0	57	0	1090519040	52	9778
2026-01-08 10:07:07.72	344.30	20.22	-40.5	-53.9	3.8	1.48e+00	0	57	104	1093664768	52	17069
2026-01-08 10:07:11.76	344.28	19.70	-40.4	-55.1	3.8	1.49e+00	0	57	104	1093664768	52	19412
2026-01-08 10:07:15.79	344.25	19.18	-40.5	-55.1	3.8	1.49e+00	0	57	104	1093664768	52	19493
2026-01-08 10:07:19.83	344.23	18.68	-40.5	-55.1	3.8	1.49e+00	0	57	104	1093664768	52	19420
2026-01-08 10:07:23.88	344.22	18.18	-40.5	-55.3	3.8	1.49e+00	0	57	104	1093664768	52	20048
2026-01-08 10:07:27.92	344.20	17.70	-40.4	-55.1	3.8	1.49e+00	0	57	104	1093664768	52	19582
2026-01-08 10:07:31.96	344.18	17.22	-40.9	-55.5	3.8	1.49e+00	0	57	104	1093664768	52	20462
2026-01-08 10:07:35.99	344.17	16.76	-40.8	-55.5	3.8	1.49e+00	0	57	104	1093664768	52	20357
2026-01-08 10:07:40.04	344.15	16.30	-40.4	-55.3	3.8	1.49e+00	0	57	104	1093664768	52	19981
2026-01-08 10:07:44.07	344.14	15.85	-40.8	-55.4	3.8	1.49e+00	0	57	104	1093664768	52	20173
2026-01-08 10:07:48.11	344.12	15.41	-40.6	-55.5	3.8	1.49e+00	0	57	104	1093664768	52	20465
2026-01-08 10:07:52.15	344.11	14.98	-40.8	-55.4	3.8	1.49e+00	0	57	104	1093664768	52	20181
2026-01-08 10:07:56.20	344.10	14.55	-40.5	-55.3	3.8	1.49e+00	0	57	104	1093664768	52	19886
2026-01-08 10:08:00.23	344.09	14.13	-40.6	-55.4	3.8	1.49e+00	0	57	104	1093664768	52	20149
2026-01-08 10:08:04.27	344.08	13.72	-40.8	-55.4	3.8	1.49e+00	0	57	104	1093664768	52	20157
2026-01-08 10:08:08.31	344.07	13.32	-40.5	-55.3	3.8	1.49e+00	0	57	104	1093664768	52	20013
2026-01-08 10:08:12.35	344.06	12.92	-40.6	-55.2	3.8	1.49e+00	0	57	104	1093664768	52	19692
2026-01-08 10:08:16.40	344.06	12.53	-40.7	-55.3	3.8	1.49e+00	0	57	104	1093664768	52	19883
2026-01-08 10:08:20.44	344.05	12.15	-40.8	-55.3	3.8	1.49e+00	0	57	104	1093664768	52	20047
2026-01-08 10:08:24.48	344.04	11.77	-40.5	-55.1	3.8	1.49e+00	0	57	104	1093664768	52	19559
2026-01-08 10:08:28.53	344.04	11.39	-40.5	-55.1	3.8	1.49e+00	0	57	104	1093664768	52	19442
2026-01-08 10:08:32.57	344.03	11.03	-40.5	-55.1	3.8	1.49e+00	0	57	104	1093664768	52	19585
2026-01-08 10:08:36.61	344.03	10.66	-40.5	-55.0	3.8	1.49e+00	0	57	104	1093664768	52	19358
2026-01-08 10:08:40.65	344.02	10.31	-40.2	-54.8	3.8	1.49e+00	0	57	104	1093664768	52	18763
2026-01-08 10:08:44.69	344.02	9.95	-40.6	-55.2	3.8	1.49e+00	0	57	104	1093664768	52	19647
2026-01-08 10:08:48.73	344.02	9.61	-40.4	-55.0	3.8	1.49e+00	0	57	104	1093664768	52	19373
2026-01-08 10:08:52.77	344.01	9.27	-40.5	-55.1	3.8	1.49e+00	0	57	104	1093664768	52	19426
2026-01-08 10:08:56.81	344.01	8.93	-40.4	-55.0	3.8	1.49e+00	0	57	104	1093664768	52	19207
2026-01-08 10:09:00.86	344.01	8.60	-40.6	-55.2	3.8	1.49e+00	0	57	104	1093664768	52	19774
2026-01-08 10:09:04.90	344.01	8.27	-40.4	-55.0	3.8	1.49e+00	0	57	104	1093664768	52	19249
2026-01-08 10:09:08.94	344.01	7.94	-40.3	-54.9	3.8	1.49e+00	0	57	104	1093664768	52	19113
2026-01-08 10:09:12.99	344.01	7.62	-44.9	-59.6	3.8	1.49e+00	0	57	104	1093664768	60	20576
2026-01-08 10:09:17.03	344.01	7.31	-45.2	-59.8	3.8	1.49e+00	0	57	104	1093664768	60	21125
2026-01-08 10:09:21.08	344.01	6.99	-45.1	-59.7	3.8	1.49e+00	0	57	104	1093664768	60	20912
2026-01-08 10:09:25.12	344.01	6.69	-45.0	-59.6	3.8	1.49e+00	0	57	104	1093664768	60	20673
2026-01-08 10:09:29.16	344.01	6.38	-45.0	-59.6	3.8	1.49e+00	0	57	104	1093664768	60	20631
2026-01-08 10:09:33.20	344.01	6.08	-45.0	-59.6	3.8	1.49e+00	0	57	104	1093664768	60	20589
2026-01-08 10:09:37.24	344.01	5.78	-45.0	-59.6	3.8	1.49e+00	0	57	104	1093664768	60	20608
2026-01-08 10:09:41.28	344.01	5.49	-45.0	-59.6	3.8	1.49e+00	0	57	104	1093664768	60	20588
2026-01-08 10:09:45.32	344.01	5.20	-45.0	-59.6	3.8	1.49e+00	0	57	104	1093664768	60	20629
2026-01-08 10:09:49.36	344.02	4.91	-45.0	-59.6	3.8	1.49e+00	0	57	104	1093664768	60	20562
2026-01-08 10:09:53.40	344.02	4.62	-45.0	-59.6	3.8	1.49e+00	0	57	104	1093664768	60	20582
2026-01-08 10:09:57.44	344.02	4.34	-45.0	-59.5	3.8	1.49e+00	0	57	104	1093664768	60	20520
2026-01-08 10:10:01.48	344.03	4.06	-45.0	-59.6	3.8	1.49e+00	0	57	104	1093664768	60	20542
2026-01-08 10:10:05.51	344.03	3.79	-45.0	-59.5	3.8	1.49e+00	0	57	104	1093664768	60	20506
2026-01-08 10:10:09.55	344.03	3.51	-45.0	-59.5	3.8	1.49e+00	0	57	104	1093664768	60	20520
2026-01-08 10:10:13.60	344.04	3.24	-44.9	-59.5	3.8	1.49e+00	0	58	104	1093664768	60	20527
2026-01-08 10:10:17.64	344.04	2.98	-45.0	-59.5	3.8	1.49e+00	0	57	104	1093664768	60	20509
2026-01-08 10:10:21.67	344.05	2.71	-44.9	-59.6	3.8	1.49e+00	0	57	104	1093664768	60	20541
2026-01-08 10:10:25.72	344.05	2.45	-44.9	-59.5	3.8	1.49e+00	0	57	104	1093664768	60	20496
2026-01-08 10:10:29.76	344.06	2.19	-45.0	-59.5	3.8	1.49e+00	0	57	104	1093664768	60	20494
2026-01-08 10:10:33.81	344.06	1.93	-45.0	-59.5	3.8	1.49e+00	0	57	104	1093664768	60	20470

#Closed at: 2026-01-08 10:10:33
#Recorded file [1093 MB]: D:/lorett/data/31039_260108_125608.dat