passes_logs/2026/01/08/R2.0S_Moscow/R2.0S_Moscow__20260108_025206_FENGYUN_3E_rec.log

#Pass ID: 20260108_025206_FENGYUN 3E
#Satellite: FENGYUN 3E
#Configuration: FENGYUN 3E
#almurnet v.1.7.20251203
#Start time: 2026-01-08 03:00:03

#Version: 2.2.20231116
#Station: R2.0S_Moscow
#Location: 37.707566 lon 55.798166 lat
#TLE: 1 49008U 21062A   26006.26767912  .00000427  00000+0  22170-3 0  9993
#TLE: 2 49008  98.7475  11.4982 0001602 156.1158 204.0093 14.19885456233607

#Time	Az	El	Level	Level2	SNR	BER	BlckErr	Temp	State	Recorded	gain1	gain2
2026-01-08 03:00:03.37	117.62	30.82	-45.1	-56.7	3.8	8.46e-01	0	57	0	0	61	14035
2026-01-08 03:00:05.39	118.28	30.66	-45.9	-57.0	3.8	8.45e-01	0	57	104	0	62	12935
2026-01-08 03:00:07.41	118.93	30.51	-45.8	-56.6	3.8	8.46e-01	0	57	104	0	62	12270
2026-01-08 03:00:09.43	119.58	30.35	-45.6	-56.6	3.8	8.47e-01	0	57	104	0	62	12367
2026-01-08 03:00:11.45	120.21	30.18	-45.5	-56.6	3.8	8.47e-01	0	57	104	0	61	12966
2026-01-08 03:00:13.47	120.85	30.02	-45.5	-56.6	3.8	8.47e-01	0	58	104	0	61	13091
2026-01-08 03:00:15.49	121.47	29.85	-45.5	-56.6	3.8	8.46e-01	0	57	104	0	61	13063
2026-01-08 03:00:17.50	122.09	29.68	-45.5	-56.6	3.8	8.45e-01	0	57	104	0	61	12988
2026-01-08 03:00:19.52	122.70	29.51	-45.5	-56.6	3.8	8.45e-01	0	57	104	0	61	13029
2026-01-08 03:00:21.55	123.31	29.33	-45.5	-56.6	3.8	8.46e-01	0	57	104	0	61	13088
2026-01-08 03:00:23.56	123.91	29.15	-45.4	-56.4	3.8	8.45e-01	0	58	104	0	61	12742
2026-01-08 03:00:25.58	124.50	28.97	-45.4	-56.3	3.8	8.46e-01	0	57	104	0	61	12623
2026-01-08 03:00:27.61	125.09	28.79	-45.5	-56.5	3.8	8.47e-01	0	57	104	0	61	12957
2026-01-08 03:00:29.62	125.67	28.60	-45.5	-56.6	3.8	8.46e-01	0	57	104	0	61	13108
2026-01-08 03:00:31.65	126.24	28.42	-45.5	-56.5	3.8	8.48e-01	0	57	104	0	61	12834
2026-01-08 03:00:33.67	126.81	28.23	-45.3	-55.7	3.8	8.46e-01	0	58	104	0	61	11750
2026-01-08 03:00:35.69	127.37	28.04	-45.4	-56.0	3.8	8.46e-01	0	58	104	0	61	12189
2026-01-08 03:00:37.71	127.93	27.85	-45.4	-56.1	3.8	8.45e-01	0	58	104	0	61	12346
2026-01-08 03:00:39.73	128.47	27.66	-45.0	-52.9	4.2	8.39e-01	0	58	0	0	61	8554
2026-01-08 03:00:41.75	129.01	27.46	-45.1	-53.7	4.0	8.40e-01	0	58	0	0	60	9933
2026-01-08 03:00:43.76	129.55	27.27	-45.5	-56.5	3.8	8.45e-01	0	58	104	0	60	13659
2026-01-08 03:00:45.78	130.08	27.07	-44.6	-51.3	4.8	8.06e-01	0	57	0	0	60	7484
2026-01-08 03:00:47.80	130.60	26.87	-42.7	-46.2	8.9	4.88e-02	0	58	0	10485760	56	5233
2026-01-08 03:00:49.82	131.11	26.67	-42.5	-45.8	9.2	1.48e-02	0	58	0	25165824	55	5302
2026-01-08 03:00:51.84	131.62	26.47	-45.1	-53.0	4.2	8.29e-01	0	58	0	34603008	59	9616
2026-01-08 03:00:53.85	132.12	26.27	-39.9	-41.8	13.4	1.45e-04	0	58	0	45088768	50	4471
2026-01-08 03:00:55.87	132.62	26.07	-35.4	-36.5	18.4	0.00e+00	0	57	0	59768832	41	4084
2026-01-08 03:00:57.89	133.11	25.87	-35.3	-36.5	18.5	0.00e+00	0	57	0	74448896	40	4295
2026-01-08 03:00:59.91	133.60	25.67	-43.2	-47.3	7.9	2.37e-03	0	58	0	89128960	55	6303
2026-01-08 03:01:01.93	134.07	25.46	-36.5	-37.8	17.2	0.00e+00	0	57	0	102760448	42	4472
2026-01-08 03:01:03.95	134.55	25.26	-34.5	-35.6	19.3	0.00e+00	0	58	0	117440512	40	3894
2026-01-08 03:01:05.96	135.01	25.06	-34.5	-35.6	19.4	0.00e+00	0	58	0	131072000	39	4106
2026-01-08 03:01:07.98	135.47	24.85	-34.2	-35.3	19.7	0.00e+00	0	58	0	145752064	39	3966
2026-01-08 03:01:10.00	135.93	24.65	-34.1	-35.1	19.8	0.00e+00	0	58	0	160432128	39	3896
2026-01-08 03:01:12.02	136.38	24.44	-34.2	-35.3	19.7	0.00e+00	0	57	0	175112192	39	3966
2026-01-08 03:01:14.04	136.82	24.24	-34.5	-35.5	19.4	0.00e+00	0	58	0	189792256	39	4087
2026-01-08 03:01:16.06	137.26	24.03	-34.5	-35.6	19.3	0.00e+00	0	58	0	204472320	39	4119
2026-01-08 03:01:18.08	137.69	23.83	-34.4	-35.5	19.4	0.00e+00	0	58	0	219152384	39	4085
2026-01-08 03:01:20.10	138.12	23.62	-34.7	-35.8	19.2	0.00e+00	0	58	0	233832448	39	4201
2026-01-08 03:01:22.11	138.54	23.42	-34.5	-35.6	19.3	0.00e+00	0	58	0	248512512	39	4132
2026-01-08 03:01:24.13	138.96	23.21	-34.3	-35.4	19.5	0.00e+00	0	58	0	263192576	39	4034
2026-01-08 03:01:26.15	139.37	23.01	-34.3	-35.4	19.5	0.00e+00	0	58	0	276824064	39	4028
2026-01-08 03:01:28.17	139.77	22.80	-34.4	-35.5	19.4	0.00e+00	0	58	0	291504128	39	4079
2026-01-08 03:01:30.18	140.17	22.60	-34.6	-35.7	19.3	0.00e+00	0	58	0	306184192	39	4146
2026-01-08 03:01:32.20	140.57	22.39	-34.6	-35.7	19.2	0.00e+00	0	58	0	320864256	39	4168
2026-01-08 03:01:34.22	140.96	22.19	-34.7	-35.8	19.1	0.00e+00	0	58	0	335544320	39	4212
2026-01-08 03:01:36.24	141.34	21.98	-34.6	-35.7	19.1	0.00e+00	0	58	0	350224384	39	4186
2026-01-08 03:01:38.26	141.72	21.78	-34.6	-35.7	19.2	0.00e+00	0	58	0	364904448	39	4165
2026-01-08 03:01:40.27	142.10	21.58	-34.5	-35.6	19.2	0.00e+00	0	58	0	378535936	39	4132
2026-01-08 03:01:42.29	142.47	21.38	-34.5	-35.6	19.3	0.00e+00	0	57	0	394264576	39	4099
2026-01-08 03:01:44.31	142.83	21.17	-34.6	-35.7	19.2	0.00e+00	0	58	0	407896064	39	4154
2026-01-08 03:01:46.33	143.20	20.97	-34.7	-35.8	19.0	0.00e+00	0	58	0	422576128	39	4210
2026-01-08 03:01:48.35	143.55	20.77	-34.9	-36.1	18.7	0.00e+00	0	57	0	437256192	39	4361
2026-01-08 03:01:50.37	143.91	20.57	-35.2	-36.4	18.5	0.00e+00	0	58	0	451936256	39	4524
2026-01-08 03:01:52.39	144.25	20.37	-35.2	-36.4	18.4	0.00e+00	0	57	0	466616320	40	4282
2026-01-08 03:01:54.40	144.60	20.17	-35.1	-36.3	18.5	0.00e+00	0	58	0	481296384	40	4230
2026-01-08 03:01:56.42	144.93	19.97	-35.0	-36.2	18.6	0.00e+00	0	58	0	495976448	40	4167
2026-01-08 03:01:58.44	145.27	19.77	-34.8	-36.0	18.7	0.00e+00	0	58	0	510656512	40	4066
2026-01-08 03:02:00.45	145.60	19.57	-34.9	-36.0	18.7	0.00e+00	0	58	0	525336576	40	4082
2026-01-08 03:02:02.48	145.93	19.38	-34.8	-36.0	18.8	0.00e+00	0	57	0	540016640	40	4055
2026-01-08 03:02:04.49	146.25	19.18	-35.0	-36.1	18.6	0.00e+00	0	57	0	553648128	40	4135
2026-01-08 03:02:06.51	146.57	18.98	-35.1	-36.3	18.4	0.00e+00	0	58	0	568328192	40	4203
2026-01-08 03:02:08.53	146.88	18.79	-35.1	-36.3	18.4	0.00e+00	0	58	0	583008256	40	4194
2026-01-08 03:02:10.54	147.19	18.60	-35.3	-36.5	18.2	0.00e+00	0	58	0	597688320	40	4299
2026-01-08 03:02:12.56	147.50	18.40	-35.4	-36.6	18.1	0.00e+00	0	58	0	612368384	40	4355
2026-01-08 03:02:14.58	147.80	18.21	-35.3	-36.5	18.2	0.00e+00	0	58	0	627048448	40	4311
2026-01-08 03:02:16.60	148.10	18.02	-35.4	-36.6	18.1	0.00e+00	0	58	0	641728512	40	4369
2026-01-08 03:02:18.61	148.40	17.83	-35.4	-36.6	18.1	0.00e+00	0	58	0	655360000	40	4355
2026-01-08 03:02:20.63	148.69	17.63	-35.2	-36.4	18.3	0.00e+00	0	58	0	671088640	40	4270
2026-01-08 03:02:22.65	148.98	17.44	-35.2	-36.4	18.3	0.00e+00	0	58	0	684720128	40	4268
2026-01-08 03:02:24.67	149.26	17.26	-35.2	-36.3	18.3	0.00e+00	0	58	0	699400192	40	4223
2026-01-08 03:02:26.69	149.54	17.07	-35.2	-36.3	18.3	0.00e+00	0	58	0	714080256	40	4239
2026-01-08 03:02:28.71	149.82	16.88	-35.2	-36.4	18.2	0.00e+00	0	58	0	728760320	40	4253
2026-01-08 03:02:30.73	150.10	16.69	-35.4	-36.6	18.1	0.00e+00	0	58	0	743440384	40	4341
2026-01-08 03:02:32.75	150.37	16.51	-35.4	-36.6	18.0	0.00e+00	0	58	0	758120448	40	4351
2026-01-08 03:02:34.76	150.64	16.32	-35.4	-36.6	18.0	0.00e+00	0	58	0	772800512	40	4385
2026-01-08 03:02:36.78	150.90	16.14	-35.5	-36.7	17.9	0.00e+00	0	58	0	787480576	40	4418
2026-01-08 03:02:38.80	151.16	15.95	-35.6	-36.8	17.8	0.00e+00	0	58	0	802160640	40	4492
2026-01-08 03:02:40.82	151.42	15.77	-35.5	-36.7	17.8	0.00e+00	0	58	0	815792128	40	4440
2026-01-08 03:02:42.84	151.68	15.59	-35.6	-36.8	17.7	0.00e+00	0	58	0	830472192	40	4491
2026-01-08 03:02:44.85	151.93	15.41	-35.7	-36.9	17.6	0.00e+00	0	58	0	845152256	41	4288
2026-01-08 03:02:46.87	152.18	15.23	-35.7	-36.9	17.7	0.00e+00	0	58	0	859832320	41	4277
2026-01-08 03:02:48.89	152.43	15.05	-35.8	-37.1	17.5	0.00e+00	0	58	0	874512384	41	4349
2026-01-08 03:02:50.90	152.67	14.87	-35.9	-37.2	17.3	0.00e+00	0	58	0	889192448	41	4439
2026-01-08 03:02:52.92	152.91	14.69	-35.9	-37.2	17.3	0.00e+00	0	58	0	903872512	41	4439
2026-01-08 03:02:54.94	153.15	14.52	-36.1	-37.4	17.2	0.00e+00	0	58	0	918552576	41	4522
2026-01-08 03:02:56.96	153.39	14.34	-36.4	-37.7	16.9	0.00e+00	0	58	0	933232640	42	4414
2026-01-08 03:02:58.98	153.62	14.17	-36.2	-37.5	17.0	0.00e+00	0	58	0	947912704	42	4340
2026-01-08 03:03:01.00	153.85	13.99	-36.2	-37.6	17.0	0.00e+00	0	58	0	961544192	42	4342
2026-01-08 03:03:03.02	154.08	13.82	-36.1	-37.4	17.2	0.00e+00	0	58	0	976224256	42	4249
2026-01-08 03:03:05.03	154.31	13.65	-36.1	-37.4	17.2	0.00e+00	0	58	0	990904320	42	4259
2026-01-08 03:03:07.05	154.53	13.47	-36.0	-37.4	17.2	0.00e+00	0	58	0	1005584384	42	4246
2026-01-08 03:03:09.06	154.75	13.30	-36.1	-37.4	17.1	0.00e+00	0	58	0	1020264448	42	4266
2026-01-08 03:03:11.08	154.97	13.13	-36.2	-37.6	17.0	0.00e+00	0	58	0	1034944512	42	4342
2026-01-08 03:03:13.11	155.18	12.96	-36.3	-37.6	16.9	0.00e+00	0	58	0	1049624576	42	4387
2026-01-08 03:03:15.12	155.40	12.80	-36.4	-37.7	16.7	0.00e+00	0	58	0	1063256064	42	4440
2026-01-08 03:03:17.14	155.61	12.63	-36.5	-37.8	16.7	0.00e+00	0	58	0	1078984704	42	4475
2026-01-08 03:03:19.16	155.82	12.46	-36.5	-37.9	16.6	0.00e+00	0	58	0	1092616192	42	4508
2026-01-08 03:03:21.18	156.02	12.29	-36.5	-37.8	16.6	0.00e+00	0	58	0	1107296256	42	4489
2026-01-08 03:03:23.20	156.23	12.13	-36.6	-38.0	16.4	0.00e+00	0	58	0	1121976320	42	4591
2026-01-08 03:03:25.21	156.43	11.96	-36.8	-38.2	16.1	0.00e+00	0	58	0	1136656384	43	4423
2026-01-08 03:03:27.24	156.63	11.80	-36.7	-38.1	16.3	0.00e+00	0	58	0	1151336448	43	4361
2026-01-08 03:03:29.25	156.83	11.64	-36.7	-38.1	16.2	0.00e+00	0	58	0	1166016512	43	4384
2026-01-08 03:03:31.27	157.02	11.48	-36.7	-38.2	16.2	0.00e+00	0	58	0	1180696576	43	4400
2026-01-08 03:03:33.29	157.22	11.31	-36.8	-38.2	16.1	0.00e+00	0	58	0	1195376640	43	4432
2026-01-08 03:03:35.30	157.41	11.15	-36.8	-38.2	16.1	0.00e+00	0	58	0	1210056704	43	4429
2026-01-08 03:03:37.32	157.60	10.99	-36.7	-38.2	16.1	0.00e+00	0	58	0	1223688192	43	4401
2026-01-08 03:03:39.34	157.78	10.84	-36.7	-38.1	16.2	0.00e+00	0	58	0	1238368256	43	4365
2026-01-08 03:03:41.36	157.97	10.68	-36.6	-38.0	16.2	0.00e+00	0	58	0	1253048320	43	4337
2026-01-08 03:03:43.38	158.15	10.52	-36.7	-38.1	16.1	0.00e+00	0	58	0	1267728384	43	4373
2026-01-08 03:03:45.40	158.34	10.36	-37.0	-38.5	15.7	0.00e+00	0	58	0	1282408448	43	4555
2026-01-08 03:03:47.42	158.52	10.21	-36.9	-38.4	15.8	0.00e+00	0	58	0	1297088512	43	4501
2026-01-08 03:03:49.43	158.69	10.05	-36.8	-38.3	15.8	0.00e+00	0	58	0	1311768576	43	4475
2026-01-08 03:03:51.45	158.87	9.90	-36.9	-38.4	15.8	0.00e+00	0	58	0	1326448640	43	4513
2026-01-08 03:03:53.47	159.04	9.74	-37.0	-38.5	15.6	0.00e+00	0	58	0	1340080128	43	4594
2026-01-08 03:03:55.49	159.22	9.59	-37.0	-38.5	15.6	0.00e+00	0	58	0	1355808768	43	4589
2026-01-08 03:03:57.51	159.39	9.44	-37.0	-38.6	15.5	0.00e+00	0	58	0	1369440256	43	4610
2026-01-08 03:03:59.52	159.56	9.29	-37.1	-38.6	15.4	0.00e+00	0	58	0	1384120320	43	4639
2026-01-08 03:04:01.54	159.72	9.14	-37.0	-38.5	15.5	0.00e+00	0	58	0	1398800384	43	4583
2026-01-08 03:04:03.56	159.89	8.99	-36.9	-38.4	15.7	0.00e+00	0	58	0	1413480448	43	4501
2026-01-08 03:04:05.58	160.05	8.84	-36.9	-38.4	15.6	0.00e+00	0	58	0	1428160512	43	4516
2026-01-08 03:04:07.60	160.22	8.69	-37.0	-38.6	15.4	0.00e+00	0	58	0	1442840576	43	4601
2026-01-08 03:04:09.61	160.38	8.54	-37.1	-38.6	15.3	0.00e+00	0	58	0	1457520640	43	4644
2026-01-08 03:04:11.63	160.54	8.39	-36.9	-38.5	15.5	0.00e+00	0	58	0	1472200704	43	4565
2026-01-08 03:04:13.65	160.70	8.25	-37.0	-38.5	15.4	0.00e+00	0	58	0	1486880768	43	4596
2026-01-08 03:04:15.67	160.85	8.10	-37.0	-38.6	15.4	0.00e+00	0	58	0	1500512256	43	4603
2026-01-08 03:04:17.68	161.01	7.95	-43.0	-48.1	6.6	0.00e+00	0	58	0	1515192320	55	6952
2026-01-08 03:04:19.70	161.16	7.81	-45.4	-56.5	3.8	8.46e-01	0	58	104	1515192320	60	13683
2026-01-08 03:04:21.72	161.31	7.67	-45.6	-56.7	3.8	8.45e-01	0	58	104	1515192320	60	14030
2026-01-08 03:04:23.74	161.46	7.52	-45.7	-56.8	3.8	8.46e-01	0	58	104	1515192320	61	13383
2026-01-08 03:04:25.76	161.61	7.38	-45.8	-56.8	3.8	8.45e-01	0	58	104	1515192320	61	13377
2026-01-08 03:04:27.78	161.76	7.24	-45.7	-56.8	3.8	8.45e-01	0	58	104	1515192320	61	13349
2026-01-08 03:04:29.79	161.91	7.10	-45.7	-56.8	3.8	8.46e-01	0	58	104	1515192320	61	13339
2026-01-08 03:04:31.81	162.05	6.95	-45.7	-56.7	3.8	8.47e-01	0	58	104	1515192320	61	13237
2026-01-08 03:04:33.83	162.20	6.81	-45.6	-56.7	3.8	8.46e-01	0	58	104	1515192320	61	13174
2026-01-08 03:04:35.85	162.34	6.67	-45.6	-56.6	3.8	8.46e-01	0	58	104	1515192320	61	13105
2026-01-08 03:04:37.87	162.48	6.54	-45.6	-56.7	3.8	8.46e-01	0	58	104	1515192320	61	13150
2026-01-08 03:04:39.88	162.62	6.40	-45.6	-56.7	3.8	8.46e-01	0	58	104	1515192320	61	13149
2026-01-08 03:04:41.90	162.76	6.26	-45.6	-56.7	3.8	8.48e-01	0	58	104	1515192320	61	13126
2026-01-08 03:04:43.91	162.90	6.12	-45.6	-56.7	3.8	8.46e-01	0	58	104	1515192320	61	13116
2026-01-08 03:04:45.93	163.03	5.99	-45.6	-56.7	3.8	8.46e-01	0	58	104	1515192320	61	13150
2026-01-08 03:04:47.95	163.17	5.85	-45.6	-56.6	3.8	8.47e-01	0	58	104	1515192320	61	13079
2026-01-08 03:04:49.97	163.30	5.71	-45.6	-56.6	3.8	8.47e-01	0	58	104	1515192320	61	13095
2026-01-08 03:04:51.99	163.43	5.58	-45.6	-56.6	3.8	8.45e-01	0	58	104	1515192320	61	13109
2026-01-08 03:04:54.01	163.57	5.45	-45.6	-56.7	3.8	8.47e-01	0	58	104	1515192320	61	13111
2026-01-08 03:04:56.02	163.69	5.31	-45.6	-56.7	3.8	8.47e-01	0	58	104	1515192320	61	13116
2026-01-08 03:04:58.04	163.82	5.18	-45.6	-56.7	3.8	8.46e-01	0	58	104	1515192320	61	13122
2026-01-08 03:05:00.06	163.95	5.05	-45.6	-56.7	3.8	8.45e-01	0	58	104	1515192320	61	13118
2026-01-08 03:05:02.08	164.08	4.91	-45.6	-56.6	3.8	8.45e-01	0	58	104	1515192320	61	13061
2026-01-08 03:05:04.10	164.21	4.78	-45.6	-56.6	3.8	8.46e-01	0	58	104	1515192320	61	13073
2026-01-08 03:05:06.12	164.33	4.65	-45.6	-56.6	3.8	8.45e-01	0	58	104	1515192320	61	13071
2026-01-08 03:05:08.14	164.45	4.52	-45.6	-56.6	3.8	8.46e-01	0	58	104	1515192320	61	13054
2026-01-08 03:05:10.16	164.58	4.39	-45.6	-56.6	3.8	8.46e-01	0	58	104	1515192320	61	13048
2026-01-08 03:05:12.18	164.70	4.26	-45.5	-56.6	3.8	8.45e-01	0	58	104	1515192320	61	13063
2026-01-08 03:05:14.20	164.82	4.13	-45.5	-56.6	3.8	8.46e-01	0	58	104	1515192320	61	13041
2026-01-08 03:05:16.22	164.94	4.00	-45.5	-56.6	3.8	8.46e-01	0	58	104	1515192320	61	13033
2026-01-08 03:05:18.24	165.06	3.88	-45.6	-56.6	3.8	8.46e-01	0	58	104	1515192320	61	13070
2026-01-08 03:05:20.26	165.18	3.75	-45.5	-56.6	3.8	8.47e-01	0	58	104	1515192320	61	13044
2026-01-08 03:05:22.27	165.29	3.62	-45.5	-56.6	3.8	8.45e-01	0	58	104	1515192320	61	13023
2026-01-08 03:05:24.29	165.41	3.50	-45.5	-56.6	3.8	8.45e-01	0	58	104	1515192320	61	13008
2026-01-08 03:05:26.31	165.52	3.37	-45.5	-56.6	3.8	8.47e-01	0	58	104	1515192320	61	13080
2026-01-08 03:05:28.33	165.64	3.24	-45.5	-56.6	3.8	8.47e-01	0	58	104	1515192320	61	13061
2026-01-08 03:05:30.35	165.75	3.12	-45.5	-56.6	3.8	8.46e-01	0	58	104	1515192320	61	13065
2026-01-08 03:05:32.37	165.86	2.99	-45.5	-56.6	3.8	8.46e-01	0	58	104	1515192320	61	13040
2026-01-08 03:05:34.38	165.97	2.87	-45.5	-56.6	3.8	8.47e-01	0	58	104	1515192320	61	13027
2026-01-08 03:05:36.40	166.08	2.75	-45.5	-56.6	3.8	8.46e-01	0	58	104	1515192320	61	13001
2026-01-08 03:05:38.42	166.19	2.62	-45.5	-56.6	3.8	8.46e-01	0	58	104	1515192320	61	12982
2026-01-08 03:05:40.44	166.30	2.50	-45.5	-56.6	3.8	8.46e-01	0	58	104	1515192320	61	12982
2026-01-08 03:05:42.46	166.41	2.38	-45.5	-56.6	3.8	8.46e-01	0	58	104	1515192320	61	13032
2026-01-08 03:05:44.48	166.52	2.26	-45.5	-56.6	3.8	8.47e-01	0	58	104	1515192320	61	13009
2026-01-08 03:05:46.50	166.62	2.14	-45.5	-56.6	3.8	8.46e-01	0	58	104	1515192320	61	13002
2026-01-08 03:05:48.52	166.73	2.02	-45.5	-56.6	3.8	8.46e-01	0	58	104	1515192320	61	13039

#Closed at: 2026-01-08 03:05:49
#Recorded file [1515 MB]: D:/lorett/data/31039_260108_060003.dat