passes_logs/2026/01/08/R2.0S_Moscow/R2.0S_Moscow__20260108_113757_SUOMI_NPP_rec.log

#Pass ID: 20260108_113757_SUOMI NPP
#Satellite: SUOMI NPP
#Configuration: NPP
#almurnet v.1.7.20251203
#Start time: 2026-01-08 11:37:57

#Version: 2.2.20231116
#Station: R2.0S_Moscow
#Location: 37.707566 lon 55.798166 lat
#TLE: 1 37849U 11061A   26005.94084933  .00000134  00000+0  84554-4 0  9990
#TLE: 2 37849  98.7803 308.0679 0002567  79.1029 281.0436 14.19522657735426

#Time	Az	El	Level	Level2	SNR	BER	BlckErr	Temp	State	Recorded	gain1	gain2
2026-01-08 11:37:57.28	210.62	1.98	-43.9	-58.3	3.8	1.49e+00	0	48	0	0	59	18914
2026-01-08 11:38:00.31	210.85	2.14	-43.9	-58.3	3.8	1.49e+00	0	49	104	0	59	18915
2026-01-08 11:38:03.34	211.08	2.30	-43.9	-58.3	3.8	1.49e+00	0	49	104	0	59	18895
2026-01-08 11:38:06.37	211.32	2.47	-43.9	-58.3	3.8	1.49e+00	0	49	104	0	59	18883
2026-01-08 11:38:09.40	211.56	2.63	-43.9	-58.3	3.8	1.49e+00	0	50	104	0	59	18897
2026-01-08 11:38:12.44	211.80	2.80	-43.9	-58.3	3.8	1.49e+00	0	50	104	0	59	18882
2026-01-08 11:38:15.47	212.04	2.96	-43.9	-58.3	3.8	1.49e+00	0	50	104	0	59	18877
2026-01-08 11:38:18.50	212.29	3.13	-43.9	-58.3	3.8	1.49e+00	0	50	104	0	59	18863
2026-01-08 11:38:21.53	212.54	3.30	-43.9	-58.3	3.8	1.49e+00	0	50	104	0	59	18874
2026-01-08 11:38:24.55	212.79	3.46	-43.9	-58.3	3.8	1.49e+00	0	51	104	0	59	18933
2026-01-08 11:38:27.58	213.05	3.63	-43.9	-58.3	3.8	1.49e+00	0	51	104	0	59	18871
2026-01-08 11:38:30.62	213.30	3.80	-43.9	-58.3	3.8	1.49e+00	0	51	104	0	59	18856
2026-01-08 11:38:33.65	213.56	3.97	-43.9	-58.3	3.8	1.49e+00	0	51	104	0	59	18842
2026-01-08 11:38:36.68	213.83	4.14	-43.9	-58.3	3.8	1.49e+00	0	51	104	0	59	18912
2026-01-08 11:38:39.71	214.09	4.31	-43.9	-58.3	3.8	1.49e+00	0	51	104	0	59	18880
2026-01-08 11:38:42.74	214.36	4.48	-43.9	-58.3	3.8	1.49e+00	0	52	104	0	59	18883
2026-01-08 11:38:45.77	214.63	4.65	-43.9	-58.3	3.8	1.49e+00	0	52	104	0	59	18826
2026-01-08 11:38:48.80	214.91	4.83	-43.9	-58.3	3.8	1.49e+00	0	52	104	0	59	18789
2026-01-08 11:38:51.83	215.19	5.00	-43.9	-58.2	3.8	1.49e+00	0	52	104	0	59	18710
2026-01-08 11:38:54.86	215.47	5.17	-43.9	-58.1	3.8	1.49e+00	0	52	104	0	59	18478
2026-01-08 11:38:57.89	215.75	5.35	-43.9	-58.2	3.8	1.49e+00	0	53	104	0	59	18537
2026-01-08 11:39:00.92	216.04	5.52	-43.9	-58.2	3.8	1.49e+00	0	53	104	0	59	18711
2026-01-08 11:39:03.95	216.33	5.70	-43.9	-58.2	3.8	1.49e+00	0	53	104	0	59	18640
2026-01-08 11:39:06.98	216.63	5.87	-43.9	-58.1	3.8	1.49e+00	0	53	104	0	59	18465
2026-01-08 11:39:10.01	216.93	6.05	-43.9	-58.1	3.8	1.49e+00	0	53	104	0	59	18460
2026-01-08 11:39:13.04	217.23	6.22	-43.9	-58.0	3.8	1.49e+00	0	53	104	0	59	18170
2026-01-08 11:39:16.07	217.53	6.40	-43.9	-58.1	3.8	1.49e+00	0	53	104	0	59	18421
2026-01-08 11:39:19.10	217.84	6.58	-43.9	-58.0	3.8	1.49e+00	0	53	104	0	59	18129
2026-01-08 11:39:22.14	218.16	6.76	-43.8	-56.2	3.8	1.49e+00	0	54	104	0	59	14845
2026-01-08 11:39:25.17	218.47	6.94	-43.6	-54.1	4.4	1.36e+00	0	54	0	0	59	11599
2026-01-08 11:39:28.20	218.79	7.12	-43.4	-52.4	5.2	6.18e-01	0	54	0	6291456	58	10121
2026-01-08 11:39:31.23	219.12	7.30	-43.2	-51.1	6.0	3.83e-01	0	54	0	11534336	58	8753
2026-01-08 11:39:34.26	219.45	7.48	-43.0	-50.1	6.9	1.87e-01	0	54	0	16777216	58	7786
2026-01-08 11:39:37.29	219.78	7.66	-42.8	-49.3	7.6	1.01e-01	0	54	0	23068672	57	7517
2026-01-08 11:39:40.32	220.11	7.84	-42.4	-48.0	8.9	3.59e-02	0	54	0	28311552	56	6870
2026-01-08 11:39:43.35	220.45	8.02	-42.3	-47.8	9.2	2.12e-02	0	54	0	34603008	56	6659
2026-01-08 11:39:46.38	220.80	8.20	-43.3	-53.2	4.1	1.49e+00	0	54	104	38797312	57	11705
2026-01-08 11:39:49.41	221.15	8.38	-42.5	-48.0	9.0	3.46e-02	0	55	0	42991616	56	6840
2026-01-08 11:39:52.43	221.50	8.57	-41.8	-46.2	10.9	2.66e-03	0	55	0	49283072	55	5886
2026-01-08 11:39:55.46	221.85	8.75	-41.6	-45.7	11.4	1.09e-03	0	55	0	54525952	55	5567
2026-01-08 11:39:58.49	222.22	8.93	-41.4	-45.3	11.9	4.18e-04	0	55	0	60817408	54	5615
2026-01-08 11:40:01.52	222.58	9.12	-41.4	-45.3	11.8	3.17e-04	0	55	0	66060288	54	5646
2026-01-08 11:40:04.55	222.95	9.30	-41.3	-45.1	12.1	1.98e-04	0	55	0	71303168	54	5504
2026-01-08 11:40:07.57	223.32	9.49	-41.3	-45.1	12.1	2.49e-04	0	55	0	77594624	54	5528
2026-01-08 11:40:10.60	223.70	9.67	-41.2	-44.9	12.3	1.31e-04	0	55	0	82837504	54	5374
2026-01-08 11:40:13.63	224.09	9.86	-41.3	-45.1	12.1	1.40e-04	0	55	0	89128960	54	5487
2026-01-08 11:40:16.66	224.48	10.04	-41.1	-44.8	12.5	1.49e-04	0	55	0	94371840	54	5290
2026-01-08 11:40:19.69	224.87	10.23	-41.1	-44.7	12.6	6.94e-05	0	55	0	100663296	53	5536
2026-01-08 11:40:22.72	225.27	10.41	-41.0	-44.6	12.8	9.00e-05	0	55	0	105906176	53	5478
2026-01-08 11:40:25.75	225.67	10.60	-41.1	-44.7	12.6	7.70e-05	0	55	0	111149056	53	5576
2026-01-08 11:40:28.78	226.08	10.79	-41.2	-44.8	12.6	8.01e-05	0	55	0	117440512	53	5614
2026-01-08 11:40:31.80	226.49	10.97	-41.1	-44.7	12.7	6.79e-05	0	56	0	122683392	53	5555
2026-01-08 11:40:34.83	226.91	11.16	-41.1	-44.7	12.7	7.78e-05	0	56	0	128974848	53	5551
2026-01-08 11:40:37.86	227.33	11.35	-40.9	-44.3	13.1	3.35e-05	0	56	0	134217728	53	5297
2026-01-08 11:40:40.89	227.76	11.53	-40.9	-44.2	13.2	1.75e-05	0	56	0	139460608	53	5249
2026-01-08 11:40:43.92	228.20	11.72	-40.9	-44.1	13.3	2.44e-05	0	56	0	145752064	53	5207
2026-01-08 11:40:46.95	228.64	11.91	-40.9	-44.3	13.2	1.98e-05	0	56	0	150994944	53	5301
2026-01-08 11:40:49.98	229.08	12.09	-41.1	-44.5	12.9	4.57e-05	0	56	0	157286400	53	5464
2026-01-08 11:40:53.01	229.53	12.28	-41.2	-44.8	12.7	5.26e-05	0	56	0	162529280	53	5602
2026-01-08 11:40:56.03	229.99	12.47	-41.2	-44.7	12.8	7.01e-05	0	56	0	168820736	53	5539
2026-01-08 11:40:59.06	230.45	12.65	-41.1	-44.6	12.9	3.35e-05	0	56	0	174063616	53	5496
2026-01-08 11:41:02.09	230.92	12.84	-41.1	-44.6	12.9	4.88e-05	0	56	0	179306496	53	5504
2026-01-08 11:41:05.12	231.39	13.02	-41.0	-44.4	13.1	3.50e-05	0	56	0	185597952	53	5348
2026-01-08 11:41:08.16	231.87	13.21	-40.7	-43.9	13.7	7.60e-06	0	56	0	190840832	53	5046
2026-01-08 11:41:11.19	232.35	13.39	-40.7	-43.8	13.7	4.50e-06	0	56	0	197132288	53	5033
2026-01-08 11:41:14.21	232.84	13.58	-40.7	-43.7	13.8	2.20e-06	0	56	0	202375168	53	4979
2026-01-08 11:41:17.24	233.34	13.76	-40.7	-43.8	13.7	1.50e-06	0	56	0	207618048	53	5023
2026-01-08 11:41:20.27	233.84	13.94	-40.8	-44.0	13.6	4.50e-06	0	56	0	213909504	53	5101
2026-01-08 11:41:23.30	234.35	14.12	-40.7	-43.8	13.7	8.30e-06	0	56	0	219152384	53	5031
2026-01-08 11:41:26.34	234.87	14.31	-40.8	-43.9	13.6	3.00e-06	0	57	0	225443840	53	5077
2026-01-08 11:41:29.36	235.39	14.49	-40.9	-44.2	13.4	1.83e-05	0	57	0	230686720	53	5238
2026-01-08 11:41:32.39	235.91	14.67	-41.1	-44.5	13.0	3.81e-05	0	56	0	236978176	53	5459
2026-01-08 11:41:35.43	236.45	14.85	-41.0	-44.3	13.3	1.60e-05	0	57	0	242221056	53	5307
2026-01-08 11:41:38.46	236.99	15.02	-40.7	-43.7	13.9	4.50e-06	0	57	0	247463936	53	4965
2026-01-08 11:41:41.48	237.53	15.20	-40.8	-44.0	13.6	8.30e-06	0	57	0	253755392	53	5130
2026-01-08 11:41:44.52	238.09	15.38	-40.9	-44.1	13.5	1.37e-05	0	57	0	258998272	53	5202
2026-01-08 11:41:47.55	238.65	15.55	-40.7	-43.8	13.8	5.30e-06	0	57	0	265289728	53	5008
2026-01-08 11:41:50.58	239.21	15.72	-40.6	-43.5	14.0	6.10e-06	0	57	0	270532608	52	5141
2026-01-08 11:41:53.61	239.78	15.89	-40.6	-43.5	14.1	2.20e-06	0	57	0	275775488	52	5143
2026-01-08 11:41:56.64	240.36	16.06	-40.5	-43.5	14.1	2.20e-06	0	57	0	282066944	52	5115
2026-01-08 11:41:59.67	240.94	16.23	-40.7	-43.7	14.0	3.80e-06	0	57	0	287309824	52	5243
2026-01-08 11:42:02.70	241.53	16.40	-40.8	-43.9	13.8	4.50e-06	0	57	0	293601280	52	5346
2026-01-08 11:42:05.72	242.13	16.56	-40.7	-43.7	13.9	4.50e-06	0	57	0	298844160	52	5241
2026-01-08 11:42:08.75	242.73	16.73	-40.7	-43.7	14.0	1.50e-06	0	57	0	305135616	52	5229
2026-01-08 11:42:11.78	243.34	16.89	-41.0	-44.2	13.5	8.30e-06	0	57	0	310378496	52	5561
2026-01-08 11:42:14.81	243.96	17.05	-41.0	-44.2	13.4	9.10e-06	0	57	0	315621376	52	5559
2026-01-08 11:42:17.84	244.58	17.20	-41.0	-44.2	13.5	8.30e-06	0	57	0	321912832	52	5546
2026-01-08 11:42:20.87	245.21	17.36	-41.2	-44.6	13.0	2.13e-05	0	57	0	327155712	52	5826
2026-01-08 11:42:23.89	245.84	17.51	-41.2	-44.6	13.0	7.01e-05	0	57	0	333447168	53	5514
2026-01-08 11:42:26.92	246.48	17.66	-41.4	-44.8	12.8	3.81e-05	0	57	0	338690048	53	5656
2026-01-08 11:42:29.95	247.13	17.81	-41.4	-44.9	12.7	5.41e-05	0	57	0	343932928	53	5658
2026-01-08 11:42:32.98	247.78	17.95	-41.5	-45.1	12.5	1.38e-04	0	57	0	350224384	53	5810
2026-01-08 11:42:36.01	248.44	18.09	-41.8	-45.6	12.0	2.82e-04	0	57	0	355467264	54	5837
2026-01-08 11:42:39.04	249.10	18.23	-41.9	-45.8	11.8	5.83e-04	0	57	0	361758720	54	5970
2026-01-08 11:42:42.07	249.77	18.37	-41.9	-46.0	11.6	4.87e-04	0	57	0	367001600	54	6088
2026-01-08 11:42:45.10	250.45	18.50	-42.1	-46.2	11.4	8.64e-04	0	57	0	373293056	54	6249
2026-01-08 11:42:48.12	251.13	18.63	-41.7	-45.4	12.2	3.12e-04	0	57	0	378535936	54	5722
2026-01-08 11:42:51.15	251.82	18.75	-41.6	-45.3	12.3	1.56e-04	0	58	0	383778816	54	5642
2026-01-08 11:42:54.17	252.51	18.88	-41.4	-44.9	12.7	5.26e-05	0	57	0	390070272	54	5400
2026-01-08 11:42:57.20	253.21	18.99	-40.9	-44.1	13.6	8.30e-06	0	57	0	395313152	53	5165
2026-01-08 11:43:00.23	253.91	19.11	-41.3	-44.7	13.1	2.36e-05	0	58	0	401604608	53	5529
2026-01-08 11:43:03.25	254.62	19.22	-41.0	-44.2	13.4	1.83e-05	0	58	0	406847488	53	5273
2026-01-08 11:43:06.28	255.33	19.33	-40.8	-43.8	13.9	2.20e-06	0	57	0	412090368	53	5010
2026-01-08 11:43:09.31	256.05	19.43	-41.0	-44.1	13.5	1.60e-05	0	57	0	418381824	53	5218
2026-01-08 11:43:12.34	256.77	19.53	-40.5	-43.4	14.3	2.20e-06	0	58	0	423624704	53	4776
2026-01-08 11:43:15.36	257.50	19.63	-40.4	-43.2	14.5	0.00e+00	0	58	0	429916160	52	4940
2026-01-08 11:43:18.39	258.23	19.72	-40.2	-42.9	14.8	0.00e+00	0	57	0	435159040	52	4810
2026-01-08 11:43:21.42	258.96	19.81	-40.3	-43.1	14.6	0.00e+00	0	58	0	440401920	52	4887
2026-01-08 11:43:24.45	259.70	19.89	-40.7	-43.7	14.0	3.80e-06	0	57	0	446693376	52	5238
2026-01-08 11:43:27.48	260.45	19.97	-40.5	-43.4	14.4	2.20e-06	0	57	0	451936256	52	5045
2026-01-08 11:43:30.51	261.20	20.04	-40.7	-43.7	14.0	1.50e-06	0	58	0	458227712	52	5242
2026-01-08 11:43:33.53	261.94	20.11	-40.5	-43.3	14.4	7.00e-07	0	57	0	463470592	52	5032
2026-01-08 11:43:36.56	262.70	20.17	-40.7	-43.7	14.0	7.00e-07	0	58	0	469762048	52	5277
2026-01-08 11:43:39.59	263.45	20.23	-40.5	-43.3	14.4	7.00e-07	0	58	0	475004928	52	5037
2026-01-08 11:43:42.62	264.21	20.29	-40.4	-43.1	14.6	0.00e+00	0	58	0	480247808	52	4908
2026-01-08 11:43:45.65	264.98	20.34	-40.8	-43.8	13.9	5.30e-06	0	58	0	486539264	52	5330
2026-01-08 11:43:48.68	265.74	20.38	-40.7	-43.7	14.0	2.20e-06	0	57	0	491782144	52	5258
2026-01-08 11:43:51.71	266.51	20.42	-41.1	-44.4	13.4	1.67e-05	0	58	0	498073600	52	5679
2026-01-08 11:43:54.74	267.27	20.46	-41.1	-44.3	13.4	1.14e-05	0	58	0	503316480	53	5334
2026-01-08 11:43:57.76	268.04	20.49	-40.7	-43.6	14.1	1.50e-06	0	58	0	508559360	53	4891
2026-01-08 11:44:00.79	268.81	20.51	-40.7	-43.7	14.0	4.50e-06	0	58	0	514850816	53	4946
2026-01-08 11:44:03.82	269.58	20.53	-40.5	-43.4	14.4	0.00e+00	0	58	0	520093696	52	5049
2026-01-08 11:44:06.85	270.36	20.55	-41.0	-44.2	13.4	3.80e-06	0	58	0	526385152	52	5563
2026-01-08 11:44:09.88	271.13	20.56	-41.2	-44.6	13.1	1.98e-05	0	58	0	531628032	53	5488
2026-01-08 11:44:12.91	271.90	20.56	-41.2	-44.5	13.2	2.05e-05	0	58	0	537919488	53	5446
2026-01-08 11:44:15.93	272.67	20.56	-41.2	-44.6	13.1	3.66e-05	0	58	0	543162368	53	5485
2026-01-08 11:44:18.96	273.45	20.55	-41.1	-44.3	13.4	6.10e-06	0	58	0	548405248	53	5324
2026-01-08 11:44:22.00	274.22	20.54	-41.3	-44.7	13.0	6.02e-05	0	58	0	554696704	53	5536
2026-01-08 11:44:25.02	274.99	20.53	-40.9	-44.0	13.6	7.60e-06	0	58	0	559939584	53	5148
2026-01-08 11:44:28.05	275.76	20.50	-41.3	-44.7	13.0	2.67e-05	0	58	0	566231040	53	5582
2026-01-08 11:44:31.08	276.53	20.48	-41.2	-44.6	13.0	4.27e-05	0	58	0	571473920	53	5488
2026-01-08 11:44:34.10	277.30	20.44	-41.3	-44.6	13.0	2.44e-05	0	58	0	576716800	53	5497
2026-01-08 11:44:37.13	278.07	20.41	-41.2	-44.6	13.2	3.81e-05	0	58	0	583008256	53	5474
2026-01-08 11:44:40.16	278.83	20.37	-40.9	-44.0	13.7	3.80e-06	0	58	0	588251136	53	5128
2026-01-08 11:44:43.19	279.59	20.32	-40.8	-43.9	13.8	6.80e-06	0	58	0	594542592	53	5072
2026-01-08 11:44:46.21	280.35	20.27	-41.0	-44.1	13.5	6.10e-06	0	58	0	599785472	53	5214
2026-01-08 11:44:49.25	281.11	20.21	-41.2	-44.5	13.2	2.44e-05	0	58	0	606076928	53	5428
2026-01-08 11:44:52.28	281.86	20.15	-41.0	-44.2	13.5	2.74e-05	0	58	0	611319808	53	5238
2026-01-08 11:44:55.30	282.61	20.08	-41.0	-44.1	13.6	9.90e-06	0	58	0	616562688	53	5188
2026-01-08 11:44:58.34	283.36	20.01	-41.0	-44.2	13.5	7.60e-06	0	58	0	622854144	53	5270
2026-01-08 11:45:01.36	284.10	19.94	-40.9	-44.0	13.7	8.30e-06	0	58	0	628097024	53	5152
2026-01-08 11:45:04.39	284.84	19.86	-40.7	-43.7	14.1	3.00e-06	0	58	0	634388480	53	4928
2026-01-08 11:45:07.42	285.58	19.77	-41.0	-44.2	13.5	1.06e-05	0	58	0	639631360	53	5267
2026-01-08 11:45:10.45	286.31	19.68	-40.9	-44.1	13.7	3.80e-06	0	58	0	644874240	53	5164
2026-01-08 11:45:13.47	287.04	19.59	-41.2	-44.6	13.0	4.19e-05	0	58	0	651165696	53	5513
2026-01-08 11:45:16.50	287.76	19.49	-41.5	-45.2	12.5	1.36e-04	0	58	0	656408576	53	5891
2026-01-08 11:45:19.53	288.48	19.39	-40.9	-44.1	13.6	1.75e-05	0	58	0	662700032	53	5185
2026-01-08 11:45:22.56	289.20	19.29	-40.8	-43.8	13.8	3.00e-06	0	58	0	667942912	53	5029
2026-01-08 11:45:25.59	289.91	19.18	-40.9	-44.1	13.5	1.44e-05	0	58	0	674234368	53	5187
2026-01-08 11:45:28.61	290.61	19.07	-40.7	-43.7	14.0	7.00e-07	0	58	0	679477248	53	4929
2026-01-08 11:45:31.64	291.31	18.95	-40.8	-43.8	13.8	1.50e-06	0	58	0	684720128	53	5040
2026-01-08 11:45:34.67	292.00	18.83	-40.8	-44.0	13.7	6.80e-06	0	58	0	691011584	53	5111
2026-01-08 11:45:37.70	292.69	18.71	-40.5	-43.4	14.2	0.00e+00	0	58	0	696254464	52	5097
2026-01-08 11:45:40.72	293.37	18.58	-40.4	-43.2	14.5	1.50e-06	0	58	0	702545920	52	4939
2026-01-08 11:45:43.75	294.05	18.45	-40.7	-43.7	13.9	3.00e-06	0	58	0	707788800	52	5239
2026-01-08 11:45:46.78	294.72	18.32	-40.8	-43.9	13.6	5.30e-06	0	58	0	713031680	52	5401
2026-01-08 11:45:49.81	295.38	18.18	-41.0	-44.3	13.4	1.44e-05	0	58	0	719323136	52	5602
2026-01-08 11:45:52.84	296.04	18.04	-41.0	-44.2	13.4	2.13e-05	0	58	0	724566016	52	5564
2026-01-08 11:45:55.87	296.70	17.90	-40.8	-43.9	13.7	6.10e-06	0	58	0	730857472	52	5365
2026-01-08 11:45:58.90	297.34	17.76	-40.8	-44.0	13.6	9.10e-06	0	58	0	736100352	52	5425
2026-01-08 11:46:01.93	297.99	17.61	-40.9	-44.0	13.6	6.80e-06	0	58	0	741343232	52	5442
2026-01-08 11:46:04.95	298.62	17.46	-41.2	-44.7	12.8	4.65e-05	0	58	0	747634688	53	5553
2026-01-08 11:46:07.99	299.25	17.31	-41.3	-44.9	12.6	1.33e-04	0	58	0	752877568	53	5698
2026-01-08 11:46:11.01	299.87	17.16	-41.3	-44.9	12.7	7.24e-05	0	58	0	759169024	53	5661
2026-01-08 11:46:14.04	300.49	17.00	-41.2	-44.6	13.0	8.31e-05	0	58	0	764411904	53	5515
2026-01-08 11:46:17.07	301.10	16.84	-40.9	-44.1	13.5	1.98e-05	0	58	0	770703360	53	5185
2026-01-08 11:46:20.11	301.70	16.68	-41.0	-44.2	13.3	1.75e-05	0	58	0	775946240	53	5244
2026-01-08 11:46:23.13	302.30	16.52	-41.4	-44.9	12.6	7.62e-05	0	58	0	781189120	53	5711
2026-01-08 11:46:26.16	302.89	16.35	-41.8	-45.9	11.6	4.83e-04	0	58	0	787480576	54	6043
2026-01-08 11:46:29.19	303.48	16.19	-41.8	-45.9	11.7	6.22e-04	0	58	0	792723456	54	5996
2026-01-08 11:46:32.22	304.06	16.02	-41.6	-45.3	12.2	2.51e-04	0	58	0	799014912	54	5645
2026-01-08 11:46:35.25	304.63	15.85	-41.3	-44.8	12.7	8.08e-05	0	58	0	804257792	54	5304
2026-01-08 11:46:38.27	305.19	15.68	-41.1	-44.4	13.1	1.60e-05	0	58	0	809500672	53	5394
2026-01-08 11:46:41.30	305.75	15.51	-41.2	-45.2	12.2	1.96e-04	0	58	0	815792128	53	5888
2026-01-08 11:46:44.33	306.31	15.34	-41.7	-46.2	11.1	1.25e-03	0	58	0	821035008	54	6243
2026-01-08 11:46:47.36	306.85	15.16	-41.3	-45.3	12.1	4.20e-04	0	58	0	827326464	54	5615
2026-01-08 11:46:50.40	307.40	14.99	-41.1	-44.9	12.5	1.27e-04	0	58	0	832569344	54	5368
2026-01-08 11:46:53.42	307.93	14.81	-41.2	-45.0	12.4	1.40e-04	0	58	0	838860800	54	5415
2026-01-08 11:46:56.45	308.46	14.63	-40.9	-44.4	13.0	3.58e-05	0	58	0	844103680	53	5392
2026-01-08 11:46:59.48	308.98	14.45	-40.9	-44.4	13.0	3.66e-05	0	58	0	849346560	53	5375
2026-01-08 11:47:02.51	309.50	14.28	-41.1	-45.0	12.4	1.13e-04	0	58	0	855638016	53	5758
2026-01-08 11:47:05.54	310.01	14.10	-41.1	-45.0	12.3	2.10e-04	0	58	0	860880896	53	5767
2026-01-08 11:47:08.56	310.51	13.92	-40.9	-44.6	12.8	7.55e-05	0	58	0	867172352	53	5486
2026-01-08 11:47:11.59	311.01	13.73	-40.9	-44.4	12.9	4.34e-05	0	58	0	872415232	53	5392
2026-01-08 11:47:14.62	311.50	13.55	-41.0	-44.7	12.6	7.78e-05	0	58	0	877658112	53	5590
2026-01-08 11:47:17.65	311.99	13.37	-41.0	-44.7	12.6	9.30e-05	0	58	0	883949568	53	5551
2026-01-08 11:47:20.68	312.47	13.19	-41.1	-44.8	12.5	9.46e-05	0	58	0	889192448	53	5617
2026-01-08 11:47:23.70	312.94	13.00	-41.1	-44.9	12.4	1.22e-04	0	58	0	895483904	53	5674
2026-01-08 11:47:26.73	313.41	12.82	-40.8	-44.3	13.0	4.11e-05	0	58	0	900726784	53	5310
2026-01-08 11:47:29.76	313.87	12.64	-40.4	-43.6	13.8	1.06e-05	0	58	0	907018240	52	5184
2026-01-08 11:47:32.79	314.33	12.45	-40.4	-43.6	13.7	7.60e-06	0	58	0	912261120	52	5183
2026-01-08 11:47:35.82	314.78	12.27	-40.8	-44.3	13.0	2.05e-05	0	58	0	917504000	52	5607
2026-01-08 11:47:38.85	315.23	12.08	-40.9	-44.7	12.6	8.62e-05	0	58	0	923795456	52	5863
2026-01-08 11:47:41.88	315.67	11.90	-40.7	-44.2	13.0	4.27e-05	0	58	0	929038336	52	5578
2026-01-08 11:47:44.91	316.11	11.71	-40.5	-43.9	13.4	1.44e-05	0	58	0	935329792	52	5353
2026-01-08 11:47:47.94	316.54	11.53	-40.8	-44.3	12.9	4.50e-05	0	58	0	940572672	52	5631
2026-01-08 11:47:50.96	316.96	11.35	-40.9	-44.6	12.7	1.26e-04	0	58	0	945815552	52	5803
2026-01-08 11:47:53.99	317.38	11.16	-40.7	-44.2	13.0	4.50e-05	0	58	0	952107008	52	5584
2026-01-08 11:47:57.02	317.80	10.98	-40.8	-44.3	12.9	4.65e-05	0	58	0	957349888	52	5639
2026-01-08 11:48:00.05	318.21	10.79	-41.1	-44.9	12.3	2.39e-04	0	58	0	963641344	52	6035
2026-01-08 11:48:03.08	318.62	10.61	-41.5	-45.8	11.4	7.89e-04	0	58	0	968884224	53	6289
2026-01-08 11:48:06.10	319.02	10.42	-41.4	-45.6	11.5	1.07e-03	0	58	0	975175680	53	6191
2026-01-08 11:48:09.13	319.41	10.24	-41.3	-45.3	11.8	4.48e-04	0	58	0	980418560	53	5976
2026-01-08 11:48:12.17	319.80	10.05	-41.2	-45.2	11.9	2.88e-04	0	58	0	985661440	53	5911
2026-01-08 11:48:15.19	320.19	9.87	-41.3	-45.4	11.7	5.18e-04	0	58	0	991952896	53	6059
2026-01-08 11:48:18.22	320.57	9.69	-41.2	-45.3	11.9	4.69e-04	0	58	0	997195776	53	5925
2026-01-08 11:48:21.25	320.95	9.51	-41.1	-45.1	12.0	3.20e-04	0	58	0	1003487232	53	5823
2026-01-08 11:48:24.28	321.32	9.32	-41.2	-45.3	11.8	2.78e-04	0	58	0	1008730112	53	5962
2026-01-08 11:48:27.30	321.69	9.14	-41.4	-45.6	11.5	8.01e-04	0	58	0	1013972992	53	6172
2026-01-08 11:48:30.33	322.05	8.96	-41.4	-45.6	11.4	1.21e-03	0	58	0	1020264448	53	6195
2026-01-08 11:48:33.36	322.41	8.78	-41.2	-45.2	11.8	7.54e-04	0	58	0	1025507328	53	5892
2026-01-08 11:48:36.38	322.76	8.60	-41.0	-44.8	12.2	1.80e-04	0	58	0	1031798784	53	5656
2026-01-08 11:48:39.41	323.11	8.42	-41.2	-45.2	11.8	3.52e-04	0	58	0	1037041664	53	5894
2026-01-08 11:48:42.44	323.46	8.24	-41.3	-45.4	11.5	7.46e-04	0	58	0	1043333120	53	6048
2026-01-08 11:48:45.47	323.80	8.05	-41.7	-46.4	10.5	2.44e-03	0	58	0	1048576000	53	6773
2026-01-08 11:48:48.51	324.14	7.87	-44.6	-58.9	3.8	1.49e+00	0	58	104	1050673152	59	20287
2026-01-08 11:48:51.54	324.48	7.70	-45.0	-59.5	3.8	1.49e+00	0	58	104	1050673152	60	20534
2026-01-08 11:48:54.57	324.81	7.52	-45.1	-59.7	3.8	1.49e+00	0	58	104	1050673152	60	20818
2026-01-08 11:48:57.59	325.13	7.34	-45.0	-59.6	3.8	1.49e+00	0	58	104	1050673152	60	20584
2026-01-08 11:49:00.63	325.46	7.16	-45.0	-59.6	3.8	1.49e+00	0	58	104	1050673152	60	20550
2026-01-08 11:49:03.65	325.78	6.98	-45.0	-59.5	3.8	1.49e+00	0	58	104	1050673152	60	20500
2026-01-08 11:49:06.68	326.09	6.81	-44.9	-59.5	3.8	1.49e+00	0	58	104	1050673152	60	20505
2026-01-08 11:49:09.71	326.40	6.63	-44.9	-59.5	3.8	1.49e+00	0	58	104	1050673152	60	20423
2026-01-08 11:49:12.75	326.71	6.46	-44.9	-59.5	3.8	1.49e+00	0	58	104	1050673152	60	20366
2026-01-08 11:49:15.78	327.02	6.28	-44.9	-59.5	3.8	1.49e+00	0	58	104	1050673152	60	20426
2026-01-08 11:49:18.81	327.32	6.11	-44.9	-59.5	3.8	1.49e+00	0	58	104	1050673152	60	20430
2026-01-08 11:49:21.84	327.62	5.93	-44.9	-59.5	3.8	1.49e+00	0	58	104	1050673152	60	20447
2026-01-08 11:49:24.87	327.91	5.76	-44.9	-59.5	3.8	1.49e+00	0	58	104	1050673152	60	20395
2026-01-08 11:49:27.90	328.20	5.59	-44.9	-59.5	3.8	1.49e+00	0	58	104	1050673152	60	20396
2026-01-08 11:49:30.94	328.49	5.41	-44.9	-59.5	3.8	1.49e+00	0	58	104	1050673152	60	20327
2026-01-08 11:49:33.97	328.78	5.24	-44.9	-59.5	3.8	1.49e+00	0	58	104	1050673152	60	20335
2026-01-08 11:49:37.00	329.06	5.07	-44.9	-59.5	3.8	1.49e+00	0	59	104	1050673152	60	20380
2026-01-08 11:49:40.03	329.34	4.90	-44.9	-59.5	3.8	1.49e+00	0	58	104	1050673152	60	20388
2026-01-08 11:49:43.06	329.61	4.73	-44.9	-59.4	3.8	1.49e+00	0	58	104	1050673152	60	20288
2026-01-08 11:49:46.09	329.89	4.56	-44.9	-59.4	3.8	1.49e+00	0	58	104	1050673152	60	20260
2026-01-08 11:49:49.13	330.16	4.39	-44.9	-59.4	3.8	1.49e+00	0	58	104	1050673152	60	20297
2026-01-08 11:49:52.16	330.42	4.22	-44.9	-59.4	3.8	1.49e+00	0	58	104	1050673152	60	20256
2026-01-08 11:49:55.19	330.69	4.05	-44.9	-59.4	3.8	1.49e+00	0	58	104	1050673152	60	20255
2026-01-08 11:49:58.22	330.95	3.89	-44.9	-59.4	3.8	1.49e+00	0	58	104	1050673152	60	20284
2026-01-08 11:50:01.26	331.21	3.72	-44.9	-59.5	3.8	1.49e+00	0	58	104	1050673152	60	20310
2026-01-08 11:50:04.29	331.46	3.55	-44.9	-59.4	3.8	1.49e+00	0	58	104	1050673152	60	20286
2026-01-08 11:50:07.32	331.71	3.39	-44.9	-59.5	3.8	1.49e+00	0	59	104	1050673152	60	20307
2026-01-08 11:50:10.35	331.96	3.22	-44.9	-59.4	3.8	1.49e+00	0	58	104	1050673152	60	20272
2026-01-08 11:50:13.38	332.21	3.06	-44.9	-59.4	3.8	1.49e+00	0	58	104	1050673152	60	20259
2026-01-08 11:50:16.42	332.46	2.89	-44.9	-59.4	3.8	1.49e+00	0	59	104	1050673152	60	20248
2026-01-08 11:50:19.45	332.70	2.73	-44.9	-59.4	3.8	1.49e+00	0	58	104	1050673152	60	20219
2026-01-08 11:50:22.48	332.94	2.57	-44.9	-59.4	3.8	1.49e+00	0	58	104	1050673152	60	20281
2026-01-08 11:50:25.51	333.17	2.41	-44.9	-59.4	3.8	1.49e+00	0	58	104	1050673152	60	20219
2026-01-08 11:50:28.54	333.41	2.24	-44.9	-59.4	3.8	1.49e+00	0	58	104	1050673152	60	20263
2026-01-08 11:50:31.57	333.64	2.08	-44.9	-59.4	3.8	1.49e+00	0	59	104	1050673152	60	20297
2026-01-08 11:50:34.61	333.87	1.92	-44.9	-59.5	3.8	1.49e+00	0	59	104	1050673152	60	20313

#Closed at: 2026-01-08 11:50:35
#Recorded file [1050 MB]: D:/lorett/data/31039_260108_143757.dat