passes_logs/2026/01/08/R2.0S_Moscow/R2.0S_Moscow__20260108_011629_NOAA_21_JPSS-2_rec.log

#Pass ID: 20260108_011629_NOAA 21 (JPSS-2)
#Satellite: NOAA 21 (JPSS-2)
#Configuration: NOAA-21
#almurnet v.1.7.20251203
#Start time: 2026-01-08 01:24:45

#Version: 2.2.20231116
#Station: R2.0S_Moscow
#Location: 37.707566 lon 55.798166 lat
#TLE: 1 54234U 22150A   26005.56767909  .00000152  00000+0  92756-4 0  9990
#TLE: 2 54234  98.7490 306.5820 0001036 340.2747  19.8389 14.19532370163472

#Time	Az	El	Level	Level2	SNR	BER	BlckErr	Temp	State	Recorded	gain1	gain2
2026-01-08 01:24:45.98	278.62	19.88	-46.0	-64.9	3.8	7.45e-01	0	56	0	0	62	33944
2026-01-08 01:24:48.00	278.18	19.75	-45.2	-57.6	3.8	1.49e+00	0	57	104	0	62	14636
2026-01-08 01:24:50.02	277.75	19.62	-45.2	-57.6	3.8	1.49e+00	0	56	104	0	62	14630
2026-01-08 01:24:52.04	277.32	19.48	-45.1	-57.5	3.8	1.49e+00	0	56	104	0	62	14454
2026-01-08 01:24:54.06	276.89	19.35	-44.9	-57.3	3.8	1.49e+00	0	56	104	0	61	14897
2026-01-08 01:24:56.08	276.47	19.22	-44.6	-57.0	3.8	1.49e+00	0	57	104	0	61	14374
2026-01-08 01:24:58.10	276.06	19.08	-44.6	-56.9	3.8	1.49e+00	0	57	104	0	61	14259
2026-01-08 01:25:00.11	275.64	18.95	-44.6	-56.9	3.8	1.49e+00	0	56	104	0	61	14280
2026-01-08 01:25:02.13	275.24	18.81	-44.6	-56.9	3.8	1.49e+00	0	56	104	0	61	14318
2026-01-08 01:25:04.15	274.83	18.67	-44.6	-57.0	3.8	1.49e+00	0	56	104	0	61	14407
2026-01-08 01:25:06.17	274.43	18.53	-44.6	-56.9	3.8	1.49e+00	0	57	104	0	61	14261
2026-01-08 01:25:08.19	274.03	18.39	-44.6	-56.7	3.8	1.49e+00	0	56	104	0	61	14023
2026-01-08 01:25:10.21	273.63	18.25	-44.6	-56.8	3.8	1.49e+00	0	56	104	0	61	14075
2026-01-08 01:25:12.23	273.24	18.11	-44.6	-56.9	3.8	1.49e+00	0	56	104	0	61	14330
2026-01-08 01:25:14.24	272.86	17.97	-44.5	-56.6	3.8	1.49e+00	0	56	104	0	61	13728
2026-01-08 01:25:16.26	272.47	17.83	-44.4	-55.5	3.8	1.49e+00	0	57	104	0	60	12909
2026-01-08 01:25:18.27	272.09	17.69	-44.4	-55.0	3.9	1.49e+00	0	56	104	0	60	12103
2026-01-08 01:25:20.29	271.72	17.55	-44.5	-56.3	3.8	1.49e+00	0	56	104	0	60	14124
2026-01-08 01:25:22.31	271.34	17.41	-44.6	-57.0	3.8	1.49e+00	0	57	104	0	60	15227
2026-01-08 01:25:24.33	270.97	17.26	-44.5	-56.0	3.8	1.49e+00	0	57	104	0	60	13627
2026-01-08 01:25:26.35	270.61	17.12	-44.1	-53.3	3.9	1.45e+00	0	57	104	0	60	9975
2026-01-08 01:25:28.36	270.25	16.98	-43.6	-50.1	5.8	4.28e-01	0	57	0	3145728	59	7311
2026-01-08 01:25:30.38	269.89	16.83	-43.7	-50.3	5.6	3.89e-01	0	57	0	9437184	59	7514
2026-01-08 01:25:32.40	269.53	16.69	-44.4	-54.7	3.8	1.47e+00	0	57	104	12582912	59	12381
2026-01-08 01:25:34.42	269.18	16.54	-43.9	-51.2	5.0	1.14e+00	0	57	0	12582912	59	8365
2026-01-08 01:25:36.43	268.83	16.40	-41.0	-44.1	11.4	1.92e-03	0	57	0	18874368	54	4876
2026-01-08 01:25:38.45	268.48	16.25	-38.5	-40.3	15.4	0.00e+00	0	56	0	25165824	48	4460
2026-01-08 01:25:40.47	268.14	16.11	-38.2	-40.0	15.6	0.00e+00	0	57	0	31457280	47	4567
2026-01-08 01:25:42.49	267.80	15.96	-38.3	-40.1	15.4	6.67e-04	0	56	0	37748736	48	4373
2026-01-08 01:25:44.51	267.47	15.82	-38.6	-40.5	15.2	4.98e-04	0	57	0	44040192	48	4553
2026-01-08 01:25:46.52	267.14	15.67	-38.7	-40.6	15.1	0.00e+00	0	56	0	47185920	49	4365
2026-01-08 01:25:48.54	266.81	15.53	-38.5	-40.3	15.3	0.00e+00	0	57	0	53477376	48	4485
2026-01-08 01:25:50.55	266.48	15.38	-37.8	-39.5	16.0	0.00e+00	0	56	0	59768832	47	4301
2026-01-08 01:25:52.57	266.16	15.23	-37.5	-39.1	16.4	0.00e+00	0	56	0	66060288	46	4360
2026-01-08 01:25:54.59	265.84	15.09	-37.5	-39.1	16.3	0.00e+00	0	56	0	72351744	46	4379
2026-01-08 01:25:56.61	265.52	14.94	-37.7	-39.4	16.1	0.00e+00	0	56	0	78643200	46	4507
2026-01-08 01:25:58.63	265.21	14.80	-38.0	-39.7	15.8	0.00e+00	0	56	0	84934656	46	4686
2026-01-08 01:26:00.65	264.90	14.65	-37.9	-39.7	15.8	0.00e+00	0	57	0	91226112	46	4657
2026-01-08 01:26:02.67	264.59	14.50	-37.7	-39.3	16.1	0.00e+00	0	56	0	97517568	46	4492
2026-01-08 01:26:04.68	264.29	14.36	-37.2	-38.8	16.6	0.00e+00	0	56	0	103809024	46	4231
2026-01-08 01:26:06.70	263.99	14.21	-37.1	-38.6	16.8	0.00e+00	0	56	0	110100480	46	4132
2026-01-08 01:26:08.72	263.69	14.07	-37.3	-38.9	16.5	0.00e+00	0	57	0	116391936	46	4278
2026-01-08 01:26:10.74	263.40	13.92	-37.6	-39.3	16.1	0.00e+00	0	56	0	122683392	46	4456
2026-01-08 01:26:12.75	263.11	13.78	-37.9	-39.7	15.8	0.00e+00	0	56	0	128974848	46	4657
2026-01-08 01:26:14.77	262.82	13.63	-37.9	-39.7	15.7	0.00e+00	0	57	0	135266304	46	4653
2026-01-08 01:26:16.78	262.53	13.49	-37.9	-39.6	15.8	0.00e+00	0	57	0	141557760	46	4628
2026-01-08 01:26:18.80	262.25	13.34	-37.8	-39.5	15.9	0.00e+00	0	57	0	147849216	46	4585
2026-01-08 01:26:20.81	261.97	13.20	-37.7	-39.5	15.9	0.00e+00	0	57	0	154140672	46	4567
2026-01-08 01:26:22.83	261.69	13.05	-38.1	-39.9	15.5	0.00e+00	0	56	0	160432128	46	4775
2026-01-08 01:26:24.85	261.41	12.91	-38.3	-40.2	15.1	0.00e+00	0	56	0	166723584	47	4705
2026-01-08 01:26:26.86	261.14	12.76	-38.5	-40.5	14.8	0.00e+00	0	56	0	173015040	47	4864
2026-01-08 01:26:28.88	260.87	12.62	-38.6	-40.6	14.7	7.00e-07	0	56	0	179306496	47	4926
2026-01-08 01:26:30.90	260.61	12.48	-38.4	-40.4	15.0	0.00e+00	0	56	0	185597952	47	4764
2026-01-08 01:26:32.91	260.34	12.33	-38.2	-40.1	15.2	7.00e-07	0	57	0	191889408	47	4637
2026-01-08 01:26:34.93	260.08	12.19	-38.0	-39.8	15.5	0.00e+00	0	57	0	198180864	47	4450
2026-01-08 01:26:36.95	259.82	12.05	-37.9	-39.7	15.6	0.00e+00	0	57	0	205520896	47	4432
2026-01-08 01:26:38.97	259.56	11.90	-38.1	-39.9	15.4	0.00e+00	0	56	0	210763776	47	4524
2026-01-08 01:26:40.98	259.31	11.76	-38.4	-40.4	15.0	0.00e+00	0	56	0	218103808	47	4761
2026-01-08 01:26:43.01	259.06	11.62	-38.6	-40.6	14.7	7.00e-07	0	57	0	224395264	47	4890
2026-01-08 01:26:45.02	258.81	11.48	-38.5	-40.6	14.7	0.00e+00	0	57	0	229638144	47	4872
2026-01-08 01:26:47.04	258.56	11.34	-38.5	-40.5	14.7	0.00e+00	0	57	0	236978176	47	4850
2026-01-08 01:26:49.06	258.32	11.19	-38.4	-40.4	14.9	0.00e+00	0	56	0	243269632	47	4786
2026-01-08 01:26:51.08	258.07	11.05	-38.3	-40.2	15.0	0.00e+00	0	57	0	249561088	47	4676
2026-01-08 01:26:53.10	257.83	10.91	-38.2	-40.1	15.2	0.00e+00	0	57	0	255852544	47	4619
2026-01-08 01:26:55.11	257.60	10.77	-38.3	-40.3	15.0	0.00e+00	0	56	0	262144000	47	4726
2026-01-08 01:26:57.13	257.36	10.63	-38.7	-40.7	14.5	7.00e-07	0	56	0	268435456	47	4963
2026-01-08 01:26:59.15	257.13	10.49	-39.0	-41.1	14.2	1.50e-06	0	57	0	274726912	48	4913
2026-01-08 01:27:01.17	256.90	10.35	-39.2	-41.4	14.0	4.50e-06	0	56	0	281018368	49	4770
2026-01-08 01:27:03.18	256.67	10.21	-39.1	-41.3	14.0	2.20e-06	0	56	0	287309824	49	4754
2026-01-08 01:27:05.20	256.44	10.07	-38.9	-40.9	14.3	1.50e-06	0	56	0	293601280	49	4542
2026-01-08 01:27:07.22	256.22	9.94	-38.6	-40.6	14.7	7.00e-07	0	57	0	299892736	49	4369
2026-01-08 01:27:09.24	256.00	9.80	-38.5	-40.4	14.8	0.00e+00	0	57	0	306184192	49	4289
2026-01-08 01:27:11.25	255.78	9.66	-38.5	-40.4	14.8	0.00e+00	0	56	0	312475648	48	4543
2026-01-08 01:27:13.27	255.56	9.52	-38.6	-40.6	14.7	0.00e+00	0	57	0	318767104	48	4618
2026-01-08 01:27:15.29	255.35	9.39	-38.8	-40.8	14.4	1.50e-06	0	57	0	325058560	48	4740
2026-01-08 01:27:17.31	255.13	9.25	-39.0	-41.1	14.1	1.50e-06	0	56	0	331350016	48	4920
2026-01-08 01:27:19.33	254.92	9.11	-39.1	-41.4	13.9	4.50e-06	0	56	0	337641472	48	5048
2026-01-08 01:27:21.34	254.71	8.98	-39.2	-41.5	13.7	3.80e-06	0	57	0	343932928	49	4851
2026-01-08 01:27:23.37	254.50	8.84	-39.4	-41.7	13.5	9.90e-06	0	57	0	350224384	49	4961
2026-01-08 01:27:25.38	254.30	8.71	-39.1	-41.4	13.8	6.10e-06	0	56	0	356515840	49	4778
2026-01-08 01:27:27.40	254.09	8.57	-39.1	-41.3	13.9	3.00e-06	0	57	0	362807296	49	4736
2026-01-08 01:27:29.42	253.89	8.44	-38.9	-41.1	14.1	1.50e-06	0	56	0	369098752	49	4599
2026-01-08 01:27:31.44	253.69	8.30	-38.7	-40.7	14.4	0.00e+00	0	57	0	375390208	49	4428
2026-01-08 01:27:33.46	253.49	8.17	-38.7	-40.8	14.3	0.00e+00	0	57	0	381681664	49	4473
2026-01-08 01:27:35.47	253.30	8.04	-38.8	-41.0	14.2	1.50e-06	0	56	0	387973120	49	4554
2026-01-08 01:27:37.49	253.10	7.90	-44.6	-56.7	3.8	1.49e+00	0	57	104	391118848	59	15722
2026-01-08 01:27:39.51	252.91	7.77	-44.9	-57.3	3.8	1.49e+00	0	57	104	391118848	60	15818
2026-01-08 01:27:41.53	252.72	7.64	-45.1	-57.5	3.8	1.49e+00	0	57	104	391118848	60	16165
2026-01-08 01:27:43.55	252.53	7.51	-45.2	-57.6	3.8	1.49e+00	0	57	104	391118848	60	16444
2026-01-08 01:27:45.57	252.34	7.38	-45.2	-57.6	3.8	1.49e+00	0	57	104	391118848	61	15574
2026-01-08 01:27:47.59	252.16	7.25	-45.2	-57.6	3.8	1.49e+00	0	57	104	391118848	61	15505
2026-01-08 01:27:49.61	251.98	7.11	-45.1	-57.6	3.8	1.49e+00	0	57	104	391118848	61	15449
2026-01-08 01:27:51.62	251.79	6.98	-45.1	-57.6	3.8	1.49e+00	0	57	104	391118848	61	15498
2026-01-08 01:27:53.64	251.61	6.85	-45.1	-57.6	3.8	1.49e+00	0	57	104	391118848	61	15418
2026-01-08 01:27:55.66	251.43	6.73	-45.1	-57.5	3.8	1.49e+00	0	57	104	391118848	61	15381
2026-01-08 01:27:57.68	251.26	6.60	-45.1	-57.5	3.8	1.49e+00	0	57	104	391118848	61	15393
2026-01-08 01:27:59.70	251.08	6.47	-45.1	-57.6	3.8	1.49e+00	0	57	104	391118848	61	15416
2026-01-08 01:28:01.72	250.91	6.34	-45.1	-57.5	3.8	1.49e+00	0	57	104	391118848	61	15380
2026-01-08 01:28:03.74	250.73	6.21	-45.1	-57.5	3.8	1.49e+00	0	57	104	391118848	61	15390
2026-01-08 01:28:05.75	250.56	6.08	-45.1	-57.5	3.8	1.49e+00	0	57	104	391118848	61	15400
2026-01-08 01:28:07.77	250.39	5.96	-45.0	-57.5	3.8	1.49e+00	0	57	104	391118848	61	15363
2026-01-08 01:28:09.79	250.23	5.83	-45.1	-57.5	3.8	1.49e+00	0	57	104	391118848	61	15356
2026-01-08 01:28:11.81	250.06	5.70	-45.1	-57.5	3.8	1.49e+00	0	57	104	391118848	61	15380
2026-01-08 01:28:13.83	249.89	5.58	-45.1	-57.5	3.8	1.49e+00	0	57	104	391118848	61	15341
2026-01-08 01:28:15.85	249.73	5.45	-45.1	-57.5	3.8	1.49e+00	0	57	104	391118848	61	15330
2026-01-08 01:28:17.87	249.57	5.33	-45.1	-57.5	3.8	1.49e+00	0	57	104	391118848	61	15310
2026-01-08 01:28:19.89	249.41	5.20	-45.1	-57.5	3.8	1.49e+00	0	57	104	391118848	61	15374
2026-01-08 01:28:21.90	249.25	5.08	-45.1	-57.5	3.8	1.49e+00	0	57	104	391118848	61	15320
2026-01-08 01:28:23.92	249.09	4.95	-45.1	-57.5	3.8	1.49e+00	0	57	104	391118848	61	15339
2026-01-08 01:28:25.94	248.93	4.83	-45.0	-57.5	3.8	1.49e+00	0	57	104	391118848	61	15295
2026-01-08 01:28:27.96	248.78	4.71	-45.1	-57.5	3.8	1.49e+00	0	57	104	391118848	61	15322
2026-01-08 01:28:29.98	248.63	4.58	-45.0	-57.5	3.8	1.49e+00	0	57	104	391118848	61	15266
2026-01-08 01:28:32.00	248.47	4.46	-45.0	-57.5	3.8	1.49e+00	0	57	104	391118848	61	15268
2026-01-08 01:28:34.02	248.32	4.34	-45.1	-57.5	3.8	1.49e+00	0	57	104	391118848	61	15289
2026-01-08 01:28:36.04	248.17	4.22	-45.1	-57.5	3.8	1.49e+00	0	57	104	391118848	61	15311
2026-01-08 01:28:38.06	248.02	4.10	-45.0	-57.5	3.8	1.49e+00	0	57	104	391118848	61	15325
2026-01-08 01:28:40.08	247.88	3.97	-45.0	-57.5	3.8	1.49e+00	0	57	104	391118848	61	15331
2026-01-08 01:28:42.10	247.73	3.85	-45.0	-57.5	3.8	1.49e+00	0	57	104	391118848	61	15282
2026-01-08 01:28:44.12	247.58	3.73	-45.0	-57.5	3.8	1.49e+00	0	57	104	391118848	61	15283
2026-01-08 01:28:46.13	247.44	3.61	-45.0	-57.5	3.8	1.49e+00	0	57	104	391118848	61	15299
2026-01-08 01:28:48.16	247.30	3.49	-45.0	-57.5	3.8	1.49e+00	0	57	104	391118848	61	15292
2026-01-08 01:28:50.18	247.16	3.37	-45.0	-57.5	3.8	1.49e+00	0	57	104	391118848	61	15251
2026-01-08 01:28:52.19	247.02	3.26	-45.0	-57.5	3.8	1.49e+00	0	57	104	391118848	61	15298
2026-01-08 01:28:54.21	246.88	3.14	-45.0	-57.5	3.8	1.49e+00	0	57	104	391118848	61	15254
2026-01-08 01:28:56.23	246.74	3.02	-45.0	-57.5	3.8	1.49e+00	0	57	104	391118848	61	15266
2026-01-08 01:28:58.25	246.60	2.90	-45.0	-57.5	3.8	1.49e+00	0	57	104	391118848	61	15273
2026-01-08 01:29:00.27	246.47	2.78	-45.0	-57.5	3.8	1.49e+00	0	57	104	391118848	61	15242
2026-01-08 01:29:02.29	246.33	2.67	-45.0	-57.4	3.8	1.49e+00	0	57	104	391118848	61	15203
2026-01-08 01:29:04.30	246.20	2.55	-45.0	-57.5	3.8	1.49e+00	0	57	104	391118848	61	15293
2026-01-08 01:29:06.32	246.07	2.43	-45.0	-57.5	3.8	1.49e+00	0	57	104	391118848	61	15238
2026-01-08 01:29:08.33	245.94	2.32	-45.0	-57.5	3.8	1.49e+00	0	57	104	391118848	61	15253
2026-01-08 01:29:10.35	245.81	2.20	-45.0	-57.5	3.8	1.49e+00	0	57	104	391118848	61	15235
2026-01-08 01:29:12.37	245.68	2.09	-45.0	-57.5	3.8	1.49e+00	0	57	104	391118848	61	15270

#Closed at: 2026-01-08 01:29:14
#Recorded file [391 MB]: D:/lorett/data/31039_260108_042445.dat