passes_logs/2026/01/08/R2.0S_Moscow/R2.0S_Moscow__20260108_231708_NOAA_21_JPSS-2_rec.log

#Pass ID: 20260108_231708_NOAA 21 (JPSS-2)
#Satellite: NOAA 21 (JPSS-2)
#Configuration: NOAA-21
#almurnet v.1.7.20251203
#Start time: 2026-01-08 23:17:08

#Version: 2.2.20231116
#Station: R2.0S_Moscow
#Location: 37.707566 lon 55.798166 lat
#TLE: 1 54234U 22150A   26008.45757862  .00000119  00000+0  77172-4 0  9996
#TLE: 2 54234  98.7494 309.4367 0000894 328.2777  31.8345 14.19533328163889

#Time	Az	El	Level	Level2	SNR	BER	BlckErr	Temp	State	Recorded	gain1	gain2
2026-01-08 23:17:08.89	17.95	2.03	-40.4	-53.4	3.8	1.49e+00	0	47	0	0	52	16010
2026-01-08 23:17:12.92	18.04	2.28	-40.5	-53.5	3.8	1.49e+00	0	48	104	0	51	17118
2026-01-08 23:17:16.96	18.12	2.54	-40.5	-53.5	3.8	1.49e+00	0	48	104	0	51	17103
2026-01-08 23:17:21.01	18.21	2.80	-40.4	-53.5	3.8	1.49e+00	0	48	104	0	51	17133
2026-01-08 23:17:25.05	18.30	3.07	-40.4	-53.5	3.8	1.49e+00	0	48	104	0	51	17109
2026-01-08 23:17:29.08	18.39	3.33	-40.5	-53.5	3.8	1.49e+00	0	49	104	0	51	17084
2026-01-08 23:17:33.12	18.48	3.60	-40.5	-53.5	3.8	1.49e+00	0	49	104	0	51	17103
2026-01-08 23:17:37.17	18.57	3.87	-40.4	-53.4	3.8	1.49e+00	0	50	104	0	51	17083
2026-01-08 23:17:41.21	18.67	4.14	-40.4	-53.5	3.8	1.49e+00	0	50	104	0	51	17112
2026-01-08 23:17:45.25	18.76	4.42	-40.5	-53.4	3.8	1.49e+00	0	50	104	0	51	17056
2026-01-08 23:17:49.29	18.86	4.70	-40.4	-53.4	3.8	1.49e+00	0	50	104	0	51	17031
2026-01-08 23:17:53.34	18.96	4.98	-40.5	-53.4	3.8	1.49e+00	0	51	104	0	51	17068
2026-01-08 23:17:57.38	19.05	5.26	-40.5	-53.4	3.8	1.49e+00	0	51	104	0	51	17002
2026-01-08 23:18:01.42	19.16	5.55	-40.4	-53.5	3.8	1.49e+00	0	51	104	0	51	17099
2026-01-08 23:18:05.46	19.26	5.84	-40.4	-53.4	3.8	1.49e+00	0	51	104	0	51	17065
2026-01-08 23:18:09.50	19.36	6.14	-40.4	-53.4	3.8	1.49e+00	0	51	104	0	51	17058
2026-01-08 23:18:13.54	19.47	6.43	-40.4	-53.4	3.8	1.49e+00	0	52	104	0	51	17049
2026-01-08 23:18:17.58	19.58	6.73	-40.4	-53.3	3.8	1.49e+00	0	52	104	0	51	16844
2026-01-08 23:18:21.62	19.69	7.04	-40.5	-53.2	3.8	1.49e+00	0	52	104	0	51	16601
2026-01-08 23:18:25.67	19.80	7.35	-40.4	-53.0	3.8	1.49e+00	0	52	104	0	51	16189
2026-01-08 23:18:29.71	19.91	7.66	-40.4	-52.6	3.8	1.49e+00	0	52	104	0	51	15542
2026-01-08 23:18:33.75	20.03	7.97	-40.4	-52.3	3.8	1.49e+00	0	52	104	0	51	14970
2026-01-08 23:18:37.79	20.15	8.29	-40.4	-46.8	6.5	1.20e+00	0	52	0	1048576	51	7958
2026-01-08 23:18:41.83	20.27	8.62	-39.2	-42.7	10.9	1.89e-03	0	53	0	9437184	50	5252
2026-01-08 23:18:45.87	20.39	8.94	-40.1	-43.8	10.4	4.74e-03	0	53	0	23068672	50	5935
2026-01-08 23:18:49.91	20.52	9.28	-40.0	-43.4	11.0	1.38e-03	0	53	0	35651584	50	5659
2026-01-08 23:18:53.94	20.65	9.61	-39.9	-43.1	11.3	1.49e-03	0	53	0	48234496	50	5496
2026-01-08 23:18:57.97	20.78	9.95	-39.8	-42.8	11.8	6.67e-04	0	53	0	60817408	50	5324
2026-01-08 23:19:02.01	20.91	10.30	-39.3	-41.9	12.9	4.95e-05	0	53	0	73400320	50	4802
2026-01-08 23:19:06.06	21.04	10.65	-39.2	-41.7	13.2	3.28e-05	0	54	0	85983232	50	4670
2026-01-08 23:19:10.10	21.18	11.00	-39.0	-41.3	13.6	8.30e-06	0	53	0	98566144	49	4733
2026-01-08 23:19:14.14	21.32	11.36	-38.9	-41.1	13.8	5.30e-06	0	53	0	111149056	49	4634
2026-01-08 23:19:18.17	21.47	11.72	-38.3	-40.4	14.7	7.00e-07	0	53	0	123731968	48	4496
2026-01-08 23:19:22.21	21.62	12.10	-38.3	-40.3	14.8	0.00e+00	0	54	0	136314880	48	4468
2026-01-08 23:19:26.25	21.77	12.47	-38.2	-40.1	15.0	0.00e+00	0	54	0	148897792	48	4389
2026-01-08 23:19:30.30	21.92	12.85	-38.1	-40.0	15.2	0.00e+00	0	54	0	161480704	48	4330
2026-01-08 23:19:34.33	22.08	13.24	-38.1	-40.0	15.2	0.00e+00	0	54	0	174063616	48	4315
2026-01-08 23:19:38.37	22.24	13.64	-38.1	-40.0	15.3	0.00e+00	0	54	0	186646528	48	4293
2026-01-08 23:19:42.40	22.41	14.03	-38.0	-39.8	15.4	0.00e+00	0	54	0	199229440	47	4483
2026-01-08 23:19:46.44	22.58	14.44	-37.9	-39.8	15.4	0.00e+00	0	54	0	211812352	47	4460
2026-01-08 23:19:50.48	22.75	14.85	-37.8	-39.6	15.6	0.00e+00	0	54	0	224395264	47	4389
2026-01-08 23:19:54.51	22.93	15.27	-37.8	-39.6	15.7	0.00e+00	0	54	0	236978176	47	4350
2026-01-08 23:19:58.55	23.12	15.70	-37.7	-39.5	15.8	0.00e+00	0	55	0	249561088	47	4306
2026-01-08 23:20:02.58	23.30	16.14	-37.8	-39.6	15.7	0.00e+00	0	55	0	262144000	47	4357
2026-01-08 23:20:06.63	23.50	16.58	-37.9	-39.7	15.6	0.00e+00	0	54	0	274726912	47	4441
2026-01-08 23:20:10.66	23.70	17.03	-38.0	-39.9	15.5	0.00e+00	0	55	0	287309824	47	4506
2026-01-08 23:20:14.70	23.90	17.49	-38.1	-39.9	15.5	0.00e+00	0	55	0	299892736	47	4535
2026-01-08 23:20:18.74	24.11	17.96	-38.1	-39.9	15.5	0.00e+00	0	55	0	312475648	47	4534
2026-01-08 23:20:22.77	24.33	18.43	-38.1	-40.0	15.5	0.00e+00	0	55	0	325058560	47	4560
2026-01-08 23:20:26.81	24.55	18.92	-38.2	-40.0	15.4	0.00e+00	0	55	0	337641472	47	4590
2026-01-08 23:20:30.85	24.78	19.41	-38.0	-39.8	15.6	0.00e+00	0	55	0	350224384	47	4492
2026-01-08 23:20:34.89	25.02	19.91	-37.9	-39.7	15.8	0.00e+00	0	55	0	362807296	47	4395
2026-01-08 23:20:38.92	25.26	20.43	-37.6	-39.2	16.3	0.00e+00	0	55	0	375390208	47	4175
2026-01-08 23:20:42.96	25.51	20.95	-37.3	-38.8	16.7	0.00e+00	0	55	0	389021696	46	4236
2026-01-08 23:20:47.00	25.77	21.49	-36.9	-38.5	17.1	0.00e+00	0	55	0	401604608	45	4294
2026-01-08 23:20:51.04	26.04	22.03	-36.6	-38.1	17.4	0.00e+00	0	55	0	414187520	45	4127
2026-01-08 23:20:55.08	26.32	22.59	-36.6	-38.1	17.5	0.00e+00	0	55	0	426770432	45	4116
2026-01-08 23:20:59.11	26.60	23.16	-36.6	-38.1	17.5	0.00e+00	0	55	0	439353344	45	4116
2026-01-08 23:21:03.15	26.90	23.74	-36.7	-38.2	17.4	0.00e+00	0	55	0	451936256	45	4183
2026-01-08 23:21:07.19	27.21	24.33	-36.8	-38.3	17.3	0.00e+00	0	56	0	464519168	45	4238
2026-01-08 23:21:11.23	27.53	24.94	-37.1	-38.7	17.0	0.00e+00	0	55	0	477102080	45	4396
2026-01-08 23:21:15.26	27.86	25.56	-37.2	-38.8	16.8	0.00e+00	0	56	0	489684992	45	4470
2026-01-08 23:21:19.30	28.20	26.19	-37.6	-39.2	16.5	0.00e+00	0	55	0	502267904	45	4672
2026-01-08 23:21:23.34	28.56	26.84	-37.8	-39.4	16.3	0.00e+00	0	56	0	514850816	46	4541
2026-01-08 23:21:27.38	28.93	27.51	-38.0	-39.8	16.0	0.00e+00	0	56	0	527433728	46	4717
2026-01-08 23:21:31.42	29.32	28.18	-38.0	-39.7	16.0	0.00e+00	0	56	0	540016640	46	4680
2026-01-08 23:21:35.46	29.72	28.88	-37.9	-39.6	16.1	0.00e+00	0	56	0	552599552	46	4635
2026-01-08 23:21:39.50	30.14	29.59	-37.8	-39.5	16.3	0.00e+00	0	56	0	565182464	46	4579
2026-01-08 23:21:43.54	30.58	30.32	-37.7	-39.3	16.5	0.00e+00	0	56	0	577765376	46	4456
2026-01-08 23:21:47.57	31.04	31.06	-37.6	-39.3	16.5	0.00e+00	0	56	0	590348288	46	4444
2026-01-08 23:21:51.62	31.52	31.82	-37.6	-39.2	16.6	0.00e+00	0	56	0	602931200	46	4407
2026-01-08 23:21:55.65	32.02	32.60	-37.7	-39.3	16.5	0.00e+00	0	56	0	615514112	46	4454
2026-01-08 23:21:59.69	32.55	33.40	-37.8	-39.5	16.3	0.00e+00	0	56	0	628097024	46	4561
2026-01-08 23:22:03.72	33.10	34.21	-38.2	-40.0	15.8	0.00e+00	0	56	0	640679936	46	4828
2026-01-08 23:22:07.76	33.68	35.05	-39.0	-40.9	15.0	0.00e+00	0	56	0	653262848	48	4812
2026-01-08 23:22:11.80	34.29	35.91	-39.6	-41.7	14.2	0.00e+00	0	56	0	665845760	49	4943
2026-01-08 23:22:15.84	34.93	36.78	-39.7	-41.9	14.1	2.20e-06	0	56	0	678428672	50	4776
2026-01-08 23:22:19.88	35.61	37.68	-39.6	-41.7	14.2	0.00e+00	0	56	0	691011584	50	4663
2026-01-08 23:22:23.91	36.33	38.59	-39.6	-41.8	14.2	3.80e-06	0	56	0	703594496	50	4732
2026-01-08 23:22:27.95	37.08	39.53	-39.3	-41.4	14.6	7.00e-07	0	56	0	716177408	50	4496
2026-01-08 23:22:31.99	37.88	40.48	-39.2	-41.1	14.8	0.00e+00	0	56	0	729808896	50	4372
2026-01-08 23:22:36.03	38.73	41.46	-39.2	-41.2	14.8	0.00e+00	0	56	0	741343232	50	4398
2026-01-08 23:22:40.07	39.63	42.46	-39.3	-41.3	14.7	7.00e-07	0	56	0	754974720	50	4470
2026-01-08 23:22:44.11	40.59	43.47	-40.2	-42.5	13.5	6.80e-06	0	56	0	767557632	50	5157
2026-01-08 23:22:48.14	41.61	44.50	-40.7	-43.3	12.7	7.93e-05	0	56	0	780140544	52	5011
2026-01-08 23:22:52.18	42.70	45.55	-40.5	-43.1	12.8	5.79e-05	0	56	0	792723456	52	4891
2026-01-08 23:22:56.22	43.86	46.62	-40.3	-42.8	13.2	3.66e-05	0	56	0	805306368	52	4706
2026-01-08 23:23:00.26	45.11	47.70	-39.4	-41.4	14.6	0.00e+00	0	56	0	817889280	50	4516
2026-01-08 23:23:04.29	46.44	48.79	-39.7	-41.9	14.2	1.50e-06	0	56	0	830472192	50	4761
2026-01-08 23:23:08.33	47.87	49.89	-39.5	-41.6	14.5	7.00e-07	0	57	0	843055104	50	4621
2026-01-08 23:23:12.37	49.41	51.00	-39.3	-41.3	14.7	0.00e+00	0	56	0	855638016	50	4490
2026-01-08 23:23:16.41	51.06	52.12	-38.9	-40.8	15.3	0.00e+00	0	56	0	868220928	49	4471
2026-01-08 23:23:20.45	52.84	53.23	-38.3	-40.0	16.0	0.00e+00	0	56	0	880803840	48	4316
2026-01-08 23:23:24.49	54.77	54.34	-38.1	-39.8	16.2	0.00e+00	0	56	0	893386752	47	4459
2026-01-08 23:23:28.53	56.85	55.44	-37.5	-39.0	16.9	0.00e+00	0	56	0	905969664	46	4340
2026-01-08 23:23:32.56	59.08	56.52	-37.5	-39.0	16.9	0.00e+00	0	56	0	918552576	46	4337
2026-01-08 23:23:36.60	61.51	57.58	-37.6	-39.2	16.8	0.00e+00	0	57	0	931135488	46	4409
2026-01-08 23:23:40.64	64.12	58.60	-37.2	-38.7	17.3	0.00e+00	0	56	0	943718400	46	4153
2026-01-08 23:23:44.67	66.93	59.59	-37.3	-38.8	17.1	0.00e+00	0	57	0	956301312	46	4207
2026-01-08 23:23:48.71	69.97	60.52	-36.9	-38.3	17.6	0.00e+00	0	57	0	968884224	45	4225
2026-01-08 23:23:52.75	73.22	61.39	-36.2	-37.5	18.4	0.00e+00	0	57	0	981467136	44	4070
2026-01-08 23:23:56.79	76.70	62.18	-36.4	-37.7	18.1	0.00e+00	0	56	0	994050048	44	4185
2026-01-08 23:24:00.82	80.39	62.89	-36.9	-38.4	17.5	0.00e+00	0	56	0	1006632960	44	4514
2026-01-08 23:24:04.86	84.30	63.50	-36.9	-38.3	17.5	0.00e+00	0	56	0	1019215872	44	4465
2026-01-08 23:24:08.90	88.40	64.00	-36.4	-37.7	18.0	0.00e+00	0	56	0	1031798784	44	4185
2026-01-08 23:24:12.94	92.66	64.38	-36.1	-37.4	18.3	0.00e+00	0	57	0	1044381696	44	4049
2026-01-08 23:24:16.97	97.03	64.63	-36.7	-38.1	17.6	0.00e+00	0	57	0	1056964608	44	4362
2026-01-08 23:24:21.01	101.48	64.75	-36.7	-38.0	17.7	0.00e+00	0	57	0	1069547520	44	4340
2026-01-08 23:24:25.05	105.95	64.73	-36.9	-38.3	17.4	0.00e+00	0	57	0	1082130432	44	4487
2026-01-08 23:24:29.09	110.39	64.58	-36.1	-37.4	18.3	0.00e+00	0	57	0	1094713344	44	4049
2026-01-08 23:24:33.12	114.73	64.30	-36.5	-37.9	17.8	0.00e+00	0	57	0	1107296256	43	4511
2026-01-08 23:24:37.16	118.95	63.89	-37.1	-38.6	17.0	0.00e+00	0	57	0	1119879168	44	4648
2026-01-08 23:24:41.20	123.01	63.36	-36.6	-38.0	17.6	0.00e+00	0	57	0	1133510656	45	4091
2026-01-08 23:24:45.24	126.88	62.72	-37.2	-38.7	17.1	0.00e+00	0	57	0	1145044992	45	4408
2026-01-08 23:24:49.28	130.53	61.99	-36.8	-38.2	17.5	0.00e+00	0	57	0	1158676480	44	4407
2026-01-08 23:24:53.31	133.96	61.18	-36.8	-38.2	17.5	0.00e+00	0	57	0	1171259392	45	4161
2026-01-08 23:24:57.35	137.16	60.29	-38.0	-39.7	16.1	0.00e+00	0	57	0	1183842304	46	4696
2026-01-08 23:25:01.39	140.15	59.34	-36.3	-37.7	18.1	0.00e+00	0	57	0	1196425216	44	4152
2026-01-08 23:25:05.44	142.93	58.34	-38.6	-40.5	15.5	0.00e+00	0	57	0	1209008128	48	4565
2026-01-08 23:25:09.48	145.50	57.31	-36.8	-38.2	17.6	0.00e+00	0	57	0	1221591040	44	4397
2026-01-08 23:25:13.51	147.87	56.24	-38.7	-40.6	15.3	7.00e-07	0	57	0	1234173952	48	4636
2026-01-08 23:25:17.55	150.08	55.15	-38.7	-40.5	15.3	0.00e+00	0	57	0	1246756864	47	4831
2026-01-08 23:25:21.59	152.12	54.04	-39.5	-41.6	14.1	2.20e-06	0	57	0	1259339776	50	4608
2026-01-08 23:25:25.63	154.01	52.93	-37.9	-39.5	16.2	0.00e+00	0	57	0	1271922688	47	4323
2026-01-08 23:25:29.67	155.76	51.81	-39.5	-41.6	13.9	2.20e-06	0	57	0	1284505600	49	4913
2026-01-08 23:25:33.70	157.39	50.69	-39.2	-41.2	14.7	0.00e+00	0	57	0	1297088512	50	4438
2026-01-08 23:25:37.74	158.90	49.58	-40.2	-42.6	13.2	3.35e-05	0	57	0	1309671424	51	4912
2026-01-08 23:25:41.77	160.30	48.47	-38.7	-40.6	15.3	0.00e+00	0	57	0	1322254336	49	4356
2026-01-08 23:25:45.81	161.61	47.38	-40.4	-42.9	12.9	2.28e-05	0	57	0	1334837248	51	5045
2026-01-08 23:25:49.85	162.84	46.29	-39.7	-41.8	14.0	3.00e-06	0	57	0	1347420160	51	4459
2026-01-08 23:25:53.89	163.98	45.23	-40.1	-42.4	13.4	1.37e-05	0	57	0	1360003072	51	4806
2026-01-08 23:25:57.93	165.06	44.18	-40.6	-43.1	12.6	5.11e-05	0	57	0	1372585984	51	5215
2026-01-08 23:26:01.96	166.06	43.15	-39.9	-42.1	13.6	1.22e-05	0	57	0	1385168896	51	4633
2026-01-08 23:26:06.00	167.00	42.13	-39.7	-41.9	13.9	3.80e-06	0	57	0	1397751808	50	4785
2026-01-08 23:26:10.05	167.89	41.13	-39.5	-41.7	14.1	1.50e-06	0	57	0	1410334720	50	4655
2026-01-08 23:26:14.09	168.73	40.16	-39.4	-41.5	14.3	2.20e-06	0	57	0	1422917632	50	4572
2026-01-08 23:26:18.12	169.52	39.20	-40.1	-42.4	13.3	1.75e-05	0	57	0	1435500544	50	5100
2026-01-08 23:26:22.17	170.27	38.27	-39.4	-41.5	14.2	7.00e-07	0	57	0	1448083456	50	4591
2026-01-08 23:26:26.20	170.97	37.35	-39.3	-41.4	14.3	0.00e+00	0	57	0	1460666368	50	4514
2026-01-08 23:26:30.24	171.64	36.46	-38.5	-40.3	15.4	0.00e+00	0	57	0	1473249280	49	4204
2026-01-08 23:26:34.28	172.27	35.58	-38.2	-39.9	15.8	0.00e+00	0	57	0	1485832192	48	4264
2026-01-08 23:26:38.31	172.87	34.73	-38.2	-40.0	15.7	0.00e+00	0	57	0	1499463680	48	4300
2026-01-08 23:26:42.35	173.44	33.90	-39.4	-41.5	14.2	1.50e-06	0	57	0	1512046592	49	4842
2026-01-08 23:26:46.39	173.99	33.08	-39.0	-41.0	14.7	7.00e-07	0	57	0	1524629504	49	4546
2026-01-08 23:26:50.43	174.51	32.28	-37.8	-39.5	16.1	0.00e+00	0	57	0	1537212416	47	4306
2026-01-08 23:26:54.47	175.00	31.50	-37.4	-39.0	16.5	0.00e+00	0	57	0	1549795328	46	4317
2026-01-08 23:26:58.50	175.48	30.74	-37.3	-38.9	16.6	0.00e+00	0	57	0	1562378240	46	4272
2026-01-08 23:27:02.54	175.93	30.00	-37.6	-39.3	16.2	0.00e+00	0	57	0	1574961152	46	4450
2026-01-08 23:27:06.58	176.36	29.27	-38.2	-40.0	15.6	0.00e+00	0	57	0	1587544064	47	4556
2026-01-08 23:27:10.62	176.78	28.56	-38.3	-40.2	15.4	0.00e+00	0	57	0	1600126976	47	4653
2026-01-08 23:27:14.66	177.17	27.87	-38.0	-39.7	15.8	0.00e+00	0	57	0	1612709888	47	4441
2026-01-08 23:27:18.71	177.56	27.19	-37.7	-39.4	16.0	0.00e+00	0	57	0	1625292800	47	4285
2026-01-08 23:27:22.75	177.92	26.53	-37.2	-38.7	16.7	0.00e+00	0	57	0	1637875712	46	4190
2026-01-08 23:27:26.79	178.27	25.88	-36.6	-38.0	17.3	0.00e+00	0	57	0	1650458624	45	4089
2026-01-08 23:27:30.83	178.61	25.25	-36.7	-38.1	17.2	0.00e+00	0	57	0	1663041536	45	4142
2026-01-08 23:27:34.87	178.94	24.63	-36.9	-38.5	16.9	0.00e+00	0	57	0	1675624448	45	4299
2026-01-08 23:27:38.91	179.25	24.02	-37.0	-38.5	16.9	0.00e+00	0	57	0	1688207360	45	4335
2026-01-08 23:27:42.95	179.56	23.43	-37.3	-38.9	16.5	0.00e+00	0	57	0	1700790272	45	4506
2026-01-08 23:27:46.98	179.85	22.85	-37.4	-39.0	16.3	0.00e+00	0	57	0	1713373184	45	4590
2026-01-08 23:27:51.02	180.13	22.28	-37.4	-39.0	16.3	0.00e+00	0	57	0	1725956096	45	4594
2026-01-08 23:27:55.06	180.40	21.72	-37.5	-39.2	16.1	0.00e+00	0	57	0	1738539008	45	4659
2026-01-08 23:27:59.10	180.67	21.18	-37.2	-38.8	16.5	0.00e+00	0	57	0	1751121920	45	4470
2026-01-08 23:28:03.13	180.92	20.65	-37.3	-39.0	16.3	0.00e+00	0	57	0	1763704832	45	4563
2026-01-08 23:28:07.17	181.17	20.12	-37.4	-39.1	16.2	0.00e+00	0	57	0	1776287744	45	4628
2026-01-08 23:28:11.21	181.41	19.61	-37.5	-39.2	16.0	0.00e+00	0	57	0	1788870656	45	4697
2026-01-08 23:28:15.25	181.64	19.11	-37.4	-39.1	16.2	0.00e+00	0	57	0	1801453568	45	4633
2026-01-08 23:28:19.28	181.86	18.61	-37.4	-39.1	16.1	0.00e+00	0	57	0	1814036480	45	4634
2026-01-08 23:28:23.32	182.08	18.13	-37.4	-39.1	16.1	0.00e+00	0	57	0	1826619392	45	4628
2026-01-08 23:28:27.36	182.29	17.65	-37.4	-39.1	16.2	0.00e+00	0	57	0	1840250880	45	4620
2026-01-08 23:28:31.40	182.50	17.19	-37.5	-39.2	16.0	0.00e+00	0	57	0	1852833792	45	4690
2026-01-08 23:28:35.43	182.70	16.73	-37.8	-39.5	15.8	0.00e+00	0	57	0	1865416704	46	4577
2026-01-08 23:28:39.47	182.89	16.28	-37.8	-39.6	15.7	0.00e+00	0	57	0	1877999616	46	4605
2026-01-08 23:28:43.51	183.08	15.84	-37.8	-39.5	15.7	0.00e+00	0	57	0	1890582528	46	4573
2026-01-08 23:28:47.55	183.27	15.40	-37.9	-39.7	15.5	0.00e+00	0	57	0	1903165440	46	4686
2026-01-08 23:28:51.60	183.45	14.97	-38.1	-40.0	15.2	0.00e+00	0	57	0	1915748352	46	4847
2026-01-08 23:28:55.63	183.62	14.55	-38.2	-40.1	15.1	0.00e+00	0	57	0	1928331264	47	4616
2026-01-08 23:28:59.67	183.79	14.14	-38.5	-40.5	14.7	0.00e+00	0	57	0	1940914176	47	4854
2026-01-08 23:29:03.71	183.96	13.73	-38.6	-40.6	14.6	0.00e+00	0	57	0	1953497088	47	4895
2026-01-08 23:29:07.75	184.12	13.33	-38.6	-40.7	14.5	0.00e+00	0	57	0	1966080000	47	4958
2026-01-08 23:29:11.79	184.27	12.94	-38.6	-40.6	14.6	7.00e-07	0	57	0	1978662912	48	4644
2026-01-08 23:29:15.83	184.43	12.55	-38.6	-40.6	14.6	0.00e+00	0	57	0	1991245824	48	4636
2026-01-08 23:29:19.86	184.58	12.17	-38.8	-40.8	14.4	0.00e+00	0	57	0	2003828736	48	4745
2026-01-08 23:29:23.90	184.72	11.80	-38.7	-40.8	14.4	0.00e+00	0	57	0	2016411648	48	4717
2026-01-08 23:29:27.93	184.87	11.43	-38.7	-40.8	14.4	1.50e-06	0	57	0	2028994560	48	4723
2026-01-08 23:29:31.97	185.01	11.06	-38.8	-40.8	14.3	1.50e-06	0	57	0	2041577472	48	4748
2026-01-08 23:29:36.01	185.14	10.70	-38.9	-41.0	14.2	2.20e-06	0	57	0	2054160384	48	4823
2026-01-08 23:29:40.05	185.28	10.35	-38.8	-40.9	14.2	0.00e+00	0	57	0	2066743296	48	4766
2026-01-08 23:29:44.09	185.41	10.00	-38.8	-41.0	14.1	2.20e-06	0	57	0	2079326208	48	4819
2026-01-08 23:29:48.12	185.54	9.65	-38.8	-41.0	14.1	3.00e-06	0	57	0	2091909120	48	4821
2026-01-08 23:29:52.16	185.66	9.31	-39.0	-41.2	13.8	7.00e-07	0	57	0	2104492032	48	4928
2026-01-08 23:29:56.20	185.79	8.98	-39.0	-41.3	13.7	7.00e-07	0	57	0	2117074944	48	4987
2026-01-08 23:30:00.23	185.91	8.65	-39.0	-41.3	13.7	4.50e-06	0	57	0	2129657856	48	4992
2026-01-08 23:30:04.27	186.02	8.32	-39.2	-41.5	13.4	1.52e-05	0	57	0	2142240768	48	5135
2026-01-08 23:30:08.31	186.14	8.00	-39.2	-41.5	13.3	2.28e-05	0	57	0	2154823680	49	4868
2026-01-08 23:30:12.35	186.25	7.68	-44.7	-57.0	3.8	1.49e+00	0	57	104	2156920832	60	15378
2026-01-08 23:30:16.39	186.36	7.36	-44.9	-57.2	3.8	1.49e+00	0	57	104	2156920832	60	15701
2026-01-08 23:30:20.43	186.47	7.05	-44.9	-57.2	3.8	1.49e+00	0	57	104	2156920832	60	15603
2026-01-08 23:30:24.47	186.58	6.74	-44.8	-57.1	3.8	1.49e+00	0	57	104	2156920832	60	15447
2026-01-08 23:30:28.51	186.68	6.44	-44.8	-57.0	3.8	1.49e+00	0	57	104	2156920832	60	15398
2026-01-08 23:30:32.55	186.79	6.14	-44.8	-57.1	3.8	1.49e+00	0	57	104	2156920832	60	15405
2026-01-08 23:30:36.59	186.89	5.84	-44.8	-57.1	3.8	1.49e+00	0	57	104	2156920832	60	15408
2026-01-08 23:30:40.63	186.99	5.54	-44.8	-57.0	3.8	1.49e+00	0	57	104	2156920832	60	15398
2026-01-08 23:30:44.67	187.09	5.25	-44.8	-57.0	3.8	1.49e+00	0	57	104	2156920832	60	15362
2026-01-08 23:30:48.71	187.18	4.97	-44.8	-57.0	3.8	1.49e+00	0	57	104	2156920832	60	15351
2026-01-08 23:30:52.76	187.28	4.68	-44.8	-57.0	3.8	1.49e+00	0	57	104	2156920832	60	15382
2026-01-08 23:30:56.80	187.37	4.40	-44.8	-57.1	3.8	1.49e+00	0	57	104	2156920832	60	15452
2026-01-08 23:31:00.84	187.46	4.12	-44.8	-57.0	3.8	1.49e+00	0	57	104	2156920832	60	15384
2026-01-08 23:31:04.88	187.55	3.84	-44.8	-57.0	3.8	1.49e+00	0	57	104	2156920832	60	15365
2026-01-08 23:31:08.93	187.64	3.57	-44.7	-57.0	3.8	1.49e+00	0	58	104	2156920832	60	15380
2026-01-08 23:31:12.97	187.72	3.30	-44.8	-57.0	3.8	1.49e+00	0	57	104	2156920832	60	15371
2026-01-08 23:31:17.01	187.81	3.03	-44.7	-57.0	3.8	1.49e+00	0	58	104	2156920832	60	15327
2026-01-08 23:31:21.05	187.89	2.77	-44.8	-57.0	3.8	1.49e+00	0	57	104	2156920832	60	15300
2026-01-08 23:31:25.09	187.98	2.50	-44.8	-57.0	3.8	1.49e+00	0	58	104	2156920832	60	15345
2026-01-08 23:31:29.13	188.06	2.24	-44.7	-57.0	3.8	1.49e+00	0	57	104	2156920832	60	15355
2026-01-08 23:31:33.18	188.14	1.98	-44.7	-57.0	3.8	1.49e+00	0	57	104	2156920832	60	15296

#Closed at: 2026-01-08 23:31:33
#Recorded file [2156 MB]: D:/lorett/data/31039_260109_021708.dat