passes_logs/2026/01/08/R2.0S_Moscow/R2.0S_Moscow__20260108_142243_FENGYUN_3E_rec.log

#Pass ID: 20260108_142243_FENGYUN 3E
#Satellite: FENGYUN 3E
#Configuration: FENGYUN 3E
#almurnet v.1.7.20251203
#Start time: 2026-01-08 14:22:44

#Version: 2.2.20231116
#Station: R2.0S_Moscow
#Location: 37.707566 lon 55.798166 lat
#TLE: 1 49008U 21062A   26007.88844255 -.00000338  00000+0 -13865-3 0  9992
#TLE: 2 49008  98.7481  13.0996 0001694 151.5348 208.5921 14.19883289233834

#Time	Az	El	Level	Level2	SNR	BER	BlckErr	Temp	State	Recorded	gain1	gain2
2026-01-08 14:22:44.80	165.83	2.03	-44.3	-55.1	3.8	8.46e-01	0	48	0	0	59	12374
2026-01-08 14:22:48.84	165.87	2.30	-44.3	-55.1	3.8	8.46e-01	0	49	104	0	59	12374
2026-01-08 14:22:52.88	165.91	2.56	-44.3	-55.1	3.8	8.47e-01	0	49	104	0	59	12325
2026-01-08 14:22:56.92	165.96	2.82	-44.3	-55.1	3.8	8.46e-01	0	49	104	0	59	12320
2026-01-08 14:23:00.96	166.00	3.09	-44.3	-55.1	3.8	8.46e-01	0	49	104	0	59	12330
2026-01-08 14:23:05.00	166.05	3.36	-44.3	-55.1	3.8	8.45e-01	0	50	104	0	59	12366
2026-01-08 14:23:09.04	166.09	3.64	-44.3	-55.2	3.8	8.47e-01	0	50	104	0	59	12399
2026-01-08 14:23:13.08	166.14	3.91	-44.3	-55.1	3.8	8.45e-01	0	50	104	0	59	12358
2026-01-08 14:23:17.12	166.18	4.19	-44.3	-55.1	3.8	8.45e-01	0	50	104	0	59	12333
2026-01-08 14:23:21.17	166.23	4.47	-44.3	-55.1	3.8	8.47e-01	0	51	104	0	59	12363
2026-01-08 14:23:25.21	166.28	4.76	-44.3	-55.1	3.8	8.45e-01	0	51	104	0	59	12336
2026-01-08 14:23:29.25	166.33	5.05	-44.3	-55.1	3.8	8.47e-01	0	51	104	0	59	12288
2026-01-08 14:23:33.29	166.38	5.34	-44.2	-55.0	3.8	8.46e-01	0	52	104	0	59	12230
2026-01-08 14:23:37.33	166.43	5.63	-44.1	-53.9	3.8	8.46e-01	0	52	104	0	59	10724
2026-01-08 14:23:41.37	166.48	5.93	-43.7	-51.5	4.2	8.37e-01	0	52	0	0	58	8579
2026-01-08 14:23:45.41	166.53	6.23	-43.4	-50.3	4.6	8.13e-01	0	52	0	0	57	7934
2026-01-08 14:23:49.46	166.59	6.54	-43.0	-49.1	5.3	7.40e-01	0	52	0	0	57	6902
2026-01-08 14:23:53.50	166.64	6.85	-42.5	-47.9	6.1	3.38e-01	0	52	0	15728640	56	6391
2026-01-08 14:23:57.54	166.70	7.16	-41.6	-46.0	7.6	1.13e-01	0	53	0	45088768	54	5754
2026-01-08 14:24:01.59	166.75	7.48	-40.4	-43.7	10.0	9.77e-03	0	53	0	73400320	51	5270
2026-01-08 14:24:05.63	166.81	7.80	-38.9	-41.6	12.2	2.16e-04	0	53	0	102760448	48	4880
2026-01-08 14:24:09.66	166.87	8.12	-43.3	-48.8	5.8	9.29e-02	0	53	0	132120576	55	7473
2026-01-08 14:24:13.70	166.93	8.45	-37.8	-40.2	13.5	1.64e-03	0	53	0	155189248	46	4693
2026-01-08 14:24:17.73	166.99	8.78	-37.9	-40.4	13.3	1.83e-05	0	54	0	184549376	46	4764
2026-01-08 14:24:21.77	167.05	9.12	-37.5	-39.9	13.8	3.40e-06	0	54	0	213909504	45	4764
2026-01-08 14:24:25.81	167.11	9.46	-37.1	-39.4	14.3	1.10e-06	0	54	0	243269632	45	4508
2026-01-08 14:24:29.85	167.17	9.81	-36.8	-39.0	14.8	0.00e+00	0	54	0	272629760	44	4575
2026-01-08 14:24:33.88	167.24	10.16	-36.9	-39.1	14.7	0.00e+00	0	54	0	300941312	44	4618
2026-01-08 14:24:37.92	167.30	10.51	-36.8	-38.9	14.9	0.00e+00	0	54	0	330301440	44	4538
2026-01-08 14:24:41.96	167.37	10.87	-36.6	-38.7	15.2	0.00e+00	0	54	0	359661568	44	4439
2026-01-08 14:24:46.00	167.44	11.24	-36.4	-38.5	15.3	0.00e+00	0	54	0	389021696	43	4570
2026-01-08 14:24:50.04	167.51	11.61	-36.2	-38.2	15.6	0.00e+00	0	54	0	418381824	43	4430
2026-01-08 14:24:54.08	167.58	11.99	-36.2	-38.2	15.7	0.00e+00	0	55	0	446693376	43	4425
2026-01-08 14:24:58.12	167.66	12.38	-36.0	-38.0	15.9	0.00e+00	0	55	0	476053504	43	4297
2026-01-08 14:25:02.16	167.73	12.77	-36.0	-38.0	15.9	0.00e+00	0	55	0	505413632	42	4546
2026-01-08 14:25:06.20	167.81	13.17	-35.8	-37.7	16.2	0.00e+00	0	55	0	534773760	42	4422
2026-01-08 14:25:10.24	167.89	13.57	-35.7	-37.6	16.3	0.00e+00	0	55	0	564133888	42	4357
2026-01-08 14:25:14.29	167.97	13.98	-35.7	-37.6	16.3	0.00e+00	0	55	0	593494016	42	4369
2026-01-08 14:25:18.33	168.05	14.40	-35.6	-37.4	16.5	0.00e+00	0	55	0	621805568	42	4263
2026-01-08 14:25:22.37	168.14	14.82	-35.6	-37.4	16.5	0.00e+00	0	55	0	651165696	42	4285
2026-01-08 14:25:26.41	168.22	15.25	-35.7	-37.5	16.5	0.00e+00	0	56	0	680525824	41	4577
2026-01-08 14:25:30.45	168.31	15.69	-35.4	-37.3	16.7	0.00e+00	0	55	0	709885952	41	4448
2026-01-08 14:25:34.48	168.41	16.14	-35.4	-37.2	16.7	0.00e+00	0	56	0	739246080	41	4424
2026-01-08 14:25:38.52	168.50	16.60	-35.3	-37.1	16.9	0.00e+00	0	56	0	767557632	41	4348
2026-01-08 14:25:42.56	168.60	17.06	-35.2	-36.9	17.1	0.00e+00	0	55	0	796917760	41	4290
2026-01-08 14:25:46.60	168.69	17.54	-35.0	-36.7	17.3	0.00e+00	0	56	0	826277888	40	4423
2026-01-08 14:25:50.63	168.80	18.02	-34.9	-36.6	17.4	0.00e+00	0	56	0	855638016	40	4390
2026-01-08 14:25:54.67	168.90	18.51	-34.7	-36.4	17.6	0.00e+00	0	56	0	884998144	40	4266
2026-01-08 14:25:58.71	169.01	19.01	-34.6	-36.3	17.7	0.00e+00	0	56	0	914358272	40	4218
2026-01-08 14:26:02.75	169.12	19.53	-34.6	-36.3	17.8	0.00e+00	0	56	0	942669824	39	4447
2026-01-08 14:26:06.79	169.23	20.05	-34.6	-36.3	17.7	0.00e+00	0	56	0	972029952	39	4451
2026-01-08 14:26:10.83	169.35	20.59	-34.5	-36.1	17.9	0.00e+00	0	56	0	1001390080	39	4388
2026-01-08 14:26:14.87	169.47	21.13	-34.5	-36.3	17.7	0.00e+00	0	56	0	1030750208	39	4450
2026-01-08 14:26:18.91	169.60	21.69	-34.6	-36.4	17.6	0.00e+00	0	56	0	1060110336	39	4500
2026-01-08 14:26:22.95	169.73	22.26	-34.6	-36.5	17.5	0.00e+00	0	56	0	1089470464	39	4578
2026-01-08 14:26:26.99	169.87	22.85	-34.6	-36.4	17.5	0.00e+00	0	56	0	1117782016	39	4545
2026-01-08 14:26:31.02	170.00	23.44	-34.4	-36.3	17.7	0.00e+00	0	56	0	1147142144	39	4452
2026-01-08 14:26:35.06	170.15	24.05	-34.3	-36.1	17.9	0.00e+00	0	56	0	1176502272	39	4350
2026-01-08 14:26:39.10	170.30	24.68	-34.2	-36.0	18.0	0.00e+00	0	56	0	1205862400	39	4294
2026-01-08 14:26:43.14	170.45	25.32	-33.5	-35.4	18.3	0.00e+00	0	57	0	1234173952	38	4255
2026-01-08 14:26:47.18	170.61	25.98	-33.9	-35.6	18.5	0.00e+00	0	57	0	1263534080	38	4356
2026-01-08 14:26:51.22	170.78	26.65	-33.8	-35.4	18.7	0.00e+00	0	56	0	1292894208	38	4290
2026-01-08 14:26:55.26	170.96	27.34	-33.8	-35.4	18.7	0.00e+00	0	57	0	1322254336	38	4269
2026-01-08 14:26:59.30	171.14	28.05	-33.6	-35.2	18.9	0.00e+00	0	57	0	1350565888	38	4174
2026-01-08 14:27:03.34	171.33	28.77	-33.4	-35.0	19.1	0.00e+00	0	57	0	1379926016	37	4317
2026-01-08 14:27:07.38	171.52	29.52	-33.6	-35.2	18.9	0.00e+00	0	57	0	1409286144	37	4429
2026-01-08 14:27:11.42	171.73	30.28	-33.6	-35.2	18.8	0.00e+00	0	57	0	1438646272	37	4426
2026-01-08 14:27:15.46	171.95	31.07	-33.4	-35.1	18.9	0.00e+00	0	57	0	1468006400	37	4364
2026-01-08 14:27:19.50	172.17	31.88	-33.6	-35.4	18.6	0.00e+00	0	57	0	1497366528	37	4496
2026-01-08 14:27:23.54	172.41	32.70	-33.7	-35.5	18.3	0.00e+00	0	57	0	1525678080	37	4590
2026-01-08 14:27:27.58	172.66	33.56	-33.9	-35.8	18.2	0.00e+00	0	57	0	1555038208	37	4709
2026-01-08 14:27:31.62	172.92	34.43	-33.7	-35.4	18.6	0.00e+00	0	57	0	1584398336	37	4541
2026-01-08 14:27:35.66	173.19	35.33	-33.6	-35.3	18.9	0.00e+00	0	57	0	1613758464	37	4468
2026-01-08 14:27:39.71	173.48	36.26	-33.7	-35.3	18.9	0.00e+00	0	57	0	1643118592	37	4481
2026-01-08 14:27:43.75	173.79	37.21	-33.8	-35.6	18.6	0.00e+00	0	57	0	1671430144	37	4609
2026-01-08 14:27:47.79	174.11	38.19	-33.7	-35.4	18.7	0.00e+00	0	57	0	1700790272	37	4520
2026-01-08 14:27:51.83	174.46	39.20	-33.5	-35.1	19.0	0.00e+00	0	57	0	1730150400	37	4388
2026-01-08 14:27:55.87	174.82	40.23	-34.1	-35.8	18.3	0.00e+00	0	57	0	1759510528	37	4725
2026-01-08 14:27:59.90	175.21	41.30	-34.2	-35.9	18.4	0.00e+00	0	57	0	1788870656	38	4504
2026-01-08 14:28:03.95	175.63	42.40	-34.1	-35.8	18.5	0.00e+00	0	57	0	1817182208	38	4448
2026-01-08 14:28:07.99	176.07	43.53	-34.5	-36.2	18.1	0.00e+00	0	57	0	1846542336	38	4690
2026-01-08 14:28:12.03	176.55	44.69	-34.7	-36.6	17.7	0.00e+00	0	57	0	1875902464	39	4615
2026-01-08 14:28:16.07	177.06	45.88	-35.1	-36.2	18.6	0.00e+00	0	57	0	1905262592	40	4179
2026-01-08 14:28:20.11	177.61	47.11	-35.1	-36.2	18.6	0.00e+00	0	57	0	1934622720	40	4169
2026-01-08 14:28:24.15	178.20	48.37	-34.9	-36.0	18.7	0.00e+00	0	57	0	1963982848	40	4078
2026-01-08 14:28:28.19	178.85	49.67	-35.4	-36.6	18.2	0.00e+00	0	57	0	1992294400	40	4366
2026-01-08 14:28:32.23	179.55	51.00	-35.8	-37.1	17.7	0.00e+00	0	57	0	2021654528	41	4344
2026-01-08 14:28:36.27	180.32	52.36	-35.8	-37.0	17.8	0.00e+00	0	57	0	2051014656	42	4087
2026-01-08 14:28:40.31	181.15	53.76	-35.6	-36.8	18.0	0.00e+00	0	57	0	2080374784	42	3984
2026-01-08 14:28:44.35	182.08	55.19	-35.8	-37.0	17.8	0.00e+00	0	57	0	2109734912	42	4064
2026-01-08 14:28:48.39	183.10	56.65	-35.9	-37.1	17.7	0.00e+00	0	57	0	2138046464	41	4372
2026-01-08 14:28:52.43	184.24	58.14	-35.8	-37.0	17.8	0.00e+00	0	57	0	2167406592	42	4060
2026-01-08 14:28:56.47	185.51	59.65	-35.8	-37.0	17.9	0.00e+00	0	57	0	2196766720	42	4068
2026-01-08 14:29:00.51	186.93	61.19	-36.2	-37.5	17.3	0.00e+00	0	57	0	2226126848	42	4327
2026-01-08 14:29:04.55	188.54	62.75	-35.5	-36.7	18.1	0.00e+00	0	57	0	2255486976	41	4190
2026-01-08 14:29:08.59	190.38	64.32	-34.7	-35.8	19.0	0.00e+00	0	57	0	2284847104	40	3992
2026-01-08 14:29:12.64	192.49	65.91	-34.5	-35.6	19.2	0.00e+00	0	57	0	2313158656	39	4132
2026-01-08 14:29:16.67	194.91	67.48	-34.2	-35.2	19.6	0.00e+00	0	58	0	2342518784	39	3948
2026-01-08 14:29:20.71	197.74	69.05	-34.1	-35.1	19.7	0.00e+00	0	57	0	2371878912	39	3889
2026-01-08 14:29:24.76	201.06	70.58	-34.5	-35.6	19.2	0.00e+00	0	57	0	2401239040	38	4384
2026-01-08 14:29:28.79	204.96	72.07	-34.4	-35.5	19.3	0.00e+00	0	58	0	2430599168	39	4068
2026-01-08 14:29:32.83	209.59	73.48	-34.4	-35.5	19.2	0.00e+00	0	58	0	2458910720	39	4055
2026-01-08 14:29:36.86	215.08	74.78	-34.0	-35.1	19.7	2.51e-05	0	58	0	2488270848	38	4115
2026-01-08 14:29:40.90	221.58	75.94	-34.0	-35.0	19.7	0.00e+00	0	58	0	2517630976	38	4082
2026-01-08 14:29:44.94	229.19	76.90	-33.7	-34.8	19.9	0.00e+00	0	58	0	2546991104	38	3973
2026-01-08 14:29:48.98	237.85	77.61	-33.6	-34.6	20.1	0.00e+00	0	58	0	2576351232	37	4130
2026-01-08 14:29:53.02	247.36	78.02	-33.4	-34.4	20.2	0.00e+00	0	58	0	2605711360	37	4048
2026-01-08 14:29:57.06	257.25	78.09	-33.1	-34.1	20.5	0.00e+00	0	58	0	2634022912	37	3891
2026-01-08 14:30:01.10	266.97	77.82	-33.0	-34.0	20.6	0.00e+00	0	58	0	2663383040	37	3858
2026-01-08 14:30:05.14	276.01	77.22	-33.5	-34.5	20.1	3.40e-06	0	58	0	2692743168	37	4093
2026-01-08 14:30:09.18	284.05	76.36	-33.5	-34.5	20.1	0.00e+00	0	57	0	2722103296	37	4064
2026-01-08 14:30:13.21	290.98	75.28	-34.1	-35.1	19.5	0.00e+00	0	58	0	2751463424	37	4383
2026-01-08 14:30:17.25	296.87	74.03	-34.4	-35.4	19.3	0.00e+00	0	58	0	2780823552	38	4286
2026-01-08 14:30:21.29	301.83	72.65	-34.6	-35.6	18.9	0.00e+00	0	58	0	2809135104	39	4145
2026-01-08 14:30:25.33	306.01	71.20	-35.4	-36.6	18.1	3.08e-05	0	58	0	2838495232	40	4365
2026-01-08 14:30:29.37	309.55	69.68	-35.0	-36.1	18.6	0.00e+00	0	57	0	2867855360	40	4121
2026-01-08 14:30:33.40	312.55	68.14	-34.5	-35.6	19.1	0.00e+00	0	58	0	2897215488	39	4138
2026-01-08 14:30:37.45	315.14	66.56	-34.4	-35.5	19.2	2.40e-05	0	58	0	2925527040	39	4082
2026-01-08 14:30:41.48	317.36	64.99	-34.5	-35.5	19.3	0.00e+00	0	57	0	2954887168	39	4091
2026-01-08 14:30:45.52	319.29	63.42	-34.6	-35.7	19.1	0.00e+00	0	58	0	2984247296	39	4173
2026-01-08 14:30:49.57	321.00	61.85	-35.3	-36.5	18.3	0.00e+00	0	58	0	3013607424	40	4315
2026-01-08 14:30:53.61	322.49	60.31	-35.9	-37.2	17.6	0.00e+00	0	58	0	3042967552	42	4175
2026-01-08 14:30:57.64	323.82	58.79	-35.7	-36.9	17.8	0.00e+00	0	58	0	3071279104	42	4038
2026-01-08 14:31:01.68	325.01	57.29	-35.6	-36.8	18.0	0.00e+00	0	58	0	3100639232	42	3995
2026-01-08 14:31:05.72	326.07	55.83	-36.3	-37.7	17.2	0.00e+00	0	58	0	3129999360	42	4394
2026-01-08 14:31:09.76	327.04	54.39	-36.3	-37.6	17.3	0.00e+00	0	58	0	3159359488	42	4348
2026-01-08 14:31:13.80	327.91	52.98	-35.6	-36.8	18.0	0.00e+00	0	58	0	3187671040	42	3994
2026-01-08 14:31:17.84	328.70	51.61	-35.6	-36.8	17.8	0.00e+00	0	58	0	3217031168	42	3965
2026-01-08 14:31:21.87	329.43	50.27	-35.5	-36.7	18.1	0.00e+00	0	58	0	3246391296	41	4171
2026-01-08 14:31:25.91	330.10	48.97	-35.6	-36.8	18.0	0.00e+00	0	58	0	3275751424	41	4212
2026-01-08 14:31:29.95	330.71	47.70	-35.0	-36.1	18.6	0.00e+00	0	58	0	3305111552	40	4125
2026-01-08 14:31:33.99	331.28	46.46	-35.1	-36.3	18.5	0.00e+00	0	58	0	3334471680	40	4205
2026-01-08 14:31:38.03	331.81	45.26	-34.6	-35.7	19.1	0.00e+00	0	58	0	3362783232	40	3929
2026-01-08 14:31:42.07	332.30	44.09	-34.4	-35.5	19.3	0.00e+00	0	58	0	3392143360	39	4077
2026-01-08 14:31:46.11	332.76	42.95	-34.7	-35.8	19.0	0.00e+00	0	58	0	3421503488	39	4237
2026-01-08 14:31:50.15	333.19	41.84	-34.5	-35.5	19.3	0.00e+00	0	58	0	3450863616	39	4095
2026-01-08 14:31:54.19	333.59	40.77	-34.4	-35.5	19.1	0.00e+00	0	58	0	3480223744	39	4064
2026-01-08 14:31:58.23	333.96	39.72	-34.8	-35.9	19.0	0.00e+00	0	58	0	3508535296	39	4268
2026-01-08 14:32:02.26	334.32	38.71	-34.9	-36.1	18.7	0.00e+00	0	58	0	3537895424	39	4349
2026-01-08 14:32:06.30	334.65	37.72	-34.7	-35.7	19.0	0.00e+00	0	58	0	3567255552	39	4193
2026-01-08 14:32:10.33	334.96	36.77	-34.3	-35.4	19.4	0.00e+00	0	58	0	3596615680	39	4010
2026-01-08 14:32:14.37	335.26	35.83	-34.3	-35.4	19.4	0.00e+00	0	58	0	3625975808	39	4026
2026-01-08 14:32:18.41	335.55	34.92	-34.5	-35.6	19.2	0.00e+00	0	58	0	3655335936	39	4118
2026-01-08 14:32:22.45	335.81	34.04	-34.3	-35.4	19.4	0.00e+00	0	58	0	3683647488	39	4005
2026-01-08 14:32:26.49	336.07	33.18	-34.2	-35.2	19.5	0.00e+00	0	58	0	3713007616	39	3951
2026-01-08 14:32:30.53	336.31	32.35	-34.2	-35.2	19.5	0.00e+00	0	58	0	3742367744	39	3949
2026-01-08 14:32:34.57	336.54	31.53	-34.4	-35.5	19.3	0.00e+00	0	58	0	3771727872	39	4055
2026-01-08 14:32:38.61	336.77	30.74	-34.5	-35.6	19.1	0.00e+00	0	58	0	3801088000	39	4121
2026-01-08 14:32:42.65	336.98	29.97	-34.5	-35.6	19.1	0.00e+00	0	58	0	3829399552	39	4122
2026-01-08 14:32:46.69	337.18	29.22	-34.5	-35.6	19.1	0.00e+00	0	58	0	3858759680	39	4110
2026-01-08 14:32:50.73	337.38	28.49	-34.6	-35.7	18.9	0.00e+00	0	58	0	3888119808	39	4157
2026-01-08 14:32:54.77	337.56	27.78	-34.7	-35.8	18.8	0.00e+00	0	58	0	3917479936	39	4240
2026-01-08 14:32:58.81	337.74	27.08	-34.8	-36.0	18.6	0.00e+00	0	58	0	3946840064	39	4300
2026-01-08 14:33:02.85	337.91	26.40	-34.8	-35.9	18.6	0.00e+00	0	58	0	3976200192	39	4284
2026-01-08 14:33:06.89	338.08	25.74	-34.7	-35.8	18.7	0.00e+00	0	58	0	4004511744	39	4235
2026-01-08 14:33:10.92	338.24	25.10	-34.5	-35.7	18.9	0.00e+00	0	58	0	4033871872	39	4149
2026-01-08 14:33:14.96	338.39	24.47	-34.6	-35.7	18.7	0.00e+00	0	58	0	4063232000	39	4182
2026-01-08 14:33:19.00	338.54	23.85	-34.7	-35.8	18.6	0.00e+00	0	58	0	4092592128	39	4220
2026-01-08 14:33:23.04	338.69	23.25	-34.6	-35.7	18.6	0.00e+00	0	58	0	4120903680	39	4180
2026-01-08 14:33:27.08	338.83	22.66	-34.7	-35.9	18.4	0.00e+00	0	58	0	4150263808	39	4245
2026-01-08 14:33:31.12	338.96	22.09	-34.7	-35.8	18.3	0.00e+00	0	58	0	4179623936	39	4219
2026-01-08 14:33:35.16	339.09	21.53	-34.7	-35.9	17.9	0.00e+00	0	58	0	4208984064	39	4275
2026-01-08 14:33:39.19	339.22	20.98	-34.5	-35.7	17.8	0.00e+00	0	58	0	4237295616	39	4158
2026-01-08 14:33:43.23	339.34	20.44	-36.2	-37.8	14.8	0.00e+00	0	58	0	4266655744	41	4750
2026-01-08 14:33:47.27	339.46	19.91	-38.6	-41.4	10.6	1.89e-03	0	58	0	4296015872	46	5363
2026-01-08 14:33:51.31	339.57	19.40	-40.6	-45.9	6.0	2.76e-01	0	58	0	4325376000	50	7130
2026-01-08 14:33:55.35	339.69	18.89	-40.6	-45.9	6.0	3.80e-01	0	58	0	4337958912	51	6728
2026-01-08 14:33:59.39	339.80	18.40	-41.0	-47.5	4.9	7.82e-01	0	58	0	4358930432	51	8119
2026-01-08 14:34:03.43	339.90	17.91	-41.1	-47.5	4.9	7.78e-01	0	58	0	4359979008	51	8142
2026-01-08 14:34:07.47	340.01	17.43	-41.0	-48.1	4.5	8.19e-01	0	58	0	4359979008	51	8669
2026-01-08 14:34:11.50	340.11	16.97	-41.1	-48.9	4.2	8.37e-01	0	58	0	4359979008	51	9554
2026-01-08 14:34:15.54	340.20	16.51	-41.1	-49.5	4.1	8.41e-01	0	58	0	4359979008	51	10235
2026-01-08 14:34:19.58	340.30	16.06	-41.1	-50.1	3.8	8.45e-01	0	58	104	4359979008	51	10905
2026-01-08 14:34:23.61	340.39	15.62	-41.2	-50.8	3.8	8.45e-01	0	58	104	4359979008	51	11939
2026-01-08 14:34:27.65	340.48	15.18	-41.0	-50.8	3.8	8.46e-01	0	58	104	4359979008	51	11882
2026-01-08 14:34:31.69	340.57	14.76	-40.8	-51.4	3.8	8.45e-01	0	58	104	4359979008	51	12713
2026-01-08 14:34:35.73	340.66	14.34	-40.7	-51.6	3.8	8.46e-01	0	58	104	4359979008	51	12967
2026-01-08 14:34:39.77	340.75	13.93	-40.4	-51.6	3.8	8.45e-01	0	58	104	4359979008	51	13074
2026-01-08 14:34:43.80	340.83	13.52	-40.6	-51.7	3.8	8.47e-01	0	58	104	4359979008	51	13200
2026-01-08 14:34:47.83	340.91	13.12	-40.1	-51.5	3.8	8.45e-01	0	58	104	4359979008	51	12853
2026-01-08 14:34:51.87	340.99	12.73	-40.4	-51.6	3.8	8.45e-01	0	58	104	4359979008	51	12968
2026-01-08 14:34:55.91	341.07	12.35	-40.3	-51.5	3.8	8.46e-01	0	58	104	4359979008	51	12946
2026-01-08 14:34:59.95	341.15	11.97	-40.5	-51.5	3.8	8.46e-01	0	58	104	4359979008	51	12920
2026-01-08 14:35:03.99	341.22	11.59	-40.6	-51.6	3.8	8.46e-01	0	58	104	4359979008	51	12998
2026-01-08 14:35:08.02	341.29	11.22	-40.6	-51.5	3.8	8.46e-01	0	58	104	4359979008	51	12930
2026-01-08 14:35:12.06	341.37	10.86	-40.6	-51.5	3.8	8.45e-01	0	58	104	4359979008	51	12823
2026-01-08 14:35:16.10	341.44	10.50	-40.3	-51.4	3.8	8.47e-01	0	58	104	4359979008	51	12673
2026-01-08 14:35:20.13	341.51	10.15	-40.5	-51.4	3.8	8.46e-01	0	58	104	4359979008	51	12717
2026-01-08 14:35:24.17	341.58	9.80	-40.3	-51.2	3.8	8.45e-01	0	58	104	4359979008	51	12517
2026-01-08 14:35:28.21	341.64	9.46	-40.7	-51.5	3.8	8.47e-01	0	58	104	4359979008	51	12876
2026-01-08 14:35:32.25	341.71	9.12	-40.4	-51.3	3.8	8.47e-01	0	58	104	4359979008	51	12529
2026-01-08 14:35:36.29	341.77	8.79	-40.6	-51.5	3.8	8.45e-01	0	58	104	4359979008	51	12859
2026-01-08 14:35:40.33	341.84	8.46	-40.5	-51.3	3.8	8.46e-01	0	58	104	4359979008	51	12636
2026-01-08 14:35:44.37	341.90	8.13	-40.6	-51.5	3.8	8.47e-01	0	58	104	4359979008	51	12868
2026-01-08 14:35:48.41	341.96	7.81	-42.3	-53.2	3.8	8.45e-01	0	58	104	4359979008	54	13242
2026-01-08 14:35:52.45	342.02	7.49	-45.4	-56.5	3.8	8.47e-01	0	58	104	4359979008	60	13694
2026-01-08 14:35:56.50	342.08	7.18	-45.4	-56.5	3.8	8.46e-01	0	58	104	4359979008	60	13707
2026-01-08 14:36:00.54	342.14	6.87	-45.3	-56.4	3.8	8.47e-01	0	58	104	4359979008	60	13490
2026-01-08 14:36:04.58	342.20	6.57	-45.3	-56.4	3.8	8.46e-01	0	58	104	4359979008	60	13507
2026-01-08 14:36:08.62	342.26	6.26	-45.3	-56.4	3.8	8.45e-01	0	58	104	4359979008	60	13450
2026-01-08 14:36:12.67	342.32	5.96	-45.3	-56.4	3.8	8.45e-01	0	59	104	4359979008	60	13439
2026-01-08 14:36:16.71	342.37	5.67	-45.2	-56.4	3.8	8.47e-01	0	58	104	4359979008	60	13415
2026-01-08 14:36:20.75	342.43	5.38	-45.3	-56.4	3.8	8.45e-01	0	58	104	4359979008	60	13427
2026-01-08 14:36:24.79	342.48	5.09	-45.2	-56.3	3.8	8.46e-01	0	58	104	4359979008	60	13383
2026-01-08 14:36:28.84	342.53	4.80	-45.2	-56.3	3.8	8.46e-01	0	58	104	4359979008	60	13403
2026-01-08 14:36:32.88	342.59	4.52	-45.2	-56.4	3.8	8.45e-01	0	58	104	4359979008	60	13457
2026-01-08 14:36:36.93	342.64	4.24	-45.2	-56.4	3.8	8.46e-01	0	58	104	4359979008	60	13482
2026-01-08 14:36:40.97	342.69	3.96	-45.2	-56.3	3.8	8.46e-01	0	58	104	4359979008	60	13398
2026-01-08 14:36:45.01	342.74	3.69	-45.2	-56.4	3.8	8.47e-01	0	58	104	4359979008	60	13424
2026-01-08 14:36:49.06	342.79	3.42	-45.2	-56.3	3.8	8.46e-01	0	58	104	4359979008	60	13386
2026-01-08 14:36:53.10	342.84	3.15	-45.2	-56.3	3.8	8.46e-01	0	58	104	4359979008	60	13315
2026-01-08 14:36:57.14	342.89	2.88	-45.2	-56.3	3.8	8.46e-01	0	58	104	4359979008	60	13377
2026-01-08 14:37:01.18	342.94	2.62	-45.2	-56.3	3.8	8.46e-01	0	58	104	4359979008	60	13277
2026-01-08 14:37:05.23	342.99	2.36	-45.2	-56.3	3.8	8.46e-01	0	58	104	4359979008	60	13358
2026-01-08 14:37:09.27	343.04	2.10	-45.2	-56.3	3.8	8.47e-01	0	58	104	4359979008	60	13277

#Closed at: 2026-01-08 14:37:11
#Recorded file [4359 MB]: D:/lorett/data/31039_260108_172244.dat