passes_logs/2026/01/08/R2.0S_Moscow/R2.0S_Moscow__20260108_043221_FENGYUN_3E_rec.log

#Pass ID: 20260108_043221_FENGYUN 3E
#Satellite: FENGYUN 3E
#Configuration: FENGYUN 3E
#almurnet v.1.7.20251203
#Start time: 2026-01-08 04:32:21

#Version: 2.2.20231116
#Station: R2.0S_Moscow
#Location: 37.707566 lon 55.798166 lat
#TLE: 1 49008U 21062A   26006.26767912  .00000427  00000+0  22170-3 0  9993
#TLE: 2 49008  98.7475  11.4982 0001602 156.1158 204.0093 14.19885456233607

#Time	Az	El	Level	Level2	SNR	BER	BlckErr	Temp	State	Recorded	gain1	gain2
2026-01-08 04:32:21.27	13.73	1.99	-42.4	-53.3	3.8	8.46e-01	0	52	0	0	55	12609
2026-01-08 04:32:25.30	13.64	2.25	-42.5	-53.5	3.8	8.46e-01	0	52	104	0	56	12105
2026-01-08 04:32:29.34	13.55	2.50	-42.5	-53.4	3.8	8.45e-01	0	53	104	0	56	12073
2026-01-08 04:32:33.38	13.46	2.76	-42.5	-53.4	3.8	8.46e-01	0	53	104	0	56	12079
2026-01-08 04:32:37.42	13.36	3.03	-42.5	-53.4	3.8	8.46e-01	0	53	104	0	56	12018
2026-01-08 04:32:41.46	13.27	3.29	-42.5	-53.4	3.8	8.46e-01	0	53	104	0	56	12033
2026-01-08 04:32:45.51	13.17	3.56	-42.5	-53.3	3.8	8.47e-01	0	53	104	0	56	11945
2026-01-08 04:32:49.55	13.07	3.83	-42.3	-52.9	3.8	8.46e-01	0	53	104	0	55	12046
2026-01-08 04:32:53.59	12.97	4.10	-42.3	-53.0	3.8	8.46e-01	0	53	104	0	55	12205
2026-01-08 04:32:57.63	12.86	4.38	-42.3	-52.9	3.8	8.46e-01	0	54	104	0	55	12030
2026-01-08 04:33:01.67	12.75	4.65	-42.2	-52.4	3.8	8.46e-01	0	54	104	0	55	11295
2026-01-08 04:33:05.71	12.64	4.93	-42.1	-51.5	3.8	8.45e-01	0	54	104	0	55	10288
2026-01-08 04:33:09.75	12.53	5.22	-42.0	-51.0	3.9	8.44e-01	0	54	104	0	55	9607
2026-01-08 04:33:13.79	12.42	5.50	-42.0	-50.8	4.0	8.45e-01	0	54	104	0	55	9473
2026-01-08 04:33:17.84	12.30	5.79	-42.0	-50.5	4.0	8.44e-01	0	55	104	0	55	9122
2026-01-08 04:33:21.87	12.18	6.08	-42.2	-51.8	3.8	8.45e-01	0	54	104	0	55	10620
2026-01-08 04:33:25.91	12.06	6.38	-42.3	-53.1	3.8	8.46e-01	0	55	104	0	55	12289
2026-01-08 04:33:29.95	11.93	6.68	-41.2	-47.0	5.4	7.61e-01	0	55	0	0	53	6854
2026-01-08 04:33:33.99	11.81	6.98	-39.1	-42.1	9.9	1.30e-02	0	55	0	27262976	49	4917
2026-01-08 04:33:38.03	11.67	7.29	-37.6	-39.9	12.2	2.75e-04	0	55	0	55574528	46	4509
2026-01-08 04:33:42.07	11.54	7.59	-37.5	-39.7	12.3	2.02e-04	0	55	0	84934656	45	4695
2026-01-08 04:33:46.11	11.40	7.91	-38.5	-41.3	10.6	3.32e-03	0	55	0	114294784	46	5323
2026-01-08 04:33:50.14	11.26	8.22	-39.5	-43.6	7.8	7.41e-02	0	55	0	143654912	48	6140
2026-01-08 04:33:54.18	11.12	8.54	-39.8	-44.0	7.6	8.10e-02	0	55	0	161480704	50	5747
2026-01-08 04:33:58.22	10.97	8.87	-39.9	-44.5	7.1	1.28e-01	0	55	0	190840832	50	6074
2026-01-08 04:34:02.26	10.82	9.20	-40.1	-44.9	6.6	1.89e-01	0	55	0	220200960	50	6407
2026-01-08 04:34:06.30	10.66	9.53	-40.5	-46.3	5.5	6.64e-01	0	55	0	245366784	50	7460
2026-01-08 04:34:10.34	10.50	9.86	-40.8	-47.6	4.7	7.99e-01	0	56	0	249561088	51	8264
2026-01-08 04:34:14.38	10.34	10.21	-40.8	-48.6	4.3	8.36e-01	0	56	0	249561088	51	9186
2026-01-08 04:34:18.42	10.17	10.55	-40.1	-46.5	5.0	7.78e-01	0	56	0	250609664	51	7217
2026-01-08 04:34:22.45	9.99	10.90	-40.3	-45.5	6.0	3.38e-01	0	56	0	269484032	51	6484
2026-01-08 04:34:26.49	9.82	11.26	-40.1	-43.8	8.6	5.97e-02	0	56	0	298844160	51	5287
2026-01-08 04:34:30.53	9.64	11.62	-37.9	-40.0	12.7	1.25e-04	0	56	0	328204288	46	4593
2026-01-08 04:34:34.57	9.45	11.98	-35.7	-37.2	15.6	0.00e+00	0	56	0	356515840	42	4170
2026-01-08 04:34:38.61	9.26	12.35	-35.7	-37.2	15.8	0.00e+00	0	56	0	385875968	42	4167
2026-01-08 04:34:42.65	9.06	12.73	-35.9	-37.4	15.8	1.10e-06	0	56	0	415236096	42	4269
2026-01-08 04:34:46.68	8.86	13.11	-35.8	-37.2	16.1	0.00e+00	0	56	0	444596224	42	4182
2026-01-08 04:34:50.72	8.65	13.49	-35.8	-37.2	16.3	0.00e+00	0	56	0	473956352	42	4188
2026-01-08 04:34:54.76	8.43	13.89	-36.0	-37.4	16.3	0.00e+00	0	56	0	502267904	42	4272
2026-01-08 04:34:58.80	8.21	14.28	-35.6	-36.9	17.1	0.00e+00	0	56	0	531628032	42	4028
2026-01-08 04:35:02.84	7.98	14.69	-35.4	-36.7	17.5	0.00e+00	0	56	0	560988160	41	4152
2026-01-08 04:35:06.88	7.75	15.10	-35.3	-36.6	17.6	0.00e+00	0	56	0	590348288	41	4102
2026-01-08 04:35:10.91	7.51	15.52	-35.4	-36.6	17.7	0.00e+00	0	56	0	618659840	41	4122
2026-01-08 04:35:14.96	7.26	15.94	-35.3	-36.5	17.8	0.00e+00	0	56	0	648019968	41	4089
2026-01-08 04:35:19.00	7.00	16.37	-35.1	-36.3	18.0	0.00e+00	0	56	0	677380096	41	4002
2026-01-08 04:35:23.04	6.74	16.81	-34.9	-36.1	18.3	0.00e+00	0	56	0	706740224	40	4127
2026-01-08 04:35:27.08	6.47	17.26	-34.9	-36.1	18.3	0.00e+00	0	56	0	736100352	40	4100
2026-01-08 04:35:31.12	6.18	17.71	-34.7	-35.8	18.6	0.00e+00	0	56	0	765460480	40	3999
2026-01-08 04:35:35.16	5.89	18.17	-34.6	-35.7	18.7	0.00e+00	0	56	0	793772032	40	3956
2026-01-08 04:35:39.20	5.59	18.64	-34.5	-35.6	19.0	0.00e+00	0	57	0	823132160	39	4115
2026-01-08 04:35:43.23	5.28	19.12	-34.5	-35.7	18.9	0.00e+00	0	56	0	852492288	39	4150
2026-01-08 04:35:47.27	4.96	19.60	-34.7	-35.9	18.7	0.00e+00	0	56	0	881852416	39	4254
2026-01-08 04:35:51.32	4.63	20.10	-34.7	-35.9	18.7	0.00e+00	0	57	0	911212544	39	4251
2026-01-08 04:35:55.36	4.29	20.60	-34.7	-35.9	18.8	0.00e+00	0	57	0	939524096	39	4243
2026-01-08 04:35:59.40	3.93	21.11	-34.7	-35.8	18.8	0.00e+00	0	56	0	968884224	39	4233
2026-01-08 04:36:03.44	3.57	21.64	-34.5	-35.6	19.0	0.00e+00	0	56	0	998244352	39	4107
2026-01-08 04:36:07.48	3.19	22.17	-34.3	-35.4	19.3	0.00e+00	0	57	0	1027604480	39	4016
2026-01-08 04:36:11.52	2.79	22.71	-34.2	-35.3	19.4	0.00e+00	0	57	0	1056964608	39	3971
2026-01-08 04:36:15.56	2.38	23.26	-34.1	-35.2	19.5	0.00e+00	0	56	0	1085276160	39	3937
2026-01-08 04:36:19.61	1.96	23.82	-34.2	-35.3	19.4	0.00e+00	0	56	0	1114636288	39	3974
2026-01-08 04:36:23.65	1.52	24.40	-34.3	-35.3	19.3	0.00e+00	0	57	0	1143996416	39	4004
2026-01-08 04:36:27.69	1.06	24.98	-33.9	-34.9	19.7	0.00e+00	0	57	0	1173356544	38	4051
2026-01-08 04:36:31.73	0.58	25.57	-33.8	-34.8	19.9	0.00e+00	0	57	0	1202716672	38	3987
2026-01-08 04:36:35.77	0.09	26.18	-33.7	-34.8	19.9	0.00e+00	0	57	0	1232076800	38	3972
2026-01-08 04:36:39.81	359.57	26.80	-33.7	-34.7	20.0	0.00e+00	0	57	0	1260388352	38	3929
2026-01-08 04:36:43.85	359.04	27.43	-33.5	-34.5	20.2	0.00e+00	0	57	0	1289748480	37	4082
2026-01-08 04:36:47.89	358.48	28.07	-33.4	-34.4	20.3	0.00e+00	0	57	0	1319108608	37	4045
2026-01-08 04:36:51.93	357.90	28.72	-33.5	-34.5	20.3	0.00e+00	0	57	0	1348468736	37	4070
2026-01-08 04:36:55.96	357.29	29.38	-33.7	-34.7	20.1	0.00e+00	0	57	0	1377828864	37	4155
2026-01-08 04:37:00.00	356.66	30.06	-33.6	-34.6	20.2	0.00e+00	0	57	0	1406140416	37	4117
2026-01-08 04:37:04.04	356.00	30.75	-33.8	-34.8	19.9	0.00e+00	0	57	0	1435500544	37	4234
2026-01-08 04:37:08.08	355.31	31.45	-33.8	-34.9	19.9	0.00e+00	0	57	0	1464860672	37	4258
2026-01-08 04:37:12.12	354.59	32.16	-33.6	-34.6	20.2	0.00e+00	0	57	0	1494220800	37	4122
2026-01-08 04:37:16.15	353.83	32.89	-33.2	-34.2	20.6	0.00e+00	0	57	0	1523580928	37	3932
2026-01-08 04:37:20.19	353.04	33.62	-33.1	-34.1	20.7	0.00e+00	0	57	0	1552941056	36	4130
2026-01-08 04:37:24.23	352.22	34.37	-33.3	-34.2	20.5	0.00e+00	0	57	0	1581252608	36	4191
2026-01-08 04:37:28.27	351.35	35.13	-33.4	-34.4	20.4	0.00e+00	0	57	0	1610612736	37	4011
2026-01-08 04:37:32.31	350.44	35.90	-33.4	-34.4	20.4	0.00e+00	0	57	0	1639972864	36	4281
2026-01-08 04:37:36.35	349.48	36.68	-33.4	-34.4	20.4	0.00e+00	0	57	0	1669332992	36	4268
2026-01-08 04:37:40.39	348.48	37.47	-33.4	-34.4	20.5	0.00e+00	0	57	0	1698693120	37	4026
2026-01-08 04:37:44.43	347.43	38.27	-33.2	-34.2	20.6	0.00e+00	0	57	0	1727004672	36	4176
2026-01-08 04:37:48.46	346.32	39.07	-33.5	-34.5	20.4	0.00e+00	0	57	0	1756364800	37	4089
2026-01-08 04:37:52.51	345.15	39.89	-33.7	-34.8	20.1	0.00e+00	0	57	0	1785724928	37	4196
2026-01-08 04:37:56.54	343.93	40.70	-33.7	-34.7	20.1	0.00e+00	0	57	0	1815085056	37	4188
2026-01-08 04:38:00.59	342.64	41.52	-33.6	-34.6	20.3	0.00e+00	0	57	0	1844445184	37	4134
2026-01-08 04:38:04.63	341.28	42.34	-33.8	-34.8	20.2	0.00e+00	0	57	0	1873805312	38	3964
2026-01-08 04:38:08.67	339.85	43.16	-33.7	-34.7	20.2	0.00e+00	0	57	0	1902116864	37	4176
2026-01-08 04:38:12.71	338.34	43.98	-33.3	-34.3	20.6	0.00e+00	0	57	0	1931476992	37	3993
2026-01-08 04:38:16.75	336.76	44.79	-33.8	-34.9	20.1	0.00e+00	0	57	0	1960837120	37	4246
2026-01-08 04:38:20.79	335.09	45.59	-33.8	-34.8	20.1	0.00e+00	0	57	0	1990197248	37	4206
2026-01-08 04:38:24.83	333.34	46.38	-33.7	-34.7	20.2	0.00e+00	0	57	0	2019557376	37	4161
2026-01-08 04:38:28.87	331.49	47.15	-34.5	-35.6	19.4	0.00e+00	0	57	0	2047868928	38	4365
2026-01-08 04:38:32.91	329.56	47.90	-34.8	-35.9	19.1	0.00e+00	0	57	0	2077229056	39	4248
2026-01-08 04:38:36.95	327.52	48.62	-34.6	-35.7	19.3	0.00e+00	0	57	0	2106589184	39	4165
2026-01-08 04:38:40.99	325.39	49.32	-34.7	-35.8	19.2	0.00e+00	0	57	0	2135949312	39	4231
2026-01-08 04:38:45.03	323.17	49.98	-35.2	-36.3	18.6	0.00e+00	0	57	0	2165309440	40	4230
2026-01-08 04:38:49.07	320.84	50.61	-34.8	-35.9	19.0	0.00e+00	0	57	0	2193620992	40	4006
2026-01-08 04:38:53.12	318.42	51.19	-35.1	-36.2	18.8	0.00e+00	0	57	0	2222981120	39	4396
2026-01-08 04:38:57.16	315.90	51.72	-35.5	-36.7	18.3	0.00e+00	0	57	0	2252341248	41	4162
2026-01-08 04:39:01.20	313.30	52.20	-34.5	-35.5	19.4	0.00e+00	0	57	0	2281701376	39	4094
2026-01-08 04:39:05.24	310.63	52.61	-34.7	-35.8	19.1	0.00e+00	0	57	0	2311061504	39	4222
2026-01-08 04:39:09.28	307.87	52.97	-34.3	-35.4	19.6	0.00e+00	0	57	0	2340421632	38	4253
2026-01-08 04:39:13.32	305.06	53.26	-34.7	-35.8	19.1	0.00e+00	0	57	0	2368733184	39	4229
2026-01-08 04:39:17.36	302.20	53.47	-34.3	-35.4	19.5	0.00e+00	0	57	0	2398093312	39	4023
2026-01-08 04:39:21.41	299.29	53.62	-34.5	-35.5	19.4	0.00e+00	0	57	0	2427453440	39	4093
2026-01-08 04:39:25.45	296.37	53.68	-34.3	-35.3	19.6	0.00e+00	0	57	0	2456813568	39	3994
2026-01-08 04:39:29.49	293.45	53.68	-34.6	-35.6	19.3	0.00e+00	0	57	0	2486173696	39	4136
2026-01-08 04:39:33.53	290.53	53.59	-34.2	-35.2	19.7	0.00e+00	0	57	0	2515533824	39	3947
2026-01-08 04:39:37.57	287.63	53.43	-34.0	-35.0	19.9	0.00e+00	0	57	0	2543845376	38	4095
2026-01-08 04:39:41.61	284.78	53.20	-34.5	-35.6	19.4	0.00e+00	0	57	0	2573205504	38	4353
2026-01-08 04:39:45.65	281.97	52.90	-33.8	-34.8	20.1	0.00e+00	0	57	0	2602565632	38	4002
2026-01-08 04:39:49.69	279.23	52.53	-34.6	-35.7	19.2	0.00e+00	0	57	0	2631925760	39	4175
2026-01-08 04:39:53.73	276.56	52.10	-34.1	-35.1	19.8	0.00e+00	0	57	0	2661285888	38	4130
2026-01-08 04:39:57.77	273.98	51.62	-34.1	-35.1	19.8	0.00e+00	0	57	0	2689597440	38	4137
2026-01-08 04:40:01.82	271.47	51.07	-34.7	-35.8	19.2	0.00e+00	0	57	0	2718957568	39	4210
2026-01-08 04:40:05.86	269.07	50.48	-34.4	-35.4	19.5	0.00e+00	0	57	0	2748317696	39	4036
2026-01-08 04:40:09.89	266.76	49.85	-34.4	-35.4	19.5	0.00e+00	0	57	0	2777677824	39	4041
2026-01-08 04:40:13.94	264.55	49.17	-33.9	-34.9	20.0	0.00e+00	0	57	0	2807037952	38	4021
2026-01-08 04:40:17.97	262.44	48.47	-34.5	-35.5	19.4	0.00e+00	0	57	0	2836398080	38	4319
2026-01-08 04:40:22.01	260.42	47.74	-33.6	-34.6	20.3	0.00e+00	0	57	0	2864709632	38	3885
2026-01-08 04:40:26.05	258.49	46.98	-34.1	-35.2	19.8	0.00e+00	0	57	0	2894069760	38	4151
2026-01-08 04:40:30.09	256.66	46.20	-33.5	-34.5	20.4	0.00e+00	0	57	0	2923429888	38	3848
2026-01-08 04:40:34.13	254.92	45.41	-33.6	-34.6	20.4	0.00e+00	0	57	0	2952790016	38	3877
2026-01-08 04:40:38.17	253.27	44.60	-33.5	-34.5	20.3	0.00e+00	0	57	0	2982150144	38	3867
2026-01-08 04:40:42.21	251.69	43.79	-33.8	-34.8	20.1	0.00e+00	0	57	0	3010461696	37	4215
2026-01-08 04:40:46.25	250.20	42.97	-33.4	-34.4	20.4	0.00e+00	0	57	0	3039821824	37	4037
2026-01-08 04:40:50.29	248.78	42.14	-33.4	-34.4	20.4	0.00e+00	0	57	0	3069181952	37	4008
2026-01-08 04:40:54.32	247.43	41.32	-33.5	-34.5	20.4	0.00e+00	0	57	0	3098542080	37	4091
2026-01-08 04:40:58.36	246.15	40.50	-33.4	-34.4	20.5	0.00e+00	0	57	0	3127902208	37	4047
2026-01-08 04:41:02.40	244.94	39.68	-33.1	-34.1	20.8	0.00e+00	0	57	0	3156213760	37	3901
2026-01-08 04:41:06.44	243.78	38.86	-33.5	-34.5	20.4	0.00e+00	0	57	0	3185573888	37	4058
2026-01-08 04:41:10.48	242.68	38.06	-33.5	-34.5	20.4	0.00e+00	0	57	0	3214934016	37	4077
2026-01-08 04:41:14.52	241.63	37.26	-32.8	-33.7	21.0	0.00e+00	0	57	0	3244294144	36	3946
2026-01-08 04:41:18.56	240.63	36.46	-33.5	-34.4	20.4	0.00e+00	0	57	0	3273654272	36	4291
2026-01-08 04:41:22.60	239.68	35.68	-33.2	-34.2	20.6	0.00e+00	0	57	0	3301965824	36	4183
2026-01-08 04:41:26.64	238.78	34.91	-33.1	-34.1	20.7	0.00e+00	0	57	0	3331325952	36	4115
2026-01-08 04:41:30.68	237.92	34.15	-32.9	-33.9	20.9	0.00e+00	0	57	0	3360686080	36	4033
2026-01-08 04:41:34.72	237.09	33.40	-33.1	-34.1	20.7	0.00e+00	0	57	0	3390046208	36	4112
2026-01-08 04:41:38.76	236.31	32.66	-33.1	-34.1	20.8	0.00e+00	0	57	0	3419406336	36	4119
2026-01-08 04:41:42.80	235.55	31.94	-33.2	-34.2	20.6	0.00e+00	0	57	0	3447717888	36	4164
2026-01-08 04:41:46.84	234.83	31.22	-33.1	-34.0	20.8	0.00e+00	0	57	0	3477078016	36	4091
2026-01-08 04:41:50.88	234.15	30.52	-33.0	-34.0	20.8	0.00e+00	0	57	0	3506438144	36	4082
2026-01-08 04:41:54.92	233.49	29.83	-33.3	-34.2	20.6	0.00e+00	0	57	0	3535798272	36	4189
2026-01-08 04:41:58.96	232.86	29.15	-33.4	-34.5	20.3	0.00e+00	0	57	0	3565158400	36	4294
2026-01-08 04:42:03.00	232.25	28.49	-33.4	-34.4	20.3	0.00e+00	0	57	0	3593469952	36	4288
2026-01-08 04:42:07.04	231.67	27.83	-33.6	-34.6	20.2	0.00e+00	0	57	0	3622830080	36	4352
2026-01-08 04:42:11.08	231.12	27.19	-33.5	-34.5	20.3	0.00e+00	0	57	0	3652190208	36	4302
2026-01-08 04:42:15.12	230.58	26.56	-33.5	-34.5	20.3	0.00e+00	0	57	0	3681550336	36	4307
2026-01-08 04:42:19.16	230.07	25.95	-33.7	-34.7	20.1	0.00e+00	0	57	0	3710910464	36	4420
2026-01-08 04:42:23.20	229.58	25.34	-33.6	-34.6	20.1	0.00e+00	0	57	0	3739222016	36	4386
2026-01-08 04:42:27.24	229.10	24.75	-33.4	-34.4	20.3	0.00e+00	0	57	0	3768582144	36	4291
2026-01-08 04:42:31.28	228.65	24.16	-33.4	-34.4	20.4	0.00e+00	0	57	0	3797942272	36	4249
2026-01-08 04:42:35.32	228.20	23.59	-33.4	-34.4	20.3	0.00e+00	0	57	0	3827302400	36	4260
2026-01-08 04:42:39.36	227.78	23.03	-33.8	-34.9	19.8	0.00e+00	0	57	0	3856662528	37	4256
2026-01-08 04:42:43.40	227.37	22.48	-34.2	-35.2	19.5	0.00e+00	0	57	0	3884974080	37	4437
2026-01-08 04:42:47.44	226.98	21.93	-34.0	-35.1	19.6	0.00e+00	0	57	0	3914334208	37	4368
2026-01-08 04:42:51.47	226.60	21.40	-33.8	-34.8	19.9	0.00e+00	0	57	0	3943694336	37	4218
2026-01-08 04:42:55.52	226.23	20.88	-33.8	-34.8	19.9	0.00e+00	0	57	0	3973054464	37	4209
2026-01-08 04:42:59.55	225.87	20.37	-34.0	-35.1	19.6	0.00e+00	0	57	0	4002414592	37	4351
2026-01-08 04:43:03.59	225.53	19.87	-34.3	-35.4	19.3	0.00e+00	0	57	0	4031774720	38	4262
2026-01-08 04:43:07.64	225.20	19.37	-34.6	-35.7	19.0	0.00e+00	0	57	0	4060086272	38	4409
2026-01-08 04:43:11.68	224.88	18.88	-34.7	-35.8	18.9	0.00e+00	0	57	0	4089446400	39	4236
2026-01-08 04:43:15.72	224.56	18.41	-34.8	-35.9	18.8	0.00e+00	0	57	0	4118806528	39	4257
2026-01-08 04:43:19.76	224.26	17.94	-34.7	-35.8	18.8	0.00e+00	0	57	0	4148166656	39	4236
2026-01-08 04:43:23.80	223.97	17.48	-34.6	-35.7	18.9	0.00e+00	0	57	0	4177526784	39	4163
2026-01-08 04:43:27.84	223.69	17.02	-34.6	-35.7	18.9	0.00e+00	0	57	0	4205838336	39	4151
2026-01-08 04:43:31.88	223.41	16.58	-34.6	-35.7	18.9	0.00e+00	0	57	0	4235198464	39	4172
2026-01-08 04:43:35.92	223.15	16.14	-34.7	-35.8	18.8	0.00e+00	0	57	0	4264558592	39	4222
2026-01-08 04:43:39.97	222.89	15.71	-34.8	-35.9	18.6	0.00e+00	0	57	0	4293918720	39	4291
2026-01-08 04:43:44.01	222.64	15.28	-35.0	-36.1	18.4	0.00e+00	0	57	0	4323278848	39	4390
2026-01-08 04:43:48.05	222.40	14.87	-35.1	-36.3	18.3	0.00e+00	0	57	0	4352638976	39	4449
2026-01-08 04:43:52.09	222.16	14.45	-35.2	-36.4	18.1	0.00e+00	0	57	0	4380950528	40	4249
2026-01-08 04:43:56.13	221.93	14.05	-35.3	-36.5	17.9	0.00e+00	0	57	0	4410310656	40	4340
2026-01-08 04:44:00.17	221.71	13.65	-35.5	-36.8	17.6	0.00e+00	0	57	0	4439670784	40	4453
2026-01-08 04:44:04.21	221.49	13.26	-35.6	-36.9	17.5	0.00e+00	0	57	0	4469030912	40	4530
2026-01-08 04:44:08.24	221.28	12.87	-35.9	-37.2	17.2	0.00e+00	0	57	0	4498391040	41	4396
2026-01-08 04:44:12.28	221.07	12.49	-36.0	-37.3	17.0	0.00e+00	0	57	0	4526702592	41	4476
2026-01-08 04:44:16.32	220.87	12.12	-36.5	-37.8	16.5	0.00e+00	0	57	0	4556062720	42	4490
2026-01-08 04:44:20.36	220.68	11.75	-36.6	-38.1	16.3	0.00e+00	0	57	0	4585422848	43	4343
2026-01-08 04:44:24.40	220.49	11.38	-36.6	-38.0	16.2	0.00e+00	0	58	0	4614782976	43	4339
2026-01-08 04:44:28.44	220.30	11.02	-36.4	-37.8	16.5	0.00e+00	0	57	0	4644143104	43	4212
2026-01-08 04:44:32.48	220.12	10.67	-36.5	-37.9	16.3	0.00e+00	0	57	0	4673503232	43	4279
2026-01-08 04:44:36.52	219.95	10.32	-36.7	-38.1	16.1	0.00e+00	0	57	0	4701814784	43	4384
2026-01-08 04:44:40.56	219.78	9.97	-36.6	-38.1	16.0	0.00e+00	0	57	0	4731174912	43	4357
2026-01-08 04:44:44.61	219.61	9.63	-36.7	-38.1	16.0	0.00e+00	0	57	0	4760535040	43	4383
2026-01-08 04:44:48.65	219.44	9.29	-36.8	-38.3	15.8	0.00e+00	0	57	0	4789895168	43	4455
2026-01-08 04:44:52.69	219.29	8.96	-36.8	-38.2	15.8	0.00e+00	0	57	0	4819255296	43	4434
2026-01-08 04:44:56.73	219.13	8.63	-36.8	-38.3	15.7	0.00e+00	0	57	0	4847566848	43	4479
2026-01-08 04:45:00.77	218.98	8.31	-36.9	-38.4	15.6	0.00e+00	0	57	0	4876926976	43	4500
2026-01-08 04:45:04.81	218.83	7.99	-44.5	-53.2	4.0	3.97e-01	0	57	0	4905238528	58	10514
2026-01-08 04:45:08.85	218.69	7.67	-45.4	-56.6	3.8	8.46e-01	0	57	104	4905238528	60	13809
2026-01-08 04:45:12.89	218.54	7.36	-45.6	-56.8	3.8	8.47e-01	0	58	104	4905238528	60	14056
2026-01-08 04:45:16.93	218.41	7.05	-45.5	-56.7	3.8	8.46e-01	0	57	104	4905238528	60	13923
2026-01-08 04:45:20.98	218.27	6.74	-45.5	-56.7	3.8	8.46e-01	0	58	104	4905238528	60	13944
2026-01-08 04:45:25.01	218.14	6.44	-45.5	-56.6	3.8	8.47e-01	0	57	104	4905238528	60	13836
2026-01-08 04:45:29.05	218.01	6.14	-45.5	-56.6	3.8	8.47e-01	0	58	104	4905238528	60	13797
2026-01-08 04:45:33.10	217.88	5.85	-45.5	-56.6	3.8	8.46e-01	0	57	104	4905238528	60	13771
2026-01-08 04:45:37.13	217.76	5.55	-45.5	-56.6	3.8	8.46e-01	0	57	104	4905238528	60	13780
2026-01-08 04:45:41.18	217.64	5.26	-45.5	-56.6	3.8	8.47e-01	0	57	104	4905238528	60	13735
2026-01-08 04:45:45.22	217.52	4.98	-45.5	-56.6	3.8	8.45e-01	0	57	104	4905238528	60	13805
2026-01-08 04:45:49.26	217.40	4.70	-45.5	-56.6	3.8	8.46e-01	0	57	104	4905238528	60	13776
2026-01-08 04:45:53.30	217.29	4.41	-45.5	-56.6	3.8	8.46e-01	0	58	104	4905238528	60	13746
2026-01-08 04:45:57.34	217.18	4.14	-45.4	-56.5	3.8	8.46e-01	0	57	104	4905238528	60	13661
2026-01-08 04:46:01.38	217.07	3.86	-45.4	-56.5	3.8	8.46e-01	0	57	104	4905238528	60	13668
2026-01-08 04:46:05.43	216.96	3.59	-45.4	-56.5	3.8	8.46e-01	0	58	104	4905238528	60	13658
2026-01-08 04:46:09.47	216.86	3.32	-45.4	-56.5	3.8	8.46e-01	0	57	104	4905238528	60	13702
2026-01-08 04:46:13.51	216.75	3.05	-45.4	-56.5	3.8	8.46e-01	0	57	104	4905238528	60	13664
2026-01-08 04:46:17.55	216.65	2.79	-45.4	-56.5	3.8	8.45e-01	0	58	104	4905238528	60	13708
2026-01-08 04:46:21.60	216.55	2.53	-45.4	-56.5	3.8	8.45e-01	0	58	104	4905238528	60	13636
2026-01-08 04:46:25.64	216.46	2.27	-45.4	-56.5	3.8	8.46e-01	0	57	104	4905238528	60	13648
2026-01-08 04:46:29.68	216.36	2.01	-45.4	-56.5	3.8	8.46e-01	0	58	104	4905238528	60	13652

#Closed at: 2026-01-08 04:46:30
#Recorded file [4905 MB]: D:/lorett/data/31039_260108_073221.dat