passes_logs/2026/01/08/R2.0S_Moscow/R2.0S_Moscow__20260108_122314_AQUA_rec.log

#Pass ID: 20260108_122314_AQUA
#Satellite: AQUA
#Configuration: AQUA
#almurnet v.1.7.20251203
#Start time: 2026-01-08 12:23:15

#Version: 2.2.20231116
#Station: R2.0S_Moscow
#Location: 37.707566 lon 55.798166 lat
#TLE: 1 27424U 02022A   26004.96787593  .00001598  00000+0  32997-3 0  9996
#TLE: 2 27424  98.4069 331.2279 0002002  90.2377   0.6092 14.61798176259425

#Time	Az	El	Level	Level2	SNR	BER	BlckErr	Temp	State	Recorded	gain1	gain2
2026-01-08 12:23:15.09	184.39	2.02	-44.8	-63.5	3.8	7.47e-01	0	48	0	0	61	30586
2026-01-08 12:23:18.12	184.52	2.22	-44.8	-63.5	3.8	7.48e-01	0	49	104	0	60	32412
2026-01-08 12:23:21.16	184.65	2.41	-44.8	-63.5	3.8	7.47e-01	0	49	104	0	60	32463
2026-01-08 12:23:24.19	184.78	2.61	-44.8	-63.5	3.8	7.45e-01	0	49	104	0	60	32410
2026-01-08 12:23:27.22	184.92	2.81	-44.8	-63.5	3.8	7.40e-01	0	49	104	0	60	32381
2026-01-08 12:23:30.25	185.06	3.01	-44.8	-63.5	3.8	7.42e-01	0	49	104	0	60	32492
2026-01-08 12:23:33.28	185.20	3.21	-44.8	-63.5	3.8	7.45e-01	0	49	104	0	60	32419
2026-01-08 12:23:36.31	185.34	3.42	-44.8	-63.5	3.8	7.46e-01	0	50	104	0	60	32334
2026-01-08 12:23:39.34	185.48	3.62	-44.8	-63.5	3.8	7.44e-01	0	50	104	0	60	32322
2026-01-08 12:23:42.38	185.63	3.83	-44.8	-63.5	3.8	7.45e-01	0	50	104	0	60	32260
2026-01-08 12:23:45.41	185.78	4.04	-44.8	-63.4	3.8	7.47e-01	0	50	104	0	60	32057
2026-01-08 12:23:48.44	185.93	4.25	-44.7	-63.1	3.8	7.46e-01	0	51	104	0	60	30985
2026-01-08 12:23:51.47	186.08	4.46	-44.7	-62.4	3.8	7.45e-01	0	51	104	0	60	28633
2026-01-08 12:23:54.50	186.23	4.68	-44.7	-61.8	3.9	7.45e-01	0	51	104	0	60	26509
2026-01-08 12:23:57.54	186.39	4.89	-44.7	-62.0	3.8	7.46e-01	0	51	104	0	60	27342
2026-01-08 12:24:00.57	186.55	5.11	-44.7	-61.8	3.8	7.44e-01	0	51	104	0	60	26615
2026-01-08 12:24:03.60	186.71	5.33	-44.7	-62.2	3.8	7.46e-01	0	51	104	0	60	27788
2026-01-08 12:24:06.63	186.88	5.55	-44.7	-62.4	3.8	7.45e-01	0	52	104	0	60	28589
2026-01-08 12:24:09.66	187.04	5.77	-44.7	-61.8	3.8	7.44e-01	0	52	104	0	60	26576
2026-01-08 12:24:12.70	187.21	6.00	-44.5	-58.9	4.0	7.35e-01	0	52	104	0	60	19153
2026-01-08 12:24:15.73	187.39	6.23	-44.3	-55.3	6.9	6.66e-01	92	52	0	2621440	60	12639
2026-01-08 12:24:18.76	187.56	6.46	-44.0	-53.1	9.1	6.30e-01	0	52	0	8388608	60	9756
2026-01-08 12:24:21.79	187.74	6.69	-43.9	-51.4	11.2	6.15e-01	0	52	0	14155776	59	8561
2026-01-08 12:24:24.82	187.92	6.92	-43.6	-50.1	12.7	6.12e-01	0	53	0	19922944	59	7290
2026-01-08 12:24:27.85	188.11	7.16	-43.1	-48.6	14.2	6.09e-01	0	53	0	25690112	58	6542
2026-01-08 12:24:30.88	188.29	7.39	-42.6	-47.2	15.6	6.07e-01	0	53	0	31457280	57	5856
2026-01-08 12:24:33.91	188.48	7.63	-41.8	-45.6	17.1	6.07e-01	0	53	0	36700160	55	5527
2026-01-08 12:24:36.94	188.68	7.88	-41.5	-45.2	17.6	6.06e-01	0	53	0	42467328	55	5231
2026-01-08 12:24:39.97	188.87	8.12	-41.9	-45.9	17.0	6.06e-01	0	53	0	48234496	55	5670
2026-01-08 12:24:43.00	189.08	8.37	-43.3	-48.7	14.2	6.08e-01	0	53	0	52428800	57	7025
2026-01-08 12:24:46.03	189.28	8.62	-41.2	-44.4	18.5	6.06e-01	0	53	0	58195968	54	5087
2026-01-08 12:24:49.06	189.49	8.87	-41.0	-44.1	18.9	6.05e-01	0	53	0	63963136	53	5179
2026-01-08 12:24:52.09	189.70	9.13	-41.1	-44.2	18.8	6.06e-01	0	53	0	69730304	53	5266
2026-01-08 12:24:55.12	189.91	9.38	-41.0	-44.1	18.9	6.05e-01	0	54	0	74973184	53	5211
2026-01-08 12:24:58.14	190.13	9.64	-41.0	-44.0	19.1	6.05e-01	0	54	0	80740352	53	5119
2026-01-08 12:25:01.17	190.36	9.90	-40.9	-43.8	19.3	6.06e-01	0	54	0	86507520	53	5036
2026-01-08 12:25:04.20	190.59	10.17	-40.8	-43.6	19.5	6.07e-01	0	54	0	92274688	53	4916
2026-01-08 12:25:07.23	190.82	10.44	-40.8	-43.6	19.5	6.05e-01	0	54	0	98041856	53	4926
2026-01-08 12:25:10.26	191.05	10.71	-40.8	-43.7	19.5	6.06e-01	0	54	0	103284736	53	4965
2026-01-08 12:25:13.29	191.30	10.98	-40.8	-43.7	19.5	6.04e-01	0	54	0	109051904	53	4932
2026-01-08 12:25:16.32	191.54	11.26	-40.7	-43.4	19.8	6.06e-01	0	54	0	114819072	53	4810
2026-01-08 12:25:19.35	191.79	11.54	-40.6	-43.4	19.8	6.08e-01	0	54	0	120586240	53	4792
2026-01-08 12:25:22.38	192.05	11.83	-40.6	-43.2	20.0	6.07e-01	0	54	0	126353408	53	4705
2026-01-08 12:25:25.41	192.31	12.11	-40.5	-43.2	20.1	6.07e-01	0	54	0	132120576	52	4952
2026-01-08 12:25:28.43	192.57	12.40	-40.6	-43.4	19.9	6.06e-01	0	55	0	137363456	52	5046
2026-01-08 12:25:31.46	192.85	12.69	-40.6	-43.3	20.0	6.08e-01	0	55	0	143130624	52	5004
2026-01-08 12:25:34.49	193.12	12.99	-40.4	-43.1	20.3	6.07e-01	0	55	0	148897792	52	4881
2026-01-08 12:25:37.51	193.41	13.29	-40.5	-43.1	20.2	6.06e-01	0	55	0	154664960	52	4924
2026-01-08 12:25:40.55	193.70	13.60	-40.5	-43.1	20.2	6.07e-01	0	55	0	160432128	52	4913
2026-01-08 12:25:43.57	193.99	13.90	-40.4	-43.0	20.3	6.05e-01	0	55	0	166199296	52	4860
2026-01-08 12:25:46.60	194.29	14.21	-40.4	-43.0	20.4	6.05e-01	0	55	0	171442176	52	4816
2026-01-08 12:25:49.63	194.60	14.53	-40.3	-42.8	20.6	6.05e-01	0	55	0	177209344	52	4711
2026-01-08 12:25:52.66	194.92	14.85	-40.1	-42.6	20.9	6.08e-01	0	55	0	182976512	52	4602
2026-01-08 12:25:55.69	195.24	15.17	-40.2	-42.6	20.8	6.04e-01	0	55	0	188743680	52	4651
2026-01-08 12:25:58.72	195.57	15.50	-40.2	-42.7	20.5	6.06e-01	0	55	0	194510848	52	4682
2026-01-08 12:26:01.75	195.91	15.83	-40.1	-42.6	20.9	6.07e-01	0	55	0	200278016	52	4599
2026-01-08 12:26:04.78	196.26	16.16	-40.2	-42.6	20.9	6.08e-01	0	55	0	205520896	52	4637
2026-01-08 12:26:07.81	196.61	16.50	-40.2	-42.7	20.8	6.07e-01	0	55	0	211288064	52	4653
2026-01-08 12:26:10.83	196.97	16.84	-40.1	-42.5	21.0	6.09e-01	0	56	0	217055232	52	4582
2026-01-08 12:26:13.87	197.34	17.19	-40.1	-42.5	21.0	6.07e-01	0	55	0	222822400	52	4580
2026-01-08 12:26:16.89	197.72	17.54	-40.2	-42.6	20.9	6.03e-01	0	55	0	228589568	52	4620
2026-01-08 12:26:19.92	198.11	17.90	-40.1	-42.5	21.1	6.06e-01	0	55	0	234356736	52	4548
2026-01-08 12:26:22.95	198.51	18.26	-40.1	-42.5	21.1	6.07e-01	0	56	0	239599616	52	4579
2026-01-08 12:26:25.98	198.91	18.63	-40.2	-42.6	21.0	6.07e-01	0	56	0	245366784	52	4630
2026-01-08 12:26:29.01	199.33	19.00	-40.2	-42.6	21.0	6.07e-01	0	56	0	251133952	52	4647
2026-01-08 12:26:32.03	199.76	19.37	-40.3	-42.7	20.9	6.07e-01	0	56	0	256901120	52	4676
2026-01-08 12:26:35.07	200.20	19.75	-40.1	-42.5	21.1	6.05e-01	0	56	0	262668288	52	4581
2026-01-08 12:26:38.10	200.65	20.14	-40.3	-42.7	20.9	6.07e-01	0	56	0	268435456	52	4674
2026-01-08 12:26:41.13	201.12	20.53	-40.4	-42.8	20.8	6.06e-01	0	56	0	273678336	52	4742
2026-01-08 12:26:44.15	201.59	20.92	-40.3	-42.7	21.0	6.09e-01	0	56	0	279445504	52	4662
2026-01-08 12:26:47.18	202.08	21.32	-40.6	-43.1	20.5	6.06e-01	0	56	0	285212672	52	4920
2026-01-08 12:26:50.21	202.58	21.73	-40.3	-42.7	21.0	6.05e-01	0	56	0	290979840	52	4666
2026-01-08 12:26:53.24	203.10	22.13	-40.5	-43.0	20.7	6.06e-01	0	56	0	296747008	52	4835
2026-01-08 12:26:56.27	203.63	22.55	-40.4	-42.8	20.9	6.09e-01	0	56	0	302514176	52	4735
2026-01-08 12:26:59.30	204.17	22.97	-40.5	-43.0	20.7	6.06e-01	0	56	0	307757056	52	4840
2026-01-08 12:27:02.33	204.73	23.39	-40.3	-42.7	21.0	6.05e-01	0	56	0	313524224	52	4687
2026-01-08 12:27:05.36	205.30	23.82	-40.3	-42.7	21.0	6.05e-01	0	56	0	319291392	52	4681
2026-01-08 12:27:08.39	205.90	24.26	-40.5	-42.9	20.8	6.05e-01	0	56	0	325058560	52	4800
2026-01-08 12:27:11.42	206.50	24.69	-40.3	-42.7	21.1	6.07e-01	0	56	0	330825728	52	4674
2026-01-08 12:27:14.45	207.13	25.14	-40.4	-42.8	21.0	6.08e-01	0	56	0	336592896	52	4728
2026-01-08 12:27:17.47	207.77	25.58	-40.4	-42.8	21.0	6.07e-01	0	56	0	341835776	52	4730
2026-01-08 12:27:20.50	208.44	26.04	-40.4	-42.8	21.0	6.05e-01	0	56	0	347602944	52	4715
2026-01-08 12:27:23.53	209.12	26.49	-40.4	-42.8	21.0	6.07e-01	0	56	0	353370112	52	4742
2026-01-08 12:27:26.56	209.82	26.95	-40.4	-42.8	21.0	6.04e-01	0	56	0	359137280	52	4740
2026-01-08 12:27:29.59	210.55	27.42	-40.4	-42.9	21.0	6.07e-01	0	56	0	364904448	52	4766
2026-01-08 12:27:32.62	211.29	27.89	-40.4	-42.9	21.0	6.06e-01	0	56	0	370671616	52	4760
2026-01-08 12:27:35.65	212.06	28.36	-40.3	-42.7	21.2	6.06e-01	0	56	0	375914496	52	4663
2026-01-08 12:27:38.68	212.85	28.84	-40.3	-42.7	21.2	6.07e-01	0	57	0	381681664	52	4653
2026-01-08 12:27:41.70	213.67	29.31	-40.3	-42.7	21.2	6.05e-01	0	57	0	387448832	52	4670
2026-01-08 12:27:44.73	214.51	29.79	-40.3	-42.7	21.1	6.08e-01	0	57	0	393216000	52	4671
2026-01-08 12:27:47.76	215.38	30.28	-40.3	-42.6	21.2	6.09e-01	0	57	0	398983168	52	4650
2026-01-08 12:27:50.79	216.27	30.76	-40.4	-42.7	21.1	6.08e-01	0	57	0	404750336	52	4686
2026-01-08 12:27:53.82	217.19	31.25	-40.5	-42.9	21.0	6.04e-01	0	57	0	409993216	52	4776
2026-01-08 12:27:56.85	218.14	31.73	-40.3	-42.7	21.1	6.09e-01	0	57	0	415760384	52	4686
2026-01-08 12:27:59.87	219.12	32.22	-40.4	-42.8	21.0	6.07e-01	0	57	0	421527552	52	4754
2026-01-08 12:28:02.90	220.13	32.70	-40.6	-43.1	20.8	6.06e-01	0	57	0	427294720	52	4912
2026-01-08 12:28:05.93	221.17	33.19	-40.7	-43.2	20.7	6.07e-01	0	57	0	433061888	52	4974
2026-01-08 12:28:08.96	222.24	33.67	-40.6	-43.1	20.8	6.08e-01	0	57	0	438829056	52	4910
2026-01-08 12:28:11.99	223.35	34.14	-40.7	-43.2	20.6	6.03e-01	0	57	0	444071936	52	4983
2026-01-08 12:28:15.01	224.48	34.62	-40.8	-43.3	20.6	6.05e-01	0	57	0	449839104	52	5008
2026-01-08 12:28:18.04	225.65	35.09	-40.7	-43.2	20.7	6.06e-01	0	57	0	455606272	52	4943
2026-01-08 12:28:21.07	226.86	35.55	-40.8	-43.4	20.6	6.08e-01	0	57	0	461373440	52	5066
2026-01-08 12:28:24.09	228.09	36.01	-40.8	-43.3	20.5	6.05e-01	0	57	0	467140608	52	5038
2026-01-08 12:28:27.12	229.37	36.45	-40.9	-43.5	20.4	6.06e-01	0	57	0	472383488	52	5142
2026-01-08 12:28:30.16	230.69	36.89	-40.6	-43.0	20.8	6.05e-01	0	57	0	478150656	52	4869
2026-01-08 12:28:33.18	232.03	37.32	-40.7	-43.2	20.7	6.04e-01	0	57	0	483917824	52	4961
2026-01-08 12:28:36.21	233.41	37.74	-40.7	-43.2	20.7	6.08e-01	0	57	0	489684992	52	4961
2026-01-08 12:28:39.24	234.83	38.14	-40.6	-43.1	20.8	6.06e-01	0	57	0	495452160	52	4895
2026-01-08 12:28:42.27	236.28	38.53	-40.7	-43.2	20.7	6.07e-01	0	57	0	501219328	52	4936
2026-01-08 12:28:45.29	237.76	38.90	-40.7	-43.2	20.7	6.08e-01	0	57	0	506986496	52	4960
2026-01-08 12:28:48.32	239.29	39.25	-40.6	-43.0	20.9	6.05e-01	0	57	0	512229376	52	4842
2026-01-08 12:28:51.35	240.84	39.59	-40.5	-42.9	21.0	6.04e-01	0	57	0	517996544	52	4802
2026-01-08 12:28:54.38	242.43	39.91	-40.4	-42.8	21.1	6.05e-01	0	57	0	523763712	52	4725
2026-01-08 12:28:57.41	244.04	40.20	-40.5	-42.9	21.0	6.06e-01	0	57	0	529530880	52	4799
2026-01-08 12:29:00.44	245.69	40.47	-40.4	-42.8	21.1	6.08e-01	0	57	0	535298048	52	4739
2026-01-08 12:29:03.47	247.36	40.72	-40.3	-42.6	21.3	6.09e-01	0	57	0	540540928	52	4649
2026-01-08 12:29:06.50	249.05	40.94	-40.3	-42.7	21.3	6.07e-01	0	57	0	546308096	52	4666
2026-01-08 12:29:09.53	250.77	41.14	-40.3	-42.6	21.3	6.08e-01	0	57	0	552075264	52	4607
2026-01-08 12:29:12.56	252.51	41.30	-40.3	-42.6	21.3	6.08e-01	0	57	0	557842432	52	4635
2026-01-08 12:29:15.58	254.26	41.44	-40.3	-42.6	21.3	6.05e-01	0	57	0	563609600	52	4612
2026-01-08 12:29:18.61	256.02	41.56	-40.3	-42.7	21.2	6.04e-01	0	57	0	569376768	52	4671
2026-01-08 12:29:21.64	257.80	41.64	-40.2	-42.4	21.5	6.07e-01	0	57	0	575143936	52	4542
2026-01-08 12:29:24.67	259.59	41.69	-40.1	-42.4	21.6	6.07e-01	0	57	0	580386816	52	4510
2026-01-08 12:29:27.70	261.38	41.71	-40.2	-42.5	21.4	6.08e-01	0	57	0	586153984	52	4596
2026-01-08 12:29:30.73	263.17	41.70	-40.4	-42.8	21.1	6.05e-01	0	57	0	591921152	52	4713
2026-01-08 12:29:33.76	264.95	41.66	-40.3	-42.7	21.3	6.07e-01	0	57	0	597688320	52	4665
2026-01-08 12:29:36.79	266.73	41.59	-40.2	-42.5	21.5	6.05e-01	0	57	0	603455488	52	4553
2026-01-08 12:29:39.82	268.50	41.50	-40.4	-42.8	21.2	6.08e-01	0	57	0	608698368	52	4710
2026-01-08 12:29:42.85	270.26	41.37	-40.5	-43.0	21.0	6.07e-01	0	57	0	614465536	52	4819
2026-01-08 12:29:45.88	272.00	41.21	-40.6	-43.1	20.9	6.08e-01	0	57	0	620232704	52	4877
2026-01-08 12:29:48.91	273.73	41.03	-40.6	-43.1	20.8	6.05e-01	0	57	0	625999872	52	4878
2026-01-08 12:29:51.94	275.43	40.82	-40.5	-42.9	21.0	6.07e-01	0	57	0	631767040	52	4811
2026-01-08 12:29:54.96	277.10	40.58	-40.5	-42.9	21.0	6.06e-01	0	57	0	637534208	52	4788
2026-01-08 12:29:58.00	278.76	40.32	-40.6	-43.1	20.8	6.07e-01	0	57	0	643301376	52	4897
2026-01-08 12:30:01.02	280.38	40.04	-40.7	-43.2	20.8	6.06e-01	0	57	0	648544256	52	4933
2026-01-08 12:30:04.05	281.98	39.73	-40.7	-43.2	20.7	6.04e-01	0	58	0	654311424	52	4942
2026-01-08 12:30:07.08	283.54	39.40	-40.6	-43.0	20.8	6.04e-01	0	57	0	660078592	52	4857
2026-01-08 12:30:10.11	285.07	39.06	-40.7	-43.2	20.7	6.06e-01	0	57	0	665845760	52	4972
2026-01-08 12:30:13.14	286.57	38.70	-40.8	-43.3	20.6	6.07e-01	0	58	0	671612928	52	5016
2026-01-08 12:30:16.18	288.04	38.31	-40.4	-42.8	21.1	6.07e-01	0	58	0	676855808	52	4713
2026-01-08 12:30:19.21	289.47	37.92	-40.7	-43.2	20.7	6.08e-01	0	58	0	682622976	52	4943
2026-01-08 12:30:22.24	290.86	37.51	-40.6	-43.1	20.8	6.08e-01	0	58	0	688390144	52	4904
2026-01-08 12:30:25.27	292.22	37.09	-40.4	-42.7	21.2	6.04e-01	0	58	0	694157312	52	4690
2026-01-08 12:30:28.30	293.54	36.66	-40.3	-42.6	21.2	6.07e-01	0	58	0	699924480	52	4635
2026-01-08 12:30:31.33	294.83	36.21	-40.1	-42.4	21.5	6.06e-01	0	58	0	705691648	52	4503
2026-01-08 12:30:34.37	296.08	35.76	-40.2	-42.5	21.3	6.07e-01	0	58	0	711458816	52	4585
2026-01-08 12:30:37.39	297.30	35.31	-40.0	-42.2	21.8	6.06e-01	0	58	0	716701696	51	4653
2026-01-08 12:30:40.42	298.48	34.84	-40.0	-42.2	21.7	6.09e-01	0	58	0	722468864	51	4671
2026-01-08 12:30:43.45	299.63	34.37	-39.7	-41.9	22.0	6.06e-01	0	58	0	728236032	51	4508
2026-01-08 12:30:46.47	300.74	33.90	-39.7	-41.8	22.0	6.07e-01	0	58	0	734003200	51	4484
2026-01-08 12:30:49.50	301.82	33.42	-39.7	-41.8	22.1	6.07e-01	0	58	0	739770368	51	4471
2026-01-08 12:30:52.53	302.87	32.94	-39.5	-41.5	22.4	6.06e-01	0	58	0	745013248	50	4577
2026-01-08 12:30:55.55	303.89	32.46	-39.6	-41.7	22.2	6.06e-01	0	58	0	750780416	50	4652
2026-01-08 12:30:58.59	304.88	31.98	-39.6	-41.7	22.2	6.07e-01	0	58	0	756547584	50	4659
2026-01-08 12:31:01.61	305.83	31.50	-39.5	-41.6	22.2	6.04e-01	0	58	0	762314752	50	4641
2026-01-08 12:31:04.64	306.77	31.01	-39.5	-41.6	22.2	6.07e-01	0	58	0	768081920	50	4617
2026-01-08 12:31:07.67	307.67	30.53	-39.6	-41.7	22.1	6.08e-01	0	58	0	773849088	50	4684
2026-01-08 12:31:10.70	308.54	30.05	-39.5	-41.6	22.2	6.04e-01	0	58	0	779616256	50	4632
2026-01-08 12:31:13.73	309.39	29.57	-39.8	-42.0	21.8	6.08e-01	0	58	0	784859136	50	4870
2026-01-08 12:31:16.75	310.22	29.10	-39.7	-41.8	22.0	6.06e-01	0	57	0	790626304	50	4754
2026-01-08 12:31:19.78	311.02	28.63	-39.7	-41.9	21.9	6.04e-01	0	58	0	796393472	50	4769
2026-01-08 12:31:22.81	311.79	28.15	-39.8	-42.0	21.7	6.09e-01	0	58	0	802160640	50	4867
2026-01-08 12:31:25.84	312.55	27.69	-39.9	-42.2	21.6	6.06e-01	0	58	0	807927808	50	4930
2026-01-08 12:31:28.87	313.28	27.22	-40.0	-42.2	21.6	6.04e-01	0	57	0	813170688	50	4959
2026-01-08 12:31:31.89	313.99	26.77	-40.1	-42.4	21.3	6.06e-01	0	58	0	818937856	50	5076
2026-01-08 12:31:34.92	314.68	26.31	-40.2	-42.6	21.2	6.07e-01	0	58	0	824705024	51	4889
2026-01-08 12:31:37.95	315.35	25.86	-40.1	-42.4	21.3	6.07e-01	0	58	0	830472192	51	4794
2026-01-08 12:31:40.98	316.00	25.41	-40.2	-42.5	21.2	6.06e-01	0	58	0	836239360	51	4858
2026-01-08 12:31:44.01	316.63	24.97	-40.2	-42.6	21.1	6.07e-01	0	58	0	842006528	51	4911
2026-01-08 12:31:47.04	317.25	24.53	-40.3	-42.7	21.0	6.07e-01	0	58	0	847773696	51	4969
2026-01-08 12:31:50.07	317.84	24.10	-40.1	-42.4	21.3	6.07e-01	0	58	0	853016576	51	4781
2026-01-08 12:31:53.10	318.42	23.67	-40.1	-42.5	21.2	6.08e-01	0	57	0	858783744	51	4821
2026-01-08 12:31:56.13	318.99	23.25	-40.2	-42.5	21.1	6.05e-01	0	58	0	864550912	51	4859
2026-01-08 12:31:59.16	319.54	22.83	-40.3	-42.7	20.9	6.06e-01	0	58	0	870318080	51	4966
2026-01-08 12:32:02.19	320.07	22.41	-40.2	-42.7	21.0	6.07e-01	0	58	0	876085248	51	4933
2026-01-08 12:32:05.22	320.60	22.01	-40.1	-42.4	21.2	6.06e-01	0	58	0	881328128	51	4795
2026-01-08 12:32:08.25	321.10	21.60	-40.1	-42.4	21.2	6.07e-01	0	58	0	887095296	51	4776
2026-01-08 12:32:11.28	321.60	21.20	-40.1	-42.5	21.2	6.06e-01	0	58	0	892862464	51	4819
2026-01-08 12:32:14.30	322.08	20.81	-40.1	-42.4	21.2	6.05e-01	0	57	0	898629632	51	4793
2026-01-08 12:32:17.33	322.54	20.42	-40.1	-42.4	21.2	6.05e-01	0	58	0	904396800	51	4795
2026-01-08 12:32:20.36	323.00	20.04	-40.1	-42.5	21.1	6.06e-01	0	58	0	910163968	51	4853
2026-01-08 12:32:23.39	323.45	19.66	-40.0	-42.4	21.2	6.05e-01	0	58	0	915931136	51	4763
2026-01-08 12:32:26.42	323.88	19.28	-40.0	-42.4	21.2	6.08e-01	0	58	0	921174016	51	4760
2026-01-08 12:32:29.45	324.30	18.91	-39.8	-42.1	21.4	6.07e-01	0	58	0	926941184	51	4642
2026-01-08 12:32:32.48	324.72	18.55	-39.7	-42.0	21.5	6.07e-01	0	57	0	932708352	51	4574
2026-01-08 12:32:35.51	325.12	18.19	-39.9	-42.2	21.3	6.06e-01	0	58	0	938475520	51	4692
2026-01-08 12:32:38.54	325.51	17.83	-39.9	-42.3	21.2	6.06e-01	0	58	0	944242688	51	4713
2026-01-08 12:32:41.57	325.90	17.48	-39.9	-42.3	21.1	6.05e-01	0	58	0	949485568	51	4731
2026-01-08 12:32:44.59	326.27	17.13	-40.0	-42.4	21.1	6.07e-01	0	58	0	955252736	51	4770
2026-01-08 12:32:47.62	326.64	16.79	-39.9	-42.3	21.2	6.03e-01	0	58	0	961019904	51	4718
2026-01-08 12:32:50.65	327.00	16.45	-39.9	-42.2	21.2	6.01e-01	0	58	0	966787072	51	4674
2026-01-08 12:32:53.68	327.35	16.11	-39.8	-42.1	21.2	6.02e-01	0	58	0	972554240	51	4650
2026-01-08 12:32:56.71	327.69	15.78	-39.9	-42.2	21.1	6.03e-01	0	58	0	978321408	51	4701
2026-01-08 12:32:59.75	328.02	15.46	-39.9	-42.3	21.1	6.02e-01	0	58	0	984088576	51	4740
2026-01-08 12:33:02.77	328.35	15.13	-39.9	-42.3	21.0	6.02e-01	0	58	0	989331456	51	4719
2026-01-08 12:33:05.80	328.67	14.82	-40.0	-42.4	20.9	6.01e-01	0	58	0	995098624	51	4798
2026-01-08 12:33:08.83	328.98	14.50	-40.0	-42.4	20.9	6.01e-01	0	58	0	1000865792	51	4773
2026-01-08 12:33:11.85	329.29	14.19	-40.0	-42.4	20.9	5.98e-01	0	58	0	1006632960	51	4773
2026-01-08 12:33:14.88	329.59	13.88	-39.9	-42.4	20.9	6.02e-01	0	58	0	1012400128	51	4762
2026-01-08 12:33:17.91	329.88	13.58	-40.0	-42.5	20.7	6.01e-01	0	58	0	1017643008	51	4854
2026-01-08 12:33:20.94	330.17	13.28	-40.2	-42.7	20.5	6.00e-01	0	58	0	1023410176	51	4953
2026-01-08 12:33:23.97	330.45	12.98	-40.1	-42.6	20.6	6.01e-01	0	58	0	1029177344	51	4903
2026-01-08 12:33:27.00	330.73	12.69	-40.1	-42.7	20.5	6.04e-01	0	58	0	1034944512	51	4939
2026-01-08 12:33:30.02	330.99	12.40	-40.1	-42.7	20.5	6.02e-01	0	58	0	1040711680	51	4928
2026-01-08 12:33:33.05	331.26	12.11	-40.2	-42.8	20.3	6.01e-01	0	58	0	1046478848	51	4998
2026-01-08 12:33:36.08	331.52	11.83	-40.1	-42.7	20.4	6.01e-01	0	58	0	1051721728	51	4948
2026-01-08 12:33:39.11	331.77	11.55	-40.3	-43.0	20.1	6.03e-01	0	58	0	1057488896	51	5112
2026-01-08 12:33:42.14	332.02	11.27	-40.2	-42.9	20.2	5.99e-01	0	58	0	1063256064	51	5043
2026-01-08 12:33:45.17	332.27	11.00	-40.3	-43.0	20.1	6.03e-01	0	58	0	1069023232	51	5112
2026-01-08 12:33:48.20	332.51	10.73	-40.2	-43.0	20.1	6.04e-01	0	58	0	1074790400	51	5105
2026-01-08 12:33:51.23	332.75	10.46	-40.4	-43.2	19.8	6.02e-01	0	58	0	1080557568	51	5239
2026-01-08 12:33:54.26	332.98	10.19	-40.4	-43.2	19.7	6.04e-01	0	58	0	1085800448	51	5222
2026-01-08 12:33:57.29	333.21	9.93	-40.5	-43.3	19.5	6.01e-01	0	58	0	1091567616	51	5321
2026-01-08 12:34:00.32	333.43	9.67	-40.6	-43.6	19.2	6.03e-01	0	58	0	1097334784	52	5163
2026-01-08 12:34:03.34	333.65	9.42	-40.6	-43.7	19.0	6.02e-01	0	58	0	1103101952	52	5251
2026-01-08 12:34:06.37	333.86	9.16	-40.7	-43.8	18.9	5.99e-01	0	58	0	1108869120	52	5324
2026-01-08 12:34:09.40	334.08	8.91	-40.7	-43.9	18.8	6.00e-01	0	58	0	1114636288	52	5341
2026-01-08 12:34:12.43	334.28	8.66	-40.6	-43.8	18.8	6.02e-01	0	58	0	1119879168	52	5308
2026-01-08 12:34:15.46	334.49	8.41	-40.8	-44.0	18.5	6.01e-01	0	58	0	1125646336	52	5459
2026-01-08 12:34:18.49	334.69	8.17	-40.7	-43.9	18.5	6.00e-01	0	58	0	1131413504	52	5397
2026-01-08 12:34:21.52	334.89	7.93	-45.0	-61.7	3.9	7.43e-01	0	58	104	1136132096	60	26205
2026-01-08 12:34:24.56	335.08	7.69	-45.8	-64.5	3.8	7.43e-01	0	58	104	1136132096	62	32272
2026-01-08 12:34:27.59	335.27	7.45	-46.0	-64.8	3.8	7.42e-01	0	58	104	1136132096	62	33603
2026-01-08 12:34:30.62	335.46	7.21	-46.0	-64.8	3.8	7.46e-01	0	58	104	1136132096	62	33690
2026-01-08 12:34:33.64	335.65	6.98	-46.0	-64.8	3.8	7.46e-01	0	58	104	1136132096	62	33441
2026-01-08 12:34:36.68	335.83	6.75	-45.9	-64.8	3.8	7.46e-01	0	58	104	1136132096	62	33349
2026-01-08 12:34:39.71	336.01	6.52	-45.9	-64.7	3.8	7.46e-01	0	58	104	1136132096	62	33222
2026-01-08 12:34:42.75	336.19	6.29	-45.9	-64.7	3.8	7.43e-01	0	58	104	1136132096	62	33168
2026-01-08 12:34:45.78	336.36	6.07	-45.9	-64.7	3.8	7.45e-01	0	58	104	1136132096	62	33171
2026-01-08 12:34:48.81	336.53	5.84	-45.9	-64.7	3.8	7.43e-01	0	58	104	1136132096	62	33139
2026-01-08 12:34:51.84	336.70	5.62	-45.9	-64.7	3.8	7.44e-01	0	58	104	1136132096	62	33119
2026-01-08 12:34:54.87	336.87	5.40	-45.9	-64.7	3.8	7.46e-01	0	58	104	1136132096	62	33039
2026-01-08 12:34:57.90	337.03	5.19	-45.9	-64.7	3.8	7.45e-01	0	58	104	1136132096	62	33198
2026-01-08 12:35:00.94	337.19	4.97	-45.9	-64.7	3.8	7.44e-01	0	58	104	1136132096	62	33006
2026-01-08 12:35:03.97	337.35	4.76	-45.8	-64.7	3.8	7.46e-01	0	58	104	1136132096	62	33037
2026-01-08 12:35:07.00	337.51	4.55	-45.9	-64.7	3.8	7.45e-01	0	58	104	1136132096	62	33012
2026-01-08 12:35:10.03	337.66	4.34	-45.8	-64.7	3.8	7.43e-01	0	58	104	1136132096	62	32956
2026-01-08 12:35:13.06	337.81	4.13	-45.8	-64.7	3.8	7.46e-01	0	59	104	1136132096	62	33026
2026-01-08 12:35:16.09	337.96	3.92	-45.8	-64.7	3.8	7.47e-01	0	58	104	1136132096	62	32997
2026-01-08 12:35:19.13	338.11	3.71	-45.9	-64.7	3.8	7.43e-01	0	58	104	1136132096	62	33064
2026-01-08 12:35:22.16	338.26	3.51	-45.8	-64.7	3.8	7.43e-01	0	58	104	1136132096	62	32989
2026-01-08 12:35:25.19	338.40	3.31	-45.8	-64.7	3.8	7.44e-01	0	58	104	1136132096	62	32964
2026-01-08 12:35:28.22	338.54	3.11	-45.8	-64.7	3.8	7.45e-01	0	58	104	1136132096	62	32977
2026-01-08 12:35:31.25	338.68	2.91	-45.8	-64.7	3.8	7.46e-01	0	58	104	1136132096	62	32991
2026-01-08 12:35:34.29	338.82	2.71	-45.7	-64.7	3.8	7.47e-01	0	58	104	1136132096	62	33024
2026-01-08 12:35:37.31	338.96	2.51	-45.8	-64.7	3.8	7.45e-01	0	58	104	1136132096	62	32936
2026-01-08 12:35:40.35	339.09	2.32	-45.8	-64.7	3.8	7.43e-01	0	58	104	1136132096	62	32983
2026-01-08 12:35:43.38	339.22	2.13	-45.8	-64.7	3.8	7.48e-01	0	58	104	1136132096	62	32980
2026-01-08 12:35:46.41	339.35	1.93	-45.8	-64.7	3.8	7.47e-01	0	59	104	1136132096	62	32992

#Closed at: 2026-01-08 12:35:47
#Recorded file [1136 MB]: D:/lorett/data/31039_260108_152314.dat