passes_logs/2026/01/08/R2.0S_Moscow/R2.0S_Moscow__20260108_092640_NOAA_21_JPSS-2_rec.log

#Pass ID: 20260108_092640_NOAA 21 (JPSS-2)
#Satellite: NOAA 21 (JPSS-2)
#Configuration: NOAA-21
#almurnet v.1.7.20251203
#Start time: 2026-01-08 09:26:42

#Version: 2.2.20231116
#Station: R2.0S_Moscow
#Location: 37.707566 lon 55.798166 lat
#TLE: 1 54234U 22150A   26005.56767909  .00000152  00000+0  92756-4 0  9990
#TLE: 2 54234  98.7490 306.5820 0001036 340.2747  19.8389 14.19532370163472

#Time	Az	El	Level	Level2	SNR	BER	BlckErr	Temp	State	Recorded	gain1	gain2
2026-01-08 09:26:42.90	146.78	2.15	-43.8	-56.0	3.8	1.49e+00	0	47	0	0	58	15262
2026-01-08 09:26:46.93	146.71	2.41	-43.8	-56.0	3.8	1.49e+00	0	47	104	0	59	14396
2026-01-08 09:26:50.97	146.63	2.67	-43.4	-55.9	3.8	1.49e+00	0	48	104	0	58	15171
2026-01-08 09:26:55.01	146.55	2.94	-43.8	-55.9	3.8	1.49e+00	0	48	104	0	58	15151
2026-01-08 09:26:59.05	146.47	3.21	-43.8	-55.9	3.8	1.49e+00	0	48	104	0	58	15195
2026-01-08 09:27:03.09	146.38	3.48	-43.8	-55.9	3.8	1.49e+00	0	49	104	0	58	15168
2026-01-08 09:27:07.12	146.30	3.75	-43.8	-55.9	3.8	1.49e+00	0	49	104	0	58	15203
2026-01-08 09:27:11.16	146.21	4.02	-43.8	-56.0	3.8	1.49e+00	0	49	104	0	58	15243
2026-01-08 09:27:15.20	146.13	4.30	-43.8	-55.9	3.8	1.49e+00	0	49	104	0	58	15148
2026-01-08 09:27:19.24	146.04	4.58	-43.7	-55.8	3.8	1.49e+00	0	50	104	0	58	15015
2026-01-08 09:27:23.28	145.94	4.87	-43.7	-55.7	3.8	1.49e+00	0	50	104	0	58	14803
2026-01-08 09:27:27.32	145.85	5.15	-43.7	-55.7	3.8	1.49e+00	0	50	104	0	58	14729
2026-01-08 09:27:31.35	145.75	5.44	-43.7	-55.7	3.8	1.49e+00	0	50	104	0	58	14756
2026-01-08 09:27:35.40	145.66	5.74	-43.7	-55.7	3.8	1.49e+00	0	51	104	0	58	14799
2026-01-08 09:27:39.43	145.56	6.03	-43.7	-55.6	3.8	1.49e+00	0	51	104	0	58	14706
2026-01-08 09:27:43.47	145.45	6.33	-43.7	-55.4	3.8	1.49e+00	0	51	104	0	57	15062
2026-01-08 09:27:47.51	145.35	6.63	-43.7	-55.7	3.8	1.49e+00	0	51	104	0	58	14845
2026-01-08 09:27:51.55	145.24	6.94	-43.6	-55.0	3.8	1.49e+00	0	51	104	0	58	13638
2026-01-08 09:27:55.58	145.13	7.25	-42.9	-50.0	5.2	6.97e-01	0	51	0	1048576	57	8098
2026-01-08 09:27:59.62	145.02	7.56	-41.2	-45.3	9.2	2.40e-02	0	51	0	13631488	53	5954
2026-01-08 09:28:03.66	144.90	7.88	-39.7	-42.4	12.2	3.61e-04	0	52	0	26214400	51	4800
2026-01-08 09:28:07.70	144.79	8.20	-42.5	-48.1	6.7	8.42e-01	0	52	104	35651584	57	6517
2026-01-08 09:28:11.74	144.67	8.53	-39.8	-42.6	11.9	2.13e-02	0	52	0	47185920	51	4884
2026-01-08 09:28:15.77	144.54	8.86	-39.1	-41.5	13.2	2.36e-05	0	52	0	59768832	49	4816
2026-01-08 09:28:19.82	144.42	9.19	-38.7	-40.9	13.9	3.00e-06	0	52	0	72351744	49	4500
2026-01-08 09:28:23.85	144.29	9.53	-38.4	-40.5	14.4	0.00e+00	0	52	0	84934656	48	4556
2026-01-08 09:28:27.89	144.15	9.87	-38.4	-40.5	14.4	7.00e-07	0	53	0	97517568	48	4552
2026-01-08 09:28:31.93	144.02	10.22	-38.3	-40.2	14.7	0.00e+00	0	53	0	110100480	48	4440
2026-01-08 09:28:35.96	143.88	10.57	-38.1	-40.0	15.0	0.00e+00	0	53	0	123731968	48	4332
2026-01-08 09:28:40.00	143.73	10.93	-38.2	-40.1	15.0	0.00e+00	0	53	0	136314880	48	4357
2026-01-08 09:28:44.04	143.58	11.29	-37.9	-39.7	15.3	0.00e+00	0	53	0	148897792	47	4423
2026-01-08 09:28:48.08	143.43	11.66	-37.7	-39.4	15.6	0.00e+00	0	53	0	161480704	47	4291
2026-01-08 09:28:52.12	143.28	12.03	-37.6	-39.3	15.8	0.00e+00	0	54	0	174063616	47	4213
2026-01-08 09:28:56.16	143.12	12.41	-37.6	-39.4	15.8	0.00e+00	0	53	0	186646528	47	4245
2026-01-08 09:29:00.20	142.95	12.79	-37.5	-39.2	16.0	0.00e+00	0	54	0	199229440	46	4394
2026-01-08 09:29:04.23	142.78	13.18	-37.5	-39.2	16.0	0.00e+00	0	54	0	211812352	46	4424
2026-01-08 09:29:08.25	142.61	13.58	-37.3	-39.0	16.3	0.00e+00	0	53	0	224395264	46	4301
2026-01-08 09:29:12.29	142.43	13.98	-37.5	-39.1	16.1	0.00e+00	0	54	0	236978176	46	4389
2026-01-08 09:29:16.32	142.25	14.39	-37.3	-38.9	16.4	0.00e+00	0	54	0	249561088	46	4264
2026-01-08 09:29:20.36	142.06	14.80	-37.5	-39.2	16.2	0.00e+00	0	54	0	262144000	46	4395
2026-01-08 09:29:24.40	141.86	15.23	-37.4	-39.1	16.3	0.00e+00	0	54	0	274726912	46	4362
2026-01-08 09:29:28.43	141.66	15.65	-37.5	-39.2	16.2	0.00e+00	0	54	0	287309824	46	4412
2026-01-08 09:29:32.47	141.45	16.09	-37.6	-39.3	16.1	0.00e+00	0	54	0	299892736	46	4491
2026-01-08 09:29:36.51	141.24	16.53	-37.6	-39.3	16.2	0.00e+00	0	54	0	312475648	46	4462
2026-01-08 09:29:40.55	141.02	16.99	-37.6	-39.3	16.2	0.00e+00	0	54	0	325058560	46	4475
2026-01-08 09:29:44.59	140.79	17.45	-37.7	-39.4	16.1	0.00e+00	0	54	0	337641472	46	4522
2026-01-08 09:29:48.62	140.56	17.91	-37.7	-39.4	16.1	0.00e+00	0	54	0	350224384	46	4531
2026-01-08 09:29:52.66	140.31	18.39	-37.8	-39.5	16.1	0.00e+00	0	54	0	362807296	46	4560
2026-01-08 09:29:56.69	140.06	18.88	-37.8	-39.5	16.1	0.00e+00	0	55	0	375390208	46	4568
2026-01-08 09:30:00.73	139.80	19.37	-37.7	-39.4	16.3	0.00e+00	0	54	0	387973120	46	4495
2026-01-08 09:30:04.77	139.54	19.88	-37.5	-39.2	16.5	0.00e+00	0	55	0	400556032	46	4401
2026-01-08 09:30:08.81	139.26	20.39	-37.4	-39.0	16.6	0.00e+00	0	55	0	413138944	46	4333
2026-01-08 09:30:12.84	138.97	20.91	-37.2	-38.8	16.9	0.00e+00	0	55	0	425721856	46	4199
2026-01-08 09:30:16.88	138.67	21.45	-36.9	-38.3	17.3	0.00e+00	0	55	0	438304768	45	4241
2026-01-08 09:30:20.92	138.36	21.99	-36.6	-38.1	17.6	0.00e+00	0	55	0	450887680	45	4122
2026-01-08 09:30:24.96	138.04	22.55	-36.4	-37.9	17.8	0.00e+00	0	55	0	463470592	44	4243
2026-01-08 09:30:29.00	137.71	23.11	-36.4	-37.8	17.8	0.00e+00	0	55	0	476053504	44	4226
2026-01-08 09:30:33.04	137.36	23.69	-36.4	-37.7	17.9	0.00e+00	0	55	0	488636416	44	4191
2026-01-08 09:30:37.08	137.01	24.28	-36.5	-37.9	17.8	0.00e+00	0	55	0	501219328	44	4276
2026-01-08 09:30:41.12	136.63	24.89	-36.7	-38.1	17.6	0.00e+00	0	55	0	514850816	44	4368
2026-01-08 09:30:45.16	136.24	25.50	-36.7	-38.1	17.6	0.00e+00	0	55	0	527433728	44	4389
2026-01-08 09:30:49.19	135.84	26.13	-36.8	-38.3	17.5	0.00e+00	0	55	0	538968064	44	4454
2026-01-08 09:30:53.24	135.42	26.77	-37.2	-38.7	17.0	0.00e+00	0	55	0	552599552	44	4699
2026-01-08 09:30:57.27	134.98	27.43	-37.4	-38.9	16.9	0.00e+00	0	55	0	565182464	45	4527
2026-01-08 09:31:01.31	134.52	28.10	-37.4	-38.9	16.9	0.00e+00	0	55	0	577765376	45	4536
2026-01-08 09:31:05.34	134.04	28.78	-37.4	-38.9	16.9	0.00e+00	0	55	0	590348288	45	4523
2026-01-08 09:31:09.38	133.54	29.48	-37.1	-38.6	17.2	0.00e+00	0	55	0	602931200	45	4362
2026-01-08 09:31:13.42	133.02	30.19	-37.1	-38.6	17.2	0.00e+00	0	55	0	615514112	45	4380
2026-01-08 09:31:17.45	132.48	30.92	-37.5	-39.1	16.8	0.00e+00	0	56	0	628097024	45	4603
2026-01-08 09:31:21.49	131.90	31.66	-37.4	-38.9	17.0	0.00e+00	0	55	0	640679936	45	4534
2026-01-08 09:31:25.53	131.30	32.42	-37.3	-38.8	17.1	0.00e+00	0	56	0	653262848	45	4486
2026-01-08 09:31:29.57	130.67	33.20	-37.6	-39.2	16.7	0.00e+00	0	56	0	665845760	45	4662
2026-01-08 09:31:33.61	130.01	33.99	-38.2	-39.9	16.0	0.00e+00	0	56	0	678428672	46	4808
2026-01-08 09:31:37.64	129.32	34.79	-38.2	-39.9	16.1	0.00e+00	0	56	0	691011584	47	4505
2026-01-08 09:31:41.67	128.59	35.62	-38.3	-40.0	16.0	0.00e+00	0	55	0	703594496	47	4559
2026-01-08 09:31:45.71	127.82	36.45	-38.4	-40.2	15.7	0.00e+00	0	56	0	716177408	47	4670
2026-01-08 09:31:49.75	127.01	37.31	-38.4	-40.2	15.8	0.00e+00	0	56	0	728760320	47	4671
2026-01-08 09:31:53.79	126.16	38.18	-38.5	-40.3	15.6	7.00e-07	0	55	0	741343232	47	4708
2026-01-08 09:31:57.83	125.25	39.07	-38.6	-40.4	15.5	0.00e+00	0	56	0	753926144	47	4805
2026-01-08 09:32:01.87	124.30	39.97	-38.7	-40.5	15.5	0.00e+00	0	56	0	766509056	47	4844
2026-01-08 09:32:05.90	123.29	40.88	-38.9	-40.8	15.3	0.00e+00	0	56	0	779091968	48	4719
2026-01-08 09:32:09.94	122.22	41.81	-39.1	-41.0	15.0	0.00e+00	0	56	0	791674880	48	4867
2026-01-08 09:32:13.98	121.09	42.74	-39.7	-41.8	14.3	1.50e-06	0	56	0	804257792	49	5029
2026-01-08 09:32:18.02	119.88	43.69	-39.6	-41.7	14.4	0.00e+00	0	56	0	816840704	50	4663
2026-01-08 09:32:22.06	118.61	44.65	-40.0	-42.3	13.9	4.50e-06	0	56	0	829423616	50	4995
2026-01-08 09:32:26.10	117.25	45.61	-39.8	-41.9	14.2	2.20e-06	0	56	0	842006528	51	4544
2026-01-08 09:32:30.14	115.81	46.58	-39.7	-41.7	14.4	7.00e-07	0	56	0	854589440	50	4692
2026-01-08 09:32:34.17	114.28	47.55	-39.6	-41.7	14.5	0.00e+00	0	56	0	867172352	50	4657
2026-01-08 09:32:38.21	112.64	48.51	-40.1	-42.3	13.8	7.00e-07	0	56	0	879755264	50	5036
2026-01-08 09:32:42.25	110.90	49.47	-39.6	-41.7	14.4	7.00e-07	0	56	0	892338176	50	4680
2026-01-08 09:32:46.28	109.05	50.42	-39.1	-41.0	15.2	0.00e+00	0	56	0	904921088	50	4313
2026-01-08 09:32:50.32	107.08	51.36	-39.1	-41.0	15.1	0.00e+00	0	56	0	918552576	50	4340
2026-01-08 09:32:54.36	104.98	52.27	-39.2	-41.1	15.0	0.00e+00	0	56	0	931135488	49	4647
2026-01-08 09:32:58.39	102.76	53.16	-38.5	-40.2	16.0	0.00e+00	0	56	0	943718400	48	4410
2026-01-08 09:33:02.43	100.39	54.02	-38.7	-40.5	15.6	0.00e+00	0	56	0	956301312	48	4598
2026-01-08 09:33:06.46	97.89	54.83	-37.9	-39.5	16.6	0.00e+00	0	56	0	968884224	47	4323
2026-01-08 09:33:10.50	95.23	55.61	-37.2	-38.7	17.3	0.00e+00	0	56	0	981467136	46	4161
2026-01-08 09:33:14.54	92.43	56.33	-37.8	-39.4	16.7	0.00e+00	0	56	0	994050048	46	4496
2026-01-08 09:33:18.57	89.50	56.98	-37.1	-38.6	17.5	0.00e+00	0	56	0	1006632960	46	4118
2026-01-08 09:33:22.61	86.42	57.57	-36.9	-38.3	17.7	0.00e+00	0	56	0	1019215872	45	4200
2026-01-08 09:33:26.65	83.21	58.08	-37.0	-38.4	17.7	0.00e+00	0	56	0	1031798784	45	4280
2026-01-08 09:33:30.68	79.89	58.51	-37.4	-38.9	17.2	0.00e+00	0	56	0	1044381696	45	4516
2026-01-08 09:33:34.72	76.48	58.85	-37.6	-39.1	17.0	0.00e+00	0	56	0	1056964608	45	4635
2026-01-08 09:33:38.76	72.98	59.09	-37.6	-39.2	17.0	0.00e+00	0	56	0	1069547520	45	4673
2026-01-08 09:33:42.80	69.44	59.23	-36.8	-38.2	17.8	0.00e+00	0	56	0	1082130432	45	4191
2026-01-08 09:33:46.84	65.87	59.28	-36.5	-37.9	18.2	0.00e+00	0	56	0	1094713344	44	4260
2026-01-08 09:33:50.88	62.30	59.22	-37.1	-38.5	17.5	0.00e+00	0	56	0	1107296256	44	4583
2026-01-08 09:33:54.92	58.76	59.05	-37.0	-38.5	17.6	0.00e+00	0	56	0	1119879168	45	4293
2026-01-08 09:33:58.95	55.29	58.80	-37.0	-38.4	17.7	0.00e+00	0	56	0	1132462080	45	4270
2026-01-08 09:34:02.99	51.89	58.44	-37.1	-38.5	17.5	0.00e+00	0	56	0	1145044992	45	4330
2026-01-08 09:34:07.02	48.60	58.00	-37.6	-39.1	16.9	0.00e+00	0	56	0	1157627904	46	4388
2026-01-08 09:34:11.06	45.41	57.48	-37.5	-39.1	17.0	0.00e+00	0	56	0	1170210816	46	4349
2026-01-08 09:34:15.09	42.37	56.88	-37.6	-39.2	16.9	0.00e+00	0	56	0	1182793728	46	4414
2026-01-08 09:34:19.13	39.45	56.21	-37.9	-39.5	16.5	0.00e+00	0	56	0	1195376640	46	4589
2026-01-08 09:34:23.16	36.69	55.49	-38.8	-40.7	15.5	0.00e+00	0	56	0	1207959552	48	4653
2026-01-08 09:34:27.20	34.06	54.71	-37.9	-39.5	16.6	0.00e+00	0	56	0	1220542464	47	4315
2026-01-08 09:34:31.24	31.58	53.89	-39.5	-41.6	14.6	0.00e+00	0	56	0	1233125376	49	4874
2026-01-08 09:34:35.28	29.24	53.03	-37.8	-39.3	16.7	0.00e+00	0	56	0	1245708288	47	4230
2026-01-08 09:34:39.32	27.04	52.13	-39.8	-41.9	14.2	7.00e-07	0	56	0	1258291200	50	4806
2026-01-08 09:34:43.35	24.97	51.22	-38.3	-39.9	16.2	0.00e+00	0	56	0	1270874112	48	4273
2026-01-08 09:34:47.39	23.02	50.29	-40.0	-42.1	14.1	3.00e-06	0	56	0	1283457024	50	4911
2026-01-08 09:34:51.43	21.20	49.34	-38.9	-40.7	15.5	0.00e+00	0	56	0	1296039936	49	4411
2026-01-08 09:34:55.47	19.48	48.38	-40.2	-42.5	13.7	5.30e-06	0	56	0	1309671424	51	4858
2026-01-08 09:34:59.51	17.87	47.42	-38.5	-40.2	16.0	0.00e+00	0	56	0	1322254336	48	4398
2026-01-08 09:35:03.55	16.35	46.45	-40.8	-43.4	12.7	1.01e-04	0	56	0	1334837248	52	5062
2026-01-08 09:35:07.58	14.93	45.49	-39.6	-41.7	14.5	0.00e+00	0	56	0	1347420160	51	4396
2026-01-08 09:35:11.62	13.59	44.53	-39.2	-41.2	14.9	0.00e+00	0	56	0	1360003072	49	4652
2026-01-08 09:35:15.66	12.33	43.58	-40.0	-42.2	13.4	4.95e-05	0	56	0	1372585984	52	4409
2026-01-08 09:35:19.69	11.15	42.64	-40.1	-42.4	13.7	2.20e-06	0	56	0	1385168896	51	4776
2026-01-08 09:35:23.73	10.03	41.71	-40.6	-43.1	12.9	4.34e-05	0	56	0	1397751808	52	4894
2026-01-08 09:35:27.77	8.97	40.79	-39.4	-41.4	14.7	7.00e-07	0	56	0	1410334720	50	4531
2026-01-08 09:35:31.81	7.97	39.88	-38.5	-40.2	15.9	0.00e+00	0	56	0	1422917632	48	4414
2026-01-08 09:35:35.85	7.03	38.99	-40.8	-43.4	12.6	5.72e-05	0	56	0	1435500544	52	5092
2026-01-08 09:35:39.88	6.14	38.11	-39.5	-41.5	14.6	3.00e-06	0	56	0	1448083456	51	4324
2026-01-08 09:35:43.92	5.29	37.25	-38.2	-39.9	16.2	0.00e+00	0	56	0	1460666368	48	4263
2026-01-08 09:35:47.97	4.49	36.39	-37.5	-39.1	16.9	0.00e+00	0	57	0	1473249280	46	4352
2026-01-08 09:35:52.01	3.73	35.56	-38.9	-40.8	15.3	0.00e+00	0	57	0	1485832192	48	4735
2026-01-08 09:35:56.05	3.01	34.74	-38.7	-40.5	15.5	7.00e-07	0	57	0	1498415104	48	4586
2026-01-08 09:36:00.09	2.32	33.94	-37.9	-39.5	16.5	0.00e+00	0	57	0	1510998016	47	4301
2026-01-08 09:36:04.12	1.67	33.16	-37.8	-39.5	16.4	0.00e+00	0	57	0	1523580928	47	4301
2026-01-08 09:36:08.16	1.05	32.39	-38.1	-39.8	16.0	0.00e+00	0	56	0	1536163840	47	4486
2026-01-08 09:36:12.20	0.46	31.64	-37.7	-39.3	16.6	0.00e+00	0	56	0	1548746752	47	4218
2026-01-08 09:36:16.24	359.89	30.90	-37.5	-39.1	16.8	0.00e+00	0	56	0	1561329664	46	4342
2026-01-08 09:36:20.28	359.35	30.17	-37.6	-39.2	16.6	0.00e+00	0	57	0	1573912576	46	4439
2026-01-08 09:36:24.32	358.84	29.47	-38.1	-39.9	16.0	0.00e+00	0	56	0	1586495488	46	4773
2026-01-08 09:36:28.35	358.35	28.78	-38.2	-40.0	15.9	0.00e+00	0	57	0	1599078400	47	4563
2026-01-08 09:36:32.39	357.87	28.10	-37.9	-39.6	16.2	0.00e+00	0	57	0	1611661312	47	4341
2026-01-08 09:36:36.43	357.42	27.43	-37.5	-39.0	16.7	0.00e+00	0	57	0	1624244224	46	4339
2026-01-08 09:36:40.47	356.99	26.78	-37.0	-38.4	17.3	0.00e+00	0	57	0	1636827136	45	4290
2026-01-08 09:36:44.50	356.57	26.15	-37.0	-38.5	17.1	0.00e+00	0	57	0	1650458624	45	4310
2026-01-08 09:36:48.54	356.17	25.52	-37.0	-38.5	17.1	0.00e+00	0	57	0	1661992960	45	4320
2026-01-08 09:36:52.58	355.79	24.91	-36.9	-38.4	17.2	0.00e+00	0	56	0	1675624448	45	4279
2026-01-08 09:36:56.62	355.42	24.31	-37.4	-39.0	16.6	0.00e+00	0	56	0	1688207360	45	4549
2026-01-08 09:37:00.65	355.07	23.73	-37.6	-39.3	16.2	0.00e+00	0	57	0	1700790272	45	4724
2026-01-08 09:37:04.69	354.73	23.15	-37.5	-39.2	16.2	0.00e+00	0	57	0	1713373184	45	4661
2026-01-08 09:37:08.73	354.40	22.59	-37.6	-39.3	15.9	0.00e+00	0	57	0	1725956096	45	4750
2026-01-08 09:37:12.77	354.09	22.04	-37.3	-39.1	15.8	0.00e+00	0	56	0	1738539008	45	4644
2026-01-08 09:37:16.80	353.78	21.50	-37.3	-39.2	15.4	0.00e+00	0	57	0	1751121920	45	4698
2026-01-08 09:37:20.83	353.49	20.97	-38.9	-42.0	11.7	3.36e-04	0	57	0	1763704832	48	5414
2026-01-08 09:37:24.87	353.21	20.45	-40.3	-46.6	6.1	2.36e-01	0	56	0	1776287744	51	7784
2026-01-08 09:37:28.91	352.93	19.94	-40.7	-51.8	3.8	1.49e+00	0	57	104	1779433472	51	14128
2026-01-08 09:37:32.94	352.67	19.44	-40.5	-52.9	3.8	1.49e+00	0	57	104	1779433472	52	15223
2026-01-08 09:37:36.98	352.41	18.95	-40.5	-52.9	3.8	1.49e+00	0	57	104	1779433472	52	15180
2026-01-08 09:37:41.01	352.17	18.47	-40.5	-53.1	3.8	1.49e+00	0	57	104	1779433472	52	15420
2026-01-08 09:37:45.05	351.93	17.99	-40.5	-52.9	3.8	1.49e+00	0	57	104	1779433472	52	15191
2026-01-08 09:37:49.09	351.70	17.53	-39.8	-53.1	3.8	1.49e+00	0	57	104	1779433472	51	16412
2026-01-08 09:37:53.12	351.48	17.07	-40.4	-53.3	3.8	1.49e+00	0	57	104	1779433472	51	16869
2026-01-08 09:37:57.16	351.26	16.62	-40.2	-53.2	3.8	1.49e+00	0	57	104	1779433472	51	16616
2026-01-08 09:38:01.20	351.05	16.18	-39.9	-53.2	3.8	1.49e+00	0	57	104	1779433472	51	16567
2026-01-08 09:38:05.24	350.85	15.75	-40.6	-53.3	3.8	1.49e+00	0	57	104	1779433472	51	16713
2026-01-08 09:38:09.27	350.65	15.32	-40.5	-53.3	3.8	1.49e+00	0	57	104	1779433472	51	16758
2026-01-08 09:38:13.31	350.46	14.90	-40.6	-53.1	3.8	1.49e+00	0	57	104	1779433472	51	16393
2026-01-08 09:38:17.35	350.27	14.49	-40.3	-53.1	3.8	1.49e+00	0	57	104	1779433472	51	16425
2026-01-08 09:38:21.39	350.09	14.08	-40.6	-53.1	3.8	1.49e+00	0	57	104	1779433472	52	15412
2026-01-08 09:38:25.43	349.92	13.68	-40.4	-53.0	3.8	1.49e+00	0	57	104	1779433472	52	15380
2026-01-08 09:38:29.47	349.75	13.29	-40.2	-53.0	3.8	1.49e+00	0	57	104	1779433472	51	16268
2026-01-08 09:38:33.50	349.59	12.90	-40.1	-53.0	3.8	1.49e+00	0	57	104	1779433472	51	16170
2026-01-08 09:38:37.54	349.43	12.52	-40.2	-52.9	3.8	1.49e+00	0	57	104	1779433472	51	16113
2026-01-08 09:38:41.58	349.27	12.14	-40.5	-52.9	3.8	1.49e+00	0	57	104	1779433472	51	16072
2026-01-08 09:38:45.62	349.12	11.77	-40.4	-52.9	3.8	1.49e+00	0	57	104	1779433472	52	15190
2026-01-08 09:38:49.66	348.97	11.40	-40.4	-53.0	3.8	1.49e+00	0	57	104	1779433472	52	15321
2026-01-08 09:38:53.70	348.83	11.04	-40.5	-52.8	3.8	1.49e+00	0	57	104	1779433472	52	14998
2026-01-08 09:38:57.74	348.69	10.69	-40.3	-52.7	3.8	1.49e+00	0	57	104	1779433472	52	14787
2026-01-08 09:39:01.78	348.55	10.34	-40.7	-53.1	3.8	1.49e+00	0	57	104	1779433472	52	15462
2026-01-08 09:39:05.82	348.42	9.99	-40.8	-53.2	3.8	1.49e+00	0	57	104	1779433472	52	15614
2026-01-08 09:39:09.85	348.29	9.65	-40.8	-53.2	3.8	1.49e+00	0	57	104	1779433472	52	15730
2026-01-08 09:39:13.88	348.17	9.32	-40.9	-53.3	3.8	1.49e+00	0	57	104	1779433472	52	15768
2026-01-08 09:39:17.91	348.05	8.98	-41.1	-53.5	3.8	1.49e+00	0	57	104	1779433472	52	16209
2026-01-08 09:39:21.95	347.93	8.66	-41.0	-53.3	3.8	1.49e+00	0	57	104	1779433472	52	15908
2026-01-08 09:39:26.00	347.81	8.33	-41.1	-53.5	3.8	1.49e+00	0	57	104	1779433472	52	16146
2026-01-08 09:39:30.03	347.70	8.01	-41.0	-53.4	3.8	1.49e+00	0	57	104	1779433472	52	16069
2026-01-08 09:39:34.07	347.59	7.70	-44.7	-56.9	3.8	1.49e+00	0	57	104	1779433472	59	16013
2026-01-08 09:39:38.11	347.48	7.38	-45.0	-57.4	3.8	1.49e+00	0	57	104	1779433472	60	16080
2026-01-08 09:39:42.15	347.38	7.07	-45.1	-57.5	3.8	1.49e+00	0	57	104	1779433472	60	16183
2026-01-08 09:39:46.18	347.27	6.77	-45.0	-57.4	3.8	1.49e+00	0	57	104	1779433472	60	15969
2026-01-08 09:39:50.22	347.17	6.47	-44.9	-57.3	3.8	1.49e+00	0	57	104	1779433472	60	15885
2026-01-08 09:39:54.26	347.08	6.17	-44.9	-57.3	3.8	1.49e+00	0	57	104	1779433472	60	15831
2026-01-08 09:39:58.29	346.98	5.88	-44.9	-57.3	3.8	1.49e+00	0	57	104	1779433472	60	15836
2026-01-08 09:40:02.33	346.89	5.58	-44.9	-57.3	3.8	1.49e+00	0	57	104	1779433472	60	15814
2026-01-08 09:40:06.37	346.80	5.30	-44.9	-57.3	3.8	1.49e+00	0	57	104	1779433472	60	15765
2026-01-08 09:40:10.41	346.71	5.01	-44.9	-57.3	3.8	1.49e+00	0	57	104	1779433472	60	15807
2026-01-08 09:40:14.44	346.62	4.73	-44.9	-57.3	3.8	1.49e+00	0	57	104	1779433472	60	15846
2026-01-08 09:40:18.48	346.54	4.45	-44.9	-57.3	3.8	1.49e+00	0	57	104	1779433472	60	15780
2026-01-08 09:40:22.52	346.45	4.17	-44.9	-57.2	3.8	1.49e+00	0	57	104	1779433472	60	15754
2026-01-08 09:40:26.56	346.37	3.90	-44.9	-57.3	3.8	1.49e+00	0	57	104	1779433472	60	15814
2026-01-08 09:40:30.59	346.29	3.63	-44.9	-57.3	3.8	1.49e+00	0	57	104	1779433472	60	15762
2026-01-08 09:40:34.63	346.22	3.36	-44.9	-57.3	3.8	1.49e+00	0	57	104	1779433472	60	15812
2026-01-08 09:40:38.67	346.14	3.09	-44.9	-57.2	3.8	1.49e+00	0	57	104	1779433472	60	15755
2026-01-08 09:40:42.71	346.07	2.83	-44.9	-57.3	3.8	1.49e+00	0	57	104	1779433472	60	15822
2026-01-08 09:40:46.75	346.00	2.56	-44.9	-57.2	3.8	1.49e+00	0	57	104	1779433472	60	15755
2026-01-08 09:40:50.79	345.92	2.31	-44.9	-57.3	3.8	1.49e+00	0	57	104	1779433472	60	15783
2026-01-08 09:40:54.83	345.85	2.05	-44.9	-57.2	3.8	1.49e+00	0	57	104	1779433472	60	15755

#Closed at: 2026-01-08 09:40:57
#Recorded file [1779 MB]: D:/lorett/data/31039_260108_122642.dat