passes_logs/2026/01/08/R2.0S_Moscow/R2.0S_Moscow__20260108_104600_AQUA_rec.log

#Pass ID: 20260108_104600_AQUA
#Satellite: AQUA
#Configuration: AQUA
#almurnet v.1.7.20251203
#Start time: 2026-01-08 10:46:01

#Version: 2.2.20231116
#Station: R2.0S_Moscow
#Location: 37.707566 lon 55.798166 lat
#TLE: 1 27424U 02022A   26004.96787593  .00001598  00000+0  32997-3 0  9996
#TLE: 2 27424  98.4069 331.2279 0002002  90.2377   0.6092 14.61798176259425

#Time	Az	El	Level	Level2	SNR	BER	BlckErr	Temp	State	Recorded	gain1	gain2
2026-01-08 10:46:01.24	133.76	2.07	-16.9	-40.6	2.6	7.67e-01	0	49	0	0	2	65535
2026-01-08 10:46:04.27	133.62	2.26	-14.4	-42.1	2.3	7.76e-01	0	49	104	0	5	65535
2026-01-08 10:46:07.30	133.48	2.46	-16.0	-41.1	2.2	7.74e-01	0	50	104	0	3	65535
2026-01-08 10:46:10.33	133.34	2.66	-14.4	-40.1	5.4	7.68e-01	0	50	104	0	1	65535
2026-01-08 10:46:13.36	133.20	2.85	-16.6	-41.6	2.8	7.72e-01	0	50	104	0	4	65535
2026-01-08 10:46:16.39	133.05	3.05	-14.6	-41.1	3.8	7.77e-01	0	50	104	0	3	65535
2026-01-08 10:46:19.42	132.90	3.26	-16.3	-40.1	2.1	7.72e-01	0	50	104	0	1	65535
2026-01-08 10:46:22.45	132.75	3.46	-14.0	-39.6	1.9	7.85e-01	0	51	104	0	0	65535
2026-01-08 10:46:25.48	132.60	3.66	-16.2	-40.6	3.9	7.74e-01	0	51	104	0	2	65535
2026-01-08 10:46:28.51	132.44	3.87	-16.9	-39.6	2.7	7.80e-01	0	51	104	0	0	65535
2026-01-08 10:46:31.54	132.28	4.08	-17.7	-40.1	3.6	7.66e-01	0	51	104	0	1	65535
2026-01-08 10:46:34.57	132.12	4.29	-10.2	-39.6	3.6	7.82e-01	0	51	104	0	0	65535
2026-01-08 10:46:37.59	131.96	4.50	-15.3	-41.6	3.2	7.77e-01	0	51	104	0	4	65535
2026-01-08 10:46:40.62	131.79	4.71	-15.7	-41.1	2.7	7.74e-01	0	51	104	0	3	65530
2026-01-08 10:46:43.65	131.62	4.92	-17.9	-40.1	3.7	7.83e-01	0	52	104	0	1	65535
2026-01-08 10:46:46.68	131.45	5.14	-11.7	-39.6	3.1	7.87e-01	0	52	104	0	0	65535
2026-01-08 10:46:49.71	131.27	5.35	-14.5	-39.6	2.8	7.74e-01	0	52	104	0	0	65535
2026-01-08 10:46:52.74	131.10	5.57	-16.7	-41.1	2.8	7.78e-01	0	52	104	0	3	65535
2026-01-08 10:46:55.78	130.91	5.80	-14.5	-40.6	4.0	7.75e-01	0	52	104	0	2	65535
2026-01-08 10:46:58.81	130.73	6.02	-12.2	-39.6	3.2	7.83e-01	0	53	104	0	0	65535
2026-01-08 10:47:01.84	130.54	6.24	-12.6	-39.6	3.2	7.71e-01	0	53	104	0	0	65471
2026-01-08 10:47:04.87	130.35	6.47	-13.0	-39.6	3.2	7.67e-01	0	53	104	0	0	65525
2026-01-08 10:47:07.90	130.16	6.70	-16.3	-42.1	2.8	7.79e-01	0	53	104	0	5	65535
2026-01-08 10:47:10.93	129.96	6.93	-16.3	-40.6	3.1	7.70e-01	0	53	104	0	2	65533
2026-01-08 10:47:13.96	129.76	7.16	-17.0	-41.1	3.5	7.67e-01	0	53	104	0	3	65535
2026-01-08 10:47:16.99	129.55	7.40	-15.1	-42.1	3.1	7.66e-01	0	53	104	0	5	65392
2026-01-08 10:47:20.02	129.34	7.63	-14.7	-40.1	5.6	7.58e-01	0	53	104	0	1	65527
2026-01-08 10:47:23.05	129.13	7.87	-16.4	-42.6	3.5	7.79e-01	0	53	104	0	6	65535
2026-01-08 10:47:26.08	128.91	8.11	-16.8	-41.6	3.2	7.77e-01	0	53	104	0	4	65535
2026-01-08 10:47:29.10	128.69	8.35	-12.0	-41.6	4.3	7.73e-01	0	54	104	0	4	65527
2026-01-08 10:47:32.13	128.47	8.60	-15.9	-39.6	3.4	7.77e-01	0	54	104	0	0	65535
2026-01-08 10:47:35.16	128.24	8.85	-12.4	-40.0	3.9	7.58e-01	0	54	104	0	1	64426
2026-01-08 10:47:38.19	128.01	9.10	-11.4	-39.6	4.4	7.40e-01	0	54	104	0	0	65300
2026-01-08 10:47:41.22	127.77	9.35	-14.3	-42.1	4.1	7.39e-01	0	54	104	0	5	65535
2026-01-08 10:47:44.25	127.52	9.61	-9.7	-39.6	6.9	6.88e-01	45	54	0	1572864	0	65428
2026-01-08 10:47:47.28	127.28	9.86	-14.8	-40.6	7.5	6.78e-01	1	54	0	1572864	2	65535
2026-01-08 10:47:50.31	127.02	10.12	-15.2	-42.9	7.9	6.51e-01	26	54	0	2097152	8	60045
2026-01-08 10:47:53.34	126.77	10.38	-19.4	-43.2	8.1	6.31e-01	90	55	0	2621440	11	52559
2026-01-08 10:47:56.38	126.50	10.65	-22.0	-43.6	8.1	6.41e-01	73	54	0	4718592	12	52151
2026-01-08 10:47:59.41	126.23	10.92	-19.1	-41.2	10.0	6.27e-01	92	55	0	6815744	13	36987
2026-01-08 10:48:02.44	125.96	11.19	-16.4	-39.6	4.2	7.47e-01	0	55	104	10485760	0	65535
2026-01-08 10:48:05.47	125.68	11.46	-23.8	-41.7	11.9	6.18e-01	90	55	0	13631488	24	20959
2026-01-08 10:48:08.49	125.40	11.74	-25.4	-42.6	9.4	6.34e-01	69	55	0	16777216	21	27673
2026-01-08 10:48:11.53	125.11	12.02	-25.7	-41.9	12.0	6.15e-01	27	55	0	20447232	26	19101
2026-01-08 10:48:14.56	124.81	12.30	-25.4	-41.8	9.6	6.12e-01	12	55	0	23592960	27	17732
2026-01-08 10:48:17.59	124.50	12.58	-35.2	-43.1	15.8	6.10e-01	10	55	0	28835840	41	9222
2026-01-08 10:48:20.62	124.19	12.87	-18.1	-41.8	8.6	6.46e-01	89	55	0	31457280	7	56466
2026-01-08 10:48:23.65	123.88	13.16	-37.9	-44.4	17.6	6.08e-01	0	55	0	37224448	51	5993
2026-01-08 10:48:26.68	123.55	13.45	-28.5	-43.1	9.1	6.21e-01	50	55	0	42467328	23	25896
2026-01-08 10:48:29.70	123.22	13.75	-33.0	-44.3	13.1	6.13e-01	2	55	0	48234496	39	11892
2026-01-08 10:48:32.73	122.89	14.05	-30.9	-43.0	12.8	6.12e-01	12	55	0	54001664	33	14511
2026-01-08 10:48:35.76	122.54	14.35	-35.6	-43.6	15.5	6.12e-01	2	55	0	59244544	42	9175
2026-01-08 10:48:38.79	122.19	14.66	-38.8	-43.1	17.1	6.05e-01	0	55	0	65011712	42	8704
2026-01-08 10:48:41.82	121.82	14.97	-33.0	-42.7	16.2	6.08e-01	0	56	0	70778880	43	7812
2026-01-08 10:48:44.85	121.45	15.28	-37.2	-42.7	18.1	6.06e-01	0	56	0	76546048	47	6211
2026-01-08 10:48:47.88	121.08	15.60	-31.1	-42.4	15.8	6.08e-01	0	56	0	82313216	37	10718
2026-01-08 10:48:50.91	120.69	15.91	-36.1	-42.2	18.9	6.05e-01	0	56	0	88080384	45	6645
2026-01-08 10:48:53.94	120.29	16.24	-40.0	-42.9	19.4	6.06e-01	0	56	0	93847552	50	5343
2026-01-08 10:48:56.97	119.89	16.56	-36.7	-42.4	19.2	6.08e-01	0	56	0	99090432	47	5994
2026-01-08 10:49:00.00	119.47	16.89	-38.3	-42.3	18.5	6.05e-01	0	56	0	104857600	44	7084
2026-01-08 10:49:03.03	119.04	17.22	-40.0	-42.8	20.2	6.06e-01	0	56	0	110624768	50	5309
2026-01-08 10:49:06.06	118.61	17.56	-40.3	-43.1	19.8	6.05e-01	0	56	0	116391936	51	5173
2026-01-08 10:49:09.09	118.16	17.90	-40.4	-43.1	20.3	6.06e-01	0	56	0	122159104	51	5177
2026-01-08 10:49:12.12	117.71	18.24	-40.4	-43.0	20.4	6.07e-01	0	56	0	127401984	51	5128
2026-01-08 10:49:15.15	117.24	18.59	-40.5	-43.1	20.4	6.06e-01	0	56	0	133169152	51	5167
2026-01-08 10:49:18.18	116.76	18.94	-40.2	-42.8	20.6	6.05e-01	0	56	0	138936320	51	4986
2026-01-08 10:49:21.21	116.26	19.29	-40.2	-42.7	20.7	6.05e-01	0	56	0	144703488	51	4960
2026-01-08 10:49:24.24	115.76	19.65	-40.2	-42.7	20.7	6.09e-01	0	56	0	150470656	51	4959
2026-01-08 10:49:27.27	115.24	20.01	-40.1	-43.0	20.3	6.06e-01	0	56	0	156237824	50	5408
2026-01-08 10:49:30.30	114.71	20.37	-40.5	-43.0	20.5	6.09e-01	0	56	0	162004992	51	5153
2026-01-08 10:49:33.33	114.17	20.74	-40.6	-43.3	20.3	6.06e-01	0	56	0	167247872	51	5293
2026-01-08 10:49:36.36	113.61	21.11	-40.8	-43.5	20.0	6.06e-01	0	56	0	173015040	52	5129
2026-01-08 10:49:39.39	113.04	21.48	-40.6	-43.2	20.3	6.07e-01	0	56	0	178782208	52	4978
2026-01-08 10:49:42.42	112.45	21.86	-40.6	-43.2	20.3	6.06e-01	0	56	0	184549376	52	4981
2026-01-08 10:49:45.45	111.85	22.24	-40.5	-43.0	20.6	6.04e-01	0	56	0	190316544	52	4836
2026-01-08 10:49:48.48	111.23	22.62	-40.4	-43.0	20.6	6.06e-01	0	56	0	195559424	52	4819
2026-01-08 10:49:51.50	110.60	23.00	-40.5	-43.1	20.6	6.08e-01	0	56	0	201326592	51	5168
2026-01-08 10:49:54.53	109.95	23.39	-40.5	-43.1	20.6	6.05e-01	0	57	0	207093760	51	5162
2026-01-08 10:49:57.56	109.28	23.78	-40.4	-43.0	20.6	6.06e-01	0	57	0	212860928	51	5158
2026-01-08 10:50:00.59	108.59	24.17	-40.5	-43.0	20.7	6.04e-01	0	56	0	218628096	51	5117
2026-01-08 10:50:03.62	107.89	24.56	-40.5	-43.0	20.7	6.07e-01	0	57	0	224395264	51	5113
2026-01-08 10:50:06.66	107.16	24.96	-40.5	-43.0	20.7	6.04e-01	0	57	0	230162432	51	5121
2026-01-08 10:50:09.69	106.42	25.36	-40.5	-43.0	20.7	6.07e-01	0	57	0	235405312	51	5117
2026-01-08 10:50:12.72	105.65	25.75	-40.3	-42.7	21.0	6.06e-01	0	57	0	241172480	51	4981
2026-01-08 10:50:15.75	104.87	26.15	-40.3	-42.6	21.1	6.08e-01	0	57	0	246939648	51	4907
2026-01-08 10:50:18.78	104.07	26.55	-40.5	-42.9	20.8	6.03e-01	0	57	0	252706816	51	5087
2026-01-08 10:50:21.81	103.24	26.95	-40.2	-42.6	21.2	6.05e-01	0	57	0	258473984	51	4875
2026-01-08 10:50:24.84	102.39	27.35	-40.2	-42.5	21.3	6.05e-01	0	57	0	264241152	51	4856
2026-01-08 10:50:27.87	101.53	27.75	-40.0	-42.2	21.5	6.07e-01	0	57	0	269484032	51	4696
2026-01-08 10:50:30.90	100.63	28.15	-40.2	-42.5	20.7	6.08e-01	0	57	0	275251200	51	4833
2026-01-08 10:50:33.93	99.72	28.54	-39.9	-42.1	21.7	6.05e-01	0	57	0	281018368	51	4635
2026-01-08 10:50:36.96	98.78	28.94	-40.0	-42.2	21.6	6.07e-01	0	57	0	286785536	51	4705
2026-01-08 10:50:39.98	97.82	29.33	-40.0	-42.3	21.5	6.07e-01	0	57	0	292552704	51	4714
2026-01-08 10:50:43.02	96.83	29.72	-40.0	-42.3	21.5	6.06e-01	0	57	0	298319872	51	4727
2026-01-08 10:50:46.05	95.81	30.10	-39.9	-42.1	21.7	6.07e-01	0	57	0	303562752	51	4648
2026-01-08 10:50:49.08	94.78	30.48	-40.1	-42.3	21.5	6.05e-01	0	57	0	309329920	51	4743
2026-01-08 10:50:52.11	93.71	30.85	-39.8	-41.9	21.9	6.06e-01	0	57	0	315097088	51	4527
2026-01-08 10:50:55.14	92.63	31.22	-40.0	-42.2	21.6	6.05e-01	0	57	0	320864256	51	4694
2026-01-08 10:50:58.17	91.51	31.58	-40.0	-42.2	21.7	6.07e-01	0	57	0	326631424	51	4666
2026-01-08 10:51:01.20	90.37	31.93	-39.9	-42.1	21.8	6.07e-01	0	57	0	332398592	51	4625
2026-01-08 10:51:04.23	89.21	32.28	-39.9	-42.1	21.8	6.07e-01	0	57	0	337641472	51	4621
2026-01-08 10:51:07.26	88.02	32.62	-40.0	-42.2	21.7	6.06e-01	0	57	0	343408640	51	4664
2026-01-08 10:51:10.29	86.80	32.94	-40.1	-42.3	21.6	6.07e-01	0	57	0	349175808	51	4722
2026-01-08 10:51:13.32	85.56	33.26	-40.1	-42.4	21.5	6.06e-01	0	57	0	354942976	51	4778
2026-01-08 10:51:16.35	84.29	33.56	-40.3	-42.5	21.4	6.06e-01	0	57	0	360710144	51	4867
2026-01-08 10:51:19.38	83.00	33.85	-40.3	-42.6	21.3	6.06e-01	0	57	0	366477312	51	4895
2026-01-08 10:51:22.41	81.69	34.13	-40.1	-42.4	21.5	6.04e-01	0	57	0	371720192	51	4787
2026-01-08 10:51:25.44	80.36	34.39	-40.4	-42.7	21.2	6.06e-01	0	57	0	377487360	51	4942
2026-01-08 10:51:28.47	79.00	34.64	-40.6	-43.0	21.0	6.05e-01	0	57	0	383254528	51	5136
2026-01-08 10:51:31.50	77.62	34.87	-40.6	-43.1	20.9	6.02e-01	0	57	0	389021696	51	5167
2026-01-08 10:51:34.53	76.23	35.08	-40.6	-43.1	20.9	6.06e-01	0	57	0	394788864	51	5167
2026-01-08 10:51:37.57	74.81	35.28	-40.6	-43.1	20.9	6.06e-01	0	57	0	400556032	52	4879
2026-01-08 10:51:40.60	73.38	35.45	-40.6	-43.0	21.0	6.07e-01	0	57	0	406323200	52	4828
2026-01-08 10:51:43.63	71.93	35.61	-40.4	-42.8	21.1	6.05e-01	0	57	0	411566080	52	4728
2026-01-08 10:51:46.65	70.48	35.75	-40.8	-43.3	20.6	6.07e-01	0	57	0	417333248	52	5019
2026-01-08 10:51:49.69	69.00	35.87	-40.7	-43.2	20.8	6.08e-01	0	57	0	423100416	52	4945
2026-01-08 10:51:52.72	67.52	35.96	-40.6	-43.0	21.0	6.05e-01	0	57	0	428867584	52	4835
2026-01-08 10:51:55.74	66.03	36.04	-40.9	-43.4	20.6	6.06e-01	0	57	0	434634752	52	5068
2026-01-08 10:51:58.77	64.54	36.10	-41.0	-43.7	20.3	6.05e-01	0	57	0	439877632	52	5226
2026-01-08 10:52:01.80	63.04	36.13	-40.8	-43.3	20.6	6.06e-01	0	57	0	445644800	52	5027
2026-01-08 10:52:04.83	61.54	36.14	-40.8	-43.4	20.6	6.06e-01	0	57	0	451411968	52	5054
2026-01-08 10:52:07.86	60.04	36.13	-40.7	-43.2	20.8	6.07e-01	0	57	0	457179136	52	4962
2026-01-08 10:52:10.89	58.54	36.10	-40.7	-43.1	20.9	6.07e-01	0	57	0	462946304	52	4924
2026-01-08 10:52:13.92	57.04	36.04	-40.8	-43.3	20.7	6.05e-01	0	57	0	468713472	52	5003
2026-01-08 10:52:16.95	55.56	35.96	-40.7	-43.2	20.8	6.05e-01	0	57	0	474480640	52	4941
2026-01-08 10:52:19.98	54.08	35.87	-40.9	-43.5	20.5	6.05e-01	0	57	0	479723520	52	5120
2026-01-08 10:52:23.01	52.61	35.75	-41.2	-43.9	20.1	6.05e-01	0	57	0	485490688	53	5050
2026-01-08 10:52:26.04	51.15	35.61	-40.7	-43.1	20.9	6.04e-01	0	57	0	491257856	53	4647
2026-01-08 10:52:29.07	49.71	35.45	-40.7	-43.2	20.8	6.04e-01	0	57	0	497025024	53	4680
2026-01-08 10:52:32.10	48.28	35.28	-40.9	-43.4	20.6	6.08e-01	0	57	0	502792192	53	4767
2026-01-08 10:52:35.13	46.86	35.08	-40.7	-43.2	20.8	6.06e-01	0	57	0	508559360	53	4664
2026-01-08 10:52:38.16	45.47	34.87	-40.8	-43.3	20.6	6.04e-01	0	58	0	513802240	53	4758
2026-01-08 10:52:41.19	44.10	34.64	-40.7	-43.2	20.8	6.05e-01	0	57	0	519569408	53	4674
2026-01-08 10:52:44.22	42.74	34.39	-41.2	-53.1	3.8	7.49e-01	0	58	104	523239424	53	14636
2026-01-08 10:52:47.25	41.41	34.13	-41.2	-53.0	4.0	7.39e-01	0	58	104	523239424	53	14429
2026-01-08 10:52:50.28	40.10	33.85	-42.7	-55.4	3.8	7.43e-01	0	57	104	523239424	57	15109
2026-01-08 10:52:53.31	38.82	33.56	-41.6	-53.6	3.9	7.41e-01	0	58	104	523239424	54	14587
2026-01-08 10:52:56.34	37.56	33.26	-42.3	-54.5	3.8	7.46e-01	0	58	104	523239424	56	14483
2026-01-08 10:52:59.37	36.32	32.95	-42.8	-55.3	3.9	7.41e-01	0	58	104	523239424	56	15882
2026-01-08 10:53:02.40	35.11	32.62	-41.1	-53.0	3.8	7.42e-01	0	58	104	523239424	54	13670
2026-01-08 10:53:05.43	33.92	32.29	-42.6	-55.1	3.8	7.45e-01	0	58	104	523239424	57	14586
2026-01-08 10:53:08.46	32.76	31.95	-41.2	-53.3	3.8	7.46e-01	0	58	104	523239424	54	14162
2026-01-08 10:53:11.49	31.62	31.59	-42.8	-55.4	3.8	7.44e-01	0	58	104	523239424	57	15195
2026-01-08 10:53:14.52	30.51	31.23	-41.2	-53.0	3.8	7.46e-01	0	58	104	523239424	54	13596
2026-01-08 10:53:17.55	29.43	30.87	-41.1	-53.0	3.8	7.46e-01	0	58	104	523239424	54	13657
2026-01-08 10:53:20.58	28.37	30.49	-41.5	-53.4	3.8	7.45e-01	0	58	104	523239424	54	14349
2026-01-08 10:53:23.61	27.33	30.12	-42.1	-54.3	3.8	7.46e-01	0	58	104	523239424	55	14908
2026-01-08 10:53:26.64	26.33	29.74	-41.0	-52.8	3.8	7.49e-01	0	58	104	523239424	54	13345
2026-01-08 10:53:29.67	25.34	29.35	-42.9	-55.5	3.8	7.46e-01	0	58	104	523239424	56	16167
2026-01-08 10:53:32.70	24.38	28.96	-41.2	-53.2	3.8	7.45e-01	0	58	104	523239424	54	13951
2026-01-08 10:53:35.73	23.45	28.57	-44.4	-58.6	3.8	7.45e-01	0	58	104	523239424	59	19420
2026-01-08 10:53:38.76	22.54	28.17	-41.2	-53.0	3.8	7.42e-01	0	58	104	523239424	54	13580
2026-01-08 10:53:41.79	21.65	27.78	-41.2	-53.2	3.8	7.48e-01	0	58	104	523239424	54	13914
2026-01-08 10:53:44.81	20.78	27.38	-42.9	-55.5	3.8	7.41e-01	0	58	104	523239424	56	16305
2026-01-08 10:53:47.84	19.94	26.99	-41.4	-53.4	3.8	7.46e-01	0	58	104	523239424	54	14364
2026-01-08 10:53:50.88	19.12	26.59	-43.9	-57.5	3.8	7.45e-01	0	58	104	523239424	58	18133
2026-01-08 10:53:53.91	18.32	26.19	-43.3	-56.5	3.8	7.40e-01	0	58	104	523239424	58	16261
2026-01-08 10:53:56.94	17.54	25.79	-41.5	-53.6	3.8	7.47e-01	0	58	104	523239424	54	14586
2026-01-08 10:53:59.96	16.78	25.40	-42.5	-55.1	3.8	7.45e-01	0	58	104	523239424	55	16339
2026-01-08 10:54:03.00	16.04	25.00	-45.2	-61.5	3.7	7.46e-01	0	58	104	523239424	60	25674
2026-01-08 10:54:06.02	15.32	24.61	-41.3	-53.3	3.8	7.46e-01	0	58	104	523239424	54	14094
2026-01-08 10:54:09.05	14.62	24.22	-43.4	-56.7	3.8	7.44e-01	0	58	104	523239424	57	17594
2026-01-08 10:54:12.08	13.94	23.83	-41.4	-53.7	3.9	7.49e-01	0	58	104	523239424	54	14736
2026-01-08 10:54:15.11	13.27	23.44	-44.3	-59.1	3.8	7.43e-01	0	58	104	523239424	60	19504
2026-01-08 10:54:18.14	12.62	23.06	-43.2	-56.3	3.8	7.45e-01	0	58	104	523239424	58	15772
2026-01-08 10:54:21.17	11.99	22.68	-41.6	-53.8	3.8	7.46e-01	0	58	104	523239424	55	14105
2026-01-08 10:54:24.20	11.38	22.30	-42.6	-55.4	3.9	7.41e-01	0	58	104	523239424	57	15106
2026-01-08 10:54:27.23	10.78	21.92	-42.8	-55.7	3.8	7.44e-01	0	58	104	523239424	56	16552
2026-01-08 10:54:30.26	10.19	21.55	-41.3	-53.2	3.8	7.46e-01	0	58	104	523239424	54	14045
2026-01-08 10:54:33.29	9.62	21.17	-44.8	-60.8	3.9	7.48e-01	0	58	104	523239424	60	23716
2026-01-08 10:54:36.32	9.07	20.81	-41.4	-53.6	3.8	7.41e-01	0	58	104	523239424	54	14583
2026-01-08 10:54:39.35	8.53	20.44	-41.4	-53.5	3.8	7.44e-01	0	58	104	523239424	54	14485
2026-01-08 10:54:42.38	8.00	20.08	-41.0	-52.9	3.9	7.47e-01	0	58	104	523239424	54	13549
2026-01-08 10:54:45.41	7.49	19.72	-41.3	-53.4	3.8	7.42e-01	0	58	104	523239424	54	14359
2026-01-08 10:54:48.44	6.98	19.37	-41.1	-53.0	3.9	7.44e-01	0	58	104	523239424	54	13681
2026-01-08 10:54:51.47	6.50	19.01	-42.2	-55.0	3.8	7.43e-01	0	58	104	523239424	55	16207
2026-01-08 10:54:54.50	6.02	18.67	-41.0	-53.1	3.8	7.45e-01	0	58	104	523239424	54	13730
2026-01-08 10:54:57.53	5.55	18.32	-44.2	-58.7	3.9	7.44e-01	0	58	104	523239424	59	19760
2026-01-08 10:55:00.56	5.10	17.98	-41.2	-53.4	3.8	7.44e-01	0	58	104	523239424	54	14223
2026-01-08 10:55:03.59	4.66	17.64	-41.2	-53.3	3.8	7.46e-01	0	58	104	523239424	54	14120
2026-01-08 10:55:06.62	4.22	17.31	-41.3	-53.6	3.9	7.45e-01	0	58	104	523239424	54	14692
2026-01-08 10:55:09.65	3.80	16.98	-41.2	-53.4	3.8	7.46e-01	0	58	104	523239424	54	14350
2026-01-08 10:55:12.68	3.39	16.65	-43.1	-56.6	3.8	7.43e-01	0	58	104	523239424	56	18379
2026-01-08 10:55:15.71	2.98	16.32	-41.8	-54.5	3.8	7.47e-01	0	58	104	523239424	55	15324
2026-01-08 10:55:18.74	2.59	16.00	-41.1	-53.5	3.8	7.45e-01	0	58	104	523239424	54	14528
2026-01-08 10:55:21.77	2.21	15.69	-41.7	-54.2	3.8	7.46e-01	0	58	104	523239424	55	14762
2026-01-08 10:55:24.80	1.83	15.37	-40.8	-53.2	3.8	7.46e-01	0	58	104	523239424	53	14831
2026-01-08 10:55:27.83	1.46	15.06	-41.4	-54.2	3.8	7.48e-01	0	58	104	523239424	53	16614
2026-01-08 10:55:30.86	1.10	14.75	-42.9	-60.3	3.7	7.46e-01	0	58	104	523239424	56	28217
2026-01-08 10:55:33.89	0.75	14.45	-40.6	-53.2	3.8	7.47e-01	0	58	104	523239424	52	15736
2026-01-08 10:55:36.92	0.41	14.15	-41.0	-55.9	3.8	7.44e-01	0	58	104	523239424	53	20284
2026-01-08 10:55:39.95	0.08	13.85	-40.3	-53.3	3.8	7.48e-01	0	58	104	523239424	52	15869
2026-01-08 10:55:42.98	359.75	13.55	-41.1	-58.3	3.8	7.46e-01	0	58	104	523239424	52	28066
2026-01-08 10:55:46.01	359.43	13.26	-41.2	-59.1	3.8	7.45e-01	0	58	104	523239424	53	29240
2026-01-08 10:55:49.04	359.11	12.97	-41.8	-59.0	3.8	7.43e-01	0	59	104	523239424	55	25674
2026-01-08 10:55:52.07	358.80	12.68	-42.1	-60.1	3.8	7.46e-01	0	58	104	523239424	55	29268
2026-01-08 10:55:55.10	358.50	12.40	-41.2	-60.4	3.8	7.42e-01	0	58	104	523239424	53	33787
2026-01-08 10:55:58.13	358.21	12.12	-41.4	-60.1	3.8	7.46e-01	0	58	104	523239424	53	32676
2026-01-08 10:56:01.16	357.92	11.84	-40.3	-59.8	3.8	7.45e-01	0	58	104	523239424	52	33327
2026-01-08 10:56:04.20	357.64	11.57	-40.3	-59.6	3.8	7.43e-01	0	58	104	523239424	52	32908
2026-01-08 10:56:07.23	357.36	11.29	-39.9	-59.7	3.8	7.44e-01	0	58	104	523239424	51	35241
2026-01-08 10:56:10.26	357.09	11.03	-39.4	-59.6	3.8	7.44e-01	0	58	104	523239424	50	36930
2026-01-08 10:56:13.29	356.83	10.76	-40.6	-59.8	3.8	7.42e-01	0	58	104	523239424	52	33347
2026-01-08 10:56:16.32	356.57	10.49	-38.8	-59.6	3.8	7.43e-01	0	58	104	523239424	49	38812
2026-01-08 10:56:19.36	356.31	10.23	-38.7	-59.6	3.8	7.45e-01	0	59	104	523239424	49	38858
2026-01-08 10:56:22.39	356.06	9.97	-39.6	-59.7	3.8	7.46e-01	0	58	104	523239424	51	35059
2026-01-08 10:56:25.41	355.82	9.72	-39.6	-59.7	3.8	7.44e-01	0	58	104	523239424	50	37027
2026-01-08 10:56:28.44	355.58	9.46	-39.7	-59.7	3.8	7.46e-01	0	58	104	523239424	50	37163
2026-01-08 10:56:31.47	355.34	9.21	-39.7	-59.7	3.8	7.45e-01	0	59	104	523239424	51	35245
2026-01-08 10:56:34.50	355.11	8.96	-40.1	-59.8	3.8	7.45e-01	0	58	104	523239424	52	33335
2026-01-08 10:56:37.53	354.88	8.72	-40.2	-59.7	3.8	7.45e-01	0	58	104	523239424	51	35260
2026-01-08 10:56:40.56	354.66	8.47	-40.7	-59.8	3.8	7.46e-01	0	58	104	523239424	52	33606
2026-01-08 10:56:43.59	354.45	8.23	-40.8	-59.8	3.8	7.47e-01	0	58	104	523239424	52	33414
2026-01-08 10:56:46.62	354.23	7.99	-40.7	-59.8	3.8	7.46e-01	0	59	104	523239424	52	33431
2026-01-08 10:56:49.65	354.02	7.75	-45.6	-64.4	3.8	7.52e-01	0	58	104	523239424	61	33768
2026-01-08 10:56:52.68	353.82	7.51	-46.1	-64.8	3.8	7.46e-01	0	59	104	523239424	62	33695
2026-01-08 10:56:55.71	353.61	7.28	-46.2	-65.0	3.8	7.46e-01	0	58	104	523239424	62	34149
2026-01-08 10:56:58.74	353.42	7.05	-46.1	-64.9	3.8	7.48e-01	0	59	104	523239424	62	33917
2026-01-08 10:57:01.77	353.22	6.82	-46.1	-64.9	3.8	7.47e-01	0	59	104	523239424	62	33851
2026-01-08 10:57:04.80	353.03	6.59	-46.0	-64.9	3.8	7.47e-01	0	58	104	523239424	62	33698
2026-01-08 10:57:07.83	352.84	6.37	-46.0	-64.8	3.8	7.45e-01	0	58	104	523239424	62	33658
2026-01-08 10:57:10.86	352.66	6.14	-46.0	-64.8	3.8	7.46e-01	0	59	104	523239424	62	33621
2026-01-08 10:57:13.88	352.48	5.92	-46.0	-64.8	3.8	7.43e-01	0	59	104	523239424	62	33559
2026-01-08 10:57:16.91	352.30	5.70	-46.0	-64.8	3.8	7.47e-01	0	59	104	523239424	62	33537
2026-01-08 10:57:19.94	352.12	5.48	-46.0	-64.8	3.8	7.44e-01	0	58	104	523239424	62	33582
2026-01-08 10:57:22.97	351.95	5.26	-46.0	-64.8	3.8	7.46e-01	0	59	104	523239424	62	33542
2026-01-08 10:57:26.00	351.78	5.05	-46.0	-64.8	3.8	7.47e-01	0	58	104	523239424	62	33524
2026-01-08 10:57:29.04	351.62	4.84	-46.0	-64.8	3.8	7.46e-01	0	59	104	523239424	62	33508
2026-01-08 10:57:32.07	351.45	4.62	-46.0	-64.8	3.8	7.48e-01	0	59	104	523239424	62	33472
2026-01-08 10:57:35.10	351.29	4.41	-46.0	-64.8	3.8	7.42e-01	0	58	104	523239424	62	33558
2026-01-08 10:57:38.13	351.14	4.20	-46.0	-64.8	3.8	7.43e-01	0	58	104	523239424	62	33441
2026-01-08 10:57:41.16	350.98	4.00	-46.0	-64.8	3.8	7.45e-01	0	59	104	523239424	62	33459
2026-01-08 10:57:44.19	350.83	3.79	-46.0	-64.8	3.8	7.44e-01	0	59	104	523239424	62	33434
2026-01-08 10:57:47.22	350.68	3.59	-46.0	-64.8	3.8	7.46e-01	0	58	104	523239424	62	33547
2026-01-08 10:57:50.25	350.53	3.39	-46.0	-64.8	3.8	7.44e-01	0	59	104	523239424	62	33473
2026-01-08 10:57:53.29	350.38	3.18	-46.0	-64.8	3.8	7.43e-01	0	59	104	523239424	62	33408
2026-01-08 10:57:56.32	350.24	2.99	-45.9	-64.8	3.8	7.46e-01	0	59	104	523239424	62	33430
2026-01-08 10:57:59.35	350.10	2.79	-45.9	-64.8	3.8	7.47e-01	0	59	104	523239424	62	33434
2026-01-08 10:58:02.38	349.96	2.59	-46.0	-64.8	3.8	7.47e-01	0	59	104	523239424	62	33457
2026-01-08 10:58:05.41	349.83	2.40	-46.0	-64.8	3.8	7.44e-01	0	59	104	523239424	62	33426
2026-01-08 10:58:08.44	349.69	2.20	-45.9	-64.8	3.8	7.46e-01	0	59	104	523239424	62	33337
2026-01-08 10:58:11.48	349.56	2.01	-46.0	-64.8	3.8	7.44e-01	0	59	104	523239424	62	33335

#Closed at: 2026-01-08 10:58:12
#Recorded file [523 MB]: D:/lorett/data/31039_260108_134601.dat