passes_logs/2026/01/08/R2.0S_Moscow/R2.0S_Moscow__20260108_061259_FENGYUN_3E_rec.log

#Pass ID: 20260108_061259_FENGYUN 3E
#Satellite: FENGYUN 3E
#Configuration: FENGYUN 3E
#almurnet v.1.7.20251203
#Start time: 2026-01-08 06:13:00

#Version: 2.2.20231116
#Station: R2.0S_Moscow
#Location: 37.707566 lon 55.798166 lat
#TLE: 1 49008U 21062A   26006.26767912  .00000427  00000+0  22170-3 0  9993
#TLE: 2 49008  98.7475  11.4982 0001602 156.1158 204.0093 14.19885456233607

#Time	Az	El	Level	Level2	SNR	BER	BlckErr	Temp	State	Recorded	gain1	gain2
2026-01-08 06:13:00.12	8.55	2.03	-39.9	-51.1	3.8	8.45e-01	0	47	0	0	49	13752
2026-01-08 06:13:03.14	8.29	2.18	-39.9	-51.1	3.8	8.47e-01	0	47	104	0	50	12969
2026-01-08 06:13:06.18	8.03	2.33	-39.9	-51.1	3.8	8.46e-01	0	47	104	0	50	12998
2026-01-08 06:13:09.20	7.77	2.48	-39.9	-51.1	3.8	8.47e-01	0	48	104	0	50	12985
2026-01-08 06:13:12.24	7.50	2.63	-39.9	-51.1	3.8	8.46e-01	0	48	104	0	50	12981
2026-01-08 06:13:15.27	7.23	2.79	-39.9	-51.1	3.8	8.45e-01	0	48	104	0	50	13020
2026-01-08 06:13:18.30	6.96	2.94	-39.9	-51.1	3.8	8.45e-01	0	48	104	0	50	13015
2026-01-08 06:13:21.33	6.68	3.09	-39.9	-51.1	3.8	8.46e-01	0	49	104	0	50	12997
2026-01-08 06:13:24.36	6.40	3.25	-39.9	-51.0	3.8	8.46e-01	0	49	104	0	50	12957
2026-01-08 06:13:27.39	6.12	3.40	-39.9	-51.0	3.8	8.47e-01	0	49	104	0	50	12948
2026-01-08 06:13:30.42	5.84	3.55	-39.9	-51.1	3.8	8.45e-01	0	49	104	0	50	12983
2026-01-08 06:13:33.46	5.55	3.71	-39.9	-51.1	3.8	8.46e-01	0	49	104	0	50	12966
2026-01-08 06:13:36.49	5.26	3.86	-39.9	-51.1	3.8	8.47e-01	0	50	104	0	50	12975
2026-01-08 06:13:39.52	4.97	4.02	-39.9	-51.0	3.8	8.45e-01	0	50	104	0	50	12945
2026-01-08 06:13:42.55	4.67	4.17	-39.9	-51.0	3.8	8.46e-01	0	50	104	0	50	12934
2026-01-08 06:13:45.58	4.37	4.33	-39.9	-51.0	3.8	8.45e-01	0	50	104	0	50	12951
2026-01-08 06:13:48.61	4.06	4.48	-39.9	-51.0	3.8	8.46e-01	0	50	104	0	50	12947
2026-01-08 06:13:51.65	3.76	4.64	-39.9	-51.1	3.8	8.45e-01	0	51	104	0	50	12971
2026-01-08 06:13:54.68	3.45	4.79	-39.9	-51.0	3.8	8.46e-01	0	51	104	0	50	12924
2026-01-08 06:13:57.71	3.13	4.95	-39.9	-51.0	3.8	8.46e-01	0	51	104	0	50	12933
2026-01-08 06:14:00.73	2.82	5.10	-39.9	-51.0	3.8	8.45e-01	0	51	104	0	50	12946
2026-01-08 06:14:03.76	2.49	5.26	-39.9	-51.0	3.8	8.47e-01	0	51	104	0	50	12936
2026-01-08 06:14:06.78	2.17	5.41	-39.9	-51.0	3.8	8.46e-01	0	51	104	0	50	12913
2026-01-08 06:14:09.82	1.84	5.57	-39.9	-51.0	3.8	8.46e-01	0	52	104	0	50	12941
2026-01-08 06:14:12.85	1.51	5.72	-39.9	-51.1	3.8	8.46e-01	0	52	104	0	50	12973
2026-01-08 06:14:15.88	1.17	5.88	-39.9	-51.0	3.8	8.46e-01	0	52	104	0	50	12951
2026-01-08 06:14:18.91	0.84	6.03	-39.9	-51.0	3.8	8.47e-01	0	52	104	0	50	12949
2026-01-08 06:14:21.94	0.49	6.19	-39.9	-51.0	3.8	8.46e-01	0	52	104	0	50	12902
2026-01-08 06:14:24.97	0.15	6.35	-39.9	-51.0	3.8	8.47e-01	0	52	104	0	50	12934
2026-01-08 06:14:28.00	359.80	6.50	-39.9	-51.0	3.8	8.47e-01	0	52	104	0	50	12947
2026-01-08 06:14:31.03	359.44	6.66	-39.9	-51.0	3.8	8.46e-01	0	52	104	0	50	12870
2026-01-08 06:14:34.06	359.08	6.81	-39.9	-51.0	3.8	8.45e-01	0	52	104	0	50	12944
2026-01-08 06:14:37.09	358.72	6.97	-39.9	-51.0	3.8	8.46e-01	0	53	104	0	50	12914
2026-01-08 06:14:40.12	358.35	7.12	-39.9	-51.0	3.8	8.46e-01	0	53	104	0	50	12899
2026-01-08 06:14:43.15	357.98	7.28	-39.9	-51.0	3.8	8.46e-01	0	53	104	0	50	12876
2026-01-08 06:14:46.18	357.61	7.43	-39.9	-51.0	3.8	8.46e-01	0	53	104	0	50	12935
2026-01-08 06:14:49.21	357.23	7.58	-39.9	-51.0	3.8	8.47e-01	0	53	104	0	50	12909
2026-01-08 06:14:52.24	356.85	7.74	-39.9	-51.0	3.8	8.47e-01	0	53	104	0	50	12901
2026-01-08 06:14:55.27	356.46	7.89	-39.9	-51.0	3.8	8.45e-01	0	53	104	0	50	12949
2026-01-08 06:14:58.30	356.07	8.05	-39.9	-51.0	3.8	8.46e-01	0	53	104	0	50	12959
2026-01-08 06:15:01.33	355.67	8.20	-40.0	-51.1	3.8	8.45e-01	0	53	104	0	50	13038
2026-01-08 06:15:04.36	355.27	8.35	-40.1	-51.2	3.8	8.47e-01	0	53	104	0	50	13185
2026-01-08 06:15:07.39	354.87	8.50	-40.3	-51.3	3.8	8.46e-01	0	54	104	0	50	13368
2026-01-08 06:15:10.42	354.46	8.65	-40.2	-51.2	3.8	8.46e-01	0	54	104	0	50	13236
2026-01-08 06:15:13.46	354.05	8.81	-40.4	-51.4	3.8	8.46e-01	0	54	104	0	50	13434
2026-01-08 06:15:16.49	353.63	8.96	-40.4	-51.4	3.8	8.46e-01	0	54	104	0	50	13458
2026-01-08 06:15:19.52	353.21	9.11	-40.5	-51.5	3.8	8.45e-01	0	54	104	0	50	13586
2026-01-08 06:15:22.55	352.78	9.26	-40.7	-51.7	3.8	8.46e-01	0	54	104	0	51	13121
2026-01-08 06:15:25.58	352.35	9.40	-40.7	-51.6	3.8	8.45e-01	0	54	104	0	51	13056
2026-01-08 06:15:28.61	351.92	9.55	-40.7	-51.6	3.8	8.46e-01	0	54	104	0	51	13100
2026-01-08 06:15:31.64	351.48	9.70	-40.7	-51.7	3.8	8.46e-01	0	54	104	0	51	13206
2026-01-08 06:15:34.67	351.03	9.85	-40.9	-51.9	3.8	8.47e-01	0	54	104	0	51	13486
2026-01-08 06:15:37.70	350.59	9.99	-40.9	-51.9	3.8	8.45e-01	0	54	104	0	51	13429
2026-01-08 06:15:40.73	350.13	10.14	-41.0	-51.9	3.8	8.46e-01	0	54	104	0	51	13497
2026-01-08 06:15:43.77	349.67	10.28	-40.7	-51.7	3.8	8.47e-01	0	54	104	0	51	13154
2026-01-08 06:15:46.80	349.21	10.43	-40.6	-51.6	3.8	8.47e-01	0	54	104	0	52	12303
2026-01-08 06:15:49.83	348.74	10.57	-40.8	-51.7	3.8	8.47e-01	0	55	104	0	52	12478
2026-01-08 06:15:52.86	348.27	10.71	-41.0	-51.8	3.8	8.46e-01	0	55	104	0	52	12656
2026-01-08 06:15:55.89	347.80	10.85	-41.3	-52.2	3.8	8.45e-01	0	55	104	0	52	13209
2026-01-08 06:15:58.92	347.31	10.99	-41.3	-52.2	3.8	8.47e-01	0	55	104	0	52	13166
2026-01-08 06:16:01.95	346.83	11.12	-41.3	-52.3	3.8	8.47e-01	0	55	104	0	52	13308
2026-01-08 06:16:04.98	346.34	11.26	-41.0	-51.9	3.8	8.47e-01	0	55	104	0	52	12707
2026-01-08 06:16:08.01	345.84	11.40	-40.9	-51.8	3.8	8.45e-01	0	55	104	0	52	12637
2026-01-08 06:16:11.04	345.34	11.53	-40.6	-51.6	3.8	8.46e-01	0	55	104	0	52	12322
2026-01-08 06:16:14.07	344.84	11.66	-41.1	-52.0	3.8	8.47e-01	0	55	104	0	52	12867
2026-01-08 06:16:17.10	344.33	11.79	-40.9	-51.8	3.8	8.45e-01	0	55	104	0	52	12656
2026-01-08 06:16:20.13	343.82	11.92	-40.9	-51.9	3.8	8.46e-01	0	55	104	0	52	12697
2026-01-08 06:16:23.16	343.30	12.05	-41.0	-51.9	3.8	8.46e-01	0	55	104	0	52	12775
2026-01-08 06:16:26.19	342.77	12.18	-40.9	-51.8	3.8	8.46e-01	0	55	104	0	52	12583
2026-01-08 06:16:29.22	342.25	12.30	-40.7	-51.6	3.8	8.46e-01	0	55	104	0	52	12295
2026-01-08 06:16:32.26	341.71	12.42	-40.5	-51.5	3.8	8.47e-01	0	55	104	0	51	12928
2026-01-08 06:16:35.29	341.18	12.54	-40.6	-51.5	3.8	8.45e-01	0	55	104	0	51	12947
2026-01-08 06:16:38.32	340.64	12.66	-40.7	-51.3	3.8	8.47e-01	0	55	104	0	51	12537
2026-01-08 06:16:41.35	340.09	12.78	-40.5	-51.3	3.8	8.45e-01	0	55	104	0	51	12605
2026-01-08 06:16:44.38	339.54	12.89	-40.5	-45.2	6.7	2.50e-01	0	55	0	3145728	52	5857
2026-01-08 06:16:47.41	338.99	13.01	-38.2	-40.4	12.4	2.66e-04	0	55	0	24117248	47	4499
2026-01-08 06:16:50.44	338.43	13.12	-36.7	-38.4	14.9	0.00e+00	0	55	0	46137344	44	4248
2026-01-08 06:16:53.47	337.87	13.22	-35.7	-37.1	16.1	0.00e+00	0	55	0	68157440	42	4142
2026-01-08 06:16:56.50	337.30	13.33	-36.4	-37.9	15.7	0.00e+00	0	56	0	90177536	42	4511
2026-01-08 06:16:59.53	336.73	13.43	-36.2	-37.7	16.2	0.00e+00	0	55	0	112197632	42	4393
2026-01-08 06:17:02.56	336.15	13.54	-35.7	-37.0	17.0	0.00e+00	0	56	0	133169152	42	4074
2026-01-08 06:17:05.59	335.57	13.63	-35.8	-37.2	16.8	0.00e+00	0	56	0	155189248	42	4159
2026-01-08 06:17:08.62	334.99	13.73	-35.7	-37.0	17.0	0.00e+00	0	56	0	177209344	42	4093
2026-01-08 06:17:11.65	334.40	13.82	-35.7	-37.0	17.1	0.00e+00	0	56	0	199229440	42	4084
2026-01-08 06:17:14.68	333.81	13.92	-35.6	-36.9	17.3	0.00e+00	0	56	0	221249536	42	4010
2026-01-08 06:17:17.71	333.22	14.00	-35.5	-36.7	17.4	0.00e+00	0	56	0	243269632	41	4176
2026-01-08 06:17:20.74	332.62	14.09	-35.4	-36.6	17.5	0.00e+00	0	56	0	265289728	41	4145
2026-01-08 06:17:23.77	332.02	14.17	-35.3	-36.6	17.6	0.00e+00	0	56	0	286261248	41	4105
2026-01-08 06:17:26.80	331.42	14.25	-35.4	-36.6	17.6	0.00e+00	0	56	0	308281344	41	4117
2026-01-08 06:17:29.83	330.81	14.33	-35.4	-36.6	17.5	0.00e+00	0	56	0	330301440	41	4144
2026-01-08 06:17:32.86	330.20	14.40	-35.3	-36.6	17.6	0.00e+00	0	56	0	352321536	41	4112
2026-01-08 06:17:35.89	329.58	14.47	-35.1	-36.3	18.0	0.00e+00	0	56	0	374341632	41	3983
2026-01-08 06:17:38.92	328.97	14.54	-35.0	-36.2	18.0	0.00e+00	0	56	0	396361728	41	3948
2026-01-08 06:17:41.95	328.35	14.61	-35.0	-36.2	18.0	0.00e+00	0	56	0	418381824	41	3947
2026-01-08 06:17:44.98	327.72	14.67	-35.1	-36.3	18.0	0.00e+00	0	56	0	440401920	41	3978
2026-01-08 06:17:48.02	327.10	14.73	-35.2	-36.4	17.9	0.00e+00	0	56	0	461373440	41	4007
2026-01-08 06:17:51.05	326.47	14.78	-35.2	-36.4	17.9	0.00e+00	0	56	0	483393536	41	4018
2026-01-08 06:17:54.08	325.84	14.83	-35.0	-36.2	18.1	0.00e+00	0	56	0	505413632	41	3939
2026-01-08 06:17:57.10	325.21	14.88	-34.9	-36.1	18.2	0.00e+00	0	56	0	527433728	40	4135
2026-01-08 06:18:00.13	324.57	14.92	-34.9	-36.1	18.2	0.00e+00	0	56	0	549453824	40	4107
2026-01-08 06:18:03.15	323.94	14.97	-35.0	-36.1	18.2	0.00e+00	0	56	0	571473920	40	4142
2026-01-08 06:18:06.19	323.30	15.00	-35.2	-36.4	17.9	0.00e+00	0	56	0	593494016	40	4267
2026-01-08 06:18:09.22	322.66	15.04	-35.2	-36.5	17.9	0.00e+00	0	56	0	614465536	40	4294
2026-01-08 06:18:12.25	322.02	15.07	-35.2	-36.4	17.9	0.00e+00	0	56	0	636485632	40	4257
2026-01-08 06:18:15.28	321.38	15.10	-35.0	-36.2	18.1	0.00e+00	0	56	0	658505728	40	4159
2026-01-08 06:18:18.31	320.74	15.12	-34.9	-36.1	18.2	0.00e+00	0	56	0	680525824	40	4110
2026-01-08 06:18:21.34	320.09	15.14	-34.9	-36.0	18.3	0.00e+00	0	56	0	702545920	40	4098
2026-01-08 06:18:24.37	319.45	15.16	-34.8	-36.0	18.3	0.00e+00	0	56	0	724566016	40	4071
2026-01-08 06:18:27.40	318.80	15.17	-34.8	-36.0	18.3	0.00e+00	0	56	0	746586112	40	4073
2026-01-08 06:18:30.43	318.15	15.18	-35.0	-36.2	18.2	0.00e+00	0	56	0	768606208	40	4146
2026-01-08 06:18:33.46	317.51	15.18	-35.1	-36.3	18.0	0.00e+00	0	56	0	789577728	40	4215
2026-01-08 06:18:36.49	316.86	15.19	-35.2	-36.4	17.9	0.00e+00	0	56	0	811597824	40	4278
2026-01-08 06:18:39.52	316.21	15.18	-35.2	-36.4	17.9	0.00e+00	0	56	0	833617920	40	4262
2026-01-08 06:18:42.55	315.57	15.18	-35.1	-36.3	18.0	0.00e+00	0	56	0	855638016	40	4233
2026-01-08 06:18:45.58	314.92	15.17	-35.1	-36.3	18.0	0.00e+00	0	56	0	877658112	40	4221
2026-01-08 06:18:48.61	314.27	15.16	-35.1	-36.2	18.1	0.00e+00	0	56	0	899678208	40	4193
2026-01-08 06:18:51.64	313.63	15.14	-34.9	-36.0	18.3	0.00e+00	0	56	0	921698304	40	4091
2026-01-08 06:18:54.68	312.98	15.12	-34.8	-36.0	18.3	0.00e+00	0	56	0	943718400	40	4062
2026-01-08 06:18:57.71	312.34	15.10	-34.8	-35.9	18.4	0.00e+00	0	56	0	964689920	40	4032
2026-01-08 06:19:00.74	311.70	15.07	-34.8	-35.9	18.4	0.00e+00	0	56	0	986710016	40	4049
2026-01-08 06:19:03.77	311.06	15.04	-34.7	-35.9	18.4	0.00e+00	0	56	0	1008730112	40	4024
2026-01-08 06:19:06.80	310.42	15.00	-34.8	-35.9	18.3	0.00e+00	0	56	0	1030750208	40	4046
2026-01-08 06:19:09.83	309.78	14.96	-34.8	-36.0	18.3	0.00e+00	0	56	0	1052770304	40	4064
2026-01-08 06:19:12.86	309.14	14.92	-34.8	-35.9	18.4	0.00e+00	0	56	0	1073741824	40	4036
2026-01-08 06:19:15.89	308.50	14.88	-35.0	-36.2	18.1	0.00e+00	0	56	0	1095761920	40	4148
2026-01-08 06:19:18.92	307.87	14.83	-35.0	-36.2	18.1	0.00e+00	0	56	0	1117782016	40	4182
2026-01-08 06:19:21.95	307.24	14.78	-35.0	-36.2	18.1	0.00e+00	0	56	0	1139802112	40	4157
2026-01-08 06:19:24.98	306.61	14.72	-35.0	-36.1	18.1	0.00e+00	0	56	0	1161822208	40	4141
2026-01-08 06:19:28.01	305.99	14.67	-34.9	-36.1	18.1	0.00e+00	0	56	0	1183842304	40	4128
2026-01-08 06:19:31.04	305.36	14.60	-35.1	-36.3	18.0	0.00e+00	0	56	0	1205862400	40	4200
2026-01-08 06:19:34.06	304.74	14.54	-35.1	-36.3	17.9	0.00e+00	0	56	0	1226833920	40	4237
2026-01-08 06:19:37.09	304.13	14.47	-35.1	-36.3	18.0	0.00e+00	0	56	0	1248854016	40	4203
2026-01-08 06:19:40.13	303.51	14.40	-35.0	-36.2	18.0	0.00e+00	0	56	0	1270874112	40	4188
2026-01-08 06:19:43.15	302.90	14.33	-35.1	-36.3	18.0	0.00e+00	0	56	0	1292894208	40	4201
2026-01-08 06:19:46.18	302.29	14.25	-35.1	-36.3	17.9	0.00e+00	0	56	0	1314914304	40	4232
2026-01-08 06:19:49.21	301.68	14.17	-35.1	-36.3	17.9	0.00e+00	0	56	0	1336934400	40	4212
2026-01-08 06:19:52.24	301.08	14.09	-35.0	-36.2	18.0	0.00e+00	0	56	0	1358954496	40	4162
2026-01-08 06:19:55.27	300.48	14.00	-34.9	-36.1	18.0	0.00e+00	0	56	0	1379926016	40	4125
2026-01-08 06:19:58.30	299.88	13.91	-35.0	-36.2	17.9	0.00e+00	0	56	0	1401946112	40	4186
2026-01-08 06:20:01.33	299.29	13.82	-35.3	-36.5	17.7	0.00e+00	0	56	0	1423966208	40	4306
2026-01-08 06:20:04.36	298.70	13.73	-35.3	-36.6	17.5	0.00e+00	0	56	0	1445986304	40	4361
2026-01-08 06:20:07.38	298.12	13.63	-35.2	-36.4	17.7	0.00e+00	0	56	0	1468006400	40	4276
2026-01-08 06:20:10.42	297.54	13.53	-35.0	-36.3	17.8	0.00e+00	0	56	0	1490026496	40	4194
2026-01-08 06:20:13.45	296.96	13.43	-35.1	-36.4	17.6	0.00e+00	0	56	0	1512046592	40	4252
2026-01-08 06:20:16.48	296.39	13.33	-35.1	-36.3	17.6	0.00e+00	0	56	0	1534066688	40	4242
2026-01-08 06:20:19.51	295.82	13.22	-35.1	-36.4	17.5	0.00e+00	0	56	0	1555038208	40	4247
2026-01-08 06:20:22.54	295.25	13.11	-35.1	-36.4	17.4	0.00e+00	0	56	0	1577058304	40	4248
2026-01-08 06:20:25.57	294.69	13.00	-35.3	-36.6	16.9	0.00e+00	0	57	0	1599078400	40	4366
2026-01-08 06:20:28.60	294.14	12.89	-35.8	-37.2	16.1	0.00e+00	0	57	0	1621098496	41	4417
2026-01-08 06:20:31.63	293.58	12.77	-36.4	-38.0	15.1	0.00e+00	0	57	0	1643118592	42	4598
2026-01-08 06:20:34.66	293.04	12.65	-37.0	-38.8	14.0	1.10e-06	0	56	0	1665138688	43	4720
2026-01-08 06:20:37.69	292.49	12.54	-37.1	-39.1	13.6	1.14e-05	0	57	0	1687158784	43	4881
2026-01-08 06:20:40.72	291.96	12.41	-37.4	-39.3	13.7	1.10e-06	0	57	0	1708130304	44	4715
2026-01-08 06:20:43.75	291.42	12.29	-37.6	-39.6	13.4	1.02e-05	0	57	0	1730150400	44	4897
2026-01-08 06:20:46.77	290.89	12.17	-37.7	-39.8	13.1	2.40e-05	0	57	0	1752170496	45	4723
2026-01-08 06:20:49.80	290.37	12.04	-37.8	-40.0	12.6	8.58e-05	0	57	0	1774190592	45	4827
2026-01-08 06:20:52.83	289.85	11.91	-38.1	-40.5	11.9	4.55e-04	0	57	0	1796210688	45	5123
2026-01-08 06:20:55.86	289.33	11.78	-38.7	-41.5	10.6	3.67e-03	0	57	0	1818230784	46	5419
2026-01-08 06:20:58.89	288.82	11.65	-39.2	-42.5	9.1	2.09e-02	0	57	0	1840250880	47	5785
2026-01-08 06:21:01.92	288.31	11.52	-39.7	-43.9	7.7	9.12e-02	0	57	0	1861222400	48	6358
2026-01-08 06:21:04.95	287.81	11.39	-40.1	-45.5	5.9	3.38e-01	0	57	0	1883242496	49	7252
2026-01-08 06:21:07.98	287.31	11.25	-40.5	-46.9	4.9	7.82e-01	0	57	0	1891631104	50	8056
2026-01-08 06:21:11.01	286.82	11.11	-40.6	-47.8	4.4	8.23e-01	0	57	0	1891631104	50	8887
2026-01-08 06:21:14.03	286.33	10.98	-40.7	-48.5	4.2	8.36e-01	0	57	0	1891631104	50	9715
2026-01-08 06:21:17.06	285.85	10.84	-40.7	-48.9	4.1	8.41e-01	0	57	0	1891631104	50	10159
2026-01-08 06:21:20.09	285.37	10.70	-40.7	-47.6	4.6	8.17e-01	0	57	0	1891631104	51	8256
2026-01-08 06:21:23.12	284.90	10.56	-40.9	-46.8	5.3	7.38e-01	0	57	0	1892679680	51	7499
2026-01-08 06:21:26.15	284.43	10.41	-40.9	-45.8	6.4	2.86e-01	0	57	0	1909456896	51	6707
2026-01-08 06:21:29.18	283.96	10.27	-41.0	-45.1	7.6	1.01e-01	0	57	0	1931476992	51	6168
2026-01-08 06:21:32.21	283.50	10.12	-40.9	-44.7	8.3	5.38e-02	0	57	0	1952448512	51	5868
2026-01-08 06:21:35.24	283.04	9.98	-40.3	-43.6	9.4	1.80e-02	0	57	0	1974468608	51	5167
2026-01-08 06:21:38.27	282.59	9.83	-39.5	-42.2	10.8	4.07e-03	0	57	0	1996488704	50	4684
2026-01-08 06:21:41.30	282.15	9.69	-38.7	-41.2	11.6	6.72e-04	0	57	0	2018508800	48	4655
2026-01-08 06:21:44.33	281.70	9.54	-38.7	-41.4	11.0	1.85e-03	0	57	0	2040528896	48	4779
2026-01-08 06:21:47.36	281.27	9.39	-39.4	-42.6	9.5	1.29e-02	0	57	0	2062548992	48	5516
2026-01-08 06:21:50.39	280.83	9.24	-39.6	-43.1	8.9	3.09e-02	0	57	0	2084569088	48	5835
2026-01-08 06:21:53.42	280.40	9.09	-39.7	-43.7	8.0	6.39e-02	0	57	0	2105540608	49	5889
2026-01-08 06:21:56.45	279.98	8.94	-40.1	-44.9	6.6	1.97e-01	0	57	0	2127560704	49	6775
2026-01-08 06:21:59.48	279.56	8.79	-40.3	-46.3	5.4	6.90e-01	0	57	0	2146435072	50	7460
2026-01-08 06:22:02.51	279.14	8.64	-40.5	-47.5	4.6	8.10e-01	0	57	0	2149580800	50	8605
2026-01-08 06:22:05.54	278.73	8.48	-40.6	-49.0	4.1	8.39e-01	0	57	0	2149580800	50	10240
2026-01-08 06:22:08.57	278.33	8.33	-40.6	-49.8	3.9	8.43e-01	0	57	104	2149580800	50	11227
2026-01-08 06:22:11.61	277.92	8.18	-40.5	-50.4	3.8	8.45e-01	0	57	104	2149580800	50	11974
2026-01-08 06:22:14.64	277.52	8.03	-40.5	-50.5	3.8	8.47e-01	0	57	104	2149580800	50	12185
2026-01-08 06:22:17.66	277.13	7.87	-45.2	-56.1	3.8	8.47e-01	0	57	104	2149580800	59	13736
2026-01-08 06:22:20.69	276.74	7.72	-45.4	-56.5	3.8	8.47e-01	0	57	104	2149580800	60	13716
2026-01-08 06:22:23.72	276.36	7.56	-45.5	-56.7	3.8	8.47e-01	0	57	104	2149580800	60	13932
2026-01-08 06:22:26.75	275.97	7.41	-45.5	-56.6	3.8	8.47e-01	0	57	104	2149580800	60	13783
2026-01-08 06:22:29.78	275.60	7.25	-45.4	-56.6	3.8	8.47e-01	0	57	104	2149580800	60	13755
2026-01-08 06:22:32.81	275.22	7.10	-45.4	-56.5	3.8	8.45e-01	0	57	104	2149580800	60	13583
2026-01-08 06:22:35.84	274.85	6.94	-45.4	-56.5	3.8	8.47e-01	0	57	104	2149580800	60	13694
2026-01-08 06:22:38.87	274.49	6.79	-45.4	-56.5	3.8	8.45e-01	0	57	104	2149580800	60	13597
2026-01-08 06:22:41.90	274.13	6.63	-45.4	-56.5	3.8	8.46e-01	0	57	104	2149580800	60	13691
2026-01-08 06:22:44.92	273.77	6.48	-45.4	-56.5	3.8	8.46e-01	0	57	104	2149580800	60	13574
2026-01-08 06:22:47.95	273.42	6.32	-45.4	-56.5	3.8	8.47e-01	0	57	104	2149580800	60	13620
2026-01-08 06:22:50.99	273.07	6.16	-45.4	-56.5	3.8	8.47e-01	0	57	104	2149580800	60	13661
2026-01-08 06:22:54.02	272.72	6.01	-45.4	-56.5	3.8	8.46e-01	0	57	104	2149580800	60	13634
2026-01-08 06:22:57.04	272.38	5.85	-45.4	-56.5	3.8	8.46e-01	0	57	104	2149580800	60	13618
2026-01-08 06:23:00.07	272.04	5.70	-45.3	-56.5	3.8	8.45e-01	0	57	104	2149580800	60	13572
2026-01-08 06:23:03.10	271.71	5.54	-45.4	-56.5	3.8	8.46e-01	0	57	104	2149580800	60	13618
2026-01-08 06:23:06.13	271.38	5.39	-45.3	-56.5	3.8	8.46e-01	0	57	104	2149580800	60	13611
2026-01-08 06:23:09.16	271.05	5.23	-45.3	-56.5	3.8	8.45e-01	0	57	104	2149580800	60	13577
2026-01-08 06:23:12.20	270.72	5.07	-45.3	-56.4	3.8	8.47e-01	0	57	104	2149580800	60	13543
2026-01-08 06:23:15.23	270.40	4.92	-45.3	-56.4	3.8	8.46e-01	0	57	104	2149580800	60	13552
2026-01-08 06:23:18.26	270.09	4.76	-45.3	-56.5	3.8	8.46e-01	0	57	104	2149580800	60	13589
2026-01-08 06:23:21.29	269.77	4.61	-45.3	-56.5	3.8	8.46e-01	0	57	104	2149580800	60	13602
2026-01-08 06:23:24.32	269.46	4.45	-45.3	-56.4	3.8	8.46e-01	0	57	104	2149580800	60	13545
2026-01-08 06:23:27.35	269.16	4.30	-45.3	-56.4	3.8	8.47e-01	0	57	104	2149580800	60	13560
2026-01-08 06:23:30.38	268.85	4.14	-45.3	-56.4	3.8	8.46e-01	0	57	104	2149580800	60	13556
2026-01-08 06:23:33.41	268.55	3.99	-45.3	-56.4	3.8	8.45e-01	0	57	104	2149580800	60	13563
2026-01-08 06:23:36.44	268.25	3.83	-45.3	-56.4	3.8	8.45e-01	0	57	104	2149580800	60	13504
2026-01-08 06:23:39.47	267.96	3.68	-45.3	-56.4	3.8	8.46e-01	0	57	104	2149580800	60	13544
2026-01-08 06:23:42.51	267.67	3.52	-45.3	-56.4	3.8	8.46e-01	0	57	104	2149580800	60	13493
2026-01-08 06:23:45.54	267.38	3.37	-45.3	-56.4	3.8	8.46e-01	0	57	104	2149580800	60	13480
2026-01-08 06:23:48.57	267.10	3.21	-45.3	-56.5	3.8	8.45e-01	0	57	104	2149580800	60	13581
2026-01-08 06:23:51.60	266.82	3.06	-45.3	-56.4	3.8	8.45e-01	0	57	104	2149580800	60	13549
2026-01-08 06:23:54.63	266.54	2.91	-45.3	-56.4	3.8	8.46e-01	0	57	104	2149580800	60	13534
2026-01-08 06:23:57.66	266.26	2.75	-45.3	-56.4	3.8	8.46e-01	0	57	104	2149580800	60	13478
2026-01-08 06:24:00.69	265.99	2.60	-45.3	-56.4	3.8	8.47e-01	0	57	104	2149580800	60	13553
2026-01-08 06:24:03.72	265.72	2.45	-45.3	-56.4	3.8	8.47e-01	0	57	104	2149580800	60	13507
2026-01-08 06:24:06.75	265.45	2.29	-45.3	-56.4	3.8	8.46e-01	0	57	104	2149580800	60	13516
2026-01-08 06:24:09.78	265.19	2.14	-45.3	-56.3	3.8	8.47e-01	0	57	104	2149580800	60	13414
2026-01-08 06:24:12.81	264.93	1.99	-45.3	-56.4	3.8	8.45e-01	0	57	104	2149580800	60	13507

#Closed at: 2026-01-08 06:24:14
#Recorded file [2149 MB]: D:/lorett/data/31039_260108_091259.dat