passes_logs/2026/01/08/R2.0S_Moscow/R2.0S_Moscow__20260108_010551_FENGYUN_3D_rec.log

#Pass ID: 20260108_010551_FENGYUN 3D
#Satellite: FENGYUN 3D
#Configuration: FENGYUN 3D
#almurnet v.1.7.20251203
#Start time: 2026-01-08 01:05:51

#Version: 2.2.20231116
#Station: R2.0S_Moscow
#Location: 37.707566 lon 55.798166 lat
#TLE: 1 43010U 17072A   26006.26440730  .00000376  00000+0  19957-3 0  9994
#TLE: 2 43010  98.9925 337.9455 0002045 123.9195 236.2175 14.19693586422016

#Time	Az	El	Level	Level2	SNR	BER	BlckErr	Temp	State	Recorded	gain1	gain2
2026-01-08 01:05:51.72	19.78	2.01	-40.7	-53.1	3.8	8.45e-01	0	47	0	0	53	14706
2026-01-08 01:05:55.74	19.91	2.26	-40.7	-53.1	3.8	8.47e-01	0	47	104	0	52	15536
2026-01-08 01:05:59.77	20.04	2.51	-40.7	-53.1	3.8	8.46e-01	0	47	104	0	52	15499
2026-01-08 01:06:03.82	20.18	2.76	-40.7	-53.2	3.8	8.47e-01	0	48	104	0	52	15581
2026-01-08 01:06:07.85	20.32	3.02	-40.7	-53.1	3.8	8.46e-01	0	48	104	0	52	15545
2026-01-08 01:06:11.88	20.46	3.28	-40.7	-53.1	3.8	8.47e-01	0	48	104	0	52	15556
2026-01-08 01:06:15.92	20.60	3.54	-40.7	-53.1	3.8	8.47e-01	0	48	104	0	52	15490
2026-01-08 01:06:19.96	20.75	3.81	-40.7	-53.1	3.8	8.45e-01	0	49	104	0	52	15525
2026-01-08 01:06:24.00	20.90	4.08	-40.7	-53.1	3.8	8.47e-01	0	49	104	0	52	15536
2026-01-08 01:06:28.03	21.05	4.35	-40.7	-53.1	3.8	8.46e-01	0	49	104	0	52	15539
2026-01-08 01:06:32.07	21.20	4.62	-40.7	-53.1	3.8	8.46e-01	0	50	104	0	52	15540
2026-01-08 01:06:36.11	21.35	4.89	-40.7	-53.1	3.8	8.46e-01	0	50	104	0	52	15524
2026-01-08 01:06:40.15	21.51	5.17	-40.7	-53.1	3.8	8.47e-01	0	50	104	0	52	15499
2026-01-08 01:06:44.18	21.67	5.45	-40.7	-53.1	3.8	8.47e-01	0	50	104	0	52	15500
2026-01-08 01:06:48.22	21.83	5.73	-40.7	-53.1	3.8	8.47e-01	0	50	104	0	52	15519
2026-01-08 01:06:52.26	22.00	6.02	-40.7	-53.1	3.8	8.46e-01	0	51	104	0	52	15485
2026-01-08 01:06:56.29	22.17	6.31	-40.7	-53.1	3.8	8.47e-01	0	51	104	0	52	15456
2026-01-08 01:07:00.33	22.34	6.60	-40.7	-53.1	3.8	8.46e-01	0	51	104	0	52	15404
2026-01-08 01:07:04.37	22.51	6.90	-40.7	-52.7	3.8	8.46e-01	0	51	104	0	52	14871
2026-01-08 01:07:08.41	22.69	7.20	-40.7	-52.3	3.8	8.47e-01	0	51	104	0	52	14191
2026-01-08 01:07:12.44	22.87	7.50	-40.4	-49.7	4.1	8.39e-01	0	52	0	0	52	10496
2026-01-08 01:07:16.47	23.06	7.80	-39.8	-46.2	6.0	6.01e-01	0	52	0	2097152	51	7374
2026-01-08 01:07:20.51	23.25	8.11	-38.4	-41.3	11.9	1.47e-02	0	52	0	24117248	48	5033
2026-01-08 01:07:24.54	23.44	8.43	-36.1	-38.0	15.3	2.30e-04	0	52	0	45088768	44	4335
2026-01-08 01:07:28.58	23.63	8.74	-37.4	-39.5	14.1	4.50e-06	0	52	0	68157440	45	4837
2026-01-08 01:07:32.62	23.83	9.06	-36.9	-38.8	14.9	0.00e+00	0	52	0	90177536	45	4475
2026-01-08 01:07:36.66	24.04	9.39	-36.8	-38.6	15.1	0.00e+00	0	53	0	113246208	45	4371
2026-01-08 01:07:40.70	24.25	9.72	-36.5	-38.2	15.7	0.00e+00	0	53	0	135266304	44	4422
2026-01-08 01:07:44.73	24.46	10.05	-36.4	-38.0	16.0	0.00e+00	0	53	0	158334976	44	4330
2026-01-08 01:07:48.77	24.67	10.39	-36.3	-37.9	16.2	0.00e+00	0	53	0	181403648	44	4288
2026-01-08 01:07:52.81	24.90	10.73	-36.4	-37.9	16.3	0.00e+00	0	53	0	204472320	44	4291
2026-01-08 01:07:56.85	25.12	11.07	-36.2	-37.7	16.5	0.00e+00	0	53	0	226492416	44	4188
2026-01-08 01:08:00.88	25.35	11.42	-36.1	-37.6	16.7	0.00e+00	0	53	0	249561088	44	4131
2026-01-08 01:08:04.91	25.59	11.78	-36.1	-37.6	16.8	0.00e+00	0	53	0	272629760	44	4123
2026-01-08 01:08:08.95	25.83	12.14	-36.0	-37.5	16.9	0.00e+00	0	53	0	294649856	44	4087
2026-01-08 01:08:12.99	26.08	12.50	-35.8	-37.3	17.1	0.00e+00	0	53	0	317718528	43	4198
2026-01-08 01:08:17.02	26.33	12.87	-35.8	-37.2	17.1	0.00e+00	0	54	0	339738624	43	4184
2026-01-08 01:08:21.06	26.59	13.24	-35.8	-37.2	17.1	0.00e+00	0	54	0	362807296	43	4185
2026-01-08 01:08:25.10	26.86	13.63	-35.8	-37.2	17.2	0.00e+00	0	54	0	385875968	43	4181
2026-01-08 01:08:29.13	27.13	14.01	-35.5	-36.9	17.6	0.00e+00	0	54	0	407896064	43	4036
2026-01-08 01:08:33.17	27.41	14.40	-35.2	-36.6	18.0	0.00e+00	0	54	0	430964736	42	4108
2026-01-08 01:08:37.21	27.69	14.80	-35.2	-36.5	18.1	0.00e+00	0	54	0	454033408	42	4068
2026-01-08 01:08:41.25	27.99	15.20	-35.1	-36.4	18.2	0.00e+00	0	54	0	476053504	42	4011
2026-01-08 01:08:45.27	28.29	15.61	-35.1	-36.4	18.2	0.00e+00	0	54	0	499122176	42	4024
2026-01-08 01:08:49.31	28.60	16.03	-34.9	-36.2	18.3	0.00e+00	0	54	0	522190848	41	4192
2026-01-08 01:08:53.35	28.91	16.45	-34.7	-36.0	18.6	0.00e+00	0	54	0	544210944	41	4075
2026-01-08 01:08:57.39	29.24	16.88	-34.7	-36.0	18.6	0.00e+00	0	55	0	567279616	41	4062
2026-01-08 01:09:01.42	29.57	17.31	-34.7	-35.9	18.7	0.00e+00	0	55	0	590348288	41	4043
2026-01-08 01:09:05.45	29.92	17.76	-34.5	-35.7	18.9	0.00e+00	0	54	0	612368384	41	3954
2026-01-08 01:09:09.49	30.27	18.21	-34.4	-35.6	19.1	0.00e+00	0	54	0	635437056	40	4136
2026-01-08 01:09:13.53	30.63	18.66	-34.5	-35.7	19.0	0.00e+00	0	54	0	658505728	40	4184
2026-01-08 01:09:17.57	31.01	19.13	-34.5	-35.7	19.1	0.00e+00	0	55	0	680525824	40	4170
2026-01-08 01:09:21.60	31.39	19.60	-34.3	-35.5	19.3	0.00e+00	0	55	0	703594496	40	4059
2026-01-08 01:09:25.64	31.79	20.08	-34.2	-35.4	19.4	0.00e+00	0	55	0	725614592	40	4007
2026-01-08 01:09:29.68	32.20	20.57	-34.2	-35.4	19.4	0.00e+00	0	55	0	748683264	40	4036
2026-01-08 01:09:33.71	32.62	21.07	-34.1	-35.2	19.5	0.00e+00	0	55	0	771751936	40	3958
2026-01-08 01:09:37.75	33.06	21.57	-34.0	-35.1	19.7	0.00e+00	0	55	0	793772032	39	4139
2026-01-08 01:09:41.79	33.51	22.09	-33.9	-35.1	19.8	0.00e+00	0	55	0	816840704	39	4108
2026-01-08 01:09:45.82	33.97	22.61	-33.9	-35.1	19.8	0.00e+00	0	55	0	839909376	39	4120
2026-01-08 01:09:49.86	34.45	23.14	-33.7	-34.8	20.1	0.00e+00	0	55	0	862978048	39	3982
2026-01-08 01:09:53.89	34.95	23.68	-33.6	-34.7	20.2	0.00e+00	0	55	0	884998144	39	3951
2026-01-08 01:09:57.92	35.46	24.23	-33.4	-34.5	20.4	0.00e+00	0	55	0	908066816	38	4070
2026-01-08 01:10:01.96	35.99	24.80	-33.3	-34.4	20.5	0.00e+00	0	55	0	930086912	38	4051
2026-01-08 01:10:05.99	36.54	25.36	-33.3	-34.4	20.6	0.00e+00	0	55	0	953155584	38	4037
2026-01-08 01:10:10.03	37.11	25.94	-33.4	-34.5	20.5	0.00e+00	0	55	0	976224256	38	4079
2026-01-08 01:10:14.07	37.70	26.53	-33.1	-34.2	20.7	0.00e+00	0	55	0	998244352	38	3954
2026-01-08 01:10:18.11	38.32	27.14	-33.0	-34.1	20.9	0.00e+00	0	55	0	1021313024	38	3897
2026-01-08 01:10:22.14	38.95	27.74	-33.1	-34.2	20.8	0.00e+00	0	55	0	1044381696	38	3928
2026-01-08 01:10:26.18	39.61	28.36	-33.2	-34.3	20.8	0.00e+00	0	55	0	1066401792	38	3975
2026-01-08 01:10:30.21	40.29	28.99	-33.2	-34.3	20.8	0.00e+00	0	55	0	1089470464	38	3962
2026-01-08 01:10:34.24	41.00	29.63	-33.1	-34.1	20.9	0.00e+00	0	56	0	1111490560	38	3909
2026-01-08 01:10:38.28	41.74	30.28	-33.1	-34.2	20.9	0.00e+00	0	56	0	1134559232	38	3920
2026-01-08 01:10:42.32	42.51	30.94	-33.1	-34.2	20.9	0.00e+00	0	55	0	1157627904	38	3940
2026-01-08 01:10:46.36	43.32	31.61	-32.8	-33.8	21.2	0.00e+00	0	55	0	1180696576	37	3981
2026-01-08 01:10:50.40	44.15	32.29	-32.7	-33.9	20.6	0.00e+00	0	56	0	1202716672	37	4016
2026-01-08 01:10:54.43	45.02	32.98	-32.8	-34.0	20.5	0.00e+00	0	55	0	1225785344	37	4095
2026-01-08 01:10:58.47	45.93	33.67	-32.6	-33.8	20.7	0.00e+00	0	55	0	1248854016	37	3983
2026-01-08 01:11:02.51	46.88	34.38	-32.6	-33.8	20.7	0.00e+00	0	55	0	1270874112	37	3981
2026-01-08 01:11:06.55	47.87	35.09	-32.9	-34.2	20.3	0.00e+00	0	56	0	1293942784	37	4159
2026-01-08 01:11:10.59	48.90	35.81	-32.5	-33.6	20.9	0.00e+00	0	56	0	1315962880	37	3908
2026-01-08 01:11:14.62	49.97	36.53	-32.6	-33.8	20.8	0.00e+00	0	56	0	1339031552	36	4197
2026-01-08 01:11:18.66	51.10	37.26	-32.6	-33.8	20.7	0.00e+00	0	56	0	1362100224	36	4223
2026-01-08 01:11:22.70	52.28	37.99	-32.4	-33.5	21.0	0.00e+00	0	56	0	1384120320	36	4081
2026-01-08 01:11:26.73	53.50	38.72	-32.6	-33.8	20.8	0.00e+00	0	56	0	1407188992	36	4207
2026-01-08 01:11:30.77	54.79	39.46	-32.3	-33.4	21.2	0.00e+00	0	56	0	1430257664	36	4033
2026-01-08 01:11:34.80	56.13	40.19	-33.1	-34.3	20.4	0.00e+00	0	56	0	1452277760	36	4469
2026-01-08 01:11:38.84	57.54	40.92	-32.6	-33.8	20.9	0.00e+00	0	56	0	1475346432	36	4206
2026-01-08 01:11:42.88	59.01	41.65	-32.9	-34.1	20.6	0.00e+00	0	56	0	1498415104	36	4351
2026-01-08 01:11:46.92	60.55	42.37	-32.7	-33.9	20.8	0.00e+00	0	56	0	1520435200	36	4282
2026-01-08 01:11:50.95	62.15	43.08	-32.8	-34.0	20.7	0.00e+00	0	56	0	1543503872	36	4303
2026-01-08 01:11:54.99	63.83	43.77	-32.8	-34.0	20.7	0.00e+00	0	56	0	1566572544	36	4302
2026-01-08 01:11:59.03	65.58	44.46	-33.1	-34.4	20.4	0.00e+00	0	56	0	1588592640	36	4494
2026-01-08 01:12:03.05	67.40	45.12	-33.0	-34.2	20.5	0.00e+00	0	56	0	1611661312	36	4392
2026-01-08 01:12:07.09	69.30	45.76	-33.1	-34.3	20.4	0.00e+00	0	56	0	1634729984	36	4479
2026-01-08 01:12:11.13	71.28	46.38	-33.1	-34.3	20.6	0.00e+00	0	56	0	1656750080	36	4443
2026-01-08 01:12:15.16	73.33	46.96	-32.8	-34.0	20.9	0.00e+00	0	56	0	1679818752	36	4296
2026-01-08 01:12:19.20	75.47	47.52	-33.1	-34.3	20.5	0.00e+00	0	56	0	1701838848	36	4467
2026-01-08 01:12:23.24	77.67	48.03	-32.9	-34.1	20.7	0.00e+00	0	56	0	1724907520	36	4376
2026-01-08 01:12:27.28	79.95	48.51	-33.0	-34.2	20.7	0.00e+00	0	56	0	1747976192	36	4395
2026-01-08 01:12:31.31	82.29	48.94	-33.0	-34.2	20.7	0.00e+00	0	56	0	1771044864	36	4396
2026-01-08 01:12:35.35	84.70	49.33	-33.2	-34.4	20.4	0.00e+00	0	56	0	1793064960	36	4513
2026-01-08 01:12:39.39	87.17	49.66	-33.1	-34.3	20.5	0.00e+00	0	56	0	1816133632	36	4487
2026-01-08 01:12:43.43	89.68	49.94	-32.8	-34.0	20.9	0.00e+00	0	56	0	1839202304	37	4058
2026-01-08 01:12:47.47	92.24	50.16	-33.1	-34.3	20.5	0.00e+00	0	56	0	1861222400	37	4210
2026-01-08 01:12:51.50	94.82	50.32	-32.8	-34.0	20.9	0.00e+00	0	56	0	1884291072	37	4058
2026-01-08 01:12:55.54	97.44	50.42	-33.3	-34.5	20.4	0.00e+00	0	56	0	1906311168	37	4295
2026-01-08 01:12:59.57	100.06	50.46	-33.1	-34.3	20.6	0.00e+00	0	56	0	1929379840	37	4202
2026-01-08 01:13:03.61	102.68	50.44	-32.9	-34.0	20.8	0.00e+00	0	56	0	1952448512	37	4083
2026-01-08 01:13:07.66	105.31	50.35	-33.1	-34.3	20.5	0.00e+00	0	56	0	1975517184	37	4237
2026-01-08 01:13:11.70	107.90	50.20	-33.0	-34.2	20.7	0.00e+00	0	56	0	1997537280	37	4155
2026-01-08 01:13:15.74	110.47	50.00	-33.3	-34.5	20.4	0.00e+00	0	56	0	2020605952	37	4301
2026-01-08 01:13:19.77	113.00	49.73	-32.9	-34.0	20.7	0.00e+00	0	56	0	2043674624	37	4090
2026-01-08 01:13:23.82	115.49	49.41	-33.3	-34.5	20.3	0.00e+00	0	56	0	2065694720	37	4309
2026-01-08 01:13:27.85	117.91	49.04	-33.1	-34.3	20.5	0.00e+00	0	56	0	2088763392	37	4231
2026-01-08 01:13:31.89	120.27	48.62	-33.3	-34.5	20.3	0.00e+00	0	56	0	2110783488	37	4328
2026-01-08 01:13:35.93	122.57	48.15	-33.4	-34.6	20.3	0.00e+00	0	56	0	2133852160	37	4386
2026-01-08 01:13:39.98	124.81	47.64	-32.9	-34.1	20.7	0.00e+00	0	56	0	2156920832	37	4124
2026-01-08 01:13:44.01	126.96	47.09	-32.7	-33.9	20.9	0.00e+00	0	56	0	2179989504	37	4015
2026-01-08 01:13:48.05	129.04	46.51	-33.1	-34.3	20.4	0.00e+00	0	56	0	2202009600	37	4214
2026-01-08 01:13:52.09	131.04	45.90	-32.8	-34.0	20.7	0.00e+00	0	56	0	2225078272	37	4083
2026-01-08 01:13:56.13	132.96	45.26	-33.2	-34.4	20.4	0.00e+00	0	56	0	2248146944	37	4269
2026-01-08 01:14:00.17	134.81	44.60	-33.4	-34.6	20.1	0.00e+00	0	56	0	2270167040	37	4391
2026-01-08 01:14:04.21	136.59	43.92	-33.1	-34.3	20.3	0.00e+00	0	56	0	2293235712	37	4230
2026-01-08 01:14:08.24	138.28	43.22	-32.9	-34.1	20.6	0.00e+00	0	56	0	2315255808	37	4105
2026-01-08 01:14:12.28	139.91	42.51	-33.2	-34.4	20.3	0.00e+00	0	56	0	2338324480	37	4284
2026-01-08 01:14:16.31	141.46	41.79	-33.0	-34.2	20.4	0.00e+00	0	56	0	2361393152	37	4175
2026-01-08 01:14:20.35	142.95	41.06	-32.8	-34.0	20.6	0.00e+00	0	56	0	2383413248	37	4063
2026-01-08 01:14:24.39	144.38	40.32	-32.8	-34.0	20.6	0.00e+00	0	56	0	2406481920	37	4095
2026-01-08 01:14:28.43	145.74	39.59	-32.6	-33.8	20.8	0.00e+00	0	56	0	2429550592	37	3989
2026-01-08 01:14:32.47	147.05	38.85	-32.7	-33.9	20.7	0.00e+00	0	56	0	2452619264	37	4037
2026-01-08 01:14:36.50	148.29	38.11	-32.6	-33.8	20.8	0.00e+00	0	56	0	2474639360	37	3983
2026-01-08 01:14:40.54	149.48	37.37	-32.5	-33.7	20.9	0.00e+00	0	56	0	2497708032	36	4174
2026-01-08 01:14:44.58	150.62	36.64	-32.7	-33.9	20.7	0.00e+00	0	56	0	2519728128	36	4279
2026-01-08 01:14:48.61	151.71	35.91	-32.5	-33.7	20.9	0.00e+00	0	56	0	2542796800	36	4170
2026-01-08 01:14:52.65	152.75	35.19	-32.9	-34.1	20.5	0.00e+00	0	56	0	2565865472	36	4381
2026-01-08 01:14:56.68	153.75	34.47	-32.7	-33.9	20.7	0.00e+00	0	56	0	2587885568	36	4250
2026-01-08 01:15:00.72	154.71	33.76	-32.8	-34.0	20.6	0.00e+00	0	56	0	2610954240	36	4309
2026-01-08 01:15:04.76	155.63	33.06	-32.8	-34.0	20.6	0.00e+00	0	56	0	2634022912	36	4299
2026-01-08 01:15:08.80	156.51	32.36	-33.0	-34.3	20.3	0.00e+00	0	56	0	2656043008	36	4443
2026-01-08 01:15:12.84	157.35	31.68	-33.3	-34.6	19.9	0.00e+00	0	56	0	2679111680	37	4347
2026-01-08 01:15:16.87	158.16	31.01	-33.4	-34.7	19.9	0.00e+00	0	56	0	2702180352	37	4398
2026-01-08 01:15:20.91	158.94	30.34	-33.3	-34.6	19.9	0.00e+00	0	56	0	2724200448	37	4360
2026-01-08 01:15:24.94	159.69	29.68	-33.4	-34.7	19.9	0.00e+00	0	56	0	2747269120	37	4394
2026-01-08 01:15:28.97	160.40	29.04	-33.4	-34.7	19.8	0.00e+00	0	56	0	2770337792	37	4424
2026-01-08 01:15:33.01	161.09	28.40	-33.3	-34.6	20.0	0.00e+00	0	56	0	2792357888	37	4341
2026-01-08 01:15:37.05	161.76	27.78	-33.2	-34.5	20.1	0.00e+00	0	56	0	2815426560	37	4303
2026-01-08 01:15:41.09	162.40	27.16	-33.2	-34.5	20.0	0.00e+00	0	56	0	2837446656	37	4313
2026-01-08 01:15:45.11	163.01	26.56	-33.1	-34.4	20.1	0.00e+00	0	56	0	2860515328	37	4251
2026-01-08 01:15:49.15	163.61	25.96	-33.3	-34.6	20.0	0.00e+00	0	56	0	2883584000	37	4341
2026-01-08 01:15:53.18	164.18	25.38	-33.5	-34.8	19.7	0.00e+00	0	56	0	2905604096	37	4459
2026-01-08 01:15:57.22	164.74	24.80	-33.4	-34.7	19.8	0.00e+00	0	56	0	2928672768	37	4417
2026-01-08 01:16:01.26	165.27	24.24	-33.3	-34.6	19.9	0.00e+00	0	56	0	2951741440	37	4361
2026-01-08 01:16:05.29	165.79	23.68	-33.7	-35.0	19.5	0.00e+00	0	56	0	2973761536	37	4547
2026-01-08 01:16:09.33	166.29	23.13	-34.1	-35.5	19.1	0.00e+00	0	56	0	2996830208	38	4551
2026-01-08 01:16:13.36	166.77	22.60	-34.1	-35.5	19.0	0.00e+00	0	56	0	3019898880	38	4558
2026-01-08 01:16:17.40	167.23	22.07	-34.0	-35.4	19.1	0.00e+00	0	56	0	3041918976	38	4503
2026-01-08 01:16:21.44	167.69	21.55	-34.1	-35.4	19.1	0.00e+00	0	56	0	3064987648	38	4519
2026-01-08 01:16:25.47	168.12	21.04	-34.2	-35.6	18.9	0.00e+00	0	57	0	3088056320	39	4346
2026-01-08 01:16:29.50	168.55	20.54	-34.3	-35.7	18.8	0.00e+00	0	57	0	3110076416	39	4412
2026-01-08 01:16:33.54	168.96	20.04	-34.4	-35.8	18.7	0.00e+00	0	56	0	3133145088	39	4452
2026-01-08 01:16:37.58	169.36	19.56	-34.5	-35.9	18.6	0.00e+00	0	56	0	3156213760	39	4544
2026-01-08 01:16:41.61	169.74	19.08	-34.7	-36.1	18.3	0.00e+00	0	57	0	3178233856	40	4363
2026-01-08 01:16:45.65	170.12	18.61	-34.7	-36.2	18.2	0.00e+00	0	56	0	3201302528	40	4409
2026-01-08 01:16:49.69	170.48	18.15	-34.7	-36.1	18.3	0.00e+00	0	56	0	3223322624	40	4372
2026-01-08 01:16:53.72	170.83	17.70	-34.7	-36.1	18.3	0.00e+00	0	56	0	3246391296	40	4356
2026-01-08 01:16:57.76	171.18	17.25	-34.8	-36.2	18.1	0.00e+00	0	56	0	3269459968	40	4439
2026-01-08 01:17:01.80	171.51	16.81	-35.1	-36.6	17.8	0.00e+00	0	57	0	3291480064	40	4632
2026-01-08 01:17:05.84	171.84	16.38	-35.4	-36.9	17.5	0.00e+00	0	56	0	3314548736	41	4516
2026-01-08 01:17:09.87	172.15	15.95	-35.6	-37.2	17.2	0.00e+00	0	56	0	3337617408	41	4667
2026-01-08 01:17:13.90	172.46	15.53	-35.7	-37.3	17.0	0.00e+00	0	57	0	3359637504	42	4454
2026-01-08 01:17:17.94	172.76	15.12	-35.8	-37.4	16.9	0.00e+00	0	56	0	3382706176	42	4537
2026-01-08 01:17:21.97	173.05	14.71	-35.8	-37.4	16.9	0.00e+00	0	56	0	3405774848	42	4517
2026-01-08 01:17:26.01	173.34	14.31	-35.9	-37.5	16.7	0.00e+00	0	56	0	3427794944	42	4593
2026-01-08 01:17:30.05	173.62	13.92	-35.9	-37.5	16.8	0.00e+00	0	56	0	3450863616	42	4573
2026-01-08 01:17:34.08	173.89	13.53	-35.9	-37.6	16.7	0.00e+00	0	56	0	3473932288	42	4608
2026-01-08 01:17:38.13	174.15	13.14	-35.9	-37.5	16.7	0.00e+00	0	56	0	3495952384	42	4552
2026-01-08 01:17:42.16	174.41	12.77	-35.9	-37.5	16.7	0.00e+00	0	57	0	3519021056	42	4567
2026-01-08 01:17:46.20	174.66	12.39	-35.8	-37.4	16.7	0.00e+00	0	56	0	3542089728	42	4522
2026-01-08 01:17:50.23	174.91	12.03	-36.0	-37.6	16.5	0.00e+00	0	56	0	3564109824	42	4628
2026-01-08 01:17:54.27	175.15	11.66	-36.1	-37.8	16.3	0.00e+00	0	57	0	3587178496	42	4715
2026-01-08 01:17:58.30	175.38	11.31	-36.3	-38.0	16.1	0.00e+00	0	57	0	3609198592	43	4564
2026-01-08 01:18:02.34	175.61	10.95	-36.3	-38.0	16.0	0.00e+00	0	56	0	3632267264	43	4588
2026-01-08 01:18:06.37	175.83	10.61	-36.4	-38.2	15.8	0.00e+00	0	57	0	3655335936	43	4659
2026-01-08 01:18:10.40	176.05	10.26	-36.6	-38.3	15.6	0.00e+00	0	57	0	3677356032	43	4754
2026-01-08 01:18:14.44	176.27	9.93	-36.6	-38.4	15.5	0.00e+00	0	56	0	3700424704	43	4781
2026-01-08 01:18:18.47	176.47	9.59	-36.7	-38.5	15.4	0.00e+00	0	56	0	3723493376	43	4848
2026-01-08 01:18:22.51	176.68	9.26	-37.0	-38.8	15.2	0.00e+00	0	57	0	3746562048	44	4752
2026-01-08 01:18:26.55	176.88	8.93	-37.0	-38.9	15.1	0.00e+00	0	56	0	3768582144	44	4766
2026-01-08 01:18:30.59	177.08	8.61	-37.1	-39.0	14.9	0.00e+00	0	57	0	3791650816	44	4838
2026-01-08 01:18:34.62	177.27	8.29	-37.1	-39.1	14.7	0.00e+00	0	56	0	3813670912	44	4888
2026-01-08 01:18:38.66	177.46	7.98	-41.2	-45.0	9.4	8.24e-04	0	57	0	3836739584	52	6098
2026-01-08 01:18:42.70	177.64	7.66	-44.9	-56.6	3.8	8.48e-01	0	57	104	3837788160	60	14566
2026-01-08 01:18:46.73	177.82	7.36	-45.2	-56.8	3.8	8.48e-01	0	57	104	3837788160	60	15002
2026-01-08 01:18:50.76	178.00	7.05	-45.1	-56.8	3.8	8.46e-01	0	57	104	3837788160	60	14932
2026-01-08 01:18:54.80	178.18	6.75	-45.1	-56.8	3.8	8.47e-01	0	57	104	3837788160	60	14958
2026-01-08 01:18:58.83	178.35	6.45	-45.1	-56.8	3.8	8.46e-01	0	57	104	3837788160	60	14882
2026-01-08 01:19:02.87	178.52	6.16	-45.1	-56.8	3.8	8.47e-01	0	57	104	3837788160	60	14883
2026-01-08 01:19:06.90	178.68	5.87	-45.1	-56.8	3.8	8.46e-01	0	57	104	3837788160	60	14921
2026-01-08 01:19:10.94	178.84	5.58	-45.1	-56.8	3.8	8.47e-01	0	57	104	3837788160	60	14893
2026-01-08 01:19:14.98	179.00	5.29	-45.0	-56.8	3.8	8.46e-01	0	57	104	3837788160	60	14880
2026-01-08 01:19:19.01	179.16	5.01	-45.0	-56.7	3.8	8.47e-01	0	57	104	3837788160	60	14850
2026-01-08 01:19:23.05	179.31	4.73	-45.0	-56.7	3.8	8.46e-01	0	57	104	3837788160	60	14812
2026-01-08 01:19:27.09	179.46	4.46	-45.0	-56.8	3.8	8.47e-01	0	57	104	3837788160	60	14882
2026-01-08 01:19:31.13	179.61	4.18	-45.0	-56.7	3.8	8.46e-01	0	57	104	3837788160	60	14843
2026-01-08 01:19:35.17	179.75	3.91	-45.0	-56.7	3.8	8.46e-01	0	57	104	3837788160	60	14780
2026-01-08 01:19:39.21	179.90	3.64	-45.0	-56.7	3.8	8.46e-01	0	57	104	3837788160	60	14766
2026-01-08 01:19:43.25	180.04	3.37	-45.0	-56.7	3.8	8.46e-01	0	57	104	3837788160	60	14813
2026-01-08 01:19:47.28	180.18	3.11	-45.0	-56.7	3.8	8.46e-01	0	57	104	3837788160	60	14762
2026-01-08 01:19:51.33	180.31	2.85	-45.0	-56.7	3.8	8.46e-01	0	56	104	3837788160	60	14790
2026-01-08 01:19:55.35	180.45	2.59	-45.0	-56.7	3.8	8.47e-01	0	57	104	3837788160	60	14774
2026-01-08 01:19:59.39	180.58	2.33	-45.0	-56.7	3.8	8.45e-01	0	57	104	3837788160	60	14741
2026-01-08 01:20:03.44	180.71	2.08	-45.0	-56.7	3.8	8.46e-01	0	57	104	3837788160	60	14802

#Closed at: 2026-01-08 01:20:06
#Recorded file [3837 MB]: D:/lorett/data/31039_260108_040551.dat