passes_logs/2026/01/08/R2.0S_Moscow/R2.0S_Moscow__20260108_220645_SUOMI_NPP_rec.log

#Pass ID: 20260108_220645_SUOMI NPP
#Satellite: SUOMI NPP
#Configuration: NPP
#almurnet v.1.7.20251203
#Start time: 2026-01-08 22:06:45

#Version: 2.2.20231116
#Station: R2.0S_Moscow
#Location: 37.707566 lon 55.798166 lat
#TLE: 1 37849U 11061A   26008.05542337  .00000108  00000+0  71976-4 0  9997
#TLE: 2 37849  98.7805 310.1641 0002540  75.6410 284.5048 14.19523335735721

#Time	Az	El	Level	Level2	SNR	BER	BlckErr	Temp	State	Recorded	gain1	gain2
2026-01-08 22:06:45.56	26.49	2.02	-40.8	-56.0	3.8	1.49e+00	0	46	0	0	53	20365
2026-01-08 22:06:48.60	26.72	2.18	-40.8	-56.0	3.8	1.49e+00	0	47	104	0	53	20372
2026-01-08 22:06:51.63	26.96	2.34	-40.7	-56.0	3.8	1.49e+00	0	47	104	0	53	20439
2026-01-08 22:06:54.66	27.20	2.50	-40.8	-56.0	3.8	1.49e+00	0	48	104	0	53	20385
2026-01-08 22:06:57.69	27.44	2.67	-40.8	-56.0	3.8	1.49e+00	0	47	104	0	53	20311
2026-01-08 22:07:00.72	27.69	2.83	-40.8	-56.0	3.8	1.49e+00	0	48	104	0	53	20325
2026-01-08 22:07:03.75	27.93	2.99	-40.8	-56.0	3.8	1.49e+00	0	48	104	0	53	20401
2026-01-08 22:07:06.78	28.18	3.15	-40.8	-56.0	3.8	1.49e+00	0	48	104	0	53	20350
2026-01-08 22:07:09.81	28.44	3.32	-40.8	-56.0	3.8	1.49e+00	0	48	104	0	53	20308
2026-01-08 22:07:12.85	28.69	3.48	-40.8	-56.0	3.8	1.49e+00	0	49	104	0	53	20318
2026-01-08 22:07:15.87	28.95	3.65	-40.8	-56.0	3.8	1.49e+00	0	49	104	0	53	20375
2026-01-08 22:07:18.90	29.21	3.81	-40.8	-56.0	3.8	1.49e+00	0	49	104	0	53	20378
2026-01-08 22:07:21.93	29.47	3.98	-40.8	-56.0	3.8	1.49e+00	0	49	104	0	53	20375
2026-01-08 22:07:24.96	29.74	4.14	-40.8	-56.0	3.8	1.49e+00	0	49	104	0	53	20362
2026-01-08 22:07:27.99	30.01	4.31	-40.8	-56.0	3.8	1.49e+00	0	49	104	0	53	20339
2026-01-08 22:07:31.02	30.28	4.48	-40.8	-56.0	3.8	1.49e+00	0	50	104	0	53	20395
2026-01-08 22:07:34.05	30.55	4.65	-40.8	-56.0	3.8	1.49e+00	0	50	104	0	53	20315
2026-01-08 22:07:37.08	30.83	4.81	-40.8	-56.0	3.8	1.49e+00	0	50	104	0	53	20339
2026-01-08 22:07:40.11	31.11	4.98	-40.8	-56.0	3.8	1.49e+00	0	50	104	0	53	20351
2026-01-08 22:07:43.14	31.40	5.15	-40.8	-56.0	3.8	1.49e+00	0	51	104	0	53	20374
2026-01-08 22:07:46.17	31.68	5.32	-40.8	-55.9	3.8	1.49e+00	0	50	104	0	53	20248
2026-01-08 22:07:49.21	31.97	5.49	-40.8	-56.0	3.8	1.49e+00	0	51	104	0	53	20352
2026-01-08 22:07:52.24	32.27	5.66	-40.8	-56.0	3.8	1.49e+00	0	51	104	0	53	20326
2026-01-08 22:07:55.27	32.57	5.84	-40.8	-56.0	3.8	1.49e+00	0	51	104	0	53	20316
2026-01-08 22:07:58.30	32.87	6.01	-40.8	-55.9	3.8	1.49e+00	0	51	104	0	53	20291
2026-01-08 22:08:01.33	33.17	6.18	-40.8	-55.9	3.8	1.49e+00	0	51	104	0	53	20273
2026-01-08 22:08:04.36	33.48	6.35	-40.8	-56.0	3.8	1.49e+00	0	52	104	0	53	20317
2026-01-08 22:08:07.39	33.79	6.53	-40.8	-55.9	3.8	1.49e+00	0	52	104	0	53	20097
2026-01-08 22:08:10.42	34.10	6.70	-40.8	-55.9	3.8	1.49e+00	0	52	104	0	53	20109
2026-01-08 22:08:13.45	34.42	6.88	-40.8	-56.0	3.8	1.49e+00	0	52	104	0	53	20316
2026-01-08 22:08:16.48	34.74	7.05	-40.8	-56.0	3.8	1.49e+00	0	52	104	0	53	20319
2026-01-08 22:08:19.52	35.07	7.23	-40.7	-55.8	3.8	1.49e+00	0	52	104	0	53	20012
2026-01-08 22:08:22.55	35.39	7.40	-40.8	-55.8	3.8	1.49e+00	0	52	104	0	53	19853
2026-01-08 22:08:25.58	35.73	7.58	-40.7	-55.4	3.8	1.49e+00	0	52	104	0	53	19004
2026-01-08 22:08:28.61	36.06	7.76	-40.6	-53.1	3.9	1.42e+00	0	52	104	0	53	14543
2026-01-08 22:08:31.64	36.40	7.93	-40.4	-50.5	5.0	8.62e-01	0	52	0	1048576	52	11467
2026-01-08 22:08:34.68	36.75	8.11	-40.2	-45.4	10.1	3.41e-02	0	52	0	7340032	51	6775
2026-01-08 22:08:37.71	37.10	8.29	-40.3	-44.6	11.8	4.60e-01	0	53	0	12582912	51	6139
2026-01-08 22:08:40.73	37.45	8.47	-40.4	-44.9	11.1	2.16e-03	0	53	0	17825792	52	6060
2026-01-08 22:08:43.77	37.81	8.65	-40.3	-44.6	11.6	4.82e-04	0	53	0	24117248	52	5820
2026-01-08 22:08:46.80	38.17	8.83	-40.5	-44.9	11.4	5.59e-04	0	53	0	29360128	52	6028
2026-01-08 22:08:49.82	38.53	9.01	-40.4	-44.7	11.7	5.45e-04	0	53	0	35651584	52	5899
2026-01-08 22:08:52.85	38.90	9.19	-40.4	-44.6	11.9	3.65e-04	0	53	0	40894464	52	5808
2026-01-08 22:08:55.88	39.28	9.37	-40.6	-44.8	11.7	6.50e-04	0	53	0	46137344	52	5960
2026-01-08 22:08:58.91	39.66	9.55	-40.7	-45.0	11.5	6.19e-04	0	53	0	52428800	52	6115
2026-01-08 22:09:01.94	40.04	9.73	-40.8	-44.9	11.7	4.55e-04	0	53	0	57671680	52	6051
2026-01-08 22:09:04.97	40.43	9.91	-40.7	-44.7	12.0	3.28e-04	0	53	0	63963136	52	5860
2026-01-08 22:09:08.00	40.82	10.09	-40.8	-44.8	12.0	3.57e-04	0	53	0	69206016	52	5935
2026-01-08 22:09:11.03	41.22	10.27	-40.8	-44.9	11.9	4.64e-04	0	54	0	75497472	52	5996
2026-01-08 22:09:14.06	41.62	10.45	-40.7	-44.6	12.2	2.09e-04	0	54	0	80740352	52	5810
2026-01-08 22:09:17.09	42.03	10.63	-40.7	-44.6	12.2	1.47e-04	0	54	0	85983232	52	5826
2026-01-08 22:09:20.11	42.44	10.81	-40.5	-44.2	12.7	8.85e-05	0	54	0	92274688	52	5560
2026-01-08 22:09:23.14	42.85	10.99	-40.3	-43.9	13.0	3.89e-05	0	54	0	97517568	52	5366
2026-01-08 22:09:26.17	43.28	11.18	-40.3	-43.8	13.1	3.96e-05	0	54	0	103809024	52	5307
2026-01-08 22:09:29.19	43.70	11.36	-40.4	-44.0	12.9	3.89e-05	0	54	0	109051904	52	5449
2026-01-08 22:09:32.22	44.13	11.54	-40.4	-43.9	13.0	6.02e-05	0	54	0	114294784	52	5385
2026-01-08 22:09:35.25	44.57	11.72	-40.5	-44.2	12.8	5.26e-05	0	54	0	120586240	52	5531
2026-01-08 22:09:38.27	45.01	11.90	-40.5	-44.1	12.9	4.57e-05	0	54	0	125829120	52	5519
2026-01-08 22:09:41.30	45.46	12.08	-40.3	-43.8	13.2	2.59e-05	0	54	0	132120576	52	5303
2026-01-08 22:09:44.34	45.91	12.26	-40.4	-43.8	13.2	1.75e-05	0	54	0	137363456	52	5328
2026-01-08 22:09:47.36	46.37	12.44	-40.5	-44.1	13.0	1.75e-05	0	54	0	143654912	52	5479
2026-01-08 22:09:50.39	46.83	12.62	-40.2	-43.6	13.4	1.90e-05	0	54	0	148897792	52	5182
2026-01-08 22:09:53.42	47.30	12.80	-40.1	-43.3	13.9	3.80e-06	0	54	0	154140672	51	5289
2026-01-08 22:09:56.44	47.78	12.98	-40.0	-43.2	13.9	2.20e-06	0	54	0	160432128	51	5226
2026-01-08 22:09:59.47	48.26	13.16	-40.2	-43.5	13.6	4.50e-06	0	55	0	165675008	51	5453
2026-01-08 22:10:02.50	48.75	13.34	-40.3	-43.7	13.5	1.44e-05	0	55	0	171966464	51	5534
2026-01-08 22:10:05.52	49.24	13.52	-40.2	-43.5	13.7	8.30e-06	0	55	0	177209344	51	5421
2026-01-08 22:10:08.55	49.73	13.69	-39.9	-43.1	14.1	0.00e+00	0	55	0	182452224	51	5177
2026-01-08 22:10:11.58	50.24	13.87	-39.8	-42.9	14.3	1.50e-06	0	54	0	188743680	51	5071
2026-01-08 22:10:14.61	50.75	14.05	-39.9	-43.0	14.2	2.20e-06	0	55	0	193986560	51	5109
2026-01-08 22:10:17.64	51.26	14.22	-39.9	-43.0	14.1	1.50e-06	0	55	0	200278016	51	5153
2026-01-08 22:10:20.67	51.78	14.40	-40.0	-43.2	14.0	7.00e-07	0	55	0	205520896	51	5250
2026-01-08 22:10:23.69	52.31	14.57	-40.1	-43.4	13.8	3.80e-06	0	55	0	210763776	51	5358
2026-01-08 22:10:26.72	52.84	14.74	-40.0	-43.1	14.0	2.20e-06	0	55	0	217055232	51	5204
2026-01-08 22:10:29.75	53.38	14.91	-39.9	-43.0	14.2	1.50e-06	0	55	0	222298112	51	5132
2026-01-08 22:10:32.78	53.93	15.08	-40.4	-43.8	13.4	1.14e-05	0	55	0	228589568	51	5639
2026-01-08 22:10:35.81	54.48	15.25	-40.3	-43.8	13.5	1.29e-05	0	55	0	233832448	51	5593
2026-01-08 22:10:38.84	55.04	15.42	-40.4	-43.9	13.3	1.75e-05	0	55	0	240123904	51	5675
2026-01-08 22:10:41.86	55.60	15.58	-40.7	-44.3	12.9	3.28e-05	0	55	0	245366784	51	5991
2026-01-08 22:10:44.89	56.17	15.75	-40.7	-44.5	12.6	1.24e-04	0	55	0	250609664	52	5743
2026-01-08 22:10:47.92	56.75	15.91	-40.7	-44.5	12.7	9.00e-05	0	55	0	256901120	52	5753
2026-01-08 22:10:50.95	57.33	16.07	-40.7	-44.4	12.8	7.47e-05	0	55	0	262144000	52	5681
2026-01-08 22:10:53.98	57.92	16.23	-40.6	-44.3	12.9	4.80e-05	0	55	0	268435456	52	5595
2026-01-08 22:10:57.01	58.51	16.39	-40.6	-44.4	12.8	6.40e-05	0	55	0	273678336	52	5687
2026-01-08 22:11:00.03	59.11	16.54	-40.7	-44.5	12.6	1.05e-04	0	55	0	278921216	52	5749
2026-01-08 22:11:03.06	59.72	16.70	-40.7	-44.4	12.9	4.11e-05	0	55	0	285212672	52	5659
2026-01-08 22:11:06.09	60.33	16.85	-40.8	-44.5	12.6	6.86e-05	0	55	0	290455552	52	5783
2026-01-08 22:11:09.12	60.95	17.00	-41.1	-45.2	11.9	2.72e-04	0	55	0	296747008	52	6260
2026-01-08 22:11:12.15	61.57	17.15	-40.8	-44.7	12.5	1.42e-04	0	56	0	301989888	52	5877
2026-01-08 22:11:15.18	62.20	17.29	-40.6	-44.2	13.0	2.44e-05	0	55	0	308281344	52	5534
2026-01-08 22:11:18.20	62.84	17.43	-40.7	-44.3	12.9	4.65e-05	0	55	0	313524224	52	5629
2026-01-08 22:11:21.23	63.48	17.57	-40.5	-43.9	13.3	1.52e-05	0	55	0	318767104	52	5382
2026-01-08 22:11:24.26	64.13	17.71	-40.6	-44.1	13.1	1.22e-05	0	56	0	325058560	52	5483
2026-01-08 22:11:27.28	64.78	17.84	-40.7	-44.3	12.9	3.43e-05	0	56	0	330301440	52	5630
2026-01-08 22:11:30.31	65.44	17.97	-40.2	-43.4	13.8	3.80e-06	0	56	0	336592896	52	5085
2026-01-08 22:11:33.34	66.11	18.10	-40.0	-43.1	14.2	1.50e-06	0	55	0	341835776	51	5162
2026-01-08 22:11:36.37	66.78	18.23	-40.4	-43.7	13.5	1.52e-05	0	55	0	347078656	51	5581
2026-01-08 22:11:39.40	67.46	18.35	-40.3	-43.6	13.5	1.22e-05	0	55	0	353370112	51	5501
2026-01-08 22:11:42.42	68.13	18.47	-40.1	-43.3	13.6	5.30e-06	0	55	0	358612992	51	5333
2026-01-08 22:11:45.45	68.82	18.58	-39.9	-43.2	13.4	1.22e-05	0	56	0	364904448	51	5279
2026-01-08 22:11:48.48	69.51	18.69	-39.7	-43.1	13.3	1.37e-05	0	56	0	370147328	51	5193
2026-01-08 22:11:51.51	70.21	18.80	-40.0	-43.9	12.2	1.82e-04	0	56	0	376438784	51	5710
2026-01-08 22:11:54.54	70.91	18.91	-40.1	-44.4	11.5	7.51e-04	0	56	0	381681664	51	6006
2026-01-08 22:11:57.57	71.62	19.01	-40.0	-44.5	11.2	1.07e-03	0	55	0	386924544	51	6080
2026-01-08 22:12:00.58	72.32	19.10	-40.2	-44.7	11.0	2.20e-03	0	56	0	393216000	51	6249
2026-01-08 22:12:03.60	73.04	19.20	-40.1	-44.5	11.3	1.34e-03	0	56	0	398458880	51	6108
2026-01-08 22:12:06.63	73.76	19.29	-40.2	-44.6	11.1	1.63e-03	0	56	0	404750336	51	6200
2026-01-08 22:12:09.66	74.48	19.37	-39.8	-44.0	11.8	5.55e-04	0	56	0	409993216	51	5726
2026-01-08 22:12:12.69	75.21	19.45	-40.0	-44.3	11.4	8.06e-04	0	56	0	415236096	51	5953
2026-01-08 22:12:15.72	75.94	19.53	-40.2	-44.7	11.1	1.66e-03	0	56	0	421527552	51	6225
2026-01-08 22:12:18.75	76.67	19.60	-40.2	-44.7	11.2	1.28e-03	0	56	0	426770432	51	6242
2026-01-08 22:12:21.78	77.41	19.67	-40.6	-45.2	10.8	2.62e-03	0	56	0	433061888	51	6630
2026-01-08 22:12:24.81	78.15	19.73	-40.3	-44.6	11.6	9.70e-04	0	56	0	438304768	51	6138
2026-01-08 22:12:27.84	78.90	19.79	-40.4	-44.6	11.5	8.20e-04	0	56	0	443547648	51	6163
2026-01-08 22:12:30.86	79.64	19.84	-40.3	-44.7	11.3	1.42e-03	0	56	0	449839104	51	6214
2026-01-08 22:12:33.89	80.39	19.89	-40.2	-44.2	12.0	4.16e-04	0	56	0	455081984	51	5887
2026-01-08 22:12:36.92	81.14	19.93	-40.5	-44.4	12.2	2.49e-04	0	56	0	461373440	51	5999
2026-01-08 22:12:39.94	81.89	19.97	-40.6	-44.5	12.2	2.72e-04	0	56	0	466616320	52	5729
2026-01-08 22:12:42.97	82.65	20.01	-40.7	-44.4	12.3	2.06e-04	0	56	0	472907776	52	5720
2026-01-08 22:12:46.00	83.41	20.04	-40.6	-44.3	12.4	1.46e-04	0	56	0	478150656	52	5610
2026-01-08 22:12:49.03	84.17	20.06	-40.3	-43.9	12.6	5.87e-05	0	56	0	483393536	52	5373
2026-01-08 22:12:52.06	84.93	20.08	-40.5	-44.7	11.5	5.58e-04	0	56	0	489684992	52	5867
2026-01-08 22:12:55.09	85.69	20.10	-40.4	-44.7	11.3	1.09e-03	0	56	0	494927872	52	5889
2026-01-08 22:12:58.12	86.45	20.11	-40.5	-45.2	10.8	2.00e-03	0	56	0	501219328	52	6228
2026-01-08 22:13:01.15	87.21	20.11	-40.6	-45.4	10.5	4.21e-03	0	56	0	506462208	52	6374
2026-01-08 22:13:04.17	87.97	20.11	-40.5	-44.9	11.1	1.99e-03	0	56	0	511705088	52	6047
2026-01-08 22:13:07.20	88.73	20.11	-40.8	-45.1	11.2	1.29e-03	0	56	0	517996544	52	6134
2026-01-08 22:13:10.23	89.49	20.10	-40.3	-43.9	12.7	1.50e-04	0	56	0	523239424	52	5390
2026-01-08 22:13:13.26	90.25	20.08	-40.2	-43.3	13.7	1.06e-05	0	56	0	529530880	52	5035
2026-01-08 22:13:16.29	91.01	20.06	-40.3	-43.5	13.8	3.80e-06	0	56	0	534773760	52	5101
2026-01-08 22:13:19.32	91.77	20.04	-40.6	-43.8	13.5	4.50e-06	0	56	0	540016640	52	5306
2026-01-08 22:13:22.35	92.53	20.01	-40.5	-43.6	13.8	4.50e-06	0	56	0	546308096	52	5196
2026-01-08 22:13:25.38	93.29	19.97	-40.3	-43.2	14.3	3.00e-06	0	56	0	551550976	52	4933
2026-01-08 22:13:28.41	94.04	19.93	-40.4	-43.5	14.0	3.00e-06	0	56	0	557842432	52	5104
2026-01-08 22:13:31.44	94.79	19.89	-40.3	-43.2	14.3	1.50e-06	0	56	0	563085312	52	4948
2026-01-08 22:13:34.47	95.54	19.84	-40.1	-42.9	14.6	0.00e+00	0	56	0	569376768	52	4788
2026-01-08 22:13:37.50	96.29	19.79	-40.3	-43.1	14.4	7.00e-07	0	56	0	574619648	51	5202
2026-01-08 22:13:40.53	97.04	19.73	-40.4	-43.3	14.3	5.30e-06	0	56	0	579862528	51	5318
2026-01-08 22:13:43.56	97.78	19.66	-40.6	-43.6	14.0	3.80e-06	0	56	0	586153984	51	5494
2026-01-08 22:13:46.58	98.52	19.60	-40.9	-44.3	13.2	2.13e-05	0	56	0	591396864	52	5648
2026-01-08 22:13:49.62	99.25	19.52	-40.5	-43.6	13.9	7.60e-06	0	56	0	597688320	52	5188
2026-01-08 22:13:52.65	99.99	19.45	-40.1	-42.8	14.9	7.00e-07	0	56	0	602931200	51	4995
2026-01-08 22:13:55.67	100.71	19.37	-40.3	-43.2	14.4	0.00e+00	0	56	0	608174080	51	5240
2026-01-08 22:13:58.70	101.44	19.28	-39.8	-42.6	15.0	0.00e+00	0	56	0	614465536	51	4887
2026-01-08 22:14:01.71	102.15	19.19	-40.2	-43.0	14.7	2.20e-06	0	56	0	619708416	50	5422
2026-01-08 22:14:04.75	102.87	19.10	-40.0	-42.9	14.7	0.00e+00	0	56	0	625999872	51	5068
2026-01-08 22:14:07.77	103.58	19.00	-39.9	-42.5	15.1	0.00e+00	0	57	0	631242752	51	4826
2026-01-08 22:14:10.80	104.29	18.90	-39.8	-42.3	15.2	0.00e+00	0	56	0	637534208	51	4754
2026-01-08 22:14:13.83	105.00	18.79	-39.9	-42.6	15.1	0.00e+00	0	56	0	642777088	51	4885
2026-01-08 22:14:16.85	105.69	18.68	-40.0	-42.7	14.9	0.00e+00	0	56	0	648019968	51	4981
2026-01-08 22:14:19.88	106.39	18.57	-40.3	-43.1	14.5	0.00e+00	0	56	0	654311424	51	5162
2026-01-08 22:14:22.91	107.08	18.46	-40.4	-43.3	14.3	2.20e-06	0	56	0	659554304	51	5315
2026-01-08 22:14:25.94	107.76	18.34	-40.3	-43.2	14.4	0.00e+00	0	56	0	665845760	51	5252
2026-01-08 22:14:28.96	108.44	18.21	-40.4	-43.3	14.4	3.00e-06	0	56	0	671088640	51	5300
2026-01-08 22:14:31.99	109.11	18.09	-40.5	-43.5	14.1	0.00e+00	0	56	0	676331520	51	5403
2026-01-08 22:14:35.02	109.78	17.96	-40.8	-44.1	13.4	1.29e-05	0	57	0	682622976	52	5527
2026-01-08 22:14:38.05	110.44	17.83	-40.6	-43.6	13.9	6.10e-06	0	56	0	687865856	52	5216
2026-01-08 22:14:41.08	111.09	17.69	-40.8	-44.0	13.5	1.06e-05	0	57	0	694157312	52	5440
2026-01-08 22:14:44.10	111.74	17.55	-40.8	-44.1	13.3	1.98e-05	0	56	0	699400192	52	5524
2026-01-08 22:14:47.13	112.39	17.41	-40.7	-43.9	13.6	9.90e-06	0	57	0	704643072	52	5377
2026-01-08 22:14:50.16	113.03	17.27	-41.1	-44.6	12.9	2.21e-05	0	56	0	710934528	52	5823
2026-01-08 22:14:53.19	113.66	17.12	-41.2	-44.9	12.5	8.01e-05	0	56	0	716177408	53	5664
2026-01-08 22:14:56.21	114.28	16.98	-40.9	-44.2	13.3	3.35e-05	0	56	0	722468864	53	5270
2026-01-08 22:14:59.24	114.91	16.82	-41.0	-44.4	13.1	4.65e-05	0	56	0	727711744	52	5714
2026-01-08 22:15:02.27	115.52	16.67	-40.7	-44.3	13.1	3.96e-05	0	56	0	734003200	52	5602
2026-01-08 22:15:05.30	116.13	16.52	-40.7	-44.0	13.4	6.17e-05	0	56	0	739246080	52	5452
2026-01-08 22:15:08.33	116.73	16.36	-40.1	-44.8	12.5	1.75e-04	0	57	0	744488960	52	5978
2026-01-08 22:15:11.36	117.33	16.20	-41.3	-45.3	12.0	7.84e-04	0	57	0	750780416	53	5958
2026-01-08 22:15:14.39	117.92	16.04	-41.0	-44.7	12.6	1.63e-04	0	56	0	756023296	52	5882
2026-01-08 22:15:17.42	118.50	15.88	-40.8	-44.4	13.0	1.83e-04	0	57	0	762314752	52	5713
2026-01-08 22:15:20.44	119.08	15.71	-40.9	-44.4	12.7	4.61e-04	0	56	0	767557632	51	6048
2026-01-08 22:15:23.47	119.65	15.55	-40.3	-43.7	13.7	1.60e-04	0	56	0	772800512	51	5532
2026-01-08 22:15:26.50	120.22	15.38	-37.5	-43.4	12.9	2.30e-03	0	56	0	779091968	48	6364
2026-01-08 22:15:29.53	120.78	15.21	-38.1	-44.0	12.5	8.31e-03	0	56	0	784334848	49	6433
2026-01-08 22:15:32.56	121.33	15.04	-37.0	-44.3	11.9	1.53e-02	0	57	0	790626304	44	8961
2026-01-08 22:15:35.59	121.88	14.87	-32.4	-44.3	10.1	3.18e-02	0	56	0	795869184	38	12630
2026-01-08 22:15:38.61	122.42	14.70	-39.8	-44.6	11.3	4.22e-02	0	56	0	802160640	47	7770
2026-01-08 22:15:41.64	122.95	14.52	-39.8	-44.5	9.9	2.72e-02	0	56	0	807403520	45	8563
2026-01-08 22:15:44.67	123.48	14.35	-39.1	-44.3	12.4	7.01e-03	0	56	0	812646400	49	6701
2026-01-08 22:15:47.70	124.00	14.17	-40.2	-44.3	12.5	9.20e-03	0	57	0	818937856	51	5951
2026-01-08 22:15:50.73	124.52	14.00	-39.8	-43.4	13.5	1.50e-03	0	57	0	824180736	50	5661
2026-01-08 22:15:53.76	125.03	13.82	-39.7	-43.4	13.6	6.72e-03	0	57	0	830472192	50	5667
2026-01-08 22:15:56.79	125.54	13.64	-39.8	-44.4	12.2	5.66e-03	0	56	0	835715072	51	5998
2026-01-08 22:15:59.82	126.04	13.46	-39.8	-44.5	11.2	9.04e-02	0	56	0	840957952	47	7644
2026-01-08 22:16:02.84	126.53	13.28	-38.9	-43.5	11.7	6.23e-02	0	57	0	847249408	49	6128
2026-01-08 22:16:05.87	127.02	13.10	-37.5	-42.2	11.2	1.20e-01	0	56	0	851443712	45	6604
2026-01-08 22:16:08.90	127.50	12.92	-36.4	-42.3	9.4	2.53e-01	0	57	0	856686592	41	8397
2026-01-08 22:16:11.93	127.98	12.74	-32.6	-41.7	8.1	4.51e-01	0	56	0	861929472	35	11054
2026-01-08 22:16:14.95	128.44	12.56	-31.1	-41.3	5.7	1.21e+00	0	56	104	861929472	33	11875
2026-01-08 22:16:17.98	128.91	12.38	-26.1	-40.4	5.6	1.27e+00	0	56	104	861929472	25	16891
2026-01-08 22:16:21.01	129.37	12.19	-22.1	-37.0	4.2	1.41e+00	0	57	104	861929472	16	19280
2026-01-08 22:16:24.04	129.82	12.01	-25.6	-41.0	5.4	1.32e+00	0	57	104	861929472	22	21618
2026-01-08 22:16:27.07	130.27	11.83	-22.3	-38.2	4.8	1.35e+00	0	57	104	861929472	21	16635
2026-01-08 22:16:30.09	130.71	11.65	-23.0	-36.5	4.7	1.46e+00	0	57	104	861929472	18	16154
2026-01-08 22:16:33.13	131.15	11.46	-21.7	-35.1	3.9	1.46e+00	0	57	104	861929472	15	16451
2026-01-08 22:16:36.16	131.59	11.28	-22.3	-37.1	4.8	1.33e+00	0	57	104	861929472	19	16338
2026-01-08 22:16:39.18	132.01	11.10	-23.2	-38.2	5.0	1.35e+00	0	56	104	861929472	19	18560
2026-01-08 22:16:42.21	132.43	10.91	-25.3	-38.3	5.0	1.37e+00	0	56	104	861929472	19	18869
2026-01-08 22:16:45.24	132.85	10.73	-23.1	-35.4	4.0	1.48e+00	0	57	104	861929472	14	18082
2026-01-08 22:16:48.27	133.26	10.55	-20.1	-36.9	3.8	1.51e+00	0	57	104	861929472	11	25394
2026-01-08 22:16:51.30	133.67	10.36	-29.6	-43.9	4.0	1.51e+00	0	56	104	861929472	24	26888
2026-01-08 22:16:54.33	134.07	10.18	-21.7	-34.6	3.8	1.50e+00	0	57	104	861929472	13	17344
2026-01-08 22:16:57.36	134.47	10.00	-21.1	-36.8	3.7	1.51e+00	0	57	104	861929472	15	19950
2026-01-08 22:17:00.39	134.86	9.82	-16.8	-36.5	3.7	1.51e+00	0	57	104	861929472	14	20338
2026-01-08 22:17:03.42	135.25	9.63	-20.7	-39.2	4.5	1.51e+00	0	57	104	861929472	11	33241
2026-01-08 22:17:06.46	135.64	9.45	-31.0	-48.6	3.8	1.51e+00	0	57	104	861929472	34	26071
2026-01-08 22:17:09.48	136.01	9.27	-37.8	-53.7	4.3	1.50e+00	0	57	104	861929472	46	23372
2026-01-08 22:17:12.51	136.39	9.09	-30.2	-48.5	3.8	1.51e+00	0	57	104	861929472	26	40941
2026-01-08 22:17:15.54	136.76	8.90	-40.7	-55.3	3.9	1.49e+00	0	57	104	861929472	51	21166
2026-01-08 22:17:18.57	137.12	8.72	-40.9	-54.8	3.9	1.50e+00	0	57	104	861929472	51	19970
2026-01-08 22:17:21.61	137.48	8.54	-40.8	-55.8	3.9	1.49e+00	0	57	104	861929472	52	21054
2026-01-08 22:17:24.63	137.84	8.36	-40.9	-56.1	3.7	1.49e+00	0	57	104	861929472	52	21827
2026-01-08 22:17:27.66	138.19	8.18	-41.3	-56.3	3.7	1.49e+00	0	57	104	861929472	54	19979
2026-01-08 22:17:30.69	138.54	8.00	-39.6	-54.2	3.9	1.50e+00	0	57	104	861929472	48	22181
2026-01-08 22:17:33.72	138.88	7.82	-44.8	-59.4	3.8	1.49e+00	0	57	104	861929472	60	20092
2026-01-08 22:17:36.75	139.22	7.64	-45.1	-59.7	3.8	1.49e+00	0	57	104	861929472	60	20821
2026-01-08 22:17:39.78	139.56	7.46	-45.1	-59.7	3.8	1.49e+00	0	57	104	861929472	60	20984
2026-01-08 22:17:42.81	139.89	7.29	-44.9	-59.5	3.8	1.49e+00	0	57	104	861929472	60	20349
2026-01-08 22:17:45.84	140.22	7.11	-44.8	-59.3	3.8	1.49e+00	0	57	104	861929472	60	20053
2026-01-08 22:17:48.87	140.54	6.93	-44.7	-59.3	3.8	1.49e+00	0	57	104	861929472	60	19996
2026-01-08 22:17:51.91	140.87	6.75	-44.8	-59.3	3.8	1.49e+00	0	57	104	861929472	60	20010
2026-01-08 22:17:54.94	141.18	6.58	-44.8	-59.3	3.8	1.49e+00	0	57	104	861929472	60	19974
2026-01-08 22:17:57.97	141.50	6.40	-44.8	-59.3	3.8	1.49e+00	0	57	104	861929472	60	19955
2026-01-08 22:18:01.00	141.80	6.23	-44.8	-59.3	3.8	1.49e+00	0	57	104	861929472	60	19980
2026-01-08 22:18:04.03	142.11	6.05	-44.8	-59.3	3.8	1.49e+00	0	57	104	861929472	60	19996
2026-01-08 22:18:07.06	142.41	5.88	-44.8	-59.3	3.8	1.49e+00	0	57	104	861929472	60	20007
2026-01-08 22:18:10.09	142.71	5.70	-44.8	-59.3	3.8	1.49e+00	0	57	104	861929472	60	19987
2026-01-08 22:18:13.12	143.01	5.53	-44.8	-59.3	3.8	1.49e+00	0	57	104	861929472	60	19976
2026-01-08 22:18:16.16	143.30	5.36	-44.8	-59.3	3.8	1.49e+00	0	57	104	861929472	60	19965
2026-01-08 22:18:19.19	143.59	5.18	-44.8	-59.3	3.8	1.49e+00	0	57	104	861929472	60	19935
2026-01-08 22:18:22.22	143.87	5.01	-44.8	-59.3	3.8	1.49e+00	0	57	104	861929472	60	19943
2026-01-08 22:18:25.25	144.16	4.84	-44.8	-59.3	3.8	1.49e+00	0	57	104	861929472	60	19963
2026-01-08 22:18:28.28	144.44	4.67	-44.8	-59.3	3.8	1.49e+00	0	57	104	861929472	60	19905
2026-01-08 22:18:31.32	144.71	4.50	-44.8	-59.3	3.8	1.49e+00	0	57	104	861929472	60	19940
2026-01-08 22:18:34.34	144.99	4.33	-44.8	-59.3	3.8	1.49e+00	0	57	104	861929472	60	20007
2026-01-08 22:18:37.38	145.26	4.16	-44.8	-59.3	3.8	1.49e+00	0	57	104	861929472	60	19918
2026-01-08 22:18:40.41	145.52	3.99	-44.8	-59.3	3.8	1.49e+00	0	57	104	861929472	60	19921
2026-01-08 22:18:43.44	145.79	3.82	-44.8	-59.3	3.8	1.49e+00	0	57	104	861929472	60	19938
2026-01-08 22:18:46.47	146.05	3.66	-44.8	-59.3	3.8	1.49e+00	0	57	104	861929472	60	19944
2026-01-08 22:18:49.50	146.31	3.49	-44.8	-59.3	3.8	1.49e+00	0	57	104	861929472	60	19875
2026-01-08 22:18:52.54	146.56	3.32	-44.8	-59.3	3.8	1.49e+00	0	57	104	861929472	60	19935
2026-01-08 22:18:55.57	146.82	3.16	-44.8	-59.3	3.8	1.49e+00	0	57	104	861929472	60	19918
2026-01-08 22:18:58.60	147.07	2.99	-44.8	-59.3	3.8	1.49e+00	0	57	104	861929472	60	19891
2026-01-08 22:19:01.63	147.31	2.83	-44.8	-59.3	3.8	1.49e+00	0	57	104	861929472	60	19943
2026-01-08 22:19:04.66	147.56	2.66	-44.8	-59.3	3.8	1.49e+00	0	57	104	861929472	60	19918
2026-01-08 22:19:07.69	147.80	2.50	-44.8	-59.3	3.8	1.49e+00	0	57	104	861929472	60	19949
2026-01-08 22:19:10.72	148.04	2.34	-44.8	-59.3	3.8	1.49e+00	0	57	104	861929472	60	19929
2026-01-08 22:19:13.75	148.28	2.17	-44.8	-59.3	3.8	1.49e+00	0	57	104	861929472	60	19936
2026-01-08 22:19:16.78	148.51	2.01	-44.8	-59.3	3.8	1.49e+00	0	57	104	861929472	60	19896

#Closed at: 2026-01-08 22:19:18
#Recorded file [861 MB]: D:/lorett/data/31039_260109_010645.dat