passes_logs/2026/01/08/R2.0S_Moscow/R2.0S_Moscow__20260108_110736_NOAA_21_JPSS-2_rec.log

#Pass ID: 20260108_110736_NOAA 21 (JPSS-2)
#Satellite: NOAA 21 (JPSS-2)
#Configuration: NOAA-21
#almurnet v.1.7.20251203
#Start time: 2026-01-08 11:10:48

#Version: 2.2.20231116
#Station: R2.0S_Moscow
#Location: 37.707566 lon 55.798166 lat
#TLE: 1 54234U 22150A   26005.56767909  .00000152  00000+0  92756-4 0  9990
#TLE: 2 54234  98.7490 306.5820 0001036 340.2747  19.8389 14.19532370163472

#Time	Az	El	Level	Level2	SNR	BER	BlckErr	Temp	State	Recorded	gain1	gain2
2026-01-08 11:10:48.02	213.79	15.57	-45.0	-56.5	3.8	8.46e-01	0	58	0	0	60	14522
2026-01-08 11:10:51.04	214.21	15.82	-45.2	-57.5	3.8	1.49e+00	0	59	104	0	62	14489
2026-01-08 11:10:54.07	214.64	16.08	-45.1	-57.4	3.8	1.49e+00	0	59	104	0	62	14282
2026-01-08 11:10:57.11	215.07	16.34	-44.9	-57.2	3.8	1.49e+00	0	59	104	0	61	14796
2026-01-08 11:11:00.14	215.52	16.61	-44.8	-57.1	3.8	1.49e+00	0	59	104	0	61	14672
2026-01-08 11:11:03.17	215.97	16.87	-44.8	-57.1	3.8	1.49e+00	0	59	104	0	61	14558
2026-01-08 11:11:06.20	216.43	17.13	-44.9	-57.2	3.8	1.49e+00	0	59	104	0	61	14720
2026-01-08 11:11:09.23	216.89	17.40	-44.8	-56.8	3.8	1.49e+00	0	59	104	0	61	14197
2026-01-08 11:11:12.26	217.37	17.66	-44.8	-56.7	3.8	1.49e+00	0	59	104	0	61	14007
2026-01-08 11:11:15.30	217.85	17.93	-44.8	-56.9	3.8	1.49e+00	0	59	104	0	61	14252
2026-01-08 11:11:18.33	218.34	18.20	-44.8	-56.7	3.8	1.49e+00	0	59	104	0	61	13924
2026-01-08 11:11:21.36	218.84	18.47	-44.8	-56.9	3.8	1.49e+00	0	59	104	0	61	14258
2026-01-08 11:11:24.40	219.35	18.74	-44.8	-56.7	3.8	1.49e+00	0	59	104	0	61	13966
2026-01-08 11:11:27.43	219.87	19.01	-44.6	-55.1	3.8	1.49e+00	0	59	104	0	61	11565
2026-01-08 11:11:30.46	220.40	19.28	-43.6	-49.1	6.6	2.69e-01	0	59	0	3145728	59	6563
2026-01-08 11:11:33.50	220.94	19.55	-42.3	-46.1	9.7	1.36e-02	0	59	0	13631488	56	5500
2026-01-08 11:11:36.53	221.48	19.82	-41.4	-44.5	11.1	1.94e-03	0	59	0	23068672	54	5157
2026-01-08 11:11:39.56	222.03	20.10	-40.2	-42.7	13.1	5.41e-05	0	59	0	32505856	52	4674
2026-01-08 11:11:42.59	222.60	20.37	-43.5	-48.8	7.7	7.00e-07	0	59	0	41943040	57	7121
2026-01-08 11:11:45.62	223.17	20.64	-40.5	-43.0	12.9	1.90e-05	0	59	0	44040192	51	5123
2026-01-08 11:11:48.65	223.76	20.92	-38.3	-40.1	15.7	0.00e+00	0	59	0	53477376	48	4357
2026-01-08 11:11:51.68	224.35	21.19	-38.3	-40.0	15.9	0.00e+00	0	59	0	62914560	48	4308
2026-01-08 11:11:54.71	224.95	21.46	-38.1	-39.8	16.0	0.00e+00	0	59	0	72351744	48	4215
2026-01-08 11:11:57.74	225.57	21.73	-38.1	-39.8	16.0	0.00e+00	0	59	0	81788928	48	4226
2026-01-08 11:12:00.75	226.19	22.00	-38.2	-39.9	16.0	0.00e+00	0	59	0	91226112	48	4254
2026-01-08 11:12:03.79	226.83	22.28	-38.1	-39.8	16.1	0.00e+00	0	59	0	100663296	48	4214
2026-01-08 11:12:06.82	227.48	22.55	-38.1	-39.7	16.1	0.00e+00	0	59	0	110100480	48	4191
2026-01-08 11:12:09.85	228.13	22.82	-37.9	-39.5	16.2	0.00e+00	0	59	0	119537664	47	4328
2026-01-08 11:12:12.89	228.80	23.09	-37.9	-39.5	16.2	0.00e+00	0	59	0	128974848	47	4331
2026-01-08 11:12:15.92	229.49	23.35	-38.0	-39.7	16.1	0.00e+00	0	59	0	138412032	47	4404
2026-01-08 11:12:18.95	230.18	23.62	-38.1	-39.8	16.0	0.00e+00	0	59	0	147849216	47	4478
2026-01-08 11:12:21.99	230.88	23.88	-38.2	-39.9	15.8	0.00e+00	0	59	0	157286400	47	4543
2026-01-08 11:12:25.02	231.60	24.15	-38.3	-40.1	15.6	0.00e+00	0	59	0	166723584	47	4641
2026-01-08 11:12:28.05	232.33	24.41	-38.5	-40.3	15.5	0.00e+00	0	59	0	176160768	47	4712
2026-01-08 11:12:31.08	233.06	24.67	-38.1	-39.8	15.9	0.00e+00	0	59	0	185597952	47	4491
2026-01-08 11:12:34.12	233.82	24.92	-38.1	-39.8	15.9	0.00e+00	0	59	0	195035136	47	4492
2026-01-08 11:12:37.15	234.58	25.18	-38.4	-40.2	15.6	0.00e+00	0	59	0	204472320	47	4656
2026-01-08 11:12:40.18	235.35	25.43	-38.5	-40.3	15.5	0.00e+00	0	59	0	213909504	47	4732
2026-01-08 11:12:43.21	236.14	25.67	-38.3	-40.0	15.7	0.00e+00	0	58	0	223346688	47	4577
2026-01-08 11:12:46.24	236.94	25.92	-38.3	-40.1	15.7	0.00e+00	0	59	0	232783872	47	4613
2026-01-08 11:12:49.27	237.75	26.15	-38.3	-40.1	15.7	0.00e+00	0	59	0	242221056	47	4599
2026-01-08 11:12:52.31	238.57	26.39	-38.2	-39.9	15.9	0.00e+00	0	59	0	251658240	47	4528
2026-01-08 11:12:55.34	239.41	26.62	-38.3	-40.1	15.7	7.00e-07	0	59	0	261095424	47	4621
2026-01-08 11:12:58.37	240.25	26.85	-38.3	-40.0	15.7	0.00e+00	0	59	0	271581184	47	4582
2026-01-08 11:13:01.41	241.12	27.07	-38.3	-40.0	15.8	0.00e+00	0	59	0	279969792	47	4572
2026-01-08 11:13:04.44	241.99	27.29	-38.0	-39.7	16.0	0.00e+00	0	59	0	290455552	47	4430
2026-01-08 11:13:07.47	242.87	27.50	-38.2	-39.9	15.8	0.00e+00	0	58	0	299892736	47	4518
2026-01-08 11:13:10.50	243.76	27.71	-38.2	-39.9	15.8	0.00e+00	0	59	0	309329920	47	4524
2026-01-08 11:13:13.53	244.66	27.91	-37.9	-39.6	16.2	0.00e+00	0	58	0	318767104	47	4366
2026-01-08 11:13:16.56	245.58	28.10	-38.3	-40.1	15.7	0.00e+00	0	59	0	328204288	47	4618
2026-01-08 11:13:19.60	246.50	28.29	-38.5	-40.3	15.4	0.00e+00	0	59	0	337641472	47	4751
2026-01-08 11:13:22.63	247.44	28.47	-38.2	-39.9	15.8	0.00e+00	0	58	0	347078656	47	4531
2026-01-08 11:13:25.66	248.38	28.64	-38.3	-40.1	15.6	0.00e+00	0	59	0	356515840	47	4630
2026-01-08 11:13:28.69	249.34	28.81	-38.3	-40.1	15.6	0.00e+00	0	59	0	365953024	47	4633
2026-01-08 11:13:31.72	250.30	28.96	-38.2	-39.9	15.8	0.00e+00	0	59	0	375390208	47	4530
2026-01-08 11:13:34.75	251.28	29.11	-38.2	-39.9	15.9	0.00e+00	0	59	0	384827392	47	4518
2026-01-08 11:13:37.79	252.26	29.26	-38.4	-40.2	15.6	0.00e+00	0	59	0	394264576	47	4685
2026-01-08 11:13:40.82	253.26	29.39	-38.5	-40.3	15.4	0.00e+00	0	59	0	403701760	47	4736
2026-01-08 11:13:43.85	254.25	29.51	-38.3	-40.1	15.7	0.00e+00	0	59	0	413138944	47	4621
2026-01-08 11:13:46.88	255.26	29.63	-38.5	-40.3	15.4	0.00e+00	0	59	0	422576128	47	4744
2026-01-08 11:13:49.91	256.27	29.74	-38.5	-40.4	15.4	0.00e+00	0	59	0	432013312	47	4762
2026-01-08 11:13:52.95	257.29	29.83	-38.8	-40.6	15.2	0.00e+00	0	59	0	441450496	48	4643
2026-01-08 11:13:55.98	258.32	29.92	-38.6	-40.4	15.5	0.00e+00	0	58	0	450887680	48	4518
2026-01-08 11:13:59.01	259.35	30.00	-38.9	-40.8	15.1	0.00e+00	0	59	0	460324864	48	4722
2026-01-08 11:14:02.03	260.38	30.07	-38.6	-40.4	15.5	0.00e+00	0	59	0	469762048	48	4499
2026-01-08 11:14:05.06	261.42	30.13	-38.7	-40.5	15.4	0.00e+00	0	59	0	479199232	48	4556
2026-01-08 11:14:08.09	262.46	30.18	-38.7	-40.6	15.3	0.00e+00	0	59	0	488636416	48	4611
2026-01-08 11:14:11.12	263.50	30.21	-38.5	-40.3	15.6	0.00e+00	0	59	0	498073600	48	4452
2026-01-08 11:14:14.16	264.55	30.24	-38.5	-40.3	15.5	0.00e+00	0	59	0	507510784	48	4487
2026-01-08 11:14:17.19	265.60	30.26	-38.6	-40.3	15.5	0.00e+00	0	59	0	516947968	48	4492
2026-01-08 11:14:20.22	266.65	30.27	-38.7	-40.5	15.3	0.00e+00	0	58	0	526385152	48	4592
2026-01-08 11:14:23.25	267.70	30.27	-38.8	-40.6	15.2	0.00e+00	0	59	0	535822336	48	4649
2026-01-08 11:14:26.29	268.75	30.25	-38.6	-40.4	15.5	0.00e+00	0	58	0	545259520	48	4531
2026-01-08 11:14:29.32	269.79	30.23	-38.4	-40.1	15.7	0.00e+00	0	59	0	555745280	48	4378
2026-01-08 11:14:32.35	270.84	30.20	-38.8	-40.6	15.2	0.00e+00	0	59	0	565182464	48	4639
2026-01-08 11:14:35.39	271.88	30.15	-38.7	-40.6	15.3	0.00e+00	0	58	0	574619648	48	4604
2026-01-08 11:14:38.42	272.92	30.10	-38.6	-40.4	15.4	0.00e+00	0	59	0	584056832	48	4542
2026-01-08 11:14:41.45	273.96	30.03	-38.9	-40.8	15.0	0.00e+00	0	58	0	593494016	48	4750
2026-01-08 11:14:44.48	274.99	29.96	-38.7	-40.6	15.3	0.00e+00	0	59	0	602931200	48	4609
2026-01-08 11:14:47.52	276.02	29.88	-38.6	-40.5	15.4	0.00e+00	0	58	0	612368384	48	4555
2026-01-08 11:14:50.55	277.04	29.78	-38.6	-40.5	15.4	0.00e+00	0	59	0	621805568	48	4549
2026-01-08 11:14:53.58	278.05	29.68	-38.7	-40.5	15.3	0.00e+00	0	59	0	631242752	48	4586
2026-01-08 11:14:56.61	279.06	29.57	-38.8	-40.6	15.2	0.00e+00	0	58	0	640679936	48	4645
2026-01-08 11:14:59.65	280.06	29.45	-38.6	-40.4	15.4	0.00e+00	0	58	0	650117120	48	4527
2026-01-08 11:15:02.68	281.05	29.32	-38.6	-40.4	15.5	0.00e+00	0	59	0	659554304	48	4506
2026-01-08 11:15:05.71	282.03	29.18	-38.5	-40.3	15.6	0.00e+00	0	58	0	668991488	48	4458
2026-01-08 11:15:08.74	283.01	29.04	-38.3	-40.0	15.9	0.00e+00	0	58	0	678428672	48	4299
2026-01-08 11:15:11.77	283.98	28.88	-38.6	-40.4	15.4	0.00e+00	0	58	0	687865856	48	4529
2026-01-08 11:15:14.81	284.94	28.72	-38.5	-40.3	15.6	0.00e+00	0	58	0	697303040	48	4443
2026-01-08 11:15:17.84	285.88	28.55	-38.6	-40.4	15.5	0.00e+00	0	59	0	706740224	48	4496
2026-01-08 11:15:20.87	286.82	28.37	-38.5	-40.3	15.5	0.00e+00	0	58	0	716177408	48	4475
2026-01-08 11:15:23.90	287.75	28.19	-38.3	-40.0	15.8	0.00e+00	0	58	0	725614592	48	4332
2026-01-08 11:15:26.92	288.66	28.00	-38.3	-40.0	15.9	0.00e+00	0	59	0	735051776	48	4309
2026-01-08 11:15:29.96	289.57	27.81	-38.3	-40.1	15.8	0.00e+00	0	59	0	744488960	48	4354
2026-01-08 11:15:32.99	290.46	27.60	-38.2	-40.0	15.9	0.00e+00	0	59	0	753926144	48	4294
2026-01-08 11:15:36.02	291.34	27.40	-38.2	-39.9	15.9	0.00e+00	0	59	0	763363328	48	4250
2026-01-08 11:15:39.05	292.22	27.18	-38.2	-39.9	15.9	0.00e+00	0	59	0	772800512	48	4285
2026-01-08 11:15:42.08	293.08	26.96	-38.3	-40.0	15.8	0.00e+00	0	58	0	782237696	48	4318
2026-01-08 11:15:45.12	293.93	26.74	-38.3	-40.0	15.8	0.00e+00	0	59	0	791674880	48	4310
2026-01-08 11:15:48.15	294.76	26.51	-38.2	-39.9	15.9	0.00e+00	0	58	0	801112064	48	4270
2026-01-08 11:15:51.18	295.59	26.28	-38.2	-39.9	15.8	0.00e+00	0	59	0	811597824	48	4291
2026-01-08 11:15:54.21	296.40	26.05	-38.4	-40.2	15.6	0.00e+00	0	59	0	819986432	48	4417
2026-01-08 11:15:57.25	297.20	25.80	-38.5	-40.3	15.5	0.00e+00	0	59	0	830472192	48	4466
2026-01-08 11:16:00.28	297.99	25.56	-38.2	-39.9	15.9	0.00e+00	0	58	0	839909376	48	4263
2026-01-08 11:16:03.31	298.77	25.31	-38.3	-40.0	15.8	0.00e+00	0	59	0	849346560	48	4331
2026-01-08 11:16:06.34	299.53	25.06	-38.4	-40.2	15.6	0.00e+00	0	59	0	858783744	48	4398
2026-01-08 11:16:09.37	300.29	24.81	-38.2	-40.0	15.7	0.00e+00	0	58	0	868220928	48	4317
2026-01-08 11:16:12.40	301.03	24.56	-38.1	-39.8	15.9	0.00e+00	0	59	0	877658112	48	4230
2026-01-08 11:16:15.43	301.76	24.30	-37.9	-39.6	16.0	0.00e+00	0	58	0	887095296	47	4364
2026-01-08 11:16:18.46	302.47	24.04	-38.1	-39.8	15.8	0.00e+00	0	59	0	896532480	47	4469
2026-01-08 11:16:21.49	303.18	23.78	-37.9	-39.6	16.0	0.00e+00	0	59	0	905969664	47	4382
2026-01-08 11:16:24.52	303.87	23.52	-38.1	-39.9	15.8	0.00e+00	0	59	0	915406848	47	4502
2026-01-08 11:16:27.55	304.56	23.25	-38.0	-39.8	15.8	0.00e+00	0	58	0	924844032	47	4463
2026-01-08 11:16:30.59	305.23	22.99	-38.2	-40.0	15.6	0.00e+00	0	59	0	934281216	47	4579
2026-01-08 11:16:33.62	305.89	22.72	-38.2	-39.9	15.6	0.00e+00	0	58	0	943718400	47	4544
2026-01-08 11:16:36.65	306.54	22.45	-37.9	-39.6	16.0	0.00e+00	0	58	0	953155584	47	4358
2026-01-08 11:16:39.68	307.18	22.18	-37.9	-39.6	16.0	0.00e+00	0	58	0	962592768	47	4357
2026-01-08 11:16:42.71	307.81	21.91	-37.8	-39.5	16.0	0.00e+00	0	58	0	972029952	47	4327
2026-01-08 11:16:45.75	308.43	21.64	-37.8	-39.5	16.1	0.00e+00	0	59	0	981467136	47	4320
2026-01-08 11:16:48.78	309.03	21.37	-37.9	-39.6	15.9	0.00e+00	0	59	0	990904320	47	4391
2026-01-08 11:16:51.81	309.63	21.10	-38.1	-39.8	15.8	0.00e+00	0	59	0	1000341504	47	4473
2026-01-08 11:16:54.84	310.22	20.83	-38.2	-40.0	15.5	0.00e+00	0	59	0	1009778688	47	4578
2026-01-08 11:16:57.87	310.79	20.56	-38.2	-39.9	15.6	0.00e+00	0	59	0	1019215872	47	4539
2026-01-08 11:17:00.90	311.36	20.29	-38.3	-40.1	15.4	0.00e+00	0	59	0	1028653056	47	4637
2026-01-08 11:17:03.93	311.92	20.02	-38.2	-39.9	15.6	0.00e+00	0	59	0	1038090240	47	4539
2026-01-08 11:17:06.97	312.47	19.75	-38.2	-40.0	15.6	0.00e+00	0	58	0	1047527424	47	4558
2026-01-08 11:17:10.00	313.00	19.48	-38.4	-40.3	15.3	0.00e+00	0	58	0	1056964608	47	4718
2026-01-08 11:17:13.03	313.53	19.21	-38.2	-40.0	15.5	0.00e+00	0	58	0	1066401792	47	4588
2026-01-08 11:17:16.07	314.05	18.94	-38.4	-40.3	15.2	0.00e+00	0	59	0	1075838976	47	4735
2026-01-08 11:17:19.10	314.57	18.67	-38.3	-40.2	15.3	0.00e+00	0	58	0	1085276160	47	4678
2026-01-08 11:17:22.13	315.07	18.41	-38.6	-40.5	15.0	0.00e+00	0	58	0	1095761920	47	4843
2026-01-08 11:17:25.16	315.56	18.14	-38.8	-40.8	14.8	7.00e-07	0	58	0	1104150528	48	4732
2026-01-08 11:17:28.20	316.05	17.88	-38.8	-40.8	14.8	1.50e-06	0	58	0	1114636288	48	4714
2026-01-08 11:17:31.22	316.52	17.61	-38.9	-41.0	14.6	1.50e-06	0	59	0	1124073472	48	4833
2026-01-08 11:17:34.25	316.99	17.35	-38.9	-40.9	14.7	0.00e+00	0	59	0	1133510656	48	4785
2026-01-08 11:17:37.29	317.46	17.09	-38.8	-40.8	14.8	7.00e-07	0	58	0	1142947840	48	4715
2026-01-08 11:17:40.32	317.91	16.83	-38.6	-40.5	15.1	0.00e+00	0	58	0	1152385024	48	4573
2026-01-08 11:17:43.35	318.36	16.57	-38.4	-40.3	15.3	0.00e+00	0	58	0	1161822208	48	4455
2026-01-08 11:17:46.38	318.80	16.31	-38.6	-40.5	15.1	0.00e+00	0	59	0	1171259392	48	4557
2026-01-08 11:17:49.41	319.23	16.05	-38.4	-40.3	15.2	0.00e+00	0	58	0	1180696576	48	4465
2026-01-08 11:17:52.44	319.65	15.79	-38.6	-40.5	15.0	0.00e+00	0	58	0	1190133760	48	4552
2026-01-08 11:17:55.47	320.07	15.54	-38.8	-40.7	14.7	0.00e+00	0	58	0	1199570944	48	4704
2026-01-08 11:17:58.51	320.48	15.29	-38.9	-41.0	14.6	0.00e+00	0	58	0	1209008128	48	4815
2026-01-08 11:18:01.53	320.88	15.03	-38.9	-40.9	14.6	7.00e-07	0	58	0	1218445312	48	4777
2026-01-08 11:18:04.56	321.28	14.78	-38.9	-40.9	14.6	0.00e+00	0	58	0	1227882496	48	4778
2026-01-08 11:18:07.58	321.67	14.53	-38.8	-40.8	14.6	7.00e-07	0	58	0	1237319680	48	4753
2026-01-08 11:18:10.61	322.06	14.29	-39.0	-41.0	14.5	7.00e-07	0	58	0	1246756864	48	4834
2026-01-08 11:18:13.64	322.43	14.04	-39.2	-41.3	14.1	1.50e-06	0	59	0	1256194048	48	5013
2026-01-08 11:18:16.67	322.81	13.79	-39.1	-41.2	14.2	0.00e+00	0	59	0	1265631232	48	4948
2026-01-08 11:18:19.70	323.17	13.55	-39.1	-41.3	14.1	3.00e-06	0	58	0	1275068416	49	4706
2026-01-08 11:18:22.73	323.54	13.31	-39.2	-41.4	14.0	3.80e-06	0	58	0	1284505600	49	4777
2026-01-08 11:18:25.76	323.89	13.07	-39.2	-41.4	14.0	3.80e-06	0	59	0	1293942784	49	4803
2026-01-08 11:18:28.79	324.24	12.83	-39.3	-41.5	13.9	3.00e-06	0	58	0	1303379968	49	4857
2026-01-08 11:18:31.82	324.58	12.59	-39.2	-41.4	14.0	4.50e-06	0	59	0	1312817152	49	4765
2026-01-08 11:18:34.84	324.92	12.35	-39.2	-41.3	14.0	4.50e-06	0	58	0	1322254336	49	4746
2026-01-08 11:18:37.87	325.26	12.12	-39.4	-41.6	13.7	4.50e-06	0	58	0	1331691520	49	4924
2026-01-08 11:18:40.90	325.59	11.88	-39.3	-41.6	13.7	3.00e-06	0	59	0	1341128704	49	4876
2026-01-08 11:18:43.93	325.91	11.65	-39.5	-41.8	13.4	1.29e-05	0	58	0	1350565888	49	5031
2026-01-08 11:18:46.97	326.23	11.42	-39.6	-42.0	13.2	1.60e-05	0	58	0	1360003072	49	5152
2026-01-08 11:18:49.99	326.54	11.19	-39.6	-42.0	13.2	2.05e-05	0	59	0	1369440256	50	4855
2026-01-08 11:18:53.02	326.85	10.96	-39.7	-42.1	13.2	2.36e-05	0	59	0	1378877440	50	4875
2026-01-08 11:18:56.05	327.16	10.73	-39.6	-41.9	13.3	1.83e-05	0	59	0	1388314624	50	4800
2026-01-08 11:18:59.08	327.46	10.51	-39.5	-41.8	13.4	1.67e-05	0	58	0	1397751808	50	4745
2026-01-08 11:19:02.11	327.76	10.29	-39.5	-41.8	13.4	1.14e-05	0	58	0	1407188992	50	4729
2026-01-08 11:19:05.14	328.05	10.06	-39.6	-42.1	13.1	4.11e-05	0	59	0	1417674752	50	4871
2026-01-08 11:19:08.16	328.33	9.84	-39.6	-42.0	13.1	5.56e-05	0	59	0	1426063360	50	4865
2026-01-08 11:19:11.19	328.62	9.62	-39.7	-42.2	12.8	4.88e-05	0	58	0	1436549120	50	4959
2026-01-08 11:19:14.22	328.90	9.40	-39.8	-42.3	12.7	6.48e-05	0	58	0	1444937728	50	5032
2026-01-08 11:19:17.25	329.17	9.19	-39.7	-42.2	12.8	3.89e-05	0	59	0	1455423488	50	4967
2026-01-08 11:19:20.27	329.44	8.97	-39.8	-42.4	12.6	8.85e-05	0	59	0	1464860672	50	5059
2026-01-08 11:19:23.30	329.71	8.76	-39.8	-42.5	12.5	1.11e-04	0	58	0	1474297856	50	5113
2026-01-08 11:19:26.33	329.98	8.54	-39.9	-42.6	12.3	1.71e-04	0	58	0	1483735040	50	5200
2026-01-08 11:19:29.36	330.24	8.33	-40.0	-42.8	12.1	2.22e-04	0	58	0	1493172224	50	5318
2026-01-08 11:19:32.39	330.50	8.12	-39.9	-42.7	12.2	1.65e-04	0	58	0	1502609408	50	5243
2026-01-08 11:19:35.42	330.75	7.91	-44.4	-56.2	3.8	1.49e+00	0	59	104	1508900864	59	14809
2026-01-08 11:19:38.45	331.00	7.70	-44.9	-57.2	3.8	1.49e+00	0	59	104	1508900864	60	15719
2026-01-08 11:19:41.48	331.25	7.50	-45.1	-57.5	3.8	1.49e+00	0	59	104	1508900864	60	16231
2026-01-08 11:19:44.51	331.49	7.29	-45.1	-57.5	3.8	1.49e+00	0	59	104	1508900864	60	16208
2026-01-08 11:19:47.55	331.73	7.09	-45.1	-57.5	3.8	1.49e+00	0	59	104	1508900864	60	16165
2026-01-08 11:19:50.58	331.97	6.88	-45.1	-57.4	3.8	1.49e+00	0	59	104	1508900864	60	16059
2026-01-08 11:19:53.61	332.20	6.68	-45.0	-57.4	3.8	1.49e+00	0	59	104	1508900864	60	15992
2026-01-08 11:19:56.64	332.44	6.48	-45.0	-57.3	3.8	1.49e+00	0	59	104	1508900864	60	15905
2026-01-08 11:19:59.67	332.66	6.28	-45.0	-57.3	3.8	1.49e+00	0	59	104	1508900864	60	15930
2026-01-08 11:20:02.70	332.89	6.08	-45.0	-57.3	3.8	1.49e+00	0	59	104	1508900864	60	15937
2026-01-08 11:20:05.74	333.11	5.89	-45.0	-57.3	3.8	1.49e+00	0	59	104	1508900864	60	15905
2026-01-08 11:20:08.77	333.33	5.69	-45.0	-57.3	3.8	1.49e+00	0	59	104	1508900864	60	15887
2026-01-08 11:20:11.80	333.55	5.50	-45.0	-57.3	3.8	1.49e+00	0	59	104	1508900864	60	15877
2026-01-08 11:20:14.83	333.76	5.30	-45.0	-57.3	3.8	1.49e+00	0	59	104	1508900864	60	15907
2026-01-08 11:20:17.86	333.98	5.11	-45.0	-57.3	3.8	1.49e+00	0	59	104	1508900864	60	15903
2026-01-08 11:20:20.90	334.19	4.92	-45.0	-57.3	3.8	1.49e+00	0	59	104	1508900864	60	15863
2026-01-08 11:20:23.93	334.39	4.73	-44.9	-57.3	3.8	1.49e+00	0	59	104	1508900864	60	15824
2026-01-08 11:20:26.96	334.60	4.54	-44.9	-57.3	3.8	1.49e+00	0	59	104	1508900864	60	15827
2026-01-08 11:20:29.99	334.80	4.35	-44.9	-57.3	3.8	1.49e+00	0	59	104	1508900864	60	15824
2026-01-08 11:20:33.03	335.00	4.16	-44.9	-57.3	3.8	1.49e+00	0	59	104	1508900864	60	15827
2026-01-08 11:20:36.06	335.20	3.98	-44.8	-57.3	3.8	1.49e+00	0	59	104	1508900864	60	15790
2026-01-08 11:20:39.09	335.39	3.79	-44.9	-57.3	3.8	1.49e+00	0	59	104	1508900864	60	15865
2026-01-08 11:20:42.12	335.58	3.61	-44.9	-57.3	3.8	1.49e+00	0	59	104	1508900864	60	15790
2026-01-08 11:20:45.15	335.77	3.42	-44.9	-57.3	3.8	1.49e+00	0	59	104	1508900864	60	15781
2026-01-08 11:20:48.18	335.96	3.24	-44.9	-57.2	3.8	1.49e+00	0	59	104	1508900864	60	15747
2026-01-08 11:20:51.22	336.15	3.06	-44.9	-57.3	3.8	1.49e+00	0	59	104	1508900864	60	15792
2026-01-08 11:20:54.25	336.33	2.88	-44.9	-57.3	3.8	1.49e+00	0	59	104	1508900864	60	15787
2026-01-08 11:20:57.28	336.51	2.70	-44.9	-57.3	3.8	1.49e+00	0	59	104	1508900864	60	15789
2026-01-08 11:21:00.31	336.69	2.52	-44.9	-57.3	3.8	1.49e+00	0	59	104	1508900864	60	15789
2026-01-08 11:21:03.35	336.87	2.34	-44.9	-57.3	3.8	1.49e+00	0	59	104	1508900864	60	15770
2026-01-08 11:21:06.38	337.05	2.17	-44.9	-57.3	3.8	1.49e+00	0	59	104	1508900864	60	15793
2026-01-08 11:21:09.41	337.22	1.99	-44.9	-57.3	3.8	1.49e+00	0	59	104	1508900864	60	15796

#Closed at: 2026-01-08 11:21:10
#Recorded file [1508 MB]: D:/lorett/data/31039_260108_141047.dat