passes_logs/2026/01/08/R2.0S_Moscow/R2.0S_Moscow__20260108_101653_NOAA_20_JPSS-1_rec.log

#Pass ID: 20260108_101653_NOAA 20 (JPSS-1)
#Satellite: NOAA 20 (JPSS-1)
#Configuration: NOAA 20
#almurnet v.1.7.20251203
#Start time: 2026-01-08 10:16:55

#Version: 2.2.20231116
#Station: R2.0S_Moscow
#Location: 37.707566 lon 55.798166 lat
#TLE: 1 43013U 17073A   26006.30790171  .00000126  00000+0  80695-4 0  9991
#TLE: 2 43013  98.7629 307.3394 0001808  51.8724 308.2615 14.19533762421505

#Time	Az	El	Level	Level2	SNR	BER	BlckErr	Temp	State	Recorded	gain1	gain2
2026-01-08 10:16:55.10	171.22	2.08	-43.6	-57.9	3.8	1.49e+00	0	49	0	0	59	17948
2026-01-08 10:16:59.11	171.29	2.34	-43.6	-57.9	3.8	1.49e+00	0	50	104	0	59	17928
2026-01-08 10:17:03.14	171.37	2.60	-43.6	-57.9	3.8	1.49e+00	0	50	104	0	59	17941
2026-01-08 10:17:07.17	171.45	2.86	-43.6	-57.9	3.8	1.49e+00	0	50	104	0	59	17945
2026-01-08 10:17:11.19	171.53	3.13	-43.6	-57.9	3.8	1.49e+00	0	50	104	0	59	17975
2026-01-08 10:17:15.21	171.61	3.40	-43.5	-57.9	3.8	1.49e+00	0	51	104	0	59	17917
2026-01-08 10:17:19.22	171.69	3.67	-43.6	-57.9	3.8	1.49e+00	0	51	104	0	59	17907
2026-01-08 10:17:23.24	171.78	3.94	-43.6	-57.9	3.8	1.49e+00	0	51	104	0	59	17935
2026-01-08 10:17:27.26	171.86	4.21	-43.6	-57.9	3.8	1.49e+00	0	51	104	0	59	17894
2026-01-08 10:17:31.28	171.95	4.49	-43.5	-57.8	3.8	1.49e+00	0	52	104	0	59	17798
2026-01-08 10:17:35.29	172.04	4.78	-43.6	-57.9	3.8	1.49e+00	0	52	104	0	59	17929
2026-01-08 10:17:39.31	172.12	5.06	-43.5	-57.7	3.8	1.49e+00	0	52	104	0	59	17601
2026-01-08 10:17:43.33	172.22	5.35	-43.5	-56.9	3.8	1.49e+00	0	52	104	0	59	16062
2026-01-08 10:17:47.36	172.31	5.64	-43.4	-55.9	3.8	1.49e+00	0	53	104	0	58	15195
2026-01-08 10:17:51.37	172.40	5.93	-43.4	-55.2	3.9	1.46e+00	0	53	104	0	58	14026
2026-01-08 10:17:55.39	172.50	6.23	-43.3	-53.9	4.3	1.36e+00	0	53	0	0	58	12037
2026-01-08 10:17:59.40	172.60	6.53	-43.1	-52.4	4.9	7.99e-01	0	53	0	6291456	58	10168
2026-01-08 10:18:03.42	172.70	6.84	-42.9	-51.1	5.7	4.25e-01	0	53	0	13631488	57	9248
2026-01-08 10:18:07.43	172.80	7.14	-42.6	-49.7	6.9	1.75e-01	0	53	0	20971520	57	7833
2026-01-08 10:18:11.44	172.90	7.45	-42.3	-48.5	8.1	7.21e-02	0	54	0	28311552	56	7248
2026-01-08 10:18:15.46	173.01	7.77	-41.6	-46.7	9.8	1.50e-02	0	54	0	36700160	55	6227
2026-01-08 10:18:19.48	173.11	8.09	-41.4	-45.9	10.9	3.23e-03	0	54	0	44040192	54	6003
2026-01-08 10:18:23.49	173.22	8.41	-41.7	-46.9	9.2	1.09e+00	0	54	0	51380224	55	6395
2026-01-08 10:18:27.50	173.34	8.74	-41.1	-45.2	11.7	6.19e-04	0	54	0	58720256	54	5531
2026-01-08 10:18:31.49	173.45	9.07	-41.2	-45.1	11.7	7.41e-04	0	54	0	66060288	54	5527
2026-01-08 10:18:35.50	173.57	9.40	-41.2	-45.1	11.8	3.61e-04	0	54	0	73400320	54	5513
2026-01-08 10:18:39.49	173.68	9.74	-41.2	-45.0	12.1	2.39e-04	0	55	0	80740352	54	5434
2026-01-08 10:18:43.50	173.80	10.09	-41.1	-44.9	12.2	1.50e-04	0	55	0	88080384	54	5381
2026-01-08 10:18:47.50	173.93	10.43	-41.0	-44.5	12.6	9.46e-05	0	55	0	95420416	53	5458
2026-01-08 10:18:51.50	174.05	10.79	-40.9	-44.4	12.8	5.56e-05	0	55	0	103809024	53	5387
2026-01-08 10:18:55.50	174.18	11.15	-40.8	-44.2	13.1	3.66e-05	0	55	0	111149056	53	5240
2026-01-08 10:18:59.50	174.32	11.51	-40.7	-44.0	13.3	3.43e-05	0	55	0	118489088	53	5110
2026-01-08 10:19:03.50	174.45	11.88	-40.6	-43.8	13.6	1.37e-05	0	55	0	125829120	53	4993
2026-01-08 10:19:07.50	174.59	12.25	-40.6	-43.7	13.6	6.10e-06	0	56	0	133169152	53	4973
2026-01-08 10:19:11.51	174.73	12.64	-40.5	-43.6	13.8	1.22e-05	0	56	0	140509184	53	4897
2026-01-08 10:19:15.51	174.88	13.02	-40.5	-43.5	13.9	1.52e-05	0	56	0	148897792	53	4863
2026-01-08 10:19:19.52	175.03	13.41	-40.6	-43.7	13.7	4.04e-05	0	56	0	156237824	52	5231
2026-01-08 10:19:23.52	175.18	13.81	-40.5	-43.6	14.0	2.20e-06	0	56	0	163577856	52	5163
2026-01-08 10:19:27.51	175.33	14.22	-40.6	-43.6	13.9	1.50e-06	0	56	0	170917888	52	5209
2026-01-08 10:19:31.50	175.49	14.63	-40.6	-43.6	13.9	1.50e-06	0	56	0	178257920	52	5189
2026-01-08 10:19:35.48	175.66	15.05	-40.7	-43.7	13.9	3.80e-06	0	56	0	185597952	52	5261
2026-01-08 10:19:39.46	175.83	15.47	-40.6	-43.7	13.9	4.50e-06	0	56	0	192937984	52	5240
2026-01-08 10:19:43.45	176.00	15.90	-40.8	-43.9	13.8	3.00e-06	0	56	0	201326592	52	5347
2026-01-08 10:19:47.46	176.18	16.34	-40.9	-44.0	13.6	5.30e-06	0	56	0	208666624	52	5449
2026-01-08 10:19:51.46	176.36	16.79	-41.0	-44.3	13.3	1.75e-05	0	56	0	216006656	52	5644
2026-01-08 10:19:55.46	176.55	17.25	-41.2	-44.6	13.1	2.21e-05	0	56	0	223346688	52	5799
2026-01-08 10:19:59.46	176.74	17.71	-41.2	-44.5	13.1	2.74e-05	0	56	0	230686720	52	5783
2026-01-08 10:20:03.47	176.94	18.19	-41.2	-44.5	13.2	2.13e-05	0	56	0	238026752	53	5455
2026-01-08 10:20:07.47	177.15	18.67	-41.2	-44.5	13.2	2.67e-05	0	56	0	246415360	53	5451
2026-01-08 10:20:11.48	177.36	19.17	-41.2	-44.7	13.0	3.28e-05	0	57	0	253755392	53	5530
2026-01-08 10:20:15.49	177.58	19.67	-41.3	-44.7	13.0	3.73e-05	0	56	0	261095424	53	5561
2026-01-08 10:20:19.51	177.80	20.18	-41.3	-44.7	13.0	5.26e-05	0	57	0	268435456	53	5583
2026-01-08 10:20:23.51	178.04	20.71	-41.3	-44.7	13.0	5.26e-05	0	57	0	275775488	53	5571
2026-01-08 10:20:27.53	178.28	21.24	-41.3	-44.7	13.1	3.66e-05	0	57	0	283115520	53	5582
2026-01-08 10:20:31.53	178.53	21.79	-41.3	-44.7	13.0	3.35e-05	0	57	0	291504128	53	5588
2026-01-08 10:20:35.53	178.78	22.34	-41.2	-44.6	13.2	1.44e-05	0	57	0	298844160	53	5474
2026-01-08 10:20:39.53	179.05	22.91	-41.1	-44.4	13.4	1.29e-05	0	57	0	306184192	53	5350
2026-01-08 10:20:43.52	179.32	23.49	-41.1	-44.3	13.6	1.75e-05	0	57	0	313524224	53	5314
2026-01-08 10:20:47.53	179.61	24.08	-41.1	-44.3	13.6	6.80e-06	0	57	0	320864256	53	5291
2026-01-08 10:20:51.54	179.90	24.69	-41.1	-44.2	13.7	1.06e-05	0	57	0	328204288	53	5261
2026-01-08 10:20:55.55	180.21	25.31	-41.3	-44.6	13.2	9.90e-06	0	57	0	335544320	53	5514
2026-01-08 10:20:59.55	180.53	25.94	-41.4	-44.8	13.1	2.74e-05	0	57	0	343932928	53	5601
2026-01-08 10:21:03.58	180.86	26.59	-41.4	-44.8	13.1	2.82e-05	0	57	0	351272960	53	5602
2026-01-08 10:21:07.60	181.21	27.26	-41.5	-45.0	12.9	2.89e-05	0	57	0	358612992	53	5755
2026-01-08 10:21:11.60	181.57	27.93	-41.3	-44.6	13.3	2.36e-05	0	57	0	365953024	53	5515
2026-01-08 10:21:15.61	181.94	28.63	-41.3	-44.5	13.5	1.29e-05	0	57	0	373293056	53	5417
2026-01-08 10:21:19.62	182.33	29.34	-41.5	-45.0	13.0	3.73e-05	0	57	0	381681664	53	5731
2026-01-08 10:21:23.62	182.74	30.07	-41.8	-45.5	12.5	1.15e-04	0	57	0	389021696	54	5742
2026-01-08 10:21:27.65	183.17	30.82	-42.0	-45.8	12.1	2.08e-04	0	57	0	396361728	54	5975
2026-01-08 10:21:31.68	183.62	31.58	-42.2	-46.3	11.6	5.00e-04	0	57	0	403701760	55	5936
2026-01-08 10:21:35.71	184.09	32.37	-42.2	-46.3	11.6	6.11e-04	0	57	0	411041792	55	5936
2026-01-08 10:21:39.73	184.58	33.17	-42.1	-45.9	12.0	2.95e-04	0	57	0	418381824	55	5722
2026-01-08 10:21:43.76	185.09	34.00	-41.9	-45.6	12.3	2.29e-04	0	58	0	426770432	55	5522
2026-01-08 10:21:47.79	185.64	34.84	-41.9	-45.6	12.4	1.13e-04	0	58	0	434110464	55	5469
2026-01-08 10:21:51.81	186.21	35.70	-42.1	-46.1	11.9	3.34e-04	0	57	0	441450496	55	5797
2026-01-08 10:21:55.85	186.81	36.59	-42.3	-46.4	11.5	6.49e-04	0	58	0	448790528	55	6034
2026-01-08 10:21:59.86	187.44	37.49	-42.5	-46.8	11.2	1.15e-03	0	58	0	457179136	55	6300
2026-01-08 10:22:03.89	188.11	38.42	-43.1	-48.0	10.1	6.89e-03	0	58	0	464519168	56	6870
2026-01-08 10:22:07.91	188.82	39.37	-42.9	-47.6	10.5	4.63e-03	0	58	0	471859200	56	6534
2026-01-08 10:22:11.94	189.57	40.34	-43.2	-48.4	9.7	9.17e-03	0	58	0	479199232	57	6766
2026-01-08 10:22:15.98	190.37	41.33	-43.0	-47.8	10.3	5.52e-03	0	58	0	486539264	57	6296
2026-01-08 10:22:20.00	191.22	42.34	-42.6	-46.8	11.4	1.12e-03	0	58	0	493879296	57	5593
2026-01-08 10:22:24.03	192.12	43.38	-42.4	-46.4	11.9	6.29e-04	0	58	0	502267904	56	5659
2026-01-08 10:22:28.06	193.09	44.43	-42.3	-46.2	12.1	1.94e-04	0	58	0	509607936	56	5551
2026-01-08 10:22:32.08	194.11	45.50	-42.5	-46.5	11.7	5.69e-04	0	58	0	516947968	56	5783
2026-01-08 10:22:36.11	195.21	46.60	-42.8	-47.2	11.0	1.46e-03	0	58	0	524288000	56	6228
2026-01-08 10:22:40.14	196.39	47.71	-42.3	-46.1	12.2	2.48e-04	0	58	0	531628032	56	5492
2026-01-08 10:22:44.17	197.65	48.83	-42.3	-46.0	12.2	2.62e-04	0	58	0	540016640	56	5463
2026-01-08 10:22:48.19	199.01	49.97	-41.1	-44.1	14.1	5.30e-06	0	58	0	547356672	54	4911
2026-01-08 10:22:52.21	200.47	51.12	-40.0	-42.4	15.8	0.00e+00	0	58	0	554696704	52	4502
2026-01-08 10:22:56.24	202.05	52.27	-39.2	-41.2	17.1	0.00e+00	0	58	0	562036736	50	4429
2026-01-08 10:23:00.26	203.75	53.43	-38.5	-40.3	18.0	0.00e+00	0	58	0	570425344	48	4472
2026-01-08 10:23:04.29	205.60	54.59	-39.2	-41.2	17.1	0.00e+00	0	58	0	577765376	48	4968
2026-01-08 10:23:08.30	207.59	55.74	-39.9	-42.1	16.2	0.00e+00	0	58	0	585105408	50	4924
2026-01-08 10:23:12.32	209.75	56.88	-40.7	-43.4	14.9	0.00e+00	0	58	0	592445440	51	5347
2026-01-08 10:23:16.35	212.11	58.00	-41.3	-44.5	13.7	3.00e-06	0	58	0	599785472	53	5409
2026-01-08 10:23:20.39	214.67	59.10	-41.1	-44.0	14.3	0.00e+00	0	58	0	607125504	53	5117
2026-01-08 10:23:24.42	217.44	60.15	-40.8	-43.6	14.5	0.00e+00	0	58	0	615514112	53	4918
2026-01-08 10:23:28.45	220.45	61.16	-40.3	-42.7	15.4	0.00e+00	0	58	0	622854144	52	4701
2026-01-08 10:23:32.47	223.69	62.11	-40.1	-42.5	15.8	0.00e+00	0	58	0	630194176	51	4857
2026-01-08 10:23:36.50	227.19	62.99	-40.4	-42.9	15.4	0.00e+00	0	58	0	637534208	51	5071
2026-01-08 10:23:40.52	230.93	63.78	-40.8	-43.6	14.5	7.00e-07	0	58	0	644874240	52	5218
2026-01-08 10:23:44.53	234.90	64.48	-40.8	-43.7	14.5	0.00e+00	0	58	0	653262848	52	5222
2026-01-08 10:23:48.52	239.08	65.06	-40.9	-43.8	14.4	1.50e-06	0	58	0	660602880	52	5287
2026-01-08 10:23:52.53	243.49	65.52	-41.5	-44.8	13.3	2.13e-05	0	58	0	667942912	53	5635
2026-01-08 10:23:56.54	248.05	65.85	-41.8	-45.4	12.8	5.26e-05	0	58	0	675282944	54	5672
2026-01-08 10:24:00.52	252.68	66.04	-41.9	-45.7	12.4	2.20e-04	0	58	0	682622976	55	5563
2026-01-08 10:24:04.53	257.40	66.09	-41.8	-45.3	12.8	3.20e-05	0	58	0	689963008	54	5638
2026-01-08 10:24:08.54	262.11	65.99	-41.3	-44.4	13.7	8.30e-06	0	58	0	698351616	54	5099
2026-01-08 10:24:12.56	266.76	65.74	-41.4	-44.5	13.6	3.00e-06	0	58	0	705691648	53	5449
2026-01-08 10:24:16.59	271.28	65.36	-40.3	-42.9	15.4	0.00e+00	0	58	0	713031680	52	4770
2026-01-08 10:24:20.59	275.60	64.85	-40.8	-43.6	14.6	0.00e+00	0	58	0	720371712	53	4871
2026-01-08 10:24:24.62	279.73	64.22	-40.0	-42.4	15.7	0.00e+00	0	58	0	727711744	52	4538
2026-01-08 10:24:28.64	283.62	63.49	-39.8	-42.1	16.1	0.00e+00	0	58	0	735051776	51	4638
2026-01-08 10:24:32.65	287.24	62.66	-39.6	-41.8	16.5	0.00e+00	0	58	0	743440384	50	4737
2026-01-08 10:24:36.68	290.64	61.75	-39.2	-41.2	17.1	0.00e+00	0	58	0	750780416	49	4703
2026-01-08 10:24:40.71	293.78	60.78	-39.2	-41.2	17.1	0.00e+00	0	58	0	758120448	49	4686
2026-01-08 10:24:44.73	296.68	59.76	-40.2	-42.7	15.4	0.00e+00	0	58	0	765460480	52	4692
2026-01-08 10:24:48.77	299.37	58.69	-40.9	-43.8	14.4	0.00e+00	0	58	0	773849088	52	5291
2026-01-08 10:24:52.80	301.85	57.58	-40.5	-43.1	15.1	0.00e+00	0	58	0	781189120	52	4914
2026-01-08 10:24:56.83	304.12	56.46	-39.0	-41.0	17.2	0.00e+00	0	58	0	788529152	49	4587
2026-01-08 10:25:00.87	306.23	55.31	-37.7	-40.3	17.8	0.00e+00	0	59	0	795869184	47	4756
2026-01-08 10:25:04.90	308.16	54.16	-38.6	-40.8	17.4	0.00e+00	0	58	0	803209216	47	5001
2026-01-08 10:25:08.93	309.95	53.00	-39.3	-41.4	16.9	0.00e+00	0	58	0	811597824	49	4767
2026-01-08 10:25:12.97	311.61	51.85	-40.6	-43.1	15.2	0.00e+00	0	58	0	818937856	51	5217
2026-01-08 10:25:17.00	313.14	50.70	-41.3	-44.4	13.7	3.00e-06	0	58	0	826277888	53	5399
2026-01-08 10:25:21.03	314.55	49.56	-42.4	-46.4	11.7	2.14e-04	0	58	0	833617920	55	6025
2026-01-08 10:25:25.07	315.88	48.43	-43.0	-47.7	10.6	1.47e-03	0	59	0	840957952	56	6591
2026-01-08 10:25:29.10	317.10	47.31	-43.2	-48.0	10.2	5.17e-03	0	58	0	849346560	57	6449
2026-01-08 10:25:33.13	318.25	46.21	-42.1	-45.8	12.5	2.02e-04	0	58	0	856686592	56	5288
2026-01-08 10:25:37.17	319.32	45.13	-41.5	-44.8	13.4	3.43e-05	0	58	0	864026624	55	4985
2026-01-08 10:25:41.21	320.32	44.07	-40.5	-43.2	15.0	0.00e+00	0	58	0	871366656	53	4666
2026-01-08 10:25:45.23	321.25	43.03	-40.2	-42.6	15.7	0.00e+00	0	58	0	878706688	51	4871
2026-01-08 10:25:49.27	322.14	42.00	-40.7	-43.4	14.7	1.50e-06	0	58	0	887095296	53	4813
2026-01-08 10:25:53.31	322.96	41.00	-40.1	-42.4	15.8	0.00e+00	0	58	0	894435328	51	4788
2026-01-08 10:25:57.33	323.74	40.03	-41.7	-45.2	12.9	5.18e-05	0	58	0	901775360	54	5577
2026-01-08 10:26:01.36	324.48	39.07	-39.9	-42.2	16.1	0.00e+00	0	58	0	909115392	51	4672
2026-01-08 10:26:05.39	325.17	38.13	-40.9	-43.8	14.4	7.00e-07	0	58	0	916455424	52	5281
2026-01-08 10:26:09.43	325.83	37.22	-40.7	-43.4	14.7	1.50e-06	0	59	0	924844032	53	4808
2026-01-08 10:26:13.46	326.45	36.32	-40.1	-42.5	15.7	0.00e+00	0	58	0	932184064	51	4853
2026-01-08 10:26:17.50	327.04	35.45	-41.3	-44.6	13.6	3.00e-06	0	58	0	939524096	53	5475
2026-01-08 10:26:21.53	327.60	34.60	-41.1	-44.1	14.0	8.30e-06	0	58	0	946864128	53	5192
2026-01-08 10:26:25.56	328.13	33.76	-40.5	-43.2	14.9	0.00e+00	0	58	0	955252736	53	4672
2026-01-08 10:26:29.59	328.64	32.95	-41.2	-44.4	13.7	5.30e-06	0	58	0	962592768	53	5369
2026-01-08 10:26:33.62	329.12	32.16	-41.6	-45.1	13.0	2.97e-05	0	58	0	969932800	53	5809
2026-01-08 10:26:37.66	329.59	31.38	-42.1	-46.0	12.0	3.07e-04	0	58	0	977272832	54	6067
2026-01-08 10:26:41.68	330.03	30.63	-42.2	-46.2	11.8	5.87e-04	0	59	0	984612864	55	5880
2026-01-08 10:26:45.71	330.45	29.89	-41.7	-45.2	12.8	6.63e-05	0	58	0	993001472	55	5272
2026-01-08 10:26:49.74	330.85	29.17	-41.5	-44.9	13.1	3.73e-05	0	58	0	1000341504	55	5071
2026-01-08 10:26:53.77	331.24	28.46	-41.6	-45.1	12.9	3.73e-05	0	59	0	1007681536	55	5165
2026-01-08 10:26:57.80	331.61	27.78	-41.6	-45.1	12.9	5.64e-05	0	58	0	1015021568	55	5195
2026-01-08 10:27:01.83	331.97	27.10	-41.4	-44.7	13.3	2.36e-05	0	59	0	1022361600	54	5222
2026-01-08 10:27:05.87	332.31	26.45	-41.0	-44.0	14.0	6.10e-06	0	58	0	1030750208	54	4852
2026-01-08 10:27:09.90	332.64	25.80	-40.7	-43.5	14.4	0.00e+00	0	58	0	1038090240	53	4846
2026-01-08 10:27:13.94	332.96	25.17	-40.9	-44.0	14.0	4.50e-06	0	58	0	1045430272	53	5111
2026-01-08 10:27:17.97	333.26	24.56	-41.1	-44.4	13.5	1.22e-05	0	58	0	1052770304	53	5357
2026-01-08 10:27:22.00	333.56	23.96	-40.9	-43.9	14.0	4.50e-06	0	58	0	1060110336	53	5062
2026-01-08 10:27:26.03	333.84	23.37	-40.5	-43.2	14.7	0.00e+00	0	58	0	1068498944	52	4958
2026-01-08 10:27:30.07	334.12	22.79	-40.2	-42.8	15.1	0.00e+00	0	58	0	1075838976	52	4750
2026-01-08 10:27:34.10	334.38	22.23	-39.9	-42.3	15.6	0.00e+00	0	58	0	1083179008	51	4759
2026-01-08 10:27:38.13	334.64	21.68	-40.2	-42.8	15.1	0.00e+00	0	59	0	1090519040	51	5009
2026-01-08 10:27:42.15	334.89	21.14	-40.4	-43.2	14.7	0.00e+00	0	59	0	1097859072	51	5253
2026-01-08 10:27:46.18	335.13	20.61	-40.5	-43.4	14.4	0.00e+00	0	58	0	1106247680	51	5345
2026-01-08 10:27:50.21	335.36	20.09	-40.3	-43.0	14.7	0.00e+00	0	58	0	1113587712	51	5157
2026-01-08 10:27:54.24	335.59	19.58	-40.1	-42.8	14.9	0.00e+00	0	58	0	1120927744	51	5023
2026-01-08 10:27:58.28	335.81	19.08	-40.2	-43.0	14.6	0.00e+00	0	58	0	1128267776	51	5129
2026-01-08 10:28:02.31	336.02	18.59	-39.9	-42.5	15.0	0.00e+00	0	59	0	1136656384	51	4868
2026-01-08 10:28:06.34	336.23	18.12	-40.1	-42.9	14.6	7.00e-07	0	58	0	1143996416	51	5061
2026-01-08 10:28:10.39	336.43	17.64	-40.2	-43.1	14.3	7.00e-07	0	58	0	1151336448	51	5175
2026-01-08 10:28:14.43	336.62	17.18	-40.3	-43.3	14.0	2.20e-06	0	58	0	1158676480	51	5332
2026-01-08 10:28:18.47	336.81	16.72	-40.5	-43.7	13.5	1.14e-05	0	59	0	1166016512	51	5590
2026-01-08 10:28:22.50	337.00	16.28	-40.4	-43.7	13.5	1.90e-05	0	59	0	1174405120	51	5547
2026-01-08 10:28:26.53	337.18	15.84	-40.3	-43.5	13.5	9.90e-06	0	58	0	1181745152	51	5446
2026-01-08 10:28:30.57	337.35	15.41	-40.4	-43.8	13.1	2.67e-05	0	58	0	1189085184	51	5649
2026-01-08 10:28:34.60	337.52	14.99	-40.6	-44.4	12.4	1.36e-04	0	59	0	1196425216	51	6033
2026-01-08 10:28:38.64	337.69	14.57	-40.5	-44.2	12.6	1.10e-04	0	59	0	1204813824	51	5878
2026-01-08 10:28:42.68	337.85	14.16	-40.4	-44.2	12.4	1.11e-04	0	58	0	1212153856	51	5882
2026-01-08 10:28:46.72	338.01	13.75	-40.2	-43.9	12.7	6.48e-05	0	59	0	1219493888	51	5697
2026-01-08 10:28:50.75	338.17	13.36	-40.1	-43.8	12.8	7.70e-05	0	59	0	1226833920	51	5611
2026-01-08 10:28:54.79	338.32	12.97	-40.1	-43.9	12.5	1.21e-04	0	59	0	1234173952	51	5690
2026-01-08 10:28:58.82	338.47	12.58	-40.2	-44.1	12.1	2.68e-04	0	58	0	1242562560	51	5832
2026-01-08 10:29:02.85	338.61	12.21	-40.5	-44.9	11.3	1.10e-03	0	58	0	1249902592	51	6372
2026-01-08 10:29:06.88	338.75	11.83	-40.7	-45.7	10.3	4.67e-03	0	59	0	1257242624	51	6984
2026-01-08 10:29:10.92	338.89	11.47	-40.6	-46.4	9.1	2.15e-02	0	58	0	1264582656	52	7126
2026-01-08 10:29:14.95	339.02	11.10	-40.7	-47.3	7.9	6.96e-02	0	59	0	1272971264	52	7940
2026-01-08 10:29:18.99	339.16	10.75	-40.8	-48.4	6.7	1.85e-01	0	59	0	1280311296	52	8978
2026-01-08 10:29:23.03	339.29	10.40	-40.8	-49.6	5.5	4.55e-01	0	59	0	1287651328	52	10329
2026-01-08 10:29:27.07	339.41	10.05	-40.8	-50.8	4.8	7.76e-01	0	59	0	1294991360	52	11845
2026-01-08 10:29:31.10	339.54	9.71	-40.7	-51.7	4.3	1.32e+00	3	59	0	1302331392	52	13200
2026-01-08 10:29:35.14	339.66	9.37	-40.6	-52.4	4.1	1.42e+00	0	59	0	1302331392	52	14373
2026-01-08 10:29:39.18	339.78	9.03	-40.7	-53.2	3.8	1.48e+00	0	59	104	1302331392	52	15686
2026-01-08 10:29:43.22	339.90	8.71	-40.6	-53.6	3.9	1.49e+00	0	59	104	1302331392	52	16317
2026-01-08 10:29:47.25	340.01	8.38	-40.6	-54.2	3.8	1.49e+00	0	59	104	1302331392	52	17515
2026-01-08 10:29:51.29	340.12	8.06	-40.7	-54.6	3.8	1.49e+00	0	59	104	1302331392	52	18390
2026-01-08 10:29:55.33	340.23	7.74	-44.7	-59.3	3.8	1.49e+00	0	59	104	1302331392	60	19866
2026-01-08 10:29:59.35	340.34	7.43	-45.2	-59.7	3.8	1.49e+00	0	59	104	1302331392	60	20956
2026-01-08 10:30:03.39	340.45	7.12	-45.2	-59.8	3.8	1.49e+00	0	59	104	1302331392	61	19917
2026-01-08 10:30:07.42	340.56	6.82	-45.1	-59.7	3.8	1.49e+00	0	59	104	1302331392	61	19670
2026-01-08 10:30:11.46	340.66	6.52	-45.1	-59.6	3.8	1.49e+00	0	59	104	1302331392	61	19523
2026-01-08 10:30:15.50	340.76	6.22	-45.0	-59.6	3.8	1.49e+00	0	59	104	1302331392	61	19515
2026-01-08 10:30:19.54	340.86	5.92	-45.0	-59.6	3.8	1.49e+00	0	59	104	1302331392	61	19483
2026-01-08 10:30:23.59	340.96	5.63	-45.0	-59.6	3.8	1.49e+00	0	59	104	1302331392	61	19518
2026-01-08 10:30:27.63	341.06	5.34	-44.8	-59.6	3.8	1.49e+00	0	59	104	1302331392	61	19484
2026-01-08 10:30:31.67	341.15	5.05	-45.0	-59.6	3.8	1.49e+00	0	59	104	1302331392	61	19510
2026-01-08 10:30:35.70	341.24	4.77	-45.0	-59.6	3.8	1.49e+00	0	59	104	1302331392	61	19430
2026-01-08 10:30:39.74	341.34	4.49	-45.0	-59.6	3.8	1.49e+00	0	59	104	1302331392	61	19393
2026-01-08 10:30:43.78	341.43	4.21	-45.0	-59.5	3.8	1.49e+00	0	59	104	1302331392	61	19377
2026-01-08 10:30:47.82	341.52	3.94	-45.0	-59.5	3.8	1.49e+00	0	59	104	1302331392	60	20515
2026-01-08 10:30:51.85	341.60	3.67	-45.0	-59.5	3.8	1.49e+00	0	59	104	1302331392	60	20519
2026-01-08 10:30:55.90	341.69	3.40	-45.0	-59.6	3.8	1.49e+00	0	59	104	1302331392	60	20578
2026-01-08 10:30:59.92	341.78	3.14	-45.0	-59.5	3.8	1.49e+00	0	59	104	1302331392	60	20486
2026-01-08 10:31:03.96	341.86	2.87	-45.0	-59.6	3.8	1.49e+00	0	59	104	1302331392	60	20574
2026-01-08 10:31:08.00	341.95	2.61	-45.0	-59.6	3.8	1.49e+00	0	59	104	1302331392	60	20547
2026-01-08 10:31:12.04	342.03	2.35	-45.0	-59.5	3.8	1.49e+00	0	59	104	1302331392	60	20532
2026-01-08 10:31:16.07	342.11	2.09	-45.0	-59.6	3.8	1.49e+00	0	59	104	1302331392	60	20573

#Closed at: 2026-01-08 10:31:18
#Recorded file [1302 MB]: D:/lorett/data/31039_260108_131654.dat