passes_logs/2026/01/08/R2.0S_Moscow/R2.0S_Moscow__20260108_083733_NOAA_20_JPSS-1_rec.log

#Pass ID: 20260108_083733_NOAA 20 (JPSS-1)
#Satellite: NOAA 20 (JPSS-1)
#Configuration: NOAA 20
#almurnet v.1.7.20251203
#Start time: 2026-01-08 08:37:34

#Version: 2.2.20231116
#Station: R2.0S_Moscow
#Location: 37.707566 lon 55.798166 lat
#TLE: 1 43013U 17073A   26006.30790171  .00000126  00000+0  80695-4 0  9991
#TLE: 2 43013  98.7629 307.3394 0001808  51.8724 308.2615 14.19533762421505

#Time	Az	El	Level	Level2	SNR	BER	BlckErr	Temp	State	Recorded	gain1	gain2
2026-01-08 08:37:34.89	122.72	2.09	-24.0	-41.4	4.2	1.50e+00	0	47	0	0	17	30278
2026-01-08 08:37:38.92	122.51	2.33	-24.0	-41.6	3.8	1.50e+00	0	48	104	0	18	29197
2026-01-08 08:37:42.96	122.29	2.58	-24.3	-42.0	4.1	1.50e+00	0	48	104	0	19	28835
2026-01-08 08:37:47.00	122.07	2.82	-16.1	-33.9	4.1	1.51e+00	0	48	104	0	10	19027
2026-01-08 08:37:51.03	121.84	3.07	-21.1	-39.1	3.8	1.50e+00	0	49	104	0	14	27681
2026-01-08 08:37:55.06	121.61	3.31	-21.6	-38.3	4.0	1.50e+00	0	49	104	0	13	26604
2026-01-08 08:37:59.10	121.37	3.56	-20.7	-37.5	4.0	1.50e+00	0	49	104	0	11	27104
2026-01-08 08:38:03.14	121.13	3.82	-18.4	-36.8	4.0	1.50e+00	0	50	104	0	12	23852
2026-01-08 08:38:07.18	120.89	4.07	-22.0	-35.3	3.8	1.50e+00	0	50	104	0	5	29983
2026-01-08 08:38:11.21	120.64	4.33	-21.4	-39.5	4.0	1.50e+00	0	50	104	0	15	27108
2026-01-08 08:38:15.25	120.39	4.58	-21.4	-39.6	3.9	1.50e+00	0	50	104	0	13	30964
2026-01-08 08:38:19.29	120.13	4.84	-23.5	-40.5	4.0	1.51e+00	0	50	104	0	15	30685
2026-01-08 08:38:23.32	119.87	5.11	-17.0	-36.6	4.0	1.50e+00	0	51	104	0	7	31041
2026-01-08 08:38:27.36	119.60	5.37	-22.2	-38.2	4.3	1.50e+00	0	51	104	0	12	27885
2026-01-08 08:38:31.40	119.33	5.64	-21.5	-40.3	4.1	1.50e+00	0	51	104	0	14	31678
2026-01-08 08:38:35.44	119.06	5.90	-21.3	-38.6	4.0	1.50e+00	0	51	104	0	13	27461
2026-01-08 08:38:39.48	118.77	6.17	-21.0	-38.9	3.9	1.50e+00	0	51	104	0	13	28619
2026-01-08 08:38:43.52	118.48	6.45	-17.9	-34.1	4.0	1.50e+00	0	51	104	0	10	19517
2026-01-08 08:38:47.56	118.19	6.72	-19.9	-37.0	3.7	1.50e+00	0	52	104	0	11	25569
2026-01-08 08:38:51.60	117.89	7.00	-22.4	-40.2	3.8	1.51e+00	0	52	104	0	15	29450
2026-01-08 08:38:55.63	117.59	7.28	-23.2	-40.5	4.0	1.50e+00	0	52	104	0	15	30433
2026-01-08 08:38:59.67	117.28	7.56	-21.0	-38.2	4.1	1.50e+00	0	52	104	0	13	26266
2026-01-08 08:39:03.71	116.96	7.84	-21.6	-36.5	3.8	1.50e+00	0	52	104	0	8	28805
2026-01-08 08:39:07.73	116.63	8.13	-21.7	-39.4	3.8	1.50e+00	0	52	104	0	13	30071
2026-01-08 08:39:11.77	116.30	8.41	-19.8	-36.4	4.0	1.50e+00	0	52	104	0	10	25530
2026-01-08 08:39:15.80	115.97	8.70	-15.8	-33.3	3.9	1.50e+00	0	53	104	0	8	19909
2026-01-08 08:39:19.84	115.62	9.00	-20.0	-36.1	4.0	1.50e+00	0	53	104	0	11	23197
2026-01-08 08:39:23.88	115.27	9.29	-20.4	-37.6	3.7	1.50e+00	0	53	104	0	12	26099
2026-01-08 08:39:27.92	114.91	9.59	-16.4	-35.0	3.9	1.50e+00	0	53	104	0	8	24286
2026-01-08 08:39:31.96	114.54	9.89	-17.1	-37.6	4.0	1.50e+00	0	53	104	0	14	23291
2026-01-08 08:39:35.99	114.17	10.19	-24.3	-38.2	3.9	1.50e+00	0	53	104	0	14	24795
2026-01-08 08:39:40.03	113.79	10.50	-20.0	-35.9	4.0	1.50e+00	0	54	104	0	11	22711
2026-01-08 08:39:44.07	113.40	10.81	-28.6	-44.9	3.8	1.50e+00	0	54	104	0	22	34067
2026-01-08 08:39:48.10	113.00	11.12	-22.9	-36.4	3.8	1.51e+00	0	54	0	0	17	16894
2026-01-08 08:39:52.14	112.59	11.43	-36.6	-47.6	6.2	1.18e-01	58	54	0	1048576	43	13800
2026-01-08 08:39:56.17	112.17	11.75	-38.6	-44.9	9.9	2.67e-02	0	54	0	8388608	46	8512
2026-01-08 08:40:00.21	111.75	12.06	-39.7	-44.7	11.8	2.30e-02	0	54	0	16777216	50	6642
2026-01-08 08:40:04.25	111.31	12.38	-40.1	-44.6	12.4	5.72e-03	0	54	0	24117248	50	6497
2026-01-08 08:40:08.28	110.86	12.71	-39.5	-43.8	12.8	9.54e-04	0	54	0	31457280	51	5628
2026-01-08 08:40:12.32	110.41	13.03	-40.8	-44.2	13.1	2.51e-05	0	54	0	38797312	52	5572
2026-01-08 08:40:16.36	109.94	13.36	-40.7	-44.1	13.2	3.81e-05	0	54	0	47185920	52	5493
2026-01-08 08:40:20.40	109.46	13.69	-40.7	-44.0	13.4	1.29e-05	0	54	0	54525952	52	5416
2026-01-08 08:40:24.44	108.97	14.03	-40.8	-44.2	13.2	2.13e-05	0	54	0	61865984	52	5554
2026-01-08 08:40:28.47	108.48	14.36	-40.9	-44.3	13.2	3.58e-05	0	54	0	69206016	52	5605
2026-01-08 08:40:32.51	107.96	14.70	-40.3	-43.7	13.7	9.90e-06	0	54	0	76546048	51	5581
2026-01-08 08:40:36.55	107.44	15.04	-40.6	-43.6	13.9	2.20e-06	0	54	0	84934656	51	5504
2026-01-08 08:40:40.59	106.91	15.39	-40.4	-43.4	14.1	1.83e-05	0	55	0	92274688	51	5379
2026-01-08 08:40:44.62	106.36	15.73	-40.5	-43.5	14.1	4.57e-05	0	55	0	99614720	51	5439
2026-01-08 08:40:48.66	105.80	16.08	-40.1	-43.2	14.4	1.50e-06	0	55	0	106954752	51	5258
2026-01-08 08:40:52.70	105.22	16.43	-40.2	-43.1	14.6	7.00e-07	0	55	0	115343360	51	5172
2026-01-08 08:40:56.73	104.63	16.78	-40.4	-43.2	14.4	0.00e+00	0	55	0	122683392	51	5271
2026-01-08 08:41:00.77	104.03	17.13	-40.3	-43.1	14.6	0.00e+00	0	55	0	130023424	51	5173
2026-01-08 08:41:04.80	103.42	17.49	-40.3	-43.1	14.6	7.00e-07	0	55	0	137363456	51	5213
2026-01-08 08:41:08.85	102.78	17.85	-40.4	-43.3	14.5	7.00e-07	0	55	0	144703488	51	5298
2026-01-08 08:41:12.89	102.13	18.21	-40.4	-43.3	14.4	0.00e+00	0	55	0	153092096	51	5292
2026-01-08 08:41:16.92	101.47	18.57	-40.4	-43.2	14.5	3.00e-06	0	55	0	160432128	51	5267
2026-01-08 08:41:20.96	100.79	18.93	-40.5	-43.6	14.1	0.00e+00	0	55	0	167772160	51	5475
2026-01-08 08:41:25.00	100.10	19.29	-40.6	-43.6	14.1	3.00e-06	0	55	0	175112192	52	5189
2026-01-08 08:41:29.03	99.39	19.65	-40.5	-43.4	14.3	7.00e-07	0	55	0	183500800	52	5091
2026-01-08 08:41:33.07	98.66	20.02	-40.5	-43.3	14.4	7.00e-07	0	55	0	190840832	52	5032
2026-01-08 08:41:37.11	97.91	20.38	-40.3	-43.1	14.6	0.00e+00	0	55	0	198180864	52	4922
2026-01-08 08:41:41.15	97.14	20.74	-40.2	-43.0	14.8	0.00e+00	0	55	0	205520896	52	4827
2026-01-08 08:41:45.18	96.36	21.11	-40.2	-43.0	14.7	1.50e-06	0	55	0	212860928	52	4837
2026-01-08 08:41:49.22	95.56	21.47	-40.1	-42.8	14.9	0.00e+00	0	55	0	221249536	52	4732
2026-01-08 08:41:53.26	94.74	21.83	-40.1	-42.7	15.1	0.00e+00	0	56	0	228589568	51	4947
2026-01-08 08:41:57.30	93.89	22.19	-39.9	-42.4	15.4	0.00e+00	0	55	0	235929600	51	4807
2026-01-08 08:42:01.33	93.03	22.55	-39.5	-41.9	15.9	0.00e+00	0	55	0	243269632	51	4526
2026-01-08 08:42:05.37	92.15	22.91	-39.5	-41.8	16.0	0.00e+00	0	56	0	251658240	50	4731
2026-01-08 08:42:09.41	91.25	23.26	-39.5	-41.9	15.9	0.00e+00	0	56	0	258998272	50	4787
2026-01-08 08:42:13.44	90.33	23.62	-39.4	-41.8	16.0	0.00e+00	0	56	0	266338304	50	4715
2026-01-08 08:42:17.48	89.39	23.96	-39.5	-41.8	16.0	0.00e+00	0	56	0	273678336	50	4747
2026-01-08 08:42:21.51	88.42	24.31	-39.6	-41.9	15.9	0.00e+00	0	56	0	281018368	50	4807
2026-01-08 08:42:25.55	87.44	24.65	-39.7	-42.1	15.7	0.00e+00	0	56	0	289406976	50	4911
2026-01-08 08:42:29.59	86.43	24.98	-39.9	-42.4	15.5	0.00e+00	0	56	0	296747008	50	5054
2026-01-08 08:42:33.63	85.40	25.31	-39.9	-42.4	15.5	0.00e+00	0	56	0	304087040	50	5075
2026-01-08 08:42:37.66	84.35	25.63	-39.9	-42.4	15.4	0.00e+00	0	56	0	311427072	50	5096
2026-01-08 08:42:41.70	83.28	25.95	-40.2	-42.9	15.0	0.00e+00	0	56	0	318767104	51	5072
2026-01-08 08:42:45.74	82.19	26.25	-40.0	-42.6	15.3	0.00e+00	0	56	0	327155712	51	4887
2026-01-08 08:42:49.77	81.07	26.55	-39.9	-42.3	15.6	0.00e+00	0	56	0	334495744	51	4743
2026-01-08 08:42:53.81	79.94	26.84	-39.9	-42.3	15.6	0.00e+00	0	56	0	341835776	51	4734
2026-01-08 08:42:57.85	78.78	27.12	-40.1	-42.7	15.3	0.00e+00	0	56	0	349175808	51	4949
2026-01-08 08:43:01.88	77.61	27.39	-40.1	-42.6	15.4	0.00e+00	0	56	0	357564416	51	4895
2026-01-08 08:43:05.92	76.41	27.65	-40.4	-43.1	14.9	0.00e+00	0	56	0	364904448	51	5187
2026-01-08 08:43:09.96	75.20	27.90	-40.4	-43.1	14.9	0.00e+00	0	56	0	372244480	51	5172
2026-01-08 08:43:13.99	73.97	28.14	-40.5	-43.3	14.8	0.00e+00	0	56	0	379584512	51	5303
2026-01-08 08:43:18.03	72.72	28.36	-40.7	-43.6	14.4	0.00e+00	0	56	0	386924544	52	5177
2026-01-08 08:43:22.07	71.45	28.57	-40.7	-43.6	14.3	0.00e+00	0	56	0	395313152	52	5195
2026-01-08 08:43:26.11	70.17	28.76	-40.7	-43.6	14.4	7.00e-07	0	56	0	402653184	52	5190
2026-01-08 08:43:30.15	68.87	28.94	-40.9	-43.8	14.1	1.50e-06	0	56	0	409993216	52	5339
2026-01-08 08:43:34.18	67.56	29.11	-40.8	-43.7	14.3	7.00e-07	0	56	0	417333248	52	5239
2026-01-08 08:43:38.22	66.23	29.25	-41.2	-44.3	13.7	6.80e-06	0	56	0	425721856	52	5637
2026-01-08 08:43:42.26	64.89	29.38	-41.2	-44.3	13.7	6.10e-06	0	56	0	433061888	53	5303
2026-01-08 08:43:46.30	63.55	29.50	-41.4	-44.7	13.2	2.59e-05	0	56	0	440401920	53	5590
2026-01-08 08:43:50.33	62.19	29.59	-41.4	-44.8	13.2	3.12e-05	0	56	0	447741952	53	5631
2026-01-08 08:43:54.36	60.83	29.67	-41.4	-44.8	13.2	1.98e-05	0	56	0	455081984	53	5606
2026-01-08 08:43:58.37	59.47	29.73	-41.5	-44.9	13.1	2.82e-05	0	56	0	463470592	53	5658
2026-01-08 08:44:02.41	58.10	29.78	-41.6	-45.0	13.0	3.43e-05	0	56	0	470810624	53	5751
2026-01-08 08:44:06.43	56.73	29.80	-41.5	-44.9	13.1	2.67e-05	0	56	0	478150656	54	5367
2026-01-08 08:44:10.45	55.36	29.81	-41.3	-44.6	13.5	9.10e-06	0	56	0	485490688	54	5178
2026-01-08 08:44:14.47	53.99	29.79	-41.1	-44.1	14.0	3.80e-06	0	56	0	492830720	53	5174
2026-01-08 08:44:18.50	52.62	29.76	-40.8	-43.7	14.4	3.00e-06	0	56	0	501219328	53	4943
2026-01-08 08:44:22.53	51.25	29.71	-40.9	-43.8	14.3	7.00e-07	0	56	0	508559360	53	5004
2026-01-08 08:44:26.56	49.89	29.65	-41.1	-44.1	13.9	2.20e-06	0	56	0	515899392	53	5198
2026-01-08 08:44:30.58	48.54	29.56	-40.8	-43.6	14.5	0.00e+00	0	56	0	523239424	53	4911
2026-01-08 08:44:34.62	47.18	29.46	-40.6	-43.3	14.7	2.20e-06	0	56	0	530579456	53	4750
2026-01-08 08:44:38.65	45.84	29.34	-40.9	-43.7	14.4	3.00e-06	0	56	0	538968064	53	4976
2026-01-08 08:44:42.68	44.52	29.20	-40.6	-43.3	14.8	0.00e+00	0	56	0	546308096	52	5003
2026-01-08 08:44:46.71	43.20	29.05	-40.9	-43.8	14.3	0.00e+00	0	56	0	553648128	52	5286
2026-01-08 08:44:50.73	41.90	28.88	-41.2	-44.4	13.7	5.30e-06	0	56	0	560988160	53	5351
2026-01-08 08:44:54.75	40.62	28.70	-41.4	-44.6	13.5	8.30e-06	0	56	0	568328192	53	5493
2026-01-08 08:44:58.75	39.35	28.50	-41.4	-44.7	13.4	3.80e-06	0	56	0	576716800	53	5568
2026-01-08 08:45:02.74	38.11	28.29	-41.3	-44.6	13.6	1.22e-05	0	56	0	584056832	53	5468
2026-01-08 08:45:06.73	36.88	28.07	-41.8	-45.3	12.9	3.50e-05	0	56	0	591396864	54	5613
2026-01-08 08:45:10.73	35.67	27.83	-41.5	-44.9	13.3	2.21e-05	0	56	0	598736896	54	5344
2026-01-08 08:45:14.72	34.48	27.58	-41.3	-44.4	13.8	9.10e-06	0	56	0	606076928	54	5057
2026-01-08 08:45:18.72	33.30	27.32	-41.2	-44.3	13.8	5.30e-06	0	56	0	613416960	54	4990
2026-01-08 08:45:22.72	32.15	27.05	-41.2	-44.3	13.8	6.10e-06	0	56	0	620756992	54	4998
2026-01-08 08:45:26.70	31.02	26.78	-40.7	-43.5	14.6	1.50e-06	0	56	0	629145600	53	4818
2026-01-08 08:45:30.68	29.91	26.49	-40.9	-43.9	14.2	1.50e-06	0	56	0	636485632	53	5051
2026-01-08 08:45:34.71	28.81	26.19	-40.8	-43.7	14.4	0.00e+00	0	56	0	643825664	53	4940
2026-01-08 08:45:38.71	27.73	25.88	-40.4	-43.1	15.0	7.00e-07	0	56	0	651165696	52	4900
2026-01-08 08:45:42.70	26.68	25.57	-40.4	-43.0	15.1	7.00e-07	0	56	0	658505728	52	4844
2026-01-08 08:45:46.68	25.66	25.25	-40.2	-42.7	15.4	0.00e+00	0	56	0	665845760	52	4691
2026-01-08 08:45:50.66	24.65	24.93	-40.0	-42.5	15.6	0.00e+00	0	56	0	673185792	52	4580
2026-01-08 08:45:54.63	23.67	24.60	-39.9	-42.3	15.8	0.00e+00	0	57	0	680525824	51	4744
2026-01-08 08:45:58.61	22.71	24.27	-39.6	-41.8	16.3	0.00e+00	0	56	0	688914432	51	4484
2026-01-08 08:46:02.61	21.76	23.93	-39.3	-41.5	16.7	0.00e+00	0	56	0	696254464	50	4558
2026-01-08 08:46:06.61	20.83	23.58	-39.3	-41.5	16.6	0.00e+00	0	57	0	703594496	50	4583
2026-01-08 08:46:10.60	19.93	23.24	-39.1	-41.1	17.0	0.00e+00	0	56	0	710934528	50	4387
2026-01-08 08:46:14.62	19.04	22.89	-38.6	-40.6	17.6	0.00e+00	0	56	0	718274560	49	4347
2026-01-08 08:46:18.64	18.17	22.53	-38.7	-40.7	17.4	0.00e+00	0	57	0	725614592	49	4413
2026-01-08 08:46:22.66	17.32	22.18	-38.6	-40.5	17.6	0.00e+00	0	57	0	734003200	49	4309
2026-01-08 08:46:26.69	16.48	21.82	-38.6	-40.5	17.6	0.00e+00	0	56	0	741343232	48	4559
2026-01-08 08:46:30.72	15.67	21.46	-38.8	-40.8	17.3	0.00e+00	0	56	0	748683264	48	4722
2026-01-08 08:46:34.75	14.88	21.10	-38.9	-40.9	17.2	0.00e+00	0	56	0	756023296	48	4775
2026-01-08 08:46:38.77	14.10	20.74	-39.1	-41.2	16.9	0.00e+00	0	57	0	763363328	48	4927
2026-01-08 08:46:42.75	13.35	20.38	-39.1	-41.2	16.8	0.00e+00	0	57	0	771751936	48	4964
2026-01-08 08:46:46.73	12.62	20.02	-39.2	-41.3	16.7	0.00e+00	0	56	0	779091968	49	4759
2026-01-08 08:46:50.72	11.91	19.67	-39.6	-42.0	16.1	0.00e+00	0	57	0	786432000	49	5115
2026-01-08 08:46:54.70	11.21	19.31	-39.7	-42.0	16.0	0.00e+00	0	56	0	793772032	49	5144
2026-01-08 08:46:58.67	10.53	18.96	-39.8	-42.3	15.8	0.00e+00	0	57	0	801112064	50	4998
2026-01-08 08:47:02.65	9.87	18.60	-39.9	-42.3	15.7	0.00e+00	0	56	0	808452096	50	5041
2026-01-08 08:47:06.64	9.22	18.25	-40.0	-42.5	15.5	0.00e+00	0	56	0	815792128	50	5143
2026-01-08 08:47:10.62	8.58	17.89	-39.9	-42.4	15.5	0.00e+00	0	57	0	823132160	50	5087
2026-01-08 08:47:14.61	7.96	17.54	-40.0	-42.6	15.3	0.00e+00	0	57	0	830472192	50	5180
2026-01-08 08:47:18.60	7.36	17.19	-40.0	-42.6	15.3	0.00e+00	0	57	0	838860800	50	5179
2026-01-08 08:47:22.61	6.76	16.84	-40.2	-43.0	14.8	0.00e+00	0	56	0	846200832	51	5112
2026-01-08 08:47:26.64	6.18	16.49	-40.4	-43.3	14.4	7.00e-07	0	57	0	853540864	51	5292
2026-01-08 08:47:30.68	5.61	16.15	-40.4	-43.3	14.3	0.00e+00	0	56	0	860880896	51	5333
2026-01-08 08:47:34.71	5.05	15.80	-40.5	-43.4	14.1	1.50e-06	0	57	0	868220928	51	5382
2026-01-08 08:47:38.74	4.51	15.46	-40.5	-43.5	13.9	5.30e-06	0	57	0	876609536	51	5440
2026-01-08 08:47:42.77	3.98	15.12	-40.3	-43.4	13.8	9.10e-06	0	57	0	883949568	51	5397
2026-01-08 08:47:46.78	3.46	14.78	-40.3	-43.6	13.4	1.44e-05	0	56	0	891289600	51	5517
2026-01-08 08:47:50.81	2.96	14.44	-40.3	-43.9	12.9	3.96e-05	0	56	0	898629632	51	5672
2026-01-08 08:47:54.84	2.46	14.11	-40.1	-43.5	13.2	2.36e-05	0	57	0	905969664	51	5439
2026-01-08 08:47:58.86	1.98	13.78	-39.8	-43.4	13.0	9.90e-06	0	57	0	914358272	51	5361
2026-01-08 08:48:02.90	1.50	13.45	-40.7	-46.4	9.2	1.48e-02	0	57	0	921698304	52	7165
2026-01-08 08:48:06.93	1.04	13.12	-41.0	-50.4	5.2	5.33e-01	0	56	0	929038336	52	11347
2026-01-08 08:48:10.96	0.59	12.80	-40.8	-52.8	4.0	1.47e+00	0	57	104	932184064	52	14948
2026-01-08 08:48:15.00	0.15	12.47	-40.3	-54.2	3.8	1.49e+00	0	57	104	932184064	52	17536
2026-01-08 08:48:19.03	359.72	12.15	-39.6	-54.6	3.8	1.49e+00	0	57	104	932184064	51	19492
2026-01-08 08:48:23.07	359.29	11.84	-39.7	-54.6	3.8	1.49e+00	0	57	104	932184064	51	19530
2026-01-08 08:48:27.11	358.88	11.52	-39.8	-54.6	3.8	1.49e+00	0	57	104	932184064	51	19596
2026-01-08 08:48:31.14	358.48	11.21	-39.6	-54.5	3.8	1.49e+00	0	57	104	932184064	51	19190
2026-01-08 08:48:35.18	358.08	10.90	-39.6	-54.6	3.8	1.49e+00	0	57	104	932184064	51	19441
2026-01-08 08:48:39.22	357.69	10.59	-39.2	-54.4	3.8	1.49e+00	0	57	104	932184064	50	20256
2026-01-08 08:48:43.26	357.31	10.29	-39.7	-54.5	3.8	1.49e+00	0	57	104	932184064	50	20483
2026-01-08 08:48:47.30	356.94	9.99	-39.1	-54.4	3.8	1.49e+00	0	57	104	932184064	49	21333
2026-01-08 08:48:51.33	356.58	9.69	-38.9	-54.4	3.8	1.49e+00	0	57	104	932184064	49	21352
2026-01-08 08:48:55.37	356.22	9.39	-39.7	-54.4	3.8	1.49e+00	0	57	104	932184064	49	21284
2026-01-08 08:48:59.40	355.88	9.10	-38.8	-54.3	3.8	1.49e+00	0	57	104	932184064	49	21253
2026-01-08 08:49:03.44	355.54	8.81	-39.8	-54.5	3.8	1.49e+00	0	57	104	932184064	50	20516
2026-01-08 08:49:07.48	355.20	8.52	-39.6	-54.4	3.8	1.49e+00	0	57	104	932184064	50	20298
2026-01-08 08:49:11.51	354.88	8.23	-39.9	-54.5	3.8	1.49e+00	0	57	104	932184064	50	20456
2026-01-08 08:49:15.55	354.56	7.94	-41.0	-55.9	3.9	1.49e+00	0	57	104	932184064	52	21383
2026-01-08 08:49:19.59	354.24	7.66	-45.0	-59.6	3.8	1.49e+00	0	57	104	932184064	60	20751
2026-01-08 08:49:23.63	353.93	7.38	-45.2	-59.8	3.8	1.49e+00	0	57	104	932184064	60	21134
2026-01-08 08:49:27.67	353.63	7.10	-45.1	-59.7	3.8	1.49e+00	0	57	104	932184064	60	21009
2026-01-08 08:49:31.70	353.34	6.83	-45.0	-59.6	3.8	1.49e+00	0	57	104	932184064	60	20697
2026-01-08 08:49:35.74	353.05	6.55	-45.0	-59.6	3.8	1.49e+00	0	57	104	932184064	60	20718
2026-01-08 08:49:39.78	352.76	6.28	-45.0	-59.6	3.8	1.49e+00	0	57	104	932184064	60	20598
2026-01-08 08:49:43.82	352.49	6.01	-45.0	-59.6	3.8	1.49e+00	0	57	104	932184064	60	20582
2026-01-08 08:49:47.86	352.21	5.74	-45.0	-59.6	3.8	1.49e+00	0	57	104	932184064	60	20627
2026-01-08 08:49:51.90	351.95	5.48	-45.0	-59.6	3.8	1.49e+00	0	57	104	932184064	60	20590
2026-01-08 08:49:55.92	351.68	5.22	-45.0	-59.6	3.8	1.49e+00	0	57	104	932184064	60	20564
2026-01-08 08:49:59.96	351.43	4.96	-45.0	-59.5	3.8	1.49e+00	0	57	104	932184064	60	20537
2026-01-08 08:50:03.99	351.17	4.70	-45.0	-59.6	3.8	1.49e+00	0	57	104	932184064	60	20600
2026-01-08 08:50:08.03	350.93	4.44	-45.0	-59.6	3.8	1.49e+00	0	57	104	932184064	60	20546
2026-01-08 08:50:12.06	350.68	4.19	-45.0	-59.5	3.8	1.49e+00	0	57	104	932184064	60	20527
2026-01-08 08:50:16.09	350.44	3.93	-45.0	-59.6	3.8	1.49e+00	0	57	104	932184064	60	20539
2026-01-08 08:50:20.14	350.21	3.68	-45.0	-59.5	3.8	1.49e+00	0	57	104	932184064	60	20491
2026-01-08 08:50:24.18	349.98	3.43	-44.9	-59.5	3.8	1.49e+00	0	57	104	932184064	60	20448
2026-01-08 08:50:28.22	349.75	3.18	-44.9	-59.5	3.8	1.49e+00	0	57	104	932184064	60	20420
2026-01-08 08:50:32.26	349.53	2.94	-45.0	-59.5	3.8	1.49e+00	0	57	104	932184064	60	20466
2026-01-08 08:50:36.30	349.31	2.69	-45.0	-59.5	3.8	1.49e+00	0	57	104	932184064	60	20473
2026-01-08 08:50:40.34	349.10	2.45	-45.0	-59.5	3.8	1.49e+00	0	57	104	932184064	60	20448
2026-01-08 08:50:44.38	348.89	2.21	-44.9	-59.5	3.8	1.49e+00	0	57	104	932184064	60	20502
2026-01-08 08:50:48.42	348.68	1.97	-44.9	-59.5	3.8	1.49e+00	0	57	104	932184064	60	20430

#Closed at: 2026-01-08 08:50:49
#Recorded file [932 MB]: D:/lorett/data/31039_260108_113734.dat