passes_logs/2026/01/08/R2.0S_Moscow/R2.0S_Moscow__20260108_024543_FENGYUN_3G_rec.log

#Pass ID: 20260108_024543_FENGYUN 3G
#Satellite: FENGYUN 3G
#Configuration: FENGYUN 3G
#almurnet v.1.7.20251203
#Start time: 2026-01-08 02:45:42

#Version: 2.2.20231116
#Station: R2.0S_Moscow
#Location: 37.707566 lon 55.798166 lat
#TLE: 1 56232U 23055A   26005.65670112  .00041871  00000+0  66206-3 0  9997
#TLE: 2 56232  49.9942 104.1198 0004242 344.1257  15.9577 15.52986726154745

#Time	Az	El	Level	Level2	SNR	BER	BlckErr	Temp	State	Recorded	gain1	gain2
2026-01-08 02:45:42.89	256.32	1.97	-44.2	-62.5	3.8	8.45e-01	0	47	0	0	60	28796
2026-01-08 02:45:45.90	256.13	2.16	-44.2	-62.5	3.8	8.46e-01	0	47	104	0	60	28859
2026-01-08 02:45:48.93	255.94	2.36	-44.1	-62.5	3.8	8.46e-01	0	48	104	0	60	28795
2026-01-08 02:45:51.96	255.74	2.56	-44.1	-62.5	3.8	8.46e-01	0	48	104	0	60	28806
2026-01-08 02:45:54.98	255.54	2.77	-44.2	-62.5	3.8	8.45e-01	0	48	104	0	60	28699
2026-01-08 02:45:58.01	255.34	2.97	-44.2	-62.4	3.8	8.47e-01	0	48	104	0	60	28496
2026-01-08 02:46:01.04	255.13	3.18	-44.1	-62.4	3.8	8.46e-01	0	49	104	0	60	28569
2026-01-08 02:46:04.06	254.92	3.39	-44.2	-62.5	3.8	8.46e-01	0	49	104	0	60	28685
2026-01-08 02:46:07.08	254.70	3.60	-44.1	-62.5	3.8	8.47e-01	0	49	104	0	60	28710
2026-01-08 02:46:10.11	254.48	3.82	-44.1	-62.4	3.8	8.46e-01	0	49	104	0	60	28571
2026-01-08 02:46:13.15	254.25	4.03	-44.1	-62.4	3.8	8.47e-01	0	49	104	0	60	28472
2026-01-08 02:46:16.17	254.02	4.25	-44.1	-62.5	3.8	8.47e-01	0	49	104	0	60	28813
2026-01-08 02:46:19.20	253.79	4.47	-44.1	-62.3	3.8	8.46e-01	0	50	104	0	60	28321
2026-01-08 02:46:22.23	253.54	4.70	-44.1	-62.2	3.8	8.46e-01	0	50	104	0	60	27945
2026-01-08 02:46:25.25	253.30	4.92	-44.2	-62.4	3.8	8.46e-01	0	50	104	0	60	28354
2026-01-08 02:46:28.28	253.04	5.15	-44.1	-62.1	3.8	8.45e-01	0	50	104	0	60	27687
2026-01-08 02:46:31.31	252.79	5.38	-44.1	-61.0	3.8	8.45e-01	0	50	104	0	60	24144
2026-01-08 02:46:34.34	252.52	5.62	-44.1	-59.3	4.1	8.44e-01	0	50	0	0	60	20020
2026-01-08 02:46:37.36	252.25	5.85	-44.1	-59.1	4.1	8.39e-01	0	50	0	0	60	19415
2026-01-08 02:46:40.39	251.97	6.09	-44.1	-59.7	3.9	8.42e-01	0	51	104	0	60	20915
2026-01-08 02:46:43.42	251.69	6.34	-44.1	-60.0	4.0	8.45e-01	0	51	104	0	60	21593
2026-01-08 02:46:46.45	251.40	6.58	-44.0	-58.5	4.3	8.42e-01	0	51	0	0	60	18247
2026-01-08 02:46:49.48	251.10	6.83	-44.0	-56.4	5.2	8.08e-01	0	51	0	0	59	15137
2026-01-08 02:46:52.50	250.79	7.08	-44.0	-57.2	4.9	7.18e-01	0	51	0	0	59	16625
2026-01-08 02:46:55.53	250.48	7.34	-44.2	-61.0	3.8	8.31e-01	0	51	104	0	59	25779
2026-01-08 02:46:58.56	250.16	7.59	-43.2	-50.8	10.3	7.47e-01	0	52	0	1572864	58	8433
2026-01-08 02:47:01.59	249.83	7.85	-40.8	-44.5	16.7	0.00e+00	0	52	0	4718592	53	5450
2026-01-08 02:47:04.61	249.49	8.12	-43.7	-52.2	11.5	0.00e+00	0	52	0	8388608	57	10516
2026-01-08 02:47:07.64	249.15	8.39	-42.6	-48.2	13.3	7.37e-02	0	52	0	10485760	57	6635
2026-01-08 02:47:10.67	248.79	8.66	-39.0	-41.7	19.7	0.00e+00	0	52	0	13631488	50	4661
2026-01-08 02:47:13.69	248.43	8.93	-38.6	-41.0	20.4	0.00e+00	0	52	0	17301504	49	4566
2026-01-08 02:47:16.72	248.05	9.21	-38.2	-40.4	21.0	0.00e+00	0	52	0	20447232	48	4531
2026-01-08 02:47:19.75	247.67	9.49	-37.9	-40.1	21.4	0.00e+00	0	52	0	24117248	47	4622
2026-01-08 02:47:22.77	247.28	9.78	-37.7	-39.9	21.6	0.00e+00	0	52	0	27262976	47	4503
2026-01-08 02:47:25.80	246.87	10.07	-37.8	-40.0	21.5	0.00e+00	0	52	0	30932992	47	4584
2026-01-08 02:47:28.82	246.45	10.36	-38.0	-40.2	21.3	0.00e+00	0	53	0	34078720	47	4688
2026-01-08 02:47:31.85	246.03	10.66	-37.5	-39.6	22.0	0.00e+00	0	52	0	37748736	47	4348
2026-01-08 02:47:34.88	245.58	10.97	-37.4	-39.5	22.0	0.00e+00	0	53	0	40894464	46	4570
2026-01-08 02:47:37.91	245.13	11.27	-37.5	-39.6	22.0	0.00e+00	0	53	0	44564480	46	4629
2026-01-08 02:47:40.93	244.67	11.59	-37.5	-39.6	22.0	0.00e+00	0	53	0	47710208	46	4611
2026-01-08 02:47:43.96	244.19	11.90	-37.3	-39.2	22.3	0.00e+00	0	53	0	51380224	46	4433
2026-01-08 02:47:46.99	243.69	12.22	-37.0	-39.0	22.6	0.00e+00	0	53	0	54525952	46	4301
2026-01-08 02:47:50.02	243.19	12.55	-36.9	-38.8	22.8	0.00e+00	0	53	0	57671680	45	4474
2026-01-08 02:47:53.05	242.66	12.88	-36.7	-38.6	23.0	0.00e+00	0	53	0	61341696	45	4369
2026-01-08 02:47:56.07	242.13	13.21	-37.1	-39.0	22.6	0.00e+00	0	53	0	64487424	45	4564
2026-01-08 02:47:59.09	241.57	13.55	-37.0	-38.9	22.7	0.00e+00	0	53	0	68157440	45	4529
2026-01-08 02:48:02.11	241.00	13.89	-36.5	-38.3	23.3	0.00e+00	0	53	0	71303168	44	4459
2026-01-08 02:48:05.14	240.41	14.24	-36.5	-38.3	23.3	0.00e+00	0	54	0	74973184	44	4493
2026-01-08 02:48:08.16	239.81	14.59	-36.6	-38.4	23.2	0.00e+00	0	54	0	78118912	44	4545
2026-01-08 02:48:11.19	239.18	14.95	-36.6	-38.4	23.3	0.00e+00	0	54	0	81788928	44	4515
2026-01-08 02:48:14.22	238.53	15.32	-36.2	-38.0	23.7	0.00e+00	0	53	0	84934656	44	4298
2026-01-08 02:48:17.25	237.87	15.69	-36.0	-37.8	23.9	0.00e+00	0	54	0	88604672	44	4199
2026-01-08 02:48:20.27	237.18	16.06	-36.1	-37.8	23.9	0.00e+00	0	54	0	91750400	44	4224
2026-01-08 02:48:23.30	236.47	16.43	-35.7	-37.4	24.1	0.00e+00	0	54	0	95420416	43	4268
2026-01-08 02:48:26.33	235.74	16.82	-35.5	-37.2	24.3	0.00e+00	0	54	0	98566144	43	4170
2026-01-08 02:48:29.35	234.98	17.20	-35.4	-37.0	24.6	0.00e+00	0	54	0	102236160	42	4308
2026-01-08 02:48:32.37	234.20	17.59	-35.5	-37.2	24.4	0.00e+00	0	54	0	105381888	42	4417
2026-01-08 02:48:35.40	233.39	17.99	-35.4	-37.1	24.5	0.00e+00	0	54	0	109051904	42	4348
2026-01-08 02:48:38.42	232.56	18.38	-35.2	-36.9	24.7	0.00e+00	0	54	0	112197632	42	4243
2026-01-08 02:48:41.45	231.70	18.79	-35.1	-36.7	24.9	0.00e+00	0	54	0	115867648	42	4156
2026-01-08 02:48:44.48	230.81	19.19	-34.9	-36.4	25.1	0.00e+00	0	54	0	119013376	41	4263
2026-01-08 02:48:47.50	229.89	19.60	-35.1	-36.7	25.0	0.00e+00	0	54	0	122683392	41	4413
2026-01-08 02:48:50.53	228.94	20.01	-34.7	-36.3	25.4	0.00e+00	0	54	0	125829120	41	4200
2026-01-08 02:48:53.55	227.97	20.42	-34.5	-36.0	25.6	0.00e+00	0	54	0	129499136	41	4086
2026-01-08 02:48:56.58	226.95	20.84	-34.6	-36.1	25.5	0.00e+00	0	54	0	132644864	40	4377
2026-01-08 02:48:59.60	225.91	21.25	-34.7	-36.2	25.4	0.00e+00	0	54	0	136314880	40	4428
2026-01-08 02:49:02.63	224.83	21.67	-34.2	-35.7	25.8	0.00e+00	0	54	0	139460608	40	4150
2026-01-08 02:49:05.65	223.72	22.09	-34.1	-35.6	26.2	0.00e+00	0	54	0	143130624	39	4343
2026-01-08 02:49:08.67	222.57	22.50	-34.4	-35.9	25.8	0.00e+00	0	55	0	146276352	39	4507
2026-01-08 02:49:11.70	221.38	22.91	-34.6	-36.1	25.6	0.00e+00	0	55	0	149946368	39	4646
2026-01-08 02:49:14.72	220.16	23.32	-34.0	-35.5	26.2	0.00e+00	0	55	0	153092096	39	4298
2026-01-08 02:49:17.75	218.89	23.73	-33.8	-35.2	26.5	0.00e+00	0	55	0	156762112	39	4173
2026-01-08 02:49:20.77	217.59	24.12	-34.0	-35.5	26.2	0.00e+00	0	55	0	159907840	39	4310
2026-01-08 02:49:23.80	216.25	24.52	-34.2	-35.6	26.2	0.00e+00	0	55	0	163577856	39	4374
2026-01-08 02:49:26.83	214.87	24.90	-34.1	-35.5	26.2	0.00e+00	0	55	0	166723584	39	4339
2026-01-08 02:49:29.86	213.45	25.28	-33.8	-35.2	26.5	0.00e+00	0	55	0	170393600	39	4158
2026-01-08 02:49:32.88	212.00	25.65	-34.1	-35.5	26.2	0.00e+00	0	55	0	173539328	39	4319
2026-01-08 02:49:35.91	210.50	26.00	-34.0	-35.4	26.3	0.00e+00	0	55	0	177209344	39	4279
2026-01-08 02:49:38.94	208.96	26.34	-33.9	-35.4	26.5	0.00e+00	0	55	0	180355072	39	4254
2026-01-08 02:49:41.97	207.39	26.67	-34.1	-35.5	26.2	0.00e+00	0	55	0	184025088	39	4310
2026-01-08 02:49:44.98	205.79	26.97	-34.0	-35.4	26.4	0.00e+00	0	55	0	187170816	39	4258
2026-01-08 02:49:48.01	204.14	27.26	-34.2	-35.6	26.2	0.00e+00	0	55	0	190840832	39	4362
2026-01-08 02:49:51.03	202.47	27.53	-33.9	-35.3	26.5	0.00e+00	0	55	0	193986560	39	4223
2026-01-08 02:49:54.05	200.77	27.78	-34.2	-35.7	26.2	0.00e+00	0	55	0	197656576	39	4393
2026-01-08 02:49:57.08	199.03	28.01	-33.9	-35.3	26.4	0.00e+00	0	55	0	200802304	39	4215
2026-01-08 02:50:00.11	197.27	28.21	-33.8	-35.3	26.4	0.00e+00	0	55	0	204472320	39	4202
2026-01-08 02:50:03.13	195.49	28.38	-33.8	-35.2	26.6	0.00e+00	0	55	0	207618048	39	4166
2026-01-08 02:50:06.15	193.69	28.53	-34.2	-35.6	26.1	0.00e+00	0	55	0	211288064	39	4369
2026-01-08 02:50:09.17	191.87	28.65	-34.7	-36.2	25.6	0.00e+00	0	55	0	214433792	40	4401
2026-01-08 02:50:12.20	190.03	28.75	-34.7	-36.2	25.6	0.00e+00	0	55	0	218103808	40	4416
2026-01-08 02:50:15.23	188.18	28.81	-34.3	-35.7	26.0	0.00e+00	0	55	0	221249536	40	4190
2026-01-08 02:50:18.26	186.32	28.84	-34.5	-36.0	26.0	0.00e+00	0	55	0	224919552	39	4564
2026-01-08 02:50:21.29	184.47	28.84	-34.4	-35.9	25.7	0.00e+00	0	55	0	228065280	40	4255
2026-01-08 02:50:24.31	182.62	28.82	-34.3	-35.7	25.8	0.00e+00	0	55	0	231735296	40	4190
2026-01-08 02:50:27.34	180.77	28.76	-34.5	-36.0	25.7	0.00e+00	0	55	0	234881024	40	4300
2026-01-08 02:50:30.36	178.93	28.67	-34.3	-35.8	25.9	0.00e+00	0	55	0	238551040	40	4219
2026-01-08 02:50:33.39	177.11	28.56	-34.3	-35.8	26.0	0.00e+00	0	55	0	241696768	40	4222
2026-01-08 02:50:36.41	175.30	28.42	-34.4	-35.9	25.9	0.00e+00	0	55	0	245366784	40	4248
2026-01-08 02:50:39.44	173.51	28.25	-34.0	-35.4	26.7	0.00e+00	0	55	0	248512512	39	4264
2026-01-08 02:50:42.46	171.75	28.05	-34.3	-35.8	25.9	0.00e+00	0	55	0	252182528	39	4475
2026-01-08 02:50:45.49	170.00	27.83	-33.9	-35.4	26.5	0.00e+00	0	55	0	255328256	39	4258
2026-01-08 02:50:48.52	168.29	27.59	-33.8	-35.3	26.6	0.00e+00	0	55	0	258998272	39	4196
2026-01-08 02:50:51.55	166.61	27.32	-33.5	-35.0	26.8	0.00e+00	0	55	0	262144000	39	4055
2026-01-08 02:50:54.57	164.96	27.03	-33.6	-35.0	26.8	0.00e+00	0	55	0	265289728	38	4316
2026-01-08 02:50:57.60	163.35	26.73	-33.0	-34.4	27.4	0.00e+00	0	55	0	268959744	38	4013
2026-01-08 02:51:00.62	161.77	26.41	-33.5	-34.9	26.9	0.00e+00	0	55	0	272105472	37	4538
2026-01-08 02:51:03.65	160.23	26.07	-34.3	-35.7	26.2	0.00e+00	0	55	0	275775488	39	4438
2026-01-08 02:51:06.68	158.72	25.72	-33.5	-34.9	26.9	0.00e+00	0	55	0	278921216	39	4019
2026-01-08 02:51:09.70	157.26	25.36	-33.9	-35.3	26.5	0.00e+00	0	56	0	282591232	38	4489
2026-01-08 02:51:12.73	155.84	24.98	-34.5	-36.0	26.0	0.00e+00	0	55	0	285736960	39	4555
2026-01-08 02:51:15.75	154.45	24.60	-34.3	-35.8	26.1	0.00e+00	0	55	0	289406976	39	4469
2026-01-08 02:51:18.78	153.10	24.21	-34.3	-35.7	26.2	0.00e+00	0	55	0	292552704	39	4440
2026-01-08 02:51:21.81	151.79	23.81	-34.2	-35.6	26.3	0.00e+00	0	55	0	296222720	39	4372
2026-01-08 02:51:24.83	150.53	23.41	-33.7	-35.2	26.6	0.00e+00	0	56	0	299368448	39	4158
2026-01-08 02:51:27.86	149.29	23.00	-34.5	-36.0	25.9	0.00e+00	0	55	0	303038464	39	4582
2026-01-08 02:51:30.89	148.10	22.59	-34.4	-35.9	26.0	0.00e+00	0	55	0	306184192	39	4510
2026-01-08 02:51:33.92	146.94	22.17	-34.2	-35.7	26.1	0.00e+00	0	56	0	309854208	39	4429
2026-01-08 02:51:36.95	145.82	21.76	-34.6	-36.1	25.7	0.00e+00	0	56	0	312999936	39	4643
2026-01-08 02:51:39.97	144.73	21.34	-34.6	-36.1	25.6	0.00e+00	0	55	0	316669952	40	4386
2026-01-08 02:51:43.00	143.68	20.93	-34.5	-36.0	25.7	0.00e+00	0	55	0	319815680	40	4335
2026-01-08 02:51:46.03	142.66	20.51	-34.8	-36.4	25.3	0.00e+00	0	56	0	323485696	40	4520
2026-01-08 02:51:49.05	141.68	20.10	-35.1	-36.7	25.0	0.00e+00	0	56	0	326631424	40	4674
2026-01-08 02:51:52.08	140.72	19.69	-34.8	-36.3	25.4	0.00e+00	0	56	0	330301440	40	4477
2026-01-08 02:51:55.10	139.80	19.28	-35.0	-36.6	25.0	0.00e+00	0	56	0	333447168	40	4605
2026-01-08 02:51:58.13	138.91	18.87	-35.0	-36.6	25.0	0.00e+00	0	55	0	337117184	40	4639
2026-01-08 02:52:01.16	138.04	18.47	-35.3	-37.0	24.7	0.00e+00	0	56	0	340262912	41	4547
2026-01-08 02:52:04.18	137.21	18.07	-35.0	-36.6	25.0	0.00e+00	0	56	0	343932928	41	4342
2026-01-08 02:52:07.21	136.39	17.68	-35.3	-36.9	24.6	0.00e+00	0	56	0	347078656	41	4543
2026-01-08 02:52:10.24	135.61	17.29	-35.2	-36.8	24.7	0.00e+00	0	56	0	350748672	41	4491
2026-01-08 02:52:13.26	134.85	16.90	-35.7	-37.4	24.1	0.00e+00	0	55	0	353894400	41	4791
2026-01-08 02:52:16.29	134.11	16.52	-35.6	-37.2	24.3	0.00e+00	0	56	0	357564416	41	4703
2026-01-08 02:52:19.32	133.40	16.14	-35.7	-37.4	24.0	2.20e-06	0	56	0	360710144	41	4770
2026-01-08 02:52:22.35	132.70	15.77	-36.0	-37.8	23.4	5.37e-05	0	56	0	364380160	42	4718
2026-01-08 02:52:25.38	132.03	15.40	-35.9	-37.7	23.4	4.50e-06	0	56	0	367525888	42	4659
2026-01-08 02:52:28.41	131.38	15.03	-35.8	-37.7	23.6	1.10e-06	0	56	0	371195904	42	4660
2026-01-08 02:52:31.43	130.76	14.68	-36.2	-38.2	22.9	3.40e-06	0	56	0	374341632	43	4659
2026-01-08 02:52:34.46	130.14	14.32	-36.6	-38.7	22.1	4.92e-05	0	56	0	378011648	43	4964
2026-01-08 02:52:37.49	129.55	13.97	-36.1	-38.5	21.6	3.10e-04	0	56	0	381157376	42	5105
2026-01-08 02:52:40.51	128.98	13.63	-35.3	-38.0	20.5	7.32e-04	0	56	0	384827392	40	5443
2026-01-08 02:52:43.54	128.42	13.29	-35.1	-39.1	17.9	4.39e-03	0	56	0	387973120	39	6508
2026-01-08 02:52:46.56	127.88	12.95	-34.1	-39.1	16.6	8.78e-03	0	56	0	391643136	40	6176
2026-01-08 02:52:49.59	127.36	12.62	-33.5	-39.0	16.1	1.34e-02	0	56	0	394788864	37	7255
2026-01-08 02:52:52.62	126.85	12.30	-31.9	-39.4	14.6	1.32e-02	0	56	0	398458880	37	7588
2026-01-08 02:52:55.65	126.35	11.98	-32.7	-38.7	16.3	1.26e-02	0	56	0	401604608	33	8780
2026-01-08 02:52:58.68	125.87	11.66	-33.1	-39.4	16.0	1.83e-02	0	56	0	405274624	37	7588
2026-01-08 02:53:01.70	125.40	11.35	-34.8	-39.0	17.0	1.72e-02	0	56	0	408420352	38	6844
2026-01-08 02:53:04.73	124.95	11.04	-35.1	-39.8	17.2	1.01e-02	0	56	0	412090368	42	5992
2026-01-08 02:53:07.76	124.50	10.74	-36.7	-40.2	18.2	5.24e-03	0	56	0	415236096	44	5551
2026-01-08 02:53:10.78	124.07	10.44	-37.1	-40.6	18.9	3.45e-03	0	56	0	418906112	46	5196
2026-01-08 02:53:13.81	123.65	10.14	-36.8	-40.9	19.0	1.56e-03	0	56	0	422051840	46	5350
2026-01-08 02:53:16.84	123.25	9.85	-37.4	-40.5	17.8	3.26e-04	0	56	0	425721856	41	6818
2026-01-08 02:53:19.86	122.85	9.57	-32.5	-40.3	19.8	9.02e-04	0	56	0	428867584	45	5293
2026-01-08 02:53:22.89	122.47	9.28	-37.7	-40.6	19.7	3.48e-04	0	56	0	432537600	45	5472
2026-01-08 02:53:25.92	122.09	9.00	-37.1	-41.0	19.0	8.17e-04	0	56	0	435683328	46	5409
2026-01-08 02:53:28.95	121.72	8.73	-38.1	-41.1	19.2	2.05e-04	0	56	0	439353344	45	5828
2026-01-08 02:53:31.97	121.37	8.46	-36.2	-40.9	18.7	2.67e-04	0	56	0	442499072	43	6369
2026-01-08 02:53:35.00	121.02	8.19	-33.5	-41.4	16.1	3.57e-03	0	56	0	446169088	38	9026
2026-01-08 02:53:38.03	120.68	7.92	-28.9	-52.1	4.3	6.95e-02	0	56	104	448790528	25	65535
2026-01-08 02:53:41.06	120.35	7.66	-45.2	-63.3	3.8	8.46e-01	0	56	104	448790528	60	31627
2026-01-08 02:53:44.08	120.03	7.40	-45.5	-63.8	3.8	8.47e-01	0	56	104	448790528	61	31486
2026-01-08 02:53:47.12	119.71	7.15	-45.7	-63.9	3.8	8.47e-01	0	56	104	448790528	61	32165
2026-01-08 02:53:50.14	119.41	6.90	-45.5	-63.8	3.8	8.46e-01	0	56	104	448790528	61	31689
2026-01-08 02:53:53.17	119.11	6.65	-45.4	-63.7	3.8	8.45e-01	0	56	104	448790528	61	31432
2026-01-08 02:53:56.20	118.81	6.40	-45.3	-63.7	3.8	8.46e-01	0	56	104	448790528	61	31123
2026-01-08 02:53:59.23	118.53	6.16	-45.3	-63.6	3.8	8.47e-01	0	56	104	448790528	61	31037
2026-01-08 02:54:02.26	118.25	5.92	-45.3	-63.7	3.8	8.46e-01	0	56	104	448790528	61	31127
2026-01-08 02:54:05.28	117.98	5.68	-45.2	-63.6	3.8	8.47e-01	0	56	104	448790528	61	31071
2026-01-08 02:54:08.30	117.71	5.45	-45.2	-63.7	3.8	8.46e-01	0	56	104	448790528	61	31091
2026-01-08 02:54:11.33	117.45	5.22	-45.2	-63.6	3.8	8.46e-01	0	56	104	448790528	61	30959
2026-01-08 02:54:14.36	117.20	4.99	-45.2	-63.6	3.8	8.47e-01	0	56	104	448790528	61	30997
2026-01-08 02:54:17.39	116.95	4.76	-45.2	-63.6	3.8	8.47e-01	0	56	104	448790528	61	31012
2026-01-08 02:54:20.42	116.71	4.54	-45.2	-63.6	3.8	8.46e-01	0	56	104	448790528	61	30980
2026-01-08 02:54:23.45	116.47	4.32	-45.2	-63.6	3.8	8.45e-01	0	56	104	448790528	61	30975
2026-01-08 02:54:26.47	116.24	4.10	-45.2	-63.6	3.8	8.47e-01	0	57	104	448790528	61	31006
2026-01-08 02:54:29.50	116.01	3.88	-45.2	-63.6	3.8	8.46e-01	0	56	104	448790528	61	30842
2026-01-08 02:54:32.53	115.79	3.67	-45.2	-63.6	3.8	8.47e-01	0	56	104	448790528	61	30933
2026-01-08 02:54:35.56	115.57	3.45	-45.2	-63.6	3.8	8.47e-01	0	56	104	448790528	61	30986
2026-01-08 02:54:38.58	115.35	3.24	-45.2	-63.6	3.8	8.47e-01	0	56	104	448790528	61	30898
2026-01-08 02:54:41.61	115.15	3.04	-45.2	-63.6	3.8	8.46e-01	0	56	104	448790528	61	30897
2026-01-08 02:54:44.64	114.94	2.83	-45.2	-63.6	3.8	8.46e-01	0	56	104	448790528	61	30857
2026-01-08 02:54:47.67	114.74	2.63	-45.2	-63.6	3.8	8.45e-01	0	57	104	448790528	61	30977
2026-01-08 02:54:50.70	114.54	2.42	-45.2	-63.6	3.8	8.46e-01	0	57	104	448790528	61	30814
2026-01-08 02:54:53.72	114.35	2.22	-45.2	-63.6	3.8	8.46e-01	0	56	104	448790528	61	30963
2026-01-08 02:54:56.75	114.16	2.02	-45.2	-63.6	3.8	8.46e-01	0	56	104	448790528	61	30887
2026-01-08 02:54:59.78	113.98	1.83	-45.2	-63.6	3.8	8.46e-01	0	56	104	448790528	61	30897

#Closed at: 2026-01-08 02:54:59
#Recorded file [448 MB]: D:/lorett/data/31039_260108_054542.dat