passes_logs/2026/01/08/R2.0S_Moscow/R2.0S_Moscow__20260108_042211_FENGYUN_3G_rec.log

#Pass ID: 20260108_042211_FENGYUN 3G
#Satellite: FENGYUN 3G
#Configuration: FENGYUN 3G
#almurnet v.1.7.20251203
#Start time: 2026-01-08 04:22:10

#Version: 2.2.20231116
#Station: R2.0S_Moscow
#Location: 37.707566 lon 55.798166 lat
#TLE: 1 56232U 23055A   26005.65670112  .00041871  00000+0  66206-3 0  9997
#TLE: 2 56232  49.9942 104.1198 0004242 344.1257  15.9577 15.52986726154745

#Time	Az	El	Level	Level2	SNR	BER	BlckErr	Temp	State	Recorded	gain1	gain2
2026-01-08 04:22:10.67	264.15	1.97	-44.2	-62.5	3.8	8.46e-01	0	46	0	0	60	28820
2026-01-08 04:22:12.68	263.95	2.09	-44.2	-62.5	3.8	8.46e-01	0	47	104	0	60	28789
2026-01-08 04:22:14.71	263.74	2.21	-44.2	-62.5	3.8	8.46e-01	0	47	104	0	60	28800
2026-01-08 04:22:16.73	263.53	2.33	-44.2	-62.5	3.8	8.45e-01	0	47	104	0	60	28705
2026-01-08 04:22:18.75	263.33	2.46	-44.2	-62.5	3.8	8.45e-01	0	47	104	0	60	28778
2026-01-08 04:22:20.77	263.12	2.58	-44.2	-62.5	3.8	8.46e-01	0	47	104	0	60	28696
2026-01-08 04:22:22.79	262.90	2.70	-44.1	-62.5	3.8	8.47e-01	0	47	104	0	60	28731
2026-01-08 04:22:24.81	262.69	2.82	-44.2	-62.5	3.8	8.46e-01	0	48	104	0	60	28787
2026-01-08 04:22:26.83	262.47	2.95	-44.2	-62.5	3.8	8.46e-01	0	48	104	0	60	28721
2026-01-08 04:22:28.85	262.25	3.07	-44.1	-62.5	3.8	8.46e-01	0	48	104	0	60	28724
2026-01-08 04:22:30.87	262.02	3.20	-44.1	-62.5	3.8	8.46e-01	0	48	104	0	60	28797
2026-01-08 04:22:32.89	261.79	3.32	-44.1	-62.4	3.8	8.46e-01	0	48	104	0	60	28628
2026-01-08 04:22:34.91	261.56	3.45	-44.1	-62.5	3.8	8.46e-01	0	48	104	0	60	28705
2026-01-08 04:22:36.93	261.33	3.57	-44.2	-62.4	3.8	8.46e-01	0	49	104	0	60	28633
2026-01-08 04:22:38.95	261.10	3.70	-44.1	-62.4	3.8	8.47e-01	0	49	104	0	60	28574
2026-01-08 04:22:40.97	260.86	3.83	-44.1	-62.4	3.8	8.46e-01	0	49	104	0	60	28554
2026-01-08 04:22:42.99	260.61	3.95	-44.1	-62.5	3.8	8.46e-01	0	49	104	0	60	28698
2026-01-08 04:22:45.01	260.37	4.08	-44.1	-62.4	3.8	8.46e-01	0	49	104	0	60	28515
2026-01-08 04:22:47.03	260.12	4.21	-44.1	-62.3	3.8	8.45e-01	0	49	104	0	60	28227
2026-01-08 04:22:49.05	259.87	4.34	-44.1	-62.1	3.8	8.45e-01	0	49	104	0	60	27628
2026-01-08 04:22:51.08	259.62	4.47	-44.0	-61.8	3.8	8.47e-01	0	49	104	0	60	26625
2026-01-08 04:22:53.10	259.36	4.60	-44.0	-61.8	3.8	8.46e-01	0	50	104	0	59	28152
2026-01-08 04:22:55.12	259.10	4.73	-43.5	-61.8	3.8	8.47e-01	0	50	104	0	59	28336
2026-01-08 04:22:57.14	258.83	4.87	-42.4	-62.2	3.8	8.45e-01	0	50	104	0	56	35277
2026-01-08 04:22:59.16	258.56	5.00	-41.3	-62.3	3.8	8.46e-01	0	50	104	0	54	39687
2026-01-08 04:23:01.18	258.29	5.13	-40.7	-62.2	3.8	8.47e-01	0	50	104	0	53	41467
2026-01-08 04:23:03.20	258.02	5.26	-41.0	-62.0	3.8	8.46e-01	0	50	104	0	53	40837
2026-01-08 04:23:05.22	257.74	5.40	-42.2	-62.1	3.8	8.47e-01	0	50	104	0	54	39054
2026-01-08 04:23:07.25	257.46	5.53	-43.8	-62.3	3.8	8.47e-01	0	50	104	0	58	31672
2026-01-08 04:23:09.27	257.17	5.67	-44.2	-62.2	3.8	8.47e-01	0	50	104	0	58	31325
2026-01-08 04:23:11.29	256.88	5.80	-43.8	-62.4	3.8	8.45e-01	0	50	104	0	58	31926
2026-01-08 04:23:13.31	256.59	5.94	-43.8	-62.5	3.8	8.46e-01	0	51	104	0	58	32264
2026-01-08 04:23:15.33	256.29	6.08	-44.0	-62.4	3.8	8.46e-01	0	51	104	0	58	31911
2026-01-08 04:23:17.36	255.99	6.21	-44.2	-62.2	3.8	8.45e-01	0	51	104	0	58	31349
2026-01-08 04:23:19.38	255.68	6.35	-44.2	-62.3	3.8	8.46e-01	0	51	104	0	59	30020
2026-01-08 04:23:21.40	255.37	6.49	-44.2	-62.4	3.8	8.46e-01	0	51	104	0	59	30316
2026-01-08 04:23:23.42	255.06	6.63	-44.2	-62.1	3.8	8.47e-01	0	51	104	0	59	29181
2026-01-08 04:23:25.45	254.74	6.77	-44.2	-61.2	3.8	8.46e-01	0	51	104	0	59	26378
2026-01-08 04:23:27.47	254.42	6.91	-44.2	-60.7	3.8	8.47e-01	0	51	104	0	59	24838
2026-01-08 04:23:29.49	254.09	7.05	-44.2	-60.3	3.8	8.45e-01	0	51	104	0	59	23611
2026-01-08 04:23:31.51	253.76	7.19	-44.1	-58.6	4.3	8.42e-01	0	51	0	0	59	19476
2026-01-08 04:23:33.53	253.42	7.33	-43.9	-55.5	5.9	8.28e-01	0	51	0	0	59	13678
2026-01-08 04:23:35.55	253.08	7.47	-43.7	-53.5	7.6	2.09e-01	0	51	0	2097152	59	10862
2026-01-08 04:23:37.57	252.74	7.61	-43.8	-54.2	7.1	1.03e-01	0	51	0	4718592	59	11691
2026-01-08 04:23:39.59	252.39	7.75	-44.1	-59.0	4.2	6.79e-01	0	52	0	5767168	59	20484
2026-01-08 04:23:41.61	252.03	7.90	-43.6	-52.7	8.3	7.90e-01	0	52	0	6291456	59	9889
2026-01-08 04:23:43.63	251.68	8.04	-41.5	-45.9	15.3	7.06e-02	0	52	0	8388608	55	5710
2026-01-08 04:23:45.64	251.31	8.18	-42.0	-46.7	14.7	7.32e-04	0	52	0	11010048	56	5916
2026-01-08 04:23:47.66	250.94	8.33	-44.0	-56.6	5.5	3.81e-02	0	52	0	12058624	58	16404
2026-01-08 04:23:49.68	250.57	8.47	-39.7	-42.6	18.8	7.57e-01	0	52	0	13631488	50	5208
2026-01-08 04:23:51.70	250.19	8.62	-39.1	-41.8	19.7	0.00e+00	0	52	0	15728640	50	4707
2026-01-08 04:23:53.72	249.81	8.76	-39.1	-41.7	19.8	0.00e+00	0	52	0	17825792	50	4666
2026-01-08 04:23:55.74	249.42	8.91	-38.9	-41.5	20.0	0.00e+00	0	52	0	20447232	49	4815
2026-01-08 04:23:57.76	249.02	9.05	-38.6	-41.0	20.4	0.00e+00	0	52	0	22544384	49	4572
2026-01-08 04:23:59.78	248.62	9.20	-38.4	-40.8	20.7	0.00e+00	0	52	0	24641536	48	4730
2026-01-08 04:24:01.80	248.22	9.34	-38.4	-40.7	20.8	0.00e+00	0	52	0	27262976	48	4664
2026-01-08 04:24:03.82	247.80	9.49	-38.4	-40.7	20.8	0.00e+00	0	52	0	29360128	48	4693
2026-01-08 04:24:05.84	247.39	9.64	-38.4	-40.8	20.7	0.00e+00	0	52	0	31457280	48	4723
2026-01-08 04:24:07.86	246.96	9.78	-38.5	-40.8	20.7	0.00e+00	0	52	0	34078720	48	4746
2026-01-08 04:24:09.88	246.53	9.93	-38.6	-40.9	20.6	0.00e+00	0	52	0	36175872	48	4803
2026-01-08 04:24:11.90	246.10	10.08	-38.2	-40.5	21.0	0.00e+00	0	53	0	38273024	48	4570
2026-01-08 04:24:13.92	245.66	10.22	-38.0	-40.2	21.4	0.00e+00	0	53	0	40894464	48	4406
2026-01-08 04:24:15.94	245.21	10.37	-38.1	-40.4	21.1	0.00e+00	0	52	0	42991616	47	4778
2026-01-08 04:24:17.96	244.76	10.52	-38.1	-40.4	21.2	0.00e+00	0	53	0	45088768	47	4764
2026-01-08 04:24:19.98	244.30	10.66	-38.0	-40.2	21.4	0.00e+00	0	53	0	47710208	47	4677
2026-01-08 04:24:22.00	243.84	10.81	-37.9	-40.1	21.5	0.00e+00	0	53	0	49807360	47	4605
2026-01-08 04:24:24.02	243.36	10.96	-37.7	-39.8	21.7	0.00e+00	0	53	0	51904512	47	4479
2026-01-08 04:24:26.04	242.89	11.10	-37.6	-39.7	21.8	0.00e+00	0	53	0	54525952	47	4435
2026-01-08 04:24:28.06	242.40	11.25	-37.7	-39.8	21.7	0.00e+00	0	53	0	56623104	47	4483
2026-01-08 04:24:30.08	241.91	11.40	-38.0	-40.1	21.4	0.00e+00	0	53	0	58720256	47	4650
2026-01-08 04:24:32.10	241.42	11.54	-37.8	-40.0	21.6	0.00e+00	0	53	0	61341696	47	4562
2026-01-08 04:24:34.12	240.91	11.69	-37.8	-39.9	21.6	0.00e+00	0	53	0	63438848	47	4542
2026-01-08 04:24:36.13	240.40	11.83	-37.3	-39.3	22.3	0.00e+00	0	53	0	65536000	46	4484
2026-01-08 04:24:38.16	239.89	11.97	-37.3	-39.2	22.4	0.00e+00	0	53	0	68157440	46	4440
2026-01-08 04:24:40.17	239.36	12.12	-37.4	-39.4	22.2	0.00e+00	0	53	0	70254592	46	4538
2026-01-08 04:24:42.19	238.83	12.26	-37.7	-39.8	21.9	0.00e+00	0	53	0	72351744	46	4728
2026-01-08 04:24:44.22	238.29	12.40	-37.8	-39.9	21.8	0.00e+00	0	53	0	74973184	46	4778
2026-01-08 04:24:46.23	237.75	12.54	-37.7	-39.7	21.9	0.00e+00	0	53	0	77070336	46	4705
2026-01-08 04:24:48.25	237.20	12.68	-37.3	-39.2	22.4	0.00e+00	0	53	0	79167488	46	4436
2026-01-08 04:24:50.27	236.64	12.82	-37.0	-38.9	22.7	0.00e+00	0	53	0	81788928	46	4280
2026-01-08 04:24:52.29	236.08	12.96	-36.9	-38.8	22.8	0.00e+00	0	53	0	83886080	45	4476
2026-01-08 04:24:54.31	235.51	13.10	-37.2	-39.2	22.5	0.00e+00	0	53	0	85983232	45	4673
2026-01-08 04:24:56.33	234.93	13.24	-37.5	-39.5	22.2	0.00e+00	0	54	0	88604672	45	4833
2026-01-08 04:24:58.35	234.35	13.37	-37.4	-39.4	22.2	0.00e+00	0	53	0	90701824	45	4792
2026-01-08 04:25:00.36	233.76	13.50	-37.6	-39.6	22.0	0.00e+00	0	53	0	92798976	45	4915
2026-01-08 04:25:02.38	233.16	13.64	-37.4	-39.4	22.3	0.00e+00	0	53	0	95420416	45	4763
2026-01-08 04:25:04.40	232.55	13.77	-37.2	-39.2	22.5	0.00e+00	0	53	0	97517568	45	4657
2026-01-08 04:25:06.42	231.94	13.90	-36.9	-38.8	22.9	0.00e+00	0	54	0	99614720	45	4462
2026-01-08 04:25:08.44	231.32	14.02	-37.0	-38.9	22.8	0.00e+00	0	54	0	102236160	45	4539
2026-01-08 04:25:10.46	230.69	14.15	-37.0	-38.9	22.8	0.00e+00	0	54	0	104333312	45	4512
2026-01-08 04:25:12.48	230.06	14.27	-37.0	-38.9	22.8	0.00e+00	0	53	0	106430464	45	4526
2026-01-08 04:25:14.50	229.42	14.40	-37.0	-38.9	22.8	0.00e+00	0	53	0	109051904	45	4517
2026-01-08 04:25:16.52	228.77	14.52	-36.9	-38.7	22.9	0.00e+00	0	54	0	111149056	45	4440
2026-01-08 04:25:18.53	228.12	14.63	-36.9	-38.8	22.9	0.00e+00	0	54	0	113246208	45	4465
2026-01-08 04:25:20.56	227.45	14.75	-36.9	-38.8	22.9	0.00e+00	0	54	0	115867648	45	4458
2026-01-08 04:25:22.57	226.79	14.86	-36.4	-38.2	23.5	0.00e+00	0	54	0	117964800	44	4410
2026-01-08 04:25:24.59	226.12	14.97	-35.7	-37.4	24.1	0.00e+00	0	54	0	120061952	43	4273
2026-01-08 04:25:26.61	225.44	15.08	-35.5	-37.1	24.4	0.00e+00	0	54	0	122683392	42	4368
2026-01-08 04:25:28.63	224.75	15.19	-35.7	-37.4	24.2	0.00e+00	0	54	0	124780544	42	4494
2026-01-08 04:25:30.65	224.06	15.29	-36.2	-38.0	23.5	0.00e+00	0	54	0	126877696	43	4586
2026-01-08 04:25:32.67	223.36	15.39	-36.4	-38.2	23.4	0.00e+00	0	54	0	129499136	43	4678
2026-01-08 04:25:34.69	222.66	15.49	-36.2	-38.0	23.6	0.00e+00	0	54	0	131596288	43	4571
2026-01-08 04:25:36.71	221.95	15.58	-36.3	-38.1	23.5	0.00e+00	0	54	0	133693440	43	4635
2026-01-08 04:25:38.73	221.23	15.67	-36.4	-38.2	23.4	0.00e+00	0	54	0	136314880	43	4691
2026-01-08 04:25:40.75	220.51	15.76	-36.6	-38.5	23.2	0.00e+00	0	54	0	138412032	43	4836
2026-01-08 04:25:42.77	219.79	15.84	-36.6	-38.5	23.2	0.00e+00	0	54	0	140509184	43	4823
2026-01-08 04:25:44.78	219.06	15.92	-36.7	-38.5	23.1	0.00e+00	0	54	0	143130624	43	4864
2026-01-08 04:25:46.80	218.32	16.00	-37.2	-39.2	22.7	0.00e+00	0	54	0	145227776	45	4657
2026-01-08 04:25:48.82	217.58	16.07	-37.0	-38.9	22.9	0.00e+00	0	54	0	147324928	45	4521
2026-01-08 04:25:50.84	216.84	16.14	-36.5	-38.2	23.5	0.00e+00	0	54	0	149946368	45	4188
2026-01-08 04:25:52.86	216.09	16.21	-36.3	-38.0	23.7	0.00e+00	0	54	0	152043520	44	4319
2026-01-08 04:25:54.88	215.33	16.27	-36.9	-38.7	23.1	0.00e+00	0	54	0	154140672	44	4692
2026-01-08 04:25:56.90	214.58	16.33	-37.2	-39.1	22.7	0.00e+00	0	54	0	156762112	45	4643
2026-01-08 04:25:58.92	213.82	16.39	-37.3	-39.2	22.6	0.00e+00	0	54	0	158859264	45	4702
2026-01-08 04:26:00.94	213.05	16.44	-37.1	-39.0	22.8	0.00e+00	0	54	0	160956416	45	4568
2026-01-08 04:26:02.95	212.29	16.48	-36.9	-38.8	23.1	0.00e+00	0	54	0	163577856	45	4465
2026-01-08 04:26:04.97	211.52	16.52	-36.6	-38.4	23.4	0.00e+00	0	54	0	165675008	45	4285
2026-01-08 04:26:06.99	210.74	16.56	-36.3	-38.1	23.8	0.00e+00	0	54	0	167772160	44	4347
2026-01-08 04:26:09.01	209.97	16.60	-36.4	-38.1	23.7	0.00e+00	0	54	0	170393600	44	4385
2026-01-08 04:26:11.03	209.19	16.62	-36.7	-38.5	23.4	0.00e+00	0	54	0	172490752	44	4551
2026-01-08 04:26:13.04	208.42	16.65	-36.6	-38.3	23.5	0.00e+00	0	54	0	174587904	44	4484
2026-01-08 04:26:15.06	207.64	16.67	-36.4	-38.2	23.6	0.00e+00	0	55	0	177209344	44	4415
2026-01-08 04:26:17.08	206.86	16.69	-36.2	-38.0	23.8	0.00e+00	0	54	0	179306496	44	4297
2026-01-08 04:26:19.10	206.07	16.70	-35.8	-37.5	24.1	0.00e+00	0	54	0	181403648	43	4325
2026-01-08 04:26:21.12	205.29	16.70	-35.4	-37.0	24.6	0.00e+00	0	54	0	184025088	42	4316
2026-01-08 04:26:23.14	204.51	16.71	-35.3	-36.9	24.7	0.00e+00	0	55	0	186122240	42	4266
2026-01-08 04:26:25.16	203.72	16.70	-35.3	-36.9	24.7	0.00e+00	0	54	0	188219392	42	4273
2026-01-08 04:26:27.17	202.94	16.70	-35.8	-37.5	24.2	0.00e+00	0	55	0	190840832	42	4568
2026-01-08 04:26:29.20	202.16	16.69	-36.3	-38.1	23.6	0.00e+00	0	54	0	192937984	43	4619
2026-01-08 04:26:31.21	201.38	16.67	-36.5	-38.3	23.3	0.00e+00	0	55	0	195035136	43	4730
2026-01-08 04:26:33.24	200.59	16.65	-36.3	-38.0	23.6	0.00e+00	0	55	0	197656576	43	4591
2026-01-08 04:26:35.26	199.82	16.63	-36.0	-37.7	23.9	0.00e+00	0	55	0	199753728	43	4414
2026-01-08 04:26:37.27	199.04	16.60	-35.7	-37.3	24.2	0.00e+00	0	55	0	201850880	43	4232
2026-01-08 04:26:39.29	198.27	16.57	-35.9	-37.5	24.0	0.00e+00	0	55	0	204472320	43	4335
2026-01-08 04:26:41.31	197.49	16.53	-35.7	-37.4	24.2	0.00e+00	0	55	0	206569472	43	4259
2026-01-08 04:26:43.33	196.72	16.49	-35.8	-37.5	24.1	0.00e+00	0	55	0	208666624	43	4320
2026-01-08 04:26:45.35	195.95	16.44	-35.7	-37.4	24.2	0.00e+00	0	55	0	211288064	43	4280
2026-01-08 04:26:47.37	195.19	16.39	-35.8	-37.5	24.2	0.00e+00	0	55	0	213385216	43	4294
2026-01-08 04:26:49.39	194.43	16.34	-36.0	-37.7	23.9	0.00e+00	0	55	0	215482368	43	4404
2026-01-08 04:26:51.41	193.67	16.28	-36.0	-37.7	23.9	0.00e+00	0	55	0	218103808	43	4400
2026-01-08 04:26:53.43	192.92	16.22	-36.1	-37.8	23.7	0.00e+00	0	55	0	220200960	43	4493
2026-01-08 04:26:55.45	192.17	16.15	-36.1	-37.8	23.8	0.00e+00	0	55	0	222298112	43	4466
2026-01-08 04:26:57.47	191.42	16.08	-36.2	-37.9	23.7	0.00e+00	0	55	0	224919552	43	4544
2026-01-08 04:26:59.49	190.68	16.01	-36.0	-37.8	23.8	0.00e+00	0	55	0	227016704	43	4447
2026-01-08 04:27:01.51	189.94	15.93	-36.3	-38.1	23.5	0.00e+00	0	55	0	229113856	43	4610
2026-01-08 04:27:03.53	189.21	15.85	-36.4	-38.2	23.4	0.00e+00	0	55	0	231735296	43	4655
2026-01-08 04:27:05.55	188.48	15.76	-36.1	-37.8	23.7	0.00e+00	0	55	0	233832448	43	4488
2026-01-08 04:27:07.57	187.76	15.68	-36.3	-38.1	23.5	0.00e+00	0	55	0	235929600	43	4631
2026-01-08 04:27:09.59	187.04	15.59	-36.9	-38.8	23.0	0.00e+00	0	55	0	238551040	44	4717
2026-01-08 04:27:11.60	186.34	15.49	-37.1	-39.0	22.7	0.00e+00	0	55	0	240648192	45	4580
2026-01-08 04:27:13.62	185.63	15.40	-36.6	-38.4	23.3	0.00e+00	0	55	0	242745344	45	4252
2026-01-08 04:27:15.64	184.93	15.30	-36.4	-38.1	23.6	0.00e+00	0	55	0	245366784	44	4385
2026-01-08 04:27:17.66	184.24	15.19	-36.7	-38.5	23.2	0.00e+00	0	55	0	247463936	44	4570
2026-01-08 04:27:19.68	183.55	15.09	-36.9	-38.7	23.0	0.00e+00	0	55	0	249561088	44	4703
2026-01-08 04:27:21.70	182.87	14.98	-36.8	-38.6	23.1	0.00e+00	0	55	0	252182528	44	4648
2026-01-08 04:27:23.72	182.19	14.87	-36.7	-38.5	23.2	0.00e+00	0	55	0	254279680	44	4560
2026-01-08 04:27:25.74	181.53	14.76	-36.6	-38.4	23.3	0.00e+00	0	55	0	256376832	44	4537
2026-01-08 04:27:27.76	180.86	14.64	-36.5	-38.3	23.4	0.00e+00	0	55	0	258998272	44	4456
2026-01-08 04:27:29.78	180.21	14.52	-36.5	-38.3	23.4	0.00e+00	0	55	0	261095424	44	4464
2026-01-08 04:27:31.79	179.56	14.40	-36.3	-38.1	23.5	0.00e+00	0	55	0	263192576	44	4355
2026-01-08 04:27:33.81	178.92	14.28	-36.4	-38.1	23.4	0.00e+00	0	55	0	265814016	44	4391
2026-01-08 04:27:35.83	178.29	14.16	-36.3	-38.1	23.6	0.00e+00	0	55	0	267911168	44	4343
2026-01-08 04:27:37.85	177.66	14.03	-36.3	-38.1	23.5	0.00e+00	0	55	0	270008320	44	4369
2026-01-08 04:27:39.87	177.04	13.90	-36.3	-38.1	23.5	0.00e+00	0	55	0	272629760	44	4371
2026-01-08 04:27:41.89	176.42	13.77	-36.8	-38.6	23.0	0.00e+00	0	55	0	274726912	44	4626
2026-01-08 04:27:43.91	175.81	13.64	-37.3	-39.3	22.3	0.00e+00	0	55	0	276824064	45	4715
2026-01-08 04:27:45.93	175.21	13.51	-37.1	-39.1	22.5	0.00e+00	0	55	0	279445504	45	4617
2026-01-08 04:27:47.95	174.62	13.38	-36.7	-38.6	23.0	0.00e+00	0	55	0	281542656	45	4346
2026-01-08 04:27:49.96	174.04	13.24	-36.8	-38.7	22.9	0.00e+00	0	55	0	283639808	45	4411
2026-01-08 04:27:51.98	173.46	13.11	-37.1	-39.0	22.6	0.00e+00	0	55	0	286261248	45	4557
2026-01-08 04:27:54.00	172.88	12.97	-37.5	-39.5	22.1	0.00e+00	0	55	0	288358400	45	4841
2026-01-08 04:27:56.02	172.32	12.83	-37.4	-39.4	22.1	0.00e+00	0	55	0	290455552	45	4809
2026-01-08 04:27:58.04	171.76	12.69	-37.2	-39.1	22.7	0.00e+00	0	55	0	293076992	45	4642
2026-01-08 04:28:00.06	171.20	12.55	-37.0	-38.9	22.8	0.00e+00	0	55	0	295174144	45	4496
2026-01-08 04:28:02.08	170.66	12.41	-37.2	-39.1	22.5	0.00e+00	0	55	0	297271296	45	4634
2026-01-08 04:28:04.09	170.12	12.27	-37.5	-39.5	22.1	0.00e+00	0	55	0	299892736	45	4841
2026-01-08 04:28:06.12	169.59	12.12	-38.0	-40.2	21.5	0.00e+00	0	55	0	301989888	46	4932
2026-01-08 04:28:08.13	169.07	11.98	-38.2	-40.3	21.4	0.00e+00	0	55	0	304087040	46	5027
2026-01-08 04:28:10.15	168.55	11.84	-38.2	-40.4	21.3	0.00e+00	0	55	0	306708480	47	4800
2026-01-08 04:28:12.17	168.04	11.69	-37.5	-39.5	22.1	0.00e+00	0	55	0	308805632	47	4324
2026-01-08 04:28:14.19	167.53	11.55	-37.3	-39.2	22.5	0.00e+00	0	55	0	310902784	46	4426
2026-01-08 04:28:16.21	167.03	11.40	-37.7	-39.7	22.0	0.00e+00	0	55	0	313524224	46	4683
2026-01-08 04:28:18.23	166.54	11.26	-37.9	-40.0	21.7	0.00e+00	0	55	0	315621376	46	4858
2026-01-08 04:28:20.24	166.06	11.11	-38.0	-40.1	21.6	0.00e+00	0	55	0	317718528	46	4897
2026-01-08 04:28:22.26	165.58	10.96	-37.9	-40.0	21.7	0.00e+00	0	55	0	319815680	46	4829
2026-01-08 04:28:24.28	165.10	10.82	-37.9	-40.0	21.7	0.00e+00	0	55	0	322437120	46	4846
2026-01-08 04:28:26.30	164.64	10.67	-38.3	-40.6	21.1	0.00e+00	0	55	0	324534272	47	4889
2026-01-08 04:28:28.32	164.18	10.52	-38.6	-40.9	20.8	0.00e+00	0	55	0	326631424	47	5063
2026-01-08 04:28:30.34	163.72	10.38	-38.6	-40.9	20.9	0.00e+00	0	55	0	329252864	48	4767
2026-01-08 04:28:32.36	163.28	10.23	-38.3	-40.5	21.3	0.00e+00	0	55	0	331350016	48	4553
2026-01-08 04:28:34.38	162.83	10.08	-38.3	-40.5	21.2	0.00e+00	0	55	0	333971456	48	4561
2026-01-08 04:28:36.40	162.40	9.93	-38.2	-40.4	21.3	0.00e+00	0	55	0	336068608	48	4504
2026-01-08 04:28:38.42	161.97	9.79	-38.3	-40.6	21.1	0.00e+00	0	55	0	338165760	48	4614
2026-01-08 04:28:40.44	161.54	9.64	-38.4	-40.7	20.9	0.00e+00	0	55	0	340787200	48	4688
2026-01-08 04:28:42.45	161.13	9.50	-38.4	-40.7	20.9	0.00e+00	0	55	0	342884352	48	4672
2026-01-08 04:28:44.47	160.71	9.35	-38.6	-40.9	20.6	0.00e+00	0	55	0	344981504	48	4813
2026-01-08 04:28:46.49	160.30	9.20	-38.6	-40.9	20.6	0.00e+00	0	56	0	347602944	48	4787
2026-01-08 04:28:48.51	159.90	9.06	-38.5	-40.8	20.6	0.00e+00	0	55	0	349700096	48	4739
2026-01-08 04:28:50.53	159.51	8.91	-38.5	-40.8	20.6	0.00e+00	0	55	0	351797248	48	4735
2026-01-08 04:28:52.55	159.11	8.76	-38.5	-40.8	20.6	0.00e+00	0	55	0	354418688	48	4737
2026-01-08 04:28:54.57	158.73	8.62	-38.4	-40.8	20.5	0.00e+00	0	55	0	356515840	48	4733
2026-01-08 04:28:56.59	158.35	8.47	-38.5	-40.9	20.5	0.00e+00	0	55	0	358612992	48	4781
2026-01-08 04:28:58.60	157.97	8.33	-38.4	-40.8	20.5	0.00e+00	0	55	0	360710144	48	4729
2026-01-08 04:29:00.62	157.60	8.19	-38.7	-41.2	20.0	0.00e+00	0	55	0	363331584	48	4979
2026-01-08 04:29:02.64	157.24	8.04	-38.9	-41.5	19.7	0.00e+00	0	55	0	365428736	48	5140
2026-01-08 04:29:04.66	156.88	7.90	-44.7	-62.2	3.8	3.52e-01	0	56	104	367001600	60	27881
2026-01-08 04:29:06.68	156.52	7.76	-45.2	-63.5	3.8	8.46e-01	0	56	104	367001600	60	32263
2026-01-08 04:29:08.70	156.17	7.61	-45.4	-63.7	3.8	8.45e-01	0	56	104	367001600	61	31137
2026-01-08 04:29:10.72	155.83	7.47	-45.5	-63.8	3.8	8.46e-01	0	56	104	367001600	61	31570
2026-01-08 04:29:12.74	155.48	7.33	-45.4	-63.8	3.8	8.47e-01	0	56	104	367001600	61	31521
2026-01-08 04:29:14.76	155.15	7.19	-45.3	-63.7	3.8	8.47e-01	0	56	104	367001600	61	31251
2026-01-08 04:29:16.78	154.81	7.05	-45.3	-63.6	3.8	8.45e-01	0	56	104	367001600	61	31007
2026-01-08 04:29:18.79	154.49	6.91	-45.3	-63.6	3.8	8.46e-01	0	56	104	367001600	61	30935
2026-01-08 04:29:20.82	154.16	6.77	-45.2	-63.6	3.8	8.44e-01	0	56	104	367001600	61	30863
2026-01-08 04:29:22.84	153.84	6.63	-45.2	-63.6	3.8	8.46e-01	0	56	104	367001600	61	30798
2026-01-08 04:29:24.86	153.53	6.49	-45.2	-63.6	3.8	8.46e-01	0	56	104	367001600	61	30732
2026-01-08 04:29:26.88	153.22	6.35	-45.2	-63.5	3.8	8.46e-01	0	56	104	367001600	61	30696
2026-01-08 04:29:28.90	152.91	6.21	-45.2	-63.5	3.8	8.46e-01	0	56	104	367001600	61	30701
2026-01-08 04:29:30.92	152.61	6.08	-45.2	-63.5	3.8	8.46e-01	0	56	104	367001600	61	30694
2026-01-08 04:29:32.95	152.31	5.94	-45.2	-63.5	3.8	8.47e-01	0	56	104	367001600	61	30729
2026-01-08 04:29:34.96	152.01	5.80	-45.2	-63.5	3.8	8.47e-01	0	56	104	367001600	61	30695
2026-01-08 04:29:36.99	151.72	5.67	-45.2	-63.5	3.8	8.46e-01	0	56	104	367001600	61	30687
2026-01-08 04:29:39.01	151.43	5.53	-45.2	-63.5	3.8	8.45e-01	0	56	104	367001600	61	30690
2026-01-08 04:29:41.03	151.15	5.40	-45.2	-63.5	3.8	8.46e-01	0	56	104	367001600	61	30694
2026-01-08 04:29:43.05	150.87	5.26	-45.2	-63.5	3.8	8.45e-01	0	56	104	367001600	61	30664
2026-01-08 04:29:45.07	150.59	5.13	-45.2	-63.5	3.8	8.46e-01	0	56	104	367001600	61	30528
2026-01-08 04:29:47.09	150.32	5.00	-45.2	-63.5	3.8	8.47e-01	0	56	104	367001600	61	30669
2026-01-08 04:29:49.11	150.05	4.86	-45.2	-63.5	3.8	8.47e-01	0	56	104	367001600	61	30511
2026-01-08 04:29:51.13	149.79	4.73	-45.2	-63.5	3.8	8.46e-01	0	56	104	367001600	61	30592
2026-01-08 04:29:53.15	149.52	4.60	-45.2	-63.5	3.8	8.47e-01	0	56	104	367001600	61	30586
2026-01-08 04:29:55.17	149.27	4.47	-45.2	-63.5	3.8	8.46e-01	0	56	104	367001600	61	30587
2026-01-08 04:29:57.19	149.01	4.34	-45.2	-63.5	3.8	8.47e-01	0	56	104	367001600	61	30582
2026-01-08 04:29:59.21	148.76	4.21	-45.2	-63.5	3.8	8.44e-01	0	56	104	367001600	61	30572
2026-01-08 04:30:01.23	148.51	4.08	-45.2	-63.5	3.8	8.45e-01	0	56	104	367001600	61	30556
2026-01-08 04:30:03.25	148.26	3.95	-45.2	-63.5	3.8	8.46e-01	0	56	104	367001600	61	30585
2026-01-08 04:30:05.27	148.02	3.82	-45.2	-63.5	3.8	8.46e-01	0	56	104	367001600	61	30573
2026-01-08 04:30:07.29	147.78	3.70	-45.2	-63.5	3.8	8.47e-01	0	56	104	367001600	61	30607
2026-01-08 04:30:09.31	147.54	3.57	-45.2	-63.5	3.8	8.47e-01	0	56	104	367001600	61	30583
2026-01-08 04:30:11.33	147.31	3.44	-45.2	-63.5	3.8	8.46e-01	0	56	104	367001600	61	30609
2026-01-08 04:30:13.35	147.08	3.32	-45.1	-63.5	3.8	8.46e-01	0	56	104	367001600	61	30588
2026-01-08 04:30:15.37	146.85	3.19	-45.2	-63.5	3.8	8.45e-01	0	56	104	367001600	61	30553
2026-01-08 04:30:17.40	146.62	3.07	-45.2	-63.5	3.8	8.45e-01	0	56	104	367001600	61	30614
2026-01-08 04:30:19.42	146.40	2.94	-45.2	-63.5	3.8	8.45e-01	0	56	104	367001600	61	30558
2026-01-08 04:30:21.44	146.18	2.82	-45.1	-63.5	3.8	8.45e-01	0	56	104	367001600	61	30581
2026-01-08 04:30:23.46	145.96	2.70	-45.1	-63.5	3.8	8.46e-01	0	56	104	367001600	61	30468
2026-01-08 04:30:25.48	145.75	2.57	-45.1	-63.5	3.8	8.47e-01	0	56	104	367001600	61	30531
2026-01-08 04:30:27.50	145.53	2.45	-45.1	-63.5	3.8	8.46e-01	0	56	104	367001600	61	30526
2026-01-08 04:30:29.52	145.32	2.33	-45.2	-63.5	3.8	8.47e-01	0	56	104	367001600	61	30544
2026-01-08 04:30:31.54	145.12	2.21	-45.1	-63.5	3.8	8.46e-01	0	56	104	367001600	61	30520
2026-01-08 04:30:33.56	144.91	2.09	-45.1	-63.5	3.8	8.46e-01	0	56	104	367001600	61	30542
2026-01-08 04:30:35.58	144.71	1.97	-45.1	-63.5	3.8	8.46e-01	0	56	104	367001600	61	30555

#Closed at: 2026-01-08 04:30:36
#Recorded file [367 MB]: D:/lorett/data/31039_260108_072210.dat