passes_logs/2026/01/08/R2.0S_Moscow/R2.0S_Moscow__20260108_000533_SUOMI_NPP_rec.log

#Pass ID: 20260108_000533_SUOMI NPP
#Satellite: SUOMI NPP
#Configuration: NPP
#almurnet v.1.7.20251203
#Start time: 2026-01-08 00:05:33

#Version: 2.2.20231116
#Station: R2.0S_Moscow
#Location: 37.707566 lon 55.798166 lat
#TLE: 1 37849U 11061A   26005.94084933  .00000134  00000+0  84554-4 0  9990
#TLE: 2 37849  98.7803 308.0679 0002567  79.1029 281.0436 14.19522657735426

#Time	Az	El	Level	Level2	SNR	BER	BlckErr	Temp	State	Recorded	gain1	gain2
2026-01-08 00:05:33.18	14.73	2.00	-43.5	-58.0	3.8	1.49e+00	0	48	0	0	59	18187
2026-01-08 00:05:37.20	14.68	2.26	-43.5	-58.0	3.8	1.49e+00	0	48	104	0	58	19187
2026-01-08 00:05:41.24	14.64	2.52	-43.5	-58.0	3.8	1.49e+00	0	48	104	0	58	19267
2026-01-08 00:05:45.28	14.59	2.78	-43.5	-58.0	3.8	1.49e+00	0	48	104	0	58	19176
2026-01-08 00:05:49.31	14.54	3.04	-43.5	-58.0	3.8	1.49e+00	0	49	104	0	58	19210
2026-01-08 00:05:53.35	14.49	3.31	-43.5	-57.9	3.8	1.49e+00	0	49	104	0	58	19114
2026-01-08 00:05:57.39	14.44	3.58	-43.5	-57.9	3.8	1.49e+00	0	49	104	0	58	19110
2026-01-08 00:06:01.43	14.38	3.85	-43.5	-57.9	3.8	1.49e+00	0	49	104	0	58	19160
2026-01-08 00:06:05.47	14.33	4.13	-43.5	-57.9	3.8	1.49e+00	0	49	104	0	58	18983
2026-01-08 00:06:09.50	14.27	4.41	-43.5	-57.9	3.8	1.49e+00	0	50	104	0	58	18965
2026-01-08 00:06:13.54	14.21	4.69	-43.5	-57.7	3.8	1.49e+00	0	50	104	0	58	18705
2026-01-08 00:06:17.58	14.16	4.97	-43.5	-57.5	3.8	1.49e+00	0	50	104	0	58	18099
2026-01-08 00:06:21.62	14.10	5.26	-43.4	-57.1	3.8	1.49e+00	0	50	104	0	58	17386
2026-01-08 00:06:25.66	14.03	5.55	-43.4	-56.7	3.8	1.49e+00	0	51	104	0	58	16580
2026-01-08 00:06:29.70	13.97	5.84	-43.4	-56.7	3.8	1.49e+00	0	51	104	0	58	16607
2026-01-08 00:06:33.74	13.90	6.14	-43.5	-57.7	3.8	1.49e+00	0	51	104	0	58	18705
2026-01-08 00:06:37.78	13.84	6.44	-43.4	-56.9	3.8	1.49e+00	0	51	104	0	58	16910
2026-01-08 00:06:41.82	13.77	6.75	-42.9	-51.6	5.4	6.89e-01	0	51	0	2097152	57	9782
2026-01-08 00:06:45.85	13.70	7.05	-41.7	-47.4	9.1	4.30e-02	0	52	0	10485760	55	6730
2026-01-08 00:06:49.88	13.63	7.36	-40.8	-45.1	11.4	1.41e-03	0	52	0	17825792	53	5816
2026-01-08 00:06:53.91	13.55	7.68	-40.5	-44.5	12.0	2.52e-04	0	52	0	25165824	52	5765
2026-01-08 00:06:57.95	13.48	7.99	-40.8	-45.2	11.3	8.13e-04	0	52	0	32505856	52	6266
2026-01-08 00:07:01.98	13.40	8.32	-42.0	-48.6	7.7	7.18e-03	0	52	0	40894464	54	8264
2026-01-08 00:07:06.02	13.32	8.64	-40.6	-44.6	12.0	2.87e-04	0	52	0	46137344	53	5479
2026-01-08 00:07:10.06	13.23	8.97	-40.5	-44.4	12.2	2.50e-04	0	52	0	53477376	52	5717
2026-01-08 00:07:14.08	13.15	9.31	-40.5	-44.5	12.0	3.64e-04	0	53	0	61865984	52	5754
2026-01-08 00:07:18.11	13.06	9.65	-40.3	-44.1	12.6	1.33e-04	0	53	0	69206016	52	5469
2026-01-08 00:07:22.15	12.97	9.99	-40.3	-44.1	12.5	9.84e-05	0	53	0	76546048	52	5470
2026-01-08 00:07:26.18	12.88	10.34	-40.2	-43.9	12.8	7.40e-05	0	53	0	83886080	52	5365
2026-01-08 00:07:30.21	12.79	10.69	-40.1	-43.7	13.1	4.34e-05	0	53	0	91226112	52	5226
2026-01-08 00:07:34.24	12.69	11.05	-40.2	-43.8	13.0	2.82e-05	0	53	0	99614720	52	5290
2026-01-08 00:07:38.28	12.59	11.42	-40.0	-43.4	13.5	7.60e-06	0	53	0	106954752	52	5056
2026-01-08 00:07:42.32	12.48	11.79	-40.0	-43.3	13.6	3.80e-06	0	53	0	114294784	51	5337
2026-01-08 00:07:46.36	12.38	12.16	-39.9	-43.1	14.0	4.50e-06	0	54	0	121634816	51	5187
2026-01-08 00:07:50.39	12.27	12.54	-39.9	-43.0	14.2	7.00e-07	0	54	0	130023424	51	5126
2026-01-08 00:07:54.42	12.15	12.93	-39.9	-42.9	14.5	7.00e-07	0	54	0	137363456	51	5053
2026-01-08 00:07:58.46	12.04	13.32	-39.7	-42.5	14.9	0.00e+00	0	54	0	144703488	51	4863
2026-01-08 00:08:02.49	11.92	13.72	-39.6	-42.4	15.0	0.00e+00	0	54	0	152043520	51	4797
2026-01-08 00:08:06.52	11.79	14.12	-39.6	-42.3	15.1	0.00e+00	0	54	0	159383552	51	4750
2026-01-08 00:08:10.56	11.67	14.54	-39.5	-42.1	15.4	0.00e+00	0	54	0	167772160	50	4913
2026-01-08 00:08:14.59	11.53	14.96	-39.3	-41.9	15.7	0.00e+00	0	54	0	175112192	50	4775
2026-01-08 00:08:18.63	11.40	15.38	-39.1	-41.5	16.1	0.00e+00	0	54	0	182452224	50	4588
2026-01-08 00:08:22.67	11.26	15.82	-39.0	-41.4	16.3	0.00e+00	0	54	0	189792256	49	4766
2026-01-08 00:08:26.70	11.11	16.26	-38.9	-41.2	16.5	0.00e+00	0	54	0	197132288	49	4661
2026-01-08 00:08:30.73	10.96	16.71	-38.9	-41.2	16.5	0.00e+00	0	55	0	205520896	49	4683
2026-01-08 00:08:34.76	10.81	17.17	-38.9	-41.2	16.6	0.00e+00	0	54	0	212860928	49	4671
2026-01-08 00:08:38.79	10.65	17.63	-39.1	-41.4	16.4	0.00e+00	0	55	0	220200960	49	4782
2026-01-08 00:08:42.83	10.48	18.11	-39.2	-41.5	16.3	0.00e+00	0	55	0	227540992	49	4838
2026-01-08 00:08:46.86	10.31	18.59	-39.2	-41.5	16.4	0.00e+00	0	55	0	235929600	49	4838
2026-01-08 00:08:50.89	10.13	19.08	-39.2	-41.4	16.5	0.00e+00	0	55	0	243269632	49	4805
2026-01-08 00:08:54.93	9.95	19.59	-39.2	-41.4	16.5	0.00e+00	0	55	0	250609664	49	4813
2026-01-08 00:08:58.96	9.76	20.10	-39.1	-41.3	16.6	0.00e+00	0	55	0	257949696	49	4743
2026-01-08 00:09:03.00	9.56	20.62	-39.0	-41.2	16.8	0.00e+00	0	55	0	265289728	49	4658
2026-01-08 00:09:07.03	9.35	21.16	-38.9	-41.0	16.9	0.00e+00	0	55	0	273678336	49	4587
2026-01-08 00:09:11.06	9.14	21.70	-38.9	-41.1	16.9	0.00e+00	0	55	0	281018368	49	4619
2026-01-08 00:09:15.10	8.92	22.26	-39.2	-41.4	16.6	0.00e+00	0	55	0	288358400	49	4807
2026-01-08 00:09:19.13	8.69	22.83	-39.3	-41.6	16.4	0.00e+00	0	55	0	295698432	49	4884
2026-01-08 00:09:23.17	8.45	23.41	-39.0	-41.2	16.8	0.00e+00	0	55	0	304087040	49	4666
2026-01-08 00:09:27.21	8.20	24.01	-38.8	-40.9	17.1	0.00e+00	0	55	0	311427072	49	4503
2026-01-08 00:09:31.24	7.94	24.62	-39.3	-41.6	16.5	0.00e+00	0	55	0	318767104	49	4898
2026-01-08 00:09:35.28	7.67	25.24	-40.0	-42.6	15.5	0.00e+00	0	55	0	326107136	50	5190
2026-01-08 00:09:39.32	7.38	25.87	-40.1	-42.7	15.4	0.00e+00	0	56	0	333447168	51	4933
2026-01-08 00:09:43.35	7.09	26.52	-40.2	-42.9	15.2	0.00e+00	0	56	0	341835776	51	5064
2026-01-08 00:09:47.38	6.78	27.19	-40.5	-43.4	14.7	7.00e-07	0	55	0	349175808	51	5384
2026-01-08 00:09:51.41	6.46	27.87	-40.7	-43.8	14.3	7.00e-07	0	56	0	356515840	52	5281
2026-01-08 00:09:55.45	6.12	28.57	-40.3	-43.1	14.9	0.00e+00	0	56	0	363855872	52	4917
2026-01-08 00:09:59.49	5.77	29.28	-40.3	-43.1	14.9	0.00e+00	0	56	0	371195904	52	4874
2026-01-08 00:10:03.52	5.40	30.01	-41.1	-44.4	13.8	6.80e-06	0	56	0	379584512	52	5660
2026-01-08 00:10:07.56	5.01	30.76	-41.3	-44.8	13.4	1.14e-05	0	56	0	386924544	53	5623
2026-01-08 00:10:11.60	4.61	31.53	-41.2	-44.5	13.6	2.20e-06	0	56	0	394264576	53	5464
2026-01-08 00:10:15.63	4.18	32.32	-41.9	-46.0	12.1	2.32e-04	0	56	0	401604608	54	6080
2026-01-08 00:10:19.67	3.73	33.12	-41.9	-45.9	12.1	2.26e-04	0	56	0	409993216	55	5708
2026-01-08 00:10:23.71	3.26	33.95	-42.1	-46.5	11.4	3.15e-04	0	56	0	417333248	55	6124
2026-01-08 00:10:27.74	2.76	34.79	-41.7	-45.5	12.6	1.87e-04	0	56	0	424673280	55	5420
2026-01-08 00:10:31.77	2.23	35.66	-41.5	-45.1	13.0	5.41e-05	0	56	0	432013312	54	5482
2026-01-08 00:10:35.81	1.68	36.55	-42.6	-47.7	10.5	4.05e-03	0	56	0	439353344	55	6980
2026-01-08 00:10:39.84	1.09	37.46	-42.1	-46.3	11.9	2.44e-03	0	56	0	447741952	56	5642
2026-01-08 00:10:43.88	0.46	38.39	-41.6	-45.5	12.7	1.39e-04	0	56	0	455081984	54	5743
2026-01-08 00:10:47.90	359.80	39.34	-41.6	-45.4	12.7	1.34e-04	0	56	0	462422016	54	5666
2026-01-08 00:10:51.94	359.10	40.31	-41.9	-46.0	12.2	1.83e-04	0	56	0	469762048	54	6088
2026-01-08 00:10:55.97	358.35	41.31	-41.9	-46.0	12.3	1.40e-04	0	56	0	477102080	54	6081
2026-01-08 00:11:00.01	357.56	42.33	-41.4	-45.0	13.2	1.98e-05	0	56	0	485490688	54	5437
2026-01-08 00:11:04.04	356.71	43.37	-41.2	-44.7	13.4	5.30e-06	0	56	0	492830720	54	5253
2026-01-08 00:11:08.07	355.80	44.43	-40.3	-43.2	14.9	0.00e+00	0	56	0	500170752	52	4950
2026-01-08 00:11:12.10	354.83	45.51	-40.3	-43.1	15.2	0.00e+00	0	56	0	507510784	51	5217
2026-01-08 00:11:16.14	353.78	46.62	-40.4	-43.5	14.8	0.00e+00	0	56	0	514850816	52	5111
2026-01-08 00:11:20.17	352.66	47.74	-40.7	-43.8	14.5	1.50e-06	0	56	0	523239424	52	5305
2026-01-08 00:11:24.21	351.45	48.88	-40.1	-43.0	15.2	0.00e+00	0	56	0	530579456	52	4838
2026-01-08 00:11:28.25	350.15	50.03	-39.2	-41.6	16.7	0.00e+00	0	56	0	537919488	50	4602
2026-01-08 00:11:32.29	348.74	51.20	-39.2	-41.3	17.0	0.00e+00	0	56	0	545259520	49	4754
2026-01-08 00:11:36.32	347.22	52.38	-39.3	-41.5	16.8	0.00e+00	0	56	0	553648128	49	4855
2026-01-08 00:11:40.36	345.57	53.56	-40.5	-43.5	14.9	0.00e+00	0	56	0	560988160	51	5439
2026-01-08 00:11:44.40	343.77	54.74	-40.7	-43.9	14.4	7.00e-07	0	56	0	568328192	52	5381
2026-01-08 00:11:48.44	341.82	55.92	-40.6	-43.5	14.8	7.00e-07	0	56	0	575668224	52	5130
2026-01-08 00:11:52.48	339.70	57.09	-40.6	-43.6	14.8	1.50e-06	0	56	0	583008256	52	5170
2026-01-08 00:11:56.51	337.39	58.24	-40.7	-43.7	14.6	7.00e-07	0	56	0	591396864	52	5264
2026-01-08 00:12:00.53	334.88	59.36	-40.3	-43.0	15.4	0.00e+00	0	56	0	598736896	52	4830
2026-01-08 00:12:04.55	332.15	60.45	-39.6	-42.0	16.3	0.00e+00	0	56	0	606076928	51	4596
2026-01-08 00:12:08.59	329.17	61.50	-39.0	-41.2	17.0	0.00e+00	0	56	0	613416960	49	4700
2026-01-08 00:12:12.63	325.93	62.48	-39.5	-41.9	16.4	0.00e+00	0	56	0	621805568	50	4762
2026-01-08 00:12:16.66	322.43	63.40	-38.7	-40.8	17.5	0.00e+00	0	56	0	629145600	49	4458
2026-01-08 00:12:20.70	318.65	64.23	-38.8	-40.8	17.5	0.00e+00	0	57	0	636485632	49	4461
2026-01-08 00:12:24.74	314.60	64.96	-40.4	-43.4	14.9	7.00e-07	0	57	0	643825664	52	5049
2026-01-08 00:12:28.77	310.32	65.58	-39.8	-42.4	15.6	0.00e+00	0	56	0	651165696	51	4780
2026-01-08 00:12:32.81	305.80	66.07	-39.2	-41.5	16.7	0.00e+00	0	57	0	659554304	49	4852
2026-01-08 00:12:36.85	301.10	66.43	-39.4	-41.8	16.4	0.00e+00	0	56	0	666894336	50	4733
2026-01-08 00:12:40.88	296.28	66.63	-39.4	-41.8	16.5	0.00e+00	0	56	0	674234368	49	5007
2026-01-08 00:12:44.92	291.40	66.68	-38.9	-41.1	17.1	0.00e+00	0	56	0	681574400	49	4612
2026-01-08 00:12:48.95	286.54	66.58	-39.4	-41.9	16.4	0.00e+00	0	56	0	688914432	49	5045
2026-01-08 00:12:52.99	281.75	66.32	-39.0	-41.3	17.0	0.00e+00	0	56	0	697303040	49	4715
2026-01-08 00:12:57.03	277.10	65.92	-40.1	-42.8	15.5	0.00e+00	0	56	0	704643072	50	5317
2026-01-08 00:13:01.06	272.66	65.38	-40.3	-43.1	15.3	0.00e+00	0	56	0	711983104	51	5197
2026-01-08 00:13:05.09	268.45	64.73	-38.6	-40.7	17.5	0.00e+00	0	56	0	719323136	49	4397
2026-01-08 00:13:09.13	264.49	63.96	-37.5	-39.3	18.8	0.00e+00	0	57	0	727711744	46	4458
2026-01-08 00:13:13.17	260.80	63.09	-38.1	-40.1	18.0	0.00e+00	0	56	0	735051776	46	4913
2026-01-08 00:13:17.20	257.38	62.15	-40.1	-42.9	15.3	0.00e+00	0	56	0	742391808	51	5070
2026-01-08 00:13:21.24	254.23	61.14	-39.4	-41.7	16.5	0.00e+00	0	57	0	749731840	49	4974
2026-01-08 00:13:25.27	251.33	60.08	-41.3	-44.6	13.6	1.50e-06	0	56	0	757071872	53	5526
2026-01-08 00:13:29.30	248.67	58.97	-40.1	-42.6	15.7	0.00e+00	0	57	0	765460480	51	4917
2026-01-08 00:13:33.34	246.22	57.83	-41.0	-44.3	13.9	1.17e-04	0	57	0	772800512	54	4990
2026-01-08 00:13:37.38	243.97	56.67	-41.9	-46.1	11.9	3.28e-04	0	56	0	780140544	54	6167
2026-01-08 00:13:41.41	241.91	55.49	-41.2	-44.9	13.2	6.80e-06	0	57	0	787480576	53	5686
2026-01-08 00:13:45.45	240.01	54.31	-40.4	-43.0	15.3	0.00e+00	0	57	0	794820608	52	4829
2026-01-08 00:13:49.48	238.27	53.12	-40.7	-43.5	14.8	0.00e+00	0	57	0	803209216	52	5129
2026-01-08 00:13:53.52	236.66	51.94	-40.6	-43.3	15.0	7.00e-07	0	57	0	810549248	53	4712
2026-01-08 00:13:57.56	235.17	50.76	-40.1	-42.4	15.9	0.00e+00	0	57	0	817889280	51	4782
2026-01-08 00:14:01.59	233.80	49.60	-41.3	-44.4	13.9	7.00e-07	0	57	0	825229312	53	5393
2026-01-08 00:14:05.62	232.53	48.45	-41.2	-44.2	14.1	2.44e-05	0	57	0	833617920	54	4940
2026-01-08 00:14:09.65	231.35	47.31	-40.5	-43.1	15.2	7.00e-07	0	56	0	840957952	52	4871
2026-01-08 00:14:13.68	230.26	46.19	-42.1	-45.9	12.3	6.17e-05	0	57	0	848297984	54	6043
2026-01-08 00:14:17.71	229.23	45.09	-42.4	-46.3	12.1	4.63e-04	0	56	0	855638016	56	5620
2026-01-08 00:14:21.74	228.28	44.01	-41.8	-45.3	12.9	5.26e-05	0	57	0	862978048	55	5296
2026-01-08 00:14:25.78	227.39	42.95	-40.1	-42.5	15.8	0.00e+00	0	57	0	871366656	52	4574
2026-01-08 00:14:29.82	226.56	41.91	-41.7	-45.0	13.2	6.10e-06	0	57	0	878706688	53	5750
2026-01-08 00:14:33.85	225.77	40.90	-43.0	-47.6	10.7	1.87e-03	0	57	0	886046720	57	6202
2026-01-08 00:14:37.89	225.04	39.91	-41.5	-44.7	13.5	9.10e-06	0	57	0	893386752	54	5271
2026-01-08 00:14:41.93	224.35	38.93	-41.1	-44.0	14.2	1.50e-06	0	56	0	900726784	53	5135
2026-01-08 00:14:45.96	223.70	37.99	-42.3	-46.1	12.1	1.20e-04	0	57	0	909115392	55	5843
2026-01-08 00:14:50.00	223.08	37.06	-42.9	-47.4	10.9	2.96e-03	0	57	0	916455424	57	6034
2026-01-08 00:14:54.03	222.51	36.15	-42.9	-47.5	10.8	7.89e-03	0	57	0	923795456	57	6089
2026-01-08 00:14:58.06	221.96	35.27	-42.6	-46.8	11.5	3.54e-04	0	57	0	931135488	56	5955
2026-01-08 00:15:02.10	221.44	34.41	-41.3	-44.3	13.8	1.50e-06	0	56	0	938475520	54	5036
2026-01-08 00:15:06.13	220.95	33.57	-42.0	-45.7	12.5	9.23e-05	0	57	0	946864128	54	5873
2026-01-08 00:15:10.16	220.48	32.75	-41.6	-44.9	13.3	2.67e-05	0	56	0	954204160	55	5048
2026-01-08 00:15:14.20	220.04	31.95	-41.9	-45.5	12.8	1.61e-04	0	57	0	961544192	54	5786
2026-01-08 00:15:18.23	219.62	31.16	-40.2	-42.7	15.5	0.00e+00	0	57	0	968884224	52	4698
2026-01-08 00:15:22.26	219.21	30.40	-41.0	-43.9	14.4	0.00e+00	0	57	0	977272832	52	5346
2026-01-08 00:15:26.30	218.83	29.66	-40.9	-43.8	14.4	0.00e+00	0	57	0	984612864	52	5325
2026-01-08 00:15:30.34	218.46	28.93	-42.9	-47.5	10.8	1.41e-03	0	57	0	991952896	56	6486
2026-01-08 00:15:34.37	218.12	28.22	-42.4	-46.4	11.9	7.95e-04	0	57	0	999292928	56	5698
2026-01-08 00:15:38.41	217.78	27.52	-41.9	-45.5	12.7	7.62e-05	0	57	0	1006632960	55	5412
2026-01-08 00:15:42.44	217.46	26.85	-41.5	-44.7	13.4	1.29e-05	0	56	0	1015021568	54	5264
2026-01-08 00:15:46.47	217.16	26.18	-40.6	-43.2	14.7	0.00e+00	0	57	0	1022361600	53	4698
2026-01-08 00:15:50.50	216.86	25.54	-40.8	-43.7	14.4	7.00e-07	0	57	0	1029701632	53	4963
2026-01-08 00:15:54.53	216.58	24.90	-41.3	-44.6	13.5	1.60e-05	0	57	0	1037041664	53	5478
2026-01-08 00:15:58.56	216.31	24.29	-41.3	-44.5	13.6	7.60e-06	0	57	0	1044381696	53	5413
2026-01-08 00:16:02.60	216.06	23.68	-42.0	-45.8	12.3	1.43e-04	0	57	0	1052770304	54	5972
2026-01-08 00:16:06.63	215.81	23.09	-42.2	-46.2	11.8	7.10e-04	0	57	0	1060110336	55	5889
2026-01-08 00:16:10.67	215.57	22.51	-41.4	-44.7	13.4	4.11e-05	0	57	0	1067450368	54	5230
2026-01-08 00:16:14.71	215.34	21.94	-40.4	-43.1	14.9	0.00e+00	0	57	0	1074790400	52	4902
2026-01-08 00:16:18.74	215.12	21.39	-40.1	-42.7	15.4	0.00e+00	0	57	0	1083179008	52	4662
2026-01-08 00:16:22.78	214.90	20.84	-40.3	-42.9	15.1	0.00e+00	0	57	0	1090519040	52	4771
2026-01-08 00:16:26.81	214.70	20.31	-40.5	-43.3	14.7	0.00e+00	0	57	0	1097859072	52	5020
2026-01-08 00:16:30.85	214.50	19.79	-40.7	-43.6	14.4	0.00e+00	0	57	0	1105199104	52	5175
2026-01-08 00:16:34.88	214.31	19.28	-41.1	-44.2	13.8	3.00e-06	0	57	0	1112539136	52	5569
2026-01-08 00:16:38.92	214.12	18.78	-41.0	-44.1	13.8	3.80e-06	0	56	0	1120927744	52	5513
2026-01-08 00:16:42.95	213.94	18.29	-41.1	-44.3	13.6	9.90e-06	0	57	0	1128267776	52	5633
2026-01-08 00:16:46.99	213.77	17.80	-41.7	-45.3	12.6	7.01e-05	0	57	0	1135607808	53	5954
2026-01-08 00:16:51.02	213.60	17.33	-41.8	-45.6	12.2	2.52e-04	0	57	0	1142947840	54	5843
2026-01-08 00:16:55.06	213.44	16.87	-41.5	-44.9	13.0	4.88e-05	0	57	0	1150287872	54	5384
2026-01-08 00:16:59.09	213.28	16.41	-40.8	-43.8	14.1	1.50e-06	0	57	0	1158676480	53	5002
2026-01-08 00:17:03.12	213.13	15.96	-40.2	-42.8	15.1	0.00e+00	0	56	0	1166016512	52	4731
2026-01-08 00:17:07.16	212.98	15.52	-40.0	-42.5	15.3	0.00e+00	0	56	0	1173356544	51	4867
2026-01-08 00:17:11.19	212.84	15.09	-40.5	-43.3	14.6	7.00e-07	0	57	0	1180696576	51	5319
2026-01-08 00:17:15.22	212.70	14.67	-40.8	-43.9	13.9	7.00e-07	0	57	0	1189085184	52	5344
2026-01-08 00:17:19.26	212.57	14.25	-41.2	-44.5	13.2	1.44e-05	0	57	0	1196425216	53	5441
2026-01-08 00:17:23.29	212.44	13.84	-41.2	-44.6	13.1	1.75e-05	0	57	0	1203765248	53	5500
2026-01-08 00:17:27.32	212.31	13.43	-41.1	-44.5	13.2	1.98e-05	0	57	0	1211105280	53	5419
2026-01-08 00:17:31.36	212.19	13.03	-40.9	-44.1	13.6	4.50e-06	0	57	0	1218445312	53	5169
2026-01-08 00:17:35.40	212.07	12.64	-40.7	-43.7	14.0	3.80e-06	0	57	0	1226833920	53	4974
2026-01-08 00:17:39.43	211.96	12.26	-40.8	-43.8	13.8	1.50e-06	0	57	0	1234173952	53	5041
2026-01-08 00:17:43.46	211.84	11.88	-40.7	-43.9	13.8	6.80e-06	0	57	0	1241513984	53	5053
2026-01-08 00:17:47.49	211.74	11.50	-40.9	-44.1	13.4	1.44e-05	0	57	0	1248854016	53	5218
2026-01-08 00:17:51.53	211.63	11.14	-40.9	-44.1	13.4	7.60e-06	0	57	0	1256194048	53	5196
2026-01-08 00:17:55.56	211.53	10.77	-41.0	-44.3	13.2	2.21e-05	0	57	0	1264582656	53	5307
2026-01-08 00:17:59.60	211.43	10.41	-41.2	-44.7	12.8	5.64e-05	0	57	0	1271922688	53	5561
2026-01-08 00:18:03.64	211.33	10.06	-41.2	-44.8	12.7	5.64e-05	0	57	0	1279262720	53	5594
2026-01-08 00:18:07.67	211.23	9.71	-41.1	-44.6	12.8	1.15e-04	0	57	0	1286602752	53	5487
2026-01-08 00:18:11.71	211.14	9.37	-41.2	-44.8	12.5	5.87e-05	0	57	0	1294991360	53	5643
2026-01-08 00:18:15.75	211.05	9.03	-41.2	-44.9	12.4	1.82e-04	0	57	0	1302331392	53	5696
2026-01-08 00:18:19.78	210.96	8.70	-41.3	-45.1	12.1	2.35e-04	0	57	0	1309671424	53	5824
2026-01-08 00:18:23.82	210.87	8.37	-41.2	-45.1	12.2	2.72e-04	0	57	0	1317011456	53	5790
2026-01-08 00:18:27.86	210.79	8.04	-41.3	-45.3	11.9	3.00e-04	0	57	0	1324351488	53	5941
2026-01-08 00:18:31.89	210.71	7.72	-45.0	-59.6	3.8	1.49e+00	0	57	104	1326448640	60	20683
2026-01-08 00:18:35.93	210.63	7.40	-45.2	-59.9	3.8	1.49e+00	0	57	104	1326448640	61	20120
2026-01-08 00:18:39.96	210.55	7.09	-45.2	-59.8	3.8	1.49e+00	0	57	104	1326448640	61	20005
2026-01-08 00:18:44.00	210.47	6.78	-45.2	-59.9	3.8	1.49e+00	0	57	104	1326448640	61	20100
2026-01-08 00:18:48.04	210.40	6.47	-45.1	-59.8	3.8	1.49e+00	0	57	104	1326448640	61	20046
2026-01-08 00:18:52.08	210.33	6.17	-45.1	-59.8	3.8	1.49e+00	0	57	104	1326448640	61	19995
2026-01-08 00:18:56.11	210.26	5.87	-45.1	-59.8	3.8	1.49e+00	0	57	104	1326448640	61	19981
2026-01-08 00:19:00.15	210.19	5.57	-45.1	-59.8	3.8	1.49e+00	0	57	104	1326448640	61	19918
2026-01-08 00:19:04.19	210.12	5.28	-45.1	-59.8	3.8	1.49e+00	0	57	104	1326448640	61	19957
2026-01-08 00:19:08.22	210.05	4.99	-45.1	-59.8	3.8	1.49e+00	0	57	104	1326448640	61	19893
2026-01-08 00:19:12.26	209.99	4.71	-45.1	-59.8	3.8	1.49e+00	0	57	104	1326448640	61	19874
2026-01-08 00:19:16.30	209.92	4.42	-45.1	-59.7	3.8	1.49e+00	0	57	104	1326448640	61	19807
2026-01-08 00:19:20.33	209.86	4.14	-45.1	-59.8	3.8	1.49e+00	0	57	104	1326448640	61	19857
2026-01-08 00:19:24.36	209.80	3.86	-45.1	-59.8	3.8	1.49e+00	0	57	104	1326448640	61	19845
2026-01-08 00:19:28.40	209.74	3.59	-45.1	-59.7	3.8	1.49e+00	0	57	104	1326448640	61	19809
2026-01-08 00:19:32.44	209.69	3.32	-45.1	-59.7	3.8	1.49e+00	0	57	104	1326448640	61	19840
2026-01-08 00:19:36.48	209.63	3.05	-45.1	-59.7	3.8	1.49e+00	0	57	104	1326448640	61	19838
2026-01-08 00:19:40.52	209.57	2.78	-45.1	-59.8	3.8	1.49e+00	0	57	104	1326448640	61	19847
2026-01-08 00:19:44.55	209.52	2.52	-45.1	-59.7	3.8	1.49e+00	0	56	104	1326448640	61	19832
2026-01-08 00:19:48.59	209.47	2.25	-45.1	-59.8	3.8	1.49e+00	0	57	104	1326448640	61	19852
2026-01-08 00:19:52.63	209.41	1.99	-45.0	-59.7	3.8	1.49e+00	0	57	104	1326448640	61	19801

#Closed at: 2026-01-08 00:19:54
#Recorded file [1326 MB]: D:/lorett/data/31039_260108_030532.dat