passes_logs/2026/01/08/R2.0S_Moscow/R2.0S_Moscow__20260108_123650_FENGYUN_3D_rec.log

#Pass ID: 20260108_123650_FENGYUN 3D
#Satellite: FENGYUN 3D
#Configuration: FENGYUN 3D
#almurnet v.1.7.20251203
#Start time: 2026-01-08 12:36:52

#Version: 2.2.20231116
#Station: R2.0S_Moscow
#Location: 37.707566 lon 55.798166 lat
#TLE: 1 43010U 17072A   26006.26440730  .00000376  00000+0  19957-3 0  9994
#TLE: 2 43010  98.9925 337.9455 0002045 123.9195 236.2175 14.19693586422016

#Time	Az	El	Level	Level2	SNR	BER	BlckErr	Temp	State	Recorded	gain1	gain2
2026-01-08 12:36:52.95	180.00	2.17	-44.0	-55.4	3.8	8.46e-01	0	56	0	0	59	13513
2026-01-08 12:36:56.99	180.13	2.43	-44.0	-55.4	3.8	8.46e-01	0	56	104	0	59	13526
2026-01-08 12:37:01.03	180.27	2.69	-44.0	-55.4	3.8	8.46e-01	0	57	104	0	59	13493
2026-01-08 12:37:05.07	180.41	2.95	-44.0	-55.4	3.8	8.46e-01	0	57	104	0	59	13505
2026-01-08 12:37:09.10	180.55	3.21	-44.0	-55.4	3.8	8.48e-01	0	57	104	0	59	13497
2026-01-08 12:37:13.39	180.70	3.49	-44.0	-55.4	3.8	8.46e-01	0	57	104	0	59	13492
2026-01-08 12:37:17.43	180.85	3.76	-44.0	-55.4	3.8	8.47e-01	0	57	104	0	59	13421
2026-01-08 12:37:21.47	181.00	4.03	-44.0	-55.4	3.8	8.46e-01	0	57	104	0	59	13448
2026-01-08 12:37:25.51	181.15	4.30	-44.0	-55.0	3.8	8.46e-01	0	57	104	0	59	12927
2026-01-08 12:37:29.54	181.30	4.57	-43.9	-54.5	3.8	8.46e-01	0	57	104	0	59	12199
2026-01-08 12:37:33.58	181.46	4.85	-44.0	-55.0	3.8	8.46e-01	0	57	104	0	59	12892
2026-01-08 12:37:37.62	181.62	5.13	-44.0	-55.2	3.8	8.46e-01	0	57	104	0	59	13115
2026-01-08 12:37:41.67	181.78	5.41	-43.9	-54.7	3.8	8.45e-01	0	57	104	0	59	12473
2026-01-08 12:37:45.71	181.94	5.70	-43.7	-52.9	4.0	8.44e-01	0	57	104	0	59	10114
2026-01-08 12:37:49.75	182.11	5.99	-43.3	-50.7	4.6	8.19e-01	0	57	0	0	58	8361
2026-01-08 12:37:53.80	182.28	6.28	-43.0	-49.3	5.3	7.32e-01	0	57	0	0	57	7502
2026-01-08 12:37:57.84	182.46	6.58	-42.5	-47.8	6.3	3.08e-01	0	58	0	15728640	57	6344
2026-01-08 12:38:01.89	182.64	6.88	-41.6	-45.9	8.0	9.11e-02	0	58	0	38797312	55	5710
2026-01-08 12:38:05.93	182.82	7.18	-40.7	-44.2	9.8	1.70e-02	0	58	0	61865984	53	5221
2026-01-08 12:38:09.97	183.00	7.48	-39.7	-42.5	11.6	9.73e-04	0	58	0	84934656	51	4844
2026-01-08 12:38:14.01	183.19	7.79	-38.8	-41.2	12.9	1.02e-04	0	58	0	106954752	49	4692
2026-01-08 12:38:18.06	183.38	8.10	-39.1	-41.5	12.6	9.61e-05	0	58	0	130023424	49	4861
2026-01-08 12:38:22.09	183.58	8.42	-39.0	-41.4	12.9	2.51e-05	0	58	0	149946368	48	5081
2026-01-08 12:38:26.13	183.78	8.74	-37.9	-39.9	14.2	4.50e-06	0	58	0	173015040	47	4536
2026-01-08 12:38:30.17	183.99	9.06	-37.9	-39.9	14.2	2.20e-06	0	58	0	195035136	47	4533
2026-01-08 12:38:34.21	184.19	9.39	-37.6	-39.6	14.6	1.10e-06	0	58	0	218103808	47	4374
2026-01-08 12:38:38.25	184.41	9.72	-37.7	-39.7	14.6	1.10e-06	0	58	0	241172480	46	4658
2026-01-08 12:38:42.29	184.63	10.06	-37.6	-39.6	14.7	1.10e-06	0	58	0	263192576	46	4612
2026-01-08 12:38:46.33	184.85	10.40	-37.6	-39.6	14.7	1.10e-06	0	58	0	286261248	46	4615
2026-01-08 12:38:50.36	185.08	10.74	-37.6	-39.5	14.8	0.00e+00	0	58	0	309329920	46	4581
2026-01-08 12:38:54.40	185.31	11.09	-37.5	-39.4	14.9	0.00e+00	0	58	0	331350016	46	4519
2026-01-08 12:38:58.44	185.55	11.44	-37.5	-39.4	14.9	0.00e+00	0	58	0	354418688	46	4522
2026-01-08 12:39:02.48	185.79	11.80	-37.3	-39.2	15.1	0.00e+00	0	58	0	377487360	46	4435
2026-01-08 12:39:06.52	186.04	12.16	-37.2	-39.0	15.3	0.00e+00	0	58	0	399507456	46	4339
2026-01-08 12:39:10.56	186.30	12.53	-37.0	-38.8	15.6	0.00e+00	0	58	0	422576128	46	4231
2026-01-08 12:39:14.60	186.56	12.90	-37.0	-38.7	15.6	0.00e+00	0	58	0	445644800	45	4438
2026-01-08 12:39:18.64	186.83	13.28	-36.9	-38.7	15.7	1.10e-06	0	58	0	467664896	45	4426
2026-01-08 12:39:22.68	187.10	13.67	-36.9	-38.7	15.7	0.00e+00	0	58	0	490733568	45	4423
2026-01-08 12:39:26.72	187.38	14.06	-36.8	-38.5	16.0	0.00e+00	0	58	0	513802240	45	4312
2026-01-08 12:39:30.75	187.67	14.45	-36.6	-38.2	16.2	0.00e+00	0	58	0	535822336	45	4189
2026-01-08 12:39:34.79	187.97	14.85	-36.6	-38.3	16.2	0.00e+00	0	58	0	558891008	45	4208
2026-01-08 12:39:38.83	188.27	15.26	-36.5	-38.2	16.3	0.00e+00	0	58	0	581959680	44	4433
2026-01-08 12:39:42.86	188.58	15.67	-36.3	-38.0	16.5	0.00e+00	0	58	0	603979776	44	4299
2026-01-08 12:39:46.90	188.90	16.09	-36.1	-37.8	16.8	0.00e+00	0	58	0	627048448	44	4194
2026-01-08 12:39:50.94	189.23	16.51	-36.1	-37.7	16.8	0.00e+00	0	58	0	649068544	44	4189
2026-01-08 12:39:54.97	189.57	16.95	-36.1	-37.7	16.9	0.00e+00	0	58	0	672137216	44	4157
2026-01-08 12:39:59.01	189.92	17.39	-35.6	-37.1	17.2	0.00e+00	0	58	0	695205888	43	4135
2026-01-08 12:40:03.05	190.28	17.83	-35.3	-36.7	17.6	0.00e+00	0	58	0	718274560	42	4186
2026-01-08 12:40:07.09	190.65	18.29	-35.3	-36.8	17.6	0.00e+00	0	58	0	740294656	42	4224
2026-01-08 12:40:11.13	191.03	18.75	-35.5	-37.1	17.4	0.00e+00	0	58	0	763363328	42	4345
2026-01-08 12:40:15.16	191.42	19.21	-35.5	-37.0	17.4	0.00e+00	0	58	0	786432000	42	4318
2026-01-08 12:40:19.20	191.82	19.69	-35.4	-36.9	17.5	0.00e+00	0	58	0	808452096	42	4261
2026-01-08 12:40:23.24	192.23	20.18	-35.4	-36.9	17.5	0.00e+00	0	59	0	831520768	42	4269
2026-01-08 12:40:27.28	192.66	20.67	-35.0	-36.4	18.0	0.00e+00	0	58	0	853540864	42	4031
2026-01-08 12:40:31.32	193.10	21.17	-34.8	-36.3	18.2	0.00e+00	0	58	0	876609536	41	4202
2026-01-08 12:40:35.36	193.56	21.68	-34.8	-36.2	18.2	0.00e+00	0	58	0	899678208	41	4189
2026-01-08 12:40:39.40	194.03	22.19	-34.9	-36.3	18.2	0.00e+00	0	58	0	922746880	41	4214
2026-01-08 12:40:43.44	194.51	22.72	-34.8	-36.2	18.3	0.00e+00	0	58	0	944766976	41	4153
2026-01-08 12:40:47.48	195.01	23.26	-34.7	-36.1	18.4	0.00e+00	0	58	0	967835648	41	4120
2026-01-08 12:40:51.52	195.53	23.80	-34.5	-35.9	18.6	0.00e+00	0	58	0	990904320	41	4023
2026-01-08 12:40:55.56	196.07	24.35	-34.4	-35.8	18.7	0.00e+00	0	59	0	1012924416	40	4203
2026-01-08 12:40:59.60	196.63	24.92	-34.5	-35.8	18.6	0.00e+00	0	58	0	1035993088	40	4234
2026-01-08 12:41:03.64	197.20	25.49	-34.4	-35.8	18.7	0.00e+00	0	58	0	1058013184	40	4215
2026-01-08 12:41:07.68	197.80	26.07	-34.4	-35.7	18.7	0.00e+00	0	58	0	1081081856	40	4186
2026-01-08 12:41:11.72	198.42	26.66	-34.3	-35.7	18.8	0.00e+00	0	58	0	1104150528	40	4150
2026-01-08 12:41:15.76	199.06	27.26	-34.2	-35.6	18.9	0.00e+00	0	58	0	1127219200	40	4102
2026-01-08 12:41:19.79	199.72	27.87	-34.1	-35.5	19.0	0.00e+00	0	58	0	1149239296	40	4055
2026-01-08 12:41:23.83	200.41	28.49	-34.1	-35.4	19.1	0.00e+00	0	58	0	1172307968	40	4036
2026-01-08 12:41:27.87	201.13	29.12	-34.3	-35.6	18.9	0.00e+00	0	58	0	1195376640	40	4133
2026-01-08 12:41:31.91	201.87	29.76	-34.2	-35.5	19.0	0.00e+00	0	59	0	1217396736	40	4069
2026-01-08 12:41:35.94	202.65	30.40	-34.0	-35.3	19.2	0.00e+00	0	58	0	1240465408	40	3985
2026-01-08 12:41:39.98	203.45	31.06	-34.1	-35.4	19.2	0.00e+00	0	58	0	1262485504	39	4287
2026-01-08 12:41:44.02	204.29	31.72	-34.2	-35.5	19.1	0.00e+00	0	58	0	1285554176	39	4321
2026-01-08 12:41:48.06	205.17	32.40	-34.1	-35.4	19.2	0.00e+00	0	59	0	1308622848	39	4249
2026-01-08 12:41:52.10	206.08	33.08	-33.9	-35.2	19.4	0.00e+00	0	58	0	1331691520	39	4175
2026-01-08 12:41:56.14	207.03	33.77	-34.2	-35.6	19.0	0.00e+00	0	58	0	1353711616	39	4359
2026-01-08 12:42:00.18	208.01	34.46	-33.8	-35.0	19.5	0.00e+00	0	58	0	1376780288	39	4094
2026-01-08 12:42:04.22	209.05	35.16	-33.7	-35.0	19.6	0.00e+00	0	58	0	1399848960	39	4084
2026-01-08 12:42:08.26	210.12	35.87	-33.9	-35.2	19.4	0.00e+00	0	59	0	1421869056	39	4148
2026-01-08 12:42:12.29	211.24	36.58	-33.8	-35.1	19.5	0.00e+00	0	58	0	1444937728	39	4130
2026-01-08 12:42:16.33	212.41	37.29	-33.5	-34.7	19.9	0.00e+00	0	58	0	1466957824	38	4165
2026-01-08 12:42:20.37	213.64	38.01	-33.6	-34.8	19.8	0.00e+00	0	58	0	1490026496	38	4218
2026-01-08 12:42:24.41	214.91	38.72	-33.6	-34.9	19.7	0.00e+00	0	58	0	1513095168	38	4266
2026-01-08 12:42:28.44	216.25	39.43	-33.7	-35.0	19.7	0.00e+00	0	58	0	1536163840	38	4303
2026-01-08 12:42:32.48	217.64	40.14	-33.8	-35.1	19.6	0.00e+00	0	58	0	1558183936	38	4351
2026-01-08 12:42:36.52	219.09	40.85	-33.9	-35.1	19.5	0.00e+00	0	58	0	1581252608	38	4387
2026-01-08 12:42:40.56	220.61	41.55	-33.9	-35.2	19.5	0.00e+00	0	58	0	1604321280	38	4405
2026-01-08 12:42:44.60	222.19	42.24	-33.7	-35.0	19.7	0.00e+00	0	59	0	1626341376	38	4304
2026-01-08 12:42:48.63	223.84	42.91	-34.2	-35.5	19.2	0.00e+00	0	59	0	1649410048	38	4579
2026-01-08 12:42:52.67	225.56	43.57	-34.0	-35.3	19.4	0.00e+00	0	59	0	1671430144	39	4204
2026-01-08 12:42:56.71	227.35	44.21	-34.0	-35.3	19.3	0.00e+00	0	59	0	1694498816	39	4233
2026-01-08 12:43:00.75	229.21	44.83	-34.3	-35.6	19.1	0.00e+00	0	59	0	1717567488	39	4379
2026-01-08 12:43:04.79	231.14	45.43	-34.2	-35.6	19.1	0.00e+00	0	59	0	1739587584	39	4345
2026-01-08 12:43:08.83	233.15	46.00	-34.2	-35.5	19.1	0.00e+00	0	59	0	1762656256	39	4337
2026-01-08 12:43:12.86	235.22	46.53	-34.1	-35.4	19.4	0.00e+00	0	58	0	1785724928	39	4252
2026-01-08 12:43:16.90	237.36	47.03	-34.2	-35.5	19.3	0.00e+00	0	59	0	1808793600	39	4296
2026-01-08 12:43:20.94	239.58	47.49	-34.3	-35.6	19.1	0.00e+00	0	58	0	1830813696	39	4366
2026-01-08 12:43:24.98	241.85	47.92	-34.1	-35.4	19.4	0.00e+00	0	59	0	1853882368	39	4254
2026-01-08 12:43:29.01	244.18	48.29	-34.1	-35.4	19.4	0.00e+00	0	59	0	1875902464	39	4246
2026-01-08 12:43:33.05	246.56	48.62	-34.2	-35.5	19.2	0.00e+00	0	59	0	1898971136	39	4315
2026-01-08 12:43:37.09	248.99	48.89	-34.3	-35.6	19.1	0.00e+00	0	59	0	1922039808	39	4367
2026-01-08 12:43:41.14	251.47	49.11	-34.2	-35.5	19.2	0.00e+00	0	59	0	1944059904	39	4339
2026-01-08 12:43:45.17	253.96	49.28	-34.2	-35.4	19.3	0.00e+00	0	59	0	1967128576	39	4289
2026-01-08 12:43:49.21	256.48	49.38	-34.2	-35.5	19.2	0.00e+00	0	59	0	1990197248	39	4333
2026-01-08 12:43:53.25	259.02	49.43	-34.1	-35.4	19.3	0.00e+00	0	58	0	2013265920	39	4270
2026-01-08 12:43:57.28	261.55	49.42	-34.7	-36.1	18.5	0.00e+00	0	59	0	2035286016	40	4363
2026-01-08 12:44:01.32	264.08	49.36	-34.3	-35.6	19.0	0.00e+00	0	59	0	2058354688	40	4121
2026-01-08 12:44:05.36	266.60	49.23	-34.3	-35.6	19.0	0.00e+00	0	59	0	2080374784	40	4112
2026-01-08 12:44:09.40	269.09	49.05	-34.1	-35.4	19.3	0.00e+00	0	59	0	2103443456	40	4022
2026-01-08 12:44:13.44	271.54	48.81	-34.0	-35.3	19.4	0.00e+00	0	59	0	2126512128	39	4219
2026-01-08 12:44:17.47	273.95	48.52	-34.3	-35.6	19.1	0.00e+00	0	59	0	2148532224	39	4381
2026-01-08 12:44:21.51	276.32	48.18	-34.0	-35.3	19.4	0.00e+00	0	59	0	2171600896	39	4212
2026-01-08 12:44:25.55	278.63	47.79	-34.1	-35.3	19.3	0.00e+00	0	59	0	2194669568	39	4235
2026-01-08 12:44:29.59	280.88	47.35	-34.2	-35.5	19.2	0.00e+00	0	59	0	2216689664	39	4332
2026-01-08 12:44:33.62	283.06	46.88	-34.3	-35.6	19.1	0.00e+00	0	58	0	2239758336	39	4362
2026-01-08 12:44:37.66	285.18	46.37	-34.1	-35.3	19.7	0.00e+00	0	58	0	2262827008	39	4220
2026-01-08 12:44:41.70	287.23	45.83	-34.5	-35.8	19.2	0.00e+00	0	58	0	2284847104	39	4446
2026-01-08 12:44:45.74	289.20	45.25	-34.5	-35.7	19.3	0.00e+00	0	59	0	2307915776	39	4399
2026-01-08 12:44:49.77	291.11	44.65	-34.2	-35.4	19.6	0.00e+00	0	59	0	2330984448	39	4261
2026-01-08 12:44:53.81	292.94	44.03	-34.6	-35.9	19.2	0.00e+00	0	59	0	2353004544	39	4495
2026-01-08 12:44:57.85	294.70	43.38	-34.1	-35.3	19.6	0.00e+00	0	58	0	2376073216	40	3971
2026-01-08 12:45:01.89	296.40	42.72	-34.4	-35.7	19.3	0.00e+00	0	59	0	2398093312	40	4149
2026-01-08 12:45:05.93	298.02	42.04	-34.1	-35.3	19.6	0.00e+00	0	58	0	2421161984	40	3965
2026-01-08 12:45:09.97	299.58	41.35	-34.1	-35.3	19.6	0.00e+00	0	59	0	2444230656	40	3971
2026-01-08 12:45:14.01	301.08	40.66	-34.0	-35.1	19.9	0.00e+00	0	59	0	2467299328	39	4126
2026-01-08 12:45:18.05	302.51	39.95	-34.0	-35.2	19.8	0.00e+00	0	59	0	2489319424	39	4160
2026-01-08 12:45:22.09	303.88	39.24	-33.8	-34.9	20.0	0.00e+00	0	59	0	2512388096	39	4038
2026-01-08 12:45:26.14	305.19	38.53	-33.7	-34.8	20.1	0.00e+00	0	58	0	2535456768	39	3997
2026-01-08 12:45:30.18	306.45	37.82	-33.7	-34.8	20.1	0.00e+00	0	59	0	2557476864	39	3993
2026-01-08 12:45:34.22	307.66	37.11	-34.0	-35.2	19.8	0.00e+00	0	58	0	2580545536	39	4165
2026-01-08 12:45:38.26	308.81	36.40	-34.0	-35.2	19.8	0.00e+00	0	59	0	2603614208	39	4156
2026-01-08 12:45:42.31	309.92	35.69	-33.8	-35.0	19.9	0.00e+00	0	59	0	2625634304	39	4070
2026-01-08 12:45:46.35	310.98	34.99	-34.1	-35.3	19.6	0.00e+00	0	59	0	2648702976	39	4234
2026-01-08 12:45:50.39	311.99	34.30	-33.9	-35.1	19.8	0.00e+00	0	58	0	2671771648	39	4117
2026-01-08 12:45:54.42	312.96	33.61	-34.0	-35.2	19.7	0.00e+00	0	59	0	2693791744	39	4159
2026-01-08 12:45:58.46	313.90	32.93	-34.1	-35.3	19.6	0.00e+00	0	59	0	2716860416	39	4215
2026-01-08 12:46:02.50	314.80	32.25	-34.3	-35.5	19.4	0.00e+00	0	59	0	2739929088	39	4311
2026-01-08 12:46:06.54	315.66	31.59	-34.3	-35.4	19.5	0.00e+00	0	59	0	2761949184	39	4290
2026-01-08 12:46:10.58	316.49	30.93	-34.3	-35.5	19.4	0.00e+00	0	59	0	2785017856	39	4301
2026-01-08 12:46:14.62	317.28	30.28	-34.2	-35.3	19.5	0.00e+00	0	59	0	2808086528	39	4240
2026-01-08 12:46:18.66	318.05	29.64	-34.1	-35.3	19.5	0.00e+00	0	59	0	2830106624	39	4233
2026-01-08 12:46:22.71	318.78	29.00	-34.4	-35.7	19.2	0.00e+00	0	59	0	2853175296	39	4410
2026-01-08 12:46:26.74	319.49	28.38	-34.5	-35.8	19.1	0.00e+00	0	59	0	2876243968	39	4450
2026-01-08 12:46:30.78	320.17	27.77	-34.2	-35.4	19.4	0.00e+00	0	59	0	2898264064	39	4286
2026-01-08 12:46:34.82	320.83	27.17	-34.2	-35.3	19.5	0.00e+00	0	59	0	2921332736	39	4241
2026-01-08 12:46:38.86	321.46	26.57	-34.3	-35.5	19.3	0.00e+00	0	59	0	2944401408	39	4311
2026-01-08 12:46:42.90	322.08	25.99	-34.4	-35.7	19.1	0.00e+00	0	59	0	2967470080	39	4412
2026-01-08 12:46:46.94	322.67	25.41	-34.6	-35.8	19.0	0.00e+00	0	59	0	2989490176	39	4469
2026-01-08 12:46:50.98	323.24	24.85	-34.4	-35.6	19.1	0.00e+00	0	59	0	3012558848	39	4380
2026-01-08 12:46:55.01	323.79	24.29	-34.5	-35.7	19.1	0.00e+00	0	59	0	3034578944	39	4408
2026-01-08 12:46:59.05	324.32	23.74	-34.8	-36.1	18.6	0.00e+00	0	59	0	3057647616	40	4344
2026-01-08 12:47:03.09	324.83	23.20	-35.0	-36.4	18.3	0.00e+00	0	59	0	3080716288	40	4503
2026-01-08 12:47:07.13	325.33	22.68	-35.0	-36.3	18.3	0.00e+00	0	59	0	3102736384	40	4483
2026-01-08 12:47:11.17	325.81	22.15	-35.0	-36.3	18.4	0.00e+00	0	59	0	3125805056	40	4444
2026-01-08 12:47:15.21	326.28	21.64	-35.1	-36.4	18.2	0.00e+00	0	59	0	3148873728	40	4528
2026-01-08 12:47:19.25	326.73	21.14	-35.2	-36.5	18.1	0.00e+00	0	59	0	3171942400	40	4574
2026-01-08 12:47:23.29	327.17	20.64	-35.1	-36.4	18.1	0.00e+00	0	59	0	3193962496	41	4290
2026-01-08 12:47:27.32	327.59	20.16	-35.2	-36.5	18.1	0.00e+00	0	59	0	3217031168	41	4322
2026-01-08 12:47:31.36	328.01	19.68	-35.4	-36.8	17.8	0.00e+00	0	59	0	3239051264	41	4450
2026-01-08 12:47:35.40	328.41	19.21	-35.7	-37.1	17.5	0.00e+00	0	59	0	3262119936	41	4613
2026-01-08 12:47:39.45	328.80	18.74	-35.9	-37.3	17.2	0.00e+00	0	59	0	3285188608	42	4477
2026-01-08 12:47:43.48	329.17	18.29	-35.9	-37.4	17.2	0.00e+00	0	59	0	3307208704	42	4501
2026-01-08 12:47:47.52	329.54	17.84	-35.9	-37.3	17.2	0.00e+00	0	59	0	3330277376	42	4471
2026-01-08 12:47:51.56	329.90	17.40	-35.9	-37.3	17.2	0.00e+00	0	59	0	3353346048	42	4473
2026-01-08 12:47:55.59	330.25	16.96	-35.9	-37.4	17.1	0.00e+00	0	59	0	3376414720	42	4499
2026-01-08 12:47:59.63	330.58	16.53	-36.2	-37.7	16.8	0.00e+00	0	59	0	3398434816	42	4674
2026-01-08 12:48:03.67	330.91	16.11	-36.4	-38.0	16.4	0.00e+00	0	59	0	3421503488	43	4559
2026-01-08 12:48:07.71	331.23	15.70	-36.5	-38.0	16.3	0.00e+00	0	59	0	3443523584	43	4595
2026-01-08 12:48:11.75	331.55	15.29	-36.5	-38.1	16.3	0.00e+00	0	59	0	3466592256	43	4621
2026-01-08 12:48:15.79	331.85	14.88	-36.5	-38.1	16.2	0.00e+00	0	59	0	3489660928	43	4639
2026-01-08 12:48:19.82	332.15	14.49	-36.7	-38.3	16.0	0.00e+00	0	59	0	3511681024	43	4751
2026-01-08 12:48:23.86	332.44	14.10	-36.9	-38.6	15.9	0.00e+00	0	59	0	3534749696	44	4607
2026-01-08 12:48:27.90	332.72	13.71	-37.0	-38.7	15.7	0.00e+00	0	59	0	3557818368	44	4692
2026-01-08 12:48:31.93	332.99	13.33	-37.2	-38.9	15.5	0.00e+00	0	59	0	3579838464	44	4787
2026-01-08 12:48:35.98	333.26	12.95	-37.2	-38.9	15.5	0.00e+00	0	59	0	3602907136	44	4782
2026-01-08 12:48:40.02	333.53	12.59	-37.1	-38.8	15.5	0.00e+00	0	59	0	3625975808	44	4746
2026-01-08 12:48:44.05	333.78	12.22	-37.1	-38.8	15.5	0.00e+00	0	59	0	3647995904	44	4722
2026-01-08 12:48:48.09	334.03	11.86	-37.4	-39.2	15.1	0.00e+00	0	59	0	3671064576	45	4654
2026-01-08 12:48:52.13	334.28	11.51	-37.4	-39.2	15.0	0.00e+00	0	59	0	3694133248	45	4697
2026-01-08 12:48:56.17	334.52	11.16	-37.6	-39.5	14.6	2.20e-06	0	59	0	3716153344	45	4851
2026-01-08 12:49:00.21	334.75	10.81	-37.7	-39.6	14.5	0.00e+00	0	59	0	3739222016	46	4643
2026-01-08 12:49:04.25	334.98	10.47	-37.7	-39.7	14.4	3.40e-06	0	59	0	3762290688	46	4661
2026-01-08 12:49:08.29	335.21	10.13	-37.7	-39.7	14.3	0.00e+00	0	59	0	3784310784	46	4667
2026-01-08 12:49:12.33	335.43	9.80	-37.8	-39.8	14.2	2.20e-06	0	59	0	3807379456	46	4721
2026-01-08 12:49:16.36	335.65	9.47	-37.7	-39.7	14.2	2.20e-06	0	59	0	3830448128	46	4676
2026-01-08 12:49:20.40	335.86	9.15	-37.7	-39.7	14.2	1.10e-06	0	59	0	3852468224	46	4669
2026-01-08 12:49:24.44	336.06	8.83	-37.7	-39.7	14.1	5.70e-06	0	59	0	3875536896	46	4682
2026-01-08 12:49:28.48	336.27	8.51	-37.9	-39.9	13.8	1.25e-05	0	59	0	3898605568	46	4800
2026-01-08 12:49:32.51	336.47	8.20	-38.0	-40.1	13.6	3.40e-06	0	59	0	3920625664	46	4899
2026-01-08 12:49:36.55	336.66	7.89	-44.0	-54.3	3.8	8.30e-01	0	59	104	3939500032	58	12569
2026-01-08 12:49:40.59	336.85	7.58	-44.9	-56.5	3.8	8.47e-01	0	59	104	3939500032	60	14487
2026-01-08 12:49:44.64	337.04	7.28	-45.0	-56.7	3.8	8.47e-01	0	59	104	3939500032	60	14765
2026-01-08 12:49:48.68	337.23	6.98	-45.0	-56.6	3.8	8.46e-01	0	59	104	3939500032	60	14613
2026-01-08 12:49:52.72	337.41	6.68	-44.9	-56.5	3.8	8.47e-01	0	59	104	3939500032	60	14461
2026-01-08 12:49:56.76	337.59	6.39	-44.9	-56.5	3.8	8.47e-01	0	59	104	3939500032	60	14442
2026-01-08 12:50:00.80	337.76	6.10	-44.9	-56.5	3.8	8.47e-01	0	59	104	3939500032	60	14471
2026-01-08 12:50:04.84	337.93	5.81	-44.9	-56.5	3.8	8.48e-01	0	59	104	3939500032	60	14455
2026-01-08 12:50:08.88	338.10	5.53	-44.9	-56.5	3.8	8.46e-01	0	59	104	3939500032	60	14403
2026-01-08 12:50:12.93	338.27	5.25	-44.9	-56.5	3.8	8.45e-01	0	59	104	3939500032	60	14432
2026-01-08 12:50:16.97	338.43	4.97	-44.9	-56.5	3.8	8.47e-01	0	59	104	3939500032	60	14380
2026-01-08 12:50:21.01	338.59	4.69	-44.8	-56.5	3.8	8.46e-01	0	59	104	3939500032	60	14379
2026-01-08 12:50:25.05	338.75	4.42	-44.8	-56.5	3.8	8.47e-01	0	59	104	3939500032	60	14388
2026-01-08 12:50:29.09	338.90	4.15	-44.9	-56.4	3.8	8.46e-01	0	59	104	3939500032	60	14359
2026-01-08 12:50:33.13	339.06	3.88	-44.8	-56.4	3.8	8.47e-01	0	59	104	3939500032	60	14371
2026-01-08 12:50:37.17	339.21	3.62	-44.8	-56.4	3.8	8.46e-01	0	59	104	3939500032	60	14313
2026-01-08 12:50:41.22	339.35	3.36	-44.8	-56.4	3.8	8.46e-01	0	59	104	3939500032	60	14346
2026-01-08 12:50:45.26	339.50	3.09	-44.8	-56.4	3.8	8.46e-01	0	59	104	3939500032	60	14299
2026-01-08 12:50:49.30	339.64	2.84	-44.8	-56.4	3.8	8.47e-01	0	59	104	3939500032	60	14347
2026-01-08 12:50:53.35	339.79	2.58	-44.8	-56.4	3.8	8.45e-01	0	59	104	3939500032	60	14338
2026-01-08 12:50:57.39	339.92	2.33	-44.8	-56.4	3.8	8.46e-01	0	59	104	3939500032	60	14331
2026-01-08 12:51:01.43	340.06	2.08	-44.8	-56.4	3.8	8.47e-01	0	59	104	3939500032	60	14326

#Closed at: 2026-01-08 12:51:02
#Recorded file [3939 MB]: D:/lorett/data/31039_260108_153652.dat