passes_logs/2026/01/08/R2.0S_Moscow/R2.0S_Moscow__20260108_074845_NOAA_21_JPSS-2_rec.log

#Pass ID: 20260108_074845_NOAA 21 (JPSS-2)
#Satellite: NOAA 21 (JPSS-2)
#Configuration: NOAA-21
#almurnet v.1.7.20251203
#Start time: 2026-01-08 07:48:46

#Version: 2.2.20231116
#Station: R2.0S_Moscow
#Location: 37.707566 lon 55.798166 lat
#TLE: 1 54234U 22150A   26005.56767909  .00000152  00000+0  92756-4 0  9990
#TLE: 2 54234  98.7490 306.5820 0001036 340.2747  19.8389 14.19532370163472

#Time	Az	El	Level	Level2	SNR	BER	BlckErr	Temp	State	Recorded	gain1	gain2
2026-01-08 07:48:46.42	98.30	2.05	-40.1	-52.5	3.8	1.49e+00	0	47	0	0	51	15352
2026-01-08 07:48:49.45	98.04	2.20	-40.0	-52.5	3.8	1.49e+00	0	47	104	0	51	15391
2026-01-08 07:48:52.48	97.79	2.36	-40.0	-52.6	3.8	1.49e+00	0	48	104	0	51	15404
2026-01-08 07:48:55.51	97.53	2.51	-40.0	-52.5	3.8	1.49e+00	0	48	104	0	51	15357
2026-01-08 07:48:58.54	97.28	2.67	-40.0	-52.5	3.8	1.49e+00	0	48	104	0	51	15367
2026-01-08 07:49:01.57	97.01	2.83	-40.1	-52.5	3.8	1.49e+00	0	48	104	0	51	15363
2026-01-08 07:49:04.60	96.75	2.99	-40.0	-52.5	3.8	1.49e+00	0	48	104	0	51	15379
2026-01-08 07:49:07.63	96.48	3.15	-40.0	-52.5	3.8	1.49e+00	0	48	104	0	51	15343
2026-01-08 07:49:10.66	96.21	3.30	-40.0	-52.5	3.8	1.49e+00	0	49	104	0	51	15361
2026-01-08 07:49:13.69	95.94	3.46	-40.1	-52.5	3.8	1.49e+00	0	49	104	0	51	15387
2026-01-08 07:49:16.72	95.66	3.62	-40.0	-52.5	3.8	1.49e+00	0	49	104	0	51	15347
2026-01-08 07:49:19.74	95.38	3.78	-40.0	-52.5	3.8	1.49e+00	0	49	104	0	51	15360
2026-01-08 07:49:22.77	95.10	3.94	-40.0	-52.6	3.8	1.49e+00	0	49	104	0	51	15406
2026-01-08 07:49:25.80	94.81	4.10	-40.0	-52.5	3.8	1.49e+00	0	49	104	0	51	15363
2026-01-08 07:49:28.83	94.52	4.26	-40.0	-52.5	3.8	1.49e+00	0	50	104	0	51	15364
2026-01-08 07:49:31.86	94.23	4.42	-40.0	-52.5	3.8	1.49e+00	0	50	104	0	51	15377
2026-01-08 07:49:34.89	93.93	4.58	-40.0	-52.5	3.8	1.49e+00	0	50	104	0	51	15348
2026-01-08 07:49:37.92	93.63	4.74	-40.1	-52.5	3.8	1.49e+00	0	50	104	0	51	15357
2026-01-08 07:49:40.95	93.33	4.90	-40.0	-52.5	3.8	1.49e+00	0	51	104	0	51	15345
2026-01-08 07:49:43.98	93.02	5.07	-40.0	-52.5	3.8	1.49e+00	0	51	104	0	51	15321
2026-01-08 07:49:47.01	92.71	5.23	-40.0	-52.5	3.8	1.49e+00	0	51	104	0	51	15381
2026-01-08 07:49:50.04	92.40	5.39	-40.0	-52.5	3.8	1.49e+00	0	51	104	0	51	15352
2026-01-08 07:49:53.07	92.08	5.55	-40.0	-52.5	3.8	1.49e+00	0	51	104	0	51	15373
2026-01-08 07:49:56.10	91.76	5.71	-40.0	-52.5	3.8	1.49e+00	0	51	104	0	51	15314
2026-01-08 07:49:59.13	91.44	5.88	-40.1	-52.5	3.8	1.49e+00	0	51	104	0	51	15364
2026-01-08 07:50:02.16	91.11	6.04	-40.0	-52.5	3.8	1.49e+00	0	51	104	0	51	15360
2026-01-08 07:50:05.19	90.78	6.20	-40.0	-52.5	3.8	1.49e+00	0	52	104	0	51	15301
2026-01-08 07:50:08.22	90.44	6.37	-40.0	-52.5	3.8	1.49e+00	0	52	104	0	51	15353
2026-01-08 07:50:11.26	90.10	6.53	-40.1	-52.5	3.8	1.49e+00	0	52	104	0	51	15347
2026-01-08 07:50:14.29	89.76	6.69	-40.0	-52.5	3.8	1.49e+00	0	52	104	0	51	15336
2026-01-08 07:50:17.32	89.41	6.86	-40.0	-52.5	3.8	1.49e+00	0	52	104	0	51	15365
2026-01-08 07:50:20.35	89.06	7.02	-40.0	-52.5	3.8	1.49e+00	0	52	104	0	51	15332
2026-01-08 07:50:23.38	88.70	7.18	-40.0	-52.5	3.8	1.49e+00	0	52	104	0	51	15332
2026-01-08 07:50:26.42	88.34	7.35	-40.0	-52.5	3.8	1.49e+00	0	52	104	0	51	15375
2026-01-08 07:50:29.45	87.98	7.51	-40.0	-52.5	3.8	1.49e+00	0	53	104	0	51	15339
2026-01-08 07:50:32.48	87.61	7.67	-40.0	-52.5	3.8	1.49e+00	0	52	104	0	51	15330
2026-01-08 07:50:35.51	87.24	7.84	-40.0	-52.5	3.8	1.49e+00	0	53	104	0	51	15313
2026-01-08 07:50:38.54	86.87	8.00	-40.0	-52.5	3.8	1.49e+00	0	53	104	0	51	15335
2026-01-08 07:50:41.57	86.49	8.16	-40.0	-52.6	3.8	1.49e+00	0	53	104	0	51	15471
2026-01-08 07:50:44.60	86.10	8.32	-40.0	-52.7	3.8	1.49e+00	0	53	104	0	51	15587
2026-01-08 07:50:47.63	85.71	8.49	-39.9	-52.7	3.8	1.49e+00	0	53	104	0	51	15587
2026-01-08 07:50:50.67	85.32	8.65	-39.9	-52.7	3.8	1.49e+00	0	53	104	0	51	15700
2026-01-08 07:50:53.70	84.92	8.81	-39.9	-52.5	3.8	1.49e+00	0	53	104	0	51	15236
2026-01-08 07:50:56.73	84.52	8.97	-40.0	-52.4	3.8	1.49e+00	0	53	104	0	51	15147
2026-01-08 07:50:59.75	84.11	9.13	-40.1	-52.4	3.8	1.49e+00	0	53	104	0	51	15150
2026-01-08 07:51:02.78	83.70	9.29	-40.0	-52.3	3.8	1.49e+00	0	53	104	0	51	15003
2026-01-08 07:51:05.81	83.28	9.45	-39.9	-52.4	3.8	1.49e+00	0	53	104	0	51	15060
2026-01-08 07:51:08.84	82.86	9.62	-40.1	-52.4	3.8	1.49e+00	0	53	104	0	51	15174
2026-01-08 07:51:11.87	82.44	9.77	-39.9	-52.3	3.8	1.49e+00	0	54	104	0	51	14967
2026-01-08 07:51:14.91	82.01	9.93	-40.2	-52.5	3.8	1.49e+00	0	54	104	0	51	15310
2026-01-08 07:51:17.94	81.57	10.09	-40.1	-52.4	3.8	1.49e+00	0	54	104	0	51	15072
2026-01-08 07:51:20.97	81.13	10.25	-40.1	-52.5	3.8	1.49e+00	0	54	104	0	51	15290
2026-01-08 07:51:24.00	80.69	10.41	-40.0	-52.4	3.8	1.49e+00	0	54	104	0	51	15217
2026-01-08 07:51:27.02	80.24	10.57	-40.3	-52.6	3.8	1.49e+00	0	54	104	0	51	15434
2026-01-08 07:51:30.06	79.78	10.72	-40.1	-52.5	3.8	1.49e+00	0	54	104	0	51	15272
2026-01-08 07:51:33.08	79.32	10.88	-40.3	-52.7	3.8	1.49e+00	0	54	104	0	51	15626
2026-01-08 07:51:36.12	78.86	11.03	-40.3	-52.6	3.8	1.49e+00	0	54	104	0	51	15436
2026-01-08 07:51:39.15	78.39	11.19	-40.5	-52.8	3.8	1.49e+00	0	54	104	0	51	15905
2026-01-08 07:51:42.18	77.92	11.34	-40.6	-53.0	3.8	1.49e+00	0	54	104	0	51	16279
2026-01-08 07:51:45.21	77.44	11.49	-40.7	-53.0	3.8	1.49e+00	0	54	104	0	52	15365
2026-01-08 07:51:48.24	76.95	11.64	-40.8	-53.1	3.8	1.49e+00	0	54	104	0	52	15515
2026-01-08 07:51:51.27	76.46	11.79	-40.9	-53.4	3.8	1.49e+00	0	54	104	0	52	15971
2026-01-08 07:51:54.30	75.97	11.94	-40.8	-53.1	3.8	1.49e+00	0	54	104	0	52	15469
2026-01-08 07:51:57.33	75.47	12.09	-41.0	-53.4	3.8	1.49e+00	0	54	104	0	52	16050
2026-01-08 07:52:00.36	74.97	12.23	-41.0	-53.4	3.8	1.49e+00	0	55	104	0	52	16036
2026-01-08 07:52:03.39	74.46	12.38	-41.0	-53.4	3.8	1.49e+00	0	55	104	0	52	16030
2026-01-08 07:52:06.42	73.94	12.52	-40.7	-53.1	3.8	1.49e+00	0	55	104	0	52	15521
2026-01-08 07:52:09.45	73.42	12.66	-40.6	-53.0	3.8	1.49e+00	0	55	104	0	52	15324
2026-01-08 07:52:12.48	72.90	12.80	-40.6	-53.0	3.8	1.49e+00	0	55	104	0	52	15277
2026-01-08 07:52:15.51	72.37	12.94	-40.7	-53.0	3.8	1.49e+00	0	55	104	0	52	15373
2026-01-08 07:52:18.54	71.83	13.08	-40.7	-53.0	3.8	1.49e+00	0	55	104	0	52	15256
2026-01-08 07:52:21.57	71.29	13.21	-40.9	-53.3	3.8	1.49e+00	0	55	104	0	52	15763
2026-01-08 07:52:24.60	70.75	13.35	-41.1	-53.5	3.8	1.49e+00	0	55	104	0	52	16177
2026-01-08 07:52:27.63	70.20	13.48	-41.1	-53.2	3.8	1.49e+00	0	55	104	0	53	14862
2026-01-08 07:52:30.66	69.65	13.61	-41.2	-52.9	3.8	1.49e+00	0	55	104	0	53	14215
2026-01-08 07:52:33.69	69.09	13.73	-41.1	-50.0	4.3	1.46e+00	0	55	104	0	53	10286
2026-01-08 07:52:36.72	68.52	13.86	-41.4	-50.3	4.0	1.09e+00	0	55	104	0	53	10567
2026-01-08 07:52:39.76	67.95	13.98	-40.3	-46.1	6.6	1.83e-01	0	55	0	2097152	51	7311
2026-01-08 07:52:42.78	67.38	14.10	-39.3	-43.2	9.6	1.73e-02	0	55	0	11534336	50	5579
2026-01-08 07:52:45.81	66.80	14.22	-38.9	-42.3	10.8	3.23e-03	0	55	0	20971520	49	5327
2026-01-08 07:52:48.84	66.22	14.34	-38.2	-40.8	12.9	1.06e-04	0	55	0	30408704	48	4741
2026-01-08 07:52:51.87	65.63	14.45	-37.1	-39.1	15.0	0.00e+00	0	55	0	39845888	46	4365
2026-01-08 07:52:54.89	65.04	14.57	-37.8	-39.9	14.6	0.00e+00	0	55	0	49283072	46	4807
2026-01-08 07:52:57.93	64.45	14.68	-37.7	-39.7	15.0	0.00e+00	0	55	0	58720256	46	4678
2026-01-08 07:53:00.96	63.85	14.78	-38.2	-40.2	14.6	0.00e+00	0	55	0	68157440	47	4695
2026-01-08 07:53:03.98	63.24	14.89	-37.9	-39.7	15.2	7.00e-07	0	55	0	77594624	47	4440
2026-01-08 07:53:07.01	62.63	14.99	-37.9	-39.7	15.3	0.00e+00	0	55	0	87031808	47	4440
2026-01-08 07:53:10.05	62.02	15.08	-37.7	-39.5	15.6	0.00e+00	0	55	0	96468992	47	4327
2026-01-08 07:53:13.07	61.40	15.18	-37.7	-39.5	15.7	0.00e+00	0	55	0	105906176	47	4293
2026-01-08 07:53:16.10	60.78	15.27	-37.8	-39.6	15.6	0.00e+00	0	55	0	115343360	47	4349
2026-01-08 07:53:19.13	60.16	15.36	-37.8	-39.6	15.5	0.00e+00	0	55	0	124780544	47	4388
2026-01-08 07:53:22.16	59.53	15.45	-37.8	-39.6	15.6	0.00e+00	0	55	0	134217728	47	4361
2026-01-08 07:53:25.18	58.90	15.53	-37.7	-39.5	15.7	0.00e+00	0	55	0	143654912	47	4323
2026-01-08 07:53:28.20	58.27	15.61	-37.4	-39.1	16.1	0.00e+00	0	55	0	153092096	46	4384
2026-01-08 07:53:31.23	57.63	15.69	-37.4	-39.1	16.1	0.00e+00	0	55	0	162529280	46	4383
2026-01-08 07:53:34.26	56.99	15.76	-37.5	-39.2	16.0	0.00e+00	0	55	0	171966464	46	4429
2026-01-08 07:53:37.29	56.34	15.83	-37.5	-39.2	16.0	0.00e+00	0	55	0	181403648	46	4434
2026-01-08 07:53:40.33	55.69	15.89	-37.6	-39.3	16.0	0.00e+00	0	55	0	190840832	46	4458
2026-01-08 07:53:43.35	55.04	15.96	-37.6	-39.4	15.9	0.00e+00	0	55	0	200278016	46	4502
2026-01-08 07:53:46.38	54.39	16.01	-37.7	-39.4	15.9	0.00e+00	0	55	0	209715200	46	4536
2026-01-08 07:53:49.41	53.73	16.07	-37.5	-39.2	16.1	0.00e+00	0	55	0	219152384	46	4411
2026-01-08 07:53:52.44	53.07	16.12	-37.4	-39.0	16.3	0.00e+00	0	56	0	228589568	46	4332
2026-01-08 07:53:55.47	52.41	16.17	-37.3	-38.9	16.4	0.00e+00	0	55	0	238026752	46	4270
2026-01-08 07:53:58.50	51.75	16.21	-37.5	-39.2	16.1	0.00e+00	0	55	0	247463936	46	4412
2026-01-08 07:54:01.53	51.09	16.25	-37.9	-39.7	15.6	0.00e+00	0	55	0	256901120	46	4681
2026-01-08 07:54:04.56	50.42	16.29	-37.8	-39.6	15.7	0.00e+00	0	55	0	266338304	46	4629
2026-01-08 07:54:07.59	49.76	16.32	-37.7	-39.5	15.9	0.00e+00	0	55	0	276824064	46	4551
2026-01-08 07:54:10.61	49.09	16.35	-37.8	-39.6	15.7	0.00e+00	0	56	0	285212672	46	4625
2026-01-08 07:54:13.65	48.42	16.37	-38.0	-39.8	15.6	0.00e+00	0	56	0	295698432	46	4719
2026-01-08 07:54:16.67	47.75	16.40	-37.8	-39.5	15.8	0.00e+00	0	55	0	304087040	46	4587
2026-01-08 07:54:19.71	47.07	16.41	-37.7	-39.4	15.9	0.00e+00	0	56	0	314572800	46	4537
2026-01-08 07:54:22.74	46.40	16.42	-37.7	-39.4	15.9	0.00e+00	0	56	0	324009984	46	4533
2026-01-08 07:54:25.77	45.73	16.43	-37.8	-39.5	15.8	0.00e+00	0	56	0	333447168	46	4589
2026-01-08 07:54:28.80	45.06	16.44	-37.9	-39.7	15.7	0.00e+00	0	56	0	342884352	46	4656
2026-01-08 07:54:31.83	44.38	16.44	-37.7	-39.4	15.9	0.00e+00	0	55	0	352321536	46	4534
2026-01-08 07:54:34.86	43.71	16.44	-37.6	-39.3	16.1	0.00e+00	0	55	0	361758720	46	4451
2026-01-08 07:54:37.89	43.04	16.43	-37.5	-39.1	16.2	0.00e+00	0	56	0	371195904	46	4385
2026-01-08 07:54:40.92	42.37	16.42	-37.5	-39.1	16.2	0.00e+00	0	56	0	380633088	46	4390
2026-01-08 07:54:43.95	41.70	16.40	-37.5	-39.2	16.1	0.00e+00	0	56	0	390070272	46	4436
2026-01-08 07:54:46.98	41.03	16.38	-37.6	-39.3	16.0	0.00e+00	0	56	0	399507456	46	4485
2026-01-08 07:54:50.01	40.36	16.36	-37.5	-39.2	16.2	0.00e+00	0	56	0	408944640	46	4405
2026-01-08 07:54:53.04	39.69	16.33	-37.6	-39.2	16.2	0.00e+00	0	55	0	418381824	46	4433
2026-01-08 07:54:56.06	39.02	16.30	-37.5	-39.2	16.2	0.00e+00	0	56	0	427819008	46	4402
2026-01-08 07:54:59.09	38.36	16.27	-37.6	-39.3	16.1	0.00e+00	0	56	0	437256192	46	4466
2026-01-08 07:55:02.12	37.69	16.23	-37.9	-39.7	15.7	0.00e+00	0	56	0	446693376	46	4663
2026-01-08 07:55:05.15	37.03	16.18	-37.7	-39.4	15.9	0.00e+00	0	56	0	456130560	46	4522
2026-01-08 07:55:08.18	36.37	16.14	-37.5	-39.3	16.1	0.00e+00	0	56	0	465567744	46	4445
2026-01-08 07:55:11.21	35.71	16.09	-37.7	-39.5	15.9	0.00e+00	0	56	0	475004928	46	4550
2026-01-08 07:55:14.25	35.06	16.03	-37.9	-39.7	15.7	0.00e+00	0	56	0	484442112	46	4659
2026-01-08 07:55:17.28	34.40	15.98	-37.6	-39.4	16.0	0.00e+00	0	56	0	493879296	46	4501
2026-01-08 07:55:20.31	33.75	15.91	-37.6	-39.3	16.1	0.00e+00	0	56	0	503316480	46	4463
2026-01-08 07:55:23.34	33.10	15.85	-37.6	-39.3	16.1	0.00e+00	0	56	0	512753664	46	4465
2026-01-08 07:55:26.37	32.46	15.78	-37.6	-39.3	16.1	0.00e+00	0	56	0	522190848	46	4456
2026-01-08 07:55:29.40	31.82	15.71	-37.6	-39.4	16.0	0.00e+00	0	56	0	531628032	46	4508
2026-01-08 07:55:32.43	31.18	15.63	-37.6	-39.3	16.1	0.00e+00	0	56	0	541065216	46	4468
2026-01-08 07:55:35.46	30.55	15.56	-37.5	-39.1	16.2	0.00e+00	0	56	0	550502400	46	4390
2026-01-08 07:55:38.49	29.91	15.47	-37.4	-39.1	16.2	0.00e+00	0	56	0	559939584	46	4369
2026-01-08 07:55:41.52	29.29	15.39	-37.6	-39.3	16.0	0.00e+00	0	56	0	569376768	46	4488
2026-01-08 07:55:44.54	28.66	15.30	-37.7	-39.4	15.9	0.00e+00	0	56	0	578813952	46	4527
2026-01-08 07:55:47.57	28.04	15.21	-37.7	-39.5	15.8	0.00e+00	0	56	0	588251136	46	4564
2026-01-08 07:55:50.60	27.43	15.12	-37.7	-39.4	16.0	0.00e+00	0	56	0	597688320	46	4509
2026-01-08 07:55:53.63	26.81	15.02	-37.6	-39.3	16.0	0.00e+00	0	56	0	608174080	46	4488
2026-01-08 07:55:56.66	26.21	14.92	-37.7	-39.5	15.8	0.00e+00	0	56	0	617611264	46	4560
2026-01-08 07:55:59.69	25.60	14.82	-37.8	-39.5	15.8	0.00e+00	0	56	0	627048448	46	4583
2026-01-08 07:56:02.72	25.00	14.71	-37.8	-39.5	15.7	0.00e+00	0	56	0	636485632	46	4588
2026-01-08 07:56:05.75	24.41	14.60	-37.7	-39.5	15.7	0.00e+00	0	56	0	645922816	46	4573
2026-01-08 07:56:08.78	23.82	14.49	-37.8	-39.5	15.7	0.00e+00	0	56	0	655360000	46	4597
2026-01-08 07:56:11.81	23.23	14.38	-37.9	-39.7	15.5	0.00e+00	0	56	0	664797184	46	4676
2026-01-08 07:56:14.84	22.65	14.26	-37.7	-39.5	15.8	0.00e+00	0	56	0	674234368	46	4553
2026-01-08 07:56:17.87	22.07	14.15	-37.8	-39.6	15.7	0.00e+00	0	56	0	683671552	46	4612
2026-01-08 07:56:20.90	21.50	14.03	-37.8	-39.6	15.6	0.00e+00	0	56	0	693108736	46	4651
2026-01-08 07:56:23.93	20.93	13.90	-38.0	-39.8	15.3	0.00e+00	0	56	0	702545920	46	4759
2026-01-08 07:56:26.96	20.37	13.78	-37.7	-39.4	15.8	0.00e+00	0	56	0	711983104	46	4543
2026-01-08 07:56:29.99	19.81	13.65	-37.6	-39.4	15.8	0.00e+00	0	56	0	721420288	46	4505
2026-01-08 07:56:33.03	19.25	13.52	-37.7	-39.4	15.7	0.00e+00	0	56	0	730857472	46	4542
2026-01-08 07:56:36.05	18.71	13.39	-37.9	-39.8	15.4	0.00e+00	0	56	0	740294656	46	4715
2026-01-08 07:56:39.08	18.16	13.26	-37.9	-39.8	15.4	0.00e+00	0	56	0	749731840	46	4727
2026-01-08 07:56:42.11	17.63	13.13	-38.0	-39.8	15.3	0.00e+00	0	56	0	759169024	46	4756
2026-01-08 07:56:45.14	17.09	12.99	-38.1	-40.1	15.1	0.00e+00	0	56	0	768606208	46	4877
2026-01-08 07:56:48.17	16.56	12.85	-38.4	-40.5	14.6	0.00e+00	0	56	0	778043392	47	4837
2026-01-08 07:56:51.20	16.04	12.71	-38.5	-40.6	14.5	7.00e-07	0	56	0	787480576	47	4887
2026-01-08 07:56:54.23	15.52	12.57	-38.2	-40.1	14.9	0.00e+00	0	56	0	796917760	47	4637
2026-01-08 07:56:57.26	15.01	12.43	-38.3	-40.3	14.8	0.00e+00	0	56	0	806354944	47	4709
2026-01-08 07:57:00.29	14.50	12.29	-37.9	-39.8	15.3	0.00e+00	0	56	0	815792128	47	4457
2026-01-08 07:57:03.31	14.00	12.14	-37.9	-39.8	15.2	0.00e+00	0	56	0	825229312	47	4466
2026-01-08 07:57:06.34	13.50	12.00	-38.0	-40.0	14.9	0.00e+00	0	56	0	834666496	47	4577
2026-01-08 07:57:09.37	13.01	11.85	-38.3	-40.3	14.5	0.00e+00	0	56	0	844103680	47	4745
2026-01-08 07:57:12.40	12.52	11.70	-38.4	-40.6	14.1	2.20e-06	0	56	0	853540864	47	4920
2026-01-08 07:57:15.43	12.04	11.55	-38.3	-40.5	14.0	3.80e-06	0	56	0	862978048	47	4843
2026-01-08 07:57:18.46	11.56	11.40	-37.9	-40.2	14.0	2.20e-06	0	56	0	872415232	47	4660
2026-01-08 07:57:21.49	11.09	11.25	-38.6	-41.3	12.5	5.49e-05	0	56	0	881852416	47	5337
2026-01-08 07:57:24.52	10.62	11.09	-39.7	-43.8	9.3	1.24e-02	0	56	0	891289600	49	6306
2026-01-08 07:57:27.55	10.16	10.94	-40.3	-46.8	5.8	3.30e-01	0	56	0	900726784	51	7943
2026-01-08 07:57:30.58	9.70	10.79	-40.5	-51.0	3.8	1.48e+00	0	56	104	904921088	51	12864
2026-01-08 07:57:33.61	9.24	10.63	-40.0	-52.0	3.8	1.48e+00	0	56	104	904921088	52	13573
2026-01-08 07:57:36.63	8.80	10.48	-41.2	-52.3	3.8	1.49e+00	0	56	104	904921088	53	13276
2026-01-08 07:57:39.66	8.35	10.32	-40.6	-52.3	3.8	1.49e+00	0	56	104	904921088	53	13328
2026-01-08 07:57:42.69	7.92	10.16	-40.1	-52.2	3.8	1.49e+00	0	56	104	904921088	51	14780
2026-01-08 07:57:45.72	7.48	10.00	-39.9	-52.3	3.8	1.49e+00	0	56	104	904921088	51	14896
2026-01-08 07:57:48.75	7.05	9.84	-39.9	-52.2	3.8	1.49e+00	0	56	104	904921088	51	14844
2026-01-08 07:57:51.78	6.63	9.69	-39.8	-52.2	3.8	1.49e+00	0	56	104	904921088	51	14753
2026-01-08 07:57:54.81	6.21	9.53	-39.8	-52.1	3.8	1.49e+00	0	57	104	904921088	51	14668
2026-01-08 07:57:57.84	5.80	9.37	-39.8	-52.2	3.8	1.49e+00	0	56	104	904921088	51	14810
2026-01-08 07:58:00.87	5.39	9.21	-39.9	-52.3	3.8	1.49e+00	0	56	104	904921088	51	14955
2026-01-08 07:58:03.90	4.98	9.05	-39.8	-52.1	3.8	1.49e+00	0	56	104	904921088	51	14651
2026-01-08 07:58:06.93	4.58	8.88	-39.9	-52.3	3.8	1.49e+00	0	56	104	904921088	51	14913
2026-01-08 07:58:09.96	4.18	8.72	-39.8	-52.2	3.8	1.49e+00	0	56	104	904921088	51	14759
2026-01-08 07:58:12.99	3.79	8.56	-39.7	-52.1	3.8	1.49e+00	0	56	104	904921088	51	14614
2026-01-08 07:58:16.03	3.40	8.40	-39.8	-52.2	3.8	1.49e+00	0	56	104	904921088	51	14761
2026-01-08 07:58:19.06	3.02	8.24	-39.8	-52.2	3.8	1.49e+00	0	57	104	904921088	51	14816
2026-01-08 07:58:22.09	2.64	8.07	-39.7	-52.1	3.8	1.49e+00	0	56	104	904921088	51	14631
2026-01-08 07:58:25.12	2.27	7.91	-44.6	-56.7	3.8	1.49e+00	0	56	104	904921088	59	15711
2026-01-08 07:58:28.15	1.90	7.75	-45.1	-57.5	3.8	1.49e+00	0	57	104	904921088	60	16244
2026-01-08 07:58:31.18	1.53	7.59	-45.3	-57.7	3.8	1.49e+00	0	56	104	904921088	61	15666
2026-01-08 07:58:34.21	1.17	7.42	-44.9	-57.6	3.8	1.49e+00	0	56	104	904921088	61	15542
2026-01-08 07:58:37.24	0.81	7.26	-45.1	-57.5	3.8	1.49e+00	0	57	104	904921088	61	15359
2026-01-08 07:58:40.27	0.46	7.10	-45.1	-57.4	3.8	1.49e+00	0	56	104	904921088	61	15127
2026-01-08 07:58:43.31	0.11	6.94	-45.1	-57.4	3.8	1.49e+00	0	57	104	904921088	61	15173
2026-01-08 07:58:46.34	359.76	6.77	-45.1	-57.4	3.8	1.49e+00	0	56	104	904921088	61	15166
2026-01-08 07:58:49.37	359.42	6.61	-45.1	-57.4	3.8	1.49e+00	0	57	104	904921088	60	16085
2026-01-08 07:58:52.40	359.08	6.45	-45.1	-57.4	3.8	1.49e+00	0	56	104	904921088	60	16095
2026-01-08 07:58:55.43	358.75	6.29	-45.0	-57.4	3.8	1.49e+00	0	57	104	904921088	60	16003
2026-01-08 07:58:58.46	358.42	6.12	-45.0	-57.4	3.8	1.49e+00	0	56	104	904921088	60	16015
2026-01-08 07:59:01.49	358.09	5.96	-45.0	-57.4	3.8	1.49e+00	0	57	104	904921088	60	16023
2026-01-08 07:59:04.52	357.77	5.80	-44.6	-57.4	3.8	1.49e+00	0	56	104	904921088	60	15977
2026-01-08 07:59:07.55	357.45	5.64	-45.0	-57.4	3.8	1.49e+00	0	57	104	904921088	60	16008
2026-01-08 07:59:10.58	357.14	5.48	-45.0	-57.4	3.8	1.49e+00	0	57	104	904921088	60	16003
2026-01-08 07:59:13.61	356.83	5.31	-45.0	-57.4	3.8	1.49e+00	0	57	104	904921088	60	15970
2026-01-08 07:59:16.64	356.52	5.15	-45.0	-57.4	3.8	1.49e+00	0	57	104	904921088	60	15958
2026-01-08 07:59:19.67	356.21	4.99	-44.9	-57.3	3.8	1.49e+00	0	57	104	904921088	60	15938
2026-01-08 07:59:22.70	355.91	4.83	-45.0	-57.4	3.8	1.49e+00	0	56	104	904921088	60	15978
2026-01-08 07:59:25.73	355.62	4.67	-45.0	-57.4	3.8	1.49e+00	0	57	104	904921088	60	15965
2026-01-08 07:59:28.76	355.32	4.51	-45.0	-57.4	3.8	1.49e+00	0	57	104	904921088	60	15966
2026-01-08 07:59:31.79	355.03	4.35	-45.0	-57.4	3.8	1.49e+00	0	56	104	904921088	60	15971
2026-01-08 07:59:34.82	354.74	4.19	-45.0	-57.4	3.8	1.49e+00	0	57	104	904921088	60	16009
2026-01-08 07:59:37.86	354.46	4.03	-45.0	-57.4	3.8	1.49e+00	0	57	104	904921088	60	15946
2026-01-08 07:59:40.89	354.18	3.87	-45.0	-57.3	3.8	1.49e+00	0	57	104	904921088	60	15941
2026-01-08 07:59:43.92	353.90	3.71	-45.0	-57.3	3.8	1.49e+00	0	57	104	904921088	60	15917
2026-01-08 07:59:46.95	353.62	3.55	-45.0	-57.3	3.8	1.49e+00	0	57	104	904921088	60	15941
2026-01-08 07:59:49.98	353.35	3.39	-45.0	-57.3	3.8	1.49e+00	0	57	104	904921088	60	15909
2026-01-08 07:59:53.01	353.08	3.24	-45.0	-57.3	3.8	1.49e+00	0	57	104	904921088	60	15906
2026-01-08 07:59:56.04	352.82	3.08	-45.0	-57.4	3.8	1.49e+00	0	57	104	904921088	60	15989
2026-01-08 07:59:59.07	352.56	2.92	-45.0	-57.4	3.8	1.49e+00	0	57	104	904921088	60	15952
2026-01-08 08:00:02.10	352.30	2.76	-45.0	-57.3	3.8	1.49e+00	0	57	104	904921088	60	15940
2026-01-08 08:00:05.13	352.04	2.61	-45.0	-57.4	3.8	1.49e+00	0	57	104	904921088	60	15955
2026-01-08 08:00:08.16	351.79	2.45	-45.0	-57.3	3.8	1.49e+00	0	57	104	904921088	60	15933
2026-01-08 08:00:11.19	351.53	2.29	-45.0	-57.3	3.8	1.49e+00	0	57	104	904921088	60	15929
2026-01-08 08:00:14.22	351.29	2.14	-45.0	-57.3	3.8	1.49e+00	0	57	104	904921088	60	15910
2026-01-08 08:00:17.25	351.04	1.98	-45.0	-57.3	3.8	1.49e+00	0	57	104	904921088	60	15909

#Closed at: 2026-01-08 08:00:19
#Recorded file [904 MB]: D:/lorett/data/31039_260108_104846.dat