passes_logs/2026/01/08/R2.0S_Moscow/R2.0S_Moscow__20260108_160507_FENGYUN_3E_rec.log

#Pass ID: 20260108_160507_FENGYUN 3E
#Satellite: FENGYUN 3E
#Configuration: FENGYUN 3E
#almurnet v.1.7.20251203
#Start time: 2026-01-08 16:05:08

#Version: 2.2.20231116
#Station: R2.0S_Moscow
#Location: 37.707566 lon 55.798166 lat
#TLE: 1 49008U 21062A   26007.88844255 -.00000338  00000+0 -13865-3 0  9992
#TLE: 2 49008  98.7481  13.0996 0001694 151.5348 208.5921 14.19883289233834

#Time	Az	El	Level	Level2	SNR	BER	BlckErr	Temp	State	Recorded	gain1	gain2
2026-01-08 16:05:08.53	219.05	2.08	-44.3	-55.2	3.8	8.47e-01	0	48	0	0	59	12491
2026-01-08 16:05:11.55	219.31	2.23	-44.3	-55.2	3.8	8.46e-01	0	48	104	0	59	12473
2026-01-08 16:05:14.58	219.58	2.38	-44.3	-55.2	3.8	8.47e-01	0	49	104	0	59	12481
2026-01-08 16:05:17.62	219.85	2.54	-44.3	-55.2	3.8	8.45e-01	0	49	104	0	59	12491
2026-01-08 16:05:20.65	220.12	2.69	-44.3	-55.2	3.8	8.46e-01	0	49	104	0	59	12461
2026-01-08 16:05:23.68	220.40	2.84	-44.3	-55.2	3.8	8.47e-01	0	49	104	0	59	12486
2026-01-08 16:05:26.71	220.68	3.00	-44.3	-55.3	3.8	8.46e-01	0	49	104	0	59	12529
2026-01-08 16:05:29.74	220.96	3.15	-44.3	-55.2	3.8	8.46e-01	0	50	104	0	59	12459
2026-01-08 16:05:32.77	221.24	3.31	-44.3	-55.2	3.8	8.46e-01	0	50	104	0	59	12451
2026-01-08 16:05:35.80	221.52	3.46	-44.3	-55.2	3.8	8.45e-01	0	50	104	0	59	12495
2026-01-08 16:05:38.83	221.81	3.62	-44.3	-55.2	3.8	8.46e-01	0	50	104	0	59	12478
2026-01-08 16:05:41.87	222.11	3.77	-44.3	-55.2	3.8	8.47e-01	0	51	104	0	59	12443
2026-01-08 16:05:44.90	222.40	3.93	-44.3	-55.2	3.8	8.46e-01	0	51	104	0	59	12478
2026-01-08 16:05:47.93	222.70	4.08	-44.3	-55.2	3.8	8.46e-01	0	51	104	0	59	12500
2026-01-08 16:05:50.96	223.00	4.24	-44.3	-55.2	3.8	8.46e-01	0	51	104	0	59	12504
2026-01-08 16:05:53.99	223.30	4.40	-44.3	-55.2	3.8	8.45e-01	0	51	104	0	59	12460
2026-01-08 16:05:57.03	223.61	4.55	-44.3	-55.2	3.8	8.46e-01	0	51	104	0	59	12414
2026-01-08 16:06:00.06	223.92	4.71	-44.3	-55.2	3.8	8.46e-01	0	52	104	0	59	12417
2026-01-08 16:06:03.09	224.24	4.87	-44.3	-55.1	3.8	8.46e-01	0	52	104	0	59	12286
2026-01-08 16:06:06.13	224.55	5.03	-44.3	-55.1	3.8	8.46e-01	0	52	104	0	59	12325
2026-01-08 16:06:09.16	224.87	5.18	-44.3	-55.2	3.8	8.47e-01	0	52	104	0	59	12501
2026-01-08 16:06:12.19	225.20	5.34	-44.3	-55.2	3.8	8.46e-01	0	52	104	0	59	12428
2026-01-08 16:06:15.22	225.52	5.50	-44.2	-54.8	3.8	8.47e-01	0	52	104	0	59	11868
2026-01-08 16:06:18.25	225.86	5.66	-44.2	-54.7	3.8	8.46e-01	0	53	104	0	59	11685
2026-01-08 16:06:21.28	226.19	5.82	-44.3	-54.9	3.8	8.44e-01	0	53	104	0	59	12080
2026-01-08 16:06:24.31	226.53	5.97	-44.3	-55.2	3.8	8.45e-01	0	53	104	0	59	12416
2026-01-08 16:06:27.35	226.87	6.13	-44.3	-55.0	3.8	8.47e-01	0	53	104	0	59	12171
2026-01-08 16:06:30.38	227.21	6.29	-44.3	-55.0	3.8	8.47e-01	0	53	104	0	59	12117
2026-01-08 16:06:33.41	227.56	6.45	-44.3	-55.0	3.8	8.47e-01	0	53	104	0	59	12120
2026-01-08 16:06:36.44	227.91	6.61	-44.2	-54.9	3.8	8.47e-01	0	54	104	0	59	12094
2026-01-08 16:06:39.47	228.27	6.77	-44.2	-55.0	3.8	8.46e-01	0	54	104	0	59	12188
2026-01-08 16:06:42.50	228.63	6.93	-44.0	-53.2	3.8	8.46e-01	0	54	104	0	59	9839
2026-01-08 16:06:45.54	228.99	7.09	-43.2	-49.2	5.3	7.55e-01	0	54	0	0	57	6980
2026-01-08 16:06:48.57	229.36	7.25	-42.0	-46.3	7.5	1.24e-01	0	54	0	17825792	55	5595
2026-01-08 16:06:51.60	229.73	7.41	-41.4	-44.9	8.9	3.27e-02	0	54	0	39845888	53	5374
2026-01-08 16:06:54.63	230.11	7.56	-40.8	-43.8	9.9	1.04e-02	0	54	0	61865984	52	5041
2026-01-08 16:06:57.66	230.48	7.72	-40.0	-42.5	11.5	1.19e-03	0	54	0	83886080	51	4566
2026-01-08 16:07:00.69	230.87	7.88	-39.1	-41.1	12.9	7.20e-05	0	54	0	105906176	49	4379
2026-01-08 16:07:03.73	231.26	8.04	-44.4	-53.8	3.8	3.65e-01	0	54	104	125829120	58	11209
2026-01-08 16:07:06.76	231.65	8.20	-44.2	-55.1	3.8	8.42e-01	0	54	104	136314880	57	13842
2026-01-08 16:07:09.79	232.04	8.36	-38.3	-40.2	13.8	4.50e-06	0	54	0	152043520	47	4427
2026-01-08 16:07:12.81	232.44	8.52	-37.9	-39.7	14.4	0.00e+00	0	54	0	173015040	46	4403
2026-01-08 16:07:15.83	232.84	8.67	-37.6	-39.2	14.8	0.00e+00	0	55	0	195035136	46	4191
2026-01-08 16:07:18.86	233.25	8.83	-37.4	-39.1	15.0	0.00e+00	0	55	0	217055232	45	4348
2026-01-08 16:07:21.89	233.66	8.99	-37.4	-39.0	15.1	0.00e+00	0	55	0	239075328	45	4327
2026-01-08 16:07:24.92	234.08	9.15	-37.4	-39.1	15.0	0.00e+00	0	55	0	261095424	45	4347
2026-01-08 16:07:27.95	234.50	9.30	-37.3	-38.9	15.2	0.00e+00	0	55	0	283115520	45	4262
2026-01-08 16:07:30.98	234.92	9.46	-37.3	-38.9	15.3	1.10e-06	0	55	0	305135616	45	4246
2026-01-08 16:07:34.01	235.35	9.62	-37.1	-38.6	15.5	0.00e+00	0	55	0	326107136	45	4124
2026-01-08 16:07:37.04	235.79	9.77	-37.2	-38.7	15.4	0.00e+00	0	55	0	348127232	45	4168
2026-01-08 16:07:40.07	236.23	9.93	-37.1	-38.7	15.5	0.00e+00	0	55	0	370147328	45	4148
2026-01-08 16:07:43.10	236.67	10.08	-37.2	-38.7	15.4	0.00e+00	0	55	0	392167424	45	4175
2026-01-08 16:07:46.13	237.12	10.24	-37.2	-38.7	15.4	0.00e+00	0	55	0	414187520	45	4193
2026-01-08 16:07:49.16	237.57	10.39	-37.1	-38.7	15.5	0.00e+00	0	55	0	435159040	45	4167
2026-01-08 16:07:52.19	238.03	10.54	-37.2	-38.8	15.4	0.00e+00	0	55	0	457179136	45	4194
2026-01-08 16:07:55.22	238.49	10.70	-37.0	-38.5	15.7	0.00e+00	0	55	0	479199232	44	4305
2026-01-08 16:07:58.25	238.95	10.85	-37.0	-38.4	15.8	0.00e+00	0	55	0	501219328	44	4286
2026-01-08 16:08:01.28	239.42	11.00	-36.9	-38.3	15.9	0.00e+00	0	55	0	523239424	44	4234
2026-01-08 16:08:04.31	239.90	11.15	-36.9	-38.4	15.9	0.00e+00	0	56	0	545259520	44	4250
2026-01-08 16:08:07.34	240.38	11.30	-36.9	-38.4	15.8	0.00e+00	0	56	0	567279616	44	4279
2026-01-08 16:08:10.36	240.86	11.44	-36.9	-38.3	15.9	0.00e+00	0	56	0	588251136	44	4233
2026-01-08 16:08:13.39	241.35	11.59	-36.9	-38.3	16.0	0.00e+00	0	56	0	610271232	44	4230
2026-01-08 16:08:16.42	241.85	11.74	-36.8	-38.2	16.0	0.00e+00	0	56	0	632291328	44	4192
2026-01-08 16:08:19.45	242.35	11.88	-36.7	-38.2	16.1	0.00e+00	0	56	0	654311424	44	4151
2026-01-08 16:08:22.48	242.85	12.03	-36.8	-38.3	16.0	0.00e+00	0	56	0	676331520	44	4211
2026-01-08 16:08:25.50	243.36	12.17	-36.7	-38.1	16.2	0.00e+00	0	56	0	698351616	44	4132
2026-01-08 16:08:28.53	243.87	12.31	-36.5	-37.9	16.4	0.00e+00	0	56	0	720371712	44	4034
2026-01-08 16:08:31.56	244.39	12.45	-36.6	-38.0	16.4	0.00e+00	0	56	0	741343232	44	4059
2026-01-08 16:08:34.59	244.91	12.59	-36.5	-38.0	16.4	0.00e+00	0	56	0	763363328	44	4056
2026-01-08 16:08:37.62	245.44	12.73	-36.3	-37.7	16.5	0.00e+00	0	56	0	785383424	43	4155
2026-01-08 16:08:40.65	245.97	12.86	-36.3	-37.7	16.4	0.00e+00	0	56	0	807403520	43	4165
2026-01-08 16:08:43.68	246.51	13.00	-36.4	-37.8	16.4	0.00e+00	0	56	0	829423616	43	4225
2026-01-08 16:08:46.71	247.05	13.13	-36.3	-37.6	16.6	0.00e+00	0	56	0	851443712	43	4135
2026-01-08 16:08:49.74	247.60	13.26	-36.2	-37.5	16.7	0.00e+00	0	56	0	873463808	43	4085
2026-01-08 16:08:52.76	248.15	13.39	-36.2	-37.5	16.6	0.00e+00	0	56	0	894435328	43	4089
2026-01-08 16:08:55.79	248.71	13.52	-36.2	-37.6	16.6	0.00e+00	0	56	0	916455424	43	4110
2026-01-08 16:08:58.82	249.27	13.65	-36.0	-37.4	16.9	0.00e+00	0	56	0	938475520	43	4005
2026-01-08 16:09:01.86	249.84	13.77	-36.0	-37.3	17.0	0.00e+00	0	56	0	960495616	42	4203
2026-01-08 16:09:04.88	250.40	13.89	-35.9	-37.2	17.0	0.00e+00	0	57	0	982515712	42	4161
2026-01-08 16:09:07.91	250.98	14.01	-35.9	-37.2	17.0	0.00e+00	0	57	0	1004535808	42	4180
2026-01-08 16:09:10.94	251.56	14.13	-35.8	-37.1	17.1	0.00e+00	0	56	0	1026555904	42	4139
2026-01-08 16:09:13.97	252.14	14.25	-36.0	-37.3	17.0	0.00e+00	0	56	0	1047527424	42	4215
2026-01-08 16:09:17.00	252.73	14.36	-36.0	-37.4	16.9	0.00e+00	0	56	0	1069547520	42	4254
2026-01-08 16:09:20.02	253.32	14.47	-36.0	-37.3	16.9	0.00e+00	0	56	0	1091567616	42	4226
2026-01-08 16:09:23.05	253.92	14.58	-35.9	-37.3	17.0	0.00e+00	0	57	0	1113587712	42	4202
2026-01-08 16:09:26.08	254.52	14.69	-36.0	-37.3	16.9	0.00e+00	0	57	0	1135607808	42	4232
2026-01-08 16:09:29.11	255.12	14.79	-35.9	-37.2	17.1	0.00e+00	0	57	0	1157627904	42	4149
2026-01-08 16:09:32.13	255.73	14.89	-35.8	-37.1	17.2	0.00e+00	0	57	0	1179648000	42	4108
2026-01-08 16:09:35.17	256.34	14.99	-35.8	-37.0	17.2	0.00e+00	0	57	0	1200619520	42	4093
2026-01-08 16:09:38.19	256.96	15.09	-35.8	-37.0	17.2	0.00e+00	0	57	0	1222639616	42	4086
2026-01-08 16:09:41.22	257.58	15.18	-35.8	-37.1	17.1	0.00e+00	0	57	0	1244659712	42	4136
2026-01-08 16:09:44.25	258.20	15.27	-35.7	-37.0	17.2	0.00e+00	0	57	0	1266679808	42	4064
2026-01-08 16:09:47.28	258.83	15.36	-35.7	-37.0	17.3	0.00e+00	0	57	0	1288699904	42	4064
2026-01-08 16:09:50.31	259.46	15.45	-35.9	-37.2	17.1	0.00e+00	0	57	0	1310720000	42	4159
2026-01-08 16:09:53.34	260.10	15.53	-35.7	-37.0	17.2	0.00e+00	0	57	0	1332740096	42	4082
2026-01-08 16:09:56.37	260.74	15.61	-35.6	-36.8	17.4	0.00e+00	0	57	0	1353711616	42	3998
2026-01-08 16:09:59.40	261.38	15.68	-35.6	-36.9	17.4	0.00e+00	0	57	0	1375731712	42	4026
2026-01-08 16:10:02.43	262.02	15.76	-35.7	-36.9	17.3	0.00e+00	0	57	0	1397751808	42	4050
2026-01-08 16:10:05.46	262.67	15.83	-35.7	-37.0	17.3	0.00e+00	0	57	0	1419771904	42	4061
2026-01-08 16:10:08.50	263.32	15.89	-35.6	-36.8	17.5	0.00e+00	0	57	0	1441792000	42	3988
2026-01-08 16:10:11.53	263.98	15.95	-35.6	-36.8	17.5	0.00e+00	0	57	0	1463812096	42	3986
2026-01-08 16:10:14.55	264.63	16.01	-35.7	-37.0	17.3	0.00e+00	0	57	0	1484783616	42	4079
2026-01-08 16:10:17.58	265.29	16.07	-35.9	-37.1	17.1	0.00e+00	0	57	0	1506803712	42	4144
2026-01-08 16:10:20.61	265.95	16.12	-35.7	-37.0	17.3	0.00e+00	0	57	0	1528823808	42	4063
2026-01-08 16:10:23.64	266.61	16.17	-35.5	-36.7	17.5	0.00e+00	0	57	0	1550843904	41	4170
2026-01-08 16:10:26.66	267.27	16.22	-35.5	-36.7	17.5	0.00e+00	0	57	0	1572864000	41	4172
2026-01-08 16:10:29.70	267.94	16.26	-35.6	-36.8	17.4	0.00e+00	0	57	0	1594884096	41	4236
2026-01-08 16:10:32.72	268.61	16.30	-35.5	-36.8	17.5	0.00e+00	0	57	0	1615855616	41	4219
2026-01-08 16:10:35.75	269.28	16.33	-35.6	-36.9	17.4	0.00e+00	0	57	0	1637875712	41	4285
2026-01-08 16:10:38.78	269.95	16.36	-35.7	-37.0	17.3	0.00e+00	0	57	0	1659895808	41	4306
2026-01-08 16:10:41.81	270.62	16.39	-35.6	-36.9	17.3	0.00e+00	0	57	0	1681915904	41	4260
2026-01-08 16:10:44.84	271.29	16.41	-35.5	-36.7	17.5	0.00e+00	0	57	0	1703936000	41	4183
2026-01-08 16:10:47.87	271.97	16.43	-35.5	-36.7	17.5	0.00e+00	0	57	0	1725956096	41	4184
2026-01-08 16:10:50.90	272.64	16.45	-35.5	-36.8	17.5	0.00e+00	0	57	0	1747976192	41	4195
2026-01-08 16:10:53.93	273.32	16.46	-35.6	-36.9	17.3	0.00e+00	0	57	0	1769996288	41	4254
2026-01-08 16:10:56.96	273.99	16.47	-35.7	-36.9	17.2	0.00e+00	0	57	0	1790967808	41	4282
2026-01-08 16:10:59.98	274.67	16.47	-35.6	-36.9	17.3	0.00e+00	0	57	0	1812987904	41	4249
2026-01-08 16:11:03.01	275.34	16.47	-35.6	-36.9	17.3	0.00e+00	0	57	0	1835008000	41	4258
2026-01-08 16:11:06.04	276.02	16.47	-35.5	-36.8	17.4	0.00e+00	0	57	0	1857028096	41	4225
2026-01-08 16:11:09.07	276.69	16.47	-35.4	-36.7	17.5	0.00e+00	0	57	0	1879048192	41	4172
2026-01-08 16:11:12.10	277.37	16.45	-35.4	-36.6	17.6	0.00e+00	0	57	0	1901068288	41	4130
2026-01-08 16:11:15.13	278.04	16.44	-35.5	-36.7	17.5	0.00e+00	0	57	0	1923088384	41	4178
2026-01-08 16:11:18.16	278.72	16.42	-35.5	-36.8	17.4	0.00e+00	0	57	0	1944059904	41	4224
2026-01-08 16:11:21.19	279.39	16.40	-35.7	-37.0	17.2	0.00e+00	0	57	0	1966080000	41	4302
2026-01-08 16:11:24.21	280.06	16.38	-35.7	-37.0	17.2	0.00e+00	0	57	0	1988100096	41	4320
2026-01-08 16:11:27.24	280.73	16.35	-35.6	-36.9	17.2	0.00e+00	0	57	0	2010120192	41	4285
2026-01-08 16:11:30.27	281.40	16.31	-35.6	-36.9	17.2	0.00e+00	0	57	0	2032140288	41	4268
2026-01-08 16:11:33.30	282.07	16.28	-35.6	-36.8	17.3	0.00e+00	0	57	0	2054160384	41	4236
2026-01-08 16:11:36.33	282.73	16.24	-35.6	-36.9	17.2	0.00e+00	0	57	0	2076180480	41	4265
2026-01-08 16:11:39.36	283.40	16.19	-35.6	-36.9	17.2	0.00e+00	0	57	0	2097152000	41	4270
2026-01-08 16:11:42.39	284.06	16.15	-35.6	-36.8	17.3	0.00e+00	0	57	0	2119172096	41	4235
2026-01-08 16:11:45.42	284.72	16.10	-35.6	-36.9	17.3	0.00e+00	0	57	0	2141192192	41	4247
2026-01-08 16:11:48.45	285.38	16.04	-35.6	-36.9	17.2	0.00e+00	0	57	0	2163212288	41	4275
2026-01-08 16:11:51.48	286.03	15.98	-35.7	-37.0	17.1	0.00e+00	0	57	0	2185232384	41	4323
2026-01-08 16:11:54.51	286.69	15.92	-35.8	-37.1	17.0	0.00e+00	0	57	0	2207252480	41	4346
2026-01-08 16:11:57.54	287.34	15.86	-35.8	-37.1	17.0	0.00e+00	0	57	0	2229272576	41	4388
2026-01-08 16:12:00.56	287.98	15.79	-35.8	-37.2	17.0	0.00e+00	0	57	0	2250244096	41	4394
2026-01-08 16:12:03.59	288.63	15.72	-35.9	-37.2	16.8	0.00e+00	0	57	0	2272264192	41	4440
2026-01-08 16:12:06.62	289.27	15.65	-35.8	-37.1	17.0	0.00e+00	0	57	0	2294284288	41	4384
2026-01-08 16:12:09.65	289.91	15.57	-35.8	-37.1	17.0	0.00e+00	0	57	0	2316304384	41	4387
2026-01-08 16:12:12.68	290.54	15.49	-35.9	-37.2	16.9	0.00e+00	0	57	0	2338324480	41	4425
2026-01-08 16:12:15.71	291.17	15.41	-35.8	-37.2	16.9	0.00e+00	0	57	0	2359296000	41	4399
2026-01-08 16:12:18.73	291.80	15.32	-35.8	-37.1	17.0	0.00e+00	0	57	0	2381316096	41	4357
2026-01-08 16:12:21.77	292.42	15.23	-35.9	-37.3	16.8	0.00e+00	0	57	0	2403336192	41	4450
2026-01-08 16:12:24.80	293.04	15.14	-36.1	-37.5	16.6	0.00e+00	0	57	0	2425356288	41	4566
2026-01-08 16:12:27.83	293.66	15.05	-36.2	-37.6	16.5	0.00e+00	0	57	0	2447376384	42	4389
2026-01-08 16:12:30.86	294.27	14.95	-36.2	-37.6	16.5	0.00e+00	0	57	0	2469396480	42	4370
2026-01-08 16:12:33.89	294.88	14.85	-36.1	-37.5	16.6	0.00e+00	0	57	0	2491416576	42	4292
2026-01-08 16:12:36.91	295.49	14.75	-36.1	-37.5	16.6	0.00e+00	0	57	0	2512388096	42	4296
2026-01-08 16:12:39.94	296.09	14.64	-36.0	-37.3	16.7	0.00e+00	0	57	0	2534408192	42	4232
2026-01-08 16:12:42.97	296.68	14.54	-36.1	-37.4	16.7	0.00e+00	0	58	0	2556428288	42	4273
2026-01-08 16:12:46.00	297.27	14.43	-36.1	-37.5	16.6	0.00e+00	0	57	0	2578448384	42	4323
2026-01-08 16:12:49.03	297.86	14.31	-36.1	-37.5	16.6	0.00e+00	0	57	0	2600468480	42	4315
2026-01-08 16:12:52.06	298.45	14.20	-36.2	-37.6	16.5	0.00e+00	0	57	0	2622488576	42	4375
2026-01-08 16:12:55.09	299.03	14.08	-36.3	-37.7	16.4	0.00e+00	0	57	0	2644508672	42	4428
2026-01-08 16:12:58.12	299.60	13.97	-36.5	-37.9	16.2	0.00e+00	0	57	0	2665480192	42	4506
2026-01-08 16:13:01.14	300.17	13.85	-36.4	-37.8	16.3	0.00e+00	0	57	0	2687500288	42	4485
2026-01-08 16:13:04.17	300.73	13.72	-36.4	-37.9	16.2	0.00e+00	0	58	0	2709520384	42	4502
2026-01-08 16:13:07.20	301.29	13.60	-36.4	-37.8	16.3	0.00e+00	0	58	0	2731540480	42	4482
2026-01-08 16:13:10.23	301.85	13.47	-36.3	-37.7	16.4	0.00e+00	0	57	0	2753560576	42	4423
2026-01-08 16:13:13.26	302.40	13.35	-36.4	-37.8	16.2	0.00e+00	0	57	0	2775580672	42	4476
2026-01-08 16:13:16.29	302.95	13.22	-36.4	-37.8	16.3	0.00e+00	0	57	0	2797600768	42	4471
2026-01-08 16:13:19.32	303.49	13.08	-36.4	-37.8	16.3	0.00e+00	0	57	0	2818572288	42	4464
2026-01-08 16:13:22.35	304.03	12.95	-36.4	-37.8	16.3	0.00e+00	0	58	0	2840592384	42	4460
2026-01-08 16:13:25.38	304.56	12.82	-36.5	-37.9	16.1	0.00e+00	0	57	0	2862612480	42	4539
2026-01-08 16:13:28.41	305.09	12.68	-36.7	-38.2	15.9	0.00e+00	0	57	0	2884632576	42	4654
2026-01-08 16:13:31.44	305.61	12.55	-36.8	-38.3	15.8	0.00e+00	0	57	0	2906652672	43	4451
2026-01-08 16:13:34.47	306.13	12.41	-36.8	-38.3	15.7	0.00e+00	0	58	0	2928672768	43	4474
2026-01-08 16:13:37.50	306.65	12.27	-36.7	-38.2	15.8	0.00e+00	0	58	0	2950692864	43	4419
2026-01-08 16:13:40.53	307.16	12.13	-36.7	-38.2	15.8	0.00e+00	0	58	0	2972712960	43	4413
2026-01-08 16:13:43.56	307.66	11.98	-36.7	-38.2	15.8	0.00e+00	0	58	0	2993684480	43	4435
2026-01-08 16:13:46.58	308.16	11.84	-36.9	-38.4	15.6	0.00e+00	0	58	0	3015704576	43	4519
2026-01-08 16:13:49.61	308.65	11.70	-36.9	-38.4	15.6	0.00e+00	0	58	0	3037724672	43	4531
2026-01-08 16:13:52.64	309.14	11.55	-36.9	-38.4	15.6	0.00e+00	0	57	0	3059744768	43	4507
2026-01-08 16:13:55.67	309.63	11.41	-36.9	-38.4	15.5	0.00e+00	0	57	0	3081764864	43	4539
2026-01-08 16:13:58.70	310.11	11.26	-37.0	-38.5	15.4	0.00e+00	0	58	0	3103784960	43	4589
2026-01-08 16:14:01.72	310.58	11.11	-37.1	-38.7	15.3	0.00e+00	0	58	0	3124756480	43	4683
2026-01-08 16:14:04.75	311.05	10.96	-37.2	-38.8	15.2	0.00e+00	0	58	0	3146776576	43	4715
2026-01-08 16:14:07.78	311.52	10.81	-37.1	-38.7	15.3	0.00e+00	0	58	0	3168796672	43	4654
2026-01-08 16:14:10.80	311.98	10.66	-37.0	-38.5	15.4	0.00e+00	0	58	0	3190816768	43	4586
2026-01-08 16:14:13.83	312.44	10.51	-37.0	-38.6	15.4	0.00e+00	0	58	0	3212836864	43	4600
2026-01-08 16:14:16.86	312.89	10.36	-37.2	-38.7	15.1	0.00e+00	0	57	0	3234856960	43	4697
2026-01-08 16:14:19.89	313.34	10.21	-37.5	-39.1	14.9	0.00e+00	0	58	0	3256877056	44	4634
2026-01-08 16:14:22.92	313.78	10.05	-37.6	-39.2	14.8	0.00e+00	0	58	0	3277848576	44	4700
2026-01-08 16:14:25.94	314.22	9.90	-37.7	-39.4	14.6	0.00e+00	0	58	0	3299868672	45	4511
2026-01-08 16:14:28.97	314.66	9.75	-37.7	-39.3	14.7	0.00e+00	0	58	0	3321888768	45	4492
2026-01-08 16:14:32.00	315.09	9.59	-37.4	-39.1	15.0	0.00e+00	0	58	0	3343908864	45	4350
2026-01-08 16:14:35.03	315.51	9.44	-37.2	-38.8	15.2	0.00e+00	0	58	0	3365928960	45	4223
2026-01-08 16:14:38.06	315.94	9.28	-37.3	-38.9	15.1	0.00e+00	0	58	0	3386900480	45	4251
2026-01-08 16:14:41.09	316.35	9.13	-37.4	-39.0	14.9	0.00e+00	0	58	0	3408920576	45	4337
2026-01-08 16:14:44.12	316.77	8.97	-37.7	-39.4	14.5	0.00e+00	0	58	0	3430940672	45	4535
2026-01-08 16:14:47.15	317.18	8.82	-37.8	-39.6	14.3	2.20e-06	0	58	0	3452960768	45	4625
2026-01-08 16:14:50.18	317.58	8.66	-37.9	-39.8	14.2	3.40e-06	0	58	0	3474980864	45	4709
2026-01-08 16:14:53.21	317.98	8.50	-38.0	-39.8	14.1	5.70e-06	0	58	0	3497000960	45	4751
2026-01-08 16:14:56.24	318.38	8.35	-37.8	-39.6	14.3	0.00e+00	0	58	0	3519021056	45	4601
2026-01-08 16:14:59.27	318.77	8.19	-37.8	-39.5	14.4	0.00e+00	0	58	0	3539992576	45	4580
2026-01-08 16:15:02.30	319.16	8.03	-37.8	-39.6	14.3	0.00e+00	0	58	0	3562012672	45	4644
2026-01-08 16:15:05.33	319.54	7.88	-45.0	-55.8	3.8	8.47e-01	0	58	104	3565158400	59	13402
2026-01-08 16:15:08.36	319.92	7.72	-45.3	-56.4	3.8	8.46e-01	0	58	104	3565158400	60	13549
2026-01-08 16:15:11.39	320.30	7.56	-45.3	-56.5	3.8	8.46e-01	0	58	104	3565158400	60	13658
2026-01-08 16:15:14.43	320.67	7.40	-44.9	-56.3	3.8	8.46e-01	0	58	104	3565158400	60	13307
2026-01-08 16:15:17.46	321.04	7.25	-45.2	-56.4	3.8	8.47e-01	0	58	104	3565158400	60	13477
2026-01-08 16:15:20.49	321.41	7.09	-45.2	-56.4	3.8	8.46e-01	0	58	104	3565158400	60	13442
2026-01-08 16:15:23.52	321.77	6.93	-45.2	-56.4	3.8	8.47e-01	0	58	104	3565158400	60	13504
2026-01-08 16:15:26.55	322.12	6.78	-45.2	-56.4	3.8	8.45e-01	0	58	104	3565158400	60	13504
2026-01-08 16:15:29.59	322.48	6.62	-45.2	-56.4	3.8	8.46e-01	0	58	104	3565158400	60	13473
2026-01-08 16:15:32.62	322.83	6.46	-45.2	-56.4	3.8	8.47e-01	0	58	104	3565158400	60	13442
2026-01-08 16:15:35.65	323.18	6.30	-45.2	-56.3	3.8	8.46e-01	0	58	104	3565158400	60	13395
2026-01-08 16:15:38.68	323.52	6.15	-45.2	-56.4	3.8	8.45e-01	0	58	104	3565158400	60	13439
2026-01-08 16:15:41.71	323.86	5.99	-45.2	-56.4	3.8	8.45e-01	0	58	104	3565158400	60	13419
2026-01-08 16:15:44.75	324.19	5.83	-45.2	-56.4	3.8	8.45e-01	0	58	104	3565158400	60	13452
2026-01-08 16:15:47.78	324.53	5.68	-45.2	-56.4	3.8	8.47e-01	0	58	104	3565158400	60	13442
2026-01-08 16:15:50.81	324.86	5.52	-45.2	-56.4	3.8	8.46e-01	0	58	104	3565158400	60	13462
2026-01-08 16:15:53.84	325.18	5.36	-44.7	-56.2	3.8	8.47e-01	0	58	104	3565158400	60	13236
2026-01-08 16:15:56.87	325.50	5.21	-45.2	-56.4	3.8	8.46e-01	0	58	104	3565158400	60	13462
2026-01-08 16:15:59.91	325.82	5.05	-45.2	-56.3	3.8	8.45e-01	0	58	104	3565158400	60	13413
2026-01-08 16:16:02.94	326.14	4.90	-45.2	-56.3	3.8	8.45e-01	0	58	104	3565158400	60	13399
2026-01-08 16:16:05.97	326.45	4.74	-45.2	-56.4	3.8	8.47e-01	0	58	104	3565158400	60	13430
2026-01-08 16:16:09.00	326.76	4.59	-45.1	-56.4	3.8	8.44e-01	0	58	104	3565158400	60	13420
2026-01-08 16:16:12.04	327.07	4.43	-45.2	-56.3	3.8	8.46e-01	0	58	104	3565158400	60	13401
2026-01-08 16:16:15.07	327.37	4.28	-45.2	-56.4	3.8	8.46e-01	0	58	104	3565158400	60	13481
2026-01-08 16:16:18.10	327.67	4.12	-45.2	-56.3	3.8	8.46e-01	0	58	104	3565158400	60	13385
2026-01-08 16:16:21.13	327.97	3.97	-45.2	-56.4	3.8	8.47e-01	0	58	104	3565158400	60	13436
2026-01-08 16:16:24.17	328.26	3.81	-45.1	-56.3	3.8	8.45e-01	0	58	104	3565158400	60	13404
2026-01-08 16:16:27.20	328.56	3.66	-45.2	-56.3	3.8	8.46e-01	0	58	104	3565158400	60	13351
2026-01-08 16:16:30.22	328.84	3.51	-45.1	-56.4	3.8	8.47e-01	0	58	104	3565158400	60	13415
2026-01-08 16:16:33.25	329.13	3.35	-45.2	-56.3	3.8	8.47e-01	0	58	104	3565158400	60	13368
2026-01-08 16:16:36.29	329.41	3.20	-45.2	-56.4	3.8	8.46e-01	0	58	104	3565158400	60	13457
2026-01-08 16:16:39.32	329.69	3.05	-45.2	-56.3	3.8	8.47e-01	0	58	104	3565158400	60	13393
2026-01-08 16:16:42.35	329.97	2.90	-45.1	-56.3	3.8	8.46e-01	0	58	104	3565158400	60	13363
2026-01-08 16:16:45.38	330.24	2.75	-45.2	-56.3	3.8	8.47e-01	0	58	104	3565158400	60	13361
2026-01-08 16:16:48.42	330.52	2.59	-45.2	-56.3	3.8	8.47e-01	0	58	104	3565158400	60	13394
2026-01-08 16:16:51.45	330.79	2.44	-45.2	-56.3	3.8	8.47e-01	0	58	104	3565158400	60	13390
2026-01-08 16:16:54.48	331.05	2.29	-45.2	-56.3	3.8	8.46e-01	0	58	104	3565158400	60	13407
2026-01-08 16:16:57.51	331.32	2.14	-45.1	-56.3	3.8	8.47e-01	0	58	104	3565158400	60	13368
2026-01-08 16:17:00.54	331.58	1.99	-45.2	-56.3	3.8	8.45e-01	0	58	104	3565158400	60	13388

#Closed at: 2026-01-08 16:17:01
#Recorded file [3565 MB]: D:/lorett/data/31039_260108_190508.dat