passes_logs/2026/01/08/R2.0S_Moscow/R2.0S_Moscow__20260108_124344_FENGYUN_3E_rec.log

#Pass ID: 20260108_124344_FENGYUN 3E
#Satellite: FENGYUN 3E
#Configuration: FENGYUN 3E
#almurnet v.1.7.20251203
#Start time: 2026-01-08 12:51:09

#Version: 2.2.20231116
#Station: R2.0S_Moscow
#Location: 37.707566 lon 55.798166 lat
#TLE: 1 49008U 21062A   26006.26767912  .00000427  00000+0  22170-3 0  9993
#TLE: 2 49008  98.7475  11.4982 0001602 156.1158 204.0093 14.19885456233607

#Time	Az	El	Level	Level2	SNR	BER	BlckErr	Temp	State	Recorded	gain1	gain2
2026-01-08 12:51:09.73	36.11	24.60	-44.8	-56.4	3.8	8.45e-01	0	58	0	0	60	14277
2026-01-08 12:51:11.74	35.56	24.51	-45.6	-56.6	3.8	8.47e-01	0	59	104	0	62	12313
2026-01-08 12:51:13.76	35.00	24.41	-45.5	-56.6	3.8	8.46e-01	0	58	104	0	62	12349
2026-01-08 12:51:15.78	34.45	24.31	-45.2	-56.3	3.8	8.46e-01	0	59	104	0	61	12599
2026-01-08 12:51:17.80	33.91	24.21	-45.1	-56.3	3.8	8.47e-01	0	59	104	0	61	12599
2026-01-08 12:51:19.83	33.36	24.10	-45.1	-56.1	3.8	8.46e-01	0	59	104	0	61	12326
2026-01-08 12:51:21.85	32.82	23.99	-45.1	-55.9	3.8	8.45e-01	0	59	104	0	61	12050
2026-01-08 12:51:23.87	32.29	23.88	-45.1	-56.1	3.8	8.46e-01	0	59	104	0	61	12238
2026-01-08 12:51:25.89	31.76	23.77	-45.1	-56.2	3.8	8.46e-01	0	59	104	0	61	12457
2026-01-08 12:51:27.91	31.23	23.66	-45.1	-56.2	3.8	8.47e-01	0	59	104	0	61	12505
2026-01-08 12:51:29.93	30.71	23.54	-45.1	-55.9	3.8	8.46e-01	0	59	104	0	61	12082
2026-01-08 12:51:31.95	30.19	23.42	-45.1	-56.0	3.8	8.46e-01	0	59	104	0	61	12143
2026-01-08 12:51:33.97	29.67	23.30	-45.1	-56.3	3.8	8.45e-01	0	59	104	0	61	12545
2026-01-08 12:51:35.99	29.16	23.18	-45.1	-56.2	3.8	8.46e-01	0	59	104	0	61	12488
2026-01-08 12:51:38.02	28.65	23.06	-45.1	-56.2	3.8	8.46e-01	0	59	104	0	61	12499
2026-01-08 12:51:40.04	28.15	22.93	-45.1	-56.1	3.8	8.47e-01	0	59	104	0	61	12315
2026-01-08 12:51:42.06	27.65	22.80	-45.1	-56.0	3.8	8.47e-01	0	59	104	0	61	12215
2026-01-08 12:51:44.08	27.15	22.67	-45.0	-55.6	3.8	8.45e-01	0	59	104	0	61	11682
2026-01-08 12:51:46.10	26.66	22.54	-45.1	-55.9	3.8	8.45e-01	0	59	104	0	61	12042
2026-01-08 12:51:48.12	26.18	22.41	-44.9	-55.0	3.8	8.46e-01	0	59	104	0	60	11439
2026-01-08 12:51:50.14	25.69	22.28	-44.8	-53.9	4.0	8.44e-01	0	59	104	0	60	10088
2026-01-08 12:51:52.16	25.22	22.14	-45.0	-55.6	3.8	8.46e-01	0	58	104	0	60	12361
2026-01-08 12:51:54.18	24.74	22.01	-43.9	-49.5	5.6	7.28e-01	0	59	0	0	58	6848
2026-01-08 12:51:56.21	24.27	21.87	-41.5	-44.4	10.3	1.16e-02	0	59	0	13631488	54	4766
2026-01-08 12:51:58.23	23.81	21.73	-40.1	-42.3	12.6	1.45e-04	0	59	0	28311552	51	4466
2026-01-08 12:52:00.25	23.34	21.59	-39.3	-41.2	13.7	8.00e-06	0	59	0	42991616	49	4435
2026-01-08 12:52:02.27	22.89	21.45	-37.7	-39.2	15.6	0.00e+00	0	59	0	57671680	46	4154
2026-01-08 12:52:04.29	22.44	21.30	-35.9	-37.1	17.4	0.00e+00	0	59	0	72351744	42	4144
2026-01-08 12:52:06.31	21.99	21.16	-36.9	-38.3	16.4	8.00e-06	0	59	0	87031808	45	3972
2026-01-08 12:52:08.34	21.54	21.01	-38.1	-39.8	15.0	3.40e-06	0	59	0	101711872	47	4204
2026-01-08 12:52:10.35	21.10	20.87	-35.7	-37.0	17.6	0.00e+00	0	59	0	115343360	42	4055
2026-01-08 12:52:12.37	20.67	20.72	-35.4	-36.6	18.0	0.00e+00	0	59	0	131072000	41	4116
2026-01-08 12:52:14.40	20.23	20.57	-35.3	-36.5	18.1	0.00e+00	0	59	0	144703488	41	4064
2026-01-08 12:52:16.41	19.81	20.43	-35.3	-36.5	18.1	0.00e+00	0	59	0	159383552	41	4075
2026-01-08 12:52:18.43	19.39	20.28	-35.4	-36.6	17.9	0.00e+00	0	59	0	174063616	41	4121
2026-01-08 12:52:20.45	18.97	20.13	-35.5	-36.7	17.8	0.00e+00	0	59	0	188743680	41	4193
2026-01-08 12:52:22.47	18.55	19.98	-35.4	-36.6	18.0	0.00e+00	0	59	0	203423744	41	4122
2026-01-08 12:52:24.49	18.14	19.82	-35.4	-36.6	17.9	0.00e+00	0	59	0	218103808	41	4138
2026-01-08 12:52:26.51	17.73	19.67	-35.4	-36.6	17.9	0.00e+00	0	59	0	232783872	41	4143
2026-01-08 12:52:28.53	17.33	19.52	-35.4	-36.6	17.9	0.00e+00	0	59	0	247463936	41	4123
2026-01-08 12:52:30.55	16.93	19.37	-35.4	-36.6	17.9	0.00e+00	0	59	0	262144000	41	4106
2026-01-08 12:52:32.57	16.54	19.21	-35.3	-36.5	18.0	0.00e+00	0	59	0	275775488	41	4080
2026-01-08 12:52:34.58	16.15	19.06	-35.5	-36.7	17.8	0.00e+00	0	59	0	290455552	41	4171
2026-01-08 12:52:36.60	15.76	18.91	-35.8	-37.1	17.4	0.00e+00	0	59	0	305135616	41	4369
2026-01-08 12:52:38.62	15.38	18.75	-36.1	-37.4	17.0	0.00e+00	0	59	0	319815680	41	4524
2026-01-08 12:52:40.64	15.00	18.60	-36.2	-37.5	16.9	0.00e+00	0	59	0	334495744	42	4338
2026-01-08 12:52:42.66	14.63	18.44	-36.2	-37.6	16.9	0.00e+00	0	59	0	349175808	42	4345
2026-01-08 12:52:44.68	14.26	18.29	-36.3	-37.6	16.8	0.00e+00	0	59	0	363855872	42	4386
2026-01-08 12:52:46.70	13.89	18.13	-35.9	-37.2	17.3	0.00e+00	0	59	0	378535936	42	4166
2026-01-08 12:52:48.72	13.53	17.97	-35.9	-37.2	17.3	0.00e+00	0	59	0	392167424	42	4167
2026-01-08 12:52:50.73	13.17	17.82	-35.8	-37.1	17.3	3.40e-06	0	59	0	407896064	42	4108
2026-01-08 12:52:52.75	12.82	17.66	-35.8	-37.1	17.3	0.00e+00	0	59	0	421527552	42	4103
2026-01-08 12:52:54.77	12.46	17.50	-35.7	-37.0	17.4	0.00e+00	0	59	0	436207616	42	4069
2026-01-08 12:52:56.80	12.11	17.35	-35.9	-37.2	17.2	0.00e+00	0	59	0	450887680	42	4164
2026-01-08 12:52:58.81	11.77	17.19	-36.0	-37.3	17.1	0.00e+00	0	59	0	465567744	42	4221
2026-01-08 12:53:00.83	11.43	17.03	-36.1	-37.4	16.9	0.00e+00	0	59	0	480247808	42	4269
2026-01-08 12:53:02.85	11.09	16.88	-36.1	-37.4	16.9	0.00e+00	0	59	0	494927872	42	4285
2026-01-08 12:53:04.87	10.76	16.72	-36.2	-37.5	16.8	0.00e+00	0	59	0	509607936	42	4328
2026-01-08 12:53:06.89	10.43	16.56	-36.3	-37.6	16.6	4.50e-06	0	59	0	524288000	42	4381
2026-01-08 12:53:08.91	10.10	16.41	-36.3	-37.7	16.6	0.00e+00	0	59	0	538968064	42	4418
2026-01-08 12:53:10.93	9.78	16.25	-36.3	-37.7	16.6	0.00e+00	0	59	0	553648128	42	4401
2026-01-08 12:53:12.95	9.46	16.09	-36.4	-37.8	16.4	0.00e+00	0	59	0	567279616	42	4469
2026-01-08 12:53:14.97	9.14	15.94	-36.5	-37.9	16.3	0.00e+00	0	59	0	581959680	42	4538
2026-01-08 12:53:16.99	8.83	15.78	-36.7	-38.1	16.1	0.00e+00	0	59	0	596639744	42	4646
2026-01-08 12:53:19.01	8.52	15.62	-36.7	-38.1	16.0	0.00e+00	0	59	0	611319808	43	4374
2026-01-08 12:53:21.03	8.22	15.47	-36.7	-38.2	15.9	0.00e+00	0	59	0	625999872	43	4405
2026-01-08 12:53:23.05	7.91	15.31	-36.7	-38.2	15.8	0.00e+00	0	59	0	640679936	43	4429
2026-01-08 12:53:25.06	7.61	15.16	-36.6	-38.0	15.9	0.00e+00	0	59	0	655360000	43	4329
2026-01-08 12:53:27.09	7.32	15.00	-36.5	-37.9	15.9	0.00e+00	0	59	0	670040064	43	4286
2026-01-08 12:53:29.11	7.02	14.85	-36.4	-37.8	16.0	0.00e+00	0	59	0	684720128	43	4241
2026-01-08 12:53:31.13	6.73	14.69	-36.5	-38.0	15.8	0.00e+00	0	59	0	699400192	43	4314
2026-01-08 12:53:33.14	6.45	14.54	-36.9	-38.4	15.3	0.00e+00	0	59	0	713031680	43	4544
2026-01-08 12:53:35.16	6.16	14.38	-36.9	-38.5	15.2	0.00e+00	0	59	0	727711744	43	4556
2026-01-08 12:53:37.18	5.88	14.23	-37.0	-38.6	14.9	0.00e+00	0	59	0	742391808	43	4643
2026-01-08 12:53:39.20	5.60	14.07	-37.0	-38.7	14.8	0.00e+00	0	59	0	757071872	43	4669
2026-01-08 12:53:41.21	5.33	13.92	-36.9	-38.6	14.7	0.00e+00	0	59	0	771751936	43	4629
2026-01-08 12:53:43.23	5.06	13.77	-37.3	-39.0	14.3	1.10e-06	0	59	0	786432000	44	4595
2026-01-08 12:53:45.25	4.79	13.61	-36.6	-38.2	14.8	0.00e+00	0	59	0	801112064	44	4186
2026-01-08 12:53:47.27	4.52	13.46	-36.5	-38.2	14.4	1.10e-06	0	59	0	815792128	43	4429
2026-01-08 12:53:49.29	4.26	13.31	-37.7	-39.8	12.6	6.75e-05	0	59	0	830472192	44	5025
2026-01-08 12:53:51.31	4.00	13.16	-38.9	-41.9	10.1	5.79e-03	0	59	0	844103680	47	5368
2026-01-08 12:53:53.33	3.74	13.00	-40.3	-44.9	6.9	1.56e-01	0	59	0	859832320	50	6392
2026-01-08 12:53:55.35	3.48	12.85	-40.9	-47.4	4.9	7.56e-01	0	59	0	869269504	51	8062
2026-01-08 12:53:57.36	3.23	12.70	-40.9	-48.6	4.3	8.32e-01	0	59	0	869269504	51	9268
2026-01-08 12:53:59.38	2.98	12.55	-40.9	-50.0	3.8	8.43e-01	0	59	104	869269504	51	10779
2026-01-08 12:54:01.39	2.73	12.40	-40.9	-51.1	3.8	8.45e-01	0	59	104	869269504	51	12359
2026-01-08 12:54:03.41	2.49	12.25	-40.7	-51.1	3.8	8.48e-01	0	59	104	869269504	51	12341
2026-01-08 12:54:05.43	2.25	12.10	-40.7	-51.5	3.8	8.46e-01	0	59	104	869269504	51	12849
2026-01-08 12:54:07.45	2.01	11.95	-40.3	-51.2	3.8	8.45e-01	0	59	104	869269504	51	12449
2026-01-08 12:54:09.47	1.77	11.81	-40.3	-51.3	3.8	8.47e-01	0	59	104	869269504	51	12633
2026-01-08 12:54:11.49	1.53	11.66	-40.5	-51.5	3.8	8.46e-01	0	59	104	869269504	51	12847
2026-01-08 12:54:13.51	1.30	11.51	-40.3	-51.3	3.8	8.45e-01	0	59	104	869269504	51	12529
2026-01-08 12:54:15.53	1.07	11.36	-40.1	-51.1	3.8	8.45e-01	0	59	104	869269504	51	12366
2026-01-08 12:54:17.55	0.84	11.22	-40.2	-51.2	3.8	8.46e-01	0	59	104	869269504	51	12466
2026-01-08 12:54:19.57	0.62	11.07	-40.3	-51.3	3.8	8.46e-01	0	59	104	869269504	51	12579
2026-01-08 12:54:21.59	0.39	10.92	-40.1	-51.2	3.8	8.45e-01	0	59	104	869269504	51	12410
2026-01-08 12:54:23.61	0.17	10.78	-39.8	-51.1	3.8	8.45e-01	0	59	104	869269504	50	13011
2026-01-08 12:54:25.63	359.95	10.63	-39.8	-51.1	3.8	8.45e-01	0	59	104	869269504	50	12962
2026-01-08 12:54:27.65	359.74	10.49	-39.9	-51.2	3.8	8.47e-01	0	59	104	869269504	50	13149
2026-01-08 12:54:29.67	359.52	10.34	-39.9	-51.1	3.8	8.45e-01	0	59	104	869269504	50	12977
2026-01-08 12:54:31.69	359.31	10.20	-39.7	-51.0	3.8	8.46e-01	0	59	104	869269504	50	12873
2026-01-08 12:54:33.71	359.10	10.06	-39.7	-51.0	3.8	8.47e-01	0	59	104	869269504	50	12860
2026-01-08 12:54:35.73	358.89	9.91	-39.9	-51.1	3.8	8.46e-01	0	59	104	869269504	50	13003
2026-01-08 12:54:37.74	358.69	9.77	-39.8	-51.0	3.8	8.46e-01	0	59	104	869269504	50	12936
2026-01-08 12:54:39.76	358.48	9.63	-39.3	-51.0	3.8	8.46e-01	0	59	104	869269504	49	13614
2026-01-08 12:54:41.78	358.28	9.49	-39.3	-50.9	3.8	8.46e-01	0	59	104	869269504	49	13539
2026-01-08 12:54:43.80	358.08	9.35	-39.6	-51.0	3.8	8.47e-01	0	59	104	869269504	49	13709
2026-01-08 12:54:45.82	357.88	9.21	-39.4	-51.0	3.8	8.46e-01	0	59	104	869269504	48	14472
2026-01-08 12:54:47.84	357.69	9.07	-39.4	-50.9	3.8	8.45e-01	0	59	104	869269504	48	14302
2026-01-08 12:54:49.86	357.50	8.93	-39.5	-50.9	3.8	8.47e-01	0	59	104	869269504	48	14281
2026-01-08 12:54:51.88	357.30	8.79	-39.3	-50.9	3.8	8.46e-01	0	59	104	869269504	48	14357
2026-01-08 12:54:53.90	357.11	8.65	-39.5	-51.0	3.8	8.46e-01	0	59	104	869269504	49	13593
2026-01-08 12:54:55.92	356.93	8.51	-39.7	-50.9	3.8	8.46e-01	0	59	104	869269504	48	14359
2026-01-08 12:54:57.94	356.74	8.37	-39.8	-50.9	3.8	8.46e-01	0	59	104	869269504	49	13523
2026-01-08 12:54:59.95	356.56	8.24	-39.5	-50.9	3.8	8.46e-01	0	59	104	869269504	49	13554
2026-01-08 12:55:01.97	356.37	8.10	-39.6	-51.0	3.8	8.47e-01	0	59	104	869269504	49	13626
2026-01-08 12:55:03.99	356.19	7.96	-39.4	-51.0	3.8	8.46e-01	0	59	104	869269504	48	14430
2026-01-08 12:55:06.01	356.01	7.83	-44.9	-55.7	3.8	8.46e-01	0	59	104	869269504	59	13214
2026-01-08 12:55:08.03	355.84	7.69	-45.3	-56.4	3.8	8.46e-01	0	59	104	869269504	60	13551
2026-01-08 12:55:10.05	355.66	7.56	-45.4	-56.6	3.8	8.47e-01	0	59	104	869269504	60	13788
2026-01-08 12:55:12.07	355.49	7.42	-45.5	-56.6	3.8	8.45e-01	0	59	104	869269504	60	13868
2026-01-08 12:55:14.09	355.31	7.29	-45.5	-56.6	3.8	8.46e-01	0	59	104	869269504	60	13821
2026-01-08 12:55:16.11	355.14	7.15	-45.4	-56.5	3.8	8.45e-01	0	59	104	869269504	60	13689
2026-01-08 12:55:18.14	354.97	7.02	-45.4	-56.5	3.8	8.46e-01	0	59	104	869269504	60	13651
2026-01-08 12:55:20.16	354.81	6.89	-45.3	-56.5	3.8	8.46e-01	0	59	104	869269504	60	13622
2026-01-08 12:55:22.18	354.64	6.75	-45.3	-56.4	3.8	8.47e-01	0	59	104	869269504	60	13545
2026-01-08 12:55:24.20	354.48	6.62	-45.3	-56.4	3.8	8.47e-01	0	59	104	869269504	60	13563
2026-01-08 12:55:26.22	354.31	6.49	-45.3	-56.4	3.8	8.46e-01	0	59	104	869269504	60	13523
2026-01-08 12:55:28.24	354.15	6.36	-45.3	-56.5	3.8	8.47e-01	0	59	104	869269504	60	13592
2026-01-08 12:55:30.27	353.99	6.23	-45.3	-56.3	3.8	8.46e-01	0	59	104	869269504	60	13376
2026-01-08 12:55:32.29	353.83	6.10	-45.3	-56.4	3.8	8.46e-01	0	59	104	869269504	60	13477
2026-01-08 12:55:34.31	353.68	5.97	-45.3	-56.4	3.8	8.46e-01	0	59	104	869269504	60	13504
2026-01-08 12:55:36.33	353.52	5.84	-45.3	-56.4	3.8	8.48e-01	0	59	104	869269504	60	13503
2026-01-08 12:55:38.35	353.37	5.71	-45.3	-56.4	3.8	8.46e-01	0	59	104	869269504	60	13510
2026-01-08 12:55:40.37	353.21	5.58	-45.3	-56.5	3.8	8.45e-01	0	59	104	869269504	60	13576
2026-01-08 12:55:42.40	353.06	5.45	-45.3	-56.4	3.8	8.46e-01	0	59	104	869269504	60	13517
2026-01-08 12:55:44.42	352.91	5.33	-45.3	-56.4	3.8	8.47e-01	0	59	104	869269504	60	13485
2026-01-08 12:55:46.44	352.77	5.20	-45.3	-56.4	3.8	8.47e-01	0	59	104	869269504	60	13557
2026-01-08 12:55:48.46	352.62	5.07	-45.3	-56.4	3.8	8.45e-01	0	59	104	869269504	60	13553
2026-01-08 12:55:50.48	352.47	4.95	-45.3	-56.4	3.8	8.46e-01	0	59	104	869269504	60	13517
2026-01-08 12:55:52.50	352.33	4.82	-45.3	-56.4	3.8	8.46e-01	0	59	104	869269504	60	13505
2026-01-08 12:55:54.52	352.19	4.69	-45.3	-56.4	3.8	8.46e-01	0	59	104	869269504	60	13502
2026-01-08 12:55:56.54	352.04	4.57	-45.3	-56.4	3.8	8.45e-01	0	59	104	869269504	60	13465
2026-01-08 12:55:58.56	351.90	4.44	-45.3	-56.4	3.8	8.45e-01	0	59	104	869269504	60	13493
2026-01-08 12:56:00.58	351.76	4.32	-45.3	-56.4	3.8	8.47e-01	0	59	104	869269504	60	13550
2026-01-08 12:56:02.60	351.63	4.20	-45.3	-56.4	3.8	8.46e-01	0	59	104	869269504	60	13415
2026-01-08 12:56:04.62	351.49	4.07	-45.3	-56.4	3.8	8.46e-01	0	59	104	869269504	60	13443
2026-01-08 12:56:06.65	351.35	3.95	-45.3	-56.4	3.8	8.46e-01	0	59	104	869269504	60	13489
2026-01-08 12:56:08.67	351.22	3.83	-45.3	-56.3	3.8	8.46e-01	0	59	104	869269504	60	13344
2026-01-08 12:56:10.69	351.09	3.70	-45.3	-56.4	3.8	8.46e-01	0	59	104	869269504	60	13440
2026-01-08 12:56:12.71	350.96	3.58	-45.3	-56.4	3.8	8.47e-01	0	59	104	869269504	60	13488
2026-01-08 12:56:14.73	350.82	3.46	-45.3	-56.3	3.8	8.47e-01	0	59	104	869269504	60	13376
2026-01-08 12:56:16.76	350.69	3.34	-45.3	-56.4	3.8	8.47e-01	0	59	104	869269504	60	13425
2026-01-08 12:56:18.78	350.57	3.22	-45.3	-56.4	3.8	8.47e-01	0	59	104	869269504	60	13479
2026-01-08 12:56:20.80	350.44	3.10	-45.3	-56.4	3.8	8.46e-01	0	59	104	869269504	60	13446
2026-01-08 12:56:22.82	350.31	2.98	-45.3	-56.4	3.8	8.46e-01	0	59	104	869269504	60	13488
2026-01-08 12:56:24.84	350.19	2.86	-45.3	-56.4	3.8	8.47e-01	0	59	104	869269504	60	13436
2026-01-08 12:56:26.86	350.06	2.74	-45.3	-56.4	3.8	8.47e-01	0	59	104	869269504	60	13497
2026-01-08 12:56:28.88	349.94	2.62	-45.3	-56.4	3.8	8.46e-01	0	59	104	869269504	60	13469
2026-01-08 12:56:30.90	349.82	2.50	-45.3	-56.4	3.8	8.46e-01	0	59	104	869269504	60	13480
2026-01-08 12:56:32.92	349.70	2.38	-45.3	-56.4	3.8	8.46e-01	0	59	104	869269504	60	13484
2026-01-08 12:56:34.94	349.58	2.27	-45.3	-56.4	3.8	8.47e-01	0	59	104	869269504	60	13460
2026-01-08 12:56:36.96	349.46	2.15	-45.3	-56.4	3.8	8.47e-01	0	59	104	869269504	60	13505
2026-01-08 12:56:38.98	349.34	2.03	-45.3	-56.4	3.8	8.46e-01	0	59	104	869269504	60	13427

#Closed at: 2026-01-08 12:56:40
#Recorded file [869 MB]: D:/lorett/data/31039_260108_155109.dat