passes_logs/2025/01/09/SPB_Silybum_02/SPB_Silybum_02__20250109_152112_TERRA_rec.log

#Pass ID: 20250109_152112_TERRA
#Satellite: TERRA
#Configuration: TERRA
#Start time: 2025-01-09 15:21:12

#Version: 2.0.20230423
#Station: SPB_Silybum_02
#Location: 30.233357 lon 59.946436 lat
#TLE: 1 25994U 99068A   25008.82275774  .00000946  00000+0  20487-3 0  9990
#TLE: 2 25994  98.0228  72.0493 0003564  84.8498   6.9254 14.60383008333170

#Time	Az	El	Level	Level2	SNR	BER	Gain	Gain2
2025-01-09 15:21:14.94	60.81	4.10	
2025-01-09 15:21:15.56	60.72	4.13	
2025-01-09 15:21:16.18	60.63	4.15	
2025-01-09 15:21:16.79	60.55	4.17	
2025-01-09 15:21:17.40	60.46	4.20	
2025-01-09 15:21:18.02	60.37	4.22	
2025-01-09 15:21:18.63	60.29	4.25	
2025-01-09 15:21:19.25	60.20	4.27	
2025-01-09 15:21:19.87	60.11	4.29	
2025-01-09 15:21:20.48	60.03	4.32	
2025-01-09 15:21:21.10	59.94	4.34	
2025-01-09 15:21:21.71	59.85	4.36	
2025-01-09 15:21:22.33	59.77	4.39	
2025-01-09 15:21:22.95	59.68	4.41	
2025-01-09 15:21:23.56	59.59	4.43	
2025-01-09 15:21:24.18	59.50	4.45	
2025-01-09 15:21:24.81	59.41	4.48	
2025-01-09 15:21:25.43	59.32	4.50	
2025-01-09 15:21:26.04	59.23	4.52	
2025-01-09 15:21:26.66	59.14	4.55	
2025-01-09 15:21:27.28	59.06	4.57	
2025-01-09 15:21:27.89	58.97	4.59	
2025-01-09 15:21:28.51	58.88	4.62	
2025-01-09 15:21:29.13	58.79	4.64	
2025-01-09 15:21:29.74	58.70	4.66	
2025-01-09 15:21:30.37	58.61	4.69	
2025-01-09 15:21:31.00	58.52	4.71	
2025-01-09 15:21:31.61	58.43	4.73	
2025-01-09 15:21:32.23	58.34	4.75	
2025-01-09 15:21:32.84	58.25	4.78	
2025-01-09 15:21:33.46	58.16	4.80	
2025-01-09 15:21:34.07	58.07	4.82	
2025-01-09 15:21:34.69	57.97	4.84	
2025-01-09 15:21:35.30	57.88	4.87	
2025-01-09 15:21:35.92	57.79	4.89	
2025-01-09 15:21:36.53	57.70	4.91	
2025-01-09 15:21:37.15	57.61	4.93	
2025-01-09 15:21:37.77	57.52	4.96	
2025-01-09 15:21:38.38	57.43	4.98	
2025-01-09 15:21:39.01	57.33	5.00	
2025-01-09 15:21:39.62	57.24	5.02	
2025-01-09 15:21:40.24	57.15	5.04	
2025-01-09 15:21:40.87	57.06	5.07	
2025-01-09 15:21:41.48	56.96	5.09	
2025-01-09 15:21:42.11	56.87	5.11	
2025-01-09 15:21:42.73	56.78	5.13	
2025-01-09 15:21:43.34	56.68	5.16	
2025-01-09 15:21:43.96	56.59	5.18	
2025-01-09 15:21:44.57	56.50	5.20	
2025-01-09 15:21:45.20	56.40	5.22	
2025-01-09 15:21:45.82	56.31	5.24	
2025-01-09 15:21:46.43	56.22	5.26	
2025-01-09 15:21:47.06	56.12	5.29	
2025-01-09 15:21:47.67	56.03	5.31	
2025-01-09 15:21:48.29	55.93	5.33	
2025-01-09 15:21:48.92	55.84	5.35	
2025-01-09 15:21:49.53	55.74	5.37	
2025-01-09 15:21:50.15	55.65	5.39	
2025-01-09 15:21:50.76	55.55	5.42	
2025-01-09 15:21:51.38	55.46	5.44	
2025-01-09 15:21:52.00	55.36	5.46	
2025-01-09 15:21:52.61	55.27	5.48	
2025-01-09 15:21:53.23	55.17	5.50	
2025-01-09 15:21:53.84	55.08	5.52	
2025-01-09 15:21:54.46	54.98	5.54	
2025-01-09 15:21:55.08	54.89	5.56	
2025-01-09 15:21:55.69	54.79	5.58	
2025-01-09 15:21:56.31	54.69	5.61	
2025-01-09 15:21:56.92	54.60	5.63	
2025-01-09 15:21:57.54	54.50	5.65	
2025-01-09 15:21:58.15	54.41	5.67	
2025-01-09 15:21:58.76	54.31	5.69	
2025-01-09 15:21:59.38	54.21	5.71	
2025-01-09 15:22:00.01	54.11	5.73	
2025-01-09 15:22:00.63	54.02	5.75	
2025-01-09 15:22:01.24	53.92	5.77	
2025-01-09 15:22:01.86	53.82	5.79	
2025-01-09 15:22:02.47	53.72	5.81	
2025-01-09 15:22:03.09	53.63	5.83	
2025-01-09 15:22:03.71	53.53	5.85	
2025-01-09 15:22:04.32	53.43	5.87	
2025-01-09 15:22:04.94	53.33	5.89	
2025-01-09 15:22:05.55	53.23	5.91	
2025-01-09 15:22:06.17	53.14	5.93	
2025-01-09 15:22:06.79	53.04	5.95	
2025-01-09 15:22:07.40	52.94	5.97	
2025-01-09 15:22:08.02	52.84	5.99	
2025-01-09 15:22:08.63	52.74	6.01	
2025-01-09 15:22:09.25	52.64	6.03	
2025-01-09 15:22:09.87	52.54	6.05	
2025-01-09 15:22:10.49	52.44	6.07	
2025-01-09 15:22:11.11	52.34	6.09	
2025-01-09 15:22:11.73	52.24	6.11	
2025-01-09 15:22:12.35	52.14	6.13	
2025-01-09 15:22:12.98	52.04	6.15	
2025-01-09 15:22:13.61	51.93	6.17	
2025-01-09 15:22:14.23	51.83	6.19	
2025-01-09 15:22:14.84	51.73	6.21	
2025-01-09 15:22:15.45	51.63	6.23	
2025-01-09 15:22:16.06	51.53	6.25	
2025-01-09 15:22:16.68	51.43	6.26	
2025-01-09 15:22:17.29	51.33	6.28	
2025-01-09 15:22:17.92	51.23	6.30	
2025-01-09 15:22:18.54	51.13	6.32	
2025-01-09 15:22:19.16	51.02	6.34	
2025-01-09 15:22:19.77	50.92	6.36	
2025-01-09 15:22:20.40	50.82	6.38	
2025-01-09 15:22:21.02	50.72	6.40	
2025-01-09 15:22:21.63	50.62	6.41	
2025-01-09 15:22:22.24	50.51	6.43	
2025-01-09 15:22:22.86	50.41	6.45	
2025-01-09 15:22:23.48	50.31	6.47	
2025-01-09 15:22:24.10	50.20	6.49	
2025-01-09 15:22:24.71	50.10	6.51	
2025-01-09 15:22:25.32	50.00	6.52	
2025-01-09 15:22:25.94	49.90	6.54	
2025-01-09 15:22:26.56	49.79	6.56	
2025-01-09 15:22:27.17	49.69	6.58	
2025-01-09 15:22:27.79	49.59	6.60	
2025-01-09 15:22:28.40	49.48	6.61	
2025-01-09 15:22:29.02	49.38	6.63	
2025-01-09 15:22:29.63	49.28	6.65	
2025-01-09 15:22:30.25	49.17	6.67	
2025-01-09 15:22:30.86	49.07	6.68	
2025-01-09 15:22:31.48	48.96	6.70	
2025-01-09 15:22:32.09	48.86	6.72	
2025-01-09 15:22:32.70	48.76	6.74	
2025-01-09 15:22:33.33	48.65	6.75	
2025-01-09 15:22:33.95	48.54	6.77	
2025-01-09 15:22:34.57	48.44	6.79	
2025-01-09 15:22:35.18	48.33	6.80	
2025-01-09 15:22:35.80	48.23	6.82	
2025-01-09 15:22:36.41	48.12	6.84	
2025-01-09 15:22:37.02	48.02	6.85	
2025-01-09 15:22:37.64	47.91	6.87	
2025-01-09 15:22:38.26	47.80	6.89	
2025-01-09 15:22:38.87	47.70	6.90	
2025-01-09 15:22:39.50	47.59	6.92	
2025-01-09 15:22:40.11	47.49	6.94	
2025-01-09 15:22:40.73	47.38	6.95	
2025-01-09 15:22:41.34	47.27	6.97	
2025-01-09 15:22:41.96	47.17	6.99	
2025-01-09 15:22:42.58	47.06	7.00	
2025-01-09 15:22:43.19	46.95	7.02	
2025-01-09 15:22:43.81	46.84	7.03	
2025-01-09 15:22:44.42	46.74	7.05	
2025-01-09 15:22:45.03	46.63	7.07	
2025-01-09 15:22:45.65	46.52	7.08	
2025-01-09 15:22:46.27	46.42	7.10	
2025-01-09 15:22:46.88	46.31	7.11	
2025-01-09 15:22:47.50	46.20	7.13	
2025-01-09 15:22:48.11	46.09	7.14	
2025-01-09 15:22:48.73	45.99	7.16	
2025-01-09 15:22:49.34	45.88	7.17	
2025-01-09 15:22:49.95	45.77	7.19	
2025-01-09 15:22:50.57	45.66	7.20	
2025-01-09 15:22:51.19	45.55	7.22	
2025-01-09 15:22:51.81	45.44	7.23	
2025-01-09 15:22:52.42	45.34	7.25	
2025-01-09 15:22:53.04	45.23	7.26	
2025-01-09 15:22:53.65	45.12	7.28	
2025-01-09 15:22:54.27	45.01	7.29	
2025-01-09 15:22:54.89	44.90	7.31	
2025-01-09 15:22:55.50	44.79	7.32	
2025-01-09 15:22:56.12	44.68	7.34	
2025-01-09 15:22:56.73	44.57	7.35	
2025-01-09 15:22:57.35	44.46	7.36	
2025-01-09 15:22:57.96	44.35	7.38	
2025-01-09 15:22:58.59	44.24	7.39	
2025-01-09 15:22:59.21	44.13	7.41	
2025-01-09 15:22:59.82	44.02	7.42	
2025-01-09 15:23:00.43	43.91	7.43	
2025-01-09 15:23:01.05	43.80	7.45	
2025-01-09 15:23:01.66	43.69	7.46	
2025-01-09 15:23:02.27	43.58	7.47	
2025-01-09 15:23:02.89	43.47	7.49	
2025-01-09 15:23:03.51	43.36	7.50	
2025-01-09 15:23:04.12	43.25	7.51	
2025-01-09 15:23:04.74	43.14	7.53	
2025-01-09 15:23:05.35	43.02	7.54	
2025-01-09 15:23:05.97	42.91	7.55	
2025-01-09 15:23:06.58	42.80	7.57	
2025-01-09 15:23:07.20	42.69	7.58	
2025-01-09 15:23:07.82	42.58	7.59	
2025-01-09 15:23:08.43	42.47	7.60	
2025-01-09 15:23:09.05	42.35	7.62	
2025-01-09 15:23:09.66	42.24	7.63	
2025-01-09 15:23:10.29	42.13	7.64	
2025-01-09 15:23:10.91	42.02	7.65	
2025-01-09 15:23:11.52	41.91	7.67	
2025-01-09 15:23:12.14	41.79	7.68	
2025-01-09 15:23:12.76	41.68	7.69	
2025-01-09 15:23:13.37	41.57	7.70	
2025-01-09 15:23:13.99	41.45	7.71	
2025-01-09 15:23:14.60	41.34	7.73	
2025-01-09 15:23:15.22	41.23	7.74	
2025-01-09 15:23:15.84	41.11	7.75	
2025-01-09 15:23:16.45	41.00	7.76	
2025-01-09 15:23:17.08	40.89	7.77	
2025-01-09 15:23:17.70	40.77	7.78	
2025-01-09 15:23:18.31	40.66	7.79	
2025-01-09 15:23:18.92	40.55	7.81	
2025-01-09 15:23:19.54	40.43	7.82	
2025-01-09 15:23:20.16	40.32	7.83	
2025-01-09 15:23:20.77	40.21	7.84	
2025-01-09 15:23:21.39	40.09	7.85	
2025-01-09 15:23:22.00	39.98	7.86	
2025-01-09 15:23:22.62	39.87	7.87	
2025-01-09 15:23:23.23	39.75	7.88	
2025-01-09 15:23:23.85	39.64	7.89	
2025-01-09 15:23:24.46	39.52	7.90	
2025-01-09 15:23:25.08	39.41	7.91	
2025-01-09 15:23:25.69	39.30	7.92	
2025-01-09 15:23:26.30	39.18	7.93	
2025-01-09 15:23:26.92	39.07	7.94	
2025-01-09 15:23:27.55	38.95	7.95	
2025-01-09 15:23:28.16	38.84	7.96	
2025-01-09 15:23:28.78	38.72	7.97	
2025-01-09 15:23:29.41	38.60	7.98	
2025-01-09 15:23:30.02	38.49	7.99	
2025-01-09 15:23:30.63	38.38	8.00	
2025-01-09 15:23:31.25	38.26	8.01	
2025-01-09 15:23:31.87	38.14	8.02	
2025-01-09 15:23:32.49	38.03	8.02	
2025-01-09 15:23:33.11	37.91	8.03	
2025-01-09 15:23:33.73	37.79	8.04	
2025-01-09 15:23:34.35	37.68	8.05	
2025-01-09 15:23:34.96	37.56	8.06	
2025-01-09 15:23:35.58	37.45	8.07	
2025-01-09 15:23:36.19	37.33	8.08	
2025-01-09 15:23:36.81	37.22	8.08	
2025-01-09 15:23:37.42	37.10	8.09	
2025-01-09 15:23:38.04	36.98	8.10	
2025-01-09 15:23:38.65	36.87	8.11	
2025-01-09 15:23:39.28	36.75	8.12	
2025-01-09 15:23:39.90	36.63	8.12	
2025-01-09 15:23:40.51	36.52	8.13	
2025-01-09 15:23:41.13	36.40	8.14	
2025-01-09 15:23:41.74	36.29	8.15	
2025-01-09 15:23:42.36	36.17	8.15	
2025-01-09 15:23:42.97	36.05	8.16	
2025-01-09 15:23:43.59	35.94	8.17	
2025-01-09 15:23:44.21	35.82	8.17	
2025-01-09 15:23:44.82	35.70	8.18	
2025-01-09 15:23:45.45	35.58	8.19	
2025-01-09 15:23:46.07	35.47	8.20	
2025-01-09 15:23:46.68	35.35	8.20	
2025-01-09 15:23:47.30	35.23	8.21	
2025-01-09 15:23:47.92	35.12	8.21	
2025-01-09 15:23:48.54	35.00	8.22	
2025-01-09 15:23:49.16	34.88	8.23	
2025-01-09 15:23:49.78	34.76	8.23	
2025-01-09 15:23:50.39	34.65	8.24	
2025-01-09 15:23:51.01	34.53	8.24	
2025-01-09 15:23:51.63	34.41	8.25	
2025-01-09 15:23:52.24	34.29	8.26	
2025-01-09 15:23:52.85	34.18	8.26	
2025-01-09 15:23:53.47	34.06	8.27	
2025-01-09 15:23:54.10	33.94	8.27	
2025-01-09 15:23:54.72	33.82	8.28	
2025-01-09 15:23:55.33	33.70	8.28	
2025-01-09 15:23:55.95	33.59	8.29	
2025-01-09 15:23:56.56	33.47	8.29	
2025-01-09 15:23:57.17	33.35	8.30	
2025-01-09 15:23:57.79	33.23	8.30	
2025-01-09 15:23:58.40	33.12	8.31	
2025-01-09 15:23:59.02	33.00	8.31	
2025-01-09 15:23:59.63	32.88	8.32	
2025-01-09 15:24:00.25	32.76	8.32	
2025-01-09 15:24:00.86	32.65	8.32	
2025-01-09 15:24:01.48	32.53	8.33	
2025-01-09 15:24:02.10	32.41	8.33	
2025-01-09 15:24:02.72	32.29	8.34	
2025-01-09 15:24:03.34	32.17	8.34	
2025-01-09 15:24:03.95	32.05	8.34	
2025-01-09 15:24:04.57	31.94	8.35	
2025-01-09 15:24:05.18	31.82	8.35	
2025-01-09 15:24:05.80	31.70	8.35	
2025-01-09 15:24:06.41	31.58	8.36	
2025-01-09 15:24:07.04	31.46	8.36	
2025-01-09 15:24:07.66	31.34	8.36	
2025-01-09 15:24:08.28	31.22	8.37	
2025-01-09 15:24:08.90	31.10	8.37	
2025-01-09 15:24:09.51	30.99	8.37	
2025-01-09 15:24:10.13	30.87	8.37	
2025-01-09 15:24:10.75	30.75	8.38	
2025-01-09 15:24:11.36	30.63	8.38	
2025-01-09 15:24:11.98	30.51	8.38	
2025-01-09 15:24:12.59	30.40	8.38	
2025-01-09 15:24:13.21	30.28	8.38	
2025-01-09 15:24:13.82	30.16	8.39	
2025-01-09 15:24:14.43	30.04	8.39	
2025-01-09 15:24:15.05	29.92	8.39	
2025-01-09 15:24:15.68	29.80	8.39	
2025-01-09 15:24:16.29	29.68	8.39	
2025-01-09 15:24:16.91	29.56	8.39	
2025-01-09 15:24:17.52	29.45	8.39	
2025-01-09 15:24:18.14	29.33	8.40	
2025-01-09 15:24:18.76	29.21	8.40	
2025-01-09 15:24:19.37	29.09	8.40	
2025-01-09 15:24:19.99	28.97	8.40	
2025-01-09 15:24:20.60	28.85	8.40	
2025-01-09 15:24:21.23	28.73	8.40	
2025-01-09 15:24:21.85	28.61	8.40	
2025-01-09 15:24:22.47	28.49	8.40	
2025-01-09 15:24:23.08	28.38	8.40	
2025-01-09 15:24:23.70	28.26	8.40	
2025-01-09 15:24:24.31	28.14	8.40	
2025-01-09 15:24:24.92	28.02	8.40	
2025-01-09 15:24:25.54	27.90	8.40	
2025-01-09 15:24:26.15	27.79	8.40	
2025-01-09 15:24:26.77	27.67	8.40	
2025-01-09 15:24:27.39	27.55	8.40	
2025-01-09 15:24:28.00	27.43	8.40	
2025-01-09 15:24:28.62	27.31	8.40	
2025-01-09 15:24:29.23	27.19	8.40	
2025-01-09 15:24:29.85	27.07	8.40	
2025-01-09 15:24:30.47	26.95	8.40	
2025-01-09 15:24:31.09	26.83	8.39	
2025-01-09 15:24:31.70	26.72	8.39	
2025-01-09 15:24:32.32	26.60	8.39	
2025-01-09 15:24:32.95	26.48	8.39	
2025-01-09 15:24:33.56	26.36	8.39	
2025-01-09 15:24:34.18	26.24	8.39	
2025-01-09 15:24:34.79	26.12	8.38	
2025-01-09 15:24:35.41	26.00	8.38	
2025-01-09 15:24:36.03	25.88	8.38	
2025-01-09 15:24:36.64	25.77	8.38	
2025-01-09 15:24:37.26	25.65	8.38	
2025-01-09 15:24:37.87	25.53	8.37	
2025-01-09 15:24:38.49	25.41	8.37	
2025-01-09 15:24:39.10	25.29	8.37	
2025-01-09 15:24:39.72	25.18	8.37	
2025-01-09 15:24:40.34	25.06	8.36	
2025-01-09 15:24:40.96	24.94	8.36	
2025-01-09 15:24:41.58	24.82	8.36	
2025-01-09 15:24:42.20	24.70	8.35	
2025-01-09 15:24:42.81	24.58	8.35	
2025-01-09 15:24:43.43	24.46	8.35	
2025-01-09 15:24:44.04	24.35	8.34	
2025-01-09 15:24:44.66	24.23	8.34	
2025-01-09 15:24:45.27	24.11	8.34	
2025-01-09 15:24:45.89	23.99	8.33	
2025-01-09 15:24:46.51	23.87	8.33	
2025-01-09 15:24:47.12	23.76	8.32	
2025-01-09 15:24:47.75	23.64	8.32	
2025-01-09 15:24:48.37	23.52	8.32	
2025-01-09 15:24:48.99	23.40	8.31	
2025-01-09 15:24:49.60	23.28	8.31	
2025-01-09 15:24:50.22	23.16	8.30	
2025-01-09 15:24:50.83	23.05	8.30	
2025-01-09 15:24:51.45	22.93	8.29	
2025-01-09 15:24:52.07	22.81	8.29	
2025-01-09 15:24:52.69	22.69	8.28	
2025-01-09 15:24:53.31	22.57	8.28	
2025-01-09 15:24:53.93	22.46	8.27	
2025-01-09 15:24:54.55	22.34	8.27	
2025-01-09 15:24:55.16	22.22	8.26	
2025-01-09 15:24:55.78	22.10	8.26	
2025-01-09 15:24:56.40	21.98	8.25	
2025-01-09 15:24:57.01	21.87	8.25	
2025-01-09 15:24:57.63	21.75	8.24	
2025-01-09 15:24:58.24	21.64	8.23	
2025-01-09 15:24:58.86	21.52	8.23	
2025-01-09 15:24:59.47	21.40	8.22	
2025-01-09 15:25:00.09	21.28	8.22	
2025-01-09 15:25:00.70	21.17	8.21	
2025-01-09 15:25:01.31	21.05	8.20	
2025-01-09 15:25:01.93	20.93	8.20	
2025-01-09 15:25:02.54	20.82	8.19	
2025-01-09 15:25:03.16	20.70	8.18	
2025-01-09 15:25:03.78	20.58	8.18	
2025-01-09 15:25:04.39	20.47	8.17	
2025-01-09 15:25:05.01	20.35	8.16	
2025-01-09 15:25:05.62	20.24	8.16	
2025-01-09 15:25:06.24	20.12	8.15	
2025-01-09 15:25:06.85	20.00	8.14	
2025-01-09 15:25:07.47	19.89	8.13	
2025-01-09 15:25:08.10	19.77	8.13	
2025-01-09 15:25:08.72	19.65	8.12	
2025-01-09 15:25:09.33	19.54	8.11	
2025-01-09 15:25:09.94	19.42	8.10	
2025-01-09 15:25:10.56	19.31	8.09	
2025-01-09 15:25:11.17	19.19	8.09	
2025-01-09 15:25:11.79	19.07	8.08	
2025-01-09 15:25:12.41	18.96	8.07	
2025-01-09 15:25:13.02	18.84	8.06	
2025-01-09 15:25:13.64	18.73	8.05	
2025-01-09 15:25:14.25	18.61	8.04	
2025-01-09 15:25:14.87	18.50	8.04	
2025-01-09 15:25:15.49	18.38	8.03	
2025-01-09 15:25:16.11	18.26	8.02	
2025-01-09 15:25:16.73	18.15	8.01	
2025-01-09 15:25:17.34	18.03	8.00	
2025-01-09 15:25:17.95	17.92	7.99	
2025-01-09 15:25:18.56	17.81	7.98	
2025-01-09 15:25:19.18	17.69	7.97	
2025-01-09 15:25:19.80	17.58	7.96	
2025-01-09 15:25:20.41	17.46	7.95	
2025-01-09 15:25:21.03	17.35	7.94	
2025-01-09 15:25:21.65	17.23	7.93	
2025-01-09 15:25:22.26	17.12	7.92	
2025-01-09 15:25:22.88	17.00	7.91	
2025-01-09 15:25:23.50	16.89	7.90	
2025-01-09 15:25:24.12	16.77	7.89	
2025-01-09 15:25:24.73	16.66	7.88	
2025-01-09 15:25:25.35	16.55	7.87	
2025-01-09 15:25:25.96	16.43	7.86	
2025-01-09 15:25:26.58	16.32	7.85	
2025-01-09 15:25:27.20	16.20	7.84	
2025-01-09 15:25:27.81	16.09	7.83	
2025-01-09 15:25:28.44	15.98	7.82	
2025-01-09 15:25:29.06	15.86	7.81	
2025-01-09 15:25:29.68	15.75	7.80	
2025-01-09 15:25:30.31	15.63	7.79	
2025-01-09 15:25:30.93	15.52	7.77	
2025-01-09 15:25:31.54	15.41	7.76	
2025-01-09 15:25:32.16	15.29	7.75	
2025-01-09 15:25:32.77	15.18	7.74	
2025-01-09 15:25:33.39	15.07	7.73	
2025-01-09 15:25:34.00	14.96	7.72	
2025-01-09 15:25:34.62	14.84	7.71	
2025-01-09 15:25:35.24	14.73	7.69	
2025-01-09 15:25:35.85	14.62	7.68	
2025-01-09 15:25:36.47	14.51	7.67	
2025-01-09 15:25:37.09	14.39	7.66	
2025-01-09 15:25:37.71	14.28	7.65	
2025-01-09 15:25:38.33	14.17	7.63	
2025-01-09 15:25:38.95	14.05	7.62	
2025-01-09 15:25:39.56	13.94	7.61	
2025-01-09 15:25:40.18	13.83	7.60	
2025-01-09 15:25:40.79	13.72	7.58	
2025-01-09 15:25:41.40	13.61	7.57	
2025-01-09 15:25:42.02	13.50	7.56	
2025-01-09 15:25:42.64	13.39	7.54	
2025-01-09 15:25:43.28	13.27	7.53	
2025-01-09 15:25:43.89	13.16	7.52	
2025-01-09 15:25:44.51	13.05	7.50	
2025-01-09 15:25:45.12	12.94	7.49	
2025-01-09 15:25:45.74	12.83	7.48	
2025-01-09 15:25:46.37	12.72	7.46	
2025-01-09 15:25:46.98	12.61	7.45	
2025-01-09 15:25:47.60	12.50	7.44	
2025-01-09 15:25:48.22	12.39	7.42	
2025-01-09 15:25:48.84	12.27	7.41	
2025-01-09 15:25:49.46	12.16	7.40	
2025-01-09 15:25:50.08	12.05	7.38	
2025-01-09 15:25:50.69	11.95	7.37	
2025-01-09 15:25:51.31	11.83	7.35	
2025-01-09 15:25:51.92	11.73	7.34	
2025-01-09 15:25:52.54	11.62	7.32	
2025-01-09 15:25:53.15	11.51	7.31	
2025-01-09 15:25:53.78	11.40	7.30	
2025-01-09 15:25:54.40	11.29	7.28	
2025-01-09 15:25:55.01	11.18	7.27	
2025-01-09 15:25:55.63	11.07	7.25	
2025-01-09 15:25:56.24	10.96	7.24	
2025-01-09 15:25:56.86	10.85	7.22	
2025-01-09 15:25:57.47	10.75	7.21	
2025-01-09 15:25:58.09	10.64	7.19	
2025-01-09 15:25:58.71	10.53	7.18	
2025-01-09 15:25:59.33	10.42	7.16	
2025-01-09 15:25:59.95	10.31	7.15	
2025-01-09 15:26:00.56	10.20	7.13	
2025-01-09 15:26:01.18	10.10	7.12	
2025-01-09 15:26:01.80	9.99	7.10	
2025-01-09 15:26:02.41	9.88	7.08	
2025-01-09 15:26:03.03	9.77	7.07	
2025-01-09 15:26:03.64	9.67	7.05	
2025-01-09 15:26:04.26	9.56	7.04	
2025-01-09 15:26:04.89	9.45	7.02	
2025-01-09 15:26:05.50	9.35	7.01	
2025-01-09 15:26:06.12	9.24	6.99	
2025-01-09 15:26:06.73	9.13	6.97	
2025-01-09 15:26:07.35	9.03	6.96	
2025-01-09 15:26:07.96	8.92	6.94	
2025-01-09 15:26:08.58	8.81	6.92	
2025-01-09 15:26:09.20	8.71	6.91	
2025-01-09 15:26:09.81	8.60	6.89	
2025-01-09 15:26:10.43	8.50	6.87	
2025-01-09 15:26:11.05	8.39	6.86	
2025-01-09 15:26:11.67	8.28	6.84	
2025-01-09 15:26:12.30	8.18	6.82	
2025-01-09 15:26:12.92	8.07	6.81	
2025-01-09 15:26:13.53	7.97	6.79	
2025-01-09 15:26:14.15	7.86	6.77	
2025-01-09 15:26:14.76	7.76	6.76	
2025-01-09 15:26:15.37	7.65	6.74	
2025-01-09 15:26:15.99	7.55	6.72	
2025-01-09 15:26:16.61	7.44	6.70	
2025-01-09 15:26:17.22	7.34	6.69	
2025-01-09 15:26:17.84	7.24	6.67	
2025-01-09 15:26:18.45	7.13	6.65	
2025-01-09 15:26:19.07	7.03	6.63	
2025-01-09 15:26:19.69	6.92	6.62	
2025-01-09 15:26:20.30	6.82	6.60	
2025-01-09 15:26:20.92	6.72	6.58	
2025-01-09 15:26:21.53	6.62	6.56	
2025-01-09 15:26:22.15	6.51	6.55	
2025-01-09 15:26:22.77	6.41	6.53	
2025-01-09 15:26:23.39	6.31	6.51	
2025-01-09 15:26:24.00	6.20	6.49	
2025-01-09 15:26:24.62	6.10	6.47	
2025-01-09 15:26:25.24	6.00	6.45	
2025-01-09 15:26:25.85	5.90	6.44	
2025-01-09 15:26:26.47	5.79	6.42	
2025-01-09 15:26:27.08	5.69	6.40	
2025-01-09 15:26:27.70	5.59	6.38	
2025-01-09 15:26:28.31	5.49	6.36	
2025-01-09 15:26:28.93	5.39	6.34	
2025-01-09 15:26:29.54	5.29	6.33	
2025-01-09 15:26:30.16	5.19	6.31	
2025-01-09 15:26:30.78	5.08	6.29	
2025-01-09 15:26:31.39	4.98	6.27	
2025-01-09 15:26:32.01	4.88	6.25	
2025-01-09 15:26:32.63	4.78	6.23	
2025-01-09 15:26:33.26	4.68	6.21	
2025-01-09 15:26:33.87	4.58	6.19	
2025-01-09 15:26:34.49	4.48	6.17	
2025-01-09 15:26:35.11	4.38	6.15	
2025-01-09 15:26:35.72	4.28	6.13	
2025-01-09 15:26:36.34	4.18	6.11	
2025-01-09 15:26:36.95	4.08	6.10	
2025-01-09 15:26:37.56	3.98	6.08	
2025-01-09 15:26:38.18	3.88	6.06	
2025-01-09 15:26:38.80	3.78	6.04	
2025-01-09 15:26:39.41	3.68	6.02	
2025-01-09 15:26:40.04	3.58	6.00	
2025-01-09 15:26:40.66	3.48	5.98	
2025-01-09 15:26:41.27	3.39	5.96	
2025-01-09 15:26:41.89	3.29	5.94	
2025-01-09 15:26:42.50	3.19	5.92	
2025-01-09 15:26:43.12	3.09	5.90	
2025-01-09 15:26:43.74	2.99	5.88	
2025-01-09 15:26:44.35	2.90	5.86	
2025-01-09 15:26:44.98	2.80	5.84	
2025-01-09 15:26:45.59	2.70	5.82	
2025-01-09 15:26:46.22	2.60	5.80	
2025-01-09 15:26:46.84	2.50	5.78	
2025-01-09 15:26:47.45	2.41	5.76	
2025-01-09 15:26:48.07	2.31	5.73	
2025-01-09 15:26:48.69	2.21	5.71	
2025-01-09 15:26:49.31	2.11	5.69	
2025-01-09 15:26:49.92	2.02	5.67	
2025-01-09 15:26:50.54	1.92	5.65	
2025-01-09 15:26:51.15	1.83	5.63	
2025-01-09 15:26:51.78	1.73	5.61	
2025-01-09 15:26:52.40	1.63	5.59	
2025-01-09 15:26:53.01	1.54	5.57	
2025-01-09 15:26:53.63	1.44	5.55	
2025-01-09 15:26:54.24	1.35	5.53	
2025-01-09 15:26:54.86	1.25	5.51	
2025-01-09 15:26:55.48	1.16	5.48	
2025-01-09 15:26:56.09	1.06	5.46	
2025-01-09 15:26:56.72	0.96	5.44	
2025-01-09 15:26:57.34	0.87	5.42	
2025-01-09 15:26:57.97	0.77	5.40	
2025-01-09 15:26:58.59	0.68	5.38	
2025-01-09 15:26:59.20	0.58	5.36	
2025-01-09 15:26:59.83	0.49	5.33	
2025-01-09 15:27:00.45	0.39	5.31	
2025-01-09 15:27:01.06	0.30	5.29	
2025-01-09 15:27:01.68	0.21	5.27	
2025-01-09 15:27:02.29	0.11	5.25	
2025-01-09 15:27:02.91	0.02	5.23	
2025-01-09 15:27:03.53	359.93	5.20	
2025-01-09 15:27:04.16	359.83	5.18	
2025-01-09 15:27:04.77	359.74	5.16	
2025-01-09 15:27:05.39	359.65	5.14	
2025-01-09 15:27:06.00	359.56	5.12	
2025-01-09 15:27:06.62	359.46	5.09	
2025-01-09 15:27:07.23	359.37	5.07	
2025-01-09 15:27:07.85	359.28	5.05	
2025-01-09 15:27:08.46	359.19	5.03	
2025-01-09 15:27:09.08	359.10	5.01	
2025-01-09 15:27:09.70	359.00	4.98	
2025-01-09 15:27:10.32	358.91	4.96	
2025-01-09 15:27:10.93	358.82	4.94	
2025-01-09 15:27:11.54	358.73	4.92	
2025-01-09 15:27:12.16	358.64	4.90	
2025-01-09 15:27:12.77	358.55	4.87	
2025-01-09 15:27:13.39	358.46	4.85	
2025-01-09 15:27:14.01	358.37	4.83	
2025-01-09 15:27:14.62	358.28	4.81	
2025-01-09 15:27:15.25	358.19	4.78	
2025-01-09 15:27:15.87	358.10	4.76	
2025-01-09 15:27:16.48	358.01	4.74	
2025-01-09 15:27:17.10	357.92	4.71	
2025-01-09 15:27:17.71	357.83	4.69	
2025-01-09 15:27:18.34	357.74	4.67	
2025-01-09 15:27:18.96	357.65	4.65	
2025-01-09 15:27:19.57	357.56	4.62	
2025-01-09 15:27:20.19	357.47	4.60	
2025-01-09 15:27:20.81	357.38	4.58	
2025-01-09 15:27:21.42	357.29	4.55	
2025-01-09 15:27:22.04	357.20	4.53	
2025-01-09 15:27:22.65	357.12	4.51	
2025-01-09 15:27:23.27	357.03	4.49	
2025-01-09 15:27:23.89	356.94	4.46	
2025-01-09 15:27:24.50	356.85	4.44	
2025-01-09 15:27:25.12	356.77	4.42	
2025-01-09 15:27:25.73	356.68	4.39	
2025-01-09 15:27:26.35	356.59	4.37	
2025-01-09 15:27:26.97	356.50	4.35	
2025-01-09 15:27:27.59	356.42	4.32	
2025-01-09 15:27:28.21	356.33	4.30	
2025-01-09 15:27:28.83	356.24	4.28	
2025-01-09 15:27:29.45	356.15	4.25	
2025-01-09 15:27:30.06	356.07	4.23	
2025-01-09 15:27:30.68	355.98	4.21	
2025-01-09 15:27:31.29	355.90	4.18	
2025-01-09 15:27:31.91	355.81	4.16	
2025-01-09 15:27:32.52	355.73	4.14	
2025-01-09 15:27:33.14	355.64	4.11	
2025-01-09 15:27:33.75	355.55	4.09	
2025-01-09 15:27:34.37	355.47	4.06	
2025-01-09 15:27:34.98	355.38	4.04	
2025-01-09 15:27:35.60	355.30	4.02	

#Closed at: 2025-01-09 15:27:36