passes_logs/2025/01/09/SPB_Silybum_02/SPB_Silybum_02__20250109_105301_AQUA_rec.log

#Pass ID: 20250109_105301_AQUA
#Satellite: AQUA
#Configuration: AQUA
#Start time: 2025-01-09 10:53:01

#Version: 2.0.20230423
#Station: SPB_Silybum_02
#Location: 30.233357 lon 59.946436 lat
#TLE: 1 27424U 02022A   25008.83930641  .00002008  00000+0  42243-3 0  9991
#TLE: 2 27424  98.3576 325.4481 0001488 117.9026 295.2820 14.60658995206721

#Time	Az	El	Level	Level2	SNR	BER	Gain	Gain2
2025-01-09 10:53:04.00	145.30	4.14	
2025-01-09 10:53:05.25	145.27	4.23	
2025-01-09 10:53:06.48	145.24	4.32	
2025-01-09 10:53:07.71	145.21	4.41	
2025-01-09 10:53:08.94	145.18	4.50	
2025-01-09 10:53:10.17	145.15	4.59	
2025-01-09 10:53:11.41	145.12	4.68	
2025-01-09 10:53:12.64	145.09	4.77	
2025-01-09 10:53:13.87	145.06	4.86	
2025-01-09 10:53:15.10	145.03	4.95	
2025-01-09 10:53:16.33	145.00	5.05	
2025-01-09 10:53:17.57	144.97	5.14	
2025-01-09 10:53:18.82	144.94	5.23	
2025-01-09 10:53:20.05	144.90	5.32	
2025-01-09 10:53:21.27	144.87	5.42	
2025-01-09 10:53:22.50	144.84	5.51	
2025-01-09 10:53:23.74	144.81	5.60	
2025-01-09 10:53:24.97	144.78	5.70	
2025-01-09 10:53:26.20	144.74	5.79	
2025-01-09 10:53:27.44	144.71	5.89	
2025-01-09 10:53:28.68	144.67	5.98	
2025-01-09 10:53:29.92	144.64	6.08	
2025-01-09 10:53:31.15	144.61	6.17	
2025-01-09 10:53:32.39	144.57	6.27	
2025-01-09 10:53:33.62	144.54	6.37	
2025-01-09 10:53:34.85	144.50	6.47	
2025-01-09 10:53:36.09	144.47	6.56	
2025-01-09 10:53:37.32	144.43	6.66	
2025-01-09 10:53:38.56	144.40	6.76	
2025-01-09 10:53:39.81	144.36	6.86	
2025-01-09 10:53:41.04	144.32	6.96	
2025-01-09 10:53:42.28	144.29	7.06	
2025-01-09 10:53:43.52	144.25	7.16	
2025-01-09 10:53:44.75	144.21	7.26	
2025-01-09 10:53:45.97	144.17	7.36	
2025-01-09 10:53:47.21	144.14	7.46	
2025-01-09 10:53:48.44	144.10	7.56	
2025-01-09 10:53:49.66	144.06	7.66	
2025-01-09 10:53:50.89	144.02	7.77	
2025-01-09 10:53:52.12	143.98	7.87	
2025-01-09 10:53:53.35	143.94	7.97	
2025-01-09 10:53:54.58	143.90	8.08	
2025-01-09 10:53:55.83	143.86	8.18	
2025-01-09 10:53:57.06	143.82	8.29	
2025-01-09 10:53:58.29	143.78	8.39	
2025-01-09 10:53:59.52	143.74	8.50	
2025-01-09 10:54:00.75	143.70	8.60	
2025-01-09 10:54:01.98	143.66	8.71	
2025-01-09 10:54:03.23	143.61	8.82	
2025-01-09 10:54:04.47	143.57	8.93	
2025-01-09 10:54:05.69	143.53	9.04	
2025-01-09 10:54:06.93	143.48	9.15	
2025-01-09 10:54:08.16	143.44	9.25	
2025-01-09 10:54:09.40	143.40	9.37	
2025-01-09 10:54:10.64	143.35	9.48	
2025-01-09 10:54:11.88	143.31	9.59	
2025-01-09 10:54:13.13	143.26	9.70	
2025-01-09 10:54:14.36	143.22	9.81	
2025-01-09 10:54:15.59	143.17	9.93	
2025-01-09 10:54:16.83	143.12	10.04	
2025-01-09 10:54:18.06	143.08	10.15	
2025-01-09 10:54:19.29	143.03	10.27	
2025-01-09 10:54:20.54	142.98	10.38	
2025-01-09 10:54:21.77	142.93	10.50	
2025-01-09 10:54:23.00	142.88	10.61	
2025-01-09 10:54:24.24	142.83	10.73	
2025-01-09 10:54:25.46	142.78	10.85	
2025-01-09 10:54:26.69	142.73	10.97	
2025-01-09 10:54:27.93	142.68	11.08	
2025-01-09 10:54:29.16	142.63	11.20	
2025-01-09 10:54:30.39	142.58	11.32	
2025-01-09 10:54:31.62	142.53	11.44	
2025-01-09 10:54:32.85	142.48	11.56	
2025-01-09 10:54:34.08	142.42	11.68	
2025-01-09 10:54:35.31	142.37	11.81	
2025-01-09 10:54:36.54	142.32	11.93	
2025-01-09 10:54:37.77	142.26	12.05	
2025-01-09 10:54:39.00	142.21	12.18	
2025-01-09 10:54:40.23	142.15	12.30	
2025-01-09 10:54:41.48	142.10	12.43	
2025-01-09 10:54:42.71	142.04	12.55	
2025-01-09 10:54:43.94	141.98	12.68	
2025-01-09 10:54:45.17	141.92	12.81	
2025-01-09 10:54:46.41	141.87	12.94	
2025-01-09 10:54:47.65	141.81	13.07	
2025-01-09 10:54:48.89	141.75	13.20	
2025-01-09 10:54:50.12	141.69	13.33	
2025-01-09 10:54:51.35	141.63	13.46	
2025-01-09 10:54:52.58	141.56	13.59	
2025-01-09 10:54:53.81	141.50	13.72	
2025-01-09 10:54:55.04	141.44	13.86	
2025-01-09 10:54:56.27	141.38	13.99	
2025-01-09 10:54:57.50	141.31	14.13	
2025-01-09 10:54:58.74	141.25	14.26	
2025-01-09 10:54:59.97	141.18	14.40	
2025-01-09 10:55:01.21	141.12	14.54	
2025-01-09 10:55:02.44	141.05	14.68	
2025-01-09 10:55:03.67	140.98	14.81	
2025-01-09 10:55:04.90	140.92	14.95	
2025-01-09 10:55:06.13	140.85	15.10	
2025-01-09 10:55:07.36	140.78	15.24	
2025-01-09 10:55:08.59	140.71	15.38	
2025-01-09 10:55:09.83	140.64	15.52	
2025-01-09 10:55:11.07	140.56	15.67	
2025-01-09 10:55:12.30	140.49	15.81	
2025-01-09 10:55:13.53	140.42	15.96	
2025-01-09 10:55:14.78	140.34	16.11	
2025-01-09 10:55:16.01	140.27	16.26	
2025-01-09 10:55:17.24	140.19	16.41	
2025-01-09 10:55:18.47	140.12	16.56	
2025-01-09 10:55:19.70	140.04	16.71	
2025-01-09 10:55:20.95	139.96	16.86	
2025-01-09 10:55:22.18	139.88	17.01	
2025-01-09 10:55:23.41	139.80	17.17	
2025-01-09 10:55:24.65	139.72	17.32	
2025-01-09 10:55:25.88	139.64	17.48	
2025-01-09 10:55:27.11	139.56	17.64	
2025-01-09 10:55:28.34	139.47	17.79	
2025-01-09 10:55:29.58	139.39	17.95	
2025-01-09 10:55:30.81	139.30	18.11	
2025-01-09 10:55:32.04	139.22	18.27	
2025-01-09 10:55:33.27	139.13	18.44	
2025-01-09 10:55:34.50	139.04	18.60	
2025-01-09 10:55:35.74	138.95	18.77	
2025-01-09 10:55:36.97	138.86	18.93	
2025-01-09 10:55:38.20	138.77	19.10	
2025-01-09 10:55:39.43	138.67	19.27	
2025-01-09 10:55:40.66	138.58	19.43	
2025-01-09 10:55:41.90	138.48	19.61	
2025-01-09 10:55:43.13	138.39	19.78	
2025-01-09 10:55:44.36	138.29	19.95	
2025-01-09 10:55:45.59	138.19	20.12	
2025-01-09 10:55:46.82	138.09	20.30	
2025-01-09 10:55:48.05	137.99	20.48	
2025-01-09 10:55:49.28	137.89	20.65	
2025-01-09 10:55:50.51	137.78	20.83	
2025-01-09 10:55:51.75	137.68	21.01	
2025-01-09 10:55:52.98	137.57	21.19	
2025-01-09 10:55:54.21	137.46	21.38	
2025-01-09 10:55:55.45	137.35	21.56	
2025-01-09 10:55:56.68	137.24	21.75	
2025-01-09 10:55:57.91	137.13	21.94	
2025-01-09 10:55:59.14	137.02	22.12	
2025-01-09 10:56:00.38	136.90	22.31	
2025-01-09 10:56:01.61	136.78	22.51	
2025-01-09 10:56:02.85	136.67	22.70	
2025-01-09 10:56:04.08	136.55	22.89	
2025-01-09 10:56:05.31	136.42	23.09	
2025-01-09 10:56:06.54	136.30	23.29	
2025-01-09 10:56:07.77	136.18	23.48	
2025-01-09 10:56:09.00	136.05	23.68	
2025-01-09 10:56:10.23	135.92	23.89	
2025-01-09 10:56:11.46	135.79	24.09	
2025-01-09 10:56:12.70	135.66	24.29	
2025-01-09 10:56:13.94	135.53	24.50	
2025-01-09 10:56:15.17	135.39	24.71	
2025-01-09 10:56:16.39	135.25	24.92	
2025-01-09 10:56:17.64	135.11	25.13	
2025-01-09 10:56:18.87	134.97	25.34	
2025-01-09 10:56:20.10	134.83	25.56	
2025-01-09 10:56:21.33	134.68	25.77	
2025-01-09 10:56:22.58	134.53	26.00	
2025-01-09 10:56:23.82	134.38	26.22	
2025-01-09 10:56:25.06	134.23	26.44	
2025-01-09 10:56:26.29	134.07	26.66	
2025-01-09 10:56:27.52	133.92	26.89	
2025-01-09 10:56:28.76	133.76	27.12	
2025-01-09 10:56:29.99	133.59	27.34	
2025-01-09 10:56:31.22	133.43	27.57	
2025-01-09 10:56:32.45	133.26	27.81	
2025-01-09 10:56:33.68	133.10	28.04	
2025-01-09 10:56:34.91	132.92	28.27	
2025-01-09 10:56:36.15	132.75	28.51	
2025-01-09 10:56:37.38	132.57	28.75	
2025-01-09 10:56:38.61	132.39	28.99	
2025-01-09 10:56:39.84	132.21	29.24	
2025-01-09 10:56:41.08	132.02	29.48	
2025-01-09 10:56:42.31	131.83	29.73	
2025-01-09 10:56:43.54	131.64	29.98	
2025-01-09 10:56:44.77	131.45	30.23	
2025-01-09 10:56:46.00	131.25	30.48	
2025-01-09 10:56:47.23	131.05	30.74	
2025-01-09 10:56:48.46	130.84	31.00	
2025-01-09 10:56:49.69	130.63	31.25	
2025-01-09 10:56:50.92	130.42	31.52	
2025-01-09 10:56:52.15	130.21	31.78	
2025-01-09 10:56:53.39	129.98	32.05	
2025-01-09 10:56:54.62	129.76	32.31	
2025-01-09 10:56:55.84	129.54	32.58	
2025-01-09 10:56:57.07	129.31	32.85	
2025-01-09 10:56:58.32	129.07	33.13	
2025-01-09 10:56:59.57	128.82	33.41	
2025-01-09 10:57:00.81	128.58	33.69	
2025-01-09 10:57:02.04	128.33	33.97	
2025-01-09 10:57:03.27	128.08	34.25	
2025-01-09 10:57:04.50	127.82	34.53	
2025-01-09 10:57:05.75	127.56	34.82	
2025-01-09 10:57:06.98	127.29	35.11	
2025-01-09 10:57:08.21	127.02	35.40	
2025-01-09 10:57:09.44	126.74	35.69	
2025-01-09 10:57:10.68	126.46	35.99	
2025-01-09 10:57:11.90	126.18	36.28	
2025-01-09 10:57:13.14	125.88	36.59	
2025-01-09 10:57:14.38	125.58	36.89	
2025-01-09 10:57:15.62	125.27	37.19	
2025-01-09 10:57:16.86	124.96	37.50	
2025-01-09 10:57:18.09	124.65	37.81	
2025-01-09 10:57:19.32	124.32	38.12	
2025-01-09 10:57:20.57	123.99	38.43	
2025-01-09 10:57:21.80	123.66	38.74	
2025-01-09 10:57:23.03	123.32	39.06	
2025-01-09 10:57:24.26	122.97	39.37	
2025-01-09 10:57:25.49	122.61	39.69	
2025-01-09 10:57:26.74	122.24	40.02	
2025-01-09 10:57:27.96	121.88	40.34	
2025-01-09 10:57:29.20	121.49	40.66	
2025-01-09 10:57:30.43	121.11	40.99	
2025-01-09 10:57:31.66	120.72	41.31	
2025-01-09 10:57:32.89	120.31	41.64	
2025-01-09 10:57:34.12	119.90	41.97	
2025-01-09 10:57:35.35	119.48	42.30	
2025-01-09 10:57:36.58	119.06	42.63	
2025-01-09 10:57:37.82	118.62	42.97	
2025-01-09 10:57:39.05	118.17	43.31	
2025-01-09 10:57:40.28	117.71	43.64	
2025-01-09 10:57:41.51	117.25	43.98	
2025-01-09 10:57:42.74	116.77	44.32	
2025-01-09 10:57:43.99	116.27	44.66	
2025-01-09 10:57:45.21	115.78	45.00	
2025-01-09 10:57:46.45	115.27	45.34	
2025-01-09 10:57:47.68	114.75	45.68	
2025-01-09 10:57:48.91	114.22	46.02	
2025-01-09 10:57:50.15	113.67	46.37	
2025-01-09 10:57:51.38	113.11	46.71	
2025-01-09 10:57:52.61	112.55	47.05	
2025-01-09 10:57:53.85	111.96	47.39	
2025-01-09 10:57:55.08	111.37	47.73	
2025-01-09 10:57:56.31	110.76	48.07	
2025-01-09 10:57:57.56	110.13	48.42	
2025-01-09 10:57:58.79	109.49	48.75	
2025-01-09 10:58:00.02	108.84	49.09	
2025-01-09 10:58:01.25	108.18	49.43	
2025-01-09 10:58:02.48	107.50	49.76	
2025-01-09 10:58:03.73	106.80	50.10	
2025-01-09 10:58:04.97	106.08	50.43	
2025-01-09 10:58:06.20	105.36	50.76	
2025-01-09 10:58:07.43	104.61	51.08	
2025-01-09 10:58:08.67	103.85	51.41	
2025-01-09 10:58:09.92	103.06	51.73	
2025-01-09 10:58:11.15	102.27	52.05	
2025-01-09 10:58:12.40	101.45	52.36	
2025-01-09 10:58:13.63	100.62	52.67	
2025-01-09 10:58:14.86	99.78	52.98	
2025-01-09 10:58:16.09	98.91	53.28	
2025-01-09 10:58:17.32	98.03	53.57	
2025-01-09 10:58:18.55	97.14	53.86	
2025-01-09 10:58:19.78	96.22	54.14	
2025-01-09 10:58:21.01	95.28	54.42	
2025-01-09 10:58:22.24	94.33	54.69	
2025-01-09 10:58:23.47	93.36	54.96	
2025-01-09 10:58:24.70	92.37	55.21	
2025-01-09 10:58:25.93	91.36	55.46	
2025-01-09 10:58:27.17	90.33	55.71	
2025-01-09 10:58:28.40	89.29	55.94	
2025-01-09 10:58:29.64	88.22	56.17	
2025-01-09 10:58:30.87	87.14	56.39	
2025-01-09 10:58:32.12	86.03	56.60	
2025-01-09 10:58:33.35	84.92	56.80	
2025-01-09 10:58:34.58	83.79	56.99	
2025-01-09 10:58:35.81	82.65	57.17	
2025-01-09 10:58:37.04	81.49	57.34	
2025-01-09 10:58:38.28	80.31	57.49	
2025-01-09 10:58:39.51	79.12	57.64	
2025-01-09 10:58:40.73	77.93	57.77	
2025-01-09 10:58:41.97	76.72	57.90	
2025-01-09 10:58:43.20	75.50	58.01	
2025-01-09 10:58:44.45	74.25	58.11	
2025-01-09 10:58:45.68	73.01	58.20	
2025-01-09 10:58:46.91	71.76	58.27	
2025-01-09 10:58:48.14	70.51	58.34	
2025-01-09 10:58:49.36	69.26	58.39	
2025-01-09 10:58:50.60	67.99	58.42	
2025-01-09 10:58:51.83	66.73	58.45	
2025-01-09 10:58:53.07	65.45	58.46	
2025-01-09 10:58:54.30	64.19	58.45	
2025-01-09 10:58:55.53	62.92	58.44	
2025-01-09 10:58:56.76	61.66	58.41	
2025-01-09 10:58:57.99	60.40	58.37	
2025-01-09 10:58:59.24	59.12	58.31	
2025-01-09 10:59:00.49	57.85	58.25	
2025-01-09 10:59:01.72	56.61	58.17	
2025-01-09 10:59:02.96	55.37	58.07	
2025-01-09 10:59:04.19	54.14	57.97	
2025-01-09 10:59:05.42	52.93	57.85	
2025-01-09 10:59:06.65	51.72	57.73	
2025-01-09 10:59:07.88	50.53	57.59	
2025-01-09 10:59:09.11	49.35	57.44	
2025-01-09 10:59:10.35	48.18	57.27	
2025-01-09 10:59:11.59	47.02	57.10	
2025-01-09 10:59:12.82	45.88	56.92	
2025-01-09 10:59:14.06	44.75	56.72	
2025-01-09 10:59:15.29	43.65	56.52	
2025-01-09 10:59:16.52	42.56	56.31	
2025-01-09 10:59:17.76	41.48	56.09	
2025-01-09 10:59:18.99	40.43	55.86	
2025-01-09 10:59:20.22	39.39	55.62	
2025-01-09 10:59:21.45	38.38	55.38	
2025-01-09 10:59:22.68	37.38	55.13	
2025-01-09 10:59:23.94	36.37	54.86	
2025-01-09 10:59:25.17	35.41	54.59	
2025-01-09 10:59:26.40	34.47	54.32	
2025-01-09 10:59:27.64	33.53	54.04	
2025-01-09 10:59:28.87	32.63	53.75	
2025-01-09 10:59:30.12	31.72	53.46	
2025-01-09 10:59:31.35	30.85	53.16	
2025-01-09 10:59:32.58	30.00	52.86	
2025-01-09 10:59:33.81	29.16	52.56	
2025-01-09 10:59:35.04	28.34	52.25	
2025-01-09 10:59:36.27	27.54	51.94	
2025-01-09 10:59:37.51	26.75	51.62	
2025-01-09 10:59:38.74	25.98	51.30	
2025-01-09 10:59:39.97	25.23	50.97	
2025-01-09 10:59:41.20	24.50	50.65	
2025-01-09 10:59:42.45	23.77	50.32	
2025-01-09 10:59:43.68	23.07	49.99	
2025-01-09 10:59:44.90	22.39	49.66	
2025-01-09 10:59:46.14	21.71	49.32	
2025-01-09 10:59:47.36	21.06	48.99	
2025-01-09 10:59:48.59	20.41	48.65	
2025-01-09 10:59:49.82	19.79	48.32	
2025-01-09 10:59:51.07	19.16	47.97	
2025-01-09 10:59:52.30	18.56	47.63	
2025-01-09 10:59:53.53	17.97	47.29	
2025-01-09 10:59:54.76	17.40	46.96	
2025-01-09 10:59:55.99	16.84	46.62	
2025-01-09 10:59:57.23	16.28	46.27	
2025-01-09 10:59:58.46	15.74	45.93	
2025-01-09 10:59:59.69	15.22	45.59	
2025-01-09 11:00:00.93	14.70	45.25	
2025-01-09 11:00:02.16	14.19	44.91	
2025-01-09 11:00:03.39	13.70	44.57	
2025-01-09 11:00:04.62	13.22	44.24	
2025-01-09 11:00:05.85	12.75	43.90	
2025-01-09 11:00:07.08	12.29	43.57	
2025-01-09 11:00:08.31	11.83	43.23	
2025-01-09 11:00:09.55	11.39	42.90	
2025-01-09 11:00:10.77	10.96	42.57	
2025-01-09 11:00:12.00	10.54	42.24	
2025-01-09 11:00:13.24	10.12	41.90	
2025-01-09 11:00:14.47	9.71	41.58	
2025-01-09 11:00:15.70	9.31	41.25	
2025-01-09 11:00:16.93	8.92	40.92	
2025-01-09 11:00:18.16	8.54	40.60	
2025-01-09 11:00:19.40	8.16	40.28	
2025-01-09 11:00:20.64	7.79	39.96	
2025-01-09 11:00:21.87	7.43	39.64	
2025-01-09 11:00:23.10	7.08	39.32	
2025-01-09 11:00:24.34	6.73	39.00	
2025-01-09 11:00:25.57	6.40	38.69	
2025-01-09 11:00:26.80	6.06	38.38	
2025-01-09 11:00:28.05	5.73	38.07	
2025-01-09 11:00:29.28	5.41	37.76	
2025-01-09 11:00:30.51	5.10	37.46	
2025-01-09 11:00:31.74	4.80	37.15	
2025-01-09 11:00:32.98	4.49	36.85	
2025-01-09 11:00:34.21	4.20	36.55	
2025-01-09 11:00:35.44	3.91	36.25	
2025-01-09 11:00:36.67	3.62	35.96	
2025-01-09 11:00:37.90	3.34	35.67	
2025-01-09 11:00:39.13	3.07	35.38	
2025-01-09 11:00:40.35	2.80	35.09	
2025-01-09 11:00:41.59	2.54	34.80	
2025-01-09 11:00:42.82	2.28	34.52	
2025-01-09 11:00:44.04	2.03	34.24	
2025-01-09 11:00:45.28	1.77	33.96	
2025-01-09 11:00:46.51	1.53	33.68	
2025-01-09 11:00:47.75	1.29	33.40	
2025-01-09 11:00:48.98	1.05	33.13	
2025-01-09 11:00:50.21	0.82	32.86	
2025-01-09 11:00:51.46	0.58	32.58	
2025-01-09 11:00:52.70	0.36	32.31	
2025-01-09 11:00:53.93	0.14	32.05	
2025-01-09 11:00:55.16	359.92	31.78	
2025-01-09 11:00:56.39	359.70	31.52	
2025-01-09 11:00:57.62	359.49	31.26	
2025-01-09 11:00:58.85	359.29	31.00	
2025-01-09 11:01:00.08	359.08	30.75	
2025-01-09 11:01:01.31	358.88	30.50	
2025-01-09 11:01:02.54	358.69	30.24	
2025-01-09 11:01:03.78	358.49	29.99	
2025-01-09 11:01:05.02	358.30	29.74	
2025-01-09 11:01:06.25	358.11	29.50	
2025-01-09 11:01:07.48	357.93	29.26	
2025-01-09 11:01:08.71	357.75	29.01	
2025-01-09 11:01:09.95	357.57	28.77	
2025-01-09 11:01:11.18	357.39	28.53	
2025-01-09 11:01:12.41	357.22	28.30	
2025-01-09 11:01:13.64	357.05	28.06	
2025-01-09 11:01:14.87	356.88	27.83	
2025-01-09 11:01:16.10	356.72	27.60	
2025-01-09 11:01:17.34	356.55	27.37	
2025-01-09 11:01:18.57	356.39	27.14	
2025-01-09 11:01:19.80	356.24	26.92	
2025-01-09 11:01:21.03	356.08	26.70	
2025-01-09 11:01:22.26	355.93	26.47	
2025-01-09 11:01:23.50	355.78	26.25	
2025-01-09 11:01:24.72	355.63	26.04	
2025-01-09 11:01:25.95	355.48	25.82	
2025-01-09 11:01:27.18	355.34	25.61	
2025-01-09 11:01:28.41	355.20	25.39	
2025-01-09 11:01:29.64	355.06	25.18	
2025-01-09 11:01:30.88	354.92	24.97	
2025-01-09 11:01:32.11	354.78	24.76	
2025-01-09 11:01:33.34	354.65	24.55	
2025-01-09 11:01:34.57	354.51	24.35	
2025-01-09 11:01:35.80	354.38	24.15	
2025-01-09 11:01:37.03	354.26	23.94	
2025-01-09 11:01:38.26	354.13	23.74	
2025-01-09 11:01:39.51	354.00	23.54	
2025-01-09 11:01:40.74	353.88	23.34	
2025-01-09 11:01:41.97	353.76	23.15	
2025-01-09 11:01:43.21	353.63	22.95	
2025-01-09 11:01:44.44	353.52	22.76	
2025-01-09 11:01:45.67	353.40	22.57	
2025-01-09 11:01:46.92	353.28	22.38	
2025-01-09 11:01:48.17	353.17	22.18	
2025-01-09 11:01:49.39	353.05	22.00	
2025-01-09 11:01:50.62	352.94	21.81	
2025-01-09 11:01:51.86	352.83	21.63	
2025-01-09 11:01:53.09	352.73	21.44	
2025-01-09 11:01:54.32	352.62	21.26	
2025-01-09 11:01:55.55	352.51	21.08	
2025-01-09 11:01:56.78	352.41	20.90	
2025-01-09 11:01:58.01	352.31	20.72	
2025-01-09 11:01:59.24	352.21	20.55	
2025-01-09 11:02:00.48	352.10	20.37	
2025-01-09 11:02:01.73	352.00	20.19	
2025-01-09 11:02:02.97	351.91	20.02	
2025-01-09 11:02:04.21	351.81	19.85	
2025-01-09 11:02:05.45	351.71	19.67	
2025-01-09 11:02:06.68	351.62	19.50	
2025-01-09 11:02:07.93	351.52	19.33	
2025-01-09 11:02:09.16	351.43	19.17	
2025-01-09 11:02:10.39	351.34	19.00	
2025-01-09 11:02:11.62	351.25	18.84	
2025-01-09 11:02:12.86	351.16	18.67	
2025-01-09 11:02:14.10	351.07	18.51	
2025-01-09 11:02:15.33	350.99	18.35	
2025-01-09 11:02:16.57	350.90	18.19	
2025-01-09 11:02:17.80	350.82	18.03	
2025-01-09 11:02:19.04	350.73	17.87	
2025-01-09 11:02:20.29	350.65	17.71	
2025-01-09 11:02:21.52	350.57	17.55	
2025-01-09 11:02:22.76	350.49	17.40	
2025-01-09 11:02:23.99	350.41	17.24	
2025-01-09 11:02:25.23	350.33	17.09	
2025-01-09 11:02:26.46	350.25	16.94	
2025-01-09 11:02:27.69	350.17	16.78	
2025-01-09 11:02:28.92	350.10	16.63	
2025-01-09 11:02:30.16	350.02	16.48	
2025-01-09 11:02:31.39	349.95	16.34	
2025-01-09 11:02:32.63	349.87	16.19	
2025-01-09 11:02:33.87	349.80	16.04	
2025-01-09 11:02:35.12	349.73	15.89	
2025-01-09 11:02:36.37	349.65	15.75	
2025-01-09 11:02:37.59	349.58	15.60	
2025-01-09 11:02:38.82	349.51	15.46	
2025-01-09 11:02:40.06	349.44	15.32	
2025-01-09 11:02:41.31	349.38	15.18	
2025-01-09 11:02:42.55	349.31	15.03	
2025-01-09 11:02:43.78	349.24	14.89	
2025-01-09 11:02:45.02	349.17	14.76	
2025-01-09 11:02:46.26	349.11	14.62	
2025-01-09 11:02:47.48	349.04	14.48	
2025-01-09 11:02:48.71	348.98	14.35	
2025-01-09 11:02:49.94	348.92	14.21	
2025-01-09 11:02:51.18	348.85	14.08	
2025-01-09 11:02:52.41	348.79	13.94	
2025-01-09 11:02:53.64	348.73	13.81	
2025-01-09 11:02:54.88	348.67	13.68	
2025-01-09 11:02:56.12	348.61	13.54	
2025-01-09 11:02:57.36	348.55	13.41	
2025-01-09 11:02:58.61	348.49	13.28	
2025-01-09 11:02:59.84	348.43	13.15	
2025-01-09 11:03:01.07	348.37	13.02	
2025-01-09 11:03:02.30	348.32	12.90	
2025-01-09 11:03:03.53	348.26	12.77	
2025-01-09 11:03:04.76	348.20	12.64	
2025-01-09 11:03:06.00	348.15	12.52	
2025-01-09 11:03:07.23	348.09	12.39	
2025-01-09 11:03:08.47	348.04	12.27	
2025-01-09 11:03:09.70	347.98	12.14	
2025-01-09 11:03:10.94	347.93	12.02	
2025-01-09 11:03:12.17	347.88	11.90	
2025-01-09 11:03:13.40	347.83	11.78	
2025-01-09 11:03:14.65	347.77	11.65	
2025-01-09 11:03:15.88	347.72	11.53	
2025-01-09 11:03:17.11	347.67	11.41	
2025-01-09 11:03:18.34	347.62	11.30	
2025-01-09 11:03:19.57	347.57	11.18	
2025-01-09 11:03:20.80	347.52	11.06	
2025-01-09 11:03:22.03	347.47	10.94	
2025-01-09 11:03:23.26	347.42	10.83	
2025-01-09 11:03:24.49	347.38	10.71	
2025-01-09 11:03:25.72	347.33	10.59	
2025-01-09 11:03:26.95	347.28	10.48	
2025-01-09 11:03:28.18	347.24	10.37	
2025-01-09 11:03:29.41	347.19	10.25	
2025-01-09 11:03:30.64	347.14	10.14	
2025-01-09 11:03:31.88	347.10	10.03	
2025-01-09 11:03:33.10	347.05	9.92	
2025-01-09 11:03:34.33	347.01	9.80	
2025-01-09 11:03:35.56	346.97	9.69	
2025-01-09 11:03:36.81	346.92	9.58	
2025-01-09 11:03:38.04	346.88	9.47	
2025-01-09 11:03:39.27	346.83	9.36	
2025-01-09 11:03:40.51	346.79	9.25	
2025-01-09 11:03:41.73	346.75	9.14	
2025-01-09 11:03:42.98	346.71	9.04	
2025-01-09 11:03:44.21	346.67	8.93	
2025-01-09 11:03:45.44	346.63	8.82	
2025-01-09 11:03:46.67	346.58	8.72	
2025-01-09 11:03:47.90	346.54	8.61	
2025-01-09 11:03:49.14	346.50	8.50	
2025-01-09 11:03:50.37	346.46	8.40	
2025-01-09 11:03:51.60	346.43	8.29	
2025-01-09 11:03:52.83	346.39	8.19	
2025-01-09 11:03:54.05	346.35	8.09	
2025-01-09 11:03:55.28	346.31	7.98	
2025-01-09 11:03:56.52	346.27	7.88	
2025-01-09 11:03:57.75	346.23	7.78	
2025-01-09 11:03:58.99	346.20	7.68	
2025-01-09 11:04:00.22	346.16	7.58	
2025-01-09 11:04:01.45	346.12	7.48	
2025-01-09 11:04:02.68	346.09	7.37	
2025-01-09 11:04:03.91	346.05	7.27	
2025-01-09 11:04:05.14	346.01	7.18	
2025-01-09 11:04:06.37	345.98	7.08	
2025-01-09 11:04:07.61	345.94	6.98	
2025-01-09 11:04:08.84	345.91	6.88	
2025-01-09 11:04:10.07	345.87	6.78	
2025-01-09 11:04:11.31	345.84	6.68	
2025-01-09 11:04:12.54	345.81	6.59	
2025-01-09 11:04:13.77	345.77	6.49	
2025-01-09 11:04:15.01	345.74	6.39	
2025-01-09 11:04:16.24	345.71	6.30	
2025-01-09 11:04:17.48	345.67	6.20	
2025-01-09 11:04:18.70	345.64	6.11	
2025-01-09 11:04:19.94	345.61	6.01	
2025-01-09 11:04:21.17	345.58	5.92	
2025-01-09 11:04:22.40	345.54	5.82	
2025-01-09 11:04:23.63	345.51	5.73	
2025-01-09 11:04:24.88	345.48	5.63	
2025-01-09 11:04:26.12	345.45	5.54	
2025-01-09 11:04:27.34	345.42	5.45	
2025-01-09 11:04:28.58	345.39	5.36	
2025-01-09 11:04:29.81	345.36	5.26	
2025-01-09 11:04:31.06	345.33	5.17	
2025-01-09 11:04:32.29	345.30	5.08	
2025-01-09 11:04:33.52	345.27	4.99	
2025-01-09 11:04:34.75	345.24	4.90	
2025-01-09 11:04:35.99	345.21	4.81	
2025-01-09 11:04:37.23	345.18	4.72	
2025-01-09 11:04:38.46	345.15	4.63	
2025-01-09 11:04:39.70	345.12	4.54	
2025-01-09 11:04:40.94	345.09	4.45	
2025-01-09 11:04:42.19	345.07	4.36	
2025-01-09 11:04:43.42	345.04	4.27	
2025-01-09 11:04:44.66	345.01	4.18	
2025-01-09 11:04:45.88	344.98	4.09	
2025-01-09 11:04:47.11	344.96	4.01	

#Closed at: 2025-01-09 11:04:47