passes_logs/2025/01/09/SPB_Silybum_02/SPB_Silybum_02__20250109_034613_SUOMI_NPP_rec.log

#Pass ID: 20250109_034613_SUOMI NPP
#Satellite: SUOMI NPP
#Configuration: NPP
#Start time: 2025-01-09 03:46:11

#Version: 2.0.20230423
#Station: SPB_Silybum_02
#Location: 30.233357 lon 59.946436 lat
#TLE: 1 37849U 11061A   25008.15329241  .00000250  00000+0  13932-3 0  9999
#TLE: 2 37849  98.7439 309.2289 0001915  51.2946 308.8402 14.19535012683945

#Time	Az	El	Level	Level2	SNR	BER	Gain	Gain2
2025-01-09 03:46:13.42	15.53	4.01	
2025-01-09 03:46:14.44	15.41	4.06	
2025-01-09 03:46:15.47	15.29	4.10	
2025-01-09 03:46:16.51	15.17	4.14	
2025-01-09 03:46:17.53	15.06	4.19	
2025-01-09 03:46:18.56	14.94	4.23	
2025-01-09 03:46:19.59	14.82	4.28	
2025-01-09 03:46:20.61	14.70	4.32	
2025-01-09 03:46:21.64	14.58	4.36	
2025-01-09 03:46:22.66	14.46	4.41	
2025-01-09 03:46:23.69	14.34	4.45	
2025-01-09 03:46:24.71	14.22	4.49	
2025-01-09 03:46:25.74	14.10	4.54	
2025-01-09 03:46:26.76	13.98	4.58	
2025-01-09 03:46:27.79	13.86	4.63	
2025-01-09 03:46:28.83	13.73	4.67	
2025-01-09 03:46:29.86	13.61	4.71	
2025-01-09 03:46:30.89	13.49	4.76	
2025-01-09 03:46:31.91	13.37	4.80	
2025-01-09 03:46:32.94	13.24	4.84	
2025-01-09 03:46:33.98	13.12	4.89	
2025-01-09 03:46:35.01	12.99	4.93	
2025-01-09 03:46:36.03	12.87	4.97	
2025-01-09 03:46:37.06	12.74	5.02	
2025-01-09 03:46:38.09	12.62	5.06	
2025-01-09 03:46:39.11	12.49	5.10	
2025-01-09 03:46:40.14	12.37	5.14	
2025-01-09 03:46:41.16	12.24	5.19	
2025-01-09 03:46:42.19	12.11	5.23	
2025-01-09 03:46:43.21	11.99	5.27	
2025-01-09 03:46:44.24	11.86	5.32	
2025-01-09 03:46:45.26	11.73	5.36	
2025-01-09 03:46:46.29	11.60	5.40	
2025-01-09 03:46:47.31	11.47	5.44	
2025-01-09 03:46:48.34	11.34	5.48	
2025-01-09 03:46:49.38	11.21	5.53	
2025-01-09 03:46:50.40	11.08	5.57	
2025-01-09 03:46:51.44	10.95	5.61	
2025-01-09 03:46:52.47	10.82	5.65	
2025-01-09 03:46:53.49	10.69	5.70	
2025-01-09 03:46:54.51	10.56	5.74	
2025-01-09 03:46:55.55	10.43	5.78	
2025-01-09 03:46:56.58	10.29	5.82	
2025-01-09 03:46:57.61	10.16	5.86	
2025-01-09 03:46:58.63	10.03	5.91	
2025-01-09 03:46:59.66	9.89	5.95	
2025-01-09 03:47:00.68	9.76	5.99	
2025-01-09 03:47:01.71	9.63	6.03	
2025-01-09 03:47:02.74	9.49	6.07	
2025-01-09 03:47:03.77	9.36	6.11	
2025-01-09 03:47:04.80	9.22	6.15	
2025-01-09 03:47:05.82	9.08	6.19	
2025-01-09 03:47:06.85	8.95	6.24	
2025-01-09 03:47:07.88	8.81	6.28	
2025-01-09 03:47:08.90	8.67	6.32	
2025-01-09 03:47:09.93	8.54	6.36	
2025-01-09 03:47:10.96	8.40	6.40	
2025-01-09 03:47:11.99	8.26	6.44	
2025-01-09 03:47:13.01	8.12	6.48	
2025-01-09 03:47:14.04	7.98	6.52	
2025-01-09 03:47:15.05	7.85	6.56	
2025-01-09 03:47:16.08	7.71	6.60	
2025-01-09 03:47:17.10	7.57	6.64	
2025-01-09 03:47:18.13	7.43	6.68	
2025-01-09 03:47:19.15	7.29	6.72	
2025-01-09 03:47:20.18	7.14	6.76	
2025-01-09 03:47:21.20	7.00	6.80	
2025-01-09 03:47:22.23	6.86	6.84	
2025-01-09 03:47:23.26	6.72	6.88	
2025-01-09 03:47:24.29	6.57	6.92	
2025-01-09 03:47:25.31	6.43	6.96	
2025-01-09 03:47:26.34	6.29	7.00	
2025-01-09 03:47:27.36	6.14	7.03	
2025-01-09 03:47:28.38	6.00	7.07	
2025-01-09 03:47:29.41	5.86	7.11	
2025-01-09 03:47:30.44	5.71	7.15	
2025-01-09 03:47:31.47	5.56	7.19	
2025-01-09 03:47:32.50	5.42	7.23	
2025-01-09 03:47:33.53	5.27	7.27	
2025-01-09 03:47:34.57	5.12	7.30	
2025-01-09 03:47:35.60	4.97	7.34	
2025-01-09 03:47:36.62	4.83	7.38	
2025-01-09 03:47:37.65	4.68	7.42	
2025-01-09 03:47:38.67	4.53	7.46	
2025-01-09 03:47:39.69	4.38	7.49	
2025-01-09 03:47:40.72	4.23	7.53	
2025-01-09 03:47:41.75	4.08	7.57	
2025-01-09 03:47:42.77	3.93	7.60	
2025-01-09 03:47:43.80	3.78	7.64	
2025-01-09 03:47:44.82	3.63	7.68	
2025-01-09 03:47:45.85	3.48	7.72	
2025-01-09 03:47:46.87	3.33	7.75	
2025-01-09 03:47:47.90	3.18	7.79	
2025-01-09 03:47:48.93	3.03	7.82	
2025-01-09 03:47:49.96	2.87	7.86	
2025-01-09 03:47:50.98	2.72	7.90	
2025-01-09 03:47:52.00	2.57	7.93	
2025-01-09 03:47:53.03	2.41	7.97	
2025-01-09 03:47:54.05	2.26	8.00	
2025-01-09 03:47:55.08	2.10	8.04	
2025-01-09 03:47:56.11	1.95	8.08	
2025-01-09 03:47:57.13	1.79	8.11	
2025-01-09 03:47:58.16	1.64	8.15	
2025-01-09 03:47:59.19	1.48	8.18	
2025-01-09 03:48:00.21	1.33	8.21	
2025-01-09 03:48:01.25	1.17	8.25	
2025-01-09 03:48:02.29	1.01	8.28	
2025-01-09 03:48:03.31	0.85	8.32	
2025-01-09 03:48:04.34	0.69	8.35	
2025-01-09 03:48:05.37	0.53	8.39	
2025-01-09 03:48:06.40	0.37	8.42	
2025-01-09 03:48:07.42	0.22	8.45	
2025-01-09 03:48:08.46	0.05	8.49	
2025-01-09 03:48:09.49	359.89	8.52	
2025-01-09 03:48:10.51	359.73	8.55	
2025-01-09 03:48:11.54	359.57	8.59	
2025-01-09 03:48:12.57	359.41	8.62	
2025-01-09 03:48:13.59	359.25	8.65	
2025-01-09 03:48:14.63	359.09	8.69	
2025-01-09 03:48:15.65	358.93	8.72	
2025-01-09 03:48:16.67	358.76	8.75	
2025-01-09 03:48:17.70	358.60	8.78	
2025-01-09 03:48:18.72	358.44	8.81	
2025-01-09 03:48:19.75	358.27	8.84	
2025-01-09 03:48:20.78	358.11	8.88	
2025-01-09 03:48:21.80	357.95	8.91	
2025-01-09 03:48:22.83	357.78	8.94	
2025-01-09 03:48:23.85	357.62	8.97	
2025-01-09 03:48:24.88	357.45	9.00	
2025-01-09 03:48:25.91	357.29	9.03	
2025-01-09 03:48:26.93	357.12	9.06	
2025-01-09 03:48:27.95	356.95	9.09	
2025-01-09 03:48:28.99	356.79	9.12	
2025-01-09 03:48:30.02	356.62	9.15	
2025-01-09 03:48:31.04	356.45	9.18	
2025-01-09 03:48:32.07	356.28	9.21	
2025-01-09 03:48:33.09	356.12	9.24	
2025-01-09 03:48:34.12	355.95	9.27	
2025-01-09 03:48:35.14	355.78	9.29	
2025-01-09 03:48:36.17	355.61	9.32	
2025-01-09 03:48:37.20	355.44	9.35	
2025-01-09 03:48:38.22	355.27	9.38	
2025-01-09 03:48:39.25	355.10	9.41	
2025-01-09 03:48:40.28	354.93	9.43	
2025-01-09 03:48:41.30	354.76	9.46	
2025-01-09 03:48:42.33	354.59	9.49	
2025-01-09 03:48:43.37	354.41	9.52	
2025-01-09 03:48:44.40	354.24	9.54	
2025-01-09 03:48:45.43	354.07	9.57	
2025-01-09 03:48:46.45	353.90	9.59	
2025-01-09 03:48:47.48	353.72	9.62	
2025-01-09 03:48:48.50	353.55	9.65	
2025-01-09 03:48:49.53	353.38	9.67	
2025-01-09 03:48:50.56	353.20	9.70	
2025-01-09 03:48:51.58	353.03	9.72	
2025-01-09 03:48:52.61	352.85	9.75	
2025-01-09 03:48:53.65	352.68	9.77	
2025-01-09 03:48:54.67	352.50	9.80	
2025-01-09 03:48:55.70	352.33	9.82	
2025-01-09 03:48:56.73	352.15	9.84	
2025-01-09 03:48:57.75	351.98	9.87	
2025-01-09 03:48:58.78	351.80	9.89	
2025-01-09 03:48:59.80	351.63	9.91	
2025-01-09 03:49:00.83	351.45	9.94	
2025-01-09 03:49:01.85	351.27	9.96	
2025-01-09 03:49:02.88	351.09	9.98	
2025-01-09 03:49:03.90	350.92	10.01	
2025-01-09 03:49:04.93	350.74	10.03	
2025-01-09 03:49:05.96	350.56	10.05	
2025-01-09 03:49:06.98	350.38	10.07	
2025-01-09 03:49:08.01	350.20	10.09	
2025-01-09 03:49:09.04	350.03	10.11	
2025-01-09 03:49:10.08	349.84	10.13	
2025-01-09 03:49:11.10	349.67	10.15	
2025-01-09 03:49:12.13	349.49	10.18	
2025-01-09 03:49:13.15	349.31	10.19	
2025-01-09 03:49:14.17	349.13	10.21	
2025-01-09 03:49:15.20	348.95	10.23	
2025-01-09 03:49:16.23	348.77	10.25	
2025-01-09 03:49:17.26	348.58	10.27	
2025-01-09 03:49:18.28	348.40	10.29	
2025-01-09 03:49:19.30	348.22	10.31	
2025-01-09 03:49:20.35	348.04	10.33	
2025-01-09 03:49:21.37	347.86	10.35	
2025-01-09 03:49:22.41	347.67	10.36	
2025-01-09 03:49:23.44	347.49	10.38	
2025-01-09 03:49:24.48	347.30	10.40	
2025-01-09 03:49:25.51	347.12	10.42	
2025-01-09 03:49:26.53	346.94	10.43	
2025-01-09 03:49:27.57	346.75	10.45	
2025-01-09 03:49:28.60	346.57	10.46	
2025-01-09 03:49:29.63	346.39	10.48	
2025-01-09 03:49:30.65	346.20	10.50	
2025-01-09 03:49:31.69	346.02	10.51	
2025-01-09 03:49:32.73	345.83	10.53	
2025-01-09 03:49:33.76	345.65	10.54	
2025-01-09 03:49:34.79	345.46	10.56	
2025-01-09 03:49:35.81	345.28	10.57	
2025-01-09 03:49:36.84	345.09	10.58	
2025-01-09 03:49:37.87	344.91	10.60	
2025-01-09 03:49:38.89	344.72	10.61	
2025-01-09 03:49:39.92	344.54	10.62	
2025-01-09 03:49:40.95	344.35	10.64	
2025-01-09 03:49:41.97	344.16	10.65	
2025-01-09 03:49:43.00	343.98	10.66	
2025-01-09 03:49:44.03	343.79	10.67	
2025-01-09 03:49:45.05	343.61	10.68	
2025-01-09 03:49:46.08	343.42	10.70	
2025-01-09 03:49:47.11	343.23	10.71	
2025-01-09 03:49:48.13	343.05	10.72	
2025-01-09 03:49:49.15	342.86	10.73	
2025-01-09 03:49:50.18	342.67	10.74	
2025-01-09 03:49:51.20	342.49	10.75	
2025-01-09 03:49:52.23	342.30	10.76	
2025-01-09 03:49:53.25	342.11	10.77	
2025-01-09 03:49:54.27	341.93	10.78	
2025-01-09 03:49:55.31	341.74	10.78	
2025-01-09 03:49:56.34	341.55	10.79	
2025-01-09 03:49:57.36	341.36	10.80	
2025-01-09 03:49:58.39	341.17	10.81	
2025-01-09 03:49:59.41	340.99	10.82	
2025-01-09 03:50:00.44	340.80	10.82	
2025-01-09 03:50:01.47	340.61	10.83	
2025-01-09 03:50:02.50	340.42	10.84	
2025-01-09 03:50:03.52	340.23	10.84	
2025-01-09 03:50:04.56	340.04	10.85	
2025-01-09 03:50:05.58	339.86	10.85	
2025-01-09 03:50:06.62	339.67	10.86	
2025-01-09 03:50:07.64	339.48	10.86	
2025-01-09 03:50:08.67	339.29	10.87	
2025-01-09 03:50:09.69	339.10	10.87	
2025-01-09 03:50:10.72	338.91	10.88	
2025-01-09 03:50:11.74	338.72	10.88	
2025-01-09 03:50:12.77	338.53	10.89	
2025-01-09 03:50:13.80	338.34	10.89	
2025-01-09 03:50:14.82	338.16	10.89	
2025-01-09 03:50:15.85	337.97	10.89	
2025-01-09 03:50:16.87	337.78	10.90	
2025-01-09 03:50:17.90	337.59	10.90	
2025-01-09 03:50:18.92	337.40	10.90	
2025-01-09 03:50:19.97	337.21	10.90	
2025-01-09 03:50:21.00	337.02	10.90	
2025-01-09 03:50:22.03	336.83	10.90	
2025-01-09 03:50:23.07	336.64	10.91	
2025-01-09 03:50:24.09	336.45	10.91	
2025-01-09 03:50:25.12	336.26	10.91	
2025-01-09 03:50:26.15	336.07	10.91	
2025-01-09 03:50:27.17	335.88	10.90	
2025-01-09 03:50:28.20	335.69	10.90	
2025-01-09 03:50:29.23	335.50	10.90	
2025-01-09 03:50:30.26	335.31	10.90	
2025-01-09 03:50:31.28	335.12	10.90	
2025-01-09 03:50:32.30	334.94	10.90	
2025-01-09 03:50:33.33	334.75	10.89	
2025-01-09 03:50:34.35	334.56	10.89	
2025-01-09 03:50:35.38	334.37	10.89	
2025-01-09 03:50:36.41	334.18	10.89	
2025-01-09 03:50:37.45	333.99	10.88	
2025-01-09 03:50:38.48	333.80	10.88	
2025-01-09 03:50:39.50	333.61	10.87	
2025-01-09 03:50:40.53	333.42	10.87	
2025-01-09 03:50:41.55	333.23	10.86	
2025-01-09 03:50:42.58	333.04	10.86	
2025-01-09 03:50:43.60	332.86	10.85	
2025-01-09 03:50:44.62	332.67	10.85	
2025-01-09 03:50:45.65	332.48	10.84	
2025-01-09 03:50:46.68	332.29	10.84	
2025-01-09 03:50:47.70	332.10	10.83	
2025-01-09 03:50:48.73	331.92	10.82	
2025-01-09 03:50:49.75	331.73	10.81	
2025-01-09 03:50:50.77	331.54	10.81	
2025-01-09 03:50:51.80	331.35	10.80	
2025-01-09 03:50:52.82	331.17	10.79	
2025-01-09 03:50:53.84	330.98	10.78	
2025-01-09 03:50:54.86	330.79	10.77	
2025-01-09 03:50:55.89	330.61	10.77	
2025-01-09 03:50:56.92	330.42	10.76	
2025-01-09 03:50:57.94	330.23	10.75	
2025-01-09 03:50:58.97	330.04	10.74	
2025-01-09 03:50:59.99	329.86	10.73	
2025-01-09 03:51:01.02	329.67	10.72	
2025-01-09 03:51:02.05	329.48	10.71	
2025-01-09 03:51:03.07	329.30	10.69	
2025-01-09 03:51:04.09	329.11	10.68	
2025-01-09 03:51:05.12	328.93	10.67	
2025-01-09 03:51:06.14	328.74	10.66	
2025-01-09 03:51:07.17	328.55	10.65	
2025-01-09 03:51:08.19	328.37	10.64	
2025-01-09 03:51:09.22	328.18	10.62	
2025-01-09 03:51:10.24	328.00	10.61	
2025-01-09 03:51:11.26	327.81	10.60	
2025-01-09 03:51:12.31	327.62	10.58	
2025-01-09 03:51:13.34	327.44	10.57	
2025-01-09 03:51:14.37	327.25	10.55	
2025-01-09 03:51:15.40	327.07	10.54	
2025-01-09 03:51:16.42	326.89	10.53	
2025-01-09 03:51:17.44	326.70	10.51	
2025-01-09 03:51:18.47	326.52	10.50	
2025-01-09 03:51:19.51	326.33	10.48	
2025-01-09 03:51:20.53	326.15	10.46	
2025-01-09 03:51:21.56	325.96	10.45	
2025-01-09 03:51:22.59	325.78	10.43	
2025-01-09 03:51:23.62	325.60	10.41	
2025-01-09 03:51:24.66	325.41	10.40	
2025-01-09 03:51:25.68	325.23	10.38	
2025-01-09 03:51:26.71	325.05	10.36	
2025-01-09 03:51:27.73	324.87	10.35	
2025-01-09 03:51:28.76	324.68	10.33	
2025-01-09 03:51:29.78	324.50	10.31	
2025-01-09 03:51:30.83	324.32	10.29	
2025-01-09 03:51:31.85	324.14	10.27	
2025-01-09 03:51:32.87	323.96	10.25	
2025-01-09 03:51:33.90	323.78	10.23	
2025-01-09 03:51:34.92	323.60	10.21	
2025-01-09 03:51:35.95	323.42	10.19	
2025-01-09 03:51:36.98	323.23	10.17	
2025-01-09 03:51:38.00	323.06	10.15	
2025-01-09 03:51:39.02	322.88	10.13	
2025-01-09 03:51:40.05	322.70	10.11	
2025-01-09 03:51:41.07	322.52	10.09	
2025-01-09 03:51:42.10	322.34	10.07	
2025-01-09 03:51:43.13	322.16	10.05	
2025-01-09 03:51:44.15	321.98	10.03	
2025-01-09 03:51:45.18	321.81	10.00	
2025-01-09 03:51:46.20	321.63	9.98	
2025-01-09 03:51:47.23	321.45	9.96	
2025-01-09 03:51:48.26	321.27	9.94	
2025-01-09 03:51:49.29	321.10	9.91	
2025-01-09 03:51:50.33	320.92	9.89	
2025-01-09 03:51:51.37	320.74	9.87	
2025-01-09 03:51:52.39	320.56	9.84	
2025-01-09 03:51:53.42	320.39	9.82	
2025-01-09 03:51:54.45	320.21	9.79	
2025-01-09 03:51:55.49	320.03	9.77	
2025-01-09 03:51:56.51	319.86	9.75	
2025-01-09 03:51:57.54	319.68	9.72	
2025-01-09 03:51:58.57	319.51	9.70	
2025-01-09 03:51:59.59	319.34	9.67	
2025-01-09 03:52:00.63	319.16	9.64	
2025-01-09 03:52:01.67	318.99	9.62	
2025-01-09 03:52:02.70	318.81	9.59	
2025-01-09 03:52:03.72	318.64	9.57	
2025-01-09 03:52:04.74	318.47	9.54	
2025-01-09 03:52:05.77	318.30	9.51	
2025-01-09 03:52:06.79	318.13	9.49	
2025-01-09 03:52:07.82	317.95	9.46	
2025-01-09 03:52:08.85	317.78	9.43	
2025-01-09 03:52:09.87	317.61	9.40	
2025-01-09 03:52:10.90	317.44	9.38	
2025-01-09 03:52:11.92	317.27	9.35	
2025-01-09 03:52:12.96	317.10	9.32	
2025-01-09 03:52:13.99	316.93	9.29	
2025-01-09 03:52:15.01	316.76	9.26	
2025-01-09 03:52:16.04	316.59	9.23	
2025-01-09 03:52:17.07	316.42	9.20	
2025-01-09 03:52:18.10	316.26	9.18	
2025-01-09 03:52:19.12	316.09	9.15	
2025-01-09 03:52:20.15	315.92	9.12	
2025-01-09 03:52:21.18	315.75	9.09	
2025-01-09 03:52:22.20	315.59	9.06	
2025-01-09 03:52:23.23	315.42	9.03	
2025-01-09 03:52:24.25	315.26	9.00	
2025-01-09 03:52:25.29	315.09	8.96	
2025-01-09 03:52:26.32	314.92	8.93	
2025-01-09 03:52:27.35	314.76	8.90	
2025-01-09 03:52:28.38	314.59	8.87	
2025-01-09 03:52:29.40	314.43	8.84	
2025-01-09 03:52:30.44	314.26	8.81	
2025-01-09 03:52:31.46	314.10	8.78	
2025-01-09 03:52:32.49	313.94	8.75	
2025-01-09 03:52:33.51	313.77	8.71	
2025-01-09 03:52:34.54	313.61	8.68	
2025-01-09 03:52:35.56	313.45	8.65	
2025-01-09 03:52:36.59	313.29	8.62	
2025-01-09 03:52:37.62	313.13	8.58	
2025-01-09 03:52:38.65	312.96	8.55	
2025-01-09 03:52:39.67	312.80	8.52	
2025-01-09 03:52:40.70	312.64	8.48	
2025-01-09 03:52:41.72	312.48	8.45	
2025-01-09 03:52:42.76	312.32	8.42	
2025-01-09 03:52:43.78	312.17	8.38	
2025-01-09 03:52:44.81	312.01	8.35	
2025-01-09 03:52:45.84	311.85	8.31	
2025-01-09 03:52:46.87	311.69	8.28	
2025-01-09 03:52:47.89	311.53	8.25	
2025-01-09 03:52:48.91	311.38	8.21	
2025-01-09 03:52:49.95	311.22	8.18	
2025-01-09 03:52:50.97	311.06	8.14	
2025-01-09 03:52:52.00	310.90	8.11	
2025-01-09 03:52:53.02	310.75	8.07	
2025-01-09 03:52:54.04	310.60	8.04	
2025-01-09 03:52:55.07	310.44	8.00	
2025-01-09 03:52:56.10	310.28	7.96	
2025-01-09 03:52:57.14	310.13	7.93	
2025-01-09 03:52:58.18	309.97	7.89	
2025-01-09 03:52:59.21	309.82	7.86	
2025-01-09 03:53:00.23	309.67	7.82	
2025-01-09 03:53:01.25	309.52	7.78	
2025-01-09 03:53:02.28	309.36	7.75	
2025-01-09 03:53:03.32	309.21	7.71	
2025-01-09 03:53:04.34	309.06	7.67	
2025-01-09 03:53:05.37	308.91	7.64	
2025-01-09 03:53:06.39	308.76	7.60	
2025-01-09 03:53:07.42	308.61	7.56	
2025-01-09 03:53:08.44	308.46	7.53	
2025-01-09 03:53:09.46	308.31	7.49	
2025-01-09 03:53:10.49	308.16	7.45	
2025-01-09 03:53:11.52	308.01	7.41	
2025-01-09 03:53:12.54	307.86	7.37	
2025-01-09 03:53:13.57	307.71	7.34	
2025-01-09 03:53:14.61	307.56	7.30	
2025-01-09 03:53:15.65	307.42	7.26	
2025-01-09 03:53:16.67	307.27	7.22	
2025-01-09 03:53:17.70	307.12	7.18	
2025-01-09 03:53:18.72	306.98	7.14	
2025-01-09 03:53:19.75	306.83	7.11	
2025-01-09 03:53:20.77	306.69	7.07	
2025-01-09 03:53:21.80	306.54	7.03	
2025-01-09 03:53:22.83	306.40	6.99	
2025-01-09 03:53:23.85	306.25	6.95	
2025-01-09 03:53:24.88	306.11	6.91	
2025-01-09 03:53:25.91	305.97	6.87	
2025-01-09 03:53:26.94	305.82	6.83	
2025-01-09 03:53:27.96	305.68	6.79	
2025-01-09 03:53:28.99	305.54	6.75	
2025-01-09 03:53:30.02	305.40	6.71	
2025-01-09 03:53:31.04	305.26	6.67	
2025-01-09 03:53:32.07	305.11	6.63	
2025-01-09 03:53:33.09	304.98	6.59	
2025-01-09 03:53:34.12	304.83	6.55	
2025-01-09 03:53:35.14	304.70	6.51	
2025-01-09 03:53:36.17	304.56	6.47	
2025-01-09 03:53:37.20	304.42	6.43	
2025-01-09 03:53:38.24	304.28	6.39	
2025-01-09 03:53:39.26	304.14	6.35	
2025-01-09 03:53:40.29	304.00	6.31	
2025-01-09 03:53:41.31	303.86	6.27	
2025-01-09 03:53:42.33	303.73	6.23	
2025-01-09 03:53:43.36	303.59	6.19	
2025-01-09 03:53:44.38	303.46	6.15	
2025-01-09 03:53:45.42	303.32	6.10	
2025-01-09 03:53:46.45	303.18	6.06	
2025-01-09 03:53:47.49	303.05	6.02	
2025-01-09 03:53:48.53	302.91	5.98	
2025-01-09 03:53:49.55	302.78	5.94	
2025-01-09 03:53:50.58	302.64	5.90	
2025-01-09 03:53:51.60	302.51	5.86	
2025-01-09 03:53:52.64	302.37	5.81	
2025-01-09 03:53:53.68	302.24	5.77	
2025-01-09 03:53:54.70	302.11	5.73	
2025-01-09 03:53:55.74	301.98	5.69	
2025-01-09 03:53:56.77	301.84	5.64	
2025-01-09 03:53:57.80	301.71	5.60	
2025-01-09 03:53:58.82	301.58	5.56	
2025-01-09 03:53:59.85	301.45	5.52	
2025-01-09 03:54:00.88	301.32	5.48	
2025-01-09 03:54:01.90	301.19	5.43	
2025-01-09 03:54:02.94	301.06	5.39	
2025-01-09 03:54:03.97	300.93	5.35	
2025-01-09 03:54:05.00	300.80	5.30	
2025-01-09 03:54:06.02	300.68	5.26	
2025-01-09 03:54:07.05	300.55	5.22	
2025-01-09 03:54:08.08	300.42	5.18	
2025-01-09 03:54:09.11	300.29	5.13	
2025-01-09 03:54:10.14	300.17	5.09	
2025-01-09 03:54:11.16	300.04	5.05	
2025-01-09 03:54:12.19	299.91	5.00	
2025-01-09 03:54:13.23	299.79	4.96	
2025-01-09 03:54:14.25	299.66	4.92	
2025-01-09 03:54:15.27	299.54	4.87	
2025-01-09 03:54:16.29	299.42	4.83	
2025-01-09 03:54:17.32	299.29	4.79	
2025-01-09 03:54:18.34	299.17	4.75	
2025-01-09 03:54:19.37	299.05	4.70	
2025-01-09 03:54:20.39	298.92	4.66	
2025-01-09 03:54:21.42	298.80	4.62	
2025-01-09 03:54:22.44	298.68	4.57	
2025-01-09 03:54:23.47	298.56	4.53	
2025-01-09 03:54:24.50	298.44	4.48	
2025-01-09 03:54:25.52	298.32	4.44	
2025-01-09 03:54:26.55	298.20	4.40	
2025-01-09 03:54:27.57	298.08	4.35	
2025-01-09 03:54:28.60	297.96	4.31	
2025-01-09 03:54:29.63	297.84	4.27	
2025-01-09 03:54:30.65	297.72	4.22	
2025-01-09 03:54:31.68	297.60	4.18	
2025-01-09 03:54:32.72	297.48	4.13	
2025-01-09 03:54:33.75	297.36	4.09	
2025-01-09 03:54:34.78	297.24	4.04	
2025-01-09 03:54:35.80	297.13	4.00	

#Closed at: 2025-01-09 03:54:36