passes_logs/2025/01/09/SPB_Silybum_02/SPB_Silybum_02__20250109_083908_SUOMI_NPP_rec.log

#Pass ID: 20250109_083908_SUOMI NPP
#Satellite: SUOMI NPP
#Configuration: NPP
#Start time: 2025-01-09 08:39:07

#Version: 2.0.20230423
#Station: SPB_Silybum_02
#Location: 30.233357 lon 59.946436 lat
#TLE: 1 37849U 11061A   25008.85814474  .00000207  00000+0  11909-3 0  9997
#TLE: 2 37849  98.7439 309.9248 0001886  50.2762 309.8580 14.19535270684045

#Time	Az	El	Level	Level2	SNR	BER	Gain	Gain2
2025-01-09 08:39:09.27	112.59	4.07	
2025-01-09 08:39:10.52	112.51	4.14	
2025-01-09 08:39:11.75	112.43	4.22	
2025-01-09 08:39:12.98	112.35	4.30	
2025-01-09 08:39:14.21	112.27	4.37	
2025-01-09 08:39:15.44	112.19	4.45	
2025-01-09 08:39:16.67	112.11	4.53	
2025-01-09 08:39:17.91	112.03	4.61	
2025-01-09 08:39:19.14	111.94	4.69	
2025-01-09 08:39:20.38	111.86	4.76	
2025-01-09 08:39:21.62	111.78	4.84	
2025-01-09 08:39:22.86	111.69	4.92	
2025-01-09 08:39:24.09	111.61	5.00	
2025-01-09 08:39:25.33	111.52	5.08	
2025-01-09 08:39:26.57	111.44	5.16	
2025-01-09 08:39:27.80	111.35	5.24	
2025-01-09 08:39:29.03	111.26	5.32	
2025-01-09 08:39:30.26	111.18	5.40	
2025-01-09 08:39:31.50	111.09	5.48	
2025-01-09 08:39:32.73	111.00	5.56	
2025-01-09 08:39:33.96	110.91	5.64	
2025-01-09 08:39:35.20	110.82	5.72	
2025-01-09 08:39:36.44	110.73	5.80	
2025-01-09 08:39:37.68	110.64	5.88	
2025-01-09 08:39:38.91	110.55	5.96	
2025-01-09 08:39:40.14	110.46	6.04	
2025-01-09 08:39:41.37	110.37	6.12	
2025-01-09 08:39:42.60	110.28	6.20	
2025-01-09 08:39:43.83	110.18	6.28	
2025-01-09 08:39:45.06	110.09	6.37	
2025-01-09 08:39:46.29	110.00	6.45	
2025-01-09 08:39:47.52	109.90	6.53	
2025-01-09 08:39:48.75	109.81	6.61	
2025-01-09 08:39:49.97	109.71	6.69	
2025-01-09 08:39:51.20	109.62	6.77	
2025-01-09 08:39:52.43	109.52	6.86	
2025-01-09 08:39:53.65	109.43	6.94	
2025-01-09 08:39:54.89	109.33	7.02	
2025-01-09 08:39:56.11	109.23	7.11	
2025-01-09 08:39:57.34	109.13	7.19	
2025-01-09 08:39:58.57	109.03	7.27	
2025-01-09 08:39:59.81	108.93	7.36	
2025-01-09 08:40:01.04	108.83	7.44	
2025-01-09 08:40:02.28	108.73	7.53	
2025-01-09 08:40:03.51	108.63	7.61	
2025-01-09 08:40:04.74	108.52	7.70	
2025-01-09 08:40:05.97	108.42	7.78	
2025-01-09 08:40:07.20	108.32	7.86	
2025-01-09 08:40:08.42	108.21	7.95	
2025-01-09 08:40:09.65	108.11	8.03	
2025-01-09 08:40:10.90	108.00	8.12	
2025-01-09 08:40:12.13	107.90	8.21	
2025-01-09 08:40:13.36	107.79	8.29	
2025-01-09 08:40:14.59	107.68	8.38	
2025-01-09 08:40:15.83	107.57	8.47	
2025-01-09 08:40:17.06	107.47	8.55	
2025-01-09 08:40:18.30	107.36	8.64	
2025-01-09 08:40:19.53	107.25	8.73	
2025-01-09 08:40:20.76	107.13	8.81	
2025-01-09 08:40:22.00	107.02	8.90	
2025-01-09 08:40:23.22	106.91	8.99	
2025-01-09 08:40:24.45	106.80	9.08	
2025-01-09 08:40:25.69	106.68	9.17	
2025-01-09 08:40:26.92	106.57	9.25	
2025-01-09 08:40:28.15	106.45	9.34	
2025-01-09 08:40:29.38	106.34	9.43	
2025-01-09 08:40:30.61	106.22	9.52	
2025-01-09 08:40:31.84	106.11	9.61	
2025-01-09 08:40:33.08	105.99	9.70	
2025-01-09 08:40:34.31	105.87	9.79	
2025-01-09 08:40:35.54	105.75	9.88	
2025-01-09 08:40:36.78	105.63	9.97	
2025-01-09 08:40:38.01	105.51	10.06	
2025-01-09 08:40:39.25	105.39	10.15	
2025-01-09 08:40:40.48	105.26	10.24	
2025-01-09 08:40:41.71	105.14	10.33	
2025-01-09 08:40:42.94	105.02	10.42	
2025-01-09 08:40:44.17	104.89	10.51	
2025-01-09 08:40:45.40	104.77	10.60	
2025-01-09 08:40:46.63	104.64	10.69	
2025-01-09 08:40:47.86	104.51	10.79	
2025-01-09 08:40:49.09	104.38	10.88	
2025-01-09 08:40:50.33	104.25	10.97	
2025-01-09 08:40:51.56	104.13	11.06	
2025-01-09 08:40:52.79	104.00	11.15	
2025-01-09 08:40:54.01	103.86	11.25	
2025-01-09 08:40:55.25	103.73	11.34	
2025-01-09 08:40:56.48	103.60	11.43	
2025-01-09 08:40:57.71	103.46	11.53	
2025-01-09 08:40:58.94	103.33	11.62	
2025-01-09 08:41:00.19	103.19	11.71	
2025-01-09 08:41:01.42	103.06	11.81	
2025-01-09 08:41:02.66	102.92	11.90	
2025-01-09 08:41:03.89	102.78	12.00	
2025-01-09 08:41:05.12	102.64	12.09	
2025-01-09 08:41:06.35	102.50	12.19	
2025-01-09 08:41:07.59	102.36	12.28	
2025-01-09 08:41:08.84	102.21	12.38	
2025-01-09 08:41:10.06	102.07	12.47	
2025-01-09 08:41:11.30	101.93	12.57	
2025-01-09 08:41:12.53	101.78	12.66	
2025-01-09 08:41:13.76	101.64	12.76	
2025-01-09 08:41:14.99	101.49	12.86	
2025-01-09 08:41:16.22	101.34	12.95	
2025-01-09 08:41:17.45	101.19	13.05	
2025-01-09 08:41:18.69	101.04	13.15	
2025-01-09 08:41:19.93	100.89	13.24	
2025-01-09 08:41:21.17	100.74	13.34	
2025-01-09 08:41:22.40	100.59	13.44	
2025-01-09 08:41:23.64	100.43	13.54	
2025-01-09 08:41:24.87	100.28	13.63	
2025-01-09 08:41:26.10	100.12	13.73	
2025-01-09 08:41:27.33	99.96	13.83	
2025-01-09 08:41:28.56	99.80	13.93	
2025-01-09 08:41:29.79	99.65	14.03	
2025-01-09 08:41:31.02	99.49	14.12	
2025-01-09 08:41:32.26	99.32	14.22	
2025-01-09 08:41:33.49	99.16	14.32	
2025-01-09 08:41:34.72	99.00	14.42	
2025-01-09 08:41:35.94	98.83	14.52	
2025-01-09 08:41:37.19	98.67	14.62	
2025-01-09 08:41:38.42	98.50	14.72	
2025-01-09 08:41:39.65	98.33	14.82	
2025-01-09 08:41:40.88	98.16	14.92	
2025-01-09 08:41:42.11	97.99	15.02	
2025-01-09 08:41:43.34	97.82	15.12	
2025-01-09 08:41:44.57	97.65	15.22	
2025-01-09 08:41:45.80	97.48	15.32	
2025-01-09 08:41:47.03	97.30	15.42	
2025-01-09 08:41:48.26	97.12	15.52	
2025-01-09 08:41:49.49	96.95	15.62	
2025-01-09 08:41:50.73	96.77	15.72	
2025-01-09 08:41:51.96	96.59	15.82	
2025-01-09 08:41:53.19	96.41	15.92	
2025-01-09 08:41:54.44	96.22	16.03	
2025-01-09 08:41:55.67	96.04	16.13	
2025-01-09 08:41:56.90	95.85	16.23	
2025-01-09 08:41:58.15	95.66	16.33	
2025-01-09 08:41:59.38	95.48	16.43	
2025-01-09 08:42:00.63	95.29	16.54	
2025-01-09 08:42:01.86	95.10	16.64	
2025-01-09 08:42:03.09	94.90	16.74	
2025-01-09 08:42:04.32	94.71	16.84	
2025-01-09 08:42:05.55	94.52	16.95	
2025-01-09 08:42:06.78	94.32	17.05	
2025-01-09 08:42:08.01	94.13	17.15	
2025-01-09 08:42:09.26	93.92	17.25	
2025-01-09 08:42:10.49	93.73	17.36	
2025-01-09 08:42:11.71	93.53	17.46	
2025-01-09 08:42:12.95	93.32	17.56	
2025-01-09 08:42:14.19	93.12	17.67	
2025-01-09 08:42:15.42	92.91	17.77	
2025-01-09 08:42:16.65	92.71	17.87	
2025-01-09 08:42:17.88	92.50	17.97	
2025-01-09 08:42:19.11	92.29	18.08	
2025-01-09 08:42:20.33	92.08	18.18	
2025-01-09 08:42:21.56	91.87	18.28	
2025-01-09 08:42:22.79	91.66	18.38	
2025-01-09 08:42:24.02	91.44	18.49	
2025-01-09 08:42:25.25	91.22	18.59	
2025-01-09 08:42:26.50	91.00	18.70	
2025-01-09 08:42:27.73	90.78	18.80	
2025-01-09 08:42:28.97	90.56	18.90	
2025-01-09 08:42:30.21	90.34	19.01	
2025-01-09 08:42:31.44	90.11	19.11	
2025-01-09 08:42:32.67	89.89	19.21	
2025-01-09 08:42:33.90	89.66	19.31	
2025-01-09 08:42:35.13	89.43	19.42	
2025-01-09 08:42:36.36	89.20	19.52	
2025-01-09 08:42:37.60	88.97	19.62	
2025-01-09 08:42:38.83	88.74	19.73	
2025-01-09 08:42:40.06	88.50	19.83	
2025-01-09 08:42:41.29	88.26	19.93	
2025-01-09 08:42:42.53	88.02	20.03	
2025-01-09 08:42:43.75	87.79	20.14	
2025-01-09 08:42:44.98	87.55	20.24	
2025-01-09 08:42:46.22	87.30	20.34	
2025-01-09 08:42:47.45	87.06	20.44	
2025-01-09 08:42:48.68	86.81	20.54	
2025-01-09 08:42:49.91	86.56	20.65	
2025-01-09 08:42:51.14	86.31	20.75	
2025-01-09 08:42:52.39	86.06	20.85	
2025-01-09 08:42:53.62	85.80	20.95	
2025-01-09 08:42:54.85	85.55	21.05	
2025-01-09 08:42:56.09	85.29	21.15	
2025-01-09 08:42:57.32	85.03	21.25	
2025-01-09 08:42:58.55	84.77	21.35	
2025-01-09 08:42:59.78	84.51	21.45	
2025-01-09 08:43:01.01	84.25	21.55	
2025-01-09 08:43:02.26	83.98	21.65	
2025-01-09 08:43:03.49	83.71	21.75	
2025-01-09 08:43:04.72	83.45	21.85	
2025-01-09 08:43:05.96	83.17	21.95	
2025-01-09 08:43:07.19	82.90	22.05	
2025-01-09 08:43:08.41	82.63	22.15	
2025-01-09 08:43:09.64	82.36	22.25	
2025-01-09 08:43:10.88	82.08	22.34	
2025-01-09 08:43:12.11	81.80	22.44	
2025-01-09 08:43:13.34	81.52	22.54	
2025-01-09 08:43:14.57	81.24	22.63	
2025-01-09 08:43:15.82	80.95	22.73	
2025-01-09 08:43:17.06	80.66	22.83	
2025-01-09 08:43:18.29	80.37	22.92	
2025-01-09 08:43:19.53	80.08	23.02	
2025-01-09 08:43:20.76	79.79	23.11	
2025-01-09 08:43:21.99	79.50	23.20	
2025-01-09 08:43:23.22	79.20	23.30	
2025-01-09 08:43:24.45	78.91	23.39	
2025-01-09 08:43:25.68	78.61	23.48	
2025-01-09 08:43:26.91	78.31	23.57	
2025-01-09 08:43:28.14	78.01	23.67	
2025-01-09 08:43:29.37	77.71	23.76	
2025-01-09 08:43:30.62	77.40	23.85	
2025-01-09 08:43:31.85	77.09	23.94	
2025-01-09 08:43:33.08	76.78	24.03	
2025-01-09 08:43:34.31	76.47	24.11	
2025-01-09 08:43:35.57	76.15	24.20	
2025-01-09 08:43:36.80	75.84	24.29	
2025-01-09 08:43:38.04	75.52	24.38	
2025-01-09 08:43:39.26	75.20	24.46	
2025-01-09 08:43:40.51	74.88	24.55	
2025-01-09 08:43:41.75	74.56	24.63	
2025-01-09 08:43:42.98	74.23	24.72	
2025-01-09 08:43:44.21	73.91	24.80	
2025-01-09 08:43:45.45	73.58	24.88	
2025-01-09 08:43:46.69	73.25	24.97	
2025-01-09 08:43:47.92	72.92	25.05	
2025-01-09 08:43:49.15	72.59	25.13	
2025-01-09 08:43:50.38	72.26	25.20	
2025-01-09 08:43:51.63	71.92	25.28	
2025-01-09 08:43:52.86	71.58	25.36	
2025-01-09 08:43:54.10	71.24	25.44	
2025-01-09 08:43:55.33	70.90	25.51	
2025-01-09 08:43:56.56	70.56	25.59	
2025-01-09 08:43:57.79	70.22	25.66	
2025-01-09 08:43:59.02	69.87	25.73	
2025-01-09 08:44:00.25	69.53	25.81	
2025-01-09 08:44:01.48	69.18	25.88	
2025-01-09 08:44:02.71	68.83	25.95	
2025-01-09 08:44:03.94	68.48	26.02	
2025-01-09 08:44:05.17	68.13	26.08	
2025-01-09 08:44:06.40	67.78	26.15	
2025-01-09 08:44:07.63	67.42	26.22	
2025-01-09 08:44:08.88	67.06	26.28	
2025-01-09 08:44:10.11	66.70	26.35	
2025-01-09 08:44:11.35	66.34	26.41	
2025-01-09 08:44:12.58	65.98	26.47	
2025-01-09 08:44:13.82	65.61	26.53	
2025-01-09 08:44:15.05	65.25	26.59	
2025-01-09 08:44:16.28	64.89	26.65	
2025-01-09 08:44:17.51	64.52	26.71	
2025-01-09 08:44:18.74	64.15	26.76	
2025-01-09 08:44:19.97	63.78	26.82	
2025-01-09 08:44:21.22	63.41	26.87	
2025-01-09 08:44:22.45	63.04	26.92	
2025-01-09 08:44:23.69	62.66	26.97	
2025-01-09 08:44:24.92	62.29	27.02	
2025-01-09 08:44:26.17	61.91	27.07	
2025-01-09 08:44:27.41	61.53	27.12	
2025-01-09 08:44:28.64	61.15	27.16	
2025-01-09 08:44:29.88	60.77	27.21	
2025-01-09 08:44:31.11	60.39	27.25	
2025-01-09 08:44:32.34	60.01	27.29	
2025-01-09 08:44:33.57	59.63	27.33	
2025-01-09 08:44:34.80	59.25	27.37	
2025-01-09 08:44:36.03	58.87	27.41	
2025-01-09 08:44:37.26	58.48	27.45	
2025-01-09 08:44:38.49	58.10	27.48	
2025-01-09 08:44:39.72	57.71	27.52	
2025-01-09 08:44:40.95	57.33	27.55	
2025-01-09 08:44:42.18	56.94	27.58	
2025-01-09 08:44:43.41	56.55	27.61	
2025-01-09 08:44:44.64	56.16	27.64	
2025-01-09 08:44:45.87	55.78	27.66	
2025-01-09 08:44:47.10	55.39	27.69	
2025-01-09 08:44:48.33	55.00	27.71	
2025-01-09 08:44:49.57	54.60	27.73	
2025-01-09 08:44:50.80	54.21	27.75	
2025-01-09 08:44:52.03	53.82	27.77	
2025-01-09 08:44:53.25	53.43	27.79	
2025-01-09 08:44:54.48	53.04	27.81	
2025-01-09 08:44:55.71	52.64	27.82	
2025-01-09 08:44:56.94	52.25	27.83	
2025-01-09 08:44:58.18	51.85	27.85	
2025-01-09 08:44:59.40	51.46	27.86	
2025-01-09 08:45:00.63	51.07	27.87	
2025-01-09 08:45:01.86	50.68	27.87	
2025-01-09 08:45:03.09	50.28	27.88	
2025-01-09 08:45:04.32	49.89	27.88	
2025-01-09 08:45:05.55	49.49	27.89	
2025-01-09 08:45:06.78	49.10	27.89	
2025-01-09 08:45:08.01	48.70	27.89	
2025-01-09 08:45:09.24	48.31	27.88	
2025-01-09 08:45:10.47	47.91	27.88	
2025-01-09 08:45:11.72	47.51	27.88	
2025-01-09 08:45:12.95	47.12	27.87	
2025-01-09 08:45:14.18	46.72	27.86	
2025-01-09 08:45:15.41	46.33	27.85	
2025-01-09 08:45:16.64	45.94	27.84	
2025-01-09 08:45:17.87	45.54	27.83	
2025-01-09 08:45:19.10	45.15	27.82	
2025-01-09 08:45:20.33	44.76	27.80	
2025-01-09 08:45:21.57	44.36	27.78	
2025-01-09 08:45:22.80	43.97	27.77	
2025-01-09 08:45:24.05	43.57	27.75	
2025-01-09 08:45:25.28	43.18	27.72	
2025-01-09 08:45:26.52	42.79	27.70	
2025-01-09 08:45:27.75	42.40	27.68	
2025-01-09 08:45:28.98	42.01	27.65	
2025-01-09 08:45:30.23	41.62	27.62	
2025-01-09 08:45:31.46	41.23	27.60	
2025-01-09 08:45:32.69	40.84	27.57	
2025-01-09 08:45:33.92	40.46	27.53	
2025-01-09 08:45:35.15	40.07	27.50	
2025-01-09 08:45:36.39	39.68	27.47	
2025-01-09 08:45:37.62	39.30	27.43	
2025-01-09 08:45:38.85	38.92	27.39	
2025-01-09 08:45:40.08	38.53	27.36	
2025-01-09 08:45:41.31	38.15	27.32	
2025-01-09 08:45:42.54	37.77	27.28	
2025-01-09 08:45:43.77	37.39	27.23	
2025-01-09 08:45:45.00	37.02	27.19	
2025-01-09 08:45:46.25	36.63	27.14	
2025-01-09 08:45:47.48	36.26	27.10	
2025-01-09 08:45:48.71	35.88	27.05	
2025-01-09 08:45:49.94	35.51	27.00	
2025-01-09 08:45:51.17	35.14	26.95	
2025-01-09 08:45:52.40	34.77	26.90	
2025-01-09 08:45:53.65	34.39	26.85	
2025-01-09 08:45:54.88	34.02	26.79	
2025-01-09 08:45:56.11	33.65	26.74	
2025-01-09 08:45:57.36	33.28	26.68	
2025-01-09 08:45:58.60	32.91	26.62	
2025-01-09 08:45:59.83	32.55	26.57	
2025-01-09 08:46:01.06	32.19	26.51	
2025-01-09 08:46:02.29	31.83	26.45	
2025-01-09 08:46:03.52	31.47	26.38	
2025-01-09 08:46:04.77	31.11	26.32	
2025-01-09 08:46:06.00	30.75	26.26	
2025-01-09 08:46:07.23	30.39	26.19	
2025-01-09 08:46:08.46	30.04	26.13	
2025-01-09 08:46:09.70	29.69	26.06	
2025-01-09 08:46:10.95	29.33	25.99	
2025-01-09 08:46:12.18	28.98	25.92	
2025-01-09 08:46:13.41	28.64	25.85	
2025-01-09 08:46:14.64	28.29	25.78	
2025-01-09 08:46:15.88	27.94	25.71	
2025-01-09 08:46:17.11	27.60	25.63	
2025-01-09 08:46:18.34	27.26	25.56	
2025-01-09 08:46:19.57	26.92	25.48	
2025-01-09 08:46:20.80	26.58	25.41	
2025-01-09 08:46:22.03	26.25	25.33	
2025-01-09 08:46:23.26	25.91	25.25	
2025-01-09 08:46:24.49	25.58	25.18	
2025-01-09 08:46:25.74	25.24	25.10	
2025-01-09 08:46:26.97	24.91	25.02	
2025-01-09 08:46:28.20	24.59	24.94	
2025-01-09 08:46:29.43	24.26	24.85	
2025-01-09 08:46:30.67	23.93	24.77	
2025-01-09 08:46:31.92	23.61	24.69	
2025-01-09 08:46:33.17	23.28	24.60	
2025-01-09 08:46:34.40	22.96	24.52	
2025-01-09 08:46:35.63	22.64	24.43	
2025-01-09 08:46:36.86	22.33	24.35	
2025-01-09 08:46:38.10	22.01	24.26	
2025-01-09 08:46:39.33	21.70	24.17	
2025-01-09 08:46:40.57	21.39	24.08	
2025-01-09 08:46:41.80	21.08	24.00	
2025-01-09 08:46:43.03	20.77	23.91	
2025-01-09 08:46:44.26	20.47	23.82	
2025-01-09 08:46:45.49	20.16	23.73	
2025-01-09 08:46:46.72	19.86	23.64	
2025-01-09 08:46:47.95	19.56	23.55	
2025-01-09 08:46:49.18	19.27	23.46	
2025-01-09 08:46:50.42	18.97	23.36	
2025-01-09 08:46:51.64	18.68	23.27	
2025-01-09 08:46:52.87	18.38	23.18	
2025-01-09 08:46:54.11	18.09	23.08	
2025-01-09 08:46:55.34	17.80	22.99	
2025-01-09 08:46:56.57	17.51	22.89	
2025-01-09 08:46:57.80	17.23	22.80	
2025-01-09 08:46:59.04	16.94	22.70	
2025-01-09 08:47:00.26	16.66	22.61	
2025-01-09 08:47:01.49	16.38	22.51	
2025-01-09 08:47:02.72	16.10	22.42	
2025-01-09 08:47:03.96	15.83	22.32	
2025-01-09 08:47:05.19	15.55	22.22	
2025-01-09 08:47:06.44	15.27	22.12	
2025-01-09 08:47:07.66	15.00	22.03	
2025-01-09 08:47:08.89	14.73	21.93	
2025-01-09 08:47:10.13	14.46	21.83	
2025-01-09 08:47:11.36	14.20	21.73	
2025-01-09 08:47:12.59	13.93	21.63	
2025-01-09 08:47:13.82	13.67	21.53	
2025-01-09 08:47:15.04	13.41	21.43	
2025-01-09 08:47:16.28	13.15	21.33	
2025-01-09 08:47:17.51	12.89	21.23	
2025-01-09 08:47:18.75	12.63	21.13	
2025-01-09 08:47:19.99	12.38	21.03	
2025-01-09 08:47:21.23	12.12	20.93	
2025-01-09 08:47:22.46	11.87	20.83	
2025-01-09 08:47:23.68	11.62	20.73	
2025-01-09 08:47:24.92	11.38	20.63	
2025-01-09 08:47:26.15	11.13	20.53	
2025-01-09 08:47:27.38	10.88	20.43	
2025-01-09 08:47:28.61	10.64	20.32	
2025-01-09 08:47:29.84	10.40	20.22	
2025-01-09 08:47:31.07	10.16	20.12	
2025-01-09 08:47:32.31	9.92	20.02	
2025-01-09 08:47:33.55	9.68	19.91	
2025-01-09 08:47:34.78	9.45	19.81	
2025-01-09 08:47:36.01	9.22	19.71	
2025-01-09 08:47:37.24	8.98	19.61	
2025-01-09 08:47:38.48	8.75	19.51	
2025-01-09 08:47:39.71	8.52	19.40	
2025-01-09 08:47:40.94	8.30	19.30	
2025-01-09 08:47:42.19	8.07	19.20	
2025-01-09 08:47:43.42	7.85	19.09	
2025-01-09 08:47:44.65	7.62	18.99	
2025-01-09 08:47:45.88	7.40	18.89	
2025-01-09 08:47:47.11	7.18	18.79	
2025-01-09 08:47:48.34	6.97	18.68	
2025-01-09 08:47:49.59	6.75	18.58	
2025-01-09 08:47:50.82	6.53	18.48	
2025-01-09 08:47:52.05	6.32	18.38	
2025-01-09 08:47:53.28	6.11	18.27	
2025-01-09 08:47:54.51	5.90	18.17	
2025-01-09 08:47:55.73	5.69	18.07	
2025-01-09 08:47:56.97	5.48	17.97	
2025-01-09 08:47:58.20	5.27	17.86	
2025-01-09 08:47:59.44	5.07	17.76	
2025-01-09 08:48:00.68	4.86	17.66	
2025-01-09 08:48:01.91	4.66	17.55	
2025-01-09 08:48:03.14	4.46	17.45	
2025-01-09 08:48:04.40	4.26	17.35	
2025-01-09 08:48:05.64	4.06	17.24	
2025-01-09 08:48:06.88	3.86	17.14	
2025-01-09 08:48:08.11	3.67	17.04	
2025-01-09 08:48:09.34	3.47	16.94	
2025-01-09 08:48:10.57	3.28	16.84	
2025-01-09 08:48:11.81	3.09	16.73	
2025-01-09 08:48:13.04	2.90	16.63	
2025-01-09 08:48:14.29	2.71	16.53	
2025-01-09 08:48:15.53	2.52	16.43	
2025-01-09 08:48:16.77	2.33	16.33	
2025-01-09 08:48:18.00	2.15	16.22	
2025-01-09 08:48:19.23	1.97	16.12	
2025-01-09 08:48:20.46	1.78	16.02	
2025-01-09 08:48:21.69	1.60	15.92	
2025-01-09 08:48:22.94	1.42	15.82	
2025-01-09 08:48:24.17	1.24	15.72	
2025-01-09 08:48:25.40	1.07	15.62	
2025-01-09 08:48:26.64	0.89	15.52	
2025-01-09 08:48:27.86	0.72	15.42	
2025-01-09 08:48:29.11	0.54	15.32	
2025-01-09 08:48:30.34	0.37	15.22	
2025-01-09 08:48:31.58	0.20	15.12	
2025-01-09 08:48:32.81	0.03	15.02	
2025-01-09 08:48:34.04	359.86	14.92	
2025-01-09 08:48:35.28	359.69	14.82	
2025-01-09 08:48:36.51	359.52	14.72	
2025-01-09 08:48:37.74	359.36	14.62	
2025-01-09 08:48:38.97	359.19	14.52	
2025-01-09 08:48:40.20	359.03	14.42	
2025-01-09 08:48:41.45	358.87	14.32	
2025-01-09 08:48:42.68	358.71	14.22	
2025-01-09 08:48:43.91	358.55	14.13	
2025-01-09 08:48:45.14	358.39	14.03	
2025-01-09 08:48:46.38	358.23	13.93	
2025-01-09 08:48:47.62	358.07	13.83	
2025-01-09 08:48:48.85	357.92	13.73	
2025-01-09 08:48:50.09	357.76	13.64	
2025-01-09 08:48:51.32	357.61	13.54	
2025-01-09 08:48:52.55	357.46	13.44	
2025-01-09 08:48:53.78	357.30	13.35	
2025-01-09 08:48:55.01	357.15	13.25	
2025-01-09 08:48:56.24	357.01	13.15	
2025-01-09 08:48:57.49	356.86	13.06	
2025-01-09 08:48:58.72	356.71	12.96	
2025-01-09 08:48:59.94	356.56	12.86	
2025-01-09 08:49:01.19	356.42	12.77	
2025-01-09 08:49:02.43	356.27	12.67	
2025-01-09 08:49:03.67	356.13	12.58	
2025-01-09 08:49:04.91	355.98	12.48	
2025-01-09 08:49:06.14	355.84	12.39	
2025-01-09 08:49:07.39	355.70	12.29	
2025-01-09 08:49:08.62	355.56	12.20	
2025-01-09 08:49:09.85	355.42	12.10	
2025-01-09 08:49:11.08	355.28	12.01	
2025-01-09 08:49:12.32	355.15	11.91	
2025-01-09 08:49:13.56	355.01	11.82	
2025-01-09 08:49:14.78	354.87	11.73	
2025-01-09 08:49:16.03	354.74	11.63	
2025-01-09 08:49:17.26	354.61	11.54	
2025-01-09 08:49:18.49	354.47	11.45	
2025-01-09 08:49:19.72	354.34	11.35	
2025-01-09 08:49:20.95	354.21	11.26	
2025-01-09 08:49:22.18	354.08	11.17	
2025-01-09 08:49:23.41	353.95	11.08	
2025-01-09 08:49:24.64	353.82	10.98	
2025-01-09 08:49:25.89	353.70	10.89	
2025-01-09 08:49:27.12	353.57	10.80	
2025-01-09 08:49:28.37	353.44	10.71	
2025-01-09 08:49:29.61	353.32	10.62	
2025-01-09 08:49:30.85	353.19	10.52	
2025-01-09 08:49:32.08	353.07	10.43	
2025-01-09 08:49:33.31	352.95	10.34	
2025-01-09 08:49:34.54	352.82	10.25	
2025-01-09 08:49:35.78	352.70	10.16	
2025-01-09 08:49:37.02	352.58	10.07	
2025-01-09 08:49:38.27	352.46	9.98	
2025-01-09 08:49:39.50	352.34	9.89	
2025-01-09 08:49:40.73	352.22	9.80	
2025-01-09 08:49:41.96	352.11	9.71	
2025-01-09 08:49:43.20	351.99	9.62	
2025-01-09 08:49:44.43	351.87	9.54	
2025-01-09 08:49:45.67	351.76	9.45	
2025-01-09 08:49:46.90	351.64	9.36	
2025-01-09 08:49:48.14	351.53	9.27	
2025-01-09 08:49:49.37	351.42	9.18	
2025-01-09 08:49:50.59	351.31	9.10	
2025-01-09 08:49:51.83	351.19	9.01	
2025-01-09 08:49:53.06	351.08	8.92	
2025-01-09 08:49:54.29	350.97	8.83	
2025-01-09 08:49:55.52	350.86	8.75	
2025-01-09 08:49:56.75	350.76	8.66	
2025-01-09 08:49:57.98	350.65	8.57	
2025-01-09 08:49:59.22	350.54	8.49	
2025-01-09 08:50:00.45	350.43	8.40	
2025-01-09 08:50:01.68	350.33	8.32	
2025-01-09 08:50:02.91	350.22	8.23	
2025-01-09 08:50:04.14	350.12	8.14	
2025-01-09 08:50:05.39	350.01	8.06	
2025-01-09 08:50:06.62	349.91	7.97	
2025-01-09 08:50:07.85	349.81	7.89	
2025-01-09 08:50:09.08	349.70	7.80	
2025-01-09 08:50:10.32	349.60	7.72	
2025-01-09 08:50:11.57	349.50	7.63	
2025-01-09 08:50:12.80	349.40	7.55	
2025-01-09 08:50:14.03	349.30	7.47	
2025-01-09 08:50:15.27	349.20	7.38	
2025-01-09 08:50:16.52	349.10	7.30	
2025-01-09 08:50:17.75	349.00	7.21	
2025-01-09 08:50:18.98	348.91	7.13	
2025-01-09 08:50:20.21	348.81	7.05	
2025-01-09 08:50:21.45	348.71	6.96	
2025-01-09 08:50:22.68	348.62	6.88	
2025-01-09 08:50:23.91	348.52	6.80	
2025-01-09 08:50:25.15	348.43	6.72	
2025-01-09 08:50:26.37	348.33	6.63	
2025-01-09 08:50:27.61	348.24	6.55	
2025-01-09 08:50:28.84	348.15	6.47	
2025-01-09 08:50:30.07	348.05	6.39	
2025-01-09 08:50:31.32	347.96	6.31	
2025-01-09 08:50:32.56	347.87	6.23	
2025-01-09 08:50:33.79	347.78	6.14	
2025-01-09 08:50:35.02	347.69	6.06	
2025-01-09 08:50:36.25	347.60	5.98	
2025-01-09 08:50:37.49	347.51	5.90	
2025-01-09 08:50:38.72	347.42	5.82	
2025-01-09 08:50:39.96	347.33	5.74	
2025-01-09 08:50:41.19	347.25	5.66	
2025-01-09 08:50:42.42	347.16	5.58	
2025-01-09 08:50:43.66	347.07	5.50	
2025-01-09 08:50:44.89	346.99	5.42	
2025-01-09 08:50:46.11	346.90	5.35	
2025-01-09 08:50:47.34	346.82	5.27	
2025-01-09 08:50:48.58	346.73	5.19	
2025-01-09 08:50:49.82	346.65	5.11	
2025-01-09 08:50:51.05	346.56	5.03	
2025-01-09 08:50:52.28	346.48	4.95	
2025-01-09 08:50:53.53	346.40	4.87	
2025-01-09 08:50:54.76	346.31	4.79	
2025-01-09 08:50:56.00	346.23	4.72	
2025-01-09 08:50:57.23	346.15	4.64	
2025-01-09 08:50:58.46	346.07	4.56	
2025-01-09 08:50:59.69	345.99	4.48	
2025-01-09 08:51:00.92	345.91	4.41	
2025-01-09 08:51:02.15	345.83	4.33	
2025-01-09 08:51:03.38	345.75	4.25	
2025-01-09 08:51:04.61	345.67	4.18	
2025-01-09 08:51:05.85	345.59	4.10	
2025-01-09 08:51:07.08	345.52	4.02	

#Closed at: 2025-01-09 08:51:07