passes_logs/2025/01/09/SPB_Silybum_02/SPB_Silybum_02__20250109_002524_SUOMI_NPP_rec.log

#Pass ID: 20250109_002524_SUOMI NPP
#Satellite: SUOMI NPP
#Configuration: NPP
#Start time: 2025-01-09 00:25:23

#Version: 2.0.20230423
#Station: SPB_Silybum_02
#Location: 30.233357 lon 59.946436 lat
#TLE: 1 37849U 11061A   25008.15329241  .00000250  00000+0  13932-3 0  9999
#TLE: 2 37849  98.7439 309.2289 0001915  51.2946 308.8402 14.19535012683945

#Time	Az	El	Level	Level2	SNR	BER	Gain	Gain2
2025-01-09 00:25:25.07	17.60	4.06	
2025-01-09 00:25:26.50	17.60	4.16	
2025-01-09 00:25:27.94	17.59	4.26	
2025-01-09 00:25:29.37	17.59	4.36	
2025-01-09 00:25:30.81	17.59	4.46	
2025-01-09 00:25:32.26	17.59	4.56	
2025-01-09 00:25:33.71	17.59	4.66	
2025-01-09 00:25:35.16	17.59	4.77	
2025-01-09 00:25:36.59	17.59	4.87	
2025-01-09 00:25:38.02	17.58	4.97	
2025-01-09 00:25:39.46	17.58	5.07	
2025-01-09 00:25:40.89	17.58	5.17	
2025-01-09 00:25:42.32	17.58	5.27	
2025-01-09 00:25:43.75	17.58	5.38	
2025-01-09 00:25:45.20	17.58	5.48	
2025-01-09 00:25:46.64	17.57	5.59	
2025-01-09 00:25:48.08	17.57	5.69	
2025-01-09 00:25:49.51	17.57	5.80	
2025-01-09 00:25:50.95	17.57	5.90	
2025-01-09 00:25:52.38	17.57	6.01	
2025-01-09 00:25:53.81	17.56	6.11	
2025-01-09 00:25:55.25	17.56	6.22	
2025-01-09 00:25:56.69	17.56	6.33	
2025-01-09 00:25:58.13	17.56	6.44	
2025-01-09 00:25:59.56	17.55	6.54	
2025-01-09 00:26:00.99	17.55	6.65	
2025-01-09 00:26:02.43	17.55	6.76	
2025-01-09 00:26:03.86	17.55	6.87	
2025-01-09 00:26:05.30	17.54	6.98	
2025-01-09 00:26:06.73	17.54	7.09	
2025-01-09 00:26:08.17	17.54	7.20	
2025-01-09 00:26:09.61	17.54	7.31	
2025-01-09 00:26:11.04	17.53	7.42	
2025-01-09 00:26:12.48	17.53	7.54	
2025-01-09 00:26:13.93	17.53	7.65	
2025-01-09 00:26:15.37	17.52	7.77	
2025-01-09 00:26:16.80	17.52	7.88	
2025-01-09 00:26:18.25	17.52	7.99	
2025-01-09 00:26:19.68	17.51	8.11	
2025-01-09 00:26:21.12	17.51	8.22	
2025-01-09 00:26:22.56	17.51	8.34	
2025-01-09 00:26:24.02	17.50	8.46	
2025-01-09 00:26:25.45	17.50	8.58	
2025-01-09 00:26:26.89	17.50	8.69	
2025-01-09 00:26:28.32	17.49	8.81	
2025-01-09 00:26:29.77	17.49	8.93	
2025-01-09 00:26:31.20	17.48	9.05	
2025-01-09 00:26:32.64	17.48	9.17	
2025-01-09 00:26:34.07	17.48	9.29	
2025-01-09 00:26:35.51	17.47	9.41	
2025-01-09 00:26:36.94	17.47	9.53	
2025-01-09 00:26:38.38	17.46	9.66	
2025-01-09 00:26:39.81	17.46	9.78	
2025-01-09 00:26:41.24	17.45	9.90	
2025-01-09 00:26:42.68	17.45	10.02	
2025-01-09 00:26:44.11	17.44	10.15	
2025-01-09 00:26:45.55	17.44	10.27	
2025-01-09 00:26:46.98	17.43	10.40	
2025-01-09 00:26:48.42	17.43	10.53	
2025-01-09 00:26:49.87	17.42	10.66	
2025-01-09 00:26:51.32	17.42	10.78	
2025-01-09 00:26:52.75	17.41	10.91	
2025-01-09 00:26:54.19	17.41	11.04	
2025-01-09 00:26:55.64	17.40	11.17	
2025-01-09 00:26:57.09	17.40	11.31	
2025-01-09 00:26:58.53	17.39	11.44	
2025-01-09 00:26:59.96	17.38	11.57	
2025-01-09 00:27:01.41	17.38	11.70	
2025-01-09 00:27:02.84	17.37	11.84	
2025-01-09 00:27:04.28	17.37	11.97	
2025-01-09 00:27:05.72	17.36	12.11	
2025-01-09 00:27:07.15	17.35	12.24	
2025-01-09 00:27:08.59	17.35	12.38	
2025-01-09 00:27:10.03	17.34	12.52	
2025-01-09 00:27:11.48	17.33	12.65	
2025-01-09 00:27:12.92	17.33	12.79	
2025-01-09 00:27:14.36	17.32	12.93	
2025-01-09 00:27:15.79	17.31	13.07	
2025-01-09 00:27:17.23	17.30	13.22	
2025-01-09 00:27:18.66	17.30	13.36	
2025-01-09 00:27:20.10	17.29	13.50	
2025-01-09 00:27:21.53	17.28	13.64	
2025-01-09 00:27:22.98	17.27	13.79	
2025-01-09 00:27:24.42	17.26	13.94	
2025-01-09 00:27:25.86	17.26	14.08	
2025-01-09 00:27:27.29	17.25	14.23	
2025-01-09 00:27:28.73	17.24	14.38	
2025-01-09 00:27:30.16	17.23	14.53	
2025-01-09 00:27:31.60	17.22	14.68	
2025-01-09 00:27:33.04	17.21	14.83	
2025-01-09 00:27:34.47	17.20	14.98	
2025-01-09 00:27:35.91	17.20	15.13	
2025-01-09 00:27:37.35	17.19	15.29	
2025-01-09 00:27:38.80	17.18	15.44	
2025-01-09 00:27:40.25	17.17	15.60	
2025-01-09 00:27:41.70	17.16	15.76	
2025-01-09 00:27:43.14	17.15	15.92	
2025-01-09 00:27:44.57	17.14	16.08	
2025-01-09 00:27:46.02	17.13	16.24	
2025-01-09 00:27:47.46	17.12	16.40	
2025-01-09 00:27:48.89	17.11	16.56	
2025-01-09 00:27:50.33	17.09	16.72	
2025-01-09 00:27:51.76	17.08	16.89	
2025-01-09 00:27:53.20	17.07	17.05	
2025-01-09 00:27:54.64	17.06	17.22	
2025-01-09 00:27:56.09	17.05	17.39	
2025-01-09 00:27:57.52	17.04	17.56	
2025-01-09 00:27:58.96	17.03	17.73	
2025-01-09 00:28:00.40	17.01	17.90	
2025-01-09 00:28:01.85	17.00	18.07	
2025-01-09 00:28:03.28	16.99	18.25	
2025-01-09 00:28:04.72	16.98	18.42	
2025-01-09 00:28:06.17	16.96	18.60	
2025-01-09 00:28:07.62	16.95	18.78	
2025-01-09 00:28:09.05	16.94	18.96	
2025-01-09 00:28:10.49	16.92	19.14	
2025-01-09 00:28:11.92	16.91	19.32	
2025-01-09 00:28:13.36	16.89	19.50	
2025-01-09 00:28:14.79	16.88	19.68	
2025-01-09 00:28:16.22	16.86	19.87	
2025-01-09 00:28:17.66	16.85	20.05	
2025-01-09 00:28:19.11	16.83	20.24	
2025-01-09 00:28:20.55	16.82	20.43	
2025-01-09 00:28:21.98	16.80	20.62	
2025-01-09 00:28:23.43	16.79	20.82	
2025-01-09 00:28:24.87	16.77	21.01	
2025-01-09 00:28:26.30	16.75	21.21	
2025-01-09 00:28:27.75	16.74	21.41	
2025-01-09 00:28:29.20	16.72	21.61	
2025-01-09 00:28:30.64	16.70	21.81	
2025-01-09 00:28:32.07	16.68	22.01	
2025-01-09 00:28:33.51	16.67	22.21	
2025-01-09 00:28:34.95	16.65	22.42	
2025-01-09 00:28:36.38	16.63	22.62	
2025-01-09 00:28:37.82	16.61	22.83	
2025-01-09 00:28:39.26	16.59	23.04	
2025-01-09 00:28:40.70	16.57	23.26	
2025-01-09 00:28:42.14	16.55	23.47	
2025-01-09 00:28:43.57	16.53	23.68	
2025-01-09 00:28:45.01	16.51	23.90	
2025-01-09 00:28:46.44	16.49	24.12	
2025-01-09 00:28:47.88	16.47	24.34	
2025-01-09 00:28:49.31	16.45	24.56	
2025-01-09 00:28:50.75	16.42	24.79	
2025-01-09 00:28:52.20	16.40	25.02	
2025-01-09 00:28:53.64	16.38	25.25	
2025-01-09 00:28:55.07	16.35	25.47	
2025-01-09 00:28:56.51	16.33	25.71	
2025-01-09 00:28:57.94	16.31	25.94	
2025-01-09 00:28:59.38	16.28	26.18	
2025-01-09 00:29:00.86	16.26	26.42	
2025-01-09 00:29:02.29	16.23	26.66	
2025-01-09 00:29:03.73	16.20	26.91	
2025-01-09 00:29:05.17	16.18	27.15	
2025-01-09 00:29:06.61	16.15	27.40	
2025-01-09 00:29:08.04	16.12	27.65	
2025-01-09 00:29:09.50	16.09	27.91	
2025-01-09 00:29:10.94	16.06	28.16	
2025-01-09 00:29:12.37	16.03	28.42	
2025-01-09 00:29:13.83	16.00	28.68	
2025-01-09 00:29:15.27	15.97	28.94	
2025-01-09 00:29:16.71	15.94	29.21	
2025-01-09 00:29:18.15	15.91	29.47	
2025-01-09 00:29:19.58	15.88	29.74	
2025-01-09 00:29:21.02	15.85	30.02	
2025-01-09 00:29:22.45	15.81	30.29	
2025-01-09 00:29:23.90	15.78	30.57	
2025-01-09 00:29:25.36	15.74	30.85	
2025-01-09 00:29:26.80	15.71	31.13	
2025-01-09 00:29:28.24	15.67	31.42	
2025-01-09 00:29:29.67	15.63	31.71	
2025-01-09 00:29:31.11	15.59	32.00	
2025-01-09 00:29:32.54	15.56	32.29	
2025-01-09 00:29:33.98	15.52	32.59	
2025-01-09 00:29:35.41	15.48	32.89	
2025-01-09 00:29:36.86	15.43	33.19	
2025-01-09 00:29:38.30	15.39	33.50	
2025-01-09 00:29:39.73	15.35	33.80	
2025-01-09 00:29:41.16	15.30	34.11	
2025-01-09 00:29:42.60	15.26	34.43	
2025-01-09 00:29:44.03	15.21	34.75	
2025-01-09 00:29:45.47	15.17	35.07	
2025-01-09 00:29:46.90	15.12	35.39	
2025-01-09 00:29:48.33	15.07	35.72	
2025-01-09 00:29:49.77	15.02	36.05	
2025-01-09 00:29:51.20	14.97	36.38	
2025-01-09 00:29:52.64	14.92	36.72	
2025-01-09 00:29:54.07	14.86	37.06	
2025-01-09 00:29:55.50	14.81	37.41	
2025-01-09 00:29:56.94	14.75	37.76	
2025-01-09 00:29:58.39	14.69	38.11	
2025-01-09 00:29:59.82	14.63	38.47	
2025-01-09 00:30:01.26	14.57	38.83	
2025-01-09 00:30:02.69	14.51	39.19	
2025-01-09 00:30:04.14	14.45	39.56	
2025-01-09 00:30:05.59	14.38	39.93	
2025-01-09 00:30:07.03	14.31	40.31	
2025-01-09 00:30:08.46	14.25	40.69	
2025-01-09 00:30:09.90	14.18	41.07	
2025-01-09 00:30:11.35	14.10	41.46	
2025-01-09 00:30:12.78	14.03	41.85	
2025-01-09 00:30:14.22	13.95	42.25	
2025-01-09 00:30:15.66	13.87	42.65	
2025-01-09 00:30:17.09	13.80	43.05	
2025-01-09 00:30:18.52	13.71	43.46	
2025-01-09 00:30:19.96	13.63	43.87	
2025-01-09 00:30:21.40	13.54	44.29	
2025-01-09 00:30:22.85	13.45	44.72	
2025-01-09 00:30:24.29	13.36	45.15	
2025-01-09 00:30:25.73	13.26	45.58	
2025-01-09 00:30:27.16	13.17	46.01	
2025-01-09 00:30:28.60	13.07	46.45	
2025-01-09 00:30:30.03	12.96	46.89	
2025-01-09 00:30:31.48	12.86	47.35	
2025-01-09 00:30:32.91	12.75	47.80	
2025-01-09 00:30:34.35	12.63	48.26	
2025-01-09 00:30:35.79	12.52	48.72	
2025-01-09 00:30:37.22	12.40	49.19	
2025-01-09 00:30:38.66	12.27	49.67	
2025-01-09 00:30:40.09	12.14	50.14	
2025-01-09 00:30:41.52	12.01	50.62	
2025-01-09 00:30:42.97	11.87	51.11	
2025-01-09 00:30:44.41	11.73	51.61	
2025-01-09 00:30:45.84	11.58	52.10	
2025-01-09 00:30:47.28	11.43	52.61	
2025-01-09 00:30:48.71	11.27	53.11	
2025-01-09 00:30:50.15	11.11	53.63	
2025-01-09 00:30:51.58	10.94	54.14	
2025-01-09 00:30:53.02	10.76	54.67	
2025-01-09 00:30:54.46	10.58	55.20	
2025-01-09 00:30:55.89	10.39	55.73	
2025-01-09 00:30:57.32	10.19	56.26	
2025-01-09 00:30:58.76	9.99	56.81	
2025-01-09 00:31:00.20	9.77	57.35	
2025-01-09 00:31:01.64	9.55	57.91	
2025-01-09 00:31:03.08	9.31	58.47	
2025-01-09 00:31:04.51	9.07	59.03	
2025-01-09 00:31:05.94	8.82	59.59	
2025-01-09 00:31:07.38	8.55	60.16	
2025-01-09 00:31:08.81	8.27	60.74	
2025-01-09 00:31:10.25	7.98	61.32	
2025-01-09 00:31:11.70	7.67	61.91	
2025-01-09 00:31:13.15	7.35	62.50	
2025-01-09 00:31:14.58	7.01	63.10	
2025-01-09 00:31:16.02	6.66	63.70	
2025-01-09 00:31:17.46	6.28	64.30	
2025-01-09 00:31:18.90	5.88	64.91	
2025-01-09 00:31:20.34	5.47	65.52	
2025-01-09 00:31:21.78	5.02	66.13	
2025-01-09 00:31:23.22	4.55	66.75	
2025-01-09 00:31:24.65	4.06	67.37	
2025-01-09 00:31:26.09	3.53	67.99	
2025-01-09 00:31:27.54	2.97	68.62	
2025-01-09 00:31:28.99	2.36	69.26	
2025-01-09 00:31:30.42	1.73	69.88	
2025-01-09 00:31:31.86	1.04	70.52	
2025-01-09 00:31:33.33	0.29	71.16	
2025-01-09 00:31:34.76	359.50	71.79	
2025-01-09 00:31:36.23	358.63	72.44	
2025-01-09 00:31:37.66	357.72	73.07	
2025-01-09 00:31:39.12	356.71	73.71	
2025-01-09 00:31:40.56	355.63	74.35	
2025-01-09 00:31:42.00	354.45	74.98	
2025-01-09 00:31:43.43	353.17	75.60	
2025-01-09 00:31:44.87	351.77	76.22	
2025-01-09 00:31:46.33	350.20	76.84	
2025-01-09 00:31:47.77	348.50	77.45	
2025-01-09 00:31:49.22	346.61	78.05	
2025-01-09 00:31:50.66	344.53	78.63	
2025-01-09 00:31:52.09	342.24	79.20	
2025-01-09 00:31:53.54	339.66	79.76	
2025-01-09 00:31:54.98	336.80	80.29	
2025-01-09 00:31:56.41	333.63	80.79	
2025-01-09 00:31:57.85	330.08	81.27	
2025-01-09 00:31:59.28	326.15	81.71	
2025-01-09 00:32:00.73	321.74	82.11	
2025-01-09 00:32:02.18	316.89	82.46	
2025-01-09 00:32:03.63	311.59	82.75	
2025-01-09 00:32:05.07	305.94	82.98	
2025-01-09 00:32:06.50	300.02	83.13	
2025-01-09 00:32:07.93	293.90	83.21	
2025-01-09 00:32:09.37	287.66	83.20	
2025-01-09 00:32:10.80	281.55	83.12	
2025-01-09 00:32:12.25	275.56	82.96	
2025-01-09 00:32:13.69	269.93	82.74	
2025-01-09 00:32:15.12	264.73	82.44	
2025-01-09 00:32:16.56	259.93	82.09	
2025-01-09 00:32:17.99	255.60	81.70	
2025-01-09 00:32:19.44	251.63	81.25	
2025-01-09 00:32:20.88	248.09	80.77	
2025-01-09 00:32:22.31	244.94	80.27	
2025-01-09 00:32:23.75	242.09	79.73	
2025-01-09 00:32:25.19	239.54	79.18	
2025-01-09 00:32:26.62	237.25	78.61	
2025-01-09 00:32:28.05	235.19	78.03	
2025-01-09 00:32:29.49	233.32	77.43	
2025-01-09 00:32:30.93	231.63	76.82	
2025-01-09 00:32:32.36	230.09	76.21	
2025-01-09 00:32:33.80	228.69	75.59	
2025-01-09 00:32:35.23	227.41	74.97	
2025-01-09 00:32:36.66	226.24	74.34	
2025-01-09 00:32:38.10	225.16	73.71	
2025-01-09 00:32:39.53	224.17	73.08	
2025-01-09 00:32:40.99	223.23	72.43	
2025-01-09 00:32:42.42	222.38	71.80	
2025-01-09 00:32:43.87	221.58	71.16	
2025-01-09 00:32:45.30	220.85	70.53	
2025-01-09 00:32:46.74	220.16	69.90	
2025-01-09 00:32:48.17	219.53	69.27	
2025-01-09 00:32:49.61	218.92	68.64	
2025-01-09 00:32:51.05	218.36	68.01	
2025-01-09 00:32:52.50	217.83	67.38	
2025-01-09 00:32:53.94	217.33	66.76	
2025-01-09 00:32:55.37	216.86	66.14	
2025-01-09 00:32:56.81	216.42	65.53	
2025-01-09 00:32:58.24	216.00	64.92	
2025-01-09 00:32:59.69	215.60	64.30	
2025-01-09 00:33:01.14	215.22	63.69	
2025-01-09 00:33:02.57	214.86	63.10	
2025-01-09 00:33:04.01	214.52	62.50	
2025-01-09 00:33:05.45	214.20	61.91	
2025-01-09 00:33:06.90	213.89	61.32	
2025-01-09 00:33:08.33	213.60	60.74	
2025-01-09 00:33:09.77	213.32	60.16	
2025-01-09 00:33:11.20	213.05	59.59	
2025-01-09 00:33:12.64	212.80	59.02	
2025-01-09 00:33:14.10	212.55	58.44	
2025-01-09 00:33:15.54	212.31	57.88	
2025-01-09 00:33:16.98	212.09	57.33	
2025-01-09 00:33:18.42	211.87	56.78	
2025-01-09 00:33:19.87	211.67	56.23	
2025-01-09 00:33:21.33	211.46	55.68	
2025-01-09 00:33:22.76	211.27	55.15	
2025-01-09 00:33:24.19	211.09	54.62	
2025-01-09 00:33:25.62	210.92	54.10	
2025-01-09 00:33:27.06	210.75	53.58	
2025-01-09 00:33:28.50	210.58	53.06	
2025-01-09 00:33:29.93	210.42	52.56	
2025-01-09 00:33:31.37	210.27	52.05	
2025-01-09 00:33:32.80	210.12	51.55	
2025-01-09 00:33:34.24	209.98	51.06	
2025-01-09 00:33:35.67	209.84	50.57	
2025-01-09 00:33:37.11	209.71	50.09	
2025-01-09 00:33:38.54	209.58	49.61	
2025-01-09 00:33:39.99	209.45	49.13	
2025-01-09 00:33:41.42	209.33	48.66	
2025-01-09 00:33:42.86	209.22	48.20	
2025-01-09 00:33:44.31	209.10	47.73	
2025-01-09 00:33:45.75	208.99	47.27	
2025-01-09 00:33:47.19	208.88	46.82	
2025-01-09 00:33:48.63	208.78	46.38	
2025-01-09 00:33:50.06	208.68	45.94	
2025-01-09 00:33:51.50	208.58	45.50	
2025-01-09 00:33:52.93	208.49	45.07	
2025-01-09 00:33:54.37	208.39	44.64	
2025-01-09 00:33:55.80	208.31	44.22	
2025-01-09 00:33:57.24	208.22	43.80	
2025-01-09 00:33:58.67	208.13	43.39	
2025-01-09 00:34:00.10	208.05	42.98	
2025-01-09 00:34:01.53	207.97	42.58	
2025-01-09 00:34:02.97	207.89	42.17	
2025-01-09 00:34:04.41	207.82	41.77	
2025-01-09 00:34:05.84	207.74	41.38	
2025-01-09 00:34:07.27	207.67	41.00	
2025-01-09 00:34:08.71	207.60	40.61	
2025-01-09 00:34:10.15	207.53	40.23	
2025-01-09 00:34:11.60	207.46	39.85	
2025-01-09 00:34:13.03	207.40	39.48	
2025-01-09 00:34:14.48	207.33	39.11	
2025-01-09 00:34:15.94	207.27	38.74	
2025-01-09 00:34:17.37	207.21	38.38	
2025-01-09 00:34:18.81	207.15	38.02	
2025-01-09 00:34:20.25	207.09	37.66	
2025-01-09 00:34:21.70	207.03	37.31	
2025-01-09 00:34:23.13	206.98	36.97	
2025-01-09 00:34:24.57	206.92	36.62	
2025-01-09 00:34:26.01	206.87	36.28	
2025-01-09 00:34:27.44	206.82	35.95	
2025-01-09 00:34:28.88	206.76	35.62	
2025-01-09 00:34:30.31	206.72	35.29	
2025-01-09 00:34:31.75	206.67	34.96	
2025-01-09 00:34:33.20	206.62	34.64	
2025-01-09 00:34:34.64	206.57	34.32	
2025-01-09 00:34:36.07	206.53	34.00	
2025-01-09 00:34:37.51	206.48	33.69	
2025-01-09 00:34:38.96	206.44	33.38	
2025-01-09 00:34:40.39	206.40	33.07	
2025-01-09 00:34:41.83	206.35	32.77	
2025-01-09 00:34:43.26	206.31	32.47	
2025-01-09 00:34:44.70	206.27	32.17	
2025-01-09 00:34:46.14	206.23	31.88	
2025-01-09 00:34:47.57	206.19	31.59	
2025-01-09 00:34:49.01	206.16	31.30	
2025-01-09 00:34:50.46	206.12	31.01	
2025-01-09 00:34:51.89	206.08	30.73	
2025-01-09 00:34:53.33	206.05	30.45	
2025-01-09 00:34:54.76	206.01	30.17	
2025-01-09 00:34:56.19	205.98	29.90	
2025-01-09 00:34:57.62	205.94	29.62	
2025-01-09 00:34:59.06	205.91	29.35	
2025-01-09 00:35:00.50	205.88	29.09	
2025-01-09 00:35:01.94	205.85	28.82	
2025-01-09 00:35:03.38	205.82	28.56	
2025-01-09 00:35:04.81	205.78	28.30	
2025-01-09 00:35:06.26	205.75	28.04	
2025-01-09 00:35:07.70	205.72	27.78	
2025-01-09 00:35:09.13	205.70	27.53	
2025-01-09 00:35:10.57	205.67	27.28	
2025-01-09 00:35:12.01	205.64	27.03	
2025-01-09 00:35:13.45	205.61	26.79	
2025-01-09 00:35:14.89	205.58	26.54	
2025-01-09 00:35:16.33	205.56	26.30	
2025-01-09 00:35:17.77	205.53	26.06	
2025-01-09 00:35:19.20	205.51	25.82	
2025-01-09 00:35:20.63	205.48	25.59	
2025-01-09 00:35:22.08	205.46	25.35	
2025-01-09 00:35:23.51	205.43	25.12	
2025-01-09 00:35:24.95	205.41	24.89	
2025-01-09 00:35:26.38	205.39	24.67	
2025-01-09 00:35:27.82	205.36	24.44	
2025-01-09 00:35:29.26	205.34	24.22	
2025-01-09 00:35:30.70	205.32	24.00	
2025-01-09 00:35:32.13	205.30	23.78	
2025-01-09 00:35:33.57	205.27	23.56	
2025-01-09 00:35:35.00	205.25	23.34	
2025-01-09 00:35:36.43	205.23	23.13	
2025-01-09 00:35:37.87	205.21	22.92	
2025-01-09 00:35:39.31	205.19	22.71	
2025-01-09 00:35:40.75	205.17	22.50	
2025-01-09 00:35:42.19	205.15	22.29	
2025-01-09 00:35:43.62	205.13	22.08	
2025-01-09 00:35:45.06	205.11	21.88	
2025-01-09 00:35:46.49	205.09	21.68	
2025-01-09 00:35:47.93	205.08	21.48	
2025-01-09 00:35:49.36	205.06	21.28	
2025-01-09 00:35:50.80	205.04	21.08	
2025-01-09 00:35:52.23	205.02	20.89	
2025-01-09 00:35:53.67	205.01	20.69	
2025-01-09 00:35:55.12	204.99	20.50	
2025-01-09 00:35:56.56	204.97	20.30	
2025-01-09 00:35:57.99	204.96	20.11	
2025-01-09 00:35:59.43	204.94	19.92	
2025-01-09 00:36:00.87	204.92	19.74	
2025-01-09 00:36:02.32	204.91	19.55	
2025-01-09 00:36:03.75	204.89	19.37	
2025-01-09 00:36:05.19	204.88	19.18	
2025-01-09 00:36:06.64	204.86	19.00	
2025-01-09 00:36:08.08	204.85	18.82	
2025-01-09 00:36:09.51	204.83	18.64	
2025-01-09 00:36:10.95	204.82	18.46	
2025-01-09 00:36:12.39	204.81	18.28	
2025-01-09 00:36:13.83	204.79	18.11	
2025-01-09 00:36:15.27	204.78	17.93	
2025-01-09 00:36:16.71	204.76	17.76	
2025-01-09 00:36:18.16	204.75	17.59	
2025-01-09 00:36:19.60	204.74	17.42	
2025-01-09 00:36:21.04	204.73	17.25	
2025-01-09 00:36:22.47	204.71	17.08	
2025-01-09 00:36:23.90	204.70	16.91	
2025-01-09 00:36:25.35	204.69	16.75	
2025-01-09 00:36:26.78	204.68	16.58	
2025-01-09 00:36:28.22	204.66	16.42	
2025-01-09 00:36:29.65	204.65	16.26	
2025-01-09 00:36:31.09	204.64	16.09	
2025-01-09 00:36:32.52	204.63	15.93	
2025-01-09 00:36:33.96	204.62	15.77	
2025-01-09 00:36:35.41	204.61	15.61	
2025-01-09 00:36:36.84	204.60	15.46	
2025-01-09 00:36:38.28	204.59	15.30	
2025-01-09 00:36:39.72	204.58	15.15	
2025-01-09 00:36:41.15	204.56	14.99	
2025-01-09 00:36:42.59	204.55	14.84	
2025-01-09 00:36:44.02	204.54	14.69	
2025-01-09 00:36:45.45	204.53	14.54	
2025-01-09 00:36:46.89	204.52	14.39	
2025-01-09 00:36:48.33	204.51	14.24	
2025-01-09 00:36:49.76	204.51	14.09	
2025-01-09 00:36:51.20	204.50	13.94	
2025-01-09 00:36:52.64	204.49	13.79	
2025-01-09 00:36:54.08	204.48	13.65	
2025-01-09 00:36:55.52	204.47	13.50	
2025-01-09 00:36:56.95	204.46	13.36	
2025-01-09 00:36:58.38	204.45	13.21	
2025-01-09 00:36:59.82	204.44	13.07	
2025-01-09 00:37:01.25	204.43	12.93	
2025-01-09 00:37:02.71	204.43	12.79	
2025-01-09 00:37:04.15	204.42	12.65	
2025-01-09 00:37:05.58	204.41	12.51	
2025-01-09 00:37:07.02	204.40	12.37	
2025-01-09 00:37:08.45	204.39	12.23	
2025-01-09 00:37:09.89	204.39	12.09	
2025-01-09 00:37:11.34	204.38	11.96	
2025-01-09 00:37:12.77	204.37	11.82	
2025-01-09 00:37:14.21	204.36	11.69	
2025-01-09 00:37:15.64	204.35	11.55	
2025-01-09 00:37:17.08	204.35	11.42	
2025-01-09 00:37:18.53	204.34	11.29	
2025-01-09 00:37:19.96	204.33	11.16	
2025-01-09 00:37:21.39	204.33	11.03	
2025-01-09 00:37:22.82	204.32	10.90	
2025-01-09 00:37:24.27	204.31	10.76	
2025-01-09 00:37:25.71	204.31	10.64	
2025-01-09 00:37:27.14	204.30	10.51	
2025-01-09 00:37:28.58	204.29	10.38	
2025-01-09 00:37:30.03	204.29	10.25	
2025-01-09 00:37:31.46	204.28	10.13	
2025-01-09 00:37:32.90	204.27	10.00	
2025-01-09 00:37:34.33	204.27	9.88	
2025-01-09 00:37:35.77	204.26	9.75	
2025-01-09 00:37:37.20	204.26	9.63	
2025-01-09 00:37:38.64	204.25	9.50	
2025-01-09 00:37:40.07	204.24	9.38	
2025-01-09 00:37:41.51	204.24	9.26	
2025-01-09 00:37:42.94	204.23	9.14	
2025-01-09 00:37:44.38	204.23	9.02	
2025-01-09 00:37:45.83	204.22	8.90	
2025-01-09 00:37:47.27	204.22	8.78	
2025-01-09 00:37:48.70	204.21	8.66	
2025-01-09 00:37:50.14	204.21	8.54	
2025-01-09 00:37:51.58	204.20	8.42	
2025-01-09 00:37:53.05	204.20	8.30	
2025-01-09 00:37:54.48	204.19	8.18	
2025-01-09 00:37:55.92	204.19	8.07	
2025-01-09 00:37:57.36	204.18	7.95	
2025-01-09 00:37:58.81	204.18	7.84	
2025-01-09 00:38:00.25	204.17	7.72	
2025-01-09 00:38:01.69	204.17	7.61	
2025-01-09 00:38:03.12	204.16	7.49	
2025-01-09 00:38:04.57	204.16	7.38	
2025-01-09 00:38:06.00	204.15	7.27	
2025-01-09 00:38:07.44	204.15	7.15	
2025-01-09 00:38:08.88	204.14	7.04	
2025-01-09 00:38:10.31	204.14	6.93	
2025-01-09 00:38:11.76	204.14	6.82	
2025-01-09 00:38:13.20	204.13	6.71	
2025-01-09 00:38:14.63	204.13	6.60	
2025-01-09 00:38:16.07	204.12	6.49	
2025-01-09 00:38:17.50	204.12	6.38	
2025-01-09 00:38:18.94	204.12	6.27	
2025-01-09 00:38:20.37	204.11	6.17	
2025-01-09 00:38:21.80	204.11	6.06	
2025-01-09 00:38:23.24	204.10	5.95	
2025-01-09 00:38:24.68	204.10	5.84	
2025-01-09 00:38:26.11	204.10	5.74	
2025-01-09 00:38:27.54	204.09	5.63	
2025-01-09 00:38:28.98	204.09	5.53	
2025-01-09 00:38:30.41	204.09	5.42	
2025-01-09 00:38:31.85	204.08	5.32	
2025-01-09 00:38:33.29	204.08	5.21	
2025-01-09 00:38:34.73	204.08	5.11	
2025-01-09 00:38:36.17	204.07	5.01	
2025-01-09 00:38:37.60	204.07	4.90	
2025-01-09 00:38:39.05	204.07	4.80	
2025-01-09 00:38:40.49	204.06	4.70	
2025-01-09 00:38:41.92	204.06	4.60	
2025-01-09 00:38:43.35	204.06	4.50	
2025-01-09 00:38:44.79	204.06	4.40	
2025-01-09 00:38:46.22	204.05	4.30	
2025-01-09 00:38:47.66	204.05	4.20	
2025-01-09 00:38:49.11	204.05	4.09	

#Closed at: 2025-01-09 00:38:50