passes_logs/2025/01/09/SPB_Silybum_02/SPB_Silybum_02__20250109_085517_TERRA_rec.log

#Pass ID: 20250109_085517_TERRA
#Satellite: TERRA
#Configuration: TERRA
#Start time: 2025-01-09 08:55:18

#Version: 2.0.20230423
#Station: SPB_Silybum_02
#Location: 30.233357 lon 59.946436 lat
#TLE: 1 25994U 99068A   25008.82275774  .00000946  00000+0  20487-3 0  9990
#TLE: 2 25994  98.0228  72.0493 0003564  84.8498   6.9254 14.60383008333170

#Time	Az	El	Level	Level2	SNR	BER	Gain	Gain2
2025-01-09 08:55:20.65	14.01	4.21	
2025-01-09 08:55:21.87	13.98	4.30	
2025-01-09 08:55:23.10	13.95	4.39	
2025-01-09 08:55:24.34	13.91	4.48	
2025-01-09 08:55:25.57	13.88	4.57	
2025-01-09 08:55:26.80	13.85	4.65	
2025-01-09 08:55:28.03	13.82	4.74	
2025-01-09 08:55:29.26	13.78	4.83	
2025-01-09 08:55:30.49	13.75	4.92	
2025-01-09 08:55:31.72	13.72	5.01	
2025-01-09 08:55:32.95	13.68	5.10	
2025-01-09 08:55:34.20	13.65	5.20	
2025-01-09 08:55:35.43	13.62	5.29	
2025-01-09 08:55:36.66	13.58	5.38	
2025-01-09 08:55:37.90	13.55	5.47	
2025-01-09 08:55:39.14	13.51	5.57	
2025-01-09 08:55:40.39	13.48	5.66	
2025-01-09 08:55:41.62	13.44	5.75	
2025-01-09 08:55:42.85	13.40	5.85	
2025-01-09 08:55:44.08	13.37	5.94	
2025-01-09 08:55:45.31	13.33	6.03	
2025-01-09 08:55:46.55	13.29	6.13	
2025-01-09 08:55:47.78	13.26	6.22	
2025-01-09 08:55:49.01	13.22	6.32	
2025-01-09 08:55:50.24	13.18	6.42	
2025-01-09 08:55:51.47	13.14	6.51	
2025-01-09 08:55:52.72	13.11	6.61	
2025-01-09 08:55:53.97	13.07	6.71	
2025-01-09 08:55:55.20	13.03	6.80	
2025-01-09 08:55:56.44	12.99	6.90	
2025-01-09 08:55:57.67	12.95	7.00	
2025-01-09 08:55:58.90	12.91	7.10	
2025-01-09 08:56:00.14	12.87	7.20	
2025-01-09 08:56:01.38	12.83	7.30	
2025-01-09 08:56:02.61	12.79	7.40	
2025-01-09 08:56:03.84	12.74	7.50	
2025-01-09 08:56:05.08	12.70	7.60	
2025-01-09 08:56:06.31	12.66	7.70	
2025-01-09 08:56:07.55	12.62	7.80	
2025-01-09 08:56:08.78	12.58	7.90	
2025-01-09 08:56:10.02	12.53	8.01	
2025-01-09 08:56:11.25	12.49	8.11	
2025-01-09 08:56:12.48	12.45	8.21	
2025-01-09 08:56:13.71	12.40	8.32	
2025-01-09 08:56:14.95	12.36	8.42	
2025-01-09 08:56:16.19	12.31	8.53	
2025-01-09 08:56:17.43	12.27	8.63	
2025-01-09 08:56:18.66	12.22	8.74	
2025-01-09 08:56:19.89	12.17	8.84	
2025-01-09 08:56:21.12	12.13	8.95	
2025-01-09 08:56:22.36	12.08	9.06	
2025-01-09 08:56:23.59	12.03	9.17	
2025-01-09 08:56:24.82	11.98	9.27	
2025-01-09 08:56:26.07	11.94	9.38	
2025-01-09 08:56:27.30	11.89	9.49	
2025-01-09 08:56:28.53	11.84	9.60	
2025-01-09 08:56:29.77	11.79	9.71	
2025-01-09 08:56:31.00	11.74	9.82	
2025-01-09 08:56:32.23	11.69	9.93	
2025-01-09 08:56:33.46	11.64	10.05	
2025-01-09 08:56:34.69	11.59	10.16	
2025-01-09 08:56:35.93	11.53	10.27	
2025-01-09 08:56:37.16	11.48	10.38	
2025-01-09 08:56:38.39	11.43	10.50	
2025-01-09 08:56:39.61	11.38	10.61	
2025-01-09 08:56:40.85	11.32	10.73	
2025-01-09 08:56:42.08	11.27	10.84	
2025-01-09 08:56:43.32	11.21	10.96	
2025-01-09 08:56:44.55	11.16	11.08	
2025-01-09 08:56:45.79	11.10	11.19	
2025-01-09 08:56:47.03	11.04	11.31	
2025-01-09 08:56:48.27	10.99	11.43	
2025-01-09 08:56:49.50	10.93	11.55	
2025-01-09 08:56:50.73	10.87	11.67	
2025-01-09 08:56:51.96	10.81	11.79	
2025-01-09 08:56:53.19	10.75	11.91	
2025-01-09 08:56:54.42	10.70	12.03	
2025-01-09 08:56:55.66	10.63	12.16	
2025-01-09 08:56:56.89	10.57	12.28	
2025-01-09 08:56:58.13	10.51	12.40	
2025-01-09 08:56:59.36	10.45	12.53	
2025-01-09 08:57:00.59	10.39	12.65	
2025-01-09 08:57:01.82	10.32	12.78	
2025-01-09 08:57:03.05	10.26	12.90	
2025-01-09 08:57:04.28	10.20	13.03	
2025-01-09 08:57:05.51	10.13	13.16	
2025-01-09 08:57:06.75	10.07	13.29	
2025-01-09 08:57:07.99	10.00	13.42	
2025-01-09 08:57:09.22	9.93	13.55	
2025-01-09 08:57:10.45	9.86	13.68	
2025-01-09 08:57:11.69	9.79	13.81	
2025-01-09 08:57:12.93	9.73	13.94	
2025-01-09 08:57:14.16	9.66	14.08	
2025-01-09 08:57:15.39	9.59	14.21	
2025-01-09 08:57:16.62	9.51	14.34	
2025-01-09 08:57:17.85	9.44	14.48	
2025-01-09 08:57:19.08	9.37	14.61	
2025-01-09 08:57:20.31	9.30	14.75	
2025-01-09 08:57:21.54	9.22	14.89	
2025-01-09 08:57:22.77	9.15	15.03	
2025-01-09 08:57:24.02	9.07	15.17	
2025-01-09 08:57:25.25	8.99	15.31	
2025-01-09 08:57:26.47	8.92	15.45	
2025-01-09 08:57:27.71	8.84	15.59	
2025-01-09 08:57:28.95	8.76	15.73	
2025-01-09 08:57:30.18	8.68	15.88	
2025-01-09 08:57:31.41	8.60	16.02	
2025-01-09 08:57:32.64	8.51	16.16	
2025-01-09 08:57:33.87	8.43	16.31	
2025-01-09 08:57:35.11	8.35	16.46	
2025-01-09 08:57:36.34	8.26	16.61	
2025-01-09 08:57:37.57	8.18	16.76	
2025-01-09 08:57:38.80	8.09	16.90	
2025-01-09 08:57:40.03	8.00	17.06	
2025-01-09 08:57:41.26	7.92	17.21	
2025-01-09 08:57:42.51	7.83	17.36	
2025-01-09 08:57:43.73	7.74	17.51	
2025-01-09 08:57:44.96	7.64	17.67	
2025-01-09 08:57:46.20	7.55	17.82	
2025-01-09 08:57:47.43	7.46	17.98	
2025-01-09 08:57:48.66	7.36	18.14	
2025-01-09 08:57:49.89	7.27	18.30	
2025-01-09 08:57:51.13	7.17	18.46	
2025-01-09 08:57:52.36	7.07	18.62	
2025-01-09 08:57:53.59	6.97	18.78	
2025-01-09 08:57:54.83	6.87	18.94	
2025-01-09 08:57:56.06	6.77	19.11	
2025-01-09 08:57:57.31	6.67	19.28	
2025-01-09 08:57:58.54	6.56	19.44	
2025-01-09 08:57:59.76	6.46	19.61	
2025-01-09 08:58:01.02	6.35	19.78	
2025-01-09 08:58:02.25	6.24	19.95	
2025-01-09 08:58:03.48	6.13	20.12	
2025-01-09 08:58:04.72	6.02	20.29	
2025-01-09 08:58:05.94	5.91	20.46	
2025-01-09 08:58:07.17	5.80	20.64	
2025-01-09 08:58:08.40	5.68	20.81	
2025-01-09 08:58:09.63	5.57	20.99	
2025-01-09 08:58:10.86	5.45	21.17	
2025-01-09 08:58:12.09	5.33	21.35	
2025-01-09 08:58:13.34	5.21	21.53	
2025-01-09 08:58:14.59	5.08	21.72	
2025-01-09 08:58:15.82	4.96	21.90	
2025-01-09 08:58:17.05	4.83	22.08	
2025-01-09 08:58:18.30	4.71	22.27	
2025-01-09 08:58:19.53	4.58	22.46	
2025-01-09 08:58:20.78	4.44	22.65	
2025-01-09 08:58:22.01	4.31	22.84	
2025-01-09 08:58:23.24	4.18	23.03	
2025-01-09 08:58:24.47	4.04	23.22	
2025-01-09 08:58:25.70	3.91	23.42	
2025-01-09 08:58:26.93	3.77	23.61	
2025-01-09 08:58:28.17	3.62	23.81	
2025-01-09 08:58:29.40	3.48	24.01	
2025-01-09 08:58:30.66	3.33	24.21	
2025-01-09 08:58:31.89	3.19	24.41	
2025-01-09 08:58:33.13	3.04	24.62	
2025-01-09 08:58:34.36	2.88	24.82	
2025-01-09 08:58:35.59	2.73	25.03	
2025-01-09 08:58:36.82	2.58	25.24	
2025-01-09 08:58:38.06	2.42	25.45	
2025-01-09 08:58:39.30	2.26	25.66	
2025-01-09 08:58:40.53	2.09	25.87	
2025-01-09 08:58:41.76	1.93	26.08	
2025-01-09 08:58:42.99	1.76	26.30	
2025-01-09 08:58:44.22	1.59	26.51	
2025-01-09 08:58:45.45	1.42	26.73	
2025-01-09 08:58:46.68	1.25	26.95	
2025-01-09 08:58:47.91	1.07	27.17	
2025-01-09 08:58:49.14	0.89	27.40	
2025-01-09 08:58:50.37	0.71	27.62	
2025-01-09 08:58:51.60	0.52	27.85	
2025-01-09 08:58:52.83	0.33	28.08	
2025-01-09 08:58:54.08	0.14	28.31	
2025-01-09 08:58:55.31	359.95	28.54	
2025-01-09 08:58:56.54	359.75	28.77	
2025-01-09 08:58:57.77	359.55	29.01	
2025-01-09 08:58:59.00	359.35	29.24	
2025-01-09 08:59:00.24	359.14	29.49	
2025-01-09 08:59:01.47	358.93	29.73	
2025-01-09 08:59:02.70	358.72	29.97	
2025-01-09 08:59:03.93	358.50	30.21	
2025-01-09 08:59:05.16	358.28	30.46	
2025-01-09 08:59:06.39	358.06	30.70	
2025-01-09 08:59:07.62	357.83	30.95	
2025-01-09 08:59:08.85	357.60	31.20	
2025-01-09 08:59:10.08	357.37	31.46	
2025-01-09 08:59:11.31	357.13	31.71	
2025-01-09 08:59:12.54	356.89	31.97	
2025-01-09 08:59:13.77	356.64	32.22	
2025-01-09 08:59:15.02	356.39	32.49	
2025-01-09 08:59:16.25	356.13	32.75	
2025-01-09 08:59:17.48	355.87	33.01	
2025-01-09 08:59:18.71	355.61	33.28	
2025-01-09 08:59:19.94	355.34	33.55	
2025-01-09 08:59:21.18	355.07	33.82	
2025-01-09 08:59:22.41	354.79	34.09	
2025-01-09 08:59:23.64	354.51	34.36	
2025-01-09 08:59:24.87	354.22	34.63	
2025-01-09 08:59:26.10	353.93	34.91	
2025-01-09 08:59:27.33	353.63	35.19	
2025-01-09 08:59:28.57	353.33	35.47	
2025-01-09 08:59:29.80	353.02	35.75	
2025-01-09 08:59:31.04	352.70	36.03	
2025-01-09 08:59:32.27	352.38	36.32	
2025-01-09 08:59:33.49	352.06	36.60	
2025-01-09 08:59:34.73	351.72	36.89	
2025-01-09 08:59:35.96	351.39	37.18	
2025-01-09 08:59:37.20	351.04	37.47	
2025-01-09 08:59:38.43	350.69	37.77	
2025-01-09 08:59:39.67	350.33	38.06	
2025-01-09 08:59:40.90	349.97	38.36	
2025-01-09 08:59:42.13	349.60	38.65	
2025-01-09 08:59:43.37	349.22	38.95	
2025-01-09 08:59:44.60	348.83	39.25	
2025-01-09 08:59:45.83	348.44	39.55	
2025-01-09 08:59:47.06	348.04	39.86	
2025-01-09 08:59:48.29	347.63	40.16	
2025-01-09 08:59:49.52	347.22	40.46	
2025-01-09 08:59:50.75	346.79	40.77	
2025-01-09 08:59:52.00	346.36	41.08	
2025-01-09 08:59:53.23	345.92	41.39	
2025-01-09 08:59:54.48	345.46	41.70	
2025-01-09 08:59:55.71	345.00	42.01	
2025-01-09 08:59:56.94	344.53	42.32	
2025-01-09 08:59:58.17	344.06	42.63	
2025-01-09 08:59:59.39	343.57	42.93	
2025-01-09 09:00:00.63	343.08	43.25	
2025-01-09 09:00:01.86	342.57	43.56	
2025-01-09 09:00:03.10	342.05	43.87	
2025-01-09 09:00:04.34	341.52	44.18	
2025-01-09 09:00:05.57	340.98	44.50	
2025-01-09 09:00:06.79	340.44	44.80	
2025-01-09 09:00:08.02	339.88	45.11	
2025-01-09 09:00:09.25	339.31	45.42	
2025-01-09 09:00:10.49	338.72	45.73	
2025-01-09 09:00:11.71	338.14	46.04	
2025-01-09 09:00:12.95	337.53	46.35	
2025-01-09 09:00:14.18	336.91	46.66	
2025-01-09 09:00:15.41	336.28	46.96	
2025-01-09 09:00:16.64	335.64	47.26	
2025-01-09 09:00:17.87	334.98	47.56	
2025-01-09 09:00:19.10	334.31	47.86	
2025-01-09 09:00:20.33	333.63	48.16	
2025-01-09 09:00:21.56	332.94	48.46	
2025-01-09 09:00:22.80	332.22	48.75	
2025-01-09 09:00:24.04	331.49	49.04	
2025-01-09 09:00:25.29	330.75	49.33	
2025-01-09 09:00:26.52	330.00	49.62	
2025-01-09 09:00:27.75	329.23	49.90	
2025-01-09 09:00:28.98	328.45	50.17	
2025-01-09 09:00:30.21	327.66	50.44	
2025-01-09 09:00:31.44	326.85	50.71	
2025-01-09 09:00:32.68	326.02	50.98	
2025-01-09 09:00:33.90	325.19	51.23	
2025-01-09 09:00:35.14	324.33	51.49	
2025-01-09 09:00:36.38	323.46	51.74	
2025-01-09 09:00:37.62	322.57	51.98	
2025-01-09 09:00:38.85	321.67	52.22	
2025-01-09 09:00:40.09	320.75	52.45	
2025-01-09 09:00:41.33	319.82	52.68	
2025-01-09 09:00:42.57	318.87	52.90	
2025-01-09 09:00:43.80	317.92	53.11	
2025-01-09 09:00:45.03	316.95	53.31	
2025-01-09 09:00:46.27	315.96	53.51	
2025-01-09 09:00:47.51	314.96	53.70	
2025-01-09 09:00:48.75	313.95	53.88	
2025-01-09 09:00:49.98	312.93	54.05	
2025-01-09 09:00:51.22	311.89	54.21	
2025-01-09 09:00:52.45	310.84	54.37	
2025-01-09 09:00:53.67	309.80	54.51	
2025-01-09 09:00:54.90	308.73	54.64	
2025-01-09 09:00:56.13	307.66	54.77	
2025-01-09 09:00:57.38	306.55	54.89	
2025-01-09 09:00:58.61	305.46	54.99	
2025-01-09 09:00:59.84	304.36	55.09	
2025-01-09 09:01:01.07	303.25	55.17	
2025-01-09 09:01:02.30	302.14	55.24	
2025-01-09 09:01:03.53	301.02	55.31	
2025-01-09 09:01:04.76	299.90	55.36	
2025-01-09 09:01:06.00	298.76	55.40	
2025-01-09 09:01:07.23	297.63	55.43	
2025-01-09 09:01:08.46	296.49	55.45	
2025-01-09 09:01:09.68	295.37	55.46	
2025-01-09 09:01:10.91	294.23	55.46	
2025-01-09 09:01:12.14	293.10	55.45	
2025-01-09 09:01:13.38	291.96	55.43	
2025-01-09 09:01:14.61	290.83	55.39	
2025-01-09 09:01:15.83	289.71	55.34	
2025-01-09 09:01:17.07	288.58	55.29	
2025-01-09 09:01:18.30	287.46	55.22	
2025-01-09 09:01:19.53	286.35	55.14	
2025-01-09 09:01:20.77	285.23	55.05	
2025-01-09 09:01:22.00	284.13	54.95	
2025-01-09 09:01:23.24	283.03	54.85	
2025-01-09 09:01:24.47	281.95	54.73	
2025-01-09 09:01:25.69	280.89	54.60	
2025-01-09 09:01:26.93	279.82	54.46	
2025-01-09 09:01:28.15	278.77	54.31	
2025-01-09 09:01:29.38	277.73	54.16	
2025-01-09 09:01:30.62	276.69	53.99	
2025-01-09 09:01:31.85	275.68	53.82	
2025-01-09 09:01:33.08	274.67	53.63	
2025-01-09 09:01:34.31	273.68	53.44	
2025-01-09 09:01:35.54	272.70	53.25	
2025-01-09 09:01:36.77	271.74	53.04	
2025-01-09 09:01:38.02	270.77	52.82	
2025-01-09 09:01:39.25	269.84	52.60	
2025-01-09 09:01:40.48	268.92	52.38	
2025-01-09 09:01:41.70	268.02	52.15	
2025-01-09 09:01:42.94	267.11	51.90	
2025-01-09 09:01:44.18	266.23	51.66	
2025-01-09 09:01:45.43	265.35	51.40	
2025-01-09 09:01:46.66	264.50	51.15	
2025-01-09 09:01:47.89	263.67	50.89	
2025-01-09 09:01:49.12	262.85	50.62	
2025-01-09 09:01:50.36	262.04	50.35	
2025-01-09 09:01:51.59	261.25	50.08	
2025-01-09 09:01:52.82	260.47	49.80	
2025-01-09 09:01:54.05	259.71	49.52	
2025-01-09 09:01:55.28	258.96	49.23	
2025-01-09 09:01:56.53	258.22	48.94	
2025-01-09 09:01:57.77	257.49	48.64	
2025-01-09 09:01:59.00	256.79	48.35	
2025-01-09 09:02:00.23	256.09	48.05	
2025-01-09 09:02:01.47	255.41	47.75	
2025-01-09 09:02:02.70	254.74	47.45	
2025-01-09 09:02:03.93	254.09	47.15	
2025-01-09 09:02:05.16	253.45	46.84	
2025-01-09 09:02:06.39	252.83	46.54	
2025-01-09 09:02:07.62	252.21	46.23	
2025-01-09 09:02:08.85	251.61	45.92	
2025-01-09 09:02:10.08	251.02	45.61	
2025-01-09 09:02:11.32	250.43	45.30	
2025-01-09 09:02:12.55	249.87	44.99	
2025-01-09 09:02:13.77	249.31	44.68	
2025-01-09 09:02:15.00	248.77	44.37	
2025-01-09 09:02:16.23	248.23	44.06	
2025-01-09 09:02:17.48	247.70	43.74	
2025-01-09 09:02:18.71	247.19	43.43	
2025-01-09 09:02:19.94	246.68	43.12	
2025-01-09 09:02:21.17	246.19	42.80	
2025-01-09 09:02:22.41	245.70	42.49	
2025-01-09 09:02:23.64	245.23	42.18	
2025-01-09 09:02:24.88	244.76	41.87	
2025-01-09 09:02:26.11	244.30	41.56	
2025-01-09 09:02:27.34	243.86	41.25	
2025-01-09 09:02:28.58	243.41	40.94	
2025-01-09 09:02:29.82	242.98	40.63	
2025-01-09 09:02:31.05	242.56	40.32	
2025-01-09 09:02:32.27	242.15	40.02	
2025-01-09 09:02:33.51	241.74	39.72	
2025-01-09 09:02:34.75	241.34	39.41	
2025-01-09 09:02:35.99	240.94	39.11	
2025-01-09 09:02:37.23	240.56	38.80	
2025-01-09 09:02:38.46	240.18	38.51	
2025-01-09 09:02:39.69	239.81	38.21	
2025-01-09 09:02:40.92	239.45	37.91	
2025-01-09 09:02:42.15	239.09	37.62	
2025-01-09 09:02:43.39	238.74	37.32	
2025-01-09 09:02:44.63	238.40	37.03	
2025-01-09 09:02:45.86	238.06	36.74	
2025-01-09 09:02:47.09	237.73	36.45	
2025-01-09 09:02:48.32	237.41	36.17	
2025-01-09 09:02:49.54	237.09	35.88	
2025-01-09 09:02:50.77	236.78	35.60	
2025-01-09 09:02:52.00	236.47	35.32	
2025-01-09 09:02:53.23	236.17	35.04	
2025-01-09 09:02:54.46	235.87	34.76	
2025-01-09 09:02:55.70	235.58	34.48	
2025-01-09 09:02:56.93	235.29	34.21	
2025-01-09 09:02:58.17	235.01	33.93	
2025-01-09 09:02:59.40	234.73	33.66	
2025-01-09 09:03:00.63	234.46	33.39	
2025-01-09 09:03:01.87	234.19	33.12	
2025-01-09 09:03:03.09	233.93	32.86	
2025-01-09 09:03:04.32	233.67	32.60	
2025-01-09 09:03:05.57	233.42	32.33	
2025-01-09 09:03:06.80	233.17	32.07	
2025-01-09 09:03:08.03	232.92	31.81	
2025-01-09 09:03:09.25	232.68	31.56	
2025-01-09 09:03:10.49	232.44	31.30	
2025-01-09 09:03:11.72	232.21	31.05	
2025-01-09 09:03:12.95	231.98	30.80	
2025-01-09 09:03:14.18	231.75	30.55	
2025-01-09 09:03:15.40	231.53	30.30	
2025-01-09 09:03:16.64	231.31	30.05	
2025-01-09 09:03:17.87	231.09	29.81	
2025-01-09 09:03:19.10	230.88	29.57	
2025-01-09 09:03:20.34	230.67	29.33	
2025-01-09 09:03:21.57	230.46	29.09	
2025-01-09 09:03:22.80	230.26	28.85	
2025-01-09 09:03:24.03	230.06	28.61	
2025-01-09 09:03:25.26	229.87	28.38	
2025-01-09 09:03:26.49	229.67	28.15	
2025-01-09 09:03:27.72	229.48	27.92	
2025-01-09 09:03:28.95	229.29	27.69	
2025-01-09 09:03:30.18	229.11	27.46	
2025-01-09 09:03:31.41	228.93	27.24	
2025-01-09 09:03:32.64	228.75	27.02	
2025-01-09 09:03:33.87	228.57	26.79	
2025-01-09 09:03:35.10	228.40	26.57	
2025-01-09 09:03:36.33	228.22	26.36	
2025-01-09 09:03:37.56	228.05	26.14	
2025-01-09 09:03:38.81	227.88	25.92	
2025-01-09 09:03:40.04	227.72	25.71	
2025-01-09 09:03:41.27	227.56	25.50	
2025-01-09 09:03:42.51	227.40	25.28	
2025-01-09 09:03:43.74	227.24	25.07	
2025-01-09 09:03:44.97	227.08	24.87	
2025-01-09 09:03:46.20	226.93	24.66	
2025-01-09 09:03:47.43	226.78	24.46	
2025-01-09 09:03:48.67	226.63	24.25	
2025-01-09 09:03:49.90	226.48	24.05	
2025-01-09 09:03:51.12	226.34	23.85	
2025-01-09 09:03:52.35	226.19	23.66	
2025-01-09 09:03:53.58	226.05	23.46	
2025-01-09 09:03:54.81	225.91	23.26	
2025-01-09 09:03:56.05	225.77	23.07	
2025-01-09 09:03:57.30	225.64	22.87	
2025-01-09 09:03:58.53	225.50	22.68	
2025-01-09 09:03:59.77	225.37	22.49	
2025-01-09 09:04:01.00	225.24	22.30	
2025-01-09 09:04:02.23	225.11	22.11	
2025-01-09 09:04:03.46	224.98	21.93	
2025-01-09 09:04:04.70	224.86	21.74	
2025-01-09 09:04:05.95	224.73	21.56	
2025-01-09 09:04:07.18	224.61	21.37	
2025-01-09 09:04:08.41	224.49	21.19	
2025-01-09 09:04:09.65	224.37	21.01	
2025-01-09 09:04:10.88	224.25	20.83	
2025-01-09 09:04:12.11	224.13	20.66	
2025-01-09 09:04:13.34	224.02	20.48	
2025-01-09 09:04:14.60	223.90	20.30	
2025-01-09 09:04:15.83	223.79	20.13	
2025-01-09 09:04:17.07	223.68	19.96	
2025-01-09 09:04:18.30	223.57	19.79	
2025-01-09 09:04:19.53	223.46	19.62	
2025-01-09 09:04:20.77	223.35	19.45	
2025-01-09 09:04:22.01	223.25	19.28	
2025-01-09 09:04:23.24	223.14	19.11	
2025-01-09 09:04:24.47	223.04	18.95	
2025-01-09 09:04:25.72	222.94	18.78	
2025-01-09 09:04:26.95	222.84	18.62	
2025-01-09 09:04:28.18	222.74	18.45	
2025-01-09 09:04:29.41	222.64	18.29	
2025-01-09 09:04:30.65	222.54	18.13	
2025-01-09 09:04:31.89	222.44	17.97	
2025-01-09 09:04:33.11	222.35	17.82	
2025-01-09 09:04:34.35	222.25	17.66	
2025-01-09 09:04:35.60	222.16	17.50	
2025-01-09 09:04:36.82	222.07	17.35	
2025-01-09 09:04:38.06	221.98	17.19	
2025-01-09 09:04:39.29	221.89	17.04	
2025-01-09 09:04:40.51	221.80	16.89	
2025-01-09 09:04:41.75	221.71	16.74	
2025-01-09 09:04:42.98	221.62	16.59	
2025-01-09 09:04:44.21	221.54	16.44	
2025-01-09 09:04:45.44	221.45	16.29	
2025-01-09 09:04:46.67	221.37	16.14	
2025-01-09 09:04:47.90	221.29	16.00	
2025-01-09 09:04:49.13	221.20	15.85	
2025-01-09 09:04:50.36	221.12	15.71	
2025-01-09 09:04:51.60	221.04	15.57	
2025-01-09 09:04:52.82	220.96	15.42	
2025-01-09 09:04:54.05	220.88	15.28	
2025-01-09 09:04:55.28	220.80	15.14	
2025-01-09 09:04:56.51	220.73	15.00	
2025-01-09 09:04:57.74	220.65	14.86	
2025-01-09 09:04:58.97	220.58	14.72	
2025-01-09 09:05:00.20	220.50	14.59	
2025-01-09 09:05:01.43	220.43	14.45	
2025-01-09 09:05:02.66	220.35	14.31	
2025-01-09 09:05:03.89	220.28	14.18	
2025-01-09 09:05:05.12	220.21	14.04	
2025-01-09 09:05:06.35	220.14	13.91	
2025-01-09 09:05:07.58	220.07	13.78	
2025-01-09 09:05:08.83	220.00	13.64	
2025-01-09 09:05:10.07	219.93	13.51	
2025-01-09 09:05:11.31	219.86	13.38	
2025-01-09 09:05:12.55	219.79	13.25	
2025-01-09 09:05:13.78	219.72	13.12	
2025-01-09 09:05:15.02	219.66	12.99	
2025-01-09 09:05:16.25	219.59	12.86	
2025-01-09 09:05:17.48	219.52	12.74	
2025-01-09 09:05:18.71	219.46	12.61	
2025-01-09 09:05:19.93	219.40	12.49	
2025-01-09 09:05:21.16	219.33	12.36	
2025-01-09 09:05:22.39	219.27	12.24	
2025-01-09 09:05:23.62	219.21	12.11	
2025-01-09 09:05:24.86	219.15	11.99	
2025-01-09 09:05:26.09	219.09	11.87	
2025-01-09 09:05:27.32	219.03	11.75	
2025-01-09 09:05:28.55	218.97	11.63	
2025-01-09 09:05:29.79	218.91	11.50	
2025-01-09 09:05:31.02	218.85	11.38	
2025-01-09 09:05:32.25	218.79	11.27	
2025-01-09 09:05:33.49	218.73	11.15	
2025-01-09 09:05:34.73	218.67	11.03	
2025-01-09 09:05:35.97	218.62	10.91	
2025-01-09 09:05:37.20	218.56	10.79	
2025-01-09 09:05:38.43	218.51	10.68	
2025-01-09 09:05:39.66	218.45	10.56	
2025-01-09 09:05:40.91	218.40	10.44	
2025-01-09 09:05:42.14	218.34	10.33	
2025-01-09 09:05:43.37	218.29	10.22	
2025-01-09 09:05:44.60	218.23	10.10	
2025-01-09 09:05:45.83	218.18	9.99	
2025-01-09 09:05:47.08	218.13	9.88	
2025-01-09 09:05:48.31	218.08	9.76	
2025-01-09 09:05:49.54	218.03	9.65	
2025-01-09 09:05:50.77	217.98	9.54	
2025-01-09 09:05:52.00	217.93	9.43	
2025-01-09 09:05:53.23	217.88	9.32	
2025-01-09 09:05:54.46	217.83	9.21	
2025-01-09 09:05:55.69	217.78	9.11	
2025-01-09 09:05:56.93	217.73	9.00	
2025-01-09 09:05:58.16	217.68	8.89	
2025-01-09 09:05:59.40	217.63	8.78	
2025-01-09 09:06:00.62	217.58	8.68	
2025-01-09 09:06:01.85	217.54	8.57	
2025-01-09 09:06:03.09	217.49	8.46	
2025-01-09 09:06:04.33	217.44	8.36	
2025-01-09 09:06:05.56	217.40	8.25	
2025-01-09 09:06:06.78	217.35	8.15	
2025-01-09 09:06:08.02	217.31	8.05	
2025-01-09 09:06:09.25	217.26	7.94	
2025-01-09 09:06:10.48	217.22	7.84	
2025-01-09 09:06:11.71	217.18	7.74	
2025-01-09 09:06:12.94	217.13	7.64	
2025-01-09 09:06:14.18	217.09	7.53	
2025-01-09 09:06:15.41	217.04	7.43	
2025-01-09 09:06:16.65	217.00	7.33	
2025-01-09 09:06:17.90	216.96	7.23	
2025-01-09 09:06:19.13	216.92	7.13	
2025-01-09 09:06:20.36	216.88	7.03	
2025-01-09 09:06:21.59	216.83	6.93	
2025-01-09 09:06:22.84	216.79	6.83	
2025-01-09 09:06:24.07	216.75	6.73	
2025-01-09 09:06:25.30	216.71	6.64	
2025-01-09 09:06:26.54	216.67	6.54	
2025-01-09 09:06:27.77	216.63	6.44	
2025-01-09 09:06:29.00	216.59	6.34	
2025-01-09 09:06:30.24	216.55	6.25	
2025-01-09 09:06:31.47	216.52	6.15	
2025-01-09 09:06:32.70	216.48	6.06	
2025-01-09 09:06:33.93	216.44	5.96	
2025-01-09 09:06:35.16	216.40	5.87	
2025-01-09 09:06:36.40	216.36	5.77	
2025-01-09 09:06:37.63	216.33	5.68	
2025-01-09 09:06:38.87	216.29	5.58	
2025-01-09 09:06:40.10	216.25	5.49	
2025-01-09 09:06:41.33	216.22	5.40	
2025-01-09 09:06:42.56	216.18	5.31	
2025-01-09 09:06:43.79	216.14	5.21	
2025-01-09 09:06:45.03	216.11	5.12	
2025-01-09 09:06:46.25	216.07	5.03	
2025-01-09 09:06:47.49	216.04	4.94	
2025-01-09 09:06:48.72	216.00	4.85	
2025-01-09 09:06:49.95	215.97	4.76	
2025-01-09 09:06:51.19	215.93	4.67	
2025-01-09 09:06:52.42	215.90	4.58	
2025-01-09 09:06:53.65	215.87	4.49	
2025-01-09 09:06:54.88	215.83	4.40	
2025-01-09 09:06:56.11	215.80	4.31	
2025-01-09 09:06:57.35	215.77	4.22	
2025-01-09 09:06:58.58	215.73	4.13	
2025-01-09 09:06:59.83	215.70	4.04	

#Closed at: 2025-01-09 09:07:00