passes_logs/2025/01/09/SPB_Silybum_02/SPB_Silybum_02__20250109_043223_AQUA_rec.log

#Pass ID: 20250109_043223_AQUA
#Satellite: AQUA
#Configuration: AQUA
#Start time: 2025-01-09 04:32:23

#Version: 2.0.20230423
#Station: SPB_Silybum_02
#Location: 30.233357 lon 59.946436 lat
#TLE: 1 27424U 02022A   25008.15498937  .00002389  00000+0  50057-3 0  9997
#TLE: 2 27424  98.3576 324.7578 0001462 118.2546 298.6643 14.60656725206621

#Time	Az	El	Level	Level2	SNR	BER	Gain	Gain2
2025-01-09 04:32:25.50	6.18	4.06	
2025-01-09 04:32:26.32	6.07	4.09	
2025-01-09 04:32:27.14	5.96	4.12	
2025-01-09 04:32:27.96	5.84	4.16	
2025-01-09 04:32:28.78	5.73	4.19	
2025-01-09 04:32:29.60	5.62	4.22	
2025-01-09 04:32:30.42	5.50	4.25	
2025-01-09 04:32:31.24	5.39	4.29	
2025-01-09 04:32:32.06	5.28	4.32	
2025-01-09 04:32:32.88	5.16	4.35	
2025-01-09 04:32:33.70	5.05	4.38	
2025-01-09 04:32:34.54	4.93	4.42	
2025-01-09 04:32:35.37	4.82	4.45	
2025-01-09 04:32:36.18	4.70	4.48	
2025-01-09 04:32:37.00	4.59	4.51	
2025-01-09 04:32:37.82	4.47	4.54	
2025-01-09 04:32:38.64	4.35	4.58	
2025-01-09 04:32:39.46	4.24	4.61	
2025-01-09 04:32:40.29	4.12	4.64	
2025-01-09 04:32:41.11	4.00	4.67	
2025-01-09 04:32:41.93	3.89	4.70	
2025-01-09 04:32:42.75	3.77	4.73	
2025-01-09 04:32:43.57	3.65	4.77	
2025-01-09 04:32:44.39	3.53	4.80	
2025-01-09 04:32:45.21	3.42	4.83	
2025-01-09 04:32:46.03	3.30	4.86	
2025-01-09 04:32:46.85	3.18	4.89	
2025-01-09 04:32:47.68	3.06	4.92	
2025-01-09 04:32:48.49	2.94	4.95	
2025-01-09 04:32:49.31	2.82	4.98	
2025-01-09 04:32:50.13	2.70	5.01	
2025-01-09 04:32:50.96	2.58	5.05	
2025-01-09 04:32:51.77	2.46	5.08	
2025-01-09 04:32:52.59	2.34	5.11	
2025-01-09 04:32:53.41	2.22	5.14	
2025-01-09 04:32:54.24	2.09	5.17	
2025-01-09 04:32:55.07	1.97	5.20	
2025-01-09 04:32:55.89	1.85	5.23	
2025-01-09 04:32:56.71	1.73	5.26	
2025-01-09 04:32:57.53	1.60	5.29	
2025-01-09 04:32:58.35	1.48	5.32	
2025-01-09 04:32:59.17	1.36	5.35	
2025-01-09 04:33:00.00	1.23	5.38	
2025-01-09 04:33:00.82	1.11	5.41	
2025-01-09 04:33:01.65	0.99	5.44	
2025-01-09 04:33:02.47	0.86	5.47	
2025-01-09 04:33:03.29	0.74	5.50	
2025-01-09 04:33:04.11	0.61	5.53	
2025-01-09 04:33:04.93	0.49	5.56	
2025-01-09 04:33:05.75	0.36	5.59	
2025-01-09 04:33:06.57	0.24	5.62	
2025-01-09 04:33:07.39	0.11	5.65	
2025-01-09 04:33:08.21	359.98	5.68	
2025-01-09 04:33:09.04	359.86	5.71	
2025-01-09 04:33:09.86	359.73	5.74	
2025-01-09 04:33:10.69	359.60	5.76	
2025-01-09 04:33:11.51	359.47	5.79	
2025-01-09 04:33:12.33	359.35	5.82	
2025-01-09 04:33:13.15	359.22	5.85	
2025-01-09 04:33:13.97	359.09	5.88	
2025-01-09 04:33:14.79	358.96	5.91	
2025-01-09 04:33:15.62	358.83	5.94	
2025-01-09 04:33:16.43	358.70	5.96	
2025-01-09 04:33:17.26	358.57	5.99	
2025-01-09 04:33:18.08	358.44	6.02	
2025-01-09 04:33:18.90	358.31	6.05	
2025-01-09 04:33:19.72	358.18	6.08	
2025-01-09 04:33:20.54	358.05	6.11	
2025-01-09 04:33:21.36	357.92	6.13	
2025-01-09 04:33:22.18	357.79	6.16	
2025-01-09 04:33:23.00	357.66	6.19	
2025-01-09 04:33:23.82	357.53	6.22	
2025-01-09 04:33:24.64	357.40	6.24	
2025-01-09 04:33:25.46	357.26	6.27	
2025-01-09 04:33:26.28	357.13	6.30	
2025-01-09 04:33:27.10	357.00	6.32	
2025-01-09 04:33:27.92	356.87	6.35	
2025-01-09 04:33:28.75	356.73	6.38	
2025-01-09 04:33:29.56	356.60	6.40	
2025-01-09 04:33:30.39	356.47	6.43	
2025-01-09 04:33:31.21	356.33	6.46	
2025-01-09 04:33:32.02	356.20	6.48	
2025-01-09 04:33:32.84	356.06	6.51	
2025-01-09 04:33:33.66	355.93	6.54	
2025-01-09 04:33:34.49	355.79	6.56	
2025-01-09 04:33:35.31	355.66	6.59	
2025-01-09 04:33:36.13	355.52	6.62	
2025-01-09 04:33:36.95	355.39	6.64	
2025-01-09 04:33:37.77	355.25	6.67	
2025-01-09 04:33:38.60	355.11	6.69	
2025-01-09 04:33:39.42	354.98	6.72	
2025-01-09 04:33:40.24	354.84	6.74	
2025-01-09 04:33:41.06	354.70	6.77	
2025-01-09 04:33:41.88	354.56	6.79	
2025-01-09 04:33:42.72	354.42	6.82	
2025-01-09 04:33:43.53	354.29	6.84	
2025-01-09 04:33:44.36	354.15	6.87	
2025-01-09 04:33:45.18	354.01	6.89	
2025-01-09 04:33:46.00	353.87	6.92	
2025-01-09 04:33:46.82	353.73	6.94	
2025-01-09 04:33:47.64	353.59	6.97	
2025-01-09 04:33:48.46	353.45	6.99	
2025-01-09 04:33:49.28	353.31	7.01	
2025-01-09 04:33:50.12	353.17	7.04	
2025-01-09 04:33:50.95	353.03	7.06	
2025-01-09 04:33:51.77	352.89	7.09	
2025-01-09 04:33:52.60	352.74	7.11	
2025-01-09 04:33:53.42	352.60	7.13	
2025-01-09 04:33:54.26	352.46	7.16	
2025-01-09 04:33:55.08	352.32	7.18	
2025-01-09 04:33:55.90	352.18	7.20	
2025-01-09 04:33:56.72	352.03	7.22	
2025-01-09 04:33:57.54	351.89	7.25	
2025-01-09 04:33:58.36	351.75	7.27	
2025-01-09 04:33:59.18	351.61	7.29	
2025-01-09 04:34:00.00	351.46	7.31	
2025-01-09 04:34:00.83	351.32	7.34	
2025-01-09 04:34:01.65	351.18	7.36	
2025-01-09 04:34:02.47	351.03	7.38	
2025-01-09 04:34:03.29	350.89	7.40	
2025-01-09 04:34:04.11	350.74	7.42	
2025-01-09 04:34:04.93	350.60	7.45	
2025-01-09 04:34:05.75	350.45	7.47	
2025-01-09 04:34:06.57	350.31	7.49	
2025-01-09 04:34:07.40	350.16	7.51	
2025-01-09 04:34:08.22	350.02	7.53	
2025-01-09 04:34:09.05	349.87	7.55	
2025-01-09 04:34:09.87	349.72	7.57	
2025-01-09 04:34:10.69	349.58	7.59	
2025-01-09 04:34:11.51	349.43	7.61	
2025-01-09 04:34:12.33	349.29	7.63	
2025-01-09 04:34:13.15	349.14	7.65	
2025-01-09 04:34:13.97	348.99	7.67	
2025-01-09 04:34:14.79	348.84	7.69	
2025-01-09 04:34:15.61	348.70	7.71	
2025-01-09 04:34:16.43	348.55	7.73	
2025-01-09 04:34:17.27	348.40	7.75	
2025-01-09 04:34:18.09	348.25	7.77	
2025-01-09 04:34:18.91	348.10	7.79	
2025-01-09 04:34:19.73	347.95	7.81	
2025-01-09 04:34:20.55	347.80	7.83	
2025-01-09 04:34:21.37	347.66	7.84	
2025-01-09 04:34:22.19	347.51	7.86	
2025-01-09 04:34:23.01	347.36	7.88	
2025-01-09 04:34:23.83	347.21	7.90	
2025-01-09 04:34:24.65	347.06	7.92	
2025-01-09 04:34:25.47	346.91	7.93	
2025-01-09 04:34:26.30	346.76	7.95	
2025-01-09 04:34:27.12	346.61	7.97	
2025-01-09 04:34:27.94	346.46	7.99	
2025-01-09 04:34:28.75	346.31	8.00	
2025-01-09 04:34:29.58	346.15	8.02	
2025-01-09 04:34:30.39	346.01	8.04	
2025-01-09 04:34:31.22	345.85	8.05	
2025-01-09 04:34:32.03	345.70	8.07	
2025-01-09 04:34:32.85	345.55	8.08	
2025-01-09 04:34:33.67	345.40	8.10	
2025-01-09 04:34:34.49	345.25	8.12	
2025-01-09 04:34:35.31	345.09	8.13	
2025-01-09 04:34:36.13	344.94	8.15	
2025-01-09 04:34:36.95	344.79	8.16	
2025-01-09 04:34:37.78	344.64	8.18	
2025-01-09 04:34:38.61	344.48	8.19	
2025-01-09 04:34:39.43	344.33	8.21	
2025-01-09 04:34:40.25	344.17	8.22	
2025-01-09 04:34:41.07	344.02	8.24	
2025-01-09 04:34:41.89	343.87	8.25	
2025-01-09 04:34:42.71	343.71	8.27	
2025-01-09 04:34:43.53	343.56	8.28	
2025-01-09 04:34:44.35	343.41	8.29	
2025-01-09 04:34:45.17	343.25	8.31	
2025-01-09 04:34:45.99	343.10	8.32	
2025-01-09 04:34:46.81	342.94	8.33	
2025-01-09 04:34:47.65	342.78	8.35	
2025-01-09 04:34:48.47	342.63	8.36	
2025-01-09 04:34:49.29	342.47	8.37	
2025-01-09 04:34:50.11	342.32	8.38	
2025-01-09 04:34:50.93	342.16	8.40	
2025-01-09 04:34:51.75	342.01	8.41	
2025-01-09 04:34:52.58	341.85	8.42	
2025-01-09 04:34:53.41	341.69	8.43	
2025-01-09 04:34:54.24	341.54	8.44	
2025-01-09 04:34:55.06	341.38	8.46	
2025-01-09 04:34:55.88	341.22	8.47	
2025-01-09 04:34:56.70	341.07	8.48	
2025-01-09 04:34:57.52	340.91	8.49	
2025-01-09 04:34:58.34	340.75	8.50	
2025-01-09 04:34:59.16	340.60	8.51	
2025-01-09 04:34:59.98	340.44	8.52	
2025-01-09 04:35:00.80	340.28	8.53	
2025-01-09 04:35:01.62	340.13	8.54	
2025-01-09 04:35:02.44	339.97	8.55	
2025-01-09 04:35:03.26	339.81	8.56	
2025-01-09 04:35:04.08	339.66	8.57	
2025-01-09 04:35:04.90	339.50	8.58	
2025-01-09 04:35:05.73	339.34	8.59	
2025-01-09 04:35:06.55	339.18	8.60	
2025-01-09 04:35:07.38	339.02	8.61	
2025-01-09 04:35:08.20	338.86	8.61	
2025-01-09 04:35:09.02	338.70	8.62	
2025-01-09 04:35:09.84	338.55	8.63	
2025-01-09 04:35:10.66	338.39	8.64	
2025-01-09 04:35:11.48	338.23	8.65	
2025-01-09 04:35:12.31	338.07	8.65	
2025-01-09 04:35:13.13	337.91	8.66	
2025-01-09 04:35:13.95	337.75	8.67	
2025-01-09 04:35:14.77	337.59	8.67	
2025-01-09 04:35:15.59	337.44	8.68	
2025-01-09 04:35:16.41	337.28	8.69	
2025-01-09 04:35:17.24	337.12	8.69	
2025-01-09 04:35:18.06	336.96	8.70	
2025-01-09 04:35:18.88	336.80	8.71	
2025-01-09 04:35:19.70	336.64	8.71	
2025-01-09 04:35:20.52	336.48	8.72	
2025-01-09 04:35:21.36	336.32	8.72	
2025-01-09 04:35:22.18	336.16	8.73	
2025-01-09 04:35:22.99	336.00	8.73	
2025-01-09 04:35:23.81	335.84	8.74	
2025-01-09 04:35:24.64	335.68	8.74	
2025-01-09 04:35:25.46	335.52	8.75	
2025-01-09 04:35:26.28	335.36	8.75	
2025-01-09 04:35:27.11	335.20	8.75	
2025-01-09 04:35:27.93	335.04	8.76	
2025-01-09 04:35:28.76	334.88	8.76	
2025-01-09 04:35:29.58	334.72	8.76	
2025-01-09 04:35:30.39	334.56	8.77	
2025-01-09 04:35:31.22	334.40	8.77	
2025-01-09 04:35:32.04	334.24	8.77	
2025-01-09 04:35:32.86	334.08	8.78	
2025-01-09 04:35:33.68	333.92	8.78	
2025-01-09 04:35:34.50	333.76	8.78	
2025-01-09 04:35:35.32	333.60	8.78	
2025-01-09 04:35:36.14	333.44	8.78	
2025-01-09 04:35:36.96	333.28	8.79	
2025-01-09 04:35:37.78	333.12	8.79	
2025-01-09 04:35:38.60	332.96	8.79	
2025-01-09 04:35:39.42	332.80	8.79	
2025-01-09 04:35:40.24	332.64	8.79	
2025-01-09 04:35:41.06	332.48	8.79	
2025-01-09 04:35:41.89	332.32	8.79	
2025-01-09 04:35:42.71	332.16	8.79	
2025-01-09 04:35:43.53	331.99	8.79	
2025-01-09 04:35:44.36	331.83	8.79	
2025-01-09 04:35:45.18	331.67	8.79	
2025-01-09 04:35:46.00	331.51	8.79	
2025-01-09 04:35:46.84	331.35	8.79	
2025-01-09 04:35:47.66	331.19	8.79	
2025-01-09 04:35:48.47	331.03	8.79	
2025-01-09 04:35:49.30	330.87	8.78	
2025-01-09 04:35:50.12	330.71	8.78	
2025-01-09 04:35:50.94	330.55	8.78	
2025-01-09 04:35:51.76	330.39	8.78	
2025-01-09 04:35:52.58	330.23	8.78	
2025-01-09 04:35:53.40	330.07	8.77	
2025-01-09 04:35:54.22	329.91	8.77	
2025-01-09 04:35:55.04	329.75	8.77	
2025-01-09 04:35:55.85	329.59	8.76	
2025-01-09 04:35:56.67	329.43	8.76	
2025-01-09 04:35:57.49	329.27	8.76	
2025-01-09 04:35:58.32	329.11	8.75	
2025-01-09 04:35:59.14	328.95	8.75	
2025-01-09 04:35:59.96	328.79	8.75	
2025-01-09 04:36:00.78	328.63	8.74	
2025-01-09 04:36:01.61	328.47	8.74	
2025-01-09 04:36:02.44	328.31	8.73	
2025-01-09 04:36:03.26	328.15	8.73	
2025-01-09 04:36:04.08	327.99	8.72	
2025-01-09 04:36:04.90	327.83	8.72	
2025-01-09 04:36:05.72	327.67	8.71	
2025-01-09 04:36:06.54	327.51	8.71	
2025-01-09 04:36:07.36	327.35	8.70	
2025-01-09 04:36:08.18	327.19	8.69	
2025-01-09 04:36:09.00	327.03	8.69	
2025-01-09 04:36:09.82	326.87	8.68	
2025-01-09 04:36:10.64	326.72	8.68	
2025-01-09 04:36:11.46	326.56	8.67	
2025-01-09 04:36:12.28	326.40	8.66	
2025-01-09 04:36:13.10	326.24	8.65	
2025-01-09 04:36:13.91	326.08	8.65	
2025-01-09 04:36:14.74	325.92	8.64	
2025-01-09 04:36:15.57	325.76	8.63	
2025-01-09 04:36:16.39	325.60	8.62	
2025-01-09 04:36:17.21	325.45	8.62	
2025-01-09 04:36:18.03	325.29	8.61	
2025-01-09 04:36:18.85	325.13	8.60	
2025-01-09 04:36:19.68	324.97	8.59	
2025-01-09 04:36:20.51	324.81	8.58	
2025-01-09 04:36:21.34	324.65	8.57	
2025-01-09 04:36:22.17	324.49	8.56	
2025-01-09 04:36:22.99	324.33	8.55	
2025-01-09 04:36:23.81	324.18	8.54	
2025-01-09 04:36:24.63	324.02	8.53	
2025-01-09 04:36:25.46	323.86	8.52	
2025-01-09 04:36:26.28	323.70	8.51	
2025-01-09 04:36:27.11	323.54	8.50	
2025-01-09 04:36:27.94	323.39	8.49	
2025-01-09 04:36:28.76	323.23	8.48	
2025-01-09 04:36:29.58	323.07	8.47	
2025-01-09 04:36:30.40	322.92	8.46	
2025-01-09 04:36:31.22	322.76	8.45	
2025-01-09 04:36:32.04	322.60	8.44	
2025-01-09 04:36:32.86	322.45	8.42	
2025-01-09 04:36:33.68	322.29	8.41	
2025-01-09 04:36:34.50	322.14	8.40	
2025-01-09 04:36:35.32	321.98	8.39	
2025-01-09 04:36:36.14	321.83	8.37	
2025-01-09 04:36:36.96	321.67	8.36	
2025-01-09 04:36:37.77	321.52	8.35	
2025-01-09 04:36:38.59	321.36	8.34	
2025-01-09 04:36:39.41	321.21	8.32	
2025-01-09 04:36:40.24	321.05	8.31	
2025-01-09 04:36:41.06	320.90	8.30	
2025-01-09 04:36:41.87	320.74	8.28	
2025-01-09 04:36:42.70	320.59	8.27	
2025-01-09 04:36:43.52	320.43	8.25	
2025-01-09 04:36:44.34	320.28	8.24	
2025-01-09 04:36:45.16	320.13	8.23	
2025-01-09 04:36:45.98	319.97	8.21	
2025-01-09 04:36:46.80	319.82	8.20	
2025-01-09 04:36:47.62	319.67	8.18	
2025-01-09 04:36:48.44	319.51	8.17	
2025-01-09 04:36:49.28	319.36	8.15	
2025-01-09 04:36:50.10	319.20	8.13	
2025-01-09 04:36:50.92	319.05	8.12	
2025-01-09 04:36:51.73	318.90	8.10	
2025-01-09 04:36:52.56	318.75	8.09	
2025-01-09 04:36:53.38	318.60	8.07	
2025-01-09 04:36:54.20	318.44	8.06	
2025-01-09 04:36:55.03	318.29	8.04	
2025-01-09 04:36:55.85	318.14	8.02	
2025-01-09 04:36:56.67	317.99	8.01	
2025-01-09 04:36:57.49	317.84	7.99	
2025-01-09 04:36:58.31	317.69	7.97	
2025-01-09 04:36:59.13	317.54	7.95	
2025-01-09 04:36:59.94	317.39	7.94	
2025-01-09 04:37:00.76	317.24	7.92	
2025-01-09 04:37:01.58	317.09	7.90	
2025-01-09 04:37:02.40	316.94	7.88	
2025-01-09 04:37:03.22	316.79	7.87	
2025-01-09 04:37:04.05	316.64	7.85	
2025-01-09 04:37:04.86	316.49	7.83	
2025-01-09 04:37:05.68	316.34	7.81	
2025-01-09 04:37:06.50	316.19	7.79	
2025-01-09 04:37:07.32	316.04	7.77	
2025-01-09 04:37:08.15	315.89	7.75	
2025-01-09 04:37:08.96	315.75	7.73	
2025-01-09 04:37:09.80	315.59	7.71	
2025-01-09 04:37:10.63	315.45	7.69	
2025-01-09 04:37:11.46	315.30	7.67	
2025-01-09 04:37:12.28	315.15	7.65	
2025-01-09 04:37:13.09	315.00	7.64	
2025-01-09 04:37:13.92	314.85	7.61	
2025-01-09 04:37:14.74	314.71	7.59	
2025-01-09 04:37:15.56	314.56	7.57	
2025-01-09 04:37:16.38	314.42	7.55	
2025-01-09 04:37:17.20	314.27	7.53	
2025-01-09 04:37:18.02	314.12	7.51	
2025-01-09 04:37:18.84	313.98	7.49	
2025-01-09 04:37:19.66	313.83	7.47	
2025-01-09 04:37:20.49	313.69	7.45	
2025-01-09 04:37:21.32	313.54	7.43	
2025-01-09 04:37:22.14	313.40	7.41	
2025-01-09 04:37:22.96	313.25	7.38	
2025-01-09 04:37:23.78	313.11	7.36	
2025-01-09 04:37:24.60	312.96	7.34	
2025-01-09 04:37:25.42	312.82	7.32	
2025-01-09 04:37:26.25	312.67	7.30	
2025-01-09 04:37:27.07	312.53	7.27	
2025-01-09 04:37:27.89	312.39	7.25	
2025-01-09 04:37:28.71	312.25	7.23	
2025-01-09 04:37:29.53	312.10	7.20	
2025-01-09 04:37:30.36	311.96	7.18	
2025-01-09 04:37:31.18	311.82	7.16	
2025-01-09 04:37:32.01	311.67	7.14	
2025-01-09 04:37:32.83	311.53	7.11	
2025-01-09 04:37:33.65	311.39	7.09	
2025-01-09 04:37:34.47	311.25	7.06	
2025-01-09 04:37:35.29	311.11	7.04	
2025-01-09 04:37:36.11	310.97	7.02	
2025-01-09 04:37:36.93	310.83	6.99	
2025-01-09 04:37:37.75	310.69	6.97	
2025-01-09 04:37:38.58	310.55	6.94	
2025-01-09 04:37:39.41	310.41	6.92	
2025-01-09 04:37:40.23	310.27	6.90	
2025-01-09 04:37:41.06	310.13	6.87	
2025-01-09 04:37:41.88	309.99	6.85	
2025-01-09 04:37:42.70	309.85	6.82	
2025-01-09 04:37:43.52	309.71	6.80	
2025-01-09 04:37:44.34	309.57	6.77	
2025-01-09 04:37:45.16	309.44	6.75	
2025-01-09 04:37:45.98	309.30	6.72	
2025-01-09 04:37:46.80	309.16	6.70	
2025-01-09 04:37:47.62	309.03	6.67	
2025-01-09 04:37:48.44	308.89	6.64	
2025-01-09 04:37:49.26	308.75	6.62	
2025-01-09 04:37:50.09	308.61	6.59	
2025-01-09 04:37:50.91	308.48	6.57	
2025-01-09 04:37:51.74	308.34	6.54	
2025-01-09 04:37:52.56	308.21	6.51	
2025-01-09 04:37:53.38	308.07	6.49	
2025-01-09 04:37:54.20	307.94	6.46	
2025-01-09 04:37:55.02	307.80	6.43	
2025-01-09 04:37:55.84	307.67	6.41	
2025-01-09 04:37:56.65	307.54	6.38	
2025-01-09 04:37:57.47	307.40	6.35	
2025-01-09 04:37:58.30	307.27	6.33	
2025-01-09 04:37:59.12	307.13	6.30	
2025-01-09 04:37:59.94	307.00	6.27	
2025-01-09 04:38:00.75	306.87	6.25	
2025-01-09 04:38:01.58	306.74	6.22	
2025-01-09 04:38:02.40	306.61	6.19	
2025-01-09 04:38:03.23	306.47	6.16	
2025-01-09 04:38:04.05	306.34	6.14	
2025-01-09 04:38:04.87	306.21	6.11	
2025-01-09 04:38:05.69	306.08	6.08	
2025-01-09 04:38:06.53	305.94	6.05	
2025-01-09 04:38:07.36	305.81	6.02	
2025-01-09 04:38:08.18	305.68	5.99	
2025-01-09 04:38:09.00	305.55	5.97	
2025-01-09 04:38:09.82	305.42	5.94	
2025-01-09 04:38:10.64	305.29	5.91	
2025-01-09 04:38:11.46	305.17	5.88	
2025-01-09 04:38:12.28	305.04	5.85	
2025-01-09 04:38:13.11	304.91	5.82	
2025-01-09 04:38:13.93	304.78	5.79	
2025-01-09 04:38:14.75	304.65	5.77	
2025-01-09 04:38:15.57	304.52	5.74	
2025-01-09 04:38:16.40	304.40	5.71	
2025-01-09 04:38:17.22	304.27	5.68	
2025-01-09 04:38:18.04	304.14	5.65	
2025-01-09 04:38:18.86	304.02	5.62	
2025-01-09 04:38:19.68	303.89	5.59	
2025-01-09 04:38:20.51	303.76	5.56	
2025-01-09 04:38:21.33	303.64	5.53	
2025-01-09 04:38:22.15	303.51	5.50	
2025-01-09 04:38:22.97	303.39	5.47	
2025-01-09 04:38:23.79	303.26	5.44	
2025-01-09 04:38:24.61	303.14	5.41	
2025-01-09 04:38:25.43	303.01	5.38	
2025-01-09 04:38:26.25	302.89	5.35	
2025-01-09 04:38:27.08	302.76	5.32	
2025-01-09 04:38:27.91	302.64	5.29	
2025-01-09 04:38:28.73	302.52	5.26	
2025-01-09 04:38:29.55	302.39	5.23	
2025-01-09 04:38:30.37	302.27	5.20	
2025-01-09 04:38:31.18	302.15	5.17	
2025-01-09 04:38:32.00	302.03	5.14	
2025-01-09 04:38:32.82	301.91	5.11	
2025-01-09 04:38:33.64	301.79	5.08	
2025-01-09 04:38:34.46	301.66	5.05	
2025-01-09 04:38:35.30	301.54	5.02	
2025-01-09 04:38:36.12	301.42	4.98	
2025-01-09 04:38:36.93	301.30	4.95	
2025-01-09 04:38:37.75	301.18	4.92	
2025-01-09 04:38:38.58	301.06	4.89	
2025-01-09 04:38:39.40	300.94	4.86	
2025-01-09 04:38:40.22	300.82	4.83	
2025-01-09 04:38:41.04	300.70	4.80	
2025-01-09 04:38:41.86	300.58	4.77	
2025-01-09 04:38:42.68	300.47	4.73	
2025-01-09 04:38:43.50	300.35	4.70	
2025-01-09 04:38:44.32	300.23	4.67	
2025-01-09 04:38:45.14	300.11	4.64	
2025-01-09 04:38:45.96	300.00	4.61	
2025-01-09 04:38:46.78	299.88	4.58	
2025-01-09 04:38:47.62	299.76	4.54	
2025-01-09 04:38:48.44	299.64	4.51	
2025-01-09 04:38:49.26	299.53	4.48	
2025-01-09 04:38:50.09	299.41	4.45	
2025-01-09 04:38:50.91	299.30	4.42	
2025-01-09 04:38:51.74	299.18	4.38	
2025-01-09 04:38:52.55	299.07	4.35	
2025-01-09 04:38:53.38	298.95	4.32	
2025-01-09 04:38:54.20	298.84	4.29	
2025-01-09 04:38:55.03	298.72	4.25	
2025-01-09 04:38:55.85	298.61	4.22	
2025-01-09 04:38:56.67	298.49	4.19	
2025-01-09 04:38:57.48	298.38	4.16	
2025-01-09 04:38:58.30	298.27	4.12	
2025-01-09 04:38:59.12	298.16	4.09	
2025-01-09 04:38:59.94	298.04	4.06	
2025-01-09 04:39:00.76	297.93	4.03	

#Closed at: 2025-01-09 04:39:01