passes_logs/2025/01/09/SPB_Silybum_02/SPB_Silybum_02__20250109_091728_AQUA_rec.log

#Pass ID: 20250109_091728_AQUA
#Satellite: AQUA
#Configuration: AQUA
#Start time: 2025-01-09 09:17:28

#Version: 2.0.20230423
#Station: SPB_Silybum_02
#Location: 30.233357 lon 59.946436 lat
#TLE: 1 27424U 02022A   25008.83930641  .00002008  00000+0  42243-3 0  9991
#TLE: 2 27424  98.3576 325.4481 0001488 117.9026 295.2820 14.60658995206721

#Time	Az	El	Level	Level2	SNR	BER	Gain	Gain2
2025-01-09 09:17:30.38	96.00	4.09	
2025-01-09 09:17:31.40	95.90	4.15	
2025-01-09 09:17:32.43	95.80	4.21	
2025-01-09 09:17:33.46	95.69	4.27	
2025-01-09 09:17:34.49	95.59	4.33	
2025-01-09 09:17:35.52	95.48	4.39	
2025-01-09 09:17:36.54	95.38	4.44	
2025-01-09 09:17:37.57	95.27	4.50	
2025-01-09 09:17:38.59	95.17	4.56	
2025-01-09 09:17:39.61	95.06	4.62	
2025-01-09 09:17:40.64	94.95	4.68	
2025-01-09 09:17:41.66	94.84	4.74	
2025-01-09 09:17:42.69	94.74	4.80	
2025-01-09 09:17:43.71	94.63	4.86	
2025-01-09 09:17:44.74	94.52	4.92	
2025-01-09 09:17:45.76	94.41	4.98	
2025-01-09 09:17:46.81	94.30	5.04	
2025-01-09 09:17:47.84	94.18	5.10	
2025-01-09 09:17:48.86	94.07	5.16	
2025-01-09 09:17:49.89	93.96	5.22	
2025-01-09 09:17:50.92	93.85	5.28	
2025-01-09 09:17:51.94	93.74	5.34	
2025-01-09 09:17:52.98	93.62	5.40	
2025-01-09 09:17:54.00	93.51	5.46	
2025-01-09 09:17:55.03	93.39	5.52	
2025-01-09 09:17:56.06	93.28	5.58	
2025-01-09 09:17:57.08	93.16	5.64	
2025-01-09 09:17:58.11	93.05	5.70	
2025-01-09 09:17:59.13	92.93	5.76	
2025-01-09 09:18:00.17	92.81	5.82	
2025-01-09 09:18:01.19	92.69	5.88	
2025-01-09 09:18:02.22	92.58	5.94	
2025-01-09 09:18:03.24	92.46	6.00	
2025-01-09 09:18:04.27	92.34	6.07	
2025-01-09 09:18:05.30	92.22	6.13	
2025-01-09 09:18:06.32	92.10	6.19	
2025-01-09 09:18:07.35	91.98	6.25	
2025-01-09 09:18:08.38	91.85	6.31	
2025-01-09 09:18:09.40	91.73	6.37	
2025-01-09 09:18:10.43	91.61	6.43	
2025-01-09 09:18:11.46	91.49	6.49	
2025-01-09 09:18:12.50	91.36	6.55	
2025-01-09 09:18:13.52	91.24	6.61	
2025-01-09 09:18:14.55	91.11	6.68	
2025-01-09 09:18:15.57	90.99	6.74	
2025-01-09 09:18:16.60	90.86	6.80	
2025-01-09 09:18:17.62	90.73	6.86	
2025-01-09 09:18:18.65	90.61	6.92	
2025-01-09 09:18:19.68	90.48	6.98	
2025-01-09 09:18:20.70	90.35	7.04	
2025-01-09 09:18:21.74	90.22	7.10	
2025-01-09 09:18:22.77	90.09	7.17	
2025-01-09 09:18:23.80	89.96	7.23	
2025-01-09 09:18:24.82	89.83	7.29	
2025-01-09 09:18:25.85	89.70	7.35	
2025-01-09 09:18:26.87	89.56	7.41	
2025-01-09 09:18:27.92	89.43	7.47	
2025-01-09 09:18:28.96	89.29	7.54	
2025-01-09 09:18:29.99	89.16	7.60	
2025-01-09 09:18:31.01	89.03	7.66	
2025-01-09 09:18:32.04	88.89	7.72	
2025-01-09 09:18:33.06	88.75	7.78	
2025-01-09 09:18:34.09	88.62	7.84	
2025-01-09 09:18:35.13	88.48	7.91	
2025-01-09 09:18:36.16	88.34	7.97	
2025-01-09 09:18:37.20	88.20	8.03	
2025-01-09 09:18:38.23	88.06	8.09	
2025-01-09 09:18:39.25	87.92	8.16	
2025-01-09 09:18:40.28	87.78	8.22	
2025-01-09 09:18:41.30	87.64	8.28	
2025-01-09 09:18:42.33	87.50	8.34	
2025-01-09 09:18:43.35	87.36	8.40	
2025-01-09 09:18:44.38	87.21	8.46	
2025-01-09 09:18:45.40	87.07	8.53	
2025-01-09 09:18:46.44	86.92	8.59	
2025-01-09 09:18:47.47	86.78	8.65	
2025-01-09 09:18:48.49	86.63	8.71	
2025-01-09 09:18:49.52	86.48	8.77	
2025-01-09 09:18:50.55	86.34	8.84	
2025-01-09 09:18:51.58	86.19	8.90	
2025-01-09 09:18:52.60	86.04	8.96	
2025-01-09 09:18:53.63	85.89	9.02	
2025-01-09 09:18:54.66	85.74	9.08	
2025-01-09 09:18:55.68	85.59	9.15	
2025-01-09 09:18:56.71	85.44	9.21	
2025-01-09 09:18:57.73	85.29	9.27	
2025-01-09 09:18:58.76	85.13	9.33	
2025-01-09 09:18:59.79	84.98	9.39	
2025-01-09 09:19:00.81	84.83	9.45	
2025-01-09 09:19:01.84	84.67	9.52	
2025-01-09 09:19:02.87	84.51	9.58	
2025-01-09 09:19:03.89	84.36	9.64	
2025-01-09 09:19:04.92	84.20	9.70	
2025-01-09 09:19:05.95	84.04	9.76	
2025-01-09 09:19:06.97	83.89	9.82	
2025-01-09 09:19:08.00	83.73	9.89	
2025-01-09 09:19:09.02	83.57	9.95	
2025-01-09 09:19:10.05	83.41	10.01	
2025-01-09 09:19:11.09	83.24	10.07	
2025-01-09 09:19:12.12	83.08	10.13	
2025-01-09 09:19:13.14	82.92	10.19	
2025-01-09 09:19:14.17	82.75	10.26	
2025-01-09 09:19:15.19	82.59	10.32	
2025-01-09 09:19:16.22	82.42	10.38	
2025-01-09 09:19:17.26	82.26	10.44	
2025-01-09 09:19:18.29	82.09	10.50	
2025-01-09 09:19:19.31	81.92	10.56	
2025-01-09 09:19:20.34	81.75	10.62	
2025-01-09 09:19:21.38	81.58	10.69	
2025-01-09 09:19:22.40	81.41	10.75	
2025-01-09 09:19:23.43	81.24	10.81	
2025-01-09 09:19:24.45	81.07	10.87	
2025-01-09 09:19:25.47	80.90	10.93	
2025-01-09 09:19:26.50	80.73	10.99	
2025-01-09 09:19:27.52	80.55	11.05	
2025-01-09 09:19:28.55	80.38	11.11	
2025-01-09 09:19:29.58	80.20	11.17	
2025-01-09 09:19:30.60	80.03	11.23	
2025-01-09 09:19:31.63	79.85	11.29	
2025-01-09 09:19:32.65	79.67	11.35	
2025-01-09 09:19:33.69	79.49	11.41	
2025-01-09 09:19:34.72	79.31	11.47	
2025-01-09 09:19:35.74	79.13	11.53	
2025-01-09 09:19:36.78	78.95	11.59	
2025-01-09 09:19:37.81	78.77	11.65	
2025-01-09 09:19:38.84	78.58	11.71	
2025-01-09 09:19:39.86	78.40	11.77	
2025-01-09 09:19:40.88	78.22	11.83	
2025-01-09 09:19:41.91	78.03	11.89	
2025-01-09 09:19:42.93	77.85	11.95	
2025-01-09 09:19:43.97	77.66	12.01	
2025-01-09 09:19:45.00	77.47	12.07	
2025-01-09 09:19:46.03	77.28	12.13	
2025-01-09 09:19:47.05	77.10	12.19	
2025-01-09 09:19:48.08	76.91	12.24	
2025-01-09 09:19:49.11	76.71	12.30	
2025-01-09 09:19:50.14	76.52	12.36	
2025-01-09 09:19:51.16	76.33	12.42	
2025-01-09 09:19:52.19	76.14	12.48	
2025-01-09 09:19:53.21	75.94	12.53	
2025-01-09 09:19:54.24	75.75	12.59	
2025-01-09 09:19:55.27	75.55	12.65	
2025-01-09 09:19:56.29	75.36	12.71	
2025-01-09 09:19:57.32	75.16	12.76	
2025-01-09 09:19:58.34	74.96	12.82	
2025-01-09 09:19:59.37	74.76	12.88	
2025-01-09 09:20:00.41	74.56	12.94	
2025-01-09 09:20:01.44	74.36	12.99	
2025-01-09 09:20:02.46	74.16	13.05	
2025-01-09 09:20:03.49	73.96	13.10	
2025-01-09 09:20:04.51	73.76	13.16	
2025-01-09 09:20:05.54	73.55	13.22	
2025-01-09 09:20:06.57	73.35	13.27	
2025-01-09 09:20:07.59	73.14	13.33	
2025-01-09 09:20:08.62	72.93	13.38	
2025-01-09 09:20:09.64	72.73	13.44	
2025-01-09 09:20:10.67	72.52	13.49	
2025-01-09 09:20:11.69	72.31	13.55	
2025-01-09 09:20:12.72	72.10	13.60	
2025-01-09 09:20:13.75	71.89	13.65	
2025-01-09 09:20:14.77	71.68	13.71	
2025-01-09 09:20:15.80	71.47	13.76	
2025-01-09 09:20:16.82	71.26	13.81	
2025-01-09 09:20:17.85	71.04	13.87	
2025-01-09 09:20:18.88	70.83	13.92	
2025-01-09 09:20:19.92	70.61	13.97	
2025-01-09 09:20:20.94	70.39	14.03	
2025-01-09 09:20:21.97	70.18	14.08	
2025-01-09 09:20:22.99	69.96	14.13	
2025-01-09 09:20:24.02	69.74	14.18	
2025-01-09 09:20:25.04	69.52	14.23	
2025-01-09 09:20:26.07	69.30	14.28	
2025-01-09 09:20:27.09	69.08	14.33	
2025-01-09 09:20:28.12	68.86	14.38	
2025-01-09 09:20:29.15	68.64	14.43	
2025-01-09 09:20:30.17	68.41	14.48	
2025-01-09 09:20:31.21	68.19	14.53	
2025-01-09 09:20:32.25	67.96	14.58	
2025-01-09 09:20:33.28	67.73	14.63	
2025-01-09 09:20:34.32	67.50	14.68	
2025-01-09 09:20:35.34	67.28	14.73	
2025-01-09 09:20:36.37	67.05	14.78	
2025-01-09 09:20:37.39	66.82	14.82	
2025-01-09 09:20:38.42	66.59	14.87	
2025-01-09 09:20:39.45	66.36	14.92	
2025-01-09 09:20:40.48	66.13	14.97	
2025-01-09 09:20:41.50	65.89	15.01	
2025-01-09 09:20:42.53	65.66	15.06	
2025-01-09 09:20:43.56	65.43	15.10	
2025-01-09 09:20:44.58	65.19	15.15	
2025-01-09 09:20:45.60	64.96	15.19	
2025-01-09 09:20:46.63	64.72	15.24	
2025-01-09 09:20:47.66	64.49	15.28	
2025-01-09 09:20:48.69	64.25	15.32	
2025-01-09 09:20:49.71	64.01	15.37	
2025-01-09 09:20:50.74	63.77	15.41	
2025-01-09 09:20:51.76	63.53	15.45	
2025-01-09 09:20:52.79	63.29	15.49	
2025-01-09 09:20:53.82	63.05	15.54	
2025-01-09 09:20:54.84	62.81	15.58	
2025-01-09 09:20:55.87	62.57	15.62	
2025-01-09 09:20:56.89	62.32	15.66	
2025-01-09 09:20:57.92	62.08	15.70	
2025-01-09 09:20:58.94	61.84	15.74	
2025-01-09 09:20:59.96	61.59	15.78	
2025-01-09 09:21:00.99	61.35	15.81	
2025-01-09 09:21:02.02	61.10	15.85	
2025-01-09 09:21:03.04	60.85	15.89	
2025-01-09 09:21:04.07	60.60	15.93	
2025-01-09 09:21:05.10	60.35	15.96	
2025-01-09 09:21:06.12	60.11	16.00	
2025-01-09 09:21:07.15	59.86	16.04	
2025-01-09 09:21:08.18	59.60	16.07	
2025-01-09 09:21:09.20	59.36	16.11	
2025-01-09 09:21:10.23	59.10	16.14	
2025-01-09 09:21:11.26	58.85	16.18	
2025-01-09 09:21:12.28	58.60	16.21	
2025-01-09 09:21:13.31	58.34	16.24	
2025-01-09 09:21:14.33	58.09	16.27	
2025-01-09 09:21:15.36	57.84	16.31	
2025-01-09 09:21:16.38	57.58	16.34	
2025-01-09 09:21:17.41	57.32	16.37	
2025-01-09 09:21:18.43	57.07	16.40	
2025-01-09 09:21:19.46	56.81	16.43	
2025-01-09 09:21:20.48	56.56	16.46	
2025-01-09 09:21:21.52	56.29	16.49	
2025-01-09 09:21:22.55	56.04	16.52	
2025-01-09 09:21:23.57	55.78	16.54	
2025-01-09 09:21:24.60	55.52	16.57	
2025-01-09 09:21:25.63	55.26	16.60	
2025-01-09 09:21:26.66	54.99	16.62	
2025-01-09 09:21:27.68	54.74	16.65	
2025-01-09 09:21:28.73	54.47	16.68	
2025-01-09 09:21:29.75	54.21	16.70	
2025-01-09 09:21:30.77	53.95	16.72	
2025-01-09 09:21:31.79	53.69	16.75	
2025-01-09 09:21:32.83	53.42	16.77	
2025-01-09 09:21:33.87	53.15	16.79	
2025-01-09 09:21:34.90	52.89	16.81	
2025-01-09 09:21:35.93	52.62	16.84	
2025-01-09 09:21:36.96	52.36	16.86	
2025-01-09 09:21:37.98	52.09	16.88	
2025-01-09 09:21:39.01	51.83	16.90	
2025-01-09 09:21:40.03	51.56	16.92	
2025-01-09 09:21:41.07	51.29	16.93	
2025-01-09 09:21:42.09	51.03	16.95	
2025-01-09 09:21:43.12	50.76	16.97	
2025-01-09 09:21:44.15	50.49	16.99	
2025-01-09 09:21:45.17	50.22	17.00	
2025-01-09 09:21:46.20	49.95	17.02	
2025-01-09 09:21:47.22	49.69	17.03	
2025-01-09 09:21:48.25	49.42	17.05	
2025-01-09 09:21:49.28	49.15	17.06	
2025-01-09 09:21:50.31	48.88	17.07	
2025-01-09 09:21:51.33	48.61	17.08	
2025-01-09 09:21:52.35	48.34	17.10	
2025-01-09 09:21:53.38	48.07	17.11	
2025-01-09 09:21:54.43	47.80	17.12	
2025-01-09 09:21:55.45	47.53	17.13	
2025-01-09 09:21:56.48	47.26	17.14	
2025-01-09 09:21:57.50	46.99	17.14	
2025-01-09 09:21:58.53	46.72	17.15	
2025-01-09 09:21:59.57	46.44	17.16	
2025-01-09 09:22:00.59	46.17	17.17	
2025-01-09 09:22:01.61	45.90	17.17	
2025-01-09 09:22:02.64	45.63	17.18	
2025-01-09 09:22:03.66	45.36	17.18	
2025-01-09 09:22:04.69	45.09	17.19	
2025-01-09 09:22:05.72	44.82	17.19	
2025-01-09 09:22:06.74	44.55	17.19	
2025-01-09 09:22:07.78	44.27	17.20	
2025-01-09 09:22:08.81	44.00	17.20	
2025-01-09 09:22:09.83	43.73	17.20	
2025-01-09 09:22:10.86	43.46	17.20	
2025-01-09 09:22:11.88	43.19	17.20	
2025-01-09 09:22:12.91	42.92	17.20	
2025-01-09 09:22:13.93	42.65	17.20	
2025-01-09 09:22:14.96	42.38	17.20	
2025-01-09 09:22:15.98	42.11	17.19	
2025-01-09 09:22:17.01	41.83	17.19	
2025-01-09 09:22:18.03	41.56	17.19	
2025-01-09 09:22:19.06	41.29	17.18	
2025-01-09 09:22:20.08	41.02	17.18	
2025-01-09 09:22:21.12	40.75	17.17	
2025-01-09 09:22:22.14	40.48	17.16	
2025-01-09 09:22:23.17	40.21	17.16	
2025-01-09 09:22:24.21	39.93	17.15	
2025-01-09 09:22:25.24	39.66	17.14	
2025-01-09 09:22:26.26	39.39	17.13	
2025-01-09 09:22:27.28	39.13	17.12	
2025-01-09 09:22:28.31	38.85	17.11	
2025-01-09 09:22:29.33	38.59	17.10	
2025-01-09 09:22:30.36	38.32	17.09	
2025-01-09 09:22:31.38	38.05	17.08	
2025-01-09 09:22:32.41	37.78	17.07	
2025-01-09 09:22:33.44	37.51	17.05	
2025-01-09 09:22:34.48	37.24	17.04	
2025-01-09 09:22:35.51	36.97	17.02	
2025-01-09 09:22:36.53	36.70	17.01	
2025-01-09 09:22:37.56	36.43	16.99	
2025-01-09 09:22:38.58	36.17	16.98	
2025-01-09 09:22:39.61	35.90	16.96	
2025-01-09 09:22:40.63	35.64	16.94	
2025-01-09 09:22:41.67	35.37	16.93	
2025-01-09 09:22:42.70	35.10	16.91	
2025-01-09 09:22:43.73	34.83	16.89	
2025-01-09 09:22:44.75	34.57	16.87	
2025-01-09 09:22:45.78	34.30	16.85	
2025-01-09 09:22:46.82	34.04	16.83	
2025-01-09 09:22:47.84	33.77	16.81	
2025-01-09 09:22:48.87	33.51	16.78	
2025-01-09 09:22:49.89	33.25	16.76	
2025-01-09 09:22:50.92	32.98	16.74	
2025-01-09 09:22:51.94	32.72	16.71	
2025-01-09 09:22:52.97	32.46	16.69	
2025-01-09 09:22:54.00	32.20	16.67	
2025-01-09 09:22:55.03	31.94	16.64	
2025-01-09 09:22:56.06	31.67	16.61	
2025-01-09 09:22:57.08	31.42	16.59	
2025-01-09 09:22:58.11	31.16	16.56	
2025-01-09 09:22:59.14	30.90	16.53	
2025-01-09 09:23:00.17	30.64	16.50	
2025-01-09 09:23:01.20	30.38	16.48	
2025-01-09 09:23:02.22	30.12	16.45	
2025-01-09 09:23:03.25	29.86	16.42	
2025-01-09 09:23:04.27	29.61	16.39	
2025-01-09 09:23:05.30	29.35	16.36	
2025-01-09 09:23:06.33	29.10	16.33	
2025-01-09 09:23:07.35	28.84	16.29	
2025-01-09 09:23:08.39	28.59	16.26	
2025-01-09 09:23:09.42	28.33	16.23	
2025-01-09 09:23:10.45	28.08	16.20	
2025-01-09 09:23:11.47	27.83	16.16	
2025-01-09 09:23:12.50	27.58	16.13	
2025-01-09 09:23:13.52	27.33	16.09	
2025-01-09 09:23:14.55	27.08	16.06	
2025-01-09 09:23:15.57	26.83	16.02	
2025-01-09 09:23:16.60	26.58	15.99	
2025-01-09 09:23:17.62	26.33	15.95	
2025-01-09 09:23:18.65	26.08	15.91	
2025-01-09 09:23:19.67	25.84	15.88	
2025-01-09 09:23:20.70	25.59	15.84	
2025-01-09 09:23:21.73	25.34	15.80	
2025-01-09 09:23:22.77	25.09	15.76	
2025-01-09 09:23:23.81	24.85	15.72	
2025-01-09 09:23:24.83	24.60	15.68	
2025-01-09 09:23:25.87	24.36	15.64	
2025-01-09 09:23:26.89	24.12	15.60	
2025-01-09 09:23:27.92	23.88	15.56	
2025-01-09 09:23:28.94	23.64	15.52	
2025-01-09 09:23:29.97	23.40	15.48	
2025-01-09 09:23:30.99	23.16	15.44	
2025-01-09 09:23:32.02	22.92	15.39	
2025-01-09 09:23:33.04	22.68	15.35	
2025-01-09 09:23:34.07	22.44	15.31	
2025-01-09 09:23:35.10	22.21	15.26	
2025-01-09 09:23:36.12	21.97	15.22	
2025-01-09 09:23:37.14	21.74	15.18	
2025-01-09 09:23:38.17	21.50	15.13	
2025-01-09 09:23:39.20	21.27	15.09	
2025-01-09 09:23:40.22	21.04	15.04	
2025-01-09 09:23:41.25	20.81	14.99	
2025-01-09 09:23:42.27	20.58	14.95	
2025-01-09 09:23:43.31	20.34	14.90	
2025-01-09 09:23:44.33	20.12	14.85	
2025-01-09 09:23:45.36	19.89	14.81	
2025-01-09 09:23:46.39	19.66	14.76	
2025-01-09 09:23:47.42	19.43	14.71	
2025-01-09 09:23:48.44	19.20	14.66	
2025-01-09 09:23:49.47	18.98	14.62	
2025-01-09 09:23:50.50	18.75	14.57	
2025-01-09 09:23:51.53	18.53	14.52	
2025-01-09 09:23:52.55	18.31	14.47	
2025-01-09 09:23:53.60	18.08	14.42	
2025-01-09 09:23:54.62	17.86	14.37	
2025-01-09 09:23:55.65	17.64	14.32	
2025-01-09 09:23:56.67	17.42	14.27	
2025-01-09 09:23:57.70	17.20	14.22	
2025-01-09 09:23:58.73	16.98	14.16	
2025-01-09 09:23:59.75	16.76	14.11	
2025-01-09 09:24:00.78	16.55	14.06	
2025-01-09 09:24:01.80	16.33	14.01	
2025-01-09 09:24:02.82	16.12	13.96	
2025-01-09 09:24:03.85	15.90	13.90	
2025-01-09 09:24:04.88	15.69	13.85	
2025-01-09 09:24:05.90	15.48	13.80	
2025-01-09 09:24:06.93	15.26	13.75	
2025-01-09 09:24:07.96	15.05	13.69	
2025-01-09 09:24:08.98	14.84	13.64	
2025-01-09 09:24:10.01	14.63	13.58	
2025-01-09 09:24:11.03	14.43	13.53	
2025-01-09 09:24:12.06	14.22	13.48	
2025-01-09 09:24:13.08	14.01	13.42	
2025-01-09 09:24:14.11	13.81	13.37	
2025-01-09 09:24:15.14	13.60	13.31	
2025-01-09 09:24:16.16	13.40	13.26	
2025-01-09 09:24:17.19	13.19	13.20	
2025-01-09 09:24:18.22	12.99	13.15	
2025-01-09 09:24:19.24	12.79	13.09	
2025-01-09 09:24:20.28	12.59	13.03	
2025-01-09 09:24:21.31	12.39	12.98	
2025-01-09 09:24:22.33	12.19	12.92	
2025-01-09 09:24:23.36	11.99	12.86	
2025-01-09 09:24:24.38	11.79	12.81	
2025-01-09 09:24:25.41	11.59	12.75	
2025-01-09 09:24:26.45	11.40	12.69	
2025-01-09 09:24:27.48	11.20	12.64	
2025-01-09 09:24:28.50	11.01	12.58	
2025-01-09 09:24:29.53	10.81	12.52	
2025-01-09 09:24:30.56	10.62	12.46	
2025-01-09 09:24:31.60	10.43	12.40	
2025-01-09 09:24:32.63	10.23	12.35	
2025-01-09 09:24:33.65	10.04	12.29	
2025-01-09 09:24:34.67	9.86	12.23	
2025-01-09 09:24:35.70	9.67	12.17	
2025-01-09 09:24:36.74	9.48	12.11	
2025-01-09 09:24:37.76	9.29	12.05	
2025-01-09 09:24:38.79	9.10	12.00	
2025-01-09 09:24:39.81	8.92	11.94	
2025-01-09 09:24:40.84	8.74	11.88	
2025-01-09 09:24:41.87	8.55	11.82	
2025-01-09 09:24:42.91	8.37	11.76	
2025-01-09 09:24:43.93	8.19	11.70	
2025-01-09 09:24:44.96	8.00	11.64	
2025-01-09 09:24:46.00	7.82	11.58	
2025-01-09 09:24:47.02	7.64	11.52	
2025-01-09 09:24:48.05	7.46	11.46	
2025-01-09 09:24:49.07	7.29	11.40	
2025-01-09 09:24:50.10	7.11	11.34	
2025-01-09 09:24:51.13	6.93	11.28	
2025-01-09 09:24:52.16	6.75	11.22	
2025-01-09 09:24:53.18	6.58	11.16	
2025-01-09 09:24:54.21	6.41	11.10	
2025-01-09 09:24:55.24	6.23	11.04	
2025-01-09 09:24:56.26	6.06	10.98	
2025-01-09 09:24:57.29	5.89	10.92	
2025-01-09 09:24:58.32	5.72	10.86	
2025-01-09 09:24:59.36	5.54	10.80	
2025-01-09 09:25:00.40	5.37	10.73	
2025-01-09 09:25:01.43	5.20	10.67	
2025-01-09 09:25:02.45	5.04	10.61	
2025-01-09 09:25:03.48	4.87	10.55	
2025-01-09 09:25:04.50	4.70	10.49	
2025-01-09 09:25:05.53	4.54	10.43	
2025-01-09 09:25:06.55	4.37	10.37	
2025-01-09 09:25:07.58	4.21	10.31	
2025-01-09 09:25:08.60	4.05	10.25	
2025-01-09 09:25:09.63	3.88	10.19	
2025-01-09 09:25:10.67	3.72	10.12	
2025-01-09 09:25:11.69	3.56	10.06	
2025-01-09 09:25:12.72	3.40	10.00	
2025-01-09 09:25:13.75	3.24	9.94	
2025-01-09 09:25:14.77	3.08	9.88	
2025-01-09 09:25:15.79	2.92	9.82	
2025-01-09 09:25:16.82	2.77	9.76	
2025-01-09 09:25:17.84	2.61	9.69	
2025-01-09 09:25:18.87	2.45	9.63	
2025-01-09 09:25:19.90	2.30	9.57	
2025-01-09 09:25:20.93	2.14	9.51	
2025-01-09 09:25:21.96	1.99	9.45	
2025-01-09 09:25:22.99	1.84	9.39	
2025-01-09 09:25:24.01	1.69	9.32	
2025-01-09 09:25:25.04	1.53	9.26	
2025-01-09 09:25:26.07	1.38	9.20	
2025-01-09 09:25:27.09	1.23	9.14	
2025-01-09 09:25:28.12	1.08	9.08	
2025-01-09 09:25:29.15	0.93	9.02	
2025-01-09 09:25:30.18	0.78	8.95	
2025-01-09 09:25:31.21	0.64	8.89	
2025-01-09 09:25:32.24	0.49	8.83	
2025-01-09 09:25:33.27	0.34	8.77	
2025-01-09 09:25:34.29	0.20	8.71	
2025-01-09 09:25:35.32	0.05	8.64	
2025-01-09 09:25:36.35	359.91	8.58	
2025-01-09 09:25:37.37	359.77	8.52	
2025-01-09 09:25:38.40	359.62	8.46	
2025-01-09 09:25:39.43	359.48	8.40	
2025-01-09 09:25:40.46	359.34	8.34	
2025-01-09 09:25:41.51	359.20	8.27	
2025-01-09 09:25:42.53	359.06	8.21	
2025-01-09 09:25:43.56	358.92	8.15	
2025-01-09 09:25:44.58	358.78	8.09	
2025-01-09 09:25:45.61	358.64	8.03	
2025-01-09 09:25:46.64	358.50	7.96	
2025-01-09 09:25:47.68	358.36	7.90	
2025-01-09 09:25:48.70	358.23	7.84	
2025-01-09 09:25:49.73	358.09	7.78	
2025-01-09 09:25:50.76	357.96	7.72	
2025-01-09 09:25:51.78	357.82	7.66	
2025-01-09 09:25:52.81	357.69	7.60	
2025-01-09 09:25:53.83	357.56	7.53	
2025-01-09 09:25:54.86	357.43	7.47	
2025-01-09 09:25:55.89	357.29	7.41	
2025-01-09 09:25:56.92	357.16	7.35	
2025-01-09 09:25:57.94	357.03	7.29	
2025-01-09 09:25:58.97	356.90	7.23	
2025-01-09 09:26:00.00	356.77	7.17	
2025-01-09 09:26:01.02	356.64	7.11	
2025-01-09 09:26:02.04	356.52	7.04	
2025-01-09 09:26:03.07	356.39	6.98	
2025-01-09 09:26:04.10	356.26	6.92	
2025-01-09 09:26:05.13	356.14	6.86	
2025-01-09 09:26:06.15	356.01	6.80	
2025-01-09 09:26:07.18	355.89	6.74	
2025-01-09 09:26:08.21	355.76	6.68	
2025-01-09 09:26:09.23	355.64	6.62	
2025-01-09 09:26:10.26	355.51	6.56	
2025-01-09 09:26:11.28	355.39	6.50	
2025-01-09 09:26:12.31	355.27	6.43	
2025-01-09 09:26:13.34	355.15	6.37	
2025-01-09 09:26:14.36	355.03	6.31	
2025-01-09 09:26:15.39	354.91	6.25	
2025-01-09 09:26:16.41	354.79	6.19	
2025-01-09 09:26:17.44	354.67	6.13	
2025-01-09 09:26:18.47	354.55	6.07	
2025-01-09 09:26:19.49	354.43	6.01	
2025-01-09 09:26:20.52	354.31	5.95	
2025-01-09 09:26:21.54	354.20	5.89	
2025-01-09 09:26:22.57	354.08	5.83	
2025-01-09 09:26:23.60	353.96	5.77	
2025-01-09 09:26:24.63	353.85	5.71	
2025-01-09 09:26:25.66	353.73	5.65	
2025-01-09 09:26:26.69	353.62	5.59	
2025-01-09 09:26:27.72	353.50	5.53	
2025-01-09 09:26:28.74	353.39	5.47	
2025-01-09 09:26:29.77	353.28	5.41	
2025-01-09 09:26:30.80	353.16	5.35	
2025-01-09 09:26:31.82	353.05	5.29	
2025-01-09 09:26:32.85	352.94	5.23	
2025-01-09 09:26:33.89	352.83	5.17	
2025-01-09 09:26:34.93	352.72	5.11	
2025-01-09 09:26:35.96	352.61	5.05	
2025-01-09 09:26:36.98	352.50	4.99	
2025-01-09 09:26:38.01	352.39	4.93	
2025-01-09 09:26:39.04	352.28	4.87	
2025-01-09 09:26:40.07	352.17	4.81	
2025-01-09 09:26:41.09	352.07	4.75	
2025-01-09 09:26:42.12	351.96	4.69	
2025-01-09 09:26:43.15	351.85	4.63	
2025-01-09 09:26:44.17	351.75	4.57	
2025-01-09 09:26:45.21	351.64	4.51	
2025-01-09 09:26:46.24	351.54	4.45	
2025-01-09 09:26:47.26	351.43	4.39	
2025-01-09 09:26:48.29	351.33	4.34	
2025-01-09 09:26:49.32	351.22	4.28	
2025-01-09 09:26:50.36	351.12	4.22	
2025-01-09 09:26:51.38	351.02	4.16	
2025-01-09 09:26:52.41	350.92	4.10	
2025-01-09 09:26:53.43	350.81	4.04	

#Closed at: 2025-01-09 09:26:54