passes_logs/2025/01/09/SPB_Silybum_02/SPB_Silybum_02__20250109_120002_SUOMI_NPP_rec.log

#Pass ID: 20250109_120002_SUOMI NPP
#Satellite: SUOMI NPP
#Configuration: NPP
#Start time: 2025-01-09 12:00:03

#Version: 2.0.20230423
#Station: SPB_Silybum_02
#Location: 30.233357 lon 59.946436 lat
#TLE: 1 37849U 11061A   25008.85814474  .00000207  00000+0  11909-3 0  9997
#TLE: 2 37849  98.7439 309.9248 0001886  50.2762 309.8580 14.19535270684045

#Time	Az	El	Level	Level2	SNR	BER	Gain	Gain2
2025-01-09 12:00:05.36	212.09	4.15	
2025-01-09 12:00:06.59	212.20	4.22	
2025-01-09 12:00:07.82	212.30	4.29	
2025-01-09 12:00:09.05	212.40	4.36	
2025-01-09 12:00:10.28	212.50	4.43	
2025-01-09 12:00:11.52	212.61	4.50	
2025-01-09 12:00:12.75	212.71	4.57	
2025-01-09 12:00:13.98	212.82	4.65	
2025-01-09 12:00:15.22	212.92	4.72	
2025-01-09 12:00:16.45	213.03	4.79	
2025-01-09 12:00:17.68	213.14	4.86	
2025-01-09 12:00:18.91	213.24	4.93	
2025-01-09 12:00:20.14	213.35	5.01	
2025-01-09 12:00:21.38	213.46	5.08	
2025-01-09 12:00:22.62	213.57	5.15	
2025-01-09 12:00:23.85	213.68	5.23	
2025-01-09 12:00:25.08	213.79	5.30	
2025-01-09 12:00:26.32	213.90	5.37	
2025-01-09 12:00:27.55	214.01	5.44	
2025-01-09 12:00:28.78	214.12	5.52	
2025-01-09 12:00:30.03	214.23	5.59	
2025-01-09 12:00:31.26	214.34	5.67	
2025-01-09 12:00:32.49	214.46	5.74	
2025-01-09 12:00:33.72	214.57	5.81	
2025-01-09 12:00:34.95	214.68	5.89	
2025-01-09 12:00:36.18	214.80	5.96	
2025-01-09 12:00:37.41	214.91	6.03	
2025-01-09 12:00:38.64	215.03	6.11	
2025-01-09 12:00:39.87	215.14	6.18	
2025-01-09 12:00:41.10	215.26	6.26	
2025-01-09 12:00:42.34	215.38	6.33	
2025-01-09 12:00:43.57	215.50	6.41	
2025-01-09 12:00:44.80	215.61	6.48	
2025-01-09 12:00:46.03	215.73	6.55	
2025-01-09 12:00:47.27	215.85	6.63	
2025-01-09 12:00:48.50	215.97	6.70	
2025-01-09 12:00:49.73	216.09	6.78	
2025-01-09 12:00:50.97	216.22	6.86	
2025-01-09 12:00:52.20	216.34	6.93	
2025-01-09 12:00:53.43	216.46	7.01	
2025-01-09 12:00:54.66	216.58	7.08	
2025-01-09 12:00:55.89	216.71	7.16	
2025-01-09 12:00:57.11	216.83	7.23	
2025-01-09 12:00:58.34	216.96	7.31	
2025-01-09 12:00:59.57	217.08	7.38	
2025-01-09 12:01:00.80	217.21	7.46	
2025-01-09 12:01:02.03	217.33	7.54	
2025-01-09 12:01:03.26	217.46	7.61	
2025-01-09 12:01:04.50	217.59	7.69	
2025-01-09 12:01:05.73	217.72	7.77	
2025-01-09 12:01:06.96	217.85	7.84	
2025-01-09 12:01:08.20	217.98	7.92	
2025-01-09 12:01:09.43	218.11	8.00	
2025-01-09 12:01:10.67	218.24	8.07	
2025-01-09 12:01:11.90	218.37	8.15	
2025-01-09 12:01:13.12	218.51	8.23	
2025-01-09 12:01:14.36	218.64	8.31	
2025-01-09 12:01:15.59	218.77	8.38	
2025-01-09 12:01:16.83	218.91	8.46	
2025-01-09 12:01:18.06	219.05	8.54	
2025-01-09 12:01:19.29	219.18	8.62	
2025-01-09 12:01:20.52	219.32	8.69	
2025-01-09 12:01:21.75	219.46	8.77	
2025-01-09 12:01:22.98	219.59	8.85	
2025-01-09 12:01:24.23	219.74	8.93	
2025-01-09 12:01:25.45	219.87	9.01	
2025-01-09 12:01:26.69	220.02	9.09	
2025-01-09 12:01:27.92	220.16	9.16	
2025-01-09 12:01:29.15	220.30	9.24	
2025-01-09 12:01:30.38	220.44	9.32	
2025-01-09 12:01:31.62	220.59	9.40	
2025-01-09 12:01:32.85	220.73	9.48	
2025-01-09 12:01:34.08	220.87	9.56	
2025-01-09 12:01:35.33	221.02	9.64	
2025-01-09 12:01:36.57	221.17	9.72	
2025-01-09 12:01:37.81	221.32	9.80	
2025-01-09 12:01:39.04	221.47	9.88	
2025-01-09 12:01:40.26	221.61	9.96	
2025-01-09 12:01:41.49	221.76	10.03	
2025-01-09 12:01:42.73	221.91	10.11	
2025-01-09 12:01:43.96	222.07	10.19	
2025-01-09 12:01:45.19	222.22	10.27	
2025-01-09 12:01:46.42	222.37	10.35	
2025-01-09 12:01:47.65	222.52	10.43	
2025-01-09 12:01:48.88	222.68	10.51	
2025-01-09 12:01:50.11	222.83	10.59	
2025-01-09 12:01:51.35	222.99	10.67	
2025-01-09 12:01:52.58	223.15	10.75	
2025-01-09 12:01:53.81	223.30	10.83	
2025-01-09 12:01:55.04	223.46	10.91	
2025-01-09 12:01:56.28	223.62	11.00	
2025-01-09 12:01:57.51	223.78	11.08	
2025-01-09 12:01:58.75	223.94	11.16	
2025-01-09 12:01:59.99	224.11	11.24	
2025-01-09 12:02:01.23	224.27	11.32	
2025-01-09 12:02:02.47	224.44	11.40	
2025-01-09 12:02:03.70	224.60	11.48	
2025-01-09 12:02:04.93	224.77	11.56	
2025-01-09 12:02:06.17	224.93	11.64	
2025-01-09 12:02:07.40	225.10	11.72	
2025-01-09 12:02:08.64	225.27	11.81	
2025-01-09 12:02:09.88	225.44	11.89	
2025-01-09 12:02:11.11	225.61	11.97	
2025-01-09 12:02:12.34	225.78	12.05	
2025-01-09 12:02:13.57	225.95	12.13	
2025-01-09 12:02:14.82	226.13	12.21	
2025-01-09 12:02:16.05	226.30	12.29	
2025-01-09 12:02:17.28	226.48	12.38	
2025-01-09 12:02:18.51	226.65	12.46	
2025-01-09 12:02:19.75	226.83	12.54	
2025-01-09 12:02:20.98	227.01	12.62	
2025-01-09 12:02:22.22	227.19	12.70	
2025-01-09 12:02:23.45	227.36	12.78	
2025-01-09 12:02:24.69	227.55	12.87	
2025-01-09 12:02:25.92	227.73	12.95	
2025-01-09 12:02:27.15	227.91	13.03	
2025-01-09 12:02:28.39	228.09	13.11	
2025-01-09 12:02:29.64	228.28	13.19	
2025-01-09 12:02:30.87	228.47	13.27	
2025-01-09 12:02:32.10	228.65	13.36	
2025-01-09 12:02:33.33	228.84	13.44	
2025-01-09 12:02:34.56	229.03	13.52	
2025-01-09 12:02:35.79	229.22	13.60	
2025-01-09 12:02:37.02	229.41	13.68	
2025-01-09 12:02:38.25	229.60	13.76	
2025-01-09 12:02:39.48	229.79	13.84	
2025-01-09 12:02:40.72	229.98	13.93	
2025-01-09 12:02:41.95	230.18	14.01	
2025-01-09 12:02:43.17	230.37	14.09	
2025-01-09 12:02:44.41	230.57	14.17	
2025-01-09 12:02:45.64	230.76	14.25	
2025-01-09 12:02:46.87	230.96	14.33	
2025-01-09 12:02:48.11	231.16	14.41	
2025-01-09 12:02:49.34	231.36	14.49	
2025-01-09 12:02:50.57	231.57	14.58	
2025-01-09 12:02:51.80	231.77	14.66	
2025-01-09 12:02:53.05	231.97	14.74	
2025-01-09 12:02:54.28	232.18	14.82	
2025-01-09 12:02:55.51	232.38	14.90	
2025-01-09 12:02:56.74	232.59	14.98	
2025-01-09 12:02:57.97	232.80	15.06	
2025-01-09 12:02:59.22	233.01	15.14	
2025-01-09 12:03:00.44	233.22	15.22	
2025-01-09 12:03:01.67	233.43	15.30	
2025-01-09 12:03:02.91	233.65	15.38	
2025-01-09 12:03:04.14	233.86	15.46	
2025-01-09 12:03:05.38	234.07	15.54	
2025-01-09 12:03:06.61	234.29	15.62	
2025-01-09 12:03:07.84	234.51	15.70	
2025-01-09 12:03:09.09	234.73	15.79	
2025-01-09 12:03:10.32	234.95	15.86	
2025-01-09 12:03:11.55	235.17	15.94	
2025-01-09 12:03:12.78	235.39	16.02	
2025-01-09 12:03:14.03	235.61	16.10	
2025-01-09 12:03:15.26	235.84	16.18	
2025-01-09 12:03:16.49	236.06	16.26	
2025-01-09 12:03:17.72	236.29	16.34	
2025-01-09 12:03:18.95	236.52	16.42	
2025-01-09 12:03:20.19	236.75	16.50	
2025-01-09 12:03:21.42	236.98	16.57	
2025-01-09 12:03:22.64	237.20	16.65	
2025-01-09 12:03:23.89	237.44	16.73	
2025-01-09 12:03:25.15	237.68	16.81	
2025-01-09 12:03:26.38	237.91	16.89	
2025-01-09 12:03:27.61	238.15	16.96	
2025-01-09 12:03:28.84	238.38	17.04	
2025-01-09 12:03:30.07	238.62	17.12	
2025-01-09 12:03:31.30	238.86	17.19	
2025-01-09 12:03:32.55	239.10	17.27	
2025-01-09 12:03:33.78	239.34	17.35	
2025-01-09 12:03:35.01	239.59	17.42	
2025-01-09 12:03:36.24	239.83	17.50	
2025-01-09 12:03:37.48	240.08	17.57	
2025-01-09 12:03:38.71	240.32	17.65	
2025-01-09 12:03:39.95	240.57	17.72	
2025-01-09 12:03:41.18	240.82	17.80	
2025-01-09 12:03:42.43	241.07	17.87	
2025-01-09 12:03:43.66	241.32	17.95	
2025-01-09 12:03:44.90	241.58	18.02	
2025-01-09 12:03:46.13	241.83	18.09	
2025-01-09 12:03:47.36	242.08	18.17	
2025-01-09 12:03:48.60	242.34	18.24	
2025-01-09 12:03:49.83	242.60	18.31	
2025-01-09 12:03:51.06	242.85	18.38	
2025-01-09 12:03:52.29	243.11	18.45	
2025-01-09 12:03:53.52	243.37	18.53	
2025-01-09 12:03:54.75	243.63	18.60	
2025-01-09 12:03:55.98	243.90	18.67	
2025-01-09 12:03:57.21	244.16	18.74	
2025-01-09 12:03:58.44	244.42	18.81	
2025-01-09 12:03:59.68	244.69	18.88	
2025-01-09 12:04:00.91	244.96	18.94	
2025-01-09 12:04:02.14	245.23	19.01	
2025-01-09 12:04:03.37	245.50	19.08	
2025-01-09 12:04:04.60	245.77	19.15	
2025-01-09 12:04:05.83	246.04	19.21	
2025-01-09 12:04:07.07	246.31	19.28	
2025-01-09 12:04:08.30	246.59	19.35	
2025-01-09 12:04:09.52	246.86	19.41	
2025-01-09 12:04:10.76	247.14	19.48	
2025-01-09 12:04:11.99	247.42	19.54	
2025-01-09 12:04:13.21	247.69	19.61	
2025-01-09 12:04:14.44	247.97	19.67	
2025-01-09 12:04:15.68	248.26	19.73	
2025-01-09 12:04:16.91	248.54	19.79	
2025-01-09 12:04:18.14	248.82	19.86	
2025-01-09 12:04:19.36	249.10	19.92	
2025-01-09 12:04:20.59	249.39	19.98	
2025-01-09 12:04:21.82	249.68	20.04	
2025-01-09 12:04:23.07	249.97	20.10	
2025-01-09 12:04:24.31	250.26	20.16	
2025-01-09 12:04:25.55	250.55	20.22	
2025-01-09 12:04:26.79	250.84	20.28	
2025-01-09 12:04:28.02	251.13	20.33	
2025-01-09 12:04:29.25	251.43	20.39	
2025-01-09 12:04:30.49	251.72	20.45	
2025-01-09 12:04:31.72	252.02	20.50	
2025-01-09 12:04:32.95	252.31	20.56	
2025-01-09 12:04:34.18	252.61	20.61	
2025-01-09 12:04:35.41	252.91	20.67	
2025-01-09 12:04:36.64	253.21	20.72	
2025-01-09 12:04:37.87	253.51	20.77	
2025-01-09 12:04:39.11	253.81	20.82	
2025-01-09 12:04:40.35	254.12	20.87	
2025-01-09 12:04:41.59	254.42	20.92	
2025-01-09 12:04:42.82	254.73	20.97	
2025-01-09 12:04:44.05	255.03	21.02	
2025-01-09 12:04:45.28	255.34	21.07	
2025-01-09 12:04:46.53	255.65	21.12	
2025-01-09 12:04:47.76	255.96	21.17	
2025-01-09 12:04:48.99	256.26	21.21	
2025-01-09 12:04:50.22	256.57	21.26	
2025-01-09 12:04:51.46	256.89	21.30	
2025-01-09 12:04:52.70	257.20	21.34	
2025-01-09 12:04:53.94	257.51	21.39	
2025-01-09 12:04:55.17	257.83	21.43	
2025-01-09 12:04:56.40	258.14	21.47	
2025-01-09 12:04:57.64	258.46	21.51	
2025-01-09 12:04:58.89	258.78	21.55	
2025-01-09 12:05:00.13	259.10	21.59	
2025-01-09 12:05:01.37	259.42	21.63	
2025-01-09 12:05:02.60	259.73	21.67	
2025-01-09 12:05:03.83	260.05	21.70	
2025-01-09 12:05:05.07	260.37	21.74	
2025-01-09 12:05:06.30	260.69	21.77	
2025-01-09 12:05:07.55	261.02	21.81	
2025-01-09 12:05:08.79	261.34	21.84	
2025-01-09 12:05:10.03	261.67	21.87	
2025-01-09 12:05:11.26	261.99	21.90	
2025-01-09 12:05:12.49	262.31	21.93	
2025-01-09 12:05:13.71	262.63	21.96	
2025-01-09 12:05:14.96	262.96	21.99	
2025-01-09 12:05:16.20	263.29	22.02	
2025-01-09 12:05:17.43	263.61	22.05	
2025-01-09 12:05:18.67	263.94	22.07	
2025-01-09 12:05:19.90	264.27	22.10	
2025-01-09 12:05:21.14	264.60	22.12	
2025-01-09 12:05:22.38	264.93	22.14	
2025-01-09 12:05:23.61	265.25	22.17	
2025-01-09 12:05:24.83	265.58	22.19	
2025-01-09 12:05:26.07	265.91	22.21	
2025-01-09 12:05:27.30	266.24	22.23	
2025-01-09 12:05:28.53	266.57	22.24	
2025-01-09 12:05:29.77	266.90	22.26	
2025-01-09 12:05:30.99	267.23	22.28	
2025-01-09 12:05:32.22	267.56	22.29	
2025-01-09 12:05:33.46	267.89	22.31	
2025-01-09 12:05:34.69	268.22	22.32	
2025-01-09 12:05:35.92	268.55	22.33	
2025-01-09 12:05:37.16	268.89	22.35	
2025-01-09 12:05:38.39	269.22	22.36	
2025-01-09 12:05:39.62	269.55	22.37	
2025-01-09 12:05:40.86	269.89	22.38	
2025-01-09 12:05:42.09	270.22	22.38	
2025-01-09 12:05:43.32	270.55	22.39	
2025-01-09 12:05:44.55	270.88	22.40	
2025-01-09 12:05:45.78	271.22	22.40	
2025-01-09 12:05:47.01	271.55	22.40	
2025-01-09 12:05:48.24	271.88	22.41	
2025-01-09 12:05:49.47	272.21	22.41	
2025-01-09 12:05:50.70	272.55	22.41	
2025-01-09 12:05:51.94	272.88	22.41	
2025-01-09 12:05:53.17	273.21	22.41	
2025-01-09 12:05:54.40	273.55	22.41	
2025-01-09 12:05:55.63	273.88	22.40	
2025-01-09 12:05:56.86	274.21	22.40	
2025-01-09 12:05:58.09	274.54	22.39	
2025-01-09 12:05:59.33	274.88	22.39	
2025-01-09 12:06:00.55	275.21	22.38	
2025-01-09 12:06:01.79	275.54	22.37	
2025-01-09 12:06:03.03	275.88	22.36	
2025-01-09 12:06:04.27	276.21	22.35	
2025-01-09 12:06:05.50	276.54	22.34	
2025-01-09 12:06:06.73	276.87	22.33	
2025-01-09 12:06:07.96	277.21	22.32	
2025-01-09 12:06:09.20	277.54	22.31	
2025-01-09 12:06:10.43	277.87	22.29	
2025-01-09 12:06:11.66	278.20	22.28	
2025-01-09 12:06:12.89	278.53	22.26	
2025-01-09 12:06:14.12	278.86	22.24	
2025-01-09 12:06:15.35	279.19	22.22	
2025-01-09 12:06:16.58	279.51	22.20	
2025-01-09 12:06:17.81	279.84	22.18	
2025-01-09 12:06:19.05	280.17	22.16	
2025-01-09 12:06:20.27	280.50	22.14	
2025-01-09 12:06:21.50	280.82	22.12	
2025-01-09 12:06:22.73	281.15	22.09	
2025-01-09 12:06:23.98	281.48	22.07	
2025-01-09 12:06:25.20	281.80	22.04	
2025-01-09 12:06:26.43	282.13	22.02	
2025-01-09 12:06:27.66	282.45	21.99	
2025-01-09 12:06:28.91	282.78	21.96	
2025-01-09 12:06:30.14	283.10	21.93	
2025-01-09 12:06:31.37	283.43	21.90	
2025-01-09 12:06:32.60	283.75	21.87	
2025-01-09 12:06:33.84	284.07	21.84	
2025-01-09 12:06:35.07	284.39	21.80	
2025-01-09 12:06:36.32	284.71	21.77	
2025-01-09 12:06:37.55	285.03	21.73	
2025-01-09 12:06:38.78	285.35	21.70	
2025-01-09 12:06:40.01	285.67	21.66	
2025-01-09 12:06:41.24	285.99	21.63	
2025-01-09 12:06:42.47	286.30	21.59	
2025-01-09 12:06:43.70	286.62	21.55	
2025-01-09 12:06:44.93	286.93	21.51	
2025-01-09 12:06:46.17	287.25	21.47	
2025-01-09 12:06:47.40	287.56	21.43	
2025-01-09 12:06:48.63	287.87	21.39	
2025-01-09 12:06:49.86	288.18	21.34	
2025-01-09 12:06:51.09	288.49	21.30	
2025-01-09 12:06:52.32	288.80	21.26	
2025-01-09 12:06:53.56	289.11	21.21	
2025-01-09 12:06:54.79	289.42	21.16	
2025-01-09 12:06:56.02	289.73	21.12	
2025-01-09 12:06:57.25	290.03	21.07	
2025-01-09 12:06:58.48	290.34	21.02	
2025-01-09 12:06:59.71	290.64	20.97	
2025-01-09 12:07:00.94	290.94	20.93	
2025-01-09 12:07:02.17	291.25	20.88	
2025-01-09 12:07:03.40	291.55	20.82	
2025-01-09 12:07:04.63	291.85	20.77	
2025-01-09 12:07:05.87	292.15	20.72	
2025-01-09 12:07:07.10	292.45	20.67	
2025-01-09 12:07:08.33	292.74	20.62	
2025-01-09 12:07:09.56	293.04	20.56	
2025-01-09 12:07:10.80	293.34	20.51	
2025-01-09 12:07:12.03	293.63	20.45	
2025-01-09 12:07:13.26	293.92	20.40	
2025-01-09 12:07:14.49	294.21	20.34	
2025-01-09 12:07:15.72	294.50	20.28	
2025-01-09 12:07:16.97	294.80	20.22	
2025-01-09 12:07:18.21	295.09	20.16	
2025-01-09 12:07:19.44	295.38	20.11	
2025-01-09 12:07:20.69	295.67	20.05	
2025-01-09 12:07:21.92	295.95	19.99	
2025-01-09 12:07:23.16	296.24	19.92	
2025-01-09 12:07:24.39	296.52	19.86	
2025-01-09 12:07:25.62	296.80	19.80	
2025-01-09 12:07:26.85	297.08	19.74	
2025-01-09 12:07:28.09	297.37	19.68	
2025-01-09 12:07:29.33	297.65	19.61	
2025-01-09 12:07:30.57	297.93	19.55	
2025-01-09 12:07:31.81	298.21	19.48	
2025-01-09 12:07:33.05	298.48	19.42	
2025-01-09 12:07:34.28	298.76	19.35	
2025-01-09 12:07:35.51	299.03	19.29	
2025-01-09 12:07:36.75	299.30	19.22	
2025-01-09 12:07:37.98	299.57	19.16	
2025-01-09 12:07:39.21	299.84	19.09	
2025-01-09 12:07:40.44	300.11	19.02	
2025-01-09 12:07:41.67	300.38	18.95	
2025-01-09 12:07:42.90	300.64	18.89	
2025-01-09 12:07:44.13	300.91	18.82	
2025-01-09 12:07:45.36	301.17	18.75	
2025-01-09 12:07:46.60	301.44	18.68	
2025-01-09 12:07:47.83	301.70	18.61	
2025-01-09 12:07:49.06	301.96	18.54	
2025-01-09 12:07:50.29	302.22	18.47	
2025-01-09 12:07:51.52	302.47	18.40	
2025-01-09 12:07:52.76	302.73	18.33	
2025-01-09 12:07:53.98	302.99	18.26	
2025-01-09 12:07:55.22	303.24	18.18	
2025-01-09 12:07:56.45	303.49	18.11	
2025-01-09 12:07:57.69	303.75	18.04	
2025-01-09 12:07:58.92	304.00	17.96	
2025-01-09 12:08:00.17	304.25	17.89	
2025-01-09 12:08:01.41	304.50	17.82	
2025-01-09 12:08:02.64	304.75	17.74	
2025-01-09 12:08:03.87	304.99	17.67	
2025-01-09 12:08:05.11	305.24	17.59	
2025-01-09 12:08:06.34	305.48	17.52	
2025-01-09 12:08:07.57	305.73	17.45	
2025-01-09 12:08:08.80	305.97	17.37	
2025-01-09 12:08:10.04	306.21	17.29	
2025-01-09 12:08:11.27	306.45	17.22	
2025-01-09 12:08:12.50	306.69	17.14	
2025-01-09 12:08:13.72	306.92	17.07	
2025-01-09 12:08:14.95	307.16	16.99	
2025-01-09 12:08:16.19	307.39	16.91	
2025-01-09 12:08:17.44	307.63	16.84	
2025-01-09 12:08:18.68	307.86	16.76	
2025-01-09 12:08:19.91	308.09	16.68	
2025-01-09 12:08:21.14	308.32	16.61	
2025-01-09 12:08:22.37	308.55	16.53	
2025-01-09 12:08:23.60	308.78	16.45	
2025-01-09 12:08:24.85	309.01	16.37	
2025-01-09 12:08:26.08	309.23	16.29	
2025-01-09 12:08:27.31	309.45	16.22	
2025-01-09 12:08:28.55	309.68	16.14	
2025-01-09 12:08:29.79	309.90	16.06	
2025-01-09 12:08:31.01	310.12	15.98	
2025-01-09 12:08:32.24	310.34	15.90	
2025-01-09 12:08:33.48	310.56	15.82	
2025-01-09 12:08:34.71	310.78	15.74	
2025-01-09 12:08:35.94	310.99	15.66	
2025-01-09 12:08:37.17	311.21	15.58	
2025-01-09 12:08:38.40	311.42	15.51	
2025-01-09 12:08:39.63	311.63	15.43	
2025-01-09 12:08:40.87	311.85	15.35	
2025-01-09 12:08:42.11	312.06	15.27	
2025-01-09 12:08:43.34	312.27	15.19	
2025-01-09 12:08:44.58	312.48	15.11	
2025-01-09 12:08:45.81	312.68	15.03	
2025-01-09 12:08:47.05	312.89	14.95	
2025-01-09 12:08:48.28	313.10	14.87	
2025-01-09 12:08:49.51	313.30	14.79	
2025-01-09 12:08:50.74	313.50	14.71	
2025-01-09 12:08:51.97	313.70	14.63	
2025-01-09 12:08:53.20	313.90	14.55	
2025-01-09 12:08:54.44	314.11	14.46	
2025-01-09 12:08:55.67	314.30	14.38	
2025-01-09 12:08:56.90	314.50	14.30	
2025-01-09 12:08:58.13	314.70	14.22	
2025-01-09 12:08:59.36	314.89	14.14	
2025-01-09 12:09:00.59	315.09	14.06	
2025-01-09 12:09:01.81	315.28	13.98	
2025-01-09 12:09:03.06	315.47	13.90	
2025-01-09 12:09:04.29	315.67	13.82	
2025-01-09 12:09:05.52	315.86	13.74	
2025-01-09 12:09:06.75	316.05	13.66	
2025-01-09 12:09:08.00	316.24	13.58	
2025-01-09 12:09:09.24	316.43	13.50	
2025-01-09 12:09:10.47	316.61	13.42	
2025-01-09 12:09:11.70	316.80	13.33	
2025-01-09 12:09:12.95	316.98	13.25	
2025-01-09 12:09:14.18	317.17	13.17	
2025-01-09 12:09:15.41	317.35	13.09	
2025-01-09 12:09:16.64	317.53	13.01	
2025-01-09 12:09:17.87	317.71	12.93	
2025-01-09 12:09:19.10	317.89	12.85	
2025-01-09 12:09:20.34	318.07	12.77	
2025-01-09 12:09:21.58	318.25	12.69	
2025-01-09 12:09:22.80	318.43	12.61	
2025-01-09 12:09:24.03	318.60	12.53	
2025-01-09 12:09:25.26	318.78	12.45	
2025-01-09 12:09:26.50	318.95	12.37	
2025-01-09 12:09:27.73	319.12	12.29	
2025-01-09 12:09:28.96	319.30	12.20	
2025-01-09 12:09:30.21	319.47	12.12	
2025-01-09 12:09:31.43	319.64	12.04	
2025-01-09 12:09:32.67	319.81	11.96	
2025-01-09 12:09:33.90	319.98	11.88	
2025-01-09 12:09:35.13	320.15	11.80	
2025-01-09 12:09:36.36	320.31	11.72	
2025-01-09 12:09:37.59	320.48	11.64	
2025-01-09 12:09:38.83	320.64	11.56	
2025-01-09 12:09:40.06	320.81	11.48	
2025-01-09 12:09:41.29	320.97	11.40	
2025-01-09 12:09:42.52	321.13	11.32	
2025-01-09 12:09:43.75	321.30	11.24	
2025-01-09 12:09:44.98	321.46	11.16	
2025-01-09 12:09:46.22	321.62	11.08	
2025-01-09 12:09:47.45	321.78	11.00	
2025-01-09 12:09:48.70	321.94	10.92	
2025-01-09 12:09:49.93	322.09	10.84	
2025-01-09 12:09:51.15	322.25	10.76	
2025-01-09 12:09:52.38	322.41	10.69	
2025-01-09 12:09:53.62	322.56	10.61	
2025-01-09 12:09:54.85	322.72	10.53	
2025-01-09 12:09:56.09	322.87	10.45	
2025-01-09 12:09:57.32	323.02	10.37	
2025-01-09 12:09:58.55	323.17	10.29	
2025-01-09 12:09:59.78	323.32	10.21	
2025-01-09 12:10:01.03	323.48	10.13	
2025-01-09 12:10:02.27	323.63	10.05	
2025-01-09 12:10:03.52	323.78	9.97	
2025-01-09 12:10:04.75	323.93	9.89	
2025-01-09 12:10:05.97	324.07	9.82	
2025-01-09 12:10:07.22	324.22	9.74	
2025-01-09 12:10:08.47	324.37	9.66	
2025-01-09 12:10:09.71	324.51	9.58	
2025-01-09 12:10:10.95	324.66	9.50	
2025-01-09 12:10:12.18	324.80	9.42	
2025-01-09 12:10:13.41	324.95	9.34	
2025-01-09 12:10:14.64	325.09	9.27	
2025-01-09 12:10:15.88	325.23	9.19	
2025-01-09 12:10:17.11	325.37	9.11	
2025-01-09 12:10:18.34	325.51	9.03	
2025-01-09 12:10:19.58	325.65	8.95	
2025-01-09 12:10:20.81	325.79	8.88	
2025-01-09 12:10:22.04	325.93	8.80	
2025-01-09 12:10:23.28	326.06	8.72	
2025-01-09 12:10:24.51	326.20	8.65	
2025-01-09 12:10:25.73	326.33	8.57	
2025-01-09 12:10:26.96	326.47	8.49	
2025-01-09 12:10:28.20	326.60	8.42	
2025-01-09 12:10:29.44	326.74	8.34	
2025-01-09 12:10:30.69	326.87	8.26	
2025-01-09 12:10:31.94	327.01	8.18	
2025-01-09 12:10:33.17	327.14	8.11	
2025-01-09 12:10:34.40	327.27	8.03	
2025-01-09 12:10:35.63	327.40	7.96	
2025-01-09 12:10:36.88	327.53	7.88	
2025-01-09 12:10:38.12	327.66	7.80	
2025-01-09 12:10:39.35	327.79	7.73	
2025-01-09 12:10:40.58	327.92	7.65	
2025-01-09 12:10:41.81	328.04	7.58	
2025-01-09 12:10:43.04	328.17	7.50	
2025-01-09 12:10:44.27	328.30	7.42	
2025-01-09 12:10:45.51	328.42	7.35	
2025-01-09 12:10:46.74	328.55	7.27	
2025-01-09 12:10:47.97	328.67	7.20	
2025-01-09 12:10:49.20	328.79	7.12	
2025-01-09 12:10:50.43	328.92	7.05	
2025-01-09 12:10:51.66	329.04	6.98	
2025-01-09 12:10:52.90	329.16	6.90	
2025-01-09 12:10:54.14	329.28	6.83	
2025-01-09 12:10:55.37	329.40	6.75	
2025-01-09 12:10:56.61	329.52	6.68	
2025-01-09 12:10:57.84	329.64	6.60	
2025-01-09 12:10:59.07	329.76	6.53	
2025-01-09 12:11:00.30	329.88	6.46	
2025-01-09 12:11:01.54	330.00	6.38	
2025-01-09 12:11:02.77	330.11	6.31	
2025-01-09 12:11:04.00	330.23	6.23	
2025-01-09 12:11:05.24	330.35	6.16	
2025-01-09 12:11:06.46	330.46	6.09	
2025-01-09 12:11:07.69	330.57	6.01	
2025-01-09 12:11:08.92	330.69	5.94	
2025-01-09 12:11:10.16	330.80	5.87	
2025-01-09 12:11:11.39	330.92	5.80	
2025-01-09 12:11:12.62	331.03	5.72	
2025-01-09 12:11:13.85	331.14	5.65	
2025-01-09 12:11:15.08	331.25	5.58	
2025-01-09 12:11:16.31	331.36	5.51	
2025-01-09 12:11:17.56	331.47	5.43	
2025-01-09 12:11:18.79	331.58	5.36	
2025-01-09 12:11:20.04	331.70	5.29	
2025-01-09 12:11:21.27	331.80	5.22	
2025-01-09 12:11:22.50	331.91	5.14	
2025-01-09 12:11:23.73	332.02	5.07	
2025-01-09 12:11:24.97	332.13	5.00	
2025-01-09 12:11:26.20	332.24	4.93	
2025-01-09 12:11:27.43	332.34	4.86	
2025-01-09 12:11:28.66	332.45	4.79	
2025-01-09 12:11:29.89	332.55	4.72	
2025-01-09 12:11:31.12	332.66	4.65	
2025-01-09 12:11:32.35	332.76	4.57	
2025-01-09 12:11:33.58	332.87	4.50	
2025-01-09 12:11:34.83	332.97	4.43	
2025-01-09 12:11:36.06	333.07	4.36	
2025-01-09 12:11:37.31	333.18	4.29	
2025-01-09 12:11:38.54	333.28	4.22	
2025-01-09 12:11:39.78	333.38	4.15	
2025-01-09 12:11:41.01	333.48	4.08	
2025-01-09 12:11:42.24	333.58	4.01	

#Closed at: 2025-01-09 12:11:42