passes_logs/2025/01/09/SPB_Silybum_02/SPB_Silybum_02__20250109_183137_TERRA_rec.log

#Pass ID: 20250109_183137_TERRA
#Satellite: TERRA
#Configuration: TERRA
#Start time: 2025-01-09 18:31:37

#Version: 2.0.20230423
#Station: SPB_Silybum_02
#Location: 30.233357 lon 59.946436 lat
#TLE: 1 25994U 99068A   25008.82275774  .00000946  00000+0  20487-3 0  9990
#TLE: 2 25994  98.0228  72.0493 0003564  84.8498   6.9254 14.60383008333170

#Time	Az	El	Level	Level2	SNR	BER	Gain	Gain2
2025-01-09 18:31:39.97	161.28	4.16	
2025-01-09 18:31:41.21	161.29	4.25	
2025-01-09 18:31:42.44	161.29	4.34	
2025-01-09 18:31:43.67	161.30	4.43	
2025-01-09 18:31:44.90	161.30	4.52	
2025-01-09 18:31:46.14	161.31	4.61	
2025-01-09 18:31:47.38	161.31	4.71	
2025-01-09 18:31:48.62	161.32	4.80	
2025-01-09 18:31:49.85	161.32	4.89	
2025-01-09 18:31:51.10	161.33	4.98	
2025-01-09 18:31:52.33	161.33	5.08	
2025-01-09 18:31:53.56	161.34	5.17	
2025-01-09 18:31:54.80	161.34	5.26	
2025-01-09 18:31:56.03	161.35	5.36	
2025-01-09 18:31:57.26	161.35	5.45	
2025-01-09 18:31:58.49	161.36	5.55	
2025-01-09 18:31:59.72	161.36	5.64	
2025-01-09 18:32:00.95	161.37	5.74	
2025-01-09 18:32:02.18	161.37	5.83	
2025-01-09 18:32:03.41	161.38	5.93	
2025-01-09 18:32:04.65	161.38	6.02	
2025-01-09 18:32:05.88	161.39	6.12	
2025-01-09 18:32:07.11	161.39	6.22	
2025-01-09 18:32:08.34	161.40	6.32	
2025-01-09 18:32:09.57	161.40	6.41	
2025-01-09 18:32:10.80	161.41	6.51	
2025-01-09 18:32:12.03	161.41	6.61	
2025-01-09 18:32:13.27	161.42	6.71	
2025-01-09 18:32:14.51	161.42	6.81	
2025-01-09 18:32:15.74	161.43	6.91	
2025-01-09 18:32:16.98	161.43	7.01	
2025-01-09 18:32:18.21	161.44	7.11	
2025-01-09 18:32:19.44	161.45	7.21	
2025-01-09 18:32:20.67	161.45	7.32	
2025-01-09 18:32:21.91	161.46	7.42	
2025-01-09 18:32:23.14	161.46	7.52	
2025-01-09 18:32:24.37	161.47	7.63	
2025-01-09 18:32:25.61	161.47	7.73	
2025-01-09 18:32:26.84	161.48	7.83	
2025-01-09 18:32:28.07	161.48	7.94	
2025-01-09 18:32:29.32	161.49	8.05	
2025-01-09 18:32:30.55	161.49	8.15	
2025-01-09 18:32:31.78	161.50	8.26	
2025-01-09 18:32:33.02	161.50	8.37	
2025-01-09 18:32:34.25	161.51	8.47	
2025-01-09 18:32:35.48	161.51	8.58	
2025-01-09 18:32:36.71	161.52	8.69	
2025-01-09 18:32:37.94	161.52	8.80	
2025-01-09 18:32:39.17	161.53	8.91	
2025-01-09 18:32:40.40	161.54	9.02	
2025-01-09 18:32:41.62	161.54	9.13	
2025-01-09 18:32:42.85	161.55	9.24	
2025-01-09 18:32:44.08	161.55	9.35	
2025-01-09 18:32:45.31	161.56	9.46	
2025-01-09 18:32:46.54	161.56	9.57	
2025-01-09 18:32:47.77	161.57	9.69	
2025-01-09 18:32:49.00	161.57	9.80	
2025-01-09 18:32:50.23	161.58	9.91	
2025-01-09 18:32:51.46	161.58	10.03	
2025-01-09 18:32:52.69	161.59	10.14	
2025-01-09 18:32:53.92	161.60	10.26	
2025-01-09 18:32:55.15	161.60	10.38	
2025-01-09 18:32:56.38	161.61	10.49	
2025-01-09 18:32:57.61	161.61	10.61	
2025-01-09 18:32:58.84	161.62	10.73	
2025-01-09 18:33:00.07	161.62	10.85	
2025-01-09 18:33:01.30	161.63	10.97	
2025-01-09 18:33:02.54	161.64	11.09	
2025-01-09 18:33:03.77	161.64	11.21	
2025-01-09 18:33:05.00	161.65	11.33	
2025-01-09 18:33:06.22	161.65	11.45	
2025-01-09 18:33:07.46	161.66	11.58	
2025-01-09 18:33:08.69	161.66	11.70	
2025-01-09 18:33:09.92	161.67	11.83	
2025-01-09 18:33:11.15	161.68	11.95	
2025-01-09 18:33:12.39	161.68	12.08	
2025-01-09 18:33:13.62	161.69	12.21	
2025-01-09 18:33:14.85	161.69	12.33	
2025-01-09 18:33:16.09	161.70	12.46	
2025-01-09 18:33:17.33	161.71	12.59	
2025-01-09 18:33:18.58	161.71	12.72	
2025-01-09 18:33:19.81	161.72	12.86	
2025-01-09 18:33:21.05	161.72	12.99	
2025-01-09 18:33:22.28	161.73	13.12	
2025-01-09 18:33:23.51	161.74	13.25	
2025-01-09 18:33:24.74	161.74	13.39	
2025-01-09 18:33:25.97	161.75	13.52	
2025-01-09 18:33:27.20	161.75	13.66	
2025-01-09 18:33:28.43	161.76	13.79	
2025-01-09 18:33:29.66	161.77	13.93	
2025-01-09 18:33:30.90	161.77	14.07	
2025-01-09 18:33:32.15	161.78	14.21	
2025-01-09 18:33:33.38	161.78	14.35	
2025-01-09 18:33:34.61	161.79	14.49	
2025-01-09 18:33:35.84	161.80	14.63	
2025-01-09 18:33:37.07	161.80	14.77	
2025-01-09 18:33:38.30	161.81	14.92	
2025-01-09 18:33:39.53	161.82	15.06	
2025-01-09 18:33:40.76	161.82	15.21	
2025-01-09 18:33:41.99	161.83	15.35	
2025-01-09 18:33:43.22	161.83	15.50	
2025-01-09 18:33:44.46	161.84	15.65	
2025-01-09 18:33:45.69	161.85	15.80	
2025-01-09 18:33:46.91	161.85	15.95	
2025-01-09 18:33:48.15	161.86	16.10	
2025-01-09 18:33:49.37	161.87	16.25	
2025-01-09 18:33:50.61	161.87	16.40	
2025-01-09 18:33:51.84	161.88	16.56	
2025-01-09 18:33:53.06	161.89	16.71	
2025-01-09 18:33:54.29	161.89	16.87	
2025-01-09 18:33:55.54	161.90	17.03	
2025-01-09 18:33:56.77	161.91	17.19	
2025-01-09 18:33:58.02	161.91	17.35	
2025-01-09 18:33:59.25	161.92	17.51	
2025-01-09 18:34:00.48	161.93	17.67	
2025-01-09 18:34:01.72	161.93	17.84	
2025-01-09 18:34:02.95	161.94	18.00	
2025-01-09 18:34:04.18	161.95	18.17	
2025-01-09 18:34:05.41	161.96	18.34	
2025-01-09 18:34:06.65	161.96	18.51	
2025-01-09 18:34:07.89	161.97	18.68	
2025-01-09 18:34:09.13	161.98	18.85	
2025-01-09 18:34:10.37	161.98	19.02	
2025-01-09 18:34:11.60	161.99	19.20	
2025-01-09 18:34:12.83	162.00	19.37	
2025-01-09 18:34:14.06	162.01	19.55	
2025-01-09 18:34:15.31	162.01	19.73	
2025-01-09 18:34:16.54	162.02	19.91	
2025-01-09 18:34:17.77	162.03	20.09	
2025-01-09 18:34:19.01	162.03	20.27	
2025-01-09 18:34:20.25	162.04	20.46	
2025-01-09 18:34:21.48	162.05	20.64	
2025-01-09 18:34:22.71	162.06	20.83	
2025-01-09 18:34:23.96	162.07	21.02	
2025-01-09 18:34:25.18	162.07	21.21	
2025-01-09 18:34:26.41	162.08	21.40	
2025-01-09 18:34:27.64	162.09	21.59	
2025-01-09 18:34:28.87	162.10	21.78	
2025-01-09 18:34:30.10	162.10	21.98	
2025-01-09 18:34:31.33	162.11	22.18	
2025-01-09 18:34:32.56	162.12	22.38	
2025-01-09 18:34:33.79	162.13	22.58	
2025-01-09 18:34:35.02	162.14	22.78	
2025-01-09 18:34:36.25	162.14	22.99	
2025-01-09 18:34:37.50	162.15	23.19	
2025-01-09 18:34:38.73	162.16	23.40	
2025-01-09 18:34:39.96	162.17	23.61	
2025-01-09 18:34:41.20	162.18	23.83	
2025-01-09 18:34:42.43	162.19	24.04	
2025-01-09 18:34:43.66	162.19	24.26	
2025-01-09 18:34:44.89	162.20	24.47	
2025-01-09 18:34:46.12	162.21	24.69	
2025-01-09 18:34:47.37	162.22	24.92	
2025-01-09 18:34:48.61	162.23	25.14	
2025-01-09 18:34:49.84	162.24	25.37	
2025-01-09 18:34:51.07	162.25	25.60	
2025-01-09 18:34:52.32	162.25	25.83	
2025-01-09 18:34:53.56	162.26	26.06	
2025-01-09 18:34:54.81	162.27	26.30	
2025-01-09 18:34:56.04	162.28	26.54	
2025-01-09 18:34:57.27	162.29	26.78	
2025-01-09 18:34:58.50	162.30	27.02	
2025-01-09 18:34:59.75	162.31	27.26	
2025-01-09 18:35:00.98	162.32	27.51	
2025-01-09 18:35:02.22	162.33	27.76	
2025-01-09 18:35:03.46	162.34	28.01	
2025-01-09 18:35:04.69	162.35	28.26	
2025-01-09 18:35:05.92	162.36	28.52	
2025-01-09 18:35:07.15	162.37	28.78	
2025-01-09 18:35:08.38	162.38	29.04	
2025-01-09 18:35:09.62	162.39	29.30	
2025-01-09 18:35:10.85	162.40	29.57	
2025-01-09 18:35:12.08	162.41	29.84	
2025-01-09 18:35:13.31	162.42	30.11	
2025-01-09 18:35:14.54	162.43	30.38	
2025-01-09 18:35:15.77	162.44	30.66	
2025-01-09 18:35:17.00	162.45	30.94	
2025-01-09 18:35:18.23	162.46	31.22	
2025-01-09 18:35:19.46	162.47	31.51	
2025-01-09 18:35:20.69	162.49	31.80	
2025-01-09 18:35:21.92	162.50	32.09	
2025-01-09 18:35:23.15	162.51	32.38	
2025-01-09 18:35:24.38	162.52	32.68	
2025-01-09 18:35:25.61	162.53	32.98	
2025-01-09 18:35:26.84	162.54	33.28	
2025-01-09 18:35:28.07	162.56	33.59	
2025-01-09 18:35:29.30	162.57	33.90	
2025-01-09 18:35:30.53	162.58	34.22	
2025-01-09 18:35:31.76	162.59	34.53	
2025-01-09 18:35:32.99	162.60	34.86	
2025-01-09 18:35:34.22	162.62	35.18	
2025-01-09 18:35:35.45	162.63	35.51	
2025-01-09 18:35:36.68	162.64	35.84	
2025-01-09 18:35:37.92	162.66	36.18	
2025-01-09 18:35:39.15	162.67	36.52	
2025-01-09 18:35:40.37	162.68	36.86	
2025-01-09 18:35:41.61	162.70	37.21	
2025-01-09 18:35:42.84	162.71	37.56	
2025-01-09 18:35:44.07	162.73	37.91	
2025-01-09 18:35:45.30	162.74	38.27	
2025-01-09 18:35:46.52	162.76	38.63	
2025-01-09 18:35:47.76	162.77	39.00	
2025-01-09 18:35:49.00	162.79	39.37	
2025-01-09 18:35:50.23	162.80	39.75	
2025-01-09 18:35:51.47	162.82	40.13	
2025-01-09 18:35:52.70	162.84	40.51	
2025-01-09 18:35:53.92	162.85	40.90	
2025-01-09 18:35:55.16	162.87	41.29	
2025-01-09 18:35:56.39	162.89	41.69	
2025-01-09 18:35:57.63	162.90	42.10	
2025-01-09 18:35:58.86	162.92	42.50	
2025-01-09 18:36:00.10	162.94	42.92	
2025-01-09 18:36:01.33	162.96	43.33	
2025-01-09 18:36:02.56	162.98	43.75	
2025-01-09 18:36:03.80	163.00	44.18	
2025-01-09 18:36:05.03	163.02	44.61	
2025-01-09 18:36:06.27	163.04	45.05	
2025-01-09 18:36:07.50	163.06	45.49	
2025-01-09 18:36:08.74	163.08	45.94	
2025-01-09 18:36:09.97	163.10	46.39	
2025-01-09 18:36:11.21	163.12	46.85	
2025-01-09 18:36:12.44	163.15	47.31	
2025-01-09 18:36:13.67	163.17	47.78	
2025-01-09 18:36:14.90	163.19	48.25	
2025-01-09 18:36:16.14	163.22	48.73	
2025-01-09 18:36:17.37	163.24	49.21	
2025-01-09 18:36:18.61	163.27	49.71	
2025-01-09 18:36:19.84	163.30	50.20	
2025-01-09 18:36:21.07	163.32	50.70	
2025-01-09 18:36:22.29	163.35	51.20	
2025-01-09 18:36:23.52	163.38	51.71	
2025-01-09 18:36:24.75	163.41	52.23	
2025-01-09 18:36:25.98	163.44	52.75	
2025-01-09 18:36:27.21	163.47	53.28	
2025-01-09 18:36:28.44	163.50	53.81	
2025-01-09 18:36:29.67	163.54	54.35	
2025-01-09 18:36:30.90	163.57	54.90	
2025-01-09 18:36:32.14	163.61	55.45	
2025-01-09 18:36:33.38	163.65	56.01	
2025-01-09 18:36:34.61	163.69	56.58	
2025-01-09 18:36:35.84	163.73	57.15	
2025-01-09 18:36:37.07	163.77	57.72	
2025-01-09 18:36:38.30	163.81	58.30	
2025-01-09 18:36:39.53	163.86	58.89	
2025-01-09 18:36:40.76	163.90	59.48	
2025-01-09 18:36:41.99	163.95	60.08	
2025-01-09 18:36:43.23	164.00	60.69	
2025-01-09 18:36:44.47	164.06	61.31	
2025-01-09 18:36:45.71	164.11	61.93	
2025-01-09 18:36:46.94	164.17	62.55	
2025-01-09 18:36:48.17	164.23	63.18	
2025-01-09 18:36:49.41	164.30	63.82	
2025-01-09 18:36:50.65	164.37	64.47	
2025-01-09 18:36:51.88	164.44	65.11	
2025-01-09 18:36:53.11	164.52	65.76	
2025-01-09 18:36:54.34	164.60	66.42	
2025-01-09 18:36:55.57	164.68	67.08	
2025-01-09 18:36:56.81	164.77	67.75	
2025-01-09 18:36:58.04	164.87	68.43	
2025-01-09 18:36:59.29	164.98	69.12	
2025-01-09 18:37:00.51	165.08	69.80	
2025-01-09 18:37:01.74	165.20	70.48	
2025-01-09 18:37:02.98	165.33	71.18	
2025-01-09 18:37:04.21	165.47	71.88	
2025-01-09 18:37:05.43	165.62	72.58	
2025-01-09 18:37:06.68	165.78	73.30	
2025-01-09 18:37:07.91	165.96	74.01	
2025-01-09 18:37:09.16	166.15	74.73	
2025-01-09 18:37:10.40	166.37	75.46	
2025-01-09 18:37:11.63	166.60	76.18	
2025-01-09 18:37:12.86	166.86	76.91	
2025-01-09 18:37:14.09	167.16	77.64	
2025-01-09 18:37:15.32	167.49	78.37	
2025-01-09 18:37:16.55	167.87	79.11	
2025-01-09 18:37:17.78	168.30	79.85	
2025-01-09 18:37:19.01	168.80	80.59	
2025-01-09 18:37:20.23	169.38	81.33	
2025-01-09 18:37:21.47	170.08	82.08	
2025-01-09 18:37:22.70	170.92	82.82	
2025-01-09 18:37:23.93	171.96	83.57	
2025-01-09 18:37:25.16	173.27	84.31	
2025-01-09 18:37:26.40	174.99	85.06	
2025-01-09 18:37:27.63	177.31	85.80	
2025-01-09 18:37:28.85	180.57	86.52	
2025-01-09 18:37:30.08	185.57	87.24	
2025-01-09 18:37:31.31	193.94	87.91	
2025-01-09 18:37:32.54	209.58	88.51	
2025-01-09 18:37:33.78	239.88	88.88	
2025-01-09 18:37:35.01	277.74	88.78	
2025-01-09 18:37:36.25	301.92	88.30	
2025-01-09 18:37:37.49	314.22	87.66	
2025-01-09 18:37:38.72	321.01	86.97	
2025-01-09 18:37:39.95	325.23	86.25	
2025-01-09 18:37:41.19	328.11	85.51	
2025-01-09 18:37:42.43	330.16	84.76	
2025-01-09 18:37:43.66	331.69	84.02	
2025-01-09 18:37:44.89	332.88	83.27	
2025-01-09 18:37:46.13	333.84	82.52	
2025-01-09 18:37:47.37	334.63	81.77	
2025-01-09 18:37:48.61	335.28	81.02	
2025-01-09 18:37:49.84	335.83	80.28	
2025-01-09 18:37:51.07	336.29	79.54	
2025-01-09 18:37:52.30	336.70	78.81	
2025-01-09 18:37:53.54	337.06	78.07	
2025-01-09 18:37:54.76	337.37	77.34	
2025-01-09 18:37:55.99	337.65	76.61	
2025-01-09 18:37:57.23	337.90	75.88	
2025-01-09 18:37:58.46	338.13	75.16	
2025-01-09 18:37:59.70	338.34	74.44	
2025-01-09 18:38:00.94	338.52	73.72	
2025-01-09 18:38:02.17	338.69	73.01	
2025-01-09 18:38:03.42	338.85	72.30	
2025-01-09 18:38:04.65	339.00	71.60	
2025-01-09 18:38:05.88	339.13	70.90	
2025-01-09 18:38:07.11	339.25	70.21	
2025-01-09 18:38:08.34	339.37	69.53	
2025-01-09 18:38:09.57	339.47	68.85	
2025-01-09 18:38:10.80	339.57	68.17	
2025-01-09 18:38:12.03	339.67	67.50	
2025-01-09 18:38:13.26	339.76	66.84	
2025-01-09 18:38:14.49	339.84	66.18	
2025-01-09 18:38:15.74	339.92	65.52	
2025-01-09 18:38:16.98	339.99	64.86	
2025-01-09 18:38:18.21	340.07	64.22	
2025-01-09 18:38:19.44	340.13	63.59	
2025-01-09 18:38:20.67	340.20	62.96	
2025-01-09 18:38:21.92	340.26	62.32	
2025-01-09 18:38:23.14	340.31	61.71	
2025-01-09 18:38:24.37	340.37	61.10	
2025-01-09 18:38:25.60	340.42	60.49	
2025-01-09 18:38:26.83	340.47	59.89	
2025-01-09 18:38:28.07	340.52	59.29	
2025-01-09 18:38:29.29	340.57	58.70	
2025-01-09 18:38:30.53	340.61	58.12	
2025-01-09 18:38:31.75	340.66	57.54	
2025-01-09 18:38:32.98	340.70	56.97	
2025-01-09 18:38:34.21	340.74	56.41	
2025-01-09 18:38:35.45	340.78	55.84	
2025-01-09 18:38:36.68	340.81	55.29	
2025-01-09 18:38:37.90	340.85	54.75	
2025-01-09 18:38:39.13	340.88	54.21	
2025-01-09 18:38:40.36	340.92	53.67	
2025-01-09 18:38:41.60	340.95	53.14	
2025-01-09 18:38:42.83	340.98	52.61	
2025-01-09 18:38:44.06	341.01	52.09	
2025-01-09 18:38:45.30	341.04	51.58	
2025-01-09 18:38:46.53	341.07	51.07	
2025-01-09 18:38:47.76	341.10	50.57	
2025-01-09 18:38:48.99	341.12	50.07	
2025-01-09 18:38:50.22	341.15	49.58	
2025-01-09 18:38:51.45	341.18	49.10	
2025-01-09 18:38:52.69	341.20	48.61	
2025-01-09 18:38:53.92	341.23	48.14	
2025-01-09 18:38:55.15	341.25	47.67	
2025-01-09 18:38:56.39	341.27	47.21	
2025-01-09 18:38:57.62	341.30	46.75	
2025-01-09 18:38:58.86	341.32	46.29	
2025-01-09 18:39:00.09	341.34	45.85	
2025-01-09 18:39:01.32	341.36	45.40	
2025-01-09 18:39:02.56	341.38	44.96	
2025-01-09 18:39:03.80	341.40	44.53	
2025-01-09 18:39:05.05	341.42	44.09	
2025-01-09 18:39:06.28	341.44	43.67	
2025-01-09 18:39:07.51	341.46	43.25	
2025-01-09 18:39:08.74	341.48	42.84	
2025-01-09 18:39:09.98	341.50	42.43	
2025-01-09 18:39:11.24	341.52	42.02	
2025-01-09 18:39:12.47	341.54	41.62	
2025-01-09 18:39:13.71	341.55	41.22	
2025-01-09 18:39:14.94	341.57	40.83	
2025-01-09 18:39:16.17	341.59	40.45	
2025-01-09 18:39:17.40	341.60	40.07	
2025-01-09 18:39:18.63	341.62	39.69	
2025-01-09 18:39:19.87	341.64	39.32	
2025-01-09 18:39:21.12	341.65	38.94	
2025-01-09 18:39:22.35	341.67	38.58	
2025-01-09 18:39:23.58	341.68	38.22	
2025-01-09 18:39:24.81	341.70	37.86	
2025-01-09 18:39:26.04	341.71	37.51	
2025-01-09 18:39:27.27	341.73	37.16	
2025-01-09 18:39:28.51	341.74	36.82	
2025-01-09 18:39:29.74	341.76	36.48	
2025-01-09 18:39:30.97	341.77	36.14	
2025-01-09 18:39:32.20	341.78	35.81	
2025-01-09 18:39:33.44	341.80	35.48	
2025-01-09 18:39:34.67	341.81	35.15	
2025-01-09 18:39:35.90	341.82	34.83	
2025-01-09 18:39:37.14	341.84	34.51	
2025-01-09 18:39:38.37	341.85	34.19	
2025-01-09 18:39:39.60	341.86	33.88	
2025-01-09 18:39:40.84	341.87	33.57	
2025-01-09 18:39:42.07	341.89	33.27	
2025-01-09 18:39:43.30	341.90	32.96	
2025-01-09 18:39:44.53	341.91	32.67	
2025-01-09 18:39:45.78	341.92	32.37	
2025-01-09 18:39:47.01	341.94	32.07	
2025-01-09 18:39:48.24	341.95	31.78	
2025-01-09 18:39:49.47	341.96	31.50	
2025-01-09 18:39:50.72	341.97	31.21	
2025-01-09 18:39:51.95	341.98	30.93	
2025-01-09 18:39:53.18	341.99	30.65	
2025-01-09 18:39:54.41	342.00	30.38	
2025-01-09 18:39:55.64	342.02	30.11	
2025-01-09 18:39:56.87	342.03	29.84	
2025-01-09 18:39:58.10	342.04	29.57	
2025-01-09 18:39:59.33	342.05	29.31	
2025-01-09 18:40:00.58	342.06	29.04	
2025-01-09 18:40:01.81	342.07	28.78	
2025-01-09 18:40:03.04	342.08	28.53	
2025-01-09 18:40:04.27	342.09	28.27	
2025-01-09 18:40:05.50	342.10	28.02	
2025-01-09 18:40:06.73	342.11	27.77	
2025-01-09 18:40:07.97	342.12	27.53	
2025-01-09 18:40:09.20	342.13	27.28	
2025-01-09 18:40:10.43	342.14	27.04	
2025-01-09 18:40:11.66	342.15	26.80	
2025-01-09 18:40:12.91	342.16	26.56	
2025-01-09 18:40:14.15	342.17	26.32	
2025-01-09 18:40:15.38	342.18	26.09	
2025-01-09 18:40:16.62	342.19	25.86	
2025-01-09 18:40:17.86	342.20	25.63	
2025-01-09 18:40:19.10	342.21	25.40	
2025-01-09 18:40:20.35	342.22	25.17	
2025-01-09 18:40:21.57	342.23	24.95	
2025-01-09 18:40:22.81	342.24	24.73	
2025-01-09 18:40:24.04	342.24	24.52	
2025-01-09 18:40:25.27	342.25	24.30	
2025-01-09 18:40:26.51	342.26	24.08	
2025-01-09 18:40:27.75	342.27	23.87	
2025-01-09 18:40:28.98	342.28	23.66	
2025-01-09 18:40:30.22	342.29	23.45	
2025-01-09 18:40:31.45	342.30	23.24	
2025-01-09 18:40:32.68	342.31	23.04	
2025-01-09 18:40:33.91	342.32	22.83	
2025-01-09 18:40:35.14	342.32	22.63	
2025-01-09 18:40:36.37	342.33	22.43	
2025-01-09 18:40:37.61	342.34	22.23	
2025-01-09 18:40:38.84	342.35	22.04	
2025-01-09 18:40:40.07	342.36	21.84	
2025-01-09 18:40:41.31	342.37	21.65	
2025-01-09 18:40:42.54	342.38	21.46	
2025-01-09 18:40:43.77	342.38	21.27	
2025-01-09 18:40:45.00	342.39	21.08	
2025-01-09 18:40:46.24	342.40	20.89	
2025-01-09 18:40:47.47	342.41	20.71	
2025-01-09 18:40:48.70	342.42	20.52	
2025-01-09 18:40:49.93	342.42	20.34	
2025-01-09 18:40:51.17	342.43	20.16	
2025-01-09 18:40:52.40	342.44	19.98	
2025-01-09 18:40:53.66	342.45	19.80	
2025-01-09 18:40:54.89	342.46	19.62	
2025-01-09 18:40:56.12	342.46	19.44	
2025-01-09 18:40:57.35	342.47	19.27	
2025-01-09 18:40:58.59	342.48	19.10	
2025-01-09 18:40:59.82	342.49	18.93	
2025-01-09 18:41:01.05	342.50	18.76	
2025-01-09 18:41:02.27	342.50	18.59	
2025-01-09 18:41:03.52	342.51	18.42	
2025-01-09 18:41:04.75	342.52	18.25	
2025-01-09 18:41:05.98	342.53	18.09	
2025-01-09 18:41:07.22	342.53	17.92	
2025-01-09 18:41:08.44	342.54	17.76	
2025-01-09 18:41:09.68	342.55	17.60	
2025-01-09 18:41:10.91	342.56	17.44	
2025-01-09 18:41:12.14	342.56	17.28	
2025-01-09 18:41:13.37	342.57	17.12	
2025-01-09 18:41:14.61	342.58	16.96	
2025-01-09 18:41:15.85	342.59	16.81	
2025-01-09 18:41:17.07	342.59	16.65	
2025-01-09 18:41:18.31	342.60	16.50	
2025-01-09 18:41:19.54	342.61	16.35	
2025-01-09 18:41:20.78	342.62	16.19	
2025-01-09 18:41:22.01	342.62	16.04	
2025-01-09 18:41:23.24	342.63	15.89	
2025-01-09 18:41:24.47	342.64	15.75	
2025-01-09 18:41:25.70	342.65	15.60	
2025-01-09 18:41:26.93	342.65	15.45	
2025-01-09 18:41:28.17	342.66	15.31	
2025-01-09 18:41:29.41	342.67	15.16	
2025-01-09 18:41:30.64	342.67	15.02	
2025-01-09 18:41:31.88	342.68	14.87	
2025-01-09 18:41:33.11	342.69	14.73	
2025-01-09 18:41:34.36	342.70	14.59	
2025-01-09 18:41:35.59	342.70	14.45	
2025-01-09 18:41:36.83	342.71	14.31	
2025-01-09 18:41:38.06	342.72	14.17	
2025-01-09 18:41:39.29	342.72	14.03	
2025-01-09 18:41:40.52	342.73	13.90	
2025-01-09 18:41:41.76	342.74	13.76	
2025-01-09 18:41:42.99	342.75	13.63	
2025-01-09 18:41:44.22	342.75	13.49	
2025-01-09 18:41:45.47	342.76	13.36	
2025-01-09 18:41:46.70	342.77	13.22	
2025-01-09 18:41:47.93	342.77	13.09	
2025-01-09 18:41:49.16	342.78	12.96	
2025-01-09 18:41:50.41	342.79	12.83	
2025-01-09 18:41:51.64	342.79	12.70	
2025-01-09 18:41:52.87	342.80	12.57	
2025-01-09 18:41:54.10	342.81	12.45	
2025-01-09 18:41:55.34	342.81	12.32	
2025-01-09 18:41:56.57	342.82	12.19	
2025-01-09 18:41:57.80	342.83	12.07	
2025-01-09 18:41:59.04	342.83	11.94	
2025-01-09 18:42:00.26	342.84	11.82	
2025-01-09 18:42:01.52	342.85	11.69	
2025-01-09 18:42:02.76	342.85	11.57	
2025-01-09 18:42:04.00	342.86	11.44	
2025-01-09 18:42:05.24	342.87	11.32	
2025-01-09 18:42:06.47	342.87	11.20	
2025-01-09 18:42:07.70	342.88	11.08	
2025-01-09 18:42:08.93	342.89	10.96	
2025-01-09 18:42:10.16	342.89	10.84	
2025-01-09 18:42:11.39	342.90	10.73	
2025-01-09 18:42:12.62	342.91	10.61	
2025-01-09 18:42:13.85	342.91	10.49	
2025-01-09 18:42:15.08	342.92	10.38	
2025-01-09 18:42:16.31	342.93	10.26	
2025-01-09 18:42:17.54	342.93	10.15	
2025-01-09 18:42:18.78	342.94	10.03	
2025-01-09 18:42:20.02	342.95	9.92	
2025-01-09 18:42:21.25	342.95	9.80	
2025-01-09 18:42:22.47	342.96	9.69	
2025-01-09 18:42:23.71	342.97	9.58	
2025-01-09 18:42:24.94	342.97	9.47	
2025-01-09 18:42:26.17	342.98	9.36	
2025-01-09 18:42:27.40	342.99	9.25	
2025-01-09 18:42:28.63	342.99	9.14	
2025-01-09 18:42:29.87	343.00	9.03	
2025-01-09 18:42:31.10	343.01	8.92	
2025-01-09 18:42:32.33	343.01	8.81	
2025-01-09 18:42:33.56	343.02	8.70	
2025-01-09 18:42:34.79	343.02	8.59	
2025-01-09 18:42:36.04	343.03	8.49	
2025-01-09 18:42:37.27	343.04	8.38	
2025-01-09 18:42:38.50	343.04	8.27	
2025-01-09 18:42:39.73	343.05	8.17	
2025-01-09 18:42:40.98	343.06	8.06	
2025-01-09 18:42:42.22	343.06	7.96	
2025-01-09 18:42:43.47	343.07	7.85	
2025-01-09 18:42:44.70	343.08	7.75	
2025-01-09 18:42:45.94	343.08	7.64	
2025-01-09 18:42:47.16	343.09	7.54	
2025-01-09 18:42:48.40	343.09	7.44	
2025-01-09 18:42:49.63	343.10	7.34	
2025-01-09 18:42:50.86	343.11	7.24	
2025-01-09 18:42:52.08	343.11	7.14	
2025-01-09 18:42:53.31	343.12	7.04	
2025-01-09 18:42:54.55	343.13	6.94	
2025-01-09 18:42:55.78	343.13	6.84	
2025-01-09 18:42:57.00	343.14	6.74	
2025-01-09 18:42:58.24	343.15	6.64	
2025-01-09 18:42:59.46	343.15	6.54	
2025-01-09 18:43:00.71	343.16	6.45	
2025-01-09 18:43:01.94	343.16	6.35	
2025-01-09 18:43:03.18	343.17	6.25	
2025-01-09 18:43:04.41	343.18	6.15	
2025-01-09 18:43:05.64	343.18	6.06	
2025-01-09 18:43:06.87	343.19	5.96	
2025-01-09 18:43:08.12	343.20	5.87	
2025-01-09 18:43:09.36	343.20	5.77	
2025-01-09 18:43:10.59	343.21	5.68	
2025-01-09 18:43:11.82	343.21	5.58	
2025-01-09 18:43:13.06	343.22	5.49	
2025-01-09 18:43:14.30	343.23	5.39	
2025-01-09 18:43:15.53	343.23	5.30	
2025-01-09 18:43:16.76	343.24	5.21	
2025-01-09 18:43:17.99	343.24	5.12	
2025-01-09 18:43:19.22	343.25	5.03	
2025-01-09 18:43:20.45	343.26	4.93	
2025-01-09 18:43:21.68	343.26	4.84	
2025-01-09 18:43:22.92	343.27	4.75	
2025-01-09 18:43:24.15	343.28	4.66	
2025-01-09 18:43:25.39	343.28	4.57	
2025-01-09 18:43:26.63	343.29	4.48	
2025-01-09 18:43:27.86	343.29	4.39	
2025-01-09 18:43:29.09	343.30	4.30	
2025-01-09 18:43:30.32	343.31	4.21	
2025-01-09 18:43:31.56	343.31	4.12	
2025-01-09 18:43:32.80	343.32	4.03	

#Closed at: 2025-01-09 18:43:33