passes_logs/2025/01/09/SPB_Silybum_02/SPB_Silybum_02__20250109_011637_AQUA_rec.log

#Pass ID: 20250109_011637_AQUA
#Satellite: AQUA
#Configuration: AQUA
#Start time: 2025-01-09 01:16:38

#Version: 2.0.20230423
#Station: SPB_Silybum_02
#Location: 30.233357 lon 59.946436 lat
#TLE: 1 27424U 02022A   25008.15498937  .00002389  00000+0  50057-3 0  9997
#TLE: 2 27424  98.3576 324.7578 0001462 118.2546 298.6643 14.60656725206621

#Time	Az	El	Level	Level2	SNR	BER	Gain	Gain2
2025-01-09 01:16:40.29	17.49	4.20	
2025-01-09 01:16:41.54	17.50	4.29	
2025-01-09 01:16:42.77	17.51	4.38	
2025-01-09 01:16:44.03	17.51	4.47	
2025-01-09 01:16:45.26	17.52	4.56	
2025-01-09 01:16:46.49	17.53	4.65	
2025-01-09 01:16:47.72	17.54	4.74	
2025-01-09 01:16:48.96	17.55	4.83	
2025-01-09 01:16:50.19	17.55	4.93	
2025-01-09 01:16:51.44	17.56	5.02	
2025-01-09 01:16:52.68	17.57	5.11	
2025-01-09 01:16:53.91	17.58	5.20	
2025-01-09 01:16:55.16	17.58	5.30	
2025-01-09 01:16:56.40	17.59	5.39	
2025-01-09 01:16:57.64	17.60	5.48	
2025-01-09 01:16:58.87	17.61	5.58	
2025-01-09 01:17:00.12	17.62	5.67	
2025-01-09 01:17:01.35	17.62	5.77	
2025-01-09 01:17:02.57	17.63	5.86	
2025-01-09 01:17:03.79	17.64	5.96	
2025-01-09 01:17:05.00	17.65	6.05	
2025-01-09 01:17:06.22	17.66	6.15	
2025-01-09 01:17:07.43	17.66	6.24	
2025-01-09 01:17:08.64	17.67	6.33	
2025-01-09 01:17:09.86	17.68	6.43	
2025-01-09 01:17:11.07	17.69	6.53	
2025-01-09 01:17:12.30	17.70	6.62	
2025-01-09 01:17:13.51	17.70	6.72	
2025-01-09 01:17:14.72	17.71	6.82	
2025-01-09 01:17:15.94	17.72	6.92	
2025-01-09 01:17:17.15	17.73	7.01	
2025-01-09 01:17:18.36	17.74	7.11	
2025-01-09 01:17:19.58	17.74	7.21	
2025-01-09 01:17:20.80	17.75	7.31	
2025-01-09 01:17:22.02	17.76	7.41	
2025-01-09 01:17:23.25	17.77	7.51	
2025-01-09 01:17:24.49	17.78	7.62	
2025-01-09 01:17:25.72	17.79	7.72	
2025-01-09 01:17:26.95	17.79	7.82	
2025-01-09 01:17:28.20	17.80	7.93	
2025-01-09 01:17:29.50	17.81	8.04	
2025-01-09 01:17:30.77	17.82	8.15	
2025-01-09 01:17:32.05	17.83	8.26	
2025-01-09 01:17:33.30	17.84	8.36	
2025-01-09 01:17:34.52	17.85	8.47	
2025-01-09 01:17:35.75	17.85	8.57	
2025-01-09 01:17:37.00	17.86	8.68	
2025-01-09 01:17:38.22	17.87	8.79	
2025-01-09 01:17:39.43	17.88	8.90	
2025-01-09 01:17:40.65	17.89	9.00	
2025-01-09 01:17:41.87	17.90	9.11	
2025-01-09 01:17:43.11	17.91	9.22	
2025-01-09 01:17:44.33	17.91	9.33	
2025-01-09 01:17:45.54	17.92	9.44	
2025-01-09 01:17:46.75	17.93	9.55	
2025-01-09 01:17:47.96	17.94	9.66	
2025-01-09 01:17:49.18	17.95	9.77	
2025-01-09 01:17:50.40	17.96	9.88	
2025-01-09 01:17:51.62	17.97	10.00	
2025-01-09 01:17:52.88	17.98	10.11	
2025-01-09 01:17:54.09	17.99	10.23	
2025-01-09 01:17:55.34	17.99	10.34	
2025-01-09 01:17:56.59	18.00	10.46	
2025-01-09 01:17:57.81	18.01	10.58	
2025-01-09 01:17:59.03	18.02	10.69	
2025-01-09 01:18:00.24	18.03	10.81	
2025-01-09 01:18:01.47	18.04	10.93	
2025-01-09 01:18:02.69	18.05	11.04	
2025-01-09 01:18:03.91	18.06	11.16	
2025-01-09 01:18:05.12	18.07	11.28	
2025-01-09 01:18:06.33	18.08	11.40	
2025-01-09 01:18:07.54	18.09	11.52	
2025-01-09 01:18:08.79	18.10	11.64	
2025-01-09 01:18:10.00	18.10	11.77	
2025-01-09 01:18:11.21	18.11	11.89	
2025-01-09 01:18:12.45	18.12	12.01	
2025-01-09 01:18:13.68	18.13	12.14	
2025-01-09 01:18:14.90	18.14	12.26	
2025-01-09 01:18:16.13	18.15	12.39	
2025-01-09 01:18:17.35	18.16	12.51	
2025-01-09 01:18:18.58	18.17	12.64	
2025-01-09 01:18:19.81	18.18	12.77	
2025-01-09 01:18:21.05	18.19	12.90	
2025-01-09 01:18:22.29	18.20	13.03	
2025-01-09 01:18:23.54	18.21	13.17	
2025-01-09 01:18:24.77	18.22	13.30	
2025-01-09 01:18:26.00	18.23	13.43	
2025-01-09 01:18:27.22	18.24	13.56	
2025-01-09 01:18:28.44	18.25	13.70	
2025-01-09 01:18:29.66	18.26	13.83	
2025-01-09 01:18:30.90	18.27	13.97	
2025-01-09 01:18:32.13	18.28	14.10	
2025-01-09 01:18:33.36	18.29	14.24	
2025-01-09 01:18:34.59	18.30	14.38	
2025-01-09 01:18:35.82	18.31	14.52	
2025-01-09 01:18:37.06	18.32	14.66	
2025-01-09 01:18:38.29	18.33	14.80	
2025-01-09 01:18:39.52	18.34	14.94	
2025-01-09 01:18:40.75	18.35	15.09	
2025-01-09 01:18:41.98	18.36	15.23	
2025-01-09 01:18:43.22	18.38	15.38	
2025-01-09 01:18:44.45	18.39	15.52	
2025-01-09 01:18:45.68	18.40	15.67	
2025-01-09 01:18:46.91	18.41	15.82	
2025-01-09 01:18:48.15	18.42	15.97	
2025-01-09 01:18:49.38	18.43	16.12	
2025-01-09 01:18:50.61	18.44	16.27	
2025-01-09 01:18:51.84	18.45	16.42	
2025-01-09 01:18:53.07	18.46	16.57	
2025-01-09 01:18:54.29	18.47	16.72	
2025-01-09 01:18:55.52	18.49	16.88	
2025-01-09 01:18:56.77	18.50	17.04	
2025-01-09 01:18:58.01	18.51	17.20	
2025-01-09 01:18:59.24	18.52	17.35	
2025-01-09 01:19:00.46	18.53	17.51	
2025-01-09 01:19:01.69	18.54	17.67	
2025-01-09 01:19:02.92	18.56	17.83	
2025-01-09 01:19:04.16	18.57	18.00	
2025-01-09 01:19:05.40	18.58	18.16	
2025-01-09 01:19:06.63	18.59	18.33	
2025-01-09 01:19:07.86	18.60	18.50	
2025-01-09 01:19:09.09	18.62	18.66	
2025-01-09 01:19:10.32	18.63	18.83	
2025-01-09 01:19:11.55	18.64	19.00	
2025-01-09 01:19:12.78	18.65	19.17	
2025-01-09 01:19:14.01	18.66	19.35	
2025-01-09 01:19:15.25	18.68	19.52	
2025-01-09 01:19:16.48	18.69	19.70	
2025-01-09 01:19:17.71	18.70	19.88	
2025-01-09 01:19:18.94	18.72	20.05	
2025-01-09 01:19:20.17	18.73	20.23	
2025-01-09 01:19:21.40	18.74	20.42	
2025-01-09 01:19:22.63	18.76	20.60	
2025-01-09 01:19:23.86	18.77	20.78	
2025-01-09 01:19:25.09	18.78	20.97	
2025-01-09 01:19:26.32	18.80	21.16	
2025-01-09 01:19:27.55	18.81	21.34	
2025-01-09 01:19:28.78	18.82	21.53	
2025-01-09 01:19:30.01	18.84	21.73	
2025-01-09 01:19:31.24	18.85	21.92	
2025-01-09 01:19:32.47	18.86	22.12	
2025-01-09 01:19:33.70	18.88	22.31	
2025-01-09 01:19:34.93	18.89	22.51	
2025-01-09 01:19:36.17	18.91	22.71	
2025-01-09 01:19:37.40	18.92	22.91	
2025-01-09 01:19:38.63	18.94	23.12	
2025-01-09 01:19:39.86	18.95	23.32	
2025-01-09 01:19:41.10	18.97	23.53	
2025-01-09 01:19:42.33	18.98	23.74	
2025-01-09 01:19:43.56	19.00	23.95	
2025-01-09 01:19:44.79	19.01	24.16	
2025-01-09 01:19:46.04	19.03	24.38	
2025-01-09 01:19:47.27	19.04	24.60	
2025-01-09 01:19:48.50	19.06	24.82	
2025-01-09 01:19:49.73	19.08	25.04	
2025-01-09 01:19:50.95	19.09	25.26	
2025-01-09 01:19:52.19	19.11	25.48	
2025-01-09 01:19:53.42	19.12	25.71	
2025-01-09 01:19:54.66	19.14	25.94	
2025-01-09 01:19:55.89	19.16	26.17	
2025-01-09 01:19:57.13	19.18	26.41	
2025-01-09 01:19:58.36	19.19	26.64	
2025-01-09 01:19:59.59	19.21	26.88	
2025-01-09 01:20:00.84	19.23	27.12	
2025-01-09 01:20:02.06	19.25	27.36	
2025-01-09 01:20:03.29	19.26	27.61	
2025-01-09 01:20:04.54	19.28	27.86	
2025-01-09 01:20:05.77	19.30	28.11	
2025-01-09 01:20:07.00	19.32	28.36	
2025-01-09 01:20:08.23	19.34	28.61	
2025-01-09 01:20:09.47	19.36	28.87	
2025-01-09 01:20:10.70	19.38	29.13	
2025-01-09 01:20:11.93	19.40	29.39	
2025-01-09 01:20:13.16	19.42	29.66	
2025-01-09 01:20:14.38	19.44	29.92	
2025-01-09 01:20:15.63	19.46	30.19	
2025-01-09 01:20:16.86	19.48	30.47	
2025-01-09 01:20:18.08	19.50	30.74	
2025-01-09 01:20:19.32	19.52	31.02	
2025-01-09 01:20:20.55	19.54	31.30	
2025-01-09 01:20:21.78	19.56	31.59	
2025-01-09 01:20:23.02	19.59	31.87	
2025-01-09 01:20:24.25	19.61	32.16	
2025-01-09 01:20:25.50	19.63	32.46	
2025-01-09 01:20:26.73	19.66	32.76	
2025-01-09 01:20:27.96	19.68	33.06	
2025-01-09 01:20:29.21	19.70	33.36	
2025-01-09 01:20:30.43	19.73	33.67	
2025-01-09 01:20:31.66	19.75	33.98	
2025-01-09 01:20:32.90	19.78	34.29	
2025-01-09 01:20:34.13	19.80	34.61	
2025-01-09 01:20:35.36	19.83	34.93	
2025-01-09 01:20:36.59	19.85	35.25	
2025-01-09 01:20:37.84	19.88	35.58	
2025-01-09 01:20:39.06	19.91	35.91	
2025-01-09 01:20:40.31	19.94	36.25	
2025-01-09 01:20:41.55	19.97	36.59	
2025-01-09 01:20:42.78	19.99	36.93	
2025-01-09 01:20:44.03	20.02	37.28	
2025-01-09 01:20:45.27	20.05	37.63	
2025-01-09 01:20:46.49	20.08	37.98	
2025-01-09 01:20:47.73	20.11	38.34	
2025-01-09 01:20:48.96	20.15	38.70	
2025-01-09 01:20:50.19	20.18	39.06	
2025-01-09 01:20:51.42	20.21	39.43	
2025-01-09 01:20:52.65	20.24	39.80	
2025-01-09 01:20:53.88	20.28	40.18	
2025-01-09 01:20:55.11	20.31	40.56	
2025-01-09 01:20:56.34	20.35	40.95	
2025-01-09 01:20:57.57	20.38	41.34	
2025-01-09 01:20:58.80	20.42	41.73	
2025-01-09 01:21:00.03	20.46	42.13	
2025-01-09 01:21:01.26	20.50	42.53	
2025-01-09 01:21:02.49	20.54	42.94	
2025-01-09 01:21:03.73	20.58	43.36	
2025-01-09 01:21:04.95	20.62	43.77	
2025-01-09 01:21:06.18	20.66	44.20	
2025-01-09 01:21:07.41	20.71	44.62	
2025-01-09 01:21:08.64	20.75	45.06	
2025-01-09 01:21:09.87	20.80	45.49	
2025-01-09 01:21:11.10	20.84	45.94	
2025-01-09 01:21:12.33	20.89	46.38	
2025-01-09 01:21:13.58	20.94	46.84	
2025-01-09 01:21:14.81	20.99	47.30	
2025-01-09 01:21:16.04	21.04	47.76	
2025-01-09 01:21:17.28	21.10	48.24	
2025-01-09 01:21:18.50	21.15	48.71	
2025-01-09 01:21:19.74	21.21	49.19	
2025-01-09 01:21:20.97	21.27	49.67	
2025-01-09 01:21:22.19	21.33	50.16	
2025-01-09 01:21:23.44	21.39	50.66	
2025-01-09 01:21:24.67	21.45	51.17	
2025-01-09 01:21:25.90	21.52	51.67	
2025-01-09 01:21:27.13	21.59	52.18	
2025-01-09 01:21:28.36	21.66	52.70	
2025-01-09 01:21:29.59	21.73	53.23	
2025-01-09 01:21:30.82	21.81	53.76	
2025-01-09 01:21:32.06	21.88	54.30	
2025-01-09 01:21:33.29	21.97	54.84	
2025-01-09 01:21:34.52	22.05	55.38	
2025-01-09 01:21:35.75	22.14	55.94	
2025-01-09 01:21:36.98	22.23	56.50	
2025-01-09 01:21:38.20	22.32	57.06	
2025-01-09 01:21:39.43	22.42	57.63	
2025-01-09 01:21:40.66	22.52	58.20	
2025-01-09 01:21:41.89	22.63	58.78	
2025-01-09 01:21:43.12	22.74	59.37	
2025-01-09 01:21:44.35	22.85	59.97	
2025-01-09 01:21:45.58	22.97	60.57	
2025-01-09 01:21:46.83	23.10	61.18	
2025-01-09 01:21:48.07	23.24	61.80	
2025-01-09 01:21:49.30	23.38	62.41	
2025-01-09 01:21:50.56	23.53	63.05	
2025-01-09 01:21:51.79	23.68	63.68	
2025-01-09 01:21:53.02	23.84	64.31	
2025-01-09 01:21:54.25	24.02	64.95	
2025-01-09 01:21:55.48	24.20	65.60	
2025-01-09 01:21:56.72	24.39	66.25	
2025-01-09 01:21:57.95	24.60	66.91	
2025-01-09 01:21:59.18	24.81	67.57	
2025-01-09 01:22:00.41	25.05	68.23	
2025-01-09 01:22:01.64	25.29	68.90	
2025-01-09 01:22:02.87	25.56	69.58	
2025-01-09 01:22:04.10	25.84	70.26	
2025-01-09 01:22:05.33	26.15	70.94	
2025-01-09 01:22:06.58	26.48	71.64	
2025-01-09 01:22:07.81	26.84	72.34	
2025-01-09 01:22:09.05	27.23	73.04	
2025-01-09 01:22:10.28	27.65	73.74	
2025-01-09 01:22:11.51	28.11	74.44	
2025-01-09 01:22:12.74	28.62	75.15	
2025-01-09 01:22:13.97	29.18	75.86	
2025-01-09 01:22:15.20	29.80	76.57	
2025-01-09 01:22:16.43	30.49	77.28	
2025-01-09 01:22:17.67	31.28	78.00	
2025-01-09 01:22:18.92	32.17	78.73	
2025-01-09 01:22:20.15	33.17	79.45	
2025-01-09 01:22:21.38	34.32	80.16	
2025-01-09 01:22:22.61	35.65	80.88	
2025-01-09 01:22:23.85	37.23	81.59	
2025-01-09 01:22:25.08	39.08	82.30	
2025-01-09 01:22:26.31	41.31	83.00	
2025-01-09 01:22:27.54	44.03	83.68	
2025-01-09 01:22:28.77	47.41	84.36	
2025-01-09 01:22:30.00	51.69	85.00	
2025-01-09 01:22:31.23	57.21	85.62	
2025-01-09 01:22:32.45	64.36	86.17	
2025-01-09 01:22:33.68	73.84	86.65	
2025-01-09 01:22:34.92	86.14	87.02	
2025-01-09 01:22:36.16	100.98	87.21	
2025-01-09 01:22:37.40	116.83	87.20	
2025-01-09 01:22:38.63	131.36	86.99	
2025-01-09 01:22:39.86	143.34	86.62	
2025-01-09 01:22:41.09	152.63	86.13	
2025-01-09 01:22:42.33	159.73	85.56	
2025-01-09 01:22:43.56	165.12	84.94	
2025-01-09 01:22:44.79	169.30	84.29	
2025-01-09 01:22:46.02	172.61	83.62	
2025-01-09 01:22:47.25	175.28	82.93	
2025-01-09 01:22:48.48	177.47	82.23	
2025-01-09 01:22:49.71	179.30	81.52	
2025-01-09 01:22:50.93	180.83	80.82	
2025-01-09 01:22:52.17	182.15	80.10	
2025-01-09 01:22:53.39	183.28	79.39	
2025-01-09 01:22:54.63	184.28	78.67	
2025-01-09 01:22:55.85	185.14	77.95	
2025-01-09 01:22:57.09	185.92	77.23	
2025-01-09 01:22:58.33	186.61	76.51	
2025-01-09 01:22:59.56	187.23	75.80	
2025-01-09 01:23:00.78	187.78	75.09	
2025-01-09 01:23:02.03	188.29	74.37	
2025-01-09 01:23:03.26	188.75	73.67	
2025-01-09 01:23:04.49	189.17	72.97	
2025-01-09 01:23:05.72	189.56	72.27	
2025-01-09 01:23:06.95	189.91	71.58	
2025-01-09 01:23:08.18	190.24	70.89	
2025-01-09 01:23:09.42	190.55	70.20	
2025-01-09 01:23:10.65	190.83	69.52	
2025-01-09 01:23:11.88	191.09	68.84	
2025-01-09 01:23:13.12	191.34	68.16	
2025-01-09 01:23:14.36	191.57	67.49	
2025-01-09 01:23:15.59	191.79	66.83	
2025-01-09 01:23:16.81	191.99	66.18	
2025-01-09 01:23:18.04	192.18	65.53	
2025-01-09 01:23:19.29	192.37	64.87	
2025-01-09 01:23:20.52	192.54	64.23	
2025-01-09 01:23:21.77	192.70	63.58	
2025-01-09 01:23:22.99	192.86	62.96	
2025-01-09 01:23:24.23	193.00	62.33	
2025-01-09 01:23:25.47	193.14	61.71	
2025-01-09 01:23:26.69	193.27	61.10	
2025-01-09 01:23:27.92	193.40	60.49	
2025-01-09 01:23:29.16	193.52	59.89	
2025-01-09 01:23:30.38	193.64	59.30	
2025-01-09 01:23:31.61	193.75	58.71	
2025-01-09 01:23:32.84	193.85	58.12	
2025-01-09 01:23:34.07	193.95	57.55	
2025-01-09 01:23:35.31	194.05	56.97	
2025-01-09 01:23:36.55	194.15	56.40	
2025-01-09 01:23:37.78	194.24	55.84	
2025-01-09 01:23:39.02	194.32	55.28	
2025-01-09 01:23:40.25	194.41	54.73	
2025-01-09 01:23:41.48	194.49	54.19	
2025-01-09 01:23:42.70	194.56	53.66	
2025-01-09 01:23:43.94	194.64	53.12	
2025-01-09 01:23:45.17	194.71	52.60	
2025-01-09 01:23:46.40	194.78	52.08	
2025-01-09 01:23:47.62	194.85	51.57	
2025-01-09 01:23:48.86	194.91	51.06	
2025-01-09 01:23:50.09	194.98	50.55	
2025-01-09 01:23:51.32	195.04	50.06	
2025-01-09 01:23:52.55	195.10	49.57	
2025-01-09 01:23:53.78	195.16	49.08	
2025-01-09 01:23:55.01	195.21	48.60	
2025-01-09 01:23:56.23	195.27	48.13	
2025-01-09 01:23:57.47	195.32	47.65	
2025-01-09 01:23:58.70	195.37	47.19	
2025-01-09 01:23:59.93	195.42	46.73	
2025-01-09 01:24:01.16	195.47	46.28	
2025-01-09 01:24:02.39	195.52	45.83	
2025-01-09 01:24:03.61	195.57	45.39	
2025-01-09 01:24:04.84	195.61	44.95	
2025-01-09 01:24:06.10	195.66	44.51	
2025-01-09 01:24:07.33	195.70	44.08	
2025-01-09 01:24:08.56	195.74	43.65	
2025-01-09 01:24:09.80	195.78	43.23	
2025-01-09 01:24:11.03	195.82	42.82	
2025-01-09 01:24:12.28	195.86	42.40	
2025-01-09 01:24:13.52	195.90	41.99	
2025-01-09 01:24:14.74	195.94	41.60	
2025-01-09 01:24:15.98	195.98	41.20	
2025-01-09 01:24:17.20	196.01	40.81	
2025-01-09 01:24:18.43	196.05	40.42	
2025-01-09 01:24:19.66	196.08	40.04	
2025-01-09 01:24:20.89	196.11	39.66	
2025-01-09 01:24:22.12	196.15	39.29	
2025-01-09 01:24:23.35	196.18	38.92	
2025-01-09 01:24:24.58	196.21	38.55	
2025-01-09 01:24:25.81	196.24	38.19	
2025-01-09 01:24:27.04	196.27	37.83	
2025-01-09 01:24:28.26	196.30	37.48	
2025-01-09 01:24:29.49	196.33	37.13	
2025-01-09 01:24:30.74	196.36	36.78	
2025-01-09 01:24:31.97	196.39	36.44	
2025-01-09 01:24:33.19	196.42	36.11	
2025-01-09 01:24:34.43	196.44	35.77	
2025-01-09 01:24:35.66	196.47	35.44	
2025-01-09 01:24:36.89	196.50	35.11	
2025-01-09 01:24:38.12	196.52	34.79	
2025-01-09 01:24:39.35	196.55	34.47	
2025-01-09 01:24:40.58	196.57	34.15	
2025-01-09 01:24:41.81	196.60	33.84	
2025-01-09 01:24:43.04	196.62	33.53	
2025-01-09 01:24:44.27	196.65	33.22	
2025-01-09 01:24:45.51	196.67	32.92	
2025-01-09 01:24:46.74	196.69	32.62	
2025-01-09 01:24:47.97	196.72	32.32	
2025-01-09 01:24:49.20	196.74	32.03	
2025-01-09 01:24:50.43	196.76	31.74	
2025-01-09 01:24:51.66	196.78	31.45	
2025-01-09 01:24:52.90	196.80	31.16	
2025-01-09 01:24:54.13	196.82	30.88	
2025-01-09 01:24:55.35	196.84	30.60	
2025-01-09 01:24:56.59	196.87	30.32	
2025-01-09 01:24:57.82	196.89	30.05	
2025-01-09 01:24:59.05	196.91	29.78	
2025-01-09 01:25:00.28	196.93	29.51	
2025-01-09 01:25:01.51	196.94	29.25	
2025-01-09 01:25:02.74	196.96	28.98	
2025-01-09 01:25:03.97	196.98	28.72	
2025-01-09 01:25:05.20	197.00	28.47	
2025-01-09 01:25:06.43	197.02	28.21	
2025-01-09 01:25:07.66	197.04	27.96	
2025-01-09 01:25:08.89	197.06	27.71	
2025-01-09 01:25:10.12	197.07	27.46	
2025-01-09 01:25:11.36	197.09	27.22	
2025-01-09 01:25:12.60	197.11	26.97	
2025-01-09 01:25:13.83	197.13	26.73	
2025-01-09 01:25:15.06	197.14	26.49	
2025-01-09 01:25:16.30	197.16	26.25	
2025-01-09 01:25:17.54	197.18	26.02	
2025-01-09 01:25:18.76	197.19	25.79	
2025-01-09 01:25:20.00	197.21	25.56	
2025-01-09 01:25:21.23	197.22	25.33	
2025-01-09 01:25:22.46	197.24	25.11	
2025-01-09 01:25:23.70	197.26	24.88	
2025-01-09 01:25:24.93	197.27	24.66	
2025-01-09 01:25:26.16	197.29	24.44	
2025-01-09 01:25:27.39	197.30	24.22	
2025-01-09 01:25:28.62	197.32	24.01	
2025-01-09 01:25:29.87	197.33	23.79	
2025-01-09 01:25:31.12	197.35	23.58	
2025-01-09 01:25:32.35	197.36	23.37	
2025-01-09 01:25:33.58	197.38	23.16	
2025-01-09 01:25:34.81	197.39	22.95	
2025-01-09 01:25:36.04	197.40	22.75	
2025-01-09 01:25:37.27	197.42	22.55	
2025-01-09 01:25:38.50	197.43	22.35	
2025-01-09 01:25:39.76	197.45	22.14	
2025-01-09 01:25:40.99	197.46	21.95	
2025-01-09 01:25:42.24	197.47	21.75	
2025-01-09 01:25:43.47	197.49	21.55	
2025-01-09 01:25:44.69	197.50	21.36	
2025-01-09 01:25:45.93	197.51	21.17	
2025-01-09 01:25:47.15	197.52	20.98	
2025-01-09 01:25:48.38	197.54	20.80	
2025-01-09 01:25:49.61	197.55	20.61	
2025-01-09 01:25:50.84	197.56	20.42	
2025-01-09 01:25:52.09	197.58	20.24	
2025-01-09 01:25:53.32	197.59	20.06	
2025-01-09 01:25:54.55	197.60	19.88	
2025-01-09 01:25:55.78	197.61	19.70	
2025-01-09 01:25:57.01	197.62	19.52	
2025-01-09 01:25:58.24	197.64	19.34	
2025-01-09 01:25:59.47	197.65	19.17	
2025-01-09 01:26:00.70	197.66	19.00	
2025-01-09 01:26:01.93	197.67	18.82	
2025-01-09 01:26:03.16	197.68	18.65	
2025-01-09 01:26:04.39	197.70	18.48	
2025-01-09 01:26:05.62	197.71	18.32	
2025-01-09 01:26:06.85	197.72	18.15	
2025-01-09 01:26:08.10	197.73	17.98	
2025-01-09 01:26:09.34	197.74	17.81	
2025-01-09 01:26:10.57	197.75	17.65	
2025-01-09 01:26:11.81	197.76	17.49	
2025-01-09 01:26:13.05	197.77	17.33	
2025-01-09 01:26:14.28	197.78	17.17	
2025-01-09 01:26:15.51	197.80	17.01	
2025-01-09 01:26:16.74	197.81	16.85	
2025-01-09 01:26:17.98	197.82	16.69	
2025-01-09 01:26:19.20	197.83	16.54	
2025-01-09 01:26:20.45	197.84	16.38	
2025-01-09 01:26:21.70	197.85	16.23	
2025-01-09 01:26:22.93	197.86	16.07	
2025-01-09 01:26:24.16	197.87	15.92	
2025-01-09 01:26:25.41	197.88	15.77	
2025-01-09 01:26:26.64	197.89	15.62	
2025-01-09 01:26:27.87	197.90	15.47	
2025-01-09 01:26:29.10	197.91	15.33	
2025-01-09 01:26:30.33	197.92	15.18	
2025-01-09 01:26:31.58	197.93	15.03	
2025-01-09 01:26:32.81	197.94	14.89	
2025-01-09 01:26:34.03	197.95	14.75	
2025-01-09 01:26:35.28	197.96	14.60	
2025-01-09 01:26:36.51	197.97	14.46	
2025-01-09 01:26:37.74	197.98	14.32	
2025-01-09 01:26:38.99	197.99	14.18	
2025-01-09 01:26:40.23	198.00	14.04	
2025-01-09 01:26:41.46	198.01	13.90	
2025-01-09 01:26:42.69	198.02	13.76	
2025-01-09 01:26:43.92	198.03	13.63	
2025-01-09 01:26:45.17	198.03	13.49	
2025-01-09 01:26:46.40	198.04	13.36	
2025-01-09 01:26:47.62	198.05	13.22	
2025-01-09 01:26:48.85	198.06	13.09	
2025-01-09 01:26:50.08	198.07	12.96	
2025-01-09 01:26:51.32	198.08	12.83	
2025-01-09 01:26:52.55	198.09	12.70	
2025-01-09 01:26:53.78	198.10	12.57	
2025-01-09 01:26:55.01	198.11	12.44	
2025-01-09 01:26:56.24	198.12	12.31	
2025-01-09 01:26:57.47	198.12	12.18	
2025-01-09 01:26:58.70	198.13	12.06	
2025-01-09 01:26:59.93	198.14	11.93	
2025-01-09 01:27:01.17	198.15	11.80	
2025-01-09 01:27:02.40	198.16	11.68	
2025-01-09 01:27:03.63	198.17	11.56	
2025-01-09 01:27:04.88	198.18	11.43	
2025-01-09 01:27:06.12	198.18	11.31	
2025-01-09 01:27:07.35	198.19	11.19	
2025-01-09 01:27:08.59	198.20	11.06	
2025-01-09 01:27:09.82	198.21	10.94	
2025-01-09 01:27:11.06	198.22	10.82	
2025-01-09 01:27:12.29	198.23	10.70	
2025-01-09 01:27:13.52	198.23	10.59	
2025-01-09 01:27:14.76	198.24	10.47	
2025-01-09 01:27:16.00	198.25	10.35	
2025-01-09 01:27:17.23	198.26	10.23	
2025-01-09 01:27:18.47	198.27	10.12	
2025-01-09 01:27:19.71	198.27	10.00	
2025-01-09 01:27:20.94	198.28	9.88	
2025-01-09 01:27:22.18	198.29	9.77	
2025-01-09 01:27:23.41	198.30	9.66	
2025-01-09 01:27:24.64	198.31	9.54	
2025-01-09 01:27:25.87	198.31	9.43	
2025-01-09 01:27:27.10	198.32	9.32	
2025-01-09 01:27:28.33	198.33	9.21	
2025-01-09 01:27:29.56	198.34	9.10	
2025-01-09 01:27:30.79	198.35	8.99	
2025-01-09 01:27:32.02	198.35	8.88	
2025-01-09 01:27:33.25	198.36	8.77	
2025-01-09 01:27:34.48	198.37	8.66	
2025-01-09 01:27:35.71	198.38	8.55	
2025-01-09 01:27:36.94	198.38	8.44	
2025-01-09 01:27:38.19	198.39	8.33	
2025-01-09 01:27:39.43	198.40	8.23	
2025-01-09 01:27:40.66	198.41	8.12	
2025-01-09 01:27:41.91	198.41	8.01	
2025-01-09 01:27:43.14	198.42	7.91	
2025-01-09 01:27:44.37	198.43	7.80	
2025-01-09 01:27:45.61	198.44	7.70	
2025-01-09 01:27:46.83	198.44	7.60	
2025-01-09 01:27:48.07	198.45	7.49	
2025-01-09 01:27:49.30	198.46	7.39	
2025-01-09 01:27:50.54	198.46	7.29	
2025-01-09 01:27:51.78	198.47	7.18	
2025-01-09 01:27:53.01	198.48	7.08	
2025-01-09 01:27:54.24	198.49	6.98	
2025-01-09 01:27:55.47	198.49	6.88	
2025-01-09 01:27:56.70	198.50	6.78	
2025-01-09 01:27:57.93	198.51	6.68	
2025-01-09 01:27:59.16	198.51	6.58	
2025-01-09 01:28:00.39	198.52	6.48	
2025-01-09 01:28:01.62	198.53	6.39	
2025-01-09 01:28:02.85	198.54	6.29	
2025-01-09 01:28:04.08	198.54	6.19	
2025-01-09 01:28:05.30	198.55	6.09	
2025-01-09 01:28:06.54	198.56	6.00	
2025-01-09 01:28:07.77	198.56	5.90	
2025-01-09 01:28:09.00	198.57	5.80	
2025-01-09 01:28:10.23	198.58	5.71	
2025-01-09 01:28:11.46	198.58	5.61	
2025-01-09 01:28:12.70	198.59	5.52	
2025-01-09 01:28:13.92	198.60	5.42	
2025-01-09 01:28:15.15	198.60	5.33	
2025-01-09 01:28:16.38	198.61	5.24	
2025-01-09 01:28:17.64	198.62	5.14	
2025-01-09 01:28:18.88	198.62	5.05	
2025-01-09 01:28:20.11	198.63	4.96	
2025-01-09 01:28:21.34	198.64	4.86	
2025-01-09 01:28:22.57	198.64	4.77	
2025-01-09 01:28:23.80	198.65	4.68	
2025-01-09 01:28:25.03	198.66	4.59	
2025-01-09 01:28:26.26	198.66	4.50	
2025-01-09 01:28:27.49	198.67	4.41	
2025-01-09 01:28:28.72	198.68	4.32	
2025-01-09 01:28:29.95	198.68	4.23	
2025-01-09 01:28:31.19	198.69	4.14	
2025-01-09 01:28:32.42	198.70	4.05	

#Closed at: 2025-01-09 01:28:33