passes_logs/2025/01/09/SPB_Silybum_02/SPB_Silybum_02__20250109_123109_AQUA_rec.log

#Pass ID: 20250109_123109_AQUA
#Satellite: AQUA
#Configuration: AQUA
#Start time: 2025-01-09 12:31:09

#Version: 2.0.20230423
#Station: SPB_Silybum_02
#Location: 30.233357 lon 59.946436 lat
#TLE: 1 27424U 02022A   25008.83930641  .00002008  00000+0  42243-3 0  9991
#TLE: 2 27424  98.3576 325.4481 0001488 117.9026 295.2820 14.60658995206721

#Time	Az	El	Level	Level2	SNR	BER	Gain	Gain2
2025-01-09 12:31:11.24	196.83	4.13	
2025-01-09 12:31:12.49	196.92	4.21	
2025-01-09 12:31:13.72	197.00	4.29	
2025-01-09 12:31:14.95	197.09	4.37	
2025-01-09 12:31:16.19	197.18	4.46	
2025-01-09 12:31:17.42	197.26	4.54	
2025-01-09 12:31:18.65	197.35	4.62	
2025-01-09 12:31:19.89	197.44	4.70	
2025-01-09 12:31:21.14	197.53	4.79	
2025-01-09 12:31:22.37	197.61	4.87	
2025-01-09 12:31:23.60	197.70	4.95	
2025-01-09 12:31:24.83	197.79	5.04	
2025-01-09 12:31:26.06	197.88	5.12	
2025-01-09 12:31:27.29	197.97	5.21	
2025-01-09 12:31:28.53	198.07	5.29	
2025-01-09 12:31:29.76	198.16	5.38	
2025-01-09 12:31:30.99	198.25	5.46	
2025-01-09 12:31:32.24	198.34	5.55	
2025-01-09 12:31:33.47	198.44	5.63	
2025-01-09 12:31:34.70	198.53	5.72	
2025-01-09 12:31:35.93	198.63	5.80	
2025-01-09 12:31:37.16	198.72	5.89	
2025-01-09 12:31:38.41	198.82	5.98	
2025-01-09 12:31:39.64	198.92	6.07	
2025-01-09 12:31:40.89	199.01	6.15	
2025-01-09 12:31:42.12	199.11	6.24	
2025-01-09 12:31:43.35	199.21	6.33	
2025-01-09 12:31:44.58	199.31	6.42	
2025-01-09 12:31:45.81	199.41	6.50	
2025-01-09 12:31:47.05	199.51	6.59	
2025-01-09 12:31:48.28	199.61	6.68	
2025-01-09 12:31:49.52	199.71	6.77	
2025-01-09 12:31:50.75	199.81	6.86	
2025-01-09 12:31:51.98	199.92	6.95	
2025-01-09 12:31:53.21	200.02	7.04	
2025-01-09 12:31:54.44	200.12	7.13	
2025-01-09 12:31:55.68	200.23	7.22	
2025-01-09 12:31:56.92	200.33	7.31	
2025-01-09 12:31:58.15	200.44	7.40	
2025-01-09 12:31:59.38	200.55	7.49	
2025-01-09 12:32:00.62	200.66	7.59	
2025-01-09 12:32:01.85	200.76	7.68	
2025-01-09 12:32:03.08	200.87	7.77	
2025-01-09 12:32:04.31	200.98	7.86	
2025-01-09 12:32:05.54	201.09	7.95	
2025-01-09 12:32:06.78	201.20	8.05	
2025-01-09 12:32:08.01	201.32	8.14	
2025-01-09 12:32:09.24	201.43	8.23	
2025-01-09 12:32:10.47	201.54	8.33	
2025-01-09 12:32:11.70	201.65	8.42	
2025-01-09 12:32:12.93	201.77	8.52	
2025-01-09 12:32:14.17	201.89	8.61	
2025-01-09 12:32:15.40	202.00	8.71	
2025-01-09 12:32:16.65	202.12	8.80	
2025-01-09 12:32:17.88	202.24	8.90	
2025-01-09 12:32:19.11	202.36	8.99	
2025-01-09 12:32:20.35	202.48	9.09	
2025-01-09 12:32:21.59	202.60	9.19	
2025-01-09 12:32:22.82	202.72	9.29	
2025-01-09 12:32:24.06	202.84	9.38	
2025-01-09 12:32:25.30	202.97	9.48	
2025-01-09 12:32:26.53	203.09	9.58	
2025-01-09 12:32:27.77	203.22	9.68	
2025-01-09 12:32:29.00	203.34	9.78	
2025-01-09 12:32:30.24	203.47	9.88	
2025-01-09 12:32:31.48	203.60	9.98	
2025-01-09 12:32:32.71	203.73	10.08	
2025-01-09 12:32:33.95	203.86	10.18	
2025-01-09 12:32:35.19	203.99	10.28	
2025-01-09 12:32:36.42	204.12	10.38	
2025-01-09 12:32:37.66	204.25	10.48	
2025-01-09 12:32:38.89	204.38	10.58	
2025-01-09 12:32:40.11	204.52	10.68	
2025-01-09 12:32:41.35	204.65	10.78	
2025-01-09 12:32:42.58	204.79	10.89	
2025-01-09 12:32:43.83	204.93	10.99	
2025-01-09 12:32:45.07	205.07	11.09	
2025-01-09 12:32:46.29	205.20	11.20	
2025-01-09 12:32:47.53	205.34	11.30	
2025-01-09 12:32:48.76	205.48	11.40	
2025-01-09 12:32:49.99	205.63	11.51	
2025-01-09 12:32:51.22	205.77	11.61	
2025-01-09 12:32:52.45	205.91	11.72	
2025-01-09 12:32:53.68	206.06	11.82	
2025-01-09 12:32:54.91	206.20	11.93	
2025-01-09 12:32:56.14	206.35	12.03	
2025-01-09 12:32:57.37	206.50	12.14	
2025-01-09 12:32:58.60	206.65	12.25	
2025-01-09 12:32:59.84	206.80	12.35	
2025-01-09 12:33:01.07	206.95	12.46	
2025-01-09 12:33:02.30	207.10	12.57	
2025-01-09 12:33:03.55	207.26	12.68	
2025-01-09 12:33:04.77	207.42	12.79	
2025-01-09 12:33:06.01	207.57	12.89	
2025-01-09 12:33:07.24	207.73	13.00	
2025-01-09 12:33:08.47	207.89	13.11	
2025-01-09 12:33:09.70	208.05	13.22	
2025-01-09 12:33:10.93	208.21	13.33	
2025-01-09 12:33:12.16	208.37	13.44	
2025-01-09 12:33:13.39	208.54	13.55	
2025-01-09 12:33:14.64	208.70	13.67	
2025-01-09 12:33:15.86	208.87	13.78	
2025-01-09 12:33:17.09	209.04	13.89	
2025-01-09 12:33:18.34	209.21	14.00	
2025-01-09 12:33:19.57	209.38	14.12	
2025-01-09 12:33:20.79	209.55	14.23	
2025-01-09 12:33:22.03	209.72	14.34	
2025-01-09 12:33:23.27	209.90	14.46	
2025-01-09 12:33:24.50	210.07	14.57	
2025-01-09 12:33:25.73	210.25	14.69	
2025-01-09 12:33:26.97	210.43	14.80	
2025-01-09 12:33:28.20	210.61	14.92	
2025-01-09 12:33:29.43	210.79	15.03	
2025-01-09 12:33:30.66	210.98	15.15	
2025-01-09 12:33:31.89	211.16	15.26	
2025-01-09 12:33:33.12	211.35	15.38	
2025-01-09 12:33:34.35	211.53	15.50	
2025-01-09 12:33:35.58	211.72	15.61	
2025-01-09 12:33:36.81	211.91	15.73	
2025-01-09 12:33:38.05	212.11	15.85	
2025-01-09 12:33:39.27	212.30	15.97	
2025-01-09 12:33:40.51	212.49	16.09	
2025-01-09 12:33:41.76	212.69	16.21	
2025-01-09 12:33:42.99	212.89	16.33	
2025-01-09 12:33:44.23	213.09	16.45	
2025-01-09 12:33:45.46	213.30	16.57	
2025-01-09 12:33:46.71	213.50	16.69	
2025-01-09 12:33:47.94	213.71	16.81	
2025-01-09 12:33:49.17	213.91	16.93	
2025-01-09 12:33:50.40	214.12	17.05	
2025-01-09 12:33:51.63	214.33	17.17	
2025-01-09 12:33:52.86	214.54	17.30	
2025-01-09 12:33:54.09	214.76	17.42	
2025-01-09 12:33:55.33	214.98	17.54	
2025-01-09 12:33:56.56	215.19	17.66	
2025-01-09 12:33:57.79	215.41	17.79	
2025-01-09 12:33:59.02	215.63	17.91	
2025-01-09 12:34:00.25	215.86	18.03	
2025-01-09 12:34:01.49	216.08	18.16	
2025-01-09 12:34:02.74	216.31	18.28	
2025-01-09 12:34:03.97	216.54	18.41	
2025-01-09 12:34:05.22	216.78	18.54	
2025-01-09 12:34:06.45	217.01	18.66	
2025-01-09 12:34:07.68	217.24	18.79	
2025-01-09 12:34:08.91	217.48	18.91	
2025-01-09 12:34:10.14	217.72	19.04	
2025-01-09 12:34:11.37	217.96	19.16	
2025-01-09 12:34:12.60	218.20	19.29	
2025-01-09 12:34:13.83	218.45	19.42	
2025-01-09 12:34:15.06	218.69	19.54	
2025-01-09 12:34:16.30	218.94	19.67	
2025-01-09 12:34:17.54	219.20	19.80	
2025-01-09 12:34:18.77	219.45	19.92	
2025-01-09 12:34:20.00	219.70	20.05	
2025-01-09 12:34:21.23	219.96	20.18	
2025-01-09 12:34:22.46	220.22	20.31	
2025-01-09 12:34:23.72	220.49	20.44	
2025-01-09 12:34:24.94	220.75	20.56	
2025-01-09 12:34:26.18	221.02	20.69	
2025-01-09 12:34:27.41	221.29	20.82	
2025-01-09 12:34:28.64	221.56	20.95	
2025-01-09 12:34:29.87	221.83	21.08	
2025-01-09 12:34:31.10	222.11	21.21	
2025-01-09 12:34:32.33	222.39	21.33	
2025-01-09 12:34:33.57	222.67	21.46	
2025-01-09 12:34:34.80	222.95	21.59	
2025-01-09 12:34:36.03	223.24	21.72	
2025-01-09 12:34:37.27	223.53	21.85	
2025-01-09 12:34:38.49	223.82	21.98	
2025-01-09 12:34:39.72	224.11	22.11	
2025-01-09 12:34:40.95	224.40	22.24	
2025-01-09 12:34:42.18	224.70	22.36	
2025-01-09 12:34:43.42	225.00	22.49	
2025-01-09 12:34:44.65	225.31	22.62	
2025-01-09 12:34:45.88	225.61	22.75	
2025-01-09 12:34:47.13	225.93	22.88	
2025-01-09 12:34:48.36	226.24	23.01	
2025-01-09 12:34:49.59	226.55	23.14	
2025-01-09 12:34:50.84	226.87	23.27	
2025-01-09 12:34:52.08	227.19	23.40	
2025-01-09 12:34:53.31	227.51	23.52	
2025-01-09 12:34:54.54	227.84	23.65	
2025-01-09 12:34:55.78	228.17	23.78	
2025-01-09 12:34:57.00	228.49	23.90	
2025-01-09 12:34:58.23	228.82	24.03	
2025-01-09 12:34:59.47	229.16	24.16	
2025-01-09 12:35:00.70	229.50	24.28	
2025-01-09 12:35:01.93	229.84	24.41	
2025-01-09 12:35:03.17	230.19	24.53	
2025-01-09 12:35:04.40	230.53	24.66	
2025-01-09 12:35:05.63	230.88	24.78	
2025-01-09 12:35:06.87	231.23	24.91	
2025-01-09 12:35:08.10	231.59	25.03	
2025-01-09 12:35:09.33	231.94	25.15	
2025-01-09 12:35:10.57	232.31	25.28	
2025-01-09 12:35:11.80	232.67	25.40	
2025-01-09 12:35:13.03	233.04	25.52	
2025-01-09 12:35:14.27	233.41	25.64	
2025-01-09 12:35:15.50	233.78	25.76	
2025-01-09 12:35:16.73	234.15	25.88	
2025-01-09 12:35:17.96	234.53	26.00	
2025-01-09 12:35:19.19	234.91	26.12	
2025-01-09 12:35:20.42	235.29	26.23	
2025-01-09 12:35:21.65	235.68	26.35	
2025-01-09 12:35:22.88	236.07	26.46	
2025-01-09 12:35:24.11	236.46	26.58	
2025-01-09 12:35:25.34	236.85	26.69	
2025-01-09 12:35:26.58	237.25	26.81	
2025-01-09 12:35:27.82	237.66	26.92	
2025-01-09 12:35:29.07	238.07	27.03	
2025-01-09 12:35:30.30	238.47	27.14	
2025-01-09 12:35:31.53	238.88	27.25	
2025-01-09 12:35:32.76	239.29	27.36	
2025-01-09 12:35:33.99	239.71	27.47	
2025-01-09 12:35:35.22	240.12	27.57	
2025-01-09 12:35:36.45	240.54	27.68	
2025-01-09 12:35:37.69	240.97	27.78	
2025-01-09 12:35:38.92	241.40	27.88	
2025-01-09 12:35:40.15	241.82	27.98	
2025-01-09 12:35:41.38	242.25	28.08	
2025-01-09 12:35:42.61	242.69	28.18	
2025-01-09 12:35:43.84	243.12	28.28	
2025-01-09 12:35:45.09	243.57	28.38	
2025-01-09 12:35:46.32	244.01	28.47	
2025-01-09 12:35:47.55	244.46	28.56	
2025-01-09 12:35:48.79	244.91	28.66	
2025-01-09 12:35:50.03	245.36	28.75	
2025-01-09 12:35:51.28	245.82	28.84	
2025-01-09 12:35:52.52	246.28	28.92	
2025-01-09 12:35:53.75	246.74	29.01	
2025-01-09 12:35:54.98	247.20	29.09	
2025-01-09 12:35:56.22	247.66	29.17	
2025-01-09 12:35:57.45	248.13	29.25	
2025-01-09 12:35:58.68	248.59	29.33	
2025-01-09 12:35:59.91	249.06	29.41	
2025-01-09 12:36:01.14	249.53	29.48	
2025-01-09 12:36:02.37	250.01	29.56	
2025-01-09 12:36:03.62	250.49	29.63	
2025-01-09 12:36:04.85	250.97	29.70	
2025-01-09 12:36:06.08	251.45	29.76	
2025-01-09 12:36:07.31	251.93	29.83	
2025-01-09 12:36:08.54	252.41	29.89	
2025-01-09 12:36:09.77	252.90	29.95	
2025-01-09 12:36:11.01	253.39	30.01	
2025-01-09 12:36:12.24	253.88	30.07	
2025-01-09 12:36:13.47	254.37	30.13	
2025-01-09 12:36:14.69	254.86	30.18	
2025-01-09 12:36:15.92	255.35	30.23	
2025-01-09 12:36:17.16	255.85	30.28	
2025-01-09 12:36:18.39	256.35	30.32	
2025-01-09 12:36:19.63	256.85	30.37	
2025-01-09 12:36:20.86	257.35	30.41	
2025-01-09 12:36:22.10	257.85	30.45	
2025-01-09 12:36:23.33	258.36	30.49	
2025-01-09 12:36:24.56	258.86	30.52	
2025-01-09 12:36:25.79	259.36	30.56	
2025-01-09 12:36:27.02	259.87	30.59	
2025-01-09 12:36:28.25	260.38	30.61	
2025-01-09 12:36:29.50	260.89	30.64	
2025-01-09 12:36:30.73	261.40	30.66	
2025-01-09 12:36:31.98	261.92	30.68	
2025-01-09 12:36:33.20	262.42	30.70	
2025-01-09 12:36:34.43	262.93	30.72	
2025-01-09 12:36:35.66	263.44	30.73	
2025-01-09 12:36:36.89	263.95	30.74	
2025-01-09 12:36:38.13	264.47	30.75	
2025-01-09 12:36:39.36	264.98	30.76	
2025-01-09 12:36:40.59	265.49	30.76	
2025-01-09 12:36:41.82	266.00	30.77	
2025-01-09 12:36:43.05	266.51	30.77	
2025-01-09 12:36:44.28	267.02	30.76	
2025-01-09 12:36:45.51	267.53	30.76	
2025-01-09 12:36:46.74	268.05	30.75	
2025-01-09 12:36:47.98	268.56	30.74	
2025-01-09 12:36:49.22	269.07	30.73	
2025-01-09 12:36:50.45	269.58	30.71	
2025-01-09 12:36:51.70	270.10	30.69	
2025-01-09 12:36:52.93	270.61	30.67	
2025-01-09 12:36:54.16	271.12	30.65	
2025-01-09 12:36:55.40	271.63	30.63	
2025-01-09 12:36:56.62	272.13	30.60	
2025-01-09 12:36:57.85	272.64	30.57	
2025-01-09 12:36:59.09	273.15	30.54	
2025-01-09 12:37:00.32	273.65	30.51	
2025-01-09 12:37:01.55	274.15	30.47	
2025-01-09 12:37:02.79	274.66	30.43	
2025-01-09 12:37:04.01	275.15	30.39	
2025-01-09 12:37:05.24	275.65	30.35	
2025-01-09 12:37:06.47	276.15	30.30	
2025-01-09 12:37:07.71	276.65	30.25	
2025-01-09 12:37:08.94	277.14	30.21	
2025-01-09 12:37:10.17	277.63	30.15	
2025-01-09 12:37:11.42	278.13	30.10	
2025-01-09 12:37:12.68	278.63	30.04	
2025-01-09 12:37:13.91	279.12	29.98	
2025-01-09 12:37:15.14	279.61	29.92	
2025-01-09 12:37:16.37	280.09	29.86	
2025-01-09 12:37:17.60	280.57	29.80	
2025-01-09 12:37:18.83	281.05	29.73	
2025-01-09 12:37:20.06	281.53	29.66	
2025-01-09 12:37:21.30	282.01	29.59	
2025-01-09 12:37:22.53	282.48	29.52	
2025-01-09 12:37:23.76	282.95	29.45	
2025-01-09 12:37:24.99	283.42	29.37	
2025-01-09 12:37:26.22	283.89	29.30	
2025-01-09 12:37:27.45	284.35	29.22	
2025-01-09 12:37:28.68	284.81	29.14	
2025-01-09 12:37:29.93	285.28	29.05	
2025-01-09 12:37:31.16	285.74	28.97	
2025-01-09 12:37:32.39	286.19	28.88	
2025-01-09 12:37:33.64	286.65	28.80	
2025-01-09 12:37:34.88	287.10	28.71	
2025-01-09 12:37:36.13	287.56	28.61	
2025-01-09 12:37:37.36	288.00	28.52	
2025-01-09 12:37:38.59	288.45	28.43	
2025-01-09 12:37:39.83	288.89	28.33	
2025-01-09 12:37:41.06	289.32	28.24	
2025-01-09 12:37:42.29	289.76	28.14	
2025-01-09 12:37:43.53	290.19	28.04	
2025-01-09 12:37:44.76	290.62	27.94	
2025-01-09 12:37:45.99	291.05	27.84	
2025-01-09 12:37:47.22	291.47	27.74	
2025-01-09 12:37:48.45	291.89	27.64	
2025-01-09 12:37:49.68	292.31	27.53	
2025-01-09 12:37:50.91	292.72	27.42	
2025-01-09 12:37:52.15	293.14	27.32	
2025-01-09 12:37:53.38	293.54	27.21	
2025-01-09 12:37:54.61	293.95	27.10	
2025-01-09 12:37:55.84	294.35	26.99	
2025-01-09 12:37:57.08	294.76	26.88	
2025-01-09 12:37:58.31	295.15	26.77	
2025-01-09 12:37:59.54	295.55	26.65	
2025-01-09 12:38:00.80	295.95	26.54	
2025-01-09 12:38:02.05	296.34	26.42	
2025-01-09 12:38:03.28	296.73	26.31	
2025-01-09 12:38:04.51	297.11	26.19	
2025-01-09 12:38:05.74	297.49	26.07	
2025-01-09 12:38:06.97	297.87	25.96	
2025-01-09 12:38:08.20	298.24	25.84	
2025-01-09 12:38:09.43	298.61	25.72	
2025-01-09 12:38:10.67	298.99	25.60	
2025-01-09 12:38:11.90	299.35	25.48	
2025-01-09 12:38:13.13	299.71	25.36	
2025-01-09 12:38:14.36	300.07	25.24	
2025-01-09 12:38:15.60	300.43	25.11	
2025-01-09 12:38:16.83	300.79	24.99	
2025-01-09 12:38:18.06	301.14	24.87	
2025-01-09 12:38:19.30	301.49	24.75	
2025-01-09 12:38:20.53	301.84	24.62	
2025-01-09 12:38:21.78	302.19	24.50	
2025-01-09 12:38:23.01	302.53	24.37	
2025-01-09 12:38:24.24	302.86	24.25	
2025-01-09 12:38:25.47	303.20	24.12	
2025-01-09 12:38:26.72	303.54	23.99	
2025-01-09 12:38:27.95	303.87	23.87	
2025-01-09 12:38:29.18	304.19	23.74	
2025-01-09 12:38:30.42	304.52	23.62	
2025-01-09 12:38:31.66	304.84	23.49	
2025-01-09 12:38:32.89	305.16	23.36	
2025-01-09 12:38:34.12	305.48	23.24	
2025-01-09 12:38:35.35	305.79	23.11	
2025-01-09 12:38:36.58	306.10	22.98	
2025-01-09 12:38:37.81	306.41	22.85	
2025-01-09 12:38:39.06	306.72	22.73	
2025-01-09 12:38:40.29	307.02	22.60	
2025-01-09 12:38:41.52	307.32	22.47	
2025-01-09 12:38:42.75	307.62	22.34	
2025-01-09 12:38:43.98	307.92	22.22	
2025-01-09 12:38:45.21	308.21	22.09	
2025-01-09 12:38:46.44	308.50	21.96	
2025-01-09 12:38:47.68	308.79	21.83	
2025-01-09 12:38:48.91	309.07	21.70	
2025-01-09 12:38:50.13	309.35	21.58	
2025-01-09 12:38:51.35	309.63	21.45	
2025-01-09 12:38:52.58	309.91	21.32	
2025-01-09 12:38:53.80	310.19	21.20	
2025-01-09 12:38:55.06	310.47	21.07	
2025-01-09 12:38:56.33	310.75	20.93	
2025-01-09 12:38:57.56	311.01	20.81	
2025-01-09 12:38:58.78	311.28	20.68	
2025-01-09 12:39:00.03	311.55	20.55	
2025-01-09 12:39:01.25	311.81	20.43	
2025-01-09 12:39:02.52	312.08	20.30	
2025-01-09 12:39:03.76	312.34	20.17	
2025-01-09 12:39:04.98	312.59	20.04	
2025-01-09 12:39:06.19	312.84	19.92	
2025-01-09 12:39:07.41	313.09	19.79	
2025-01-09 12:39:08.69	313.35	19.66	
2025-01-09 12:39:09.94	313.60	19.53	
2025-01-09 12:39:11.21	313.85	19.41	
2025-01-09 12:39:12.43	314.09	19.28	
2025-01-09 12:39:13.65	314.33	19.16	
2025-01-09 12:39:14.88	314.57	19.03	
2025-01-09 12:39:16.10	314.80	18.91	
2025-01-09 12:39:17.32	315.04	18.79	
2025-01-09 12:39:18.53	315.27	18.66	
2025-01-09 12:39:19.79	315.50	18.54	
2025-01-09 12:39:21.01	315.73	18.41	
2025-01-09 12:39:22.23	315.95	18.29	
2025-01-09 12:39:23.48	316.18	18.17	
2025-01-09 12:39:24.72	316.41	18.04	
2025-01-09 12:39:25.98	316.63	17.92	
2025-01-09 12:39:27.20	316.85	17.80	
2025-01-09 12:39:28.41	317.07	17.68	
2025-01-09 12:39:29.68	317.29	17.55	
2025-01-09 12:39:30.91	317.50	17.43	
2025-01-09 12:39:32.15	317.72	17.31	
2025-01-09 12:39:33.38	317.93	17.19	
2025-01-09 12:39:34.62	318.14	17.07	
2025-01-09 12:39:35.86	318.35	16.94	
2025-01-09 12:39:37.10	318.55	16.82	
2025-01-09 12:39:38.34	318.76	16.70	
2025-01-09 12:39:39.58	318.96	16.58	
2025-01-09 12:39:40.81	319.16	16.46	
2025-01-09 12:39:42.05	319.36	16.34	
2025-01-09 12:39:43.28	319.56	16.23	
2025-01-09 12:39:44.51	319.76	16.11	
2025-01-09 12:39:45.74	319.95	15.99	
2025-01-09 12:39:46.97	320.14	15.87	
2025-01-09 12:39:48.20	320.33	15.76	
2025-01-09 12:39:49.43	320.52	15.64	
2025-01-09 12:39:50.66	320.71	15.52	
2025-01-09 12:39:51.91	320.90	15.41	
2025-01-09 12:39:53.14	321.08	15.29	
2025-01-09 12:39:54.38	321.27	15.18	
2025-01-09 12:39:55.62	321.45	15.06	
2025-01-09 12:39:56.84	321.63	14.95	
2025-01-09 12:39:58.08	321.81	14.83	
2025-01-09 12:39:59.30	321.99	14.72	
2025-01-09 12:40:00.54	322.17	14.60	
2025-01-09 12:40:01.78	322.34	14.49	
2025-01-09 12:40:03.02	322.52	14.38	
2025-01-09 12:40:04.25	322.69	14.27	
2025-01-09 12:40:05.49	322.86	14.15	
2025-01-09 12:40:06.72	323.03	14.04	
2025-01-09 12:40:07.95	323.20	13.93	
2025-01-09 12:40:09.18	323.36	13.82	
2025-01-09 12:40:10.41	323.53	13.71	
2025-01-09 12:40:11.66	323.70	13.60	
2025-01-09 12:40:12.89	323.86	13.49	
2025-01-09 12:40:14.13	324.02	13.38	
2025-01-09 12:40:15.37	324.18	13.27	
2025-01-09 12:40:16.60	324.34	13.16	
2025-01-09 12:40:17.83	324.50	13.05	
2025-01-09 12:40:19.06	324.66	12.94	
2025-01-09 12:40:20.29	324.81	12.83	
2025-01-09 12:40:21.52	324.97	12.73	
2025-01-09 12:40:22.77	325.12	12.62	
2025-01-09 12:40:23.99	325.28	12.51	
2025-01-09 12:40:25.22	325.43	12.41	
2025-01-09 12:40:26.44	325.58	12.30	
2025-01-09 12:40:27.67	325.72	12.19	
2025-01-09 12:40:28.91	325.87	12.09	
2025-01-09 12:40:30.14	326.02	11.98	
2025-01-09 12:40:31.37	326.17	11.88	
2025-01-09 12:40:32.60	326.31	11.77	
2025-01-09 12:40:33.83	326.45	11.67	
2025-01-09 12:40:35.06	326.60	11.57	
2025-01-09 12:40:36.29	326.74	11.46	
2025-01-09 12:40:37.52	326.88	11.36	
2025-01-09 12:40:38.75	327.02	11.26	
2025-01-09 12:40:39.98	327.16	11.16	
2025-01-09 12:40:41.21	327.29	11.06	
2025-01-09 12:40:42.44	327.43	10.95	
2025-01-09 12:40:43.68	327.57	10.85	
2025-01-09 12:40:44.90	327.70	10.75	
2025-01-09 12:40:46.14	327.83	10.65	
2025-01-09 12:40:47.36	327.97	10.55	
2025-01-09 12:40:48.60	328.10	10.45	
2025-01-09 12:40:49.83	328.23	10.35	
2025-01-09 12:40:51.06	328.36	10.25	
2025-01-09 12:40:52.29	328.49	10.15	
2025-01-09 12:40:53.52	328.62	10.05	
2025-01-09 12:40:54.75	328.74	9.96	
2025-01-09 12:40:55.99	328.87	9.86	
2025-01-09 12:40:57.23	329.00	9.76	
2025-01-09 12:40:58.46	329.12	9.66	
2025-01-09 12:40:59.70	329.25	9.56	
2025-01-09 12:41:00.93	329.37	9.47	
2025-01-09 12:41:02.16	329.49	9.37	
2025-01-09 12:41:03.41	329.61	9.27	
2025-01-09 12:41:04.65	329.73	9.18	
2025-01-09 12:41:05.88	329.85	9.08	
2025-01-09 12:41:07.11	329.97	8.99	
2025-01-09 12:41:08.36	330.09	8.89	
2025-01-09 12:41:09.59	330.21	8.80	
2025-01-09 12:41:10.83	330.33	8.70	
2025-01-09 12:41:12.06	330.44	8.61	
2025-01-09 12:41:13.30	330.56	8.51	
2025-01-09 12:41:14.54	330.67	8.42	
2025-01-09 12:41:15.77	330.79	8.33	
2025-01-09 12:41:17.00	330.90	8.23	
2025-01-09 12:41:18.23	331.01	8.14	
2025-01-09 12:41:19.47	331.12	8.05	
2025-01-09 12:41:20.72	331.24	7.96	
2025-01-09 12:41:21.95	331.35	7.86	
2025-01-09 12:41:23.19	331.45	7.77	
2025-01-09 12:41:24.44	331.56	7.68	
2025-01-09 12:41:25.67	331.67	7.59	
2025-01-09 12:41:26.91	331.78	7.50	
2025-01-09 12:41:28.14	331.89	7.41	
2025-01-09 12:41:29.38	331.99	7.32	
2025-01-09 12:41:30.60	332.10	7.23	
2025-01-09 12:41:31.84	332.20	7.14	
2025-01-09 12:41:33.07	332.31	7.05	
2025-01-09 12:41:34.30	332.41	6.96	
2025-01-09 12:41:35.53	332.51	6.87	
2025-01-09 12:41:36.76	332.61	6.78	
2025-01-09 12:41:38.00	332.71	6.70	
2025-01-09 12:41:39.23	332.81	6.61	
2025-01-09 12:41:40.47	332.91	6.52	
2025-01-09 12:41:41.70	333.01	6.43	
2025-01-09 12:41:42.94	333.11	6.35	
2025-01-09 12:41:44.17	333.21	6.26	
2025-01-09 12:41:45.40	333.31	6.17	
2025-01-09 12:41:46.63	333.41	6.09	
2025-01-09 12:41:47.88	333.50	6.00	
2025-01-09 12:41:49.11	333.60	5.91	
2025-01-09 12:41:50.34	333.69	5.83	
2025-01-09 12:41:51.57	333.79	5.74	
2025-01-09 12:41:52.80	333.88	5.66	
2025-01-09 12:41:54.03	333.98	5.57	
2025-01-09 12:41:55.27	334.07	5.49	
2025-01-09 12:41:56.50	334.16	5.41	
2025-01-09 12:41:57.73	334.25	5.32	
2025-01-09 12:41:58.96	334.34	5.24	
2025-01-09 12:42:00.19	334.43	5.16	
2025-01-09 12:42:01.43	334.53	5.07	
2025-01-09 12:42:02.67	334.62	4.99	
2025-01-09 12:42:03.90	334.70	4.91	
2025-01-09 12:42:05.14	334.79	4.82	
2025-01-09 12:42:06.37	334.88	4.74	
2025-01-09 12:42:07.60	334.97	4.66	
2025-01-09 12:42:08.85	335.06	4.58	
2025-01-09 12:42:10.08	335.14	4.49	
2025-01-09 12:42:11.31	335.23	4.41	
2025-01-09 12:42:12.54	335.32	4.33	
2025-01-09 12:42:13.78	335.40	4.25	
2025-01-09 12:42:15.01	335.49	4.17	
2025-01-09 12:42:16.24	335.57	4.09	
2025-01-09 12:42:17.48	335.66	4.01	

#Closed at: 2025-01-09 12:42:17