passes_logs/2025/01/09/SPB_Silybum_02/SPB_Silybum_02__20250109_025425_AQUA_rec.log

#Pass ID: 20250109_025425_AQUA
#Satellite: AQUA
#Configuration: AQUA
#Start time: 2025-01-09 02:54:24

#Version: 2.0.20230423
#Station: SPB_Silybum_02
#Location: 30.233357 lon 59.946436 lat
#TLE: 1 27424U 02022A   25008.15498937  .00002389  00000+0  50057-3 0  9997
#TLE: 2 27424  98.3576 324.7578 0001462 118.2546 298.6643 14.60656725206621

#Time	Az	El	Level	Level2	SNR	BER	Gain	Gain2
2025-01-09 02:54:26.60	10.83	4.05	
2025-01-09 02:54:27.83	10.73	4.13	
2025-01-09 02:54:29.06	10.64	4.21	
2025-01-09 02:54:30.29	10.54	4.29	
2025-01-09 02:54:31.52	10.45	4.36	
2025-01-09 02:54:32.75	10.35	4.44	
2025-01-09 02:54:33.99	10.25	4.52	
2025-01-09 02:54:35.22	10.15	4.60	
2025-01-09 02:54:36.46	10.05	4.68	
2025-01-09 02:54:37.70	9.95	4.76	
2025-01-09 02:54:38.93	9.85	4.84	
2025-01-09 02:54:40.17	9.75	4.92	
2025-01-09 02:54:41.40	9.65	5.00	
2025-01-09 02:54:42.62	9.55	5.08	
2025-01-09 02:54:43.86	9.45	5.16	
2025-01-09 02:54:45.09	9.34	5.24	
2025-01-09 02:54:46.32	9.24	5.32	
2025-01-09 02:54:47.55	9.14	5.40	
2025-01-09 02:54:48.78	9.03	5.49	
2025-01-09 02:54:50.01	8.93	5.57	
2025-01-09 02:54:51.23	8.82	5.65	
2025-01-09 02:54:52.46	8.71	5.73	
2025-01-09 02:54:53.69	8.61	5.81	
2025-01-09 02:54:54.93	8.50	5.89	
2025-01-09 02:54:56.16	8.39	5.98	
2025-01-09 02:54:57.39	8.28	6.06	
2025-01-09 02:54:58.62	8.17	6.14	
2025-01-09 02:54:59.85	8.06	6.22	
2025-01-09 02:55:01.08	7.94	6.31	
2025-01-09 02:55:02.31	7.83	6.39	
2025-01-09 02:55:03.55	7.72	6.47	
2025-01-09 02:55:04.80	7.60	6.56	
2025-01-09 02:55:06.03	7.49	6.64	
2025-01-09 02:55:07.26	7.37	6.73	
2025-01-09 02:55:08.49	7.25	6.81	
2025-01-09 02:55:09.72	7.14	6.90	
2025-01-09 02:55:10.96	7.02	6.98	
2025-01-09 02:55:12.20	6.90	7.07	
2025-01-09 02:55:13.42	6.78	7.15	
2025-01-09 02:55:14.65	6.66	7.24	
2025-01-09 02:55:15.89	6.54	7.32	
2025-01-09 02:55:17.12	6.42	7.41	
2025-01-09 02:55:18.35	6.29	7.49	
2025-01-09 02:55:19.58	6.17	7.58	
2025-01-09 02:55:20.81	6.05	7.67	
2025-01-09 02:55:22.05	5.92	7.75	
2025-01-09 02:55:23.28	5.79	7.84	
2025-01-09 02:55:24.51	5.67	7.93	
2025-01-09 02:55:25.73	5.54	8.01	
2025-01-09 02:55:26.96	5.41	8.10	
2025-01-09 02:55:28.19	5.28	8.19	
2025-01-09 02:55:29.42	5.15	8.27	
2025-01-09 02:55:30.66	5.02	8.36	
2025-01-09 02:55:31.90	4.89	8.45	
2025-01-09 02:55:33.13	4.75	8.54	
2025-01-09 02:55:34.35	4.62	8.63	
2025-01-09 02:55:35.60	4.48	8.72	
2025-01-09 02:55:36.85	4.35	8.81	
2025-01-09 02:55:38.08	4.21	8.90	
2025-01-09 02:55:39.31	4.07	8.99	
2025-01-09 02:55:40.54	3.93	9.08	
2025-01-09 02:55:41.77	3.79	9.17	
2025-01-09 02:55:43.00	3.65	9.26	
2025-01-09 02:55:44.23	3.51	9.35	
2025-01-09 02:55:45.46	3.37	9.44	
2025-01-09 02:55:46.69	3.23	9.53	
2025-01-09 02:55:47.93	3.08	9.62	
2025-01-09 02:55:49.16	2.94	9.71	
2025-01-09 02:55:50.39	2.79	9.80	
2025-01-09 02:55:51.62	2.64	9.89	
2025-01-09 02:55:52.85	2.49	9.98	
2025-01-09 02:55:54.08	2.34	10.07	
2025-01-09 02:55:55.31	2.19	10.17	
2025-01-09 02:55:56.54	2.04	10.26	
2025-01-09 02:55:57.76	1.89	10.35	
2025-01-09 02:55:58.99	1.74	10.44	
2025-01-09 02:56:00.22	1.58	10.53	
2025-01-09 02:56:01.46	1.43	10.63	
2025-01-09 02:56:02.70	1.27	10.72	
2025-01-09 02:56:03.93	1.11	10.81	
2025-01-09 02:56:05.16	0.95	10.91	
2025-01-09 02:56:06.39	0.79	11.00	
2025-01-09 02:56:07.61	0.63	11.09	
2025-01-09 02:56:08.84	0.47	11.19	
2025-01-09 02:56:10.07	0.30	11.28	
2025-01-09 02:56:11.30	0.14	11.38	
2025-01-09 02:56:12.54	359.97	11.47	
2025-01-09 02:56:13.78	359.80	11.57	
2025-01-09 02:56:15.00	359.64	11.66	
2025-01-09 02:56:16.24	359.46	11.76	
2025-01-09 02:56:17.48	359.29	11.85	
2025-01-09 02:56:18.72	359.12	11.95	
2025-01-09 02:56:19.96	358.94	12.05	
2025-01-09 02:56:21.19	358.77	12.14	
2025-01-09 02:56:22.42	358.59	12.24	
2025-01-09 02:56:23.65	358.42	12.33	
2025-01-09 02:56:24.90	358.23	12.43	
2025-01-09 02:56:26.13	358.06	12.53	
2025-01-09 02:56:27.35	357.88	12.62	
2025-01-09 02:56:28.58	357.69	12.72	
2025-01-09 02:56:29.81	357.51	12.82	
2025-01-09 02:56:31.04	357.32	12.91	
2025-01-09 02:56:32.27	357.14	13.01	
2025-01-09 02:56:33.52	356.95	13.11	
2025-01-09 02:56:34.75	356.76	13.21	
2025-01-09 02:56:35.97	356.57	13.30	
2025-01-09 02:56:37.20	356.38	13.40	
2025-01-09 02:56:38.43	356.19	13.50	
2025-01-09 02:56:39.66	355.99	13.60	
2025-01-09 02:56:40.89	355.79	13.69	
2025-01-09 02:56:42.12	355.60	13.79	
2025-01-09 02:56:43.37	355.40	13.89	
2025-01-09 02:56:44.59	355.20	13.99	
2025-01-09 02:56:45.82	354.99	14.09	
2025-01-09 02:56:47.05	354.79	14.19	
2025-01-09 02:56:48.29	354.59	14.29	
2025-01-09 02:56:49.52	354.38	14.39	
2025-01-09 02:56:50.75	354.17	14.48	
2025-01-09 02:56:51.98	353.96	14.58	
2025-01-09 02:56:53.22	353.75	14.68	
2025-01-09 02:56:54.45	353.54	14.78	
2025-01-09 02:56:55.68	353.32	14.88	
2025-01-09 02:56:56.90	353.11	14.98	
2025-01-09 02:56:58.15	352.89	15.08	
2025-01-09 02:56:59.38	352.67	15.18	
2025-01-09 02:57:00.60	352.45	15.28	
2025-01-09 02:57:01.83	352.23	15.38	
2025-01-09 02:57:03.08	352.00	15.48	
2025-01-09 02:57:04.31	351.78	15.58	
2025-01-09 02:57:05.55	351.55	15.68	
2025-01-09 02:57:06.79	351.32	15.78	
2025-01-09 02:57:08.02	351.09	15.88	
2025-01-09 02:57:09.25	350.86	15.98	
2025-01-09 02:57:10.48	350.63	16.08	
2025-01-09 02:57:11.72	350.39	16.18	
2025-01-09 02:57:12.95	350.15	16.28	
2025-01-09 02:57:14.18	349.92	16.38	
2025-01-09 02:57:15.42	349.67	16.48	
2025-01-09 02:57:16.65	349.43	16.57	
2025-01-09 02:57:17.88	349.19	16.67	
2025-01-09 02:57:19.12	348.94	16.77	
2025-01-09 02:57:20.35	348.69	16.87	
2025-01-09 02:57:21.58	348.45	16.97	
2025-01-09 02:57:22.81	348.20	17.07	
2025-01-09 02:57:24.04	347.94	17.17	
2025-01-09 02:57:25.27	347.69	17.27	
2025-01-09 02:57:26.50	347.43	17.37	
2025-01-09 02:57:27.73	347.18	17.47	
2025-01-09 02:57:28.96	346.92	17.56	
2025-01-09 02:57:30.19	346.66	17.66	
2025-01-09 02:57:31.43	346.39	17.76	
2025-01-09 02:57:32.66	346.13	17.86	
2025-01-09 02:57:33.89	345.86	17.96	
2025-01-09 02:57:35.13	345.59	18.05	
2025-01-09 02:57:36.37	345.32	18.15	
2025-01-09 02:57:37.60	345.04	18.25	
2025-01-09 02:57:38.83	344.77	18.35	
2025-01-09 02:57:40.06	344.49	18.44	
2025-01-09 02:57:41.29	344.21	18.54	
2025-01-09 02:57:42.52	343.93	18.63	
2025-01-09 02:57:43.75	343.65	18.73	
2025-01-09 02:57:44.97	343.37	18.82	
2025-01-09 02:57:46.20	343.09	18.92	
2025-01-09 02:57:47.44	342.80	19.02	
2025-01-09 02:57:48.66	342.51	19.11	
2025-01-09 02:57:49.89	342.22	19.20	
2025-01-09 02:57:51.13	341.92	19.30	
2025-01-09 02:57:52.37	341.62	19.39	
2025-01-09 02:57:53.60	341.33	19.49	
2025-01-09 02:57:54.83	341.03	19.58	
2025-01-09 02:57:56.07	340.73	19.67	
2025-01-09 02:57:57.31	340.42	19.76	
2025-01-09 02:57:58.55	340.11	19.86	
2025-01-09 02:57:59.78	339.81	19.95	
2025-01-09 02:58:01.01	339.50	20.04	
2025-01-09 02:58:02.24	339.19	20.13	
2025-01-09 02:58:03.48	338.87	20.22	
2025-01-09 02:58:04.71	338.56	20.31	
2025-01-09 02:58:05.94	338.24	20.39	
2025-01-09 02:58:07.17	337.92	20.48	
2025-01-09 02:58:08.40	337.60	20.57	
2025-01-09 02:58:09.63	337.28	20.66	
2025-01-09 02:58:10.86	336.95	20.74	
2025-01-09 02:58:12.09	336.63	20.83	
2025-01-09 02:58:13.32	336.30	20.91	
2025-01-09 02:58:14.55	335.97	21.00	
2025-01-09 02:58:15.78	335.64	21.08	
2025-01-09 02:58:17.01	335.30	21.16	
2025-01-09 02:58:18.24	334.97	21.24	
2025-01-09 02:58:19.47	334.63	21.33	
2025-01-09 02:58:20.70	334.29	21.41	
2025-01-09 02:58:21.94	333.95	21.49	
2025-01-09 02:58:23.16	333.61	21.57	
2025-01-09 02:58:24.41	333.25	21.64	
2025-01-09 02:58:25.64	332.91	21.72	
2025-01-09 02:58:26.87	332.56	21.80	
2025-01-09 02:58:28.10	332.21	21.87	
2025-01-09 02:58:29.33	331.86	21.95	
2025-01-09 02:58:30.57	331.50	22.02	
2025-01-09 02:58:31.80	331.14	22.10	
2025-01-09 02:58:33.03	330.78	22.17	
2025-01-09 02:58:34.26	330.42	22.24	
2025-01-09 02:58:35.48	330.07	22.31	
2025-01-09 02:58:36.72	329.70	22.38	
2025-01-09 02:58:37.96	329.33	22.45	
2025-01-09 02:58:39.18	328.97	22.52	
2025-01-09 02:58:40.41	328.60	22.58	
2025-01-09 02:58:41.64	328.23	22.65	
2025-01-09 02:58:42.89	327.85	22.71	
2025-01-09 02:58:44.12	327.48	22.78	
2025-01-09 02:58:45.35	327.10	22.84	
2025-01-09 02:58:46.58	326.73	22.90	
2025-01-09 02:58:47.81	326.35	22.96	
2025-01-09 02:58:49.04	325.97	23.02	
2025-01-09 02:58:50.27	325.59	23.08	
2025-01-09 02:58:51.50	325.21	23.13	
2025-01-09 02:58:52.73	324.82	23.19	
2025-01-09 02:58:53.98	324.43	23.24	
2025-01-09 02:58:55.21	324.04	23.29	
2025-01-09 02:58:56.44	323.66	23.35	
2025-01-09 02:58:57.66	323.27	23.40	
2025-01-09 02:58:58.89	322.88	23.45	
2025-01-09 02:59:00.12	322.49	23.49	
2025-01-09 02:59:01.35	322.09	23.54	
2025-01-09 02:59:02.59	321.70	23.58	
2025-01-09 02:59:03.83	321.30	23.63	
2025-01-09 02:59:05.06	320.90	23.67	
2025-01-09 02:59:06.30	320.50	23.71	
2025-01-09 02:59:07.53	320.10	23.75	
2025-01-09 02:59:08.76	319.70	23.79	
2025-01-09 02:59:09.99	319.30	23.83	
2025-01-09 02:59:11.22	318.90	23.86	
2025-01-09 02:59:12.46	318.49	23.90	
2025-01-09 02:59:13.70	318.08	23.93	
2025-01-09 02:59:14.92	317.68	23.96	
2025-01-09 02:59:16.15	317.28	23.99	
2025-01-09 02:59:17.38	316.87	24.02	
2025-01-09 02:59:18.62	316.46	24.04	
2025-01-09 02:59:19.85	316.05	24.07	
2025-01-09 02:59:21.10	315.64	24.09	
2025-01-09 02:59:22.33	315.23	24.11	
2025-01-09 02:59:23.56	314.82	24.14	
2025-01-09 02:59:24.80	314.40	24.15	
2025-01-09 02:59:26.02	313.99	24.17	
2025-01-09 02:59:27.25	313.58	24.19	
2025-01-09 02:59:28.48	313.17	24.20	
2025-01-09 02:59:29.71	312.76	24.22	
2025-01-09 02:59:30.94	312.35	24.23	
2025-01-09 02:59:32.17	311.93	24.24	
2025-01-09 02:59:33.40	311.52	24.24	
2025-01-09 02:59:34.63	311.11	24.25	
2025-01-09 02:59:35.86	310.69	24.26	
2025-01-09 02:59:37.09	310.28	24.26	
2025-01-09 02:59:38.32	309.87	24.26	
2025-01-09 02:59:39.55	309.45	24.26	
2025-01-09 02:59:40.78	309.04	24.26	
2025-01-09 02:59:42.02	308.62	24.26	
2025-01-09 02:59:43.26	308.20	24.25	
2025-01-09 02:59:44.49	307.79	24.25	
2025-01-09 02:59:45.74	307.37	24.24	
2025-01-09 02:59:46.97	306.96	24.23	
2025-01-09 02:59:48.22	306.54	24.22	
2025-01-09 02:59:49.46	306.12	24.21	
2025-01-09 02:59:50.69	305.71	24.20	
2025-01-09 02:59:51.93	305.29	24.18	
2025-01-09 02:59:53.16	304.88	24.16	
2025-01-09 02:59:54.41	304.46	24.15	
2025-01-09 02:59:55.65	304.05	24.13	
2025-01-09 02:59:56.88	303.64	24.10	
2025-01-09 02:59:58.11	303.23	24.08	
2025-01-09 02:59:59.34	302.82	24.06	
2025-01-09 03:00:00.57	302.41	24.03	
2025-01-09 03:00:01.80	302.01	24.00	
2025-01-09 03:00:03.03	301.60	23.97	
2025-01-09 03:00:04.26	301.20	23.94	
2025-01-09 03:00:05.49	300.79	23.91	
2025-01-09 03:00:06.71	300.39	23.88	
2025-01-09 03:00:07.95	299.98	23.85	
2025-01-09 03:00:09.18	299.58	23.81	
2025-01-09 03:00:10.40	299.18	23.77	
2025-01-09 03:00:11.64	298.78	23.73	
2025-01-09 03:00:12.87	298.38	23.69	
2025-01-09 03:00:14.10	297.98	23.65	
2025-01-09 03:00:15.33	297.58	23.61	
2025-01-09 03:00:16.56	297.19	23.56	
2025-01-09 03:00:17.79	296.79	23.52	
2025-01-09 03:00:19.02	296.40	23.47	
2025-01-09 03:00:20.26	296.00	23.42	
2025-01-09 03:00:21.50	295.61	23.37	
2025-01-09 03:00:22.75	295.21	23.32	
2025-01-09 03:00:23.98	294.83	23.27	
2025-01-09 03:00:25.22	294.44	23.21	
2025-01-09 03:00:26.46	294.05	23.16	
2025-01-09 03:00:27.70	293.66	23.10	
2025-01-09 03:00:28.94	293.27	23.05	
2025-01-09 03:00:30.17	292.89	22.99	
2025-01-09 03:00:31.40	292.51	22.93	
2025-01-09 03:00:32.63	292.14	22.87	
2025-01-09 03:00:33.86	291.76	22.81	
2025-01-09 03:00:35.11	291.38	22.74	
2025-01-09 03:00:36.34	291.00	22.68	
2025-01-09 03:00:37.56	290.64	22.61	
2025-01-09 03:00:38.80	290.26	22.55	
2025-01-09 03:00:40.03	289.89	22.48	
2025-01-09 03:00:41.27	289.52	22.41	
2025-01-09 03:00:42.50	289.16	22.34	
2025-01-09 03:00:43.73	288.80	22.27	
2025-01-09 03:00:44.95	288.44	22.20	
2025-01-09 03:00:46.18	288.08	22.13	
2025-01-09 03:00:47.41	287.72	22.06	
2025-01-09 03:00:48.66	287.36	21.98	
2025-01-09 03:00:49.90	287.00	21.91	
2025-01-09 03:00:51.13	286.65	21.83	
2025-01-09 03:00:52.36	286.30	21.75	
2025-01-09 03:00:53.59	285.95	21.68	
2025-01-09 03:00:54.82	285.60	21.60	
2025-01-09 03:00:56.05	285.25	21.52	
2025-01-09 03:00:57.28	284.91	21.44	
2025-01-09 03:00:58.51	284.57	21.36	
2025-01-09 03:00:59.74	284.23	21.28	
2025-01-09 03:01:00.96	283.89	21.20	
2025-01-09 03:01:02.19	283.56	21.11	
2025-01-09 03:01:03.42	283.22	21.03	
2025-01-09 03:01:04.66	282.89	20.95	
2025-01-09 03:01:05.90	282.55	20.86	
2025-01-09 03:01:07.13	282.23	20.77	
2025-01-09 03:01:08.35	281.90	20.69	
2025-01-09 03:01:09.58	281.58	20.60	
2025-01-09 03:01:10.83	281.25	20.51	
2025-01-09 03:01:12.05	280.93	20.43	
2025-01-09 03:01:13.28	280.61	20.34	
2025-01-09 03:01:14.51	280.30	20.25	
2025-01-09 03:01:15.74	279.98	20.16	
2025-01-09 03:01:16.98	279.67	20.07	
2025-01-09 03:01:18.22	279.35	19.98	
2025-01-09 03:01:19.45	279.04	19.89	
2025-01-09 03:01:20.68	278.74	19.80	
2025-01-09 03:01:21.91	278.43	19.70	
2025-01-09 03:01:23.14	278.13	19.61	
2025-01-09 03:01:24.38	277.82	19.52	
2025-01-09 03:01:25.61	277.52	19.42	
2025-01-09 03:01:26.84	277.23	19.33	
2025-01-09 03:01:28.07	276.93	19.24	
2025-01-09 03:01:29.30	276.64	19.14	
2025-01-09 03:01:30.53	276.35	19.05	
2025-01-09 03:01:31.76	276.06	18.95	
2025-01-09 03:01:33.00	275.77	18.86	
2025-01-09 03:01:34.23	275.48	18.76	
2025-01-09 03:01:35.46	275.20	18.66	
2025-01-09 03:01:36.69	274.91	18.57	
2025-01-09 03:01:37.92	274.63	18.47	
2025-01-09 03:01:39.17	274.35	18.37	
2025-01-09 03:01:40.43	274.07	18.27	
2025-01-09 03:01:41.66	273.79	18.18	
2025-01-09 03:01:42.88	273.52	18.08	
2025-01-09 03:01:44.12	273.25	17.98	
2025-01-09 03:01:45.34	272.98	17.88	
2025-01-09 03:01:46.57	272.72	17.79	
2025-01-09 03:01:47.80	272.45	17.69	
2025-01-09 03:01:49.03	272.19	17.59	
2025-01-09 03:01:50.28	271.92	17.49	
2025-01-09 03:01:51.51	271.66	17.39	
2025-01-09 03:01:52.75	271.40	17.29	
2025-01-09 03:01:53.98	271.14	17.19	
2025-01-09 03:01:55.21	270.89	17.09	
2025-01-09 03:01:56.45	270.64	16.99	
2025-01-09 03:01:57.69	270.38	16.89	
2025-01-09 03:01:58.92	270.13	16.79	
2025-01-09 03:02:00.14	269.89	16.69	
2025-01-09 03:02:01.39	269.64	16.59	
2025-01-09 03:02:02.63	269.39	16.49	
2025-01-09 03:02:03.87	269.15	16.39	
2025-01-09 03:02:05.10	268.91	16.29	
2025-01-09 03:02:06.33	268.67	16.19	
2025-01-09 03:02:07.56	268.43	16.09	
2025-01-09 03:02:08.79	268.20	15.99	
2025-01-09 03:02:10.03	267.96	15.89	
2025-01-09 03:02:11.26	267.73	15.79	
2025-01-09 03:02:12.49	267.50	15.69	
2025-01-09 03:02:13.72	267.27	15.59	
2025-01-09 03:02:14.97	267.04	15.49	
2025-01-09 03:02:16.20	266.82	15.39	
2025-01-09 03:02:17.43	266.59	15.29	
2025-01-09 03:02:18.68	266.37	15.19	
2025-01-09 03:02:19.91	266.15	15.09	
2025-01-09 03:02:21.14	265.93	14.99	
2025-01-09 03:02:22.37	265.71	14.89	
2025-01-09 03:02:23.60	265.49	14.79	
2025-01-09 03:02:24.82	265.28	14.69	
2025-01-09 03:02:26.07	265.07	14.59	
2025-01-09 03:02:27.31	264.85	14.49	
2025-01-09 03:02:28.54	264.64	14.39	
2025-01-09 03:02:29.79	264.43	14.29	
2025-01-09 03:02:31.02	264.23	14.19	
2025-01-09 03:02:32.26	264.02	14.09	
2025-01-09 03:02:33.49	263.82	13.99	
2025-01-09 03:02:34.72	263.61	13.89	
2025-01-09 03:02:35.94	263.41	13.80	
2025-01-09 03:02:37.18	263.21	13.70	
2025-01-09 03:02:38.41	263.02	13.60	
2025-01-09 03:02:39.63	262.82	13.50	
2025-01-09 03:02:40.87	262.62	13.40	
2025-01-09 03:02:42.11	262.43	13.30	
2025-01-09 03:02:43.34	262.24	13.20	
2025-01-09 03:02:44.56	262.05	13.11	
2025-01-09 03:02:45.79	261.86	13.01	
2025-01-09 03:02:47.02	261.67	12.91	
2025-01-09 03:02:48.26	261.48	12.81	
2025-01-09 03:02:49.50	261.29	12.72	
2025-01-09 03:02:50.72	261.11	12.62	
2025-01-09 03:02:51.96	260.93	12.52	
2025-01-09 03:02:53.19	260.75	12.42	
2025-01-09 03:02:54.42	260.57	12.33	
2025-01-09 03:02:55.65	260.39	12.23	
2025-01-09 03:02:56.88	260.21	12.13	
2025-01-09 03:02:58.11	260.03	12.04	
2025-01-09 03:02:59.33	259.86	11.94	
2025-01-09 03:03:00.58	259.68	11.85	
2025-01-09 03:03:01.81	259.51	11.75	
2025-01-09 03:03:03.03	259.34	11.66	
2025-01-09 03:03:04.26	259.17	11.56	
2025-01-09 03:03:05.49	259.00	11.47	
2025-01-09 03:03:06.72	258.83	11.37	
2025-01-09 03:03:07.96	258.67	11.27	
2025-01-09 03:03:09.19	258.50	11.18	
2025-01-09 03:03:10.42	258.34	11.09	
2025-01-09 03:03:11.65	258.17	10.99	
2025-01-09 03:03:12.88	258.01	10.90	
2025-01-09 03:03:14.12	257.85	10.80	
2025-01-09 03:03:15.35	257.69	10.71	
2025-01-09 03:03:16.58	257.53	10.62	
2025-01-09 03:03:17.81	257.37	10.52	
2025-01-09 03:03:19.04	257.22	10.43	
2025-01-09 03:03:20.27	257.06	10.34	
2025-01-09 03:03:21.49	256.91	10.24	
2025-01-09 03:03:22.72	256.75	10.15	
2025-01-09 03:03:23.95	256.60	10.06	
2025-01-09 03:03:25.18	256.45	9.97	
2025-01-09 03:03:26.41	256.30	9.88	
2025-01-09 03:03:27.64	256.15	9.78	
2025-01-09 03:03:28.87	256.00	9.69	
2025-01-09 03:03:30.10	255.86	9.60	
2025-01-09 03:03:31.33	255.71	9.51	
2025-01-09 03:03:32.56	255.57	9.42	
2025-01-09 03:03:33.78	255.42	9.33	
2025-01-09 03:03:35.01	255.28	9.24	
2025-01-09 03:03:36.23	255.14	9.15	
2025-01-09 03:03:37.46	255.00	9.06	
2025-01-09 03:03:38.69	254.86	8.97	
2025-01-09 03:03:39.92	254.72	8.88	
2025-01-09 03:03:41.16	254.58	8.79	
2025-01-09 03:03:42.39	254.44	8.70	
2025-01-09 03:03:43.62	254.31	8.61	
2025-01-09 03:03:44.85	254.17	8.52	
2025-01-09 03:03:46.08	254.04	8.43	
2025-01-09 03:03:47.31	253.90	8.34	
2025-01-09 03:03:48.54	253.77	8.26	
2025-01-09 03:03:49.77	253.64	8.17	
2025-01-09 03:03:51.00	253.51	8.08	
2025-01-09 03:03:52.23	253.38	7.99	
2025-01-09 03:03:53.46	253.25	7.91	
2025-01-09 03:03:54.69	253.12	7.82	
2025-01-09 03:03:55.92	252.99	7.73	
2025-01-09 03:03:57.15	252.86	7.64	
2025-01-09 03:03:58.40	252.74	7.56	
2025-01-09 03:03:59.63	252.61	7.47	
2025-01-09 03:04:00.85	252.49	7.38	
2025-01-09 03:04:02.09	252.36	7.30	
2025-01-09 03:04:03.31	252.24	7.21	
2025-01-09 03:04:04.54	252.12	7.13	
2025-01-09 03:04:05.77	252.00	7.04	
2025-01-09 03:04:07.00	251.88	6.96	
2025-01-09 03:04:08.23	251.76	6.87	
2025-01-09 03:04:09.46	251.64	6.79	
2025-01-09 03:04:10.68	251.52	6.70	
2025-01-09 03:04:11.91	251.41	6.62	
2025-01-09 03:04:13.14	251.29	6.53	
2025-01-09 03:04:14.37	251.17	6.45	
2025-01-09 03:04:15.60	251.06	6.37	
2025-01-09 03:04:16.83	250.95	6.28	
2025-01-09 03:04:18.06	250.83	6.20	
2025-01-09 03:04:19.29	250.72	6.12	
2025-01-09 03:04:20.53	250.61	6.03	
2025-01-09 03:04:21.76	250.50	5.95	
2025-01-09 03:04:22.99	250.38	5.87	
2025-01-09 03:04:24.22	250.27	5.78	
2025-01-09 03:04:25.45	250.17	5.70	
2025-01-09 03:04:26.69	250.06	5.62	
2025-01-09 03:04:27.93	249.95	5.54	
2025-01-09 03:04:29.16	249.84	5.46	
2025-01-09 03:04:30.41	249.73	5.37	
2025-01-09 03:04:31.64	249.63	5.29	
2025-01-09 03:04:32.87	249.52	5.21	
2025-01-09 03:04:34.10	249.42	5.13	
2025-01-09 03:04:35.32	249.31	5.05	
2025-01-09 03:04:36.55	249.21	4.97	
2025-01-09 03:04:37.78	249.11	4.89	
2025-01-09 03:04:39.01	249.01	4.81	
2025-01-09 03:04:40.24	248.90	4.73	
2025-01-09 03:04:41.47	248.80	4.65	
2025-01-09 03:04:42.71	248.70	4.57	
2025-01-09 03:04:43.94	248.60	4.49	
2025-01-09 03:04:45.17	248.50	4.41	
2025-01-09 03:04:46.40	248.41	4.33	
2025-01-09 03:04:47.63	248.31	4.25	
2025-01-09 03:04:48.86	248.21	4.17	
2025-01-09 03:04:50.08	248.12	4.10	
2025-01-09 03:04:51.33	248.02	4.02	

#Closed at: 2025-01-09 03:04:51