passes_logs/2025/01/09/SPB_Silybum_02/SPB_Silybum_02__20250109_222635_SUOMI_NPP_rec.log

#Pass ID: 20250109_222635_SUOMI NPP
#Satellite: SUOMI NPP
#Configuration: NPP
#Start time: 2025-01-09 22:26:34

#Version: 2.0.20230423
#Station: SPB_Silybum_02
#Location: 30.233357 lon 59.946436 lat
#TLE: 1 37849U 11061A   25009.14008564  .00000193  00000+0  11215-3 0  9999
#TLE: 2 37849  98.7440 310.2032 0001887  50.1400 309.9942 14.19535382684083

#Time	Az	El	Level	Level2	SNR	BER	Gain	Gain2
2025-01-09 22:26:36.03	27.84	4.05	
2025-01-09 22:26:37.26	27.95	4.11	
2025-01-09 22:26:38.49	28.06	4.18	
2025-01-09 22:26:39.74	28.18	4.25	
2025-01-09 22:26:40.97	28.29	4.31	
2025-01-09 22:26:42.21	28.40	4.38	
2025-01-09 22:26:43.46	28.51	4.45	
2025-01-09 22:26:44.69	28.63	4.52	
2025-01-09 22:26:45.93	28.74	4.59	
2025-01-09 22:26:47.16	28.86	4.65	
2025-01-09 22:26:48.39	28.97	4.72	
2025-01-09 22:26:49.63	29.09	4.79	
2025-01-09 22:26:50.86	29.20	4.86	
2025-01-09 22:26:52.09	29.32	4.92	
2025-01-09 22:26:53.32	29.44	4.99	
2025-01-09 22:26:54.55	29.55	5.06	
2025-01-09 22:26:55.78	29.67	5.13	
2025-01-09 22:26:57.01	29.79	5.20	
2025-01-09 22:26:58.24	29.91	5.26	
2025-01-09 22:26:59.49	30.03	5.33	
2025-01-09 22:27:00.72	30.15	5.40	
2025-01-09 22:27:01.97	30.27	5.47	
2025-01-09 22:27:03.20	30.39	5.54	
2025-01-09 22:27:04.45	30.51	5.61	
2025-01-09 22:27:05.68	30.64	5.68	
2025-01-09 22:27:06.91	30.76	5.75	
2025-01-09 22:27:08.14	30.88	5.81	
2025-01-09 22:27:09.37	31.00	5.88	
2025-01-09 22:27:10.62	31.13	5.95	
2025-01-09 22:27:11.85	31.26	6.02	
2025-01-09 22:27:13.11	31.38	6.09	
2025-01-09 22:27:14.34	31.51	6.16	
2025-01-09 22:27:15.59	31.64	6.23	
2025-01-09 22:27:16.82	31.76	6.30	
2025-01-09 22:27:18.05	31.89	6.37	
2025-01-09 22:27:19.28	32.02	6.44	
2025-01-09 22:27:20.51	32.15	6.51	
2025-01-09 22:27:21.76	32.28	6.58	
2025-01-09 22:27:23.01	32.41	6.65	
2025-01-09 22:27:24.24	32.54	6.72	
2025-01-09 22:27:25.47	32.67	6.79	
2025-01-09 22:27:26.70	32.81	6.86	
2025-01-09 22:27:27.93	32.94	6.93	
2025-01-09 22:27:29.17	33.07	7.00	
2025-01-09 22:27:30.41	33.21	7.07	
2025-01-09 22:27:31.64	33.34	7.14	
2025-01-09 22:27:32.88	33.48	7.21	
2025-01-09 22:27:34.11	33.61	7.28	
2025-01-09 22:27:35.34	33.75	7.35	
2025-01-09 22:27:36.57	33.88	7.42	
2025-01-09 22:27:37.81	34.02	7.49	
2025-01-09 22:27:39.04	34.16	7.56	
2025-01-09 22:27:40.28	34.30	7.64	
2025-01-09 22:27:41.51	34.44	7.71	
2025-01-09 22:27:42.74	34.58	7.78	
2025-01-09 22:27:43.98	34.72	7.85	
2025-01-09 22:27:45.21	34.86	7.92	
2025-01-09 22:27:46.44	35.00	7.99	
2025-01-09 22:27:47.68	35.15	8.06	
2025-01-09 22:27:48.91	35.29	8.13	
2025-01-09 22:27:50.15	35.44	8.20	
2025-01-09 22:27:51.39	35.58	8.28	
2025-01-09 22:27:52.63	35.73	8.35	
2025-01-09 22:27:53.86	35.87	8.42	
2025-01-09 22:27:55.11	36.02	8.49	
2025-01-09 22:27:56.34	36.17	8.56	
2025-01-09 22:27:57.57	36.32	8.63	
2025-01-09 22:27:58.80	36.47	8.70	
2025-01-09 22:28:00.03	36.62	8.78	
2025-01-09 22:28:01.26	36.77	8.85	
2025-01-09 22:28:02.49	36.92	8.92	
2025-01-09 22:28:03.73	37.07	8.99	
2025-01-09 22:28:04.96	37.22	9.06	
2025-01-09 22:28:06.19	37.37	9.13	
2025-01-09 22:28:07.44	37.53	9.21	
2025-01-09 22:28:08.67	37.69	9.28	
2025-01-09 22:28:09.91	37.84	9.35	
2025-01-09 22:28:11.14	38.00	9.42	
2025-01-09 22:28:12.38	38.16	9.49	
2025-01-09 22:28:13.61	38.31	9.56	
2025-01-09 22:28:14.86	38.47	9.64	
2025-01-09 22:28:16.08	38.63	9.71	
2025-01-09 22:28:17.31	38.79	9.78	
2025-01-09 22:28:18.54	38.95	9.85	
2025-01-09 22:28:19.78	39.11	9.92	
2025-01-09 22:28:21.01	39.27	10.00	
2025-01-09 22:28:22.24	39.44	10.07	
2025-01-09 22:28:23.48	39.60	10.14	
2025-01-09 22:28:24.72	39.77	10.21	
2025-01-09 22:28:25.96	39.93	10.29	
2025-01-09 22:28:27.20	40.10	10.36	
2025-01-09 22:28:28.43	40.27	10.43	
2025-01-09 22:28:29.66	40.44	10.50	
2025-01-09 22:28:30.89	40.60	10.57	
2025-01-09 22:28:32.12	40.77	10.64	
2025-01-09 22:28:33.35	40.94	10.72	
2025-01-09 22:28:34.58	41.11	10.79	
2025-01-09 22:28:35.81	41.28	10.86	
2025-01-09 22:28:37.05	41.46	10.93	
2025-01-09 22:28:38.28	41.63	11.00	
2025-01-09 22:28:39.51	41.80	11.08	
2025-01-09 22:28:40.74	41.98	11.15	
2025-01-09 22:28:41.98	42.16	11.22	
2025-01-09 22:28:43.21	42.33	11.29	
2025-01-09 22:28:44.44	42.51	11.36	
2025-01-09 22:28:45.67	42.69	11.44	
2025-01-09 22:28:46.90	42.87	11.51	
2025-01-09 22:28:48.13	43.05	11.58	
2025-01-09 22:28:49.37	43.23	11.65	
2025-01-09 22:28:50.60	43.41	11.72	
2025-01-09 22:28:51.83	43.59	11.79	
2025-01-09 22:28:53.06	43.77	11.86	
2025-01-09 22:28:54.29	43.96	11.94	
2025-01-09 22:28:55.52	44.14	12.01	
2025-01-09 22:28:56.76	44.33	12.08	
2025-01-09 22:28:57.99	44.52	12.15	
2025-01-09 22:28:59.22	44.70	12.22	
2025-01-09 22:29:00.47	44.90	12.29	
2025-01-09 22:29:01.70	45.08	12.36	
2025-01-09 22:29:02.93	45.27	12.43	
2025-01-09 22:29:04.16	45.47	12.51	
2025-01-09 22:29:05.39	45.66	12.58	
2025-01-09 22:29:06.63	45.85	12.65	
2025-01-09 22:29:07.86	46.05	12.72	
2025-01-09 22:29:09.10	46.24	12.79	
2025-01-09 22:29:10.33	46.44	12.86	
2025-01-09 22:29:11.57	46.64	12.93	
2025-01-09 22:29:12.80	46.83	13.00	
2025-01-09 22:29:14.04	47.03	13.07	
2025-01-09 22:29:15.27	47.23	13.14	
2025-01-09 22:29:16.51	47.43	13.21	
2025-01-09 22:29:17.74	47.63	13.28	
2025-01-09 22:29:18.97	47.84	13.35	
2025-01-09 22:29:20.20	48.04	13.42	
2025-01-09 22:29:21.43	48.24	13.49	
2025-01-09 22:29:22.68	48.45	13.56	
2025-01-09 22:29:23.91	48.66	13.63	
2025-01-09 22:29:25.14	48.86	13.70	
2025-01-09 22:29:26.38	49.07	13.77	
2025-01-09 22:29:27.62	49.28	13.84	
2025-01-09 22:29:28.86	49.49	13.91	
2025-01-09 22:29:30.09	49.70	13.97	
2025-01-09 22:29:31.32	49.92	14.04	
2025-01-09 22:29:32.57	50.13	14.11	
2025-01-09 22:29:33.81	50.35	14.18	
2025-01-09 22:29:35.05	50.56	14.25	
2025-01-09 22:29:36.29	50.78	14.32	
2025-01-09 22:29:37.52	50.99	14.38	
2025-01-09 22:29:38.75	51.21	14.45	
2025-01-09 22:29:40.00	51.43	14.52	
2025-01-09 22:29:41.23	51.65	14.59	
2025-01-09 22:29:42.46	51.87	14.65	
2025-01-09 22:29:43.69	52.09	14.72	
2025-01-09 22:29:44.94	52.32	14.79	
2025-01-09 22:29:46.17	52.54	14.85	
2025-01-09 22:29:47.40	52.77	14.92	
2025-01-09 22:29:48.64	52.99	14.98	
2025-01-09 22:29:49.88	53.22	15.05	
2025-01-09 22:29:51.11	53.45	15.11	
2025-01-09 22:29:52.34	53.67	15.18	
2025-01-09 22:29:53.58	53.90	15.24	
2025-01-09 22:29:54.81	54.13	15.31	
2025-01-09 22:29:56.04	54.36	15.37	
2025-01-09 22:29:57.27	54.60	15.44	
2025-01-09 22:29:58.50	54.83	15.50	
2025-01-09 22:29:59.74	55.06	15.56	
2025-01-09 22:30:00.96	55.30	15.63	
2025-01-09 22:30:02.19	55.53	15.69	
2025-01-09 22:30:03.43	55.77	15.75	
2025-01-09 22:30:04.66	56.01	15.81	
2025-01-09 22:30:05.89	56.25	15.87	
2025-01-09 22:30:07.12	56.49	15.94	
2025-01-09 22:30:08.35	56.73	16.00	
2025-01-09 22:30:09.58	56.97	16.06	
2025-01-09 22:30:10.81	57.21	16.12	
2025-01-09 22:30:12.04	57.45	16.18	
2025-01-09 22:30:13.27	57.70	16.24	
2025-01-09 22:30:14.51	57.94	16.30	
2025-01-09 22:30:15.75	58.19	16.36	
2025-01-09 22:30:16.98	58.44	16.42	
2025-01-09 22:30:18.21	58.69	16.47	
2025-01-09 22:30:19.46	58.94	16.53	
2025-01-09 22:30:20.69	59.19	16.59	
2025-01-09 22:30:21.93	59.44	16.65	
2025-01-09 22:30:23.16	59.69	16.71	
2025-01-09 22:30:24.39	59.95	16.76	
2025-01-09 22:30:25.62	60.20	16.82	
2025-01-09 22:30:26.85	60.45	16.87	
2025-01-09 22:30:28.08	60.71	16.93	
2025-01-09 22:30:29.31	60.96	16.98	
2025-01-09 22:30:30.54	61.22	17.04	
2025-01-09 22:30:31.77	61.48	17.09	
2025-01-09 22:30:33.00	61.74	17.15	
2025-01-09 22:30:34.23	62.00	17.20	
2025-01-09 22:30:35.46	62.26	17.25	
2025-01-09 22:30:36.69	62.52	17.30	
2025-01-09 22:30:37.94	62.79	17.36	
2025-01-09 22:30:39.17	63.05	17.41	
2025-01-09 22:30:40.40	63.32	17.46	
2025-01-09 22:30:41.64	63.58	17.51	
2025-01-09 22:30:42.88	63.85	17.56	
2025-01-09 22:30:44.11	64.12	17.61	
2025-01-09 22:30:45.34	64.39	17.66	
2025-01-09 22:30:46.59	64.66	17.71	
2025-01-09 22:30:47.82	64.93	17.75	
2025-01-09 22:30:49.05	65.20	17.80	
2025-01-09 22:30:50.28	65.47	17.85	
2025-01-09 22:30:51.51	65.74	17.89	
2025-01-09 22:30:52.75	66.02	17.94	
2025-01-09 22:30:53.99	66.29	17.99	
2025-01-09 22:30:55.23	66.57	18.03	
2025-01-09 22:30:56.46	66.84	18.07	
2025-01-09 22:30:57.71	67.13	18.12	
2025-01-09 22:30:58.94	67.40	18.16	
2025-01-09 22:31:00.19	67.68	18.20	
2025-01-09 22:31:01.42	67.96	18.25	
2025-01-09 22:31:02.65	68.24	18.29	
2025-01-09 22:31:03.88	68.52	18.33	
2025-01-09 22:31:05.11	68.80	18.37	
2025-01-09 22:31:06.34	69.08	18.41	
2025-01-09 22:31:07.56	69.36	18.45	
2025-01-09 22:31:08.79	69.65	18.48	
2025-01-09 22:31:10.03	69.93	18.52	
2025-01-09 22:31:11.25	70.21	18.56	
2025-01-09 22:31:12.49	70.50	18.59	
2025-01-09 22:31:13.72	70.78	18.63	
2025-01-09 22:31:14.95	71.07	18.67	
2025-01-09 22:31:16.18	71.36	18.70	
2025-01-09 22:31:17.41	71.64	18.73	
2025-01-09 22:31:18.66	71.94	18.77	
2025-01-09 22:31:19.89	72.23	18.80	
2025-01-09 22:31:21.12	72.52	18.83	
2025-01-09 22:31:22.35	72.81	18.86	
2025-01-09 22:31:23.59	73.10	18.89	
2025-01-09 22:31:24.83	73.39	18.92	
2025-01-09 22:31:26.08	73.69	18.95	
2025-01-09 22:31:27.31	73.98	18.98	
2025-01-09 22:31:28.54	74.27	19.01	
2025-01-09 22:31:29.77	74.56	19.03	
2025-01-09 22:31:31.02	74.86	19.06	
2025-01-09 22:31:32.25	75.16	19.09	
2025-01-09 22:31:33.48	75.45	19.11	
2025-01-09 22:31:34.71	75.75	19.14	
2025-01-09 22:31:35.95	76.04	19.16	
2025-01-09 22:31:37.18	76.34	19.18	
2025-01-09 22:31:38.41	76.64	19.20	
2025-01-09 22:31:39.64	76.93	19.22	
2025-01-09 22:31:40.87	77.23	19.24	
2025-01-09 22:31:42.12	77.53	19.26	
2025-01-09 22:31:43.36	77.83	19.28	
2025-01-09 22:31:44.60	78.13	19.30	
2025-01-09 22:31:45.83	78.43	19.32	
2025-01-09 22:31:47.06	78.73	19.34	
2025-01-09 22:31:48.29	79.03	19.35	
2025-01-09 22:31:49.54	79.34	19.37	
2025-01-09 22:31:50.77	79.64	19.38	
2025-01-09 22:31:52.00	79.94	19.40	
2025-01-09 22:31:53.23	80.24	19.41	
2025-01-09 22:31:54.47	80.54	19.42	
2025-01-09 22:31:55.70	80.84	19.43	
2025-01-09 22:31:56.93	81.14	19.44	
2025-01-09 22:31:58.16	81.44	19.45	
2025-01-09 22:31:59.40	81.75	19.46	
2025-01-09 22:32:00.64	82.05	19.47	
2025-01-09 22:32:01.88	82.36	19.48	
2025-01-09 22:32:03.11	82.66	19.48	
2025-01-09 22:32:04.34	82.96	19.49	
2025-01-09 22:32:05.57	83.26	19.49	
2025-01-09 22:32:06.80	83.56	19.50	
2025-01-09 22:32:08.03	83.87	19.50	
2025-01-09 22:32:09.26	84.17	19.50	
2025-01-09 22:32:10.50	84.47	19.51	
2025-01-09 22:32:11.74	84.78	19.51	
2025-01-09 22:32:12.98	85.08	19.51	
2025-01-09 22:32:14.21	85.39	19.51	
2025-01-09 22:32:15.45	85.69	19.51	
2025-01-09 22:32:16.69	86.00	19.50	
2025-01-09 22:32:17.93	86.30	19.50	
2025-01-09 22:32:19.17	86.61	19.50	
2025-01-09 22:32:20.40	86.91	19.49	
2025-01-09 22:32:21.64	87.22	19.49	
2025-01-09 22:32:22.88	87.52	19.48	
2025-01-09 22:32:24.11	87.82	19.48	
2025-01-09 22:32:25.35	88.13	19.47	
2025-01-09 22:32:26.58	88.43	19.46	
2025-01-09 22:32:27.81	88.73	19.45	
2025-01-09 22:32:29.05	89.03	19.44	
2025-01-09 22:32:30.28	89.34	19.43	
2025-01-09 22:32:31.51	89.64	19.42	
2025-01-09 22:32:32.76	89.94	19.41	
2025-01-09 22:32:33.99	90.24	19.39	
2025-01-09 22:32:35.24	90.55	19.38	
2025-01-09 22:32:36.47	90.85	19.36	
2025-01-09 22:32:37.70	91.15	19.35	
2025-01-09 22:32:38.93	91.45	19.33	
2025-01-09 22:32:40.16	91.75	19.32	
2025-01-09 22:32:41.39	92.05	19.30	
2025-01-09 22:32:42.63	92.35	19.28	
2025-01-09 22:32:43.86	92.65	19.26	
2025-01-09 22:32:45.09	92.94	19.24	
2025-01-09 22:32:46.33	93.24	19.22	
2025-01-09 22:32:47.56	93.54	19.20	
2025-01-09 22:32:48.79	93.84	19.18	
2025-01-09 22:32:50.02	94.13	19.16	
2025-01-09 22:32:51.26	94.43	19.13	
2025-01-09 22:32:52.50	94.73	19.11	
2025-01-09 22:32:53.74	95.03	19.08	
2025-01-09 22:32:54.97	95.32	19.06	
2025-01-09 22:32:56.20	95.62	19.03	
2025-01-09 22:32:57.44	95.91	19.00	
2025-01-09 22:32:58.67	96.21	18.98	
2025-01-09 22:32:59.90	96.50	18.95	
2025-01-09 22:33:01.13	96.79	18.92	
2025-01-09 22:33:02.37	97.08	18.89	
2025-01-09 22:33:03.60	97.37	18.86	
2025-01-09 22:33:04.83	97.66	18.83	
2025-01-09 22:33:06.06	97.95	18.79	
2025-01-09 22:33:07.31	98.25	18.76	
2025-01-09 22:33:08.53	98.53	18.73	
2025-01-09 22:33:09.76	98.82	18.69	
2025-01-09 22:33:11.00	99.11	18.66	
2025-01-09 22:33:12.24	99.40	18.62	
2025-01-09 22:33:13.47	99.69	18.59	
2025-01-09 22:33:14.70	99.97	18.55	
2025-01-09 22:33:15.94	100.26	18.51	
2025-01-09 22:33:17.17	100.54	18.48	
2025-01-09 22:33:18.41	100.83	18.44	
2025-01-09 22:33:19.64	101.11	18.40	
2025-01-09 22:33:20.87	101.39	18.36	
2025-01-09 22:33:22.10	101.67	18.32	
2025-01-09 22:33:23.33	101.96	18.28	
2025-01-09 22:33:24.56	102.23	18.24	
2025-01-09 22:33:25.80	102.52	18.19	
2025-01-09 22:33:27.02	102.79	18.15	
2025-01-09 22:33:28.26	103.07	18.11	
2025-01-09 22:33:29.50	103.35	18.06	
2025-01-09 22:33:30.74	103.63	18.02	
2025-01-09 22:33:31.98	103.91	17.97	
2025-01-09 22:33:33.21	104.18	17.93	
2025-01-09 22:33:34.45	104.46	17.88	
2025-01-09 22:33:35.68	104.73	17.84	
2025-01-09 22:33:36.91	105.00	17.79	
2025-01-09 22:33:38.14	105.27	17.74	
2025-01-09 22:33:39.37	105.54	17.69	
2025-01-09 22:33:40.60	105.81	17.64	
2025-01-09 22:33:41.83	106.08	17.60	
2025-01-09 22:33:43.07	106.35	17.55	
2025-01-09 22:33:44.30	106.62	17.50	
2025-01-09 22:33:45.54	106.88	17.44	
2025-01-09 22:33:46.78	107.15	17.39	
2025-01-09 22:33:48.01	107.42	17.34	
2025-01-09 22:33:49.24	107.68	17.29	
2025-01-09 22:33:50.46	107.94	17.24	
2025-01-09 22:33:51.70	108.20	17.18	
2025-01-09 22:33:52.93	108.46	17.13	
2025-01-09 22:33:54.16	108.72	17.08	
2025-01-09 22:33:55.40	108.99	17.02	
2025-01-09 22:33:56.63	109.24	16.97	
2025-01-09 22:33:57.87	109.50	16.91	
2025-01-09 22:33:59.10	109.76	16.85	
2025-01-09 22:34:00.33	110.01	16.80	
2025-01-09 22:34:01.56	110.27	16.74	
2025-01-09 22:34:02.80	110.52	16.69	
2025-01-09 22:34:04.04	110.78	16.63	
2025-01-09 22:34:05.27	111.03	16.57	
2025-01-09 22:34:06.50	111.28	16.51	
2025-01-09 22:34:07.73	111.53	16.45	
2025-01-09 22:34:08.96	111.78	16.39	
2025-01-09 22:34:10.19	112.03	16.34	
2025-01-09 22:34:11.43	112.27	16.28	
2025-01-09 22:34:12.67	112.52	16.21	
2025-01-09 22:34:13.90	112.77	16.15	
2025-01-09 22:34:15.13	113.01	16.09	
2025-01-09 22:34:16.37	113.26	16.03	
2025-01-09 22:34:17.60	113.50	15.97	
2025-01-09 22:34:18.84	113.74	15.91	
2025-01-09 22:34:20.07	113.98	15.85	
2025-01-09 22:34:21.30	114.22	15.79	
2025-01-09 22:34:22.54	114.46	15.72	
2025-01-09 22:34:23.78	114.70	15.66	
2025-01-09 22:34:25.02	114.94	15.60	
2025-01-09 22:34:26.24	115.17	15.53	
2025-01-09 22:34:27.48	115.41	15.47	
2025-01-09 22:34:28.71	115.64	15.40	
2025-01-09 22:34:29.94	115.87	15.34	
2025-01-09 22:34:31.18	116.11	15.27	
2025-01-09 22:34:32.42	116.34	15.21	
2025-01-09 22:34:33.66	116.57	15.14	
2025-01-09 22:34:34.89	116.80	15.08	
2025-01-09 22:34:36.13	117.03	15.01	
2025-01-09 22:34:37.36	117.25	14.95	
2025-01-09 22:34:38.59	117.48	14.88	
2025-01-09 22:34:39.82	117.70	14.81	
2025-01-09 22:34:41.05	117.93	14.75	
2025-01-09 22:34:42.28	118.15	14.68	
2025-01-09 22:34:43.52	118.37	14.61	
2025-01-09 22:34:44.76	118.60	14.55	
2025-01-09 22:34:46.00	118.82	14.48	
2025-01-09 22:34:47.23	119.04	14.41	
2025-01-09 22:34:48.46	119.25	14.34	
2025-01-09 22:34:49.70	119.47	14.27	
2025-01-09 22:34:50.93	119.69	14.21	
2025-01-09 22:34:52.16	119.90	14.14	
2025-01-09 22:34:53.39	120.12	14.07	
2025-01-09 22:34:54.62	120.33	14.00	
2025-01-09 22:34:55.85	120.54	13.93	
2025-01-09 22:34:57.09	120.75	13.86	
2025-01-09 22:34:58.32	120.96	13.79	
2025-01-09 22:34:59.55	121.17	13.72	
2025-01-09 22:35:00.80	121.38	13.65	
2025-01-09 22:35:02.04	121.59	13.58	
2025-01-09 22:35:03.27	121.80	13.51	
2025-01-09 22:35:04.50	122.00	13.44	
2025-01-09 22:35:05.74	122.21	13.37	
2025-01-09 22:35:06.98	122.42	13.30	
2025-01-09 22:35:08.21	122.62	13.23	
2025-01-09 22:35:09.44	122.82	13.16	
2025-01-09 22:35:10.67	123.02	13.09	
2025-01-09 22:35:11.91	123.22	13.02	
2025-01-09 22:35:13.14	123.42	12.95	
2025-01-09 22:35:14.37	123.62	12.88	
2025-01-09 22:35:15.60	123.82	12.81	
2025-01-09 22:35:16.83	124.01	12.74	
2025-01-09 22:35:18.06	124.21	12.67	
2025-01-09 22:35:19.30	124.40	12.59	
2025-01-09 22:35:20.53	124.60	12.52	
2025-01-09 22:35:21.76	124.79	12.45	
2025-01-09 22:35:23.00	124.98	12.38	
2025-01-09 22:35:24.24	125.17	12.31	
2025-01-09 22:35:25.47	125.36	12.24	
2025-01-09 22:35:26.70	125.55	12.16	
2025-01-09 22:35:27.93	125.74	12.09	
2025-01-09 22:35:29.16	125.93	12.02	
2025-01-09 22:35:30.39	126.11	11.95	
2025-01-09 22:35:31.64	126.30	11.88	
2025-01-09 22:35:32.87	126.49	11.80	
2025-01-09 22:35:34.11	126.67	11.73	
2025-01-09 22:35:35.34	126.85	11.66	
2025-01-09 22:35:36.59	127.04	11.59	
2025-01-09 22:35:37.83	127.22	11.51	
2025-01-09 22:35:39.06	127.40	11.44	
2025-01-09 22:35:40.28	127.58	11.37	
2025-01-09 22:35:41.51	127.76	11.30	
2025-01-09 22:35:42.74	127.93	11.22	
2025-01-09 22:35:43.97	128.11	11.15	
2025-01-09 22:35:45.21	128.29	11.08	
2025-01-09 22:35:46.45	128.46	11.01	
2025-01-09 22:35:47.69	128.64	10.93	
2025-01-09 22:35:48.92	128.81	10.86	
2025-01-09 22:35:50.15	128.98	10.79	
2025-01-09 22:35:51.38	129.16	10.72	
2025-01-09 22:35:52.61	129.33	10.64	
2025-01-09 22:35:53.85	129.50	10.57	
2025-01-09 22:35:55.08	129.67	10.50	
2025-01-09 22:35:56.31	129.84	10.42	
2025-01-09 22:35:57.55	130.00	10.35	
2025-01-09 22:35:58.78	130.17	10.28	
2025-01-09 22:36:00.02	130.34	10.21	
2025-01-09 22:36:01.25	130.50	10.13	
2025-01-09 22:36:02.48	130.67	10.06	
2025-01-09 22:36:03.72	130.83	9.99	
2025-01-09 22:36:04.95	131.00	9.92	
2025-01-09 22:36:06.18	131.16	9.84	
2025-01-09 22:36:07.41	131.32	9.77	
2025-01-09 22:36:08.64	131.48	9.70	
2025-01-09 22:36:09.87	131.64	9.63	
2025-01-09 22:36:11.12	131.80	9.55	
2025-01-09 22:36:12.35	131.96	9.48	
2025-01-09 22:36:13.58	132.12	9.41	
2025-01-09 22:36:14.81	132.27	9.34	
2025-01-09 22:36:16.04	132.43	9.26	
2025-01-09 22:36:17.28	132.59	9.19	
2025-01-09 22:36:18.51	132.74	9.12	
2025-01-09 22:36:19.75	132.89	9.05	
2025-01-09 22:36:20.98	133.05	8.97	
2025-01-09 22:36:22.23	133.20	8.90	
2025-01-09 22:36:23.46	133.35	8.83	
2025-01-09 22:36:24.69	133.50	8.76	
2025-01-09 22:36:25.93	133.66	8.68	
2025-01-09 22:36:27.16	133.81	8.61	
2025-01-09 22:36:28.40	133.96	8.54	
2025-01-09 22:36:29.64	134.10	8.47	
2025-01-09 22:36:30.87	134.25	8.39	
2025-01-09 22:36:32.10	134.40	8.32	
2025-01-09 22:36:33.33	134.54	8.25	
2025-01-09 22:36:34.57	134.69	8.18	
2025-01-09 22:36:35.81	134.84	8.11	
2025-01-09 22:36:37.04	134.98	8.03	
2025-01-09 22:36:38.27	135.12	7.96	
2025-01-09 22:36:39.50	135.26	7.89	
2025-01-09 22:36:40.74	135.41	7.82	
2025-01-09 22:36:41.98	135.55	7.75	
2025-01-09 22:36:43.22	135.69	7.68	
2025-01-09 22:36:44.46	135.83	7.60	
2025-01-09 22:36:45.69	135.97	7.53	
2025-01-09 22:36:46.92	136.11	7.46	
2025-01-09 22:36:48.17	136.25	7.39	
2025-01-09 22:36:49.40	136.39	7.32	
2025-01-09 22:36:50.63	136.52	7.25	
2025-01-09 22:36:51.86	136.66	7.18	
2025-01-09 22:36:53.10	136.80	7.10	
2025-01-09 22:36:54.34	136.93	7.03	
2025-01-09 22:36:55.57	137.06	6.96	
2025-01-09 22:36:56.80	137.20	6.89	
2025-01-09 22:36:58.04	137.33	6.82	
2025-01-09 22:36:59.27	137.46	6.75	
2025-01-09 22:37:00.50	137.60	6.68	
2025-01-09 22:37:01.73	137.73	6.61	
2025-01-09 22:37:02.96	137.86	6.54	
2025-01-09 22:37:04.19	137.99	6.47	
2025-01-09 22:37:05.42	138.11	6.40	
2025-01-09 22:37:06.66	138.24	6.33	
2025-01-09 22:37:07.90	138.37	6.26	
2025-01-09 22:37:09.13	138.50	6.19	
2025-01-09 22:37:10.36	138.63	6.12	
2025-01-09 22:37:11.59	138.75	6.05	
2025-01-09 22:37:12.83	138.88	5.98	
2025-01-09 22:37:14.06	139.00	5.91	
2025-01-09 22:37:15.29	139.13	5.84	
2025-01-09 22:37:16.52	139.25	5.77	
2025-01-09 22:37:17.75	139.38	5.70	
2025-01-09 22:37:18.99	139.50	5.63	
2025-01-09 22:37:20.23	139.62	5.56	
2025-01-09 22:37:21.46	139.74	5.49	
2025-01-09 22:37:22.69	139.86	5.42	
2025-01-09 22:37:23.92	139.99	5.35	
2025-01-09 22:37:25.16	140.11	5.28	
2025-01-09 22:37:26.39	140.23	5.21	
2025-01-09 22:37:27.63	140.35	5.14	
2025-01-09 22:37:28.86	140.46	5.07	
2025-01-09 22:37:30.09	140.58	5.01	
2025-01-09 22:37:31.34	140.70	4.94	
2025-01-09 22:37:32.56	140.82	4.87	
2025-01-09 22:37:33.80	140.93	4.80	
2025-01-09 22:37:35.04	141.05	4.73	
2025-01-09 22:37:36.27	141.16	4.66	
2025-01-09 22:37:37.51	141.28	4.59	
2025-01-09 22:37:38.73	141.39	4.52	
2025-01-09 22:37:39.96	141.51	4.46	
2025-01-09 22:37:41.21	141.62	4.39	
2025-01-09 22:37:42.45	141.73	4.32	
2025-01-09 22:37:43.68	141.85	4.25	
2025-01-09 22:37:44.92	141.96	4.18	
2025-01-09 22:37:46.16	142.07	4.11	
2025-01-09 22:37:47.39	142.18	4.05	

#Closed at: 2025-01-09 22:37:48