passes_logs/2025/01/09/SPB_Silybum_02/SPB_Silybum_02__20250109_103315_TERRA_rec.log

#Pass ID: 20250109_103315_TERRA
#Satellite: TERRA
#Configuration: TERRA
#Start time: 2025-01-09 10:33:13

#Version: 2.0.20230423
#Station: SPB_Silybum_02
#Location: 30.233357 lon 59.946436 lat
#TLE: 1 25994U 99068A   25008.82275774  .00000946  00000+0  20487-3 0  9990
#TLE: 2 25994  98.0228  72.0493 0003564  84.8498   6.9254 14.60383008333170

#Time	Az	El	Level	Level2	SNR	BER	Gain	Gain2
2025-01-09 10:33:15.78	8.03	4.02	
2025-01-09 10:33:16.81	7.93	4.08	
2025-01-09 10:33:17.83	7.82	4.13	
2025-01-09 10:33:18.86	7.72	4.19	
2025-01-09 10:33:19.88	7.61	4.25	
2025-01-09 10:33:20.91	7.51	4.31	
2025-01-09 10:33:21.94	7.40	4.36	
2025-01-09 10:33:22.97	7.29	4.42	
2025-01-09 10:33:24.01	7.18	4.48	
2025-01-09 10:33:25.04	7.07	4.54	
2025-01-09 10:33:26.06	6.96	4.60	
2025-01-09 10:33:27.09	6.85	4.66	
2025-01-09 10:33:28.11	6.75	4.71	
2025-01-09 10:33:29.15	6.63	4.77	
2025-01-09 10:33:30.18	6.52	4.83	
2025-01-09 10:33:31.21	6.41	4.89	
2025-01-09 10:33:32.23	6.30	4.95	
2025-01-09 10:33:33.26	6.19	5.01	
2025-01-09 10:33:34.29	6.07	5.06	
2025-01-09 10:33:35.33	5.96	5.12	
2025-01-09 10:33:36.35	5.85	5.18	
2025-01-09 10:33:37.38	5.73	5.24	
2025-01-09 10:33:38.41	5.62	5.30	
2025-01-09 10:33:39.43	5.50	5.36	
2025-01-09 10:33:40.46	5.39	5.42	
2025-01-09 10:33:41.49	5.27	5.47	
2025-01-09 10:33:42.51	5.15	5.53	
2025-01-09 10:33:43.54	5.03	5.59	
2025-01-09 10:33:44.57	4.92	5.65	
2025-01-09 10:33:45.60	4.80	5.71	
2025-01-09 10:33:46.63	4.68	5.77	
2025-01-09 10:33:47.67	4.56	5.83	
2025-01-09 10:33:48.70	4.44	5.89	
2025-01-09 10:33:49.72	4.32	5.95	
2025-01-09 10:33:50.75	4.19	6.01	
2025-01-09 10:33:51.78	4.07	6.07	
2025-01-09 10:33:52.81	3.95	6.12	
2025-01-09 10:33:53.84	3.83	6.18	
2025-01-09 10:33:54.86	3.70	6.24	
2025-01-09 10:33:55.89	3.58	6.30	
2025-01-09 10:33:56.91	3.45	6.36	
2025-01-09 10:33:57.95	3.33	6.42	
2025-01-09 10:33:58.98	3.20	6.48	
2025-01-09 10:34:00.01	3.07	6.54	
2025-01-09 10:34:01.03	2.95	6.60	
2025-01-09 10:34:02.06	2.82	6.66	
2025-01-09 10:34:03.10	2.69	6.72	
2025-01-09 10:34:04.12	2.56	6.78	
2025-01-09 10:34:05.16	2.43	6.84	
2025-01-09 10:34:06.19	2.30	6.90	
2025-01-09 10:34:07.21	2.17	6.96	
2025-01-09 10:34:08.25	2.04	7.02	
2025-01-09 10:34:09.29	1.91	7.08	
2025-01-09 10:34:10.32	1.77	7.14	
2025-01-09 10:34:11.35	1.64	7.20	
2025-01-09 10:34:12.37	1.51	7.26	
2025-01-09 10:34:13.40	1.37	7.32	
2025-01-09 10:34:14.43	1.24	7.37	
2025-01-09 10:34:15.47	1.10	7.44	
2025-01-09 10:34:16.49	0.97	7.49	
2025-01-09 10:34:17.52	0.83	7.55	
2025-01-09 10:34:18.54	0.69	7.61	
2025-01-09 10:34:19.57	0.55	7.67	
2025-01-09 10:34:20.61	0.41	7.73	
2025-01-09 10:34:21.65	0.27	7.79	
2025-01-09 10:34:22.68	0.13	7.85	
2025-01-09 10:34:23.70	359.99	7.91	
2025-01-09 10:34:24.73	359.85	7.97	
2025-01-09 10:34:25.75	359.71	8.03	
2025-01-09 10:34:26.79	359.57	8.09	
2025-01-09 10:34:27.82	359.42	8.15	
2025-01-09 10:34:28.85	359.28	8.21	
2025-01-09 10:34:29.87	359.14	8.27	
2025-01-09 10:34:30.92	358.99	8.33	
2025-01-09 10:34:31.94	358.84	8.39	
2025-01-09 10:34:32.97	358.70	8.45	
2025-01-09 10:34:34.00	358.55	8.51	
2025-01-09 10:34:35.02	358.40	8.57	
2025-01-09 10:34:36.05	358.25	8.63	
2025-01-09 10:34:37.07	358.10	8.69	
2025-01-09 10:34:38.11	357.95	8.75	
2025-01-09 10:34:39.15	357.80	8.81	
2025-01-09 10:34:40.20	357.65	8.87	
2025-01-09 10:34:41.23	357.49	8.93	
2025-01-09 10:34:42.25	357.34	8.99	
2025-01-09 10:34:43.28	357.19	9.05	
2025-01-09 10:34:44.31	357.03	9.11	
2025-01-09 10:34:45.33	356.88	9.17	
2025-01-09 10:34:46.36	356.73	9.23	
2025-01-09 10:34:47.38	356.57	9.29	
2025-01-09 10:34:48.41	356.41	9.35	
2025-01-09 10:34:49.44	356.26	9.40	
2025-01-09 10:34:50.48	356.10	9.46	
2025-01-09 10:34:51.51	355.94	9.52	
2025-01-09 10:34:52.54	355.78	9.58	
2025-01-09 10:34:53.57	355.62	9.64	
2025-01-09 10:34:54.59	355.46	9.70	
2025-01-09 10:34:55.62	355.29	9.76	
2025-01-09 10:34:56.66	355.13	9.82	
2025-01-09 10:34:57.68	354.97	9.88	
2025-01-09 10:34:58.71	354.80	9.94	
2025-01-09 10:34:59.74	354.64	10.00	
2025-01-09 10:35:00.80	354.47	10.06	
2025-01-09 10:35:01.84	354.30	10.12	
2025-01-09 10:35:02.86	354.13	10.17	
2025-01-09 10:35:03.88	353.97	10.23	
2025-01-09 10:35:04.91	353.80	10.29	
2025-01-09 10:35:05.94	353.63	10.35	
2025-01-09 10:35:06.96	353.46	10.41	
2025-01-09 10:35:07.99	353.29	10.47	
2025-01-09 10:35:09.01	353.12	10.52	
2025-01-09 10:35:10.04	352.95	10.58	
2025-01-09 10:35:11.07	352.78	10.64	
2025-01-09 10:35:12.09	352.60	10.70	
2025-01-09 10:35:13.12	352.43	10.75	
2025-01-09 10:35:14.14	352.25	10.81	
2025-01-09 10:35:15.17	352.08	10.87	
2025-01-09 10:35:16.19	351.90	10.93	
2025-01-09 10:35:17.24	351.72	10.99	
2025-01-09 10:35:18.26	351.55	11.04	
2025-01-09 10:35:19.29	351.37	11.10	
2025-01-09 10:35:20.32	351.19	11.16	
2025-01-09 10:35:21.34	351.01	11.21	
2025-01-09 10:35:22.37	350.83	11.27	
2025-01-09 10:35:23.39	350.64	11.33	
2025-01-09 10:35:24.43	350.46	11.38	
2025-01-09 10:35:25.46	350.28	11.44	
2025-01-09 10:35:26.49	350.09	11.50	
2025-01-09 10:35:27.52	349.91	11.55	
2025-01-09 10:35:28.55	349.72	11.61	
2025-01-09 10:35:29.58	349.53	11.67	
2025-01-09 10:35:30.61	349.34	11.72	
2025-01-09 10:35:31.63	349.16	11.78	
2025-01-09 10:35:32.66	348.97	11.83	
2025-01-09 10:35:33.69	348.78	11.89	
2025-01-09 10:35:34.72	348.59	11.94	
2025-01-09 10:35:35.74	348.40	12.00	
2025-01-09 10:35:36.77	348.21	12.05	
2025-01-09 10:35:37.79	348.01	12.11	
2025-01-09 10:35:38.82	347.82	12.16	
2025-01-09 10:35:39.85	347.63	12.22	
2025-01-09 10:35:40.87	347.43	12.27	
2025-01-09 10:35:41.89	347.24	12.32	
2025-01-09 10:35:42.91	347.04	12.38	
2025-01-09 10:35:43.94	346.84	12.43	
2025-01-09 10:35:44.98	346.64	12.48	
2025-01-09 10:35:46.01	346.44	12.54	
2025-01-09 10:35:47.03	346.25	12.59	
2025-01-09 10:35:48.06	346.04	12.64	
2025-01-09 10:35:49.08	345.84	12.70	
2025-01-09 10:35:50.11	345.64	12.75	
2025-01-09 10:35:51.13	345.44	12.80	
2025-01-09 10:35:52.16	345.24	12.85	
2025-01-09 10:35:53.19	345.03	12.90	
2025-01-09 10:35:54.22	344.82	12.96	
2025-01-09 10:35:55.24	344.62	13.01	
2025-01-09 10:35:56.28	344.41	13.06	
2025-01-09 10:35:57.30	344.20	13.11	
2025-01-09 10:35:58.34	343.99	13.16	
2025-01-09 10:35:59.39	343.78	13.21	
2025-01-09 10:36:00.41	343.57	13.26	
2025-01-09 10:36:01.44	343.36	13.31	
2025-01-09 10:36:02.47	343.15	13.36	
2025-01-09 10:36:03.49	342.94	13.41	
2025-01-09 10:36:04.52	342.72	13.46	
2025-01-09 10:36:05.54	342.51	13.51	
2025-01-09 10:36:06.57	342.30	13.56	
2025-01-09 10:36:07.60	342.08	13.61	
2025-01-09 10:36:08.62	341.87	13.65	
2025-01-09 10:36:09.65	341.65	13.70	
2025-01-09 10:36:10.69	341.43	13.75	
2025-01-09 10:36:11.72	341.21	13.80	
2025-01-09 10:36:12.76	340.99	13.84	
2025-01-09 10:36:13.78	340.77	13.89	
2025-01-09 10:36:14.81	340.55	13.94	
2025-01-09 10:36:15.83	340.33	13.98	
2025-01-09 10:36:16.88	340.10	14.03	
2025-01-09 10:36:17.90	339.88	14.07	
2025-01-09 10:36:18.93	339.65	14.12	
2025-01-09 10:36:19.95	339.43	14.16	
2025-01-09 10:36:20.99	339.20	14.21	
2025-01-09 10:36:22.02	338.98	14.25	
2025-01-09 10:36:23.04	338.75	14.30	
2025-01-09 10:36:24.07	338.52	14.34	
2025-01-09 10:36:25.10	338.30	14.38	
2025-01-09 10:36:26.12	338.07	14.43	
2025-01-09 10:36:27.15	337.84	14.47	
2025-01-09 10:36:28.17	337.61	14.51	
2025-01-09 10:36:29.21	337.38	14.55	
2025-01-09 10:36:30.24	337.14	14.59	
2025-01-09 10:36:31.26	336.91	14.63	
2025-01-09 10:36:32.29	336.68	14.67	
2025-01-09 10:36:33.32	336.45	14.72	
2025-01-09 10:36:34.36	336.21	14.76	
2025-01-09 10:36:35.38	335.97	14.79	
2025-01-09 10:36:36.41	335.74	14.83	
2025-01-09 10:36:37.44	335.50	14.87	
2025-01-09 10:36:38.47	335.26	14.91	
2025-01-09 10:36:39.49	335.03	14.95	
2025-01-09 10:36:40.52	334.79	14.99	
2025-01-09 10:36:41.54	334.55	15.02	
2025-01-09 10:36:42.57	334.31	15.06	
2025-01-09 10:36:43.61	334.07	15.10	
2025-01-09 10:36:44.64	333.83	15.13	
2025-01-09 10:36:45.66	333.59	15.17	
2025-01-09 10:36:46.69	333.34	15.20	
2025-01-09 10:36:47.71	333.10	15.24	
2025-01-09 10:36:48.75	332.86	15.27	
2025-01-09 10:36:49.77	332.61	15.30	
2025-01-09 10:36:50.80	332.37	15.34	
2025-01-09 10:36:51.83	332.12	15.37	
2025-01-09 10:36:52.86	331.88	15.40	
2025-01-09 10:36:53.88	331.63	15.43	
2025-01-09 10:36:54.90	331.39	15.46	
2025-01-09 10:36:55.93	331.14	15.49	
2025-01-09 10:36:56.96	330.89	15.53	
2025-01-09 10:36:57.98	330.64	15.56	
2025-01-09 10:36:59.01	330.40	15.58	
2025-01-09 10:37:00.04	330.14	15.61	
2025-01-09 10:37:01.09	329.89	15.64	
2025-01-09 10:37:02.12	329.64	15.67	
2025-01-09 10:37:03.15	329.39	15.70	
2025-01-09 10:37:04.18	329.13	15.72	
2025-01-09 10:37:05.22	328.88	15.75	
2025-01-09 10:37:06.24	328.63	15.78	
2025-01-09 10:37:07.27	328.37	15.80	
2025-01-09 10:37:08.29	328.12	15.83	
2025-01-09 10:37:09.33	327.87	15.85	
2025-01-09 10:37:10.37	327.61	15.88	
2025-01-09 10:37:11.40	327.35	15.90	
2025-01-09 10:37:12.42	327.10	15.92	
2025-01-09 10:37:13.45	326.84	15.94	
2025-01-09 10:37:14.48	326.59	15.97	
2025-01-09 10:37:15.51	326.33	15.99	
2025-01-09 10:37:16.53	326.07	16.01	
2025-01-09 10:37:17.56	325.82	16.03	
2025-01-09 10:37:18.59	325.56	16.05	
2025-01-09 10:37:19.61	325.30	16.07	
2025-01-09 10:37:20.64	325.04	16.09	
2025-01-09 10:37:21.68	324.78	16.10	
2025-01-09 10:37:22.70	324.52	16.12	
2025-01-09 10:37:23.73	324.26	16.14	
2025-01-09 10:37:24.77	324.00	16.16	
2025-01-09 10:37:25.79	323.74	16.17	
2025-01-09 10:37:26.82	323.48	16.19	
2025-01-09 10:37:27.84	323.22	16.20	
2025-01-09 10:37:28.87	322.96	16.21	
2025-01-09 10:37:29.90	322.70	16.23	
2025-01-09 10:37:30.93	322.44	16.24	
2025-01-09 10:37:31.95	322.18	16.25	
2025-01-09 10:37:32.98	321.92	16.27	
2025-01-09 10:37:34.00	321.66	16.28	
2025-01-09 10:37:35.03	321.39	16.29	
2025-01-09 10:37:36.06	321.13	16.30	
2025-01-09 10:37:37.08	320.87	16.31	
2025-01-09 10:37:38.11	320.61	16.32	
2025-01-09 10:37:39.14	320.34	16.32	
2025-01-09 10:37:40.16	320.08	16.33	
2025-01-09 10:37:41.18	319.82	16.34	
2025-01-09 10:37:42.22	319.55	16.35	
2025-01-09 10:37:43.25	319.29	16.35	
2025-01-09 10:37:44.27	319.03	16.36	
2025-01-09 10:37:45.30	318.76	16.36	
2025-01-09 10:37:46.33	318.50	16.37	
2025-01-09 10:37:47.37	318.23	16.37	
2025-01-09 10:37:48.39	317.97	16.37	
2025-01-09 10:37:49.42	317.71	16.38	
2025-01-09 10:37:50.45	317.44	16.38	
2025-01-09 10:37:51.47	317.18	16.38	
2025-01-09 10:37:52.50	316.91	16.38	
2025-01-09 10:37:53.54	316.65	16.38	
2025-01-09 10:37:54.58	316.38	16.38	
2025-01-09 10:37:55.60	316.12	16.38	
2025-01-09 10:37:56.63	315.85	16.38	
2025-01-09 10:37:57.67	315.58	16.38	
2025-01-09 10:37:58.69	315.32	16.37	
2025-01-09 10:37:59.72	315.06	16.37	
2025-01-09 10:38:00.75	314.79	16.37	
2025-01-09 10:38:01.78	314.53	16.36	
2025-01-09 10:38:02.82	314.26	16.36	
2025-01-09 10:38:03.84	314.00	16.35	
2025-01-09 10:38:04.87	313.74	16.34	
2025-01-09 10:38:05.90	313.47	16.34	
2025-01-09 10:38:06.93	313.21	16.33	
2025-01-09 10:38:07.95	312.95	16.32	
2025-01-09 10:38:08.98	312.68	16.31	
2025-01-09 10:38:10.01	312.42	16.30	
2025-01-09 10:38:11.03	312.16	16.29	
2025-01-09 10:38:12.06	311.89	16.28	
2025-01-09 10:38:13.09	311.63	16.27	
2025-01-09 10:38:14.11	311.37	16.26	
2025-01-09 10:38:15.14	311.11	16.25	
2025-01-09 10:38:16.17	310.85	16.24	
2025-01-09 10:38:17.19	310.59	16.22	
2025-01-09 10:38:18.22	310.33	16.21	
2025-01-09 10:38:19.25	310.06	16.19	
2025-01-09 10:38:20.27	309.81	16.18	
2025-01-09 10:38:21.30	309.54	16.16	
2025-01-09 10:38:22.32	309.29	16.15	
2025-01-09 10:38:23.35	309.03	16.13	
2025-01-09 10:38:24.37	308.77	16.11	
2025-01-09 10:38:25.40	308.51	16.10	
2025-01-09 10:38:26.42	308.25	16.08	
2025-01-09 10:38:27.45	307.99	16.06	
2025-01-09 10:38:28.47	307.74	16.04	
2025-01-09 10:38:29.50	307.48	16.02	
2025-01-09 10:38:30.54	307.22	16.00	
2025-01-09 10:38:31.56	306.96	15.98	
2025-01-09 10:38:32.59	306.70	15.96	
2025-01-09 10:38:33.62	306.45	15.94	
2025-01-09 10:38:34.66	306.19	15.91	
2025-01-09 10:38:35.68	305.93	15.89	
2025-01-09 10:38:36.71	305.68	15.87	
2025-01-09 10:38:37.73	305.43	15.84	
2025-01-09 10:38:38.76	305.17	15.82	
2025-01-09 10:38:39.78	304.92	15.79	
2025-01-09 10:38:40.81	304.67	15.77	
2025-01-09 10:38:41.83	304.41	15.74	
2025-01-09 10:38:42.86	304.16	15.71	
2025-01-09 10:38:43.88	303.91	15.69	
2025-01-09 10:38:44.91	303.66	15.66	
2025-01-09 10:38:45.93	303.41	15.63	
2025-01-09 10:38:46.96	303.16	15.60	
2025-01-09 10:38:47.99	302.91	15.57	
2025-01-09 10:38:49.02	302.66	15.54	
2025-01-09 10:38:50.05	302.41	15.51	
2025-01-09 10:38:51.07	302.16	15.48	
2025-01-09 10:38:52.10	301.92	15.45	
2025-01-09 10:38:53.13	301.67	15.42	
2025-01-09 10:38:54.17	301.42	15.39	
2025-01-09 10:38:55.19	301.17	15.36	
2025-01-09 10:38:56.22	300.93	15.32	
2025-01-09 10:38:57.26	300.68	15.29	
2025-01-09 10:38:58.28	300.44	15.26	
2025-01-09 10:38:59.31	300.19	15.22	
2025-01-09 10:39:00.32	299.95	15.19	
2025-01-09 10:39:01.35	299.71	15.15	
2025-01-09 10:39:02.37	299.47	15.12	
2025-01-09 10:39:03.40	299.23	15.08	
2025-01-09 10:39:04.43	298.99	15.05	
2025-01-09 10:39:05.47	298.74	15.01	
2025-01-09 10:39:06.49	298.51	14.97	
2025-01-09 10:39:07.52	298.27	14.93	
2025-01-09 10:39:08.55	298.03	14.90	
2025-01-09 10:39:09.57	297.79	14.86	
2025-01-09 10:39:10.60	297.56	14.82	
2025-01-09 10:39:11.63	297.32	14.78	
2025-01-09 10:39:12.66	297.08	14.74	
2025-01-09 10:39:13.70	296.85	14.70	
2025-01-09 10:39:14.72	296.61	14.66	
2025-01-09 10:39:15.75	296.38	14.62	
2025-01-09 10:39:16.78	296.15	14.58	
2025-01-09 10:39:17.80	295.92	14.54	
2025-01-09 10:39:18.82	295.69	14.49	
2025-01-09 10:39:19.85	295.45	14.45	
2025-01-09 10:39:20.88	295.22	14.41	
2025-01-09 10:39:21.90	295.00	14.37	
2025-01-09 10:39:22.93	294.77	14.32	
2025-01-09 10:39:23.97	294.54	14.28	
2025-01-09 10:39:25.00	294.31	14.23	
2025-01-09 10:39:26.03	294.08	14.19	
2025-01-09 10:39:27.07	293.85	14.14	
2025-01-09 10:39:28.11	293.63	14.10	
2025-01-09 10:39:29.14	293.40	14.05	
2025-01-09 10:39:30.16	293.18	14.01	
2025-01-09 10:39:31.19	292.96	13.96	
2025-01-09 10:39:32.22	292.73	13.92	
2025-01-09 10:39:33.24	292.51	13.87	
2025-01-09 10:39:34.28	292.29	13.82	
2025-01-09 10:39:35.31	292.07	13.78	
2025-01-09 10:39:36.34	291.85	13.73	
2025-01-09 10:39:37.37	291.63	13.68	
2025-01-09 10:39:38.39	291.42	13.63	
2025-01-09 10:39:39.42	291.20	13.58	
2025-01-09 10:39:40.45	290.98	13.54	
2025-01-09 10:39:41.48	290.77	13.49	
2025-01-09 10:39:42.51	290.55	13.44	
2025-01-09 10:39:43.54	290.34	13.39	
2025-01-09 10:39:44.56	290.13	13.34	
2025-01-09 10:39:45.59	289.92	13.29	
2025-01-09 10:39:46.61	289.71	13.24	
2025-01-09 10:39:47.64	289.49	13.19	
2025-01-09 10:39:48.67	289.28	13.14	
2025-01-09 10:39:49.69	289.08	13.09	
2025-01-09 10:39:50.71	288.87	13.04	
2025-01-09 10:39:51.74	288.66	12.98	
2025-01-09 10:39:52.77	288.45	12.93	
2025-01-09 10:39:53.79	288.25	12.88	
2025-01-09 10:39:54.81	288.05	12.83	
2025-01-09 10:39:55.84	287.84	12.78	
2025-01-09 10:39:56.87	287.64	12.72	
2025-01-09 10:39:57.89	287.44	12.67	
2025-01-09 10:39:58.92	287.23	12.62	
2025-01-09 10:39:59.94	287.03	12.57	
2025-01-09 10:40:00.97	286.83	12.51	
2025-01-09 10:40:02.00	286.63	12.46	
2025-01-09 10:40:03.02	286.44	12.41	
2025-01-09 10:40:04.05	286.24	12.35	
2025-01-09 10:40:05.08	286.04	12.30	
2025-01-09 10:40:06.10	285.84	12.24	
2025-01-09 10:40:07.13	285.65	12.19	
2025-01-09 10:40:08.15	285.46	12.14	
2025-01-09 10:40:09.18	285.26	12.08	
2025-01-09 10:40:10.22	285.06	12.03	
2025-01-09 10:40:11.24	284.87	11.97	
2025-01-09 10:40:12.29	284.68	11.91	
2025-01-09 10:40:13.31	284.49	11.86	
2025-01-09 10:40:14.34	284.30	11.80	
2025-01-09 10:40:15.36	284.11	11.75	
2025-01-09 10:40:16.40	283.92	11.69	
2025-01-09 10:40:17.44	283.73	11.63	
2025-01-09 10:40:18.48	283.54	11.58	
2025-01-09 10:40:19.52	283.35	11.52	
2025-01-09 10:40:20.55	283.16	11.46	
2025-01-09 10:40:21.57	282.98	11.41	
2025-01-09 10:40:22.60	282.80	11.35	
2025-01-09 10:40:23.65	282.61	11.29	
2025-01-09 10:40:24.67	282.43	11.24	
2025-01-09 10:40:25.70	282.25	11.18	
2025-01-09 10:40:26.72	282.07	11.12	
2025-01-09 10:40:27.75	281.89	11.07	
2025-01-09 10:40:28.77	281.71	11.01	
2025-01-09 10:40:29.79	281.53	10.95	
2025-01-09 10:40:30.82	281.35	10.89	
2025-01-09 10:40:31.84	281.18	10.84	
2025-01-09 10:40:32.87	281.00	10.78	
2025-01-09 10:40:33.90	280.82	10.72	
2025-01-09 10:40:34.92	280.65	10.66	
2025-01-09 10:40:35.95	280.48	10.61	
2025-01-09 10:40:36.97	280.30	10.55	
2025-01-09 10:40:38.00	280.13	10.49	
2025-01-09 10:40:39.03	279.96	10.43	
2025-01-09 10:40:40.06	279.79	10.37	
2025-01-09 10:40:41.08	279.62	10.31	
2025-01-09 10:40:42.11	279.45	10.26	
2025-01-09 10:40:43.13	279.28	10.20	
2025-01-09 10:40:44.16	279.11	10.14	
2025-01-09 10:40:45.18	278.94	10.08	
2025-01-09 10:40:46.20	278.78	10.02	
2025-01-09 10:40:47.23	278.61	9.96	
2025-01-09 10:40:48.25	278.45	9.90	
2025-01-09 10:40:49.28	278.28	9.85	
2025-01-09 10:40:50.31	278.12	9.79	
2025-01-09 10:40:51.35	277.95	9.73	
2025-01-09 10:40:52.37	277.79	9.67	
2025-01-09 10:40:53.40	277.63	9.61	
2025-01-09 10:40:54.43	277.47	9.55	
2025-01-09 10:40:55.45	277.31	9.49	
2025-01-09 10:40:56.49	277.15	9.43	
2025-01-09 10:40:57.52	276.99	9.37	
2025-01-09 10:40:58.56	276.83	9.31	
2025-01-09 10:40:59.58	276.67	9.25	
2025-01-09 10:41:00.61	276.52	9.19	
2025-01-09 10:41:01.63	276.36	9.13	
2025-01-09 10:41:02.66	276.21	9.07	
2025-01-09 10:41:03.69	276.05	9.01	
2025-01-09 10:41:04.72	275.90	8.95	
2025-01-09 10:41:05.74	275.75	8.89	
2025-01-09 10:41:06.77	275.59	8.83	
2025-01-09 10:41:07.80	275.44	8.77	
2025-01-09 10:41:08.82	275.29	8.71	
2025-01-09 10:41:09.85	275.14	8.65	
2025-01-09 10:41:10.88	274.99	8.59	
2025-01-09 10:41:11.90	274.84	8.54	
2025-01-09 10:41:12.93	274.69	8.48	
2025-01-09 10:41:13.97	274.54	8.42	
2025-01-09 10:41:15.01	274.39	8.35	
2025-01-09 10:41:16.03	274.25	8.30	
2025-01-09 10:41:17.06	274.10	8.24	
2025-01-09 10:41:18.09	273.96	8.18	
2025-01-09 10:41:19.11	273.81	8.12	
2025-01-09 10:41:20.16	273.67	8.05	
2025-01-09 10:41:21.18	273.53	8.00	
2025-01-09 10:41:22.21	273.38	7.94	
2025-01-09 10:41:23.23	273.24	7.88	
2025-01-09 10:41:24.25	273.10	7.82	
2025-01-09 10:41:25.28	272.96	7.76	
2025-01-09 10:41:26.31	272.82	7.70	
2025-01-09 10:41:27.33	272.68	7.64	
2025-01-09 10:41:28.38	272.54	7.58	
2025-01-09 10:41:29.40	272.40	7.52	
2025-01-09 10:41:30.43	272.27	7.46	
2025-01-09 10:41:31.45	272.13	7.40	
2025-01-09 10:41:32.48	271.99	7.34	
2025-01-09 10:41:33.51	271.86	7.28	
2025-01-09 10:41:34.55	271.72	7.22	
2025-01-09 10:41:35.59	271.58	7.16	
2025-01-09 10:41:36.61	271.45	7.10	
2025-01-09 10:41:37.64	271.32	7.04	
2025-01-09 10:41:38.67	271.19	6.98	
2025-01-09 10:41:39.69	271.05	6.92	
2025-01-09 10:41:40.72	270.92	6.86	
2025-01-09 10:41:41.74	270.79	6.80	
2025-01-09 10:41:42.77	270.66	6.74	
2025-01-09 10:41:43.80	270.53	6.68	
2025-01-09 10:41:44.84	270.40	6.62	
2025-01-09 10:41:45.86	270.27	6.56	
2025-01-09 10:41:46.89	270.15	6.50	
2025-01-09 10:41:47.92	270.02	6.44	
2025-01-09 10:41:48.95	269.89	6.38	
2025-01-09 10:41:49.98	269.77	6.32	
2025-01-09 10:41:51.00	269.64	6.26	
2025-01-09 10:41:52.03	269.52	6.20	
2025-01-09 10:41:53.06	269.39	6.14	
2025-01-09 10:41:54.08	269.27	6.08	
2025-01-09 10:41:55.12	269.14	6.02	
2025-01-09 10:41:56.15	269.02	5.96	
2025-01-09 10:41:57.17	268.90	5.91	
2025-01-09 10:41:58.20	268.78	5.85	
2025-01-09 10:41:59.22	268.66	5.79	
2025-01-09 10:42:00.25	268.54	5.73	
2025-01-09 10:42:01.29	268.41	5.67	
2025-01-09 10:42:02.32	268.30	5.61	
2025-01-09 10:42:03.34	268.18	5.55	
2025-01-09 10:42:04.37	268.06	5.49	
2025-01-09 10:42:05.40	267.94	5.43	
2025-01-09 10:42:06.42	267.82	5.37	
2025-01-09 10:42:07.45	267.71	5.32	
2025-01-09 10:42:08.47	267.59	5.26	
2025-01-09 10:42:09.50	267.48	5.20	
2025-01-09 10:42:10.52	267.36	5.14	
2025-01-09 10:42:11.55	267.25	5.08	
2025-01-09 10:42:12.57	267.13	5.02	
2025-01-09 10:42:13.60	267.02	4.96	
2025-01-09 10:42:14.63	266.91	4.91	
2025-01-09 10:42:15.66	266.79	4.85	
2025-01-09 10:42:16.69	266.68	4.79	
2025-01-09 10:42:17.72	266.57	4.73	
2025-01-09 10:42:18.75	266.46	4.67	
2025-01-09 10:42:19.77	266.35	4.61	
2025-01-09 10:42:20.79	266.24	4.56	
2025-01-09 10:42:21.82	266.13	4.50	
2025-01-09 10:42:22.85	266.02	4.44	
2025-01-09 10:42:23.87	265.91	4.38	
2025-01-09 10:42:24.90	265.80	4.32	
2025-01-09 10:42:25.93	265.69	4.27	
2025-01-09 10:42:26.96	265.59	4.21	
2025-01-09 10:42:27.98	265.48	4.15	
2025-01-09 10:42:29.01	265.37	4.09	
2025-01-09 10:42:30.04	265.27	4.03	

#Closed at: 2025-01-09 10:42:30