passes_logs/2025/01/09/SPB_Silybum_02/SPB_Silybum_02__20250109_070205_SUOMI_NPP_rec.log

#Pass ID: 20250109_070205_SUOMI NPP
#Satellite: SUOMI NPP
#Configuration: NPP
#Start time: 2025-01-09 07:02:06

#Version: 2.0.20230423
#Station: SPB_Silybum_02
#Location: 30.233357 lon 59.946436 lat
#TLE: 1 37849U 11061A   25008.85814474  .00000207  00000+0  11909-3 0  9997
#TLE: 2 37849  98.7439 309.9248 0001886  50.2762 309.8580 14.19535270684045

#Time	Az	El	Level	Level2	SNR	BER	Gain	Gain2
2025-01-09 07:02:08.24	66.27	4.14	
2025-01-09 07:02:09.27	66.16	4.18	
2025-01-09 07:02:10.29	66.04	4.23	
2025-01-09 07:02:11.32	65.92	4.27	
2025-01-09 07:02:12.34	65.81	4.32	
2025-01-09 07:02:13.37	65.69	4.36	
2025-01-09 07:02:14.40	65.57	4.41	
2025-01-09 07:02:15.43	65.45	4.46	
2025-01-09 07:02:16.46	65.34	4.50	
2025-01-09 07:02:17.50	65.22	4.55	
2025-01-09 07:02:18.52	65.10	4.59	
2025-01-09 07:02:19.55	64.98	4.64	
2025-01-09 07:02:20.57	64.86	4.68	
2025-01-09 07:02:21.60	64.74	4.73	
2025-01-09 07:02:22.62	64.62	4.77	
2025-01-09 07:02:23.64	64.50	4.82	
2025-01-09 07:02:24.67	64.38	4.86	
2025-01-09 07:02:25.70	64.26	4.91	
2025-01-09 07:02:26.72	64.13	4.95	
2025-01-09 07:02:27.74	64.01	5.00	
2025-01-09 07:02:28.77	63.89	5.04	
2025-01-09 07:02:29.80	63.77	5.09	
2025-01-09 07:02:30.82	63.64	5.13	
2025-01-09 07:02:31.85	63.52	5.18	
2025-01-09 07:02:32.88	63.39	5.22	
2025-01-09 07:02:33.90	63.27	5.27	
2025-01-09 07:02:34.93	63.14	5.31	
2025-01-09 07:02:35.96	63.02	5.36	
2025-01-09 07:02:36.99	62.89	5.40	
2025-01-09 07:02:38.03	62.76	5.45	
2025-01-09 07:02:39.05	62.64	5.49	
2025-01-09 07:02:40.08	62.51	5.54	
2025-01-09 07:02:41.11	62.38	5.58	
2025-01-09 07:02:42.13	62.26	5.62	
2025-01-09 07:02:43.15	62.13	5.67	
2025-01-09 07:02:44.18	62.00	5.71	
2025-01-09 07:02:45.20	61.87	5.76	
2025-01-09 07:02:46.23	61.74	5.80	
2025-01-09 07:02:47.25	61.61	5.84	
2025-01-09 07:02:48.28	61.48	5.89	
2025-01-09 07:02:49.31	61.35	5.93	
2025-01-09 07:02:50.33	61.22	5.98	
2025-01-09 07:02:51.35	61.09	6.02	
2025-01-09 07:02:52.38	60.96	6.06	
2025-01-09 07:02:53.41	60.82	6.11	
2025-01-09 07:02:54.43	60.69	6.15	
2025-01-09 07:02:55.47	60.56	6.19	
2025-01-09 07:02:56.50	60.42	6.24	
2025-01-09 07:02:57.52	60.29	6.28	
2025-01-09 07:02:58.56	60.15	6.32	
2025-01-09 07:02:59.59	60.02	6.37	
2025-01-09 07:03:00.63	59.88	6.41	
2025-01-09 07:03:01.66	59.75	6.45	
2025-01-09 07:03:02.68	59.61	6.50	
2025-01-09 07:03:03.71	59.47	6.54	
2025-01-09 07:03:04.73	59.34	6.58	
2025-01-09 07:03:05.76	59.20	6.63	
2025-01-09 07:03:06.78	59.06	6.67	
2025-01-09 07:03:07.81	58.93	6.71	
2025-01-09 07:03:08.83	58.79	6.75	
2025-01-09 07:03:09.86	58.65	6.80	
2025-01-09 07:03:10.88	58.51	6.84	
2025-01-09 07:03:11.91	58.37	6.88	
2025-01-09 07:03:12.93	58.23	6.92	
2025-01-09 07:03:13.96	58.09	6.96	
2025-01-09 07:03:14.98	57.95	7.01	
2025-01-09 07:03:16.01	57.81	7.05	
2025-01-09 07:03:17.05	57.66	7.09	
2025-01-09 07:03:18.09	57.52	7.13	
2025-01-09 07:03:19.12	57.38	7.17	
2025-01-09 07:03:20.14	57.24	7.21	
2025-01-09 07:03:21.16	57.09	7.26	
2025-01-09 07:03:22.19	56.95	7.30	
2025-01-09 07:03:23.22	56.80	7.34	
2025-01-09 07:03:24.25	56.66	7.38	
2025-01-09 07:03:25.27	56.52	7.42	
2025-01-09 07:03:26.30	56.37	7.46	
2025-01-09 07:03:27.32	56.22	7.50	
2025-01-09 07:03:28.35	56.08	7.54	
2025-01-09 07:03:29.37	55.93	7.58	
2025-01-09 07:03:30.40	55.78	7.62	
2025-01-09 07:03:31.42	55.64	7.66	
2025-01-09 07:03:32.45	55.49	7.70	
2025-01-09 07:03:33.48	55.34	7.74	
2025-01-09 07:03:34.51	55.19	7.78	
2025-01-09 07:03:35.53	55.04	7.82	
2025-01-09 07:03:36.56	54.89	7.86	
2025-01-09 07:03:37.58	54.74	7.90	
2025-01-09 07:03:38.61	54.59	7.94	
2025-01-09 07:03:39.63	54.44	7.98	
2025-01-09 07:03:40.66	54.29	8.02	
2025-01-09 07:03:41.69	54.14	8.06	
2025-01-09 07:03:42.71	53.99	8.10	
2025-01-09 07:03:43.74	53.84	8.14	
2025-01-09 07:03:44.76	53.68	8.17	
2025-01-09 07:03:45.80	53.53	8.21	
2025-01-09 07:03:46.83	53.37	8.25	
2025-01-09 07:03:47.87	53.22	8.29	
2025-01-09 07:03:48.90	53.06	8.33	
2025-01-09 07:03:49.93	52.91	8.37	
2025-01-09 07:03:50.95	52.75	8.40	
2025-01-09 07:03:51.99	52.60	8.44	
2025-01-09 07:03:53.03	52.44	8.48	
2025-01-09 07:03:54.06	52.28	8.52	
2025-01-09 07:03:55.10	52.12	8.56	
2025-01-09 07:03:56.12	51.97	8.59	
2025-01-09 07:03:57.15	51.81	8.63	
2025-01-09 07:03:58.17	51.65	8.67	
2025-01-09 07:03:59.21	51.49	8.70	
2025-01-09 07:04:00.24	51.33	8.74	
2025-01-09 07:04:01.27	51.17	8.78	
2025-01-09 07:04:02.29	51.01	8.81	
2025-01-09 07:04:03.32	50.85	8.85	
2025-01-09 07:04:04.36	50.69	8.88	
2025-01-09 07:04:05.38	50.53	8.92	
2025-01-09 07:04:06.41	50.37	8.95	
2025-01-09 07:04:07.44	50.20	8.99	
2025-01-09 07:04:08.46	50.04	9.03	
2025-01-09 07:04:09.49	49.88	9.06	
2025-01-09 07:04:10.51	49.72	9.09	
2025-01-09 07:04:11.53	49.56	9.13	
2025-01-09 07:04:12.56	49.39	9.16	
2025-01-09 07:04:13.58	49.23	9.20	
2025-01-09 07:04:14.63	49.06	9.23	
2025-01-09 07:04:15.65	48.90	9.27	
2025-01-09 07:04:16.68	48.73	9.30	
2025-01-09 07:04:17.71	48.56	9.33	
2025-01-09 07:04:18.74	48.40	9.37	
2025-01-09 07:04:19.76	48.23	9.40	
2025-01-09 07:04:20.79	48.06	9.43	
2025-01-09 07:04:21.82	47.90	9.47	
2025-01-09 07:04:22.84	47.73	9.50	
2025-01-09 07:04:23.87	47.56	9.53	
2025-01-09 07:04:24.89	47.39	9.56	
2025-01-09 07:04:25.92	47.22	9.60	
2025-01-09 07:04:26.95	47.06	9.63	
2025-01-09 07:04:27.98	46.88	9.66	
2025-01-09 07:04:29.00	46.72	9.69	
2025-01-09 07:04:30.03	46.55	9.72	
2025-01-09 07:04:31.05	46.38	9.75	
2025-01-09 07:04:32.07	46.21	9.78	
2025-01-09 07:04:33.10	46.03	9.81	
2025-01-09 07:04:34.13	45.86	9.84	
2025-01-09 07:04:35.15	45.69	9.87	
2025-01-09 07:04:36.19	45.52	9.90	
2025-01-09 07:04:37.24	45.34	9.93	
2025-01-09 07:04:38.28	45.16	9.96	
2025-01-09 07:04:39.30	44.99	9.99	
2025-01-09 07:04:40.33	44.82	10.02	
2025-01-09 07:04:41.35	44.64	10.05	
2025-01-09 07:04:42.38	44.47	10.08	
2025-01-09 07:04:43.41	44.29	10.11	
2025-01-09 07:04:44.43	44.12	10.14	
2025-01-09 07:04:45.46	43.94	10.16	
2025-01-09 07:04:46.48	43.77	10.19	
2025-01-09 07:04:47.51	43.59	10.22	
2025-01-09 07:04:48.54	43.42	10.25	
2025-01-09 07:04:49.58	43.24	10.27	
2025-01-09 07:04:50.61	43.06	10.30	
2025-01-09 07:04:51.63	42.88	10.33	
2025-01-09 07:04:52.66	42.70	10.35	
2025-01-09 07:04:53.70	42.52	10.38	
2025-01-09 07:04:54.72	42.35	10.41	
2025-01-09 07:04:55.77	42.16	10.43	
2025-01-09 07:04:56.79	41.98	10.46	
2025-01-09 07:04:57.82	41.80	10.48	
2025-01-09 07:04:58.84	41.63	10.51	
2025-01-09 07:04:59.88	41.44	10.53	
2025-01-09 07:05:00.90	41.26	10.56	
2025-01-09 07:05:01.93	41.08	10.58	
2025-01-09 07:05:02.97	40.90	10.61	
2025-01-09 07:05:04.00	40.72	10.63	
2025-01-09 07:05:05.02	40.54	10.65	
2025-01-09 07:05:06.05	40.36	10.68	
2025-01-09 07:05:07.07	40.17	10.70	
2025-01-09 07:05:08.10	39.99	10.72	
2025-01-09 07:05:09.13	39.81	10.74	
2025-01-09 07:05:10.16	39.62	10.77	
2025-01-09 07:05:11.18	39.44	10.79	
2025-01-09 07:05:12.21	39.26	10.81	
2025-01-09 07:05:13.24	39.07	10.83	
2025-01-09 07:05:14.27	38.89	10.85	
2025-01-09 07:05:15.29	38.71	10.87	
2025-01-09 07:05:16.32	38.52	10.89	
2025-01-09 07:05:17.35	38.33	10.91	
2025-01-09 07:05:18.39	38.15	10.93	
2025-01-09 07:05:19.41	37.96	10.95	
2025-01-09 07:05:20.44	37.78	10.97	
2025-01-09 07:05:21.48	37.59	10.99	
2025-01-09 07:05:22.51	37.40	11.01	
2025-01-09 07:05:23.53	37.22	11.03	
2025-01-09 07:05:24.56	37.03	11.05	
2025-01-09 07:05:25.59	36.84	11.07	
2025-01-09 07:05:26.63	36.65	11.08	
2025-01-09 07:05:27.65	36.47	11.10	
2025-01-09 07:05:28.67	36.28	11.12	
2025-01-09 07:05:29.70	36.09	11.13	
2025-01-09 07:05:30.73	35.90	11.15	
2025-01-09 07:05:31.75	35.72	11.17	
2025-01-09 07:05:32.78	35.53	11.18	
2025-01-09 07:05:33.80	35.34	11.20	
2025-01-09 07:05:34.82	35.15	11.21	
2025-01-09 07:05:35.85	34.96	11.23	
2025-01-09 07:05:36.87	34.78	11.24	
2025-01-09 07:05:37.90	34.59	11.26	
2025-01-09 07:05:38.92	34.40	11.27	
2025-01-09 07:05:39.95	34.21	11.29	
2025-01-09 07:05:40.98	34.02	11.30	
2025-01-09 07:05:42.00	33.83	11.31	
2025-01-09 07:05:43.03	33.64	11.33	
2025-01-09 07:05:44.05	33.45	11.34	
2025-01-09 07:05:45.07	33.26	11.35	
2025-01-09 07:05:46.09	33.07	11.36	
2025-01-09 07:05:47.13	32.87	11.38	
2025-01-09 07:05:48.16	32.68	11.39	
2025-01-09 07:05:49.19	32.49	11.40	
2025-01-09 07:05:50.21	32.30	11.41	
2025-01-09 07:05:51.24	32.11	11.42	
2025-01-09 07:05:52.26	31.92	11.43	
2025-01-09 07:05:53.29	31.73	11.44	
2025-01-09 07:05:54.31	31.54	11.45	
2025-01-09 07:05:55.35	31.34	11.46	
2025-01-09 07:05:56.38	31.15	11.47	
2025-01-09 07:05:57.40	30.96	11.48	
2025-01-09 07:05:58.43	30.76	11.49	
2025-01-09 07:05:59.45	30.57	11.49	
2025-01-09 07:06:00.48	30.38	11.50	
2025-01-09 07:06:01.50	30.19	11.51	
2025-01-09 07:06:02.53	30.00	11.52	
2025-01-09 07:06:03.55	29.80	11.52	
2025-01-09 07:06:04.59	29.61	11.53	
2025-01-09 07:06:05.62	29.42	11.54	
2025-01-09 07:06:06.64	29.22	11.54	
2025-01-09 07:06:07.67	29.03	11.55	
2025-01-09 07:06:08.70	28.84	11.55	
2025-01-09 07:06:09.72	28.64	11.56	
2025-01-09 07:06:10.75	28.45	11.56	
2025-01-09 07:06:11.77	28.26	11.57	
2025-01-09 07:06:12.80	28.06	11.57	
2025-01-09 07:06:13.82	27.87	11.58	
2025-01-09 07:06:14.86	27.67	11.58	
2025-01-09 07:06:15.89	27.48	11.58	
2025-01-09 07:06:16.91	27.29	11.58	
2025-01-09 07:06:17.94	27.09	11.59	
2025-01-09 07:06:18.96	26.90	11.59	
2025-01-09 07:06:20.00	26.71	11.59	
2025-01-09 07:06:21.03	26.51	11.59	
2025-01-09 07:06:22.05	26.32	11.59	
2025-01-09 07:06:23.08	26.12	11.59	
2025-01-09 07:06:24.11	25.93	11.60	
2025-01-09 07:06:25.13	25.74	11.60	
2025-01-09 07:06:26.16	25.54	11.60	
2025-01-09 07:06:27.18	25.35	11.60	
2025-01-09 07:06:28.21	25.16	11.59	
2025-01-09 07:06:29.23	24.96	11.59	
2025-01-09 07:06:30.26	24.77	11.59	
2025-01-09 07:06:31.29	24.57	11.59	
2025-01-09 07:06:32.31	24.38	11.59	
2025-01-09 07:06:33.34	24.19	11.59	
2025-01-09 07:06:34.37	23.99	11.58	
2025-01-09 07:06:35.39	23.80	11.58	
2025-01-09 07:06:36.42	23.61	11.58	
2025-01-09 07:06:37.44	23.41	11.57	
2025-01-09 07:06:38.47	23.22	11.57	
2025-01-09 07:06:39.51	23.02	11.57	
2025-01-09 07:06:40.54	22.83	11.56	
2025-01-09 07:06:41.57	22.64	11.56	
2025-01-09 07:06:42.59	22.44	11.55	
2025-01-09 07:06:43.63	22.25	11.55	
2025-01-09 07:06:44.66	22.06	11.54	
2025-01-09 07:06:45.69	21.86	11.53	
2025-01-09 07:06:46.72	21.67	11.53	
2025-01-09 07:06:47.74	21.48	11.52	
2025-01-09 07:06:48.77	21.28	11.51	
2025-01-09 07:06:49.80	21.09	11.51	
2025-01-09 07:06:50.82	20.90	11.50	
2025-01-09 07:06:51.85	20.71	11.49	
2025-01-09 07:06:52.87	20.51	11.48	
2025-01-09 07:06:53.90	20.32	11.47	
2025-01-09 07:06:54.92	20.13	11.46	
2025-01-09 07:06:55.95	19.94	11.46	
2025-01-09 07:06:56.97	19.75	11.45	
2025-01-09 07:06:58.00	19.56	11.44	
2025-01-09 07:06:59.03	19.36	11.43	
2025-01-09 07:07:00.07	19.17	11.42	
2025-01-09 07:07:01.09	18.98	11.40	
2025-01-09 07:07:02.12	18.79	11.39	
2025-01-09 07:07:03.16	18.59	11.38	
2025-01-09 07:07:04.20	18.40	11.37	
2025-01-09 07:07:05.23	18.21	11.36	
2025-01-09 07:07:06.26	18.02	11.35	
2025-01-09 07:07:07.28	17.83	11.33	
2025-01-09 07:07:08.30	17.64	11.32	
2025-01-09 07:07:09.33	17.45	11.31	
2025-01-09 07:07:10.36	17.26	11.29	
2025-01-09 07:07:11.39	17.07	11.28	
2025-01-09 07:07:12.42	16.88	11.27	
2025-01-09 07:07:13.44	16.69	11.25	
2025-01-09 07:07:14.47	16.50	11.24	
2025-01-09 07:07:15.49	16.31	11.22	
2025-01-09 07:07:16.51	16.13	11.21	
2025-01-09 07:07:17.54	15.94	11.19	
2025-01-09 07:07:18.57	15.75	11.17	
2025-01-09 07:07:19.59	15.56	11.16	
2025-01-09 07:07:20.61	15.38	11.14	
2025-01-09 07:07:21.64	15.19	11.13	
2025-01-09 07:07:22.66	15.00	11.11	
2025-01-09 07:07:23.69	14.81	11.09	
2025-01-09 07:07:24.73	14.62	11.07	
2025-01-09 07:07:25.75	14.44	11.06	
2025-01-09 07:07:26.78	14.25	11.04	
2025-01-09 07:07:27.80	14.07	11.02	
2025-01-09 07:07:28.83	13.88	11.00	
2025-01-09 07:07:29.87	13.69	10.98	
2025-01-09 07:07:30.90	13.51	10.96	
2025-01-09 07:07:31.93	13.32	10.94	
2025-01-09 07:07:32.95	13.14	10.92	
2025-01-09 07:07:33.98	12.95	10.90	
2025-01-09 07:07:35.02	12.76	10.88	
2025-01-09 07:07:36.06	12.58	10.86	
2025-01-09 07:07:37.10	12.39	10.84	
2025-01-09 07:07:38.12	12.21	10.82	
2025-01-09 07:07:39.15	12.02	10.80	
2025-01-09 07:07:40.17	11.84	10.78	
2025-01-09 07:07:41.20	11.66	10.75	
2025-01-09 07:07:42.23	11.48	10.73	
2025-01-09 07:07:43.25	11.30	10.71	
2025-01-09 07:07:44.27	11.11	10.69	
2025-01-09 07:07:45.29	10.93	10.66	
2025-01-09 07:07:46.33	10.75	10.64	
2025-01-09 07:07:47.36	10.57	10.62	
2025-01-09 07:07:48.38	10.39	10.59	
2025-01-09 07:07:49.42	10.21	10.57	
2025-01-09 07:07:50.45	10.03	10.55	
2025-01-09 07:07:51.47	9.85	10.52	
2025-01-09 07:07:52.50	9.67	10.50	
2025-01-09 07:07:53.53	9.49	10.47	
2025-01-09 07:07:54.56	9.31	10.45	
2025-01-09 07:07:55.58	9.13	10.42	
2025-01-09 07:07:56.61	8.95	10.39	
2025-01-09 07:07:57.64	8.77	10.37	
2025-01-09 07:07:58.67	8.59	10.34	
2025-01-09 07:07:59.69	8.42	10.32	
2025-01-09 07:08:00.74	8.24	10.29	
2025-01-09 07:08:01.76	8.06	10.26	
2025-01-09 07:08:02.79	7.88	10.23	
2025-01-09 07:08:03.82	7.71	10.21	
2025-01-09 07:08:04.84	7.53	10.18	
2025-01-09 07:08:05.87	7.36	10.15	
2025-01-09 07:08:06.90	7.18	10.12	
2025-01-09 07:08:07.92	7.01	10.10	
2025-01-09 07:08:08.95	6.83	10.07	
2025-01-09 07:08:09.97	6.66	10.04	
2025-01-09 07:08:11.01	6.48	10.01	
2025-01-09 07:08:12.04	6.31	9.98	
2025-01-09 07:08:13.07	6.14	9.95	
2025-01-09 07:08:14.10	5.96	9.92	
2025-01-09 07:08:15.12	5.79	9.89	
2025-01-09 07:08:16.15	5.62	9.86	
2025-01-09 07:08:17.17	5.45	9.83	
2025-01-09 07:08:18.20	5.28	9.80	
2025-01-09 07:08:19.22	5.11	9.77	
2025-01-09 07:08:20.27	4.93	9.74	
2025-01-09 07:08:21.31	4.76	9.71	
2025-01-09 07:08:22.33	4.59	9.68	
2025-01-09 07:08:23.35	4.43	9.64	
2025-01-09 07:08:24.38	4.26	9.61	
2025-01-09 07:08:25.40	4.09	9.58	
2025-01-09 07:08:26.43	3.92	9.55	
2025-01-09 07:08:27.45	3.75	9.52	
2025-01-09 07:08:28.48	3.59	9.48	
2025-01-09 07:08:29.50	3.42	9.45	
2025-01-09 07:08:30.53	3.25	9.42	
2025-01-09 07:08:31.56	3.09	9.39	
2025-01-09 07:08:32.58	2.92	9.35	
2025-01-09 07:08:33.60	2.76	9.32	
2025-01-09 07:08:34.63	2.59	9.29	
2025-01-09 07:08:35.65	2.43	9.25	
2025-01-09 07:08:36.68	2.26	9.22	
2025-01-09 07:08:37.72	2.10	9.18	
2025-01-09 07:08:38.74	1.93	9.15	
2025-01-09 07:08:39.78	1.77	9.11	
2025-01-09 07:08:40.80	1.61	9.08	
2025-01-09 07:08:41.84	1.44	9.05	
2025-01-09 07:08:42.86	1.28	9.01	
2025-01-09 07:08:43.89	1.12	8.98	
2025-01-09 07:08:44.91	0.96	8.94	
2025-01-09 07:08:45.94	0.80	8.90	
2025-01-09 07:08:46.96	0.64	8.87	
2025-01-09 07:08:47.99	0.48	8.83	
2025-01-09 07:08:49.02	0.32	8.80	
2025-01-09 07:08:50.06	0.16	8.76	
2025-01-09 07:08:51.08	360.00	8.72	
2025-01-09 07:08:52.11	359.84	8.69	
2025-01-09 07:08:53.14	359.68	8.65	
2025-01-09 07:08:54.16	359.53	8.61	
2025-01-09 07:08:55.19	359.37	8.58	
2025-01-09 07:08:56.21	359.21	8.54	
2025-01-09 07:08:57.24	359.06	8.50	
2025-01-09 07:08:58.27	358.90	8.47	
2025-01-09 07:08:59.29	358.75	8.43	
2025-01-09 07:09:00.31	358.59	8.39	
2025-01-09 07:09:01.35	358.43	8.35	
2025-01-09 07:09:02.40	358.28	8.31	
2025-01-09 07:09:03.43	358.12	8.28	
2025-01-09 07:09:04.45	357.97	8.24	
2025-01-09 07:09:05.48	357.82	8.20	
2025-01-09 07:09:06.51	357.66	8.16	
2025-01-09 07:09:07.53	357.51	8.12	
2025-01-09 07:09:08.56	357.36	8.08	
2025-01-09 07:09:09.58	357.21	8.05	
2025-01-09 07:09:10.61	357.06	8.01	
2025-01-09 07:09:11.63	356.91	7.97	
2025-01-09 07:09:12.66	356.76	7.93	
2025-01-09 07:09:13.68	356.61	7.89	
2025-01-09 07:09:14.71	356.46	7.85	
2025-01-09 07:09:15.74	356.31	7.81	
2025-01-09 07:09:16.76	356.16	7.77	
2025-01-09 07:09:17.79	356.01	7.73	
2025-01-09 07:09:18.82	355.87	7.69	
2025-01-09 07:09:19.84	355.72	7.65	
2025-01-09 07:09:20.87	355.57	7.61	
2025-01-09 07:09:21.90	355.43	7.57	
2025-01-09 07:09:22.92	355.28	7.53	
2025-01-09 07:09:23.95	355.13	7.49	
2025-01-09 07:09:24.98	354.99	7.45	
2025-01-09 07:09:26.01	354.84	7.41	
2025-01-09 07:09:27.04	354.70	7.37	
2025-01-09 07:09:28.08	354.55	7.32	
2025-01-09 07:09:29.10	354.41	7.28	
2025-01-09 07:09:30.13	354.27	7.24	
2025-01-09 07:09:31.16	354.12	7.20	
2025-01-09 07:09:32.20	353.98	7.16	
2025-01-09 07:09:33.23	353.84	7.12	
2025-01-09 07:09:34.27	353.70	7.08	
2025-01-09 07:09:35.31	353.55	7.03	
2025-01-09 07:09:36.35	353.41	6.99	
2025-01-09 07:09:37.37	353.27	6.95	
2025-01-09 07:09:38.40	353.13	6.91	
2025-01-09 07:09:39.43	352.99	6.86	
2025-01-09 07:09:40.45	352.85	6.82	
2025-01-09 07:09:41.48	352.71	6.78	
2025-01-09 07:09:42.51	352.58	6.74	
2025-01-09 07:09:43.53	352.44	6.70	
2025-01-09 07:09:44.56	352.30	6.65	
2025-01-09 07:09:45.60	352.16	6.61	
2025-01-09 07:09:46.63	352.03	6.57	
2025-01-09 07:09:47.66	351.89	6.52	
2025-01-09 07:09:48.68	351.75	6.48	
2025-01-09 07:09:49.71	351.62	6.44	
2025-01-09 07:09:50.74	351.48	6.40	
2025-01-09 07:09:51.78	351.35	6.35	
2025-01-09 07:09:52.80	351.21	6.31	
2025-01-09 07:09:53.83	351.08	6.27	
2025-01-09 07:09:54.85	350.95	6.22	
2025-01-09 07:09:55.88	350.81	6.18	
2025-01-09 07:09:56.90	350.68	6.14	
2025-01-09 07:09:57.93	350.55	6.09	
2025-01-09 07:09:58.95	350.42	6.05	
2025-01-09 07:09:59.98	350.29	6.01	
2025-01-09 07:10:01.02	350.16	5.96	
2025-01-09 07:10:02.04	350.03	5.92	
2025-01-09 07:10:03.07	349.90	5.87	
2025-01-09 07:10:04.11	349.77	5.83	
2025-01-09 07:10:05.13	349.64	5.79	
2025-01-09 07:10:06.17	349.51	5.74	
2025-01-09 07:10:07.19	349.38	5.70	
2025-01-09 07:10:08.22	349.25	5.65	
2025-01-09 07:10:09.24	349.12	5.61	
2025-01-09 07:10:10.27	349.00	5.56	
2025-01-09 07:10:11.29	348.87	5.52	
2025-01-09 07:10:12.31	348.75	5.48	
2025-01-09 07:10:13.34	348.62	5.43	
2025-01-09 07:10:14.36	348.49	5.39	
2025-01-09 07:10:15.39	348.37	5.34	
2025-01-09 07:10:16.41	348.25	5.30	
2025-01-09 07:10:17.43	348.12	5.25	
2025-01-09 07:10:18.46	348.00	5.21	
2025-01-09 07:10:19.48	347.87	5.16	
2025-01-09 07:10:20.51	347.75	5.12	
2025-01-09 07:10:21.53	347.63	5.08	
2025-01-09 07:10:22.55	347.51	5.03	
2025-01-09 07:10:23.58	347.38	4.99	
2025-01-09 07:10:24.61	347.26	4.94	
2025-01-09 07:10:25.64	347.14	4.90	
2025-01-09 07:10:26.67	347.02	4.85	
2025-01-09 07:10:27.71	346.90	4.80	
2025-01-09 07:10:28.75	346.78	4.76	
2025-01-09 07:10:29.77	346.66	4.71	
2025-01-09 07:10:30.80	346.54	4.67	
2025-01-09 07:10:31.82	346.42	4.62	
2025-01-09 07:10:32.85	346.30	4.58	
2025-01-09 07:10:33.88	346.18	4.53	
2025-01-09 07:10:34.90	346.06	4.49	
2025-01-09 07:10:35.92	345.95	4.44	
2025-01-09 07:10:36.95	345.83	4.40	
2025-01-09 07:10:37.99	345.71	4.35	
2025-01-09 07:10:39.01	345.60	4.31	
2025-01-09 07:10:40.04	345.48	4.26	
2025-01-09 07:10:41.07	345.36	4.21	
2025-01-09 07:10:42.09	345.25	4.17	
2025-01-09 07:10:43.12	345.13	4.12	
2025-01-09 07:10:44.15	345.02	4.08	
2025-01-09 07:10:45.17	344.91	4.03	

#Closed at: 2025-01-09 07:10:45