passes_logs/2025/01/09/SPB_Silybum_02/SPB_Silybum_02__20250109_020553_SUOMI_NPP_rec.log

#Pass ID: 20250109_020553_SUOMI NPP
#Satellite: SUOMI NPP
#Configuration: NPP
#Start time: 2025-01-09 02:05:53

#Version: 2.0.20230423
#Station: SPB_Silybum_02
#Location: 30.233357 lon 59.946436 lat
#TLE: 1 37849U 11061A   25008.15329241  .00000250  00000+0  13932-3 0  9999
#TLE: 2 37849  98.7439 309.2289 0001915  51.2946 308.8402 14.19535012683945

#Time	Az	El	Level	Level2	SNR	BER	Gain	Gain2
2025-01-09 02:05:55.74	14.25	4.11	
2025-01-09 02:05:56.97	14.17	4.18	
2025-01-09 02:05:58.20	14.08	4.26	
2025-01-09 02:05:59.43	14.00	4.33	
2025-01-09 02:06:00.65	13.91	4.41	
2025-01-09 02:06:01.89	13.82	4.48	
2025-01-09 02:06:03.11	13.74	4.56	
2025-01-09 02:06:04.34	13.65	4.63	
2025-01-09 02:06:05.57	13.56	4.71	
2025-01-09 02:06:06.81	13.47	4.78	
2025-01-09 02:06:08.05	13.39	4.86	
2025-01-09 02:06:09.29	13.30	4.94	
2025-01-09 02:06:10.52	13.21	5.01	
2025-01-09 02:06:11.74	13.12	5.09	
2025-01-09 02:06:12.97	13.03	5.17	
2025-01-09 02:06:14.21	12.93	5.25	
2025-01-09 02:06:15.44	12.84	5.32	
2025-01-09 02:06:16.67	12.75	5.40	
2025-01-09 02:06:17.90	12.66	5.48	
2025-01-09 02:06:19.13	12.56	5.55	
2025-01-09 02:06:20.37	12.47	5.63	
2025-01-09 02:06:21.61	12.37	5.71	
2025-01-09 02:06:22.84	12.28	5.79	
2025-01-09 02:06:24.07	12.18	5.87	
2025-01-09 02:06:25.30	12.09	5.95	
2025-01-09 02:06:26.54	11.99	6.03	
2025-01-09 02:06:27.77	11.89	6.10	
2025-01-09 02:06:28.99	11.80	6.18	
2025-01-09 02:06:30.24	11.70	6.26	
2025-01-09 02:06:31.47	11.60	6.34	
2025-01-09 02:06:32.70	11.50	6.42	
2025-01-09 02:06:33.93	11.40	6.50	
2025-01-09 02:06:35.17	11.30	6.58	
2025-01-09 02:06:36.40	11.20	6.66	
2025-01-09 02:06:37.63	11.10	6.74	
2025-01-09 02:06:38.86	11.00	6.82	
2025-01-09 02:06:40.09	10.89	6.90	
2025-01-09 02:06:41.33	10.79	6.98	
2025-01-09 02:06:42.56	10.68	7.06	
2025-01-09 02:06:43.79	10.58	7.14	
2025-01-09 02:06:45.02	10.48	7.22	
2025-01-09 02:06:46.25	10.37	7.31	
2025-01-09 02:06:47.48	10.26	7.39	
2025-01-09 02:06:48.71	10.16	7.47	
2025-01-09 02:06:49.94	10.05	7.55	
2025-01-09 02:06:51.18	9.94	7.63	
2025-01-09 02:06:52.41	9.83	7.71	
2025-01-09 02:06:53.64	9.72	7.80	
2025-01-09 02:06:54.87	9.61	7.88	
2025-01-09 02:06:56.10	9.50	7.96	
2025-01-09 02:06:57.34	9.39	8.04	
2025-01-09 02:06:58.58	9.28	8.13	
2025-01-09 02:06:59.81	9.16	8.21	
2025-01-09 02:07:01.04	9.05	8.29	
2025-01-09 02:07:02.27	8.94	8.38	
2025-01-09 02:07:03.50	8.82	8.46	
2025-01-09 02:07:04.73	8.71	8.54	
2025-01-09 02:07:05.96	8.59	8.63	
2025-01-09 02:07:07.19	8.47	8.71	
2025-01-09 02:07:08.41	8.36	8.79	
2025-01-09 02:07:09.64	8.24	8.88	
2025-01-09 02:07:10.87	8.12	8.96	
2025-01-09 02:07:12.10	8.00	9.05	
2025-01-09 02:07:13.33	7.88	9.13	
2025-01-09 02:07:14.57	7.76	9.22	
2025-01-09 02:07:15.79	7.64	9.30	
2025-01-09 02:07:17.02	7.51	9.39	
2025-01-09 02:07:18.26	7.39	9.47	
2025-01-09 02:07:19.49	7.26	9.56	
2025-01-09 02:07:20.73	7.14	9.65	
2025-01-09 02:07:21.96	7.01	9.73	
2025-01-09 02:07:23.19	6.89	9.82	
2025-01-09 02:07:24.42	6.76	9.90	
2025-01-09 02:07:25.66	6.63	9.99	
2025-01-09 02:07:26.88	6.50	10.08	
2025-01-09 02:07:28.11	6.37	10.16	
2025-01-09 02:07:29.35	6.24	10.25	
2025-01-09 02:07:30.57	6.11	10.34	
2025-01-09 02:07:31.81	5.98	10.42	
2025-01-09 02:07:33.05	5.85	10.51	
2025-01-09 02:07:34.30	5.71	10.60	
2025-01-09 02:07:35.52	5.58	10.69	
2025-01-09 02:07:36.75	5.44	10.78	
2025-01-09 02:07:37.98	5.31	10.86	
2025-01-09 02:07:39.22	5.17	10.95	
2025-01-09 02:07:40.46	5.03	11.04	
2025-01-09 02:07:41.69	4.89	11.13	
2025-01-09 02:07:42.92	4.75	11.22	
2025-01-09 02:07:44.16	4.61	11.31	
2025-01-09 02:07:45.40	4.47	11.40	
2025-01-09 02:07:46.63	4.32	11.49	
2025-01-09 02:07:47.86	4.18	11.57	
2025-01-09 02:07:49.09	4.04	11.66	
2025-01-09 02:07:50.32	3.89	11.75	
2025-01-09 02:07:51.55	3.75	11.84	
2025-01-09 02:07:52.78	3.60	11.93	
2025-01-09 02:07:54.01	3.45	12.02	
2025-01-09 02:07:55.24	3.30	12.11	
2025-01-09 02:07:56.47	3.16	12.20	
2025-01-09 02:07:57.70	3.00	12.29	
2025-01-09 02:07:58.93	2.85	12.38	
2025-01-09 02:08:00.16	2.70	12.47	
2025-01-09 02:08:01.40	2.55	12.56	
2025-01-09 02:08:02.64	2.39	12.66	
2025-01-09 02:08:03.86	2.24	12.75	
2025-01-09 02:08:05.09	2.08	12.84	
2025-01-09 02:08:06.35	1.92	12.93	
2025-01-09 02:08:07.58	1.76	13.02	
2025-01-09 02:08:08.81	1.60	13.11	
2025-01-09 02:08:10.04	1.44	13.20	
2025-01-09 02:08:11.28	1.28	13.30	
2025-01-09 02:08:12.52	1.12	13.39	
2025-01-09 02:08:13.75	0.95	13.48	
2025-01-09 02:08:14.98	0.79	13.57	
2025-01-09 02:08:16.21	0.62	13.67	
2025-01-09 02:08:17.44	0.46	13.76	
2025-01-09 02:08:18.67	0.29	13.85	
2025-01-09 02:08:19.90	0.12	13.94	
2025-01-09 02:08:21.15	359.95	14.04	
2025-01-09 02:08:22.40	359.77	14.13	
2025-01-09 02:08:23.63	359.60	14.22	
2025-01-09 02:08:24.85	359.43	14.31	
2025-01-09 02:08:26.09	359.25	14.41	
2025-01-09 02:08:27.32	359.08	14.50	
2025-01-09 02:08:28.56	358.90	14.60	
2025-01-09 02:08:29.79	358.72	14.69	
2025-01-09 02:08:31.02	358.55	14.78	
2025-01-09 02:08:32.26	358.36	14.88	
2025-01-09 02:08:33.49	358.18	14.97	
2025-01-09 02:08:34.72	358.00	15.06	
2025-01-09 02:08:35.96	357.82	15.16	
2025-01-09 02:08:37.19	357.63	15.25	
2025-01-09 02:08:38.42	357.45	15.34	
2025-01-09 02:08:39.65	357.26	15.44	
2025-01-09 02:08:40.88	357.07	15.53	
2025-01-09 02:08:42.11	356.88	15.62	
2025-01-09 02:08:43.34	356.69	15.72	
2025-01-09 02:08:44.57	356.50	15.81	
2025-01-09 02:08:45.80	356.31	15.91	
2025-01-09 02:08:47.03	356.11	16.00	
2025-01-09 02:08:48.26	355.92	16.09	
2025-01-09 02:08:49.49	355.72	16.19	
2025-01-09 02:08:50.72	355.52	16.28	
2025-01-09 02:08:51.95	355.32	16.37	
2025-01-09 02:08:53.18	355.12	16.47	
2025-01-09 02:08:54.42	354.92	16.56	
2025-01-09 02:08:55.66	354.71	16.66	
2025-01-09 02:08:56.89	354.51	16.75	
2025-01-09 02:08:58.12	354.30	16.85	
2025-01-09 02:08:59.35	354.10	16.94	
2025-01-09 02:09:00.59	353.89	17.03	
2025-01-09 02:09:01.83	353.68	17.13	
2025-01-09 02:09:03.06	353.46	17.22	
2025-01-09 02:09:04.29	353.25	17.32	
2025-01-09 02:09:05.53	353.04	17.41	
2025-01-09 02:09:06.76	352.82	17.50	
2025-01-09 02:09:08.00	352.60	17.60	
2025-01-09 02:09:09.23	352.39	17.69	
2025-01-09 02:09:10.46	352.17	17.79	
2025-01-09 02:09:11.70	351.94	17.88	
2025-01-09 02:09:12.93	351.72	17.97	
2025-01-09 02:09:14.16	351.50	18.07	
2025-01-09 02:09:15.39	351.27	18.16	
2025-01-09 02:09:16.62	351.05	18.25	
2025-01-09 02:09:17.85	350.82	18.34	
2025-01-09 02:09:19.08	350.59	18.44	
2025-01-09 02:09:20.31	350.36	18.53	
2025-01-09 02:09:21.54	350.13	18.62	
2025-01-09 02:09:22.77	349.90	18.71	
2025-01-09 02:09:24.01	349.66	18.81	
2025-01-09 02:09:25.26	349.42	18.90	
2025-01-09 02:09:26.49	349.18	18.99	
2025-01-09 02:09:27.71	348.94	19.08	
2025-01-09 02:09:28.95	348.70	19.17	
2025-01-09 02:09:30.18	348.46	19.27	
2025-01-09 02:09:31.41	348.22	19.36	
2025-01-09 02:09:32.64	347.97	19.45	
2025-01-09 02:09:33.87	347.72	19.54	
2025-01-09 02:09:35.11	347.47	19.63	
2025-01-09 02:09:36.34	347.23	19.72	
2025-01-09 02:09:37.58	346.97	19.81	
2025-01-09 02:09:38.82	346.72	19.90	
2025-01-09 02:09:40.05	346.46	19.99	
2025-01-09 02:09:41.29	346.21	20.08	
2025-01-09 02:09:42.54	345.95	20.17	
2025-01-09 02:09:43.76	345.69	20.26	
2025-01-09 02:09:44.99	345.43	20.34	
2025-01-09 02:09:46.23	345.16	20.43	
2025-01-09 02:09:47.46	344.90	20.52	
2025-01-09 02:09:48.69	344.64	20.61	
2025-01-09 02:09:49.92	344.37	20.69	
2025-01-09 02:09:51.15	344.10	20.78	
2025-01-09 02:09:52.40	343.83	20.87	
2025-01-09 02:09:53.62	343.56	20.95	
2025-01-09 02:09:54.85	343.29	21.04	
2025-01-09 02:09:56.08	343.02	21.12	
2025-01-09 02:09:57.32	342.74	21.21	
2025-01-09 02:09:58.54	342.46	21.29	
2025-01-09 02:09:59.77	342.19	21.37	
2025-01-09 02:10:01.00	341.91	21.46	
2025-01-09 02:10:02.23	341.62	21.54	
2025-01-09 02:10:03.46	341.34	21.62	
2025-01-09 02:10:04.69	341.06	21.70	
2025-01-09 02:10:05.93	340.77	21.79	
2025-01-09 02:10:07.16	340.48	21.87	
2025-01-09 02:10:08.41	340.19	21.95	
2025-01-09 02:10:09.64	339.90	22.03	
2025-01-09 02:10:10.86	339.61	22.11	
2025-01-09 02:10:12.11	339.31	22.19	
2025-01-09 02:10:13.34	339.01	22.26	
2025-01-09 02:10:14.58	338.71	22.34	
2025-01-09 02:10:15.82	338.41	22.42	
2025-01-09 02:10:17.04	338.12	22.49	
2025-01-09 02:10:18.27	337.82	22.57	
2025-01-09 02:10:19.50	337.51	22.64	
2025-01-09 02:10:20.73	337.21	22.72	
2025-01-09 02:10:21.96	336.90	22.79	
2025-01-09 02:10:23.19	336.60	22.87	
2025-01-09 02:10:24.42	336.29	22.94	
2025-01-09 02:10:25.65	335.98	23.01	
2025-01-09 02:10:26.88	335.67	23.08	
2025-01-09 02:10:28.12	335.35	23.15	
2025-01-09 02:10:29.35	335.04	23.22	
2025-01-09 02:10:30.58	334.72	23.29	
2025-01-09 02:10:31.81	334.41	23.36	
2025-01-09 02:10:33.04	334.09	23.42	
2025-01-09 02:10:34.28	333.77	23.49	
2025-01-09 02:10:35.51	333.44	23.56	
2025-01-09 02:10:36.74	333.12	23.62	
2025-01-09 02:10:37.97	332.80	23.68	
2025-01-09 02:10:39.20	332.47	23.75	
2025-01-09 02:10:40.43	332.15	23.81	
2025-01-09 02:10:41.66	331.82	23.87	
2025-01-09 02:10:42.89	331.49	23.93	
2025-01-09 02:10:44.13	331.16	23.99	
2025-01-09 02:10:45.36	330.83	24.05	
2025-01-09 02:10:46.59	330.49	24.11	
2025-01-09 02:10:47.82	330.16	24.16	
2025-01-09 02:10:49.05	329.82	24.22	
2025-01-09 02:10:50.28	329.49	24.27	
2025-01-09 02:10:51.51	329.15	24.33	
2025-01-09 02:10:52.75	328.81	24.38	
2025-01-09 02:10:53.97	328.47	24.43	
2025-01-09 02:10:55.20	328.13	24.48	
2025-01-09 02:10:56.43	327.79	24.53	
2025-01-09 02:10:57.66	327.45	24.58	
2025-01-09 02:10:58.91	327.10	24.63	
2025-01-09 02:11:00.14	326.75	24.68	
2025-01-09 02:11:01.37	326.40	24.72	
2025-01-09 02:11:02.60	326.06	24.77	
2025-01-09 02:11:03.83	325.71	24.81	
2025-01-09 02:11:05.06	325.36	24.86	
2025-01-09 02:11:06.30	325.01	24.90	
2025-01-09 02:11:07.54	324.65	24.94	
2025-01-09 02:11:08.77	324.30	24.98	
2025-01-09 02:11:10.00	323.95	25.02	
2025-01-09 02:11:11.23	323.59	25.05	
2025-01-09 02:11:12.46	323.24	25.09	
2025-01-09 02:11:13.70	322.88	25.12	
2025-01-09 02:11:14.94	322.52	25.16	
2025-01-09 02:11:16.17	322.16	25.19	
2025-01-09 02:11:17.40	321.80	25.22	
2025-01-09 02:11:18.63	321.45	25.25	
2025-01-09 02:11:19.86	321.09	25.28	
2025-01-09 02:11:21.09	320.73	25.31	
2025-01-09 02:11:22.32	320.37	25.33	
2025-01-09 02:11:23.55	320.01	25.36	
2025-01-09 02:11:24.78	319.64	25.38	
2025-01-09 02:11:26.02	319.28	25.40	
2025-01-09 02:11:27.26	318.91	25.43	
2025-01-09 02:11:28.49	318.55	25.45	
2025-01-09 02:11:29.74	318.18	25.46	
2025-01-09 02:11:30.98	317.81	25.48	
2025-01-09 02:11:32.21	317.45	25.50	
2025-01-09 02:11:33.44	317.08	25.51	
2025-01-09 02:11:34.68	316.72	25.53	
2025-01-09 02:11:35.90	316.35	25.54	
2025-01-09 02:11:37.13	315.99	25.55	
2025-01-09 02:11:38.36	315.62	25.56	
2025-01-09 02:11:39.59	315.26	25.57	
2025-01-09 02:11:40.82	314.89	25.58	
2025-01-09 02:11:42.05	314.52	25.58	
2025-01-09 02:11:43.28	314.16	25.59	
2025-01-09 02:11:44.51	313.79	25.59	
2025-01-09 02:11:45.74	313.42	25.59	
2025-01-09 02:11:46.96	313.06	25.60	
2025-01-09 02:11:48.20	312.69	25.60	
2025-01-09 02:11:49.43	312.32	25.59	
2025-01-09 02:11:50.66	311.95	25.59	
2025-01-09 02:11:51.89	311.59	25.59	
2025-01-09 02:11:53.12	311.22	25.58	
2025-01-09 02:11:54.35	310.85	25.57	
2025-01-09 02:11:55.58	310.49	25.57	
2025-01-09 02:11:56.81	310.12	25.56	
2025-01-09 02:11:58.04	309.75	25.55	
2025-01-09 02:11:59.27	309.39	25.53	
2025-01-09 02:12:00.50	309.02	25.52	
2025-01-09 02:12:01.73	308.66	25.51	
2025-01-09 02:12:02.96	308.29	25.49	
2025-01-09 02:12:04.19	307.93	25.47	
2025-01-09 02:12:05.42	307.56	25.46	
2025-01-09 02:12:06.66	307.20	25.44	
2025-01-09 02:12:07.91	306.83	25.42	
2025-01-09 02:12:09.15	306.46	25.39	
2025-01-09 02:12:10.38	306.10	25.37	
2025-01-09 02:12:11.62	305.74	25.35	
2025-01-09 02:12:12.85	305.38	25.32	
2025-01-09 02:12:14.09	305.01	25.29	
2025-01-09 02:12:15.32	304.65	25.27	
2025-01-09 02:12:16.57	304.29	25.24	
2025-01-09 02:12:17.80	303.93	25.21	
2025-01-09 02:12:19.03	303.57	25.17	
2025-01-09 02:12:20.25	303.22	25.14	
2025-01-09 02:12:21.50	302.85	25.11	
2025-01-09 02:12:22.73	302.50	25.07	
2025-01-09 02:12:23.96	302.14	25.04	
2025-01-09 02:12:25.19	301.79	25.00	
2025-01-09 02:12:26.43	301.43	24.96	
2025-01-09 02:12:27.66	301.08	24.92	
2025-01-09 02:12:28.89	300.73	24.88	
2025-01-09 02:12:30.12	300.38	24.84	
2025-01-09 02:12:31.35	300.03	24.79	
2025-01-09 02:12:32.58	299.68	24.75	
2025-01-09 02:12:33.81	299.33	24.70	
2025-01-09 02:12:35.04	298.99	24.66	
2025-01-09 02:12:36.28	298.64	24.61	
2025-01-09 02:12:37.51	298.30	24.56	
2025-01-09 02:12:38.74	297.95	24.51	
2025-01-09 02:12:39.97	297.61	24.46	
2025-01-09 02:12:41.19	297.27	24.41	
2025-01-09 02:12:42.42	296.93	24.36	
2025-01-09 02:12:43.65	296.59	24.30	
2025-01-09 02:12:44.90	296.25	24.25	
2025-01-09 02:12:46.13	295.91	24.19	
2025-01-09 02:12:47.36	295.58	24.14	
2025-01-09 02:12:48.59	295.24	24.08	
2025-01-09 02:12:49.82	294.91	24.02	
2025-01-09 02:12:51.05	294.58	23.96	
2025-01-09 02:12:52.28	294.25	23.90	
2025-01-09 02:12:53.53	293.91	23.84	
2025-01-09 02:12:54.78	293.58	23.78	
2025-01-09 02:12:56.00	293.26	23.72	
2025-01-09 02:12:57.23	292.93	23.65	
2025-01-09 02:12:58.46	292.61	23.59	
2025-01-09 02:12:59.69	292.29	23.52	
2025-01-09 02:13:00.92	291.96	23.46	
2025-01-09 02:13:02.15	291.64	23.39	
2025-01-09 02:13:03.38	291.33	23.32	
2025-01-09 02:13:04.61	291.01	23.25	
2025-01-09 02:13:05.86	290.69	23.18	
2025-01-09 02:13:07.09	290.37	23.11	
2025-01-09 02:13:08.32	290.06	23.04	
2025-01-09 02:13:09.55	289.75	22.97	
2025-01-09 02:13:10.79	289.44	22.90	
2025-01-09 02:13:12.02	289.13	22.83	
2025-01-09 02:13:13.25	288.82	22.75	
2025-01-09 02:13:14.49	288.51	22.68	
2025-01-09 02:13:15.72	288.21	22.60	
2025-01-09 02:13:16.94	287.91	22.53	
2025-01-09 02:13:18.18	287.61	22.45	
2025-01-09 02:13:19.41	287.31	22.38	
2025-01-09 02:13:20.64	287.01	22.30	
2025-01-09 02:13:21.87	286.71	22.22	
2025-01-09 02:13:23.10	286.42	22.14	
2025-01-09 02:13:24.33	286.12	22.06	
2025-01-09 02:13:25.55	285.83	21.98	
2025-01-09 02:13:26.78	285.54	21.90	
2025-01-09 02:13:28.02	285.25	21.82	
2025-01-09 02:13:29.25	284.96	21.74	
2025-01-09 02:13:30.48	284.68	21.66	
2025-01-09 02:13:31.71	284.39	21.58	
2025-01-09 02:13:32.96	284.10	21.49	
2025-01-09 02:13:34.19	283.82	21.41	
2025-01-09 02:13:35.42	283.54	21.33	
2025-01-09 02:13:36.65	283.26	21.24	
2025-01-09 02:13:37.89	282.98	21.16	
2025-01-09 02:13:39.12	282.71	21.07	
2025-01-09 02:13:40.35	282.44	20.99	
2025-01-09 02:13:41.59	282.16	20.90	
2025-01-09 02:13:42.83	281.89	20.82	
2025-01-09 02:13:44.07	281.62	20.73	
2025-01-09 02:13:45.30	281.35	20.64	
2025-01-09 02:13:46.53	281.08	20.55	
2025-01-09 02:13:47.76	280.82	20.47	
2025-01-09 02:13:48.99	280.55	20.38	
2025-01-09 02:13:50.22	280.29	20.29	
2025-01-09 02:13:51.45	280.03	20.20	
2025-01-09 02:13:52.68	279.77	20.11	
2025-01-09 02:13:53.91	279.52	20.03	
2025-01-09 02:13:55.15	279.26	19.94	
2025-01-09 02:13:56.38	279.00	19.85	
2025-01-09 02:13:57.61	278.75	19.76	
2025-01-09 02:13:58.84	278.50	19.67	
2025-01-09 02:14:00.07	278.25	19.57	
2025-01-09 02:14:01.30	278.00	19.48	
2025-01-09 02:14:02.54	277.75	19.39	
2025-01-09 02:14:03.77	277.51	19.30	
2025-01-09 02:14:05.01	277.26	19.21	
2025-01-09 02:14:06.23	277.02	19.12	
2025-01-09 02:14:07.48	276.78	19.03	
2025-01-09 02:14:08.71	276.54	18.93	
2025-01-09 02:14:09.94	276.30	18.84	
2025-01-09 02:14:11.17	276.06	18.75	
2025-01-09 02:14:12.41	275.83	18.66	
2025-01-09 02:14:13.64	275.59	18.56	
2025-01-09 02:14:14.86	275.36	18.47	
2025-01-09 02:14:16.09	275.13	18.38	
2025-01-09 02:14:17.32	274.90	18.29	
2025-01-09 02:14:18.56	274.67	18.19	
2025-01-09 02:14:19.79	274.45	18.10	
2025-01-09 02:14:21.02	274.22	18.01	
2025-01-09 02:14:22.26	274.00	17.91	
2025-01-09 02:14:23.49	273.77	17.82	
2025-01-09 02:14:24.72	273.55	17.72	
2025-01-09 02:14:25.95	273.33	17.63	
2025-01-09 02:14:27.19	273.11	17.54	
2025-01-09 02:14:28.42	272.90	17.44	
2025-01-09 02:14:29.65	272.68	17.35	
2025-01-09 02:14:30.88	272.47	17.25	
2025-01-09 02:14:32.11	272.25	17.16	
2025-01-09 02:14:33.35	272.04	17.07	
2025-01-09 02:14:34.58	271.83	16.97	
2025-01-09 02:14:35.81	271.62	16.88	
2025-01-09 02:14:37.04	271.41	16.78	
2025-01-09 02:14:38.27	271.21	16.69	
2025-01-09 02:14:39.51	271.00	16.59	
2025-01-09 02:14:40.74	270.80	16.50	
2025-01-09 02:14:41.97	270.60	16.41	
2025-01-09 02:14:43.22	270.39	16.31	
2025-01-09 02:14:44.45	270.19	16.22	
2025-01-09 02:14:45.68	269.99	16.12	
2025-01-09 02:14:46.91	269.80	16.03	
2025-01-09 02:14:48.15	269.60	15.93	
2025-01-09 02:14:49.39	269.40	15.84	
2025-01-09 02:14:50.63	269.21	15.74	
2025-01-09 02:14:51.86	269.02	15.65	
2025-01-09 02:14:53.09	268.82	15.55	
2025-01-09 02:14:54.32	268.63	15.46	
2025-01-09 02:14:55.55	268.45	15.37	
2025-01-09 02:14:56.79	268.26	15.27	
2025-01-09 02:14:58.02	268.07	15.18	
2025-01-09 02:14:59.25	267.89	15.08	
2025-01-09 02:15:00.49	267.70	14.99	
2025-01-09 02:15:01.74	267.52	14.89	
2025-01-09 02:15:02.98	267.33	14.80	
2025-01-09 02:15:04.21	267.15	14.71	
2025-01-09 02:15:05.44	266.97	14.61	
2025-01-09 02:15:06.67	266.79	14.52	
2025-01-09 02:15:07.91	266.62	14.43	
2025-01-09 02:15:09.14	266.44	14.33	
2025-01-09 02:15:10.37	266.27	14.24	
2025-01-09 02:15:11.60	266.09	14.15	
2025-01-09 02:15:12.83	265.92	14.05	
2025-01-09 02:15:14.06	265.75	13.96	
2025-01-09 02:15:15.29	265.58	13.87	
2025-01-09 02:15:16.52	265.41	13.78	
2025-01-09 02:15:17.74	265.24	13.68	
2025-01-09 02:15:18.97	265.08	13.59	
2025-01-09 02:15:20.20	264.91	13.50	
2025-01-09 02:15:21.43	264.74	13.41	
2025-01-09 02:15:22.66	264.58	13.32	
2025-01-09 02:15:23.89	264.42	13.22	
2025-01-09 02:15:25.12	264.26	13.13	
2025-01-09 02:15:26.35	264.10	13.04	
2025-01-09 02:15:27.58	263.94	12.95	
2025-01-09 02:15:28.83	263.77	12.86	
2025-01-09 02:15:30.06	263.62	12.76	
2025-01-09 02:15:31.29	263.46	12.67	
2025-01-09 02:15:32.52	263.30	12.58	
2025-01-09 02:15:33.76	263.15	12.49	
2025-01-09 02:15:34.99	262.99	12.40	
2025-01-09 02:15:36.22	262.84	12.31	
2025-01-09 02:15:37.45	262.69	12.22	
2025-01-09 02:15:38.68	262.54	12.13	
2025-01-09 02:15:39.91	262.39	12.04	
2025-01-09 02:15:41.15	262.24	11.95	
2025-01-09 02:15:42.38	262.09	11.86	
2025-01-09 02:15:43.62	261.94	11.77	
2025-01-09 02:15:44.84	261.80	11.68	
2025-01-09 02:15:46.07	261.65	11.59	
2025-01-09 02:15:47.30	261.51	11.50	
2025-01-09 02:15:48.53	261.36	11.41	
2025-01-09 02:15:49.76	261.22	11.32	
2025-01-09 02:15:50.99	261.08	11.23	
2025-01-09 02:15:52.22	260.94	11.14	
2025-01-09 02:15:53.47	260.79	11.05	
2025-01-09 02:15:54.70	260.66	10.96	
2025-01-09 02:15:55.92	260.52	10.88	
2025-01-09 02:15:57.16	260.38	10.79	
2025-01-09 02:15:58.39	260.24	10.70	
2025-01-09 02:15:59.62	260.11	10.61	
2025-01-09 02:16:00.86	259.97	10.52	
2025-01-09 02:16:02.09	259.84	10.43	
2025-01-09 02:16:03.32	259.70	10.35	
2025-01-09 02:16:04.55	259.57	10.26	
2025-01-09 02:16:05.79	259.44	10.17	
2025-01-09 02:16:07.02	259.31	10.08	
2025-01-09 02:16:08.25	259.18	10.00	
2025-01-09 02:16:09.49	259.05	9.91	
2025-01-09 02:16:10.72	258.92	9.82	
2025-01-09 02:16:11.96	258.79	9.74	
2025-01-09 02:16:13.19	258.66	9.65	
2025-01-09 02:16:14.42	258.54	9.57	
2025-01-09 02:16:15.66	258.41	9.48	
2025-01-09 02:16:16.90	258.28	9.39	
2025-01-09 02:16:18.13	258.16	9.31	
2025-01-09 02:16:19.36	258.04	9.22	
2025-01-09 02:16:20.61	257.91	9.13	
2025-01-09 02:16:21.84	257.79	9.05	
2025-01-09 02:16:23.07	257.67	8.97	
2025-01-09 02:16:24.30	257.55	8.88	
2025-01-09 02:16:25.53	257.43	8.80	
2025-01-09 02:16:26.76	257.31	8.71	
2025-01-09 02:16:27.99	257.19	8.63	
2025-01-09 02:16:29.22	257.07	8.54	
2025-01-09 02:16:30.46	256.96	8.46	
2025-01-09 02:16:31.69	256.84	8.38	
2025-01-09 02:16:32.92	256.72	8.29	
2025-01-09 02:16:34.16	256.61	8.21	
2025-01-09 02:16:35.40	256.49	8.12	
2025-01-09 02:16:36.63	256.38	8.04	
2025-01-09 02:16:37.87	256.27	7.96	
2025-01-09 02:16:39.10	256.15	7.87	
2025-01-09 02:16:40.33	256.04	7.79	
2025-01-09 02:16:41.56	255.93	7.71	
2025-01-09 02:16:42.81	255.82	7.63	
2025-01-09 02:16:44.03	255.71	7.54	
2025-01-09 02:16:45.27	255.60	7.46	
2025-01-09 02:16:46.50	255.49	7.38	
2025-01-09 02:16:47.72	255.39	7.30	
2025-01-09 02:16:48.95	255.28	7.22	
2025-01-09 02:16:50.18	255.17	7.14	
2025-01-09 02:16:51.41	255.07	7.06	
2025-01-09 02:16:52.65	254.96	6.97	
2025-01-09 02:16:53.88	254.86	6.89	
2025-01-09 02:16:55.12	254.75	6.81	
2025-01-09 02:16:56.35	254.65	6.73	
2025-01-09 02:16:57.58	254.55	6.65	
2025-01-09 02:16:58.81	254.44	6.57	
2025-01-09 02:17:00.04	254.34	6.49	
2025-01-09 02:17:01.27	254.24	6.41	
2025-01-09 02:17:02.50	254.14	6.33	
2025-01-09 02:17:03.73	254.04	6.25	
2025-01-09 02:17:04.97	253.94	6.17	
2025-01-09 02:17:06.20	253.84	6.09	
2025-01-09 02:17:07.45	253.74	6.01	
2025-01-09 02:17:08.68	253.64	5.94	
2025-01-09 02:17:09.92	253.55	5.86	
2025-01-09 02:17:11.16	253.45	5.78	
2025-01-09 02:17:12.38	253.35	5.70	
2025-01-09 02:17:13.61	253.26	5.62	
2025-01-09 02:17:14.84	253.16	5.54	
2025-01-09 02:17:16.07	253.07	5.47	
2025-01-09 02:17:17.30	252.97	5.39	
2025-01-09 02:17:18.53	252.88	5.31	
2025-01-09 02:17:19.76	252.79	5.23	
2025-01-09 02:17:20.99	252.69	5.16	
2025-01-09 02:17:22.23	252.60	5.08	
2025-01-09 02:17:23.47	252.51	5.00	
2025-01-09 02:17:24.70	252.42	4.92	
2025-01-09 02:17:25.94	252.33	4.85	
2025-01-09 02:17:27.17	252.24	4.77	
2025-01-09 02:17:28.41	252.15	4.69	
2025-01-09 02:17:29.64	252.06	4.62	
2025-01-09 02:17:30.87	251.97	4.54	
2025-01-09 02:17:32.10	251.88	4.47	
2025-01-09 02:17:33.33	251.79	4.39	
2025-01-09 02:17:34.56	251.71	4.31	
2025-01-09 02:17:35.79	251.62	4.24	
2025-01-09 02:17:37.02	251.53	4.16	
2025-01-09 02:17:38.25	251.45	4.09	
2025-01-09 02:17:39.48	251.36	4.01	

#Closed at: 2025-01-09 02:17:39