passes_logs/2025/01/09/SPB_Silybum_02/SPB_Silybum_02__20250109_165518_TERRA_rec.log

#Pass ID: 20250109_165518_TERRA
#Satellite: TERRA
#Configuration: TERRA
#Start time: 2025-01-09 16:55:17

#Version: 2.0.20230423
#Station: SPB_Silybum_02
#Location: 30.233357 lon 59.946436 lat
#TLE: 1 25994U 99068A   25008.82275774  .00000946  00000+0  20487-3 0  9990
#TLE: 2 25994  98.0228  72.0493 0003564  84.8498   6.9254 14.60383008333170

#Time	Az	El	Level	Level2	SNR	BER	Gain	Gain2
2025-01-09 16:55:19.90	111.68	4.06	
2025-01-09 16:55:20.93	111.60	4.13	
2025-01-09 16:55:21.95	111.52	4.19	
2025-01-09 16:55:22.98	111.43	4.26	
2025-01-09 16:55:24.02	111.35	4.33	
2025-01-09 16:55:25.04	111.27	4.39	
2025-01-09 16:55:26.07	111.18	4.46	
2025-01-09 16:55:27.09	111.10	4.52	
2025-01-09 16:55:28.12	111.01	4.59	
2025-01-09 16:55:29.15	110.93	4.65	
2025-01-09 16:55:30.17	110.84	4.72	
2025-01-09 16:55:31.20	110.76	4.79	
2025-01-09 16:55:32.23	110.67	4.85	
2025-01-09 16:55:33.25	110.58	4.92	
2025-01-09 16:55:34.28	110.50	4.99	
2025-01-09 16:55:35.30	110.41	5.05	
2025-01-09 16:55:36.33	110.32	5.12	
2025-01-09 16:55:37.35	110.23	5.19	
2025-01-09 16:55:38.38	110.14	5.25	
2025-01-09 16:55:39.40	110.05	5.32	
2025-01-09 16:55:40.43	109.96	5.39	
2025-01-09 16:55:41.45	109.87	5.45	
2025-01-09 16:55:42.48	109.78	5.52	
2025-01-09 16:55:43.52	109.69	5.59	
2025-01-09 16:55:44.56	109.59	5.66	
2025-01-09 16:55:45.58	109.50	5.73	
2025-01-09 16:55:46.61	109.41	5.80	
2025-01-09 16:55:47.64	109.31	5.86	
2025-01-09 16:55:48.67	109.22	5.93	
2025-01-09 16:55:49.70	109.12	6.00	
2025-01-09 16:55:50.72	109.03	6.07	
2025-01-09 16:55:51.75	108.93	6.14	
2025-01-09 16:55:52.77	108.84	6.21	
2025-01-09 16:55:53.80	108.74	6.28	
2025-01-09 16:55:54.82	108.65	6.34	
2025-01-09 16:55:55.85	108.55	6.41	
2025-01-09 16:55:56.87	108.45	6.48	
2025-01-09 16:55:57.90	108.35	6.55	
2025-01-09 16:55:58.93	108.25	6.62	
2025-01-09 16:55:59.97	108.15	6.69	
2025-01-09 16:56:01.00	108.05	6.76	
2025-01-09 16:56:02.03	107.95	6.83	
2025-01-09 16:56:03.07	107.85	6.91	
2025-01-09 16:56:04.09	107.74	6.98	
2025-01-09 16:56:05.12	107.64	7.05	
2025-01-09 16:56:06.15	107.54	7.12	
2025-01-09 16:56:07.17	107.44	7.19	
2025-01-09 16:56:08.20	107.33	7.26	
2025-01-09 16:56:09.25	107.22	7.33	
2025-01-09 16:56:10.27	107.12	7.40	
2025-01-09 16:56:11.30	107.01	7.47	
2025-01-09 16:56:12.32	106.91	7.54	
2025-01-09 16:56:13.35	106.80	7.62	
2025-01-09 16:56:14.38	106.69	7.69	
2025-01-09 16:56:15.40	106.58	7.76	
2025-01-09 16:56:16.42	106.48	7.83	
2025-01-09 16:56:17.45	106.37	7.90	
2025-01-09 16:56:18.48	106.26	7.98	
2025-01-09 16:56:19.50	106.15	8.05	
2025-01-09 16:56:20.53	106.03	8.12	
2025-01-09 16:56:21.56	105.92	8.19	
2025-01-09 16:56:22.58	105.81	8.27	
2025-01-09 16:56:23.60	105.70	8.34	
2025-01-09 16:56:24.63	105.58	8.41	
2025-01-09 16:56:25.66	105.47	8.49	
2025-01-09 16:56:26.68	105.35	8.56	
2025-01-09 16:56:27.70	105.24	8.63	
2025-01-09 16:56:28.73	105.12	8.70	
2025-01-09 16:56:29.76	105.01	8.78	
2025-01-09 16:56:30.78	104.89	8.85	
2025-01-09 16:56:31.81	104.77	8.93	
2025-01-09 16:56:32.83	104.65	9.00	
2025-01-09 16:56:33.86	104.53	9.07	
2025-01-09 16:56:34.88	104.41	9.15	
2025-01-09 16:56:35.91	104.29	9.22	
2025-01-09 16:56:36.93	104.17	9.30	
2025-01-09 16:56:37.96	104.05	9.37	
2025-01-09 16:56:38.98	103.93	9.45	
2025-01-09 16:56:40.01	103.80	9.52	
2025-01-09 16:56:41.04	103.68	9.60	
2025-01-09 16:56:42.06	103.55	9.67	
2025-01-09 16:56:43.10	103.43	9.75	
2025-01-09 16:56:44.13	103.30	9.82	
2025-01-09 16:56:45.15	103.17	9.90	
2025-01-09 16:56:46.18	103.04	9.98	
2025-01-09 16:56:47.21	102.91	10.05	
2025-01-09 16:56:48.23	102.79	10.13	
2025-01-09 16:56:49.26	102.66	10.20	
2025-01-09 16:56:50.28	102.53	10.28	
2025-01-09 16:56:51.31	102.39	10.36	
2025-01-09 16:56:52.35	102.26	10.43	
2025-01-09 16:56:53.39	102.12	10.51	
2025-01-09 16:56:54.41	101.99	10.59	
2025-01-09 16:56:55.45	101.85	10.67	
2025-01-09 16:56:56.48	101.72	10.74	
2025-01-09 16:56:57.50	101.58	10.82	
2025-01-09 16:56:58.53	101.45	10.90	
2025-01-09 16:56:59.55	101.31	10.98	
2025-01-09 16:57:00.58	101.17	11.05	
2025-01-09 16:57:01.60	101.03	11.13	
2025-01-09 16:57:02.63	100.89	11.21	
2025-01-09 16:57:03.66	100.75	11.29	
2025-01-09 16:57:04.68	100.61	11.36	
2025-01-09 16:57:05.71	100.46	11.44	
2025-01-09 16:57:06.74	100.32	11.52	
2025-01-09 16:57:07.77	100.18	11.60	
2025-01-09 16:57:08.79	100.03	11.68	
2025-01-09 16:57:09.82	99.88	11.76	
2025-01-09 16:57:10.84	99.74	11.83	
2025-01-09 16:57:11.86	99.59	11.91	
2025-01-09 16:57:12.89	99.44	11.99	
2025-01-09 16:57:13.92	99.29	12.07	
2025-01-09 16:57:14.94	99.14	12.15	
2025-01-09 16:57:15.97	98.99	12.23	
2025-01-09 16:57:17.00	98.84	12.31	
2025-01-09 16:57:18.02	98.69	12.39	
2025-01-09 16:57:19.06	98.53	12.47	
2025-01-09 16:57:20.09	98.37	12.55	
2025-01-09 16:57:21.12	98.22	12.63	
2025-01-09 16:57:22.15	98.06	12.71	
2025-01-09 16:57:23.17	97.90	12.79	
2025-01-09 16:57:24.20	97.74	12.87	
2025-01-09 16:57:25.24	97.58	12.95	
2025-01-09 16:57:26.26	97.42	13.03	
2025-01-09 16:57:27.29	97.26	13.11	
2025-01-09 16:57:28.31	97.10	13.19	
2025-01-09 16:57:29.34	96.94	13.27	
2025-01-09 16:57:30.38	96.77	13.35	
2025-01-09 16:57:31.42	96.60	13.43	
2025-01-09 16:57:32.45	96.44	13.51	
2025-01-09 16:57:33.47	96.27	13.59	
2025-01-09 16:57:34.49	96.10	13.67	
2025-01-09 16:57:35.52	95.93	13.75	
2025-01-09 16:57:36.55	95.76	13.83	
2025-01-09 16:57:37.59	95.59	13.92	
2025-01-09 16:57:38.61	95.42	14.00	
2025-01-09 16:57:39.64	95.24	14.08	
2025-01-09 16:57:40.67	95.07	14.16	
2025-01-09 16:57:41.70	94.89	14.24	
2025-01-09 16:57:42.72	94.72	14.32	
2025-01-09 16:57:43.75	94.54	14.40	
2025-01-09 16:57:44.77	94.36	14.48	
2025-01-09 16:57:45.80	94.18	14.56	
2025-01-09 16:57:46.82	94.00	14.64	
2025-01-09 16:57:47.84	93.82	14.73	
2025-01-09 16:57:48.87	93.64	14.81	
2025-01-09 16:57:49.91	93.45	14.89	
2025-01-09 16:57:50.94	93.27	14.97	
2025-01-09 16:57:51.97	93.08	15.05	
2025-01-09 16:57:53.00	92.89	15.13	
2025-01-09 16:57:54.03	92.70	15.22	
2025-01-09 16:57:55.05	92.51	15.30	
2025-01-09 16:57:56.08	92.32	15.38	
2025-01-09 16:57:57.10	92.13	15.46	
2025-01-09 16:57:58.13	91.94	15.54	
2025-01-09 16:57:59.15	91.75	15.62	
2025-01-09 16:58:00.19	91.55	15.70	
2025-01-09 16:58:01.21	91.35	15.78	
2025-01-09 16:58:02.24	91.16	15.87	
2025-01-09 16:58:03.26	90.96	15.95	
2025-01-09 16:58:04.29	90.76	16.03	
2025-01-09 16:58:05.31	90.56	16.11	
2025-01-09 16:58:06.35	90.36	16.19	
2025-01-09 16:58:07.38	90.15	16.27	
2025-01-09 16:58:08.40	89.95	16.35	
2025-01-09 16:58:09.43	89.74	16.43	
2025-01-09 16:58:10.45	89.54	16.51	
2025-01-09 16:58:11.47	89.33	16.59	
2025-01-09 16:58:12.50	89.12	16.67	
2025-01-09 16:58:13.54	88.91	16.76	
2025-01-09 16:58:14.58	88.69	16.84	
2025-01-09 16:58:15.61	88.48	16.92	
2025-01-09 16:58:16.63	88.27	17.00	
2025-01-09 16:58:17.66	88.05	17.08	
2025-01-09 16:58:18.68	87.84	17.16	
2025-01-09 16:58:19.71	87.62	17.24	
2025-01-09 16:58:20.75	87.40	17.32	
2025-01-09 16:58:21.78	87.18	17.40	
2025-01-09 16:58:22.80	86.96	17.48	
2025-01-09 16:58:23.84	86.73	17.56	
2025-01-09 16:58:24.87	86.51	17.64	
2025-01-09 16:58:25.89	86.28	17.72	
2025-01-09 16:58:26.91	86.06	17.80	
2025-01-09 16:58:27.94	85.83	17.87	
2025-01-09 16:58:28.96	85.60	17.95	
2025-01-09 16:58:29.99	85.37	18.03	
2025-01-09 16:58:31.01	85.14	18.11	
2025-01-09 16:58:32.04	84.91	18.19	
2025-01-09 16:58:33.06	84.68	18.26	
2025-01-09 16:58:34.09	84.44	18.34	
2025-01-09 16:58:35.12	84.20	18.42	
2025-01-09 16:58:36.14	83.97	18.50	
2025-01-09 16:58:37.17	83.73	18.57	
2025-01-09 16:58:38.19	83.49	18.65	
2025-01-09 16:58:39.22	83.25	18.73	
2025-01-09 16:58:40.24	83.01	18.80	
2025-01-09 16:58:41.27	82.76	18.88	
2025-01-09 16:58:42.31	82.51	18.96	
2025-01-09 16:58:43.33	82.27	19.03	
2025-01-09 16:58:44.36	82.02	19.11	
2025-01-09 16:58:45.38	81.77	19.18	
2025-01-09 16:58:46.41	81.52	19.26	
2025-01-09 16:58:47.43	81.27	19.33	
2025-01-09 16:58:48.46	81.02	19.40	
2025-01-09 16:58:49.48	80.76	19.48	
2025-01-09 16:58:50.51	80.51	19.55	
2025-01-09 16:58:51.53	80.25	19.62	
2025-01-09 16:58:52.56	79.99	19.70	
2025-01-09 16:58:53.60	79.73	19.77	
2025-01-09 16:58:54.62	79.47	19.84	
2025-01-09 16:58:55.66	79.20	19.91	
2025-01-09 16:58:56.69	78.94	19.99	
2025-01-09 16:58:57.71	78.68	20.06	
2025-01-09 16:58:58.74	78.41	20.13	
2025-01-09 16:58:59.76	78.14	20.20	
2025-01-09 16:59:00.79	77.87	20.27	
2025-01-09 16:59:01.82	77.60	20.34	
2025-01-09 16:59:02.86	77.33	20.41	
2025-01-09 16:59:03.88	77.06	20.47	
2025-01-09 16:59:04.90	76.79	20.54	
2025-01-09 16:59:05.94	76.51	20.61	
2025-01-09 16:59:06.96	76.23	20.68	
2025-01-09 16:59:07.99	75.95	20.74	
2025-01-09 16:59:09.01	75.68	20.81	
2025-01-09 16:59:10.05	75.39	20.87	
2025-01-09 16:59:11.08	75.11	20.94	
2025-01-09 16:59:12.10	74.83	21.00	
2025-01-09 16:59:13.13	74.54	21.07	
2025-01-09 16:59:14.16	74.26	21.13	
2025-01-09 16:59:15.18	73.97	21.19	
2025-01-09 16:59:16.21	73.68	21.25	
2025-01-09 16:59:17.23	73.40	21.32	
2025-01-09 16:59:18.26	73.11	21.38	
2025-01-09 16:59:19.28	72.82	21.44	
2025-01-09 16:59:20.31	72.52	21.50	
2025-01-09 16:59:21.35	72.23	21.56	
2025-01-09 16:59:22.37	71.93	21.62	
2025-01-09 16:59:23.40	71.64	21.67	
2025-01-09 16:59:24.43	71.34	21.73	
2025-01-09 16:59:25.45	71.04	21.79	
2025-01-09 16:59:26.48	70.74	21.84	
2025-01-09 16:59:27.52	70.44	21.90	
2025-01-09 16:59:28.55	70.14	21.95	
2025-01-09 16:59:29.59	69.83	22.01	
2025-01-09 16:59:30.62	69.52	22.06	
2025-01-09 16:59:31.64	69.22	22.11	
2025-01-09 16:59:32.66	68.92	22.17	
2025-01-09 16:59:33.70	68.61	22.22	
2025-01-09 16:59:34.73	68.30	22.27	
2025-01-09 16:59:35.76	67.99	22.32	
2025-01-09 16:59:36.79	67.67	22.37	
2025-01-09 16:59:37.82	67.36	22.41	
2025-01-09 16:59:38.85	67.05	22.46	
2025-01-09 16:59:39.88	66.73	22.51	
2025-01-09 16:59:40.90	66.42	22.55	
2025-01-09 16:59:41.93	66.11	22.60	
2025-01-09 16:59:42.95	65.79	22.64	
2025-01-09 16:59:43.98	65.47	22.69	
2025-01-09 16:59:45.00	65.16	22.73	
2025-01-09 16:59:46.03	64.84	22.77	
2025-01-09 16:59:47.07	64.51	22.81	
2025-01-09 16:59:48.09	64.20	22.85	
2025-01-09 16:59:49.12	63.87	22.89	
2025-01-09 16:59:50.14	63.55	22.93	
2025-01-09 16:59:51.17	63.23	22.96	
2025-01-09 16:59:52.19	62.91	23.00	
2025-01-09 16:59:53.22	62.58	23.04	
2025-01-09 16:59:54.25	62.26	23.07	
2025-01-09 16:59:55.27	61.93	23.10	
2025-01-09 16:59:56.30	61.60	23.14	
2025-01-09 16:59:57.32	61.28	23.17	
2025-01-09 16:59:58.36	60.95	23.20	
2025-01-09 16:59:59.39	60.62	23.23	
2025-01-09 17:00:00.42	60.29	23.26	
2025-01-09 17:00:01.45	59.95	23.29	
2025-01-09 17:00:02.47	59.63	23.31	
2025-01-09 17:00:03.51	59.29	23.34	
2025-01-09 17:00:04.54	58.96	23.37	
2025-01-09 17:00:05.56	58.63	23.39	
2025-01-09 17:00:06.59	58.29	23.41	
2025-01-09 17:00:07.62	57.96	23.43	
2025-01-09 17:00:08.65	57.62	23.46	
2025-01-09 17:00:09.68	57.29	23.48	
2025-01-09 17:00:10.71	56.95	23.50	
2025-01-09 17:00:11.73	56.62	23.51	
2025-01-09 17:00:12.76	56.28	23.53	
2025-01-09 17:00:13.78	55.95	23.55	
2025-01-09 17:00:14.81	55.61	23.56	
2025-01-09 17:00:15.86	55.27	23.58	
2025-01-09 17:00:16.88	54.93	23.59	
2025-01-09 17:00:17.91	54.59	23.60	
2025-01-09 17:00:18.94	54.25	23.61	
2025-01-09 17:00:19.96	53.92	23.62	
2025-01-09 17:00:20.99	53.58	23.63	
2025-01-09 17:00:22.01	53.24	23.64	
2025-01-09 17:00:23.05	52.90	23.65	
2025-01-09 17:00:24.08	52.56	23.65	
2025-01-09 17:00:25.10	52.22	23.66	
2025-01-09 17:00:26.13	51.88	23.66	
2025-01-09 17:00:27.15	51.55	23.66	
2025-01-09 17:00:28.18	51.21	23.67	
2025-01-09 17:00:29.20	50.87	23.67	
2025-01-09 17:00:30.23	50.53	23.67	
2025-01-09 17:00:31.25	50.19	23.66	
2025-01-09 17:00:32.28	49.86	23.66	
2025-01-09 17:00:33.31	49.52	23.66	
2025-01-09 17:00:34.34	49.18	23.65	
2025-01-09 17:00:35.36	48.84	23.65	
2025-01-09 17:00:36.39	48.50	23.64	
2025-01-09 17:00:37.41	48.16	23.63	
2025-01-09 17:00:38.45	47.82	23.62	
2025-01-09 17:00:39.48	47.48	23.61	
2025-01-09 17:00:40.52	47.14	23.60	
2025-01-09 17:00:41.55	46.80	23.59	
2025-01-09 17:00:42.58	46.47	23.58	
2025-01-09 17:00:43.60	46.13	23.57	
2025-01-09 17:00:44.63	45.79	23.55	
2025-01-09 17:00:45.66	45.46	23.53	
2025-01-09 17:00:46.68	45.12	23.52	
2025-01-09 17:00:47.71	44.79	23.50	
2025-01-09 17:00:48.73	44.45	23.48	
2025-01-09 17:00:49.76	44.12	23.46	
2025-01-09 17:00:50.80	43.78	23.44	
2025-01-09 17:00:51.83	43.45	23.42	
2025-01-09 17:00:52.85	43.12	23.40	
2025-01-09 17:00:53.88	42.78	23.37	
2025-01-09 17:00:54.90	42.45	23.35	
2025-01-09 17:00:55.93	42.12	23.32	
2025-01-09 17:00:56.97	41.79	23.29	
2025-01-09 17:00:57.99	41.46	23.27	
2025-01-09 17:00:59.02	41.13	23.24	
2025-01-09 17:01:00.04	40.80	23.21	
2025-01-09 17:01:01.08	40.47	23.18	
2025-01-09 17:01:02.10	40.14	23.15	
2025-01-09 17:01:03.13	39.82	23.11	
2025-01-09 17:01:04.16	39.49	23.08	
2025-01-09 17:01:05.18	39.17	23.05	
2025-01-09 17:01:06.21	38.84	23.01	
2025-01-09 17:01:07.24	38.52	22.97	
2025-01-09 17:01:08.27	38.19	22.94	
2025-01-09 17:01:09.30	37.87	22.90	
2025-01-09 17:01:10.32	37.55	22.86	
2025-01-09 17:01:11.36	37.23	22.82	
2025-01-09 17:01:12.38	36.91	22.78	
2025-01-09 17:01:13.41	36.59	22.74	
2025-01-09 17:01:14.43	36.27	22.70	
2025-01-09 17:01:15.46	35.96	22.65	
2025-01-09 17:01:16.50	35.64	22.61	
2025-01-09 17:01:17.53	35.32	22.57	
2025-01-09 17:01:18.56	35.01	22.52	
2025-01-09 17:01:19.58	34.70	22.47	
2025-01-09 17:01:20.60	34.39	22.43	
2025-01-09 17:01:21.63	34.07	22.38	
2025-01-09 17:01:22.65	33.77	22.33	
2025-01-09 17:01:23.69	33.45	22.28	
2025-01-09 17:01:24.72	33.15	22.23	
2025-01-09 17:01:25.75	32.84	22.18	
2025-01-09 17:01:26.78	32.53	22.13	
2025-01-09 17:01:27.81	32.23	22.08	
2025-01-09 17:01:28.84	31.92	22.02	
2025-01-09 17:01:29.88	31.62	21.97	
2025-01-09 17:01:30.90	31.32	21.91	
2025-01-09 17:01:31.93	31.02	21.86	
2025-01-09 17:01:32.95	30.72	21.80	
2025-01-09 17:01:33.98	30.42	21.75	
2025-01-09 17:01:35.00	30.13	21.69	
2025-01-09 17:01:36.03	29.83	21.63	
2025-01-09 17:01:37.05	29.54	21.58	
2025-01-09 17:01:38.08	29.24	21.52	
2025-01-09 17:01:39.10	28.95	21.46	
2025-01-09 17:01:40.13	28.66	21.40	
2025-01-09 17:01:41.15	28.37	21.34	
2025-01-09 17:01:42.18	28.08	21.28	
2025-01-09 17:01:43.21	27.80	21.21	
2025-01-09 17:01:44.24	27.51	21.15	
2025-01-09 17:01:45.28	27.22	21.09	
2025-01-09 17:01:46.30	26.94	21.02	
2025-01-09 17:01:47.33	26.66	20.96	
2025-01-09 17:01:48.35	26.38	20.90	
2025-01-09 17:01:49.38	26.10	20.83	
2025-01-09 17:01:50.41	25.82	20.77	
2025-01-09 17:01:51.45	25.54	20.70	
2025-01-09 17:01:52.47	25.26	20.63	
2025-01-09 17:01:53.50	24.99	20.56	
2025-01-09 17:01:54.52	24.72	20.50	
2025-01-09 17:01:55.56	24.44	20.43	
2025-01-09 17:01:56.59	24.17	20.36	
2025-01-09 17:01:57.62	23.90	20.29	
2025-01-09 17:01:58.64	23.63	20.22	
2025-01-09 17:01:59.67	23.36	20.15	
2025-01-09 17:02:00.69	23.10	20.08	
2025-01-09 17:02:01.73	22.83	20.01	
2025-01-09 17:02:02.75	22.57	19.94	
2025-01-09 17:02:03.78	22.31	19.87	
2025-01-09 17:02:04.80	22.05	19.80	
2025-01-09 17:02:05.83	21.79	19.73	
2025-01-09 17:02:06.86	21.53	19.65	
2025-01-09 17:02:07.88	21.28	19.58	
2025-01-09 17:02:08.91	21.02	19.51	
2025-01-09 17:02:09.93	20.77	19.44	
2025-01-09 17:02:10.96	20.52	19.36	
2025-01-09 17:02:11.98	20.27	19.29	
2025-01-09 17:02:13.01	20.02	19.21	
2025-01-09 17:02:14.03	19.77	19.14	
2025-01-09 17:02:15.06	19.52	19.06	
2025-01-09 17:02:16.08	19.28	18.99	
2025-01-09 17:02:17.11	19.03	18.91	
2025-01-09 17:02:18.13	18.79	18.84	
2025-01-09 17:02:19.16	18.55	18.76	
2025-01-09 17:02:20.18	18.31	18.69	
2025-01-09 17:02:21.21	18.07	18.61	
2025-01-09 17:02:22.23	17.83	18.53	
2025-01-09 17:02:23.27	17.59	18.46	
2025-01-09 17:02:24.31	17.35	18.38	
2025-01-09 17:02:25.34	17.12	18.30	
2025-01-09 17:02:26.36	16.88	18.22	
2025-01-09 17:02:27.39	16.65	18.15	
2025-01-09 17:02:28.42	16.42	18.07	
2025-01-09 17:02:29.44	16.19	17.99	
2025-01-09 17:02:30.47	15.96	17.91	
2025-01-09 17:02:31.50	15.74	17.83	
2025-01-09 17:02:32.52	15.51	17.75	
2025-01-09 17:02:33.55	15.29	17.68	
2025-01-09 17:02:34.58	15.06	17.60	
2025-01-09 17:02:35.60	14.84	17.52	
2025-01-09 17:02:36.63	14.62	17.44	
2025-01-09 17:02:37.65	14.40	17.36	
2025-01-09 17:02:38.68	14.19	17.28	
2025-01-09 17:02:39.70	13.97	17.20	
2025-01-09 17:02:40.74	13.75	17.12	
2025-01-09 17:02:41.78	13.53	17.04	
2025-01-09 17:02:42.80	13.32	16.96	
2025-01-09 17:02:43.84	13.11	16.88	
2025-01-09 17:02:44.87	12.90	16.80	
2025-01-09 17:02:45.89	12.69	16.72	
2025-01-09 17:02:46.92	12.48	16.64	
2025-01-09 17:02:47.95	12.27	16.56	
2025-01-09 17:02:48.97	12.07	16.48	
2025-01-09 17:02:50.00	11.86	16.40	
2025-01-09 17:02:51.02	11.66	16.32	
2025-01-09 17:02:52.04	11.46	16.24	
2025-01-09 17:02:53.06	11.26	16.16	
2025-01-09 17:02:54.09	11.06	16.07	
2025-01-09 17:02:55.12	10.86	15.99	
2025-01-09 17:02:56.15	10.66	15.91	
2025-01-09 17:02:57.18	10.46	15.83	
2025-01-09 17:02:58.21	10.27	15.75	
2025-01-09 17:02:59.23	10.08	15.67	
2025-01-09 17:03:00.26	9.88	15.59	
2025-01-09 17:03:01.30	9.69	15.51	
2025-01-09 17:03:02.33	9.50	15.43	
2025-01-09 17:03:03.35	9.31	15.35	
2025-01-09 17:03:04.38	9.12	15.26	
2025-01-09 17:03:05.41	8.93	15.18	
2025-01-09 17:03:06.43	8.74	15.10	
2025-01-09 17:03:07.46	8.56	15.02	
2025-01-09 17:03:08.48	8.38	14.94	
2025-01-09 17:03:09.51	8.19	14.86	
2025-01-09 17:03:10.53	8.01	14.78	
2025-01-09 17:03:11.56	7.83	14.70	
2025-01-09 17:03:12.60	7.65	14.62	
2025-01-09 17:03:13.62	7.47	14.54	
2025-01-09 17:03:14.66	7.29	14.45	
2025-01-09 17:03:15.69	7.11	14.37	
2025-01-09 17:03:16.72	6.94	14.29	
2025-01-09 17:03:17.75	6.76	14.21	
2025-01-09 17:03:18.78	6.59	14.13	
2025-01-09 17:03:19.80	6.42	14.05	
2025-01-09 17:03:20.83	6.24	13.97	
2025-01-09 17:03:21.87	6.07	13.89	
2025-01-09 17:03:22.89	5.90	13.81	
2025-01-09 17:03:23.92	5.73	13.73	
2025-01-09 17:03:24.96	5.56	13.65	
2025-01-09 17:03:25.99	5.40	13.57	
2025-01-09 17:03:27.02	5.23	13.48	
2025-01-09 17:03:28.05	5.06	13.40	
2025-01-09 17:03:29.07	4.90	13.32	
2025-01-09 17:03:30.10	4.74	13.24	
2025-01-09 17:03:31.12	4.58	13.17	
2025-01-09 17:03:32.16	4.42	13.08	
2025-01-09 17:03:33.18	4.26	13.00	
2025-01-09 17:03:34.22	4.10	12.92	
2025-01-09 17:03:35.24	3.94	12.85	
2025-01-09 17:03:36.26	3.78	12.77	
2025-01-09 17:03:37.30	3.63	12.69	
2025-01-09 17:03:38.33	3.47	12.61	
2025-01-09 17:03:39.36	3.32	12.53	
2025-01-09 17:03:40.38	3.16	12.45	
2025-01-09 17:03:41.41	3.01	12.37	
2025-01-09 17:03:42.43	2.86	12.29	
2025-01-09 17:03:43.45	2.71	12.21	
2025-01-09 17:03:44.48	2.56	12.13	
2025-01-09 17:03:45.50	2.41	12.05	
2025-01-09 17:03:46.55	2.26	11.97	
2025-01-09 17:03:47.57	2.11	11.90	
2025-01-09 17:03:48.60	1.97	11.82	
2025-01-09 17:03:49.62	1.82	11.74	
2025-01-09 17:03:50.66	1.68	11.66	
2025-01-09 17:03:51.69	1.53	11.58	
2025-01-09 17:03:52.73	1.39	11.50	
2025-01-09 17:03:53.75	1.25	11.43	
2025-01-09 17:03:54.78	1.11	11.35	
2025-01-09 17:03:55.81	0.96	11.27	
2025-01-09 17:03:56.83	0.83	11.19	
2025-01-09 17:03:57.86	0.69	11.12	
2025-01-09 17:03:58.90	0.55	11.04	
2025-01-09 17:03:59.92	0.41	10.96	
2025-01-09 17:04:00.95	0.27	10.88	
2025-01-09 17:04:01.98	0.14	10.81	
2025-01-09 17:04:03.01	0.00	10.73	
2025-01-09 17:04:04.04	359.87	10.65	
2025-01-09 17:04:05.06	359.74	10.58	
2025-01-09 17:04:06.09	359.60	10.50	
2025-01-09 17:04:07.11	359.47	10.42	
2025-01-09 17:04:08.15	359.34	10.35	
2025-01-09 17:04:09.19	359.21	10.27	
2025-01-09 17:04:10.22	359.08	10.19	
2025-01-09 17:04:11.24	358.95	10.12	
2025-01-09 17:04:12.27	358.82	10.04	
2025-01-09 17:04:13.30	358.69	9.97	
2025-01-09 17:04:14.32	358.57	9.89	
2025-01-09 17:04:15.36	358.44	9.81	
2025-01-09 17:04:16.40	358.32	9.74	
2025-01-09 17:04:17.42	358.19	9.66	
2025-01-09 17:04:18.45	358.07	9.59	
2025-01-09 17:04:19.48	357.94	9.51	
2025-01-09 17:04:20.50	357.82	9.44	
2025-01-09 17:04:21.52	357.70	9.37	
2025-01-09 17:04:22.55	357.58	9.29	
2025-01-09 17:04:23.57	357.46	9.22	
2025-01-09 17:04:24.60	357.34	9.14	
2025-01-09 17:04:25.63	357.22	9.07	
2025-01-09 17:04:26.67	357.10	8.99	
2025-01-09 17:04:27.70	356.99	8.92	
2025-01-09 17:04:28.72	356.87	8.85	
2025-01-09 17:04:29.75	356.75	8.77	
2025-01-09 17:04:30.78	356.64	8.70	
2025-01-09 17:04:31.80	356.52	8.63	
2025-01-09 17:04:32.84	356.41	8.55	
2025-01-09 17:04:33.88	356.29	8.48	
2025-01-09 17:04:34.91	356.18	8.41	
2025-01-09 17:04:35.94	356.07	8.33	
2025-01-09 17:04:36.96	355.96	8.26	
2025-01-09 17:04:37.98	355.85	8.19	
2025-01-09 17:04:39.01	355.74	8.12	
2025-01-09 17:04:40.03	355.63	8.04	
2025-01-09 17:04:41.06	355.52	7.97	
2025-01-09 17:04:42.09	355.41	7.90	
2025-01-09 17:04:43.11	355.30	7.83	
2025-01-09 17:04:44.14	355.19	7.76	
2025-01-09 17:04:45.16	355.09	7.69	
2025-01-09 17:04:46.19	354.98	7.61	
2025-01-09 17:04:47.22	354.87	7.54	
2025-01-09 17:04:48.26	354.77	7.47	
2025-01-09 17:04:49.29	354.66	7.40	
2025-01-09 17:04:50.32	354.56	7.33	
2025-01-09 17:04:51.35	354.46	7.26	
2025-01-09 17:04:52.37	354.35	7.19	
2025-01-09 17:04:53.40	354.25	7.12	
2025-01-09 17:04:54.43	354.15	7.05	
2025-01-09 17:04:55.45	354.05	6.98	
2025-01-09 17:04:56.48	353.95	6.91	
2025-01-09 17:04:57.50	353.85	6.84	
2025-01-09 17:04:58.52	353.75	6.77	
2025-01-09 17:04:59.55	353.65	6.70	
2025-01-09 17:05:00.58	353.55	6.63	
2025-01-09 17:05:01.60	353.45	6.56	
2025-01-09 17:05:02.63	353.36	6.49	
2025-01-09 17:05:03.65	353.26	6.42	
2025-01-09 17:05:04.68	353.16	6.35	
2025-01-09 17:05:05.71	353.07	6.28	
2025-01-09 17:05:06.73	352.97	6.21	
2025-01-09 17:05:07.76	352.88	6.14	
2025-01-09 17:05:08.78	352.78	6.08	
2025-01-09 17:05:09.81	352.69	6.01	
2025-01-09 17:05:10.83	352.60	5.94	
2025-01-09 17:05:11.86	352.51	5.87	
2025-01-09 17:05:12.88	352.41	5.80	
2025-01-09 17:05:13.91	352.32	5.74	
2025-01-09 17:05:14.93	352.23	5.67	
2025-01-09 17:05:15.97	352.14	5.60	
2025-01-09 17:05:17.00	352.05	5.53	
2025-01-09 17:05:18.04	351.96	5.46	
2025-01-09 17:05:19.06	351.87	5.40	
2025-01-09 17:05:20.08	351.78	5.33	
2025-01-09 17:05:21.11	351.69	5.26	
2025-01-09 17:05:22.14	351.60	5.20	
2025-01-09 17:05:23.17	351.52	5.13	
2025-01-09 17:05:24.19	351.43	5.06	
2025-01-09 17:05:25.22	351.34	5.00	
2025-01-09 17:05:26.24	351.26	4.93	
2025-01-09 17:05:27.27	351.17	4.87	
2025-01-09 17:05:28.29	351.09	4.80	
2025-01-09 17:05:29.31	351.00	4.73	
2025-01-09 17:05:30.34	350.92	4.67	
2025-01-09 17:05:31.37	350.83	4.60	
2025-01-09 17:05:32.39	350.75	4.54	
2025-01-09 17:05:33.43	350.66	4.47	
2025-01-09 17:05:34.45	350.58	4.41	
2025-01-09 17:05:35.48	350.50	4.34	
2025-01-09 17:05:36.51	350.42	4.28	
2025-01-09 17:05:37.53	350.34	4.21	
2025-01-09 17:05:38.56	350.26	4.15	
2025-01-09 17:05:39.58	350.18	4.08	
2025-01-09 17:05:40.61	350.09	4.02	

#Closed at: 2025-01-09 17:05:40