passes_logs/2025/01/09/SPB_Silybum_02/SPB_Silybum_02__20250109_201047_TERRA_rec.log

#Pass ID: 20250109_201047_TERRA
#Satellite: TERRA
#Configuration: TERRA
#Start time: 2025-01-09 20:10:46

#Version: 2.0.20230423
#Station: SPB_Silybum_02
#Location: 30.233357 lon 59.946436 lat
#TLE: 1 25994U 99068A   25008.82275774  .00000946  00000+0  20487-3 0  9990
#TLE: 2 25994  98.0228  72.0493 0003564  84.8498   6.9254 14.60383008333170

#Time	Az	El	Level	Level2	SNR	BER	Gain	Gain2
2025-01-09 20:10:48.62	215.24	4.07	
2025-01-09 20:10:49.65	215.34	4.13	
2025-01-09 20:10:50.67	215.44	4.19	
2025-01-09 20:10:51.70	215.54	4.25	
2025-01-09 20:10:52.73	215.64	4.31	
2025-01-09 20:10:53.75	215.75	4.37	
2025-01-09 20:10:54.79	215.85	4.43	
2025-01-09 20:10:55.82	215.95	4.50	
2025-01-09 20:10:56.84	216.05	4.56	
2025-01-09 20:10:57.87	216.16	4.62	
2025-01-09 20:10:58.89	216.26	4.68	
2025-01-09 20:10:59.91	216.36	4.74	
2025-01-09 20:11:00.95	216.47	4.80	
2025-01-09 20:11:01.97	216.57	4.86	
2025-01-09 20:11:03.00	216.68	4.92	
2025-01-09 20:11:04.02	216.78	4.98	
2025-01-09 20:11:05.05	216.89	5.05	
2025-01-09 20:11:06.08	217.00	5.11	
2025-01-09 20:11:07.10	217.10	5.17	
2025-01-09 20:11:08.13	217.21	5.23	
2025-01-09 20:11:09.15	217.32	5.29	
2025-01-09 20:11:10.18	217.43	5.35	
2025-01-09 20:11:11.20	217.54	5.42	
2025-01-09 20:11:12.23	217.65	5.48	
2025-01-09 20:11:13.25	217.76	5.54	
2025-01-09 20:11:14.27	217.87	5.60	
2025-01-09 20:11:15.31	217.98	5.66	
2025-01-09 20:11:16.34	218.09	5.73	
2025-01-09 20:11:17.38	218.21	5.79	
2025-01-09 20:11:18.41	218.32	5.85	
2025-01-09 20:11:19.43	218.43	5.92	
2025-01-09 20:11:20.46	218.55	5.98	
2025-01-09 20:11:21.48	218.66	6.04	
2025-01-09 20:11:22.51	218.77	6.10	
2025-01-09 20:11:23.54	218.89	6.17	
2025-01-09 20:11:24.56	219.00	6.23	
2025-01-09 20:11:25.59	219.12	6.29	
2025-01-09 20:11:26.61	219.24	6.36	
2025-01-09 20:11:27.65	219.36	6.42	
2025-01-09 20:11:28.67	219.47	6.48	
2025-01-09 20:11:29.70	219.59	6.55	
2025-01-09 20:11:30.72	219.71	6.61	
2025-01-09 20:11:31.75	219.83	6.67	
2025-01-09 20:11:32.77	219.95	6.74	
2025-01-09 20:11:33.81	220.07	6.80	
2025-01-09 20:11:34.83	220.19	6.86	
2025-01-09 20:11:35.85	220.31	6.93	
2025-01-09 20:11:36.88	220.44	6.99	
2025-01-09 20:11:37.92	220.56	7.06	
2025-01-09 20:11:38.95	220.68	7.12	
2025-01-09 20:11:39.98	220.81	7.19	
2025-01-09 20:11:41.00	220.93	7.25	
2025-01-09 20:11:42.03	221.06	7.31	
2025-01-09 20:11:43.06	221.18	7.38	
2025-01-09 20:11:44.08	221.31	7.44	
2025-01-09 20:11:45.11	221.44	7.51	
2025-01-09 20:11:46.13	221.56	7.57	
2025-01-09 20:11:47.16	221.69	7.64	
2025-01-09 20:11:48.18	221.82	7.70	
2025-01-09 20:11:49.21	221.95	7.77	
2025-01-09 20:11:50.23	222.08	7.83	
2025-01-09 20:11:51.26	222.21	7.90	
2025-01-09 20:11:52.28	222.34	7.96	
2025-01-09 20:11:53.31	222.47	8.03	
2025-01-09 20:11:54.34	222.61	8.09	
2025-01-09 20:11:55.36	222.74	8.16	
2025-01-09 20:11:56.39	222.87	8.22	
2025-01-09 20:11:57.41	223.01	8.29	
2025-01-09 20:11:58.45	223.14	8.35	
2025-01-09 20:11:59.48	223.28	8.42	
2025-01-09 20:12:00.50	223.41	8.48	
2025-01-09 20:12:01.52	223.55	8.55	
2025-01-09 20:12:02.55	223.69	8.61	
2025-01-09 20:12:03.57	223.82	8.68	
2025-01-09 20:12:04.60	223.96	8.75	
2025-01-09 20:12:05.62	224.10	8.81	
2025-01-09 20:12:06.65	224.24	8.88	
2025-01-09 20:12:07.67	224.38	8.94	
2025-01-09 20:12:08.69	224.52	9.01	
2025-01-09 20:12:09.72	224.67	9.07	
2025-01-09 20:12:10.74	224.81	9.14	
2025-01-09 20:12:11.77	224.95	9.21	
2025-01-09 20:12:12.80	225.10	9.27	
2025-01-09 20:12:13.83	225.24	9.34	
2025-01-09 20:12:14.85	225.39	9.40	
2025-01-09 20:12:15.88	225.53	9.47	
2025-01-09 20:12:16.90	225.68	9.54	
2025-01-09 20:12:17.93	225.83	9.60	
2025-01-09 20:12:18.95	225.97	9.67	
2025-01-09 20:12:19.98	226.12	9.74	
2025-01-09 20:12:21.00	226.27	9.80	
2025-01-09 20:12:22.03	226.42	9.87	
2025-01-09 20:12:23.05	226.57	9.93	
2025-01-09 20:12:24.08	226.72	10.00	
2025-01-09 20:12:25.10	226.88	10.07	
2025-01-09 20:12:26.13	227.03	10.13	
2025-01-09 20:12:27.16	227.18	10.20	
2025-01-09 20:12:28.19	227.34	10.27	
2025-01-09 20:12:29.21	227.49	10.33	
2025-01-09 20:12:30.24	227.65	10.40	
2025-01-09 20:12:31.26	227.81	10.47	
2025-01-09 20:12:32.28	227.96	10.53	
2025-01-09 20:12:33.32	228.12	10.60	
2025-01-09 20:12:34.35	228.28	10.67	
2025-01-09 20:12:35.37	228.44	10.74	
2025-01-09 20:12:36.39	228.60	10.80	
2025-01-09 20:12:37.43	228.77	10.87	
2025-01-09 20:12:38.46	228.93	10.94	
2025-01-09 20:12:39.49	229.09	11.00	
2025-01-09 20:12:40.51	229.26	11.07	
2025-01-09 20:12:41.54	229.42	11.14	
2025-01-09 20:12:42.56	229.58	11.20	
2025-01-09 20:12:43.59	229.75	11.27	
2025-01-09 20:12:44.61	229.92	11.34	
2025-01-09 20:12:45.63	230.08	11.40	
2025-01-09 20:12:46.66	230.25	11.47	
2025-01-09 20:12:47.70	230.43	11.54	
2025-01-09 20:12:48.73	230.60	11.61	
2025-01-09 20:12:49.75	230.77	11.67	
2025-01-09 20:12:50.78	230.94	11.74	
2025-01-09 20:12:51.80	231.11	11.81	
2025-01-09 20:12:52.83	231.28	11.87	
2025-01-09 20:12:53.87	231.46	11.94	
2025-01-09 20:12:54.89	231.63	12.01	
2025-01-09 20:12:55.92	231.81	12.07	
2025-01-09 20:12:56.96	231.99	12.14	
2025-01-09 20:12:57.99	232.17	12.21	
2025-01-09 20:12:59.01	232.35	12.27	
2025-01-09 20:13:00.04	232.53	12.34	
2025-01-09 20:13:01.06	232.70	12.41	
2025-01-09 20:13:02.10	232.89	12.47	
2025-01-09 20:13:03.12	233.07	12.54	
2025-01-09 20:13:04.15	233.25	12.61	
2025-01-09 20:13:05.17	233.43	12.67	
2025-01-09 20:13:06.20	233.62	12.74	
2025-01-09 20:13:07.23	233.80	12.81	
2025-01-09 20:13:08.25	233.99	12.87	
2025-01-09 20:13:09.28	234.18	12.94	
2025-01-09 20:13:10.30	234.36	13.00	
2025-01-09 20:13:11.33	234.55	13.07	
2025-01-09 20:13:12.35	234.74	13.13	
2025-01-09 20:13:13.38	234.93	13.20	
2025-01-09 20:13:14.40	235.12	13.27	
2025-01-09 20:13:15.43	235.32	13.33	
2025-01-09 20:13:16.46	235.51	13.40	
2025-01-09 20:13:17.48	235.70	13.46	
2025-01-09 20:13:18.52	235.90	13.53	
2025-01-09 20:13:19.55	236.10	13.59	
2025-01-09 20:13:20.57	236.29	13.66	
2025-01-09 20:13:21.60	236.49	13.72	
2025-01-09 20:13:22.62	236.69	13.79	
2025-01-09 20:13:23.65	236.89	13.85	
2025-01-09 20:13:24.67	237.09	13.92	
2025-01-09 20:13:25.71	237.29	13.98	
2025-01-09 20:13:26.73	237.49	14.05	
2025-01-09 20:13:27.76	237.70	14.11	
2025-01-09 20:13:28.78	237.90	14.18	
2025-01-09 20:13:29.81	238.10	14.24	
2025-01-09 20:13:30.84	238.31	14.30	
2025-01-09 20:13:31.86	238.52	14.37	
2025-01-09 20:13:32.90	238.73	14.43	
2025-01-09 20:13:33.93	238.94	14.50	
2025-01-09 20:13:34.96	239.15	14.56	
2025-01-09 20:13:35.99	239.36	14.62	
2025-01-09 20:13:37.01	239.57	14.69	
2025-01-09 20:13:38.03	239.78	14.75	
2025-01-09 20:13:39.06	239.99	14.81	
2025-01-09 20:13:40.08	240.21	14.87	
2025-01-09 20:13:41.11	240.42	14.94	
2025-01-09 20:13:42.15	240.64	15.00	
2025-01-09 20:13:43.18	240.86	15.06	
2025-01-09 20:13:44.20	241.07	15.12	
2025-01-09 20:13:45.23	241.29	15.18	
2025-01-09 20:13:46.25	241.51	15.25	
2025-01-09 20:13:47.28	241.73	15.31	
2025-01-09 20:13:48.31	241.96	15.37	
2025-01-09 20:13:49.34	242.18	15.43	
2025-01-09 20:13:50.36	242.40	15.49	
2025-01-09 20:13:51.40	242.63	15.55	
2025-01-09 20:13:52.43	242.86	15.61	
2025-01-09 20:13:53.45	243.08	15.67	
2025-01-09 20:13:54.48	243.31	15.73	
2025-01-09 20:13:55.50	243.54	15.79	
2025-01-09 20:13:56.53	243.77	15.85	
2025-01-09 20:13:57.56	244.00	15.91	
2025-01-09 20:13:58.59	244.23	15.97	
2025-01-09 20:13:59.61	244.46	16.02	
2025-01-09 20:14:00.63	244.69	16.08	
2025-01-09 20:14:01.66	244.93	16.14	
2025-01-09 20:14:02.69	245.16	16.20	
2025-01-09 20:14:03.73	245.40	16.25	
2025-01-09 20:14:04.77	245.64	16.31	
2025-01-09 20:14:05.79	245.88	16.37	
2025-01-09 20:14:06.82	246.12	16.42	
2025-01-09 20:14:07.84	246.35	16.48	
2025-01-09 20:14:08.86	246.59	16.53	
2025-01-09 20:14:09.89	246.83	16.59	
2025-01-09 20:14:10.91	247.07	16.64	
2025-01-09 20:14:11.94	247.32	16.70	
2025-01-09 20:14:12.98	247.57	16.75	
2025-01-09 20:14:14.02	247.81	16.81	
2025-01-09 20:14:15.04	248.06	16.86	
2025-01-09 20:14:16.06	248.30	16.92	
2025-01-09 20:14:17.10	248.55	16.97	
2025-01-09 20:14:18.13	248.80	17.02	
2025-01-09 20:14:19.15	249.05	17.07	
2025-01-09 20:14:20.18	249.30	17.13	
2025-01-09 20:14:21.20	249.55	17.18	
2025-01-09 20:14:22.23	249.81	17.23	
2025-01-09 20:14:23.25	250.06	17.28	
2025-01-09 20:14:24.28	250.31	17.33	
2025-01-09 20:14:25.30	250.56	17.38	
2025-01-09 20:14:26.33	250.82	17.43	
2025-01-09 20:14:27.36	251.08	17.48	
2025-01-09 20:14:28.40	251.34	17.52	
2025-01-09 20:14:29.43	251.60	17.57	
2025-01-09 20:14:30.45	251.86	17.62	
2025-01-09 20:14:31.47	252.11	17.67	
2025-01-09 20:14:32.50	252.38	17.71	
2025-01-09 20:14:33.53	252.64	17.76	
2025-01-09 20:14:34.57	252.90	17.81	
2025-01-09 20:14:35.60	253.17	17.85	
2025-01-09 20:14:36.62	253.43	17.90	
2025-01-09 20:14:37.65	253.70	17.94	
2025-01-09 20:14:38.68	253.96	17.99	
2025-01-09 20:14:39.70	254.23	18.03	
2025-01-09 20:14:40.73	254.49	18.07	
2025-01-09 20:14:41.75	254.76	18.11	
2025-01-09 20:14:42.77	255.03	18.16	
2025-01-09 20:14:43.80	255.30	18.20	
2025-01-09 20:14:44.84	255.57	18.24	
2025-01-09 20:14:45.86	255.84	18.28	
2025-01-09 20:14:46.89	256.11	18.32	
2025-01-09 20:14:47.91	256.38	18.36	
2025-01-09 20:14:48.93	256.65	18.40	
2025-01-09 20:14:49.97	256.93	18.43	
2025-01-09 20:14:51.00	257.21	18.47	
2025-01-09 20:14:52.03	257.48	18.51	
2025-01-09 20:14:53.05	257.76	18.55	
2025-01-09 20:14:54.08	258.03	18.58	
2025-01-09 20:14:55.11	258.31	18.62	
2025-01-09 20:14:56.15	258.59	18.65	
2025-01-09 20:14:57.17	258.87	18.69	
2025-01-09 20:14:58.19	259.15	18.72	
2025-01-09 20:14:59.22	259.43	18.75	
2025-01-09 20:15:00.24	259.71	18.79	
2025-01-09 20:15:01.27	259.99	18.82	
2025-01-09 20:15:02.29	260.27	18.85	
2025-01-09 20:15:03.32	260.55	18.88	
2025-01-09 20:15:04.35	260.84	18.91	
2025-01-09 20:15:05.39	261.12	18.94	
2025-01-09 20:15:06.43	261.41	18.97	
2025-01-09 20:15:07.47	261.70	19.00	
2025-01-09 20:15:08.49	261.98	19.02	
2025-01-09 20:15:09.53	262.27	19.05	
2025-01-09 20:15:10.56	262.56	19.08	
2025-01-09 20:15:11.58	262.84	19.10	
2025-01-09 20:15:12.61	263.13	19.13	
2025-01-09 20:15:13.64	263.42	19.15	
2025-01-09 20:15:14.66	263.71	19.18	
2025-01-09 20:15:15.69	263.99	19.20	
2025-01-09 20:15:16.73	264.29	19.22	
2025-01-09 20:15:17.75	264.57	19.24	
2025-01-09 20:15:18.79	264.87	19.26	
2025-01-09 20:15:19.82	265.16	19.28	
2025-01-09 20:15:20.84	265.45	19.30	
2025-01-09 20:15:21.86	265.74	19.32	
2025-01-09 20:15:22.89	266.03	19.34	
2025-01-09 20:15:23.92	266.32	19.36	
2025-01-09 20:15:24.94	266.61	19.38	
2025-01-09 20:15:25.97	266.90	19.39	
2025-01-09 20:15:26.99	267.19	19.41	
2025-01-09 20:15:28.01	267.49	19.42	
2025-01-09 20:15:29.05	267.78	19.44	
2025-01-09 20:15:30.08	268.08	19.45	
2025-01-09 20:15:31.12	268.37	19.46	
2025-01-09 20:15:32.15	268.67	19.47	
2025-01-09 20:15:33.17	268.96	19.49	
2025-01-09 20:15:34.20	269.26	19.50	
2025-01-09 20:15:35.22	269.55	19.51	
2025-01-09 20:15:36.25	269.84	19.52	
2025-01-09 20:15:37.28	270.14	19.52	
2025-01-09 20:15:38.30	270.43	19.53	
2025-01-09 20:15:39.33	270.73	19.54	
2025-01-09 20:15:40.37	271.03	19.54	
2025-01-09 20:15:41.41	271.33	19.55	
2025-01-09 20:15:42.43	271.62	19.55	
2025-01-09 20:15:43.45	271.91	19.56	
2025-01-09 20:15:44.48	272.21	19.56	
2025-01-09 20:15:45.52	272.51	19.56	
2025-01-09 20:15:46.54	272.80	19.57	
2025-01-09 20:15:47.58	273.10	19.57	
2025-01-09 20:15:48.60	273.40	19.57	
2025-01-09 20:15:49.63	273.69	19.57	
2025-01-09 20:15:50.65	273.99	19.57	
2025-01-09 20:15:51.69	274.29	19.57	
2025-01-09 20:15:52.72	274.58	19.56	
2025-01-09 20:15:53.74	274.88	19.56	
2025-01-09 20:15:54.76	275.17	19.56	
2025-01-09 20:15:55.79	275.46	19.55	
2025-01-09 20:15:56.81	275.76	19.55	
2025-01-09 20:15:57.84	276.05	19.54	
2025-01-09 20:15:58.87	276.35	19.53	
2025-01-09 20:15:59.89	276.64	19.53	
2025-01-09 20:16:00.91	276.94	19.52	
2025-01-09 20:16:01.94	277.23	19.51	
2025-01-09 20:16:02.96	277.52	19.50	
2025-01-09 20:16:03.99	277.82	19.49	
2025-01-09 20:16:05.01	278.11	19.48	
2025-01-09 20:16:06.05	278.41	19.47	
2025-01-09 20:16:07.08	278.70	19.45	
2025-01-09 20:16:08.10	278.99	19.44	
2025-01-09 20:16:09.14	279.29	19.43	
2025-01-09 20:16:10.18	279.59	19.41	
2025-01-09 20:16:11.21	279.88	19.40	
2025-01-09 20:16:12.24	280.17	19.38	
2025-01-09 20:16:13.27	280.46	19.36	
2025-01-09 20:16:14.30	280.76	19.35	
2025-01-09 20:16:15.32	281.04	19.33	
2025-01-09 20:16:16.35	281.34	19.31	
2025-01-09 20:16:17.37	281.62	19.29	
2025-01-09 20:16:18.41	281.92	19.27	
2025-01-09 20:16:19.43	282.21	19.25	
2025-01-09 20:16:20.46	282.49	19.23	
2025-01-09 20:16:21.50	282.79	19.21	
2025-01-09 20:16:22.52	283.07	19.18	
2025-01-09 20:16:23.55	283.36	19.16	
2025-01-09 20:16:24.57	283.65	19.14	
2025-01-09 20:16:25.60	283.93	19.11	
2025-01-09 20:16:26.62	284.22	19.09	
2025-01-09 20:16:27.66	284.51	19.06	
2025-01-09 20:16:28.69	284.79	19.03	
2025-01-09 20:16:29.72	285.08	19.01	
2025-01-09 20:16:30.74	285.36	18.98	
2025-01-09 20:16:31.77	285.65	18.95	
2025-01-09 20:16:32.80	285.93	18.92	
2025-01-09 20:16:33.82	286.21	18.89	
2025-01-09 20:16:34.85	286.49	18.86	
2025-01-09 20:16:35.88	286.77	18.83	
2025-01-09 20:16:36.90	287.05	18.80	
2025-01-09 20:16:37.94	287.34	18.76	
2025-01-09 20:16:38.97	287.62	18.73	
2025-01-09 20:16:39.99	287.89	18.70	
2025-01-09 20:16:41.01	288.17	18.67	
2025-01-09 20:16:42.04	288.45	18.63	
2025-01-09 20:16:43.06	288.72	18.60	
2025-01-09 20:16:44.09	289.00	18.56	
2025-01-09 20:16:45.11	289.27	18.52	
2025-01-09 20:16:46.14	289.55	18.49	
2025-01-09 20:16:47.17	289.82	18.45	
2025-01-09 20:16:48.21	290.10	18.41	
2025-01-09 20:16:49.23	290.37	18.37	
2025-01-09 20:16:50.26	290.64	18.33	
2025-01-09 20:16:51.28	290.91	18.29	
2025-01-09 20:16:52.31	291.18	18.25	
2025-01-09 20:16:53.33	291.45	18.21	
2025-01-09 20:16:54.36	291.72	18.17	
2025-01-09 20:16:55.39	291.99	18.13	
2025-01-09 20:16:56.41	292.26	18.09	
2025-01-09 20:16:57.45	292.53	18.05	
2025-01-09 20:16:58.49	292.79	18.00	
2025-01-09 20:16:59.52	293.06	17.96	
2025-01-09 20:17:00.54	293.32	17.92	
2025-01-09 20:17:01.57	293.59	17.87	
2025-01-09 20:17:02.60	293.85	17.83	
2025-01-09 20:17:03.64	294.11	17.78	
2025-01-09 20:17:04.66	294.37	17.73	
2025-01-09 20:17:05.68	294.63	17.69	
2025-01-09 20:17:06.72	294.89	17.64	
2025-01-09 20:17:07.75	295.15	17.59	
2025-01-09 20:17:08.77	295.41	17.55	
2025-01-09 20:17:09.80	295.67	17.50	
2025-01-09 20:17:10.83	295.92	17.45	
2025-01-09 20:17:11.87	296.18	17.40	
2025-01-09 20:17:12.90	296.44	17.35	
2025-01-09 20:17:13.92	296.69	17.30	
2025-01-09 20:17:14.95	296.94	17.25	
2025-01-09 20:17:15.97	297.19	17.20	
2025-01-09 20:17:17.01	297.44	17.15	
2025-01-09 20:17:18.04	297.69	17.10	
2025-01-09 20:17:19.06	297.94	17.05	
2025-01-09 20:17:20.09	298.19	16.99	
2025-01-09 20:17:21.11	298.44	16.94	
2025-01-09 20:17:22.14	298.68	16.89	
2025-01-09 20:17:23.16	298.93	16.84	
2025-01-09 20:17:24.19	299.17	16.78	
2025-01-09 20:17:25.22	299.42	16.73	
2025-01-09 20:17:26.25	299.66	16.67	
2025-01-09 20:17:27.28	299.90	16.62	
2025-01-09 20:17:28.30	300.14	16.57	
2025-01-09 20:17:29.34	300.38	16.51	
2025-01-09 20:17:30.37	300.62	16.45	
2025-01-09 20:17:31.39	300.86	16.40	
2025-01-09 20:17:32.42	301.10	16.34	
2025-01-09 20:17:33.45	301.33	16.29	
2025-01-09 20:17:34.47	301.57	16.23	
2025-01-09 20:17:35.51	301.80	16.17	
2025-01-09 20:17:36.54	302.04	16.12	
2025-01-09 20:17:37.56	302.27	16.06	
2025-01-09 20:17:38.59	302.50	16.00	
2025-01-09 20:17:39.62	302.73	15.94	
2025-01-09 20:17:40.64	302.96	15.88	
2025-01-09 20:17:41.67	303.19	15.83	
2025-01-09 20:17:42.70	303.42	15.77	
2025-01-09 20:17:43.73	303.64	15.71	
2025-01-09 20:17:44.75	303.87	15.65	
2025-01-09 20:17:45.78	304.09	15.59	
2025-01-09 20:17:46.80	304.32	15.53	
2025-01-09 20:17:47.83	304.54	15.47	
2025-01-09 20:17:48.87	304.76	15.41	
2025-01-09 20:17:49.89	304.98	15.35	
2025-01-09 20:17:50.92	305.21	15.29	
2025-01-09 20:17:51.95	305.43	15.23	
2025-01-09 20:17:52.98	305.64	15.17	
2025-01-09 20:17:54.01	305.86	15.10	
2025-01-09 20:17:55.04	306.08	15.04	
2025-01-09 20:17:56.08	306.30	14.98	
2025-01-09 20:17:57.11	306.51	14.92	
2025-01-09 20:17:58.13	306.72	14.86	
2025-01-09 20:17:59.17	306.94	14.79	
2025-01-09 20:18:00.21	307.15	14.73	
2025-01-09 20:18:01.24	307.37	14.67	
2025-01-09 20:18:02.28	307.58	14.60	
2025-01-09 20:18:03.31	307.79	14.54	
2025-01-09 20:18:04.33	307.99	14.48	
2025-01-09 20:18:05.35	308.20	14.42	
2025-01-09 20:18:06.38	308.41	14.35	
2025-01-09 20:18:07.40	308.61	14.29	
2025-01-09 20:18:08.43	308.82	14.23	
2025-01-09 20:18:09.47	309.02	14.16	
2025-01-09 20:18:10.49	309.22	14.10	
2025-01-09 20:18:11.53	309.43	14.03	
2025-01-09 20:18:12.56	309.63	13.97	
2025-01-09 20:18:13.59	309.83	13.90	
2025-01-09 20:18:14.63	310.03	13.84	
2025-01-09 20:18:15.67	310.23	13.77	
2025-01-09 20:18:16.69	310.43	13.71	
2025-01-09 20:18:17.72	310.62	13.65	
2025-01-09 20:18:18.74	310.82	13.58	
2025-01-09 20:18:19.77	311.01	13.52	
2025-01-09 20:18:20.80	311.21	13.45	
2025-01-09 20:18:21.83	311.40	13.39	
2025-01-09 20:18:22.85	311.59	13.32	
2025-01-09 20:18:23.88	311.78	13.26	
2025-01-09 20:18:24.91	311.97	13.19	
2025-01-09 20:18:25.94	312.16	13.12	
2025-01-09 20:18:26.97	312.35	13.06	
2025-01-09 20:18:27.99	312.54	12.99	
2025-01-09 20:18:29.02	312.72	12.93	
2025-01-09 20:18:30.04	312.91	12.86	
2025-01-09 20:18:31.06	313.09	12.80	
2025-01-09 20:18:32.09	313.28	12.73	
2025-01-09 20:18:33.13	313.46	12.67	
2025-01-09 20:18:34.18	313.65	12.60	
2025-01-09 20:18:35.21	313.83	12.53	
2025-01-09 20:18:36.23	314.01	12.47	
2025-01-09 20:18:37.25	314.19	12.40	
2025-01-09 20:18:38.28	314.37	12.34	
2025-01-09 20:18:39.31	314.55	12.27	
2025-01-09 20:18:40.33	314.72	12.20	
2025-01-09 20:18:41.36	314.90	12.14	
2025-01-09 20:18:42.38	315.07	12.07	
2025-01-09 20:18:43.41	315.25	12.01	
2025-01-09 20:18:44.43	315.42	11.94	
2025-01-09 20:18:45.46	315.59	11.87	
2025-01-09 20:18:46.48	315.77	11.81	
2025-01-09 20:18:47.51	315.94	11.74	
2025-01-09 20:18:48.54	316.11	11.67	
2025-01-09 20:18:49.58	316.28	11.61	
2025-01-09 20:18:50.62	316.45	11.54	
2025-01-09 20:18:51.64	316.62	11.47	
2025-01-09 20:18:52.67	316.79	11.41	
2025-01-09 20:18:53.70	316.95	11.34	
2025-01-09 20:18:54.73	317.12	11.27	
2025-01-09 20:18:55.76	317.29	11.21	
2025-01-09 20:18:56.79	317.45	11.14	
2025-01-09 20:18:57.82	317.61	11.08	
2025-01-09 20:18:58.84	317.78	11.01	
2025-01-09 20:18:59.86	317.94	10.94	
2025-01-09 20:19:00.89	318.10	10.88	
2025-01-09 20:19:01.93	318.26	10.81	
2025-01-09 20:19:02.95	318.42	10.74	
2025-01-09 20:19:03.97	318.58	10.68	
2025-01-09 20:19:05.00	318.74	10.61	
2025-01-09 20:19:06.03	318.89	10.55	
2025-01-09 20:19:07.05	319.05	10.48	
2025-01-09 20:19:08.08	319.21	10.41	
2025-01-09 20:19:09.10	319.36	10.35	
2025-01-09 20:19:10.12	319.51	10.28	
2025-01-09 20:19:11.15	319.67	10.22	
2025-01-09 20:19:12.18	319.82	10.15	
2025-01-09 20:19:13.20	319.97	10.08	
2025-01-09 20:19:14.23	320.12	10.02	
2025-01-09 20:19:15.26	320.28	9.95	
2025-01-09 20:19:16.28	320.42	9.89	
2025-01-09 20:19:17.30	320.57	9.82	
2025-01-09 20:19:18.32	320.72	9.76	
2025-01-09 20:19:19.35	320.87	9.69	
2025-01-09 20:19:20.38	321.02	9.62	
2025-01-09 20:19:21.40	321.16	9.56	
2025-01-09 20:19:22.43	321.31	9.49	
2025-01-09 20:19:23.45	321.45	9.43	
2025-01-09 20:19:24.48	321.60	9.36	
2025-01-09 20:19:25.51	321.74	9.30	
2025-01-09 20:19:26.55	321.89	9.23	
2025-01-09 20:19:27.57	322.03	9.16	
2025-01-09 20:19:28.61	322.17	9.10	
2025-01-09 20:19:29.63	322.31	9.03	
2025-01-09 20:19:30.66	322.46	8.97	
2025-01-09 20:19:31.68	322.59	8.90	
2025-01-09 20:19:32.71	322.73	8.84	
2025-01-09 20:19:33.73	322.87	8.77	
2025-01-09 20:19:34.75	323.01	8.71	
2025-01-09 20:19:35.78	323.15	8.64	
2025-01-09 20:19:36.81	323.28	8.58	
2025-01-09 20:19:37.85	323.42	8.51	
2025-01-09 20:19:38.87	323.56	8.45	
2025-01-09 20:19:39.90	323.69	8.38	
2025-01-09 20:19:40.93	323.83	8.32	
2025-01-09 20:19:41.95	323.96	8.25	
2025-01-09 20:19:42.99	324.09	8.19	
2025-01-09 20:19:44.03	324.23	8.12	
2025-01-09 20:19:45.06	324.36	8.06	
2025-01-09 20:19:46.08	324.49	7.99	
2025-01-09 20:19:47.11	324.62	7.93	
2025-01-09 20:19:48.15	324.75	7.86	
2025-01-09 20:19:49.17	324.88	7.80	
2025-01-09 20:19:50.20	325.01	7.74	
2025-01-09 20:19:51.22	325.14	7.67	
2025-01-09 20:19:52.25	325.26	7.61	
2025-01-09 20:19:53.27	325.39	7.55	
2025-01-09 20:19:54.30	325.52	7.48	
2025-01-09 20:19:55.34	325.64	7.42	
2025-01-09 20:19:56.37	325.77	7.35	
2025-01-09 20:19:57.39	325.89	7.29	
2025-01-09 20:19:58.41	326.02	7.23	
2025-01-09 20:19:59.44	326.14	7.16	
2025-01-09 20:20:00.46	326.26	7.10	
2025-01-09 20:20:01.49	326.39	7.04	
2025-01-09 20:20:02.51	326.51	6.97	
2025-01-09 20:20:03.54	326.63	6.91	
2025-01-09 20:20:04.57	326.75	6.85	
2025-01-09 20:20:05.59	326.87	6.78	
2025-01-09 20:20:06.62	326.99	6.72	
2025-01-09 20:20:07.64	327.11	6.66	
2025-01-09 20:20:08.68	327.23	6.59	
2025-01-09 20:20:09.70	327.35	6.53	
2025-01-09 20:20:10.75	327.47	6.47	
2025-01-09 20:20:11.77	327.58	6.41	
2025-01-09 20:20:12.79	327.70	6.34	
2025-01-09 20:20:13.82	327.81	6.28	
2025-01-09 20:20:14.84	327.93	6.22	
2025-01-09 20:20:15.87	328.04	6.16	
2025-01-09 20:20:16.91	328.16	6.09	
2025-01-09 20:20:17.95	328.27	6.03	
2025-01-09 20:20:18.97	328.39	5.97	
2025-01-09 20:20:20.00	328.50	5.91	
2025-01-09 20:20:21.02	328.61	5.84	
2025-01-09 20:20:22.05	328.72	5.78	
2025-01-09 20:20:23.07	328.84	5.72	
2025-01-09 20:20:24.10	328.95	5.66	
2025-01-09 20:20:25.13	329.06	5.60	
2025-01-09 20:20:26.15	329.17	5.54	
2025-01-09 20:20:27.17	329.28	5.48	
2025-01-09 20:20:28.20	329.38	5.41	
2025-01-09 20:20:29.24	329.49	5.35	
2025-01-09 20:20:30.27	329.60	5.29	
2025-01-09 20:20:31.29	329.71	5.23	
2025-01-09 20:20:32.32	329.82	5.17	
2025-01-09 20:20:33.35	329.92	5.11	
2025-01-09 20:20:34.37	330.03	5.05	
2025-01-09 20:20:35.40	330.14	4.99	
2025-01-09 20:20:36.42	330.24	4.93	
2025-01-09 20:20:37.45	330.35	4.86	
2025-01-09 20:20:38.49	330.45	4.80	
2025-01-09 20:20:39.51	330.55	4.74	
2025-01-09 20:20:40.54	330.66	4.68	
2025-01-09 20:20:41.56	330.76	4.62	
2025-01-09 20:20:42.59	330.86	4.56	
2025-01-09 20:20:43.63	330.97	4.50	
2025-01-09 20:20:44.66	331.07	4.44	
2025-01-09 20:20:45.68	331.17	4.38	
2025-01-09 20:20:46.70	331.27	4.32	
2025-01-09 20:20:47.73	331.37	4.26	
2025-01-09 20:20:48.75	331.47	4.20	
2025-01-09 20:20:49.79	331.57	4.14	
2025-01-09 20:20:50.82	331.67	4.08	
2025-01-09 20:20:51.84	331.77	4.02	

#Closed at: 2025-01-09 20:20:52