passes_logs/2025/01/09/SPB_Silybum_02/SPB_Silybum_02__20250109_071742_TERRA_rec.log

#Pass ID: 20250109_071742_TERRA
#Satellite: TERRA
#Configuration: TERRA
#Start time: 2025-01-09 07:17:41

#Version: 2.0.20230423
#Station: SPB_Silybum_02
#Location: 30.233357 lon 59.946436 lat
#TLE: 1 25994U 99068A   25008.82275774  .00000946  00000+0  20487-3 0  9990
#TLE: 2 25994  98.0228  72.0493 0003564  84.8498   6.9254 14.60383008333170

#Time	Az	El	Level	Level2	SNR	BER	Gain	Gain2
2025-01-09 07:17:43.67	23.35	4.07	
2025-01-09 07:17:44.90	23.43	4.15	
2025-01-09 07:17:46.13	23.51	4.23	
2025-01-09 07:17:47.36	23.60	4.32	
2025-01-09 07:17:48.59	23.68	4.40	
2025-01-09 07:17:49.83	23.76	4.48	
2025-01-09 07:17:51.06	23.84	4.56	
2025-01-09 07:17:52.29	23.93	4.64	
2025-01-09 07:17:53.52	24.01	4.73	
2025-01-09 07:17:54.76	24.10	4.81	
2025-01-09 07:17:55.99	24.18	4.89	
2025-01-09 07:17:57.22	24.27	4.98	
2025-01-09 07:17:58.45	24.35	5.06	
2025-01-09 07:17:59.68	24.44	5.14	
2025-01-09 07:18:00.92	24.53	5.23	
2025-01-09 07:18:02.15	24.61	5.31	
2025-01-09 07:18:03.38	24.70	5.40	
2025-01-09 07:18:04.61	24.79	5.48	
2025-01-09 07:18:05.85	24.88	5.57	
2025-01-09 07:18:07.08	24.97	5.65	
2025-01-09 07:18:08.31	25.06	5.74	
2025-01-09 07:18:09.55	25.15	5.83	
2025-01-09 07:18:10.78	25.24	5.91	
2025-01-09 07:18:12.01	25.33	6.00	
2025-01-09 07:18:13.24	25.42	6.08	
2025-01-09 07:18:14.47	25.52	6.17	
2025-01-09 07:18:15.70	25.61	6.26	
2025-01-09 07:18:16.93	25.70	6.35	
2025-01-09 07:18:18.16	25.80	6.43	
2025-01-09 07:18:19.39	25.89	6.52	
2025-01-09 07:18:20.63	25.99	6.61	
2025-01-09 07:18:21.86	26.08	6.70	
2025-01-09 07:18:23.09	26.18	6.79	
2025-01-09 07:18:24.32	26.28	6.88	
2025-01-09 07:18:25.55	26.38	6.97	
2025-01-09 07:18:26.78	26.47	7.06	
2025-01-09 07:18:28.01	26.57	7.15	
2025-01-09 07:18:29.24	26.67	7.24	
2025-01-09 07:18:30.48	26.78	7.33	
2025-01-09 07:18:31.72	26.88	7.42	
2025-01-09 07:18:32.95	26.98	7.51	
2025-01-09 07:18:34.18	27.08	7.60	
2025-01-09 07:18:35.41	27.18	7.69	
2025-01-09 07:18:36.65	27.29	7.79	
2025-01-09 07:18:37.89	27.39	7.88	
2025-01-09 07:18:39.12	27.50	7.97	
2025-01-09 07:18:40.35	27.61	8.06	
2025-01-09 07:18:41.58	27.71	8.16	
2025-01-09 07:18:42.82	27.82	8.25	
2025-01-09 07:18:44.04	27.93	8.35	
2025-01-09 07:18:45.28	28.04	8.44	
2025-01-09 07:18:46.50	28.14	8.53	
2025-01-09 07:18:47.73	28.25	8.63	
2025-01-09 07:18:48.96	28.37	8.72	
2025-01-09 07:18:50.21	28.48	8.82	
2025-01-09 07:18:51.44	28.59	8.92	
2025-01-09 07:18:52.68	28.71	9.01	
2025-01-09 07:18:53.91	28.82	9.11	
2025-01-09 07:18:55.13	28.93	9.21	
2025-01-09 07:18:56.36	29.05	9.30	
2025-01-09 07:18:57.59	29.16	9.40	
2025-01-09 07:18:58.82	29.28	9.50	
2025-01-09 07:19:00.06	29.40	9.60	
2025-01-09 07:19:01.29	29.52	9.70	
2025-01-09 07:19:02.52	29.64	9.79	
2025-01-09 07:19:03.75	29.76	9.89	
2025-01-09 07:19:04.97	29.88	9.99	
2025-01-09 07:19:06.20	30.00	10.09	
2025-01-09 07:19:07.43	30.12	10.19	
2025-01-09 07:19:08.66	30.25	10.29	
2025-01-09 07:19:09.89	30.37	10.39	
2025-01-09 07:19:11.12	30.50	10.49	
2025-01-09 07:19:12.35	30.62	10.60	
2025-01-09 07:19:13.58	30.75	10.70	
2025-01-09 07:19:14.82	30.88	10.80	
2025-01-09 07:19:16.05	31.01	10.90	
2025-01-09 07:19:17.28	31.14	11.01	
2025-01-09 07:19:18.52	31.27	11.11	
2025-01-09 07:19:19.75	31.40	11.21	
2025-01-09 07:19:20.99	31.54	11.32	
2025-01-09 07:19:22.23	31.67	11.42	
2025-01-09 07:19:23.46	31.81	11.53	
2025-01-09 07:19:24.69	31.94	11.63	
2025-01-09 07:19:25.94	32.08	11.74	
2025-01-09 07:19:27.19	32.22	11.85	
2025-01-09 07:19:28.43	32.36	11.96	
2025-01-09 07:19:29.66	32.50	12.06	
2025-01-09 07:19:30.89	32.64	12.17	
2025-01-09 07:19:32.13	32.79	12.28	
2025-01-09 07:19:33.38	32.93	12.39	
2025-01-09 07:19:34.60	33.08	12.49	
2025-01-09 07:19:35.83	33.22	12.60	
2025-01-09 07:19:37.06	33.37	12.71	
2025-01-09 07:19:38.31	33.52	12.82	
2025-01-09 07:19:39.54	33.67	12.93	
2025-01-09 07:19:40.77	33.82	13.04	
2025-01-09 07:19:42.00	33.97	13.15	
2025-01-09 07:19:43.23	34.12	13.26	
2025-01-09 07:19:44.46	34.27	13.38	
2025-01-09 07:19:45.70	34.43	13.49	
2025-01-09 07:19:46.93	34.59	13.60	
2025-01-09 07:19:48.16	34.74	13.71	
2025-01-09 07:19:49.39	34.90	13.83	
2025-01-09 07:19:50.61	35.06	13.94	
2025-01-09 07:19:51.86	35.22	14.05	
2025-01-09 07:19:53.09	35.39	14.17	
2025-01-09 07:19:54.32	35.55	14.28	
2025-01-09 07:19:55.55	35.71	14.40	
2025-01-09 07:19:56.77	35.88	14.51	
2025-01-09 07:19:58.01	36.05	14.63	
2025-01-09 07:19:59.25	36.22	14.74	
2025-01-09 07:20:00.48	36.39	14.86	
2025-01-09 07:20:01.72	36.56	14.98	
2025-01-09 07:20:02.95	36.73	15.10	
2025-01-09 07:20:04.18	36.91	15.21	
2025-01-09 07:20:05.41	37.08	15.33	
2025-01-09 07:20:06.65	37.26	15.45	
2025-01-09 07:20:07.87	37.44	15.57	
2025-01-09 07:20:09.11	37.62	15.69	
2025-01-09 07:20:10.34	37.80	15.81	
2025-01-09 07:20:11.57	37.99	15.93	
2025-01-09 07:20:12.80	38.17	16.05	
2025-01-09 07:20:14.03	38.36	16.17	
2025-01-09 07:20:15.26	38.55	16.29	
2025-01-09 07:20:16.49	38.73	16.41	
2025-01-09 07:20:17.72	38.93	16.53	
2025-01-09 07:20:18.95	39.12	16.66	
2025-01-09 07:20:20.18	39.31	16.78	
2025-01-09 07:20:21.41	39.51	16.90	
2025-01-09 07:20:22.65	39.71	17.03	
2025-01-09 07:20:23.89	39.91	17.15	
2025-01-09 07:20:25.12	40.11	17.28	
2025-01-09 07:20:26.35	40.31	17.40	
2025-01-09 07:20:27.58	40.52	17.53	
2025-01-09 07:20:28.81	40.72	17.65	
2025-01-09 07:20:30.05	40.93	17.78	
2025-01-09 07:20:31.27	41.14	17.90	
2025-01-09 07:20:32.51	41.35	18.03	
2025-01-09 07:20:33.73	41.56	18.16	
2025-01-09 07:20:34.97	41.78	18.29	
2025-01-09 07:20:36.21	42.00	18.41	
2025-01-09 07:20:37.44	42.22	18.54	
2025-01-09 07:20:38.67	42.44	18.67	
2025-01-09 07:20:39.90	42.66	18.80	
2025-01-09 07:20:41.13	42.89	18.93	
2025-01-09 07:20:42.36	43.11	19.06	
2025-01-09 07:20:43.60	43.34	19.19	
2025-01-09 07:20:44.83	43.58	19.32	
2025-01-09 07:20:46.06	43.81	19.45	
2025-01-09 07:20:47.29	44.04	19.58	
2025-01-09 07:20:48.52	44.28	19.71	
2025-01-09 07:20:49.75	44.52	19.84	
2025-01-09 07:20:50.99	44.76	19.97	
2025-01-09 07:20:52.23	45.01	20.11	
2025-01-09 07:20:53.46	45.25	20.24	
2025-01-09 07:20:54.69	45.50	20.37	
2025-01-09 07:20:55.92	45.75	20.50	
2025-01-09 07:20:57.16	46.00	20.64	
2025-01-09 07:20:58.39	46.26	20.77	
2025-01-09 07:20:59.62	46.51	20.90	
2025-01-09 07:21:00.85	46.77	21.04	
2025-01-09 07:21:02.08	47.03	21.17	
2025-01-09 07:21:03.30	47.30	21.30	
2025-01-09 07:21:04.53	47.56	21.44	
2025-01-09 07:21:05.77	47.83	21.57	
2025-01-09 07:21:07.00	48.10	21.71	
2025-01-09 07:21:08.23	48.38	21.84	
2025-01-09 07:21:09.47	48.65	21.98	
2025-01-09 07:21:10.70	48.93	22.11	
2025-01-09 07:21:11.93	49.21	22.25	
2025-01-09 07:21:13.18	49.50	22.39	
2025-01-09 07:21:14.43	49.79	22.52	
2025-01-09 07:21:15.66	50.08	22.66	
2025-01-09 07:21:16.89	50.37	22.79	
2025-01-09 07:21:18.12	50.66	22.93	
2025-01-09 07:21:19.35	50.96	23.06	
2025-01-09 07:21:20.58	51.26	23.20	
2025-01-09 07:21:21.81	51.56	23.34	
2025-01-09 07:21:23.03	51.86	23.47	
2025-01-09 07:21:24.26	52.17	23.61	
2025-01-09 07:21:25.49	52.48	23.74	
2025-01-09 07:21:26.72	52.79	23.88	
2025-01-09 07:21:27.95	53.10	24.01	
2025-01-09 07:21:29.18	53.42	24.15	
2025-01-09 07:21:30.41	53.74	24.28	
2025-01-09 07:21:31.65	54.07	24.42	
2025-01-09 07:21:32.88	54.39	24.55	
2025-01-09 07:21:34.11	54.72	24.69	
2025-01-09 07:21:35.34	55.06	24.82	
2025-01-09 07:21:36.57	55.39	24.96	
2025-01-09 07:21:37.80	55.73	25.09	
2025-01-09 07:21:39.04	56.07	25.22	
2025-01-09 07:21:40.27	56.42	25.36	
2025-01-09 07:21:41.50	56.76	25.49	
2025-01-09 07:21:42.73	57.11	25.62	
2025-01-09 07:21:43.97	57.47	25.76	
2025-01-09 07:21:45.21	57.83	25.89	
2025-01-09 07:21:46.44	58.19	26.02	
2025-01-09 07:21:47.67	58.55	26.15	
2025-01-09 07:21:48.90	58.91	26.28	
2025-01-09 07:21:50.14	59.29	26.41	
2025-01-09 07:21:51.37	59.66	26.54	
2025-01-09 07:21:52.60	60.03	26.67	
2025-01-09 07:21:53.83	60.41	26.80	
2025-01-09 07:21:55.06	60.79	26.93	
2025-01-09 07:21:56.30	61.18	27.06	
2025-01-09 07:21:57.54	61.57	27.18	
2025-01-09 07:21:58.76	61.95	27.31	
2025-01-09 07:22:00.00	62.35	27.43	
2025-01-09 07:22:01.24	62.75	27.56	
2025-01-09 07:22:02.48	63.15	27.68	
2025-01-09 07:22:03.71	63.56	27.81	
2025-01-09 07:22:04.95	63.96	27.93	
2025-01-09 07:22:06.18	64.37	28.05	
2025-01-09 07:22:07.40	64.78	28.17	
2025-01-09 07:22:08.64	65.20	28.29	
2025-01-09 07:22:09.87	65.62	28.41	
2025-01-09 07:22:11.09	66.04	28.52	
2025-01-09 07:22:12.32	66.46	28.64	
2025-01-09 07:22:13.55	66.89	28.75	
2025-01-09 07:22:14.78	67.32	28.86	
2025-01-09 07:22:16.01	67.76	28.98	
2025-01-09 07:22:17.24	68.19	29.09	
2025-01-09 07:22:18.47	68.63	29.20	
2025-01-09 07:22:19.70	69.08	29.30	
2025-01-09 07:22:20.93	69.52	29.41	
2025-01-09 07:22:22.16	69.97	29.52	
2025-01-09 07:22:23.39	70.43	29.62	
2025-01-09 07:22:24.62	70.88	29.72	
2025-01-09 07:22:25.85	71.34	29.82	
2025-01-09 07:22:27.08	71.80	29.92	
2025-01-09 07:22:28.31	72.27	30.02	
2025-01-09 07:22:29.55	72.74	30.12	
2025-01-09 07:22:30.77	73.20	30.21	
2025-01-09 07:22:32.00	73.68	30.30	
2025-01-09 07:22:33.24	74.15	30.40	
2025-01-09 07:22:34.46	74.63	30.48	
2025-01-09 07:22:35.70	75.11	30.57	
2025-01-09 07:22:36.93	75.60	30.66	
2025-01-09 07:22:38.16	76.08	30.74	
2025-01-09 07:22:39.39	76.57	30.82	
2025-01-09 07:22:40.62	77.06	30.90	
2025-01-09 07:22:41.85	77.56	30.98	
2025-01-09 07:22:43.08	78.05	31.06	
2025-01-09 07:22:44.31	78.55	31.13	
2025-01-09 07:22:45.54	79.05	31.20	
2025-01-09 07:22:46.77	79.56	31.27	
2025-01-09 07:22:48.00	80.06	31.34	
2025-01-09 07:22:49.22	80.56	31.40	
2025-01-09 07:22:50.46	81.08	31.46	
2025-01-09 07:22:51.69	81.59	31.53	
2025-01-09 07:22:52.93	82.11	31.58	
2025-01-09 07:22:54.16	82.62	31.64	
2025-01-09 07:22:55.39	83.14	31.69	
2025-01-09 07:22:56.62	83.66	31.74	
2025-01-09 07:22:57.85	84.18	31.79	
2025-01-09 07:22:59.08	84.70	31.84	
2025-01-09 07:23:00.32	85.23	31.88	
2025-01-09 07:23:01.55	85.75	31.92	
2025-01-09 07:23:02.78	86.28	31.96	
2025-01-09 07:23:04.01	86.80	32.00	
2025-01-09 07:23:05.25	87.34	32.03	
2025-01-09 07:23:06.48	87.87	32.06	
2025-01-09 07:23:07.73	88.40	32.09	
2025-01-09 07:23:08.95	88.93	32.12	
2025-01-09 07:23:10.18	89.46	32.14	
2025-01-09 07:23:11.41	90.00	32.16	
2025-01-09 07:23:12.64	90.53	32.18	
2025-01-09 07:23:13.87	91.07	32.20	
2025-01-09 07:23:15.10	91.60	32.21	
2025-01-09 07:23:16.33	92.14	32.22	
2025-01-09 07:23:17.57	92.68	32.23	
2025-01-09 07:23:18.82	93.22	32.23	
2025-01-09 07:23:20.06	93.76	32.23	
2025-01-09 07:23:21.29	94.30	32.23	
2025-01-09 07:23:22.52	94.83	32.23	
2025-01-09 07:23:23.75	95.37	32.22	
2025-01-09 07:23:24.98	95.90	32.21	
2025-01-09 07:23:26.21	96.44	32.20	
2025-01-09 07:23:27.44	96.97	32.19	
2025-01-09 07:23:28.68	97.51	32.17	
2025-01-09 07:23:29.91	98.05	32.15	
2025-01-09 07:23:31.14	98.58	32.13	
2025-01-09 07:23:32.36	99.11	32.11	
2025-01-09 07:23:33.59	99.64	32.08	
2025-01-09 07:23:34.84	100.18	32.05	
2025-01-09 07:23:36.07	100.71	32.02	
2025-01-09 07:23:37.30	101.24	31.98	
2025-01-09 07:23:38.53	101.76	31.94	
2025-01-09 07:23:39.76	102.29	31.90	
2025-01-09 07:23:40.99	102.81	31.86	
2025-01-09 07:23:42.22	103.34	31.82	
2025-01-09 07:23:43.45	103.86	31.77	
2025-01-09 07:23:44.68	104.38	31.72	
2025-01-09 07:23:45.92	104.90	31.67	
2025-01-09 07:23:47.16	105.42	31.61	
2025-01-09 07:23:48.40	105.94	31.55	
2025-01-09 07:23:49.63	106.45	31.49	
2025-01-09 07:23:50.86	106.96	31.43	
2025-01-09 07:23:52.11	107.48	31.37	
2025-01-09 07:23:53.34	107.99	31.30	
2025-01-09 07:23:54.57	108.49	31.23	
2025-01-09 07:23:55.81	109.00	31.16	
2025-01-09 07:23:57.05	109.51	31.09	
2025-01-09 07:23:58.28	110.00	31.01	
2025-01-09 07:23:59.51	110.50	30.94	
2025-01-09 07:24:00.76	111.00	30.86	
2025-01-09 07:24:01.99	111.49	30.77	
2025-01-09 07:24:03.22	111.98	30.69	
2025-01-09 07:24:04.45	112.47	30.61	
2025-01-09 07:24:05.68	112.95	30.52	
2025-01-09 07:24:06.91	113.43	30.43	
2025-01-09 07:24:08.16	113.92	30.34	
2025-01-09 07:24:09.39	114.39	30.25	
2025-01-09 07:24:10.62	114.86	30.15	
2025-01-09 07:24:11.85	115.33	30.06	
2025-01-09 07:24:13.09	115.80	29.96	
2025-01-09 07:24:14.34	116.27	29.86	
2025-01-09 07:24:15.58	116.74	29.76	
2025-01-09 07:24:16.81	117.20	29.65	
2025-01-09 07:24:18.04	117.65	29.55	
2025-01-09 07:24:19.27	118.10	29.44	
2025-01-09 07:24:20.50	118.55	29.34	
2025-01-09 07:24:21.73	119.00	29.23	
2025-01-09 07:24:22.96	119.44	29.12	
2025-01-09 07:24:24.19	119.88	29.01	
2025-01-09 07:24:25.44	120.33	28.90	
2025-01-09 07:24:26.67	120.76	28.78	
2025-01-09 07:24:27.90	121.19	28.67	
2025-01-09 07:24:29.13	121.62	28.55	
2025-01-09 07:24:30.36	122.04	28.44	
2025-01-09 07:24:31.59	122.46	28.32	
2025-01-09 07:24:32.82	122.88	28.20	
2025-01-09 07:24:34.06	123.30	28.08	
2025-01-09 07:24:35.29	123.71	27.96	
2025-01-09 07:24:36.52	124.12	27.83	
2025-01-09 07:24:37.76	124.53	27.71	
2025-01-09 07:24:38.99	124.93	27.59	
2025-01-09 07:24:40.22	125.33	27.46	
2025-01-09 07:24:41.46	125.73	27.34	
2025-01-09 07:24:42.69	126.12	27.21	
2025-01-09 07:24:43.91	126.51	27.08	
2025-01-09 07:24:45.15	126.90	26.96	
2025-01-09 07:24:46.38	127.28	26.83	
2025-01-09 07:24:47.60	127.66	26.70	
2025-01-09 07:24:48.83	128.03	26.57	
2025-01-09 07:24:50.07	128.41	26.44	
2025-01-09 07:24:51.30	128.78	26.31	
2025-01-09 07:24:52.55	129.15	26.18	
2025-01-09 07:24:53.77	129.51	26.04	
2025-01-09 07:24:55.02	129.88	25.91	
2025-01-09 07:24:56.25	130.24	25.78	
2025-01-09 07:24:57.48	130.60	25.64	
2025-01-09 07:24:58.71	130.95	25.51	
2025-01-09 07:24:59.94	131.30	25.38	
2025-01-09 07:25:01.17	131.64	25.24	
2025-01-09 07:25:02.40	131.99	25.11	
2025-01-09 07:25:03.64	132.33	24.97	
2025-01-09 07:25:04.87	132.67	24.84	
2025-01-09 07:25:06.12	133.01	24.70	
2025-01-09 07:25:07.35	133.34	24.57	
2025-01-09 07:25:08.58	133.67	24.43	
2025-01-09 07:25:09.81	133.99	24.29	
2025-01-09 07:25:11.04	134.31	24.16	
2025-01-09 07:25:12.27	134.63	24.02	
2025-01-09 07:25:13.51	134.95	23.89	
2025-01-09 07:25:14.74	135.27	23.75	
2025-01-09 07:25:15.98	135.58	23.61	
2025-01-09 07:25:17.21	135.89	23.48	
2025-01-09 07:25:18.46	136.20	23.34	
2025-01-09 07:25:19.69	136.51	23.20	
2025-01-09 07:25:20.92	136.81	23.06	
2025-01-09 07:25:22.15	137.10	22.93	
2025-01-09 07:25:23.38	137.40	22.79	
2025-01-09 07:25:24.62	137.69	22.65	
2025-01-09 07:25:25.85	137.98	22.52	
2025-01-09 07:25:27.08	138.27	22.38	
2025-01-09 07:25:28.31	138.56	22.24	
2025-01-09 07:25:29.54	138.84	22.11	
2025-01-09 07:25:30.77	139.12	21.97	
2025-01-09 07:25:32.00	139.39	21.84	
2025-01-09 07:25:33.23	139.67	21.70	
2025-01-09 07:25:34.46	139.94	21.57	
2025-01-09 07:25:35.69	140.21	21.43	
2025-01-09 07:25:36.92	140.48	21.30	
2025-01-09 07:25:38.16	140.75	21.16	
2025-01-09 07:25:39.40	141.01	21.02	
2025-01-09 07:25:40.63	141.27	20.89	
2025-01-09 07:25:41.87	141.53	20.75	
2025-01-09 07:25:43.10	141.79	20.62	
2025-01-09 07:25:44.33	142.04	20.49	
2025-01-09 07:25:45.57	142.29	20.35	
2025-01-09 07:25:46.79	142.54	20.22	
2025-01-09 07:25:48.03	142.79	20.08	
2025-01-09 07:25:49.26	143.03	19.95	
2025-01-09 07:25:50.49	143.28	19.82	
2025-01-09 07:25:51.72	143.52	19.69	
2025-01-09 07:25:52.95	143.75	19.56	
2025-01-09 07:25:54.18	143.99	19.42	
2025-01-09 07:25:55.42	144.23	19.29	
2025-01-09 07:25:56.65	144.46	19.16	
2025-01-09 07:25:57.88	144.69	19.03	
2025-01-09 07:25:59.11	144.92	18.90	
2025-01-09 07:26:00.36	145.15	18.77	
2025-01-09 07:26:01.60	145.37	18.64	
2025-01-09 07:26:02.83	145.59	18.51	
2025-01-09 07:26:04.06	145.81	18.38	
2025-01-09 07:26:05.29	146.03	18.25	
2025-01-09 07:26:06.53	146.25	18.12	
2025-01-09 07:26:07.76	146.46	17.99	
2025-01-09 07:26:08.99	146.68	17.87	
2025-01-09 07:26:10.22	146.89	17.74	
2025-01-09 07:26:11.45	147.09	17.61	
2025-01-09 07:26:12.68	147.30	17.48	
2025-01-09 07:26:13.92	147.51	17.36	
2025-01-09 07:26:15.15	147.71	17.23	
2025-01-09 07:26:16.39	147.92	17.11	
2025-01-09 07:26:17.62	148.12	16.98	
2025-01-09 07:26:18.85	148.31	16.86	
2025-01-09 07:26:20.08	148.51	16.73	
2025-01-09 07:26:21.31	148.71	16.61	
2025-01-09 07:26:22.54	148.90	16.49	
2025-01-09 07:26:23.77	149.09	16.36	
2025-01-09 07:26:25.00	149.28	16.24	
2025-01-09 07:26:26.24	149.47	16.12	
2025-01-09 07:26:27.47	149.66	15.99	
2025-01-09 07:26:28.69	149.84	15.87	
2025-01-09 07:26:29.92	150.02	15.75	
2025-01-09 07:26:31.15	150.21	15.63	
2025-01-09 07:26:32.40	150.39	15.51	
2025-01-09 07:26:33.63	150.57	15.39	
2025-01-09 07:26:34.86	150.75	15.27	
2025-01-09 07:26:36.09	150.92	15.15	
2025-01-09 07:26:37.32	151.10	15.03	
2025-01-09 07:26:38.55	151.27	14.92	
2025-01-09 07:26:39.79	151.45	14.80	
2025-01-09 07:26:41.03	151.62	14.68	
2025-01-09 07:26:42.26	151.79	14.56	
2025-01-09 07:26:43.49	151.95	14.45	
2025-01-09 07:26:44.73	152.12	14.33	
2025-01-09 07:26:45.97	152.29	14.21	
2025-01-09 07:26:47.21	152.45	14.10	
2025-01-09 07:26:48.44	152.62	13.98	
2025-01-09 07:26:49.68	152.78	13.86	
2025-01-09 07:26:50.92	152.94	13.75	
2025-01-09 07:26:52.15	153.10	13.64	
2025-01-09 07:26:53.38	153.26	13.52	
2025-01-09 07:26:54.61	153.41	13.41	
2025-01-09 07:26:55.84	153.57	13.30	
2025-01-09 07:26:57.07	153.72	13.19	
2025-01-09 07:26:58.30	153.87	13.07	
2025-01-09 07:26:59.54	154.03	12.96	
2025-01-09 07:27:00.78	154.18	12.85	
2025-01-09 07:27:02.00	154.33	12.74	
2025-01-09 07:27:03.24	154.47	12.63	
2025-01-09 07:27:04.48	154.62	12.52	
2025-01-09 07:27:05.71	154.77	12.41	
2025-01-09 07:27:06.94	154.91	12.30	
2025-01-09 07:27:08.17	155.06	12.19	
2025-01-09 07:27:09.41	155.20	12.08	
2025-01-09 07:27:10.63	155.34	11.97	
2025-01-09 07:27:11.87	155.48	11.87	
2025-01-09 07:27:13.10	155.62	11.76	
2025-01-09 07:27:14.33	155.76	11.65	
2025-01-09 07:27:15.56	155.89	11.55	
2025-01-09 07:27:16.79	156.03	11.44	
2025-01-09 07:27:18.02	156.16	11.34	
2025-01-09 07:27:19.26	156.30	11.23	
2025-01-09 07:27:20.49	156.43	11.12	
2025-01-09 07:27:21.71	156.56	11.02	
2025-01-09 07:27:22.95	156.70	10.92	
2025-01-09 07:27:24.18	156.83	10.81	
2025-01-09 07:27:25.42	156.96	10.71	
2025-01-09 07:27:26.65	157.08	10.60	
2025-01-09 07:27:27.88	157.21	10.50	
2025-01-09 07:27:29.12	157.34	10.40	
2025-01-09 07:27:30.35	157.46	10.30	
2025-01-09 07:27:31.58	157.59	10.20	
2025-01-09 07:27:32.80	157.71	10.10	
2025-01-09 07:27:34.03	157.83	9.99	
2025-01-09 07:27:35.26	157.95	9.89	
2025-01-09 07:27:36.49	158.08	9.79	
2025-01-09 07:27:37.73	158.20	9.69	
2025-01-09 07:27:38.97	158.32	9.59	
2025-01-09 07:27:40.20	158.44	9.49	
2025-01-09 07:27:41.43	158.55	9.39	
2025-01-09 07:27:42.66	158.67	9.30	
2025-01-09 07:27:43.89	158.79	9.20	
2025-01-09 07:27:45.12	158.90	9.10	
2025-01-09 07:27:46.35	159.02	9.00	
2025-01-09 07:27:47.58	159.13	8.91	
2025-01-09 07:27:48.81	159.24	8.81	
2025-01-09 07:27:50.04	159.35	8.71	
2025-01-09 07:27:51.28	159.47	8.62	
2025-01-09 07:27:52.51	159.58	8.52	
2025-01-09 07:27:53.74	159.69	8.42	
2025-01-09 07:27:54.97	159.79	8.33	
2025-01-09 07:27:56.20	159.90	8.23	
2025-01-09 07:27:57.43	160.01	8.14	
2025-01-09 07:27:58.66	160.12	8.05	
2025-01-09 07:27:59.89	160.22	7.95	
2025-01-09 07:28:01.12	160.33	7.86	
2025-01-09 07:28:02.36	160.43	7.76	
2025-01-09 07:28:03.60	160.54	7.67	
2025-01-09 07:28:04.82	160.64	7.58	
2025-01-09 07:28:06.05	160.74	7.49	
2025-01-09 07:28:07.29	160.85	7.39	
2025-01-09 07:28:08.52	160.95	7.30	
2025-01-09 07:28:09.75	161.05	7.21	
2025-01-09 07:28:10.98	161.15	7.12	
2025-01-09 07:28:12.21	161.25	7.03	
2025-01-09 07:28:13.44	161.35	6.94	
2025-01-09 07:28:14.68	161.45	6.85	
2025-01-09 07:28:15.90	161.54	6.76	
2025-01-09 07:28:17.14	161.64	6.67	
2025-01-09 07:28:18.38	161.74	6.58	
2025-01-09 07:28:19.62	161.83	6.49	
2025-01-09 07:28:20.85	161.93	6.40	
2025-01-09 07:28:22.09	162.02	6.31	
2025-01-09 07:28:23.34	162.12	6.22	
2025-01-09 07:28:24.58	162.21	6.13	
2025-01-09 07:28:25.81	162.30	6.04	
2025-01-09 07:28:27.06	162.40	5.95	
2025-01-09 07:28:28.29	162.49	5.87	
2025-01-09 07:28:29.54	162.58	5.78	
2025-01-09 07:28:30.77	162.67	5.69	
2025-01-09 07:28:32.01	162.76	5.60	
2025-01-09 07:28:33.24	162.85	5.52	
2025-01-09 07:28:34.47	162.94	5.43	
2025-01-09 07:28:35.71	163.03	5.35	
2025-01-09 07:28:36.95	163.12	5.26	
2025-01-09 07:28:38.19	163.20	5.17	
2025-01-09 07:28:39.42	163.29	5.09	
2025-01-09 07:28:40.65	163.38	5.00	
2025-01-09 07:28:41.88	163.46	4.92	
2025-01-09 07:28:43.11	163.55	4.84	
2025-01-09 07:28:44.35	163.63	4.75	
2025-01-09 07:28:45.57	163.72	4.67	
2025-01-09 07:28:46.80	163.80	4.59	
2025-01-09 07:28:48.04	163.88	4.50	
2025-01-09 07:28:49.29	163.97	4.42	
2025-01-09 07:28:50.52	164.05	4.33	
2025-01-09 07:28:51.75	164.13	4.25	
2025-01-09 07:28:52.99	164.21	4.17	
2025-01-09 07:28:54.24	164.29	4.09	
2025-01-09 07:28:55.47	164.37	4.00	

#Closed at: 2025-01-09 07:28:55