passes_logs/2025/01/09/SPB_Silybum_02/SPB_Silybum_02__20250109_101809_SUOMI_NPP_rec.log

#Pass ID: 20250109_101809_SUOMI NPP
#Satellite: SUOMI NPP
#Configuration: NPP
#Start time: 2025-01-09 10:18:08

#Version: 2.0.20230423
#Station: SPB_Silybum_02
#Location: 30.233357 lon 59.946436 lat
#TLE: 1 37849U 11061A   25008.85814474  .00000207  00000+0  11909-3 0  9997
#TLE: 2 37849  98.7439 309.9248 0001886  50.2762 309.8580 14.19535270684045

#Time	Az	El	Level	Level2	SNR	BER	Gain	Gain2
2025-01-09 10:18:10.19	160.12	4.02	
2025-01-09 10:18:11.63	160.12	4.12	
2025-01-09 10:18:13.07	160.13	4.22	
2025-01-09 10:18:14.51	160.14	4.32	
2025-01-09 10:18:15.94	160.14	4.42	
2025-01-09 10:18:17.38	160.15	4.53	
2025-01-09 10:18:18.83	160.16	4.63	
2025-01-09 10:18:20.26	160.16	4.73	
2025-01-09 10:18:21.70	160.17	4.83	
2025-01-09 10:18:23.13	160.18	4.93	
2025-01-09 10:18:24.57	160.18	5.04	
2025-01-09 10:18:26.01	160.19	5.14	
2025-01-09 10:18:27.46	160.20	5.25	
2025-01-09 10:18:28.90	160.21	5.35	
2025-01-09 10:18:30.34	160.21	5.46	
2025-01-09 10:18:31.78	160.22	5.56	
2025-01-09 10:18:33.22	160.23	5.67	
2025-01-09 10:18:34.65	160.23	5.77	
2025-01-09 10:18:36.10	160.24	5.88	
2025-01-09 10:18:37.54	160.25	5.99	
2025-01-09 10:18:39.00	160.25	6.10	
2025-01-09 10:18:40.45	160.26	6.20	
2025-01-09 10:18:41.89	160.27	6.31	
2025-01-09 10:18:43.33	160.27	6.42	
2025-01-09 10:18:44.76	160.28	6.53	
2025-01-09 10:18:46.20	160.29	6.64	
2025-01-09 10:18:47.63	160.30	6.75	
2025-01-09 10:18:49.08	160.30	6.86	
2025-01-09 10:18:50.51	160.31	6.97	
2025-01-09 10:18:51.95	160.32	7.08	
2025-01-09 10:18:53.38	160.32	7.19	
2025-01-09 10:18:54.82	160.33	7.31	
2025-01-09 10:18:56.26	160.34	7.42	
2025-01-09 10:18:57.69	160.35	7.53	
2025-01-09 10:18:59.13	160.35	7.65	
2025-01-09 10:19:00.58	160.36	7.76	
2025-01-09 10:19:02.03	160.37	7.88	
2025-01-09 10:19:03.47	160.37	7.99	
2025-01-09 10:19:04.91	160.38	8.11	
2025-01-09 10:19:06.34	160.39	8.23	
2025-01-09 10:19:07.78	160.40	8.34	
2025-01-09 10:19:09.22	160.40	8.46	
2025-01-09 10:19:10.65	160.41	8.58	
2025-01-09 10:19:12.09	160.42	8.70	
2025-01-09 10:19:13.53	160.43	8.82	
2025-01-09 10:19:14.97	160.43	8.94	
2025-01-09 10:19:16.41	160.44	9.06	
2025-01-09 10:19:17.85	160.45	9.18	
2025-01-09 10:19:19.29	160.46	9.30	
2025-01-09 10:19:20.73	160.46	9.43	
2025-01-09 10:19:22.18	160.47	9.55	
2025-01-09 10:19:23.63	160.48	9.67	
2025-01-09 10:19:25.06	160.49	9.80	
2025-01-09 10:19:26.50	160.50	9.92	
2025-01-09 10:19:27.94	160.50	10.05	
2025-01-09 10:19:29.37	160.51	10.17	
2025-01-09 10:19:30.80	160.52	10.30	
2025-01-09 10:19:32.26	160.53	10.43	
2025-01-09 10:19:33.71	160.54	10.56	
2025-01-09 10:19:35.14	160.54	10.69	
2025-01-09 10:19:36.58	160.55	10.82	
2025-01-09 10:19:38.01	160.56	10.95	
2025-01-09 10:19:39.46	160.57	11.08	
2025-01-09 10:19:40.90	160.58	11.21	
2025-01-09 10:19:42.34	160.58	11.34	
2025-01-09 10:19:43.77	160.59	11.48	
2025-01-09 10:19:45.22	160.60	11.61	
2025-01-09 10:19:46.65	160.61	11.74	
2025-01-09 10:19:48.09	160.62	11.88	
2025-01-09 10:19:49.54	160.62	12.02	
2025-01-09 10:19:50.97	160.63	12.15	
2025-01-09 10:19:52.41	160.64	12.29	
2025-01-09 10:19:53.85	160.65	12.43	
2025-01-09 10:19:55.28	160.66	12.57	
2025-01-09 10:19:56.72	160.67	12.71	
2025-01-09 10:19:58.16	160.68	12.85	
2025-01-09 10:19:59.60	160.68	12.99	
2025-01-09 10:20:01.03	160.69	13.13	
2025-01-09 10:20:02.47	160.70	13.28	
2025-01-09 10:20:03.90	160.71	13.42	
2025-01-09 10:20:05.34	160.72	13.56	
2025-01-09 10:20:06.79	160.73	13.71	
2025-01-09 10:20:08.22	160.74	13.86	
2025-01-09 10:20:09.66	160.75	14.00	
2025-01-09 10:20:11.10	160.75	14.15	
2025-01-09 10:20:12.53	160.76	14.30	
2025-01-09 10:20:13.97	160.77	14.45	
2025-01-09 10:20:15.40	160.78	14.60	
2025-01-09 10:20:16.84	160.79	14.76	
2025-01-09 10:20:18.28	160.80	14.91	
2025-01-09 10:20:19.71	160.81	15.06	
2025-01-09 10:20:21.17	160.82	15.22	
2025-01-09 10:20:22.60	160.83	15.37	
2025-01-09 10:20:24.04	160.84	15.53	
2025-01-09 10:20:25.48	160.85	15.69	
2025-01-09 10:20:26.91	160.86	15.85	
2025-01-09 10:20:28.35	160.87	16.01	
2025-01-09 10:20:29.79	160.87	16.17	
2025-01-09 10:20:31.22	160.88	16.33	
2025-01-09 10:20:32.66	160.89	16.50	
2025-01-09 10:20:34.10	160.90	16.66	
2025-01-09 10:20:35.53	160.91	16.83	
2025-01-09 10:20:36.97	160.92	16.99	
2025-01-09 10:20:38.41	160.93	17.16	
2025-01-09 10:20:39.86	160.94	17.33	
2025-01-09 10:20:41.30	160.95	17.50	
2025-01-09 10:20:42.74	160.96	17.67	
2025-01-09 10:20:44.18	160.97	17.85	
2025-01-09 10:20:45.61	160.98	18.02	
2025-01-09 10:20:47.05	160.99	18.19	
2025-01-09 10:20:48.49	161.00	18.37	
2025-01-09 10:20:49.93	161.02	18.55	
2025-01-09 10:20:51.36	161.03	18.73	
2025-01-09 10:20:52.80	161.04	18.91	
2025-01-09 10:20:54.24	161.05	19.09	
2025-01-09 10:20:55.67	161.06	19.27	
2025-01-09 10:20:57.11	161.07	19.46	
2025-01-09 10:20:58.55	161.08	19.64	
2025-01-09 10:20:59.99	161.09	19.83	
2025-01-09 10:21:01.42	161.10	20.02	
2025-01-09 10:21:02.86	161.11	20.21	
2025-01-09 10:21:04.29	161.12	20.40	
2025-01-09 10:21:05.73	161.13	20.59	
2025-01-09 10:21:07.16	161.15	20.78	
2025-01-09 10:21:08.59	161.16	20.98	
2025-01-09 10:21:10.05	161.17	21.18	
2025-01-09 10:21:11.48	161.18	21.38	
2025-01-09 10:21:12.92	161.19	21.58	
2025-01-09 10:21:14.37	161.20	21.78	
2025-01-09 10:21:15.80	161.22	21.98	
2025-01-09 10:21:17.23	161.23	22.19	
2025-01-09 10:21:18.67	161.24	22.40	
2025-01-09 10:21:20.11	161.25	22.61	
2025-01-09 10:21:21.56	161.27	22.82	
2025-01-09 10:21:22.99	161.28	23.03	
2025-01-09 10:21:24.44	161.29	23.24	
2025-01-09 10:21:25.90	161.30	23.46	
2025-01-09 10:21:27.35	161.32	23.68	
2025-01-09 10:21:28.79	161.33	23.90	
2025-01-09 10:21:30.22	161.34	24.12	
2025-01-09 10:21:31.66	161.35	24.35	
2025-01-09 10:21:33.11	161.37	24.57	
2025-01-09 10:21:34.55	161.38	24.80	
2025-01-09 10:21:35.99	161.40	25.03	
2025-01-09 10:21:37.44	161.41	25.26	
2025-01-09 10:21:38.87	161.42	25.50	
2025-01-09 10:21:40.31	161.44	25.73	
2025-01-09 10:21:41.75	161.45	25.97	
2025-01-09 10:21:43.19	161.46	26.21	
2025-01-09 10:21:44.62	161.48	26.45	
2025-01-09 10:21:46.06	161.49	26.69	
2025-01-09 10:21:47.51	161.51	26.94	
2025-01-09 10:21:48.96	161.52	27.19	
2025-01-09 10:21:50.40	161.54	27.44	
2025-01-09 10:21:51.84	161.55	27.70	
2025-01-09 10:21:53.27	161.57	27.95	
2025-01-09 10:21:54.74	161.58	28.21	
2025-01-09 10:21:56.18	161.60	28.48	
2025-01-09 10:21:57.61	161.62	28.74	
2025-01-09 10:21:59.05	161.63	29.00	
2025-01-09 10:22:00.50	161.65	29.27	
2025-01-09 10:22:01.93	161.66	29.54	
2025-01-09 10:22:03.38	161.68	29.82	
2025-01-09 10:22:04.82	161.70	30.09	
2025-01-09 10:22:06.25	161.71	30.37	
2025-01-09 10:22:07.69	161.73	30.65	
2025-01-09 10:22:09.13	161.75	30.93	
2025-01-09 10:22:10.56	161.77	31.22	
2025-01-09 10:22:12.00	161.78	31.51	
2025-01-09 10:22:13.44	161.80	31.80	
2025-01-09 10:22:14.88	161.82	32.10	
2025-01-09 10:22:16.31	161.84	32.39	
2025-01-09 10:22:17.75	161.86	32.69	
2025-01-09 10:22:19.20	161.88	33.00	
2025-01-09 10:22:20.65	161.90	33.31	
2025-01-09 10:22:22.10	161.92	33.62	
2025-01-09 10:22:23.55	161.94	33.94	
2025-01-09 10:22:24.99	161.96	34.26	
2025-01-09 10:22:26.43	161.98	34.58	
2025-01-09 10:22:27.86	162.00	34.90	
2025-01-09 10:22:29.30	162.02	35.22	
2025-01-09 10:22:30.73	162.04	35.55	
2025-01-09 10:22:32.17	162.06	35.89	
2025-01-09 10:22:33.61	162.08	36.22	
2025-01-09 10:22:35.06	162.11	36.57	
2025-01-09 10:22:36.49	162.13	36.91	
2025-01-09 10:22:37.93	162.15	37.26	
2025-01-09 10:22:39.38	162.18	37.61	
2025-01-09 10:22:40.83	162.20	37.97	
2025-01-09 10:22:42.26	162.23	38.33	
2025-01-09 10:22:43.69	162.25	38.69	
2025-01-09 10:22:45.13	162.28	39.05	
2025-01-09 10:22:46.56	162.30	39.42	
2025-01-09 10:22:48.00	162.33	39.80	
2025-01-09 10:22:49.44	162.36	40.18	
2025-01-09 10:22:50.87	162.38	40.56	
2025-01-09 10:22:52.30	162.41	40.94	
2025-01-09 10:22:53.74	162.44	41.33	
2025-01-09 10:22:55.18	162.47	41.73	
2025-01-09 10:22:56.62	162.50	42.13	
2025-01-09 10:22:58.06	162.53	42.53	
2025-01-09 10:22:59.49	162.56	42.94	
2025-01-09 10:23:00.94	162.59	43.36	
2025-01-09 10:23:02.39	162.62	43.78	
2025-01-09 10:23:03.83	162.66	44.20	
2025-01-09 10:23:05.27	162.69	44.63	
2025-01-09 10:23:06.70	162.72	45.06	
2025-01-09 10:23:08.13	162.76	45.49	
2025-01-09 10:23:09.57	162.80	45.93	
2025-01-09 10:23:11.02	162.83	46.38	
2025-01-09 10:23:12.46	162.87	46.83	
2025-01-09 10:23:13.89	162.91	47.28	
2025-01-09 10:23:15.32	162.95	47.74	
2025-01-09 10:23:16.77	162.99	48.21	
2025-01-09 10:23:18.23	163.04	48.69	
2025-01-09 10:23:19.68	163.08	49.17	
2025-01-09 10:23:21.10	163.12	49.64	
2025-01-09 10:23:22.54	163.17	50.13	
2025-01-09 10:23:24.00	163.22	50.62	
2025-01-09 10:23:25.44	163.27	51.12	
2025-01-09 10:23:26.88	163.32	51.62	
2025-01-09 10:23:28.32	163.37	52.13	
2025-01-09 10:23:29.75	163.42	52.64	
2025-01-09 10:23:31.19	163.48	53.16	
2025-01-09 10:23:32.62	163.53	53.68	
2025-01-09 10:23:34.09	163.59	54.22	
2025-01-09 10:23:35.53	163.65	54.75	
2025-01-09 10:23:36.96	163.72	55.29	
2025-01-09 10:23:38.40	163.78	55.83	
2025-01-09 10:23:39.85	163.85	56.38	
2025-01-09 10:23:41.29	163.92	56.94	
2025-01-09 10:23:42.72	163.99	57.50	
2025-01-09 10:23:44.16	164.07	58.07	
2025-01-09 10:23:45.60	164.15	58.64	
2025-01-09 10:23:47.04	164.23	59.22	
2025-01-09 10:23:48.47	164.32	59.79	
2025-01-09 10:23:49.91	164.41	60.38	
2025-01-09 10:23:51.35	164.50	60.98	
2025-01-09 10:23:52.79	164.60	61.58	
2025-01-09 10:23:54.22	164.70	62.18	
2025-01-09 10:23:55.66	164.81	62.79	
2025-01-09 10:23:57.11	164.92	63.41	
2025-01-09 10:23:58.56	165.04	64.03	
2025-01-09 10:24:00.00	165.16	64.66	
2025-01-09 10:24:01.43	165.29	65.28	
2025-01-09 10:24:02.88	165.43	65.92	
2025-01-09 10:24:04.32	165.58	66.57	
2025-01-09 10:24:05.76	165.74	67.21	
2025-01-09 10:24:07.20	165.90	67.86	
2025-01-09 10:24:08.63	166.08	68.51	
2025-01-09 10:24:10.07	166.26	69.17	
2025-01-09 10:24:11.51	166.47	69.84	
2025-01-09 10:24:12.96	166.68	70.51	
2025-01-09 10:24:14.40	166.91	71.18	
2025-01-09 10:24:15.83	167.16	71.86	
2025-01-09 10:24:17.27	167.43	72.54	
2025-01-09 10:24:18.71	167.72	73.22	
2025-01-09 10:24:20.15	168.04	73.91	
2025-01-09 10:24:21.59	168.39	74.60	
2025-01-09 10:24:23.02	168.76	75.29	
2025-01-09 10:24:24.46	169.18	75.99	
2025-01-09 10:24:25.91	169.65	76.70	
2025-01-09 10:24:27.35	170.17	77.40	
2025-01-09 10:24:28.78	170.74	78.10	
2025-01-09 10:24:30.22	171.39	78.81	
2025-01-09 10:24:31.65	172.13	79.51	
2025-01-09 10:24:33.10	172.99	80.23	
2025-01-09 10:24:34.54	173.97	80.93	
2025-01-09 10:24:35.97	175.12	81.64	
2025-01-09 10:24:37.42	176.50	82.35	
2025-01-09 10:24:38.86	178.15	83.05	
2025-01-09 10:24:40.29	180.15	83.75	
2025-01-09 10:24:41.72	182.66	84.43	
2025-01-09 10:24:43.16	185.89	85.11	
2025-01-09 10:24:44.59	190.11	85.76	
2025-01-09 10:24:46.03	195.87	86.39	
2025-01-09 10:24:47.47	203.93	86.97	
2025-01-09 10:24:48.90	215.34	87.45	
2025-01-09 10:24:50.34	231.28	87.80	
2025-01-09 10:24:51.77	250.88	87.93	
2025-01-09 10:24:53.21	270.61	87.80	
2025-01-09 10:24:54.64	286.45	87.46	
2025-01-09 10:24:56.09	298.00	86.96	
2025-01-09 10:24:57.53	306.03	86.38	
2025-01-09 10:24:58.97	311.78	85.76	
2025-01-09 10:25:00.41	316.01	85.10	
2025-01-09 10:25:01.86	319.24	84.42	
2025-01-09 10:25:03.31	321.76	83.72	
2025-01-09 10:25:04.74	323.75	83.03	
2025-01-09 10:25:06.18	325.39	82.33	
2025-01-09 10:25:07.62	326.75	81.62	
2025-01-09 10:25:09.06	327.90	80.91	
2025-01-09 10:25:10.50	328.88	80.20	
2025-01-09 10:25:11.93	329.72	79.50	
2025-01-09 10:25:13.37	330.46	78.79	
2025-01-09 10:25:14.80	331.11	78.09	
2025-01-09 10:25:16.24	331.68	77.39	
2025-01-09 10:25:17.68	332.20	76.69	
2025-01-09 10:25:19.11	332.66	75.99	
2025-01-09 10:25:20.56	333.08	75.29	
2025-01-09 10:25:22.01	333.46	74.59	
2025-01-09 10:25:23.44	333.80	73.90	
2025-01-09 10:25:24.88	334.12	73.22	
2025-01-09 10:25:26.33	334.41	72.53	
2025-01-09 10:25:27.77	334.68	71.85	
2025-01-09 10:25:29.20	334.93	71.18	
2025-01-09 10:25:30.64	335.16	70.51	
2025-01-09 10:25:32.07	335.37	69.84	
2025-01-09 10:25:33.50	335.57	69.19	
2025-01-09 10:25:34.96	335.76	68.52	
2025-01-09 10:25:36.39	335.94	67.87	
2025-01-09 10:25:37.83	336.10	67.22	
2025-01-09 10:25:39.27	336.26	66.58	
2025-01-09 10:25:40.70	336.40	65.94	
2025-01-09 10:25:42.14	336.54	65.31	
2025-01-09 10:25:43.58	336.67	64.68	
2025-01-09 10:25:45.01	336.80	64.06	
2025-01-09 10:25:46.47	336.92	63.43	
2025-01-09 10:25:47.91	337.03	62.82	
2025-01-09 10:25:49.34	337.14	62.21	
2025-01-09 10:25:50.78	337.24	61.61	
2025-01-09 10:25:52.22	337.34	61.01	
2025-01-09 10:25:53.67	337.43	60.42	
2025-01-09 10:25:55.11	337.52	59.83	
2025-01-09 10:25:56.54	337.61	59.25	
2025-01-09 10:25:57.98	337.69	58.68	
2025-01-09 10:25:59.42	337.77	58.11	
2025-01-09 10:26:00.87	337.85	57.54	
2025-01-09 10:26:02.30	337.92	56.98	
2025-01-09 10:26:03.74	337.99	56.43	
2025-01-09 10:26:05.18	338.06	55.88	
2025-01-09 10:26:06.63	338.12	55.33	
2025-01-09 10:26:08.06	338.19	54.80	
2025-01-09 10:26:09.50	338.25	54.27	
2025-01-09 10:26:10.93	338.31	53.74	
2025-01-09 10:26:12.38	338.36	53.22	
2025-01-09 10:26:13.81	338.42	52.70	
2025-01-09 10:26:15.26	338.47	52.19	
2025-01-09 10:26:16.70	338.53	51.68	
2025-01-09 10:26:18.14	338.58	51.18	
2025-01-09 10:26:19.57	338.62	50.69	
2025-01-09 10:26:21.01	338.67	50.20	
2025-01-09 10:26:22.44	338.72	49.72	
2025-01-09 10:26:23.87	338.76	49.25	
2025-01-09 10:26:25.33	338.81	48.77	
2025-01-09 10:26:26.76	338.85	48.30	
2025-01-09 10:26:28.21	338.89	47.83	
2025-01-09 10:26:29.65	338.93	47.37	
2025-01-09 10:26:31.10	338.97	46.92	
2025-01-09 10:26:32.54	339.01	46.47	
2025-01-09 10:26:33.97	339.05	46.03	
2025-01-09 10:26:35.42	339.09	45.58	
2025-01-09 10:26:36.87	339.12	45.14	
2025-01-09 10:26:38.31	339.16	44.71	
2025-01-09 10:26:39.75	339.19	44.29	
2025-01-09 10:26:41.19	339.22	43.87	
2025-01-09 10:26:42.63	339.26	43.45	
2025-01-09 10:26:44.06	339.29	43.04	
2025-01-09 10:26:45.50	339.32	42.64	
2025-01-09 10:26:46.95	339.35	42.23	
2025-01-09 10:26:48.40	339.38	41.83	
2025-01-09 10:26:49.84	339.41	41.43	
2025-01-09 10:26:51.28	339.44	41.04	
2025-01-09 10:26:52.71	339.47	40.66	
2025-01-09 10:26:54.15	339.50	40.28	
2025-01-09 10:26:55.58	339.52	39.90	
2025-01-09 10:26:57.02	339.55	39.53	
2025-01-09 10:26:58.47	339.58	39.16	
2025-01-09 10:26:59.92	339.60	38.79	
2025-01-09 10:27:01.36	339.63	38.43	
2025-01-09 10:27:02.80	339.65	38.07	
2025-01-09 10:27:04.24	339.68	37.71	
2025-01-09 10:27:05.67	339.70	37.37	
2025-01-09 10:27:07.11	339.73	37.02	
2025-01-09 10:27:08.55	339.75	36.68	
2025-01-09 10:27:10.00	339.77	36.33	
2025-01-09 10:27:11.44	339.80	36.00	
2025-01-09 10:27:12.87	339.82	35.67	
2025-01-09 10:27:14.31	339.84	35.34	
2025-01-09 10:27:15.75	339.86	35.01	
2025-01-09 10:27:17.19	339.88	34.69	
2025-01-09 10:27:18.62	339.90	34.37	
2025-01-09 10:27:20.06	339.93	34.06	
2025-01-09 10:27:21.50	339.95	33.75	
2025-01-09 10:27:22.95	339.97	33.43	
2025-01-09 10:27:24.38	339.99	33.13	
2025-01-09 10:27:25.81	340.01	32.83	
2025-01-09 10:27:27.24	340.03	32.53	
2025-01-09 10:27:28.68	340.04	32.23	
2025-01-09 10:27:30.13	340.06	31.94	
2025-01-09 10:27:31.57	340.08	31.64	
2025-01-09 10:27:33.01	340.10	31.36	
2025-01-09 10:27:34.45	340.12	31.07	
2025-01-09 10:27:35.89	340.14	30.79	
2025-01-09 10:27:37.33	340.15	30.51	
2025-01-09 10:27:38.79	340.17	30.23	
2025-01-09 10:27:40.22	340.19	29.95	
2025-01-09 10:27:41.65	340.21	29.68	
2025-01-09 10:27:43.09	340.22	29.41	
2025-01-09 10:27:44.53	340.24	29.15	
2025-01-09 10:27:45.97	340.26	28.88	
2025-01-09 10:27:47.40	340.27	28.62	
2025-01-09 10:27:48.84	340.29	28.36	
2025-01-09 10:27:50.29	340.31	28.10	
2025-01-09 10:27:51.73	340.32	27.85	
2025-01-09 10:27:53.16	340.34	27.60	
2025-01-09 10:27:54.61	340.35	27.34	
2025-01-09 10:27:56.05	340.37	27.10	
2025-01-09 10:27:57.48	340.38	26.85	
2025-01-09 10:27:58.93	340.40	26.61	
2025-01-09 10:28:00.36	340.41	26.37	
2025-01-09 10:28:01.80	340.43	26.13	
2025-01-09 10:28:03.23	340.44	25.89	
2025-01-09 10:28:04.67	340.46	25.66	
2025-01-09 10:28:06.12	340.47	25.42	
2025-01-09 10:28:07.55	340.49	25.19	
2025-01-09 10:28:08.98	340.50	24.97	
2025-01-09 10:28:10.42	340.52	24.74	
2025-01-09 10:28:11.86	340.53	24.51	
2025-01-09 10:28:13.29	340.54	24.29	
2025-01-09 10:28:14.73	340.56	24.07	
2025-01-09 10:28:16.17	340.57	23.85	
2025-01-09 10:28:17.60	340.59	23.64	
2025-01-09 10:28:19.04	340.60	23.42	
2025-01-09 10:28:20.49	340.61	23.21	
2025-01-09 10:28:21.92	340.63	23.00	
2025-01-09 10:28:23.37	340.64	22.78	
2025-01-09 10:28:24.81	340.65	22.58	
2025-01-09 10:28:26.25	340.66	22.37	
2025-01-09 10:28:27.68	340.68	22.16	
2025-01-09 10:28:29.12	340.69	21.96	
2025-01-09 10:28:30.56	340.70	21.76	
2025-01-09 10:28:32.00	340.72	21.56	
2025-01-09 10:28:33.45	340.73	21.36	
2025-01-09 10:28:34.88	340.74	21.16	
2025-01-09 10:28:36.31	340.75	20.97	
2025-01-09 10:28:37.75	340.77	20.77	
2025-01-09 10:28:39.18	340.78	20.58	
2025-01-09 10:28:40.63	340.79	20.39	
2025-01-09 10:28:42.07	340.80	20.20	
2025-01-09 10:28:43.51	340.81	20.01	
2025-01-09 10:28:44.96	340.83	19.82	
2025-01-09 10:28:46.41	340.84	19.64	
2025-01-09 10:28:47.85	340.85	19.45	
2025-01-09 10:28:49.29	340.86	19.27	
2025-01-09 10:28:50.74	340.87	19.09	
2025-01-09 10:28:52.17	340.88	18.91	
2025-01-09 10:28:53.61	340.90	18.73	
2025-01-09 10:28:55.05	340.91	18.55	
2025-01-09 10:28:56.50	340.92	18.37	
2025-01-09 10:28:57.93	340.93	18.20	
2025-01-09 10:28:59.37	340.94	18.03	
2025-01-09 10:29:00.80	340.95	17.86	
2025-01-09 10:29:02.24	340.96	17.68	
2025-01-09 10:29:03.67	340.97	17.52	
2025-01-09 10:29:05.11	340.99	17.35	
2025-01-09 10:29:06.55	341.00	17.18	
2025-01-09 10:29:07.98	341.01	17.01	
2025-01-09 10:29:09.42	341.02	16.85	
2025-01-09 10:29:10.85	341.03	16.68	
2025-01-09 10:29:12.28	341.04	16.52	
2025-01-09 10:29:13.72	341.05	16.36	
2025-01-09 10:29:15.16	341.06	16.20	
2025-01-09 10:29:16.59	341.07	16.04	
2025-01-09 10:29:18.03	341.08	15.88	
2025-01-09 10:29:19.47	341.09	15.72	
2025-01-09 10:29:20.90	341.10	15.57	
2025-01-09 10:29:22.34	341.11	15.41	
2025-01-09 10:29:23.79	341.12	15.25	
2025-01-09 10:29:25.23	341.13	15.10	
2025-01-09 10:29:26.67	341.14	14.95	
2025-01-09 10:29:28.12	341.15	14.79	
2025-01-09 10:29:29.55	341.16	14.64	
2025-01-09 10:29:31.00	341.17	14.49	
2025-01-09 10:29:32.43	341.18	14.35	
2025-01-09 10:29:33.87	341.19	14.20	
2025-01-09 10:29:35.31	341.20	14.05	
2025-01-09 10:29:36.75	341.21	13.90	
2025-01-09 10:29:38.19	341.22	13.76	
2025-01-09 10:29:39.62	341.23	13.61	
2025-01-09 10:29:41.06	341.24	13.47	
2025-01-09 10:29:42.49	341.25	13.33	
2025-01-09 10:29:43.93	341.26	13.19	
2025-01-09 10:29:45.37	341.27	13.04	
2025-01-09 10:29:46.80	341.28	12.90	
2025-01-09 10:29:48.24	341.29	12.76	
2025-01-09 10:29:49.68	341.30	12.63	
2025-01-09 10:29:51.11	341.31	12.49	
2025-01-09 10:29:52.55	341.32	12.35	
2025-01-09 10:29:53.98	341.33	12.21	
2025-01-09 10:29:55.42	341.34	12.08	
2025-01-09 10:29:56.86	341.35	11.94	
2025-01-09 10:29:58.30	341.36	11.81	
2025-01-09 10:29:59.73	341.37	11.68	
2025-01-09 10:30:01.16	341.38	11.54	
2025-01-09 10:30:02.60	341.39	11.41	
2025-01-09 10:30:04.05	341.40	11.28	
2025-01-09 10:30:05.49	341.41	11.15	
2025-01-09 10:30:06.94	341.42	11.02	
2025-01-09 10:30:08.37	341.43	10.89	
2025-01-09 10:30:09.81	341.43	10.76	
2025-01-09 10:30:11.24	341.44	10.63	
2025-01-09 10:30:12.70	341.45	10.50	
2025-01-09 10:30:14.13	341.46	10.38	
2025-01-09 10:30:15.57	341.47	10.25	
2025-01-09 10:30:17.01	341.48	10.13	
2025-01-09 10:30:18.46	341.49	10.00	
2025-01-09 10:30:19.91	341.50	9.88	
2025-01-09 10:30:21.35	341.51	9.75	
2025-01-09 10:30:22.78	341.52	9.63	
2025-01-09 10:30:24.24	341.53	9.51	
2025-01-09 10:30:25.67	341.53	9.39	
2025-01-09 10:30:27.10	341.54	9.27	
2025-01-09 10:30:28.54	341.55	9.14	
2025-01-09 10:30:29.98	341.56	9.02	
2025-01-09 10:30:31.42	341.57	8.91	
2025-01-09 10:30:32.86	341.58	8.79	
2025-01-09 10:30:34.29	341.59	8.67	
2025-01-09 10:30:35.73	341.60	8.55	
2025-01-09 10:30:37.17	341.61	8.43	
2025-01-09 10:30:38.60	341.61	8.32	
2025-01-09 10:30:40.04	341.62	8.20	
2025-01-09 10:30:41.47	341.63	8.09	
2025-01-09 10:30:42.91	341.64	7.97	
2025-01-09 10:30:44.35	341.65	7.86	
2025-01-09 10:30:45.78	341.66	7.74	
2025-01-09 10:30:47.22	341.67	7.63	
2025-01-09 10:30:48.65	341.67	7.52	
2025-01-09 10:30:50.09	341.68	7.41	
2025-01-09 10:30:51.53	341.69	7.29	
2025-01-09 10:30:52.98	341.70	7.18	
2025-01-09 10:30:54.42	341.71	7.07	
2025-01-09 10:30:55.85	341.72	6.96	
2025-01-09 10:30:57.29	341.73	6.85	
2025-01-09 10:30:58.73	341.73	6.74	
2025-01-09 10:31:00.16	341.74	6.63	
2025-01-09 10:31:01.60	341.75	6.52	
2025-01-09 10:31:03.03	341.76	6.42	
2025-01-09 10:31:04.47	341.77	6.31	
2025-01-09 10:31:05.91	341.78	6.20	
2025-01-09 10:31:07.34	341.79	6.10	
2025-01-09 10:31:08.78	341.79	5.99	
2025-01-09 10:31:10.22	341.80	5.88	
2025-01-09 10:31:11.65	341.81	5.78	
2025-01-09 10:31:13.10	341.82	5.67	
2025-01-09 10:31:14.57	341.83	5.57	
2025-01-09 10:31:16.00	341.84	5.46	
2025-01-09 10:31:17.45	341.84	5.36	
2025-01-09 10:31:18.90	341.85	5.25	
2025-01-09 10:31:20.34	341.86	5.15	
2025-01-09 10:31:21.78	341.87	5.05	
2025-01-09 10:31:23.21	341.88	4.95	
2025-01-09 10:31:24.64	341.89	4.85	
2025-01-09 10:31:26.08	341.89	4.74	
2025-01-09 10:31:27.52	341.90	4.64	
2025-01-09 10:31:28.95	341.91	4.54	
2025-01-09 10:31:30.38	341.92	4.44	
2025-01-09 10:31:31.82	341.93	4.34	
2025-01-09 10:31:33.25	341.93	4.24	
2025-01-09 10:31:34.71	341.94	4.14	
2025-01-09 10:31:36.15	341.95	4.04	

#Closed at: 2025-01-09 10:31:36