passes_logs/2025/01/22/X_MFTI_02/X_MFTI_02__20250122_234512_NOAA_20_rec.log

#Pass ID: 20250122_234512_NOAA 20
#Satellite: NOAA 20
#Configuration: NOAA 20
#Start time: 2025-01-22 23:45:06

#Version: 1.5.20200625
#Station: X_MFTI_02
#Location: 37.5186 lon 55.9291 lat
#TLE: 1 43013U 17073A   23362.44808611  .00000160  00000+0  96626-4 0  9996
#TLE: 2 43013  98.7331 297.9536 0000783  57.5916 302.5335 14.19555620316533

#Time	Az	El	Level	Level2	SNR	BER	Gain	Gain2
2025-01-22 23:45:08.77	23.69	68.50	
2025-01-22 23:45:08.97	23.72	68.59	
2025-01-22 23:45:09.18	23.76	68.69	
2025-01-22 23:45:09.39	23.79	68.79	
2025-01-22 23:45:09.59	23.82	68.88	
2025-01-22 23:45:09.81	23.86	68.98	
2025-01-22 23:45:10.01	23.89	69.07	
2025-01-22 23:45:10.21	23.92	69.16	
2025-01-22 23:45:10.42	23.95	69.26	
2025-01-22 23:45:10.62	23.99	69.35	
2025-01-22 23:45:10.82	24.02	69.44	
2025-01-22 23:45:11.03	24.06	69.54	
2025-01-22 23:45:11.23	24.09	69.63	
2025-01-22 23:45:11.43	24.12	69.72	
2025-01-22 23:45:11.65	24.16	69.82	
2025-01-22 23:45:11.85	24.20	69.91	
2025-01-22 23:45:12.06	24.23	70.01	
2025-01-22 23:45:12.27	24.27	70.11	
2025-01-22 23:45:12.48	24.31	70.20	
2025-01-22 23:45:12.68	24.35	70.30	
2025-01-22 23:45:12.89	24.38	70.39	
2025-01-22 23:45:13.09	24.42	70.49	
2025-01-22 23:45:13.30	24.46	70.58	
2025-01-22 23:45:13.51	24.50	70.68	
2025-01-22 23:45:13.72	24.54	70.78	
2025-01-22 23:45:13.92	24.58	70.87	
2025-01-22 23:45:14.12	24.62	70.96	
2025-01-22 23:45:14.33	24.66	71.06	
2025-01-22 23:45:14.53	24.70	71.16	
2025-01-22 23:45:14.75	24.74	71.26	
2025-01-22 23:45:14.95	24.78	71.35	
2025-01-22 23:45:15.16	24.83	71.45	
2025-01-22 23:45:15.37	24.87	71.55	
2025-01-22 23:45:15.58	24.92	71.65	
2025-01-22 23:45:15.79	24.96	71.75	
2025-01-22 23:45:16.00	25.01	71.84	
2025-01-22 23:45:16.20	25.05	71.94	
2025-01-22 23:45:16.41	25.10	72.04	
2025-01-22 23:45:16.61	25.14	72.13	
2025-01-22 23:45:16.82	25.19	72.23	
2025-01-22 23:45:17.03	25.24	72.33	
2025-01-22 23:45:17.24	25.28	72.43	
2025-01-22 23:45:17.44	25.33	72.52	
2025-01-22 23:45:17.65	25.38	72.62	
2025-01-22 23:45:17.85	25.43	72.71	
2025-01-22 23:45:18.05	25.48	72.81	
2025-01-22 23:45:18.25	25.52	72.90	
2025-01-22 23:45:18.47	25.58	73.01	
2025-01-22 23:45:18.67	25.63	73.10	
2025-01-22 23:45:18.88	25.68	73.20	
2025-01-22 23:45:19.08	25.73	73.30	
2025-01-22 23:45:19.29	25.79	73.40	
2025-01-22 23:45:19.49	25.84	73.49	
2025-01-22 23:45:19.69	25.89	73.59	
2025-01-22 23:45:19.90	25.95	73.69	
2025-01-22 23:45:20.10	26.00	73.78	
2025-01-22 23:45:20.32	26.06	73.89	
2025-01-22 23:45:20.53	26.12	73.99	
2025-01-22 23:45:20.73	26.18	74.08	
2025-01-22 23:45:20.94	26.24	74.18	
2025-01-22 23:45:21.15	26.30	74.28	
2025-01-22 23:45:21.35	26.36	74.38	
2025-01-22 23:45:21.56	26.42	74.48	
2025-01-22 23:45:21.76	26.48	74.57	
2025-01-22 23:45:21.97	26.55	74.68	
2025-01-22 23:45:22.17	26.61	74.77	
2025-01-22 23:45:22.38	26.67	74.87	
2025-01-22 23:45:22.58	26.74	74.97	
2025-01-22 23:45:22.78	26.80	75.06	
2025-01-22 23:45:22.99	26.87	75.16	
2025-01-22 23:45:23.20	26.94	75.27	
2025-01-22 23:45:23.40	27.01	75.36	
2025-01-22 23:45:23.61	27.08	75.46	
2025-01-22 23:45:23.82	27.15	75.56	
2025-01-22 23:45:24.02	27.22	75.66	
2025-01-22 23:45:24.22	27.29	75.76	
2025-01-22 23:45:24.43	27.37	75.86	
2025-01-22 23:45:24.64	27.45	75.96	
2025-01-22 23:45:24.85	27.52	76.06	
2025-01-22 23:45:25.05	27.60	76.16	
2025-01-22 23:45:25.26	27.68	76.26	
2025-01-22 23:45:25.46	27.76	76.35	
2025-01-22 23:45:25.67	27.84	76.46	
2025-01-22 23:45:25.89	27.93	76.56	
2025-01-22 23:45:26.09	28.01	76.66	
2025-01-22 23:45:26.29	28.09	76.76	
2025-01-22 23:45:26.50	28.18	76.86	
2025-01-22 23:45:26.71	28.27	76.96	
2025-01-22 23:45:26.91	28.35	77.06	
2025-01-22 23:45:27.11	28.44	77.15	
2025-01-22 23:45:27.32	28.54	77.25	
2025-01-22 23:45:27.52	28.63	77.35	
2025-01-22 23:45:27.73	28.72	77.45	
2025-01-22 23:45:27.94	28.82	77.56	
2025-01-22 23:45:28.14	28.92	77.65	
2025-01-22 23:45:28.36	29.02	77.76	
2025-01-22 23:45:28.57	29.13	77.86	
2025-01-22 23:45:28.77	29.23	77.96	
2025-01-22 23:45:28.97	29.33	78.06	
2025-01-22 23:45:29.19	29.44	78.16	
2025-01-22 23:45:29.40	29.55	78.27	
2025-01-22 23:45:29.61	29.66	78.37	
2025-01-22 23:45:29.81	29.77	78.46	
2025-01-22 23:45:30.02	29.89	78.57	
2025-01-22 23:45:30.24	30.01	78.67	
2025-01-22 23:45:30.44	30.13	78.77	
2025-01-22 23:45:30.65	30.25	78.87	
2025-01-22 23:45:30.85	30.37	78.97	
2025-01-22 23:45:31.07	30.51	79.08	
2025-01-22 23:45:31.27	30.63	79.18	
2025-01-22 23:45:31.47	30.76	79.27	
2025-01-22 23:45:31.68	30.89	79.37	
2025-01-22 23:45:31.88	31.02	79.47	
2025-01-22 23:45:32.09	31.16	79.57	
2025-01-22 23:45:32.29	31.30	79.67	
2025-01-22 23:45:32.50	31.44	79.77	
2025-01-22 23:45:32.71	31.59	79.88	
2025-01-22 23:45:32.91	31.74	79.97	
2025-01-22 23:45:33.11	31.89	80.07	
2025-01-22 23:45:33.32	32.04	80.17	
2025-01-22 23:45:33.52	32.20	80.27	
2025-01-22 23:45:33.72	32.36	80.37	
2025-01-22 23:45:33.92	32.52	80.46	
2025-01-22 23:45:34.13	32.69	80.57	
2025-01-22 23:45:34.33	32.85	80.66	
2025-01-22 23:45:34.55	33.04	80.77	
2025-01-22 23:45:34.75	33.22	80.87	
2025-01-22 23:45:34.95	33.40	80.96	
2025-01-22 23:45:35.16	33.59	81.07	
2025-01-22 23:45:35.36	33.77	81.16	
2025-01-22 23:45:35.56	33.96	81.26	
2025-01-22 23:45:35.77	34.17	81.36	
2025-01-22 23:45:35.97	34.37	81.46	
2025-01-22 23:45:36.17	34.57	81.56	
2025-01-22 23:45:36.38	34.79	81.66	
2025-01-22 23:45:36.58	35.01	81.75	
2025-01-22 23:45:36.78	35.23	81.85	
2025-01-22 23:45:36.99	35.46	81.95	
2025-01-22 23:45:37.20	35.71	82.05	
2025-01-22 23:45:37.41	35.96	82.15	
2025-01-22 23:45:37.61	36.20	82.25	
2025-01-22 23:45:37.82	36.46	82.35	
2025-01-22 23:45:38.02	36.72	82.45	
2025-01-22 23:45:38.22	36.98	82.54	
2025-01-22 23:45:38.43	37.26	82.64	
2025-01-22 23:45:38.64	37.55	82.74	
2025-01-22 23:45:38.86	37.86	82.85	
2025-01-22 23:45:39.06	38.16	82.94	
2025-01-22 23:45:39.26	38.46	83.04	
2025-01-22 23:45:39.47	38.78	83.14	
2025-01-22 23:45:39.67	39.10	83.23	
2025-01-22 23:45:39.87	39.43	83.33	
2025-01-22 23:45:40.08	39.78	83.43	
2025-01-22 23:45:40.28	40.13	83.52	
2025-01-22 23:45:40.48	40.49	83.61	
2025-01-22 23:45:40.69	40.88	83.71	
2025-01-22 23:45:40.90	41.28	83.81	
2025-01-22 23:45:41.10	41.67	83.90	
2025-01-22 23:45:41.31	42.10	84.00	
2025-01-22 23:45:41.52	42.53	84.10	
2025-01-22 23:45:41.73	42.99	84.20	
2025-01-22 23:45:41.94	43.46	84.29	
2025-01-22 23:45:42.14	43.92	84.38	
2025-01-22 23:45:42.35	44.42	84.48	
2025-01-22 23:45:42.55	44.92	84.57	
2025-01-22 23:45:42.76	45.46	84.67	
2025-01-22 23:45:42.96	45.99	84.76	
2025-01-22 23:45:43.17	46.56	84.85	
2025-01-22 23:45:43.37	47.13	84.94	
2025-01-22 23:45:43.58	47.75	85.03	
2025-01-22 23:45:43.78	48.36	85.12	
2025-01-22 23:45:43.99	49.03	85.21	
2025-01-22 23:45:44.19	49.69	85.30	
2025-01-22 23:45:44.40	50.41	85.39	
2025-01-22 23:45:44.60	51.12	85.48	
2025-01-22 23:45:44.80	51.86	85.56	
2025-01-22 23:45:45.01	52.67	85.65	
2025-01-22 23:45:45.21	53.47	85.73	
2025-01-22 23:45:45.42	54.34	85.82	
2025-01-22 23:45:45.62	55.21	85.90	
2025-01-22 23:45:45.83	56.16	85.99	
2025-01-22 23:45:46.05	57.19	86.07	
2025-01-22 23:45:46.25	58.18	86.15	
2025-01-22 23:45:46.45	59.20	86.23	
2025-01-22 23:45:46.66	60.32	86.31	
2025-01-22 23:45:46.86	61.43	86.38	
2025-01-22 23:45:47.06	62.59	86.46	
2025-01-22 23:45:47.27	63.86	86.53	
2025-01-22 23:45:47.47	65.12	86.60	
2025-01-22 23:45:47.68	66.50	86.67	
2025-01-22 23:45:47.89	67.94	86.74	
2025-01-22 23:45:48.09	69.37	86.81	
2025-01-22 23:45:48.29	70.86	86.87	
2025-01-22 23:45:48.50	72.48	86.93	
2025-01-22 23:45:48.70	74.09	86.99	
2025-01-22 23:45:48.91	75.85	87.05	
2025-01-22 23:45:49.11	77.59	87.10	
2025-01-22 23:45:49.32	79.48	87.15	
2025-01-22 23:45:49.53	81.44	87.20	
2025-01-22 23:45:49.73	83.36	87.24	
2025-01-22 23:45:49.93	85.35	87.28	
2025-01-22 23:45:50.14	87.50	87.32	
2025-01-22 23:45:50.34	89.60	87.36	
2025-01-22 23:45:50.54	91.76	87.39	
2025-01-22 23:45:50.74	93.96	87.41	
2025-01-22 23:45:50.94	96.20	87.43	
2025-01-22 23:45:51.15	98.59	87.45	
2025-01-22 23:45:51.35	100.89	87.47	
2025-01-22 23:45:51.56	103.34	87.48	
2025-01-22 23:45:51.76	105.68	87.48	
2025-01-22 23:45:51.98	108.26	87.48	
2025-01-22 23:45:52.19	110.72	87.48	
2025-01-22 23:45:52.39	113.05	87.47	
2025-01-22 23:45:52.60	115.48	87.46	
2025-01-22 23:45:52.81	117.88	87.44	
2025-01-22 23:45:53.02	120.24	87.42	
2025-01-22 23:45:53.22	122.45	87.39	
2025-01-22 23:45:53.42	124.62	87.36	
2025-01-22 23:45:53.63	126.84	87.33	
2025-01-22 23:45:53.83	128.90	87.29	
2025-01-22 23:45:54.05	131.10	87.25	
2025-01-22 23:45:54.26	133.13	87.21	
2025-01-22 23:45:54.47	135.10	87.16	
2025-01-22 23:45:54.67	136.91	87.11	
2025-01-22 23:45:54.87	138.66	87.06	
2025-01-22 23:45:55.08	140.42	87.00	
2025-01-22 23:45:55.29	142.12	86.94	
2025-01-22 23:45:55.50	143.75	86.88	
2025-01-22 23:45:55.71	145.32	86.81	
2025-01-22 23:45:55.92	146.82	86.74	
2025-01-22 23:45:56.13	148.26	86.67	
2025-01-22 23:45:56.34	149.64	86.60	
2025-01-22 23:45:56.54	150.90	86.53	
2025-01-22 23:45:56.75	152.17	86.46	
2025-01-22 23:45:56.96	153.39	86.38	
2025-01-22 23:45:57.16	154.50	86.30	
2025-01-22 23:45:57.37	155.62	86.22	
2025-01-22 23:45:57.57	156.64	86.15	
2025-01-22 23:45:57.77	157.62	86.07	
2025-01-22 23:45:57.98	158.61	85.99	
2025-01-22 23:45:58.20	159.60	85.90	
2025-01-22 23:45:58.41	160.51	85.81	
2025-01-22 23:45:58.61	161.34	85.73	
2025-01-22 23:45:58.82	162.18	85.64	
2025-01-22 23:45:59.03	162.98	85.55	
2025-01-22 23:45:59.23	163.72	85.47	
2025-01-22 23:45:59.43	164.43	85.38	
2025-01-22 23:45:59.64	165.15	85.29	
2025-01-22 23:45:59.85	165.84	85.20	
2025-01-22 23:46:00.05	166.47	85.11	
2025-01-22 23:46:00.26	167.11	85.02	
2025-01-22 23:46:00.47	167.73	84.93	
2025-01-22 23:46:00.67	168.29	84.84	
2025-01-22 23:46:00.88	168.87	84.74	
2025-01-22 23:46:01.08	169.39	84.65	
2025-01-22 23:46:01.28	169.90	84.56	
2025-01-22 23:46:01.49	170.42	84.47	
2025-01-22 23:46:01.70	170.92	84.37	
2025-01-22 23:46:01.90	171.38	84.28	
2025-01-22 23:46:02.11	171.85	84.18	
2025-01-22 23:46:02.32	172.30	84.08	
2025-01-22 23:46:02.53	172.74	83.99	
2025-01-22 23:46:02.74	173.16	83.89	
2025-01-22 23:46:02.94	173.55	83.80	
2025-01-22 23:46:03.15	173.95	83.70	
2025-01-22 23:46:03.36	174.34	83.60	
2025-01-22 23:46:03.57	174.71	83.50	
2025-01-22 23:46:03.77	175.06	83.41	
2025-01-22 23:46:03.98	175.41	83.31	
2025-01-22 23:46:04.18	175.74	83.21	
2025-01-22 23:46:04.40	176.08	83.11	
2025-01-22 23:46:04.60	176.39	83.01	
2025-01-22 23:46:04.81	176.71	82.91	
2025-01-22 23:46:05.02	177.01	82.81	
2025-01-22 23:46:05.22	177.29	82.72	
2025-01-22 23:46:05.43	177.58	82.62	
2025-01-22 23:46:05.64	177.86	82.52	
2025-01-22 23:46:05.85	178.14	82.42	
2025-01-22 23:46:06.05	178.39	82.32	
2025-01-22 23:46:06.26	178.65	82.22	
2025-01-22 23:46:06.47	178.90	82.12	
2025-01-22 23:46:06.69	179.16	82.01	
2025-01-22 23:46:06.90	179.40	81.91	
2025-01-22 23:46:07.12	179.65	81.80	
2025-01-22 23:46:07.33	179.87	81.70	
2025-01-22 23:46:07.54	180.10	81.60	
2025-01-22 23:46:07.75	180.31	81.50	
2025-01-22 23:46:07.95	180.52	81.40	
2025-01-22 23:46:08.16	180.72	81.30	
2025-01-22 23:46:08.36	180.92	81.20	
2025-01-22 23:46:08.57	181.11	81.10	
2025-01-22 23:46:08.77	181.30	81.01	
2025-01-22 23:46:08.98	181.49	80.90	
2025-01-22 23:46:09.18	181.66	80.81	
2025-01-22 23:46:09.39	181.85	80.70	
2025-01-22 23:46:09.59	182.01	80.61	
2025-01-22 23:46:09.79	182.18	80.51	
2025-01-22 23:46:10.00	182.35	80.41	
2025-01-22 23:46:10.20	182.51	80.31	
2025-01-22 23:46:10.40	182.66	80.21	
2025-01-22 23:46:10.61	182.82	80.11	
2025-01-22 23:46:10.81	182.97	80.01	
2025-01-22 23:46:11.01	183.12	79.92	
2025-01-22 23:46:11.21	183.26	79.82	
2025-01-22 23:46:11.42	183.41	79.72	
2025-01-22 23:46:11.62	183.55	79.62	
2025-01-22 23:46:11.82	183.68	79.52	
2025-01-22 23:46:12.03	183.82	79.42	
2025-01-22 23:46:12.25	183.96	79.31	
2025-01-22 23:46:12.45	184.09	79.21	
2025-01-22 23:46:12.66	184.22	79.11	
2025-01-22 23:46:12.86	184.34	79.01	
2025-01-22 23:46:13.07	184.47	78.91	
2025-01-22 23:46:13.28	184.59	78.81	
2025-01-22 23:46:13.49	184.72	78.71	
2025-01-22 23:46:13.70	184.84	78.60	
2025-01-22 23:46:13.90	184.95	78.51	
2025-01-22 23:46:14.11	185.06	78.40	
2025-01-22 23:46:14.32	185.18	78.30	
2025-01-22 23:46:14.52	185.28	78.20	
2025-01-22 23:46:14.74	185.40	78.10	
2025-01-22 23:46:14.94	185.50	78.00	
2025-01-22 23:46:15.14	185.60	77.90	
2025-01-22 23:46:15.35	185.70	77.80	
2025-01-22 23:46:15.55	185.80	77.70	
2025-01-22 23:46:15.76	185.90	77.60	
2025-01-22 23:46:15.96	186.00	77.50	
2025-01-22 23:46:16.17	186.09	77.40	
2025-01-22 23:46:16.37	186.19	77.31	
2025-01-22 23:46:16.58	186.28	77.20	
2025-01-22 23:46:16.78	186.37	77.11	
2025-01-22 23:46:16.98	186.46	77.01	
2025-01-22 23:46:17.19	186.55	76.91	
2025-01-22 23:46:17.39	186.63	76.81	
2025-01-22 23:46:17.60	186.72	76.71	
2025-01-22 23:46:17.81	186.80	76.61	
2025-01-22 23:46:18.02	186.89	76.50	
2025-01-22 23:46:18.23	186.97	76.40	
2025-01-22 23:46:18.44	187.05	76.30	
2025-01-22 23:46:18.64	187.13	76.20	
2025-01-22 23:46:18.85	187.21	76.10	
2025-01-22 23:46:19.05	187.29	76.01	
2025-01-22 23:46:19.25	187.36	75.91	
2025-01-22 23:46:19.45	187.43	75.81	
2025-01-22 23:46:19.66	187.51	75.71	
2025-01-22 23:46:19.86	187.58	75.62	
2025-01-22 23:46:20.06	187.65	75.52	
2025-01-22 23:46:20.27	187.72	75.42	
2025-01-22 23:46:20.47	187.79	75.32	
2025-01-22 23:46:20.68	187.86	75.22	
2025-01-22 23:46:20.89	187.93	75.12	
2025-01-22 23:46:21.09	187.99	75.02	
2025-01-22 23:46:21.29	188.06	74.93	
2025-01-22 23:46:21.50	188.12	74.83	
2025-01-22 23:46:21.70	188.19	74.73	
2025-01-22 23:46:21.91	188.25	74.63	
2025-01-22 23:46:22.12	188.31	74.53	
2025-01-22 23:46:22.32	188.37	74.43	
2025-01-22 23:46:22.53	188.44	74.33	
2025-01-22 23:46:22.73	188.49	74.24	
2025-01-22 23:46:22.93	188.55	74.14	
2025-01-22 23:46:23.14	188.61	74.04	
2025-01-22 23:46:23.34	188.67	73.94	
2025-01-22 23:46:23.55	188.73	73.84	
2025-01-22 23:46:23.77	188.79	73.74	
2025-01-22 23:46:23.98	188.84	73.64	
2025-01-22 23:46:24.18	188.90	73.54	
2025-01-22 23:46:24.38	188.95	73.45	
2025-01-22 23:46:24.60	189.01	73.34	
2025-01-22 23:46:24.80	189.06	73.25	
2025-01-22 23:46:25.01	189.11	73.15	
2025-01-22 23:46:25.21	189.16	73.05	
2025-01-22 23:46:25.41	189.21	72.96	
2025-01-22 23:46:25.62	189.27	72.86	
2025-01-22 23:46:25.83	189.32	72.76	
2025-01-22 23:46:26.05	189.37	72.66	
2025-01-22 23:46:26.26	189.42	72.56	
2025-01-22 23:46:26.47	189.47	72.46	
2025-01-22 23:46:26.68	189.52	72.36	
2025-01-22 23:46:26.88	189.56	72.26	
2025-01-22 23:46:27.08	189.61	72.17	
2025-01-22 23:46:27.29	189.66	72.07	
2025-01-22 23:46:27.50	189.70	71.97	
2025-01-22 23:46:27.71	189.75	71.87	
2025-01-22 23:46:27.91	189.79	71.78	
2025-01-22 23:46:28.11	189.83	71.69	
2025-01-22 23:46:28.32	189.88	71.59	
2025-01-22 23:46:28.52	189.92	71.49	
2025-01-22 23:46:28.73	189.96	71.39	
2025-01-22 23:46:28.93	190.01	71.30	
2025-01-22 23:46:29.14	190.05	71.20	
2025-01-22 23:46:29.34	190.09	71.11	
2025-01-22 23:46:29.55	190.13	71.01	
2025-01-22 23:46:29.75	190.17	70.92	
2025-01-22 23:46:29.95	190.21	70.82	
2025-01-22 23:46:30.17	190.25	70.72	
2025-01-22 23:46:30.37	190.29	70.63	
2025-01-22 23:46:30.58	190.33	70.53	
2025-01-22 23:46:30.78	190.37	70.44	
2025-01-22 23:46:30.99	190.40	70.34	
2025-01-22 23:46:31.20	190.44	70.24	

#Closed at: 2025-01-22 23:46:31