passes_logs/2026/01/01/T1/T1__20260101_112937_FENGYUN_3D_rec.log

#Pass ID: 20260101_112937_FENGYUN 3D
#Satellite: FENGYUN 3D
#Configuration: FENGYUN 3D
#almurnet v.1.7.20251203
#Start time: 2026-01-01 11:29:38

#Version: 2.0.20230620
#Station: T1
#Location: 37.570604 lon 55.790049 lat
#TLE: 1 43010U 17072A   25365.48527867  .00000101  00000+0  69745-4 0  9999
#TLE: 2 43010  98.9911 332.0787 0001837 134.4748 225.6578 14.19689788421190

#Time	Az	El	Level	Level2	SNR	BER	BlckErr	Temp	State	Recorded	gain1	gain2
2026-01-01 11:29:38.65	146.00	5.06	-51.6	-64.0	3.8	8.48e-01	0	37	0	0	74	15329
2026-01-01 11:29:41.64	145.94	5.27	-51.5	-63.9	3.8	8.46e-01	0	38	104	0	75	14339
2026-01-01 11:29:44.65	145.87	5.49	-51.6	-64.0	3.8	8.46e-01	0	38	104	0	75	14464
2026-01-01 11:29:47.65	145.80	5.70	-51.6	-64.0	3.8	8.47e-01	0	38	104	0	75	14462
2026-01-01 11:29:50.65	145.73	5.92	-51.6	-63.9	3.8	8.46e-01	0	38	104	0	75	14351
2026-01-01 11:29:53.66	145.65	6.15	-51.6	-63.9	3.8	8.47e-01	0	38	104	0	75	14362
2026-01-01 11:29:56.66	145.58	6.37	-51.7	-64.0	3.8	8.46e-01	0	38	104	0	75	14418
2026-01-01 11:29:59.67	145.50	6.60	-51.7	-63.9	3.8	8.46e-01	0	38	104	0	75	14369
2026-01-01 11:30:02.68	145.43	6.82	-51.7	-63.9	3.8	8.48e-01	0	39	104	0	75	14340
2026-01-01 11:30:05.68	145.35	7.05	-51.8	-64.0	3.8	8.47e-01	0	38	104	0	75	14425
2026-01-01 11:30:08.68	145.27	7.28	-51.8	-63.9	3.8	8.47e-01	0	39	104	0	75	14329
2026-01-01 11:30:11.68	145.19	7.52	-51.8	-63.9	3.8	8.47e-01	0	39	104	0	75	14276
2026-01-01 11:30:14.68	145.11	7.75	-51.8	-63.9	3.8	8.46e-01	0	39	104	0	75	14282
2026-01-01 11:30:17.68	145.03	7.99	-51.8	-63.9	3.8	8.47e-01	0	39	104	0	75	14292
2026-01-01 11:30:20.67	144.94	8.23	-51.9	-64.0	3.8	8.46e-01	0	39	104	0	75	14504
2026-01-01 11:30:23.67	144.86	8.47	-51.8	-64.0	3.8	8.47e-01	0	39	104	0	75	14398
2026-01-01 11:30:26.67	144.77	8.71	-51.8	-63.9	3.8	8.47e-01	0	39	104	0	75	14283
2026-01-01 11:30:29.68	144.68	8.96	-51.8	-63.9	3.8	8.48e-01	0	39	104	0	75	14298
2026-01-01 11:30:32.68	144.59	9.21	-51.8	-63.9	3.8	8.48e-01	0	39	104	0	75	14336
2026-01-01 11:30:35.67	144.50	9.46	-51.8	-63.9	3.8	8.46e-01	0	39	104	0	75	14357
2026-01-01 11:30:38.69	144.40	9.72	-51.8	-63.9	3.8	8.46e-01	0	39	104	0	75	14373
2026-01-01 11:30:41.70	144.31	9.97	-51.8	-63.9	3.8	8.47e-01	0	39	104	0	75	14293
2026-01-01 11:30:44.70	144.21	10.23	-51.8	-63.9	3.8	8.47e-01	0	39	104	0	75	14329
2026-01-01 11:30:47.70	144.11	10.49	-51.8	-63.9	3.8	8.46e-01	0	40	104	0	75	14306
2026-01-01 11:30:50.71	144.01	10.76	-51.8	-63.9	3.8	8.47e-01	0	40	104	0	75	14243
2026-01-01 11:30:53.71	143.90	11.03	-51.9	-64.0	3.8	8.46e-01	0	39	104	0	75	14418
2026-01-01 11:30:56.70	143.80	11.30	-51.9	-63.9	3.8	8.47e-01	0	40	104	0	75	14323
2026-01-01 11:30:59.70	143.69	11.57	-51.8	-63.9	3.8	8.46e-01	0	40	104	0	75	14283
2026-01-01 11:31:02.70	143.58	11.84	-51.9	-64.0	3.8	8.48e-01	0	39	104	0	75	14383
2026-01-01 11:31:05.69	143.47	12.12	-51.9	-63.9	3.8	8.47e-01	0	39	104	0	75	14332
2026-01-01 11:31:08.68	143.35	12.40	-51.9	-63.9	3.8	8.47e-01	0	39	104	0	75	14334
2026-01-01 11:31:11.69	143.24	12.69	-51.9	-64.0	3.8	8.47e-01	0	40	104	0	75	14396
2026-01-01 11:31:14.69	143.12	12.98	-51.9	-63.9	3.8	8.47e-01	0	40	104	0	75	14273
2026-01-01 11:31:17.69	143.00	13.27	-51.8	-63.9	3.8	8.47e-01	0	40	104	0	75	14276
2026-01-01 11:31:20.70	142.87	13.57	-51.9	-63.9	3.8	8.47e-01	0	40	104	0	75	14275
2026-01-01 11:31:23.69	142.74	13.86	-51.9	-63.9	3.8	8.48e-01	0	40	104	0	75	14281
2026-01-01 11:31:26.69	142.61	14.17	-51.9	-63.9	3.8	8.47e-01	0	40	104	0	75	14329
2026-01-01 11:31:29.70	142.48	14.47	-51.9	-63.9	3.8	8.47e-01	0	40	104	0	75	14310
2026-01-01 11:31:32.70	142.35	14.78	-51.8	-63.9	3.8	8.48e-01	0	40	104	0	75	14280
2026-01-01 11:31:35.70	142.21	15.10	-51.8	-63.9	3.8	8.47e-01	0	40	104	0	75	14267
2026-01-01 11:31:38.70	142.06	15.41	-51.8	-63.9	3.8	8.48e-01	0	40	104	0	75	14306
2026-01-01 11:31:41.71	141.92	15.73	-51.8	-63.9	3.8	8.47e-01	0	40	104	0	75	14319
2026-01-01 11:31:44.71	141.77	16.06	-51.8	-63.9	3.8	8.47e-01	0	40	104	0	75	14330
2026-01-01 11:31:47.72	141.62	16.39	-51.8	-63.9	3.8	8.47e-01	0	40	104	0	75	14313
2026-01-01 11:31:50.72	141.46	16.72	-51.8	-63.8	3.8	8.47e-01	0	40	104	0	75	14209
2026-01-01 11:31:53.72	141.30	17.06	-51.8	-63.9	3.8	8.47e-01	0	40	104	0	75	14217
2026-01-01 11:31:56.72	141.14	17.41	-51.9	-63.9	3.8	8.47e-01	0	40	104	0	75	14335
2026-01-01 11:31:59.72	140.97	17.75	-51.9	-63.9	3.8	8.47e-01	0	40	104	0	75	14262
2026-01-01 11:32:02.73	140.80	18.11	-51.8	-63.9	3.8	8.47e-01	0	40	104	0	75	14255
2026-01-01 11:32:05.74	140.63	18.46	-51.9	-63.9	3.8	8.47e-01	0	40	104	0	75	14332
2026-01-01 11:32:08.74	140.45	18.83	-51.9	-63.9	3.8	8.47e-01	0	40	104	0	75	14317
2026-01-01 11:32:11.75	140.26	19.19	-51.8	-63.9	3.8	8.47e-01	0	40	104	0	75	14305
2026-01-01 11:32:14.75	140.07	19.57	-51.8	-63.9	3.8	8.47e-01	0	40	104	0	75	14311
2026-01-01 11:32:17.73	139.88	19.94	-51.8	-63.9	3.8	8.46e-01	0	40	104	0	75	14281
2026-01-01 11:32:20.73	139.68	20.33	-51.8	-63.8	3.8	8.47e-01	0	40	104	0	75	14206
2026-01-01 11:32:23.72	139.48	20.71	-51.8	-63.9	3.8	8.47e-01	0	40	104	0	75	14230
2026-01-01 11:32:26.73	139.27	21.11	-51.8	-63.9	3.8	8.48e-01	0	40	104	0	75	14289
2026-01-01 11:32:29.74	139.05	21.51	-51.8	-63.8	3.8	8.47e-01	0	40	104	0	75	14189
2026-01-01 11:32:32.74	138.83	21.91	-51.7	-63.8	3.8	8.46e-01	0	40	104	0	75	14184
2026-01-01 11:32:35.75	138.60	22.33	-51.8	-63.9	3.8	8.47e-01	0	40	104	0	75	14229
2026-01-01 11:32:38.75	138.37	22.75	-51.8	-63.9	3.8	8.46e-01	0	40	104	0	75	14307
2026-01-01 11:32:41.77	138.13	23.17	-51.7	-63.9	3.8	8.47e-01	0	40	104	0	75	14267
2026-01-01 11:32:44.77	137.88	23.61	-51.7	-63.8	3.8	8.47e-01	0	40	104	0	75	14193
2026-01-01 11:32:47.78	137.63	24.04	-51.8	-63.9	3.8	8.47e-01	0	40	104	0	75	14325
2026-01-01 11:32:50.79	137.37	24.49	-51.8	-63.9	3.8	8.47e-01	0	40	104	0	75	14286
2026-01-01 11:32:53.79	137.10	24.94	-51.8	-63.9	3.8	8.45e-01	0	40	104	0	75	14214
2026-01-01 11:32:56.79	136.82	25.40	-51.8	-63.9	3.8	8.47e-01	0	40	104	0	75	14353
2026-01-01 11:32:59.80	136.53	25.87	-51.8	-63.9	3.8	8.47e-01	0	40	104	0	75	14250
2026-01-01 11:33:02.80	136.24	26.34	-51.8	-63.8	3.8	8.47e-01	0	40	104	0	75	14162
2026-01-01 11:33:05.81	135.93	26.83	-51.8	-63.9	3.8	8.46e-01	0	40	104	0	75	14231
2026-01-01 11:33:08.81	135.62	27.31	-51.8	-63.9	3.8	8.47e-01	0	40	104	0	75	14228
2026-01-01 11:33:11.82	135.29	27.81	-51.8	-63.9	3.8	8.47e-01	0	40	104	0	75	14267
2026-01-01 11:33:14.81	134.96	28.32	-51.7	-63.9	3.8	8.48e-01	0	40	104	0	75	14250
2026-01-01 11:33:17.81	134.62	28.83	-51.7	-63.9	3.8	8.46e-01	0	40	104	0	75	14238
2026-01-01 11:33:20.80	134.26	29.35	-51.7	-63.9	3.8	8.46e-01	0	40	104	0	75	14269
2026-01-01 11:33:23.80	133.89	29.88	-51.7	-63.9	3.8	8.48e-01	0	40	104	0	75	14296
2026-01-01 11:33:26.81	133.51	30.42	-51.6	-63.9	3.8	8.46e-01	0	40	104	0	75	14250
2026-01-01 11:33:29.81	133.12	30.97	-51.6	-63.9	3.8	8.46e-01	0	40	104	0	75	14247
2026-01-01 11:33:32.81	132.71	31.52	-51.6	-63.8	3.8	8.47e-01	0	40	104	0	75	14197
2026-01-01 11:33:35.80	132.28	32.08	-51.6	-63.8	3.8	8.48e-01	0	40	104	0	75	14185
2026-01-01 11:33:38.79	131.85	32.66	-51.5	-63.8	3.8	8.46e-01	0	40	104	0	75	14185
2026-01-01 11:33:41.78	131.39	33.24	-51.5	-63.8	3.8	8.47e-01	0	40	104	0	75	14167
2026-01-01 11:33:44.78	130.92	33.83	-51.5	-63.8	3.8	8.47e-01	0	40	104	0	75	14147
2026-01-01 11:33:47.78	130.43	34.43	-51.5	-63.9	3.8	8.46e-01	0	40	104	0	75	14300
2026-01-01 11:33:50.77	129.93	35.04	-51.5	-63.9	3.8	8.47e-01	0	40	104	0	75	14270
2026-01-01 11:33:53.77	129.40	35.66	-51.6	-63.8	3.8	8.47e-01	0	40	104	0	75	14194
2026-01-01 11:33:56.76	128.85	36.29	-51.6	-63.9	3.8	8.49e-01	0	40	104	0	75	14280
2026-01-01 11:33:59.76	128.28	36.92	-51.6	-63.8	3.8	8.47e-01	0	40	104	0	75	14196
2026-01-01 11:34:02.74	127.69	37.57	-51.6	-63.8	3.8	8.46e-01	0	40	104	0	75	14200
2026-01-01 11:34:05.74	127.07	38.22	-51.6	-63.8	3.8	8.48e-01	0	40	104	0	75	14171
2026-01-01 11:34:08.75	126.43	38.89	-51.6	-63.8	3.8	8.46e-01	0	40	104	0	75	14160
2026-01-01 11:34:11.75	125.76	39.57	-51.7	-63.9	3.8	8.47e-01	0	40	104	0	75	14299
2026-01-01 11:34:14.76	125.05	40.25	-51.7	-63.9	3.8	8.46e-01	0	40	104	0	75	14315
2026-01-01 11:34:17.76	124.32	40.94	-51.8	-63.9	3.8	8.46e-01	0	40	104	0	75	14260
2026-01-01 11:34:20.76	123.56	41.64	-51.7	-63.8	3.8	8.46e-01	0	40	104	0	75	14197
2026-01-01 11:34:23.76	122.76	42.35	-51.8	-64.0	3.8	8.47e-01	0	40	104	0	75	14442
2026-01-01 11:34:26.77	121.93	43.06	-51.8	-63.9	3.8	8.45e-01	0	40	104	0	75	14368
2026-01-01 11:34:29.78	121.05	43.78	-51.8	-63.9	3.8	8.47e-01	0	40	104	0	75	14231
2026-01-01 11:34:32.79	120.13	44.51	-51.8	-63.9	3.8	8.46e-01	0	40	104	0	75	14327
2026-01-01 11:34:35.80	119.17	45.24	-51.7	-63.8	3.8	8.48e-01	0	40	104	0	75	14202
2026-01-01 11:34:38.80	118.17	45.98	-51.8	-63.9	3.8	8.49e-01	0	40	104	0	75	14251
2026-01-01 11:34:41.80	117.12	46.71	-51.8	-63.9	3.8	8.47e-01	0	40	104	0	75	14262
2026-01-01 11:34:44.81	116.02	47.45	-51.9	-63.9	3.8	8.48e-01	0	40	104	0	75	14339
2026-01-01 11:34:47.82	114.86	48.20	-51.8	-64.0	3.8	8.47e-01	0	40	104	0	75	14523
2026-01-01 11:34:50.83	113.64	48.94	-51.7	-64.0	3.8	8.47e-01	0	40	104	0	74	15335
2026-01-01 11:34:53.84	112.37	49.68	-51.7	-64.0	3.8	8.46e-01	0	40	104	0	74	15357
2026-01-01 11:34:56.84	111.03	50.41	-51.7	-64.0	3.8	8.48e-01	0	40	104	0	74	15255
2026-01-01 11:34:59.84	109.63	51.13	-51.7	-64.0	3.8	8.48e-01	0	40	104	0	74	15253
2026-01-01 11:35:02.83	108.16	51.85	-51.7	-64.0	3.8	8.48e-01	0	40	104	0	74	15343
2026-01-01 11:35:05.83	106.62	52.56	-51.9	-64.1	3.8	8.47e-01	0	40	104	0	74	15439
2026-01-01 11:35:08.83	105.00	53.25	-51.9	-63.9	3.8	8.46e-01	0	40	104	0	74	15223
2026-01-01 11:35:11.83	103.31	53.93	-52.0	-64.0	3.8	8.46e-01	0	40	104	0	74	15333
2026-01-01 11:35:14.83	101.53	54.60	-51.9	-63.9	3.8	8.46e-01	0	40	104	0	74	15165
2026-01-01 11:35:17.84	99.66	55.24	-51.8	-63.8	3.8	8.48e-01	0	40	104	0	74	14998
2026-01-01 11:35:20.84	97.71	55.86	-51.8	-63.9	3.8	8.48e-01	0	40	104	0	74	15067
2026-01-01 11:35:23.83	95.68	56.45	-51.8	-63.9	3.8	8.47e-01	0	40	104	0	74	15209
2026-01-01 11:35:26.83	93.56	57.01	-51.8	-64.0	3.8	8.46e-01	0	40	104	0	74	15241
2026-01-01 11:35:29.82	91.37	57.53	-51.8	-64.0	3.8	8.47e-01	0	40	104	0	74	15237
2026-01-01 11:35:32.83	89.07	58.02	-51.7	-63.9	3.8	8.46e-01	0	40	104	0	74	15158
2026-01-01 11:35:35.83	86.70	58.47	-51.7	-63.9	3.8	8.47e-01	0	40	104	0	74	15089
2026-01-01 11:35:38.84	84.24	58.87	-51.8	-63.9	3.8	8.47e-01	0	40	104	0	74	15219
2026-01-01 11:35:41.85	81.71	59.23	-51.7	-63.9	3.8	8.47e-01	0	40	104	0	74	15153
2026-01-01 11:35:44.86	79.12	59.54	-51.7	-63.9	3.8	8.48e-01	0	40	104	0	74	15153
2026-01-01 11:35:47.86	76.48	59.79	-51.7	-63.9	3.8	8.45e-01	0	40	104	0	74	15200
2026-01-01 11:35:50.87	73.78	59.98	-51.7	-63.9	3.8	8.47e-01	0	40	104	0	74	15138
2026-01-01 11:35:53.88	71.05	60.12	-51.7	-63.9	3.8	8.47e-01	0	40	104	0	74	15138
2026-01-01 11:35:56.88	68.31	60.20	-51.8	-63.9	3.8	8.47e-01	0	40	104	0	74	15209
2026-01-01 11:35:59.89	65.54	60.22	-51.8	-63.9	3.8	8.47e-01	0	40	104	0	74	15216
2026-01-01 11:36:02.89	62.79	60.19	-51.8	-64.0	3.8	8.46e-01	0	40	104	0	74	15261
2026-01-01 11:36:05.90	60.04	60.09	-51.7	-63.9	3.8	8.47e-01	0	40	104	0	74	15165
2026-01-01 11:36:08.90	57.33	59.93	-51.7	-63.9	3.8	8.47e-01	0	40	104	0	74	15215
2026-01-01 11:36:11.90	54.66	59.72	-51.7	-63.9	3.8	8.48e-01	0	40	104	0	74	15175
2026-01-01 11:36:14.91	52.03	59.45	-51.7	-63.9	3.8	8.46e-01	0	40	104	0	74	15166
2026-01-01 11:36:17.92	49.45	59.13	-51.7	-63.9	3.8	8.47e-01	0	40	104	0	74	15082
2026-01-01 11:36:20.92	46.96	58.76	-51.7	-63.9	3.8	8.47e-01	0	40	104	0	74	15180
2026-01-01 11:36:23.92	44.53	58.34	-51.8	-64.0	3.8	8.46e-01	0	40	104	0	74	15261
2026-01-01 11:36:26.93	42.18	57.88	-51.7	-63.9	3.8	8.46e-01	0	40	104	0	74	15138
2026-01-01 11:36:29.94	39.91	57.38	-51.7	-63.9	3.8	8.47e-01	0	40	104	0	74	15098
2026-01-01 11:36:32.94	37.73	56.85	-51.7	-63.9	3.8	8.47e-01	0	40	104	0	74	15204
2026-01-01 11:36:35.95	35.64	56.28	-51.7	-63.9	3.8	8.46e-01	0	40	104	0	74	15189
2026-01-01 11:36:38.96	33.63	55.68	-51.7	-64.0	3.8	8.48e-01	0	40	104	0	74	15272
2026-01-01 11:36:41.96	31.71	55.05	-51.7	-63.9	3.8	8.47e-01	0	40	104	0	74	15097
2026-01-01 11:36:44.97	29.87	54.40	-51.8	-63.9	3.8	8.47e-01	0	40	104	0	74	15218
2026-01-01 11:36:47.97	28.12	53.74	-51.8	-63.9	3.8	8.47e-01	0	40	104	0	74	15221
2026-01-01 11:36:50.96	26.46	53.06	-51.7	-63.9	3.8	8.47e-01	0	40	104	0	74	15118
2026-01-01 11:36:53.96	24.86	52.36	-51.7	-63.9	3.8	8.46e-01	0	40	104	0	74	15119
2026-01-01 11:36:56.97	23.34	51.65	-51.7	-63.9	3.8	8.46e-01	0	40	104	0	74	15066
2026-01-01 11:36:59.98	21.89	50.93	-51.7	-63.9	3.8	8.46e-01	0	40	104	0	74	15140
2026-01-01 11:37:02.98	20.51	50.20	-51.7	-63.9	3.8	8.48e-01	0	40	104	0	74	15140
2026-01-01 11:37:05.99	19.20	49.47	-51.7	-63.9	3.8	8.47e-01	0	40	104	0	74	15192
2026-01-01 11:37:08.99	17.95	48.73	-51.7	-63.9	3.8	8.46e-01	0	40	104	0	74	15178
2026-01-01 11:37:12.00	16.75	47.99	-51.7	-63.9	3.8	8.47e-01	0	40	104	0	74	15174
2026-01-01 11:37:15.01	15.61	47.25	-51.7	-63.9	3.8	8.45e-01	0	40	104	0	74	15192
2026-01-01 11:37:18.02	14.53	46.51	-51.7	-64.0	3.8	8.47e-01	0	40	104	0	74	15278
2026-01-01 11:37:21.02	13.49	45.78	-51.7	-63.9	3.8	8.47e-01	0	40	104	0	74	15188
2026-01-01 11:37:24.02	12.51	45.05	-51.8	-64.0	3.8	8.47e-01	0	40	104	0	74	15322
2026-01-01 11:37:27.02	11.57	44.33	-51.8	-63.9	3.8	8.47e-01	0	40	104	0	74	15204
2026-01-01 11:37:30.02	10.67	43.61	-51.8	-64.0	3.8	8.47e-01	0	40	104	0	74	15324
2026-01-01 11:37:33.03	9.81	42.89	-51.7	-64.0	3.8	8.48e-01	0	40	104	0	74	15238
2026-01-01 11:37:36.04	8.99	42.18	-51.7	-64.0	3.8	8.47e-01	0	40	104	0	74	15230
2026-01-01 11:37:39.05	8.20	41.47	-51.8	-64.1	3.8	8.47e-01	0	40	104	0	74	15435
2026-01-01 11:37:42.06	7.45	40.78	-51.7	-64.0	3.8	8.46e-01	0	40	104	0	74	15253
2026-01-01 11:37:45.08	6.72	40.09	-51.7	-64.0	3.8	8.47e-01	0	40	104	0	74	15254
2026-01-01 11:37:48.09	6.03	39.41	-51.7	-64.0	3.8	8.47e-01	0	40	104	0	74	15287
2026-01-01 11:37:51.10	5.37	38.74	-51.7	-64.0	3.8	8.46e-01	0	40	104	0	74	15274
2026-01-01 11:37:54.10	4.73	38.08	-51.7	-64.0	3.8	8.45e-01	0	40	104	0	74	15235
2026-01-01 11:37:57.11	4.12	37.42	-51.7	-63.9	3.8	8.47e-01	0	40	104	0	74	15211
2026-01-01 11:38:00.11	3.54	36.78	-51.8	-63.9	3.8	8.46e-01	0	40	104	0	74	15210
2026-01-01 11:38:03.09	2.98	36.15	-51.8	-64.0	3.8	8.47e-01	0	40	104	0	74	15283
2026-01-01 11:38:06.08	2.44	35.53	-51.8	-64.0	3.8	8.47e-01	0	40	104	0	74	15274
2026-01-01 11:38:09.08	1.92	34.92	-51.7	-63.9	3.8	8.48e-01	0	40	104	0	74	15192
2026-01-01 11:38:12.07	1.43	34.31	-51.8	-63.9	3.8	8.48e-01	0	40	104	0	74	15208
2026-01-01 11:38:15.07	0.94	33.72	-51.7	-63.9	3.8	8.47e-01	0	40	104	0	74	15151
2026-01-01 11:38:18.08	0.48	33.13	-51.8	-64.0	3.8	8.47e-01	0	40	104	0	74	15270
2026-01-01 11:38:21.08	0.03	32.55	-51.8	-64.0	3.8	8.47e-01	0	40	104	0	74	15279
2026-01-01 11:38:24.08	359.60	31.98	-51.6	-64.0	3.8	8.46e-01	0	40	104	0	74	15284
2026-01-01 11:38:27.10	359.18	31.42	-51.7	-64.0	3.8	8.47e-01	0	40	104	0	74	15358
2026-01-01 11:38:30.10	358.78	30.87	-51.7	-63.9	3.8	8.47e-01	0	40	104	0	74	15198
2026-01-01 11:38:33.09	358.39	30.33	-51.7	-64.0	3.8	8.47e-01	0	40	104	0	74	15276
2026-01-01 11:38:36.09	358.02	29.79	-51.8	-64.0	3.8	8.47e-01	0	40	104	0	74	15264
2026-01-01 11:38:39.10	357.65	29.27	-51.8	-64.0	3.8	8.47e-01	0	40	104	0	74	15338
2026-01-01 11:38:42.11	357.30	28.75	-52.0	-64.1	3.8	8.48e-01	0	40	104	0	74	15451
2026-01-01 11:38:45.12	356.96	28.24	-52.0	-64.0	3.8	8.47e-01	0	40	104	0	74	15399
2026-01-01 11:38:48.14	356.63	27.74	-51.9	-64.0	3.8	8.47e-01	0	40	104	0	74	15322
2026-01-01 11:38:51.14	356.31	27.24	-51.9	-64.0	3.8	8.47e-01	0	40	104	0	74	15349
2026-01-01 11:38:54.15	356.00	26.76	-51.6	-64.0	3.8	8.46e-01	0	40	104	0	74	15309
2026-01-01 11:38:57.16	355.70	26.28	-51.3	-63.8	3.8	8.47e-01	0	40	104	0	74	14977
2026-01-01 11:39:00.16	355.41	25.81	-50.2	-58.9	4.6	8.26e-01	0	40	0	0	72	9526
2026-01-01 11:39:03.16	355.13	25.35	-40.6	-42.5	19.8	0.00e+00	0	40	0	9437184	53	4339
2026-01-01 11:39:06.16	354.86	24.89	-39.1	-40.8	21.5	0.00e+00	0	40	0	26214400	50	4242
2026-01-01 11:39:09.15	354.60	24.45	-38.6	-40.3	22.0	0.00e+00	0	40	0	42991616	49	4231
2026-01-01 11:39:12.15	354.34	24.00	-38.6	-40.4	21.9	0.00e+00	0	40	0	59768832	49	4245
2026-01-01 11:39:15.14	354.09	23.57	-38.7	-40.4	21.9	0.00e+00	0	40	0	76546048	49	4279
2026-01-01 11:39:18.14	353.85	23.14	-38.7	-40.3	21.9	0.00e+00	0	40	0	93323264	49	4241
2026-01-01 11:39:21.14	353.61	22.72	-38.6	-40.3	22.0	0.00e+00	0	40	0	110100480	49	4221
2026-01-01 11:39:24.14	353.38	22.31	-38.7	-40.4	21.9	0.00e+00	0	40	0	127926272	49	4262
2026-01-01 11:39:27.14	353.16	21.90	-38.9	-40.6	21.7	0.00e+00	0	40	0	144703488	49	4384
2026-01-01 11:39:30.13	352.94	21.50	-39.1	-40.9	21.5	0.00e+00	0	40	0	161480704	49	4518
2026-01-01 11:39:33.13	352.73	21.10	-39.2	-41.0	21.3	0.00e+00	0	40	0	178257920	49	4550
2026-01-01 11:39:36.13	352.53	20.71	-39.1	-40.9	21.3	0.00e+00	0	40	0	195035136	49	4534
2026-01-01 11:39:39.13	352.33	20.32	-39.1	-40.9	21.4	0.00e+00	0	40	0	211812352	49	4522
2026-01-01 11:39:42.13	352.13	19.94	-39.1	-40.9	21.4	0.00e+00	0	40	0	228589568	49	4499
2026-01-01 11:39:45.13	351.94	19.57	-39.0	-40.7	21.5	0.00e+00	0	40	0	245366784	49	4438
2026-01-01 11:39:48.12	351.76	19.20	-39.1	-40.8	21.5	0.00e+00	0	40	0	262144000	49	4479
2026-01-01 11:39:51.12	351.58	18.84	-39.2	-40.9	21.3	0.00e+00	0	40	0	278921216	49	4541
2026-01-01 11:39:54.12	351.40	18.48	-39.4	-41.2	21.1	0.00e+00	0	40	0	295698432	49	4672
2026-01-01 11:39:57.12	351.23	18.12	-39.7	-41.5	20.8	0.00e+00	0	40	0	313524224	49	4834
2026-01-01 11:40:00.12	351.06	17.77	-39.9	-41.8	20.6	0.00e+00	0	40	0	330301440	50	4709
2026-01-01 11:40:03.12	350.90	17.43	-40.0	-41.9	20.4	0.00e+00	0	40	0	347078656	50	4762
2026-01-01 11:40:06.12	350.74	17.09	-40.1	-41.9	20.4	0.00e+00	0	40	0	363855872	50	4803
2026-01-01 11:40:09.12	350.59	16.75	-40.2	-42.0	20.3	0.00e+00	0	40	0	380633088	51	4590
2026-01-01 11:40:12.11	350.43	16.42	-40.3	-42.1	20.2	0.00e+00	0	40	0	397410304	51	4634
2026-01-01 11:40:15.11	350.29	16.09	-40.3	-42.2	20.1	0.00e+00	0	40	0	414187520	51	4667
2026-01-01 11:40:18.11	350.14	15.77	-40.3	-42.2	20.1	0.00e+00	0	40	0	430964736	51	4681
2026-01-01 11:40:21.12	350.00	15.45	-40.4	-42.3	20.0	0.00e+00	0	40	0	447741952	51	4744
2026-01-01 11:40:24.12	349.86	15.14	-40.5	-42.5	19.8	0.00e+00	0	40	0	464519168	51	4819
2026-01-01 11:40:27.11	349.73	14.83	-40.6	-42.6	19.8	0.00e+00	0	40	0	481296384	51	4883
2026-01-01 11:40:30.12	349.59	14.52	-40.6	-42.6	19.7	0.00e+00	0	40	0	499122176	52	4613
2026-01-01 11:40:33.12	349.46	14.21	-40.7	-42.7	19.5	0.00e+00	0	40	0	515899392	52	4654
2026-01-01 11:40:36.13	349.34	13.91	-40.5	-42.5	19.6	0.00e+00	0	40	0	532676608	52	4578
2026-01-01 11:40:39.13	349.21	13.61	-40.8	-42.7	19.5	0.00e+00	0	40	0	549453824	52	4688
2026-01-01 11:40:42.14	349.09	13.32	-40.8	-42.7	19.5	0.00e+00	0	40	0	566231040	52	4684
2026-01-01 11:40:45.15	348.97	13.03	-40.8	-42.7	19.4	0.00e+00	0	40	0	583008256	52	4686
2026-01-01 11:40:48.16	348.86	12.74	-40.9	-42.9	19.3	0.00e+00	0	40	0	599785472	52	4775
2026-01-01 11:40:51.16	348.74	12.46	-40.8	-42.9	19.3	0.00e+00	0	40	0	616562688	52	4798
2026-01-01 11:40:54.17	348.63	12.18	-40.7	-42.9	19.2	0.00e+00	0	40	0	634388480	52	4810
2026-01-01 11:40:57.18	348.52	11.90	-40.7	-43.1	19.1	0.00e+00	0	40	0	651165696	52	4871
2026-01-01 11:41:00.17	348.42	11.63	-40.8	-43.2	19.0	0.00e+00	0	40	0	667942912	52	4938
2026-01-01 11:41:03.18	348.31	11.35	-41.0	-43.1	19.1	0.00e+00	0	40	0	684720128	52	4893
2026-01-01 11:41:06.18	348.21	11.09	-41.0	-43.0	19.1	0.00e+00	0	40	0	701497344	52	4860
2026-01-01 11:41:09.18	348.11	10.82	-41.0	-43.1	19.0	0.00e+00	0	40	0	718274560	52	4871
2026-01-01 11:41:12.19	348.01	10.56	-41.1	-43.2	18.9	0.00e+00	0	40	0	735051776	52	4980
2026-01-01 11:41:15.18	347.91	10.30	-41.1	-43.2	18.9	0.00e+00	0	40	0	751828992	53	4685
2026-01-01 11:41:18.19	347.82	10.04	-41.1	-43.3	18.8	0.00e+00	0	40	0	768606208	53	4741
2026-01-01 11:41:21.19	347.73	9.78	-41.3	-43.5	18.6	0.00e+00	0	40	0	785383424	53	4819
2026-01-01 11:41:24.19	347.64	9.53	-41.3	-43.4	18.6	0.00e+00	0	40	0	802160640	53	4814
2026-01-01 11:41:27.20	347.55	9.28	-41.5	-43.6	18.5	0.00e+00	0	40	0	819986432	53	4900
2026-01-01 11:41:30.20	347.46	9.03	-41.8	-43.9	18.2	0.00e+00	0	40	0	836763648	54	4764
2026-01-01 11:41:33.20	347.37	8.79	-49.5	-63.8	3.8	8.46e-01	0	40	104	840957952	71	17831
2026-01-01 11:41:36.21	347.29	8.54	-51.5	-63.9	3.8	8.48e-01	0	40	104	840957952	73	16114
2026-01-01 11:41:39.22	347.21	8.30	-51.4	-64.1	3.8	8.46e-01	0	40	104	840957952	74	15484
2026-01-01 11:41:42.23	347.13	8.06	-51.6	-64.1	3.8	8.46e-01	0	40	104	840957952	74	15548
2026-01-01 11:41:45.24	347.05	7.83	-52.0	-64.2	3.8	8.46e-01	0	40	104	840957952	74	15587
2026-01-01 11:41:48.25	346.97	7.59	-52.0	-64.1	3.8	8.47e-01	0	40	104	840957952	74	15554
2026-01-01 11:41:51.26	346.89	7.36	-51.9	-64.1	3.8	8.48e-01	0	40	104	840957952	74	15573
2026-01-01 11:41:54.28	346.82	7.13	-52.0	-64.1	3.8	8.46e-01	0	40	104	840957952	74	15491
2026-01-01 11:41:57.29	346.74	6.90	-51.6	-64.0	3.8	8.48e-01	0	40	104	840957952	74	15380
2026-01-01 11:42:00.29	346.67	6.67	-51.7	-64.0	3.8	8.47e-01	0	40	104	840957952	74	15352
2026-01-01 11:42:03.30	346.60	6.45	-51.8	-64.1	3.8	8.46e-01	0	40	104	840957952	74	15449
2026-01-01 11:42:06.31	346.53	6.22	-51.7	-64.0	3.8	8.48e-01	0	40	104	840957952	74	15383
2026-01-01 11:42:09.32	346.46	6.00	-51.7	-64.0	3.8	8.47e-01	0	40	104	840957952	74	15372
2026-01-01 11:42:12.33	346.39	5.78	-51.7	-64.0	3.8	8.46e-01	0	40	104	840957952	74	15380
2026-01-01 11:42:15.34	346.33	5.57	-51.7	-64.0	3.8	8.46e-01	0	40	104	840957952	74	15296
2026-01-01 11:42:18.34	346.26	5.35	-51.7	-64.0	3.8	8.47e-01	0	40	104	840957952	74	15346
2026-01-01 11:42:21.35	346.20	5.14	-51.7	-64.0	3.8	8.47e-01	0	40	104	840957952	74	15243

#Closed at: 2026-01-01 11:42:24
#Recorded file [840 MB]: D:/Data/31040_260101_142938.dat