passes_logs/2026/01/01/T1/T1__20260101_050051_FENGYUN_3D_rec.log

#Pass ID: 20260101_050051_FENGYUN 3D
#Satellite: FENGYUN 3D
#Configuration: FENGYUN 3D
#almurnet v.1.7.20251203
#Start time: 2026-01-01 05:00:53

#Version: 2.0.20230620
#Station: T1
#Location: 37.570604 lon 55.790049 lat
#TLE: 1 43010U 17072A   25365.48527867  .00000101  00000+0  69745-4 0  9999
#TLE: 2 43010  98.9911 332.0787 0001837 134.4748 225.6578 14.19689788421190

#Time	Az	El	Level	Level2	SNR	BER	BlckErr	Temp	State	Recorded	gain1	gain2
2026-01-01 05:00:53.35	356.27	5.06	-52.3	-64.6	3.8	8.46e-01	0	39	0	0	75	15418
2026-01-01 05:00:55.35	355.99	5.12	-52.3	-64.6	3.8	8.46e-01	0	40	104	0	76	14573
2026-01-01 05:00:57.36	355.72	5.18	-52.4	-64.7	3.8	8.48e-01	0	40	104	0	76	14752
2026-01-01 05:00:59.37	355.44	5.23	-52.4	-64.6	3.8	8.45e-01	0	40	104	0	76	14687
2026-01-01 05:01:01.38	355.16	5.29	-52.4	-64.6	3.8	8.48e-01	0	40	104	0	76	14649
2026-01-01 05:01:03.38	354.88	5.35	-52.4	-64.7	3.8	8.47e-01	0	40	104	0	76	14725
2026-01-01 05:01:05.39	354.60	5.41	-52.4	-64.7	3.8	8.47e-01	0	40	104	0	76	14755
2026-01-01 05:01:07.40	354.31	5.47	-52.4	-64.7	3.8	8.46e-01	0	40	104	0	76	14774
2026-01-01 05:01:09.41	354.03	5.52	-52.4	-64.7	3.8	8.47e-01	0	40	104	0	76	14721
2026-01-01 05:01:11.42	353.74	5.58	-52.4	-64.6	3.8	8.47e-01	0	40	104	0	76	14690
2026-01-01 05:01:13.43	353.46	5.63	-52.3	-64.6	3.8	8.46e-01	0	40	104	0	76	14558
2026-01-01 05:01:15.44	353.17	5.69	-52.4	-64.6	3.8	8.46e-01	0	41	104	0	76	14628
2026-01-01 05:01:17.45	352.88	5.74	-52.4	-64.6	3.8	8.48e-01	0	41	104	0	76	14616
2026-01-01 05:01:19.45	352.59	5.80	-52.4	-64.7	3.8	8.47e-01	0	41	104	0	76	14757
2026-01-01 05:01:21.46	352.30	5.85	-52.4	-64.6	3.8	8.47e-01	0	41	104	0	76	14681
2026-01-01 05:01:23.47	352.01	5.90	-52.4	-64.7	3.8	8.47e-01	0	41	104	0	76	14731
2026-01-01 05:01:25.48	351.72	5.95	-52.4	-64.6	3.8	8.46e-01	0	41	104	0	76	14685
2026-01-01 05:01:27.49	351.42	6.00	-52.4	-64.6	3.8	8.46e-01	0	41	104	0	76	14671
2026-01-01 05:01:29.50	351.13	6.06	-52.4	-64.7	3.8	8.47e-01	0	41	104	0	76	14716
2026-01-01 05:01:31.50	350.83	6.11	-52.4	-64.6	3.8	8.47e-01	0	41	104	0	76	14632
2026-01-01 05:01:33.51	350.53	6.15	-52.3	-64.6	3.8	8.48e-01	0	41	104	0	76	14623
2026-01-01 05:01:35.52	350.24	6.20	-52.3	-64.6	3.8	8.48e-01	0	41	104	0	76	14604
2026-01-01 05:01:37.53	349.94	6.25	-52.4	-64.6	3.8	8.47e-01	0	41	104	0	76	14652
2026-01-01 05:01:39.54	349.64	6.30	-52.3	-64.6	3.8	8.47e-01	0	41	104	0	76	14600
2026-01-01 05:01:41.52	349.34	6.35	-52.3	-64.6	3.8	8.47e-01	0	41	104	0	76	14553
2026-01-01 05:01:43.55	349.03	6.39	-52.4	-64.7	3.8	8.46e-01	0	41	104	0	76	14770
2026-01-01 05:01:45.56	348.73	6.44	-52.4	-64.6	3.8	8.47e-01	0	41	104	0	76	14681
2026-01-01 05:01:47.56	348.43	6.48	-52.4	-64.6	3.8	8.47e-01	0	41	104	0	76	14702
2026-01-01 05:01:49.57	348.12	6.53	-52.4	-64.6	3.8	8.46e-01	0	41	104	0	76	14608
2026-01-01 05:01:51.58	347.82	6.57	-52.4	-64.6	3.8	8.47e-01	0	41	104	0	76	14619
2026-01-01 05:01:53.59	347.51	6.61	-52.3	-64.6	3.8	8.46e-01	0	42	104	0	76	14596
2026-01-01 05:01:55.50	347.22	6.65	-52.3	-64.6	3.8	8.48e-01	0	41	104	0	76	14554
2026-01-01 05:01:57.51	346.91	6.70	-52.4	-64.6	3.8	8.47e-01	0	41	104	0	76	14681
2026-01-01 05:01:59.52	346.60	6.74	-52.4	-64.6	3.8	8.47e-01	0	41	104	0	76	14619
2026-01-01 05:02:01.52	346.29	6.78	-52.3	-64.6	3.8	8.48e-01	0	42	104	0	76	14601
2026-01-01 05:02:03.53	345.98	6.82	-52.3	-64.5	3.8	8.47e-01	0	42	104	0	76	14520
2026-01-01 05:02:05.54	345.66	6.85	-52.4	-64.7	3.8	8.47e-01	0	42	104	0	76	14723
2026-01-01 05:02:07.63	345.34	6.89	-52.4	-64.7	3.8	8.46e-01	0	42	104	0	76	14719
2026-01-01 05:02:09.64	345.02	6.93	-52.4	-64.6	3.8	8.47e-01	0	42	104	0	76	14703
2026-01-01 05:02:11.65	344.71	6.97	-52.4	-64.6	3.8	8.47e-01	0	42	104	0	76	14657
2026-01-01 05:02:13.66	344.39	7.00	-52.4	-64.6	3.8	8.48e-01	0	42	104	0	76	14582
2026-01-01 05:02:15.66	344.08	7.04	-52.3	-64.6	3.8	8.47e-01	0	42	104	0	76	14569
2026-01-01 05:02:17.68	343.76	7.07	-52.3	-64.6	3.8	8.47e-01	0	42	104	0	76	14616
2026-01-01 05:02:19.68	343.44	7.10	-52.4	-64.6	3.8	8.47e-01	0	42	104	0	76	14635
2026-01-01 05:02:21.69	343.12	7.14	-52.3	-64.6	3.8	8.47e-01	0	42	104	0	76	14589
2026-01-01 05:02:23.70	342.80	7.17	-52.5	-64.7	3.8	8.47e-01	0	42	104	0	76	14770
2026-01-01 05:02:25.71	342.48	7.20	-52.4	-64.6	3.8	8.48e-01	0	42	104	0	76	14692
2026-01-01 05:02:27.72	342.16	7.23	-52.4	-64.6	3.8	8.46e-01	0	42	104	0	76	14664
2026-01-01 05:02:29.73	341.84	7.26	-52.4	-64.6	3.8	8.46e-01	0	42	104	0	76	14656
2026-01-01 05:02:31.73	341.52	7.29	-52.4	-64.7	3.8	8.47e-01	0	42	104	0	76	14730
2026-01-01 05:02:33.74	341.20	7.32	-52.4	-64.7	3.8	8.48e-01	0	42	104	0	76	14712
2026-01-01 05:02:35.75	340.87	7.34	-52.5	-64.7	3.8	8.48e-01	0	42	104	0	76	14776
2026-01-01 05:02:37.76	340.55	7.37	-52.4	-64.6	3.8	8.47e-01	0	42	104	0	76	14695
2026-01-01 05:02:39.77	340.23	7.39	-52.4	-64.7	3.8	8.46e-01	0	42	104	0	76	14727
2026-01-01 05:02:41.78	339.90	7.42	-52.4	-64.7	3.8	8.46e-01	0	42	104	0	76	14728
2026-01-01 05:02:43.78	339.58	7.44	-52.4	-64.7	3.8	8.46e-01	0	42	104	0	76	14771
2026-01-01 05:02:45.79	339.25	7.46	-52.4	-64.7	3.8	8.47e-01	0	42	104	0	76	14744
2026-01-01 05:02:47.80	338.92	7.49	-52.4	-64.6	3.8	8.47e-01	0	42	104	0	76	14660
2026-01-01 05:02:49.81	338.60	7.51	-52.4	-64.6	3.8	8.46e-01	0	42	104	0	76	14693
2026-01-01 05:02:51.82	338.27	7.53	-52.4	-64.6	3.8	8.47e-01	0	42	104	0	76	14632
2026-01-01 05:02:53.83	337.94	7.55	-52.5	-64.7	3.8	8.47e-01	0	42	104	0	76	14761
2026-01-01 05:02:55.83	337.61	7.56	-52.4	-64.7	3.8	8.47e-01	0	42	104	0	76	14734
2026-01-01 05:02:57.84	337.28	7.58	-52.4	-64.6	3.8	8.46e-01	0	42	104	0	76	14700
2026-01-01 05:02:59.85	336.95	7.60	-52.4	-64.6	3.8	8.47e-01	0	42	104	0	76	14641
2026-01-01 05:03:01.86	336.62	7.61	-52.4	-64.6	3.8	8.47e-01	0	42	104	0	76	14672
2026-01-01 05:03:03.87	336.29	7.63	-52.5	-64.7	3.8	8.47e-01	0	42	104	0	76	14845
2026-01-01 05:03:05.88	335.96	7.64	-52.5	-64.7	3.8	8.47e-01	0	42	104	0	76	14833
2026-01-01 05:03:07.89	335.63	7.66	-52.5	-64.7	3.8	8.47e-01	0	42	104	0	76	14827
2026-01-01 05:03:09.89	335.30	7.67	-52.5	-64.7	3.8	8.46e-01	0	42	104	0	76	14777
2026-01-01 05:03:11.90	334.97	7.68	-52.5	-64.7	3.8	8.47e-01	0	42	104	0	76	14849
2026-01-01 05:03:13.91	334.64	7.69	-52.5	-64.7	3.8	8.48e-01	0	42	104	0	76	14863
2026-01-01 05:03:15.92	334.31	7.70	-52.6	-64.8	3.8	8.48e-01	0	42	104	0	76	14917
2026-01-01 05:03:17.93	333.97	7.71	-52.5	-64.7	3.8	8.48e-01	0	43	104	0	76	14816
2026-01-01 05:03:19.94	333.64	7.72	-52.4	-64.7	3.8	8.46e-01	0	42	104	0	76	14753
2026-01-01 05:03:21.94	333.31	7.72	-52.4	-64.7	3.8	8.47e-01	0	42	104	0	76	14770
2026-01-01 05:03:23.95	332.98	7.73	-52.4	-64.6	3.8	8.47e-01	0	42	104	0	76	14690
2026-01-01 05:03:25.96	332.64	7.73	-52.4	-64.7	3.8	8.45e-01	0	42	104	0	76	14750
2026-01-01 05:03:27.97	332.31	7.74	-52.5	-64.7	3.8	8.47e-01	0	42	104	0	76	14843
2026-01-01 05:03:29.98	331.98	7.74	-52.4	-64.7	3.8	8.47e-01	0	42	104	0	76	14757
2026-01-01 05:03:31.99	331.65	7.74	-52.4	-64.7	3.8	8.47e-01	0	42	104	0	76	14798
2026-01-01 05:03:33.99	331.31	7.74	-52.4	-64.7	3.8	8.47e-01	0	42	104	0	76	14756
2026-01-01 05:03:36.00	330.98	7.74	-52.4	-64.7	3.8	8.47e-01	0	43	104	0	76	14772
2026-01-01 05:03:38.01	330.65	7.74	-52.4	-64.6	3.8	8.47e-01	0	43	104	0	76	14705
2026-01-01 05:03:40.02	330.31	7.74	-52.5	-64.8	3.8	8.48e-01	0	43	104	0	76	14881
2026-01-01 05:03:42.03	329.98	7.74	-52.5	-64.7	3.8	8.46e-01	0	42	104	0	76	14766
2026-01-01 05:03:44.03	329.65	7.74	-52.4	-64.7	3.8	8.46e-01	0	42	104	0	76	14714
2026-01-01 05:03:46.04	329.32	7.73	-52.4	-64.6	3.8	8.46e-01	0	42	104	0	76	14694
2026-01-01 05:03:48.05	328.98	7.73	-52.4	-64.7	3.8	8.47e-01	0	42	104	0	76	14777
2026-01-01 05:03:50.06	328.65	7.72	-52.4	-64.6	3.8	8.47e-01	0	42	104	0	76	14645
2026-01-01 05:03:52.07	328.32	7.71	-52.4	-64.7	3.8	8.47e-01	0	42	104	0	76	14711
2026-01-01 05:03:54.08	327.98	7.71	-52.4	-64.6	3.8	8.47e-01	0	42	104	0	76	14666
2026-01-01 05:03:56.09	327.65	7.70	-52.4	-64.6	3.8	8.47e-01	0	42	104	0	76	14664
2026-01-01 05:03:58.10	327.32	7.69	-52.5	-64.8	3.8	8.48e-01	0	43	104	0	76	14945
2026-01-01 05:04:00.11	326.99	7.68	-52.4	-64.7	3.8	8.48e-01	0	42	104	0	76	14802
2026-01-01 05:04:02.11	326.66	7.67	-52.5	-64.7	3.8	8.47e-01	0	42	104	0	76	14757
2026-01-01 05:04:04.12	326.33	7.66	-52.4	-64.6	3.8	8.46e-01	0	43	104	0	76	14698
2026-01-01 05:04:06.13	325.99	7.64	-52.4	-64.6	3.8	8.47e-01	0	43	104	0	76	14702
2026-01-01 05:04:08.14	325.66	7.63	-52.5	-64.7	3.8	8.46e-01	0	42	104	0	76	14804
2026-01-01 05:04:10.15	325.33	7.61	-52.4	-64.7	3.8	8.47e-01	0	42	104	0	76	14735
2026-01-01 05:04:12.16	325.00	7.60	-52.4	-64.6	3.8	8.47e-01	0	42	104	0	76	14679
2026-01-01 05:04:14.16	324.67	7.58	-52.4	-64.6	3.8	8.47e-01	0	42	104	0	76	14648
2026-01-01 05:04:16.16	324.35	7.56	-52.4	-64.6	3.8	8.47e-01	0	43	104	0	76	14659
2026-01-01 05:04:18.17	324.02	7.54	-52.4	-64.6	3.8	8.47e-01	0	42	104	0	76	14645
2026-01-01 05:04:20.18	323.69	7.53	-52.3	-64.6	3.8	8.47e-01	0	43	104	0	76	14657
2026-01-01 05:04:22.19	323.36	7.51	-52.4	-64.6	3.8	8.47e-01	0	43	104	0	76	14596
2026-01-01 05:04:24.20	323.03	7.48	-52.4	-64.6	3.8	8.46e-01	0	42	104	0	76	14698
2026-01-01 05:04:26.21	322.71	7.46	-52.4	-64.7	3.8	8.47e-01	0	43	104	0	76	14729
2026-01-01 05:04:28.21	322.38	7.44	-52.3	-64.6	3.8	8.47e-01	0	43	104	0	76	14628
2026-01-01 05:04:30.22	322.05	7.42	-52.4	-64.7	3.8	8.47e-01	0	43	104	0	76	14788
2026-01-01 05:04:32.23	321.73	7.39	-52.4	-64.7	3.8	8.47e-01	0	42	104	0	76	14745
2026-01-01 05:04:34.24	321.40	7.37	-52.4	-64.7	3.8	8.47e-01	0	43	104	0	76	14722
2026-01-01 05:04:36.25	321.08	7.34	-52.4	-64.6	3.8	8.47e-01	0	43	104	0	76	14660
2026-01-01 05:04:38.26	320.76	7.31	-52.4	-64.6	3.8	8.48e-01	0	43	104	0	76	14676
2026-01-01 05:04:40.27	320.43	7.29	-52.4	-64.6	3.8	8.47e-01	0	43	104	0	76	14610
2026-01-01 05:04:42.27	320.11	7.26	-52.3	-64.6	3.8	8.47e-01	0	43	104	0	76	14637
2026-01-01 05:04:44.28	319.79	7.23	-52.5	-64.7	3.8	8.47e-01	0	43	104	0	76	14805
2026-01-01 05:04:46.29	319.47	7.20	-52.4	-64.7	3.8	8.47e-01	0	42	104	0	76	14762
2026-01-01 05:04:48.30	319.15	7.17	-52.4	-64.7	3.8	8.47e-01	0	43	104	0	76	14726
2026-01-01 05:04:50.31	318.83	7.14	-52.4	-64.6	3.8	8.47e-01	0	43	104	0	76	14691
2026-01-01 05:04:52.32	318.51	7.10	-52.4	-64.6	3.8	8.45e-01	0	43	104	0	76	14698
2026-01-01 05:04:54.33	318.19	7.07	-52.4	-64.6	3.8	8.47e-01	0	43	104	0	76	14655
2026-01-01 05:04:56.34	317.87	7.04	-52.4	-64.6	3.8	8.47e-01	0	43	104	0	76	14611
2026-01-01 05:04:58.34	317.55	7.00	-52.4	-64.6	3.8	8.47e-01	0	43	104	0	76	14672
2026-01-01 05:05:00.35	317.24	6.97	-52.4	-64.6	3.8	8.46e-01	0	43	104	0	76	14615
2026-01-01 05:05:02.36	316.92	6.93	-52.5	-64.7	3.8	8.47e-01	0	43	104	0	76	14829
2026-01-01 05:05:04.37	316.61	6.89	-52.4	-64.6	3.8	8.47e-01	0	43	104	0	76	14698
2026-01-01 05:05:06.38	316.29	6.85	-52.4	-64.7	3.8	8.48e-01	0	43	104	0	76	14709
2026-01-01 05:05:08.39	315.98	6.81	-52.4	-64.6	3.8	8.47e-01	0	43	104	0	76	14620
2026-01-01 05:05:10.40	315.67	6.78	-52.4	-64.6	3.8	8.47e-01	0	43	104	0	76	14695
2026-01-01 05:05:12.41	315.36	6.74	-52.4	-64.6	3.8	8.47e-01	0	43	104	0	76	14646
2026-01-01 05:05:14.41	315.05	6.69	-52.4	-64.6	3.8	8.47e-01	0	43	104	0	76	14603
2026-01-01 05:05:16.42	314.74	6.65	-52.3	-64.6	3.8	8.48e-01	0	43	104	0	76	14608
2026-01-01 05:05:18.43	314.43	6.61	-52.3	-64.6	3.8	8.47e-01	0	43	104	0	76	14577
2026-01-01 05:05:20.44	314.12	6.57	-52.4	-64.7	3.8	8.48e-01	0	42	104	0	76	14744
2026-01-01 05:05:22.45	313.82	6.52	-52.4	-64.6	3.8	8.47e-01	0	43	104	0	76	14706
2026-01-01 05:05:24.46	313.51	6.48	-52.4	-64.6	3.8	8.46e-01	0	43	104	0	76	14661
2026-01-01 05:05:26.46	313.21	6.43	-52.3	-64.6	3.8	8.46e-01	0	43	104	0	76	14624
2026-01-01 05:05:28.47	312.90	6.39	-52.4	-64.6	3.8	8.47e-01	0	43	104	0	76	14634
2026-01-01 05:05:30.48	312.60	6.34	-52.3	-64.6	3.8	8.45e-01	0	43	104	0	76	14588
2026-01-01 05:05:32.49	312.30	6.30	-52.4	-64.6	3.8	8.46e-01	0	43	104	0	76	14658
2026-01-01 05:05:34.50	311.99	6.25	-52.4	-64.6	3.8	8.45e-01	0	43	104	0	76	14664
2026-01-01 05:05:36.51	311.69	6.20	-52.3	-64.6	3.8	8.47e-01	0	43	104	0	76	14612
2026-01-01 05:05:38.52	311.40	6.15	-52.3	-64.6	3.8	8.47e-01	0	43	104	0	76	14641
2026-01-01 05:05:40.52	311.10	6.10	-52.4	-64.6	3.8	8.47e-01	0	43	104	0	76	14556
2026-01-01 05:05:42.53	310.80	6.05	-52.4	-64.6	3.8	8.47e-01	0	43	104	0	76	14624
2026-01-01 05:05:44.54	310.51	6.00	-52.4	-64.7	3.8	8.48e-01	0	43	104	0	76	14779
2026-01-01 05:05:46.55	310.21	5.95	-52.4	-64.6	3.8	8.47e-01	0	43	104	0	76	14693
2026-01-01 05:05:48.56	309.92	5.90	-52.4	-64.6	3.8	8.47e-01	0	43	104	0	76	14602
2026-01-01 05:05:50.57	309.62	5.84	-52.4	-64.6	3.8	8.46e-01	0	43	104	0	76	14652
2026-01-01 05:05:52.58	309.33	5.79	-52.4	-64.6	3.8	8.46e-01	0	43	104	0	76	14651
2026-01-01 05:05:54.59	309.04	5.74	-52.4	-64.6	3.8	8.47e-01	0	43	104	0	76	14616
2026-01-01 05:05:56.66	308.74	5.68	-52.4	-64.6	3.8	8.47e-01	0	43	104	0	76	14579
2026-01-01 05:05:58.66	308.46	5.63	-52.4	-64.6	3.8	8.46e-01	0	43	104	0	76	14612
2026-01-01 05:06:00.67	308.17	5.57	-52.4	-64.7	3.8	8.46e-01	0	43	104	0	76	14760
2026-01-01 05:06:02.68	307.88	5.52	-52.4	-64.7	3.8	8.47e-01	0	43	104	0	76	14716
2026-01-01 05:06:04.69	307.60	5.46	-52.4	-64.7	3.8	8.47e-01	0	43	104	0	76	14729
2026-01-01 05:06:06.70	307.31	5.40	-52.4	-64.6	3.8	8.47e-01	0	43	104	0	76	14668
2026-01-01 05:06:08.71	307.03	5.34	-52.4	-64.6	3.8	8.48e-01	0	43	104	0	76	14615
2026-01-01 05:06:10.72	306.75	5.29	-52.3	-64.5	3.8	8.46e-01	0	43	104	0	76	14515
2026-01-01 05:06:12.72	306.47	5.23	-52.4	-64.7	3.8	8.47e-01	0	43	104	0	76	14750
2026-01-01 05:06:14.73	306.19	5.17	-52.4	-64.7	3.8	8.47e-01	0	43	104	0	76	14727
2026-01-01 05:06:16.74	305.91	5.11	-52.2	-64.4	3.8	8.47e-01	0	43	104	0	76	14336
2026-01-01 05:06:18.75	305.63	5.05	-52.2	-64.5	3.8	8.47e-01	0	43	104	0	76	14386
2026-01-01 05:06:20.76	305.36	4.99	-52.2	-64.4	3.8	8.47e-01	0	43	104	0	76	14342

#Closed at: 2026-01-01 05:06:21
#Recorded file [0 MB]: D:/Data/31040_260101_080053.dat