passes_logs/2026/01/01/T1/T1__20260101_070822_FENGYUN_3G_rec.log

#Pass ID: 20260101_070822_FENGYUN 3G
#Satellite: FENGYUN 3G
#Configuration: FENGYUN 3G
#almurnet v.1.7.20251203
#Start time: 2026-01-01 07:08:23

#Version: 2.0.20230620
#Station: T1
#Location: 37.570604 lon 55.790049 lat
#TLE: 1 56232U 23055A   25365.50856095  .00043589  00000+0  69982-3 0  9997
#TLE: 2 56232  49.9923 130.6499 0004081 319.7782  40.2882 15.52545779153944

#Time	Az	El	Level	Level2	SNR	BER	BlckErr	Temp	State	Recorded	gain1	gain2
2026-01-01 07:08:23.72	258.70	5.14	-51.1	-70.1	3.8	8.48e-01	0	38	0	0	73	32682
2026-01-01 07:08:25.72	258.43	5.28	-51.1	-70.1	3.8	8.46e-01	0	38	104	0	74	30755
2026-01-01 07:08:27.73	258.17	5.41	-51.1	-70.1	3.8	8.48e-01	0	38	104	0	74	30806
2026-01-01 07:08:29.73	257.90	5.55	-51.1	-70.0	3.8	8.47e-01	0	38	104	0	74	30691
2026-01-01 07:08:31.74	257.62	5.68	-51.1	-70.1	3.8	8.47e-01	0	38	104	0	74	30895
2026-01-01 07:08:33.74	257.35	5.82	-51.1	-70.1	3.8	8.46e-01	0	38	104	0	74	30788
2026-01-01 07:08:35.74	257.06	5.95	-51.1	-70.0	3.8	8.47e-01	0	38	104	0	74	30634
2026-01-01 07:08:37.75	256.78	6.09	-51.1	-70.0	3.8	8.47e-01	0	38	104	0	74	30581
2026-01-01 07:08:39.75	256.49	6.23	-51.0	-70.0	3.8	8.47e-01	0	38	104	0	74	30480
2026-01-01 07:08:41.75	256.20	6.37	-51.1	-70.0	3.8	8.47e-01	0	38	104	0	73	32280
2026-01-01 07:08:43.75	255.90	6.51	-51.1	-69.9	3.8	8.48e-01	0	38	104	0	73	32122
2026-01-01 07:08:45.75	255.60	6.65	-51.1	-70.0	3.8	8.46e-01	0	38	104	0	73	32342
2026-01-01 07:08:47.75	255.30	6.79	-51.1	-70.1	3.8	8.47e-01	0	38	104	0	73	32626
2026-01-01 07:08:49.75	254.99	6.93	-51.1	-70.1	3.8	8.48e-01	0	39	104	0	73	32681
2026-01-01 07:08:51.76	254.68	7.07	-51.1	-69.9	3.8	8.48e-01	0	39	104	0	73	32028
2026-01-01 07:08:53.76	254.36	7.21	-51.1	-69.7	3.8	8.47e-01	0	39	104	0	73	31265
2026-01-01 07:08:55.76	254.04	7.36	-51.1	-69.8	3.8	8.47e-01	0	39	104	0	73	31588
2026-01-01 07:08:57.77	253.71	7.50	-51.1	-70.0	3.8	8.47e-01	0	39	104	0	73	32240
2026-01-01 07:08:59.77	253.38	7.64	-51.1	-70.0	3.8	8.47e-01	0	39	104	0	73	32305
2026-01-01 07:09:01.77	253.05	7.79	-51.1	-69.7	3.8	8.46e-01	0	39	104	0	73	31374
2026-01-01 07:09:03.77	252.71	7.93	-51.1	-69.8	3.8	8.47e-01	0	39	104	0	73	31522
2026-01-01 07:09:05.78	252.36	8.08	-51.1	-70.0	3.8	8.47e-01	0	39	104	0	73	32235
2026-01-01 07:09:07.78	252.01	8.22	-51.1	-69.1	3.8	8.48e-01	0	39	104	0	73	29118
2026-01-01 07:09:09.78	251.66	8.37	-51.1	-69.5	3.8	8.47e-01	0	39	104	0	73	30570
2026-01-01 07:09:11.79	251.30	8.52	-51.1	-68.3	3.8	8.46e-01	0	39	104	0	73	26732
2026-01-01 07:09:13.79	250.94	8.66	-51.1	-69.1	3.8	8.46e-01	0	39	104	0	73	29175
2026-01-01 07:09:15.79	250.57	8.81	-50.7	-61.9	6.7	8.47e-01	0	39	0	0	73	12804
2026-01-01 07:09:17.80	250.19	8.96	-48.6	-53.7	15.2	5.33e-03	0	39	0	0	69	6246
2026-01-01 07:09:19.80	249.82	9.11	-46.5	-50.0	18.8	0.00e+00	0	39	0	0	65	5158
2026-01-01 07:09:21.80	249.43	9.26	-45.8	-49.0	19.9	0.00e+00	0	39	0	0	63	5114
2026-01-01 07:09:23.80	249.04	9.40	-47.4	-51.9	17.5	0.00e+00	0	39	0	0	65	6366
2026-01-01 07:09:25.80	248.65	9.55	-43.7	-46.3	22.8	0.00e+00	0	39	0	0	59	4716
2026-01-01 07:09:27.80	248.25	9.70	-43.9	-46.5	22.6	0.00e+00	0	39	0	0	59	4840
2026-01-01 07:09:29.80	247.84	9.85	-44.1	-46.8	22.3	0.00e+00	0	39	0	0	59	4994
2026-01-01 07:09:31.81	247.43	10.00	-43.8	-46.4	22.6	0.00e+00	0	39	0	0	59	4814
2026-01-01 07:09:33.81	247.01	10.15	-43.5	-46.0	23.0	0.00e+00	0	39	0	0	59	4596
2026-01-01 07:09:35.81	246.59	10.31	-43.4	-45.9	23.2	0.00e+00	0	39	0	0	58	4773
2026-01-01 07:09:37.81	246.16	10.46	-43.5	-45.9	23.2	0.00e+00	0	39	0	0	58	4804
2026-01-01 07:09:39.80	245.72	10.61	-43.6	-46.1	23.0	0.00e+00	0	39	0	0	58	4898
2026-01-01 07:09:41.81	245.28	10.76	-43.7	-46.2	23.0	0.00e+00	0	39	0	0	58	4947
2026-01-01 07:09:43.81	244.83	10.91	-43.7	-46.1	23.0	0.00e+00	0	39	0	0	58	4915
2026-01-01 07:09:45.82	244.38	11.06	-43.4	-45.8	23.3	0.00e+00	0	39	0	0	58	4739
2026-01-01 07:09:47.82	243.92	11.21	-43.2	-45.6	23.6	0.00e+00	0	40	0	0	58	4614
2026-01-01 07:09:49.82	243.45	11.36	-43.3	-45.7	23.4	0.00e+00	0	40	0	0	58	4702
2026-01-01 07:09:51.82	242.98	11.51	-43.3	-45.7	23.5	0.00e+00	0	39	0	0	58	4683
2026-01-01 07:09:53.83	242.50	11.66	-43.2	-45.6	23.6	0.00e+00	0	40	0	0	58	4637
2026-01-01 07:09:55.83	242.01	11.82	-43.0	-45.4	23.9	0.00e+00	0	39	0	0	58	4495
2026-01-01 07:09:57.84	241.52	11.97	-43.3	-45.7	23.5	0.00e+00	0	40	0	0	58	4694
2026-01-01 07:09:59.84	241.02	12.12	-43.6	-46.1	23.1	0.00e+00	0	39	0	0	58	4894
2026-01-01 07:10:01.84	240.51	12.27	-43.8	-46.3	23.1	0.00e+00	0	39	0	0	58	4987
2026-01-01 07:10:03.84	240.00	12.41	-43.6	-46.0	23.2	0.00e+00	0	39	0	0	58	4857
2026-01-01 07:10:05.84	239.48	12.56	-43.3	-45.7	23.5	0.00e+00	0	40	0	0	58	4658
2026-01-01 07:10:07.85	238.95	12.71	-43.1	-45.4	23.7	0.00e+00	0	40	0	0	58	4542
2026-01-01 07:10:09.85	238.42	12.86	-43.2	-45.5	23.7	0.00e+00	0	40	0	0	57	4822
2026-01-01 07:10:11.85	237.88	13.01	-42.9	-45.2	24.0	0.00e+00	0	39	0	0	57	4671
2026-01-01 07:10:13.84	237.34	13.15	-43.1	-45.4	23.7	0.00e+00	0	40	0	0	57	4804
2026-01-01 07:10:15.85	236.78	13.30	-43.0	-45.4	23.7	0.00e+00	0	39	0	0	57	4778
2026-01-01 07:10:17.84	236.22	13.44	-42.8	-45.1	24.1	0.00e+00	0	39	0	0	57	4603
2026-01-01 07:10:19.84	235.65	13.58	-42.3	-44.5	24.5	0.00e+00	0	40	0	0	56	4593
2026-01-01 07:10:21.85	235.07	13.73	-42.4	-44.6	24.5	0.00e+00	0	39	0	0	56	4626
2026-01-01 07:10:23.85	234.49	13.87	-43.0	-45.3	23.9	0.00e+00	0	40	0	0	56	5016
2026-01-01 07:10:25.86	233.90	14.01	-42.8	-45.1	24.2	0.00e+00	0	39	0	0	56	4891
2026-01-01 07:10:27.86	233.30	14.15	-42.8	-45.1	24.2	0.00e+00	0	40	0	0	56	4877
2026-01-01 07:10:29.86	232.70	14.29	-42.3	-44.4	24.8	0.00e+00	0	40	0	0	56	4532
2026-01-01 07:10:31.86	232.09	14.42	-42.2	-44.4	24.8	0.00e+00	0	40	0	0	56	4497
2026-01-01 07:10:33.86	231.47	14.55	-42.4	-44.6	24.7	0.00e+00	0	40	0	0	56	4635
2026-01-01 07:10:35.86	230.84	14.69	-42.1	-44.3	24.9	0.00e+00	0	40	0	0	56	4457
2026-01-01 07:10:37.87	230.21	14.82	-41.6	-43.7	25.3	0.00e+00	0	40	0	0	55	4398
2026-01-01 07:10:39.86	229.57	14.95	-41.9	-44.1	25.0	0.00e+00	0	39	0	0	55	4615
2026-01-01 07:10:41.87	228.92	15.07	-42.2	-44.4	24.7	0.00e+00	0	40	0	0	55	4810
2026-01-01 07:10:43.87	228.26	15.20	-42.3	-44.5	24.7	0.00e+00	0	39	0	0	55	4819
2026-01-01 07:10:45.87	227.60	15.32	-42.4	-44.6	24.6	0.00e+00	0	40	0	0	55	4910
2026-01-01 07:10:47.87	226.94	15.44	-42.2	-44.4	24.7	0.00e+00	0	40	0	0	55	4773
2026-01-01 07:10:49.87	226.26	15.56	-42.3	-44.5	24.6	0.00e+00	0	40	0	0	55	4855
2026-01-01 07:10:51.87	225.58	15.67	-42.4	-44.6	24.5	0.00e+00	0	40	0	0	55	4913
2026-01-01 07:10:53.88	224.89	15.79	-42.3	-44.5	24.6	0.00e+00	0	40	0	0	55	4832
2026-01-01 07:10:55.88	224.20	15.90	-42.3	-44.5	24.6	0.00e+00	0	40	0	0	55	4836
2026-01-01 07:10:57.89	223.49	16.00	-42.1	-44.3	24.7	0.00e+00	0	40	0	0	55	4740
2026-01-01 07:10:59.89	222.78	16.11	-42.0	-44.2	24.9	0.00e+00	0	40	0	0	55	4658
2026-01-01 07:11:01.89	222.07	16.21	-42.0	-44.2	24.9	0.00e+00	0	40	0	0	55	4674
2026-01-01 07:11:03.90	221.35	16.31	-41.8	-44.0	25.1	0.00e+00	0	40	0	0	55	4559
2026-01-01 07:11:05.90	220.62	16.40	-41.5	-43.6	25.4	0.00e+00	0	40	0	0	55	4358
2026-01-01 07:11:07.90	219.89	16.49	-41.4	-43.5	25.5	0.00e+00	0	40	0	0	54	4577
2026-01-01 07:11:09.90	219.16	16.58	-41.6	-43.7	25.3	0.00e+00	0	40	0	0	54	4676
2026-01-01 07:11:11.90	218.42	16.67	-41.6	-43.7	25.3	0.00e+00	0	40	0	0	54	4695
2026-01-01 07:11:13.90	217.67	16.75	-41.4	-43.5	25.5	0.00e+00	0	40	0	0	54	4573
2026-01-01 07:11:15.90	216.92	16.82	-41.3	-43.4	25.4	0.00e+00	0	40	0	0	54	4496
2026-01-01 07:11:17.90	216.16	16.90	-41.4	-43.5	25.5	0.00e+00	0	40	0	0	54	4563
2026-01-01 07:11:19.91	215.40	16.96	-41.4	-43.5	25.5	0.00e+00	0	40	0	0	54	4576
2026-01-01 07:11:21.90	214.64	17.03	-41.4	-43.5	25.6	0.00e+00	0	40	0	0	54	4558
2026-01-01 07:11:23.91	213.87	17.09	-41.3	-43.4	25.7	0.00e+00	0	40	0	0	54	4494
2026-01-01 07:11:25.91	213.09	17.15	-41.2	-43.2	25.9	0.00e+00	0	40	0	0	54	4424
2026-01-01 07:11:27.91	212.32	17.20	-41.1	-43.2	25.9	0.00e+00	0	40	0	0	53	4656
2026-01-01 07:11:29.90	211.54	17.25	-41.3	-43.3	25.8	0.00e+00	0	40	0	0	53	4749
2026-01-01 07:11:31.91	210.76	17.29	-41.2	-43.3	25.8	0.00e+00	0	40	0	0	53	4720
2026-01-01 07:11:33.91	209.97	17.33	-41.5	-43.6	25.6	0.00e+00	0	40	0	0	53	4878
2026-01-01 07:11:35.91	209.19	17.36	-41.6	-43.7	25.4	0.00e+00	0	40	0	0	53	4967
2026-01-01 07:11:37.92	208.39	17.40	-41.5	-43.6	25.5	0.00e+00	0	40	0	0	54	4633
2026-01-01 07:11:39.92	207.60	17.42	-41.4	-43.5	25.7	0.00e+00	0	40	0	0	54	4550
2026-01-01 07:11:41.92	206.81	17.44	-41.7	-43.8	25.5	0.00e+00	0	40	0	0	54	4715
2026-01-01 07:11:43.92	206.02	17.46	-41.6	-43.7	25.4	0.00e+00	0	40	0	0	54	4700
2026-01-01 07:11:45.92	205.22	17.47	-41.3	-43.4	25.7	0.00e+00	0	40	0	0	54	4501
2026-01-01 07:11:47.92	204.43	17.48	-40.9	-42.9	26.1	0.00e+00	0	40	0	0	53	4509
2026-01-01 07:11:49.92	203.63	17.48	-41.1	-43.2	25.9	0.00e+00	0	40	0	0	53	4678
2026-01-01 07:11:51.92	202.83	17.48	-41.0	-43.0	26.0	0.00e+00	0	40	0	0	53	4598
2026-01-01 07:11:53.92	202.04	17.47	-40.9	-43.0	26.1	0.00e+00	0	40	0	0	53	4554
2026-01-01 07:11:55.92	201.24	17.46	-41.1	-43.2	26.0	0.00e+00	0	40	0	0	53	4653
2026-01-01 07:11:57.93	200.45	17.44	-41.3	-43.4	25.8	0.00e+00	0	40	0	0	53	4787
2026-01-01 07:11:59.93	199.65	17.42	-41.5	-43.6	25.5	0.00e+00	0	40	0	0	53	4915
2026-01-01 07:12:01.93	198.86	17.39	-41.4	-43.5	25.6	0.00e+00	0	40	0	0	54	4579
2026-01-01 07:12:03.93	198.07	17.36	-41.4	-43.5	25.7	0.00e+00	0	40	0	0	54	4563
2026-01-01 07:12:05.94	197.28	17.33	-41.5	-43.6	25.6	0.00e+00	0	40	0	0	54	4605
2026-01-01 07:12:07.94	196.50	17.29	-41.4	-43.5	25.6	0.00e+00	0	40	0	0	54	4589
2026-01-01 07:12:09.94	195.71	17.24	-41.2	-43.3	25.8	0.00e+00	0	40	0	0	54	4489
2026-01-01 07:12:11.95	194.93	17.19	-41.2	-43.3	25.8	0.00e+00	0	40	0	0	54	4484
2026-01-01 07:12:13.95	194.16	17.14	-40.8	-42.9	26.2	0.00e+00	0	40	0	0	53	4513
2026-01-01 07:12:15.95	193.38	17.08	-41.2	-43.3	25.8	0.00e+00	0	40	0	0	53	4719
2026-01-01 07:12:17.95	192.61	17.02	-40.9	-43.0	26.0	0.00e+00	0	40	0	0	53	4591
2026-01-01 07:12:19.95	191.85	16.96	-41.1	-43.2	25.9	0.00e+00	0	40	0	0	53	4700
2026-01-01 07:12:21.95	191.09	16.89	-41.2	-43.4	25.7	0.00e+00	0	40	0	0	53	4767
2026-01-01 07:12:23.95	190.33	16.81	-41.3	-43.5	25.7	0.00e+00	0	40	0	0	53	4817
2026-01-01 07:12:25.95	189.58	16.74	-41.7	-43.9	25.4	0.00e+00	0	39	0	0	54	4786
2026-01-01 07:12:27.95	188.84	16.66	-41.6	-43.7	25.5	0.00e+00	0	40	0	0	54	4699
2026-01-01 07:12:29.95	188.09	16.57	-41.5	-43.6	25.7	0.00e+00	0	40	0	0	54	4620
2026-01-01 07:12:31.96	187.35	16.48	-42.0	-44.2	25.0	0.00e+00	0	40	0	0	54	4969
2026-01-01 07:12:33.96	186.62	16.39	-42.1	-44.4	24.9	0.00e+00	0	40	0	0	55	4786
2026-01-01 07:12:35.96	185.90	16.30	-42.0	-44.3	25.1	0.00e+00	0	40	0	0	55	4723
2026-01-01 07:12:37.96	185.18	16.20	-41.5	-43.7	25.5	0.00e+00	0	40	0	0	55	4427
2026-01-01 07:12:39.97	184.46	16.10	-41.6	-43.7	25.5	0.00e+00	0	40	0	0	54	4692
2026-01-01 07:12:41.97	183.76	15.99	-41.6	-43.8	25.4	0.00e+00	0	40	0	0	54	4714
2026-01-01 07:12:43.97	183.05	15.88	-41.4	-43.5	25.7	0.00e+00	0	40	0	0	54	4571
2026-01-01 07:12:45.98	182.36	15.77	-41.9	-44.1	25.2	0.00e+00	0	40	0	0	54	4894
2026-01-01 07:12:47.98	181.67	15.66	-42.3	-44.5	24.8	0.00e+00	0	40	0	0	55	4857
2026-01-01 07:12:49.98	180.99	15.54	-42.4	-44.7	24.6	0.00e+00	0	40	0	0	55	4970
2026-01-01 07:12:51.98	180.31	15.43	-42.0	-44.3	25.1	0.00e+00	0	40	0	0	55	4708
2026-01-01 07:12:53.98	179.64	15.30	-41.8	-44.0	25.3	0.00e+00	0	40	0	0	55	4571
2026-01-01 07:12:55.98	178.98	15.18	-42.6	-44.9	24.5	0.00e+00	0	40	0	0	55	5073
2026-01-01 07:12:57.99	178.33	15.06	-42.7	-44.9	24.4	0.00e+00	0	40	0	0	55	5098
2026-01-01 07:12:59.99	177.68	14.93	-42.6	-44.9	24.7	0.00e+00	0	40	0	0	56	4764
2026-01-01 07:13:01.99	177.04	14.80	-42.7	-44.9	24.6	0.00e+00	0	40	0	0	56	4786
2026-01-01 07:13:03.99	176.40	14.67	-42.5	-44.7	24.8	0.00e+00	0	40	0	0	56	4672
2026-01-01 07:13:05.99	175.78	14.54	-42.4	-44.7	24.8	0.00e+00	0	40	0	0	56	4656
2026-01-01 07:13:07.99	175.16	14.40	-42.3	-44.5	25.0	0.00e+00	0	40	0	0	56	4572
2026-01-01 07:13:09.99	174.55	14.27	-42.5	-44.7	24.8	0.00e+00	0	40	0	0	56	4686
2026-01-01 07:13:11.99	173.94	14.13	-42.7	-45.0	24.5	0.00e+00	0	40	0	0	56	4833
2026-01-01 07:13:13.99	173.35	13.99	-42.9	-45.2	24.3	0.00e+00	0	40	0	0	56	4968
2026-01-01 07:13:15.99	172.76	13.85	-42.9	-45.2	24.3	0.00e+00	0	40	0	0	56	4966
2026-01-01 07:13:18.00	172.17	13.71	-42.7	-45.1	24.4	0.00e+00	0	40	0	0	56	4884
2026-01-01 07:13:20.00	171.59	13.56	-42.9	-45.2	24.4	0.00e+00	0	39	0	0	56	4954
2026-01-01 07:13:22.01	171.02	13.42	-43.0	-45.3	24.2	0.00e+00	0	40	0	0	56	5027
2026-01-01 07:13:24.01	170.46	13.27	-43.0	-45.3	24.1	0.00e+00	0	39	0	0	56	5030
2026-01-01 07:13:26.02	169.90	13.13	-43.2	-45.6	23.9	0.00e+00	0	40	0	0	57	4888
2026-01-01 07:13:28.01	169.36	12.98	-43.1	-45.5	23.9	0.00e+00	0	39	0	0	57	4850
2026-01-01 07:13:30.02	168.81	12.83	-43.0	-45.4	24.1	0.00e+00	0	40	0	0	57	4760
2026-01-01 07:13:32.02	168.28	12.69	-42.8	-45.0	24.2	0.00e+00	0	40	0	0	57	4598
2026-01-01 07:13:34.01	167.76	12.54	-42.8	-45.1	24.3	0.00e+00	0	40	0	0	57	4638
2026-01-01 07:13:36.02	167.23	12.39	-43.2	-45.6	23.9	0.00e+00	0	40	0	0	57	4897
2026-01-01 07:13:38.02	166.72	12.24	-43.1	-45.4	24.0	0.00e+00	0	40	0	0	57	4793
2026-01-01 07:13:40.02	166.22	12.09	-42.9	-45.3	24.2	0.00e+00	0	40	0	0	57	4715
2026-01-01 07:13:42.03	165.71	11.94	-43.0	-45.4	24.1	0.00e+00	0	40	0	0	57	4766
2026-01-01 07:13:44.03	165.22	11.79	-43.2	-45.6	23.9	0.00e+00	0	40	0	0	57	4871
2026-01-01 07:13:46.03	164.74	11.64	-43.6	-46.0	23.5	0.00e+00	0	39	0	0	57	5126
2026-01-01 07:13:48.04	164.25	11.49	-43.9	-46.4	23.1	0.00e+00	0	40	0	0	58	5048
2026-01-01 07:13:50.04	163.78	11.33	-44.1	-46.6	22.9	0.00e+00	0	40	0	0	58	5190
2026-01-01 07:13:52.04	163.31	11.18	-44.1	-46.5	23.0	0.00e+00	0	40	0	0	59	4847
2026-01-01 07:13:54.05	162.85	11.03	-44.0	-46.5	23.0	0.00e+00	0	40	0	0	59	4823
2026-01-01 07:13:56.05	162.40	10.88	-44.1	-46.6	22.8	0.00e+00	0	40	0	0	59	4911
2026-01-01 07:13:58.04	161.95	10.73	-44.1	-46.6	22.8	0.00e+00	0	40	0	0	59	4901
2026-01-01 07:14:00.04	161.51	10.58	-44.0	-46.4	22.9	0.00e+00	0	40	0	0	59	4810
2026-01-01 07:14:02.05	161.07	10.43	-43.9	-46.3	23.1	0.00e+00	0	40	0	0	59	4743
2026-01-01 07:14:04.05	160.64	10.27	-44.0	-46.4	23.0	0.00e+00	0	40	0	0	59	4807
2026-01-01 07:14:06.05	160.22	10.12	-43.9	-46.3	23.1	0.00e+00	0	40	0	0	59	4749
2026-01-01 07:14:08.05	159.80	9.97	-44.2	-46.7	22.7	0.00e+00	0	40	0	0	59	4927
2026-01-01 07:14:10.05	159.39	9.82	-44.3	-46.8	22.6	0.00e+00	0	39	0	0	59	5040
2026-01-01 07:14:12.05	158.98	9.67	-44.3	-46.9	19.2	0.00e+00	0	40	0	0	59	5045
2026-01-01 07:14:14.05	158.58	9.52	-44.3	-46.8	22.6	0.00e+00	0	40	0	0	59	5010
2026-01-01 07:14:16.05	158.19	9.37	-44.3	-46.8	22.6	0.00e+00	0	40	0	0	59	5024
2026-01-01 07:14:18.05	157.80	9.22	-44.3	-46.8	22.6	0.00e+00	0	40	0	0	59	5019
2026-01-01 07:14:20.06	157.41	9.07	-44.6	-47.2	22.0	0.00e+00	0	40	0	0	60	4974
2026-01-01 07:14:22.06	157.03	8.93	-51.2	-62.2	9.7	0.00e+00	0	40	0	0	73	13258
2026-01-01 07:14:24.06	156.66	8.78	-51.7	-70.3	3.8	8.46e-01	0	40	104	0	74	31701
2026-01-01 07:14:26.07	156.28	8.63	-51.9	-71.0	3.8	8.47e-01	0	40	104	0	74	34130
2026-01-01 07:14:28.07	155.92	8.48	-52.1	-71.0	3.8	8.46e-01	0	40	104	0	74	34353
2026-01-01 07:14:30.08	155.56	8.33	-52.4	-71.1	3.8	8.47e-01	0	40	104	0	75	32700
2026-01-01 07:14:32.08	155.21	8.19	-52.5	-71.2	3.8	8.47e-01	0	40	104	0	75	33113
2026-01-01 07:14:34.09	154.86	8.04	-52.4	-71.1	3.8	8.47e-01	0	40	104	0	75	32887
2026-01-01 07:14:36.10	154.51	7.90	-52.4	-71.1	3.8	8.47e-01	0	40	104	0	75	32832
2026-01-01 07:14:38.10	154.17	7.75	-52.5	-71.1	3.8	8.47e-01	0	40	104	0	75	32899
2026-01-01 07:14:40.11	153.83	7.61	-52.5	-71.2	3.8	8.48e-01	0	40	104	0	75	33065
2026-01-01 07:14:42.12	153.50	7.46	-52.3	-71.2	3.8	8.48e-01	0	40	104	0	75	32942
2026-01-01 07:14:44.12	153.17	7.32	-52.4	-71.1	3.8	8.47e-01	0	40	104	0	75	32874
2026-01-01 07:14:46.13	152.85	7.17	-52.3	-71.1	3.8	8.47e-01	0	40	104	0	75	32782
2026-01-01 07:14:48.14	152.53	7.03	-52.3	-71.1	3.8	8.48e-01	0	40	104	0	75	32854
2026-01-01 07:14:50.14	152.22	6.89	-52.3	-71.1	3.8	8.47e-01	0	40	104	0	75	32780
2026-01-01 07:14:52.15	151.91	6.75	-52.3	-71.1	3.8	8.47e-01	0	40	104	0	75	32765
2026-01-01 07:14:54.15	151.60	6.61	-52.3	-71.1	3.8	8.47e-01	0	40	104	0	75	32627
2026-01-01 07:14:56.16	151.30	6.47	-52.3	-71.0	3.9	8.46e-01	0	40	104	0	75	32526
2026-01-01 07:14:58.16	151.01	6.33	-52.3	-71.1	3.8	8.48e-01	0	40	104	0	75	32772
2026-01-01 07:15:00.17	150.71	6.19	-52.3	-71.1	3.8	8.47e-01	0	40	104	0	75	32790
2026-01-01 07:15:02.17	150.42	6.05	-52.3	-71.1	3.8	8.46e-01	0	40	104	0	75	32750
2026-01-01 07:15:04.18	150.14	5.91	-52.3	-71.1	3.8	8.46e-01	0	40	104	0	75	32658
2026-01-01 07:15:06.18	149.86	5.78	-52.2	-71.1	3.8	8.47e-01	0	40	104	0	75	32682
2026-01-01 07:15:08.18	149.58	5.64	-52.3	-71.1	3.8	8.47e-01	0	40	104	0	75	32677
2026-01-01 07:15:10.19	149.30	5.50	-52.3	-71.1	3.8	8.47e-01	0	40	104	0	75	32884
2026-01-01 07:15:12.20	149.03	5.37	-52.3	-71.1	3.8	8.47e-01	0	40	104	0	75	32850
2026-01-01 07:15:14.20	148.77	5.23	-52.3	-71.1	3.8	8.48e-01	0	40	104	0	75	32752
2026-01-01 07:15:16.21	148.50	5.10	-52.3	-71.1	3.8	8.47e-01	0	40	104	0	75	32640
2026-01-01 07:15:18.21	148.24	4.96	-52.3	-71.1	3.8	8.47e-01	0	40	104	0	75	32720

#Closed at: 2026-01-01 07:15:19
#Recorded file [0 MB]: D:/Data/31040_260101_100823.dat