passes_logs/2026/01/01/T1/T1__20260101_021833_SUOMI_NPP_rec.log

#Pass ID: 20260101_021833_SUOMI NPP
#Satellite: SUOMI NPP
#Configuration: NPP
#almurnet v.1.7.20251203
#Start time: 2026-01-01 02:18:35

#Version: 2.0.20230620
#Station: T1
#Location: 37.570604 lon 55.790049 lat
#TLE: 1 37849U 11061A   25364.87906317  .00000195  00000+0  11345-3 0  9992
#TLE: 2 37849  98.7794 302.0592 0002571  89.2401 270.9069 14.19520347734561

#Time	Az	El	Level	Level2	SNR	BER	BlckErr	Temp	State	Recorded	gain1	gain2
2026-01-01 02:18:35.68	1.11	5.11	-51.2	-66.4	3.8	1.49e+00	0	41	0	0	73	21459
2026-01-01 02:18:37.69	0.87	5.20	-51.2	-66.4	3.8	1.49e+00	0	41	104	0	74	20233
2026-01-01 02:18:39.70	0.64	5.29	-51.3	-66.5	3.8	1.49e+00	0	41	104	0	74	20406
2026-01-01 02:18:41.71	0.40	5.38	-51.3	-66.5	3.8	1.49e+00	0	41	104	0	74	20349
2026-01-01 02:18:43.72	0.16	5.48	-51.3	-66.4	3.8	1.49e+00	0	41	104	0	74	20261
2026-01-01 02:18:45.72	359.93	5.57	-51.2	-66.4	3.8	1.49e+00	0	41	104	0	74	20288
2026-01-01 02:18:47.73	359.69	5.66	-51.2	-66.4	3.8	1.49e+00	0	41	104	0	74	20215
2026-01-01 02:18:49.74	359.44	5.75	-51.3	-66.5	3.8	1.49e+00	0	41	104	0	74	20336
2026-01-01 02:18:51.74	359.20	5.84	-51.2	-66.4	3.8	1.49e+00	0	41	104	0	74	20252
2026-01-01 02:18:53.75	358.96	5.93	-51.3	-66.5	3.8	1.49e+00	0	41	104	0	74	20393
2026-01-01 02:18:55.76	358.71	6.03	-51.3	-66.4	3.8	1.49e+00	0	41	104	0	74	20249
2026-01-01 02:18:57.77	358.46	6.12	-51.2	-66.5	3.8	1.49e+00	0	41	104	0	74	20360
2026-01-01 02:18:59.78	358.21	6.21	-51.2	-66.4	3.8	1.49e+00	0	41	104	0	74	20281
2026-01-01 02:19:01.79	357.96	6.30	-51.3	-66.5	3.8	1.49e+00	0	42	104	0	74	20361
2026-01-01 02:19:03.80	357.70	6.39	-51.2	-66.5	3.8	1.49e+00	0	42	104	0	74	20347
2026-01-01 02:19:05.81	357.45	6.48	-51.3	-66.5	3.8	1.49e+00	0	42	104	0	74	20406
2026-01-01 02:19:07.81	357.19	6.57	-51.2	-66.4	3.8	1.49e+00	0	42	104	0	74	20292
2026-01-01 02:19:09.82	356.94	6.66	-51.2	-66.4	3.8	1.49e+00	0	42	104	0	74	20279
2026-01-01 02:19:11.83	356.68	6.75	-51.2	-66.5	3.8	1.49e+00	0	42	104	0	74	20307
2026-01-01 02:19:13.84	356.41	6.84	-51.2	-66.5	3.8	1.49e+00	0	42	104	0	74	20327
2026-01-01 02:19:15.85	356.15	6.93	-51.2	-66.4	3.8	1.49e+00	0	42	104	0	74	20293
2026-01-01 02:19:17.86	355.89	7.02	-51.2	-66.5	3.8	1.49e+00	0	42	104	0	74	20312
2026-01-01 02:19:19.87	355.62	7.11	-51.3	-66.5	3.8	1.49e+00	0	42	104	0	74	20328
2026-01-01 02:19:21.88	355.35	7.19	-51.2	-66.5	3.8	1.49e+00	0	42	104	0	74	20367
2026-01-01 02:19:23.89	355.08	7.28	-51.2	-66.5	3.8	1.49e+00	0	42	104	0	74	20327
2026-01-01 02:19:25.89	354.81	7.37	-51.2	-66.4	3.8	1.49e+00	0	42	104	0	74	20300
2026-01-01 02:19:27.90	354.54	7.46	-51.2	-66.5	3.8	1.49e+00	0	42	104	0	74	20359
2026-01-01 02:19:29.91	354.26	7.54	-51.2	-66.4	3.8	1.49e+00	0	42	104	0	74	20184
2026-01-01 02:19:31.92	353.99	7.63	-51.2	-66.4	3.8	1.49e+00	0	42	104	0	74	20284
2026-01-01 02:19:33.93	353.71	7.72	-51.2	-66.4	3.8	1.49e+00	0	42	104	0	74	20266
2026-01-01 02:19:35.94	353.43	7.80	-51.2	-66.4	3.8	1.49e+00	0	43	104	0	74	20180
2026-01-01 02:19:37.95	353.15	7.89	-51.2	-66.4	3.8	1.49e+00	0	43	104	0	74	20252
2026-01-01 02:19:39.95	352.86	7.97	-51.2	-66.4	3.8	1.49e+00	0	43	104	0	74	20171
2026-01-01 02:19:41.96	352.58	8.06	-51.2	-66.5	3.8	1.49e+00	0	42	104	0	74	20306
2026-01-01 02:19:43.97	352.29	8.14	-51.2	-66.4	3.8	1.49e+00	0	43	104	0	74	20197
2026-01-01 02:19:45.98	352.00	8.23	-51.2	-66.4	3.8	1.49e+00	0	43	104	0	74	20254
2026-01-01 02:19:47.99	351.71	8.31	-51.2	-66.4	3.8	1.49e+00	0	43	104	0	74	20288
2026-01-01 02:19:50.00	351.42	8.39	-51.2	-66.4	3.8	1.49e+00	0	43	104	0	74	20210
2026-01-01 02:19:52.01	351.13	8.48	-51.2	-66.5	3.8	1.49e+00	0	43	104	0	74	20318
2026-01-01 02:19:54.01	350.83	8.56	-51.2	-66.4	3.8	1.49e+00	0	43	104	0	74	20194
2026-01-01 02:19:56.02	350.54	8.64	-51.2	-66.4	3.8	1.49e+00	0	43	104	0	74	20137
2026-01-01 02:19:58.03	350.24	8.72	-51.2	-66.4	3.8	1.49e+00	0	43	104	0	74	20221
2026-01-01 02:20:00.04	349.94	8.80	-51.2	-66.4	3.8	1.49e+00	0	43	104	0	74	20280
2026-01-01 02:20:02.05	349.63	8.89	-51.2	-66.4	3.8	1.49e+00	0	43	104	0	74	20202
2026-01-01 02:20:04.06	349.33	8.97	-51.2	-66.5	3.8	1.49e+00	0	43	104	0	74	20305
2026-01-01 02:20:06.07	349.02	9.04	-51.2	-66.4	3.8	1.49e+00	0	43	104	0	74	20226
2026-01-01 02:20:08.07	348.72	9.12	-51.2	-66.4	3.8	1.49e+00	0	43	104	0	74	20264
2026-01-01 02:20:10.08	348.41	9.20	-51.2	-66.4	3.8	1.49e+00	0	43	104	0	74	20282
2026-01-01 02:20:12.09	348.10	9.28	-51.2	-66.4	3.8	1.49e+00	0	43	104	0	74	20255
2026-01-01 02:20:14.10	347.79	9.36	-51.2	-66.4	3.8	1.49e+00	0	43	104	0	74	20285
2026-01-01 02:20:16.11	347.47	9.43	-51.2	-66.4	3.8	1.49e+00	0	43	104	0	74	20277
2026-01-01 02:20:18.12	347.16	9.51	-51.2	-66.5	3.8	1.49e+00	0	43	104	0	74	20315
2026-01-01 02:20:20.13	346.84	9.59	-51.2	-66.5	3.8	1.49e+00	0	43	104	0	74	20322
2026-01-01 02:20:22.13	346.52	9.66	-51.2	-66.4	3.8	1.49e+00	0	43	104	0	74	20231
2026-01-01 02:20:24.14	346.20	9.73	-51.2	-66.4	3.8	1.49e+00	0	43	104	0	74	20267
2026-01-01 02:20:26.15	345.88	9.81	-51.2	-66.4	3.8	1.49e+00	0	43	104	0	74	20267
2026-01-01 02:20:28.16	345.55	9.88	-51.2	-66.4	3.8	1.49e+00	0	43	104	0	74	20258
2026-01-01 02:20:30.17	345.23	9.95	-51.2	-66.4	3.8	1.49e+00	0	43	104	0	74	20174
2026-01-01 02:20:32.18	344.90	10.03	-51.2	-66.4	3.8	1.49e+00	0	43	104	0	74	20239
2026-01-01 02:20:34.19	344.57	10.10	-51.3	-66.5	3.8	1.49e+00	0	43	104	0	74	20340
2026-01-01 02:20:36.19	344.24	10.17	-51.2	-66.4	3.8	1.49e+00	0	43	104	0	74	20208
2026-01-01 02:20:38.20	343.91	10.24	-51.2	-66.4	3.8	1.49e+00	0	43	104	0	74	20272
2026-01-01 02:20:40.21	343.57	10.30	-51.2	-66.4	3.8	1.49e+00	0	43	104	0	74	20207
2026-01-01 02:20:42.22	343.24	10.37	-51.2	-66.4	3.8	1.49e+00	0	43	104	0	74	20206
2026-01-01 02:20:44.23	342.90	10.44	-51.2	-66.4	3.8	1.49e+00	0	43	104	0	74	20271
2026-01-01 02:20:46.23	342.56	10.51	-51.2	-66.4	3.8	1.49e+00	0	43	104	0	74	20217
2026-01-01 02:20:48.24	342.22	10.57	-51.2	-66.4	3.8	1.49e+00	0	43	104	0	74	20289
2026-01-01 02:20:50.25	341.88	10.64	-51.2	-66.4	3.8	1.49e+00	0	43	104	0	74	20250
2026-01-01 02:20:52.26	341.54	10.70	-51.2	-66.4	3.8	1.49e+00	0	43	104	0	74	20263
2026-01-01 02:20:54.27	341.19	10.76	-51.2	-66.4	3.8	1.49e+00	0	43	104	0	74	20282
2026-01-01 02:20:56.28	340.85	10.83	-51.2	-66.4	3.8	1.49e+00	0	43	104	0	74	20301
2026-01-01 02:20:58.29	340.50	10.89	-51.2	-66.4	3.8	1.49e+00	0	43	104	0	74	20274
2026-01-01 02:21:00.30	340.15	10.95	-51.2	-66.4	3.8	1.49e+00	0	43	104	0	74	20179
2026-01-01 02:21:02.30	339.80	11.01	-51.2	-66.4	3.8	1.49e+00	0	43	104	0	74	20246
2026-01-01 02:21:04.31	339.45	11.07	-51.2	-66.4	3.8	1.49e+00	0	43	104	0	74	20254
2026-01-01 02:21:06.32	339.09	11.12	-51.2	-66.4	3.8	1.49e+00	0	43	104	0	74	20276
2026-01-01 02:21:08.33	338.74	11.18	-51.2	-66.4	3.8	1.49e+00	0	43	104	0	74	20244
2026-01-01 02:21:10.34	338.38	11.24	-51.2	-66.4	3.8	1.49e+00	0	43	104	0	74	20281
2026-01-01 02:21:12.35	338.02	11.29	-51.2	-66.4	3.8	1.49e+00	0	43	104	0	74	20301
2026-01-01 02:21:14.35	337.67	11.35	-51.2	-66.4	3.8	1.49e+00	0	43	104	0	74	20260
2026-01-01 02:21:16.36	337.30	11.40	-51.3	-66.5	3.8	1.49e+00	0	43	104	0	74	20327
2026-01-01 02:21:18.37	336.94	11.45	-51.2	-66.4	3.8	1.49e+00	0	43	104	0	74	20292
2026-01-01 02:21:20.35	336.58	11.50	-51.2	-66.4	3.8	1.49e+00	0	44	104	0	74	20217
2026-01-01 02:21:22.37	336.22	11.55	-51.2	-66.4	3.8	1.49e+00	0	43	104	0	74	20162
2026-01-01 02:21:24.63	335.81	11.61	-51.2	-66.4	3.8	1.49e+00	0	44	104	0	74	20254
2026-01-01 02:21:26.66	335.44	11.66	-51.2	-66.4	3.8	1.49e+00	0	43	104	0	74	20215
2026-01-01 02:21:28.67	335.07	11.70	-51.2	-66.4	3.8	1.49e+00	0	43	104	0	74	20274
2026-01-01 02:21:30.67	334.70	11.75	-51.2	-66.4	3.8	1.49e+00	0	44	104	0	74	20260
2026-01-01 02:21:32.68	334.33	11.79	-51.2	-66.5	3.8	1.49e+00	0	43	104	0	74	20343
2026-01-01 02:21:34.69	333.96	11.84	-51.3	-66.5	3.8	1.49e+00	0	43	104	0	74	20326
2026-01-01 02:21:36.70	333.58	11.88	-51.2	-66.5	3.8	1.49e+00	0	43	104	0	74	20333
2026-01-01 02:21:38.71	333.21	11.92	-51.2	-66.4	3.8	1.49e+00	0	43	104	0	74	20270
2026-01-01 02:21:40.72	332.83	11.96	-51.2	-66.4	3.8	1.49e+00	0	43	104	0	74	20182
2026-01-01 02:21:42.77	332.45	12.00	-51.2	-66.5	3.8	1.49e+00	0	43	104	0	74	20354
2026-01-01 02:21:44.83	332.06	12.04	-51.3	-66.5	3.8	1.49e+00	0	43	104	0	74	20335
2026-01-01 02:21:46.93	331.67	12.08	-51.2	-66.5	3.8	1.49e+00	0	44	104	0	74	20328
2026-01-01 02:21:48.94	331.29	12.11	-51.2	-66.4	3.8	1.49e+00	0	43	104	0	74	20299
2026-01-01 02:21:50.95	330.91	12.15	-51.2	-66.4	3.8	1.49e+00	0	43	104	0	74	20302
2026-01-01 02:21:52.96	330.53	12.18	-51.2	-66.4	3.8	1.49e+00	0	43	104	0	74	20234
2026-01-01 02:21:54.96	330.15	12.21	-51.2	-66.5	3.8	1.49e+00	0	43	104	0	74	20379
2026-01-01 02:21:56.97	329.76	12.25	-51.2	-66.4	3.8	1.49e+00	0	44	104	0	74	20248
2026-01-01 02:21:58.98	329.38	12.27	-51.2	-66.4	3.8	1.49e+00	0	43	104	0	74	20210
2026-01-01 02:22:00.99	328.99	12.30	-51.2	-66.5	3.8	1.49e+00	0	43	104	0	74	20350
2026-01-01 02:22:03.00	328.61	12.33	-51.2	-66.4	3.8	1.49e+00	0	43	104	0	74	20252
2026-01-01 02:22:05.00	328.22	12.36	-51.2	-66.4	3.8	1.49e+00	0	44	104	0	74	20146
2026-01-01 02:22:07.01	327.84	12.38	-51.2	-66.4	3.8	1.49e+00	0	43	104	0	74	20196
2026-01-01 02:22:09.02	327.45	12.40	-51.2	-66.4	3.8	1.49e+00	0	43	104	0	74	20140
2026-01-01 02:22:11.02	327.06	12.43	-51.2	-66.4	3.8	1.49e+00	0	43	104	0	74	20206
2026-01-01 02:22:13.03	326.68	12.45	-51.2	-66.4	3.8	1.49e+00	0	43	104	0	74	20216
2026-01-01 02:22:15.04	326.29	12.47	-51.2	-66.5	3.8	1.49e+00	0	44	104	0	74	20338
2026-01-01 02:22:17.05	325.90	12.49	-51.2	-66.4	3.8	1.49e+00	0	43	104	0	74	20219
2026-01-01 02:22:19.06	325.51	12.50	-51.2	-66.4	3.8	1.49e+00	0	44	104	0	74	20228
2026-01-01 02:22:21.07	325.12	12.52	-51.2	-66.4	3.8	1.49e+00	0	43	104	0	74	20180
2026-01-01 02:22:23.07	324.73	12.53	-51.2	-66.4	3.8	1.49e+00	0	44	104	0	74	20211
2026-01-01 02:22:25.08	324.34	12.55	-51.2	-66.4	3.8	1.49e+00	0	44	104	0	74	20105
2026-01-01 02:22:27.09	323.94	12.56	-51.2	-66.4	3.8	1.49e+00	0	43	104	0	74	20141
2026-01-01 02:22:29.10	323.55	12.57	-51.2	-66.4	3.8	1.49e+00	0	43	104	0	74	20135
2026-01-01 02:22:31.11	323.16	12.58	-51.2	-66.4	3.8	1.49e+00	0	44	104	0	74	20175
2026-01-01 02:22:33.12	322.77	12.59	-51.2	-66.4	3.8	1.49e+00	0	44	104	0	74	20123
2026-01-01 02:22:35.13	322.37	12.59	-51.2	-66.4	3.8	1.49e+00	0	44	104	0	74	20221
2026-01-01 02:22:37.13	321.98	12.60	-51.2	-66.4	3.8	1.49e+00	0	43	104	0	74	20177
2026-01-01 02:22:39.14	321.59	12.60	-51.2	-66.4	3.8	1.49e+00	0	44	104	0	74	20190
2026-01-01 02:22:41.15	321.20	12.60	-51.2	-66.4	3.8	1.49e+00	0	44	104	0	74	20155
2026-01-01 02:22:43.16	320.80	12.61	-51.2	-66.4	3.8	1.49e+00	0	44	104	0	74	20149
2026-01-01 02:22:45.17	320.41	12.61	-51.2	-66.4	3.8	1.49e+00	0	44	104	0	74	20093
2026-01-01 02:22:47.18	320.02	12.60	-51.2	-66.4	3.8	1.49e+00	0	44	104	0	74	20162
2026-01-01 02:22:49.18	319.63	12.60	-51.2	-66.3	3.8	1.49e+00	0	43	104	0	74	20007
2026-01-01 02:22:51.19	319.23	12.60	-51.2	-66.4	3.8	1.49e+00	0	44	104	0	74	20174
2026-01-01 02:22:53.20	318.84	12.59	-51.2	-66.4	3.8	1.49e+00	0	44	104	0	74	20191
2026-01-01 02:22:55.20	318.45	12.59	-51.2	-66.4	3.8	1.49e+00	0	44	104	0	74	20085
2026-01-01 02:22:57.21	318.06	12.58	-51.2	-66.4	3.8	1.49e+00	0	43	104	0	74	20101
2026-01-01 02:22:59.22	317.66	12.57	-51.2	-66.4	3.8	1.49e+00	0	44	104	0	74	20141
2026-01-01 02:23:01.23	317.27	12.56	-51.2	-66.4	3.8	1.49e+00	0	44	104	0	74	20151
2026-01-01 02:23:03.24	316.88	12.55	-51.2	-66.4	3.8	1.49e+00	0	43	104	0	74	20164
2026-01-01 02:23:05.25	316.49	12.53	-51.2	-66.4	3.8	1.49e+00	0	43	104	0	74	20128
2026-01-01 02:23:07.25	316.10	12.52	-51.2	-66.4	3.8	1.49e+00	0	44	104	0	74	20132
2026-01-01 02:23:09.26	315.71	12.50	-51.2	-66.4	3.8	1.49e+00	0	44	104	0	74	20151
2026-01-01 02:23:11.27	315.32	12.49	-51.2	-66.4	3.8	1.49e+00	0	44	104	0	74	20141
2026-01-01 02:23:13.28	314.93	12.47	-51.2	-66.4	3.8	1.49e+00	0	43	104	0	74	20225
2026-01-01 02:23:15.29	314.54	12.45	-51.2	-66.4	3.8	1.49e+00	0	44	104	0	74	20173
2026-01-01 02:23:17.29	314.15	12.43	-51.2	-66.4	3.8	1.49e+00	0	44	104	0	74	20141
2026-01-01 02:23:19.30	313.76	12.41	-51.2	-66.4	3.8	1.49e+00	0	44	104	0	74	20217
2026-01-01 02:23:21.31	313.37	12.38	-51.2	-66.4	3.8	1.49e+00	0	44	104	0	74	20193
2026-01-01 02:23:23.32	312.99	12.36	-51.2	-66.4	3.8	1.49e+00	0	44	104	0	74	20113
2026-01-01 02:23:25.32	312.60	12.33	-51.2	-66.4	3.8	1.49e+00	0	44	104	0	74	20202
2026-01-01 02:23:27.33	312.22	12.31	-51.2	-66.4	3.8	1.49e+00	0	44	104	0	74	20136
2026-01-01 02:23:29.34	311.83	12.28	-51.2	-66.4	3.8	1.49e+00	0	44	104	0	74	20163
2026-01-01 02:23:31.35	311.45	12.25	-51.2	-66.4	3.8	1.49e+00	0	44	104	0	74	20290
2026-01-01 02:23:33.36	311.06	12.22	-51.2	-66.4	3.8	1.49e+00	0	44	104	0	74	20136
2026-01-01 02:23:35.37	310.68	12.18	-51.2	-66.4	3.8	1.49e+00	0	44	104	0	74	20189
2026-01-01 02:23:37.37	310.30	12.15	-51.2	-66.4	3.8	1.49e+00	0	44	104	0	74	20232
2026-01-01 02:23:39.38	309.92	12.12	-51.2	-66.4	3.8	1.49e+00	0	44	104	0	74	20224
2026-01-01 02:23:41.33	309.55	12.08	-51.2	-66.4	3.8	1.49e+00	0	44	104	0	74	20174
2026-01-01 02:23:43.34	309.17	12.05	-51.2	-66.4	3.8	1.49e+00	0	44	104	0	74	20140
2026-01-01 02:23:45.35	308.79	12.01	-51.2	-66.4	3.8	1.49e+00	0	44	104	0	74	20210
2026-01-01 02:23:47.36	308.42	11.97	-51.2	-66.4	3.8	1.49e+00	0	44	104	0	74	20210
2026-01-01 02:23:49.36	308.04	11.93	-51.2	-66.4	3.8	1.49e+00	0	44	104	0	74	20198
2026-01-01 02:23:51.37	307.67	11.89	-51.2	-66.4	3.8	1.49e+00	0	43	104	0	74	20227
2026-01-01 02:23:53.38	307.29	11.85	-51.2	-66.4	3.8	1.49e+00	0	44	104	0	74	20186
2026-01-01 02:23:55.37	306.92	11.80	-51.2	-66.4	3.8	1.49e+00	0	44	104	0	74	20249
2026-01-01 02:23:57.61	306.51	11.75	-51.2	-66.4	3.8	1.49e+00	0	43	104	0	74	20200
2026-01-01 02:23:59.61	306.14	11.71	-51.2	-66.4	3.8	1.49e+00	0	44	104	0	74	20286
2026-01-01 02:24:01.62	305.77	11.66	-51.2	-66.4	3.8	1.49e+00	0	43	104	0	74	20218
2026-01-01 02:24:03.63	305.40	11.61	-51.2	-66.4	3.8	1.49e+00	0	44	104	0	74	20115
2026-01-01 02:24:05.67	305.03	11.56	-51.2	-66.4	3.8	1.49e+00	0	44	104	0	74	20253
2026-01-01 02:24:07.74	304.65	11.51	-51.2	-66.4	3.8	1.49e+00	0	44	104	0	74	20227
2026-01-01 02:24:09.75	304.29	11.46	-51.2	-66.4	3.8	1.49e+00	0	44	104	0	74	20225
2026-01-01 02:24:11.76	303.93	11.41	-51.2	-66.4	3.8	1.49e+00	0	44	104	0	74	20257
2026-01-01 02:24:13.77	303.56	11.36	-51.2	-66.4	3.8	1.49e+00	0	44	104	0	74	20260
2026-01-01 02:24:15.78	303.20	11.30	-51.2	-66.4	3.8	1.49e+00	0	44	104	0	74	20201
2026-01-01 02:24:17.78	302.85	11.25	-51.2	-66.4	3.8	1.49e+00	0	44	104	0	74	20161
2026-01-01 02:24:19.79	302.49	11.19	-51.2	-66.4	3.8	1.49e+00	0	43	104	0	74	20258
2026-01-01 02:24:21.80	302.13	11.13	-51.2	-66.4	3.8	1.49e+00	0	44	104	0	74	20255
2026-01-01 02:24:23.81	301.78	11.08	-51.2	-66.4	3.8	1.49e+00	0	44	104	0	74	20158
2026-01-01 02:24:25.82	301.42	11.02	-51.2	-66.4	3.8	1.49e+00	0	44	104	0	74	20266
2026-01-01 02:24:27.83	301.07	10.96	-51.2	-66.4	3.8	1.49e+00	0	44	104	0	74	20177
2026-01-01 02:24:29.83	300.72	10.90	-51.2	-66.4	3.8	1.49e+00	0	44	104	0	74	20273
2026-01-01 02:24:31.84	300.37	10.84	-51.2	-66.5	3.8	1.49e+00	0	44	104	0	74	20315
2026-01-01 02:24:33.85	300.02	10.77	-51.2	-66.4	3.8	1.49e+00	0	44	104	0	74	20237
2026-01-01 02:24:35.86	299.68	10.71	-51.3	-66.5	3.8	1.49e+00	0	44	104	0	74	20344
2026-01-01 02:24:37.87	299.33	10.65	-51.3	-66.4	3.8	1.49e+00	0	44	104	0	74	20280
2026-01-01 02:24:39.88	298.99	10.58	-51.2	-66.4	3.8	1.49e+00	0	44	104	0	74	20287
2026-01-01 02:24:41.89	298.65	10.51	-51.2	-66.5	3.8	1.49e+00	0	44	104	0	74	20327
2026-01-01 02:24:43.89	298.31	10.45	-51.2	-66.4	3.8	1.49e+00	0	44	104	0	74	20236
2026-01-01 02:24:45.90	297.97	10.38	-51.2	-66.5	3.8	1.49e+00	0	44	104	0	74	20308
2026-01-01 02:24:47.91	297.63	10.31	-51.2	-66.4	3.8	1.49e+00	0	44	104	0	74	20210
2026-01-01 02:24:49.92	297.30	10.24	-51.2	-66.4	3.8	1.49e+00	0	44	104	0	74	20259
2026-01-01 02:24:51.93	296.96	10.18	-51.2	-66.4	3.8	1.49e+00	0	44	104	0	74	20275
2026-01-01 02:24:53.94	296.63	10.11	-51.3	-66.4	3.8	1.49e+00	0	44	104	0	74	20303
2026-01-01 02:24:55.95	296.30	10.03	-51.3	-66.5	3.8	1.49e+00	0	44	104	0	74	20353
2026-01-01 02:24:57.96	295.97	9.96	-51.3	-66.5	3.8	1.49e+00	0	44	104	0	74	20513
2026-01-01 02:24:59.96	295.65	9.89	-51.3	-66.5	3.8	1.49e+00	0	44	104	0	74	20389
2026-01-01 02:25:01.97	295.32	9.82	-51.3	-66.5	3.8	1.49e+00	0	44	104	0	74	20400
2026-01-01 02:25:03.98	295.00	9.74	-51.3	-66.5	3.8	1.49e+00	0	44	104	0	74	20318
2026-01-01 02:25:05.99	294.67	9.67	-51.3	-66.5	3.8	1.49e+00	0	44	104	0	74	20359
2026-01-01 02:25:08.00	294.35	9.59	-51.2	-66.4	3.8	1.49e+00	0	44	104	0	74	20288
2026-01-01 02:25:10.00	294.04	9.52	-51.2	-66.4	3.8	1.49e+00	0	44	104	0	74	20299
2026-01-01 02:25:12.01	293.72	9.44	-51.3	-66.5	3.8	1.49e+00	0	44	104	0	74	20322
2026-01-01 02:25:14.02	293.40	9.37	-51.3	-66.5	3.8	1.49e+00	0	44	104	0	74	20391
2026-01-01 02:25:16.03	293.09	9.29	-51.2	-66.4	3.8	1.49e+00	0	43	104	0	74	20195
2026-01-01 02:25:18.04	292.78	9.21	-51.3	-66.5	3.8	1.49e+00	0	44	104	0	74	20366
2026-01-01 02:25:20.04	292.47	9.13	-51.3	-66.5	3.8	1.49e+00	0	44	104	0	74	20372
2026-01-01 02:25:22.05	292.16	9.05	-51.3	-66.5	3.8	1.49e+00	0	44	104	0	74	20312
2026-01-01 02:25:24.06	291.85	8.97	-51.3	-66.5	3.8	1.49e+00	0	44	104	0	74	20348
2026-01-01 02:25:26.07	291.54	8.89	-51.3	-66.5	3.8	1.49e+00	0	44	104	0	74	20446
2026-01-01 02:25:28.08	291.24	8.81	-51.3	-66.5	3.8	1.49e+00	0	44	104	0	74	20417
2026-01-01 02:25:30.08	290.94	8.73	-51.3	-66.5	3.8	1.49e+00	0	44	104	0	74	20359
2026-01-01 02:25:32.09	290.64	8.65	-51.3	-66.5	3.8	1.49e+00	0	44	104	0	74	20477
2026-01-01 02:25:34.10	290.34	8.57	-51.3	-66.5	3.8	1.49e+00	0	44	104	0	74	20332
2026-01-01 02:25:36.11	290.04	8.49	-51.3	-66.5	3.8	1.49e+00	0	44	104	0	74	20368
2026-01-01 02:25:38.12	289.75	8.40	-51.3	-66.5	3.8	1.49e+00	0	44	104	0	74	20312
2026-01-01 02:25:40.13	289.45	8.32	-51.3	-66.5	3.8	1.49e+00	0	44	104	0	74	20358
2026-01-01 02:25:42.13	289.16	8.24	-51.3	-66.5	3.8	1.49e+00	0	44	104	0	74	20400
2026-01-01 02:25:44.14	288.87	8.15	-51.3	-66.5	3.8	1.49e+00	0	44	104	0	74	20358
2026-01-01 02:25:46.15	288.58	8.07	-51.3	-66.5	3.8	1.49e+00	0	44	104	0	74	20314
2026-01-01 02:25:48.16	288.30	7.98	-51.3	-66.5	3.8	1.49e+00	0	44	104	0	74	20363
2026-01-01 02:25:50.16	288.01	7.90	-51.3	-66.5	3.8	1.49e+00	0	44	104	0	74	20458
2026-01-01 02:25:52.17	287.73	7.81	-51.3	-66.5	3.8	1.49e+00	0	44	104	0	74	20483
2026-01-01 02:25:54.18	287.45	7.72	-51.3	-66.5	3.8	1.49e+00	0	44	104	0	74	20499
2026-01-01 02:25:56.19	287.17	7.64	-51.3	-66.5	3.8	1.49e+00	0	44	104	0	74	20491
2026-01-01 02:25:58.20	286.89	7.55	-51.3	-66.5	3.8	1.49e+00	0	43	104	0	74	20364
2026-01-01 02:26:00.21	286.61	7.46	-51.2	-66.4	3.8	1.49e+00	0	44	104	0	74	20279
2026-01-01 02:26:02.21	286.34	7.38	-51.3	-66.5	3.8	1.49e+00	0	44	104	0	74	20393
2026-01-01 02:26:04.22	286.07	7.29	-51.3	-66.5	3.8	1.49e+00	0	44	104	0	74	20324
2026-01-01 02:26:06.23	285.79	7.20	-51.3	-66.5	3.8	1.49e+00	0	44	104	0	74	20347
2026-01-01 02:26:08.24	285.52	7.11	-51.3	-66.4	3.8	1.49e+00	0	44	104	0	74	20268
2026-01-01 02:26:10.24	285.26	7.02	-51.3	-66.6	3.8	1.49e+00	0	44	104	0	74	20571
2026-01-01 02:26:12.25	284.99	6.93	-51.3	-66.5	3.8	1.49e+00	0	44	104	0	74	20500
2026-01-01 02:26:14.26	284.73	6.85	-51.3	-66.5	3.8	1.49e+00	0	44	104	0	74	20388
2026-01-01 02:26:16.27	284.46	6.76	-51.3	-66.5	3.8	1.49e+00	0	44	104	0	74	20356
2026-01-01 02:26:18.27	284.20	6.67	-51.3	-66.5	3.8	1.49e+00	0	44	104	0	74	20478
2026-01-01 02:26:20.28	283.94	6.58	-51.3	-66.5	3.8	1.49e+00	0	44	104	0	74	20424
2026-01-01 02:26:22.29	283.68	6.49	-51.3	-66.5	3.8	1.49e+00	0	44	104	0	74	20382
2026-01-01 02:26:24.30	283.43	6.40	-51.3	-66.5	3.8	1.49e+00	0	44	104	0	74	20412
2026-01-01 02:26:26.31	283.17	6.31	-51.3	-66.5	3.8	1.49e+00	0	44	104	0	74	20440
2026-01-01 02:26:28.32	282.92	6.21	-51.3	-66.5	3.8	1.49e+00	0	44	104	0	74	20407
2026-01-01 02:26:30.32	282.67	6.12	-51.3	-66.5	3.8	1.49e+00	0	44	104	0	74	20509
2026-01-01 02:26:32.33	282.42	6.03	-51.3	-66.5	3.8	1.49e+00	0	44	104	0	74	20359
2026-01-01 02:26:34.34	282.17	5.94	-51.3	-66.5	3.8	1.49e+00	0	44	104	0	74	20441
2026-01-01 02:26:36.35	281.92	5.85	-51.3	-66.5	3.8	1.49e+00	0	44	104	0	74	
