passes_logs/2026/01/01/T1/T1__20260101_084839_SUOMI_NPP_rec.log

#Pass ID: 20260101_084839_SUOMI NPP
#Satellite: SUOMI NPP
#Configuration: NPP
#almurnet v.1.7.20251203
#Start time: 2026-01-01 08:48:38

#Version: 2.0.20230620
#Station: T1
#Location: 37.570604 lon 55.790049 lat
#TLE: 1 37849U 11061A   25364.87906317  .00000195  00000+0  11345-3 0  9992
#TLE: 2 37849  98.7794 302.0592 0002571  89.2401 270.9069 14.19520347734561

#Time	Az	El	Level	Level2	SNR	BER	BlckErr	Temp	State	Recorded	gain1	gain2
2026-01-01 08:48:38.98	122.96	4.99	-51.4	-66.5	3.8	1.49e+00	0	39	0	0	73	21722
2026-01-01 08:48:41.99	122.78	5.19	-51.5	-66.6	3.8	1.49e+00	0	40	104	0	74	20690
2026-01-01 08:48:45.01	122.59	5.39	-51.5	-66.6	3.8	1.49e+00	0	40	104	0	74	20707
2026-01-01 08:48:48.02	122.40	5.59	-51.5	-66.6	3.8	1.49e+00	0	40	104	0	74	20680
2026-01-01 08:48:51.03	122.21	5.79	-51.5	-66.7	3.8	1.49e+00	0	40	104	0	74	20814
2026-01-01 08:48:54.04	122.02	5.99	-51.5	-66.7	3.8	1.49e+00	0	40	104	0	74	20793
2026-01-01 08:48:57.06	121.82	6.20	-51.5	-66.7	3.8	1.49e+00	0	40	104	0	74	20791
2026-01-01 08:49:00.07	121.62	6.41	-51.5	-66.6	3.8	1.49e+00	0	40	104	0	74	20751
2026-01-01 08:49:03.08	121.42	6.61	-51.6	-66.7	3.8	1.49e+00	0	40	104	0	74	20794
2026-01-01 08:49:06.09	121.21	6.82	-51.5	-66.6	3.8	1.49e+00	0	40	104	0	74	20751
2026-01-01 08:49:09.11	121.00	7.03	-51.5	-66.6	3.8	1.49e+00	0	41	104	0	74	20771
2026-01-01 08:49:12.12	120.79	7.25	-51.6	-66.7	3.8	1.49e+00	0	41	104	0	74	20950
2026-01-01 08:49:15.13	120.58	7.46	-51.6	-66.7	3.8	1.49e+00	0	41	104	0	74	20865
2026-01-01 08:49:18.15	120.36	7.67	-51.5	-66.6	3.8	1.49e+00	0	41	104	0	74	20712
2026-01-01 08:49:21.16	120.14	7.89	-51.5	-66.7	3.8	1.49e+00	0	41	104	0	74	20784
2026-01-01 08:49:24.17	119.91	8.11	-51.6	-66.7	3.8	1.49e+00	0	41	104	0	74	20804
2026-01-01 08:49:27.19	119.68	8.33	-51.5	-66.6	3.8	1.49e+00	0	41	104	0	74	20764
2026-01-01 08:49:30.20	119.45	8.55	-51.5	-66.6	3.8	1.49e+00	0	41	104	0	74	20766
2026-01-01 08:49:33.21	119.21	8.77	-51.5	-66.6	3.8	1.49e+00	0	41	104	0	74	20757
2026-01-01 08:49:36.23	118.97	8.99	-51.5	-66.6	3.8	1.49e+00	0	41	104	0	74	20677
2026-01-01 08:49:39.24	118.73	9.22	-51.5	-66.6	3.8	1.49e+00	0	41	104	0	74	20715
2026-01-01 08:49:42.25	118.48	9.44	-51.6	-66.7	3.8	1.49e+00	0	41	104	0	74	20802
2026-01-01 08:49:45.27	118.23	9.67	-51.5	-66.7	3.8	1.49e+00	0	42	104	0	74	20810
2026-01-01 08:49:48.28	117.98	9.90	-51.5	-66.7	3.8	1.49e+00	0	41	104	0	74	20797
2026-01-01 08:49:51.29	117.72	10.13	-51.5	-66.6	3.8	1.49e+00	0	41	104	0	74	20738
2026-01-01 08:49:54.31	117.45	10.37	-51.5	-66.6	3.8	1.49e+00	0	42	104	0	74	20747
2026-01-01 08:49:57.32	117.18	10.60	-51.6	-66.7	3.8	1.49e+00	0	42	104	0	74	20871
2026-01-01 08:50:00.33	116.91	10.84	-51.5	-66.7	3.8	1.49e+00	0	42	104	0	74	20778
2026-01-01 08:50:03.34	116.63	11.07	-51.5	-66.6	3.8	1.49e+00	0	42	104	0	74	20754
2026-01-01 08:50:06.35	116.35	11.31	-51.5	-66.6	3.8	1.49e+00	0	42	104	0	74	20631
2026-01-01 08:50:09.37	116.06	11.55	-51.5	-66.7	3.8	1.49e+00	0	42	104	0	74	20778
2026-01-01 08:50:12.38	115.77	11.80	-51.5	-66.6	3.8	1.49e+00	0	42	104	0	74	20704
2026-01-01 08:50:15.39	115.48	12.04	-51.5	-66.6	3.8	1.49e+00	0	42	104	0	74	20724
2026-01-01 08:50:18.41	115.17	12.29	-51.5	-66.6	3.8	1.49e+00	0	42	104	0	74	20760
2026-01-01 08:50:21.42	114.87	12.53	-51.5	-66.6	3.8	1.49e+00	0	42	104	0	74	20683
2026-01-01 08:50:24.43	114.55	12.78	-51.5	-66.6	3.8	1.49e+00	0	42	104	0	74	20739
2026-01-01 08:50:27.44	114.24	13.03	-51.5	-66.6	3.8	1.49e+00	0	42	104	0	74	20599
2026-01-01 08:50:30.46	113.91	13.29	-51.5	-66.6	3.8	1.49e+00	0	42	104	0	74	20585
2026-01-01 08:50:33.47	113.58	13.54	-51.5	-66.6	3.8	1.49e+00	0	42	104	0	74	20644
2026-01-01 08:50:36.48	113.25	13.80	-51.5	-66.6	3.8	1.49e+00	0	42	104	0	74	20540
2026-01-01 08:50:39.50	112.91	14.06	-51.5	-66.6	3.8	1.49e+00	0	42	104	0	74	20587
2026-01-01 08:50:42.51	112.56	14.32	-51.5	-66.6	3.8	1.49e+00	0	42	104	0	74	20572
2026-01-01 08:50:45.52	112.21	14.58	-51.5	-66.6	3.8	1.49e+00	0	42	104	0	74	20668
2026-01-01 08:50:48.54	111.85	14.84	-51.5	-66.6	3.8	1.49e+00	0	42	104	0	74	20558
2026-01-01 08:50:51.55	111.48	15.11	-51.5	-66.6	3.8	1.49e+00	0	42	104	0	74	20674
2026-01-01 08:50:54.56	111.11	15.37	-51.4	-66.6	3.8	1.49e+00	0	42	104	0	74	20539
2026-01-01 08:50:57.57	110.73	15.64	-51.5	-66.6	3.8	1.49e+00	0	42	104	0	74	20591
2026-01-01 08:51:00.59	110.34	15.91	-51.5	-66.6	3.8	1.49e+00	0	42	104	0	74	20621
2026-01-01 08:51:03.60	109.95	16.18	-51.5	-66.6	3.8	1.49e+00	0	42	104	0	74	20627
2026-01-01 08:51:06.62	109.55	16.46	-51.5	-66.6	3.8	1.49e+00	0	42	104	0	74	20703
2026-01-01 08:51:09.63	109.14	16.73	-51.5	-66.6	3.8	1.49e+00	0	42	104	0	74	20640
2026-01-01 08:51:12.64	108.72	17.01	-51.5	-66.6	3.8	1.49e+00	0	42	104	0	74	20594
2026-01-01 08:51:15.65	108.30	17.28	-51.5	-66.6	3.8	1.49e+00	0	42	104	0	74	20695
2026-01-01 08:51:18.66	107.87	17.56	-51.5	-66.6	3.8	1.49e+00	0	42	104	0	74	20577
2026-01-01 08:51:21.68	107.42	17.85	-51.5	-66.6	3.8	1.49e+00	0	42	104	0	74	20659
2026-01-01 08:51:24.69	106.98	18.13	-51.5	-66.6	3.8	1.49e+00	0	42	104	0	74	20588
2026-01-01 08:51:27.70	106.52	18.41	-51.5	-66.6	3.8	1.49e+00	0	42	104	0	74	20694
2026-01-01 08:51:30.71	106.05	18.70	-51.5	-66.6	3.8	1.49e+00	0	42	104	0	74	20621
2026-01-01 08:51:33.73	105.58	18.98	-51.5	-66.6	3.8	1.49e+00	0	42	104	0	74	20699
2026-01-01 08:51:36.74	105.09	19.27	-51.5	-66.6	3.8	1.49e+00	0	42	104	0	74	20659
2026-01-01 08:51:39.75	104.60	19.56	-51.5	-66.6	3.8	1.49e+00	0	42	104	0	74	20731
2026-01-01 08:51:42.77	104.09	19.85	-51.5	-66.6	3.8	1.49e+00	0	42	104	0	74	20646
2026-01-01 08:51:45.78	103.58	20.14	-51.5	-66.6	3.8	1.49e+00	0	42	104	0	74	20672
2026-01-01 08:51:48.79	103.06	20.43	-51.5	-66.6	3.8	1.49e+00	0	43	104	0	74	20717
2026-01-01 08:51:51.80	102.53	20.72	-51.5	-66.6	3.8	1.49e+00	0	43	104	0	74	20654
2026-01-01 08:51:54.81	101.98	21.02	-51.5	-66.6	3.8	1.49e+00	0	43	104	0	74	20709
2026-01-01 08:51:57.83	101.43	21.31	-51.5	-66.6	3.8	1.49e+00	0	42	104	0	74	20694
2026-01-01 08:52:00.84	100.87	21.61	-51.5	-66.6	3.8	1.49e+00	0	42	104	0	74	20683
2026-01-01 08:52:03.85	100.29	21.90	-51.5	-66.6	3.8	1.49e+00	0	42	104	0	74	20581
2026-01-01 08:52:06.87	99.70	22.20	-51.5	-66.6	3.8	1.49e+00	0	43	104	0	74	20742
2026-01-01 08:52:09.88	99.10	22.49	-51.5	-66.6	3.8	1.49e+00	0	42	104	0	74	20692
2026-01-01 08:52:12.89	98.50	22.79	-51.5	-66.6	3.8	1.49e+00	0	42	104	0	74	20611
2026-01-01 08:52:15.90	97.88	23.08	-51.5	-66.6	3.8	1.49e+00	0	42	104	0	74	20577
2026-01-01 08:52:18.91	97.24	23.38	-51.5	-66.6	3.8	1.49e+00	0	42	104	0	74	20727
2026-01-01 08:52:21.93	96.60	23.67	-51.5	-66.6	3.8	1.49e+00	0	43	104	0	74	20720
2026-01-01 08:52:24.94	95.94	23.97	-51.5	-66.6	3.8	1.49e+00	0	43	104	0	74	20713
2026-01-01 08:52:27.95	95.27	24.26	-51.5	-66.6	3.8	1.49e+00	0	42	104	0	74	20658
2026-01-01 08:52:30.97	94.58	24.55	-51.5	-66.6	3.8	1.49e+00	0	42	104	0	74	20748
2026-01-01 08:52:33.98	93.89	24.84	-51.5	-66.6	3.8	1.49e+00	0	43	104	0	74	20629
2026-01-01 08:52:37.00	93.18	25.13	-51.5	-66.6	3.8	1.49e+00	0	43	104	0	74	20665
2026-01-01 08:52:40.01	92.46	25.42	-51.5	-66.6	3.8	1.49e+00	0	43	104	0	74	20610
2026-01-01 08:52:43.02	91.72	25.70	-51.5	-66.6	3.8	1.49e+00	0	43	104	0	74	20739
2026-01-01 08:52:46.03	90.98	25.99	-51.5	-66.7	3.8	1.49e+00	0	43	104	0	74	20806
2026-01-01 08:52:49.05	90.21	26.27	-51.5	-66.6	3.8	1.49e+00	0	43	104	0	74	20691
2026-01-01 08:52:52.06	89.44	26.54	-51.5	-66.6	3.8	1.49e+00	0	43	104	0	74	20752
2026-01-01 08:52:55.07	88.65	26.82	-51.5	-66.6	3.8	1.49e+00	0	43	104	0	74	20768
2026-01-01 08:52:58.09	87.84	27.09	-51.5	-66.6	3.8	1.49e+00	0	43	104	0	74	20738
2026-01-01 08:53:01.10	87.03	27.36	-51.5	-66.7	3.8	1.49e+00	0	43	104	0	74	20799
2026-01-01 08:53:04.11	86.20	27.62	-51.5	-66.6	3.8	1.49e+00	0	43	104	0	74	20691
2026-01-01 08:53:07.13	85.35	27.88	-51.5	-66.7	3.8	1.49e+00	0	43	104	0	74	20861
2026-01-01 08:53:10.14	84.49	28.14	-51.5	-66.7	3.8	1.49e+00	0	43	104	0	74	20783
2026-01-01 08:53:13.15	83.62	28.38	-51.6	-66.7	3.8	1.49e+00	0	43	104	0	74	20845
2026-01-01 08:53:16.16	82.74	28.63	-51.6	-66.7	3.8	1.49e+00	0	43	104	0	74	20900
2026-01-01 08:53:19.18	81.84	28.87	-51.6	-66.7	3.8	1.49e+00	0	42	104	0	74	20786
2026-01-01 08:53:22.19	80.93	29.10	-51.5	-66.7	3.8	1.49e+00	0	43	104	0	74	20818
2026-01-01 08:53:25.20	80.00	29.33	-51.6	-66.7	3.8	1.49e+00	0	43	104	0	74	20787
2026-01-01 08:53:28.22	79.06	29.55	-51.6	-66.7	3.8	1.49e+00	0	43	104	0	74	20789
2026-01-01 08:53:31.23	78.11	29.76	-51.6	-66.7	3.8	1.49e+00	0	43	104	0	74	20801
2026-01-01 08:53:34.25	77.15	29.97	-51.5	-66.7	3.8	1.49e+00	0	43	104	0	74	20813
2026-01-01 08:53:37.26	76.18	30.16	-51.6	-66.7	3.8	1.49e+00	0	43	104	0	74	20951
2026-01-01 08:53:40.27	75.19	30.35	-51.6	-66.7	3.8	1.49e+00	0	42	104	0	74	20829
2026-01-01 08:53:43.28	74.19	30.53	-51.5	-66.7	3.8	1.49e+00	0	43	104	0	74	20820
2026-01-01 08:53:46.30	73.18	30.70	-51.5	-66.6	3.8	1.49e+00	0	43	104	0	74	20775
2026-01-01 08:53:49.31	72.16	30.87	-51.6	-66.7	3.8	1.49e+00	0	43	104	0	74	20783
2026-01-01 08:53:52.32	71.13	31.02	-51.5	-66.6	3.8	1.49e+00	0	43	104	0	74	20679
2026-01-01 08:53:55.34	70.09	31.16	-51.6	-66.7	3.8	1.49e+00	0	43	104	0	74	20873
2026-01-01 08:53:58.35	69.04	31.30	-51.5	-66.7	3.8	1.49e+00	0	43	104	0	74	20785
2026-01-01 08:54:01.36	67.99	31.42	-51.5	-66.7	3.8	1.49e+00	0	43	104	0	74	20822
2026-01-01 08:54:04.38	66.92	31.53	-51.5	-66.6	3.8	1.49e+00	0	42	104	0	74	20745
2026-01-01 08:54:07.39	65.85	31.64	-51.5	-66.6	3.8	1.49e+00	0	43	104	0	74	20708
2026-01-01 08:54:10.40	64.78	31.73	-51.5	-66.6	3.8	1.49e+00	0	43	104	0	74	20739
2026-01-01 08:54:13.42	63.69	31.81	-51.5	-66.6	3.8	1.49e+00	0	43	104	0	74	20688
2026-01-01 08:54:16.43	62.60	31.87	-51.5	-66.6	3.8	1.49e+00	0	43	104	0	74	20715
2026-01-01 08:54:19.44	61.51	31.93	-51.5	-66.7	3.8	1.49e+00	0	43	104	0	74	20875
2026-01-01 08:54:22.46	60.41	31.98	-51.5	-66.6	3.8	1.49e+00	0	43	104	0	74	20731
2026-01-01 08:54:25.47	59.32	32.01	-51.5	-66.7	3.8	1.49e+00	0	43	104	0	74	20781
2026-01-01 08:54:28.48	58.22	32.03	-51.5	-66.6	3.8	1.49e+00	0	43	104	0	74	20707
2026-01-01 08:54:31.50	57.11	32.04	-51.5	-66.7	3.8	1.49e+00	0	43	104	0	74	20825
2026-01-01 08:54:34.51	56.01	32.04	-51.6	-66.7	3.8	1.49e+00	0	43	104	0	74	20808
2026-01-01 08:54:37.52	54.92	32.02	-51.6	-66.7	3.8	1.49e+00	0	43	104	0	74	20788
2026-01-01 08:54:40.54	53.81	31.99	-51.6	-66.7	3.8	1.49e+00	0	43	104	0	74	20834
2026-01-01 08:54:43.55	52.72	31.96	-51.6	-66.6	3.8	1.49e+00	0	43	104	0	74	20758
2026-01-01 08:54:46.56	51.63	31.91	-51.6	-66.7	3.8	1.49e+00	0	43	104	0	74	20843
2026-01-01 08:54:49.57	50.54	31.84	-51.6	-66.7	3.8	1.49e+00	0	43	104	0	74	20804
2026-01-01 08:54:52.59	49.45	31.77	-51.5	-66.7	3.8	1.49e+00	0	43	104	0	74	20797
2026-01-01 08:54:55.60	48.37	31.69	-51.5	-66.7	3.8	1.49e+00	0	43	104	0	74	20862
2026-01-01 08:54:58.61	47.30	31.59	-51.6	-66.7	3.8	1.49e+00	0	43	104	0	74	20867
2026-01-01 08:55:01.63	46.23	31.48	-51.6	-66.7	3.8	1.49e+00	0	43	104	0	74	20783
2026-01-01 08:55:04.64	45.17	31.37	-51.6	-66.7	3.8	1.49e+00	0	43	104	0	74	20802
2026-01-01 08:55:07.65	44.12	31.24	-51.6	-66.6	3.8	1.49e+00	0	43	104	0	74	20766
2026-01-01 08:55:10.66	43.08	31.10	-51.6	-66.7	3.8	1.49e+00	0	43	104	0	74	20806
2026-01-01 08:55:13.68	42.04	30.95	-51.6	-66.7	3.8	1.49e+00	0	43	104	0	74	20841
2026-01-01 08:55:16.69	41.02	30.80	-51.6	-66.7	3.8	1.49e+00	0	43	104	0	74	20910
2026-01-01 08:55:19.70	40.01	30.63	-51.6	-66.7	3.8	1.49e+00	0	43	104	0	74	20831
2026-01-01 08:55:22.71	39.01	30.45	-51.6	-66.7	3.8	1.49e+00	0	43	104	0	74	20844
2026-01-01 08:55:25.73	38.02	30.27	-51.6	-66.7	3.8	1.49e+00	0	43	104	0	74	20831
2026-01-01 08:55:28.74	37.04	30.08	-51.6	-66.7	3.8	1.49e+00	0	43	104	0	74	20838
2026-01-01 08:55:31.75	36.07	29.88	-51.6	-66.7	3.8	1.49e+00	0	43	104	0	74	20824
2026-01-01 08:55:34.77	35.11	29.67	-51.6	-66.7	3.8	1.49e+00	0	43	104	0	74	20938
2026-01-01 08:55:37.78	34.17	29.45	-51.6	-66.7	3.8	1.49e+00	0	43	104	0	74	20863
2026-01-01 08:55:40.79	33.25	29.23	-51.5	-66.7	3.8	1.49e+00	0	43	104	0	74	20856
2026-01-01 08:55:43.80	32.33	29.00	-51.6	-66.7	3.8	1.49e+00	0	43	104	0	74	20933
2026-01-01 08:55:46.82	31.42	28.77	-51.6	-66.7	3.8	1.49e+00	0	43	104	0	74	20827
2026-01-01 08:55:49.83	30.54	28.53	-51.6	-66.7	3.8	1.49e+00	0	43	104	0	74	20808
2026-01-01 08:55:52.84	29.66	28.28	-51.6	-66.6	3.8	1.49e+00	0	43	104	0	74	20768
2026-01-01 08:55:55.85	28.80	28.03	-51.6	-66.7	3.8	1.49e+00	0	43	104	0	74	20903
2026-01-01 08:55:58.87	27.95	27.77	-51.6	-66.7	3.8	1.49e+00	0	43	104	0	74	20871
2026-01-01 08:56:01.88	27.11	27.51	-51.6	-66.7	3.8	1.49e+00	0	43	104	0	74	20827
2026-01-01 08:56:04.89	26.29	27.25	-51.6	-66.7	3.8	1.49e+00	0	43	104	0	74	21010
2026-01-01 08:56:07.90	25.49	26.98	-51.6	-66.7	3.8	1.49e+00	0	43	104	0	74	20916
2026-01-01 08:56:10.92	24.69	26.71	-51.6	-66.7	3.8	1.49e+00	0	43	104	0	74	20851
2026-01-01 08:56:13.93	23.91	26.43	-51.6	-66.7	3.8	1.49e+00	0	43	104	0	74	20942
2026-01-01 08:56:16.94	23.15	26.16	-51.6	-66.7	3.8	1.49e+00	0	43	104	0	74	20902
2026-01-01 08:56:19.96	22.39	25.87	-51.6	-66.7	3.8	1.49e+00	0	43	104	0	74	20960
2026-01-01 08:56:22.97	21.65	25.59	-51.6	-66.7	3.8	1.49e+00	0	43	104	0	74	20920
2026-01-01 08:56:25.98	20.93	25.31	-51.6	-66.7	3.8	1.49e+00	0	43	104	0	74	20920
2026-01-01 08:56:28.99	20.22	25.02	-51.6	-66.7	3.8	1.49e+00	0	43	104	0	74	20915
2026-01-01 08:56:32.00	19.52	24.73	-51.6	-66.8	3.8	1.49e+00	0	43	104	0	74	21050
2026-01-01 08:56:35.02	18.83	24.44	-51.7	-66.8	3.8	1.49e+00	0	43	104	0	74	21091
2026-01-01 08:56:38.03	18.16	24.15	-51.6	-66.7	3.8	1.49e+00	0	43	104	0	74	20965
2026-01-01 08:56:41.04	17.49	23.86	-51.6	-66.7	3.8	1.49e+00	0	43	104	0	74	20883
2026-01-01 08:56:44.06	16.84	23.57	-51.6	-66.7	3.8	1.49e+00	0	43	104	0	74	21014
2026-01-01 08:56:47.07	16.21	23.27	-51.6	-66.7	3.8	1.49e+00	0	43	104	0	74	20949
2026-01-01 08:56:50.08	15.58	22.98	-51.6	-66.7	3.8	1.49e+00	0	43	104	0	74	20866
2026-01-01 08:56:53.10	14.97	22.68	-51.6	-66.7	3.8	1.49e+00	0	43	104	0	74	20817
2026-01-01 08:56:56.11	14.37	22.39	-51.6	-66.7	3.8	1.49e+00	0	43	104	0	74	20953
2026-01-01 08:56:59.13	13.78	22.10	-51.6	-66.7	3.8	1.49e+00	0	43	104	0	74	20891
2026-01-01 08:57:02.14	13.20	21.80	-51.6	-66.7	3.8	1.49e+00	0	43	104	0	74	20871
2026-01-01 08:57:05.15	12.63	21.51	-51.6	-66.7	3.8	1.49e+00	0	43	104	0	74	20964
2026-01-01 08:57:08.17	12.07	21.22	-51.6	-66.7	3.8	1.49e+00	0	43	104	0	74	21000
2026-01-01 08:57:11.18	11.53	20.92	-51.6	-66.7	3.8	1.49e+00	0	43	104	0	74	20964
2026-01-01 08:57:14.19	10.99	20.63	-51.6	-66.7	3.8	1.49e+00	0	43	104	0	74	20963
2026-01-01 08:57:17.20	10.47	20.34	-51.6	-66.7	3.8	1.49e+00	0	43	104	0	74	20946
2026-01-01 08:57:20.21	9.95	20.05	-51.6	-66.8	3.8	1.49e+00	0	43	104	0	74	21055
2026-01-01 08:57:23.23	9.45	19.76	-51.6	-66.7	3.8	1.49e+00	0	43	104	0	74	20968
2026-01-01 08:57:26.26	8.95	19.47	-51.7	-66.8	3.8	1.49e+00	0	43	104	0	74	21050
2026-01-01 08:57:29.41	8.44	19.17	-51.7	-66.7	3.8	1.49e+00	0	43	104	0	74	20954
2026-01-01 08:57:32.27	7.99	18.90	-51.7	-66.8	3.8	1.49e+00	0	43	104	0	74	21130
2026-01-01 08:57:35.43	7.50	18.60	-51.7	-66.8	3.8	1.49e+00	0	43	104	0	74	21049
2026-01-01 08:57:38.30	7.06	18.33	-51.6	-66.8	3.8	1.49e+00	0	43	104	0	74	21023
2026-01-01 08:57:41.45	6.59	18.04	-51.6	-66.7	3.8	1.49e+00	0	43	104	0	74	20979
2026-01-01 08:57:44.32	6.17	17.77	-51.7	-66.8	3.8	1.49e+00	0	43	104	0	74	21067
2026-01-01 08:57:47.48	5.71	17.48	-51.7	-66.7	3.8	1.49e+00	0	43	104	0	74	20952
2026-01-01 08:57:50.35	5.31	17.21	-51.6	-66.8	3.8	1.49e+00	0	43	104	0	74	21023
2026-01-01 08:57:53.50	4.87	16.92	-51.6	-66.7	3.8	1.49e+00	0	43	104	0	74	20977
2026-01-01 08:57:56.37	4.48	16.66	-51.7	-66.7	3.8	1.49e+00	0	43	104	0	74	20975
2026-01-01 08:57:59.54	4.06	16.37	-51.6	-66.7	3.8	1.49e+00	0	43	104	0	74	20972
2026-01-01 08:58:02.41	3.68	16.12	-51.6	-66.8	3.8	1.49e+00	0	43	104	0	74	21028
2026-01-01 08:58:05.57	3.27	15.83	-51.6	-66.8	3.8	1.49e+00	0	43	104	0	74	21044
2026-01-01 08:58:08.44	2.91	15.58	-51.6	-66.7	3.8	1.49e+00	0	43	104	0	74	20974
2026-01-01 08:58:11.60	2.52	15.30	-51.7	-66.8	3.8	1.49e+00	0	43	104	0	74	21056
2026-01-01 08:58:14.47	2.17	15.05	-51.7	-66.8	3.8	1.49e+00	0	43	104	0	74	21148
2026-01-01 08:58:17.62	1.79	14.77	-51.7	-66.7	3.8	1.49e+00	0	43	104	0	74	20996
2026-01-01 08:58:20.49	1.46	14.52	-51.7	-66.8	3.8	1.49e+00	0	43	104	0	74	21075
2026-01-01 08:58:23.65	1.09	14.25	-51.7	-66.8	3.8	1.49e+00	0	43	104	0	74	21040
2026-01-01 08:58:26.51	0.77	14.00	-51.7	-66.8	3.8	1.49e+00	0	43	104	0	74	21182
2026-01-01 08:58:29.67	0.42	13.74	-51.7	-66.8	3.8	1.49e+00	0	43	104	0	74	21189
2026-01-01 08:58:32.54	0.10	13.49	-51.7	-66.8	3.8	1.49e+00	0	43	104	0	74	21177
2026-01-01 08:58:35.70	359.77	13.23	-51.7	-66.8	3.8	1.49e+00	0	43	104	0	74	21042
2026-01-01 08:58:38.57	359.46	12.99	-51.7	-66.8	3.8	1.49e+00	0	43	104	0	74	21204
2026-01-01 08:58:41.72	359.14	12.73	-51.7	-66.8	3.8	1.49e+00	0	43	104	0	74	21172
2026-01-01 08:58:44.59	358.84	12.49	-51.7	-66.8	3.8	1.49e+00	0	43	104	0	74	21102
2026-01-01 08:58:47.75	358.53	12.23	-51.7	-66.8	3.8	1.49e+00	0	43	104	0	74	21153
2026-01-01 08:58:50.62	358.25	12.00	-51.7	-66.8	3.8	1.49e+00	0	43	104	0	74	21116
2026-01-01 08:58:53.77	357.94	11.75	-51.7	-66.8	3.8	1.49e+00	0	43	104	0	74	21210
2026-01-01 08:58:56.64	357.67	11.52	-51.7	-66.7	3.8	1.49e+00	0	43	104	0	74	20999
2026-01-01 08:58:59.80	357.37	11.27	-51.7	-66.8	3.8	1.49e+00	0	43	104	0	74	21045
2026-01-01 08:59:02.67	357.11	11.04	-51.7	-66.8	3.8	1.49e+00	0	43	104	0	74	21142
2026-01-01 08:59:05.82	356.82	10.79	-51.6	-66.7	3.8	1.49e+00	0	43	104	0	74	20997
2026-01-01 08:59:08.69	356.57	10.57	-51.8	-66.8	3.8	1.49e+00	0	43	104	0	74	21212
2026-01-01 08:59:11.85	356.29	10.33	-51.7	-66.8	3.8	1.49e+00	0	43	104	0	74	21247
2026-01-01 08:59:14.72	356.05	10.11	-51.7	-66.8	3.8	1.49e+00	0	43	104	0	74	21202
2026-01-01 08:59:17.87	355.78	9.87	-51.7	-66.9	3.8	1.49e+00	0	43	104	0	74	21336
2026-01-01 08:59:20.74	355.54	9.65	-51.7	-66.8	3.8	1.49e+00	0	43	104	0	74	21176
2026-01-01 08:59:23.90	355.28	9.41	-51.7	-66.8	3.8	1.49e+00	0	43	104	0	74	21196
2026-01-01 08:59:26.77	355.05	9.20	-51.7	-66.9	3.8	1.49e+00	0	43	104	0	74	21305
2026-01-01 08:59:29.93	354.80	8.96	-51.7	-66.8	3.8	1.49e+00	0	43	104	0	74	21194
2026-01-01 08:59:32.80	354.58	8.75	-51.7	-66.9	3.8	1.49e+00	0	43	104	0	74	21312
2026-01-01 08:59:35.95	354.34	8.52	-51.8	-66.8	3.8	1.49e+00	0	43	104	0	74	21245
2026-01-01 08:59:38.82	354.12	8.31	-51.7	-66.8	3.8	1.49e+00	0	43	104	0	74	21232
2026-01-01 08:59:41.98	353.88	8.08	-51.7	-66.8	3.8	1.49e+00	0	43	104	0	74	21189
2026-01-01 08:59:44.85	353.67	7.88	-51.8	-66.9	3.8	1.49e+00	0	43	104	0	74	21291
2026-01-01 08:59:48.01	353.45	7.65	-51.7	-66.8	3.8	1.49e+00	0	43	104	0	74	21235
2026-01-01 08:59:50.87	353.24	7.45	-51.7	-66.8	3.8	1.49e+00	0	43	104	0	74	21165
2026-01-01 08:59:54.03	353.02	7.23	-51.7	-66.8	3.8	1.49e+00	0	43	104	0	74	21248
2026-01-01 08:59:56.90	352.83	7.03	-51.7	-66.8	3.8	1.49e+00	0	43	104	0	74	21214
2026-01-01 09:00:00.06	352.61	6.81	-51.7	-66.8	3.8	1.49e+00	0	43	104	0	74	21201
2026-01-01 09:00:02.93	352.42	6.61	-51.7	-66.8	3.8	1.49e+00	0	43	104	0	74	21240
2026-01-01 09:00:06.08	352.21	6.39	-51.7	-66.8	3.8	1.49e+00	0	43	104	0	74	21148
2026-01-01 09:00:08.95	352.03	6.20	-51.7	-66.8	3.8	1.49e+00	0	43	104	0	74	21179
2026-01-01 09:00:12.11	351.83	5.98	-51.8	-66.9	3.8	1.49e+00	0	43	104	0	74	21394
2026-01-01 09:00:14.98	351.64	5.79	-51.7	-66.8	3.8	1.49e+00	0	43	104	0	74	21229
2026-01-01 09:00:18.13	351.45	5.58	-51.7	-66.8	3.8	1.49e+00	0	43	104	0	74	21213
2026-01-01 09:00:21.00	351.27	5.39	-51.8	-66.8	3.8	1.49e+00	0	43	104	0	74	21237
2026-01-01 09:00:24.16	351.08	5.18	-51.7	-66.8	3.8	1.49e+00	0	43	104	0	74	21190
2026-01-01 09:00:27.03	350.91	4.99	-51.7	-66.8	3.8	1.49e+00	0	43	104	0	74	21200

#Closed at: 2026-01-01 09:00:28
#Recorded file [0 MB]: D:/Data/31040_260101_114838.dat