passes_logs/2026/01/01/T1/T1__20260101_223832_SUOMI_NPP_rec.log

#Pass ID: 20260101_223832_SUOMI NPP
#Satellite: SUOMI NPP
#Configuration: NPP
#almurnet v.1.7.20251203
#Start time: 2026-01-01 22:38:33

#Version: 2.0.20230620
#Station: T1
#Location: 37.570604 lon 55.790049 lat
#TLE: 1 37849U 11061A   26001.07732418  .00000182  00000+0  10735-3 0  9990
#TLE: 2 37849  98.7795 303.2470 0002580  87.2016 272.9455 14.19520779734739

#Time	Az	El	Level	Level2	SNR	BER	BlckErr	Temp	State	Recorded	gain1	gain2
2026-01-01 22:38:33.93	25.44	5.12	-49.7	-65.2	3.8	1.49e+00	0	41	0	0	71	20962
2026-01-01 22:38:36.94	25.64	5.31	-49.6	-65.2	3.8	1.49e+00	0	41	104	0	69	23542
2026-01-01 22:38:39.95	25.84	5.51	-49.6	-65.2	3.8	1.49e+00	0	41	104	0	69	23434
2026-01-01 22:38:42.96	26.05	5.71	-49.6	-65.2	3.8	1.49e+00	0	41	104	0	69	23442
2026-01-01 22:38:45.98	26.26	5.90	-49.6	-65.2	3.8	1.49e+00	0	41	104	0	69	23469
2026-01-01 22:38:48.99	26.47	6.10	-49.6	-65.1	3.8	1.49e+00	0	41	104	0	69	23154
2026-01-01 22:38:52.02	26.68	6.30	-49.6	-65.0	3.8	1.49e+00	0	42	104	0	69	22884
2026-01-01 22:38:55.32	26.92	6.53	-49.6	-64.9	3.8	1.49e+00	0	42	104	0	69	22565
2026-01-01 22:38:58.05	27.12	6.71	-49.6	-65.0	3.8	1.49e+00	0	42	104	0	69	22863
2026-01-01 22:39:01.41	27.36	6.94	-49.6	-65.1	3.8	1.49e+00	0	42	104	0	69	23171
2026-01-01 22:39:04.21	27.57	7.13	-49.6	-64.8	3.8	1.49e+00	0	42	104	0	69	22272
2026-01-01 22:39:07.64	27.83	7.36	-49.6	-64.3	3.8	1.49e+00	0	42	104	0	69	21119
2026-01-01 22:39:10.43	28.04	7.56	-49.6	-64.4	3.8	1.49e+00	0	42	104	0	69	21500
2026-01-01 22:39:13.79	28.31	7.79	-49.6	-64.4	3.8	1.49e+00	0	42	104	0	69	21314
2026-01-01 22:39:16.52	28.52	7.98	-49.5	-63.6	3.8	1.49e+00	0	42	104	0	69	19561
2026-01-01 22:39:19.82	28.78	8.21	-49.5	-62.8	3.8	1.49e+00	0	42	104	0	69	17806
2026-01-01 22:39:22.54	29.00	8.41	-49.5	-63.0	3.8	1.48e+00	0	42	104	0	69	18209
2026-01-01 22:39:25.84	29.28	8.64	-49.5	-63.1	3.8	1.49e+00	0	42	104	0	69	18465
2026-01-01 22:39:28.57	29.50	8.84	-49.4	-61.6	4.2	1.44e+00	0	42	0	0	69	15448
2026-01-01 22:39:31.87	29.78	9.08	-49.2	-59.4	5.2	5.17e-01	0	43	0	5242880	69	12060
2026-01-01 22:39:34.59	30.01	9.28	-49.6	-64.7	3.8	1.32e-01	0	42	104	7340032	69	22217
2026-01-01 22:39:37.91	30.30	9.52	-48.7	-56.5	7.5	1.34e-01	0	42	0	10485760	68	9099
2026-01-01 22:39:41.38	30.61	9.78	-48.2	-54.7	9.3	5.27e-02	0	43	0	16777216	68	7376
2026-01-01 22:39:44.34	30.88	10.00	-48.9	-57.4	6.6	4.76e-01	0	43	0	19922944	69	9606
2026-01-01 22:39:47.83	31.19	10.26	-46.4	-50.6	13.3	1.51e-04	0	43	0	26214400	64	5836
2026-01-01 22:39:50.90	31.48	10.49	-45.7	-49.4	14.7	0.00e+00	0	43	0	32505856	62	5666
2026-01-01 22:39:53.91	31.76	10.72	-45.8	-49.5	14.4	7.00e-07	0	43	0	37748736	62	5788
2026-01-01 22:39:56.92	32.05	10.95	-45.5	-49.1	15.0	0.00e+00	0	43	0	44040192	62	5517
2026-01-01 22:39:59.98	32.34	11.19	-45.2	-48.6	15.5	0.00e+00	0	43	0	49283072	62	5160
2026-01-01 22:40:02.92	32.63	11.42	-45.4	-48.9	15.1	0.00e+00	0	43	0	54525952	62	5364
2026-01-01 22:40:06.07	32.95	11.66	-45.0	-48.2	15.7	0.00e+00	0	43	0	60817408	62	4980
2026-01-01 22:40:08.94	33.24	11.89	-44.9	-48.0	16.1	0.00e+00	0	43	0	66060288	61	5127
2026-01-01 22:40:12.08	33.56	12.14	-44.6	-47.6	16.4	0.00e+00	0	43	0	72351744	61	4871
2026-01-01 22:40:15.02	33.87	12.37	-44.1	-47.0	17.0	0.00e+00	0	43	0	77594624	60	4835
2026-01-01 22:40:18.11	34.20	12.62	-44.7	-47.6	16.5	0.00e+00	0	43	0	83886080	60	5210
2026-01-01 22:40:21.12	34.52	12.86	-44.5	-47.3	16.8	0.00e+00	0	43	0	89128960	60	5001
2026-01-01 22:40:24.13	34.85	13.11	-44.3	-47.3	16.7	0.00e+00	0	43	0	94371840	60	5010
2026-01-01 22:40:27.14	35.19	13.35	-44.6	-47.7	16.4	0.00e+00	0	43	0	100663296	60	5235
2026-01-01 22:40:30.16	35.53	13.60	-44.6	-47.6	16.5	0.00e+00	0	43	0	105906176	60	5202
2026-01-01 22:40:33.17	35.88	13.85	-44.4	-47.4	16.6	0.00e+00	0	43	0	112197632	60	5097
2026-01-01 22:40:36.18	36.23	14.11	-44.3	-47.2	16.8	0.00e+00	0	43	0	117440512	60	4976
2026-01-01 22:40:39.19	36.59	14.36	-44.5	-47.4	16.7	0.00e+00	0	43	0	122683392	60	5061
2026-01-01 22:40:42.19	36.95	14.61	-44.7	-47.7	16.4	0.00e+00	0	43	0	128974848	60	5221
2026-01-01 22:40:45.25	37.33	14.87	-44.7	-47.6	16.5	0.00e+00	0	43	0	134217728	60	5180
2026-01-01 22:40:48.19	37.70	15.13	-44.8	-48.0	16.1	0.00e+00	0	43	0	139460608	60	5407
2026-01-01 22:40:51.19	38.08	15.39	-44.7	-47.7	16.4	0.00e+00	0	43	0	145752064	60	5264
2026-01-01 22:40:54.20	38.47	15.65	-44.5	-47.5	16.6	0.00e+00	0	43	0	150994944	60	5108
2026-01-01 22:40:57.65	38.92	15.95	-44.1	-46.9	17.2	0.00e+00	0	43	0	157286400	60	4767
2026-01-01 22:41:00.37	39.28	16.19	-44.0	-46.7	17.3	0.00e+00	0	43	0	162529280	59	4960
2026-01-01 22:41:03.74	39.74	16.49	-43.9	-46.5	17.6	0.00e+00	0	43	0	168820736	59	4830
2026-01-01 22:41:06.81	40.17	16.76	-43.9	-46.5	17.6	0.00e+00	0	43	0	175112192	59	4824
2026-01-01 22:41:09.82	40.60	17.03	-43.9	-46.6	17.5	0.00e+00	0	43	0	180355072	59	4882
2026-01-01 22:41:12.84	41.03	17.30	-44.0	-46.6	17.5	0.00e+00	0	43	0	186646528	59	4907
2026-01-01 22:41:15.88	41.47	17.58	-43.8	-46.3	17.7	0.00e+00	0	43	0	191889408	59	4742
2026-01-01 22:41:19.19	41.97	17.88	-43.6	-46.2	17.9	0.00e+00	0	43	0	198180864	59	4652
2026-01-01 22:41:21.91	42.38	18.13	-43.6	-46.1	17.9	0.00e+00	0	43	0	203423744	59	4621
2026-01-01 22:41:25.16	42.88	18.43	-43.6	-46.1	18.0	0.00e+00	0	43	0	209715200	58	4873
2026-01-01 22:41:28.31	43.38	18.72	-43.5	-46.0	18.0	0.00e+00	0	43	0	214958080	58	4819
2026-01-01 22:41:31.42	43.88	19.01	-43.3	-45.8	18.3	0.00e+00	0	43	0	221249536	58	4720
2026-01-01 22:41:34.43	44.37	19.29	-43.1	-45.5	18.5	0.00e+00	0	43	0	226492416	58	4577
2026-01-01 22:41:37.79	44.93	19.61	-42.9	-45.2	18.8	0.00e+00	0	43	0	232783872	57	4694
2026-01-01 22:41:40.51	45.39	19.86	-42.7	-45.0	18.9	0.00e+00	0	43	0	238026752	57	4572
2026-01-01 22:41:43.81	45.96	20.17	-43.0	-45.4	18.7	0.00e+00	0	43	0	244318208	57	4765
2026-01-01 22:41:46.53	46.44	20.43	-43.0	-45.4	18.6	0.00e+00	0	43	0	249561088	57	4761
2026-01-01 22:41:49.82	47.02	20.74	-43.0	-45.3	18.7	0.00e+00	0	43	0	255852544	57	4737
2026-01-01 22:41:52.54	47.52	21.00	-43.1	-45.5	18.5	0.00e+00	0	43	0	261095424	57	4830
2026-01-01 22:41:55.87	48.14	21.32	-43.1	-45.5	18.5	0.00e+00	0	43	0	266338304	57	4858
2026-01-01 22:41:58.89	48.71	21.61	-43.3	-45.8	18.3	0.00e+00	0	43	0	272629760	57	5002
2026-01-01 22:42:02.18	49.34	21.93	-43.5	-46.0	18.1	0.00e+00	0	43	0	278921216	57	5120
2026-01-01 22:42:04.90	49.88	22.19	-43.6	-46.0	18.0	0.00e+00	0	44	0	284164096	57	5149
2026-01-01 22:42:08.21	50.54	22.51	-43.3	-45.7	18.4	0.00e+00	0	43	0	290455552	58	4669
2026-01-01 22:42:10.98	51.10	22.77	-43.1	-45.5	18.6	0.00e+00	0	43	0	294649856	58	4561
2026-01-01 22:42:14.27	51.79	23.09	-43.0	-45.3	18.7	0.00e+00	0	44	0	300941312	57	4748
2026-01-01 22:42:17.19	52.40	23.37	-43.1	-45.5	18.5	0.00e+00	0	43	0	307232768	57	4870
2026-01-01 22:42:20.56	53.13	23.69	-43.2	-45.5	18.5	0.00e+00	0	43	0	313524224	57	4866
2026-01-01 22:42:23.28	53.73	23.95	-42.9	-45.3	18.7	0.00e+00	0	44	0	317718528	57	4728
2026-01-01 22:42:26.58	54.46	24.27	-42.7	-45.0	19.0	0.00e+00	0	43	0	324009984	57	4577
2026-01-01 22:42:29.29	55.08	24.52	-42.9	-45.3	18.8	0.00e+00	0	44	0	329252864	57	4718
2026-01-01 22:42:32.88	55.91	24.86	-43.3	-45.7	18.4	0.00e+00	0	44	0	336592896	57	4931
2026-01-01 22:42:35.87	56.62	25.15	-43.7	-46.2	17.9	0.00e+00	0	44	0	341835776	58	4969
2026-01-01 22:42:38.88	57.34	25.43	-43.4	-45.8	18.3	0.00e+00	0	43	0	347078656	58	4753
2026-01-01 22:42:41.96	58.09	25.72	-43.4	-45.9	18.2	0.00e+00	0	43	0	353370112	58	4776
2026-01-01 22:42:44.86	58.82	25.98	-43.3	-45.8	18.3	0.00e+00	0	43	0	358612992	58	4716
2026-01-01 22:42:48.31	59.69	26.30	-43.3	-45.8	18.3	0.00e+00	0	43	0	364904448	58	4708
2026-01-01 22:42:51.05	60.40	26.55	-43.2	-45.6	18.5	0.00e+00	0	43	0	370147328	58	4604
2026-01-01 22:42:54.38	61.27	26.85	-43.0	-45.3	18.8	0.00e+00	0	43	0	376438784	57	4745
2026-01-01 22:42:57.21	62.03	27.10	-43.4	-45.8	18.3	0.00e+00	0	43	0	381681664	57	5019
2026-01-01 22:43:00.36	62.88	27.38	-43.6	-46.0	18.1	0.00e+00	0	43	0	387973120	58	4845
2026-01-01 22:43:03.24	63.67	27.62	-43.7	-46.1	18.0	0.00e+00	0	43	0	393216000	58	4926
2026-01-01 22:43:06.39	64.56	27.89	-43.3	-45.6	18.5	0.00e+00	0	43	0	399507456	58	4634
2026-01-01 22:43:09.38	65.41	28.14	-43.2	-45.6	18.5	0.00e+00	0	43	0	404750336	58	4625
2026-01-01 22:43:12.70	66.37	28.41	-43.7	-46.2	18.0	0.00e+00	0	44	0	411041792	58	4961
2026-01-01 22:43:15.48	67.19	28.64	-44.6	-47.3	16.9	0.00e+00	0	44	0	416284672	59	5304
2026-01-01 22:43:18.72	68.15	28.89	-44.1	-46.6	17.6	0.00e+00	0	43	0	422576128	59	4911
2026-01-01 22:43:21.85	69.10	29.13	-44.7	-47.5	16.9	0.00e+00	0	43	0	427819008	60	5103
2026-01-01 22:43:25.14	70.11	29.38	-44.5	-47.2	17.1	0.00e+00	0	43	0	434110464	60	4955
2026-01-01 22:43:28.07	71.02	29.59	-44.7	-47.4	16.9	0.00e+00	0	43	0	439353344	60	5097
2026-01-01 22:43:31.37	72.06	29.82	-45.6	-48.7	15.6	0.00e+00	0	43	0	445644800	61	5588
2026-01-01 22:43:34.30	73.00	30.02	-46.5	-50.2	14.2	7.00e-07	0	43	0	450887680	63	5902
2026-01-01 22:43:37.82	74.14	30.25	-45.7	-48.9	15.4	0.00e+00	0	44	0	458227712	63	5059
2026-01-01 22:43:40.68	75.08	30.43	-46.2	-49.7	14.7	0.00e+00	0	43	0	463470592	63	5565
2026-01-01 22:43:43.95	76.17	30.62	-46.1	-49.6	14.8	0.00e+00	0	44	0	469762048	63	5477
2026-01-01 22:43:46.70	77.09	30.78	-45.4	-48.4	16.0	0.00e+00	0	43	0	475004928	62	5075
2026-01-01 22:43:50.00	78.21	30.95	-45.5	-48.7	15.7	0.00e+00	0	43	0	481296384	61	5546
2026-01-01 22:43:52.71	79.14	31.09	-45.9	-49.3	15.0	0.00e+00	0	43	0	485490688	63	5337
2026-01-01 22:43:56.08	80.30	31.25	-45.3	-48.4	16.0	0.00e+00	0	43	0	491782144	62	5055
2026-01-01 22:43:59.12	81.36	31.39	-44.5	-47.3	17.0	0.00e+00	0	44	0	498073600	60	5020
2026-01-01 22:44:02.92	82.70	31.54	-45.2	-48.4	16.0	0.00e+00	0	43	0	505413632	61	5379
2026-01-01 22:44:05.75	83.70	31.64	-45.3	-48.6	15.8	0.00e+00	0	43	0	510656512	61	5483
2026-01-01 22:44:09.13	84.91	31.76	-44.3	-47.1	17.2	0.00e+00	0	44	0	516947968	60	4874
2026-01-01 22:44:11.99	85.94	31.84	-44.2	-46.9	17.4	0.00e+00	0	44	0	522190848	60	4807
2026-01-01 22:44:15.19	87.09	31.92	-44.9	-48.0	16.3	0.00e+00	0	43	0	528482304	60	5444
2026-01-01 22:44:18.15	88.17	31.99	-44.5	-47.4	16.7	0.00e+00	0	44	0	533725184	61	4813
2026-01-01 22:44:21.30	89.31	32.05	-44.5	-47.4	17.0	0.00e+00	0	44	0	540016640	60	5046
2026-01-01 22:44:24.21	90.38	32.09	-44.5	-47.3	17.0	0.00e+00	0	43	0	545259520	60	5005
2026-01-01 22:44:27.77	91.68	32.13	-44.6	-47.5	16.8	0.00e+00	0	43	0	551550976	60	5117
2026-01-01 22:44:30.49	92.68	32.14	-44.7	-47.5	16.8	0.00e+00	0	43	0	556793856	60	5127
2026-01-01 22:44:33.78	93.88	32.15	-44.6	-47.4	16.9	0.00e+00	0	43	0	563085312	60	5079
2026-01-01 22:44:36.58	94.91	32.15	-45.1	-48.1	16.3	0.00e+00	0	44	0	568328192	61	5179
2026-01-01 22:44:39.92	96.14	32.13	-43.6	-46.0	18.2	0.00e+00	0	44	0	574619648	59	4569
2026-01-01 22:44:42.90	97.23	32.10	-44.5	-47.2	17.0	0.00e+00	0	43	0	579862528	59	5263
2026-01-01 22:44:46.20	98.44	32.06	-44.4	-47.2	17.1	0.00e+00	0	44	0	586153984	59	5219
2026-01-01 22:44:49.12	99.50	32.01	-44.1	-46.7	17.5	0.00e+00	0	44	0	591396864	59	4933
2026-01-01 22:44:52.77	100.83	31.93	-44.4	-47.1	17.1	0.00e+00	0	44	0	598736896	59	5205
2026-01-01 22:44:55.50	101.82	31.86	-45.3	-48.4	15.9	0.00e+00	0	44	0	603979776	61	5361
2026-01-01 22:44:58.79	103.00	31.77	-45.5	-48.7	15.6	0.00e+00	0	43	0	610271232	61	5560
2026-01-01 22:45:01.52	103.98	31.68	-44.8	-47.6	16.6	0.00e+00	0	43	0	614465536	61	4923
2026-01-01 22:45:04.87	105.17	31.56	-45.4	-48.6	15.7	0.00e+00	0	44	0	620756992	61	5523
2026-01-01 22:45:07.69	106.17	31.45	-44.9	-47.8	16.5	0.00e+00	0	43	0	625999872	61	4996
2026-01-01 22:45:11.03	107.34	31.31	-44.7	-47.5	16.8	0.00e+00	0	44	0	632291328	60	5151
2026-01-01 22:45:14.12	108.41	31.16	-44.0	-46.5	17.7	0.00e+00	0	44	0	638582784	60	4587
2026-01-01 22:45:17.20	109.47	31.01	-44.3	-47.0	17.2	0.00e+00	0	44	0	643825664	59	5133
2026-01-01 22:45:20.21	110.50	30.85	-44.1	-46.7	17.5	0.00e+00	0	44	0	650117120	60	4684
2026-01-01 22:45:23.22	111.52	30.69	-44.1	-46.7	17.5	0.00e+00	0	44	0	655360000	59	4969
2026-01-01 22:45:26.22	112.52	30.51	-44.3	-47.0	17.2	0.00e+00	0	44	0	661651456	59	5153
2026-01-01 22:45:29.21	113.51	30.33	-44.4	-47.1	17.2	0.00e+00	0	44	0	666894336	59	5188
2026-01-01 22:45:32.33	114.53	30.13	-44.9	-47.8	16.4	0.00e+00	0	43	0	672137216	60	5339
2026-01-01 22:45:35.34	115.50	29.93	-43.8	-46.4	17.8	0.00e+00	0	43	0	678428672	59	4780
2026-01-01 22:45:38.34	116.46	29.72	-44.5	-47.2	17.0	0.00e+00	0	44	0	683671552	59	5264
2026-01-01 22:45:41.37	117.42	29.50	-44.2	-46.8	17.3	0.00e+00	0	43	0	689963008	59	5036
2026-01-01 22:45:44.50	118.39	29.27	-44.9	-47.8	16.5	0.00e+00	0	44	0	695205888	60	5281
2026-01-01 22:45:47.44	119.29	29.05	-45.0	-48.0	16.3	0.00e+00	0	44	0	701497344	61	5156
2026-01-01 22:45:50.49	120.21	28.81	-44.5	-47.2	17.1	0.00e+00	0	44	0	706740224	60	4964
2026-01-01 22:45:54.47	121.40	28.50	-45.9	-49.2	15.2	0.00e+00	0	44	0	714080256	62	5589
2026-01-01 22:45:57.22	122.20	28.27	-45.5	-48.7	15.6	0.00e+00	0	44	0	719323136	62	5231
2026-01-01 22:46:00.98	123.28	27.96	-44.9	-47.7	16.6	0.00e+00	0	44	0	726663168	61	4965
2026-01-01 22:46:03.76	124.07	27.72	-45.4	-48.5	15.8	0.00e+00	0	44	0	731906048	61	5429
2026-01-01 22:46:07.05	124.98	27.44	-46.7	-50.4	14.0	0.00e+00	0	44	0	738197504	63	6030
2026-01-01 22:46:10.17	125.84	27.16	-45.9	-49.3	15.0	7.00e-07	0	44	0	743440384	63	5305
2026-01-01 22:46:13.26	126.67	26.89	-45.8	-49.2	15.2	0.00e+00	0	44	0	749731840	62	5532
2026-01-01 22:46:16.41	127.50	26.60	-46.7	-50.7	13.6	1.22e-05	0	44	0	754974720	64	5899
2026-01-01 22:46:19.28	128.25	26.34	-45.4	-48.5	15.8	0.00e+00	0	44	0	760217600	62	5149
2026-01-01 22:46:22.57	129.09	26.04	-46.2	-49.9	14.4	7.00e-07	0	44	0	766509056	63	5677
2026-01-01 22:46:25.29	129.77	25.79	-45.7	-49.1	15.2	0.00e+00	0	44	0	771751936	63	5185
2026-01-01 22:46:28.58	130.58	25.48	-46.6	-50.5	13.8	7.00e-07	0	44	0	778043392	64	5754
2026-01-01 22:46:31.39	131.26	25.21	-46.9	-50.9	13.3	5.87e-05	0	44	0	783286272	65	5695
2026-01-01 22:46:34.54	132.02	24.92	-45.5	-48.5	15.8	0.00e+00	0	44	0	789577728	62	5156
2026-01-01 22:46:37.41	132.69	24.64	-46.5	-50.3	14.1	1.50e-06	0	44	0	794820608	63	5933
2026-01-01 22:46:40.55	133.41	24.34	-44.7	-47.5	16.7	0.00e+00	0	44	0	801112064	61	4861
2026-01-01 22:46:43.42	134.06	24.07	-45.2	-48.2	16.1	0.00e+00	0	44	0	806354944	61	5262
2026-01-01 22:46:46.57	134.76	23.76	-45.7	-49.0	15.3	0.00e+00	0	44	0	811597824	62	5442
2026-01-01 22:46:49.71	135.44	23.46	-44.7	-47.5	16.7	0.00e+00	0	44	0	817889280	61	4858
2026-01-01 22:46:52.72	136.08	23.17	-46.1	-49.7	14.6	7.00e-07	0	44	0	823132160	62	5863
2026-01-01 22:46:55.73	136.72	22.88	-46.0	-49.4	14.8	7.00e-07	0	44	0	829423616	63	5397
2026-01-01 22:46:58.75	137.34	22.58	-44.6	-47.4	16.8	0.00e+00	0	44	0	834666496	61	4802
2026-01-01 22:47:01.83	137.96	22.29	-44.4	-47.2	17.0	0.00e+00	0	44	0	840957952	60	4951
2026-01-01 22:47:04.70	138.53	22.01	-43.1	-45.5	18.5	0.00e+00	0	44	0	846200832	58	4580
2026-01-01 22:47:07.85	139.15	21.70	-43.1	-45.5	18.6	0.00e+00	0	43	0	851443712	57	4826
2026-01-01 22:47:10.98	139.75	21.40	-44.8	-47.6	16.6	0.00e+00	0	44	0	857735168	60	5209
2026-01-01 22:47:14.50	140.41	21.06	-44.7	-47.5	16.7	0.00e+00	0	44	0	864026624	61	4865
2026-01-01 22:47:17.34	140.93	20.79	-44.1	-46.8	17.4	0.00e+00	0	44	0	869269504	60	4733
2026-01-01 22:47:20.49	141.50	20.49	-43.8	-46.4	17.7	0.00e+00	0	44	0	875560960	59	4793
2026-01-01 22:47:23.35	142.00	20.21	-43.6	-46.2	17.9	0.00e+00	0	43	0	880803840	59	4666
2026-01-01 22:47:26.51	142.56	19.91	-43.6	-46.1	17.9	0.00e+00	0	43	0	887095296	59	4617
2026-01-01 22:47:29.37	143.04	19.64	-43.5	-46.0	18.1	0.00e+00	0	43	0	892338176	58	4843
2026-01-01 22:47:32.52	143.57	19.34	-43.5	-46.0	18.0	0.00e+00	0	44	0	897581056	58	4849
2026-01-01 22:47:35.67	144.09	19.04	-43.7	-46.4	17.6	0.00e+00	0	44	0	903872512	58	5091
2026-01-01 22:47:38.53	144.56	18.78	-43.5	-46.1	17.9	0.00e+00	0	43	0	909115392	58	4905
2026-01-01 22:47:41.70	145.06	18.48	-42.6	-44.9	19.0	0.00e+00	0	43	0	915406848	57	4541
2026-01-01 22:47:44.56	145.51	18.21	-42.7	-45.0	18.9	0.00e+00	0	43	0	920649728	57	4581
2026-01-01 22:47:47.71	145.99	17.92	-43.1	-45.5	18.4	0.00e+00	0	44	0	926941184	57	4854
2026-01-01 22:47:50.57	146.42	17.66	-43.4	-45.9	18.1	0.00e+00	0	44	0	932184064	57	5052
2026-01-01 22:47:53.73	146.89	17.37	-43.5	-46.0	17.9	0.00e+00	0	44	0	937426944	57	5142
2026-01-01 22:47:56.61	147.31	17.11	-44.0	-46.6	17.5	0.00e+00	0	44	0	943718400	58	5181
2026-01-01 22:47:59.76	147.76	16.82	-44.6	-47.5	16.6	0.00e+00	0	44	0	948961280	59	5424
2026-01-01 22:48:03.05	148.22	16.52	-44.7	-47.7	16.4	0.00e+00	0	44	0	955252736	60	5253
2026-01-01 22:48:05.78	148.59	16.28	-44.8	-47.8	16.3	0.00e+00	0	44	0	960495616	60	5338
2026-01-01 22:48:09.07	149.04	15.99	-44.7	-47.6	16.5	0.00e+00	0	43	0	966787072	60	5179
2026-01-01 22:48:11.79	149.40	15.75	-44.3	-47.0	17.1	0.00e+00	0	44	0	972029952	60	4842
2026-01-01 22:48:15.34	149.87	15.43	-44.5	-47.6	16.6	0.00e+00	0	43	0	978321408	60	5162
2026-01-01 22:48:18.28	150.24	15.18	-44.7	-47.7	16.5	0.00e+00	0	43	0	983564288	60	5238
2026-01-01 22:48:22.69	150.80	14.79	-44.6	-47.4	16.7	0.00e+00	0	44	0	991952896	60	5078
2026-01-01 22:48:25.71	151.17	14.53	-44.1	-46.8	17.2	0.00e+00	0	44	0	998244352	60	4748
2026-01-01 22:48:28.74	151.54	14.28	-43.7	-46.4	17.6	0.00e+00	0	43	0	1003487232	59	4771
2026-01-01 22:48:31.74	151.89	14.02	-44.2	-47.0	17.0	0.00e+00	0	44	0	1008730112	59	5115
2026-01-01 22:48:34.75	152.24	13.77	-44.5	-47.4	16.6	0.00e+00	0	44	0	1015021568	59	5363
2026-01-01 22:48:37.76	152.59	13.51	-44.4	-47.4	16.7	0.00e+00	0	44	0	1020264448	60	5062
2026-01-01 22:48:40.77	152.93	13.26	-44.1	-47.0	17.0	0.00e+00	0	44	0	1026555904	60	4827
2026-01-01 22:48:43.78	153.27	13.02	-44.0	-46.7	17.2	0.00e+00	0	43	0	1031798784	59	4976
2026-01-01 22:48:46.79	153.60	12.77	-44.1	-46.8	17.1	0.00e+00	0	44	0	1037041664	59	5040
2026-01-01 22:48:49.79	153.92	12.52	-44.4	-47.3	16.6	0.00e+00	0	44	0	1043333120	59	5308
2026-01-01 22:48:52.80	154.24	12.28	-44.8	-48.0	16.1	0.00e+00	0	44	0	1048576000	60	5407
2026-01-01 22:48:55.81	154.56	12.04	-44.6	-47.7	16.3	0.00e+00	0	44	0	1053818880	60	5240
2026-01-01 22:48:58.82	154.86	11.80	-44.5	-47.6	16.4	0.00e+00	0	44	0	1060110336	60	5165
2026-01-01 22:49:01.92	155.18	11.55	-44.5	-47.5	16.5	0.00e+00	0	44	0	1065353216	60	5135
2026-01-01 22:49:04.89	155.47	11.32	-44.5	-47.4	16.6	0.00e+00	0	44	0	1071644672	60	5061
2026-01-01 22:49:07.89	155.77	11.08	-44.7	-47.8	16.2	0.00e+00	0	44	0	1076887552	60	5293
2026-01-01 22:49:10.90	156.06	10.85	-44.6	-47.5	16.4	0.00e+00	0	44	0	1082130432	60	5156
2026-01-01 22:49:13.91	156.35	10.61	-44.6	-47.6	16.3	0.00e+00	0	44	0	1088421888	60	5211
2026-01-01 22:49:16.92	156.63	10.38	-44.5	-47.4	16.6	0.00e+00	0	44	0	1093664768	60	5091
2026-01-01 22:49:20.12	156.92	10.14	-44.4	-47.2	16.6	0.00e+00	0	44	0	1099956224	60	4981
2026-01-01 22:49:23.02	157.19	9.92	-44.4	-47.2	16.6	0.00e+00	0	44	0	1105199104	60	4964
2026-01-01 22:49:26.17	157.47	9.68	-44.3	-47.1	16.8	0.00e+00	0	44	0	1111490560	60	4902
2026-01-01 22:49:29.03	157.72	9.47	-44.2	-47.1	16.8	0.00e+00	0	44	0	1116733440	60	4883
2026-01-01 22:49:32.18	157.99	9.24	-44.3	-47.2	16.7	0.00e+00	0	44	0	1121976320	60	4946
2026-01-01 22:49:35.12	158.25	9.02	-44.7	-47.7	16.2	0.00e+00	0	44	0	1128267776	60	5247
2026-01-01 22:49:38.39	158.52	8.78	-50.1	-65.6	3.8	1.49e+00	0	44	104	1129316352	70	23165
2026-01-01 22:49:41.32	158.77	8.57	-49.8	-65.8	3.8	1.49e+00	0	44	104	1129316352	71	22332
2026-01-01 22:49:44.75	159.05	8.32	-50.6	-65.9	3.8	1.49e+00	0	44	104	1129316352	71	22553
2026-01-01 22:49:47.54	159.27	8.12	-50.7	-65.9	3.8	1.49e+00	0	44	104	1129316352	72	21310
2026-01-01 22:49:50.84	159.53	7.89	-50.7	-65.9	3.8	1.49e+00	0	44	104	1129316352	72	21399
2026-01-01 22:49:53.57	159.75	7.69	-50.7	-65.9	3.8	1.49e+00	0	44	104	1129316352	72	21450
2026-01-01 22:49:56.87	160.00	7.46	-50.7	-65.9	3.8	1.49e+00	0	44	104	1129316352	72	21392
2026-01-01 22:49:59.59	160.21	7.27	-50.4	-65.9	3.8	1.49e+00	0	44	104	1129316352	72	21348
2026-01-01 22:50:02.89	160.46	7.04	-50.4	-65.8	3.8	1.49e+00	0	44	104	1129316352	72	21181
2026-01-01 22:50:05.62	160.66	6.85	-50.4	-65.8	3.8	1.49e+00	0	44	104	1129316352	72	21231
2026-01-01 22:50:08.92	160.90	6.63	-50.4	-65.8	3.8	1.49e+00	0	44	104	1129316352	72	21201
2026-01-01 22:50:11.75	161.11	6.44	-50.4	-65.8	3.8	1.49e+00	0	44	104	1129316352	72	21138
2026-01-01 22:50:14.91	161.33	6.22	-50.4	-65.8	3.8	1.49e+00	0	44	104	1129316352	72	21194
2026-01-01 22:50:17.78	161.53	6.03	-50.4	-65.8	3.8	1.49e+00	0	44	104	1129316352	72	21102
2026-01-01 22:50:20.93	161.75	5.82	-50.4	-65.8	3.8	1.49e+00	0	44	104	1129316352	72	21232
2026-01-01 22:50:23.80	161.95	5.63	-50.3	-65.8	3.8	1.49e+00	0	44	104	1129316352	72	21175
2026-01-01 22:50:26.96	162.16	5.42	-50.3	-65.8	3.8	1.49e+00	0	44	104	1129316352	72	21151
2026-01-01 22:50:29.83	162.35	5.23	-50.3	-65.8	3.8	1.49e+00	0	44	104	1129316352	72	21065
2026-01-01 22:50:32.99	162.56	5.03	-50.3	-65.8	3.8	1.49e+00	0	44	104	1129316352	72	21228

#Closed at: 2026-01-01 22:50:35
#Recorded file [1129 MB]: D:/Data/31040_260102_013833.dat