passes_logs/2026/01/01/T1/T1__20260101_104915_NOAA_20_JPSS-1_rec.log

#Pass ID: 20260101_104915_NOAA 20 (JPSS-1)
#Satellite: NOAA 20 (JPSS-1)
#Configuration: NOAA 20
#almurnet v.1.7.20251203
#Start time: 2026-01-01 10:49:16

#Version: 2.0.20230620
#Station: T1
#Location: 37.570604 lon 55.790049 lat
#TLE: 1 43013U 17073A   25365.45761817  .00000173  00000+0  10307-3 0  9993
#TLE: 2 43013  98.7620 301.5517 0001951  60.3814 299.7557 14.19531661420675

#Time	Az	El	Level	Level2	SNR	BER	BlckErr	Temp	State	Recorded	gain1	gain2
2026-01-01 10:49:16.14	188.86	5.03	-52.7	-67.8	3.8	1.49e+00	0	41	0	0	76	21127
2026-01-01 10:49:19.15	189.02	5.23	-52.6	-67.8	3.8	1.49e+00	0	41	104	0	77	19852
2026-01-01 10:49:22.17	189.17	5.44	-52.7	-67.8	3.8	1.49e+00	0	41	104	0	77	19956
2026-01-01 10:49:25.18	189.33	5.64	-52.6	-67.7	3.8	1.49e+00	0	41	104	0	77	19819
2026-01-01 10:49:28.19	189.50	5.85	-52.7	-67.8	3.8	1.49e+00	0	41	104	0	77	19918
2026-01-01 10:49:31.20	189.66	6.06	-52.6	-67.7	3.8	1.49e+00	0	42	104	0	77	19744
2026-01-01 10:49:34.21	189.83	6.28	-52.7	-67.8	3.8	1.49e+00	0	41	104	0	77	19902
2026-01-01 10:49:37.23	189.99	6.49	-52.6	-67.8	3.8	1.49e+00	0	42	104	0	77	19880
2026-01-01 10:49:40.56	190.18	6.73	-52.7	-67.8	3.8	1.49e+00	0	42	104	0	77	19851
2026-01-01 10:49:43.51	190.35	6.94	-52.6	-67.8	3.8	1.49e+00	0	42	104	0	77	19901
2026-01-01 10:49:46.66	190.54	7.17	-52.7	-67.8	3.8	1.49e+00	0	42	104	0	77	19863
2026-01-01 10:49:49.53	190.71	7.38	-52.6	-67.8	3.8	1.49e+00	0	42	104	0	77	19923
2026-01-01 10:49:52.69	190.90	7.61	-52.6	-67.8	3.8	1.49e+00	0	42	104	0	77	19879
2026-01-01 10:49:55.62	191.08	7.83	-52.7	-67.8	3.8	1.49e+00	0	42	104	0	77	19903
2026-01-01 10:49:58.78	191.27	8.07	-52.6	-67.7	3.8	1.49e+00	0	42	104	0	77	19788
2026-01-01 10:50:01.65	191.45	8.28	-52.6	-67.8	3.8	1.49e+00	0	42	104	0	77	19851
2026-01-01 10:50:04.81	191.65	8.53	-52.7	-67.8	3.8	1.49e+00	0	43	104	0	77	19940
2026-01-01 10:50:07.67	191.84	8.74	-52.6	-67.8	3.8	1.49e+00	0	42	104	0	77	19846
2026-01-01 10:50:10.83	192.05	8.99	-52.6	-67.8	3.8	1.49e+00	0	43	104	0	77	19884
2026-01-01 10:50:13.70	192.24	9.21	-52.6	-67.7	3.8	1.49e+00	0	43	104	0	77	19793
2026-01-01 10:50:16.85	192.45	9.46	-52.6	-67.7	3.8	1.49e+00	0	43	104	0	77	19762
2026-01-01 10:50:19.72	192.65	9.69	-52.7	-67.8	3.8	1.49e+00	0	43	104	0	77	19892
2026-01-01 10:50:22.88	192.87	9.94	-52.6	-67.7	3.8	1.49e+00	0	43	104	0	77	19754
2026-01-01 10:50:25.75	193.08	10.17	-52.6	-67.8	3.8	1.49e+00	0	43	104	0	77	19858
2026-01-01 10:50:28.91	193.30	10.43	-52.6	-67.7	3.8	1.49e+00	0	43	104	0	77	19762
2026-01-01 10:50:31.77	193.51	10.66	-52.6	-67.7	3.8	1.49e+00	0	43	104	0	77	19838
2026-01-01 10:50:34.93	193.75	10.93	-52.6	-67.7	3.8	1.49e+00	0	43	104	0	77	19831
2026-01-01 10:50:37.80	193.97	11.17	-52.6	-67.7	3.8	1.49e+00	0	43	104	0	77	19782
2026-01-01 10:50:40.95	194.21	11.43	-52.7	-67.8	3.8	1.49e+00	0	43	104	0	77	19962
2026-01-01 10:50:43.82	194.44	11.67	-52.7	-67.8	3.8	1.49e+00	0	43	104	0	77	19965
2026-01-01 10:50:46.98	194.69	11.94	-52.7	-67.8	3.8	1.49e+00	0	43	104	0	77	20003
2026-01-01 10:50:49.85	194.92	12.19	-52.6	-67.8	3.8	1.49e+00	0	43	104	0	77	19891
2026-01-01 10:50:53.01	195.18	12.47	-52.7	-67.8	3.8	1.49e+00	0	43	104	0	77	19969
2026-01-01 10:50:55.88	195.42	12.72	-52.6	-67.8	3.8	1.49e+00	0	43	104	0	77	19943
2026-01-01 10:50:59.03	195.69	13.00	-52.6	-67.8	3.8	1.49e+00	0	43	104	0	77	19874
2026-01-01 10:51:01.90	195.94	13.26	-52.6	-67.8	3.8	1.49e+00	0	43	104	0	77	19843
2026-01-01 10:51:05.06	196.22	13.54	-52.6	-67.7	3.8	1.49e+00	0	43	104	0	77	19772
2026-01-01 10:51:07.93	196.48	13.81	-52.7	-67.8	3.8	1.49e+00	0	43	104	0	77	19914
2026-01-01 10:51:11.08	196.77	14.10	-52.6	-67.8	3.8	1.49e+00	0	43	104	0	77	19848
2026-01-01 10:51:13.95	197.03	14.36	-52.6	-67.7	3.8	1.49e+00	0	43	104	0	77	19820
2026-01-01 10:51:17.11	197.33	14.66	-52.6	-67.7	3.8	1.49e+00	0	43	104	0	77	19817
2026-01-01 10:51:19.98	197.61	14.93	-52.6	-67.8	3.8	1.49e+00	0	43	104	0	77	19969
2026-01-01 10:51:23.13	197.92	15.23	-52.6	-67.8	3.8	1.49e+00	0	43	104	0	77	19858
2026-01-01 10:51:26.00	198.21	15.51	-52.6	-67.8	3.8	1.49e+00	0	43	104	0	77	19842
2026-01-01 10:51:29.16	198.53	15.82	-52.6	-67.7	3.8	1.49e+00	0	43	104	0	77	19791
2026-01-01 10:51:32.02	198.83	16.10	-52.7	-67.8	3.8	1.49e+00	0	43	104	0	77	19923
2026-01-01 10:51:35.18	199.17	16.42	-52.7	-67.8	3.8	1.49e+00	0	43	104	0	77	19861
2026-01-01 10:51:38.05	199.48	16.70	-52.7	-67.8	3.8	1.49e+00	0	43	104	0	77	19916
2026-01-01 10:51:41.21	199.83	17.02	-52.7	-67.8	3.8	1.49e+00	0	43	104	0	77	19936
2026-01-01 10:51:44.08	200.15	17.32	-52.7	-67.8	3.8	1.49e+00	0	43	104	0	77	19989
2026-01-01 10:51:47.23	200.51	17.64	-52.6	-67.8	3.8	1.49e+00	0	43	104	0	77	19915
2026-01-01 10:51:50.17	200.86	17.95	-52.7	-67.8	3.8	1.49e+00	0	43	104	0	77	19977
2026-01-01 10:51:53.18	201.22	18.27	-52.7	-67.9	3.8	1.49e+00	0	43	104	0	77	20167
2026-01-01 10:51:56.19	201.59	18.59	-52.7	-67.8	3.8	1.49e+00	0	43	104	0	77	19976
2026-01-01 10:51:59.20	201.96	18.91	-52.6	-67.7	3.8	1.49e+00	0	43	104	0	77	19819
2026-01-01 10:52:02.22	202.35	19.24	-52.6	-67.8	3.8	1.49e+00	0	43	104	0	77	19852
2026-01-01 10:52:05.41	202.76	19.58	-52.6	-67.8	3.8	1.49e+00	0	43	104	0	77	19874
2026-01-01 10:52:08.37	203.16	19.91	-52.7	-67.8	3.8	1.49e+00	0	43	104	0	77	19887
2026-01-01 10:52:11.94	203.64	20.31	-52.7	-67.8	3.8	1.49e+00	0	43	104	0	77	19931
2026-01-01 10:52:14.67	204.02	20.62	-52.7	-67.8	3.8	1.49e+00	0	43	104	0	77	19961
2026-01-01 10:52:17.97	204.49	20.99	-52.7	-67.8	3.8	1.49e+00	0	43	104	0	77	19994
2026-01-01 10:52:20.71	204.89	21.31	-52.7	-67.8	3.8	1.49e+00	0	43	104	0	77	20025
2026-01-01 10:52:24.01	205.38	21.69	-52.7	-67.8	3.8	1.49e+00	0	43	104	0	77	19924
2026-01-01 10:52:26.73	205.79	22.00	-52.6	-67.8	3.8	1.49e+00	0	43	104	0	77	19842
2026-01-01 10:52:30.03	206.30	22.39	-52.7	-67.8	3.8	1.49e+00	0	43	104	0	77	20041
2026-01-01 10:52:32.75	206.73	22.72	-52.7	-67.8	3.8	1.49e+00	0	43	104	0	77	19959
2026-01-01 10:52:36.06	207.27	23.11	-52.7	-67.8	3.8	1.49e+00	0	43	104	0	77	20029
2026-01-01 10:52:38.78	207.72	23.44	-52.7	-67.8	3.8	1.49e+00	0	43	104	0	77	19888
2026-01-01 10:52:42.08	208.28	23.84	-52.7	-67.8	3.8	1.49e+00	0	43	104	0	77	20000
2026-01-01 10:52:44.81	208.75	24.18	-52.7	-67.8	3.8	1.49e+00	0	43	104	0	77	19963
2026-01-01 10:52:48.11	209.34	24.58	-52.7	-67.8	3.8	1.49e+00	0	43	104	0	77	19923
2026-01-01 10:52:50.85	209.84	24.92	-52.7	-67.8	3.8	1.49e+00	0	43	104	0	77	20037
2026-01-01 10:52:54.15	210.45	25.34	-52.7	-67.8	3.8	1.49e+00	0	43	104	0	77	19969
2026-01-01 10:52:56.87	210.97	25.68	-52.7	-67.8	3.8	1.49e+00	0	43	104	0	77	20033
2026-01-01 10:53:00.17	211.61	26.10	-52.7	-67.8	3.8	1.49e+00	0	43	104	0	77	19948
2026-01-01 10:53:02.90	212.16	26.45	-52.7	-67.8	3.8	1.49e+00	0	43	104	0	77	19864
2026-01-01 10:53:06.20	212.83	26.87	-52.7	-67.8	3.8	1.49e+00	0	43	104	0	77	19987
2026-01-01 10:53:08.92	213.40	27.22	-52.7	-67.8	3.8	1.49e+00	0	43	104	0	77	20023
2026-01-01 10:53:12.22	214.11	27.65	-52.7	-67.8	3.8	1.49e+00	0	43	104	0	77	19933
2026-01-01 10:53:14.94	214.71	28.00	-52.7	-67.8	3.8	1.49e+00	0	43	104	0	77	19906
2026-01-01 10:53:18.18	215.44	28.43	-52.7	-67.8	3.8	1.49e+00	0	43	104	0	77	19941
2026-01-01 10:53:21.04	216.10	28.80	-52.7	-67.8	3.8	1.49e+00	0	43	104	0	77	20070
2026-01-01 10:53:24.20	216.84	29.22	-52.7	-67.8	3.8	1.49e+00	0	43	104	0	77	19993
2026-01-01 10:53:27.07	217.54	29.60	-52.7	-67.8	3.8	1.49e+00	0	43	104	0	77	19977
2026-01-01 10:53:30.23	218.32	30.01	-52.8	-68.0	3.8	1.49e+00	0	43	104	0	77	20318
2026-01-01 10:53:33.27	219.09	30.41	-52.8	-67.9	3.8	1.49e+00	0	43	104	0	77	20199
2026-01-01 10:53:36.70	219.98	30.87	-52.8	-67.9	3.8	1.49e+00	0	43	104	0	77	20238
2026-01-01 10:53:39.65	220.77	31.25	-52.8	-67.9	3.8	1.49e+00	0	43	104	0	77	20220
2026-01-01 10:53:42.95	221.68	31.69	-52.8	-67.9	3.8	1.49e+00	0	43	104	0	77	20255
2026-01-01 10:53:45.67	222.44	32.04	-52.8	-67.9	3.8	1.49e+00	0	43	104	0	77	20180
2026-01-01 10:53:48.97	223.39	32.47	-52.8	-67.9	3.8	1.49e+00	0	43	104	0	77	20258
2026-01-01 10:53:51.70	224.19	32.83	-52.8	-67.9	3.8	1.49e+00	0	43	104	0	77	20147
2026-01-01 10:53:55.00	225.19	33.25	-52.8	-67.9	3.8	1.49e+00	0	43	104	0	77	20180
2026-01-01 10:53:57.72	226.03	33.60	-52.7	-67.9	3.8	1.49e+00	0	43	104	0	77	20103
2026-01-01 10:54:01.02	227.07	34.02	-52.7	-67.9	3.8	1.49e+00	0	43	104	0	77	20079
2026-01-01 10:54:03.75	227.95	34.36	-52.7	-67.9	3.8	1.49e+00	0	43	104	0	77	20153
2026-01-01 10:54:07.05	229.04	34.77	-52.8	-67.9	3.8	1.49e+00	0	43	104	0	77	20284
2026-01-01 10:54:09.77	229.96	35.10	-52.8	-67.9	3.8	1.49e+00	0	43	104	0	77	20157
2026-01-01 10:54:13.07	231.10	35.49	-52.7	-67.9	3.8	1.49e+00	0	43	104	0	77	20084
2026-01-01 10:54:15.80	232.06	35.81	-52.7	-67.8	3.8	1.49e+00	0	43	104	0	77	20031
2026-01-01 10:54:19.10	233.25	36.19	-52.8	-67.9	3.8	1.49e+00	0	43	104	0	77	20189
2026-01-01 10:54:21.82	234.25	36.50	-52.8	-67.9	3.8	1.49e+00	0	43	104	0	77	20209
2026-01-01 10:54:25.12	235.49	36.86	-52.7	-67.9	3.8	1.49e+00	0	43	104	0	77	20074
2026-01-01 10:54:27.85	236.54	37.15	-52.7	-67.8	3.8	1.49e+00	0	43	104	0	77	20040
2026-01-01 10:54:31.15	237.82	37.49	-52.7	-67.9	3.8	1.49e+00	0	43	104	0	77	20117
2026-01-01 10:54:33.88	238.91	37.77	-52.8	-67.9	3.8	1.49e+00	0	43	104	0	77	20169
2026-01-01 10:54:37.17	240.24	38.08	-52.7	-67.9	3.8	1.49e+00	0	43	104	0	77	20143
2026-01-01 10:54:39.90	241.36	38.33	-52.8	-67.9	3.8	1.49e+00	0	43	104	0	77	20259
2026-01-01 10:54:43.20	242.74	38.62	-52.8	-67.9	3.8	1.49e+00	0	43	104	0	77	20201
2026-01-01 10:54:45.92	243.90	38.85	-52.8	-67.9	3.8	1.49e+00	0	43	104	0	77	20214
2026-01-01 10:54:49.22	245.32	39.11	-52.7	-67.9	3.8	1.49e+00	0	43	104	0	77	20096
2026-01-01 10:54:51.95	246.52	39.31	-52.7	-67.8	3.8	1.49e+00	0	43	104	0	77	19947
2026-01-01 10:54:55.23	247.97	39.53	-52.7	-67.8	3.8	1.49e+00	0	43	104	0	77	20015
2026-01-01 10:54:58.51	249.44	39.73	-52.8	-67.9	3.8	1.49e+00	0	43	104	0	77	20142
2026-01-01 10:55:01.49	250.79	39.90	-52.7	-67.8	3.8	1.49e+00	0	43	104	0	77	20064
2026-01-01 10:55:04.65	252.24	40.06	-52.7	-67.8	3.8	1.49e+00	0	43	104	0	77	19986
2026-01-01 10:55:07.52	253.57	40.19	-52.7	-67.8	3.8	1.49e+00	0	43	104	0	77	19932
2026-01-01 10:55:10.68	255.04	40.31	-52.7	-67.8	3.8	1.49e+00	0	43	104	0	77	20057
2026-01-01 10:55:13.61	256.41	40.41	-52.7	-67.9	3.8	1.49e+00	0	43	104	0	77	20073
2026-01-01 10:55:16.76	257.90	40.49	-52.7	-67.8	3.8	1.49e+00	0	43	104	0	77	20011
2026-01-01 10:55:19.63	259.26	40.55	-52.7	-67.8	3.8	1.49e+00	0	43	104	0	77	19973
2026-01-01 10:55:22.79	260.76	40.59	-52.7	-67.8	3.8	1.49e+00	0	43	104	0	77	19968
2026-01-01 10:55:25.66	262.12	40.61	-52.8	-67.9	3.8	1.49e+00	0	43	104	0	77	20236
2026-01-01 10:55:28.82	263.62	40.61	-52.8	-67.9	3.8	1.49e+00	0	43	104	0	77	20213
2026-01-01 10:55:31.69	264.99	40.59	-52.7	-67.9	3.8	1.49e+00	0	43	104	0	77	20082
2026-01-01 10:55:34.84	266.48	40.55	-52.8	-67.9	3.8	1.49e+00	0	43	104	0	77	20107
2026-01-01 10:55:37.71	267.84	40.49	-52.7	-67.8	3.8	1.49e+00	0	43	104	0	77	20049
2026-01-01 10:55:40.87	269.33	40.41	-52.8	-67.9	3.8	1.49e+00	0	43	104	0	77	20190
2026-01-01 10:55:43.74	270.67	40.31	-52.8	-67.9	3.8	1.49e+00	0	43	104	0	77	20125
2026-01-01 10:55:46.90	272.14	40.19	-52.8	-67.9	3.8	1.49e+00	0	43	104	0	77	20107
2026-01-01 10:55:49.77	273.47	40.07	-52.8	-67.9	3.8	1.49e+00	0	43	104	0	77	20125
2026-01-01 10:55:52.92	274.91	39.91	-52.8	-67.9	3.8	1.49e+00	0	43	104	0	77	20201
2026-01-01 10:55:55.79	276.21	39.74	-52.7	-67.9	3.8	1.49e+00	0	43	104	0	77	20187
2026-01-01 10:55:58.95	277.63	39.55	-52.7	-67.9	3.8	1.49e+00	0	43	104	0	77	20089
2026-01-01 10:56:01.82	278.90	39.36	-52.7	-67.8	3.8	1.49e+00	0	43	104	0	77	20028
2026-01-01 10:56:04.97	280.27	39.13	-52.8	-67.9	3.8	1.49e+00	0	43	104	0	77	20182
2026-01-01 10:56:07.84	281.51	38.91	-52.8	-67.9	3.8	1.49e+00	0	43	104	0	77	20130
2026-01-01 10:56:11.00	282.86	38.65	-52.7	-67.8	3.8	1.49e+00	0	43	104	0	77	20043
2026-01-01 10:56:13.87	284.06	38.40	-52.8	-67.9	3.8	1.49e+00	0	43	104	0	77	20136
2026-01-01 10:56:17.02	285.35	38.11	-52.7	-67.8	3.8	1.49e+00	0	43	104	0	77	20057
2026-01-01 10:56:19.89	286.51	37.84	-52.7	-67.8	3.8	1.49e+00	0	43	104	0	77	19977
2026-01-01 10:56:23.05	287.77	37.53	-52.8	-67.9	3.8	1.49e+00	0	43	104	0	77	20139
2026-01-01 10:56:25.92	288.89	37.24	-52.8	-68.0	3.8	1.49e+00	0	43	104	0	77	20315
2026-01-01 10:56:29.08	290.10	36.90	-52.8	-67.9	3.8	1.49e+00	0	43	104	0	77	20200
2026-01-01 10:56:31.94	291.18	36.59	-52.7	-67.9	3.8	1.49e+00	0	43	104	0	77	20122
2026-01-01 10:56:35.10	292.34	36.24	-52.8	-67.9	3.8	1.49e+00	0	43	104	0	77	20200
2026-01-01 10:56:37.97	293.37	35.91	-52.7	-67.9	3.8	1.49e+00	0	43	104	0	77	20120
2026-01-01 10:56:41.12	294.48	35.54	-52.7	-67.8	3.8	1.49e+00	0	43	104	0	77	20025
2026-01-01 10:56:43.99	295.48	35.20	-52.8	-67.9	3.8	1.49e+00	0	43	104	0	77	20223
2026-01-01 10:56:47.15	296.54	34.82	-52.7	-67.9	3.8	1.49e+00	0	43	104	0	77	20177
2026-01-01 10:56:50.02	297.49	34.47	-52.7	-67.8	3.8	1.49e+00	0	43	104	0	77	20028
2026-01-01 10:56:53.17	298.51	34.08	-52.7	-67.9	3.8	1.49e+00	0	43	104	0	77	20124
2026-01-01 10:56:56.04	299.42	33.72	-52.7	-67.9	3.8	1.49e+00	0	43	104	0	77	20121
2026-01-01 10:56:59.19	300.39	33.32	-52.8	-67.9	3.8	1.49e+00	0	43	104	0	77	20202
2026-01-01 10:57:02.06	301.26	32.95	-52.7	-67.8	3.8	1.49e+00	0	43	104	0	77	20056
2026-01-01 10:57:05.22	302.19	32.55	-52.8	-67.9	3.8	1.49e+00	0	43	104	0	77	20211
2026-01-01 10:57:08.09	303.01	32.18	-52.7	-67.9	3.8	1.49e+00	0	43	104	0	77	20194
2026-01-01 10:57:11.50	303.97	31.73	-52.7	-67.8	3.8	1.49e+00	0	43	104	0	77	20003
2026-01-01 10:57:14.51	304.79	31.34	-52.7	-67.9	3.8	1.49e+00	0	43	104	0	77	20088
2026-01-01 10:57:17.53	305.60	30.95	-52.7	-67.9	3.8	1.49e+00	0	43	104	0	77	20091
2026-01-01 10:57:20.54	306.38	30.55	-52.8	-67.9	3.8	1.49e+00	0	43	104	0	77	20128
2026-01-01 10:57:23.58	307.16	30.15	-52.7	-67.8	3.8	1.49e+00	0	43	104	0	77	20011
2026-01-01 10:57:26.62	307.91	29.76	-52.7	-67.8	3.8	1.49e+00	0	43	104	0	77	20060
2026-01-01 10:57:29.63	308.64	29.36	-52.8	-67.9	3.8	1.49e+00	0	43	104	0	77	20129
2026-01-01 10:57:32.65	309.36	28.97	-52.7	-67.8	3.8	1.49e+00	0	43	104	0	77	20045
2026-01-01 10:57:35.66	310.06	28.58	-52.7	-67.8	3.8	1.49e+00	0	43	104	0	77	20022
2026-01-01 10:57:38.67	310.73	28.18	-52.7	-67.8	3.8	1.49e+00	0	43	104	0	77	20024
2026-01-01 10:57:41.68	311.40	27.80	-52.8	-67.9	3.8	1.49e+00	0	43	104	0	77	20188
2026-01-01 10:57:44.69	312.05	27.41	-52.7	-67.8	3.8	1.49e+00	0	43	104	0	77	20063
2026-01-01 10:57:47.71	312.68	27.02	-52.7	-67.9	3.8	1.49e+00	0	43	104	0	77	20095
2026-01-01 10:57:50.72	313.30	26.64	-52.7	-67.8	3.8	1.49e+00	0	43	104	0	77	20035
2026-01-01 10:57:53.73	313.90	26.25	-52.7	-67.9	3.8	1.49e+00	0	43	104	0	77	20121
2026-01-01 10:57:56.75	314.49	25.87	-52.7	-67.8	3.8	1.49e+00	0	43	104	0	77	19993
2026-01-01 10:57:59.76	315.07	25.50	-52.7	-67.8	3.8	1.49e+00	0	43	104	0	77	19973
2026-01-01 10:58:02.77	315.63	25.12	-52.7	-67.8	3.8	1.49e+00	0	43	104	0	77	19985
2026-01-01 10:58:05.78	316.18	24.75	-52.7	-67.9	3.8	1.49e+00	0	43	104	0	77	20142
2026-01-01 10:58:08.80	316.72	24.38	-52.8	-67.9	3.8	1.49e+00	0	43	104	0	77	20162
2026-01-01 10:58:11.81	317.24	24.01	-52.7	-67.9	3.8	1.49e+00	0	43	104	0	77	20139
2026-01-01 10:58:14.82	317.76	23.65	-52.7	-67.9	3.8	1.49e+00	0	43	104	0	77	20120
2026-01-01 10:58:17.84	318.26	23.28	-52.7	-67.8	3.8	1.49e+00	0	42	104	0	77	20044
2026-01-01 10:58:20.85	318.75	22.93	-52.8	-67.9	3.8	1.49e+00	0	43	104	0	77	20211
2026-01-01 10:58:23.86	319.23	22.57	-52.8	-67.9	3.8	1.49e+00	0	43	104	0	77	20097
2026-01-01 10:58:26.88	319.70	22.22	-52.8	-67.9	3.8	1.49e+00	0	43	104	0	77	20114
2026-01-01 10:58:29.89	320.16	21.87	-52.8	-67.9	3.8	1.49e+00	0	43	104	0	77	20209
2026-01-01 10:58:32.90	320.61	21.52	-52.8	-67.9	3.8	1.49e+00	0	43	104	0	77	20187
2026-01-01 10:58:35.92	321.05	21.18	-52.7	-67.9	3.8	1.49e+00	0	43	104	0	77	20176
2026-01-01 10:58:38.93	321.48	20.84	-52.7	-67.8	3.8	1.49e+00	0	43	104	0	77	20053
2026-01-01 10:58:41.94	321.90	20.50	-52.8	-67.9	3.8	1.49e+00	0	42	104	0	77	20198
2026-01-01 10:58:44.95	322.31	20.16	-52.8	-67.9	3.8	1.49e+00	0	43	104	0	77	20104
2026-01-01 10:58:47.96	322.72	19.83	-52.8	-67.9	3.8	1.49e+00	0	43	104	0	77	20096
2026-01-01 10:58:50.97	323.11	19.50	-52.7	-67.8	3.8	1.49e+00	0	43	104	0	77	20031
2026-01-01 10:58:53.98	323.50	19.18	-52.7	-67.9	3.8	1.49e+00	0	43	104	0	77	20128
2026-01-01 10:58:56.99	323.88	18.86	-52.7	-67.9	3.8	1.49e+00	0	43	104	0	77	20140
2026-01-01 10:59:00.00	324.25	18.54	-52.7	-67.8	3.8	1.49e+00	0	43	104	0	77	20025
2026-01-01 10:59:03.01	324.61	18.22	-52.8	-67.9	3.8	1.49e+00	0	43	104	0	77	20133
2026-01-01 10:59:06.03	324.97	17.91	-52.8	-67.9	3.8	1.49e+00	0	43	104	0	77	20140
2026-01-01 10:59:09.04	325.32	17.60	-52.8	-67.8	3.8	1.49e+00	0	42	104	0	77	20050
2026-01-01 10:59:12.05	325.67	17.29	-52.8	-67.9	3.8	1.49e+00	0	43	104	0	77	20148
2026-01-01 10:59:15.07	326.00	16.99	-52.7	-67.9	3.8	1.49e+00	0	43	104	0	77	20220
2026-01-01 10:59:18.08	326.33	16.69	-52.7	-67.8	3.8	1.49e+00	0	43	104	0	77	20067
2026-01-01 10:59:21.09	326.66	16.39	-52.8	-67.9	3.8	1.49e+00	0	42	104	0	77	20157
2026-01-01 10:59:24.10	326.98	16.09	-52.8	-67.9	3.8	1.49e+00	0	42	104	0	77	20162
2026-01-01 10:59:27.12	327.29	15.80	-52.7	-67.9	3.8	1.49e+00	0	42	104	0	77	20091
2026-01-01 10:59:30.13	327.59	15.51	-52.8	-67.9	3.8	1.49e+00	0	43	104	0	77	20278
2026-01-01 10:59:33.14	327.89	15.22	-52.7	-67.9	3.8	1.49e+00	0	42	104	0	77	20090
2026-01-01 10:59:36.16	328.19	14.93	-52.7	-67.9	3.8	1.49e+00	0	42	104	0	77	20080
2026-01-01 10:59:39.17	328.48	14.65	-52.7	-67.8	3.8	1.49e+00	0	43	104	0	77	20003
2026-01-01 10:59:42.18	328.77	14.37	-52.7	-67.9	3.8	1.49e+00	0	42	104	0	77	20084
2026-01-01 10:59:45.19	329.04	14.10	-52.7	-67.9	3.8	1.49e+00	0	43	104	0	77	20108
2026-01-01 10:59:48.21	329.32	13.82	-52.7	-67.8	3.8	1.49e+00	0	43	104	0	77	19989
2026-01-01 10:59:51.22	329.59	13.55	-52.7	-67.9	3.8	1.49e+00	0	42	104	0	77	20153
2026-01-01 10:59:54.23	329.86	13.28	-52.8	-67.9	3.8	1.49e+00	0	43	104	0	77	20194
2026-01-01 10:59:57.42	330.13	13.00	-52.7	-67.9	3.8	1.49e+00	0	43	104	0	77	20096
2026-01-01 11:00:00.42	330.39	12.73	-52.8	-67.9	3.8	1.49e+00	0	42	104	0	77	20134
2026-01-01 11:00:03.73	330.66	12.45	-52.8	-67.9	3.8	1.49e+00	0	43	104	0	77	20293
2026-01-01 11:00:06.46	330.89	12.21	-52.8	-67.9	3.8	1.49e+00	0	42	104	0	77	20117
2026-01-01 11:00:09.76	331.15	11.93	-52.7	-67.9	3.8	1.49e+00	0	43	104	0	77	20157
2026-01-01 11:00:12.51	331.37	11.70	-52.7	-67.8	3.8	1.49e+00	0	42	104	0	77	20047
2026-01-01 11:00:15.94	331.64	11.41	-52.7	-67.8	3.8	1.49e+00	0	42	104	0	77	20028
2026-01-01 11:00:18.67	331.85	11.18	-52.8	-67.9	3.8	1.49e+00	0	42	104	0	77	20122
2026-01-01 11:00:21.97	332.10	10.91	-52.8	-67.9	3.8	1.49e+00	0	42	104	0	77	20279
2026-01-01 11:00:24.70	332.30	10.69	-52.8	-67.8	3.8	1.49e+00	0	42	104	0	77	20014
2026-01-01 11:00:28.01	332.55	10.42	-52.7	-67.8	3.8	1.49e+00	0	42	104	0	77	20067
2026-01-01 11:00:30.72	332.74	10.20	-52.7	-67.8	3.8	1.49e+00	0	43	104	0	77	20036
2026-01-01 11:00:34.03	332.98	9.94	-52.8	-67.9	3.8	1.49e+00	0	42	104	0	77	20134
2026-01-01 11:00:36.74	333.17	9.72	-52.8	-67.9	3.8	1.49e+00	0	43	104	0	77	20244
2026-01-01 11:00:40.04	333.39	9.46	-52.8	-67.9	3.8	1.49e+00	0	42	104	0	77	20236
2026-01-01 11:00:42.78	333.58	9.25	-52.8	-68.0	3.8	1.49e+00	0	42	104	0	77	20429
2026-01-01 11:00:46.07	333.80	9.00	-53.0	-68.1	3.8	1.49e+00	0	42	104	0	77	20567
2026-01-01 11:00:48.79	333.98	8.79	-52.8	-68.1	3.8	1.49e+00	0	42	104	0	77	20582
2026-01-01 11:00:52.10	334.20	8.54	-52.9	-68.1	3.8	1.49e+00	0	42	104	0	77	20657
2026-01-01 11:00:54.82	334.37	8.33	-52.9	-68.1	3.8	1.49e+00	0	42	104	0	77	20614
2026-01-01 11:00:58.11	334.58	8.09	-52.9	-68.1	3.8	1.49e+00	0	42	104	0	77	20611
2026-01-01 11:01:00.83	334.75	7.89	-52.8	-68.0	3.8	1.49e+00	0	42	104	0	77	20425
2026-01-01 11:01:04.12	334.95	7.65	-52.8	-68.0	3.8	1.49e+00	0	42	104	0	77	20487
2026-01-01 11:01:06.84	335.11	7.45	-52.9	-68.0	3.8	1.49e+00	0	42	104	0	77	20496
2026-01-01 11:01:10.13	335.31	7.21	-52.8	-68.0	3.8	1.49e+00	0	43	104	0	77	20429
2026-01-01 11:01:12.85	335.47	7.01	-52.8	-68.0	3.8	1.49e+00	0	42	104	0	77	20426
2026-01-01 11:01:16.14	335.66	6.78	-52.8	-68.1	3.8	1.49e+00	0	42	104	0	77	20545
2026-01-01 11:01:18.86	335.82	6.59	-52.8	-68.0	3.8	1.49e+00	0	42	104	0	77	20421
2026-01-01 11:01:22.15	336.00	6.36	-52.8	-68.0	3.8	1.49e+00	0	42	104	0	77	20401
2026-01-01 11:01:24.87	336.15	6.17	-52.8	-68.0	3.8	1.49e+00	0	42	104	0	77	20450
2026-01-01 11:01:28.16	336.33	5.94	-52.8	-68.0	3.8	1.49e+00	0	42	104	0	77	20347
2026-01-01 11:01:30.89	336.48	5.75	-52.8	-68.0	3.8	1.49e+00	0	42	104	0	77	20424
2026-01-01 11:01:34.18	336.66	5.53	-52.8	-67.9	3.8	1.49e+00	0	42	104	0	77	20229
2026-01-01 11:01:36.90	336.80	5.34	-52.8	-68.0	3.8	1.49e+00	0	42	104	0	77	20438
2026-01-01 11:01:40.18	336.98	5.12	-52.8	-68.0	3.8	1.49e+00	0	42	104	0	77	20423

#Closed at: 2026-01-01 11:01:42
#Recorded file [0 MB]: D:/Data/31040_260101_134916.dat