passes_logs/2026/01/01/T1/T1__20260101_095829_NOAA_21_JPSS-2_rec.log

#Pass ID: 20260101_095829_NOAA 21 (JPSS-2)
#Satellite: NOAA 21 (JPSS-2)
#Configuration: NOAA 21
#almurnet v.1.7.20251203
#Start time: 2026-01-01 09:58:30

#Version: 2.0.20230620
#Station: T1
#Location: 37.570604 lon 55.790049 lat
#TLE: 1 54234U 22150A   25365.42224288  .00000199  00000+0  11529-3 0  9990
#TLE: 2 54234  98.7483 301.4995 0001320 356.2106   3.9060 14.19530300162743

#Time	Az	El	Level	Level2	SNR	BER	BlckErr	Temp	State	Recorded	gain1	gain2
2026-01-01 09:58:30.17	161.83	5.07	-52.4	-65.4	3.8	1.49e+00	0	41	0	0	75	16897
2026-01-01 09:58:33.18	161.85	5.29	-52.3	-65.3	3.8	1.49e+00	0	41	104	0	76	15814
2026-01-01 09:58:36.63	161.86	5.54	-52.3	-65.4	3.8	1.49e+00	0	41	104	0	76	15945
2026-01-01 09:58:39.35	161.87	5.74	-52.4	-65.4	3.8	1.49e+00	0	41	104	0	76	15993
2026-01-01 09:58:42.72	161.89	5.99	-52.3	-65.3	3.8	1.49e+00	0	41	104	0	76	15834
2026-01-01 09:58:45.50	161.90	6.20	-52.3	-65.3	3.8	1.49e+00	0	42	104	0	76	15823
2026-01-01 09:58:48.87	161.91	6.46	-52.4	-65.4	3.8	1.49e+00	0	42	104	0	76	15973
2026-01-01 09:58:51.59	161.93	6.66	-52.3	-65.3	3.8	1.49e+00	0	41	104	0	76	15902
2026-01-01 09:58:54.89	161.94	6.92	-52.3	-65.3	3.8	1.49e+00	0	42	104	0	76	15902
2026-01-01 09:58:57.62	161.95	7.13	-52.3	-65.3	3.8	1.49e+00	0	42	104	0	76	15937
2026-01-01 09:59:00.92	161.97	7.39	-52.4	-65.4	3.8	1.49e+00	0	42	104	0	76	16009
2026-01-01 09:59:03.64	161.98	7.60	-52.3	-65.4	3.8	1.49e+00	0	42	104	0	76	15975
2026-01-01 09:59:06.94	162.00	7.87	-52.3	-65.3	3.8	1.49e+00	0	42	104	0	76	15884
2026-01-01 09:59:09.67	162.01	8.09	-52.4	-65.4	3.8	1.49e+00	0	42	104	0	76	15969
2026-01-01 09:59:12.97	162.03	8.36	-52.3	-65.3	3.8	1.49e+00	0	42	104	0	76	15859
2026-01-01 09:59:15.69	162.04	8.58	-52.3	-65.3	3.8	1.49e+00	0	43	104	0	76	15875
2026-01-01 09:59:18.99	162.06	8.85	-52.3	-65.3	3.8	1.49e+00	0	42	104	0	76	15853
2026-01-01 09:59:21.72	162.07	9.08	-52.4	-65.4	3.8	1.49e+00	0	42	104	0	76	15975
2026-01-01 09:59:25.02	162.09	9.36	-52.3	-65.3	3.8	1.49e+00	0	42	104	0	76	15885
2026-01-01 09:59:27.74	162.10	9.60	-52.3	-65.3	3.8	1.49e+00	0	43	104	0	76	15883
2026-01-01 09:59:31.04	162.12	9.88	-52.3	-65.4	3.8	1.49e+00	0	43	104	0	76	15983
2026-01-01 09:59:33.77	162.13	10.12	-52.3	-65.3	3.8	1.49e+00	0	43	104	0	76	15858
2026-01-01 09:59:37.07	162.15	10.41	-52.3	-65.3	3.8	1.49e+00	0	43	104	0	76	15883
2026-01-01 09:59:39.79	162.16	10.65	-52.3	-65.3	3.8	1.49e+00	0	43	104	0	76	15810
2026-01-01 09:59:43.09	162.18	10.95	-52.3	-65.3	3.8	1.49e+00	0	43	104	0	76	15910
2026-01-01 09:59:45.82	162.19	11.20	-52.4	-65.4	3.8	1.49e+00	0	43	104	0	76	15947
2026-01-01 09:59:49.12	162.21	11.51	-52.3	-65.3	3.8	1.49e+00	0	43	104	0	76	15885
2026-01-01 09:59:51.85	162.22	11.76	-52.3	-65.3	3.8	1.49e+00	0	43	104	0	76	15842
2026-01-01 09:59:55.15	162.24	12.07	-52.4	-65.4	3.8	1.49e+00	0	43	104	0	76	16004
2026-01-01 09:59:57.87	162.26	12.33	-52.4	-65.4	3.8	1.49e+00	0	43	104	0	76	16008
2026-01-01 10:00:01.17	162.27	12.65	-52.3	-65.3	3.8	1.49e+00	0	43	104	0	76	15943
2026-01-01 10:00:03.90	162.29	12.92	-52.4	-65.4	3.8	1.49e+00	0	43	104	0	76	15963
2026-01-01 10:00:07.10	162.31	13.24	-52.4	-65.4	3.8	1.49e+00	0	43	104	0	76	16004
2026-01-01 10:00:10.12	162.32	13.54	-52.3	-65.3	3.8	1.49e+00	0	43	104	0	76	15872
2026-01-01 10:00:13.13	162.34	13.85	-52.3	-65.3	3.8	1.49e+00	0	43	104	0	76	15900
2026-01-01 10:00:16.14	162.36	14.16	-52.3	-65.3	3.8	1.49e+00	0	43	104	0	76	15935
2026-01-01 10:00:19.16	162.38	14.47	-52.3	-65.3	3.8	1.49e+00	0	43	104	0	76	15897
2026-01-01 10:00:22.17	162.39	14.79	-52.3	-65.3	3.8	1.49e+00	0	43	104	0	76	15939
2026-01-01 10:00:25.18	162.41	15.11	-52.3	-65.3	3.8	1.49e+00	0	44	104	0	76	15900
2026-01-01 10:00:28.23	162.43	15.44	-52.3	-65.3	3.8	1.49e+00	0	43	104	0	76	15914
2026-01-01 10:00:31.31	162.45	15.78	-52.3	-65.3	3.8	1.49e+00	0	43	104	0	76	15836
2026-01-01 10:00:34.30	162.47	16.12	-52.4	-65.4	3.8	1.49e+00	0	43	104	0	76	15970
2026-01-01 10:00:37.69	162.49	16.50	-52.3	-65.3	3.8	1.49e+00	0	43	104	0	76	15862
2026-01-01 10:00:40.41	162.51	16.81	-52.3	-65.3	3.8	1.49e+00	0	43	104	0	76	15843
2026-01-01 10:00:43.72	162.53	17.20	-52.3	-65.3	3.8	1.49e+00	0	43	104	0	76	15888
2026-01-01 10:00:46.44	162.54	17.52	-52.4	-65.4	3.8	1.49e+00	0	43	104	0	76	16026
2026-01-01 10:00:49.88	162.57	17.93	-52.4	-65.3	3.8	1.49e+00	0	43	104	0	76	15897
2026-01-01 10:00:52.61	162.58	18.27	-52.3	-65.3	3.8	1.49e+00	0	43	104	0	76	15910
2026-01-01 10:00:55.91	162.61	18.67	-52.4	-65.3	3.8	1.49e+00	0	43	104	0	76	15889
2026-01-01 10:00:58.63	162.63	19.02	-52.3	-65.3	3.8	1.49e+00	0	43	104	0	76	15937
2026-01-01 10:01:01.93	162.65	19.44	-52.3	-65.3	3.8	1.49e+00	0	43	104	0	76	15918
2026-01-01 10:01:04.66	162.67	19.79	-52.3	-65.3	3.8	1.49e+00	0	43	104	0	76	15903
2026-01-01 10:01:07.96	162.69	20.22	-52.4	-65.4	3.8	1.49e+00	0	43	104	0	76	16039
2026-01-01 10:01:10.68	162.71	20.59	-52.4	-65.4	3.8	1.49e+00	0	44	104	0	76	15974
2026-01-01 10:01:13.99	162.74	21.04	-52.3	-65.3	3.8	1.49e+00	0	43	104	0	76	15921
2026-01-01 10:01:16.71	162.76	21.41	-52.3	-65.3	3.8	1.49e+00	0	43	104	0	76	15900
2026-01-01 10:01:20.01	162.78	21.88	-52.4	-65.4	3.8	1.49e+00	0	43	104	0	76	15980
2026-01-01 10:01:22.74	162.80	22.27	-52.4	-65.3	3.8	1.49e+00	0	43	104	0	76	15935
2026-01-01 10:01:26.04	162.83	22.75	-52.3	-65.3	3.8	1.49e+00	0	43	104	0	76	15816
2026-01-01 10:01:28.77	162.85	23.15	-52.3	-65.3	3.8	1.49e+00	0	43	104	0	76	15902
2026-01-01 10:01:32.07	162.88	23.65	-52.3	-65.3	3.8	1.49e+00	0	43	104	0	76	15936
2026-01-01 10:01:34.79	162.90	24.06	-52.3	-65.3	3.8	1.49e+00	0	43	104	0	76	15905
2026-01-01 10:01:38.09	162.93	24.58	-52.3	-65.3	3.8	1.49e+00	0	44	104	0	76	15828
2026-01-01 10:01:40.82	162.95	25.01	-52.3	-65.3	3.8	1.49e+00	0	43	104	0	76	15816
2026-01-01 10:01:44.12	162.98	25.55	-52.3	-65.3	3.8	1.49e+00	0	43	104	0	76	15864
2026-01-01 10:01:46.84	163.01	25.99	-52.3	-65.3	3.8	1.49e+00	0	44	104	0	76	15840
2026-01-01 10:01:50.14	163.04	26.55	-52.3	-65.3	3.8	1.49e+00	0	44	104	0	76	15768
2026-01-01 10:01:52.87	163.06	27.02	-52.3	-65.3	3.8	1.49e+00	0	43	104	0	76	15836
2026-01-01 10:01:56.17	163.09	27.59	-52.3	-65.4	3.8	1.49e+00	0	43	104	0	76	15953
2026-01-01 10:01:58.89	163.12	28.07	-52.3	-65.3	3.8	1.49e+00	0	43	104	0	76	15815
2026-01-01 10:02:02.19	163.15	28.67	-52.3	-65.3	3.8	1.49e+00	0	44	104	0	76	15939
2026-01-01 10:02:05.01	163.18	29.19	-52.3	-65.3	3.8	1.49e+00	0	44	104	0	76	15815
2026-01-01 10:02:08.16	163.22	29.79	-52.4	-65.3	3.8	1.49e+00	0	44	104	0	76	15934
2026-01-01 10:02:11.03	163.25	30.34	-52.3	-65.3	3.8	1.49e+00	0	44	104	0	76	15844
2026-01-01 10:02:14.19	163.28	30.96	-52.3	-65.3	3.8	1.49e+00	0	44	104	0	76	15828
2026-01-01 10:02:17.15	163.32	31.55	-52.3	-65.3	3.8	1.49e+00	0	43	104	0	76	15806
2026-01-01 10:02:20.17	163.35	32.17	-52.3	-65.3	3.8	1.49e+00	0	44	104	0	76	15815
2026-01-01 10:02:23.18	163.39	32.80	-52.3	-65.3	3.8	1.49e+00	0	43	104	0	76	15857
2026-01-01 10:02:26.64	163.43	33.54	-52.3	-65.3	3.8	1.49e+00	0	43	104	0	76	15816
2026-01-01 10:02:29.37	163.47	34.14	-52.3	-65.3	3.8	1.49e+00	0	43	104	0	76	15872
2026-01-01 10:02:32.67	163.51	34.87	-52.3	-65.3	3.8	1.49e+00	0	44	104	0	76	15890
2026-01-01 10:02:35.46	163.55	35.51	-52.4	-65.4	3.8	1.49e+00	0	44	104	0	76	15967
2026-01-01 10:02:38.88	163.60	36.31	-52.3	-65.3	3.8	1.49e+00	0	44	104	0	76	15913
2026-01-01 10:02:41.61	163.64	36.96	-52.3	-65.3	3.8	1.49e+00	0	44	104	0	76	15841
2026-01-01 10:02:44.91	163.69	37.76	-52.3	-65.3	3.8	1.49e+00	0	44	104	0	76	15829
2026-01-01 10:02:47.64	163.73	38.45	-52.4	-65.4	3.8	1.49e+00	0	43	104	0	76	15975
2026-01-01 10:02:50.93	163.79	39.28	-52.4	-65.4	3.8	1.49e+00	0	44	104	0	76	16031
2026-01-01 10:02:53.66	163.83	40.00	-52.4	-65.4	3.8	1.49e+00	0	44	104	0	76	15956
2026-01-01 10:02:56.96	163.89	40.88	-52.3	-65.3	3.8	1.49e+00	0	44	104	0	76	15911
2026-01-01 10:02:59.69	163.94	41.62	-52.4	-65.3	3.8	1.49e+00	0	44	104	0	76	15918
2026-01-01 10:03:02.98	164.01	42.54	-52.3	-65.3	3.8	1.49e+00	0	44	104	0	76	15847
2026-01-01 10:03:05.71	164.06	43.32	-52.3	-65.3	3.8	1.49e+00	0	44	104	0	76	15825
2026-01-01 10:03:09.01	164.13	44.28	-52.4	-65.3	3.8	1.49e+00	0	44	104	0	76	15926
2026-01-01 10:03:11.74	164.19	45.10	-52.3	-65.3	3.8	1.49e+00	0	44	104	0	76	15886
2026-01-01 10:03:15.04	164.27	46.11	-52.4	-65.4	3.8	1.49e+00	0	44	104	0	76	15948
2026-01-01 10:03:17.77	164.34	46.96	-52.4	-65.3	3.8	1.49e+00	0	44	104	0	76	15942
2026-01-01 10:03:21.06	164.42	48.01	-52.4	-65.3	3.8	1.49e+00	0	44	104	0	76	15933
2026-01-01 10:03:23.79	164.50	48.91	-52.3	-65.3	3.8	1.49e+00	0	44	104	0	76	15875
2026-01-01 10:03:27.09	164.59	50.01	-52.4	-65.4	3.8	1.49e+00	0	44	104	0	76	15982
2026-01-01 10:03:29.82	164.67	50.95	-52.3	-65.3	3.8	1.49e+00	0	44	104	0	76	15835
2026-01-01 10:03:33.11	164.78	52.10	-52.3	-65.4	3.8	1.49e+00	0	44	104	0	76	15967
2026-01-01 10:03:35.84	164.88	53.07	-52.3	-65.3	3.8	1.49e+00	0	44	104	0	76	15827
2026-01-01 10:03:39.14	165.00	54.28	-52.3	-65.3	3.8	1.49e+00	0	44	104	0	76	15892
2026-01-01 10:03:41.87	165.11	55.30	-52.3	-65.3	3.8	1.49e+00	0	44	104	0	76	15895
2026-01-01 10:03:45.16	165.25	56.55	-52.3	-65.3	3.8	1.49e+00	0	44	104	0	76	15941
2026-01-01 10:03:47.89	165.38	57.61	-52.3	-65.3	3.8	1.49e+00	0	44	104	0	76	15915
2026-01-01 10:03:51.19	165.55	58.92	-52.4	-65.4	3.8	1.49e+00	0	44	104	0	76	15992
2026-01-01 10:03:54.03	165.70	60.07	-52.3	-65.3	3.8	1.49e+00	0	44	104	0	76	15859
2026-01-01 10:03:57.18	165.89	61.38	-52.3	-65.3	3.8	1.49e+00	0	44	104	0	76	15887
2026-01-01 10:04:00.13	166.09	62.62	-52.3	-65.3	3.8	1.49e+00	0	44	104	0	76	15892
2026-01-01 10:04:03.15	166.31	63.91	-52.3	-65.3	3.8	1.49e+00	0	44	104	0	76	15837
2026-01-01 10:04:06.16	166.56	65.22	-52.4	-65.3	3.8	1.49e+00	0	44	104	0	76	15879
2026-01-01 10:04:09.17	166.83	66.56	-52.3	-65.3	3.8	1.49e+00	0	44	104	0	76	15811
2026-01-01 10:04:12.19	167.15	67.92	-52.3	-65.3	3.8	1.49e+00	0	44	104	0	76	15813
2026-01-01 10:04:15.20	167.50	69.30	-52.3	-65.3	3.8	1.49e+00	0	44	104	0	76	15765
2026-01-01 10:04:18.74	167.99	70.94	-52.3	-65.3	3.8	1.49e+00	0	44	104	0	76	15825
2026-01-01 10:04:21.47	168.43	72.23	-52.3	-65.3	3.8	1.49e+00	0	44	104	0	76	15911
2026-01-01 10:04:24.77	169.06	73.80	-52.3	-65.3	3.8	1.49e+00	0	44	104	0	76	15914
2026-01-01 10:04:27.49	169.68	75.11	-52.4	-65.3	3.8	1.49e+00	0	44	104	0	76	15882
2026-01-01 10:04:30.79	170.61	76.72	-52.4	-65.4	3.8	1.49e+00	0	44	104	0	76	15993
2026-01-01 10:04:33.58	171.59	78.09	-52.3	-65.3	3.8	1.49e+00	0	44	104	0	76	15829
2026-01-01 10:04:36.88	173.09	79.71	-52.3	-65.3	3.8	1.49e+00	0	44	104	0	76	15864
2026-01-01 10:04:39.61	174.76	81.06	-52.4	-65.4	3.8	1.49e+00	0	44	104	0	76	15951
2026-01-01 10:04:42.91	177.60	82.69	-52.3	-65.3	3.8	1.49e+00	0	44	104	0	76	15879
2026-01-01 10:04:45.63	181.11	84.02	-52.4	-65.4	3.8	1.49e+00	0	44	104	0	76	15988
2026-01-01 10:04:48.94	188.21	85.59	-52.4	-65.3	3.8	1.49e+00	0	44	104	0	76	15917
2026-01-01 10:04:51.66	199.15	86.79	-52.3	-65.3	3.8	1.49e+00	0	44	104	0	76	15891
2026-01-01 10:04:54.96	228.01	87.90	-52.3	-65.4	3.8	1.49e+00	0	44	104	0	76	15969
2026-01-01 10:04:57.69	268.13	88.01	-52.4	-65.4	3.8	1.49e+00	0	44	104	0	76	15949
2026-01-01 10:05:00.99	301.97	87.06	-52.3	-65.3	3.8	1.49e+00	0	44	104	0	76	15925
2026-01-01 10:05:03.71	314.79	85.89	-52.3	-65.3	3.8	1.49e+00	0	44	104	0	76	15931
2026-01-01 10:05:07.02	322.85	84.34	-52.3	-65.4	3.8	1.49e+00	0	44	104	0	76	15945
2026-01-01 10:05:09.74	326.73	83.01	-52.3	-65.3	3.8	1.49e+00	0	44	104	0	76	15898
2026-01-01 10:05:13.04	329.81	81.39	-52.4	-65.3	3.8	1.49e+00	0	44	104	0	76	15918
2026-01-01 10:05:15.77	331.60	80.04	-52.3	-65.4	3.8	1.49e+00	0	44	104	0	76	15977
2026-01-01 10:05:19.07	333.20	78.42	-52.3	-65.3	3.8	1.49e+00	0	44	104	0	76	15831
2026-01-01 10:05:21.79	334.21	77.08	-52.3	-65.3	3.8	1.49e+00	0	44	104	0	76	15838
2026-01-01 10:05:25.09	335.19	75.48	-52.3	-65.3	3.8	1.49e+00	0	44	104	0	76	15899
2026-01-01 10:05:27.82	335.84	74.16	-52.3	-65.3	3.8	1.49e+00	0	44	104	0	76	15888
2026-01-01 10:05:31.12	336.50	72.59	-52.3	-65.4	3.8	1.49e+00	0	44	104	0	76	15951
2026-01-01 10:05:33.85	336.96	71.30	-52.4	-65.4	3.8	1.49e+00	0	44	104	0	76	15972
2026-01-01 10:05:37.15	337.43	69.76	-52.3	-65.3	3.8	1.49e+00	0	44	104	0	76	15881
2026-01-01 10:05:39.88	337.77	68.51	-52.3	-65.3	3.8	1.49e+00	0	44	104	0	76	15824
2026-01-01 10:05:43.18	338.13	67.02	-52.3	-65.3	3.8	1.49e+00	0	44	104	0	76	15908
2026-01-01 10:05:45.90	338.39	65.81	-52.3	-65.4	3.8	1.49e+00	0	44	104	0	76	15978
2026-01-01 10:05:49.20	338.67	64.37	-52.3	-65.3	3.8	1.49e+00	0	44	104	0	76	15800
2026-01-01 10:05:52.03	338.89	63.15	-52.3	-65.3	3.8	1.49e+00	0	44	104	0	76	15806
2026-01-01 10:05:55.29	339.11	61.77	-52.3	-65.4	3.8	1.49e+00	0	44	104	0	76	15957
2026-01-01 10:05:58.59	339.32	60.41	-52.4	-65.4	3.8	1.49e+00	0	44	104	0	76	15947
2026-01-01 10:06:01.49	339.48	59.23	-52.4	-65.4	3.8	1.49e+00	0	44	104	0	76	16056
2026-01-01 10:06:04.64	339.64	57.98	-52.4	-65.3	3.8	1.49e+00	0	44	104	0	76	15930
2026-01-01 10:06:07.51	339.78	56.86	-52.4	-65.4	3.8	1.49e+00	0	44	104	0	76	15956
2026-01-01 10:06:10.68	339.92	55.65	-52.4	-65.4	3.8	1.49e+00	0	44	104	0	76	15976
2026-01-01 10:06:13.62	340.04	54.55	-52.3	-65.3	3.8	1.49e+00	0	44	104	0	76	15932
2026-01-01 10:06:16.77	340.16	53.40	-52.4	-65.3	3.8	1.49e+00	0	44	104	0	76	15940
2026-01-01 10:06:19.64	340.26	52.37	-52.4	-65.3	3.8	1.49e+00	0	44	104	0	76	15878
2026-01-01 10:06:22.80	340.37	51.27	-52.3	-65.3	3.8	1.49e+00	0	44	104	0	76	15857
2026-01-01 10:06:25.67	340.46	50.28	-52.3	-65.3	3.8	1.49e+00	0	44	104	0	76	15844
2026-01-01 10:06:28.82	340.55	49.23	-52.3	-65.3	3.8	1.49e+00	0	44	104	0	76	15932
2026-01-01 10:06:31.69	340.63	48.29	-52.3	-65.3	3.8	1.49e+00	0	44	104	0	76	15903
2026-01-01 10:06:34.85	340.71	47.28	-52.3	-65.4	3.8	1.49e+00	0	44	104	0	76	15957
2026-01-01 10:06:37.72	340.78	46.38	-52.3	-65.3	3.8	1.49e+00	0	44	104	0	76	15851
2026-01-01 10:06:40.88	340.86	45.41	-52.4	-65.3	3.8	1.49e+00	0	44	104	0	76	15930
2026-01-01 10:06:43.75	340.93	44.55	-52.3	-65.3	3.8	1.49e+00	0	44	104	0	76	15921
2026-01-01 10:06:46.90	340.99	43.63	-52.3	-65.3	3.8	1.49e+00	0	44	104	0	76	15886
2026-01-01 10:06:49.77	341.05	42.81	-52.4	-65.4	3.8	1.49e+00	0	44	104	0	76	16004
2026-01-01 10:06:52.93	341.12	41.93	-52.3	-65.3	3.8	1.49e+00	0	44	104	0	76	15885
2026-01-01 10:06:55.80	341.17	41.15	-52.3	-65.3	3.8	1.49e+00	0	44	104	0	76	15901
2026-01-01 10:06:58.96	341.23	40.30	-52.4	-65.3	3.8	1.49e+00	0	44	104	0	76	15930
2026-01-01 10:07:01.83	341.28	39.55	-52.3	-65.3	3.8	1.49e+00	0	44	104	0	76	15906
2026-01-01 10:07:04.98	341.33	38.75	-52.3	-65.3	3.8	1.49e+00	0	44	104	0	76	15849
2026-01-01 10:07:07.84	341.38	38.04	-52.3	-65.3	3.8	1.49e+00	0	44	104	0	76	15798
2026-01-01 10:07:11.00	341.43	37.26	-52.3	-65.3	3.8	1.49e+00	0	44	104	0	76	15803
2026-01-01 10:07:13.87	341.47	36.58	-52.4	-65.4	3.8	1.49e+00	0	44	104	0	76	15957
2026-01-01 10:07:17.03	341.52	35.84	-52.3	-65.3	3.8	1.49e+00	0	44	104	0	76	15913
2026-01-01 10:07:19.90	341.56	35.18	-52.3	-65.3	3.8	1.49e+00	0	44	104	0	76	15856
2026-01-01 10:07:23.05	341.60	34.48	-52.3	-65.4	3.8	1.49e+00	0	44	104	0	76	15983
2026-01-01 10:07:25.93	341.64	33.85	-52.3	-65.3	3.8	1.49e+00	0	44	104	0	76	15920
2026-01-01 10:07:29.08	341.68	33.17	-52.3	-65.3	3.8	1.49e+00	0	44	104	0	76	15862
2026-01-01 10:07:31.95	341.72	32.57	-52.4	-65.4	3.8	1.49e+00	0	44	104	0	76	15946
2026-01-01 10:07:35.11	341.76	31.92	-52.4	-65.3	3.8	1.49e+00	0	44	104	0	76	15932
2026-01-01 10:07:37.98	341.79	31.34	-52.4	-65.4	3.8	1.49e+00	0	44	104	0	76	16052
2026-01-01 10:07:41.13	341.83	30.72	-52.4	-65.4	3.8	1.49e+00	0	44	104	0	76	15976
2026-01-01 10:07:44.00	341.87	30.17	-52.3	-65.3	3.8	1.49e+00	0	44	104	0	76	15902
2026-01-01 10:07:47.16	341.90	29.57	-52.3	-65.3	3.8	1.49e+00	0	44	104	0	76	15932
2026-01-01 10:07:50.03	341.93	29.04	-52.3	-65.3	3.8	1.49e+00	0	44	104	0	76	15842
2026-01-01 10:07:53.19	341.97	28.46	-52.4	-65.4	3.8	1.49e+00	0	44	104	0	76	15956
2026-01-01 10:07:56.41	342.00	27.89	-52.4	-65.4	3.8	1.49e+00	0	44	104	0	76	16044
2026-01-01 10:07:59.48	342.03	27.35	-52.3	-65.3	3.8	1.49e+00	0	44	104	0	76	15851
2026-01-01 10:08:02.64	342.06	26.81	-52.4	-65.4	3.8	1.49e+00	0	44	104	0	76	15986
2026-01-01 10:08:05.51	342.09	26.33	-52.4	-65.4	3.8	1.49e+00	0	44	104	0	76	15981
2026-01-01 10:08:08.67	342.12	25.81	-52.4	-65.4	3.8	1.49e+00	0	44	104	0	76	16023
2026-01-01 10:08:11.57	342.15	25.34	-52.4	-65.4	3.8	1.49e+00	0	44	104	0	76	15988
2026-01-01 10:08:14.72	342.18	24.84	-52.4	-65.4	3.8	1.49e+00	0	44	104	0	76	15988
2026-01-01 10:08:17.59	342.21	24.39	-52.4	-65.4	3.8	1.49e+00	0	44	104	0	76	15955
2026-01-01 10:08:20.75	342.23	23.91	-52.4	-65.4	3.8	1.49e+00	0	44	104	0	76	16055
2026-01-01 10:08:23.62	342.26	23.47	-43.0	-63.8	4.1	1.50e+00	0	44	104	0	54	47555
2026-01-01 10:08:26.78	342.29	23.01	-43.5	-64.4	4.0	1.50e+00	0	44	104	0	56	45077
2026-01-01 10:08:29.65	342.31	22.59	-44.1	-63.8	3.9	1.50e+00	0	44	104	0	58	37464
2026-01-01 10:08:32.81	342.34	22.14	-46.0	-64.2	4.0	1.50e+00	0	44	104	0	61	33125
2026-01-01 10:08:35.68	342.36	21.73	-52.4	-65.4	3.8	1.49e+00	0	44	104	0	75	16898
2026-01-01 10:08:38.83	342.39	21.30	-52.4	-65.3	3.8	1.49e+00	0	44	104	0	75	16852
2026-01-01 10:08:41.70	342.41	20.91	-52.3	-65.3	3.8	1.49e+00	0	44	104	0	75	16800
2026-01-01 10:08:44.86	342.44	20.48	-52.4	-65.4	3.8	1.49e+00	0	44	104	0	75	16907
2026-01-01 10:08:47.73	342.46	20.11	-52.4	-65.4	3.8	1.49e+00	0	44	104	0	75	16899
2026-01-01 10:08:50.89	342.48	19.70	-52.4	-65.3	3.8	1.49e+00	0	44	104	0	75	16887
2026-01-01 10:08:53.75	342.51	19.33	-52.3	-65.3	3.8	1.49e+00	0	44	104	0	75	16857
2026-01-01 10:08:56.91	342.53	18.93	-52.3	-65.3	3.8	1.49e+00	0	44	104	0	75	16773
2026-01-01 10:08:59.78	342.55	18.58	-52.4	-65.4	3.8	1.49e+00	0	44	104	0	75	16924
2026-01-01 10:09:02.94	342.58	18.19	-52.4	-65.4	3.8	1.49e+00	0	44	104	0	75	16894
2026-01-01 10:09:05.80	342.60	17.85	-52.4	-65.4	3.8	1.49e+00	0	44	104	0	75	16952
2026-01-01 10:09:08.96	342.62	17.48	-52.4	-65.4	3.8	1.49e+00	0	44	104	0	75	16922
2026-01-01 10:09:11.83	342.64	17.14	-52.4	-65.4	3.8	1.49e+00	0	44	104	0	75	16925
2026-01-01 10:09:14.99	342.66	16.78	-52.4	-65.4	3.8	1.49e+00	0	44	104	0	75	16913
2026-01-01 10:09:17.86	342.68	16.45	-52.4	-65.3	3.8	1.49e+00	0	44	104	0	75	16856
2026-01-01 10:09:21.02	342.71	16.10	-52.4	-65.4	3.8	1.49e+00	0	44	104	0	75	16920
2026-01-01 10:09:23.88	342.73	15.78	-52.4	-65.4	3.8	1.49e+00	0	44	104	0	75	16922
2026-01-01 10:09:27.04	342.75	15.44	-52.4	-65.4	3.8	1.49e+00	0	44	104	0	75	16958
2026-01-01 10:09:29.91	342.77	15.13	-52.4	-65.4	3.8	1.49e+00	0	44	104	0	75	16898
2026-01-01 10:09:33.07	342.79	14.80	-52.4	-65.4	3.8	1.49e+00	0	44	104	0	75	16950
2026-01-01 10:09:35.94	342.81	14.50	-52.4	-65.4	3.8	1.49e+00	0	44	104	0	75	17058
2026-01-01 10:09:39.09	342.83	14.17	-52.4	-65.4	3.8	1.49e+00	0	44	104	0	75	16899
2026-01-01 10:09:41.96	342.85	13.88	-52.4	-65.3	3.8	1.49e+00	0	44	104	0	75	16877
2026-01-01 10:09:45.12	342.87	13.56	-52.3	-65.3	3.8	1.49e+00	0	44	104	0	75	16856
2026-01-01 10:09:47.99	342.89	13.27	-52.4	-65.4	3.8	1.49e+00	0	44	104	0	75	17012
2026-01-01 10:09:51.15	342.91	12.96	-52.4	-65.4	3.8	1.49e+00	0	44	104	0	75	16914
2026-01-01 10:09:54.01	342.93	12.69	-52.4	-65.4	3.8	1.49e+00	0	44	104	0	75	16969
2026-01-01 10:09:57.17	342.95	12.38	-52.4	-65.3	3.8	1.49e+00	0	44	104	0	75	16839
2026-01-01 10:10:00.04	342.96	12.11	-52.4	-65.4	3.8	1.49e+00	0	44	104	0	75	16937
2026-01-01 10:10:03.20	342.98	11.82	-52.4	-65.4	3.8	1.49e+00	0	44	104	0	75	16890
2026-01-01 10:10:06.19	343.00	11.54	-52.4	-65.3	3.8	1.49e+00	0	44	104	0	75	16822
2026-01-01 10:10:09.45	343.02	11.24	-52.3	-65.3	3.8	1.49e+00	0	44	104	0	75	16833
2026-01-01 10:10:12.37	343.04	10.98	-52.4	-65.4	3.8	1.49e+00	0	44	104	0	75	16900
2026-01-01 10:10:15.86	343.06	10.67	-52.4	-65.4	3.8	1.49e+00	0	44	104	0	75	16995
2026-01-01 10:10:18.59	343.08	10.42	-52.4	-65.4	3.8	1.49e+00	0	44	104	0	75	16919
2026-01-01 10:10:21.89	343.10	10.14	-52.4	-65.4	3.8	1.49e+00	0	44	104	0	75	16905
2026-01-01 10:10:24.61	343.12	9.90	-52.4	-65.4	3.8	1.49e+00	0	44	104	0	75	17047
2026-01-01 10:10:27.91	343.14	9.62	-52.4	-65.3	3.8	1.49e+00	0	44	104	0	75	16885
2026-01-01 10:10:30.64	343.15	9.39	-52.4	-65.4	3.8	1.49e+00	0	44	104	0	75	16986
2026-01-01 10:10:33.94	343.17	9.11	-52.4	-65.4	3.8	1.49e+00	0	44	104	0	75	16958
2026-01-01 10:10:36.67	343.19	8.88	-52.4	-65.5	3.8	1.49e+00	0	44	104	0	75	17110
2026-01-01 10:10:39.97	343.21	8.61	-52.4	-65.4	3.8	1.49e+00	0	44	104	0	75	16928
2026-01-01 10:10:42.69	343.22	8.39	-52.4	-65.4	3.8	1.49e+00	0	44	104	0	75	17045
2026-01-01 10:10:45.99	343.24	8.13	-52.4	-65.4	3.8	1.49e+00	0	44	104	0	75	16892
2026-01-01 10:10:48.72	343.26	7.91	-52.5	-65.5	3.8	1.49e+00	0	44	104	0	75	17188
2026-01-01 10:10:52.02	343.28	7.65	-52.4	-65.4	3.8	1.49e+00	0	44	104	0	75	16981
2026-01-01 10:10:54.74	343.29	7.43	-52.4	-65.4	3.8	1.49e+00	0	44	104	0	75	17029
2026-01-01 10:10:58.04	343.31	7.18	-52.4	-65.4	3.8	1.49e+00	0	44	104	0	75	17007
2026-01-01 10:11:00.77	343.33	6.97	-52.4	-65.4	3.8	1.49e+00	0	44	104	0	75	16958
2026-01-01 10:11:04.07	343.35	6.72	-52.4	-65.4	3.8	1.49e+00	0	44	104	0	75	16908
2026-01-01 10:11:06.79	343.36	6.51	-52.3	-65.3	3.8	1.49e+00	0	44	104	0	75	16863
2026-01-01 10:11:10.09	343.38	6.26	-52.4	-65.4	3.8	1.49e+00	0	44	104	0	75	16934
2026-01-01 10:11:12.82	343.40	6.06	-52.4	-65.4	3.8	1.49e+00	0	44	104	0	75	16951
2026-01-01 10:11:16.12	343.41	5.82	-52.4	-65.4	3.8	1.49e+00	0	44	104	0	75	16919
2026-01-01 10:11:18.84	343.43	5.62	-52.4	-65.4	3.8	1.49e+00	0	44	104	0	75	16928
2026-01-01 10:11:22.14	343.45	5.38	-52.4	-65.3	3.8	1.49e+00	0	44	104	0	75	16859
2026-01-01 10:11:24.87	343.46	5.18	-52.4	-65.4	3.8	1.49e+00	0	44	104	0	75	17007
2026-01-01 10:11:28.17	343.48	4.95	-52.4	-65.4	3.8	1.49e+00	0	44	104	0	75	16944

#Closed at: 2026-01-01 10:11:28
#Recorded file [0 MB]: D:/Data/31040_260101_125830.dat