passes_logs/2026/01/01/T1/T1__20260101_215909_KHAYYAM_rec.log

#Pass ID: 20260101_215909_KHAYYAM
#Satellite: KHAYYAM
#Configuration: KHAYYAM_480M
#almurnet v.1.7.20251203
#Start time: 2026-01-01 21:59:09

#Version: 2.0.20230620
#Station: T1
#Location: 37.570604 lon 55.790049 lat
#TLE: 1 53370U 22096A   25365.91236145  .00003272  00000+0  13536-3 0  9993
#TLE: 2 53370  97.3565 268.1736 0001189  73.2664 286.8704 15.24655091189095

#Time	Az	El	Level	Level2	SNR	BER	BlckErr	Temp	State	Recorded	gain1	gain2
2026-01-01 21:59:09.92	4.62	5.77	-47.4	-53.8	3.6	0.00e+00	0	45	0	0	66	29933
2026-01-01 21:59:11.92	4.48	5.94	-49.3	-55.6	3.7	0.00e+00	0	45	104	0	69	30980
2026-01-01 21:59:13.93	4.35	6.10	-49.3	-55.6	3.7	0.00e+00	0	45	104	0	69	31169
2026-01-01 21:59:15.94	4.21	6.26	-49.3	-55.6	3.7	0.00e+00	0	46	104	0	69	31174
2026-01-01 21:59:17.95	4.07	6.43	-49.3	-55.6	3.7	0.00e+00	0	46	104	0	69	31124
2026-01-01 21:59:19.95	3.93	6.59	-49.3	-55.6	3.7	0.00e+00	0	46	104	0	69	31131
2026-01-01 21:59:21.97	3.78	6.76	-49.3	-55.6	3.7	0.00e+00	0	46	104	0	69	31005
2026-01-01 21:59:23.97	3.64	6.93	-49.3	-55.6	3.7	0.00e+00	0	46	104	0	69	30985
2026-01-01 21:59:25.98	3.49	7.10	-49.3	-55.5	3.7	0.00e+00	0	47	104	0	69	30864
2026-01-01 21:59:27.99	3.34	7.27	-49.3	-55.6	3.7	0.00e+00	0	47	104	0	69	31192
2026-01-01 21:59:30.00	3.18	7.45	-49.2	-55.6	3.7	0.00e+00	0	47	104	0	69	30884
2026-01-01 21:59:32.01	3.03	7.62	-49.3	-55.6	3.7	0.00e+00	0	47	104	0	69	30916
2026-01-01 21:59:34.02	2.87	7.80	-49.3	-55.6	3.7	0.00e+00	0	47	104	0	69	30974
2026-01-01 21:59:36.02	2.71	7.97	-49.2	-55.6	3.7	0.00e+00	0	47	104	0	69	30890
2026-01-01 21:59:38.03	2.54	8.15	-49.3	-55.6	3.7	0.00e+00	0	47	104	0	69	30988
2026-01-01 21:59:40.04	2.38	8.34	-49.3	-55.6	3.7	0.00e+00	0	48	104	0	69	30927
2026-01-01 21:59:42.05	2.21	8.52	-49.2	-55.6	3.7	0.00e+00	0	48	104	0	69	31039
2026-01-01 21:59:44.06	2.04	8.70	-49.3	-55.6	3.7	0.00e+00	0	48	104	0	69	30978
2026-01-01 21:59:46.07	1.86	8.89	-49.3	-55.5	3.7	0.00e+00	0	48	104	0	69	30840
2026-01-01 21:59:48.11	1.68	9.08	-49.3	-55.6	3.7	0.00e+00	0	48	104	0	69	31028
2026-01-01 21:59:50.19	1.49	9.27	-48.0	-54.6	3.8	0.00e+00	0	48	104	0	67	30937
2026-01-01 21:59:52.27	1.30	9.47	-49.8	-55.3	3.7	0.00e+00	0	48	104	0	70	28468
2026-01-01 21:59:54.30	1.11	9.66	-50.5	-56.0	3.7	0.00e+00	0	48	104	0	71	29048
2026-01-01 21:59:56.40	0.91	9.87	-50.8	-56.1	3.7	0.00e+00	0	49	104	0	72	27641
2026-01-01 21:59:58.61	0.70	10.08	-50.9	-56.3	3.7	0.00e+00	0	48	104	0	72	28339
2026-01-01 22:00:00.81	0.48	10.30	-48.9	-55.1	3.7	0.00e+00	0	49	104	0	69	29310
2026-01-01 22:00:02.82	0.28	10.50	-48.5	-54.7	3.7	0.00e+00	0	49	104	0	69	28031
2026-01-01 22:00:04.82	0.08	10.70	-48.8	-54.8	3.7	0.00e+00	0	49	104	0	69	28193
2026-01-01 22:00:06.83	359.87	10.91	-49.1	-55.1	3.7	0.00e+00	0	49	104	0	69	29188
2026-01-01 22:00:08.83	359.66	11.11	-49.1	-55.1	3.7	0.00e+00	0	49	104	0	69	29311
2026-01-01 22:00:10.84	359.44	11.32	-50.2	-55.2	3.7	0.00e+00	0	49	104	0	71	26533
2026-01-01 22:00:12.85	359.22	11.53	-50.1	-55.5	3.7	0.00e+00	0	49	104	0	71	27485
2026-01-01 22:00:14.93	358.99	11.75	-50.3	-56.0	3.7	0.00e+00	0	49	104	0	71	28978
2026-01-01 22:00:16.91	358.76	11.96	-50.4	-56.0	3.7	0.00e+00	0	49	104	0	71	28883
2026-01-01 22:00:18.91	358.53	12.18	-51.0	-56.6	3.7	0.00e+00	0	49	104	0	72	29378
2026-01-01 22:00:21.35	358.24	12.44	-50.3	-56.1	3.7	0.00e+00	0	49	104	0	72	27533
2026-01-01 22:00:23.39	357.99	12.67	-50.4	-56.2	3.7	0.00e+00	0	50	104	0	72	28117
2026-01-01 22:00:25.77	357.70	12.93	-50.4	-56.2	3.7	0.00e+00	0	49	104	0	72	28094
2026-01-01 22:00:27.93	357.43	13.18	-51.2	-56.7	3.7	0.00e+00	0	50	104	0	73	28018
2026-01-01 22:00:29.99	357.16	13.41	-50.9	-56.5	3.7	0.00e+00	0	50	104	0	73	27303
2026-01-01 22:00:32.08	356.89	13.65	-50.9	-56.5	3.7	0.00e+00	0	50	104	0	72	28874
2026-01-01 22:00:34.05	356.63	13.88	-51.1	-56.7	3.7	0.00e+00	0	50	104	0	72	29757
2026-01-01 22:00:36.20	356.33	14.13	-50.9	-56.3	3.7	0.00e+00	0	50	104	0	72	28357
2026-01-01 22:00:38.20	356.05	14.37	-49.4	-55.9	3.7	0.00e+00	0	50	104	0	71	28492
2026-01-01 22:00:40.21	355.77	14.61	-49.6	-55.8	3.7	0.00e+00	0	50	104	0	70	30097
2026-01-01 22:00:42.45	355.44	14.88	-49.5	-55.6	3.7	0.00e+00	0	50	104	0	69	31081
2026-01-01 22:00:44.49	355.14	15.13	-50.6	-56.3	3.7	0.00e+00	0	50	104	0	71	30005
2026-01-01 22:00:46.50	354.84	15.38	-48.8	-55.2	3.8	0.00e+00	0	50	104	0	69	29505
2026-01-01 22:00:48.50	354.53	15.63	-49.2	-55.4	3.7	0.00e+00	0	50	104	0	70	28498
2026-01-01 22:00:50.50	354.21	15.89	-48.9	-55.1	3.7	0.00e+00	0	50	104	0	69	29342
2026-01-01 22:00:52.59	353.87	16.16	-50.1	-56.0	3.7	0.00e+00	0	50	104	0	70	30704
2026-01-01 22:00:54.60	353.54	16.42	-51.3	-56.5	3.7	0.00e+00	0	50	104	0	73	27243
2026-01-01 22:00:56.60	353.21	16.68	-52.7	-57.1	3.7	0.00e+00	0	50	104	0	76	24609
2026-01-01 22:00:58.66	352.85	16.95	-52.8	-57.5	3.7	0.00e+00	0	50	104	0	76	25745
2026-01-01 22:01:00.82	352.48	17.24	-52.8	-57.4	3.7	0.00e+00	0	50	104	0	76	25525
2026-01-01 22:01:03.13	352.06	17.55	-51.4	-56.7	3.7	0.00e+00	0	50	104	0	74	26423
2026-01-01 22:01:05.14	351.69	17.83	-51.2	-56.6	3.7	0.00e+00	0	50	104	0	73	27654
2026-01-01 22:01:07.16	351.31	18.11	-50.5	-56.2	3.7	0.00e+00	0	50	104	0	73	26462
2026-01-01 22:01:09.24	350.91	18.40	-50.7	-56.3	3.7	0.00e+00	0	50	104	0	73	26781
2026-01-01 22:01:11.34	350.50	18.70	-50.5	-56.2	3.7	0.00e+00	0	50	104	0	72	28009
2026-01-01 22:01:13.35	350.09	18.98	-50.5	-56.3	3.7	0.00e+00	0	50	104	0	72	28397
2026-01-01 22:01:15.36	349.68	19.27	-51.1	-56.5	3.7	0.00e+00	0	50	104	0	73	27402
2026-01-01 22:01:17.36	349.26	19.57	-51.5	-56.8	3.7	0.00e+00	0	50	104	0	74	26837
2026-01-01 22:01:19.36	348.83	19.86	-52.9	-57.7	3.7	0.00e+00	0	50	104	0	77	24965
2026-01-01 22:01:21.37	348.39	20.16	-52.2	-56.9	3.7	0.00e+00	0	50	104	0	75	25664
2026-01-01 22:01:23.37	347.94	20.46	-53.4	-57.9	3.7	0.00e+00	0	51	104	0	77	25672
2026-01-01 22:01:25.76	347.38	20.82	-52.9	-57.7	3.7	0.00e+00	0	50	104	0	77	25030
2026-01-01 22:01:28.12	346.82	21.19	-53.0	-58.0	3.7	0.00e+00	0	50	104	0	77	25712
2026-01-01 22:01:30.18	346.32	21.51	-53.1	-57.5	3.7	0.00e+00	0	50	104	0	77	24301
2026-01-01 22:01:32.18	345.82	21.82	-51.3	-56.7	3.7	0.00e+00	0	51	104	0	74	26566
2026-01-01 22:01:34.19	345.31	22.14	-50.0	-55.6	3.7	0.00e+00	0	50	104	0	71	27732
2026-01-01 22:01:36.20	344.79	22.46	-50.7	-56.0	3.7	0.00e+00	0	50	104	0	72	27287
2026-01-01 22:01:38.20	344.25	22.78	-51.7	-55.7	3.7	0.00e+00	0	51	104	0	75	22208
2026-01-01 22:01:40.28	343.68	23.12	-50.2	-55.4	3.7	0.00e+00	0	51	104	0	72	25531
2026-01-01 22:01:42.35	343.10	23.45	-50.5	-55.7	3.7	0.00e+00	0	51	104	0	72	26493
2026-01-01 22:01:44.45	342.49	23.80	-52.0	-56.5	3.7	0.00e+00	0	51	104	0	75	24482
2026-01-01 22:01:46.46	341.90	24.13	-51.6	-56.1	3.7	0.00e+00	0	51	104	0	75	23388
2026-01-01 22:01:48.46	341.30	24.47	-51.5	-56.2	3.7	0.00e+00	0	51	104	0	74	25014
2026-01-01 22:01:50.73	340.59	24.85	-51.9	-56.7	3.7	0.00e+00	0	51	104	0	74	26418
2026-01-01 22:01:52.82	339.93	25.20	-52.5	-56.5	3.7	0.00e+00	0	51	104	0	75	24365
2026-01-01 22:01:54.83	339.27	25.54	-51.7	-56.5	3.7	0.00e+00	0	50	104	0	75	24309
2026-01-01 22:01:56.83	338.60	25.89	-51.5	-56.4	3.7	0.00e+00	0	51	104	0	74	25599
2026-01-01 22:01:58.84	337.91	26.23	-52.4	-57.1	3.7	0.00e+00	0	51	104	0	75	26150
2026-01-01 22:02:00.85	337.21	26.58	-53.1	-57.3	3.7	0.00e+00	0	51	104	0	76	25230
2026-01-01 22:02:02.87	336.48	26.92	-51.6	-56.6	3.7	0.00e+00	0	50	104	0	75	24636
2026-01-01 22:02:04.87	335.74	27.27	-51.4	-56.3	3.7	0.00e+00	0	51	104	0	74	25310
2026-01-01 22:02:06.85	334.99	27.61	-52.2	-57.0	3.7	0.00e+00	0	51	104	0	75	25854
2026-01-01 22:02:08.85	334.22	27.96	-50.6	-56.0	3.7	0.00e+00	0	51	104	0	73	25942
2026-01-01 22:02:10.86	333.42	28.30	-50.5	-56.2	3.7	0.00e+00	0	51	104	0	71	29568
2026-01-01 22:02:12.90	332.60	28.66	-52.2	-56.9	3.7	0.00e+00	0	51	104	0	75	25587
2026-01-01 22:02:14.90	331.76	29.00	-52.3	-56.9	3.7	0.00e+00	0	51	104	0	75	25467
2026-01-01 22:02:16.91	330.91	29.35	-52.4	-57.2	3.7	0.00e+00	0	51	104	0	75	26524
2026-01-01 22:02:19.02	329.99	29.71	-51.5	-56.7	3.7	0.00e+00	0	51	104	0	74	26449
2026-01-01 22:02:21.03	329.09	30.05	-50.8	-56.3	3.7	0.00e+00	0	51	104	0	73	26865
2026-01-01 22:02:23.04	328.17	30.38	-50.8	-56.4	3.7	0.00e+00	0	51	104	0	73	27164
2026-01-01 22:02:25.04	327.24	30.72	-52.5	-57.0	3.7	0.00e+00	0	51	104	0	76	24333
2026-01-01 22:02:27.05	326.28	31.05	-53.0	-57.3	3.7	0.00e+00	0	51	104	0	76	25375
2026-01-01 22:02:29.05	325.30	31.37	-53.1	-57.4	3.7	0.00e+00	0	51	104	0	77	24232
2026-01-01 22:02:31.06	324.30	31.70	-52.1	-56.8	3.7	0.00e+00	0	51	104	0	75	25347
2026-01-01 22:02:33.07	323.27	32.01	-51.6	-56.8	3.7	0.00e+00	0	51	104	0	74	26799
2026-01-01 22:02:35.23	322.14	32.35	-52.5	-57.6	3.7	0.00e+00	0	51	104	0	75	27711
2026-01-01 22:02:37.24	321.07	32.65	-52.6	-57.6	3.7	0.00e+00	0	51	104	0	75	27791
2026-01-01 22:02:39.25	319.98	32.95	-51.3	-56.8	3.7	0.00e+00	0	51	104	0	74	26643
2026-01-01 22:02:41.26	318.87	33.23	-51.9	-56.9	3.7	0.00e+00	0	51	104	0	74	27048
2026-01-01 22:02:43.27	317.73	33.51	-53.0	-57.2	3.7	0.00e+00	0	51	104	0	76	24974
2026-01-01 22:02:45.28	316.57	33.78	-53.1	-57.4	3.7	0.00e+00	0	51	104	0	76	25518
2026-01-01 22:02:47.28	315.40	34.04	-53.0	-57.6	3.7	0.00e+00	0	51	104	0	76	26248
2026-01-01 22:02:49.29	314.21	34.29	-53.0	-57.5	3.7	0.00e+00	0	51	104	0	76	25960
2026-01-01 22:02:51.30	312.99	34.53	-53.3	-58.0	3.7	0.00e+00	0	51	104	0	77	25687
2026-01-01 22:02:53.30	311.76	34.76	-53.0	-57.6	3.7	0.00e+00	0	51	104	0	77	24637
2026-01-01 22:02:55.37	310.47	34.98	-53.1	-57.9	3.7	0.00e+00	0	51	104	0	77	25462
2026-01-01 22:02:57.37	309.21	35.18	-53.1	-57.8	3.7	0.00e+00	0	51	104	0	77	25159
2026-01-01 22:02:59.38	307.92	35.36	-53.4	-57.7	3.7	0.00e+00	0	51	104	0	77	25028
2026-01-01 22:03:01.38	306.62	35.53	-53.1	-57.6	3.7	0.00e+00	0	51	104	0	77	24655
2026-01-01 22:03:03.39	305.31	35.69	-52.7	-57.0	3.7	0.00e+00	0	51	104	0	77	23086
2026-01-01 22:03:05.43	303.96	35.84	-52.6	-56.7	3.6	0.00e+00	0	51	104	0	77	22320
2026-01-01 22:03:07.44	302.62	35.96	-53.1	-57.4	3.7	0.00e+00	0	51	104	0	77	23977
2026-01-01 22:03:09.44	301.27	36.07	-52.9	-57.3	3.7	0.00e+00	0	51	104	0	77	23766
2026-01-01 22:03:11.44	299.92	36.16	-53.2	-57.3	3.7	0.00e+00	0	51	104	0	77	23824
2026-01-01 22:03:13.45	298.55	36.23	-53.2	-57.4	3.7	0.00e+00	0	51	104	0	77	24004
2026-01-01 22:03:15.45	297.18	36.29	-53.4	-57.8	3.7	0.00e+00	0	51	104	0	77	25307
2026-01-01 22:03:17.46	295.80	36.33	-52.7	-57.4	3.7	0.00e+00	0	51	104	0	77	23978
2026-01-01 22:03:19.46	294.43	36.35	-53.6	-58.2	3.7	0.00e+00	0	51	104	0	77	26461
2026-01-01 22:03:21.55	292.99	36.35	-53.5	-58.0	3.7	0.00e+00	0	51	104	0	77	25852
2026-01-01 22:03:23.65	291.54	36.34	-53.6	-58.2	3.7	0.00e+00	0	51	104	0	77	26355
2026-01-01 22:03:25.65	290.17	36.30	-53.6	-58.2	3.7	0.00e+00	0	51	104	0	77	26513
2026-01-01 22:03:27.66	288.79	36.25	-53.8	-58.4	3.7	0.00e+00	0	51	104	0	78	25589
2026-01-01 22:03:29.89	287.27	36.17	-53.4	-58.2	3.7	0.00e+00	0	51	104	0	78	24958
2026-01-01 22:03:32.10	285.77	36.08	-53.9	-58.4	3.7	0.00e+00	0	51	104	0	78	25573
2026-01-01 22:03:34.11	284.42	35.97	-53.6	-58.2	3.7	0.00e+00	0	51	104	0	78	25073
2026-01-01 22:03:36.05	283.12	35.85	-53.7	-58.3	3.7	0.00e+00	0	51	104	0	78	25181
2026-01-01 22:03:38.06	281.79	35.71	-53.5	-58.0	3.7	0.00e+00	0	51	104	0	78	24381
2026-01-01 22:03:40.11	280.44	35.55	-53.6	-58.3	3.7	0.00e+00	0	51	104	0	78	25139
2026-01-01 22:03:42.35	278.99	35.36	-53.7	-58.3	3.7	0.00e+00	0	51	104	0	78	25224
2026-01-01 22:03:44.57	277.56	35.15	-53.3	-57.9	3.7	0.00e+00	0	51	104	0	78	24033
2026-01-01 22:03:46.58	276.29	34.95	-53.9	-58.4	3.7	0.00e+00	0	51	104	0	78	25399
2026-01-01 22:03:48.58	275.04	34.74	-53.5	-58.2	3.7	0.00e+00	0	51	104	0	78	25072
2026-01-01 22:03:50.59	273.81	34.51	-53.6	-58.3	3.7	0.00e+00	0	51	104	0	78	25226
2026-01-01 22:03:52.60	272.59	34.27	-53.5	-58.3	3.7	0.00e+00	0	51	104	0	78	25237
2026-01-01 22:03:54.61	271.39	34.02	-53.2	-57.8	3.7	0.00e+00	0	51	104	0	78	23958
2026-01-01 22:03:56.61	270.22	33.75	-53.4	-57.9	3.7	0.00e+00	0	51	104	0	78	24192
2026-01-01 22:03:58.62	269.06	33.48	-53.8	-58.4	3.7	0.00e+00	0	51	104	0	78	25483
2026-01-01 22:04:00.62	267.93	33.20	-53.3	-58.3	3.7	0.00e+00	0	51	104	0	78	25096
2026-01-01 22:04:02.63	266.81	32.91	-53.5	-58.2	3.7	0.00e+00	0	51	104	0	78	24866
2026-01-01 22:04:04.63	265.73	32.61	-53.6	-58.1	3.7	0.00e+00	0	51	104	0	78	24634
2026-01-01 22:04:06.64	264.65	32.31	-53.2	-57.7	3.7	0.00e+00	0	51	104	0	78	23688
2026-01-01 22:04:08.58	263.64	32.01	-53.1	-57.8	3.7	0.00e+00	0	51	104	0	77	25273
2026-01-01 22:04:10.59	262.61	31.69	-53.7	-58.3	3.7	0.00e+00	0	51	104	0	78	25124
2026-01-01 22:04:12.60	261.60	31.37	-53.2	-58.0	3.7	0.00e+00	0	51	104	0	78	24471
2026-01-01 22:04:14.61	260.61	31.04	-53.4	-58.0	3.7	0.00e+00	0	51	104	0	78	24250
2026-01-01 22:04:16.69	259.61	30.69	-53.4	-58.0	3.7	0.00e+00	0	51	104	0	78	24384
2026-01-01 22:04:18.70	258.67	30.36	-53.3	-57.7	3.7	0.00e+00	0	51	104	0	78	23508
2026-01-01 22:04:20.70	257.75	30.02	-53.0	-57.9	3.7	0.00e+00	0	51	104	0	77	25604
2026-01-01 22:04:22.71	256.85	29.68	-52.8	-57.6	3.7	0.00e+00	0	51	104	0	77	24622
2026-01-01 22:04:24.72	255.97	29.33	-52.7	-57.6	3.7	0.00e+00	0	51	104	0	77	24803
2026-01-01 22:04:26.73	255.11	28.99	-53.2	-58.1	3.7	0.00e+00	0	51	104	0	77	26080
2026-01-01 22:04:28.73	254.28	28.64	-52.8	-57.9	3.7	0.00e+00	0	51	104	0	77	25663
2026-01-01 22:04:30.74	253.46	28.29	-53.2	-57.9	3.7	0.00e+00	0	51	104	0	77	25506
2026-01-01 22:04:32.81	252.63	27.93	-53.0	-57.7	3.7	0.00e+00	0	51	104	0	77	24969
2026-01-01 22:04:34.82	251.85	27.58	-52.7	-57.8	3.7	0.00e+00	0	51	104	0	77	25221
2026-01-01 22:04:36.84	251.08	27.23	-53.1	-57.8	3.7	0.00e+00	0	51	104	0	77	25231
2026-01-01 22:04:39.05	250.27	26.85	-53.4	-58.2	3.7	0.00e+00	0	51	104	0	77	26494
2026-01-01 22:04:41.14	249.51	26.48	-53.3	-57.9	3.7	0.00e+00	0	51	104	0	77	25444
2026-01-01 22:04:43.23	248.78	26.12	-52.5	-57.0	3.7	0.00e+00	0	51	104	0	77	22961
2026-01-01 22:04:45.24	248.09	25.78	-52.8	-57.0	3.7	0.00e+00	0	51	104	0	77	22890
2026-01-01 22:04:47.24	247.42	25.43	-52.9	-57.5	3.7	0.00e+00	0	51	104	0	77	24315
2026-01-01 22:04:49.36	246.73	25.07	-53.0	-57.7	3.7	0.00e+00	0	51	104	0	77	24912
2026-01-01 22:04:51.61	246.01	24.69	-53.4	-58.1	3.7	0.00e+00	0	51	104	0	77	26215
2026-01-01 22:04:53.61	245.39	24.35	-53.4	-58.2	3.7	0.00e+00	0	51	104	0	77	26395
2026-01-01 22:04:55.63	244.78	24.01	-53.4	-58.1	3.7	0.00e+00	0	51	104	0	77	26273
2026-01-01 22:04:57.63	244.19	23.68	-53.4	-58.0	3.7	0.00e+00	0	51	104	0	77	25893
2026-01-01 22:04:59.64	243.61	23.35	-53.4	-58.0	3.7	0.00e+00	0	51	104	0	77	25744
2026-01-01 22:05:01.64	243.05	23.02	-53.3	-58.0	3.7	0.00e+00	0	51	104	0	77	25904
2026-01-01 22:05:03.71	242.48	22.68	-53.6	-58.0	3.7	0.00e+00	0	51	104	0	77	25794
2026-01-01 22:05:05.72	241.94	22.36	-53.7	-58.0	3.7	0.00e+00	0	51	104	0	78	24406
2026-01-01 22:05:07.72	241.42	22.04	-53.3	-57.8	3.7	0.00e+00	0	51	104	0	78	23870
2026-01-01 22:05:09.73	240.90	21.72	-53.1	-57.9	3.7	0.00e+00	0	51	104	0	78	24063
2026-01-01 22:05:11.73	240.40	21.40	-53.3	-58.0	3.7	0.00e+00	0	51	104	0	77	25690
2026-01-01 22:05:13.79	239.90	21.08	-53.3	-58.0	3.7	0.00e+00	0	51	104	0	77	25791
2026-01-01 22:05:15.73	239.44	20.78	-52.5	-57.7	3.6	0.00e+00	0	51	104	0	76	26456
2026-01-01 22:05:17.75	238.97	20.47	-52.6	-57.8	3.7	0.00e+00	0	51	104	0	76	26692
2026-01-01 22:05:19.76	238.51	20.17	-52.8	-57.7	3.7	0.00e+00	0	51	104	0	76	26466
2026-01-01 22:05:21.76	238.06	19.87	-53.0	-57.9	3.7	0.00e+00	0	51	104	0	76	26895
2026-01-01 22:05:23.77	237.62	19.57	-52.7	-58.1	3.7	0.00e+00	0	51	104	0	76	27571
2026-01-01 22:05:25.78	237.20	19.27	-53.0	-58.1	3.7	0.00e+00	0	51	104	0	76	27590
2026-01-01 22:05:27.79	236.78	18.98	-52.9	-57.8	3.7	0.00e+00	0	51	104	0	76	26710
2026-01-01 22:05:29.81	236.37	18.69	-53.2	-57.9	3.7	0.00e+00	0	51	104	0	77	25634
2026-01-01 22:05:32.29	235.87	18.33	-53.3	-58.0	3.7	0.00e+00	0	51	104	0	77	25937
2026-01-01 22:05:34.29	235.49	18.05	-53.3	-58.0	3.7	0.00e+00	0	51	104	0	77	25863
2026-01-01 22:05:36.32	235.10	17.77	-53.3	-58.0	3.7	0.00e+00	0	51	104	0	77	25696
2026-01-01 22:05:38.33	234.73	17.49	-53.3	-57.9	3.7	0.00e+00	0	51	104	0	77	25520
2026-01-01 22:05:40.38	234.36	17.21	-53.1	-58.0	3.7	0.00e+00	0	51	104	0	77	25754
2026-01-01 22:05:42.39	234.00	16.94	-53.0	-58.0	3.7	0.00e+00	0	51	104	0	77	25955
2026-01-01 22:05:44.40	233.65	16.67	-53.3	-58.0	3.7	0.00e+00	0	51	104	0	77	25964
2026-01-01 22:05:46.52	233.29	16.39	-53.3	-58.0	3.7	0.00e+00	0	51	104	0	77	25879
2026-01-01 22:05:48.90	232.89	16.08	-53.3	-58.0	3.7	0.00e+00	0	51	104	0	77	25777
2026-01-01 22:05:50.90	232.57	15.82	-53.3	-58.0	3.7	0.00e+00	0	51	104	0	77	25738
2026-01-01 22:05:52.99	232.24	15.56	-53.3	-58.0	3.7	0.00e+00	0	51	104	0	77	25698
2026-01-01 22:05:55.00	231.92	15.30	-53.2	-57.8	3.7	0.00e+00	0	51	104	0	77	25269
2026-01-01 22:05:57.00	231.62	15.05	-53.2	-57.8	3.7	0.00e+00	0	51	104	0	77	25320
2026-01-01 22:05:59.10	231.30	14.79	-53.1	-57.7	3.7	0.00e+00	0	51	104	0	77	24998
2026-01-01 22:06:01.22	230.99	14.54	-53.0	-57.6	3.7	0.00e+00	0	51	104	0	77	24754
2026-01-01 22:06:03.38	230.68	14.27	-53.5	-57.9	3.7	0.00e+00	0	51	104	0	77	25670
2026-01-01 22:06:05.39	230.40	14.03	-53.2	-57.9	3.7	0.00e+00	0	51	104	0	77	25535
2026-01-01 22:06:07.68	230.09	13.76	-53.2	-57.8	3.7	0.00e+00	0	51	104	0	77	25099
2026-01-01 22:06:10.04	229.77	13.49	-52.8	-57.8	3.7	0.00e+00	0	51	104	0	77	25115
2026-01-01 22:06:12.20	229.49	13.24	-53.2	-57.8	3.7	0.00e+00	0	51	104	0	77	25326
2026-01-01 22:06:14.36	229.21	12.99	-53.2	-57.9	3.7	0.00e+00	0	51	104	0	77	25579
2026-01-01 22:06:16.52	228.93	12.75	-53.0	-57.6	3.7	0.00e+00	0	51	104	0	77	24800
2026-01-01 22:06:18.84	228.65	12.49	-52.9	-57.7	3.7	0.00e+00	0	51	104	0	77	24999
2026-01-01 22:06:20.99	228.39	12.25	-52.9	-57.6	3.7	0.00e+00	0	51	104	0	77	24761
2026-01-01 22:06:23.17	228.13	12.02	-53.1	-57.6	3.7	0.00e+00	0	51	104	0	77	24724
2026-01-01 22:06:25.56	227.85	11.76	-53.1	-57.6	3.7	0.00e+00	0	51	104	0	77	24602
2026-01-01 22:06:27.77	227.60	11.52	-53.0	-57.8	3.7	0.00e+00	0	51	104	0	77	25208
2026-01-01 22:06:29.73	227.38	11.31	-53.0	-57.6	3.7	0.00e+00	0	51	104	0	77	24772
2026-01-01 22:06:31.73	227.16	11.11	-53.1	-57.5	3.7	0.00e+00	0	51	104	0	77	24488
2026-01-01 22:06:33.66	226.95	10.91	-53.3	-57.6	3.7	0.00e+00	0	51	104	0	77	24747
2026-01-01 22:06:35.70	226.74	10.70	-52.8	-57.4	3.7	0.00e+00	0	51	104	0	77	24123
2026-01-01 22:06:37.70	226.53	10.49	-53.3	-57.8	3.7	0.00e+00	0	51	104	0	77	25196
2026-01-01 22:06:39.70	226.32	10.29	-52.4	-56.9	3.7	0.00e+00	0	51	104	0	76	24227
2026-01-01 22:06:41.71	226.12	10.09	-52.3	-56.9	3.7	0.00e+00	0	51	104	0	76	24234
2026-01-01 22:06:43.71	225.92	9.89	-52.5	-56.6	3.7	0.00e+00	0	51	104	0	76	23360
2026-01-01 22:06:45.72	225.73	9.70	-51.8	-56.4	3.7	0.00e+00	0	51	104	0	75	24086
2026-01-01 22:06:47.72	225.54	9.50	-52.9	-57.1	3.7	0.00e+00	0	51	104	0	76	24599
2026-01-01 22:06:49.73	225.35	9.31	-51.9	-56.4	3.7	0.00e+00	0	51	104	0	74	25495
2026-01-01 22:06:51.73	225.16	9.12	-50.5	-55.1	3.7	0.00e+00	0	51	104	0	73	23376
2026-01-01 22:06:53.92	224.96	8.91	-52.3	-56.6	3.7	0.00e+00	0	51	104	0	75	24605
2026-01-01 22:06:55.92	224.79	8.73	-53.5	-58.0	3.7	0.00e+00	0	51	104	0	77	25849
2026-01-01 22:06:58.08	224.60	8.53	-53.3	-57.9	3.7	0.00e+00	0	51	104	0	78	24145
2026-01-01 22:07:00.16	224.42	8.34	-53.7	-58.2	3.7	0.00e+00	0	51	104	0	78	24957
2026-01-01 22:07:02.22	224.24	8.15	-53.5	-58.2	3.7	0.00e+00	0	51	104	0	78	24838
2026-01-01 22:07:04.29	224.07	7.96	-53.8	-58.3	3.7	0.00e+00	0	51	104	0	78	25374
2026-01-01 22:07:06.38	223.90	7.78	-54.0	-58.5	3.7	0.00e+00	0	51	104	0	78	25701
2026-01-01 22:07:08.44	223.73	7.59	-53.7	-58.2	3.7	0.00e+00	0	51	104	0	78	24950
2026-01-01 22:07:10.45	223.57	7.42	-53.6	-57.9	3.7	0.00e+00	0	51	104	0	78	24035
2026-01-01 22:07:12.46	223.41	7.24	-53.4	-57.7	3.6	0.00e+00	0	51	104	0	78	23556
2026-01-01 22:07:14.46	223.26	7.07	-53.5	-58.2	3.7	0.00e+00	0	51	104	0	78	24920
2026-01-01 22:07:16.47	223.11	6.90	-53.3	-57.8	3.7	0.00e+00	0	51	104	0	78	23782
2026-01-01 22:07:18.48	222.96	6.73	-53.3	-57.8	3.7	0.00e+00	0	51	104	0	78	23843
2026-01-01 22:07:20.49	222.81	6.56	-53.3	-57.8	3.7	0.00e+00	0	51	104	0	78	23740
2026-01-01 22:07:22.50	222.67	6.39	-53.3	-57.8	3.7	0.00e+00	0	51	104	0	78	23727
2026-01-01 22:07:24.59	222.52	6.22	-53.3	-57.8	3.7	0.00e+00	0	51	104	0	78	23719
2026-01-01 22:07:26.59	222.38	6.05	-53.3	-57.8	3.7	0.00e+00	0	51	104	0	78	23712
2026-01-01 22:07:28.60	222.24	5.89	-53.3	-57.7	3.7	0.00e+00	0	51	104	0	78	23685
2026-01-01 22:07:30.61	222.10	5.73	-53.3	-57.8	3.7	0.00e+00	0	51	104	0	78	23753
2026-01-01 22:07:32.62	221.96	5.56	-53.3	-57.8	3.7	0.00e+00	0	51	104	0	78	23716
2026-01-01 22:07:34.63	221.83	5.40	-53.3	-57.8	3.7	0.00e+00	0	51	104	0	78	23791
2026-01-01 22:07:36.64	221.70	5.24	-53.3	-57.8	3.7	0.00e+00	0	51	104	0	78	23837
2026-01-01 22:07:38.65	221.57	5.09	-53.3	-57.8	3.7	0.00e+00	0	52	104	0	78	23762
2026-01-01 22:07:40.65	221.44	4.93	-53.3	-57.8	3.7	0.00e+00	0	51	104	0	78	23748
2026-01-01 22:07:42.66	221.32	4.77	-53.3	-57.8	3.7	0.00e+00	0	51	104	0	78	23766
2026-01-01 22:07:44.67	221.19	4.62	-53.3	-57.8	3.7	0.00e+00	0	51	104	0	78	23722
2026-01-01 22:07:46.68	221.07	4.47	-53.3	-57.8	3.7	0.00e+00	0	51	104	0	78	23737
2026-01-01 22:07:48.69	220.95	4.31	-53.3	-57.8	3.7	0.00e+00	0	51	104	0	78	23706

#Closed at: 2026-01-01 22:07:50
#Recorded file [0 MB]: D:/Data/31040_260102_005909.dat