passes_logs/2026/01/01/T1/T1__20260101_212029_NOAA_20_JPSS-1_rec.log

#Pass ID: 20260101_212029_NOAA 20 (JPSS-1)
#Satellite: NOAA 20 (JPSS-1)
#Configuration: NOAA 20
#almurnet v.1.7.20251203
#Start time: 2026-01-01 21:20:29

#Version: 2.0.20230620
#Station: T1
#Location: 37.570604 lon 55.790049 lat
#TLE: 1 43013U 17073A   26001.30344297  .00000183  00000+0  10758-3 0  9995
#TLE: 2 43013  98.7621 302.3885 0001938  59.1624 300.9742 14.19532032420790

#Time	Az	El	Level	Level2	SNR	BER	BlckErr	Temp	State	Recorded	gain1	gain2
2026-01-01 21:20:29.06	44.97	4.99	-49.9	-65.2	3.8	1.49e+00	0	40	0	0	71	20842
2026-01-01 21:20:31.06	45.23	5.06	-49.8	-65.1	3.8	1.49e+00	0	40	104	0	71	20725
2026-01-01 21:20:33.07	45.50	5.13	-49.8	-65.1	3.8	1.49e+00	0	40	104	0	71	20702
2026-01-01 21:20:35.07	45.76	5.20	-49.8	-65.1	3.8	1.49e+00	0	40	104	0	71	20708
2026-01-01 21:20:37.08	46.03	5.27	-49.8	-65.1	3.8	1.49e+00	0	40	104	0	71	20736
2026-01-01 21:20:39.09	46.30	5.34	-49.8	-65.1	3.8	1.49e+00	0	40	104	0	71	20762
2026-01-01 21:20:41.10	46.57	5.40	-49.8	-65.1	3.8	1.49e+00	0	40	104	0	71	20687
2026-01-01 21:20:43.10	46.85	5.47	-49.8	-65.1	3.8	1.49e+00	0	40	104	0	71	20725
2026-01-01 21:20:45.11	47.12	5.54	-49.8	-65.1	3.8	1.49e+00	0	40	104	0	71	20645
2026-01-01 21:20:47.12	47.39	5.61	-49.8	-65.1	3.8	1.49e+00	0	40	104	0	71	20749
2026-01-01 21:20:49.12	47.67	5.67	-49.8	-65.1	3.8	1.49e+00	0	40	104	0	71	20737
2026-01-01 21:20:51.13	47.95	5.74	-49.8	-65.1	3.8	1.49e+00	0	40	104	0	71	20681
2026-01-01 21:20:53.14	48.22	5.81	-49.8	-65.1	3.8	1.49e+00	0	41	104	0	71	20732
2026-01-01 21:20:55.14	48.50	5.87	-49.8	-65.1	3.8	1.49e+00	0	41	104	0	71	20741
2026-01-01 21:20:57.15	48.78	5.94	-49.8	-65.1	3.8	1.49e+00	0	41	104	0	71	20620
2026-01-01 21:20:59.16	49.06	6.00	-49.8	-65.1	3.8	1.49e+00	0	41	104	0	71	20663
2026-01-01 21:21:01.16	49.35	6.06	-49.8	-65.1	3.8	1.49e+00	0	41	104	0	71	20726
2026-01-01 21:21:03.17	49.63	6.13	-49.8	-65.1	3.8	1.49e+00	0	41	104	0	71	20722
2026-01-01 21:21:05.18	49.92	6.19	-49.8	-65.1	3.8	1.49e+00	0	41	104	0	71	20677
2026-01-01 21:21:07.19	50.20	6.25	-49.8	-65.1	3.8	1.49e+00	0	41	104	0	71	20688
2026-01-01 21:21:09.20	50.49	6.32	-49.8	-65.1	3.8	1.49e+00	0	41	104	0	71	20673
2026-01-01 21:21:11.21	50.78	6.38	-49.8	-65.1	3.8	1.49e+00	0	41	104	0	71	20691
2026-01-01 21:21:13.21	51.07	6.44	-49.8	-65.2	3.8	1.49e+00	0	41	104	0	71	20796
2026-01-01 21:21:15.22	51.36	6.50	-49.8	-65.1	3.8	1.49e+00	0	41	104	0	71	20663
2026-01-01 21:21:17.23	51.65	6.56	-49.8	-65.1	3.8	1.49e+00	0	41	104	0	71	20738
2026-01-01 21:21:19.23	51.95	6.62	-49.8	-65.1	3.8	1.49e+00	0	41	104	0	71	20749
2026-01-01 21:21:21.24	52.24	6.68	-49.8	-65.1	3.8	1.49e+00	0	41	104	0	71	20635
2026-01-01 21:21:23.25	52.54	6.74	-49.8	-65.1	3.8	1.49e+00	0	42	104	0	71	20707
2026-01-01 21:21:25.26	52.84	6.80	-49.8	-65.1	3.8	1.49e+00	0	41	104	0	71	20659
2026-01-01 21:21:27.26	53.13	6.86	-49.8	-65.1	3.8	1.49e+00	0	41	104	0	71	20706
2026-01-01 21:21:29.27	53.43	6.92	-49.8	-65.1	3.8	1.49e+00	0	42	104	0	71	20707
2026-01-01 21:21:31.28	53.73	6.97	-49.8	-65.1	3.8	1.49e+00	0	41	104	0	71	20675
2026-01-01 21:21:33.29	54.04	7.03	-49.8	-65.2	3.8	1.49e+00	0	42	104	0	71	20782
2026-01-01 21:21:35.30	54.34	7.09	-49.8	-65.1	3.8	1.49e+00	0	42	104	0	71	20772
2026-01-01 21:21:37.30	54.64	7.14	-49.8	-65.1	3.8	1.49e+00	0	42	104	0	71	20721
2026-01-01 21:21:39.31	54.95	7.20	-49.8	-65.1	3.8	1.49e+00	0	42	104	0	71	20656
2026-01-01 21:21:41.32	55.25	7.25	-49.8	-65.1	3.8	1.49e+00	0	42	104	0	71	20702
2026-01-01 21:21:43.32	55.56	7.30	-49.8	-65.1	3.8	1.49e+00	0	42	104	0	71	20622
2026-01-01 21:21:45.32	55.87	7.36	-49.8	-65.1	3.8	1.49e+00	0	42	104	0	71	20676
2026-01-01 21:21:47.33	56.18	7.41	-49.8	-65.1	3.8	1.49e+00	0	42	104	0	71	20746
2026-01-01 21:21:49.33	56.49	7.46	-49.8	-65.1	3.8	1.49e+00	0	42	104	0	71	20654
2026-01-01 21:21:51.33	56.80	7.51	-49.8	-65.1	3.8	1.49e+00	0	42	104	0	71	20715
2026-01-01 21:21:53.34	57.11	7.56	-49.8	-65.1	3.8	1.49e+00	0	42	104	0	71	20747
2026-01-01 21:21:55.34	57.42	7.61	-49.8	-65.1	3.8	1.49e+00	0	42	104	0	71	20684
2026-01-01 21:21:57.35	57.74	7.66	-49.8	-65.1	3.8	1.49e+00	0	42	104	0	71	20720
2026-01-01 21:21:59.35	58.05	7.71	-49.8	-65.1	3.8	1.49e+00	0	42	104	0	71	20674
2026-01-01 21:22:01.35	58.37	7.76	-49.8	-65.1	3.8	1.49e+00	0	42	104	0	71	20712
2026-01-01 21:22:03.36	58.69	7.81	-49.8	-65.1	3.8	1.49e+00	0	42	104	0	71	20682
2026-01-01 21:22:05.37	59.01	7.85	-49.8	-65.1	3.8	1.49e+00	0	42	104	0	71	20747
2026-01-01 21:22:07.38	59.33	7.90	-49.8	-65.1	3.8	1.49e+00	0	42	104	0	71	20655
2026-01-01 21:22:09.38	59.65	7.95	-49.8	-65.1	3.8	1.49e+00	0	42	104	0	71	20715
2026-01-01 21:22:11.39	59.97	7.99	-49.8	-65.1	3.8	1.49e+00	0	42	104	0	71	20727
2026-01-01 21:22:13.39	60.29	8.04	-49.8	-65.1	3.8	1.49e+00	0	42	104	0	71	20704
2026-01-01 21:22:15.40	60.62	8.08	-49.8	-65.1	3.8	1.49e+00	0	42	104	0	71	20766
2026-01-01 21:22:17.40	60.94	8.12	-49.8	-65.1	3.8	1.49e+00	0	42	104	0	71	20729
2026-01-01 21:22:19.41	61.27	8.16	-49.8	-65.1	3.8	1.49e+00	0	42	104	0	71	20671
2026-01-01 21:22:21.41	61.59	8.21	-49.8	-65.1	3.8	1.49e+00	0	42	104	0	71	20681
2026-01-01 21:22:23.42	61.92	8.25	-49.8	-65.1	3.8	1.49e+00	0	42	104	0	71	20703
2026-01-01 21:22:25.42	62.25	8.29	-49.8	-65.1	3.8	1.49e+00	0	42	104	0	71	20659
2026-01-01 21:22:27.43	62.58	8.32	-49.8	-65.1	3.8	1.49e+00	0	42	104	0	71	20727
2026-01-01 21:22:29.43	62.91	8.36	-49.8	-65.1	3.8	1.49e+00	0	42	104	0	71	20678
2026-01-01 21:22:31.44	63.24	8.40	-49.8	-65.1	3.8	1.49e+00	0	42	104	0	71	20647
2026-01-01 21:22:33.44	63.57	8.44	-49.8	-65.1	3.8	1.49e+00	0	42	104	0	71	20621
2026-01-01 21:22:35.45	63.90	8.47	-49.8	-65.0	3.8	1.49e+00	0	42	104	0	71	20532
2026-01-01 21:22:37.46	64.24	8.51	-49.8	-65.1	3.8	1.49e+00	0	42	104	0	71	20554
2026-01-01 21:22:39.46	64.57	8.54	-49.8	-65.1	3.8	1.49e+00	0	42	104	0	71	20556
2026-01-01 21:22:41.47	64.90	8.58	-49.8	-65.1	3.8	1.49e+00	0	42	104	0	71	20695
2026-01-01 21:22:43.48	65.24	8.61	-49.8	-65.1	3.8	1.49e+00	0	43	104	0	71	20638
2026-01-01 21:22:45.48	65.58	8.64	-49.8	-65.1	3.8	1.49e+00	0	42	104	0	71	20565
2026-01-01 21:22:47.49	65.91	8.67	-49.8	-65.1	3.8	1.49e+00	0	43	104	0	71	20625
2026-01-01 21:22:49.50	66.25	8.70	-49.8	-65.0	3.8	1.49e+00	0	42	104	0	71	20503
2026-01-01 21:22:51.50	66.59	8.73	-49.8	-65.0	3.8	1.49e+00	0	43	104	0	71	20384
2026-01-01 21:22:53.51	66.93	8.76	-49.8	-65.0	3.8	1.49e+00	0	42	104	0	71	20366
2026-01-01 21:22:55.51	67.27	8.79	-49.8	-65.1	3.8	1.49e+00	0	42	104	0	71	20551
2026-01-01 21:22:57.52	67.61	8.82	-49.8	-65.1	3.8	1.49e+00	0	42	104	0	71	20553
2026-01-01 21:22:59.53	67.95	8.84	-49.8	-65.0	3.8	1.49e+00	0	42	104	0	71	20471
2026-01-01 21:23:01.53	68.29	8.87	-49.8	-64.8	3.8	1.49e+00	0	43	104	0	71	20066
2026-01-01 21:23:03.53	68.63	8.89	-49.8	-64.6	3.8	1.49e+00	0	43	104	0	71	19416
2026-01-01 21:23:05.54	68.98	8.92	-49.8	-64.4	3.8	1.49e+00	0	43	104	0	71	19039
2026-01-01 21:23:07.54	69.32	8.94	-49.8	-64.6	3.8	1.49e+00	0	43	104	0	71	19577
2026-01-01 21:23:09.55	69.66	8.96	-49.8	-65.0	3.8	1.49e+00	0	42	104	0	71	20388
2026-01-01 21:23:11.56	70.01	8.98	-49.8	-65.1	3.8	1.49e+00	0	43	104	0	71	20749
2026-01-01 21:23:13.56	70.35	9.00	-49.8	-64.3	3.8	1.49e+00	0	43	104	0	71	18851
2026-01-01 21:23:15.57	70.70	9.02	-49.3	-58.8	5.9	1.10e+00	0	42	0	1048576	69	11206
2026-01-01 21:23:17.57	71.04	9.04	-49.4	-61.0	4.5	2.56e-01	0	43	0	2097152	69	14384
2026-01-01 21:23:19.58	71.39	9.06	-47.3	-52.5	11.3	8.88e-04	0	43	0	4194304	66	6477
2026-01-01 21:23:21.58	71.73	9.08	-47.0	-51.8	12.0	7.10e-04	0	43	0	7340032	66	5937
2026-01-01 21:23:23.58	72.08	9.09	-46.5	-50.8	13.1	4.80e-05	0	43	0	11534336	65	5601
2026-01-01 21:23:25.58	72.43	9.11	-46.5	-50.6	13.3	3.50e-05	0	43	0	14680064	65	5473
2026-01-01 21:23:27.58	72.77	9.12	-46.1	-49.8	14.1	3.80e-06	0	42	0	18874368	64	5313
2026-01-01 21:23:29.58	73.12	9.13	-46.0	-49.7	14.3	0.00e+00	0	43	0	22020096	63	5552
2026-01-01 21:23:31.59	73.47	9.15	-46.0	-49.7	14.3	1.50e-06	0	42	0	26214400	63	5558
2026-01-01 21:23:33.59	73.82	9.16	-46.2	-50.0	14.0	3.80e-06	0	42	0	30408704	63	5738
2026-01-01 21:23:35.59	74.16	9.17	-46.2	-50.1	13.8	1.50e-06	0	43	0	33554432	63	5802
2026-01-01 21:23:37.60	74.51	9.18	-46.3	-50.2	13.7	5.30e-06	0	43	0	37748736	63	5883
2026-01-01 21:23:39.60	74.86	9.19	-46.2	-50.0	14.0	4.50e-06	0	43	0	40894464	63	5753
2026-01-01 21:23:41.60	75.21	9.19	-46.0	-49.7	14.2	0.00e+00	0	42	0	45088768	63	5572
2026-01-01 21:23:43.61	75.56	9.20	-45.9	-49.4	14.5	0.00e+00	0	43	0	48234496	63	5389
2026-01-01 21:23:45.61	75.91	9.21	-45.6	-49.0	14.9	7.00e-07	0	43	0	52428800	63	5157
2026-01-01 21:23:47.62	76.26	9.21	-45.6	-48.9	15.0	0.00e+00	0	43	0	56623104	63	5093
2026-01-01 21:23:49.62	76.61	9.21	-45.5	-48.9	15.0	0.00e+00	0	43	0	59768832	63	5089
2026-01-01 21:23:51.62	76.96	9.22	-45.5	-49.0	15.0	0.00e+00	0	43	0	63963136	62	5418
2026-01-01 21:23:53.63	77.31	9.22	-45.4	-48.9	15.0	0.00e+00	0	43	0	67108864	62	5394
2026-01-01 21:23:55.63	77.66	9.22	-45.4	-48.8	15.1	0.00e+00	0	43	0	71303168	62	5315
2026-01-01 21:23:57.63	78.01	9.22	-45.3	-48.6	15.4	0.00e+00	0	42	0	75497472	62	5162
2026-01-01 21:23:59.63	78.36	9.22	-45.2	-48.3	15.7	0.00e+00	0	43	0	78643200	62	5020
2026-01-01 21:24:01.63	78.71	9.22	-45.0	-48.2	15.8	0.00e+00	0	43	0	82837504	62	4935
2026-01-01 21:24:03.63	79.06	9.22	-45.1	-48.3	15.6	0.00e+00	0	43	0	85983232	62	5034
2026-01-01 21:24:05.64	79.41	9.21	-45.3	-48.6	15.4	0.00e+00	0	43	0	90177536	62	5186
2026-01-01 21:24:07.64	79.76	9.21	-45.4	-48.7	15.3	0.00e+00	0	43	0	93323264	62	5228
2026-01-01 21:24:09.64	80.11	9.20	-45.4	-48.7	15.3	0.00e+00	0	43	0	97517568	62	5248
2026-01-01 21:24:11.65	80.46	9.20	-45.4	-48.7	15.3	0.00e+00	0	43	0	101711872	62	5262
2026-01-01 21:24:13.65	80.81	9.19	-45.3	-48.7	15.3	0.00e+00	0	43	0	104857600	62	5220
2026-01-01 21:24:15.66	81.16	9.18	-45.2	-48.6	15.4	0.00e+00	0	43	0	109051904	62	5168
2026-01-01 21:24:17.66	81.51	9.17	-45.3	-48.7	15.3	0.00e+00	0	43	0	112197632	62	5221
2026-01-01 21:24:19.67	81.86	9.16	-45.3	-48.7	15.3	0.00e+00	0	43	0	116391936	62	5250
2026-01-01 21:24:21.67	82.20	9.15	-45.4	-48.8	15.2	0.00e+00	0	43	0	120586240	62	5299
2026-01-01 21:24:23.68	82.55	9.14	-45.4	-48.8	15.2	0.00e+00	0	43	0	123731968	62	5295
2026-01-01 21:24:25.69	82.90	9.13	-45.4	-48.8	15.2	0.00e+00	0	43	0	127926272	62	5325
2026-01-01 21:24:27.69	83.25	9.11	-45.2	-48.4	15.5	0.00e+00	0	43	0	131072000	62	5082
2026-01-01 21:24:29.69	83.60	9.10	-45.1	-48.3	15.6	0.00e+00	0	43	0	135266304	62	5030
2026-01-01 21:24:31.70	83.94	9.08	-45.1	-48.4	15.6	0.00e+00	0	43	0	138412032	62	5078
2026-01-01 21:24:33.70	84.29	9.07	-45.1	-48.5	15.4	0.00e+00	0	42	0	142606336	62	5154
2026-01-01 21:24:35.71	84.64	9.05	-45.1	-48.6	15.4	0.00e+00	0	42	0	146800640	62	5162
2026-01-01 21:24:37.71	84.98	9.03	-45.2	-48.6	15.4	0.00e+00	0	42	0	149946368	62	5176
2026-01-01 21:24:39.71	85.33	9.01	-45.2	-48.6	15.3	0.00e+00	0	43	0	154140672	62	5213
2026-01-01 21:24:41.72	85.67	8.99	-49.8	-65.4	3.8	1.49e+00	0	43	104	156237824	70	22740
2026-01-01 21:24:43.72	86.02	8.97	-50.1	-65.7	3.8	1.49e+00	0	42	104	156237824	70	23421
2026-01-01 21:24:45.73	86.36	8.95	-50.0	-65.8	3.8	1.49e+00	0	42	104	156237824	70	23588
2026-01-01 21:24:47.74	86.71	8.93	-50.2	-65.8	3.8	1.49e+00	0	43	104	156237824	71	22392
2026-01-01 21:24:49.75	87.05	8.90	-50.3	-65.8	3.8	1.49e+00	0	43	104	156237824	71	22491
2026-01-01 21:24:51.76	87.40	8.88	-50.4	-65.9	3.8	1.49e+00	0	43	104	156237824	71	22547
2026-01-01 21:24:53.76	87.74	8.85	-50.3	-65.9	3.8	1.49e+00	0	43	104	156237824	71	22550
2026-01-01 21:24:55.77	88.08	8.83	-50.1	-65.9	3.8	1.49e+00	0	43	104	156237824	71	22570
2026-01-01 21:24:57.77	88.42	8.80	-50.3	-65.9	3.8	1.49e+00	0	43	104	156237824	71	22616
2026-01-01 21:24:59.78	88.76	8.77	-50.3	-65.9	3.8	1.49e+00	0	43	104	156237824	71	22656
2026-01-01 21:25:01.79	89.10	8.74	-50.4	-65.9	3.8	1.49e+00	0	43	104	156237824	71	22533
2026-01-01 21:25:03.79	89.44	8.71	-50.4	-65.8	3.8	1.49e+00	0	43	104	156237824	71	22518
2026-01-01 21:25:05.80	89.78	8.68	-50.4	-65.8	3.8	1.49e+00	0	43	104	156237824	71	22508
2026-01-01 21:25:07.80	90.12	8.65	-50.4	-65.8	3.8	1.49e+00	0	43	104	156237824	71	22428
2026-01-01 21:25:09.80	90.46	8.62	-50.4	-65.8	3.8	1.49e+00	0	43	104	156237824	71	22495
2026-01-01 21:25:11.81	90.79	8.59	-50.4	-65.8	3.8	1.49e+00	0	43	104	156237824	71	22508
2026-01-01 21:25:13.82	91.13	8.55	-50.4	-65.8	3.8	1.49e+00	0	43	104	156237824	71	22443
2026-01-01 21:25:15.82	91.46	8.52	-50.4	-65.8	3.8	1.49e+00	0	43	104	156237824	71	22519
2026-01-01 21:25:17.83	91.80	8.48	-50.4	-65.8	3.8	1.49e+00	0	43	104	156237824	71	22430
2026-01-01 21:25:19.84	92.13	8.45	-50.4	-65.8	3.8	1.49e+00	0	42	104	156237824	71	22415
2026-01-01 21:25:21.84	92.47	8.41	-50.4	-65.8	3.8	1.49e+00	0	43	104	156237824	71	22442
2026-01-01 21:25:23.85	92.80	8.37	-50.4	-65.8	3.8	1.49e+00	0	43	104	156237824	71	22477
2026-01-01 21:25:25.85	93.13	8.34	-50.4	-65.8	3.8	1.49e+00	0	43	104	156237824	71	22478
2026-01-01 21:25:27.85	93.46	8.30	-50.4	-65.8	3.8	1.49e+00	0	43	104	156237824	71	22381
2026-01-01 21:25:29.86	93.79	8.26	-50.4	-65.9	3.8	1.49e+00	0	43	104	156237824	71	22521
2026-01-01 21:25:31.86	94.12	8.22	-50.4	-65.8	3.8	1.49e+00	0	43	104	156237824	71	22490
2026-01-01 21:25:33.86	94.44	8.17	-50.4	-65.8	3.8	1.49e+00	0	43	104	156237824	71	22429
2026-01-01 21:25:35.86	94.77	8.13	-50.4	-65.8	3.8	1.49e+00	0	43	104	156237824	71	22469
2026-01-01 21:25:37.87	95.10	8.09	-50.4	-65.8	3.8	1.49e+00	0	43	104	156237824	71	22465
2026-01-01 21:25:39.87	95.42	8.05	-50.4	-65.8	3.8	1.49e+00	0	43	104	156237824	71	22447
2026-01-01 21:25:41.87	95.74	8.00	-50.4	-65.8	3.8	1.49e+00	0	43	104	156237824	71	22435
2026-01-01 21:25:43.87	96.07	7.96	-50.4	-65.8	3.8	1.49e+00	0	43	104	156237824	71	22415
2026-01-01 21:25:45.88	96.39	7.91	-50.4	-65.8	3.8	1.49e+00	0	43	104	156237824	71	22301
2026-01-01 21:25:47.89	96.71	7.87	-50.4	-65.8	3.8	1.49e+00	0	42	104	156237824	71	22396
2026-01-01 21:25:49.89	97.03	7.82	-50.3	-65.8	3.8	1.49e+00	0	43	104	156237824	71	22459
2026-01-01 21:25:51.90	97.35	7.77	-50.4	-65.8	3.8	1.49e+00	0	43	104	156237824	71	22386
2026-01-01 21:25:53.91	97.67	7.72	-50.4	-65.8	3.8	1.49e+00	0	43	104	156237824	71	22450
2026-01-01 21:25:55.92	97.99	7.67	-50.4	-65.8	3.8	1.49e+00	0	43	104	156237824	71	22402
2026-01-01 21:25:57.92	98.30	7.62	-50.4	-65.8	3.8	1.49e+00	0	43	104	156237824	71	22436
2026-01-01 21:25:59.92	98.62	7.57	-50.4	-65.8	3.8	1.49e+00	0	43	104	156237824	71	22434
2026-01-01 21:26:01.93	98.93	7.52	-50.4	-65.8	3.8	1.49e+00	0	43	104	156237824	71	22472
2026-01-01 21:26:03.93	99.24	7.47	-50.4	-65.8	3.8	1.49e+00	0	43	104	156237824	71	22516
2026-01-01 21:26:05.93	99.55	7.42	-50.4	-65.8	3.8	1.49e+00	0	43	104	156237824	71	22398
2026-01-01 21:26:07.93	99.86	7.37	-50.3	-65.8	3.8	1.49e+00	0	43	104	156237824	71	22335
2026-01-01 21:26:09.93	100.17	7.31	-50.4	-65.8	3.8	1.49e+00	0	43	104	156237824	71	22432
2026-01-01 21:26:11.94	100.48	7.26	-50.4	-65.8	3.8	1.49e+00	0	43	104	156237824	71	22454
2026-01-01 21:26:13.94	100.79	7.21	-50.3	-65.8	3.8	1.49e+00	0	43	104	156237824	71	22388
2026-01-01 21:26:15.94	101.10	7.15	-50.3	-65.8	3.8	1.49e+00	0	43	104	156237824	71	22422
2026-01-01 21:26:17.94	101.40	7.09	-50.3	-65.8	3.8	1.49e+00	0	43	104	156237824	71	22438
2026-01-01 21:26:19.95	101.70	7.04	-50.3	-65.8	3.8	1.49e+00	0	43	104	156237824	71	22437
2026-01-01 21:26:21.95	102.01	6.98	-50.3	-65.8	3.8	1.49e+00	0	43	104	156237824	71	22398
2026-01-01 21:26:23.96	102.31	6.92	-50.3	-65.8	3.8	1.49e+00	0	43	104	156237824	71	22448
2026-01-01 21:26:25.96	102.61	6.87	-50.3	-65.8	3.8	1.49e+00	0	43	104	156237824	71	22477
2026-01-01 21:26:27.96	102.91	6.81	-50.3	-65.8	3.8	1.49e+00	0	43	104	156237824	71	22433
2026-01-01 21:26:29.97	103.21	6.75	-50.3	-65.8	3.8	1.49e+00	0	43	104	156237824	71	22344
2026-01-01 21:26:31.97	103.50	6.69	-50.3	-65.8	3.8	1.49e+00	0	43	104	156237824	71	22379
2026-01-01 21:26:33.98	103.80	6.63	-50.3	-65.8	3.8	1.49e+00	0	43	104	156237824	71	22405
2026-01-01 21:26:35.98	104.10	6.57	-50.3	-65.8	3.8	1.49e+00	0	43	104	156237824	71	22417
2026-01-01 21:26:37.99	104.39	6.51	-50.3	-65.8	3.8	1.49e+00	0	43	104	156237824	71	22440
2026-01-01 21:26:39.99	104.68	6.45	-50.3	-65.8	3.8	1.49e+00	0	43	104	156237824	71	22424
2026-01-01 21:26:42.00	104.97	6.38	-50.3	-65.8	3.8	1.49e+00	0	43	104	156237824	71	22417
2026-01-01 21:26:44.00	105.26	6.32	-50.3	-65.8	3.8	1.49e+00	0	43	104	156237824	71	22377
2026-01-01 21:26:46.00	105.55	6.26	-50.3	-65.8	3.8	1.49e+00	0	43	104	156237824	71	22351
2026-01-01 21:26:48.01	105.84	6.20	-50.3	-65.8	3.8	1.49e+00	0	42	104	156237824	71	22355
2026-01-01 21:26:50.01	106.13	6.13	-50.3	-65.8	3.8	1.49e+00	0	43	104	156237824	71	22404
2026-01-01 21:26:52.02	106.41	6.07	-50.3	-65.8	3.8	1.49e+00	0	43	104	156237824	71	22344
2026-01-01 21:26:54.02	106.70	6.00	-50.3	-65.8	3.8	1.49e+00	0	43	104	156237824	71	22402
2026-01-01 21:26:56.03	106.98	5.94	-50.3	-65.8	3.8	1.49e+00	0	43	104	156237824	71	22436
2026-01-01 21:26:58.03	107.26	5.87	-50.3	-65.8	3.8	1.49e+00	0	43	104	156237824	71	22390
2026-01-01 21:27:00.04	107.54	5.81	-50.3	-65.8	3.8	1.49e+00	0	43	104	156237824	71	22440
2026-01-01 21:27:02.04	107.82	5.74	-50.3	-65.8	3.8	1.49e+00	0	43	104	156237824	71	22441
2026-01-01 21:27:04.04	108.10	5.67	-50.3	-65.8	3.8	1.49e+00	0	43	104	156237824	71	22388
2026-01-01 21:27:06.05	108.38	5.61	-50.3	-65.8	3.8	1.49e+00	0	43	104	156237824	71	22411
2026-01-01 21:27:08.05	108.65	5.54	-50.3	-65.8	3.8	1.49e+00	0	43	104	156237824	71	22358
2026-01-01 21:27:10.05	108.92	5.47	-50.3	-65.8	3.8	1.49e+00	0	43	104	156237824	71	22371
2026-01-01 21:27:12.05	109.20	5.40	-50.3	-65.8	3.8	1.49e+00	0	43	104	156237824	71	22356
2026-01-01 21:27:14.06	109.47	5.33	-50.3	-65.8	3.8	1.49e+00	0	43	104	156237824	71	22324
2026-01-01 21:27:16.07	109.74	5.27	-50.3	-65.8	3.8	1.49e+00	0	43	104	156237824	71	22398
2026-01-01 21:27:18.07	110.01	5.20	-50.3	-65.8	3.8	1.49e+00	0	43	104	156237824	71	22313
2026-01-01 21:27:20.08	110.28	5.13	-50.3	-65.8	3.8	1.49e+00	0	43	104	156237824	71	22444
2026-01-01 21:27:22.09	110.55	5.06	-50.3	-65.8	3.8	1.49e+00	0	43	104	156237824	71	22389
2026-01-01 21:27:24.09	110.81	4.99	-50.3	-65.8	3.8	1.49e+00	0	43	104	156237824	71	22352

#Closed at: 2026-01-01 21:27:25
#Recorded file [156 MB]: D:/Data/31040_260102_002029.dat