passes_logs/2026/01/01/T1/T1__20260101_053148_FENGYUN_3G_rec.log

#Pass ID: 20260101_053148_FENGYUN 3G
#Satellite: FENGYUN 3G
#Configuration: FENGYUN 3G
#almurnet v.1.7.20251203
#Start time: 2026-01-01 05:31:50

#Version: 2.0.20230620
#Station: T1
#Location: 37.570604 lon 55.790049 lat
#TLE: 1 56232U 23055A   25365.50856095  .00043589  00000+0  69982-3 0  9997
#TLE: 2 56232  49.9923 130.6499 0004081 319.7782  40.2882 15.52545779153944

#Time	Az	El	Level	Level2	SNR	BER	BlckErr	Temp	State	Recorded	gain1	gain2
2026-01-01 05:31:50.19	252.49	5.17	-51.1	-70.5	3.8	8.47e-01	0	40	0	0	74	32275
2026-01-01 05:31:52.19	252.32	5.32	-51.1	-70.7	3.8	8.47e-01	0	40	104	0	74	33059
2026-01-01 05:31:54.19	252.15	5.47	-51.1	-70.5	3.8	8.48e-01	0	40	104	0	74	32522
2026-01-01 05:31:56.20	251.98	5.63	-51.1	-70.5	3.8	8.46e-01	0	40	104	0	74	32547
2026-01-01 05:31:58.20	251.80	5.78	-51.1	-70.4	3.8	8.46e-01	0	41	104	0	74	31829
2026-01-01 05:32:00.21	251.63	5.94	-51.0	-70.1	3.8	8.46e-01	0	41	104	0	73	32706
2026-01-01 05:32:02.21	251.44	6.10	-51.1	-70.1	3.8	8.46e-01	0	41	104	0	73	32796
2026-01-01 05:32:04.21	251.26	6.26	-51.2	-70.4	3.8	8.47e-01	0	41	104	0	73	33747
2026-01-01 05:32:06.22	251.07	6.42	-51.1	-70.2	3.8	8.47e-01	0	41	104	0	73	33043
2026-01-01 05:32:08.23	250.88	6.58	-51.1	-70.3	3.8	8.47e-01	0	41	104	0	73	33459
2026-01-01 05:32:10.24	250.69	6.75	-51.2	-70.5	3.8	8.47e-01	0	41	104	0	73	34423
2026-01-01 05:32:12.24	250.50	6.91	-51.2	-70.4	3.8	8.47e-01	0	41	104	0	73	33711
2026-01-01 05:32:14.25	250.30	7.08	-51.2	-69.8	3.8	8.47e-01	0	41	104	0	73	31503
2026-01-01 05:32:16.26	250.09	7.25	-50.6	-70.1	3.8	8.45e-01	0	41	104	0	72	34681
2026-01-01 05:32:18.26	249.89	7.42	-50.0	-70.0	3.9	8.46e-01	0	41	104	0	71	36234
2026-01-01 05:32:20.27	249.68	7.59	-48.5	-68.3	3.8	8.46e-01	0	41	104	0	69	33679
2026-01-01 05:32:22.28	249.47	7.76	-47.2	-67.1	3.9	8.44e-01	0	41	104	0	66	34664
2026-01-01 05:32:24.29	249.25	7.94	-51.3	-68.8	3.8	8.43e-01	0	41	104	0	73	28147
2026-01-01 05:32:26.29	249.03	8.11	-51.4	-69.0	3.8	8.45e-01	0	41	104	0	73	28688
2026-01-01 05:32:28.30	248.81	8.29	-51.1	-66.2	4.5	8.41e-01	0	41	0	0	73	20934
2026-01-01 05:32:30.30	248.58	8.47	-51.3	-68.1	3.9	8.24e-01	0	42	104	0	73	25953
2026-01-01 05:32:32.31	248.35	8.65	-51.2	-67.0	4.2	8.40e-01	0	42	104	0	73	22960
2026-01-01 05:32:34.32	248.11	8.83	-50.0	-57.3	12.2	3.04e-01	0	42	0	0	72	7945
2026-01-01 05:32:36.32	247.87	9.02	-48.2	-52.6	17.1	6.53e-04	0	42	0	0	68	5852
2026-01-01 05:32:38.33	247.63	9.20	-47.6	-51.6	18.1	0.00e+00	0	42	0	0	66	5790
2026-01-01 05:32:40.33	247.38	9.39	-48.5	-53.3	16.3	0.00e+00	0	42	0	0	68	6288
2026-01-01 05:32:42.33	247.13	9.57	-45.3	-48.3	21.3	2.20e-06	0	42	0	0	62	4989
2026-01-01 05:32:44.34	246.87	9.77	-45.3	-48.2	21.5	0.00e+00	0	42	0	0	62	4927
2026-01-01 05:32:46.34	246.61	9.96	-44.9	-47.7	21.9	0.00e+00	0	42	0	0	61	4932
2026-01-01 05:32:48.35	246.34	10.15	-44.4	-46.9	22.7	0.00e+00	0	42	0	0	60	4791
2026-01-01 05:32:50.35	246.07	10.35	-44.2	-46.7	22.9	0.00e+00	0	41	0	0	60	4664
2026-01-01 05:32:52.36	245.80	10.54	-43.9	-46.3	23.3	0.00e+00	0	42	0	0	59	4730
2026-01-01 05:32:54.36	245.52	10.74	-43.9	-46.3	23.4	0.00e+00	0	42	0	0	59	4721
2026-01-01 05:32:56.36	245.23	10.94	-43.7	-46.1	23.6	0.00e+00	0	42	0	0	59	4609
2026-01-01 05:32:58.36	244.94	11.15	-43.9	-46.2	23.4	0.00e+00	0	42	0	0	59	4691
2026-01-01 05:33:00.36	244.65	11.35	-43.8	-46.2	23.5	0.00e+00	0	42	0	0	59	4677
2026-01-01 05:33:02.37	244.34	11.56	-44.2	-46.6	23.2	0.00e+00	0	42	0	0	59	4895
2026-01-01 05:33:04.37	244.03	11.77	-44.1	-46.5	23.2	0.00e+00	0	42	0	0	59	4870
2026-01-01 05:33:06.38	243.72	11.98	-43.9	-46.3	23.3	0.00e+00	0	42	0	0	59	4745
2026-01-01 05:33:08.38	243.40	12.19	-43.3	-45.6	23.9	0.00e+00	0	42	0	0	58	4615
2026-01-01 05:33:10.38	243.07	12.40	-43.1	-45.4	24.1	0.00e+00	0	42	0	0	58	4521
2026-01-01 05:33:12.38	242.74	12.62	-43.0	-45.3	24.2	0.00e+00	0	42	0	0	57	4710
2026-01-01 05:33:14.38	242.40	12.84	-43.2	-45.5	24.0	0.00e+00	0	42	0	0	57	4835
2026-01-01 05:33:16.39	242.06	13.06	-43.6	-45.9	23.7	0.00e+00	0	42	0	0	57	5096
2026-01-01 05:33:18.39	241.70	13.28	-43.6	-45.9	23.8	0.00e+00	0	42	0	0	57	5084
2026-01-01 05:33:20.39	241.35	13.51	-43.0	-45.3	24.2	0.00e+00	0	42	0	0	57	4734
2026-01-01 05:33:22.40	240.98	13.74	-42.9	-45.1	24.2	0.00e+00	0	42	0	0	57	4646
2026-01-01 05:33:24.40	240.60	13.96	-42.6	-44.8	24.6	0.00e+00	0	42	0	0	57	4455
2026-01-01 05:33:26.41	240.22	14.20	-42.9	-45.1	24.4	0.00e+00	0	42	0	0	57	4646
2026-01-01 05:33:28.41	239.83	14.43	-43.4	-45.8	24.1	0.00e+00	0	42	0	0	57	4991
2026-01-01 05:33:30.41	239.43	14.67	-43.2	-45.4	24.4	0.00e+00	0	42	0	0	57	4794
2026-01-01 05:33:32.42	239.03	14.90	-43.0	-45.2	24.6	0.00e+00	0	42	0	0	57	4670
2026-01-01 05:33:34.42	238.61	15.14	-43.1	-45.3	24.5	0.00e+00	0	42	0	0	57	4741
2026-01-01 05:33:36.42	238.19	15.39	-43.1	-45.3	24.5	0.00e+00	0	42	0	0	57	4755
2026-01-01 05:33:38.42	237.76	15.63	-42.9	-45.1	24.7	0.00e+00	0	42	0	0	57	4631
2026-01-01 05:33:40.42	237.32	15.88	-42.7	-44.9	24.9	0.00e+00	0	42	0	0	57	4511
2026-01-01 05:33:42.42	236.87	16.12	-42.3	-44.4	25.3	0.00e+00	0	43	0	0	56	4533
2026-01-01 05:33:44.43	236.41	16.38	-42.0	-44.1	25.5	0.00e+00	0	42	0	0	56	4389
2026-01-01 05:33:46.44	235.94	16.63	-42.1	-44.2	25.6	0.00e+00	0	42	0	0	56	4397
2026-01-01 05:33:48.44	235.46	16.88	-41.6	-43.6	25.9	0.00e+00	0	43	0	0	55	4381
2026-01-01 05:33:50.44	234.97	17.14	-41.4	-43.5	26.0	0.00e+00	0	42	0	0	54	4567
2026-01-01 05:33:52.44	234.47	17.40	-41.5	-43.5	26.0	0.00e+00	0	42	0	0	54	4571
2026-01-01 05:33:54.45	233.96	17.66	-41.4	-43.4	26.1	0.00e+00	0	43	0	0	54	4512
2026-01-01 05:33:56.46	233.43	17.93	-41.5	-43.5	26.0	0.00e+00	0	43	0	0	54	4569
2026-01-01 05:33:58.46	232.90	18.19	-41.5	-43.6	25.8	0.00e+00	0	42	0	0	54	4609
2026-01-01 05:34:00.43	232.36	18.45	-41.2	-43.3	26.2	0.00e+00	0	43	0	0	54	4449
2026-01-01 05:34:02.42	231.81	18.72	-41.3	-43.3	26.2	0.00e+00	0	42	0	0	54	4473
2026-01-01 05:34:04.42	231.24	18.99	-41.3	-43.3	26.2	0.00e+00	0	42	0	0	54	4458
2026-01-01 05:34:06.42	230.66	19.26	-41.3	-43.3	26.2	0.00e+00	0	42	0	0	54	4457
2026-01-01 05:34:08.42	230.07	19.53	-41.3	-43.4	26.2	0.00e+00	0	43	0	0	54	4519
2026-01-01 05:34:10.43	229.46	19.81	-41.5	-43.5	26.0	0.00e+00	0	43	0	0	54	4593
2026-01-01 05:34:12.43	228.84	20.08	-41.5	-43.5	26.0	0.00e+00	0	43	0	0	54	4575
2026-01-01 05:34:14.43	228.21	20.36	-41.7	-43.8	25.8	0.00e+00	0	43	0	0	54	4722
2026-01-01 05:34:16.43	227.56	20.64	-41.0	-43.0	26.5	0.00e+00	0	43	0	0	54	4300
2026-01-01 05:34:18.43	226.90	20.91	-41.1	-43.1	26.4	0.00e+00	0	43	0	0	54	4361
2026-01-01 05:34:20.44	226.22	21.19	-41.0	-43.0	26.5	0.00e+00	0	42	0	0	54	4328
2026-01-01 05:34:22.44	225.53	21.47	-41.3	-43.3	26.1	0.00e+00	0	43	0	0	54	4460
2026-01-01 05:34:24.45	224.82	21.75	-41.2	-43.2	26.4	0.00e+00	0	42	0	0	54	4409
2026-01-01 05:34:26.46	224.09	22.03	-40.7	-42.6	26.7	0.00e+00	0	43	0	0	53	4383
2026-01-01 05:34:28.46	223.36	22.31	-40.5	-42.5	26.9	0.00e+00	0	42	0	0	53	4312
2026-01-01 05:34:30.46	222.60	22.59	-40.4	-42.4	27.1	0.00e+00	0	43	0	0	52	4496
2026-01-01 05:34:32.46	221.84	22.87	-40.5	-42.4	26.9	0.00e+00	0	42	0	0	52	4542
2026-01-01 05:34:34.47	221.05	23.15	-40.5	-42.5	27.0	0.00e+00	0	42	0	0	52	4564
2026-01-01 05:34:36.47	220.25	23.42	-40.4	-42.3	27.0	0.00e+00	0	43	0	0	52	4486
2026-01-01 05:34:38.47	219.43	23.70	-40.4	-42.3	27.1	0.00e+00	0	42	0	0	52	4460
2026-01-01 05:34:40.48	218.59	23.97	-40.0	-41.9	27.2	0.00e+00	0	43	0	0	52	4288
2026-01-01 05:34:42.48	217.74	24.24	-40.0	-41.9	27.4	0.00e+00	0	43	0	0	52	4268
2026-01-01 05:34:44.48	216.87	24.51	-40.1	-42.0	27.3	0.00e+00	0	43	0	0	51	4563
2026-01-01 05:34:46.49	215.98	24.78	-40.2	-42.1	27.4	0.00e+00	0	42	0	0	51	4627
2026-01-01 05:34:48.49	215.07	25.04	-40.4	-42.3	27.1	0.00e+00	0	42	0	0	51	4738
2026-01-01 05:34:50.49	214.15	25.30	-40.4	-42.4	27.0	0.00e+00	0	42	0	0	51	4787
2026-01-01 05:34:52.49	213.21	25.55	-40.3	-42.2	27.3	0.00e+00	0	42	0	0	51	4672
2026-01-01 05:34:54.49	212.26	25.80	-40.2	-42.1	27.3	0.00e+00	0	42	0	0	51	4623
2026-01-01 05:34:56.50	211.28	26.05	-40.0	-41.9	27.4	0.00e+00	0	42	0	0	51	4503
2026-01-01 05:34:58.50	210.29	26.29	-40.0	-41.9	27.5	0.00e+00	0	42	0	0	51	4509
2026-01-01 05:35:00.50	209.28	26.52	-39.7	-41.6	27.7	0.00e+00	0	42	0	0	51	4362
2026-01-01 05:35:02.51	208.25	26.75	-39.9	-41.9	27.6	0.00e+00	0	42	0	0	50	4762
2026-01-01 05:35:04.51	207.21	26.97	-39.8	-41.8	27.5	0.00e+00	0	42	0	0	50	4712
2026-01-01 05:35:06.51	206.15	27.19	-40.1	-42.0	27.2	0.00e+00	0	43	0	0	50	4846
2026-01-01 05:35:08.51	205.08	27.39	-39.6	-41.6	27.6	0.00e+00	0	42	0	0	50	4600
2026-01-01 05:35:10.52	203.98	27.59	-39.5	-41.4	27.8	0.00e+00	0	42	0	0	50	4502
2026-01-01 05:35:12.52	202.88	27.78	-40.0	-41.9	27.3	0.00e+00	0	43	0	0	50	4794
2026-01-01 05:35:14.52	201.76	27.96	-39.5	-41.4	27.8	0.00e+00	0	43	0	0	50	4513
2026-01-01 05:35:16.52	200.63	28.13	-39.4	-41.3	28.1	0.00e+00	0	43	0	0	50	4454
2026-01-01 05:35:18.53	199.48	28.29	-39.8	-41.8	27.7	0.00e+00	0	43	0	0	50	4711
2026-01-01 05:35:20.53	198.32	28.44	-39.6	-41.5	27.9	0.00e+00	0	43	0	0	50	4584
2026-01-01 05:35:22.54	197.14	28.58	-40.1	-42.0	27.5	0.00e+00	0	43	0	0	50	4855
2026-01-01 05:35:24.54	195.96	28.71	-40.5	-42.4	27.1	0.00e+00	0	42	0	0	51	4805
2026-01-01 05:35:26.55	194.76	28.82	-39.8	-41.7	27.8	0.00e+00	0	43	0	0	51	4413
2026-01-01 05:35:28.55	193.56	28.93	-39.7	-41.6	27.8	0.00e+00	0	42	0	0	51	4383
2026-01-01 05:35:30.55	192.35	29.02	-40.3	-42.2	27.2	0.00e+00	0	43	0	0	51	4693
2026-01-01 05:35:32.56	191.13	29.10	-40.3	-42.2	27.3	0.00e+00	0	43	0	0	51	4684
2026-01-01 05:35:34.56	189.91	29.17	-39.8	-41.7	27.7	0.00e+00	0	43	0	0	51	4438
2026-01-01 05:35:36.56	188.68	29.22	-39.9	-41.8	27.6	0.00e+00	0	42	0	0	51	4450
2026-01-01 05:35:38.57	187.44	29.26	-39.5	-41.3	27.9	0.00e+00	0	43	0	0	50	4492
2026-01-01 05:35:40.57	186.21	29.29	-39.2	-41.1	28.1	0.00e+00	0	43	0	0	49	4628
2026-01-01 05:35:42.57	184.97	29.30	-39.4	-41.3	27.9	0.00e+00	0	42	0	0	49	4721
2026-01-01 05:35:44.57	183.74	29.30	-39.3	-41.2	28.0	0.00e+00	0	43	0	0	49	4693
2026-01-01 05:35:46.58	182.50	29.29	-39.8	-41.7	27.6	0.00e+00	0	42	0	0	50	4695
2026-01-01 05:35:48.58	181.26	29.26	-39.7	-41.6	27.7	0.00e+00	0	43	0	0	50	4614
2026-01-01 05:35:50.58	180.03	29.22	-39.2	-41.1	28.1	0.00e+00	0	43	0	0	50	4386
2026-01-01 05:35:52.58	178.80	29.17	-39.2	-41.1	28.2	0.00e+00	0	43	0	0	50	4343
2026-01-01 05:35:54.59	177.57	29.10	-39.5	-41.4	27.9	0.00e+00	0	43	0	0	50	4507
2026-01-01 05:35:56.59	176.36	29.02	-39.2	-41.1	28.1	0.00e+00	0	42	0	0	50	4369
2026-01-01 05:35:58.58	175.16	28.93	-39.7	-41.6	27.8	0.00e+00	0	43	0	0	50	4620
2026-01-01 05:36:00.58	173.96	28.82	-39.7	-41.6	27.7	0.00e+00	0	43	0	0	50	4613
2026-01-01 05:36:02.58	172.76	28.71	-39.4	-41.3	27.8	0.00e+00	0	43	0	0	50	4484
2026-01-01 05:36:04.59	171.58	28.58	-39.2	-41.1	28.1	0.00e+00	0	43	0	0	50	4381
2026-01-01 05:36:06.59	170.41	28.44	-39.0	-40.8	28.3	0.00e+00	0	43	0	0	49	4488
2026-01-01 05:36:08.60	169.24	28.29	-39.2	-41.1	28.1	0.00e+00	0	43	0	0	49	4622
2026-01-01 05:36:10.60	168.10	28.13	-39.7	-41.6	27.6	0.00e+00	0	43	0	0	50	4647
2026-01-01 05:36:12.61	166.96	27.96	-39.3	-41.1	28.0	0.00e+00	0	43	0	0	50	4386
2026-01-01 05:36:14.61	165.84	27.78	-39.4	-41.3	28.0	0.00e+00	0	43	0	0	50	4459
2026-01-01 05:36:16.61	164.74	27.59	-39.7	-41.6	27.6	0.00e+00	0	43	0	0	50	4648
2026-01-01 05:36:18.62	163.65	27.39	-39.7	-41.7	27.7	0.00e+00	0	43	0	0	50	4653
2026-01-01 05:36:20.62	162.57	27.19	-39.7	-41.6	27.7	0.00e+00	0	43	0	0	50	4610
2026-01-01 05:36:22.62	161.52	26.97	-39.9	-41.9	27.5	0.00e+00	0	43	0	0	50	4771
2026-01-01 05:36:24.61	160.48	26.75	-39.5	-41.4	27.9	0.00e+00	0	43	0	0	50	4510
2026-01-01 05:36:26.62	159.45	26.52	-40.2	-42.2	27.2	0.00e+00	0	43	0	0	51	4678
2026-01-01 05:36:28.62	158.44	26.29	-40.0	-41.9	27.4	0.00e+00	0	43	0	0	51	4529
2026-01-01 05:36:30.62	157.45	26.05	-39.4	-41.3	27.9	0.00e+00	0	43	0	0	50	4448
2026-01-01 05:36:32.62	156.48	25.81	-39.3	-41.2	28.0	0.00e+00	0	43	0	0	50	4400
2026-01-01 05:36:34.61	155.53	25.56	-39.5	-41.4	27.8	0.00e+00	0	42	0	0	50	4523
2026-01-01 05:36:36.62	154.59	25.30	-40.1	-42.0	27.3	0.00e+00	0	43	0	0	50	4860
2026-01-01 05:36:38.62	153.67	25.04	-40.1	-42.1	27.3	0.00e+00	0	43	0	0	51	4605
2026-01-01 05:36:40.63	152.76	24.78	-39.9	-41.8	27.5	0.00e+00	0	43	0	0	51	4484
2026-01-01 05:36:42.63	151.87	24.52	-40.2	-42.1	27.2	0.00e+00	0	43	0	0	51	4642
2026-01-01 05:36:44.63	151.00	24.25	-39.6	-41.5	27.8	0.00e+00	0	43	0	0	51	4307
2026-01-01 05:36:46.64	150.15	23.98	-39.6	-41.5	27.6	0.00e+00	0	43	0	0	50	4595
2026-01-01 05:36:48.64	149.31	23.70	-40.1	-42.1	27.0	0.00e+00	0	43	0	0	50	4874
2026-01-01 05:36:50.64	148.49	23.43	-40.1	-42.1	27.2	0.00e+00	0	43	0	0	51	4609
2026-01-01 05:36:52.64	147.69	23.15	-39.9	-41.8	27.4	0.00e+00	0	43	0	0	51	4476
2026-01-01 05:36:54.64	146.91	22.88	-40.1	-42.1	27.1	0.00e+00	0	43	0	0	51	4618
2026-01-01 05:36:56.65	146.14	22.60	-40.5	-42.5	26.8	0.00e+00	0	43	0	0	51	4863
2026-01-01 05:36:58.65	145.38	22.32	-40.7	-42.7	26.6	0.00e+00	0	43	0	0	52	4684
2026-01-01 05:37:00.65	144.65	22.04	-40.0	-41.9	27.3	0.00e+00	0	43	0	0	51	4527
2026-01-01 05:37:02.66	143.92	21.76	-40.6	-42.6	26.8	0.00e+00	0	43	0	0	51	4874
2026-01-01 05:37:04.66	143.22	21.48	-40.5	-42.5	26.8	0.00e+00	0	43	0	0	51	4824
2026-01-01 05:37:06.66	142.53	21.20	-40.6	-42.6	26.7	0.00e+00	0	43	0	0	51	4881
2026-01-01 05:37:08.67	141.85	20.92	-41.2	-43.3	26.1	0.00e+00	0	43	0	0	53	4706
2026-01-01 05:37:10.67	141.19	20.64	-41.2	-43.2	26.1	0.00e+00	0	43	0	0	53	4689
2026-01-01 05:37:12.68	140.54	20.37	-41.0	-43.0	26.3	0.00e+00	0	43	0	0	53	4590
2026-01-01 05:37:14.68	139.90	20.09	-40.7	-42.7	26.5	0.00e+00	0	43	0	0	53	4414
2026-01-01 05:37:16.69	139.28	19.81	-41.6	-43.7	25.7	0.00e+00	0	43	0	0	53	4967
2026-01-01 05:37:18.69	138.67	19.54	-41.6	-43.7	25.7	0.00e+00	0	42	0	0	54	4674
2026-01-01 05:37:20.70	138.08	19.27	-41.5	-43.6	25.9	0.00e+00	0	43	0	0	54	4602
2026-01-01 05:37:22.70	137.50	19.00	-41.3	-43.4	26.0	0.00e+00	0	43	0	0	54	4497
2026-01-01 05:37:24.70	136.93	18.73	-41.3	-43.4	26.0	0.00e+00	0	43	0	0	54	4497
2026-01-01 05:37:26.71	136.37	18.46	-41.2	-43.3	26.1	0.00e+00	0	43	0	0	54	4462
2026-01-01 05:37:28.71	135.83	18.19	-41.4	-43.4	25.9	0.00e+00	0	43	0	0	54	4544
2026-01-01 05:37:30.71	135.29	17.93	-41.1	-43.1	26.2	0.00e+00	0	43	0	0	54	4384
2026-01-01 05:37:32.71	134.77	17.66	-41.5	-43.6	25.8	0.00e+00	0	43	0	0	54	4637
2026-01-01 05:37:34.71	134.26	17.40	-41.9	-44.0	25.4	0.00e+00	0	43	0	0	54	4865
2026-01-01 05:37:36.71	133.76	17.15	-41.5	-43.6	25.7	0.00e+00	0	43	0	0	54	4612
2026-01-01 05:37:38.72	133.27	16.89	-41.2	-43.2	26.1	0.00e+00	0	43	0	0	54	4434
2026-01-01 05:37:40.72	132.80	16.63	-41.5	-43.6	25.8	0.00e+00	0	43	0	0	54	4631
2026-01-01 05:37:42.72	132.33	16.38	-41.9	-44.0	25.3	0.00e+00	0	43	0	0	54	4846
2026-01-01 05:37:44.72	131.87	16.13	-42.3	-44.4	24.9	0.00e+00	0	43	0	0	55	4814
2026-01-01 05:37:46.72	131.42	15.88	-42.3	-44.5	24.9	0.00e+00	0	43	0	0	55	4822
2026-01-01 05:37:48.72	130.98	15.64	-41.8	-43.9	25.4	0.00e+00	0	43	0	0	55	4521
2026-01-01 05:37:50.73	130.55	15.39	-41.7	-43.8	25.5	0.00e+00	0	43	0	0	55	4474
2026-01-01 05:37:52.73	130.12	15.15	-42.2	-44.3	25.0	0.00e+00	0	43	0	0	55	4750
2026-01-01 05:37:54.73	129.71	14.91	-43.0	-45.3	24.4	0.00e+00	0	43	0	0	56	4984
2026-01-01 05:37:56.73	129.31	14.67	-43.4	-45.7	24.0	0.00e+00	0	43	0	0	57	4940
2026-01-01 05:37:58.74	128.91	14.44	-43.3	-45.5	24.1	0.00e+00	0	43	0	0	57	4870
2026-01-01 05:38:00.74	128.52	14.20	-43.2	-45.5	24.1	0.00e+00	0	43	0	0	57	4815
2026-01-01 05:38:02.74	128.14	13.97	-42.7	-44.9	24.6	0.00e+00	0	43	0	0	57	4543
2026-01-01 05:38:04.75	127.76	13.74	-43.0	-45.3	24.4	0.00e+00	0	43	0	0	57	4709
2026-01-01 05:38:06.75	127.40	13.52	-43.6	-45.9	23.7	0.00e+00	0	43	0	0	57	5089
2026-01-01 05:38:08.75	127.04	13.29	-43.7	-46.0	23.6	0.00e+00	0	43	0	0	58	4867
2026-01-01 05:38:10.76	126.68	13.07	-43.5	-45.8	23.8	0.00e+00	0	43	0	0	58	4733
2026-01-01 05:38:12.76	126.34	12.85	-43.6	-46.0	23.6	0.00e+00	0	42	0	0	58	4836
2026-01-01 05:38:14.77	126.00	12.63	-43.7	-46.1	23.5	0.00e+00	0	43	0	0	58	4873
2026-01-01 05:38:16.77	125.67	12.41	-43.8	-46.2	23.4	0.00e+00	0	43	0	0	58	4938
2026-01-01 05:38:18.76	125.34	12.20	-43.9	-46.3	23.3	0.00e+00	0	43	0	0	58	5011
2026-01-01 05:38:20.77	125.02	11.99	-44.2	-46.7	22.9	0.00e+00	0	43	0	0	59	4945
2026-01-01 05:38:22.77	124.71	11.78	-44.3	-46.8	22.7	0.00e+00	0	43	0	0	59	5022
2026-01-01 05:38:24.77	124.40	11.57	-44.3	-46.8	22.8	0.00e+00	0	43	0	0	59	5033
2026-01-01 05:38:26.78	124.10	11.36	-44.4	-46.8	22.7	0.00e+00	0	43	0	0	59	5027
2026-01-01 05:38:28.79	123.80	11.16	-44.2	-46.7	22.8	0.00e+00	0	43	0	0	59	4946
2026-01-01 05:38:30.79	123.51	10.95	-44.2	-46.7	22.9	0.00e+00	0	43	0	0	59	4940
2026-01-01 05:38:32.79	123.22	10.75	-44.2	-46.7	22.9	0.00e+00	0	43	0	0	59	4938
2026-01-01 05:38:34.80	122.94	10.55	-44.4	-46.9	22.7	0.00e+00	0	43	0	0	59	5045
2026-01-01 05:38:36.80	122.67	10.36	-44.6	-47.1	22.5	0.00e+00	0	43	0	0	59	5194
2026-01-01 05:38:38.81	122.40	10.16	-44.9	-47.5	22.0	0.00e+00	0	43	0	0	60	5136
2026-01-01 05:38:40.81	122.13	9.97	-45.0	-47.7	21.8	0.00e+00	0	43	0	0	60	5232
2026-01-01 05:38:42.81	121.87	9.78	-45.0	-47.7	21.7	0.00e+00	0	43	0	0	60	5256
2026-01-01 05:38:44.82	121.61	9.59	-44.9	-47.5	21.9	0.00e+00	0	43	0	0	60	5137
2026-01-01 05:38:46.83	121.36	9.40	-44.8	-47.5	21.9	0.00e+00	0	43	0	0	60	5117
2026-01-01 05:38:48.83	121.11	9.21	-44.6	-47.3	22.1	0.00e+00	0	43	0	0	60	5000
2026-01-01 05:38:50.84	120.87	9.03	-44.5	-47.2	22.2	0.00e+00	0	43	0	0	60	4929
2026-01-01 05:38:52.84	120.63	8.84	-52.0	-70.8	3.8	3.66e-01	0	43	104	0	74	33385
2026-01-01 05:38:54.84	120.40	8.66	-52.1	-71.1	3.8	8.49e-01	0	43	104	0	75	32723
2026-01-01 05:38:56.84	120.17	8.48	-52.4	-71.1	3.8	8.47e-01	0	43	104	0	75	32854
2026-01-01 05:38:58.85	119.94	8.30	-52.4	-71.2	3.8	8.48e-01	0	43	104	0	75	32984
2026-01-01 05:39:00.85	119.71	8.13	-52.4	-71.2	3.8	8.47e-01	0	43	104	0	75	33170
2026-01-01 05:39:02.86	119.49	7.95	-52.2	-71.2	3.8	8.47e-01	0	43	104	0	75	33152
2026-01-01 05:39:04.86	119.28	7.78	-52.2	-71.3	3.8	8.46e-01	0	43	104	0	75	33454
2026-01-01 05:39:06.87	119.07	7.60	-52.2	-71.3	3.8	8.48e-01	0	43	104	0	75	33503
2026-01-01 05:39:08.87	118.86	7.43	-52.2	-71.3	3.8	8.47e-01	0	43	104	0	75	33571
2026-01-01 05:39:10.87	118.65	7.26	-52.4	-71.3	3.8	8.47e-01	0	43	104	0	75	33524
2026-01-01 05:39:12.88	118.45	7.10	-52.5	-71.3	3.8	8.47e-01	0	43	104	0	75	33316
2026-01-01 05:39:14.88	118.25	6.93	-52.5	-71.3	3.8	8.47e-01	0	43	104	0	75	33349
2026-01-01 05:39:16.88	118.06	6.76	-52.5	-71.3	3.8	8.48e-01	0	43	104	0	75	33477
2026-01-01 05:39:18.89	117.86	6.60	-52.5	-71.3	3.8	8.48e-01	0	43	104	0	75	33449
2026-01-01 05:39:20.89	117.67	6.44	-52.5	-71.3	3.8	8.46e-01	0	43	104	0	75	33511
2026-01-01 05:39:22.90	117.49	6.28	-52.5	-71.3	3.8	8.48e-01	0	43	104	0	75	33433
2026-01-01 05:39:24.90	117.30	6.12	-52.5	-71.3	3.8	8.46e-01	0	43	104	0	75	33354
2026-01-01 05:39:26.90	117.12	5.96	-52.4	-71.2	3.8	8.46e-01	0	43	104	0	75	33306
2026-01-01 05:39:28.90	116.94	5.80	-52.4	-71.3	3.8	8.48e-01	0	43	104	0	75	33335
2026-01-01 05:39:30.90	116.77	5.64	-52.4	-71.2	3.8	8.46e-01	0	43	104	0	75	33260
2026-01-01 05:39:32.91	116.59	5.49	-52.4	-71.2	3.8	8.48e-01	0	43	104	0	75	33186
2026-01-01 05:39:34.91	116.43	5.34	-52.4	-71.2	3.8	8.46e-01	0	43	104	0	75	33125
2026-01-01 05:39:36.91	116.26	5.18	-52.4	-71.2	3.8	8.48e-01	0	43	104	0	75	33180
2026-01-01 05:39:38.92	116.09	5.03	-52.3	-71.2	3.8	8.46e-01	0	43	104	0	75	33141

#Closed at: 2026-01-01 05:39:40
#Recorded file [0 MB]: D:/Data/31040_260101_083150.dat