passes_logs/2026/01/01/T1/T1__20260101_220913_NOAA_21_JPSS-2_rec.log

#Pass ID: 20260101_220913_NOAA 21 (JPSS-2)
#Satellite: NOAA 21 (JPSS-2)
#Configuration: NOAA 21
#almurnet v.1.7.20251203
#Start time: 2026-01-01 22:09:14

#Version: 2.0.20230620
#Station: T1
#Location: 37.570604 lon 55.790049 lat
#TLE: 1 54234U 22150A   26001.26806856  .00000185  00000+0  10843-3 0  9990
#TLE: 2 54234  98.7484 302.3349 0001277 353.3887   6.7272 14.19530660162860

#Time	Az	El	Level	Level2	SNR	BER	BlckErr	Temp	State	Recorded	gain1	gain2
2026-01-01 22:09:14.80	29.87	5.05	-49.9	-63.2	3.8	1.49e+00	0	43	0	0	70	17552
2026-01-01 22:09:17.80	30.13	5.23	-49.9	-63.2	3.8	1.49e+00	0	43	104	0	70	17569
2026-01-01 22:09:20.82	30.40	5.40	-49.9	-63.1	3.8	1.49e+00	0	43	104	0	70	17457
2026-01-01 22:09:23.83	30.68	5.58	-49.8	-63.1	3.8	1.49e+00	0	43	104	0	70	17456
2026-01-01 22:09:26.84	30.95	5.75	-49.8	-63.1	3.8	1.49e+00	0	43	104	0	70	17402
2026-01-01 22:09:29.86	31.23	5.93	-49.8	-63.1	3.8	1.49e+00	0	43	104	0	70	17436
2026-01-01 22:09:32.87	31.51	6.11	-49.8	-63.2	3.8	1.49e+00	0	43	104	0	70	17505
2026-01-01 22:09:35.88	31.80	6.29	-49.8	-63.1	3.8	1.49e+00	0	43	104	0	70	17340
2026-01-01 22:09:38.89	32.09	6.47	-49.8	-63.0	3.8	1.49e+00	0	43	104	0	70	17151
2026-01-01 22:09:41.91	32.38	6.65	-49.8	-62.9	3.8	1.49e+00	0	43	104	0	70	16942
2026-01-01 22:09:44.92	32.68	6.83	-49.8	-62.9	3.8	1.49e+00	0	43	104	0	70	16908
2026-01-01 22:09:47.93	32.98	7.01	-49.8	-62.8	3.8	1.49e+00	0	43	104	0	70	16879
2026-01-01 22:09:50.95	33.28	7.19	-49.8	-62.9	3.8	1.49e+00	0	43	104	0	70	16988
2026-01-01 22:09:53.96	33.59	7.37	-49.8	-63.1	3.8	1.49e+00	0	43	104	0	70	17295
2026-01-01 22:09:56.97	33.90	7.55	-49.8	-63.0	3.8	1.49e+00	0	43	104	0	70	17128
2026-01-01 22:09:59.98	34.21	7.74	-49.7	-62.2	3.8	1.49e+00	0	43	104	0	70	15627
2026-01-01 22:10:02.99	34.53	7.92	-49.7	-61.9	3.8	1.49e+00	0	43	104	0	70	15055
2026-01-01 22:10:06.01	34.85	8.11	-49.7	-62.2	3.8	1.49e+00	0	43	104	0	70	15760
2026-01-01 22:10:09.02	35.18	8.29	-49.7	-62.2	3.8	1.49e+00	0	43	104	0	70	15705
2026-01-01 22:10:12.03	35.51	8.48	-49.7	-62.0	3.8	1.49e+00	0	43	104	0	70	15292
2026-01-01 22:10:15.05	35.84	8.66	-49.7	-62.3	3.8	1.49e+00	0	43	104	0	70	15785
2026-01-01 22:10:18.19	36.20	8.86	-49.7	-61.8	3.8	1.49e+00	0	43	104	0	70	14972
2026-01-01 22:10:21.06	36.52	9.04	-49.1	-57.4	5.1	9.21e-01	0	44	0	0	70	9002
2026-01-01 22:10:24.21	36.88	9.24	-46.7	-51.0	10.8	7.24e-03	0	43	0	0	64	6063
2026-01-01 22:10:27.07	37.22	9.41	-44.1	-46.7	15.0	0.00e+00	0	43	0	0	60	4704
2026-01-01 22:10:30.31	37.60	9.62	-43.1	-45.5	16.2	0.00e+00	0	43	0	0	58	4546
2026-01-01 22:10:33.24	37.95	9.80	-42.5	-44.8	16.8	0.00e+00	0	44	0	0	57	4469
2026-01-01 22:10:36.39	38.33	10.00	-42.4	-44.7	16.9	0.00e+00	0	44	0	0	56	4682
2026-01-01 22:10:39.33	38.69	10.19	-42.3	-44.5	17.0	0.00e+00	0	44	0	0	56	4584
2026-01-01 22:10:42.69	39.11	10.40	-42.2	-44.3	17.3	0.00e+00	0	43	0	0	56	4484
2026-01-01 22:10:45.42	39.45	10.57	-42.3	-44.4	17.4	0.00e+00	0	43	0	0	56	4528
2026-01-01 22:10:48.71	39.87	10.78	-42.2	-44.3	17.5	0.00e+00	0	43	0	0	56	4460
2026-01-01 22:10:51.44	40.22	10.96	-42.3	-44.3	17.4	0.00e+00	0	44	0	0	56	4480
2026-01-01 22:10:54.74	40.65	11.17	-42.1	-44.1	17.5	0.00e+00	0	43	0	0	56	4391
2026-01-01 22:10:57.46	41.01	11.34	-42.2	-44.2	17.5	0.00e+00	0	43	0	0	56	4417
2026-01-01 22:11:00.75	41.45	11.56	-42.1	-44.1	17.6	0.00e+00	0	43	0	0	56	4387
2026-01-01 22:11:03.78	41.87	11.75	-42.3	-44.4	17.5	0.00e+00	0	44	0	0	56	4500
2026-01-01 22:11:06.84	42.29	11.95	-42.4	-44.4	17.4	0.00e+00	0	43	0	0	56	4537
2026-01-01 22:11:10.43	42.79	12.18	-42.3	-44.4	17.5	0.00e+00	0	43	0	0	56	4494
2026-01-01 22:11:13.15	43.17	12.35	-42.0	-44.0	17.8	0.00e+00	0	43	0	0	56	4322
2026-01-01 22:11:16.45	43.64	12.57	-42.1	-44.1	17.7	0.00e+00	0	43	0	0	56	4373
2026-01-01 22:11:19.17	44.04	12.74	-41.7	-43.7	18.0	0.00e+00	0	43	0	0	55	4395
2026-01-01 22:11:22.46	44.52	12.96	-41.8	-43.7	17.9	0.00e+00	0	44	0	0	55	4433
2026-01-01 22:11:25.25	44.94	13.14	-41.7	-43.7	17.9	0.00e+00	0	43	0	0	55	4407
2026-01-01 22:11:28.49	45.43	13.35	-41.6	-43.6	18.0	0.00e+00	0	43	0	0	55	4351
2026-01-01 22:11:31.50	45.89	13.54	-41.6	-43.6	18.1	0.00e+00	0	43	0	0	55	4346
2026-01-01 22:11:34.55	46.36	13.74	-41.6	-43.5	18.1	0.00e+00	0	44	0	0	55	4337
2026-01-01 22:11:37.55	46.83	13.93	-41.7	-43.6	18.1	0.00e+00	0	43	0	0	55	4360
2026-01-01 22:11:40.56	47.31	14.12	-41.6	-43.5	18.2	0.00e+00	0	43	0	0	55	4299
2026-01-01 22:11:43.57	47.79	14.32	-41.5	-43.4	18.3	0.00e+00	0	44	0	0	54	4516
2026-01-01 22:11:46.60	48.28	14.51	-41.8	-43.7	18.0	0.00e+00	0	43	0	0	54	4672
2026-01-01 22:11:49.60	48.78	14.70	-41.7	-43.6	18.1	0.00e+00	0	44	0	0	54	4617
2026-01-01 22:11:52.61	49.28	14.90	-41.6	-43.5	18.1	0.00e+00	0	44	0	0	54	4586
2026-01-01 22:11:56.02	49.86	15.11	-41.6	-43.5	18.2	0.00e+00	0	43	0	0	54	4585
2026-01-01 22:11:58.74	50.32	15.29	-41.5	-43.4	18.3	0.00e+00	0	44	0	0	54	4537
2026-01-01 22:12:02.04	50.90	15.50	-41.5	-43.3	18.4	0.00e+00	0	44	0	0	54	4487
2026-01-01 22:12:04.89	51.40	15.68	-41.5	-43.4	18.4	0.00e+00	0	43	0	0	54	4498
2026-01-01 22:12:08.56	52.05	15.91	-41.6	-43.6	18.2	0.00e+00	0	43	0	0	54	4602
2026-01-01 22:12:11.29	52.54	16.08	-41.7	-43.7	18.1	0.00e+00	0	43	0	0	54	4661
2026-01-01 22:12:14.58	53.14	16.28	-41.5	-43.5	18.3	0.00e+00	0	43	0	0	54	4549
2026-01-01 22:12:17.31	53.65	16.45	-41.6	-43.5	18.3	0.00e+00	0	44	0	0	54	4560
2026-01-01 22:12:20.76	54.30	16.66	-41.4	-43.3	18.5	0.00e+00	0	44	0	0	54	4455
2026-01-01 22:12:23.75	54.86	16.84	-41.4	-43.3	18.4	0.00e+00	0	44	0	0	54	4450
2026-01-01 22:12:26.76	55.44	17.03	-41.5	-43.5	18.3	0.00e+00	0	44	0	0	54	4546
2026-01-01 22:12:29.86	56.04	17.21	-41.5	-43.4	18.3	0.00e+00	0	43	0	0	54	4530
2026-01-01 22:12:32.82	56.62	17.39	-41.4	-43.2	18.5	0.00e+00	0	43	0	0	54	4441
2026-01-01 22:12:36.42	57.34	17.60	-41.3	-43.1	18.6	0.00e+00	0	44	0	0	54	4382
2026-01-01 22:12:39.14	57.89	17.76	-41.2	-43.1	18.6	0.00e+00	0	44	0	0	54	4342
2026-01-01 22:12:42.65	58.60	17.96	-41.3	-43.1	18.6	0.00e+00	0	44	0	0	54	4371
2026-01-01 22:12:45.37	59.16	18.12	-41.3	-43.2	18.7	0.00e+00	0	44	0	0	54	4395
2026-01-01 22:12:48.67	59.85	18.30	-41.4	-43.2	18.6	0.00e+00	0	43	0	0	54	4434
2026-01-01 22:12:51.39	60.42	18.45	-41.1	-42.9	18.8	0.00e+00	0	44	0	0	54	4262
2026-01-01 22:12:54.68	61.12	18.63	-41.2	-43.0	18.7	0.00e+00	0	43	0	0	54	4322
2026-01-01 22:12:57.75	61.79	18.80	-41.0	-42.9	18.9	0.00e+00	0	44	0	0	54	4254
2026-01-01 22:13:01.46	62.59	18.99	-40.8	-42.6	19.1	0.00e+00	0	43	0	0	53	4382
2026-01-01 22:13:04.22	63.20	19.14	-41.0	-42.8	18.9	0.00e+00	0	43	0	0	53	4452
2026-01-01 22:13:07.96	64.03	19.33	-40.9	-42.8	19.0	0.00e+00	0	44	0	0	53	4442
2026-01-01 22:13:10.73	64.66	19.47	-40.8	-42.6	19.2	0.00e+00	0	44	0	0	53	4352
2026-01-01 22:13:14.47	65.51	19.65	-40.8	-42.5	19.2	0.00e+00	0	44	0	0	53	4335
2026-01-01 22:13:17.40	66.18	19.79	-40.6	-42.4	19.4	0.00e+00	0	43	0	0	53	4254
2026-01-01 22:13:21.07	67.03	19.96	-40.5	-42.2	19.5	0.00e+00	0	44	0	0	53	4181
2026-01-01 22:13:24.25	67.78	20.10	-40.7	-42.5	19.2	0.00e+00	0	44	0	0	53	4332
2026-01-01 22:13:27.58	68.57	20.25	-40.8	-42.6	19.2	0.00e+00	0	44	0	0	53	4343
2026-01-01 22:13:30.31	69.22	20.37	-40.3	-42.1	19.6	0.00e+00	0	44	0	0	52	4343
2026-01-01 22:13:33.60	70.01	20.50	-40.6	-42.3	19.4	0.00e+00	0	44	0	0	52	4485
2026-01-01 22:13:36.32	70.67	20.61	-40.6	-42.4	19.3	0.00e+00	0	44	0	0	52	4523
2026-01-01 22:13:39.65	71.48	20.74	-40.4	-42.2	19.6	0.00e+00	0	43	0	0	52	4394
2026-01-01 22:13:42.50	72.18	20.85	-40.5	-42.2	19.5	0.00e+00	0	44	0	0	52	4419
2026-01-01 22:13:45.75	72.99	20.96	-40.6	-42.4	19.3	0.00e+00	0	44	0	0	52	4527
2026-01-01 22:13:49.14	73.84	21.08	-40.6	-42.3	19.4	0.00e+00	0	44	0	0	52	4487
2026-01-01 22:13:52.27	74.62	21.18	-40.8	-42.6	19.1	0.00e+00	0	44	0	0	52	4620
2026-01-01 22:13:55.21	75.37	21.27	-40.7	-42.5	19.3	0.00e+00	0	43	0	0	52	4581
2026-01-01 22:13:58.36	76.17	21.36	-40.6	-42.4	19.4	0.00e+00	0	43	0	0	52	4516
2026-01-01 22:14:01.23	76.90	21.44	-40.8	-42.6	19.2	0.00e+00	0	44	0	0	52	4613
2026-01-01 22:14:04.38	77.71	21.53	-40.6	-42.4	19.4	0.00e+00	0	44	0	0	52	4514
2026-01-01 22:14:07.25	78.46	21.60	-40.5	-42.2	19.5	0.00e+00	0	44	0	0	52	4426
2026-01-01 22:14:10.40	79.27	21.67	-40.5	-42.2	19.5	0.00e+00	0	43	0	0	52	4430
2026-01-01 22:14:13.26	80.02	21.73	-40.5	-42.3	19.5	0.00e+00	0	43	0	0	52	4447
2026-01-01 22:14:16.64	80.91	21.79	-40.7	-42.5	19.2	0.00e+00	0	44	0	0	52	4590
2026-01-01 22:14:19.37	81.62	21.84	-40.4	-42.2	19.5	0.00e+00	0	43	0	0	52	4401
2026-01-01 22:14:22.67	82.49	21.89	-40.3	-42.1	19.6	0.00e+00	0	43	0	0	52	4354
2026-01-01 22:14:25.39	83.21	21.93	-40.4	-42.2	19.6	0.00e+00	0	43	0	0	52	4394
2026-01-01 22:14:28.68	84.09	21.97	-40.3	-42.1	19.6	0.00e+00	0	43	0	0	52	4381
2026-01-01 22:14:31.58	84.86	22.00	-40.5	-42.2	19.5	0.00e+00	0	44	0	0	52	4438
2026-01-01 22:14:34.87	85.73	22.03	-40.2	-41.9	19.7	0.00e+00	0	44	0	0	52	4291
2026-01-01 22:14:37.59	86.46	22.04	-40.4	-42.2	19.5	0.00e+00	0	44	0	0	52	4410
2026-01-01 22:14:41.25	87.43	22.06	-40.5	-42.2	19.4	0.00e+00	0	43	0	0	52	4438
2026-01-01 22:14:44.20	88.22	22.06	-40.6	-42.4	19.3	0.00e+00	0	43	0	0	52	4500
2026-01-01 22:14:48.54	89.38	22.06	-40.4	-42.2	19.6	0.00e+00	0	44	0	0	52	4402
2026-01-01 22:14:51.34	90.13	22.06	-40.4	-42.2	19.5	0.00e+00	0	43	0	0	52	4392
2026-01-01 22:14:54.49	90.97	22.04	-40.4	-42.1	19.6	0.00e+00	0	43	0	0	52	4385
2026-01-01 22:14:57.35	91.73	22.03	-40.2	-41.9	19.6	0.00e+00	0	43	0	0	52	4287
2026-01-01 22:15:00.50	92.57	22.00	-40.3	-42.1	19.6	0.00e+00	0	44	0	0	52	4353
2026-01-01 22:15:03.61	93.40	21.97	-40.5	-42.2	19.5	0.00e+00	0	44	0	0	52	4433
2026-01-01 22:15:06.48	94.16	21.94	-40.3	-42.1	19.5	0.00e+00	0	43	0	0	52	4355
2026-01-01 22:15:09.62	94.99	21.89	-40.2	-41.9	19.8	0.00e+00	0	44	0	0	52	4252
2026-01-01 22:15:12.49	95.75	21.85	-40.4	-42.2	19.5	0.00e+00	0	44	0	0	52	4400
2026-01-01 22:15:15.64	96.58	21.79	-40.4	-42.1	19.5	0.00e+00	0	43	0	0	52	4389
2026-01-01 22:15:18.51	97.34	21.74	-40.4	-42.2	19.5	0.00e+00	0	43	0	0	52	4418
2026-01-01 22:15:21.71	98.17	21.67	-40.4	-42.1	19.5	0.00e+00	0	43	0	0	52	4391
2026-01-01 22:15:24.57	98.92	21.61	-40.4	-42.1	19.6	0.00e+00	0	43	0	0	52	4375
2026-01-01 22:15:28.25	99.87	21.52	-40.4	-42.2	19.5	0.00e+00	0	43	0	0	52	4394
2026-01-01 22:15:31.11	100.61	21.44	-40.3	-42.1	19.6	0.00e+00	0	43	0	0	52	4342
2026-01-01 22:15:34.27	101.42	21.36	-40.4	-42.2	19.4	0.00e+00	0	43	0	0	52	4400
2026-01-01 22:15:37.13	102.15	21.27	-40.3	-42.1	19.5	0.00e+00	0	43	0	0	52	4348
2026-01-01 22:15:40.28	102.95	21.17	-40.1	-41.9	19.7	0.00e+00	0	43	0	0	52	4249
2026-01-01 22:15:43.28	103.70	21.07	-40.4	-42.1	19.5	0.00e+00	0	43	0	0	52	4367
2026-01-01 22:15:46.70	104.56	20.96	-40.5	-42.2	19.4	0.00e+00	0	43	0	0	52	4420
2026-01-01 22:15:49.43	105.24	20.86	-40.3	-42.0	19.6	0.00e+00	0	44	0	0	52	4337
2026-01-01 22:15:52.72	106.05	20.74	-40.2	-41.9	19.7	0.00e+00	0	43	0	0	52	4266
2026-01-01 22:15:55.66	106.77	20.62	-40.5	-42.2	19.4	0.00e+00	0	43	0	0	52	4423
2026-01-01 22:15:58.67	107.50	20.50	-40.4	-42.2	19.4	0.00e+00	0	43	0	0	52	4412
2026-01-01 22:16:01.68	108.23	20.38	-40.4	-42.2	19.4	0.00e+00	0	43	0	0	52	4393
2026-01-01 22:16:04.90	109.00	20.24	-40.4	-42.2	19.4	0.00e+00	0	43	0	0	52	4418
2026-01-01 22:16:07.74	109.68	20.11	-40.6	-42.3	19.3	0.00e+00	0	43	0	0	52	4479
2026-01-01 22:16:11.04	110.45	19.96	-40.5	-42.3	19.3	0.00e+00	0	43	0	0	52	4465
2026-01-01 22:16:13.89	111.12	19.83	-40.5	-42.3	19.3	0.00e+00	0	44	0	0	52	4460
2026-01-01 22:16:17.14	111.87	19.68	-40.8	-42.6	19.1	0.00e+00	0	43	0	0	52	4611
2026-01-01 22:16:20.14	112.56	19.53	-40.9	-42.7	19.1	0.00e+00	0	43	0	0	52	4669
2026-01-01 22:16:23.17	113.25	19.38	-40.8	-42.6	19.0	0.00e+00	0	43	0	0	52	4609
2026-01-01 22:16:26.46	113.98	19.21	-40.5	-42.2	19.4	0.00e+00	0	43	0	0	52	4432
2026-01-01 22:16:29.18	114.59	19.07	-40.4	-42.1	19.6	0.00e+00	0	43	0	0	52	4356
2026-01-01 22:16:32.58	115.34	18.89	-40.7	-42.4	19.2	0.00e+00	0	43	0	0	52	4529
2026-01-01 22:16:35.50	115.97	18.73	-40.8	-42.6	19.0	0.00e+00	0	43	0	0	52	4642
2026-01-01 22:16:38.73	116.67	18.56	-40.7	-42.5	19.1	0.00e+00	0	43	0	0	52	4576
2026-01-01 22:16:41.88	117.34	18.38	-40.7	-42.5	19.1	0.00e+00	0	43	0	0	52	4581
2026-01-01 22:16:44.75	117.95	18.22	-40.8	-42.6	19.1	0.00e+00	0	43	0	0	52	4618
2026-01-01 22:16:47.90	118.60	18.04	-41.0	-42.8	18.9	0.00e+00	0	43	0	0	52	4721
2026-01-01 22:16:50.76	119.19	17.88	-41.1	-42.9	18.7	0.00e+00	0	43	0	0	52	4805
2026-01-01 22:16:53.93	119.84	17.69	-41.0	-42.8	18.8	0.00e+00	0	43	0	0	52	4746
2026-01-01 22:16:56.80	120.42	17.52	-41.0	-42.8	18.8	0.00e+00	0	44	0	0	52	4725
2026-01-01 22:17:00.32	121.12	17.31	-41.1	-42.9	18.7	0.00e+00	0	44	0	0	53	4516
2026-01-01 22:17:03.04	121.65	17.15	-41.0	-42.8	18.7	0.00e+00	0	44	0	0	53	4476
2026-01-01 22:17:06.47	122.32	16.94	-40.9	-42.7	18.9	0.00e+00	0	43	0	0	53	4417
2026-01-01 22:17:09.48	122.90	16.76	-40.9	-42.7	18.8	0.00e+00	0	44	0	0	53	4434
2026-01-01 22:17:12.55	123.48	16.57	-41.1	-43.0	18.6	0.00e+00	0	43	0	0	53	4556
2026-01-01 22:17:15.45	124.02	16.39	-41.1	-43.0	18.6	0.00e+00	0	43	0	0	53	4573
2026-01-01 22:17:19.03	124.69	16.16	-40.9	-42.7	18.8	0.00e+00	0	43	0	0	53	4439
2026-01-01 22:17:21.75	125.18	15.99	-41.0	-42.8	18.6	0.00e+00	0	43	0	0	53	4485
2026-01-01 22:17:25.28	125.82	15.77	-41.1	-43.0	18.6	0.00e+00	0	43	0	0	53	4572
2026-01-01 22:17:28.08	126.32	15.59	-41.2	-43.0	18.6	0.00e+00	0	43	0	0	53	4586
2026-01-01 22:17:31.55	126.93	15.37	-41.1	-42.9	18.7	0.00e+00	0	43	0	0	53	4544
2026-01-01 22:17:34.27	127.40	15.20	-41.1	-42.9	18.7	0.00e+00	0	44	0	0	53	4534
2026-01-01 22:17:37.57	127.97	14.99	-41.0	-42.8	18.8	0.00e+00	0	43	0	0	53	4450
2026-01-01 22:17:40.29	128.43	14.81	-41.0	-42.8	18.7	0.00e+00	0	43	0	0	53	4488
2026-01-01 22:17:43.59	128.98	14.60	-41.2	-43.0	18.5	0.00e+00	0	43	0	0	53	4588
2026-01-01 22:17:46.31	129.43	14.42	-41.4	-43.3	18.4	0.00e+00	0	43	0	0	53	4711
2026-01-01 22:17:49.84	130.00	14.19	-41.5	-43.5	18.1	0.00e+00	0	43	0	0	53	4815
2026-01-01 22:17:52.93	130.50	13.99	-41.6	-43.6	18.0	0.00e+00	0	44	0	0	53	4886
2026-01-01 22:17:56.17	131.01	13.78	-41.7	-43.7	17.8	0.00e+00	0	43	0	0	54	4679
2026-01-01 22:17:59.04	131.46	13.59	-41.8	-43.9	17.6	0.00e+00	0	44	0	0	54	4772
2026-01-01 22:18:02.21	131.95	13.39	-41.8	-43.8	17.8	0.00e+00	0	43	0	0	54	4717
2026-01-01 22:18:05.22	132.40	13.19	-41.6	-43.6	18.0	0.00e+00	0	43	0	0	54	4614
2026-01-01 22:18:08.23	132.86	12.99	-41.5	-43.5	18.1	0.00e+00	0	44	0	0	54	4552
2026-01-01 22:18:11.26	133.31	12.80	-41.7	-43.6	18.0	0.00e+00	0	43	0	0	54	4626
2026-01-01 22:18:14.36	133.76	12.59	-41.9	-43.9	17.7	0.00e+00	0	43	0	0	54	4783
2026-01-01 22:18:17.32	134.19	12.40	-42.1	-44.1	17.5	0.00e+00	0	43	0	0	54	4887
2026-01-01 22:18:20.80	134.69	12.17	-42.2	-44.2	17.3	0.00e+00	0	43	0	0	55	4687
2026-01-01 22:18:23.81	135.11	11.98	-42.1	-44.1	17.4	0.00e+00	0	43	0	0	55	4640
2026-01-01 22:18:26.82	135.53	11.78	-42.1	-44.1	17.4	0.00e+00	0	43	0	0	55	4637
2026-01-01 22:18:29.78	135.93	11.59	-42.1	-44.1	17.4	0.00e+00	0	44	0	0	55	4624
2026-01-01 22:18:32.79	136.34	11.39	-42.3	-44.4	17.1	0.00e+00	0	44	0	0	55	4792
2026-01-01 22:18:35.80	136.74	11.20	-42.5	-44.6	17.0	0.00e+00	0	44	0	0	55	4874
2026-01-01 22:18:38.86	137.14	11.00	-42.3	-44.3	17.2	0.00e+00	0	44	0	0	55	4759
2026-01-01 22:18:41.77	137.52	10.81	-42.4	-44.5	17.0	0.00e+00	0	43	0	0	55	4849
2026-01-01 22:18:45.06	137.95	10.60	-42.6	-44.7	16.8	0.00e+00	0	43	0	0	55	4963
2026-01-01 22:18:47.78	138.29	10.43	-42.3	-44.4	17.1	0.00e+00	0	43	0	0	55	4779
2026-01-01 22:18:51.15	138.71	10.21	-42.3	-44.3	17.1	0.00e+00	0	44	0	0	55	4754
2026-01-01 22:18:54.21	139.09	10.01	-42.4	-44.5	16.9	0.00e+00	0	43	0	0	55	4838
2026-01-01 22:18:57.14	139.45	9.83	-42.3	-44.4	17.1	0.00e+00	0	43	0	0	55	4764
2026-01-01 22:19:00.21	139.82	9.63	-42.4	-44.5	16.8	0.00e+00	0	43	0	0	55	4861
2026-01-01 22:19:03.18	140.17	9.44	-42.5	-44.7	16.7	0.00e+00	0	43	0	0	55	4927
2026-01-01 22:19:06.39	140.55	9.24	-42.6	-44.8	16.6	0.00e+00	0	44	0	0	55	4997
2026-01-01 22:19:09.25	140.88	9.06	-42.5	-44.7	16.7	0.00e+00	0	43	0	0	55	4956
2026-01-01 22:19:12.41	141.24	8.86	-50.3	-63.3	3.8	1.49e+00	0	44	104	0	71	16820
2026-01-01 22:19:15.28	141.57	8.68	-50.3	-63.5	3.8	1.49e+00	0	44	104	0	71	17195
2026-01-01 22:19:18.50	141.93	8.47	-50.6	-63.6	3.8	1.49e+00	0	44	104	0	71	17372
2026-01-01 22:19:21.45	142.25	8.29	-50.5	-63.6	3.8	1.49e+00	0	44	104	0	71	17405
2026-01-01 22:19:24.67	142.60	8.09	-50.6	-63.7	3.8	1.49e+00	0	43	104	0	72	16520
2026-01-01 22:19:27.54	142.91	7.91	-50.4	-63.6	3.8	1.49e+00	0	44	104	0	72	16486
2026-01-01 22:19:30.69	143.24	7.72	-50.4	-63.7	3.8	1.49e+00	0	43	104	0	72	16519
2026-01-01 22:19:33.56	143.54	7.54	-50.4	-63.6	3.8	1.49e+00	0	44	104	0	72	16466
2026-01-01 22:19:36.72	143.87	7.35	-50.4	-63.6	3.8	1.49e+00	0	44	104	0	72	16364
2026-01-01 22:19:39.59	144.16	7.17	-50.3	-63.6	3.8	1.49e+00	0	43	104	0	72	16388
2026-01-01 22:19:42.75	144.48	6.98	-50.3	-63.6	3.8	1.49e+00	0	44	104	0	72	16359
2026-01-01 22:19:45.62	144.77	6.80	-50.3	-63.6	3.8	1.49e+00	0	44	104	0	72	16368
2026-01-01 22:19:48.77	145.08	6.61	-50.3	-63.5	3.8	1.49e+00	0	44	104	0	72	16286
2026-01-01 22:19:51.64	145.36	6.44	-50.3	-63.6	3.8	1.49e+00	0	44	104	0	72	16382
2026-01-01 22:19:54.80	145.67	6.25	-50.3	-63.6	3.8	1.49e+00	0	43	104	0	72	16385
2026-01-01 22:19:57.67	145.94	6.08	-50.3	-63.6	3.8	1.49e+00	0	44	104	0	72	16356
2026-01-01 22:20:00.82	146.23	5.89	-50.3	-63.6	3.8	1.49e+00	0	44	104	0	72	16327
2026-01-01 22:20:03.69	146.50	5.72	-50.3	-63.6	3.8	1.49e+00	0	43	104	0	72	16354
2026-01-01 22:20:06.85	146.79	5.53	-50.3	-63.6	3.8	1.49e+00	0	44	104	0	72	16355
2026-01-01 22:20:09.72	147.05	5.36	-50.3	-63.6	3.8	1.49e+00	0	44	104	0	72	16398
2026-01-01 22:20:12.88	147.34	5.17	-50.3	-63.6	3.8	1.49e+00	0	44	104	0	72	16334
2026-01-01 22:20:15.74	147.59	5.01	-50.3	-63.6	3.8	1.49e+00	0	44	104	0	72	16345

#Closed at: 2026-01-01 22:20:17
#Recorded file [0 MB]: D:/Data/31040_260102_010914.dat