passes_logs/2026/01/01/T1/T1__20260101_060030_KHAYYAM_rec.log

#Pass ID: 20260101_060030_KHAYYAM
#Satellite: KHAYYAM
#Configuration: KHAYYAM_480M
#almurnet v.1.7.20251203
#Start time: 2026-01-01 06:00:30

#Version: 2.0.20230620
#Station: T1
#Location: 37.570604 lon 55.790049 lat
#TLE: 1 53370U 22096A   25365.51858384  .00002793  00000+0  11594-3 0  9993
#TLE: 2 53370  97.3564 267.7867 0001131  67.8734 292.2623 15.24660823189032

#Time	Az	El	Level	Level2	SNR	BER	BlckErr	Temp	State	Recorded	gain1	gain2
2026-01-01 06:00:30.28	84.99	5.24	-53.7	-57.5	3.4	0.00e+00	0	45	0	0	79	21665
2026-01-01 06:00:32.28	84.63	5.33	-53.7	-57.4	3.7	0.00e+00	0	46	104	0	78	22759
2026-01-01 06:00:34.29	84.27	5.42	-53.7	-57.4	3.7	0.00e+00	0	46	104	0	78	22819
2026-01-01 06:00:36.30	83.91	5.51	-53.7	-57.4	3.7	0.00e+00	0	46	104	0	78	22781
2026-01-01 06:00:38.31	83.54	5.60	-53.7	-57.4	3.7	0.00e+00	0	46	104	0	78	22746
2026-01-01 06:00:40.32	83.17	5.70	-53.7	-57.4	3.7	0.00e+00	0	46	104	0	78	22802
2026-01-01 06:00:42.33	82.80	5.79	-53.7	-57.4	3.7	0.00e+00	0	47	104	0	78	22786
2026-01-01 06:00:44.34	82.42	5.88	-53.6	-57.4	3.7	0.00e+00	0	47	104	0	78	22726
2026-01-01 06:00:46.34	82.04	5.97	-53.6	-57.4	3.7	0.00e+00	0	47	104	0	78	22757
2026-01-01 06:00:48.35	81.66	6.06	-53.6	-57.4	3.7	0.00e+00	0	47	104	0	78	22792
2026-01-01 06:00:50.36	81.27	6.14	-53.7	-57.4	3.7	0.00e+00	0	47	104	0	78	22730
2026-01-01 06:00:52.37	80.88	6.23	-53.6	-57.4	3.7	0.00e+00	0	47	104	0	78	22778
2026-01-01 06:00:54.38	80.49	6.32	-53.6	-57.4	3.7	0.00e+00	0	48	104	0	78	22767
2026-01-01 06:00:56.39	80.10	6.41	-53.7	-57.4	3.7	0.00e+00	0	48	104	0	78	22879
2026-01-01 06:00:58.40	79.70	6.49	-53.6	-57.4	3.7	0.00e+00	0	47	104	0	78	22755
2026-01-01 06:01:00.41	79.30	6.58	-53.7	-57.5	3.7	0.00e+00	0	48	104	0	78	22946
2026-01-01 06:01:02.42	78.89	6.66	-53.7	-57.4	3.7	0.00e+00	0	48	104	0	78	22822
2026-01-01 06:01:04.42	78.49	6.75	-53.7	-57.4	3.7	0.00e+00	0	48	104	0	78	22850
2026-01-01 06:01:06.43	78.08	6.83	-53.7	-57.4	3.7	0.00e+00	0	48	104	0	78	22864
2026-01-01 06:01:08.44	77.67	6.91	-53.7	-57.4	3.7	0.00e+00	0	48	104	0	78	22838
2026-01-01 06:01:10.45	77.25	6.99	-53.7	-57.4	3.7	0.00e+00	0	48	104	0	78	22766
2026-01-01 06:01:12.46	76.83	7.07	-53.6	-57.4	3.7	0.00e+00	0	48	104	0	78	22778
2026-01-01 06:01:14.47	76.41	7.15	-53.6	-57.4	3.7	0.00e+00	0	49	104	0	78	22818
2026-01-01 06:01:16.48	75.99	7.23	-53.6	-57.4	3.7	0.00e+00	0	49	104	0	78	22796
2026-01-01 06:01:18.49	75.56	7.31	-53.6	-57.4	3.7	0.00e+00	0	49	104	0	78	22797
2026-01-01 06:01:20.50	75.13	7.39	-53.7	-57.4	3.7	0.00e+00	0	49	104	0	78	22861
2026-01-01 06:01:22.51	74.70	7.46	-53.6	-57.4	3.7	0.00e+00	0	49	104	0	78	22738
2026-01-01 06:01:24.52	74.26	7.54	-53.6	-57.4	3.7	0.00e+00	0	49	104	0	78	22715
2026-01-01 06:01:26.52	73.82	7.61	-53.6	-57.4	3.7	0.00e+00	0	49	104	0	78	22730
2026-01-01 06:01:28.53	73.38	7.69	-53.6	-57.4	3.7	0.00e+00	0	49	104	0	78	22625
2026-01-01 06:01:30.54	72.94	7.76	-53.6	-57.4	3.7	0.00e+00	0	49	104	0	78	22676
2026-01-01 06:01:32.55	72.49	7.83	-53.6	-57.4	3.7	0.00e+00	0	49	104	0	78	22729
2026-01-01 06:01:34.56	72.04	7.90	-53.6	-57.4	3.7	0.00e+00	0	49	104	0	78	22667
2026-01-01 06:01:36.57	71.59	7.97	-53.6	-57.4	3.7	0.00e+00	0	49	104	0	78	22758
2026-01-01 06:01:38.58	71.13	8.04	-53.6	-57.4	3.7	0.00e+00	0	49	104	0	78	22771
2026-01-01 06:01:40.58	70.68	8.10	-53.6	-57.4	3.7	0.00e+00	0	49	104	0	78	22824
2026-01-01 06:01:42.59	70.22	8.17	-53.7	-57.4	3.7	0.00e+00	0	50	104	0	78	22792
2026-01-01 06:01:44.60	69.75	8.23	-53.7	-57.4	3.7	0.00e+00	0	50	104	0	78	22814
2026-01-01 06:01:46.61	69.29	8.30	-53.6	-57.4	3.7	0.00e+00	0	49	104	0	78	22858
2026-01-01 06:01:48.62	68.82	8.36	-53.6	-57.4	3.7	0.00e+00	0	50	104	0	78	22701
2026-01-01 06:01:50.63	68.35	8.42	-53.6	-57.4	3.7	0.00e+00	0	50	104	0	78	22727
2026-01-01 06:01:52.63	67.88	8.48	-53.6	-57.4	3.7	0.00e+00	0	50	104	0	78	22745
2026-01-01 06:01:54.64	67.40	8.53	-53.6	-57.4	3.7	0.00e+00	0	50	104	0	78	22687
2026-01-01 06:01:56.65	66.93	8.59	-53.6	-57.4	3.7	0.00e+00	0	50	104	0	78	22814
2026-01-01 06:01:58.66	66.45	8.64	-53.6	-57.4	3.7	0.00e+00	0	50	104	0	78	22727
2026-01-01 06:02:00.67	65.96	8.70	-53.6	-57.4	3.7	0.00e+00	0	50	104	0	78	22768
2026-01-01 06:02:02.68	65.48	8.75	-53.6	-57.4	3.7	0.00e+00	0	50	104	0	78	22783
2026-01-01 06:02:04.68	64.99	8.80	-53.6	-57.4	3.7	0.00e+00	0	50	104	0	78	22803
2026-01-01 06:02:06.70	64.50	8.85	-53.6	-57.4	3.7	0.00e+00	0	50	104	0	78	22698
2026-01-01 06:02:08.70	64.02	8.90	-53.6	-57.4	3.7	0.00e+00	0	50	104	0	78	22721
2026-01-01 06:02:10.71	63.52	8.94	-53.7	-57.4	3.7	0.00e+00	0	50	104	0	78	22864
2026-01-01 06:02:12.72	63.03	8.99	-53.6	-57.4	3.7	0.00e+00	0	50	104	0	78	22685
2026-01-01 06:02:14.73	62.53	9.03	-53.7	-57.4	3.7	0.00e+00	0	50	104	0	78	22836
2026-01-01 06:02:16.73	62.04	9.07	-53.5	-56.8	3.7	0.00e+00	0	50	104	0	79	20137
2026-01-01 06:02:18.79	61.53	9.11	-53.3	-56.6	3.7	0.00e+00	0	50	104	0	78	20800
2026-01-01 06:02:20.99	60.98	9.15	-53.4	-56.8	3.7	0.00e+00	0	50	104	0	78	21298
2026-01-01 06:02:23.00	60.47	9.19	-53.8	-57.7	3.7	0.00e+00	0	50	104	0	78	23645
2026-01-01 06:02:25.00	59.97	9.22	-54.1	-58.0	3.7	0.00e+00	0	50	104	0	78	24391
2026-01-01 06:02:27.00	59.47	9.25	-54.0	-57.4	3.7	0.00e+00	0	50	104	0	79	21585
2026-01-01 06:02:29.00	58.96	9.28	-54.3	-58.0	3.7	0.00e+00	0	51	104	0	80	21674
2026-01-01 06:02:31.13	58.42	9.32	-54.9	-58.9	3.7	0.00e+00	0	50	104	0	80	24210
2026-01-01 06:02:33.17	57.91	9.34	-55.3	-59.9	3.7	0.00e+00	0	50	104	0	81	25543
2026-01-01 06:02:35.24	57.38	9.37	-55.2	-59.8	3.7	0.00e+00	0	51	104	0	81	25187
2026-01-01 06:02:37.23	56.87	9.39	-55.2	-59.9	3.7	0.00e+00	0	51	104	0	81	25534
2026-01-01 06:02:39.24	56.36	9.41	-55.0	-59.8	3.7	0.00e+00	0	51	104	0	81	25217
2026-01-01 06:02:41.25	55.85	9.43	-55.2	-60.0	3.7	0.00e+00	0	50	104	0	81	25722
2026-01-01 06:02:43.30	55.32	9.45	-54.6	-58.9	3.7	0.00e+00	0	51	104	0	80	24077
2026-01-01 06:02:45.38	54.79	9.47	-54.1	-57.8	3.7	0.00e+00	0	51	104	0	80	21197
2026-01-01 06:02:47.61	54.22	9.49	-54.3	-58.2	3.7	0.00e+00	0	51	104	0	80	22153
2026-01-01 06:02:49.62	53.70	9.50	-54.9	-59.7	3.7	0.00e+00	0	51	104	0	81	24988
2026-01-01 06:02:51.62	53.18	9.51	-54.3	-58.6	3.7	0.00e+00	0	51	104	0	80	23184
2026-01-01 06:02:53.67	52.66	9.52	-54.5	-58.8	3.7	0.00e+00	0	51	104	0	80	23781
2026-01-01 06:02:55.68	52.14	9.52	-55.0	-59.6	3.7	0.00e+00	0	51	104	0	80	26188
2026-01-01 06:02:57.70	51.62	9.53	-54.6	-58.6	3.7	0.00e+00	0	51	104	0	80	23368
2026-01-01 06:02:59.85	51.06	9.53	-53.6	-56.8	3.7	0.00e+00	0	51	104	0	77	22579
2026-01-01 06:03:01.86	50.55	9.53	-52.9	-55.9	3.7	0.00e+00	0	51	104	0	77	20256
2026-01-01 06:03:03.86	50.03	9.53	-52.2	-54.7	3.7	0.00e+00	0	51	104	0	76	18743
2026-01-01 06:03:05.86	49.51	9.53	-52.3	-55.0	3.7	0.00e+00	0	51	104	0	76	19330
2026-01-01 06:03:07.87	49.00	9.52	-55.1	-59.8	3.7	0.00e+00	0	51	104	0	80	26806
2026-01-01 06:03:09.88	48.48	9.52	-54.9	-59.4	3.7	0.00e+00	0	51	104	0	80	25535
2026-01-01 06:03:11.96	47.94	9.51	-54.9	-59.4	3.7	0.00e+00	0	51	104	0	80	25498
2026-01-01 06:03:13.98	47.42	9.50	-54.0	-57.5	3.7	0.00e+00	0	51	104	0	79	21715
2026-01-01 06:03:15.99	46.91	9.49	-53.7	-57.1	3.7	0.00e+00	0	51	104	0	78	21939
2026-01-01 06:03:17.99	46.39	9.47	-52.6	-55.5	3.6	0.00e+00	0	51	104	0	76	20535
2026-01-01 06:03:20.00	45.88	9.46	-52.6	-55.3	3.7	0.00e+00	0	51	104	0	76	20050
2026-01-01 06:03:22.00	45.37	9.44	-53.5	-56.5	3.7	0.00e+00	0	51	104	0	77	21625
2026-01-01 06:03:24.01	44.85	9.42	-54.5	-58.4	3.7	0.00e+00	0	51	104	0	79	24091
2026-01-01 06:03:26.01	44.34	9.40	-51.3	-53.6	3.7	0.00e+00	0	51	104	0	74	18419
2026-01-01 06:03:28.02	43.83	9.38	-51.9	-54.4	3.7	0.00e+00	0	51	104	0	74	20244
2026-01-01 06:03:30.02	43.32	9.35	-50.5	-52.6	3.7	0.00e+00	0	51	104	0	73	17501
2026-01-01 06:03:32.03	42.82	9.33	-49.1	-50.9	3.6	0.00e+00	0	51	104	0	70	16993
2026-01-01 06:03:34.03	42.31	9.30	-52.0	-54.5	3.6	0.00e+00	0	51	104	0	76	18251
2026-01-01 06:03:36.04	41.80	9.27	-52.7	-55.6	3.7	0.00e+00	0	51	104	0	77	19480
2026-01-01 06:03:38.04	41.30	9.24	-53.6	-57.0	3.7	0.00e+00	0	51	104	0	78	21659
2026-01-01 06:03:40.05	40.80	9.20	-53.0	-56.1	3.7	0.00e+00	0	51	104	0	78	19527
2026-01-01 06:03:42.06	40.29	9.17	-47.2	-48.8	3.6	0.00e+00	0	51	104	0	66	16875
2026-01-01 06:03:44.06	39.80	9.13	-51.7	-54.1	3.8	0.00e+00	0	51	104	0	74	19544
2026-01-01 06:03:46.10	39.29	9.09	-54.0	-57.5	3.7	0.00e+00	0	51	104	0	78	23032
2026-01-01 06:03:48.11	38.79	9.05	-52.7	-55.4	4.0	0.00e+00	0	51	104	0	77	19210
2026-01-01 06:03:50.29	38.25	9.01	-46.2	-47.8	3.4	0.00e+00	0	51	104	0	63	17846
2026-01-01 06:03:52.29	37.76	8.96	-52.0	-54.3	3.7	0.00e+00	0	51	104	0	76	17888
2026-01-01 06:03:54.30	37.27	8.92	-54.1	-57.5	3.7	0.00e+00	0	51	104	0	80	20537
2026-01-01 06:03:56.31	36.78	8.87	-55.8	-60.1	3.7	0.00e+00	0	51	104	0	82	24531
2026-01-01 06:03:58.31	36.30	8.82	-55.5	-59.7	3.7	0.00e+00	0	51	104	0	81	24918
2026-01-01 06:04:00.32	35.81	8.77	-56.0	-60.5	3.7	0.00e+00	0	51	104	0	82	25945
2026-01-01 06:04:02.33	35.33	8.72	-56.1	-60.8	3.7	0.00e+00	0	51	104	0	83	25301
2026-01-01 06:04:04.34	34.85	8.67	-56.1	-60.6	3.7	0.00e+00	0	51	104	0	83	24634
2026-01-01 06:04:06.35	34.37	8.62	-56.2	-60.8	3.7	0.00e+00	0	51	104	0	82	26732
2026-01-01 06:04:08.36	33.89	8.56	-55.2	-60.0	3.7	0.00e+00	0	51	104	0	82	24382
2026-01-01 06:04:10.36	33.42	8.50	-55.3	-59.7	3.7	0.00e+00	0	51	104	0	82	23527
2026-01-01 06:04:12.38	32.94	8.45	-55.7	-60.2	3.7	0.00e+00	0	51	104	0	82	24960
2026-01-01 06:04:14.38	32.48	8.39	-55.7	-60.2	3.7	0.00e+00	0	51	104	0	82	24837
2026-01-01 06:04:16.39	32.01	8.33	-55.7	-60.1	3.7	0.00e+00	0	51	104	0	82	24777
2026-01-01 06:04:18.40	31.54	8.26	-55.7	-60.1	3.7	0.00e+00	0	51	104	0	82	24772
2026-01-01 06:04:20.41	31.08	8.20	-55.6	-60.1	3.7	0.00e+00	0	51	104	0	82	24764
2026-01-01 06:04:22.42	30.62	8.14	-55.6	-60.1	3.7	0.00e+00	0	51	104	0	82	24731
2026-01-01 06:04:24.43	30.17	8.07	-55.6	-60.1	3.7	0.00e+00	0	51	104	0	82	24678
2026-01-01 06:04:26.43	29.71	8.00	-55.6	-60.1	3.7	0.00e+00	0	51	104	0	82	24614
2026-01-01 06:04:28.44	29.26	7.93	-55.6	-60.1	3.7	0.00e+00	0	51	104	0	82	24646
2026-01-01 06:04:30.45	28.81	7.87	-55.6	-60.1	3.7	0.00e+00	0	51	104	0	82	24695
2026-01-01 06:04:32.46	28.37	7.79	-55.6	-60.1	3.7	0.00e+00	0	51	104	0	82	24648
2026-01-01 06:04:34.46	27.93	7.72	-55.6	-60.1	3.7	0.00e+00	0	51	104	0	82	24573
2026-01-01 06:04:36.47	27.49	7.65	-55.6	-60.1	3.7	0.00e+00	0	51	104	0	82	24726
2026-01-01 06:04:38.48	27.05	7.58	-55.6	-60.1	3.7	0.00e+00	0	51	104	0	82	24635
2026-01-01 06:04:40.49	26.61	7.50	-55.6	-60.1	3.7	0.00e+00	0	51	104	0	82	24708
2026-01-01 06:04:42.50	26.18	7.43	-55.6	-60.1	3.7	0.00e+00	0	51	104	0	82	24597
2026-01-01 06:04:44.51	25.75	7.35	-55.6	-60.1	3.7	0.00e+00	0	51	104	0	82	24555
2026-01-01 06:04:46.51	25.33	7.27	-55.6	-60.1	3.7	0.00e+00	0	51	104	0	82	24575
2026-01-01 06:04:48.52	24.91	7.20	-55.6	-60.1	3.7	0.00e+00	0	51	104	0	82	24725
2026-01-01 06:04:50.53	24.49	7.12	-55.6	-60.1	3.7	0.00e+00	0	51	104	0	82	24727
2026-01-01 06:04:52.53	24.07	7.04	-55.6	-60.1	3.7	0.00e+00	0	51	104	0	82	24684
2026-01-01 06:04:54.54	23.66	6.96	-55.6	-60.1	3.7	0.00e+00	0	51	104	0	82	24739
2026-01-01 06:04:56.55	23.24	6.87	-55.6	-60.0	3.7	0.00e+00	0	52	104	0	82	24522
2026-01-01 06:04:58.56	22.84	6.79	-55.6	-60.1	3.7	0.00e+00	0	51	104	0	82	24641
2026-01-01 06:05:00.57	22.43	6.71	-55.6	-60.1	3.7	0.00e+00	0	51	104	0	82	24635
2026-01-01 06:05:02.58	22.03	6.62	-55.5	-60.0	3.7	0.00e+00	0	51	104	0	82	24492
2026-01-01 06:05:04.58	21.63	6.54	-55.6	-60.1	3.7	0.00e+00	0	51	104	0	82	24577
2026-01-01 06:05:06.60	21.23	6.45	-55.6	-60.1	3.7	0.00e+00	0	51	104	0	82	24598
2026-01-01 06:05:08.60	20.84	6.37	-55.5	-60.0	3.7	0.00e+00	0	51	104	0	82	24480
2026-01-01 06:05:10.61	20.45	6.28	-55.6	-60.0	3.7	0.00e+00	0	51	104	0	82	24505
2026-01-01 06:05:12.62	20.06	6.19	-55.6	-60.1	3.7	0.00e+00	0	51	104	0	82	24537
2026-01-01 06:05:14.63	19.68	6.11	-55.5	-60.0	3.7	0.00e+00	0	51	104	0	82	24431
2026-01-01 06:05:16.63	19.30	6.02	-55.5	-60.0	3.7	0.00e+00	0	52	104	0	82	24433
2026-01-01 06:05:18.64	18.92	5.93	-55.5	-60.0	3.7	0.00e+00	0	51	104	0	82	24490
2026-01-01 06:05:20.65	18.55	5.84	-55.5	-60.0	3.7	0.00e+00	0	51	104	0	82	24416
2026-01-01 06:05:22.66	18.17	5.75	-55.5	-60.0	3.7	0.00e+00	0	51	104	0	82	24432
2026-01-01 06:05:24.67	17.80	5.66	-55.5	-60.0	3.7	0.00e+00	0	51	104	0	82	24456
2026-01-01 06:05:26.68	17.44	5.57	-55.5	-60.0	3.7	0.00e+00	0	52	104	0	82	24272
2026-01-01 06:05:28.68	17.08	5.48	-55.5	-59.9	3.7	0.00e+00	0	51	104	0	82	24190
2026-01-0