passes_logs/2026/01/01/T1/T1__20260101_064802_FENGYUN_3E_rec.log

#Pass ID: 20260101_064802_FENGYUN 3E
#Satellite: FENGYUN 3E
#Configuration: FENGYUN 3E
#almurnet v.1.7.20251203
#Start time: 2026-01-01 06:48:02

#Version: 2.0.20230620
#Station: T1
#Location: 37.570604 lon 55.790049 lat
#TLE: 1 49008U 21062A   25365.55977344  .00000403  00000+0  21051-3 0  9995
#TLE: 2 49008  98.7483   5.8586 0001311 170.0615 190.0588 14.19883886232790

#Time	Az	El	Level	Level2	SNR	BER	BlckErr	Temp	State	Recorded	gain1	gain2
2026-01-01 06:48:02.42	359.19	5.02	-51.1	-63.0	3.8	8.47e-01	0	40	0	0	72	14286
2026-01-01 06:48:04.42	358.94	5.10	-50.1	-63.0	3.8	8.48e-01	0	41	104	0	70	15959
2026-01-01 06:48:06.43	358.69	5.18	-50.1	-62.9	3.8	8.47e-01	0	41	104	0	70	15929
2026-01-01 06:48:08.44	358.43	5.26	-50.1	-62.8	3.8	8.47e-01	0	41	104	0	70	15735
2026-01-01 06:48:10.45	358.18	5.34	-50.1	-62.9	3.8	8.47e-01	0	41	104	0	70	15823
2026-01-01 06:48:12.46	357.92	5.42	-50.1	-62.8	3.8	8.46e-01	0	41	104	0	70	15715
2026-01-01 06:48:14.47	357.66	5.50	-50.1	-62.8	3.8	8.47e-01	0	41	104	0	70	15742
2026-01-01 06:48:16.48	357.40	5.58	-50.1	-63.0	3.8	8.47e-01	0	41	104	0	70	16028
2026-01-01 06:48:18.48	357.14	5.66	-50.1	-62.9	3.8	8.48e-01	0	41	104	0	70	15926
2026-01-01 06:48:20.49	356.88	5.74	-50.1	-62.9	3.8	8.46e-01	0	41	104	0	70	15821
2026-01-01 06:48:22.50	356.62	5.81	-50.1	-62.8	3.8	8.46e-01	0	41	104	0	70	15734
2026-01-01 06:48:24.51	356.35	5.89	-50.1	-62.9	3.8	8.46e-01	0	41	104	0	70	15821
2026-01-01 06:48:26.52	356.08	5.97	-50.1	-62.8	3.8	8.47e-01	0	42	104	0	70	15743
2026-01-01 06:48:28.53	355.82	6.04	-50.1	-62.9	3.8	8.47e-01	0	42	104	0	70	15856
2026-01-01 06:48:30.54	355.55	6.12	-50.1	-62.8	3.8	8.47e-01	0	42	104	0	70	15730
2026-01-01 06:48:32.55	355.27	6.20	-50.1	-62.9	3.8	8.47e-01	0	42	104	0	70	15836
2026-01-01 06:48:34.55	355.00	6.27	-50.0	-62.8	3.8	8.47e-01	0	42	104	0	70	15720
2026-01-01 06:48:36.56	354.73	6.35	-50.1	-62.9	3.8	8.47e-01	0	42	104	0	70	15895
2026-01-01 06:48:38.57	354.45	6.42	-50.1	-62.9	3.8	8.47e-01	0	42	104	0	70	15797
2026-01-01 06:48:40.58	354.18	6.50	-50.1	-62.9	3.8	8.46e-01	0	42	104	0	70	15850
2026-01-01 06:48:42.59	353.90	6.57	-50.1	-62.9	3.8	8.47e-01	0	42	104	0	70	15821
2026-01-01 06:48:44.60	353.62	6.64	-50.1	-62.9	3.8	8.48e-01	0	42	104	0	70	15925
2026-01-01 06:48:46.61	353.34	6.72	-50.1	-62.9	3.8	8.46e-01	0	42	104	0	70	15812
2026-01-01 06:48:48.61	353.05	6.79	-50.1	-62.9	3.8	8.46e-01	0	42	104	0	70	15819
2026-01-01 06:48:50.62	352.77	6.86	-50.1	-62.9	3.8	8.47e-01	0	42	104	0	70	15886
2026-01-01 06:48:52.63	352.48	6.93	-50.1	-62.9	3.8	8.47e-01	0	42	104	0	70	15837
2026-01-01 06:48:54.64	352.20	7.01	-50.1	-62.9	3.8	8.47e-01	0	42	104	0	70	15821
2026-01-01 06:48:56.65	351.91	7.08	-50.1	-62.9	3.8	8.47e-01	0	42	104	0	70	15898
2026-01-01 06:48:58.66	351.62	7.15	-50.1	-62.9	3.8	8.46e-01	0	42	104	0	70	15834
2026-01-01 06:49:00.67	351.33	7.22	-50.2	-62.9	3.8	8.46e-01	0	42	104	0	70	15940
2026-01-01 06:49:02.67	351.03	7.29	-50.1	-62.8	3.8	8.48e-01	0	42	104	0	70	15733
2026-01-01 06:49:04.68	350.74	7.35	-50.1	-62.9	3.8	8.47e-01	0	42	104	0	70	15835
2026-01-01 06:49:06.69	350.44	7.42	-50.1	-62.9	3.8	8.48e-01	0	42	104	0	70	15876
2026-01-01 06:49:08.70	350.15	7.49	-50.1	-62.9	3.8	8.47e-01	0	42	104	0	70	15813
2026-01-01 06:49:10.71	349.85	7.56	-50.2	-62.9	3.8	8.47e-01	0	42	104	0	70	15913
2026-01-01 06:49:12.71	349.55	7.62	-50.1	-63.0	3.8	8.47e-01	0	42	104	0	70	16065
2026-01-01 06:49:14.72	349.25	7.69	-50.2	-63.1	3.8	8.47e-01	0	42	104	0	70	16154
2026-01-01 06:49:16.73	348.94	7.76	-50.3	-63.0	3.8	8.47e-01	0	42	104	0	70	15992
2026-01-01 06:49:18.74	348.64	7.82	-50.2	-63.0	3.8	8.46e-01	0	42	104	0	70	15956
2026-01-01 06:49:20.75	348.33	7.88	-50.2	-62.8	3.8	8.48e-01	0	43	104	0	70	15693
2026-01-01 06:49:22.76	348.03	7.95	-50.1	-62.8	3.8	8.47e-01	0	43	104	0	70	15743
2026-01-01 06:49:24.76	347.72	8.01	-50.1	-62.8	3.8	8.47e-01	0	43	104	0	70	15692
2026-01-01 06:49:26.77	347.41	8.07	-50.1	-62.8	3.8	8.47e-01	0	42	104	0	70	15730
2026-01-01 06:49:28.78	347.10	8.14	-50.1	-62.8	3.8	8.47e-01	0	42	104	0	70	15608
2026-01-01 06:49:30.79	346.79	8.20	-50.1	-62.9	3.8	8.47e-01	0	43	104	0	70	15904
2026-01-01 06:49:32.80	346.47	8.26	-50.1	-62.9	3.8	8.46e-01	0	42	104	0	70	15791
2026-01-01 06:49:34.81	346.16	8.32	-50.1	-62.8	3.8	8.47e-01	0	43	104	0	70	15688
2026-01-01 06:49:36.82	345.84	8.38	-50.1	-62.8	3.8	8.48e-01	0	43	104	0	70	15597
2026-01-01 06:49:38.83	345.52	8.43	-50.1	-62.8	3.8	8.47e-01	0	43	104	0	70	15718
2026-01-01 06:49:40.84	345.20	8.49	-50.1	-62.6	3.8	8.45e-01	0	43	104	0	70	15350
2026-01-01 06:49:42.84	344.88	8.55	-50.2	-62.5	3.8	8.48e-01	0	43	104	0	70	15180
2026-01-01 06:49:44.86	344.56	8.61	-50.2	-63.0	3.8	8.46e-01	0	43	104	0	70	15950
2026-01-01 06:49:46.86	344.24	8.66	-50.1	-61.6	3.8	8.47e-01	0	43	104	0	70	13705
2026-01-01 06:49:48.87	343.92	8.72	-49.9	-59.8	4.1	8.41e-01	0	43	0	0	70	11057
2026-01-01 06:49:50.88	343.59	8.77	-49.8	-59.2	4.3	8.35e-01	0	43	0	0	70	10301
2026-01-01 06:49:52.89	343.26	8.82	-49.7	-58.3	4.6	8.20e-01	0	43	0	0	70	9349
2026-01-01 06:49:54.90	342.93	8.88	-49.3	-56.3	5.8	7.10e-01	0	43	0	0	69	7839
2026-01-01 06:49:56.91	342.61	8.93	-47.8	-52.1	9.5	3.05e-02	0	43	0	14680064	66	5771
2026-01-01 06:49:58.92	342.28	8.98	-45.6	-48.1	13.8	2.28e-05	0	43	0	29360128	62	4558
2026-01-01 06:50:00.92	341.95	9.03	-45.1	-47.2	14.5	2.20e-06	0	43	0	44040192	59	4882
2026-01-01 06:50:02.93	341.61	9.08	-43.1	-44.7	17.0	0.00e+00	0	43	0	55574528	56	4356
2026-01-01 06:50:04.93	341.28	9.13	-42.6	-44.1	17.6	0.00e+00	0	43	0	70254592	56	4077
2026-01-01 06:50:06.94	340.95	9.17	-42.8	-44.2	17.5	0.00e+00	0	43	0	84934656	56	4142
2026-01-01 06:50:08.91	340.62	9.22	-42.9	-44.3	17.4	0.00e+00	0	43	0	98566144	56	4149
2026-01-01 06:50:10.91	340.28	9.26	-42.8	-44.2	17.5	0.00e+00	0	43	0	113246208	56	4103
2026-01-01 06:50:12.92	339.94	9.31	-42.7	-44.1	17.6	0.00e+00	0	43	0	127926272	56	4074
2026-01-01 06:50:14.92	339.60	9.35	-42.7	-44.0	17.7	0.00e+00	0	43	0	142606336	56	4045
2026-01-01 06:50:16.93	339.26	9.40	-42.7	-44.1	17.6	0.00e+00	0	43	0	156237824	56	4057
2026-01-01 06:50:18.93	338.92	9.44	-42.8	-44.2	17.6	0.00e+00	0	43	0	170917888	56	4102
2026-01-01 06:50:20.93	338.58	9.48	-42.7	-44.1	17.7	0.00e+00	0	43	0	185597952	56	4056
2026-01-01 06:50:22.93	338.24	9.52	-42.6	-44.1	17.6	0.00e+00	0	43	0	200278016	56	4059
2026-01-01 06:50:24.93	337.90	9.56	-42.8	-44.2	17.5	0.00e+00	0	43	0	214958080	56	4119
2026-01-01 06:50:26.93	337.56	9.60	-42.9	-44.3	17.4	0.00e+00	0	43	0	228589568	56	4178
2026-01-01 06:50:28.94	337.21	9.64	-43.0	-44.4	17.4	0.00e+00	0	43	0	243269632	56	4212
2026-01-01 06:50:30.94	336.86	9.67	-42.9	-44.3	17.5	0.00e+00	0	43	0	257949696	56	4175
2026-01-01 06:50:32.95	336.52	9.71	-42.7	-44.1	17.6	0.00e+00	0	43	0	272629760	56	4084
2026-01-01 06:50:34.96	336.17	9.75	-42.6	-43.9	17.8	0.00e+00	0	43	0	286261248	56	3995
2026-01-01 06:50:36.96	335.82	9.78	-42.4	-43.7	17.9	0.00e+00	0	43	0	300941312	55	4124
2026-01-01 06:50:38.96	335.47	9.81	-42.4	-43.7	17.8	0.00e+00	0	43	0	315621376	55	4141
2026-01-01 06:50:40.97	335.12	9.84	-42.4	-43.6	17.8	0.00e+00	0	43	0	330301440	55	4098
2026-01-01 06:50:42.97	334.77	9.88	-42.5	-43.7	17.8	0.00e+00	0	43	0	344981504	55	4133
2026-01-01 06:50:44.98	334.42	9.91	-42.6	-43.9	17.7	0.00e+00	0	43	0	359661568	55	4207
2026-01-01 06:50:46.99	334.06	9.93	-42.8	-44.0	17.5	0.00e+00	0	43	0	373293056	55	4287
2026-01-01 06:50:48.99	333.71	9.96	-42.8	-44.1	17.5	0.00e+00	0	43	0	387973120	55	4312
2026-01-01 06:50:50.99	333.36	9.99	-42.7	-44.0	17.5	0.00e+00	0	43	0	402653184	55	4275
2026-01-01 06:50:53.00	333.00	10.02	-42.7	-43.9	17.6	0.00e+00	0	43	0	417333248	55	4235
2026-01-01 06:50:55.00	332.65	10.04	-42.5	-43.7	17.7	0.00e+00	0	43	0	430964736	55	4132
2026-01-01 06:50:57.01	332.29	10.06	-42.4	-43.7	17.7	0.00e+00	0	43	0	445644800	55	4114
2026-01-01 06:50:59.01	331.93	10.09	-42.5	-43.8	17.7	0.00e+00	0	43	0	460324864	55	4155
2026-01-01 06:51:01.02	331.58	10.11	-42.5	-43.8	17.7	0.00e+00	0	43	0	475004928	55	4185
2026-01-01 06:51:03.03	331.22	10.13	-42.5	-43.8	17.8	0.00e+00	0	43	0	489684992	55	4167
2026-01-01 06:51:05.03	330.86	10.15	-42.6	-43.8	17.8	0.00e+00	0	43	0	504365056	55	4184
2026-01-01 06:51:07.03	330.50	10.17	-42.3	-43.5	18.0	0.00e+00	0	43	0	517996544	55	4042
2026-01-01 06:51:09.04	330.14	10.19	-42.1	-43.3	18.2	0.00e+00	0	43	0	532676608	54	4175
2026-01-01 06:51:11.04	329.78	10.20	-42.0	-43.2	18.3	0.00e+00	0	43	0	547356672	54	4111
2026-01-01 06:51:13.05	329.42	10.22	-41.9	-43.1	18.2	0.00e+00	0	43	0	562036736	54	4089
2026-01-01 06:51:15.06	329.06	10.23	-42.1	-43.2	18.2	0.00e+00	0	43	0	575668224	54	4144
2026-01-01 06:51:17.19	328.68	10.25	-42.2	-43.4	18.1	0.00e+00	0	43	0	591396864	54	4218
2026-01-01 06:51:19.19	328.32	10.26	-42.3	-43.5	18.0	0.00e+00	0	43	0	606076928	54	4269
2026-01-01 06:51:21.20	327.96	10.27	-42.4	-43.6	18.0	0.00e+00	0	43	0	620756992	54	4317
2026-01-01 06:51:23.20	327.59	10.28	-42.5	-43.7	17.9	0.00e+00	0	43	0	635437056	54	4372
2026-01-01 06:51:25.26	327.22	10.29	-42.5	-43.7	18.0	0.00e+00	0	43	0	650117120	54	4355
2026-01-01 06:51:27.26	326.86	10.30	-42.4	-43.5	18.2	0.00e+00	0	43	0	663748608	54	4271
2026-01-01 06:51:29.27	326.50	10.30	-42.4	-43.6	18.1	0.00e+00	0	43	0	678428672	54	4318
2026-01-01 06:51:31.28	326.13	10.31	-42.4	-43.7	18.1	0.00e+00	0	43	0	693108736	54	4363
2026-01-01 06:51:33.43	325.75	10.31	-42.4	-43.7	18.0	0.00e+00	0	43	0	708837376	54	4375
2026-01-01 06:51:35.59	325.35	10.32	-42.4	-43.7	18.0	0.00e+00	0	43	0	724566016	54	4378
2026-01-01 06:51:37.77	324.96	10.32	-42.3	-43.6	18.0	0.00e+00	0	43	0	740294656	54	4336
2026-01-01 06:51:39.98	324.56	10.32	-42.2	-43.7	18.0	0.00e+00	0	43	0	756023296	54	4347
2026-01-01 06:51:42.13	324.17	10.32	-42.1	-43.5	18.2	0.00e+00	0	43	0	771751936	54	4261
2026-01-01 06:51:44.67	323.71	10.32	-42.3	-43.7	18.0	0.00e+00	0	43	0	789577728	54	4359
2026-01-01 06:51:46.67	323.35	10.31	-42.3	-43.7	18.0	0.00e+00	0	43	0	804257792	54	4373
2026-01-01 06:51:48.68	322.99	10.31	-42.3	-43.7	18.0	0.00e+00	0	43	0	818937856	54	4365
2026-01-01 06:51:50.69	322.62	10.31	-42.4	-43.7	18.0	0.00e+00	0	43	0	833617920	54	4377
2026-01-01 06:51:52.66	322.27	10.30	-42.5	-43.7	18.0	0.00e+00	0	43	0	847249408	54	4364
2026-01-01 06:51:54.71	321.89	10.29	-42.4	-43.6	18.1	0.00e+00	0	43	0	861929472	54	4321
2026-01-01 06:51:56.93	321.49	10.28	-42.5	-43.6	18.1	0.00e+00	0	43	0	878706688	54	4335
2026-01-01 06:51:59.00	321.12	10.27	-42.4	-43.6	18.1	0.00e+00	0	43	0	893386752	54	4306
2026-01-01 06:52:01.00	320.76	10.26	-42.6	-43.8	17.9	0.00e+00	0	43	0	908066816	54	4408
2026-01-01 06:52:03.01	320.40	10.25	-42.7	-43.9	17.8	0.00e+00	0	43	0	922746880	54	4492
2026-01-01 06:52:05.01	320.04	10.24	-42.7	-44.0	17.7	0.00e+00	0	43	0	936378368	55	4261
2026-01-01 06:52:07.12	319.66	10.22	-42.8	-44.1	17.6	0.00e+00	0	43	0	952107008	55	4334
2026-01-01 06:52:09.31	319.26	10.21	-42.8	-44.2	17.6	0.00e+00	0	43	0	967835648	55	4345
2026-01-01 06:52:11.32	318.90	10.19	-42.7	-44.0	17.7	0.00e+00	0	43	0	982515712	55	4250
2026-01-01 06:52:13.33	318.54	10.17	-42.7	-44.0	17.7	0.00e+00	0	43	0	997195776	55	4246
2026-01-01 06:52:15.33	318.18	10.15	-42.8	-44.1	17.6	0.00e+00	0	43	0	1011875840	55	4335
2026-01-01 06:52:17.34	317.82	10.13	-42.9	-44.2	17.5	0.00e+00	0	43	0	1025507328	55	4353
2026-01-01 06:52:19.59	317.42	10.11	-42.9	-44.2	17.5	0.00e+00	0	43	0	1042284544	55	4363
2026-01-01 06:52:21.62	317.06	10.09	-43.0	-44.3	17.3	0.00e+00	0	43	0	1056964608	55	4414
2026-01-01 06:52:23.84	316.66	10.06	-43.0	-44.3	17.5	0.00e+00	0	43	0	1072693248	55	4395
2026-01-01 06:52:26.06	316.27	10.04	-43.0	-44.3	17.4	0.00e+00	0	42	0	1088421888	55	4393
2026-01-01 06:52:28.24	315.88	10.01	-42.5	-43.6	17.8	0.00e+00	0	42	0	1104150528	55	4095
2026-01-01 06:52:30.41	315.50	9.98	-42.3	-43.6	17.6	0.00e+00	0	43	0	1119879168	55	4055
2026-01-01 06:52:32.59	315.11	9.95	-42.3	-43.6	17.6	0.00e+00	0	42	0	1135607808	55	4079
2026-01-01 06:52:34.76	314.73	9.92	-42.3	-43.7	17.5	0.00e+00	0	42	0	1151336448	55	4108
2026-01-01 06:52:37.13	314.31	9.89	-42.3	-43.6	17.6	0.00e+00	0	43	0	1169162240	55	4080
2026-01-01 06:52:39.32	313.93	9.85	-42.3	-43.6	17.6	0.00e+00	0	42	0	1183842304	55	4056
2026-01-01 06:52:41.51	313.54	9.82	-42.3	-43.6	17.5	0.00e+00	0	43	0	1200619520	55	4082
2026-01-01 06:52:43.68	313.17	9.78	-42.4	-43.6	17.6	0.00e+00	0	42	0	1216348160	55	4095
2026-01-01 06:52:46.03	312.76	9.74	-42.3	-43.5	17.7	0.00e+00	0	43	0	1233125376	55	4045
2026-01-01 06:52:48.52	312.32	9.70	-42.5	-43.8	17.4	0.00e+00	0	43	0	1250951168	55	4150
2026-01-01 06:52:50.56	311.97	9.66	-42.6	-43.9	17.3	0.00e+00	0	43	0	1265631232	55	4199
2026-01-01 06:52:52.56	311.62	9.62	-42.8	-44.1	17.1	0.00e+00	0	43	0	1280311296	55	4301
2026-01-01 06:52:54.57	311.28	9.59	-42.8	-44.1	17.0	0.00e+00	0	43	0	1293942784	55	4327
2026-01-01 06:52:56.58	310.93	9.55	-42.8	-44.1	17.1	0.00e+00	0	43	0	1309671424	55	4314
2026-01-01 06:52:58.58	310.59	9.51	-42.8	-44.1	17.1	0.00e+00	0	43	0	1323302912	55	4304
2026-01-01 06:53:00.58	310.25	9.47	-42.9	-44.2	17.0	0.00e+00	0	42	0	1337982976	55	4344
2026-01-01 06:53:02.95	309.84	9.42	-42.9	-44.2	17.0	0.00e+00	0	43	0	1354760192	55	4374
2026-01-01 06:53:04.99	309.49	9.37	-43.0	-44.4	16.8	0.00e+00	0	43	0	1369440256	55	4444
2026-01-01 06:53:07.00	309.15	9.33	-42.9	-44.2	16.9	0.00e+00	0	42	0	1384120320	55	4388
2026-01-01 06:53:09.00	308.82	9.28	-43.1	-44.4	16.8	0.00e+00	0	43	0	1398800384	55	4472
2026-01-01 06:53:11.04	308.47	9.24	-43.0	-44.4	16.8	0.00e+00	0	43	0	1413480448	55	4449
2026-01-01 06:53:13.12	308.12	9.19	-43.0	-44.3	16.9	0.00e+00	0	42	0	1428160512	55	4421
2026-01-01 06:53:15.20	307.78	9.14	-43.0	-44.3	16.8	0.00e+00	0	43	0	1443889152	55	4428
2026-01-01 06:53:17.28	307.43	9.09	-43.1	-44.4	16.7	0.00e+00	0	43	0	1458569216	55	4470
2026-01-01 06:53:19.27	307.10	9.04	-43.2	-44.6	16.6	0.00e+00	0	42	0	1472200704	55	4560
2026-01-01 06:53:21.28	306.77	8.99	-51.6	-62.2	3.8	8.44e-01	0	42	104	1484783616	72	13027
2026-01-01 06:53:23.28	306.44	8.94	-51.9	-62.9	3.8	8.47e-01	0	43	104	1484783616	73	13383
2026-01-01 06:53:25.29	306.10	8.89	-52.2	-63.1	3.8	8.49e-01	0	43	104	1484783616	73	13625
2026-01-01 06:53:27.30	305.78	8.84	-52.4	-63.2	3.8	8.47e-01	0	43	104	1484783616	74	13062
2026-01-01 06:53:29.31	305.45	8.79	-52.2	-63.3	3.8	8.47e-01	0	43	104	1484783616	74	13129
2026-01-01 06:53:31.32	305.12	8.73	-52.5	-63.3	3.8	8.46e-01	0	43	104	1484783616	74	13215
2026-01-01 06:53:33.33	304.79	8.68	-52.4	-63.4	3.8	8.46e-01	0	43	104	1484783616	74	13298
2026-01-01 06:53:35.34	304.47	8.62	-52.4	-63.3	3.8	8.46e-01	0	43	104	1484783616	74	13206
2026-01-01 06:53:37.35	304.15	8.56	-52.4	-63.3	3.8	8.47e-01	0	43	104	1484783616	74	13121
2026-01-01 06:53:39.35	303.83	8.51	-52.4	-63.3	3.8	8.46e-01	0	43	104	1484783616	74	13217
2026-01-01 06:53:41.36	303.51	8.45	-52.3	-63.2	3.8	8.47e-01	0	43	104	1484783616	74	13105
2026-01-01 06:53:43.37	303.19	8.39	-52.2	-63.3	3.8	8.46e-01	0	43	104	1484783616	74	13169
2026-01-01 06:53:45.38	302.87	8.33	-52.3	-63.3	3.8	8.47e-01	0	43	104	1484783616	74	13116
2026-01-01 06:53:47.38	302.55	8.27	-52.3	-63.3	3.8	8.48e-01	0	43	104	1484783616	74	13111
2026-01-01 06:53:49.39	302.24	8.21	-52.2	-63.2	3.8	8.47e-01	0	43	104	1484783616	74	13019
2026-01-01 06:53:51.40	301.92	8.15	-52.2	-63.3	3.8	8.47e-01	0	43	104	1484783616	74	13162
2026-01-01 06:53:53.41	301.61	8.09	-52.3	-63.3	3.8	8.45e-01	0	43	104	1484783616	74	13171
2026-01-01 06:53:55.42	301.30	8.03	-52.2	-63.3	3.8	8.47e-01	0	43	104	1484783616	74	13120
2026-01-01 06:53:57.43	300.99	7.97	-52.2	-63.2	3.8	8.47e-01	0	42	104	1484783616	74	13109
2026-01-01 06:53:59.44	300.68	7.90	-52.3	-63.2	3.8	8.47e-01	0	43	104	1484783616	74	13081
2026-01-01 06:54:01.44	300.37	7.84	-52.3	-63.3	3.8	8.46e-01	0	43	104	1484783616	74	13130
2026-01-01 06:54:03.45	300.07	7.77	-52.3	-63.3	3.8	8.47e-01	0	43	104	1484783616	74	13189
2026-01-01 06:54:05.46	299.76	7.71	-52.3	-63.3	3.8	8.46e-01	0	43	104	1484783616	74	13196
2026-01-01 06:54:07.47	299.46	7.64	-52.3	-63.2	3.8	8.47e-01	0	43	104	1484783616	74	13082
2026-01-01 06:54:09.48	299.16	7.58	-52.3	-63.3	3.8	8.46e-01	0	43	104	1484783616	74	13120
2026-01-01 06:54:11.49	298.86	7.51	-52.3	-63.3	3.8	8.46e-01	0	43	104	1484783616	74	13121
2026-01-01 06:54:13.50	298.56	7.44	-52.3	-63.2	3.8	8.48e-01	0	43	104	1484783616	74	13099
2026-01-01 06:54:15.51	298.26	7.37	-52.3	-63.2	3.8	8.47e-01	0	43	104	1484783616	74	13048
2026-01-01 06:54:17.52	297.96	7.30	-52.3	-63.3	3.8	8.47e-01	0	43	104	1484783616	74	13138
2026-01-01 06:54:19.53	297.67	7.23	-52.3	-63.2	3.8	8.46e-01	0	43	104	1484783616	74	13091
2026-01-01 06:54:21.53	297.38	7.16	-52.3	-63.2	3.8	8.46e-01	0	43	104	1484783616	74	13010
2026-01-01 06:54:23.54	297.08	7.09	-52.3	-63.3	3.8	8.47e-01	0	42	104	1484783616	74	13112
2026-01-01 06:54:25.55	296.79	7.02	-52.3	-63.3	3.8	8.48e-01	0	42	104	1484783616	74	13245
2026-01-01 06:54:27.56	296.51	6.95	-52.3	-63.4	3.8	8.46e-01	0	43	104	1484783616	74	13315
2026-01-01 06:54:29.57	296.22	6.88	-52.4	-63.4	3.8	8.47e-01	0	42	104	1484783616	74	13381
2026-01-01 06:54:31.58	295.93	6.81	-52.4	-63.4	3.8	8.47e-01	0	43	104	1484783616	74	13278
2026-01-01 06:54:33.59	295.65	6.73	-52.4	-63.5	3.8	8.46e-01	0	42	104	1484783616	74	13418
2026-01-01 06:54:35.60	295.36	6.66	-52.5	-63.5	3.8	8.46e-01	0	43	104	1484783616	74	13564
2026-01-01 06:54:37.61	295.08	6.59	-52.4	-63.4	3.8	8.46e-01	0	42	104	1484783616	74	13360
2026-01-01 06:54:39.61	294.80	6.51	-52.5	-63.5	3.8	8.48e-01	0	42	104	1484783616	74	13432
2026-01-01 06:54:41.62	294.52	6.44	-52.4	-63.5	3.8	8.48e-01	0	43	104	1484783616	74	13449
2026-01-01 06:54:43.63	294.24	6.36	-52.4	-63.4	3.8	8.48e-01	0	43	104	1484783616	74	13328
2026-01-01 06:54:45.64	293.97	6.29	-52.4	-63.3	3.8	8.46e-01	0	43	104	1484783616	74	13235
2026-01-01 06:54:47.65	293.69	6.21	-52.5	-63.4	3.8	8.47e-01	0	42	104	1484783616	74	13408
2026-01-01 06:54:49.66	293.42	6.14	-52.5	-63.5	3.8	8.47e-01	0	42	104	1484783616	74	13500
2026-01-01 06:54:51.66	293.15	6.06	-52.6	-63.5	3.8	8.47e-01	0	42	104	1484783616	74	13520
2026-01-01 06:54:53.67	292.88	5.98	-52.6	-63.6	3.8	8.46e-01	0	43	104	1484783616	74	13631
2026-01-01 06:54:55.68	292.61	5.91	-52.5	-63.5	3.8	8.47e-01	0	42	104	1484783616	74	13537
2026-01-01 06:54:57.69	292.34	5.83	-52.5	-63.5	3.8	8.46e-01	0	43	104	1484783616	74	13428
2026-01-01 06:54:59.70	292.08	5.75	-52.4	-63.4	3.8	8.47e-01	0	42	104	1484783616	74	13388
2026-01-01 06:55:01.71	291.81	5.67	-52.5	-63.4	3.8	8.47e-01	0	43	104	1484783616	74	13409
2026-01-01 06:55:03.72	291.55	5.60	-52.5	-63.5	3.8	8.48e-01	0	43	104	1484783616	74	13448
2026-01-01 06:55:05.73	291.29	5.52	-52.5	-63.5	3.8	8.47e-01	0	43	104	1484783616	74	13453
2026-01-01 06:55:07.74	291.03	5.44	-52.5	-63.4	3.8	8.47e-01	0	42	104	1484783616	74	13365
2026-01-01 06:55:09.74	290.77	5.36	-52.5	-63.4	3.8	8.45e-01	0	43	104	1484783616	74	13316
2026-01-01 06:55:11.75	290.51	5.28	-52.4	-63.4	3.8	8.48e-01	0	42	104	1484783616	74	13376
2026-01-01 06:55:13.76	290.26	5.20	-52.4	-63.4	3.8	8.47e-01	0	43	104	1484783616	74	13390
2026-01-01 06:55:15.77	290.00	5.12	-52.4	-63.4	3.8	8.46e-01	0	42	104	1484783616	74	13301
2026-01-01 06:55:17.78	289.75	5.04	-52.4	-63.4	3.8	8.46e-01	0	42	104	1484783616	74	13299

#Closed at: 2026-01-01 06:55:20
#Recorded file [1484 MB]: D:/Data/31040_260101_094802.dat