passes_logs/2026/01/01/T1/T1__20260101_090857_NOAA_20_JPSS-1_rec.log

#Pass ID: 20260101_090857_NOAA 20 (JPSS-1)
#Satellite: NOAA 20 (JPSS-1)
#Configuration: NOAA 20
#almurnet v.1.7.20251203
#Start time: 2026-01-01 09:08:58

#Version: 2.0.20230620
#Station: T1
#Location: 37.570604 lon 55.790049 lat
#TLE: 1 43013U 17073A   25365.45761817  .00000173  00000+0  10307-3 0  9993
#TLE: 2 43013  98.7620 301.5517 0001951  60.3814 299.7557 14.19531661420675

#Time	Az	El	Level	Level2	SNR	BER	BlckErr	Temp	State	Recorded	gain1	gain2
2026-01-01 09:08:58.74	135.89	5.11	-51.9	-67.0	3.8	1.49e+00	0	40	0	0	74	21702
2026-01-01 09:09:01.75	135.77	5.32	-51.9	-67.1	3.8	1.49e+00	0	40	104	0	75	20604
2026-01-01 09:09:04.76	135.64	5.53	-51.9	-67.0	3.8	1.49e+00	0	41	104	0	75	20476
2026-01-01 09:09:07.78	135.52	5.75	-51.9	-67.0	3.8	1.49e+00	0	40	104	0	75	20528
2026-01-01 09:09:10.79	135.39	5.96	-52.0	-67.1	3.8	1.49e+00	0	41	104	0	75	20639
2026-01-01 09:09:13.81	135.26	6.18	-52.0	-67.1	3.8	1.49e+00	0	41	104	0	75	20676
2026-01-01 09:09:16.82	135.13	6.40	-52.0	-67.1	3.8	1.49e+00	0	41	104	0	75	20694
2026-01-01 09:09:19.83	134.99	6.62	-52.1	-67.2	3.8	1.49e+00	0	41	104	0	75	20864
2026-01-01 09:09:22.84	134.86	6.84	-52.1	-67.2	3.8	1.49e+00	0	41	104	0	75	20839
2026-01-01 09:09:25.86	134.72	7.06	-52.1	-67.2	3.8	1.49e+00	0	41	104	0	75	20842
2026-01-01 09:09:28.87	134.58	7.29	-52.1	-67.2	3.8	1.49e+00	0	41	104	0	75	20960
2026-01-01 09:09:31.88	134.44	7.51	-52.2	-67.3	3.8	1.49e+00	0	41	104	0	75	21042
2026-01-01 09:09:34.89	134.29	7.74	-52.1	-67.3	3.8	1.49e+00	0	41	104	0	75	21107
2026-01-01 09:09:37.90	134.14	7.97	-52.2	-67.3	3.8	1.49e+00	0	42	104	0	75	21100
2026-01-01 09:09:40.92	133.99	8.21	-52.2	-67.4	3.8	1.49e+00	0	42	104	0	75	21284
2026-01-01 09:09:43.93	133.84	8.44	-52.2	-67.3	3.8	1.49e+00	0	42	104	0	75	21209
2026-01-01 09:09:46.94	133.68	8.68	-52.3	-67.4	3.8	1.49e+00	0	42	104	0	75	21298
2026-01-01 09:09:49.96	133.53	8.92	-52.3	-67.4	3.8	1.49e+00	0	42	104	0	75	21369
2026-01-01 09:09:52.97	133.37	9.16	-52.3	-67.4	3.8	1.49e+00	0	42	104	0	75	21476
2026-01-01 09:09:55.98	133.20	9.40	-52.3	-67.4	3.8	1.49e+00	0	42	104	0	75	21422
2026-01-01 09:09:59.00	133.04	9.65	-52.3	-67.4	3.8	1.49e+00	0	42	104	0	75	21403
2026-01-01 09:10:02.01	132.87	9.90	-52.4	-67.5	3.8	1.49e+00	0	42	104	0	75	21538
2026-01-01 09:10:05.02	132.69	10.15	-52.4	-67.5	3.8	1.49e+00	0	42	104	0	75	21569
2026-01-01 09:10:08.03	132.52	10.40	-52.4	-67.5	3.8	1.49e+00	0	42	104	0	75	21606
2026-01-01 09:10:11.04	132.34	10.65	-52.4	-67.5	3.8	1.49e+00	0	42	104	0	75	21615
2026-01-01 09:10:14.05	132.16	10.91	-52.4	-67.5	3.8	1.49e+00	0	42	104	0	75	21666
2026-01-01 09:10:17.07	131.97	11.17	-52.5	-67.6	3.8	1.49e+00	0	42	104	0	75	21884
2026-01-01 09:10:20.08	131.78	11.43	-52.5	-67.6	3.8	1.49e+00	0	42	104	0	75	21796
2026-01-01 09:10:23.09	131.59	11.70	-52.5	-67.6	3.8	1.49e+00	0	42	104	0	75	21829
2026-01-01 09:10:26.11	131.40	11.96	-52.5	-67.6	3.8	1.49e+00	0	42	104	0	75	21857
2026-01-01 09:10:29.12	131.20	12.23	-52.5	-67.7	3.8	1.49e+00	0	42	104	0	75	22051
2026-01-01 09:10:32.13	130.99	12.50	-52.5	-67.7	3.8	1.49e+00	0	42	104	0	75	22045
2026-01-01 09:10:35.27	130.78	12.79	-52.6	-67.7	3.8	1.49e+00	0	42	104	0	75	22040
2026-01-01 09:10:38.24	130.57	13.06	-52.5	-67.5	3.8	1.49e+00	0	43	104	0	75	21693
2026-01-01 09:10:41.48	130.34	13.37	-52.4	-67.6	3.8	1.49e+00	0	42	104	0	75	21782
2026-01-01 09:10:44.44	130.12	13.64	-52.4	-67.6	3.8	1.49e+00	0	42	104	0	75	21824
2026-01-01 09:10:47.45	129.89	13.93	-52.4	-67.5	3.8	1.49e+00	0	42	104	0	75	21753
2026-01-01 09:10:50.46	129.66	14.22	-52.4	-67.5	3.8	1.49e+00	0	42	104	0	75	21669
2026-01-01 09:10:53.47	129.43	14.51	-52.5	-67.6	3.8	1.49e+00	0	42	104	0	75	21818
2026-01-01 09:10:56.57	129.19	14.82	-52.4	-67.5	3.8	1.49e+00	0	43	104	0	75	21713
2026-01-01 09:10:59.44	128.95	15.10	-52.4	-67.5	3.8	1.49e+00	0	43	104	0	75	21717
2026-01-01 09:11:02.59	128.69	15.42	-52.4	-67.5	3.8	1.49e+00	0	42	104	0	75	21674
2026-01-01 09:11:05.46	128.45	15.71	-52.4	-67.5	3.8	1.49e+00	0	43	104	0	75	21735
2026-01-01 09:11:08.65	128.18	16.03	-52.4	-67.5	3.8	1.49e+00	0	43	104	0	75	21748
2026-01-01 09:11:11.52	127.92	16.33	-52.4	-67.5	3.8	1.49e+00	0	43	104	0	75	21703
2026-01-01 09:11:14.67	127.64	16.66	-52.4	-67.6	3.8	1.49e+00	0	43	104	0	75	21807
2026-01-01 09:11:17.54	127.38	16.96	-52.4	-67.5	3.8	1.49e+00	0	43	104	0	75	21629
2026-01-01 09:11:20.70	127.08	17.30	-52.4	-67.5	3.8	1.49e+00	0	43	104	0	75	21609
2026-01-01 09:11:23.57	126.80	17.61	-52.3	-67.5	3.8	1.49e+00	0	43	104	0	75	21648
2026-01-01 09:11:26.72	126.50	17.95	-52.4	-67.5	3.8	1.49e+00	0	43	104	0	75	21629
2026-01-01 09:11:29.59	126.21	18.27	-52.3	-67.5	3.8	1.49e+00	0	43	104	0	75	21579
2026-01-01 09:11:32.75	125.88	18.62	-52.3	-67.4	3.8	1.49e+00	0	43	104	0	75	21462
2026-01-01 09:11:35.62	125.58	18.95	-52.3	-67.4	3.8	1.49e+00	0	43	104	0	75	21450
2026-01-01 09:11:38.77	125.24	19.31	-52.3	-67.4	3.8	1.49e+00	0	43	104	0	75	21345
2026-01-01 09:11:41.64	124.93	19.64	-52.3	-67.4	3.8	1.49e+00	0	43	104	0	75	21361
2026-01-01 09:11:44.79	124.57	20.00	-52.3	-67.4	3.8	1.49e+00	0	43	104	0	75	21292
2026-01-01 09:11:47.66	124.24	20.34	-52.2	-67.3	3.8	1.49e+00	0	43	104	0	75	21180
2026-01-01 09:11:50.82	123.87	20.72	-52.2	-67.3	3.8	1.49e+00	0	43	104	0	75	21059
2026-01-01 09:11:53.68	123.52	21.06	-52.2	-67.3	3.8	1.49e+00	0	43	104	0	75	21213
2026-01-01 09:11:56.84	123.13	21.45	-52.2	-67.3	3.8	1.49e+00	0	43	104	0	75	21150
2026-01-01 09:11:59.71	122.77	21.80	-52.2	-67.3	3.8	1.49e+00	0	43	104	0	75	21087
2026-01-01 09:12:02.87	122.36	22.20	-52.1	-67.3	3.8	1.49e+00	0	43	104	0	75	21045
2026-01-01 09:12:05.73	121.98	22.56	-52.2	-67.3	3.8	1.49e+00	0	43	104	0	75	21131
2026-01-01 09:12:08.89	121.55	22.96	-52.1	-67.3	3.8	1.49e+00	0	43	104	0	75	21081
2026-01-01 09:12:11.76	121.15	23.33	-52.2	-67.3	3.8	1.49e+00	0	43	104	0	75	21034
2026-01-01 09:12:14.91	120.69	23.74	-52.1	-67.2	3.8	1.49e+00	0	43	104	0	75	21009
2026-01-01 09:12:17.78	120.27	24.11	-52.1	-67.2	3.8	1.49e+00	0	43	104	0	75	20946
2026-01-01 09:12:20.94	119.79	24.53	-52.1	-67.2	3.8	1.49e+00	0	43	104	0	75	20840
2026-01-01 09:12:23.81	119.35	24.92	-52.1	-67.2	3.8	1.49e+00	0	43	104	0	75	20927
2026-01-01 09:12:26.96	118.85	25.35	-52.1	-67.2	3.8	1.49e+00	0	43	104	0	75	20953
2026-01-01 09:12:29.83	118.38	25.74	-52.1	-67.2	3.8	1.49e+00	0	43	104	0	75	20911
2026-01-01 09:12:32.99	117.85	26.18	-52.1	-67.2	3.8	1.49e+00	0	43	104	0	75	20966
2026-01-01 09:12:35.86	117.35	26.58	-52.2	-67.2	3.8	1.49e+00	0	43	104	0	75	21003
2026-01-01 09:12:39.01	116.80	27.02	-52.1	-67.3	3.8	1.49e+00	0	43	104	0	75	21080
2026-01-01 09:12:41.88	116.27	27.43	-52.1	-67.2	3.8	1.49e+00	0	43	104	0	75	20986
2026-01-01 09:12:45.03	115.69	27.88	-52.1	-67.2	3.8	1.49e+00	0	43	104	0	75	20970
2026-01-01 09:12:47.90	115.14	28.29	-52.1	-67.2	3.8	1.49e+00	0	43	104	0	75	20869
2026-01-01 09:12:51.06	114.51	28.76	-52.1	-67.2	3.8	1.49e+00	0	43	104	0	75	20990
2026-01-01 09:12:53.93	113.93	29.18	-52.1	-67.2	3.8	1.49e+00	0	43	104	0	75	20850
2026-01-01 09:12:57.08	113.27	29.64	-52.1	-67.2	3.8	1.49e+00	0	43	104	0	75	20988
2026-01-01 09:12:59.95	112.66	30.07	-52.1	-67.2	3.8	1.49e+00	0	43	104	0	75	20813
2026-01-01 09:13:03.11	111.96	30.54	-52.1	-67.2	3.8	1.49e+00	0	43	104	0	75	20895
2026-01-01 09:13:05.98	111.31	30.98	-52.1	-67.2	3.8	1.49e+00	0	43	104	0	75	20949
2026-01-01 09:13:09.13	110.57	31.45	-52.1	-67.2	3.8	1.49e+00	0	43	104	0	75	20909
2026-01-01 09:13:12.21	109.83	31.92	-52.1	-67.2	3.8	1.49e+00	0	43	104	0	75	20867
2026-01-01 09:13:15.27	109.07	32.39	-52.1	-67.2	3.8	1.49e+00	0	43	104	0	75	20782
2026-01-01 09:13:18.46	108.26	32.88	-52.1	-67.2	3.8	1.49e+00	0	43	104	0	75	20956
2026-01-01 09:13:21.47	107.47	33.34	-52.1	-67.2	3.8	1.49e+00	0	43	104	0	75	20952
2026-01-01 09:13:24.48	106.66	33.80	-52.1	-67.2	3.8	1.49e+00	0	43	104	0	75	20920
2026-01-01 09:13:27.49	105.82	34.27	-52.1	-67.2	3.8	1.49e+00	0	43	104	0	75	20947
2026-01-01 09:13:30.59	104.93	34.74	-52.1	-67.2	3.8	1.49e+00	0	43	104	0	75	21013
2026-01-01 09:13:33.49	104.08	35.19	-52.1	-67.2	3.8	1.49e+00	0	43	104	0	75	20934
2026-01-01 09:13:36.50	103.17	35.65	-52.1	-67.3	3.8	1.49e+00	0	43	104	0	75	21035
2026-01-01 09:13:39.51	102.23	36.11	-52.1	-67.3	3.8	1.49e+00	0	43	104	0	75	21027
2026-01-01 09:13:42.52	101.26	36.57	-52.2	-67.3	3.8	1.49e+00	0	43	104	0	75	21061
2026-01-01 09:13:45.52	100.27	37.02	-52.2	-67.3	3.8	1.49e+00	0	43	104	0	75	21220
2026-01-01 09:13:48.53	99.25	37.47	-52.3	-67.4	3.8	1.49e+00	0	43	104	0	75	21348
2026-01-01 09:13:51.54	98.21	37.91	-52.4	-67.5	3.8	1.49e+00	0	43	104	0	75	21546
2026-01-01 09:13:54.55	97.13	38.35	-52.4	-67.5	3.8	1.49e+00	0	43	104	0	75	21718
2026-01-01 09:13:57.48	96.05	38.77	-52.4	-67.5	3.8	1.49e+00	0	43	104	0	75	21692
2026-01-01 09:14:00.64	94.86	39.22	-52.4	-67.5	3.8	1.49e+00	0	43	104	0	75	21691
2026-01-01 09:14:03.51	93.75	39.62	-52.3	-67.4	3.8	1.49e+00	0	43	104	0	75	21387
2026-01-01 09:14:06.66	92.49	40.04	-52.2	-67.3	3.8	1.49e+00	0	43	104	0	75	21098
2026-01-01 09:14:09.53	91.33	40.43	-52.2	-67.3	3.8	1.49e+00	0	43	104	0	75	21111
2026-01-01 09:14:12.69	90.01	40.83	-52.2	-67.2	3.8	1.49e+00	0	43	104	0	75	21005
2026-01-01 09:14:15.56	88.78	41.19	-52.2	-67.3	3.8	1.49e+00	0	43	104	0	75	21131
2026-01-01 09:14:18.72	87.40	41.57	-52.1	-67.3	3.8	1.49e+00	0	43	104	0	75	21041
2026-01-01 09:14:21.58	86.12	41.90	-52.1	-67.2	3.8	1.49e+00	0	43	104	0	75	20973
2026-01-01 09:14:24.74	84.67	42.25	-52.1	-67.2	3.8	1.49e+00	0	43	104	0	75	21001
2026-01-01 09:14:27.61	83.34	42.56	-52.2	-67.3	3.8	1.49e+00	0	43	104	0	75	21105
2026-01-01 09:14:30.77	81.83	42.87	-52.1	-67.3	3.8	1.49e+00	0	43	104	0	75	21053
2026-01-01 09:14:33.64	80.45	43.14	-52.1	-67.2	3.8	1.49e+00	0	43	104	0	75	20984
2026-01-01 09:14:36.79	78.89	43.41	-52.1	-67.2	3.8	1.49e+00	0	43	104	0	75	20965
2026-01-01 09:14:39.66	77.46	43.65	-52.1	-67.2	3.8	1.49e+00	0	43	104	0	75	20961
2026-01-01 09:14:42.82	75.86	43.88	-52.1	-67.3	3.8	1.49e+00	0	43	104	0	75	21048
2026-01-01 09:14:45.69	74.38	44.07	-52.1	-67.2	3.8	1.49e+00	0	43	104	0	75	20949
2026-01-01 09:14:48.85	72.74	44.25	-52.1	-67.2	3.8	1.49e+00	0	43	104	0	75	20986
2026-01-01 09:14:51.72	71.23	44.40	-52.1	-67.2	3.8	1.49e+00	0	43	104	0	75	20895
2026-01-01 09:14:54.87	69.56	44.54	-52.1	-67.3	3.8	1.49e+00	0	43	104	0	75	21066
2026-01-01 09:14:57.74	68.03	44.63	-52.1	-67.2	3.8	1.49e+00	0	43	104	0	75	20973
2026-01-01 09:15:00.90	66.33	44.72	-52.1	-67.2	3.8	1.49e+00	0	43	104	0	75	20923
2026-01-01 09:15:03.77	64.78	44.77	-52.1	-67.2	3.8	1.49e+00	0	43	104	0	75	21009
2026-01-01 09:15:06.93	63.07	44.80	-52.1	-67.2	3.8	1.49e+00	0	43	104	0	75	20972
2026-01-01 09:15:09.80	61.52	44.80	-52.1	-67.2	3.8	1.49e+00	0	43	104	0	75	20944
2026-01-01 09:15:12.95	59.82	44.78	-52.1	-67.2	3.8	1.49e+00	0	43	104	0	75	20870
2026-01-01 09:15:15.82	58.27	44.73	-52.2	-67.3	3.8	1.49e+00	0	43	104	0	75	21019
2026-01-01 09:15:18.98	56.57	44.65	-52.2	-67.3	3.8	1.49e+00	0	43	104	0	75	21173
2026-01-01 09:15:21.85	55.04	44.56	-52.1	-67.2	3.8	1.49e+00	0	43	104	0	75	20984
2026-01-01 09:15:25.01	53.36	44.43	-52.1	-67.2	3.8	1.49e+00	0	43	104	0	75	20890
2026-01-01 09:15:27.88	51.85	44.29	-52.1	-67.2	3.8	1.49e+00	0	43	104	0	75	20992
2026-01-01 09:15:31.03	50.21	44.11	-52.2	-67.3	3.8	1.49e+00	0	43	104	0	75	21044
2026-01-01 09:15:33.90	48.73	43.92	-52.2	-67.3	3.8	1.49e+00	0	43	104	0	75	21067
2026-01-01 09:15:37.06	47.13	43.69	-52.1	-67.2	3.8	1.49e+00	0	43	104	0	75	20947
2026-01-01 09:15:39.93	45.69	43.47	-52.1	-67.2	3.8	1.49e+00	0	43	104	0	75	20945
2026-01-01 09:15:43.08	44.14	43.20	-52.2	-67.3	3.8	1.49e+00	0	43	104	0	75	21114
2026-01-01 09:15:45.95	42.75	42.93	-52.2	-67.2	3.8	1.49e+00	0	43	104	0	75	21015
2026-01-01 09:15:49.11	41.24	42.62	-52.2	-67.3	3.8	1.49e+00	0	43	104	0	75	21053
2026-01-01 09:15:51.98	39.90	42.32	-52.2	-67.3	3.8	1.49e+00	0	43	104	0	75	21071
2026-01-01 09:15:55.13	38.46	41.98	-52.2	-67.3	3.8	1.49e+00	0	43	104	0	75	21060
2026-01-01 09:15:58.00	37.17	41.65	-52.2	-67.3	3.8	1.49e+00	0	43	104	0	75	21100
2026-01-01 09:16:01.16	35.79	41.27	-52.1	-67.2	3.8	1.49e+00	0	43	104	0	75	20949
2026-01-01 09:16:04.44	34.39	40.86	-52.1	-67.2	3.8	1.49e+00	0	43	104	0	75	20976
2026-01-01 09:16:07.40	33.15	40.49	-52.1	-67.3	3.8	1.49e+00	0	43	104	0	75	21033
2026-01-01 09:16:10.50	31.89	40.08	-52.1	-67.2	3.8	1.49e+00	0	43	104	0	75	21010
2026-01-01 09:16:13.51	30.69	39.67	-52.2	-67.2	3.8	1.49e+00	0	43	104	0	75	21000
2026-01-01 09:16:16.52	29.53	39.26	-52.2	-67.3	3.8	1.49e+00	0	43	104	0	75	21115
2026-01-01 09:16:19.53	28.39	38.83	-52.2	-67.3	3.8	1.49e+00	0	43	104	0	75	21069
2026-01-01 09:16:22.56	27.28	38.40	-52.2	-67.3	3.8	1.49e+00	0	43	104	0	75	21085
2026-01-01 09:16:25.58	26.20	37.96	-52.2	-67.3	3.8	1.49e+00	0	43	104	0	75	21094
2026-01-01 09:16:28.59	25.15	37.52	-52.2	-67.3	3.8	1.49e+00	0	43	104	0	75	21074
2026-01-01 09:16:31.60	24.14	37.07	-52.1	-67.2	3.8	1.49e+00	0	43	104	0	75	20989
2026-01-01 09:16:34.61	23.15	36.62	-52.2	-67.3	3.8	1.49e+00	0	43	104	0	75	21156
2026-01-01 09:16:37.62	22.18	36.17	-52.2	-67.3	3.8	1.49e+00	0	43	104	0	75	21132
2026-01-01 09:16:40.63	21.25	35.71	-52.2	-67.3	3.8	1.49e+00	0	43	104	0	75	21126
2026-01-01 09:16:43.65	20.33	35.25	-52.2	-67.3	3.8	1.49e+00	0	43	104	0	75	21139
2026-01-01 09:16:46.66	19.45	34.79	-52.2	-67.4	3.8	1.49e+00	0	43	104	0	75	21309
2026-01-01 09:16:49.67	18.59	34.33	-52.2	-67.4	3.8	1.49e+00	0	43	104	0	75	21286
2026-01-01 09:16:52.68	17.75	33.87	-52.2	-67.3	3.8	1.49e+00	0	43	104	0	75	21203
2026-01-01 09:16:55.69	16.94	33.41	-52.2	-67.3	3.8	1.49e+00	0	43	104	0	75	21227
2026-01-01 09:16:58.71	16.15	32.94	-52.1	-67.2	3.8	1.49e+00	0	43	104	0	75	20955
2026-01-01 09:17:01.72	15.38	32.48	-52.1	-67.3	3.8	1.49e+00	0	43	104	0	75	21030
2026-01-01 09:17:04.73	14.64	32.03	-52.2	-67.3	3.8	1.49e+00	0	43	104	0	75	21152
2026-01-01 09:17:07.75	13.91	31.57	-52.2	-67.3	3.8	1.49e+00	0	43	104	0	75	21112
2026-01-01 09:17:10.76	13.21	31.11	-52.2	-67.3	3.8	1.49e+00	0	43	104	0	75	21090
2026-01-01 09:17:13.77	12.53	30.66	-52.1	-67.3	3.8	1.49e+00	0	43	104	0	75	21086
2026-01-01 09:17:16.79	11.86	30.21	-52.3	-67.4	3.8	1.49e+00	0	43	104	0	75	21303
2026-01-01 09:17:19.80	11.21	29.76	-52.3	-67.4	3.8	1.49e+00	0	43	104	0	75	21380
2026-01-01 09:17:22.81	10.59	29.32	-52.2	-67.3	3.8	1.49e+00	0	43	104	0	75	21149
2026-01-01 09:17:25.83	9.97	28.88	-52.2	-67.3	3.8	1.49e+00	0	43	104	0	75	21243
2026-01-01 09:17:28.84	9.38	28.44	-52.2	-67.3	3.8	1.49e+00	0	43	104	0	75	21201
2026-01-01 09:17:31.85	8.80	28.01	-52.2	-67.3	3.8	1.49e+00	0	43	104	0	75	21212
2026-01-01 09:17:34.86	8.24	27.58	-52.2	-67.3	3.8	1.49e+00	0	43	104	0	75	21094
2026-01-01 09:17:37.87	7.69	27.15	-52.2	-67.3	3.8	1.49e+00	0	43	104	0	75	21208
2026-01-01 09:17:40.89	7.16	26.73	-52.2	-67.3	3.8	1.49e+00	0	43	104	0	75	21182
2026-01-01 09:17:43.90	6.64	26.31	-52.2	-67.4	3.8	1.49e+00	0	43	104	0	75	21275
2026-01-01 09:17:46.91	6.14	25.89	-52.3	-67.4	3.8	1.49e+00	0	43	104	0	75	21327
2026-01-01 09:17:49.93	5.64	25.48	-52.2	-67.3	3.8	1.49e+00	0	43	104	0	75	21212
2026-01-01 09:17:52.94	5.16	25.07	-52.2	-67.3	3.8	1.49e+00	0	43	104	0	75	21240
2026-01-01 09:17:55.95	4.70	24.67	-52.2	-67.4	3.8	1.49e+00	0	43	104	0	75	21381
2026-01-01 09:17:58.97	4.24	24.27	-52.2	-67.3	3.8	1.49e+00	0	43	104	0	75	21215
2026-01-01 09:18:01.98	3.80	23.88	-52.1	-67.3	3.8	1.49e+00	0	43	104	0	75	21103
2026-01-01 09:18:04.99	3.37	23.49	-52.1	-67.2	3.8	1.49e+00	0	43	104	0	75	20972
2026-01-01 09:18:08.01	2.95	23.10	-52.2	-67.4	3.8	1.49e+00	0	43	104	0	75	21269
2026-01-01 09:18:11.02	2.54	22.72	-52.2	-67.4	3.8	1.49e+00	0	43	104	0	75	21275
2026-01-01 09:18:14.03	2.14	22.34	-52.3	-67.4	3.8	1.49e+00	0	43	104	0	75	21437
2026-01-01 09:18:17.04	1.75	21.96	-52.3	-67.4	3.8	1.49e+00	0	43	104	0	75	21374
2026-01-01 09:18:20.05	1.37	21.59	-52.3	-67.4	3.8	1.49e+00	0	43	104	0	75	21434
2026-01-01 09:18:23.07	0.99	21.23	-52.3	-67.4	3.8	1.49e+00	0	43	104	0	75	21441
2026-01-01 09:18:26.08	0.63	20.87	-52.3	-67.4	3.8	1.49e+00	0	43	104	0	75	21369
2026-01-01 09:18:29.09	0.28	20.51	-52.2	-67.3	3.8	1.49e+00	0	43	104	0	75	21175
2026-01-01 09:18:32.10	359.93	20.15	-52.3	-67.4	3.8	1.49e+00	0	43	104	0	75	21409
2026-01-01 09:18:35.12	359.59	19.80	-52.2	-67.4	3.8	1.49e+00	0	43	104	0	75	21305
2026-01-01 09:18:38.13	359.26	19.46	-52.3	-67.4	3.8	1.49e+00	0	43	104	0	75	21318
2026-01-01 09:18:41.14	358.94	19.11	-52.2	-67.3	3.8	1.49e+00	0	43	104	0	75	21155
2026-01-01 09:18:44.23	358.62	18.76	-52.2	-67.3	3.8	1.49e+00	0	43	104	0	75	21168
2026-01-01 09:18:47.14	358.32	18.44	-52.3	-67.4	3.8	1.49e+00	0	43	104	0	75	21368
2026-01-01 09:18:50.15	358.02	18.11	-52.2	-67.3	3.8	1.49e+00	0	43	104	0	75	21139
2026-01-01 09:18:53.16	357.73	17.78	-52.2	-67.3	3.8	1.49e+00	0	43	104	0	75	21213
2026-01-01 09:18:56.22	357.44	17.45	-52.1	-67.2	3.8	1.49e+00	0	43	104	0	75	21002
2026-01-01 09:18:59.28	357.15	17.13	-52.2	-67.3	3.8	1.49e+00	0	43	104	0	75	21105
2026-01-01 09:19:02.39	356.87	16.80	-52.2	-67.2	3.8	1.49e+00	0	43	104	0	75	21010
2026-01-01 09:19:05.72	356.57	16.45	-52.1	-67.3	3.8	1.49e+00	0	43	104	0	75	21055
2026-01-01 09:19:08.45	356.33	16.17	-52.3	-67.5	3.8	1.49e+00	0	43	104	0	75	21547
2026-01-01 09:19:11.75	356.05	15.83	-52.2	-67.3	3.8	1.49e+00	0	43	104	0	75	21142
2026-01-01 09:19:14.47	355.82	15.56	-52.2	-67.3	3.8	1.49e+00	0	43	104	0	75	21054
2026-01-01 09:19:17.77	355.55	15.23	-52.2	-67.3	3.8	1.49e+00	0	43	104	0	75	21177
2026-01-01 09:19:20.50	355.33	14.96	-52.2	-67.3	3.8	1.49e+00	0	43	104	0	75	21250
2026-01-01 09:19:23.80	355.07	14.64	-52.2	-67.4	3.8	1.49e+00	0	43	104	0	75	21309
2026-01-01 09:19:26.52	354.86	14.37	-52.3	-67.4	3.8	1.49e+00	0	43	104	0	75	21485
2026-01-01 09:19:29.82	354.62	14.06	-52.3	-67.4	3.8	1.49e+00	0	43	104	0	75	21399
2026-01-01 09:19:32.54	354.42	13.80	-52.3	-67.5	3.8	1.49e+00	0	43	104	0	75	21518
2026-01-01 09:19:35.84	354.18	13.49	-52.3	-67.5	3.8	1.49e+00	0	43	104	0	75	21522
2026-01-01 09:19:38.56	353.98	13.24	-52.3	-67.4	3.8	1.49e+00	0	44	104	0	75	21385
2026-01-01 09:19:41.86	353.75	12.93	-52.3	-67.4	3.8	1.49e+00	0	43	104	0	75	21365
2026-01-01 09:19:44.59	353.57	12.69	-52.2	-67.4	3.8	1.49e+00	0	43	104	0	75	21355
2026-01-01 09:19:47.89	353.35	12.39	-52.2	-67.3	3.8	1.49e+00	0	43	104	0	75	21153
2026-01-01 09:19:50.61	353.17	12.14	-52.2	-67.3	3.8	1.49e+00	0	43	104	0	75	21035
2026-01-01 09:19:53.90	352.96	11.85	-52.3	-67.4	3.8	1.49e+00	0	43	104	0	75	21453
2026-01-01 09:19:56.63	352.79	11.61	-52.3	-67.4	3.8	1.49e+00	0	43	104	0	75	21356
2026-01-01 09:19:59.93	352.58	11.33	-52.2	-67.3	3.8	1.49e+00	0	43	104	0	75	21169
2026-01-01 09:20:02.65	352.42	11.09	-52.2	-67.3	3.8	1.49e+00	0	44	104	0	75	21078
2026-01-01 09:20:05.95	352.22	10.81	-52.2	-67.3	3.8	1.49e+00	0	43	104	0	75	21026
2026-01-01 09:20:08.68	352.06	10.58	-52.2	-67.4	3.8	1.49e+00	0	43	104	0	75	21306
2026-01-01 09:20:11.97	351.87	10.31	-52.2	-67.3	3.8	1.49e+00	0	43	104	0	75	21242
2026-01-01 09:20:14.70	351.72	10.08	-52.2	-67.3	3.8	1.49e+00	0	43	104	0	75	21129
2026-01-01 09:20:18.00	351.53	9.81	-52.2	-67.3	3.8	1.49e+00	0	43	104	0	75	21104
2026-01-01 09:20:20.72	351.39	9.59	-52.2	-67.3	3.8	1.49e+00	0	43	104	0	75	21220
2026-01-01 09:20:24.02	351.21	9.32	-52.2	-67.3	3.8	1.49e+00	0	43	104	0	75	21128
2026-01-01 09:20:26.75	351.07	9.11	-52.2	-67.3	3.8	1.49e+00	0	43	104	0	75	21214
2026-01-01 09:20:30.05	350.90	8.84	-52.3	-67.4	3.8	1.49e+00	0	43	104	0	75	21263
2026-01-01 09:20:32.77	350.76	8.63	-52.2	-67.3	3.8	1.49e+00	0	43	104	0	75	21165
2026-01-01 09:20:36.07	350.59	8.37	-52.2	-67.3	3.8	1.49e+00	0	43	104	0	75	21204
2026-01-01 09:20:38.80	350.46	8.16	-52.2	-67.4	3.8	1.49e+00	0	43	104	0	75	21311
2026-01-01 09:20:42.10	350.30	7.91	-52.2	-67.2	3.8	1.49e+00	0	43	104	0	75	20779
2026-01-01 09:20:44.83	350.17	7.70	-52.2	-67.3	3.8	1.49e+00	0	43	104	0	75	21110
2026-01-01 09:20:48.13	350.02	7.45	-52.2	-67.3	3.8	1.49e+00	0	44	104	0	75	21196
2026-01-01 09:20:50.85	349.90	7.25	-51.9	-67.1	3.8	1.49e+00	0	43	104	0	75	20587
2026-01-01 09:20:54.15	349.75	7.01	-51.9	-67.1	3.8	1.49e+00	0	43	104	0	75	20565
2026-01-01 09:20:56.88	349.63	6.80	-52.2	-67.3	3.8	1.49e+00	0	43	104	0	75	21149
2026-01-01 09:21:00.18	349.48	6.56	-52.1	-67.2	3.8	1.49e+00	0	44	104	0	75	21003
2026-01-01 09:21:03.15	349.36	6.35	-52.2	-67.4	3.8	1.49e+00	0	43	104	0	75	21336
2026-01-01 09:21:06.26	349.23	6.13	-52.3	-67.4	3.8	1.49e+00	0	43	104	0	75	21397
2026-01-01 09:21:09.76	349.08	5.88	-52.2	-67.3	3.8	1.49e+00	0	44	104	0	75	21169
2026-01-01 09:21:12.49	348.97	5.68	-52.2	-67.3	3.8	1.49e+00	0	43	104	0	75	21177
2026-01-01 09:21:15.79	348.84	5.45	-52.2	-67.4	3.8	1.49e+00	0	44	104	0	75	21269
2026-01-01 09:21:18.52	348.73	5.26	-52.3	-67.5	3.8	1.49e+00	0	43	104	0	75	21543
2026-01-01 09:21:21.91	348.60	5.03	-52.3	-67.4	3.8	1.49e+00	0	43	104	0	75	21434

#Closed at: 2026-01-01 09:21:23
#Recorded file [0 MB]: D:/Data/31040_260101_120858.dat