passes_logs/2026/01/01/T1/T1__20260101_003734_SUOMI_NPP_rec.log

#Pass ID: 20260101_003734_SUOMI NPP
#Satellite: SUOMI NPP
#Configuration: NPP
#almurnet v.1.7.20251203
#Start time: 2026-01-01 00:37:33

#Version: 2.0.20230620
#Station: T1
#Location: 37.570604 lon 55.790049 lat
#TLE: 1 37849U 11061A   25364.87906317  .00000195  00000+0  11345-3 0  9992
#TLE: 2 37849  98.7794 302.0592 0002571  89.2401 270.9069 14.19520347734561

#Time	Az	El	Level	Level2	SNR	BER	BlckErr	Temp	State	Recorded	gain1	gain2
2026-01-01 00:37:33.98	11.10	4.99	-51.6	-66.8	3.8	1.49e+00	0	37	0	0	73	22350
2026-01-01 00:37:36.99	10.98	5.20	-51.6	-66.8	3.8	1.49e+00	0	38	104	0	75	19874
2026-01-01 00:37:40.00	10.85	5.41	-51.6	-66.8	3.8	1.49e+00	0	38	104	0	75	19914
2026-01-01 00:37:43.02	10.72	5.62	-51.6	-66.7	3.8	1.49e+00	0	38	104	0	75	19815
2026-01-01 00:37:46.03	10.59	5.83	-51.6	-66.8	3.8	1.49e+00	0	38	104	0	75	19915
2026-01-01 00:37:49.04	10.45	6.04	-51.6	-66.8	3.8	1.49e+00	0	38	104	0	75	19931
2026-01-01 00:37:52.06	10.32	6.26	-51.7	-66.8	3.8	1.49e+00	0	38	104	0	75	20019
2026-01-01 00:37:55.07	10.18	6.47	-51.6	-66.8	3.8	1.49e+00	0	38	104	0	75	20011
2026-01-01 00:37:58.08	10.04	6.69	-51.7	-66.9	3.8	1.49e+00	0	39	104	0	75	20144
2026-01-01 00:38:01.09	9.90	6.91	-51.6	-66.7	3.8	1.49e+00	0	39	104	0	75	19832
2026-01-01 00:38:04.11	9.75	7.13	-51.6	-66.8	3.8	1.49e+00	0	39	104	0	75	19889
2026-01-01 00:38:07.12	9.60	7.35	-51.6	-66.8	3.8	1.49e+00	0	39	104	0	75	19958
2026-01-01 00:38:10.13	9.45	7.58	-51.6	-66.8	3.8	1.49e+00	0	39	104	0	75	19844
2026-01-01 00:38:13.15	9.30	7.81	-51.6	-66.8	3.8	1.49e+00	0	39	104	0	75	19992
2026-01-01 00:38:16.16	9.15	8.03	-51.7	-66.8	3.8	1.49e+00	0	39	104	0	75	20000
2026-01-01 00:38:19.17	8.99	8.26	-51.6	-66.8	3.8	1.49e+00	0	39	104	0	75	19911
2026-01-01 00:38:22.18	8.83	8.50	-51.6	-66.8	3.8	1.49e+00	0	39	104	0	75	20012
2026-01-01 00:38:25.20	8.67	8.73	-51.7	-66.9	3.8	1.49e+00	0	39	104	0	75	20074
2026-01-01 00:38:28.21	8.50	8.97	-51.7	-66.8	3.8	1.49e+00	0	39	104	0	75	20039
2026-01-01 00:38:31.22	8.33	9.20	-51.6	-66.8	3.8	1.49e+00	0	39	104	0	75	19951
2026-01-01 00:38:34.24	8.16	9.44	-51.6	-66.8	3.8	1.49e+00	0	39	104	0	75	19963
2026-01-01 00:38:37.25	7.98	9.69	-51.6	-66.8	3.8	1.49e+00	0	39	104	0	75	19977
2026-01-01 00:38:40.26	7.81	9.93	-51.6	-66.8	3.8	1.49e+00	0	39	104	0	75	19951
2026-01-01 00:38:43.28	7.62	10.18	-51.6	-66.8	3.8	1.49e+00	0	40	104	0	75	19990
2026-01-01 00:38:46.53	7.43	10.44	-51.6	-66.8	3.8	1.49e+00	0	40	104	0	75	19907
2026-01-01 00:38:49.45	7.24	10.69	-51.6	-66.8	3.8	1.49e+00	0	40	104	0	75	19980
2026-01-01 00:38:52.75	7.03	10.97	-51.6	-66.8	3.8	1.49e+00	0	40	104	0	75	19865
2026-01-01 00:38:55.47	6.86	11.20	-51.6	-66.8	3.8	1.49e+00	0	40	104	0	75	20031
2026-01-01 00:38:58.77	6.64	11.48	-51.6	-66.8	3.8	1.49e+00	0	40	104	0	75	19948
2026-01-01 00:39:01.53	6.45	11.72	-51.6	-66.8	3.8	1.49e+00	0	40	104	0	75	20001
2026-01-01 00:39:04.93	6.22	12.01	-51.7	-66.8	3.8	1.49e+00	0	40	104	0	75	20063
2026-01-01 00:39:07.65	6.03	12.25	-51.6	-66.8	3.8	1.49e+00	0	40	104	0	75	19963
2026-01-01 00:39:10.95	5.79	12.55	-51.6	-66.8	3.8	1.49e+00	0	40	104	0	75	19964
2026-01-01 00:39:13.68	5.60	12.79	-51.6	-66.8	3.8	1.49e+00	0	40	104	0	75	19941
2026-01-01 00:39:16.98	5.35	13.09	-51.6	-66.8	3.8	1.49e+00	0	40	104	0	75	19925
2026-01-01 00:39:19.70	5.15	13.34	-51.6	-66.7	3.8	1.49e+00	0	40	104	0	75	19822
2026-01-01 00:39:23.00	4.89	13.64	-51.6	-66.8	3.8	1.49e+00	0	40	104	0	75	19967
2026-01-01 00:39:25.73	4.68	13.90	-51.6	-66.7	3.8	1.49e+00	0	40	104	0	75	19815
2026-01-01 00:39:29.03	4.41	14.21	-51.6	-66.8	3.8	1.49e+00	0	40	104	0	75	19980
2026-01-01 00:39:31.75	4.19	14.47	-51.6	-66.8	3.8	1.49e+00	0	40	104	0	75	19867
2026-01-01 00:39:35.05	3.92	14.78	-51.6	-66.7	3.8	1.49e+00	0	40	104	0	75	19817
2026-01-01 00:39:37.78	3.68	15.05	-51.6	-66.8	3.8	1.49e+00	0	40	104	0	75	19977
2026-01-01 00:39:41.08	3.40	15.37	-51.6	-66.8	3.8	1.49e+00	0	40	104	0	75	19918
2026-01-01 00:39:43.80	3.16	15.64	-51.6	-66.8	3.8	1.49e+00	0	40	104	0	75	19895
2026-01-01 00:39:47.10	2.86	15.97	-51.6	-66.8	3.8	1.49e+00	0	40	104	0	75	19908
2026-01-01 00:39:49.83	2.60	16.24	-51.6	-66.7	3.8	1.49e+00	0	40	104	0	75	19764
2026-01-01 00:39:53.13	2.29	16.58	-51.6	-66.7	3.8	1.49e+00	0	41	104	0	75	19831
2026-01-01 00:39:55.85	2.03	16.86	-51.6	-66.8	3.8	1.49e+00	0	40	104	0	75	20061
2026-01-01 00:39:59.16	1.70	17.21	-51.6	-66.8	3.8	1.49e+00	0	40	104	0	75	20057
2026-01-01 00:40:01.88	1.43	17.49	-51.6	-66.8	3.8	1.49e+00	0	40	104	0	75	19853
2026-01-01 00:40:05.18	1.09	17.84	-51.6	-66.8	3.8	1.49e+00	0	40	104	0	75	19987
2026-01-01 00:40:07.91	0.80	18.14	-51.7	-66.8	3.8	1.49e+00	0	41	104	0	75	20024
2026-01-01 00:40:11.21	0.45	18.49	-51.7	-66.9	3.8	1.49e+00	0	40	104	0	75	20095
2026-01-01 00:40:13.94	0.14	18.79	-51.7	-66.8	3.8	1.49e+00	0	40	104	0	75	20056
2026-01-01 00:40:17.23	359.77	19.16	-51.7	-66.8	3.8	1.49e+00	0	41	104	0	75	20047
2026-01-01 00:40:19.96	359.46	19.46	-51.6	-66.8	3.8	1.49e+00	0	40	104	0	75	20023
2026-01-01 00:40:23.26	359.07	19.83	-51.7	-66.8	3.8	1.49e+00	0	41	104	0	75	20002
2026-01-01 00:40:25.98	358.74	20.15	-51.6	-66.8	3.8	1.49e+00	0	41	104	0	75	19898
2026-01-01 00:40:29.28	358.34	20.53	-51.6	-66.8	3.8	1.49e+00	0	41	104	0	75	19939
2026-01-01 00:40:32.01	357.99	20.84	-51.7	-66.8	3.8	1.49e+00	0	41	104	0	75	20038
2026-01-01 00:40:35.34	357.56	21.24	-51.6	-66.8	3.8	1.49e+00	0	40	104	0	75	19977
2026-01-01 00:40:38.36	357.16	21.59	-51.6	-66.8	3.8	1.49e+00	0	40	104	0	75	19875
2026-01-01 00:40:41.46	356.74	21.97	-51.6	-66.7	3.8	1.49e+00	0	41	104	0	75	19821
2026-01-01 00:40:44.61	356.30	22.35	-51.6	-66.8	3.8	1.49e+00	0	41	104	0	75	20019
2026-01-01 00:40:47.47	355.89	22.70	-51.6	-66.8	3.8	1.49e+00	0	41	104	0	75	19865
2026-01-01 00:40:50.63	355.43	23.09	-51.6	-66.8	3.8	1.49e+00	0	40	104	0	75	19874
2026-01-01 00:40:53.50	355.00	23.45	-51.6	-66.8	3.8	1.49e+00	0	41	104	0	75	19899
2026-01-01 00:40:56.74	354.50	23.86	-51.6	-66.8	3.8	1.49e+00	0	41	104	0	75	19911
2026-01-01 00:40:59.61	354.05	24.22	-51.7	-66.9	3.8	1.49e+00	0	41	104	0	75	20102
2026-01-01 00:41:02.76	353.54	24.63	-51.7	-66.8	3.8	1.49e+00	0	41	104	0	75	20028
2026-01-01 00:41:05.63	353.06	25.00	-51.7	-66.8	3.8	1.49e+00	0	41	104	0	75	20056
2026-01-01 00:41:08.79	352.53	25.41	-51.7	-66.9	3.8	1.49e+00	0	41	104	0	75	20163
2026-01-01 00:41:11.66	352.03	25.79	-51.8	-67.0	3.8	1.49e+00	0	41	104	0	75	20327
2026-01-01 00:41:14.82	351.46	26.21	-51.7	-66.9	3.8	1.49e+00	0	41	104	0	75	20104
2026-01-01 00:41:17.69	350.93	26.60	-51.7	-66.9	3.8	1.49e+00	0	41	104	0	75	20144
2026-01-01 00:41:20.84	350.34	27.02	-51.6	-66.8	3.8	1.49e+00	0	41	104	0	75	19988
2026-01-01 00:41:23.71	349.79	27.41	-51.6	-66.8	3.8	1.49e+00	0	41	104	0	75	19859
2026-01-01 00:41:26.86	349.16	27.84	-51.6	-66.8	3.8	1.49e+00	0	41	104	0	75	19894
2026-01-01 00:41:29.73	348.58	28.24	-51.6	-66.7	3.8	1.49e+00	0	41	104	0	75	19749
2026-01-01 00:41:32.88	347.92	28.68	-51.6	-66.7	3.8	1.49e+00	0	41	104	0	75	19837
2026-01-01 00:41:35.75	347.30	29.07	-51.6	-66.7	3.8	1.49e+00	0	41	104	0	75	19837
2026-01-01 00:41:38.91	346.60	29.52	-51.6	-66.7	3.8	1.49e+00	0	41	104	0	75	19787
2026-01-01 00:41:41.78	345.95	29.92	-51.6	-66.8	3.8	1.49e+00	0	41	104	0	75	19920
2026-01-01 00:41:44.94	345.22	30.37	-51.6	-66.7	3.8	1.49e+00	0	41	104	0	75	19760
2026-01-01 00:41:47.80	344.53	30.77	-51.5	-66.7	3.8	1.49e+00	0	41	104	0	75	19796
2026-01-01 00:41:50.96	343.76	31.22	-51.5	-66.7	3.8	1.49e+00	0	41	104	0	75	19765
2026-01-01 00:41:53.83	343.03	31.63	-51.5	-66.7	3.8	1.49e+00	0	41	104	0	75	19753
2026-01-01 00:41:56.99	342.22	32.08	-51.5	-66.7	3.8	1.49e+00	0	41	104	0	75	19712
2026-01-01 00:41:59.85	341.45	32.48	-51.6	-66.7	3.8	1.49e+00	0	41	104	0	75	19810
2026-01-01 00:42:03.01	340.59	32.93	-51.5	-66.7	3.8	1.49e+00	0	41	104	0	75	19746
2026-01-01 00:42:05.88	339.79	33.34	-51.5	-66.7	3.8	1.49e+00	0	41	104	0	75	19698
2026-01-01 00:42:09.03	338.88	33.79	-51.5	-66.7	3.8	1.49e+00	0	41	104	0	75	19704
2026-01-01 00:42:11.90	338.03	34.19	-51.5	-66.7	3.8	1.49e+00	0	41	104	0	75	19672
2026-01-01 00:42:15.06	337.07	34.63	-51.5	-66.7	3.8	1.49e+00	0	41	104	0	75	19648
2026-01-01 00:42:17.93	336.17	35.03	-51.5	-66.7	3.8	1.49e+00	0	41	104	0	75	19725
2026-01-01 00:42:21.08	335.17	35.47	-51.5	-66.7	3.8	1.49e+00	0	41	104	0	75	19694
2026-01-01 00:42:23.95	334.22	35.86	-51.5	-66.7	3.8	1.49e+00	0	41	104	0	75	19632
2026-01-01 00:42:27.11	333.16	36.29	-51.5	-66.7	3.8	1.49e+00	0	41	104	0	75	19733
2026-01-01 00:42:29.98	332.17	36.67	-51.5	-66.7	3.8	1.49e+00	0	41	104	0	75	19749
2026-01-01 00:42:33.13	331.06	37.08	-51.5	-66.7	3.8	1.49e+00	0	41	104	0	75	19736
2026-01-01 00:42:36.00	330.02	37.45	-51.5	-66.7	3.8	1.49e+00	0	41	104	0	75	19778
2026-01-01 00:42:39.16	328.84	37.85	-51.6	-66.7	3.8	1.49e+00	0	41	104	0	75	19726
2026-01-01 00:42:42.03	327.75	38.21	-51.6	-66.7	3.8	1.49e+00	0	41	104	0	75	19817
2026-01-01 00:42:45.19	326.52	38.59	-51.5	-66.7	3.8	1.49e+00	0	41	104	0	75	19779
2026-01-01 00:42:48.06	325.38	38.92	-51.6	-66.7	3.8	1.49e+00	0	41	104	0	75	19794
2026-01-01 00:42:51.21	324.10	39.28	-51.6	-66.8	3.8	1.49e+00	0	41	104	0	75	19907
2026-01-01 00:42:54.08	322.91	39.59	-51.6	-66.8	3.8	1.49e+00	0	41	104	0	75	19915
2026-01-01 00:42:57.24	321.58	39.92	-51.6	-66.8	3.8	1.49e+00	0	41	104	0	75	19893
2026-01-01 00:43:00.11	320.34	40.21	-51.6	-66.8	3.8	1.49e+00	0	41	104	0	75	19859
2026-01-01 00:43:03.26	318.95	40.52	-51.6	-66.8	3.8	1.49e+00	0	41	104	0	75	19909
2026-01-01 00:43:06.13	317.67	40.78	-51.6	-66.7	3.8	1.49e+00	0	41	104	0	75	19818
2026-01-01 00:43:09.29	316.23	41.04	-51.6	-66.7	3.8	1.49e+00	0	41	104	0	75	19814
2026-01-01 00:43:12.16	314.91	41.27	-51.5	-66.7	3.8	1.49e+00	0	41	104	0	75	19739
2026-01-01 00:43:15.32	313.43	41.51	-51.6	-66.8	3.8	1.49e+00	0	41	104	0	75	19861
2026-01-01 00:43:18.23	312.05	41.70	-51.6	-66.8	3.8	1.49e+00	0	41	104	0	75	19859
2026-01-01 00:43:21.25	310.60	41.89	-51.6	-66.8	3.8	1.49e+00	0	41	104	0	75	19883
2026-01-01 00:43:24.26	309.13	42.05	-51.5	-66.7	3.8	1.49e+00	0	41	104	0	75	19796
2026-01-01 00:43:27.27	307.66	42.19	-51.6	-66.8	3.8	1.49e+00	0	41	104	0	75	19846
2026-01-01 00:43:30.29	306.17	42.32	-51.6	-66.7	3.8	1.49e+00	0	41	104	0	75	19746
2026-01-01 00:43:33.36	304.64	42.42	-51.6	-66.8	3.8	1.49e+00	0	41	104	0	75	19842
2026-01-01 00:43:36.90	302.86	42.51	-51.6	-66.8	3.8	1.49e+00	0	41	104	0	75	19879
2026-01-01 00:43:39.62	301.49	42.55	-51.6	-66.8	3.8	1.49e+00	0	41	104	0	75	19874
2026-01-01 00:43:42.92	299.83	42.59	-51.6	-66.7	3.8	1.49e+00	0	41	104	0	75	19803
2026-01-01 00:43:45.65	298.45	42.59	-51.6	-66.7	3.8	1.49e+00	0	41	104	0	75	19826
2026-01-01 00:43:48.95	296.78	42.58	-51.5	-66.7	3.8	1.49e+00	0	41	104	0	75	19735
2026-01-01 00:43:51.67	295.41	42.54	-51.6	-66.8	3.8	1.49e+00	0	41	104	0	75	19959
2026-01-01 00:43:54.97	293.75	42.48	-51.5	-66.7	3.8	1.49e+00	0	41	104	0	75	19781
2026-01-01 00:43:57.70	292.39	42.40	-51.6	-66.8	3.8	1.49e+00	0	41	104	0	75	19863
2026-01-01 00:44:01.00	290.75	42.29	-51.6	-66.7	3.8	1.49e+00	0	41	104	0	75	19806
2026-01-01 00:44:03.73	289.40	42.17	-51.6	-66.8	3.8	1.49e+00	0	41	104	0	75	19903
2026-01-01 00:44:07.02	287.78	42.01	-51.6	-66.8	3.8	1.49e+00	0	41	104	0	75	19852
2026-01-01 00:44:09.75	286.46	41.86	-51.6	-66.7	3.8	1.49e+00	0	41	104	0	75	19768
2026-01-01 00:44:13.05	284.88	41.65	-51.6	-66.7	3.8	1.49e+00	0	41	104	0	75	19808
2026-01-01 00:44:15.78	283.58	41.46	-51.6	-66.8	3.8	1.49e+00	0	41	104	0	75	19846
2026-01-01 00:44:19.08	282.04	41.22	-51.5	-66.7	3.8	1.49e+00	0	41	104	0	75	19778
2026-01-01 00:44:21.80	280.79	41.00	-51.5	-66.6	3.8	1.49e+00	0	41	104	0	75	19600
2026-01-01 00:44:25.10	279.29	40.71	-51.5	-66.7	3.8	1.49e+00	0	41	104	0	75	19731
2026-01-01 00:44:27.83	278.07	40.46	-51.5	-66.7	3.8	1.49e+00	0	41	104	0	75	19697
2026-01-01 00:44:31.13	276.62	40.14	-51.6	-66.8	3.8	1.49e+00	0	41	104	0	75	19867
2026-01-01 00:44:33.85	275.45	39.86	-51.5	-66.7	3.8	1.49e+00	0	41	104	0	75	19728
2026-01-01 00:44:37.15	274.06	39.51	-51.5	-66.6	3.8	1.49e+00	0	41	104	0	75	19613
2026-01-01 00:44:39.88	272.93	39.21	-51.5	-66.7	3.8	1.49e+00	0	41	104	0	75	19721
2026-01-01 00:44:43.18	271.59	38.83	-51.6	-66.7	3.8	1.49e+00	0	41	104	0	75	19802
2026-01-01 00:44:45.90	270.51	38.51	-51.5	-66.7	3.8	1.49e+00	0	41	104	0	75	19723
2026-01-01 00:44:49.20	269.23	38.11	-51.5	-66.7	3.8	1.49e+00	0	41	104	0	75	19753
2026-01-01 00:44:51.92	268.20	37.77	-51.6	-66.7	3.8	1.49e+00	0	41	104	0	75	19826
2026-01-01 00:44:55.23	266.97	37.35	-51.6	-66.7	3.8	1.49e+00	0	41	104	0	75	19797
2026-01-01 00:44:57.95	265.99	37.00	-51.5	-66.7	3.8	1.49e+00	0	41	104	0	75	19808
2026-01-01 00:45:01.25	264.83	36.56	-51.5	-66.7	3.8	1.49e+00	0	41	104	0	75	19787
2026-01-01 00:45:03.98	263.88	36.19	-51.6	-66.7	3.8	1.49e+00	0	41	104	0	75	19752
2026-01-01 00:45:07.28	262.78	35.74	-51.5	-66.7	3.8	1.49e+00	0	41	104	0	75	19753
2026-01-01 00:45:10.00	261.89	35.37	-51.5	-66.7	3.8	1.49e+00	0	41	104	0	75	19752
2026-01-01 00:45:13.33	260.82	34.91	-51.6	-66.7	3.8	1.49e+00	0	41	104	0	75	19785
2026-01-01 00:45:16.61	259.80	34.45	-51.5	-66.7	3.8	1.49e+00	0	41	104	0	75	19724
2026-01-01 00:45:19.53	258.92	34.04	-51.6	-66.7	3.8	1.49e+00	0	41	104	0	75	19800
2026-01-01 00:45:22.54	258.04	33.61	-51.6	-66.7	3.8	1.49e+00	0	41	104	0	75	19769
2026-01-01 00:45:25.56	257.17	33.18	-51.6	-66.7	3.8	1.49e+00	0	42	104	0	75	19826
2026-01-01 00:45:28.57	256.33	32.75	-51.5	-66.7	3.8	1.49e+00	0	41	104	0	75	19671
2026-01-01 00:45:31.63	255.50	32.32	-51.5	-66.7	3.8	1.49e+00	0	41	104	0	75	19742
2026-01-01 00:45:34.64	254.70	31.89	-51.5	-66.7	3.8	1.49e+00	0	41	104	0	75	19793
2026-01-01 00:45:37.65	253.93	31.46	-51.6	-66.7	3.8	1.49e+00	0	42	104	0	75	19796
2026-01-01 00:45:40.66	253.17	31.03	-51.5	-66.7	3.8	1.49e+00	0	41	104	0	75	19759
2026-01-01 00:45:43.68	252.44	30.60	-51.5	-66.7	3.8	1.49e+00	0	41	104	0	75	19794
2026-01-01 00:45:46.69	251.72	30.17	-51.5	-66.7	3.8	1.49e+00	0	41	104	0	75	19752
2026-01-01 00:45:49.70	251.02	29.74	-51.5	-66.7	3.8	1.49e+00	0	41	104	0	75	19791
2026-01-01 00:45:52.71	250.34	29.32	-51.5	-66.7	3.8	1.49e+00	0	42	104	0	75	19667
2026-01-01 00:45:55.73	249.68	28.89	-51.5	-66.7	3.8	1.49e+00	0	41	104	0	75	19675
2026-01-01 00:45:58.74	249.04	28.47	-51.5	-66.7	3.8	1.49e+00	0	41	104	0	75	19641
2026-01-01 00:46:01.75	248.41	28.06	-51.5	-66.7	3.8	1.49e+00	0	41	104	0	75	19729
2026-01-01 00:46:04.76	247.80	27.64	-51.5	-66.7	3.8	1.49e+00	0	41	104	0	75	19797
2026-01-01 00:46:07.78	247.20	27.23	-51.5	-66.7	3.8	1.49e+00	0	41	104	0	75	19729
2026-01-01 00:46:10.79	246.62	26.82	-51.5	-66.7	3.8	1.49e+00	0	41	104	0	75	19683
2026-01-01 00:46:13.80	246.06	26.41	-51.5	-66.7	3.8	1.49e+00	0	41	104	0	75	19689
2026-01-01 00:46:16.81	245.51	26.01	-51.5	-66.7	3.8	1.49e+00	0	41	104	0	75	19714
2026-01-01 00:46:19.82	244.97	25.61	-51.5	-66.7	3.8	1.49e+00	0	41	104	0	75	19703
2026-01-01 00:46:22.84	244.45	25.21	-51.5	-66.7	3.8	1.49e+00	0	41	104	0	75	19727
2026-01-01 00:46:25.85	243.94	24.81	-51.5	-66.7	3.8	1.49e+00	0	41	104	0	75	19630
2026-01-01 00:46:28.86	243.44	24.42	-51.5	-66.7	3.8	1.49e+00	0	41	104	0	75	19622
2026-01-01 00:46:31.85	242.96	24.04	-51.5	-66.7	3.8	1.49e+00	0	41	104	0	74	20850
2026-01-01 00:46:34.86	242.49	23.65	-51.5	-66.7	3.8	1.49e+00	0	42	104	0	74	20858
2026-01-01 00:46:37.88	242.02	23.27	-51.5	-66.7	3.8	1.49e+00	0	41	104	0	74	20843
2026-01-01 00:46:40.89	241.57	22.90	-51.5	-66.6	3.8	1.49e+00	0	42	104	0	74	20720
2026-01-01 00:46:43.90	241.13	22.52	-51.5	-66.7	3.8	1.49e+00	0	41	104	0	74	20791
2026-01-01 00:46:46.92	240.70	22.15	-51.5	-66.7	3.8	1.49e+00	0	41	104	0	74	20893
2026-01-01 00:46:49.93	240.28	21.79	-51.5	-66.7	3.8	1.49e+00	0	41	104	0	74	20782
2026-01-01 00:46:52.94	239.88	21.42	-51.5	-66.7	3.8	1.49e+00	0	42	104	0	74	20820
2026-01-01 00:46:55.95	239.48	21.07	-51.5	-66.7	3.8	1.49e+00	0	42	104	0	74	20888
2026-01-01 00:46:58.96	239.09	20.71	-51.5	-66.7	3.8	1.49e+00	0	41	104	0	74	20902
2026-01-01 00:47:01.98	238.70	20.36	-51.5	-66.7	3.8	1.49e+00	0	42	104	0	74	20797
2026-01-01 00:47:04.99	238.33	20.01	-51.5	-66.7	3.8	1.49e+00	0	41	104	0	74	20920
2026-01-01 00:47:08.00	237.97	19.67	-51.5	-66.7	3.8	1.49e+00	0	41	104	0	74	20859
2026-01-01 00:47:11.02	237.61	19.33	-51.5	-66.7	3.8	1.49e+00	0	41	104	0	74	20951
2026-01-01 00:47:14.03	237.26	18.99	-51.6	-66.7	3.8	1.49e+00	0	41	104	0	74	20999
2026-01-01 00:47:17.04	236.92	18.65	-51.6	-66.8	3.8	1.49e+00	0	42	104	0	74	21020
2026-01-01 00:47:20.05	236.59	18.32	-51.6	-66.7	3.8	1.49e+00	0	41	104	0	74	20974
2026-01-01 00:47:23.06	236.27	18.00	-51.5	-66.7	3.8	1.49e+00	0	41	104	0	74	20954
2026-01-01 00:47:26.08	235.95	17.67	-51.6	-66.8	3.8	1.49e+00	0	41	104	0	74	21020
2026-01-01 00:47:29.09	235.64	17.35	-51.6	-66.7	3.8	1.49e+00	0	42	104	0	74	20997
2026-01-01 00:47:32.10	235.33	17.04	-51.6	-66.8	3.8	1.49e+00	0	42	104	0	74	21057
2026-01-01 00:47:35.12	235.03	16.72	-51.6	-66.8	3.8	1.49e+00	0	41	104	0	74	21087
2026-01-01 00:47:38.13	234.74	16.41	-51.6	-66.8	3.8	1.49e+00	0	42	104	0	74	21114
2026-01-01 00:47:41.14	234.45	16.10	-51.6	-66.7	3.8	1.49e+00	0	42	104	0	74	21014
2026-01-01 00:47:44.16	234.17	15.80	-51.6	-66.8	3.8	1.49e+00	0	41	104	0	74	21033
2026-01-01 00:47:47.17	233.90	15.50	-51.6	-66.7	3.8	1.49e+00	0	42	104	0	74	21003
2026-01-01 00:47:50.19	233.63	15.20	-51.6	-66.7	3.8	1.49e+00	0	41	104	0	74	20942
2026-01-01 00:47:53.20	233.37	14.90	-51.6	-66.8	3.8	1.49e+00	0	41	104	0	74	21140
2026-01-01 00:47:56.21	233.11	14.61	-51.6	-66.8	3.8	1.49e+00	0	42	104	0	74	21052
2026-01-01 00:47:59.22	232.85	14.32	-51.6	-66.7	3.8	1.49e+00	0	42	104	0	74	21007
2026-01-01 00:48:02.23	232.61	14.03	-51.6	-66.8	3.8	1.49e+00	0	42	104	0	74	21081
2026-01-01 00:48:05.25	232.36	13.75	-51.6	-66.8	3.8	1.49e+00	0	42	104	0	74	21099
2026-01-01 00:48:08.26	232.12	13.47	-51.6	-66.8	3.8	1.49e+00	0	42	104	0	74	21165
2026-01-01 00:48:11.27	231.89	13.19	-51.6	-66.8	3.8	1.49e+00	0	41	104	0	74	21033
2026-01-01 00:48:14.39	231.65	12.90	-51.6	-66.8	3.8	1.49e+00	0	42	104	0	74	21117
2026-01-01 00:48:17.79	231.40	12.60	-51.6	-66.8	3.8	1.49e+00	0	42	104	0	74	21024
2026-01-01 00:48:20.51	231.20	12.35	-51.6	-66.8	3.8	1.49e+00	0	42	104	0	74	21032
2026-01-01 00:48:23.81	230.96	12.06	-51.6	-66.8	3.8	1.49e+00	0	41	104	0	74	21058
2026-01-01 00:48:26.54	230.77	11.82	-51.6	-66.8	3.8	1.49e+00	0	42	104	0	74	21153
2026-01-01 00:48:29.93	230.54	11.52	-51.6	-66.7	3.8	1.49e+00	0	42	104	0	74	20995
2026-01-01 00:48:32.66	230.35	11.29	-51.6	-66.7	3.8	1.49e+00	0	42	104	0	74	21008
2026-01-01 00:48:35.95	230.13	11.01	-51.6	-66.8	3.8	1.49e+00	0	42	104	0	74	21070
2026-01-01 00:48:38.68	229.96	10.78	-51.6	-66.8	3.8	1.49e+00	0	42	104	0	74	21034
2026-01-01 00:48:41.98	229.74	10.50	-51.6	-66.7	3.8	1.49e+00	0	42	104	0	74	20908
2026-01-01 00:48:44.70	229.57	10.27	-51.6	-66.7	3.8	1.49e+00	0	42	104	0	74	20961
2026-01-01 00:48:48.01	229.37	10.00	-51.6	-66.8	3.8	1.49e+00	0	41	104	0	74	21058
2026-01-01 00:48:50.73	229.20	9.78	-51.6	-66.8	3.8	1.49e+00	0	42	104	0	74	21074
2026-01-01 00:48:54.03	229.00	9.51	-51.5	-66.7	3.8	1.49e+00	0	42	104	0	74	21005
2026-01-01 00:48:56.76	228.84	9.29	-51.5	-66.7	3.8	1.49e+00	0	42	104	0	74	20974
2026-01-01 00:49:00.06	228.65	9.03	-51.6	-66.8	3.8	1.49e+00	0	42	104	0	74	21094
2026-01-01 00:49:02.78	228.50	8.81	-51.6	-66.9	3.8	1.49e+00	0	41	104	0	74	21273
2026-01-01 00:49:06.08	228.31	8.55	-51.6	-66.8	3.8	1.49e+00	0	42	104	0	74	21034
2026-01-01 00:49:08.80	228.16	8.34	-51.6	-66.8	3.8	1.49e+00	0	42	104	0	74	21061
2026-01-01 00:49:12.10	227.98	8.09	-51.6	-66.8	3.8	1.49e+00	0	42	104	0	74	21061
2026-01-01 00:49:14.82	227.84	7.88	-51.6	-66.8	3.8	1.49e+00	0	42	104	0	74	21058
2026-01-01 00:49:18.12	227.67	7.63	-51.6	-66.7	3.8	1.49e+00	0	42	104	0	74	20914
2026-01-01 00:49:20.85	227.53	7.42	-51.6	-66.8	3.8	1.49e+00	0	41	104	0	74	21135
2026-01-01 00:49:24.15	227.36	7.18	-51.6	-66.8	3.8	1.49e+00	0	42	104	0	74	21036
2026-01-01 00:49:26.87	227.22	6.98	-51.6	-66.7	3.8	1.49e+00	0	42	104	0	74	21000
2026-01-01 00:49:30.17	227.06	6.73	-51.6	-66.7	3.8	1.49e+00	0	42	104	0	74	20995
2026-01-01 00:49:32.90	226.93	6.53	-51.6	-66.7	3.8	1.49e+00	0	42	104	0	74	21013
2026-01-01 00:49:36.20	226.77	6.30	-51.5	-66.7	3.8	1.49e+00	0	42	104	0	74	20933
2026-01-01 00:49:38.92	226.65	6.10	-51.6	-66.7	3.8	1.49e+00	0	42	104	0	74	21011
2026-01-01 00:49:42.22	226.49	5.87	-51.6	-66.8	3.8	1.49e+00	0	42	104	0	74	21042
2026-01-01 00:49:44.95	226.37	5.67	-51.6	-66.7	3.8	1.49e+00	0	42	104	0	74	20979
2026-01-01 00:49:48.25	226.22	5.44	-51.6	-66.7	3.8	1.49e+00	0	41	104	0	74	20993
2026-01-01 00:49:50.97	226.10	5.25	-51.6	-66.8	3.8	1.49e+00	0	42	104	0	74	21044
2026-01-01 00:49:54.28	225.96	5.02	-51.6	-66.8	3.8	1.49e+00	0	42	104	0	74	21048

#Closed at: 2026-01-01 00:49:56
#Recorded file [0 MB]: D:/Data/31040_260101_033733.dat