passes_logs/2026/01/01/T1/T1__20260101_000757_NOAA_21_JPSS-2_rec.log

#Pass ID: 20260101_000757_NOAA 21 (JPSS-2)
#Satellite: NOAA 21 (JPSS-2)
#Configuration: NOAA 21
#almurnet v.1.7.20251203
#Start time: 2026-01-01 00:07:57

#Version: 2.0.20230620
#Station: T1
#Location: 37.570604 lon 55.790049 lat
#TLE: 1 54234U 22150A   25365.42224288  .00000199  00000+0  11529-3 0  9990
#TLE: 2 54234  98.7483 301.4995 0001320 356.2106   3.9060 14.19530300162743

#Time	Az	El	Level	Level2	SNR	BER	BlckErr	Temp	State	Recorded	gain1	gain2
2026-01-01 00:07:57.15	13.50	4.97	-52.5	-65.6	3.8	1.49e+00	0	36	0	0	75	17350
2026-01-01 00:08:00.16	13.44	5.18	-52.5	-65.6	3.8	1.49e+00	0	36	104	0	77	15444
2026-01-01 00:08:03.17	13.38	5.39	-52.5	-65.5	3.8	1.49e+00	0	36	104	0	77	15399
2026-01-01 00:08:06.18	13.32	5.61	-52.5	-65.6	3.8	1.49e+00	0	37	104	0	77	15479
2026-01-01 00:08:09.19	13.26	5.83	-52.5	-65.6	3.8	1.49e+00	0	37	104	0	77	15467
2026-01-01 00:08:12.21	13.19	6.05	-52.6	-65.7	3.8	1.49e+00	0	37	104	0	77	15582
2026-01-01 00:08:15.22	13.13	6.27	-52.5	-65.6	3.8	1.49e+00	0	37	104	0	77	15439
2026-01-01 00:08:18.23	13.06	6.49	-52.6	-65.6	3.8	1.49e+00	0	37	104	0	77	15489
2026-01-01 00:08:21.24	12.99	6.72	-52.6	-65.6	3.8	1.49e+00	0	37	104	0	77	15530
2026-01-01 00:08:24.25	12.92	6.95	-52.5	-65.5	3.8	1.49e+00	0	37	104	0	77	15382
2026-01-01 00:08:27.26	12.85	7.17	-52.5	-65.5	3.8	1.49e+00	0	37	104	0	77	15357
2026-01-01 00:08:30.35	12.78	7.41	-52.5	-65.6	3.8	1.49e+00	0	38	104	0	77	15497
2026-01-01 00:08:33.35	12.70	7.64	-52.5	-65.6	3.8	1.49e+00	0	38	104	0	77	15457
2026-01-01 00:08:36.72	12.62	7.91	-52.5	-65.6	3.8	1.49e+00	0	37	104	0	77	15456
2026-01-01 00:08:39.45	12.55	8.12	-52.6	-65.6	3.8	1.49e+00	0	37	104	0	77	15532
2026-01-01 00:08:42.74	12.46	8.39	-52.5	-65.6	3.8	1.49e+00	0	38	104	0	77	15438
2026-01-01 00:08:45.50	12.39	8.61	-52.5	-65.6	3.8	1.49e+00	0	38	104	0	77	15412
2026-01-01 00:08:48.86	12.30	8.88	-52.6	-65.6	3.8	1.49e+00	0	38	104	0	77	15482
2026-01-01 00:08:51.59	12.22	9.10	-52.6	-65.6	3.8	1.49e+00	0	38	104	0	77	15520
2026-01-01 00:08:54.88	12.13	9.38	-52.5	-65.6	3.8	1.49e+00	0	38	104	0	77	15407
2026-01-01 00:08:57.61	12.05	9.61	-52.5	-65.6	3.8	1.49e+00	0	38	104	0	77	15458
2026-01-01 00:09:00.90	11.96	9.88	-52.5	-65.6	3.8	1.49e+00	0	38	104	0	77	15471
2026-01-01 00:09:03.63	11.88	10.12	-52.6	-65.6	3.8	1.49e+00	0	38	104	0	77	15437
2026-01-01 00:09:06.92	11.78	10.40	-52.5	-65.5	3.8	1.49e+00	0	38	104	0	76	16246
2026-01-01 00:09:09.65	11.69	10.64	-52.6	-65.6	3.8	1.49e+00	0	38	104	0	76	16381
2026-01-01 00:09:12.94	11.59	10.93	-52.5	-65.6	3.8	1.49e+00	0	38	104	0	76	16321
2026-01-01 00:09:15.67	11.50	11.17	-52.5	-65.6	3.8	1.49e+00	0	38	104	0	76	16365
2026-01-01 00:09:18.97	11.39	11.46	-52.5	-65.5	3.8	1.49e+00	0	38	104	0	76	16194
2026-01-01 00:09:21.69	11.30	11.71	-52.6	-65.6	3.8	1.49e+00	0	38	104	0	76	16477
2026-01-01 00:09:24.99	11.19	12.01	-52.5	-65.6	3.8	1.49e+00	0	38	104	0	76	16400
2026-01-01 00:09:27.71	11.09	12.27	-52.5	-65.6	3.8	1.49e+00	0	38	104	0	76	16325
2026-01-01 00:09:31.01	10.97	12.58	-52.5	-65.5	3.8	1.49e+00	0	39	104	0	76	16280
2026-01-01 00:09:33.73	10.87	12.83	-52.5	-65.5	3.8	1.49e+00	0	38	104	0	76	16228
2026-01-01 00:09:37.03	10.75	13.15	-52.5	-65.5	3.8	1.49e+00	0	39	104	0	76	16308
2026-01-01 00:09:39.75	10.65	13.42	-52.6	-65.6	3.8	1.49e+00	0	39	104	0	76	16447
2026-01-01 00:09:43.05	10.52	13.74	-52.5	-65.6	3.8	1.49e+00	0	38	104	0	76	16332
2026-01-01 00:09:45.77	10.41	14.01	-52.5	-65.5	3.8	1.49e+00	0	39	104	0	76	16293
2026-01-01 00:09:49.07	10.27	14.34	-52.5	-65.6	3.8	1.49e+00	0	39	104	0	76	16372
2026-01-01 00:09:51.79	10.16	14.62	-52.5	-65.5	3.8	1.49e+00	0	39	104	0	76	16285
2026-01-01 00:09:55.09	10.02	14.96	-52.5	-65.5	3.8	1.49e+00	0	39	104	0	76	16268
2026-01-01 00:09:57.81	9.90	15.24	-52.5	-65.5	3.8	1.49e+00	0	39	104	0	76	16266
2026-01-01 00:10:01.10	9.75	15.59	-52.5	-65.6	3.8	1.49e+00	0	39	104	0	76	16377
2026-01-01 00:10:03.83	9.63	15.88	-52.6	-65.6	3.8	1.49e+00	0	39	104	0	76	16383
2026-01-01 00:10:07.13	9.48	16.24	-52.5	-65.6	3.8	1.49e+00	0	39	104	0	76	16379
2026-01-01 00:10:09.85	9.34	16.54	-52.5	-65.6	3.8	1.49e+00	0	39	104	0	76	16397
2026-01-01 00:10:13.14	9.18	16.90	-52.5	-65.5	3.8	1.49e+00	0	39	104	0	76	16244
2026-01-01 00:10:15.86	9.05	17.21	-52.5	-65.6	3.8	1.49e+00	0	39	104	0	76	16356
2026-01-01 00:10:19.16	8.88	17.59	-52.5	-65.6	3.8	1.49e+00	0	39	104	0	76	16409
2026-01-01 00:10:21.89	8.73	17.90	-52.5	-65.5	3.8	1.49e+00	0	39	104	0	76	16265
2026-01-01 00:10:25.18	8.55	18.29	-52.5	-65.5	3.8	1.49e+00	0	39	104	0	76	16248
2026-01-01 00:10:27.91	8.40	18.61	-52.5	-65.6	3.8	1.49e+00	0	39	104	0	76	16369
2026-01-01 00:10:31.20	8.21	19.01	-52.5	-65.5	3.8	1.49e+00	0	39	104	0	76	16293
2026-01-01 00:10:33.92	8.06	19.34	-52.5	-65.6	3.8	1.49e+00	0	39	104	0	76	16342
2026-01-01 00:10:37.22	7.86	19.75	-52.5	-65.5	3.8	1.49e+00	0	39	104	0	76	16202
2026-01-01 00:10:39.94	7.69	20.09	-52.5	-65.5	3.8	1.49e+00	0	39	104	0	76	16307
2026-01-01 00:10:43.24	7.48	20.52	-52.5	-65.6	3.8	1.49e+00	0	39	104	0	76	16368
2026-01-01 00:10:45.96	7.31	20.87	-52.5	-65.5	3.8	1.49e+00	0	39	104	0	76	16256
2026-01-01 00:10:49.26	7.09	21.30	-52.4	-65.5	3.8	1.49e+00	0	39	104	0	76	16198
2026-01-01 00:10:52.22	6.88	21.70	-52.5	-65.6	3.8	1.49e+00	0	39	104	0	76	16338
2026-01-01 00:10:55.23	6.67	22.10	-52.5	-65.6	3.8	1.49e+00	0	39	104	0	76	16349
2026-01-01 00:10:58.24	6.45	22.52	-52.5	-65.5	3.8	1.49e+00	0	39	104	0	76	16242
2026-01-01 00:11:01.25	6.23	22.94	-52.5	-65.5	3.8	1.49e+00	0	39	104	0	76	16281
2026-01-01 00:11:04.38	5.99	23.38	-52.5	-65.5	3.8	1.49e+00	0	39	104	0	76	16233
2026-01-01 00:11:07.70	5.73	23.86	-52.4	-65.5	3.8	1.49e+00	0	39	104	0	76	16189
2026-01-01 00:11:10.43	5.50	24.26	-52.4	-65.5	3.8	1.49e+00	0	39	104	0	76	16182
2026-01-01 00:11:13.73	5.23	24.75	-52.4	-65.5	3.8	1.49e+00	0	39	104	0	76	16175
2026-01-01 00:11:16.45	4.99	25.16	-52.5	-65.5	3.8	1.49e+00	0	39	104	0	76	16178
2026-01-01 00:11:19.91	4.68	25.69	-52.4	-65.5	3.8	1.49e+00	0	39	104	0	76	16163
2026-01-01 00:11:22.63	4.43	26.12	-52.4	-65.4	3.8	1.49e+00	0	39	104	0	76	16113
2026-01-01 00:11:25.93	4.12	26.64	-52.4	-65.5	3.8	1.49e+00	0	39	104	0	76	16189
2026-01-01 00:11:28.66	3.85	27.08	-52.4	-65.5	3.8	1.49e+00	0	39	104	0	76	16213
2026-01-01 00:11:31.96	3.52	27.62	-52.5	-65.5	3.8	1.49e+00	0	39	104	0	76	16243
2026-01-01 00:11:34.69	3.24	28.08	-52.4	-65.5	3.8	1.49e+00	0	39	104	0	76	16181
2026-01-01 00:11:37.99	2.88	28.63	-52.5	-65.5	3.8	1.49e+00	0	39	104	0	76	16214
2026-01-01 00:11:40.71	2.58	29.10	-52.4	-65.5	3.8	1.49e+00	0	39	104	0	76	16157
2026-01-01 00:11:44.01	2.20	29.68	-52.5	-65.5	3.8	1.49e+00	0	39	104	0	76	16301
2026-01-01 00:11:46.74	1.87	30.16	-52.5	-65.5	3.8	1.49e+00	0	39	104	0	76	16214
2026-01-01 00:11:50.04	1.46	30.76	-52.5	-65.6	3.8	1.49e+00	0	39	104	0	76	16379
2026-01-01 00:11:52.77	1.12	31.26	-52.5	-65.5	3.8	1.49e+00	0	39	104	0	76	16306
2026-01-01 00:11:56.07	0.68	31.88	-52.5	-65.5	3.8	1.49e+00	0	39	104	0	76	16282
2026-01-01 00:11:58.79	0.31	32.39	-52.4	-65.5	3.8	1.49e+00	0	39	104	0	76	16243
2026-01-01 00:12:02.09	359.84	33.03	-52.5	-65.5	3.8	1.49e+00	0	39	104	0	76	16310
2026-01-01 00:12:04.82	359.43	33.56	-52.5	-65.6	3.8	1.49e+00	0	39	104	0	76	16357
2026-01-01 00:12:08.12	358.93	34.22	-52.5	-65.5	3.8	1.49e+00	0	39	104	0	76	16229
2026-01-01 00:12:10.84	358.49	34.77	-52.4	-65.5	3.8	1.49e+00	0	39	104	0	76	16206
2026-01-01 00:12:14.14	357.95	35.45	-52.4	-65.5	3.8	1.49e+00	0	39	104	0	76	16172
2026-01-01 00:12:16.86	357.48	36.02	-52.5	-65.6	3.8	1.49e+00	0	39	104	0	76	16315
2026-01-01 00:12:20.17	356.89	36.72	-52.5	-65.6	3.8	1.49e+00	0	39	104	0	76	16435
2026-01-01 00:12:22.89	356.38	37.30	-52.5	-65.5	3.8	1.49e+00	0	39	104	0	76	16234
2026-01-01 00:12:26.19	355.74	38.02	-52.4	-65.5	3.8	1.49e+00	0	39	104	0	76	16185
2026-01-01 00:12:28.92	355.19	38.63	-52.5	-65.5	3.8	1.49e+00	0	39	104	0	76	16219
2026-01-01 00:12:32.21	354.50	39.37	-52.4	-65.5	3.8	1.49e+00	0	39	104	0	76	16131
2026-01-01 00:12:34.94	353.90	39.99	-52.4	-65.5	3.8	1.49e+00	0	39	104	0	76	16169
2026-01-01 00:12:38.24	353.14	40.75	-52.4	-65.5	3.8	1.49e+00	0	39	104	0	76	16172
2026-01-01 00:12:40.97	352.48	41.39	-52.5	-65.5	3.8	1.49e+00	0	39	104	0	76	16258
2026-01-01 00:12:44.27	351.65	42.17	-52.5	-65.6	3.8	1.49e+00	0	39	104	0	76	16408
2026-01-01 00:12:47.10	350.91	42.84	-52.4	-65.5	3.8	1.49e+00	0	39	104	0	76	16206
2026-01-01 00:12:50.26	350.04	43.61	-52.4	-65.5	3.8	1.49e+00	0	39	104	0	76	16166
2026-01-01 00:12:53.51	349.10	44.40	-52.5	-65.5	3.8	1.49e+00	0	39	104	0	76	16235
2026-01-01 00:12:56.38	348.23	45.10	-52.4	-65.5	3.8	1.49e+00	0	39	104	0	76	16143
2026-01-01 00:12:59.59	347.22	45.90	-52.5	-65.5	3.8	1.49e+00	0	39	104	0	76	16248
2026-01-01 00:13:02.53	346.23	46.63	-52.4	-65.5	3.8	1.49e+00	0	39	104	0	76	16178
2026-01-01 00:13:05.75	345.11	47.44	-52.4	-65.5	3.8	1.49e+00	0	39	104	0	76	16142
2026-01-01 00:13:08.62	344.05	48.16	-52.4	-65.5	3.8	1.49e+00	0	39	104	0	76	16187
2026-01-01 00:13:11.77	342.83	48.95	-52.4	-65.4	3.8	1.49e+00	0	39	104	0	76	16123
2026-01-01 00:13:14.64	341.66	49.67	-52.4	-65.4	3.8	1.49e+00	0	39	104	0	76	16069
2026-01-01 00:13:17.80	340.31	50.46	-52.4	-65.5	3.8	1.49e+00	0	39	104	0	76	16259
2026-01-01 00:13:20.67	339.02	51.18	-52.4	-65.5	3.8	1.49e+00	0	39	104	0	76	16165
2026-01-01 00:13:23.82	337.53	51.96	-52.4	-65.5	3.8	1.49e+00	0	39	104	0	76	16208
2026-01-01 00:13:26.69	336.11	52.66	-52.4	-65.5	3.8	1.49e+00	0	39	104	0	76	16132
2026-01-01 00:13:29.85	334.46	53.42	-52.4	-65.5	3.8	1.49e+00	0	39	104	0	76	16140
2026-01-01 00:13:32.71	332.89	54.10	-52.4	-65.5	3.8	1.49e+00	0	39	104	0	76	16204
2026-01-01 00:13:35.87	331.06	54.83	-52.4	-65.5	3.8	1.49e+00	0	39	104	0	76	16188
2026-01-01 00:13:38.74	329.32	55.48	-52.4	-65.5	3.8	1.49e+00	0	39	104	0	76	16190
2026-01-01 00:13:41.90	327.31	56.17	-52.5	-65.5	3.8	1.49e+00	0	39	104	0	76	16258
2026-01-01 00:13:44.76	325.41	56.77	-52.4	-65.5	3.8	1.49e+00	0	39	104	0	76	16265
2026-01-01 00:13:47.92	323.21	57.40	-52.4	-65.5	3.8	1.49e+00	0	39	104	0	76	16248
2026-01-01 00:13:50.79	321.12	57.94	-52.5	-65.5	3.8	1.49e+00	0	39	104	0	76	16231
2026-01-01 00:13:53.94	318.73	58.50	-52.4	-65.5	3.8	1.49e+00	0	39	104	0	76	16168
2026-01-01 00:13:56.81	316.47	58.98	-52.5	-65.5	3.8	1.49e+00	0	39	104	0	76	16191
2026-01-01 00:13:59.97	313.88	59.45	-52.5	-65.6	3.8	1.49e+00	0	39	104	0	76	16342
2026-01-01 00:14:02.84	311.46	59.84	-52.5	-65.5	3.8	1.49e+00	0	39	104	0	76	16293
2026-01-01 00:14:05.99	308.71	60.21	-52.5	-65.5	3.8	1.49e+00	0	39	104	0	76	16261
2026-01-01 00:14:08.86	306.15	60.50	-52.5	-65.5	3.8	1.49e+00	0	39	104	0	76	16261
2026-01-01 00:14:12.01	303.27	60.75	-52.5	-65.5	3.8	1.49e+00	0	39	104	0	76	16300
2026-01-01 00:14:14.88	300.61	60.93	-52.5	-65.5	3.8	1.49e+00	0	39	104	0	76	16199
2026-01-01 00:14:18.04	297.64	61.06	-52.5	-65.5	3.8	1.49e+00	0	39	104	0	76	16258
2026-01-01 00:14:20.91	294.92	61.12	-52.5	-65.6	3.8	1.49e+00	0	39	104	0	76	16320
2026-01-01 00:14:24.06	291.93	61.12	-52.4	-65.5	3.8	1.49e+00	0	39	104	0	76	16203
2026-01-01 00:14:26.93	289.21	61.06	-52.5	-65.5	3.8	1.49e+00	0	39	104	0	76	16234
2026-01-01 00:14:30.08	286.24	60.93	-52.5	-65.5	3.8	1.49e+00	0	39	104	0	76	16252
2026-01-01 00:14:32.95	283.57	60.76	-52.5	-65.5	3.8	1.49e+00	0	39	104	0	76	16249
2026-01-01 00:14:36.10	280.69	60.50	-52.4	-65.5	3.8	1.49e+00	0	39	104	0	76	16203
2026-01-01 00:14:38.97	278.13	60.22	-52.4	-65.5	3.8	1.49e+00	0	39	104	0	76	16218
2026-01-01 00:14:42.12	275.38	59.85	-52.5	-65.5	3.8	1.49e+00	0	39	104	0	76	16213
2026-01-01 00:14:44.99	272.95	59.46	-52.5	-65.6	3.8	1.49e+00	0	39	104	0	76	16362
2026-01-01 00:14:48.14	270.37	58.99	-52.5	-65.5	3.8	1.49e+00	0	39	104	0	76	16256
2026-01-01 00:14:51.01	268.10	58.52	-52.5	-65.5	3.8	1.49e+00	0	39	104	0	76	16202
2026-01-01 00:14:54.16	265.70	57.96	-52.5	-65.5	3.8	1.49e+00	0	39	104	0	76	16279
2026-01-01 00:14:57.03	263.61	57.41	-52.5	-65.5	3.8	1.49e+00	0	39	104	0	76	16203
2026-01-01 00:15:00.18	261.41	56.78	-52.5	-65.5	3.8	1.49e+00	0	39	104	0	76	16264
2026-01-01 00:15:03.05	259.49	56.18	-52.5	-65.6	3.8	1.49e+00	0	39	104	0	76	16326
2026-01-01 00:15:06.20	257.48	55.49	-52.5	-65.5	3.8	1.49e+00	0	39	104	0	76	16248
2026-01-01 00:15:09.07	255.74	54.84	-52.4	-65.5	3.8	1.49e+00	0	39	104	0	76	16212
2026-01-01 00:15:12.23	253.91	54.10	-52.5	-65.5	3.8	1.49e+00	0	39	104	0	76	16239
2026-01-01 00:15:15.10	252.33	53.42	-52.5	-65.5	3.8	1.49e+00	0	39	104	0	76	16285
2026-01-01 00:15:18.25	250.68	52.66	-52.5	-65.5	3.8	1.49e+00	0	39	104	0	76	16210
2026-01-01 00:15:21.11	249.25	51.96	-52.5	-65.5	3.8	1.49e+00	0	39	104	0	76	16302
2026-01-01 00:15:24.22	247.77	51.19	-52.5	-65.5	3.8	1.49e+00	0	39	104	0	76	16273
2026-01-01 00:15:27.23	246.42	50.44	-52.5	-65.6	3.8	1.49e+00	0	39	104	0	76	16327
2026-01-01 00:15:30.25	245.12	49.68	-52.5	-65.5	3.8	1.49e+00	0	39	104	0	76	16293
2026-01-01 00:15:33.26	243.89	48.92	-52.5	-65.6	3.8	1.49e+00	0	39	104	0	76	16382
2026-01-01 00:15:36.33	242.70	48.14	-52.5	-65.5	3.8	1.49e+00	0	39	104	0	76	16272
2026-01-01 00:15:39.31	241.60	47.39	-52.5	-65.5	3.8	1.49e+00	0	39	104	0	76	16273
2026-01-01 00:15:42.58	240.45	46.57	-52.5	-65.5	3.8	1.49e+00	0	39	104	0	76	16285
2026-01-01 00:15:45.49	239.48	45.84	-52.5	-65.5	3.8	1.49e+00	0	39	104	0	76	16270
2026-01-01 00:15:48.79	238.43	45.02	-52.5	-65.5	3.8	1.49e+00	0	39	104	0	76	16290
2026-01-01 00:15:51.52	237.61	44.35	-52.5	-65.5	3.8	1.49e+00	0	39	104	0	76	16251
2026-01-01 00:15:54.82	236.65	43.54	-52.5	-65.6	3.8	1.49e+00	0	39	104	0	76	16396
2026-01-01 00:15:57.61	235.88	42.87	-52.5	-65.5	3.8	1.49e+00	0	39	104	0	76	16276
2026-01-01 00:16:00.90	235.01	42.08	-52.5	-65.5	3.8	1.49e+00	0	39	104	0	76	16304
2026-01-01 00:16:03.63	234.33	41.43	-52.5	-65.6	3.8	1.49e+00	0	39	104	0	76	16342
2026-01-01 00:16:06.93	233.53	40.66	-52.5	-65.6	3.8	1.49e+00	0	39	104	0	76	16321
2026-01-01 00:16:09.65	232.90	40.03	-52.5	-65.5	3.8	1.49e+00	0	39	104	0	76	16224
2026-01-01 00:16:12.94	232.17	39.27	-52.6	-65.6	3.8	1.49e+00	0	39	104	0	76	16493
2026-01-01 00:16:15.66	231.60	38.66	-52.6	-65.7	3.8	1.49e+00	0	39	104	0	76	16510
2026-01-01 00:16:18.96	230.93	37.93	-52.5	-65.5	3.8	1.49e+00	0	39	104	0	76	16253
2026-01-01 00:16:21.69	230.39	37.33	-52.5	-65.6	3.8	1.49e+00	0	39	104	0	76	16350
2026-01-01 00:16:24.99	229.78	36.61	-52.6	-65.6	3.8	1.49e+00	0	39	104	0	76	16411
2026-01-01 00:16:27.71	229.29	36.04	-52.5	-65.6	3.8	1.49e+00	0	39	104	0	76	16379
2026-01-01 00:16:31.00	228.72	35.35	-52.6	-65.6	3.8	1.49e+00	0	39	104	0	76	16442
2026-01-01 00:16:33.72	228.26	34.78	-52.5	-65.6	3.8	1.49e+00	0	39	104	0	76	16389
2026-01-01 00:16:37.02	227.74	34.11	-52.5	-65.6	3.8	1.49e+00	0	39	104	0	76	16321
2026-01-01 00:16:39.75	227.32	33.57	-52.5	-65.6	3.8	1.49e+00	0	39	104	0	76	16375
2026-01-01 00:16:43.05	226.83	32.92	-52.5	-65.5	3.8	1.49e+00	0	39	104	0	76	16248
2026-01-01 00:16:45.77	226.44	32.39	-52.5	-65.6	3.8	1.49e+00	0	39	104	0	76	16398
2026-01-01 00:16:49.08	225.98	31.76	-52.5	-65.6	3.8	1.49e+00	0	39	104	0	76	16315
2026-01-01 00:16:51.80	225.62	31.25	-52.5	-65.6	3.8	1.49e+00	0	39	104	0	76	16366
2026-01-01 00:16:55.10	225.19	30.64	-52.5	-65.5	3.8	1.49e+00	0	39	104	0	76	16292
2026-01-01 00:16:57.83	224.85	30.15	-52.5	-65.6	3.8	1.49e+00	0	39	104	0	76	16392
2026-01-01 00:17:01.13	224.46	29.56	-52.6	-65.7	3.8	1.49e+00	0	39	104	0	76	16510
2026-01-01 00:17:03.85	224.14	29.08	-52.6	-65.6	3.8	1.49e+00	0	39	104	0	76	16442
2026-01-01 00:17:07.16	223.77	28.51	-52.6	-65.6	3.8	1.49e+00	0	39	104	0	76	16429
2026-01-01 00:17:09.88	223.47	28.04	-52.5	-65.5	3.8	1.49e+00	0	39	104	0	76	16284
2026-01-01 00:17:13.18	223.13	27.49	-52.5	-65.6	3.8	1.49e+00	0	39	104	0	76	16412
2026-01-01 00:17:15.91	222.85	27.04	-52.5	-65.6	3.8	1.49e+00	0	39	104	0	76	16347
2026-01-01 00:17:19.21	222.52	26.51	-52.6	-65.6	3.8	1.49e+00	0	39	104	0	76	16454
2026-01-01 00:17:21.94	222.26	26.07	-52.6	-65.6	3.8	1.49e+00	0	39	104	0	76	16372
2026-01-01 00:17:25.24	221.96	25.56	-52.5	-65.6	3.8	1.49e+00	0	39	104	0	76	16411
2026-01-01 00:17:27.96	221.71	25.14	-52.6	-65.6	3.8	1.49e+00	0	39	104	0	76	16423
2026-01-01 00:17:31.18	221.43	24.65	-52.5	-65.6	3.8	1.49e+00	0	39	104	0	76	16399
2026-01-01 00:17:34.19	221.18	24.20	-52.5	-65.6	3.8	1.49e+00	0	39	104	0	76	16321
2026-01-01 00:17:37.20	220.93	23.76	-52.5	-65.5	3.8	1.49e+00	0	39	104	0	76	16300
2026-01-01 00:17:40.22	220.69	23.32	-52.5	-65.6	3.8	1.49e+00	0	39	104	0	76	16368
2026-01-01 00:17:43.23	220.45	22.89	-52.5	-65.6	3.8	1.49e+00	0	39	104	0	76	16370
2026-01-01 00:17:46.24	220.22	22.47	-52.5	-65.6	3.8	1.49e+00	0	39	104	0	76	16324
2026-01-01 00:17:49.26	220.00	22.05	-52.5	-65.5	3.8	1.49e+00	0	39	104	0	76	16313
2026-01-01 00:17:52.31	219.79	21.63	-52.5	-65.5	3.8	1.49e+00	0	39	104	0	76	16259
2026-01-01 00:17:55.39	219.57	21.22	-52.5	-65.6	3.8	1.49e+00	0	39	104	0	76	16336
2026-01-01 00:17:58.40	219.37	20.82	-52.5	-65.5	3.8	1.49e+00	0	39	104	0	76	16259
2026-01-01 00:18:01.62	219.16	20.40	-52.5	-65.5	3.8	1.49e+00	0	39	104	0	76	16278
2026-01-01 00:18:04.49	218.97	20.04	-52.6	-65.6	3.8	1.49e+00	0	39	104	0	76	16475
2026-01-01 00:18:07.65	218.77	19.64	-52.6	-65.6	3.8	1.49e+00	0	39	104	0	76	16402
2026-01-01 00:18:10.52	218.60	19.28	-52.6	-65.7	3.8	1.49e+00	0	39	104	0	76	16544
2026-01-01 00:18:13.74	218.41	18.88	-52.6	-65.7	3.8	1.49e+00	0	39	104	0	76	16547
2026-01-01 00:18:16.61	218.24	18.54	-52.7	-65.7	3.8	1.49e+00	0	39	104	0	76	16519
2026-01-01 00:18:19.76	218.06	18.16	-52.6	-65.7	3.8	1.49e+00	0	39	104	0	76	16530
2026-01-01 00:18:22.63	217.91	17.82	-52.6	-65.6	3.8	1.49e+00	0	39	104	0	76	16471
2026-01-01 00:18:25.79	217.74	17.45	-52.6	-65.7	3.8	1.49e+00	0	39	104	0	76	16530
2026-01-01 00:18:28.66	217.59	17.13	-52.6	-65.7	3.8	1.49e+00	0	39	104	0	76	16528
2026-01-01 00:18:31.82	217.43	16.77	-52.4	-65.5	3.8	1.49e+00	0	39	104	0	76	16175
2026-01-01 00:18:34.69	217.28	16.45	-52.5	-65.5	3.8	1.49e+00	0	39	104	0	76	16243
2026-01-01 00:18:37.84	217.13	16.10	-52.5	-65.5	3.8	1.49e+00	0	39	104	0	76	16238
2026-01-01 00:18:40.71	216.99	15.79	-52.4	-65.5	3.8	1.49e+00	0	39	104	0	76	16135
2026-01-01 00:18:43.87	216.84	15.45	-52.4	-65.5	3.8	1.49e+00	0	39	104	0	76	16184
2026-01-01 00:18:46.74	216.71	15.14	-52.4	-65.5	3.8	1.49e+00	0	39	104	0	76	16199
2026-01-01 00:18:49.89	216.57	14.81	-52.4	-65.5	3.8	1.49e+00	0	39	104	0	76	16189
2026-01-01 00:18:52.76	216.45	14.52	-52.4	-65.4	3.8	1.49e+00	0	39	104	0	76	16093
2026-01-01 00:18:55.92	216.31	14.20	-52.4	-65.5	3.8	1.49e+00	0	39	104	0	76	16162
2026-01-01 00:18:58.79	216.19	13.91	-52.4	-65.5	3.8	1.49e+00	0	39	104	0	76	16147
2026-01-01 00:19:01.95	216.06	13.59	-52.4	-65.4	3.8	1.49e+00	0	39	104	0	76	16127
2026-01-01 00:19:04.81	215.95	13.31	-52.4	-65.4	3.8	1.49e+00	0	39	104	0	76	16118
2026-01-01 00:19:07.97	215.82	13.00	-52.4	-65.4	3.8	1.49e+00	0	39	104	0	76	16016
2026-01-01 00:19:10.84	215.71	12.72	-52.4	-65.4	3.8	1.49e+00	0	39	104	0	76	16066
2026-01-01 00:19:14.00	215.60	12.42	-52.4	-65.4	3.8	1.49e+00	0	39	104	0	76	16073
2026-01-01 00:19:16.87	215.49	12.15	-52.4	-65.4	3.8	1.49e+00	0	39	104	0	76	16074
2026-01-01 00:19:20.02	215.38	11.86	-52.4	-65.5	3.8	1.49e+00	0	39	104	0	76	16163
2026-01-01 00:19:22.89	215.28	11.60	-52.4	-65.4	3.8	1.49e+00	0	39	104	0	76	16061
2026-01-01 00:19:26.05	215.17	11.31	-52.4	-65.4	3.8	1.49e+00	0	39	104	0	76	16107
2026-01-01 00:19:28.91	215.07	11.05	-52.4	-65.4	3.8	1.49e+00	0	39	104	0	76	16091
2026-01-01 00:19:32.07	214.96	10.77	-52.4	-65.4	3.8	1.49e+00	0	39	104	0	76	16090
2026-01-01 00:19:34.94	214.87	10.52	-52.4	-65.4	3.8	1.49e+00	0	39	104	0	76	16078
2026-01-01 00:19:38.10	214.77	10.24	-52.4	-65.4	3.8	1.49e+00	0	39	104	0	76	16025
2026-01-01 00:19:40.96	214.68	9.99	-52.3	-65.4	3.8	1.49e+00	0	39	104	0	76	15979
2026-01-01 00:19:44.12	214.58	9.72	-52.4	-65.4	3.8	1.49e+00	0	39	104	0	76	16044
2026-01-01 00:19:46.99	214.50	9.48	-52.4	-65.4	3.8	1.49e+00	0	39	104	0	76	16122
2026-01-01 00:19:50.15	214.40	9.21	-52.4	-65.4	3.8	1.49e+00	0	39	104	0	76	16115
2026-01-01 00:19:53.02	214.32	8.98	-52.4	-65.4	3.8	1.49e+00	0	39	104	0	76	16070
2026-01-01 00:19:56.17	214.23	8.72	-52.3	-65.4	3.8	1.49e+00	0	39	104	0	76	16037
2026-01-01 00:19:59.04	214.15	8.48	-52.3	-65.4	3.8	1.49e+00	0	39	104	0	76	15995
2026-01-01 00:20:02.20	214.06	8.23	-52.4	-65.5	3.8	1.49e+00	0	39	104	0	76	16162
2026-01-01 00:20:05.07	213.98	8.00	-52.4	-65.5	3.8	1.49e+00	0	39	104	0	76	16195
2026-01-01 00:20:08.23	213.90	7.75	-52.4	-65.5	3.8	1.49e+00	0	39	104	0	76	16175
2026-01-01 00:20:11.10	213.83	7.52	-52.4	-65.4	3.8	1.49e+00	0	39	104	0	76	16070
2026-01-01 00:20:14.26	213.74	7.28	-52.4	-65.4	3.8	1.49e+00	0	39	104	0	76	16114
2026-01-01 00:20:17.49	213.66	7.03	-52.4	-65.4	3.8	1.49e+00	0	39	104	0	76	16038
2026-01-01 00:20:20.36	213.59	6.81	-52.4	-65.4	3.8	1.49e+00	0	39	104	0	76	15999
2026-01-01 00:20:23.57	213.51	6.57	-52.4	-65.5	3.8	1.49e+00	0	39	104	0	76	16231
2026-01-01 00:20:26.48	213.44	6.35	-52.4	-65.5	3.8	1.49e+00	0	39	104	0	76	16193
2026-01-01 00:20:29.77	213.37	6.10	-52.4	-65.4	3.8	1.49e+00	0	39	104	0	76	16098
2026-01-01 00:20:32.49	213.30	5.90	-52.4	-65.4	3.8	1.49e+00	0	39	104	0	76	16062
2026-01-01 00:20:35.79	213.23	5.66	-52.4	-65.5	3.8	1.49e+00	0	39	104	0	76	16130
2026-01-01 00:20:38.54	213.17	5.46	-52.4	-65.5	3.8	1.49e+00	0	39	104	0	76	16261
2026-01-01 00:20:41.90	213.09	5.22	-52.4	-65.5	3.8	1.49e+00	0	39	104	0	76	16197
2026-01-01 00:20:44.63	213.04	5.03	-52.4	-65.4	3.8	1.49e+00	0	39	104	0	76	16093

#Closed at: 2026-01-01 00:20:46
#Recorded file [0 MB]: D:/Data/31040_260101_030757.dat