passes_logs/2026/01/01/T1/T1__20260101_164200_FENGYUN_3E_rec.log

#Pass ID: 20260101_164200_FENGYUN 3E
#Satellite: FENGYUN 3E
#Configuration: FENGYUN 3E
#almurnet v.1.7.20251203
#Start time: 2026-01-01 16:42:02

#Version: 2.0.20230620
#Station: T1
#Location: 37.570604 lon 55.790049 lat
#TLE: 1 49008U 21062A   25365.98258168  .00000149  00000+0  90987-4 0  9990
#TLE: 2 49008  98.7481   6.2763 0001360 169.3782 190.7423 14.19883270232859

#Time	Az	El	Level	Level2	SNR	BER	BlckErr	Temp	State	Recorded	gain1	gain2
2026-01-01 16:42:02.11	250.95	5.07	-51.2	-62.1	3.8	8.46e-01	0	38	0	0	71	13646
2026-01-01 16:42:04.11	251.22	5.14	-51.2	-62.1	3.8	8.47e-01	0	38	104	0	73	12106
2026-01-01 16:42:06.12	251.50	5.20	-51.2	-62.0	3.8	8.47e-01	0	38	104	0	73	12034
2026-01-01 16:42:08.13	251.77	5.27	-51.1	-62.0	3.8	8.47e-01	0	38	104	0	73	12062
2026-01-01 16:42:10.14	252.04	5.34	-51.1	-62.0	3.8	8.49e-01	0	39	104	0	73	12077
2026-01-01 16:42:12.15	252.32	5.40	-51.1	-62.0	3.8	8.47e-01	0	39	104	0	73	12048
2026-01-01 16:42:14.15	252.59	5.47	-51.1	-62.0	3.8	8.46e-01	0	39	104	0	73	11988
2026-01-01 16:42:16.16	252.87	5.54	-51.1	-62.0	3.8	8.47e-01	0	39	104	0	73	12045
2026-01-01 16:42:18.22	253.16	5.60	-51.1	-62.0	3.8	8.47e-01	0	39	104	0	72	12767
2026-01-01 16:42:20.27	253.44	5.67	-51.1	-62.1	3.8	8.46e-01	0	39	104	0	72	12866
2026-01-01 16:42:22.35	253.73	5.74	-51.1	-62.0	3.8	8.46e-01	0	39	104	0	72	12764
2026-01-01 16:42:24.57	254.05	5.81	-51.2	-62.1	3.8	8.46e-01	0	39	104	0	72	12938
2026-01-01 16:42:26.78	254.36	5.88	-51.2	-62.1	3.8	8.47e-01	0	39	104	0	72	12922
2026-01-01 16:42:28.79	254.64	5.94	-51.2	-62.1	3.8	8.47e-01	0	39	104	0	72	12824
2026-01-01 16:42:30.80	254.93	6.00	-51.2	-62.1	3.8	8.47e-01	0	39	104	0	72	12854
2026-01-01 16:42:32.81	255.22	6.06	-51.2	-62.1	3.8	8.47e-01	0	39	104	0	72	12855
2026-01-01 16:42:34.82	255.51	6.12	-51.2	-62.1	3.8	8.47e-01	0	39	104	0	72	12913
2026-01-01 16:42:36.82	255.79	6.19	-51.2	-62.1	3.8	8.47e-01	0	39	104	0	72	12925
2026-01-01 16:42:38.83	256.08	6.25	-51.2	-62.1	3.8	8.47e-01	0	40	104	0	72	12815
2026-01-01 16:42:40.87	256.38	6.31	-51.2	-62.0	3.8	8.46e-01	0	39	104	0	72	12810
2026-01-01 16:42:42.88	256.67	6.37	-51.2	-62.1	3.8	8.46e-01	0	39	104	0	72	12937
2026-01-01 16:42:44.88	256.97	6.43	-51.2	-62.1	3.8	8.46e-01	0	40	104	0	72	12821
2026-01-01 16:42:46.89	257.26	6.48	-51.2	-62.1	3.8	8.48e-01	0	39	104	0	72	12854
2026-01-01 16:42:48.90	257.56	6.54	-51.1	-62.0	3.8	8.48e-01	0	40	104	0	72	12752
2026-01-01 16:42:50.91	257.86	6.60	-51.2	-62.1	3.8	8.46e-01	0	40	104	0	72	12868
2026-01-01 16:42:52.92	258.16	6.66	-51.2	-62.1	3.8	8.47e-01	0	40	104	0	72	12813
2026-01-01 16:42:54.92	258.46	6.71	-51.2	-62.1	3.8	8.47e-01	0	40	104	0	72	12828
2026-01-01 16:42:56.93	258.76	6.77	-51.2	-62.1	3.8	8.48e-01	0	40	104	0	72	12829
2026-01-01 16:42:58.94	259.06	6.83	-51.2	-62.1	3.8	8.47e-01	0	40	104	0	72	12857
2026-01-01 16:43:00.94	259.36	6.88	-51.2	-62.1	3.8	8.48e-01	0	40	104	0	72	12848
2026-01-01 16:43:02.95	259.67	6.93	-51.2	-62.1	3.8	8.48e-01	0	40	104	0	72	12875
2026-01-01 16:43:04.96	259.97	6.99	-51.2	-62.0	3.8	8.47e-01	0	40	104	0	72	12793
2026-01-01 16:43:06.97	260.28	7.04	-51.2	-62.1	3.8	8.47e-01	0	40	104	0	72	12876
2026-01-01 16:43:08.98	260.59	7.09	-51.2	-62.1	3.8	8.47e-01	0	40	104	0	72	12876
2026-01-01 16:43:10.99	260.90	7.15	-51.2	-62.1	3.8	8.47e-01	0	40	104	0	72	12824
2026-01-01 16:43:12.99	261.21	7.20	-51.2	-62.1	3.8	8.46e-01	0	40	104	0	72	12819
2026-01-01 16:43:15.00	261.52	7.25	-51.2	-62.1	3.8	8.46e-01	0	40	104	0	72	12856
2026-01-01 16:43:17.01	261.83	7.30	-51.2	-62.1	3.8	8.47e-01	0	40	104	0	72	12875
2026-01-01 16:43:19.01	262.14	7.35	-51.2	-62.1	3.8	8.47e-01	0	40	104	0	72	12856
2026-01-01 16:43:21.02	262.45	7.40	-51.2	-62.1	3.8	8.47e-01	0	40	104	0	72	12900
2026-01-01 16:43:23.03	262.77	7.45	-51.2	-62.1	3.8	8.47e-01	0	40	104	0	72	12878
2026-01-01 16:43:25.04	263.09	7.49	-51.2	-62.1	3.8	8.47e-01	0	40	104	0	72	12937
2026-01-01 16:43:27.05	263.40	7.54	-51.2	-62.1	3.8	8.47e-01	0	41	104	0	72	12849
2026-01-01 16:43:29.06	263.72	7.59	-51.2	-62.1	3.8	8.47e-01	0	40	104	0	72	12948
2026-01-01 16:43:31.07	264.04	7.63	-51.2	-62.1	3.8	8.47e-01	0	40	104	0	72	12875
2026-01-01 16:43:33.07	264.36	7.68	-51.2	-62.1	3.8	8.47e-01	0	40	104	0	72	12867
2026-01-01 16:43:35.08	264.68	7.72	-51.2	-62.1	3.8	8.46e-01	0	40	104	0	72	12850
2026-01-01 16:43:37.09	265.00	7.76	-51.2	-62.1	3.8	8.46e-01	0	41	104	0	72	12821
2026-01-01 16:43:39.10	265.32	7.81	-51.2	-62.0	3.8	8.47e-01	0	41	104	0	72	12807
2026-01-01 16:43:41.11	265.65	7.85	-51.2	-62.1	3.8	8.47e-01	0	40	104	0	72	12840
2026-01-01 16:43:43.12	265.97	7.89	-51.2	-62.1	3.8	8.46e-01	0	41	104	0	72	12813
2026-01-01 16:43:45.13	266.30	7.93	-51.2	-62.1	3.8	8.47e-01	0	40	104	0	72	12862
2026-01-01 16:43:47.13	266.62	7.97	-51.2	-62.1	3.8	8.47e-01	0	41	104	0	72	12882
2026-01-01 16:43:49.14	266.95	8.01	-51.2	-62.1	3.8	8.47e-01	0	41	104	0	72	12834
2026-01-01 16:43:51.15	267.28	8.05	-51.2	-62.1	3.8	8.46e-01	0	41	104	0	72	12853
2026-01-01 16:43:53.16	267.61	8.09	-51.2	-62.1	3.8	8.48e-01	0	41	104	0	72	12825
2026-01-01 16:43:55.07	267.92	8.12	-51.2	-62.0	3.8	8.47e-01	0	41	104	0	72	12779
2026-01-01 16:43:57.08	268.25	8.16	-51.2	-62.1	3.8	8.47e-01	0	41	104	0	72	12813
2026-01-01 16:43:59.09	268.58	8.19	-51.2	-62.1	3.8	8.46e-01	0	41	104	0	72	12816
2026-01-01 16:44:01.09	268.91	8.23	-51.2	-62.1	3.8	8.47e-01	0	41	104	0	72	12877
2026-01-01 16:44:03.10	269.25	8.26	-51.2	-62.1	3.8	8.47e-01	0	41	104	0	72	12891
2026-01-01 16:44:05.11	269.58	8.30	-51.2	-62.1	3.8	8.45e-01	0	41	104	0	72	12932
2026-01-01 16:44:07.12	269.91	8.33	-51.2	-62.1	3.8	8.47e-01	0	41	104	0	72	12881
2026-01-01 16:44:09.13	270.25	8.36	-51.2	-62.0	3.8	8.47e-01	0	41	104	0	72	12804
2026-01-01 16:44:11.14	270.58	8.39	-51.2	-62.1	3.8	8.47e-01	0	41	104	0	72	12898
2026-01-01 16:44:13.15	270.92	8.42	-51.2	-62.0	3.8	8.46e-01	0	41	104	0	72	12794
2026-01-01 16:44:15.15	271.26	8.45	-51.2	-62.1	3.8	8.46e-01	0	41	104	0	72	12843
2026-01-01 16:44:17.31	271.62	8.48	-51.2	-62.1	3.8	8.47e-01	0	41	104	0	72	12898
2026-01-01 16:44:19.51	271.99	8.51	-51.2	-62.1	3.8	8.46e-01	0	41	104	0	72	12894
2026-01-01 16:44:21.74	272.36	8.54	-51.2	-62.0	3.8	8.47e-01	0	41	104	0	72	12792
2026-01-01 16:44:23.79	272.71	8.57	-51.2	-62.1	3.8	8.47e-01	0	41	104	0	72	12869
2026-01-01 16:44:25.90	273.07	8.59	-51.2	-62.1	3.8	8.48e-01	0	41	104	0	72	12871
2026-01-01 16:44:27.91	273.41	8.62	-51.2	-62.1	3.8	8.48e-01	0	41	104	0	72	12895
2026-01-01 16:44:29.91	273.75	8.64	-51.1	-62.1	3.8	8.46e-01	0	41	104	0	72	12843
2026-01-01 16:44:31.92	274.09	8.66	-51.1	-62.1	3.8	8.47e-01	0	41	104	0	72	12900
2026-01-01 16:44:33.93	274.43	8.68	-51.2	-62.1	3.8	8.48e-01	0	41	104	0	72	12881
2026-01-01 16:44:35.94	274.77	8.70	-51.2	-62.1	3.8	8.47e-01	0	41	104	0	72	12944
2026-01-01 16:44:37.95	275.12	8.72	-51.2	-62.1	3.8	8.47e-01	0	41	104	0	72	12936
2026-01-01 16:44:39.96	275.46	8.74	-51.2	-62.1	3.8	8.47e-01	0	41	104	0	72	12904
2026-01-01 16:44:41.96	275.80	8.76	-51.2	-62.1	3.8	8.46e-01	0	41	104	0	72	12907
2026-01-01 16:44:43.97	276.15	8.78	-51.2	-62.1	3.8	8.48e-01	0	41	104	0	72	12866
2026-01-01 16:44:45.98	276.49	8.79	-51.2	-62.1	3.8	8.48e-01	0	41	104	0	72	12899
2026-01-01 16:44:47.99	276.84	8.81	-51.2	-62.1	3.8	8.47e-01	0	41	104	0	72	12916
2026-01-01 16:44:50.00	277.18	8.82	-51.2	-62.1	3.8	8.46e-01	0	41	104	0	72	12892
2026-01-01 16:44:52.01	277.53	8.83	-51.2	-62.0	3.8	8.46e-01	0	41	104	0	72	12808
2026-01-01 16:44:54.01	277.87	8.85	-51.2	-62.1	3.8	8.45e-01	0	41	104	0	72	12899
2026-01-01 16:44:56.02	278.22	8.86	-51.2	-62.1	3.8	8.46e-01	0	41	104	0	72	12841
2026-01-01 16:44:58.03	278.56	8.87	-51.2	-62.1	3.8	8.46e-01	0	41	104	0	72	12862
2026-01-01 16:45:00.04	278.91	8.88	-51.2	-62.2	3.8	8.46e-01	0	41	104	0	72	12964
2026-01-01 16:45:02.05	279.26	8.89	-51.2	-62.1	3.8	8.47e-01	0	41	104	0	72	12907
2026-01-01 16:45:04.06	279.60	8.90	-51.2	-62.1	3.8	8.45e-01	0	41	104	0	72	12884
2026-01-01 16:45:06.07	279.95	8.90	-51.2	-62.1	3.8	8.47e-01	0	41	104	0	72	12855
2026-01-01 16:45:08.08	280.30	8.91	-51.2	-62.1	3.8	8.46e-01	0	41	104	0	72	12815
2026-01-01 16:45:10.09	280.65	8.91	-51.2	-62.1	3.8	8.46e-01	0	41	104	0	72	12828
2026-01-01 16:45:12.09	280.99	8.92	-51.2	-62.1	3.8	8.47e-01	0	41	104	0	72	12883
2026-01-01 16:45:14.10	281.34	8.92	-51.2	-62.1	3.8	8.46e-01	0	41	104	0	72	12881
2026-01-01 16:45:16.11	281.69	8.92	-51.2	-62.1	3.8	8.47e-01	0	41	104	0	72	12849
2026-01-01 16:45:18.12	282.03	8.93	-51.2	-62.1	3.8	8.47e-01	0	41	104	0	72	12827
2026-01-01 16:45:20.13	282.38	8.93	-51.2	-62.1	3.8	8.46e-01	0	41	104	0	72	12893
2026-01-01 16:45:22.14	282.73	8.93	-51.2	-62.1	3.8	8.47e-01	0	41	104	0	72	12956
2026-01-01 16:45:24.15	283.08	8.92	-51.2	-62.1	3.8	8.48e-01	0	41	104	0	72	12853
2026-01-01 16:45:26.16	283.42	8.92	-51.2	-62.1	3.8	8.47e-01	0	41	104	0	72	12818
2026-01-01 16:45:28.16	283.77	8.92	-51.2	-62.1	3.8	8.47e-01	0	41	104	0	72	12851
2026-01-01 16:45:30.22	284.13	8.92	-51.2	-62.1	3.8	8.46e-01	0	41	104	0	72	12892
2026-01-01 16:45:32.18	284.47	8.91	-51.2	-62.0	3.8	8.48e-01	0	41	104	0	72	12807
2026-01-01 16:45:34.37	284.84	8.90	-51.2	-62.1	3.8	8.47e-01	0	41	104	0	72	12838
2026-01-01 16:45:36.48	285.21	8.90	-51.2	-62.1	3.8	8.47e-01	0	41	104	0	72	12932
2026-01-01 16:45:38.55	285.56	8.89	-51.2	-62.1	3.8	8.47e-01	0	41	104	0	72	12876
2026-01-01 16:45:40.77	285.95	8.88	-51.2	-62.1	3.8	8.47e-01	0	41	104	0	72	12832
2026-01-01 16:45:42.78	286.29	8.87	-51.2	-62.0	3.8	8.46e-01	0	41	104	0	72	12790
2026-01-01 16:45:44.79	286.64	8.86	-51.2	-62.1	3.8	8.47e-01	0	41	104	0	72	12842
2026-01-01 16:45:46.79	286.98	8.85	-51.2	-62.0	3.8	8.48e-01	0	41	104	0	72	12777
2026-01-01 16:45:48.80	287.33	8.84	-51.2	-62.1	3.8	8.47e-01	0	41	104	0	72	12856
2026-01-01 16:45:50.81	287.67	8.82	-51.2	-62.1	3.8	8.47e-01	0	41	104	0	72	12812
2026-01-01 16:45:52.87	288.03	8.81	-51.2	-62.1	3.8	8.46e-01	0	41	104	0	72	12863
2026-01-01 16:45:54.94	288.38	8.79	-51.2	-62.1	3.8	8.47e-01	0	41	104	0	72	12891
2026-01-01 16:45:56.95	288.73	8.78	-51.2	-62.1	3.8	8.45e-01	0	41	104	0	72	12916
2026-01-01 16:45:58.95	289.07	8.76	-51.2	-62.1	3.8	8.47e-01	0	41	104	0	72	12871
2026-01-01 16:46:00.96	289.41	8.74	-51.2	-62.1	3.8	8.48e-01	0	41	104	0	72	12838
2026-01-01 16:46:02.97	289.76	8.73	-51.2	-62.1	3.8	8.46e-01	0	41	104	0	72	12831
2026-01-01 16:46:04.98	290.10	8.71	-51.2	-62.1	3.8	8.46e-01	0	41	104	0	72	12925
2026-01-01 16:46:06.99	290.44	8.69	-51.2	-62.1	3.8	8.45e-01	0	42	104	0	72	12849
2026-01-01 16:46:09.00	290.78	8.66	-51.2	-62.1	3.8	8.48e-01	0	42	104	0	72	12915
2026-01-01 16:46:11.02	291.12	8.64	-51.2	-62.0	3.8	8.47e-01	0	41	104	0	72	12808
2026-01-01 16:46:13.03	291.47	8.62	-51.2	-62.1	3.8	8.45e-01	0	41	104	0	72	12881
2026-01-01 16:46:15.04	291.81	8.60	-51.2	-62.1	3.8	8.46e-01	0	41	104	0	72	12855
2026-01-01 16:46:17.05	292.14	8.57	-51.2	-62.1	3.8	8.48e-01	0	41	104	0	72	12913
2026-01-01 16:46:19.06	292.48	8.55	-51.2	-62.2	3.8	8.46e-01	0	41	104	0	72	12960
2026-01-01 16:46:21.07	292.82	8.52	-51.2	-62.1	3.8	8.47e-01	0	42	104	0	72	12936
2026-01-01 16:46:23.08	293.16	8.49	-51.2	-62.1	3.8	8.46e-01	0	41	104	0	72	12870
2026-01-01 16:46:25.09	293.50	8.47	-51.2	-62.1	3.8	8.47e-01	0	41	104	0	72	12896
2026-01-01 16:46:27.10	293.83	8.44	-51.2	-62.1	3.8	8.46e-01	0	41	104	0	72	12855
2026-01-01 16:46:29.10	294.17	8.41	-51.2	-62.1	3.8	8.46e-01	0	41	104	0	72	12871
2026-01-01 16:46:31.09	294.50	8.38	-51.2	-62.1	3.8	8.46e-01	0	41	104	0	72	12881
2026-01-01 16:46:33.10	294.83	8.35	-51.2	-62.1	3.8	8.48e-01	0	42	104	0	72	12837
2026-01-01 16:46:35.11	295.17	8.31	-51.2	-62.1	3.8	8.47e-01	0	42	104	0	72	12923
2026-01-01 16:46:37.12	295.50	8.28	-51.2	-62.1	3.8	8.47e-01	0	41	104	0	72	12906
2026-01-01 16:46:39.13	295.83	8.25	-51.2	-62.1	3.8	8.46e-01	0	41	104	0	72	12823
2026-01-01 16:46:41.14	296.16	8.21	-51.2	-62.1	3.8	8.46e-01	0	42	104	0	72	12893
2026-01-01 16:46:43.15	296.49	8.18	-51.2	-62.1	3.8	8.46e-01	0	41	104	0	72	12835
2026-01-01 16:46:45.14	296.82	8.14	-51.2	-62.1	3.8	8.46e-01	0	42	104	0	72	12875
2026-01-01 16:46:47.15	297.15	8.11	-51.2	-62.1	3.8	8.46e-01	0	42	104	0	72	12879
2026-01-01 16:46:49.33	297.51	8.07	-51.2	-62.1	3.8	8.47e-01	0	42	104	0	72	12877
2026-01-01 16:46:51.40	297.84	8.03	-51.2	-62.1	3.8	8.47e-01	0	41	104	0	72	12852
2026-01-01 16:46:53.62	298.20	7.98	-51.2	-62.1	3.8	8.46e-01	0	41	104	0	72	12904
2026-01-01 16:46:55.62	298.53	7.95	-51.2	-62.1	3.8	8.48e-01	0	42	104	0	72	12876
2026-01-01 16:46:57.63	298.85	7.91	-51.2	-62.0	3.8	8.47e-01	0	41	104	0	72	12805
2026-01-01 16:46:59.64	299.18	7.86	-51.2	-62.1	3.8	8.47e-01	0	41	104	0	72	12845
2026-01-01 16:47:01.65	299.50	7.82	-51.2	-62.1	3.8	8.47e-01	0	42	104	0	72	12950
2026-01-01 16:47:03.66	299.82	7.78	-51.2	-62.1	3.8	8.46e-01	0	42	104	0	72	12884
2026-01-01 16:47:05.70	300.15	7.74	-51.2	-62.1	3.8	8.46e-01	0	42	104	0	72	12890
2026-01-01 16:47:07.71	300.47	7.69	-51.2	-62.0	3.8	8.48e-01	0	42	104	0	72	12799
2026-01-01 16:47:09.71	300.78	7.65	-51.2	-62.1	3.8	8.47e-01	0	42	104	0	72	12845
2026-01-01 16:47:11.72	301.10	7.60	-51.2	-62.1	3.8	8.47e-01	0	41	104	0	72	12875
2026-01-01 16:47:13.73	301.42	7.56	-51.2	-62.1	3.8	8.47e-01	0	42	104	0	72	12829
2026-01-01 16:47:15.74	301.73	7.51	-51.2	-62.1	3.8	8.47e-01	0	42	104	0	72	12931
2026-01-01 16:47:17.75	302.05	7.46	-51.2	-62.1	3.8	8.47e-01	0	42	104	0	72	12863
2026-01-01 16:47:19.76	302.36	7.42	-51.2	-62.1	3.8	8.47e-01	0	42	104	0	72	12907
2026-01-01 16:47:21.77	302.68	7.37	-51.2	-62.0	3.8	8.47e-01	0	42	104	0	72	12794
2026-01-01 16:47:23.78	302.99	7.32	-51.2	-62.1	3.8	8.48e-01	0	42	104	0	72	12853
2026-01-01 16:47:25.78	303.30	7.27	-51.2	-62.1	3.8	8.47e-01	0	42	104	0	72	12874
2026-01-01 16:47:27.79	303.61	7.22	-51.2	-62.1	3.8	8.47e-01	0	41	104	0	72	12816
2026-01-01 16:47:29.80	303.92	7.17	-51.2	-62.1	3.8	8.47e-01	0	42	104	0	72	12817
2026-01-01 16:47:31.81	304.23	7.12	-51.2	-62.1	3.8	8.48e-01	0	42	104	0	72	12932
2026-01-01 16:47:33.82	304.53	7.06	-51.2	-62.1	3.8	8.47e-01	0	42	104	0	72	12915
2026-01-01 16:47:35.83	304.84	7.01	-51.2	-62.1	3.8	8.47e-01	0	42	104	0	72	12945
2026-01-01 16:47:37.84	305.14	6.96	-51.2	-62.1	3.8	8.47e-01	0	42	104	0	72	12866
2026-01-01 16:47:39.84	305.45	6.90	-51.2	-62.1	3.8	8.46e-01	0	42	104	0	72	12950
2026-01-01 16:47:41.85	305.75	6.85	-51.2	-62.1	3.8	8.47e-01	0	42	104	0	72	12862
2026-01-01 16:47:43.86	306.05	6.80	-51.2	-62.1	3.8	8.46e-01	0	41	104	0	72	12891
2026-01-01 16:47:45.87	306.35	6.74	-51.2	-62.2	3.8	8.48e-01	0	42	104	0	72	12993
2026-01-01 16:47:47.88	306.65	6.68	-51.2	-62.1	3.8	8.46e-01	0	42	104	0	72	12889
2026-01-01 16:47:49.88	306.95	6.63	-51.2	-62.1	3.8	8.47e-01	0	42	104	0	72	12900
2026-01-01 16:47:51.89	307.24	6.57	-51.2	-62.1	3.8	8.46e-01	0	41	104	0	72	12862
2026-01-01 16:47:53.90	307.54	6.51	-51.2	-62.1	3.8	8.47e-01	0	41	104	0	72	12815
2026-01-01 16:47:55.91	307.83	6.46	-51.2	-62.1	3.8	8.48e-01	0	42	104	0	72	12915
2026-01-01 16:47:57.91	308.13	6.40	-51.2	-62.1	3.8	8.46e-01	0	42	104	0	72	12901
2026-01-01 16:47:59.92	308.42	6.34	-51.2	-62.1	3.8	8.46e-01	0	41	104	0	72	12858
2026-01-01 16:48:01.93	308.71	6.28	-51.2	-62.1	3.8	8.46e-01	0	42	104	0	72	12857
2026-01-01 16:48:03.94	309.00	6.22	-51.2	-62.1	3.8	8.47e-01	0	42	104	0	72	12843
2026-01-01 16:48:05.95	309.29	6.16	-51.2	-62.1	3.8	8.46e-01	0	42	104	0	72	12854
2026-01-01 16:48:07.96	309.58	6.10	-51.2	-62.0	3.8	8.46e-01	0	42	104	0	72	12781
2026-01-01 16:48:09.97	309.86	6.04	-51.2	-62.2	3.8	8.48e-01	0	42	104	0	72	12975
2026-01-01 16:48:11.97	310.15	5.97	-51.2	-62.1	3.8	8.47e-01	0	42	104	0	72	12857
2026-01-01 16:48:13.98	310.43	5.91	-51.2	-62.1	3.8	8.47e-01	0	42	104	0	72	12924
2026-01-01 16:48:15.99	310.71	5.85	-51.2	-62.1	3.8	8.47e-01	0	42	104	0	72	12933
2026-01-01 16:48:18.00	311.00	5.79	-51.2	-62.1	3.8	8.46e-01	0	42	104	0	72	12909
2026-01-01 16:48:20.00	311.28	5.72	-51.2	-62.1	3.8	8.47e-01	0	42	104	0	72	12872
2026-01-01 16:48:22.01	311.56	5.66	-51.2	-62.1	3.8	8.47e-01	0	42	104	0	72	12931
2026-01-01 16:48:24.02	311.83	5.60	-51.2	-62.1	3.8	8.47e-01	0	42	104	0	72	12893
2026-01-01 16:48:26.03	312.11	5.53	-51.2	-62.2	3.8	8.46e-01	0	41	104	0	72	12963
2026-01-01 16:48:28.04	312.39	5.47	-51.2	-62.1	3.8	8.46e-01	0	42	104	0	72	12923
2026-01-01 16:48:30.05	312.66	5.40	-51.2	-62.0	3.8	8.47e-01	0	42	104	0	72	12782
2026-01-01 16:48:32.06	312.94	5.33	-51.2	-62.1	3.8	8.46e-01	0	42	104	0	72	12933
2026-01-01 16:48:34.07	313.21	5.27	-51.2	-62.1	3.8	8.47e-01	0	42	104	0	72	12928
2026-01-01 16:48:36.07	313.48	5.20	-51.2	-62.1	3.8	8.47e-01	0	41	104	0	72	12934
2026-01-01 16:48:38.08	313.75	5.14	-51.2	-62.1	3.8	8.47e-01	0	41	104	0	72	12812
2026-01-01 16:48:40.09	314.02	5.07	-51.2	-62.1	3.8	8.48e-01	0	42	104	0	72	12854
2026-01-01 16:48:42.10	314.28	5.00	-51.2	-62.1	3.8	8.47e-01	0	42	104	0	72	12870

#Closed at: 2026-01-01 16:48:42
#Recorded file [0 MB]: D:/Data/31040_260101_194202.dat