passes_logs/2026/01/01/T1/T1__20260101_125025_AQUA_rec.log

#Pass ID: 20260101_125025_AQUA
#Satellite: AQUA
#Configuration: AQUA
#almurnet v.1.7.20251203
#Start time: 2026-01-01 12:50:25

#Version: 2.0.20230620
#Station: T1
#Location: 37.570604 lon 55.790049 lat
#TLE: 1 27424U 02022A   25365.92641128  .00002078  00000+0  42628-3 0  9990
#TLE: 2 27424  98.4058 327.1196 0001962  94.7781 340.6230 14.61783896258835

#Time	Az	El	Level	Level2	SNR	BER	BlckErr	Temp	State	Recorded	gain1	gain2
2026-01-01 12:50:25.28	202.49	5.01	-52.5	-73.9	3.8	7.48e-01	0	39	0	0	76	42881
2026-01-01 12:50:28.28	202.74	5.21	-52.4	-73.9	3.8	7.45e-01	0	39	104	0	75	45005
2026-01-01 12:50:31.30	202.99	5.41	-52.4	-73.9	3.8	7.45e-01	0	39	104	0	75	44955
2026-01-01 12:50:34.31	203.25	5.61	-52.4	-73.9	3.8	7.43e-01	0	39	104	0	75	45352
2026-01-01 12:50:37.32	203.52	5.82	-52.3	-73.6	3.8	7.46e-01	0	39	104	0	75	43704
2026-01-01 12:50:40.33	203.78	6.02	-52.3	-73.0	3.8	7.45e-01	0	39	104	0	75	40642
2026-01-01 12:50:43.34	204.05	6.23	-52.3	-71.7	3.9	7.42e-01	0	39	104	0	75	35172
2026-01-01 12:50:46.35	204.33	6.43	-52.3	-70.5	3.9	7.40e-01	0	39	104	0	75	30404
2026-01-01 12:50:49.36	204.61	6.64	-52.3	-71.8	3.9	7.42e-01	0	40	104	0	75	35409
2026-01-01 12:50:52.37	204.89	6.85	-52.4	-73.2	3.8	7.45e-01	0	40	104	0	75	41748
2026-01-01 12:50:55.38	205.18	7.06	-52.3	-73.5	3.8	7.46e-01	0	40	104	0	75	43031
2026-01-01 12:50:58.39	205.47	7.28	-52.3	-73.4	3.8	7.44e-01	0	40	104	0	75	42447
2026-01-01 12:51:01.40	205.77	7.49	-52.0	-65.0	7.6	6.54e-01	0	40	0	1572864	75	16147
2026-01-01 12:51:04.41	206.07	7.71	-51.5	-60.7	12.0	6.14e-01	0	40	0	7340032	75	9944
2026-01-01 12:51:07.42	206.37	7.92	-52.1	-66.2	6.6	6.72e-01	0	40	0	12582912	75	18573
2026-01-01 12:51:10.43	206.68	8.14	-51.0	-58.4	14.4	6.09e-01	0	40	0	16777216	74	8004
2026-01-01 12:51:13.45	207.00	8.36	-48.5	-52.4	20.4	6.04e-01	0	40	0	22544384	69	5383
2026-01-01 12:51:16.46	207.32	8.58	-48.1	-51.8	21.0	6.07e-01	0	40	0	28311552	67	5654
2026-01-01 12:51:19.47	207.65	8.81	-49.8	-54.9	18.1	6.08e-01	0	40	0	33554432	70	6754
2026-01-01 12:51:22.47	207.98	9.03	-50.5	-56.8	15.6	6.06e-01	0	40	0	39321600	73	7113
2026-01-01 12:51:25.47	208.31	9.25	-51.6	-60.4	11.8	6.16e-01	0	40	0	45088768	75	9562
2026-01-01 12:51:28.46	208.65	9.48	-49.3	-53.8	19.2	6.07e-01	0	40	0	50855936	70	5928
2026-01-01 12:51:31.46	209.00	9.71	-49.0	-53.3	19.7	6.07e-01	0	41	0	56098816	69	5985
2026-01-01 12:51:34.45	209.35	9.94	-48.1	-51.6	21.3	6.07e-01	0	40	0	61865984	68	5202
2026-01-01 12:51:37.45	209.71	10.17	-47.8	-51.2	21.7	6.06e-01	0	40	0	67633152	67	5237
2026-01-01 12:51:40.45	210.07	10.40	-47.7	-50.9	22.0	6.08e-01	0	41	0	73400320	67	5049
2026-01-01 12:51:43.45	210.44	10.63	-47.9	-51.1	21.8	6.08e-01	0	41	0	78643200	67	5173
2026-01-01 12:51:46.44	210.82	10.87	-47.9	-51.1	21.9	6.09e-01	0	40	0	84410368	67	5182
2026-01-01 12:51:49.44	211.20	11.10	-47.7	-50.8	22.1	6.09e-01	0	41	0	90177536	67	5026
2026-01-01 12:51:52.43	211.59	11.34	-47.7	-50.8	22.1	6.06e-01	0	41	0	95944704	67	5032
2026-01-01 12:51:55.42	211.98	11.58	-47.6	-50.6	22.3	6.04e-01	0	41	0	101187584	67	4908
2026-01-01 12:51:58.42	212.38	11.82	-47.5	-50.5	22.4	6.06e-01	0	41	0	106954752	66	5128
2026-01-01 12:52:01.41	212.79	12.06	-47.4	-50.6	22.5	6.07e-01	0	41	0	112721920	66	5162
2026-01-01 12:52:04.41	213.21	12.31	-47.5	-50.6	22.5	6.07e-01	0	41	0	117964800	66	5169
2026-01-01 12:52:07.41	213.63	12.55	-47.6	-50.6	22.4	6.08e-01	0	41	0	123731968	66	5193
2026-01-01 12:52:10.42	214.06	12.80	-47.5	-50.5	22.6	6.07e-01	0	41	0	129499136	66	5108
2026-01-01 12:52:13.42	214.50	13.05	-47.5	-50.5	22.5	6.08e-01	0	41	0	134742016	66	5117
2026-01-01 12:52:16.41	214.95	13.30	-47.4	-50.3	22.7	6.06e-01	0	41	0	140509184	66	5039
2026-01-01 12:52:19.40	215.40	13.55	-47.4	-50.3	22.7	6.06e-01	0	41	0	146276352	66	5019
2026-01-01 12:52:22.39	215.86	13.80	-47.4	-50.4	22.7	6.03e-01	0	41	0	152043520	66	5084
2026-01-01 12:52:25.39	216.33	14.05	-47.3	-50.3	22.8	6.07e-01	0	41	0	157286400	66	5009
2026-01-01 12:52:28.38	216.81	14.31	-47.4	-50.3	22.8	6.05e-01	0	41	0	163053568	66	5026
2026-01-01 12:52:31.38	217.30	14.56	-47.5	-50.3	22.8	6.07e-01	0	41	0	168820736	66	5027
2026-01-01 12:52:34.37	217.80	14.82	-47.5	-50.4	22.8	6.09e-01	0	41	0	174063616	66	5091
2026-01-01 12:52:37.38	218.30	15.08	-47.4	-50.3	22.9	6.06e-01	0	41	0	179830784	66	4998
2026-01-01 12:52:40.36	218.82	15.33	-47.4	-50.2	23.0	6.07e-01	0	41	0	185597952	66	4964
2026-01-01 12:52:43.36	219.34	15.59	-47.5	-50.5	22.8	6.06e-01	0	41	0	191365120	66	5123
2026-01-01 12:52:46.36	219.87	15.85	-47.3	-50.2	23.1	6.08e-01	0	41	0	196608000	66	4941
2026-01-01 12:52:49.35	220.42	16.12	-47.3	-50.1	23.1	6.07e-01	0	41	0	202375168	66	4872
2026-01-01 12:52:52.34	220.97	16.38	-47.3	-50.1	23.2	6.06e-01	0	41	0	208142336	66	4902
2026-01-01 12:52:55.33	221.53	16.64	-47.3	-50.1	23.2	6.06e-01	0	41	0	213385216	66	4908
2026-01-01 12:52:58.34	222.11	16.90	-47.4	-50.2	23.2	6.06e-01	0	41	0	219152384	66	4938
2026-01-01 12:53:01.33	222.69	17.17	-47.3	-50.1	23.2	6.10e-01	0	41	0	224919552	66	4891
2026-01-01 12:53:04.32	223.28	17.43	-47.1	-49.9	23.3	6.08e-01	0	41	0	230162432	66	4800
2026-01-01 12:53:07.32	223.89	17.70	-47.3	-50.1	23.3	6.09e-01	0	41	0	235929600	66	4881
2026-01-01 12:53:10.31	224.50	17.96	-47.4	-50.3	23.1	6.08e-01	0	41	0	241696768	66	4984
2026-01-01 12:53:13.29	225.13	18.22	-47.2	-50.0	23.3	6.05e-01	0	41	0	247463936	66	4836
2026-01-01 12:53:16.29	225.77	18.49	-47.3	-50.0	23.3	6.06e-01	0	41	0	252706816	66	4856
2026-01-01 12:53:19.28	226.42	18.75	-47.4	-50.2	23.2	6.08e-01	0	41	0	258473984	66	4928
2026-01-01 12:53:22.29	227.08	19.02	-47.2	-50.0	23.3	6.04e-01	0	41	0	264241152	66	4837
2026-01-01 12:53:25.28	227.76	19.28	-47.2	-50.0	23.3	6.05e-01	0	41	0	270008320	66	4847
2026-01-01 12:53:28.29	228.45	19.54	-47.4	-50.2	23.1	6.06e-01	0	41	0	275251200	66	4943
2026-01-01 12:53:31.29	229.15	19.80	-47.3	-50.0	23.4	6.07e-01	0	41	0	281018368	66	4823
2026-01-01 12:53:34.28	229.85	20.06	-47.3	-50.1	23.2	6.08e-01	0	41	0	286785536	66	4896
2026-01-01 12:53:37.27	230.58	20.32	-47.4	-50.2	23.2	6.05e-01	0	41	0	292028416	66	4937
2026-01-01 12:53:40.27	231.31	20.58	-47.6	-50.4	23.0	6.06e-01	0	41	0	297795584	66	5062
2026-01-01 12:53:43.26	232.06	20.83	-47.4	-50.1	23.2	6.07e-01	0	41	0	303562752	66	4923
2026-01-01 12:53:46.26	232.82	21.09	-47.5	-50.2	23.3	6.08e-01	0	41	0	308805632	66	4940
2026-01-01 12:53:49.26	233.60	21.34	-47.5	-50.4	23.0	6.08e-01	0	41	0	314572800	66	5082
2026-01-01 12:53:52.25	234.39	21.59	-47.6	-50.5	23.0	6.09e-01	0	42	0	320339968	66	5119
2026-01-01 12:53:55.24	235.18	21.83	-47.4	-50.3	23.1	6.07e-01	0	41	0	326107136	66	4995
2026-01-01 12:53:58.23	236.00	22.08	-47.5	-50.3	23.0	6.06e-01	0	41	0	331350016	66	5024
2026-01-01 12:54:01.22	236.82	22.32	-47.4	-50.2	23.1	6.07e-01	0	41	0	337117184	66	4968
2026-01-01 12:54:04.22	237.66	22.55	-47.5	-50.4	23.0	6.07e-01	0	42	0	342884352	66	5069
2026-01-01 12:54:07.22	238.52	22.79	-47.6	-50.5	22.9	6.07e-01	0	41	0	348127232	66	5134
2026-01-01 12:54:10.21	239.38	23.02	-47.6	-50.4	23.0	6.05e-01	0	41	0	353894400	66	5086
2026-01-01 12:54:13.21	240.26	23.24	-47.7	-50.5	22.9	6.08e-01	0	41	0	359661568	66	5159
2026-01-01 12:54:16.20	241.15	23.46	-47.4	-50.2	23.1	6.06e-01	0	41	0	365428736	66	4979
2026-01-01 12:54:19.20	242.06	23.67	-47.7	-50.5	22.9	6.08e-01	0	41	0	370671616	66	5148
2026-01-01 12:54:22.19	242.97	23.88	-47.6	-50.4	23.0	6.07e-01	0	41	0	376438784	66	5068
2026-01-01 12:54:25.20	243.91	24.09	-47.7	-50.5	22.9	6.07e-01	0	42	0	382205952	66	5126
2026-01-01 12:54:28.19	244.85	24.29	-47.8	-50.6	22.8	6.06e-01	0	42	0	387973120	66	5205
2026-01-01 12:54:31.18	245.80	24.48	-47.8	-50.7	22.8	6.09e-01	0	41	0	393216000	66	5224
2026-01-01 12:54:34.17	246.76	24.66	-47.6	-50.6	22.9	6.06e-01	0	41	0	398983168	66	5164
2026-01-01 12:54:37.16	247.74	24.84	-47.5	-50.5	23.0	6.06e-01	0	41	0	404750336	66	5110
2026-01-01 12:54:40.15	248.72	25.01	-47.6	-50.5	23.0	6.07e-01	0	41	0	409993216	66	5122
2026-01-01 12:54:43.15	249.72	25.17	-47.5	-50.4	23.0	6.05e-01	0	41	0	415760384	66	5069
2026-01-01 12:54:46.15	250.73	25.33	-47.4	-50.3	23.1	6.08e-01	0	41	0	421527552	66	4990
2026-01-01 12:54:49.15	251.75	25.48	-47.6	-50.5	22.9	6.06e-01	0	42	0	426770432	66	5122
2026-01-01 12:54:52.14	252.78	25.61	-47.6	-50.6	22.8	6.07e-01	0	42	0	432537600	66	5163
2026-01-01 12:54:55.13	253.81	25.74	-47.4	-50.3	23.1	6.05e-01	0	42	0	438304768	66	4999
2026-01-01 12:54:58.13	254.86	25.86	-47.5	-50.3	23.0	6.07e-01	0	42	0	444071936	66	5030
2026-01-01 12:55:01.12	255.91	25.98	-47.4	-50.3	23.1	6.07e-01	0	41	0	449314816	66	4994
2026-01-01 12:55:04.12	256.97	26.08	-47.4	-50.3	23.0	6.05e-01	0	41	0	455081984	66	4990
2026-01-01 12:55:07.11	258.04	26.17	-47.3	-50.1	23.2	6.08e-01	0	42	0	460849152	66	4919
2026-01-01 12:55:10.11	259.11	26.25	-47.3	-50.2	23.2	6.05e-01	0	41	0	466092032	66	4959
2026-01-01 12:55:13.10	260.19	26.33	-47.3	-50.1	23.2	6.08e-01	0	42	0	471859200	66	4900
2026-01-01 12:55:16.10	261.28	26.39	-47.4	-50.1	23.2	6.04e-01	0	41	0	477626368	66	4921
2026-01-01 12:55:19.10	262.36	26.44	-47.5	-50.4	23.0	6.07e-01	0	41	0	483393536	66	5065
2026-01-01 12:55:22.10	263.45	26.48	-47.1	-49.9	23.4	6.09e-01	0	42	0	488636416	66	4772
2026-01-01 12:55:25.09	264.55	26.51	-47.3	-50.1	23.3	6.07e-01	0	42	0	494403584	66	4874
2026-01-01 12:55:28.09	265.64	26.53	-47.2	-50.0	23.3	6.07e-01	0	42	0	500170752	66	4850
2026-01-01 12:55:31.10	266.74	26.54	-47.3	-50.1	23.3	6.08e-01	0	41	0	505413632	66	4881
2026-01-01 12:55:34.10	267.84	26.54	-47.4	-50.2	23.3	6.05e-01	0	41	0	511180800	66	4940
2026-01-01 12:55:37.10	268.93	26.53	-47.2	-49.9	23.5	6.06e-01	0	41	0	516947968	66	4790
2026-01-01 12:55:40.10	270.03	26.51	-47.2	-50.1	23.3	6.07e-01	0	41	0	522715136	66	4882
2026-01-01 12:55:43.09	271.12	26.48	-47.1	-49.8	23.5	6.08e-01	0	42	0	527958016	65	5007
2026-01-01 12:55:46.10	272.21	26.43	-47.1	-49.7	23.6	6.06e-01	0	42	0	533725184	65	4974
2026-01-01 12:55:49.09	273.30	26.38	-47.1	-49.9	23.4	6.08e-01	0	42	0	539492352	65	5081
2026-01-01 12:55:52.09	274.38	26.31	-47.0	-49.6	23.6	6.05e-01	0	42	0	545259520	65	4899
2026-01-01 12:55:55.09	275.46	26.24	-47.0	-49.7	23.6	6.07e-01	0	42	0	550502400	65	4951
2026-01-01 12:55:58.09	276.53	26.15	-47.0	-49.7	23.5	6.08e-01	0	42	0	556269568	65	4952
2026-01-01 12:56:01.08	277.59	26.06	-46.9	-49.6	23.6	6.07e-01	0	42	0	562036736	65	4917
2026-01-01 12:56:04.08	278.65	25.96	-47.0	-49.7	23.5	6.05e-01	0	42	0	567279616	65	4972
2026-01-01 12:56:07.09	279.70	25.84	-47.0	-49.7	23.5	6.06e-01	0	42	0	573046784	65	4960
2026-01-01 12:56:10.08	280.74	25.72	-47.1	-49.8	23.4	6.07e-01	0	42	0	578813952	65	5033
2026-01-01 12:56:13.08	281.78	25.59	-46.9	-49.6	23.7	6.06e-01	0	41	0	584056832	65	4872
2026-01-01 12:56:16.08	282.80	25.45	-47.0	-49.6	23.6	6.08e-01	0	42	0	589824000	65	4922
2026-01-01 12:56:19.07	283.81	25.30	-47.0	-49.7	23.5	6.07e-01	0	41	0	595591168	65	4939
2026-01-01 12:56:22.07	284.82	25.14	-46.9	-49.4	23.8	6.06e-01	0	42	0	601358336	65	4802
2026-01-01 12:56:25.06	285.81	24.98	-47.1	-49.8	23.5	6.05e-01	0	42	0	606601216	65	4988
2026-01-01 12:56:28.06	286.79	24.81	-46.8	-49.5	23.7	6.05e-01	0	42	0	612368384	65	4846
2026-01-01 12:56:31.06	287.77	24.63	-46.9	-49.5	23.7	6.07e-01	0	42	0	618135552	65	4866
2026-01-01 12:56:34.06	288.73	24.44	-46.9	-49.6	23.6	6.08e-01	0	42	0	623902720	65	4901
2026-01-01 12:56:37.06	289.68	24.25	-46.9	-49.6	23.7	6.07e-01	0	42	0	629145600	65	4885
2026-01-01 12:56:40.05	290.61	24.06	-46.8	-49.5	23.6	6.03e-01	0	42	0	634912768	65	4869
2026-01-01 12:56:43.05	291.54	23.85	-46.8	-49.6	23.6	6.05e-01	0	41	0	640679936	65	4873
2026-01-01 12:56:46.04	292.45	23.64	-46.7	-49.3	23.8	6.07e-01	0	42	0	646447104	65	4759
2026-01-01 12:56:49.04	293.35	23.43	-46.9	-49.6	23.5	6.06e-01	0	42	0	651689984	65	4910
2026-01-01 12:56:52.03	294.23	23.21	-46.9	-49.5	23.6	6.06e-01	0	42	0	657457152	65	4835
2026-01-01 12:56:55.02	295.10	22.99	-46.8	-49.4	23.8	6.06e-01	0	42	0	663224320	65	4785
2026-01-01 12:56:58.02	295.96	22.76	-46.9	-49.5	23.6	6.06e-01	0	41	0	668467200	65	4868
2026-01-01 12:57:01.01	296.81	22.53	-46.9	-49.6	23.6	6.05e-01	0	42	0	674234368	65	4886
2026-01-01 12:57:04.01	297.64	22.29	-46.6	-49.3	23.8	6.06e-01	0	42	0	680001536	65	4736
2026-01-01 12:57:07.00	298.46	22.05	-46.7	-49.3	23.8	6.09e-01	0	42	0	685244416	65	4750
2026-01-01 12:57:09.99	299.27	21.81	-46.8	-49.4	23.7	6.07e-01	0	42	0	691011584	65	4807
2026-01-01 12:57:12.98	300.06	21.57	-46.7	-49.3	23.8	6.07e-01	0	41	0	696778752	65	4736
2026-01-01 12:57:15.98	300.84	21.32	-46.8	-49.5	23.6	6.05e-01	0	42	0	702545920	65	4868
2026-01-01 12:57:18.97	301.61	21.07	-46.6	-49.3	23.8	6.07e-01	0	42	0	707788800	65	4719
2026-01-01 12:57:21.97	302.37	20.82	-46.6	-49.3	23.7	6.09e-01	0	42	0	713555968	65	4745
2026-01-01 12:57:24.97	303.11	20.56	-46.7	-49.3	23.7	6.06e-01	0	42	0	719323136	65	4747
2026-01-01 12:57:27.96	303.84	20.31	-46.8	-49.5	23.7	6.08e-01	0	42	0	724566016	65	4830
2026-01-01 12:57:30.96	304.56	20.05	-46.4	-49.0	24.0	6.08e-01	0	42	0	730333184	64	4847
2026-01-01 12:57:33.96	305.27	19.79	-46.5	-49.2	23.8	6.07e-01	0	42	0	736100352	64	4952
2026-01-01 12:57:36.96	305.96	19.53	-46.6	-49.2	23.8	6.08e-01	0	42	0	741867520	64	4976
2026-01-01 12:57:39.95	306.64	19.27	-46.7	-49.2	23.8	6.05e-01	0	42	0	747110400	64	4981
2026-01-01 12:57:42.95	307.31	19.01	-46.6	-49.1	23.9	6.07e-01	0	42	0	752877568	64	4921
2026-01-01 12:57:45.95	307.97	18.75	-46.4	-49.0	23.9	6.07e-01	0	42	0	758644736	64	4855
2026-01-01 12:57:48.94	308.61	18.49	-46.5	-49.2	23.8	6.07e-01	0	42	0	763887616	64	4983
2026-01-01 12:57:51.94	309.25	18.22	-46.2	-49.2	23.8	6.05e-01	0	42	0	769654784	64	4969
2026-01-01 12:57:54.93	309.87	17.96	-46.1	-49.0	24.0	6.08e-01	0	42	0	775421952	64	4846
2026-01-01 12:57:57.93	310.48	17.70	-46.3	-49.0	24.0	6.08e-01	0	42	0	781189120	64	4835
2026-01-01 12:58:00.92	311.08	17.44	-46.4	-49.2	23.8	6.04e-01	0	42	0	786432000	64	4941
2026-01-01 12:58:03.91	311.67	17.18	-46.4	-49.0	24.0	6.07e-01	0	42	0	792199168	64	4867
2026-01-01 12:58:06.91	312.25	16.91	-46.3	-49.0	23.9	6.06e-01	0	42	0	797966336	64	4858
2026-01-01 12:58:09.92	312.82	16.65	-46.3	-49.2	23.8	6.06e-01	0	42	0	803209216	64	4942
2026-01-01 12:58:12.91	313.38	16.39	-46.4	-49.2	23.8	6.09e-01	0	42	0	808976384	64	4929
2026-01-01 12:58:15.91	313.93	16.13	-46.4	-49.1	23.9	6.05e-01	0	42	0	814743552	64	4894
2026-01-01 12:58:18.91	314.47	15.87	-46.5	-49.2	23.9	6.09e-01	0	42	0	820510720	64	4939
2026-01-01 12:58:21.90	315.00	15.62	-46.6	-49.2	23.8	6.06e-01	0	42	0	825753600	64	4969
2026-01-01 12:58:24.90	315.52	15.36	-46.6	-49.3	23.7	6.04e-01	0	42	0	831520768	64	5027
2026-01-01 12:58:27.90	316.03	15.10	-46.3	-49.2	23.8	6.04e-01	0	42	0	837287936	64	4946
2026-01-01 12:58:30.89	316.54	14.85	-46.4	-49.2	23.8	6.09e-01	0	42	0	842530816	64	4982
2026-01-01 12:58:33.89	317.03	14.59	-46.4	-49.3	23.7	6.07e-01	0	42	0	848297984	64	4994
2026-01-01 12:58:36.89	317.51	14.34	-46.5	-49.2	23.7	6.04e-01	0	42	0	854065152	64	4983
2026-01-01 12:58:39.89	317.99	14.09	-46.3	-49.3	23.7	6.04e-01	0	42	0	859832320	64	4987
2026-01-01 12:58:42.88	318.46	13.84	-46.2	-49.4	23.6	6.01e-01	0	42	0	865075200	64	5044
2026-01-01 12:58:45.89	318.92	13.59	-46.3	-49.4	23.6	6.04e-01	0	42	0	870842368	64	5092
2026-01-01 12:58:48.89	319.37	13.34	-46.4	-49.4	23.6	6.02e-01	0	42	0	876609536	64	5042
2026-01-01 12:58:51.89	319.82	13.09	-46.6	-49.6	23.4	6.03e-01	0	42	0	882376704	64	5160
2026-01-01 12:58:54.88	320.25	12.85	-46.6	-49.6	23.3	6.04e-01	0	42	0	887619584	64	5201
2026-01-01 12:58:57.88	320.68	12.60	-46.8	-49.7	23.2	6.03e-01	0	42	0	893386752	64	5278
2026-01-01 12:59:00.87	321.10	12.36	-46.9	-49.6	23.3	6.01e-01	0	42	0	899153920	64	5217
2026-01-01 12:59:03.86	321.52	12.12	-47.0	-49.7	23.2	5.99e-01	0	42	0	904396800	64	5244
2026-01-01 12:59:06.85	321.92	11.88	-46.9	-49.6	23.3	6.01e-01	0	42	0	910163968	64	5191
2026-01-01 12:59:09.84	322.32	11.64	-46.9	-49.7	23.2	6.00e-01	0	42	0	915931136	64	5244
2026-01-01 12:59:12.84	322.72	11.40	-46.4	-49.8	23.1	6.03e-01	0	42	0	921174016	64	5313
2026-01-01 12:59:15.84	323.10	11.17	-45.9	-49.9	22.9	6.01e-01	0	42	0	926941184	63	5691
2026-01-01 12:59:18.84	323.49	10.93	-46.0	-50.1	22.8	6.05e-01	0	42	0	932708352	63	5815
2026-01-01 12:59:21.84	323.86	10.70	-46.3	-50.2	22.7	6.03e-01	0	42	0	938475520	63	5892
2026-01-01 12:59:24.84	324.23	10.47	-46.2	-50.4	22.6	6.02e-01	0	42	0	943718400	63	5997
2026-01-01 12:59:27.84	324.59	10.24	-45.6	-50.2	22.4	6.01e-01	0	42	0	949485568	61	6607
2026-01-01 12:59:30.84	324.95	10.01	-46.3	-50.4	22.4	6.02e-01	0	42	0	955252736	63	5996
2026-01-01 12:59:33.84	325.30	9.78	-46.6	-50.4	22.4	6.04e-01	0	42	0	961019904	63	6053
2026-01-01 12:59:36.84	325.65	9.56	-46.7	-50.3	22.4	6.03e-01	0	42	0	966262784	64	5639
2026-01-01 12:59:39.83	325.99	9.33	-46.9	-50.5	22.3	6.01e-01	0	42	0	972029952	64	5731
2026-01-01 12:59:42.82	326.32	9.11	-47.2	-50.6	22.2	6.02e-01	0	42	0	977797120	65	5487
2026-01-01 12:59:45.82	326.65	8.89	-45.0	-72.2	3.9	7.53e-01	0	42	104	981467136	67	58651
2026-01-01 12:59:48.83	326.97	8.67	-53.4	-74.7	3.8	7.41e-01	0	42	104	981467136	77	44103
2026-01-01 12:59:51.84	327.29	8.45	-54.3	-74.7	3.8	7.44e-01	0	42	104	981467136	79	39412
2026-01-01 12:59:54.85	327.61	8.23	-52.4	-73.2	3.9	7.50e-01	0	42	104	981467136	73	46724
2026-01-01 12:59:57.86	327.92	8.02	-53.7	-74.8	3.8	7.45e-01	0	42	104	981467136	78	42060
2026-01-01 13:00:00.87	328.23	7.80	-53.3	-74.6	3.8	7.47e-01	0	42	104	981467136	78	41154
2026-01-01 13:00:03.87	328.53	7.59	-54.0	-74.8	3.8	7.45e-01	0	42	104	981467136	78	42171
2026-01-01 13:00:06.88	328.82	7.38	-53.3	-74.7	3.8	7.45e-01	0	42	104	981467136	78	41555
2026-01-01 13:00:09.89	329.12	7.17	-53.8	-74.8	3.8	7.46e-01	0	42	104	981467136	78	42282
2026-01-01 13:00:12.90	329.40	6.96	-53.9	-74.0	3.8	7.44e-01	0	42	104	981467136	76	43260
2026-01-01 13:00:15.91	329.69	6.75	-53.8	-74.7	3.9	7.44e-01	0	42	104	981467136	78	41547
2026-01-01 13:00:18.93	329.97	6.54	-53.8	-74.7	3.8	7.44e-01	0	42	104	981467136	78	41680
2026-01-01 13:00:21.94	330.24	6.34	-54.4	-75.0	3.8	7.43e-01	0	42	104	981467136	78	43041
2026-01-01 13:00:24.95	330.52	6.13	-53.4	-74.7	3.8	7.43e-01	0	42	104	981467136	78	41711
2026-01-01 13:00:27.96	330.78	5.93	-53.8	-74.7	3.9	7.46e-01	0	42	104	981467136	78	41714
2026-01-01 13:00:30.98	331.05	5.73	-53.8	-74.7	3.8	7.44e-01	0	42	104	981467136	78	41638
2026-01-01 13:00:33.99	331.31	5.53	-53.9	-74.7	3.8	7.48e-01	0	42	104	981467136	78	41768
2026-01-01 13:00:37.00	331.56	5.33	-53.8	-74.7	3.8	7.47e-01	0	42	104	981467136	78	41519
2026-01-01 13:00:40.01	331.82	5.13	-53.8	-74.7	3.8	7.49e-01	0	42	104	981467136	78	41711

#Closed at: 2026-01-01 13:00:43
#Recorded file [981 MB]: D:/Data/31040_260101_155025.dat