passes_logs/2026/01/01/T1/T1__20260101_121137_SUOMI_NPP_rec.log

#Pass ID: 20260101_121137_SUOMI NPP
#Satellite: SUOMI NPP
#Configuration: NPP
#almurnet v.1.7.20251203
#Start time: 2026-01-01 12:11:39

#Version: 2.0.20230620
#Station: T1
#Location: 37.570604 lon 55.790049 lat
#TLE: 1 37849U 11061A   25364.87906317  .00000195  00000+0  11345-3 0  9992
#TLE: 2 37849  98.7794 302.0592 0002571  89.2401 270.9069 14.19520347734561

#Time	Az	El	Level	Level2	SNR	BER	BlckErr	Temp	State	Recorded	gain1	gain2
2026-01-01 12:11:39.73	236.93	5.10	-51.2	-66.6	3.8	1.49e+00	0	36	0	0	73	21932
2026-01-01 12:11:42.74	237.29	5.23	-51.2	-66.6	3.8	1.49e+00	0	36	104	0	74	20560
2026-01-01 12:11:45.75	237.66	5.36	-51.2	-66.6	3.8	1.49e+00	0	37	104	0	74	20554
2026-01-01 12:11:48.76	238.03	5.49	-51.2	-66.6	3.8	1.49e+00	0	36	104	0	74	20666
2026-01-01 12:11:51.78	238.41	5.63	-51.2	-66.6	3.8	1.49e+00	0	37	104	0	74	20554
2026-01-01 12:11:54.79	238.79	5.76	-51.2	-66.6	3.8	1.49e+00	0	37	104	0	74	20647
2026-01-01 12:11:57.80	239.17	5.89	-51.2	-66.6	3.8	1.49e+00	0	37	104	0	74	20670
2026-01-01 12:12:00.81	239.55	6.02	-51.2	-66.6	3.8	1.49e+00	0	37	104	0	74	20541
2026-01-01 12:12:03.82	239.94	6.15	-51.2	-66.6	3.8	1.49e+00	0	37	104	0	74	20692
2026-01-01 12:12:06.84	240.33	6.28	-51.2	-66.6	3.8	1.49e+00	0	37	104	0	74	20635
2026-01-01 12:12:09.85	240.72	6.41	-51.2	-66.6	3.8	1.49e+00	0	37	104	0	74	20609
2026-01-01 12:12:12.86	241.12	6.54	-51.2	-66.6	3.8	1.49e+00	0	37	104	0	74	20589
2026-01-01 12:12:15.87	241.52	6.67	-51.3	-66.7	3.8	1.49e+00	0	37	104	0	74	20780
2026-01-01 12:12:18.88	241.93	6.79	-51.3	-66.6	3.8	1.49e+00	0	37	104	0	74	20666
2026-01-01 12:12:21.89	242.34	6.92	-51.2	-66.5	3.8	1.49e+00	0	38	104	0	74	20525
2026-01-01 12:12:24.91	242.75	7.05	-51.2	-66.6	3.8	1.49e+00	0	37	104	0	74	20647
2026-01-01 12:12:27.92	243.16	7.17	-51.2	-66.6	3.8	1.49e+00	0	38	104	0	74	20652
2026-01-01 12:12:30.93	243.58	7.30	-51.3	-66.6	3.8	1.49e+00	0	38	104	0	74	20743
2026-01-01 12:12:33.94	244.00	7.42	-51.2	-66.5	3.8	1.49e+00	0	38	104	0	74	20356
2026-01-01 12:12:36.96	244.43	7.55	-51.2	-66.4	3.8	1.49e+00	0	38	104	0	74	20239
2026-01-01 12:12:39.97	244.86	7.67	-51.3	-66.5	3.8	1.49e+00	0	38	104	0	74	20412
2026-01-01 12:12:42.98	245.29	7.79	-51.2	-66.4	3.8	1.49e+00	0	38	104	0	74	20207
2026-01-01 12:12:45.99	245.73	7.91	-51.2	-66.6	3.8	1.49e+00	0	38	104	0	74	20595
2026-01-01 12:12:49.01	246.17	8.04	-51.3	-66.6	3.8	1.49e+00	0	38	104	0	74	20772
2026-01-01 12:12:52.02	246.61	8.15	-51.3	-66.6	3.8	1.49e+00	0	38	104	0	74	20767
2026-01-01 12:12:55.03	247.06	8.27	-51.2	-66.5	3.8	1.49e+00	0	38	104	0	74	20421
2026-01-01 12:12:58.04	247.51	8.39	-51.2	-64.8	3.8	1.49e+00	0	38	104	0	74	16874
2026-01-01 12:13:01.05	247.96	8.51	-50.7	-60.4	5.3	6.19e-01	0	38	0	3145728	73	10759
2026-01-01 12:13:04.06	248.42	8.62	-51.0	-63.1	4.1	1.42e+00	0	38	0	6291456	73	14613
2026-01-01 12:13:07.08	248.88	8.74	-48.6	-53.3	12.0	3.26e-03	0	38	0	11534336	69	5962
2026-01-01 12:13:10.09	249.34	8.85	-46.7	-50.0	15.2	0.00e+00	0	38	0	17825792	65	5124
2026-01-01 12:13:13.10	249.81	8.97	-48.3	-52.7	12.6	2.59e-05	0	38	0	23068672	67	6268
2026-01-01 12:13:16.11	250.28	9.08	-49.8	-56.0	9.2	3.01e-02	0	38	0	29360128	70	7676
2026-01-01 12:13:19.11	250.75	9.19	-49.1	-54.3	11.0	3.16e-03	0	38	0	34603008	70	6321
2026-01-01 12:13:22.12	251.23	9.30	-48.5	-53.1	12.3	1.59e-04	0	38	0	39845888	69	5814
2026-01-01 12:13:25.12	251.71	9.40	-47.8	-51.9	13.4	1.22e-05	0	38	0	46137344	67	5659
2026-01-01 12:13:28.12	252.19	9.51	-47.8	-51.9	13.4	1.06e-05	0	38	0	51380224	67	5676
2026-01-01 12:13:31.13	252.68	9.61	-47.3	-51.1	14.2	1.50e-06	0	38	0	56623104	66	5506
2026-01-01 12:13:34.13	253.17	9.72	-47.6	-51.3	14.0	3.00e-06	0	38	0	62914560	66	5652
2026-01-01 12:13:37.13	253.66	9.82	-47.7	-51.5	13.8	1.50e-06	0	38	0	68157440	66	5744
2026-01-01 12:13:40.14	254.16	9.92	-47.6	-51.5	13.9	6.10e-06	0	38	0	74448896	66	5724
2026-01-01 12:13:43.14	254.66	10.02	-47.6	-51.6	13.7	3.80e-06	0	38	0	79691776	66	5849
2026-01-01 12:13:46.15	255.16	10.12	-47.4	-51.2	14.1	1.50e-06	0	38	0	84934656	66	5562
2026-01-01 12:13:49.15	255.67	10.21	-47.4	-51.2	14.1	2.20e-06	0	38	0	91226112	66	5555
2026-01-01 12:13:52.15	256.18	10.31	-47.2	-50.9	14.5	0.00e+00	0	38	0	96468992	66	5362
2026-01-01 12:13:55.16	256.69	10.40	-47.3	-50.9	14.4	0.00e+00	0	38	0	101711872	66	5398
2026-01-01 12:13:58.16	257.21	10.49	-47.2	-50.7	14.7	7.00e-07	0	38	0	108003328	66	5261
2026-01-01 12:14:01.16	257.73	10.58	-47.3	-50.8	14.5	7.00e-07	0	38	0	113246208	66	5320
2026-01-01 12:14:04.17	258.25	10.67	-46.9	-50.3	15.0	7.00e-07	0	38	0	118489088	65	5294
2026-01-01 12:14:07.17	258.78	10.75	-46.6	-50.0	15.3	0.00e+00	0	38	0	124780544	65	5104
2026-01-01 12:14:10.16	259.30	10.83	-46.8	-50.2	15.1	0.00e+00	0	39	0	130023424	65	5264
2026-01-01 12:14:13.17	259.83	10.92	-47.1	-50.6	14.7	0.00e+00	0	38	0	136314880	65	5512
2026-01-01 12:14:16.18	260.37	11.00	-47.1	-50.5	14.8	7.00e-07	0	38	0	141557760	65	5454
2026-01-01 12:14:19.18	260.90	11.07	-47.2	-50.7	14.6	0.00e+00	0	38	0	146800640	65	5576
2026-01-01 12:14:22.18	261.44	11.15	-47.1	-50.4	14.9	0.00e+00	0	38	0	153092096	65	5390
2026-01-01 12:14:25.19	261.99	11.22	-46.8	-50.0	15.3	0.00e+00	0	38	0	158334976	65	5148
2026-01-01 12:14:28.19	262.53	11.30	-46.7	-49.8	15.6	0.00e+00	0	38	0	163577856	65	5035
2026-01-01 12:14:31.19	263.08	11.37	-47.0	-50.4	15.0	0.00e+00	0	38	0	169869312	65	5390
2026-01-01 12:14:34.18	263.62	11.43	-47.2	-50.7	14.7	0.00e+00	0	39	0	175112192	65	5542
2026-01-01 12:14:37.18	264.17	11.50	-47.1	-50.4	14.9	7.00e-07	0	38	0	180355072	65	5390
2026-01-01 12:14:40.18	264.73	11.56	-46.7	-49.8	15.6	0.00e+00	0	39	0	186646528	65	5040
2026-01-01 12:14:43.18	265.28	11.62	-47.2	-50.6	15.1	0.00e+00	0	38	0	191889408	65	5476
2026-01-01 12:14:46.18	265.84	11.68	-46.9	-50.2	15.1	0.00e+00	0	38	0	198180864	65	5256
2026-01-01 12:14:49.19	266.40	11.74	-46.2	-49.2	16.1	0.00e+00	0	39	0	203423744	64	4970
2026-01-01 12:14:52.19	266.97	11.79	-46.3	-49.3	16.0	0.00e+00	0	39	0	208666624	64	5017
2026-01-01 12:14:55.19	267.53	11.84	-47.0	-50.5	14.9	7.00e-07	0	39	0	214958080	64	5758
2026-01-01 12:14:58.20	268.10	11.89	-46.8	-50.1	15.3	0.00e+00	0	38	0	220200960	64	5487
2026-01-01 12:15:01.20	268.67	11.94	-47.2	-50.6	14.8	0.00e+00	0	39	0	225443840	65	5506
2026-01-01 12:15:04.20	269.24	11.98	-48.1	-52.1	13.3	1.06e-05	0	38	0	231735296	66	6135
2026-01-01 12:15:07.20	269.81	12.02	-47.7	-51.3	14.0	1.50e-06	0	38	0	236978176	67	5339
2026-01-01 12:15:10.20	270.38	12.06	-47.3	-50.6	14.8	0.00e+00	0	39	0	243269632	66	5209
2026-01-01 12:15:13.19	270.95	12.10	-47.7	-51.4	14.1	1.50e-06	0	39	0	248512512	66	5657
2026-01-01 12:15:16.19	271.53	12.13	-47.8	-51.6	13.9	3.00e-06	0	39	0	253755392	66	5805
2026-01-01 12:15:19.20	272.10	12.17	-47.7	-51.4	14.1	1.50e-06	0	38	0	260046848	66	5683
2026-01-01 12:15:22.20	272.68	12.19	-48.2	-52.3	13.1	1.90e-05	0	39	0	265289728	67	5983
2026-01-01 12:15:25.21	273.26	12.22	-48.1	-52.1	13.3	2.74e-05	0	39	0	270532608	67	5828
2026-01-01 12:15:28.22	273.84	12.24	-47.4	-50.8	14.6	0.00e+00	0	39	0	276824064	66	5340
2026-01-01 12:15:31.23	274.43	12.27	-47.2	-50.5	14.9	0.00e+00	0	38	0	282066944	66	5154
2026-01-01 12:15:34.23	275.01	12.28	-47.3	-50.8	14.7	0.00e+00	0	39	0	287309824	66	5288
2026-01-01 12:15:37.23	275.59	12.30	-46.8	-50.0	15.4	0.00e+00	0	38	0	293601280	65	5158
2026-01-01 12:15:40.24	276.17	12.31	-46.4	-49.5	15.9	0.00e+00	0	39	0	298844160	64	5115
2026-01-01 12:15:43.24	276.76	12.32	-46.4	-49.4	15.9	0.00e+00	0	39	0	305135616	64	5088
2026-01-01 12:15:46.24	277.34	12.33	-46.2	-49.3	16.2	0.00e+00	0	39	0	310378496	64	4986
2026-01-01 12:15:49.24	277.92	12.34	-46.4	-49.4	16.0	0.00e+00	0	38	0	315621376	64	5073
2026-01-01 12:15:52.24	278.50	12.34	-46.6	-49.7	15.7	0.00e+00	0	39	0	321912832	64	5231
2026-01-01 12:15:55.24	279.09	12.34	-46.4	-49.4	15.9	0.00e+00	0	39	0	327155712	64	5096
2026-01-01 12:15:58.25	279.67	12.34	-46.3	-49.4	16.0	0.00e+00	0	39	0	332398592	64	5049
2026-01-01 12:16:01.25	280.26	12.33	-46.5	-49.5	15.8	0.00e+00	0	39	0	338690048	64	5158
2026-01-01 12:16:04.26	280.84	12.32	-46.4	-49.4	16.0	0.00e+00	0	39	0	343932928	64	5066
2026-01-01 12:16:07.27	281.42	12.31	-46.4	-49.4	16.0	0.00e+00	0	39	0	350224384	64	5100
2026-01-01 12:16:10.26	282.00	12.30	-46.5	-49.6	15.8	0.00e+00	0	39	0	355467264	64	5162
2026-01-01 12:16:13.27	282.59	12.28	-46.4	-49.4	16.0	0.00e+00	0	39	0	360710144	64	5052
2026-01-01 12:16:16.27	283.17	12.26	-46.6	-49.6	15.8	0.00e+00	0	39	0	367001600	64	5184
2026-01-01 12:16:19.27	283.75	12.24	-46.7	-49.8	15.6	0.00e+00	0	39	0	372244480	64	5333
2026-01-01 12:16:22.27	284.33	12.22	-46.2	-49.2	16.2	0.00e+00	0	39	0	377487360	64	4951
2026-01-01 12:16:25.28	284.91	12.19	-45.8	-48.6	16.8	0.00e+00	0	39	0	383778816	63	4921
2026-01-01 12:16:28.28	285.48	12.16	-46.0	-48.8	16.6	0.00e+00	0	39	0	389021696	63	5024
2026-01-01 12:16:31.27	286.05	12.13	-46.0	-48.9	16.5	0.00e+00	0	39	0	395313152	63	5063
2026-01-01 12:16:34.28	286.63	12.10	-45.8	-48.6	16.8	0.00e+00	0	38	0	400556032	63	4903
2026-01-01 12:16:37.29	287.21	12.06	-46.1	-48.9	16.6	0.00e+00	0	39	0	405798912	63	5085
2026-01-01 12:16:40.29	287.78	12.02	-46.3	-49.2	16.2	0.00e+00	0	39	0	412090368	63	5260
2026-01-01 12:16:43.30	288.35	11.98	-46.1	-48.9	16.6	0.00e+00	0	39	0	417333248	63	5059
2026-01-01 12:16:46.30	288.92	11.93	-45.8	-48.6	16.9	0.00e+00	0	39	0	422576128	63	4877
2026-01-01 12:16:49.30	289.48	11.89	-46.2	-49.0	16.4	0.00e+00	0	39	0	428867584	63	5151
2026-01-01 12:16:52.30	290.05	11.84	-46.3	-49.2	16.2	0.00e+00	0	39	0	434110464	63	5260
2026-01-01 12:16:55.30	290.61	11.78	-46.1	-48.9	16.7	0.00e+00	0	39	0	440401920	63	5050
2026-01-01 12:16:58.30	291.17	11.73	-46.1	-48.9	16.6	0.00e+00	0	39	0	445644800	63	5044
2026-01-01 12:17:01.30	291.73	11.67	-46.2	-49.0	16.4	0.00e+00	0	39	0	450887680	63	5137
2026-01-01 12:17:04.30	292.28	11.62	-46.3	-49.2	16.2	0.00e+00	0	38	0	457179136	63	5261
2026-01-01 12:17:07.31	292.84	11.55	-46.2	-49.1	16.3	0.00e+00	0	39	0	462422016	63	5191
2026-01-01 12:17:10.31	293.39	11.49	-46.5	-49.4	16.0	0.00e+00	0	39	0	467664896	63	5394
2026-01-01 12:17:13.30	293.94	11.43	-46.6	-49.7	15.7	0.00e+00	0	39	0	473956352	64	5222
2026-01-01 12:17:16.30	294.49	11.36	-46.3	-49.2	16.1	0.00e+00	0	39	0	479199232	64	4951
2026-01-01 12:17:19.28	295.03	11.29	-46.1	-48.9	16.5	0.00e+00	0	39	0	484442112	63	5064
2026-01-01 12:17:22.27	295.57	11.22	-46.2	-49.1	16.4	0.00e+00	0	39	0	490733568	63	5169
2026-01-01 12:17:25.26	296.10	11.15	-46.0	-48.8	16.6	0.00e+00	0	39	0	495976448	63	4992
2026-01-01 12:17:28.26	296.64	11.07	-45.8	-48.5	16.9	0.00e+00	0	39	0	501219328	63	4844
2026-01-01 12:17:31.26	297.17	10.99	-46.0	-48.8	16.6	0.00e+00	0	39	0	507510784	63	5029
2026-01-01 12:17:34.26	297.70	10.91	-46.4	-49.4	16.1	0.00e+00	0	39	0	512753664	63	5357
2026-01-01 12:17:37.26	298.23	10.83	-46.3	-49.2	16.2	0.00e+00	0	39	0	519045120	63	5268
2026-01-01 12:17:40.25	298.76	10.75	-46.0	-48.7	16.6	0.00e+00	0	39	0	524288000	63	4980
2026-01-01 12:17:43.24	299.28	10.66	-46.0	-48.8	16.5	0.00e+00	0	39	0	529530880	63	5036
2026-01-01 12:17:46.23	299.79	10.58	-46.2	-49.1	16.3	0.00e+00	0	39	0	535822336	63	5182
2026-01-01 12:17:49.22	300.31	10.49	-46.2	-49.1	16.3	0.00e+00	0	39	0	541065216	63	5186
2026-01-01 12:17:52.20	300.82	10.40	-45.9	-48.7	16.6	0.00e+00	0	39	0	546308096	63	4963
2026-01-01 12:17:55.20	301.33	10.31	-46.1	-48.9	16.4	0.00e+00	0	39	0	552599552	63	5082
2026-01-01 12:17:58.20	301.83	10.21	-46.2	-49.1	16.3	0.00e+00	0	39	0	557842432	63	5200
2026-01-01 12:18:01.20	302.34	10.12	-46.3	-49.3	16.1	0.00e+00	0	39	0	563085312	63	5328
2026-01-01 12:18:04.19	302.84	10.02	-46.5	-49.6	15.8	0.00e+00	0	39	0	569376768	63	5474
2026-01-01 12:18:07.19	303.33	9.92	-46.6	-49.9	15.4	0.00e+00	0	39	0	574619648	64	5358
2026-01-01 12:18:10.18	303.83	9.83	-47.1	-50.6	14.8	0.00e+00	0	39	0	579862528	64	5806
2026-01-01 12:18:13.17	304.32	9.72	-47.3	-50.9	14.4	0.00e+00	0	39	0	586153984	65	5716
2026-01-01 12:18:16.15	304.80	9.62	-47.6	-51.2	14.1	7.00e-07	0	39	0	591396864	65	5889
2026-01-01 12:18:19.15	305.28	9.52	-47.6	-51.3	14.1	2.20e-06	0	39	0	596639744	65	5972
2026-01-01 12:18:22.14	305.76	9.41	-47.3	-51.0	14.3	0.00e+00	0	39	0	602931200	65	5785
2026-01-01 12:18:25.13	306.24	9.31	-47.3	-51.0	14.3	1.50e-06	0	39	0	608174080	65	5744
2026-01-01 12:18:28.12	306.71	9.20	-47.7	-51.4	13.9	3.80e-06	0	39	0	614465536	66	5712
2026-01-01 12:18:31.12	307.18	9.09	-47.9	-52.0	13.2	2.82e-05	0	39	0	619708416	66	6126
2026-01-01 12:18:34.12	307.65	8.98	-50.8	-66.6	3.8	1.28e+00	0	38	104	624951296	72	23190
2026-01-01 12:18:37.12	308.11	8.87	-51.9	-67.1	3.8	1.49e+00	0	39	104	624951296	74	21979
2026-01-01 12:18:40.11	308.57	8.76	-52.1	-67.3	3.8	1.49e+00	0	39	104	624951296	75	21036
2026-01-01 12:18:43.12	309.03	8.65	-52.1	-67.3	3.8	1.49e+00	0	39	104	624951296	75	21078
2026-01-01 12:18:46.12	309.48	8.53	-52.3	-67.3	3.8	1.49e+00	0	39	104	624951296	75	21125
2026-01-01 12:18:49.12	309.93	8.42	-52.2	-67.4	3.8	1.49e+00	0	39	104	624951296	75	21297
2026-01-01 12:18:52.12	310.38	8.30	-52.2	-67.3	3.8	1.49e+00	0	39	104	624951296	75	21174
2026-01-01 12:18:55.13	310.82	8.18	-52.1	-67.3	3.8	1.49e+00	0	39	104	624951296	75	21228
2026-01-01 12:18:58.14	311.26	8.06	-52.0	-67.2	3.8	1.49e+00	0	39	104	624951296	75	20972
2026-01-01 12:19:01.15	311.70	7.94	-52.0	-67.2	3.8	1.49e+00	0	39	104	624951296	75	20957
2026-01-01 12:19:04.13	312.13	7.83	-52.1	-67.3	3.8	1.49e+00	0	39	104	624951296	75	21082
2026-01-01 12:19:07.14	312.56	7.71	-52.0	-67.2	3.8	1.49e+00	0	39	104	624951296	75	20971
2026-01-01 12:19:10.14	312.99	7.58	-52.0	-67.2	3.8	1.49e+00	0	39	104	624951296	75	20893
2026-01-01 12:19:13.12	313.40	7.46	-52.0	-67.2	3.8	1.49e+00	0	39	104	624951296	75	20958
2026-01-01 12:19:16.11	313.82	7.34	-52.0	-67.2	3.8	1.49e+00	0	39	104	624951296	75	20944
2026-01-01 12:19:19.11	314.24	7.22	-52.0	-67.2	3.8	1.49e+00	0	39	104	624951296	75	20917
2026-01-01 12:19:22.11	314.65	7.09	-52.0	-67.2	3.8	1.49e+00	0	39	104	624951296	75	20978
2026-01-01 12:19:25.11	315.06	6.97	-52.1	-67.3	3.8	1.49e+00	0	39	104	624951296	75	21060
2026-01-01 12:19:28.10	315.46	6.84	-52.0	-67.2	3.8	1.49e+00	0	39	104	624951296	75	20997
2026-01-01 12:19:31.10	315.86	6.72	-52.0	-67.3	3.8	1.49e+00	0	39	104	624951296	75	21019
2026-01-01 12:19:34.09	316.26	6.59	-51.9	-67.2	3.8	1.49e+00	0	39	104	624951296	75	20840
2026-01-01 12:19:37.08	316.65	6.47	-52.0	-67.2	3.8	1.49e+00	0	39	104	624951296	75	20890
2026-01-01 12:19:40.09	317.05	6.34	-52.0	-67.2	3.8	1.49e+00	0	39	104	624951296	75	20859
2026-01-01 12:19:43.09	317.44	6.21	-52.0	-67.3	3.8	1.49e+00	0	39	104	624951296	75	21067
2026-01-01 12:19:46.08	317.82	6.08	-52.0	-67.2	3.8	1.49e+00	0	39	104	624951296	75	20882
2026-01-01 12:19:49.09	318.20	5.95	-51.9	-67.3	3.8	1.49e+00	0	39	104	624951296	75	21183
2026-01-01 12:19:52.10	318.58	5.82	-52.2	-67.3	3.8	1.49e+00	0	39	104	624951296	75	21120
2026-01-01 12:19:55.11	318.96	5.69	-52.4	-67.3	3.8	1.49e+00	0	39	104	624951296	75	21256
2026-01-01 12:19:58.12	319.33	5.56	-52.1	-67.3	3.8	1.49e+00	0	39	104	624951296	75	21174
2026-01-01 12:20:01.12	319.70	5.43	-52.0	-67.3	3.8	1.49e+00	0	39	104	624951296	75	21232
2026-01-01 12:20:04.13	320.07	5.30	-51.8	-67.2	3.8	1.49e+00	0	39	104	624951296	75	20943
2026-01-01 12:20:07.12	320.43	5.17	-51.9	-67.2	3.8	1.49e+00	0	39	104	624951296	75	21006
2026-01-01 12:20:10.12	320.79	5.04	-51.7	-67.3	3.8	1.49e+00	0	39	104	624951296	75	21221

#Closed at: 2026-01-01 12:20:12
#Recorded file [624 MB]: D:/Data/31040_260101_151139.dat