passes_logs/2026/01/01/T1/T1__20260101_111213_AQUA_rec.log

#Pass ID: 20260101_111213_AQUA
#Satellite: AQUA
#Configuration: AQUA
#almurnet v.1.7.20251203
#Start time: 2026-01-01 11:12:13

#Version: 2.0.20230620
#Station: T1
#Location: 37.570604 lon 55.790049 lat
#TLE: 1 27424U 02022A   25364.96158943  .00001951  00000+0  40088-3 0  9998
#TLE: 2 27424  98.4061 326.1389 0001917  95.3187 305.7939 14.61780362258696

#Time	Az	El	Level	Level2	SNR	BER	BlckErr	Temp	State	Recorded	gain1	gain2
2026-01-01 11:12:13.50	146.10	5.01	-54.4	-74.9	3.8	7.45e-01	0	38	0	0	80	37823
2026-01-01 11:12:16.50	146.01	5.23	-54.5	-74.9	3.8	7.48e-01	0	38	104	0	79	40131
2026-01-01 11:12:19.50	145.92	5.46	-54.6	-74.9	3.8	7.48e-01	0	38	104	0	79	40498
2026-01-01 11:12:22.51	145.83	5.69	-54.6	-74.9	3.8	7.45e-01	0	39	104	0	79	40065
2026-01-01 11:12:25.52	145.74	5.92	-54.6	-74.8	3.8	7.45e-01	0	39	104	0	80	37640
2026-01-01 11:12:28.52	145.65	6.15	-54.6	-74.8	3.8	7.46e-01	0	39	104	0	80	37686
2026-01-01 11:12:31.52	145.55	6.38	-54.6	-74.8	3.8	7.43e-01	0	39	104	0	80	37721
2026-01-01 11:12:34.52	145.45	6.62	-54.6	-74.8	3.8	7.45e-01	0	39	104	0	80	37741
2026-01-01 11:12:37.51	145.35	6.86	-54.6	-74.9	3.8	7.46e-01	0	39	104	0	80	37974
2026-01-01 11:12:40.50	145.25	7.10	-54.6	-74.8	3.8	7.46e-01	0	39	104	0	80	37777
2026-01-01 11:12:43.51	145.15	7.35	-54.6	-74.9	3.8	7.47e-01	0	39	104	0	80	37952
2026-01-01 11:12:46.51	145.05	7.59	-54.5	-74.8	3.8	7.46e-01	0	39	104	0	80	37773
2026-01-01 11:12:49.51	144.94	7.84	-54.5	-74.9	3.8	7.46e-01	0	39	104	0	80	37946
2026-01-01 11:12:52.51	144.83	8.10	-54.4	-74.8	3.8	7.44e-01	0	40	104	0	80	37659
2026-01-01 11:12:55.51	144.72	8.35	-54.4	-74.8	3.8	7.46e-01	0	40	104	0	80	37705
2026-01-01 11:12:58.50	144.60	8.61	-54.4	-74.9	3.8	7.47e-01	0	40	104	0	80	37811
2026-01-01 11:13:01.50	144.49	8.87	-54.4	-74.9	3.8	7.46e-01	0	40	104	0	80	38000
2026-01-01 11:13:04.50	144.37	9.13	-54.3	-74.8	3.8	7.46e-01	0	40	104	0	80	37597
2026-01-01 11:13:07.48	144.25	9.40	-54.4	-74.8	3.8	7.43e-01	0	40	104	0	80	37540
2026-01-01 11:13:10.47	144.13	9.67	-54.4	-74.8	3.8	7.46e-01	0	40	104	0	80	37745
2026-01-01 11:13:13.48	144.00	9.94	-54.5	-74.9	3.8	7.46e-01	0	40	104	0	80	37936
2026-01-01 11:13:16.49	143.87	10.22	-54.5	-74.8	3.8	7.45e-01	0	40	104	0	80	37597
2026-01-01 11:13:19.49	143.74	10.50	-54.6	-74.8	3.8	7.44e-01	0	40	104	0	80	37745
2026-01-01 11:13:22.49	143.60	10.78	-54.6	-74.8	3.8	7.48e-01	0	40	104	0	80	37684
2026-01-01 11:13:25.49	143.47	11.07	-54.6	-74.8	3.8	7.45e-01	0	40	104	0	80	37711
2026-01-01 11:13:28.49	143.32	11.36	-54.6	-74.7	3.8	7.49e-01	0	40	104	0	80	37360
2026-01-01 11:13:31.49	143.18	11.65	-54.7	-74.9	3.8	7.44e-01	0	40	104	0	80	37832
2026-01-01 11:13:34.49	143.03	11.95	-54.6	-74.8	3.8	7.46e-01	0	40	104	0	80	37635
2026-01-01 11:13:37.49	142.88	12.25	-54.6	-74.8	3.8	7.43e-01	0	40	104	0	80	37698
2026-01-01 11:13:40.49	142.73	12.55	-54.7	-74.9	3.8	7.49e-01	0	40	104	0	80	37830
2026-01-01 11:13:43.49	142.57	12.86	-54.7	-74.9	3.8	7.47e-01	0	40	104	0	80	37887
2026-01-01 11:13:46.49	142.41	13.18	-54.6	-74.9	3.8	7.45e-01	0	40	104	0	80	38028
2026-01-01 11:13:49.48	142.24	13.49	-54.5	-74.8	3.8	7.46e-01	0	40	104	0	80	37749
2026-01-01 11:13:52.47	142.07	13.82	-54.4	-74.8	3.8	7.47e-01	0	40	104	0	80	37568
2026-01-01 11:13:55.44	141.90	14.14	-54.3	-74.8	3.8	7.46e-01	0	40	104	0	80	37489
2026-01-01 11:13:58.43	141.72	14.47	-54.3	-74.8	3.8	7.48e-01	0	41	104	0	80	37772
2026-01-01 11:14:01.42	141.54	14.81	-54.2	-74.8	3.8	7.48e-01	0	41	104	0	80	37766
2026-01-01 11:14:04.41	141.35	15.15	-54.1	-74.8	3.8	7.44e-01	0	40	104	0	80	37624
2026-01-01 11:14:07.40	141.16	15.49	-54.2	-74.9	3.8	7.44e-01	0	40	104	0	80	37811
2026-01-01 11:14:10.39	140.97	15.84	-54.1	-74.8	3.8	7.47e-01	0	40	104	0	80	37586
2026-01-01 11:14:13.38	140.76	16.20	-54.1	-74.8	3.8	7.49e-01	0	40	104	0	80	37807
2026-01-01 11:14:16.38	140.56	16.56	-54.2	-74.8	3.8	7.47e-01	0	40	104	0	80	37644
2026-01-01 11:14:19.39	140.34	16.93	-54.3	-74.9	3.8	7.44e-01	0	40	104	0	80	37883
2026-01-01 11:14:22.38	140.12	17.30	-54.3	-74.8	3.8	7.48e-01	0	41	104	0	80	37753
2026-01-01 11:14:25.38	139.90	17.68	-54.4	-74.8	3.8	7.46e-01	0	40	104	0	80	37689
2026-01-01 11:14:28.38	139.66	18.07	-54.5	-74.9	3.8	7.43e-01	0	41	104	0	80	37809
2026-01-01 11:14:31.38	139.43	18.46	-54.5	-74.8	3.8	7.46e-01	0	41	104	0	80	37689
2026-01-01 11:14:34.38	139.18	18.86	-54.6	-74.8	3.8	7.45e-01	0	40	104	0	80	37687
2026-01-01 11:14:37.39	138.93	19.27	-54.6	-74.8	3.8	7.45e-01	0	41	104	0	80	37680
2026-01-01 11:14:40.40	138.67	19.68	-54.6	-74.8	3.8	7.48e-01	0	41	104	0	80	37732
2026-01-01 11:14:43.40	138.40	20.10	-54.6	-74.8	3.8	7.47e-01	0	40	104	0	80	37643
2026-01-01 11:14:46.41	138.12	20.53	-54.6	-74.8	3.8	7.48e-01	0	41	104	0	80	37508
2026-01-01 11:14:49.42	137.84	20.96	-54.6	-74.8	3.8	7.49e-01	0	41	104	0	80	37586
2026-01-01 11:14:52.42	137.54	21.40	-54.6	-74.8	3.8	7.46e-01	0	41	104	0	80	37692
2026-01-01 11:14:55.41	137.24	21.85	-54.6	-74.8	3.8	7.43e-01	0	41	104	0	80	37413
2026-01-01 11:14:58.40	136.93	22.31	-54.6	-74.8	3.8	7.42e-01	0	40	104	0	80	37770
2026-01-01 11:15:01.40	136.61	22.77	-54.5	-74.7	3.8	7.47e-01	0	41	104	0	80	37315
2026-01-01 11:15:04.40	136.28	23.25	-54.4	-74.8	3.8	7.50e-01	0	41	104	0	80	37499
2026-01-01 11:15:07.39	135.93	23.73	-54.3	-74.8	3.8	7.46e-01	0	41	104	0	80	37656
2026-01-01 11:15:10.39	135.58	24.22	-54.3	-74.9	3.8	7.46e-01	0	41	104	0	80	37809
2026-01-01 11:15:13.40	135.21	24.72	-54.2	-74.8	3.8	7.47e-01	0	41	104	0	80	37726
2026-01-01 11:15:16.40	134.83	25.23	-54.1	-74.8	3.8	7.43e-01	0	41	104	0	80	37774
2026-01-01 11:15:19.41	134.43	25.75	-54.0	-74.8	3.8	7.46e-01	0	41	104	0	80	37594
2026-01-01 11:15:22.42	134.02	26.28	-54.1	-74.8	3.8	7.46e-01	0	41	104	0	80	37805
2026-01-01 11:15:25.41	133.60	26.81	-54.0	-74.9	3.8	7.46e-01	0	41	104	0	80	37823
2026-01-01 11:15:28.41	133.17	27.36	-53.9	-74.9	3.8	7.48e-01	0	41	104	0	79	40155
2026-01-01 11:15:31.40	132.71	27.92	-53.8	-74.8	3.8	7.44e-01	0	41	104	0	79	40020
2026-01-01 11:15:34.41	132.24	28.49	-53.9	-74.9	3.8	7.42e-01	0	41	104	0	79	40453
2026-01-01 11:15:37.42	131.75	29.07	-53.8	-74.8	3.8	7.41e-01	0	40	104	0	79	39845
2026-01-01 11:15:40.42	131.24	29.65	-53.8	-74.8	3.8	7.46e-01	0	40	104	0	79	40044
2026-01-01 11:15:43.41	130.72	30.25	-53.8	-74.9	3.8	7.47e-01	0	41	104	0	79	40274
2026-01-01 11:15:46.41	130.17	30.86	-53.9	-74.9	3.8	7.46e-01	0	41	104	0	79	40158
2026-01-01 11:15:49.41	129.60	31.48	-53.9	-74.9	3.8	7.46e-01	0	40	104	0	79	40314
2026-01-01 11:15:52.40	129.00	32.11	-54.0	-74.9	3.8	7.45e-01	0	41	104	0	79	40203
2026-01-01 11:15:55.40	128.38	32.76	-54.1	-75.0	3.8	7.47e-01	0	41	104	0	79	40662
2026-01-01 11:15:58.40	127.74	33.41	-54.1	-74.9	3.8	7.49e-01	0	41	104	0	79	40357
2026-01-01 11:16:01.41	127.06	34.08	-54.1	-74.9	3.8	7.47e-01	0	41	104	0	79	40229
2026-01-01 11:16:04.41	126.36	34.76	-54.3	-75.0	3.8	7.46e-01	0	41	104	0	79	40576
2026-01-01 11:16:07.41	125.63	35.44	-54.3	-74.9	3.8	7.43e-01	0	41	104	0	79	40181
2026-01-01 11:16:10.41	124.86	36.14	-54.2	-74.9	3.8	7.47e-01	0	40	104	0	79	40127
2026-01-01 11:16:13.42	124.05	36.85	-54.3	-74.9	3.8	7.42e-01	0	41	104	0	79	40299
2026-01-01 11:16:16.42	123.22	37.57	-54.3	-74.9	3.8	7.45e-01	0	41	104	0	79	40263
2026-01-01 11:16:19.43	122.33	38.30	-54.4	-75.0	3.8	7.47e-01	0	41	104	0	79	40645
2026-01-01 11:16:22.44	121.41	39.03	-54.3	-74.9	3.8	7.48e-01	0	41	104	0	79	40265
2026-01-01 11:16:25.44	120.45	39.78	-54.3	-74.9	3.8	7.48e-01	0	41	104	0	79	40125
2026-01-01 11:16:28.45	119.44	40.53	-54.2	-74.8	3.8	7.45e-01	0	41	104	0	79	39909
2026-01-01 11:16:31.44	118.38	41.28	-54.2	-74.9	3.8	7.42e-01	0	41	104	0	79	40136
2026-01-01 11:16:34.45	117.26	42.05	-54.2	-74.9	3.8	7.48e-01	0	41	104	0	79	40182
2026-01-01 11:16:37.44	116.10	42.81	-54.2	-74.8	3.8	7.46e-01	0	41	104	0	79	40017
2026-01-01 11:16:40.45	114.87	43.58	-54.2	-74.8	3.8	7.47e-01	0	41	104	0	79	40000
2026-01-01 11:16:43.46	113.58	44.36	-54.1	-74.8	3.8	7.44e-01	0	41	104	0	79	40014
2026-01-01 11:16:46.46	112.23	45.12	-54.2	-74.8	3.8	7.44e-01	0	41	104	0	79	39999
2026-01-01 11:16:49.46	110.81	45.89	-54.2	-74.8	3.8	7.45e-01	0	41	104	0	79	39927
2026-01-01 11:16:52.48	109.31	46.65	-54.2	-74.8	3.8	7.44e-01	0	41	104	0	79	39644
2026-01-01 11:16:55.49	107.74	47.41	-54.2	-74.8	3.8	7.51e-01	0	41	104	0	79	39739
2026-01-01 11:16:58.48	106.10	48.15	-54.2	-74.7	3.8	7.47e-01	0	41	104	0	79	39498
2026-01-01 11:17:01.48	104.37	48.88	-54.2	-74.7	3.8	7.46e-01	0	41	104	0	79	39478
2026-01-01 11:17:04.48	102.56	49.59	-54.2	-74.7	3.8	7.47e-01	0	41	104	0	79	39545
2026-01-01 11:17:07.48	100.67	50.28	-54.2	-74.8	3.8	7.47e-01	0	41	104	0	79	39828
2026-01-01 11:17:10.48	98.68	50.94	-54.2	-74.8	3.8	7.46e-01	0	41	104	0	79	39705
2026-01-01 11:17:13.47	96.62	51.58	-54.2	-74.8	3.8	7.45e-01	0	41	104	0	79	39636
2026-01-01 11:17:16.46	94.46	52.19	-54.2	-74.8	3.8	7.42e-01	0	41	104	0	79	39981
2026-01-01 11:17:19.46	92.21	52.76	-54.2	-74.8	3.8	7.44e-01	0	41	104	0	79	39939
2026-01-01 11:17:22.46	89.87	53.29	-54.3	-74.8	3.8	7.45e-01	0	41	104	0	79	39819
2026-01-01 11:17:25.45	87.46	53.77	-54.2	-74.8	3.8	7.50e-01	0	41	104	0	79	39922
2026-01-01 11:17:28.44	84.97	54.20	-54.3	-74.9	3.8	7.47e-01	0	41	104	0	79	40304
2026-01-01 11:17:31.43	82.41	54.59	-54.2	-74.8	3.8	7.45e-01	0	41	104	0	79	39944
2026-01-01 11:17:34.43	79.77	54.91	-54.2	-74.8	3.8	7.48e-01	0	41	104	0	79	39800
2026-01-01 11:17:37.43	77.08	55.18	-54.2	-74.9	3.8	7.47e-01	0	41	104	0	79	40072
2026-01-01 11:17:40.43	74.34	55.39	-54.6	-74.8	3.9	7.43e-01	0	41	104	0	80	37589
2026-01-01 11:17:43.44	71.55	55.53	-54.2	-74.9	3.8	7.45e-01	0	41	104	0	79	40350
2026-01-01 11:17:46.45	68.75	55.60	-54.2	-74.9	3.8	7.48e-01	0	41	104	0	79	40258
2026-01-01 11:17:49.45	65.95	55.61	-54.1	-74.8	3.8	7.46e-01	0	41	104	0	79	39924
2026-01-01 11:17:52.46	63.14	55.55	-54.1	-74.8	3.8	7.44e-01	0	41	104	0	79	39964
2026-01-01 11:17:55.45	60.37	55.43	-54.1	-74.8	3.8	7.45e-01	0	41	104	0	79	39803
2026-01-01 11:17:58.45	57.62	55.24	-54.1	-74.8	3.8	7.47e-01	0	41	104	0	79	39745
2026-01-01 11:18:01.45	54.92	54.98	-54.1	-74.8	3.8	7.46e-01	0	41	104	0	79	39682
2026-01-01 11:18:04.45	52.27	54.67	-54.2	-74.9	3.8	7.48e-01	0	41	104	0	79	40100
2026-01-01 11:18:07.45	49.69	54.30	-54.1	-74.8	3.8	7.46e-01	0	41	104	0	79	39914
2026-01-01 11:18:10.46	47.17	53.87	-54.2	-74.8	3.8	7.44e-01	0	41	104	0	79	39877
2026-01-01 11:18:13.46	44.73	53.40	-53.9	-74.8	3.8	7.45e-01	0	41	104	0	79	39851
2026-01-01 11:18:16.46	42.38	52.88	-53.9	-74.8	3.8	7.47e-01	0	40	104	0	79	39919
2026-01-01 11:18:19.47	40.10	52.32	-53.8	-74.8	3.8	7.46e-01	0	41	104	0	79	39653
2026-01-01 11:18:22.48	37.92	51.72	-53.8	-74.8	3.8	7.48e-01	0	41	104	0	79	39898
2026-01-01 11:18:25.48	35.83	51.09	-53.7	-74.8	3.8	7.47e-01	0	41	104	0	79	39900
2026-01-01 11:18:28.47	33.84	50.43	-54.3	-74.9	3.8	7.44e-01	0	41	104	0	79	40052
2026-01-01 11:18:31.48	31.92	49.75	-54.2	-74.8	3.8	7.41e-01	0	41	104	0	79	39993
2026-01-01 11:18:34.47	30.10	49.05	-54.2	-74.9	3.8	7.42e-01	0	41	104	0	79	40136
2026-01-01 11:18:37.47	28.36	48.32	-54.5	-74.9	3.8	7.46e-01	0	41	104	0	79	40134
2026-01-01 11:18:40.47	26.71	47.59	-54.9	-74.9	3.8	7.43e-01	0	41	104	0	80	37824
2026-01-01 11:18:43.48	25.12	46.84	-54.0	-74.5	3.8	7.45e-01	0	41	104	0	79	38559
2026-01-01 11:18:46.48	23.62	46.08	-54.0	-67.5	6.4	6.80e-01	0	41	104	0	78	18225
2026-01-01 11:18:49.49	22.18	45.32	-52.8	-61.6	11.4	6.15e-01	0	41	0	4194304	77	9828
2026-01-01 11:18:52.49	20.82	44.55	-52.7	-61.9	11.7	6.16e-01	0	41	0	9437184	77	10079
2026-01-01 11:18:55.49	19.52	43.79	-53.1	-62.6	10.9	6.20e-01	0	41	0	15204352	77	11024
2026-01-01 11:18:58.50	18.28	43.02	-53.3	-62.7	10.8	6.20e-01	0	41	0	20971520	77	11042
2026-01-01 11:19:01.51	17.10	42.25	-53.2	-62.2	11.4	6.17e-01	0	41	0	26738688	77	10415
2026-01-01 11:19:04.51	15.98	41.49	-53.3	-62.6	10.9	6.21e-01	0	41	0	31981568	77	11015
2026-01-01 11:19:07.52	14.91	40.73	-53.2	-62.5	11.0	6.17e-01	0	41	0	37748736	77	10876
2026-01-01 11:19:10.52	13.89	39.99	-53.1	-62.9	10.7	6.19e-01	0	41	0	43515904	77	11330
2026-01-01 11:19:13.53	12.92	39.24	-53.2	-62.6	11.0	6.17e-01	0	40	0	49283072	77	10955
2026-01-01 11:19:16.53	12.00	38.51	-53.4	-63.1	10.4	6.21e-01	0	41	0	54525952	77	11568
2026-01-01 11:19:19.53	11.11	37.78	-53.4	-62.9	10.6	6.21e-01	0	41	0	60293120	77	11352
2026-01-01 11:19:22.54	10.26	37.06	-53.3	-62.5	11.0	6.19e-01	0	41	0	66060288	77	10801
2026-01-01 11:19:25.54	9.46	36.36	-53.2	-62.3	11.3	6.16e-01	0	41	0	71827456	77	10633
2026-01-01 11:19:28.55	8.68	35.66	-53.4	-61.6	11.9	6.13e-01	0	41	0	77070336	77	9829
2026-01-01 11:19:31.55	7.94	34.97	-52.7	-61.7	11.9	6.15e-01	0	41	0	82837504	77	9934
2026-01-01 11:19:34.56	7.24	34.29	-52.6	-60.9	12.6	6.09e-01	0	41	0	88604672	76	9590
2026-01-01 11:19:37.56	6.56	33.63	-52.4	-60.8	12.8	6.09e-01	0	41	0	94371840	76	9466
2026-01-01 11:19:40.57	5.91	32.97	-52.1	-59.9	13.8	6.08e-01	0	41	0	99614720	76	8493
2026-01-01 11:19:43.57	5.28	32.33	-52.3	-58.9	14.7	6.09e-01	0	41	0	105381888	76	7613
2026-01-01 11:19:46.57	4.69	31.70	-52.2	-58.9	14.7	6.06e-01	0	41	0	111149056	76	7577
2026-01-01 11:19:49.57	4.11	31.08	-52.4	-59.2	14.4	6.09e-01	0	40	0	116391936	76	7842
2026-01-01 11:19:52.58	3.56	30.47	-52.5	-59.0	14.6	6.08e-01	0	41	0	122159104	76	7701
2026-01-01 11:19:55.59	3.03	29.86	-52.3	-59.0	14.7	6.08e-01	0	41	0	127926272	76	7634
2026-01-01 11:19:58.59	2.52	29.28	-52.3	-58.5	15.1	6.09e-01	0	41	0	133693440	76	7251
2026-01-01 11:20:01.59	2.03	28.70	-52.1	-58.7	14.9	6.04e-01	0	40	0	139460608	76	7376
2026-01-01 11:20:04.60	1.55	28.13	-52.0	-59.2	14.4	6.03e-01	0	41	0	144703488	75	8294
2026-01-01 11:20:07.60	1.10	27.57	-52.2	-58.7	14.9	6.01e-01	0	41	0	150470656	75	7822
2026-01-01 11:20:10.60	0.66	27.02	-52.4	-58.5	15.0	6.03e-01	0	40	0	156237824	75	7697
2026-01-01 11:20:13.61	0.23	26.48	-52.6	-59.2	14.2	6.02e-01	0	41	0	161480704	75	8347
2026-01-01 11:20:16.61	359.83	25.96	-52.5	-59.1	14.3	6.02e-01	0	41	0	167247872	75	8244
2026-01-01 11:20:19.62	359.43	25.44	-52.1	-59.2	14.3	6.01e-01	0	41	0	173015040	75	8277
2026-01-01 11:20:22.62	359.05	24.93	-52.0	-59.2	14.2	6.03e-01	0	40	0	178782208	75	8363
2026-01-01 11:20:25.62	358.68	24.43	-51.7	-58.8	14.7	6.02e-01	0	41	0	184025088	75	7906
2026-01-01 11:20:28.62	358.33	23.94	-51.7	-59.2	14.3	5.99e-01	0	40	0	189792256	75	8344
2026-01-01 11:20:31.61	357.98	23.46	-51.2	-58.7	14.8	6.03e-01	0	41	0	195559424	74	8334
2026-01-01 11:20:34.60	357.65	22.99	-51.0	-59.1	14.3	6.04e-01	0	41	0	201326592	73	9271
2026-01-01 11:20:37.60	357.33	22.52	-51.7	-58.8	14.6	6.04e-01	0	40	0	206569472	74	8444
2026-01-01 11:20:40.60	357.02	22.06	-51.9	-58.6	14.8	6.04e-01	0	41	0	212336640	74	8210
2026-01-01 11:20:43.60	356.71	21.61	-51.4	-58.3	15.1	6.03e-01	0	41	0	218103808	74	7952
2026-01-01 11:20:46.59	356.42	21.17	-51.6	-58.4	15.0	6.00e-01	0	41	0	223346688	74	8030
2026-01-01 11:20:49.59	356.14	20.74	-52.0	-58.2	15.3	6.02e-01	0	40	0	229113856	74	7850
2026-01-01 11:20:52.59	355.86	20.31	-52.0	-58.2	15.3	6.03e-01	0	41	0	234881024	75	7383
2026-01-01 11:20:55.60	355.59	19.89	-51.7	-57.7	15.8	6.01e-01	0	41	0	240648192	75	7003
2026-01-01 11:20:58.61	355.33	19.48	-51.7	-58.1	15.4	6.05e-01	0	41	0	245891072	75	7295
2026-01-01 11:21:01.61	355.08	19.07	-51.2	-57.7	15.8	6.01e-01	0	41	0	251658240	74	7406
2026-01-01 11:21:04.61	354.84	18.68	-50.9	-58.3	15.1	6.05e-01	0	40	0	257425408	73	8419
2026-01-01 11:21:07.61	354.60	18.28	-50.9	-57.5	15.9	6.01e-01	0	40	0	263192576	73	7681
2026-01-01 11:21:10.61	354.37	17.90	-51.4	-57.7	15.7	6.00e-01	0	41	0	268435456	73	7855
2026-01-01 11:21:13.60	354.14	17.52	-51.4	-57.4	15.9	6.00e-01	0	41	0	274202624	73	7578
2026-01-01 11:21:16.60	353.93	17.14	-51.0	-57.0	16.4	6.01e-01	0	40	0	279969792	73	7208
2026-01-01 11:21:19.61	353.71	16.78	-51.4	-57.4	15.9	6.04e-01	0	40	0	285212672	73	7628
2026-01-01 11:21:22.61	353.51	16.41	-51.4	-56.9	16.5	6.02e-01	0	40	0	290979840	73	7130
2026-01-01 11:21:25.62	353.30	16.05	-51.1	-57.0	16.5	6.05e-01	0	41	0	296747008	73	7214
2026-01-01 11:21:28.63	353.11	15.70	-50.5	-57.4	16.0	6.01e-01	0	40	0	302514176	72	8004
2026-01-01 11:21:31.63	352.92	15.35	-50.4	-56.9	16.5	6.03e-01	0	41	0	308281344	72	7550
2026-01-01 11:21:34.64	352.73	15.01	-51.1	-56.9	16.4	6.01e-01	0	40	0	313524224	72	7628
2026-01-01 11:21:37.64	352.55	14.68	-51.4	-57.4	16.0	6.00e-01	0	40	0	319291392	73	7577
2026-01-01 11:21:40.64	352.37	14.34	-51.3	-56.9	16.5	6.02e-01	0	40	0	325058560	73	7193
2026-01-01 11:21:43.64	352.20	14.02	-50.8	-56.7	16.7	6.02e-01	0	40	0	330301440	73	6972
2026-01-01 11:21:46.64	352.03	13.69	-50.6	-57.2	16.1	6.01e-01	0	41	0	336068608	73	7452
2026-01-01 11:21:49.64	351.87	13.38	-49.7	-56.8	16.6	6.02e-01	0	40	0	341835776	71	7987
2026-01-01 11:21:52.66	351.70	13.06	-50.2	-56.5	16.9	6.03e-01	0	40	0	347602944	71	7655
2026-01-01 11:21:55.66	351.55	12.75	-51.1	-56.8	16.6	6.02e-01	0	40	0	352845824	72	7460
2026-01-01 11:21:58.66	351.40	12.45	-50.6	-57.3	16.2	6.01e-01	0	40	0	358612992	73	7461
2026-01-01 11:22:01.66	351.25	12.14	-48.7	-56.8	16.4	6.01e-01	0	40	0	364380160	69	8942
2026-01-01 11:22:04.67	351.10	11.85	-47.0	-56.5	16.7	6.01e-01	0	41	0	370147328	66	10195
2026-01-01 11:22:07.68	350.96	11.55	-47.2	-56.6	16.5	6.03e-01	0	40	0	375390208	65	10931
2026-01-01 11:22:10.68	350.82	11.26	-48.4	-56.8	16.3	6.02e-01	0	40	0	381157376	67	9970
2026-01-01 11:22:13.69	350.68	10.97	-49.7	-56.7	16.5	6.03e-01	0	40	0	386924544	69	8809
2026-01-01 11:22:16.69	350.55	10.69	-49.2	-56.2	17.0	6.01e-01	0	41	0	392691712	70	7856
2026-01-01 11:22:19.69	350.42	10.41	-47.8	-56.2	16.9	6.03e-01	0	40	0	397934592	67	9302
2026-01-01 11:22:22.68	350.30	10.14	-46.9	-56.6	16.5	6.01e-01	0	40	0	403701760	65	10946
2026-01-01 11:22:25.67	350.17	9.87	-46.7	-56.8	16.3	6.02e-01	0	41	0	409468928	65	11267
2026-01-01 11:22:28.67	350.05	9.60	-46.9	-56.5	16.5	6.01e-01	0	40	0	414711808	65	10874
2026-01-01 11:22:31.67	349.93	9.33	-47.9	-56.2	16.8	6.01e-01	0	41	0	420478976	66	9930
2026-01-01 11:22:34.68	349.82	9.07	-49.0	-56.2	17.0	6.00e-01	0	41	0	426246144	68	8780
2026-01-01 11:22:37.68	349.70	8.80	-52.3	-73.6	3.9	7.44e-01	0	41	104	427819008	75	43694
2026-01-01 11:22:40.68	349.59	8.55	-53.2	-74.8	4.0	7.42e-01	0	40	104	427819008	76	47462
2026-01-01 11:22:43.67	349.48	8.29	-53.8	-74.8	3.8	7.49e-01	0	40	104	427819008	78	42221
2026-01-01 11:22:46.66	349.38	8.04	-54.4	-74.8	3.8	7.46e-01	0	40	104	427819008	79	39706
2026-01-01 11:22:49.66	349.27	7.79	-54.5	-74.9	3.8	7.46e-01	0	40	104	427819008	79	40202
2026-01-01 11:22:52.67	349.17	7.54	-54.4	-74.8	3.8	7.48e-01	0	40	104	427819008	79	39939
2026-01-01 11:22:55.66	349.07	7.30	-54.5	-74.8	3.8	7.47e-01	0	40	104	427819008	79	39803
2026-01-01 11:22:58.67	348.97	7.06	-54.3	-74.7	3.8	7.44e-01	0	40	104	427819008	80	37295
2026-01-01 11:23:01.67	348.87	6.82	-54.1	-74.8	3.8	7.45e-01	0	41	104	427819008	80	37382
2026-01-01 11:23:04.67	348.78	6.58	-53.9	-74.8	3.8	7.43e-01	0	40	104	427819008	79	39819
2026-01-01 11:23:07.68	348.69	6.35	-53.9	-74.8	3.8	7.48e-01	0	40	104	427819008	79	39617
2026-01-01 11:23:10.69	348.60	6.11	-53.9	-74.7	3.8	7.44e-01	0	40	104	427819008	79	39566
2026-01-01 11:23:13.69	348.51	5.88	-53.9	-74.8	3.8	7.47e-01	0	40	104	427819008	79	39615
2026-01-01 11:23:16.69	348.42	5.66	-53.9	-74.8	3.8	7.45e-01	0	40	104	427819008	79	39641
2026-01-01 11:23:19.69	348.33	5.43	-53.9	-74.8	3.8	7.44e-01	0	40	104	427819008	79	39597
2026-01-01 11:23:22.69	348.25	5.21	-53.9	-74.7	3.8	7.46e-01	0	40	104	427819008	79	39489
2026-01-01 11:23:25.69	348.17	4.98	-53.9	-74.7	3.8	7.48e-01	0	40	104	427819008	79	39448

#Closed at: 2026-01-01 11:23:26
#Recorded file [427 MB]: D:/Data/31040_260101_141213.dat