passes_logs/2026/01/01/T1/T1__20260101_225912_NOAA_20_JPSS-1_rec.log

#Pass ID: 20260101_225912_NOAA 20 (JPSS-1)
#Satellite: NOAA 20 (JPSS-1)
#Configuration: NOAA 20
#almurnet v.1.7.20251203
#Start time: 2026-01-01 22:59:13

#Version: 2.0.20230620
#Station: T1
#Location: 37.570604 lon 55.790049 lat
#TLE: 1 43013U 17073A   26001.30344297  .00000183  00000+0  10758-3 0  9995
#TLE: 2 43013  98.7621 302.3885 0001938  59.1624 300.9742 14.19532032420790

#Time	Az	El	Level	Level2	SNR	BER	BlckErr	Temp	State	Recorded	gain1	gain2
2026-01-01 22:59:13.92	21.56	5.09	-49.1	-65.2	3.8	1.49e+00	0	41	0	0	69	23456
2026-01-01 22:59:16.93	21.69	5.30	-49.1	-65.1	3.8	1.49e+00	0	41	104	0	68	24585
2026-01-01 22:59:19.94	21.82	5.51	-49.1	-65.1	3.8	1.49e+00	0	41	104	0	68	24687
2026-01-01 22:59:22.95	21.95	5.72	-49.0	-65.2	3.8	1.49e+00	0	41	104	0	68	24749
2026-01-01 22:59:25.97	22.08	5.93	-49.0	-65.2	3.8	1.49e+00	0	41	104	0	68	24848
2026-01-01 22:59:28.98	22.22	6.14	-49.0	-65.1	3.8	1.49e+00	0	41	104	0	68	24689
2026-01-01 22:59:31.99	22.36	6.36	-49.0	-65.1	3.8	1.49e+00	0	41	104	0	68	24429
2026-01-01 22:59:35.01	22.50	6.58	-49.0	-64.9	3.8	1.49e+00	0	42	104	0	68	23876
2026-01-01 22:59:38.02	22.64	6.79	-49.0	-64.7	3.8	1.49e+00	0	42	104	0	68	23396
2026-01-01 22:59:41.03	22.78	7.01	-49.0	-64.9	3.8	1.49e+00	0	41	104	0	68	23908
2026-01-01 22:59:44.05	22.93	7.24	-49.0	-65.2	3.8	1.49e+00	0	42	104	0	68	24768
2026-01-01 22:59:47.20	23.08	7.47	-49.0	-65.0	3.8	1.49e+00	0	42	104	0	68	24367
2026-01-01 22:59:50.50	23.24	7.72	-49.0	-63.8	3.8	1.49e+00	0	42	104	0	68	21214
2026-01-01 22:59:53.23	23.38	7.92	-48.9	-62.5	3.9	1.49e+00	0	42	104	0	68	18303
2026-01-01 22:59:56.64	23.56	8.18	-48.8	-61.5	4.2	1.39e+00	0	42	0	0	68	16219
2026-01-01 22:59:59.43	23.70	8.40	-48.8	-61.6	4.2	1.38e+00	0	42	0	0	68	16317
2026-01-01 23:00:02.86	23.88	8.67	-48.8	-61.2	4.3	1.36e+00	0	42	0	0	68	15726
2026-01-01 23:00:05.58	24.03	8.88	-48.7	-60.0	4.8	8.60e-01	0	42	0	4194304	68	13658
2026-01-01 23:00:08.88	24.21	9.14	-48.6	-59.6	5.0	5.36e-01	0	42	0	10485760	68	13030
2026-01-01 23:00:11.67	24.36	9.36	-47.8	-54.8	9.1	6.60e-03	0	42	0	12582912	66	8403
2026-01-01 23:00:15.67	24.58	9.68	-45.8	-49.9	14.0	3.80e-06	0	42	0	19922944	63	5716
2026-01-01 23:00:18.43	24.74	9.91	-45.6	-49.5	14.4	0.00e+00	0	42	0	25165824	63	5441
2026-01-01 23:00:22.10	24.95	10.21	-44.8	-48.4	15.5	0.00e+00	0	43	0	32505856	61	5380
2026-01-01 23:00:24.95	25.12	10.44	-44.6	-48.1	15.9	0.00e+00	0	42	0	37748736	61	5191
2026-01-01 23:00:28.24	25.32	10.72	-44.4	-47.9	16.1	0.00e+00	0	43	0	44040192	60	5355
2026-01-01 23:00:30.97	25.48	10.95	-44.6	-47.9	16.2	0.00e+00	0	42	0	49283072	60	5350
2026-01-01 23:00:34.57	25.71	11.26	-44.4	-47.6	16.4	0.00e+00	0	42	0	55574528	60	5212
2026-01-01 23:00:37.60	25.90	11.52	-44.4	-47.5	16.6	0.00e+00	0	42	0	60817408	60	5144
2026-01-01 23:00:40.89	26.11	11.81	-44.4	-47.3	16.7	0.00e+00	0	42	0	67108864	60	5038
2026-01-01 23:00:43.62	26.29	12.05	-44.3	-47.2	16.9	0.00e+00	0	43	0	72351744	60	4956
2026-01-01 23:00:46.93	26.51	12.34	-44.3	-47.1	17.0	0.00e+00	0	42	0	78643200	60	4922
2026-01-01 23:00:49.66	26.69	12.59	-44.4	-47.3	16.8	0.00e+00	0	43	0	83886080	60	5033
2026-01-01 23:00:52.95	26.92	12.88	-44.2	-47.2	16.9	0.00e+00	0	43	0	90177536	60	4946
2026-01-01 23:00:55.75	27.11	13.14	-44.0	-46.9	17.2	0.00e+00	0	43	0	95420416	60	4803
2026-01-01 23:00:59.32	27.37	13.47	-44.0	-46.9	17.2	0.00e+00	0	43	0	101711872	59	5058
2026-01-01 23:01:02.04	27.56	13.73	-43.9	-46.7	17.3	0.00e+00	0	43	0	106954752	59	4980
2026-01-01 23:01:05.34	27.81	14.04	-43.9	-46.7	17.3	0.00e+00	0	43	0	113246208	59	4978
2026-01-01 23:01:08.35	28.03	14.33	-43.9	-46.7	17.4	0.00e+00	0	43	0	118489088	59	4929
2026-01-01 23:01:11.64	28.28	14.64	-43.8	-46.6	17.5	0.00e+00	0	42	0	124780544	59	4891
2026-01-01 23:01:14.36	28.50	14.91	-43.9	-46.6	17.5	0.00e+00	0	43	0	130023424	59	4883
2026-01-01 23:01:17.66	28.76	15.24	-43.7	-46.4	17.7	0.00e+00	0	43	0	136314880	59	4769
2026-01-01 23:01:20.46	28.99	15.52	-43.7	-46.3	17.8	0.00e+00	0	43	0	141557760	59	4735
2026-01-01 23:01:23.75	29.26	15.85	-43.8	-46.4	17.7	0.00e+00	0	43	0	147849216	59	4800
2026-01-01 23:01:26.65	29.50	16.14	-43.8	-46.4	17.7	0.00e+00	0	43	0	153092096	59	4780
2026-01-01 23:01:30.26	29.81	16.52	-44.0	-46.6	17.5	0.00e+00	0	43	0	160432128	59	4925
2026-01-01 23:01:32.98	30.05	16.80	-44.1	-46.8	17.4	0.00e+00	0	43	0	164626432	59	4996
2026-01-01 23:01:36.42	30.36	17.17	-44.1	-46.8	17.4	0.00e+00	0	43	0	171966464	59	5020
2026-01-01 23:01:39.14	30.61	17.46	-44.2	-47.0	17.2	0.00e+00	0	43	0	176160768	59	5122
2026-01-01 23:01:42.44	30.92	17.81	-44.2	-46.9	17.2	0.00e+00	0	43	0	182452224	59	5089
2026-01-01 23:01:45.16	31.18	18.11	-44.3	-47.0	17.2	0.00e+00	0	43	0	187695104	59	5151
2026-01-01 23:01:48.45	31.50	18.48	-44.3	-47.0	17.2	0.00e+00	0	43	0	193986560	59	5131
2026-01-01 23:01:51.17	31.77	18.78	-44.4	-47.1	17.1	0.00e+00	0	43	0	199229440	59	5203
2026-01-01 23:01:54.58	32.12	19.17	-44.4	-47.2	17.0	0.00e+00	0	43	0	205520896	59	5262
2026-01-01 23:01:57.65	32.44	19.52	-44.3	-47.1	17.1	0.00e+00	0	43	0	211812352	59	5198
2026-01-01 23:02:00.66	32.76	19.87	-44.1	-46.9	17.3	0.00e+00	0	43	0	217055232	59	5056
2026-01-01 23:02:03.67	33.09	20.22	-44.1	-46.8	17.4	0.00e+00	0	43	0	222298112	59	5036
2026-01-01 23:02:06.61	33.42	20.57	-44.1	-46.8	17.4	0.00e+00	0	43	0	228589568	59	5006
2026-01-01 23:02:10.23	33.83	21.01	-44.1	-46.8	17.4	0.00e+00	0	43	0	234881024	59	5024
2026-01-01 23:02:12.95	34.15	21.34	-44.1	-46.7	17.5	0.00e+00	0	43	0	240123904	59	4968
2026-01-01 23:02:16.47	34.57	21.78	-44.0	-46.6	17.6	0.00e+00	0	43	0	246415360	59	4926
2026-01-01 23:02:19.48	34.94	22.15	-44.2	-46.9	17.4	0.00e+00	0	43	0	252706816	59	5071
2026-01-01 23:02:22.48	35.31	22.53	-44.2	-46.9	17.4	0.00e+00	0	43	0	257949696	59	5069
2026-01-01 23:02:25.41	35.69	22.91	-44.3	-47.0	17.3	0.00e+00	0	43	0	263192576	59	5113
2026-01-01 23:02:28.57	36.11	23.32	-44.0	-46.6	17.6	0.00e+00	0	43	0	269484032	59	4925
2026-01-01 23:02:31.43	36.49	23.69	-44.1	-46.7	17.6	0.00e+00	0	43	0	274726912	59	4968
2026-01-01 23:02:34.58	36.93	24.11	-44.1	-46.6	17.6	0.00e+00	0	43	0	281018368	59	4917
2026-01-01 23:02:37.54	37.35	24.51	-44.2	-46.8	17.4	0.00e+00	0	43	0	286261248	59	5034
2026-01-01 23:02:40.90	37.84	24.97	-44.0	-46.6	17.7	0.00e+00	0	43	0	292552704	59	4894
2026-01-01 23:02:43.92	38.29	25.38	-44.0	-46.6	17.7	0.00e+00	0	43	0	297795584	59	4872
2026-01-01 23:02:46.93	38.75	25.80	-44.0	-46.6	17.6	0.00e+00	0	43	0	304087040	59	4921
2026-01-01 23:02:49.98	39.23	26.23	-44.2	-46.9	17.4	0.00e+00	0	43	0	309329920	59	5055
2026-01-01 23:02:53.05	39.73	26.66	-44.5	-47.2	17.1	0.00e+00	0	43	0	315621376	59	5254
2026-01-01 23:02:56.09	40.24	27.10	-44.7	-47.5	16.9	0.00e+00	0	43	0	320864256	59	5404
2026-01-01 23:02:59.21	40.77	27.56	-44.8	-47.7	16.7	0.00e+00	0	43	0	327155712	60	5255
2026-01-01 23:03:02.86	41.41	28.09	-44.9	-47.8	16.6	0.00e+00	0	43	0	333447168	60	5310
2026-01-01 23:03:05.63	41.91	28.51	-45.2	-48.2	16.2	0.00e+00	0	43	0	338690048	61	5264
2026-01-01 23:03:09.39	42.62	29.07	-45.4	-48.5	15.9	0.00e+00	0	42	0	346030080	61	5412
2026-01-01 23:03:12.18	43.15	29.50	-45.9	-49.2	15.1	0.00e+00	0	43	0	351272960	62	5584
2026-01-01 23:03:15.95	43.90	30.07	-45.6	-48.8	15.6	0.00e+00	0	43	0	358612992	62	5338
2026-01-01 23:03:18.91	44.51	30.53	-45.5	-48.6	15.8	0.00e+00	0	43	0	363855872	62	5171
2026-01-01 23:03:22.06	45.17	31.03	-45.2	-48.2	16.2	0.00e+00	0	42	0	369098752	62	4946
2026-01-01 23:03:24.92	45.79	31.48	-45.3	-48.3	16.1	0.00e+00	0	43	0	375390208	62	5036
2026-01-01 23:03:28.01	46.48	31.97	-45.0	-48.0	16.5	0.00e+00	0	42	0	380633088	62	4816
2026-01-01 23:03:31.01	47.17	32.45	-45.0	-47.9	16.5	0.00e+00	0	42	0	385875968	61	5050
2026-01-01 23:03:34.02	47.88	32.94	-45.0	-47.9	16.6	0.00e+00	0	43	0	392167424	61	5052
2026-01-01 23:03:37.03	48.61	33.42	-44.8	-47.6	16.8	0.00e+00	0	43	0	397410304	61	4904
2026-01-01 23:03:40.03	49.37	33.91	-44.9	-47.8	16.6	0.00e+00	0	43	0	403701760	61	5012
2026-01-01 23:03:43.54	50.28	34.49	-45.0	-47.9	16.5	0.00e+00	0	43	0	409993216	61	5085
2026-01-01 23:03:46.32	51.02	34.95	-44.8	-47.7	16.8	0.00e+00	0	43	0	415236096	61	4942
2026-01-01 23:03:49.67	51.94	35.50	-45.4	-48.4	16.0	0.00e+00	0	43	0	421527552	61	5398
2026-01-01 23:03:52.67	52.80	36.00	-44.9	-47.8	16.7	0.00e+00	0	43	0	426770432	61	4991
2026-01-01 23:03:55.76	53.70	36.51	-44.2	-46.8	17.6	0.00e+00	0	42	0	433061888	60	4737
2026-01-01 23:03:58.64	54.57	36.99	-44.5	-47.3	17.2	0.00e+00	0	42	0	438304768	60	4992
2026-01-01 23:04:02.19	55.68	37.58	-44.6	-47.4	17.1	0.00e+00	0	43	0	444596224	60	5042
2026-01-01 23:04:04.90	56.56	38.02	-44.1	-46.7	17.7	0.00e+00	0	43	0	449839104	60	4680
2026-01-01 23:04:08.44	57.73	38.61	-44.3	-46.9	17.5	0.00e+00	0	43	0	456130560	60	4800
2026-01-01 23:04:11.16	58.67	39.05	-44.7	-47.5	17.0	0.00e+00	0	43	0	461373440	60	5137
2026-01-01 23:04:14.45	59.83	39.59	-44.8	-47.7	16.8	0.00e+00	0	43	0	467664896	60	5220
2026-01-01 23:04:17.28	60.86	40.04	-44.6	-47.3	17.1	0.00e+00	0	43	0	472907776	60	5016
2026-01-01 23:04:20.43	62.04	40.54	-44.5	-47.2	17.2	0.00e+00	0	43	0	479199232	60	4983
2026-01-01 23:04:23.29	63.14	40.99	-44.3	-47.0	17.4	0.00e+00	0	43	0	484442112	60	4818
2026-01-01 23:04:26.44	64.39	41.48	-44.0	-46.5	17.8	0.00e+00	0	42	0	490733568	59	4832
2026-01-01 23:04:29.30	65.56	41.92	-44.4	-47.0	17.4	0.00e+00	0	43	0	495976448	59	5130
2026-01-01 23:04:32.45	66.89	42.39	-44.1	-46.7	17.6	0.00e+00	0	43	0	501219328	59	4962
2026-01-01 23:04:35.31	68.12	42.80	-44.8	-47.6	16.9	0.00e+00	0	42	0	506462208	60	5180
2026-01-01 23:04:38.45	69.51	43.25	-45.1	-48.0	16.5	0.00e+00	0	42	0	512753664	60	5422
2026-01-01 23:04:41.35	70.83	43.65	-45.2	-48.2	16.2	0.00e+00	0	42	0	517996544	61	5249
2026-01-01 23:04:44.65	72.38	44.09	-46.0	-49.3	15.2	0.00e+00	0	43	0	524288000	62	5612
2026-01-01 23:04:47.37	73.68	44.43	-45.1	-48.0	16.4	0.00e+00	0	43	0	529530880	62	4846
2026-01-01 23:04:50.66	75.29	44.84	-45.3	-48.3	16.1	0.00e+00	0	42	0	535822336	62	5012
2026-01-01 23:04:53.68	76.81	45.19	-45.8	-49.0	15.4	0.00e+00	0	43	0	541065216	62	5451
2026-01-01 23:04:56.97	78.49	45.55	-45.2	-48.2	16.2	0.00e+00	0	42	0	547356672	62	4960
2026-01-01 23:04:59.69	79.92	45.83	-45.3	-48.4	16.0	0.00e+00	0	42	0	552599552	62	5084
2026-01-01 23:05:03.04	81.71	46.15	-45.7	-49.0	15.5	0.00e+00	0	42	0	558891008	62	5435
2026-01-01 23:05:05.76	83.18	46.39	-45.3	-48.5	15.9	0.00e+00	0	42	0	564133888	62	5145
2026-01-01 23:05:09.05	85.00	46.65	-44.7	-47.7	16.7	0.00e+00	0	42	0	570425344	61	4955
2026-01-01 23:05:11.92	86.61	46.86	-45.0	-48.0	16.4	0.00e+00	0	42	0	575668224	61	5159
2026-01-01 23:05:15.40	88.58	47.07	-45.7	-49.2	15.3	0.00e+00	0	43	0	581959680	62	5538
2026-01-01 23:05:18.12	90.14	47.22	-44.7	-47.6	16.8	0.00e+00	0	42	0	587202560	61	4904
2026-01-01 23:05:21.91	92.34	47.38	-46.0	-49.4	15.1	0.00e+00	0	42	0	594542592	62	5673
2026-01-01 23:05:24.76	94.01	47.48	-44.7	-47.6	16.8	0.00e+00	0	42	0	599785472	61	4896
2026-01-01 23:05:28.16	96.01	47.56	-44.2	-46.9	17.5	0.00e+00	0	42	0	606076928	59	5053
2026-01-01 23:05:31.59	98.04	47.60	-44.5	-47.2	17.2	0.00e+00	0	42	0	612368384	59	5261
2026-01-01 23:05:34.53	99.77	47.60	-45.1	-48.2	16.3	0.00e+00	0	42	0	617611264	61	5245
2026-01-01 23:05:37.76	101.68	47.58	-45.1	-48.1	16.4	0.00e+00	0	42	0	623902720	61	5179
2026-01-01 23:05:41.00	103.59	47.51	-45.0	-48.1	16.3	0.00e+00	0	42	0	630194176	61	5171
2026-01-01 23:05:43.85	105.27	47.43	-45.4	-48.5	15.9	0.00e+00	0	42	0	635437056	61	5428
2026-01-01 23:05:47.00	107.10	47.31	-44.6	-47.4	16.9	0.00e+00	0	42	0	641728512	61	4811
2026-01-01 23:05:50.06	108.87	47.17	-44.9	-47.7	16.6	0.00e+00	0	42	0	646971392	61	4983
2026-01-01 23:05:53.63	110.92	46.96	-45.9	-49.2	15.2	0.00e+00	0	42	0	654311424	62	5586
2026-01-01 23:05:56.35	112.45	46.78	-45.8	-49.1	15.2	0.00e+00	0	42	0	658505728	63	5210
2026-01-01 23:05:59.84	114.40	46.52	-46.7	-50.6	13.7	2.20e-06	0	42	0	665845760	64	5827
2026-01-01 23:06:02.89	116.07	46.26	-46.1	-49.6	14.7	0.00e+00	0	42	0	671088640	64	5191
2026-01-01 23:06:06.72	118.13	45.90	-46.4	-50.0	14.4	2.20e-06	0	42	0	678428672	64	5437
2026-01-01 23:06:09.55	119.62	45.61	-46.5	-50.2	14.3	0.00e+00	0	42	0	683671552	63	5895
2026-01-01 23:06:13.03	121.42	45.24	-45.2	-48.2	16.2	0.00e+00	0	42	0	689963008	62	4964
2026-01-01 23:06:15.76	122.79	44.92	-44.9	-47.7	16.7	0.00e+00	0	42	0	695205888	61	4980
2026-01-01 23:06:19.05	124.42	44.52	-43.6	-46.0	18.3	0.00e+00	0	42	0	701497344	59	4572
2026-01-01 23:06:22.16	125.92	44.13	-43.9	-46.4	17.9	0.00e+00	0	42	0	707788800	59	4789
2026-01-01 23:06:25.71	127.58	43.65	-43.7	-46.2	18.1	0.00e+00	0	42	0	714080256	59	4696
2026-01-01 23:06:28.43	128.83	43.28	-43.1	-45.5	18.8	0.00e+00	0	42	0	719323136	58	4546
2026-01-01 23:06:31.77	130.31	42.80	-43.7	-46.2	18.2	0.00e+00	0	42	0	725614592	58	4944
2026-01-01 23:06:34.58	131.53	42.39	-43.8	-46.3	18.0	0.00e+00	0	42	0	730857472	58	5022
2026-01-01 23:06:37.73	132.86	41.92	-43.5	-46.0	18.3	0.00e+00	0	42	0	736100352	59	4559
2026-01-01 23:06:40.59	134.03	41.48	-44.5	-47.3	17.1	0.00e+00	0	42	0	742391808	59	5286
2026-01-01 23:06:43.75	135.29	40.99	-43.5	-45.9	18.4	0.00e+00	0	42	0	747634688	59	4525
2026-01-01 23:06:46.74	136.45	40.52	-45.3	-48.4	16.0	0.00e+00	0	42	0	753926144	61	5355
2026-01-01 23:06:49.84	137.62	40.02	-44.0	-46.6	17.7	0.00e+00	0	42	0	759169024	60	4637
2026-01-01 23:06:53.07	138.79	39.50	-45.9	-49.3	15.2	0.00e+00	0	42	0	765460480	62	5600
2026-01-01 23:06:56.03	139.84	39.02	-44.3	-47.0	17.4	0.00e+00	0	42	0	770703360	60	4830
2026-01-01 23:06:59.03	140.87	38.52	-47.1	-51.3	12.9	2.74e-05	0	42	0	775946240	64	6345
2026-01-01 23:07:02.04	141.87	38.03	-44.8	-47.6	16.8	0.00e+00	0	42	0	782237696	61	4891
2026-01-01 23:07:05.05	142.84	37.53	-46.6	-50.3	14.1	0.00e+00	0	42	0	787480576	63	5966
2026-01-01 23:07:08.10	143.80	37.02	-45.4	-48.5	15.9	0.00e+00	0	42	0	793772032	62	5132
2026-01-01 23:07:11.12	144.72	36.51	-45.3	-48.3	16.1	0.00e+00	0	42	0	799014912	61	5324
2026-01-01 23:07:14.39	145.68	35.97	-46.6	-50.5	13.8	1.14e-05	0	42	0	805306368	64	5743
2026-01-01 23:07:17.29	146.51	35.49	-44.6	-47.4	17.0	0.00e+00	0	42	0	810549248	61	4764
2026-01-01 23:07:20.58	147.42	34.94	-46.7	-50.5	13.9	7.00e-07	0	42	0	816840704	63	6098
2026-01-01 23:07:23.30	148.15	34.49	-46.1	-49.7	14.6	2.20e-06	0	42	0	822083584	64	5226
2026-01-01 23:07:26.59	149.01	33.95	-44.7	-47.6	16.8	0.00e+00	0	42	0	828375040	61	4879
2026-01-01 23:07:29.30	149.69	33.50	-46.5	-50.3	14.1	0.00e+00	0	42	0	833617920	63	5967
2026-01-01 23:07:32.60	150.51	32.96	-46.5	-50.3	14.0	2.97e-05	0	42	0	838860800	65	5295
2026-01-01 23:07:35.32	151.15	32.52	-45.3	-48.3	16.1	0.00e+00	0	42	0	844103680	62	5013
2026-01-01 23:07:38.55	151.90	32.00	-46.3	-50.0	14.4	7.00e-07	0	42	0	850395136	63	5745
2026-01-01 23:07:41.55	152.58	31.52	-45.5	-48.7	15.6	0.00e+00	0	42	0	855638016	63	4976
2026-01-01 23:07:44.73	153.27	31.01	-44.2	-46.8	17.6	0.00e+00	0	42	0	861929472	60	4711
2026-01-01 23:07:47.73	153.91	30.54	-45.5	-48.9	15.5	0.00e+00	0	42	0	868220928	61	5669
2026-01-01 23:07:50.74	154.53	30.07	-46.1	-50.2	14.1	1.50e-06	0	42	0	873463808	63	5876
2026-01-01 23:07:53.74	155.13	29.60	-45.1	-48.4	15.9	0.00e+00	0	42	0	878706688	62	5080
2026-01-01 23:07:56.75	155.71	29.14	-44.8	-47.8	16.6	0.00e+00	0	42	0	884998144	60	5310
2026-01-01 23:07:59.75	156.28	28.69	-45.7	-49.0	15.3	0.00e+00	0	42	0	890241024	61	5782
2026-01-01 23:08:02.76	156.83	28.23	-45.6	-48.9	15.5	0.00e+00	0	42	0	895483904	62	5373
2026-01-01 23:08:05.80	157.38	27.78	-45.1	-48.1	16.3	0.00e+00	0	42	0	901775360	62	4877
2026-01-01 23:08:08.74	157.89	27.35	-44.5	-47.4	16.9	0.00e+00	0	42	0	907018240	61	4761
2026-01-01 23:08:11.80	158.41	26.90	-44.4	-47.2	17.2	0.00e+00	0	42	0	913309696	60	4931
2026-01-01 23:08:14.81	158.91	26.47	-44.6	-47.4	16.9	0.00e+00	0	42	0	918552576	60	5071
2026-01-01 23:08:17.82	159.39	26.04	-44.8	-47.6	16.7	0.00e+00	0	42	0	923795456	60	5199
2026-01-01 23:08:20.84	159.86	25.61	-44.5	-47.3	17.0	0.00e+00	0	42	0	930086912	60	5003
2026-01-01 23:08:23.85	160.32	25.19	-44.3	-47.1	17.2	0.00e+00	0	42	0	935329792	60	4894
2026-01-01 23:08:26.86	160.77	24.77	-44.9	-47.9	16.4	0.00e+00	0	42	0	940572672	60	5382
2026-01-01 23:08:29.90	161.21	24.36	-45.1	-48.2	16.1	0.00e+00	0	42	0	946864128	61	5242
2026-01-01 23:08:33.58	161.73	23.86	-44.4	-47.3	17.0	0.00e+00	0	42	0	954204160	60	4986
2026-01-01 23:08:36.83	162.18	23.43	-44.2	-47.0	17.3	0.00e+00	0	42	0	959447040	60	4823
2026-01-01 23:08:39.56	162.54	23.07	-44.1	-46.9	17.4	0.00e+00	0	42	0	964689920	60	4779
2026-01-01 23:08:42.84	162.97	22.65	-44.2	-47.1	17.2	0.00e+00	0	42	0	970981376	60	4899
2026-01-01 23:08:45.78	163.34	22.27	-44.4	-47.3	16.9	0.00e+00	0	42	0	976224256	60	5022
2026-01-01 23:08:49.08	163.75	21.85	-44.6	-47.5	16.7	0.00e+00	0	42	0	982515712	60	5152
2026-01-01 23:08:52.10	164.12	21.47	-44.8	-47.8	15.7	0.00e+00	0	42	0	988807168	60	5309
2026-01-01 23:08:55.15	164.48	21.10	-44.5	-47.3	16.9	0.00e+00	0	42	0	994050048	60	5014
2026-01-01 23:08:58.24	164.83	20.72	-44.3	-47.0	17.2	0.00e+00	0	42	0	1000341504	60	4850
2026-01-01 23:09:01.17	165.17	20.37	-44.5	-47.4	16.9	0.00e+00	0	42	0	1005584384	60	5051
2026-01-01 23:09:04.38	165.52	19.98	-44.8	-47.9	16.3	0.00e+00	0	42	0	1011875840	60	5376
2026-01-01 23:09:07.24	165.83	19.65	-45.1	-48.3	15.9	0.00e+00	0	42	0	1017118720	60	5632
2026-01-01 23:09:10.40	166.16	19.28	-45.0	-48.2	16.1	0.00e+00	0	42	0	1022361600	60	5538
2026-01-01 23:09:13.26	166.46	18.95	-44.8	-47.8	16.4	0.00e+00	0	42	0	1027604480	60	5338
2026-01-01 23:09:16.48	166.78	18.58	-44.3	-47.2	17.0	0.00e+00	0	42	0	1033895936	60	4936
2026-01-01 23:09:19.34	167.06	18.26	-44.0	-46.7	17.5	0.00e+00	0	42	0	1039138816	60	4685
2026-01-01 23:09:22.70	167.39	17.89	-43.9	-46.6	17.6	0.00e+00	0	42	0	1045430272	59	4875
2026-01-01 23:09:25.60	167.66	17.57	-44.0	-46.7	17.5	0.00e+00	0	42	0	1051721728	59	4939
2026-01-01 23:09:28.89	167.97	17.21	-44.2	-47.0	17.1	0.00e+00	0	42	0	1056964608	59	5142
2026-01-01 23:09:31.70	168.22	16.91	-44.3	-47.2	16.9	0.00e+00	0	42	0	1062207488	59	5236
2026-01-01 23:09:34.85	168.50	16.58	-44.3	-47.1	17.0	0.00e+00	0	42	0	1068498944	59	5184
2026-01-01 23:09:37.71	168.75	16.28	-44.3	-47.1	17.0	0.00e+00	0	42	0	1073741824	59	5160
2026-01-01 23:09:41.01	169.03	15.94	-44.0	-46.7	17.3	0.00e+00	0	42	0	1080033280	59	4934
2026-01-01 23:09:43.73	169.26	15.66	-43.9	-46.5	17.6	0.00e+00	0	42	0	1085276160	59	4844
2026-01-01 23:09:47.75	169.59	15.25	-43.9	-46.7	17.4	0.00e+00	0	42	0	1092616192	59	4945
2026-01-01 23:09:50.49	169.80	14.98	-44.0	-46.8	17.2	0.00e+00	0	42	0	1097859072	59	5033
2026-01-01 23:09:54.39	170.11	14.59	-44.3	-47.3	16.8	0.00e+00	0	42	0	1105199104	59	5292
2026-01-01 23:09:57.11	170.32	14.33	-44.4	-47.6	16.5	0.00e+00	0	42	0	1110441984	59	5465
2026-01-01 23:10:00.49	170.57	14.00	-44.6	-47.9	16.1	0.00e+00	0	42	0	1116733440	59	5711
2026-01-01 23:10:03.50	170.79	13.71	-44.7	-48.0	16.1	0.00e+00	0	42	0	1121976320	60	5423
2026-01-01 23:10:06.51	171.01	13.43	-44.6	-47.8	16.2	0.00e+00	0	42	0	1128267776	60	5325
2026-01-01 23:10:09.51	171.23	13.15	-44.5	-47.6	16.5	0.00e+00	0	42	0	1133510656	60	5195
2026-01-01 23:10:12.52	171.44	12.87	-44.5	-47.5	16.5	0.00e+00	0	42	0	1138753536	60	5150
2026-01-01 23:10:15.53	171.64	12.59	-44.3	-47.3	16.6	0.00e+00	0	42	0	1145044992	60	5007
2026-01-01 23:10:18.54	171.84	12.32	-44.4	-47.5	16.6	0.00e+00	0	42	0	1150287872	60	5113
2026-01-01 23:10:21.54	172.04	12.05	-44.2	-47.2	16.8	5.11e-04	0	42	0	1156579328	60	4974
2026-01-01 23:10:24.55	172.24	11.78	-44.1	-47.4	16.7	5.30e-06	0	42	0	1161822208	60	5050
2026-01-01 23:10:27.56	172.43	11.52	-44.0	-47.6	16.3	0.00e+00	0	42	0	1167065088	59	5495
2026-01-01 23:10:30.58	172.62	11.25	-43.8	-47.8	16.1	0.00e+00	0	42	0	1173356544	59	5643
2026-01-01 23:10:33.59	172.81	10.99	-43.7	-48.0	15.9	0.00e+00	0	42	0	1178599424	59	5761
2026-01-01 23:10:36.60	172.99	10.73	-43.7	-48.2	15.7	0.00e+00	0	42	0	1184890880	59	5907
2026-01-01 23:10:39.61	173.17	10.48	-43.5	-48.2	15.7	0.00e+00	0	42	0	1190133760	59	5910
2026-01-01 23:10:42.62	173.35	10.23	-43.4	-48.3	15.6	0.00e+00	0	42	0	1195376640	58	6293
2026-01-01 23:10:45.64	173.52	9.98	-43.4	-48.2	15.6	0.00e+00	0	42	0	1201668096	58	6254
2026-01-01 23:10:48.65	173.69	9.73	-43.7	-48.2	15.6	0.00e+00	0	42	0	1206910976	58	6256
2026-01-01 23:10:51.66	173.86	9.48	-44.0	-48.1	15.8	0.00e+00	0	42	0	1212153856	58	6175
2026-01-01 23:10:54.67	174.03	9.24	-44.1	-48.0	15.8	0.00e+00	0	42	0	1218445312	58	6115
2026-01-01 23:10:57.68	174.19	9.00	-44.7	-49.7	14.5	0.00e+00	0	42	0	1223688192	60	6591
2026-01-01 23:11:00.69	174.35	8.76	-49.9	-65.6	3.8	1.49e+00	0	42	104	1224736768	70	23066
2026-01-01 23:11:03.70	174.51	8.52	-50.2	-65.6	3.8	1.49e+00	0	42	104	1224736768	71	21965
2026-01-01 23:11:06.72	174.67	8.28	-50.4	-65.7	3.8	1.49e+00	0	42	104	1224736768	71	22068
2026-01-01 23:11:09.73	174.82	8.05	-50.6	-65.7	3.8	1.49e+00	0	42	104	1224736768	71	22255
2026-01-01 23:11:12.74	174.97	7.82	-50.7	-65.8	3.8	1.49e+00	0	42	104	1224736768	71	22324
2026-01-01 23:11:15.75	175.12	7.59	-50.4	-65.8	3.8	1.49e+00	0	42	104	1224736768	71	22325
2026-01-01 23:11:18.77	175.27	7.36	-50.4	-65.8	3.8	1.49e+00	0	42	104	1224736768	71	22437
2026-01-01 23:11:21.78	175.41	7.14	-50.5	-65.8	3.8	1.49e+00	0	42	104	1224736768	72	21029
2026-01-01 23:11:24.79	175.56	6.91	-50.2	-65.7	3.8	1.49e+00	0	42	104	1224736768	72	20982
2026-01-01 23:11:27.80	175.70	6.69	-50.3	-65.7	3.8	1.49e+00	0	42	104	1224736768	72	20954
2026-01-01 23:11:30.81	175.84	6.47	-50.2	-65.7	3.8	1.49e+00	0	42	104	1224736768	72	20909
2026-01-01 23:11:33.83	175.97	6.25	-50.2	-65.7	3.8	1.49e+00	0	41	104	1224736768	72	20933
2026-01-01 23:11:36.84	176.11	6.04	-50.2	-65.7	3.8	1.49e+00	0	42	104	1224736768	72	20837
2026-01-01 23:11:39.85	176.24	5.82	-50.2	-65.7	3.8	1.49e+00	0	42	104	1224736768	72	20818
2026-01-01 23:11:42.87	176.37	5.61	-50.2	-65.7	3.8	1.49e+00	0	42	104	1224736768	72	20825
2026-01-01 23:11:45.88	176.50	5.40	-50.2	-65.7	3.8	1.49e+00	0	41	104	1224736768	72	20782
2026-01-01 23:11:48.89	176.63	5.19	-50.2	-65.7	3.8	1.49e+00	0	42	104	1224736768	72	20859
2026-01-01 23:11:51.90	176.76	4.98	-50.2	-65.7	3.8	1.49e+00	0	42	104	1224736768	72	20854

#Closed at: 2026-01-01 23:11:52
#Recorded file [1224 MB]: D:/Data/31040_260102_015913.dat