passes_logs/2026/01/01/T1/T1__20260101_145727_FENGYUN_3E_rec.log

#Pass ID: 20260101_145727_FENGYUN 3E
#Satellite: FENGYUN 3E
#Configuration: FENGYUN 3E
#almurnet v.1.7.20251203
#Start time: 2026-01-01 14:57:29

#Version: 2.0.20230620
#Station: T1
#Location: 37.570604 lon 55.790049 lat
#TLE: 1 49008U 21062A   25365.98258168  .00000149  00000+0  90987-4 0  9990
#TLE: 2 49008  98.7481   6.2763 0001360 169.3782 190.7423 14.19883270232859

#Time	Az	El	Level	Level2	SNR	BER	BlckErr	Temp	State	Recorded	gain1	gain2
2026-01-01 14:57:29.13	184.21	5.15	-49.6	-61.4	3.8	8.47e-01	0	41	0	0	70	13272
2026-01-01 14:57:33.14	184.39	5.43	-49.6	-60.8	3.8	8.45e-01	0	41	104	0	68	13887
2026-01-01 14:57:37.16	184.56	5.71	-49.6	-61.3	3.8	8.48e-01	0	42	104	0	68	14763
2026-01-01 14:57:41.18	184.75	6.00	-49.7	-61.5	3.8	8.45e-01	0	42	104	0	68	15183
2026-01-01 14:57:45.19	184.93	6.29	-49.7	-61.7	3.8	8.45e-01	0	42	104	0	68	15488
2026-01-01 14:57:49.21	185.12	6.58	-49.4	-59.3	3.8	8.46e-01	0	42	104	0	68	11722
2026-01-01 14:57:53.23	185.32	6.87	-48.1	-53.7	6.7	2.41e-01	0	42	0	7340032	67	6539
2026-01-01 14:57:57.23	185.51	7.17	-47.9	-53.4	7.0	1.31e-01	0	42	0	36700160	66	6651
2026-01-01 14:58:01.25	185.71	7.47	-49.2	-58.3	4.1	8.42e-01	0	42	0	47185920	67	11138
2026-01-01 14:58:05.27	185.92	7.77	-45.1	-47.8	12.6	3.46e-04	0	42	0	67108864	61	4653
2026-01-01 14:58:09.28	186.13	8.08	-41.8	-43.5	16.4	0.00e+00	0	42	0	96468992	54	4291
2026-01-01 14:58:13.30	186.34	8.39	-42.0	-43.8	16.2	0.00e+00	0	43	0	124780544	53	4683
2026-01-01 14:58:17.31	186.56	8.71	-44.7	-47.2	13.1	1.37e-05	0	43	0	154140672	58	5199
2026-01-01 14:58:21.33	186.78	9.02	-47.7	-52.7	7.5	7.82e-02	0	43	0	182452224	64	6918
2026-01-01 14:58:25.34	187.01	9.35	-49.2	-57.0	4.0	8.47e-01	0	43	104	206569472	69	8537
2026-01-01 14:58:29.35	187.24	9.67	-43.5	-45.6	14.7	0.00e+00	0	43	0	229638144	57	4553
2026-01-01 14:58:33.36	187.47	10.00	-43.1	-45.0	15.3	0.00e+00	0	43	0	257949696	56	4516
2026-01-01 14:58:37.38	187.72	10.33	-42.5	-44.3	15.8	0.00e+00	0	43	0	287309824	55	4429
2026-01-01 14:58:41.39	187.96	10.67	-42.0	-43.7	16.4	0.00e+00	0	43	0	316669952	54	4387
2026-01-01 14:58:45.40	188.21	11.01	-41.7	-43.5	16.6	0.00e+00	0	43	0	344981504	53	4494
2026-01-01 14:58:49.40	188.47	11.36	-41.3	-43.0	17.0	0.00e+00	0	43	0	374341632	53	4279
2026-01-01 14:58:53.41	188.73	11.71	-41.0	-42.7	17.3	0.00e+00	0	43	0	402653184	52	4376
2026-01-01 14:58:57.41	189.00	12.06	-41.1	-42.8	17.2	0.00e+00	0	43	0	432013312	52	4437
2026-01-01 14:59:01.42	189.28	12.42	-40.7	-42.3	17.7	0.00e+00	0	43	0	460324864	51	4436
2026-01-01 14:59:05.43	189.56	12.79	-40.4	-42.1	17.9	0.00e+00	0	43	0	489684992	51	4308
2026-01-01 14:59:09.43	189.85	13.15	-40.3	-41.9	18.0	0.00e+00	0	43	0	519045120	51	4228
2026-01-01 14:59:13.44	190.15	13.53	-40.7	-42.3	17.8	0.00e+00	0	43	0	547356672	51	4422
2026-01-01 14:59:17.45	190.45	13.91	-40.2	-41.7	18.2	0.00e+00	0	43	0	576716800	51	4145
2026-01-01 14:59:21.46	190.76	14.29	-40.0	-41.5	18.5	0.00e+00	0	43	0	605028352	50	4266
2026-01-01 14:59:25.47	191.08	14.68	-39.8	-41.3	18.6	0.00e+00	0	44	0	634388480	50	4191
2026-01-01 14:59:29.48	191.41	15.08	-39.7	-41.2	18.8	0.00e+00	0	44	0	663748608	49	4353
2026-01-01 14:59:33.48	191.74	15.48	-39.8	-41.3	18.7	0.00e+00	0	44	0	692060160	49	4422
2026-01-01 14:59:37.49	192.08	15.88	-39.5	-41.0	18.9	0.00e+00	0	43	0	721420288	49	4266
2026-01-01 14:59:41.50	192.44	16.30	-39.5	-41.0	19.0	0.00e+00	0	44	0	750780416	49	4251
2026-01-01 14:59:45.51	192.80	16.72	-39.3	-40.8	19.2	0.00e+00	0	43	0	779091968	48	4407
2026-01-01 14:59:49.52	193.17	17.14	-39.6	-41.1	18.9	0.00e+00	0	44	0	808452096	48	4575
2026-01-01 14:59:53.53	193.56	17.57	-39.2	-40.6	19.4	0.00e+00	0	44	0	836763648	48	4297
2026-01-01 14:59:57.53	193.95	18.01	-39.0	-40.4	19.5	0.00e+00	0	44	0	866123776	48	4205
2026-01-01 15:00:01.55	194.36	18.46	-38.8	-40.1	19.7	0.00e+00	0	44	0	895483904	48	4097
2026-01-01 15:00:05.56	194.77	18.91	-38.5	-39.9	19.6	0.00e+00	0	44	0	923795456	47	4235
2026-01-01 15:00:09.57	195.20	19.37	-38.6	-40.1	19.4	0.00e+00	0	44	0	953155584	47	4300
2026-01-01 15:00:13.57	195.64	19.83	-38.5	-40.0	19.5	0.00e+00	0	44	0	981467136	47	4256
2026-01-01 15:00:17.58	196.10	20.30	-38.8	-40.3	19.2	0.00e+00	0	44	0	1010827264	47	4420
2026-01-01 15:00:21.59	196.57	20.78	-38.7	-40.2	19.3	0.00e+00	0	44	0	1040187392	47	4360
2026-01-01 15:00:25.60	197.05	21.27	-38.6	-40.1	19.4	0.00e+00	0	44	0	1068498944	47	4323
2026-01-01 15:00:29.61	197.55	21.76	-38.4	-39.9	19.5	0.00e+00	0	44	0	1097859072	47	4234
2026-01-01 15:00:33.61	198.06	22.27	-38.4	-39.9	19.6	0.00e+00	0	44	0	1126170624	46	4474
2026-01-01 15:00:37.62	198.59	22.78	-38.3	-39.8	19.7	0.00e+00	0	43	0	1155530752	46	4396
2026-01-01 15:00:41.63	199.14	23.29	-38.4	-39.8	19.7	0.00e+00	0	44	0	1183842304	46	4432
2026-01-01 15:00:45.63	199.70	23.82	-38.3	-39.6	19.9	0.00e+00	0	44	0	1213202432	46	4331
2026-01-01 15:00:49.64	200.29	24.35	-38.1	-39.5	20.0	0.00e+00	0	44	0	1242562560	46	4271
2026-01-01 15:00:53.65	200.89	24.89	-38.1	-39.4	20.0	0.00e+00	0	44	0	1270874112	46	4224
2026-01-01 15:00:57.66	201.52	25.44	-37.9	-39.3	20.1	0.00e+00	0	44	0	1300234240	46	4173
2026-01-01 15:01:01.67	202.17	26.00	-38.0	-39.4	20.0	0.00e+00	0	44	0	1328545792	46	4221
2026-01-01 15:01:05.68	202.83	26.56	-38.0	-39.4	20.0	0.00e+00	0	44	0	1357905920	46	4226
2026-01-01 15:01:09.69	203.53	27.14	-37.6	-38.9	20.4	0.00e+00	0	44	0	1387266048	46	3985
2026-01-01 15:01:13.70	204.25	27.72	-37.4	-38.6	20.6	0.00e+00	0	44	0	1415577600	45	4090
2026-01-01 15:01:17.71	204.99	28.31	-37.6	-38.9	20.5	0.00e+00	0	43	0	1444937728	45	4237
2026-01-01 15:01:21.72	205.76	28.90	-37.6	-38.9	20.6	0.00e+00	0	44	0	1473249280	45	4200
2026-01-01 15:01:25.69	206.55	29.50	-37.5	-38.8	20.6	0.00e+00	0	44	0	1502609408	45	4165
2026-01-01 15:01:29.69	207.38	30.11	-37.5	-38.8	20.5	0.00e+00	0	44	0	1530920960	45	4175
2026-01-01 15:01:33.68	208.24	30.72	-37.7	-39.2	20.2	0.00e+00	0	44	0	1560281088	45	4361
2026-01-01 15:01:37.67	209.13	31.34	-37.5	-38.9	20.4	0.00e+00	0	44	0	1588592640	45	4194
2026-01-01 15:01:41.67	210.05	31.96	-37.4	-38.7	20.5	0.00e+00	0	44	0	1617952768	45	4131
2026-01-01 15:01:45.67	211.01	32.59	-37.6	-39.0	20.4	0.00e+00	0	44	0	1646264320	45	4246
2026-01-01 15:01:49.66	212.01	33.23	-37.4	-38.7	20.6	0.00e+00	0	44	0	1675624448	45	4134
2026-01-01 15:01:53.66	213.05	33.86	-37.2	-38.5	20.8	0.00e+00	0	44	0	1703936000	45	4029
2026-01-01 15:01:57.66	214.13	34.50	-37.4	-38.7	20.6	0.00e+00	0	44	0	1733296128	45	4142
2026-01-01 15:02:01.66	215.25	35.15	-37.7	-39.0	20.4	0.00e+00	0	44	0	1761607680	45	4275
2026-01-01 15:02:05.66	216.41	35.79	-37.7	-39.0	20.4	0.00e+00	0	44	0	1790967808	45	4282
2026-01-01 15:02:09.67	217.63	36.43	-37.5	-38.9	20.4	0.00e+00	0	44	0	1819279360	45	4224
2026-01-01 15:02:13.68	218.89	37.08	-37.8	-39.1	20.3	0.00e+00	0	44	0	1848639488	45	4337
2026-01-01 15:02:17.68	220.20	37.71	-37.8	-39.1	20.3	0.00e+00	0	44	0	1877999616	45	4336
2026-01-01 15:02:21.69	221.56	38.35	-38.2	-39.1	20.9	0.00e+00	0	44	0	1906311168	46	4081
2026-01-01 15:02:25.69	222.98	38.97	-38.2	-39.1	20.9	0.00e+00	0	44	0	1935671296	46	4078
2026-01-01 15:02:29.69	224.44	39.59	-38.4	-39.3	20.7	0.00e+00	0	44	0	1963982848	46	4188
2026-01-01 15:02:33.69	225.97	40.19	-38.4	-39.3	20.7	0.00e+00	0	44	0	1993342976	47	3944
2026-01-01 15:02:37.70	227.55	40.79	-38.0	-38.8	21.0	0.00e+00	0	44	0	2022703104	46	3955
2026-01-01 15:02:41.71	229.19	41.37	-38.5	-39.6	17.8	0.00e+00	0	44	0	2051014656	46	4298
2026-01-01 15:02:45.72	230.89	41.93	-38.3	-39.1	18.4	0.00e+00	0	44	0	2080374784	46	4091
2026-01-01 15:02:49.72	232.64	42.47	-38.6	-39.4	16.3	0.00e+00	0	44	0	2108686336	46	4215
2026-01-01 15:02:53.73	234.46	42.98	-38.4	-39.7	15.7	0.00e+00	0	44	0	2138046464	47	4116
2026-01-01 15:02:57.73	236.32	43.48	-38.7	-39.9	15.3	0.00e+00	0	44	0	2166358016	47	4207
2026-01-01 15:03:01.73	238.25	43.94	-38.7	-39.4	15.3	0.00e+00	0	44	0	2195718144	47	3993
2026-01-01 15:03:05.73	240.22	44.37	-38.8	-39.6	16.4	0.00e+00	0	43	0	2224029696	47	4062
2026-01-01 15:03:09.73	242.25	44.77	-38.3	-39.3	16.2	0.00e+00	0	44	0	2253389824	47	3918
2026-01-01 15:03:13.74	244.33	45.13	-39.5	-40.5	15.4	1.10e-06	0	44	0	2282749952	48	4244
2026-01-01 15:03:17.75	246.46	45.45	-39.5	-40.3	15.8	0.00e+00	0	44	0	2311061504	49	3924
2026-01-01 15:03:21.75	248.62	45.74	-39.2	-40.4	16.0	0.00e+00	0	43	0	2340421632	48	4204
2026-01-01 15:03:25.76	250.83	45.97	-38.8	-39.8	16.3	0.00e+00	0	44	0	2368733184	48	3930
2026-01-01 15:03:29.76	253.05	46.17	-39.2	-40.2	16.1	0.00e+00	0	44	0	2398093312	48	4113
2026-01-01 15:03:33.76	255.30	46.32	-38.9	-39.6	15.7	0.00e+00	0	44	0	2426404864	48	3860
2026-01-01 15:03:37.77	257.58	46.42	-39.1	-39.9	16.1	0.00e+00	0	44	0	2455764992	47	4196
2026-01-01 15:03:41.77	259.86	46.47	-39.3	-40.2	16.1	0.00e+00	0	43	0	2484076544	48	4115
2026-01-01 15:03:45.77	262.14	46.47	-38.9	-39.9	15.9	0.00e+00	0	44	0	2513436672	48	3959
2026-01-01 15:03:49.77	264.42	46.42	-39.2	-40.0	15.8	0.00e+00	0	44	0	2542796800	48	4031
2026-01-01 15:03:53.78	266.69	46.33	-39.6	-40.6	16.2	0.00e+00	0	44	0	2571108352	49	4073
2026-01-01 15:03:57.78	268.95	46.19	-38.8	-39.8	16.3	0.00e+00	0	44	0	2600468480	48	3923
2026-01-01 15:04:01.78	271.17	46.00	-39.3	-40.1	16.9	0.00e+00	0	44	0	2628780032	48	4094
2026-01-01 15:04:05.78	273.37	45.76	-38.8	-39.7	16.9	0.00e+00	0	44	0	2658140160	48	3869
2026-01-01 15:04:09.78	275.54	45.49	-39.3	-40.0	15.6	0.00e+00	0	43	0	2686451712	48	4050
2026-01-01 15:04:13.79	277.66	45.17	-39.1	-39.9	16.0	0.00e+00	0	44	0	2715811840	48	4000
2026-01-01 15:04:17.80	279.75	44.81	-39.4	-40.2	15.3	0.00e+00	0	43	0	2745171968	48	4123
2026-01-01 15:04:21.80	281.78	44.42	-39.2	-40.0	15.7	0.00e+00	0	44	0	2773483520	48	4008
2026-01-01 15:04:25.81	283.76	43.99	-38.9	-39.7	15.8	0.00e+00	0	44	0	2802843648	48	3890
2026-01-01 15:04:29.82	285.69	43.53	-39.2	-40.0	16.1	0.00e+00	0	43	0	2831155200	48	4036
2026-01-01 15:04:33.82	287.56	43.04	-38.3	-39.2	15.5	0.00e+00	0	43	0	2860515328	47	3883
2026-01-01 15:04:37.82	289.37	42.53	-38.6	-39.4	15.6	0.00e+00	0	43	0	2888826880	47	4002
2026-01-01 15:04:41.83	291.13	42.00	-38.6	-39.8	15.3	0.00e+00	0	43	0	2918187008	47	4171
2026-01-01 15:04:45.83	292.83	41.44	-38.6	-39.7	14.8	0.00e+00	0	43	0	2946498560	47	4110
2026-01-01 15:04:49.84	294.47	40.87	-38.6	-39.4	14.9	0.00e+00	0	44	0	2975858688	47	3993
2026-01-01 15:04:53.84	296.05	40.28	-38.7	-40.0	14.7	0.00e+00	0	43	0	3005218816	47	4275
2026-01-01 15:04:57.84	297.57	39.68	-38.6	-39.5	14.4	0.00e+00	0	43	0	3033530368	47	4014
2026-01-01 15:05:01.85	299.05	39.06	-38.3	-39.6	14.7	0.00e+00	0	43	0	3062890496	46	4306
2026-01-01 15:05:05.86	300.47	38.44	-38.6	-39.4	14.7	0.00e+00	0	43	0	3091202048	47	4003
2026-01-01 15:05:09.86	301.83	37.81	-38.5	-39.2	14.4	0.00e+00	0	43	0	3120562176	47	3878
2026-01-01 15:05:13.87	303.14	37.18	-38.4	-39.2	14.1	0.00e+00	0	44	0	3148873728	46	4112
2026-01-01 15:05:17.87	304.41	36.54	-38.5	-39.2	13.9	0.00e+00	0	43	0	3178233856	46	4102
2026-01-01 15:05:21.87	305.62	35.90	-38.4	-39.0	14.1	0.00e+00	0	43	0	3207593984	46	4015
2026-01-01 15:05:25.87	306.79	35.26	-38.1	-38.6	13.4	0.00e+00	0	43	0	3235905536	46	3856
2026-01-01 15:05:29.87	307.91	34.63	-38.2	-39.3	14.0	0.00e+00	0	43	0	3265265664	46	4165
2026-01-01 15:05:33.88	308.99	33.99	-38.7	-39.7	13.9	0.00e+00	0	43	0	3293577216	47	4100
2026-01-01 15:05:37.89	310.04	33.35	-38.5	-39.3	14.0	0.00e+00	0	43	0	3322937344	47	3940
2026-01-01 15:05:41.90	311.04	32.72	-38.1	-39.6	13.8	0.00e+00	0	43	0	3352297472	47	4053
2026-01-01 15:05:45.91	312.01	32.09	-38.2	-39.0	13.8	0.00e+00	0	43	0	3380609024	46	4050
2026-01-01 15:05:49.91	312.93	31.47	-38.4	-39.4	13.6	0.00e+00	0	43	0	3409969152	46	4220
2026-01-01 15:05:53.92	313.83	30.85	-38.6	-39.4	13.3	0.00e+00	0	44	0	3438280704	47	3976
2026-01-01 15:05:57.93	314.69	30.24	-38.9	-39.6	14.0	0.00e+00	0	43	0	3467640832	47	4068
2026-01-01 15:06:01.93	315.52	29.63	-38.4	-39.3	13.6	0.00e+00	0	43	0	3495952384	47	3958
2026-01-01 15:06:05.93	316.32	29.03	-38.4	-39.3	13.4	0.00e+00	0	43	0	3525312512	47	3936
2026-01-01 15:06:09.94	317.09	28.44	-38.6	-39.7	13.6	0.00e+00	0	43	0	3554672640	47	4137
2026-01-01 15:06:13.94	317.84	27.86	-39.0	-39.7	13.5	0.00e+00	0	43	0	3582984192	47	4105
2026-01-01 15:06:17.94	318.56	27.28	-38.9	-39.5	13.7	0.00e+00	0	43	0	3612344320	47	4045
2026-01-01 15:06:21.94	319.25	26.71	-38.4	-39.2	13.5	0.00e+00	0	43	0	3640655872	47	3907
2026-01-01 15:06:25.95	319.92	26.15	-38.4	-39.4	14.0	0.00e+00	0	43	0	3670016000	47	3981
2026-01-01 15:06:29.95	320.57	25.60	-38.6	-39.5	13.9	0.00e+00	0	43	0	3698327552	47	4051
2026-01-01 15:06:33.96	321.20	25.05	-38.8	-39.6	13.8	0.00e+00	0	43	0	3727687680	47	4058
2026-01-01 15:06:37.96	321.80	24.51	-38.7	-39.6	13.9	0.00e+00	0	43	0	3755999232	47	4065
2026-01-01 15:06:41.96	322.39	23.98	-38.7	-39.9	13.9	0.00e+00	0	43	0	3785359360	47	4208
2026-01-01 15:06:45.96	322.95	23.46	-38.7	-39.6	13.9	0.00e+00	0	43	0	3814719488	47	4053
2026-01-01 15:06:49.98	323.51	22.94	-38.9	-39.9	13.6	0.00e+00	0	43	0	3843031040	47	4229
2026-01-01 15:06:53.98	324.04	22.44	-39.4	-40.5	13.4	0.00e+00	0	43	0	3872391168	48	4250
2026-01-01 15:06:57.99	324.55	21.94	-39.2	-39.9	14.2	0.00e+00	0	43	0	3900702720	48	3968
2026-01-01 15:07:01.99	325.05	21.45	-39.1	-39.7	14.1	0.00e+00	0	43	0	3930062848	48	3879
2026-01-01 15:07:05.99	325.54	20.96	-39.2	-39.9	13.8	1.10e-06	0	43	0	3959422976	48	3983
2026-01-01 15:07:09.98	326.01	20.49	-39.4	-40.4	13.3	0.00e+00	0	43	0	3987734528	48	4232
2026-01-01 15:07:13.99	326.47	20.02	-39.5	-40.3	13.3	1.10e-06	0	43	0	4017094656	49	3947
2026-01-01 15:07:18.00	326.91	19.55	-39.5	-40.6	13.5	0.00e+00	0	43	0	4045406208	49	4055
2026-01-01 15:07:22.00	327.34	19.10	-39.6	-40.8	13.3	1.10e-06	0	43	0	4074766336	49	4174
2026-01-01 15:07:26.01	327.76	18.65	-39.6	-40.3	13.2	0.00e+00	0	43	0	4103077888	49	3955
2026-01-01 15:07:30.01	328.17	18.21	-39.5	-40.4	13.2	0.00e+00	0	43	0	4132438016	49	3962
2026-01-01 15:07:34.00	328.56	17.77	-39.6	-40.6	13.5	1.10e-06	0	43	0	4160749568	49	4060
2026-01-01 15:07:38.01	328.95	17.34	-39.8	-40.5	13.5	0.00e+00	0	43	0	4190109696	49	4016
2026-01-01 15:07:42.01	329.33	16.92	-39.8	-40.7	13.3	0.00e+00	0	43	0	4218421248	49	4113
2026-01-01 15:07:46.01	329.69	16.50	-40.0	-41.0	13.7	0.00e+00	0	43	0	4247781376	50	4018
2026-01-01 15:07:50.01	330.05	16.09	-40.5	-41.6	14.9	0.00e+00	0	43	0	4276092928	50	4338
2026-01-01 15:07:54.02	330.40	15.69	-40.5	-41.5	13.2	0.00e+00	0	43	0	4305453056	51	4046
2026-01-01 15:07:58.03	330.73	15.29	-40.6	-41.7	13.5	2.20e-06	0	43	0	4334813184	51	4139
2026-01-01 15:08:02.03	331.06	14.89	-40.8	-41.9	13.2	5.70e-06	0	43	0	4363124736	51	4200
2026-01-01 15:08:06.03	331.39	14.51	-40.9	-41.8	13.2	5.70e-06	0	43	0	4392484864	51	4186
2026-01-01 15:08:10.04	331.70	14.12	-40.8	-42.0	13.5	2.20e-06	0	43	0	4420796416	51	4284
2026-01-01 15:08:14.04	332.01	13.75	-41.0	-41.8	13.0	4.50e-06	0	43	0	4450156544	51	4166
2026-01-01 15:08:18.05	332.31	13.37	-41.3	-41.9	12.9	4.50e-06	0	43	0	4479516672	51	4236
2026-01-01 15:08:22.05	332.60	13.01	-41.0	-42.4	13.0	6.80e-06	0	43	0	4507828224	52	4234
2026-01-01 15:08:26.06	332.89	12.64	-41.3	-42.5	13.1	2.05e-05	0	43	0	4537188352	52	4254
2026-01-01 15:08:30.07	333.16	12.28	-41.5	-43.0	13.3	2.40e-05	0	43	0	4565499904	52	4505
2026-01-01 15:08:34.08	333.44	11.93	-41.8	-42.8	13.1	4.57e-05	0	43	0	4594860032	53	4183
2026-01-01 15:08:38.08	333.71	11.58	-41.8	-42.6	12.8	3.08e-05	0	43	0	4624220160	53	4088
2026-01-01 15:08:42.09	333.97	11.24	-41.5	-43.1	12.9	2.28e-05	0	43	0	4652531712	53	4306
2026-01-01 15:08:46.09	334.22	10.90	-41.6	-42.9	12.9	3.31e-05	0	43	0	4681891840	53	4207
2026-01-01 15:08:50.09	334.47	10.56	-41.7	-42.7	12.8	3.66e-05	0	43	0	4710203392	53	4125
2026-01-01 15:08:54.09	334.72	10.23	-41.5	-42.9	13.2	3.31e-05	0	43	0	4739563520	53	4208
2026-01-01 15:08:58.10	334.96	9.90	-41.8	-42.9	13.7	3.43e-05	0	43	0	4767875072	53	4197
2026-01-01 15:09:02.10	335.19	9.58	-41.5	-43.1	13.4	6.17e-05	0	43	0	4797235200	53	4340
2026-01-01 15:09:06.11	335.42	9.26	-41.1	-42.5	13.8	2.17e-05	0	43	0	4825546752	52	4267
2026-01-01 15:09:10.12	335.65	8.94	-49.9	-61.9	3.8	2.66e-01	0	43	104	4853858304	69	15032
2026-01-01 15:09:14.14	335.87	8.63	-51.5	-62.4	3.8	8.47e-01	0	43	104	4853858304	72	13330
2026-01-01 15:09:18.16	336.09	8.32	-51.3	-62.5	3.8	8.46e-01	0	43	104	4853858304	72	13538
2026-01-01 15:09:22.17	336.30	8.01	-51.3	-62.5	3.8	8.47e-01	0	43	104	4853858304	73	12755
2026-01-01 15:09:26.19	336.51	7.71	-51.7	-62.6	3.8	8.46e-01	0	43	104	4853858304	73	12846
2026-01-01 15:09:30.20	336.72	7.41	-51.7	-62.5	3.8	8.47e-01	0	43	104	4853858304	73	12712
2026-01-01 15:09:34.22	336.92	7.12	-51.3	-62.3	3.8	8.47e-01	0	43	104	4853858304	73	12411
2026-01-01 15:09:38.23	337.12	6.82	-51.3	-62.3	3.8	8.47e-01	0	43	104	4853858304	73	12434
2026-01-01 15:09:42.25	337.31	6.53	-51.4	-62.3	3.8	8.47e-01	0	43	104	4853858304	73	12475
2026-01-01 15:09:46.27	337.50	6.24	-51.3	-62.2	3.8	8.46e-01	0	43	104	4853858304	73	12375
2026-01-01 15:09:50.28	337.69	5.96	-51.5	-62.4	3.8	8.48e-01	0	43	104	4853858304	73	12543
2026-01-01 15:09:54.30	337.87	5.68	-51.3	-62.3	3.8	8.46e-01	0	43	104	4853858304	73	12415
2026-01-01 15:09:58.32	338.06	5.40	-51.3	-62.3	3.8	8.46e-01	0	43	104	4853858304	73	12418
2026-01-01 15:10:02.33	338.23	5.12	-51.3	-62.3	3.8	8.47e-01	0	43	104	4853858304	73	12403

#Closed at: 2026-01-01 15:10:05
#Recorded file [4853 MB]: D:/Data/31040_260101_175729.dat