passes_logs/2026/01/01/T1/T1__20260101_005829_NOAA_20_JPSS-1_rec.log

#Pass ID: 20260101_005829_NOAA 20 (JPSS-1)
#Satellite: NOAA 20 (JPSS-1)
#Configuration: NOAA 20
#almurnet v.1.7.20251203
#Start time: 2026-01-01 00:58:29

#Version: 2.0.20230620
#Station: T1
#Location: 37.570604 lon 55.790049 lat
#TLE: 1 43013U 17073A   25365.45761817  .00000173  00000+0  10307-3 0  9993
#TLE: 2 43013  98.7620 301.5517 0001951  60.3814 299.7557 14.19531661420675

#Time	Az	El	Level	Level2	SNR	BER	BlckErr	Temp	State	Recorded	gain1	gain2
2026-01-01 00:58:29.28	8.73	4.96	-51.6	-66.8	3.8	1.49e+00	0	39	0	0	73	22276
2026-01-01 00:58:32.29	8.55	5.15	-51.6	-66.8	3.8	1.49e+00	0	39	104	0	75	19909
2026-01-01 00:58:35.60	8.34	5.37	-51.6	-66.8	3.8	1.49e+00	0	39	104	0	75	19870
2026-01-01 00:58:38.49	8.15	5.56	-51.6	-66.7	3.8	1.49e+00	0	40	104	0	75	19841
2026-01-01 00:58:41.65	7.95	5.77	-51.6	-66.8	3.8	1.49e+00	0	40	104	0	75	20001
2026-01-01 00:58:44.51	7.76	5.96	-51.6	-66.8	3.8	1.49e+00	0	40	104	0	75	19880
2026-01-01 00:58:47.73	7.54	6.17	-51.6	-66.7	3.8	1.49e+00	0	40	104	0	75	19822
2026-01-01 00:58:50.60	7.35	6.37	-51.6	-66.7	3.8	1.49e+00	0	40	104	0	75	19835
2026-01-01 00:58:53.76	7.13	6.58	-51.6	-66.8	3.8	1.49e+00	0	40	104	0	75	19862
2026-01-01 00:58:56.63	6.93	6.78	-51.6	-66.8	3.8	1.49e+00	0	40	104	0	75	19891
2026-01-01 00:58:59.78	6.71	6.99	-51.6	-66.7	3.8	1.49e+00	0	41	104	0	75	19816
2026-01-01 00:59:02.65	6.50	7.19	-51.6	-66.8	3.8	1.49e+00	0	41	104	0	75	19924
2026-01-01 00:59:05.81	6.27	7.41	-51.6	-66.8	3.8	1.49e+00	0	41	104	0	75	19870
2026-01-01 00:59:08.68	6.05	7.61	-51.6	-66.7	3.8	1.49e+00	0	41	104	0	75	19790
2026-01-01 00:59:11.83	5.82	7.83	-51.6	-66.8	3.8	1.49e+00	0	41	104	0	75	19971
2026-01-01 00:59:14.70	5.60	8.04	-51.6	-66.8	3.8	1.49e+00	0	41	104	0	75	19954
2026-01-01 00:59:17.86	5.35	8.26	-51.6	-66.8	3.8	1.49e+00	0	41	104	0	75	19886
2026-01-01 00:59:20.73	5.12	8.47	-51.4	-66.8	3.8	1.49e+00	0	41	104	0	74	21082
2026-01-01 00:59:23.88	4.87	8.69	-51.6	-66.8	3.8	1.49e+00	0	41	104	0	74	21057
2026-01-01 00:59:26.75	4.64	8.90	-51.6	-66.8	3.8	1.49e+00	0	41	104	0	74	21132
2026-01-01 00:59:29.91	4.38	9.13	-51.6	-66.8	3.8	1.49e+00	0	41	104	0	74	21243
2026-01-01 00:59:32.78	4.13	9.34	-51.6	-66.8	3.8	1.49e+00	0	41	104	0	74	21139
2026-01-01 00:59:35.94	3.86	9.58	-51.6	-66.8	3.8	1.49e+00	0	41	104	0	74	21088
2026-01-01 00:59:38.81	3.62	9.79	-51.6	-66.8	3.8	1.49e+00	0	41	104	0	74	21106
2026-01-01 00:59:41.96	3.34	10.03	-51.6	-66.8	3.8	1.49e+00	0	41	104	0	74	21168
2026-01-01 00:59:44.82	3.08	10.24	-51.6	-66.8	3.8	1.49e+00	0	41	104	0	74	21189
2026-01-01 00:59:47.98	2.79	10.48	-51.7	-66.8	3.8	1.49e+00	0	41	104	0	74	21211
2026-01-01 00:59:50.85	2.53	10.70	-51.6	-66.8	3.8	1.49e+00	0	41	104	0	74	21031
2026-01-01 00:59:54.00	2.23	10.94	-51.6	-66.8	3.8	1.49e+00	0	42	104	0	74	21081
2026-01-01 00:59:56.87	1.95	11.17	-51.6	-66.8	3.8	1.49e+00	0	42	104	0	74	21040
2026-01-01 01:00:00.03	1.65	11.41	-51.6	-66.7	3.8	1.49e+00	0	42	104	0	74	20952
2026-01-01 01:00:02.90	1.36	11.64	-51.6	-66.8	3.8	1.49e+00	0	41	104	0	74	21193
2026-01-01 01:00:06.05	1.05	11.89	-51.6	-66.8	3.8	1.49e+00	0	42	104	0	74	21136
2026-01-01 01:00:08.92	0.75	12.11	-51.6	-66.8	3.8	1.49e+00	0	42	104	0	74	21097
2026-01-01 01:00:12.08	0.42	12.37	-51.6	-66.8	3.8	1.49e+00	0	42	104	0	74	21093
2026-01-01 01:00:14.95	0.12	12.60	-51.6	-66.8	3.8	1.49e+00	0	42	104	0	74	21089
2026-01-01 01:00:18.10	359.78	12.85	-51.6	-66.8	3.8	1.49e+00	0	42	104	0	74	21128
2026-01-01 01:00:20.97	359.47	13.08	-51.6	-66.8	3.8	1.49e+00	0	42	104	0	74	21114
2026-01-01 01:00:24.13	359.11	13.34	-51.6	-66.8	3.8	1.49e+00	0	42	104	0	74	21042
2026-01-01 01:00:27.00	358.79	13.58	-51.6	-66.8	3.8	1.49e+00	0	42	104	0	74	21072
2026-01-01 01:00:30.15	358.42	13.84	-51.6	-66.8	3.8	1.49e+00	0	42	104	0	74	21035
2026-01-01 01:00:33.02	358.09	14.08	-51.6	-66.8	3.8	1.49e+00	0	42	104	0	74	21135
2026-01-01 01:00:36.18	357.71	14.34	-51.6	-66.7	3.8	1.49e+00	0	42	104	0	74	20976
2026-01-01 01:00:39.05	357.36	14.59	-51.6	-66.7	3.8	1.49e+00	0	42	104	0	74	20944
2026-01-01 01:00:42.21	356.97	14.85	-51.6	-66.8	3.8	1.49e+00	0	42	104	0	74	21050
2026-01-01 01:00:45.08	356.61	15.10	-51.6	-66.8	3.8	1.49e+00	0	42	104	0	74	21091
2026-01-01 01:00:48.23	356.20	15.37	-51.6	-66.8	3.8	1.49e+00	0	42	104	0	74	21192
2026-01-01 01:00:51.10	355.83	15.62	-51.7	-66.9	3.8	1.49e+00	0	42	104	0	74	21348
2026-01-01 01:00:54.26	355.41	15.89	-51.7	-66.8	3.8	1.49e+00	0	42	104	0	74	21244
2026-01-01 01:00:57.13	355.02	16.14	-51.7	-66.9	3.8	1.49e+00	0	42	104	0	74	21273
2026-01-01 01:01:00.28	354.59	16.42	-51.6	-66.8	3.8	1.49e+00	0	42	104	0	74	21148
2026-01-01 01:01:03.15	354.19	16.67	-51.7	-66.9	3.8	1.49e+00	0	42	104	0	74	21370
2026-01-01 01:01:06.32	353.73	16.95	-51.7	-66.9	3.8	1.49e+00	0	42	104	0	74	21293
2026-01-01 01:01:09.48	353.27	17.23	-51.6	-66.8	3.8	1.49e+00	0	42	104	0	74	21168
2026-01-01 01:01:12.35	352.85	17.48	-51.7	-66.9	3.8	1.49e+00	0	42	104	0	74	21285
2026-01-01 01:01:15.66	352.35	17.78	-51.6	-66.8	3.8	1.49e+00	0	42	104	0	74	21205
2026-01-01 01:01:18.57	351.90	18.04	-51.7	-66.8	3.8	1.49e+00	0	42	104	0	74	21179
2026-01-01 01:01:21.73	351.40	18.33	-51.7	-66.8	3.8	1.49e+00	0	42	104	0	74	21242
2026-01-01 01:01:24.60	350.95	18.59	-51.6	-66.8	3.8	1.49e+00	0	42	104	0	74	21187
2026-01-01 01:01:27.75	350.43	18.87	-51.7	-66.9	3.8	1.49e+00	0	42	104	0	74	21300
2026-01-01 01:01:30.62	349.96	19.14	-51.7	-66.9	3.8	1.49e+00	0	42	104	0	74	21391
2026-01-01 01:01:33.78	349.43	19.43	-51.8	-66.9	3.8	1.49e+00	0	42	104	0	74	21371
2026-01-01 01:01:36.65	348.93	19.69	-51.7	-66.9	3.8	1.49e+00	0	42	104	0	74	21333
2026-01-01 01:01:39.80	348.38	19.98	-51.8	-66.9	3.8	1.49e+00	0	42	104	0	74	21424
2026-01-01 01:01:42.67	347.87	20.24	-51.8	-66.9	3.8	1.49e+00	0	42	104	0	74	21438
2026-01-01 01:01:45.83	347.30	20.53	-51.7	-66.9	3.8	1.49e+00	0	42	104	0	74	21388
2026-01-01 01:01:48.70	346.77	20.80	-51.7	-66.8	3.8	1.49e+00	0	42	104	0	74	21232
2026-01-01 01:01:51.85	346.17	21.09	-51.7	-66.8	3.8	1.49e+00	0	42	104	0	74	21154
2026-01-01 01:01:54.72	345.62	21.35	-51.6	-66.8	3.8	1.49e+00	0	42	104	0	74	21110
2026-01-01 01:01:57.88	345.00	21.64	-51.6	-66.8	3.8	1.49e+00	0	42	104	0	74	21063
2026-01-01 01:02:00.75	344.43	21.91	-51.6	-66.7	3.8	1.49e+00	0	42	104	0	74	21009
2026-01-01 01:02:03.90	343.79	22.20	-51.6	-66.8	3.8	1.49e+00	0	42	104	0	74	21136
2026-01-01 01:02:06.77	343.20	22.46	-51.6	-66.8	3.8	1.49e+00	0	42	104	0	74	21089
2026-01-01 01:02:09.93	342.54	22.75	-51.6	-66.7	3.8	1.49e+00	0	42	104	0	74	21017
2026-01-01 01:02:12.80	341.92	23.01	-51.6	-66.7	3.8	1.49e+00	0	42	104	0	74	21011
2026-01-01 01:02:15.95	341.24	23.30	-51.5	-66.7	3.8	1.49e+00	0	42	104	0	74	20894
2026-01-01 01:02:18.82	340.60	23.56	-51.5	-66.7	3.8	1.49e+00	0	42	104	0	74	20952
2026-01-01 01:02:21.98	339.89	23.84	-51.6	-66.8	3.8	1.49e+00	0	42	104	0	74	21122
2026-01-01 01:02:24.85	339.23	24.10	-51.5	-66.7	3.8	1.49e+00	0	42	104	0	74	20842
2026-01-01 01:02:28.00	338.50	24.38	-51.5	-66.7	3.8	1.49e+00	0	42	104	0	74	20815
2026-01-01 01:02:30.87	337.81	24.63	-51.6	-66.7	3.8	1.49e+00	0	42	104	0	74	20987
2026-01-01 01:02:34.03	337.05	24.91	-51.5	-66.7	3.8	1.49e+00	0	42	104	0	74	20943
2026-01-01 01:02:36.90	336.34	25.16	-51.5	-66.7	3.8	1.49e+00	0	42	104	0	74	20945
2026-01-01 01:02:40.05	335.56	25.43	-51.5	-66.7	3.8	1.49e+00	0	42	104	0	74	20888
2026-01-01 01:02:42.92	334.83	25.67	-51.5	-66.7	3.8	1.49e+00	0	43	104	0	74	20919
2026-01-01 01:02:46.08	334.01	25.93	-51.5	-66.7	3.8	1.49e+00	0	42	104	0	74	20944
2026-01-01 01:02:48.95	333.26	26.17	-51.5	-66.7	3.8	1.49e+00	0	42	104	0	74	20819
2026-01-01 01:02:52.10	332.42	26.42	-51.6	-66.7	3.8	1.49e+00	0	42	104	0	74	20945
2026-01-01 01:02:54.97	331.64	26.65	-51.5	-66.7	3.8	1.49e+00	0	42	104	0	74	20833
2026-01-01 01:02:58.13	330.77	26.90	-51.5	-66.7	3.8	1.49e+00	0	42	104	0	74	20861
2026-01-01 01:03:00.99	329.98	27.12	-51.5	-66.7	3.8	1.49e+00	0	42	104	0	74	20873
2026-01-01 01:03:04.15	329.08	27.36	-51.5	-66.7	3.8	1.49e+00	0	42	104	0	74	20913
2026-01-01 01:03:07.02	328.26	27.57	-51.6	-66.7	3.8	1.49e+00	0	42	104	0	74	20962
2026-01-01 01:03:10.18	327.34	27.79	-51.5	-66.7	3.8	1.49e+00	0	42	104	0	74	20928
2026-01-01 01:03:13.05	326.49	27.99	-51.5	-66.7	3.8	1.49e+00	0	42	104	0	74	20995
2026-01-01 01:03:16.20	325.55	28.20	-51.5	-66.7	3.8	1.49e+00	0	42	104	0	74	20929
2026-01-01 01:03:19.07	324.68	28.39	-51.5	-66.7	3.8	1.49e+00	0	42	104	0	74	20918
2026-01-01 01:03:22.23	323.72	28.59	-51.6	-66.7	3.8	1.49e+00	0	42	104	0	74	20904
2026-01-01 01:03:25.10	322.83	28.76	-51.5	-66.7	3.8	1.49e+00	0	42	104	0	74	20919
2026-01-01 01:03:28.25	321.84	28.95	-51.5	-66.7	3.8	1.49e+00	0	42	104	0	74	20902
2026-01-01 01:03:31.12	320.93	29.11	-51.5	-66.7	3.8	1.49e+00	0	42	104	0	74	20918
2026-01-01 01:03:34.28	319.92	29.27	-51.5	-66.7	3.8	1.49e+00	0	43	104	0	74	20982
2026-01-01 01:03:37.15	318.99	29.42	-51.5	-66.7	3.8	1.49e+00	0	42	104	0	74	20880
2026-01-01 01:03:40.31	317.96	29.57	-51.6	-66.7	3.8	1.49e+00	0	42	104	0	74	20948
2026-01-01 01:03:43.22	317.00	29.69	-51.5	-66.7	3.8	1.49e+00	0	42	104	0	74	20983
2026-01-01 01:03:46.24	316.00	29.82	-51.5	-66.7	3.8	1.49e+00	0	42	104	0	74	20866
2026-01-01 01:03:49.25	314.99	29.93	-51.5	-66.7	3.8	1.49e+00	0	43	104	0	74	20858
2026-01-01 01:03:52.26	313.98	30.04	-51.5	-66.7	3.8	1.49e+00	0	42	104	0	74	20854
2026-01-01 01:03:55.28	312.96	30.14	-51.5	-66.7	3.8	1.49e+00	0	42	104	0	74	20854
2026-01-01 01:03:58.29	311.93	30.22	-51.5	-66.7	3.8	1.49e+00	0	42	104	0	74	21002
2026-01-01 01:04:01.30	310.90	30.30	-51.5	-66.8	3.8	1.49e+00	0	42	104	0	74	21033
2026-01-01 01:04:04.36	309.85	30.36	-51.6	-66.8	3.8	1.49e+00	0	42	104	0	74	21067
2026-01-01 01:04:07.28	308.84	30.42	-51.6	-66.8	3.8	1.49e+00	0	42	104	0	74	21065
2026-01-01 01:04:10.29	307.80	30.46	-51.6	-66.7	3.8	1.49e+00	0	42	104	0	74	20942
2026-01-01 01:04:13.30	306.75	30.50	-51.6	-66.8	3.8	1.49e+00	0	42	104	0	74	21019
2026-01-01 01:04:16.35	305.69	30.52	-51.6	-66.7	3.8	1.49e+00	0	42	104	0	74	20951
2026-01-01 01:04:19.51	304.59	30.53	-51.5	-66.7	3.8	1.49e+00	0	42	104	0	74	20928
2026-01-01 01:04:22.41	303.58	30.53	-51.6	-66.7	3.8	1.49e+00	0	42	104	0	74	20982
2026-01-01 01:04:25.71	302.43	30.52	-51.5	-66.7	3.8	1.49e+00	0	43	104	0	74	20999
2026-01-01 01:04:28.44	301.48	30.50	-51.5	-66.8	3.8	1.49e+00	0	43	104	0	74	21018
2026-01-01 01:04:31.80	300.31	30.47	-51.6	-66.7	3.8	1.49e+00	0	42	104	0	74	20981
2026-01-01 01:04:34.59	299.35	30.43	-51.6	-66.7	3.8	1.49e+00	0	42	104	0	74	20983
2026-01-01 01:04:37.89	298.21	30.37	-51.6	-66.8	3.8	1.49e+00	0	42	104	0	74	21051
2026-01-01 01:04:40.62	297.26	30.31	-51.5	-66.7	3.8	1.49e+00	0	42	104	0	74	20919
2026-01-01 01:04:43.91	296.14	30.23	-51.6	-66.7	3.8	1.49e+00	0	43	104	0	74	20961
2026-01-01 01:04:46.64	295.20	30.16	-51.6	-66.8	3.8	1.49e+00	0	43	104	0	74	21026
2026-01-01 01:04:49.94	294.08	30.05	-51.6	-66.8	3.8	1.49e+00	0	42	104	0	74	21111
2026-01-01 01:04:52.67	293.16	29.96	-51.6	-66.8	3.8	1.49e+00	0	42	104	0	74	21067
2026-01-01 01:04:55.97	292.06	29.83	-51.6	-66.8	3.8	1.49e+00	0	43	104	0	74	21019
2026-01-01 01:04:58.69	291.15	29.72	-51.5	-66.7	3.8	1.49e+00	0	42	104	0	74	20972
2026-01-01 01:05:01.99	290.06	29.58	-51.5	-66.7	3.8	1.49e+00	0	42	104	0	74	20991
2026-01-01 01:05:04.72	289.17	29.45	-51.5	-66.7	3.8	1.49e+00	0	43	104	0	74	20854
2026-01-01 01:05:08.02	288.10	29.29	-51.5	-66.7	3.8	1.49e+00	0	43	104	0	74	20927
2026-01-01 01:05:10.74	287.22	29.14	-51.6	-66.8	3.8	1.49e+00	0	42	104	0	74	21023
2026-01-01 01:05:14.04	286.17	28.96	-51.5	-66.7	3.8	1.49e+00	0	43	104	0	74	20915
2026-01-01 01:05:16.77	285.32	28.80	-51.5	-66.7	3.8	1.49e+00	0	43	104	0	74	20912
2026-01-01 01:05:20.07	284.29	28.60	-51.5	-66.7	3.8	1.49e+00	0	43	104	0	74	20979
2026-01-01 01:05:22.79	283.45	28.43	-51.5	-66.7	3.8	1.49e+00	0	43	104	0	74	20931
2026-01-01 01:05:26.09	282.45	28.22	-51.5	-66.7	3.8	1.49e+00	0	42	104	0	74	20994
2026-01-01 01:05:28.82	281.63	28.04	-51.5	-66.7	3.8	1.49e+00	0	43	104	0	74	20963
2026-01-01 01:05:32.12	280.65	27.81	-51.5	-66.7	3.8	1.49e+00	0	43	104	0	74	20992
2026-01-01 01:05:34.85	279.85	27.61	-51.6	-66.8	3.8	1.49e+00	0	43	104	0	74	21060
2026-01-01 01:05:38.15	278.90	27.37	-51.6	-66.8	3.8	1.49e+00	0	43	104	0	74	21077
2026-01-01 01:05:40.88	278.12	27.17	-51.6	-66.7	3.8	1.49e+00	0	43	104	0	74	21012
2026-01-01 01:05:44.17	277.20	26.91	-51.5	-66.7	3.8	1.49e+00	0	43	104	0	74	20988
2026-01-01 01:05:46.90	276.45	26.70	-51.5	-66.7	3.8	1.49e+00	0	43	104	0	74	20986
2026-01-01 01:05:50.20	275.55	26.44	-51.6	-66.8	3.8	1.49e+00	0	43	104	0	74	21118
2026-01-01 01:05:52.92	274.82	26.22	-51.6	-66.8	3.8	1.49e+00	0	43	104	0	74	21132
2026-01-01 01:05:56.22	273.95	25.95	-51.6	-66.8	3.8	1.49e+00	0	43	104	0	74	21119
2026-01-01 01:05:58.95	273.24	25.72	-51.6	-66.8	3.8	1.49e+00	0	43	104	0	74	21083
2026-01-01 01:06:02.25	272.39	25.44	-51.6	-66.7	3.8	1.49e+00	0	43	104	0	74	21001
2026-01-01 01:06:04.97	271.71	25.20	-51.6	-66.7	3.8	1.49e+00	0	43	104	0	74	20969
2026-01-01 01:06:08.27	270.89	24.92	-51.6	-66.8	3.8	1.49e+00	0	43	104	0	74	21103
2026-01-01 01:06:11.00	270.23	24.68	-51.6	-66.8	3.8	1.49e+00	0	42	104	0	74	21076
2026-01-01 01:06:14.30	269.44	24.39	-51.6	-66.8	3.8	1.49e+00	0	43	104	0	74	21071
2026-01-01 01:06:17.02	268.80	24.15	-51.6	-66.8	3.8	1.49e+00	0	43	104	0	74	21106
2026-01-01 01:06:20.32	268.04	23.85	-51.6	-66.8	3.8	1.49e+00	0	43	104	0	74	21035
2026-01-01 01:06:23.05	267.42	23.60	-51.6	-66.8	3.8	1.49e+00	0	42	104	0	74	21104
2026-01-01 01:06:26.40	266.67	23.30	-51.6	-66.8	3.8	1.49e+00	0	42	104	0	74	21163
2026-01-01 01:06:29.39	266.01	23.03	-51.6	-66.7	3.8	1.49e+00	0	43	104	0	74	20998
2026-01-01 01:06:32.48	265.35	22.74	-51.6	-66.7	3.8	1.49e+00	0	43	104	0	74	20988
2026-01-01 01:06:35.49	264.71	22.47	-51.5	-66.7	3.8	1.49e+00	0	43	104	0	74	20892
2026-01-01 01:06:38.51	264.08	22.19	-51.6	-66.8	3.8	1.49e+00	0	43	104	0	74	21106
2026-01-01 01:06:41.52	263.47	21.91	-51.6	-66.8	3.8	1.49e+00	0	43	104	0	74	21076
2026-01-01 01:06:44.48	262.88	21.64	-51.6	-66.8	3.8	1.49e+00	0	42	104	0	74	21070
2026-01-01 01:06:47.51	262.28	21.36	-51.6	-66.8	3.8	1.49e+00	0	42	104	0	74	21064
2026-01-01 01:06:50.52	261.70	21.08	-51.6	-66.7	3.8	1.49e+00	0	43	104	0	74	21000
2026-01-01 01:06:53.53	261.13	20.80	-51.6	-66.8	3.8	1.49e+00	0	42	104	0	74	21073
2026-01-01 01:06:56.58	260.56	20.52	-51.6	-66.7	3.8	1.49e+00	0	43	104	0	74	21007
2026-01-01 01:06:59.64	260.00	20.23	-51.6	-66.8	3.8	1.49e+00	0	42	104	0	74	21133
2026-01-01 01:07:02.66	259.46	19.96	-51.6	-66.8	3.8	1.49e+00	0	43	104	0	74	21078
2026-01-01 01:07:05.67	258.93	19.68	-51.6	-66.8	3.8	1.49e+00	0	43	104	0	74	21082
2026-01-01 01:07:08.68	258.41	19.40	-51.6	-66.7	3.8	1.49e+00	0	43	104	0	74	21005
2026-01-01 01:07:11.69	257.90	19.13	-51.6	-66.8	3.8	1.49e+00	0	43	104	0	74	21109
2026-01-01 01:07:14.71	257.39	18.85	-51.6	-66.7	3.8	1.49e+00	0	42	104	0	74	20987
2026-01-01 01:07:17.72	256.90	18.57	-51.6	-66.8	3.8	1.49e+00	0	43	104	0	74	21069
2026-01-01 01:07:20.73	256.42	18.30	-51.6	-66.8	3.8	1.49e+00	0	43	104	0	74	21043
2026-01-01 01:07:23.74	255.94	18.03	-51.6	-66.8	3.8	1.49e+00	0	43	104	0	74	21110
2026-01-01 01:07:26.76	255.47	17.75	-51.6	-66.7	3.8	1.49e+00	0	43	104	0	74	20887
2026-01-01 01:07:29.77	255.01	17.48	-51.6	-66.8	3.8	1.49e+00	0	43	104	0	74	21031
2026-01-01 01:07:32.78	254.56	17.21	-51.6	-66.8	3.8	1.49e+00	0	43	104	0	74	21062
2026-01-01 01:07:35.80	254.12	16.94	-51.6	-66.7	3.8	1.49e+00	0	43	104	0	74	20954
2026-01-01 01:07:38.81	253.69	16.68	-51.6	-66.8	3.8	1.49e+00	0	43	104	0	74	21110
2026-01-01 01:07:41.82	253.26	16.41	-51.6	-66.8	3.8	1.49e+00	0	43	104	0	74	21115
2026-01-01 01:07:44.83	252.84	16.15	-51.6	-66.7	3.8	1.49e+00	0	43	104	0	74	20994
2026-01-01 01:07:47.85	252.43	15.88	-51.6	-66.7	3.8	1.49e+00	0	43	104	0	74	20981
2026-01-01 01:07:50.86	252.02	15.62	-51.6	-66.8	3.8	1.49e+00	0	43	104	0	74	21079
2026-01-01 01:07:53.87	251.63	15.36	-51.6	-66.8	3.8	1.49e+00	0	43	104	0	74	21048
2026-01-01 01:07:56.88	251.24	15.10	-51.5	-66.7	3.8	1.49e+00	0	43	104	0	74	21006
2026-01-01 01:07:59.90	250.85	14.84	-51.6	-66.7	3.8	1.49e+00	0	43	104	0	74	20970
2026-01-01 01:08:02.91	250.48	14.59	-51.6	-66.8	3.8	1.49e+00	0	43	104	0	74	21055
2026-01-01 01:08:05.92	250.11	14.33	-51.6	-66.8	3.8	1.49e+00	0	43	104	0	74	21094
2026-01-01 01:08:08.94	249.74	14.08	-51.5	-66.7	3.8	1.49e+00	0	43	104	0	74	20944
2026-01-01 01:08:11.95	249.38	13.82	-51.6	-66.7	3.8	1.49e+00	0	43	104	0	74	20983
2026-01-01 01:08:14.96	249.03	13.57	-51.5	-66.7	3.8	1.49e+00	0	43	104	0	74	20936
2026-01-01 01:08:17.97	248.69	13.32	-51.5	-66.7	3.8	1.49e+00	0	43	104	0	74	20969
2026-01-01 01:08:20.99	248.35	13.08	-51.5	-66.7	3.8	1.49e+00	0	43	104	0	74	20841
2026-01-01 01:08:24.00	248.01	12.83	-51.5	-66.7	3.8	1.49e+00	0	43	104	0	74	20941
2026-01-01 01:08:27.01	247.68	12.59	-51.5	-66.7	3.8	1.49e+00	0	43	104	0	74	20995
2026-01-01 01:08:30.02	247.36	12.34	-51.5	-66.7	3.8	1.49e+00	0	43	104	0	74	20967
2026-01-01 01:08:33.04	247.04	12.10	-51.5	-66.7	3.8	1.49e+00	0	43	104	0	74	20908
2026-01-01 01:08:36.05	246.73	11.86	-51.5	-66.7	3.8	1.49e+00	0	43	104	0	74	20892
2026-01-01 01:08:39.06	246.42	11.62	-51.5	-66.7	3.8	1.49e+00	0	42	104	0	74	20978
2026-01-01 01:08:42.08	246.12	11.38	-51.6	-66.7	3.8	1.49e+00	0	42	104	0	74	20962
2026-01-01 01:08:45.09	245.82	11.15	-51.5	-66.7	3.8	1.49e+00	0	43	104	0	74	20937
2026-01-01 01:08:48.10	245.53	10.92	-51.5	-66.7	3.8	1.49e+00	0	43	104	0	74	20902
2026-01-01 01:08:51.12	245.24	10.68	-51.5	-66.8	3.8	1.49e+00	0	43	104	0	74	21027
2026-01-01 01:08:54.13	244.96	10.45	-51.6	-66.8	3.8	1.49e+00	0	43	104	0	74	21123
2026-01-01 01:08:57.14	244.68	10.22	-51.6	-66.8	3.8	1.49e+00	0	43	104	0	74	21052
2026-01-01 01:09:00.15	244.41	9.99	-51.6	-66.7	3.8	1.49e+00	0	43	104	0	74	20983
2026-01-01 01:09:03.16	244.14	9.77	-51.6	-66.7	3.8	1.49e+00	0	43	104	0	74	20984
2026-01-01 01:09:06.18	243.87	9.54	-51.6	-66.8	3.8	1.49e+00	0	43	104	0	74	21074
2026-01-01 01:09:09.19	243.61	9.32	-51.6	-66.7	3.8	1.49e+00	0	43	104	0	74	20920
2026-01-01 01:09:12.20	243.36	9.10	-51.6	-66.7	3.8	1.49e+00	0	43	104	0	74	20964
2026-01-01 01:09:15.21	243.10	8.88	-51.6	-66.7	3.8	1.49e+00	0	43	104	0	74	20999
2026-01-01 01:09:18.23	242.85	8.66	-51.6	-66.8	3.8	1.49e+00	0	43	104	0	74	21167
2026-01-01 01:09:21.24	242.61	8.44	-51.6	-66.8	3.8	1.49e+00	0	43	104	0	74	21066
2026-01-01 01:09:24.25	242.37	8.22	-51.6	-66.7	3.8	1.49e+00	0	43	104	0	74	20985
2026-01-01 01:09:27.26	242.13	8.01	-51.6	-66.8	3.8	1.49e+00	0	43	104	0	74	21089
2026-01-01 01:09:30.28	241.89	7.79	-51.5	-66.7	3.8	1.49e+00	0	43	104	0	74	20982
2026-01-01 01:09:33.29	241.66	7.58	-51.6	-66.8	3.8	1.49e+00	0	43	104	0	74	21116
2026-01-01 01:09:36.30	241.43	7.37	-51.6	-66.8	3.8	1.49e+00	0	43	104	0	74	21069
2026-01-01 01:09:39.57	241.19	7.14	-51.6	-66.8	3.8	1.49e+00	0	43	104	0	74	21019
2026-01-01 01:09:42.50	240.98	6.94	-51.6	-66.8	3.8	1.49e+00	0	43	104	0	74	21046
2026-01-01 01:09:46.25	240.71	6.68	-51.6	-66.8	3.8	1.49e+00	0	43	104	0	74	21066
2026-01-01 01:09:49.01	240.51	6.49	-51.6	-66.8	3.8	1.49e+00	0	43	104	0	74	21167
2026-01-01 01:09:52.77	240.25	6.24	-51.5	-66.7	3.8	1.49e+00	0	43	104	0	74	20930
2026-01-01 01:09:55.54	240.06	6.05	-51.5	-66.7	3.8	1.49e+00	0	43	104	0	74	20983
2026-01-01 01:09:59.27	239.80	5.80	-51.6	-66.8	3.8	1.49e+00	0	43	104	0	74	21018
2026-01-01 01:10:02.01	239.62	5.62	-51.6	-66.7	3.8	1.49e+00	0	43	104	0	74	21017
2026-01-01 01:10:05.75	239.38	5.37	-51.5	-66.7	3.8	1.49e+00	0	43	104	0	74	20945
2026-01-01 01:10:08.58	239.19	5.18	-51.5	-66.7	3.8	1.49e+00	0	43	104	0	74	20915
2026-01-01 01:10:12.33	238.95	4.94	-51.6	-66.7	3.8	1.49e+00	0	43	104	0	74	21002

#Closed at: 2026-01-01 01:10:12
#Recorded file [0 MB]: D:/Data/31040_260101_035829.dat