passes_logs/2026/01/01/T1/T1__20260101_093722_AQUA_rec.log

#Pass ID: 20260101_093722_AQUA
#Satellite: AQUA
#Configuration: AQUA
#almurnet v.1.7.20251203
#Start time: 2026-01-01 09:37:22

#Version: 2.0.20230620
#Station: T1
#Location: 37.570604 lon 55.790049 lat
#TLE: 1 27424U 02022A   25364.96158943  .00001951  00000+0  40088-3 0  9998
#TLE: 2 27424  98.4061 326.1389 0001917  95.3187 305.7939 14.61780362258696

#Time	Az	El	Level	Level2	SNR	BER	BlckErr	Temp	State	Recorded	gain1	gain2
2026-01-01 09:37:22.89	89.96	5.02	-54.3	-74.6	3.8	7.46e-01	0	40	0	0	79	39022
2026-01-01 09:37:24.89	89.71	5.13	-54.2	-74.6	3.8	7.44e-01	0	40	104	0	79	38847
2026-01-01 09:37:26.89	89.46	5.23	-54.2	-74.6	3.8	7.49e-01	0	40	104	0	79	38811
2026-01-01 09:37:28.90	89.20	5.33	-54.3	-74.6	3.8	7.44e-01	0	41	104	0	79	39127
2026-01-01 09:37:30.91	88.95	5.44	-54.2	-74.6	3.8	7.45e-01	0	41	104	0	79	39004
2026-01-01 09:37:32.92	88.69	5.54	-54.2	-74.6	3.8	7.46e-01	0	41	104	0	79	38703
2026-01-01 09:37:34.93	88.43	5.64	-54.3	-74.6	3.8	7.44e-01	0	41	104	0	79	38917
2026-01-01 09:37:36.94	88.16	5.75	-54.3	-74.6	3.8	7.43e-01	0	41	104	0	79	39034
2026-01-01 09:37:38.94	87.90	5.85	-54.2	-74.6	3.8	7.47e-01	0	41	104	0	79	39019
2026-01-01 09:37:40.95	87.63	5.96	-54.2	-74.6	3.8	7.47e-01	0	41	104	0	79	38740
2026-01-01 09:37:42.96	87.36	6.06	-54.2	-74.6	3.8	7.41e-01	0	41	104	0	79	39019
2026-01-01 09:37:44.97	87.09	6.16	-54.2	-74.6	3.8	7.47e-01	0	41	104	0	79	38866
2026-01-01 09:37:46.98	86.82	6.27	-54.2	-74.6	3.8	7.43e-01	0	41	104	0	79	38829
2026-01-01 09:37:48.98	86.54	6.37	-54.2	-74.6	3.8	7.47e-01	0	41	104	0	79	38810
2026-01-01 09:37:50.99	86.27	6.47	-54.3	-74.6	3.8	7.44e-01	0	42	104	0	79	38929
2026-01-01 09:37:53.00	85.99	6.57	-54.2	-74.6	3.8	7.47e-01	0	42	104	0	79	38777
2026-01-01 09:37:55.01	85.70	6.68	-54.2	-74.6	3.8	7.43e-01	0	42	104	0	79	38989
2026-01-01 09:37:57.02	85.42	6.78	-54.2	-74.6	3.8	7.45e-01	0	42	104	0	79	38829
2026-01-01 09:37:59.03	85.13	6.88	-54.3	-74.6	3.8	7.43e-01	0	42	104	0	79	38853
2026-01-01 09:38:01.04	84.84	6.98	-54.3	-74.6	3.8	7.44e-01	0	42	104	0	79	39096
2026-01-01 09:38:03.05	84.55	7.09	-54.3	-74.6	3.8	7.44e-01	0	42	104	0	79	39048
2026-01-01 09:38:05.06	84.26	7.19	-54.3	-74.6	3.8	7.46e-01	0	42	104	0	79	39100
2026-01-01 09:38:07.06	83.96	7.29	-54.3	-74.6	3.8	7.44e-01	0	42	104	0	79	39014
2026-01-01 09:38:09.07	83.66	7.39	-54.2	-74.6	3.8	7.47e-01	0	42	104	0	79	38971
2026-01-01 09:38:11.08	83.36	7.49	-54.2	-74.6	3.8	7.45e-01	0	42	104	0	79	38753
2026-01-01 09:38:13.09	83.06	7.59	-54.3	-74.6	3.8	7.49e-01	0	42	104	0	79	38979
2026-01-01 09:38:15.10	82.76	7.69	-54.3	-74.6	3.8	7.49e-01	0	42	104	0	79	39046
2026-01-01 09:38:17.11	82.45	7.80	-54.2	-74.6	3.8	7.43e-01	0	42	104	0	79	38963
2026-01-01 09:38:19.11	82.14	7.89	-54.2	-74.6	3.8	7.46e-01	0	42	104	0	79	38857
2026-01-01 09:38:21.12	81.83	7.99	-54.2	-74.6	3.8	7.49e-01	0	42	104	0	79	38839
2026-01-01 09:38:23.13	81.51	8.09	-54.2	-74.6	3.8	7.46e-01	0	42	104	0	79	38913
2026-01-01 09:38:25.14	81.20	8.19	-54.3	-74.6	3.8	7.49e-01	0	42	104	0	79	39047
2026-01-01 09:38:27.15	80.88	8.29	-54.3	-74.6	3.8	7.46e-01	0	42	104	0	79	39124
2026-01-01 09:38:29.16	80.56	8.39	-54.3	-74.7	3.8	7.47e-01	0	43	104	0	79	39240
2026-01-01 09:38:31.16	80.24	8.49	-54.2	-74.6	3.8	7.44e-01	0	42	104	0	79	38909
2026-01-01 09:38:33.17	79.91	8.59	-54.2	-74.6	3.8	7.45e-01	0	43	104	0	79	38911
2026-01-01 09:38:35.58	79.51	8.70	-54.3	-74.6	3.8	7.50e-01	0	42	104	0	79	39108
2026-01-01 09:38:37.62	79.18	8.80	-54.2	-74.6	3.8	7.46e-01	0	42	104	0	79	39048
2026-01-01 09:38:39.63	78.84	8.90	-54.2	-74.6	3.8	7.46e-01	0	42	104	0	79	38901
2026-01-01 09:38:41.64	78.51	8.99	-54.2	-74.6	3.8	7.47e-01	0	42	104	0	79	38844
2026-01-01 09:38:43.68	78.16	9.09	-54.2	-74.6	3.8	7.44e-01	0	43	104	0	79	38891
2026-01-01 09:38:45.76	77.81	9.19	-54.3	-74.7	3.8	7.46e-01	0	43	104	0	79	39205
2026-01-01 09:38:47.83	77.46	9.29	-54.3	-74.6	3.8	7.47e-01	0	43	104	0	79	39086
2026-01-01 09:38:49.91	77.10	9.38	-54.3	-74.6	3.8	7.46e-01	0	43	104	0	79	39122
2026-01-01 09:38:51.92	76.75	9.48	-54.2	-74.6	3.8	7.45e-01	0	43	104	0	79	38854
2026-01-01 09:38:53.92	76.40	9.57	-54.3	-74.6	3.8	7.46e-01	0	43	104	0	79	38901
2026-01-01 09:38:55.93	76.05	9.66	-54.3	-74.6	3.8	7.44e-01	0	43	104	0	79	39019
2026-01-01 09:38:57.94	75.69	9.75	-54.3	-74.7	3.8	7.45e-01	0	43	104	0	79	39246
2026-01-01 09:38:59.95	75.33	9.84	-54.3	-74.6	3.8	7.45e-01	0	43	104	0	79	39106
2026-01-01 09:39:01.96	74.97	9.93	-54.3	-74.6	3.8	7.43e-01	0	43	104	0	79	39056
2026-01-01 09:39:03.96	74.61	10.02	-54.3	-74.6	3.8	7.48e-01	0	43	104	0	79	39083
2026-01-01 09:39:05.97	74.24	10.11	-54.3	-74.7	3.8	7.45e-01	0	43	104	0	79	39293
2026-01-01 09:39:07.98	73.87	10.20	-54.3	-74.6	3.8	7.46e-01	0	43	104	0	79	39106
2026-01-01 09:39:09.99	73.50	10.29	-54.3	-74.6	3.8	7.44e-01	0	43	104	0	79	38925
2026-01-01 09:39:12.00	73.13	10.37	-54.3	-74.7	3.8	7.47e-01	0	43	104	0	79	39155
2026-01-01 09:39:14.01	72.75	10.46	-54.3	-74.7	3.8	7.46e-01	0	43	104	0	79	39248
2026-01-01 09:39:16.02	72.38	10.54	-54.3	-74.6	3.8	7.45e-01	0	43	104	0	79	38998
2026-01-01 09:39:18.02	72.00	10.63	-54.3	-74.6	3.8	7.46e-01	0	43	104	0	79	39064
2026-01-01 09:39:20.03	71.62	10.71	-54.3	-74.6	3.8	7.48e-01	0	43	104	0	79	38977
2026-01-01 09:39:22.04	71.23	10.79	-54.2	-74.6	3.8	7.50e-01	0	43	104	0	79	38852
2026-01-01 09:39:24.05	70.84	10.88	-54.3	-74.6	3.8	7.43e-01	0	43	104	0	79	38950
2026-01-01 09:39:26.06	70.45	10.96	-54.3	-74.6	3.8	7.46e-01	0	43	104	0	79	39028
2026-01-01 09:39:28.07	70.06	11.04	-54.3	-74.7	3.8	7.44e-01	0	43	104	0	79	39280
2026-01-01 09:39:30.08	69.67	11.12	-54.3	-74.6	3.8	7.46e-01	0	43	104	0	79	39074
2026-01-01 09:39:32.09	69.27	11.19	-54.3	-74.6	3.8	7.47e-01	0	43	104	0	79	39097
2026-01-01 09:39:34.09	68.87	11.27	-54.3	-74.6	3.8	7.46e-01	0	43	104	0	79	38968
2026-01-01 09:39:36.10	68.47	11.35	-54.3	-74.6	3.8	7.48e-01	0	43	104	0	79	39037
2026-01-01 09:39:38.11	68.07	11.42	-54.2	-74.6	3.8	7.48e-01	0	43	104	0	79	38904
2026-01-01 09:39:40.12	67.66	11.50	-54.3	-74.6	3.8	7.46e-01	0	43	104	0	79	38980
2026-01-01 09:39:42.13	67.26	11.57	-54.3	-74.6	3.8	7.45e-01	0	43	104	0	79	39116
2026-01-01 09:39:44.14	66.85	11.64	-54.3	-74.6	3.8	7.48e-01	0	43	104	0	79	39127
2026-01-01 09:39:46.15	66.43	11.71	-54.3	-74.6	3.8	7.42e-01	0	43	104	0	79	39104
2026-01-01 09:39:48.15	66.02	11.78	-54.3	-74.6	3.8	7.43e-01	0	43	104	0	79	39116
2026-01-01 09:39:50.16	65.61	11.85	-54.3	-74.6	3.8	7.47e-01	0	43	104	0	79	38967
2026-01-01 09:39:52.17	65.19	11.92	-54.3	-74.6	3.8	7.46e-01	0	43	104	0	79	38995
2026-01-01 09:39:54.17	64.77	11.98	-54.3	-74.6	3.8	7.44e-01	0	43	104	0	79	38845
2026-01-01 09:39:56.42	64.30	12.05	-54.3	-74.6	3.8	7.47e-01	0	43	104	0	79	38978
2026-01-01 09:39:58.45	63.87	12.12	-54.3	-74.6	3.8	7.45e-01	0	43	104	0	79	38952
2026-01-01 09:40:00.45	63.44	12.18	-54.3	-74.6	3.8	7.47e-01	0	43	104	0	79	39120
2026-01-01 09:40:02.47	63.01	12.24	-54.3	-74.6	3.8	7.44e-01	0	43	104	0	79	38904
2026-01-01 09:40:04.47	62.58	12.30	-54.3	-74.7	3.8	7.46e-01	0	43	104	0	79	39336
2026-01-01 09:40:06.48	62.15	12.36	-54.3	-74.7	3.8	7.46e-01	0	43	104	0	79	39173
2026-01-01 09:40:08.49	61.72	12.42	-54.3	-74.6	3.8	7.48e-01	0	43	104	0	79	39124
2026-01-01 09:40:10.54	61.27	12.47	-54.3	-74.7	3.8	7.46e-01	0	43	104	0	79	39220
2026-01-01 09:40:12.60	60.82	12.53	-54.3	-74.7	3.8	7.46e-01	0	43	104	0	79	39392
2026-01-01 09:40:14.63	60.38	12.58	-54.3	-74.7	3.8	7.44e-01	0	43	104	0	79	39245
2026-01-01 09:40:16.64	59.94	12.63	-54.3	-74.6	3.8	7.42e-01	0	43	104	0	79	39106
2026-01-01 09:40:18.64	59.50	12.68	-54.3	-74.7	3.8	7.44e-01	0	43	104	0	79	39156
2026-01-01 09:40:20.65	59.05	12.73	-54.3	-74.6	3.8	7.46e-01	0	43	104	0	79	39123
2026-01-01 09:40:22.66	58.61	12.78	-54.3	-74.6	3.8	7.44e-01	0	43	104	0	79	39124
2026-01-01 09:40:24.67	58.16	12.82	-54.3	-74.6	3.8	7.46e-01	0	43	104	0	79	39118
2026-01-01 09:40:26.68	57.71	12.86	-54.3	-74.6	3.8	7.46e-01	0	43	104	0	79	39112
2026-01-01 09:40:28.69	57.26	12.91	-54.3	-74.7	3.8	7.43e-01	0	43	104	0	79	39200
2026-01-01 09:40:30.69	56.81	12.95	-54.3	-74.6	3.8	7.43e-01	0	43	104	0	79	38982
2026-01-01 09:40:32.70	56.36	12.99	-54.3	-74.6	3.8	7.45e-01	0	43	104	0	79	38969
2026-01-01 09:40:34.71	55.90	13.02	-54.3	-74.6	3.8	7.42e-01	0	43	104	0	79	38927
2026-01-01 09:40:36.72	55.45	13.06	-54.3	-74.6	3.8	7.47e-01	0	43	104	0	79	38948
2026-01-01 09:40:38.73	54.99	13.09	-54.4	-74.7	3.8	7.46e-01	0	43	104	0	79	39375
2026-01-01 09:40:40.73	54.54	13.12	-54.3	-74.7	3.8	7.44e-01	0	43	104	0	79	39277
2026-01-01 09:40:42.74	54.08	13.16	-54.3	-74.7	3.8	7.45e-01	0	43	104	0	79	39213
2026-01-01 09:40:44.75	53.62	13.18	-54.3	-74.7	3.8	7.47e-01	0	43	104	0	79	39179
2026-01-01 09:40:46.76	53.16	13.21	-54.3	-74.6	3.8	7.45e-01	0	43	104	0	79	38950
2026-01-01 09:40:48.76	52.70	13.24	-54.3	-74.6	3.8	7.44e-01	0	43	104	0	79	39022
2026-01-01 09:40:50.77	52.24	13.26	-54.3	-74.6	3.8	7.46e-01	0	43	104	0	79	39016
2026-01-01 09:40:52.78	51.77	13.28	-54.3	-74.6	3.8	7.44e-01	0	43	104	0	79	38968
2026-01-01 09:40:54.79	51.31	13.30	-54.3	-74.6	3.8	7.47e-01	0	43	104	0	79	38999
2026-01-01 09:40:56.80	50.85	13.32	-54.3	-74.6	3.8	7.47e-01	0	43	104	0	79	39038
2026-01-01 09:40:58.80	50.38	13.34	-54.3	-74.7	3.8	7.47e-01	0	43	104	0	79	39268
2026-01-01 09:41:00.81	49.92	13.36	-54.3	-74.6	3.8	7.45e-01	0	43	104	0	79	39106
2026-01-01 09:41:02.82	49.45	13.37	-54.3	-74.6	3.8	7.49e-01	0	43	104	0	79	38986
2026-01-01 09:41:04.83	48.99	13.38	-54.3	-74.6	3.8	7.47e-01	0	43	104	0	79	38966
2026-01-01 09:41:06.84	48.52	13.39	-54.3	-74.6	3.8	7.48e-01	0	43	104	0	79	39067
2026-01-01 09:41:08.84	48.05	13.40	-54.3	-74.6	3.8	7.46e-01	0	43	104	0	79	38966
2026-01-01 09:41:10.85	47.59	13.41	-54.3	-74.7	3.8	7.45e-01	0	43	104	0	79	39197
2026-01-01 09:41:12.86	47.12	13.41	-54.3	-74.6	3.8	7.43e-01	0	43	104	0	79	39115
2026-01-01 09:41:14.87	46.65	13.41	-54.3	-74.7	3.8	7.45e-01	0	43	104	0	79	39168
2026-01-01 09:41:16.87	46.19	13.41	-54.3	-74.6	3.8	7.45e-01	0	43	104	0	79	39048
2026-01-01 09:41:18.88	45.72	13.41	-54.3	-74.6	3.8	7.45e-01	0	43	104	0	79	39025
2026-01-01 09:41:20.89	45.25	13.41	-54.3	-74.6	3.8	7.44e-01	0	43	104	0	79	39054
2026-01-01 09:41:22.90	44.78	13.41	-54.3	-74.7	3.8	7.47e-01	0	43	104	0	79	39203
2026-01-01 09:41:24.91	44.32	13.40	-54.3	-74.7	3.8	7.46e-01	0	43	104	0	79	39195
2026-01-01 09:41:26.92	43.85	13.39	-54.3	-74.6	3.8	7.51e-01	0	43	104	0	79	38969
2026-01-01 09:41:28.92	43.39	13.38	-54.3	-74.6	3.8	7.47e-01	0	43	104	0	79	38990
2026-01-01 09:41:30.93	42.92	13.37	-54.3	-74.6	3.8	7.44e-01	0	43	104	0	79	38903
2026-01-01 09:41:32.94	42.45	13.36	-54.3	-74.6	3.8	7.46e-01	0	43	104	0	79	39018
2026-01-01 09:41:34.95	41.99	13.35	-54.3	-74.6	3.8	7.49e-01	0	44	104	0	79	39093
2026-01-01 09:41:36.96	41.52	13.33	-54.2	-74.6	3.8	7.48e-01	0	43	104	0	79	38907
2026-01-01 09:41:38.97	41.06	13.31	-54.3	-74.7	3.8	7.50e-01	0	43	104	0	79	39202
2026-01-01 09:41:40.98	40.60	13.29	-54.3	-74.6	3.8	7.49e-01	0	43	104	0	79	39081
2026-01-01 09:41:42.98	40.14	13.27	-54.3	-74.6	3.8	7.46e-01	0	43	104	0	79	39037
2026-01-01 09:41:44.99	39.67	13.25	-54.2	-74.6	3.8	7.47e-01	0	43	104	0	79	38896
2026-01-01 09:41:47.00	39.21	13.22	-54.3	-74.6	3.8	7.46e-01	0	43	104	0	79	38990
2026-01-01 09:41:49.01	38.75	13.19	-54.3	-74.6	3.8	7.48e-01	0	44	104	0	79	39000
2026-01-01 09:41:51.02	38.29	13.17	-54.2	-74.6	3.8	7.47e-01	0	44	104	0	79	39074
2026-01-01 09:41:53.03	37.84	13.13	-54.3	-74.7	3.8	7.48e-01	0	43	104	0	79	39222
2026-01-01 09:41:55.04	37.38	13.10	-54.3	-74.6	3.8	7.46e-01	0	44	104	0	79	38943
2026-01-01 09:41:57.05	36.92	13.07	-54.3	-74.7	3.8	7.46e-01	0	44	104	0	79	39256
2026-01-01 09:41:59.06	36.47	13.03	-54.3	-74.6	3.8	7.48e-01	0	43	104	0	79	39067
2026-01-01 09:42:01.06	36.02	13.00	-54.3	-74.7	3.8	7.45e-01	0	43	104	0	79	39149
2026-01-01 09:42:03.07	35.56	12.96	-54.3	-74.7	3.8	7.46e-01	0	43	104	0	79	39173
2026-01-01 09:42:05.08	35.11	12.92	-54.3	-74.6	3.8	7.44e-01	0	43	104	0	79	38852
2026-01-01 09:42:07.09	34.66	12.88	-54.2	-74.6	3.8	7.45e-01	0	44	104	0	79	38917
2026-01-01 09:42:09.10	34.21	12.84	-54.3	-74.6	3.8	7.49e-01	0	43	104	0	79	39094
2026-01-01 09:42:11.11	33.77	12.79	-54.3	-74.6	3.8	7.48e-01	0	43	104	0	79	39080
2026-01-01 09:42:13.12	33.32	12.75	-54.3	-74.6	3.8	7.44e-01	0	43	104	0	79	39063
2026-01-01 09:42:15.12	32.88	12.70	-54.3	-74.6	3.8	7.44e-01	0	43	104	0	79	38947
2026-01-01 09:42:17.13	32.44	12.65	-54.2	-74.6	3.8	7.45e-01	0	44	104	0	79	38951
2026-01-01 09:42:19.14	32.00	12.60	-54.3	-74.6	3.8	7.49e-01	0	43	104	0	79	39024
2026-01-01 09:42:21.15	31.56	12.55	-54.3	-74.7	3.8	7.45e-01	0	44	104	0	79	39232
2026-01-01 09:42:23.16	31.12	12.49	-54.3	-74.7	3.8	7.47e-01	0	43	104	0	79	39182
2026-01-01 09:42:25.16	30.69	12.44	-54.2	-74.6	3.8	7.48e-01	0	44	104	0	79	38985
2026-01-01 09:42:27.17	30.25	12.38	-54.2	-74.6	3.8	7.46e-01	0	43	104	0	79	38907
2026-01-01 09:42:29.18	29.82	12.33	-54.2	-74.6	3.8	7.45e-01	0	43	104	0	79	38794
2026-01-01 09:42:31.19	29.39	12.27	-54.3	-74.7	3.8	7.48e-01	0	43	104	0	79	39318
2026-01-01 09:42:33.26	28.95	12.20	-54.3	-74.6	3.8	7.45e-01	0	44	104	0	79	38990
2026-01-01 09:42:35.29	28.52	12.14	-54.2	-74.6	3.8	7.47e-01	0	43	104	0	79	38880
2026-01-01 09:42:37.34	28.09	12.08	-54.3	-74.7	3.8	7.49e-01	0	44	104	0	79	39180
2026-01-01 09:42:39.35	27.67	12.01	-54.2	-74.6	3.8	7.48e-01	0	44	104	0	79	39020
2026-01-01 09:42:41.36	27.25	11.95	-54.2	-74.6	3.8	7.45e-01	0	43	104	0	79	38729
2026-01-01 09:42:43.36	26.83	11.88	-54.2	-74.6	3.8	7.45e-01	0	44	104	0	79	38864
2026-01-01 09:42:45.44	26.40	11.81	-54.2	-74.6	3.8	7.47e-01	0	44	104	0	79	38942
2026-01-01 09:42:47.46	25.98	11.74	-54.2	-74.6	3.8	7.47e-01	0	43	104	0	79	38974
2026-01-01 09:42:49.55	25.56	11.67	-54.2	-74.6	3.8	7.42e-01	0	44	104	0	79	38841
2026-01-01 09:42:51.59	25.14	11.60	-54.2	-74.6	3.8	7.46e-01	0	43	104	0	79	38896
2026-01-01 09:42:53.63	24.73	11.52	-54.3	-74.6	3.8	7.46e-01	0	44	104	0	79	39007
2026-01-01 09:42:55.67	24.32	11.45	-54.2	-74.6	3.8	7.47e-01	0	44	104	0	79	38956
2026-01-01 09:42:57.71	23.91	11.37	-54.3	-74.6	3.8	7.45e-01	0	44	104	0	79	38845
2026-01-01 09:42:59.75	23.50	11.30	-54.2	-74.6	3.8	7.45e-01	0	43	104	0	79	38883
2026-01-01 09:43:01.76	23.10	11.22	-54.3	-74.6	3.8	7.46e-01	0	44	104	0	79	39103
2026-01-01 09:43:03.77	22.71	11.14	-54.2	-74.6	3.8	7.45e-01	0	43	104	0	79	38743
2026-01-01 09:43:05.78	22.32	11.07	-54.2	-74.6	3.8	7.47e-01	0	44	104	0	79	38877
2026-01-01 09:43:07.79	21.92	10.99	-54.2	-74.6	3.8	7.46e-01	0	44	104	0	79	38950
2026-01-01 09:43:09.79	21.54	10.91	-54.3	-74.6	3.8	7.43e-01	0	44	104	0	79	39081
2026-01-01 09:43:11.80	21.15	10.82	-54.3	-74.6	3.8	7.46e-01	0	44	104	0	79	39102
2026-01-01 09:43:13.81	20.77	10.74	-54.2	-74.6	3.8	7.47e-01	0	44	104	0	79	38933
2026-01-01 09:43:15.82	20.39	10.66	-54.2	-74.6	3.8	7.45e-01	0	43	104	0	79	38897
2026-01-01 09:43:17.83	20.01	10.58	-54.2	-74.6	3.8	7.47e-01	0	43	104	0	79	38971
2026-01-01 09:43:19.83	19.63	10.49	-54.2	-74.6	3.8	7.44e-01	0	44	104	0	79	38710
2026-01-01 09:43:21.84	19.26	10.41	-54.3	-74.6	3.8	7.48e-01	0	44	104	0	79	38888
2026-01-01 09:43:23.85	18.88	10.32	-54.3	-74.6	3.8	7.45e-01	0	43	104	0	79	38989
2026-01-01 09:43:25.86	18.52	10.23	-54.2	-74.6	3.8	7.48e-01	0	43	104	0	79	38979
2026-01-01 09:43:27.87	18.15	10.14	-54.2	-74.6	3.8	7.48e-01	0	44	104	0	79	38976
2026-01-01 09:43:29.88	17.78	10.06	-54.2	-74.5	3.8	7.46e-01	0	44	104	0	79	38621
2026-01-01 09:43:31.88	17.42	9.97	-54.3	-74.7	3.8	7.46e-01	0	44	104	0	79	39179
2026-01-01 09:43:33.89	17.06	9.88	-54.3	-74.7	3.8	7.46e-01	0	44	104	0	79	39260
2026-01-01 09:43:35.90	16.71	9.79	-54.3	-74.7	3.8	7.46e-01	0	44	104	0	79	39258
2026-01-01 09:43:37.91	16.35	9.70	-54.3	-74.6	3.8	7.46e-01	0	44	104	0	79	39028
2026-01-01 09:43:39.92	16.00	9.60	-54.3	-74.6	3.8	7.44e-01	0	43	104	0	79	38902
2026-01-01 09:43:41.92	15.65	9.51	-54.2	-74.6	3.8	7.44e-01	0	44	104	0	79	38775
2026-01-01 09:43:43.93	15.30	9.42	-54.3	-74.7	3.8	7.44e-01	0	44	104	0	79	39136
2026-01-01 09:43:45.94	14.96	9.33	-54.3	-74.7	3.8	7.44e-01	0	44	104	0	79	39223
2026-01-01 09:43:47.95	14.61	9.23	-54.3	-74.6	3.8	7.46e-01	0	44	104	0	79	38988
2026-01-01 09:43:49.96	14.27	9.14	-54.2	-74.6	3.8	7.46e-01	0	44	104	0	79	38773
2026-01-01 09:43:51.97	13.94	9.04	-54.2	-74.6	3.8	7.48e-01	0	44	104	0	79	38921
2026-01-01 09:43:53.98	13.60	8.95	-54.3	-74.7	3.8	7.46e-01	0	43	104	0	79	39167
2026-01-01 09:43:55.98	13.27	8.85	-54.2	-74.6	3.8	7.51e-01	0	44	104	0	79	38929
2026-01-01 09:43:57.99	12.94	8.76	-54.3	-74.6	3.8	7.45e-01	0	44	104	0	79	39021
2026-01-01 09:44:00.00	12.61	8.66	-54.2	-74.6	3.8	7.45e-01	0	44	104	0	79	38878
2026-01-01 09:44:02.01	12.28	8.56	-54.2	-74.6	3.8	7.44e-01	0	44	104	0	79	38910
2026-01-01 09:44:04.02	11.96	8.47	-54.3	-74.6	3.8	7.48e-01	0	44	104	0	79	39025
2026-01-01 09:44:06.03	11.64	8.37	-54.2	-74.6	3.8	7.50e-01	0	43	104	0	79	38914
2026-01-01 09:44:08.04	11.32	8.27	-54.3	-74.6	3.8	7.45e-01	0	44	104	0	79	39126
2026-01-01 09:44:10.04	11.01	8.17	-54.3	-74.6	3.8	7.46e-01	0	43	104	0	79	39018
2026-01-01 09:44:12.05	10.69	8.07	-54.2	-74.6	3.8	7.46e-01	0	44	104	0	79	38920
2026-01-01 09:44:14.06	10.38	7.97	-54.2	-74.6	3.8	7.43e-01	0	44	104	0	79	38970
2026-01-01 09:44:16.07	10.07	7.87	-54.2	-74.6	3.8	7.46e-01	0	44	104	0	79	38926
2026-01-01 09:44:18.07	9.77	7.77	-54.3	-74.6	3.8	7.47e-01	0	43	104	0	79	39058
2026-01-01 09:44:20.08	9.46	7.67	-54.2	-74.6	3.8	7.46e-01	0	43	104	0	79	38950
2026-01-01 09:44:22.09	9.16	7.57	-54.2	-74.6	3.8	7.45e-01	0	44	104	0	79	38936
2026-01-01 09:44:24.10	8.86	7.47	-54.2	-74.6	3.8	7.47e-01	0	43	104	0	79	38704
2026-01-01 09:44:26.10	8.56	7.37	-54.3	-74.7	3.8	7.45e-01	0	44	104	0	79	39146
2026-01-01 09:44:28.12	8.27	7.27	-54.2	-74.6	3.8	7.50e-01	0	44	104	0	79	38827
2026-01-01 09:44:30.12	7.97	7.17	-54.2	-74.6	3.8	7.47e-01	0	43	104	0	79	38833
2026-01-01 09:44:32.13	7.68	7.07	-54.3	-74.6	3.8	7.48e-01	0	43	104	0	79	39129
2026-01-01 09:44:34.14	7.40	6.96	-54.2	-74.6	3.8	7.49e-01	0	44	104	0	79	38728
2026-01-01 09:44:36.15	7.11	6.86	-54.2	-74.6	3.8	7.46e-01	0	43	104	0	79	39013
2026-01-01 09:44:38.16	6.83	6.76	-54.3	-74.7	3.8	7.46e-01	0	44	104	0	79	39138
2026-01-01 09:44:40.17	6.54	6.66	-54.2	-74.6	3.8	7.46e-01	0	43	104	0	79	38984
2026-01-01 09:44:42.17	6.27	6.56	-54.2	-74.6	3.8	7.47e-01	0	44	104	0	79	38770
2026-01-01 09:44:44.18	5.99	6.45	-54.2	-74.6	3.8	7.46e-01	0	44	104	0	79	38839
2026-01-01 09:44:46.37	5.69	6.34	-54.2	-74.6	3.8	7.49e-01	0	44	104	0	79	38875
2026-01-01 09:44:48.37	5.42	6.24	-54.2	-74.6	3.8	7.44e-01	0	44	104	0	79	38743
2026-01-01 09:44:50.38	5.15	6.14	-54.2	-74.6	3.8	7.44e-01	0	44	104	0	79	38716
2026-01-01 09:44:52.39	4.88	6.03	-54.2	-74.6	3.8	7.43e-01	0	43	104	0	79	38977
2026-01-01 09:44:54.40	4.61	5.93	-54.2	-74.6	3.8	7.43e-01	0	43	104	0	79	38970
2026-01-01 09:44:56.41	4.35	5.83	-54.2	-74.6	3.8	7.45e-01	0	43	104	0	79	38804
2026-01-01 09:44:58.45	4.08	5.72	-54.2	-74.6	3.8	7.46e-01	0	43	104	0	79	38785
2026-01-01 09:45:00.48	3.82	5.62	-54.2	-74.6	3.8	7.45e-01	0	44	104	0	79	38984
2026-01-01 09:45:02.53	3.56	5.51	-54.2	-74.6	3.8	7.46e-01	0	43	104	0	79	38815
2026-01-01 09:45:04.57	3.30	5.41	-54.2	-74.6	3.8	7.45e-01	0	43	104	0	79	38792
2026-01-01 09:45:06.61	3.04	5.30	-54.3	-74.6	3.8	7.45e-01	0	43	104	0	79	39026
2026-01-01 09:45:08.62	2.79	5.20	-54.2	-74.6	3.8	7.45e-01	0	44	104	0	79	38859
2026-01-01 09:45:10.63	2.54	5.09	-54.2	-74.6	3.8	7.50e-01	0	43	104	0	79	38768
2026-01-01 09:45:12.64	2.29	4.99	-54.2	-74.6	3.8	7.46e-01	0	44	104	0	79	38885

#Closed at: 2026-01-01 09:45:13
#Recorded file [0 MB]: D:/Data/31040_260101_123722.dat