passes_logs/2026/01/01/T1/T1__20260101_081949_NOAA_21_JPSS-2_rec.log

#Pass ID: 20260101_081949_NOAA 21 (JPSS-2)
#Satellite: NOAA 21 (JPSS-2)
#Configuration: NOAA 21
#almurnet v.1.7.20251203
#Start time: 2026-01-01 08:19:50

#Version: 2.0.20230620
#Station: T1
#Location: 37.570604 lon 55.790049 lat
#TLE: 1 54234U 22150A   25365.42224288  .00000199  00000+0  11529-3 0  9990
#TLE: 2 54234  98.7483 301.4995 0001320 356.2106   3.9060 14.19530300162743

#Time	Az	El	Level	Level2	SNR	BER	BlckErr	Temp	State	Recorded	gain1	gain2
2026-01-01 08:19:50.72	109.62	5.06	-51.4	-64.4	3.8	1.49e+00	0	38	0	0	73	16889
2026-01-01 08:19:53.73	109.38	5.25	-51.4	-64.4	3.8	1.49e+00	0	38	104	0	74	16007
2026-01-01 08:19:56.74	109.13	5.43	-51.4	-64.4	3.8	1.49e+00	0	38	104	0	74	16002
2026-01-01 08:19:59.75	108.88	5.62	-51.4	-64.4	3.8	1.49e+00	0	38	104	0	74	15975
2026-01-01 08:20:02.76	108.63	5.81	-51.4	-64.4	3.8	1.49e+00	0	38	104	0	74	16068
2026-01-01 08:20:05.78	108.37	5.99	-51.4	-64.4	3.8	1.49e+00	0	38	104	0	74	15996
2026-01-01 08:20:08.79	108.11	6.18	-51.4	-64.4	3.8	1.49e+00	0	38	104	0	74	16012
2026-01-01 08:20:11.80	107.85	6.37	-51.4	-64.4	3.8	1.49e+00	0	39	104	0	74	16046
2026-01-01 08:20:14.81	107.58	6.56	-51.4	-64.4	3.8	1.49e+00	0	39	104	0	74	16005
2026-01-01 08:20:17.83	107.31	6.75	-51.4	-64.4	3.8	1.49e+00	0	39	104	0	74	16015
2026-01-01 08:20:20.84	107.04	6.94	-51.4	-64.4	3.8	1.49e+00	0	39	104	0	74	15993
2026-01-01 08:20:23.85	106.76	7.14	-51.4	-64.4	3.8	1.49e+00	0	39	104	0	74	15958
2026-01-01 08:20:26.86	106.48	7.33	-51.4	-64.4	3.8	1.49e+00	0	39	104	0	74	16081
2026-01-01 08:20:29.87	106.19	7.52	-51.4	-64.4	3.8	1.49e+00	0	39	104	0	74	15972
2026-01-01 08:20:32.88	105.90	7.72	-51.4	-64.4	3.8	1.49e+00	0	39	104	0	74	15975
2026-01-01 08:20:35.90	105.61	7.91	-51.4	-64.4	3.8	1.49e+00	0	39	104	0	74	15966
2026-01-01 08:20:38.91	105.31	8.11	-51.4	-64.4	3.8	1.49e+00	0	39	104	0	74	16008
2026-01-01 08:20:41.92	105.01	8.31	-51.4	-64.4	3.8	1.49e+00	0	39	104	0	74	16017
2026-01-01 08:20:44.93	104.71	8.51	-51.4	-64.4	3.8	1.49e+00	0	39	104	0	74	15964
2026-01-01 08:20:47.95	104.40	8.71	-51.4	-64.4	3.8	1.49e+00	0	39	104	0	74	16027
2026-01-01 08:20:50.96	104.08	8.90	-51.4	-64.4	3.8	1.49e+00	0	39	104	0	74	16027
2026-01-01 08:20:53.97	103.76	9.11	-51.4	-64.4	3.8	1.49e+00	0	39	104	0	74	16012
2026-01-01 08:20:56.99	103.44	9.31	-51.4	-64.4	3.8	1.49e+00	0	40	104	0	74	16045
2026-01-01 08:21:00.00	103.11	9.51	-51.4	-64.4	3.8	1.49e+00	0	40	104	0	74	15974
2026-01-01 08:21:03.01	102.78	9.71	-51.4	-64.4	3.8	1.49e+00	0	40	104	0	74	16055
2026-01-01 08:21:06.02	102.44	9.91	-51.4	-64.4	3.8	1.49e+00	0	40	104	0	74	15991
2026-01-01 08:21:09.03	102.10	10.12	-51.4	-64.4	3.8	1.49e+00	0	40	104	0	74	15945
2026-01-01 08:21:12.05	101.75	10.32	-51.4	-64.4	3.8	1.49e+00	0	40	104	0	74	15952
2026-01-01 08:21:15.06	101.40	10.53	-51.4	-64.4	3.8	1.49e+00	0	40	104	0	74	16076
2026-01-01 08:21:18.07	101.05	10.73	-51.4	-64.4	3.8	1.49e+00	0	40	104	0	74	15973
2026-01-01 08:21:21.09	100.68	10.94	-51.4	-64.3	3.8	1.49e+00	0	40	104	0	74	15907
2026-01-01 08:21:24.10	100.32	11.15	-51.4	-64.4	3.8	1.49e+00	0	40	104	0	74	15981
2026-01-01 08:21:27.11	99.94	11.36	-51.4	-64.4	3.8	1.49e+00	0	40	104	0	74	15949
2026-01-01 08:21:30.12	99.56	11.57	-51.4	-64.4	3.8	1.49e+00	0	40	104	0	74	15956
2026-01-01 08:21:33.14	99.18	11.77	-51.4	-64.3	3.8	1.49e+00	0	40	104	0	74	15916
2026-01-01 08:21:36.15	98.79	11.98	-51.4	-64.4	3.8	1.49e+00	0	40	104	0	74	15944
2026-01-01 08:21:39.16	98.40	12.19	-51.4	-64.3	3.8	1.49e+00	0	40	104	0	74	15933
2026-01-01 08:21:42.18	98.00	12.41	-51.3	-64.3	3.8	1.49e+00	0	40	104	0	74	15881
2026-01-01 08:21:45.19	97.59	12.62	-51.4	-64.3	3.8	1.49e+00	0	40	104	0	74	15925
2026-01-01 08:21:48.20	97.18	12.83	-51.4	-64.3	3.8	1.49e+00	0	40	104	0	74	15941
2026-01-01 08:21:51.22	96.76	13.04	-51.4	-64.4	3.8	1.49e+00	0	40	104	0	74	16009
2026-01-01 08:21:54.23	96.33	13.25	-51.4	-64.4	3.8	1.49e+00	0	40	104	0	74	15990
2026-01-01 08:21:57.24	95.90	13.46	-51.4	-64.4	3.8	1.49e+00	0	40	104	0	74	16004
2026-01-01 08:22:00.25	95.47	13.68	-51.4	-64.4	3.8	1.49e+00	0	40	104	0	74	15994
2026-01-01 08:22:03.27	95.02	13.89	-51.4	-64.4	3.8	1.49e+00	0	40	104	0	74	16062
2026-01-01 08:22:06.28	94.57	14.10	-51.4	-64.4	3.8	1.49e+00	0	40	104	0	74	16005
2026-01-01 08:22:09.29	94.12	14.31	-51.4	-64.4	3.8	1.49e+00	0	40	104	0	74	16014
2026-01-01 08:22:12.30	93.65	14.53	-51.4	-64.4	3.8	1.49e+00	0	40	104	0	74	16023
2026-01-01 08:22:15.32	93.18	14.74	-51.4	-64.4	3.8	1.49e+00	0	41	104	0	74	16035
2026-01-01 08:22:18.33	92.71	14.95	-51.4	-64.4	3.8	1.49e+00	0	40	104	0	74	16032
2026-01-01 08:22:21.34	92.22	15.16	-51.4	-64.3	3.8	1.49e+00	0	41	104	0	74	15941
2026-01-01 08:22:24.36	91.73	15.38	-51.4	-64.4	3.8	1.49e+00	0	40	104	0	74	15949
2026-01-01 08:22:27.37	91.23	15.59	-51.4	-64.4	3.8	1.49e+00	0	41	104	0	74	16013
2026-01-01 08:22:30.38	90.73	15.80	-51.4	-64.4	3.8	1.49e+00	0	41	104	0	74	16034
2026-01-01 08:22:33.40	90.21	16.01	-51.4	-64.4	3.8	1.49e+00	0	41	104	0	74	16025
2026-01-01 08:22:36.41	89.70	16.22	-51.5	-64.4	3.8	1.49e+00	0	41	104	0	74	16099
2026-01-01 08:22:39.42	89.17	16.43	-51.4	-64.4	3.8	1.49e+00	0	41	104	0	74	15995
2026-01-01 08:22:42.43	88.63	16.64	-51.4	-64.4	3.8	1.49e+00	0	40	104	0	74	16055
2026-01-01 08:22:45.45	88.09	16.85	-51.4	-64.4	3.8	1.49e+00	0	41	104	0	74	15960
2026-01-01 08:22:48.46	87.54	17.06	-51.4	-64.4	3.8	1.49e+00	0	41	104	0	74	16040
2026-01-01 08:22:51.47	86.99	17.26	-51.4	-64.4	3.8	1.49e+00	0	41	104	0	74	16095
2026-01-01 08:22:54.49	86.42	17.47	-51.4	-64.4	3.8	1.49e+00	0	41	104	0	74	16046
2026-01-01 08:22:57.50	85.85	17.67	-51.4	-64.4	3.8	1.49e+00	0	41	104	0	74	16059
2026-01-01 08:23:00.51	85.27	17.88	-51.4	-64.4	3.8	1.49e+00	0	41	104	0	74	16047
2026-01-01 08:23:03.53	84.68	18.08	-51.4	-64.4	3.8	1.49e+00	0	41	104	0	74	16050
2026-01-01 08:23:06.54	84.08	18.28	-51.4	-64.4	3.8	1.49e+00	0	41	104	0	74	16090
2026-01-01 08:23:09.55	83.48	18.48	-51.4	-64.4	3.8	1.49e+00	0	41	104	0	74	16015
2026-01-01 08:23:12.56	82.87	18.67	-51.4	-64.4	3.8	1.49e+00	0	41	104	0	74	16055
2026-01-01 08:23:15.58	82.24	18.87	-51.4	-64.4	3.8	1.49e+00	0	41	104	0	74	16050
2026-01-01 08:23:18.58	81.62	19.06	-51.4	-64.4	3.8	1.49e+00	0	41	104	0	74	15989
2026-01-01 08:23:21.59	80.98	19.25	-51.4	-64.4	3.8	1.49e+00	0	41	104	0	74	16013
2026-01-01 08:23:24.61	80.34	19.44	-51.4	-64.4	3.8	1.49e+00	0	41	104	0	74	16060
2026-01-01 08:23:27.62	79.69	19.63	-51.4	-64.4	3.8	1.49e+00	0	41	104	0	74	16000
2026-01-01 08:23:30.63	79.03	19.81	-51.4	-64.4	3.8	1.49e+00	0	41	104	0	74	16046
2026-01-01 08:23:33.64	78.36	19.99	-51.4	-64.4	3.8	1.49e+00	0	41	104	0	74	15998
2026-01-01 08:23:36.66	77.68	20.17	-51.4	-64.4	3.8	1.49e+00	0	41	104	0	74	16002
2026-01-01 08:23:39.67	77.00	20.34	-51.4	-64.4	3.8	1.49e+00	0	41	104	0	74	15959
2026-01-01 08:23:42.68	76.31	20.51	-51.4	-64.4	3.8	1.49e+00	0	41	104	0	74	16026
2026-01-01 08:23:45.70	75.61	20.68	-51.4	-64.4	3.8	1.49e+00	0	41	104	0	74	16021
2026-01-01 08:23:48.71	74.90	20.85	-51.4	-64.4	3.8	1.49e+00	0	41	104	0	74	16043
2026-01-01 08:23:51.72	74.19	21.01	-51.4	-64.4	3.8	1.49e+00	0	41	104	0	74	16081
2026-01-01 08:23:54.73	73.47	21.17	-51.5	-64.4	3.8	1.49e+00	0	41	104	0	74	16085
2026-01-01 08:23:57.74	72.74	21.32	-51.4	-64.4	3.8	1.49e+00	0	41	104	0	74	16055
2026-01-01 08:24:00.76	72.00	21.47	-51.4	-64.4	3.8	1.49e+00	0	41	104	0	74	16028
2026-01-01 08:24:03.77	71.26	21.62	-51.4	-64.4	3.8	1.49e+00	0	41	104	0	74	15980
2026-01-01 08:24:06.78	70.51	21.76	-51.4	-64.4	3.8	1.49e+00	0	41	104	0	74	15979
2026-01-01 08:24:09.80	69.75	21.89	-51.4	-64.4	3.8	1.49e+00	0	41	104	0	74	16071
2026-01-01 08:24:12.81	68.99	22.03	-51.4	-64.4	3.8	1.49e+00	0	41	104	0	74	15974
2026-01-01 08:24:15.82	68.22	22.15	-51.4	-64.4	3.8	1.49e+00	0	41	104	0	74	15962
2026-01-01 08:24:18.84	67.44	22.27	-51.4	-64.3	3.8	1.49e+00	0	41	104	0	74	15909
2026-01-01 08:24:21.85	66.66	22.39	-51.4	-64.4	3.8	1.49e+00	0	41	104	0	74	15952
2026-01-01 08:24:24.86	65.87	22.50	-51.4	-64.3	3.8	1.49e+00	0	41	104	0	74	15899
2026-01-01 08:24:27.88	65.08	22.61	-51.4	-64.4	3.8	1.49e+00	0	41	104	0	74	16011
2026-01-01 08:24:30.89	64.28	22.71	-51.4	-64.4	3.8	1.49e+00	0	41	104	0	74	15950
2026-01-01 08:24:33.90	63.47	22.81	-51.4	-64.4	3.8	1.49e+00	0	41	104	0	74	15998
2026-01-01 08:24:36.92	62.66	22.90	-51.4	-64.3	3.8	1.49e+00	0	41	104	0	74	15938
2026-01-01 08:24:39.93	61.85	22.98	-51.4	-64.4	3.8	1.49e+00	0	41	104	0	74	15965
2026-01-01 08:24:42.94	61.04	23.06	-51.4	-64.3	3.8	1.49e+00	0	41	104	0	74	15867
2026-01-01 08:24:45.95	60.21	23.13	-51.4	-64.3	3.8	1.49e+00	0	41	104	0	74	15919
2026-01-01 08:24:48.96	59.39	23.19	-51.4	-64.3	3.8	1.49e+00	0	41	104	0	74	15922
2026-01-01 08:24:51.98	58.56	23.25	-51.4	-64.4	3.8	1.49e+00	0	41	104	0	74	15954
2026-01-01 08:24:54.99	57.73	23.31	-51.4	-64.3	3.8	1.49e+00	0	41	104	0	74	15939
2026-01-01 08:24:58.00	56.90	23.35	-51.4	-64.4	3.8	1.49e+00	0	41	104	0	74	16009
2026-01-01 08:25:01.01	56.06	23.39	-51.4	-64.4	3.8	1.49e+00	0	41	104	0	74	15998
2026-01-01 08:25:04.03	55.22	23.43	-51.4	-64.3	3.8	1.49e+00	0	41	104	0	74	15934
2026-01-01 08:25:07.04	54.39	23.45	-51.4	-64.4	3.8	1.49e+00	0	41	104	0	74	16009
2026-01-01 08:25:10.05	53.55	23.47	-51.4	-64.4	3.8	1.49e+00	0	41	104	0	74	15957
2026-01-01 08:25:13.06	52.71	23.49	-51.4	-64.4	3.8	1.49e+00	0	41	104	0	74	15977
2026-01-01 08:25:16.08	51.86	23.49	-51.4	-64.4	3.8	1.49e+00	0	41	104	0	74	15978
2026-01-01 08:25:19.09	51.02	23.49	-51.4	-64.4	3.8	1.49e+00	0	41	104	0	74	15969
2026-01-01 08:25:22.10	50.18	23.49	-51.4	-64.4	3.8	1.49e+00	0	41	104	0	74	15960
2026-01-01 08:25:25.12	49.34	23.47	-51.4	-64.4	3.8	1.49e+00	0	41	104	0	74	15965
2026-01-01 08:25:28.13	48.50	23.45	-51.4	-64.3	3.8	1.49e+00	0	41	104	0	74	15872
2026-01-01 08:25:31.14	47.66	23.43	-51.4	-64.3	3.8	1.49e+00	0	41	104	0	74	15935
2026-01-01 08:25:34.16	46.82	23.40	-51.4	-64.4	3.8	1.49e+00	0	41	104	0	74	15990
2026-01-01 08:25:37.17	45.99	23.36	-51.4	-64.4	3.8	1.49e+00	0	41	104	0	74	15965
2026-01-01 08:25:40.18	45.15	23.31	-51.4	-64.4	3.8	1.49e+00	0	41	104	0	74	16009
2026-01-01 08:25:43.20	44.32	23.26	-51.4	-64.4	3.8	1.49e+00	0	41	104	0	74	15968
2026-01-01 08:25:46.21	43.50	23.20	-51.4	-64.4	3.8	1.49e+00	0	41	104	0	74	15959
2026-01-01 08:25:49.22	42.67	23.13	-51.4	-64.3	3.8	1.49e+00	0	41	104	0	74	15920
2026-01-01 08:25:52.23	41.85	23.06	-51.4	-64.4	3.8	1.49e+00	0	41	104	0	74	16001
2026-01-01 08:25:55.25	41.04	22.99	-51.4	-64.4	3.8	1.49e+00	0	41	104	0	74	16016
2026-01-01 08:25:58.26	40.22	22.90	-51.4	-64.4	3.8	1.49e+00	0	41	104	0	74	15951
2026-01-01 08:26:01.27	39.42	22.81	-51.4	-64.4	3.8	1.49e+00	0	41	104	0	74	15950
2026-01-01 08:26:04.28	38.62	22.72	-51.4	-64.4	3.8	1.49e+00	0	41	104	0	74	16090
2026-01-01 08:26:07.29	37.82	22.62	-51.5	-64.4	3.8	1.49e+00	0	41	104	0	74	16118
2026-01-01 08:26:10.31	37.03	22.51	-51.5	-64.4	3.8	1.49e+00	0	41	104	0	74	16117
2026-01-01 08:26:13.32	36.24	22.40	-51.4	-64.4	3.8	1.49e+00	0	41	104	0	74	15970
2026-01-01 08:26:16.33	35.46	22.29	-51.4	-64.4	3.8	1.49e+00	0	41	104	0	74	16043
2026-01-01 08:26:19.35	34.68	22.17	-51.4	-64.4	3.8	1.49e+00	0	41	104	0	74	16050
2026-01-01 08:26:22.36	33.92	22.04	-51.4	-64.4	3.8	1.49e+00	0	41	104	0	74	16066
2026-01-01 08:26:25.37	33.15	21.91	-51.4	-64.4	3.8	1.49e+00	0	41	104	0	74	16046
2026-01-01 08:26:28.38	32.40	21.77	-51.4	-64.4	3.8	1.49e+00	0	41	104	0	74	16091
2026-01-01 08:26:31.40	31.65	21.63	-51.5	-64.5	3.8	1.49e+00	0	41	104	0	74	16142
2026-01-01 08:26:34.41	30.91	21.49	-51.5	-64.4	3.8	1.49e+00	0	41	104	0	74	16108
2026-01-01 08:26:37.42	30.18	21.34	-51.5	-64.5	3.8	1.49e+00	0	41	104	0	74	16162
2026-01-01 08:26:40.43	29.45	21.19	-51.5	-64.5	3.8	1.49e+00	0	41	104	0	74	16152
2026-01-01 08:26:43.45	28.73	21.03	-51.5	-64.4	3.8	1.49e+00	0	41	104	0	74	16110
2026-01-01 08:26:46.46	28.02	20.87	-51.5	-64.5	3.8	1.49e+00	0	41	104	0	74	16128
2026-01-01 08:26:49.47	27.31	20.71	-51.5	-64.5	3.8	1.49e+00	0	41	104	0	74	16190
2026-01-01 08:26:52.49	26.61	20.54	-51.5	-64.5	3.8	1.49e+00	0	41	104	0	74	16137
2026-01-01 08:26:55.50	25.92	20.37	-51.5	-64.5	3.8	1.49e+00	0	41	104	0	74	16171
2026-01-01 08:26:58.51	25.24	20.19	-51.5	-64.5	3.8	1.49e+00	0	41	104	0	74	16135
2026-01-01 08:27:01.52	24.57	20.02	-51.5	-64.5	3.8	1.49e+00	0	41	104	0	74	16148
2026-01-01 08:27:04.53	23.91	19.84	-51.5	-64.5	3.8	1.49e+00	0	41	104	0	74	16214
2026-01-01 08:27:07.55	23.25	19.65	-51.5	-64.5	3.8	1.49e+00	0	41	104	0	74	16196
2026-01-01 08:27:10.56	22.60	19.47	-51.5	-64.5	3.8	1.49e+00	0	41	104	0	74	16188
2026-01-01 08:27:13.57	21.96	19.28	-51.5	-64.4	3.8	1.49e+00	0	41	104	0	74	16105
2026-01-01 08:27:16.58	21.32	19.09	-51.5	-64.5	3.8	1.49e+00	0	41	104	0	74	16143
2026-01-01 08:27:19.60	20.70	18.90	-51.5	-64.4	3.8	1.49e+00	0	41	104	0	74	16090
2026-01-01 08:27:22.61	20.08	18.71	-51.5	-64.4	3.8	1.49e+00	0	41	104	0	74	16097
2026-01-01 08:27:25.62	19.47	18.51	-51.5	-64.5	3.8	1.49e+00	0	41	104	0	74	16167
2026-01-01 08:27:28.63	18.87	18.31	-51.5	-64.4	3.8	1.49e+00	0	41	104	0	74	16075
2026-01-01 08:27:31.65	18.27	18.11	-51.5	-64.5	3.8	1.49e+00	0	41	104	0	74	16151
2026-01-01 08:27:34.66	17.69	17.91	-51.5	-64.4	3.8	1.49e+00	0	41	104	0	74	16104
2026-01-01 08:27:37.67	17.11	17.71	-51.5	-64.4	3.8	1.49e+00	0	41	104	0	74	16116
2026-01-01 08:27:40.69	16.54	17.51	-51.5	-64.5	3.8	1.49e+00	0	41	104	0	74	16192
2026-01-01 08:27:43.70	15.98	17.30	-51.5	-64.5	3.8	1.49e+00	0	41	104	0	74	16180
2026-01-01 08:27:46.71	15.42	17.10	-51.5	-64.5	3.8	1.49e+00	0	41	104	0	74	16155
2026-01-01 08:27:49.72	14.88	16.89	-51.5	-64.5	3.8	1.49e+00	0	41	104	0	74	16203
2026-01-01 08:27:52.74	14.33	16.68	-51.5	-64.5	3.8	1.49e+00	0	41	104	0	74	16158
2026-01-01 08:27:55.75	13.80	16.48	-51.5	-64.5	3.8	1.49e+00	0	41	104	0	74	16137
2026-01-01 08:27:58.76	13.28	16.27	-51.5	-64.5	3.8	1.49e+00	0	41	104	0	74	16149
2026-01-01 08:28:01.77	12.76	16.06	-51.5	-64.5	3.8	1.49e+00	0	41	104	0	74	16189
2026-01-01 08:28:04.79	12.25	15.85	-51.5	-64.4	3.8	1.49e+00	0	41	104	0	74	16114
2026-01-01 08:28:07.80	11.75	15.64	-51.5	-64.5	3.8	1.49e+00	0	41	104	0	74	16190
2026-01-01 08:28:10.81	11.26	15.43	-51.5	-64.4	3.8	1.49e+00	0	41	104	0	74	16110
2026-01-01 08:28:13.83	10.77	15.21	-51.5	-64.4	3.8	1.49e+00	0	41	104	0	74	16127
2026-01-01 08:28:16.84	10.29	15.00	-51.5	-64.4	3.8	1.49e+00	0	41	104	0	74	16118
2026-01-01 08:28:19.85	9.81	14.79	-51.5	-64.4	3.8	1.49e+00	0	41	104	0	74	16127
2026-01-01 08:28:22.86	9.34	14.58	-51.5	-64.4	3.8	1.49e+00	0	41	104	0	74	16099
2026-01-01 08:28:25.88	8.88	14.37	-51.5	-64.4	3.8	1.49e+00	0	41	104	0	74	16066
2026-01-01 08:28:28.89	8.43	14.16	-51.5	-64.5	3.8	1.49e+00	0	41	104	0	74	16212
2026-01-01 08:28:31.90	7.98	13.94	-51.5	-64.4	3.8	1.49e+00	0	41	104	0	74	16098
2026-01-01 08:28:34.91	7.54	13.73	-51.5	-64.4	3.8	1.49e+00	0	41	104	0	74	16115
2026-01-01 08:28:37.92	7.11	13.52	-51.5	-64.4	3.8	1.49e+00	0	41	104	0	74	16123
2026-01-01 08:28:40.94	6.68	13.31	-51.5	-64.4	3.8	1.49e+00	0	41	104	0	74	16075
2026-01-01 08:28:43.95	6.26	13.10	-51.4	-64.4	3.8	1.49e+00	0	41	104	0	74	16103
2026-01-01 08:28:46.96	5.84	12.89	-51.5	-64.4	3.8	1.49e+00	0	41	104	0	74	16079
2026-01-01 08:28:49.97	5.43	12.68	-51.4	-64.4	3.8	1.49e+00	0	41	104	0	74	16061
2026-01-01 08:28:52.99	5.03	12.47	-51.5	-64.4	3.8	1.49e+00	0	41	104	0	74	16111
2026-01-01 08:28:56.00	4.63	12.26	-51.5	-64.4	3.8	1.49e+00	0	41	104	0	74	16123
2026-01-01 08:28:59.01	4.24	12.05	-51.5	-64.5	3.8	1.49e+00	0	41	104	0	74	16134
2026-01-01 08:29:02.03	3.85	11.84	-51.5	-64.4	3.8	1.49e+00	0	41	104	0	74	16112
2026-01-01 08:29:05.04	3.47	11.63	-51.5	-64.4	3.8	1.49e+00	0	41	104	0	74	16121
2026-01-01 08:29:08.06	3.09	11.42	-51.4	-64.4	3.8	1.49e+00	0	41	104	0	74	16051
2026-01-01 08:29:11.07	2.72	11.22	-51.5	-64.4	3.8	1.49e+00	0	41	104	0	74	16108
2026-01-01 08:29:14.08	2.36	11.01	-51.5	-64.4	3.8	1.49e+00	0	41	104	0	74	16126
2026-01-01 08:29:17.09	2.00	10.80	-51.5	-64.4	3.8	1.49e+00	0	41	104	0	74	16107
2026-01-01 08:29:20.11	1.65	10.60	-51.4	-64.4	3.8	1.49e+00	0	41	104	0	74	16032
2026-01-01 08:29:23.12	1.30	10.39	-51.4	-64.4	3.8	1.49e+00	0	41	104	0	74	16018
2026-01-01 08:29:26.13	0.95	10.19	-51.5	-64.5	3.8	1.49e+00	0	42	104	0	74	16151
2026-01-01 08:29:29.15	0.61	9.99	-51.4	-64.5	3.8	1.49e+00	0	42	104	0	74	16129
2026-01-01 08:29:32.16	0.28	9.78	-51.4	-64.4	3.8	1.49e+00	0	42	104	0	74	16086
2026-01-01 08:29:35.17	359.95	9.58	-51.4	-64.4	3.8	1.49e+00	0	42	104	0	74	16090
2026-01-01 08:29:38.19	359.62	9.38	-51.5	-64.5	3.8	1.49e+00	0	42	104	0	74	16158
2026-01-01 08:29:41.20	359.30	9.18	-51.5	-64.4	3.8	1.49e+00	0	42	104	0	74	16074
2026-01-01 08:29:44.21	358.99	8.98	-51.5	-64.4	3.8	1.49e+00	0	41	104	0	74	16116
2026-01-01 08:29:47.23	358.68	8.78	-51.5	-64.5	3.8	1.49e+00	0	42	104	0	74	16160
2026-01-01 08:29:50.24	358.37	8.58	-51.5	-64.4	3.8	1.49e+00	0	42	104	0	74	16097
2026-01-01 08:29:53.25	358.07	8.39	-51.4	-64.4	3.8	1.49e+00	0	42	104	0	74	16072
2026-01-01 08:29:56.27	357.77	8.19	-51.5	-64.5	3.8	1.49e+00	0	42	104	0	74	16143
2026-01-01 08:29:59.28	357.47	7.99	-51.4	-64.4	3.8	1.49e+00	0	42	104	0	74	16090
2026-01-01 08:30:02.29	357.18	7.80	-51.4	-64.4	3.8	1.49e+00	0	42	104	0	74	16042
2026-01-01 08:30:05.31	356.90	7.60	-51.5	-64.4	3.8	1.49e+00	0	42	104	0	74	16081
2026-01-01 08:30:08.32	356.61	7.41	-51.4	-64.4	3.8	1.49e+00	0	42	104	0	74	16086
2026-01-01 08:30:11.33	356.34	7.22	-51.4	-64.4	3.8	1.49e+00	0	42	104	0	74	16039
2026-01-01 08:30:14.35	356.06	7.03	-51.4	-64.4	3.8	1.49e+00	0	42	104	0	74	16004
2026-01-01 08:30:17.36	355.79	6.83	-51.4	-64.4	3.8	1.49e+00	0	42	104	0	74	16028
2026-01-01 08:30:20.37	355.52	6.64	-51.4	-64.4	3.8	1.49e+00	0	42	104	0	74	16026
2026-01-01 08:30:23.38	355.26	6.46	-51.4	-64.4	3.8	1.49e+00	0	42	104	0	74	16002
2026-01-01 08:30:26.39	355.00	6.27	-51.4	-64.4	3.8	1.49e+00	0	42	104	0	74	16013
2026-01-01 08:30:29.41	354.74	6.08	-51.5	-64.4	3.8	1.49e+00	0	42	104	0	74	16090
2026-01-01 08:30:32.42	354.49	5.89	-51.5	-64.5	3.8	1.49e+00	0	42	104	0	74	16202
2026-01-01 08:30:35.43	354.24	5.71	-51.5	-64.5	3.8	1.49e+00	0	42	104	0	74	16131
2026-01-01 08:30:38.45	353.99	5.52	-51.5	-64.4	3.8	1.49e+00	0	42	104	0	74	16064
2026-01-01 08:30:41.46	353.75	5.33	-51.4	-64.4	3.8	1.49e+00	0	42	104	0	74	16042
2026-01-01 08:30:44.47	353.51	5.15	-51.5	-64.4	3.8	1.49e+00	0	42	104	0	74	16056
2026-01-01 08:30:47.49	353.27	4.97	-51.4	-64.4	3.8	1.49e+00	0	42	104	0	74	16048

#Closed at: 2026-01-01 08:30:48
#Recorded file [0 MB]: D:/Data/31040_260101_111950.dat