passes_logs/2026/01/01/T1/T1__20260101_131727_FENGYUN_3E_rec.log

#Pass ID: 20260101_131727_FENGYUN 3E
#Satellite: FENGYUN 3E
#Configuration: FENGYUN 3E
#almurnet v.1.7.20251203
#Start time: 2026-01-01 13:17:29

#Version: 2.0.20230620
#Station: T1
#Location: 37.570604 lon 55.790049 lat
#TLE: 1 49008U 21062A   25365.98258168  .00000149  00000+0  90987-4 0  9990
#TLE: 2 49008  98.7481   6.2763 0001360 169.3782 190.7423 14.19883270232859

#Time	Az	El	Level	Level2	SNR	BER	BlckErr	Temp	State	Recorded	gain1	gain2
2026-01-01 13:17:29.19	131.48	5.12	-53.1	-63.7	3.8	8.47e-01	0	40	0	0	76	12244
2026-01-01 13:17:32.20	131.34	5.33	-53.1	-63.6	3.8	8.47e-01	0	40	104	0	76	12209
2026-01-01 13:17:35.21	131.19	5.54	-53.1	-63.9	3.8	8.46e-01	0	41	104	0	76	12554
2026-01-01 13:17:38.22	131.04	5.75	-53.1	-63.9	3.8	8.47e-01	0	41	104	0	76	12575
2026-01-01 13:17:41.23	130.89	5.96	-53.0	-63.5	3.8	8.47e-01	0	41	104	0	76	12016
2026-01-01 13:17:44.24	130.74	6.17	-53.0	-63.1	3.8	8.46e-01	0	41	104	0	76	11524
2026-01-01 13:17:47.25	130.58	6.38	-53.0	-63.2	3.8	8.46e-01	0	41	104	0	76	11561
2026-01-01 13:17:50.26	130.43	6.60	-53.0	-63.5	3.8	8.48e-01	0	41	104	0	76	11993
2026-01-01 13:17:53.27	130.27	6.82	-52.9	-62.8	3.8	8.46e-01	0	41	104	0	76	11074
2026-01-01 13:17:56.28	130.10	7.04	-52.7	-61.3	3.9	8.44e-01	0	41	104	0	76	9291
2026-01-01 13:17:59.29	129.94	7.26	-52.1	-58.6	4.9	7.97e-01	0	41	0	0	75	7224
2026-01-01 13:18:02.30	129.77	7.48	-50.6	-54.5	8.1	7.78e-02	0	41	0	13631488	71	5683
2026-01-01 13:18:05.31	129.60	7.71	-47.8	-50.3	12.3	2.89e-04	0	41	0	35651584	66	4661
2026-01-01 13:18:08.33	129.43	7.93	-45.6	-47.4	15.2	0.00e+00	0	42	0	56623104	62	4239
2026-01-01 13:18:11.34	129.25	8.16	-44.5	-46.2	16.3	0.00e+00	0	41	0	78643200	59	4356
2026-01-01 13:18:14.34	129.07	8.39	-45.2	-47.0	15.4	0.00e+00	0	42	0	100663296	59	4793
2026-01-01 13:18:17.35	128.89	8.62	-47.9	-50.4	12.2	6.29e-05	0	42	0	122683392	65	5033
2026-01-01 13:18:20.36	128.71	8.85	-51.6	-56.8	6.1	2.63e-01	0	42	0	143654912	72	7039
2026-01-01 13:18:23.38	128.52	9.09	-52.7	-61.0	3.9	8.47e-01	0	42	104	145752064	75	9515
2026-01-01 13:18:26.37	128.33	9.33	-52.8	-61.9	3.9	8.47e-01	0	42	104	156237824	75	10593
2026-01-01 13:18:29.37	128.13	9.57	-49.2	-52.1	10.8	3.14e-03	0	42	0	171966464	68	5135
2026-01-01 13:18:32.37	127.94	9.81	-46.2	-48.2	14.7	0.00e+00	0	42	0	193986560	63	4361
2026-01-01 13:18:35.36	127.74	10.05	-45.7	-47.6	15.3	0.00e+00	0	42	0	214958080	62	4300
2026-01-01 13:18:38.36	127.53	10.29	-45.2	-47.0	15.9	0.00e+00	0	42	0	236978176	61	4278
2026-01-01 13:18:41.36	127.33	10.54	-44.1	-45.7	17.0	0.00e+00	0	42	0	258998272	59	4141
2026-01-01 13:18:44.36	127.12	10.79	-43.8	-45.3	17.4	0.00e+00	0	42	0	279969792	57	4417
2026-01-01 13:18:47.35	126.90	11.04	-43.6	-45.1	17.5	0.00e+00	0	42	0	301989888	57	4330
2026-01-01 13:18:50.35	126.68	11.29	-43.6	-45.2	17.4	0.00e+00	0	42	0	322961408	57	4352
2026-01-01 13:18:53.35	126.46	11.55	-43.5	-45.1	17.6	0.00e+00	0	42	0	344981504	57	4302
2026-01-01 13:18:56.35	126.23	11.80	-43.4	-45.0	17.6	0.00e+00	0	42	0	367001600	57	4266
2026-01-01 13:18:59.35	126.00	12.06	-43.3	-44.9	17.7	0.00e+00	0	42	0	387973120	57	4198
2026-01-01 13:19:02.35	125.77	12.32	-43.3	-44.9	17.8	0.00e+00	0	42	0	409993216	57	4217
2026-01-01 13:19:05.34	125.53	12.59	-43.3	-44.8	17.8	0.00e+00	0	43	0	432013312	56	4433
2026-01-01 13:19:08.33	125.29	12.85	-43.2	-44.8	17.8	0.00e+00	0	42	0	452984832	56	4399
2026-01-01 13:19:11.32	125.04	13.12	-43.3	-44.8	17.8	0.00e+00	0	43	0	475004928	56	4412
2026-01-01 13:19:14.32	124.78	13.39	-42.7	-44.2	18.4	0.00e+00	0	42	0	495976448	56	4123
2026-01-01 13:19:17.31	124.53	13.67	-42.8	-44.2	18.2	0.00e+00	0	42	0	517996544	56	4139
2026-01-01 13:19:20.32	124.26	13.95	-42.5	-44.0	18.3	0.00e+00	0	42	0	540016640	55	4275
2026-01-01 13:19:23.31	124.00	14.22	-42.5	-44.0	18.4	0.00e+00	0	43	0	560988160	55	4248
2026-01-01 13:19:26.30	123.72	14.50	-42.4	-43.8	18.5	0.00e+00	0	43	0	583008256	55	4175
2026-01-01 13:19:29.30	123.45	14.79	-42.5	-44.0	18.4	0.00e+00	0	42	0	605028352	55	4269
2026-01-01 13:19:32.30	123.16	15.08	-42.4	-43.8	18.5	0.00e+00	0	42	0	625999872	55	4193
2026-01-01 13:19:35.30	122.87	15.37	-42.2	-43.6	18.6	0.00e+00	0	43	0	648019968	54	4334
2026-01-01 13:19:38.30	122.58	15.66	-42.0	-43.5	18.8	0.00e+00	0	42	0	670040064	54	4246
2026-01-01 13:19:41.29	122.27	15.95	-41.9	-43.3	18.9	0.00e+00	0	43	0	691011584	54	4154
2026-01-01 13:19:44.29	121.97	16.25	-41.7	-43.1	19.1	0.00e+00	0	43	0	713031680	54	4091
2026-01-01 13:19:47.29	121.65	16.55	-41.6	-42.9	19.2	0.00e+00	0	43	0	734003200	53	4234
2026-01-01 13:19:50.28	121.33	16.85	-41.5	-42.9	19.3	0.00e+00	0	43	0	756023296	53	4210
2026-01-01 13:19:53.28	121.01	17.16	-41.4	-42.8	19.4	0.00e+00	0	43	0	778043392	53	4148
2026-01-01 13:19:56.28	120.67	17.47	-40.9	-42.2	19.8	0.00e+00	0	43	0	799014912	52	4111
2026-01-01 13:19:59.28	120.33	17.78	-41.2	-42.6	19.5	0.00e+00	0	43	0	821035008	52	4300
2026-01-01 13:20:02.28	119.98	18.10	-41.4	-42.8	19.3	0.00e+00	0	43	0	842006528	52	4404
2026-01-01 13:20:05.28	119.62	18.42	-41.2	-42.6	19.5	0.00e+00	0	43	0	864026624	52	4322
2026-01-01 13:20:08.28	119.26	18.74	-41.0	-42.4	19.6	0.00e+00	0	43	0	886046720	52	4205
2026-01-01 13:20:11.28	118.89	19.06	-40.9	-42.2	19.8	0.00e+00	0	43	0	907018240	52	4125
2026-01-01 13:20:14.27	118.51	19.39	-40.8	-42.1	19.9	0.00e+00	0	43	0	929038336	52	4063
2026-01-01 13:20:17.27	118.12	19.72	-41.0	-41.9	20.3	0.00e+00	0	43	0	951058432	52	4000
2026-01-01 13:20:20.27	117.73	20.05	-40.9	-41.8	20.5	0.00e+00	0	43	0	972029952	52	3941
2026-01-01 13:20:23.28	117.32	20.39	-41.1	-42.0	20.3	0.00e+00	0	43	0	994050048	52	4024
2026-01-01 13:20:26.27	116.90	20.72	-41.3	-42.2	20.1	0.00e+00	0	43	0	1016070144	52	4128
2026-01-01 13:20:29.27	116.48	21.07	-41.4	-42.4	20.0	0.00e+00	0	43	0	1037041664	52	4194
2026-01-01 13:20:32.27	116.05	21.41	-41.3	-42.2	20.0	0.00e+00	0	43	0	1059061760	52	4144
2026-01-01 13:20:35.27	115.60	21.76	-41.2	-42.2	20.1	0.00e+00	0	43	0	1081081856	52	4121
2026-01-01 13:20:38.27	115.15	22.11	-41.0	-42.0	20.3	0.00e+00	0	43	0	1102053376	52	4011
2026-01-01 13:20:41.26	114.68	22.46	-40.8	-41.7	20.5	0.00e+00	0	43	0	1124073472	52	3910
2026-01-01 13:20:44.25	114.21	22.82	-40.8	-41.8	20.4	0.00e+00	0	43	0	1146093568	52	3921
2026-01-01 13:20:47.25	113.72	23.18	-40.7	-41.6	20.5	0.00e+00	0	43	0	1167065088	52	3856
2026-01-01 13:20:50.26	113.22	23.54	-40.7	-41.6	20.5	0.00e+00	0	43	0	1189085184	51	4089
2026-01-01 13:20:53.26	112.71	23.90	-40.6	-41.5	20.7	0.00e+00	0	43	0	1211105280	51	4034
2026-01-01 13:20:56.25	112.19	24.27	-40.5	-41.4	20.7	0.00e+00	0	43	0	1232076800	51	3986
2026-01-01 13:20:59.25	111.66	24.64	-40.6	-41.5	20.6	0.00e+00	0	43	0	1254096896	51	4039
2026-01-01 13:21:02.25	111.11	25.01	-40.4	-41.3	20.9	0.00e+00	0	43	0	1276116992	51	3924
2026-01-01 13:21:05.24	110.55	25.39	-40.1	-41.0	21.1	0.00e+00	0	43	0	1297088512	50	4024
2026-01-01 13:21:08.24	109.98	25.76	-40.3	-41.2	20.9	0.00e+00	0	43	0	1318060032	50	4140
2026-01-01 13:21:11.23	109.39	26.14	-40.2	-41.1	20.9	0.00e+00	0	43	0	1340080128	50	4077
2026-01-01 13:21:14.23	108.79	26.52	-40.4	-41.3	20.8	0.00e+00	0	43	0	1362100224	50	4159
2026-01-01 13:21:17.22	108.17	26.90	-40.3	-41.2	20.8	0.00e+00	0	43	0	1383071744	50	4126
2026-01-01 13:21:20.21	107.54	27.28	-40.3	-41.2	20.8	0.00e+00	0	43	0	1405091840	50	4114
2026-01-01 13:21:23.21	106.89	27.67	-40.4	-41.3	20.7	0.00e+00	0	43	0	1427111936	50	4190
2026-01-01 13:21:26.21	106.23	28.06	-40.8	-41.7	20.4	0.00e+00	0	43	0	1448083456	51	4127
2026-01-01 13:21:29.22	105.55	28.45	-40.6	-41.5	20.5	0.00e+00	0	43	0	1470103552	51	4042
2026-01-01 13:21:32.22	104.85	28.84	-40.3	-41.2	20.8	0.00e+00	0	43	0	1492123648	51	3897
2026-01-01 13:21:35.22	104.13	29.22	-39.9	-40.8	21.2	0.00e+00	0	43	0	1513095168	50	3930
2026-01-01 13:21:38.22	103.40	29.61	-39.8	-40.6	21.2	0.00e+00	0	43	0	1535115264	50	3860
2026-01-01 13:21:41.21	102.65	30.00	-39.6	-40.4	21.4	0.00e+00	0	43	0	1557135360	49	3999
2026-01-01 13:21:44.21	101.89	30.39	-39.7	-40.5	21.3	0.00e+00	0	43	0	1578106880	49	4040
2026-01-01 13:21:47.20	101.10	30.78	-39.6	-40.4	21.4	0.00e+00	0	43	0	1600126976	49	4003
2026-01-01 13:21:50.20	100.30	31.16	-39.3	-40.1	21.6	0.00e+00	0	43	0	1622147072	49	3868
2026-01-01 13:21:53.19	99.47	31.55	-39.3	-40.2	21.6	0.00e+00	0	43	0	1643118592	49	3889
2026-01-01 13:21:56.19	98.63	31.93	-39.6	-40.5	21.3	0.00e+00	0	43	0	1665138688	49	4009
2026-01-01 13:21:59.20	97.76	32.32	-39.3	-40.2	21.4	0.00e+00	0	43	0	1687158784	49	3884
2026-01-01 13:22:02.20	96.87	32.69	-39.7	-40.6	21.3	0.00e+00	0	43	0	1708130304	49	4078
2026-01-01 13:22:05.19	95.96	33.07	-39.9	-40.8	21.2	4.50e-06	0	43	0	1730150400	49	4148
2026-01-01 13:22:08.18	95.04	33.44	-39.8	-40.7	21.3	0.00e+00	0	43	0	1751121920	49	4119
2026-01-01 13:22:11.18	94.09	33.81	-39.8	-40.6	21.3	0.00e+00	0	43	0	1773142016	49	4093
2026-01-01 13:22:14.18	93.12	34.17	-39.8	-40.7	21.3	0.00e+00	0	43	0	1795162112	49	4123
2026-01-01 13:22:17.18	92.12	34.53	-39.6	-40.5	21.4	0.00e+00	0	43	0	1816133632	49	4035
2026-01-01 13:22:20.17	91.11	34.88	-39.8	-40.7	21.3	0.00e+00	0	43	0	1838153728	49	4106
2026-01-01 13:22:23.17	90.07	35.22	-40.2	-41.1	20.9	0.00e+00	0	43	0	1859125248	49	4302
2026-01-01 13:22:26.17	89.01	35.56	-39.8	-40.7	21.2	0.00e+00	0	43	0	1881145344	49	4128
2026-01-01 13:22:29.15	87.94	35.88	-39.2	-40.1	21.7	0.00e+00	0	43	0	1903165440	49	3836
2026-01-01 13:22:32.15	86.84	36.21	-39.5	-40.3	21.5	0.00e+00	0	43	0	1924136960	49	3958
2026-01-01 13:22:35.15	85.71	36.52	-40.1	-41.0	20.9	0.00e+00	0	43	0	1946157056	49	4264
2026-01-01 13:22:38.15	84.57	36.82	-39.7	-40.6	21.3	0.00e+00	0	43	0	1968177152	49	4060
2026-01-01 13:22:41.15	83.40	37.11	-39.7	-40.5	21.3	0.00e+00	0	43	0	1989148672	49	4048
2026-01-01 13:22:44.15	82.21	37.39	-39.7	-40.5	21.3	0.00e+00	0	43	0	2011168768	49	4041
2026-01-01 13:22:47.14	81.01	37.66	-39.8	-40.7	21.2	0.00e+00	0	43	0	2033188864	49	4125
2026-01-01 13:22:50.14	79.78	37.91	-40.1	-41.1	20.9	0.00e+00	0	43	0	2054160384	49	4294
2026-01-01 13:22:53.15	78.53	38.15	-39.8	-40.7	21.3	0.00e+00	0	43	0	2076180480	49	4112
2026-01-01 13:22:56.16	77.26	38.38	-39.8	-40.6	21.4	0.00e+00	0	43	0	2098200576	49	4082
2026-01-01 13:22:59.16	75.98	38.59	-39.6	-40.5	21.2	0.00e+00	0	43	0	2119172096	49	4007
2026-01-01 13:23:02.15	74.69	38.79	-39.5	-40.4	21.3	0.00e+00	0	43	0	2141192192	49	3978
2026-01-01 13:23:05.15	73.37	38.97	-39.6	-40.5	21.4	0.00e+00	0	43	0	2163212288	49	4018
2026-01-01 13:23:08.15	72.05	39.14	-39.7	-40.6	21.2	0.00e+00	0	43	0	2184183808	49	4064
2026-01-01 13:23:11.14	70.71	39.28	-39.6	-40.5	21.2	0.00e+00	0	43	0	2206203904	49	4018
2026-01-01 13:23:14.13	69.37	39.41	-39.9	-40.8	21.1	0.00e+00	0	43	0	2227175424	49	4154
2026-01-01 13:23:17.12	68.01	39.53	-39.5	-40.4	21.3	0.00e+00	0	43	0	2249195520	49	3962
2026-01-01 13:23:20.12	66.64	39.62	-39.5	-40.4	21.3	0.00e+00	0	43	0	2271215616	49	3967
2026-01-01 13:23:23.12	65.26	39.70	-39.4	-40.3	21.4	0.00e+00	0	43	0	2292187136	49	3933
2026-01-01 13:23:26.11	63.88	39.76	-39.4	-40.3	21.4	0.00e+00	0	43	0	2314207232	49	3914
2026-01-01 13:23:29.11	62.50	39.79	-39.6	-40.4	21.2	0.00e+00	0	43	0	2335178752	49	3999
2026-01-01 13:23:32.11	61.11	39.81	-39.8	-40.7	21.0	0.00e+00	0	43	0	2357198848	49	4134
2026-01-01 13:23:35.11	59.72	39.82	-39.4	-40.3	21.4	0.00e+00	0	43	0	2379218944	49	3917
2026-01-01 13:23:38.12	58.33	39.80	-39.6	-40.5	21.2	0.00e+00	0	43	0	2400190464	49	4011
2026-01-01 13:23:41.12	56.94	39.76	-39.7	-40.5	21.1	0.00e+00	0	43	0	2422210560	49	4041
2026-01-01 13:23:44.12	55.56	39.70	-39.2	-40.1	21.5	0.00e+00	0	43	0	2444230656	48	4058
2026-01-01 13:23:47.12	54.18	39.63	-39.7	-40.5	21.1	0.00e+00	0	43	0	2465202176	48	4289
2026-01-01 13:23:50.11	52.82	39.53	-39.4	-40.3	21.4	0.00e+00	0	43	0	2487222272	48	4151
2026-01-01 13:23:53.11	51.45	39.42	-39.3	-40.1	21.5	0.00e+00	0	43	0	2509242368	48	4082
2026-01-01 13:23:56.11	50.10	39.29	-39.5	-40.4	21.2	0.00e+00	0	43	0	2530213888	48	4217
2026-01-01 13:23:59.10	48.77	39.15	-39.1	-39.9	21.6	0.00e+00	0	43	0	2552233984	48	3987
2026-01-01 13:24:02.10	47.44	38.98	-39.2	-40.1	21.5	0.00e+00	0	43	0	2574254080	48	4063
2026-01-01 13:24:05.09	46.14	38.80	-39.5	-40.4	21.2	0.00e+00	0	43	0	2595225600	48	4207
2026-01-01 13:24:08.09	44.84	38.61	-39.1	-40.0	21.6	0.00e+00	0	43	0	2617245696	48	4009
2026-01-01 13:24:11.09	43.56	38.39	-39.0	-39.8	21.6	0.00e+00	0	43	0	2638217216	48	3941
2026-01-01 13:24:14.09	42.30	38.17	-39.1	-40.0	21.5	0.00e+00	0	43	0	2660237312	48	4011
2026-01-01 13:24:17.09	41.05	37.93	-39.2	-40.1	21.4	0.00e+00	0	43	0	2682257408	48	4058
2026-01-01 13:24:20.08	39.83	37.67	-39.1	-40.0	21.4	0.00e+00	0	43	0	2703228928	48	4035
2026-01-01 13:24:23.07	38.63	37.41	-39.0	-39.9	21.5	0.00e+00	0	43	0	2725249024	48	3972
2026-01-01 13:24:26.08	37.44	37.13	-39.1	-40.0	21.3	0.00e+00	0	43	0	2747269120	48	4032
2026-01-01 13:24:29.08	36.27	36.84	-39.3	-40.2	21.2	0.00e+00	0	43	0	2768240640	48	4112
2026-01-01 13:24:32.07	35.13	36.54	-39.2	-40.1	21.3	0.00e+00	0	43	0	2790260736	48	4087
2026-01-01 13:24:35.06	34.01	36.23	-39.3	-40.2	21.3	0.00e+00	0	43	0	2811232256	48	4127
2026-01-01 13:24:38.06	32.91	35.91	-39.0	-39.9	21.3	0.00e+00	0	43	0	2833252352	48	3965
2026-01-01 13:24:41.06	31.83	35.59	-39.0	-39.9	21.3	0.00e+00	0	43	0	2855272448	48	3981
2026-01-01 13:24:44.06	30.77	35.25	-38.8	-39.6	21.6	0.00e+00	0	43	0	2876243968	48	3861
2026-01-01 13:24:47.05	29.74	34.91	-38.7	-39.6	21.6	0.00e+00	0	43	0	2898264064	48	3848
2026-01-01 13:24:50.04	28.73	34.56	-38.4	-39.3	21.5	0.00e+00	0	43	0	2920284160	47	3915
2026-01-01 13:24:53.04	27.74	34.21	-38.7	-39.6	21.2	0.00e+00	0	43	0	2941255680	47	4073
2026-01-01 13:24:56.04	26.77	33.84	-38.4	-39.2	21.4	0.00e+00	0	43	0	2963275776	47	3912
2026-01-01 13:24:59.03	25.82	33.48	-38.1	-39.0	21.5	0.00e+00	0	43	0	2984247296	46	4025
2026-01-01 13:25:02.02	24.90	33.11	-38.2	-39.1	21.5	0.00e+00	0	43	0	3006267392	46	4063
2026-01-01 13:25:05.02	23.99	32.74	-38.4	-39.2	21.4	0.00e+00	0	43	0	3028287488	46	4137
2026-01-01 13:25:08.02	23.11	32.36	-38.4	-39.3	21.3	0.00e+00	0	43	0	3049259008	46	4152
2026-01-01 13:25:11.01	22.25	31.98	-39.0	-39.9	21.1	1.10e-06	0	43	0	3071279104	46	4463
2026-01-01 13:25:14.01	21.40	31.60	-38.5	-39.4	21.2	0.00e+00	0	43	0	3093299200	47	3963
2026-01-01 13:25:17.01	20.58	31.22	-38.5	-39.4	21.2	0.00e+00	0	43	0	3114270720	47	3960
2026-01-01 13:25:20.01	19.77	30.83	-38.5	-39.4	21.2	0.00e+00	0	43	0	3136290816	47	3993
2026-01-01 13:25:23.00	18.99	30.45	-38.8	-39.7	20.9	0.00e+00	0	43	0	3158310912	47	4116
2026-01-01 13:25:26.00	18.22	30.06	-38.4	-39.2	21.2	0.00e+00	0	43	0	3179282432	47	3912
2026-01-01 13:25:29.00	17.48	29.67	-38.3	-39.1	21.3	0.00e+00	0	43	0	3201302528	47	3865
2026-01-01 13:25:32.00	16.75	29.28	-38.7	-39.6	21.0	0.00e+00	0	43	0	3223322624	47	4059
2026-01-01 13:25:35.00	16.03	28.90	-38.6	-39.5	21.0	0.00e+00	0	43	0	3244294144	47	4043
2026-01-01 13:25:38.00	15.34	28.51	-38.6	-39.5	21.0	0.00e+00	0	43	0	3266314240	47	4019
2026-01-01 13:25:40.99	14.66	28.12	-38.9	-39.8	20.7	0.00e+00	0	43	0	3287285760	47	4181
2026-01-01 13:25:43.99	14.00	27.74	-39.4	-40.3	20.9	0.00e+00	0	43	0	3309305856	48	4157
2026-01-01 13:25:46.99	13.35	27.35	-38.7	-39.6	21.1	0.00e+00	0	43	0	3331325952	48	3843
2026-01-01 13:25:49.99	12.72	26.97	-38.5	-39.4	21.0	0.00e+00	0	43	0	3352297472	47	3981
2026-01-01 13:25:52.99	12.11	26.59	-38.6	-39.5	20.9	0.00e+00	0	43	0	3374317568	47	4029
2026-01-01 13:25:55.99	11.50	26.21	-38.3	-39.2	21.1	0.00e+00	0	43	0	3395289088	47	3882
2026-01-01 13:25:58.98	10.92	25.84	-38.4	-39.3	21.0	0.00e+00	0	43	0	3417309184	47	3928
2026-01-01 13:26:01.98	10.35	25.46	-39.1	-40.0	20.8	0.00e+00	0	43	0	3439329280	47	4254
2026-01-01 13:26:04.97	9.79	25.09	-38.6	-39.5	20.8	0.00e+00	0	43	0	3460300800	47	4042
2026-01-01 13:26:07.97	9.24	24.72	-38.4	-39.3	21.0	0.00e+00	0	43	0	3482320896	47	3925
2026-01-01 13:26:10.96	8.71	24.35	-38.9	-39.8	21.0	1.10e-06	0	43	0	3504340992	47	4176
2026-01-01 13:26:13.96	8.19	23.98	-38.8	-39.6	20.9	2.20e-06	0	43	0	3525312512	47	4097
2026-01-01 13:26:16.95	7.69	23.62	-38.6	-39.5	20.8	0.00e+00	0	43	0	3547332608	47	4036
2026-01-01 13:26:19.95	7.19	23.26	-38.9	-39.8	20.7	0.00e+00	0	43	0	3569352704	47	4185
2026-01-01 13:26:22.95	6.71	22.90	-38.7	-39.6	20.9	0.00e+00	0	43	0	3590324224	47	4083
2026-01-01 13:26:25.94	6.23	22.55	-38.7	-39.6	20.9	0.00e+00	0	43	0	3612344320	47	4083
2026-01-01 13:26:28.93	5.77	22.20	-39.1	-40.0	20.5	0.00e+00	0	43	0	3633315840	47	4276
2026-01-01 13:26:31.92	5.32	21.85	-39.3	-40.3	20.4	0.00e+00	0	43	0	3655335936	48	4146
2026-01-01 13:26:34.92	4.88	21.50	-39.3	-40.3	20.6	0.00e+00	0	43	0	3677356032	48	4186
2026-01-01 13:26:37.91	4.45	21.16	-39.1	-40.1	20.5	0.00e+00	0	43	0	3698327552	48	4074
2026-01-01 13:26:40.90	4.03	20.82	-39.4	-40.4	20.2	0.00e+00	0	43	0	3720347648	48	4202
2026-01-01 13:26:43.90	3.61	20.48	-39.4	-40.3	20.3	0.00e+00	0	43	0	3742367744	49	3946
2026-01-01 13:26:46.90	3.21	20.15	-39.2	-40.2	20.4	0.00e+00	0	43	0	3763339264	49	3871
2026-01-01 13:26:49.90	2.82	19.82	-39.4	-40.4	20.4	0.00e+00	0	44	0	3785359360	49	3966
2026-01-01 13:26:52.89	2.43	19.49	-39.9	-40.8	20.1	0.00e+00	0	43	0	3806330880	49	4184
2026-01-01 13:26:55.89	2.05	19.16	-40.1	-41.1	19.9	0.00e+00	0	43	0	3828350976	49	4307
2026-01-01 13:26:58.88	1.68	18.84	-39.7	-40.7	19.9	0.00e+00	0	43	0	3849322496	49	4135
2026-01-01 13:27:01.88	1.32	18.52	-39.7	-40.7	19.9	0.00e+00	0	43	0	3871342592	49	4105
2026-01-01 13:27:04.88	0.97	18.20	-40.0	-41.0	19.9	0.00e+00	0	43	0	3893362688	49	4250
2026-01-01 13:27:07.89	0.62	17.89	-39.8	-40.8	19.7	0.00e+00	0	43	0	3914334208	49	4179
2026-01-01 13:27:10.89	0.28	17.58	-39.8	-40.9	19.7	0.00e+00	0	43	0	3936354304	49	4200
2026-01-01 13:27:13.89	359.95	17.27	-39.9	-40.9	19.6	0.00e+00	0	43	0	3958374400	49	4228
2026-01-01 13:27:16.88	359.62	16.96	-40.3	-41.3	19.5	0.00e+00	0	43	0	3979345920	50	4174
2026-01-01 13:27:19.88	359.31	16.66	-40.2	-41.3	19.3	0.00e+00	0	43	0	4001366016	50	4149
2026-01-01 13:27:22.87	358.99	16.36	-40.5	-41.6	19.0	0.00e+00	0	43	0	4023386112	51	4057
2026-01-01 13:27:25.87	358.69	16.06	-40.6	-41.6	19.0	0.00e+00	0	43	0	4044357632	51	4095
2026-01-01 13:27:28.87	358.39	15.77	-40.5	-41.6	19.0	0.00e+00	0	43	0	4066377728	51	4090
2026-01-01 13:27:31.86	358.10	15.48	-40.4	-41.5	19.1	0.00e+00	0	43	0	4088397824	51	4036
2026-01-01 13:27:34.86	357.81	15.19	-40.5	-41.6	19.2	0.00e+00	0	43	0	4109369344	51	4068
2026-01-01 13:27:37.86	357.53	14.90	-40.4	-41.4	19.1	0.00e+00	0	43	0	4131389440	51	3992
2026-01-01 13:27:40.85	357.25	14.62	-40.7	-41.8	19.0	0.00e+00	0	43	0	4153409536	51	4165
2026-01-01 13:27:43.86	356.98	14.34	-40.8	-41.9	19.0	0.00e+00	0	43	0	4174381056	51	4194
2026-01-01 13:27:46.86	356.71	14.06	-40.9	-42.0	18.9	0.00e+00	0	43	0	4196401152	51	4260
2026-01-01 13:27:49.86	356.45	13.79	-40.9	-42.1	18.8	0.00e+00	0	43	0	4218421248	51	4304
2026-01-01 13:27:52.86	356.20	13.51	-40.6	-41.8	18.7	0.00e+00	0	43	0	4239392768	51	4177
2026-01-01 13:27:55.85	355.95	13.24	-40.7	-42.0	18.6	0.00e+00	0	43	0	4261412864	51	4247
2026-01-01 13:27:58.85	355.70	12.97	-41.1	-42.4	18.4	0.00e+00	0	43	0	4282384384	51	4456
2026-01-01 13:28:01.85	355.46	12.71	-41.2	-42.6	18.2	0.00e+00	0	43	0	4304404480	51	4578
2026-01-01 13:28:04.85	355.22	12.44	-40.7	-42.4	18.2	0.00e+00	0	43	0	4326424576	51	4461
2026-01-01 13:28:07.84	354.99	12.18	-40.8	-42.6	17.9	0.00e+00	0	43	0	4347396096	51	4584
2026-01-01 13:28:10.84	354.76	11.92	-41.0	-42.8	17.8	0.00e+00	0	43	0	4369416192	51	4664
2026-01-01 13:28:13.83	354.54	11.67	-41.5	-43.1	17.7	0.00e+00	0	43	0	4390387712	52	4576
2026-01-01 13:28:16.83	354.32	11.41	-41.3	-42.9	17.7	0.00e+00	0	43	0	4412407808	52	4459
2026-01-01 13:28:19.82	354.10	11.16	-41.4	-42.9	17.6	0.00e+00	0	43	0	4434427904	52	4488
2026-01-01 13:28:22.82	353.89	10.91	-41.2	-42.8	17.8	0.00e+00	0	43	0	4455399424	52	4407
2026-01-01 13:28:25.82	353.68	10.66	-41.3	-42.9	17.6	0.00e+00	0	43	0	4477419520	52	4488
2026-01-01 13:28:28.82	353.48	10.42	-41.3	-42.9	17.6	0.00e+00	0	43	0	4499439616	52	4481
2026-01-01 13:28:31.81	353.28	10.17	-41.4	-42.8	17.7	0.00e+00	0	43	0	4520411136	52	4440
2026-01-01 13:28:34.81	353.08	9.93	-41.5	-42.9	17.6	0.00e+00	0	43	0	4542431232	52	4474
2026-01-01 13:28:37.81	352.89	9.69	-41.3	-43.0	17.6	0.00e+00	0	44	0	4564451328	52	4503
2026-01-01 13:28:40.80	352.70	9.45	-41.5	-43.1	17.4	0.00e+00	0	43	0	4585422848	52	4559
2026-01-01 13:28:43.79	352.51	9.22	-41.7	-43.1	17.4	0.00e+00	0	43	0	4607442944	53	4339
2026-01-01 13:28:46.79	352.32	8.99	-46.4	-50.2	11.3	0.00e+00	0	43	0	4629463040	61	6143
2026-01-01 13:28:49.79	352.14	8.75	-50.9	-62.2	3.8	8.47e-01	0	43	104	4629463040	71	13759
2026-01-01 13:28:52.80	351.96	8.52	-51.4	-62.5	3.8	8.47e-01	0	43	104	4629463040	72	13539
2026-01-01 13:28:55.81	351.79	8.29	-51.3	-62.6	3.8	8.47e-01	0	43	104	4629463040	72	13695
2026-01-01 13:28:58.82	351.61	8.06	-51.5	-62.6	3.8	8.46e-01	0	43	104	4629463040	72	13653
2026-01-01 13:29:01.83	351.44	7.84	-51.5	-62.6	3.8	8.47e-01	0	43	104	4629463040	73	12826
2026-01-01 13:29:04.84	351.28	7.62	-51.8	-62.6	3.8	8.47e-01	0	44	104	4629463040	73	12954
2026-01-01 13:29:07.85	351.11	7.39	-51.8	-62.6	3.8	8.47e-01	0	44	104	4629463040	73	12849
2026-01-01 13:29:10.86	350.95	7.17	-51.7	-62.6	3.8	8.46e-01	0	43	104	4629463040	73	12832
2026-01-01 13:29:13.87	350.79	6.95	-51.7	-62.6	3.8	8.47e-01	0	43	104	4629463040	73	12932
2026-01-01 13:29:16.88	350.63	6.74	-51.6	-62.5	3.8	8.46e-01	0	43	104	4629463040	73	12766
2026-01-01 13:29:19.89	350.48	6.52	-51.5	-62.5	3.8	8.47e-01	0	43	104	4629463040	73	12749
2026-01-01 13:29:22.90	350.33	6.31	-51.5	-62.5	3.8	8.47e-01	0	43	104	4629463040	73	12700
2026-01-01 13:29:25.91	350.18	6.09	-51.5	-62.5	3.8	8.46e-01	0	43	104	4629463040	73	12681
2026-01-01 13:29:28.92	350.03	5.88	-51.5	-62.5	3.8	8.47e-01	0	44	104	4629463040	73	12714
2026-01-01 13:29:31.93	349.89	5.67	-51.5	-62.5	3.8	8.46e-01	0	43	104	4629463040	73	12713
2026-01-01 13:29:34.94	349.74	5.46	-51.5	-62.5	3.8	8.47e-01	0	43	104	4629463040	73	12683
2026-01-01 13:29:37.95	349.60	5.26	-51.5	-62.4	3.8	8.46e-01	0	43	104	4629463040	73	12628
2026-01-01 13:29:40.96	349.46	5.05	-51.4	-62.4	3.8	8.47e-01	0	44	104	4629463040	73	12616

#Closed at: 2026-01-01 13:29:42
#Recorded file [4629 MB]: D:/Data/31040_260101_161729.dat