passes_logs/2026/01/01/T1/T1__20260101_114044_NOAA_21_JPSS-2_rec.log

#Pass ID: 20260101_114044_NOAA 21 (JPSS-2)
#Satellite: NOAA 21 (JPSS-2)
#Configuration: NOAA 21
#almurnet v.1.7.20251203
#Start time: 2026-01-01 11:42:32

#Version: 2.0.20230620
#Station: T1
#Location: 37.570604 lon 55.790049 lat
#TLE: 1 54234U 22150A   25365.42224288  .00000199  00000+0  11529-3 0  9990
#TLE: 2 54234  98.7483 301.4995 0001320 356.2106   3.9060 14.19530300162743

#Time	Az	El	Level	Level2	SNR	BER	BlckErr	Temp	State	Recorded	gain1	gain2
2026-01-01 11:42:32.22	231.74	11.16	-51.7	-64.1	3.8	8.47e-01	0	39	0	0	74	15430
2026-01-01 11:42:34.21	232.03	11.28	-52.1	-65.0	3.8	1.49e+00	0	40	104	0	75	16189
2026-01-01 11:42:36.20	232.32	11.39	-52.1	-64.9	3.8	1.49e+00	0	40	104	0	75	16121
2026-01-01 11:42:38.20	232.62	11.50	-52.1	-65.0	3.8	1.49e+00	0	40	104	0	75	16280
2026-01-01 11:42:40.19	232.92	11.62	-51.6	-64.9	3.8	1.49e+00	0	40	104	0	75	16100
2026-01-01 11:42:42.19	233.22	11.73	-51.8	-64.9	3.8	1.49e+00	0	40	104	0	75	16014
2026-01-01 11:42:44.18	233.53	11.84	-51.9	-64.8	3.8	1.49e+00	0	40	104	0	75	15920
2026-01-01 11:42:46.18	233.83	11.96	-51.9	-64.7	3.8	1.49e+00	0	40	104	0	75	15673
2026-01-01 11:42:48.17	234.14	12.07	-51.4	-63.2	3.8	1.49e+00	0	40	104	0	75	13136
2026-01-01 11:42:50.16	234.45	12.18	-49.6	-54.8	8.5	2.69e-02	0	40	0	0	69	7088
2026-01-01 11:42:52.16	234.77	12.30	-48.9	-53.6	9.7	1.06e-02	0	40	0	0	69	6141
2026-01-01 11:42:54.15	235.08	12.41	-45.8	-48.5	14.9	0.00e+00	0	39	0	0	62	5101
2026-01-01 11:42:56.15	235.40	12.52	-45.7	-48.4	14.8	7.00e-07	0	40	0	0	63	4796
2026-01-01 11:42:58.15	235.72	12.63	-44.0	-46.2	17.0	0.00e+00	0	40	0	0	60	4420
2026-01-01 11:43:00.15	236.05	12.74	-43.8	-45.9	17.2	0.00e+00	0	40	0	0	59	4523
2026-01-01 11:43:02.16	236.37	12.86	-43.7	-45.7	17.4	0.00e+00	0	40	0	0	59	4440
2026-01-01 11:43:04.16	236.70	12.97	-43.6	-45.6	17.5	0.00e+00	0	40	0	0	59	4370
2026-01-01 11:43:06.17	237.03	13.08	-43.7	-45.7	17.4	0.00e+00	0	40	0	0	59	4424
2026-01-01 11:43:08.18	237.37	13.19	-43.7	-45.8	17.4	0.00e+00	0	40	0	0	59	4451
2026-01-01 11:43:10.18	237.70	13.30	-43.7	-45.8	17.4	0.00e+00	0	40	0	0	59	4464
2026-01-01 11:43:12.18	238.04	13.41	-43.7	-45.7	17.4	0.00e+00	0	40	0	0	59	4424
2026-01-01 11:43:14.18	238.38	13.52	-43.7	-45.7	17.5	0.00e+00	0	40	0	0	59	4429
2026-01-01 11:43:16.17	238.72	13.63	-43.8	-45.8	17.4	0.00e+00	0	40	0	0	59	4466
2026-01-01 11:43:18.17	239.07	13.73	-43.7	-45.8	17.4	0.00e+00	0	40	0	0	59	4451
2026-01-01 11:43:20.18	239.42	13.84	-43.6	-45.6	17.6	0.00e+00	0	40	0	0	59	4362
2026-01-01 11:43:22.18	239.77	13.95	-43.5	-45.6	17.6	0.00e+00	0	40	0	0	59	4358
2026-01-01 11:43:24.19	240.12	14.06	-43.5	-45.6	17.7	0.00e+00	0	40	0	0	58	4600
2026-01-01 11:43:26.20	240.48	14.16	-43.6	-45.7	17.6	0.00e+00	0	40	0	0	58	4658
2026-01-01 11:43:28.20	240.84	14.27	-43.6	-45.6	17.6	0.00e+00	0	40	0	0	58	4645
2026-01-01 11:43:30.20	241.20	14.37	-43.7	-45.8	17.4	0.00e+00	0	40	0	0	58	4714
2026-01-01 11:43:32.21	241.56	14.48	-43.7	-45.7	17.5	0.00e+00	0	40	0	0	58	4702
2026-01-01 11:43:34.21	241.93	14.58	-43.7	-45.7	17.5	0.00e+00	0	40	0	0	58	4658
2026-01-01 11:43:36.22	242.29	14.69	-43.6	-45.6	17.6	0.00e+00	0	40	0	0	58	4641
2026-01-01 11:43:38.23	242.67	14.79	-43.7	-45.8	17.5	0.00e+00	0	40	0	0	58	4712
2026-01-01 11:43:40.23	243.04	14.89	-43.7	-45.7	17.5	0.00e+00	0	40	0	0	58	4687
2026-01-01 11:43:42.23	243.41	14.99	-43.6	-45.6	17.6	0.00e+00	0	40	0	0	58	4639
2026-01-01 11:43:44.23	243.79	15.09	-43.4	-45.5	17.7	0.00e+00	0	40	0	0	58	4556
2026-01-01 11:43:46.23	244.17	15.19	-43.5	-45.6	17.6	0.00e+00	0	40	0	0	58	4612
2026-01-01 11:43:48.23	244.55	15.29	-43.7	-45.7	17.5	0.00e+00	0	40	0	0	58	4662
2026-01-01 11:43:50.22	244.94	15.39	-43.7	-45.8	17.4	0.00e+00	0	39	0	0	58	4708
2026-01-01 11:43:52.22	245.32	15.49	-43.7	-45.7	17.5	0.00e+00	0	40	0	0	58	4701
2026-01-01 11:43:54.22	245.71	15.58	-43.7	-45.7	17.4	0.00e+00	0	40	0	0	58	4691
2026-01-01 11:43:56.21	246.10	15.68	-43.5	-45.5	17.6	0.00e+00	0	40	0	0	58	4593
2026-01-01 11:43:58.21	246.50	15.77	-43.4	-45.5	17.6	0.00e+00	0	40	0	0	58	4576
2026-01-01 11:44:00.20	246.89	15.87	-43.3	-45.3	17.9	0.00e+00	0	40	0	0	58	4480
2026-01-01 11:44:02.20	247.29	15.96	-43.4	-45.4	17.8	0.00e+00	0	40	0	0	58	4498
2026-01-01 11:44:04.21	247.69	16.05	-43.5	-45.4	17.8	0.00e+00	0	40	0	0	58	4537
2026-01-01 11:44:06.21	248.10	16.14	-43.5	-45.5	17.7	0.00e+00	0	40	0	0	58	4554
2026-01-01 11:44:08.22	248.51	16.23	-43.4	-45.4	17.7	0.00e+00	0	40	0	0	58	4518
2026-01-01 11:44:10.22	248.92	16.32	-43.3	-45.3	17.9	0.00e+00	0	40	0	0	58	4457
2026-01-01 11:44:12.23	249.33	16.41	-43.3	-45.2	18.0	0.00e+00	0	40	0	0	58	4434
2026-01-01 11:44:14.23	249.74	16.49	-43.1	-45.0	18.2	0.00e+00	0	40	0	0	58	4327
2026-01-01 11:44:16.24	250.16	16.58	-43.2	-45.2	18.0	0.00e+00	0	39	0	0	58	4393
2026-01-01 11:44:18.24	250.58	16.66	-43.2	-45.1	18.0	0.00e+00	0	40	0	0	58	4373
2026-01-01 11:44:20.25	251.00	16.75	-43.2	-45.1	18.0	0.00e+00	0	40	0	0	58	4367
2026-01-01 11:44:22.25	251.42	16.83	-43.2	-45.1	18.1	0.00e+00	0	40	0	0	58	4373
2026-01-01 11:44:24.26	251.85	16.91	-43.1	-45.0	18.1	0.00e+00	0	40	0	0	58	4332
2026-01-01 11:44:26.26	252.28	16.99	-43.1	-45.0	18.1	0.00e+00	0	40	0	0	58	4321
2026-01-01 11:44:28.27	252.71	17.07	-43.0	-45.0	18.1	0.00e+00	0	40	0	0	58	4293
2026-01-01 11:44:30.27	253.14	17.15	-43.1	-45.0	18.1	0.00e+00	0	40	0	0	58	4339
2026-01-01 11:44:32.28	253.57	17.22	-43.0	-45.0	18.2	0.00e+00	0	40	0	0	57	4554
2026-01-01 11:44:34.29	254.01	17.30	-43.1	-45.0	18.1	0.00e+00	0	40	0	0	57	4593
2026-01-01 11:44:36.29	254.45	17.37	-43.0	-44.9	18.2	0.00e+00	0	40	0	0	57	4511
2026-01-01 11:44:38.30	254.89	17.44	-42.9	-44.8	18.3	0.00e+00	0	40	0	0	57	4480
2026-01-01 11:44:40.30	255.33	17.51	-42.9	-44.9	18.2	0.00e+00	0	40	0	0	57	4496
2026-01-01 11:44:42.31	255.78	17.58	-42.8	-44.7	18.4	0.00e+00	0	40	0	0	57	4439
2026-01-01 11:44:44.31	256.22	17.65	-42.8	-44.7	18.4	0.00e+00	0	40	0	0	57	4439
2026-01-01 11:44:46.32	256.67	17.71	-42.8	-44.7	18.4	0.00e+00	0	40	0	0	57	4423
2026-01-01 11:44:48.32	257.12	17.77	-42.8	-44.6	18.5	0.00e+00	0	40	0	0	57	4377
2026-01-01 11:44:50.32	257.57	17.84	-42.7	-44.6	18.5	0.00e+00	0	39	0	0	57	4374
2026-01-01 11:44:52.33	258.03	17.90	-42.7	-44.5	18.6	0.00e+00	0	40	0	0	57	4329
2026-01-01 11:44:54.34	258.48	17.96	-42.7	-44.5	18.6	0.00e+00	0	40	0	0	57	4336
2026-01-01 11:44:56.34	258.94	18.02	-42.5	-44.3	18.7	0.00e+00	0	40	0	0	56	4481
2026-01-01 11:44:58.35	259.40	18.07	-42.6	-44.4	18.7	0.00e+00	0	40	0	0	56	4540
2026-01-01 11:45:00.36	259.86	18.13	-42.6	-44.4	18.7	0.00e+00	0	39	0	0	56	4511
2026-01-01 11:45:02.36	260.32	18.18	-42.7	-44.5	18.7	0.00e+00	0	40	0	0	56	4592
2026-01-01 11:45:04.37	260.79	18.23	-42.6	-44.4	18.8	0.00e+00	0	39	0	0	56	4506
2026-01-01 11:45:06.37	261.25	18.28	-42.6	-44.4	18.7	0.00e+00	0	40	0	0	56	4526
2026-01-01 11:45:08.38	261.72	18.33	-42.6	-44.5	18.6	0.00e+00	0	39	0	0	56	4570
2026-01-01 11:45:10.39	262.19	18.37	-42.7	-44.5	18.6	0.00e+00	0	40	0	0	56	4588
2026-01-01 11:45:12.40	262.66	18.42	-42.7	-44.5	18.7	0.00e+00	0	40	0	0	56	4571
2026-01-01 11:45:14.40	263.13	18.46	-42.4	-44.2	18.9	0.00e+00	0	40	0	0	56	4441
2026-01-01 11:45:16.40	263.60	18.50	-42.5	-44.3	18.8	0.00e+00	0	40	0	0	56	4474
2026-01-01 11:45:18.41	264.07	18.54	-42.5	-44.3	18.8	0.00e+00	0	39	0	0	56	4467
2026-01-01 11:45:20.42	264.55	18.57	-42.5	-44.4	18.9	0.00e+00	0	40	0	0	56	4504
2026-01-01 11:45:22.42	265.02	18.61	-42.6	-44.4	18.8	0.00e+00	0	40	0	0	56	4530
2026-01-01 11:45:24.42	265.50	18.64	-42.9	-44.7	18.5	0.00e+00	0	40	0	0	56	4692
2026-01-01 11:45:26.43	265.97	18.67	-42.9	-44.8	18.3	0.00e+00	0	40	0	0	56	4707
2026-01-01 11:45:28.43	266.45	18.70	-42.9	-44.8	18.3	0.00e+00	0	39	0	0	56	4746
2026-01-01 11:45:30.44	266.93	18.73	-42.8	-44.7	18.5	0.00e+00	0	40	0	0	56	4688
2026-01-01 11:45:32.44	267.41	18.75	-42.8	-44.6	18.5	0.00e+00	0	40	0	0	56	4634
2026-01-01 11:45:34.45	267.89	18.78	-42.8	-44.7	18.5	0.00e+00	0	40	0	0	56	4669
2026-01-01 11:45:36.45	268.37	18.80	-42.8	-44.8	18.4	0.00e+00	0	40	0	0	56	4710
2026-01-01 11:45:38.46	268.85	18.82	-43.0	-44.9	18.3	0.00e+00	0	40	0	0	56	4809
2026-01-01 11:45:40.46	269.33	18.84	-42.9	-44.8	18.5	0.00e+00	0	39	0	0	56	4733
2026-01-01 11:45:42.46	269.82	18.85	-42.8	-44.7	18.5	0.00e+00	0	39	0	0	56	4674
2026-01-01 11:45:44.47	270.30	18.87	-42.8	-44.7	18.4	0.00e+00	0	40	0	0	56	4674
2026-01-01 11:45:46.47	270.78	18.88	-42.8	-44.7	18.4	0.00e+00	0	40	0	0	56	4667
2026-01-01 11:45:48.48	271.27	18.89	-42.9	-44.7	18.4	0.00e+00	0	39	0	0	56	4695
2026-01-01 11:45:50.48	271.75	18.89	-42.8	-44.7	18.4	0.00e+00	0	40	0	0	56	4655
2026-01-01 11:45:52.48	272.23	18.90	-42.8	-44.7	18.4	0.00e+00	0	40	0	0	56	4676
2026-01-01 11:45:54.49	272.72	18.90	-42.7	-44.6	18.5	0.00e+00	0	40	0	0	56	4615
2026-01-01 11:45:56.49	273.20	18.91	-42.7	-44.6	18.6	0.00e+00	0	40	0	0	56	4615
2026-01-01 11:45:58.50	273.69	18.91	-42.7	-44.6	18.5	0.00e+00	0	40	0	0	56	4617
2026-01-01 11:46:00.50	274.17	18.90	-42.8	-44.7	18.4	0.00e+00	0	40	0	0	56	4677
2026-01-01 11:46:02.50	274.65	18.90	-42.8	-44.7	18.5	0.00e+00	0	39	0	0	56	4661
2026-01-01 11:46:04.51	275.14	18.89	-42.7	-44.6	18.5	0.00e+00	0	40	0	0	56	4616
2026-01-01 11:46:06.52	275.62	18.88	-42.7	-44.5	18.6	0.00e+00	0	39	0	0	56	4591
2026-01-01 11:46:08.52	276.11	18.87	-42.8	-44.6	18.6	0.00e+00	0	39	0	0	56	4644
2026-01-01 11:46:10.53	276.59	18.86	-42.8	-44.6	18.5	0.00e+00	0	40	0	0	56	4622
2026-01-01 11:46:12.54	277.07	18.85	-42.8	-44.7	18.4	0.00e+00	0	40	0	0	56	4695
2026-01-01 11:46:14.54	277.55	18.83	-42.9	-44.8	18.3	0.00e+00	0	39	0	0	56	4741
2026-01-01 11:46:16.54	278.03	18.81	-42.8	-44.7	18.5	0.00e+00	0	39	0	0	56	4652
2026-01-01 11:46:18.55	278.52	18.79	-42.8	-44.6	18.5	0.00e+00	0	40	0	0	56	4634
2026-01-01 11:46:20.55	279.00	18.77	-42.9	-44.8	18.4	0.00e+00	0	39	0	0	56	4722
2026-01-01 11:46:22.56	279.48	18.75	-42.9	-44.8	18.4	0.00e+00	0	39	0	0	56	4723
2026-01-01 11:46:24.57	279.96	18.72	-42.8	-44.6	18.5	0.00e+00	0	40	0	0	56	4650
2026-01-01 11:46:26.57	280.43	18.69	-42.8	-44.7	18.6	0.00e+00	0	40	0	0	56	4653
2026-01-01 11:46:28.57	280.91	18.66	-42.7	-44.5	18.6	0.00e+00	0	39	0	0	56	4586
2026-01-01 11:46:30.56	281.38	18.63	-42.8	-44.7	18.5	0.00e+00	0	39	0	0	56	4659
2026-01-01 11:46:32.56	281.85	18.60	-42.7	-44.5	18.6	0.00e+00	0	39	0	0	56	4588
2026-01-01 11:46:34.57	282.33	18.56	-42.6	-44.4	18.7	0.00e+00	0	39	0	0	56	4540
2026-01-01 11:46:36.57	282.80	18.53	-42.9	-44.8	18.4	0.00e+00	0	39	0	0	56	4713
2026-01-01 11:46:38.57	283.27	18.49	-43.0	-45.0	18.2	0.00e+00	0	40	0	0	56	4820
2026-01-01 11:46:40.58	283.74	18.45	-43.0	-45.0	18.2	0.00e+00	0	39	0	0	57	4547
2026-01-01 11:46:42.59	284.21	18.40	-42.8	-44.7	18.3	0.00e+00	0	40	0	0	57	4422
2026-01-01 11:46:44.59	284.68	18.36	-42.8	-44.6	18.4	0.00e+00	0	39	0	0	57	4387
2026-01-01 11:46:46.59	285.14	18.31	-42.5	-44.3	18.7	0.00e+00	0	40	0	0	57	4231
2026-01-01 11:46:48.60	285.61	18.26	-42.5	-44.3	18.8	0.00e+00	0	40	0	0	57	4228
2026-01-01 11:46:50.60	286.07	18.21	-42.5	-44.4	18.6	0.00e+00	0	40	0	0	57	4249
2026-01-01 11:46:52.60	286.53	18.16	-42.6	-44.4	18.5	0.00e+00	0	39	0	0	57	4289
2026-01-01 11:46:54.61	286.99	18.11	-42.5	-44.4	18.6	0.00e+00	0	40	0	0	57	4260
2026-01-01 11:46:56.62	287.45	18.06	-42.5	-44.3	18.6	0.00e+00	0	39	0	0	57	4238
2026-01-01 11:46:58.62	287.91	18.00	-42.4	-44.2	18.7	0.00e+00	0	39	0	0	56	4436
2026-01-01 11:47:00.63	288.37	17.94	-42.6	-44.5	18.6	0.00e+00	0	40	0	0	56	4552
2026-01-01 11:47:02.63	288.82	17.88	-42.5	-44.4	18.7	0.00e+00	0	40	0	0	56	4495
2026-01-01 11:47:04.64	289.27	17.82	-42.7	-44.5	18.5	0.00e+00	0	39	0	0	56	4580
2026-01-01 11:47:06.64	289.72	17.76	-42.6	-44.4	18.6	0.00e+00	0	40	0	0	56	4535
2026-01-01 11:47:08.64	290.17	17.69	-42.7	-44.6	18.5	0.00e+00	0	40	0	0	56	4605
2026-01-01 11:47:10.64	290.61	17.63	-42.7	-44.5	18.5	0.00e+00	0	39	0	0	56	4577
2026-01-01 11:47:12.65	291.06	17.56	-42.6	-44.5	18.6	0.00e+00	0	39	0	0	56	4555
2026-01-01 11:47:14.66	291.50	17.49	-42.7	-44.5	18.6	0.00e+00	0	39	0	0	56	4586
2026-01-01 11:47:16.66	291.94	17.42	-42.7	-44.5	18.6	0.00e+00	0	39	0	0	56	4593
2026-01-01 11:47:18.65	292.37	17.35	-42.5	-44.3	18.8	0.00e+00	0	39	0	0	56	4464
2026-01-01 11:47:20.65	292.81	17.28	-42.5	-44.3	18.8	0.00e+00	0	39	0	0	56	4461
2026-01-01 11:47:22.64	293.24	17.21	-42.6	-44.4	18.7	0.00e+00	0	39	0	0	56	4501
2026-01-01 11:47:24.64	293.67	17.13	-42.7	-44.5	18.7	0.00e+00	0	40	0	0	56	4551
2026-01-01 11:47:26.63	294.10	17.05	-42.8	-44.6	18.5	0.00e+00	0	40	0	0	56	4635
2026-01-01 11:47:28.62	294.52	16.98	-42.8	-44.6	18.6	0.00e+00	0	39	0	0	56	4614
2026-01-01 11:47:30.61	294.95	16.90	-42.7	-44.5	18.6	0.00e+00	0	40	0	0	56	4588
2026-01-01 11:47:32.61	295.37	16.82	-42.7	-44.5	18.5	0.00e+00	0	40	0	0	56	4597
2026-01-01 11:47:34.59	295.78	16.74	-42.6	-44.4	18.7	0.00e+00	0	40	0	0	56	4530
2026-01-01 11:47:36.59	296.20	16.65	-42.7	-44.5	18.6	0.00e+00	0	39	0	0	56	4594
2026-01-01 11:47:38.59	296.62	16.57	-42.9	-44.7	18.4	0.00e+00	0	39	0	0	56	4702
2026-01-01 11:47:40.59	297.03	16.49	-42.9	-44.8	18.3	0.00e+00	0	39	0	0	56	4726
2026-01-01 11:47:42.59	297.44	16.40	-43.0	-44.9	18.3	0.00e+00	0	40	0	0	56	4785
2026-01-01 11:47:44.59	297.85	16.31	-42.9	-44.8	18.3	0.00e+00	0	39	0	0	56	4712
2026-01-01 11:47:46.59	298.26	16.22	-42.9	-44.7	18.4	0.00e+00	0	39	0	0	56	4698
2026-01-01 11:47:48.59	298.66	16.14	-42.9	-44.7	18.3	0.00e+00	0	39	0	0	56	4686
2026-01-01 11:47:50.59	299.06	16.05	-43.1	-45.0	18.2	0.00e+00	0	40	0	0	56	4829
2026-01-01 11:47:52.59	299.46	15.95	-43.2	-45.1	18.0	0.00e+00	0	40	0	0	57	4651
2026-01-01 11:47:54.59	299.86	15.86	-43.3	-45.2	17.9	0.00e+00	0	40	0	0	57	4681
2026-01-01 11:47:56.59	300.25	15.77	-43.3	-45.3	17.8	0.00e+00	0	40	0	0	57	4724
2026-01-01 11:47:58.59	300.64	15.68	-43.3	-45.3	17.8	0.00e+00	0	39	0	0	57	4724
2026-01-01 11:48:00.59	301.03	15.58	-43.2	-45.2	18.0	0.00e+00	0	39	0	0	57	4664
2026-01-01 11:48:02.60	301.42	15.48	-43.2	-45.2	17.9	0.00e+00	0	40	0	0	57	4653
2026-01-01 11:48:04.60	301.81	15.39	-43.3	-45.2	17.8	0.00e+00	0	39	0	0	57	4703
2026-01-01 11:48:06.60	302.19	15.29	-43.6	-45.6	17.5	0.00e+00	0	39	0	0	57	4877
2026-01-01 11:48:08.60	302.57	15.19	-43.7	-45.7	17.4	0.00e+00	0	40	0	0	58	4682
2026-01-01 11:48:10.60	302.95	15.09	-43.6	-45.6	17.6	0.00e+00	0	40	0	0	58	4602
2026-01-01 11:48:12.60	303.32	14.99	-43.5	-45.5	17.6	0.00e+00	0	39	0	0	58	4579
2026-01-01 11:48:14.60	303.69	14.89	-43.4	-45.4	17.7	0.00e+00	0	40	0	0	58	4512
2026-01-01 11:48:16.60	304.06	14.79	-43.5	-45.4	17.6	0.00e+00	0	40	0	0	58	4537
2026-01-01 11:48:18.60	304.43	14.69	-43.3	-45.3	17.7	0.00e+00	0	40	0	0	58	4451
2026-01-01 11:48:20.60	304.80	14.59	-43.5	-45.5	17.5	0.00e+00	0	39	0	0	58	4559
2026-01-01 11:48:22.60	305.16	14.49	-43.6	-45.6	17.5	0.00e+00	0	39	0	0	58	4622
2026-01-01 11:48:24.60	305.52	14.38	-43.6	-45.7	17.4	0.00e+00	0	39	0	0	58	4657
2026-01-01 11:48:26.61	305.88	14.28	-43.7	-45.7	17.4	0.00e+00	0	40	0	0	58	4663
2026-01-01 11:48:28.61	306.23	14.17	-43.7	-45.7	17.3	0.00e+00	0	39	0	0	58	4704
2026-01-01 11:48:30.61	306.59	14.07	-43.5	-45.4	17.6	0.00e+00	0	39	0	0	58	4535
2026-01-01 11:48:32.61	306.94	13.96	-43.4	-45.4	17.5	0.00e+00	0	39	0	0	58	4524
2026-01-01 11:48:34.61	307.28	13.86	-43.5	-45.5	17.5	0.00e+00	0	39	0	0	58	4561
2026-01-01 11:48:36.61	307.63	13.75	-43.6	-45.6	17.4	0.00e+00	0	40	0	0	58	4638
2026-01-01 11:48:38.60	307.97	13.64	-43.6	-45.7	17.4	0.00e+00	0	39	0	0	58	4663
2026-01-01 11:48:40.60	308.31	13.53	-43.8	-45.9	17.2	0.00e+00	0	39	0	0	58	4807
2026-01-01 11:48:42.59	308.65	13.43	-43.8	-46.0	17.1	0.00e+00	0	39	0	0	58	4827
2026-01-01 11:48:44.59	308.98	13.32	-43.7	-45.8	17.2	0.00e+00	0	39	0	0	58	4743
2026-01-01 11:48:46.59	309.32	13.21	-43.8	-45.9	17.1	0.00e+00	0	39	0	0	58	4797
2026-01-01 11:48:48.59	309.65	13.10	-43.8	-45.9	17.1	0.00e+00	0	39	0	0	58	4770
2026-01-01 11:48:50.59	309.98	12.99	-43.8	-45.8	17.1	0.00e+00	0	40	0	0	58	4751
2026-01-01 11:48:52.60	310.30	12.88	-43.7	-45.8	17.3	0.00e+00	0	39	0	0	58	4712
2026-01-01 11:48:54.59	310.63	12.77	-43.7	-45.8	17.3	0.00e+00	0	40	0	0	58	4736
2026-01-01 11:48:56.59	310.95	12.66	-43.8	-45.8	17.2	0.00e+00	0	40	0	0	58	4757
2026-01-01 11:48:58.59	311.27	12.55	-43.9	-45.9	17.1	0.00e+00	0	40	0	0	58	4806
2026-01-01 11:49:00.59	311.58	12.44	-43.8	-45.9	17.2	0.00e+00	0	39	0	0	58	4764
2026-01-01 11:49:02.59	311.90	12.33	-43.6	-45.7	17.2	0.00e+00	0	40	0	0	58	4702
2026-01-01 11:49:04.59	312.21	12.21	-43.7	-45.8	17.2	0.00e+00	0	39	0	0	58	4736
2026-01-01 11:49:06.59	312.52	12.10	-43.6	-45.7	17.3	0.00e+00	0	39	0	0	58	4704
2026-01-01 11:49:08.59	312.83	11.99	-43.6	-45.6	17.4	0.00e+00	0	40	0	0	58	4617
2026-01-01 11:49:10.59	313.13	11.88	-43.6	-45.6	17.4	0.00e+00	0	39	0	0	58	4617
2026-01-01 11:49:12.58	313.44	11.77	-43.5	-45.6	17.4	0.00e+00	0	40	0	0	58	4609
2026-01-01 11:49:14.57	313.73	11.65	-43.6	-45.7	17.3	0.00e+00	0	39	0	0	58	4654
2026-01-01 11:49:16.57	314.03	11.54	-43.7	-45.8	17.2	0.00e+00	0	40	0	0	58	4711
2026-01-01 11:49:18.58	314.33	11.43	-43.7	-45.8	17.1	0.00e+00	0	39	0	0	58	4738
2026-01-01 11:49:20.58	314.63	11.31	-43.7	-45.8	17.1	0.00e+00	0	40	0	0	58	4725
2026-01-01 11:49:22.57	314.92	11.20	-43.8	-45.9	17.0	0.00e+00	0	40	0	0	58	4804
2026-01-01 11:49:24.58	315.21	11.09	-43.8	-45.9	17.0	0.00e+00	0	40	0	0	58	4797
2026-01-01 11:49:26.58	315.49	10.97	-43.9	-46.0	17.0	0.00e+00	0	39	0	0	58	4870
2026-01-01 11:49:28.57	315.78	10.86	-43.8	-45.9	17.1	0.00e+00	0	39	0	0	58	4788
2026-01-01 11:49:30.58	316.06	10.75	-43.9	-46.0	17.0	0.00e+00	0	40	0	0	58	4839
2026-01-01 11:49:32.58	316.34	10.63	-43.8	-45.9	17.1	0.00e+00	0	40	0	0	58	4798
2026-01-01 11:49:34.57	316.62	10.52	-43.8	-45.9	17.1	0.00e+00	0	40	0	0	58	4788
2026-01-01 11:49:36.57	316.90	10.41	-43.9	-46.1	17.0	0.00e+00	0	39	0	0	58	4883
2026-01-01 11:49:38.57	317.17	10.29	-43.8	-46.0	17.0	0.00e+00	0	40	0	0	58	4825
2026-01-01 11:49:40.57	317.45	10.18	-43.8	-46.0	17.0	0.00e+00	0	39	0	0	58	4838
2026-01-01 11:49:42.56	317.72	10.06	-43.9	-46.2	16.8	0.00e+00	0	40	0	0	58	4929
2026-01-01 11:49:44.55	317.98	9.95	-44.1	-46.4	16.6	0.00e+00	0	40	0	0	58	5050
2026-01-01 11:49:46.56	318.25	9.84	-44.0	-46.3	16.6	0.00e+00	0	39	0	0	58	5016
2026-01-01 11:49:48.55	318.52	9.72	-44.1	-46.5	16.5	0.00e+00	0	40	0	0	58	5105
2026-01-01 11:49:50.55	318.78	9.61	-44.2	-46.5	16.5	0.00e+00	0	40	0	0	58	5112
2026-01-01 11:49:52.54	319.04	9.50	-44.3	-46.6	16.3	0.00e+00	0	40	0	0	59	4914
2026-01-01 11:49:54.54	319.30	9.38	-44.3	-46.7	16.2	0.00e+00	0	39	0	0	59	4963
2026-01-01 11:49:56.53	319.55	9.27	-44.3	-46.7	16.2	0.00e+00	0	39	0	0	59	4939
2026-01-01 11:49:58.53	319.81	9.15	-44.4	-46.8	16.1	0.00e+00	0	39	0	0	59	5025
2026-01-01 11:50:00.54	320.06	9.04	-44.4	-46.8	16.0	0.00e+00	0	39	0	0	59	5039
2026-01-01 11:50:02.54	320.31	8.93	-50.7	-64.4	3.8	1.49e+00	0	40	104	0	72	17890
2026-01-01 11:50:04.54	320.56	8.81	-51.3	-64.7	3.8	1.49e+00	0	40	104	0	73	17517
2026-01-01 11:50:06.55	320.81	8.70	-51.7	-64.9	3.8	1.49e+00	0	40	104	0	74	16974
2026-01-01 11:50:08.54	321.06	8.58	-51.9	-65.0	3.8	1.49e+00	0	39	104	0	74	17118
2026-01-01 11:50:10.53	321.30	8.47	-51.8	-65.0	3.8	1.49e+00	0	39	104	0	74	17100
2026-01-01 11:50:12.53	321.54	8.36	-52.0	-64.9	3.8	1.49e+00	0	40	104	0	74	17074
2026-01-01 11:50:14.53	321.78	8.24	-51.9	-65.0	3.8	1.49e+00	0	40	104	0	74	17104
2026-01-01 11:50:16.53	322.02	8.13	-52.1	-64.9	3.8	1.49e+00	0	39	104	0	74	17077
2026-01-01 11:50:18.53	322.26	8.02	-52.1	-65.0	3.8	1.49e+00	0	39	104	0	74	17118
2026-01-01 11:50:20.52	322.49	7.91	-51.8	-64.9	3.8	1.49e+00	0	39	104	0	74	17032
2026-01-01 11:50:22.51	322.72	7.79	-51.8	-64.9	3.8	1.49e+00	0	40	104	0	74	16955
2026-01-01 11:50:24.52	322.95	7.68	-51.9	-65.0	3.8	1.49e+00	0	39	104	0	74	17101
2026-01-01 11:50:26.52	323.18	7.57	-51.8	-64.9	3.8	1.49e+00	0	40	104	0	74	17011
2026-01-01 11:50:28.53	323.41	7.45	-51.8	-64.9	3.8	1.49e+00	0	40	104	0	74	16956
2026-01-01 11:50:30.53	323.64	7.34	-51.8	-64.9	3.8	1.49e+00	0	40	104	0	74	17005
2026-01-01 11:50:32.53	323.86	7.23	-51.8	-64.9	3.8	1.49e+00	0	40	104	0	74	17003
2026-01-01 11:50:34.53	324.09	7.12	-51.8	-64.9	3.8	1.49e+00	0	39	104	0	74	17043
2026-01-01 11:50:36.54	324.31	7.00	-51.9	-65.0	3.8	1.49e+00	0	40	104	0	74	17158
2026-01-01 11:50:38.54	324.53	6.89	-51.9	-64.9	3.8	1.49e+00	0	40	104	0	74	17053
2026-01-01 11:50:40.54	324.75	6.78	-51.8	-64.9	3.8	1.49e+00	0	40	104	0	74	16970
2026-01-01 11:50:42.55	324.96	6.67	-51.9	-65.0	3.8	1.49e+00	0	39	104	0	74	17145
2026-01-01 11:50:44.55	325.18	6.56	-51.9	-64.9	3.8	1.49e+00	0	39	104	0	74	17081
2026-01-01 11:50:46.55	325.39	6.44	-51.9	-65.0	3.8	1.49e+00	0	40	104	0	74	17099
2026-01-01 11:50:48.56	325.60	6.33	-52.0	-65.0	3.8	1.49e+00	0	39	104	0	74	17263
2026-01-01 11:50:50.57	325.82	6.22	-51.9	-64.9	3.8	1.49e+00	0	40	104	0	74	17017
2026-01-01 11:50:52.57	326.02	6.11	-51.8	-64.9	3.8	1.49e+00	0	40	104	0	74	16972
2026-01-01 11:50:54.58	326.23	6.00	-51.8	-64.9	3.8	1.49e+00	0	40	104	0	74	17045
2026-01-01 11:50:56.59	326.44	5.89	-51.8	-64.9	3.8	1.49e+00	0	40	104	0	74	16960
2026-01-01 11:50:58.60	326.64	5.78	-51.8	-64.9	3.8	1.49e+00	0	39	104	0	74	16944
2026-01-01 11:51:00.60	326.85	5.67	-51.8	-64.9	3.8	1.49e+00	0	40	104	0	74	16914
2026-01-01 11:51:02.61	327.05	5.56	-51.8	-64.9	3.8	1.49e+00	0	39	104	0	74	16901
2026-01-01 11:51:04.61	327.25	5.45	-51.8	-64.9	3.8	1.49e+00	0	39	104	0	74	16950
2026-01-01 11:51:06.62	327.45	5.34	-51.8	-64.9	3.8	1.49e+00	0	39	104	0	74	16992
2026-01-01 11:51:08.63	327.65	5.23	-51.8	-64.9	3.8	1.49e+00	0	40	104	0	74	17052
2026-01-01 11:51:10.63	327.84	5.12	-51.8	-64.9	3.8	1.49e+00	0	39	104	0	74	16985
2026-01-01 11:51:12.64	328.04	5.01	-51.8	-64.9	3.8	1.49e+00	0	40	104	0	74	16981

#Closed at: 2026-01-01 11:51:14
#Recorded file [0 MB]: D:/Data/31040_260101_144232.dat