passes_logs/2026/01/01/T1/T1__20260101_013858_FENGYUN_3D_rec.log

#Pass ID: 20260101_013858_FENGYUN 3D
#Satellite: FENGYUN 3D
#Configuration: FENGYUN 3D
#almurnet v.1.7.20251203
#Start time: 2026-01-01 01:38:59

#Version: 2.0.20230620
#Station: T1
#Location: 37.570604 lon 55.790049 lat
#TLE: 1 43010U 17072A   25365.48527867  .00000101  00000+0  69745-4 0  9999
#TLE: 2 43010  98.9911 332.0787 0001837 134.4748 225.6578 14.19689788421190

#Time	Az	El	Level	Level2	SNR	BER	BlckErr	Temp	State	Recorded	gain1	gain2
2026-01-01 01:38:59.90	17.41	5.11	-51.3	-63.5	3.8	8.47e-01	0	40	0	0	73	15279
2026-01-01 01:39:02.91	17.44	5.32	-51.3	-63.5	3.8	8.46e-01	0	41	104	0	74	14468
2026-01-01 01:39:05.92	17.47	5.54	-51.3	-63.5	3.8	8.47e-01	0	41	104	0	74	14457
2026-01-01 01:39:08.93	17.50	5.76	-51.3	-63.5	3.8	8.47e-01	0	41	104	0	74	14417
2026-01-01 01:39:11.94	17.53	5.98	-51.2	-63.5	3.8	8.46e-01	0	41	104	0	74	14434
2026-01-01 01:39:14.95	17.55	6.20	-51.2	-63.5	3.8	8.47e-01	0	41	104	0	74	14443
2026-01-01 01:39:17.97	17.58	6.43	-51.2	-63.5	3.8	8.46e-01	0	41	104	0	74	14413
2026-01-01 01:39:20.98	17.61	6.66	-51.2	-63.4	3.8	8.46e-01	0	41	104	0	74	14357
2026-01-01 01:39:23.99	17.64	6.89	-51.3	-63.5	3.8	8.47e-01	0	41	104	0	74	14444
2026-01-01 01:39:27.00	17.67	7.12	-51.3	-63.5	3.8	8.47e-01	0	42	104	0	74	14491
2026-01-01 01:39:30.01	17.70	7.35	-51.2	-63.5	3.8	8.48e-01	0	42	104	0	74	14406
2026-01-01 01:39:33.02	17.73	7.58	-51.2	-63.5	3.8	8.47e-01	0	42	104	0	74	14435
2026-01-01 01:39:36.03	17.76	7.82	-51.3	-63.5	3.8	8.47e-01	0	42	104	0	74	14396
2026-01-01 01:39:39.05	17.79	8.06	-51.3	-63.5	3.8	8.48e-01	0	42	104	0	74	14503
2026-01-01 01:39:42.06	17.82	8.30	-51.2	-63.4	3.8	8.47e-01	0	42	104	0	74	14349
2026-01-01 01:39:45.07	17.85	8.55	-51.3	-63.5	3.8	8.45e-01	0	42	104	0	74	14396
2026-01-01 01:39:48.08	17.88	8.79	-51.2	-63.5	3.8	8.47e-01	0	42	104	0	74	14456
2026-01-01 01:39:51.09	17.92	9.04	-51.2	-63.4	3.8	8.48e-01	0	42	104	0	74	14334
2026-01-01 01:39:54.10	17.95	9.29	-51.2	-63.5	3.8	8.47e-01	0	42	104	0	74	14376
2026-01-01 01:39:57.12	17.98	9.55	-51.2	-63.5	3.8	8.47e-01	0	42	104	0	74	14465
2026-01-01 01:40:00.13	18.01	9.81	-51.2	-63.5	3.8	8.47e-01	0	42	104	0	74	14404
2026-01-01 01:40:03.14	18.05	10.07	-51.2	-63.4	3.8	8.48e-01	0	42	104	0	74	14324
2026-01-01 01:40:06.15	18.08	10.33	-51.3	-63.5	3.8	8.47e-01	0	42	104	0	74	14413
2026-01-01 01:40:09.17	18.11	10.59	-51.2	-63.4	3.8	8.47e-01	0	42	104	0	74	14359
2026-01-01 01:40:12.18	18.15	10.86	-51.2	-63.5	3.8	8.48e-01	0	43	104	0	74	14393
2026-01-01 01:40:15.19	18.18	11.13	-51.2	-63.5	3.8	8.48e-01	0	42	104	0	74	14399
2026-01-01 01:40:18.21	18.22	11.41	-51.2	-63.4	3.8	8.47e-01	0	43	104	0	74	14359
2026-01-01 01:40:21.22	18.25	11.68	-51.2	-63.4	3.8	8.48e-01	0	43	104	0	74	14368
2026-01-01 01:40:24.23	18.29	11.96	-51.2	-63.4	3.8	8.46e-01	0	43	104	0	74	14275
2026-01-01 01:40:27.25	18.32	12.25	-51.2	-63.4	3.8	8.48e-01	0	43	104	0	74	14341
2026-01-01 01:40:30.26	18.36	12.54	-51.2	-63.4	3.8	8.47e-01	0	43	104	0	74	14247
2026-01-01 01:40:33.27	18.40	12.83	-51.2	-63.4	3.8	8.47e-01	0	43	104	0	74	14281
2026-01-01 01:40:36.29	18.44	13.12	-51.2	-63.4	3.8	8.47e-01	0	43	104	0	74	14318
2026-01-01 01:40:39.30	18.47	13.42	-51.2	-63.4	3.8	8.46e-01	0	43	104	0	74	14279
2026-01-01 01:40:42.31	18.51	13.72	-51.2	-63.4	3.8	8.46e-01	0	43	104	0	74	14304
2026-01-01 01:40:45.33	18.55	14.02	-51.2	-63.4	3.8	8.47e-01	0	43	104	0	74	14322
2026-01-01 01:40:48.34	18.59	14.33	-51.2	-63.4	3.8	8.47e-01	0	43	104	0	74	14277
2026-01-01 01:40:51.35	18.63	14.65	-51.2	-63.4	3.8	8.46e-01	0	43	104	0	74	14343
2026-01-01 01:40:54.40	18.67	14.97	-51.2	-63.5	3.8	8.46e-01	0	43	104	0	74	14398
2026-01-01 01:40:57.49	18.72	15.30	-51.2	-63.4	3.8	8.47e-01	0	43	104	0	74	14300
2026-01-01 01:41:00.59	18.76	15.63	-51.2	-63.4	3.8	8.46e-01	0	43	104	0	74	14296
2026-01-01 01:41:03.63	18.80	15.97	-51.2	-63.4	3.8	8.48e-01	0	43	104	0	74	14338
2026-01-01 01:41:06.64	18.85	16.30	-51.2	-63.4	3.8	8.47e-01	0	43	104	0	74	14303
2026-01-01 01:41:09.65	18.89	16.64	-51.2	-63.4	3.8	8.48e-01	0	43	104	0	74	14238
2026-01-01 01:41:12.67	18.94	16.98	-51.2	-63.4	3.8	8.47e-01	0	43	104	0	74	14332
2026-01-01 01:41:15.68	18.98	17.33	-51.2	-63.5	3.8	8.46e-01	0	43	104	0	74	14375
2026-01-01 01:41:18.69	19.03	17.69	-51.2	-63.4	3.8	8.48e-01	0	43	104	0	74	14348
2026-01-01 01:41:21.70	19.08	18.05	-51.2	-63.4	3.8	8.47e-01	0	43	104	0	74	14283
2026-01-01 01:41:24.71	19.13	18.41	-51.2	-63.4	3.8	8.47e-01	0	43	104	0	74	14320
2026-01-01 01:41:27.73	19.18	18.78	-51.2	-63.5	3.8	8.47e-01	0	43	104	0	74	14389
2026-01-01 01:41:30.74	19.23	19.16	-51.2	-63.4	3.8	8.45e-01	0	43	104	0	74	14341
2026-01-01 01:41:33.75	19.28	19.54	-51.2	-63.4	3.8	8.46e-01	0	43	104	0	74	14301
2026-01-01 01:41:36.77	19.33	19.93	-51.2	-63.4	3.8	8.46e-01	0	43	104	0	74	14286
2026-01-01 01:41:39.78	19.38	20.32	-51.2	-63.4	3.8	8.47e-01	0	43	104	0	74	14260
2026-01-01 01:41:42.79	19.44	20.72	-51.2	-63.4	3.8	8.47e-01	0	43	104	0	74	14295
2026-01-01 01:41:45.81	19.49	21.13	-51.2	-63.4	3.8	8.47e-01	0	43	104	0	74	14271
2026-01-01 01:41:48.82	19.55	21.54	-51.2	-63.4	3.8	8.46e-01	0	43	104	0	74	14264
2026-01-01 01:41:51.83	19.61	21.96	-51.2	-63.4	3.8	8.47e-01	0	43	104	0	74	14308
2026-01-01 01:41:54.85	19.67	22.39	-51.2	-63.4	3.8	8.46e-01	0	43	104	0	74	14264
2026-01-01 01:41:57.86	19.73	22.83	-51.2	-63.4	3.8	8.47e-01	0	43	104	0	74	14311
2026-01-01 01:42:00.87	19.79	23.27	-51.2	-63.4	3.8	8.46e-01	0	43	104	0	74	14310
2026-01-01 01:42:03.89	19.85	23.72	-51.2	-63.4	3.8	8.47e-01	0	43	104	0	74	14249
2026-01-01 01:42:06.90	19.92	24.18	-51.2	-63.4	3.8	8.47e-01	0	43	104	0	74	14254
2026-01-01 01:42:09.91	19.98	24.64	-51.2	-63.4	3.8	8.47e-01	0	43	104	0	74	14271
2026-01-01 01:42:12.92	20.05	25.12	-51.2	-63.4	3.8	8.46e-01	0	43	104	0	74	14282
2026-01-01 01:42:15.93	20.12	25.60	-51.1	-63.4	3.8	8.47e-01	0	43	104	0	74	14233
2026-01-01 01:42:18.95	20.19	26.09	-51.2	-63.4	3.8	8.46e-01	0	43	104	0	74	14258
2026-01-01 01:42:21.96	20.26	26.59	-51.2	-63.4	3.8	8.47e-01	0	43	104	0	74	14226
2026-01-01 01:42:24.97	20.34	27.11	-51.1	-63.3	3.8	8.48e-01	0	43	104	0	74	14181
2026-01-01 01:42:27.99	20.42	27.63	-51.1	-63.4	3.8	8.47e-01	0	43	104	0	74	14252
2026-01-01 01:42:30.99	20.50	28.16	-51.2	-63.4	3.8	8.47e-01	0	44	104	0	74	14249
2026-01-01 01:42:34.01	20.58	28.70	-51.1	-63.4	3.8	8.47e-01	0	43	104	0	74	14219
2026-01-01 01:42:37.02	20.66	29.25	-51.2	-63.4	3.8	8.47e-01	0	43	104	0	74	14239
2026-01-01 01:42:40.03	20.75	29.81	-51.2	-63.4	3.8	8.47e-01	0	43	104	0	74	14237
2026-01-01 01:42:43.04	20.84	30.39	-51.2	-63.4	3.8	8.47e-01	0	43	104	0	74	14239
2026-01-01 01:42:46.06	20.93	30.97	-51.2	-63.3	3.8	8.46e-01	0	43	104	0	74	14193
2026-01-01 01:42:49.07	21.03	31.57	-51.2	-63.3	3.8	8.48e-01	0	43	104	0	74	14203
2026-01-01 01:42:52.08	21.13	32.18	-51.2	-63.4	3.8	8.48e-01	0	43	104	0	74	14232
2026-01-01 01:42:55.10	21.23	32.81	-51.2	-63.4	3.8	8.47e-01	0	43	104	0	74	14223
2026-01-01 01:42:58.11	21.33	33.44	-51.2	-63.4	3.8	8.47e-01	0	43	104	0	74	14247
2026-01-01 01:43:01.12	21.44	34.09	-51.2	-63.4	3.8	8.47e-01	0	43	104	0	74	14271
2026-01-01 01:43:04.13	21.56	34.75	-51.2	-63.4	3.8	8.47e-01	0	43	104	0	74	14255
2026-01-01 01:43:07.15	21.67	35.43	-51.2	-63.4	3.8	8.47e-01	0	44	104	0	74	14332
2026-01-01 01:43:10.16	21.80	36.13	-51.2	-63.4	3.8	8.46e-01	0	43	104	0	74	14342
2026-01-01 01:43:13.17	21.92	36.83	-51.2	-63.4	3.8	8.46e-01	0	43	104	0	74	14251
2026-01-01 01:43:16.18	22.05	37.56	-51.2	-63.4	3.8	8.46e-01	0	43	104	0	74	14333
2026-01-01 01:43:19.20	22.19	38.30	-51.2	-63.4	3.8	8.47e-01	0	43	104	0	74	14276
2026-01-01 01:43:22.21	22.34	39.05	-51.2	-63.4	3.8	8.46e-01	0	44	104	0	74	14263
2026-01-01 01:43:25.22	22.49	39.83	-51.2	-63.4	3.8	8.47e-01	0	44	104	0	74	14221
2026-01-01 01:43:28.24	22.64	40.62	-51.2	-63.4	3.8	8.46e-01	0	44	104	0	74	14270
2026-01-01 01:43:31.25	22.81	41.43	-51.2	-63.4	3.8	8.47e-01	0	43	104	0	74	14269
2026-01-01 01:43:34.26	22.98	42.25	-51.2	-63.4	3.8	8.47e-01	0	43	104	0	74	14314
2026-01-01 01:43:37.27	23.16	43.10	-51.2	-63.4	3.8	8.46e-01	0	43	104	0	74	14295
2026-01-01 01:43:40.29	23.35	43.96	-51.2	-63.4	3.8	8.47e-01	0	43	104	0	74	14313
2026-01-01 01:43:43.30	23.55	44.85	-51.2	-63.4	3.8	8.47e-01	0	43	104	0	74	14294
2026-01-01 01:43:46.31	23.76	45.75	-51.2	-63.4	3.8	8.47e-01	0	43	104	0	74	14263
2026-01-01 01:43:49.32	23.99	46.67	-51.1	-63.3	3.8	8.45e-01	0	43	104	0	74	14203
2026-01-01 01:43:52.34	24.22	47.62	-51.2	-63.4	3.8	8.48e-01	0	44	104	0	74	14309
2026-01-01 01:43:55.35	24.47	48.58	-51.2	-63.4	3.8	8.46e-01	0	43	104	0	74	14304
2026-01-01 01:43:58.38	24.74	49.57	-51.2	-63.3	3.8	8.48e-01	0	43	104	0	74	14200
2026-01-01 01:44:01.36	25.02	50.57	-51.2	-63.4	3.8	8.47e-01	0	43	104	0	74	14254
2026-01-01 01:44:04.60	25.34	51.68	-51.2	-63.4	3.8	8.46e-01	0	44	104	0	74	14259
2026-01-01 01:44:07.49	25.66	52.69	-51.2	-63.4	3.8	8.47e-01	0	43	104	0	74	14300
2026-01-01 01:44:10.65	26.02	53.82	-51.2	-63.4	3.8	8.47e-01	0	44	104	0	74	14257
2026-01-01 01:44:13.52	26.38	54.86	-51.1	-63.4	3.8	8.47e-01	0	44	104	0	74	14213
2026-01-01 01:44:16.72	26.81	56.05	-51.2	-63.4	3.8	8.47e-01	0	43	104	0	74	14259
2026-01-01 01:44:19.59	27.22	57.14	-51.2	-63.4	3.8	8.49e-01	0	44	104	0	74	14253
2026-01-01 01:44:22.74	27.72	58.36	-51.2	-63.4	3.8	8.48e-01	0	43	104	0	74	14243
2026-01-01 01:44:25.61	28.21	59.49	-51.1	-63.3	3.8	8.47e-01	0	43	104	0	74	14194
2026-01-01 01:44:28.76	28.81	60.75	-51.1	-63.3	3.8	8.47e-01	0	43	104	0	74	14141
2026-01-01 01:44:31.63	29.40	61.92	-51.2	-63.4	3.8	8.47e-01	0	43	104	0	74	14297
2026-01-01 01:44:34.80	30.12	63.23	-51.2	-63.4	3.8	8.47e-01	0	44	104	0	74	14257
2026-01-01 01:44:37.68	30.85	64.44	-51.1	-63.4	3.8	8.47e-01	0	44	104	0	74	14232
2026-01-01 01:44:40.83	31.75	65.78	-51.2	-63.4	3.8	8.47e-01	0	43	104	0	74	14276
2026-01-01 01:44:43.70	32.66	67.02	-51.2	-63.4	3.8	8.46e-01	0	43	104	0	74	14310
2026-01-01 01:44:46.86	33.80	68.40	-51.2	-63.4	3.8	8.47e-01	0	44	104	0	74	14294
2026-01-01 01:44:49.73	34.97	69.66	-51.2	-63.4	3.8	8.47e-01	0	44	104	0	74	14322
2026-01-01 01:44:52.89	36.47	71.06	-51.2	-63.4	3.8	8.47e-01	0	44	104	0	74	14326
2026-01-01 01:44:55.75	38.03	72.33	-51.2	-63.4	3.8	8.47e-01	0	43	104	0	74	14318
2026-01-01 01:44:58.91	40.06	73.73	-51.2	-63.4	3.8	8.47e-01	0	44	104	0	74	14308
2026-01-01 01:45:01.78	42.25	75.00	-51.2	-63.4	3.8	8.46e-01	0	43	104	0	74	14291
2026-01-01 01:45:04.93	45.13	76.38	-51.2	-63.4	3.8	8.47e-01	0	43	104	0	74	14304
2026-01-01 01:45:07.80	48.34	77.62	-51.2	-63.4	3.8	8.46e-01	0	43	104	0	74	14360
2026-01-01 01:45:10.96	52.70	78.93	-51.2	-63.4	3.8	8.47e-01	0	44	104	0	74	14339
2026-01-01 01:45:13.83	57.65	80.07	-51.2	-63.4	3.8	8.48e-01	0	44	104	0	74	14343
2026-01-01 01:45:16.98	64.54	81.21	-51.2	-63.4	3.8	8.47e-01	0	44	104	0	74	14330
2026-01-01 01:45:19.85	72.48	82.12	-51.2	-63.4	3.8	8.48e-01	0	44	104	0	74	14289
2026-01-01 01:45:23.01	83.37	82.91	-51.2	-63.5	3.8	8.47e-01	0	44	104	0	74	14390
2026-01-01 01:45:25.88	95.13	83.36	-51.2	-63.4	3.8	8.47e-01	0	44	104	0	74	14370
2026-01-01 01:45:29.03	109.26	83.50	-51.2	-63.4	3.8	8.47e-01	0	44	104	0	74	14364
2026-01-01 01:45:31.90	121.96	83.28	-51.2	-63.5	3.8	8.48e-01	0	43	104	0	74	14394
2026-01-01 01:45:35.06	134.40	82.70	-51.2	-63.3	3.8	8.47e-01	0	43	104	0	74	14202
2026-01-01 01:45:37.93	143.75	81.92	-51.2	-63.4	3.8	8.47e-01	0	43	104	0	74	14312
2026-01-01 01:45:41.08	151.94	80.88	-51.3	-63.5	3.8	8.46e-01	0	43	104	0	74	14430
2026-01-01 01:45:43.95	157.82	79.80	-51.2	-63.4	3.8	8.48e-01	0	43	104	0	74	14352
2026-01-01 01:45:47.11	162.96	78.53	-51.2	-63.5	3.8	8.46e-01	0	44	104	0	74	14407
2026-01-01 01:45:49.98	166.69	77.32	-51.2	-63.5	3.8	8.46e-01	0	44	104	0	74	14382
2026-01-01 01:45:53.14	170.03	75.96	-51.2	-63.4	3.8	8.47e-01	0	44	104	0	74	14345
2026-01-01 01:45:56.00	172.52	74.70	-51.3	-63.5	3.8	8.48e-01	0	43	104	0	74	14433
2026-01-01 01:45:59.16	174.81	73.29	-51.3	-63.5	3.8	8.48e-01	0	44	104	0	74	14419
2026-01-01 01:46:02.03	176.58	72.01	-51.3	-63.5	3.8	8.47e-01	0	43	104	0	74	14412
2026-01-01 01:46:05.18	178.23	70.61	-51.3	-63.5	3.8	8.48e-01	0	44	104	0	74	14466
2026-01-01 01:46:08.05	179.53	69.34	-51.3	-63.5	3.8	8.47e-01	0	44	104	0	74	14423
2026-01-01 01:46:11.21	180.79	67.95	-51.3	-63.5	3.8	8.47e-01	0	43	104	0	74	14391
2026-01-01 01:46:14.08	181.78	66.70	-51.3	-63.5	3.8	8.47e-01	0	44	104	0	74	14434
2026-01-01 01:46:17.23	182.75	65.34	-51.3	-63.4	3.8	8.46e-01	0	44	104	0	74	14363
2026-01-01 01:46:20.10	183.54	64.12	-51.3	-63.5	3.8	8.48e-01	0	44	104	0	74	14393
2026-01-01 01:46:23.26	184.32	62.79	-51.2	-63.4	3.8	8.47e-01	0	44	104	0	74	14347
2026-01-01 01:46:26.13	184.96	61.61	-51.3	-63.5	3.8	8.47e-01	0	43	104	0	74	14429
2026-01-01 01:46:29.27	185.59	60.33	-51.2	-63.5	3.8	8.47e-01	0	44	104	0	74	14400
2026-01-01 01:46:32.14	186.12	59.18	-51.2	-63.4	3.8	8.47e-01	0	44	104	0	74	14345
2026-01-01 01:46:35.29	186.65	57.95	-51.3	-63.5	3.8	8.45e-01	0	44	104	0	74	14431
2026-01-01 01:46:38.16	187.09	56.84	-51.3	-63.5	3.8	8.46e-01	0	43	104	0	74	14426
2026-01-01 01:46:41.32	187.54	55.64	-51.3	-63.6	3.8	8.46e-01	0	44	104	0	74	14558
2026-01-01 01:46:44.19	187.91	54.58	-51.3	-63.5	3.8	8.47e-01	0	44	104	0	74	14519
2026-01-01 01:46:47.35	188.30	53.43	-51.3	-63.6	3.8	8.47e-01	0	44	104	0	74	14578
2026-01-01 01:46:50.28	188.63	52.38	-51.3	-63.6	3.8	8.46e-01	0	43	104	0	74	14560
2026-01-01 01:46:53.29	188.95	51.33	-51.3	-63.6	3.8	8.46e-01	0	44	104	0	74	14551
2026-01-01 01:46:56.30	189.25	50.30	-51.3	-63.5	3.8	8.47e-01	0	43	104	0	74	14518
2026-01-01 01:46:59.32	189.52	49.29	-51.4	-63.6	3.8	8.47e-01	0	44	104	0	74	14580
2026-01-01 01:47:02.33	189.79	48.31	-51.4	-63.6	3.8	8.47e-01	0	44	104	0	74	14587
2026-01-01 01:47:05.34	190.03	47.34	-51.4	-63.6	3.8	8.47e-01	0	43	104	0	74	14544
2026-01-01 01:47:08.88	190.31	46.24	-51.4	-63.6	3.8	8.47e-01	0	44	104	0	74	14618
2026-01-01 01:47:11.60	190.50	45.41	-51.4	-63.6	3.8	8.47e-01	0	44	104	0	74	14599
2026-01-01 01:47:14.90	190.73	44.42	-51.3	-63.6	3.8	8.47e-01	0	44	104	0	74	14566
2026-01-01 01:47:17.63	190.91	43.62	-51.4	-63.6	3.8	8.47e-01	0	43	104	0	74	14562
2026-01-01 01:47:20.93	191.11	42.68	-51.4	-63.6	3.8	8.48e-01	0	44	104	0	74	14553
2026-01-01 01:47:23.65	191.27	41.92	-51.4	-63.6	3.8	8.46e-01	0	44	104	0	74	14563
2026-01-01 01:47:26.95	191.45	41.02	-51.4	-63.5	3.8	8.47e-01	0	43	104	0	74	14498
2026-01-01 01:47:29.68	191.60	40.29	-51.3	-63.5	3.8	8.47e-01	0	43	104	0	74	14503
2026-01-01 01:47:32.98	191.77	39.42	-51.3	-63.5	3.8	8.48e-01	0	44	104	0	74	14495
2026-01-01 01:47:35.71	191.90	38.72	-51.4	-63.6	3.8	8.47e-01	0	44	104	0	74	14636
2026-01-01 01:47:39.01	192.06	37.90	-51.4	-63.6	3.8	8.47e-01	0	44	104	0	74	14570
2026-01-01 01:47:41.73	192.18	37.23	-51.4	-63.6	3.8	8.46e-01	0	44	104	0	74	14542
2026-01-01 01:47:45.03	192.32	36.44	-51.3	-63.5	3.8	8.46e-01	0	44	104	0	74	14511
2026-01-01 01:47:47.76	192.43	35.80	-51.3	-63.5	3.8	8.46e-01	0	44	104	0	74	14499
2026-01-01 01:47:51.06	192.56	35.05	-51.4	-63.6	3.8	8.46e-01	0	44	104	0	74	14564
2026-01-01 01:47:53.79	192.67	34.43	-51.4	-63.5	3.8	8.47e-01	0	44	104	0	74	14515
2026-01-01 01:47:57.09	192.79	33.71	-51.3	-63.6	3.8	8.46e-01	0	44	104	0	74	14542
2026-01-01 01:47:59.81	192.88	33.12	-51.4	-63.5	3.8	8.46e-01	0	44	104	0	74	14520
2026-01-01 01:48:03.11	193.00	32.43	-51.4	-63.5	3.8	8.47e-01	0	44	104	0	74	14538
2026-01-01 01:48:05.84	193.09	31.87	-51.3	-63.5	3.8	8.47e-01	0	44	104	0	74	14521
2026-01-01 01:48:09.14	193.19	31.20	-51.3	-63.5	3.8	8.48e-01	0	44	104	0	74	14483
2026-01-01 01:48:11.86	193.28	30.66	-51.3	-63.5	3.8	8.46e-01	0	44	104	0	74	14536
2026-01-01 01:48:15.16	193.37	30.02	-51.3	-63.5	3.8	8.47e-01	0	44	104	0	74	14507
2026-01-01 01:48:17.89	193.45	29.50	-51.3	-63.6	3.8	8.48e-01	0	44	104	0	74	14551
2026-01-01 01:48:21.19	193.55	28.89	-51.4	-63.6	3.8	8.46e-01	0	44	104	0	74	14599
2026-01-01 01:48:23.91	193.62	28.39	-51.3	-63.6	3.8	8.48e-01	0	44	104	0	74	14552
2026-01-01 01:48:27.21	193.71	27.80	-51.4	-63.6	3.8	8.47e-01	0	43	104	0	74	14574
2026-01-01 01:48:29.94	193.78	27.32	-51.3	-63.5	3.8	8.46e-01	0	44	104	0	74	14497
2026-01-01 01:48:33.24	193.86	26.75	-51.4	-63.5	3.8	8.47e-01	0	44	104	0	74	14518
2026-01-01 01:48:35.96	193.93	26.29	-51.3	-63.5	3.8	8.47e-01	0	44	104	0	74	14495
2026-01-01 01:48:39.26	194.00	25.74	-51.3	-63.5	3.8	8.46e-01	0	44	104	0	74	14497
2026-01-01 01:48:41.99	194.07	25.30	-51.3	-63.5	3.8	8.48e-01	0	44	104	0	74	14432
2026-01-01 01:48:45.29	194.14	24.77	-51.3	-63.5	3.8	8.47e-01	0	44	104	0	74	14449
2026-01-01 01:48:48.02	194.20	24.34	-51.3	-63.5	3.8	8.48e-01	0	44	104	0	74	14451
2026-01-01 01:48:51.32	194.27	23.83	-51.3	-63.5	3.8	8.47e-01	0	44	104	0	74	14519
2026-01-01 01:48:54.04	194.32	23.42	-51.3	-63.5	3.8	8.48e-01	0	43	104	0	74	14496
2026-01-01 01:48:57.30	194.39	22.93	-51.3	-63.5	3.8	8.46e-01	0	44	104	0	74	14444
2026-01-01 01:49:00.31	194.45	22.49	-51.3	-63.5	3.8	8.47e-01	0	44	104	0	74	14470
2026-01-01 01:49:03.32	194.51	22.06	-51.3	-63.5	3.8	8.46e-01	0	44	104	0	74	14508
2026-01-01 01:49:06.33	194.56	21.63	-51.3	-63.5	3.8	8.46e-01	0	44	104	0	74	14489
2026-01-01 01:49:09.40	194.62	21.21	-51.3	-63.5	3.8	8.48e-01	0	44	104	0	74	14475
2026-01-01 01:49:12.72	194.68	20.75	-51.3	-63.5	3.8	8.46e-01	0	44	104	0	74	14475
2026-01-01 01:49:15.44	194.73	20.39	-51.3	-63.5	3.8	8.46e-01	0	44	104	0	74	14485
2026-01-01 01:49:18.74	194.78	19.95	-51.3	-63.5	3.8	8.45e-01	0	44	104	0	74	14508
2026-01-01 01:49:21.50	194.83	19.59	-51.3	-63.5	3.8	8.47e-01	0	44	104	0	74	14488
2026-01-01 01:49:24.86	194.89	19.16	-51.3	-63.5	3.8	8.47e-01	0	44	104	0	74	14516
2026-01-01 01:49:27.59	194.93	18.81	-51.3	-63.5	3.8	8.47e-01	0	44	104	0	74	14502
2026-01-01 01:49:30.88	194.98	18.41	-51.3	-63.5	3.8	8.46e-01	0	44	104	0	74	14421
2026-01-01 01:49:33.61	195.02	18.07	-51.3	-63.5	3.8	8.48e-01	0	44	104	0	74	14452
2026-01-01 01:49:36.91	195.07	17.67	-51.3	-63.6	3.8	8.46e-01	0	43	104	0	74	14569
2026-01-01 01:49:39.63	195.11	17.35	-51.3	-63.6	3.8	8.46e-01	0	44	104	0	74	14561
2026-01-01 01:49:42.93	195.16	16.96	-51.3	-63.5	3.8	8.47e-01	0	44	104	0	74	14486
2026-01-01 01:49:45.66	195.20	16.65	-51.3	-63.5	3.8	8.47e-01	0	44	104	0	74	14495
2026-01-01 01:49:48.96	195.25	16.27	-51.3	-63.5	3.8	8.47e-01	0	44	104	0	74	14516
2026-01-01 01:49:51.68	195.29	15.97	-51.4	-63.6	3.8	8.47e-01	0	44	104	0	74	14559
2026-01-01 01:49:54.98	195.33	15.60	-51.3	-63.5	3.8	8.47e-01	0	44	104	0	74	14491
2026-01-01 01:49:57.71	195.37	15.30	-51.3	-63.5	3.8	8.47e-01	0	44	104	0	74	14537
2026-01-01 01:50:01.01	195.41	14.95	-51.3	-63.5	3.8	8.46e-01	0	44	104	0	74	14502
2026-01-01 01:50:03.74	195.45	14.66	-51.3	-63.5	3.8	8.49e-01	0	44	104	0	74	14479
2026-01-01 01:50:07.03	195.49	14.31	-51.3	-63.5	3.8	8.46e-01	0	44	104	0	74	14522
2026-01-01 01:50:09.76	195.52	14.03	-51.3	-63.5	3.8	8.48e-01	0	44	104	0	74	14389
2026-01-01 01:50:13.06	195.56	13.69	-51.3	-63.5	3.8	8.46e-01	0	44	104	0	74	14408
2026-01-01 01:50:15.79	195.59	13.41	-51.3	-63.5	3.8	8.47e-01	0	44	104	0	74	14437
2026-01-01 01:50:19.08	195.63	13.09	-51.3	-63.5	3.8	8.46e-01	0	44	104	0	74	14409
2026-01-01 01:50:21.81	195.67	12.82	-51.3	-63.5	3.8	8.47e-01	0	44	104	0	74	14451
2026-01-01 01:50:25.11	195.70	12.49	-51.3	-63.5	3.8	8.47e-01	0	44	104	0	74	14431
2026-01-01 01:50:27.83	195.73	12.23	-51.3	-63.5	3.8	8.47e-01	0	44	104	0	74	14385
2026-01-01 01:50:31.13	195.77	11.92	-51.3	-63.5	3.8	8.46e-01	0	44	104	0	74	14434
2026-01-01 01:50:33.86	195.80	11.66	-51.3	-63.5	3.8	8.45e-01	0	44	104	0	74	14425
2026-01-01 01:50:37.16	195.84	11.36	-51.3	-63.5	3.8	8.47e-01	0	44	104	0	74	14454
2026-01-01 01:50:39.88	195.87	11.11	-51.2	-63.5	3.8	8.47e-01	0	44	104	0	74	14398
2026-01-01 01:50:43.18	195.90	10.81	-51.3	-63.5	3.8	8.48e-01	0	44	104	0	74	14390
2026-01-01 01:50:45.90	195.93	10.56	-51.3	-63.5	3.8	8.46e-01	0	44	104	0	74	14382
2026-01-01 01:50:49.21	195.96	10.27	-51.3	-63.5	3.8	8.46e-01	0	44	104	0	74	14409
2026-01-01 01:50:51.93	195.99	10.03	-51.3	-63.5	3.8	8.46e-01	0	44	104	0	74	14413
2026-01-01 01:50:55.23	196.03	9.74	-51.2	-63.5	3.8	8.48e-01	0	44	104	0	74	14384
2026-01-01 01:50:57.96	196.05	9.51	-51.3	-63.5	3.8	8.47e-01	0	44	104	0	74	14409
2026-01-01 01:51:01.26	196.08	9.23	-51.2	-63.4	3.8	8.47e-01	0	44	104	0	74	14364
2026-01-01 01:51:03.98	196.11	9.00	-51.2	-63.5	3.8	8.46e-01	0	44	104	0	74	14377
2026-01-01 01:51:07.28	196.14	8.72	-51.2	-63.5	3.8	8.46e-01	0	44	104	0	74	14421
2026-01-01 01:51:10.01	196.17	8.50	-51.2	-63.5	3.8	8.49e-01	0	44	104	0	74	14384
2026-01-01 01:51:13.31	196.20	8.23	-51.2	-63.4	3.8	8.46e-01	0	44	104	0	74	14337
2026-01-01 01:51:16.03	196.22	8.01	-51.3	-63.5	3.8	8.47e-01	0	44	104	0	74	14421
2026-01-01 01:51:19.33	196.25	7.74	-51.2	-63.5	3.8	8.45e-01	0	44	104	0	74	14424
2026-01-01 01:51:22.10	196.28	7.52	-51.3	-63.5	3.8	8.46e-01	0	44	104	0	74	14442
2026-01-01 01:51:25.44	196.31	7.26	-51.2	-63.5	3.8	8.48e-01	0	44	104	0	74	14393
2026-01-01 01:51:28.23	196.33	7.04	-51.2	-63.4	3.8	8.49e-01	0	44	104	0	74	14371
2026-01-01 01:51:31.54	196.36	6.78	-51.2	-63.5	3.8	8.47e-01	0	44	104	0	74	14410
2026-01-01 01:51:34.35	196.39	6.57	-51.3	-63.5	3.8	8.47e-01	0	44	104	0	74	14460
2026-01-01 01:51:38.11	196.42	6.28	-51.3	-63.5	3.8	8.47e-01	0	44	104	0	74	14486
2026-01-01 01:51:40.85	196.44	6.08	-51.3	-63.5	3.8	8.47e-01	0	44	104	0	74	14460
2026-01-01 01:51:44.61	196.47	5.80	-51.3	-63.5	3.8	8.47e-01	0	44	104	0	74	14403
2026-01-01 01:51:47.34	196.49	5.60	-51.3	-63.5	3.8	8.46e-01	0	44	104	0	74	14466
2026-01-01 01:51:51.23	196.53	5.31	-51.3	-63.5	3.8	8.47e-01	0	44	104	0	74	14398
2026-01-01 01:51:54.19	196.55	5.10	-51.3	-63.5	3.8	8.46e-01	0	44	104	0	74	14449

#Closed at: 2026-01-01 01:51:57
#Recorded file [0 MB]: D:/Data/31040_260101_043859.dat