passes_logs/2026/01/01/T1/T1__20260101_050656_FENGYUN_3E_rec.log

#Pass ID: 20260101_050656_FENGYUN 3E
#Satellite: FENGYUN 3E
#Configuration: FENGYUN 3E
#almurnet v.1.7.20251203
#Start time: 2026-01-01 05:06:56

#Version: 2.0.20230620
#Station: T1
#Location: 37.570604 lon 55.790049 lat
#TLE: 1 49008U 21062A   25365.55977344  .00000403  00000+0  21051-3 0  9995
#TLE: 2 49008  98.7483   5.8586 0001311 170.0615 190.0588 14.19883886232790

#Time	Az	El	Level	Level2	SNR	BER	BlckErr	Temp	State	Recorded	gain1	gain2
2026-01-01 05:06:56.29	9.44	4.99	-52.8	-63.7	3.8	8.47e-01	0	43	0	0	75	13019
2026-01-01 05:06:59.30	9.27	5.19	-52.8	-63.7	3.8	8.47e-01	0	43	104	0	76	12242
2026-01-01 05:07:02.31	9.10	5.39	-52.7	-63.7	3.8	8.46e-01	0	43	104	0	76	12278
2026-01-01 05:07:05.33	8.93	5.59	-52.8	-63.7	3.8	8.47e-01	0	43	104	0	76	12341
2026-01-01 05:07:08.34	8.75	5.79	-52.8	-63.7	3.8	8.46e-01	0	43	104	0	76	12249
2026-01-01 05:07:11.35	8.57	6.00	-52.7	-63.7	3.8	8.47e-01	0	43	104	0	76	12263
2026-01-01 05:07:14.36	8.39	6.21	-52.7	-63.7	3.8	8.46e-01	0	43	104	0	76	12249
2026-01-01 05:07:17.37	8.21	6.41	-52.9	-63.7	3.8	8.47e-01	0	43	104	0	76	12327
2026-01-01 05:07:20.39	8.02	6.62	-52.8	-63.7	3.8	8.47e-01	0	43	104	0	76	12328
2026-01-01 05:07:23.40	7.83	6.83	-52.8	-63.7	3.8	8.46e-01	0	43	104	0	76	12371
2026-01-01 05:07:26.41	7.64	7.04	-52.8	-63.7	3.8	8.47e-01	0	43	104	0	76	12340
2026-01-01 05:07:29.43	7.45	7.26	-52.8	-63.7	3.8	8.48e-01	0	43	104	0	76	12286
2026-01-01 05:07:32.44	7.25	7.47	-52.7	-63.7	3.8	8.46e-01	0	43	104	0	76	12308
2026-01-01 05:07:35.45	7.05	7.69	-52.8	-63.7	3.8	8.46e-01	0	43	104	0	76	12313
2026-01-01 05:07:38.46	6.84	7.91	-52.8	-63.7	3.8	8.47e-01	0	43	104	0	76	12241
2026-01-01 05:07:41.47	6.64	8.13	-52.8	-63.8	3.8	8.48e-01	0	43	104	0	76	12415
2026-01-01 05:07:44.49	6.42	8.35	-52.8	-63.7	3.8	8.46e-01	0	43	104	0	76	12370
2026-01-01 05:07:47.50	6.21	8.57	-52.8	-63.7	3.8	8.45e-01	0	43	104	0	76	12375
2026-01-01 05:07:50.51	5.99	8.79	-52.8	-63.7	3.8	8.48e-01	0	43	104	0	76	12370
2026-01-01 05:07:53.52	5.77	9.02	-52.8	-63.8	3.8	8.47e-01	0	43	104	0	76	12385
2026-01-01 05:07:56.54	5.54	9.25	-52.8	-63.7	3.8	8.46e-01	0	43	104	0	76	12342
2026-01-01 05:07:59.55	5.31	9.47	-52.8	-63.6	3.8	8.47e-01	0	43	104	0	76	12203
2026-01-01 05:08:02.53	5.08	9.70	-52.8	-63.6	3.8	8.47e-01	0	43	104	0	76	12192
2026-01-01 05:08:05.54	4.85	9.93	-52.7	-63.6	3.8	8.47e-01	0	43	104	0	76	12212
2026-01-01 05:08:08.55	4.61	10.17	-52.9	-63.8	3.8	8.46e-01	0	43	104	0	76	12506
2026-01-01 05:08:11.56	4.36	10.40	-52.8	-63.8	3.8	8.47e-01	0	43	104	0	76	12384
2026-01-01 05:08:14.51	4.12	10.64	-52.8	-63.7	3.8	8.47e-01	0	43	104	0	76	12295
2026-01-01 05:08:17.54	3.86	10.88	-52.8	-63.7	3.8	8.48e-01	0	43	104	0	76	12336
2026-01-01 05:08:20.55	3.61	11.12	-52.8	-63.7	3.8	8.47e-01	0	43	104	0	76	12360
2026-01-01 05:08:23.57	3.34	11.36	-52.8	-63.7	3.8	8.47e-01	0	43	104	0	76	12369
2026-01-01 05:08:26.63	3.07	11.61	-52.8	-63.7	3.8	8.47e-01	0	43	104	0	76	12310
2026-01-01 05:08:29.50	2.81	11.84	-52.8	-63.7	3.8	8.47e-01	0	43	104	0	76	12349
2026-01-01 05:08:32.65	2.53	12.10	-52.7	-63.6	3.8	8.46e-01	0	43	104	0	76	12200
2026-01-01 05:08:35.52	2.26	12.34	-52.8	-63.8	3.8	8.47e-01	0	43	104	0	76	12417
2026-01-01 05:08:38.68	1.96	12.60	-52.8	-63.8	3.8	8.47e-01	0	43	104	0	76	12408
2026-01-01 05:08:41.64	1.67	12.85	-52.8	-63.7	3.8	8.47e-01	0	43	104	0	76	12318
2026-01-01 05:08:44.80	1.36	13.12	-52.8	-63.8	3.8	8.47e-01	0	43	104	0	76	12418
2026-01-01 05:08:47.67	1.07	13.37	-52.8	-63.7	3.8	8.47e-01	0	43	104	0	76	12306
2026-01-01 05:08:50.82	0.75	13.64	-52.8	-63.7	3.8	8.47e-01	0	43	104	0	76	12285
2026-01-01 05:08:53.69	0.45	13.89	-52.8	-63.7	3.8	8.47e-01	0	43	104	0	76	12326
2026-01-01 05:08:56.85	0.12	14.16	-52.8	-63.6	3.8	8.46e-01	0	43	104	0	76	12209
2026-01-01 05:08:59.72	359.81	14.41	-52.8	-63.7	3.8	8.48e-01	0	43	104	0	76	12336
2026-01-01 05:09:02.87	359.46	14.69	-52.8	-63.8	3.8	8.46e-01	0	43	104	0	76	12440
2026-01-01 05:09:05.74	359.14	14.95	-52.8	-63.8	3.8	8.46e-01	0	43	104	0	76	12415
2026-01-01 05:09:08.90	358.78	15.23	-52.8	-63.7	3.8	8.47e-01	0	43	104	0	76	12299
2026-01-01 05:09:11.76	358.45	15.49	-52.7	-63.7	3.8	8.45e-01	0	43	104	0	76	12248
2026-01-01 05:09:14.92	358.08	15.78	-52.8	-63.7	3.8	8.47e-01	0	43	104	0	76	12317
2026-01-01 05:09:17.79	357.73	16.05	-52.7	-63.7	3.8	8.46e-01	0	43	104	0	76	12259
2026-01-01 05:09:20.95	357.34	16.34	-52.7	-63.7	3.8	8.46e-01	0	43	104	0	76	12297
2026-01-01 05:09:23.81	356.98	16.61	-52.7	-63.6	3.8	8.48e-01	0	43	104	0	76	12217
2026-01-01 05:09:26.97	356.58	16.90	-52.7	-63.6	3.8	8.46e-01	0	43	104	0	76	12138
2026-01-01 05:09:29.84	356.20	17.17	-52.8	-63.7	3.8	8.47e-01	0	43	104	0	76	12318
2026-01-01 05:09:32.99	355.78	17.47	-52.8	-63.8	3.8	8.47e-01	0	43	104	0	76	12422
2026-01-01 05:09:35.86	355.40	17.75	-52.8	-63.7	3.8	8.47e-01	0	43	104	0	76	12242
2026-01-01 05:09:39.02	354.96	18.05	-52.7	-63.6	3.8	8.48e-01	0	43	104	0	76	12217
2026-01-01 05:09:41.89	354.55	18.33	-52.7	-63.7	3.8	8.47e-01	0	43	104	0	76	12243
2026-01-01 05:09:45.05	354.10	18.64	-52.7	-63.6	3.8	8.47e-01	0	43	104	0	76	12167
2026-01-01 05:09:47.91	353.68	18.92	-52.8	-63.7	3.8	8.46e-01	0	43	104	0	76	12275
2026-01-01 05:09:51.07	353.21	19.23	-52.7	-63.7	3.8	8.45e-01	0	43	104	0	76	12305
2026-01-01 05:09:53.94	352.77	19.52	-52.7	-63.7	3.8	8.46e-01	0	44	104	0	76	12267
2026-01-01 05:09:57.10	352.28	19.83	-52.7	-63.6	3.8	8.46e-01	0	43	104	0	76	12164
2026-01-01 05:09:59.97	351.82	20.12	-52.7	-63.6	3.8	8.46e-01	0	43	104	0	76	12182
2026-01-01 05:10:03.12	351.31	20.44	-52.7	-63.6	3.8	8.46e-01	0	43	104	0	76	12149
2026-01-01 05:10:05.99	350.84	20.73	-52.7	-63.6	3.8	8.46e-01	0	43	104	0	76	12198
2026-01-01 05:10:09.14	350.30	21.05	-52.8	-63.8	3.8	8.46e-01	0	43	104	0	76	12433
2026-01-01 05:10:12.01	349.81	21.35	-52.8	-63.8	3.8	8.47e-01	0	43	104	0	76	12456
2026-01-01 05:10:15.17	349.25	21.67	-52.8	-63.7	3.8	8.47e-01	0	43	104	0	76	12364
2026-01-01 05:10:18.04	348.74	21.97	-52.8	-63.7	3.8	8.47e-01	0	43	104	0	76	12284
2026-01-01 05:10:21.20	348.16	22.29	-52.7	-63.8	3.8	8.48e-01	0	43	104	0	76	12380
2026-01-01 05:10:24.07	347.62	22.59	-52.7	-63.7	3.8	8.47e-01	0	43	104	0	76	12355
2026-01-01 05:10:27.22	347.02	22.92	-52.7	-63.6	3.8	8.47e-01	0	43	104	0	76	12228
2026-01-01 05:10:30.09	346.46	23.22	-52.7	-63.7	3.8	8.46e-01	0	43	104	0	76	12255
2026-01-01 05:10:33.25	345.84	23.55	-52.7	-63.6	3.8	8.46e-01	0	43	104	0	76	12215
2026-01-01 05:10:36.12	345.25	23.85	-52.8	-63.7	3.8	8.46e-01	0	43	104	0	76	12337
2026-01-01 05:10:39.27	344.60	24.18	-52.8	-63.7	3.8	8.47e-01	0	44	104	0	76	12285
2026-01-01 05:10:42.14	343.99	24.48	-52.8	-63.7	3.8	8.46e-01	0	43	104	0	76	12299
2026-01-01 05:10:45.30	343.31	24.81	-52.8	-63.7	3.8	8.47e-01	0	43	104	0	76	12300
2026-01-01 05:10:48.17	342.68	25.11	-52.7	-63.7	3.8	8.47e-01	0	43	104	0	76	12262
2026-01-01 05:10:51.32	341.97	25.43	-52.7	-63.7	3.8	8.47e-01	0	43	104	0	76	12326
2026-01-01 05:10:54.19	341.32	25.73	-52.7	-63.7	3.8	8.46e-01	0	43	104	0	76	12373
2026-01-01 05:10:57.35	340.58	26.06	-52.7	-63.6	3.8	8.47e-01	0	43	104	0	76	12232
2026-01-01 05:11:00.22	339.89	26.36	-52.8	-63.8	3.8	8.47e-01	0	43	104	0	76	12430
2026-01-01 05:11:03.37	339.13	26.68	-52.8	-63.7	3.8	8.45e-01	0	43	104	0	76	12372
2026-01-01 05:11:06.24	338.41	26.97	-52.8	-63.8	3.8	8.48e-01	0	43	104	0	76	12378
2026-01-01 05:11:09.40	337.61	27.29	-52.8	-63.7	3.8	8.47e-01	0	43	104	0	76	12289
2026-01-01 05:11:12.26	336.88	27.58	-52.8	-63.8	3.8	8.47e-01	0	43	104	0	76	12392
2026-01-01 05:11:15.42	336.05	27.90	-52.8	-63.8	3.8	8.46e-01	0	43	104	0	76	12392
2026-01-01 05:11:18.28	335.28	28.18	-52.8	-63.7	3.8	8.46e-01	0	43	104	0	76	12319
2026-01-01 05:11:21.44	334.42	28.49	-52.8	-63.7	3.8	8.47e-01	0	43	104	0	76	12269
2026-01-01 05:11:24.31	333.62	28.76	-52.8	-63.7	3.8	8.46e-01	0	43	104	0	76	12244
2026-01-01 05:11:27.47	332.72	29.06	-52.8	-63.7	3.8	8.47e-01	0	43	104	0	76	12341
2026-01-01 05:11:30.33	331.90	29.33	-52.7	-63.6	3.8	8.47e-01	0	43	104	0	76	12229
2026-01-01 05:11:33.49	330.97	29.62	-52.8	-63.8	3.8	8.47e-01	0	43	104	0	76	12411
2026-01-01 05:11:36.60	330.04	29.91	-52.8	-63.7	3.8	8.47e-01	0	43	104	0	76	12339
2026-01-01 05:11:39.68	329.11	30.18	-52.8	-63.7	3.8	8.46e-01	0	43	104	0	76	12241
2026-01-01 05:11:42.53	328.23	30.43	-52.8	-63.7	3.8	8.47e-01	0	43	104	0	76	12333
2026-01-01 05:11:45.66	327.24	30.69	-52.7	-63.7	3.8	8.48e-01	0	43	104	0	76	12282
2026-01-01 05:11:48.51	326.33	30.92	-52.7	-63.7	3.8	8.46e-01	0	43	104	0	76	12306
2026-01-01 05:11:51.64	325.32	31.17	-52.9	-63.8	3.8	8.46e-01	0	43	104	0	76	12465
2026-01-01 05:11:54.49	324.38	31.39	-52.8	-63.7	3.8	8.47e-01	0	43	104	0	76	12343
2026-01-01 05:11:57.63	323.34	31.63	-52.6	-63.8	3.8	8.47e-01	0	43	104	0	76	12467
2026-01-01 05:12:00.49	322.37	31.84	-52.7	-63.8	3.8	8.47e-01	0	43	104	0	75	13210
2026-01-01 05:12:03.62	321.30	32.05	-52.6	-63.8	3.8	8.47e-01	0	43	104	0	75	13168
2026-01-01 05:12:06.48	320.31	32.24	-52.9	-63.8	3.8	8.46e-01	0	43	104	0	75	13251
2026-01-01 05:12:09.62	319.20	32.44	-53.0	-63.8	3.8	8.47e-01	0	44	104	0	75	13148
2026-01-01 05:12:12.47	318.19	32.61	-52.9	-63.8	3.8	8.47e-01	0	43	104	0	75	13190
2026-01-01 05:12:15.60	317.07	32.78	-53.1	-63.9	3.8	8.48e-01	0	44	104	0	75	13370
2026-01-01 05:12:18.45	316.04	32.93	-53.1	-64.0	3.8	8.47e-01	0	43	104	0	75	13478
2026-01-01 05:12:21.58	314.89	33.09	-52.9	-63.9	3.8	8.47e-01	0	43	104	0	75	13400
2026-01-01 05:12:24.43	313.84	33.22	-52.8	-62.7	3.8	8.46e-01	0	43	104	0	75	11678
2026-01-01 05:12:27.57	312.67	33.34	-45.5	-47.0	15.9	0.00e+00	0	43	0	10485760	61	4283
2026-01-01 05:12:30.42	311.60	33.45	-40.9	-41.8	20.7	0.00e+00	0	44	0	30408704	51	4177
2026-01-01 05:12:33.56	310.41	33.56	-39.3	-40.2	22.2	0.00e+00	0	43	0	52428800	48	4102
2026-01-01 05:12:36.41	309.33	33.64	-39.1	-40.0	22.3	0.00e+00	0	43	0	73400320	48	4028
2026-01-01 05:12:39.55	308.13	33.72	-39.3	-40.1	22.2	0.00e+00	0	44	0	96468992	48	4085
2026-01-01 05:12:42.40	307.04	33.77	-39.2	-40.1	22.2	0.00e+00	0	43	0	116391936	48	4062
2026-01-01 05:12:45.54	305.83	33.83	-39.1	-40.0	22.3	0.00e+00	0	43	0	139460608	48	4021
2026-01-01 05:12:48.40	304.73	33.86	-38.8	-39.7	22.7	0.00e+00	0	43	0	160432128	48	3871
2026-01-01 05:12:51.53	303.52	33.88	-38.8	-39.7	22.6	0.00e+00	0	43	0	182452224	48	3900
2026-01-01 05:12:54.37	302.42	33.89	-38.7	-39.5	22.7	0.00e+00	0	44	0	203423744	48	3824
2026-01-01 05:12:57.50	301.21	33.89	-38.7	-39.5	22.7	0.00e+00	0	44	0	225443840	48	3819
2026-01-01 05:13:00.35	300.11	33.87	-39.2	-40.1	22.2	0.00e+00	0	43	0	246415360	48	4072
2026-01-01 05:13:03.48	298.90	33.84	-39.0	-39.9	22.4	0.00e+00	0	43	0	268435456	48	3971
2026-01-01 05:13:06.32	297.81	33.80	-38.9	-39.8	22.5	0.00e+00	0	43	0	289406976	48	3920
2026-01-01 05:13:09.45	296.61	33.74	-39.0	-39.9	22.4	0.00e+00	0	43	0	312475648	48	3985
2026-01-01 05:13:12.31	295.51	33.67	-38.9	-39.7	22.5	0.00e+00	0	43	0	332398592	48	3900
2026-01-01 05:13:15.44	294.32	33.58	-38.8	-39.7	22.6	0.00e+00	0	43	0	355467264	48	3890
2026-01-01 05:13:18.29	293.24	33.49	-38.9	-39.8	22.5	0.00e+00	0	43	0	375390208	48	3926
2026-01-01 05:13:21.43	292.06	33.38	-38.8	-39.6	22.7	0.00e+00	0	44	0	398458880	48	3867
2026-01-01 05:13:24.29	290.99	33.27	-38.9	-39.7	22.6	0.00e+00	0	43	0	418381824	48	3908
2026-01-01 05:13:27.43	289.83	33.13	-38.8	-39.7	22.6	0.00e+00	0	43	0	441450496	48	3879
2026-01-01 05:13:30.28	288.78	32.99	-38.9	-39.8	22.6	0.00e+00	0	43	0	462422016	48	3915
2026-01-01 05:13:33.42	287.63	32.83	-39.1	-40.0	22.4	0.00e+00	0	43	0	484442112	48	4008
2026-01-01 05:13:36.27	286.61	32.67	-38.9	-39.8	22.5	0.00e+00	0	43	0	505413632	48	3914
2026-01-01 05:13:39.40	285.49	32.49	-39.1	-40.0	22.3	0.00e+00	0	43	0	528482304	48	4005
2026-01-01 05:13:42.26	284.48	32.31	-39.2	-40.1	22.3	0.00e+00	0	43	0	548405248	48	4076
2026-01-01 05:13:45.41	283.38	32.11	-39.2	-40.0	22.3	0.00e+00	0	44	0	571473920	48	4045
2026-01-01 05:13:48.26	282.39	31.91	-38.9	-39.8	22.5	0.00e+00	0	43	0	592445440	48	3932
2026-01-01 05:13:51.41	281.32	31.69	-38.9	-39.7	22.6	0.00e+00	0	43	0	614465536	48	3909
2026-01-01 05:13:54.27	280.36	31.48	-38.9	-39.8	22.5	0.00e+00	0	43	0	635437056	48	3936
2026-01-01 05:13:57.42	279.32	31.23	-39.0	-39.8	22.5	0.00e+00	0	43	0	658505728	48	3942
2026-01-01 05:14:00.27	278.39	31.01	-39.2	-40.1	22.3	0.00e+00	0	43	0	678428672	48	4052
2026-01-01 05:14:03.42	277.37	30.75	-39.3	-40.1	22.1	0.00e+00	0	43	0	701497344	48	4094
2026-01-01 05:14:06.27	276.47	30.51	-39.1	-39.9	22.4	0.00e+00	0	43	0	722468864	48	3996
2026-01-01 05:14:09.42	275.49	30.24	-39.1	-39.9	22.3	0.00e+00	0	43	0	744488960	48	3990
2026-01-01 05:14:12.28	274.61	29.99	-39.3	-40.1	22.2	0.00e+00	0	43	0	765460480	48	4085
2026-01-01 05:14:15.42	273.67	29.70	-39.2	-40.1	22.3	0.00e+00	0	43	0	788529152	48	4077
2026-01-01 05:14:18.28	272.82	29.44	-39.3	-40.1	22.2	0.00e+00	0	43	0	808452096	48	4089
2026-01-01 05:14:21.42	271.90	29.15	-39.2	-40.1	22.2	0.00e+00	0	43	0	831520768	48	4075
2026-01-01 05:14:24.28	271.08	28.87	-39.3	-40.2	22.1	0.00e+00	0	44	0	852492288	48	4126
2026-01-01 05:14:27.44	270.20	28.57	-39.2	-40.1	22.3	0.00e+00	0	43	0	874512384	48	4054
2026-01-01 05:14:30.29	269.41	28.29	-39.0	-39.8	22.4	0.00e+00	0	43	0	895483904	48	3953
2026-01-01 05:14:33.44	268.55	27.98	-39.0	-39.8	22.4	0.00e+00	0	43	0	918552576	48	3957
2026-01-01 05:14:36.30	267.79	27.69	-39.3	-40.2	22.1	0.00e+00	0	43	0	938475520	48	4103
2026-01-01 05:14:39.45	266.97	27.38	-39.7	-40.6	21.8	0.00e+00	0	43	0	961544192	48	4303
2026-01-01 05:14:42.31	266.24	27.09	-39.6	-40.5	21.9	0.00e+00	0	43	0	982515712	48	4272
2026-01-01 05:14:45.46	265.45	26.76	-39.6	-40.4	21.8	0.00e+00	0	43	0	1004535808	48	4241
2026-01-01 05:14:48.31	264.75	26.47	-39.4	-40.2	22.1	0.00e+00	0	43	0	1025507328	49	3908
2026-01-01 05:14:51.46	263.98	26.14	-39.4	-40.3	22.0	0.00e+00	0	43	0	1048576000	49	3930
2026-01-01 05:14:54.32	263.31	25.85	-39.6	-40.5	21.7	0.00e+00	0	43	0	1068498944	49	4008
2026-01-01 05:14:57.46	262.58	25.52	-39.6	-40.5	21.8	0.00e+00	0	43	0	1091567616	49	4017
2026-01-01 05:15:00.32	261.93	25.22	-39.5	-40.4	21.9	0.00e+00	0	43	0	1112539136	49	3991
2026-01-01 05:15:03.46	261.23	24.89	-39.4	-40.3	22.0	0.00e+00	0	43	0	1134559232	49	3933
2026-01-01 05:15:06.32	260.60	24.59	-39.5	-40.4	21.9	0.00e+00	0	43	0	1155530752	49	3993
2026-01-01 05:15:09.46	259.93	24.26	-39.7	-40.5	21.7	0.00e+00	0	43	0	1178599424	49	4049
2026-01-01 05:15:12.30	259.33	23.96	-39.8	-40.7	21.6	0.00e+00	0	43	0	1198522368	49	4141
2026-01-01 05:15:15.44	258.68	23.63	-39.7	-40.6	21.6	0.00e+00	0	43	0	1221591040	49	4080
2026-01-01 05:15:18.28	258.11	23.33	-39.6	-40.5	21.8	0.00e+00	0	43	0	1241513984	49	4018
2026-01-01 05:15:21.43	257.49	23.00	-39.6	-40.5	21.8	0.00e+00	0	43	0	1264582656	49	4025
2026-01-01 05:15:24.29	256.93	22.71	-39.8	-40.7	21.6	0.00e+00	0	43	0	1285554176	49	4111
2026-01-01 05:15:27.43	256.34	22.38	-39.7	-40.6	21.7	0.00e+00	0	43	0	1307574272	49	4064
2026-01-01 05:15:30.28	255.81	22.08	-39.7	-40.6	21.7	0.00e+00	0	44	0	1328545792	49	4066
2026-01-01 05:15:33.41	255.24	21.76	-39.8	-40.7	21.6	0.00e+00	0	43	0	1351614464	49	4141
2026-01-01 05:15:36.26	254.73	21.46	-40.0	-40.9	21.4	0.00e+00	0	43	0	1371537408	49	4217
2026-01-01 05:15:39.39	254.18	21.14	-39.9	-40.8	21.5	0.00e+00	0	43	0	1394606080	49	4184
2026-01-01 05:15:42.24	253.69	20.85	-39.9	-40.8	21.4	0.00e+00	0	43	0	1414529024	49	4161
2026-01-01 05:15:45.38	253.16	20.53	-40.1	-41.0	21.2	0.00e+00	0	43	0	1437597696	49	4280
2026-01-01 05:15:48.23	252.69	20.24	-40.4	-41.3	21.0	0.00e+00	0	43	0	1457520640	50	4183
2026-01-01 05:15:51.37	252.18	19.92	-40.2	-41.1	21.1	0.00e+00	0	44	0	1480589312	50	4087
2026-01-01 05:15:54.23	251.73	19.63	-40.1	-41.0	21.3	0.00e+00	0	43	0	1501560832	50	4008
2026-01-01 05:15:57.37	251.24	19.32	-40.3	-41.2	21.0	0.00e+00	0	43	0	1523580928	50	4124
2026-01-01 05:16:00.23	250.81	19.03	-40.6	-41.5	20.8	0.00e+00	0	43	0	1544552448	50	4275
2026-01-01 05:16:03.37	250.34	18.72	-40.6	-41.5	20.8	0.00e+00	0	43	0	1567621120	50	4261
2026-01-01 05:16:06.23	249.92	18.44	-40.5	-41.4	20.8	0.00e+00	0	43	0	1587544064	50	4238
2026-01-01 05:16:09.37	249.47	18.13	-40.7	-41.7	20.5	0.00e+00	0	43	0	1610612736	50	4370
2026-01-01 05:16:12.23	249.07	17.85	-41.0	-42.0	20.3	0.00e+00	0	43	0	1631584256	51	4273
2026-01-01 05:16:15.38	248.63	17.55	-41.1	-42.1	20.2	0.00e+00	0	43	0	1653604352	51	4302
2026-01-01 05:16:18.23	248.25	17.28	-40.9	-41.9	20.4	0.00e+00	0	43	0	1674575872	51	4217
2026-01-01 05:16:21.38	247.83	16.98	-40.8	-41.8	20.5	0.00e+00	0	43	0	1697644544	51	4172
2026-01-01 05:16:24.24	247.46	16.70	-40.8	-41.8	20.5	0.00e+00	0	43	0	1717567488	51	4149
2026-01-01 05:16:27.39	247.05	16.41	-41.0	-42.0	20.2	0.00e+00	0	43	0	1740636160	51	4259
2026-01-01 05:16:30.22	246.70	16.14	-41.3	-42.3	19.9	0.00e+00	0	43	0	1761607680	51	4413
2026-01-01 05:16:33.37	246.31	15.85	-41.6	-42.7	19.6	0.00e+00	0	43	0	1783627776	52	4341
2026-01-01 05:16:36.22	245.97	15.59	-41.8	-42.8	19.4	0.00e+00	0	43	0	1804599296	53	4189
2026-01-01 05:16:39.37	245.59	15.30	-41.5	-42.6	19.6	0.00e+00	0	43	0	1827667968	53	4058
2026-01-01 05:16:42.23	245.26	15.04	-41.2	-42.2	19.9	0.00e+00	0	43	0	1848639488	53	3900
2026-01-01 05:16:45.38	244.90	14.76	-41.2	-42.1	20.0	0.00e+00	0	43	0	1870659584	53	3863
2026-01-01 05:16:48.23	244.58	14.50	-41.2	-42.2	19.9	0.00e+00	0	43	0	1891631104	53	3903
2026-01-01 05:16:51.38	244.24	14.22	-41.5	-42.6	19.5	0.00e+00	0	44	0	1914699776	53	4098
2026-01-01 05:16:54.24	243.93	13.97	-41.7	-42.9	19.3	0.00e+00	0	44	0	1934622720	53	4205
2026-01-01 05:16:57.39	243.59	13.70	-41.6	-42.7	19.4	0.00e+00	0	43	0	1957691392	53	4141
2026-01-01 05:17:00.25	243.30	13.45	-41.7	-42.8	19.3	0.00e+00	0	43	0	1977614336	53	4172
2026-01-01 05:17:03.40	242.97	13.18	-41.9	-43.0	19.1	0.00e+00	0	43	0	2000683008	53	4260
2026-01-01 05:17:06.26	242.69	12.93	-42.1	-43.2	18.8	0.00e+00	0	43	0	2021654528	53	4385
2026-01-01 05:17:09.40	242.37	12.66	-42.4	-43.6	18.5	0.00e+00	0	43	0	2043674624	54	4300
2026-01-01 05:17:12.25	242.10	12.42	-42.5	-43.7	18.4	0.00e+00	0	43	0	2064646144	54	4360
2026-01-01 05:17:15.38	241.80	12.16	-42.4	-43.5	18.6	0.00e+00	0	43	0	2087714816	54	4259
2026-01-01 05:17:18.23	241.53	11.92	-42.3	-43.4	18.7	0.00e+00	0	43	0	2107637760	54	4202
2026-01-01 05:17:21.36	241.24	11.67	-42.1	-43.2	18.9	0.00e+00	0	43	0	2130706432	54	4110
2026-01-01 05:17:24.21	240.99	11.43	-42.1	-43.2	18.8	0.00e+00	0	43	0	2150629376	54	4127
2026-01-01 05:17:27.35	240.71	11.18	-42.2	-43.3	18.7	0.00e+00	0	43	0	2173698048	54	4175
2026-01-01 05:17:30.19	240.46	10.95	-42.4	-43.5	18.5	0.00e+00	0	43	0	2194669568	54	4275
2026-01-01 05:17:33.33	240.19	10.70	-42.5	-43.6	18.4	0.00e+00	0	43	0	2216689664	54	4339
2026-01-01 05:17:36.18	239.95	10.47	-42.4	-43.6	18.4	0.00e+00	0	43	0	2237661184	54	4300
2026-01-01 05:17:39.31	239.69	10.22	-42.6	-43.8	18.2	0.00e+00	0	43	0	2259681280	54	4404
2026-01-01 05:17:42.16	239.45	10.00	-42.7	-43.9	18.1	0.00e+00	0	43	0	2280652800	54	4472
2026-01-01 05:17:45.30	239.20	9.76	-42.9	-44.1	18.0	0.00e+00	0	44	0	2303721472	55	4308
2026-01-01 05:17:48.15	238.97	9.54	-42.9	-44.1	17.9	0.00e+00	0	43	0	2323644416	55	4310
2026-01-01 05:17:51.30	238.73	9.30	-42.9	-44.1	17.9	0.00e+00	0	43	0	2346713088	55	4305
2026-01-01 05:17:54.15	238.51	9.08	-42.8	-43.9	18.0	0.00e+00	0	43	0	2367684608	55	4236
2026-01-01 05:17:57.29	238.27	8.84	-52.5	-63.5	3.8	8.46e-01	0	43	104	2379218944	74	13539
2026-01-01 05:18:00.14	238.06	8.63	-52.6	-63.9	3.8	8.46e-01	0	43	104	2379218944	75	13277
2026-01-01 05:18:03.28	237.83	8.40	-53.1	-64.0	3.8	8.47e-01	0	43	104	2379218944	75	13522
2026-01-01 05:18:06.13	237.62	8.18	-52.9	-64.0	3.8	8.47e-01	0	44	104	2379218944	75	13471
2026-01-01 05:18:09.27	237.40	7.95	-53.1	-64.0	3.8	8.47e-01	0	44	104	2379218944	75	13544
2026-01-01 05:18:12.13	237.20	7.75	-53.2	-64.1	3.8	8.48e-01	0	44	104	2379218944	75	13580
2026-01-01 05:18:15.26	236.99	7.52	-53.2	-64.0	3.8	8.48e-01	0	44	104	2379218944	75	13538
2026-01-01 05:18:18.11	236.79	7.31	-53.0	-64.0	3.8	8.48e-01	0	43	104	2379218944	75	13435
2026-01-01 05:18:21.24	236.59	7.09	-53.0	-64.1	3.8	8.47e-01	0	44	104	2379218944	75	13594
2026-01-01 05:18:24.10	236.40	6.89	-53.0	-64.0	3.8	8.47e-01	0	44	104	2379218944	75	13514
2026-01-01 05:18:27.24	236.19	6.67	-53.0	-64.0	3.8	8.46e-01	0	44	104	2379218944	75	13442
2026-01-01 05:18:30.09	236.01	6.47	-53.0	-64.0	3.8	8.48e-01	0	44	104	2379218944	75	13464
2026-01-01 05:18:33.23	235.82	6.25	-53.1	-64.1	3.8	8.46e-01	0	44	104	2379218944	75	13636
2026-01-01 05:18:36.09	235.64	6.05	-53.1	-64.0	3.8	8.48e-01	0	43	104	2379218944	75	13564
2026-01-01 05:18:39.22	235.45	5.84	-53.0	-64.0	3.8	8.45e-01	0	44	104	2379218944	75	13428
2026-01-01 05:18:42.08	235.28	5.64	-53.0	-64.0	3.8	8.47e-01	0	44	104	2379218944	75	13426
2026-01-01 05:18:45.22	235.09	5.43	-53.0	-63.9	3.8	8.47e-01	0	44	104	2379218944	75	13383
2026-01-01 05:18:48.09	234.92	5.24	-53.0	-63.9	3.8	8.47e-01	0	44	104	2379218944	75	13390
2026-01-01 05:18:51.23	234.74	5.03	-53.0	-64.0	3.8	8.47e-01	0	43	104	2379218944	75	13488

#Closed at: 2026-01-01 05:18:53
#Recorded file [2379 MB]: D:/Data/31040_260101_080656.dat