passes_logs/2026/01/01/T1/T1__20260101_202537_KHAYYAM_rec.log

#Pass ID: 20260101_202537_KHAYYAM
#Satellite: KHAYYAM
#Configuration: KHAYYAM_480M
#almurnet v.1.7.20251203
#Start time: 2026-01-01 20:25:38

#Version: 2.0.20230620
#Station: T1
#Location: 37.570604 lon 55.790049 lat
#TLE: 1 53370U 22096A   25365.91236145  .00003272  00000+0  13536-3 0  9993
#TLE: 2 53370  97.3565 268.1736 0001188  73.2664 286.8704 15.24655091189094

#Time	Az	El	Level	Level2	SNR	BER	BlckErr	Temp	State	Recorded	gain1	gain2
2026-01-01 20:25:38.04	28.77	5.68	-49.1	-52.0	3.7	0.00e+00	0	41	0	0	68	21618
2026-01-01 20:25:40.04	28.98	5.82	-49.1	-52.0	3.9	0.00e+00	0	41	104	0	68	21644
2026-01-01 20:25:42.04	29.18	5.97	-49.1	-51.9	3.9	0.00e+00	0	42	104	0	68	21585
2026-01-01 20:25:44.04	29.39	6.12	-49.1	-51.9	3.9	0.00e+00	0	42	104	0	68	21601
2026-01-01 20:25:46.04	29.60	6.28	-49.1	-51.9	3.9	0.00e+00	0	42	104	0	68	21586
2026-01-01 20:25:48.04	29.81	6.43	-49.1	-52.0	3.9	0.00e+00	0	42	104	0	68	21712
2026-01-01 20:25:50.04	30.03	6.58	-49.1	-52.0	3.9	0.00e+00	0	42	104	0	68	21714
2026-01-01 20:25:52.04	30.24	6.74	-49.1	-52.0	3.9	0.00e+00	0	42	104	0	68	21679
2026-01-01 20:25:54.04	30.46	6.89	-49.1	-52.0	3.9	0.00e+00	0	42	104	0	68	21631
2026-01-01 20:25:56.05	30.69	7.05	-49.1	-52.0	3.9	0.00e+00	0	43	104	0	68	21786
2026-01-01 20:25:58.05	30.92	7.21	-49.1	-52.0	3.9	0.00e+00	0	43	104	0	68	21741
2026-01-01 20:26:00.06	31.15	7.36	-49.1	-52.0	3.9	0.00e+00	0	43	104	0	68	21681
2026-01-01 20:26:02.07	31.38	7.53	-49.1	-52.0	3.9	0.00e+00	0	43	104	0	68	21708
2026-01-01 20:26:04.07	31.62	7.69	-49.1	-52.0	3.9	0.00e+00	0	43	104	0	68	21647
2026-01-01 20:26:06.07	31.86	7.85	-49.1	-52.0	3.9	0.00e+00	0	43	104	0	68	21719
2026-01-01 20:26:08.08	32.10	8.01	-49.1	-52.0	3.9	0.00e+00	0	43	104	0	68	21708
2026-01-01 20:26:10.08	32.35	8.17	-49.1	-52.0	3.9	0.00e+00	0	44	104	0	68	21684
2026-01-01 20:26:12.09	32.60	8.34	-49.1	-52.0	3.9	0.00e+00	0	44	104	0	68	21661
2026-01-01 20:26:14.09	32.85	8.50	-49.1	-52.0	3.9	0.00e+00	0	44	104	0	68	21645
2026-01-01 20:26:16.10	33.11	8.67	-49.1	-52.0	3.9	0.00e+00	0	44	104	0	68	21692
2026-01-01 20:26:18.10	33.37	8.84	-49.1	-52.0	3.9	0.00e+00	0	44	104	0	68	21641
2026-01-01 20:26:20.11	33.63	9.01	-49.1	-51.9	3.9	0.00e+00	0	44	104	0	68	21598
2026-01-01 20:26:22.11	33.90	9.18	-43.9	-45.5	3.9	0.00e+00	0	44	104	0	59	17329
2026-01-01 20:26:24.11	34.17	9.35	-38.5	-39.9	3.4	0.00e+00	0	44	104	0	48	16991
2026-01-01 20:26:26.12	34.45	9.52	-40.8	-42.2	3.3	0.00e+00	0	44	104	0	53	16758
2026-01-01 20:26:28.12	34.73	9.70	-47.7	-50.0	3.7	0.00e+00	0	44	104	0	65	20504
2026-01-01 20:26:30.11	35.01	9.87	-42.8	-44.4	3.5	0.00e+00	0	45	104	0	56	18055
2026-01-01 20:26:32.12	35.30	10.05	-44.6	-46.5	3.5	0.00e+00	0	45	104	0	59	19270
2026-01-01 20:26:34.12	35.59	10.22	-41.7	-43.2	3.5	0.00e+00	0	45	104	0	55	16594
2026-01-01 20:26:36.12	35.88	10.40	-43.4	-45.0	3.5	0.00e+00	0	45	104	0	57	18389
2026-01-01 20:26:38.12	36.18	10.58	-46.4	-48.8	3.6	0.00e+00	0	45	104	0	63	20103
2026-01-01 20:26:40.12	36.49	10.76	-46.5	-48.7	4.0	0.00e+00	0	45	104	0	64	18721
2026-01-01 20:26:42.13	36.80	10.94	-43.2	-44.8	3.8	0.00e+00	0	45	104	0	58	16832
2026-01-01 20:26:44.13	37.11	11.13	-42.8	-44.2	4.3	0.00e+00	0	45	104	0	57	16685
2026-01-01 20:26:46.13	37.43	11.31	-43.0	-44.4	4.0	0.00e+00	0	45	104	0	57	17126
2026-01-01 20:26:48.13	37.75	11.50	-44.2	-45.8	3.8	0.00e+00	0	45	104	0	59	17859
2026-01-01 20:26:50.13	38.08	11.68	-42.7	-44.2	4.5	0.00e+00	0	45	104	0	57	16609
2026-01-01 20:26:52.14	38.41	11.87	-44.0	-45.5	3.5	0.00e+00	0	45	104	0	59	17355
2026-01-01 20:26:54.14	38.75	12.06	-45.7	-47.4	3.8	0.00e+00	0	45	104	0	61	19137
2026-01-01 20:26:56.14	39.10	12.25	-46.8	-48.8	3.8	0.00e+00	0	45	104	0	64	18848
2026-01-01 20:26:58.15	39.45	12.44	-47.7	-49.7	4.1	0.00e+00	0	45	104	0	65	19898
2026-01-01 20:27:00.15	39.80	12.63	-46.8	-48.7	4.3	0.00e+00	0	46	104	0	65	17669
2026-01-01 20:27:02.15	40.16	12.83	-49.1	-51.6	3.9	0.00e+00	0	45	104	0	69	19689
2026-01-01 20:27:04.16	40.53	13.02	-47.7	-50.0	3.6	0.00e+00	0	46	104	0	67	18217
2026-01-01 20:27:06.16	40.90	13.22	-49.8	-52.9	3.7	0.00e+00	0	45	104	0	70	21600
2026-01-01 20:27:08.16	41.28	13.42	-50.3	-53.4	3.7	0.00e+00	0	45	104	0	71	21511
2026-01-01 20:27:10.16	41.66	13.61	-50.2	-53.4	3.7	0.00e+00	0	46	104	0	71	21548
2026-01-01 20:27:12.17	42.05	13.81	-49.4	-52.1	3.6	0.00e+00	0	46	104	0	70	19521
2026-01-01 20:27:14.17	42.44	14.01	-48.8	-51.2	3.6	0.00e+00	0	46	104	0	69	18679
2026-01-01 20:27:16.17	42.85	14.22	-50.4	-53.4	3.7	0.00e+00	0	46	104	0	71	21493
2026-01-01 20:27:18.18	43.26	14.42	-51.2	-54.7	3.7	0.00e+00	0	46	104	0	73	22294
2026-01-01 20:27:20.18	43.67	14.62	-50.3	-53.2	3.6	0.00e+00	0	46	104	0	71	21051
2026-01-01 20:27:22.18	44.09	14.83	-51.7	-55.6	3.7	0.00e+00	0	46	104	0	73	24639
2026-01-01 20:27:24.18	44.52	15.03	-49.6	-52.4	3.6	0.00e+00	0	46	104	0	71	19110
2026-01-01 20:27:26.19	44.96	15.24	-48.9	-51.5	3.7	0.00e+00	0	46	104	0	69	19375
2026-01-01 20:27:28.19	45.40	15.45	-49.9	-52.7	3.7	0.00e+00	0	46	104	0	70	20902
2026-01-01 20:27:30.19	45.85	15.66	-50.6	-53.9	3.7	0.00e+00	0	46	104	0	72	21432
2026-01-01 20:27:32.20	46.31	15.87	-51.0	-54.6	3.7	0.00e+00	0	46	104	0	72	23289
2026-01-01 20:27:34.20	46.77	16.08	-51.1	-54.8	3.7	0.00e+00	0	46	104	0	73	22499
2026-01-01 20:27:36.19	47.24	16.29	-51.6	-55.5	3.7	0.00e+00	0	46	104	0	74	23132
2026-01-01 20:27:38.19	47.72	16.50	-51.9	-56.0	3.7	0.00e+00	0	46	104	0	74	24505
2026-01-01 20:27:40.19	48.21	16.71	-51.7	-55.7	3.7	0.00e+00	0	46	104	0	74	23491
2026-01-01 20:27:42.19	48.71	16.92	-51.7	-55.9	3.7	0.00e+00	0	46	104	0	74	24010
2026-01-01 20:27:44.19	49.21	17.14	-51.7	-55.8	3.7	0.00e+00	0	46	104	0	74	23837
2026-01-01 20:27:46.19	49.73	17.35	-51.9	-56.2	3.7	0.00e+00	0	46	104	0	74	24985
2026-01-01 20:27:48.18	50.24	17.56	-52.1	-56.5	3.7	0.00e+00	0	46	104	0	75	24516
2026-01-01 20:27:50.19	50.78	17.78	-52.1	-56.5	3.7	0.00e+00	0	47	104	0	75	24264
2026-01-01 20:27:52.19	51.32	17.99	-52.1	-56.6	3.7	0.00e+00	0	46	104	0	75	24706
2026-01-01 20:27:54.19	51.86	18.21	-52.0	-56.6	3.7	0.00e+00	0	47	104	0	75	24646
2026-01-01 20:27:56.19	52.42	18.43	-51.8	-56.3	3.7	0.00e+00	0	47	104	0	75	23911
2026-01-01 20:27:58.19	52.98	18.64	-52.1	-56.7	3.7	0.00e+00	0	47	104	0	75	24970
2026-01-01 20:28:00.18	53.56	18.86	-52.3	-56.8	3.7	0.00e+00	0	47	104	0	75	25187
2026-01-01 20:28:02.18	54.14	19.07	-52.2	-56.6	3.7	0.00e+00	0	46	104	0	75	24716
2026-01-01 20:28:04.17	54.73	19.29	-51.5	-55.8	3.7	0.00e+00	0	47	104	0	74	23803
2026-01-01 20:28:06.17	55.33	19.50	-51.8	-56.3	3.7	0.00e+00	0	47	104	0	74	25241
2026-01-01 20:28:08.17	55.95	19.72	-52.0	-56.4	3.7	0.00e+00	0	47	104	0	74	25656
2026-01-01 20:28:10.17	56.57	19.93	-52.1	-56.8	3.7	0.00e+00	0	47	104	0	74	26687
2026-01-01 20:28:12.16	57.20	20.14	-52.1	-56.8	3.7	0.00e+00	0	47	104	0	74	26706
2026-01-01 20:28:14.16	57.84	20.35	-52.0	-56.5	3.7	0.00e+00	0	47	104	0	75	24521
2026-01-01 20:28:16.16	58.49	20.56	-51.7	-56.3	3.7	0.00e+00	0	47	104	0	75	23695
2026-01-01 20:28:18.16	59.16	20.77	-51.4	-56.0	3.7	0.00e+00	0	47	104	0	74	24445
2026-01-01 20:28:20.16	59.83	20.98	-51.9	-56.4	3.7	0.00e+00	0	47	104	0	74	25480
2026-01-01 20:28:22.16	60.51	21.19	-51.8	-56.4	3.7	0.00e+00	0	47	104	0	74	25537
2026-01-01 20:28:24.16	61.21	21.40	-51.9	-56.7	3.7	0.00e+00	0	47	104	0	74	26287
2026-01-01 20:28:26.16	61.91	21.60	-52.1	-56.8	3.7	0.00e+00	0	47	104	0	74	26596
2026-01-01 20:28:28.15	62.62	21.80	-52.0	-56.3	3.7	0.00e+00	0	47	104	0	75	23935
2026-01-01 20:28:30.16	63.35	22.00	-52.1	-56.8	3.7	0.00e+00	0	47	104	0	75	25228
2026-01-01 20:28:32.15	64.09	22.20	-52.1	-56.6	3.7	0.00e+00	0	47	104	0	75	24550
2026-01-01 20:28:34.14	64.83	22.39	-52.3	-56.9	3.7	0.00e+00	0	47	104	0	75	25468
2026-01-01 20:28:36.14	65.59	22.59	-52.0	-56.8	3.7	0.00e+00	0	47	104	0	75	25097
2026-01-01 20:28:38.15	66.36	22.78	-52.6	-57.1	3.7	0.00e+00	0	47	104	0	75	26176
2026-01-01 20:28:40.14	67.13	22.96	-52.6	-57.1	3.7	0.00e+00	0	47	104	0	75	26229
2026-01-01 20:28:42.14	67.92	23.15	-52.3	-56.8	3.7	0.00e+00	0	47	104	0	75	25304
2026-01-01 20:28:44.14	68.72	23.33	-52.4	-57.0	3.7	0.00e+00	0	47	104	0	75	25869
2026-01-01 20:28:46.13	69.52	23.50	-52.1	-56.8	3.7	0.00e+00	0	47	104	0	75	25117
2026-01-01 20:28:48.12	70.34	23.67	-52.3	-57.0	3.7	0.00e+00	0	47	104	0	75	25739
2026-01-01 20:28:50.12	71.17	23.84	-52.4	-56.9	3.7	0.00e+00	0	47	104	0	75	25452
2026-01-01 20:28:52.12	72.01	24.00	-52.4	-57.0	3.7	0.00e+00	0	47	104	0	75	25845
2026-01-01 20:28:54.11	72.85	24.16	-52.2	-56.6	3.7	0.00e+00	0	47	104	0	75	24590
2026-01-01 20:28:56.11	73.71	24.31	-52.0	-56.3	3.7	0.00e+00	0	47	104	0	75	23842
2026-01-01 20:28:58.10	74.57	24.46	-52.3	-56.7	3.7	0.00e+00	0	47	104	0	75	24957
2026-01-01 20:29:00.10	75.45	24.61	-52.1	-56.6	3.7	0.00e+00	0	47	104	0	75	24720
2026-01-01 20:29:02.09	76.33	24.74	-51.7	-56.1	3.7	0.00e+00	0	47	104	0	75	23236
2026-01-01 20:29:04.09	77.22	24.88	-51.8	-56.2	3.7	0.00e+00	0	47	104	0	75	23436
2026-01-01 20:29:06.09	78.12	25.00	-52.0	-56.6	3.7	0.00e+00	0	47	104	0	75	24764
2026-01-01 20:29:08.08	79.03	25.12	-52.1	-57.0	3.7	0.00e+00	0	47	104	0	75	25723
2026-01-01 20:29:10.08	79.95	25.24	-52.2	-56.9	3.7	0.00e+00	0	47	104	0	75	25675
2026-01-01 20:29:12.07	80.87	25.34	-51.7	-56.7	3.7	0.00e+00	0	47	104	0	75	24869
2026-01-01 20:29:14.07	81.80	25.44	-51.7	-56.6	3.7	0.00e+00	0	47	104	0	75	24640
2026-01-01 20:29:16.08	82.74	25.54	-51.4	-56.5	3.7	0.00e+00	0	47	104	0	74	25767
2026-01-01 20:29:18.08	83.68	25.62	-51.2	-56.0	3.7	0.00e+00	0	47	104	0	74	24496
2026-01-01 20:29:20.07	84.63	25.70	-51.7	-56.5	3.7	0.00e+00	0	47	104	0	74	25871
2026-01-01 20:29:22.07	85.58	25.78	-51.4	-56.4	3.7	0.00e+00	0	47	104	0	74	25408
2026-01-01 20:29:24.07	86.54	25.84	-51.8	-56.6	3.7	0.00e+00	0	47	104	0	74	26126
2026-01-01 20:29:26.06	87.50	25.90	-52.0	-56.7	3.7	0.00e+00	0	47	104	0	74	26366
2026-01-01 20:29:28.06	88.46	25.95	-51.7	-56.7	3.7	0.00e+00	0	47	104	0	74	26424
2026-01-01 20:29:30.06	89.43	25.99	-51.9	-56.8	3.7	0.00e+00	0	47	104	0	74	26796
2026-01-01 20:29:32.05	90.40	26.02	-52.1	-56.6	3.7	0.00e+00	0	47	104	0	74	26071
2026-01-01 20:29:34.05	91.37	26.05	-51.9	-56.4	3.7	0.00e+00	0	47	104	0	74	25636
2026-01-01 20:29:36.05	92.35	26.06	-51.9	-56.5	3.7	0.00e+00	0	47	104	0	74	25763
2026-01-01 20:29:38.05	93.33	26.07	-52.0	-56.1	3.7	0.00e+00	0	47	104	0	74	24792
2026-01-01 20:29:40.04	94.30	26.07	-52.0	-56.2	3.7	0.00e+00	0	47	104	0	75	23478
2026-01-01 20:29:42.04	95.28	26.07	-51.8	-56.0	3.7	0.00e+00	0	47	104	0	75	23115
2026-01-01 20:29:44.04	96.25	26.05	-51.8	-56.1	3.7	0.00e+00	0	47	104	0	75	23159
2026-01-01 20:29:46.04	97.23	26.03	-52.0	-56.3	3.7	0.00e+00	0	48	104	0	75	23753
2026-01-01 20:29:48.04	98.20	26.00	-51.9	-56.3	3.7	0.00e+00	0	48	104	0	75	23931
2026-01-01 20:29:50.04	99.17	25.96	-51.9	-56.5	3.7	0.00e+00	0	47	104	0	75	24465
2026-01-01 20:29:52.04	100.14	25.91	-52.1	-56.5	3.7	0.00e+00	0	47	104	0	75	24287
2026-01-01 20:29:54.03	101.10	25.86	-52.4	-56.8	3.7	0.00e+00	0	47	104	0	75	25177
2026-01-01 20:29:56.02	102.06	25.80	-52.4	-57.1	3.7	0.00e+00	0	47	104	0	75	26100
2026-01-01 20:29:58.02	103.02	25.73	-52.3	-57.0	3.7	0.00e+00	0	47	104	0	75	25705
2026-01-01 20:30:00.01	103.97	25.65	-52.4	-57.0	3.7	0.00e+00	0	47	104	0	75	25976
2026-01-01 20:30:02.00	104.91	25.57	-52.2	-56.9	3.7	0.00e+00	0	48	104	0	75	25539
2026-01-01 20:30:04.00	105.85	25.48	-52.3	-57.0	3.7	0.00e+00	0	48	104	0	75	25798
2026-01-01 20:30:05.99	106.78	25.38	-52.1	-56.8	3.7	0.00e+00	0	47	104	0	75	25267
2026-01-01 20:30:07.98	107.70	25.27	-52.6	-57.1	3.7	0.00e+00	0	47	104	0	75	26222
2026-01-01 20:30:09.98	108.63	25.16	-52.5	-57.1	3.7	0.00e+00	0	47	104	0	75	26119
2026-01-01 20:30:11.98	109.54	25.04	-51.7	-56.4	3.7	0.00e+00	0	47	104	0	75	24099
2026-01-01 20:30:13.97	110.44	24.92	-51.8	-56.4	3.7	0.00e+00	0	47	104	0	75	24098
2026-01-01 20:30:15.97	111.34	24.79	-52.0	-56.7	3.7	0.00e+00	0	47	104	0	75	24986
2026-01-01 20:30:17.96	112.23	24.65	-52.0	-56.8	3.7	0.00e+00	0	48	104	0	75	25164
2026-01-01 20:30:19.95	113.11	24.51	-52.1	-56.7	3.7	0.00e+00	0	47	104	0	75	25017
2026-01-01 20:30:21.94	113.98	24.36	-52.0	-56.6	3.7	0.00e+00	0	47	104	0	75	24775
2026-01-01 20:30:23.95	114.85	24.21	-52.2	-56.9	3.7	0.00e+00	0	48	104	0	75	25487
2026-01-01 20:30:25.94	115.70	24.05	-52.4	-57.0	3.7	0.00e+00	0	47	104	0	75	25742
2026-01-01 20:30:27.94	116.54	23.89	-51.8	-56.5	3.7	0.00e+00	0	48	104	0	75	24384
2026-01-01 20:30:29.94	117.38	23.72	-52.1	-56.4	3.7	0.00e+00	0	48	104	0	75	24238
2026-01-01 20:30:31.94	118.21	23.55	-52.3	-56.9	3.7	0.00e+00	0	48	104	0	75	25483
2026-01-01 20:30:33.94	119.02	23.38	-52.2	-56.9	3.7	0.00e+00	0	48	104	0	75	25427
2026-01-01 20:30:35.94	119.83	23.20	-52.5	-56.9	3.7	0.00e+00	0	47	104	0	75	25660
2026-01-01 20:30:37.94	120.62	23.01	-52.5	-57.0	3.7	0.00e+00	0	48	104	0	75	25740
2026-01-01 20:30:39.93	121.40	22.83	-52.2	-56.7	3.7	0.00e+00	0	48	104	0	75	24932
2026-01-01 20:30:41.94	122.18	22.64	-52.2	-56.6	3.7	0.00e+00	0	47	104	0	75	24633
2026-01-01 20:30:43.93	122.94	22.44	-52.1	-56.5	3.7	0.00e+00	0	48	104	0	75	24425
2026-01-01 20:30:45.93	123.70	22.25	-52.1	-56.6	3.7	0.00e+00	0	48	104	0	75	24772
2026-01-01 20:30:47.93	124.44	22.05	-52.2	-56.6	3.7	0.00e+00	0	48	104	0	75	24780
2026-01-01 20:30:49.94	125.18	21.85	-52.2	-56.7	3.7	0.00e+00	0	48	104	0	75	24941
2026-01-01 20:30:51.93	125.90	21.65	-51.6	-56.4	3.7	0.00e+00	0	48	104	0	74	25634
2026-01-01 20:30:53.93	126.61	21.44	-51.4	-56.4	3.7	0.00e+00	0	48	104	0	74	25575
2026-01-01 20:30:55.93	127.31	21.23	-52.0	-56.2	3.7	0.00e+00	0	48	104	0	74	25065
2026-01-01 20:30:57.92	128.00	21.03	-52.2	-56.5	3.7	0.00e+00	0	47	104	0	75	24283
2026-01-01 20:30:59.93	128.68	20.82	-52.1	-56.5	3.7	0.00e+00	0	48	104	0	75	24344
2026-01-01 20:31:01.92	129.35	20.61	-52.0	-56.2	3.7	0.00e+00	0	48	104	0	75	23653
2026-01-01 20:31:03.92	130.01	20.39	-52.0	-56.6	3.7	0.00e+00	0	48	104	0	75	24547
2026-01-01 20:31:05.92	130.65	20.18	-51.9	-56.4	3.7	0.00e+00	0	48	104	0	75	24037
2026-01-01 20:31:07.91	131.29	19.97	-52.0	-56.4	3.7	0.00e+00	0	48	104	0	75	24030
2026-01-01 20:31:09.91	131.92	19.75	-52.0	-56.4	3.7	0.00e+00	0	48	104	0	75	24065
2026-01-01 20:31:11.91	132.54	19.53	-51.8	-56.2	3.7	0.00e+00	0	48	104	0	75	23523
2026-01-01 20:31:13.92	133.15	19.32	-51.8	-56.1	3.7	0.00e+00	0	47	104	0	75	23161
2026-01-01 20:31:15.92	133.75	19.10	-52.2	-56.5	3.7	0.00e+00	0	48	104	0	75	24278
2026-01-01 20:31:17.92	134.34	18.88	-52.1	-56.4	3.7	0.00e+00	0	48	104	0	75	24195
2026-01-01 20:31:19.91	134.92	18.67	-52.1	-56.5	3.7	0.00e+00	0	48	104	0	75	24390
2026-01-01 20:31:21.91	135.49	18.45	-52.1	-56.5	3.7	0.00e+00	0	47	104	0	75	24412
2026-01-01 20:31:23.91	136.05	18.23	-51.7	-56.2	3.7	0.00e+00	0	48	104	0	75	23601
2026-01-01 20:31:25.91	136.61	18.01	-51.7	-56.2	3.7	0.00e+00	0	48	104	0	75	23471
2026-01-01 20:31:27.90	137.15	17.80	-52.1	-56.5	3.7	0.00e+00	0	48	104	0	75	24474
2026-01-01 20:31:29.90	137.68	17.58	-52.0	-56.6	3.7	0.00e+00	0	48	104	0	75	24537
2026-01-01 20:31:31.89	138.21	17.36	-51.9	-56.3	3.7	0.00e+00	0	48	104	0	75	23773
2026-01-01 20:31:33.90	138.73	17.15	-51.9	-56.3	3.7	0.00e+00	0	48	104	0	75	23827
2026-01-01 20:31:35.90	139.24	16.93	-52.0	-56.5	3.7	0.00e+00	0	48	104	0	75	24274
2026-01-01 20:31:37.89	139.74	16.72	-52.0	-56.5	3.7	0.00e+00	0	48	104	0	75	24330
2026-01-01 20:31:39.89	140.23	16.50	-51.4	-56.0	3.7	0.00e+00	0	48	104	0	74	24360
2026-01-01 20:31:41.89	140.71	16.29	-51.4	-56.1	3.7	0.00e+00	0	48	104	0	74	24530
2026-01-01 20:31:43.88	141.19	16.08	-51.3	-56.2	3.7	0.00e+00	0	48	104	0	74	25043
2026-01-01 20:31:45.88	141.66	15.87	-50.8	-55.7	3.7	0.00e+00	0	48	104	0	73	25018
2026-01-01 20:31:47.89	142.12	15.65	-50.8	-55.6	3.7	0.00e+00	0	48	104	0	73	24790
2026-01-01 20:31:49.88	142.57	15.44	-50.8	-55.5	3.7	0.00e+00	0	48	104	0	73	24409
2026-01-01 20:31:51.88	143.02	15.23	-52.0	-56.7	3.7	0.00e+00	0	48	104	0	74	26328
2026-01-01 20:31:53.88	143.46	15.03	-52.0	-56.7	3.7	0.00e+00	0	48	104	0	74	26468
2026-01-01 20:31:55.89	143.89	14.82	-51.7	-56.3	3.7	0.00e+00	0	48	104	0	74	25362
2026-01-01 20:31:57.88	144.32	14.61	-51.8	-56.4	3.7	0.00e+00	0	48	104	0	74	25423
2026-01-01 20:31:59.88	144.74	14.41	-51.9	-56.5	3.7	0.00e+00	0	48	104	0	74	25817
2026-01-01 20:32:01.88	145.15	14.20	-51.8	-56.4	3.7	0.00e+00	0	48	104	0	74	25469
2026-01-01 20:32:03.88	145.55	14.00	-50.8	-55.7	3.7	0.00e+00	0	48	104	0	73	24914
2026-01-01 20:32:05.87	145.95	13.80	-51.0	-55.6	3.7	0.00e+00	0	48	104	0	73	24738
2026-01-01 20:32:07.87	146.34	13.59	-51.5	-55.9	3.7	0.00e+00	0	48	104	0	73	25600
2026-01-01 20:32:09.87	146.73	13.39	-52.0	-56.3	3.7	0.00e+00	0	48	104	0	74	25292
2026-01-01 20:32:11.87	147.11	13.20	-51.4	-56.1	3.7	0.00e+00	0	48	104	0	74	24526
2026-01-01 20:32:13.87	147.49	13.00	-51.8	-56.4	3.7	0.00e+00	0	48	104	0	74	25451
2026-01-01 20:32:15.87	147.85	12.80	-51.4	-56.0	3.7	0.00e+00	0	48	104	0	74	24368
2026-01-01 20:32:17.87	148.22	12.61	-51.9	-56.3	3.7	0.00e+00	0	48	104	0	74	25252
2026-01-01 20:32:19.86	148.57	12.41	-51.7	-56.1	3.7	0.00e+00	0	48	104	0	74	24559
2026-01-01 20:32:21.85	148.92	12.22	-50.7	-55.4	3.7	0.00e+00	0	48	104	0	73	24132
2026-01-01 20:32:23.84	149.27	12.03	-50.8	-55.4	3.7	0.00e+00	0	48	104	0	73	24128
2026-01-01 20:32:25.83	149.61	11.84	-51.3	-56.0	3.7	0.00e+00	0	48	104	0	73	25845
2026-01-01 20:32:27.82	149.94	11.65	-51.1	-55.8	3.7	0.00e+00	0	48	104	0	73	25193
2026-01-01 20:32:29.83	150.27	11.46	-51.3	-55.9	3.7	0.00e+00	0	48	104	0	73	25610
2026-01-01 20:32:31.82	150.60	11.27	-51.5	-56.1	3.7	0.00e+00	0	48	104	0	73	26005
2026-01-01 20:32:33.82	150.92	11.09	-51.2	-55.6	3.7	0.00e+00	0	48	104	0	73	24751
2026-01-01 20:32:35.81	151.23	10.91	-51.3	-56.1	3.7	0.00e+00	0	48	104	0	73	26060
2026-01-01 20:32:37.81	151.54	10.72	-51.1	-56.1	3.7	0.00e+00	0	48	104	0	73	26085
2026-01-01 20:32:39.81	151.85	10.54	-51.2	-56.0	3.7	0.00e+00	0	48	104	0	73	25907
2026-01-01 20:32:41.80	152.15	10.36	-50.9	-55.8	3.7	0.00e+00	0	48	104	0	73	25114
2026-01-01 20:32:43.80	152.45	10.18	-50.7	-55.6	3.7	0.00e+00	0	48	104	0	72	26074
2026-01-01 20:32:45.80	152.74	10.00	-50.5	-55.4	3.7	0.00e+00	0	48	104	0	72	25574
2026-01-01 20:32:47.79	153.03	9.82	-50.5	-55.4	3.7	0.00e+00	0	48	104	0	72	25419
2026-01-01 20:32:49.79	153.31	9.65	-51.1	-55.7	3.7	0.00e+00	0	48	104	0	72	26451
2026-01-01 20:32:51.78	153.59	9.47	-50.9	-55.5	3.7	0.00e+00	0	48	104	0	73	24449
2026-01-01 20:32:53.78	153.87	9.30	-50.7	-55.4	3.7	0.00e+00	0	48	104	0	72	25625
2026-01-01 20:32:55.79	154.14	9.12	-49.9	-54.5	3.7	0.00e+00	0	48	104	0	71	24436
2026-01-01 20:32:57.78	154.41	8.95	-50.3	-54.9	3.7	0.00e+00	0	48	104	0	71	25593
2026-01-01 20:32:59.77	154.68	8.78	-51.3	-56.0	3.7	0.00e+00	0	48	104	0	73	25910
2026-01-01 20:33:01.77	154.94	8.61	-52.1	-56.6	3.7	0.00e+00	0	48	104	0	74	26127
2026-01-01 20:33:03.76	155.19	8.45	-52.0	-56.9	3.7	0.00e+00	0	48	104	0	75	25622
2026-01-01 20:33:05.76	155.45	8.28	-52.4	-56.8	3.7	0.00e+00	0	48	104	0	75	25106
2026-01-01 20:33:07.76	155.70	8.11	-52.5	-57.0	3.7	0.00e+00	0	48	104	0	75	25959
2026-01-01 20:33:09.75	155.94	7.95	-52.1	-56.3	3.7	0.00e+00	0	48	104	0	75	23900
2026-01-01 20:33:11.74	156.19	7.79	-52.0	-56.2	3.7	0.00e+00	0	48	104	0	75	23653
2026-01-01 20:33:13.74	156.43	7.62	-52.4	-56.9	3.7	0.00e+00	0	48	104	0	75	25470
2026-01-01 20:33:15.74	156.67	7.46	-52.8	-57.1	3.7	0.00e+00	0	48	104	0	76	24749
2026-01-01 20:33:17.73	156.90	7.30	-52.1	-56.4	3.7	0.00e+00	0	48	104	0	76	22868
2026-01-01 20:33:19.73	157.13	7.14	-52.3	-56.9	3.7	0.00e+00	0	48	104	0	76	24067
2026-01-01 20:33:21.72	157.36	6.98	-51.9	-56.5	3.7	0.00e+00	0	48	104	0	75	24270
2026-01-01 20:33:23.72	157.58	6.82	-51.9	-56.5	3.7	0.00e+00	0	48	104	0	75	24252
2026-01-01 20:33:25.72	157.80	6.67	-51.9	-56.5	3.7	0.00e+00	0	48	104	0	75	24381
2026-01-01 20:33:27.72	158.02	6.51	-51.9	-56.4	3.7	0.00e+00	0	48	104	0	75	24230
2026-01-01 20:33:29.72	158.24	6.36	-51.9	-56.4	3.7	0.00e+00	0	48	104	0	75	24237
2026-01-01 20:33:31.72	158.45	6.20	-51.9	-56.4	3.7	0.00e+00	0	48	104	0	75	24228
2026-01-01 20:33:33.71	158.66	6.05	-51.9	-56.4	3.7	0.00e+00	0	48	104	0	75	24217
2026-01-01 20:33:35.69	158.87	5.90	-51.8	-56.4	3.7	0.00e+00	0	49	104	0	75	24200
2026-01-01 20:33:37.68	159.07	5.75	-51.9	-56.5	3.7	0.00e+00	0	48	104	0	75	24270
2026-01-01 20:33:39.68	159.27	5.60	-51.8	-56.4	3.7	0.00e+00	0	48	104	0	75	24129
2026-01-01 20:33:41.68	159.48	5.45	-51.9	-56.5	3.7	0.00e+00	0	48	104	0	75	24247
2026-01-01 20:33:43.68	159.67	5.30	-51.8	-56.4	3.7	0.00e+00	0	49	104	0	75	24241
2026-01-01 20:33:45.67	159.87	5.15	-51.8	-56.4	3.7	0.00e+00	0	48	104	0	75	24153
2026-01-01 20:33:47.67	160.06	5.01	-51.8	-56.4	3.7	0.00e+00	0	48	104	0	75	24182
2026-01-01 20:33:49.65	160.25	4.86	-51.8	-56.4	3.7	0.00e+00	0	48	104	0	75	24181
2026-01-01 20:33:51.65	160.44	4.72	-51.8	-56.4	3.7	0.00e+00	0	48	104	0	75	24147
2026-01-01 20:33:53.64	160.62	4.57	-51.8	-56.4	3.7	0.00e+00	0	48	104	0	75	24179
2026-01-01 20:33:55.63	160.81	4.43	-51.8	-56.4	3.7	0.00e+00	0	49	104	0	75	24236
2026-01-01 20:33:57.62	160.99	4.29	-51.8	-56.4	3.7	0.00e+00	0	48	104	0	75	24198

#Closed at: 2026-01-01 20:33:58
#Recorded file [0 MB]: D:/Data/31040_260101_232538.dat