passes_logs/2026/01/01/T1/T1__20260101_102807_SUOMI_NPP_rec.log

#Pass ID: 20260101_102807_SUOMI NPP
#Satellite: SUOMI NPP
#Configuration: NPP
#almurnet v.1.7.20251203
#Start time: 2026-01-01 10:28:08

#Version: 2.0.20230620
#Station: T1
#Location: 37.570604 lon 55.790049 lat
#TLE: 1 37849U 11061A   25364.87906317  .00000195  00000+0  11345-3 0  9992
#TLE: 2 37849  98.7794 302.0592 0002571  89.2401 270.9069 14.19520347734561

#Time	Az	El	Level	Level2	SNR	BER	BlckErr	Temp	State	Recorded	gain1	gain2
2026-01-01 10:28:08.50	175.18	5.10	-52.5	-67.6	3.8	1.49e+00	0	41	104	0	77	19553
2026-01-01 10:28:11.44	175.27	5.31	-52.5	-67.6	3.8	1.49e+00	0	41	104	0	76	20704
2026-01-01 10:28:14.66	175.36	5.54	-52.5	-67.6	3.8	1.49e+00	0	41	104	0	76	20623
2026-01-01 10:28:17.53	175.44	5.75	-52.5	-67.6	3.8	1.49e+00	0	41	104	0	76	20628
2026-01-01 10:28:20.69	175.53	5.98	-52.5	-67.6	3.8	1.49e+00	0	41	104	0	76	20741
2026-01-01 10:28:23.56	175.62	6.19	-52.5	-67.7	3.8	1.49e+00	0	42	104	0	76	20863
2026-01-01 10:28:26.75	175.71	6.43	-52.5	-67.6	3.8	1.49e+00	0	42	104	0	76	20688
2026-01-01 10:28:29.61	175.80	6.64	-52.5	-67.6	3.8	1.49e+00	0	42	104	0	76	20626
2026-01-01 10:28:32.77	175.90	6.88	-52.5	-67.7	3.8	1.49e+00	0	42	104	0	76	20805
2026-01-01 10:28:35.64	175.99	7.10	-52.5	-67.7	3.8	1.49e+00	0	42	104	0	76	20814
2026-01-01 10:28:38.80	176.09	7.34	-52.5	-67.6	3.8	1.49e+00	0	42	104	0	76	20663
2026-01-01 10:28:41.66	176.18	7.56	-52.5	-67.6	3.8	1.49e+00	0	42	104	0	76	20643
2026-01-01 10:28:44.82	176.29	7.81	-52.5	-67.7	3.8	1.49e+00	0	42	104	0	76	20797
2026-01-01 10:28:47.69	176.38	8.04	-52.5	-67.6	3.8	1.49e+00	0	42	104	0	76	20693
2026-01-01 10:28:50.84	176.49	8.29	-52.5	-67.6	3.8	1.49e+00	0	42	104	0	76	20697
2026-01-01 10:28:53.71	176.59	8.52	-52.5	-67.6	3.8	1.49e+00	0	42	104	0	76	20686
2026-01-01 10:28:56.87	176.70	8.78	-52.5	-67.7	3.8	1.49e+00	0	42	104	0	76	20798
2026-01-01 10:28:59.74	176.80	9.01	-52.5	-67.6	3.8	1.49e+00	0	42	104	0	76	20722
2026-01-01 10:29:02.89	176.91	9.27	-52.5	-67.6	3.8	1.49e+00	0	43	104	0	76	20696
2026-01-01 10:29:05.76	177.02	9.51	-52.5	-67.6	3.8	1.49e+00	0	43	104	0	76	20590
2026-01-01 10:29:08.92	177.13	9.78	-52.5	-67.6	3.8	1.49e+00	0	43	104	0	76	20645
2026-01-01 10:29:11.79	177.24	10.02	-52.5	-67.6	3.8	1.49e+00	0	43	104	0	76	20570
2026-01-01 10:29:14.94	177.36	10.29	-52.5	-67.7	3.8	1.49e+00	0	43	104	0	76	20824
2026-01-01 10:29:17.81	177.47	10.54	-52.5	-67.6	3.8	1.49e+00	0	43	104	0	76	20744
2026-01-01 10:29:20.97	177.60	10.82	-52.5	-67.6	3.8	1.49e+00	0	43	104	0	76	20616
2026-01-01 10:29:23.84	177.71	11.07	-52.5	-67.6	3.8	1.49e+00	0	43	104	0	76	20776
2026-01-01 10:29:26.99	177.84	11.36	-52.5	-67.6	3.8	1.49e+00	0	43	104	0	76	20724
2026-01-01 10:29:29.86	177.96	11.62	-52.5	-67.6	3.8	1.49e+00	0	43	104	0	76	20715
2026-01-01 10:29:33.02	178.10	11.91	-52.5	-67.6	3.8	1.49e+00	0	43	104	0	76	20658
2026-01-01 10:29:35.89	178.22	12.17	-52.5	-67.6	3.8	1.49e+00	0	43	104	0	76	20643
2026-01-01 10:29:39.05	178.36	12.47	-52.5	-67.6	3.8	1.49e+00	0	43	104	0	76	20745
2026-01-01 10:29:41.92	178.49	12.74	-52.5	-67.6	3.8	1.49e+00	0	43	104	0	76	20710
2026-01-01 10:29:45.07	178.63	13.04	-52.5	-67.6	3.8	1.49e+00	0	43	104	0	76	20726
2026-01-01 10:29:47.94	178.76	13.32	-52.5	-67.6	3.8	1.49e+00	0	43	104	0	76	20750
2026-01-01 10:29:51.10	178.91	13.63	-52.6	-67.7	3.8	1.49e+00	0	43	104	0	76	21001
2026-01-01 10:29:53.97	179.05	13.91	-52.6	-67.7	3.8	1.49e+00	0	43	104	0	76	20923
2026-01-01 10:29:57.12	179.21	14.23	-52.6	-67.7	3.8	1.49e+00	0	43	104	0	76	20847
2026-01-01 10:29:59.99	179.35	14.52	-52.5	-67.7	3.8	1.49e+00	0	43	104	0	76	20779
2026-01-01 10:30:03.15	179.51	14.85	-52.5	-67.6	3.8	1.49e+00	0	43	104	0	76	20770
2026-01-01 10:30:06.02	179.66	15.15	-52.6	-67.7	3.8	1.49e+00	0	43	104	0	76	20875
2026-01-01 10:30:09.17	179.83	15.48	-52.6	-67.7	3.8	1.49e+00	0	43	104	0	76	20804
2026-01-01 10:30:12.04	179.98	15.79	-52.5	-67.6	3.8	1.49e+00	0	44	104	0	76	20750
2026-01-01 10:30:15.20	180.16	16.13	-52.6	-67.7	3.8	1.49e+00	0	43	104	0	76	20865
2026-01-01 10:30:18.07	180.32	16.44	-52.5	-67.7	3.8	1.49e+00	0	44	104	0	76	20829
2026-01-01 10:30:21.40	180.51	16.81	-52.5	-67.6	3.8	1.49e+00	0	43	104	0	76	20758
2026-01-01 10:30:24.49	180.69	17.16	-52.6	-67.7	3.8	1.49e+00	0	44	104	0	76	20831
2026-01-01 10:30:27.50	180.87	17.50	-52.6	-67.7	3.8	1.49e+00	0	43	104	0	76	20973
2026-01-01 10:30:30.51	181.06	17.85	-52.6	-67.7	3.8	1.49e+00	0	43	104	0	76	20933
2026-01-01 10:30:33.52	181.25	18.20	-52.6	-67.7	3.8	1.49e+00	0	43	104	0	76	20928
2026-01-01 10:30:36.59	181.45	18.57	-52.6	-67.7	3.8	1.49e+00	0	43	104	0	76	20935
2026-01-01 10:30:39.61	181.65	18.93	-52.6	-67.7	3.8	1.49e+00	0	43	104	0	76	20812
2026-01-01 10:30:42.62	181.85	19.30	-52.6	-67.7	3.8	1.49e+00	0	44	104	0	76	20834
2026-01-01 10:30:45.63	182.06	19.67	-52.6	-67.7	3.8	1.49e+00	0	44	104	0	76	20955
2026-01-01 10:30:48.65	182.27	20.05	-52.6	-67.7	3.8	1.49e+00	0	43	104	0	76	20942
2026-01-01 10:30:51.66	182.49	20.44	-52.6	-67.7	3.8	1.49e+00	0	43	104	0	76	20918
2026-01-01 10:30:54.67	182.71	20.83	-52.6	-67.8	3.8	1.49e+00	0	43	104	0	76	21019
2026-01-01 10:30:57.68	182.94	21.22	-52.6	-67.7	3.8	1.49e+00	0	43	104	0	76	20954
2026-01-01 10:31:00.70	183.17	21.62	-52.6	-67.7	3.8	1.49e+00	0	44	104	0	76	20845
2026-01-01 10:31:03.71	183.41	22.03	-52.6	-67.7	3.8	1.49e+00	0	43	104	0	76	20935
2026-01-01 10:31:06.73	183.66	22.44	-52.6	-67.7	3.8	1.49e+00	0	44	104	0	76	20895
2026-01-01 10:31:09.74	183.91	22.86	-52.6	-67.7	3.8	1.49e+00	0	44	104	0	76	20925
2026-01-01 10:31:12.75	184.17	23.29	-52.6	-67.7	3.8	1.49e+00	0	43	104	0	76	20936
2026-01-01 10:31:15.76	184.44	23.72	-52.6	-67.7	3.8	1.49e+00	0	43	104	0	76	20958
2026-01-01 10:31:18.78	184.71	24.16	-52.6	-67.7	3.8	1.49e+00	0	43	104	0	76	20963
2026-01-01 10:31:21.79	184.99	24.61	-52.6	-67.7	3.8	1.49e+00	0	44	104	0	76	20956
2026-01-01 10:31:24.80	185.28	25.06	-52.6	-67.8	3.8	1.49e+00	0	43	104	0	76	21094
2026-01-01 10:31:27.82	185.58	25.52	-52.6	-67.8	3.8	1.49e+00	0	44	104	0	76	21035
2026-01-01 10:31:30.83	185.88	25.99	-52.7	-67.8	3.8	1.49e+00	0	44	104	0	76	21092
2026-01-01 10:31:33.84	186.19	26.46	-52.7	-67.8	3.8	1.49e+00	0	44	104	0	76	21101
2026-01-01 10:31:36.85	186.52	26.95	-52.7	-67.8	3.8	1.49e+00	0	43	104	0	76	21055
2026-01-01 10:31:39.86	186.85	27.44	-52.6	-67.8	3.8	1.49e+00	0	44	104	0	76	21036
2026-01-01 10:31:42.88	187.19	27.94	-52.7	-67.7	3.8	1.49e+00	0	43	104	0	76	21003
2026-01-01 10:31:45.89	187.55	28.44	-52.6	-67.8	3.8	1.49e+00	0	44	104	0	76	21039
2026-01-01 10:31:48.90	187.91	28.96	-52.6	-67.8	3.8	1.49e+00	0	44	104	0	76	21044
2026-01-01 10:31:51.92	188.29	29.48	-52.6	-67.7	3.8	1.49e+00	0	44	104	0	76	20908
2026-01-01 10:31:54.93	188.68	30.01	-52.7	-67.8	3.8	1.49e+00	0	44	104	0	76	21185
2026-01-01 10:31:57.94	189.08	30.55	-52.7	-67.8	3.8	1.49e+00	0	44	104	0	76	21128
2026-01-01 10:32:00.95	189.49	31.10	-52.7	-67.8	3.8	1.49e+00	0	44	104	0	76	21132
2026-01-01 10:32:03.97	189.92	31.66	-52.7	-67.8	3.8	1.49e+00	0	43	104	0	76	21095
2026-01-01 10:32:06.98	190.37	32.23	-52.7	-67.8	3.8	1.49e+00	0	44	104	0	76	21194
2026-01-01 10:32:09.99	190.83	32.80	-52.7	-67.8	3.8	1.49e+00	0	44	104	0	76	21231
2026-01-01 10:32:13.00	191.30	33.39	-52.7	-67.8	3.8	1.49e+00	0	44	104	0	76	21138
2026-01-01 10:32:16.02	191.79	33.98	-52.7	-67.8	3.8	1.49e+00	0	44	104	0	76	21144
2026-01-01 10:32:19.03	192.30	34.58	-52.7	-67.8	3.8	1.49e+00	0	44	104	0	76	21111
2026-01-01 10:32:22.04	192.83	35.20	-52.7	-67.8	3.8	1.49e+00	0	44	104	0	76	21218
2026-01-01 10:32:25.05	193.38	35.82	-52.7	-67.8	3.8	1.49e+00	0	44	104	0	76	21089
2026-01-01 10:32:28.07	193.95	36.45	-52.7	-67.9	3.8	1.49e+00	0	44	104	0	76	21343
2026-01-01 10:32:31.08	194.54	37.09	-52.7	-67.8	3.8	1.49e+00	0	44	104	0	76	21259
2026-01-01 10:32:34.09	195.16	37.74	-52.8	-67.9	3.8	1.49e+00	0	44	104	0	76	21344
2026-01-01 10:32:37.10	195.80	38.40	-52.8	-67.9	3.8	1.49e+00	0	44	104	0	76	21324
2026-01-01 10:32:40.12	196.47	39.07	-52.7	-67.8	3.8	1.49e+00	0	44	104	0	76	21242
2026-01-01 10:32:43.13	197.16	39.74	-52.7	-67.8	3.8	1.49e+00	0	44	104	0	76	21155
2026-01-01 10:32:46.14	197.88	40.43	-52.7	-67.9	3.8	1.49e+00	0	44	104	0	76	21277
2026-01-01 10:32:49.15	198.64	41.12	-52.7	-67.8	3.8	1.49e+00	0	44	104	0	76	21122
2026-01-01 10:32:52.16	199.42	41.82	-52.7	-67.8	3.8	1.49e+00	0	44	104	0	76	21181
2026-01-01 10:32:55.17	200.24	42.53	-52.7	-67.8	3.8	1.49e+00	0	44	104	0	76	21072
2026-01-01 10:32:58.19	201.10	43.25	-52.7	-67.8	3.8	1.49e+00	0	44	104	0	76	21034
2026-01-01 10:33:01.20	202.00	43.97	-52.7	-67.8	3.8	1.49e+00	0	44	104	0	76	21255
2026-01-01 10:33:04.21	202.94	44.69	-52.7	-67.9	3.8	1.49e+00	0	44	104	0	76	21342
2026-01-01 10:33:07.40	203.98	45.47	-52.7	-67.8	3.8	1.49e+00	0	44	104	0	76	21096
2026-01-01 10:33:10.31	204.97	46.18	-52.7	-67.8	3.8	1.49e+00	0	44	104	0	76	21237
2026-01-01 10:33:13.89	206.26	47.06	-52.7	-67.8	3.8	1.49e+00	0	44	104	0	76	21163
2026-01-01 10:33:16.62	207.28	47.73	-52.7	-67.8	3.8	1.49e+00	0	44	104	0	76	21140
2026-01-01 10:33:19.92	208.59	48.54	-52.7	-67.8	3.8	1.49e+00	0	44	104	0	76	21206
2026-01-01 10:33:22.64	209.72	49.21	-52.7	-67.8	3.8	1.49e+00	0	44	104	0	76	21147
2026-01-01 10:33:25.95	211.15	50.02	-52.7	-67.8	3.8	1.49e+00	0	44	104	0	76	21124
2026-01-01 10:33:28.67	212.39	50.68	-52.7	-67.8	3.8	1.49e+00	0	44	104	0	76	21066
2026-01-01 10:33:31.97	213.97	51.47	-52.7	-67.8	3.8	1.49e+00	0	44	104	0	76	21152
2026-01-01 10:33:34.69	215.34	52.12	-52.6	-67.7	3.8	1.49e+00	0	44	104	0	76	20991
2026-01-01 10:33:37.99	217.07	52.90	-52.6	-67.8	3.8	1.49e+00	0	44	104	0	76	21073
2026-01-01 10:33:40.72	218.58	53.53	-52.6	-67.8	3.8	1.49e+00	0	44	104	0	76	21048
2026-01-01 10:33:44.02	220.49	54.27	-52.7	-67.8	3.8	1.49e+00	0	44	104	0	76	21127
2026-01-01 10:33:46.75	222.14	54.86	-52.6	-67.7	3.8	1.49e+00	0	44	104	0	76	20998
2026-01-01 10:33:50.05	224.23	55.56	-52.7	-67.8	3.8	1.49e+00	0	44	104	0	76	21119
2026-01-01 10:33:52.77	226.03	56.12	-52.7	-67.8	3.8	1.49e+00	0	44	104	0	76	21157
2026-01-01 10:33:56.07	228.31	56.76	-52.6	-67.8	3.8	1.49e+00	0	44	104	0	76	21038
2026-01-01 10:33:58.80	230.28	57.26	-52.7	-67.8	3.8	1.49e+00	0	44	104	0	76	21245
2026-01-01 10:34:02.16	232.79	57.83	-52.7	-67.8	3.8	1.49e+00	0	44	104	0	76	21260
2026-01-01 10:34:04.88	234.91	58.26	-52.7	-67.8	3.8	1.49e+00	0	44	104	0	76	21223
2026-01-01 10:34:08.18	237.56	58.74	-52.7	-67.8	3.8	1.49e+00	0	44	104	0	76	21250
2026-01-01 10:34:10.91	239.82	59.10	-52.7	-67.8	3.8	1.49e+00	0	44	104	0	76	21229
2026-01-01 10:34:14.21	242.63	59.47	-52.7	-67.9	3.8	1.49e+00	0	44	104	0	76	21265
2026-01-01 10:34:16.93	245.01	59.73	-52.7	-67.8	3.8	1.49e+00	0	44	104	0	76	21229
2026-01-01 10:34:20.17	247.89	59.99	-52.7	-67.8	3.8	1.49e+00	0	44	104	0	76	21250
2026-01-01 10:34:23.18	250.62	60.17	-52.7	-67.8	3.8	1.49e+00	0	44	104	0	76	21126
2026-01-01 10:34:26.20	253.39	60.29	-52.8	-68.0	3.8	1.49e+00	0	44	104	0	76	21507
2026-01-01 10:34:29.21	256.16	60.35	-52.8	-67.9	3.8	1.49e+00	0	44	104	0	76	21474
2026-01-01 10:34:32.22	258.95	60.35	-52.7	-67.8	3.8	1.49e+00	0	44	104	0	76	21140
2026-01-01 10:34:35.51	261.98	60.29	-52.8	-67.9	3.8	1.49e+00	0	44	104	0	76	21298
2026-01-01 10:34:38.42	264.65	60.17	-52.7	-67.8	3.8	1.49e+00	0	44	104	0	76	21248
2026-01-01 10:34:41.93	267.82	59.96	-52.7	-67.8	3.8	1.49e+00	0	44	104	0	76	21166
2026-01-01 10:34:44.66	270.25	59.74	-52.8	-67.9	3.8	1.49e+00	0	44	104	0	76	21470
2026-01-01 10:34:47.95	273.12	59.42	-52.7	-67.8	3.8	1.49e+00	0	44	104	0	76	21236
2026-01-01 10:34:50.68	275.44	59.11	-52.7	-67.8	3.8	1.49e+00	0	44	104	0	76	21164
2026-01-01 10:34:53.98	278.17	58.68	-52.7	-67.8	3.8	1.49e+00	0	44	104	0	76	21221
2026-01-01 10:34:56.70	280.35	58.28	-52.8	-67.9	3.8	1.49e+00	0	44	104	0	76	21324
2026-01-01 10:35:00.00	282.90	57.76	-52.7	-67.8	3.8	1.49e+00	0	44	104	0	76	21254
2026-01-01 10:35:02.72	284.93	57.29	-52.7	-67.9	3.8	1.49e+00	0	44	104	0	76	21264
2026-01-01 10:35:06.02	287.30	56.69	-52.7	-67.8	3.8	1.49e+00	0	44	104	0	76	21235
2026-01-01 10:35:08.75	289.18	56.16	-52.7	-67.8	3.8	1.49e+00	0	44	104	0	76	21074
2026-01-01 10:35:12.05	291.36	55.49	-52.7	-67.8	3.8	1.49e+00	0	44	104	0	76	21231
2026-01-01 10:35:14.77	293.07	54.91	-52.7	-67.9	3.8	1.49e+00	0	44	104	0	76	21318
2026-01-01 10:35:18.07	295.06	54.19	-52.7	-67.8	3.8	1.49e+00	0	44	104	0	76	21215
2026-01-01 10:35:20.80	296.64	53.58	-52.7	-67.8	3.8	1.49e+00	0	44	104	0	76	21210
2026-01-01 10:35:24.10	298.45	52.82	-52.7	-67.8	3.8	1.49e+00	0	44	104	0	76	21212
2026-01-01 10:35:26.82	299.88	52.19	-52.7	-67.8	3.8	1.49e+00	0	44	104	0	76	21173
2026-01-01 10:35:30.12	301.53	51.40	-52.7	-67.8	3.8	1.49e+00	0	44	104	0	76	21221
2026-01-01 10:35:32.85	302.83	50.75	-52.7	-67.8	3.8	1.49e+00	0	44	104	0	76	21161
2026-01-01 10:35:36.15	304.33	49.95	-52.7	-67.8	3.8	1.49e+00	0	44	104	0	76	21216
2026-01-01 10:35:38.88	305.51	49.28	-52.7	-67.8	3.8	1.49e+00	0	44	104	0	76	21259
2026-01-01 10:35:42.17	306.87	48.48	-52.7	-67.9	3.8	1.49e+00	0	44	104	0	76	21322
2026-01-01 10:35:44.90	307.95	47.81	-52.7	-67.8	3.8	1.49e+00	0	44	104	0	76	21221
2026-01-01 10:35:48.20	309.19	47.00	-52.8	-67.9	3.8	1.49e+00	0	44	104	0	76	21373
2026-01-01 10:35:50.92	310.16	46.34	-52.7	-67.8	3.8	1.49e+00	0	44	104	0	76	21213
2026-01-01 10:35:54.22	311.29	45.54	-52.7	-67.8	3.8	1.49e+00	0	44	104	0	76	21103
2026-01-01 10:35:57.06	312.22	44.85	-52.7	-67.8	3.8	1.49e+00	0	44	104	0	76	21214
2026-01-01 10:36:00.22	313.21	44.09	-52.7	-67.8	3.8	1.49e+00	0	44	104	0	76	21221
2026-01-01 10:36:03.08	314.06	43.41	-52.6	-67.8	3.8	1.49e+00	0	44	104	0	76	21172
2026-01-01 10:36:06.22	314.96	42.66	-52.7	-67.9	3.8	1.49e+00	0	44	104	0	76	21275
2026-01-01 10:36:09.55	315.87	41.88	-52.7	-67.8	3.8	1.49e+00	0	44	104	0	76	21204
2026-01-01 10:36:12.36	316.60	41.23	-52.7	-67.8	3.8	1.49e+00	0	44	104	0	76	21145
2026-01-01 10:36:15.79	317.46	40.45	-52.7	-67.8	3.8	1.49e+00	0	44	104	0	76	21186
2026-01-01 10:36:18.59	318.13	39.81	-52.7	-67.8	3.8	1.49e+00	0	44	104	0	76	21124
2026-01-01 10:36:21.89	318.89	39.08	-52.7	-67.8	3.8	1.49e+00	0	44	104	0	76	21257
2026-01-01 10:36:24.62	319.49	38.48	-52.7	-67.8	3.8	1.49e+00	0	44	104	0	76	21169
2026-01-01 10:36:27.92	320.19	37.76	-52.7	-67.8	3.8	1.49e+00	0	44	104	0	76	21244
2026-01-01 10:36:30.64	320.75	37.17	-52.6	-67.8	3.8	1.49e+00	0	44	104	0	76	21117
2026-01-01 10:36:33.95	321.40	36.47	-52.7	-67.8	3.8	1.49e+00	0	44	104	0	76	21208
2026-01-01 10:36:36.67	321.91	35.91	-52.7	-67.8	3.8	1.49e+00	0	44	104	0	76	21242
2026-01-01 10:36:39.97	322.51	35.23	-52.7	-67.8	3.8	1.49e+00	0	44	104	0	76	21170
2026-01-01 10:36:42.70	322.99	34.68	-52.7	-67.8	3.8	1.49e+00	0	44	104	0	76	21137
2026-01-01 10:36:45.99	323.55	34.02	-52.7	-67.8	3.8	1.49e+00	0	44	104	0	76	21183
2026-01-01 10:36:48.72	323.99	33.49	-52.7	-67.8	3.8	1.49e+00	0	44	104	0	76	21213
2026-01-01 10:36:52.02	324.51	32.85	-52.7	-67.9	3.8	1.49e+00	0	44	104	0	76	21293
2026-01-01 10:36:54.75	324.93	32.33	-52.7	-67.8	3.8	1.49e+00	0	44	104	0	76	21205
2026-01-01 10:36:58.04	325.41	31.72	-52.7	-67.8	3.8	1.49e+00	0	44	104	0	76	21181
2026-01-01 10:37:00.77	325.80	31.21	-52.7	-67.9	3.8	1.49e+00	0	44	104	0	76	21261
2026-01-01 10:37:04.07	326.26	30.61	-52.7	-67.8	3.8	1.49e+00	0	44	104	0	76	21131
2026-01-01 10:37:06.80	326.62	30.13	-52.7	-67.8	3.8	1.49e+00	0	44	104	0	76	21099
2026-01-01 10:37:10.10	327.05	29.55	-52.7	-67.8	3.8	1.49e+00	0	44	104	0	76	21218
2026-01-01 10:37:12.82	327.39	29.08	-52.7	-67.8	3.8	1.49e+00	0	44	104	0	76	21200
2026-01-01 10:37:16.12	327.79	28.52	-52.7	-67.8	3.8	1.49e+00	0	44	104	0	76	21197
2026-01-01 10:37:18.85	328.11	28.06	-52.7	-67.8	3.8	1.49e+00	0	44	104	0	76	21246
2026-01-01 10:37:22.15	328.48	27.52	-52.7	-67.8	3.8	1.49e+00	0	44	104	0	76	21137
2026-01-01 10:37:24.88	328.79	27.08	-52.7	-67.8	3.8	1.49e+00	0	44	104	0	76	21126
2026-01-01 10:37:28.18	329.14	26.55	-52.7	-67.8	3.8	1.49e+00	0	44	104	0	76	21146
2026-01-01 10:37:30.90	329.43	26.12	-52.7	-67.9	3.8	1.49e+00	0	44	104	0	76	21294
2026-01-01 10:37:34.20	329.76	25.61	-52.7	-67.8	3.8	1.49e+00	0	44	104	0	76	21148
2026-01-01 10:37:36.93	330.03	25.20	-52.7	-67.8	3.8	1.49e+00	0	44	104	0	76	21103
2026-01-01 10:37:40.23	330.35	24.70	-52.7	-67.9	3.8	1.49e+00	0	44	104	0	76	21315
2026-01-01 10:37:43.05	330.61	24.29	-52.7	-67.8	3.8	1.49e+00	0	44	104	0	76	21229
2026-01-01 10:37:46.21	330.90	23.83	-52.7	-67.9	3.8	1.49e+00	0	44	104	0	76	21328
2026-01-01 10:37:49.08	331.15	23.42	-52.7	-67.8	3.8	1.49e+00	0	44	104	0	76	21198
2026-01-01 10:37:52.23	331.43	22.98	-52.7	-67.8	3.8	1.49e+00	0	44	104	0	76	21234
2026-01-01 10:37:55.18	331.68	22.57	-52.7	-67.8	3.8	1.49e+00	0	44	104	0	76	21115
2026-01-01 10:37:58.19	331.92	22.16	-52.8	-67.9	3.8	1.49e+00	0	44	104	0	76	21423
2026-01-01 10:38:01.21	332.16	21.75	-52.7	-67.8	3.8	1.49e+00	0	44	104	0	76	21197
2026-01-01 10:38:04.22	332.40	21.35	-52.7	-67.8	3.8	1.49e+00	0	44	104	0	76	21228
2026-01-01 10:38:07.33	332.64	20.95	-52.8	-68.0	3.8	1.49e+00	0	44	104	0	76	21519
2026-01-01 10:38:10.34	332.86	20.56	-52.8	-67.9	3.8	1.49e+00	0	44	104	0	76	21324
2026-01-01 10:38:13.61	333.10	20.15	-52.7	-67.9	3.8	1.49e+00	0	44	104	0	76	21418
2026-01-01 10:38:16.48	333.30	19.79	-52.7	-67.9	3.8	1.49e+00	0	44	104	0	76	21286
2026-01-01 10:38:19.64	333.52	19.40	-52.7	-67.9	3.8	1.49e+00	0	44	104	0	76	21291
2026-01-01 10:38:22.50	333.71	19.05	-52.8	-67.9	3.8	1.49e+00	0	44	104	0	76	21315
2026-01-01 10:38:25.71	333.93	18.67	-52.7	-67.9	3.8	1.49e+00	0	44	104	0	76	21350
2026-01-01 10:38:28.64	334.12	18.32	-52.7	-67.8	3.8	1.49e+00	0	44	104	0	76	21132
2026-01-01 10:38:31.80	334.32	17.95	-52.7	-67.8	3.8	1.49e+00	0	44	104	0	76	21099
2026-01-01 10:38:34.67	334.50	17.62	-52.8	-67.9	3.8	1.49e+00	0	44	104	0	76	21305
2026-01-01 10:38:37.83	334.69	17.26	-52.7	-67.9	3.8	1.49e+00	0	44	104	0	76	21262
2026-01-01 10:38:40.70	334.86	16.94	-52.7	-67.8	3.8	1.49e+00	0	44	104	0	76	21160
2026-01-01 10:38:43.85	335.04	16.59	-52.6	-67.8	3.8	1.49e+00	0	44	104	0	76	21082
2026-01-01 10:38:46.72	335.21	16.28	-52.7	-67.8	3.8	1.49e+00	0	44	104	0	76	21226
2026-01-01 10:38:49.88	335.38	15.94	-52.7	-67.8	3.8	1.49e+00	0	44	104	0	76	21155
2026-01-01 10:38:52.75	335.54	15.64	-52.7	-67.8	3.8	1.49e+00	0	44	104	0	76	21219
2026-01-01 10:38:55.91	335.71	15.30	-52.7	-67.8	3.8	1.49e+00	0	44	104	0	76	21208
2026-01-01 10:38:58.78	335.86	15.01	-52.7	-67.9	3.8	1.49e+00	0	44	104	0	76	21289
2026-01-01 10:39:01.93	336.02	14.68	-52.7	-67.9	3.8	1.49e+00	0	44	104	0	76	21279
2026-01-01 10:39:04.80	336.17	14.39	-52.7	-67.8	3.8	1.49e+00	0	44	104	0	76	21038
2026-01-01 10:39:07.96	336.33	14.08	-52.7	-67.8	3.8	1.49e+00	0	44	104	0	76	21126
2026-01-01 10:39:10.83	336.47	13.79	-52.7	-67.8	3.8	1.49e+00	0	44	104	0	76	21207
2026-01-01 10:39:13.98	336.62	13.49	-52.7	-67.8	3.8	1.49e+00	0	44	104	0	76	21158
2026-01-01 10:39:16.85	336.75	13.21	-52.7	-67.8	3.8	1.49e+00	0	44	104	0	76	21180
2026-01-01 10:39:20.01	336.90	12.91	-52.7	-67.8	3.8	1.49e+00	0	44	104	0	76	21134
2026-01-01 10:39:22.88	337.03	12.64	-52.8	-67.9	3.8	1.49e+00	0	44	104	0	76	21336
2026-01-01 10:39:26.03	337.17	12.34	-52.7	-67.9	3.8	1.49e+00	0	44	104	0	76	21354
2026-01-01 10:39:28.90	337.30	12.08	-52.7	-67.8	3.8	1.49e+00	0	44	104	0	76	21172
2026-01-01 10:39:32.06	337.44	11.79	-52.7	-67.8	3.8	1.49e+00	0	44	104	0	76	21136
2026-01-01 10:39:34.93	337.56	11.53	-52.7	-67.9	3.8	1.49e+00	0	44	104	0	76	21309
2026-01-01 10:39:38.09	337.69	11.25	-52.7	-67.9	3.8	1.49e+00	0	44	104	0	76	21322
2026-01-01 10:39:40.95	337.81	11.00	-52.7	-67.8	3.8	1.49e+00	0	44	104	0	76	21229
2026-01-01 10:39:44.11	337.94	10.72	-52.7	-67.8	3.8	1.49e+00	0	44	104	0	76	21240
2026-01-01 10:39:46.98	338.05	10.47	-52.8	-67.9	3.8	1.49e+00	0	44	104	0	76	21369
2026-01-01 10:39:50.13	338.17	10.20	-52.7	-67.8	3.8	1.49e+00	0	44	104	0	76	21256
2026-01-01 10:39:53.00	338.29	9.96	-52.7	-67.8	3.8	1.49e+00	0	44	104	0	76	21193
2026-01-01 10:39:56.16	338.41	9.69	-52.7	-67.8	3.8	1.49e+00	0	44	104	0	76	21135
2026-01-01 10:39:59.03	338.51	9.45	-52.7	-67.8	3.8	1.49e+00	0	44	104	0	76	21249
2026-01-01 10:40:02.19	338.63	9.19	-52.7	-67.8	3.8	1.49e+00	0	44	104	0	76	21150
2026-01-01 10:40:05.05	338.73	8.96	-52.7	-67.8	3.8	1.49e+00	0	44	104	0	76	21098
2026-01-01 10:40:08.21	338.85	8.71	-52.7	-67.8	3.8	1.49e+00	0	44	104	0	76	21044
2026-01-01 10:40:11.08	338.95	8.48	-52.7	-67.9	3.8	1.49e+00	0	44	104	0	76	21313
2026-01-01 10:40:14.41	339.06	8.21	-52.7	-67.8	3.8	1.49e+00	0	44	104	0	76	21148
2026-01-01 10:40:17.30	339.16	7.99	-52.7	-67.8	3.8	1.49e+00	0	44	104	0	76	21124
2026-01-01 10:40:20.84	339.28	7.71	-52.7	-67.8	3.8	1.49e+00	0	44	104	0	76	21073
2026-01-01 10:40:23.59	339.37	7.50	-52.7	-67.8	3.8	1.49e+00	0	44	104	0	76	21056
2026-01-01 10:40:26.93	339.48	7.24	-52.7	-67.8	3.8	1.49e+00	0	44	104	0	76	21134
2026-01-01 10:40:29.65	339.57	7.04	-52.7	-67.8	3.8	1.49e+00	0	44	104	0	76	21205
2026-01-01 10:40:32.95	339.68	6.79	-52.6	-67.8	3.8	1.49e+00	0	44	104	0	76	21069
2026-01-01 10:40:35.68	339.76	6.59	-52.6	-67.8	3.8	1.49e+00	0	44	104	0	76	21069
2026-01-01 10:40:38.98	339.87	6.34	-52.6	-67.8	3.8	1.49e+00	0	44	104	0	76	21021
2026-01-01 10:40:41.70	339.95	6.14	-52.7	-67.8	3.8	1.49e+00	0	44	104	0	76	21142
2026-01-01 10:40:45.00	340.05	5.91	-52.7	-67.8	3.8	1.49e+00	0	44	104	0	76	21139
2026-01-01 10:40:47.73	340.13	5.71	-52.7	-67.8	3.8	1.49e+00	0	44	104	0	76	21200
2026-01-01 10:40:51.03	340.23	5.47	-52.7	-67.8	3.8	1.49e+00	0	44	104	0	76	21182
2026-01-01 10:40:53.75	340.31	5.28	-52.7	-67.9	3.8	1.49e+00	0	44	104	0	76	21264
2026-01-01 10:40:57.05	340.40	5.05	-52.7	-67.8	3.8	1.49e+00	0	44	104	0	76	21211

#Closed at: 2026-01-01 10:40:59
#Recorded file [0 MB]: D:/Data/31040_260101_132808.dat