passes_logs/2026/01/01/T1/T1__20260101_234908_NOAA_21_JPSS-2_rec.log

#Pass ID: 20260101_234908_NOAA 21 (JPSS-2)
#Satellite: NOAA 21 (JPSS-2)
#Configuration: NOAA 21
#almurnet v.1.7.20251203
#Start time: 2026-01-01 23:49:10

#Version: 2.0.20230620
#Station: T1
#Location: 37.570604 lon 55.790049 lat
#TLE: 1 54234U 22150A   26001.26806856  .00000185  00000+0  10843-3 0  9990
#TLE: 2 54234  98.7484 302.3349 0001277 353.3887   6.7272 14.19530660162860

#Time	Az	El	Level	Level2	SNR	BER	BlckErr	Temp	State	Recorded	gain1	gain2
2026-01-01 23:49:10.16	15.44	5.15	-50.0	-63.3	3.8	1.49e+00	0	37	0	0	70	17744
2026-01-01 23:49:13.16	15.43	5.36	-50.0	-63.3	3.8	1.49e+00	0	37	104	0	71	16695
2026-01-01 23:49:16.29	15.42	5.59	-50.0	-63.2	3.8	1.49e+00	0	37	104	0	71	16655
2026-01-01 23:49:19.25	15.41	5.81	-50.0	-63.3	3.8	1.49e+00	0	37	104	0	71	16726
2026-01-01 23:49:22.82	15.39	6.07	-50.0	-63.3	3.8	1.49e+00	0	37	104	0	71	16724
2026-01-01 23:49:25.61	15.38	6.28	-50.0	-63.2	3.8	1.49e+00	0	37	104	0	71	16692
2026-01-01 23:49:28.91	15.37	6.52	-50.0	-63.3	3.8	1.49e+00	0	37	104	0	71	16739
2026-01-01 23:49:31.63	15.36	6.73	-50.0	-63.3	3.8	1.49e+00	0	38	104	0	71	16732
2026-01-01 23:49:34.93	15.34	6.98	-50.0	-63.3	3.8	1.49e+00	0	38	104	0	71	16720
2026-01-01 23:49:37.66	15.33	7.19	-50.0	-63.3	3.8	1.49e+00	0	38	104	0	71	16703
2026-01-01 23:49:40.96	15.32	7.45	-50.0	-63.3	3.8	1.49e+00	0	38	104	0	71	16700
2026-01-01 23:49:43.68	15.30	7.66	-50.0	-63.3	3.8	1.49e+00	0	38	104	0	71	16736
2026-01-01 23:49:46.98	15.29	7.92	-50.0	-63.3	3.8	1.49e+00	0	38	104	0	71	16719
2026-01-01 23:49:49.71	15.27	8.14	-50.0	-63.3	3.8	1.49e+00	0	38	104	0	71	16735
2026-01-01 23:49:53.01	15.26	8.41	-50.0	-63.3	3.8	1.49e+00	0	38	104	0	71	16761
2026-01-01 23:49:55.73	15.24	8.63	-50.0	-63.3	3.8	1.49e+00	0	38	104	0	71	16739
2026-01-01 23:49:59.05	15.22	8.90	-50.0	-63.3	3.8	1.49e+00	0	38	104	0	71	16724
2026-01-01 23:50:01.77	15.21	9.13	-50.0	-63.3	3.8	1.49e+00	0	38	104	0	71	16736
2026-01-01 23:50:05.07	15.19	9.40	-50.0	-63.3	3.8	1.49e+00	0	38	104	0	71	16739
2026-01-01 23:50:07.80	15.17	9.63	-50.0	-63.3	3.8	1.49e+00	0	38	104	0	71	16726
2026-01-01 23:50:11.10	15.15	9.92	-50.0	-63.3	3.8	1.49e+00	0	38	104	0	71	16725
2026-01-01 23:50:13.82	15.13	10.15	-50.0	-63.2	3.8	1.49e+00	0	38	104	0	71	16648
2026-01-01 23:50:17.12	15.11	10.44	-50.0	-63.3	3.8	1.49e+00	0	38	104	0	71	16759
2026-01-01 23:50:19.85	15.09	10.68	-50.0	-63.3	3.8	1.49e+00	0	39	104	0	71	16714
2026-01-01 23:50:23.14	15.07	10.98	-50.0	-63.3	3.8	1.49e+00	0	38	104	0	71	16741
2026-01-01 23:50:25.87	15.05	11.22	-50.0	-63.3	3.8	1.49e+00	0	39	104	0	71	16771
2026-01-01 23:50:29.17	15.02	11.52	-50.0	-63.3	3.8	1.49e+00	0	39	104	0	71	16750
2026-01-01 23:50:31.96	15.00	11.78	-50.0	-63.3	3.8	1.49e+00	0	39	104	0	71	16713
2026-01-01 23:50:35.31	14.98	12.10	-50.0	-63.2	3.8	1.49e+00	0	39	104	0	71	16691
2026-01-01 23:50:38.03	14.95	12.35	-50.0	-63.3	3.8	1.49e+00	0	39	104	0	71	16766
2026-01-01 23:50:41.33	14.93	12.67	-50.0	-63.3	3.8	1.49e+00	0	39	104	0	71	16753
2026-01-01 23:50:44.06	14.90	12.93	-50.0	-63.3	3.8	1.49e+00	0	39	104	0	71	16751
2026-01-01 23:50:47.36	14.87	13.26	-50.0	-63.3	3.8	1.49e+00	0	39	104	0	71	16749
2026-01-01 23:50:50.08	14.85	13.53	-50.0	-63.3	3.8	1.49e+00	0	39	104	0	71	16770
2026-01-01 23:50:53.38	14.82	13.86	-50.0	-63.3	3.8	1.49e+00	0	39	104	0	71	16791
2026-01-01 23:50:56.11	14.79	14.14	-50.0	-63.3	3.8	1.49e+00	0	39	104	0	71	16751
2026-01-01 23:50:59.41	14.76	14.48	-50.0	-63.3	3.8	1.49e+00	0	39	104	0	71	16738
2026-01-01 23:51:02.18	14.73	14.77	-50.0	-63.3	3.8	1.49e+00	0	39	104	0	71	16839
2026-01-01 23:51:05.41	14.70	15.11	-50.1	-63.3	3.8	1.49e+00	0	39	104	0	71	16784
2026-01-01 23:51:08.49	14.66	15.44	-50.0	-63.3	3.8	1.49e+00	0	39	104	0	71	16820
2026-01-01 23:51:11.51	14.63	15.77	-50.0	-63.3	3.8	1.49e+00	0	39	104	0	71	16794
2026-01-01 23:51:14.52	14.59	16.10	-50.0	-63.3	3.8	1.49e+00	0	39	104	0	71	16769
2026-01-01 23:51:17.48	14.56	16.43	-50.0	-63.3	3.8	1.49e+00	0	39	104	0	71	16782
2026-01-01 23:51:20.63	14.52	16.78	-50.0	-63.3	3.8	1.49e+00	0	39	104	0	71	16814
2026-01-01 23:51:23.50	14.48	17.11	-50.0	-63.3	3.8	1.49e+00	0	39	104	0	71	16790
2026-01-01 23:51:26.66	14.44	17.48	-50.0	-63.3	3.8	1.49e+00	0	39	104	0	71	16738
2026-01-01 23:51:29.56	14.40	17.82	-50.0	-63.3	3.8	1.49e+00	0	39	104	0	71	16758
2026-01-01 23:51:32.78	14.36	18.21	-50.0	-63.3	3.8	1.49e+00	0	39	104	0	71	16792
2026-01-01 23:51:35.65	14.32	18.56	-50.0	-63.3	3.8	1.49e+00	0	39	104	0	71	16809
2026-01-01 23:51:38.80	14.27	18.95	-50.0	-63.3	3.8	1.49e+00	0	39	104	0	71	16761
2026-01-01 23:51:41.67	14.23	19.31	-50.0	-63.3	3.8	1.49e+00	0	39	104	0	71	16769
2026-01-01 23:51:44.83	14.18	19.71	-50.1	-63.3	3.8	1.49e+00	0	39	104	0	71	16824
2026-01-01 23:51:47.70	14.13	20.08	-50.0	-63.3	3.8	1.49e+00	0	39	104	0	71	16716
2026-01-01 23:51:50.86	14.08	20.50	-50.0	-63.3	3.8	1.49e+00	0	39	104	0	71	16843
2026-01-01 23:51:53.72	14.03	20.88	-50.0	-63.3	3.8	1.49e+00	0	39	104	0	71	16832
2026-01-01 23:51:56.88	13.97	21.31	-50.0	-63.3	3.8	1.49e+00	0	39	104	0	71	16801
2026-01-01 23:51:59.75	13.92	21.71	-50.0	-63.3	3.8	1.49e+00	0	39	104	0	71	16797
2026-01-01 23:52:02.90	13.86	22.15	-50.0	-63.3	3.8	1.49e+00	0	39	104	0	71	16880
2026-01-01 23:52:05.77	13.80	22.56	-50.1	-63.3	3.8	1.49e+00	0	39	104	0	71	16871
2026-01-01 23:52:08.92	13.74	23.01	-50.0	-63.3	3.8	1.49e+00	0	39	104	0	71	16754
2026-01-01 23:52:11.79	13.68	23.44	-50.1	-63.3	3.8	1.49e+00	0	39	104	0	71	16843
2026-01-01 23:52:14.94	13.61	23.91	-50.1	-63.3	3.8	1.49e+00	0	39	104	0	71	16848
2026-01-01 23:52:17.81	13.54	24.35	-50.1	-63.3	3.8	1.49e+00	0	39	104	0	71	16787
2026-01-01 23:52:20.97	13.47	24.84	-50.1	-63.3	3.8	1.49e+00	0	39	104	0	71	16748
2026-01-01 23:52:23.84	13.40	25.29	-50.1	-63.3	3.8	1.49e+00	0	39	104	0	71	16815
2026-01-01 23:52:26.99	13.32	25.80	-50.1	-63.3	3.8	1.49e+00	0	39	104	0	71	16857
2026-01-01 23:52:29.86	13.25	26.27	-50.1	-63.3	3.8	1.49e+00	0	39	104	0	71	16835
2026-01-01 23:52:33.01	13.16	26.80	-50.1	-63.3	3.8	1.49e+00	0	39	104	0	71	16790
2026-01-01 23:52:35.88	13.08	27.29	-50.1	-63.4	3.8	1.49e+00	0	39	104	0	71	16893
2026-01-01 23:52:39.04	12.99	27.84	-50.1	-63.3	3.8	1.49e+00	0	39	104	0	71	16869
2026-01-01 23:52:41.91	12.90	28.35	-50.1	-63.3	3.8	1.49e+00	0	39	104	0	71	16792
2026-01-01 23:52:45.06	12.81	28.91	-50.1	-63.3	3.8	1.49e+00	0	39	104	0	71	16854
2026-01-01 23:52:47.93	12.71	29.44	-50.1	-63.3	3.8	1.49e+00	0	39	104	0	71	16858
2026-01-01 23:52:51.09	12.61	30.03	-50.1	-63.3	3.8	1.49e+00	0	39	104	0	71	16790
2026-01-01 23:52:53.96	12.51	30.58	-50.1	-63.3	3.8	1.49e+00	0	39	104	0	71	16830
2026-01-01 23:52:57.11	12.39	31.20	-50.1	-63.3	3.8	1.49e+00	0	39	104	0	71	16850
2026-01-01 23:52:59.98	12.28	31.77	-50.1	-63.4	3.8	1.49e+00	0	39	104	0	71	16927
2026-01-01 23:53:03.14	12.16	32.41	-50.1	-63.3	3.8	1.49e+00	0	39	104	0	71	16845
2026-01-01 23:53:06.01	12.04	33.01	-50.1	-63.3	3.8	1.49e+00	0	39	104	0	71	16869
2026-01-01 23:53:09.16	11.90	33.67	-50.1	-63.3	3.8	1.49e+00	0	39	104	0	71	16850
2026-01-01 23:53:12.03	11.77	34.29	-50.1	-63.3	3.8	1.49e+00	0	39	104	0	71	16874
2026-01-01 23:53:15.19	11.63	34.99	-50.1	-63.3	3.8	1.49e+00	0	39	104	0	71	16828
2026-01-01 23:53:18.05	11.49	35.64	-50.1	-63.3	3.8	1.49e+00	0	39	104	0	71	16847
2026-01-01 23:53:21.21	11.32	36.36	-50.1	-63.3	3.8	1.49e+00	0	39	104	0	71	16866
2026-01-01 23:53:24.08	11.17	37.04	-50.1	-63.3	3.8	1.49e+00	0	39	104	0	71	16819
2026-01-01 23:53:27.24	10.99	37.80	-50.1	-63.3	3.8	1.49e+00	0	39	104	0	71	16810
2026-01-01 23:53:30.27	10.81	38.54	-50.1	-63.3	3.8	1.49e+00	0	39	104	0	71	16809
2026-01-01 23:53:33.37	10.62	39.32	-50.1	-63.4	3.8	1.49e+00	0	39	104	0	71	16929
2026-01-01 23:53:36.91	10.39	40.23	-50.1	-63.3	3.8	1.49e+00	0	39	104	0	71	16865
2026-01-01 23:53:39.64	10.20	40.95	-50.1	-63.3	3.8	1.49e+00	0	39	104	0	71	16854
2026-01-01 23:53:42.94	9.96	41.84	-50.1	-63.3	3.8	1.49e+00	0	40	104	0	71	16885
2026-01-01 23:53:45.66	9.75	42.59	-50.1	-63.3	3.8	1.49e+00	0	40	104	0	71	16854
2026-01-01 23:53:48.96	9.48	43.51	-50.1	-63.3	3.8	1.49e+00	0	40	104	0	71	16874
2026-01-01 23:53:51.69	9.25	44.30	-50.1	-63.3	3.8	1.49e+00	0	39	104	0	71	16847
2026-01-01 23:53:54.99	8.95	45.26	-50.1	-63.3	3.8	1.49e+00	0	39	104	0	71	16866
2026-01-01 23:53:57.71	8.69	46.08	-50.1	-63.4	3.8	1.49e+00	0	39	104	0	71	16893
2026-01-01 23:54:01.01	8.35	47.09	-50.1	-63.3	3.8	1.49e+00	0	39	104	0	71	16864
2026-01-01 23:54:03.74	8.05	47.94	-50.1	-63.4	3.8	1.49e+00	0	40	104	0	71	16896
2026-01-01 23:54:07.04	7.67	49.00	-50.1	-63.4	3.8	1.49e+00	0	40	104	0	71	16898
2026-01-01 23:54:09.76	7.33	49.88	-50.1	-63.4	3.8	1.49e+00	0	39	104	0	71	16913
2026-01-01 23:54:13.06	6.90	50.98	-50.1	-63.3	3.8	1.49e+00	0	39	104	0	71	16850
2026-01-01 23:54:15.78	6.51	51.90	-50.1	-63.4	3.8	1.49e+00	0	39	104	0	71	16909
2026-01-01 23:54:19.08	6.01	53.05	-50.1	-63.3	3.8	1.49e+00	0	39	104	0	71	16859
2026-01-01 23:54:21.81	5.56	54.01	-50.1	-63.3	3.8	1.49e+00	0	39	104	0	71	16885
2026-01-01 23:54:25.11	4.98	55.20	-50.1	-63.3	3.8	1.49e+00	0	39	104	0	71	16836
2026-01-01 23:54:27.83	4.46	56.19	-50.1	-63.3	3.8	1.49e+00	0	39	104	0	71	16831
2026-01-01 23:54:31.13	3.77	57.42	-50.1	-63.3	3.8	1.49e+00	0	39	104	0	71	16875
2026-01-01 23:54:33.86	3.16	58.46	-50.1	-63.3	3.8	1.49e+00	0	39	104	0	71	16885
2026-01-01 23:54:37.16	2.34	59.73	-50.1	-63.3	3.8	1.49e+00	0	39	104	0	71	16843
2026-01-01 23:54:39.88	1.61	60.79	-50.1	-63.3	3.8	1.49e+00	0	39	104	0	71	16855
2026-01-01 23:54:43.18	0.63	62.10	-50.1	-63.3	3.8	1.49e+00	0	39	104	0	71	16875
2026-01-01 23:54:45.90	359.74	63.19	-50.1	-63.3	3.8	1.49e+00	0	39	104	0	71	16841
2026-01-01 23:54:49.21	358.53	64.53	-50.1	-63.3	3.8	1.49e+00	0	39	104	0	71	16866
2026-01-01 23:54:52.51	357.18	65.88	-50.1	-63.4	3.8	1.49e+00	0	39	104	0	71	16915
2026-01-01 23:54:55.51	355.79	67.11	-50.1	-63.3	3.8	1.49e+00	0	39	104	0	71	16881
2026-01-01 23:54:58.53	354.22	68.36	-50.1	-63.3	3.8	1.49e+00	0	39	104	0	71	16842
2026-01-01 23:55:01.54	352.44	69.60	-50.1	-63.3	3.8	1.49e+00	0	39	104	0	71	16814
2026-01-01 23:55:04.61	350.37	70.87	-50.1	-63.3	3.8	1.49e+00	0	39	104	0	71	16743
2026-01-01 23:55:07.48	348.15	72.04	-50.1	-63.3	3.8	1.49e+00	0	39	104	0	71	16781
2026-01-01 23:55:10.63	345.34	73.31	-50.1	-63.3	3.8	1.49e+00	0	39	104	0	71	16824
2026-01-01 23:55:13.50	342.36	74.43	-50.1	-63.4	3.8	1.49e+00	0	39	104	0	71	16914
2026-01-01 23:55:16.66	338.52	75.63	-50.1	-63.3	3.8	1.49e+00	0	39	104	0	71	16764
2026-01-01 23:55:19.53	334.42	76.66	-50.1	-63.3	3.8	1.49e+00	0	39	104	0	71	16799
2026-01-01 23:55:22.68	329.14	77.71	-50.1	-63.4	3.8	1.49e+00	0	39	104	0	71	16911
2026-01-01 23:55:25.55	323.50	78.57	-50.1	-63.3	3.8	1.49e+00	0	39	104	0	71	16738
2026-01-01 23:55:28.71	316.29	79.37	-50.1	-63.3	3.8	1.49e+00	0	40	104	0	71	16836
2026-01-01 23:55:31.58	308.82	79.93	-50.1	-63.3	3.8	1.49e+00	0	39	104	0	71	16734
2026-01-01 23:55:34.73	299.78	80.34	-50.1	-63.3	3.8	1.49e+00	0	39	104	0	71	16815
2026-01-01 23:55:37.60	291.05	80.49	-50.1	-63.3	3.8	1.49e+00	0	39	104	0	71	16853
2026-01-01 23:55:40.76	281.37	80.40	-50.1	-63.3	3.8	1.49e+00	0	40	104	0	71	16816
2026-01-01 23:55:43.63	272.95	80.09	-50.1	-63.4	3.8	1.49e+00	0	39	104	0	71	16898
2026-01-01 23:55:46.78	264.49	79.52	-50.1	-63.3	3.8	1.49e+00	0	39	104	0	71	16856
2026-01-01 23:55:49.65	257.67	78.84	-50.1	-63.3	3.8	1.49e+00	0	39	104	0	71	16852
2026-01-01 23:55:52.81	251.18	77.93	-50.1	-63.3	3.8	1.49e+00	0	39	104	0	71	16746
2026-01-01 23:55:55.68	246.14	77.00	-50.1	-63.3	3.8	1.49e+00	0	40	104	0	71	16849
2026-01-01 23:55:58.83	241.43	75.88	-50.1	-63.3	3.8	1.49e+00	0	40	104	0	71	16770
2026-01-01 23:56:01.70	237.78	74.81	-50.1	-63.3	3.8	1.49e+00	0	39	104	0	71	16847
2026-01-01 23:56:04.86	234.35	73.58	-50.1	-63.3	3.8	1.49e+00	0	39	104	0	71	16779
2026-01-01 23:56:07.72	231.68	72.43	-50.1	-63.3	3.8	1.49e+00	0	39	104	0	71	16864
2026-01-01 23:56:10.88	229.14	71.15	-50.1	-63.3	3.8	1.49e+00	0	39	104	0	71	16840
2026-01-01 23:56:13.75	227.13	69.97	-50.1	-63.3	3.8	1.49e+00	0	39	104	0	71	16883
2026-01-01 23:56:16.90	225.20	68.66	-50.1	-63.3	3.8	1.49e+00	0	39	104	0	71	16871
2026-01-01 23:56:19.77	223.65	67.47	-50.1	-63.3	3.8	1.49e+00	0	39	104	0	71	16780
2026-01-01 23:56:22.93	222.14	66.17	-50.1	-63.4	3.8	1.49e+00	0	39	104	0	71	16888
2026-01-01 23:56:25.80	220.92	64.99	-50.1	-63.3	3.8	1.49e+00	0	39	104	0	71	16829
2026-01-01 23:56:28.95	219.72	63.70	-50.1	-63.3	3.8	1.49e+00	0	39	104	0	71	16854
2026-01-01 23:56:31.82	218.73	62.55	-50.1	-63.3	3.8	1.49e+00	0	39	104	0	71	16878
2026-01-01 23:56:34.98	217.75	61.28	-50.1	-63.3	3.8	1.49e+00	0	39	104	0	71	16833
2026-01-01 23:56:37.85	216.95	60.15	-50.1	-63.4	3.8	1.49e+00	0	39	104	0	71	16903
2026-01-01 23:56:41.02	216.13	58.92	-50.1	-63.3	3.8	1.49e+00	0	39	104	0	71	16875
2026-01-01 23:56:43.89	215.46	57.82	-50.1	-63.3	3.8	1.49e+00	0	39	104	0	71	16822
2026-01-01 23:56:47.04	214.78	56.64	-50.1	-63.3	3.8	1.49e+00	0	40	104	0	71	16856
2026-01-01 23:56:49.91	214.21	55.58	-50.1	-63.3	3.8	1.49e+00	0	39	104	0	71	16875
2026-01-01 23:56:53.07	213.64	54.43	-50.1	-63.4	3.8	1.49e+00	0	39	104	0	71	16912
2026-01-01 23:56:55.93	213.15	53.41	-50.1	-63.3	3.8	1.49e+00	0	39	104	0	71	16824
2026-01-01 23:56:59.09	212.65	52.30	-50.1	-63.3	3.8	1.49e+00	0	39	104	0	71	16780
2026-01-01 23:57:02.00	212.23	51.30	-50.1	-63.3	3.8	1.49e+00	0	39	104	0	71	16883
2026-01-01 23:57:05.02	211.82	50.28	-50.1	-63.3	3.8	1.49e+00	0	39	104	0	71	16873
2026-01-01 23:57:08.03	211.43	49.29	-50.1	-63.3	3.8	1.49e+00	0	39	104	0	71	16885
2026-01-01 23:57:11.04	211.07	48.32	-50.1	-63.3	3.8	1.49e+00	0	39	104	0	71	16874
2026-01-01 23:57:14.06	210.74	47.36	-50.1	-63.3	3.8	1.49e+00	0	39	104	0	71	16859
2026-01-01 23:57:17.31	210.39	46.36	-50.1	-63.4	3.8	1.49e+00	0	39	104	0	71	16892
2026-01-01 23:57:20.17	210.11	45.49	-50.1	-63.3	3.8	1.49e+00	0	40	104	0	71	16859
2026-01-01 23:57:23.52	209.80	44.50	-50.1	-63.3	3.8	1.49e+00	0	39	104	0	71	16798
2026-01-01 23:57:26.45	209.54	43.65	-50.1	-63.3	3.8	1.49e+00	0	39	104	0	71	16843
2026-01-01 23:57:29.75	209.27	42.71	-50.1	-63.3	3.8	1.49e+00	0	39	104	0	71	16887
2026-01-01 23:57:32.48	209.06	41.95	-50.1	-63.3	3.8	1.49e+00	0	39	104	0	71	16862
2026-01-01 23:57:35.78	208.81	41.06	-50.1	-63.3	3.8	1.49e+00	0	40	104	0	71	16851
2026-01-01 23:57:38.50	208.62	40.34	-50.1	-63.3	3.8	1.49e+00	0	39	104	0	71	16876
2026-01-01 23:57:41.80	208.40	39.48	-50.1	-63.3	3.8	1.49e+00	0	40	104	0	71	16834
2026-01-01 23:57:44.53	208.23	38.79	-50.1	-63.3	3.8	1.49e+00	0	40	104	0	71	16829
2026-01-01 23:57:47.83	208.03	37.96	-50.1	-63.3	3.8	1.49e+00	0	39	104	0	71	16858
2026-01-01 23:57:50.56	207.87	37.30	-50.1	-63.3	3.8	1.49e+00	0	39	104	0	71	16877
2026-01-01 23:57:53.92	207.68	36.50	-50.1	-63.3	3.8	1.49e+00	0	39	104	0	71	16882
2026-01-01 23:57:56.64	207.54	35.86	-50.1	-63.3	3.8	1.49e+00	0	39	104	0	71	16793
2026-01-01 23:57:59.94	207.37	35.11	-50.1	-63.4	3.8	1.49e+00	0	40	104	0	71	16891
2026-01-01 23:58:02.67	207.24	34.50	-50.1	-63.3	3.8	1.49e+00	0	39	104	0	71	16856
2026-01-01 23:58:05.96	207.09	33.78	-50.1	-63.3	3.8	1.49e+00	0	40	104	0	71	16808
2026-01-01 23:58:08.69	206.97	33.20	-50.1	-63.3	3.8	1.49e+00	0	39	104	0	71	16783
2026-01-01 23:58:11.99	206.83	32.50	-50.1	-63.3	3.8	1.49e+00	0	39	104	0	71	16883
2026-01-01 23:58:14.72	206.72	31.94	-50.1	-63.3	3.8	1.49e+00	0	39	104	0	71	16867
2026-01-01 23:58:18.02	206.59	31.28	-50.1	-63.4	3.8	1.49e+00	0	39	104	0	71	16946
2026-01-01 23:58:20.74	206.49	30.74	-50.1	-63.3	3.8	1.49e+00	0	39	104	0	71	16855
2026-01-01 23:58:24.04	206.37	30.10	-50.1	-63.3	3.8	1.49e+00	0	40	104	0	71	16874
2026-01-01 23:58:26.77	206.27	29.58	-50.1	-63.3	3.8	1.49e+00	0	39	104	0	71	16868
2026-01-01 23:58:30.06	206.16	28.97	-50.1	-63.3	3.8	1.49e+00	0	39	104	0	71	16878
2026-01-01 23:58:32.79	206.07	28.47	-50.1	-63.3	3.8	1.49e+00	0	40	104	0	71	16851
2026-01-01 23:58:36.09	205.97	27.88	-50.1	-63.4	3.8	1.49e+00	0	39	104	0	71	16960
2026-01-01 23:58:38.81	205.89	27.41	-50.1	-63.3	3.8	1.49e+00	0	40	104	0	71	16807
2026-01-01 23:58:42.11	205.79	26.84	-50.1	-63.3	3.8	1.49e+00	0	39	104	0	71	16824
2026-01-01 23:58:44.84	205.72	26.38	-50.1	-63.3	3.8	1.49e+00	0	39	104	0	71	16851
2026-01-01 23:58:48.22	205.63	25.82	-50.1	-63.3	3.8	1.49e+00	0	39	104	0	71	16848
2026-01-01 23:58:50.94	205.56	25.37	-50.1	-63.3	3.8	1.49e+00	0	39	104	0	71	16836
2026-01-01 23:58:54.24	205.47	24.84	-50.1	-63.3	3.8	1.49e+00	0	39	104	0	71	16821
2026-01-01 23:58:56.97	205.41	24.42	-50.1	-63.3	3.8	1.49e+00	0	39	104	0	71	16865
2026-01-01 23:59:00.27	205.33	23.91	-50.1	-63.3	3.8	1.49e+00	0	39	104	0	71	16849
2026-01-01 23:59:02.99	205.27	23.49	-50.1	-63.3	3.8	1.49e+00	0	39	104	0	71	16862
2026-01-01 23:59:06.63	205.19	22.95	-50.1	-63.3	3.8	1.49e+00	0	39	104	0	71	16848
2026-01-01 23:59:09.35	205.13	22.56	-50.1	-63.3	3.8	1.49e+00	0	39	104	0	71	16841
2026-01-01 23:59:12.65	205.06	22.08	-50.1	-63.3	3.8	1.49e+00	0	39	104	0	71	16773
2026-01-01 23:59:15.47	205.01	21.68	-50.1	-63.3	3.8	1.49e+00	0	39	104	0	71	16846
2026-01-01 23:59:18.92	204.94	21.20	-50.1	-63.3	3.8	1.49e+00	0	39	104	0	71	16863
2026-01-01 23:59:21.64	204.89	20.83	-50.1	-63.4	3.8	1.49e+00	0	39	104	0	71	16890
2026-01-01 23:59:24.94	204.83	20.39	-50.1	-63.3	3.8	1.49e+00	0	39	104	0	71	16827
2026-01-01 23:59:27.67	204.78	20.03	-50.1	-63.3	3.8	1.49e+00	0	39	104	0	71	16778
2026-01-01 23:59:30.97	204.72	19.60	-50.1	-63.3	3.8	1.49e+00	0	39	104	0	71	16847
2026-01-01 23:59:33.69	204.68	19.25	-50.1	-63.3	3.8	1.49e+00	0	39	104	0	71	16787
2026-01-01 23:59:36.99	204.63	18.83	-50.1	-63.3	3.8	1.49e+00	0	39	104	0	71	16798
2026-01-01 23:59:39.72	204.58	18.49	-50.1	-63.3	3.8	1.49e+00	0	39	104	0	71	16823
2026-01-01 23:59:43.02	204.53	18.09	-50.1	-63.3	3.8	1.49e+00	0	39	104	0	71	16750
2026-01-01 23:59:45.74	204.49	17.76	-50.1	-63.3	3.8	1.49e+00	0	39	104	0	71	16848
2026-01-01 23:59:49.04	204.45	17.37	-50.1	-63.3	3.8	1.49e+00	0	39	104	0	71	16816
2026-01-01 23:59:51.77	204.41	17.05	-50.1	-63.3	3.8	1.49e+00	0	39	104	0	71	16816
2026-01-01 23:59:55.07	204.36	16.67	-50.1	-63.3	3.8	1.49e+00	0	40	104	0	71	16780
2026-01-01 23:59:57.79	204.33	16.36	-50.0	-63.3	3.8	1.49e+00	0	39	104	0	71	16799
2026-01-02 00:00:01.09	204.28	15.99	-50.0	-63.3	3.8	1.49e+00	0	39	104	0	71	16767
2026-01-02 00:00:03.82	204.25	15.69	-50.1	-63.3	3.8	1.49e+00	0	39	104	0	71	16754
2026-01-02 00:00:07.12	204.21	15.32	-50.1	-63.3	3.8	1.49e+00	0	39	104	0	71	16823
2026-01-02 00:00:09.84	204.18	15.03	-50.0	-63.3	3.8	1.49e+00	0	40	104	0	71	16764
2026-01-02 00:00:13.14	204.14	14.68	-50.0	-63.3	3.8	1.49e+00	0	39	104	0	71	16803
2026-01-02 00:00:15.87	204.11	14.39	-50.1	-63.3	3.8	1.49e+00	0	39	104	0	71	16784
2026-01-02 00:00:19.17	204.07	14.05	-50.0	-63.3	3.8	1.49e+00	0	39	104	0	71	16733
2026-01-02 00:00:21.89	204.04	13.77	-50.0	-63.3	3.8	1.49e+00	0	39	104	0	71	16760
2026-01-02 00:00:25.19	204.01	13.44	-50.0	-63.3	3.8	1.49e+00	0	39	104	0	71	16764
2026-01-02 00:00:27.92	203.98	13.17	-50.0	-63.3	3.8	1.49e+00	0	39	104	0	71	16828
2026-01-02 00:00:31.22	203.95	12.84	-50.0	-63.3	3.8	1.49e+00	0	40	104	0	71	16823
2026-01-02 00:00:33.94	203.92	12.58	-50.0	-63.3	3.8	1.49e+00	0	39	104	0	71	16810
2026-01-02 00:00:37.24	203.89	12.26	-50.0	-63.3	3.8	1.49e+00	0	39	104	0	71	16812
2026-01-02 00:00:39.97	203.87	12.00	-50.1	-63.3	3.8	1.49e+00	0	39	104	0	71	16783
2026-01-02 00:00:43.27	203.84	11.69	-50.1	-63.3	3.8	1.49e+00	0	39	104	0	71	16755
2026-01-02 00:00:46.22	203.81	11.41	-50.1	-63.3	3.8	1.49e+00	0	40	104	0	71	16813
2026-01-02 00:00:49.92	203.78	11.07	-50.0	-63.3	3.8	1.49e+00	0	39	104	0	71	16802
2026-01-02 00:00:52.64	203.76	10.83	-50.1	-63.3	3.8	1.49e+00	0	39	104	0	71	16758
2026-01-02 00:00:56.39	203.73	10.49	-50.1	-63.3	3.8	1.49e+00	0	39	104	0	71	16719
2026-01-02 00:00:59.14	203.71	10.25	-50.1	-63.3	3.8	1.49e+00	0	39	104	0	71	16791
2026-01-02 00:01:02.89	203.68	9.92	-50.0	-63.2	3.8	1.49e+00	0	39	104	0	71	16691
2026-01-02 00:01:05.63	203.66	9.68	-50.0	-63.3	3.8	1.49e+00	0	39	104	0	71	16806
2026-01-02 00:01:09.39	203.63	9.36	-50.0	-63.3	3.8	1.49e+00	0	39	104	0	71	16819
2026-01-02 00:01:12.29	203.61	9.11	-50.0	-63.3	3.8	1.49e+00	0	40	104	0	71	16777
2026-01-02 00:01:15.77	203.59	8.82	-50.0	-63.3	3.8	1.49e+00	0	39	104	0	71	16761
2026-01-02 00:01:18.50	203.57	8.60	-50.0	-63.3	3.8	1.49e+00	0	39	104	0	71	16803
2026-01-02 00:01:21.80	203.55	8.33	-50.0	-63.3	3.8	1.49e+00	0	39	104	0	71	16766
2026-01-02 00:01:24.52	203.53	8.11	-50.0	-63.3	3.8	1.49e+00	0	39	104	0	71	16774
2026-01-02 00:01:27.82	203.51	7.84	-50.0	-63.3	3.8	1.49e+00	0	39	104	0	71	16780
2026-01-02 00:01:30.55	203.49	7.62	-50.0	-63.3	3.8	1.49e+00	0	39	104	0	71	16792
2026-01-02 00:01:33.85	203.47	7.36	-50.0	-63.3	3.8	1.49e+00	0	39	104	0	71	16786
2026-01-02 00:01:36.57	203.46	7.15	-50.0	-63.3	3.8	1.49e+00	0	40	104	0	71	16818
2026-01-02 00:01:39.87	203.44	6.89	-50.0	-63.3	3.8	1.49e+00	0	39	104	0	71	16741
2026-01-02 00:01:42.60	203.42	6.68	-50.0	-63.3	3.8	1.49e+00	0	39	104	0	71	16744
2026-01-02 00:01:45.90	203.41	6.43	-50.0	-63.3	3.8	1.49e+00	0	39	104	0	71	16767
2026-01-02 00:01:48.62	203.39	6.23	-50.0	-63.3	3.8	1.49e+00	0	39	104	0	71	16747
2026-01-02 00:01:51.99	203.37	5.97	-50.0	-63.3	3.8	1.49e+00	0	39	104	0	71	16745
2026-01-02 00:01:54.71	203.36	5.77	-50.0	-63.3	3.8	1.49e+00	0	39	104	0	71	16753
2026-01-02 00:01:58.01	203.34	5.53	-50.0	-63.3	3.8	1.49e+00	0	39	104	0	71	16733
2026-01-02 00:02:00.74	203.33	5.33	-50.0	-63.3	3.8	1.49e+00	0	39	104	0	71	16742
2026-01-02 00:02:04.04	203.31	5.09	-50.0	-63.3	3.8	1.49e+00	0	39	104	0	71	16743

#Closed at: 2026-01-02 00:02:06
#Recorded file [0 MB]: D:/Data/31040_260102_024910.dat