passes_logs/2026/01/01/T1/T1__20260101_032628_FENGYUN_3E_rec.log

#Pass ID: 20260101_032628_FENGYUN 3E
#Satellite: FENGYUN 3E
#Configuration: FENGYUN 3E
#almurnet v.1.7.20251203
#Start time: 2026-01-01 03:26:28

#Version: 2.0.20230620
#Station: T1
#Location: 37.570604 lon 55.790049 lat
#TLE: 1 49008U 21062A   25365.55977344  .00000403  00000+0  21051-3 0  9995
#TLE: 2 49008  98.7483   5.8586 0001311 170.0615 190.0588 14.19883886232790

#Time	Az	El	Level	Level2	SNR	BER	BlckErr	Temp	State	Recorded	gain1	gain2
2026-01-01 03:26:28.67	20.08	4.99	-51.7	-62.6	3.8	8.46e-01	0	39	0	0	72	13694
2026-01-01 03:26:31.68	20.17	5.20	-51.7	-62.6	3.8	8.48e-01	0	39	104	0	74	12207
2026-01-01 03:26:34.69	20.27	5.41	-51.7	-62.7	3.8	8.47e-01	0	39	104	0	74	12308
2026-01-01 03:26:37.70	20.37	5.63	-51.8	-62.6	3.8	8.47e-01	0	39	104	0	74	12213
2026-01-01 03:26:40.72	20.48	5.84	-51.7	-62.7	3.8	8.47e-01	0	39	104	0	74	12253
2026-01-01 03:26:43.73	20.58	6.06	-51.7	-62.7	3.8	8.46e-01	0	39	104	0	74	12237
2026-01-01 03:26:46.74	20.69	6.28	-51.7	-62.7	3.8	8.46e-01	0	40	104	0	74	12343
2026-01-01 03:26:49.75	20.79	6.50	-51.8	-62.8	3.8	8.48e-01	0	39	104	0	74	12392
2026-01-01 03:26:52.76	20.90	6.72	-51.7	-62.7	3.8	8.46e-01	0	40	104	0	74	12253
2026-01-01 03:26:55.78	21.01	6.94	-51.7	-62.7	3.8	8.47e-01	0	40	104	0	74	12266
2026-01-01 03:26:58.79	21.12	7.17	-51.8	-62.7	3.8	8.47e-01	0	40	104	0	74	12276
2026-01-01 03:27:01.80	21.23	7.40	-51.7	-62.7	3.8	8.47e-01	0	40	104	0	74	12259
2026-01-01 03:27:04.81	21.35	7.63	-51.8	-62.7	3.8	8.48e-01	0	40	104	0	74	12270
2026-01-01 03:27:07.83	21.46	7.86	-51.7	-62.6	3.8	8.47e-01	0	40	104	0	74	12197
2026-01-01 03:27:10.84	21.58	8.09	-51.7	-62.6	3.8	8.47e-01	0	40	104	0	74	12206
2026-01-01 03:27:13.85	21.70	8.33	-51.7	-62.6	3.8	8.46e-01	0	40	104	0	74	12186
2026-01-01 03:27:16.86	21.82	8.56	-51.7	-62.6	3.8	8.48e-01	0	40	104	0	74	12130
2026-01-01 03:27:19.88	21.94	8.81	-51.7	-62.6	3.8	8.46e-01	0	40	104	0	74	12197
2026-01-01 03:27:22.89	22.07	9.05	-51.7	-62.6	3.8	8.46e-01	0	40	104	0	74	12185
2026-01-01 03:27:25.90	22.20	9.29	-51.7	-62.7	3.8	8.46e-01	0	40	104	0	74	12284
2026-01-01 03:27:28.91	22.32	9.54	-51.7	-62.6	3.8	8.46e-01	0	40	104	0	74	12191
2026-01-01 03:27:31.93	22.45	9.79	-51.7	-62.6	3.8	8.47e-01	0	40	104	0	74	12190
2026-01-01 03:27:34.94	22.59	10.04	-51.7	-62.6	3.8	8.48e-01	0	40	104	0	74	12203
2026-01-01 03:27:37.95	22.72	10.29	-51.7	-62.7	3.8	8.46e-01	0	40	104	0	74	12246
2026-01-01 03:27:40.96	22.86	10.55	-51.7	-62.6	3.8	8.46e-01	0	40	104	0	74	12190
2026-01-01 03:27:43.98	23.00	10.81	-51.7	-62.6	3.8	8.46e-01	0	40	104	0	74	12115
2026-01-01 03:27:46.99	23.14	11.07	-51.7	-62.6	3.8	8.46e-01	0	41	104	0	74	12170
2026-01-01 03:27:50.00	23.28	11.34	-51.7	-62.6	3.8	8.46e-01	0	41	104	0	74	12207
2026-01-01 03:27:53.02	23.42	11.61	-51.7	-62.6	3.8	8.47e-01	0	41	104	0	74	12233
2026-01-01 03:27:56.03	23.57	11.88	-51.7	-62.6	3.8	8.47e-01	0	40	104	0	74	12187
2026-01-01 03:27:59.04	23.72	12.15	-51.7	-62.6	3.8	8.47e-01	0	41	104	0	74	12165
2026-01-01 03:28:02.05	23.88	12.42	-51.7	-62.6	3.8	8.47e-01	0	41	104	0	74	12203
2026-01-01 03:28:05.07	24.03	12.70	-51.7	-62.6	3.8	8.46e-01	0	41	104	0	74	12192
2026-01-01 03:28:08.08	24.19	12.99	-51.7	-62.6	3.8	8.45e-01	0	41	104	0	74	12213
2026-01-01 03:28:11.09	24.35	13.27	-51.7	-62.6	3.8	8.46e-01	0	41	104	0	74	12203
2026-01-01 03:28:14.11	24.52	13.56	-51.7	-62.6	3.8	8.47e-01	0	41	104	0	74	12172
2026-01-01 03:28:17.12	24.68	13.85	-51.7	-62.6	3.8	8.47e-01	0	40	104	0	74	12178
2026-01-01 03:28:20.13	24.85	14.15	-51.7	-62.6	3.8	8.48e-01	0	41	104	0	74	12161
2026-01-01 03:28:23.14	25.03	14.45	-51.7	-62.6	3.8	8.46e-01	0	41	104	0	74	12202
2026-01-01 03:28:26.15	25.20	14.75	-51.7	-62.6	3.8	8.47e-01	0	41	104	0	74	12193
2026-01-01 03:28:29.16	25.38	15.05	-51.7	-62.6	3.8	8.46e-01	0	41	104	0	74	12190
2026-01-01 03:28:32.18	25.57	15.36	-51.7	-62.5	3.8	8.47e-01	0	41	104	0	74	12081
2026-01-01 03:28:35.19	25.75	15.68	-51.7	-62.6	3.8	8.47e-01	0	41	104	0	74	12128
2026-01-01 03:28:38.20	25.95	15.99	-51.7	-62.6	3.8	8.46e-01	0	41	104	0	74	12209
2026-01-01 03:28:41.22	26.14	16.31	-51.7	-62.6	3.8	8.47e-01	0	41	104	0	74	12129
2026-01-01 03:28:44.23	26.34	16.64	-51.7	-62.6	3.8	8.47e-01	0	41	104	0	74	12186
2026-01-01 03:28:47.24	26.54	16.97	-51.7	-62.6	3.8	8.46e-01	0	41	104	0	74	12138
2026-01-01 03:28:50.26	26.75	17.30	-51.6	-62.5	3.8	8.46e-01	0	41	104	0	74	12083
2026-01-01 03:28:53.27	26.96	17.64	-51.6	-62.6	3.8	8.48e-01	0	41	104	0	74	12134
2026-01-01 03:28:56.28	27.18	17.98	-51.6	-62.7	3.8	8.47e-01	0	41	104	0	74	12243
2026-01-01 03:28:59.30	27.40	18.33	-51.6	-62.5	3.8	8.47e-01	0	41	104	0	74	12049
2026-01-01 03:29:02.31	27.62	18.68	-51.6	-62.6	3.8	8.46e-01	0	41	104	0	74	12175
2026-01-01 03:29:05.32	27.85	19.03	-51.6	-62.5	3.8	8.47e-01	0	41	104	0	74	11985
2026-01-01 03:29:08.33	28.09	19.39	-51.6	-62.5	3.8	8.47e-01	0	41	104	0	74	12057
2026-01-01 03:29:11.35	28.33	19.76	-51.6	-62.5	3.8	8.47e-01	0	41	104	0	74	12041
2026-01-01 03:29:14.36	28.58	20.13	-51.6	-62.5	3.8	8.46e-01	0	41	104	0	74	11998
2026-01-01 03:29:17.37	28.83	20.50	-51.7	-62.6	3.8	8.47e-01	0	41	104	0	74	12111
2026-01-01 03:29:20.38	29.09	20.89	-51.7	-62.5	3.8	8.47e-01	0	41	104	0	74	12084
2026-01-01 03:29:23.40	29.35	21.27	-51.6	-62.5	3.8	8.47e-01	0	41	104	0	74	12083
2026-01-01 03:29:26.41	29.62	21.66	-51.6	-62.5	3.8	8.46e-01	0	41	104	0	74	12044
2026-01-01 03:29:29.42	29.90	22.06	-51.6	-62.5	3.8	8.47e-01	0	41	104	0	74	12048
2026-01-01 03:29:32.43	30.18	22.46	-51.7	-62.6	3.8	8.47e-01	0	41	104	0	74	12146
2026-01-01 03:29:35.59	30.49	22.89	-51.6	-62.6	3.8	8.47e-01	0	41	104	0	74	12125
2026-01-01 03:29:38.49	30.78	23.29	-51.6	-62.6	3.8	8.47e-01	0	41	104	0	74	12153
2026-01-01 03:29:41.64	31.10	23.73	-51.6	-62.5	3.8	8.46e-01	0	41	104	0	74	12076
2026-01-01 03:29:44.51	31.40	24.13	-51.7	-62.6	3.8	8.47e-01	0	41	104	0	74	12122
2026-01-01 03:29:47.70	31.74	24.59	-51.6	-62.5	3.8	8.47e-01	0	41	104	0	74	12063
2026-01-01 03:29:50.64	32.07	25.02	-51.7	-62.6	3.8	8.47e-01	0	41	104	0	74	12162
2026-01-01 03:29:53.79	32.42	25.49	-51.7	-62.6	3.8	8.47e-01	0	41	104	0	74	12194
2026-01-01 03:29:56.66	32.76	25.92	-51.7	-62.6	3.8	8.48e-01	0	41	104	0	74	12143
2026-01-01 03:29:59.81	33.13	26.40	-51.7	-62.6	3.8	8.47e-01	0	41	104	0	74	12164
2026-01-01 03:30:02.68	33.49	26.84	-51.7	-62.6	3.8	8.47e-01	0	41	104	0	74	12203
2026-01-01 03:30:05.84	33.89	27.34	-51.7	-62.5	3.8	8.48e-01	0	41	104	0	74	12082
2026-01-01 03:30:08.71	34.26	27.80	-51.7	-62.5	3.8	8.46e-01	0	41	104	0	74	12068
2026-01-01 03:30:11.86	34.69	28.30	-51.7	-62.6	3.8	8.46e-01	0	41	104	0	74	12123
2026-01-01 03:30:14.73	35.08	28.78	-51.6	-62.5	3.8	8.45e-01	0	41	104	0	74	12080
2026-01-01 03:30:17.89	35.54	29.30	-51.6	-62.6	3.8	8.46e-01	0	41	104	0	74	12120
2026-01-01 03:30:20.76	35.96	29.79	-51.6	-62.5	3.8	8.46e-01	0	41	104	0	74	12090
2026-01-01 03:30:23.92	36.44	30.33	-51.6	-62.6	3.8	8.47e-01	0	41	104	0	74	12098
2026-01-01 03:30:26.79	36.89	30.83	-51.6	-62.6	3.8	8.47e-01	0	41	104	0	74	12220
2026-01-01 03:30:29.94	37.39	31.38	-51.7	-62.6	3.8	8.47e-01	0	41	104	0	74	12138
2026-01-01 03:30:32.81	37.87	31.90	-51.7	-62.6	3.8	8.47e-01	0	41	104	0	74	12178
2026-01-01 03:30:35.97	38.42	32.47	-51.6	-62.7	3.8	8.46e-01	0	41	104	0	74	12242
2026-01-01 03:30:38.84	38.93	33.00	-51.7	-62.7	3.8	8.47e-01	0	41	104	0	74	12242
2026-01-01 03:30:42.00	39.51	33.59	-51.7	-62.6	3.8	8.47e-01	0	41	104	0	74	12107
2026-01-01 03:30:44.87	40.06	34.13	-51.6	-62.6	3.8	8.47e-01	0	41	104	0	74	12144
2026-01-01 03:30:48.02	40.68	34.73	-51.7	-62.5	3.8	8.46e-01	0	41	104	0	74	12032
2026-01-01 03:30:50.89	41.27	35.29	-51.7	-62.6	3.8	8.47e-01	0	41	104	0	74	12160
2026-01-01 03:30:54.05	41.94	35.91	-51.7	-62.6	3.8	8.46e-01	0	41	104	0	74	12129
2026-01-01 03:30:56.92	42.57	36.48	-51.7	-62.6	3.8	8.46e-01	0	41	104	0	74	12191
2026-01-01 03:31:00.07	43.28	37.11	-51.7	-62.6	3.8	8.47e-01	0	41	104	0	74	12101
2026-01-01 03:31:02.94	43.96	37.69	-51.7	-62.6	3.8	8.47e-01	0	41	104	0	74	12096
2026-01-01 03:31:06.10	44.74	38.34	-51.7	-62.7	3.8	8.47e-01	0	41	104	0	74	12253
2026-01-01 03:31:08.97	45.47	38.94	-51.7	-62.6	3.8	8.46e-01	0	41	104	0	74	12113
2026-01-01 03:31:12.13	46.30	39.60	-51.6	-62.5	3.8	8.47e-01	0	41	104	0	74	12022
2026-01-01 03:31:15.00	47.09	40.20	-51.7	-62.6	3.8	8.47e-01	0	41	104	0	74	12135
2026-01-01 03:31:18.15	47.99	40.87	-51.6	-62.6	3.8	8.46e-01	0	41	104	0	74	12102
2026-01-01 03:31:21.02	48.84	41.49	-51.7	-62.5	3.8	8.47e-01	0	41	104	0	74	12088
2026-01-01 03:31:24.17	49.81	42.17	-51.6	-62.5	3.8	8.47e-01	0	41	104	0	74	12048
2026-01-01 03:31:27.05	50.74	42.79	-51.7	-62.6	3.8	8.47e-01	0	41	104	0	74	12192
2026-01-01 03:31:30.20	51.79	43.47	-51.6	-62.5	3.8	8.48e-01	0	41	104	0	74	12064
2026-01-01 03:31:33.07	52.79	44.09	-51.7	-62.6	3.8	8.47e-01	0	41	104	0	74	12214
2026-01-01 03:31:36.23	53.94	44.78	-51.7	-62.6	3.8	8.47e-01	0	41	104	0	74	12125
2026-01-01 03:31:39.10	55.02	45.40	-51.7	-62.6	3.8	8.47e-01	0	41	104	0	74	12181
2026-01-01 03:31:42.26	56.27	46.09	-51.7	-62.6	3.8	8.47e-01	0	41	104	0	74	12115
2026-01-01 03:31:45.13	57.44	46.71	-51.6	-62.5	3.8	8.46e-01	0	41	104	0	74	12065
2026-01-01 03:31:48.28	58.79	47.38	-51.6	-62.5	3.8	8.46e-01	0	41	104	0	74	12081
2026-01-01 03:31:51.15	60.07	47.99	-51.7	-62.6	3.8	8.46e-01	0	41	104	0	74	12223
2026-01-01 03:31:54.31	61.53	48.65	-51.7	-62.6	3.8	8.46e-01	0	41	104	0	74	12158
2026-01-01 03:31:57.18	62.92	49.24	-51.7	-62.6	3.8	8.46e-01	0	41	104	0	74	12178
2026-01-01 03:32:00.34	64.50	49.88	-51.7	-62.5	3.8	8.47e-01	0	41	104	0	74	12082
2026-01-01 03:32:03.21	66.00	50.45	-51.7	-62.5	3.8	8.47e-01	0	41	104	0	74	12050
2026-01-01 03:32:06.36	67.71	51.05	-51.7	-62.6	3.8	8.46e-01	0	41	104	0	74	12150
2026-01-01 03:32:09.23	69.33	51.59	-51.7	-62.5	3.8	8.47e-01	0	41	104	0	74	12079
2026-01-01 03:32:12.39	71.18	52.16	-51.7	-62.6	3.8	8.47e-01	0	41	104	0	74	12138
2026-01-01 03:32:15.26	72.92	52.65	-51.7	-62.6	3.8	8.47e-01	0	41	104	0	74	12131
2026-01-01 03:32:18.41	74.90	53.17	-51.7	-62.6	3.8	8.46e-01	0	41	104	0	74	12115
2026-01-01 03:32:21.28	76.76	53.61	-51.7	-62.5	3.8	8.46e-01	0	41	104	0	74	12089
2026-01-01 03:32:24.44	78.87	54.07	-51.7	-62.6	3.8	8.48e-01	0	41	104	0	74	12174
2026-01-01 03:32:27.47	80.96	54.47	-51.7	-62.5	3.8	8.47e-01	0	41	104	0	74	12064
2026-01-01 03:32:30.66	83.22	54.86	-51.7	-62.6	3.8	8.48e-01	0	41	104	0	74	12173
2026-01-01 03:32:33.53	85.30	55.17	-51.7	-62.6	3.8	8.46e-01	0	41	104	0	74	12158
2026-01-01 03:32:36.68	87.64	55.48	-51.7	-62.6	3.8	8.47e-01	0	41	104	0	74	12104
2026-01-01 03:32:39.55	89.81	55.71	-51.7	-62.5	3.8	8.48e-01	0	41	104	0	74	12050
2026-01-01 03:32:42.77	92.29	55.93	-51.6	-62.5	3.8	8.46e-01	0	41	104	0	74	12077
2026-01-01 03:32:45.64	94.52	56.08	-51.7	-62.5	3.8	8.47e-01	0	41	104	0	74	12071
2026-01-01 03:32:48.80	97.01	56.20	-51.7	-62.5	3.8	8.46e-01	0	41	104	0	74	12046
2026-01-01 03:32:51.67	99.28	56.26	-51.7	-62.6	3.8	8.47e-01	0	41	104	0	74	12146
2026-01-01 03:32:54.82	101.78	56.27	-51.6	-62.6	3.8	8.47e-01	0	41	104	0	74	12118
2026-01-01 03:32:57.69	104.05	56.24	-51.6	-62.6	3.8	8.47e-01	0	41	104	0	74	12103
2026-01-01 03:33:00.85	106.55	56.16	-51.7	-62.6	3.8	8.46e-01	0	41	104	0	74	12182
2026-01-01 03:33:03.71	108.80	56.04	-51.7	-62.5	3.8	8.47e-01	0	41	104	0	74	11979
2026-01-01 03:33:06.87	111.25	55.86	-51.7	-62.6	3.8	8.47e-01	0	41	104	0	74	12163
2026-01-01 03:33:09.74	113.45	55.66	-51.6	-62.5	3.8	8.46e-01	0	41	104	0	74	12063
2026-01-01 03:33:12.89	115.82	55.39	-51.6	-62.5	3.8	8.47e-01	0	41	104	0	74	12076
2026-01-01 03:33:15.77	117.95	55.10	-51.7	-62.5	3.8	8.47e-01	0	41	104	0	74	12088
2026-01-01 03:33:18.92	120.22	54.74	-51.7	-62.5	3.8	8.47e-01	0	41	104	0	74	12039
2026-01-01 03:33:21.79	122.24	54.38	-51.7	-62.6	3.8	8.48e-01	0	41	104	0	74	12111
2026-01-01 03:33:24.95	124.41	53.95	-51.7	-62.6	3.8	8.46e-01	0	41	104	0	74	12161
2026-01-01 03:33:27.81	126.31	53.53	-51.7	-62.6	3.8	8.46e-01	0	41	104	0	74	12122
2026-01-01 03:33:30.97	128.35	53.03	-51.7	-62.6	3.8	8.47e-01	0	41	104	0	74	12188
2026-01-01 03:33:33.84	130.14	52.56	-51.7	-62.5	3.8	8.47e-01	0	41	104	0	74	12044
2026-01-01 03:33:36.99	132.04	52.01	-51.7	-62.6	3.8	8.47e-01	0	41	104	0	74	12163
2026-01-01 03:33:39.86	133.71	51.48	-51.7	-62.6	3.8	8.47e-01	0	41	104	0	74	12155
2026-01-01 03:33:43.02	135.48	50.89	-51.7	-62.5	3.8	8.47e-01	0	41	104	0	74	12059
2026-01-01 03:33:45.89	137.03	50.33	-51.7	-62.6	3.8	8.46e-01	0	41	104	0	74	12207
2026-01-01 03:33:49.04	138.67	49.70	-51.7	-62.7	3.8	8.46e-01	0	41	104	0	74	12287
2026-01-01 03:33:51.91	140.10	49.12	-51.7	-62.6	3.8	8.46e-01	0	41	104	0	74	12185
2026-01-01 03:33:55.07	141.62	48.46	-51.7	-62.6	3.8	8.46e-01	0	41	104	0	74	12217
2026-01-01 03:33:57.94	142.94	47.85	-51.7	-62.6	3.8	8.48e-01	0	41	104	0	74	12105
2026-01-01 03:34:01.07	144.32	47.19	-51.7	-62.6	3.8	8.48e-01	0	41	104	0	74	12160
2026-01-01 03:34:03.94	145.54	46.57	-51.7	-62.6	3.8	8.47e-01	0	41	104	0	74	12226
2026-01-01 03:34:07.09	146.82	45.89	-51.7	-62.6	3.8	8.46e-01	0	41	104	0	74	12199
2026-01-01 03:34:09.96	147.95	45.26	-51.6	-62.5	3.8	8.47e-01	0	41	104	0	74	12045
2026-01-01 03:34:13.12	149.13	44.57	-51.6	-62.6	3.8	8.47e-01	0	41	104	0	74	12130
2026-01-01 03:34:15.99	150.17	43.94	-51.7	-62.6	3.8	8.47e-01	0	41	104	0	74	12111
2026-01-01 03:34:19.14	151.26	43.25	-51.6	-62.5	3.8	8.47e-01	0	41	104	0	74	12088
2026-01-01 03:34:22.01	152.21	42.63	-51.7	-62.6	3.8	8.46e-01	0	41	104	0	74	12234
2026-01-01 03:34:25.17	153.22	41.94	-51.7	-62.6	3.8	8.47e-01	0	41	104	0	74	12212
2026-01-01 03:34:28.04	154.10	41.32	-51.7	-62.6	3.8	8.47e-01	0	41	104	0	74	12156
2026-01-01 03:34:31.19	155.03	40.65	-51.7	-62.6	3.8	8.46e-01	0	41	104	0	74	12154
2026-01-01 03:34:34.06	155.84	40.03	-51.7	-62.6	3.8	8.46e-01	0	41	104	0	74	12165
2026-01-01 03:34:37.22	156.71	39.36	-51.6	-62.5	3.8	8.46e-01	0	41	104	0	74	12052
2026-01-01 03:34:40.09	157.46	38.76	-51.6	-62.6	3.8	8.46e-01	0	41	104	0	74	12140
2026-01-01 03:34:43.25	158.26	38.10	-51.7	-62.6	3.8	8.48e-01	0	41	104	0	74	12110
2026-01-01 03:34:46.12	158.96	37.51	-51.6	-62.6	3.8	8.46e-01	0	41	104	0	74	12214
2026-01-01 03:34:49.27	159.69	36.87	-51.7	-62.6	3.8	8.47e-01	0	41	104	0	74	12164
2026-01-01 03:34:52.14	160.34	36.29	-51.7	-62.6	3.8	8.47e-01	0	41	104	0	74	12151
2026-01-01 03:34:55.30	161.03	35.66	-51.6	-62.6	3.8	8.46e-01	0	41	104	0	74	12144
2026-01-01 03:34:58.17	161.63	35.10	-51.6	-62.6	3.8	8.47e-01	0	41	104	0	74	12155
2026-01-01 03:35:01.32	162.27	34.48	-51.7	-62.6	3.8	8.47e-01	0	41	104	0	74	12095
2026-01-01 03:35:04.20	162.84	33.93	-51.6	-62.6	3.8	8.46e-01	0	41	104	0	74	12161
2026-01-01 03:35:07.35	163.43	33.33	-51.6	-62.5	3.8	8.47e-01	0	41	104	0	74	12012
2026-01-01 03:35:10.22	163.96	32.80	-51.6	-62.6	3.8	8.47e-01	0	41	104	0	74	12136
2026-01-01 03:35:13.38	164.52	32.22	-51.6	-62.5	3.8	8.48e-01	0	41	104	0	74	12016
2026-01-01 03:35:16.25	165.01	31.69	-51.6	-62.5	3.8	8.48e-01	0	41	104	0	74	12026
2026-01-01 03:35:19.41	165.53	31.13	-51.6	-62.5	3.8	8.46e-01	0	41	104	0	74	12059
2026-01-01 03:35:22.28	165.99	30.62	-51.6	-62.5	3.8	8.48e-01	0	41	104	0	74	12079
2026-01-01 03:35:25.43	166.48	30.07	-51.6	-62.5	3.8	8.47e-01	0	41	104	0	74	12063
2026-01-01 03:35:28.30	166.92	29.58	-51.6	-62.6	3.8	8.46e-01	0	41	104	0	74	12107
2026-01-01 03:35:31.48	167.38	29.04	-51.6	-62.6	3.8	8.47e-01	0	41	104	0	74	12095
2026-01-01 03:35:34.49	167.81	28.54	-51.6	-62.6	3.8	8.46e-01	0	41	104	0	74	12127
2026-01-01 03:35:37.51	168.22	28.04	-51.6	-62.5	3.8	8.46e-01	0	41	104	0	74	12054
2026-01-01 03:35:40.52	168.62	27.55	-51.6	-62.6	3.8	8.47e-01	0	41	104	0	74	12133
2026-01-01 03:35:43.66	169.03	27.05	-51.6	-62.5	3.8	8.46e-01	0	41	104	0	74	12077
2026-01-01 03:35:46.53	169.39	26.60	-51.6	-62.5	3.8	8.46e-01	0	41	104	0	74	12052
2026-01-01 03:35:49.69	169.77	26.11	-51.6	-62.5	3.8	8.47e-01	0	41	104	0	74	12018
2026-01-01 03:35:52.56	170.11	25.67	-51.6	-62.5	3.8	8.47e-01	0	41	104	0	74	12002
2026-01-01 03:35:55.80	170.49	25.19	-51.6	-62.5	3.8	8.46e-01	0	41	104	0	74	12033
2026-01-01 03:35:58.66	170.81	24.76	-51.6	-62.5	3.8	8.46e-01	0	41	104	0	74	12048
2026-01-01 03:36:01.81	171.15	24.30	-51.6	-62.5	3.8	8.47e-01	0	41	104	0	74	12033
2026-01-01 03:36:04.68	171.45	23.89	-51.6	-62.5	3.8	8.47e-01	0	40	104	0	74	12037
2026-01-01 03:36:07.83	171.78	23.44	-51.6	-62.5	3.8	8.47e-01	0	41	104	0	74	12090
2026-01-01 03:36:10.70	172.07	23.04	-51.6	-62.6	3.8	8.46e-01	0	41	104	0	74	12210
2026-01-01 03:36:13.86	172.38	22.61	-51.6	-62.5	3.8	8.47e-01	0	41	104	0	74	12084
2026-01-01 03:36:16.73	172.66	22.22	-51.6	-62.5	3.8	8.47e-01	0	41	104	0	74	12037
2026-01-01 03:36:19.89	172.95	21.79	-51.6	-62.5	3.8	8.46e-01	0	41	104	0	74	12070
2026-01-01 03:36:22.76	173.21	21.42	-51.6	-62.6	3.8	8.47e-01	0	41	104	0	74	12146
2026-01-01 03:36:25.91	173.49	21.01	-51.6	-62.5	3.8	8.47e-01	0	41	104	0	74	11992
2026-01-01 03:36:28.78	173.74	20.64	-51.6	-62.5	3.8	8.47e-01	0	40	104	0	74	12045
2026-01-01 03:36:31.94	174.01	20.24	-51.6	-62.6	3.8	8.47e-01	0	41	104	0	74	12110
2026-01-01 03:36:34.81	174.25	19.88	-51.6	-62.5	3.8	8.46e-01	0	41	104	0	74	12076
2026-01-01 03:36:37.96	174.50	19.49	-51.6	-62.6	3.8	8.46e-01	0	41	104	0	74	12119
2026-01-01 03:36:40.83	174.73	19.14	-51.6	-62.5	3.8	8.47e-01	0	40	104	0	74	12032
2026-01-01 03:36:43.99	174.97	18.76	-51.6	-62.5	3.8	8.46e-01	0	41	104	0	74	11987
2026-01-01 03:36:46.86	175.19	18.42	-51.6	-62.5	3.8	8.47e-01	0	41	104	0	74	12064
2026-01-01 03:36:50.02	175.42	18.06	-51.6	-62.5	3.8	8.46e-01	0	40	104	0	74	12011
2026-01-01 03:36:52.89	175.63	17.73	-51.6	-62.5	3.8	8.46e-01	0	41	104	0	73	12774
2026-01-01 03:36:56.04	175.85	17.37	-51.6	-62.5	3.8	8.46e-01	0	41	104	0	73	12747
2026-01-01 03:36:58.91	176.05	17.04	-51.6	-62.5	3.8	8.47e-01	0	40	104	0	73	12764
2026-01-01 03:37:02.07	176.26	16.69	-51.6	-62.5	3.8	8.46e-01	0	41	104	0	73	12802
2026-01-01 03:37:04.94	176.45	16.38	-51.6	-62.5	3.8	8.47e-01	0	41	104	0	73	12770
2026-01-01 03:37:08.10	176.66	16.04	-51.6	-62.5	3.8	8.48e-01	0	41	104	0	73	12689
2026-01-01 03:37:10.96	176.84	15.73	-51.6	-62.5	3.8	8.46e-01	0	41	104	0	73	12753
2026-01-01 03:37:14.12	177.04	15.40	-51.6	-62.5	3.8	8.48e-01	0	41	104	0	73	12708
2026-01-01 03:37:16.99	177.21	15.10	-51.5	-62.4	3.8	8.46e-01	0	41	104	0	73	12607
2026-01-01 03:37:20.15	177.40	14.78	-51.5	-62.4	3.8	8.46e-01	0	41	104	0	73	12629
2026-01-01 03:37:23.02	177.57	14.49	-51.5	-62.4	3.8	8.46e-01	0	41	104	0	73	12654
2026-01-01 03:37:26.18	177.75	14.17	-51.5	-62.4	3.8	8.46e-01	0	40	104	0	73	12664
2026-01-01 03:37:29.05	177.92	13.88	-51.5	-62.4	3.8	8.47e-01	0	41	104	0	73	12647
2026-01-01 03:37:32.20	178.09	13.57	-51.6	-62.5	3.8	8.46e-01	0	41	104	0	73	12783
2026-01-01 03:37:35.07	178.25	13.29	-51.6	-62.5	3.8	8.47e-01	0	40	104	0	73	12706
2026-01-01 03:37:38.23	178.42	12.99	-51.6	-62.5	3.8	8.47e-01	0	41	104	0	73	12710
2026-01-01 03:37:41.10	178.57	12.72	-51.6	-62.5	3.8	8.46e-01	0	41	104	0	73	12714
2026-01-01 03:37:44.25	178.73	12.42	-51.6	-62.6	3.8	8.47e-01	0	41	104	0	73	12829
2026-01-01 03:37:47.12	178.87	12.16	-51.6	-62.6	3.8	8.46e-01	0	41	104	0	73	12833
2026-01-01 03:37:50.28	179.03	11.87	-51.6	-62.5	3.8	8.46e-01	0	41	104	0	73	12769
2026-01-01 03:37:53.15	179.17	11.61	-51.7	-62.6	3.8	8.46e-01	0	41	104	0	73	12898
2026-01-01 03:37:56.30	179.32	11.32	-51.7	-62.6	3.8	8.48e-01	0	40	104	0	73	12873
2026-01-01 03:37:59.17	179.46	11.07	-51.7	-62.5	3.8	8.48e-01	0	41	104	0	73	12793
2026-01-01 03:38:02.33	179.61	10.79	-51.7	-62.6	3.8	8.46e-01	0	41	104	0	73	12930
2026-01-01 03:38:05.20	179.74	10.54	-51.7	-62.6	3.8	8.45e-01	0	41	104	0	73	12857
2026-01-01 03:38:08.35	179.88	10.27	-51.6	-62.5	3.8	8.47e-01	0	41	104	0	73	12757
2026-01-01 03:38:11.22	180.00	10.02	-51.6	-62.5	3.8	8.48e-01	0	41	104	0	73	12751
2026-01-01 03:38:14.38	180.14	9.76	-51.6	-62.5	3.8	8.47e-01	0	41	104	0	73	12796
2026-01-01 03:38:17.25	180.26	9.51	-51.6	-62.6	3.8	8.46e-01	0	41	104	0	73	12856
2026-01-01 03:38:20.40	180.40	9.25	-51.6	-62.5	3.8	8.47e-01	0	40	104	0	73	12739
2026-01-01 03:38:23.27	180.52	9.02	-51.6	-62.5	3.8	8.47e-01	0	41	104	0	73	12807
2026-01-01 03:38:26.43	180.64	8.76	-51.6	-62.5	3.8	8.46e-01	0	41	104	0	73	12766
2026-01-01 03:38:29.30	180.76	8.53	-51.6	-62.5	3.8	8.48e-01	0	41	104	0	73	12686
2026-01-01 03:38:32.45	180.88	8.28	-51.6	-62.6	3.8	8.46e-01	0	41	104	0	73	12847
2026-01-01 03:38:35.43	181.00	8.04	-51.6	-62.6	3.8	8.46e-01	0	41	104	0	73	12913
2026-01-01 03:38:38.45	181.12	7.81	-51.6	-62.6	3.8	8.46e-01	0	40	104	0	73	12844
2026-01-01 03:38:41.46	181.23	7.57	-51.6	-62.5	3.8	8.47e-01	0	41	104	0	73	12791
2026-01-01 03:38:44.39	181.34	7.35	-51.7	-62.5	3.8	8.47e-01	0	41	104	0	73	12787
2026-01-01 03:38:47.66	181.46	7.10	-51.7	-62.6	3.8	8.47e-01	0	41	104	0	73	12855
2026-01-01 03:38:50.53	181.56	6.88	-51.7	-62.6	3.8	8.47e-01	0	41	104	0	73	12866
2026-01-01 03:38:53.69	181.67	6.64	-51.7	-62.6	3.8	8.48e-01	0	41	104	0	73	12898
2026-01-01 03:38:56.56	181.78	6.43	-51.7	-62.6	3.8	8.47e-01	0	41	104	0	73	12930
2026-01-01 03:38:59.79	181.89	6.19	-51.6	-62.5	3.8	8.47e-01	0	41	104	0	73	12760
2026-01-01 03:39:02.66	181.98	5.98	-51.7	-62.6	3.8	8.47e-01	0	41	104	0	73	12855
2026-01-01 03:39:05.82	182.09	5.75	-51.6	-62.5	3.8	8.47e-01	0	40	104	0	73	12774
2026-01-01 03:39:08.68	182.19	5.54	-51.6	-62.6	3.8	8.47e-01	0	41	104	0	73	12848
2026-01-01 03:39:11.84	182.29	5.32	-51.6	-62.6	3.8	8.46e-01	0	41	104	0	73	12856
2026-01-01 03:39:14.71	182.38	5.12	-51.6	-62.5	3.8	8.46e-01	0	41	104	0	73	12801

#Closed at: 2026-01-01 03:39:17
#Recorded file [0 MB]: D:/Data/31040_260101_062628.dat