passes_logs/2026/01/18/T1/T1__20260118_044219_FENGYUN_3E_rec.log

#Pass ID: 20260118_044219_FENGYUN 3E
#Satellite: FENGYUN 3E
#Configuration: FENGYUN 3E
#almurnet v.1.7.20251203
#Start time: 2026-01-18 04:42:19

#Version: 2.0.20230620
#Station: T1
#Location: 37.570604 lon 55.790049 lat
#TLE: 1 49008U 21062A   26017.26067429  .00000278  00000+0  15192-3 0  9991
#TLE: 2 49008  98.7484  22.3628 0002125 132.6872 227.4483 14.19886454235162

#Time	Az	El	Level	Level2	SNR	BER	BlckErr	Temp	State	Recorded	gain1	gain2
2026-01-18 04:42:19.72	11.75	5.03	-49.0	-60.5	3.8	8.47e-01	0	41	0	0	67	14230
2026-01-18 04:42:22.70	11.65	5.24	-46.2	-60.2	3.8	8.47e-01	0	41	104	0	61	19614
2026-01-18 04:42:25.68	11.54	5.45	-46.2	-60.2	3.8	8.46e-01	0	41	104	0	61	19497
2026-01-18 04:42:28.66	11.43	5.66	-46.2	-60.2	3.8	8.47e-01	0	41	104	0	61	19406
2026-01-18 04:42:31.64	11.32	5.87	-46.2	-60.2	3.8	8.47e-01	0	41	104	0	61	19503
2026-01-18 04:42:34.62	11.21	6.09	-46.2	-60.3	3.8	8.47e-01	0	41	104	0	61	19660
2026-01-18 04:42:37.60	11.10	6.30	-46.2	-60.2	3.8	8.47e-01	0	41	104	0	61	19513
2026-01-18 04:42:40.58	10.98	6.52	-46.2	-59.5	3.8	8.46e-01	0	41	104	0	61	17943
2026-01-18 04:42:43.56	10.86	6.74	-46.1	-58.2	3.8	8.46e-01	0	41	104	0	61	15526
2026-01-18 04:42:46.54	10.74	6.96	-46.0	-56.9	4.2	8.38e-01	0	41	0	0	61	13404
2026-01-18 04:42:49.52	10.62	7.18	-46.0	-57.1	4.1	8.40e-01	0	42	0	0	61	13698
2026-01-18 04:42:52.50	10.50	7.40	-46.1	-58.6	3.8	8.46e-01	0	42	104	0	61	16262
2026-01-18 04:42:55.48	10.37	7.63	-46.2	-60.1	3.8	8.47e-01	0	42	104	0	61	19217
2026-01-18 04:42:58.46	10.24	7.86	-46.2	-59.2	3.8	8.46e-01	0	42	104	0	61	17405
2026-01-18 04:43:01.44	10.11	8.09	-45.4	-52.7	6.5	3.33e-01	0	42	0	3145728	61	8268
2026-01-18 04:43:04.42	9.98	8.32	-43.5	-47.1	12.1	7.64e-04	0	42	0	24117248	57	5419
2026-01-18 04:43:07.40	9.85	8.55	-41.5	-43.8	15.3	0.00e+00	0	42	0	46137344	53	4701
2026-01-18 04:43:10.38	9.71	8.79	-40.7	-42.7	16.4	0.00e+00	0	42	0	67108864	52	4385
2026-01-18 04:43:13.36	9.57	9.02	-41.2	-43.4	15.7	0.00e+00	0	42	0	89128960	52	4740
2026-01-18 04:43:16.35	9.43	9.26	-43.8	-47.3	11.9	8.38e-03	0	42	0	110100480	58	5248
2026-01-18 04:43:19.33	9.28	9.51	-42.8	-45.9	13.2	7.23e-03	0	42	0	132120576	56	5008
2026-01-18 04:43:22.32	9.13	9.75	-38.1	-39.4	19.6	0.00e+00	0	42	0	153092096	46	4207
2026-01-18 04:43:25.35	8.98	10.00	-38.2	-39.5	19.5	0.00e+00	0	42	0	175112192	46	4259
2026-01-18 04:43:28.33	8.83	10.25	-38.3	-39.6	19.4	0.00e+00	0	42	0	197132288	46	4295
2026-01-18 04:43:31.32	8.67	10.50	-38.3	-39.6	19.3	0.00e+00	0	42	0	218103808	46	4327
2026-01-18 04:43:34.30	8.51	10.75	-37.9	-39.1	19.8	0.00e+00	0	42	0	240123904	46	4097
2026-01-18 04:43:37.29	8.35	11.01	-38.0	-39.2	19.8	0.00e+00	0	42	0	262144000	46	4105
2026-01-18 04:43:40.23	8.19	11.27	-37.9	-39.0	19.9	0.00e+00	0	42	0	283115520	46	4038
2026-01-18 04:43:43.46	8.01	11.55	-37.8	-39.0	20.0	0.00e+00	0	42	0	306184192	46	4008
2026-01-18 04:43:46.40	7.84	11.81	-37.6	-38.7	20.3	0.00e+00	0	43	0	327155712	45	4121
2026-01-18 04:43:49.39	7.66	12.07	-37.5	-38.6	20.4	0.00e+00	0	42	0	349175808	45	4059
2026-01-18 04:43:52.37	7.48	12.34	-37.6	-38.7	20.3	0.00e+00	0	43	0	371195904	45	4122
2026-01-18 04:43:55.36	7.30	12.62	-37.5	-38.6	20.4	0.00e+00	0	42	0	392167424	45	4065
2026-01-18 04:43:58.34	7.12	12.89	-37.4	-38.4	20.6	0.00e+00	0	42	0	414187520	45	3986
2026-01-18 04:44:01.29	6.93	13.16	-37.3	-38.4	20.6	0.00e+00	0	43	0	435159040	45	3968
2026-01-18 04:44:04.28	6.74	13.44	-37.2	-38.2	20.8	0.00e+00	0	42	0	457179136	45	3889
2026-01-18 04:44:07.26	6.54	13.73	-37.2	-38.2	20.8	0.00e+00	0	42	0	478150656	44	4133
2026-01-18 04:44:10.29	6.34	14.02	-37.2	-38.2	20.8	0.00e+00	0	43	0	500170752	44	4112
2026-01-18 04:44:13.32	6.13	14.31	-37.1	-38.0	20.9	0.00e+00	0	43	0	522190848	44	4046
2026-01-18 04:44:16.31	5.92	14.60	-37.1	-38.0	20.9	0.00e+00	0	43	0	543162368	44	4051
2026-01-18 04:44:19.29	5.70	14.90	-37.0	-38.0	21.0	0.00e+00	0	43	0	565182464	44	4030
2026-01-18 04:44:22.28	5.48	15.20	-36.7	-37.7	21.3	0.00e+00	0	42	0	586153984	44	3873
2026-01-18 04:44:25.26	5.26	15.50	-36.7	-37.7	21.3	0.00e+00	0	43	0	608174080	44	3876
2026-01-18 04:44:28.24	5.03	15.80	-36.6	-37.5	21.5	0.00e+00	0	43	0	629145600	44	3819
2026-01-18 04:44:31.40	4.79	16.13	-36.8	-37.7	21.3	0.00e+00	0	43	0	652214272	44	3908
2026-01-18 04:44:34.30	4.56	16.43	-36.3	-37.3	21.6	0.00e+00	0	43	0	673185792	43	3927
2026-01-18 04:44:37.57	4.29	16.78	-36.4	-37.3	21.5	0.00e+00	0	43	0	696254464	43	3935
2026-01-18 04:44:40.29	4.06	17.07	-36.2	-37.1	21.7	0.00e+00	0	43	0	716177408	43	3861
2026-01-18 04:44:43.55	3.78	17.42	-36.2	-37.2	21.7	0.00e+00	0	43	0	740294656	43	3871
2026-01-18 04:44:46.28	3.55	17.72	-36.3	-37.3	21.6	0.00e+00	0	43	0	760217600	43	3914
2026-01-18 04:44:49.56	3.25	18.08	-36.0	-37.0	21.9	0.00e+00	0	43	0	783286272	42	4014
2026-01-18 04:44:52.34	3.00	18.39	-35.9	-36.8	22.0	0.00e+00	0	43	0	803209216	42	3922
2026-01-18 04:44:55.75	2.68	18.78	-35.8	-36.7	22.1	0.00e+00	0	43	0	828375040	42	3908
2026-01-18 04:44:58.47	2.42	19.09	-35.6	-36.5	22.3	0.00e+00	0	43	0	847249408	42	3797
2026-01-18 04:45:01.76	2.09	19.48	-35.4	-36.3	22.5	0.00e+00	0	43	0	871366656	41	3934
2026-01-18 04:45:04.47	1.82	19.79	-35.0	-35.8	22.9	0.00e+00	0	43	0	891289600	40	3946
2026-01-18 04:45:07.74	1.49	20.18	-35.5	-36.4	22.4	0.00e+00	0	43	0	914358272	40	4197
2026-01-18 04:45:10.44	1.20	20.51	-35.3	-36.2	22.6	0.00e+00	0	42	0	934281216	40	4120
2026-01-18 04:45:13.71	0.85	20.90	-35.3	-36.1	22.6	0.00e+00	0	43	0	957349888	40	4095
2026-01-18 04:45:16.44	0.55	21.24	-35.3	-36.2	22.6	0.00e+00	0	43	0	977272832	40	4118
2026-01-18 04:45:19.71	0.17	21.65	-35.4	-36.3	22.6	0.00e+00	0	43	0	1001390080	40	4156
2026-01-18 04:45:22.41	359.86	21.99	-35.2	-36.1	22.7	0.00e+00	0	43	0	1020264448	40	4068
2026-01-18 04:45:25.68	359.47	22.41	-35.3	-36.2	22.7	0.00e+00	0	43	0	1044381696	40	4118
2026-01-18 04:45:28.50	359.12	22.77	-35.4	-36.2	22.6	0.00e+00	0	43	0	1064304640	40	4132
2026-01-18 04:45:31.63	358.73	23.18	-35.5	-36.4	22.4	0.00e+00	0	43	0	1087373312	40	4218
2026-01-18 04:45:34.84	358.32	23.60	-35.5	-36.4	22.5	0.00e+00	0	43	0	1110441984	40	4197
2026-01-18 04:45:37.68	357.94	23.98	-35.6	-36.5	22.4	0.00e+00	0	43	0	1131413504	41	4024
2026-01-18 04:45:40.81	357.51	24.41	-35.3	-36.2	22.7	0.00e+00	0	43	0	1153433600	41	3873
2026-01-18 04:45:43.76	357.10	24.81	-35.5	-36.4	22.5	0.00e+00	0	43	0	1174405120	41	3962
2026-01-18 04:45:46.96	356.64	25.26	-35.6	-36.5	22.4	0.00e+00	0	43	0	1197473792	41	4032
2026-01-18 04:45:49.80	356.22	25.65	-35.6	-36.5	22.4	0.00e+00	0	43	0	1218445312	41	4015
2026-01-18 04:45:52.93	355.75	26.10	-35.6	-36.5	22.4	0.00e+00	0	43	0	1241513984	41	4024
2026-01-18 04:45:55.77	355.30	26.50	-35.4	-36.2	22.6	0.00e+00	0	43	0	1261436928	41	3909
2026-01-18 04:45:58.90	354.80	26.96	-35.1	-35.9	22.9	0.00e+00	0	43	0	1283457024	40	3989
2026-01-18 04:46:01.84	354.31	27.39	-35.1	-35.9	23.0	0.00e+00	0	43	0	1305477120	39	4227
2026-01-18 04:46:04.97	353.78	27.85	-34.7	-35.5	23.4	0.00e+00	0	42	0	1327497216	39	4012
2026-01-18 04:46:07.81	353.29	28.28	-34.4	-35.2	23.6	0.00e+00	0	43	0	1348468736	38	4124
2026-01-18 04:46:10.94	352.72	28.75	-34.4	-35.2	23.6	0.00e+00	0	43	0	1370488832	38	4123
2026-01-18 04:46:13.78	352.20	29.19	-34.6	-35.4	23.5	0.00e+00	0	43	0	1391460352	39	3979
2026-01-18 04:46:16.91	351.60	29.67	-34.7	-35.6	23.3	0.00e+00	0	43	0	1413480448	39	4053
2026-01-18 04:46:19.83	351.03	30.12	-34.6	-35.4	23.4	0.00e+00	0	43	0	1435500544	39	3989
2026-01-18 04:46:22.96	350.40	30.61	-35.1	-36.0	22.9	0.00e+00	0	43	0	1457520640	39	4243
2026-01-18 04:46:25.80	349.80	31.06	-35.0	-35.9	23.1	0.00e+00	0	42	0	1478492160	39	4197
2026-01-18 04:46:28.93	349.13	31.56	-35.0	-35.8	23.1	0.00e+00	0	42	0	1500512256	39	4192
2026-01-18 04:46:31.77	348.51	32.02	-34.9	-35.8	23.1	0.00e+00	0	42	0	1521483776	39	4157
2026-01-18 04:46:34.90	347.79	32.53	-34.7	-35.5	23.4	0.00e+00	0	43	0	1543503872	39	4018
2026-01-18 04:46:37.74	347.13	32.99	-34.3	-35.2	23.7	0.00e+00	0	42	0	1564475392	39	3873
2026-01-18 04:46:40.86	346.37	33.50	-34.3	-35.1	23.7	0.00e+00	0	43	0	1586495488	39	3854
2026-01-18 04:46:43.70	345.66	33.97	-34.6	-35.4	23.4	0.00e+00	0	43	0	1607467008	38	4234
2026-01-18 04:46:46.83	344.86	34.49	-34.2	-35.0	23.8	0.00e+00	0	43	0	1630535680	38	4040
2026-01-18 04:46:49.71	344.09	34.97	-34.5	-35.3	23.6	0.00e+00	0	42	0	1650458624	38	4166
2026-01-18 04:46:52.99	343.19	35.51	-34.7	-35.5	23.4	0.00e+00	0	42	0	1674575872	39	4049
2026-01-18 04:46:55.71	342.42	35.97	-34.9	-35.7	23.2	0.00e+00	0	42	0	1694498816	39	4137
2026-01-18 04:46:59.05	341.45	36.53	-35.3	-36.1	22.9	0.00e+00	0	43	0	1718616064	39	4333
2026-01-18 04:47:01.81	340.62	36.99	-35.0	-35.8	23.1	0.00e+00	0	42	0	1737490432	39	4176
2026-01-18 04:47:05.12	339.59	37.54	-34.8	-35.7	23.3	0.00e+00	0	42	0	1762656256	39	4103
2026-01-18 04:47:07.86	338.71	37.99	-34.7	-35.5	23.4	0.00e+00	0	43	0	1781530624	39	4034
2026-01-18 04:47:11.34	337.56	38.57	-34.9	-35.7	23.2	0.00e+00	0	42	0	1806696448	39	4135
2026-01-18 04:47:14.34	336.53	39.06	-34.8	-35.6	23.3	0.00e+00	0	42	0	1828716544	39	4079
2026-01-18 04:47:17.33	335.48	39.55	-34.6	-35.5	23.4	0.00e+00	0	43	0	1850736640	39	4014
2026-01-18 04:47:20.31	334.39	40.03	-34.9	-35.7	23.3	0.00e+00	0	42	0	1871708160	39	4108
2026-01-18 04:47:23.29	333.28	40.51	-35.1	-35.9	23.0	0.00e+00	0	43	0	1893728256	39	4242
2026-01-18 04:47:26.32	332.11	40.99	-35.8	-36.7	22.3	0.00e+00	0	42	0	1915748352	41	4113
2026-01-18 04:47:29.58	330.81	41.49	-35.2	-36.1	22.1	0.00e+00	0	43	0	1938817024	41	3846
2026-01-18 04:47:32.28	329.71	41.91	-34.8	-35.6	23.3	0.00e+00	0	43	0	1957691392	40	3864
2026-01-18 04:47:35.54	328.33	42.39	-35.1	-35.9	23.0	0.00e+00	0	42	0	1981808640	40	3981
2026-01-18 04:47:38.26	327.15	42.79	-35.0	-35.9	23.0	0.00e+00	0	42	0	2000683008	40	3970
2026-01-18 04:47:41.53	325.70	43.25	-35.2	-36.1	22.9	0.00e+00	0	42	0	2024800256	40	4059
2026-01-18 04:47:44.24	324.46	43.62	-34.9	-35.7	23.2	0.00e+00	0	42	0	2044723200	40	3900
2026-01-18 04:47:47.51	322.93	44.05	-34.6	-35.5	23.4	0.00e+00	0	42	0	2067791872	39	4012
2026-01-18 04:47:50.30	321.59	44.41	-34.7	-35.5	23.4	0.00e+00	0	42	0	2087714816	39	4032
2026-01-18 04:47:53.43	320.05	44.79	-35.2	-36.0	22.9	0.00e+00	0	42	0	2110783488	40	4034
2026-01-18 04:47:56.27	318.63	45.11	-35.3	-36.1	22.8	0.00e+00	0	42	0	2131755008	40	4089
2026-01-18 04:47:59.40	317.02	45.45	-35.3	-36.1	22.8	0.00e+00	0	42	0	2153775104	40	4085
2026-01-18 04:48:02.31	315.50	45.75	-34.9	-35.7	23.1	0.00e+00	0	42	0	2174746624	40	3897
2026-01-18 04:48:05.44	313.82	46.04	-35.0	-35.9	23.1	0.00e+00	0	42	0	2197815296	40	3969
2026-01-18 04:48:08.28	312.28	46.29	-35.7	-36.5	22.5	0.00e+00	0	42	0	2217738240	41	4035
2026-01-18 04:48:11.41	310.56	46.53	-35.3	-36.1	22.8	0.00e+00	0	42	0	2240806912	41	3845
2026-01-18 04:48:14.25	308.97	46.73	-35.6	-36.4	22.5	0.00e+00	0	42	0	2260729856	41	4002
2026-01-18 04:48:17.37	307.20	46.92	-35.3	-36.2	22.8	0.00e+00	0	42	0	2283798528	41	3877
2026-01-18 04:48:20.21	305.57	47.07	-35.2	-36.1	22.9	0.00e+00	0	42	0	2304770048	41	3832
2026-01-18 04:48:23.37	303.74	47.20	-35.2	-36.1	22.9	0.00e+00	0	42	0	2326790144	40	4063
2026-01-18 04:48:26.25	302.07	47.30	-35.5	-36.3	22.6	0.00e+00	0	42	0	2347761664	40	4173
2026-01-18 04:48:29.63	300.09	47.37	-35.3	-36.1	22.8	0.00e+00	0	42	0	2371878912	40	4079
2026-01-18 04:48:32.33	298.50	47.41	-35.6	-36.4	22.5	0.00e+00	0	42	0	2391801856	40	4239
2026-01-18 04:48:35.64	296.55	47.42	-35.5	-36.3	22.6	0.00e+00	0	42	0	2415919104	40	4176
2026-01-18 04:48:38.37	294.94	47.40	-35.6	-36.4	22.5	0.00e+00	0	42	0	2435842048	40	4237
2026-01-18 04:48:41.66	293.01	47.35	-35.5	-36.4	22.6	0.00e+00	0	42	0	2458910720	41	3962
2026-01-18 04:48:44.73	291.21	47.26	-35.2	-36.1	22.9	0.00e+00	0	42	0	2480930816	41	3827
2026-01-18 04:48:47.79	289.44	47.15	-35.4	-36.2	22.7	0.00e+00	0	42	0	2502950912	41	3896
2026-01-18 04:48:51.10	287.53	46.99	-35.3	-36.1	22.8	0.00e+00	0	42	0	2527068160	41	3845
2026-01-18 04:48:53.80	285.99	46.84	-35.2	-36.1	22.9	0.00e+00	0	42	0	2546991104	41	3832
2026-01-18 04:48:57.03	284.17	46.63	-35.2	-36.0	23.0	0.00e+00	0	42	0	2570059776	41	3793
2026-01-18 04:48:59.87	282.59	46.42	-35.0	-35.8	23.1	0.00e+00	0	42	0	2591031296	40	3940
2026-01-18 04:49:03.00	280.87	46.16	-35.4	-36.2	22.7	0.00e+00	0	42	0	2613051392	40	4139
2026-01-18 04:49:05.85	279.33	45.90	-35.4	-36.3	22.7	0.00e+00	0	42	0	2632974336	40	4154
2026-01-18 04:49:08.98	277.67	45.60	-35.5	-36.3	22.6	0.00e+00	0	42	0	2656043008	40	4180
2026-01-18 04:49:11.82	276.20	45.30	-35.2	-36.1	22.9	0.00e+00	0	42	0	2677014528	40	4052
2026-01-18 04:49:14.95	274.60	44.95	-35.3	-36.1	22.8	0.00e+00	0	42	0	2699034624	40	4092
2026-01-18 04:49:17.79	273.19	44.61	-35.2	-36.0	23.0	0.00e+00	0	42	0	2720006144	40	4013
2026-01-18 04:49:20.98	271.64	44.21	-35.4	-36.2	22.8	0.00e+00	0	42	0	2743074816	40	4124
2026-01-18 04:49:23.82	270.28	43.85	-35.1	-35.9	23.0	0.00e+00	0	42	0	2762997760	40	3987
2026-01-18 04:49:26.95	268.83	43.42	-34.7	-35.5	23.4	0.00e+00	0	42	0	2786066432	40	3798
2026-01-18 04:49:29.79	267.55	43.03	-35.0	-35.8	23.2	0.00e+00	0	42	0	2805989376	39	4156
2026-01-18 04:49:32.91	266.18	42.58	-34.9	-35.7	23.2	0.00e+00	0	42	0	2829058048	39	4127
2026-01-18 04:49:35.83	264.93	42.15	-34.7	-35.5	23.4	0.00e+00	0	42	0	2850029568	39	4027
2026-01-18 04:49:39.09	263.57	41.65	-34.6	-35.4	23.5	0.00e+00	0	42	0	2873098240	39	3998
2026-01-18 04:49:41.81	262.47	41.23	-34.7	-35.6	23.4	0.00e+00	0	42	0	2893021184	39	4052
2026-01-18 04:49:45.12	261.17	40.71	-34.7	-35.5	23.4	0.00e+00	0	42	0	2917138432	39	4048
2026-01-18 04:49:47.97	260.08	40.26	-34.6	-35.5	23.4	0.00e+00	0	42	0	2938109952	39	4005
2026-01-18 04:49:51.10	258.92	39.75	-34.4	-35.2	23.7	0.00e+00	0	42	0	2960130048	39	3879
2026-01-18 04:49:54.22	257.80	39.24	-34.8	-35.6	23.3	0.00e+00	0	42	0	2983198720	39	4089
2026-01-18 04:49:57.61	256.63	38.68	-34.6	-35.4	23.5	0.00e+00	0	42	0	3007315968	39	3995
2026-01-18 04:50:00.34	255.71	38.23	-34.9	-35.7	23.2	0.00e+00	0	42	0	3027238912	39	4132
2026-01-18 04:50:03.61	254.64	37.69	-34.9	-35.7	23.2	0.00e+00	0	42	0	3050307584	39	4138
2026-01-18 04:50:06.33	253.78	37.23	-35.0	-35.8	23.2	0.00e+00	0	42	0	3070230528	39	4167
2026-01-18 04:50:09.60	252.78	36.68	-35.0	-35.9	23.1	0.00e+00	0	42	0	3093299200	39	4204
2026-01-18 04:50:12.56	251.90	36.19	-34.3	-35.1	23.8	0.00e+00	0	42	0	3115319296	39	3843
2026-01-18 04:50:15.55	251.04	35.68	-34.5	-35.3	23.6	0.00e+00	0	42	0	3136290816	39	3915
2026-01-18 04:50:18.53	250.21	35.18	-34.7	-35.5	23.4	0.00e+00	0	42	0	3158310912	39	4025
2026-01-18 04:50:21.52	249.40	34.68	-34.4	-35.2	23.7	0.00e+00	0	42	0	3180331008	39	3886
2026-01-18 04:50:24.50	248.62	34.19	-34.7	-35.5	23.4	0.00e+00	0	42	0	3201302528	39	4022
2026-01-18 04:50:27.49	247.86	33.69	-34.7	-35.5	23.4	0.00e+00	0	42	0	3223322624	39	4024
2026-01-18 04:50:30.47	247.12	33.20	-34.9	-35.7	23.3	0.00e+00	0	42	0	3244294144	39	4123
2026-01-18 04:50:33.46	246.40	32.71	-34.7	-35.5	23.4	0.00e+00	0	42	0	3266314240	39	4011
2026-01-18 04:50:36.53	245.69	32.21	-34.3	-35.1	23.8	0.00e+00	0	42	0	3288334336	39	3852
2026-01-18 04:50:39.39	245.05	31.74	-34.5	-35.4	23.5	0.00e+00	0	42	0	3308257280	39	3962
2026-01-18 04:50:42.52	244.36	31.24	-34.8	-35.6	23.3	0.00e+00	0	42	0	3331325952	39	4097
2026-01-18 04:50:45.36	243.76	30.78	-35.2	-36.0	23.0	0.00e+00	0	42	0	3352297472	39	4271
2026-01-18 04:50:48.49	243.11	30.29	-35.0	-35.8	23.0	0.00e+00	0	42	0	3374317568	39	4172
2026-01-18 04:50:51.33	242.55	29.84	-35.1	-35.9	23.0	0.00e+00	0	42	0	3395289088	39	4220
2026-01-18 04:50:54.46	241.94	29.36	-35.2	-36.1	22.9	0.00e+00	0	42	0	3417309184	40	4055
2026-01-18 04:50:57.30	241.40	28.92	-35.1	-35.9	23.0	0.00e+00	0	42	0	3438280704	40	3995
2026-01-18 04:51:00.43	240.83	28.44	-34.9	-35.7	23.1	0.00e+00	0	42	0	3460300800	40	3888
2026-01-18 04:51:03.26	240.32	28.01	-34.8	-35.6	23.2	0.00e+00	0	42	0	3481272320	40	3861
2026-01-18 04:51:06.41	239.78	27.54	-34.8	-35.6	23.3	0.00e+00	0	42	0	3504340992	40	3843
2026-01-18 04:51:09.25	239.30	27.12	-35.0	-35.8	23.1	0.00e+00	0	42	0	3524263936	40	3921
2026-01-18 04:51:12.76	238.73	26.61	-35.1	-35.9	23.0	0.00e+00	0	42	0	3549429760	40	3990
2026-01-18 04:51:15.46	238.30	26.21	-34.9	-35.7	23.1	0.00e+00	0	42	0	3569352704	40	3908
2026-01-18 04:51:18.74	237.79	25.75	-35.1	-35.9	23.0	0.00e+00	0	42	0	3592421376	40	3974
2026-01-18 04:51:21.46	237.38	25.36	-35.4	-36.2	22.7	0.00e+00	0	42	0	3612344320	40	4136
2026-01-18 04:51:25.02	236.86	24.86	-35.4	-36.2	22.7	0.00e+00	0	42	0	3638558720	40	4143
2026-01-18 04:51:27.95	236.44	24.46	-35.3	-36.1	22.8	0.00e+00	0	42	0	3659530240	40	4072
2026-01-18 04:51:31.22	235.99	24.01	-35.1	-35.9	23.0	0.00e+00	0	42	0	3682598912	40	3973
2026-01-18 04:51:33.92	235.63	23.65	-35.0	-35.8	23.0	0.00e+00	0	42	0	3702521856	40	3952
2026-01-18 04:51:37.18	235.20	23.21	-34.8	-35.6	23.2	0.00e+00	0	42	0	3725590528	40	3855
2026-01-18 04:51:39.88	234.86	22.86	-34.7	-35.6	23.2	0.00e+00	0	42	0	3745513472	40	3829
2026-01-18 04:51:43.17	234.45	22.43	-35.1	-35.9	23.0	0.00e+00	0	42	0	3769630720	40	3984
2026-01-18 04:51:46.20	234.08	22.04	-35.3	-36.1	22.7	0.00e+00	0	42	0	3791650816	40	4097
2026-01-18 04:51:49.48	233.69	21.62	-35.4	-36.3	22.6	0.00e+00	0	42	0	3814719488	40	4158
2026-01-18 04:51:52.19	233.38	21.28	-35.6	-36.5	22.4	0.00e+00	0	42	0	3834642432	40	4262
2026-01-18 04:51:55.47	233.01	20.87	-35.8	-36.7	22.2	0.00e+00	0	42	0	3857711104	41	4131
2026-01-18 04:51:58.61	232.67	20.49	-36.0	-36.9	22.0	0.00e+00	0	42	0	3880779776	41	4204
2026-01-18 04:52:01.96	232.31	20.08	-35.8	-36.7	22.2	0.00e+00	0	42	0	3904897024	41	4104
2026-01-18 04:52:04.70	232.03	19.76	-35.7	-36.5	22.3	0.00e+00	0	42	0	3924819968	41	4046
2026-01-18 04:52:07.99	231.69	19.37	-35.6	-36.4	22.5	0.00e+00	0	42	0	3947888640	41	3981
2026-01-18 04:52:10.72	231.42	19.05	-35.5	-36.4	22.5	0.00e+00	0	42	0	3967811584	41	3964
2026-01-18 04:52:14.00	231.10	18.67	-35.7	-36.5	22.3	0.00e+00	0	42	0	3991928832	41	4046
2026-01-18 04:52:16.72	230.84	18.36	-35.9	-36.7	22.1	0.00e+00	0	42	0	4011851776	41	4144
2026-01-18 04:52:20.00	230.54	17.99	-36.1	-37.0	21.9	0.00e+00	0	42	0	4034920448	41	4269
2026-01-18 04:52:22.70	230.30	17.69	-36.3	-37.2	21.7	0.00e+00	0	42	0	4054843392	42	4107
2026-01-18 04:52:25.97	230.01	17.33	-36.3	-37.2	21.7	0.00e+00	0	42	0	4077912064	42	4100
2026-01-18 04:52:28.76	229.77	17.03	-36.2	-37.0	21.8	0.00e+00	0	42	0	4098883584	42	4044
2026-01-18 04:52:32.11	229.48	16.67	-36.2	-37.1	21.8	0.00e+00	0	42	0	4123000832	42	4052
2026-01-18 04:52:34.83	229.26	16.38	-36.3	-37.2	21.7	0.00e+00	0	42	0	4141875200	42	4114
2026-01-18 04:52:38.10	228.99	16.03	-36.4	-37.3	21.6	0.00e+00	0	42	0	4165992448	42	4187
2026-01-18 04:52:41.08	228.76	15.72	-36.8	-37.7	21.2	0.00e+00	0	42	0	4186963968	42	4353
2026-01-18 04:52:44.27	228.51	15.40	-36.9	-37.8	21.0	0.00e+00	0	42	0	4210032640	43	4191
2026-01-18 04:52:47.24	228.28	15.10	-37.0	-37.9	21.0	0.00e+00	0	42	0	4232052736	43	4239
2026-01-18 04:52:50.45	228.05	14.77	-37.0	-38.0	20.9	0.00e+00	0	42	0	4255121408	43	4244
2026-01-18 04:52:53.33	227.84	14.49	-37.2	-38.2	20.7	0.00e+00	0	42	0	4276092928	43	4347
2026-01-18 04:52:56.66	227.60	14.16	-37.6	-38.6	20.5	0.00e+00	0	42	0	4300210176	44	4315
2026-01-18 04:52:59.40	227.41	13.89	-37.6	-38.5	20.6	0.00e+00	0	42	0	4320133120	44	4278
2026-01-18 04:53:02.65	227.19	13.58	-37.5	-38.5	20.5	0.00e+00	0	42	0	4343201792	44	4269
2026-01-18 04:53:05.50	227.00	13.31	-37.8	-38.8	20.2	0.00e+00	0	42	0	4363124736	45	4176
2026-01-18 04:53:08.63	226.79	13.02	-38.0	-39.0	20.1	0.00e+00	0	42	0	4386193408	45	4243
2026-01-18 04:53:11.81	226.59	12.72	-38.0	-39.0	20.0	0.00e+00	0	42	0	4409262080	45	4263
2026-01-18 04:53:14.83	226.40	12.44	-38.0	-39.0	20.0	0.00e+00	0	42	0	4431282176	45	4256
2026-01-18 04:53:17.81	226.21	12.17	-38.0	-39.0	20.0	0.00e+00	0	42	0	4452253696	45	4247
2026-01-18 04:53:20.79	226.03	11.90	-38.1	-39.1	19.9	0.00e+00	0	42	0	4474273792	46	4084
2026-01-18 04:53:23.79	225.85	11.63	-38.0	-39.0	20.0	0.00e+00	0	42	0	4495245312	46	4027
2026-01-18 04:53:26.79	225.68	11.37	-38.0	-39.0	20.0	0.00e+00	0	42	0	4517265408	46	4029
2026-01-18 04:53:29.72	225.51	11.11	-38.2	-39.2	19.8	0.00e+00	0	42	0	4538236928	46	4132
2026-01-18 04:53:32.71	225.34	10.85	-38.2	-39.2	19.7	0.00e+00	0	42	0	4560257024	46	4134
2026-01-18 04:53:35.70	225.18	10.59	-38.4	-39.4	19.6	0.00e+00	0	42	0	4581228544	46	4209
2026-01-18 04:53:38.74	225.01	10.34	-38.3	-39.3	19.6	0.00e+00	0	42	0	4603248640	46	4192
2026-01-18 04:53:41.72	224.86	10.08	-38.3	-39.3	19.5	0.00e+00	0	41	0	4625268736	46	4174
2026-01-18 04:53:44.80	224.69	9.83	-38.5	-39.5	19.3	0.00e+00	0	42	0	4647288832	46	4284
2026-01-18 04:53:48.11	224.53	9.55	-38.7	-39.7	19.1	0.00e+00	0	42	0	4671406080	46	4364
2026-01-18 04:53:50.81	224.39	9.33	-38.7	-39.8	19.0	0.00e+00	0	42	0	4690280448	46	4407
2026-01-18 04:53:54.09	224.23	9.06	-38.7	-39.8	19.0	0.00e+00	0	42	0	4714397696	47	4153
2026-01-18 04:53:56.93	224.09	8.84	-50.0	-60.9	3.8	8.47e-01	0	42	104	4719640576	69	13360
2026-01-18 04:54:00.06	223.94	8.59	-50.4	-61.2	3.8	8.47e-01	0	42	104	4719640576	70	13002
2026-01-18 04:54:02.89	223.81	8.36	-50.5	-61.3	3.8	8.46e-01	0	42	104	4719640576	70	13162
2026-01-18 04:54:06.02	223.66	8.12	-50.5	-61.3	3.8	8.47e-01	0	42	104	4719640576	70	13188
2026-01-18 04:54:08.85	223.53	7.90	-50.6	-61.3	3.8	8.47e-01	0	42	104	4719640576	70	13154
2026-01-18 04:54:11.98	223.39	7.66	-50.5	-61.2	3.8	8.46e-01	0	42	104	4719640576	70	13100
2026-01-18 04:54:14.82	223.27	7.44	-50.3	-61.2	3.8	8.47e-01	0	42	104	4719640576	70	13093
