passes_logs/2026/01/18/T1/T1__20260118_233034_NOAA_21_JPSS-2_rec.log

#Pass ID: 20260118_233034_NOAA 21 (JPSS-2)
#Satellite: NOAA 21 (JPSS-2)
#Configuration: NOAA 21
#almurnet v.1.7.20251203
#Start time: 2026-01-18 23:30:36

#Version: 2.0.20230620
#Station: T1
#Location: 37.570604 lon 55.790049 lat
#TLE: 1 54234U 22150A   26017.90260625  .00000050  00000+0  44518-4 0  9994
#TLE: 2 54234  98.7502 318.7672 0000612 269.1755  90.9351 14.19535344165221

#Time	Az	El	Level	Level2	SNR	BER	BlckErr	Temp	State	Recorded	gain1	gain2
2026-01-18 23:30:36.17	17.55	5.11	-48.3	-62.5	3.8	1.49e+00	0	40	0	0	67	19178
2026-01-18 23:30:39.14	17.59	5.33	-48.3	-62.3	3.8	1.49e+00	0	40	104	0	67	18784
2026-01-18 23:30:42.12	17.63	5.54	-48.3	-62.2	3.8	1.49e+00	0	40	104	0	67	18620
2026-01-18 23:30:45.10	17.67	5.76	-48.3	-62.2	3.8	1.49e+00	0	40	104	0	67	18705
2026-01-18 23:30:48.08	17.72	5.97	-48.4	-62.3	3.8	1.49e+00	0	40	104	0	67	18923
2026-01-18 23:30:51.06	17.76	6.19	-48.4	-62.4	3.8	1.49e+00	0	41	104	0	67	19062
2026-01-18 23:30:54.04	17.80	6.41	-48.4	-62.3	3.8	1.49e+00	0	41	104	0	67	18844
2026-01-18 23:30:57.02	17.84	6.64	-48.3	-61.9	3.8	1.49e+00	0	41	104	0	67	18070
2026-01-18 23:30:59.99	17.89	6.86	-48.3	-61.2	3.8	1.49e+00	0	41	104	0	67	16689
2026-01-18 23:31:02.98	17.93	7.09	-48.2	-59.9	4.0	1.48e+00	0	41	104	0	67	14365
2026-01-18 23:31:05.95	17.98	7.32	-48.1	-59.5	3.9	1.47e+00	0	41	104	0	67	13609
2026-01-18 23:31:08.93	18.02	7.55	-48.0	-58.1	4.5	1.43e+00	0	41	104	0	67	11655
2026-01-18 23:31:11.91	18.07	7.79	-47.9	-57.9	4.0	1.02e+00	0	41	104	0	67	11409
2026-01-18 23:31:14.89	18.11	8.02	-47.6	-55.7	5.8	4.29e-01	0	41	0	0	67	8813
2026-01-18 23:31:17.87	18.16	8.26	-47.0	-53.4	7.7	1.04e-01	0	41	0	0	66	7190
2026-01-18 23:31:20.85	18.21	8.50	-46.1	-50.9	10.3	7.68e-03	0	41	0	0	64	6014
2026-01-18 23:31:23.83	18.26	8.74	-45.2	-49.1	12.2	2.46e-04	0	41	0	0	62	5518
2026-01-18 23:31:26.81	18.30	8.99	-44.7	-48.2	13.1	3.05e-05	0	41	0	0	61	5260
2026-01-18 23:31:29.79	18.35	9.23	-45.5	-49.7	11.7	6.33e-05	0	41	0	0	61	6235
2026-01-18 23:31:32.77	18.40	9.48	-41.7	-43.8	17.2	0.00e+00	0	41	0	0	55	4485
2026-01-18 23:31:35.76	18.45	9.74	-41.0	-43.0	18.0	0.00e+00	0	42	0	0	54	4312
2026-01-18 23:31:38.79	18.51	10.00	-40.9	-43.0	18.1	0.00e+00	0	42	0	0	53	4559
2026-01-18 23:31:41.70	18.56	10.25	-41.0	-43.0	18.1	0.00e+00	0	41	0	0	53	4561
2026-01-18 23:31:44.97	18.61	10.53	-40.9	-43.0	18.1	0.00e+00	0	42	0	0	53	4552
2026-01-18 23:31:47.88	18.67	10.79	-40.9	-42.8	18.2	0.00e+00	0	42	0	0	53	4490
2026-01-18 23:31:51.16	18.73	11.09	-41.0	-43.0	18.1	0.00e+00	0	42	0	0	53	4549
2026-01-18 23:31:53.88	18.78	11.33	-40.7	-42.7	18.4	0.00e+00	0	42	0	0	53	4397
2026-01-18 23:31:57.15	18.84	11.63	-40.6	-42.5	18.6	0.00e+00	0	42	0	0	53	4311
2026-01-18 23:32:00.10	18.89	11.90	-40.5	-42.4	18.6	0.00e+00	0	42	0	0	53	4267
2026-01-18 23:32:03.09	18.95	12.18	-40.4	-42.3	18.8	0.00e+00	0	42	0	0	52	4458
2026-01-18 23:32:06.07	19.01	12.46	-40.4	-42.3	18.8	0.00e+00	0	42	0	0	52	4479
2026-01-18 23:32:09.04	19.07	12.75	-40.4	-42.3	18.8	0.00e+00	0	42	0	0	52	4476
2026-01-18 23:32:12.02	19.13	13.04	-40.4	-42.3	18.8	0.00e+00	0	42	0	0	52	4460
2026-01-18 23:32:15.01	19.19	13.33	-40.2	-42.1	19.0	0.00e+00	0	42	0	0	52	4366
2026-01-18 23:32:17.99	19.25	13.62	-40.2	-42.1	19.0	0.00e+00	0	42	0	0	52	4383
2026-01-18 23:32:20.98	19.31	13.93	-40.1	-42.0	19.2	0.00e+00	0	42	0	0	52	4309
2026-01-18 23:32:23.96	19.38	14.23	-40.2	-42.1	19.0	0.00e+00	0	42	0	0	52	4369
2026-01-18 23:32:26.95	19.44	14.54	-40.0	-41.9	19.2	0.00e+00	0	42	0	0	52	4265
2026-01-18 23:32:29.93	19.51	14.85	-40.1	-42.0	19.1	0.00e+00	0	42	0	0	52	4325
2026-01-18 23:32:32.94	19.57	15.16	-40.1	-42.0	19.1	0.00e+00	0	42	0	0	52	4325
2026-01-18 23:32:35.93	19.64	15.48	-40.0	-41.9	19.3	0.00e+00	0	42	0	0	51	4529
2026-01-18 23:32:38.91	19.71	15.81	-40.0	-41.9	19.3	0.00e+00	0	42	0	0	51	4504
2026-01-18 23:32:41.90	19.78	16.13	-40.0	-41.8	19.4	0.00e+00	0	42	0	0	51	4489
2026-01-18 23:32:44.95	19.86	16.47	-40.0	-41.8	19.4	0.00e+00	0	42	0	0	51	4461
2026-01-18 23:32:47.93	19.93	16.81	-40.0	-41.7	19.5	0.00e+00	0	42	0	0	51	4441
2026-01-18 23:32:51.07	20.01	17.17	-39.9	-41.6	19.6	0.00e+00	0	42	0	0	51	4386
2026-01-18 23:32:53.91	20.08	17.50	-40.0	-41.8	19.5	0.00e+00	0	42	0	0	51	4463
2026-01-18 23:32:57.04	20.16	17.87	-40.1	-41.9	19.4	0.00e+00	0	42	0	0	51	4494
2026-01-18 23:32:59.89	20.24	18.21	-40.1	-41.9	19.4	0.00e+00	0	42	0	0	51	4509
2026-01-18 23:33:03.11	20.33	18.60	-40.0	-41.8	19.4	0.00e+00	0	42	0	0	51	4485
2026-01-18 23:33:05.96	20.41	18.95	-40.0	-41.8	19.4	0.00e+00	0	42	0	0	51	4491
2026-01-18 23:33:09.02	20.49	19.33	-40.1	-41.9	19.4	0.00e+00	0	43	0	0	51	4508
2026-01-18 23:33:12.00	20.58	19.71	-40.1	-41.9	19.4	0.00e+00	0	42	0	0	51	4519
2026-01-18 23:33:14.99	20.67	20.10	-40.0	-41.8	19.5	0.00e+00	0	42	0	0	51	4455
2026-01-18 23:33:17.97	20.76	20.49	-39.9	-41.7	19.6	0.00e+00	0	42	0	0	51	4398
2026-01-18 23:33:20.96	20.85	20.88	-39.6	-41.3	19.9	0.00e+00	0	42	0	0	51	4202
2026-01-18 23:33:23.94	20.94	21.28	-39.5	-41.2	20.0	0.00e+00	0	42	0	0	50	4417
2026-01-18 23:33:26.93	21.04	21.69	-39.2	-40.8	20.3	0.00e+00	0	42	0	0	50	4226
2026-01-18 23:33:29.91	21.14	22.11	-39.2	-40.9	20.3	0.00e+00	0	42	0	0	50	4251
2026-01-18 23:33:32.96	21.24	22.54	-39.0	-40.7	20.5	0.00e+00	0	42	0	0	50	4164
2026-01-18 23:33:35.88	21.34	22.96	-39.0	-40.7	20.5	0.00e+00	0	42	0	0	49	4405
2026-01-18 23:33:39.01	21.46	23.42	-38.9	-40.6	20.5	0.00e+00	0	42	0	0	49	4351
2026-01-18 23:33:41.85	21.56	23.84	-38.9	-40.6	20.6	0.00e+00	0	42	0	0	49	4369
2026-01-18 23:33:44.98	21.68	24.32	-38.9	-40.6	20.6	0.00e+00	0	43	0	0	49	4348
2026-01-18 23:33:47.82	21.79	24.76	-39.0	-40.7	20.5	0.00e+00	0	42	0	0	49	4412
2026-01-18 23:33:50.95	21.91	25.25	-39.1	-40.8	20.5	0.00e+00	0	42	0	0	49	4452
2026-01-18 23:33:53.79	22.02	25.70	-39.2	-40.9	20.3	0.00e+00	0	42	0	0	49	4542
2026-01-18 23:33:56.92	22.15	26.21	-39.6	-41.3	20.0	0.00e+00	0	42	0	0	49	4748
2026-01-18 23:33:59.84	22.28	26.70	-39.9	-41.7	19.6	0.00e+00	0	42	0	0	50	4679
2026-01-18 23:34:03.10	22.42	27.25	-40.2	-42.0	19.4	0.00e+00	0	42	0	0	51	4547
2026-01-18 23:34:05.94	22.55	27.73	-40.4	-42.2	19.2	0.00e+00	0	42	0	0	51	4659
2026-01-18 23:34:09.07	22.70	28.28	-40.3	-42.1	19.2	0.00e+00	0	42	0	0	51	4622
2026-01-18 23:34:12.05	22.84	28.82	-40.0	-41.8	19.6	0.00e+00	0	42	0	0	51	4450
2026-01-18 23:34:15.04	22.99	29.36	-39.9	-41.7	19.6	0.00e+00	0	42	0	0	51	4412
2026-01-18 23:34:18.02	23.15	29.91	-39.8	-41.5	19.8	0.00e+00	0	43	0	0	51	4326
2026-01-18 23:34:21.01	23.30	30.48	-39.8	-41.5	19.8	0.00e+00	0	43	0	0	51	4326
2026-01-18 23:34:23.99	23.47	31.05	-39.9	-41.6	19.7	0.00e+00	0	43	0	0	51	4358
2026-01-18 23:34:26.98	23.64	31.64	-39.8	-41.6	19.6	0.00e+00	0	42	0	0	51	4349
2026-01-18 23:34:29.96	23.81	32.24	-39.9	-41.7	19.5	0.00e+00	0	42	0	0	51	4414
2026-01-18 23:34:32.94	23.99	32.85	-39.8	-41.5	19.7	0.00e+00	0	42	0	0	51	4328
2026-01-18 23:34:35.93	24.18	33.48	-40.1	-41.9	19.5	0.00e+00	0	43	0	0	51	4528
2026-01-18 23:34:38.92	24.38	34.11	-40.4	-42.2	19.2	0.00e+00	0	42	0	0	51	4697
2026-01-18 23:34:41.91	24.58	34.76	-40.8	-42.6	18.8	0.00e+00	0	42	0	0	52	4647
2026-01-18 23:34:44.89	24.79	35.43	-41.2	-43.1	18.4	0.00e+00	0	43	0	0	53	4613
2026-01-18 23:34:47.88	25.01	36.10	-41.8	-43.9	17.7	0.00e+00	0	43	0	0	54	4768
2026-01-18 23:34:50.86	25.23	36.79	-42.6	-44.8	16.8	0.00e+00	0	42	0	0	55	4995
2026-01-18 23:34:53.85	25.47	37.50	-43.2	-45.5	16.3	0.00e+00	0	43	0	0	57	4830
2026-01-18 23:34:56.83	25.72	38.22	-42.6	-44.8	16.9	0.00e+00	0	42	0	0	57	4458
2026-01-18 23:34:59.82	25.98	38.95	-42.4	-44.4	17.2	0.00e+00	0	43	0	0	56	4536
2026-01-18 23:35:03.09	26.27	39.78	-42.3	-44.4	17.4	0.00e+00	0	42	0	0	56	4507
2026-01-18 23:35:05.79	26.53	40.47	-42.2	-44.2	17.5	0.00e+00	0	43	0	0	56	4422
2026-01-18 23:35:09.06	26.85	41.33	-42.3	-44.3	17.4	0.00e+00	0	43	0	0	56	4467
2026-01-18 23:35:11.76	27.13	42.05	-42.6	-44.7	17.1	0.00e+00	0	43	0	0	56	4665
2026-01-18 23:35:15.04	27.49	42.95	-42.4	-44.5	17.3	0.00e+00	0	42	0	0	56	4570
2026-01-18 23:35:17.75	27.80	43.71	-41.8	-43.7	17.8	0.00e+00	0	42	0	0	55	4434
2026-01-18 23:35:21.21	28.21	44.70	-41.9	-43.9	17.7	0.00e+00	0	42	0	0	55	4503
2026-01-18 23:35:23.92	28.56	45.49	-42.0	-43.9	17.7	0.00e+00	0	43	0	0	55	4538
2026-01-18 23:35:27.20	29.00	46.47	-41.8	-43.7	18.0	0.00e+00	0	43	0	0	55	4395
2026-01-18 23:35:29.99	29.39	47.31	-41.6	-43.5	18.0	0.00e+00	0	43	0	0	55	4324
2026-01-18 23:35:33.26	29.89	48.33	-41.0	-42.8	18.7	0.00e+00	0	42	0	0	53	4473
2026-01-18 23:35:35.98	30.32	49.19	-40.8	-42.6	18.8	0.00e+00	0	43	0	0	53	4368
2026-01-18 23:35:39.25	30.88	50.24	-41.2	-43.1	18.4	0.00e+00	0	42	0	0	53	4607
2026-01-18 23:35:42.30	31.43	51.24	-41.9	-44.0	17.7	0.00e+00	0	43	0	0	54	4816
2026-01-18 23:35:45.15	31.98	52.20	-42.1	-44.2	17.4	0.00e+00	0	42	0	0	55	4669
2026-01-18 23:35:48.28	32.63	53.26	-41.4	-43.3	18.2	0.00e+00	0	43	0	0	54	4488
2026-01-18 23:35:51.19	33.28	54.27	-40.5	-42.3	19.2	0.00e+00	0	43	0	0	53	4231
2026-01-18 23:35:54.57	34.09	55.47	-40.1	-41.9	19.7	0.00e+00	0	43	0	0	51	4504
2026-01-18 23:35:57.30	34.79	56.45	-40.2	-41.9	19.6	0.00e+00	0	42	0	0	51	4534
2026-01-18 23:36:00.58	35.71	57.64	-40.0	-41.8	19.8	0.00e+00	0	43	0	0	51	4461
2026-01-18 23:36:03.39	36.56	58.68	-39.1	-40.7	20.7	0.00e+00	0	42	0	0	50	4165
2026-01-18 23:36:06.57	37.61	59.86	-39.2	-40.8	20.6	0.00e+00	0	43	0	0	49	4457
2026-01-18 23:36:09.41	38.63	60.94	-39.3	-41.0	20.4	0.00e+00	0	42	0	0	49	4569
2026-01-18 23:36:12.53	39.85	62.12	-38.8	-40.4	20.8	0.00e+00	0	42	0	0	49	4265
2026-01-18 23:36:15.38	41.08	63.22	-38.6	-40.2	20.9	0.00e+00	0	42	0	0	49	4165
2026-01-18 23:36:18.50	42.56	64.42	-38.1	-39.7	21.5	0.00e+00	0	43	0	0	48	4157
2026-01-18 23:36:21.35	44.05	65.52	-38.5	-40.1	21.2	0.00e+00	0	42	0	0	48	4388
2026-01-18 23:36:24.48	45.87	66.73	-38.3	-39.8	21.3	0.00e+00	0	43	0	0	48	4242
2026-01-18 23:36:27.32	47.71	67.83	-38.3	-39.9	21.2	0.00e+00	0	43	0	0	48	4267
2026-01-18 23:36:30.45	49.98	69.02	-38.2	-39.7	21.3	0.00e+00	0	43	0	0	48	4186
2026-01-18 23:36:33.35	52.34	70.11	-38.4	-40.0	21.3	0.00e+00	0	43	0	0	48	4294
2026-01-18 23:36:36.47	55.20	71.25	-38.0	-39.5	21.5	0.00e+00	0	42	0	0	48	4093
2026-01-18 23:36:39.32	58.16	72.27	-38.1	-39.7	21.3	0.00e+00	0	43	0	0	47	4392
2026-01-18 23:36:42.45	61.83	73.33	-38.1	-39.7	21.3	0.00e+00	0	42	0	0	47	4405
2026-01-18 23:36:45.29	65.60	74.25	-38.3	-39.9	21.1	0.00e+00	0	43	0	0	47	4523
2026-01-18 23:36:48.42	70.30	75.17	-38.4	-40.0	21.0	0.00e+00	0	42	0	0	47	4573
2026-01-18 23:36:51.26	75.09	75.93	-38.0	-39.6	21.2	0.00e+00	0	43	0	0	47	4372
2026-01-18 23:36:54.39	80.97	76.64	-38.8	-40.5	20.4	0.00e+00	0	43	0	0	48	4572
2026-01-18 23:36:57.31	87.00	77.17	-39.0	-40.7	20.5	0.00e+00	0	43	0	0	49	4405
2026-01-18 23:37:00.63	94.41	77.59	-38.3	-39.9	21.2	0.00e+00	0	43	0	0	48	4272
2026-01-18 23:37:03.76	101.77	77.80	-38.5	-40.1	21.0	0.00e+00	0	43	0	0	48	4356
2026-01-18 23:37:06.60	108.56	77.81	-38.5	-40.2	21.1	0.00e+00	0	43	0	0	48	4392
2026-01-18 23:37:09.89	116.32	77.61	-37.9	-39.4	21.4	0.00e+00	0	43	0	0	47	4290
2026-01-18 23:37:12.86	123.01	77.26	-38.2	-39.8	20.8	0.00e+00	0	43	0	0	47	4491
2026-01-18 23:37:16.36	130.31	76.64	-38.8	-40.5	20.8	0.00e+00	0	43	0	0	48	4547
2026-01-18 23:37:19.40	136.04	75.95	-38.3	-39.8	21.4	0.00e+00	0	43	0	0	48	4230
2026-01-18 23:37:22.68	141.55	75.08	-38.6	-40.2	21.1	0.00e+00	0	43	0	0	48	4425
2026-01-18 23:37:25.52	145.78	74.23	-38.3	-39.8	21.4	0.00e+00	0	43	0	0	48	4236
2026-01-18 23:37:28.65	149.91	73.22	-38.8	-40.5	20.7	0.00e+00	0	43	0	0	48	4558
2026-01-18 23:37:31.49	153.22	72.25	-37.7	-39.3	21.5	0.00e+00	0	43	0	0	47	4208
2026-01-18 23:37:34.72	156.54	71.09	-38.8	-40.5	20.8	0.00e+00	0	43	0	0	48	4553
2026-01-18 23:37:37.84	159.36	69.94	-38.3	-39.9	21.3	0.00e+00	0	43	0	0	48	4247
2026-01-18 23:37:40.69	161.64	68.86	-38.8	-40.4	20.9	0.00e+00	0	43	0	0	48	4538
2026-01-18 23:37:43.89	163.93	67.64	-38.4	-40.0	21.0	0.00e+00	0	43	0	0	48	4295
2026-01-18 23:37:46.80	165.78	66.51	-38.2	-39.8	21.3	0.00e+00	0	43	0	0	47	4464
2026-01-18 23:37:49.96	167.59	65.29	-39.0	-40.6	20.6	0.00e+00	0	42	0	0	49	4388
2026-01-18 23:37:52.80	169.05	64.19	-37.9	-39.5	21.5	0.00e+00	0	43	0	0	47	4292
2026-01-18 23:37:55.93	170.51	62.98	-39.7	-41.4	19.5	0.00e+00	0	43	0	0	50	4537
2026-01-18 23:37:58.77	171.71	61.89	-38.4	-40.0	20.7	0.00e+00	0	43	0	0	48	4322
2026-01-18 23:38:01.90	172.92	60.69	-38.9	-40.5	20.9	0.00e+00	0	43	0	0	48	4549
2026-01-18 23:38:04.81	173.94	59.59	-40.4	-42.2	19.2	0.00e+00	0	43	0	0	52	4396
2026-01-18 23:38:07.96	174.96	58.41	-38.1	-39.7	21.3	0.00e+00	0	43	0	0	48	4147
2026-01-18 23:38:10.80	175.81	57.36	-40.2	-42.0	19.5	0.00e+00	0	43	0	0	51	4550
2026-01-18 23:38:13.93	176.67	56.22	-42.1	-44.1	17.1	0.00e+00	0	43	0	0	54	4924
2026-01-18 23:38:16.78	177.40	55.20	-40.2	-42.0	18.9	0.00e+00	0	43	0	0	52	4314
2026-01-18 23:38:19.97	178.15	54.07	-40.0	-41.8	19.7	0.00e+00	0	43	0	0	50	4706
2026-01-18 23:38:22.82	178.78	53.08	-41.1	-42.9	18.7	0.00e+00	0	43	0	0	52	4799
2026-01-18 23:38:25.95	179.42	52.02	-41.9	-43.9	17.6	0.00e+00	0	43	0	0	54	4802
2026-01-18 23:38:28.79	179.97	51.06	-41.0	-42.8	18.7	0.00e+00	0	43	0	0	54	4233
2026-01-18 23:38:31.92	180.53	50.03	-41.5	-43.4	18.2	0.00e+00	0	43	0	0	53	4781
2026-01-18 23:38:34.76	181.01	49.11	-41.9	-43.8	17.6	0.00e+00	0	43	0	0	54	4739
2026-01-18 23:38:38.00	181.53	48.09	-41.9	-43.8	17.7	0.00e+00	0	43	0	0	54	4739
2026-01-18 23:38:40.84	181.95	47.21	-41.4	-43.2	18.1	0.00e+00	0	43	0	0	54	4426
2026-01-18 23:38:43.97	182.39	46.25	-41.5	-43.4	18.1	0.00e+00	0	43	0	0	54	4512
2026-01-18 23:38:46.81	182.77	45.40	-43.2	-45.4	16.4	0.00e+00	0	43	0	0	56	5075
2026-01-18 23:38:49.94	183.17	44.49	-43.7	-46.1	15.8	0.00e+00	0	43	0	0	58	4873
2026-01-18 23:38:52.78	183.51	43.68	-42.6	-44.6	17.1	0.00e+00	0	43	0	0	57	4384
2026-01-18 23:38:56.00	183.88	42.77	-42.7	-44.8	17.0	0.00e+00	0	43	0	0	56	4723
2026-01-18 23:38:58.85	184.19	41.99	-42.0	-43.9	17.5	0.00e+00	0	43	0	0	56	4290
2026-01-18 23:39:01.98	184.51	41.15	-41.7	-43.6	17.8	0.00e+00	0	43	0	0	54	4614
2026-01-18 23:39:04.82	184.79	40.40	-42.5	-44.6	17.0	0.00e+00	0	43	0	0	55	4907
2026-01-18 23:39:07.99	185.09	39.58	-42.4	-44.5	17.0	0.00e+00	0	43	0	0	55	4830
2026-01-18 23:39:10.90	185.35	38.85	-41.9	-43.9	17.6	0.00e+00	0	43	0	0	55	4529
2026-01-18 23:39:14.09	185.62	38.06	-41.2	-43.1	18.5	0.00e+00	0	43	0	0	54	4360
2026-01-18 23:39:17.38	185.89	37.26	-41.7	-43.7	18.0	0.00e+00	0	43	0	0	54	4656
2026-01-18 23:39:20.16	186.11	36.60	-40.8	-42.7	18.7	0.00e+00	0	43	0	0	53	4400
2026-01-18 23:39:23.43	186.36	35.85	-41.0	-42.9	18.4	0.00e+00	0	43	0	0	53	4518
2026-01-18 23:39:26.15	186.55	35.23	-41.0	-42.9	18.3	0.00e+00	0	43	0	0	53	4539
2026-01-18 23:39:29.42	186.78	34.50	-41.2	-43.1	18.2	0.00e+00	0	43	0	0	53	4622
2026-01-18 23:39:32.29	186.97	33.88	-41.0	-42.9	18.4	0.00e+00	0	43	0	0	53	4531
2026-01-18 23:39:35.42	187.17	33.21	-40.7	-42.5	18.9	0.00e+00	0	43	0	0	53	4311
2026-01-18 23:39:38.26	187.35	32.62	-39.8	-41.5	19.8	0.00e+00	0	43	0	0	51	4325
2026-01-18 23:39:41.39	187.54	31.98	-39.7	-41.4	19.9	0.00e+00	0	43	0	0	51	4252
2026-01-18 23:39:44.23	187.70	31.40	-39.7	-41.4	19.9	0.00e+00	0	43	0	0	51	4288
2026-01-18 23:39:47.30	187.87	30.80	-39.9	-41.6	19.9	0.00e+00	0	42	0	0	51	4351
2026-01-18 23:39:50.55	188.05	30.17	-40.0	-41.7	19.7	0.00e+00	0	43	0	0	51	4414
2026-01-18 23:39:53.34	188.20	29.65	-40.3	-42.1	19.4	0.00e+00	0	43	0	0	51	4604
2026-01-18 23:39:56.47	188.35	29.07	-40.5	-42.3	19.2	0.00e+00	0	43	0	0	51	4750
2026-01-18 23:39:59.31	188.49	28.55	-40.8	-42.7	18.6	0.00e+00	0	43	0	0	52	4684
2026-01-18 23:40:02.58	188.65	27.96	-41.0	-42.9	18.4	0.00e+00	0	43	0	0	52	4771
2026-01-18 23:40:05.48	188.78	27.46	-40.9	-42.8	18.4	0.00e+00	0	43	0	0	53	4492
2026-01-18 23:40:08.75	188.93	26.90	-40.7	-42.5	18.7	0.00e+00	0	43	0	0	53	4314
2026-01-18 23:40:11.47	189.04	26.44	-40.1	-41.9	19.3	0.00e+00	0	43	0	0	52	4246
2026-01-18 23:40:14.75	189.18	25.89	-39.8	-41.5	19.7	0.00e+00	0	43	0	0	51	4321
2026-01-18 23:40:17.48	189.29	25.45	-39.5	-41.2	20.0	0.00e+00	0	43	0	0	51	4146
2026-01-18 23:40:20.75	189.42	24.93	-39.4	-41.1	20.0	0.00e+00	0	43	0	0	50	4341
2026-01-18 23:40:23.78	189.54	24.45	-39.3	-41.0	20.0	0.00e+00	0	43	0	0	50	4298
2026-01-18 23:40:27.36	189.67	23.90	-39.6	-41.3	19.8	0.00e+00	0	43	0	0	50	4485
2026-01-18 23:40:30.06	189.77	23.50	-39.8	-41.5	19.8	0.00e+00	0	43	0	0	50	4566
2026-01-18 23:40:33.34	189.89	23.01	-39.7	-41.4	19.9	0.00e+00	0	43	0	0	50	4544
2026-01-18 23:40:36.04	189.98	22.62	-39.6	-41.3	20.0	0.00e+00	0	43	0	0	50	4481
2026-01-18 23:40:39.32	190.09	22.14	-39.5	-41.1	20.2	0.00e+00	0	43	0	0	50	4391
2026-01-18 23:40:42.17	190.18	21.74	-39.4	-41.0	20.3	0.00e+00	0	43	0	0	50	4338
2026-01-18 23:40:45.31	190.29	21.31	-39.5	-41.2	20.1	0.00e+00	0	43	0	0	50	4410
2026-01-18 23:40:48.15	190.37	20.92	-39.7	-41.4	19.9	0.00e+00	0	43	0	0	50	4516
2026-01-18 23:40:51.38	190.47	20.49	-39.9	-41.7	19.7	0.00e+00	0	43	0	0	50	4667
2026-01-18 23:40:54.22	190.56	20.11	-39.9	-41.7	19.7	0.00e+00	0	43	0	0	50	4680
2026-01-18 23:40:57.72	190.66	19.65	-40.1	-41.8	19.5	0.00e+00	0	43	0	0	51	4487
2026-01-18 23:41:00.44	190.74	19.31	-40.1	-41.9	19.5	0.00e+00	0	43	0	0	51	4522
2026-01-18 23:41:03.77	190.83	18.89	-40.1	-41.9	19.5	0.00e+00	0	43	0	0	51	4506
2026-01-18 23:41:06.50	190.90	18.55	-40.0	-41.7	19.6	0.00e+00	0	43	0	0	51	4437
2026-01-18 23:41:09.78	190.99	18.15	-40.0	-41.8	19.5	0.00e+00	0	43	0	0	51	4453
2026-01-18 23:41:12.61	191.06	17.81	-40.0	-41.8	19.5	0.00e+00	0	43	0	0	51	4473
2026-01-18 23:41:16.52	191.16	17.34	-40.1	-41.9	19.4	0.00e+00	0	43	0	0	51	4516
2026-01-18 23:41:19.36	191.24	17.01	-40.1	-41.9	19.4	0.00e+00	0	43	0	0	51	4495
2026-01-18 23:41:23.42	191.33	16.55	-40.3	-42.1	19.2	0.00e+00	0	43	0	0	51	4611
2026-01-18 23:41:26.41	191.40	16.21	-40.4	-42.2	19.0	0.00e+00	0	43	0	0	51	4696
2026-01-18 23:41:29.71	191.48	15.84	-40.4	-42.3	19.0	0.00e+00	0	43	0	0	51	4729
2026-01-18 23:41:32.46	191.54	15.54	-40.5	-42.4	18.9	0.00e+00	0	43	0	0	51	4764
2026-01-18 23:41:35.73	191.62	15.18	-40.7	-42.6	18.7	0.00e+00	0	43	0	0	51	4884
2026-01-18 23:41:38.46	191.68	14.89	-40.6	-42.5	18.8	0.00e+00	0	43	0	0	51	4822
2026-01-18 23:41:41.74	191.75	14.55	-40.5	-42.5	18.7	0.00e+00	0	43	0	0	52	4546
2026-01-18 23:41:44.60	191.81	14.25	-40.5	-42.4	18.7	0.00e+00	0	43	0	0	52	4529
2026-01-18 23:41:47.73	191.87	13.93	-40.5	-42.4	18.7	0.00e+00	0	43	0	0	52	4543
2026-01-18 23:41:50.57	191.93	13.64	-40.6	-42.5	18.6	0.00e+00	0	43	0	0	52	4557
2026-01-18 23:41:53.70	191.99	13.32	-40.7	-42.6	18.5	0.00e+00	0	43	0	0	52	4623
2026-01-18 23:41:56.54	192.05	13.04	-40.5	-42.4	18.7	0.00e+00	0	43	0	0	52	4545
2026-01-18 23:41:59.79	192.11	12.72	-40.7	-42.7	18.5	0.00e+00	0	43	0	0	52	4653
2026-01-18 23:42:02.71	192.17	12.44	-40.6	-42.5	18.6	0.00e+00	0	43	0	0	52	4563
2026-01-18 23:42:06.25	192.24	12.10	-40.6	-42.5	18.6	0.00e+00	0	43	0	0	52	4558
2026-01-18 23:42:09.30	192.29	11.82	-40.7	-42.6	18.5	0.00e+00	0	43	0	0	52	4615
2026-01-18 23:42:12.15	192.34	11.55	-40.5	-42.4	18.7	0.00e+00	0	43	0	0	52	4510
2026-01-18 23:42:15.38	192.40	11.25	-40.6	-42.5	18.6	0.00e+00	0	43	0	0	52	4557
2026-01-18 23:42:18.23	192.45	10.99	-40.8	-42.7	18.3	0.00e+00	0	43	0	0	52	4680
2026-01-18 23:42:21.35	192.50	10.71	-40.5	-42.4	18.6	0.00e+00	0	43	0	0	52	4500
2026-01-18 23:42:24.20	192.55	10.46	-40.6	-42.5	18.5	0.00e+00	0	43	0	0	52	4588
2026-01-18 23:42:27.42	192.61	10.17	-40.7	-42.6	18.4	0.00e+00	0	43	0	0	52	4647
2026-01-18 23:42:30.41	192.66	9.91	-40.7	-42.6	18.4	0.00e+00	0	43	0	0	52	4646
2026-01-18 23:42:33.39	192.70	9.66	-40.7	-42.7	18.3	0.00e+00	0	43	0	0	52	4679
2026-01-18 23:42:36.37	192.75	9.40	-40.9	-42.9	18.1	0.00e+00	0	43	0	0	52	4794
2026-01-18 23:42:39.36	192.80	9.15	-41.2	-43.2	17.8	0.00e+00	0	43	0	0	53	4695
2026-01-18 23:42:42.59	192.85	8.88	-49.2	-62.1	3.8	1.49e+00	0	43	104	0	68	17383
2026-01-18 23:42:45.51	192.89	8.64	-50.0	-63.2	3.8	1.49e+00	0	43	104	0	70	17597
2026-01-18 23:42:48.84	192.94	8.36	-50.3	-63.3	3.8	1.49e+00	0	43	104	0	71	16848
2026-01-18 23:42:51.55	192.98	8.14	-50.3	-63.4	3.8	1.49e+00	0	43	104	0	71	16971
2026-01-18 23:42:54.83	193.03	7.88	-50.3	-63.3	3.8	1.49e+00	0	43	104	0	71	16860
2026-01-18 23:42:57.54	193.07	7.66	-50.3	-63.3	3.8	1.49e+00	0	43	104	0	71	16872
2026-01-18 23:43:00.84	193.12	7.40	-50.3	-63.3	3.8	1.49e+00	0	43	104	0	71	16809
2026-01-18 23:43:03.53	193.16	7.19	-50.2	-63.3	3.8	1.49e+00	0	43	104	0	71	16844
2026-01-18 23:43:06.81	193.20	6.94	-50.0	-63.3	3.8	1.49e+00	0	43	104	0	71	16811
2026-01-18 23:43:09.52	193.24	6.73	-50.0	-63.3	3.8	1.49e+00	0	43	104	0	71	16741
2026-01-18 23:43:12.82	193.28	6.48	-50.0	-63.3	3.8	1.49e+00	0	43	104	0	71	16725
2026-01-18 23:43:15.56	193.32	6.27	-50.0	-63.3	3.8	1.49e+00	0	43	104	0	71	16706
2026-01-18 23:43:18.82	193.36	6.03	-50.0	-63.3	3.8	1.49e+00	0	43	104	0	71	16708
2026-01-18 23:43:21.52	193.40	5.83	-50.0	-63.3	3.8	1.49e+00	0	43	104	0	71	16732
2026-01-18 23:43:24.80	193.44	5.59	-50.0	-63.2	3.8	1.49e+00	0	43	104	0	71	16634
2026-01-18 23:43:27.49	193.48	5.39	-49.9	-63.2	3.8	1.49e+00	0	43	104	0	71	16638
2026-01-18 23:43:30.76	193.52	5.16	-49.9	-63.2	3.8	1.49e+00	0	43	104	0	71	16614
2026-01-18 23:43:33.46	193.55	4.96	-50.0	-63.2	3.8	1.49e+00	0	43	104	0	71	16690

#Closed at: 2026-01-18 23:43:34
#Recorded file [0 MB]: D:/Data/31040_260119_023036.dat