passes_logs/2026/01/18/T1/T1__20260118_115210_SUOMI_NPP_rec.log

#Pass ID: 20260118_115210_SUOMI NPP
#Satellite: SUOMI NPP
#Configuration: NPP
#almurnet v.1.7.20251203
#Start time: 2026-01-18 11:52:10

#Version: 2.0.20230620
#Station: T1
#Location: 37.570604 lon 55.790049 lat
#TLE: 1 37849U 11061A   26017.57099531  .00000072  00000+0  54974-4 0  9996
#TLE: 2 37849  98.7814 319.5974 0002398  59.1749 300.9663 14.19525865737072

#Time	Az	El	Level	Level2	SNR	BER	BlckErr	Temp	State	Recorded	gain1	gain2
2026-01-18 11:52:10.11	223.09	5.00	-49.8	-65.1	3.8	1.49e+00	0	38	0	0	71	20604
2026-01-18 11:52:13.09	223.40	5.15	-49.7	-65.0	3.8	1.49e+00	0	38	104	0	71	20470
2026-01-18 11:52:16.07	223.71	5.31	-49.7	-65.1	3.8	1.49e+00	0	38	104	0	71	20566
2026-01-18 11:52:19.05	224.03	5.47	-49.7	-65.1	3.8	1.49e+00	0	38	104	0	71	20561
2026-01-18 11:52:22.03	224.35	5.63	-49.7	-65.1	3.8	1.49e+00	0	38	104	0	71	20559
2026-01-18 11:52:25.01	224.67	5.79	-49.7	-65.0	3.8	1.49e+00	0	39	104	0	71	20509
2026-01-18 11:52:27.99	225.00	5.94	-49.7	-65.0	3.8	1.49e+00	0	39	104	0	71	20436
2026-01-18 11:52:30.97	225.32	6.10	-49.7	-65.0	3.8	1.49e+00	0	39	104	0	71	20341
2026-01-18 11:52:33.95	225.66	6.26	-49.7	-65.0	3.8	1.49e+00	0	39	104	0	71	20315
2026-01-18 11:52:36.93	225.99	6.42	-49.7	-64.9	3.8	1.49e+00	0	39	104	0	71	20209
2026-01-18 11:52:39.91	226.33	6.58	-49.7	-64.9	3.8	1.49e+00	0	39	104	0	71	20149
2026-01-18 11:52:42.89	226.68	6.74	-49.7	-64.9	3.8	1.49e+00	0	39	104	0	71	20219
2026-01-18 11:52:45.87	227.02	6.90	-49.7	-64.9	3.8	1.49e+00	0	39	104	0	71	20233
2026-01-18 11:52:48.85	227.38	7.06	-49.7	-64.8	3.8	1.49e+00	0	39	104	0	71	19892
2026-01-18 11:52:51.83	227.73	7.22	-49.7	-64.9	3.8	1.49e+00	0	40	104	0	71	20197
2026-01-18 11:52:54.81	228.09	7.38	-49.7	-65.0	3.8	1.49e+00	0	40	104	0	71	20476
2026-01-18 11:52:57.79	228.45	7.54	-49.7	-64.9	3.8	1.49e+00	0	40	104	0	71	20129
2026-01-18 11:53:00.77	228.82	7.70	-49.7	-65.0	3.8	1.49e+00	0	39	104	0	71	20357
2026-01-18 11:53:03.75	229.19	7.86	-49.7	-65.0	3.8	1.49e+00	0	40	104	0	71	20381
2026-01-18 11:53:06.73	229.56	8.02	-49.7	-64.9	3.8	1.49e+00	0	40	104	0	71	20297
2026-01-18 11:53:09.71	229.94	8.18	-49.6	-63.4	3.8	1.49e+00	0	40	104	0	71	16946
2026-01-18 11:53:12.69	230.32	8.34	-49.6	-64.7	3.8	1.49e+00	0	40	104	0	71	19620
2026-01-18 11:53:15.67	230.71	8.50	-48.7	-56.5	7.1	2.79e-01	0	40	0	1048576	69	8599
2026-01-18 11:53:18.65	231.10	8.66	-45.9	-49.6	14.0	2.36e-05	0	40	0	7340032	63	5526
2026-01-18 11:53:21.63	231.49	8.81	-45.2	-48.6	15.0	0.00e+00	0	40	0	12582912	62	5187
2026-01-18 11:53:24.61	231.89	8.97	-47.0	-51.7	11.8	1.27e-04	0	40	0	17825792	64	6628
2026-01-18 11:53:27.59	232.29	9.13	-48.1	-54.7	9.2	6.80e-06	0	40	0	24117248	66	8348
2026-01-18 11:53:30.58	232.70	9.29	-47.6	-53.3	10.6	9.10e-06	0	40	0	27262976	65	7470
2026-01-18 11:53:33.56	233.11	9.45	-44.7	-47.9	15.9	0.00e+00	0	40	0	32505856	61	5047
2026-01-18 11:53:36.54	233.53	9.61	-44.2	-47.1	16.6	0.00e+00	0	40	0	38797312	60	4890
2026-01-18 11:53:39.53	233.95	9.77	-44.1	-47.0	16.7	0.00e+00	0	40	0	44040192	60	4834
2026-01-18 11:53:42.52	234.38	9.92	-44.2	-47.1	16.6	0.00e+00	0	40	0	50331648	60	4898
2026-01-18 11:53:45.50	234.80	10.08	-44.2	-47.0	16.6	0.00e+00	0	40	0	55574528	60	4859
2026-01-18 11:53:48.56	235.25	10.24	-44.3	-47.2	16.5	0.00e+00	0	40	0	60817408	59	5239
2026-01-18 11:53:51.54	235.69	10.40	-44.5	-47.4	16.3	0.00e+00	0	40	0	67108864	59	5374
2026-01-18 11:53:54.53	236.13	10.56	-44.4	-47.3	16.4	0.00e+00	0	40	0	72351744	59	5306
2026-01-18 11:53:57.51	236.58	10.71	-44.1	-46.9	16.8	0.00e+00	0	40	0	77594624	59	5059
2026-01-18 11:54:00.49	237.03	10.87	-43.7	-46.4	17.3	0.00e+00	0	40	0	83886080	59	4795
2026-01-18 11:54:03.48	237.49	11.02	-43.6	-46.2	17.4	0.00e+00	0	40	0	89128960	59	4702
2026-01-18 11:54:06.46	237.95	11.17	-43.5	-46.2	17.5	0.00e+00	0	40	0	94371840	58	4932
2026-01-18 11:54:09.44	238.41	11.33	-43.1	-45.5	18.1	0.00e+00	0	40	0	100663296	58	4597
2026-01-18 11:54:12.42	238.89	11.48	-42.7	-45.0	18.6	0.00e+00	0	40	0	105906176	57	4569
2026-01-18 11:54:15.41	239.36	11.63	-43.0	-45.5	18.1	0.00e+00	0	40	0	111149056	57	4840
2026-01-18 11:54:18.39	239.84	11.78	-43.3	-45.8	17.9	0.00e+00	0	40	0	117440512	57	4997
2026-01-18 11:54:21.38	240.33	11.93	-43.1	-45.6	18.1	0.00e+00	0	40	0	122683392	57	4890
2026-01-18 11:54:24.45	240.83	12.08	-43.1	-45.5	18.1	0.00e+00	0	40	0	127926272	57	4866
2026-01-18 11:54:27.29	241.30	12.22	-43.1	-45.6	18.1	0.00e+00	0	40	0	134217728	57	4881
2026-01-18 11:54:30.42	241.83	12.38	-43.2	-45.7	18.0	0.00e+00	0	40	0	139460608	57	4943
2026-01-18 11:54:33.26	242.31	12.51	-43.0	-45.5	18.2	0.00e+00	0	40	0	144703488	57	4840
2026-01-18 11:54:36.46	242.85	12.67	-43.2	-45.7	17.9	0.00e+00	0	40	0	150994944	57	4974
2026-01-18 11:54:39.31	243.35	12.81	-43.2	-45.7	18.0	0.00e+00	0	40	0	156237824	57	4966
2026-01-18 11:54:42.39	243.88	12.95	-43.2	-45.7	18.0	0.00e+00	0	40	0	162529280	57	4951
2026-01-18 11:54:45.37	244.41	13.09	-43.1	-45.5	18.1	0.00e+00	0	40	0	167772160	57	4864
2026-01-18 11:54:48.36	244.94	13.23	-43.5	-46.0	17.7	0.00e+00	0	40	0	173015040	57	5149
2026-01-18 11:54:51.34	245.47	13.37	-43.7	-46.3	17.4	0.00e+00	0	40	0	179306496	58	5005
2026-01-18 11:54:54.38	246.02	13.51	-43.6	-46.2	17.5	0.00e+00	0	40	0	184549376	58	4964
2026-01-18 11:54:57.34	246.56	13.64	-43.7	-46.2	17.5	0.00e+00	0	40	0	189792256	58	4980
2026-01-18 11:55:00.47	247.13	13.78	-44.1	-46.8	16.9	0.00e+00	0	40	0	196083712	58	5326
2026-01-18 11:55:03.41	247.68	13.91	-44.1	-46.9	16.9	0.00e+00	0	40	0	201326592	58	5377
2026-01-18 11:55:06.39	248.23	14.04	-43.7	-46.4	17.4	0.00e+00	0	40	0	206569472	58	5069
2026-01-18 11:55:09.38	248.80	14.16	-43.7	-46.3	17.4	0.00e+00	0	40	0	212860928	58	5040
2026-01-18 11:55:12.37	249.36	14.29	-43.7	-46.4	17.4	0.00e+00	0	40	0	218103808	58	5062
2026-01-18 11:55:15.32	249.93	14.41	-44.2	-47.0	16.8	0.00e+00	0	40	0	223346688	58	5408
2026-01-18 11:55:18.45	250.53	14.54	-44.4	-47.2	16.7	0.00e+00	0	40	0	229638144	59	5236
2026-01-18 11:55:21.29	251.09	14.65	-44.1	-46.9	16.9	0.00e+00	0	40	0	234881024	59	5046
2026-01-18 11:55:24.42	251.70	14.77	-44.2	-47.0	16.8	0.00e+00	0	41	0	241172480	59	5143
2026-01-18 11:55:27.26	252.26	14.88	-44.5	-47.4	16.4	0.00e+00	0	40	0	246415360	59	5360
2026-01-18 11:55:30.39	252.89	15.00	-44.5	-47.4	16.4	0.00e+00	0	41	0	251658240	59	5370
2026-01-18 11:55:33.23	253.46	15.11	-44.6	-47.6	16.3	0.00e+00	0	41	0	256901120	60	5190
2026-01-18 11:55:36.57	254.13	15.23	-44.6	-47.6	16.3	0.00e+00	0	40	0	263192576	60	5204
2026-01-18 11:55:39.27	254.68	15.32	-44.3	-47.1	16.7	0.00e+00	0	40	0	268435456	60	4915
2026-01-18 11:55:42.55	255.35	15.43	-44.1	-47.0	16.9	0.00e+00	0	40	0	274726912	60	4816
2026-01-18 11:55:45.25	255.91	15.52	-44.4	-47.3	16.5	0.00e+00	0	40	0	279969792	60	5031
2026-01-18 11:55:48.65	256.61	15.63	-44.1	-46.9	16.9	0.00e+00	0	41	0	286261248	60	4795
2026-01-18 11:55:51.35	257.18	15.72	-44.0	-46.7	17.1	0.00e+00	0	40	0	291504128	59	4974
2026-01-18 11:55:54.74	257.89	15.82	-43.5	-46.0	17.7	0.00e+00	0	40	0	297795584	59	4589
2026-01-18 11:55:57.47	258.47	15.90	-43.3	-45.8	18.0	0.00e+00	0	40	0	303038464	58	4710
2026-01-18 11:56:00.77	259.17	16.00	-43.3	-45.8	17.9	0.00e+00	0	40	0	309329920	58	4730
2026-01-18 11:56:03.49	259.75	16.07	-42.9	-45.4	18.3	0.00e+00	0	40	0	314572800	57	4770
2026-01-18 11:56:06.76	260.45	16.16	-43.1	-45.6	18.1	0.00e+00	0	40	0	319815680	57	4898
2026-01-18 11:56:09.81	261.11	16.23	-43.6	-46.3	17.5	0.00e+00	0	40	0	326107136	58	5000
2026-01-18 11:56:13.28	261.86	16.32	-44.0	-46.7	17.1	0.00e+00	0	40	0	332398592	58	5251
2026-01-18 11:56:15.98	262.45	16.38	-44.1	-46.9	16.9	0.00e+00	0	40	0	337641472	58	5391
2026-01-18 11:56:19.27	263.17	16.45	-43.5	-46.1	17.7	0.00e+00	0	40	0	343932928	58	4881
2026-01-18 11:56:21.99	263.77	16.51	-42.9	-45.4	18.3	0.00e+00	0	40	0	349175808	57	4785
2026-01-18 11:56:25.23	264.49	16.57	-43.8	-46.4	17.3	0.00e+00	0	40	0	354418688	58	5097
2026-01-18 11:56:28.33	265.17	16.63	-43.9	-46.6	17.3	0.00e+00	0	40	0	360710144	58	5192
2026-01-18 11:56:31.31	265.84	16.68	-43.9	-46.6	17.2	0.00e+00	0	40	0	365953024	58	5175
2026-01-18 11:56:34.29	266.50	16.73	-44.0	-46.7	17.1	0.00e+00	0	41	0	372244480	59	4940
2026-01-18 11:56:37.27	267.17	16.77	-43.1	-45.5	18.2	0.00e+00	0	40	0	377487360	58	4564
2026-01-18 11:56:40.26	267.84	16.81	-43.1	-45.6	18.1	0.00e+00	0	40	0	382730240	57	4905
2026-01-18 11:56:43.24	268.51	16.85	-43.6	-46.2	17.6	0.00e+00	0	40	0	389021696	58	4977
2026-01-18 11:56:46.26	269.19	16.88	-43.0	-45.4	18.3	0.00e+00	0	40	0	394264576	57	4801
2026-01-18 11:56:49.53	269.93	16.91	-43.7	-46.4	17.5	0.00e+00	0	40	0	400556032	58	5066
2026-01-18 11:56:52.25	270.54	16.93	-44.0	-46.8	17.0	0.00e+00	0	40	0	405798912	58	5303
2026-01-18 11:56:55.51	271.28	16.96	-44.3	-47.2	16.6	0.00e+00	0	40	0	412090368	59	5236
2026-01-18 11:56:58.23	271.90	16.97	-44.7	-47.6	16.3	0.00e+00	0	40	0	416284672	60	5187
2026-01-18 11:57:01.53	272.65	16.99	-44.3	-47.1	16.7	0.00e+00	0	40	0	422576128	60	4915
2026-01-18 11:57:04.26	273.27	17.00	-44.4	-47.4	16.5	0.00e+00	0	40	0	427819008	60	5044
2026-01-18 11:57:07.53	274.01	17.00	-44.3	-47.1	16.8	0.00e+00	0	40	0	434110464	60	4897
2026-01-18 11:57:10.26	274.63	17.01	-44.0	-46.7	17.1	0.00e+00	0	40	0	439353344	59	4969
2026-01-18 11:57:13.53	275.37	17.00	-44.2	-47.0	16.8	0.00e+00	0	40	0	445644800	59	5146
2026-01-18 11:57:16.25	275.99	17.00	-43.7	-46.3	17.5	0.00e+00	0	40	0	450887680	59	4746
2026-01-18 11:57:19.53	276.73	16.99	-43.9	-46.5	17.3	0.00e+00	0	40	0	457179136	59	4867
2026-01-18 11:57:22.28	277.36	16.98	-43.7	-46.3	17.5	0.00e+00	0	40	0	461373440	59	4747
2026-01-18 11:57:25.54	278.10	16.96	-43.2	-45.7	18.1	0.00e+00	0	40	0	467664896	58	4665
2026-01-18 11:57:28.27	278.72	16.94	-43.5	-46.1	17.7	0.00e+00	0	41	0	472907776	58	4896
2026-01-18 11:57:31.62	279.47	16.91	-43.6	-46.1	17.7	0.00e+00	0	40	0	479199232	58	4914
2026-01-18 11:57:34.32	280.08	16.88	-43.6	-46.2	17.7	0.00e+00	0	40	0	484442112	58	4929
2026-01-18 11:57:37.73	280.85	16.85	-44.0	-46.8	17.0	0.00e+00	0	40	0	490733568	58	5292
2026-01-18 11:57:40.46	281.46	16.81	-43.8	-46.4	17.4	0.00e+00	0	40	0	495976448	58	5092
2026-01-18 11:57:43.75	282.20	16.77	-43.9	-46.5	17.3	0.00e+00	0	40	0	502267904	58	5150
2026-01-18 11:57:46.49	282.81	16.73	-44.4	-47.3	16.6	0.00e+00	0	40	0	507510784	59	5314
2026-01-18 11:57:49.76	283.54	16.68	-44.0	-46.8	17.1	0.00e+00	0	41	0	513802240	59	4985
2026-01-18 11:57:52.47	284.14	16.63	-43.6	-46.2	17.5	0.00e+00	0	40	0	517996544	58	4954
2026-01-18 11:57:55.74	284.86	16.57	-43.4	-45.9	17.9	0.00e+00	0	40	0	524288000	58	4780
2026-01-18 11:57:58.46	285.46	16.52	-43.3	-45.8	17.9	0.00e+00	0	40	0	529530880	58	4756
2026-01-18 11:58:01.72	286.18	16.45	-43.6	-46.2	17.6	0.00e+00	0	40	0	535822336	58	4981
2026-01-18 11:58:04.53	286.79	16.39	-43.8	-46.4	17.5	0.00e+00	0	40	0	541065216	58	5064
2026-01-18 11:58:07.74	287.49	16.32	-43.6	-46.2	17.7	0.00e+00	0	40	0	547356672	58	4930
2026-01-18 11:58:10.58	288.11	16.25	-43.1	-45.5	18.3	0.00e+00	0	40	0	552599552	58	4551
2026-01-18 11:58:13.71	288.78	16.17	-42.9	-45.3	18.5	0.00e+00	0	40	0	557842432	57	4723
2026-01-18 11:58:16.55	289.39	16.10	-42.9	-45.3	18.4	0.00e+00	0	41	0	563085312	57	4744
2026-01-18 11:58:19.68	290.06	16.02	-42.9	-45.3	18.5	0.00e+00	0	40	0	569376768	57	4721
2026-01-18 11:58:22.61	290.68	15.93	-43.3	-45.8	18.0	0.00e+00	0	40	0	574619648	57	5026
2026-01-18 11:58:25.98	291.39	15.84	-43.5	-46.0	17.8	0.00e+00	0	40	0	580911104	57	5152
2026-01-18 11:58:28.69	291.96	15.75	-43.2	-45.7	18.0	0.00e+00	0	40	0	586153984	57	4969
2026-01-18 11:58:32.21	292.69	15.64	-43.4	-46.0	17.8	0.00e+00	0	40	0	592445440	57	5115
2026-01-18 11:58:34.95	293.26	15.56	-43.2	-45.7	18.1	0.00e+00	0	40	0	597688320	57	4956
2026-01-18 11:58:38.23	293.93	15.45	-42.5	-44.9	18.8	0.00e+00	0	40	0	603979776	56	4762
2026-01-18 11:58:40.93	294.48	15.36	-42.2	-44.5	19.2	0.00e+00	0	40	0	609222656	56	4569
2026-01-18 11:58:44.51	295.21	15.23	-42.7	-45.0	18.7	0.00e+00	0	41	0	615514112	56	4856
2026-01-18 11:58:47.21	295.75	15.14	-42.9	-45.3	18.4	0.00e+00	0	40	0	620756992	56	4991
2026-01-18 11:58:50.74	296.46	15.01	-42.8	-45.2	18.5	0.00e+00	0	40	0	628097024	56	4938
2026-01-18 11:58:53.47	297.00	14.91	-43.3	-45.9	17.9	0.00e+00	0	40	0	633339904	57	5058
2026-01-18 11:58:56.76	297.65	14.78	-43.2	-45.6	18.1	0.00e+00	0	40	0	638582784	57	4926
2026-01-18 11:58:59.48	298.18	14.67	-43.0	-45.4	18.3	0.00e+00	0	40	0	643825664	57	4808
2026-01-18 11:59:02.75	298.81	14.55	-43.0	-45.4	18.2	0.00e+00	0	40	0	650117120	57	4810
2026-01-18 11:59:05.46	299.34	14.44	-42.8	-45.2	18.5	0.00e+00	0	40	0	655360000	57	4686
2026-01-18 11:59:08.77	299.97	14.30	-43.2	-45.7	18.1	0.00e+00	0	40	0	661651456	57	4944
2026-01-18 11:59:11.53	300.49	14.19	-43.3	-45.8	17.9	0.00e+00	0	40	0	666894336	57	4985
2026-01-18 11:59:14.83	301.11	14.05	-43.7	-46.3	17.5	0.00e+00	0	40	0	673185792	57	5293
2026-01-18 11:59:17.53	301.61	13.93	-44.3	-47.2	16.7	0.00e+00	0	40	0	678428672	59	5239
2026-01-18 11:59:20.81	302.22	13.79	-44.6	-47.5	16.3	0.00e+00	0	40	0	683671552	59	5443
2026-01-18 11:59:23.78	302.76	13.66	-44.2	-47.0	16.8	0.00e+00	0	40	0	689963008	59	5157
2026-01-18 11:59:27.29	303.39	13.50	-44.2	-47.1	16.7	0.00e+00	0	40	0	696254464	59	5185
2026-01-18 11:59:30.26	303.93	13.37	-44.7	-47.8	16.1	0.00e+00	0	40	0	701497344	60	5331
2026-01-18 11:59:33.24	304.46	13.23	-44.8	-47.8	16.0	0.00e+00	0	40	0	707788800	60	5337
2026-01-18 11:59:36.26	304.99	13.09	-44.4	-47.4	16.5	0.00e+00	0	40	0	713031680	60	5061
2026-01-18 11:59:39.28	305.52	12.95	-44.3	-47.1	16.7	0.00e+00	0	40	0	718274560	60	4906
2026-01-18 11:59:42.26	306.03	12.81	-44.8	-47.8	16.1	0.00e+00	0	40	0	724566016	60	5282
2026-01-18 11:59:45.25	306.54	12.67	-45.2	-48.4	15.4	7.00e-07	0	40	0	729808896	60	5722
2026-01-18 11:59:48.23	307.05	12.52	-45.6	-49.2	14.7	0.00e+00	0	40	0	735051776	61	5868
2026-01-18 11:59:51.30	307.56	12.38	-45.6	-49.0	14.8	0.00e+00	0	40	0	741343232	62	5436
2026-01-18 11:59:54.25	308.06	12.23	-44.8	-47.9	15.8	0.00e+00	0	40	0	746586112	61	5088
2026-01-18 11:59:57.59	308.61	12.07	-44.5	-47.5	16.3	0.00e+00	0	40	0	752877568	60	5140
2026-01-18 12:00:00.49	309.08	11.93	-44.6	-47.7	16.1	0.00e+00	0	40	0	758120448	60	5247
2026-01-18 12:00:03.76	309.61	11.76	-44.7	-47.8	16.0	0.00e+00	0	40	0	764411904	60	5335
2026-01-18 12:00:06.47	310.04	11.63	-44.5	-47.7	16.1	0.00e+00	0	40	0	769654784	60	5224
2026-01-18 12:00:09.78	310.56	11.46	-44.9	-48.2	15.6	0.00e+00	0	41	0	775946240	60	5555
2026-01-18 12:00:12.68	311.02	11.32	-45.1	-48.6	15.2	0.00e+00	0	41	0	781189120	61	5476
2026-01-18 12:00:16.10	311.55	11.14	-45.1	-48.5	15.3	0.00e+00	0	40	0	787480576	61	5463
2026-01-18 12:00:18.89	311.98	11.00	-45.1	-48.4	15.3	0.00e+00	0	41	0	792723456	61	5398
2026-01-18 12:00:22.13	312.47	10.83	-44.7	-47.9	15.9	0.00e+00	0	40	0	799014912	61	5056
2026-01-18 12:00:24.97	312.89	10.69	-44.3	-47.4	16.4	0.00e+00	0	40	0	804257792	60	5069
2026-01-18 12:00:28.33	313.39	10.51	-44.0	-46.9	16.8	0.00e+00	0	40	0	810549248	59	5047
2026-01-18 12:00:31.49	313.86	10.35	-44.1	-47.1	16.6	0.00e+00	0	40	0	816840704	59	5170
2026-01-18 12:00:34.33	314.27	10.20	-44.3	-47.2	16.4	0.00e+00	0	41	0	822083584	59	5265
2026-01-18 12:00:37.46	314.72	10.04	-44.1	-47.0	16.6	0.00e+00	0	40	0	827326464	59	5152
2026-01-18 12:00:40.30	315.13	9.89	-44.1	-46.9	16.7	0.00e+00	0	40	0	832569344	59	5086
2026-01-18 12:00:43.46	315.57	9.73	-43.9	-46.7	16.9	0.00e+00	0	40	0	838860800	59	4970
2026-01-18 12:00:46.30	315.97	9.58	-44.1	-47.0	16.6	0.00e+00	0	40	0	844103680	59	5136
2026-01-18 12:00:49.65	316.43	9.40	-44.3	-47.2	16.5	0.00e+00	0	40	0	850395136	59	5231
2026-01-18 12:00:52.42	316.81	9.26	-44.2	-47.0	16.6	7.00e-07	0	40	0	855638016	59	5147
2026-01-18 12:00:55.64	317.24	9.09	-43.8	-46.5	17.1	0.00e+00	0	40	0	861929472	59	4848
2026-01-18 12:00:58.48	317.62	8.94	-49.8	-65.1	3.8	7.33e-01	0	40	104	866123776	70	21954
2026-01-18 12:01:01.61	318.04	8.77	-50.2	-65.5	3.8	1.49e+00	0	40	104	866123776	71	21736
2026-01-18 12:01:04.46	318.41	8.62	-50.2	-65.7	3.8	1.49e+00	0	41	104	866123776	71	22060
2026-01-18 12:01:07.71	318.83	8.45	-50.4	-65.7	3.8	1.49e+00	0	40	104	866123776	71	22164
2026-01-18 12:01:10.55	319.20	8.30	-50.5	-65.7	3.8	1.49e+00	0	40	104	866123776	71	22169
2026-01-18 12:01:13.67	319.59	8.13	-50.4	-65.7	3.8	1.49e+00	0	40	104	866123776	71	22226
2026-01-18 12:01:16.51	319.95	7.98	-50.2	-65.7	3.8	1.49e+00	0	40	104	866123776	71	22009
2026-01-18 12:01:19.64	320.34	7.82	-50.1	-65.6	3.8	1.49e+00	0	40	104	866123776	71	21803
2026-01-18 12:01:22.48	320.69	7.67	-50.1	-65.6	3.8	1.49e+00	0	40	104	866123776	71	21840
2026-01-18 12:01:25.60	321.07	7.50	-50.1	-65.6	3.8	1.49e+00	0	40	104	866123776	71	21825
2026-01-18 12:01:28.44	321.41	7.35	-50.1	-65.6	3.8	1.49e+00	0	40	104	866123776	71	21877
2026-01-18 12:01:31.56	321.78	7.19	-50.1	-65.6	3.8	1.49e+00	0	40	104	866123776	71	21815
2026-01-18 12:01:34.40	322.12	7.04	-50.1	-65.5	3.8	1.49e+00	0	40	104	866123776	71	21732
2026-01-18 12:01:37.52	322.48	6.87	-50.1	-65.6	3.8	1.49e+00	0	40	104	866123776	71	21813
2026-01-18 12:01:40.36	322.81	6.72	-50.1	-65.5	3.8	1.49e+00	0	40	104	866123776	71	21749
2026-01-18 12:01:43.48	323.17	6.56	-50.1	-65.5	3.8	1.49e+00	0	40	104	866123776	71	21693
2026-01-18 12:01:46.32	323.49	6.41	-50.1	-65.5	3.8	1.49e+00	0	40	104	866123776	71	21699
2026-01-18 12:01:49.44	323.84	6.24	-50.1	-65.5	3.8	1.49e+00	0	40	104	866123776	71	21747
2026-01-18 12:01:52.28	324.15	6.09	-50.1	-65.6	3.8	1.49e+00	0	41	104	866123776	71	21768
2026-01-18 12:01:55.40	324.49	5.93	-50.1	-65.5	3.8	1.49e+00	0	40	104	866123776	71	21689
2026-01-18 12:01:58.24	324.80	5.78	-50.1	-65.6	3.8	1.49e+00	0	40	104	866123776	71	21775
2026-01-18 12:02:01.36	325.14	5.61	-50.1	-65.6	3.8	1.49e+00	0	40	104	866123776	71	21804
2026-01-18 12:02:04.19	325.44	5.47	-50.1	-65.5	3.8	1.49e+00	0	40	104	866123776	71	21689
2026-01-18 12:02:07.32	325.77	5.30	-50.1	-65.5	3.8	1.49e+00	0	40	104	866123776	71	21755
2026-01-18 12:02:10.15	326.06	5.15	-50.1	-65.5	3.8	1.49e+00	0	40	104	866123776	71	21732
2026-01-18 12:02:13.27	326.38	4.99	-50.1	-65.5	3.8	1.49e+00	0	40	104	866123776	71	21715

#Closed at: 2026-01-18 12:02:14
#Recorded file [866 MB]: D:/Data/31040_260118_145210.dat