passes_logs/2026/01/18/T1/T1__20260118_112128_NOAA_21_JPSS-2_rec.log

#Pass ID: 20260118_112128_NOAA 21 (JPSS-2)
#Satellite: NOAA 21 (JPSS-2)
#Configuration: NOAA 21
#almurnet v.1.7.20251203
#Start time: 2026-01-18 11:21:28

#Version: 2.0.20230620
#Station: T1
#Location: 37.570604 lon 55.790049 lat
#TLE: 1 54234U 22150A   26017.62066529  .00000042  00000+0  40984-4 0  9994
#TLE: 2 54234  98.7502 318.4887 0000613 271.5460  88.5645 14.19535234165189

#Time	Az	El	Level	Level2	SNR	BER	BlckErr	Temp	State	Recorded	gain1	gain2
2026-01-18 11:21:28.90	207.04	5.05	-49.7	-62.8	3.8	1.49e+00	0	44	0	0	71	15867
2026-01-18 11:21:31.88	207.29	5.24	-49.7	-62.8	3.8	1.49e+00	0	44	104	0	71	15828
2026-01-18 11:21:34.86	207.53	5.42	-49.7	-62.8	3.8	1.49e+00	0	43	104	0	71	15820
2026-01-18 11:21:37.84	207.78	5.60	-49.7	-62.8	3.8	1.49e+00	0	44	104	0	71	15781
2026-01-18 11:21:40.82	208.03	5.79	-49.7	-62.8	3.8	1.49e+00	0	44	104	0	71	15853
2026-01-18 11:21:43.80	208.28	5.98	-49.7	-62.8	3.8	1.49e+00	0	44	104	0	71	15865
2026-01-18 11:21:46.78	208.53	6.16	-49.7	-62.8	3.8	1.49e+00	0	44	104	0	71	15871
2026-01-18 11:21:49.76	208.79	6.35	-49.6	-62.7	3.8	1.49e+00	0	44	104	0	71	15739
2026-01-18 11:21:52.74	209.06	6.54	-49.6	-62.3	3.8	1.49e+00	0	44	104	0	71	15023
2026-01-18 11:21:55.72	209.32	6.73	-49.6	-62.3	3.8	1.49e+00	0	44	104	0	71	15004
2026-01-18 11:21:58.70	209.59	6.92	-49.6	-62.6	3.8	1.49e+00	0	44	104	0	71	15519
2026-01-18 11:22:01.68	209.86	7.11	-49.6	-62.5	3.8	1.49e+00	0	44	104	0	71	15338
2026-01-18 11:22:04.66	210.14	7.30	-49.6	-62.5	3.8	1.49e+00	0	44	104	0	71	15245
2026-01-18 11:22:07.64	210.42	7.50	-49.6	-62.6	3.8	1.49e+00	0	44	104	0	71	15543
2026-01-18 11:22:10.63	210.70	7.69	-49.5	-61.4	3.8	1.49e+00	0	44	104	0	71	13419
2026-01-18 11:22:13.61	210.99	7.89	-49.5	-61.0	3.8	1.48e+00	0	44	104	0	70	13661
2026-01-18 11:22:16.58	211.28	8.08	-49.4	-60.6	3.9	1.49e+00	0	44	104	0	70	13002
2026-01-18 11:22:19.56	211.57	8.28	-45.8	-49.2	12.2	7.89e-04	0	44	0	0	63	5258
2026-01-18 11:22:22.54	211.87	8.48	-42.6	-44.8	16.6	0.00e+00	0	44	0	0	57	4464
2026-01-18 11:22:25.53	212.18	8.67	-42.2	-44.3	17.1	0.00e+00	0	44	0	0	56	4443
2026-01-18 11:22:28.50	212.48	8.87	-44.7	-47.5	14.0	7.00e-07	0	44	0	0	59	5414
2026-01-18 11:22:31.49	212.79	9.07	-46.8	-51.1	10.2	1.52e-02	0	44	0	0	65	5828
2026-01-18 11:22:34.55	213.12	9.28	-44.6	-47.4	14.1	1.38e-03	0	44	0	0	61	4772
2026-01-18 11:22:37.39	213.42	9.47	-43.2	-45.5	16.0	0.00e+00	0	44	0	0	58	4596
2026-01-18 11:22:40.52	213.76	9.69	-41.0	-42.9	18.3	0.00e+00	0	44	0	0	53	4505
2026-01-18 11:22:43.36	214.07	9.88	-41.1	-42.9	18.3	0.00e+00	0	44	0	0	53	4544
2026-01-18 11:22:46.60	214.43	10.10	-40.9	-42.8	18.4	0.00e+00	0	44	0	0	53	4464
2026-01-18 11:22:49.44	214.75	10.30	-40.9	-42.8	18.4	0.00e+00	0	44	0	0	53	4461
2026-01-18 11:22:52.54	215.11	10.51	-40.9	-42.7	18.5	0.00e+00	0	44	0	0	53	4439
2026-01-18 11:22:55.52	215.45	10.72	-40.8	-42.6	18.5	0.00e+00	0	43	0	0	53	4391
2026-01-18 11:22:58.51	215.80	10.93	-40.7	-42.5	18.7	0.00e+00	0	44	0	0	53	4316
2026-01-18 11:23:01.49	216.16	11.14	-40.5	-42.4	18.8	0.00e+00	0	43	0	0	53	4254
2026-01-18 11:23:04.48	216.52	11.35	-40.5	-42.4	18.8	0.00e+00	0	44	0	0	52	4494
2026-01-18 11:23:07.46	216.89	11.56	-40.4	-42.2	18.9	0.00e+00	0	44	0	0	52	4438
2026-01-18 11:23:10.45	217.26	11.77	-40.4	-42.3	18.9	0.00e+00	0	44	0	0	52	4442
2026-01-18 11:23:13.43	217.63	11.98	-40.3	-42.1	19.0	0.00e+00	0	44	0	0	52	4381
2026-01-18 11:23:16.42	218.02	12.20	-40.2	-42.0	19.2	0.00e+00	0	44	0	0	52	4332
2026-01-18 11:23:19.47	218.41	12.42	-40.6	-42.4	18.8	0.00e+00	0	44	0	0	52	4516
2026-01-18 11:23:22.45	218.80	12.63	-40.5	-42.4	18.9	0.00e+00	0	44	0	0	52	4507
2026-01-18 11:23:25.44	219.20	12.85	-40.5	-42.4	18.9	0.00e+00	0	43	0	0	52	4504
2026-01-18 11:23:28.42	219.61	13.06	-40.2	-42.0	19.2	0.00e+00	0	43	0	0	52	4335
2026-01-18 11:23:31.41	220.02	13.28	-40.2	-42.0	19.3	0.00e+00	0	44	0	0	52	4333
2026-01-18 11:23:34.39	220.43	13.50	-40.3	-42.1	19.2	0.00e+00	0	43	0	0	52	4375
2026-01-18 11:23:37.43	220.86	13.72	-40.3	-42.1	19.2	0.00e+00	0	44	0	0	52	4346
2026-01-18 11:23:40.33	221.28	13.93	-40.3	-42.1	19.2	0.00e+00	0	44	0	0	52	4348
2026-01-18 11:23:43.67	221.76	14.17	-40.2	-42.0	19.3	0.00e+00	0	44	0	0	52	4323
2026-01-18 11:23:46.39	222.16	14.37	-40.3	-42.1	19.2	0.00e+00	0	44	0	0	52	4380
2026-01-18 11:23:49.73	222.66	14.62	-40.5	-42.3	19.0	0.00e+00	0	44	0	0	52	4481
2026-01-18 11:23:52.49	223.08	14.82	-40.4	-42.2	19.1	0.00e+00	0	43	0	0	52	4416
2026-01-18 11:23:55.74	223.58	15.06	-40.4	-42.1	19.2	0.00e+00	0	44	0	0	52	4391
2026-01-18 11:23:58.58	224.03	15.27	-40.6	-42.4	18.9	0.00e+00	0	44	0	0	52	4533
2026-01-18 11:24:01.71	224.52	15.50	-40.6	-42.4	19.0	0.00e+00	0	44	0	0	52	4513
2026-01-18 11:24:04.55	224.98	15.71	-40.8	-42.6	18.8	0.00e+00	0	44	0	0	52	4621
2026-01-18 11:24:07.80	225.51	15.95	-40.8	-42.6	18.9	0.00e+00	0	44	0	0	52	4623
2026-01-18 11:24:10.65	225.98	16.16	-40.6	-42.4	19.0	0.00e+00	0	43	0	0	52	4531
2026-01-18 11:24:14.07	226.56	16.42	-40.5	-42.3	19.1	0.00e+00	0	43	0	0	52	4453
2026-01-18 11:24:16.77	227.02	16.62	-40.7	-42.5	19.0	0.00e+00	0	44	0	0	52	4554
2026-01-18 11:24:20.04	227.59	16.86	-40.7	-42.6	18.9	0.00e+00	0	43	0	0	52	4600
2026-01-18 11:24:22.76	228.06	17.06	-40.8	-42.7	18.8	0.00e+00	0	44	0	0	52	4658
2026-01-18 11:24:26.15	228.67	17.31	-40.7	-42.4	18.9	0.00e+00	0	43	0	0	52	4544
2026-01-18 11:24:28.87	229.16	17.51	-40.7	-42.5	18.9	0.00e+00	0	43	0	0	52	4552
2026-01-18 11:24:32.25	229.78	17.76	-40.8	-42.7	18.7	0.00e+00	0	43	0	0	52	4653
2026-01-18 11:24:34.98	230.29	17.96	-40.7	-42.5	18.9	0.00e+00	0	43	0	0	52	4581
2026-01-18 11:24:38.28	230.91	18.20	-40.5	-42.2	19.1	0.00e+00	0	43	0	0	52	4440
2026-01-18 11:24:41.06	231.44	18.40	-40.5	-42.3	19.0	0.00e+00	0	43	0	0	52	4457
2026-01-18 11:24:44.93	232.19	18.68	-40.5	-42.3	19.1	0.00e+00	0	43	0	0	52	4475
2026-01-18 11:24:47.80	232.76	18.89	-40.6	-42.4	19.0	0.00e+00	0	43	0	0	52	4516
2026-01-18 11:24:51.13	233.43	19.12	-40.3	-42.1	19.3	0.00e+00	0	44	0	0	52	4355
2026-01-18 11:24:53.86	233.98	19.32	-40.2	-42.0	19.4	0.00e+00	0	44	0	0	52	4304
2026-01-18 11:24:57.14	234.66	19.55	-40.1	-41.8	19.5	0.00e+00	0	44	0	0	52	4226
2026-01-18 11:24:59.87	235.23	19.74	-39.9	-41.6	19.8	0.00e+00	0	44	0	0	51	4389
2026-01-18 11:25:03.15	235.92	19.97	-39.8	-41.5	19.8	0.00e+00	0	44	0	0	51	4315
2026-01-18 11:25:05.88	236.50	20.16	-40.1	-41.8	19.7	0.00e+00	0	44	0	0	51	4460
2026-01-18 11:25:09.26	237.24	20.39	-40.1	-41.8	19.6	0.00e+00	0	44	0	0	51	4488
2026-01-18 11:25:11.99	237.84	20.57	-40.1	-41.9	19.6	0.00e+00	0	44	0	0	51	4509
2026-01-18 11:25:15.27	238.57	20.79	-40.1	-41.9	19.6	0.00e+00	0	44	0	0	51	4494
2026-01-18 11:25:18.06	239.20	20.98	-40.1	-41.9	19.5	0.00e+00	0	44	0	0	51	4519
2026-01-18 11:25:21.55	240.00	21.21	-39.9	-41.6	19.8	0.00e+00	0	44	0	0	51	4368
2026-01-18 11:25:24.45	240.67	21.39	-39.9	-41.6	19.8	0.00e+00	0	44	0	0	51	4372
2026-01-18 11:25:27.73	241.44	21.60	-39.7	-41.4	19.9	0.00e+00	0	43	0	0	51	4250
2026-01-18 11:25:30.46	242.08	21.77	-39.9	-41.6	19.8	0.00e+00	0	44	0	0	51	4367
2026-01-18 11:25:33.73	242.87	21.97	-39.7	-41.4	20.0	0.00e+00	0	44	0	0	51	4272
2026-01-18 11:25:36.50	243.54	22.14	-39.6	-41.3	20.0	0.00e+00	0	43	0	0	51	4228
2026-01-18 11:25:39.83	244.36	22.33	-39.5	-41.2	20.1	0.00e+00	0	44	0	0	50	4404
2026-01-18 11:25:42.55	245.04	22.49	-39.6	-41.3	20.0	0.00e+00	0	44	0	0	50	4475
2026-01-18 11:25:45.84	245.86	22.68	-39.6	-41.3	20.1	0.00e+00	0	43	0	0	50	4471
2026-01-18 11:25:48.57	246.55	22.83	-39.5	-41.2	20.2	0.00e+00	0	43	0	0	50	4422
2026-01-18 11:25:51.85	247.39	23.00	-39.8	-41.5	19.9	0.00e+00	0	44	0	0	50	4566
2026-01-18 11:25:54.56	248.10	23.14	-39.8	-41.5	20.0	0.00e+00	0	44	0	0	50	4579
2026-01-18 11:25:57.85	248.96	23.31	-39.6	-41.3	20.1	0.00e+00	0	43	0	0	50	4467
2026-01-18 11:26:00.58	249.68	23.45	-39.7	-41.4	20.1	0.00e+00	0	43	0	0	50	4498
2026-01-18 11:26:03.84	250.54	23.60	-39.8	-41.5	20.0	0.00e+00	0	44	0	0	50	4581
2026-01-18 11:26:06.56	251.27	23.73	-39.2	-41.3	18.3	9.72e-03	0	44	0	0	50	4472
2026-01-18 11:26:09.84	252.16	23.87	-39.7	-41.4	20.0	0.00e+00	0	44	0	0	50	4506
2026-01-18 11:26:12.57	252.91	23.99	-40.0	-41.7	19.8	0.00e+00	0	44	0	0	50	4700
2026-01-18 11:26:15.86	253.81	24.12	-39.7	-41.4	20.1	0.00e+00	0	44	0	0	50	4495
2026-01-18 11:26:18.56	254.56	24.23	-39.8	-41.5	19.9	0.00e+00	0	43	0	0	50	4570
2026-01-18 11:26:21.84	255.48	24.35	-39.7	-41.4	20.0	0.00e+00	0	43	0	0	50	4507
2026-01-18 11:26:24.56	256.24	24.44	-39.5	-41.2	20.1	0.00e+00	0	43	0	0	50	4433
2026-01-18 11:26:27.85	257.17	24.55	-39.7	-41.4	20.0	0.00e+00	0	44	0	0	50	4494
2026-01-18 11:26:30.57	257.94	24.63	-39.6	-41.3	20.1	0.00e+00	0	43	0	0	50	4473
2026-01-18 11:26:33.89	258.89	24.73	-39.6	-41.3	20.1	0.00e+00	0	44	0	0	50	4462
2026-01-18 11:26:36.79	259.73	24.80	-39.6	-41.3	20.1	0.00e+00	0	44	0	0	50	4463
2026-01-18 11:26:40.68	260.85	24.90	-39.5	-41.2	20.1	0.00e+00	0	43	0	0	50	4432
2026-01-18 11:26:43.47	261.66	24.96	-39.6	-41.3	20.2	0.00e+00	0	44	0	0	50	4443
2026-01-18 11:26:46.77	262.62	25.02	-39.3	-40.9	20.5	0.00e+00	0	44	0	0	50	4290
2026-01-18 11:26:49.48	263.42	25.07	-39.3	-40.9	20.5	0.00e+00	0	43	0	0	50	4290
2026-01-18 11:26:52.78	264.38	25.12	-39.3	-41.0	20.4	0.00e+00	0	44	0	0	50	4301
2026-01-18 11:26:55.50	265.18	25.15	-39.2	-40.9	20.4	0.00e+00	0	44	0	0	50	4261
2026-01-18 11:26:58.78	266.15	25.18	-39.2	-40.8	20.5	0.00e+00	0	44	0	0	50	4220
2026-01-18 11:27:01.49	266.95	25.20	-39.2	-40.8	20.4	0.00e+00	0	43	0	0	50	4220
2026-01-18 11:27:04.77	267.92	25.22	-39.5	-41.2	20.3	0.00e+00	0	44	0	0	50	4393
2026-01-18 11:27:07.49	268.72	25.23	-39.5	-41.1	20.2	0.00e+00	0	44	0	0	50	4389
2026-01-18 11:27:10.70	269.67	25.23	-39.4	-41.0	20.3	0.00e+00	0	43	0	0	50	4338
2026-01-18 11:27:13.69	270.55	25.22	-39.0	-40.7	20.6	0.00e+00	0	43	0	0	50	4151
2026-01-18 11:27:16.67	271.43	25.21	-39.2	-40.9	20.4	0.00e+00	0	44	0	0	50	4253
2026-01-18 11:27:19.66	272.31	25.19	-39.4	-41.0	20.3	0.00e+00	0	43	0	0	50	4335
2026-01-18 11:27:22.65	273.20	25.16	-39.2	-40.9	20.5	0.00e+00	0	44	0	0	50	4253
2026-01-18 11:27:25.63	274.07	25.13	-39.2	-40.8	20.6	0.00e+00	0	44	0	0	50	4230
2026-01-18 11:27:28.62	274.95	25.09	-39.2	-40.9	20.5	0.00e+00	0	44	0	0	50	4249
2026-01-18 11:27:31.60	275.82	25.04	-39.2	-40.8	20.6	0.00e+00	0	44	0	0	50	4216
2026-01-18 11:27:34.59	276.69	24.99	-39.1	-40.8	20.6	0.00e+00	0	43	0	0	50	4197
2026-01-18 11:27:37.85	277.64	24.92	-39.2	-40.9	20.5	0.00e+00	0	44	0	0	50	4266
2026-01-18 11:27:40.79	278.49	24.85	-39.3	-40.9	20.5	0.00e+00	0	43	0	0	50	4275
2026-01-18 11:27:44.08	279.43	24.77	-39.4	-41.1	20.4	0.00e+00	0	44	0	0	50	4342
2026-01-18 11:27:46.80	280.21	24.70	-38.9	-40.6	20.8	0.00e+00	0	43	0	0	50	4101
2026-01-18 11:27:50.03	281.13	24.60	-39.0	-40.6	20.7	0.00e+00	0	43	0	0	49	4358
2026-01-18 11:27:52.87	281.94	24.51	-39.2	-40.8	20.6	0.00e+00	0	44	0	0	49	4486
2026-01-18 11:27:56.00	282.82	24.41	-39.2	-40.8	20.5	0.00e+00	0	43	0	0	49	4454
2026-01-18 11:27:58.84	283.61	24.31	-39.1	-40.8	20.6	0.00e+00	0	43	0	0	49	4450
2026-01-18 11:28:02.07	284.51	24.19	-39.3	-40.9	20.6	0.00e+00	0	43	0	0	49	4511
2026-01-18 11:28:05.02	285.32	24.07	-39.4	-41.1	20.3	0.00e+00	0	44	0	0	49	4626
2026-01-18 11:28:08.01	286.14	23.95	-39.4	-41.1	20.4	0.00e+00	0	43	0	0	49	4621
2026-01-18 11:28:10.99	286.95	23.82	-39.3	-41.0	20.5	0.00e+00	0	43	0	0	49	4560
2026-01-18 11:28:13.98	287.75	23.69	-39.4	-41.0	20.5	0.00e+00	0	44	0	0	49	4595
2026-01-18 11:28:16.96	288.55	23.55	-39.4	-41.1	20.3	0.00e+00	0	43	0	0	49	4633
2026-01-18 11:28:19.94	289.34	23.41	-39.5	-41.2	20.3	0.00e+00	0	44	0	0	49	4659
2026-01-18 11:28:22.93	290.12	23.26	-39.4	-41.0	20.4	0.00e+00	0	44	0	0	49	4592
2026-01-18 11:28:25.91	290.89	23.11	-39.5	-41.2	20.3	0.00e+00	0	43	0	0	49	4688
2026-01-18 11:28:28.90	291.66	22.95	-39.5	-41.2	20.2	0.00e+00	0	44	0	0	49	4678
2026-01-18 11:28:31.89	292.42	22.79	-39.8	-41.4	20.0	0.00e+00	0	44	0	0	50	4538
2026-01-18 11:28:34.81	293.16	22.63	-39.6	-41.3	20.2	0.00e+00	0	44	0	0	50	4446
2026-01-18 11:28:38.14	293.99	22.44	-39.8	-41.5	19.9	0.00e+00	0	44	0	0	50	4584
2026-01-18 11:28:40.87	294.66	22.28	-39.7	-41.4	20.0	0.00e+00	0	44	0	0	50	4534
2026-01-18 11:28:44.15	295.46	22.09	-39.5	-41.2	20.1	0.00e+00	0	43	0	0	50	4421
2026-01-18 11:28:46.87	296.11	21.92	-39.6	-41.3	20.1	0.00e+00	0	44	0	0	50	4460
2026-01-18 11:28:50.39	296.95	21.71	-39.6	-41.3	20.1	0.00e+00	0	44	0	0	50	4449
2026-01-18 11:28:53.30	297.64	21.53	-39.7	-41.4	20.0	0.00e+00	0	44	0	0	50	4526
2026-01-18 11:28:57.27	298.56	21.28	-39.5	-41.1	20.3	0.00e+00	0	44	0	0	50	4381
2026-01-18 11:29:00.11	299.20	21.09	-39.6	-41.3	20.1	0.00e+00	0	43	0	0	50	4473
2026-01-18 11:29:04.15	300.12	20.83	-39.8	-41.5	19.9	0.00e+00	0	44	0	0	50	4570
2026-01-18 11:29:07.07	300.76	20.63	-39.6	-41.3	20.1	0.00e+00	0	43	0	0	50	4442
2026-01-18 11:29:10.79	301.58	20.39	-39.6	-41.3	20.1	0.00e+00	0	43	0	0	50	4479
2026-01-18 11:29:13.50	302.16	20.20	-39.8	-41.5	19.9	0.00e+00	0	43	0	0	50	4588
2026-01-18 11:29:16.78	302.86	19.98	-40.0	-41.8	19.7	0.00e+00	0	44	0	0	50	4715
2026-01-18 11:29:19.48	303.43	19.79	-40.0	-41.7	19.7	0.00e+00	0	44	0	0	50	4677
2026-01-18 11:29:22.75	304.11	19.56	-39.8	-41.5	19.7	0.00e+00	0	44	0	0	50	4597
2026-01-18 11:29:25.56	304.69	19.37	-39.7	-41.4	19.9	0.00e+00	0	44	0	0	50	4535
2026-01-18 11:29:28.82	305.35	19.14	-39.9	-41.6	19.8	0.00e+00	0	43	0	0	50	4627
2026-01-18 11:29:31.98	305.97	18.91	-40.1	-41.8	19.5	0.00e+00	0	44	0	0	50	4752
2026-01-18 11:29:34.82	306.53	18.71	-39.8	-41.6	19.7	0.00e+00	0	44	0	0	51	4346
2026-01-18 11:29:37.95	307.14	18.49	-39.7	-41.4	19.9	0.00e+00	0	44	0	0	51	4283
2026-01-18 11:29:40.79	307.68	18.28	-39.8	-41.5	19.9	0.00e+00	0	44	0	0	51	4316
2026-01-18 11:29:44.08	308.30	18.04	-39.7	-41.4	20.0	0.00e+00	0	44	0	0	51	4266
2026-01-18 11:29:46.81	308.81	17.85	-39.9	-41.6	19.8	0.00e+00	0	44	0	0	51	4355
2026-01-18 11:29:50.10	309.41	17.61	-40.0	-41.8	19.7	0.00e+00	0	44	0	0	51	4454
2026-01-18 11:29:52.82	309.90	17.41	-40.0	-41.7	19.7	0.00e+00	0	43	0	0	51	4425
2026-01-18 11:29:56.12	310.49	17.17	-40.0	-41.8	19.7	0.00e+00	0	44	0	0	51	4455
2026-01-18 11:29:58.85	310.97	16.97	-39.9	-41.7	19.7	0.00e+00	0	44	0	0	51	4407
2026-01-18 11:30:02.23	311.55	16.72	-40.1	-41.8	19.6	0.00e+00	0	44	0	0	51	4481
2026-01-18 11:30:04.98	312.02	16.52	-40.1	-41.8	19.6	0.00e+00	0	44	0	0	51	4477
2026-01-18 11:30:08.17	312.56	16.29	-40.2	-42.0	19.4	0.00e+00	0	44	0	0	51	4578
2026-01-18 11:30:11.29	313.08	16.06	-40.2	-41.9	19.5	0.00e+00	0	43	0	0	51	4536
2026-01-18 11:30:14.15	313.54	15.85	-40.2	-42.0	19.4	0.00e+00	0	44	0	0	51	4548
2026-01-18 11:30:17.42	314.07	15.61	-40.4	-42.2	19.2	0.00e+00	0	44	0	0	51	4685
2026-01-18 11:30:20.13	314.50	15.41	-40.7	-42.5	18.9	0.00e+00	0	44	0	0	51	4854
2026-01-18 11:30:23.43	315.02	15.17	-40.7	-42.5	18.8	0.00e+00	0	44	0	0	52	4598
2026-01-18 11:30:26.28	315.46	14.96	-40.8	-42.7	18.7	0.00e+00	0	43	0	0	52	4664
2026-01-18 11:30:29.40	315.93	14.73	-40.8	-42.7	18.7	0.00e+00	0	44	0	0	52	4679
2026-01-18 11:30:32.25	316.36	14.53	-40.7	-42.5	18.7	0.00e+00	0	44	0	0	52	4596
2026-01-18 11:30:35.37	316.82	14.30	-40.9	-42.8	18.5	0.00e+00	0	44	0	0	52	4743
2026-01-18 11:30:38.21	317.23	14.09	-40.9	-42.8	18.6	0.00e+00	0	44	0	0	52	4720
2026-01-18 11:30:41.34	317.68	13.87	-40.9	-42.7	18.7	0.00e+00	0	44	0	0	52	4694
2026-01-18 11:30:44.18	318.08	13.66	-40.8	-42.7	18.7	0.00e+00	0	44	0	0	52	4654
2026-01-18 11:30:47.32	318.52	13.44	-41.0	-42.9	18.5	0.00e+00	0	43	0	0	52	4786
2026-01-18 11:30:50.23	318.92	13.23	-41.1	-43.0	18.4	0.00e+00	0	44	0	0	52	4839
2026-01-18 11:30:53.36	319.35	13.00	-41.1	-43.0	18.4	0.00e+00	0	44	0	0	53	4598
2026-01-18 11:30:56.29	319.74	12.79	-41.1	-43.1	18.3	0.00e+00	0	44	0	0	53	4599
2026-01-18 11:30:59.47	320.16	12.57	-41.0	-42.9	18.4	0.00e+00	0	44	0	0	53	4529
2026-01-18 11:31:02.31	320.53	12.36	-41.1	-43.1	18.3	0.00e+00	0	44	0	0	53	4606
2026-01-18 11:31:05.44	320.93	12.14	-40.9	-42.9	18.4	0.00e+00	0	44	0	0	53	4499
2026-01-18 11:31:08.28	321.29	11.94	-41.1	-43.1	18.2	0.00e+00	0	44	0	0	53	4629
2026-01-18 11:31:11.43	321.68	11.72	-41.3	-43.4	18.0	0.00e+00	0	44	0	0	53	4791
2026-01-18 11:31:14.38	322.04	11.51	-41.3	-43.4	18.1	0.00e+00	0	44	0	0	53	4771
2026-01-18 11:31:17.63	322.44	11.29	-41.3	-43.3	18.1	0.00e+00	0	44	0	0	53	4706
2026-01-18 11:31:20.47	322.78	11.09	-41.2	-43.2	18.1	0.00e+00	0	44	0	0	53	4681
2026-01-18 11:31:23.60	323.15	10.87	-41.1	-43.1	18.2	0.00e+00	0	44	0	0	53	4638
2026-01-18 11:31:26.62	323.50	10.67	-41.0	-43.1	18.1	0.00e+00	0	44	0	0	53	4645
2026-01-18 11:31:29.74	323.86	10.45	-41.2	-43.3	18.0	0.00e+00	0	44	0	0	53	4734
2026-01-18 11:31:32.59	324.18	10.26	-41.1	-43.3	18.0	0.00e+00	0	44	0	0	53	4719
2026-01-18 11:31:35.71	324.53	10.04	-41.3	-43.5	17.9	0.00e+00	0	43	0	0	53	4839
2026-01-18 11:31:38.60	324.85	9.85	-41.2	-43.4	18.0	0.00e+00	0	44	0	0	53	4771
2026-01-18 11:31:41.89	325.20	9.63	-41.1	-43.3	18.0	0.00e+00	0	43	0	0	53	4733
2026-01-18 11:31:44.62	325.50	9.44	-41.2	-43.4	17.9	0.00e+00	0	44	0	0	53	4806
2026-01-18 11:31:48.24	325.88	9.20	-41.2	-43.4	17.9	0.00e+00	0	44	0	0	53	4772
2026-01-18 11:31:51.07	326.18	9.01	-41.4	-43.6	17.7	0.00e+00	0	44	0	0	53	4887
2026-01-18 11:31:55.05	326.58	8.75	-49.8	-63.3	3.8	1.49e+00	0	43	104	0	70	17869
2026-01-18 11:31:57.89	326.87	8.56	-49.5	-63.5	3.8	1.49e+00	0	44	104	0	71	17128
2026-01-18 11:32:02.00	327.28	8.29	-50.3	-63.6	3.8	1.49e+00	0	43	104	0	71	17306
2026-01-18 11:32:05.01	327.58	8.10	-50.4	-63.6	3.8	1.49e+00	0	44	104	0	71	17331
2026-01-18 11:32:08.51	327.92	7.87	-50.5	-63.6	3.8	1.49e+00	0	44	104	0	71	17328
2026-01-18 11:32:11.47	328.20	7.68	-50.4	-63.5	3.8	1.49e+00	0	44	104	0	71	17236
2026-01-18 11:32:15.00	328.53	7.45	-50.2	-63.5	3.8	1.49e+00	0	44	104	0	71	17142
2026-01-18 11:32:17.70	328.79	7.28	-50.2	-63.4	3.8	1.49e+00	0	43	104	0	71	17075
2026-01-18 11:32:20.96	329.09	7.07	-50.2	-63.4	3.8	1.49e+00	0	43	104	0	71	17068
2026-01-18 11:32:23.66	329.33	6.90	-50.2	-63.4	3.8	1.49e+00	0	43	104	0	71	17048
2026-01-18 11:32:26.94	329.62	6.69	-50.2	-63.4	3.8	1.49e+00	0	43	104	0	71	17020
2026-01-18 11:32:29.65	329.87	6.52	-50.2	-63.4	3.8	1.49e+00	0	44	104	0	71	17045
2026-01-18 11:32:32.91	330.15	6.32	-50.2	-63.4	3.8	1.49e+00	0	44	104	0	71	17079
2026-01-18 11:32:35.63	330.39	6.15	-50.2	-63.4	3.8	1.49e+00	0	43	104	0	71	17038
2026-01-18 11:32:38.91	330.67	5.95	-50.2	-63.4	3.8	1.49e+00	0	44	104	0	71	17023
2026-01-18 11:32:41.60	330.89	5.78	-50.2	-63.4	3.8	1.49e+00	0	43	104	0	71	17065
2026-01-18 11:32:44.88	331.17	5.58	-50.2	-63.4	3.8	1.49e+00	0	43	104	0	71	17018
2026-01-18 11:32:47.58	331.39	5.42	-50.2	-63.4	3.8	1.49e+00	0	44	104	0	71	17000
2026-01-18 11:32:50.85	331.66	5.22	-50.1	-63.4	3.8	1.49e+00	0	43	104	0	71	16961
2026-01-18 11:32:53.54	331.87	5.06	-50.1	-63.4	3.8	1.49e+00	0	44	104	0	71	16996

#Closed at: 2026-01-18 11:32:55
#Recorded file [0 MB]: D:/Data/31040_260118_142128.dat