passes_logs/2026/01/18/T1/T1__20260118_083045_SUOMI_NPP_rec.log

#Pass ID: 20260118_083045_SUOMI NPP
#Satellite: SUOMI NPP
#Configuration: NPP
#almurnet v.1.7.20251203
#Start time: 2026-01-18 08:30:46

#Version: 2.0.20230620
#Station: T1
#Location: 37.570604 lon 55.790049 lat
#TLE: 1 37849U 11061A   26017.57099531  .00000072  00000+0  54974-4 0  9996
#TLE: 2 37849  98.7814 319.5974 0002398  59.1749 300.9663 14.19525865737072

#Time	Az	El	Level	Level2	SNR	BER	BlckErr	Temp	State	Recorded	gain1	gain2
2026-01-18 08:30:46.10	113.08	5.01	-48.1	-63.3	3.8	1.49e+00	0	38	0	0	68	20068
2026-01-18 08:30:49.09	112.86	5.20	-48.1	-63.4	3.8	1.49e+00	0	38	104	0	68	20112
2026-01-18 08:30:52.08	112.63	5.39	-48.1	-63.3	3.8	1.49e+00	0	39	104	0	68	20001
2026-01-18 08:30:55.07	112.40	5.58	-48.1	-63.3	3.8	1.49e+00	0	39	104	0	68	19972
2026-01-18 08:30:58.06	112.16	5.77	-48.1	-63.1	3.8	1.49e+00	0	39	104	0	68	19546
2026-01-18 08:31:01.06	111.92	5.96	-48.1	-63.0	3.8	1.49e+00	0	39	104	0	68	19369
2026-01-18 08:31:04.04	111.68	6.15	-48.1	-63.2	3.8	1.49e+00	0	39	104	0	68	19677
2026-01-18 08:31:07.04	111.43	6.34	-48.1	-63.3	3.8	1.49e+00	0	39	104	0	68	19896
2026-01-18 08:31:10.03	111.19	6.54	-48.1	-63.1	3.8	1.49e+00	0	39	104	0	68	19555
2026-01-18 08:31:13.03	110.93	6.73	-48.1	-63.0	3.8	1.49e+00	0	39	104	0	68	19274
2026-01-18 08:31:16.02	110.68	6.93	-48.1	-63.0	3.8	1.49e+00	0	39	104	0	68	19302
2026-01-18 08:31:19.00	110.42	7.12	-48.0	-62.9	3.8	1.49e+00	0	39	104	0	68	19041
2026-01-18 08:31:22.00	110.16	7.32	-48.1	-63.0	3.8	1.49e+00	0	40	104	0	68	19245
2026-01-18 08:31:24.99	109.89	7.52	-48.1	-62.8	3.8	1.49e+00	0	39	104	0	68	18926
2026-01-18 08:31:27.98	109.62	7.72	-48.0	-62.2	3.8	1.49e+00	0	40	104	0	68	17579
2026-01-18 08:31:30.97	109.35	7.92	-48.1	-62.7	3.8	1.49e+00	0	40	104	0	68	18671
2026-01-18 08:31:33.96	109.07	8.12	-47.2	-55.6	6.2	4.91e-01	0	40	0	2097152	66	9256
2026-01-18 08:31:36.96	108.79	8.32	-44.9	-49.1	12.8	4.32e-04	0	40	0	7340032	61	5806
2026-01-18 08:31:39.95	108.50	8.53	-43.5	-46.7	15.3	7.00e-07	0	40	0	13631488	58	5256
2026-01-18 08:31:42.94	108.21	8.73	-44.7	-48.6	13.4	9.10e-06	0	40	0	18874368	59	6198
2026-01-18 08:31:45.94	107.92	8.94	-46.3	-52.2	9.7	2.78e-03	0	40	0	24117248	63	7373
2026-01-18 08:31:48.94	107.62	9.14	-44.9	-49.2	12.9	8.30e-06	0	40	0	30408704	60	6204
2026-01-18 08:31:51.93	107.31	9.35	-47.1	-55.7	6.5	7.41e-04	0	40	0	32505856	64	10460
2026-01-18 08:31:54.93	107.01	9.56	-44.4	-48.2	13.9	0.00e+00	0	40	0	38797312	60	5567
2026-01-18 08:31:57.92	106.69	9.77	-44.3	-47.9	14.2	7.00e-07	0	40	0	44040192	59	5702
2026-01-18 08:32:00.91	106.38	9.98	-44.1	-47.6	14.6	0.00e+00	0	40	0	50331648	59	5497
2026-01-18 08:32:03.90	106.06	10.19	-43.7	-47.0	15.2	0.00e+00	0	40	0	55574528	59	5108
2026-01-18 08:32:06.89	105.73	10.40	-44.5	-48.1	14.1	7.00e-07	0	40	0	60817408	59	5847
2026-01-18 08:32:09.89	105.40	10.61	-43.6	-46.7	15.5	0.00e+00	0	40	0	67108864	59	4950
2026-01-18 08:32:12.89	105.06	10.83	-43.6	-46.8	15.4	0.00e+00	0	40	0	72351744	59	5023
2026-01-18 08:32:15.88	104.72	11.04	-43.5	-46.7	15.5	0.00e+00	0	40	0	77594624	59	4930
2026-01-18 08:32:18.88	104.38	11.26	-43.2	-46.2	16.1	0.00e+00	0	40	0	83886080	58	4929
2026-01-18 08:32:21.87	104.03	11.47	-43.4	-46.4	15.9	0.00e+00	0	40	0	89128960	58	5071
2026-01-18 08:32:24.86	103.67	11.69	-42.8	-45.6	16.7	0.00e+00	0	40	0	94371840	57	4876
2026-01-18 08:32:27.86	103.31	11.91	-43.1	-46.0	16.3	0.00e+00	0	40	0	100663296	57	5117
2026-01-18 08:32:30.86	102.94	12.13	-42.7	-45.5	16.8	0.00e+00	0	40	0	105906176	57	4830
2026-01-18 08:32:33.86	102.56	12.35	-42.6	-45.3	16.9	0.00e+00	0	40	0	111149056	56	5031
2026-01-18 08:32:36.87	102.18	12.57	-42.6	-45.3	16.9	0.00e+00	0	40	0	117440512	56	5029
2026-01-18 08:32:39.88	101.80	12.79	-42.2	-44.7	17.6	0.00e+00	0	40	0	122683392	56	4677
2026-01-18 08:32:42.89	101.40	13.01	-42.6	-45.3	17.0	0.00e+00	0	41	0	128974848	56	5028
2026-01-18 08:32:45.89	101.01	13.24	-42.2	-44.8	17.5	0.00e+00	0	40	0	134217728	56	4729
2026-01-18 08:32:48.89	100.60	13.46	-42.2	-44.8	17.5	0.00e+00	0	40	0	139460608	56	4743
2026-01-18 08:32:51.89	100.19	13.69	-42.8	-45.6	16.8	0.00e+00	0	40	0	145752064	56	5197
2026-01-18 08:32:54.90	99.78	13.91	-41.7	-44.2	17.9	0.00e+00	0	40	0	150994944	55	4669
2026-01-18 08:32:57.90	99.35	14.14	-42.4	-45.2	17.0	0.00e+00	0	40	0	156237824	55	5238
2026-01-18 08:33:00.90	98.92	14.36	-42.0	-44.5	17.7	0.00e+00	0	41	0	162529280	55	4864
2026-01-18 08:33:03.91	98.49	14.59	-42.5	-45.3	16.9	0.00e+00	0	40	0	167772160	55	5304
2026-01-18 08:33:06.91	98.04	14.82	-42.7	-45.5	16.9	0.00e+00	0	41	0	174063616	56	5105
2026-01-18 08:33:09.91	97.59	15.04	-43.0	-45.9	16.5	0.00e+00	0	40	0	179306496	56	5349
2026-01-18 08:33:12.91	97.14	15.27	-43.0	-45.8	16.6	0.00e+00	0	40	0	184549376	57	5005
2026-01-18 08:33:15.92	96.67	15.50	-42.7	-45.4	17.0	0.00e+00	0	40	0	190840832	57	4798
2026-01-18 08:33:18.92	96.20	15.73	-42.9	-45.7	16.7	0.00e+00	0	40	0	196083712	57	4969
2026-01-18 08:33:21.93	95.72	15.96	-43.3	-46.2	16.3	0.00e+00	0	41	0	201326592	57	5241
2026-01-18 08:33:24.94	95.23	16.19	-43.5	-46.5	15.9	0.00e+00	0	40	0	207618048	57	5452
2026-01-18 08:33:27.94	94.74	16.41	-43.1	-45.9	16.5	0.00e+00	0	40	0	212860928	57	5082
2026-01-18 08:33:30.94	94.24	16.64	-42.7	-45.4	17.0	0.00e+00	0	40	0	218103808	57	4806
2026-01-18 08:33:33.94	93.73	16.87	-42.4	-45.0	17.4	0.00e+00	0	41	0	224395264	56	4860
2026-01-18 08:33:36.94	93.21	17.10	-43.0	-45.8	16.6	0.00e+00	0	41	0	229638144	56	5316
2026-01-18 08:33:39.96	92.69	17.33	-42.5	-45.1	17.3	0.00e+00	0	40	0	235929600	56	4924
2026-01-18 08:33:42.96	92.15	17.56	-42.8	-45.5	16.9	0.00e+00	0	40	0	241172480	56	5151
2026-01-18 08:33:45.96	91.61	17.78	-42.6	-45.2	17.2	0.00e+00	0	40	0	246415360	56	4982
2026-01-18 08:33:48.96	91.06	18.01	-42.9	-45.7	16.8	0.00e+00	0	40	0	252706816	56	5223
2026-01-18 08:33:51.96	90.51	18.23	-42.9	-45.8	16.7	0.00e+00	0	40	0	257949696	56	5307
2026-01-18 08:33:54.96	89.94	18.46	-42.6	-45.4	17.0	0.00e+00	0	40	0	263192576	56	5079
2026-01-18 08:33:57.97	89.37	18.68	-42.4	-45.0	17.4	0.00e+00	0	41	0	269484032	56	4863
2026-01-18 08:34:00.97	88.78	18.91	-41.9	-44.4	17.8	0.00e+00	0	40	0	274726912	55	4788
2026-01-18 08:34:03.97	88.19	19.13	-41.9	-44.5	17.7	0.00e+00	0	41	0	281018368	55	4870
2026-01-18 08:34:06.97	87.59	19.35	-41.7	-44.2	18.1	0.00e+00	0	41	0	286261248	55	4697
2026-01-18 08:34:09.96	86.98	19.57	-41.1	-43.5	18.8	0.00e+00	0	40	0	291504128	54	4563
2026-01-18 08:34:12.97	86.37	19.78	-40.9	-43.2	19.0	0.00e+00	0	40	0	297795584	53	4705
2026-01-18 08:34:15.97	85.74	20.00	-41.1	-43.5	18.7	0.00e+00	0	41	0	303038464	53	4843
2026-01-18 08:34:18.97	85.10	20.21	-41.1	-43.5	18.7	0.00e+00	0	40	0	308281344	53	4837
2026-01-18 08:34:21.97	84.46	20.43	-40.9	-43.3	19.0	0.00e+00	0	40	0	314572800	53	4710
2026-01-18 08:34:24.97	83.81	20.63	-40.6	-42.9	19.2	0.00e+00	0	40	0	319815680	53	4528
2026-01-18 08:34:27.98	83.14	20.84	-40.8	-43.1	19.1	0.00e+00	0	41	0	325058560	53	4617
2026-01-18 08:34:30.98	82.47	21.05	-40.8	-43.2	19.1	0.00e+00	0	41	0	331350016	53	4652
2026-01-18 08:34:33.98	81.79	21.25	-40.6	-42.9	19.3	0.00e+00	0	41	0	336592896	53	4506
2026-01-18 08:34:36.98	81.10	21.45	-40.7	-43.1	19.2	0.00e+00	0	41	0	342884352	52	4888
2026-01-18 08:34:39.98	80.40	21.65	-40.3	-42.6	19.4	0.00e+00	0	40	0	348127232	52	4630
2026-01-18 08:34:42.98	79.70	21.84	-40.2	-42.5	19.5	0.00e+00	0	41	0	353370112	52	4576
2026-01-18 08:34:45.98	78.98	22.03	-40.3	-42.6	19.4	0.00e+00	0	40	0	359661568	52	4618
2026-01-18 08:34:48.98	78.26	22.22	-40.1	-42.3	19.8	0.00e+00	0	40	0	364904448	51	4725
2026-01-18 08:34:51.98	77.52	22.40	-40.1	-42.3	19.7	0.00e+00	0	41	0	370147328	51	4747
2026-01-18 08:34:54.98	76.78	22.58	-40.0	-42.2	19.8	0.00e+00	0	40	0	376438784	51	4701
2026-01-18 08:34:57.99	76.03	22.76	-40.4	-42.7	19.4	0.00e+00	0	40	0	381681664	51	4979
2026-01-18 08:35:01.00	75.27	22.93	-40.6	-43.0	19.1	0.00e+00	0	40	0	386924544	52	4853
2026-01-18 08:35:04.00	74.50	23.10	-40.6	-43.0	19.2	0.00e+00	0	40	0	393216000	52	4836
2026-01-18 08:35:07.00	73.73	23.26	-40.5	-42.8	19.3	0.00e+00	0	41	0	398458880	52	4722
2026-01-18 08:35:10.00	72.94	23.42	-40.3	-42.5	19.5	0.00e+00	0	40	0	404750336	52	4595
2026-01-18 08:35:13.01	72.15	23.58	-40.1	-42.3	19.9	0.00e+00	0	40	0	409993216	51	4716
2026-01-18 08:35:16.01	71.35	23.72	-40.1	-42.3	19.8	0.00e+00	0	40	0	415236096	51	4750
2026-01-18 08:35:19.02	70.54	23.87	-39.7	-41.8	20.3	0.00e+00	0	40	0	421527552	51	4485
2026-01-18 08:35:22.02	69.73	24.00	-40.1	-42.3	19.9	0.00e+00	0	41	0	426770432	51	4713
2026-01-18 08:35:25.02	68.91	24.14	-40.7	-43.1	19.1	0.00e+00	0	41	0	432013312	52	4876
2026-01-18 08:35:28.02	68.08	24.26	-41.7	-44.3	17.9	0.00e+00	0	40	0	438304768	54	5023
2026-01-18 08:35:31.02	67.24	24.38	-42.5	-45.4	16.9	0.00e+00	0	40	0	443547648	55	5388
2026-01-18 08:35:34.03	66.40	24.50	-42.0	-44.8	17.5	0.00e+00	0	40	0	449839104	55	4984
2026-01-18 08:35:37.03	65.55	24.60	-41.5	-44.1	18.1	0.00e+00	0	41	0	455081984	54	4895
2026-01-18 08:35:40.03	64.70	24.71	-41.6	-44.3	17.9	0.00e+00	0	40	0	460324864	54	4984
2026-01-18 08:35:43.04	63.84	24.80	-41.7	-44.3	17.9	0.00e+00	0	40	0	466616320	54	5018
2026-01-18 08:35:46.05	62.98	24.89	-41.4	-44.0	18.1	0.00e+00	0	41	0	471859200	54	4851
2026-01-18 08:35:49.04	62.11	24.97	-42.4	-45.3	17.0	0.00e+00	0	40	0	477102080	55	5306
2026-01-18 08:35:52.04	61.24	25.04	-42.2	-45.1	17.1	0.00e+00	0	40	0	483393536	55	5198
2026-01-18 08:35:55.04	60.37	25.11	-42.0	-44.8	17.5	0.00e+00	0	40	0	488636416	55	5005
2026-01-18 08:35:58.05	59.49	25.17	-41.7	-44.5	17.8	0.00e+00	0	40	0	494927872	55	4820
2026-01-18 08:36:01.05	58.61	25.23	-42.2	-45.0	17.2	0.00e+00	0	40	0	500170752	55	5155
2026-01-18 08:36:04.06	57.72	25.27	-42.4	-45.2	17.1	0.00e+00	0	40	0	505413632	55	5279
2026-01-18 08:36:07.06	56.83	25.31	-42.0	-44.7	17.5	0.00e+00	0	40	0	511705088	55	4967
2026-01-18 08:36:10.07	55.94	25.34	-41.2	-43.7	18.5	0.00e+00	0	40	0	516947968	54	4655
2026-01-18 08:36:13.08	55.05	25.36	-41.5	-44.1	18.1	0.00e+00	0	40	0	522190848	54	4918
2026-01-18 08:36:16.08	54.16	25.38	-42.4	-45.4	16.8	0.00e+00	0	40	0	528482304	55	5388
2026-01-18 08:36:19.08	53.27	25.39	-42.2	-45.1	17.1	0.00e+00	0	41	0	533725184	55	5207
2026-01-18 08:36:22.08	52.38	25.39	-41.8	-44.5	17.7	0.00e+00	0	40	0	540016640	55	4849
2026-01-18 08:36:25.08	51.48	25.38	-41.2	-43.7	18.5	0.00e+00	0	40	0	545259520	54	4681
2026-01-18 08:36:28.09	50.59	25.36	-40.7	-43.0	19.1	0.00e+00	0	40	0	550502400	53	4590
2026-01-18 08:36:31.09	49.70	25.34	-40.8	-43.2	18.9	0.00e+00	0	40	0	556793856	53	4698
2026-01-18 08:36:34.09	48.81	25.31	-40.2	-42.5	19.6	0.00e+00	0	40	0	562036736	52	4561
2026-01-18 08:36:37.10	47.92	25.28	-40.2	-42.4	19.7	0.00e+00	0	40	0	567279616	51	4797
2026-01-18 08:36:40.10	47.04	25.23	-40.1	-42.3	19.9	0.00e+00	0	40	0	573571072	51	4752
2026-01-18 08:36:43.11	46.16	25.18	-39.8	-42.0	20.2	0.00e+00	0	40	0	578813952	51	4546
2026-01-18 08:36:46.11	45.28	25.12	-40.1	-42.2	20.0	0.00e+00	0	40	0	585105408	51	4704
2026-01-18 08:36:49.11	44.40	25.05	-40.4	-42.6	19.6	0.00e+00	0	40	0	590348288	52	4621
2026-01-18 08:36:52.12	43.53	24.98	-40.2	-42.4	19.8	0.00e+00	0	40	0	595591168	52	4503
2026-01-18 08:36:55.11	42.67	24.90	-40.8	-43.1	19.2	0.00e+00	0	40	0	601882624	52	4897
2026-01-18 08:36:58.12	41.81	24.81	-40.5	-42.7	19.5	0.00e+00	0	40	0	607125504	52	4656
2026-01-18 08:37:01.12	40.95	24.72	-41.9	-44.5	17.9	0.00e+00	0	40	0	612368384	54	5104
2026-01-18 08:37:04.12	40.10	24.62	-41.0	-43.3	18.9	0.00e+00	0	40	0	618659840	53	4749
2026-01-18 08:37:07.12	39.25	24.51	-41.5	-44.0	18.4	0.00e+00	0	40	0	623902720	53	5108
2026-01-18 08:37:10.13	38.41	24.40	-42.1	-44.8	17.6	0.00e+00	0	41	0	629145600	55	5007
2026-01-18 08:37:13.13	37.58	24.28	-42.1	-44.8	17.6	0.00e+00	0	41	0	635437056	55	5007
2026-01-18 08:37:16.13	36.75	24.15	-42.3	-45.2	17.2	0.00e+00	0	40	0	640679936	55	5235
2026-01-18 08:37:19.14	35.93	24.02	-42.3	-45.1	17.2	0.00e+00	0	40	0	646971392	55	5185
2026-01-18 08:37:22.14	35.12	23.88	-41.8	-44.5	17.8	0.00e+00	0	40	0	652214272	55	4855
2026-01-18 08:37:25.14	34.31	23.74	-42.1	-45.0	17.4	0.00e+00	0	41	0	657457152	55	5106
2026-01-18 08:37:28.15	33.51	23.59	-42.2	-45.1	17.2	0.00e+00	0	41	0	663748608	55	5169
2026-01-18 08:37:31.14	32.73	23.44	-41.7	-44.4	17.9	0.00e+00	0	41	0	668991488	55	4764
2026-01-18 08:37:34.14	31.94	23.29	-41.6	-44.3	18.0	0.00e+00	0	40	0	674234368	55	4718
2026-01-18 08:37:37.15	31.17	23.12	-42.2	-45.2	17.1	0.00e+00	0	41	0	680525824	55	5232
2026-01-18 08:37:40.15	30.40	22.96	-42.5	-45.4	17.0	0.00e+00	0	41	0	685768704	56	5065
2026-01-18 08:37:43.15	29.64	22.79	-41.4	-43.9	18.3	0.00e+00	0	40	0	692060160	54	4799
2026-01-18 08:37:46.15	28.90	22.61	-42.0	-44.7	17.4	0.00e+00	0	40	0	697303040	54	5279
2026-01-18 08:37:49.16	28.15	22.43	-42.3	-45.3	17.0	0.00e+00	0	40	0	702545920	55	5300
2026-01-18 08:37:52.16	27.42	22.25	-41.9	-44.6	17.6	0.00e+00	0	40	0	708837376	55	4922
2026-01-18 08:37:55.17	26.70	22.06	-41.1	-43.6	18.6	0.00e+00	0	41	0	714080256	54	4640
2026-01-18 08:37:58.17	25.98	21.87	-41.3	-44.0	18.1	0.00e+00	0	41	0	719323136	53	5159
2026-01-18 08:38:01.18	25.28	21.68	-41.9	-44.9	17.3	0.00e+00	0	40	0	725614592	54	5389
2026-01-18 08:38:04.18	24.58	21.48	-41.4	-44.1	18.1	0.00e+00	0	41	0	730857472	54	4915
2026-01-18 08:38:07.18	23.89	21.28	-40.2	-42.6	19.5	0.00e+00	0	40	0	736100352	52	4622
2026-01-18 08:38:10.18	23.21	21.08	-40.4	-42.8	19.4	0.00e+00	0	41	0	742391808	51	5024
2026-01-18 08:38:13.19	22.54	20.88	-40.7	-43.2	19.0	0.00e+00	0	40	0	747634688	52	4962
2026-01-18 08:38:16.19	21.88	20.67	-40.8	-43.3	18.9	0.00e+00	0	40	0	753926144	52	5033
2026-01-18 08:38:19.19	21.23	20.46	-40.7	-43.2	18.9	0.00e+00	0	40	0	759169024	52	4983
2026-01-18 08:38:22.19	20.59	20.25	-40.7	-43.2	18.9	0.00e+00	0	40	0	764411904	52	4971
2026-01-18 08:38:25.19	19.96	20.04	-41.0	-43.6	18.6	0.00e+00	0	41	0	770703360	52	5197
2026-01-18 08:38:28.20	19.33	19.82	-40.9	-43.5	18.7	0.00e+00	0	40	0	775946240	52	5121
2026-01-18 08:38:31.20	18.72	19.61	-41.4	-44.1	18.2	0.00e+00	0	41	0	781189120	53	5167
2026-01-18 08:38:34.19	18.11	19.39	-40.8	-43.2	18.9	0.00e+00	0	40	0	787480576	53	4697
2026-01-18 08:38:37.20	17.51	19.17	-40.7	-43.1	19.0	0.00e+00	0	40	0	792723456	53	4643
2026-01-18 08:38:40.21	16.92	18.95	-40.9	-43.5	18.7	0.00e+00	0	40	0	799014912	53	4849
2026-01-18 08:38:43.21	16.34	18.73	-40.4	-42.7	19.4	0.00e+00	0	40	0	804257792	52	4659
2026-01-18 08:38:46.21	15.77	18.50	-40.1	-42.3	19.8	0.00e+00	0	40	0	809500672	52	4478
2026-01-18 08:38:49.21	15.21	18.28	-40.2	-42.5	19.7	0.00e+00	0	40	0	815792128	51	4816
2026-01-18 08:38:52.22	14.65	18.06	-40.6	-43.0	19.2	0.00e+00	0	41	0	821035008	52	4853
2026-01-18 08:38:55.22	14.10	17.83	-40.7	-43.2	19.0	0.00e+00	0	40	0	826277888	52	4971
2026-01-18 08:38:58.22	13.56	17.60	-40.0	-42.4	19.8	0.00e+00	0	40	0	832569344	51	4768
2026-01-18 08:39:01.24	13.03	17.38	-40.2	-42.6	19.6	0.00e+00	0	40	0	837812224	51	4923
2026-01-18 08:39:04.24	12.51	17.15	-40.5	-43.1	19.1	0.00e+00	0	40	0	843055104	52	4890
2026-01-18 08:39:07.25	11.99	16.92	-40.5	-43.2	19.0	0.00e+00	0	41	0	849346560	52	4978
2026-01-18 08:39:10.25	11.49	16.70	-40.4	-43.0	19.1	0.00e+00	0	40	0	854589440	52	4854
2026-01-18 08:39:13.25	10.99	16.47	-40.1	-42.5	19.7	0.00e+00	0	40	0	860880896	51	4824
2026-01-18 08:39:16.26	10.49	16.24	-40.5	-43.0	19.2	0.00e+00	0	40	0	866123776	51	5129
2026-01-18 08:39:19.27	10.01	16.01	-41.0	-43.8	18.4	0.00e+00	0	40	0	871366656	52	5323
2026-01-18 08:39:22.28	9.53	15.78	-41.1	-43.8	18.4	0.00e+00	0	40	0	877658112	53	5007
2026-01-18 08:39:25.28	9.06	15.56	-40.9	-43.4	18.7	0.00e+00	0	40	0	882900992	53	4795
2026-01-18 08:39:28.28	8.60	15.33	-40.5	-43.1	19.1	0.00e+00	0	40	0	888143872	52	4899
2026-01-18 08:39:31.28	8.15	15.10	-40.8	-43.4	18.8	0.00e+00	0	40	0	894435328	52	5071
2026-01-18 08:39:34.29	7.70	14.88	-41.3	-44.0	18.2	0.00e+00	0	40	0	899678208	53	5150
2026-01-18 08:39:37.29	7.26	14.65	-41.9	-45.0	17.3	0.00e+00	0	40	0	905969664	54	5435
2026-01-18 08:39:40.29	6.83	14.43	-41.6	-44.7	17.7	0.00e+00	0	40	0	911212544	54	5220
2026-01-18 08:39:43.29	6.40	14.20	-40.8	-43.4	18.8	0.00e+00	0	40	0	916455424	53	4782
2026-01-18 08:39:46.29	5.98	13.98	-40.7	-43.3	18.9	0.00e+00	0	41	0	922746880	52	4987
2026-01-18 08:39:49.29	5.56	13.75	-41.1	-43.8	18.4	0.00e+00	0	40	0	927989760	52	5312
2026-01-18 08:39:52.29	5.16	13.53	-41.2	-43.9	18.3	0.00e+00	0	40	0	933232640	53	5060
2026-01-18 08:39:55.30	4.76	13.31	-41.1	-43.7	18.5	0.00e+00	0	40	0	939524096	53	4963
2026-01-18 08:39:58.30	4.36	13.08	-41.1	-43.9	18.3	0.00e+00	0	40	0	944766976	53	5064
2026-01-18 08:40:01.31	3.97	12.86	-41.2	-43.9	18.3	0.00e+00	0	40	0	951058432	53	5067
2026-01-18 08:40:04.31	3.59	12.64	-41.4	-44.0	18.1	0.00e+00	0	40	0	956301312	53	5151
2026-01-18 08:40:07.32	3.21	12.42	-41.6	-44.2	18.0	0.00e+00	0	40	0	961544192	53	5263
2026-01-18 08:40:10.32	2.84	12.20	-42.1	-45.1	17.2	0.00e+00	0	40	0	967835648	54	5480
2026-01-18 08:40:13.32	2.47	11.98	-42.1	-45.2	17.0	0.00e+00	0	40	0	973078528	55	5227
2026-01-18 08:40:16.33	2.11	11.76	-41.8	-44.6	17.6	0.00e+00	0	40	0	978321408	55	4901
2026-01-18 08:40:19.32	1.76	11.55	-41.8	-44.6	17.6	0.00e+00	0	40	0	984612864	55	4915
2026-01-18 08:40:22.33	1.41	11.33	-41.5	-44.7	17.5	0.00e+00	0	40	0	989855744	54	5265
2026-01-18 08:40:25.33	1.06	11.12	-42.1	-45.5	16.8	0.00e+00	0	40	0	995098624	55	5425
2026-01-18 08:40:28.33	0.72	10.90	-42.6	-45.7	16.5	0.00e+00	0	40	0	1001390080	55	5589
2026-01-18 08:40:31.33	0.39	10.69	-42.1	-45.1	17.1	0.00e+00	0	41	0	1006632960	55	5206
2026-01-18 08:40:34.34	0.06	10.47	-41.8	-44.7	17.4	0.00e+00	0	40	0	1012924416	55	4962
2026-01-18 08:40:37.34	359.74	10.26	-41.5	-44.4	17.8	0.00e+00	0	40	0	1018167296	55	4768
2026-01-18 08:40:40.35	359.42	10.05	-42.0	-45.0	17.1	0.00e+00	0	40	0	1023410176	55	5156
2026-01-18 08:40:43.35	359.10	9.84	-42.6	-45.8	16.4	0.00e+00	0	40	0	1029701632	55	5656
2026-01-18 08:40:46.35	358.79	9.63	-43.4	-46.8	15.5	0.00e+00	0	40	0	1034944512	57	5650
2026-01-18 08:40:49.36	358.48	9.42	-43.6	-47.4	15.0	0.00e+00	0	40	0	1040187392	58	5706
2026-01-18 08:40:52.35	358.19	9.22	-43.4	-47.7	14.7	7.00e-07	0	40	0	1046478848	58	5876
2026-01-18 08:40:55.36	357.89	9.01	-42.8	-47.5	14.8	0.00e+00	0	40	0	1051721728	57	6106
2026-01-18 08:40:58.35	357.60	8.81	-48.0	-63.9	3.8	1.49e+00	0	40	104	1052770304	67	22609
2026-01-18 08:41:01.34	357.31	8.60	-48.6	-64.1	3.8	1.49e+00	0	40	104	1052770304	67	23118
2026-01-18 08:41:04.33	357.03	8.40	-48.5	-64.3	3.8	1.49e+00	0	40	104	1052770304	68	22351
2026-01-18 08:41:07.32	356.75	8.20	-48.8	-64.4	3.8	1.49e+00	0	40	104	1052770304	68	22560
2026-01-18 08:41:10.30	356.47	8.00	-49.2	-64.4	3.8	1.49e+00	0	40	104	1052770304	68	22613
2026-01-18 08:41:13.29	356.20	7.80	-48.8	-64.4	3.8	1.49e+00	0	40	104	1052770304	69	21446
2026-01-18 08:41:16.28	355.94	7.60	-49.2	-64.4	3.8	1.49e+00	0	40	104	1052770304	69	21376
2026-01-18 08:41:19.27	355.67	7.40	-49.2	-64.4	3.8	1.49e+00	0	40	104	1052770304	69	21280
2026-01-18 08:41:22.26	355.41	7.21	-49.1	-64.3	3.8	1.49e+00	0	40	104	1052770304	69	21248
2026-01-18 08:41:25.25	355.16	7.01	-48.8	-64.3	3.8	1.49e+00	0	40	104	1052770304	69	21194
2026-01-18 08:41:28.24	354.91	6.82	-48.8	-64.3	3.8	1.49e+00	0	40	104	1052770304	69	21175
2026-01-18 08:41:31.23	354.66	6.62	-48.8	-64.3	3.8	1.49e+00	0	40	104	1052770304	69	21155
2026-01-18 08:41:34.22	354.41	6.43	-48.8	-64.3	3.8	1.49e+00	0	40	104	1052770304	69	21102
2026-01-18 08:41:37.21	354.17	6.24	-48.8	-64.3	3.8	1.49e+00	0	40	104	1052770304	69	21047
2026-01-18 08:41:40.20	353.93	6.05	-48.8	-64.3	3.8	1.49e+00	0	40	104	1052770304	69	21119
2026-01-18 08:41:43.19	353.69	5.86	-48.8	-64.3	3.8	1.49e+00	0	40	104	1052770304	69	21038
2026-01-18 08:41:46.18	353.46	5.67	-48.8	-64.3	3.8	1.49e+00	0	40	104	1052770304	69	21035
2026-01-18 08:41:49.16	353.23	5.48	-48.8	-64.3	3.8	1.49e+00	0	40	104	1052770304	69	21061
2026-01-18 08:41:52.15	353.01	5.29	-48.8	-64.3	3.8	1.49e+00	0	40	104	1052770304	69	21064
2026-01-18 08:41:55.14	352.78	5.11	-48.8	-64.2	3.8	1.49e+00	0	40	104	1052770304	69	21013

#Closed at: 2026-01-18 08:41:58
#Recorded file [1052 MB]: D:/Data/31040_260118_113046.dat