passes_logs/2026/01/18/T1/T1__20260118_220726_FENGYUN_3G_rec.log

#Pass ID: 20260118_220726_FENGYUN 3G
#Satellite: FENGYUN 3G
#Configuration: FENGYUN 3G
#almurnet v.1.7.20251203
#Start time: 2026-01-18 22:07:27

#Version: 2.0.20230620
#Station: T1
#Location: 37.570604 lon 55.790049 lat
#TLE: 1 56232U 23055A   26017.94343179  .00026793  00000+0  41706-3 0  9996
#TLE: 2 56232  49.9938  40.7454 0004132  42.1181 318.0104 15.53646528156658

#Time	Az	El	Level	Level2	SNR	BER	BlckErr	Temp	State	Recorded	gain1	gain2
2026-01-18 22:07:27.57	250.54	5.26	-49.7	-68.5	3.8	8.47e-01	0	38	0	0	71	30547
2026-01-18 22:07:29.55	250.37	5.41	-49.6	-68.4	3.8	8.47e-01	0	38	104	0	71	30256
2026-01-18 22:07:31.54	250.20	5.56	-49.6	-68.3	3.8	8.47e-01	0	38	104	0	71	29995
2026-01-18 22:07:33.52	250.02	5.72	-49.6	-68.2	3.8	8.46e-01	0	38	104	0	71	29648
2026-01-18 22:07:35.51	249.84	5.87	-49.6	-68.1	3.8	8.48e-01	0	38	104	0	71	29171
2026-01-18 22:07:37.50	249.66	6.03	-49.6	-68.2	3.8	8.48e-01	0	38	104	0	71	29424
2026-01-18 22:07:39.48	249.48	6.19	-49.6	-68.2	3.8	8.47e-01	0	38	104	0	71	29390
2026-01-18 22:07:41.47	249.30	6.35	-49.6	-68.2	3.8	8.46e-01	0	38	104	0	71	29391
2026-01-18 22:07:43.46	249.11	6.51	-49.6	-68.0	3.8	8.46e-01	0	38	104	0	71	28871
2026-01-18 22:07:45.44	248.92	6.68	-49.6	-68.2	3.8	8.47e-01	0	38	104	0	71	29564
2026-01-18 22:07:47.43	248.72	6.84	-49.6	-68.4	3.8	8.48e-01	0	38	104	0	71	30130
2026-01-18 22:07:49.42	248.53	7.01	-49.6	-68.2	3.8	8.48e-01	0	38	104	0	71	29633
2026-01-18 22:07:51.41	248.32	7.17	-49.6	-68.1	3.8	8.47e-01	0	38	104	0	71	29346
2026-01-18 22:07:53.39	248.12	7.34	-49.6	-68.3	3.8	8.46e-01	0	39	104	0	71	29814
2026-01-18 22:07:55.38	247.91	7.51	-49.6	-67.6	3.8	8.47e-01	0	38	104	0	71	27543
2026-01-18 22:07:57.37	247.70	7.68	-49.5	-66.4	3.8	8.47e-01	0	38	104	0	71	24045
2026-01-18 22:07:59.35	247.49	7.86	-49.5	-66.6	3.8	8.46e-01	0	39	104	0	71	24505
2026-01-18 22:08:01.34	247.27	8.03	-49.6	-68.0	3.8	8.45e-01	0	39	104	0	71	28784
2026-01-18 22:08:03.32	247.05	8.21	-49.6	-66.7	3.8	8.48e-01	0	39	104	0	71	24959
2026-01-18 22:08:05.31	246.82	8.38	-49.5	-65.4	3.9	8.47e-01	0	39	104	0	71	21474
2026-01-18 22:08:07.30	246.59	8.56	-49.5	-64.6	4.3	8.42e-01	0	39	0	0	71	19523
2026-01-18 22:08:09.28	246.36	8.74	-48.9	-58.2	8.8	7.85e-01	0	39	0	0	69	10419
2026-01-18 22:08:11.27	246.12	8.93	-47.3	-52.9	14.2	1.02e-03	0	39	0	0	66	6776
2026-01-18 22:08:13.25	245.88	9.11	-46.6	-51.3	15.9	0.00e+00	0	39	0	0	65	5943
2026-01-18 22:08:15.21	245.64	9.29	-43.1	-45.9	21.5	0.00e+00	0	39	0	0	58	4770
2026-01-18 22:08:17.24	245.38	9.48	-46.3	-50.6	16.3	2.21e-02	0	39	0	0	64	5829
2026-01-18 22:08:19.24	245.13	9.67	-44.3	-47.5	19.9	0.00e+00	0	39	0	0	60	5116
2026-01-18 22:08:21.23	244.87	9.86	-43.8	-46.7	20.6	0.00e+00	0	39	0	0	59	4954
2026-01-18 22:08:23.24	244.60	10.06	-43.3	-46.1	21.0	0.00e+00	0	39	0	0	58	4897
2026-01-18 22:08:25.24	244.33	10.25	-42.9	-45.5	21.9	0.00e+00	0	39	0	0	57	4867
2026-01-18 22:08:27.23	244.05	10.45	-42.9	-45.6	21.7	0.00e+00	0	39	0	0	57	4890
2026-01-18 22:08:29.24	243.77	10.65	-42.6	-45.1	22.3	0.00e+00	0	39	0	0	56	4926
2026-01-18 22:08:31.24	243.49	10.85	-42.1	-44.6	22.6	0.00e+00	0	39	0	0	55	4907
2026-01-18 22:08:33.32	243.18	11.06	-41.8	-44.2	23.0	0.00e+00	0	39	0	0	54	4969
2026-01-18 22:08:35.34	242.88	11.27	-41.1	-43.4	23.7	0.00e+00	0	39	0	0	54	4539
2026-01-18 22:08:37.66	242.53	11.51	-40.6	-42.8	24.3	0.00e+00	0	39	0	0	52	4741
2026-01-18 22:08:39.68	242.22	11.72	-40.4	-42.6	24.4	0.00e+00	0	39	0	0	52	4646
2026-01-18 22:08:41.69	241.90	11.94	-40.4	-42.6	24.5	0.00e+00	0	39	0	0	52	4629
2026-01-18 22:08:43.69	241.58	12.15	-40.0	-42.2	24.9	0.00e+00	0	39	0	0	51	4657
2026-01-18 22:08:45.70	241.25	12.37	-40.1	-42.2	24.9	0.00e+00	0	39	0	0	51	4693
2026-01-18 22:08:47.70	240.91	12.59	-39.7	-41.8	25.2	0.00e+00	0	39	0	0	51	4489
2026-01-18 22:08:49.70	240.57	12.81	-39.9	-42.1	25.0	0.00e+00	0	39	0	0	51	4607
2026-01-18 22:08:51.84	240.20	13.04	-39.8	-41.9	25.2	0.00e+00	0	39	0	0	51	4530
2026-01-18 22:08:53.83	239.84	13.27	-39.9	-42.0	25.0	0.00e+00	0	39	0	0	51	4597
2026-01-18 22:08:56.20	239.41	13.54	-39.7	-41.8	25.3	0.00e+00	0	39	0	0	51	4489
2026-01-18 22:08:58.19	239.04	13.76	-39.5	-41.6	25.4	0.00e+00	0	39	0	0	50	4602
2026-01-18 22:09:00.18	238.66	13.99	-39.6	-41.7	25.4	0.00e+00	0	39	0	0	50	4670
2026-01-18 22:09:02.17	238.28	14.23	-39.4	-41.5	25.6	0.00e+00	0	39	0	0	50	4552
2026-01-18 22:09:04.16	237.89	14.46	-39.6	-41.8	25.4	0.00e+00	0	39	0	0	50	4706
2026-01-18 22:09:06.15	237.48	14.70	-39.4	-41.5	25.6	0.00e+00	0	39	0	0	50	4556
2026-01-18 22:09:08.12	237.08	14.94	-39.3	-41.3	25.7	0.00e+00	0	39	0	0	50	4485
2026-01-18 22:09:10.22	236.64	15.19	-38.9	-41.0	26.0	0.00e+00	0	39	0	0	49	4561
2026-01-18 22:09:12.16	236.22	15.43	-38.8	-40.8	26.2	0.00e+00	0	39	0	0	49	4466
2026-01-18 22:09:14.15	235.78	15.67	-38.4	-40.5	26.5	0.00e+00	0	39	0	0	48	4546
2026-01-18 22:09:16.14	235.34	15.92	-38.8	-40.9	26.1	0.00e+00	0	39	0	0	48	4778
2026-01-18 22:09:18.13	234.88	16.17	-38.6	-40.6	26.3	0.00e+00	0	39	0	0	48	4634
2026-01-18 22:09:20.12	234.42	16.42	-38.5	-40.5	26.5	0.00e+00	0	39	0	0	48	4560
2026-01-18 22:09:22.14	233.94	16.68	-38.1	-40.0	26.8	0.00e+00	0	39	0	0	48	4340
2026-01-18 22:09:24.13	233.45	16.94	-38.1	-40.0	26.8	0.00e+00	0	39	0	0	47	4596
2026-01-18 22:09:26.18	232.94	17.21	-38.3	-40.3	26.5	0.00e+00	0	39	0	0	47	4715
2026-01-18 22:09:28.23	232.42	17.47	-38.4	-40.4	26.5	0.00e+00	0	39	0	0	47	4777
2026-01-18 22:09:30.25	231.89	17.74	-38.3	-40.3	26.6	0.00e+00	0	39	0	0	47	4732
2026-01-18 22:09:32.31	231.34	18.02	-38.4	-40.4	26.4	0.00e+00	0	39	0	0	47	4785
2026-01-18 22:09:34.30	230.80	18.28	-38.4	-40.4	26.4	0.00e+00	0	39	0	0	47	4807
2026-01-18 22:09:36.29	230.25	18.55	-38.0	-40.0	26.8	0.00e+00	0	39	0	0	47	4571
2026-01-18 22:09:38.28	229.68	18.82	-38.0	-40.0	26.8	0.00e+00	0	39	0	0	47	4547
2026-01-18 22:09:40.27	229.10	19.09	-37.6	-39.6	27.1	0.00e+00	0	39	0	0	46	4629
2026-01-18 22:09:42.27	228.51	19.37	-37.8	-39.8	27.0	0.00e+00	0	39	0	0	46	4738
2026-01-18 22:09:44.26	227.90	19.64	-37.8	-39.7	27.0	0.00e+00	0	39	0	0	46	4703
2026-01-18 22:09:46.24	227.29	19.92	-37.8	-39.7	27.0	0.00e+00	0	39	0	0	46	4688
2026-01-18 22:09:48.24	226.65	20.20	-37.3	-39.3	27.4	0.00e+00	0	39	0	0	46	4458
2026-01-18 22:09:50.43	225.94	20.50	-37.1	-39.0	27.6	0.00e+00	0	39	0	0	46	4335
2026-01-18 22:09:52.62	225.21	20.81	-37.4	-39.3	27.4	0.00e+00	0	39	0	0	46	4466
2026-01-18 22:09:54.61	224.54	21.09	-37.6	-39.5	27.3	0.00e+00	0	39	0	0	46	4584
2026-01-18 22:09:56.60	223.84	21.37	-37.5	-39.5	27.2	0.00e+00	0	39	0	0	46	4552
2026-01-18 22:09:58.59	223.14	21.65	-37.1	-39.0	27.6	0.00e+00	0	39	0	0	46	4338
2026-01-18 22:10:00.60	222.41	21.94	-36.7	-38.6	27.9	0.00e+00	0	39	0	0	45	4341
2026-01-18 22:10:02.62	221.66	22.22	-36.8	-38.7	27.9	0.00e+00	0	39	0	0	45	4417
2026-01-18 22:10:04.65	220.88	22.51	-37.0	-39.0	27.7	0.00e+00	0	39	0	0	45	4550
2026-01-18 22:10:06.93	220.00	22.83	-37.2	-39.1	27.5	0.00e+00	0	39	0	0	45	4618
2026-01-18 22:10:08.95	219.20	23.12	-37.0	-38.9	27.7	0.00e+00	0	39	0	0	45	4509
2026-01-18 22:10:10.94	218.39	23.39	-36.7	-38.6	28.0	0.00e+00	0	39	0	0	45	4361
2026-01-18 22:10:12.93	217.56	23.67	-36.7	-38.6	28.0	0.00e+00	0	39	0	0	45	4344
2026-01-18 22:10:14.94	216.71	23.95	-37.0	-38.9	27.7	0.00e+00	0	39	0	0	45	4524
2026-01-18 22:10:17.03	215.81	24.23	-37.0	-38.9	27.7	0.00e+00	0	39	0	0	45	4498
2026-01-18 22:10:19.02	214.93	24.51	-36.7	-38.6	28.0	0.00e+00	0	39	0	0	45	4367
2026-01-18 22:10:21.04	214.02	24.78	-36.9	-38.8	27.8	0.00e+00	0	39	0	0	45	4491
2026-01-18 22:10:23.05	213.10	25.04	-36.6	-38.5	28.0	0.00e+00	0	39	0	0	45	4321
2026-01-18 22:10:25.03	212.17	25.30	-36.3	-38.2	28.3	0.00e+00	0	39	0	0	44	4417
2026-01-18 22:10:27.02	211.22	25.56	-36.8	-38.7	27.9	0.00e+00	0	39	0	0	44	4663
2026-01-18 22:10:29.01	210.25	25.81	-36.6	-38.5	27.9	0.00e+00	0	39	0	0	44	4549
2026-01-18 22:10:31.05	209.24	26.06	-36.4	-38.3	28.2	0.00e+00	0	39	0	0	44	4448
2026-01-18 22:10:33.04	208.24	26.30	-36.1	-38.0	28.5	0.00e+00	0	39	0	0	44	4303
2026-01-18 22:10:35.03	207.22	26.54	-36.3	-38.2	28.3	0.00e+00	0	39	0	0	44	4424
2026-01-18 22:10:37.27	206.05	26.80	-36.3	-38.2	28.3	0.00e+00	0	39	0	0	44	4411
2026-01-18 22:10:39.28	204.98	27.02	-36.1	-38.0	28.4	0.00e+00	0	39	0	0	44	4324
2026-01-18 22:10:41.26	203.91	27.23	-35.9	-37.8	28.4	0.00e+00	0	39	0	0	43	4445
2026-01-18 22:10:43.25	202.82	27.44	-36.0	-37.9	28.4	0.00e+00	0	39	0	0	43	4520
2026-01-18 22:10:45.26	201.71	27.64	-35.7	-37.5	28.7	0.00e+00	0	39	0	0	43	4333
2026-01-18 22:10:47.26	200.58	27.82	-36.2	-38.1	28.2	0.00e+00	0	39	0	0	43	4605
2026-01-18 22:10:49.24	199.45	28.00	-36.0	-37.9	28.4	0.00e+00	0	39	0	0	43	4514
2026-01-18 22:10:51.23	198.30	28.17	-35.6	-37.5	28.7	0.00e+00	0	39	0	0	43	4311
2026-01-18 22:10:53.22	197.14	28.33	-35.8	-37.6	28.1	0.00e+00	0	39	0	0	43	4385
2026-01-18 22:10:55.21	195.96	28.48	-36.0	-37.8	28.4	0.00e+00	0	39	0	0	43	4484
2026-01-18 22:10:57.27	194.73	28.62	-35.9	-37.8	28.5	0.00e+00	0	39	0	0	43	4448
2026-01-18 22:10:59.27	193.53	28.74	-36.1	-37.9	28.3	0.00e+00	0	39	0	0	43	4530
2026-01-18 22:11:01.26	192.32	28.85	-36.5	-38.4	28.0	0.00e+00	0	39	0	0	43	4773
2026-01-18 22:11:03.25	191.10	28.95	-36.8	-38.7	28.0	0.00e+00	0	39	0	0	44	4655
2026-01-18 22:11:05.36	189.81	29.05	-36.7	-38.6	28.1	0.00e+00	0	39	0	0	44	4640
2026-01-18 22:11:07.38	188.55	29.12	-36.7	-38.6	28.0	0.00e+00	0	39	0	0	44	4614
2026-01-18 22:11:09.47	187.25	29.18	-36.2	-38.1	28.4	0.00e+00	0	39	0	0	44	4358
2026-01-18 22:11:11.46	186.01	29.23	-36.2	-38.0	28.4	0.00e+00	0	39	0	0	44	4338
2026-01-18 22:11:13.45	184.76	29.26	-36.4	-38.3	28.2	0.00e+00	0	39	0	0	44	4471
2026-01-18 22:11:15.44	183.51	29.28	-36.5	-38.4	28.1	0.00e+00	0	39	0	0	44	4534
2026-01-18 22:11:17.44	182.26	29.29	-36.1	-38.0	28.4	0.00e+00	0	39	0	0	44	4314
2026-01-18 22:11:19.43	181.01	29.28	-36.4	-38.3	28.2	0.00e+00	0	39	0	0	44	4461
2026-01-18 22:11:21.47	179.73	29.25	-36.3	-38.2	28.3	0.00e+00	0	39	0	0	44	4424
2026-01-18 22:11:23.46	178.48	29.22	-36.4	-38.3	28.3	0.00e+00	0	39	0	0	44	4450
2026-01-18 22:11:25.45	177.24	29.17	-36.4	-38.3	28.2	0.00e+00	0	39	0	0	44	4449
2026-01-18 22:11:27.44	176.00	29.11	-36.5	-38.4	28.2	0.00e+00	0	39	0	0	44	4522
2026-01-18 22:11:29.43	174.77	29.03	-36.6	-38.5	28.0	0.00e+00	0	39	0	0	44	4590
2026-01-18 22:11:31.41	173.55	28.94	-35.9	-37.8	28.5	0.00e+00	0	39	0	0	43	4443
2026-01-18 22:11:33.41	172.33	28.84	-35.9	-37.8	28.4	0.00e+00	0	39	0	0	43	4482
2026-01-18 22:11:35.40	171.13	28.72	-36.1	-38.0	28.2	0.00e+00	0	39	0	0	42	4861
2026-01-18 22:11:37.39	169.93	28.60	-36.2	-38.0	28.2	0.00e+00	0	39	0	0	43	4594
2026-01-18 22:11:39.38	168.74	28.46	-36.0	-37.9	28.4	0.00e+00	0	39	0	0	43	4495
2026-01-18 22:11:41.51	167.49	28.30	-35.9	-37.8	28.5	0.00e+00	0	39	0	0	43	4448
2026-01-18 22:11:43.50	166.33	28.14	-35.9	-37.8	28.4	0.00e+00	0	39	0	0	43	4466
2026-01-18 22:11:45.75	165.03	27.95	-35.7	-37.6	28.5	0.00e+00	0	39	0	0	43	4367
2026-01-18 22:11:48.03	163.74	27.74	-35.5	-37.4	28.7	0.00e+00	0	39	0	0	43	4254
2026-01-18 22:11:50.02	162.62	27.55	-35.5	-37.4	28.7	0.00e+00	0	39	0	0	42	4512
2026-01-18 22:11:52.03	161.52	27.35	-35.8	-37.6	28.5	0.00e+00	0	39	0	0	42	4647
2026-01-18 22:11:54.03	160.43	27.14	-36.4	-38.3	28.0	0.00e+00	0	39	0	0	43	4752
2026-01-18 22:11:56.02	159.36	26.92	-36.1	-38.0	28.2	0.00e+00	0	39	0	0	43	4592
2026-01-18 22:11:58.13	158.25	26.68	-35.5	-37.4	28.7	0.00e+00	0	39	0	0	43	4250
2026-01-18 22:12:00.12	157.22	26.45	-35.8	-37.7	28.5	0.00e+00	0	39	0	0	42	4690
2026-01-18 22:12:02.24	156.14	26.20	-36.2	-38.1	27.9	0.00e+00	0	39	0	0	43	4627
2026-01-18 22:12:04.23	155.15	25.96	-36.6	-38.5	27.9	0.00e+00	0	39	0	0	43	4839
2026-01-18 22:12:06.22	154.17	25.71	-36.4	-38.3	28.0	0.00e+00	0	39	0	0	43	4746
2026-01-18 22:12:08.21	153.21	25.45	-36.1	-38.0	28.3	0.00e+00	0	39	0	0	43	4562
2026-01-18 22:12:10.21	152.26	25.19	-36.3	-38.3	28.0	0.00e+00	0	39	0	0	43	4706
2026-01-18 22:12:12.21	151.34	24.93	-36.4	-38.3	28.0	0.00e+00	0	39	0	0	43	4757
2026-01-18 22:12:14.16	150.45	24.67	-36.2	-38.1	28.2	0.00e+00	0	39	0	0	43	4647
2026-01-18 22:12:16.15	149.56	24.40	-36.1	-38.0	28.3	0.00e+00	0	39	0	0	43	4557
2026-01-18 22:12:18.14	148.69	24.13	-36.3	-38.2	27.8	0.00e+00	0	39	0	0	43	4703
2026-01-18 22:12:20.33	147.75	23.83	-37.0	-39.0	27.6	0.00e+00	0	39	0	0	44	4821
2026-01-18 22:12:22.32	146.92	23.56	-37.0	-39.0	27.6	0.00e+00	0	39	0	0	45	4547
2026-01-18 22:12:24.31	146.10	23.28	-36.4	-38.3	28.1	0.00e+00	0	39	0	0	44	4470
2026-01-18 22:12:26.31	145.29	23.00	-36.8	-38.7	27.8	0.00e+00	0	39	0	0	44	4690
2026-01-18 22:12:28.30	144.51	22.72	-36.9	-38.8	27.6	0.00e+00	0	39	0	0	44	4748
2026-01-18 22:12:30.29	143.74	22.44	-37.0	-39.0	27.6	0.00e+00	0	39	0	0	44	4817
2026-01-18 22:12:32.33	142.97	22.15	-36.9	-38.8	27.7	0.00e+00	0	39	0	0	44	4741
2026-01-18 22:12:34.32	142.24	21.87	-36.9	-38.9	27.7	0.00e+00	0	39	0	0	44	4766
2026-01-18 22:12:36.43	141.48	21.57	-37.2	-39.2	27.4	0.00e+00	0	39	0	0	45	4672
2026-01-18 22:12:38.62	140.71	21.26	-37.5	-39.4	27.2	0.00e+00	0	39	0	0	45	4807
2026-01-18 22:12:40.82	139.95	20.95	-37.4	-39.4	27.3	0.00e+00	0	39	0	0	45	4760
2026-01-18 22:12:42.81	139.28	20.67	-37.1	-39.1	27.5	0.00e+00	0	39	0	0	45	4606
2026-01-18 22:12:44.79	138.63	20.39	-37.5	-39.4	27.2	0.00e+00	0	39	0	0	45	4809
2026-01-18 22:12:46.79	137.98	20.11	-37.3	-39.3	27.1	0.00e+00	0	39	0	0	45	4735
2026-01-18 22:12:48.79	137.35	19.84	-37.6	-39.6	27.1	0.00e+00	0	39	0	0	45	4873
2026-01-18 22:12:50.79	136.74	19.56	-37.8	-39.8	26.9	0.00e+00	0	39	0	0	46	4743
2026-01-18 22:12:52.80	136.13	19.28	-37.8	-39.8	26.9	0.00e+00	0	39	0	0	46	4731
2026-01-18 22:12:54.79	135.55	19.01	-37.6	-39.6	27.1	0.00e+00	0	39	0	0	46	4628
2026-01-18 22:12:56.78	134.97	18.74	-37.8	-39.8	26.9	0.00e+00	0	39	0	0	46	4753
2026-01-18 22:12:58.78	134.41	18.47	-38.2	-40.2	26.5	0.00e+00	0	39	0	0	46	4955
2026-01-18 22:13:00.80	133.85	18.20	-37.7	-39.7	26.9	0.00e+00	0	39	0	0	46	4685
2026-01-18 22:13:02.79	133.31	17.93	-38.0	-40.0	26.7	0.00e+00	0	39	0	0	46	4845
2026-01-18 22:13:04.78	132.79	17.67	-38.2	-40.2	26.6	0.00e+00	0	39	0	0	47	4673
2026-01-18 22:13:06.77	132.27	17.40	-38.3	-40.4	26.5	0.00e+00	0	39	0	0	47	4786
2026-01-18 22:13:08.76	131.77	17.14	-38.4	-40.5	26.3	0.00e+00	0	39	0	0	47	4817
2026-01-18 22:13:10.73	131.28	16.89	-38.7	-40.7	26.2	0.00e+00	0	39	0	0	48	4681
2026-01-18 22:13:12.81	130.78	16.62	-38.7	-40.8	26.1	0.00e+00	0	39	0	0	48	4720
2026-01-18 22:13:14.83	130.30	16.36	-38.4	-40.4	26.4	0.00e+00	0	39	0	0	48	4522
2026-01-18 22:13:16.83	129.83	16.11	-38.4	-40.5	26.4	0.00e+00	0	39	0	0	48	4556
2026-01-18 22:13:18.81	129.38	15.86	-38.6	-40.6	26.3	0.00e+00	0	39	0	0	48	4644
2026-01-18 22:13:20.87	128.93	15.61	-38.9	-41.0	25.9	0.00e+00	0	39	0	0	48	4828
2026-01-18 22:13:22.85	128.49	15.36	-39.2	-41.3	25.7	0.00e+00	0	39	0	0	49	4743
2026-01-18 22:13:24.84	128.07	15.12	-39.5	-41.7	25.3	0.00e+00	0	39	0	0	49	4934
2026-01-18 22:13:26.83	127.65	14.88	-39.2	-41.3	25.6	0.00e+00	0	39	0	0	49	4731
2026-01-18 22:13:28.84	127.24	14.64	-39.2	-41.3	25.6	0.00e+00	0	39	0	0	49	4731
2026-01-18 22:13:30.83	126.84	14.40	-39.3	-41.3	25.6	0.00e+00	0	39	0	0	49	4758
2026-01-18 22:13:32.97	126.42	14.15	-39.8	-41.9	25.1	0.00e+00	0	39	0	0	50	4798
2026-01-18 22:13:35.03	126.03	13.91	-39.9	-42.1	24.9	0.00e+00	0	39	0	0	50	4910
2026-01-18 22:13:37.03	125.65	13.68	-39.7	-41.9	25.1	0.00e+00	0	39	0	0	50	4778
2026-01-18 22:13:39.02	125.29	13.46	-39.8	-41.9	25.1	0.00e+00	0	39	0	0	50	4786
2026-01-18 22:13:41.01	124.93	13.23	-39.9	-42.1	24.9	0.00e+00	0	39	0	0	50	4897
2026-01-18 22:13:43.02	124.57	13.01	-40.0	-42.2	24.8	0.00e+00	0	39	0	0	50	4967
2026-01-18 22:13:45.00	124.23	12.79	-40.2	-42.4	24.6	0.00e+00	0	39	0	0	51	4783
2026-01-18 22:13:47.00	123.89	12.57	-40.1	-42.3	24.7	0.00e+00	0	39	0	0	51	4716
2026-01-18 22:13:48.98	123.56	12.35	-40.1	-42.3	24.7	0.00e+00	0	39	0	0	51	4741
2026-01-18 22:13:50.99	123.23	12.14	-40.3	-42.6	24.4	0.00e+00	0	39	0	0	51	4878
2026-01-18 22:13:52.98	122.91	11.92	-40.5	-42.8	24.2	0.00e+00	0	39	0	0	51	4991
2026-01-18 22:13:54.97	122.59	11.71	-40.5	-42.7	24.2	0.00e+00	0	39	0	0	52	4700
2026-01-18 22:13:56.99	122.28	11.50	-40.4	-42.7	24.2	0.00e+00	0	39	0	0	52	4669
2026-01-18 22:13:58.98	121.98	11.30	-40.9	-43.2	23.7	0.00e+00	0	39	0	0	52	4957
2026-01-18 22:14:00.97	121.68	11.09	-41.2	-43.6	23.4	0.00e+00	0	39	0	0	52	5161
2026-01-18 22:14:02.96	121.39	10.89	-41.0	-43.4	23.6	0.00e+00	0	39	0	0	53	4772
2026-01-18 22:14:05.09	121.09	10.67	-40.8	-43.2	23.8	0.00e+00	0	39	0	0	53	4652
2026-01-18 22:14:07.08	120.81	10.48	-40.9	-43.3	23.6	0.00e+00	0	39	0	0	53	4721
2026-01-18 22:14:09.07	120.53	10.28	-40.8	-43.2	23.7	0.00e+00	0	39	0	0	53	4665
2026-01-18 22:14:11.06	120.27	10.08	-41.5	-43.9	23.1	0.00e+00	0	39	0	0	53	5056
2026-01-18 22:14:13.05	120.00	9.89	-41.6	-44.2	22.8	0.00e+00	0	39	0	0	53	5224
2026-01-18 22:14:15.03	119.74	9.70	-42.1	-44.6	22.4	0.00e+00	0	39	0	0	54	5197
2026-01-18 22:14:17.10	119.48	9.51	-42.0	-44.6	22.4	0.00e+00	0	39	0	0	54	5173
2026-01-18 22:14:19.12	119.22	9.31	-41.8	-44.3	22.6	0.00e+00	0	39	0	0	54	5036
2026-01-18 22:14:21.21	118.96	9.12	-41.9	-44.4	22.5	0.00e+00	0	39	0	0	54	5081
2026-01-18 22:14:23.19	118.72	8.94	-49.3	-66.0	3.3	0.00e+00	0	39	104	0	69	25624
2026-01-18 22:14:25.18	118.48	8.75	-49.9	-68.8	3.8	7.27e-01	0	39	104	0	70	33588
2026-01-18 22:14:27.17	118.25	8.57	-50.1	-69.0	3.8	8.47e-01	0	39	104	0	70	34238
2026-01-18 22:14:29.15	118.02	8.40	-50.3	-69.0	3.8	8.48e-01	0	39	104	0	71	32536
2026-01-18 22:14:31.22	117.79	8.21	-50.2	-69.1	3.8	8.46e-01	0	39	104	0	71	32702
2026-01-18 22:14:33.27	117.56	8.03	-50.0	-69.1	3.8	8.47e-01	0	39	104	0	71	32844
2026-01-18 22:14:35.34	117.33	7.85	-50.1	-69.2	3.8	8.48e-01	0	39	104	0	71	32976
2026-01-18 22:14:37.38	117.11	7.67	-50.1	-69.2	3.8	8.47e-01	0	39	104	0	71	33021
2026-01-18 22:14:39.43	116.90	7.49	-50.0	-69.2	3.8	8.46e-01	0	39	104	0	71	33087
