passes_logs/2026/01/18/T1/T1__20260118_080155_NOAA_21_JPSS-2_rec.log

#Pass ID: 20260118_080155_NOAA 21 (JPSS-2)
#Satellite: NOAA 21 (JPSS-2)
#Configuration: NOAA 21
#almurnet v.1.7.20251203
#Start time: 2026-01-18 08:01:56

#Version: 2.0.20230620
#Station: T1
#Location: 37.570604 lon 55.790049 lat
#TLE: 1 54234U 22150A   26017.62066529  .00000042  00000+0  40984-4 0  9994
#TLE: 2 54234  98.7502 318.4887 0000613 271.5460  88.5645 14.19535234165189

#Time	Az	El	Level	Level2	SNR	BER	BlckErr	Temp	State	Recorded	gain1	gain2
2026-01-18 08:01:56.12	99.66	5.04	-48.1	-61.2	3.8	1.49e+00	0	41	0	0	68	15734
2026-01-18 08:01:59.10	99.38	5.21	-48.1	-61.2	3.8	1.49e+00	0	41	104	0	68	15597
2026-01-18 08:02:02.07	99.10	5.37	-48.1	-61.2	3.8	1.49e+00	0	41	104	0	68	15613
2026-01-18 08:02:05.05	98.81	5.54	-48.1	-61.2	3.8	1.49e+00	0	41	104	0	68	15646
2026-01-18 08:02:08.03	98.52	5.71	-48.1	-61.2	3.8	1.49e+00	0	42	104	0	68	15676
2026-01-18 08:02:11.01	98.23	5.88	-48.1	-61.2	3.8	1.49e+00	0	41	104	0	68	15636
2026-01-18 08:02:13.99	97.93	6.06	-48.1	-61.2	3.8	1.49e+00	0	42	104	0	68	15651
2026-01-18 08:02:16.97	97.63	6.23	-48.1	-61.2	3.8	1.49e+00	0	42	104	0	68	15644
2026-01-18 08:02:19.95	97.33	6.40	-48.1	-61.1	3.8	1.49e+00	0	42	104	0	68	15505
2026-01-18 08:02:22.93	97.02	6.57	-48.1	-61.0	3.8	1.49e+00	0	42	104	0	68	15272
2026-01-18 08:02:25.91	96.71	6.74	-48.0	-60.8	3.8	1.49e+00	0	42	104	0	68	15031
2026-01-18 08:02:28.89	96.39	6.92	-48.1	-60.9	3.8	1.49e+00	0	42	104	0	68	15209
2026-01-18 08:02:31.87	96.07	7.09	-48.1	-60.9	3.8	1.49e+00	0	42	104	0	68	15181
2026-01-18 08:02:34.85	95.75	7.26	-48.0	-60.5	3.8	1.49e+00	0	42	104	0	68	14389
2026-01-18 08:02:37.83	95.42	7.44	-47.8	-59.8	3.8	1.49e+00	0	42	104	0	67	14173
2026-01-18 08:02:40.81	95.09	7.61	-47.9	-60.3	3.8	1.49e+00	0	42	104	0	67	14960
2026-01-18 08:02:43.79	94.76	7.78	-47.9	-60.6	3.8	1.49e+00	0	42	104	0	67	15456
2026-01-18 08:02:46.77	94.42	7.96	-47.8	-59.4	3.8	1.49e+00	0	42	104	0	67	13463
2026-01-18 08:02:49.75	94.07	8.13	-47.7	-59.1	3.9	1.49e+00	0	42	104	0	67	13030
2026-01-18 08:02:52.73	93.73	8.31	-47.5	-57.3	3.9	1.46e+00	0	43	104	0	67	10607
2026-01-18 08:02:55.71	93.37	8.48	-43.7	-46.8	13.1	1.14e-04	0	43	0	0	59	5003
2026-01-18 08:02:58.69	93.02	8.66	-41.0	-43.2	16.5	0.00e+00	0	43	0	0	54	4418
2026-01-18 08:03:01.67	92.66	8.84	-41.9	-44.4	15.4	0.00e+00	0	42	0	0	54	5048
2026-01-18 08:03:04.65	92.29	9.01	-45.5	-50.0	9.9	3.85e-03	0	43	0	0	61	6440
2026-01-18 08:03:07.63	91.92	9.19	-46.7	-53.1	6.9	4.29e-02	0	43	0	0	64	7797
2026-01-18 08:03:10.62	91.55	9.36	-43.3	-46.1	13.4	1.14e+00	0	43	104	0	58	4905
2026-01-18 08:03:13.59	91.17	9.54	-40.4	-42.5	17.3	0.00e+00	0	43	0	0	52	4553
2026-01-18 08:03:16.97	90.74	9.74	-39.9	-41.8	18.0	0.00e+00	0	43	0	0	51	4472
2026-01-18 08:03:19.67	90.38	9.90	-39.5	-41.4	18.5	0.00e+00	0	43	0	0	51	4259
2026-01-18 08:03:23.23	89.91	10.11	-39.4	-41.3	18.5	0.00e+00	0	43	0	0	50	4468
2026-01-18 08:03:25.93	89.55	10.27	-39.4	-41.3	18.6	0.00e+00	0	43	0	0	50	4464
2026-01-18 08:03:29.22	89.11	10.46	-39.2	-41.0	18.9	0.00e+00	0	43	0	0	50	4309
2026-01-18 08:03:32.07	88.72	10.63	-39.3	-41.1	18.7	0.00e+00	0	43	0	0	50	4381
2026-01-18 08:03:35.50	88.24	10.83	-39.3	-41.2	18.7	0.00e+00	0	43	0	0	50	4398
2026-01-18 08:03:38.22	87.86	10.99	-39.2	-41.0	18.8	0.00e+00	0	43	0	0	50	4327
2026-01-18 08:03:41.48	87.39	11.18	-39.4	-41.3	18.6	0.00e+00	0	43	0	0	50	4467
2026-01-18 08:03:44.22	87.00	11.35	-39.3	-41.2	18.7	0.00e+00	0	43	0	0	50	4402
2026-01-18 08:03:47.48	86.52	11.54	-39.4	-41.3	18.6	0.00e+00	0	43	0	0	50	4465
2026-01-18 08:03:50.20	86.12	11.69	-39.2	-41.1	18.8	0.00e+00	0	43	0	0	50	4366
2026-01-18 08:03:53.75	85.59	11.90	-39.2	-41.1	18.8	0.00e+00	0	43	0	0	50	4372
2026-01-18 08:03:56.45	85.18	12.06	-39.1	-40.9	18.9	0.00e+00	0	43	0	0	50	4275
2026-01-18 08:03:59.73	84.68	12.25	-39.1	-41.0	18.8	0.00e+00	0	43	0	0	50	4327
2026-01-18 08:04:02.49	84.25	12.41	-39.3	-41.2	18.6	0.00e+00	0	43	0	0	50	4426
2026-01-18 08:04:05.76	83.74	12.60	-39.8	-41.8	18.3	0.00e+00	0	43	0	0	50	4731
2026-01-18 08:04:08.58	83.29	12.76	-39.2	-41.1	18.8	0.00e+00	0	43	0	0	50	4372
2026-01-18 08:04:11.70	82.79	12.94	-39.4	-41.3	18.7	0.00e+00	0	43	0	0	50	4461
2026-01-18 08:04:14.55	82.33	13.10	-39.5	-41.4	18.6	0.00e+00	0	43	0	0	50	4505
2026-01-18 08:04:17.68	81.81	13.27	-39.3	-41.2	18.8	0.00e+00	0	43	0	0	50	4400
2026-01-18 08:04:20.63	81.32	13.44	-39.1	-41.0	19.0	0.00e+00	0	43	0	0	50	4293
2026-01-18 08:04:23.76	80.80	13.61	-39.1	-40.9	19.1	0.00e+00	0	43	0	0	50	4266
2026-01-18 08:04:26.60	80.31	13.77	-39.0	-40.8	19.2	0.00e+00	0	43	0	0	49	4442
2026-01-18 08:04:29.73	79.78	13.94	-38.9	-40.7	19.2	0.00e+00	0	44	0	0	49	4428
2026-01-18 08:04:32.57	79.28	14.10	-39.0	-40.8	19.1	0.00e+00	0	43	0	0	49	4461
2026-01-18 08:04:35.90	78.70	14.28	-39.1	-40.9	19.1	0.00e+00	0	43	0	0	49	4525
2026-01-18 08:04:38.62	78.21	14.42	-39.3	-41.1	18.9	0.00e+00	0	43	0	0	49	4617
2026-01-18 08:04:41.92	77.62	14.60	-39.2	-41.0	19.0	0.00e+00	0	43	0	0	49	4572
2026-01-18 08:04:44.64	77.12	14.74	-39.1	-40.9	19.1	0.00e+00	0	43	0	0	49	4517
2026-01-18 08:04:47.92	76.52	14.91	-39.1	-41.0	19.1	0.00e+00	0	43	0	0	49	4547
2026-01-18 08:04:50.79	75.99	15.06	-39.1	-40.8	19.1	0.00e+00	0	43	0	0	49	4493
2026-01-18 08:04:54.14	75.36	15.23	-39.1	-40.8	19.1	0.00e+00	0	43	0	0	49	4490
2026-01-18 08:04:56.96	74.82	15.37	-38.9	-40.7	19.2	0.00e+00	0	43	0	0	49	4415
2026-01-18 08:05:00.22	74.20	15.54	-39.1	-40.9	19.0	0.00e+00	0	43	0	0	49	4531
2026-01-18 08:05:02.95	73.67	15.67	-39.0	-40.8	19.2	0.00e+00	0	43	0	0	49	4472
2026-01-18 08:05:06.22	73.03	15.83	-39.0	-40.8	19.2	0.00e+00	0	43	0	0	49	4461
2026-01-18 08:05:09.09	72.46	15.96	-39.0	-40.8	19.3	0.00e+00	0	43	0	0	49	4453
2026-01-18 08:05:12.22	71.84	16.11	-38.8	-40.5	19.5	0.00e+00	0	43	0	0	49	4335
2026-01-18 08:05:15.07	71.27	16.24	-38.7	-40.4	19.6	0.00e+00	0	43	0	0	49	4273
2026-01-18 08:05:18.19	70.63	16.38	-38.4	-40.1	19.8	0.00e+00	0	43	0	0	48	4387
2026-01-18 08:05:21.03	70.05	16.51	-38.4	-40.1	19.7	0.00e+00	0	43	0	0	48	4380
2026-01-18 08:05:24.16	69.41	16.64	-38.4	-40.1	19.7	0.00e+00	0	43	0	0	48	4363
2026-01-18 08:05:27.32	68.75	16.78	-38.5	-40.2	19.6	0.00e+00	0	43	0	0	48	4436
2026-01-18 08:05:30.40	68.10	16.91	-38.5	-40.2	19.6	0.00e+00	0	43	0	0	48	4431
2026-01-18 08:05:33.25	67.49	17.02	-38.5	-40.2	19.6	0.00e+00	0	43	0	0	48	4408
2026-01-18 08:05:36.37	66.83	17.14	-38.5	-40.2	19.8	0.00e+00	0	44	0	0	48	4399
2026-01-18 08:05:39.22	66.21	17.25	-38.6	-40.3	19.7	0.00e+00	0	43	0	0	48	4475
2026-01-18 08:05:42.34	65.54	17.37	-38.4	-40.1	19.9	0.00e+00	0	44	0	0	48	4357
2026-01-18 08:05:45.18	64.92	17.47	-38.2	-39.9	20.0	0.00e+00	0	43	0	0	48	4255
2026-01-18 08:05:48.31	64.23	17.58	-38.4	-40.1	19.9	0.00e+00	0	44	0	0	48	4348
2026-01-18 08:05:51.15	63.60	17.68	-38.2	-39.9	19.9	0.00e+00	0	43	0	0	48	4276
2026-01-18 08:05:54.28	62.90	17.78	-38.2	-39.9	19.9	0.00e+00	0	43	0	0	48	4291
2026-01-18 08:05:57.19	62.25	17.87	-38.4	-40.2	19.7	0.00e+00	0	43	0	0	48	4400
2026-01-18 08:06:00.32	61.54	17.97	-38.6	-40.3	19.7	0.00e+00	0	43	0	0	48	4474
2026-01-18 08:06:03.23	60.88	18.05	-38.8	-40.5	19.5	0.00e+00	0	43	0	0	48	4596
2026-01-18 08:06:06.51	60.13	18.14	-38.6	-40.3	19.7	0.00e+00	0	44	0	0	48	4481
2026-01-18 08:06:09.28	59.49	18.22	-38.6	-40.3	19.7	0.00e+00	0	43	0	0	48	4462
2026-01-18 08:06:12.55	58.73	18.30	-38.7	-40.4	19.6	0.00e+00	0	43	0	0	48	4508
2026-01-18 08:06:15.26	58.11	18.36	-38.5	-40.2	19.8	0.00e+00	0	43	0	0	48	4427
2026-01-18 08:06:18.54	57.34	18.43	-38.6	-40.3	19.7	0.00e+00	0	43	0	0	48	4481
2026-01-18 08:06:21.24	56.71	18.49	-38.8	-40.6	19.4	0.00e+00	0	43	0	0	48	4623
2026-01-18 08:06:24.51	55.94	18.55	-38.6	-40.3	19.7	0.00e+00	0	43	0	0	48	4470
2026-01-18 08:06:27.21	55.30	18.60	-38.7	-40.4	19.6	0.00e+00	0	43	0	0	48	4537
2026-01-18 08:06:30.84	54.44	18.66	-38.5	-40.2	19.8	0.00e+00	0	43	0	0	48	4440
2026-01-18 08:06:33.73	53.76	18.70	-38.6	-40.4	19.7	0.00e+00	0	44	0	0	48	4503
2026-01-18 08:06:37.36	52.89	18.75	-38.5	-40.2	19.8	0.00e+00	0	43	0	0	48	4423
2026-01-18 08:06:40.07	52.25	18.78	-38.5	-40.2	19.8	0.00e+00	0	43	0	0	48	4424
2026-01-18 08:06:43.82	51.35	18.82	-38.6	-40.3	19.8	0.00e+00	0	43	0	0	48	4453
2026-01-18 08:06:46.53	50.70	18.84	-38.7	-40.5	19.5	0.00e+00	0	44	0	0	48	4566
2026-01-18 08:06:49.82	49.91	18.86	-38.6	-40.3	19.7	0.00e+00	0	43	0	0	48	4456
2026-01-18 08:06:52.55	49.25	18.87	-38.4	-40.0	20.0	0.00e+00	0	43	0	0	48	4340
2026-01-18 08:06:55.83	48.46	18.89	-38.3	-40.0	20.0	0.00e+00	0	43	0	0	48	4314
2026-01-18 08:06:58.69	47.78	18.89	-38.4	-40.1	19.9	0.00e+00	0	43	0	0	48	4369
2026-01-18 08:07:02.10	46.96	18.89	-38.7	-40.4	19.7	0.00e+00	0	44	0	0	48	4510
2026-01-18 08:07:05.32	46.18	18.89	-38.6	-40.3	19.7	0.00e+00	0	44	0	0	48	4474
2026-01-18 08:07:08.16	45.50	18.88	-38.6	-40.3	19.7	0.00e+00	0	44	0	0	48	4450
2026-01-18 08:07:11.29	44.75	18.86	-38.6	-40.4	19.7	0.00e+00	0	43	0	0	48	4509
2026-01-18 08:07:14.13	44.06	18.84	-38.6	-40.3	19.6	0.00e+00	0	43	0	0	48	4491
2026-01-18 08:07:17.26	43.31	18.82	-38.3	-40.0	19.9	0.00e+00	0	43	0	0	48	4333
2026-01-18 08:07:20.10	42.63	18.79	-38.4	-40.1	20.0	0.00e+00	0	44	0	0	48	4349
2026-01-18 08:07:23.23	41.89	18.76	-38.6	-40.3	19.8	0.00e+00	0	44	0	0	48	4458
2026-01-18 08:07:26.07	41.21	18.72	-38.7	-40.4	19.7	0.00e+00	0	44	0	0	48	4526
2026-01-18 08:07:29.28	40.45	18.68	-38.6	-40.3	19.7	0.00e+00	0	44	0	0	48	4456
2026-01-18 08:07:32.12	39.78	18.63	-38.4	-40.1	19.8	0.00e+00	0	43	0	0	48	4387
2026-01-18 08:07:35.25	39.04	18.58	-38.4	-40.1	19.9	0.00e+00	0	44	0	0	48	4385
2026-01-18 08:07:38.09	38.37	18.53	-38.5	-40.2	19.9	0.00e+00	0	43	0	0	48	4412
2026-01-18 08:07:41.22	37.64	18.47	-38.2	-39.9	20.0	0.00e+00	0	44	0	0	48	4282
2026-01-18 08:07:44.06	36.97	18.41	-38.2	-39.9	20.1	0.00e+00	0	44	0	0	48	4268
2026-01-18 08:07:47.19	36.25	18.33	-38.3	-40.0	20.0	0.00e+00	0	44	0	0	48	4306
2026-01-18 08:07:50.03	35.59	18.27	-38.4	-40.1	20.0	0.00e+00	0	43	0	0	48	4351
2026-01-18 08:07:53.16	34.87	18.19	-38.2	-39.9	20.1	0.00e+00	0	44	0	0	48	4270
2026-01-18 08:07:56.00	34.22	18.11	-38.3	-40.0	20.0	0.00e+00	0	44	0	0	48	4328
2026-01-18 08:07:59.13	33.51	18.02	-38.5	-40.2	19.8	0.00e+00	0	44	0	0	48	4420
2026-01-18 08:08:01.97	32.86	17.94	-38.4	-40.1	20.0	0.00e+00	0	44	0	0	48	4371
2026-01-18 08:08:05.09	32.16	17.84	-38.5	-40.2	19.9	0.00e+00	0	44	0	0	48	4415
2026-01-18 08:08:08.03	31.51	17.75	-38.6	-40.3	19.8	0.00e+00	0	43	0	0	48	4489
2026-01-18 08:08:11.02	30.84	17.65	-38.6	-40.3	19.8	0.00e+00	0	44	0	0	48	4473
2026-01-18 08:08:14.00	30.18	17.55	-38.5	-40.2	19.9	0.00e+00	0	43	0	0	48	4429
2026-01-18 08:08:16.99	29.53	17.44	-38.6	-40.3	19.8	0.00e+00	0	44	0	0	48	4459
2026-01-18 08:08:19.97	28.88	17.34	-38.6	-40.3	19.7	0.00e+00	0	43	0	0	48	4473
2026-01-18 08:08:22.96	28.24	17.22	-38.5	-40.3	19.8	0.00e+00	0	44	0	0	48	4459
2026-01-18 08:08:25.94	27.60	17.11	-38.4	-40.2	19.9	0.00e+00	0	44	0	0	48	4407
2026-01-18 08:08:28.93	26.96	16.99	-38.4	-40.1	19.8	0.00e+00	0	43	0	0	48	4389
2026-01-18 08:08:31.96	26.32	16.87	-38.3	-40.0	19.9	0.00e+00	0	44	0	0	48	4338
2026-01-18 08:08:34.94	25.70	16.74	-38.3	-40.1	19.9	0.00e+00	0	44	0	0	48	4374
2026-01-18 08:08:37.92	25.08	16.61	-38.5	-40.2	19.9	0.00e+00	0	44	0	0	48	4427
2026-01-18 08:08:40.91	24.47	16.48	-38.7	-40.4	19.7	0.00e+00	0	44	0	0	48	4527
2026-01-18 08:08:43.90	23.86	16.35	-38.6	-40.4	19.6	0.00e+00	0	44	0	0	48	4507
2026-01-18 08:08:46.88	23.26	16.22	-38.6	-40.4	19.6	0.00e+00	0	44	0	0	48	4528
2026-01-18 08:08:49.96	22.64	16.08	-38.9	-40.7	19.3	0.00e+00	0	43	0	0	48	4696
2026-01-18 08:08:52.80	22.08	15.94	-39.1	-41.0	19.1	0.00e+00	0	43	0	0	48	4825
2026-01-18 08:08:55.93	21.47	15.79	-38.9	-40.7	19.3	0.00e+00	0	44	0	0	48	4662
2026-01-18 08:08:58.78	20.91	15.66	-38.8	-40.6	19.4	0.00e+00	0	43	0	0	48	4600
2026-01-18 08:09:01.97	20.30	15.50	-38.9	-40.7	19.3	0.00e+00	0	44	0	0	48	4669
2026-01-18 08:09:04.81	19.76	15.36	-38.7	-40.6	19.3	0.00e+00	0	44	0	0	48	4614
2026-01-18 08:09:07.94	19.17	15.20	-38.7	-40.6	19.4	0.00e+00	0	44	0	0	48	4616
2026-01-18 08:09:10.79	18.64	15.06	-38.8	-40.7	19.3	0.00e+00	0	44	0	0	48	4673
2026-01-18 08:09:13.91	18.06	14.90	-39.0	-40.8	19.2	0.00e+00	0	44	0	0	48	4730
2026-01-18 08:09:16.75	17.54	14.75	-39.1	-40.8	19.2	0.00e+00	0	44	0	0	48	4748
2026-01-18 08:09:20.08	16.94	14.57	-39.2	-41.0	19.0	0.00e+00	0	44	0	0	49	4594
2026-01-18 08:09:23.27	16.37	14.40	-39.3	-41.1	19.0	0.00e+00	0	44	0	0	49	4630
2026-01-18 08:09:26.55	15.79	14.23	-39.2	-41.1	19.0	0.00e+00	0	44	0	0	49	4647
2026-01-18 08:09:29.26	15.32	14.08	-39.1	-41.1	19.0	0.00e+00	0	44	0	0	49	4627
2026-01-18 08:09:32.53	14.75	13.90	-39.0	-41.0	19.1	0.00e+00	0	43	0	0	49	4556
2026-01-18 08:09:35.24	14.29	13.75	-38.9	-40.9	19.2	0.00e+00	0	44	0	0	49	4521
2026-01-18 08:09:38.65	13.72	13.57	-38.9	-40.9	19.1	0.00e+00	0	44	0	0	49	4504
2026-01-18 08:09:41.48	13.25	13.41	-39.0	-40.9	19.0	0.00e+00	0	44	0	0	49	4544
2026-01-18 08:09:44.76	12.71	13.22	-39.0	-40.8	19.1	0.00e+00	0	44	0	0	49	4481
2026-01-18 08:09:47.47	12.26	13.07	-39.1	-40.9	19.0	0.00e+00	0	44	0	0	49	4538
2026-01-18 08:09:50.80	11.73	12.88	-39.2	-41.1	19.0	0.00e+00	0	43	0	0	49	4613
2026-01-18 08:09:53.60	11.28	12.72	-39.2	-41.1	18.9	0.00e+00	0	44	0	0	49	4606
2026-01-18 08:09:57.26	10.71	12.51	-39.0	-40.9	19.0	0.00e+00	0	44	0	0	49	4534
2026-01-18 08:10:00.23	10.25	12.34	-38.9	-40.9	19.1	0.00e+00	0	44	0	0	49	4543
2026-01-18 08:10:03.21	9.79	12.17	-39.3	-41.3	18.7	0.00e+00	0	43	0	0	49	4754
2026-01-18 08:10:06.20	9.34	12.00	-39.2	-41.4	18.7	0.00e+00	0	43	0	0	49	4764
2026-01-18 08:10:09.21	8.89	11.83	-39.2	-41.5	18.5	0.00e+00	0	44	0	0	49	4833
2026-01-18 08:10:12.20	8.45	11.65	-39.2	-41.4	18.6	0.00e+00	0	43	0	0	49	4810
2026-01-18 08:10:15.44	7.98	11.46	-39.4	-41.5	18.5	0.00e+00	0	44	0	0	49	4856
2026-01-18 08:10:18.34	7.56	11.29	-39.6	-41.7	18.3	0.00e+00	0	44	0	0	49	4945
2026-01-18 08:10:21.61	7.09	11.10	-39.5	-41.6	18.4	0.00e+00	0	44	0	0	49	4872
2026-01-18 08:10:24.33	6.71	10.94	-39.5	-41.6	18.4	0.00e+00	0	44	0	0	49	4874
2026-01-18 08:10:27.61	6.26	10.75	-39.7	-41.8	18.2	0.00e+00	0	44	0	0	49	4991
2026-01-18 08:10:30.33	5.88	10.59	-39.8	-42.0	18.0	0.00e+00	0	44	0	0	50	4829
2026-01-18 08:10:33.63	5.44	10.40	-39.5	-41.7	18.2	0.00e+00	0	44	0	0	50	4701
2026-01-18 08:10:36.73	5.02	10.21	-39.6	-41.8	18.1	0.00e+00	0	44	0	0	50	4715
2026-01-18 08:10:39.72	4.63	10.04	-39.5	-41.6	18.3	0.00e+00	0	44	0	0	50	4624
2026-01-18 08:10:42.70	4.24	9.86	-40.0	-42.2	17.9	0.00e+00	0	44	0	0	50	4928
2026-01-18 08:10:45.73	3.85	9.68	-40.6	-42.7	17.3	0.00e+00	0	44	0	0	51	4974
2026-01-18 08:10:48.84	3.46	9.50	-40.5	-42.9	17.2	0.00e+00	0	44	0	0	51	5078
2026-01-18 08:10:51.75	3.09	9.33	-40.2	-42.6	17.4	0.00e+00	0	44	0	0	51	4873
2026-01-18 08:10:55.13	2.67	9.13	-40.2	-42.3	17.6	0.00e+00	0	44	0	0	51	4746
2026-01-18 08:10:57.83	2.34	8.97	-44.7	-48.4	12.1	0.00e+00	0	44	0	0	59	6050
2026-01-18 08:11:01.09	1.95	8.78	-47.8	-61.7	3.8	1.49e+00	0	44	104	0	67	17653
2026-01-18 08:11:03.82	1.62	8.62	-49.0	-62.1	3.8	1.49e+00	0	44	104	0	68	17293
2026-01-18 08:11:07.10	1.24	8.43	-48.3	-62.1	3.8	1.49e+00	0	44	104	0	68	17475
2026-01-18 08:11:09.81	0.92	8.27	-48.7	-62.2	3.8	1.49e+00	0	44	104	0	68	17499
2026-01-18 08:11:13.09	0.54	8.08	-49.1	-62.2	3.8	1.49e+00	0	44	104	0	69	16584
2026-01-18 08:11:15.81	0.24	7.92	-49.1	-62.2	3.8	1.49e+00	0	44	104	0	69	16566
2026-01-18 08:11:19.09	359.87	7.73	-49.2	-62.2	3.8	1.49e+00	0	44	104	0	69	16576
2026-01-18 08:11:21.80	359.57	7.57	-49.1	-62.2	3.8	1.49e+00	0	43	104	0	69	16550
2026-01-18 08:11:25.06	359.21	7.38	-49.0	-62.2	3.8	1.49e+00	0	44	104	0	69	16539
2026-01-18 08:11:27.78	358.92	7.22	-48.9	-62.1	3.8	1.49e+00	0	44	104	0	69	16487
2026-01-18 08:11:31.04	358.57	7.03	-48.8	-62.1	3.8	1.49e+00	0	43	104	0	69	16448
2026-01-18 08:11:33.74	358.29	6.88	-48.8	-62.1	3.8	1.49e+00	0	44	104	0	69	16408
2026-01-18 08:11:37.00	357.95	6.69	-48.8	-62.1	3.8	1.49e+00	0	44	104	0	69	16379
2026-01-18 08:11:39.71	357.67	6.53	-48.8	-62.1	3.8	1.49e+00	0	44	104	0	69	16383
2026-01-18 08:11:42.97	357.34	6.34	-48.8	-62.1	3.8	1.49e+00	0	44	104	0	69	16396
2026-01-18 08:11:45.69	357.06	6.19	-48.8	-62.1	3.8	1.49e+00	0	44	104	0	69	16391
2026-01-18 08:11:48.95	356.74	6.00	-48.8	-62.1	3.8	1.49e+00	0	44	104	0	69	16352
2026-01-18 08:11:51.67	356.47	5.85	-48.8	-62.0	3.8	1.49e+00	0	44	104	0	69	16268
2026-01-18 08:11:54.95	356.16	5.66	-48.8	-62.0	3.8	1.49e+00	0	44	104	0	69	16285
2026-01-18 08:11:57.67	355.90	5.50	-48.8	-62.1	3.8	1.49e+00	0	44	104	0	69	16327
2026-01-18 08:12:00.93	355.59	5.32	-48.8	-62.1	3.8	1.49e+00	0	44	104	0	69	16331
2026-01-18 08:12:03.64	355.33	5.17	-48.8	-62.1	3.8	1.49e+00	0	44	104	0	69	16374
2026-01-18 08:12:06.91	355.03	4.98	-48.8	-62.1	3.8	1.49e+00	0	44	104	0	69	16369

#Closed at: 2026-01-18 08:12:07
#Recorded file [0 MB]: D:/Data/31040_260118_110156.dat