passes_logs/2026/01/18/T1/T1__20260118_222017_SUOMI_NPP_rec.log

#Pass ID: 20260118_222017_SUOMI NPP
#Satellite: SUOMI NPP
#Configuration: NPP
#almurnet v.1.7.20251203
#Start time: 2026-01-18 22:20:19

#Version: 2.0.20230620
#Station: T1
#Location: 37.570604 lon 55.790049 lat
#TLE: 1 37849U 11061A   26017.92342359  .00000077  00000+0  57567-4 0  9990
#TLE: 2 37849  98.7814 319.9468 0002389  58.5705 301.5704 14.19525998737125

#Time	Az	El	Level	Level2	SNR	BER	BlckErr	Temp	State	Recorded	gain1	gain2
2026-01-18 22:20:19.92	28.83	5.12	-49.3	-64.7	3.8	1.49e+00	0	37	0	0	70	20987
2026-01-18 22:20:22.89	29.08	5.30	-49.2	-64.7	3.8	1.49e+00	0	37	104	0	69	22105
2026-01-18 22:20:25.87	29.33	5.48	-49.2	-64.7	3.8	1.49e+00	0	37	104	0	69	22145
2026-01-18 22:20:28.85	29.58	5.66	-49.2	-64.7	3.8	1.49e+00	0	37	104	0	69	22090
2026-01-18 22:20:31.83	29.84	5.84	-49.2	-64.6	3.8	1.49e+00	0	37	104	0	69	21905
2026-01-18 22:20:34.81	30.10	6.02	-49.2	-64.6	3.8	1.49e+00	0	37	104	0	69	21878
2026-01-18 22:20:37.79	30.37	6.20	-49.2	-64.6	3.8	1.49e+00	0	37	104	0	69	21893
2026-01-18 22:20:40.77	30.63	6.39	-49.2	-64.6	3.8	1.49e+00	0	37	104	0	69	21865
2026-01-18 22:20:43.75	30.90	6.57	-49.2	-64.6	3.8	1.49e+00	0	38	104	0	69	21914
2026-01-18 22:20:46.73	31.18	6.76	-49.2	-64.6	3.8	1.49e+00	0	38	104	0	69	21864
2026-01-18 22:20:49.71	31.46	6.94	-49.2	-64.5	3.8	1.49e+00	0	38	104	0	69	21714
2026-01-18 22:20:52.69	31.74	7.13	-49.2	-64.6	3.8	1.49e+00	0	38	104	0	69	21770
2026-01-18 22:20:55.68	32.02	7.32	-49.2	-64.5	3.8	1.49e+00	0	38	104	0	69	21712
2026-01-18 22:20:58.66	32.31	7.50	-49.2	-64.3	3.8	1.49e+00	0	38	104	0	69	21194
2026-01-18 22:21:01.64	32.60	7.69	-49.2	-64.5	3.8	1.49e+00	0	38	104	0	69	21531
2026-01-18 22:21:04.62	32.89	7.88	-49.2	-64.7	3.8	1.49e+00	0	38	104	0	69	22056
2026-01-18 22:21:07.60	33.19	8.07	-49.2	-64.6	3.8	1.49e+00	0	38	104	0	69	21993
2026-01-18 22:21:10.58	33.49	8.26	-49.2	-64.5	3.8	1.49e+00	0	38	104	0	69	21546
2026-01-18 22:21:13.56	33.80	8.46	-49.2	-64.1	3.8	1.49e+00	0	38	104	0	69	20613
2026-01-18 22:21:16.54	34.11	8.65	-49.1	-63.1	3.8	1.49e+00	0	38	104	0	69	18485
2026-01-18 22:21:19.52	34.42	8.84	-48.7	-58.2	5.5	6.43e-01	0	38	0	2097152	69	10515
2026-01-18 22:21:22.50	34.74	9.04	-47.7	-54.4	8.9	1.58e-02	0	38	0	7340032	66	8010
2026-01-18 22:21:25.49	35.06	9.23	-47.3	-52.8	10.6	6.05e-04	0	38	0	12582912	65	7093
2026-01-18 22:21:28.52	35.40	9.43	-44.7	-47.9	15.5	0.00e+00	0	39	0	17825792	61	5058
2026-01-18 22:21:31.49	35.72	9.63	-44.3	-47.3	16.1	0.00e+00	0	39	0	24117248	60	5025
2026-01-18 22:21:34.48	36.06	9.82	-44.1	-47.1	16.3	0.00e+00	0	38	0	29360128	60	4903
2026-01-18 22:21:37.47	36.40	10.02	-43.7	-46.6	16.8	0.00e+00	0	38	0	34603008	59	4879
2026-01-18 22:21:40.45	36.74	10.22	-43.5	-46.4	16.9	0.00e+00	0	39	0	40894464	59	4812
2026-01-18 22:21:43.44	37.09	10.42	-43.7	-46.5	16.9	0.00e+00	0	39	0	46137344	58	5152
2026-01-18 22:21:46.42	37.45	10.62	-43.7	-46.5	16.9	0.00e+00	0	39	0	51380224	58	5138
2026-01-18 22:21:49.40	37.80	10.82	-43.7	-46.5	17.0	0.00e+00	0	39	0	57671680	58	5112
2026-01-18 22:21:52.39	38.17	11.03	-43.5	-46.2	17.2	0.00e+00	0	39	0	62914560	58	4964
2026-01-18 22:21:55.37	38.53	11.23	-43.5	-46.2	17.2	0.00e+00	0	39	0	68157440	58	4944
2026-01-18 22:21:58.36	38.91	11.43	-43.5	-46.2	17.2	0.00e+00	0	39	0	74448896	58	4956
2026-01-18 22:22:01.34	39.28	11.64	-43.5	-46.2	17.3	0.00e+00	0	39	0	79691776	58	4948
2026-01-18 22:22:04.33	39.67	11.84	-43.5	-46.2	17.2	0.00e+00	0	39	0	84934656	58	4960
2026-01-18 22:22:07.32	40.05	12.05	-43.7	-46.4	17.1	0.00e+00	0	39	0	91226112	58	5091
2026-01-18 22:22:10.31	40.45	12.25	-43.6	-46.2	17.2	0.00e+00	0	39	0	96468992	58	4965
2026-01-18 22:22:13.33	40.85	12.46	-43.3	-45.9	17.5	0.00e+00	0	39	0	101711872	58	4781
2026-01-18 22:22:16.34	41.26	12.67	-43.0	-45.5	17.9	0.00e+00	0	39	0	108003328	58	4568
2026-01-18 22:22:19.33	41.67	12.88	-42.8	-45.2	18.2	0.00e+00	0	39	0	113246208	57	4697
2026-01-18 22:22:22.32	42.08	13.09	-42.8	-45.2	18.2	0.00e+00	0	39	0	118489088	57	4677
2026-01-18 22:22:25.31	42.50	13.29	-42.9	-45.4	18.0	0.00e+00	0	39	0	124780544	57	4761
2026-01-18 22:22:28.29	42.93	13.50	-43.1	-45.6	17.9	0.00e+00	0	39	0	130023424	57	4886
2026-01-18 22:22:31.27	43.36	13.71	-43.0	-45.5	17.9	0.00e+00	0	39	0	135266304	57	4865
2026-01-18 22:22:34.37	43.82	13.93	-43.1	-45.7	17.8	0.00e+00	0	39	0	141557760	57	4928
2026-01-18 22:22:37.32	44.26	14.13	-43.1	-45.7	17.8	0.00e+00	0	39	0	146800640	57	4955
2026-01-18 22:22:40.67	44.76	14.37	-43.4	-46.0	17.5	0.00e+00	0	39	0	153092096	57	5150
2026-01-18 22:22:43.42	45.18	14.56	-43.2	-45.8	17.7	0.00e+00	0	39	0	158334976	57	5010
2026-01-18 22:22:46.64	45.68	14.79	-42.9	-45.4	18.1	0.00e+00	0	39	0	164626432	57	4780
2026-01-18 22:22:49.70	46.17	15.01	-42.7	-45.1	18.3	0.00e+00	0	39	0	169869312	57	4629
2026-01-18 22:22:52.83	46.67	15.23	-42.7	-45.2	18.3	0.00e+00	0	39	0	176160768	57	4658
2026-01-18 22:22:55.81	47.15	15.44	-42.6	-44.9	18.5	0.00e+00	0	39	0	181403648	56	4808
2026-01-18 22:22:58.80	47.64	15.65	-42.5	-44.8	18.6	0.00e+00	0	39	0	187695104	56	4755
2026-01-18 22:23:01.78	48.14	15.86	-42.4	-44.8	18.6	0.00e+00	0	39	0	192937984	56	4721
2026-01-18 22:23:04.78	48.64	16.07	-42.4	-44.8	18.7	0.00e+00	0	39	0	198180864	56	4722
2026-01-18 22:23:07.86	49.17	16.28	-42.6	-45.0	18.5	0.00e+00	0	39	0	204472320	56	4850
2026-01-18 22:23:10.80	49.68	16.49	-42.9	-45.3	18.2	0.00e+00	0	39	0	209715200	56	5040
2026-01-18 22:23:13.98	50.24	16.71	-42.9	-45.4	18.1	0.00e+00	0	39	0	216006656	56	5077
2026-01-18 22:23:16.82	50.75	16.91	-42.7	-45.1	18.4	0.00e+00	0	39	0	221249536	56	4905
2026-01-18 22:23:19.95	51.31	17.13	-42.9	-45.4	18.2	0.00e+00	0	39	0	226492416	56	5055
2026-01-18 22:23:22.79	51.84	17.32	-43.0	-45.5	18.0	0.00e+00	0	39	0	232783872	56	5134
2026-01-18 22:23:25.98	52.43	17.54	-43.1	-45.6	18.0	0.00e+00	0	39	0	238026752	56	5173
2026-01-18 22:23:28.83	52.97	17.74	-42.8	-45.3	18.2	0.00e+00	0	39	0	243269632	56	4986
2026-01-18 22:23:31.95	53.56	17.95	-42.9	-45.4	18.1	0.00e+00	0	39	0	249561088	56	5064
2026-01-18 22:23:34.79	54.11	18.15	-42.9	-45.4	18.1	0.00e+00	0	39	0	254803968	56	5077
2026-01-18 22:23:37.92	54.72	18.36	-42.9	-45.3	18.2	0.00e+00	0	39	0	261095424	56	5006
2026-01-18 22:23:40.83	55.30	18.56	-43.2	-45.7	17.9	0.00e+00	0	39	0	266338304	57	4977
2026-01-18 22:23:44.04	55.95	18.77	-43.4	-46.0	17.6	0.00e+00	0	39	0	272629760	57	5106
2026-01-18 22:23:46.94	56.54	18.96	-43.2	-45.7	17.9	0.00e+00	0	39	0	277872640	57	4929
2026-01-18 22:23:50.07	57.18	19.17	-43.5	-46.1	17.6	0.00e+00	0	39	0	283115520	57	5173
2026-01-18 22:23:53.01	57.80	19.36	-43.7	-46.3	17.3	0.00e+00	0	39	0	289406976	58	5040
2026-01-18 22:23:55.99	58.43	19.55	-43.1	-45.6	18.0	0.00e+00	0	39	0	294649856	58	4607
2026-01-18 22:23:58.98	59.07	19.74	-43.8	-46.6	17.1	0.00e+00	0	39	0	299892736	58	5166
2026-01-18 22:24:01.97	59.72	19.93	-44.1	-47.0	16.7	0.00e+00	0	39	0	306184192	59	5110
2026-01-18 22:24:04.96	60.37	20.12	-43.6	-46.2	17.4	0.00e+00	0	39	0	311427072	59	4691
2026-01-18 22:24:07.94	61.04	20.30	-43.7	-46.3	17.3	0.00e+00	0	39	0	316669952	58	5034
2026-01-18 22:24:10.92	61.71	20.49	-43.6	-46.2	17.4	0.00e+00	0	39	0	322961408	58	4960
2026-01-18 22:24:13.91	62.39	20.66	-43.5	-46.1	17.5	0.00e+00	0	39	0	328204288	58	4909
2026-01-18 22:24:16.86	63.07	20.84	-44.0	-46.7	17.0	0.00e+00	0	39	0	333447168	58	5226
2026-01-18 22:24:19.97	63.79	21.02	-43.4	-45.9	17.7	0.00e+00	0	39	0	339738624	58	4784
2026-01-18 22:24:22.81	64.46	21.18	-42.6	-45.0	18.6	0.00e+00	0	39	0	344981504	57	4561
2026-01-18 22:24:25.94	65.20	21.36	-42.7	-45.0	18.5	0.00e+00	0	39	0	350224384	57	4596
2026-01-18 22:24:28.82	65.89	21.52	-43.4	-46.0	17.6	0.00e+00	0	39	0	356515840	57	5108
2026-01-18 22:24:32.07	66.68	21.69	-44.2	-47.0	16.7	0.00e+00	0	39	0	361758720	59	5129
2026-01-18 22:24:34.91	67.38	21.84	-43.1	-45.6	17.9	0.00e+00	0	39	0	367001600	58	4626
2026-01-18 22:24:38.04	68.15	22.00	-43.2	-45.7	17.9	0.00e+00	0	39	0	373293056	57	4962
2026-01-18 22:24:40.88	68.86	22.14	-43.4	-46.0	17.6	0.00e+00	0	39	0	378535936	57	5120
2026-01-18 22:24:44.00	69.65	22.29	-43.4	-45.9	17.7	0.00e+00	0	39	0	384827392	57	5090
2026-01-18 22:24:46.88	70.39	22.43	-43.4	-45.9	17.7	0.00e+00	0	39	0	390070272	57	5093
2026-01-18 22:24:50.09	71.21	22.57	-42.7	-45.1	18.4	0.00e+00	0	39	0	396361728	57	4641
2026-01-18 22:24:53.40	72.07	22.72	-43.7	-46.3	17.4	0.00e+00	0	39	0	402653184	57	5337
2026-01-18 22:24:56.25	72.82	22.84	-44.1	-46.8	16.9	0.00e+00	0	39	0	407896064	59	5016
2026-01-18 22:24:59.38	73.64	22.97	-43.3	-45.8	17.8	0.00e+00	0	39	0	413138944	58	4744
2026-01-18 22:25:02.22	74.40	23.08	-43.6	-46.3	17.4	0.00e+00	0	39	0	418381824	58	4989
2026-01-18 22:25:05.58	75.30	23.20	-44.0	-46.8	16.9	0.00e+00	0	39	0	424673280	58	5303
2026-01-18 22:25:08.29	76.03	23.30	-44.1	-46.9	16.8	0.00e+00	0	39	0	429916160	59	5080
2026-01-18 22:25:11.56	76.91	23.41	-44.5	-47.5	16.3	0.00e+00	0	39	0	436207616	59	5430
2026-01-18 22:25:14.28	77.66	23.50	-44.6	-47.6	16.2	0.00e+00	0	39	0	441450496	60	5210
2026-01-18 22:25:17.56	78.56	23.59	-43.7	-46.4	17.3	0.00e+00	0	39	0	447741952	59	4790
2026-01-18 22:25:20.26	79.30	23.67	-43.2	-45.7	18.0	0.00e+00	0	39	0	452984832	58	4671
2026-01-18 22:25:23.94	80.32	23.76	-42.7	-45.1	18.5	0.00e+00	0	39	0	459276288	57	4648
2026-01-18 22:25:26.85	81.14	23.83	-44.1	-47.0	16.8	0.00e+00	0	39	0	464519168	58	5430
2026-01-18 22:25:30.82	82.25	23.92	-43.1	-45.7	18.0	0.00e+00	0	39	0	472907776	58	4673
2026-01-18 22:25:33.74	83.07	23.97	-43.4	-46.1	17.6	0.00e+00	0	39	0	478150656	57	5174
2026-01-18 22:25:37.15	84.04	24.03	-43.2	-45.7	17.9	0.00e+00	0	39	0	484442112	57	4980
2026-01-18 22:25:39.85	84.80	24.07	-43.6	-46.3	17.4	0.00e+00	0	39	0	489684992	57	5326
2026-01-18 22:25:43.21	85.76	24.11	-42.8	-45.3	18.3	0.00e+00	0	39	0	495976448	57	4759
2026-01-18 22:25:45.92	86.53	24.14	-42.5	-44.9	18.7	0.00e+00	0	39	0	501219328	56	4796
2026-01-18 22:25:49.20	87.47	24.16	-43.2	-45.8	17.9	0.00e+00	0	39	0	506462208	58	4716
2026-01-18 22:25:51.90	88.24	24.18	-42.9	-45.4	18.2	0.00e+00	0	39	0	511705088	57	4791
2026-01-18 22:25:55.19	89.18	24.19	-42.5	-44.9	18.7	0.00e+00	0	39	0	517996544	56	4797
2026-01-18 22:25:58.21	90.05	24.20	-42.5	-44.9	18.7	0.00e+00	0	39	0	523239424	56	4795
2026-01-18 22:26:01.22	90.91	24.19	-42.9	-45.4	18.3	0.00e+00	0	39	0	529530880	56	5061
2026-01-18 22:26:04.21	91.76	24.18	-42.8	-45.2	18.5	0.00e+00	0	39	0	534773760	56	4938
2026-01-18 22:26:07.56	92.72	24.17	-42.3	-44.6	19.0	0.00e+00	0	39	0	541065216	56	4645
2026-01-18 22:26:10.26	93.49	24.15	-42.6	-45.0	18.6	0.00e+00	0	39	0	546308096	56	4841
2026-01-18 22:26:13.55	94.43	24.11	-43.1	-45.6	18.1	0.00e+00	0	39	0	552599552	56	5207
2026-01-18 22:26:16.26	95.21	24.08	-42.9	-45.3	18.3	0.00e+00	0	39	0	557842432	56	5004
2026-01-18 22:26:19.62	96.16	24.03	-42.5	-44.8	18.8	0.00e+00	0	39	0	564133888	56	4721
2026-01-18 22:26:22.67	97.02	23.98	-41.9	-44.1	19.2	0.00e+00	0	39	0	569376768	55	4621
2026-01-18 22:26:25.94	97.95	23.92	-42.3	-44.7	18.8	0.00e+00	0	39	0	575668224	55	4930
2026-01-18 22:26:28.66	98.71	23.86	-41.9	-44.2	19.2	0.00e+00	0	39	0	580911104	55	4664
2026-01-18 22:26:32.03	99.65	23.79	-41.7	-43.9	19.4	0.00e+00	0	39	0	587202560	55	4498
2026-01-18 22:26:34.73	100.41	23.72	-41.7	-43.9	19.4	0.00e+00	0	39	0	592445440	55	4521
2026-01-18 22:26:38.00	101.32	23.63	-41.1	-43.2	20.0	0.00e+00	0	39	0	598736896	54	4436
2026-01-18 22:26:40.73	102.07	23.55	-41.6	-43.8	19.5	0.00e+00	0	39	0	603979776	54	4742
2026-01-18 22:26:44.02	102.97	23.45	-42.2	-44.6	18.8	0.00e+00	0	39	0	609222656	55	4883
2026-01-18 22:26:46.76	103.72	23.36	-41.8	-44.0	19.3	0.00e+00	0	39	0	614465536	55	4593
2026-01-18 22:26:50.11	104.63	23.24	-41.5	-43.6	19.7	0.00e+00	0	39	0	620756992	54	4646
2026-01-18 22:26:52.87	105.37	23.14	-41.2	-43.3	19.9	0.00e+00	0	39	0	625999872	54	4460
2026-01-18 22:26:56.27	106.28	23.01	-40.4	-42.4	20.7	0.00e+00	0	39	0	632291328	52	4509
2026-01-18 22:26:58.97	107.00	22.91	-40.6	-42.7	20.5	0.00e+00	0	39	0	637534208	52	4657
2026-01-18 22:27:02.24	107.86	22.77	-41.4	-43.6	19.7	0.00e+00	0	39	0	643825664	53	4888
2026-01-18 22:27:04.94	108.56	22.65	-40.9	-43.0	20.2	0.00e+00	0	39	0	649068544	53	4581
2026-01-18 22:27:08.16	109.40	22.51	-41.2	-43.3	19.9	0.00e+00	0	39	0	655360000	53	4750
2026-01-18 22:27:11.00	110.13	22.38	-41.4	-43.6	19.7	0.00e+00	0	39	0	660602880	53	4877
2026-01-18 22:27:14.13	110.93	22.23	-41.1	-43.3	20.0	0.00e+00	0	39	0	665845760	53	4727
2026-01-18 22:27:17.32	111.73	22.07	-41.3	-43.5	19.7	0.00e+00	0	39	0	672137216	53	4856
2026-01-18 22:27:20.17	112.44	21.92	-41.2	-43.4	19.8	0.00e+00	0	39	0	677380096	53	4779
2026-01-18 22:27:23.37	113.23	21.76	-41.2	-43.3	19.9	0.00e+00	0	39	0	683671552	53	4754
2026-01-18 22:27:26.22	113.93	21.60	-41.5	-43.7	19.6	0.00e+00	0	39	0	688914432	53	4949
2026-01-18 22:27:29.34	114.69	21.43	-42.1	-44.4	18.9	0.00e+00	0	39	0	694157312	54	5098
2026-01-18 22:27:32.19	115.37	21.28	-42.8	-45.2	18.3	0.00e+00	0	39	0	700448768	56	4976
2026-01-18 22:27:35.31	116.11	21.10	-42.0	-44.3	19.2	0.00e+00	0	39	0	705691648	56	4455
2026-01-18 22:27:38.16	116.78	20.93	-41.5	-43.7	19.6	0.00e+00	0	39	0	710934528	54	4692
2026-01-18 22:27:41.41	117.54	20.74	-42.3	-44.7	18.7	0.00e+00	0	39	0	717225984	55	4934
2026-01-18 22:27:44.24	118.19	20.57	-42.9	-45.4	18.2	0.00e+00	0	39	0	722468864	57	4768
2026-01-18 22:27:47.52	118.93	20.37	-42.6	-45.0	18.5	0.00e+00	0	39	0	728760320	57	4584
2026-01-18 22:27:50.24	119.54	20.20	-41.5	-43.7	19.5	0.00e+00	0	39	0	734003200	55	4439
2026-01-18 22:27:53.52	120.27	20.00	-42.0	-44.3	19.0	0.00e+00	0	39	0	740294656	55	4726
2026-01-18 22:27:56.25	120.87	19.83	-42.9	-45.4	18.2	0.00e+00	0	39	0	745537536	56	5049
2026-01-18 22:27:59.54	121.58	19.61	-43.0	-45.5	18.0	0.00e+00	0	39	0	750780416	56	5146
2026-01-18 22:28:02.25	122.16	19.44	-43.0	-45.5	18.0	0.00e+00	0	39	0	756023296	56	5132
2026-01-18 22:28:05.64	122.87	19.22	-43.2	-45.7	17.8	0.00e+00	0	39	0	762314752	57	4963
2026-01-18 22:28:08.34	123.44	19.04	-43.2	-45.8	17.8	0.00e+00	0	39	0	767557632	57	4999
2026-01-18 22:28:11.75	124.14	18.81	-43.6	-46.4	17.2	0.00e+00	0	39	0	773849088	58	5089
2026-01-18 22:28:14.45	124.69	18.63	-42.6	-45.0	18.5	0.00e+00	0	39	0	779091968	57	4580
2026-01-18 22:28:17.77	125.35	18.41	-41.9	-44.2	19.1	0.00e+00	0	39	0	785383424	55	4664
2026-01-18 22:28:20.49	125.89	18.22	-42.9	-45.3	18.2	0.00e+00	0	39	0	790626304	56	5028
2026-01-18 22:28:23.78	126.53	18.00	-43.0	-45.5	18.0	0.00e+00	0	39	0	796917760	57	4842
2026-01-18 22:28:26.79	127.11	17.79	-42.8	-45.2	18.3	0.00e+00	0	39	0	802160640	57	4681
2026-01-18 22:28:30.06	127.73	17.56	-44.0	-46.8	16.8	0.00e+00	0	39	0	808452096	58	5315
2026-01-18 22:28:32.76	128.24	17.37	-43.4	-46.0	17.5	0.00e+00	0	39	0	813694976	58	4844
2026-01-18 22:28:36.04	128.85	17.14	-42.6	-44.9	18.5	0.00e+00	0	39	0	819986432	57	4538
2026-01-18 22:28:38.74	129.34	16.96	-42.7	-45.2	18.3	0.00e+00	0	39	0	825229312	56	4935
2026-01-18 22:28:42.27	129.97	16.71	-42.7	-45.1	18.3	0.00e+00	0	39	0	831520768	56	4917
2026-01-18 22:28:44.97	130.45	16.52	-42.2	-44.5	18.9	0.00e+00	0	39	0	836763648	56	4578
2026-01-18 22:28:48.25	131.02	16.29	-42.9	-45.4	18.1	0.00e+00	0	39	0	843055104	56	5067
2026-01-18 22:28:50.96	131.49	16.09	-43.4	-46.0	17.5	0.00e+00	0	39	0	847249408	57	5132
2026-01-18 22:28:54.22	132.05	15.86	-42.9	-45.4	18.1	0.00e+00	0	39	0	853540864	57	4783
2026-01-18 22:28:56.94	132.50	15.67	-42.6	-44.9	18.5	0.00e+00	0	39	0	858783744	57	4544
2026-01-18 22:29:00.22	133.05	15.44	-42.8	-45.3	18.1	0.00e+00	0	39	0	865075200	57	4750
2026-01-18 22:29:02.93	133.49	15.24	-42.6	-44.9	18.4	0.00e+00	0	39	0	870318080	57	4545
2026-01-18 22:29:06.22	134.02	15.01	-42.5	-44.8	18.6	0.00e+00	0	39	0	876609536	56	4747
2026-01-18 22:29:09.05	134.47	14.81	-43.6	-46.2	17.3	0.00e+00	0	39	0	881852416	57	5257
2026-01-18 22:29:12.19	134.96	14.59	-44.4	-47.5	16.1	0.00e+00	0	39	0	887095296	59	5403
2026-01-18 22:29:15.32	135.44	14.36	-43.7	-46.4	17.1	0.00e+00	0	39	0	893386752	59	4786
2026-01-18 22:29:18.16	135.87	14.16	-43.1	-45.6	17.8	0.00e+00	0	39	0	898629632	58	4651
2026-01-18 22:29:21.29	136.34	13.94	-42.6	-45.1	18.3	0.00e+00	0	39	0	904921088	57	4606
2026-01-18 22:29:24.13	136.76	13.74	-42.3	-44.7	18.7	0.00e+00	0	39	0	910163968	56	4663
2026-01-18 22:29:27.50	137.26	13.50	-42.3	-44.6	18.7	0.00e+00	0	39	0	916455424	56	4615
2026-01-18 22:29:30.20	137.64	13.31	-42.6	-45.0	18.4	0.00e+00	0	39	0	921698304	56	4822
2026-01-18 22:29:33.72	138.14	13.06	-43.5	-46.2	17.2	0.00e+00	0	39	0	927989760	57	5254
2026-01-18 22:29:36.70	138.56	12.85	-43.4	-46.1	17.4	0.00e+00	0	39	0	933232640	57	5167
2026-01-18 22:29:39.69	138.97	12.64	-43.6	-46.3	17.2	0.00e+00	0	39	0	938475520	58	4997
2026-01-18 22:29:42.77	139.39	12.43	-43.3	-45.9	17.5	0.00e+00	0	39	0	944766976	58	4763
2026-01-18 22:29:45.61	139.77	12.23	-43.3	-45.9	17.5	0.00e+00	0	39	0	950009856	58	4771
2026-01-18 22:29:49.27	140.25	11.98	-43.4	-46.0	17.3	0.00e+00	0	39	0	957349888	58	4862
2026-01-18 22:29:51.99	140.61	11.79	-43.2	-45.8	17.5	0.00e+00	0	39	0	961544192	58	4723
2026-01-18 22:29:55.28	141.03	11.56	-42.9	-45.5	17.8	0.00e+00	0	39	0	967835648	57	4839
2026-01-18 22:29:58.00	141.37	11.37	-43.2	-45.8	17.5	0.00e+00	0	39	0	973078528	57	5019
2026-01-18 22:30:01.27	141.78	11.15	-43.7	-46.5	16.9	0.00e+00	0	39	0	979369984	58	5127
2026-01-18 22:30:03.99	142.12	10.96	-44.2	-47.2	16.2	0.00e+00	0	39	0	984612864	59	5221
2026-01-18 22:30:07.27	142.52	10.74	-44.6	-47.8	15.7	0.00e+00	0	39	0	990904320	60	5295
2026-01-18 22:30:10.26	142.88	10.53	-44.8	-48.1	15.3	0.00e+00	0	39	0	996147200	60	5483
2026-01-18 22:30:13.25	143.23	10.33	-44.6	-47.8	15.6	0.00e+00	0	39	0	1001390080	60	5317
2026-01-18 22:30:16.27	143.58	10.13	-44.0	-47.0	16.4	0.00e+00	0	39	0	1007681536	60	4821
2026-01-18 22:30:19.23	143.92	9.93	-43.8	-46.7	16.6	0.00e+00	0	39	0	1012924416	59	4932
2026-01-18 22:30:22.35	144.28	9.72	-43.9	-46.9	16.4	0.00e+00	0	39	0	1019215872	59	5053
2026-01-18 22:30:25.40	144.62	9.51	-43.6	-46.5	16.8	0.00e+00	0	39	0	1024458752	58	5105
2026-01-18 22:30:28.24	144.93	9.32	-43.5	-46.3	16.9	0.00e+00	0	39	0	1029701632	58	5020
2026-01-18 22:30:31.37	145.27	9.12	-43.5	-46.4	16.8	0.00e+00	0	39	0	1035993088	58	5075
2026-01-18 22:30:34.22	145.58	8.93	-49.4	-64.2	3.8	6.01e-01	0	39	104	1040187392	69	20826
2026-01-18 22:30:37.64	145.94	8.70	-50.0	-65.2	3.8	1.49e+00	0	39	104	1040187392	70	22069
2026-01-18 22:30:40.46	146.24	8.52	-49.8	-65.3	3.8	1.49e+00	0	39	104	1040187392	70	22504
2026-01-18 22:30:43.85	146.59	8.30	-50.0	-65.4	3.8	1.49e+00	0	39	104	1040187392	71	21379
2026-01-18 22:30:46.56	146.87	8.12	-50.1	-65.4	3.8	1.49e+00	0	39	104	1040187392	71	21450
2026-01-18 22:30:49.83	147.20	7.91	-50.1	-65.5	3.8	1.49e+00	0	39	104	1040187392	71	21570
2026-01-18 22:30:52.54	147.47	7.74	-50.1	-65.4	3.8	1.49e+00	0	39	104	1040187392	71	21455
2026-01-18 22:30:55.80	147.79	7.53	-49.9	-65.4	3.8	1.49e+00	0	39	104	1040187392	71	21372
2026-01-18 22:30:58.50	148.05	7.35	-49.9	-65.4	3.8	1.49e+00	0	39	104	1040187392	71	21448
2026-01-18 22:31:01.76	148.36	7.15	-49.9	-65.4	3.8	1.49e+00	0	39	104	1040187392	71	21415
2026-01-18 22:31:04.46	148.62	6.98	-49.9	-65.4	3.8	1.49e+00	0	39	104	1040187392	71	21384
2026-01-18 22:31:07.72	148.92	6.77	-49.9	-65.4	3.8	1.49e+00	0	39	104	1040187392	71	21335
2026-01-18 22:31:10.44	149.17	6.60	-49.9	-65.4	3.8	1.49e+00	0	39	104	1040187392	71	21293
2026-01-18 22:31:13.70	149.47	6.40	-49.9	-65.4	3.8	1.49e+00	0	39	104	1040187392	71	21317
2026-01-18 22:31:16.40	149.71	6.23	-49.9	-65.4	3.8	1.49e+00	0	39	104	1040187392	71	21373
2026-01-18 22:31:19.68	150.01	6.02	-49.9	-65.4	3.8	1.49e+00	0	39	104	1040187392	71	21285
2026-01-18 22:31:22.37	150.24	5.86	-49.9	-65.4	3.8	1.49e+00	0	39	104	1040187392	71	21362
2026-01-18 22:31:25.65	150.53	5.66	-49.9	-65.4	3.8	1.49e+00	0	39	104	1040187392	71	21273
2026-01-18 22:31:28.35	150.76	5.49	-49.9	-65.4	3.8	1.49e+00	0	39	104	1040187392	71	21341
