passes_logs/2026/01/18/T1/T1__20260118_085044_NOAA_20_JPSS-1_rec.log

#Pass ID: 20260118_085044_NOAA 20 (JPSS-1)
#Satellite: NOAA 20 (JPSS-1)
#Configuration: NOAA 20
#almurnet v.1.7.20251203
#Start time: 2026-01-18 08:50:44

#Version: 2.0.20230620
#Station: T1
#Location: 37.570604 lon 55.790049 lat
#TLE: 1 43013U 17073A   26017.58553584  .00000066  00000+0  52288-4 0  9998
#TLE: 2 43013  98.7639 318.4977 0001406  35.6039 324.5231 14.19536575423107

#Time	Az	El	Level	Level2	SNR	BER	BlckErr	Temp	State	Recorded	gain1	gain2
2026-01-18 08:50:44.03	126.23	4.97	-48.4	-63.7	3.8	1.49e+00	0	37	0	0	68	20796
2026-01-18 08:50:47.01	126.07	5.17	-48.5	-63.6	3.8	1.49e+00	0	37	104	0	68	20715
2026-01-18 08:50:50.00	125.90	5.37	-48.5	-63.6	3.8	1.49e+00	0	37	104	0	68	20639
2026-01-18 08:50:52.98	125.73	5.57	-48.5	-63.6	3.8	1.49e+00	0	37	104	0	68	20571
2026-01-18 08:50:55.97	125.55	5.78	-48.5	-63.6	3.8	1.49e+00	0	38	104	0	68	20656
2026-01-18 08:50:58.96	125.38	5.98	-48.4	-63.6	3.8	1.49e+00	0	38	104	0	68	20755
2026-01-18 08:51:01.95	125.20	6.19	-48.4	-63.6	3.8	1.49e+00	0	38	104	0	68	20588
2026-01-18 08:51:04.94	125.02	6.40	-48.4	-63.6	3.8	1.49e+00	0	38	104	0	68	20626
2026-01-18 08:51:07.92	124.83	6.61	-48.4	-63.6	3.8	1.49e+00	0	38	104	0	68	20546
2026-01-18 08:51:10.91	124.65	6.82	-48.5	-63.5	3.8	1.49e+00	0	38	104	0	68	20505
2026-01-18 08:51:13.90	124.46	7.03	-48.5	-63.5	3.8	1.49e+00	0	38	104	0	68	20475
2026-01-18 08:51:16.89	124.26	7.25	-48.4	-63.0	3.8	1.49e+00	0	38	104	0	68	19375
2026-01-18 08:51:19.88	124.07	7.46	-48.4	-62.7	3.8	1.49e+00	0	38	104	0	68	18638
2026-01-18 08:51:22.87	123.87	7.68	-48.2	-60.9	4.0	1.49e+00	0	38	104	0	68	15196
2026-01-18 08:51:25.86	123.67	7.90	-47.0	-53.9	8.2	1.66e-01	0	38	0	4194304	66	7591
2026-01-18 08:51:28.85	123.46	8.12	-45.3	-49.5	12.9	1.14e-04	0	39	0	9437184	62	5750
2026-01-18 08:51:31.83	123.25	8.34	-44.4	-48.1	14.3	7.00e-07	0	39	0	14680064	60	5488
2026-01-18 08:51:34.82	123.04	8.56	-44.5	-48.3	14.2	2.20e-06	0	39	0	20971520	60	5595
2026-01-18 08:51:37.81	122.83	8.79	-45.5	-49.9	12.5	8.23e-05	0	39	0	26214400	61	6412
2026-01-18 08:51:40.79	122.61	9.01	-47.2	-54.7	7.5	3.03e-02	0	39	0	31457280	65	8808
2026-01-18 08:51:43.79	122.38	9.24	-48.1	-60.4	4.1	1.57e-03	0	39	0	37748736	66	16122
2026-01-18 08:51:46.79	122.16	9.47	-45.0	-49.0	13.6	1.78e-02	0	39	0	40894464	62	5406
2026-01-18 08:51:49.80	121.93	9.71	-44.0	-47.3	15.3	7.00e-07	0	39	0	46137344	59	5281
2026-01-18 08:51:52.80	121.69	9.94	-43.6	-46.7	15.8	0.00e+00	0	39	0	52428800	59	4962
2026-01-18 08:51:55.80	121.45	10.18	-43.6	-46.7	15.9	0.00e+00	0	39	0	57671680	59	4932
2026-01-18 08:51:58.80	121.21	10.41	-43.4	-46.3	16.3	0.00e+00	0	39	0	62914560	58	5038
2026-01-18 08:52:01.80	120.97	10.65	-43.5	-46.4	16.2	0.00e+00	0	39	0	69206016	58	5098
2026-01-18 08:52:04.80	120.72	10.89	-43.2	-46.1	16.6	0.00e+00	0	39	0	74448896	57	5174
2026-01-18 08:52:07.80	120.46	11.14	-43.1	-45.9	16.7	0.00e+00	0	39	0	80740352	57	5079
2026-01-18 08:52:10.80	120.20	11.38	-43.0	-45.8	16.9	0.00e+00	0	39	0	85983232	57	4998
2026-01-18 08:52:13.80	119.94	11.63	-43.3	-46.1	16.5	0.00e+00	0	39	0	91226112	57	5212
2026-01-18 08:52:16.81	119.67	11.88	-43.1	-45.9	16.8	0.00e+00	0	39	0	97517568	57	5090
2026-01-18 08:52:19.81	119.40	12.13	-43.0	-45.7	17.0	0.00e+00	0	39	0	102760448	57	4964
2026-01-18 08:52:22.82	119.12	12.38	-43.0	-45.7	17.0	0.00e+00	0	39	0	108003328	57	4972
2026-01-18 08:52:25.82	118.83	12.64	-42.9	-45.6	17.1	0.00e+00	0	39	0	114294784	57	4923
2026-01-18 08:52:28.82	118.55	12.89	-42.7	-45.3	17.5	0.00e+00	0	39	0	119537664	57	4718
2026-01-18 08:52:31.82	118.25	13.15	-42.9	-45.6	17.1	0.00e+00	0	39	0	124780544	57	4912
2026-01-18 08:52:34.83	117.95	13.41	-42.9	-45.5	17.2	0.00e+00	0	39	0	131072000	57	4869
2026-01-18 08:52:37.83	117.65	13.68	-42.5	-45.1	17.7	0.00e+00	0	39	0	136314880	57	4613
2026-01-18 08:52:40.83	117.34	13.94	-42.9	-45.6	17.2	0.00e+00	0	39	0	142606336	57	4912
2026-01-18 08:52:43.83	117.03	14.21	-42.5	-45.1	17.7	0.00e+00	0	39	0	147849216	57	4634
2026-01-18 08:52:46.84	116.71	14.48	-42.8	-45.4	17.4	0.00e+00	0	39	0	153092096	56	5092
2026-01-18 08:52:49.84	116.38	14.75	-43.0	-45.7	17.2	0.00e+00	0	39	0	159383552	56	5221
2026-01-18 08:52:52.84	116.05	15.02	-42.8	-45.4	17.4	0.00e+00	0	39	0	164626432	56	5070
2026-01-18 08:52:55.83	115.71	15.30	-43.0	-45.6	17.2	0.00e+00	0	39	0	169869312	56	5209
2026-01-18 08:52:58.84	115.36	15.57	-43.0	-45.7	17.3	0.00e+00	0	39	0	176160768	56	5236
2026-01-18 08:53:01.84	115.01	15.85	-43.0	-45.7	17.3	0.00e+00	0	39	0	181403648	56	5223
2026-01-18 08:53:04.84	114.65	16.13	-43.0	-45.7	17.2	0.00e+00	0	39	0	187695104	56	5240
2026-01-18 08:53:07.85	114.28	16.42	-42.8	-45.4	17.5	0.00e+00	0	39	0	192937984	56	5071
2026-01-18 08:53:10.85	113.91	16.70	-43.0	-45.7	17.2	0.00e+00	0	39	0	198180864	56	5246
2026-01-18 08:53:13.86	113.53	16.99	-43.0	-45.6	17.2	0.00e+00	0	39	0	204472320	56	5217
2026-01-18 08:53:16.86	113.14	17.28	-43.0	-45.7	17.2	0.00e+00	0	39	0	209715200	56	5255
2026-01-18 08:53:19.86	112.74	17.57	-43.1	-45.9	17.0	0.00e+00	0	39	0	214958080	56	5375
2026-01-18 08:53:22.86	112.34	17.87	-43.1	-45.8	17.2	0.00e+00	0	39	0	221249536	57	4998
2026-01-18 08:53:25.86	111.93	18.16	-42.9	-45.6	17.4	0.00e+00	0	40	0	226492416	57	4884
2026-01-18 08:53:28.86	111.51	18.46	-42.9	-45.5	17.5	0.00e+00	0	39	0	231735296	57	4839
2026-01-18 08:53:31.86	111.08	18.76	-43.0	-45.7	17.3	0.00e+00	0	39	0	238026752	57	4958
2026-01-18 08:53:34.86	110.64	19.06	-42.6	-45.1	17.8	0.00e+00	0	39	0	243269632	57	4651
2026-01-18 08:53:37.86	110.20	19.37	-42.8	-45.4	17.5	0.00e+00	0	39	0	249561088	57	4808
2026-01-18 08:53:40.86	109.74	19.67	-42.5	-45.0	18.0	0.00e+00	0	39	0	254803968	56	4835
2026-01-18 08:53:43.87	109.28	19.98	-42.6	-45.1	17.9	0.00e+00	0	39	0	260046848	56	4898
2026-01-18 08:53:46.87	108.80	20.29	-42.4	-44.9	18.1	0.00e+00	0	39	0	266338304	56	4794
2026-01-18 08:53:49.88	108.32	20.60	-42.2	-44.7	18.3	0.00e+00	0	39	0	271581184	56	4680
2026-01-18 08:53:52.88	107.83	20.91	-42.2	-44.6	18.4	0.00e+00	0	39	0	276824064	56	4640
2026-01-18 08:53:55.88	107.32	21.23	-42.1	-44.6	18.4	0.00e+00	0	40	0	283115520	56	4607
2026-01-18 08:53:58.88	106.81	21.54	-42.4	-44.9	18.1	0.00e+00	0	39	0	288358400	56	4804
2026-01-18 08:54:01.88	106.28	21.86	-42.5	-45.0	18.1	0.00e+00	0	39	0	294649856	56	4819
2026-01-18 08:54:04.89	105.75	22.18	-42.5	-45.0	18.0	0.00e+00	0	39	0	299892736	56	4856
2026-01-18 08:54:07.89	105.20	22.50	-42.7	-45.3	17.8	0.00e+00	0	39	0	305135616	56	5007
2026-01-18 08:54:10.89	104.64	22.82	-42.7	-45.3	17.8	0.00e+00	0	39	0	311427072	56	5004
2026-01-18 08:54:13.90	104.07	23.14	-43.0	-45.6	17.5	0.00e+00	0	40	0	316669952	56	5209
2026-01-18 08:54:16.89	103.49	23.46	-43.2	-45.9	17.2	0.00e+00	0	39	0	321912832	57	5081
2026-01-18 08:54:19.89	102.89	23.79	-42.9	-45.5	17.5	0.00e+00	0	39	0	328204288	57	4867
2026-01-18 08:54:22.90	102.28	24.11	-43.1	-45.7	17.4	0.00e+00	0	39	0	333447168	57	4959
2026-01-18 08:54:25.90	101.66	24.44	-42.9	-45.4	17.7	0.00e+00	0	39	0	338690048	57	4810
2026-01-18 08:54:28.90	101.03	24.76	-43.0	-45.6	17.5	0.00e+00	0	39	0	344981504	57	4909
2026-01-18 08:54:31.90	100.38	25.09	-42.8	-45.4	17.7	0.00e+00	0	39	0	350224384	57	4790
2026-01-18 08:54:34.90	99.73	25.41	-42.6	-45.1	18.0	0.00e+00	0	39	0	356515840	57	4639
2026-01-18 08:54:37.90	99.05	25.74	-42.5	-44.9	18.2	0.00e+00	0	39	0	361758720	56	4809
2026-01-18 08:54:40.90	98.36	26.06	-42.5	-45.1	18.1	0.00e+00	0	39	0	367001600	56	4872
2026-01-18 08:54:43.91	97.66	26.38	-42.6	-45.1	18.0	0.00e+00	0	39	0	373293056	56	4907
2026-01-18 08:54:46.92	96.94	26.71	-42.4	-44.9	18.2	0.00e+00	0	39	0	378535936	56	4794
2026-01-18 08:54:49.93	96.21	27.03	-42.5	-44.9	18.2	0.00e+00	0	39	0	383778816	56	4811
2026-01-18 08:54:52.92	95.47	27.35	-42.7	-45.3	17.9	0.00e+00	0	39	0	390070272	56	4991
2026-01-18 08:54:55.92	94.70	27.67	-42.6	-45.1	18.0	0.00e+00	0	39	0	395313152	56	4920
2026-01-18 08:54:58.92	93.93	27.98	-43.0	-45.6	17.6	0.00e+00	0	39	0	400556032	56	5183
2026-01-18 08:55:01.92	93.14	28.29	-43.3	-46.1	17.1	0.00e+00	0	39	0	406847488	57	5187
2026-01-18 08:55:04.93	92.33	28.61	-44.1	-47.1	16.1	0.00e+00	0	39	0	412090368	58	5486
2026-01-18 08:55:07.94	91.50	28.91	-44.4	-47.5	15.7	0.00e+00	0	40	0	418381824	59	5444
2026-01-18 08:55:10.94	90.66	29.22	-44.7	-48.1	15.2	0.00e+00	0	40	0	423624704	60	5490
2026-01-18 08:55:13.94	89.81	29.52	-44.8	-48.2	15.0	0.00e+00	0	39	0	428867584	60	5560
2026-01-18 08:55:16.95	88.93	29.82	-44.8	-48.1	15.1	0.00e+00	0	39	0	435159040	60	5523
2026-01-18 08:55:19.95	88.05	30.11	-45.1	-48.7	14.6	0.00e+00	0	40	0	440401920	60	5862
2026-01-18 08:55:22.95	87.14	30.39	-45.7	-50.0	13.2	1.22e-05	0	39	0	445644800	62	6106
2026-01-18 08:55:25.96	86.22	30.68	-45.2	-49.0	14.2	5.30e-06	0	40	0	451936256	62	5456
2026-01-18 08:55:28.96	85.28	30.95	-44.8	-48.4	14.9	0.00e+00	0	39	0	457179136	61	5373
2026-01-18 08:55:31.96	84.33	31.22	-44.6	-48.0	15.2	0.00e+00	0	40	0	463470592	61	5126
2026-01-18 08:55:34.96	83.37	31.48	-44.7	-48.2	15.1	0.00e+00	0	40	0	468713472	61	5219
2026-01-18 08:55:37.96	82.38	31.74	-44.6	-48.0	15.3	0.00e+00	0	39	0	473956352	61	5122
2026-01-18 08:55:40.97	81.38	31.99	-44.5	-47.8	15.5	0.00e+00	0	40	0	480247808	60	5328
2026-01-18 08:55:43.97	80.37	32.23	-44.4	-47.6	15.8	0.00e+00	0	40	0	485490688	60	5165
2026-01-18 08:55:46.98	79.34	32.46	-44.1	-47.2	16.2	0.00e+00	0	39	0	490733568	60	4940
2026-01-18 08:55:49.98	78.30	32.68	-44.0	-46.9	16.3	0.00e+00	0	39	0	497025024	59	5063
2026-01-18 08:55:52.98	77.24	32.89	-43.8	-46.7	16.6	0.00e+00	0	40	0	502267904	59	4947
2026-01-18 08:55:55.98	76.17	33.10	-43.7	-46.5	16.8	0.00e+00	0	40	0	508559360	59	4836
2026-01-18 08:55:58.99	75.08	33.29	-43.4	-46.1	17.2	0.00e+00	0	39	0	513802240	58	4885
2026-01-18 08:56:01.99	73.99	33.48	-43.6	-46.4	16.9	0.00e+00	0	39	0	519045120	58	5042
2026-01-18 08:56:04.99	72.88	33.65	-43.5	-46.3	17.0	0.00e+00	0	39	0	525336576	58	5006
2026-01-18 08:56:07.98	71.76	33.81	-43.2	-45.8	17.4	0.00e+00	0	39	0	530579456	58	4725
2026-01-18 08:56:10.99	70.63	33.96	-42.8	-45.3	18.0	0.00e+00	0	39	0	535822336	57	4715
2026-01-18 08:56:13.99	69.49	34.09	-42.7	-45.1	18.2	0.00e+00	0	39	0	542113792	57	4638
2026-01-18 08:56:16.99	68.34	34.22	-42.7	-45.2	18.1	0.00e+00	0	39	0	547356672	57	4680
2026-01-18 08:56:19.99	67.18	34.33	-42.6	-45.0	18.2	0.00e+00	0	39	0	552599552	57	4589
2026-01-18 08:56:23.00	66.02	34.43	-42.8	-45.4	17.8	0.00e+00	0	39	0	558891008	57	4783
2026-01-18 08:56:26.00	64.84	34.51	-43.1	-45.7	17.6	0.00e+00	0	40	0	564133888	57	4964
2026-01-18 08:56:29.00	63.67	34.58	-43.1	-45.7	17.6	0.00e+00	0	39	0	570425344	57	4955
2026-01-18 08:56:32.01	62.48	34.64	-43.0	-45.5	17.7	0.00e+00	0	40	0	575668224	57	4860
2026-01-18 08:56:35.01	61.30	34.68	-43.2	-45.8	17.5	0.00e+00	0	39	0	580911104	57	5031
2026-01-18 08:56:38.01	60.11	34.71	-43.3	-45.9	17.3	0.00e+00	0	39	0	587202560	57	5094
2026-01-18 08:56:41.01	58.92	34.73	-43.2	-45.8	17.4	0.00e+00	0	40	0	592445440	57	5029
2026-01-18 08:56:44.02	57.73	34.73	-43.0	-45.5	17.7	0.00e+00	0	40	0	597688320	57	4865
2026-01-18 08:56:47.02	56.54	34.72	-43.7	-46.5	16.7	0.00e+00	0	39	0	603979776	58	5134
2026-01-18 08:56:50.02	55.35	34.69	-43.6	-46.4	16.9	0.00e+00	0	40	0	609222656	58	5062
2026-01-18 08:56:53.02	54.17	34.65	-43.8	-46.7	16.6	0.00e+00	0	40	0	615514112	58	5219
2026-01-18 08:56:56.03	52.98	34.60	-44.1	-47.0	16.3	0.00e+00	0	40	0	620756992	58	5431
2026-01-18 08:56:59.03	51.80	34.53	-44.5	-47.6	15.7	0.00e+00	0	39	0	625999872	59	5511
2026-01-18 08:57:02.03	50.63	34.45	-44.2	-47.2	16.2	0.00e+00	0	40	0	632291328	59	5230
2026-01-18 08:57:05.03	49.47	34.36	-44.2	-47.1	16.1	0.00e+00	0	40	0	637534208	59	5216
2026-01-18 08:57:08.03	48.31	34.25	-44.8	-48.1	15.3	0.00e+00	0	40	0	642777088	60	5472
2026-01-18 08:57:11.03	47.16	34.13	-44.3	-47.4	15.9	0.00e+00	0	40	0	649068544	60	5093
2026-01-18 08:57:14.03	46.02	34.00	-44.2	-47.3	16.1	0.00e+00	0	39	0	654311424	60	4989
2026-01-18 08:57:17.03	44.89	33.85	-44.3	-47.4	15.9	0.00e+00	0	39	0	660602880	60	5074
2026-01-18 08:57:20.04	43.76	33.69	-43.9	-46.7	16.5	0.00e+00	0	40	0	665845760	59	4978
2026-01-18 08:57:23.04	42.66	33.53	-44.1	-47.0	16.3	0.00e+00	0	40	0	671088640	59	5157
2026-01-18 08:57:26.04	41.56	33.35	-44.0	-46.9	16.4	0.00e+00	0	40	0	677380096	59	5073
2026-01-18 08:57:29.04	40.47	33.16	-43.6	-46.3	17.0	0.00e+00	0	40	0	682622976	59	4729
2026-01-18 08:57:32.04	39.40	32.96	-44.0	-47.0	16.3	0.00e+00	0	39	0	687865856	59	5119
2026-01-18 08:57:35.05	38.34	32.75	-44.4	-47.5	15.8	7.00e-07	0	40	0	694157312	59	5448
2026-01-18 08:57:38.05	37.30	32.53	-44.5	-47.7	15.6	0.00e+00	0	39	0	699400192	59	5583
2026-01-18 08:57:41.05	36.27	32.30	-44.6	-47.9	15.4	0.00e+00	0	39	0	704643072	59	5658
2026-01-18 08:57:44.06	35.25	32.06	-44.7	-48.1	15.2	0.00e+00	0	40	0	710934528	60	5496
2026-01-18 08:57:47.06	34.25	31.82	-44.6	-47.8	15.5	0.00e+00	0	40	0	716177408	60	5320
2026-01-18 08:57:50.06	33.27	31.56	-44.7	-48.0	15.3	0.00e+00	0	39	0	722468864	60	5434
2026-01-18 08:57:53.06	32.30	31.30	-44.7	-48.1	15.2	0.00e+00	0	39	0	727711744	60	5481
2026-01-18 08:57:56.06	31.35	31.04	-44.3	-47.5	15.8	0.00e+00	0	39	0	732954624	60	5124
2026-01-18 08:57:59.06	30.41	30.77	-44.3	-47.4	16.0	0.00e+00	0	40	0	739246080	60	5064
2026-01-18 08:58:02.07	29.49	30.49	-44.3	-47.5	15.8	0.00e+00	0	39	0	744488960	60	5132
2026-01-18 08:58:05.07	28.58	30.20	-44.3	-47.5	15.9	0.00e+00	0	39	0	749731840	60	5131
2026-01-18 08:58:08.08	27.69	29.91	-44.1	-47.2	16.1	0.00e+00	0	39	0	756023296	60	4977
2026-01-18 08:58:11.08	26.82	29.62	-44.0	-47.1	16.2	0.00e+00	0	40	0	761266176	60	4908
2026-01-18 08:58:14.09	25.96	29.32	-43.9	-46.8	16.5	0.00e+00	0	40	0	767557632	59	5010
2026-01-18 08:58:17.09	25.12	29.02	-44.1	-47.1	16.2	0.00e+00	0	39	0	772800512	59	5160
2026-01-18 08:58:20.09	24.30	28.71	-43.9	-46.8	16.5	0.00e+00	0	39	0	778043392	59	5008
2026-01-18 08:58:23.09	23.49	28.40	-43.5	-46.3	17.0	0.00e+00	0	39	0	784334848	59	4727
2026-01-18 08:58:26.09	22.70	28.09	-43.2	-45.9	17.3	0.00e+00	0	39	0	789577728	58	4781
2026-01-18 08:58:29.10	21.92	27.78	-42.7	-45.2	18.0	0.00e+00	0	40	0	794820608	57	4696
2026-01-18 08:58:32.11	21.15	27.46	-42.4	-45.0	18.3	0.00e+00	0	39	0	801112064	56	4826
2026-01-18 08:58:35.11	20.40	27.15	-41.8	-44.2	18.8	0.00e+00	0	39	0	806354944	55	4683
2026-01-18 08:58:38.11	19.67	26.83	-41.7	-44.1	18.9	0.00e+00	0	39	0	811597824	55	4617
2026-01-18 08:58:41.11	18.96	26.51	-41.3	-43.6	19.4	0.00e+00	0	39	0	817889280	54	4619
2026-01-18 08:58:44.11	18.25	26.18	-41.6	-44.0	19.0	0.00e+00	0	40	0	823132160	54	4827
2026-01-18 08:58:47.12	17.56	25.86	-41.3	-43.5	19.4	0.00e+00	0	39	0	829423616	54	4598
2026-01-18 08:58:50.12	16.89	25.54	-41.0	-43.3	19.7	0.00e+00	0	39	0	834666496	54	4450
2026-01-18 08:58:53.12	16.23	25.22	-41.0	-43.3	19.7	0.00e+00	0	39	0	839909376	54	4444
2026-01-18 08:58:56.12	15.58	24.89	-41.0	-43.3	19.7	0.00e+00	0	39	0	846200832	53	4720
2026-01-18 08:58:59.12	14.95	24.57	-41.2	-43.4	19.5	0.00e+00	0	39	0	851443712	53	4805
2026-01-18 08:59:02.12	14.33	24.25	-41.4	-43.7	19.3	0.00e+00	0	39	0	856686592	53	4962
2026-01-18 08:59:05.12	13.72	23.92	-41.6	-43.9	19.0	0.00e+00	0	39	0	862978048	53	5098
2026-01-18 08:59:08.12	13.13	23.60	-41.6	-44.0	19.0	0.00e+00	0	39	0	868220928	54	4836
2026-01-18 08:59:11.13	12.54	23.28	-41.8	-44.2	18.8	0.00e+00	0	39	0	874512384	54	4942
2026-01-18 08:59:14.14	11.97	22.96	-42.0	-44.4	18.6	0.00e+00	0	39	0	879755264	54	5067
2026-01-18 08:59:17.14	11.41	22.64	-42.0	-44.4	18.6	0.00e+00	0	39	0	884998144	54	5058
2026-01-18 08:59:20.14	10.86	22.32	-41.9	-44.3	18.7	0.00e+00	0	39	0	891289600	54	5023
2026-01-18 08:59:23.15	10.33	22.00	-41.9	-44.5	18.5	0.00e+00	0	39	0	896532480	54	5107
2026-01-18 08:59:26.16	9.80	21.68	-42.1	-44.8	18.2	0.00e+00	0	39	0	901775360	54	5285
2026-01-18 08:59:29.15	9.29	21.37	-42.1	-44.7	18.3	0.00e+00	0	39	0	908066816	54	5224
2026-01-18 08:59:32.15	8.78	21.06	-42.3	-45.0	18.0	0.00e+00	0	39	0	913309696	55	5125
2026-01-18 08:59:35.15	8.29	20.75	-42.3	-45.1	17.9	0.00e+00	0	39	0	918552576	55	5162
2026-01-18 08:59:38.16	7.81	20.44	-42.4	-45.2	17.8	0.00e+00	0	39	0	924844032	55	5238
2026-01-18 08:59:41.16	7.33	20.13	-42.8	-45.6	17.5	0.00e+00	0	39	0	930086912	56	5204
2026-01-18 08:59:44.16	6.87	19.82	-42.8	-45.7	17.5	0.00e+00	0	39	0	936378368	56	5251
2026-01-18 08:59:47.17	6.41	19.52	-42.6	-45.5	17.7	0.00e+00	0	39	0	941621248	56	5105
2026-01-18 08:59:50.17	5.97	19.21	-42.7	-45.4	17.7	0.00e+00	0	39	0	946864128	56	5083
2026-01-18 08:59:53.18	5.53	18.91	-42.8	-45.6	17.6	0.00e+00	0	39	0	953155584	56	5175
2026-01-18 08:59:56.18	5.10	18.61	-43.0	-45.9	17.2	0.00e+00	0	39	0	958398464	56	5367
2026-01-18 08:59:59.18	4.68	18.32	-43.2	-46.1	17.0	0.00e+00	0	39	0	963641344	57	5180
2026-01-18 09:00:02.19	4.27	18.02	-43.1	-46.0	17.1	0.00e+00	0	39	0	969932800	57	5158
2026-01-18 09:00:05.19	3.87	17.73	-43.0	-46.1	17.0	0.00e+00	0	39	0	975175680	57	5178
2026-01-18 09:00:08.20	3.47	17.43	-43.1	-45.9	17.1	0.00e+00	0	39	0	981467136	57	5098
2026-01-18 09:00:11.20	3.09	17.15	-43.1	-45.9	17.2	0.00e+00	0	40	0	986710016	57	5083
2026-01-18 09:00:14.19	2.71	16.86	-43.0	-45.9	17.3	0.00e+00	0	39	0	991952896	57	5044
2026-01-18 09:00:17.20	2.33	16.57	-43.0	-45.9	17.2	0.00e+00	0	39	0	998244352	57	5077
2026-01-18 09:00:20.20	1.97	16.29	-43.1	-45.9	17.2	0.00e+00	0	39	0	1003487232	57	5096
2026-01-18 09:00:23.20	1.61	16.01	-43.2	-46.1	17.0	0.00e+00	0	39	0	1008730112	57	5196
2026-01-18 09:00:26.21	1.26	15.73	-43.0	-46.1	17.0	0.00e+00	0	40	0	1015021568	57	5209
2026-01-18 09:00:29.21	0.91	15.46	-43.1	-46.2	16.8	0.00e+00	0	39	0	1020264448	57	5275
2026-01-18 09:00:32.20	0.58	15.18	-43.3	-46.3	16.8	0.00e+00	0	39	0	1025507328	57	5326
2026-01-18 09:00:35.21	0.25	14.91	-43.3	-46.3	16.8	0.00e+00	0	39	0	1031798784	57	5283
2026-01-18 09:00:38.22	359.92	14.64	-43.1	-46.1	16.9	0.00e+00	0	39	0	1037041664	57	5184
2026-01-18 09:00:41.21	359.60	14.37	-43.0	-45.9	17.1	0.00e+00	0	39	0	1043333120	57	5094
2026-01-18 09:00:44.22	359.29	14.10	-43.3	-46.2	16.9	0.00e+00	0	39	0	1048576000	57	5230
2026-01-18 09:00:47.22	358.98	13.84	-43.3	-46.2	16.8	0.00e+00	0	39	0	1053818880	57	5263
2026-01-18 09:00:50.22	358.68	13.58	-43.4	-46.6	16.5	0.00e+00	0	40	0	1060110336	57	5472
2026-01-18 09:00:53.23	358.38	13.32	-43.6	-46.9	16.2	0.00e+00	0	39	0	1065353216	57	5662
2026-01-18 09:00:56.24	358.09	13.06	-43.8	-47.0	16.0	0.00e+00	0	39	0	1070596096	58	5424
2026-01-18 09:00:59.25	357.80	12.80	-43.9	-47.1	16.0	0.00e+00	0	39	0	1076887552	58	5470
2026-01-18 09:01:02.25	357.52	12.55	-43.9	-47.1	16.0	0.00e+00	0	39	0	1082130432	58	5492
2026-01-18 09:01:05.26	357.24	12.29	-43.7	-47.2	15.8	0.00e+00	0	39	0	1088421888	58	5554
2026-01-18 09:01:08.26	356.97	12.04	-43.4	-47.1	15.9	0.00e+00	0	39	0	1093664768	58	5522
2026-01-18 09:01:11.26	356.70	11.79	-43.5	-47.2	15.8	0.00e+00	0	39	0	1098907648	58	5549
2026-01-18 09:01:14.27	356.44	11.55	-43.6	-47.2	15.8	0.00e+00	0	39	0	1105199104	58	5555
2026-01-18 09:01:17.27	356.18	11.30	-43.8	-47.3	15.7	0.00e+00	0	39	0	1110441984	58	5654
2026-01-18 09:01:20.28	355.93	11.06	-43.8	-47.7	15.2	0.00e+00	0	39	0	1115684864	58	5916
2026-01-18 09:01:23.28	355.68	10.82	-43.7	-47.9	15.1	0.00e+00	0	39	0	1121976320	58	5994
2026-01-18 09:01:26.28	355.44	10.58	-43.5	-48.0	15.0	0.00e+00	0	39	0	1127219200	58	6115
2026-01-18 09:01:29.29	355.20	10.34	-43.2	-47.9	15.1	0.00e+00	0	39	0	1133510656	58	6051
2026-01-18 09:01:32.29	354.96	10.11	-42.9	-47.8	15.2	0.00e+00	0	39	0	1138753536	57	6291
2026-01-18 09:01:35.29	354.73	9.87	-42.5	-47.8	15.1	0.00e+00	0	39	0	1143996416	56	6696
2026-01-18 09:01:38.29	354.50	9.64	-42.2	-48.2	14.8	0.00e+00	0	39	0	1150287872	56	6962
2026-01-18 09:01:41.30	354.27	9.41	-42.0	-48.4	14.5	0.00e+00	0	39	0	1155530752	56	7186
2026-01-18 09:01:44.30	354.05	9.18	-42.6	-48.6	14.3	7.00e-07	0	39	0	1160773632	56	7297
2026-01-18 09:01:47.30	353.84	8.95	-44.5	-64.0	3.8	7.18e-01	0	39	104	1166016512	60	34387
2026-01-18 09:01:50.29	353.62	8.73	-48.9	-64.6	3.8	1.49e+00	0	39	104	1166016512	68	23130
2026-01-18 09:01:53.28	353.41	8.50	-49.3	-64.6	3.8	1.49e+00	0	39	104	1166016512	69	22001
2026-01-18 09:01:56.27	353.21	8.28	-49.3	-64.7	3.8	1.49e+00	0	39	104	1166016512	69	22231
2026-01-18 09:01:59.26	353.00	8.06	-49.1	-64.8	3.8	1.49e+00	0	40	104	1166016512	69	22359
2026-01-18 09:02:02.25	352.80	7.85	-49.4	-64.8	3.8	1.49e+00	0	40	104	1166016512	69	22364
2026-01-18 09:02:05.24	352.61	7.63	-49.6	-64.8	3.8	1.49e+00	0	39	104	1166016512	69	22473
2026-01-18 09:02:08.23	352.41	7.41	-49.6	-64.8	3.8	1.49e+00	0	39	104	1166016512	69	22434
2026-01-18 09:02:11.22	352.22	7.20	-49.5	-64.8	3.8	1.49e+00	0	39	104	1166016512	69	22384
2026-01-18 09:02:14.21	352.04	6.99	-49.5	-64.8	3.8	1.49e+00	0	39	104	1166016512	69	22372
2026-01-18 09:02:17.20	351.85	6.78	-49.3	-64.7	3.8	1.49e+00	0	39	104	1166016512	69	22242
2026-01-18 09:02:20.18	351.67	6.57	-49.3	-64.8	3.8	1.49e+00	0	39	104	1166016512	69	22333
2026-01-18 09:02:23.17	351.49	6.36	-49.3	-64.7	3.8	1.49e+00	0	39	104	1166016512	69	22228
2026-01-18 09:02:26.15	351.31	6.15	-49.3	-64.7	3.8	1.49e+00	0	39	104	1166016512	69	22215
2026-01-18 09:02:29.14	351.14	5.95	-49.3	-64.7	3.8	1.49e+00	0	39	104	1166016512	69	22215
2026-01-18 09:02:32.20	350.97	5.74	-49.3	-64.7	3.8	1.49e+00	0	39	104	1166016512	69	22161
2026-01-18 09:02:35.32	350.79	5.53	-49.3	-64.7	3.8	1.49e+00	0	39	104	1166016512	69	22198
2026-01-18 09:02:38.15	350.63	5.34	-49.3	-64.7	3.8	1.49e+00	0	39	104	1166016512	69	22220
2026-01-18 09:02:41.28	350.46	5.13	-49.3	-64.7	3.8	1.49e+00	0	39	104	1166016512	69	22127

#Closed at: 2026-01-18 09:02:44
#Recorded file [1166 MB]: D:/Data/31040_260118_115044.dat