passes_logs/2026/01/18/T1/T1__20260118_001906_SUOMI_NPP_rec.log

#Pass ID: 20260118_001906_SUOMI NPP
#Satellite: SUOMI NPP
#Configuration: NPP
#almurnet v.1.7.20251203
#Start time: 2026-01-18 00:19:07

#Version: 2.0.20230620
#Station: T1
#Location: 37.570604 lon 55.790049 lat
#TLE: 1 37849U 11061A   26017.28905266  .00000074  00000+0  55894-4 0  9999
#TLE: 2 37849  98.7814 319.3179 0002408  59.7048 300.4366 14.19525847737038

#Time	Az	El	Level	Level2	SNR	BER	BlckErr	Temp	State	Recorded	gain1	gain2
2026-01-18 00:19:07.11	12.92	5.05	-48.5	-65.2	3.8	1.49e+00	0	40	0	0	69	23530
2026-01-18 00:19:10.08	12.84	5.26	-48.7	-65.0	3.8	1.49e+00	0	40	104	0	68	24225
2026-01-18 00:19:13.06	12.76	5.47	-48.7	-65.0	3.8	1.49e+00	0	40	104	0	68	24252
2026-01-18 00:19:16.04	12.68	5.69	-48.7	-65.1	3.8	1.49e+00	0	40	104	0	68	24444
2026-01-18 00:19:19.02	12.60	5.90	-48.7	-65.1	3.8	1.49e+00	0	41	104	0	68	24414
2026-01-18 00:19:22.00	12.52	6.12	-48.7	-64.9	3.8	1.49e+00	0	41	104	0	68	23970
2026-01-18 00:19:24.98	12.44	6.34	-48.7	-64.4	3.8	1.49e+00	0	41	104	0	68	22605
2026-01-18 00:19:27.96	12.35	6.56	-48.7	-63.8	3.8	1.49e+00	0	41	104	0	68	21030
2026-01-18 00:19:30.94	12.27	6.78	-48.6	-63.4	3.8	1.49e+00	0	41	104	0	68	20112
2026-01-18 00:19:33.92	12.18	7.01	-48.6	-63.5	3.8	1.49e+00	0	41	104	0	68	20397
2026-01-18 00:19:36.90	12.09	7.23	-48.7	-64.3	3.8	1.49e+00	0	42	104	0	68	22295
2026-01-18 00:19:39.88	12.00	7.46	-48.7	-64.9	3.8	1.49e+00	0	41	104	0	68	24022
2026-01-18 00:19:42.86	11.91	7.69	-48.7	-64.2	3.8	1.49e+00	0	41	104	0	68	22196
2026-01-18 00:19:45.84	11.81	7.92	-48.4	-60.0	4.7	1.18e+00	0	42	0	1048576	68	13689
2026-01-18 00:19:48.82	11.72	8.16	-47.4	-54.7	8.8	6.91e-02	0	42	0	6291456	66	8325
2026-01-18 00:19:51.80	11.62	8.39	-46.2	-51.4	12.2	3.87e-04	0	41	0	11534336	64	6354
2026-01-18 00:19:54.78	11.52	8.63	-45.4	-49.5	14.2	1.50e-06	0	42	0	17825792	62	5755
2026-01-18 00:19:57.76	11.42	8.87	-45.2	-49.3	14.4	7.00e-07	0	42	0	23068672	62	5609
2026-01-18 00:20:00.74	11.32	9.11	-45.9	-50.5	13.3	1.06e-05	0	42	0	28311552	62	6429
2026-01-18 00:20:03.74	11.21	9.36	-47.4	-54.6	9.1	2.63e-02	0	42	0	34603008	65	8703
2026-01-18 00:20:06.73	11.10	9.61	-42.7	-45.6	17.9	0.00e+00	0	42	0	39845888	57	4909
2026-01-18 00:20:09.72	11.00	9.86	-42.7	-45.6	17.9	0.00e+00	0	42	0	45088768	57	4914
2026-01-18 00:20:12.71	10.88	10.11	-42.4	-45.3	18.2	0.00e+00	0	42	0	51380224	56	5035
2026-01-18 00:20:15.69	10.77	10.37	-42.4	-45.3	18.2	0.00e+00	0	42	0	56623104	56	5010
2026-01-18 00:20:18.64	10.66	10.62	-42.2	-44.9	18.6	0.00e+00	0	42	0	61865984	56	4805
2026-01-18 00:20:21.71	10.54	10.89	-42.3	-45.0	18.5	0.00e+00	0	42	0	68157440	56	4851
2026-01-18 00:20:24.70	10.41	11.15	-42.1	-44.8	18.7	0.00e+00	0	42	0	73400320	56	4748
2026-01-18 00:20:27.99	10.28	11.44	-41.7	-44.3	19.0	0.00e+00	0	42	0	79691776	55	4719
2026-01-18 00:20:30.71	10.16	11.69	-41.8	-44.4	19.0	0.00e+00	0	42	0	84934656	55	4763
2026-01-18 00:20:34.01	10.02	11.99	-41.9	-44.5	18.8	0.00e+00	0	42	0	91226112	55	4830
2026-01-18 00:20:36.78	9.90	12.24	-41.8	-44.4	19.0	0.00e+00	0	42	0	96468992	55	4773
2026-01-18 00:20:40.11	9.75	12.55	-41.9	-44.5	18.9	0.00e+00	0	42	0	102760448	55	4821
2026-01-18 00:20:42.94	9.62	12.82	-41.9	-44.5	18.9	0.00e+00	0	42	0	108003328	55	4840
2026-01-18 00:20:46.24	9.47	13.13	-42.1	-44.6	18.7	0.00e+00	0	42	0	114294784	55	4921
2026-01-18 00:20:48.94	9.34	13.39	-42.1	-44.7	18.8	0.00e+00	0	42	0	118489088	55	4929
2026-01-18 00:20:52.22	9.18	13.71	-42.1	-44.6	18.8	0.00e+00	0	43	0	124780544	55	4915
2026-01-18 00:20:54.95	9.05	13.98	-42.0	-44.4	18.9	0.00e+00	0	42	0	130023424	55	4810
2026-01-18 00:20:58.22	8.88	14.30	-42.2	-44.7	18.8	0.00e+00	0	42	0	136314880	55	4970
2026-01-18 00:21:00.93	8.74	14.58	-42.1	-44.6	18.8	0.00e+00	0	42	0	141557760	55	4905
2026-01-18 00:21:04.23	8.57	14.91	-42.0	-44.4	19.0	0.00e+00	0	42	0	147849216	55	4810
2026-01-18 00:21:06.94	8.42	15.19	-42.0	-44.5	19.0	0.00e+00	0	42	0	153092096	55	4825
2026-01-18 00:21:10.23	8.24	15.53	-42.0	-44.5	19.0	0.00e+00	0	43	0	158334976	55	4819
2026-01-18 00:21:12.99	8.08	15.83	-42.0	-44.4	19.0	0.00e+00	0	42	0	163577856	55	4781
2026-01-18 00:21:16.30	7.89	16.18	-42.0	-44.4	19.0	0.00e+00	0	43	0	169869312	55	4809
2026-01-18 00:21:19.30	7.71	16.50	-41.9	-44.2	19.2	0.00e+00	0	42	0	176160768	55	4705
2026-01-18 00:21:22.35	7.52	16.84	-42.2	-44.6	18.9	0.00e+00	0	43	0	181403648	55	4904
2026-01-18 00:21:25.56	7.32	17.19	-42.1	-44.4	19.0	0.00e+00	0	43	0	187695104	55	4796
2026-01-18 00:21:28.40	7.14	17.51	-42.0	-44.3	19.1	0.00e+00	0	43	0	192937984	55	4739
2026-01-18 00:21:31.53	6.94	17.87	-42.1	-44.4	19.0	0.00e+00	0	42	0	199229440	55	4804
2026-01-18 00:21:34.37	6.75	18.20	-42.1	-44.4	19.0	0.00e+00	0	43	0	204472320	55	4811
2026-01-18 00:21:37.61	6.53	18.58	-42.1	-44.5	19.0	0.00e+00	0	43	0	209715200	55	4855
2026-01-18 00:21:40.45	6.33	18.91	-42.0	-44.4	19.1	0.00e+00	0	43	0	214958080	55	4762
2026-01-18 00:21:43.57	6.10	19.29	-42.1	-44.4	19.1	0.00e+00	0	43	0	221249536	55	4807
2026-01-18 00:21:46.41	5.89	19.63	-42.0	-44.4	19.1	0.00e+00	0	43	0	226492416	55	4789
2026-01-18 00:21:49.54	5.66	20.02	-41.9	-44.2	19.2	0.00e+00	0	43	0	232783872	55	4689
2026-01-18 00:21:52.38	5.44	20.37	-42.1	-44.6	19.0	0.00e+00	0	43	0	238026752	55	4879
2026-01-18 00:21:55.62	5.18	20.78	-42.2	-44.7	18.9	0.00e+00	0	43	0	244318208	55	4932
2026-01-18 00:21:58.46	4.94	21.15	-42.7	-45.3	18.5	0.00e+00	0	43	0	249561088	56	4990
2026-01-18 00:22:01.59	4.68	21.56	-42.9	-45.4	18.4	0.00e+00	0	43	0	254803968	56	5083
2026-01-18 00:22:04.61	4.42	21.96	-42.9	-45.3	18.4	0.00e+00	0	43	0	261095424	56	5041
2026-01-18 00:22:07.86	4.13	22.39	-42.6	-45.0	18.8	0.00e+00	0	43	0	267386880	56	4817
2026-01-18 00:22:10.78	3.87	22.79	-42.3	-44.6	19.1	0.00e+00	0	42	0	272629760	56	4645
2026-01-18 00:22:14.25	3.54	23.27	-42.8	-45.1	18.7	0.00e+00	0	43	0	278921216	56	4910
2026-01-18 00:22:16.96	3.28	23.65	-42.9	-45.3	18.5	0.00e+00	0	43	0	284164096	57	4738
2026-01-18 00:22:20.24	2.95	24.12	-43.3	-45.9	17.9	0.00e+00	0	43	0	290455552	57	5090
2026-01-18 00:22:23.22	2.65	24.55	-43.8	-46.6	17.4	0.00e+00	0	43	0	295698432	58	5170
2026-01-18 00:22:26.49	2.30	25.03	-43.7	-46.4	17.5	0.00e+00	0	43	0	301989888	59	4793
2026-01-18 00:22:29.21	2.01	25.43	-43.8	-46.5	17.5	0.00e+00	0	43	0	307232768	59	4824
2026-01-18 00:22:32.76	1.61	25.97	-43.6	-46.2	17.7	0.00e+00	0	43	0	313524224	58	4959
2026-01-18 00:22:35.49	1.29	26.39	-43.6	-46.1	17.8	0.00e+00	0	43	0	318767104	58	4920
2026-01-18 00:22:38.79	0.90	26.90	-44.0	-46.6	17.3	0.00e+00	0	43	0	325058560	59	4912
2026-01-18 00:22:41.56	0.56	27.34	-44.2	-47.0	17.0	0.00e+00	0	43	0	330301440	59	5120
2026-01-18 00:22:44.83	0.15	27.86	-44.2	-46.9	17.2	0.00e+00	0	43	0	336592896	59	5081
2026-01-18 00:22:47.54	359.79	28.30	-44.4	-47.1	16.9	0.00e+00	0	43	0	340787200	59	5195
2026-01-18 00:22:50.82	359.35	28.84	-44.7	-47.6	16.5	0.00e+00	0	43	0	347078656	60	5173
2026-01-18 00:22:53.55	358.97	29.30	-45.4	-48.8	15.4	0.00e+00	0	43	0	352321536	61	5614
2026-01-18 00:22:56.81	358.50	29.85	-45.3	-48.4	15.7	0.00e+00	0	43	0	358612992	61	5399
2026-01-18 00:22:59.62	358.08	30.34	-44.8	-47.8	16.3	0.00e+00	0	43	0	363855872	61	5003
2026-01-18 00:23:03.02	357.56	30.93	-44.5	-47.4	16.7	0.00e+00	0	43	0	370147328	60	5068
2026-01-18 00:23:05.95	357.09	31.45	-44.2	-46.9	17.2	0.00e+00	0	43	0	375390208	59	5052
2026-01-18 00:23:09.16	356.57	32.03	-43.4	-45.9	18.1	0.00e+00	0	43	0	381681664	58	4773
2026-01-18 00:23:12.30	356.03	32.61	-44.1	-46.8	17.3	0.00e+00	0	43	0	387973120	59	4998
2026-01-18 00:23:15.15	355.52	33.13	-44.9	-48.0	16.2	0.00e+00	0	43	0	393216000	60	5436
2026-01-18 00:23:18.28	354.95	33.72	-45.1	-48.4	15.8	0.00e+00	0	43	0	398458880	61	5356
2026-01-18 00:23:21.12	354.41	34.26	-45.1	-48.2	15.9	0.00e+00	0	43	0	404750336	61	5279
2026-01-18 00:23:24.57	353.73	34.92	-45.7	-49.0	15.2	0.00e+00	0	43	0	411041792	62	5448
2026-01-18 00:23:27.27	353.18	35.45	-45.5	-48.8	15.5	0.00e+00	0	43	0	416284672	62	5285
2026-01-18 00:23:30.55	352.48	36.10	-45.6	-49.0	15.3	0.00e+00	0	43	0	421527552	62	5437
2026-01-18 00:23:33.25	351.89	36.64	-46.7	-51.0	13.2	2.89e-05	0	43	0	426770432	64	6104
2026-01-18 00:23:36.55	351.14	37.30	-46.2	-50.2	13.9	5.30e-06	0	43	0	433061888	64	5567
2026-01-18 00:23:39.26	350.49	37.86	-45.4	-48.8	15.5	0.00e+00	0	43	0	438304768	62	5312
2026-01-18 00:23:42.69	349.65	38.56	-45.5	-48.7	15.6	0.00e+00	0	43	0	444596224	62	5238
2026-01-18 00:23:45.72	348.87	39.19	-45.7	-48.9	15.3	0.00e+00	0	43	0	450887680	62	5357
2026-01-18 00:23:49.01	347.98	39.88	-46.2	-49.9	14.5	7.00e-07	0	43	0	456130560	63	5691
2026-01-18 00:23:51.73	347.23	40.46	-47.3	-52.0	12.2	4.42e-05	0	43	0	461373440	65	6428
2026-01-18 00:23:55.01	346.27	41.16	-47.3	-52.1	12.1	1.69e-04	0	43	0	467664896	65	6566
2026-01-18 00:23:57.87	345.41	41.77	-47.7	-53.2	10.9	1.85e-03	0	43	0	472907776	66	7009
2026-01-18 00:24:01.27	344.34	42.50	-46.8	-50.8	13.4	5.26e-05	0	43	0	479199232	65	5649
2026-01-18 00:24:03.98	343.45	43.08	-45.9	-49.4	14.9	0.00e+00	0	43	0	484442112	63	5360
2026-01-18 00:24:07.25	342.33	43.79	-44.8	-47.9	16.3	0.00e+00	0	43	0	490733568	61	5083
2026-01-18 00:24:09.95	341.37	44.37	-44.9	-48.2	16.1	0.00e+00	0	43	0	495976448	61	5233
2026-01-18 00:24:13.23	340.15	45.08	-45.8	-49.1	15.1	0.00e+00	0	43	0	502267904	62	5528
2026-01-18 00:24:16.09	339.04	45.69	-45.3	-48.3	15.9	0.00e+00	0	43	0	507510784	62	5036
2026-01-18 00:24:19.52	337.65	46.43	-44.2	-46.9	17.3	0.00e+00	0	43	0	513802240	60	4764
2026-01-18 00:24:22.50	336.39	47.06	-44.5	-47.3	16.9	0.00e+00	0	43	0	519045120	60	5010
2026-01-18 00:24:25.85	334.92	47.76	-44.8	-47.6	16.5	0.00e+00	0	43	0	525336576	61	4922
2026-01-18 00:24:28.58	333.66	48.33	-44.0	-46.6	17.6	0.00e+00	0	43	0	530579456	59	4899
2026-01-18 00:24:31.85	332.10	48.99	-44.9	-48.0	16.3	0.00e+00	0	43	0	536870912	60	5404
2026-01-18 00:24:34.58	330.74	49.54	-45.4	-48.8	15.5	0.00e+00	0	43	0	542113792	61	5622
2026-01-18 00:24:37.84	329.05	50.17	-44.6	-47.5	16.7	0.00e+00	0	43	0	548405248	61	4861
2026-01-18 00:24:40.57	327.58	50.69	-42.6	-44.8	19.0	0.00e+00	0	43	0	553648128	57	4490
2026-01-18 00:24:43.85	325.75	51.30	-42.5	-44.8	19.1	0.00e+00	0	43	0	558891008	56	4711
2026-01-18 00:24:46.57	324.18	51.78	-43.2	-45.6	18.4	0.00e+00	0	43	0	564133888	57	4897
2026-01-18 00:24:49.86	322.20	52.33	-43.9	-46.5	17.7	0.00e+00	0	43	0	570425344	59	4818
2026-01-18 00:24:52.58	320.52	52.77	-43.8	-46.5	17.6	0.00e+00	0	43	0	575668224	59	4848
2026-01-18 00:24:55.87	318.41	53.27	-43.9	-46.6	17.5	0.00e+00	0	43	0	581959680	59	4910
2026-01-18 00:24:58.58	316.62	53.65	-43.1	-45.5	18.4	0.00e+00	0	43	0	587202560	57	4861
2026-01-18 00:25:01.87	314.38	54.08	-42.3	-44.5	19.2	0.00e+00	0	43	0	593494016	55	4836
2026-01-18 00:25:04.59	312.49	54.41	-43.5	-45.9	18.1	0.00e+00	0	43	0	598736896	58	4809
2026-01-18 00:25:07.86	310.15	54.76	-42.4	-44.6	19.3	0.00e+00	0	43	0	603979776	56	4638
2026-01-18 00:25:10.61	308.14	55.01	-42.3	-44.6	19.2	0.00e+00	0	43	0	609222656	55	4873
2026-01-18 00:25:13.88	305.71	55.27	-42.9	-45.2	18.8	0.00e+00	0	43	0	615514112	57	4703
2026-01-18 00:25:16.59	303.67	55.45	-41.2	-43.2	20.3	0.00e+00	0	43	0	620756992	54	4435
2026-01-18 00:25:19.86	301.17	55.62	-41.2	-43.3	20.3	0.00e+00	0	43	0	627048448	53	4716
2026-01-18 00:25:22.58	299.07	55.72	-41.0	-43.1	20.4	0.00e+00	0	43	0	632291328	54	4376
2026-01-18 00:25:25.85	296.53	55.78	-40.3	-42.2	21.2	0.00e+00	0	43	0	638582784	52	4413
2026-01-18 00:25:28.55	294.43	55.80	-40.9	-43.0	20.5	0.00e+00	0	43	0	642777088	52	4822
2026-01-18 00:25:31.82	291.88	55.76	-40.4	-42.3	21.0	0.00e+00	0	43	0	649068544	52	4485
2026-01-18 00:25:35.23	289.24	55.67	-40.8	-42.8	20.7	0.00e+00	0	43	0	655360000	53	4451
2026-01-18 00:25:38.07	287.06	55.54	-40.7	-42.7	20.7	0.00e+00	0	43	0	660602880	53	4421
2026-01-18 00:25:41.20	284.68	55.36	-41.5	-43.6	20.1	0.00e+00	0	43	0	666894336	54	4617
2026-01-18 00:25:44.13	282.48	55.15	-40.3	-42.3	21.2	0.00e+00	0	43	0	672137216	52	4455
2026-01-18 00:25:47.48	280.01	54.85	-40.6	-42.5	21.0	0.00e+00	0	43	0	678428672	51	4870
2026-01-18 00:25:50.18	278.07	54.58	-39.9	-41.8	21.5	0.00e+00	0	43	0	683671552	51	4490
2026-01-18 00:25:53.93	275.42	54.15	-40.0	-41.9	21.5	0.00e+00	0	43	0	691011584	51	4503
2026-01-18 00:25:56.65	273.56	53.80	-40.9	-42.9	20.6	0.00e+00	0	43	0	696254464	52	4785
2026-01-18 00:25:59.95	271.36	53.34	-40.8	-42.8	20.7	0.00e+00	0	43	0	702545920	53	4455
2026-01-18 00:26:02.66	269.61	52.94	-42.1	-44.3	19.4	0.00e+00	0	43	0	706740224	55	4751
2026-01-18 00:26:05.95	267.54	52.42	-42.9	-45.2	18.8	0.00e+00	0	43	0	713031680	57	4684
2026-01-18 00:26:08.86	265.78	51.93	-43.6	-46.1	17.9	0.00e+00	0	43	0	719323136	58	4906
2026-01-18 00:26:12.36	263.74	51.31	-43.4	-45.9	18.2	0.00e+00	0	43	0	725614592	58	4762
2026-01-18 00:26:15.07	262.21	50.82	-43.6	-46.0	18.0	0.00e+00	0	43	0	730857472	57	5158
2026-01-18 00:26:18.34	260.44	50.20	-43.3	-45.7	18.3	0.00e+00	0	43	0	736100352	58	4696
2026-01-18 00:26:21.09	259.01	49.66	-43.4	-45.9	18.2	0.00e+00	0	43	0	741343232	57	5053
2026-01-18 00:26:24.83	257.14	48.91	-43.8	-46.3	17.8	0.00e+00	0	43	0	748683264	58	5040
2026-01-18 00:26:27.53	255.85	48.36	-44.5	-47.3	16.9	0.00e+00	0	43	0	753926144	60	4997
2026-01-18 00:26:30.83	254.33	47.67	-44.1	-46.7	17.3	0.00e+00	0	43	0	760217600	59	4972
2026-01-18 00:26:33.58	253.11	47.10	-47.3	-51.7	12.5	1.37e-05	0	43	0	765460480	65	6261
2026-01-18 00:26:36.86	251.72	46.40	-47.0	-51.1	12.9	2.49e-04	0	43	0	771751936	66	5519
2026-01-18 00:26:39.58	250.61	45.82	-46.4	-50.2	14.0	1.50e-06	0	43	0	775946240	64	5543
2026-01-18 00:26:42.87	249.33	45.11	-45.0	-47.9	16.3	0.00e+00	0	43	0	782237696	62	4805
2026-01-18 00:26:45.88	248.20	44.45	-43.3	-45.7	18.3	0.00e+00	0	43	0	788529152	58	4667
2026-01-18 00:26:49.15	247.03	43.75	-44.8	-47.7	16.6	0.00e+00	0	43	0	793772032	60	5226
2026-01-18 00:26:51.86	246.10	43.16	-45.5	-48.6	15.7	0.00e+00	0	43	0	799014912	62	5165
2026-01-18 00:26:55.15	245.01	42.45	-46.2	-49.8	14.5	0.00e+00	0	43	0	805306368	63	5626
2026-01-18 00:26:57.85	244.15	41.86	-45.6	-48.7	15.5	0.00e+00	0	43	0	810549248	63	4974
2026-01-18 00:27:01.15	243.15	41.15	-45.2	-48.2	16.2	0.00e+00	0	43	0	816840704	62	4944
2026-01-18 00:27:04.21	242.25	40.50	-45.8	-49.1	15.2	0.00e+00	0	43	0	822083584	62	5498
2026-01-18 00:27:07.49	241.34	39.80	-46.0	-49.5	14.8	0.00e+00	0	43	0	828375040	63	5426
2026-01-18 00:27:10.20	240.61	39.23	-45.5	-48.7	15.5	0.00e+00	0	43	0	833617920	63	4973
2026-01-18 00:27:13.47	239.76	38.55	-45.2	-48.3	16.0	0.00e+00	0	43	0	839909376	61	5281
2026-01-18 00:27:16.18	239.08	37.99	-45.0	-48.0	16.4	0.00e+00	0	43	0	845152256	61	5117
2026-01-18 00:27:19.70	238.24	37.27	-46.2	-49.7	14.6	0.00e+00	0	43	0	851443712	62	5883
2026-01-18 00:27:22.45	237.61	36.71	-45.8	-49.1	15.2	0.00e+00	0	43	0	856686592	63	5193
2026-01-18 00:27:25.75	236.87	36.05	-46.1	-49.4	14.8	1.50e-06	0	43	0	862978048	63	5399
2026-01-18 00:27:28.45	236.30	35.51	-44.7	-47.5	16.6	0.00e+00	0	43	0	868220928	61	4870
2026-01-18 00:27:31.73	235.62	34.87	-45.4	-48.6	15.7	0.00e+00	0	43	0	874512384	61	5488
2026-01-18 00:27:34.50	235.07	34.33	-46.5	-50.5	13.7	7.00e-07	0	43	0	879755264	64	5724
2026-01-18 00:27:37.78	234.44	33.71	-44.7	-47.6	16.6	0.00e+00	0	43	0	884998144	61	4873
2026-01-18 00:27:40.58	233.93	33.18	-44.9	-47.9	16.4	0.00e+00	0	43	0	890241024	60	5346
2026-01-18 00:27:43.70	233.37	32.60	-45.1	-48.0	16.2	0.00e+00	0	43	0	896532480	61	5159
2026-01-18 00:27:46.55	232.88	32.07	-45.3	-48.5	15.7	0.00e+00	0	43	0	901775360	61	5430
2026-01-18 00:27:49.68	232.36	31.51	-45.8	-49.2	15.0	0.00e+00	0	43	0	908066816	62	5589
2026-01-18 00:27:52.60	231.88	30.98	-46.4	-50.2	14.1	7.00e-07	0	43	0	913309696	63	5915
2026-01-18 00:27:55.76	231.39	30.43	-46.3	-50.2	14.0	7.00e-07	0	43	0	919601152	64	5556
2026-01-18 00:27:58.60	230.96	29.93	-44.2	-46.9	17.2	0.00e+00	0	43	0	924844032	60	4806
2026-01-18 00:28:01.73	230.51	29.40	-43.6	-46.1	17.9	0.00e+00	0	43	0	930086912	58	4909
2026-01-18 00:28:04.57	230.11	28.92	-44.1	-46.8	17.3	0.00e+00	0	43	0	935329792	58	5303
2026-01-18 00:28:07.70	229.68	28.40	-44.7	-47.5	16.6	0.00e+00	0	43	0	941621248	60	5138
2026-01-18 00:28:10.54	229.30	27.93	-44.8	-47.7	16.4	0.00e+00	0	43	0	946864128	61	4980
2026-01-18 00:28:13.80	228.88	27.40	-44.0	-46.6	17.5	0.00e+00	0	43	0	953155584	60	4625
2026-01-18 00:28:16.72	228.52	26.94	-43.6	-46.0	18.0	0.00e+00	0	43	0	958398464	58	4861
2026-01-18 00:28:20.00	228.12	26.42	-43.7	-46.2	17.8	0.00e+00	0	43	0	964689920	58	4981
2026-01-18 00:28:22.75	227.80	26.00	-43.6	-46.1	17.9	0.00e+00	0	43	0	969932800	58	4913
2026-01-18 00:28:26.03	227.43	25.50	-44.1	-46.8	17.3	0.00e+00	0	43	0	976224256	58	5291
2026-01-18 00:28:28.74	227.13	25.09	-44.5	-47.2	16.8	0.00e+00	0	43	0	981467136	59	5270
2026-01-18 00:28:32.16	226.76	24.59	-43.8	-46.4	17.5	0.00e+00	0	43	0	987758592	59	4785
2026-01-18 00:28:35.18	226.45	24.15	-43.5	-46.0	17.9	0.00e+00	0	43	0	993001472	59	4566
2026-01-18 00:28:38.45	226.11	23.68	-43.6	-46.0	17.9	0.00e+00	0	43	0	999292928	59	4586
2026-01-18 00:28:41.15	225.85	23.30	-43.1	-45.5	18.4	0.00e+00	0	43	0	1004535808	58	4553
2026-01-18 00:28:44.56	225.52	22.82	-43.5	-46.0	18.0	0.00e+00	0	43	0	1010827264	58	4815
2026-01-18 00:28:47.28	225.27	22.45	-44.3	-47.0	16.9	0.00e+00	0	43	0	1016070144	59	5144
2026-01-18 00:28:50.64	224.97	21.99	-44.9	-47.9	16.2	0.00e+00	0	43	0	1022361600	60	5384
2026-01-18 00:28:53.87	224.68	21.56	-44.2	-47.0	17.1	0.00e+00	0	43	0	1028653056	60	4819
2026-01-18 00:28:56.86	224.43	21.17	-43.9	-46.5	17.4	0.00e+00	0	43	0	1033895936	59	4847
2026-01-18 00:28:59.85	224.18	20.78	-44.3	-47.1	16.9	0.00e+00	0	43	0	1039138816	59	5168
2026-01-18 00:29:02.84	223.94	20.40	-44.8	-47.6	16.4	0.00e+00	0	43	0	1045430272	60	5204
2026-01-18 00:29:05.87	223.70	20.02	-44.6	-47.4	16.7	0.00e+00	0	43	0	1050673152	60	5051
2026-01-18 00:29:08.85	223.47	19.65	-44.0	-46.5	17.4	0.00e+00	0	43	0	1055916032	59	4863
2026-01-18 00:29:11.83	223.24	19.29	-43.4	-45.8	18.0	0.00e+00	0	43	0	1062207488	58	4741
2026-01-18 00:29:14.82	223.02	18.92	-43.2	-45.7	18.2	0.00e+00	0	43	0	1067450368	58	4659
2026-01-18 00:29:17.80	222.81	18.57	-43.1	-45.5	18.3	0.00e+00	0	43	0	1072693248	58	4568
2026-01-18 00:29:20.79	222.60	18.22	-43.2	-45.7	18.2	0.00e+00	0	43	0	1078984704	58	4657
2026-01-18 00:29:23.89	222.39	17.86	-43.6	-46.2	17.7	0.00e+00	0	43	0	1084227584	58	4947
2026-01-18 00:29:26.75	222.20	17.53	-44.2	-46.9	17.1	0.00e+00	0	43	0	1089470464	58	5367
2026-01-18 00:29:30.10	221.98	17.15	-44.8	-47.7	16.4	0.00e+00	0	43	0	1095761920	60	5268
2026-01-18 00:29:32.83	221.81	16.84	-45.1	-48.1	15.9	0.00e+00	0	43	0	1101004800	60	5512
2026-01-18 00:29:36.10	221.61	16.48	-45.4	-48.7	15.3	0.00e+00	0	43	0	1107296256	61	5561
2026-01-18 00:29:39.02	221.43	16.16	-45.4	-48.6	15.4	0.00e+00	0	43	0	1112539136	61	5516
2026-01-18 00:29:42.01	221.25	15.84	-45.0	-48.1	15.9	0.00e+00	0	43	0	1118830592	61	5163
2026-01-18 00:29:44.99	221.08	15.53	-44.9	-47.8	16.1	0.00e+00	0	43	0	1124073472	61	5035
2026-01-18 00:29:47.98	220.91	15.21	-44.8	-47.8	16.2	0.00e+00	0	43	0	1129316352	61	5008
2026-01-18 00:29:50.96	220.74	14.90	-44.7	-47.7	16.3	0.00e+00	0	43	0	1135607808	61	4935
2026-01-18 00:29:53.95	220.58	14.60	-44.8	-47.9	16.1	0.00e+00	0	43	0	1140850688	60	5363
2026-01-18 00:29:56.93	220.42	14.29	-44.7	-47.7	16.3	0.00e+00	0	43	0	1146093568	60	5229
2026-01-18 00:29:59.96	220.26	13.99	-45.0	-48.2	15.7	0.00e+00	0	43	0	1152385024	60	5572
2026-01-18 00:30:02.87	220.12	13.70	-45.0	-48.1	15.8	0.00e+00	0	43	0	1157627904	61	5212
2026-01-18 00:30:05.99	219.96	13.40	-45.2	-48.5	15.5	0.00e+00	0	43	0	1162870784	61	5408
2026-01-18 00:30:08.84	219.82	13.12	-45.1	-48.4	15.5	0.00e+00	0	43	0	1169162240	61	5362
2026-01-18 00:30:11.97	219.67	12.82	-44.8	-47.9	16.0	0.00e+00	0	43	0	1174405120	61	5076
2026-01-18 00:30:14.84	219.54	12.55	-44.8	-47.9	16.1	0.00e+00	0	43	0	1179648000	61	5044
2026-01-18 00:30:17.97	219.39	12.26	-44.9	-48.1	15.8	0.00e+00	0	43	0	1185939456	61	5170
2026-01-18 00:30:20.81	219.26	11.99	-45.2	-48.4	15.5	0.00e+00	0	43	0	1191182336	61	5374
2026-01-18 00:30:23.93	219.13	11.71	-45.4	-48.8	15.1	0.00e+00	0	43	0	1197473792	61	5613
2026-01-18 00:30:26.77	219.00	11.45	-45.8	-49.5	14.4	0.00e+00	0	43	0	1202716672	62	5735
2026-01-18 00:30:29.92	218.87	11.17	-45.9	-49.7	14.2	1.50e-06	0	43	0	1207959552	62	5909
2026-01-18 00:30:32.81	218.75	10.91	-45.9	-49.7	14.2	0.00e+00	0	43	0	1213202432	62	5892
2026-01-18 00:30:36.11	218.61	10.62	-45.7	-49.4	14.4	7.00e-07	0	43	0	1219493888	62	5718
2026-01-18 00:30:39.22	218.49	10.35	-45.6	-49.3	14.5	0.00e+00	0	43	0	1225785344	62	5633
2026-01-18 00:30:42.06	218.38	10.11	-45.5	-49.1	14.7	7.00e-07	0	43	0	1231028224	62	5527
2026-01-18 00:30:45.19	218.26	9.84	-45.2	-48.7	15.1	0.00e+00	0	43	0	1237319680	62	5230
2026-01-18 00:30:48.04	218.15	9.60	-45.2	-48.7	15.1	0.00e+00	0	43	0	1242562560	62	5259
2026-01-18 00:30:51.10	218.03	9.34	-45.3	-48.9	14.9	0.00e+00	0	43	0	1247805440	62	5382
2026-01-18 00:30:54.23	217.92	9.08	-45.3	-48.9	14.9	7.00e-07	0	43	0	1254096896	62	5367
2026-01-18 00:30:57.07	217.82	8.85	-50.0	-65.2	3.8	1.49e+00	0	43	104	1257242624	70	22241
2026-01-18 00:31:00.19	217.71	8.60	-50.5	-65.7	3.8	1.49e+00	0	43	104	1257242624	71	22095
2026-01-18 00:31:03.12	217.61	8.36	-50.6	-65.9	3.8	1.49e+00	0	43	104	1257242624	71	22523
2026-01-18 00:31:06.48	217.49	8.09	-50.5	-65.9	3.8	1.49e+00	0	43	104	1257242624	72	21290
2026-01-18 00:31:09.40	217.39	7.86	-50.6	-65.9	3.8	1.49e+00	0	43	104	1257242624	72	21312
2026-01-18 00:31:12.79	217.28	7.60	-50.5	-65.8	3.8	1.49e+00	0	43	104	1257242624	72	21234
2026-01-18 00:31:15.55	217.19	7.38	-50.4	-65.8	3.8	1.49e+00	0	43	104	1257242624	72	21242
2026-01-18 00:31:18.81	217.09	7.13	-50.2	-65.8	3.8	1.49e+00	0	43	104	1257242624	72	21059
2026-01-18 00:31:21.51	217.01	6.93	-50.2	-65.7	3.8	1.49e+00	0	43	104	1257242624	72	20902
2026-01-18 00:31:24.79	216.91	6.68	-50.2	-65.7	3.8	1.49e+00	0	43	104	1257242624	72	20935
2026-01-18 00:31:27.48	216.83	6.48	-50.2	-65.7	3.8	1.49e+00	0	43	104	1257242624	72	20910
2026-01-18 00:31:30.75	216.73	6.24	-50.2	-65.7	3.8	1.49e+00	0	43	104	1257242624	72	20925
2026-01-18 00:31:33.47	216.65	6.04	-50.2	-65.7	3.8	1.49e+00	0	43	104	1257242624	72	20992
2026-01-18 00:31:36.74	216.56	5.80	-50.2	-65.7	3.8	1.49e+00	0	43	104	1257242624	72	20851
2026-01-18 00:31:39.44	216.48	5.60	-50.2	-65.7	3.8	1.49e+00	0	43	104	1257242624	72	20927
2026-01-18 00:31:42.71	216.39	5.37	-50.2	-65.7	3.8	1.49e+00	0	43	104	1257242624	72	20814
2026-01-18 00:31:45.43	216.31	5.17	-50.2	-65.7	3.8	1.49e+00	0	43	104	1257242624	72	20851
2026-01-18 00:31:48.72	216.23	4.94	-50.2	-65.7	3.8	1.49e+00	0	43	104	1257242624	72	20802

#Closed at: 2026-01-18 00:31:49
#Recorded file [1257 MB]: D:/Data/31040_260118_031907.dat