passes_logs/2026/01/18/T1/T1__20260118_103024_NOAA_20_JPSS-1_rec.log

#Pass ID: 20260118_103024_NOAA 20 (JPSS-1)
#Satellite: NOAA 20 (JPSS-1)
#Configuration: NOAA 20
#almurnet v.1.7.20251203
#Start time: 2026-01-18 10:30:26

#Version: 2.0.20230620
#Station: T1
#Location: 37.570604 lon 55.790049 lat
#TLE: 1 43013U 17073A   26017.58553584  .00000066  00000+0  52288-4 0  9998
#TLE: 2 43013  98.7639 318.4977 0001406  35.6039 324.5231 14.19536575423107

#Time	Az	El	Level	Level2	SNR	BER	BlckErr	Temp	State	Recorded	gain1	gain2
2026-01-18 10:30:26.63	178.58	5.14	-48.9	-64.8	3.8	1.49e+00	0	41	0	0	69	22343
2026-01-18 10:30:30.60	178.71	5.42	-47.8	-64.1	3.8	1.49e+00	0	41	104	0	66	24412
2026-01-18 10:30:34.57	178.85	5.70	-47.7	-64.0	3.8	1.49e+00	0	41	104	0	66	24234
2026-01-18 10:30:38.55	178.99	5.99	-47.7	-64.2	3.8	1.49e+00	0	41	104	0	66	24832
2026-01-18 10:30:42.52	179.14	6.28	-47.8	-64.2	3.8	1.49e+00	0	41	104	0	66	24773
2026-01-18 10:30:46.49	179.28	6.57	-47.7	-63.5	3.8	1.49e+00	0	41	104	0	66	22843
2026-01-18 10:30:50.47	179.43	6.87	-47.7	-62.6	3.8	1.49e+00	0	41	104	0	66	20595
2026-01-18 10:30:54.44	179.58	7.17	-47.6	-63.8	3.8	1.49e+00	0	41	104	0	66	23590
2026-01-18 10:30:58.42	179.74	7.47	-47.0	-56.3	6.8	3.85e-01	0	42	0	2097152	66	9994
2026-01-18 10:31:02.39	179.89	7.78	-45.1	-50.0	13.3	1.69e-04	0	42	0	10485760	62	6080
2026-01-18 10:31:06.36	180.05	8.09	-44.0	-47.6	15.6	0.00e+00	0	42	0	17825792	59	5499
2026-01-18 10:31:10.34	180.22	8.41	-44.6	-48.7	14.6	0.00e+00	0	42	0	25165824	59	6210
2026-01-18 10:31:14.31	180.38	8.72	-46.1	-52.3	10.9	1.28e-03	0	42	0	32505856	62	7906
2026-01-18 10:31:18.28	180.55	9.04	-47.2	-57.9	5.5	4.16e-01	0	42	0	39845888	65	12722
2026-01-18 10:31:22.24	180.73	9.37	-47.4	-58.4	5.2	7.97e-01	0	42	0	44040192	65	13429
2026-01-18 10:31:26.33	180.91	9.71	-47.0	-55.0	8.1	6.07e-02	0	42	0	52428800	65	9074
2026-01-18 10:31:30.35	181.09	10.05	-47.1	-54.3	8.5	3.09e-02	0	42	0	59768832	65	8423
2026-01-18 10:31:34.49	181.29	10.40	-47.2	-53.6	9.7	1.50e-02	0	42	0	67108864	65	7747
2026-01-18 10:31:38.47	181.48	10.75	-47.0	-52.6	10.4	3.83e-03	0	42	0	74448896	65	6942
2026-01-18 10:31:42.45	181.67	11.09	-46.9	-52.6	10.1	8.95e-03	0	42	0	82837504	65	6912
2026-01-18 10:31:46.43	181.87	11.45	-45.1	-49.0	14.4	3.80e-06	0	42	0	90177536	62	5406
2026-01-18 10:31:50.41	182.07	11.81	-43.2	-46.1	17.2	0.00e+00	0	42	0	97517568	58	4878
2026-01-18 10:31:54.39	182.28	12.17	-42.9	-45.6	17.7	0.00e+00	0	42	0	104857600	57	4926
2026-01-18 10:31:58.37	182.50	12.54	-42.8	-45.4	17.9	0.00e+00	0	42	0	112197632	57	4813
2026-01-18 10:32:02.42	182.72	12.92	-42.7	-45.4	17.9	0.00e+00	0	42	0	119537664	57	4762
2026-01-18 10:32:06.41	182.94	13.30	-42.8	-45.5	17.9	0.00e+00	0	42	0	126877696	57	4822
2026-01-18 10:32:10.39	183.17	13.68	-42.7	-45.4	17.9	0.00e+00	0	42	0	135266304	57	4779
2026-01-18 10:32:14.37	183.41	14.08	-42.7	-45.4	18.0	0.00e+00	0	42	0	142606336	57	4760
2026-01-18 10:32:18.46	183.65	14.48	-42.7	-45.4	17.9	0.00e+00	0	42	0	149946368	57	4774
2026-01-18 10:32:22.43	183.90	14.89	-42.7	-45.3	18.0	0.00e+00	0	42	0	157286400	57	4751
2026-01-18 10:32:26.41	184.15	15.30	-42.8	-45.4	17.9	0.00e+00	0	42	0	164626432	57	4777
2026-01-18 10:32:30.39	184.42	15.71	-42.7	-45.3	17.9	0.00e+00	0	42	0	171966464	57	4746
2026-01-18 10:32:34.37	184.68	16.13	-42.6	-45.2	18.1	0.00e+00	0	42	0	179306496	57	4686
2026-01-18 10:32:38.34	184.96	16.56	-42.5	-45.0	18.2	0.00e+00	0	42	0	187695104	57	4591
2026-01-18 10:32:42.32	185.24	17.00	-42.3	-44.9	18.4	0.00e+00	0	43	0	195035136	56	4782
2026-01-18 10:32:46.30	185.53	17.44	-42.4	-44.9	18.4	0.00e+00	0	42	0	202375168	56	4811
2026-01-18 10:32:50.28	185.83	17.90	-42.5	-45.0	18.3	0.00e+00	0	42	0	209715200	56	4863
2026-01-18 10:32:54.37	186.15	18.37	-42.4	-44.9	18.4	0.00e+00	0	42	0	217055232	56	4791
2026-01-18 10:32:58.35	186.46	18.84	-42.2	-44.7	18.6	0.00e+00	0	43	0	224395264	56	4680
2026-01-18 10:33:02.33	186.79	19.31	-42.2	-44.6	18.6	0.00e+00	0	43	0	231735296	56	4645
2026-01-18 10:33:06.31	187.13	19.80	-41.7	-44.1	19.1	0.00e+00	0	42	0	240123904	55	4600
2026-01-18 10:33:10.29	187.47	20.29	-41.5	-43.8	19.3	0.00e+00	0	43	0	247463936	54	4728
2026-01-18 10:33:14.72	187.87	20.85	-41.2	-43.5	19.5	0.00e+00	0	43	0	255852544	54	4561
2026-01-18 10:33:18.70	188.24	21.36	-41.1	-43.3	19.5	0.00e+00	0	43	0	263192576	54	4472
2026-01-18 10:33:22.61	188.62	21.87	-41.0	-43.2	19.7	0.00e+00	0	43	0	270532608	53	4692
2026-01-18 10:33:26.90	189.04	22.44	-41.0	-43.2	19.8	0.00e+00	0	43	0	277872640	53	4689
2026-01-18 10:33:31.51	189.52	23.07	-41.0	-43.2	19.8	0.00e+00	0	42	0	287309824	53	4659
2026-01-18 10:33:36.05	190.01	23.70	-40.6	-42.8	20.2	0.00e+00	0	43	0	295698432	53	4450
2026-01-18 10:33:40.15	190.46	24.28	-40.5	-42.6	20.3	0.00e+00	0	43	0	303038464	53	4370
2026-01-18 10:33:44.15	190.93	24.86	-40.5	-42.6	20.4	0.00e+00	0	43	0	310378496	52	4629
2026-01-18 10:33:48.13	191.40	25.45	-40.8	-42.9	20.1	0.00e+00	0	43	0	317718528	52	4785
2026-01-18 10:33:52.18	191.90	26.06	-40.8	-42.9	20.1	0.00e+00	0	43	0	326107136	52	4796
2026-01-18 10:33:56.17	192.42	26.67	-41.0	-43.2	19.9	0.00e+00	0	43	0	333447168	52	4951
2026-01-18 10:34:00.18	192.95	27.29	-41.2	-43.4	19.7	0.00e+00	0	43	0	340787200	53	4783
2026-01-18 10:34:04.20	193.51	27.93	-41.8	-44.2	19.0	0.00e+00	0	43	0	348127232	54	4929
2026-01-18 10:34:08.21	194.09	28.58	-42.9	-45.4	17.9	0.00e+00	0	43	0	355467264	56	5078
2026-01-18 10:34:12.18	194.69	29.24	-43.2	-45.8	17.5	0.00e+00	0	43	0	362807296	57	5035
2026-01-18 10:34:16.26	195.33	29.92	-43.6	-46.3	17.0	0.00e+00	0	43	0	371195904	57	5337
2026-01-18 10:34:20.28	195.98	30.61	-44.1	-47.1	16.3	0.00e+00	0	43	0	378535936	58	5516
2026-01-18 10:34:24.49	196.70	31.35	-44.3	-47.3	16.1	0.00e+00	0	43	0	385875968	59	5325
2026-01-18 10:34:28.48	197.41	32.06	-44.5	-47.5	15.9	0.00e+00	0	43	0	394264576	59	5435
2026-01-18 10:34:32.52	198.16	32.79	-44.2	-47.1	16.3	0.00e+00	0	43	0	401604608	59	5203
2026-01-18 10:34:36.54	198.94	33.52	-44.4	-47.4	16.0	0.00e+00	0	43	0	408944640	59	5356
2026-01-18 10:34:40.66	199.78	34.29	-43.7	-46.5	16.9	0.00e+00	0	43	0	416284672	59	4851
2026-01-18 10:34:44.64	200.63	35.05	-43.4	-46.0	17.4	0.00e+00	0	43	0	423624704	58	4853
2026-01-18 10:34:48.62	201.51	35.82	-43.3	-45.9	17.5	0.00e+00	0	43	0	430964736	58	4801
2026-01-18 10:34:52.70	202.47	36.61	-42.8	-45.2	18.2	0.00e+00	0	43	0	439353344	57	4691
2026-01-18 10:34:56.76	203.46	37.42	-42.5	-44.9	18.5	0.00e+00	0	43	0	446693376	57	4544
2026-01-18 10:35:00.99	204.55	38.26	-42.3	-44.6	18.8	0.00e+00	0	43	0	455081984	56	4646
2026-01-18 10:35:04.99	205.63	39.07	-42.5	-44.9	18.6	0.00e+00	0	43	0	462422016	56	4778
2026-01-18 10:35:08.99	206.77	39.89	-42.2	-44.5	19.0	0.00e+00	0	43	0	469762048	56	4588
2026-01-18 10:35:13.02	207.97	40.72	-42.1	-44.5	19.0	0.00e+00	0	43	0	477102080	56	4556
2026-01-18 10:35:17.01	209.23	41.55	-42.5	-44.9	18.7	0.00e+00	0	43	0	484442112	56	4763
2026-01-18 10:35:21.01	210.55	42.38	-42.5	-45.0	18.6	0.00e+00	0	43	0	491782144	56	4828
2026-01-18 10:35:25.00	211.94	43.21	-43.0	-45.5	18.0	0.00e+00	0	43	0	500170752	57	4854
2026-01-18 10:35:29.11	213.44	44.07	-43.2	-45.8	17.9	0.00e+00	0	43	0	507510784	57	4988
2026-01-18 10:35:33.08	214.97	44.89	-44.2	-47.0	16.6	0.00e+00	0	43	0	514850816	59	5135
2026-01-18 10:35:37.07	216.59	45.71	-43.9	-46.6	17.0	0.00e+00	0	43	0	522190848	59	4912
2026-01-18 10:35:41.14	218.33	46.53	-45.5	-48.9	14.9	7.00e-07	0	43	0	529530880	61	5693
2026-01-18 10:35:45.17	220.15	47.34	-45.1	-48.3	15.4	0.00e+00	0	43	0	537919488	61	5324
2026-01-18 10:35:49.43	222.17	48.17	-45.1	-48.2	15.5	0.00e+00	0	43	0	545259520	61	5279
2026-01-18 10:35:53.42	224.16	48.93	-45.0	-48.3	15.4	0.00e+00	0	43	0	552599552	61	5303
2026-01-18 10:35:57.43	226.25	49.66	-44.2	-47.2	16.5	0.00e+00	0	43	0	559939584	60	4967
2026-01-18 10:36:01.70	228.60	50.41	-43.9	-46.6	17.1	0.00e+00	0	43	0	568328192	58	5182
2026-01-18 10:36:05.78	230.95	51.09	-42.9	-45.3	18.3	0.00e+00	0	43	0	575668224	57	4735
2026-01-18 10:36:09.85	233.39	51.72	-42.9	-45.3	18.5	0.00e+00	0	43	0	584056832	56	5009
2026-01-18 10:36:13.84	235.89	52.30	-41.1	-43.2	20.3	0.00e+00	0	43	0	591396864	54	4437
2026-01-18 10:36:18.09	238.65	52.85	-41.5	-43.7	19.8	0.00e+00	0	43	0	598736896	55	4429
2026-01-18 10:36:22.10	241.34	53.32	-41.5	-43.6	19.9	0.00e+00	0	43	0	607125504	54	4649
2026-01-18 10:36:26.29	244.25	53.74	-41.4	-43.6	20.0	0.00e+00	0	43	0	614465536	54	4614
2026-01-18 10:36:30.30	247.10	54.07	-42.3	-44.6	19.0	0.00e+00	0	43	0	621805568	55	4907
2026-01-18 10:36:34.40	250.07	54.34	-42.2	-44.4	19.2	0.00e+00	0	43	0	630194176	55	4808
2026-01-18 10:36:38.38	253.01	54.53	-42.3	-44.7	19.0	0.00e+00	0	43	0	637534208	55	4943
2026-01-18 10:36:42.36	255.97	54.65	-42.3	-44.6	19.0	0.00e+00	0	43	0	644874240	55	4921
2026-01-18 10:36:46.37	258.98	54.69	-42.7	-45.1	18.6	0.00e+00	0	43	0	652214272	55	5189
2026-01-18 10:36:50.54	262.10	54.65	-42.3	-44.7	19.0	0.00e+00	0	43	0	660602880	55	4938
2026-01-18 10:36:54.55	265.09	54.53	-42.4	-44.7	19.1	0.00e+00	0	43	0	667942912	56	4688
2026-01-18 10:36:58.57	268.05	54.33	-40.8	-42.8	20.8	0.00e+00	0	43	0	675282944	53	4468
2026-01-18 10:37:02.58	270.95	54.07	-40.6	-42.6	20.9	0.00e+00	0	43	0	682622976	53	4374
2026-01-18 10:37:06.57	273.79	53.73	-41.0	-43.1	20.5	0.00e+00	0	43	0	689963008	53	4619
2026-01-18 10:37:10.58	276.56	53.33	-41.8	-44.0	19.7	0.00e+00	0	43	0	697303040	54	4854
2026-01-18 10:37:14.58	279.25	52.87	-41.7	-43.9	19.8	0.00e+00	0	43	0	705691648	54	4799
2026-01-18 10:37:18.61	281.87	52.35	-42.0	-44.2	19.5	0.00e+00	0	43	0	713031680	54	4979
2026-01-18 10:37:23.72	285.05	51.61	-42.5	-44.8	19.0	0.00e+00	0	43	0	722468864	55	5016
2026-01-18 10:37:27.70	287.41	50.98	-42.9	-45.3	18.7	0.00e+00	0	43	0	729808896	56	4995
2026-01-18 10:37:31.67	289.68	50.32	-44.3	-47.1	17.0	0.00e+00	0	43	0	737148928	59	5166
2026-01-18 10:37:35.83	291.94	49.59	-45.9	-49.4	14.7	7.00e-07	0	43	0	745537536	62	5687
2026-01-18 10:37:40.23	294.22	48.78	-47.1	-51.8	12.1	5.87e-05	0	43	0	752877568	65	6324
2026-01-18 10:37:44.22	296.18	48.02	-46.1	-49.8	14.2	1.50e-06	0	43	0	760217600	64	5319
2026-01-18 10:37:48.21	298.05	47.24	-45.3	-48.6	15.4	0.00e+00	0	43	0	768606208	62	5176
2026-01-18 10:37:52.52	299.97	46.38	-45.2	-48.4	15.7	0.00e+00	0	43	0	775946240	62	5051
2026-01-18 10:37:56.71	301.74	45.53	-43.7	-46.3	17.7	0.00e+00	0	43	0	784334848	58	5021
2026-01-18 10:38:00.63	303.31	44.73	-44.6	-47.6	16.5	0.00e+00	0	43	0	791674880	60	5172
2026-01-18 10:38:04.61	304.82	43.91	-44.2	-47.0	17.1	0.00e+00	0	43	0	799014912	59	5142
2026-01-18 10:38:08.59	306.26	43.09	-44.9	-48.0	16.1	0.00e+00	0	43	0	806354944	61	5122
2026-01-18 10:38:12.57	307.63	42.26	-45.0	-48.2	16.0	0.00e+00	0	43	0	813694976	60	5530
2026-01-18 10:38:16.55	308.93	41.44	-45.9	-49.7	14.3	4.50e-06	0	43	0	821035008	63	5585
2026-01-18 10:38:20.64	310.20	40.60	-46.7	-51.1	12.9	5.30e-06	0	43	0	829423616	64	6175
2026-01-18 10:38:24.87	311.44	39.73	-44.6	-47.4	16.6	0.00e+00	0	43	0	836763648	61	4810
2026-01-18 10:38:28.98	312.59	38.90	-47.9	-54.1	9.8	1.38e-03	0	43	0	844103680	66	7780
2026-01-18 10:38:32.96	313.65	38.10	-44.6	-47.7	16.4	0.00e+00	0	43	0	852492288	61	4936
2026-01-18 10:38:36.94	314.66	37.31	-46.7	-50.9	13.1	7.00e-07	0	43	0	859832320	64	6018
2026-01-18 10:38:41.02	315.65	36.51	-44.6	-47.4	16.7	0.00e+00	0	43	0	867172352	61	4802
2026-01-18 10:38:45.13	316.60	35.71	-44.6	-47.5	16.6	0.00e+00	0	43	0	874512384	59	5454
2026-01-18 10:38:49.11	317.47	34.95	-45.3	-48.6	15.5	0.00e+00	0	43	0	882900992	62	5189
2026-01-18 10:38:53.09	318.31	34.21	-44.1	-47.1	17.0	0.00e+00	0	43	0	890241024	60	4871
2026-01-18 10:38:57.07	319.11	33.47	-45.4	-49.4	14.7	0.00e+00	0	43	0	897581056	61	6060
2026-01-18 10:39:01.23	319.91	32.71	-44.6	-47.9	16.2	0.00e+00	0	43	0	904921088	61	5063
2026-01-18 10:39:05.33	320.66	31.98	-44.5	-47.4	16.7	0.00e+00	0	43	0	912261120	60	5055
2026-01-18 10:39:09.31	321.36	31.28	-45.9	-49.6	14.4	0.00e+00	0	43	0	920649728	62	5849
2026-01-18 10:39:13.29	322.04	30.59	-46.1	-50.5	13.5	1.29e-05	0	43	0	927989760	63	6090
2026-01-18 10:39:17.27	322.68	29.91	-44.4	-47.6	16.4	0.00e+00	0	43	0	935329792	60	5192
2026-01-18 10:39:21.32	323.31	29.24	-45.0	-48.3	15.8	0.00e+00	0	43	0	942669824	60	5605
2026-01-18 10:39:25.31	323.91	28.59	-44.8	-48.1	16.0	0.00e+00	0	43	0	950009856	60	5477
2026-01-18 10:39:29.47	324.50	27.92	-43.9	-46.8	17.1	0.00e+00	0	43	0	958398464	59	5034
2026-01-18 10:39:33.68	325.09	27.26	-43.5	-46.1	17.8	0.00e+00	0	43	0	965738496	58	4920
2026-01-18 10:39:37.72	325.62	26.63	-43.7	-46.6	17.4	0.00e+00	0	43	0	973078528	58	5197
2026-01-18 10:39:42.01	326.17	25.98	-44.5	-47.6	16.4	0.00e+00	0	43	0	981467136	59	5478
2026-01-18 10:39:46.00	326.66	25.39	-43.8	-46.6	17.3	0.00e+00	0	43	0	988807168	59	4896
2026-01-18 10:39:50.00	327.13	24.81	-43.6	-46.3	17.7	0.00e+00	0	43	0	996147200	58	5004
2026-01-18 10:39:54.21	327.61	24.21	-43.2	-46.1	17.9	0.00e+00	0	43	0	1004535808	58	4872
2026-01-18 10:39:58.19	328.05	23.65	-43.6	-46.5	17.4	0.00e+00	0	43	0	1011875840	58	5146
2026-01-18 10:40:02.19	328.48	23.10	-43.7	-46.5	17.5	0.00e+00	0	43	0	1019215872	58	5110
2026-01-18 10:40:06.16	328.89	22.56	-43.6	-46.2	17.8	0.00e+00	0	43	0	1026555904	58	4945
2026-01-18 10:40:10.14	329.29	22.04	-43.3	-45.9	18.1	0.00e+00	0	43	0	1033895936	58	4769
2026-01-18 10:40:14.22	329.68	21.50	-43.5	-46.1	17.8	0.00e+00	0	43	0	1042284544	58	4904
2026-01-18 10:40:18.20	330.05	21.00	-44.1	-47.0	17.0	0.00e+00	0	43	0	1049624576	58	5434
2026-01-18 10:40:22.20	330.41	20.49	-44.3	-47.5	16.4	0.00e+00	0	43	0	1056964608	59	5440
2026-01-18 10:40:26.20	330.77	20.00	-44.0	-47.0	16.9	0.00e+00	0	43	0	1064304640	59	5136
2026-01-18 10:40:30.19	331.11	19.52	-43.5	-46.1	17.8	0.00e+00	0	43	0	1071644672	58	4901
2026-01-18 10:40:34.28	331.44	19.03	-43.1	-45.6	18.3	0.00e+00	0	43	0	1080033280	58	4625
2026-01-18 10:40:38.26	331.76	18.56	-43.0	-45.5	18.3	0.00e+00	0	43	0	1087373312	57	4846
2026-01-18 10:40:42.24	332.08	18.11	-43.1	-45.8	18.0	0.00e+00	0	43	0	1094713344	57	4997
2026-01-18 10:40:46.21	332.38	17.66	-43.3	-46.1	17.7	0.00e+00	0	43	0	1102053376	57	5203
2026-01-18 10:40:50.19	332.67	17.21	-43.3	-46.1	17.6	0.00e+00	0	43	0	1109393408	57	5210
2026-01-18 10:40:54.17	332.96	16.78	-43.3	-46.1	17.7	0.00e+00	0	43	0	1116733440	57	5181
2026-01-18 10:40:58.16	333.24	16.35	-42.9	-45.5	18.2	0.00e+00	0	43	0	1124073472	57	4856
2026-01-18 10:41:02.17	333.51	15.93	-42.7	-45.3	18.4	0.00e+00	0	43	0	1131413504	57	4753
2026-01-18 10:41:06.24	333.78	15.50	-42.9	-45.5	18.3	0.00e+00	0	43	0	1139802112	57	4835
2026-01-18 10:41:10.21	334.03	15.09	-43.1	-45.7	18.0	0.00e+00	0	43	0	1147142144	57	4976
2026-01-18 10:41:14.22	334.29	14.69	-43.5	-46.2	17.5	0.00e+00	0	43	0	1154482176	57	5276
2026-01-18 10:41:18.63	334.56	14.25	-43.8	-46.7	17.1	0.00e+00	0	43	0	1162870784	58	5229
2026-01-18 10:41:22.76	334.80	13.85	-44.1	-47.2	16.7	0.00e+00	0	43	0	1170210816	58	5529
2026-01-18 10:41:26.76	335.04	13.46	-44.1	-47.0	16.8	0.00e+00	0	43	0	1177550848	59	5129
2026-01-18 10:41:30.98	335.28	13.06	-44.0	-46.8	17.0	0.00e+00	0	43	0	1185939456	59	5012
2026-01-18 10:41:34.98	335.50	12.69	-43.8	-46.6	17.2	0.00e+00	0	43	0	1193279488	59	4876
2026-01-18 10:41:38.97	335.72	12.32	-43.6	-46.4	17.4	0.00e+00	0	43	0	1200619520	59	4775
2026-01-18 10:41:43.19	335.94	11.94	-43.4	-46.4	17.3	0.00e+00	0	43	0	1209008128	58	5080
2026-01-18 10:41:47.41	336.16	11.56	-43.3	-46.3	17.4	0.00e+00	0	43	0	1216348160	58	5030
2026-01-18 10:41:52.00	336.39	11.16	-43.6	-46.7	17.0	0.00e+00	0	43	0	1225785344	58	5250
2026-01-18 10:41:56.01	336.59	10.81	-43.8	-47.2	16.5	0.00e+00	0	43	0	1233125376	58	5556
2026-01-18 10:42:00.02	336.78	10.47	-43.8	-47.2	16.5	0.00e+00	0	43	0	1240465408	58	5590
2026-01-18 10:42:04.00	336.97	10.13	-44.1	-47.5	16.2	0.00e+00	0	43	0	1247805440	59	5428
2026-01-18 10:42:07.99	337.15	9.80	-44.3	-47.8	15.8	0.00e+00	0	43	0	1255145472	59	5639
2026-01-18 10:42:12.30	337.35	9.44	-44.4	-48.0	15.7	0.00e+00	0	43	0	1263534080	59	5761
2026-01-18 10:42:16.55	337.54	9.10	-44.5	-48.2	15.4	0.00e+00	0	43	0	1270874112	59	5908
2026-01-18 10:42:20.52	337.71	8.78	-49.2	-65.3	3.8	1.49e+00	0	43	104	1274019840	69	23600
2026-01-18 10:42:24.50	337.88	8.46	-49.4	-65.5	3.8	1.49e+00	0	43	104	1274019840	70	22887
2026-01-18 10:42:28.52	338.05	8.15	-50.1	-65.6	3.8	1.49e+00	0	43	104	1274019840	71	21819
2026-01-18 10:42:32.62	338.22	7.83	-50.4	-65.6	3.8	1.49e+00	0	43	104	1274019840	71	21961
2026-01-18 10:42:36.72	338.38	7.52	-50.3	-65.6	3.8	1.49e+00	0	43	104	1274019840	71	21819
2026-01-18 10:42:40.69	338.54	7.22	-50.2	-65.6	3.8	1.49e+00	0	43	104	1274019840	71	21826
2026-01-18 10:42:44.67	338.69	6.92	-50.1	-65.5	3.8	1.49e+00	0	43	104	1274019840	71	21639
2026-01-18 10:42:48.64	338.84	6.63	-50.0	-65.5	3.8	1.49e+00	0	43	104	1274019840	71	21625
2026-01-18 10:42:52.61	338.99	6.34	-50.0	-65.5	3.8	1.49e+00	0	43	104	1274019840	71	21612
2026-01-18 10:42:56.58	339.14	6.05	-50.0	-65.5	3.8	1.49e+00	0	43	104	1274019840	71	21664
2026-01-18 10:43:00.56	339.28	5.77	-50.0	-65.5	3.8	1.49e+00	0	43	104	1274019840	71	21651
2026-01-18 10:43:04.53	339.42	5.49	-50.0	-65.5	3.8	1.49e+00	0	43	104	1274019840	71	21621
2026-01-18 10:43:08.50	339.56	5.21	-50.0	-65.5	3.8	1.49e+00	0	43	104	1274019840	71	21686
2026-01-18 10:43:12.48	339.70	4.93	-50.0	-65.5	3.8	1.49e+00	0	43	104	1274019840	71	21689

#Closed at: 2026-01-18 10:43:13
#Recorded file [1274 MB]: D:/Data/31040_260118_133026.dat