passes_logs/2026/01/18/T1/T1__20260118_121432_AQUA_rec.log

#Pass ID: 20260118_121432_AQUA
#Satellite: AQUA
#Configuration: AQUA
#almurnet v.1.7.20251203
#Start time: 2026-01-18 12:14:34

#Version: 2.0.20230620
#Station: T1
#Location: 37.570604 lon 55.790049 lat
#TLE: 1 27424U 02022A   26017.62394888  .00000781  00000+0  16630-3 0  9993
#TLE: 2 27424  98.4086 344.0954 0002010  75.0132 339.4723 14.61825944261279

#Time	Az	El	Level	Level2	SNR	BER	BlckErr	Temp	State	Recorded	gain1	gain2
2026-01-18 12:14:34.19	180.05	5.14	-49.1	-71.3	3.8	7.48e-01	0	37	0	0	69	47373
2026-01-18 12:14:37.19	180.17	5.36	-49.2	-70.8	3.8	7.45e-01	0	37	104	0	69	44914
2026-01-18 12:14:40.17	180.29	5.58	-49.2	-70.5	3.8	7.43e-01	0	37	104	0	69	42974
2026-01-18 12:14:43.14	180.41	5.81	-49.2	-70.9	3.8	7.45e-01	0	37	104	0	69	45050
2026-01-18 12:14:46.12	180.54	6.03	-49.2	-71.3	3.8	7.46e-01	0	38	104	0	69	47305
2026-01-18 12:14:49.10	180.67	6.26	-49.1	-70.9	3.8	7.44e-01	0	38	104	0	69	45233
2026-01-18 12:14:52.08	180.80	6.49	-49.1	-71.0	3.8	7.43e-01	0	38	104	0	69	45468
2026-01-18 12:14:55.06	180.93	6.73	-49.1	-68.5	4.0	7.36e-01	0	38	104	0	69	34364
2026-01-18 12:14:58.04	181.07	6.96	-49.0	-66.0	4.9	7.14e-01	0	38	104	0	69	25738
2026-01-18 12:15:01.02	181.20	7.20	-49.0	-68.2	4.1	7.37e-01	0	38	104	0	69	32985
2026-01-18 12:15:04.00	181.34	7.44	-48.9	-63.1	6.8	6.66e-01	0	38	0	0	69	18391
2026-01-18 12:15:06.98	181.48	7.68	-47.3	-54.1	16.1	6.07e-01	0	38	0	5767168	66	7734
2026-01-18 12:15:09.95	181.63	7.93	-45.6	-49.9	20.2	6.08e-01	0	38	0	11534336	63	5682
2026-01-18 12:15:12.93	181.77	8.18	-44.3	-47.9	22.2	6.07e-01	0	38	0	16777216	60	5346
2026-01-18 12:15:15.91	181.92	8.43	-44.9	-48.8	21.3	6.06e-01	0	38	0	22544384	60	5947
2026-01-18 12:15:18.89	182.08	8.68	-46.6	-52.0	18.3	6.06e-01	0	38	0	28311552	63	7243
2026-01-18 12:15:21.87	182.23	8.94	-48.1	-57.3	12.8	6.10e-01	0	38	0	33554432	66	11275
2026-01-18 12:15:24.98	182.39	9.21	-48.5	-60.8	9.2	6.35e-01	0	38	0	39321600	67	15890
2026-01-18 12:15:27.83	182.55	9.46	-48.8	-62.5	7.7	6.53e-01	0	39	0	45088768	68	18098
2026-01-18 12:15:30.95	182.72	9.73	-49.0	-56.8	13.8	6.10e-01	0	38	0	50855936	69	8927
2026-01-18 12:15:33.79	182.88	9.99	-48.9	-56.7	13.6	6.09e-01	0	39	0	56098816	69	8771
2026-01-18 12:15:37.00	183.06	10.28	-48.4	-54.9	15.4	6.07e-01	0	38	0	61865984	68	7629
2026-01-18 12:15:39.84	183.22	10.54	-48.0	-54.4	15.9	6.05e-01	0	39	0	67633152	67	7546
2026-01-18 12:15:42.97	183.41	10.83	-46.5	-50.9	19.2	6.05e-01	0	39	0	73400320	65	5711
2026-01-18 12:15:45.81	183.58	11.10	-45.4	-49.1	21.1	6.07e-01	0	39	0	78643200	62	5510
2026-01-18 12:15:48.94	183.77	11.40	-45.2	-48.8	20.5	6.08e-01	0	39	0	84410368	62	5310
2026-01-18 12:15:51.78	183.95	11.67	-44.6	-47.7	22.4	6.04e-01	0	39	0	89653248	61	4931
2026-01-18 12:15:55.03	184.16	11.99	-44.2	-47.2	22.7	6.06e-01	0	39	0	95944704	60	4976
2026-01-18 12:15:57.93	184.35	12.28	-44.1	-47.1	23.0	6.08e-01	0	39	0	101187584	60	4880
2026-01-18 12:16:01.12	184.56	12.60	-43.8	-46.6	23.6	6.07e-01	0	39	0	107479040	59	4888
2026-01-18 12:16:03.96	184.76	12.89	-43.7	-46.6	23.7	6.08e-01	0	39	0	112721920	59	4871
2026-01-18 12:16:07.01	184.97	13.20	-43.5	-46.3	23.9	6.06e-01	0	39	0	118489088	58	4999
2026-01-18 12:16:10.00	185.18	13.51	-43.6	-46.4	23.9	6.07e-01	0	39	0	123731968	58	5045
2026-01-18 12:16:12.99	185.40	13.83	-43.8	-46.6	23.6	6.07e-01	0	39	0	129499136	58	5200
2026-01-18 12:16:15.97	185.62	14.15	-43.5	-46.1	24.2	6.06e-01	0	39	0	135266304	58	4882
2026-01-18 12:16:18.95	185.85	14.47	-43.6	-46.2	24.1	6.07e-01	0	39	0	141033472	58	4930
2026-01-18 12:16:21.94	186.08	14.80	-43.6	-46.2	24.0	6.09e-01	0	39	0	146276352	58	4964
2026-01-18 12:16:24.91	186.32	15.13	-43.3	-46.0	24.2	6.07e-01	0	39	0	152043520	58	4840
2026-01-18 12:16:27.90	186.56	15.47	-43.4	-46.1	24.1	6.04e-01	0	39	0	157810688	58	4923
2026-01-18 12:16:30.95	186.81	15.82	-43.5	-46.3	24.0	6.08e-01	0	39	0	163053568	58	4996
2026-01-18 12:16:33.98	187.07	16.17	-43.3	-46.0	24.2	6.08e-01	0	39	0	168820736	58	4860
2026-01-18 12:16:36.97	187.33	16.52	-43.3	-45.9	24.4	6.09e-01	0	39	0	174587904	58	4802
2026-01-18 12:16:39.95	187.60	16.88	-43.3	-46.0	24.2	6.09e-01	0	39	0	180355072	58	4852
2026-01-18 12:16:42.94	187.87	17.24	-43.4	-46.0	24.2	6.06e-01	0	39	0	185597952	58	4833
2026-01-18 12:16:45.92	188.15	17.61	-43.1	-45.7	24.6	6.05e-01	0	39	0	191365120	58	4682
2026-01-18 12:16:48.91	188.44	17.98	-43.2	-45.8	24.4	6.06e-01	0	39	0	197132288	58	4750
2026-01-18 12:16:51.83	188.73	18.36	-43.2	-45.9	24.4	6.08e-01	0	39	0	202375168	58	4788
2026-01-18 12:16:54.96	189.05	18.76	-43.2	-45.8	24.5	6.07e-01	0	39	0	208142336	58	4733
2026-01-18 12:16:57.80	189.35	19.13	-43.2	-45.7	24.5	6.05e-01	0	39	0	213385216	58	4705
2026-01-18 12:17:00.93	189.68	19.55	-43.2	-45.9	24.4	6.06e-01	0	39	0	219676672	58	4770
2026-01-18 12:17:03.88	190.00	19.95	-43.2	-45.8	24.5	6.07e-01	0	39	0	224919552	58	4721
2026-01-18 12:17:07.13	190.37	20.40	-43.2	-45.7	24.6	6.07e-01	0	39	0	231211008	58	4684
2026-01-18 12:17:09.90	190.69	20.78	-43.4	-46.0	24.4	6.07e-01	0	39	0	236453888	58	4822
2026-01-18 12:17:13.16	191.08	21.25	-43.4	-46.0	24.4	6.06e-01	0	39	0	242221056	58	4835
2026-01-18 12:17:15.86	191.41	21.63	-43.2	-45.8	24.6	6.07e-01	0	39	0	247463936	58	4715
2026-01-18 12:17:19.13	191.83	22.11	-43.6	-46.1	24.3	6.06e-01	0	39	0	253755392	58	4888
2026-01-18 12:17:21.86	192.18	22.52	-43.6	-46.1	24.3	6.07e-01	0	39	0	258473984	58	4906
2026-01-18 12:17:25.23	192.64	23.03	-43.6	-46.1	24.3	6.07e-01	0	39	0	264765440	58	4906
2026-01-18 12:17:27.94	193.01	23.45	-43.6	-46.1	24.3	6.07e-01	0	39	0	270008320	58	4907
2026-01-18 12:17:31.21	193.48	23.96	-43.8	-46.3	24.1	6.06e-01	0	39	0	276299776	58	4991
2026-01-18 12:17:33.94	193.88	24.40	-43.7	-46.2	24.2	6.07e-01	0	39	0	281542656	58	4962
2026-01-18 12:17:37.21	194.37	24.92	-43.7	-46.2	24.2	6.09e-01	0	39	0	287309824	58	4963
2026-01-18 12:17:39.92	194.80	25.37	-43.6	-46.1	24.4	6.06e-01	0	39	0	292552704	58	4888
2026-01-18 12:17:43.24	195.33	25.92	-43.7	-46.2	24.3	6.07e-01	0	39	0	298844160	58	4934
2026-01-18 12:17:45.95	195.78	26.39	-43.6	-46.1	24.4	6.06e-01	0	39	0	304087040	58	4890
2026-01-18 12:17:49.17	196.34	26.94	-43.6	-46.0	24.4	6.05e-01	0	39	0	309854208	58	4865
2026-01-18 12:17:52.12	196.87	27.46	-43.3	-45.7	24.7	6.06e-01	0	39	0	315621376	58	4692
2026-01-18 12:17:55.17	197.43	28.00	-43.3	-45.7	24.7	6.07e-01	0	39	0	321388544	58	4682
2026-01-18 12:17:58.49	198.06	28.60	-43.5	-46.0	24.4	6.06e-01	0	39	0	327680000	58	4825
2026-01-18 12:18:01.24	198.61	29.11	-43.1	-45.4	24.9	6.06e-01	0	39	0	332398592	58	4544
2026-01-18 12:18:04.50	199.28	29.72	-43.3	-45.7	24.7	6.07e-01	0	39	0	338690048	58	4699
2026-01-18 12:18:07.20	199.85	30.23	-43.4	-45.9	24.6	6.07e-01	0	39	0	343932928	58	4761
2026-01-18 12:18:10.48	200.57	30.86	-43.4	-45.8	24.7	6.07e-01	0	39	0	349700096	58	4713
2026-01-18 12:18:13.19	201.19	31.39	-43.5	-45.9	24.5	6.06e-01	0	39	0	354942976	58	4788
2026-01-18 12:18:16.46	201.96	32.04	-43.7	-46.1	24.4	6.06e-01	0	39	0	361234432	58	4892
2026-01-18 12:18:19.18	202.63	32.59	-43.6	-46.0	24.4	6.06e-01	0	39	0	366477312	58	4847
2026-01-18 12:18:22.44	203.47	33.25	-43.9	-46.4	24.1	6.06e-01	0	39	0	372244480	58	5055
2026-01-18 12:18:25.16	204.19	33.81	-43.9	-46.5	24.1	6.05e-01	0	39	0	377487360	58	5109
2026-01-18 12:18:28.43	205.09	34.49	-44.1	-46.7	23.8	6.07e-01	0	39	0	383778816	59	4961
2026-01-18 12:18:31.13	205.86	35.06	-44.3	-46.9	23.6	6.04e-01	0	39	0	388497408	59	5097
2026-01-18 12:18:34.75	206.94	35.83	-44.4	-47.0	23.5	6.06e-01	0	39	0	395313152	59	5133
2026-01-18 12:18:37.59	207.83	36.44	-44.7	-47.3	23.3	6.08e-01	0	39	0	400556032	59	5323
2026-01-18 12:18:41.57	209.12	37.31	-44.2	-46.9	23.6	6.07e-01	0	39	0	408420352	60	4783
2026-01-18 12:18:44.41	210.09	37.93	-44.4	-47.1	23.3	6.05e-01	0	39	0	413663232	60	4917
2026-01-18 12:18:48.45	211.54	38.81	-44.3	-47.0	23.4	6.07e-01	0	39	0	421003264	60	4834
2026-01-18 12:18:51.30	212.61	39.44	-44.2	-46.9	23.6	6.07e-01	0	39	0	426246144	60	4766
2026-01-18 12:18:55.28	214.17	40.32	-44.1	-46.7	23.8	6.07e-01	0	39	0	434110464	59	4965
2026-01-18 12:18:58.20	215.37	40.96	-44.1	-46.7	23.9	6.06e-01	0	39	0	439353344	59	4928
2026-01-18 12:19:02.18	217.09	41.84	-43.6	-46.1	24.4	6.07e-01	0	39	0	446693376	58	4887
2026-01-18 12:19:05.01	218.37	42.45	-43.3	-45.6	24.8	6.07e-01	0	39	0	451936256	58	4643
2026-01-18 12:19:08.99	220.25	43.31	-42.9	-45.2	25.2	6.06e-01	0	39	0	459800576	57	4671
2026-01-18 12:19:11.83	221.66	43.91	-42.9	-45.2	25.2	6.07e-01	0	39	0	465043456	57	4677
2026-01-18 12:19:15.54	223.58	44.69	-43.0	-45.3	25.1	6.05e-01	0	39	0	471859200	57	4722
2026-01-18 12:19:18.55	225.20	45.30	-42.9	-45.2	25.2	6.06e-01	0	39	0	477626368	57	4659
2026-01-18 12:19:21.53	226.88	45.89	-42.8	-45.1	25.3	6.06e-01	0	39	0	483393536	57	4612
2026-01-18 12:19:24.52	228.62	46.46	-42.7	-45.1	25.2	6.07e-01	0	39	0	488636416	57	4624
2026-01-18 12:19:27.50	230.42	47.01	-42.9	-45.2	25.2	6.08e-01	0	39	0	494403584	57	4698
2026-01-18 12:19:30.49	232.29	47.54	-42.9	-45.1	25.3	6.06e-01	0	39	0	500170752	57	4646
2026-01-18 12:19:33.54	234.26	48.05	-43.1	-45.4	25.1	6.07e-01	0	39	0	505413632	57	4772
2026-01-18 12:19:36.39	236.16	48.50	-43.1	-45.5	24.9	6.06e-01	0	39	0	511180800	57	4844
2026-01-18 12:19:39.52	238.31	48.96	-43.1	-45.5	25.0	6.08e-01	0	39	0	516947968	57	4832
2026-01-18 12:19:42.36	240.31	49.34	-43.1	-45.4	25.0	6.06e-01	0	39	0	522190848	57	4789
2026-01-18 12:19:45.48	242.57	49.72	-43.4	-45.8	24.7	6.06e-01	0	39	0	527958016	57	5008
2026-01-18 12:19:48.33	244.68	50.03	-43.3	-45.6	24.8	6.07e-01	0	39	0	533200896	58	4648
2026-01-18 12:19:51.45	247.03	50.33	-43.4	-45.9	24.6	6.06e-01	0	39	0	538968064	58	4774
2026-01-18 12:19:54.29	249.22	50.55	-43.6	-46.0	24.5	6.07e-01	0	39	0	544735232	58	4853
2026-01-18 12:19:57.42	251.65	50.75	-43.6	-46.0	24.4	6.07e-01	0	39	0	550502400	58	4849
2026-01-18 12:20:00.26	253.89	50.89	-43.6	-46.1	24.5	6.06e-01	0	39	0	555745280	58	4874
2026-01-18 12:20:03.39	256.38	50.98	-43.5	-45.9	24.6	6.03e-01	0	39	0	561512448	58	4791
2026-01-18 12:20:06.24	258.65	51.02	-43.6	-46.0	24.5	6.04e-01	0	39	0	566755328	58	4841
2026-01-18 12:20:09.57	261.31	51.01	-43.6	-46.1	24.5	6.09e-01	0	39	0	573046784	58	4913
2026-01-18 12:20:12.27	263.45	50.96	-43.8	-46.3	24.3	6.07e-01	0	39	0	578289664	58	4989
2026-01-18 12:20:15.57	266.06	50.83	-43.8	-46.3	24.2	6.06e-01	0	39	0	584581120	58	5018
2026-01-18 12:20:18.45	268.32	50.67	-43.7	-46.1	24.5	6.08e-01	0	39	0	589824000	58	4883
2026-01-18 12:20:21.57	270.74	50.45	-43.8	-46.3	24.2	6.05e-01	0	39	0	595591168	58	5031
2026-01-18 12:20:24.42	272.91	50.21	-43.9	-46.3	24.3	6.06e-01	0	39	0	600834048	58	5028
2026-01-18 12:20:27.61	275.29	49.89	-44.1	-46.6	23.9	6.05e-01	0	39	0	607125504	59	4919
2026-01-18 12:20:30.45	277.37	49.56	-44.1	-46.6	24.0	6.07e-01	0	39	0	612368384	59	4909
2026-01-18 12:20:33.57	279.60	49.16	-43.8	-46.3	24.2	6.07e-01	0	39	0	618135552	59	4746
2026-01-18 12:20:36.62	281.72	48.73	-44.2	-46.6	23.9	6.07e-01	0	39	0	623902720	59	4925
2026-01-18 12:20:39.75	283.83	48.25	-44.2	-46.7	23.9	6.06e-01	0	39	0	629669888	59	4955
2026-01-18 12:20:42.59	285.69	47.79	-44.0	-46.4	24.2	6.07e-01	0	39	0	634912768	59	4788
2026-01-18 12:20:45.71	287.66	47.25	-44.1	-46.6	24.0	6.08e-01	0	39	0	640679936	59	4881
2026-01-18 12:20:49.18	289.78	46.63	-43.9	-46.4	24.2	6.09e-01	0	39	0	647495680	59	4761
2026-01-18 12:20:51.95	291.41	46.10	-43.8	-46.2	24.3	6.04e-01	0	39	0	652738560	59	4679
2026-01-18 12:20:55.13	293.21	45.48	-43.8	-46.3	24.3	6.05e-01	0	39	0	658505728	59	4711
2026-01-18 12:20:57.97	294.76	44.91	-43.8	-46.2	24.3	6.07e-01	0	39	0	663748608	59	4688
2026-01-18 12:21:01.09	296.40	44.27	-43.8	-46.3	24.3	6.07e-01	0	39	0	670040064	59	4751
2026-01-18 12:21:03.94	297.84	43.67	-43.7	-46.2	24.4	6.07e-01	0	39	0	675282944	59	4670
2026-01-18 12:21:06.99	299.32	43.03	-43.6	-46.2	24.4	6.06e-01	0	39	0	681050112	59	4665
2026-01-18 12:21:09.97	300.71	42.39	-43.6	-46.1	24.5	6.07e-01	0	39	0	686292992	59	4626
2026-01-18 12:21:12.96	302.04	41.74	-44.0	-46.5	24.0	6.07e-01	0	39	0	692060160	59	4862
2026-01-18 12:21:15.94	303.32	41.09	-44.1	-46.7	23.9	6.07e-01	0	39	0	697827328	59	4982
2026-01-18 12:21:18.94	304.56	40.43	-44.2	-46.9	23.7	6.08e-01	0	39	0	703070208	59	5075
2026-01-18 12:21:21.93	305.75	39.77	-44.2	-46.9	23.8	6.07e-01	0	39	0	708837376	59	5076
2026-01-18 12:21:24.91	306.88	39.12	-44.0	-46.8	23.8	6.06e-01	0	39	0	714604544	59	5012
2026-01-18 12:21:27.89	307.97	38.47	-43.9	-46.5	24.2	6.06e-01	0	39	0	719847424	59	4819
2026-01-18 12:21:30.88	309.02	37.81	-43.9	-46.4	24.2	6.06e-01	0	39	0	725614592	59	4783
2026-01-18 12:21:33.83	310.01	37.17	-43.8	-46.3	24.2	6.07e-01	0	39	0	731381760	59	4754
2026-01-18 12:21:37.25	311.11	36.44	-43.3	-45.9	24.7	6.06e-01	0	39	0	737673216	58	4779
2026-01-18 12:21:40.38	312.08	35.77	-43.3	-45.8	24.7	6.05e-01	0	39	0	743440384	58	4721
2026-01-18 12:21:43.22	312.93	35.17	-42.9	-45.3	25.2	6.08e-01	0	39	0	748683264	57	4751
2026-01-18 12:21:46.35	313.82	34.51	-42.8	-45.1	25.4	6.04e-01	0	39	0	754450432	57	4630
2026-01-18 12:21:49.27	314.62	33.91	-42.7	-45.0	25.4	6.05e-01	0	39	0	760217600	57	4583
2026-01-18 12:21:52.48	315.47	33.25	-42.7	-45.0	25.4	6.07e-01	0	39	0	765984768	57	4564
2026-01-18 12:21:55.36	316.20	32.67	-42.5	-44.8	25.6	6.06e-01	0	39	0	771751936	57	4493
2026-01-18 12:21:58.51	316.97	32.04	-42.2	-44.7	25.6	6.06e-01	0	39	0	777519104	56	4702
2026-01-18 12:22:01.35	317.64	31.48	-41.8	-44.4	25.9	6.04e-01	0	39	0	782761984	55	4783
2026-01-18 12:22:04.48	318.36	30.88	-42.1	-44.5	25.8	6.05e-01	0	39	0	788529152	55	4838
2026-01-18 12:22:07.32	318.98	30.33	-42.6	-44.9	25.4	6.08e-01	0	39	0	793772032	55	5097
2026-01-18 12:22:10.57	319.67	29.72	-43.0	-45.4	25.1	6.07e-01	0	39	0	800063488	56	5067
2026-01-18 12:22:13.47	320.26	29.18	-42.8	-45.3	25.2	6.07e-01	0	39	0	805306368	56	5011
2026-01-18 12:22:16.67	320.89	28.60	-42.3	-44.8	25.6	6.05e-01	0	39	0	811597824	56	4755
2026-01-18 12:22:19.51	321.43	28.09	-42.4	-45.0	25.4	6.05e-01	0	39	0	816840704	56	4835
2026-01-18 12:22:22.64	322.01	27.53	-42.8	-45.3	25.1	6.04e-01	0	39	0	822607872	56	5041
2026-01-18 12:22:25.48	322.51	27.04	-42.9	-45.5	25.0	6.06e-01	0	39	0	827850752	56	5159
2026-01-18 12:22:28.78	323.08	26.47	-42.8	-45.5	24.9	6.09e-01	0	39	0	834142208	56	5145
2026-01-18 12:22:32.14	323.64	25.90	-43.2	-45.8	24.8	6.07e-01	0	39	0	840433664	57	4986
2026-01-18 12:22:34.84	324.07	25.46	-43.2	-45.8	24.8	6.06e-01	0	39	0	845676544	57	4989
2026-01-18 12:22:38.11	324.58	24.92	-43.2	-45.8	24.7	6.07e-01	0	39	0	851443712	57	5026
2026-01-18 12:22:40.82	324.99	24.49	-43.3	-45.8	24.8	6.06e-01	0	39	0	856686592	57	4993
2026-01-18 12:22:44.35	325.50	23.93	-43.3	-45.8	24.7	6.07e-01	0	39	0	863502336	57	5028
2026-01-18 12:22:47.16	325.90	23.50	-43.4	-46.0	24.5	6.06e-01	0	39	0	868745216	57	5131
2026-01-18 12:22:50.67	326.38	22.96	-43.0	-45.8	24.7	6.08e-01	0	39	0	875560960	57	4996
2026-01-18 12:22:53.56	326.77	22.53	-42.9	-45.7	24.7	6.07e-01	0	39	0	880803840	57	4952
2026-01-18 12:22:56.83	327.19	22.05	-43.1	-45.7	24.7	6.08e-01	0	39	0	886571008	57	4971
2026-01-18 12:22:59.56	327.53	21.65	-43.3	-45.8	24.7	6.04e-01	0	39	0	891813888	57	5030
2026-01-18 12:23:03.08	327.96	21.15	-43.2	-45.6	24.8	6.06e-01	0	39	0	898629632	57	4925
2026-01-18 12:23:05.85	328.29	20.76	-42.9	-45.4	24.9	6.04e-01	0	39	0	903872512	57	4773
2026-01-18 12:23:09.24	328.68	20.29	-42.8	-45.4	25.0	6.07e-01	0	39	0	910163968	57	4776
2026-01-18 12:23:11.97	328.98	19.92	-42.9	-45.5	24.9	6.06e-01	0	39	0	914882560	57	4825
2026-01-18 12:23:15.23	329.34	19.49	-42.8	-45.5	24.9	6.08e-01	0	39	0	921174016	57	4853
2026-01-18 12:23:17.93	329.62	19.13	-42.7	-45.5	24.8	6.07e-01	0	39	0	926416896	57	4828
2026-01-18 12:23:21.21	329.96	18.71	-42.9	-45.5	24.9	6.06e-01	0	39	0	932708352	57	4857
2026-01-18 12:23:24.17	330.26	18.33	-42.9	-45.3	25.0	6.05e-01	0	39	0	937951232	57	4752
2026-01-18 12:23:27.48	330.58	17.91	-43.1	-45.5	24.8	6.06e-01	0	39	0	944242688	57	4868
2026-01-18 12:23:30.25	330.85	17.57	-43.0	-45.4	25.0	6.07e-01	0	39	0	949485568	57	4774
2026-01-18 12:23:33.53	331.15	17.17	-42.9	-45.4	24.9	6.07e-01	0	39	0	955777024	57	4792
2026-01-18 12:23:36.23	331.40	16.85	-42.7	-45.3	25.0	6.05e-01	0	39	0	960495616	57	4737
2026-01-18 12:23:39.51	331.69	16.46	-42.7	-45.3	25.0	6.07e-01	0	39	0	966787072	57	4743
2026-01-18 12:23:42.22	331.93	16.14	-42.8	-45.5	24.8	6.07e-01	0	39	0	972029952	57	4824
2026-01-18 12:23:45.48	332.20	15.77	-42.9	-45.4	24.9	6.07e-01	0	39	0	977797120	57	4784
2026-01-18 12:23:48.18	332.43	15.46	-42.9	-45.5	24.9	6.06e-01	0	39	0	983040000	57	4838
2026-01-18 12:23:51.45	332.69	15.10	-42.9	-45.5	24.7	6.07e-01	0	39	0	989331456	57	4861
2026-01-18 12:23:54.17	332.91	14.80	-42.9	-45.5	24.8	6.07e-01	0	39	0	994574336	57	4825
2026-01-18 12:23:57.45	333.16	14.44	-43.1	-45.8	24.5	6.07e-01	0	39	0	1000341504	57	4999
2026-01-18 12:24:00.17	333.37	14.15	-43.1	-45.7	24.7	6.07e-01	0	39	0	1005584384	57	4941
2026-01-18 12:24:03.92	333.64	13.76	-43.2	-45.7	24.5	6.02e-01	0	39	0	1012400128	57	4971
2026-01-18 12:24:06.64	333.84	13.47	-43.2	-45.7	24.5	6.02e-01	0	39	0	1017643008	57	4964
2026-01-18 12:24:09.91	334.07	13.14	-43.2	-45.8	24.5	6.01e-01	0	39	0	1023934464	57	5012
2026-01-18 12:24:12.63	334.26	12.86	-43.1	-45.7	24.6	6.02e-01	0	39	0	1029177344	57	4951
2026-01-18 12:24:16.14	334.50	12.51	-43.1	-45.8	24.5	6.03e-01	0	39	0	1035468800	57	4986
2026-01-18 12:24:19.20	334.70	12.21	-43.4	-45.9	24.3	6.01e-01	0	39	0	1041235968	57	5088
2026-01-18 12:24:22.04	334.88	11.93	-43.5	-46.0	24.3	6.01e-01	0	39	0	1046478848	57	5142
2026-01-18 12:24:25.17	335.08	11.63	-43.5	-46.1	24.2	6.01e-01	0	39	0	1052246016	57	5196
2026-01-18 12:24:28.01	335.26	11.36	-43.3	-45.9	24.4	6.01e-01	0	39	0	1057488896	57	5058
2026-01-18 12:24:31.14	335.45	11.07	-43.5	-46.3	24.0	6.04e-01	0	39	0	1063780352	57	5297
2026-01-18 12:24:33.98	335.62	10.80	-43.5	-46.4	23.9	6.01e-01	0	39	0	1069023232	57	5361
2026-01-18 12:24:37.11	335.81	10.51	-43.5	-46.5	23.8	5.99e-01	0	39	0	1074790400	57	5412
2026-01-18 12:24:40.01	335.98	10.25	-43.4	-46.4	23.9	6.02e-01	0	39	0	1080033280	57	5365
2026-01-18 12:24:43.00	336.15	9.98	-43.3	-46.5	23.7	6.03e-01	0	39	0	1085800448	57	5451
2026-01-18 12:24:45.98	336.31	9.72	-43.4	-46.8	23.4	5.99e-01	0	39	0	1091567616	57	5649
2026-01-18 12:24:48.97	336.48	9.46	-43.2	-46.5	23.7	6.03e-01	0	39	0	1096810496	57	5414
2026-01-18 12:24:51.95	336.64	9.20	-43.5	-46.8	23.5	6.01e-01	0	39	0	1102577664	57	5604
2026-01-18 12:24:54.93	336.80	8.94	-48.7	-64.2	8.3	6.56e-01	0	39	0	1108344832	67	23563
2026-01-18 12:24:57.91	336.95	8.69	-51.1	-71.7	3.8	7.42e-01	0	39	104	1108344832	72	41889
2026-01-18 12:25:00.89	337.10	8.44	-50.3	-72.0	3.8	7.45e-01	0	39	104	1108344832	72	43274
2026-01-18 12:25:03.87	337.25	8.19	-49.8	-72.2	3.8	7.47e-01	0	39	104	1108344832	71	46718
2026-01-18 12:25:06.85	337.40	7.95	-52.1	-72.2	3.8	7.45e-01	0	39	104	1108344832	74	39439
2026-01-18 12:25:09.83	337.55	7.70	-51.7	-72.2	3.8	7.47e-01	0	39	104	1108344832	74	39386
2026-01-18 12:25:12.81	337.69	7.46	-52.2	-72.2	3.8	7.44e-01	0	39	104	1108344832	75	37218
2026-01-18 12:25:15.79	337.83	7.23	-52.0	-72.2	3.8	7.48e-01	0	40	104	1108344832	75	37100
2026-01-18 12:25:18.77	337.97	6.99	-51.6	-72.2	3.8	7.45e-01	0	39	104	1108344832	74	39192
2026-01-18 12:25:21.75	338.10	6.76	-51.4	-72.1	3.8	7.48e-01	0	39	104	1108344832	74	39056
2026-01-18 12:25:24.73	338.24	6.53	-51.4	-72.1	3.8	7.48e-01	0	39	104	1108344832	74	39044
2026-01-18 12:25:27.71	338.37	6.30	-51.3	-72.1	3.8	7.47e-01	0	39	104	1108344832	74	38934
2026-01-18 12:25:30.69	338.50	6.07	-51.3	-72.1	3.8	7.44e-01	0	39	104	1108344832	74	38963
2026-01-18 12:25:33.67	338.63	5.85	-51.4	-72.1	3.8	7.45e-01	0	39	104	1108344832	74	38900
2026-01-18 12:25:36.65	338.75	5.63	-51.3	-72.1	3.8	7.48e-01	0	39	104	1108344832	74	38977
2026-01-18 12:25:39.63	338.88	5.40	-51.3	-72.1	3.8	7.46e-01	0	39	104	1108344832	74	38937
2026-01-18 12:25:42.61	339.00	5.19	-51.4	-72.1	3.8	7.48e-01	0	39	104	1108344832	74	38829
2026-01-18 12:25:45.59	339.12	4.97	-51.3	-72.1	3.8	7.42e-01	0	39	104	1108344832	74	38879

#Closed at: 2026-01-18 12:25:46
#Recorded file [1108 MB]: D:/Data/31040_260118_151434.dat