passes_logs/2026/01/18/T1/T1__20260118_024100_AQUA_rec.log

#Pass ID: 20260118_024100_AQUA
#Satellite: AQUA
#Configuration: AQUA
#almurnet v.1.7.20251203
#Start time: 2026-01-18 02:41:02

#Version: 2.0.20230620
#Station: T1
#Location: 37.570604 lon 55.790049 lat
#TLE: 1 27424U 02022A   26017.29152041  .00000842  00000+0  17841-3 0  9992
#TLE: 2 27424  98.4085 343.7574 0002011  75.4099  30.6811 14.61825797261228

#Time	Az	El	Level	Level2	SNR	BER	BlckErr	Temp	State	Recorded	gain1	gain2
2026-01-18 02:41:02.95	4.75	5.15	-48.4	-70.0	3.8	7.46e-01	0	36	0	0	68	43098
2026-01-18 02:41:05.93	4.51	5.35	-48.0	-69.4	3.8	7.44e-01	0	36	104	0	66	45405
2026-01-18 02:41:08.91	4.27	5.55	-48.0	-69.6	3.8	7.45e-01	0	36	104	0	66	46201
2026-01-18 02:41:11.89	4.02	5.75	-48.0	-69.7	3.8	7.46e-01	0	36	104	0	66	46901
2026-01-18 02:41:14.87	3.77	5.95	-48.0	-69.9	3.8	7.46e-01	0	37	104	0	66	47628
2026-01-18 02:41:17.85	3.51	6.15	-48.0	-69.9	3.8	7.47e-01	0	37	104	0	66	48016
2026-01-18 02:41:20.83	3.25	6.35	-48.0	-69.8	3.8	7.45e-01	0	37	104	0	66	47103
2026-01-18 02:41:23.80	2.98	6.56	-48.0	-69.6	3.8	7.47e-01	0	37	104	0	66	46084
2026-01-18 02:41:26.78	2.71	6.77	-48.0	-69.7	3.8	7.42e-01	0	37	104	0	66	46726
2026-01-18 02:41:29.77	2.44	6.97	-48.0	-69.5	3.8	7.45e-01	0	37	104	0	66	45971
2026-01-18 02:41:32.75	2.16	7.18	-48.1	-69.4	3.8	7.47e-01	0	37	104	0	66	45364
2026-01-18 02:41:35.73	1.87	7.39	-48.0	-69.4	3.8	7.45e-01	0	37	104	0	66	45357
2026-01-18 02:41:38.71	1.59	7.61	-48.0	-67.9	3.9	7.41e-01	0	37	104	0	66	37882
2026-01-18 02:41:41.69	1.29	7.82	-47.9	-65.9	3.9	7.40e-01	0	37	104	0	66	30240
2026-01-18 02:41:44.66	1.00	8.03	-48.0	-67.0	4.0	7.36e-01	0	37	104	0	66	34092
2026-01-18 02:41:47.65	0.69	8.25	-47.9	-67.0	3.9	7.42e-01	0	38	104	0	66	34280
2026-01-18 02:41:50.62	0.39	8.47	-47.4	-58.3	10.5	6.19e-01	0	38	0	3145728	66	12573
2026-01-18 02:41:53.60	0.07	8.68	-45.6	-50.8	18.2	6.04e-01	0	38	0	8388608	63	6332
2026-01-18 02:41:56.58	359.76	8.90	-43.9	-47.6	21.4	6.04e-01	0	38	0	14155776	59	5511
2026-01-18 02:41:59.56	359.43	9.13	-44.4	-48.2	20.8	6.04e-01	0	38	0	19922944	60	5581
2026-01-18 02:42:02.55	359.10	9.35	-44.0	-47.5	20.6	6.05e-01	0	38	0	25165824	59	5420
2026-01-18 02:42:05.53	358.77	9.57	-42.2	-45.0	24.0	6.03e-01	0	38	0	30932992	56	4816
2026-01-18 02:42:08.52	358.42	9.80	-42.3	-45.0	24.0	6.04e-01	0	38	0	36700160	56	4857
2026-01-18 02:42:11.50	358.08	10.03	-41.6	-44.8	24.2	6.03e-01	0	38	0	41943040	55	4991
2026-01-18 02:42:14.49	357.72	10.25	-41.6	-44.6	24.4	6.04e-01	0	38	0	47710208	55	4901
2026-01-18 02:42:17.47	357.36	10.48	-41.5	-44.5	24.5	6.01e-01	0	38	0	53477376	54	5134
2026-01-18 02:42:20.45	357.00	10.71	-41.4	-44.6	24.4	6.03e-01	0	38	0	58720256	54	5177
2026-01-18 02:42:23.44	356.63	10.95	-41.5	-44.6	24.4	6.04e-01	0	38	0	64487424	54	5200
2026-01-18 02:42:26.43	356.25	11.18	-41.3	-44.5	24.4	6.04e-01	0	38	0	70254592	54	5157
2026-01-18 02:42:29.42	355.86	11.42	-41.2	-44.5	24.5	6.05e-01	0	38	0	75497472	54	5103
2026-01-18 02:42:32.40	355.47	11.65	-41.2	-44.4	24.6	6.03e-01	0	38	0	81264640	54	5066
2026-01-18 02:42:35.32	355.08	11.88	-41.1	-44.3	24.7	6.03e-01	0	38	0	86507520	54	5006
2026-01-18 02:42:38.45	354.65	12.13	-40.9	-44.1	24.9	6.04e-01	0	38	0	92798976	53	5208
2026-01-18 02:42:41.29	354.26	12.36	-40.8	-44.1	24.9	6.03e-01	0	38	0	98041856	53	5181
2026-01-18 02:42:44.42	353.81	12.61	-40.7	-44.1	24.9	6.04e-01	0	38	0	103809024	53	5162
2026-01-18 02:42:47.30	353.40	12.85	-40.9	-44.3	24.8	6.05e-01	0	38	0	109051904	53	5314
2026-01-18 02:42:50.58	352.92	13.12	-40.8	-44.1	24.9	6.04e-01	0	38	0	115343360	53	5181
2026-01-18 02:42:53.43	352.49	13.35	-41.4	-44.2	24.8	6.06e-01	0	38	0	120586240	53	5239
2026-01-18 02:42:56.56	352.02	13.61	-41.5	-44.0	25.0	6.04e-01	0	38	0	126353408	53	5150
2026-01-18 02:42:59.40	351.57	13.84	-41.4	-44.1	25.0	6.04e-01	0	38	0	131596288	53	5163
2026-01-18 02:43:02.53	351.08	14.10	-41.4	-44.0	25.1	6.04e-01	0	38	0	137887744	53	5104
2026-01-18 02:43:05.36	350.63	14.34	-41.3	-43.9	25.2	6.02e-01	0	38	0	143130624	53	5082
2026-01-18 02:43:08.54	350.11	14.60	-41.0	-43.7	25.3	6.01e-01	0	38	0	148897792	53	4978
2026-01-18 02:43:11.38	349.63	14.84	-41.3	-43.9	25.1	6.02e-01	0	38	0	154140672	53	5084
2026-01-18 02:43:14.51	349.10	15.10	-41.3	-43.8	25.3	6.02e-01	0	38	0	160432128	53	4996
2026-01-18 02:43:17.35	348.61	15.34	-41.2	-43.7	25.4	6.02e-01	0	38	0	165675008	53	4938
2026-01-18 02:43:20.48	348.06	15.61	-41.0	-43.6	25.5	6.05e-01	0	38	0	171442176	53	4919
2026-01-18 02:43:23.32	347.55	15.85	-41.0	-43.7	25.4	6.01e-01	0	38	0	176685056	53	4955
2026-01-18 02:43:26.50	346.97	16.12	-41.0	-43.6	25.5	6.03e-01	0	39	0	182452224	53	4881
2026-01-18 02:43:29.34	346.44	16.36	-41.1	-43.7	25.4	6.01e-01	0	39	0	188219392	53	4938
2026-01-18 02:43:32.64	345.81	16.64	-40.7	-43.6	25.5	6.02e-01	0	38	0	193986560	53	4920
2026-01-18 02:43:35.55	345.25	16.89	-40.7	-43.6	25.4	6.04e-01	0	38	0	199753728	53	4926
2026-01-18 02:43:38.84	344.60	17.17	-41.1	-43.7	25.5	6.02e-01	0	38	0	206045184	53	4935
2026-01-18 02:43:41.75	344.02	17.41	-41.5	-44.0	25.1	6.04e-01	0	39	0	211288064	53	5159
2026-01-18 02:43:45.17	343.31	17.71	-41.0	-43.7	25.4	6.02e-01	0	39	0	217579520	53	4978
2026-01-18 02:43:48.20	342.68	17.96	-41.2	-43.6	25.5	6.03e-01	0	39	0	223346688	53	4920
2026-01-18 02:43:51.53	341.97	18.24	-41.1	-43.6	25.5	6.03e-01	0	39	0	229638144	53	4903
2026-01-18 02:43:54.26	341.38	18.47	-41.0	-43.6	25.6	6.04e-01	0	38	0	234881024	53	4880
2026-01-18 02:43:57.54	340.66	18.75	-41.4	-43.7	25.5	6.04e-01	0	38	0	240648192	53	4954
2026-01-18 02:44:00.32	340.03	18.98	-41.3	-43.9	25.3	6.02e-01	0	39	0	245891072	53	5059
2026-01-18 02:44:03.62	339.28	19.26	-41.0	-43.8	25.4	6.06e-01	0	39	0	252182528	53	4994
2026-01-18 02:44:06.71	338.56	19.51	-41.3	-43.8	25.4	6.03e-01	0	39	0	257949696	53	4994
2026-01-18 02:44:09.84	337.82	19.77	-41.1	-43.7	25.4	6.04e-01	0	39	0	263716864	53	4964
2026-01-18 02:44:12.69	337.13	20.00	-40.9	-43.9	25.3	6.04e-01	0	38	0	269484032	53	5082
2026-01-18 02:44:15.86	336.35	20.26	-41.1	-43.7	25.4	6.03e-01	0	39	0	275251200	53	4954
2026-01-18 02:44:18.72	335.64	20.49	-41.2	-44.0	25.2	6.03e-01	0	39	0	280494080	53	5110
2026-01-18 02:44:22.24	334.74	20.77	-41.2	-43.9	25.3	6.04e-01	0	39	0	287309824	53	5082
2026-01-18 02:44:24.94	334.04	20.98	-41.4	-43.9	25.3	6.02e-01	0	39	0	292028416	53	5070
2026-01-18 02:44:28.21	333.19	21.23	-41.5	-43.9	25.3	6.03e-01	0	39	0	298319872	53	5061
2026-01-18 02:44:30.93	332.46	21.44	-41.4	-44.0	25.2	6.02e-01	0	39	0	303562752	53	5145
2026-01-18 02:44:34.21	331.57	21.69	-41.3	-44.0	25.2	6.01e-01	0	39	0	309854208	53	5131
2026-01-18 02:44:36.91	330.83	21.89	-41.4	-44.1	25.1	6.01e-01	0	39	0	314572800	53	5168
2026-01-18 02:44:40.19	329.91	22.12	-41.5	-43.9	25.2	6.05e-01	0	39	0	320864256	53	5100
2026-01-18 02:44:42.96	329.13	22.32	-41.7	-44.2	25.0	6.03e-01	0	38	0	326107136	54	4947
2026-01-18 02:44:46.25	328.18	22.55	-41.7	-44.1	25.1	6.03e-01	0	39	0	332398592	54	4913
2026-01-18 02:44:48.95	327.39	22.73	-41.4	-44.1	25.1	6.03e-01	0	38	0	337117184	54	4890
2026-01-18 02:44:52.22	326.43	22.95	-41.4	-44.2	25.0	6.03e-01	0	39	0	343408640	54	4958
2026-01-18 02:44:54.92	325.62	23.12	-41.4	-44.0	25.3	6.01e-01	0	39	0	348651520	54	4833
2026-01-18 02:44:58.48	324.54	23.34	-41.6	-44.2	25.1	6.01e-01	0	39	0	354942976	54	4937
2026-01-18 02:45:01.27	323.68	23.51	-41.5	-44.2	25.1	6.02e-01	0	39	0	360185856	54	4931
2026-01-18 02:45:04.66	322.62	23.70	-41.6	-44.2	25.0	6.04e-01	0	39	0	367001600	54	4963
2026-01-18 02:45:07.37	321.77	23.85	-41.7	-44.4	25.0	6.02e-01	0	39	0	371720192	54	5043
2026-01-18 02:45:10.62	320.73	24.02	-41.2	-44.0	24.5	6.03e-01	0	39	0	378011648	54	4845
2026-01-18 02:45:13.86	319.69	24.19	-41.7	-44.3	24.9	6.04e-01	0	39	0	383778816	54	5039
2026-01-18 02:45:16.81	318.73	24.33	-41.6	-44.3	25.0	6.01e-01	0	39	0	389545984	54	4994
2026-01-18 02:45:19.80	317.75	24.46	-41.6	-44.4	24.9	6.05e-01	0	39	0	395313152	54	5046
2026-01-18 02:45:22.78	316.76	24.59	-41.7	-44.2	25.0	6.02e-01	0	39	0	400556032	54	4971
2026-01-18 02:45:25.77	315.76	24.70	-41.6	-44.1	25.1	6.01e-01	0	39	0	406323200	54	4881
2026-01-18 02:45:28.72	314.77	24.81	-41.8	-44.4	24.9	6.04e-01	0	39	0	412090368	54	5049
2026-01-18 02:45:31.96	313.67	24.92	-41.6	-44.4	24.9	6.00e-01	0	39	0	417857536	54	5061
2026-01-18 02:45:34.83	312.69	25.01	-41.8	-44.5	24.8	6.02e-01	0	39	0	423100416	54	5150
2026-01-18 02:45:37.96	311.61	25.09	-42.1	-44.6	24.7	6.04e-01	0	39	0	429391872	54	5203
2026-01-18 02:45:40.80	310.63	25.16	-42.2	-44.7	24.7	6.02e-01	0	39	0	434634752	55	4945
2026-01-18 02:45:43.93	309.55	25.23	-41.8	-44.3	24.9	6.04e-01	0	39	0	440401920	55	4724
2026-01-18 02:45:46.77	308.56	25.28	-42.0	-44.5	24.8	6.01e-01	0	39	0	445644800	55	4825
2026-01-18 02:45:50.09	307.40	25.32	-42.1	-44.5	24.8	6.02e-01	0	39	0	451936256	55	4869
2026-01-18 02:45:52.80	306.45	25.35	-42.0	-44.4	24.9	6.05e-01	0	39	0	457179136	55	4787
2026-01-18 02:45:56.07	305.30	25.38	-42.1	-44.6	24.8	6.03e-01	0	39	0	462946304	55	4884
2026-01-18 02:45:58.77	304.35	25.39	-41.9	-44.3	25.0	6.03e-01	0	39	0	468189184	55	4736
2026-01-18 02:46:02.15	303.17	25.39	-42.0	-44.4	24.8	6.01e-01	0	39	0	474480640	56	4536
2026-01-18 02:46:04.93	302.19	25.38	-43.1	-45.8	23.5	6.03e-01	0	39	0	479723520	57	5017
2026-01-18 02:46:08.26	301.02	25.36	-42.3	-44.9	24.5	5.99e-01	0	39	0	486014976	55	5066
2026-01-18 02:46:10.97	300.07	25.33	-40.9	-43.1	25.8	6.05e-01	0	39	0	491257856	53	4622
2026-01-18 02:46:14.25	298.92	25.29	-41.8	-44.3	24.9	6.06e-01	0	39	0	497025024	55	4758
2026-01-18 02:46:16.98	297.97	25.25	-41.7	-44.2	25.0	6.04e-01	0	39	0	502267904	54	4945
2026-01-18 02:46:20.52	296.74	25.18	-41.9	-44.4	24.9	6.03e-01	0	39	0	509083648	54	5047
2026-01-18 02:46:23.43	295.73	25.11	-42.6	-45.1	24.3	6.00e-01	0	39	0	514326528	56	4913
2026-01-18 02:46:26.71	294.61	25.02	-42.4	-45.0	24.4	6.01e-01	0	39	0	520617984	55	5144
2026-01-18 02:46:29.41	293.68	24.94	-42.3	-44.9	24.6	6.02e-01	0	39	0	525860864	56	4779
2026-01-18 02:46:32.74	292.55	24.83	-42.1	-44.5	24.8	6.03e-01	0	39	0	531628032	55	4839
2026-01-18 02:46:35.44	291.64	24.73	-42.5	-45.1	24.4	6.04e-01	0	39	0	536870912	56	4880
2026-01-18 02:46:38.73	290.53	24.60	-42.4	-44.9	24.4	6.03e-01	0	39	0	543162368	55	5097
2026-01-18 02:46:41.48	289.62	24.49	-42.2	-44.6	24.8	6.03e-01	0	39	0	548405248	56	4612
2026-01-18 02:46:44.76	288.54	24.34	-43.2	-45.9	23.7	6.06e-01	0	39	0	554696704	56	5365
2026-01-18 02:46:47.47	287.65	24.22	-42.4	-45.0	24.4	6.01e-01	0	39	0	559415296	56	4828
2026-01-18 02:46:50.77	286.58	24.05	-43.0	-45.6	23.9	6.05e-01	0	39	0	565706752	56	5196
2026-01-18 02:46:53.47	285.72	23.91	-43.6	-46.4	23.2	6.06e-01	0	39	0	570949632	57	5379
2026-01-18 02:46:56.96	284.61	23.72	-42.3	-44.6	24.7	6.04e-01	0	39	0	577241088	56	4650
2026-01-18 02:46:59.66	283.77	23.56	-42.2	-44.6	24.8	6.05e-01	0	39	0	582483968	56	4599
2026-01-18 02:47:02.93	282.75	23.37	-43.4	-46.1	23.3	6.05e-01	0	39	0	588251136	57	5204
2026-01-18 02:47:05.65	281.92	23.20	-43.3	-45.9	23.6	6.06e-01	0	39	0	593494016	57	5073
2026-01-18 02:47:09.12	280.88	22.98	-42.2	-44.6	24.8	6.03e-01	0	39	0	600309760	56	4638
2026-01-18 02:47:12.20	279.96	22.78	-42.6	-45.0	24.4	6.06e-01	0	39	0	606076928	56	4858
2026-01-18 02:47:15.48	279.00	22.56	-42.2	-44.6	24.8	6.06e-01	0	39	0	611844096	56	4627
2026-01-18 02:47:18.22	278.20	22.37	-42.4	-44.9	24.5	6.01e-01	0	39	0	617086976	56	4803
2026-01-18 02:47:21.53	277.26	22.13	-42.3	-44.8	24.6	6.04e-01	0	39	0	623378432	56	4723
2026-01-18 02:47:24.57	276.40	21.91	-42.6	-45.1	24.4	6.05e-01	0	39	0	629145600	56	4885
2026-01-18 02:47:27.55	275.58	21.69	-42.4	-44.9	24.5	6.03e-01	0	39	0	634912768	56	4782
2026-01-18 02:47:30.54	274.76	21.47	-42.5	-45.1	24.3	6.02e-01	0	39	0	640155648	56	4872
2026-01-18 02:47:33.53	273.96	21.24	-42.7	-45.3	24.1	6.02e-01	0	39	0	645922816	56	5027
2026-01-18 02:47:36.51	273.17	21.01	-42.2	-44.7	24.7	6.03e-01	0	39	0	651689984	56	4705
2026-01-18 02:47:39.50	272.40	20.77	-42.4	-44.9	24.4	6.06e-01	0	39	0	656932864	56	4785
2026-01-18 02:47:42.49	271.63	20.54	-42.4	-44.9	24.5	6.02e-01	0	39	0	662700032	56	4789
2026-01-18 02:47:45.48	270.88	20.30	-42.3	-44.8	24.6	6.02e-01	0	39	0	668467200	56	4736
2026-01-18 02:47:48.44	270.15	20.06	-42.5	-45.1	24.4	6.05e-01	0	39	0	673710080	56	4884
2026-01-18 02:47:51.43	269.42	19.81	-42.3	-44.8	24.6	6.02e-01	0	39	0	679477248	56	4732
2026-01-18 02:47:54.41	268.70	19.56	-42.5	-45.1	24.3	6.05e-01	0	39	0	685244416	56	4907
2026-01-18 02:47:57.40	268.00	19.32	-42.4	-44.9	24.5	6.02e-01	0	39	0	690487296	56	4801
2026-01-18 02:48:00.38	267.31	19.07	-42.3	-44.9	24.5	6.04e-01	0	39	0	696254464	56	4776
2026-01-18 02:48:03.46	266.61	18.81	-42.3	-44.8	24.6	6.00e-01	0	39	0	702021632	56	4714
2026-01-18 02:48:06.37	265.96	18.56	-42.3	-44.8	24.6	6.04e-01	0	39	0	707264512	56	4730
2026-01-18 02:48:09.66	265.24	18.28	-42.4	-44.8	24.3	6.03e-01	0	39	0	713555968	56	4735
2026-01-18 02:48:12.45	264.64	18.05	-42.2	-44.6	24.7	6.05e-01	0	39	0	718798848	56	4642
2026-01-18 02:48:15.63	263.97	17.78	-42.3	-44.8	24.5	6.03e-01	0	39	0	724566016	56	4730
2026-01-18 02:48:18.69	263.33	17.52	-42.2	-44.7	24.7	6.05e-01	0	39	0	730857472	56	4700
2026-01-18 02:48:21.54	262.75	17.27	-42.2	-44.7	24.7	6.03e-01	0	39	0	736100352	56	4690
2026-01-18 02:48:24.67	262.12	17.01	-42.2	-44.8	24.6	6.04e-01	0	39	0	741867520	56	4725
2026-01-18 02:48:27.57	261.55	16.76	-42.1	-44.7	24.7	6.01e-01	0	39	0	747110400	56	4666
2026-01-18 02:48:30.89	260.91	16.47	-42.2	-44.9	24.5	6.02e-01	0	39	0	753401856	56	4772
2026-01-18 02:48:33.60	260.40	16.24	-41.9	-44.4	24.8	6.02e-01	0	39	0	758644736	55	4807
2026-01-18 02:48:37.24	259.72	15.93	-42.2	-44.8	24.5	6.02e-01	0	39	0	765460480	55	5030
2026-01-18 02:48:40.08	259.21	15.69	-42.0	-44.6	24.6	6.02e-01	0	39	0	770703360	55	4907
2026-01-18 02:48:44.06	258.50	15.35	-42.2	-44.8	24.4	6.03e-01	0	39	0	778043392	55	4985
2026-01-18 02:48:46.78	258.02	15.12	-42.2	-44.7	24.5	6.02e-01	0	39	0	783286272	55	4976
2026-01-18 02:48:50.07	257.46	14.84	-42.2	-44.7	24.5	6.02e-01	0	40	0	789577728	55	4947
2026-01-18 02:48:53.05	256.95	14.59	-42.3	-44.9	24.3	6.03e-01	0	39	0	794820608	55	5088
2026-01-18 02:48:56.04	256.46	14.34	-42.4	-45.1	24.2	6.02e-01	0	39	0	800587776	55	5163
2026-01-18 02:48:59.03	255.97	14.09	-42.3	-44.9	24.3	6.04e-01	0	39	0	806354944	55	5055
2026-01-18 02:49:02.01	255.50	13.84	-42.5	-45.1	24.1	6.02e-01	0	40	0	811597824	55	5188
2026-01-18 02:49:05.00	255.03	13.59	-42.4	-45.0	24.2	6.06e-01	0	40	0	817364992	55	5141
2026-01-18 02:49:07.99	254.57	13.35	-42.4	-45.0	24.2	6.05e-01	0	39	0	823132160	55	5141
2026-01-18 02:49:10.97	254.12	13.10	-42.6	-45.2	23.9	6.05e-01	0	39	0	828375040	55	5267
2026-01-18 02:49:13.95	253.68	12.86	-42.5	-45.0	24.1	6.04e-01	0	39	0	834142208	55	5155
2026-01-18 02:49:16.93	253.25	12.61	-42.5	-45.1	24.0	6.03e-01	0	39	0	839909376	55	5199
2026-01-18 02:49:19.92	252.82	12.37	-42.7	-45.3	23.8	6.04e-01	0	39	0	845152256	55	5308
2026-01-18 02:49:22.90	252.40	12.13	-42.5	-45.1	24.0	6.03e-01	0	40	0	850919424	55	5191
2026-01-18 02:49:25.97	251.98	11.88	-42.9	-45.6	23.6	6.05e-01	0	39	0	856686592	56	5210
2026-01-18 02:49:28.81	251.59	11.66	-43.0	-45.8	23.4	6.05e-01	0	40	0	861929472	56	5290
2026-01-18 02:49:31.94	251.17	11.41	-42.7	-45.3	23.9	6.03e-01	0	39	0	867696640	56	5028
2026-01-18 02:49:34.78	250.80	11.18	-42.8	-45.4	23.8	6.03e-01	0	39	0	872939520	56	5073
2026-01-18 02:49:38.00	250.39	10.93	-43.1	-45.8	23.4	6.05e-01	0	39	0	879230976	57	5006
2026-01-18 02:49:40.87	250.03	10.70	-42.9	-45.6	23.6	6.04e-01	0	40	0	884473856	57	4876
2026-01-18 02:49:44.06	249.63	10.46	-42.7	-45.3	23.8	6.03e-01	0	40	0	890765312	57	4729
2026-01-18 02:49:46.91	249.28	10.24	-42.8	-45.5	23.7	6.05e-01	0	40	0	896008192	57	4844
2026-01-18 02:49:50.03	248.91	10.00	-43.0	-45.7	23.4	6.03e-01	0	40	0	901775360	57	4977
2026-01-18 02:49:52.88	248.57	9.78	-43.0	-45.8	23.4	6.02e-01	0	40	0	907018240	57	5005
2026-01-18 02:49:56.00	248.21	9.54	-43.2	-46.0	23.2	6.03e-01	0	40	0	912785408	57	5128
2026-01-18 02:49:58.89	247.88	9.32	-43.2	-46.0	23.2	6.05e-01	0	40	0	918552576	57	5125
2026-01-18 02:50:02.08	247.53	9.08	-43.1	-45.9	23.2	6.05e-01	0	39	0	924319744	57	5091
2026-01-18 02:50:04.92	247.21	8.87	-50.2	-70.6	3.8	7.47e-01	0	39	104	927465472	70	41030
2026-01-18 02:50:08.05	246.88	8.64	-50.1	-71.0	3.8	7.47e-01	0	40	104	927465472	71	40646
2026-01-18 02:50:10.88	246.58	8.43	-50.7	-71.0	3.8	7.45e-01	0	40	104	927465472	72	38505
2026-01-18 02:50:14.01	246.25	8.20	-50.7	-71.1	3.8	7.46e-01	0	39	104	927465472	72	38840
2026-01-18 02:50:16.84	245.96	8.00	-50.7	-71.1	3.8	7.48e-01	0	40	104	927465472	72	38873
2026-01-18 02:50:19.97	245.64	7.77	-50.3	-71.1	3.8	7.47e-01	0	40	104	927465472	72	38840
2026-01-18 02:50:22.81	245.36	7.57	-50.0	-71.1	3.8	7.46e-01	0	40	104	927465472	72	38750
2026-01-18 02:50:25.93	245.05	7.35	-49.8	-71.0	3.8	7.47e-01	0	40	104	927465472	71	40791
2026-01-18 02:50:28.77	244.78	7.14	-49.8	-71.0	3.8	7.46e-01	0	39	104	927465472	71	40830
2026-01-18 02:50:31.89	244.48	6.92	-49.8	-71.0	3.8	7.44e-01	0	40	104	927465472	71	40636
2026-01-18 02:50:34.73	244.22	6.72	-49.8	-71.0	3.8	7.49e-01	0	40	104	927465472	71	40670
2026-01-18 02:50:37.85	243.93	6.51	-49.7	-70.9	3.8	7.44e-01	0	40	104	927465472	71	40489
2026-01-18 02:50:40.69	243.67	6.31	-49.7	-70.9	3.8	7.47e-01	0	40	104	927465472	71	40437
2026-01-18 02:50:43.81	243.40	6.10	-49.7	-70.9	3.8	7.47e-01	0	40	104	927465472	71	40244
2026-01-18 02:50:46.65	243.15	5.90	-49.7	-70.9	3.8	7.47e-01	0	40	104	927465472	71	40327
2026-01-18 02:50:49.77	242.88	5.69	-49.7	-70.9	3.8	7.47e-01	0	40	104	927465472	71	40310
2026-01-18 02:50:52.61	242.64	5.50	-49.7	-70.9	3.8	7.46e-01	0	40	104	927465472	71	40310
2026-01-18 02:50:55.74	242.38	5.29	-49.7	-70.9	3.8	7.49e-01	0	40	104	927465472	71	40333
2026-01-18 02:50:58.58	242.14	5.10	-49.7	-70.9	3.8	7.42e-01	0	40	104	927465472	71	40393

#Closed at: 2026-01-18 02:51:01
#Recorded file [927 MB]: D:/Data/31040_260118_054102.dat