passes_logs/2026/01/18/T1/T1__20260118_124845_FENGYUN_3D_rec.log

#Pass ID: 20260118_124845_FENGYUN 3D
#Satellite: FENGYUN 3D
#Configuration: FENGYUN 3D
#almurnet v.1.7.20251203
#Start time: 2026-01-18 12:48:47

#Version: 2.0.20230620
#Station: T1
#Location: 37.570604 lon 55.790049 lat
#TLE: 1 43010U 17072A   26017.61121112  .00000213  00000+0  12257-3 0  9991
#TLE: 2 43010  98.9934 349.4672 0002374 103.9362 256.2078 14.19696413423628

#Time	Az	El	Level	Level2	SNR	BER	BlckErr	Temp	State	Recorded	gain1	gain2
2026-01-18 12:48:47.25	186.71	5.09	-48.7	-61.6	3.8	8.47e-01	0	36	104	0	68	16459
2026-01-18 12:48:50.27	186.86	5.30	-48.7	-61.5	3.8	8.48e-01	0	37	104	0	68	16163
2026-01-18 12:48:53.25	187.01	5.51	-48.7	-61.1	3.8	8.47e-01	0	37	104	0	68	15498
2026-01-18 12:48:56.23	187.16	5.71	-48.7	-61.3	3.8	8.47e-01	0	37	104	0	68	15852
2026-01-18 12:48:59.21	187.31	5.92	-48.7	-61.4	3.8	8.48e-01	0	37	104	0	68	16079
2026-01-18 12:49:02.19	187.46	6.13	-48.7	-61.4	3.8	8.47e-01	0	37	104	0	68	16010
2026-01-18 12:49:05.17	187.62	6.35	-48.7	-61.3	3.8	8.47e-01	0	37	104	0	68	15780
2026-01-18 12:49:08.15	187.77	6.56	-48.7	-61.5	3.8	8.47e-01	0	37	104	0	68	16169
2026-01-18 12:49:11.12	187.93	6.77	-48.7	-61.4	3.8	8.47e-01	0	37	104	0	68	16032
2026-01-18 12:49:14.10	188.09	6.99	-48.5	-59.3	3.8	8.46e-01	0	37	104	0	68	12578
2026-01-18 12:49:17.08	188.26	7.21	-48.4	-58.6	4.1	8.41e-01	0	38	0	0	68	11616
2026-01-18 12:49:20.06	188.43	7.43	-48.7	-61.7	3.8	8.48e-01	0	38	104	0	68	16610
2026-01-18 12:49:23.04	188.59	7.65	-46.8	-52.5	7.7	1.63e-01	0	38	0	4194304	65	6807
2026-01-18 12:49:26.02	188.77	7.88	-43.0	-45.8	14.6	1.02e-05	0	38	0	20971520	58	4733
2026-01-18 12:49:29.00	188.94	8.10	-40.1	-42.3	17.7	0.00e+00	0	38	0	37748736	52	4477
2026-01-18 12:49:31.98	189.12	8.33	-39.6	-41.7	18.4	0.00e+00	0	38	0	54525952	51	4418
2026-01-18 12:49:34.96	189.30	8.56	-40.9	-43.2	16.9	0.00e+00	0	38	0	71303168	52	4957
2026-01-18 12:49:37.94	189.48	8.79	-43.5	-46.6	13.8	1.10e-06	0	38	0	88080384	57	5467
2026-01-18 12:49:40.92	189.66	9.02	-46.0	-50.8	9.5	8.80e-03	0	38	0	104857600	62	6674
2026-01-18 12:49:43.90	189.85	9.26	-45.7	-49.7	10.7	3.04e-03	0	38	0	119537664	62	5911
2026-01-18 12:49:46.88	190.04	9.49	-41.7	-44.1	16.0	3.02e-03	0	38	0	134217728	55	4645
2026-01-18 12:49:49.88	190.24	9.73	-38.8	-40.8	19.2	0.00e+00	0	38	0	150994944	49	4488
2026-01-18 12:49:52.96	190.44	9.98	-38.6	-40.6	19.5	0.00e+00	0	38	0	167772160	49	4362
2026-01-18 12:49:55.98	190.64	10.23	-38.7	-40.7	19.4	0.00e+00	0	38	0	185597952	49	4409
2026-01-18 12:49:58.96	190.85	10.48	-38.6	-40.6	19.5	0.00e+00	0	38	0	202375168	49	4359
2026-01-18 12:50:01.94	191.05	10.72	-38.5	-40.4	19.7	0.00e+00	0	38	0	219152384	49	4289
2026-01-18 12:50:04.92	191.26	10.97	-38.5	-40.4	19.7	0.00e+00	0	38	0	235929600	48	4535
2026-01-18 12:50:07.91	191.48	11.23	-38.5	-40.4	19.7	0.00e+00	0	38	0	252706816	48	4544
2026-01-18 12:50:10.97	191.70	11.49	-38.3	-40.3	19.8	0.00e+00	0	38	0	269484032	48	4445
2026-01-18 12:50:13.83	191.91	11.73	-38.3	-40.2	19.9	0.00e+00	0	38	0	286261248	48	4424
2026-01-18 12:50:16.95	192.14	12.00	-38.4	-40.3	19.8	0.00e+00	0	38	0	303038464	48	4470
2026-01-18 12:50:19.79	192.36	12.25	-38.3	-40.2	19.9	0.00e+00	0	38	0	319815680	48	4438
2026-01-18 12:50:22.96	192.61	12.53	-38.5	-40.4	19.8	0.00e+00	0	38	0	336592896	48	4537
2026-01-18 12:50:25.80	192.83	12.79	-38.3	-40.2	20.0	0.00e+00	0	38	0	353370112	48	4414
2026-01-18 12:50:28.93	193.09	13.07	-38.2	-40.1	20.0	0.00e+00	0	38	0	371195904	48	4386
2026-01-18 12:50:31.77	193.32	13.33	-37.9	-39.8	20.0	0.00e+00	0	38	0	386924544	47	4484
2026-01-18 12:50:34.89	193.58	13.62	-37.7	-39.6	20.3	0.00e+00	0	39	0	404750336	47	4345
2026-01-18 12:50:37.74	193.82	13.88	-37.7	-39.6	20.2	0.00e+00	0	39	0	420478976	47	4361
2026-01-18 12:50:40.89	194.09	14.18	-37.7	-39.6	20.2	0.00e+00	0	39	0	438304768	47	4380
2026-01-18 12:50:43.81	194.35	14.45	-37.6	-39.5	20.4	0.00e+00	0	39	0	454033408	47	4310
2026-01-18 12:50:47.08	194.65	14.76	-37.4	-39.3	20.6	0.00e+00	0	39	0	472907776	46	4450
2026-01-18 12:50:49.82	194.90	15.03	-37.4	-39.2	20.6	0.00e+00	0	39	0	487587840	46	4441
2026-01-18 12:50:53.10	195.20	15.35	-37.3	-39.2	20.6	0.00e+00	0	39	0	506462208	46	4422
2026-01-18 12:50:56.13	195.49	15.65	-37.3	-39.1	20.7	0.00e+00	0	39	0	524288000	46	4384
2026-01-18 12:50:59.74	195.84	16.01	-37.1	-39.0	20.8	0.00e+00	0	39	0	544210944	46	4305
2026-01-18 12:51:02.60	196.13	16.30	-37.1	-38.9	20.9	0.00e+00	0	39	0	559939584	45	4536
2026-01-18 12:51:05.89	196.46	16.63	-37.0	-38.9	20.9	0.00e+00	0	39	0	578813952	45	4505
2026-01-18 12:51:08.59	196.74	16.91	-36.9	-38.7	21.0	0.00e+00	0	39	0	593494016	45	4439
2026-01-18 12:51:11.87	197.08	17.25	-36.6	-38.5	21.3	0.00e+00	0	38	0	612368384	45	4292
2026-01-18 12:51:14.57	197.37	17.53	-36.7	-38.6	21.2	0.00e+00	0	39	0	627048448	45	4343
2026-01-18 12:51:17.81	197.73	17.88	-36.7	-38.5	21.3	0.00e+00	0	39	0	645922816	44	4556
2026-01-18 12:51:20.65	198.05	18.18	-36.9	-38.7	21.1	0.00e+00	0	39	0	661651456	44	4694
2026-01-18 12:51:23.78	198.40	18.52	-36.7	-38.5	21.3	0.00e+00	0	39	0	679477248	44	4563
2026-01-18 12:51:26.71	198.75	18.84	-36.5	-38.3	21.5	0.00e+00	0	39	0	695205888	44	4457
2026-01-18 12:51:29.84	199.12	19.18	-36.3	-38.1	21.6	0.00e+00	0	39	0	713031680	44	4379
2026-01-18 12:51:32.79	199.48	19.51	-36.4	-38.2	21.6	0.00e+00	0	39	0	729808896	44	4396
2026-01-18 12:51:36.08	199.89	19.88	-36.6	-38.4	21.3	0.00e+00	0	39	0	748683264	44	4528
2026-01-18 12:51:38.80	200.23	20.19	-36.4	-38.2	21.5	0.00e+00	0	39	0	763363328	44	4430
2026-01-18 12:51:42.07	200.66	20.57	-36.3	-38.1	21.5	0.00e+00	0	39	0	782237696	44	4372
2026-01-18 12:51:44.78	201.02	20.89	-36.4	-38.2	21.5	0.00e+00	0	39	0	797966336	44	4422
2026-01-18 12:51:48.21	201.49	21.29	-36.6	-38.4	21.3	0.00e+00	0	39	0	816840704	44	4538
2026-01-18 12:51:51.28	201.91	21.65	-36.2	-38.0	21.7	0.00e+00	0	39	0	833617920	44	4297
2026-01-18 12:51:54.12	202.32	21.99	-36.0	-37.8	21.9	0.00e+00	0	39	0	849346560	44	4224
2026-01-18 12:51:57.39	202.79	22.39	-35.9	-37.6	21.9	0.00e+00	0	39	0	868220928	43	4379
2026-01-18 12:52:00.11	203.20	22.72	-35.9	-37.7	21.8	0.00e+00	0	39	0	883949568	43	4408
2026-01-18 12:52:03.62	203.73	23.15	-35.7	-37.5	22.0	0.00e+00	0	39	0	903872512	43	4313
2026-01-18 12:52:06.67	204.21	23.53	-35.4	-37.2	22.3	0.00e+00	0	39	0	920649728	42	4417
2026-01-18 12:52:09.80	204.71	23.93	-35.2	-36.9	22.5	0.00e+00	0	39	0	938475520	42	4284
2026-01-18 12:52:12.64	205.18	24.29	-35.3	-37.0	22.4	0.00e+00	0	39	0	954204160	42	4318
2026-01-18 12:52:15.76	205.70	24.69	-35.2	-36.9	22.5	0.00e+00	0	39	0	972029952	42	4273
2026-01-18 12:52:18.64	206.20	25.06	-35.3	-37.0	22.4	0.00e+00	0	39	0	987758592	42	4336
2026-01-18 12:52:21.91	206.78	25.49	-35.2	-37.0	22.5	0.00e+00	0	39	0	1006632960	42	4299
2026-01-18 12:52:24.68	207.28	25.85	-35.0	-36.7	22.7	0.00e+00	0	39	0	1022361600	41	4419
2026-01-18 12:52:27.95	207.88	26.29	-34.9	-36.6	22.7	0.00e+00	0	39	0	1040187392	41	4389
2026-01-18 12:52:30.68	208.40	26.65	-35.0	-36.7	22.4	0.00e+00	0	39	0	1055916032	41	4405
2026-01-18 12:52:34.06	209.06	27.11	-35.0	-36.7	22.6	0.00e+00	0	39	0	1074790400	41	4432
2026-01-18 12:52:36.75	209.59	27.47	-35.0	-36.8	22.6	0.00e+00	0	39	0	1089470464	41	4452
2026-01-18 12:52:40.15	210.29	27.93	-34.9	-36.6	22.7	0.00e+00	0	39	0	1108344832	41	4385
2026-01-18 12:52:42.97	210.88	28.32	-34.8	-36.5	22.8	0.00e+00	0	39	0	1125122048	41	4309
2026-01-18 12:52:46.26	211.59	28.78	-34.8	-36.5	22.8	0.00e+00	0	39	0	1142947840	41	4326
2026-01-18 12:52:49.01	212.20	29.16	-35.0	-36.7	22.6	0.00e+00	0	39	0	1158676480	41	4413
2026-01-18 12:52:52.30	212.95	29.62	-34.8	-36.6	22.8	0.00e+00	0	39	0	1177550848	41	4344
2026-01-18 12:52:55.08	213.59	30.01	-35.0	-36.7	22.6	0.00e+00	0	39	0	1193279488	41	4421
2026-01-18 12:52:59.03	214.54	30.56	-34.8	-36.5	22.9	0.00e+00	0	39	0	1215299584	41	4310
2026-01-18 12:53:02.17	215.32	31.01	-34.7	-36.4	22.9	0.00e+00	0	39	0	1232076800	41	4289
2026-01-18 12:53:06.86	216.52	31.67	-34.7	-36.5	22.9	0.00e+00	0	39	0	1259339776	41	4299
2026-01-18 12:53:09.85	217.30	32.09	-34.6	-36.3	23.0	0.00e+00	0	39	0	1276116992	41	4238
2026-01-18 12:53:14.53	218.58	32.76	-34.6	-36.4	23.0	0.00e+00	0	39	0	1302331392	40	4500
2026-01-18 12:53:17.52	219.42	33.18	-34.8	-36.5	22.8	0.00e+00	0	39	0	1319108608	40	4579
2026-01-18 12:53:22.20	220.79	33.84	-34.7	-36.4	22.9	0.00e+00	0	39	0	1345323008	40	4543
2026-01-18 12:53:25.20	221.69	34.26	-34.7	-36.5	22.8	0.00e+00	0	39	0	1362100224	40	4550
2026-01-18 12:53:29.89	223.15	34.91	-34.6	-36.3	23.0	0.00e+00	0	39	0	1388314624	40	4466
2026-01-18 12:53:32.88	224.11	35.33	-34.7	-36.5	22.8	0.00e+00	0	39	0	1405091840	40	4554
2026-01-18 12:53:37.57	225.66	35.97	-34.5	-36.2	23.1	0.00e+00	0	39	0	1431306240	40	4400
2026-01-18 12:53:40.55	226.68	36.37	-34.5	-36.2	23.1	0.00e+00	0	39	0	1448083456	40	4407
2026-01-18 12:53:45.24	228.33	36.99	-34.4	-36.1	23.2	0.00e+00	0	39	0	1475346432	40	4350
2026-01-18 12:53:48.26	229.43	37.38	-34.3	-36.0	23.3	0.00e+00	0	39	0	1492123648	40	4324
2026-01-18 12:53:53.04	231.22	37.98	-34.5	-36.2	23.1	0.00e+00	0	39	0	1518338048	40	4438
2026-01-18 12:53:56.02	232.37	38.34	-34.5	-36.3	23.0	0.00e+00	0	39	0	1536163840	40	4452
2026-01-18 12:54:00.71	234.23	38.90	-34.7	-36.4	22.9	0.00e+00	0	39	0	1562378240	40	4535
2026-01-18 12:54:03.70	235.45	39.24	-34.2	-35.9	23.3	0.00e+00	0	39	0	1579155456	40	4256
2026-01-18 12:54:08.45	237.44	39.76	-34.4	-36.1	23.2	0.00e+00	0	39	0	1605369856	40	4352
2026-01-18 12:54:11.43	238.72	40.07	-34.5	-36.2	23.1	0.00e+00	0	39	0	1622147072	40	4422
2026-01-18 12:54:16.18	240.80	40.53	-34.3	-36.0	23.2	0.00e+00	0	39	0	1649410048	40	4325
2026-01-18 12:54:19.18	242.15	40.80	-34.2	-35.9	23.3	0.00e+00	0	39	0	1666187264	40	4280
2026-01-18 12:54:23.92	244.32	41.21	-34.5	-36.3	23.0	0.00e+00	0	39	0	1692401664	40	4444
2026-01-18 12:54:26.90	245.71	41.44	-34.3	-36.0	23.2	0.00e+00	0	39	0	1709178880	40	4328
2026-01-18 12:54:31.60	247.95	41.76	-34.4	-36.2	23.1	0.00e+00	0	39	0	1735393280	40	4405
2026-01-18 12:54:34.45	249.32	41.94	-34.5	-36.2	23.1	0.00e+00	0	39	0	1752170496	40	4407
2026-01-18 12:54:37.58	250.85	42.11	-34.4	-36.1	23.2	0.00e+00	0	39	0	1768947712	40	4353
2026-01-18 12:54:40.42	252.25	42.25	-34.7	-36.4	22.9	0.00e+00	0	39	0	1785724928	40	4525
2026-01-18 12:54:43.55	253.80	42.38	-34.8	-36.5	22.9	0.00e+00	0	39	0	1802502144	40	4567
2026-01-18 12:54:46.39	255.22	42.48	-34.6	-36.3	23.0	0.00e+00	0	39	0	1819279360	40	4462
2026-01-18 12:54:49.52	256.79	42.57	-34.5	-36.2	23.1	0.00e+00	0	39	0	1836056576	40	4417
2026-01-18 12:54:52.36	258.23	42.63	-34.6	-36.3	22.9	0.00e+00	0	39	0	1852833792	40	4481
2026-01-18 12:54:55.49	259.81	42.67	-34.7	-36.4	22.9	0.00e+00	0	39	0	1870659584	40	4521
2026-01-18 12:54:58.33	261.25	42.69	-34.7	-36.4	23.0	0.00e+00	0	39	0	1886388224	40	4533
2026-01-18 12:55:01.46	262.84	42.68	-34.6	-36.3	23.0	0.00e+00	0	39	0	1903165440	40	4463
2026-01-18 12:55:04.30	264.28	42.66	-34.6	-36.3	22.9	0.00e+00	0	39	0	1919942656	40	4485
2026-01-18 12:55:07.48	265.89	42.61	-34.6	-36.4	22.9	0.00e+00	0	39	0	1937768448	40	4507
2026-01-18 12:55:10.34	267.33	42.54	-34.5	-36.2	23.0	0.00e+00	0	39	0	1953497088	40	4412
2026-01-18 12:55:13.63	268.98	42.44	-34.7	-36.5	22.8	0.00e+00	0	39	0	1972371456	40	4546
2026-01-18 12:55:16.38	270.35	42.34	-34.6	-36.3	23.0	0.00e+00	0	39	0	1988100096	40	4465
2026-01-18 12:55:19.67	271.98	42.19	-34.8	-36.4	23.5	0.00e+00	0	39	0	2005925888	40	4513
2026-01-18 12:55:22.41	273.32	42.05	-34.8	-36.5	23.5	0.00e+00	0	39	0	2021654528	40	4552
2026-01-18 12:55:25.96	275.04	41.84	-34.8	-36.4	23.5	0.00e+00	0	39	0	2041577472	40	4540
2026-01-18 12:55:28.68	276.34	41.66	-34.8	-36.4	23.5	0.00e+00	0	39	0	2057306112	40	4541
2026-01-18 12:55:31.94	277.89	41.43	-34.5	-36.2	23.7	0.00e+00	0	39	0	2075131904	40	4410
2026-01-18 12:55:34.66	279.15	41.22	-34.5	-36.2	23.7	0.00e+00	0	39	0	2090860544	40	4403
2026-01-18 12:55:37.96	280.67	40.95	-34.6	-36.2	23.7	0.00e+00	0	39	0	2108686336	40	4420
2026-01-18 12:55:40.72	281.92	40.71	-34.5	-36.1	23.8	0.00e+00	0	39	0	2124414976	40	4380
2026-01-18 12:55:44.29	283.51	40.37	-34.7	-36.4	23.6	0.00e+00	0	39	0	2144337920	40	4494
2026-01-18 12:55:47.28	284.81	40.08	-34.5	-36.2	23.7	0.00e+00	0	39	0	2161115136	40	4392
2026-01-18 12:55:50.54	286.20	39.74	-34.5	-36.1	23.8	0.00e+00	0	39	0	2179989504	40	4347
2026-01-18 12:55:53.26	287.35	39.45	-34.5	-36.1	23.8	0.00e+00	0	39	0	2194669568	40	4355
2026-01-18 12:55:56.53	288.69	39.08	-34.3	-36.0	23.9	0.00e+00	0	39	0	2213543936	40	4301
2026-01-18 12:55:59.24	289.78	38.77	-34.5	-36.1	23.7	0.00e+00	0	39	0	2228224000	40	4388
2026-01-18 12:56:02.73	291.16	38.36	-34.5	-36.2	23.7	0.00e+00	0	39	0	2248146944	40	4398
2026-01-18 12:56:05.46	292.21	38.03	-34.7	-36.3	23.6	0.00e+00	0	39	0	2263875584	40	4481
2026-01-18 12:56:08.74	293.44	37.62	-34.6	-36.3	23.7	0.00e+00	0	39	0	2281701376	40	4442
2026-01-18 12:56:11.48	294.45	37.27	-34.2	-35.8	24.1	0.00e+00	0	39	0	2297430016	40	4207
2026-01-18 12:56:14.74	295.62	36.85	-34.2	-35.8	24.0	0.00e+00	0	39	0	2316304384	40	4215
2026-01-18 12:56:17.65	296.64	36.46	-34.7	-36.3	23.6	0.00e+00	0	39	0	2332033024	40	4478
2026-01-18 12:56:21.06	297.81	36.01	-34.2	-35.8	24.0	0.00e+00	0	39	0	2350907392	40	4212
2026-01-18 12:56:23.78	298.72	35.64	-34.3	-35.9	24.0	0.00e+00	0	39	0	2366636032	40	4258
2026-01-18 12:56:27.06	299.78	35.20	-34.3	-35.9	24.0	0.00e+00	0	39	0	2385510400	40	4260
2026-01-18 12:56:29.77	300.64	34.82	-34.5	-36.1	23.7	0.00e+00	0	39	0	2400190464	40	4387
2026-01-18 12:56:33.14	301.69	34.36	-34.8	-36.5	23.5	0.00e+00	0	39	0	2419064832	40	4547
2026-01-18 12:56:35.86	302.51	33.98	-34.8	-36.5	23.4	0.00e+00	0	39	0	2434793472	40	4552
2026-01-18 12:56:39.24	303.50	33.50	-34.6	-36.3	23.6	0.00e+00	0	39	0	2453667840	40	4462
2026-01-18 12:56:41.97	304.28	33.12	-34.6	-36.2	23.6	0.00e+00	0	39	0	2469396480	40	4441
2026-01-18 12:56:45.25	305.20	32.66	-34.6	-36.2	23.6	0.00e+00	0	39	0	2487222272	40	4437
2026-01-18 12:56:47.98	305.94	32.27	-34.7	-36.3	23.5	0.00e+00	0	39	0	2502950912	40	4474
2026-01-18 12:56:51.26	306.81	31.81	-35.0	-36.6	23.3	0.00e+00	0	39	0	2520776704	40	4647
2026-01-18 12:56:53.96	307.51	31.43	-34.9	-36.6	23.4	0.00e+00	0	39	0	2536505344	40	4599
2026-01-18 12:56:57.24	308.33	30.97	-34.8	-36.4	23.5	0.00e+00	0	39	0	2555379712	40	4535
2026-01-18 12:56:59.96	309.00	30.59	-35.0	-36.7	23.2	0.00e+00	0	39	0	2570059776	40	4678
2026-01-18 12:57:03.26	309.79	30.13	-35.4	-37.1	22.9	0.00e+00	0	39	0	2588934144	41	4600
2026-01-18 12:57:05.98	310.43	29.75	-35.2	-36.9	23.0	0.00e+00	0	39	0	2604662784	41	4522
2026-01-18 12:57:09.27	311.18	29.29	-35.0	-36.6	23.3	0.00e+00	0	39	0	2622488576	41	4383
2026-01-18 12:57:12.22	311.83	28.88	-35.1	-36.8	23.1	0.00e+00	0	39	0	2639265792	41	4467
2026-01-18 12:57:15.49	312.54	28.44	-35.2	-36.8	23.1	0.00e+00	0	39	0	2658140160	41	4480
2026-01-18 12:57:18.18	313.10	28.07	-35.1	-36.8	23.1	0.00e+00	0	39	0	2672820224	41	4469
2026-01-18 12:57:21.53	313.79	27.61	-34.9	-36.6	23.3	0.00e+00	0	39	0	2691694592	41	4364
2026-01-18 12:57:24.28	314.34	27.24	-35.1	-36.8	23.2	0.00e+00	0	39	0	2707423232	41	4461
2026-01-18 12:57:27.63	314.99	26.79	-35.2	-36.9	23.0	0.00e+00	0	39	0	2726297600	41	4512
2026-01-18 12:57:30.69	315.57	26.39	-35.0	-36.7	23.2	0.00e+00	0	39	0	2743074816	41	4395
2026-01-18 12:57:33.82	316.16	25.98	-35.1	-36.7	23.2	0.00e+00	0	39	0	2760900608	41	4411
2026-01-18 12:57:36.66	316.67	25.60	-35.3	-37.0	23.0	0.00e+00	0	39	0	2776629248	41	4564
2026-01-18 12:57:39.87	317.24	25.19	-35.5	-37.2	22.7	0.00e+00	0	39	0	2794455040	41	4694
2026-01-18 12:57:42.71	317.73	24.82	-35.4	-37.1	22.8	0.00e+00	0	39	0	2810183680	41	4622
2026-01-18 12:57:45.96	318.27	24.41	-35.3	-37.0	22.9	0.00e+00	0	39	0	2829058048	41	4593
2026-01-18 12:57:48.84	318.75	24.04	-35.4	-37.1	22.8	0.00e+00	0	39	0	2844786688	41	4638
2026-01-18 12:57:51.96	319.25	23.65	-35.5	-37.1	22.8	0.00e+00	0	39	0	2862612480	41	4646
2026-01-18 12:57:54.80	319.69	23.30	-35.4	-37.1	22.8	0.00e+00	0	39	0	2878341120	41	4627
2026-01-18 12:57:57.99	320.18	22.91	-35.5	-37.3	22.7	0.00e+00	0	39	0	2896166912	41	4706
2026-01-18 12:58:00.83	320.61	22.56	-35.7	-37.4	22.5	0.00e+00	0	39	0	2912944128	42	4534
2026-01-18 12:58:03.96	321.06	22.19	-35.9	-37.6	22.3	0.00e+00	0	40	0	2929721344	42	4644
2026-01-18 12:58:06.80	321.47	21.85	-36.1	-37.8	22.2	0.00e+00	0	39	0	2946498560	42	4712
2026-01-18 12:58:09.93	321.91	21.48	-35.9	-37.7	22.3	0.00e+00	0	39	0	2964324352	42	4654
2026-01-18 12:58:12.77	322.30	21.15	-36.1	-37.8	22.2	0.00e+00	0	39	0	2980052992	42	4730
2026-01-18 12:58:16.12	322.75	20.76	-36.3	-38.0	21.7	0.00e+00	0	39	0	2998927360	43	4565
2026-01-18 12:58:18.83	323.10	20.45	-36.3	-38.0	22.0	0.00e+00	0	39	0	3013607424	43	4569
2026-01-18 12:58:22.12	323.52	20.07	-36.3	-38.0	22.0	0.00e+00	0	39	0	3032481792	43	4598
2026-01-18 12:58:24.86	323.87	19.76	-36.4	-38.2	21.8	0.00e+00	0	39	0	3048210432	43	4661
2026-01-18 12:58:28.12	324.27	19.40	-36.6	-38.4	21.6	0.00e+00	0	39	0	3066036224	43	4807
2026-01-18 12:58:30.87	324.60	19.10	-37.0	-38.8	21.4	0.00e+00	0	40	0	3081764864	44	4755
2026-01-18 12:58:34.15	324.99	18.74	-37.2	-38.9	21.3	0.00e+00	0	39	0	3099590656	45	4544
2026-01-18 12:58:37.22	325.34	18.41	-37.0	-38.8	21.4	0.00e+00	0	39	0	3117416448	45	4446
2026-01-18 12:58:40.06	325.66	18.11	-36.9	-38.7	21.5	0.00e+00	0	39	0	3133145088	45	4408
2026-01-18 12:58:43.19	326.01	17.78	-36.9	-38.7	21.5	0.00e+00	0	39	0	3150970880	45	4408
2026-01-18 12:58:46.14	326.33	17.47	-36.9	-38.7	21.4	0.00e+00	0	39	0	3167748096	45	4424
2026-01-18 12:58:49.22	326.66	17.15	-37.0	-38.8	21.4	0.00e+00	0	39	0	3184525312	45	4466
2026-01-18 12:58:52.35	326.98	16.83	-37.1	-38.8	21.3	0.00e+00	0	39	0	3202351104	45	4492
2026-01-18 12:58:55.19	327.27	16.54	-37.4	-39.2	21.0	0.00e+00	0	40	0	3218079744	45	4661
2026-01-18 12:58:58.32	327.59	16.22	-37.4	-39.2	20.9	0.00e+00	0	39	0	3235905536	45	4700
2026-01-18 12:59:01.16	327.87	15.94	-37.5	-39.4	20.8	0.00e+00	0	40	0	3251634176	45	4769
2026-01-18 12:59:04.29	328.17	15.63	-37.8	-39.6	20.6	0.00e+00	0	39	0	3269459968	46	4640
2026-01-18 12:59:07.13	328.44	15.36	-37.8	-39.7	20.5	0.00e+00	0	40	0	3285188608	46	4666
2026-01-18 12:59:10.26	328.73	15.05	-37.9	-39.7	20.5	0.00e+00	0	39	0	3303014400	46	4667
2026-01-18 12:59:13.10	328.99	14.78	-37.9	-39.7	20.5	0.00e+00	0	40	0	3318743040	46	4683
2026-01-18 12:59:16.57	329.30	14.45	-37.9	-39.8	20.4	0.00e+00	0	39	0	3338665984	46	4709
2026-01-18 12:59:19.28	329.54	14.20	-38.1	-39.9	20.3	0.00e+00	0	39	0	3354394624	46	4773
2026-01-18 12:59:22.57	329.82	13.90	-38.0	-39.8	20.3	0.00e+00	0	39	0	3372220416	46	4751
2026-01-18 12:59:25.50	330.07	13.63	-38.3	-40.1	20.1	0.00e+00	0	40	0	3388997632	47	4641
2026-01-18 12:59:28.52	330.32	13.35	-38.1	-40.0	20.2	0.00e+00	0	39	0	3405774848	47	4547
2026-01-18 12:59:31.50	330.57	13.08	-38.3	-40.2	20.0	0.00e+00	0	39	0	3422552064	47	4683
2026-01-18 12:59:34.48	330.81	12.82	-38.3	-40.2	20.0	0.00e+00	0	39	0	3439329280	47	4684
2026-01-18 12:59:37.46	331.04	12.55	-38.5	-40.4	19.8	0.00e+00	0	39	0	3456106496	47	4775
2026-01-18 12:59:40.45	331.28	12.29	-38.4	-40.3	19.9	0.00e+00	0	40	0	3472883712	47	4723
2026-01-18 12:59:43.43	331.50	12.03	-38.5	-40.4	19.8	0.00e+00	0	40	0	3489660928	47	4780
2026-01-18 12:59:46.42	331.73	11.78	-38.5	-40.4	19.7	0.00e+00	0	39	0	3506438144	47	4809
2026-01-18 12:59:49.40	331.95	11.52	-38.7	-40.6	19.6	0.00e+00	0	39	0	3523215360	47	4882
2026-01-18 12:59:52.47	332.17	11.26	-38.8	-40.7	19.7	0.00e+00	0	39	0	3539992576	48	4702
2026-01-18 12:59:55.39	332.38	11.02	-38.9	-40.8	19.6	0.00e+00	0	39	0	3556769792	49	4457
2026-01-18 12:59:58.68	332.62	10.75	-39.0	-41.0	19.4	0.00e+00	0	39	0	3575644160	49	4562
2026-01-18 13:00:01.38	332.80	10.52	-39.4	-41.4	19.0	0.00e+00	0	40	0	3590324224	49	4798
2026-01-18 13:00:04.65	333.03	10.26	-39.0	-40.9	19.4	0.00e+00	0	40	0	3609198592	49	4541
2026-01-18 13:00:07.38	333.21	10.04	-39.0	-40.9	19.4	0.00e+00	0	40	0	3624927232	49	4537
2026-01-18 13:00:10.76	333.43	9.77	-39.1	-41.1	19.2	0.00e+00	0	40	0	3643801600	49	4631
2026-01-18 13:00:13.47	333.61	9.55	-39.0	-40.9	19.4	0.00e+00	0	40	0	3658481664	49	4510
2026-01-18 13:00:16.76	333.82	9.29	-39.4	-41.4	19.0	0.00e+00	0	40	0	3677356032	49	4767
2026-01-18 13:00:19.50	334.00	9.08	-39.5	-41.5	18.8	0.00e+00	0	40	0	3693084672	49	4835
2026-01-18 13:00:22.77	334.20	8.82	-49.4	-61.8	3.8	8.46e-01	0	39	104	3700424704	69	15796
2026-01-18 13:00:25.48	334.37	8.62	-49.3	-62.2	3.8	8.47e-01	0	39	104	3700424704	69	16601
2026-01-18 13:00:28.76	334.57	8.37	-49.8	-62.4	3.8	8.46e-01	0	40	104	3700424704	70	15972
2026-01-18 13:00:31.46	334.73	8.16	-50.0	-62.4	3.8	8.47e-01	0	40	104	3700424704	70	16010
2026-01-18 13:00:34.82	334.93	7.91	-50.1	-62.4	3.8	8.46e-01	0	40	104	3700424704	71	15123
2026-01-18 13:00:37.53	335.08	7.71	-50.3	-62.4	3.8	8.46e-01	0	40	104	3700424704	71	15093
2026-01-18 13:00:40.81	335.27	7.47	-50.2	-62.3	3.8	8.47e-01	0	40	104	3700424704	71	14995
2026-01-18 13:00:43.50	335.42	7.27	-50.0	-62.3	3.8	8.47e-01	0	40	104	3700424704	71	14979
2026-01-18 13:00:46.78	335.60	7.03	-49.9	-62.2	3.8	8.47e-01	0	40	104	3700424704	71	14879
2026-01-18 13:00:49.48	335.75	6.84	-49.9	-62.3	3.8	8.48e-01	0	40	104	3700424704	71	14897
2026-01-18 13:00:52.75	335.93	6.60	-49.9	-62.2	3.8	8.46e-01	0	40	104	3700424704	71	14862
2026-01-18 13:00:55.46	336.07	6.41	-49.9	-62.2	3.8	8.46e-01	0	40	104	3700424704	71	14859
2026-01-18 13:00:58.74	336.25	6.18	-49.9	-62.2	3.8	8.47e-01	0	40	104	3700424704	71	14819
2026-01-18 13:01:01.46	336.39	5.99	-49.9	-62.3	3.8	8.46e-01	0	40	104	3700424704	71	14885
2026-01-18 13:01:04.74	336.56	5.76	-49.8	-62.3	3.8	8.47e-01	0	40	104	3700424704	71	14896
2026-01-18 13:01:07.45	336.70	5.58	-49.8	-62.2	3.8	8.48e-01	0	40	104	3700424704	71	14858
2026-01-18 13:01:10.72	336.86	5.35	-49.8	-62.2	3.8	8.47e-01	0	40	104	3700424704	71	14850
2026-01-18 13:01:13.43	336.99	5.17	-49.8	-62.2	3.8	8.47e-01	0	40	104	3700424704	71	14867
2026-01-18 13:01:16.70	337.15	4.95	-49.8	-62.2	3.8	8.48e-01	0	40	104	3700424704	71	14816

#Closed at: 2026-01-18 13:01:17
#Recorded file [3700 MB]: D:/Data/31040_260118_154847.dat