passes_logs/2026/01/18/T1/T1__20260118_143240_FENGYUN_3E_rec.log

#Pass ID: 20260118_143240_FENGYUN 3E
#Satellite: FENGYUN 3E
#Configuration: FENGYUN 3E
#almurnet v.1.7.20251203
#Start time: 2026-01-18 14:32:40

#Version: 2.0.20230620
#Station: T1
#Location: 37.570604 lon 55.790049 lat
#TLE: 1 49008U 21062A   26017.61301378  .00000104  00000+0  69808-4 0  9996
#TLE: 2 49008  98.7484  22.7108 0002130 132.1860 227.9498 14.19886007235218

#Time	Az	El	Level	Level2	SNR	BER	BlckErr	Temp	State	Recorded	gain1	gain2
2026-01-18 14:32:40.29	170.80	4.95	-50.0	-61.0	3.8	8.46e-01	0	41	0	0	70	12797
2026-01-18 14:32:44.26	170.88	5.23	-46.3	-60.4	3.8	8.47e-01	0	41	104	0	62	18873
2026-01-18 14:32:48.23	170.96	5.52	-46.2	-59.9	3.8	8.48e-01	0	41	104	0	62	17719
2026-01-18 14:32:52.20	171.04	5.81	-46.3	-59.4	3.8	8.48e-01	0	41	104	0	62	16836
2026-01-18 14:32:56.17	171.13	6.10	-46.1	-59.1	3.8	8.46e-01	0	41	104	0	62	16248
2026-01-18 14:33:00.15	171.21	6.40	-46.1	-59.5	3.8	8.48e-01	0	42	104	0	62	16901
2026-01-18 14:33:04.12	171.30	6.70	-46.2	-60.5	3.8	8.48e-01	0	42	104	0	62	18960
2026-01-18 14:33:08.09	171.39	7.00	-46.2	-59.8	3.8	8.47e-01	0	42	104	0	62	17532
2026-01-18 14:33:12.06	171.48	7.31	-46.1	-57.4	4.1	8.43e-01	0	42	0	0	62	13310
2026-01-18 14:33:16.04	171.57	7.62	-45.2	-52.4	6.9	1.90e-01	0	42	0	6291456	61	7935
2026-01-18 14:33:20.01	171.67	7.94	-43.2	-46.9	12.4	8.97e-04	0	42	0	34603008	57	5295
2026-01-18 14:33:23.98	171.76	8.25	-41.4	-44.1	15.0	0.00e+00	0	42	0	63963136	53	4835
2026-01-18 14:33:27.95	171.86	8.58	-41.9	-44.9	14.3	2.20e-06	0	43	0	92274688	53	5283
2026-01-18 14:33:31.93	171.96	8.90	-44.5	-49.7	9.5	1.08e-02	0	42	0	120586240	58	6923
2026-01-18 14:33:35.90	172.06	9.23	-41.5	-44.1	15.1	0.00e+00	0	43	0	148897792	52	5134
2026-01-18 14:33:39.88	172.17	9.57	-40.0	-41.8	17.3	0.00e+00	0	43	0	166723584	49	4705
2026-01-18 14:33:43.86	172.28	9.91	-39.1	-40.9	18.2	0.00e+00	0	43	0	196083712	48	4450
2026-01-18 14:33:47.87	172.39	10.26	-38.2	-39.9	18.9	0.00e+00	0	43	0	225443840	46	4453
2026-01-18 14:33:51.84	172.50	10.61	-37.8	-39.5	19.2	0.00e+00	0	43	0	253755392	45	4500
2026-01-18 14:33:55.82	172.61	10.96	-37.5	-39.2	19.5	0.00e+00	0	43	0	282066944	45	4345
2026-01-18 14:33:59.84	172.73	11.33	-37.8	-39.4	19.3	0.00e+00	0	43	0	311427072	45	4482
2026-01-18 14:34:03.85	172.85	11.69	-37.8	-39.3	19.4	0.00e+00	0	43	0	340787200	45	4408
2026-01-18 14:34:07.83	172.97	12.07	-37.4	-38.9	19.8	0.00e+00	0	43	0	369098752	45	4199
2026-01-18 14:34:11.81	173.09	12.44	-37.3	-38.6	20.1	0.00e+00	0	43	0	397410304	45	4090
2026-01-18 14:34:15.79	173.22	12.82	-37.4	-38.7	20.0	0.00e+00	0	43	0	426770432	45	4126
2026-01-18 14:34:19.73	173.35	13.21	-37.1	-38.4	20.3	0.00e+00	0	43	0	455081984	45	3999
2026-01-18 14:34:23.71	173.48	13.60	-36.8	-38.1	20.6	0.00e+00	0	43	0	483393536	44	4060
2026-01-18 14:34:27.69	173.62	14.00	-36.9	-38.2	20.5	0.00e+00	0	43	0	512753664	44	4129
2026-01-18 14:34:31.77	173.76	14.42	-36.8	-38.2	20.5	0.00e+00	0	43	0	542113792	44	4108
2026-01-18 14:34:35.74	173.91	14.84	-36.6	-37.9	20.7	0.00e+00	0	43	0	570425344	43	4206
2026-01-18 14:34:39.79	174.06	15.26	-36.7	-38.0	20.5	0.00e+00	0	43	0	599785472	43	4276
2026-01-18 14:34:43.88	174.21	15.71	-36.4	-37.7	20.8	0.00e+00	0	43	0	629145600	43	4106
2026-01-18 14:34:47.86	174.37	16.14	-36.5	-37.8	20.7	0.00e+00	0	43	0	658505728	43	4174
2026-01-18 14:34:51.85	174.53	16.59	-36.4	-37.7	20.8	0.00e+00	0	43	0	686817280	43	4127
2026-01-18 14:34:55.83	174.69	17.04	-36.2	-37.6	20.8	0.00e+00	0	43	0	715128832	43	4053
2026-01-18 14:34:59.80	174.86	17.50	-36.2	-37.6	20.8	0.00e+00	0	43	0	744488960	42	4319
2026-01-18 14:35:03.78	175.03	17.97	-36.2	-37.6	20.8	0.00e+00	0	43	0	772800512	42	4321
2026-01-18 14:35:07.86	175.22	18.46	-36.1	-37.5	20.8	0.00e+00	0	43	0	802160640	42	4273
2026-01-18 14:35:11.88	175.40	18.95	-35.9	-37.3	20.9	0.00e+00	0	43	0	831520768	42	4183
2026-01-18 14:35:15.86	175.60	19.45	-35.8	-37.3	21.0	0.00e+00	0	43	0	859832320	42	4173
2026-01-18 14:35:19.84	175.79	19.96	-35.7	-37.1	21.1	0.00e+00	0	43	0	889192448	41	4331
2026-01-18 14:35:23.82	175.99	20.48	-35.2	-36.6	21.6	0.00e+00	0	43	0	917504000	41	4056
2026-01-18 14:35:27.81	176.20	21.01	-35.4	-36.8	21.4	0.00e+00	0	43	0	946864128	41	4164
2026-01-18 14:35:31.80	176.42	21.55	-35.2	-36.6	21.5	0.00e+00	0	43	0	975175680	41	4089
2026-01-18 14:35:35.92	176.65	22.12	-35.2	-36.6	21.5	0.00e+00	0	43	0	1004535808	40	4303
2026-01-18 14:35:39.90	176.88	22.68	-35.3	-36.8	21.3	0.00e+00	0	43	0	1033895936	40	4412
2026-01-18 14:35:43.88	177.12	23.26	-35.3	-36.8	21.3	0.00e+00	0	43	0	1062207488	40	4397
2026-01-18 14:35:47.97	177.38	23.86	-35.5	-36.9	21.3	0.00e+00	0	43	0	1091567616	40	4479
2026-01-18 14:35:52.01	177.64	24.47	-35.2	-36.7	21.5	0.00e+00	0	44	0	1120927744	40	4349
2026-01-18 14:35:55.99	177.91	25.09	-35.0	-36.4	21.8	0.00e+00	0	44	0	1150287872	40	4198
2026-01-18 14:36:00.24	178.20	25.76	-34.7	-36.0	22.1	0.00e+00	0	44	0	1180696576	40	4035
2026-01-18 14:36:04.63	178.52	26.47	-34.5	-35.8	22.4	0.00e+00	0	43	0	1212153856	39	4156
2026-01-18 14:36:08.83	178.84	27.17	-34.5	-35.8	22.3	0.00e+00	0	43	0	1242562560	39	4153
2026-01-18 14:36:12.83	179.16	27.85	-34.5	-35.7	22.3	0.00e+00	0	43	0	1270874112	39	4145
2026-01-18 14:36:16.82	179.49	28.55	-34.5	-35.9	22.1	0.00e+00	0	43	0	1300234240	39	4208
2026-01-18 14:36:20.83	179.83	29.26	-34.6	-36.0	21.9	0.00e+00	0	43	0	1329594368	39	4273
2026-01-18 14:36:24.83	180.19	30.00	-34.4	-35.8	22.1	0.00e+00	0	44	0	1357905920	39	4154
2026-01-18 14:36:28.82	180.56	30.74	-34.6	-35.9	22.1	0.00e+00	0	43	0	1387266048	39	4237
2026-01-18 14:36:32.86	180.96	31.52	-34.8	-36.2	21.9	0.00e+00	0	44	0	1415577600	39	4356
2026-01-18 14:36:36.85	181.37	32.31	-34.5	-35.8	22.2	0.00e+00	0	43	0	1444937728	39	4154
2026-01-18 14:36:41.10	181.83	33.17	-34.4	-35.6	22.4	0.00e+00	0	43	0	1475346432	39	4071
2026-01-18 14:36:45.06	182.28	33.99	-34.4	-35.7	22.4	0.00e+00	0	43	0	1503657984	39	4109
2026-01-18 14:36:49.04	182.75	34.83	-34.6	-35.9	22.1	0.00e+00	0	43	0	1533018112	39	4230
2026-01-18 14:36:53.07	183.26	35.71	-34.6	-35.9	22.1	0.00e+00	0	44	0	1562378240	39	4239
2026-01-18 14:36:57.06	183.79	36.60	-34.5	-35.8	22.2	0.00e+00	0	44	0	1590689792	39	4163
2026-01-18 14:37:01.04	184.34	37.51	-34.6	-35.9	22.3	0.00e+00	0	43	0	1620049920	39	4201
2026-01-18 14:37:05.02	184.93	38.44	-34.8	-36.1	22.3	0.00e+00	0	43	0	1648361472	39	4310
2026-01-18 14:37:09.12	185.57	39.43	-35.0	-36.3	22.0	0.00e+00	0	44	0	1677721600	39	4433
2026-01-18 14:37:13.10	186.23	40.41	-34.8	-36.2	22.1	0.00e+00	0	44	0	1707081728	39	4351
2026-01-18 14:37:17.12	186.94	41.42	-34.8	-36.1	22.1	0.00e+00	0	44	0	1735393280	39	4318
2026-01-18 14:37:21.10	187.68	42.45	-34.9	-36.1	22.2	0.00e+00	0	44	0	1764753408	39	4337
2026-01-18 14:37:25.08	188.48	43.50	-35.4	-36.7	21.8	0.00e+00	0	44	0	1793064960	40	4387
2026-01-18 14:37:29.06	189.32	44.57	-35.4	-36.7	21.8	0.00e+00	0	44	0	1821376512	40	4349
2026-01-18 14:37:33.04	190.23	45.67	-35.3	-36.5	21.8	0.00e+00	0	44	0	1850736640	40	4276
2026-01-18 14:37:37.02	191.20	46.78	-36.0	-36.9	22.3	0.00e+00	0	44	0	1879048192	42	3979
2026-01-18 14:37:41.13	192.27	47.96	-36.8	-37.7	21.5	0.00e+00	0	44	0	1908408320	43	4103
2026-01-18 14:37:45.10	193.39	49.12	-36.9	-37.8	21.5	0.00e+00	0	44	0	1937768448	43	4185
2026-01-18 14:37:49.08	194.60	50.30	-36.7	-37.6	21.8	0.00e+00	0	44	0	1966080000	44	3831
2026-01-18 14:37:53.20	195.96	51.53	-36.5	-37.4	21.9	0.00e+00	0	44	0	1996488704	42	4216
2026-01-18 14:37:57.30	197.43	52.78	-36.6	-37.5	21.7	0.00e+00	0	44	0	2025848832	43	4018
2026-01-18 14:38:01.32	198.99	54.01	-36.7	-37.6	21.7	0.00e+00	0	44	0	2054160384	43	4053
2026-01-18 14:38:05.30	200.67	55.24	-36.6	-37.5	21.7	0.00e+00	0	44	0	2083520512	43	4032
2026-01-18 14:38:09.27	202.50	56.46	-37.0	-37.9	21.5	0.00e+00	0	44	0	2111832064	44	3993
2026-01-18 14:38:13.29	204.52	57.70	-36.3	-37.1	22.1	0.00e+00	0	43	0	2141192192	42	4084
2026-01-18 14:38:17.31	206.73	58.93	-36.0	-36.8	22.3	0.00e+00	0	44	0	2170552320	42	3946
2026-01-18 14:38:21.31	209.14	60.13	-36.2	-37.0	22.2	0.00e+00	0	44	0	2198863872	42	4040
2026-01-18 14:38:25.41	211.86	61.33	-35.9	-36.8	22.4	0.00e+00	0	44	0	2228224000	42	3930
2026-01-18 14:38:29.39	214.75	62.47	-35.9	-36.8	22.4	0.00e+00	0	44	0	2257584128	42	3931
2026-01-18 14:38:33.37	217.92	63.55	-35.9	-36.8	22.4	0.00e+00	0	44	0	2285895680	42	3916
2026-01-18 14:38:37.80	221.80	64.68	-35.6	-36.5	22.5	0.00e+00	0	44	0	2318401536	41	4007
2026-01-18 14:38:41.78	225.61	65.61	-35.2	-36.0	23.0	0.00e+00	0	44	0	2346713088	41	3819
2026-01-18 14:38:45.76	229.74	66.45	-35.4	-36.2	22.9	0.00e+00	0	44	0	2375024640	40	4139
2026-01-18 14:38:49.91	234.37	67.21	-35.3	-36.1	23.0	0.00e+00	0	44	0	2405433344	40	4069
2026-01-18 14:38:54.24	239.54	67.85	-35.1	-35.9	23.2	0.00e+00	0	44	0	2436890624	40	3973
2026-01-18 14:38:58.68	245.14	68.33	-34.9	-35.7	23.4	0.00e+00	0	43	0	2468347904	40	3885
2026-01-18 14:39:02.74	250.46	68.59	-35.0	-35.8	23.2	0.00e+00	0	44	0	2497708032	40	3952
2026-01-18 14:39:06.76	255.81	68.68	-34.8	-35.6	23.2	0.00e+00	0	44	0	2527068160	40	3835
2026-01-18 14:39:10.77	261.15	68.61	-34.7	-35.5	23.5	0.00e+00	0	43	0	2556428288	40	3809
2026-01-18 14:39:14.77	266.40	68.36	-35.0	-35.8	23.2	0.00e+00	0	44	0	2584739840	40	3942
2026-01-18 14:39:18.78	271.49	67.95	-34.9	-35.7	23.2	0.00e+00	0	44	0	2614099968	39	4144
2026-01-18 14:39:22.78	276.33	67.40	-35.1	-36.0	23.0	0.00e+00	0	44	0	2642411520	40	4010
2026-01-18 14:39:26.76	280.86	66.71	-35.2	-36.0	23.1	0.00e+00	0	44	0	2671771648	40	4020
2026-01-18 14:39:30.85	285.21	65.89	-35.2	-36.0	23.0	0.00e+00	0	44	0	2701131776	40	4011
2026-01-18 14:39:34.98	289.25	64.95	-35.6	-36.4	22.7	0.00e+00	0	44	0	2730491904	40	4241
2026-01-18 14:39:38.95	292.82	63.96	-35.5	-36.4	22.8	0.00e+00	0	44	0	2759852032	41	3972
2026-01-18 14:39:42.93	296.10	62.90	-35.9	-36.7	22.4	0.00e+00	0	44	0	2788163584	41	4139
2026-01-18 14:39:46.91	299.10	61.79	-36.1	-36.9	22.2	0.00e+00	0	44	0	2816475136	41	4228
2026-01-18 14:39:51.08	301.95	60.58	-36.6	-37.5	21.6	0.00e+00	0	44	0	2846883840	43	4024
2026-01-18 14:39:55.06	304.44	59.40	-36.7	-37.6	21.5	0.00e+00	0	44	0	2875195392	43	4062
2026-01-18 14:39:59.07	306.72	58.18	-36.9	-37.8	21.4	0.00e+00	0	44	0	2904555520	43	4154
2026-01-18 14:40:03.00	308.76	56.98	-36.4	-37.3	21.9	0.00e+00	0	44	0	2932867072	43	3915
2026-01-18 14:40:06.98	310.66	55.76	-36.5	-37.3	21.9	0.00e+00	0	44	0	2961178624	43	3949
2026-01-18 14:40:10.96	312.40	54.53	-36.7	-37.6	21.5	0.00e+00	0	44	0	2990538752	43	4056
2026-01-18 14:40:14.94	313.99	53.31	-36.8	-37.7	21.5	0.00e+00	0	44	0	3018850304	43	4112
2026-01-18 14:40:18.92	315.46	52.10	-36.5	-37.4	21.7	0.00e+00	0	44	0	3048210432	43	3993
2026-01-18 14:40:22.98	316.85	50.88	-36.7	-37.6	21.6	0.00e+00	0	44	0	3077570560	43	4086
2026-01-18 14:40:26.93	318.09	49.71	-36.6	-37.5	21.6	0.00e+00	0	44	0	3105882112	43	4030
2026-01-18 14:40:30.90	319.25	48.55	-36.4	-37.2	22.0	0.00e+00	0	44	0	3134193664	43	3897
2026-01-18 14:40:34.88	320.33	47.41	-36.2	-37.1	22.0	0.00e+00	0	43	0	3162505216	43	3843
2026-01-18 14:40:38.89	321.34	46.27	-35.6	-36.4	22.7	0.00e+00	0	44	0	3191865344	42	3752
2026-01-18 14:40:43.00	322.31	45.14	-35.3	-36.1	22.9	0.00e+00	0	44	0	3222274048	41	3844
2026-01-18 14:40:46.98	323.18	44.06	-35.4	-36.3	22.7	0.00e+00	0	44	0	3250585600	41	3936
2026-01-18 14:40:50.96	324.00	43.00	-35.5	-36.4	22.7	0.00e+00	0	44	0	3278897152	41	3964
2026-01-18 14:40:54.98	324.77	41.96	-35.2	-36.0	23.0	0.00e+00	0	44	0	3308257280	41	3824
2026-01-18 14:40:59.10	325.52	40.91	-35.1	-35.9	23.2	0.00e+00	0	44	0	3337617408	40	3966
2026-01-18 14:41:03.10	326.20	39.92	-35.0	-35.8	23.0	0.00e+00	0	44	0	3366977536	40	3926
2026-01-18 14:41:07.07	326.83	38.96	-34.8	-35.7	23.3	0.00e+00	0	44	0	3395289088	40	3877
2026-01-18 14:41:11.05	327.44	38.02	-35.1	-36.0	22.9	0.00e+00	0	44	0	3424649216	40	4006
2026-01-18 14:41:15.02	328.01	37.11	-35.4	-36.2	22.8	0.00e+00	0	44	0	3452960768	40	4137
2026-01-18 14:41:19.14	328.57	36.18	-35.0	-35.8	23.1	0.00e+00	0	44	0	3482320896	40	3949
2026-01-18 14:41:23.12	329.08	35.31	-34.6	-35.4	23.6	0.00e+00	0	44	0	3511681024	39	3976
2026-01-18 14:41:27.10	329.56	34.46	-34.6	-35.4	23.6	0.00e+00	0	44	0	3539992576	39	3978
2026-01-18 14:41:31.08	330.03	33.63	-34.8	-35.6	23.3	0.00e+00	0	44	0	3568304128	39	4080
2026-01-18 14:41:35.08	330.47	32.81	-34.8	-35.6	23.3	0.00e+00	0	44	0	3597664256	39	4088
2026-01-18 14:41:39.06	330.89	32.02	-34.8	-35.6	23.3	0.00e+00	0	44	0	3625975808	39	4088
2026-01-18 14:41:43.03	331.29	31.25	-34.9	-35.8	23.1	0.00e+00	0	44	0	3655335936	39	4149
2026-01-18 14:41:47.01	331.67	30.50	-35.2	-36.1	23.0	0.00e+00	0	44	0	3683647488	39	4296
2026-01-18 14:41:50.99	332.04	29.77	-35.2	-36.1	22.9	0.00e+00	0	44	0	3713007616	39	4296
2026-01-18 14:41:54.97	332.39	29.05	-35.2	-36.1	22.9	0.00e+00	0	44	0	3741319168	40	4063
2026-01-18 14:41:58.95	332.73	28.35	-35.3	-36.2	22.8	0.00e+00	0	44	0	3769630720	40	4116
2026-01-18 14:42:02.94	333.05	27.66	-35.4	-36.3	22.6	0.00e+00	0	44	0	3798990848	40	4191
2026-01-18 14:42:06.92	333.36	27.00	-35.4	-36.3	22.7	0.00e+00	0	44	0	3827302400	40	4163
2026-01-18 14:42:10.90	333.66	26.34	-35.1	-35.9	23.0	0.00e+00	0	44	0	3856662528	40	3996
2026-01-18 14:42:14.91	333.95	25.70	-35.3	-36.1	22.8	0.00e+00	0	44	0	3884974080	40	4091
2026-01-18 14:42:19.03	334.24	25.06	-35.2	-36.1	22.8	0.00e+00	0	44	0	3914334208	40	4066
2026-01-18 14:42:23.27	334.52	24.41	-35.5	-36.3	22.6	0.00e+00	0	44	0	3945791488	40	4185
2026-01-18 14:42:27.28	334.78	23.81	-35.4	-36.3	22.6	0.00e+00	0	44	0	3974103040	40	4186
2026-01-18 14:42:31.26	335.03	23.23	-35.7	-36.6	22.4	0.00e+00	0	44	0	4003463168	40	4299
2026-01-18 14:42:35.28	335.27	22.65	-35.5	-36.4	22.5	0.00e+00	0	44	0	4031774720	40	4224
2026-01-18 14:42:39.40	335.51	22.07	-35.5	-36.4	22.5	0.00e+00	0	43	0	4062183424	40	4218
2026-01-18 14:42:43.85	335.76	21.46	-35.4	-36.3	22.6	0.00e+00	0	44	0	4094689280	40	4164
2026-01-18 14:42:47.83	335.98	20.93	-35.5	-36.4	22.5	0.00e+00	0	44	0	4123000832	40	4219
2026-01-18 14:42:51.84	336.19	20.41	-35.7	-36.6	22.3	0.00e+00	0	44	0	4151312384	41	4076
2026-01-18 14:42:56.11	336.40	19.86	-35.8	-36.7	22.3	0.00e+00	0	44	0	4182769664	41	4109
2026-01-18 14:43:00.09	336.60	19.36	-36.0	-37.0	22.0	0.00e+00	0	44	0	4211081216	41	4261
2026-01-18 14:43:04.11	336.79	18.86	-36.3	-37.2	21.8	0.00e+00	0	44	0	4240441344	42	4142
2026-01-18 14:43:08.14	336.98	18.37	-36.4	-37.4	21.7	0.00e+00	0	44	0	4268752896	42	4195
2026-01-18 14:43:12.11	337.16	17.90	-36.5	-37.4	21.6	0.00e+00	0	44	0	4298113024	42	4208
2026-01-18 14:43:16.14	337.33	17.43	-36.6	-37.6	21.4	0.00e+00	0	44	0	4327473152	42	4302
2026-01-18 14:43:20.23	337.51	16.96	-36.8	-37.7	21.3	0.00e+00	0	44	0	4356833280	43	4116
2026-01-18 14:43:24.35	337.68	16.50	-36.6	-37.5	21.4	0.00e+00	0	44	0	4386193408	43	4044
2026-01-18 14:43:28.46	337.85	16.05	-36.9	-37.8	21.2	0.00e+00	0	44	0	4416602112	43	4156
2026-01-18 14:43:32.47	338.00	15.61	-36.8	-37.7	21.2	0.00e+00	0	44	0	4444913664	43	4133
2026-01-18 14:43:36.48	338.16	15.19	-37.0	-38.0	21.0	0.00e+00	0	44	0	4474273792	43	4255
2026-01-18 14:43:40.49	338.31	14.77	-37.1	-38.1	20.8	0.00e+00	0	44	0	4503633920	43	4330
2026-01-18 14:43:44.56	338.45	14.35	-37.4	-38.4	20.7	0.00e+00	0	44	0	4531945472	44	4237
2026-01-18 14:43:48.85	338.61	13.92	-37.6	-38.7	20.4	0.00e+00	0	44	0	4563402752	44	4348
2026-01-18 14:43:53.40	338.76	13.46	-37.5	-38.6	20.5	0.00e+00	0	44	0	4595908608	45	4072
2026-01-18 14:43:58.05	338.92	13.01	-37.6	-38.7	20.4	0.00e+00	0	44	0	4629463040	45	4120
2026-01-18 14:44:02.57	339.07	12.58	-37.8	-38.9	20.2	0.00e+00	0	44	0	4661968896	45	4194
2026-01-18 14:44:06.60	339.20	12.20	-37.8	-38.8	20.2	0.00e+00	0	44	0	4691329024	45	4191
2026-01-18 14:44:11.08	339.34	11.78	-38.0	-39.1	20.0	0.00e+00	0	44	0	4723834880	45	4313
2026-01-18 14:44:15.63	339.48	11.37	-38.0	-39.2	19.9	0.00e+00	0	44	0	4756340736	45	4366
2026-01-18 14:44:20.39	339.62	10.94	-38.1	-39.2	19.8	0.00e+00	0	44	0	4790943744	46	4133
2026-01-18 14:44:24.43	339.74	10.59	-38.3	-39.4	19.6	0.00e+00	0	44	0	4820303872	46	4212
2026-01-18 14:44:28.41	339.85	10.24	-38.3	-39.3	19.7	0.00e+00	0	44	0	4848615424	47	3951
2026-01-18 14:44:32.38	339.96	9.90	-38.5	-39.6	19.4	0.00e+00	0	44	0	4876926976	47	4071
2026-01-18 14:44:36.36	340.07	9.56	-38.5	-39.6	19.4	0.00e+00	0	44	0	4906287104	47	4086
2026-01-18 14:44:40.34	340.18	9.23	-38.6	-39.7	19.3	0.00e+00	0	44	0	4935647232	47	4110
2026-01-18 14:44:44.34	340.28	8.90	-48.0	-60.4	3.8	8.45e-01	0	44	104	4960813056	66	14942
2026-01-18 14:44:48.31	340.39	8.58	-49.6	-61.1	3.8	8.47e-01	0	44	104	4960813056	69	13614
2026-01-18 14:44:52.29	340.49	8.26	-50.4	-61.2	3.8	8.46e-01	0	44	104	4960813056	70	13108
2026-01-18 14:44:56.32	340.59	7.94	-50.4	-61.4	3.8	8.47e-01	0	44	104	4960813056	70	13274
2026-01-18 14:45:00.44	340.69	7.62	-50.4	-61.3	3.8	8.47e-01	0	44	104	4960813056	70	13206
2026-01-18 14:45:04.54	340.79	7.30	-50.6	-61.2	3.8	8.47e-01	0	44	104	4960813056	70	13063
2026-01-18 14:45:08.51	340.88	7.00	-50.5	-61.2	3.8	8.47e-01	0	44	104	4960813056	70	13046
2026-01-18 14:45:12.49	340.98	6.69	-50.2	-61.2	3.8	8.47e-01	0	44	104	4960813056	70	12997
2026-01-18 14:45:16.46	341.07	6.40	-50.2	-61.2	3.8	8.47e-01	0	44	104	4960813056	70	12969
2026-01-18 14:45:20.43	341.16	6.10	-50.2	-61.1	3.8	8.47e-01	0	44	104	4960813056	70	12924
2026-01-18 14:45:24.41	341.25	5.81	-50.2	-61.2	3.8	8.47e-01	0	44	104	4960813056	70	12995
2026-01-18 14:45:28.39	341.33	5.53	-50.2	-61.1	3.8	8.47e-01	0	44	104	4960813056	70	12898
2026-01-18 14:45:32.36	341.42	5.24	-50.2	-61.2	3.8	8.46e-01	0	44	104	4960813056	70	12982

#Closed at: 2026-01-18 14:45:36
#Recorded file [4960 MB]: D:/Data/31040_260118_173240.dat