passes_logs/2026/01/18/T1/T1__20260118_161543_FENGYUN_3E_rec.log

#Pass ID: 20260118_161543_FENGYUN 3E
#Satellite: FENGYUN 3E
#Configuration: FENGYUN 3E
#almurnet v.1.7.20251203
#Start time: 2026-01-18 16:15:42

#Version: 2.0.20230620
#Station: T1
#Location: 37.570604 lon 55.790049 lat
#TLE: 1 49008U 21062A   26017.61301378  .00000104  00000+0  69808-4 0  9996
#TLE: 2 49008  98.7484  22.7108 0002130 132.1860 227.9498 14.19886007235218

#Time	Az	El	Level	Level2	SNR	BER	BlckErr	Temp	State	Recorded	gain1	gain2
2026-01-18 16:15:42.86	230.47	4.97	-49.8	-60.5	3.8	8.47e-01	0	37	0	0	70	12039
2026-01-18 16:15:45.84	230.81	5.12	-49.8	-60.4	3.8	8.48e-01	0	37	104	0	70	11943
2026-01-18 16:15:48.82	231.15	5.26	-49.8	-60.5	3.8	8.46e-01	0	37	104	0	70	12008
2026-01-18 16:15:51.80	231.49	5.41	-49.8	-60.5	3.8	8.47e-01	0	37	104	0	70	11956
2026-01-18 16:15:54.78	231.84	5.55	-49.8	-60.4	3.8	8.47e-01	0	37	104	0	70	11922
2026-01-18 16:15:57.76	232.19	5.69	-49.8	-60.4	3.8	8.47e-01	0	38	104	0	70	11845
2026-01-18 16:16:00.74	232.54	5.84	-49.8	-60.4	3.8	8.47e-01	0	38	104	0	70	11949
2026-01-18 16:16:03.72	232.90	5.98	-49.8	-60.4	3.8	8.47e-01	0	38	104	0	70	11867
2026-01-18 16:16:06.70	233.26	6.12	-49.8	-60.4	3.8	8.48e-01	0	38	104	0	70	11908
2026-01-18 16:16:09.68	233.62	6.27	-49.7	-60.4	3.8	8.47e-01	0	38	104	0	70	11939
2026-01-18 16:16:12.66	233.99	6.41	-49.7	-60.3	3.8	8.46e-01	0	38	104	0	70	11733
2026-01-18 16:16:15.64	234.36	6.55	-49.8	-60.3	3.8	8.45e-01	0	38	104	0	70	11698
2026-01-18 16:16:18.62	234.73	6.69	-49.7	-60.3	3.8	8.46e-01	0	38	104	0	70	11737
2026-01-18 16:16:21.60	235.11	6.84	-49.8	-60.4	3.8	8.47e-01	0	38	104	0	70	11840
2026-01-18 16:16:24.58	235.49	6.98	-49.8	-60.3	3.8	8.47e-01	0	38	104	0	70	11803
2026-01-18 16:16:27.56	235.87	7.12	-49.7	-60.3	3.8	8.47e-01	0	38	104	0	70	11710
2026-01-18 16:16:30.54	236.26	7.26	-49.7	-60.3	3.8	8.46e-01	0	39	104	0	70	11769
2026-01-18 16:16:33.52	236.65	7.40	-49.7	-59.9	3.8	8.48e-01	0	39	104	0	70	11264
2026-01-18 16:16:36.50	237.05	7.54	-49.8	-60.3	3.8	8.46e-01	0	39	104	0	70	11695
2026-01-18 16:16:39.48	237.45	7.68	-49.8	-60.3	3.8	8.47e-01	0	39	104	0	70	11803
2026-01-18 16:16:42.46	237.85	7.82	-49.8	-60.2	3.8	8.47e-01	0	39	104	0	70	11609
2026-01-18 16:16:45.44	238.25	7.96	-49.8	-60.4	3.8	8.47e-01	0	39	104	0	70	11938
2026-01-18 16:16:48.42	238.66	8.10	-49.7	-60.2	3.8	8.47e-01	0	39	104	0	70	11650
2026-01-18 16:16:51.40	239.08	8.24	-49.7	-59.7	3.8	8.46e-01	0	39	104	0	70	11024
2026-01-18 16:16:54.38	239.50	8.38	-49.4	-57.6	4.0	8.42e-01	0	39	0	0	69	9146
2026-01-18 16:16:57.36	239.92	8.52	-48.9	-55.4	4.7	8.43e-01	0	39	104	0	68	7469
2026-01-18 16:17:00.34	240.34	8.65	-42.6	-44.1	15.2	3.40e-06	0	39	0	18874368	56	4066
2026-01-18 16:17:03.32	240.77	8.79	-40.7	-41.9	17.3	0.00e+00	0	39	0	40894464	51	4202
2026-01-18 16:17:06.30	241.21	8.92	-42.8	-44.4	14.8	0.00e+00	0	39	0	61865984	55	4457
2026-01-18 16:17:09.54	241.68	9.07	-46.6	-49.8	9.5	1.53e-03	0	39	0	85983232	62	5555
2026-01-18 16:17:12.41	242.11	9.20	-42.2	-43.6	15.6	0.00e+00	0	39	0	102760448	53	4580
2026-01-18 16:17:15.54	242.57	9.34	-40.3	-41.5	17.8	0.00e+00	0	39	0	125829120	51	4018
2026-01-18 16:17:18.38	243.00	9.46	-39.4	-40.5	18.7	0.00e+00	0	39	0	146800640	49	4030
2026-01-18 16:17:21.51	243.48	9.60	-39.7	-40.8	18.4	0.00e+00	0	39	0	168820736	49	4170
2026-01-18 16:17:24.35	243.91	9.73	-39.4	-40.4	18.8	0.00e+00	0	39	0	189792256	49	3995
2026-01-18 16:17:27.48	244.40	9.86	-38.9	-40.0	19.0	0.00e+00	0	39	0	211812352	47	4253
2026-01-18 16:17:30.39	244.85	9.99	-39.2	-40.2	19.0	0.00e+00	0	39	0	232783872	48	4145
2026-01-18 16:17:33.37	245.32	10.12	-38.4	-39.4	19.6	0.00e+00	0	39	0	254803968	47	3983
2026-01-18 16:17:36.36	245.80	10.24	-38.9	-39.9	19.1	0.00e+00	0	39	0	275775488	47	4230
2026-01-18 16:17:39.34	246.27	10.37	-38.6	-39.6	19.4	0.00e+00	0	39	0	297795584	47	4072
2026-01-18 16:17:42.33	246.76	10.49	-38.3	-39.3	19.7	0.00e+00	0	39	0	318767104	47	3918
2026-01-18 16:17:45.38	247.25	10.62	-38.1	-39.1	19.9	0.00e+00	0	39	0	340787200	47	3841
2026-01-18 16:17:48.29	247.73	10.74	-38.2	-39.2	19.8	0.00e+00	0	39	0	361758720	47	3881
2026-01-18 16:17:51.60	248.28	10.87	-38.2	-39.2	19.7	0.00e+00	0	40	0	386924544	46	4145
2026-01-18 16:17:54.36	248.74	10.98	-38.4	-39.4	19.6	0.00e+00	0	40	0	405798912	46	4240
2026-01-18 16:17:57.63	249.29	11.11	-38.1	-39.1	19.9	0.00e+00	0	40	0	429916160	46	4068
2026-01-18 16:18:00.46	249.77	11.22	-37.9	-38.9	20.1	0.00e+00	0	40	0	449839104	46	3965
2026-01-18 16:18:03.58	250.30	11.34	-38.0	-39.0	20.0	0.00e+00	0	40	0	472907776	46	4035
2026-01-18 16:18:06.44	250.79	11.45	-38.1	-39.0	20.0	0.00e+00	0	40	0	493879296	46	4045
2026-01-18 16:18:09.57	251.33	11.57	-37.7	-38.7	20.4	0.00e+00	0	40	0	515899392	46	3878
2026-01-18 16:18:12.42	251.83	11.68	-37.8	-38.8	20.3	0.00e+00	0	40	0	536870912	45	4157
2026-01-18 16:18:15.54	252.38	11.79	-37.6	-38.5	20.5	0.00e+00	0	40	0	558891008	45	4046
2026-01-18 16:18:18.38	252.88	11.89	-37.7	-38.7	20.3	0.00e+00	0	40	0	579862528	45	4107
2026-01-18 16:18:21.51	253.44	12.00	-37.8	-38.8	20.2	0.00e+00	0	40	0	601882624	45	4167
2026-01-18 16:18:24.41	253.96	12.10	-38.0	-39.0	20.1	0.00e+00	0	40	0	622854144	45	4264
2026-01-18 16:18:27.59	254.54	12.21	-37.8	-38.8	20.2	0.00e+00	0	40	0	645922816	45	4162
2026-01-18 16:18:30.87	255.13	12.32	-38.0	-39.0	20.0	0.00e+00	0	40	0	670040064	45	4271
2026-01-18 16:18:33.57	255.63	12.41	-37.9	-38.9	20.1	0.00e+00	0	40	0	688914432	45	4211
2026-01-18 16:18:36.98	256.26	12.52	-37.9	-38.9	20.2	0.00e+00	0	40	0	714080256	46	3964
2026-01-18 16:18:39.71	256.77	12.61	-37.6	-38.5	20.5	0.00e+00	0	40	0	734003200	46	3806
2026-01-18 16:18:42.97	257.37	12.71	-37.8	-38.7	20.3	0.00e+00	0	40	0	757071872	45	4138
2026-01-18 16:18:45.72	257.89	12.79	-37.7	-38.6	20.4	0.00e+00	0	40	0	776994816	45	4097
2026-01-18 16:18:48.98	258.51	12.88	-37.7	-38.6	20.4	0.00e+00	0	40	0	800063488	45	4087
2026-01-18 16:18:51.72	259.03	12.96	-37.9	-38.9	20.1	0.00e+00	0	40	0	819986432	45	4199
2026-01-18 16:18:55.00	259.66	13.05	-37.7	-38.7	20.3	0.00e+00	0	40	0	844103680	45	4121
2026-01-18 16:18:57.74	260.18	13.13	-37.9	-38.9	20.2	0.00e+00	0	40	0	864026624	45	4200
2026-01-18 16:19:01.21	260.85	13.22	-37.8	-38.8	20.2	0.00e+00	0	40	0	889192448	45	4165
2026-01-18 16:19:04.25	261.44	13.29	-37.9	-38.9	20.2	0.00e+00	0	40	0	911212544	45	4210
2026-01-18 16:19:07.23	262.03	13.36	-37.6	-38.6	20.4	0.00e+00	0	40	0	932184064	45	4064
2026-01-18 16:19:10.22	262.61	13.44	-37.8	-38.7	20.3	0.00e+00	0	40	0	954204160	45	4129
2026-01-18 16:19:13.22	263.20	13.50	-37.4	-38.3	20.7	0.00e+00	0	40	0	975175680	45	3947
2026-01-18 16:19:16.55	263.86	13.58	-37.1	-38.0	21.0	0.00e+00	0	40	0	999292928	44	4026
2026-01-18 16:19:19.27	264.40	13.63	-37.3	-38.3	20.7	0.00e+00	0	40	0	1019215872	44	4156
2026-01-18 16:19:22.54	265.06	13.70	-37.4	-38.3	20.7	0.00e+00	0	40	0	1042284544	44	4184
2026-01-18 16:19:25.44	265.64	13.75	-37.4	-38.3	20.7	0.00e+00	0	40	0	1064304640	44	4193
2026-01-18 16:19:28.74	266.30	13.81	-37.2	-38.1	20.8	0.00e+00	0	40	0	1087373312	44	4089
2026-01-18 16:19:31.60	266.88	13.86	-37.1	-38.0	20.9	0.00e+00	0	40	0	1108344832	44	4048
2026-01-18 16:19:34.73	267.51	13.91	-37.1	-38.0	20.9	0.00e+00	0	40	0	1130364928	44	4045
2026-01-18 16:19:37.76	268.13	13.96	-37.4	-38.3	20.7	0.00e+00	0	40	0	1152385024	44	4192
2026-01-18 16:19:41.23	268.83	14.01	-37.2	-38.1	20.9	0.00e+00	0	40	0	1177550848	44	4068
2026-01-18 16:19:43.93	269.38	14.04	-37.3	-38.3	20.7	0.00e+00	0	40	0	1197473792	44	4156
2026-01-18 16:19:47.21	270.06	14.08	-37.1	-38.0	21.0	0.00e+00	0	40	0	1220542464	44	4016
2026-01-18 16:19:49.93	270.61	14.11	-37.3	-38.2	20.8	0.00e+00	0	40	0	1240465408	44	4134
2026-01-18 16:19:53.19	271.28	14.14	-37.6	-38.5	20.5	0.00e+00	0	40	0	1264582656	44	4274
2026-01-18 16:19:55.91	271.84	14.17	-37.5	-38.4	20.5	0.00e+00	0	40	0	1283457024	44	4235
2026-01-18 16:19:59.18	272.52	14.19	-37.2	-38.1	20.9	0.00e+00	0	40	0	1307574272	44	4096
2026-01-18 16:20:01.89	273.08	14.21	-37.1	-38.0	21.0	0.00e+00	0	40	0	1326448640	44	4037
2026-01-18 16:20:05.16	273.76	14.23	-37.3	-38.2	20.8	0.00e+00	0	40	0	1350565888	44	4141
2026-01-18 16:20:07.98	274.34	14.25	-37.6	-38.6	20.5	0.00e+00	0	40	0	1370488832	44	4295
2026-01-18 16:20:11.12	274.99	14.26	-37.5	-38.5	20.5	0.00e+00	0	40	0	1393557504	44	4251
2026-01-18 16:20:13.96	275.58	14.27	-37.2	-38.2	20.8	0.00e+00	0	40	0	1413480448	44	4108
2026-01-18 16:20:17.10	276.23	14.27	-37.3	-38.3	20.7	0.00e+00	0	40	0	1436549120	44	4154
2026-01-18 16:20:19.94	276.82	14.27	-37.3	-38.3	20.7	0.00e+00	0	40	0	1456472064	44	4162
2026-01-18 16:20:23.07	277.47	14.27	-37.3	-38.3	20.7	0.00e+00	0	40	0	1479540736	44	4169
2026-01-18 16:20:26.05	278.09	14.27	-37.2	-38.1	20.9	0.00e+00	0	40	0	1501560832	44	4083
2026-01-18 16:20:29.04	278.71	14.26	-37.3	-38.2	20.7	0.00e+00	0	40	0	1522532352	44	4145
2026-01-18 16:20:32.75	279.48	14.25	-37.4	-38.3	20.7	0.00e+00	0	40	0	1549795328	44	4173
2026-01-18 16:20:35.79	280.10	14.24	-37.4	-38.4	20.6	0.00e+00	0	40	0	1571815424	44	4203
2026-01-18 16:20:39.77	280.93	14.21	-37.5	-38.5	20.5	0.00e+00	0	40	0	1600126976	44	4267
2026-01-18 16:20:42.60	281.51	14.19	-37.4	-38.4	20.6	0.00e+00	0	40	0	1621098496	44	4201
2026-01-18 16:20:46.74	282.36	14.16	-37.5	-38.4	20.6	0.00e+00	0	40	0	1650458624	44	4217
2026-01-18 16:20:49.55	282.94	14.13	-37.4	-38.3	20.7	0.00e+00	0	40	0	1671430144	44	4172
2026-01-18 16:20:53.10	283.67	14.10	-37.5	-38.4	20.6	0.00e+00	0	40	0	1696595968	44	4226
2026-01-18 16:20:55.80	284.22	14.06	-37.5	-38.4	20.6	0.00e+00	0	40	0	1716518912	44	4225
2026-01-18 16:20:59.08	284.89	14.02	-37.3	-38.2	20.8	0.00e+00	0	40	0	1739587584	44	4138
2026-01-18 16:21:01.81	285.45	13.99	-37.6	-38.5	20.5	0.00e+00	0	40	0	1759510528	44	4272
2026-01-18 16:21:05.10	286.12	13.94	-37.6	-38.5	20.5	0.00e+00	0	40	0	1783627776	44	4281
2026-01-18 16:21:08.15	286.73	13.89	-37.5	-38.4	20.6	0.00e+00	0	40	0	1805647872	44	4235
2026-01-18 16:21:11.32	287.37	13.84	-37.5	-38.5	20.5	0.00e+00	0	40	0	1827667968	44	4244
2026-01-18 16:21:14.51	288.02	13.78	-37.4	-38.4	20.6	0.00e+00	0	41	0	1850736640	44	4205
2026-01-18 16:21:17.36	288.59	13.73	-37.5	-38.5	20.5	0.00e+00	0	40	0	1871708160	44	4262
2026-01-18 16:21:20.49	289.21	13.67	-37.9	-38.8	20.1	0.00e+00	0	40	0	1893728256	45	4180
2026-01-18 16:21:23.33	289.78	13.61	-37.9	-38.9	20.1	0.00e+00	0	40	0	1914699776	45	4208
2026-01-18 16:21:26.46	290.40	13.55	-37.9	-38.9	20.1	0.00e+00	0	40	0	1937768448	45	4208
2026-01-18 16:21:29.36	290.97	13.48	-37.8	-38.7	20.3	0.00e+00	0	40	0	1958739968	45	4135
2026-01-18 16:21:32.63	291.61	13.41	-37.4	-38.4	20.5	0.00e+00	0	40	0	1981808640	45	3966
2026-01-18 16:21:35.35	292.14	13.35	-37.8	-38.7	20.2	0.00e+00	0	41	0	2001731584	45	4141
2026-01-18 16:21:38.62	292.77	13.27	-38.1	-39.1	19.9	0.00e+00	0	40	0	2024800256	45	4302
2026-01-18 16:21:41.65	293.36	13.19	-38.2	-39.2	19.8	0.00e+00	0	40	0	2046820352	46	4105
2026-01-18 16:21:44.96	294.00	13.10	-38.3	-39.3	19.7	0.00e+00	0	40	0	2070937600	46	4169
2026-01-18 16:21:47.68	294.52	13.03	-38.0	-39.0	20.0	0.00e+00	0	41	0	2090860544	46	4017
2026-01-18 16:21:50.97	295.14	12.94	-38.4	-39.5	19.6	0.00e+00	0	40	0	2113929216	46	4246
2026-01-18 16:21:53.70	295.66	12.86	-38.5	-39.6	19.3	0.00e+00	0	40	0	2133852160	46	4308
2026-01-18 16:21:57.03	296.29	12.76	-38.6	-39.7	19.3	0.00e+00	0	40	0	2157969408	46	4343
2026-01-18 16:21:59.86	296.81	12.68	-38.3	-39.3	19.6	0.00e+00	0	41	0	2178940928	46	4192
2026-01-18 16:22:03.19	297.43	12.57	-38.4	-39.4	19.6	0.00e+00	0	41	0	2202009600	46	4213
2026-01-18 16:22:05.91	297.93	12.49	-38.3	-39.3	19.7	0.00e+00	0	40	0	2221932544	46	4157
2026-01-18 16:22:09.23	298.54	12.38	-38.4	-39.4	19.5	0.00e+00	0	41	0	2246049792	46	4229
2026-01-18 16:22:11.94	299.04	12.29	-38.4	-39.4	19.6	0.00e+00	0	40	0	2264924160	46	4202
2026-01-18 16:22:15.24	299.63	12.18	-38.7	-39.7	19.2	0.00e+00	0	40	0	2289041408	46	4363
2026-01-18 16:22:17.95	300.12	12.09	-38.8	-39.8	19.1	0.00e+00	0	41	0	2308964352	47	4189
2026-01-18 16:22:21.22	300.71	11.98	-38.8	-39.8	19.1	0.00e+00	0	41	0	2332033024	47	4193
2026-01-18 16:22:23.94	301.19	11.88	-39.0	-40.1	18.9	0.00e+00	0	40	0	2351955968	47	4304
2026-01-18 16:22:27.22	301.77	11.76	-38.9	-40.0	19.0	0.00e+00	0	40	0	2376073216	47	4257
2026-01-18 16:22:29.93	302.24	11.67	-38.9	-39.9	19.0	0.00e+00	0	40	0	2394947584	47	4238
2026-01-18 16:22:33.20	302.81	11.54	-38.7	-39.8	19.2	0.00e+00	0	40	0	2419064832	47	4155
2026-01-18 16:22:36.16	303.32	11.43	-38.8	-39.8	19.1	0.00e+00	0	41	0	2440036352	47	4176
2026-01-18 16:22:39.15	303.83	11.32	-39.1	-40.1	18.8	0.00e+00	0	41	0	2462056448	47	4335
2026-01-18 16:22:42.14	304.33	11.21	-38.9	-39.9	19.0	0.00e+00	0	40	0	2484076544	47	4239
2026-01-18 16:22:45.41	304.88	11.08	-39.2	-40.3	18.9	0.00e+00	0	40	0	2507145216	48	4163
2026-01-18 16:22:48.14	305.34	10.97	-39.1	-40.2	19.0	0.00e+00	0	40	0	2527068160	48	4112
2026-01-18 16:22:51.42	305.88	10.84	-39.0	-40.0	19.1	0.00e+00	0	41	0	2550136832	48	4030
2026-01-18 16:22:54.15	306.33	10.73	-39.2	-40.2	18.9	0.00e+00	0	40	0	2570059776	48	4138
2026-01-18 16:22:58.08	306.97	10.57	-39.2	-40.3	18.9	0.00e+00	0	41	0	2598371328	48	4168
2026-01-18 16:23:00.88	307.42	10.45	-39.5	-40.6	18.5	0.00e+00	0	41	0	2618294272	48	4335
2026-01-18 16:23:04.17	307.95	10.32	-39.5	-40.6	18.5	0.00e+00	0	41	0	2642411520	49	4088
2026-01-18 16:23:06.87	308.38	10.21	-39.2	-40.3	18.8	0.00e+00	0	40	0	2662334464	49	3938
2026-01-18 16:23:10.19	308.90	10.06	-39.7	-40.8	18.3	0.00e+00	0	41	0	2685403136	49	4156
2026-01-18 16:23:13.25	309.38	9.93	-39.7	-40.8	18.3	0.00e+00	0	40	0	2708471808	49	4192
2026-01-18 16:23:16.10	309.82	9.81	-39.4	-40.5	18.6	0.00e+00	0	41	0	2728394752	49	4012
2026-01-18 16:23:19.22	310.30	9.68	-39.5	-40.6	18.5	0.00e+00	0	41	0	2751463424	49	4093
2026-01-18 16:23:22.06	310.73	9.55	-39.7	-40.9	18.2	0.00e+00	0	41	0	2771386368	49	4199
2026-01-18 16:23:25.75	311.28	9.39	-39.7	-40.8	18.3	0.00e+00	0	41	0	2798649344	49	4164
2026-01-18 16:23:28.52	311.70	9.27	-39.3	-40.4	18.7	0.00e+00	0	41	0	2818572288	48	4229
2026-01-18 16:23:31.80	312.18	9.12	-40.0	-41.1	17.9	0.00e+00	0	41	0	2842689536	49	4325
2026-01-18 16:23:34.51	312.58	9.00	-41.0	-42.3	16.9	0.00e+00	0	41	0	2861563904	51	4417
2026-01-18 16:23:37.78	313.05	8.86	-50.1	-60.9	3.8	8.47e-01	0	41	104	2863661056	69	13322
2026-01-18 16:23:40.47	313.44	8.73	-49.9	-61.1	3.8	8.46e-01	0	41	104	2863661056	70	12959
2026-01-18 16:23:43.75	313.91	8.59	-50.6	-61.2	3.8	8.46e-01	0	41	104	2863661056	70	13062
2026-01-18 16:23:46.45	314.29	8.46	-50.6	-61.2	3.8	8.47e-01	0	41	104	2863661056	70	13053
2026-01-18 16:23:49.73	314.75	8.31	-50.5	-61.2	3.8	8.47e-01	0	41	104	2863661056	70	13046
2026-01-18 16:23:52.43	315.12	8.19	-50.4	-61.2	3.8	8.46e-01	0	41	104	2863661056	70	13013
2026-01-18 16:23:55.69	315.57	8.04	-50.1	-61.1	3.8	8.46e-01	0	41	104	2863661056	70	12838
2026-01-18 16:23:58.42	315.94	7.91	-50.1	-61.1	3.8	8.46e-01	0	41	104	2863661056	70	12813
2026-01-18 16:24:01.68	316.38	7.76	-50.1	-61.1	3.8	8.47e-01	0	41	104	2863661056	70	12859
2026-01-18 16:24:04.39	316.75	7.64	-50.1	-61.1	3.8	8.47e-01	0	41	104	2863661056	70	12939
2026-01-18 16:24:07.66	317.18	7.48	-50.1	-61.1	3.8	8.46e-01	0	41	104	2863661056	70	12889
2026-01-18 16:24:10.35	317.53	7.36	-50.1	-61.1	3.8	8.46e-01	0	41	104	2863661056	70	12858
2026-01-18 16:24:13.65	317.96	7.20	-50.1	-61.1	3.8	8.46e-01	0	41	104	2863661056	70	12871
2026-01-18 16:24:16.36	318.31	7.08	-50.1	-61.0	3.8	8.48e-01	0	41	104	2863661056	70	12794
2026-01-18 16:24:19.64	318.73	6.92	-50.1	-61.0	3.8	8.47e-01	0	41	104	2863661056	70	12796
2026-01-18 16:24:22.35	319.07	6.79	-50.1	-61.0	3.8	8.48e-01	0	41	104	2863661056	70	12726
2026-01-18 16:24:25.61	319.48	6.64	-50.1	-61.1	3.8	8.46e-01	0	41	104	2863661056	70	12827
2026-01-18 16:24:28.33	319.82	6.51	-50.1	-61.1	3.8	8.46e-01	0	41	104	2863661056	70	12883
2026-01-18 16:24:31.60	320.22	6.36	-50.1	-61.0	3.8	8.46e-01	0	41	104	2863661056	70	12791
2026-01-18 16:24:34.31	320.55	6.23	-50.1	-61.0	3.8	8.46e-01	0	41	104	2863661056	70	12807
2026-01-18 16:24:37.58	320.95	6.07	-50.1	-61.0	3.8	8.46e-01	0	41	104	2863661056	70	12786
2026-01-18 16:24:40.27	321.27	5.94	-50.1	-61.1	3.8	8.47e-01	0	41	104	2863661056	70	12817
2026-01-18 16:24:43.55	321.66	5.79	-50.1	-61.1	3.8	8.47e-01	0	41	104	2863661056	70	12854
2026-01-18 16:24:46.26	321.98	5.66	-50.1	-61.1	3.8	8.47e-01	0	41	104	2863661056	70	12829
2026-01-18 16:24:49.54	322.36	5.50	-50.1	-61.0	3.8	8.46e-01	0	41	104	2863661056	70	12799
2026-01-18 16:24:52.24	322.67	5.37	-50.1	-61.0	3.8	8.46e-01	0	41	104	2863661056	70	12804
2026-01-18 16:24:55.52	323.04	5.22	-50.1	-61.1	3.8	8.47e-01	0	41	104	2863661056	70	12832
2026-01-18 16:24:58.24	323.35	5.09	-50.1	-61.0	3.8	8.47e-01	0	41	104	2863661056	70	12739

#Closed at: 2026-01-18 16:25:01
#Recorded file [2863 MB]: D:/Data/31040_260118_191542.dat