passes_logs/2026/01/18/T1/T1__20260118_110836_FENGYUN_3D_rec.log

#Pass ID: 20260118_110836_FENGYUN 3D
#Satellite: FENGYUN 3D
#Configuration: FENGYUN 3D
#almurnet v.1.7.20251203
#Start time: 2026-01-18 11:08:36

#Version: 2.0.20230620
#Station: T1
#Location: 37.570604 lon 55.790049 lat
#TLE: 1 43010U 17072A   26017.61121112  .00000213  00000+0  12257-3 0  9991
#TLE: 2 43010  98.9934 349.4672 0002374 103.9362 256.2078 14.19696413423628

#Time	Az	El	Level	Level2	SNR	BER	BlckErr	Temp	State	Recorded	gain1	gain2
2026-01-18 11:08:36.85	133.95	5.05	-49.5	-61.5	3.8	8.48e-01	0	41	0	0	70	14466
2026-01-18 11:08:39.83	133.82	5.26	-49.5	-61.6	3.8	8.47e-01	0	41	104	0	70	14556
2026-01-18 11:08:42.81	133.69	5.47	-49.5	-61.6	3.8	8.48e-01	0	41	104	0	70	14702
2026-01-18 11:08:45.79	133.56	5.68	-49.5	-61.7	3.8	8.47e-01	0	41	104	0	70	14718
2026-01-18 11:08:48.77	133.43	5.89	-49.5	-61.6	3.8	8.47e-01	0	41	104	0	70	14569
2026-01-18 11:08:51.75	133.29	6.10	-49.5	-61.3	3.8	8.47e-01	0	41	104	0	70	14118
2026-01-18 11:08:54.73	133.15	6.32	-49.4	-60.9	3.8	8.47e-01	0	42	104	0	70	13442
2026-01-18 11:08:57.71	133.01	6.53	-49.4	-60.9	3.8	8.46e-01	0	42	104	0	70	13522
2026-01-18 11:09:00.69	132.87	6.75	-49.5	-61.6	3.8	8.47e-01	0	42	104	0	70	14554
2026-01-18 11:09:03.67	132.73	6.97	-49.4	-61.4	3.8	8.46e-01	0	42	104	0	70	14286
2026-01-18 11:09:06.65	132.58	7.19	-49.2	-59.7	3.8	8.46e-01	0	42	104	0	70	11792
2026-01-18 11:09:09.63	132.43	7.41	-49.0	-57.8	4.3	8.41e-01	0	42	0	0	69	9981
2026-01-18 11:09:12.61	132.28	7.64	-47.7	-53.4	6.8	2.86e-01	0	42	0	3145728	67	6793
2026-01-18 11:09:15.59	132.13	7.86	-45.0	-48.4	12.0	8.33e-04	0	42	0	19922944	62	5056
2026-01-18 11:09:18.57	131.97	8.09	-42.0	-44.4	15.9	0.00e+00	0	42	0	36700160	56	4531
2026-01-18 11:09:21.55	131.81	8.32	-40.3	-42.4	17.6	0.00e+00	0	42	0	53477376	52	4536
2026-01-18 11:09:24.53	131.65	8.55	-40.7	-42.8	17.3	0.00e+00	0	42	0	70254592	51	5013
2026-01-18 11:09:27.51	131.49	8.79	-42.2	-44.6	15.5	0.00e+00	0	42	0	87031808	55	4911
2026-01-18 11:09:30.49	131.32	9.02	-45.3	-48.8	11.5	5.89e-04	0	42	0	103809024	61	5656
2026-01-18 11:09:33.47	131.15	9.26	-45.0	-48.3	12.2	0.00e+00	0	43	0	120586240	60	5640
2026-01-18 11:09:36.46	130.97	9.50	-42.3	-44.7	15.6	8.00e-06	0	42	0	134217728	56	4702
2026-01-18 11:09:39.44	130.80	9.74	-40.4	-42.5	17.7	0.00e+00	0	42	0	150994944	52	4579
2026-01-18 11:09:42.42	130.62	9.99	-39.7	-41.8	18.4	0.00e+00	0	42	0	167772160	51	4449
2026-01-18 11:09:45.41	130.44	10.23	-39.5	-41.5	18.7	0.00e+00	0	43	0	184549376	50	4565
2026-01-18 11:09:48.39	130.25	10.48	-39.3	-41.3	18.8	0.00e+00	0	43	0	201326592	50	4475
2026-01-18 11:09:51.38	130.06	10.73	-39.3	-41.3	18.9	0.00e+00	0	43	0	218103808	50	4453
2026-01-18 11:09:54.33	129.87	10.98	-39.2	-41.2	19.0	0.00e+00	0	43	0	234881024	50	4417
2026-01-18 11:09:57.46	129.67	11.25	-39.1	-41.0	19.2	0.00e+00	0	43	0	251658240	50	4336
2026-01-18 11:10:00.30	129.48	11.50	-38.9	-40.9	19.3	0.00e+00	0	43	0	268435456	49	4503
2026-01-18 11:10:03.43	129.26	11.77	-39.0	-40.9	19.3	0.00e+00	0	43	0	285212672	49	4536
2026-01-18 11:10:06.27	129.07	12.02	-38.9	-40.9	19.3	0.00e+00	0	43	0	301989888	49	4513
2026-01-18 11:10:09.49	128.84	12.31	-38.9	-40.8	19.4	0.00e+00	0	43	0	319815680	49	4474
2026-01-18 11:10:12.33	128.63	12.56	-38.5	-40.4	19.8	0.00e+00	0	43	0	335544320	49	4282
2026-01-18 11:10:15.46	128.40	12.85	-38.6	-40.6	19.7	0.00e+00	0	43	0	353370112	49	4341
2026-01-18 11:10:18.30	128.19	13.11	-38.6	-40.5	19.7	0.00e+00	0	43	0	369098752	49	4310
2026-01-18 11:10:21.43	127.95	13.39	-38.6	-40.5	19.7	0.00e+00	0	43	0	386924544	49	4316
2026-01-18 11:10:24.27	127.73	13.66	-38.4	-40.3	19.9	0.00e+00	0	43	0	402653184	48	4462
2026-01-18 11:10:27.39	127.49	13.95	-38.5	-40.3	19.9	0.00e+00	0	43	0	420478976	48	4484
2026-01-18 11:10:30.28	127.25	14.23	-38.1	-40.0	20.2	0.00e+00	0	43	0	436207616	48	4292
2026-01-18 11:10:33.79	126.96	14.57	-38.1	-39.9	20.2	0.00e+00	0	43	0	456130560	48	4287
2026-01-18 11:10:36.49	126.73	14.83	-37.9	-39.8	20.1	0.00e+00	0	43	0	471859200	47	4468
2026-01-18 11:10:39.76	126.45	15.15	-37.8	-39.7	20.2	0.00e+00	0	43	0	489684992	47	4436
2026-01-18 11:10:42.47	126.21	15.42	-37.9	-39.8	20.2	0.00e+00	0	43	0	505413632	47	4449
2026-01-18 11:10:45.73	125.92	15.74	-37.8	-39.7	20.2	0.00e+00	0	43	0	523239424	47	4438
2026-01-18 11:10:48.73	125.65	16.05	-37.9	-39.8	20.1	0.00e+00	0	43	0	540016640	47	4454
2026-01-18 11:10:52.25	125.32	16.41	-37.6	-39.5	20.4	0.00e+00	0	43	0	559939584	47	4308
2026-01-18 11:10:54.95	125.06	16.69	-37.5	-39.3	20.6	0.00e+00	0	43	0	575668224	47	4229
2026-01-18 11:10:58.22	124.74	17.03	-37.3	-39.2	20.7	0.00e+00	0	43	0	593494016	46	4414
2026-01-18 11:11:00.93	124.47	17.31	-37.3	-39.2	20.7	0.00e+00	0	43	0	609222656	46	4407
2026-01-18 11:11:04.20	124.14	17.66	-37.1	-38.9	21.0	0.00e+00	0	43	0	627048448	46	4286
2026-01-18 11:11:07.15	123.83	17.98	-37.1	-38.9	21.0	0.00e+00	0	43	0	643825664	45	4519
2026-01-18 11:11:10.13	123.51	18.31	-36.9	-38.7	21.2	0.00e+00	0	43	0	660602880	45	4420
2026-01-18 11:11:13.12	123.18	18.64	-36.9	-38.8	21.1	0.00e+00	0	43	0	677380096	45	4442
2026-01-18 11:11:16.13	122.85	18.97	-37.0	-38.8	21.0	0.00e+00	0	43	0	694157312	45	4485
2026-01-18 11:11:19.15	122.50	19.31	-36.9	-38.8	21.1	0.00e+00	0	43	0	710934528	45	4459
2026-01-18 11:11:22.14	122.16	19.65	-36.8	-38.6	21.2	0.00e+00	0	43	0	728760320	45	4391
2026-01-18 11:11:25.51	121.75	20.04	-36.6	-38.4	21.4	0.00e+00	0	43	0	747634688	45	4285
2026-01-18 11:11:28.43	121.40	20.38	-36.4	-38.2	21.6	0.00e+00	0	43	0	763363328	44	4395
2026-01-18 11:11:31.78	120.98	20.77	-36.3	-38.1	21.7	0.00e+00	0	43	0	782237696	44	4378
2026-01-18 11:11:34.53	120.62	21.10	-36.5	-38.3	21.5	0.00e+00	0	43	0	797966336	44	4489
2026-01-18 11:11:37.80	120.19	21.49	-36.4	-38.2	21.6	0.00e+00	0	43	0	816840704	44	4440
2026-01-18 11:11:40.58	119.82	21.82	-36.1	-37.8	21.9	0.00e+00	0	43	0	832569344	44	4236
2026-01-18 11:11:43.73	119.38	22.21	-35.7	-37.5	22.1	0.00e+00	0	43	0	849346560	43	4312
2026-01-18 11:11:46.72	118.96	22.58	-35.8	-37.6	22.0	0.00e+00	0	43	0	867172352	43	4368
2026-01-18 11:11:49.71	118.53	22.95	-35.8	-37.5	22.0	0.00e+00	0	43	0	883949568	43	4340
2026-01-18 11:11:52.69	118.09	23.33	-35.8	-37.5	22.0	0.00e+00	0	43	0	899678208	43	4328
2026-01-18 11:11:55.68	117.63	23.71	-35.7	-37.5	22.1	0.00e+00	0	43	0	917504000	43	4311
2026-01-18 11:11:58.95	117.12	24.13	-35.9	-37.7	21.9	0.00e+00	0	44	0	935329792	43	4400
2026-01-18 11:12:01.71	116.68	24.48	-35.9	-37.7	21.9	0.00e+00	0	43	0	951058432	43	4405
2026-01-18 11:12:04.98	116.14	24.91	-35.9	-37.6	21.9	0.00e+00	0	43	0	968884224	43	4381
2026-01-18 11:12:07.70	115.69	25.27	-35.5	-37.2	22.2	0.00e+00	0	43	0	984612864	42	4420
2026-01-18 11:12:10.97	115.12	25.71	-35.3	-37.0	22.5	0.00e+00	0	43	0	1003487232	42	4324
2026-01-18 11:12:13.70	114.64	26.07	-35.3	-37.1	22.4	0.00e+00	0	43	0	1018167296	42	4353
2026-01-18 11:12:17.11	114.02	26.53	-35.6	-37.3	22.2	0.00e+00	0	44	0	1038090240	42	4490
2026-01-18 11:12:20.16	113.45	26.95	-35.6	-37.3	22.2	0.00e+00	0	43	0	1054867456	42	4490
2026-01-18 11:12:23.33	112.84	27.39	-35.2	-37.0	22.5	0.00e+00	0	43	0	1072693248	42	4306
2026-01-18 11:12:26.32	112.25	27.80	-35.2	-37.0	22.5	0.00e+00	0	43	0	1089470464	42	4305
2026-01-18 11:12:29.30	111.64	28.22	-35.4	-37.1	22.4	0.00e+00	0	43	0	1106247680	42	4378
2026-01-18 11:12:32.28	111.03	28.64	-35.3	-37.0	22.5	0.00e+00	0	43	0	1123024896	42	4318
2026-01-18 11:12:35.27	110.39	29.06	-35.3	-37.0	22.5	0.00e+00	0	43	0	1139802112	42	4326
2026-01-18 11:12:38.37	109.71	29.50	-35.2	-36.9	22.5	0.00e+00	0	43	0	1157627904	42	4288
2026-01-18 11:12:41.21	109.07	29.90	-35.3	-37.0	22.5	0.00e+00	0	44	0	1173356544	42	4324
2026-01-18 11:12:44.34	108.34	30.35	-35.1	-36.8	22.7	0.00e+00	0	43	0	1191182336	42	4226
2026-01-18 11:12:47.18	107.67	30.76	-35.2	-36.9	22.6	0.00e+00	0	44	0	1206910976	42	4285
2026-01-18 11:12:50.36	106.89	31.22	-34.9	-36.7	22.7	0.00e+00	0	43	0	1224736768	41	4396
2026-01-18 11:12:53.20	106.18	31.63	-34.9	-36.7	22.7	0.00e+00	0	43	0	1240465408	41	4398
2026-01-18 11:12:56.51	105.33	32.11	-35.0	-36.7	22.6	0.00e+00	0	43	0	1259339776	41	4425
2026-01-18 11:12:59.49	104.54	32.54	-35.1	-36.9	22.6	0.00e+00	0	43	0	1276116992	41	4497
2026-01-18 11:13:02.77	103.64	33.02	-35.2	-36.9	22.6	0.00e+00	0	43	0	1294991360	41	4520
2026-01-18 11:13:05.48	102.88	33.41	-35.0	-36.8	22.6	0.00e+00	0	43	0	1309671424	41	4442
2026-01-18 11:13:08.76	101.94	33.88	-34.8	-36.5	22.9	0.00e+00	0	44	0	1328545792	41	4314
2026-01-18 11:13:11.48	101.14	34.27	-34.8	-36.6	22.8	0.00e+00	0	44	0	1343225856	41	4353
2026-01-18 11:13:14.75	100.14	34.74	-34.9	-36.6	22.8	0.00e+00	0	43	0	1362100224	41	4359
2026-01-18 11:13:17.75	99.21	35.17	-34.7	-36.4	23.0	0.00e+00	0	43	0	1378877440	41	4289
2026-01-18 11:13:20.73	98.25	35.59	-34.7	-36.4	23.0	0.00e+00	0	43	0	1395654656	41	4284
2026-01-18 11:13:23.76	97.26	36.01	-35.0	-36.8	22.6	0.00e+00	0	44	0	1412431872	41	4467
2026-01-18 11:13:26.71	96.26	36.42	-35.1	-36.9	22.6	0.00e+00	0	43	0	1429209088	41	4494
2026-01-18 11:13:29.84	95.18	36.84	-35.4	-37.2	22.3	0.00e+00	0	43	0	1447034880	41	4689
2026-01-18 11:13:32.68	94.17	37.23	-35.0	-36.7	22.8	0.00e+00	0	44	0	1462763520	41	4434
2026-01-18 11:13:35.81	93.04	37.64	-35.2	-36.9	22.6	0.00e+00	0	43	0	1480589312	41	4538
2026-01-18 11:13:38.65	91.98	38.01	-34.9	-36.6	22.8	0.00e+00	0	43	0	1496317952	41	4375
2026-01-18 11:13:41.89	90.74	38.42	-35.2	-36.9	22.5	0.00e+00	0	43	0	1514143744	41	4537
2026-01-18 11:13:44.78	89.62	38.78	-35.1	-36.8	22.7	0.00e+00	0	43	0	1530920960	41	4480
2026-01-18 11:13:48.02	88.32	39.17	-35.0	-36.7	22.7	0.00e+00	0	43	0	1548746752	41	4434
2026-01-18 11:13:50.91	87.14	39.51	-34.9	-36.6	22.9	0.00e+00	0	44	0	1565523968	41	4377
2026-01-18 11:13:54.03	85.84	39.86	-35.0	-36.8	22.8	0.00e+00	0	43	0	1582301184	41	4447
2026-01-18 11:13:56.88	84.62	40.17	-35.0	-36.7	22.9	0.00e+00	0	43	0	1599078400	41	4404
2026-01-18 11:14:00.01	83.27	40.49	-34.8	-36.5	23.1	0.00e+00	0	43	0	1616904192	41	4305
2026-01-18 11:14:02.85	82.01	40.77	-34.7	-36.5	23.0	0.00e+00	0	43	0	1632632832	41	4292
2026-01-18 11:14:06.07	80.56	41.08	-34.8	-36.6	23.0	0.00e+00	0	44	0	1650458624	41	4355
2026-01-18 11:14:08.91	79.26	41.33	-35.0	-36.7	22.8	0.00e+00	0	43	0	1666187264	41	4432
2026-01-18 11:14:12.03	77.80	41.59	-34.6	-36.3	23.2	0.00e+00	0	43	0	1684013056	40	4442
2026-01-18 11:14:14.87	76.46	41.80	-34.6	-36.3	23.1	0.00e+00	0	43	0	1699741696	40	4488
2026-01-18 11:14:18.02	74.95	42.03	-34.4	-36.1	23.4	0.00e+00	0	43	0	1717567488	40	4352
2026-01-18 11:14:20.85	73.58	42.21	-34.9	-36.6	22.9	0.00e+00	0	43	0	1733296128	40	4627
2026-01-18 11:14:23.98	72.04	42.39	-34.8	-36.6	22.9	0.00e+00	0	44	0	1751121920	40	4606
2026-01-18 11:14:26.83	70.63	42.53	-34.6	-36.3	23.2	0.00e+00	0	44	0	1766850560	40	4484
2026-01-18 11:14:29.96	69.07	42.67	-34.6	-36.3	23.2	0.00e+00	0	43	0	1784676352	40	4478
2026-01-18 11:14:32.80	67.64	42.77	-34.7	-36.4	23.1	0.00e+00	0	43	0	1800404992	40	4534
2026-01-18 11:14:36.10	65.96	42.86	-34.6	-36.3	23.2	0.00e+00	0	43	0	1819279360	40	4486
2026-01-18 11:14:38.80	64.59	42.92	-35.1	-36.9	22.8	0.00e+00	0	43	0	1835008000	41	4500
2026-01-18 11:14:42.02	62.95	42.96	-34.5	-36.2	23.4	0.00e+00	0	44	0	1852833792	40	4406
2026-01-18 11:14:44.87	61.49	42.98	-34.3	-36.0	23.4	0.00e+00	0	43	0	1868562432	40	4333
2026-01-18 11:14:48.01	59.88	42.97	-34.7	-36.4	23.1	0.00e+00	0	43	0	1886388224	40	4543
2026-01-18 11:14:50.89	58.41	42.95	-34.4	-36.1	23.4	0.00e+00	0	43	0	1902116864	40	4349
2026-01-18 11:14:54.12	56.76	42.89	-34.6	-36.3	23.2	0.00e+00	0	44	0	1920991232	40	4476
2026-01-18 11:14:56.97	55.32	42.82	-35.0	-36.7	22.9	0.00e+00	0	44	0	1936719872	40	4691
2026-01-18 11:15:00.10	53.74	42.72	-34.3	-36.0	23.4	0.00e+00	0	43	0	1954545664	40	4306
2026-01-18 11:15:03.01	52.28	42.60	-34.6	-36.3	23.2	0.00e+00	0	43	0	1971322880	40	4446
2026-01-18 11:15:05.99	50.80	42.46	-34.4	-36.1	23.4	0.00e+00	0	43	0	1987051520	40	4360
2026-01-18 11:15:08.97	49.33	42.30	-34.4	-36.1	23.3	0.00e+00	0	44	0	2004877312	40	4369
2026-01-18 11:15:11.96	47.87	42.12	-34.7	-36.4	23.1	0.00e+00	0	43	0	2021654528	40	4527
2026-01-18 11:15:14.94	46.44	41.92	-34.4	-36.1	23.4	0.00e+00	0	43	0	2037383168	40	4365
2026-01-18 11:15:17.93	45.02	41.70	-34.4	-36.1	23.3	0.00e+00	0	43	0	2055208960	40	4360
2026-01-18 11:15:20.91	43.62	41.46	-34.1	-35.8	23.5	0.00e+00	0	43	0	2071986176	40	4216
2026-01-18 11:15:23.90	42.24	41.20	-34.3	-36.0	23.3	0.00e+00	0	43	0	2087714816	40	4325
2026-01-18 11:15:26.85	40.90	40.93	-34.5	-36.2	23.2	0.00e+00	0	43	0	2104492032	40	4440
2026-01-18 11:15:29.98	39.51	40.63	-34.3	-36.0	23.4	0.00e+00	0	43	0	2122317824	40	4322
2026-01-18 11:15:32.82	38.27	40.34	-34.3	-36.0	23.3	0.00e+00	0	43	0	2138046464	40	4327
2026-01-18 11:15:35.95	36.92	40.01	-34.4	-36.1	23.3	0.00e+00	0	43	0	2155872256	40	4375
2026-01-18 11:15:38.79	35.73	39.70	-34.7	-36.4	23.0	0.00e+00	0	43	0	2171600896	40	4518
2026-01-18 11:15:42.09	34.37	39.32	-34.7	-36.4	23.0	0.00e+00	0	44	0	2190475264	40	4538
2026-01-18 11:15:44.82	33.27	39.00	-34.6	-36.3	23.0	0.00e+00	0	43	0	2206203904	40	4476
2026-01-18 11:15:48.04	32.00	38.60	-34.3	-36.0	23.3	0.00e+00	0	44	0	2224029696	40	4311
2026-01-18 11:15:50.89	30.90	38.25	-34.6	-36.3	23.7	0.00e+00	0	44	0	2239758336	40	4461
2026-01-18 11:15:54.01	29.73	37.85	-34.7	-36.3	23.7	0.00e+00	0	43	0	2257584128	40	4469
2026-01-18 11:15:56.85	28.69	37.48	-34.7	-36.3	23.7	0.00e+00	0	43	0	2273312768	40	4465
2026-01-18 11:15:59.98	27.56	37.06	-34.7	-36.3	23.7	0.00e+00	0	43	0	2291138560	40	4455
2026-01-18 11:16:02.82	26.57	36.68	-34.6	-36.3	23.7	0.00e+00	0	43	0	2306867200	40	4449
2026-01-18 11:16:05.95	25.50	36.25	-34.2	-35.8	24.1	0.00e+00	0	43	0	2324692992	40	4202
2026-01-18 11:16:08.79	24.56	35.86	-34.3	-35.9	24.0	0.00e+00	0	43	0	2340421632	40	4260
2026-01-18 11:16:11.98	23.53	35.41	-34.4	-36.0	23.9	0.00e+00	0	43	0	2358247424	40	4340
2026-01-18 11:16:14.88	22.61	35.00	-34.4	-36.0	23.9	0.00e+00	0	43	0	2375024640	40	4331
2026-01-18 11:16:18.29	21.56	34.52	-34.4	-36.0	23.9	0.00e+00	0	43	0	2393899008	40	4326
2026-01-18 11:16:21.02	20.75	34.13	-34.3	-35.9	24.0	0.00e+00	0	43	0	2409627648	40	4281
2026-01-18 11:16:24.29	19.80	33.66	-34.6	-36.3	23.7	0.00e+00	0	44	0	2427453440	40	4446
2026-01-18 11:16:27.00	19.03	33.27	-34.6	-36.3	23.7	0.00e+00	0	43	0	2443182080	40	4468
2026-01-18 11:16:30.27	18.13	32.80	-34.5	-36.1	23.9	0.00e+00	0	44	0	2462056448	40	4357
2026-01-18 11:16:33.00	17.40	32.41	-34.6	-36.3	23.7	0.00e+00	0	43	0	2476736512	40	4459
2026-01-18 11:16:36.27	16.54	31.93	-34.5	-36.1	23.8	0.00e+00	0	44	0	2495610880	40	4381
2026-01-18 11:16:38.97	15.86	31.55	-34.7	-36.3	23.6	0.00e+00	0	44	0	2510290944	40	4492
2026-01-18 11:16:42.24	15.05	31.07	-35.0	-36.7	23.4	0.00e+00	0	44	0	2529165312	40	4671
2026-01-18 11:16:45.19	14.34	30.65	-35.0	-36.7	23.3	0.00e+00	0	43	0	2545942528	40	4673
2026-01-18 11:16:48.22	13.63	30.22	-34.8	-36.4	23.6	0.00e+00	0	44	0	2562719744	40	4530
2026-01-18 11:16:51.50	12.88	29.75	-34.8	-36.4	23.6	0.00e+00	0	44	0	2581594112	40	4538
2026-01-18 11:16:54.21	12.28	29.37	-35.0	-36.7	23.3	0.00e+00	0	43	0	2596274176	40	4673
2026-01-18 11:16:57.49	11.57	28.90	-35.2	-36.8	23.2	0.00e+00	0	44	0	2615148544	41	4486
2026-01-18 11:17:00.22	11.00	28.52	-35.2	-36.8	23.2	0.00e+00	0	43	0	2629828608	41	4492
2026-01-18 11:17:03.75	10.28	28.03	-35.4	-37.1	23.0	0.00e+00	0	44	0	2649751552	41	4631
2026-01-18 11:17:06.45	9.74	27.65	-35.6	-37.3	22.8	0.00e+00	0	43	0	2665480192	41	4718
2026-01-18 11:17:09.73	9.11	27.20	-35.3	-36.9	23.1	0.00e+00	0	44	0	2683305984	41	4540
2026-01-18 11:17:12.50	8.58	26.83	-35.3	-37.0	23.1	0.00e+00	0	43	0	2699034624	41	4555
2026-01-18 11:17:15.77	7.98	26.38	-35.4	-37.1	23.0	0.00e+00	0	43	0	2717908992	41	4624
2026-01-18 11:17:18.47	7.50	26.02	-35.4	-37.1	23.0	0.00e+00	0	44	0	2732589056	41	4611
2026-01-18 11:17:21.72	6.93	25.59	-35.3	-37.0	23.1	0.00e+00	0	44	0	2751463424	41	4577
2026-01-18 11:17:24.71	6.42	25.19	-35.3	-37.0	23.1	0.00e+00	0	44	0	2768240640	41	4553
2026-01-18 11:17:27.69	5.93	24.80	-35.2	-36.9	23.1	0.00e+00	0	43	0	2785017856	41	4514
2026-01-18 11:17:30.64	5.45	24.42	-35.4	-37.1	23.0	0.00e+00	0	44	0	2800746496	41	4615
2026-01-18 11:17:33.98	4.93	23.99	-35.5	-37.2	22.8	0.00e+00	0	43	0	2819620864	41	4687
2026-01-18 11:17:36.89	4.48	23.62	-35.6	-37.3	22.8	0.00e+00	0	43	0	2836398080	41	4722
2026-01-18 11:17:40.22	3.98	23.20	-35.5	-37.2	22.8	0.00e+00	0	43	0	2855272448	41	4663
2026-01-18 11:17:43.30	3.53	22.81	-35.6	-37.3	22.7	0.00e+00	0	44	0	2872049664	41	4734
2026-01-18 11:17:46.14	3.13	22.46	-35.5	-37.2	22.8	0.00e+00	0	43	0	2888826880	42	4433
2026-01-18 11:17:49.39	2.68	22.06	-35.6	-37.3	22.8	0.00e+00	0	43	0	2906652672	42	4453
2026-01-18 11:17:52.18	2.30	21.73	-35.8	-37.5	22.6	0.00e+00	0	44	0	2922381312	42	4589
2026-01-18 11:17:55.55	1.86	21.32	-36.1	-37.9	22.3	0.00e+00	0	43	0	2941255680	42	4767
2026-01-18 11:17:58.27	1.51	21.00	-36.2	-37.9	22.2	0.00e+00	0	44	0	2956984320	42	4788
2026-01-18 11:18:01.80	1.06	20.59	-36.2	-37.9	22.2	0.00e+00	0	43	0	2976907264	43	4524
2026-01-18 11:18:04.50	0.73	20.27	-36.3	-38.0	22.1	0.00e+00	0	44	0	2991587328	43	4580
2026-01-18 11:18:07.79	0.34	19.89	-36.5	-38.2	21.9	0.00e+00	0	43	0	3010461696	43	4681
2026-01-18 11:18:10.60	0.01	19.57	-36.6	-38.3	21.8	0.00e+00	0	43	0	3026190336	43	4756
2026-01-18 11:18:13.88	359.63	19.20	-36.4	-38.2	22.0	0.00e+00	0	44	0	3044016128	43	4654
2026-01-18 11:18:16.58	359.33	18.90	-36.5	-38.2	21.9	0.00e+00	0	43	0	3059744768	43	4687
2026-01-18 11:18:19.85	358.97	18.54	-36.6	-38.3	21.8	0.00e+00	0	43	0	3078619136	43	4731
2026-01-18 11:18:22.55	358.68	18.25	-36.8	-38.6	21.7	0.00e+00	0	44	0	3093299200	44	4641
2026-01-18 11:18:25.83	358.34	17.89	-37.1	-38.8	21.5	0.00e+00	0	43	0	3111124992	44	4757
2026-01-18 11:18:28.54	358.06	17.60	-37.1	-38.9	21.5	0.00e+00	0	44	0	3126853632	44	4760
2026-01-18 11:18:31.81	357.74	17.26	-37.1	-38.9	21.4	0.00e+00	0	44	0	3145728000	45	4530
2026-01-18 11:18:34.51	357.47	16.98	-37.1	-39.0	21.4	0.00e+00	0	44	0	3160408064	45	4548
2026-01-18 11:18:37.78	357.16	16.64	-37.4	-39.2	21.2	0.00e+00	0	44	0	3179282432	45	4660
2026-01-18 11:18:40.56	356.90	16.35	-37.5	-39.3	21.0	0.00e+00	0	44	0	3195011072	45	4750
2026-01-18 11:18:43.86	356.59	16.02	-37.5	-39.3	21.1	0.00e+00	0	44	0	3212836864	45	4711
2026-01-18 11:18:46.82	356.33	15.72	-37.4	-39.2	21.1	0.00e+00	0	44	0	3229614080	45	4693
2026-01-18 11:18:50.40	356.01	15.36	-37.6	-39.4	21.0	0.00e+00	0	44	0	3249537024	45	4763
2026-01-18 11:18:53.40	355.75	15.07	-37.8	-39.6	20.8	0.00e+00	0	44	0	3267362816	46	4618
2026-01-18 11:18:56.38	355.50	14.78	-37.8	-39.6	20.8	0.00e+00	0	44	0	3283091456	46	4601
2026-01-18 11:18:59.37	355.26	14.49	-37.8	-39.6	20.8	0.00e+00	0	43	0	3299868672	46	4615
2026-01-18 11:19:02.35	355.02	14.21	-37.9	-39.7	20.7	0.00e+00	0	44	0	3317694464	46	4676
2026-01-18 11:19:05.43	354.77	13.92	-37.8	-39.6	20.7	0.00e+00	0	44	0	3334471680	46	4640
2026-01-18 11:19:08.42	354.54	13.64	-38.0	-39.9	20.5	0.00e+00	0	43	0	3351248896	46	4767
2026-01-18 11:19:11.40	354.31	13.36	-38.2	-40.1	20.2	0.00e+00	0	43	0	3368026112	47	4642
2026-01-18 11:19:14.39	354.09	13.09	-38.1	-40.1	20.3	0.00e+00	0	43	0	3384803328	47	4616
2026-01-18 11:19:17.37	353.87	12.82	-38.3	-40.4	20.0	0.00e+00	0	44	0	3401580544	47	4805
2026-01-18 11:19:20.44	353.65	12.54	-38.4	-40.5	19.9	0.00e+00	0	43	0	3418357760	47	4828
2026-01-18 11:19:23.35	353.45	12.28	-38.5	-40.5	19.8	0.00e+00	0	43	0	3435134976	47	4850
2026-01-18 11:19:26.33	353.24	12.02	-38.3	-40.3	20.0	0.00e+00	0	44	0	3451912192	47	4733
2026-01-18 11:19:29.32	353.04	11.76	-38.3	-40.2	20.1	0.00e+00	0	43	0	3468689408	47	4700
2026-01-18 11:19:32.30	352.84	11.50	-38.2	-40.3	20.0	0.00e+00	0	44	0	3485466624	47	4731
2026-01-18 11:19:35.33	352.64	11.24	-38.1	-40.3	20.0	0.00e+00	0	44	0	3502243840	47	4739
2026-01-18 11:19:38.38	352.44	10.98	-38.0	-40.4	20.0	0.00e+00	0	43	0	3520069632	47	4768
2026-01-18 11:19:41.51	352.25	10.71	-38.1	-40.5	19.8	0.00e+00	0	44	0	3537895424	47	4838
2026-01-18 11:19:44.42	352.07	10.47	-38.2	-40.6	19.7	0.00e+00	0	44	0	3553624064	47	4893
2026-01-18 11:19:47.70	351.87	10.20	-38.5	-40.6	19.7	0.00e+00	0	44	0	3572498432	47	4915
2026-01-18 11:19:50.48	351.70	9.97	-38.8	-40.9	19.6	0.00e+00	0	44	0	3588227072	48	4789
2026-01-18 11:19:53.72	351.51	9.71	-38.6	-40.8	19.7	0.00e+00	0	44	0	3606052864	48	4728
2026-01-18 11:19:56.80	351.34	9.46	-38.8	-41.0	19.5	0.00e+00	0	43	0	3623878656	48	4854
2026-01-18 11:20:00.27	351.14	9.18	-38.9	-41.2	19.4	0.00e+00	0	44	0	3642753024	48	4931
2026-01-18 11:20:02.98	350.99	8.97	-46.8	-57.9	4.5	0.00e+00	0	44	0	3657433088	64	13522
2026-01-18 11:20:06.24	350.81	8.71	-49.7	-62.4	3.8	8.47e-01	0	44	104	3657433088	70	15952
2026-01-18 11:20:08.94	350.67	8.50	-50.1	-62.4	3.8	8.46e-01	0	44	104	3657433088	70	16126
2026-01-18 11:20:12.25	350.50	8.25	-49.4	-62.3	3.9	8.43e-01	0	44	104	3657433088	70	15880
2026-01-18 11:20:15.21	350.34	8.02	-50.1	-62.5	3.8	8.47e-01	0	44	104	3657433088	71	15341
2026-01-18 11:20:18.75	350.16	7.75	-50.3	-62.5	3.8	8.46e-01	0	44	104	3657433088	71	15338
2026-01-18 11:20:21.49	350.03	7.55	-50.1	-62.5	3.8	8.46e-01	0	44	104	3657433088	71	15307
2026-01-18 11:20:24.85	349.86	7.30	-50.5	-62.5	3.8	8.46e-01	0	44	104	3657433088	71	15368
2026-01-18 11:20:27.56	349.73	7.10	-50.4	-62.6	3.8	8.47e-01	0	43	104	3657433088	71	15428
2026-01-18 11:20:30.82	349.58	6.86	-50.2	-62.5	3.8	8.47e-01	0	44	104	3657433088	71	15364
2026-01-18 11:20:33.53	349.45	6.66	-50.1	-62.5	3.8	8.47e-01	0	44	104	3657433088	71	15272
2026-01-18 11:20:36.81	349.30	6.42	-50.1	-62.5	3.8	8.47e-01	0	44	104	3657433088	71	15292
2026-01-18 11:20:39.53	349.18	6.23	-50.1	-62.5	3.8	8.48e-01	0	44	104	3657433088	71	15279
2026-01-18 11:20:42.79	349.03	6.00	-50.1	-62.5	3.8	8.47e-01	0	44	104	3657433088	71	15256
2026-01-18 11:20:45.49	348.92	5.80	-50.1	-62.5	3.8	8.47e-01	0	44	104	3657433088	71	15232
2026-01-18 11:20:48.77	348.78	5.57	-50.1	-62.4	3.8	8.46e-01	0	44	104	3657433088	71	15196
2026-01-18 11:20:51.48	348.66	5.39	-50.1	-62.4	3.8	8.47e-01	0	44	104	3657433088	71	15206
2026-01-18 11:20:54.75	348.52	5.16	-50.1	-62.4	3.8	8.47e-01	0	44	104	3657433088	71	15207
2026-01-18 11:20:57.46	348.41	4.97	-50.1	-62.4	3.8	8.49e-01	0	44	104	3657433088	71	15175

#Closed at: 2026-01-18 11:20:58
#Recorded file [3657 MB]: D:/Data/31040_260118_140836.dat