passes_logs/2026/01/18/T1/T1__20260118_022051_NOAA_20_JPSS-1_rec.log

#Pass ID: 20260118_022051_NOAA 20 (JPSS-1)
#Satellite: NOAA 20 (JPSS-1)
#Configuration: NOAA 20
#almurnet v.1.7.20251203
#Start time: 2026-01-18 02:20:52

#Version: 2.0.20230620
#Station: T1
#Location: 37.570604 lon 55.790049 lat
#TLE: 1 43013U 17073A   26017.30359522  .00000067  00000+0  52526-4 0  9990
#TLE: 2 43013  98.7639 318.2187 0001419  36.2087 323.9184 14.19536557423067

#Time	Az	El	Level	Level2	SNR	BER	BlckErr	Temp	State	Recorded	gain1	gain2
2026-01-18 02:20:52.46	0.58	5.03	-48.9	-65.3	3.8	1.49e+00	0	36	0	0	69	23810
2026-01-18 02:20:54.45	0.34	5.11	-45.8	-65.0	3.8	1.49e+00	0	37	104	0	62	34273
2026-01-18 02:20:56.45	0.10	5.20	-45.7	-65.0	3.8	1.49e+00	0	36	104	0	62	34365
2026-01-18 02:20:58.44	359.86	5.29	-45.7	-65.0	3.8	1.49e+00	0	37	104	0	62	34262
2026-01-18 02:21:00.43	359.62	5.38	-45.6	-64.9	3.8	1.49e+00	0	37	104	0	62	33988
2026-01-18 02:21:02.43	359.38	5.46	-45.5	-64.9	3.8	1.49e+00	0	37	104	0	62	33808
2026-01-18 02:21:04.42	359.14	5.55	-45.4	-64.8	3.8	1.49e+00	0	37	104	0	62	33508
2026-01-18 02:21:06.42	358.89	5.64	-45.5	-64.8	3.8	1.49e+00	0	37	104	0	62	33606
2026-01-18 02:21:08.41	358.64	5.72	-45.4	-64.8	3.8	1.49e+00	0	37	104	0	62	33382
2026-01-18 02:21:10.40	358.39	5.81	-45.4	-64.8	3.8	1.49e+00	0	37	104	0	62	33395
2026-01-18 02:21:12.40	358.14	5.89	-45.4	-64.8	3.8	1.49e+00	0	37	104	0	62	33369
2026-01-18 02:21:14.39	357.89	5.98	-45.4	-64.8	3.8	1.49e+00	0	37	104	0	62	33317
2026-01-18 02:21:16.38	357.64	6.07	-45.4	-64.7	3.8	1.49e+00	0	38	104	0	62	33263
2026-01-18 02:21:18.38	357.38	6.15	-45.3	-64.7	3.8	1.49e+00	0	37	104	0	62	33255
2026-01-18 02:21:20.37	357.13	6.24	-45.4	-64.7	3.8	1.49e+00	0	37	104	0	62	33166
2026-01-18 02:21:22.36	356.87	6.32	-45.3	-64.7	3.8	1.49e+00	0	38	104	0	62	33208
2026-01-18 02:21:24.35	356.61	6.40	-45.4	-64.7	3.8	1.49e+00	0	37	104	0	62	33062
2026-01-18 02:21:26.35	356.35	6.49	-45.4	-64.7	3.8	1.49e+00	0	38	104	0	62	33132
2026-01-18 02:21:28.34	356.09	6.57	-45.3	-64.7	3.8	1.49e+00	0	38	104	0	62	33147
2026-01-18 02:21:30.33	355.82	6.66	-45.3	-64.7	3.8	1.49e+00	0	38	104	0	62	33040
2026-01-18 02:21:32.33	355.56	6.74	-45.3	-64.7	3.8	1.49e+00	0	38	104	0	62	32929
2026-01-18 02:21:34.32	355.29	6.82	-45.3	-64.7	3.8	1.49e+00	0	38	104	0	62	33060
2026-01-18 02:21:36.32	355.02	6.91	-45.3	-64.7	3.8	1.49e+00	0	38	104	0	62	33012
2026-01-18 02:21:38.31	354.75	6.99	-45.3	-64.7	3.8	1.49e+00	0	38	104	0	62	33063
2026-01-18 02:21:40.30	354.48	7.07	-45.3	-64.6	3.8	1.49e+00	0	38	104	0	62	32920
2026-01-18 02:21:42.30	354.20	7.15	-45.3	-64.6	3.8	1.49e+00	0	38	104	0	62	32925
2026-01-18 02:21:44.29	353.93	7.23	-45.3	-64.7	3.8	1.49e+00	0	38	104	0	62	32971
2026-01-18 02:21:46.29	353.65	7.31	-45.3	-64.7	3.8	1.49e+00	0	38	104	0	62	33121
2026-01-18 02:21:48.28	353.37	7.39	-45.3	-64.7	3.8	1.49e+00	0	38	104	0	62	32961
2026-01-18 02:21:50.28	353.09	7.47	-45.3	-64.6	3.8	1.49e+00	0	38	104	0	62	32919
2026-01-18 02:21:52.27	352.81	7.55	-45.3	-64.7	3.8	1.49e+00	0	38	104	0	62	33027
2026-01-18 02:21:54.27	352.53	7.63	-45.3	-64.6	3.8	1.49e+00	0	38	104	0	62	32889
2026-01-18 02:21:56.26	352.24	7.71	-45.2	-64.6	3.8	1.49e+00	0	38	104	0	62	32887
2026-01-18 02:21:58.26	351.96	7.79	-45.2	-64.6	3.8	1.49e+00	0	38	104	0	62	32711
2026-01-18 02:22:00.25	351.67	7.87	-45.2	-64.5	3.8	1.49e+00	0	38	104	0	62	32230
2026-01-18 02:22:02.24	351.38	7.95	-45.2	-64.3	3.8	1.49e+00	0	38	104	0	62	31553
2026-01-18 02:22:04.23	351.09	8.02	-45.1	-64.2	3.8	1.49e+00	0	38	104	0	62	31263
2026-01-18 02:22:06.23	350.80	8.10	-45.0	-64.3	3.8	1.49e+00	0	38	104	0	62	31754
2026-01-18 02:22:08.22	350.50	8.18	-44.9	-64.3	3.8	1.49e+00	0	38	104	0	61	33546
2026-01-18 02:22:10.21	350.21	8.25	-44.9	-64.1	3.8	1.49e+00	0	38	104	0	61	32750
2026-01-18 02:22:12.20	349.91	8.33	-44.8	-64.0	3.8	1.49e+00	0	38	104	0	61	32378
2026-01-18 02:22:14.19	349.61	8.40	-44.7	-64.0	3.8	1.49e+00	0	38	104	0	61	32466
2026-01-18 02:22:16.18	349.31	8.47	-44.7	-63.5	3.8	1.49e+00	0	38	104	0	61	30471
2026-01-18 02:22:18.18	349.01	8.55	-44.6	-62.5	3.8	1.49e+00	0	38	104	0	61	27089
2026-01-18 02:22:20.17	348.71	8.62	-44.5	-61.8	3.8	1.49e+00	0	38	104	0	61	25120
2026-01-18 02:22:22.16	348.40	8.69	-44.4	-61.0	3.9	1.48e+00	0	38	104	0	60	24332
2026-01-18 02:22:24.15	348.10	8.77	-44.3	-59.9	4.3	1.37e+00	0	39	0	0	60	21326
2026-01-18 02:22:26.15	347.79	8.84	-44.3	-58.0	5.2	7.52e-01	0	39	0	3145728	60	17161
2026-01-18 02:22:28.14	347.48	8.91	-44.1	-53.6	8.8	1.21e-01	0	38	0	7340032	59	10994
2026-01-18 02:22:30.13	347.17	8.98	-42.9	-49.0	13.6	8.69e-05	0	38	0	10485760	57	7208
2026-01-18 02:22:32.12	346.86	9.05	-42.5	-47.6	15.1	0.00e+00	0	38	0	14680064	56	6530
2026-01-18 02:22:34.13	346.54	9.12	-42.4	-48.1	14.5	2.20e-06	0	38	0	17825792	56	6939
2026-01-18 02:22:36.13	346.22	9.18	-41.0	-44.9	17.4	0.00e+00	0	39	0	22020096	54	5383
2026-01-18 02:22:38.13	345.90	9.25	-41.1	-45.0	17.3	0.00e+00	0	39	0	26214400	54	5463
2026-01-18 02:22:40.13	345.58	9.32	-41.0	-45.1	17.3	0.00e+00	0	39	0	29360128	54	5472
2026-01-18 02:22:42.13	345.26	9.39	-41.1	-45.3	17.1	0.00e+00	0	39	0	33554432	54	5615
2026-01-18 02:22:44.14	344.94	9.45	-41.3	-45.2	17.2	0.00e+00	0	39	0	36700160	54	5531
2026-01-18 02:22:46.14	344.61	9.52	-41.4	-45.2	17.2	0.00e+00	0	39	0	40894464	54	5567
2026-01-18 02:22:48.14	344.29	9.58	-41.2	-45.1	17.3	0.00e+00	0	39	0	44040192	54	5497
2026-01-18 02:22:50.14	343.96	9.65	-41.1	-45.3	17.1	0.00e+00	0	39	0	48234496	54	5621
2026-01-18 02:22:52.15	343.63	9.71	-41.3	-45.6	16.8	0.00e+00	0	39	0	52428800	54	5795
2026-01-18 02:22:54.14	343.30	9.77	-41.5	-45.5	16.8	0.00e+00	0	39	0	55574528	54	5784
2026-01-18 02:22:56.14	342.97	9.83	-41.6	-45.4	16.9	0.00e+00	0	39	0	59768832	54	5717
2026-01-18 02:22:58.15	342.64	9.89	-41.5	-45.1	17.3	0.00e+00	0	39	0	62914560	54	5477
2026-01-18 02:23:00.15	342.30	9.95	-41.6	-45.1	17.2	0.00e+00	0	39	0	67108864	54	5471
2026-01-18 02:23:02.15	341.97	10.01	-41.6	-45.1	17.2	0.00e+00	0	39	0	70254592	54	5481
2026-01-18 02:23:04.15	341.63	10.07	-41.7	-44.9	17.3	0.00e+00	0	39	0	74448896	54	5401
2026-01-18 02:23:06.15	341.29	10.13	-41.7	-44.8	17.4	0.00e+00	0	39	0	78643200	54	5314
2026-01-18 02:23:08.16	340.95	10.18	-41.7	-44.7	17.6	0.00e+00	0	39	0	81788928	54	5222
2026-01-18 02:23:10.16	340.61	10.24	-41.8	-44.8	17.4	0.00e+00	0	39	0	85983232	54	5289
2026-01-18 02:23:12.16	340.26	10.29	-41.8	-44.8	17.4	0.00e+00	0	39	0	89128960	54	5319
2026-01-18 02:23:14.17	339.92	10.35	-41.9	-44.8	17.3	0.00e+00	0	39	0	93323264	54	5315
2026-01-18 02:23:16.18	339.57	10.40	-41.9	-44.7	17.4	0.00e+00	0	39	0	97517568	54	5256
2026-01-18 02:23:18.17	339.23	10.45	-41.8	-44.7	17.4	0.00e+00	0	39	0	100663296	54	5272
2026-01-18 02:23:20.18	338.88	10.51	-41.8	-44.9	17.3	0.00e+00	0	39	0	104857600	54	5368
2026-01-18 02:23:22.18	338.53	10.56	-41.9	-45.1	17.1	0.00e+00	0	39	0	108003328	54	5490
2026-01-18 02:23:24.18	338.18	10.60	-41.8	-44.8	17.4	0.00e+00	0	39	0	112197632	54	5305
2026-01-18 02:23:26.18	337.83	10.65	-41.8	-44.8	17.3	0.00e+00	0	39	0	115343360	54	5328
2026-01-18 02:23:28.18	337.48	10.70	-41.8	-44.8	17.3	0.00e+00	0	39	0	119537664	54	5334
2026-01-18 02:23:30.19	337.12	10.75	-41.7	-44.8	17.4	0.00e+00	0	39	0	123731968	54	5305
2026-01-18 02:23:32.18	336.77	10.79	-41.8	-45.0	17.2	0.00e+00	0	39	0	126877696	54	5441
2026-01-18 02:23:34.19	336.41	10.84	-41.9	-45.0	17.1	0.00e+00	0	39	0	131072000	54	5448
2026-01-18 02:23:36.20	336.05	10.88	-41.8	-44.9	17.2	0.00e+00	0	39	0	134217728	54	5397
2026-01-18 02:23:38.20	335.69	10.92	-41.9	-44.9	17.3	0.00e+00	0	39	0	138412032	54	5380
2026-01-18 02:23:40.20	335.33	10.97	-42.0	-44.9	17.3	0.00e+00	0	39	0	141557760	54	5362
2026-01-18 02:23:42.20	334.97	11.01	-42.3	-45.1	17.0	0.00e+00	0	39	0	145752064	55	5213
2026-01-18 02:23:44.20	334.61	11.05	-42.4	-45.4	16.8	0.00e+00	0	39	0	149946368	55	5363
2026-01-18 02:23:46.20	334.25	11.08	-42.4	-45.3	16.8	0.00e+00	0	39	0	153092096	55	5324
2026-01-18 02:23:48.20	333.89	11.12	-42.4	-45.3	16.8	0.00e+00	0	39	0	157286400	55	5333
2026-01-18 02:23:50.21	333.52	11.16	-42.5	-45.4	16.8	0.00e+00	0	39	0	160432128	55	5390
2026-01-18 02:23:52.21	333.16	11.19	-42.6	-45.5	16.6	0.00e+00	0	39	0	164626432	55	5461
2026-01-18 02:23:54.22	332.79	11.23	-42.8	-45.9	16.4	0.00e+00	0	39	0	168820736	56	5397
2026-01-18 02:23:56.22	332.42	11.26	-42.9	-46.0	16.3	0.00e+00	0	39	0	171966464	56	5444
2026-01-18 02:23:58.23	332.05	11.29	-42.7	-45.8	16.6	0.00e+00	0	39	0	176160768	56	5309
2026-01-18 02:24:00.23	331.68	11.32	-42.6	-45.6	16.8	0.00e+00	0	39	0	179306496	56	5172
2026-01-18 02:24:02.22	331.32	11.35	-42.5	-45.4	17.0	0.00e+00	0	39	0	183500800	56	5088
2026-01-18 02:24:04.23	330.95	11.38	-42.6	-45.4	16.9	0.00e+00	0	39	0	186646528	56	5080
2026-01-18 02:24:06.23	330.57	11.41	-42.5	-45.4	17.0	0.00e+00	0	39	0	190840832	56	5046
2026-01-18 02:24:08.23	330.20	11.44	-42.6	-45.5	16.9	0.00e+00	0	39	0	195035136	56	5131
2026-01-18 02:24:10.24	329.83	11.46	-42.4	-45.2	17.1	0.00e+00	0	39	0	198180864	56	4970
2026-01-18 02:24:12.24	329.46	11.49	-42.4	-45.2	17.2	0.00e+00	0	39	0	202375168	56	4950
2026-01-18 02:24:14.24	329.08	11.51	-42.2	-44.9	17.5	0.00e+00	0	39	0	205520896	56	4779
2026-01-18 02:24:16.25	328.71	11.53	-42.3	-45.1	17.2	0.00e+00	0	39	0	209715200	56	4874
2026-01-18 02:24:18.25	328.33	11.55	-42.3	-45.1	17.2	0.00e+00	0	39	0	212860928	56	4915
2026-01-18 02:24:20.26	327.96	11.57	-42.3	-45.1	17.3	0.00e+00	0	39	0	217055232	56	4887
2026-01-18 02:24:22.26	327.58	11.59	-42.4	-45.3	17.1	0.00e+00	0	39	0	221249536	56	5004
2026-01-18 02:24:24.27	327.20	11.61	-42.5	-45.4	17.0	0.00e+00	0	39	0	224395264	56	5067
2026-01-18 02:24:26.27	326.83	11.62	-42.1	-45.1	17.3	0.00e+00	0	39	0	228589568	56	4894
2026-01-18 02:24:28.27	326.45	11.64	-41.8	-44.8	17.4	0.00e+00	0	39	0	231735296	55	5007
2026-01-18 02:24:30.27	326.07	11.65	-41.7	-44.8	17.4	0.00e+00	0	39	0	235929600	55	5011
2026-01-18 02:24:32.27	325.70	11.66	-41.7	-44.7	17.5	0.00e+00	0	39	0	240123904	55	4966
2026-01-18 02:24:34.28	325.32	11.68	-41.7	-44.7	17.4	0.00e+00	0	39	0	243269632	55	4965
2026-01-18 02:24:36.28	324.94	11.69	-41.6	-44.6	17.6	0.00e+00	0	39	0	247463936	55	4872
2026-01-18 02:24:38.28	324.56	11.69	-41.5	-44.4	17.8	0.00e+00	0	39	0	250609664	55	4811
2026-01-18 02:24:40.29	324.18	11.70	-41.5	-44.4	17.8	0.00e+00	0	39	0	254803968	54	5060
2026-01-18 02:24:42.29	323.80	11.71	-41.4	-44.2	18.0	0.00e+00	0	39	0	258998272	54	4967
2026-01-18 02:24:44.30	323.42	11.71	-41.4	-44.2	18.0	0.00e+00	0	39	0	262144000	54	4949
2026-01-18 02:24:46.31	323.04	11.72	-41.7	-44.4	17.8	0.00e+00	0	39	0	266338304	54	5048
2026-01-18 02:24:48.31	322.66	11.72	-41.7	-44.3	17.9	0.00e+00	0	39	0	269484032	54	5019
2026-01-18 02:24:50.32	322.28	11.72	-41.8	-44.4	17.8	0.00e+00	0	39	0	273678336	54	5080
2026-01-18 02:24:52.32	321.90	11.72	-41.7	-44.4	17.8	0.00e+00	0	39	0	276824064	54	5061
2026-01-18 02:24:54.32	321.52	11.72	-41.5	-44.3	17.9	0.00e+00	0	39	0	281018368	54	5002
2026-01-18 02:24:56.32	321.14	11.72	-41.5	-44.2	18.0	0.00e+00	0	39	0	285212672	54	4964
2026-01-18 02:24:58.33	320.76	11.71	-41.7	-44.4	17.8	0.00e+00	0	39	0	288358400	54	5064
2026-01-18 02:25:00.33	320.38	11.71	-41.6	-44.4	17.8	0.00e+00	0	39	0	292552704	54	5058
2026-01-18 02:25:02.33	320.00	11.70	-41.7	-44.6	17.7	0.00e+00	0	39	0	295698432	54	5162
2026-01-18 02:25:04.33	319.62	11.70	-41.6	-44.4	17.8	0.00e+00	0	39	0	299892736	54	5073
2026-01-18 02:25:06.33	319.24	11.69	-41.6	-44.4	17.8	0.00e+00	0	39	0	304087040	54	5064
2026-01-18 02:25:08.34	318.86	11.68	-41.7	-44.4	17.8	0.00e+00	0	39	0	307232768	54	5054
2026-01-18 02:25:10.33	318.49	11.67	-41.7	-44.2	18.0	0.00e+00	0	39	0	311427072	54	4964
2026-01-18 02:25:12.33	318.11	11.66	-41.7	-44.2	17.9	0.00e+00	0	39	0	314572800	54	4983
2026-01-18 02:25:14.32	317.73	11.64	-41.9	-44.5	17.7	0.00e+00	0	39	0	318767104	54	5141
2026-01-18 02:25:16.33	317.36	11.63	-42.2	-44.9	17.2	0.00e+00	0	39	0	321912832	55	5080
2026-01-18 02:25:18.32	316.98	11.61	-42.4	-45.2	17.0	0.00e+00	0	39	0	326107136	55	5231
2026-01-18 02:25:20.32	316.60	11.60	-42.5	-45.4	16.8	0.00e+00	0	39	0	330301440	55	5366
2026-01-18 02:25:22.33	316.23	11.58	-42.6	-45.5	16.7	0.00e+00	0	39	0	333447168	55	5461
2026-01-18 02:25:24.33	315.85	11.56	-42.8	-45.7	16.7	0.00e+00	0	39	0	337641472	56	5235
2026-01-18 02:25:26.33	315.48	11.54	-42.8	-45.7	16.6	0.00e+00	0	39	0	340787200	56	5246
2026-01-18 02:25:28.33	315.10	11.52	-42.9	-45.8	16.6	0.00e+00	0	39	0	344981504	56	5324
2026-01-18 02:25:30.34	314.73	11.49	-42.9	-45.8	16.6	0.00e+00	0	39	0	348127232	56	5309
2026-01-18 02:25:32.34	314.35	11.47	-42.8	-45.8	16.6	0.00e+00	0	39	0	352321536	56	5288
2026-01-18 02:25:34.35	313.98	11.44	-42.8	-45.7	16.7	0.00e+00	0	39	0	356515840	56	5239
2026-01-18 02:25:36.35	313.61	11.42	-42.7	-45.7	16.7	0.00e+00	0	39	0	359661568	56	5241
2026-01-18 02:25:38.35	313.24	11.39	-42.7	-45.6	16.7	0.00e+00	0	39	0	363855872	56	5206
2026-01-18 02:25:40.35	312.87	11.36	-42.8	-45.7	16.6	0.00e+00	0	39	0	367001600	56	5264
2026-01-18 02:25:42.35	312.50	11.33	-42.9	-45.9	16.5	0.00e+00	0	39	0	371195904	56	5367
2026-01-18 02:25:44.36	312.12	11.30	-43.0	-46.1	16.2	0.00e+00	0	39	0	374341632	56	5516
2026-01-18 02:25:46.36	311.76	11.27	-43.1	-46.3	16.1	0.00e+00	0	39	0	378535936	56	5599
2026-01-18 02:25:48.35	311.39	11.24	-43.1	-46.2	16.1	0.00e+00	0	39	0	382730240	57	5249
2026-01-18 02:25:50.36	311.02	11.20	-43.0	-46.0	16.3	0.00e+00	0	39	0	385875968	57	5142
2026-01-18 02:25:52.36	310.66	11.17	-42.8	-45.8	16.6	0.00e+00	0	39	0	390070272	57	5007
2026-01-18 02:25:54.36	310.29	11.13	-42.8	-45.8	16.6	0.00e+00	0	39	0	393216000	57	4990
2026-01-18 02:25:56.36	309.93	11.10	-42.9	-45.9	16.4	0.00e+00	0	39	0	397410304	57	5090
2026-01-18 02:25:58.37	309.56	11.06	-43.0	-46.0	16.3	0.00e+00	0	39	0	401604608	57	5155
2026-01-18 02:26:00.37	309.20	11.02	-43.1	-46.2	16.1	0.00e+00	0	39	0	404750336	57	5261
2026-01-18 02:26:02.37	308.84	10.98	-43.2	-46.4	16.0	0.00e+00	0	39	0	408944640	57	5355
2026-01-18 02:26:04.38	308.48	10.94	-43.3	-46.5	15.9	0.00e+00	0	39	0	412090368	57	5407
2026-01-18 02:26:06.39	308.12	10.89	-43.2	-46.5	15.9	0.00e+00	0	39	0	416284672	57	5421
2026-01-18 02:26:08.39	307.76	10.85	-43.3	-46.5	15.9	0.00e+00	0	39	0	419430400	57	5419
2026-01-18 02:26:10.40	307.40	10.81	-43.3	-46.5	15.9	0.00e+00	0	39	0	423624704	57	5418
2026-01-18 02:26:12.40	307.04	10.76	-43.2	-46.2	16.2	0.00e+00	0	39	0	427819008	57	5238
2026-01-18 02:26:14.40	306.69	10.71	-43.1	-46.1	16.2	0.00e+00	0	39	0	430964736	57	5196
2026-01-18 02:26:16.41	306.33	10.67	-43.2	-46.2	16.2	0.00e+00	0	39	0	435159040	57	5224
2026-01-18 02:26:18.41	305.98	10.62	-43.3	-46.4	16.0	0.00e+00	0	39	0	438304768	57	5371
2026-01-18 02:26:20.40	305.63	10.57	-43.4	-46.5	15.8	0.00e+00	0	39	0	442499072	57	5429
2026-01-18 02:26:22.40	305.28	10.52	-43.5	-46.7	15.6	0.00e+00	0	39	0	445644800	57	5549
2026-01-18 02:26:24.41	304.93	10.47	-43.5	-46.7	15.6	0.00e+00	0	39	0	449839104	57	5545
2026-01-18 02:26:26.41	304.58	10.42	-43.6	-46.7	15.6	0.00e+00	0	39	0	454033408	57	5577
2026-01-18 02:26:28.41	304.24	10.36	-43.1	-46.1	16.2	0.00e+00	0	39	0	457179136	57	5174
2026-01-18 02:26:30.42	303.89	10.31	-43.1	-46.0	16.3	0.00e+00	0	39	0	461373440	57	5133
2026-01-18 02:26:32.42	303.55	10.25	-43.1	-46.2	16.2	0.00e+00	0	39	0	464519168	57	5235
2026-01-18 02:26:34.42	303.20	10.20	-43.3	-46.4	15.9	0.00e+00	0	39	0	468713472	57	5362
2026-01-18 02:26:36.43	302.86	10.14	-43.4	-46.7	15.7	0.00e+00	0	39	0	472907776	57	5532
2026-01-18 02:26:38.43	302.52	10.09	-43.4	-46.6	15.7	0.00e+00	0	39	0	476053504	57	5502
2026-01-18 02:26:40.43	302.18	10.03	-43.3	-46.5	15.8	0.00e+00	0	39	0	480247808	57	5441
2026-01-18 02:26:42.44	301.84	9.97	-43.2	-46.3	16.0	0.00e+00	0	39	0	483393536	57	5315
2026-01-18 02:26:44.45	301.51	9.91	-43.2	-46.3	16.0	0.00e+00	0	39	0	487587840	57	5288
2026-01-18 02:26:46.45	301.17	9.85	-43.0	-45.9	16.4	0.00e+00	0	39	0	491782144	57	5057
2026-01-18 02:26:48.45	300.84	9.79	-42.9	-45.8	16.5	0.00e+00	0	39	0	494927872	57	5006
2026-01-18 02:26:50.45	300.51	9.72	-42.9	-45.8	16.5	0.00e+00	0	39	0	499122176	57	4993
2026-01-18 02:26:52.46	300.18	9.66	-42.9	-45.8	16.5	0.00e+00	0	39	0	502267904	57	4992
2026-01-18 02:26:54.46	299.85	9.60	-43.0	-46.0	16.3	0.00e+00	0	39	0	506462208	57	5117
2026-01-18 02:26:56.46	299.52	9.53	-43.1	-46.0	16.3	0.00e+00	0	39	0	509607936	57	5142
2026-01-18 02:26:58.46	299.20	9.47	-43.1	-46.1	16.2	0.00e+00	0	39	0	513802240	57	5169
2026-01-18 02:27:00.46	298.87	9.40	-43.0	-45.9	16.4	0.00e+00	0	39	0	517996544	57	5065
2026-01-18 02:27:02.46	298.55	9.34	-42.8	-45.7	16.6	0.00e+00	0	39	0	521142272	57	4952
2026-01-18 02:27:04.46	298.23	9.27	-43.0	-45.9	16.4	0.00e+00	0	39	0	525336576	57	5084
2026-01-18 02:27:06.47	297.91	9.20	-43.1	-46.0	16.2	0.00e+00	0	39	0	528482304	57	5131
2026-01-18 02:27:08.47	297.59	9.13	-43.0	-46.0	16.2	0.00e+00	0	39	0	532676608	57	5136
2026-01-18 02:27:10.47	297.27	9.06	-43.1	-46.1	16.1	0.00e+00	0	39	0	536870912	57	5210
2026-01-18 02:27:12.47	296.95	8.99	-43.2	-46.2	16.0	0.00e+00	0	39	0	540016640	57	5274
2026-01-18 02:27:14.47	296.64	8.92	-48.6	-63.7	3.8	1.49e+00	0	39	104	541065216	67	22099
2026-01-18 02:27:16.46	296.33	8.85	-48.7	-64.1	3.8	1.49e+00	0	39	104	541065216	68	21855
2026-01-18 02:27:18.45	296.02	8.78	-49.0	-64.2	3.8	1.49e+00	0	39	104	541065216	68	22195
2026-01-18 02:27:20.44	295.71	8.71	-48.9	-64.2	3.8	1.49e+00	0	39	104	541065216	68	22245
2026-01-18 02:27:22.44	295.41	8.64	-48.9	-64.3	3.8	1.49e+00	0	39	104	541065216	68	22376
2026-01-18 02:27:24.43	295.10	8.57	-49.1	-64.3	3.8	1.49e+00	0	39	104	541065216	68	22400
2026-01-18 02:27:26.42	294.80	8.49	-49.0	-64.3	3.8	1.49e+00	0	39	104	541065216	68	22495
2026-01-18 02:27:28.42	294.50	8.42	-49.1	-64.3	3.8	1.49e+00	0	39	104	541065216	68	22439
2026-01-18 02:27:30.41	294.20	8.34	-49.0	-64.3	3.8	1.49e+00	0	39	104	541065216	68	22516
2026-01-18 02:27:32.40	293.90	8.27	-48.9	-64.3	3.8	1.49e+00	0	39	104	541065216	68	22330
2026-01-18 02:27:34.39	293.60	8.19	-48.7	-64.2	3.8	1.49e+00	0	39	104	541065216	68	22234
2026-01-18 02:27:36.39	293.30	8.12	-48.7	-64.2	3.8	1.49e+00	0	39	104	541065216	68	22195
2026-01-18 02:27:38.38	293.01	8.04	-48.7	-64.2	3.8	1.49e+00	0	39	104	541065216	68	22153
2026-01-18 02:27:40.38	292.72	7.96	-48.7	-64.2	3.8	1.49e+00	0	39	104	541065216	68	22158
2026-01-18 02:27:42.37	292.43	7.89	-48.7	-64.2	3.8	1.49e+00	0	39	104	541065216	68	22149
2026-01-18 02:27:44.36	292.14	7.81	-48.7	-64.2	3.8	1.49e+00	0	39	104	541065216	68	22117
2026-01-18 02:27:46.35	291.85	7.73	-48.7	-64.2	3.8	1.49e+00	0	39	104	541065216	68	22037
2026-01-18 02:27:48.35	291.56	7.65	-48.7	-64.2	3.8	1.49e+00	0	39	104	541065216	68	22118
2026-01-18 02:27:50.34	291.28	7.57	-48.7	-64.2	3.8	1.49e+00	0	39	104	541065216	68	22142
2026-01-18 02:27:52.33	291.00	7.49	-48.7	-64.2	3.8	1.49e+00	0	39	104	541065216	68	22137
2026-01-18 02:27:54.32	290.71	7.41	-48.7	-64.2	3.8	1.49e+00	0	39	104	541065216	68	22099
2026-01-18 02:27:56.32	290.43	7.33	-48.7	-64.2	3.8	1.49e+00	0	39	104	541065216	68	22023
2026-01-18 02:27:58.31	290.16	7.25	-48.7	-64.2	3.8	1.49e+00	0	39	104	541065216	68	22052
2026-01-18 02:28:00.30	289.88	7.17	-48.7	-64.2	3.8	1.49e+00	0	39	104	541065216	68	22114
2026-01-18 02:28:02.30	289.60	7.09	-48.7	-64.2	3.8	1.49e+00	0	39	104	541065216	68	22119
2026-01-18 02:28:04.29	289.33	7.01	-48.7	-64.2	3.8	1.49e+00	0	39	104	541065216	68	22073
2026-01-18 02:28:06.28	289.06	6.92	-48.7	-64.2	3.8	1.49e+00	0	39	104	541065216	68	22049
2026-01-18 02:28:08.28	288.79	6.84	-48.7	-64.2	3.8	1.49e+00	0	39	104	541065216	68	22085
2026-01-18 02:28:10.27	288.52	6.76	-48.7	-64.2	3.8	1.49e+00	0	39	104	541065216	68	22108
2026-01-18 02:28:12.26	288.25	6.67	-48.7	-64.2	3.8	1.49e+00	0	39	104	541065216	68	22060
2026-01-18 02:28:14.25	287.98	6.59	-48.7	-64.2	3.8	1.49e+00	0	39	104	541065216	68	22050
2026-01-18 02:28:16.24	287.72	6.51	-48.7	-64.2	3.8	1.49e+00	0	39	104	541065216	68	22018
2026-01-18 02:28:18.24	287.46	6.42	-48.7	-64.2	3.8	1.49e+00	0	39	104	541065216	68	22030
2026-01-18 02:28:20.23	287.20	6.34	-48.7	-64.2	3.8	1.49e+00	0	39	104	541065216	68	22050
2026-01-18 02:28:22.22	286.94	6.25	-48.7	-64.2	3.8	1.49e+00	0	39	104	541065216	68	22098
2026-01-18 02:28:24.21	286.68	6.17	-48.7	-64.2	3.8	1.49e+00	0	39	104	541065216	68	22017
2026-01-18 02:28:26.20	286.42	6.08	-48.7	-64.2	3.8	1.49e+00	0	39	104	541065216	68	22023
2026-01-18 02:28:28.19	286.17	6.00	-48.6	-64.1	3.8	1.49e+00	0	39	104	541065216	68	21990
2026-01-18 02:28:30.19	285.91	5.91	-48.6	-64.1	3.8	1.49e+00	0	39	104	541065216	68	22005
2026-01-18 02:28:32.18	285.66	5.83	-48.7	-64.1	3.8	1.49e+00	0	39	104	541065216	68	21955
2026-01-18 02:28:34.17	285.41	5.74	-48.6	-64.1	3.8	1.49e+00	0	39	104	541065216	68	21949
2026-01-18 02:28:36.16	285.16	5.65	-48.6	-64.1	3.8	1.49e+00	0	39	104	541065216	68	21954
2026-01-18 02:28:38.15	284.91	5.57	-48.6	-64.2	3.8	1.49e+00	0	39	104	541065216	68	22009
2026-01-18 02:28:40.15	284.67	5.48	-48.7	-64.1	3.8	1.49e+00	0	39	104	541065216	68	21948
2026-01-18 02:28:42.14	284.42	5.39	-48.6	-64.1	3.8	1.49e+00	0	39	104	541065216	68	21946
2026-01-18 02:28:44.13	284.18	5.31	-48.6	-64.1	3.8	1.49e+00	0	39	104	541065216	68	21979
2026-01-18 02:28:46.12	283.94	5.22	-48.6	-64.1	3.8	1.49e+00	0	39	104	541065216	68	21897
2026-01-18 02:28:48.11	283.70	5.13	-48.6	-64.1	3.8	1.49e+00	0	39	104	541065216	68	21939
2026-01-18 02:28:50.10	283.46	5.04	-48.6	-64.1	3.8	1.49e+00	0	39	104	541065216	68	21958

#Closed at: 2026-01-18 02:28:52
#Recorded file [541 MB]: D:/Data/31040_260118_052052.dat