passes_logs/2026/01/18/T1/T1__20260118_010313_AQUA_rec.log

#Pass ID: 20260118_010313_AQUA
#Satellite: AQUA
#Configuration: AQUA
#almurnet v.1.7.20251203
#Start time: 2026-01-18 01:03:13

#Version: 2.0.20230620
#Station: T1
#Location: 37.570604 lon 55.790049 lat
#TLE: 1 27424U 02022A   26017.29152041  .00000842  00000+0  17841-3 0  9992
#TLE: 2 27424  98.4085 343.7574 0002011  75.4099  30.6811 14.61825797261228

#Time	Az	El	Level	Level2	SNR	BER	BlckErr	Temp	State	Recorded	gain1	gain2
2026-01-18 01:03:13.62	18.76	5.01	-47.0	-71.1	3.8	7.46e-01	0	41	0	0	66	55031
2026-01-18 01:03:16.61	18.84	5.23	-47.0	-70.6	3.8	7.46e-01	0	41	104	0	64	58275
2026-01-18 01:03:19.60	18.92	5.45	-47.0	-70.2	3.8	7.44e-01	0	41	104	0	64	55745
2026-01-18 01:03:22.60	18.99	5.68	-47.1	-70.3	3.8	7.47e-01	0	41	104	0	64	56250
2026-01-18 01:03:25.59	19.07	5.91	-47.0	-70.6	3.8	7.45e-01	0	41	104	0	64	57969
2026-01-18 01:03:28.58	19.16	6.14	-47.0	-70.9	3.8	7.48e-01	0	41	104	0	64	60140
2026-01-18 01:03:31.58	19.24	6.37	-47.0	-71.1	3.8	7.45e-01	0	42	104	0	64	61715
2026-01-18 01:03:34.57	19.32	6.60	-47.0	-70.4	3.8	7.47e-01	0	42	104	0	64	57131
2026-01-18 01:03:37.56	19.41	6.84	-47.0	-68.8	4.0	7.47e-01	0	41	104	0	64	47442
2026-01-18 01:03:40.54	19.49	7.08	-47.0	-66.3	4.7	7.22e-01	0	42	104	0	64	35621
2026-01-18 01:03:43.54	19.58	7.32	-47.0	-64.7	5.5	6.94e-01	0	42	0	0	64	29536
2026-01-18 01:03:46.54	19.67	7.57	-46.9	-63.7	6.3	6.75e-01	0	42	0	4718592	64	26234
2026-01-18 01:03:49.53	19.76	7.82	-46.9	-63.4	6.5	6.75e-01	0	42	0	10485760	64	25548
2026-01-18 01:03:52.53	19.85	8.07	-46.9	-62.9	7.0	6.67e-01	0	42	0	15728640	64	24014
2026-01-18 01:03:55.52	19.94	8.32	-46.8	-60.8	9.0	6.31e-01	0	42	0	21495808	64	18740
2026-01-18 01:03:58.51	20.04	8.57	-46.5	-57.3	12.6	6.06e-01	0	42	0	27262976	64	12541
2026-01-18 01:04:01.50	20.13	8.83	-46.0	-54.1	15.9	6.02e-01	0	42	0	32505856	63	9276
2026-01-18 01:04:04.49	20.23	9.09	-45.2	-51.6	18.2	6.01e-01	0	42	0	38273024	62	7358
2026-01-18 01:04:07.48	20.33	9.36	-46.6	-57.2	13.1	6.06e-01	0	43	0	44040192	63	13128
2026-01-18 01:04:10.47	20.43	9.63	-43.9	-47.9	22.0	6.01e-01	0	42	0	49807360	59	5716
2026-01-18 01:04:13.47	20.54	9.90	-43.9	-47.6	22.3	6.02e-01	0	43	0	55050240	59	5487
2026-01-18 01:04:16.46	20.64	10.17	-43.8	-47.5	22.4	6.02e-01	0	42	0	60817408	59	5443
2026-01-18 01:04:19.45	20.75	10.45	-43.5	-47.3	22.6	6.01e-01	0	43	0	66584576	59	5335
2026-01-18 01:04:22.45	20.86	10.73	-43.3	-47.1	22.9	6.01e-01	0	43	0	71827456	58	5502
2026-01-18 01:04:25.45	20.97	11.02	-43.5	-47.1	22.8	5.99e-01	0	43	0	77594624	58	5525
2026-01-18 01:04:28.43	21.08	11.30	-43.7	-47.0	23.0	6.01e-01	0	43	0	83361792	58	5448
2026-01-18 01:04:31.42	21.19	11.59	-43.7	-46.8	23.1	6.02e-01	0	43	0	89128960	58	5323
2026-01-18 01:04:34.42	21.31	11.89	-43.6	-46.7	23.2	6.02e-01	0	43	0	94371840	58	5261
2026-01-18 01:04:37.40	21.43	12.19	-43.8	-46.9	23.1	6.05e-01	0	43	0	100139008	58	5356
2026-01-18 01:04:40.39	21.55	12.49	-44.1	-47.1	22.8	6.02e-01	0	43	0	105906176	58	5472
2026-01-18 01:04:43.38	21.68	12.80	-44.2	-47.1	22.9	6.03e-01	0	43	0	111149056	59	5208
2026-01-18 01:04:46.37	21.80	13.11	-44.0	-46.9	23.1	6.04e-01	0	43	0	116916224	59	5042
2026-01-18 01:04:49.37	21.93	13.43	-44.0	-46.6	23.3	6.00e-01	0	43	0	122683392	59	4926
2026-01-18 01:04:52.37	22.07	13.75	-44.0	-46.6	23.4	6.03e-01	0	43	0	127926272	59	4889
2026-01-18 01:04:55.36	22.20	14.08	-43.9	-46.5	23.5	6.03e-01	0	43	0	133693440	59	4818
2026-01-18 01:04:58.36	22.34	14.41	-43.8	-46.4	23.6	6.00e-01	0	43	0	139460608	59	4796
2026-01-18 01:05:01.35	22.48	14.74	-43.9	-46.6	23.4	6.00e-01	0	43	0	144703488	59	4892
2026-01-18 01:05:04.35	22.62	15.09	-44.0	-46.8	23.3	6.02e-01	0	43	0	150470656	59	5006
2026-01-18 01:05:07.34	22.77	15.43	-43.9	-46.7	23.4	6.02e-01	0	43	0	156237824	59	4941
2026-01-18 01:05:10.33	22.92	15.78	-43.7	-46.5	23.5	6.00e-01	0	43	0	162004992	59	4844
2026-01-18 01:05:13.32	23.08	16.14	-43.6	-46.4	23.6	5.99e-01	0	43	0	167247872	59	4760
2026-01-18 01:05:16.32	23.24	16.50	-43.7	-46.5	23.5	5.98e-01	0	43	0	173015040	59	4821
2026-01-18 01:05:19.31	23.40	16.87	-43.7	-46.5	23.5	6.04e-01	0	43	0	178782208	59	4841
2026-01-18 01:05:22.30	23.56	17.25	-43.8	-46.5	23.5	6.00e-01	0	43	0	184025088	59	4824
2026-01-18 01:05:25.29	23.73	17.63	-43.8	-46.4	23.5	6.00e-01	0	43	0	189792256	59	4784
2026-01-18 01:05:28.29	23.91	18.01	-43.8	-46.4	23.7	6.01e-01	0	43	0	195559424	59	4764
2026-01-18 01:05:31.28	24.09	18.41	-43.7	-46.3	23.8	6.03e-01	0	43	0	201326592	59	4730
2026-01-18 01:05:34.27	24.27	18.81	-43.6	-46.2	23.8	6.02e-01	0	43	0	206569472	58	4956
2026-01-18 01:05:37.26	24.46	19.22	-43.5	-46.3	23.8	6.02e-01	0	43	0	212336640	58	5001
2026-01-18 01:05:40.26	24.65	19.63	-43.5	-46.3	23.7	6.01e-01	0	43	0	218103808	58	5029
2026-01-18 01:05:43.25	24.85	20.05	-43.4	-46.2	23.8	6.00e-01	0	43	0	223346688	58	4959
2026-01-18 01:05:46.25	25.05	20.49	-43.3	-46.1	23.9	5.99e-01	0	43	0	229113856	58	4885
2026-01-18 01:05:49.24	25.26	20.92	-43.3	-46.1	23.9	6.04e-01	0	43	0	234881024	58	4888
2026-01-18 01:05:52.24	25.48	21.37	-43.4	-46.5	23.6	6.03e-01	0	43	0	240123904	58	5104
2026-01-18 01:05:55.23	25.70	21.82	-43.5	-46.5	23.6	6.02e-01	0	43	0	245891072	58	5107
2026-01-18 01:05:58.23	25.93	22.29	-43.6	-46.4	23.6	6.01e-01	0	43	0	251658240	58	5088
2026-01-18 01:06:01.22	26.17	22.76	-43.6	-46.5	23.5	6.01e-01	0	43	0	257425408	58	5147
2026-01-18 01:06:04.21	26.41	23.24	-43.7	-46.5	23.6	6.03e-01	0	43	0	262668288	58	5154
2026-01-18 01:06:07.20	26.66	23.73	-44.0	-46.7	23.4	6.03e-01	0	43	0	268435456	58	5266
2026-01-18 01:06:10.19	26.92	24.23	-43.9	-46.5	23.7	6.00e-01	0	43	0	274202624	58	5121
2026-01-18 01:06:13.19	27.19	24.75	-43.9	-46.4	23.7	6.02e-01	0	43	0	279445504	58	5091
2026-01-18 01:06:16.18	27.47	25.27	-44.2	-46.8	23.3	6.01e-01	0	43	0	285212672	59	5038
2026-01-18 01:06:19.18	27.75	25.80	-43.9	-46.5	23.6	6.01e-01	0	43	0	290979840	59	4855
2026-01-18 01:06:22.17	28.05	26.34	-43.9	-46.4	23.7	6.02e-01	0	43	0	296222720	59	4791
2026-01-18 01:06:25.16	28.35	26.90	-44.0	-46.5	23.6	6.04e-01	0	43	0	301989888	59	4846
2026-01-18 01:06:28.14	28.67	27.46	-43.6	-46.1	23.9	6.02e-01	0	43	0	307757056	59	4650
2026-01-18 01:06:31.14	29.00	28.04	-43.4	-46.0	24.1	6.04e-01	0	43	0	313524224	58	4836
2026-01-18 01:06:34.13	29.34	28.63	-43.7	-46.3	23.8	6.01e-01	0	43	0	318767104	58	5002
2026-01-18 01:06:37.13	29.69	29.24	-43.6	-46.0	24.0	6.02e-01	0	43	0	324534272	58	4865
2026-01-18 01:06:40.12	30.06	29.85	-43.4	-45.9	24.1	6.00e-01	0	43	0	330301440	58	4809
2026-01-18 01:06:43.11	30.44	30.48	-43.5	-46.0	24.0	6.02e-01	0	43	0	335544320	58	4832
2026-01-18 01:06:46.10	30.84	31.13	-43.5	-46.0	23.9	6.02e-01	0	43	0	341311488	58	4844
2026-01-18 01:06:49.10	31.25	31.79	-43.7	-46.2	23.9	6.03e-01	0	43	0	347078656	58	4973
2026-01-18 01:06:52.09	31.68	32.46	-43.8	-46.2	23.9	6.02e-01	0	43	0	352845824	58	4977
2026-01-18 01:06:55.07	32.13	33.14	-43.8	-46.4	23.8	6.04e-01	0	43	0	358088704	58	5052
2026-01-18 01:06:58.07	32.60	33.85	-43.8	-46.6	23.6	6.02e-01	0	43	0	363855872	58	5202
2026-01-18 01:07:01.06	33.09	34.56	-44.1	-46.8	23.4	6.04e-01	0	43	0	369623040	58	5284
2026-01-18 01:07:04.06	33.60	35.30	-44.4	-47.4	23.0	6.02e-01	0	43	0	374865920	59	5345
2026-01-18 01:07:07.05	34.14	36.05	-44.4	-47.5	22.9	6.02e-01	0	43	0	380633088	59	5423
2026-01-18 01:07:10.05	34.70	36.82	-44.5	-47.5	22.7	6.01e-01	0	43	0	386400256	60	5151
2026-01-18 01:07:13.04	35.29	37.60	-44.9	-47.8	22.4	6.00e-01	0	43	0	391643136	60	5327
2026-01-18 01:07:16.03	35.91	38.39	-44.8	-47.9	22.4	6.01e-01	0	43	0	397410304	60	5396
2026-01-18 01:07:19.02	36.56	39.21	-44.8	-47.7	22.6	6.01e-01	0	43	0	403177472	60	5257
2026-01-18 01:07:22.01	37.24	40.04	-44.9	-47.6	22.6	6.03e-01	0	43	0	408420352	60	5189
2026-01-18 01:07:25.01	37.96	40.89	-44.6	-47.2	23.0	6.00e-01	0	43	0	414187520	60	4947
2026-01-18 01:07:28.00	38.72	41.76	-44.1	-46.7	23.5	6.02e-01	0	43	0	419954688	60	4661
2026-01-18 01:07:30.99	39.52	42.64	-44.0	-46.4	23.8	6.04e-01	0	43	0	425721856	59	4805
2026-01-18 01:07:33.98	40.37	43.53	-43.8	-46.2	23.8	6.01e-01	0	43	0	430964736	59	4691
2026-01-18 01:07:36.97	41.26	44.45	-43.6	-46.0	24.1	6.00e-01	0	43	0	436731904	59	4564
2026-01-18 01:07:39.96	42.21	45.37	-43.2	-45.5	24.5	6.01e-01	0	43	0	442499072	58	4579
2026-01-18 01:07:42.95	43.22	46.31	-43.2	-45.6	24.5	6.02e-01	0	43	0	447741952	58	4614
2026-01-18 01:07:45.94	44.29	47.27	-43.2	-45.6	24.5	6.03e-01	0	43	0	453509120	58	4610
2026-01-18 01:07:48.94	45.43	48.24	-43.2	-45.6	24.5	6.05e-01	0	43	0	459276288	58	4614
2026-01-18 01:07:51.93	46.64	49.21	-43.3	-45.7	24.4	6.00e-01	0	43	0	465043456	58	4672
2026-01-18 01:07:54.92	47.94	50.20	-43.3	-45.6	24.4	6.02e-01	0	43	0	470286336	58	4635
2026-01-18 01:07:57.92	49.32	51.19	-43.3	-45.6	24.5	5.99e-01	0	43	0	476053504	58	4619
2026-01-18 01:08:00.91	50.80	52.19	-43.4	-45.8	24.4	5.99e-01	0	43	0	481820672	58	4707
2026-01-18 01:08:03.90	52.37	53.19	-43.2	-45.6	24.5	6.02e-01	0	43	0	487063552	57	4873
2026-01-18 01:08:06.90	54.07	54.18	-43.3	-45.6	24.5	6.03e-01	0	43	0	492830720	57	4884
2026-01-18 01:08:09.89	55.88	55.17	-43.4	-45.7	24.4	6.01e-01	0	43	0	498597888	57	4946
2026-01-18 01:08:12.89	57.83	56.15	-43.8	-46.3	23.9	6.01e-01	0	43	0	503840768	58	4994
2026-01-18 01:08:15.88	59.91	57.11	-44.4	-46.9	23.3	6.03e-01	0	43	0	509607936	59	5100
2026-01-18 01:08:18.87	62.15	58.05	-44.7	-47.4	22.9	6.02e-01	0	43	0	515375104	60	5058
2026-01-18 01:08:21.87	64.55	58.97	-45.1	-47.8	22.1	6.01e-01	0	43	0	521142272	61	5023
2026-01-18 01:08:24.86	67.11	59.84	-45.3	-48.0	22.3	6.02e-01	0	43	0	526385152	61	5145
2026-01-18 01:08:27.85	69.85	60.68	-45.5	-48.3	22.1	6.01e-01	0	43	0	532152320	61	5329
2026-01-18 01:08:30.84	72.77	61.46	-46.0	-49.0	21.4	5.99e-01	0	43	0	537919488	62	5463
2026-01-18 01:08:33.83	75.87	62.19	-46.2	-49.3	21.2	6.02e-01	0	43	0	543162368	63	5300
2026-01-18 01:08:36.82	79.16	62.85	-46.4	-49.5	20.9	6.00e-01	0	43	0	548929536	64	5141
2026-01-18 01:08:39.81	82.62	63.43	-46.4	-49.8	20.6	6.03e-01	0	43	0	554696704	64	5321
2026-01-18 01:08:42.80	86.24	63.93	-46.2	-49.7	20.6	6.01e-01	0	43	0	559939584	64	5270
2026-01-18 01:08:45.79	90.01	64.34	-46.6	-50.0	20.4	6.02e-01	0	43	0	565706752	64	5410
2026-01-18 01:08:48.78	93.90	64.64	-46.7	-50.4	20.3	6.00e-01	0	43	0	571473920	64	5670
2026-01-18 01:08:51.78	97.89	64.84	-46.4	-49.7	20.8	6.02e-01	0	43	0	577241088	64	5232
2026-01-18 01:08:54.78	101.93	64.93	-46.1	-49.3	21.2	6.00e-01	0	44	0	582483968	64	4998
2026-01-18 01:08:57.77	105.97	64.91	-46.5	-49.8	20.7	6.03e-01	0	43	0	588251136	63	5632
2026-01-18 01:09:00.76	109.98	64.78	-46.1	-49.1	21.3	6.01e-01	0	43	0	594018304	64	4912
2026-01-18 01:09:03.75	113.93	64.54	-45.8	-48.7	21.7	6.03e-01	0	43	0	599261184	63	4978
2026-01-18 01:09:06.74	117.79	64.20	-45.9	-49.0	21.5	6.01e-01	0	43	0	605028352	62	5426
2026-01-18 01:09:09.73	121.51	63.76	-45.9	-49.1	21.5	6.01e-01	0	43	0	610795520	62	5478
2026-01-18 01:09:12.73	125.09	63.23	-45.6	-48.5	21.9	6.02e-01	0	43	0	616562688	63	4831
2026-01-18 01:09:15.71	128.48	62.62	-45.0	-47.7	22.6	6.03e-01	0	43	0	621805568	62	4699
2026-01-18 01:09:18.71	131.72	61.93	-44.9	-47.7	22.7	5.99e-01	0	43	0	627572736	61	4938
2026-01-18 01:09:21.71	134.77	61.18	-44.6	-47.3	23.0	6.03e-01	0	43	0	633339904	61	4715
2026-01-18 01:09:24.70	137.63	60.38	-44.1	-46.7	23.5	6.02e-01	0	43	0	638582784	60	4661
2026-01-18 01:09:27.70	140.32	59.52	-44.5	-47.4	23.0	6.00e-01	0	43	0	644349952	60	5059
2026-01-18 01:09:30.69	142.82	58.63	-44.4	-47.0	23.3	6.03e-01	0	44	0	650117120	60	4819
2026-01-18 01:09:33.68	145.16	57.70	-43.9	-46.4	23.9	6.02e-01	0	44	0	655360000	59	4775
2026-01-18 01:09:36.67	147.34	56.75	-44.3	-46.9	23.4	6.04e-01	0	43	0	661127168	59	5081
2026-01-18 01:09:39.66	149.37	55.78	-43.5	-45.9	24.3	6.02e-01	0	43	0	666894336	59	4514
2026-01-18 01:09:42.66	151.28	54.79	-43.6	-46.0	24.2	6.01e-01	0	43	0	672137216	59	4549
2026-01-18 01:09:45.65	153.04	53.80	-43.3	-45.6	24.6	6.01e-01	0	43	0	677904384	58	4637
2026-01-18 01:09:48.64	154.70	52.80	-43.6	-45.9	24.3	6.05e-01	0	44	0	683671552	58	4799
2026-01-18 01:09:51.63	156.24	51.80	-43.8	-46.2	24.1	6.02e-01	0	43	0	689438720	58	4942
2026-01-18 01:09:54.63	157.68	50.80	-43.8	-46.2	24.0	6.03e-01	0	43	0	694681600	58	4969
2026-01-18 01:09:57.62	159.03	49.80	-43.9	-46.3	24.0	6.04e-01	0	43	0	700448768	59	4719
2026-01-18 01:10:00.61	160.30	48.82	-44.1	-46.6	23.8	6.01e-01	0	43	0	706215936	59	4881
2026-01-18 01:10:03.60	161.48	47.84	-44.2	-46.7	23.6	6.02e-01	0	43	0	711458816	59	4964
2026-01-18 01:10:06.60	162.60	46.87	-44.3	-46.8	23.4	6.01e-01	0	43	0	717225984	59	5030
2026-01-18 01:10:09.59	163.65	45.92	-44.1	-46.6	23.6	6.01e-01	0	43	0	722993152	59	4912
2026-01-18 01:10:12.58	164.64	44.98	-44.1	-46.7	23.7	6.04e-01	0	43	0	728760320	59	4934
2026-01-18 01:10:15.57	165.57	44.05	-44.2	-46.7	23.6	6.01e-01	0	43	0	734003200	59	4928
2026-01-18 01:10:18.56	166.44	43.14	-44.3	-46.8	23.5	6.03e-01	0	44	0	739770368	59	5012
2026-01-18 01:10:21.56	167.28	42.24	-44.5	-47.1	23.2	6.04e-01	0	44	0	745537536	59	5179
2026-01-18 01:10:24.55	168.06	41.36	-44.2	-46.7	23.5	6.01e-01	0	44	0	750780416	60	4681
2026-01-18 01:10:27.54	168.81	40.50	-44.5	-47.2	23.0	6.02e-01	0	43	0	756547584	60	4940
2026-01-18 01:10:30.53	169.51	39.66	-44.5	-47.1	23.1	6.01e-01	0	43	0	762314752	60	4918
2026-01-18 01:10:33.52	170.18	38.83	-44.8	-47.5	22.7	6.04e-01	0	43	0	767557632	60	5152
2026-01-18 01:10:36.52	170.82	38.01	-44.5	-47.2	23.0	6.01e-01	0	43	0	773324800	60	4934
2026-01-18 01:10:39.52	171.43	37.21	-44.1	-46.7	23.4	5.99e-01	0	43	0	779091968	60	4681
2026-01-18 01:10:42.51	172.01	36.43	-44.0	-46.5	23.6	6.03e-01	0	43	0	784859136	60	4567
2026-01-18 01:10:45.50	172.56	35.67	-44.0	-46.5	23.6	6.04e-01	0	44	0	790102016	59	4847
2026-01-18 01:10:48.49	173.09	34.93	-43.4	-45.8	24.3	6.01e-01	0	44	0	795869184	58	4720
2026-01-18 01:10:51.48	173.59	34.20	-43.3	-45.6	24.4	6.01e-01	0	43	0	801636352	58	4642
2026-01-18 01:10:54.47	174.07	33.48	-43.4	-45.8	24.3	6.02e-01	0	43	0	806879232	58	4722
2026-01-18 01:10:57.47	174.53	32.78	-43.0	-45.3	24.7	6.01e-01	0	43	0	812646400	58	4464
2026-01-18 01:11:00.45	174.97	32.10	-42.7	-45.0	25.0	6.05e-01	0	44	0	818413568	57	4546
2026-01-18 01:11:03.44	175.39	31.43	-42.5	-44.8	25.1	6.01e-01	0	43	0	823656448	57	4462
2026-01-18 01:11:06.43	175.80	30.77	-42.6	-44.9	25.0	6.03e-01	0	43	0	829423616	57	4510
2026-01-18 01:11:09.43	176.19	30.13	-42.7	-45.1	24.8	6.04e-01	0	43	0	835190784	57	4626
2026-01-18 01:11:12.42	176.57	29.50	-42.9	-45.2	24.7	6.03e-01	0	43	0	840433664	57	4701
2026-01-18 01:11:15.41	176.93	28.89	-43.1	-45.5	24.5	6.01e-01	0	43	0	846200832	57	4827
2026-01-18 01:11:18.41	177.28	28.29	-43.2	-45.6	24.3	6.01e-01	0	44	0	851968000	57	4889
2026-01-18 01:11:21.40	177.61	27.70	-43.0	-45.4	24.6	6.02e-01	0	43	0	857735168	57	4798
2026-01-18 01:11:24.40	177.94	27.12	-43.1	-45.5	24.5	6.01e-01	0	43	0	862978048	57	4821
2026-01-18 01:11:27.39	178.25	26.56	-43.4	-45.9	24.2	6.02e-01	0	43	0	868745216	57	5049
2026-01-18 01:11:30.38	178.55	26.00	-43.8	-46.3	23.8	6.03e-01	0	43	0	874512384	58	4993
2026-01-18 01:11:33.38	178.84	25.46	-43.9	-46.4	23.7	6.04e-01	0	43	0	880279552	58	5098
2026-01-18 01:11:36.37	179.12	24.93	-43.8	-46.3	23.8	6.00e-01	0	44	0	885522432	58	5020
2026-01-18 01:11:39.36	179.39	24.41	-43.8	-46.3	23.8	6.02e-01	0	43	0	891289600	58	5016
2026-01-18 01:11:42.36	179.66	23.90	-43.9	-46.4	23.7	6.02e-01	0	43	0	897056768	58	5081
2026-01-18 01:11:45.35	179.91	23.40	-43.9	-46.4	23.7	6.03e-01	0	43	0	902299648	58	5077
2026-01-18 01:11:48.34	180.16	22.91	-43.7	-46.3	23.8	6.01e-01	0	43	0	908066816	58	5007
2026-01-18 01:11:51.34	180.40	22.43	-43.7	-46.3	23.8	6.02e-01	0	43	0	913833984	58	5003
2026-01-18 01:11:54.33	180.63	21.96	-43.6	-46.1	23.9	6.01e-01	0	44	0	919076864	58	4915
2026-01-18 01:11:57.32	180.85	21.50	-43.6	-46.1	23.9	6.03e-01	0	43	0	924844032	58	4920
2026-01-18 01:12:00.31	181.07	21.05	-43.6	-46.1	23.9	6.00e-01	0	43	0	930611200	58	4910
2026-01-18 01:12:03.30	181.28	20.60	-43.6	-46.1	23.9	6.02e-01	0	43	0	935854080	58	4926
2026-01-18 01:12:06.29	181.49	20.17	-43.6	-46.1	23.9	6.01e-01	0	43	0	941621248	58	4922
2026-01-18 01:12:09.29	181.69	19.74	-43.6	-46.2	23.8	5.99e-01	0	43	0	947388416	58	4966
2026-01-18 01:12:12.29	181.89	19.32	-43.4	-45.9	24.0	6.01e-01	0	44	0	953155584	58	4796
2026-01-18 01:12:15.28	182.08	18.90	-43.4	-45.9	24.0	6.03e-01	0	43	0	958398464	58	4811
2026-01-18 01:12:18.28	182.26	18.49	-43.4	-45.9	24.1	6.02e-01	0	43	0	964165632	58	4766
2026-01-18 01:12:21.27	182.44	18.10	-43.6	-46.1	23.9	6.01e-01	0	43	0	969932800	58	4907
2026-01-18 01:12:24.27	182.62	17.70	-43.4	-45.9	24.0	5.98e-01	0	44	0	975699968	58	4789
2026-01-18 01:12:27.27	182.79	17.31	-43.4	-45.9	24.0	6.05e-01	0	43	0	980942848	58	4799
2026-01-18 01:12:30.27	182.96	16.93	-43.3	-45.8	24.1	6.00e-01	0	43	0	986710016	58	4726
2026-01-18 01:12:33.26	183.12	16.56	-43.4	-45.9	24.0	6.03e-01	0	43	0	992477184	58	4788
2026-01-18 01:12:36.25	183.28	16.19	-43.4	-45.9	24.0	6.02e-01	0	43	0	997720064	58	4806
2026-01-18 01:12:39.24	183.43	15.83	-43.5	-46.1	23.9	6.03e-01	0	43	0	1003487232	58	4884
2026-01-18 01:12:42.24	183.58	15.48	-43.6	-46.3	23.6	6.01e-01	0	43	0	1009254400	58	5024
2026-01-18 01:12:45.23	183.73	15.13	-43.6	-46.3	23.7	6.02e-01	0	44	0	1014497280	58	4993
2026-01-18 01:12:48.22	183.87	14.78	-43.5	-46.2	23.7	6.03e-01	0	44	0	1020264448	58	4981
2026-01-18 01:12:51.22	184.01	14.44	-43.6	-46.4	23.5	6.02e-01	0	43	0	1026031616	58	5078
2026-01-18 01:12:54.21	184.15	14.10	-43.4	-46.2	23.7	5.98e-01	0	43	0	1031274496	58	4955
2026-01-18 01:12:57.19	184.29	13.78	-43.6	-46.4	23.5	6.02e-01	0	43	0	1037041664	58	5070
2026-01-18 01:13:00.19	184.42	13.45	-43.5	-46.3	23.6	6.01e-01	0	43	0	1042808832	58	4990
2026-01-18 01:13:03.18	184.55	13.13	-43.6	-46.4	23.4	6.00e-01	0	43	0	1048576000	58	5085
2026-01-18 01:13:06.18	184.67	12.81	-43.7	-46.6	23.3	6.00e-01	0	44	0	1053818880	58	5163
2026-01-18 01:13:09.17	184.80	12.50	-43.6	-46.5	23.4	6.01e-01	0	44	0	1059586048	58	5112
2026-01-18 01:13:12.16	184.92	12.19	-43.6	-46.4	23.4	6.01e-01	0	44	0	1065353216	58	5082
2026-01-18 01:13:15.16	185.04	11.89	-43.6	-46.4	23.5	6.03e-01	0	43	0	1070596096	58	5042
2026-01-18 01:13:18.15	185.15	11.59	-43.8	-46.6	23.3	6.01e-01	0	43	0	1076363264	58	5184
2026-01-18 01:13:21.15	185.27	11.30	-43.7	-46.5	22.8	6.02e-01	0	44	0	1082130432	58	5139
2026-01-18 01:13:24.14	185.38	11.01	-43.9	-46.7	23.1	6.00e-01	0	43	0	1087897600	58	5277
2026-01-18 01:13:27.13	185.49	10.72	-43.7	-46.6	23.2	6.02e-01	0	43	0	1093140480	58	5174
2026-01-18 01:13:30.12	185.59	10.43	-44.0	-46.9	23.0	6.03e-01	0	44	0	1098907648	58	5364
2026-01-18 01:13:33.12	185.70	10.15	-44.0	-46.9	23.0	6.03e-01	0	43	0	1104674816	58	5362
2026-01-18 01:13:36.11	185.80	9.88	-44.2	-47.1	22.8	5.99e-01	0	44	0	1109917696	59	5169
2026-01-18 01:13:39.10	185.90	9.60	-44.1	-47.0	22.8	6.02e-01	0	43	0	1115684864	59	5138
2026-01-18 01:13:42.09	186.00	9.33	-44.1	-47.0	22.8	6.03e-01	0	43	0	1121452032	59	5131
2026-01-18 01:13:45.08	186.10	9.07	-44.3	-47.3	22.6	6.01e-01	0	43	0	1127219200	59	5315
2026-01-18 01:13:48.07	186.20	8.80	-50.5	-71.4	3.8	7.47e-01	0	43	104	1128792064	71	42873
2026-01-18 01:13:51.06	186.29	8.54	-51.5	-71.7	3.8	7.47e-01	0	44	104	1128792064	73	39560
2026-01-18 01:13:54.05	186.39	8.28	-51.6	-71.8	3.8	7.47e-01	0	44	104	1128792064	74	37703
2026-01-18 01:13:57.04	186.48	8.03	-51.9	-71.9	3.8	7.47e-01	0	43	104	1128792064	75	35826
2026-01-18 01:14:00.03	186.57	7.78	-51.8	-71.9	3.8	7.47e-01	0	43	104	1128792064	75	35793
2026-01-18 01:14:03.03	186.65	7.52	-52.2	-71.9	3.8	7.49e-01	0	44	104	1128792064	75	35762
2026-01-18 01:14:06.02	186.74	7.28	-52.0	-71.9	3.8	7.48e-01	0	44	104	1128792064	74	37901
2026-01-18 01:14:09.01	186.83	7.03	-51.5	-71.9	3.8	7.41e-01	0	43	104	1128792064	74	37889
2026-01-18 01:14:12.00	186.91	6.79	-51.6	-71.9	3.8	7.45e-01	0	44	104	1128792064	74	37842
