passes_logs/2026/01/18/T1/T1__20260118_030202_FENGYUN_3E_rec.log

#Pass ID: 20260118_030202_FENGYUN 3E
#Satellite: FENGYUN 3E
#Configuration: FENGYUN 3E
#almurnet v.1.7.20251203
#Start time: 2026-01-18 03:02:02

#Version: 2.0.20230620
#Station: T1
#Location: 37.570604 lon 55.790049 lat
#TLE: 1 49008U 21062A   26017.26067429  .00000278  00000+0  15192-3 0  9991
#TLE: 2 49008  98.7484  22.3628 0002125 132.6872 227.4483 14.19886454235162

#Time	Az	El	Level	Level2	SNR	BER	BlckErr	Temp	State	Recorded	gain1	gain2
2026-01-18 03:02:02.69	23.51	4.98	-48.2	-59.2	3.8	8.47e-01	0	38	0	0	67	12260
2026-01-18 03:02:05.66	23.67	5.17	-48.2	-59.2	3.8	8.47e-01	0	39	104	0	66	12963
2026-01-18 03:02:08.64	23.84	5.37	-48.2	-59.0	3.8	8.47e-01	0	39	104	0	66	12705
2026-01-18 03:02:11.62	24.01	5.57	-48.2	-58.9	3.8	8.46e-01	0	39	104	0	66	12582
2026-01-18 03:02:14.60	24.18	5.77	-48.2	-58.8	3.8	8.46e-01	0	39	104	0	66	12481
2026-01-18 03:02:17.59	24.36	5.98	-48.2	-58.9	3.8	8.46e-01	0	39	104	0	66	12609
2026-01-18 03:02:20.57	24.54	6.18	-48.2	-59.0	3.8	8.47e-01	0	39	104	0	66	12757
2026-01-18 03:02:23.55	24.71	6.39	-48.2	-59.0	3.8	8.47e-01	0	39	104	0	66	12689
2026-01-18 03:02:26.53	24.90	6.60	-48.2	-58.8	3.8	8.47e-01	0	39	104	0	66	12501
2026-01-18 03:02:29.51	25.08	6.80	-48.2	-58.7	3.8	8.47e-01	0	40	104	0	66	12301
2026-01-18 03:02:32.49	25.27	7.01	-48.2	-58.9	3.8	8.46e-01	0	40	104	0	66	12635
2026-01-18 03:02:35.47	25.45	7.23	-48.2	-59.0	3.8	8.48e-01	0	40	104	0	66	12752
2026-01-18 03:02:38.45	25.64	7.44	-48.1	-58.4	3.8	8.47e-01	0	40	104	0	66	11844
2026-01-18 03:02:41.43	25.84	7.65	-48.1	-57.9	3.8	8.47e-01	0	40	104	0	66	11174
2026-01-18 03:02:44.41	26.04	7.87	-48.1	-57.8	3.8	8.47e-01	0	40	104	0	66	11116
2026-01-18 03:02:47.39	26.23	8.09	-48.0	-57.6	3.8	8.47e-01	0	40	104	0	66	10865
2026-01-18 03:02:50.37	26.44	8.31	-47.9	-56.8	3.9	8.45e-01	0	40	104	0	66	9893
2026-01-18 03:02:53.35	26.64	8.53	-47.4	-54.3	4.7	8.23e-01	0	40	0	0	65	7838
2026-01-18 03:02:56.33	26.85	8.75	-45.8	-49.5	8.5	7.38e-02	0	40	0	13631488	62	5373
2026-01-18 03:02:59.31	27.06	8.98	-43.2	-45.2	12.9	6.06e-05	0	40	0	34603008	57	4387
2026-01-18 03:03:02.30	27.28	9.20	-46.1	-49.8	8.1	4.17e-01	0	41	0	55574528	63	5251
2026-01-18 03:03:05.28	27.49	9.43	-37.7	-38.8	19.2	0.00e+00	0	40	0	77594624	46	3932
2026-01-18 03:03:08.28	27.71	9.66	-37.6	-38.6	19.3	0.00e+00	0	40	0	98566144	45	4069
2026-01-18 03:03:11.39	27.95	9.91	-37.6	-38.6	19.4	0.00e+00	0	41	0	121634816	45	4066
2026-01-18 03:03:14.30	28.17	10.13	-37.2	-38.2	19.8	0.00e+00	0	41	0	142606336	44	4124
2026-01-18 03:03:17.84	28.44	10.41	-37.1	-38.2	19.9	0.00e+00	0	41	0	167772160	44	4100
2026-01-18 03:03:20.55	28.66	10.63	-37.0	-38.0	20.0	0.00e+00	0	41	0	187695104	44	4047
2026-01-18 03:03:23.84	28.92	10.89	-37.0	-38.1	19.7	0.00e+00	0	41	0	211812352	44	4056
2026-01-18 03:03:26.60	29.14	11.12	-37.0	-38.0	20.1	0.00e+00	0	41	0	231735296	44	4021
2026-01-18 03:03:30.22	29.44	11.41	-36.8	-37.8	20.2	0.00e+00	0	41	0	256901120	44	3952
2026-01-18 03:03:33.06	29.68	11.65	-36.9	-37.9	20.2	0.00e+00	0	41	0	277872640	44	3969
2026-01-18 03:03:37.07	30.03	11.98	-36.8	-37.8	20.3	0.00e+00	0	41	0	307232768	44	3918
2026-01-18 03:03:39.91	30.27	12.22	-36.8	-37.7	20.3	0.00e+00	0	41	0	327155712	44	3911
2026-01-18 03:03:43.63	30.60	12.54	-36.7	-37.6	20.4	0.00e+00	0	41	0	354418688	44	3855
2026-01-18 03:03:46.56	30.87	12.79	-36.4	-37.3	20.5	0.00e+00	0	41	0	375390208	43	3955
2026-01-18 03:03:49.55	31.14	13.05	-36.2	-37.2	20.7	0.00e+00	0	41	0	397410304	43	3886
2026-01-18 03:03:52.54	31.42	13.31	-36.2	-37.2	20.6	0.00e+00	0	41	0	418381824	43	3895
2026-01-18 03:03:55.55	31.71	13.57	-36.1	-37.1	20.8	0.00e+00	0	41	0	440401920	42	4062
2026-01-18 03:03:58.54	32.00	13.84	-36.2	-37.2	20.8	0.00e+00	0	41	0	462422016	42	4100
2026-01-18 03:04:01.52	32.29	14.10	-36.1	-37.0	20.9	0.00e+00	0	41	0	483393536	42	4036
2026-01-18 03:04:04.51	32.59	14.37	-36.0	-37.0	20.9	0.00e+00	0	41	0	505413632	42	4014
2026-01-18 03:04:07.49	32.89	14.64	-36.2	-37.1	20.7	0.00e+00	0	41	0	526385152	42	4080
2026-01-18 03:04:10.47	33.20	14.92	-36.0	-37.0	20.9	0.00e+00	0	41	0	548405248	42	4011
2026-01-18 03:04:13.45	33.52	15.19	-35.9	-36.9	21.1	0.00e+00	0	41	0	569376768	42	3966
2026-01-18 03:04:16.44	33.84	15.47	-35.8	-36.7	21.2	0.00e+00	0	41	0	591396864	42	3898
2026-01-18 03:04:19.42	34.16	15.75	-35.7	-36.6	21.3	0.00e+00	0	41	0	612368384	42	3850
2026-01-18 03:04:22.41	34.50	16.04	-35.7	-36.6	21.3	0.00e+00	0	41	0	634388480	42	3851
2026-01-18 03:04:25.40	34.84	16.32	-35.7	-36.6	21.3	0.00e+00	0	42	0	655360000	41	4067
2026-01-18 03:04:28.38	35.18	16.61	-35.5	-36.4	21.4	0.00e+00	0	41	0	677380096	41	3963
2026-01-18 03:04:31.67	35.57	16.93	-35.2	-36.0	21.7	0.00e+00	0	41	0	700448768	41	3821
2026-01-18 03:04:34.37	35.89	17.20	-34.9	-35.7	22.0	0.00e+00	0	41	0	720371712	40	3907
2026-01-18 03:04:37.64	36.29	17.52	-35.0	-35.8	22.1	0.00e+00	0	41	0	744488960	40	3953
2026-01-18 03:04:40.34	36.63	17.79	-35.0	-35.9	22.0	0.00e+00	0	41	0	763363328	40	3967
2026-01-18 03:04:43.64	37.05	18.12	-35.1	-36.0	21.9	0.00e+00	0	41	0	787480576	40	4026
2026-01-18 03:04:46.34	37.40	18.40	-35.1	-36.0	21.9	0.00e+00	0	41	0	806354944	40	4022
2026-01-18 03:04:49.73	37.85	18.75	-35.2	-36.1	21.6	0.00e+00	0	41	0	831520768	40	4093
2026-01-18 03:04:52.43	38.21	19.03	-34.9	-35.8	21.9	0.00e+00	0	41	0	850395136	40	3944
2026-01-18 03:04:55.71	38.66	19.37	-34.7	-35.6	22.2	0.00e+00	0	41	0	874512384	40	3827
2026-01-18 03:04:58.43	39.04	19.65	-34.6	-35.5	22.4	0.00e+00	0	41	0	894435328	39	4022
2026-01-18 03:05:02.02	39.56	20.03	-34.4	-35.2	22.6	0.00e+00	0	41	0	919601152	39	3908
2026-01-18 03:05:04.72	39.95	20.32	-34.4	-35.3	22.7	0.00e+00	0	42	0	939524096	39	3918
2026-01-18 03:05:07.99	40.44	20.68	-34.5	-35.3	22.6	0.00e+00	0	41	0	963641344	39	3940
2026-01-18 03:05:10.72	40.85	20.97	-34.6	-35.4	22.6	0.00e+00	0	41	0	982515712	39	3991
2026-01-18 03:05:14.04	41.37	21.34	-34.6	-35.4	22.6	0.00e+00	0	42	0	1006632960	39	3985
2026-01-18 03:05:16.76	41.80	21.64	-34.5	-35.4	22.6	0.00e+00	0	41	0	1026555904	39	3972
2026-01-18 03:05:20.02	42.33	22.00	-34.5	-35.3	22.7	0.00e+00	0	42	0	1049624576	39	3947
2026-01-18 03:05:22.72	42.78	22.30	-34.4	-35.3	22.7	0.00e+00	0	41	0	1069547520	39	3932
2026-01-18 03:05:26.02	43.34	22.67	-34.3	-35.1	22.9	0.00e+00	0	41	0	1093664768	39	3844
2026-01-18 03:05:28.73	43.81	22.98	-34.1	-34.9	23.0	0.00e+00	0	41	0	1112539136	39	3774
2026-01-18 03:05:32.06	44.39	23.36	-34.1	-34.9	23.1	0.00e+00	0	41	0	1136656384	38	3983
2026-01-18 03:05:34.82	44.89	23.67	-34.0	-34.8	23.2	0.00e+00	0	41	0	1156579328	38	3943
2026-01-18 03:05:38.36	45.55	24.08	-33.8	-34.6	23.4	0.00e+00	0	42	0	1182793728	38	3847
2026-01-18 03:05:41.20	46.08	24.41	-33.9	-34.7	23.3	0.00e+00	0	41	0	1202716672	38	3879
2026-01-18 03:05:44.33	46.69	24.78	-34.0	-34.9	23.1	0.00e+00	0	41	0	1225785344	38	3961
2026-01-18 03:05:47.20	47.25	25.12	-34.0	-34.8	23.2	0.00e+00	0	41	0	1246756864	38	3938
2026-01-18 03:05:50.41	47.90	25.49	-33.9	-34.8	23.2	0.00e+00	0	41	0	1269825536	38	3920
2026-01-18 03:05:53.36	48.51	25.84	-34.0	-34.9	23.2	0.00e+00	0	41	0	1290797056	38	3969
2026-01-18 03:05:56.63	49.20	26.23	-33.9	-34.7	23.3	0.00e+00	0	42	0	1313865728	38	3894
2026-01-18 03:05:59.54	49.83	26.58	-33.8	-34.6	23.4	0.00e+00	0	42	0	1334837248	38	3849
2026-01-18 03:06:02.66	50.51	26.95	-33.7	-34.5	23.5	0.00e+00	0	42	0	1357905920	38	3792
2026-01-18 03:06:05.63	51.19	27.30	-33.7	-34.5	23.5	0.00e+00	0	41	0	1378877440	38	3796
2026-01-18 03:06:08.85	51.93	27.69	-33.7	-34.5	23.5	0.00e+00	0	42	0	1402994688	37	4014
2026-01-18 03:06:11.79	52.62	28.04	-33.7	-34.5	23.4	0.00e+00	0	42	0	1423966208	37	4044
2026-01-18 03:06:14.95	53.39	28.42	-33.6	-34.4	23.6	0.00e+00	0	42	0	1447034880	37	3981
2026-01-18 03:06:17.80	54.09	28.76	-33.5	-34.3	23.6	0.00e+00	0	41	0	1466957824	37	3954
2026-01-18 03:06:20.92	54.88	29.14	-33.6	-34.4	23.6	0.00e+00	0	41	0	1490026496	37	3980
2026-01-18 03:06:23.77	55.61	29.48	-33.7	-34.5	23.5	0.00e+00	0	42	0	1509949440	37	4026
2026-01-18 03:06:27.00	56.47	29.86	-33.7	-34.5	23.5	0.00e+00	0	41	0	1534066688	37	4051
2026-01-18 03:06:29.92	57.25	30.21	-33.6	-34.4	23.6	0.00e+00	0	42	0	1555038208	37	3993
2026-01-18 03:06:33.10	58.13	30.58	-33.5	-34.3	23.7	0.00e+00	0	41	0	1578106880	37	3921
2026-01-18 03:06:36.00	58.95	30.92	-33.7	-34.5	23.5	0.00e+00	0	41	0	1599078400	37	4039
2026-01-18 03:06:38.99	59.81	31.27	-33.3	-34.1	23.8	0.00e+00	0	42	0	1620049920	37	3868
2026-01-18 03:06:41.97	60.68	31.61	-33.5	-34.3	23.7	0.00e+00	0	42	0	1641021440	37	3930
2026-01-18 03:06:44.96	61.58	31.95	-33.5	-34.4	23.6	0.00e+00	0	41	0	1663041536	37	3965
2026-01-18 03:06:47.97	62.50	32.29	-33.5	-34.3	23.7	0.00e+00	0	42	0	1685061632	37	3955
2026-01-18 03:06:50.96	63.44	32.62	-33.8	-34.6	23.5	0.00e+00	0	42	0	1706033152	37	4060
2026-01-18 03:06:54.07	64.43	32.97	-33.6	-34.4	23.6	0.00e+00	0	41	0	1729101824	37	3981
2026-01-18 03:06:57.01	65.39	33.28	-33.4	-34.2	23.8	0.00e+00	0	42	0	1750073344	37	3878
2026-01-18 03:07:00.14	66.43	33.61	-33.3	-34.1	23.9	0.00e+00	0	41	0	1772093440	37	3845
2026-01-18 03:07:02.98	67.39	33.91	-33.6	-34.4	23.6	0.00e+00	0	42	0	1793064960	37	3982
2026-01-18 03:07:06.11	68.47	34.23	-33.5	-34.3	23.7	0.00e+00	0	42	0	1816133632	37	3922
2026-01-18 03:07:08.97	69.48	34.51	-33.4	-34.2	23.8	0.00e+00	0	42	0	1836056576	37	3896
2026-01-18 03:07:12.09	70.59	34.81	-33.5	-34.3	23.7	0.00e+00	0	42	0	1859125248	37	3919
2026-01-18 03:07:14.93	71.63	35.08	-33.6	-34.4	23.5	0.00e+00	0	42	0	1879048192	37	3999
2026-01-18 03:07:18.06	72.78	35.36	-33.6	-34.4	23.6	0.00e+00	0	42	0	1902116864	37	3986
2026-01-18 03:07:20.90	73.85	35.61	-33.5	-34.3	23.7	0.00e+00	0	42	0	1923088384	37	3944
2026-01-18 03:07:24.08	75.07	35.88	-33.5	-34.3	23.7	0.00e+00	0	42	0	1945108480	37	3951
2026-01-18 03:07:26.92	76.17	36.10	-33.5	-34.3	23.7	0.00e+00	0	41	0	1966080000	37	3947
2026-01-18 03:07:30.06	77.40	36.35	-33.2	-34.0	24.0	0.00e+00	0	42	0	1989148672	37	3791
2026-01-18 03:07:32.90	78.54	36.55	-33.2	-34.0	24.0	0.00e+00	0	42	0	2009071616	37	3804
2026-01-18 03:07:36.02	79.80	36.76	-33.6	-34.5	23.5	0.00e+00	0	42	0	2032140288	37	4009
2026-01-18 03:07:38.87	80.96	36.95	-33.7	-34.5	23.5	0.00e+00	0	42	0	2052063232	37	4036
2026-01-18 03:07:42.09	82.29	37.14	-33.7	-34.6	23.4	0.00e+00	0	42	0	2075131904	37	4060
2026-01-18 03:07:44.93	83.48	37.29	-33.8	-34.6	23.4	0.00e+00	0	42	0	2096103424	37	4079
2026-01-18 03:07:48.06	84.80	37.45	-33.3	-34.1	23.8	0.00e+00	0	42	0	2119172096	37	3849
2026-01-18 03:07:50.91	86.01	37.58	-33.2	-34.0	23.9	0.00e+00	0	42	0	2139095040	37	3822
2026-01-18 03:07:54.04	87.36	37.70	-33.5	-34.3	23.7	0.00e+00	0	42	0	2162163712	37	3930
2026-01-18 03:07:56.88	88.58	37.80	-33.2	-34.0	23.9	0.00e+00	0	42	0	2182086656	37	3817
2026-01-18 03:08:00.01	89.94	37.89	-33.1	-33.9	24.0	0.00e+00	0	42	0	2205155328	36	4001
2026-01-18 03:08:02.93	91.22	37.96	-33.3	-34.1	23.8	0.00e+00	0	42	0	2226126848	36	4089
2026-01-18 03:08:06.06	92.59	38.02	-33.4	-34.2	23.7	0.00e+00	0	42	0	2248146944	36	4138
2026-01-18 03:08:08.90	93.84	38.06	-33.5	-34.3	23.7	0.00e+00	0	42	0	2269118464	36	4171
2026-01-18 03:08:12.02	95.21	38.08	-33.4	-34.2	23.7	0.00e+00	0	42	0	2291138560	36	4139
2026-01-18 03:08:14.88	96.47	38.09	-33.3	-34.1	23.9	0.00e+00	0	42	0	2312110080	36	4082
2026-01-18 03:08:18.11	97.90	38.07	-33.2	-34.0	23.9	0.00e+00	0	42	0	2335178752	36	4044
2026-01-18 03:08:20.95	99.15	38.05	-33.5	-34.3	23.7	0.00e+00	0	42	0	2356150272	36	4181
2026-01-18 03:08:24.09	100.53	38.00	-33.3	-34.1	23.9	0.00e+00	0	42	0	2379218944	36	4070
2026-01-18 03:08:26.94	101.78	37.94	-33.5	-34.3	23.6	0.00e+00	0	42	0	2399141888	36	4185
2026-01-18 03:08:30.06	103.14	37.86	-33.8	-34.6	23.4	0.00e+00	0	42	0	2422210560	37	4092
2026-01-18 03:08:32.91	104.37	37.77	-33.6	-34.4	23.6	0.00e+00	0	42	0	2442133504	37	3977
2026-01-18 03:08:36.11	105.75	37.65	-33.6	-34.5	23.6	0.00e+00	0	42	0	2465202176	37	4006
2026-01-18 03:08:38.95	106.97	37.53	-33.8	-34.6	23.4	0.00e+00	0	42	0	2486173696	37	4090
2026-01-18 03:08:42.07	108.30	37.39	-33.6	-34.4	23.6	0.00e+00	0	42	0	2508193792	37	3989
2026-01-18 03:08:45.02	109.54	37.23	-33.7	-34.5	23.5	0.00e+00	0	42	0	2530213888	37	4023
2026-01-18 03:08:48.01	110.78	37.06	-33.7	-34.5	23.5	0.00e+00	0	42	0	2551185408	37	4013
2026-01-18 03:08:51.00	112.02	36.88	-33.3	-34.1	23.9	0.00e+00	0	42	0	2573205504	37	3836
2026-01-18 03:08:53.98	113.23	36.68	-33.4	-34.2	23.7	0.00e+00	0	42	0	2594177024	37	3897
2026-01-18 03:08:56.96	114.43	36.47	-33.7	-34.5	23.5	0.00e+00	0	42	0	2616197120	37	4050
2026-01-18 03:08:59.94	115.62	36.25	-33.7	-34.5	23.6	0.00e+00	0	42	0	2637168640	37	4023
2026-01-18 03:09:02.93	116.79	36.02	-33.9	-34.7	23.4	0.00e+00	0	42	0	2659188736	37	4123
2026-01-18 03:09:05.94	117.96	35.77	-33.7	-34.5	23.6	0.00e+00	0	42	0	2680160256	37	4016
2026-01-18 03:09:08.95	119.10	35.51	-33.7	-34.5	23.5	0.00e+00	0	42	0	2702180352	37	4046
2026-01-18 03:09:11.94	120.22	35.25	-33.7	-34.5	22.9	0.00e+00	0	42	0	2724200448	37	4011
2026-01-18 03:09:14.92	121.32	34.97	-33.7	-34.6	23.5	0.00e+00	0	42	0	2745171968	37	4052
2026-01-18 03:09:17.91	122.41	34.69	-33.7	-34.5	23.6	0.00e+00	0	42	0	2767192064	37	4020
2026-01-18 03:09:20.90	123.47	34.40	-33.8	-34.6	23.4	0.00e+00	0	42	0	2789212160	37	4076
2026-01-18 03:09:23.96	124.54	34.09	-33.6	-34.4	23.6	0.00e+00	0	42	0	2811232256	37	3985
2026-01-18 03:09:26.86	125.54	33.79	-33.5	-34.3	23.7	0.00e+00	0	42	0	2832203776	37	3926
2026-01-18 03:09:30.42	126.74	33.41	-33.6	-34.4	23.5	0.00e+00	0	42	0	2857369600	37	3993
2026-01-18 03:09:33.42	127.73	33.09	-33.8	-34.6	23.1	0.00e+00	0	42	0	2879389696	37	4088
2026-01-18 03:09:36.41	128.70	32.76	-33.9	-34.7	23.2	0.00e+00	0	42	0	2900361216	37	4144
2026-01-18 03:09:39.39	129.64	32.43	-33.6	-34.4	23.5	0.00e+00	0	42	0	2922381312	37	3991
2026-01-18 03:09:42.37	130.57	32.09	-33.6	-34.4	23.6	0.00e+00	0	42	0	2943352832	37	3972
2026-01-18 03:09:45.36	131.48	31.75	-33.6	-34.5	23.5	0.00e+00	0	42	0	2965372928	37	4006
2026-01-18 03:09:48.34	132.36	31.41	-34.0	-34.8	23.2	0.00e+00	0	42	0	2987393024	37	4164
2026-01-18 03:09:51.33	133.24	31.06	-34.1	-35.0	23.0	0.00e+00	0	42	0	3008364544	37	4258
2026-01-18 03:09:54.31	134.09	30.71	-33.7	-34.5	23.3	0.00e+00	0	42	0	3030384640	38	3807
2026-01-18 03:09:57.30	134.92	30.36	-33.7	-34.5	23.5	0.00e+00	0	42	0	3051356160	38	3799
2026-01-18 03:10:00.28	135.74	30.00	-34.0	-34.8	23.2	0.00e+00	0	42	0	3073376256	38	3936
2026-01-18 03:10:03.23	136.53	29.65	-34.3	-35.1	22.9	0.00e+00	0	42	0	3094347776	38	4092
2026-01-18 03:10:06.72	137.44	29.23	-34.1	-34.9	23.1	0.00e+00	0	42	0	3119513600	38	3991
2026-01-18 03:10:09.75	138.22	28.87	-34.0	-34.8	23.2	0.00e+00	0	42	0	3141533696	38	3933
2026-01-18 03:10:12.74	138.97	28.51	-34.0	-34.8	23.2	0.00e+00	0	42	0	3163553792	38	3927
2026-01-18 03:10:15.72	139.69	28.15	-34.0	-34.9	23.2	0.00e+00	0	42	0	3184525312	38	3960
2026-01-18 03:10:18.69	140.40	27.79	-34.0	-34.9	23.1	0.00e+00	0	42	0	3206545408	38	3963
2026-01-18 03:10:21.87	141.15	27.40	-34.0	-34.8	23.2	0.00e+00	0	42	0	3228565504	38	3949
2026-01-18 03:10:24.71	141.80	27.06	-34.0	-34.9	23.1	0.00e+00	0	42	0	3249537024	38	3962
2026-01-18 03:10:27.83	142.50	26.69	-33.8	-34.6	23.2	0.00e+00	0	42	0	3271557120	38	3862
2026-01-18 03:10:30.67	143.12	26.34	-33.9	-34.7	23.3	0.00e+00	0	42	0	3292528640	38	3908
2026-01-18 03:10:33.82	143.79	25.97	-34.0	-34.9	23.1	0.00e+00	0	42	0	3315597312	38	3963
2026-01-18 03:10:36.71	144.40	25.62	-34.0	-34.9	23.1	0.00e+00	0	42	0	3336568832	38	3964
2026-01-18 03:10:40.28	145.13	25.20	-34.0	-34.8	23.1	0.00e+00	0	42	0	3361734656	38	3952
2026-01-18 03:10:43.01	145.67	24.87	-34.1	-35.0	23.0	0.00e+00	0	42	0	3381657600	38	4019
2026-01-18 03:10:46.47	146.35	24.47	-34.2	-35.0	22.9	0.00e+00	0	42	0	3406823424	38	4039
2026-01-18 03:10:49.18	146.86	24.15	-34.1	-34.9	23.0	0.00e+00	0	42	0	3425697792	38	3995
2026-01-18 03:10:52.54	147.49	23.76	-34.1	-34.9	23.1	0.00e+00	0	42	0	3450863616	38	3992
2026-01-18 03:10:55.26	147.99	23.44	-34.3	-35.1	22.9	0.00e+00	0	42	0	3469737984	38	4088
2026-01-18 03:10:58.53	148.57	23.06	-34.5	-35.4	22.5	0.00e+00	0	42	0	3493855232	38	4228
2026-01-18 03:11:01.24	149.05	22.75	-34.8	-35.7	22.3	0.00e+00	0	42	0	3513778176	39	4136
2026-01-18 03:11:04.51	149.61	22.38	-34.4	-35.3	22.7	0.00e+00	0	42	0	3536846848	39	3928
2026-01-18 03:11:07.21	150.06	22.08	-34.3	-35.1	22.8	0.00e+00	0	42	0	3556769792	39	3849
2026-01-18 03:11:10.55	150.61	21.70	-34.3	-35.1	22.8	0.00e+00	0	42	0	3580887040	39	3867
2026-01-18 03:11:13.24	151.04	21.40	-34.4	-35.3	22.6	0.00e+00	0	42	0	3599761408	39	3931
2026-01-18 03:11:16.66	151.58	21.02	-34.7	-35.6	22.4	0.00e+00	0	42	0	3624927232	39	4064
2026-01-18 03:11:19.72	152.05	20.69	-34.8	-35.7	22.3	0.00e+00	0	42	0	3646947328	39	4116
2026-01-18 03:11:22.56	152.48	20.38	-34.8	-35.7	22.3	0.00e+00	0	42	0	3666870272	39	4126
2026-01-18 03:11:25.69	152.94	20.04	-34.6	-35.4	22.5	0.00e+00	0	42	0	3689938944	39	4004
2026-01-18 03:11:28.53	153.35	19.73	-34.5	-35.4	22.6	0.00e+00	0	42	0	3709861888	39	3966
2026-01-18 03:11:31.65	153.79	19.40	-34.8	-35.7	22.3	0.00e+00	0	42	0	3732930560	39	4115
2026-01-18 03:11:34.84	154.23	19.06	-35.0	-35.9	22.1	0.00e+00	0	42	0	3755999232	39	4215
2026-01-18 03:11:37.83	154.64	18.75	-35.1	-36.0	21.9	0.00e+00	0	42	0	3776970752	39	4286
2026-01-18 03:11:40.81	155.04	18.44	-35.2	-36.1	21.9	0.00e+00	0	42	0	3798990848	39	4326
2026-01-18 03:11:43.85	155.44	18.13	-35.1	-36.0	21.9	0.00e+00	0	42	0	3821010944	40	4017
2026-01-18 03:11:46.86	155.82	17.82	-35.3	-36.2	21.7	0.00e+00	0	42	0	3841982464	40	4129
2026-01-18 03:11:49.98	156.21	17.51	-35.2	-36.1	21.8	0.00e+00	0	42	0	3865051136	40	4077
2026-01-18 03:11:52.83	156.56	17.22	-35.2	-36.1	21.8	0.00e+00	0	42	0	3884974080	40	4075
2026-01-18 03:11:55.95	156.94	16.91	-35.3	-36.2	20.8	0.00e+00	0	42	0	3908042752	40	4141
2026-01-18 03:11:58.80	157.28	16.63	-35.3	-36.2	21.7	0.00e+00	0	42	0	3929014272	40	4113
2026-01-18 03:12:02.08	157.66	16.31	-35.5	-36.4	21.5	0.00e+00	0	42	0	3952082944	40	4204
2026-01-18 03:12:04.78	157.97	16.05	-35.5	-36.4	21.5	0.00e+00	0	42	0	3972005888	40	4231
2026-01-18 03:12:08.05	158.33	15.73	-35.6	-36.5	21.3	0.00e+00	0	42	0	3995074560	40	4268
2026-01-18 03:12:10.77	158.63	15.47	-35.7	-36.6	21.2	0.00e+00	0	42	0	4014997504	40	4339
2026-01-18 03:12:14.04	158.99	15.17	-35.8	-36.7	21.2	0.00e+00	0	42	0	4038066176	41	4120
2026-01-18 03:12:16.74	159.27	14.91	-35.7	-36.6	21.3	0.00e+00	0	42	0	4057989120	41	4072
2026-01-18 03:12:20.02	159.61	14.61	-35.9	-36.8	21.1	0.00e+00	0	42	0	4082106368	41	4164
2026-01-18 03:12:22.74	159.89	14.36	-36.0	-36.9	20.9	0.00e+00	0	42	0	4100980736	41	4228
2026-01-18 03:12:26.02	160.22	14.06	-36.3	-37.3	20.6	0.00e+00	0	42	0	4125097984	42	4166
2026-01-18 03:12:28.76	160.49	13.81	-36.5	-37.4	20.4	0.00e+00	0	42	0	4145020928	42	4240
2026-01-18 03:12:32.12	160.82	13.51	-36.7	-37.7	20.2	0.00e+00	0	42	0	4169138176	42	4346
2026-01-18 03:12:34.84	161.08	13.27	-36.7	-37.6	20.2	0.00e+00	0	42	0	4189061120	42	4339
2026-01-18 03:12:38.22	161.39	12.97	-36.8	-37.8	20.1	0.00e+00	0	42	0	4213178368	43	4175
2026-01-18 03:12:40.92	161.64	12.74	-36.6	-37.6	20.3	0.00e+00	0	42	0	4233101312	43	4066
2026-01-18 03:12:44.19	161.94	12.45	-36.6	-37.6	20.2	0.00e+00	0	42	0	4256169984	43	4086
2026-01-18 03:12:46.98	162.19	12.21	-36.6	-37.6	20.2	0.00e+00	0	42	0	4276092928	43	4076
2026-01-18 03:12:50.10	162.46	11.95	-36.5	-37.5	20.3	0.00e+00	0	42	0	4299161600	43	4008
2026-01-18 03:12:52.95	162.70	11.71	-36.5	-37.5	20.3	0.00e+00	0	42	0	4320133120	43	4036
2026-01-18 03:12:56.12	162.97	11.44	-36.5	-37.5	20.2	0.00e+00	0	42	0	4342153216	43	4047
2026-01-18 03:12:58.96	163.21	11.21	-36.7	-37.7	20.2	0.00e+00	0	42	0	4363124736	43	4104
2026-01-18 03:13:02.09	163.47	10.95	-36.9	-38.0	19.8	0.00e+00	0	42	0	4385144832	43	4254
2026-01-18 03:13:05.12	163.71	10.70	-36.9	-37.9	19.8	0.00e+00	0	42	0	4407164928	43	4242
2026-01-18 03:13:08.45	163.97	10.43	-37.0	-38.0	19.8	0.00e+00	0	42	0	4431282176	43	4263
2026-01-18 03:13:11.67	164.22	10.18	-37.3	-38.3	19.6	0.00e+00	0	42	0	4454350848	44	4167
2026-01-18 03:13:14.97	164.48	9.91	-37.3	-38.3	19.6	0.00e+00	0	42	0	4478468096	44	4186
2026-01-18 03:13:17.68	164.68	9.70	-37.1	-38.2	19.7	0.00e+00	0	42	0	4498391040	44	4123
2026-01-18 03:13:20.96	164.92	9.44	-37.3	-38.4	19.5	0.00e+00	0	42	0	4521459712	44	4220
2026-01-18 03:13:23.69	165.12	9.23	-37.1	-38.3	19.5	0.00e+00	0	42	0	4541382656	44	4166
2026-01-18 03:13:27.22	165.38	8.96	-47.8	-56.7	3.9	8.38e-01	0	42	104	4564451328	65	10354
2026-01-18 03:13:29.93	165.57	8.75	-48.8	-59.7	3.8	8.46e-01	0	42	104	4564451328	67	13075
2026-01-18 03:13:33.21	165.80	8.50	-49.1	-60.0	3.8	8.47e-01	0	42	104	4564451328	67	13451
2026-01-18 03:13:35.91	165.98	8.30	-49.4	-60.2	3.8	8.46e-01	0	42	104	4564451328	68	12993
2026-01-18 03:13:39.20	166.21	8.06	-49.5	-60.3	3.8	8.47e-01	0	42	104	4564451328	68	13169
2026-01-18 03:13:42.01	166.39	7.85	-49.6	-60.3	3.8	8.47e-01	0	42	104	4564451328	68	13150
2026-01-18 03:13:45.30	166.61	7.61	-49.5	-60.2	3.8	8.47e-01	0	42	104	4564451328	68	13098
2026-01-18 03:13:48.30	166.81	7.39	-49.5	-60.2	3.8	8.47e-01	0	42	104	4564451328	68	13092
2026-01-18 03:13:51.82	167.03	7.13	-49.3	-60.2	3.8	8.46e-01	0	42	104	4564451328	68	13108
2026-01-18 03:13:54.51	167.20	6.94	-49.1	-60.1	3.8	8.48e-01	0	42	104	4564451328	68	12876
2026-01-18 03:13:57.79	167.40	6.71	-49.1	-60.2	3.8	8.47e-01	0	42	104	4564451328	68	12975
2026-01-18 03:14:00.48	167.57	6.51	-49.1	-60.1	3.8	8.47e-01	0	42	104	4564451328	68	12936
2026-01-18 03:14:03.75	167.76	6.28	-49.0	-60.1	3.8	8.47e-01	0	42	104	4564451328	68	12941
2026-01-18 03:14:06.46	167.92	6.10	-49.1	-60.1	3.8	8.46e-01	0	42	104	4564451328	68	12857
2026-01-18 03:14:09.73	168.12	5.87	-49.0	-60.1	3.8	8.48e-01	0	42	104	4564451328	68	12926
2026-01-18 03:14:12.45	168.27	5.68	-49.0	-60.1	3.8	8.46e-01	0	42	104	4564451328	68	12891
2026-01-18 03:14:15.72	168.46	5.46	-49.0	-60.1	3.8	8.48e-01	0	42	104	4564451328	68	12940
2026-01-18 03:14:18.43	168.61	5.27	-49.0	-60.1	3.8	8.46e-01	0	43	104	4564451328	68	12954
2026-01-18 03:14:21.69	168.79	5.05	-49.0	-60.1	3.8	8.48e-01	0	42	104	4564451328	68	12869

#Closed at: 2026-01-18 03:14:23
#Recorded file [4564 MB]: D:/Data/31040_260118_060202.dat