passes_logs/2026/01/18/T1/T1__20260118_094000_NOAA_21_JPSS-2_rec.log

#Pass ID: 20260118_094000_NOAA 21 (JPSS-2)
#Satellite: NOAA 21 (JPSS-2)
#Configuration: NOAA 21
#almurnet v.1.7.20251203
#Start time: 2026-01-18 09:40:01

#Version: 2.0.20230620
#Station: T1
#Location: 37.570604 lon 55.790049 lat
#TLE: 1 54234U 22150A   26017.62066529  .00000042  00000+0  40984-4 0  9994
#TLE: 2 54234  98.7502 318.4887 0000613 271.5460  88.5645 14.19535234165189

#Time	Az	El	Level	Level2	SNR	BER	BlckErr	Temp	State	Recorded	gain1	gain2
2026-01-18 09:40:01.83	152.10	5.13	-48.5	-61.3	3.8	1.49e+00	0	37	0	0	68	15828
2026-01-18 09:40:04.81	152.06	5.35	-48.5	-61.5	3.8	1.49e+00	0	38	104	0	69	15366
2026-01-18 09:40:07.79	152.02	5.56	-48.5	-61.6	3.8	1.49e+00	0	38	104	0	69	15493
2026-01-18 09:40:10.77	151.98	5.78	-48.5	-61.1	3.8	1.49e+00	0	38	104	0	68	15460
2026-01-18 09:40:13.75	151.94	6.00	-48.4	-60.3	3.8	1.49e+00	0	38	104	0	68	14195
2026-01-18 09:40:16.73	151.90	6.22	-48.4	-60.4	3.8	1.49e+00	0	38	104	0	68	14281
2026-01-18 09:40:19.71	151.86	6.45	-48.5	-61.0	3.8	1.49e+00	0	38	104	0	68	15400
2026-01-18 09:40:22.69	151.81	6.67	-48.5	-61.7	3.8	1.49e+00	0	38	104	0	68	16582
2026-01-18 09:40:25.67	151.77	6.90	-48.5	-61.3	3.8	1.49e+00	0	38	104	0	68	15768
2026-01-18 09:40:28.65	151.73	7.13	-48.3	-60.1	3.8	1.49e+00	0	38	104	0	68	13734
2026-01-18 09:40:31.63	151.68	7.36	-47.8	-57.1	4.0	1.23e+00	0	38	104	0	67	10381
2026-01-18 09:40:34.61	151.64	7.60	-46.4	-51.7	8.4	5.67e-02	0	39	0	0	64	6609
2026-01-18 09:40:37.59	151.59	7.84	-44.8	-48.3	12.1	3.89e-04	0	39	0	0	61	5280
2026-01-18 09:40:40.57	151.54	8.07	-43.2	-45.9	14.6	7.00e-07	0	39	0	0	58	4765
2026-01-18 09:40:43.55	151.49	8.32	-42.6	-45.1	15.3	0.00e+00	0	39	0	0	57	4628
2026-01-18 09:40:46.53	151.45	8.56	-43.0	-45.7	14.8	0.00e+00	0	39	0	0	56	5223
2026-01-18 09:40:49.51	151.40	8.81	-44.6	-47.9	12.4	1.02e-04	0	39	0	0	59	5720
2026-01-18 09:40:52.49	151.34	9.05	-45.6	-49.7	10.6	2.06e-02	0	39	0	0	63	5592
2026-01-18 09:40:55.47	151.29	9.30	-43.8	-46.6	13.7	1.82e-03	0	39	0	0	59	4904
2026-01-18 09:40:58.46	151.24	9.56	-41.2	-43.3	17.0	0.00e+00	0	39	0	0	54	4491
2026-01-18 09:41:01.44	151.18	9.81	-40.7	-42.7	17.6	0.00e+00	0	39	0	0	53	4432
2026-01-18 09:41:04.46	151.13	10.08	-40.4	-42.3	17.9	0.00e+00	0	39	0	0	52	4482
2026-01-18 09:41:07.44	151.07	10.34	-40.1	-42.0	18.2	0.00e+00	0	39	0	0	52	4307
2026-01-18 09:41:10.43	151.01	10.60	-40.0	-41.9	18.4	0.00e+00	0	39	0	0	52	4261
2026-01-18 09:41:13.41	150.95	10.87	-40.0	-41.9	18.4	0.00e+00	0	39	0	0	52	4261
2026-01-18 09:41:16.39	150.89	11.14	-39.9	-41.8	18.6	0.00e+00	0	39	0	0	51	4474
2026-01-18 09:41:19.38	150.83	11.41	-40.0	-41.8	18.5	0.00e+00	0	39	0	0	51	4483
2026-01-18 09:41:22.44	150.77	11.69	-39.7	-41.6	18.8	0.00e+00	0	39	0	0	51	4359
2026-01-18 09:41:25.31	150.71	11.96	-39.7	-41.5	18.8	0.00e+00	0	39	0	0	51	4338
2026-01-18 09:41:28.44	150.64	12.26	-39.7	-41.6	18.8	0.00e+00	0	39	0	0	51	4366
2026-01-18 09:41:31.28	150.57	12.53	-39.6	-41.5	18.9	0.00e+00	0	39	0	0	51	4298
2026-01-18 09:41:34.44	150.50	12.84	-39.5	-41.3	19.1	0.00e+00	0	40	0	0	50	4454
2026-01-18 09:41:37.34	150.43	13.12	-39.5	-41.3	19.1	0.00e+00	0	39	0	0	50	4471
2026-01-18 09:41:40.46	150.36	13.43	-39.4	-41.2	19.2	0.00e+00	0	40	0	0	50	4402
2026-01-18 09:41:43.30	150.29	13.72	-39.3	-41.1	19.2	0.00e+00	0	40	0	0	50	4379
2026-01-18 09:41:46.43	150.21	14.03	-39.3	-41.0	19.3	0.00e+00	0	40	0	0	50	4333
2026-01-18 09:41:49.27	150.14	14.33	-39.2	-41.0	19.4	0.00e+00	0	40	0	0	50	4307
2026-01-18 09:41:52.40	150.05	14.65	-39.2	-41.0	19.4	0.00e+00	0	40	0	0	50	4320
2026-01-18 09:41:55.26	149.98	14.95	-39.1	-40.9	19.4	0.00e+00	0	40	0	0	50	4276
2026-01-18 09:41:58.51	149.89	15.30	-39.2	-41.0	19.4	0.00e+00	0	40	0	0	50	4329
2026-01-18 09:42:01.27	149.81	15.60	-39.2	-41.0	19.4	0.00e+00	0	40	0	0	50	4325
2026-01-18 09:42:04.56	149.71	15.96	-39.3	-41.1	19.4	0.00e+00	0	39	0	0	50	4357
2026-01-18 09:42:07.26	149.64	16.26	-39.3	-41.0	19.4	0.00e+00	0	40	0	0	50	4336
2026-01-18 09:42:10.53	149.54	16.63	-39.3	-41.0	19.5	0.00e+00	0	40	0	0	50	4335
2026-01-18 09:42:13.28	149.45	16.95	-39.3	-41.1	19.4	0.00e+00	0	40	0	0	50	4366
2026-01-18 09:42:16.56	149.35	17.33	-39.3	-41.1	19.5	0.00e+00	0	40	0	0	50	4365
2026-01-18 09:42:19.26	149.26	17.64	-39.4	-41.2	19.4	0.00e+00	0	40	0	0	50	4426
2026-01-18 09:42:22.56	149.15	18.04	-39.3	-41.1	19.5	0.00e+00	0	40	0	0	50	4363
2026-01-18 09:42:25.31	149.05	18.37	-39.3	-41.0	19.5	0.00e+00	0	40	0	0	50	4327
2026-01-18 09:42:28.58	148.94	18.77	-39.3	-41.0	19.5	0.00e+00	0	40	0	0	50	4331
2026-01-18 09:42:31.30	148.84	19.11	-39.3	-41.0	19.5	0.00e+00	0	40	0	0	50	4311
2026-01-18 09:42:34.59	148.72	19.53	-39.2	-40.9	19.6	0.00e+00	0	40	0	0	50	4291
2026-01-18 09:42:37.66	148.60	19.92	-38.9	-40.6	19.8	0.00e+00	0	40	0	0	49	4390
2026-01-18 09:42:40.80	148.48	20.33	-38.8	-40.5	19.9	0.00e+00	0	40	0	0	49	4296
2026-01-18 09:42:43.64	148.36	20.71	-38.8	-40.5	19.9	0.00e+00	0	40	0	0	49	4329
2026-01-18 09:42:46.77	148.23	21.13	-38.5	-40.2	20.2	0.00e+00	0	40	0	0	49	4157
2026-01-18 09:42:49.61	148.11	21.52	-38.2	-39.9	20.4	0.00e+00	0	40	0	0	48	4262
2026-01-18 09:42:53.16	147.95	22.01	-38.1	-39.7	20.6	0.00e+00	0	40	0	0	48	4179
2026-01-18 09:42:55.93	147.83	22.40	-38.1	-39.8	20.6	0.00e+00	0	40	0	0	48	4204
2026-01-18 09:42:59.26	147.67	22.88	-37.9	-39.6	20.6	0.00e+00	0	40	0	0	47	4370
2026-01-18 09:43:01.98	147.54	23.28	-37.7	-39.3	20.8	0.00e+00	0	40	0	0	47	4236
2026-01-18 09:43:05.24	147.38	23.76	-37.7	-39.3	20.8	0.00e+00	0	40	0	0	47	4233
2026-01-18 09:43:07.94	147.24	24.17	-37.7	-39.3	20.8	0.00e+00	0	40	0	0	47	4231
2026-01-18 09:43:11.23	147.07	24.68	-37.8	-39.4	20.7	0.00e+00	0	40	0	0	47	4284
2026-01-18 09:43:13.96	146.92	25.11	-37.9	-39.6	20.7	0.00e+00	0	40	0	0	47	4357
2026-01-18 09:43:17.23	146.74	25.63	-38.3	-39.9	20.4	0.00e+00	0	40	0	0	47	4536
2026-01-18 09:43:19.94	146.58	26.07	-38.3	-40.0	20.3	0.00e+00	0	40	0	0	47	4563
2026-01-18 09:43:23.21	146.38	26.60	-38.4	-40.1	20.2	0.00e+00	0	40	0	0	47	4639
2026-01-18 09:43:25.97	146.21	27.07	-38.7	-40.4	20.1	0.00e+00	0	40	0	0	48	4528
2026-01-18 09:43:29.23	146.00	27.62	-39.0	-40.8	19.8	0.00e+00	0	40	0	0	48	4714
2026-01-18 09:43:32.07	145.82	28.12	-39.2	-40.9	19.8	0.00e+00	0	40	0	0	48	4783
2026-01-18 09:43:35.20	145.60	28.67	-39.3	-41.1	19.6	0.00e+00	0	40	0	0	49	4607
2026-01-18 09:43:38.04	145.40	29.19	-39.2	-40.9	19.7	0.00e+00	0	40	0	0	49	4530
2026-01-18 09:43:41.17	145.17	29.76	-39.0	-40.7	19.9	0.00e+00	0	40	0	0	49	4410
2026-01-18 09:43:44.01	144.96	30.29	-38.9	-40.6	20.0	0.00e+00	0	40	0	0	49	4388
2026-01-18 09:43:47.32	144.70	30.93	-38.8	-40.5	20.1	0.00e+00	0	40	0	0	49	4316
2026-01-18 09:43:50.23	144.46	31.49	-38.8	-40.5	20.1	0.00e+00	0	40	0	0	49	4326
2026-01-18 09:43:53.21	144.20	32.08	-39.0	-40.7	20.0	0.00e+00	0	40	0	0	49	4416
2026-01-18 09:43:56.19	143.94	32.68	-39.2	-40.9	19.7	0.00e+00	0	40	0	0	49	4545
2026-01-18 09:43:59.18	143.67	33.30	-39.3	-41.0	19.6	0.00e+00	0	40	0	0	49	4586
2026-01-18 09:44:02.12	143.39	33.92	-39.6	-41.3	19.3	0.00e+00	0	40	0	0	49	4745
2026-01-18 09:44:05.22	143.08	34.58	-39.8	-41.6	19.2	0.00e+00	0	40	0	0	50	4627
2026-01-18 09:44:08.72	142.71	35.35	-40.2	-42.0	18.8	0.00e+00	0	40	0	0	51	4577
2026-01-18 09:44:11.48	142.41	35.96	-40.7	-42.6	18.2	0.00e+00	0	40	0	0	52	4616
2026-01-18 09:44:14.82	142.04	36.72	-41.0	-43.0	17.8	0.00e+00	0	40	0	0	52	4836
2026-01-18 09:44:17.52	141.72	37.35	-41.1	-43.0	17.7	0.00e+00	0	40	0	0	52	4867
2026-01-18 09:44:20.80	141.31	38.12	-40.9	-42.9	17.9	0.00e+00	0	40	0	0	53	4500
2026-01-18 09:44:23.56	140.95	38.79	-40.9	-42.9	17.9	0.00e+00	0	40	0	0	53	4503
2026-01-18 09:44:26.83	140.51	39.59	-41.0	-43.0	17.7	0.00e+00	0	40	0	0	53	4586
2026-01-18 09:44:29.81	140.09	40.34	-40.6	-42.5	18.3	0.00e+00	0	40	0	0	53	4337
2026-01-18 09:44:33.32	139.56	41.24	-40.0	-41.8	19.0	0.00e+00	0	40	0	0	51	4471
2026-01-18 09:44:36.03	139.14	41.94	-40.4	-42.3	18.6	0.00e+00	0	41	0	0	51	4707
2026-01-18 09:44:39.31	138.59	42.81	-40.8	-42.8	17.7	0.00e+00	0	40	0	0	52	4737
2026-01-18 09:44:42.20	138.09	43.59	-41.1	-43.1	17.6	0.00e+00	0	40	0	0	52	4898
2026-01-18 09:44:45.56	137.47	44.52	-41.6	-43.6	17.3	0.00e+00	0	40	0	0	53	4905
2026-01-18 09:44:48.28	136.95	45.28	-41.7	-43.7	17.1	0.00e+00	0	40	0	0	54	4688
2026-01-18 09:44:51.54	136.28	46.21	-41.4	-43.5	17.3	0.00e+00	0	40	0	0	54	4548
2026-01-18 09:44:54.29	135.68	47.01	-41.2	-43.2	17.5	0.00e+00	0	40	0	0	54	4427
2026-01-18 09:44:57.56	134.93	47.97	-41.2	-43.2	17.6	0.00e+00	0	40	0	0	54	4437
2026-01-18 09:45:00.30	134.27	48.79	-40.6	-42.4	18.3	0.00e+00	0	40	0	0	53	4279
2026-01-18 09:45:03.59	133.42	49.79	-40.5	-42.4	18.4	0.00e+00	0	40	0	0	53	4279
2026-01-18 09:45:06.29	132.68	50.62	-40.1	-41.9	18.8	0.00e+00	0	40	0	0	52	4290
2026-01-18 09:45:09.56	131.72	51.64	-40.5	-42.3	18.4	0.00e+00	0	40	0	0	52	4491
2026-01-18 09:45:12.31	130.87	52.51	-40.0	-41.8	18.9	0.00e+00	0	40	0	0	51	4463
2026-01-18 09:45:15.61	129.78	53.56	-39.8	-41.6	18.9	0.00e+00	0	40	0	0	51	4361
2026-01-18 09:45:18.83	128.63	54.59	-39.9	-41.8	18.9	0.00e+00	0	40	0	0	51	4449
2026-01-18 09:45:21.82	127.48	55.56	-39.6	-41.3	19.4	0.00e+00	0	40	0	0	51	4239
2026-01-18 09:45:24.81	126.26	56.54	-39.4	-41.1	19.7	0.00e+00	0	41	0	0	50	4385
2026-01-18 09:45:27.80	124.94	57.52	-39.0	-40.7	20.1	0.00e+00	0	40	0	0	49	4397
2026-01-18 09:45:30.83	123.50	58.51	-39.0	-40.7	20.0	0.00e+00	0	41	0	0	49	4434
2026-01-18 09:45:33.85	121.96	59.49	-38.8	-40.5	20.1	0.00e+00	0	40	0	0	49	4332
2026-01-18 09:45:36.83	120.32	60.46	-38.2	-39.9	20.8	0.00e+00	0	40	0	0	48	4246
2026-01-18 09:45:39.82	118.54	61.43	-37.8	-39.4	20.9	0.00e+00	0	40	0	0	47	4273
2026-01-18 09:45:42.80	116.63	62.37	-37.7	-39.3	21.1	0.00e+00	0	40	0	0	47	4238
2026-01-18 09:45:45.78	114.56	63.31	-37.7	-39.3	21.1	0.00e+00	0	41	0	0	46	4463
2026-01-18 09:45:48.73	112.35	64.21	-37.4	-39.0	21.3	0.00e+00	0	40	0	0	46	4330
2026-01-18 09:45:52.22	109.50	65.24	-37.6	-39.2	21.1	0.00e+00	0	41	0	0	46	4408
2026-01-18 09:45:54.99	107.04	66.02	-38.0	-39.7	20.7	0.00e+00	0	41	0	0	46	4657
2026-01-18 09:45:58.25	103.93	66.90	-36.9	-38.5	21.8	0.00e+00	0	40	0	0	45	4300
2026-01-18 09:46:00.99	101.11	67.59	-37.3	-38.9	21.4	0.00e+00	0	40	0	0	45	4502
2026-01-18 09:46:04.27	97.48	68.35	-37.1	-38.6	21.4	0.00e+00	0	41	0	0	45	4391
2026-01-18 09:46:07.11	94.12	68.95	-37.6	-39.2	21.0	0.00e+00	0	40	0	0	45	4679
2026-01-18 09:46:10.24	90.18	69.53	-37.4	-38.9	21.3	0.00e+00	0	41	0	0	46	4281
2026-01-18 09:46:13.36	86.04	70.01	-37.5	-39.1	21.2	0.00e+00	0	41	0	0	46	4385
2026-01-18 09:46:16.65	81.45	70.41	-37.1	-38.6	21.5	0.00e+00	0	41	0	0	46	4129
2026-01-18 09:46:19.37	77.53	70.65	-38.2	-39.9	20.6	0.00e+00	0	41	0	0	47	4510
2026-01-18 09:46:22.62	72.73	70.83	-37.7	-39.3	21.0	0.00e+00	0	40	0	0	47	4211
2026-01-18 09:46:25.86	67.89	70.87	-38.1	-39.8	20.4	0.00e+00	0	41	0	0	47	4473
2026-01-18 09:46:28.75	63.58	70.80	-37.4	-39.0	21.2	0.00e+00	0	41	0	0	46	4332
2026-01-18 09:46:32.22	58.49	70.58	-38.3	-39.9	20.6	0.00e+00	0	41	0	0	48	4272
2026-01-18 09:46:35.29	54.11	70.27	-37.5	-39.1	21.3	0.00e+00	0	40	0	0	46	4348
2026-01-18 09:46:38.15	50.18	69.89	-37.4	-38.9	21.3	0.00e+00	0	41	0	0	46	4280
2026-01-18 09:46:41.28	46.08	69.38	-37.6	-39.2	21.0	0.00e+00	0	41	0	0	45	4687
2026-01-18 09:46:44.19	42.48	68.83	-38.1	-39.7	20.4	0.00e+00	0	41	0	0	47	4431
2026-01-18 09:46:47.75	38.36	68.05	-37.7	-39.2	21.2	0.00e+00	0	40	0	0	46	4439
2026-01-18 09:46:50.56	35.34	67.38	-37.6	-39.1	20.7	0.00e+00	0	41	0	0	47	4142
2026-01-18 09:46:54.13	31.78	66.45	-38.9	-40.6	20.2	0.00e+00	0	41	0	0	48	4649
2026-01-18 09:46:56.85	29.27	65.70	-37.9	-39.6	20.6	0.00e+00	0	41	0	0	47	4343
2026-01-18 09:47:00.13	26.48	64.76	-38.2	-39.8	20.7	0.00e+00	0	41	0	0	47	4486
2026-01-18 09:47:02.86	24.33	63.94	-38.4	-40.1	20.3	0.00e+00	0	41	0	0	48	4341
2026-01-18 09:47:06.26	21.85	62.90	-38.5	-40.1	20.4	0.00e+00	0	41	0	0	47	4642
2026-01-18 09:47:08.98	20.03	62.04	-39.0	-40.8	19.9	0.00e+00	0	41	0	0	49	4442
2026-01-18 09:47:12.26	17.99	61.00	-38.1	-39.7	20.8	0.00e+00	0	41	0	0	47	4394
2026-01-18 09:47:14.99	16.42	60.12	-39.3	-41.0	19.8	0.00e+00	0	41	0	0	49	4561
2026-01-18 09:47:18.26	14.68	59.05	-38.2	-39.7	20.8	0.00e+00	0	41	0	0	48	4191
2026-01-18 09:47:21.23	13.22	58.08	-38.9	-40.6	20.2	0.00e+00	0	41	0	0	48	4599
2026-01-18 09:47:24.50	11.73	57.02	-38.6	-40.2	20.0	0.00e+00	0	41	0	0	49	4191
2026-01-18 09:47:27.20	10.58	56.14	-38.5	-40.1	20.5	0.00e+00	0	41	0	0	48	4388
2026-01-18 09:47:30.48	9.28	55.08	-39.9	-41.7	19.2	0.00e+00	0	41	0	0	50	4695
2026-01-18 09:47:33.20	8.28	54.20	-40.8	-42.7	17.9	0.00e+00	0	41	0	0	52	4676
2026-01-18 09:47:36.55	7.12	53.13	-39.7	-41.4	19.4	0.00e+00	0	41	0	0	50	4536
2026-01-18 09:47:39.28	6.24	52.27	-40.2	-41.9	19.0	0.00e+00	0	41	0	0	51	4540
2026-01-18 09:47:42.55	5.25	51.25	-40.4	-42.2	18.7	0.00e+00	0	41	0	0	51	4681
2026-01-18 09:47:45.27	4.48	50.41	-40.0	-41.7	19.0	0.00e+00	0	41	0	0	51	4428
2026-01-18 09:47:48.67	3.57	49.37	-41.4	-43.4	17.5	0.00e+00	0	41	0	0	53	4807
2026-01-18 09:47:51.37	2.89	48.56	-42.0	-44.1	16.7	0.00e+00	0	41	0	0	54	4919
2026-01-18 09:47:54.64	2.12	47.59	-41.7	-43.8	16.9	0.00e+00	0	41	0	0	54	4737
2026-01-18 09:47:57.56	1.47	46.74	-40.6	-42.5	18.1	0.00e+00	0	41	0	0	53	4295
2026-01-18 09:48:00.78	0.79	45.82	-40.5	-42.3	18.5	0.00e+00	0	41	0	0	52	4469
2026-01-18 09:48:03.82	0.19	44.96	-42.1	-44.4	16.5	0.00e+00	0	41	0	0	54	5090
2026-01-18 09:48:06.81	359.62	44.13	-41.9	-44.0	16.2	0.00e+00	0	41	0	0	55	4594
2026-01-18 09:48:09.79	359.09	43.32	-41.9	-44.1	16.6	0.00e+00	0	41	0	0	55	4618
2026-01-18 09:48:12.77	358.59	42.53	-41.1	-43.1	17.9	0.00e+00	0	41	0	0	54	4353
2026-01-18 09:48:15.76	358.10	41.74	-40.7	-42.6	18.2	0.00e+00	0	41	0	0	53	4384
2026-01-18 09:48:18.74	357.64	40.97	-41.3	-43.3	17.6	0.00e+00	0	41	0	0	53	4734
2026-01-18 09:48:21.73	357.21	40.22	-41.7	-43.8	17.1	0.00e+00	0	41	0	0	54	4732
2026-01-18 09:48:24.71	356.79	39.48	-41.5	-43.6	17.0	0.00e+00	0	41	0	0	54	4623
2026-01-18 09:48:27.70	356.39	38.75	-41.4	-43.4	17.3	0.00e+00	0	41	0	0	54	4519
2026-01-18 09:48:30.96	355.98	37.97	-40.4	-42.4	18.5	0.00e+00	0	41	0	0	52	4498
2026-01-18 09:48:33.69	355.64	37.33	-40.1	-42.0	18.8	0.00e+00	0	41	0	0	52	4307
2026-01-18 09:48:36.98	355.26	36.57	-39.5	-41.3	19.4	0.00e+00	0	41	0	0	51	4223
2026-01-18 09:48:39.72	354.96	35.96	-39.9	-41.7	19.0	0.00e+00	0	41	0	0	51	4412
2026-01-18 09:48:43.00	354.61	35.23	-40.4	-42.3	18.6	0.00e+00	0	41	0	0	51	4706
2026-01-18 09:48:45.83	354.32	34.62	-40.5	-42.4	18.5	0.00e+00	0	41	0	0	51	4775
2026-01-18 09:48:49.23	353.98	33.90	-40.2	-42.1	18.7	0.00e+00	0	41	0	0	51	4617
2026-01-18 09:48:52.00	353.72	33.32	-39.9	-41.8	18.9	0.00e+00	0	41	0	0	51	4478
2026-01-18 09:48:55.28	353.42	32.65	-40.0	-41.8	18.9	0.00e+00	0	41	0	0	51	4484
2026-01-18 09:48:58.01	353.19	32.10	-40.1	-42.0	18.8	0.00e+00	0	41	0	0	51	4564
2026-01-18 09:49:01.28	352.91	31.46	-40.0	-41.9	18.9	0.00e+00	0	41	0	0	51	4515
2026-01-18 09:49:03.98	352.69	30.94	-39.7	-41.5	19.3	0.00e+00	0	41	0	0	51	4300
2026-01-18 09:49:07.25	352.44	30.32	-39.4	-41.2	19.5	0.00e+00	0	41	0	0	50	4399
2026-01-18 09:49:09.96	352.24	29.81	-38.6	-40.2	20.3	0.00e+00	0	41	0	0	49	4188
2026-01-18 09:49:13.25	352.00	29.21	-38.5	-40.1	20.4	0.00e+00	0	41	0	0	48	4373
2026-01-18 09:49:15.98	351.81	28.72	-38.5	-40.2	20.4	0.00e+00	0	41	0	0	48	4414
2026-01-18 09:49:19.25	351.59	28.15	-38.8	-40.5	20.2	0.00e+00	0	41	0	0	48	4581
2026-01-18 09:49:21.99	351.41	27.67	-38.8	-40.5	20.3	0.00e+00	0	41	0	0	48	4552
2026-01-18 09:49:25.28	351.20	27.11	-38.8	-40.6	20.2	0.00e+00	0	41	0	0	48	4601
2026-01-18 09:49:28.01	351.04	26.66	-38.6	-40.3	20.4	0.00e+00	0	41	0	0	48	4461
2026-01-18 09:49:31.29	350.84	26.12	-38.6	-40.2	20.4	0.00e+00	0	41	0	0	48	4434
2026-01-18 09:49:34.02	350.69	25.68	-38.8	-40.5	20.2	0.00e+00	0	41	0	0	48	4586
2026-01-18 09:49:37.53	350.50	25.13	-38.9	-40.7	20.0	0.00e+00	0	41	0	0	48	4657
2026-01-18 09:49:40.43	350.34	24.68	-39.2	-41.0	19.7	0.00e+00	0	41	0	0	49	4573
2026-01-18 09:49:43.71	350.17	24.18	-39.4	-41.3	19.4	0.00e+00	0	41	0	0	49	4713
2026-01-18 09:49:46.45	350.03	23.77	-39.4	-41.3	19.4	0.00e+00	0	41	0	0	49	4719
2026-01-18 09:49:49.72	349.88	23.29	-39.3	-41.2	19.5	0.00e+00	0	41	0	0	49	4652
2026-01-18 09:49:52.44	349.75	22.89	-39.1	-40.9	19.7	0.00e+00	0	41	0	0	49	4521
2026-01-18 09:49:55.72	349.60	22.42	-38.9	-40.7	19.9	0.00e+00	0	41	0	0	49	4394
2026-01-18 09:49:58.42	349.48	22.04	-38.6	-40.3	20.1	0.00e+00	0	41	0	0	49	4236
2026-01-18 09:50:01.82	349.33	21.58	-38.5	-40.2	20.2	0.00e+00	0	41	0	0	48	4423
2026-01-18 09:50:04.53	349.22	21.21	-38.2	-39.8	20.5	0.00e+00	0	41	0	0	48	4241
2026-01-18 09:50:07.81	349.09	20.77	-38.2	-39.9	20.5	0.00e+00	0	41	0	0	48	4243
2026-01-18 09:50:10.57	348.98	20.40	-38.2	-39.9	20.5	0.00e+00	0	41	0	0	48	4246
2026-01-18 09:50:13.87	348.85	19.98	-38.3	-40.0	20.5	0.00e+00	0	41	0	0	48	4293
2026-01-18 09:50:16.78	348.74	19.61	-38.3	-40.0	20.5	0.00e+00	0	41	0	0	48	4306
2026-01-18 09:50:20.96	348.59	19.08	-38.5	-40.3	20.3	0.00e+00	0	41	0	0	48	4445
2026-01-18 09:50:23.80	348.49	18.73	-38.5	-40.3	20.3	0.00e+00	0	41	0	0	48	4458
2026-01-18 09:50:27.78	348.36	18.25	-38.7	-40.5	20.1	0.00e+00	0	41	0	0	48	4578
2026-01-18 09:50:30.61	348.26	17.91	-38.8	-40.7	19.9	0.00e+00	0	41	0	0	48	4656
2026-01-18 09:50:34.81	348.13	17.42	-39.0	-40.9	19.7	0.00e+00	0	41	0	0	48	4778
2026-01-18 09:50:37.69	348.04	17.09	-39.1	-41.0	19.6	0.00e+00	0	41	0	0	48	4830
2026-01-18 09:50:41.94	347.91	16.60	-39.4	-41.3	19.3	0.00e+00	0	41	0	0	49	4715
2026-01-18 09:50:44.78	347.83	16.29	-39.6	-41.5	19.1	0.00e+00	0	41	0	0	49	4856
2026-01-18 09:50:48.95	347.71	15.83	-39.7	-41.7	18.9	0.00e+00	0	41	0	0	50	4662
2026-01-18 09:50:51.92	347.63	15.51	-39.8	-41.8	18.8	0.00e+00	0	41	0	0	50	4728
2026-01-18 09:50:55.60	347.53	15.11	-39.8	-41.8	18.8	0.00e+00	0	41	0	0	50	4744
2026-01-18 09:50:58.30	347.46	14.83	-39.9	-41.9	18.7	0.00e+00	0	41	0	0	50	4787
2026-01-18 09:51:01.62	347.38	14.49	-39.9	-41.9	18.7	0.00e+00	0	41	0	0	50	4788
2026-01-18 09:51:04.33	347.31	14.21	-39.9	-42.0	18.6	0.00e+00	0	41	0	0	50	4841
2026-01-18 09:51:07.60	347.23	13.88	-39.9	-42.0	18.6	0.00e+00	0	41	0	0	50	4822
2026-01-18 09:51:10.55	347.16	13.58	-39.8	-41.9	18.6	0.00e+00	0	41	0	0	50	4806
2026-01-18 09:51:13.53	347.09	13.29	-39.9	-41.9	18.6	0.00e+00	0	41	0	0	50	4794
2026-01-18 09:51:16.52	347.03	12.99	-39.9	-41.9	18.7	0.00e+00	0	41	0	0	50	4764
2026-01-18 09:51:19.50	346.96	12.71	-40.0	-41.9	18.6	0.00e+00	0	41	0	0	50	4802
2026-01-18 09:51:22.49	346.90	12.42	-39.9	-41.9	18.6	0.00e+00	0	41	0	0	50	4780
2026-01-18 09:51:25.47	346.83	12.14	-39.8	-41.8	18.7	0.00e+00	0	41	0	0	50	4717
2026-01-18 09:51:28.46	346.77	11.86	-39.6	-41.8	18.7	0.00e+00	0	41	0	0	50	4740
2026-01-18 09:51:31.44	346.71	11.59	-39.5	-41.8	18.7	0.00e+00	0	41	0	0	50	4718
2026-01-18 09:51:34.43	346.65	11.31	-39.5	-41.9	18.6	0.00e+00	0	41	0	0	50	4773
2026-01-18 09:51:37.41	346.60	11.05	-39.4	-41.7	18.7	0.00e+00	0	41	0	0	50	4691
2026-01-18 09:51:40.40	346.54	10.78	-39.5	-41.9	18.6	0.00e+00	0	41	0	0	50	4763
2026-01-18 09:51:43.39	346.48	10.51	-39.5	-41.9	18.5	0.00e+00	0	41	0	0	50	4801
2026-01-18 09:51:46.37	346.43	10.25	-39.5	-42.0	18.5	0.00e+00	0	41	0	0	50	4826
2026-01-18 09:51:49.34	346.38	10.00	-39.4	-41.9	18.5	0.00e+00	0	41	0	0	50	4811
2026-01-18 09:51:52.33	346.33	9.74	-39.5	-42.0	18.5	0.00e+00	0	41	0	0	50	4820
2026-01-18 09:51:55.31	346.28	9.49	-39.6	-42.1	18.4	0.00e+00	0	41	0	0	50	4878
2026-01-18 09:51:58.30	346.23	9.24	-39.7	-42.3	18.1	0.00e+00	0	41	0	0	50	5028
2026-01-18 09:52:01.28	346.18	8.99	-39.6	-42.3	18.1	0.00e+00	0	41	0	0	50	5041
2026-01-18 09:52:04.27	346.13	8.74	-48.9	-62.3	3.8	1.49e+00	0	41	104	0	68	17812
2026-01-18 09:52:07.36	346.08	8.49	-48.7	-62.6	3.8	1.49e+00	0	41	104	0	68	18357
2026-01-18 09:52:10.43	346.04	8.24	-48.9	-62.7	3.8	1.49e+00	0	41	104	0	69	17482
2026-01-18 09:52:13.51	345.99	8.00	-49.6	-62.7	3.8	1.49e+00	0	41	104	0	69	17506
2026-01-18 09:52:16.52	345.95	7.76	-49.6	-62.7	3.8	1.49e+00	0	41	104	0	69	17487
2026-01-18 09:52:19.50	345.91	7.53	-49.5	-62.6	3.8	1.49e+00	0	41	104	0	69	17466
2026-01-18 09:52:22.48	345.86	7.30	-49.7	-62.6	3.8	1.49e+00	0	41	104	0	70	16481
2026-01-18 09:52:25.46	345.82	7.07	-49.6	-62.6	3.8	1.49e+00	0	41	104	0	70	16492
2026-01-18 09:52:28.44	345.78	6.84	-49.6	-62.6	3.8	1.49e+00	0	41	104	0	70	16457
2026-01-18 09:52:31.44	345.74	6.61	-49.3	-62.6	3.8	1.49e+00	0	41	104	0	70	16372
2026-01-18 09:52:34.42	345.71	6.39	-49.3	-62.6	3.8	1.49e+00	0	41	104	0	70	16326
2026-01-18 09:52:37.40	345.67	6.17	-49.3	-62.6	3.8	1.49e+00	0	41	104	0	70	16336
2026-01-18 09:52:40.37	345.63	5.95	-49.3	-62.5	3.8	1.49e+00	0	41	104	0	70	16297
2026-01-18 09:52:43.35	345.60	5.73	-49.3	-62.5	3.8	1.49e+00	0	41	104	0	70	16240
2026-01-18 09:52:46.33	345.56	5.51	-49.3	-62.5	3.8	1.49e+00	0	41	104	0	70	16246
2026-01-18 09:52:49.31	345.53	5.30	-49.2	-62.5	3.8	1.49e+00	0	41	104	0	70	16190
2026-01-18 09:52:52.29	345.49	5.09	-49.2	-62.5	3.8	1.49e+00	0	42	104	0	70	16218

#Closed at: 2026-01-18 09:52:55
#Recorded file [0 MB]: D:/Data/31040_260118_124001.dat