passes_logs/2026/01/18/T1/T1__20260118_003950_NOAA_20_JPSS-1_rec.log

#Pass ID: 20260118_003950_NOAA 20 (JPSS-1)
#Satellite: NOAA 20 (JPSS-1)
#Configuration: NOAA 20
#almurnet v.1.7.20251203
#Start time: 2026-01-18 00:39:52

#Version: 2.0.20230620
#Station: T1
#Location: 37.570604 lon 55.790049 lat
#TLE: 1 43013U 17073A   26017.30359522  .00000067  00000+0  52526-4 0  9990
#TLE: 2 43013  98.7639 318.2187 0001419  36.2087 323.9184 14.19536557423067

#Time	Az	El	Level	Level2	SNR	BER	BlckErr	Temp	State	Recorded	gain1	gain2
2026-01-18 00:39:52.07	10.38	5.14	-48.2	-65.0	3.9	1.49e+00	0	41	0	0	67	25844
2026-01-18 00:39:55.05	10.23	5.34	-48.1	-65.0	3.8	1.49e+00	0	41	104	0	67	25817
2026-01-18 00:39:58.03	10.09	5.55	-48.1	-65.0	3.8	1.49e+00	0	41	104	0	67	25615
2026-01-18 00:40:01.01	9.94	5.75	-48.1	-65.0	3.8	1.49e+00	0	41	104	0	67	25630
2026-01-18 00:40:03.98	9.80	5.96	-48.1	-65.0	3.8	1.49e+00	0	41	104	0	67	25625
2026-01-18 00:40:06.96	9.65	6.17	-48.1	-65.0	3.8	1.49e+00	0	41	104	0	67	25605
2026-01-18 00:40:09.94	9.49	6.38	-48.1	-64.9	3.8	1.49e+00	0	41	104	0	67	25544
2026-01-18 00:40:12.92	9.34	6.59	-48.1	-64.8	3.8	1.49e+00	0	41	104	0	67	25068
2026-01-18 00:40:15.90	9.18	6.80	-48.1	-64.2	3.8	1.49e+00	0	41	104	0	67	23482
2026-01-18 00:40:18.88	9.02	7.02	-48.1	-63.4	3.8	1.49e+00	0	42	104	0	67	21335
2026-01-18 00:40:21.86	8.86	7.24	-48.1	-63.0	3.8	1.49e+00	0	42	104	0	67	20365
2026-01-18 00:40:24.84	8.69	7.45	-48.1	-63.6	3.8	1.49e+00	0	42	104	0	67	21897
2026-01-18 00:40:27.82	8.53	7.67	-48.1	-64.5	3.8	1.49e+00	0	42	104	0	67	24174
2026-01-18 00:40:30.80	8.35	7.89	-48.1	-64.9	3.8	1.49e+00	0	42	104	0	67	25314
2026-01-18 00:40:33.78	8.18	8.12	-47.9	-60.6	4.5	1.37e+00	0	42	0	0	67	15419
2026-01-18 00:40:36.76	8.00	8.34	-47.1	-54.8	8.9	4.92e-02	0	42	0	5242880	66	8370
2026-01-18 00:40:39.74	7.83	8.57	-46.0	-51.2	12.6	1.44e-04	0	42	0	11534336	63	6622
2026-01-18 00:40:42.72	7.64	8.80	-45.4	-49.9	13.9	4.50e-06	0	42	0	16777216	62	6058
2026-01-18 00:40:45.70	7.46	9.03	-45.9	-51.0	12.9	1.83e-05	0	42	0	22020096	62	6807
2026-01-18 00:40:48.69	7.27	9.26	-45.2	-49.4	14.3	5.68e-02	0	42	0	28311552	62	5703
2026-01-18 00:40:51.76	7.07	9.50	-46.4	-52.1	11.6	4.14e-02	0	42	0	33554432	64	6938
2026-01-18 00:40:54.64	6.88	9.73	-45.1	-48.8	15.1	7.00e-07	0	42	0	38797312	62	5301
2026-01-18 00:40:57.99	6.66	10.00	-44.7	-48.1	15.8	7.00e-07	0	42	0	45088768	60	5516
2026-01-18 00:41:00.71	6.48	10.21	-44.8	-48.4	15.4	0.00e+00	0	42	0	50331648	60	5707
2026-01-18 00:41:04.00	6.25	10.48	-44.6	-48.1	15.7	0.00e+00	0	42	0	56623104	60	5527
2026-01-18 00:41:06.70	6.06	10.70	-44.2	-47.6	16.2	0.00e+00	0	42	0	61865984	60	5214
2026-01-18 00:41:10.01	5.82	10.98	-44.1	-47.4	16.5	0.00e+00	0	43	0	68157440	59	5397
2026-01-18 00:41:12.85	5.61	11.21	-44.1	-47.4	16.5	0.00e+00	0	42	0	73400320	59	5349
2026-01-18 00:41:16.43	5.35	11.51	-43.8	-46.9	16.9	0.00e+00	0	42	0	79691776	59	5100
2026-01-18 00:41:19.20	5.14	11.75	-43.8	-46.8	17.0	0.00e+00	0	43	0	84934656	59	5032
2026-01-18 00:41:23.13	4.84	12.08	-43.8	-46.8	17.0	0.00e+00	0	43	0	92274688	59	5040
2026-01-18 00:41:25.94	4.61	12.33	-43.6	-46.5	17.4	0.00e+00	0	43	0	97517568	59	4847
2026-01-18 00:41:29.35	4.34	12.62	-43.8	-46.6	17.3	0.00e+00	0	43	0	103809024	59	4909
2026-01-18 00:41:32.57	4.08	12.91	-43.6	-46.4	17.5	0.00e+00	0	43	0	110100480	59	4794
2026-01-18 00:41:35.55	3.83	13.17	-43.7	-46.6	17.3	0.00e+00	0	43	0	115343360	59	4875
2026-01-18 00:41:38.53	3.57	13.44	-43.7	-46.6	17.3	0.00e+00	0	43	0	121634816	59	4887
2026-01-18 00:41:41.52	3.31	13.71	-43.6	-46.5	17.4	0.00e+00	0	43	0	126877696	59	4843
2026-01-18 00:41:44.50	3.05	13.98	-43.5	-46.4	17.5	0.00e+00	0	43	0	132120576	59	4795
2026-01-18 00:41:47.49	2.78	14.26	-43.6	-46.6	17.4	0.00e+00	0	43	0	138412032	58	5164
2026-01-18 00:41:50.47	2.51	14.53	-43.5	-46.5	17.5	0.00e+00	0	43	0	143654912	58	5115
2026-01-18 00:41:53.55	2.22	14.82	-43.5	-46.5	17.5	0.00e+00	0	43	0	148897792	58	5107
2026-01-18 00:41:56.40	1.94	15.09	-43.6	-46.6	17.4	0.00e+00	0	43	0	155189248	58	5193
2026-01-18 00:41:59.52	1.64	15.39	-43.7	-46.6	17.4	0.00e+00	0	43	0	160432128	58	5205
2026-01-18 00:42:02.36	1.36	15.66	-43.7	-46.7	17.3	0.00e+00	0	43	0	165675008	58	5239
2026-01-18 00:42:05.50	1.04	15.97	-43.9	-46.8	17.2	0.00e+00	0	43	0	171966464	58	5314
2026-01-18 00:42:08.34	0.74	16.24	-43.8	-46.6	17.4	0.00e+00	0	43	0	177209344	58	5202
2026-01-18 00:42:11.40	0.42	16.55	-43.8	-46.6	17.4	0.00e+00	0	43	0	182452224	58	5198
2026-01-18 00:42:14.39	0.10	16.84	-43.9	-46.7	17.3	0.00e+00	0	43	0	188743680	58	5258
2026-01-18 00:42:17.37	359.77	17.14	-43.9	-46.6	17.4	0.00e+00	0	43	0	193986560	58	5210
2026-01-18 00:42:20.35	359.43	17.45	-43.8	-46.6	17.4	0.00e+00	0	43	0	199229440	58	5185
2026-01-18 00:42:23.34	359.09	17.75	-43.8	-46.7	17.4	0.00e+00	0	43	0	205520896	58	5219
2026-01-18 00:42:26.32	358.74	18.06	-43.8	-46.7	17.3	0.00e+00	0	43	0	210763776	58	5263
2026-01-18 00:42:29.31	358.38	18.37	-43.8	-46.7	17.4	0.00e+00	0	43	0	216006656	58	5242
2026-01-18 00:42:32.29	358.02	18.69	-43.7	-46.5	17.5	0.00e+00	0	43	0	222298112	58	5137
2026-01-18 00:42:35.28	357.65	19.01	-43.6	-46.2	17.8	0.00e+00	0	43	0	227540992	58	4970
2026-01-18 00:42:38.26	357.27	19.32	-43.7	-46.4	17.7	0.00e+00	0	43	0	232783872	58	5054
2026-01-18 00:42:41.25	356.88	19.65	-43.8	-46.5	17.6	0.00e+00	0	43	0	239075328	58	5125
2026-01-18 00:42:44.31	356.47	19.98	-44.0	-46.7	17.4	0.00e+00	0	43	0	244318208	58	5230
2026-01-18 00:42:47.44	356.04	20.33	-43.9	-46.6	17.5	0.00e+00	0	43	0	250609664	58	5176
2026-01-18 00:42:50.29	355.64	20.64	-43.9	-46.6	17.5	0.00e+00	0	43	0	255852544	58	5184
2026-01-18 00:42:53.41	355.20	20.99	-44.0	-46.6	17.5	0.00e+00	0	43	0	261095424	58	5198
2026-01-18 00:42:56.26	354.78	21.31	-44.1	-46.8	17.3	0.00e+00	0	43	0	267386880	58	5291
2026-01-18 00:42:59.39	354.32	21.67	-44.1	-46.8	17.4	0.00e+00	0	43	0	272629760	59	5018
2026-01-18 00:43:02.29	353.87	22.00	-44.0	-46.7	17.4	0.00e+00	0	43	0	277872640	59	4980
2026-01-18 00:43:05.58	353.36	22.38	-44.1	-46.9	17.2	0.00e+00	0	43	0	284164096	59	5074
2026-01-18 00:43:08.30	352.93	22.70	-44.2	-46.9	17.3	0.00e+00	0	43	0	289406976	59	5094
2026-01-18 00:43:11.58	352.39	23.08	-44.3	-47.1	17.1	0.00e+00	0	43	0	295698432	59	5176
2026-01-18 00:43:14.56	351.89	23.43	-44.2	-47.1	17.0	0.00e+00	0	43	0	300941312	59	5217
2026-01-18 00:43:17.54	351.38	23.79	-44.3	-47.3	16.9	0.00e+00	0	43	0	307232768	59	5334
2026-01-18 00:43:20.53	350.86	24.14	-44.1	-46.9	17.3	0.00e+00	0	43	0	312475648	59	5095
2026-01-18 00:43:23.55	350.32	24.51	-44.4	-47.2	17.0	0.00e+00	0	43	0	317718528	59	5243
2026-01-18 00:43:26.53	349.77	24.87	-44.3	-47.1	17.1	0.00e+00	0	43	0	324009984	59	5211
2026-01-18 00:43:29.52	349.21	25.23	-44.4	-47.3	17.0	0.00e+00	0	43	0	329252864	59	5282
2026-01-18 00:43:32.50	348.63	25.60	-44.3	-47.1	17.1	0.00e+00	0	43	0	334495744	59	5205
2026-01-18 00:43:35.48	348.05	25.97	-44.4	-47.2	17.0	0.00e+00	0	43	0	340787200	59	5241
2026-01-18 00:43:38.47	347.44	26.33	-44.5	-47.3	16.9	0.00e+00	0	43	0	346030080	59	5337
2026-01-18 00:43:41.45	346.83	26.70	-44.6	-47.6	16.6	0.00e+00	0	43	0	351272960	59	5465
2026-01-18 00:43:44.44	346.19	27.08	-44.8	-48.0	16.3	0.00e+00	0	43	0	357564416	60	5431
2026-01-18 00:43:47.43	345.55	27.45	-45.2	-48.4	15.9	0.00e+00	0	43	0	362807296	61	5364
2026-01-18 00:43:50.42	344.88	27.83	-45.7	-48.9	15.4	0.00e+00	0	43	0	368050176	61	5698
2026-01-18 00:43:53.40	344.21	28.20	-45.9	-49.5	14.8	0.00e+00	0	43	0	374341632	62	5776
2026-01-18 00:43:56.43	343.50	28.58	-45.7	-49.4	14.9	0.00e+00	0	43	0	379584512	62	5671
2026-01-18 00:43:59.41	342.79	28.95	-45.8	-49.4	15.0	0.00e+00	0	43	0	385875968	62	5667
2026-01-18 00:44:02.37	342.07	29.33	-46.0	-49.4	15.0	7.00e-07	0	43	0	391118848	62	5705
2026-01-18 00:44:05.35	341.32	29.70	-45.8	-49.4	14.9	0.00e+00	0	43	0	396361728	62	5703
2026-01-18 00:44:08.34	340.56	30.08	-45.6	-49.0	15.3	0.00e+00	0	43	0	402653184	62	5445
2026-01-18 00:44:11.32	339.78	30.45	-45.9	-49.5	14.9	0.00e+00	0	43	0	407896064	62	5741
2026-01-18 00:44:14.30	338.98	30.82	-46.0	-50.0	14.3	7.00e-07	0	43	0	413138944	62	6107
2026-01-18 00:44:17.40	338.13	31.20	-46.0	-50.6	13.8	3.00e-06	0	43	0	419430400	62	6496
2026-01-18 00:44:20.53	337.25	31.59	-46.0	-49.6	14.7	0.00e+00	0	43	0	424673280	62	5834
2026-01-18 00:44:23.37	336.43	31.94	-45.6	-49.0	15.3	0.00e+00	0	43	0	429916160	62	5414
2026-01-18 00:44:26.50	335.51	32.32	-45.4	-48.7	15.6	0.00e+00	0	43	0	436207616	62	5255
2026-01-18 00:44:29.34	334.66	32.66	-45.3	-48.8	15.6	0.00e+00	0	43	0	441450496	62	5281
2026-01-18 00:44:32.47	333.70	33.03	-45.3	-49.0	15.3	0.00e+00	0	43	0	447741952	62	5409
2026-01-18 00:44:35.31	332.80	33.37	-45.7	-49.3	15.1	0.00e+00	0	43	0	452984832	62	5620
2026-01-18 00:44:38.44	331.80	33.73	-45.7	-49.2	15.2	0.00e+00	0	43	0	458227712	62	5534
2026-01-18 00:44:41.28	330.87	34.05	-46.3	-50.1	14.1	7.00e-07	0	43	0	463470592	63	5850
2026-01-18 00:44:44.41	329.82	34.40	-46.2	-49.8	14.5	0.00e+00	0	43	0	469762048	63	5618
2026-01-18 00:44:47.25	328.85	34.71	-46.4	-50.4	14.0	7.00e-07	0	43	0	475004928	63	6031
2026-01-18 00:44:50.53	327.70	35.07	-46.7	-51.5	12.8	5.56e-05	0	43	0	481296384	64	6434
2026-01-18 00:44:53.23	326.74	35.35	-46.7	-51.0	13.2	2.21e-05	0	43	0	486539264	64	6118
2026-01-18 00:44:56.51	325.55	35.68	-46.3	-49.9	14.3	0.00e+00	0	43	0	492830720	64	5402
2026-01-18 00:44:59.32	324.51	35.96	-46.1	-49.8	14.5	0.00e+00	0	43	0	498073600	63	5653
2026-01-18 00:45:02.45	323.33	36.26	-45.7	-49.6	14.8	0.00e+00	0	43	0	503316480	63	5500
2026-01-18 00:45:05.29	322.24	36.52	-45.8	-49.7	14.6	0.00e+00	0	43	0	508559360	63	5560
2026-01-18 00:45:08.49	320.99	36.80	-45.3	-48.7	15.7	0.00e+00	0	43	0	514850816	62	5226
2026-01-18 00:45:11.43	319.83	37.05	-44.8	-47.8	16.5	0.00e+00	0	43	0	520093696	61	5010
2026-01-18 00:45:14.62	318.55	37.30	-44.4	-47.2	17.1	0.00e+00	0	43	0	526385152	60	4959
2026-01-18 00:45:17.47	317.38	37.52	-44.5	-47.2	17.1	0.00e+00	0	43	0	531628032	60	4965
2026-01-18 00:45:20.59	316.09	37.74	-44.0	-46.6	17.6	0.00e+00	0	43	0	537919488	60	4644
2026-01-18 00:45:23.44	314.90	37.93	-43.6	-46.2	18.0	0.00e+00	0	43	0	543162368	59	4679
2026-01-18 00:45:26.56	313.57	38.12	-43.7	-46.3	17.9	0.00e+00	0	43	0	548405248	59	4726
2026-01-18 00:45:29.40	312.36	38.28	-43.4	-45.9	18.3	0.00e+00	0	43	0	553648128	58	4768
2026-01-18 00:45:32.61	310.97	38.45	-43.1	-45.4	18.7	0.00e+00	0	43	0	559939584	58	4543
2026-01-18 00:45:35.45	309.72	38.58	-42.9	-45.3	18.9	0.00e+00	0	43	0	565182464	57	4706
2026-01-18 00:45:38.58	308.35	38.70	-43.1	-45.5	18.7	0.00e+00	0	43	0	571473920	57	4816
2026-01-18 00:45:41.42	307.09	38.80	-43.0	-45.4	18.7	0.00e+00	0	43	0	576716800	57	4806
2026-01-18 00:45:44.55	305.69	38.89	-42.5	-44.8	19.3	0.00e+00	0	43	0	583008256	56	4748
2026-01-18 00:45:47.39	304.41	38.95	-42.4	-44.7	19.4	0.00e+00	0	43	0	588251136	56	4674
2026-01-18 00:45:50.60	302.97	39.01	-42.7	-45.1	19.0	0.00e+00	0	43	0	593494016	56	4882
2026-01-18 00:45:53.50	301.66	39.04	-43.0	-45.3	18.8	0.00e+00	0	43	0	599785472	56	5010
2026-01-18 00:45:56.49	300.31	39.05	-43.5	-46.0	18.2	0.00e+00	0	43	0	605028352	57	5114
2026-01-18 00:45:59.48	298.96	39.05	-43.8	-46.4	17.8	0.00e+00	0	43	0	610271232	58	5048
2026-01-18 00:46:02.45	297.62	39.02	-44.2	-46.9	17.3	0.00e+00	0	43	0	616562688	59	5078
2026-01-18 00:46:05.48	296.25	38.98	-44.4	-47.1	17.1	0.00e+00	0	43	0	621805568	59	5212
2026-01-18 00:46:08.42	294.93	38.92	-44.3	-46.9	17.3	0.00e+00	0	43	0	627048448	59	5098
2026-01-18 00:46:11.55	293.53	38.84	-44.8	-47.6	16.7	0.00e+00	0	43	0	633339904	60	5195
2026-01-18 00:46:14.39	292.26	38.75	-45.0	-47.9	16.4	0.00e+00	0	43	0	638582784	60	5389
2026-01-18 00:46:17.52	290.88	38.64	-45.3	-48.3	16.1	0.00e+00	0	43	0	643825664	61	5324
2026-01-18 00:46:20.36	289.63	38.52	-45.5	-48.7	15.6	0.00e+00	0	43	0	650117120	61	5578
2026-01-18 00:46:23.62	288.21	38.36	-45.7	-48.9	15.5	0.00e+00	0	44	0	655360000	61	5667
2026-01-18 00:46:26.54	286.95	38.20	-46.4	-50.0	14.3	0.00e+00	0	43	0	661651456	63	5784
2026-01-18 00:46:29.67	285.61	38.02	-46.0	-49.4	15.0	0.00e+00	0	43	0	666894336	63	5355
2026-01-18 00:46:32.64	284.36	37.82	-45.6	-48.8	15.6	0.00e+00	0	43	0	673185792	63	5030
2026-01-18 00:46:36.02	282.95	37.59	-45.5	-48.6	15.7	0.00e+00	0	43	0	679477248	62	5218
2026-01-18 00:46:38.73	281.84	37.39	-45.2	-48.1	16.2	0.00e+00	0	43	0	683671552	62	4917
2026-01-18 00:46:42.21	280.43	37.11	-44.2	-46.9	17.4	0.00e+00	0	43	0	691011584	60	4761
2026-01-18 00:46:44.92	279.35	36.89	-43.7	-46.2	18.0	0.00e+00	0	43	0	696254464	59	4663
2026-01-18 00:46:48.19	278.06	36.60	-43.8	-46.3	17.9	0.00e+00	0	43	0	701497344	59	4729
2026-01-18 00:46:50.98	276.99	36.35	-43.2	-45.7	18.5	0.00e+00	0	43	0	706740224	58	4654
2026-01-18 00:46:54.50	275.65	36.02	-42.9	-45.3	18.9	0.00e+00	0	43	0	714080256	57	4707
2026-01-18 00:46:57.23	274.63	35.75	-43.9	-46.4	17.8	0.00e+00	0	43	0	719323136	58	5091
2026-01-18 00:47:00.74	273.35	35.39	-43.9	-46.5	17.8	0.00e+00	0	43	0	725614592	58	5102
2026-01-18 00:47:03.44	272.38	35.11	-44.0	-46.6	17.7	0.00e+00	0	43	0	730857472	58	5174
2026-01-18 00:47:06.70	271.24	34.76	-44.3	-46.9	17.4	0.00e+00	0	43	0	736100352	59	5100
2026-01-18 00:47:09.50	270.27	34.45	-44.6	-47.4	16.8	0.00e+00	0	43	0	741343232	59	5391
2026-01-18 00:47:12.63	269.22	34.10	-44.3	-47.0	17.3	0.00e+00	0	43	0	747634688	60	4826
2026-01-18 00:47:15.71	268.20	33.75	-44.6	-47.3	17.0	0.00e+00	0	43	0	753926144	60	5038
2026-01-18 00:47:18.81	267.20	33.39	-45.2	-48.2	16.2	0.00e+00	0	43	0	759169024	61	5249
2026-01-18 00:47:21.65	266.30	33.06	-45.0	-47.9	16.4	0.00e+00	0	43	0	764411904	61	5080
2026-01-18 00:47:24.78	265.33	32.68	-44.8	-47.7	16.6	0.00e+00	0	43	0	770703360	61	4976
2026-01-18 00:47:27.62	264.47	32.34	-45.5	-48.6	15.7	0.00e+00	0	43	0	775946240	61	5502
2026-01-18 00:47:30.97	263.48	31.93	-45.4	-48.7	15.6	0.00e+00	0	43	0	782237696	62	5274
2026-01-18 00:47:33.94	262.62	31.57	-45.4	-48.6	15.7	0.00e+00	0	43	0	787480576	62	5202
2026-01-18 00:47:37.26	261.69	31.16	-45.9	-49.3	15.1	0.00e+00	0	43	0	793772032	62	5629
2026-01-18 00:47:40.24	260.87	30.79	-45.7	-49.1	15.3	0.00e+00	0	43	0	799014912	62	5467
2026-01-18 00:47:43.23	260.07	30.41	-45.2	-48.3	16.0	0.00e+00	0	43	0	805306368	62	5039
2026-01-18 00:47:46.26	259.27	30.03	-45.1	-48.2	16.1	0.00e+00	0	43	0	810549248	62	4960
2026-01-18 00:47:49.32	258.48	29.65	-44.9	-47.9	16.3	0.00e+00	0	43	0	816840704	61	5052
2026-01-18 00:47:52.20	257.76	29.28	-44.6	-47.5	16.8	0.00e+00	0	44	0	822083584	61	4816
2026-01-18 00:47:55.33	257.00	28.89	-44.3	-47.0	17.3	0.00e+00	0	43	0	827326464	60	4832
2026-01-18 00:47:58.17	256.32	28.53	-44.2	-47.0	17.3	0.00e+00	0	43	0	833617920	60	4834
2026-01-18 00:48:01.30	255.59	28.14	-44.0	-46.7	17.6	0.00e+00	0	43	0	838860800	60	4664
2026-01-18 00:48:04.22	254.92	27.77	-43.7	-46.2	18.0	0.00e+00	0	43	0	844103680	59	4666
2026-01-18 00:48:07.35	254.23	27.37	-43.6	-46.1	18.1	0.00e+00	0	43	0	850395136	59	4614
2026-01-18 00:48:10.19	253.61	27.02	-43.8	-46.4	17.7	0.00e+00	0	43	0	855638016	59	4803
2026-01-18 00:48:13.32	252.95	26.63	-43.3	-45.8	18.4	0.00e+00	0	43	0	861929472	58	4734
2026-01-18 00:48:16.16	252.36	26.27	-43.2	-45.6	18.5	0.00e+00	0	43	0	867172352	58	4640
2026-01-18 00:48:19.29	251.73	25.88	-43.2	-45.6	18.5	0.00e+00	0	43	0	872415232	58	4622
2026-01-18 00:48:22.15	251.16	25.53	-43.3	-45.7	18.4	0.00e+00	0	43	0	877658112	58	4704
2026-01-18 00:48:25.27	250.56	25.15	-43.2	-45.6	18.5	0.00e+00	0	43	0	883949568	58	4624
2026-01-18 00:48:28.18	250.01	24.79	-43.3	-45.7	18.4	0.00e+00	0	43	0	889192448	58	4670
2026-01-18 00:48:31.74	249.35	24.36	-43.5	-45.9	18.2	0.00e+00	0	43	0	896532480	58	4809
2026-01-18 00:48:34.51	248.86	24.02	-43.5	-46.0	18.1	0.00e+00	0	43	0	901775360	58	4828
2026-01-18 00:48:37.78	248.28	23.63	-43.4	-45.9	18.2	0.00e+00	0	43	0	907018240	58	4795
2026-01-18 00:48:40.50	247.82	23.31	-43.3	-45.8	18.4	0.00e+00	0	43	0	912261120	58	4710
2026-01-18 00:48:43.77	247.27	22.92	-43.6	-46.1	18.1	0.00e+00	0	43	0	918552576	58	4883
2026-01-18 00:48:46.72	246.79	22.57	-43.8	-46.4	17.8	0.00e+00	0	43	0	923795456	58	5046
2026-01-18 00:48:50.23	246.23	22.16	-43.7	-46.3	17.8	0.00e+00	0	43	0	931135488	58	5024
2026-01-18 00:48:53.28	245.76	21.81	-43.8	-46.3	17.8	0.00e+00	0	43	0	936378368	58	5018
2026-01-18 00:48:56.14	245.32	21.48	-44.2	-46.9	17.3	0.00e+00	0	43	0	941621248	59	5075
2026-01-18 00:48:59.29	244.85	21.13	-44.3	-47.0	17.1	0.00e+00	0	43	0	947912704	59	5139
2026-01-18 00:49:02.16	244.43	20.80	-44.4	-47.1	17.1	0.00e+00	0	43	0	953155584	59	5176
2026-01-18 00:49:05.51	243.96	20.43	-44.3	-47.0	17.1	0.00e+00	0	43	0	959447040	59	5145
2026-01-18 00:49:08.21	243.58	20.13	-44.2	-46.9	17.3	0.00e+00	0	43	0	964689920	59	5063
2026-01-18 00:49:11.51	243.13	19.76	-44.4	-47.1	17.1	0.00e+00	0	43	0	970981376	59	5180
2026-01-18 00:49:14.24	242.77	19.47	-44.5	-47.2	16.9	0.00e+00	0	43	0	976224256	59	5246
2026-01-18 00:49:17.52	242.34	19.11	-44.6	-47.4	16.8	0.00e+00	0	43	0	981467136	60	5098
2026-01-18 00:49:20.25	242.00	18.82	-44.6	-47.5	16.6	0.00e+00	0	43	0	986710016	60	5145
2026-01-18 00:49:23.52	241.59	18.47	-44.6	-47.6	16.6	0.00e+00	0	43	0	993001472	60	5199
2026-01-18 00:49:26.22	241.26	18.19	-44.3	-47.2	17.0	0.00e+00	0	43	0	998244352	60	4933
2026-01-18 00:49:29.49	240.87	17.85	-44.2	-47.0	17.1	0.00e+00	0	43	0	1004535808	60	4854
2026-01-18 00:49:32.22	240.55	17.56	-44.3	-47.0	17.1	0.00e+00	0	43	0	1009778688	60	4858
2026-01-18 00:49:35.52	240.17	17.22	-44.5	-47.3	16.9	0.00e+00	0	43	0	1016070144	60	4992
2026-01-18 00:49:38.24	239.86	16.95	-44.4	-47.2	17.0	0.00e+00	0	43	0	1020264448	60	4929
2026-01-18 00:49:41.51	239.50	16.62	-44.3	-47.1	17.0	0.00e+00	0	43	0	1026555904	60	4874
2026-01-18 00:49:44.22	239.21	16.35	-44.3	-47.0	17.1	0.00e+00	0	43	0	1031798784	60	4860
2026-01-18 00:49:47.76	238.84	16.00	-44.5	-47.3	16.8	0.00e+00	0	43	0	1039138816	60	5016
2026-01-18 00:49:50.46	238.56	15.74	-44.5	-47.3	16.8	0.00e+00	0	44	0	1043333120	60	5035
2026-01-18 00:49:53.73	238.23	15.42	-44.7	-47.6	16.5	0.00e+00	0	43	0	1049624576	60	5218
2026-01-18 00:49:56.46	237.96	15.16	-44.8	-47.8	16.4	0.00e+00	0	43	0	1054867456	60	5283
2026-01-18 00:49:59.73	237.64	14.84	-44.6	-47.5	16.6	0.00e+00	0	43	0	1061158912	60	5157
2026-01-18 00:50:02.68	237.35	14.57	-44.4	-47.2	16.9	0.00e+00	0	43	0	1066401792	60	4963
2026-01-18 00:50:06.31	237.02	14.23	-44.3	-47.2	16.9	0.00e+00	0	43	0	1073741824	60	4942
2026-01-18 00:50:09.16	236.75	13.96	-44.6	-47.6	16.5	0.00e+00	0	43	0	1078984704	60	5181
2026-01-18 00:50:13.14	236.40	13.60	-44.8	-47.9	16.2	0.00e+00	0	43	0	1086324736	60	5348
2026-01-18 00:50:15.97	236.15	13.34	-44.8	-47.8	16.2	0.00e+00	0	43	0	1091567616	60	5340
2026-01-18 00:50:20.13	235.79	12.97	-45.0	-48.2	15.9	0.00e+00	0	43	0	1098907648	60	5570
2026-01-18 00:50:23.04	235.55	12.71	-45.0	-48.1	15.9	0.00e+00	0	43	0	1105199104	60	5525
2026-01-18 00:50:26.03	235.30	12.45	-45.1	-48.3	15.7	0.00e+00	0	43	0	1110441984	60	5653
2026-01-18 00:50:29.01	235.06	12.19	-45.2	-48.5	15.6	0.00e+00	0	43	0	1115684864	61	5442
2026-01-18 00:50:31.99	234.82	11.93	-45.1	-48.3	15.7	0.00e+00	0	43	0	1121976320	61	5320
2026-01-18 00:50:34.98	234.59	11.67	-45.1	-48.4	15.7	0.00e+00	0	43	0	1127219200	61	5342
2026-01-18 00:50:37.96	234.36	11.42	-45.0	-48.2	15.8	0.00e+00	0	43	0	1132462080	61	5246
2026-01-18 00:50:40.94	234.14	11.17	-45.0	-48.2	15.8	0.00e+00	0	43	0	1138753536	61	5262
2026-01-18 00:50:43.93	233.92	10.92	-45.3	-48.6	15.4	0.00e+00	0	43	0	1143996416	61	5490
2026-01-18 00:50:46.92	233.70	10.67	-45.4	-48.9	15.1	0.00e+00	0	43	0	1149239296	61	5657
2026-01-18 00:50:49.90	233.48	10.43	-45.7	-49.3	14.7	7.00e-07	0	43	0	1155530752	62	5629
2026-01-18 00:50:52.98	233.27	10.17	-45.7	-49.3	14.7	0.00e+00	0	43	0	1160773632	62	5630
2026-01-18 00:50:55.96	233.06	9.93	-45.8	-49.6	14.4	7.00e-07	0	43	0	1166016512	62	5808
2026-01-18 00:50:58.95	232.86	9.69	-45.6	-49.1	14.8	0.00e+00	0	43	0	1172307968	62	5521
2026-01-18 00:51:01.94	232.66	9.46	-45.5	-48.9	15.0	0.00e+00	0	43	0	1177550848	62	5391
2026-01-18 00:51:04.92	232.46	9.22	-45.5	-48.9	15.0	7.00e-07	0	44	0	1182793728	62	5391
2026-01-18 00:51:07.94	232.27	8.99	-49.6	-64.9	3.8	8.56e-02	0	43	104	1189085184	69	22685
2026-01-18 00:51:10.92	232.08	8.75	-50.1	-65.7	3.8	1.49e+00	0	43	104	1189085184	71	22103
2026-01-18 00:51:13.90	231.89	8.52	-50.4	-65.9	3.8	1.49e+00	0	44	104	1189085184	71	22540
2026-01-18 00:51:16.88	231.71	8.30	-50.5	-65.9	3.8	1.49e+00	0	43	104	1189085184	71	22652
2026-01-18 00:51:19.86	231.53	8.07	-50.6	-65.9	3.8	1.49e+00	0	44	104	1189085184	72	21278
2026-01-18 00:51:22.84	231.35	7.85	-50.6	-65.9	3.8	1.49e+00	0	43	104	1189085184	72	21453
2026-01-18 00:51:25.82	231.18	7.62	-50.6	-65.9	3.8	1.49e+00	0	43	104	1189085184	72	21407
2026-01-18 00:51:28.80	231.01	7.40	-50.3	-65.8	3.8	1.49e+00	0	43	104	1189085184	72	21196
2026-01-18 00:51:31.78	230.84	7.18	-50.3	-65.8	3.8	1.49e+00	0	43	104	1189085184	72	21119
2026-01-18 00:51:34.76	230.67	6.97	-50.2	-65.8	3.8	1.49e+00	0	44	104	1189085184	72	21116
2026-01-18 00:51:37.74	230.51	6.75	-50.2	-65.8	3.8	1.49e+00	0	44	104	1189085184	72	21026
2026-01-18 00:51:40.72	230.35	6.54	-50.2	-65.8	3.8	1.49e+00	0	43	104	1189085184	72	21034
2026-01-18 00:51:43.70	230.19	6.32	-50.2	-65.7	3.8	1.49e+00	0	43	104	1189085184	72	21003
2026-01-18 00:51:46.68	230.03	6.11	-50.2	-65.7	3.8	1.49e+00	0	43	104	1189085184	72	20994
2026-01-18 00:51:49.66	229.88	5.90	-50.2	-65.7	3.8	1.49e+00	0	43	104	1189085184	72	20939
2026-01-18 00:51:52.64	229.72	5.70	-50.2	-65.7	3.8	1.49e+00	0	44	104	1189085184	72	20939
2026-01-18 00:51:55.62	229.57	5.49	-50.2	-65.7	3.8	1.49e+0
