passes_logs/2026/01/18/T1/T1__20260118_215604_KHAYYAM_rec.log

#Pass ID: 20260118_215604_KHAYYAM
#Satellite: KHAYYAM
#Configuration: KHAYYAM_480M
#almurnet v.1.7.20251203
#Start time: 2026-01-18 21:56:05

#Version: 2.0.20230620
#Station: T1
#Location: 37.570604 lon 55.790049 lat
#TLE: 1 53370U 22096A   26017.97590733  .00005500  00000+0  22586-3 0  9991
#TLE: 2 53370  97.3565 284.9322 0001647 106.8146 253.3272 15.24606734191697

#Time	Az	El	Level	Level2	SNR	BER	BlckErr	Temp	State	Recorded	gain1	gain2
2026-01-18 21:56:05.44	5.71	5.18	-51.3	-56.6	3.5	0.00e+00	0	42	0	0	73	27690
2026-01-18 21:56:07.42	5.60	5.33	-49.9	-55.6	3.7	0.00e+00	0	43	104	0	70	29423
2026-01-18 21:56:09.41	5.48	5.49	-49.9	-55.7	3.7	0.00e+00	0	43	104	0	70	29496
2026-01-18 21:56:11.39	5.36	5.65	-49.9	-55.6	3.7	0.00e+00	0	43	104	0	70	29445
2026-01-18 21:56:13.38	5.24	5.81	-49.9	-55.6	3.7	0.00e+00	0	43	104	0	70	29312
2026-01-18 21:56:15.36	5.11	5.97	-49.9	-55.6	3.7	0.00e+00	0	43	104	0	70	29337
2026-01-18 21:56:17.35	4.99	6.13	-49.9	-55.6	3.7	0.00e+00	0	43	104	0	70	29443
2026-01-18 21:56:19.34	4.86	6.30	-49.9	-55.6	3.7	0.00e+00	0	43	104	0	70	29470
2026-01-18 21:56:21.32	4.73	6.46	-49.9	-55.7	3.7	0.00e+00	0	44	104	0	70	29607
2026-01-18 21:56:23.31	4.60	6.63	-49.9	-55.6	3.7	0.00e+00	0	44	104	0	70	29427
2026-01-18 21:56:25.30	4.47	6.79	-49.9	-55.6	3.7	0.00e+00	0	44	104	0	70	29430
2026-01-18 21:56:27.28	4.33	6.96	-49.9	-55.6	3.7	0.00e+00	0	44	104	0	70	29382
2026-01-18 21:56:29.27	4.19	7.13	-49.9	-55.6	3.7	0.00e+00	0	44	104	0	70	29416
2026-01-18 21:56:31.26	4.05	7.31	-49.8	-55.6	3.7	0.00e+00	0	44	104	0	70	29319
2026-01-18 21:56:33.24	3.91	7.48	-49.9	-55.6	3.7	0.00e+00	0	44	104	0	70	29250
2026-01-18 21:56:35.23	3.77	7.65	-49.8	-55.6	3.7	0.00e+00	0	45	104	0	70	29348
2026-01-18 21:56:37.22	3.62	7.83	-49.9	-55.6	3.7	0.00e+00	0	45	104	0	70	29288
2026-01-18 21:56:39.20	3.47	8.01	-49.9	-55.6	3.7	0.00e+00	0	45	104	0	70	29415
2026-01-18 21:56:41.19	3.32	8.18	-49.9	-55.6	3.7	0.00e+00	0	45	104	0	70	29379
2026-01-18 21:56:43.18	3.17	8.37	-49.9	-55.6	3.7	0.00e+00	0	45	104	0	70	29369
2026-01-18 21:56:45.16	3.01	8.55	-49.9	-55.7	3.7	0.00e+00	0	45	104	0	70	29538
2026-01-18 21:56:47.15	2.85	8.73	-49.9	-55.6	3.7	0.00e+00	0	45	104	0	70	29365
2026-01-18 21:56:49.13	2.69	8.92	-49.9	-55.7	3.7	0.00e+00	0	45	104	0	70	29484
2026-01-18 21:56:51.12	2.53	9.10	-49.9	-55.6	3.7	0.00e+00	0	45	104	0	70	29425
2026-01-18 21:56:53.44	2.33	9.32	-50.5	-56.3	3.7	0.00e+00	0	45	104	0	71	29828
2026-01-18 21:56:55.78	2.13	9.55	-51.1	-56.5	3.7	0.00e+00	0	45	104	0	72	28960
2026-01-18 21:56:58.05	1.93	9.77	-49.0	-55.0	3.7	0.00e+00	0	45	104	0	70	27511
2026-01-18 21:57:00.34	1.73	10.00	-49.2	-55.3	3.7	0.00e+00	0	46	104	0	70	28176
2026-01-18 21:57:02.61	1.52	10.22	-50.4	-56.2	3.7	0.00e+00	0	46	104	0	71	29506
2026-01-18 21:57:05.01	1.29	10.46	-51.5	-56.8	3.7	0.00e+00	0	46	104	0	73	28368
2026-01-18 21:57:07.28	1.08	10.69	-49.2	-55.3	3.7	0.00e+00	0	46	104	0	70	28412
2026-01-18 21:57:09.65	0.85	10.94	-49.0	-55.0	3.7	0.00e+00	0	46	104	0	69	29084
2026-01-18 21:57:11.56	0.66	11.13	-49.7	-55.6	3.7	0.00e+00	0	46	104	0	70	29241
2026-01-18 21:57:13.55	0.46	11.34	-49.6	-55.5	3.7	0.00e+00	0	46	104	0	70	29083
2026-01-18 21:57:15.54	0.26	11.55	-49.1	-55.1	3.7	0.00e+00	0	46	104	0	70	27607
2026-01-18 21:57:17.53	0.05	11.77	-49.5	-55.4	3.7	0.00e+00	0	46	104	0	70	28717
2026-01-18 21:57:19.52	359.84	11.98	-50.9	-56.3	3.7	0.00e+00	0	46	104	0	72	28401
2026-01-18 21:57:21.51	359.62	12.20	-49.9	-55.4	3.7	0.00e+00	0	46	104	0	71	27095
2026-01-18 21:57:23.51	359.40	12.42	-49.8	-55.5	3.7	0.00e+00	0	46	104	0	71	27244
2026-01-18 21:57:25.50	359.18	12.64	-50.3	-56.0	3.7	0.00e+00	0	46	104	0	71	28986
2026-01-18 21:57:27.49	358.95	12.87	-50.5	-56.1	3.7	0.00e+00	0	46	104	0	72	27608
2026-01-18 21:57:29.51	358.71	13.10	-51.4	-56.6	3.7	0.00e+00	0	46	104	0	73	27711
2026-01-18 21:57:31.50	358.47	13.33	-51.2	-56.6	3.7	0.00e+00	0	46	104	0	74	26067
2026-01-18 21:57:33.49	358.23	13.56	-51.0	-56.5	3.7	0.00e+00	0	46	104	0	73	27333
2026-01-18 21:57:35.48	357.99	13.79	-51.3	-56.6	3.7	0.00e+00	0	46	104	0	73	27816
2026-01-18 21:57:37.46	357.74	14.03	-52.1	-57.1	3.7	0.00e+00	0	47	104	0	74	27807
2026-01-18 21:57:39.45	357.48	14.27	-52.3	-57.3	3.7	0.00e+00	0	46	104	0	76	25337
2026-01-18 21:57:41.44	357.22	14.51	-52.2	-57.3	3.7	0.00e+00	0	47	104	0	76	25384
2026-01-18 21:57:43.43	356.95	14.75	-52.6	-57.6	3.7	0.00e+00	0	47	104	0	76	25989
2026-01-18 21:57:45.45	356.67	15.00	-52.8	-57.7	3.7	0.00e+00	0	46	104	0	76	26278
2026-01-18 21:57:47.47	356.39	15.26	-52.6	-57.6	3.7	0.00e+00	0	47	104	0	76	26075
2026-01-18 21:57:49.40	356.12	15.50	-52.0	-57.1	3.7	0.00e+00	0	46	104	0	75	26144
2026-01-18 21:57:51.39	355.83	15.76	-51.9	-57.1	3.7	0.00e+00	0	47	104	0	75	26059
2026-01-18 21:57:53.38	355.53	16.02	-52.1	-57.2	3.7	0.00e+00	0	47	104	0	75	26396
2026-01-18 21:57:55.38	355.23	16.28	-51.8	-57.1	3.7	0.00e+00	0	47	104	0	75	26127
2026-01-18 21:57:57.37	354.92	16.55	-51.5	-56.8	3.7	0.00e+00	0	47	104	0	73	28311
2026-01-18 21:57:59.36	354.60	16.81	-50.3	-56.0	3.7	0.00e+00	0	47	104	0	72	27362
2026-01-18 21:58:01.35	354.28	17.08	-50.5	-56.0	3.7	0.00e+00	0	47	104	0	72	27475
2026-01-18 21:58:03.34	353.95	17.36	-51.3	-56.5	3.7	0.00e+00	0	47	104	0	73	27459
2026-01-18 21:58:05.32	353.62	17.63	-51.4	-56.7	3.7	0.00e+00	0	47	104	0	73	27869
2026-01-18 21:58:07.31	353.27	17.91	-50.6	-56.0	3.7	0.00e+00	0	47	104	0	72	27272
2026-01-18 21:58:09.30	352.92	18.20	-50.5	-55.9	3.7	0.00e+00	0	47	104	0	72	27140
2026-01-18 21:58:11.29	352.56	18.48	-50.8	-56.3	3.7	0.00e+00	0	47	104	0	72	28245
2026-01-18 21:58:13.28	352.19	18.77	-51.0	-56.4	3.7	0.00e+00	0	47	104	0	72	28634
2026-01-18 21:58:15.27	351.82	19.06	-51.2	-56.6	3.7	0.00e+00	0	47	104	0	73	27726
2026-01-18 21:58:17.26	351.43	19.36	-52.6	-57.4	3.7	0.00e+00	0	47	104	0	75	26999
2026-01-18 21:58:19.25	351.04	19.66	-52.3	-57.3	3.7	0.00e+00	0	47	104	0	75	26690
2026-01-18 21:58:21.30	350.62	19.97	-52.5	-57.3	3.7	0.00e+00	0	47	104	0	75	26855
2026-01-18 21:58:23.49	350.17	20.31	-52.8	-57.5	3.7	0.00e+00	0	47	104	0	76	25706
2026-01-18 21:58:25.50	349.74	20.62	-52.7	-57.5	3.7	0.00e+00	0	47	104	0	76	25878
2026-01-18 21:58:27.55	349.29	20.95	-52.1	-57.2	3.7	0.00e+00	0	47	104	0	76	24943
2026-01-18 21:58:29.56	348.85	21.27	-52.2	-57.2	3.7	0.00e+00	0	47	104	0	76	24964
2026-01-18 21:58:31.56	348.39	21.59	-52.7	-57.4	3.7	0.00e+00	0	47	104	0	76	25440
2026-01-18 21:58:33.57	347.92	21.92	-52.8	-57.5	3.7	0.00e+00	0	47	104	0	76	25961
2026-01-18 21:58:35.56	347.44	22.24	-50.4	-56.1	3.7	0.00e+00	0	47	104	0	72	27735
2026-01-18 21:58:37.61	346.93	22.58	-51.1	-56.5	3.7	0.00e+00	0	47	104	0	72	28842
2026-01-18 21:58:39.66	346.42	22.93	-52.8	-57.6	3.7	0.00e+00	0	47	104	0	76	26111
2026-01-18 21:58:41.93	345.83	23.31	-52.3	-57.3	3.7	0.00e+00	0	47	104	0	76	25369
2026-01-18 21:58:44.00	345.28	23.67	-51.3	-56.6	3.7	0.00e+00	0	47	104	0	74	26171
2026-01-18 21:58:45.98	344.74	24.01	-51.6	-56.7	3.7	0.00e+00	0	47	104	0	74	26477
2026-01-18 21:58:47.97	344.18	24.36	-52.5	-57.2	3.7	0.00e+00	0	47	104	0	75	26549
2026-01-18 21:58:49.96	343.61	24.71	-51.3	-56.6	3.7	0.00e+00	0	47	104	0	74	26124
2026-01-18 21:58:52.01	343.00	25.07	-52.2	-57.1	3.7	0.00e+00	0	47	104	0	75	26006
2026-01-18 21:58:54.01	342.40	25.43	-51.1	-56.3	3.7	0.00e+00	0	47	104	0	73	26778
2026-01-18 21:58:56.11	341.75	25.81	-51.1	-56.3	3.7	0.00e+00	0	47	104	0	74	25309
2026-01-18 21:58:58.10	341.11	26.17	-52.6	-57.2	3.7	0.00e+00	0	47	104	0	76	25081
2026-01-18 21:59:00.09	340.46	26.54	-52.5	-57.2	3.7	0.00e+00	0	47	104	0	75	26391
2026-01-18 21:59:02.08	339.79	26.90	-51.2	-56.3	3.7	0.00e+00	0	47	104	0	74	25227
2026-01-18 21:59:04.08	339.10	27.27	-52.7	-57.1	3.7	0.00e+00	0	47	104	0	76	24745
2026-01-18 21:59:06.15	338.37	27.66	-52.7	-57.4	3.7	0.00e+00	0	47	104	0	76	25467
2026-01-18 21:59:08.14	337.65	28.03	-52.3	-57.1	3.7	0.00e+00	0	47	104	0	76	24526
2026-01-18 21:59:10.13	336.91	28.40	-52.3	-57.0	3.7	0.00e+00	0	47	104	0	76	24428
2026-01-18 21:59:12.18	336.13	28.79	-51.9	-56.9	3.7	0.00e+00	0	47	104	0	75	25599
2026-01-18 21:59:14.39	335.26	29.20	-50.2	-55.7	3.7	0.00e+00	0	47	104	0	72	26515
2026-01-18 21:59:16.46	334.42	29.59	-51.8	-56.7	3.7	0.00e+00	0	47	104	0	74	26286
2026-01-18 21:59:18.46	333.59	29.97	-52.4	-57.1	3.7	0.00e+00	0	47	104	0	75	26191
2026-01-18 21:59:20.45	332.75	30.34	-51.9	-56.7	3.7	0.00e+00	0	47	104	0	75	24985
2026-01-18 21:59:22.46	331.87	30.72	-50.8	-56.0	3.7	0.00e+00	0	47	104	0	73	25915
2026-01-18 21:59:24.46	330.97	31.10	-51.3	-56.5	3.7	0.00e+00	0	47	104	0	73	27411
2026-01-18 21:59:26.47	330.05	31.47	-51.7	-56.7	3.7	0.00e+00	0	47	104	0	73	28130
2026-01-18 21:59:28.49	329.10	31.84	-52.3	-57.2	3.7	0.00e+00	0	47	104	0	75	26384
2026-01-18 21:59:30.55	328.11	32.22	-52.8	-57.6	3.7	0.00e+00	0	47	104	0	76	25989
2026-01-18 21:59:32.56	327.11	32.59	-52.2	-57.2	3.7	0.00e+00	0	47	104	0	76	24936
2026-01-18 21:59:34.55	326.10	32.94	-51.0	-56.4	3.7	0.00e+00	0	47	104	0	74	25528
2026-01-18 21:59:36.72	324.97	33.33	-52.3	-57.2	3.7	0.00e+00	0	47	104	0	75	26492
2026-01-18 21:59:38.70	323.92	33.67	-53.1	-57.8	3.7	0.00e+00	0	47	104	0	76	26600
2026-01-18 21:59:40.69	322.84	34.01	-52.4	-57.4	3.7	0.00e+00	0	47	104	0	76	25506
2026-01-18 21:59:42.67	321.73	34.35	-50.9	-56.4	3.7	0.00e+00	0	47	104	0	73	27195
2026-01-18 21:59:44.66	320.60	34.67	-50.2	-55.9	3.7	0.00e+00	0	47	104	0	72	27114
2026-01-18 21:59:46.73	319.40	35.00	-52.0	-56.9	3.7	0.00e+00	0	47	104	0	74	27151
2026-01-18 21:59:48.72	318.22	35.31	-52.9	-57.5	3.7	0.00e+00	0	47	104	0	76	25796
2026-01-18 21:59:50.71	317.01	35.61	-52.9	-57.4	3.7	0.00e+00	0	47	104	0	76	25648
2026-01-18 21:59:52.71	315.77	35.90	-53.1	-57.5	3.7	0.00e+00	0	47	104	0	76	25691
2026-01-18 21:59:54.71	314.52	36.18	-52.8	-57.4	3.7	0.00e+00	0	47	104	0	76	25641
2026-01-18 21:59:56.70	313.24	36.44	-52.6	-57.4	3.7	0.00e+00	0	47	104	0	76	25532
2026-01-18 21:59:58.70	311.94	36.69	-52.4	-57.2	3.7	0.00e+00	0	47	104	0	76	24967
2026-01-18 22:00:00.83	310.53	36.95	-53.0	-57.5	3.7	0.00e+00	0	47	104	0	76	25902
2026-01-18 22:00:02.87	309.15	37.17	-52.7	-57.3	3.7	0.00e+00	0	47	104	0	77	23732
2026-01-18 22:00:04.92	307.75	37.38	-52.6	-57.2	3.7	0.00e+00	0	47	104	0	77	23566
2026-01-18 22:00:07.27	306.13	37.60	-51.8	-56.7	3.7	0.00e+00	0	47	104	0	75	24906
2026-01-18 22:00:09.26	304.73	37.77	-52.4	-57.2	3.7	0.00e+00	0	47	104	0	75	26305
2026-01-18 22:00:11.24	303.33	37.92	-52.2	-57.0	3.7	0.00e+00	0	47	104	0	75	25837
2026-01-18 22:00:13.23	301.91	38.05	-52.9	-57.2	3.7	0.00e+00	0	47	104	0	76	24857
2026-01-18 22:00:15.22	300.47	38.16	-52.6	-56.5	3.7	0.00e+00	0	47	104	0	76	23066
2026-01-18 22:00:17.22	299.02	38.26	-52.8	-56.8	3.7	0.00e+00	0	47	104	0	76	23841
2026-01-18 22:00:19.21	297.57	38.33	-52.7	-57.2	3.7	0.00e+00	0	48	104	0	76	24990
2026-01-18 22:00:21.21	296.10	38.39	-53.1	-57.6	3.7	0.00e+00	0	47	104	0	76	26059
2026-01-18 22:00:23.19	294.65	38.42	-53.2	-57.7	3.7	0.00e+00	0	47	104	0	77	25040
2026-01-18 22:00:25.18	293.18	38.43	-53.4	-57.8	3.7	0.00e+00	0	47	104	0	77	25262
2026-01-18 22:00:27.18	291.71	38.43	-53.3	-57.8	3.7	0.00e+00	0	47	104	0	77	25370
2026-01-18 22:00:29.17	290.24	38.40	-53.3	-57.8	3.7	0.00e+00	0	47	104	0	77	25133
2026-01-18 22:00:31.15	288.79	38.36	-53.4	-57.9	3.7	0.00e+00	0	47	104	0	77	25544
2026-01-18 22:00:33.13	287.34	38.29	-53.4	-57.9	3.7	0.00e+00	0	47	104	0	77	25387
2026-01-18 22:00:35.12	285.89	38.20	-53.5	-58.0	3.7	0.00e+00	0	47	104	0	77	25684
2026-01-18 22:00:37.11	284.45	38.10	-53.5	-57.9	3.7	0.00e+00	0	47	104	0	77	25625
2026-01-18 22:00:39.29	282.89	37.96	-53.4	-57.9	3.7	0.00e+00	0	47	104	0	77	25545
2026-01-18 22:00:41.35	281.42	37.81	-53.4	-57.8	3.7	0.00e+00	0	47	104	0	77	25319
2026-01-18 22:00:43.34	280.02	37.64	-53.5	-57.9	3.7	0.00e+00	0	47	104	0	77	25605
2026-01-18 22:00:45.33	278.63	37.46	-53.3	-57.8	3.7	0.00e+00	0	47	104	0	77	25216
2026-01-18 22:00:47.32	277.26	37.27	-53.4	-57.9	3.6	0.00e+00	0	47	104	0	77	25628
2026-01-18 22:00:49.31	275.91	37.05	-53.3	-57.9	3.7	0.00e+00	0	47	104	0	77	25437
2026-01-18 22:00:51.30	274.58	36.82	-53.3	-57.8	3.7	0.00e+00	0	47	104	0	77	25136
2026-01-18 22:00:53.34	273.24	36.57	-53.5	-58.0	3.7	0.00e+00	0	47	104	0	77	25778
2026-01-18 22:00:55.36	271.93	36.31	-53.1	-57.9	3.7	0.00e+00	0	48	104	0	77	25386
2026-01-18 22:00:57.28	270.70	36.05	-53.1	-57.8	3.7	0.00e+00	0	47	104	0	77	25316
2026-01-18 22:00:59.30	269.44	35.76	-53.3	-57.8	3.7	0.00e+00	0	47	104	0	77	25373
2026-01-18 22:01:01.29	268.22	35.47	-53.3	-57.8	3.7	0.00e+00	0	47	104	0	77	25356
2026-01-18 22:01:03.30	267.01	35.16	-53.3	-57.8	3.7	0.00e+00	0	47	104	0	77	25372
2026-01-18 22:01:05.30	265.83	34.85	-53.4	-57.9	3.7	0.00e+00	0	47	104	0	77	25512
2026-01-18 22:01:07.31	264.66	34.52	-52.8	-57.5	3.7	0.00e+00	0	47	104	0	77	24431
2026-01-18 22:01:09.33	263.52	34.19	-52.8	-57.6	3.7	0.00e+00	0	47	104	0	77	24555
2026-01-18 22:01:11.33	262.41	33.85	-53.1	-57.7	3.7	0.00e+00	0	47	104	0	77	24970
2026-01-18 22:01:13.34	261.33	33.50	-52.7	-57.5	3.7	0.00e+00	0	47	104	0	77	24480
2026-01-18 22:01:15.36	260.26	33.14	-53.2	-57.8	3.7	0.00e+00	0	47	104	0	77	25258
2026-01-18 22:01:17.39	259.21	32.78	-53.0	-57.7	3.6	0.00e+00	0	47	104	0	77	24911
2026-01-18 22:01:19.44	258.18	32.40	-53.3	-57.8	3.7	0.00e+00	0	47	104	0	77	25134
2026-01-18 22:01:21.51	257.16	32.02	-53.2	-57.7	3.7	0.00e+00	0	47	104	0	77	24984
2026-01-18 22:01:23.51	256.21	31.65	-53.3	-57.7	3.7	0.00e+00	0	47	104	0	77	24994
2026-01-18 22:01:25.53	255.26	31.28	-53.5	-57.9	3.7	0.00e+00	0	47	104	0	77	25665
2026-01-18 22:01:27.52	254.35	30.90	-53.2	-57.7	3.7	0.00e+00	0	48	104	0	77	24892
2026-01-18 22:01:29.52	253.47	30.53	-53.1	-57.6	3.7	0.00e+00	0	47	104	0	77	24547
2026-01-18 22:01:31.57	252.58	30.14	-53.3	-57.7	3.7	0.00e+00	0	47	104	0	77	24908
2026-01-18 22:01:33.56	251.74	29.76	-53.1	-57.5	3.7	0.00e+00	0	47	104	0	77	24453
2026-01-18 22:01:35.69	250.86	29.36	-53.2	-57.6	3.7	0.00e+00	0	48	104	0	77	24673
2026-01-18 22:01:37.84	250.00	28.95	-53.1	-57.3	3.7	0.00e+00	0	48	104	0	77	23789
2026-01-18 22:01:39.83	249.23	28.57	-53.0	-57.3	3.7	0.00e+00	0	48	104	0	77	23816
2026-01-18 22:01:41.82	248.47	28.20	-53.0	-57.5	3.7	0.00e+00	0	47	104	0	77	24388
2026-01-18 22:01:43.88	247.71	27.81	-53.1	-57.4	3.7	0.00e+00	0	47	104	0	77	24195
2026-01-18 22:01:45.94	246.97	27.42	-53.2	-57.6	3.7	0.00e+00	0	47	104	0	77	24695
2026-01-18 22:01:47.92	246.27	27.05	-53.2	-57.6	3.7	0.00e+00	0	47	104	0	77	24741
2026-01-18 22:01:49.91	245.59	26.69	-53.2	-57.6	3.7	0.00e+00	0	47	104	0	77	24556
2026-01-18 22:01:51.90	244.93	26.32	-53.2	-57.6	3.7	0.00e+00	0	47	104	0	77	24597
2026-01-18 22:01:53.90	244.28	25.95	-53.3	-57.8	3.7	0.00e+00	0	47	104	0	77	25170
2026-01-18 22:01:55.88	243.65	25.59	-53.4	-57.8	3.7	0.00e+00	0	47	104	0	77	25202
2026-01-18 22:01:57.88	243.03	25.23	-53.3	-57.7	3.7	0.00e+00	0	47	104	0	77	25035
2026-01-18 22:01:59.96	242.41	24.85	-53.3	-57.7	3.7	0.00e+00	0	47	104	0	77	24964
2026-01-18 22:02:01.95	241.83	24.50	-53.3	-57.8	3.7	0.00e+00	0	47	104	0	77	25279
2026-01-18 22:02:03.94	241.26	24.15	-53.3	-57.8	3.7	0.00e+00	0	47	104	0	77	25223
2026-01-18 22:02:05.93	240.70	23.80	-53.3	-57.7	3.7	0.00e+00	0	47	104	0	77	25044
2026-01-18 22:02:07.92	240.16	23.45	-53.3	-57.7	3.7	0.00e+00	0	47	104	0	77	25029
2026-01-18 22:02:09.91	239.63	23.11	-53.1	-57.5	3.7	0.00e+00	0	47	104	0	77	24511
2026-01-18 22:02:11.89	239.12	22.78	-53.0	-57.5	3.7	0.00e+00	0	47	104	0	77	24467
2026-01-18 22:02:13.88	238.62	22.44	-52.9	-57.5	3.7	0.00e+00	0	47	104	0	77	24420
2026-01-18 22:02:15.87	238.13	22.11	-52.9	-57.5	3.7	0.00e+00	0	48	104	0	77	24461
2026-01-18 22:02:17.96	237.63	21.76	-53.0	-57.6	3.7	0.00e+00	0	47	104	0	77	24625
2026-01-18 22:02:20.40	237.06	21.37	-53.1	-57.7	3.7	0.00e+00	0	47	104	0	77	24925
2026-01-18 22:02:22.42	236.60	21.04	-53.0	-57.6	3.7	0.00e+00	0	47	104	0	77	24647
2026-01-18 22:02:24.41	236.16	20.72	-52.9	-57.7	3.7	0.00e+00	0	47	104	0	77	24816
2026-01-18 22:02:26.40	235.72	20.41	-53.0	-57.6	3.7	0.00e+00	0	47	104	0	77	24804
2026-01-18 22:02:28.39	235.30	20.10	-52.9	-57.6	3.7	0.00e+00	0	47	104	0	77	24542
2026-01-18 22:02:30.42	234.88	19.78	-52.9	-57.6	3.7	0.00e+00	0	47	104	0	77	24536
2026-01-18 22:02:32.42	234.48	19.48	-52.8	-57.5	3.7	0.00e+00	0	47	104	0	77	24360
2026-01-18 22:02:34.41	234.08	19.18	-52.9	-57.5	3.7	0.00e+00	0	47	104	0	77	24450
2026-01-18 22:02:36.40	233.70	18.88	-53.0	-57.6	3.7	0.00e+00	0	47	104	0	77	24691
2026-01-18 22:02:38.39	233.32	18.59	-53.0	-57.6	3.7	0.00e+00	0	47	104	0	77	24547
2026-01-18 22:02:40.66	232.90	18.26	-53.0	-57.6	3.7	0.00e+00	0	47	104	0	77	24660
2026-01-18 22:02:42.65	232.55	17.97	-53.1	-57.6	3.7	0.00e+00	0	47	104	0	77	24639
2026-01-18 22:02:44.65	232.19	17.69	-53.0	-57.6	3.7	0.00e+00	0	47	104	0	77	24542
2026-01-18 22:02:46.64	231.85	17.41	-53.1	-57.5	3.7	0.00e+00	0	47	104	0	77	24470
2026-01-18 22:02:48.60	231.52	17.13	-53.0	-57.4	3.7	0.00e+00	0	47	104	0	77	24208
2026-01-18 22:02:50.63	231.19	16.86	-52.8	-57.4	3.7	0.00e+00	0	47	104	0	77	24077
2026-01-18 22:02:52.72	230.85	16.57	-52.8	-57.4	3.7	0.00e+00	0	47	104	0	77	24018
2026-01-18 22:02:54.75	230.53	16.30	-52.9	-57.5	3.7	0.00e+00	0	48	104	0	77	24284
2026-01-18 22:02:56.79	230.21	16.03	-52.9	-57.5	3.7	0.00e+00	0	48	104	0	77	24390
2026-01-18 22:02:58.95	229.89	15.74	-52.8	-57.3	3.7	0.00e+00	0	47	104	0	77	23925
2026-01-18 22:03:00.99	229.59	15.48	-52.8	-57.3	3.7	0.00e+00	0	48	104	0	77	23859
2026-01-18 22:03:02.97	229.30	15.23	-52.9	-57.4	3.7	0.00e+00	0	47	104	0	77	24118
2026-01-18 22:03:04.96	229.02	14.97	-52.9	-57.4	3.7	0.00e+00	0	47	104	0	77	24022
2026-01-18 22:03:06.95	228.74	14.72	-52.9	-57.4	3.7	0.00e+00	0	47	104	0	77	24235
2026-01-18 22:03:08.96	228.47	14.48	-52.9	-57.4	3.7	0.00e+00	0	47	104	0	77	24127
2026-01-18 22:03:11.04	228.19	14.22	-52.9	-57.3	3.7	0.00e+00	0	48	104	0	77	23940
2026-01-18 22:03:13.23	227.91	13.95	-52.9	-57.3	3.7	0.00e+00	0	48	104	0	77	23891
2026-01-18 22:03:15.24	227.65	13.71	-52.8	-57.3	3.7	0.00e+00	0	47	104	0	77	23857
2026-01-18 22:03:17.34	227.39	13.47	-52.8	-57.3	3.7	0.00e+00	0	47	104	0	77	23766
2026-01-18 22:03:19.27	227.15	13.24	-52.8	-57.3	3.7	0.00e+00	0	47	104	0	77	23741
2026-01-18 22:03:21.25	226.91	13.01	-52.7	-57.2	3.7	0.00e+00	0	47	104	0	77	23525
2026-01-18 22:03:23.24	226.68	12.78	-52.6	-57.1	3.7	0.00e+00	0	48	104	0	77	23362
2026-01-18 22:03:25.23	226.44	12.56	-52.6	-57.1	3.7	0.00e+00	0	47	104	0	77	23302
2026-01-18 22:03:27.22	226.22	12.33	-52.8	-57.2	3.7	0.00e+00	0	47	104	0	77	23651
2026-01-18 22:03:29.26	225.99	12.11	-52.8	-57.2	3.7	0.00e+00	0	47	104	0	77	23551
2026-01-18 22:03:31.31	225.77	11.88	-52.7	-57.2	3.7	0.00e+00	0	48	104	0	77	23475
2026-01-18 22:03:33.50	225.53	11.64	-52.7	-57.1	3.7	0.00e+00	0	47	104	0	77	23415
2026-01-18 22:03:35.49	225.32	11.43	-52.6	-57.0	3.7	0.00e+00	0	47	104	0	77	23132
2026-01-18 22:03:37.48	225.11	11.22	-52.7	-57.1	3.7	0.00e+00	0	47	104	0	77	23170
2026-01-18 22:03:39.49	224.91	11.01	-52.5	-56.8	3.7	0.00e+00	0	47	104	0	76	23921
2026-01-18 22:03:41.49	224.71	10.80	-52.5	-56.7	3.7	0.00e+00	0	48	104	0	76	23685
2026-01-18 22:03:43.48	224.52	10.59	-52.3	-56.6	3.7	0.00e+00	0	47	104	0	76	23404
2026-01-18 22:03:45.49	224.32	10.39	-52.4	-56.6	3.7	0.00e+00	0	47	104	0	76	23320
2026-01-18 22:03:47.49	224.13	10.18	-52.4	-56.7	3.7	0.00e+00	0	48	104	0	76	23497
2026-01-18 22:03:49.50	223.95	9.98	-52.5	-56.8	3.7	0.00e+00	0	47	104	0	76	23739
2026-01-18 22:03:51.49	223.76	9.78	-52.3	-56.8	3.7	0.00e+00	0	47	104	0	76	23814
2026-01-18 22:03:53.49	223.58	9.59	-52.2	-56.7	3.6	0.00e+00	0	47	104	0	76	23672
2026-01-18 22:03:55.49	223.41	9.39	-51.9	-56.5	3.7	0.00e+00	0	47	104	0	74	25808
2026-01-18 22:03:57.49	223.23	9.20	-52.1	-56.7	3.7	0.00e+00	0	47	104	0	75	24810
2026-01-18 22:03:59.85	223.03	8.97	-52.4	-56.7	3.7	0.00e+00	0	47	104	0	75	25030
2026-01-18 22:04:02.12	222.84	8.76	-53.0	-57.5	3.7	0.00e+00	0	47	104	0	76	25902
2026-01-18 22:04:04.39	222.66	8.55	-52.9	-57.6	3.7	0.00e+00	0	47	104	0	77	24566
2026-01-18 22:04:06.66	222.47	8.34	-53.4	-57.6	3.7	0.00e+00	0	47	104	0	77	24711
2026-01-18 22:04:08.98	222.29	8.12	-53.1	-57.8	3.7	0.00e+00	0	47	104	0	77	25300
2026-01-18 22:04:11.25	222.11	7.92	-53.6	-58.1	3.7	0.00e+00	0	47	104	0	78	24641
2026-01-18 22:04:13.36	221.95	7.73	-53.3	-57.9	3.7	0.00e+00	0	47	104	0	78	24182
2026-01-18 22:04:15.73	221.78	7.52	-53.4	-57.9	3.7	0.00e+00	0	47	104	0	77	25622
2026-01-18 22:04:18.20	221.59	7.30	-53.0	-57.5	3.7	0.00e+00	0	47	104	0	77	24451
2026-01-18 22:04:20.58	221.42	7.09	-52.7	-57.4	3.7	0.00e+00	0	47	104	0	77	24094
2026-01-18 22:04:22.57	221.28	6.92	-52.7	-57.4	3.7	0.00e+00	0	47	104	0	77	24018
2026-01-18 22:04:24.57	221.14	6.75	-52.7	-57.4	3.7	0.00e+00	0	47	104	0	77	24054
2026-01-18 22:04:26.57	221.01	6.58	-52.7	-57.4	3.7	0.00e+00	0	47	104	0	77	24108
2026-01-18 22:04:28.56	220.87	6.41	-52.7	-57.4	3.7	0.00e+00	0	47	104	0	77	23990
2026-01-18 22:04:30.54	220.74	6.25	-52.7	-57.4	3.7	0.00e+00	0	47	104	0	77	23980
2026-01-18 22:04:32.53	220.61	6.08	-52.7	-57.4	3.7	0.00e+00	0	47	104	0	77	24057
2026-01-18 22:04:34.52	220.48	5.92	-52.7	-57.3	3.7	0.00e+00	0	47	104	0	77	23938
2026-01-18 22:04:36.50	220.35	5.75	-52.7	-57.4	3.7	0.00e+00	0	47	104	0	77	24015
2026-01-18 22:04:38.49	220.23	5.59	-52.7	-57.4	3.7	0.00e+00	0	47	104	0	77	24054
2026-01-18 22:04:40.48	220.10	5.43	-52.7	-57.4	3.7	0.00e+00	0	47	104	0	77	24026
2026-01-18 22:04:42.49	219.98	5.27	-52.7	-57.3	3.7	0.00e+00	0	47	104	0	77	23950
2026-01-18 22:04:44.48	219.86	5.12	-52.7	-57.4	3.7	0.00e+00	0	47	104	0	77	24038
2026-01-18 22:04:46.47	219.74	4.96	-52.7	-57.4	3.7	0.00e+00	0	47	104	0	77	23996
2026-01-18 22:04:48.45	219.63	4.80	-52.7	-57.3	3.7	0.00e+00	0	47	104	0	77	23936

#Closed at: 2026-01-18 22:04:49
#Recorded file [0 MB]: D:/Data/31040_260119_005605.dat