passes_logs/2026/01/18/T1/T1__20260118_062314_FENGYUN_3E_rec.log

#Pass ID: 20260118_062314_FENGYUN 3E
#Satellite: FENGYUN 3E
#Configuration: FENGYUN 3E
#almurnet v.1.7.20251203
#Start time: 2026-01-18 06:23:13

#Version: 2.0.20230620
#Station: T1
#Location: 37.570604 lon 55.790049 lat
#TLE: 1 49008U 21062A   26017.61301378  .00000104  00000+0  69808-4 0  9996
#TLE: 2 49008  98.7484  22.7108 0002130 132.1860 227.9498 14.19886007235218

#Time	Az	El	Level	Level2	SNR	BER	BlckErr	Temp	State	Recorded	gain1	gain2
2026-01-18 06:23:13.82	2.17	4.96	-49.4	-61.0	3.8	8.47e-01	0	39	0	0	69	13489
2026-01-18 06:23:16.80	1.84	5.11	-46.7	-60.5	3.8	8.45e-01	0	39	104	0	64	17072
2026-01-18 06:23:19.78	1.51	5.25	-46.7	-60.5	3.8	8.47e-01	0	40	104	0	64	17080
2026-01-18 06:23:22.76	1.17	5.40	-46.7	-60.6	3.8	8.47e-01	0	40	104	0	64	17098
2026-01-18 06:23:25.74	0.83	5.54	-46.7	-60.5	3.8	8.48e-01	0	40	104	0	64	17044
2026-01-18 06:23:28.72	0.49	5.69	-46.7	-60.5	3.8	8.47e-01	0	40	104	0	64	17013
2026-01-18 06:23:31.70	0.14	5.83	-46.7	-60.5	3.8	8.48e-01	0	40	104	0	64	17055
2026-01-18 06:23:34.68	359.80	5.98	-46.7	-60.6	3.8	8.46e-01	0	40	104	0	64	17095
2026-01-18 06:23:37.66	359.44	6.12	-46.7	-60.6	3.8	8.47e-01	0	40	104	0	64	17106
2026-01-18 06:23:40.64	359.08	6.26	-46.7	-60.6	3.8	8.46e-01	0	40	104	0	64	17098
2026-01-18 06:23:43.62	358.72	6.41	-46.7	-60.5	3.8	8.46e-01	0	41	104	0	64	17018
2026-01-18 06:23:46.60	358.36	6.55	-46.8	-60.5	3.8	8.46e-01	0	41	104	0	64	17031
2026-01-18 06:23:49.59	357.99	6.69	-46.8	-60.5	3.8	8.46e-01	0	41	104	0	64	17023
2026-01-18 06:23:52.57	357.62	6.83	-46.7	-60.5	3.8	8.46e-01	0	41	104	0	64	17052
2026-01-18 06:23:55.55	357.24	6.98	-46.8	-60.5	3.8	8.47e-01	0	41	104	0	64	16973
2026-01-18 06:23:58.53	356.86	7.12	-46.8	-60.4	3.8	8.46e-01	0	41	104	0	64	16873
2026-01-18 06:24:01.51	356.48	7.26	-46.8	-60.5	3.8	8.47e-01	0	41	104	0	64	16910
2026-01-18 06:24:04.49	356.09	7.40	-46.7	-60.4	3.8	8.47e-01	0	41	104	0	64	16859
2026-01-18 06:24:07.47	355.70	7.54	-46.8	-60.5	3.8	8.47e-01	0	41	104	0	64	16931
2026-01-18 06:24:10.45	355.31	7.68	-46.8	-60.4	3.8	8.47e-01	0	41	104	0	64	16713
2026-01-18 06:24:13.43	354.91	7.82	-46.8	-60.1	3.8	8.47e-01	0	41	104	0	64	16314
2026-01-18 06:24:16.40	354.51	7.96	-46.8	-60.2	3.8	8.48e-01	0	41	104	0	64	16343
2026-01-18 06:24:19.39	354.10	8.10	-46.8	-60.4	3.8	8.47e-01	0	41	104	0	64	16846
2026-01-18 06:24:22.37	353.69	8.23	-46.8	-60.4	3.8	8.47e-01	0	41	104	0	64	16721
2026-01-18 06:24:25.34	353.28	8.37	-46.7	-59.1	3.8	8.45e-01	0	41	104	0	64	14378
2026-01-18 06:24:28.32	352.86	8.51	-46.6	-57.7	3.9	8.45e-01	0	41	104	0	64	12367
2026-01-18 06:24:31.30	352.43	8.64	-46.5	-55.8	4.6	8.19e-01	0	42	0	0	63	10434
2026-01-18 06:24:34.28	352.01	8.77	-46.0	-53.1	6.3	3.00e-01	0	42	0	4194304	62	8163
2026-01-18 06:24:37.26	351.58	8.91	-43.9	-47.2	12.2	4.91e-04	0	42	0	26214400	58	5210
2026-01-18 06:24:40.24	351.14	9.04	-40.5	-42.2	17.2	0.00e+00	0	42	0	47185920	51	4376
2026-01-18 06:24:43.42	350.67	9.18	-40.8	-42.5	16.9	0.00e+00	0	42	0	70254592	51	4500
2026-01-18 06:24:46.26	350.25	9.31	-39.4	-40.7	18.6	0.00e+00	0	42	0	91226112	49	4117
2026-01-18 06:24:49.60	349.75	9.45	-39.4	-40.8	18.6	0.00e+00	0	42	0	115343360	49	4146
2026-01-18 06:24:52.32	349.34	9.57	-39.0	-40.3	19.0	0.00e+00	0	42	0	134217728	48	4160
2026-01-18 06:24:55.59	348.84	9.71	-38.8	-40.2	19.1	0.00e+00	0	42	0	158334976	48	4118
2026-01-18 06:24:58.49	348.39	9.83	-38.7	-40.1	19.3	0.00e+00	0	42	0	179306496	48	4072
2026-01-18 06:25:01.48	347.93	9.96	-38.7	-40.1	19.3	0.00e+00	0	42	0	201326592	48	4059
2026-01-18 06:25:04.46	347.46	10.08	-38.8	-40.1	19.3	0.00e+00	0	42	0	222298112	48	4069
2026-01-18 06:25:07.45	346.99	10.21	-38.9	-40.3	19.1	0.00e+00	0	42	0	244318208	48	4178
2026-01-18 06:25:10.43	346.51	10.33	-38.8	-40.2	19.1	0.00e+00	0	42	0	265289728	48	4134
2026-01-18 06:25:13.42	346.03	10.45	-38.9	-40.3	19.1	0.00e+00	0	42	0	287309824	48	4169
2026-01-18 06:25:16.40	345.54	10.57	-38.7	-40.1	19.3	0.00e+00	0	42	0	308281344	48	4064
2026-01-18 06:25:19.38	345.06	10.69	-38.4	-39.8	19.3	0.00e+00	0	42	0	330301440	47	4186
2026-01-18 06:25:22.45	344.55	10.81	-38.5	-39.8	19.3	0.00e+00	0	42	0	352321536	47	4163
2026-01-18 06:25:25.35	344.07	10.92	-38.4	-39.6	19.5	0.00e+00	0	42	0	373293056	47	4065
2026-01-18 06:25:28.48	343.54	11.04	-38.3	-39.5	19.6	0.00e+00	0	42	0	396361728	47	4048
2026-01-18 06:25:31.33	343.06	11.14	-38.6	-39.8	19.3	0.00e+00	0	42	0	416284672	47	4175
2026-01-18 06:25:34.47	342.52	11.26	-38.6	-39.8	19.4	0.00e+00	0	42	0	439353344	47	4154
2026-01-18 06:25:37.31	342.03	11.36	-38.7	-39.9	19.2	0.00e+00	0	42	0	459276288	47	4234
2026-01-18 06:25:40.62	341.46	11.48	-38.4	-39.6	19.6	0.00e+00	0	42	0	483393536	47	4058
2026-01-18 06:25:43.46	340.97	11.58	-38.2	-39.3	19.8	0.00e+00	0	42	0	503316480	47	3943
2026-01-18 06:25:46.59	340.42	11.69	-38.2	-39.3	19.8	0.00e+00	0	42	0	526385152	47	3933
2026-01-18 06:25:49.52	339.90	11.79	-38.4	-39.6	19.5	0.00e+00	0	42	0	547356672	47	4067
2026-01-18 06:25:52.51	339.36	11.89	-38.5	-39.6	19.6	0.00e+00	0	42	0	569376768	47	4074
2026-01-18 06:25:55.49	338.83	11.98	-38.7	-39.8	19.4	0.00e+00	0	42	0	590348288	47	4152
2026-01-18 06:25:58.48	338.29	12.08	-38.5	-39.7	19.5	0.00e+00	0	42	0	612368384	47	4113
2026-01-18 06:26:01.46	337.75	12.17	-38.5	-39.7	19.5	0.00e+00	0	42	0	633339904	47	4105
2026-01-18 06:26:04.45	337.20	12.26	-38.4	-39.6	19.6	0.00e+00	0	42	0	655360000	47	4060
2026-01-18 06:26:07.44	336.65	12.35	-38.3	-39.4	19.8	0.00e+00	0	42	0	677380096	47	3984
2026-01-18 06:26:10.42	336.10	12.43	-38.2	-39.3	19.8	0.00e+00	0	42	0	698351616	47	3939
2026-01-18 06:26:13.40	335.54	12.52	-38.1	-39.1	20.1	0.00e+00	0	42	0	720371712	46	4059
2026-01-18 06:26:16.39	334.98	12.60	-37.8	-38.8	20.4	0.00e+00	0	42	0	741343232	46	3928
2026-01-18 06:26:19.34	334.43	12.68	-37.9	-38.9	20.3	0.00e+00	0	42	0	763363328	46	3963
2026-01-18 06:26:22.35	333.86	12.75	-37.9	-38.8	20.3	0.00e+00	0	42	0	784334848	46	3950
2026-01-18 06:26:25.34	333.29	12.83	-37.9	-38.9	20.3	0.00e+00	0	42	0	806354944	46	3983
2026-01-18 06:26:28.32	332.72	12.90	-38.3	-39.3	19.9	0.00e+00	0	42	0	827326464	46	4160
2026-01-18 06:26:31.30	332.14	12.97	-38.2	-39.3	19.9	0.00e+00	0	42	0	849346560	46	4149
2026-01-18 06:26:34.25	331.57	13.03	-38.3	-39.3	19.9	0.00e+00	0	42	0	870318080	46	4182
2026-01-18 06:26:37.30	330.98	13.10	-38.2	-39.2	20.0	0.00e+00	0	42	0	892338176	46	4113
2026-01-18 06:26:40.43	330.37	13.16	-37.8	-38.7	20.5	0.00e+00	0	42	0	915406848	46	3903
2026-01-18 06:26:43.27	329.82	13.22	-37.6	-38.6	20.6	0.00e+00	0	42	0	936378368	46	3826
2026-01-18 06:26:46.40	329.20	13.27	-37.9	-38.9	20.3	0.00e+00	0	42	0	958398464	46	3967
2026-01-18 06:26:49.24	328.64	13.32	-37.7	-38.7	20.5	0.00e+00	0	42	0	978321408	46	3894
2026-01-18 06:26:52.53	327.99	13.38	-37.9	-38.8	20.3	0.00e+00	0	42	0	1002438656	46	3952
2026-01-18 06:26:55.37	327.43	13.42	-37.7	-38.7	20.5	0.00e+00	0	42	0	1022361600	46	3882
2026-01-18 06:26:58.69	326.77	13.47	-37.7	-38.8	20.4	0.00e+00	0	42	0	1047527424	46	3923
2026-01-18 06:27:01.53	326.20	13.50	-37.8	-38.8	20.4	0.00e+00	0	42	0	1067450368	46	3945
2026-01-18 06:27:04.66	325.57	13.54	-38.1	-39.2	20.0	0.00e+00	0	42	0	1089470464	46	4104
2026-01-18 06:27:07.66	324.97	13.58	-38.0	-39.1	20.1	0.00e+00	0	42	0	1111490560	46	4081
2026-01-18 06:27:11.01	324.29	13.61	-37.9	-38.9	20.3	0.00e+00	0	42	0	1135607808	46	3974
2026-01-18 06:27:13.93	323.70	13.64	-38.0	-39.0	20.2	0.00e+00	0	42	0	1157627904	46	4009
2026-01-18 06:27:17.22	323.04	13.66	-37.9	-38.8	20.4	0.00e+00	0	42	0	1180696576	46	3945
2026-01-18 06:27:19.95	322.49	13.68	-37.7	-38.7	20.5	0.00e+00	0	42	0	1200619520	46	3874
2026-01-18 06:27:23.21	321.83	13.70	-37.8	-38.8	20.4	0.00e+00	0	42	0	1223688192	46	3938
2026-01-18 06:27:26.21	321.22	13.72	-37.9	-38.9	20.3	0.00e+00	0	42	0	1245708288	46	3982
2026-01-18 06:27:29.75	320.50	13.73	-37.7	-38.7	20.5	0.00e+00	0	42	0	1270874112	46	3900
2026-01-18 06:27:32.45	319.95	13.74	-37.8	-38.8	20.4	0.00e+00	0	42	0	1290797056	46	3922
2026-01-18 06:27:35.72	319.28	13.74	-37.9	-38.9	20.3	0.00e+00	0	43	0	1314914304	46	3974
2026-01-18 06:27:38.43	318.73	13.74	-38.1	-39.1	20.1	0.00e+00	0	42	0	1333788672	46	4067
2026-01-18 06:27:41.70	318.07	13.74	-38.0	-39.0	20.2	0.00e+00	0	42	0	1357905920	46	4010
2026-01-18 06:27:44.42	317.51	13.74	-37.9	-38.9	20.3	0.00e+00	0	42	0	1376780288	46	3969
2026-01-18 06:27:47.69	316.85	13.73	-37.8	-38.8	20.4	0.00e+00	0	42	0	1400897536	46	3933
2026-01-18 06:27:50.68	316.24	13.71	-37.7	-38.7	20.5	0.00e+00	0	42	0	1422917632	46	3905
2026-01-18 06:27:53.66	315.63	13.70	-37.6	-38.6	20.6	0.00e+00	0	42	0	1443889152	46	3844
2026-01-18 06:27:56.91	314.98	13.68	-37.6	-38.6	20.6	0.00e+00	0	43	0	1466957824	45	4072
2026-01-18 06:27:59.83	314.38	13.66	-37.7	-38.7	20.5	0.00e+00	0	42	0	1487929344	45	4117
2026-01-18 06:28:03.22	313.70	13.63	-37.9	-38.8	20.3	0.00e+00	0	42	0	1513095168	45	4182
2026-01-18 06:28:05.99	313.14	13.60	-37.8	-38.8	20.4	0.00e+00	0	43	0	1533018112	45	4166
2026-01-18 06:28:09.28	312.48	13.57	-37.9	-38.8	20.3	0.00e+00	0	42	0	1557135360	45	4184
2026-01-18 06:28:12.01	311.93	13.54	-37.9	-38.9	20.2	0.00e+00	0	42	0	1576009728	45	4232
2026-01-18 06:28:15.28	311.27	13.50	-38.1	-39.0	20.1	0.00e+00	0	42	0	1600126976	45	4286
2026-01-18 06:28:18.03	310.72	13.46	-38.0	-39.0	20.2	0.00e+00	0	42	0	1620049920	45	4260
2026-01-18 06:28:21.30	310.07	13.41	-38.1	-39.1	20.0	0.00e+00	0	42	0	1643118592	45	4330
2026-01-18 06:28:24.02	309.53	13.37	-38.2	-39.2	19.9	0.00e+00	0	42	0	1663041536	46	4134
2026-01-18 06:28:27.31	308.88	13.32	-38.2	-39.2	20.0	0.00e+00	0	42	0	1686110208	46	4111
2026-01-18 06:28:30.02	308.34	13.27	-38.1	-39.1	20.1	0.00e+00	0	43	0	1706033152	46	4082
2026-01-18 06:28:33.29	307.70	13.21	-38.2	-39.2	20.0	0.00e+00	0	42	0	1730150400	46	4123
2026-01-18 06:28:36.19	307.13	13.15	-38.2	-39.2	20.0	0.00e+00	0	43	0	1751121920	46	4117
2026-01-18 06:28:39.83	306.42	13.08	-38.2	-39.2	20.0	0.00e+00	0	42	0	1777336320	46	4100
2026-01-18 06:28:42.75	305.85	13.02	-38.2	-39.2	20.0	0.00e+00	0	43	0	1798307840	46	4117
2026-01-18 06:28:46.16	305.19	12.94	-38.2	-39.2	20.0	0.00e+00	0	42	0	1822425088	46	4112
2026-01-18 06:28:49.19	304.61	12.87	-38.3	-39.3	19.9	0.00e+00	0	42	0	1844445184	46	4155
2026-01-18 06:28:52.23	304.03	12.79	-38.4	-39.4	19.8	0.00e+00	0	42	0	1866465280	46	4202
2026-01-18 06:28:55.46	303.41	12.71	-38.2	-39.2	20.0	0.00e+00	0	42	0	1889533952	46	4110
2026-01-18 06:28:58.30	302.87	12.64	-38.1	-39.1	20.0	0.00e+00	0	42	0	1910505472	46	4087
2026-01-18 06:29:01.42	302.29	12.56	-38.3	-39.3	19.8	0.00e+00	0	43	0	1933574144	46	4155
2026-01-18 06:29:04.27	301.75	12.48	-38.4	-39.4	19.8	0.00e+00	0	42	0	1953497088	46	4195
2026-01-18 06:29:07.50	301.15	12.39	-38.5	-39.5	19.6	0.00e+00	0	42	0	1976565760	46	4263
2026-01-18 06:29:10.34	300.62	12.30	-38.7	-39.7	19.4	0.00e+00	0	42	0	1997537280	46	4362
2026-01-18 06:29:13.56	300.03	12.21	-38.6	-39.6	19.6	0.00e+00	0	43	0	2020605952	46	4305
2026-01-18 06:29:16.41	299.51	12.12	-38.8	-39.8	19.3	0.00e+00	0	43	0	2040528896	46	4423
2026-01-18 06:29:19.54	298.94	12.02	-38.6	-39.6	19.5	0.00e+00	0	43	0	2063597568	47	4063
2026-01-18 06:29:22.38	298.43	11.93	-38.4	-39.3	19.8	0.00e+00	0	43	0	2084569088	47	3949
2026-01-18 06:29:25.51	297.87	11.83	-38.4	-39.4	19.7	0.00e+00	0	42	0	2106589184	47	3962
2026-01-18 06:29:28.35	297.36	11.73	-38.6	-39.6	19.5	0.00e+00	0	42	0	2127560704	47	4058
2026-01-18 06:29:31.47	296.81	11.62	-38.6	-39.6	19.5	0.00e+00	0	42	0	2149580800	47	4073
2026-01-18 06:29:34.32	296.31	11.52	-38.6	-39.6	19.4	0.00e+00	0	42	0	2170552320	47	4092
2026-01-18 06:29:37.44	295.77	11.41	-38.7	-39.7	19.3	0.00e+00	0	42	0	2192572416	47	4113
2026-01-18 06:29:40.28	295.27	11.31	-38.7	-39.8	19.3	0.00e+00	0	42	0	2213543936	47	4151
2026-01-18 06:29:43.41	294.74	11.20	-38.7	-39.7	19.3	0.00e+00	0	42	0	2235564032	47	4144
2026-01-18 06:29:46.36	294.23	11.09	-38.5	-39.6	19.5	0.00e+00	0	43	0	2257584128	47	4053
2026-01-18 06:29:49.62	293.68	10.96	-38.4	-39.4	19.6	0.00e+00	0	43	0	2280652800	47	3998
2026-01-18 06:29:52.38	293.22	10.86	-38.7	-39.7	19.3	0.00e+00	0	43	0	2300575744	47	4131
2026-01-18 06:29:55.65	292.67	10.73	-38.7	-39.8	19.2	0.00e+00	0	42	0	2324692992	47	4149
2026-01-18 06:29:58.35	292.23	10.62	-38.8	-39.8	19.2	0.00e+00	0	43	0	2343567360	47	4167
2026-01-18 06:30:01.65	291.69	10.49	-38.8	-39.8	19.2	0.00e+00	0	43	0	2367684608	47	4184
2026-01-18 06:30:04.49	291.23	10.38	-39.0	-40.0	19.0	0.00e+00	0	43	0	2388656128	47	4271
2026-01-18 06:30:07.82	290.69	10.24	-38.9	-40.0	19.0	0.00e+00	0	43	0	2412773376	47	4265
2026-01-18 06:30:10.87	290.20	10.12	-38.8	-39.9	19.1	0.00e+00	0	43	0	2433744896	47	4200
2026-01-18 06:30:13.99	289.71	9.99	-38.9	-39.9	19.1	0.00e+00	0	43	0	2456813568	47	4211
2026-01-18 06:30:16.84	289.26	9.87	-38.9	-40.0	19.0	0.00e+00	0	42	0	2477785088	47	4256
2026-01-18 06:30:19.96	288.78	9.73	-39.0	-40.1	18.9	0.00e+00	0	43	0	2499805184	47	4313
2026-01-18 06:30:22.87	288.33	9.61	-38.9	-40.0	19.0	0.00e+00	0	43	0	2520776704	47	4261
2026-01-18 06:30:25.99	287.85	9.47	-39.0	-40.0	18.9	0.00e+00	0	43	0	2543845376	47	4291
2026-01-18 06:30:28.86	287.42	9.35	-39.1	-40.2	18.7	0.00e+00	0	42	0	2563768320	47	4361
2026-01-18 06:30:32.14	286.93	9.20	-38.9	-40.0	18.9	0.00e+00	0	43	0	2587885568	47	4259
2026-01-18 06:30:34.86	286.52	9.08	-39.0	-40.1	18.8	0.00e+00	0	42	0	2607808512	47	4317
2026-01-18 06:30:38.14	286.04	8.94	-50.1	-60.7	3.8	8.47e-01	0	42	104	2622488576	69	13043
2026-01-18 06:30:41.26	285.59	8.80	-50.3	-61.1	3.8	8.47e-01	0	42	104	2622488576	70	12852
2026-01-18 06:30:44.60	285.10	8.65	-50.5	-61.1	3.8	8.47e-01	0	43	104	2622488576	70	12947
2026-01-18 06:30:47.52	284.69	8.51	-50.5	-61.2	3.8	8.48e-01	0	43	104	2622488576	70	12971
2026-01-18 06:30:50.85	284.22	8.36	-50.4	-61.2	3.8	8.46e-01	0	43	104	2622488576	70	13068
2026-01-18 06:30:53.56	283.84	8.24	-50.5	-61.1	3.8	8.47e-01	0	43	104	2622488576	70	12876
2026-01-18 06:30:56.84	283.38	8.08	-50.2	-61.0	3.8	8.46e-01	0	43	104	2622488576	70	12805
2026-01-18 06:30:59.54	283.01	7.96	-50.0	-61.0	3.8	8.48e-01	0	42	104	2622488576	70	12714
2026-01-18 06:31:02.80	282.57	7.81	-50.0	-61.0	3.8	8.47e-01	0	43	104	2622488576	70	12704
2026-01-18 06:31:05.50	282.20	7.68	-50.0	-60.9	3.8	8.46e-01	0	43	104	2622488576	70	12654
2026-01-18 06:31:08.76	281.77	7.53	-50.0	-60.9	3.8	8.47e-01	0	42	104	2622488576	70	12599
2026-01-18 06:31:11.46	281.41	7.40	-50.0	-61.0	3.8	8.47e-01	0	42	104	2622488576	70	12696
2026-01-18 06:31:14.72	280.98	7.25	-50.0	-60.9	3.8	8.47e-01	0	42	104	2622488576	70	12539
2026-01-18 06:31:17.42	280.63	7.12	-49.9	-60.8	3.8	8.47e-01	0	42	104	2622488576	70	12508
2026-01-18 06:31:20.69	280.22	6.96	-49.9	-60.9	3.8	8.47e-01	0	43	104	2622488576	70	12542
2026-01-18 06:31:23.39	279.87	6.83	-49.9	-60.9	3.8	8.47e-01	0	43	104	2622488576	70	12582
2026-01-18 06:31:26.65	279.46	6.68	-49.9	-60.9	3.8	8.47e-01	0	43	104	2622488576	70	12552
2026-01-18 06:31:29.35	279.13	6.55	-49.9	-60.9	3.8	8.47e-01	0	43	104	2622488576	70	12555
2026-01-18 06:31:32.62	278.72	6.39	-49.9	-60.8	3.8	8.48e-01	0	43	104	2622488576	70	12514
2026-01-18 06:31:35.31	278.39	6.26	-49.9	-60.8	3.8	8.47e-01	0	43	104	2622488576	70	12488
2026-01-18 06:31:38.58	278.00	6.10	-49.9	-60.9	3.8	8.48e-01	0	43	104	2622488576	70	12525
2026-01-18 06:31:41.30	277.67	5.97	-49.9	-60.9	3.8	8.47e-01	0	43	104	2622488576	70	12578
2026-01-18 06:31:44.58	277.29	5.81	-49.9	-60.9	3.8	8.46e-01	0	43	104	2622488576	70	12589
2026-01-18 06:31:47.28	276.97	5.68	-49.9	-60.9	3.8	8.47e-01	0	43	104	2622488576	70	12532
2026-01-18 06:31:50.54	276.59	5.52	-49.9	-60.9	3.8	8.46e-01	0	43	104	2622488576	70	12564
2026-01-18 06:31:53.24	276.28	5.39	-49.9	-60.8	3.8	8.47e-01	0	43	104	2622488576	70	12511
2026-01-18 06:31:56.52	275.91	5.23	-49.9	-60.8	3.8	8.47e-01	0	43	104	2622488576	70	12449
2026-01-18 06:31:59.23	275.60	5.10	-49.9	-60.8	3.8	8.47e-01	0	43	104	2622488576	70	12488

#Closed at: 2026-01-18 06:32:02
#Recorded file [2622 MB]: D:/Data/31040_260118_092313.dat