passes_logs/2026/01/18/T1/T1__20260118_224043_NOAA_20_JPSS-1_rec.log

#Pass ID: 20260118_224043_NOAA 20 (JPSS-1)
#Satellite: NOAA 20 (JPSS-1)
#Configuration: NOAA 20
#almurnet v.1.7.20251203
#Start time: 2026-01-18 22:40:43

#Version: 2.0.20230620
#Station: T1
#Location: 37.570604 lon 55.790049 lat
#TLE: 1 43013U 17073A   26017.93796159  .00000077  00000+0  57252-4 0  9992
#TLE: 2 43013  98.7639 318.8464 0001390  34.9771 325.1496 14.19536703423157

#Time	Az	El	Level	Level2	SNR	BER	BlckErr	Temp	State	Recorded	gain1	gain2
2026-01-18 22:40:43.77	24.29	5.05	-49.3	-64.8	3.8	1.49e+00	0	36	0	0	70	21086
2026-01-18 22:40:46.74	24.47	5.25	-49.3	-64.7	3.8	1.49e+00	0	36	104	0	70	20925
2026-01-18 22:40:49.72	24.65	5.44	-49.2	-64.7	3.8	1.49e+00	0	36	104	0	70	20995
2026-01-18 22:40:52.71	24.84	5.64	-49.2	-64.7	3.8	1.49e+00	0	37	104	0	70	20829
2026-01-18 22:40:55.69	25.02	5.84	-49.2	-64.7	3.8	1.49e+00	0	37	104	0	70	20804
2026-01-18 22:40:58.67	25.21	6.04	-49.3	-64.7	3.8	1.49e+00	0	37	104	0	70	20852
2026-01-18 22:41:01.65	25.40	6.25	-49.3	-64.7	3.8	1.49e+00	0	37	104	0	70	20950
2026-01-18 22:41:04.63	25.59	6.45	-49.2	-64.7	3.8	1.49e+00	0	37	104	0	70	20964
2026-01-18 22:41:07.61	25.79	6.65	-49.2	-64.7	3.8	1.49e+00	0	37	104	0	70	20826
2026-01-18 22:41:10.59	25.99	6.86	-49.2	-64.6	3.8	1.49e+00	0	37	104	0	70	20697
2026-01-18 22:41:13.57	26.19	7.07	-49.2	-64.6	3.8	1.49e+00	0	37	104	0	70	20752
2026-01-18 22:41:16.55	26.39	7.28	-49.2	-64.7	3.8	1.49e+00	0	38	104	0	70	20917
2026-01-18 22:41:19.53	26.60	7.49	-49.2	-64.6	3.8	1.49e+00	0	37	104	0	70	20759
2026-01-18 22:41:22.51	26.81	7.70	-49.2	-64.5	3.8	1.49e+00	0	37	104	0	70	20437
2026-01-18 22:41:25.49	27.02	7.91	-49.2	-64.4	3.8	1.49e+00	0	38	104	0	70	20168
2026-01-18 22:41:28.47	27.23	8.13	-49.2	-64.2	3.8	1.49e+00	0	38	104	0	70	19803
2026-01-18 22:41:31.45	27.45	8.34	-49.2	-63.9	3.8	1.49e+00	0	38	104	0	70	19006
2026-01-18 22:41:34.43	27.67	8.56	-49.1	-62.3	3.9	1.49e+00	0	38	104	0	70	15845
2026-01-18 22:41:37.41	27.90	8.78	-48.6	-57.9	5.8	5.87e-01	0	38	0	3145728	69	10103
2026-01-18 22:41:40.39	28.12	9.00	-47.4	-53.3	9.9	1.70e-02	0	38	0	8388608	66	7108
2026-01-18 22:41:43.37	28.36	9.22	-47.9	-54.9	8.2	2.59e-01	0	38	0	13631488	67	8026
2026-01-18 22:41:46.43	28.60	9.45	-44.2	-47.2	16.3	0.00e+00	0	38	0	17825792	60	4972
2026-01-18 22:41:49.31	28.82	9.67	-43.8	-46.7	16.8	0.00e+00	0	38	0	23068672	59	4938
2026-01-18 22:41:52.43	29.08	9.91	-43.6	-46.4	17.1	0.00e+00	0	38	0	29360128	59	4810
2026-01-18 22:41:55.27	29.31	10.13	-43.5	-46.3	17.3	0.00e+00	0	38	0	34603008	58	4985
2026-01-18 22:41:58.40	29.57	10.37	-43.5	-46.2	17.3	0.00e+00	0	38	0	40894464	58	4962
2026-01-18 22:42:01.24	29.81	10.59	-43.4	-46.1	17.5	0.00e+00	0	38	0	46137344	58	4874
2026-01-18 22:42:04.36	30.08	10.84	-43.4	-46.1	17.5	0.00e+00	0	38	0	51380224	58	4872
2026-01-18 22:42:07.30	30.33	11.07	-43.3	-46.0	17.6	0.00e+00	0	38	0	56623104	58	4820
2026-01-18 22:42:10.49	30.62	11.33	-43.2	-45.8	17.7	0.00e+00	0	38	0	62914560	58	4759
2026-01-18 22:42:13.33	30.87	11.55	-43.3	-45.9	17.6	0.00e+00	0	38	0	68157440	58	4783
2026-01-18 22:42:16.46	31.16	11.81	-43.2	-45.8	17.7	0.00e+00	0	38	0	74448896	58	4754
2026-01-18 22:42:19.30	31.42	12.04	-43.2	-45.8	17.8	0.00e+00	0	38	0	79691776	58	4707
2026-01-18 22:42:22.49	31.72	12.30	-43.1	-45.8	17.8	0.00e+00	0	38	0	85983232	58	4711
2026-01-18 22:42:25.33	31.99	12.54	-42.9	-45.6	18.0	0.00e+00	0	38	0	91226112	57	4878
2026-01-18 22:42:28.46	32.30	12.80	-42.9	-45.5	18.0	0.00e+00	0	38	0	96468992	57	4864
2026-01-18 22:42:31.30	32.58	13.04	-43.0	-45.6	18.0	0.00e+00	0	38	0	101711872	57	4887
2026-01-18 22:42:34.42	32.89	13.31	-43.1	-45.7	17.9	0.00e+00	0	38	0	108003328	57	4938
2026-01-18 22:42:37.27	33.19	13.55	-42.9	-45.4	18.2	0.00e+00	0	38	0	113246208	57	4767
2026-01-18 22:42:40.39	33.51	13.82	-42.7	-45.2	18.5	0.00e+00	0	38	0	119537664	57	4660
2026-01-18 22:42:43.23	33.81	14.07	-42.8	-45.3	18.4	0.00e+00	0	39	0	124780544	57	4718
2026-01-18 22:42:46.78	34.19	14.38	-43.0	-45.5	18.2	0.00e+00	0	38	0	131072000	57	4825
2026-01-18 22:42:49.48	34.49	14.62	-43.0	-45.5	18.1	0.00e+00	0	39	0	136314880	57	4844
2026-01-18 22:42:52.75	34.85	14.91	-43.1	-45.7	17.9	0.00e+00	0	39	0	142606336	57	4944
2026-01-18 22:42:55.47	35.16	15.15	-43.2	-45.8	17.8	0.00e+00	0	38	0	147849216	57	5036
2026-01-18 22:42:58.75	35.54	15.45	-43.4	-46.0	17.6	0.00e+00	0	39	0	153092096	57	5156
2026-01-18 22:43:01.60	35.87	15.71	-43.6	-46.3	17.4	0.00e+00	0	39	0	159383552	57	5306
2026-01-18 22:43:04.73	36.25	16.00	-43.8	-46.5	17.2	0.00e+00	0	39	0	164626432	58	5124
2026-01-18 22:43:07.58	36.60	16.26	-43.8	-46.5	17.2	0.00e+00	0	39	0	169869312	58	5141
2026-01-18 22:43:10.70	36.98	16.55	-43.6	-46.2	17.5	0.00e+00	0	39	0	176160768	58	4951
2026-01-18 22:43:13.57	37.34	16.82	-43.6	-46.2	17.5	0.00e+00	0	39	0	181403648	58	4982
2026-01-18 22:43:16.84	37.76	17.13	-43.8	-46.4	17.3	0.00e+00	0	39	0	187695104	58	5070
2026-01-18 22:43:19.56	38.12	17.39	-43.9	-46.6	17.2	0.00e+00	0	39	0	192937984	58	5178
2026-01-18 22:43:22.82	38.56	17.71	-44.0	-46.7	17.0	0.00e+00	0	39	0	199229440	58	5250
2026-01-18 22:43:25.66	38.94	17.98	-43.8	-46.4	17.3	0.00e+00	0	39	0	204472320	58	5097
2026-01-18 22:43:28.79	39.37	18.29	-43.9	-46.6	17.2	0.00e+00	0	39	0	209715200	58	5190
2026-01-18 22:43:31.73	39.79	18.58	-44.0	-46.7	17.1	0.00e+00	0	39	0	214958080	58	5240
2026-01-18 22:43:34.85	40.24	18.88	-43.7	-46.4	17.4	0.00e+00	0	39	0	221249536	58	5059
2026-01-18 22:43:37.69	40.65	19.17	-43.5	-46.1	17.7	0.00e+00	0	39	0	226492416	58	4893
2026-01-18 22:43:40.82	41.12	19.48	-43.4	-46.0	17.7	0.00e+00	0	39	0	232783872	58	4855
2026-01-18 22:43:43.66	41.55	19.77	-43.4	-46.0	17.8	0.00e+00	0	39	0	238026752	58	4828
2026-01-18 22:43:46.93	42.06	20.10	-43.4	-46.0	17.8	0.00e+00	0	39	0	244318208	58	4826
2026-01-18 22:43:49.88	42.53	20.40	-43.2	-45.7	18.0	0.00e+00	0	39	0	249561088	58	4679
2026-01-18 22:43:53.01	43.03	20.72	-43.2	-45.7	18.1	0.00e+00	0	39	0	254803968	58	4676
2026-01-18 22:43:55.86	43.50	21.02	-43.0	-45.6	18.2	0.00e+00	0	39	0	261095424	58	4599
2026-01-18 22:43:58.99	44.03	21.34	-43.0	-45.4	18.3	0.00e+00	0	39	0	266338304	57	4798
2026-01-18 22:44:01.81	44.51	21.64	-42.6	-45.0	18.7	0.00e+00	0	39	0	271581184	57	4566
2026-01-18 22:44:04.93	45.05	21.97	-42.4	-44.8	19.0	0.00e+00	0	39	0	277872640	56	4714
2026-01-18 22:44:07.79	45.56	22.27	-42.4	-44.7	19.0	0.00e+00	0	39	0	283115520	56	4705
2026-01-18 22:44:11.11	46.17	22.62	-42.3	-44.6	19.1	0.00e+00	0	39	0	289406976	56	4625
2026-01-18 22:44:13.82	46.67	22.91	-42.1	-44.3	19.4	0.00e+00	0	39	0	294649856	56	4482
2026-01-18 22:44:17.10	47.29	23.26	-41.7	-43.9	19.7	0.00e+00	0	39	0	300941312	55	4500
2026-01-18 22:44:19.94	47.84	23.57	-41.6	-43.8	19.8	0.00e+00	0	39	0	306184192	55	4462
2026-01-18 22:44:23.07	48.46	23.91	-41.2	-43.4	20.2	0.00e+00	0	39	0	311427072	54	4503
2026-01-18 22:44:26.38	49.12	24.26	-41.3	-43.4	20.2	0.00e+00	0	39	0	317718528	54	4528
2026-01-18 22:44:29.31	49.73	24.58	-41.6	-43.7	19.8	0.00e+00	0	39	0	322961408	54	4702
2026-01-18 22:44:32.84	50.47	24.96	-42.0	-44.2	19.4	0.00e+00	0	39	0	330301440	54	4970
2026-01-18 22:44:35.56	51.05	25.26	-41.8	-44.1	19.6	0.00e+00	0	39	0	335544320	54	4876
2026-01-18 22:44:38.85	51.77	25.62	-42.0	-44.2	19.4	0.00e+00	0	39	0	340787200	54	4955
2026-01-18 22:44:41.57	52.38	25.91	-42.4	-44.7	19.0	0.00e+00	0	39	0	346030080	55	4946
2026-01-18 22:44:44.84	53.13	26.27	-42.5	-44.9	18.8	0.00e+00	0	39	0	352321536	55	5046
2026-01-18 22:44:47.70	53.79	26.58	-43.1	-45.6	18.3	0.00e+00	0	39	0	357564416	56	5166
2026-01-18 22:44:50.82	54.53	26.92	-43.6	-46.2	17.8	0.00e+00	0	39	0	363855872	57	5224
2026-01-18 22:44:53.66	55.22	27.23	-43.8	-46.4	17.5	0.00e+00	0	39	0	369098752	58	5081
2026-01-18 22:44:56.92	56.03	27.58	-44.0	-46.7	17.2	0.00e+00	0	39	0	375390208	58	5275
2026-01-18 22:44:59.75	56.74	27.88	-44.5	-47.3	16.6	0.00e+00	0	39	0	380633088	59	5318
2026-01-18 22:45:03.06	57.60	28.24	-44.1	-46.9	17.0	0.00e+00	0	39	0	386924544	59	5063
2026-01-18 22:45:05.76	58.31	28.52	-44.3	-47.1	16.8	0.00e+00	0	39	0	392167424	59	5209
2026-01-18 22:45:09.04	59.18	28.87	-45.2	-48.5	15.5	0.00e+00	0	39	0	397410304	61	5417
2026-01-18 22:45:11.77	59.93	29.15	-45.8	-49.4	14.6	0.00e+00	0	39	0	402653184	62	5668
2026-01-18 22:45:15.06	60.85	29.50	-46.1	-49.9	14.1	1.50e-06	0	39	0	408944640	62	6010
2026-01-18 22:45:17.84	61.63	29.78	-46.0	-49.8	14.3	7.00e-07	0	39	0	414187520	62	5926
2026-01-18 22:45:21.25	62.62	30.13	-46.4	-50.2	13.8	5.30e-06	0	39	0	420478976	63	5902
2026-01-18 22:45:23.95	63.42	30.40	-46.6	-50.8	13.1	4.19e-05	0	39	0	425721856	64	5944
2026-01-18 22:45:27.21	64.40	30.72	-46.4	-50.4	13.5	1.37e-05	0	39	0	432013312	64	5696
2026-01-18 22:45:29.93	65.23	30.98	-46.0	-49.6	14.4	1.50e-06	0	39	0	437256192	63	5527
2026-01-18 22:45:33.15	66.23	31.29	-45.9	-49.5	14.5	7.00e-07	0	39	0	443547648	63	5418
2026-01-18 22:45:36.40	67.26	31.59	-45.4	-48.7	15.3	7.00e-07	0	39	0	448790528	62	5247
2026-01-18 22:45:39.31	68.20	31.86	-44.7	-47.7	16.3	0.00e+00	0	39	0	455081984	61	4936
2026-01-18 22:45:42.59	69.27	32.15	-44.4	-47.2	16.8	0.00e+00	0	39	0	460324864	60	4935
2026-01-18 22:45:45.33	70.18	32.39	-44.5	-47.4	16.6	0.00e+00	0	39	0	465567744	60	5053
2026-01-18 22:45:48.63	71.30	32.66	-44.4	-47.3	16.7	0.00e+00	0	39	0	471859200	60	5002
2026-01-18 22:45:51.48	72.28	32.90	-44.1	-46.9	17.1	0.00e+00	0	39	0	477102080	60	4766
2026-01-18 22:45:54.84	73.45	33.16	-44.1	-46.8	17.1	0.00e+00	0	39	0	483393536	60	4756
2026-01-18 22:45:57.82	74.51	33.39	-44.3	-47.2	16.8	0.00e+00	0	39	0	489684992	60	4944
2026-01-18 22:46:00.81	75.58	33.60	-44.9	-48.0	16.0	0.00e+00	0	39	0	494927872	60	5425
2026-01-18 22:46:03.79	76.67	33.81	-45.5	-48.9	15.1	0.00e+00	0	39	0	500170752	61	5690
2026-01-18 22:46:06.85	77.79	34.01	-46.1	-49.7	14.3	0.00e+00	0	39	0	506462208	62	5887
2026-01-18 22:46:09.72	78.86	34.19	-46.1	-49.8	14.2	0.00e+00	0	39	0	511705088	63	5648
2026-01-18 22:46:12.85	80.04	34.37	-45.4	-48.7	15.3	0.00e+00	0	39	0	517996544	62	5260
2026-01-18 22:46:15.69	81.12	34.53	-45.4	-48.8	15.2	0.00e+00	0	39	0	523239424	62	5326
2026-01-18 22:46:18.82	82.33	34.69	-44.9	-48.0	16.0	0.00e+00	0	39	0	528482304	61	5156
2026-01-18 22:46:21.67	83.43	34.82	-44.2	-47.2	16.8	0.00e+00	0	39	0	533725184	60	4944
2026-01-18 22:46:24.79	84.65	34.96	-44.6	-47.6	16.3	0.00e+00	0	39	0	540016640	60	5216
2026-01-18 22:46:27.79	85.83	35.07	-44.9	-48.2	15.9	0.00e+00	0	39	0	545259520	60	5543
2026-01-18 22:46:31.26	87.21	35.19	-45.2	-48.5	15.5	0.00e+00	0	39	0	551550976	60	5764
2026-01-18 22:46:34.00	88.30	35.27	-45.2	-48.5	15.5	0.00e+00	0	39	0	556793856	61	5446
2026-01-18 22:46:37.27	89.62	35.35	-45.2	-48.5	15.5	0.00e+00	0	39	0	563085312	61	5422
2026-01-18 22:46:39.97	90.70	35.40	-46.0	-49.6	14.4	0.00e+00	0	39	0	568328192	62	5801
2026-01-18 22:46:43.24	92.03	35.45	-45.3	-48.6	15.5	0.00e+00	0	39	0	574619648	62	5174
2026-01-18 22:46:46.10	93.18	35.48	-44.7	-47.7	16.3	0.00e+00	0	39	0	579862528	61	4951
2026-01-18 22:46:49.22	94.45	35.50	-44.7	-47.7	16.3	0.00e+00	0	39	0	586153984	61	4941
2026-01-18 22:46:52.07	95.61	35.51	-44.6	-47.6	16.5	0.00e+00	0	39	0	591396864	61	4872
2026-01-18 22:46:55.20	96.88	35.49	-44.0	-46.8	17.2	0.00e+00	0	39	0	596639744	60	4722
2026-01-18 22:46:58.04	98.03	35.47	-45.2	-48.4	15.6	0.00e+00	0	39	0	601882624	61	5381
2026-01-18 22:47:01.16	99.29	35.43	-44.4	-47.3	16.7	0.00e+00	0	39	0	608174080	60	4998
2026-01-18 22:47:04.00	100.44	35.38	-44.0	-46.7	17.3	0.00e+00	0	39	0	613416960	59	4930
2026-01-18 22:47:07.13	101.70	35.31	-45.5	-48.9	15.2	0.00e+00	0	40	0	619708416	61	5673
2026-01-18 22:47:10.01	102.85	35.23	-46.1	-49.9	14.2	0.00e+00	0	40	0	624951296	62	6015
2026-01-18 22:47:13.13	104.10	35.14	-46.5	-50.5	13.4	2.28e-05	0	39	0	630194176	64	5766
2026-01-18 22:47:15.98	105.23	35.03	-45.1	-48.2	15.8	0.00e+00	0	39	0	635437056	62	4959
2026-01-18 22:47:19.10	106.46	34.91	-45.1	-48.2	15.8	0.00e+00	0	39	0	641728512	62	4954
2026-01-18 22:47:21.94	107.56	34.78	-45.0	-48.0	16.1	0.00e+00	0	39	0	646971392	61	5149
2026-01-18 22:47:25.07	108.78	34.63	-45.7	-49.1	15.0	0.00e+00	0	39	0	653262848	62	5467
2026-01-18 22:47:28.36	110.04	34.46	-44.3	-47.2	16.8	0.00e+00	0	39	0	659554304	60	4930
2026-01-18 22:47:31.09	111.08	34.30	-45.0	-48.1	15.9	0.00e+00	0	39	0	663748608	60	5502
2026-01-18 22:47:34.67	112.42	34.09	-44.1	-46.8	17.2	0.00e+00	0	39	0	671088640	60	4735
2026-01-18 22:47:37.43	113.45	33.91	-43.9	-46.6	17.3	0.00e+00	0	39	0	676331520	59	4894
2026-01-18 22:47:40.71	114.65	33.69	-44.3	-47.1	16.9	0.00e+00	0	39	0	682622976	59	5168
2026-01-18 22:47:43.42	115.63	33.49	-44.9	-48.1	15.9	0.00e+00	0	39	0	687865856	60	5480
2026-01-18 22:47:46.69	116.80	33.25	-44.4	-47.3	16.6	0.00e+00	0	40	0	693108736	60	5040
2026-01-18 22:47:49.56	117.81	33.03	-44.6	-47.6	16.4	0.00e+00	0	40	0	699400192	60	5197
2026-01-18 22:47:52.63	118.88	32.78	-44.3	-47.1	17.0	0.00e+00	0	39	0	704643072	60	4879
2026-01-18 22:47:55.99	120.03	32.50	-45.0	-48.1	15.8	0.00e+00	0	40	0	710934528	60	5513
2026-01-18 22:47:59.14	121.09	32.23	-45.1	-48.3	15.7	0.00e+00	0	40	0	717225984	60	5630
2026-01-18 22:48:02.44	122.18	31.94	-46.1	-49.9	14.0	7.60e-06	0	39	0	723517440	63	5702
2026-01-18 22:48:05.15	123.06	31.69	-45.2	-48.3	15.7	0.00e+00	0	39	0	727711744	62	5017
2026-01-18 22:48:08.44	124.11	31.38	-46.0	-49.6	14.4	0.00e+00	0	40	0	734003200	62	5845
2026-01-18 22:48:11.14	124.96	31.13	-44.0	-46.7	17.3	0.00e+00	0	39	0	739246080	60	4652
2026-01-18 22:48:14.44	125.98	30.81	-45.3	-48.6	15.5	0.00e+00	0	39	0	745537536	61	5471
2026-01-18 22:48:17.15	126.80	30.54	-45.0	-48.1	15.9	0.00e+00	0	39	0	750780416	61	5214
2026-01-18 22:48:20.48	127.80	30.21	-46.2	-50.0	14.0	2.20e-06	0	39	0	757071872	62	6113
2026-01-18 22:48:23.39	128.65	29.91	-44.5	-47.5	16.4	0.00e+00	0	39	0	762314752	61	4862
2026-01-18 22:48:27.37	129.79	29.50	-45.1	-48.3	15.8	0.00e+00	0	39	0	769654784	60	5600
2026-01-18 22:48:30.31	130.61	29.20	-44.1	-47.0	16.9	0.00e+00	0	39	0	774897664	60	4836
2026-01-18 22:48:33.79	131.57	28.83	-45.4	-48.9	15.1	0.00e+00	0	40	0	782237696	61	5658
2026-01-18 22:48:36.60	132.32	28.53	-45.3	-48.6	15.3	0.00e+00	0	40	0	787480576	62	5203
2026-01-18 22:48:40.06	133.23	28.16	-44.3	-47.0	16.9	0.00e+00	0	39	0	793772032	59	5157
2026-01-18 22:48:42.80	133.94	27.87	-44.8	-47.9	16.0	0.00e+00	0	39	0	799014912	61	5074
2026-01-18 22:48:46.08	134.77	27.51	-43.3	-45.8	18.1	0.00e+00	0	39	0	805306368	58	4740
2026-01-18 22:48:48.80	135.45	27.22	-44.8	-47.8	16.2	0.00e+00	0	40	0	809500672	60	5310
2026-01-18 22:48:52.16	136.26	26.85	-43.0	-45.4	18.5	0.00e+00	0	40	0	815792128	58	4499
2026-01-18 22:48:54.86	136.91	26.56	-43.1	-45.6	18.2	0.00e+00	0	39	0	821035008	57	4883
2026-01-18 22:48:58.26	137.70	26.19	-43.6	-46.2	17.7	0.00e+00	0	39	0	827326464	58	4958
2026-01-18 22:49:00.97	138.32	25.89	-42.7	-45.0	18.7	0.00e+00	0	40	0	832569344	57	4597
2026-01-18 22:49:04.24	139.05	25.53	-42.6	-45.0	18.8	0.00e+00	0	40	0	838860800	56	4845
2026-01-18 22:49:06.94	139.65	25.23	-42.6	-45.0	18.8	0.00e+00	0	39	0	844103680	56	4823
2026-01-18 22:49:10.16	140.34	24.88	-41.6	-43.8	19.7	0.00e+00	0	40	0	850395136	55	4491
2026-01-18 22:49:13.26	140.99	24.54	-42.0	-44.2	19.4	0.00e+00	0	39	0	855638016	54	4967
2026-01-18 22:49:16.29	141.62	24.21	-41.6	-43.8	19.7	0.00e+00	0	40	0	861929472	54	4738
2026-01-18 22:49:19.42	142.25	23.87	-40.9	-43.0	20.4	0.00e+00	0	40	0	867172352	53	4592
2026-01-18 22:49:22.26	142.81	23.56	-41.3	-43.5	20.0	0.00e+00	0	40	0	872415232	53	4842
2026-01-18 22:49:25.38	143.42	23.22	-41.5	-43.6	19.9	0.00e+00	0	39	0	878706688	53	4926
2026-01-18 22:49:28.30	143.98	22.91	-41.1	-43.2	20.3	0.00e+00	0	40	0	883949568	53	4671
2026-01-18 22:49:31.43	144.56	22.57	-41.5	-43.7	19.8	0.00e+00	0	40	0	890241024	53	4956
2026-01-18 22:49:34.34	145.09	22.26	-42.1	-44.5	19.1	0.00e+00	0	40	0	895483904	54	5105
2026-01-18 22:49:37.63	145.68	21.91	-41.6	-43.9	19.6	0.00e+00	0	40	0	901775360	54	4780
2026-01-18 22:49:40.37	146.16	21.62	-41.2	-43.4	20.1	0.00e+00	0	40	0	907018240	54	4541
2026-01-18 22:49:43.61	146.72	21.28	-41.7	-44.0	19.5	0.00e+00	0	40	0	912261120	54	4851
2026-01-18 22:49:46.45	147.19	20.98	-41.6	-43.9	19.7	0.00e+00	0	39	0	918552576	54	4785
2026-01-18 22:49:49.58	147.71	20.65	-41.6	-43.8	19.7	0.00e+00	0	40	0	923795456	54	4749
2026-01-18 22:49:52.42	148.17	20.36	-42.2	-44.5	19.1	0.00e+00	0	40	0	929038336	54	5110
2026-01-18 22:49:55.55	148.67	20.04	-42.5	-44.9	18.7	0.00e+00	0	40	0	935329792	55	5042
2026-01-18 22:49:58.39	149.11	19.74	-42.1	-44.4	19.2	0.00e+00	0	40	0	940572672	55	4771
2026-01-18 22:50:01.52	149.59	19.43	-42.0	-44.3	19.2	0.00e+00	0	40	0	945815552	55	4748
2026-01-18 22:50:04.36	150.01	19.14	-43.0	-45.5	18.3	0.00e+00	0	40	0	952107008	56	5139
2026-01-18 22:50:07.48	150.47	18.82	-43.4	-45.9	17.8	0.00e+00	0	40	0	957349888	57	5095
2026-01-18 22:50:10.32	150.88	18.54	-43.1	-45.6	18.1	0.00e+00	0	40	0	962592768	57	4908
2026-01-18 22:50:13.45	151.33	18.23	-43.2	-45.7	18.0	0.00e+00	0	40	0	968884224	57	4980
2026-01-18 22:50:16.30	151.72	17.95	-43.9	-46.6	17.1	0.00e+00	0	40	0	974127104	58	5210
2026-01-18 22:50:19.43	152.15	17.64	-43.9	-46.7	17.0	0.00e+00	0	40	0	979369984	58	5241
2026-01-18 22:50:22.35	152.54	17.36	-43.6	-46.3	17.4	0.00e+00	0	40	0	985661440	58	5025
2026-01-18 22:50:25.47	152.95	17.06	-42.9	-45.4	18.3	0.00e+00	0	40	0	990904320	57	4797
2026-01-18 22:50:28.31	153.31	16.79	-43.2	-45.8	17.9	0.00e+00	0	40	0	996147200	57	4995
2026-01-18 22:50:31.44	153.71	16.49	-43.6	-46.3	17.4	0.00e+00	0	40	0	1002438656	57	5297
2026-01-18 22:50:34.28	154.06	16.22	-43.6	-46.4	17.4	0.00e+00	0	39	0	1007681536	57	5341
2026-01-18 22:50:37.40	154.44	15.93	-43.3	-45.9	17.8	0.00e+00	0	40	0	1013972992	57	5070
2026-01-18 22:50:40.24	154.78	15.67	-43.0	-45.5	18.1	0.00e+00	0	40	0	1019215872	57	4867
2026-01-18 22:50:43.37	155.15	15.38	-43.0	-45.6	18.1	0.00e+00	0	40	0	1024458752	57	4875
2026-01-18 22:50:46.21	155.48	15.12	-43.2	-45.8	17.5	0.00e+00	0	40	0	1029701632	57	5024
2026-01-18 22:50:49.34	155.84	14.84	-43.5	-46.2	17.5	0.00e+00	0	40	0	1035993088	57	5228
2026-01-18 22:50:52.18	156.15	14.58	-43.5	-46.3	17.4	0.00e+00	0	40	0	1041235968	57	5284
2026-01-18 22:50:55.31	156.50	14.30	-43.4	-46.0	17.6	1.50e-06	0	39	0	1047527424	57	5156
2026-01-18 22:50:58.18	156.81	14.05	-43.2	-45.8	17.8	1.52e-05	0	40	0	1052770304	57	5014
2026-01-18 22:51:01.50	157.16	13.76	-43.2	-45.8	17.8	0.00e+00	0	40	0	1059061760	57	5001
2026-01-18 22:51:04.22	157.44	13.52	-43.4	-46.0	17.6	0.00e+00	0	40	0	1064304640	57	5154
2026-01-18 22:51:07.49	157.78	13.24	-43.7	-46.4	17.2	0.00e+00	0	40	0	1069547520	58	5094
2026-01-18 22:51:10.19	158.05	13.00	-43.9	-46.7	16.9	0.00e+00	0	40	0	1074790400	58	5242
2026-01-18 22:51:13.52	158.38	12.72	-43.7	-46.5	17.1	0.00e+00	0	40	0	1081081856	58	5111
2026-01-18 22:51:16.25	158.65	12.49	-43.8	-46.5	17.1	0.00e+00	0	40	0	1086324736	58	5117
2026-01-18 22:51:19.66	158.97	12.20	-43.6	-46.2	17.3	0.00e+00	0	40	0	1092616192	58	4983
2026-01-18 22:51:22.70	159.26	11.95	-43.6	-46.4	17.2	0.00e+00	0	40	0	1098907648	58	5051
2026-01-18 22:51:25.97	159.56	11.68	-43.6	-46.3	17.3	0.00e+00	0	40	0	1104150528	58	4993
2026-01-18 22:51:28.67	159.81	11.46	-43.7	-46.4	17.1	0.00e+00	0	40	0	1109393408	58	5082
2026-01-18 22:51:32.05	160.11	11.19	-43.9	-46.7	16.8	0.00e+00	0	40	0	1115684864	58	5274
2026-01-18 22:51:34.80	160.35	10.97	-44.0	-46.8	16.7	0.00e+00	0	40	0	1120927744	58	5340
2026-01-18 22:51:38.26	160.65	10.69	-44.1	-46.9	16.6	0.00e+00	0	40	0	1127219200	58	5396
2026-01-18 22:51:40.99	160.88	10.47	-44.4	-47.4	16.1	0.00e+00	0	40	0	1132462080	59	5381
2026-01-18 22:51:44.27	161.16	10.22	-44.2	-47.2	16.3	0.00e+00	0	40	0	1138753536	59	5239
2026-01-18 22:51:47.00	161.39	10.00	-44.3	-47.3	16.2	0.00e+00	0	40	0	1143996416	59	5300
2026-01-18 22:51:50.27	161.65	9.75	-44.4	-47.5	16.0	0.00e+00	0	40	0	1150287872	59	5414
2026-01-18 22:51:53.09	161.88	9.53	-44.6	-47.7	15.7	0.00e+00	0	40	0	1155530752	59	5587
2026-01-18 22:51:56.23	162.13	9.29	-44.5	-47.7	15.8	0.00e+00	0	40	0	1161822208	60	5253
2026-01-18 22:51:59.07	162.35	9.08	-44.8	-48.1	15.4	0.00e+00	0	40	0	1167065088	60	5487
2026-01-18 22:52:02.19	162.59	8.84	-49.6	-64.9	3.8	1.49e+00	0	40	104	1170210816	69	22723
2026-01-18 22:52:05.12	162.81	8.62	-50.0	-65.3	3.8	1.49e+00	0	40	104	1170210816	70	22332
2026-01-18 22:52:08.20	163.04	8.39	-50.2	-65.4	3.8	1.49e+00	0	40	104	1170210816	70	22649
2026-01-18 22:52:11.71	163.30	8.14	-50.3	-65.5	3.8	1.49e+00	0	40	104	1170210816	71	21575
2026-01-18 22:52:14.47	163.49	7.94	-50.2	-65.5	3.8	1.49e+00	0	40	104	1170210816	71	21671
2026-01-18 22:52:17.79	163.73	7.69	-49.9	-65.5	3.8	1.49e+00	0	40	104	1170210816	71	21644
2026-01-18 22:52:20.51	163.92	7.50	-50.3	-65.5	3.8	1.49e+00	0	40	104	1170210816	71	21650
2026-01-18 22:52:23.81	164.15	7.26	-50.3	-65.5	3.8	1.49e+00	0	40	104	1170210816	71	21570
2026-01-18 22:52:26.52	164.33	7.07	-49.8	-65.5	3.8	1.49e+00	0	40	104	1170210816	71	21559
2026-01-18 22:52:29.79	164.55	6.84	-50.0	-65.4	3.8	1.49e+00	0	40	104	1170210816	71	21429
2026-01-18 22:52:32.48	164.73	6.65	-49.9	-65.4	3.8	1.49e+00	0	40	104	1170210816	71	21462
2026-01-18 22:52:35.75	164.95	6.42	-49.9	-65.4	3.8	1.49e+00	0	40	104	1170210816	71	21423
2026-01-18 22:52:38.44	165.12	6.24	-49.9	-65.4	3.8	1.49e+00	0	40	104	1170210816	71	21420
2026-01-18 22:52:41.71	165.33	6.01	-49.9	-65.4	3.8	1.49e+00	0	40	104	1170210816	71	21339
2026-01-18 22:52:44.45	165.50	5.83	-49.9	-65.4	3.8	1.49e+00	0	40	104	1170210816	71	21425
2026-01-18 22:52:47.73	165.70	5.61	-49.9	-65.4	3.8	1.49e+00	0	40	104	1170210816	71	21330
2026-01-18 22:52:50.43	165.87	5.42	-49.9	-65.4	3.8	1.49e+00	0	40	104	1170210816	71	21385
2026-01-18 22:52:53.69	166.07	5.21	-49.9	-65.4	3.8	1.49e+00	0	40	104	1170210816	71	21302
2026-01-18 22:52:56.42	166.23	5.03	-49.9	-65.4	3.8	1.49e+00	0	40	104	1170210816	71	21368

#Closed at: 2026-01-18 22:52:58
#Recorded file [1170 MB]: D:/Data/31040_260119_014043.dat