passes_logs/2026/01/18/T1/T1__20260118_100937_SUOMI_NPP_rec.log

#Pass ID: 20260118_100937_SUOMI NPP
#Satellite: SUOMI NPP
#Configuration: NPP
#almurnet v.1.7.20251203
#Start time: 2026-01-18 10:09:37

#Version: 2.0.20230620
#Station: T1
#Location: 37.570604 lon 55.790049 lat
#TLE: 1 37849U 11061A   26017.57099531  .00000072  00000+0  54974-4 0  9996
#TLE: 2 37849  98.7814 319.5974 0002398  59.1749 300.9663 14.19525865737072

#Time	Az	El	Level	Level2	SNR	BER	BlckErr	Temp	State	Recorded	gain1	gain2
2026-01-18 10:09:37.82	165.20	5.02	-49.2	-64.6	3.8	1.49e+00	0	39	0	0	70	20693
2026-01-18 10:09:41.79	165.24	5.31	-48.0	-64.0	3.8	1.49e+00	0	40	104	0	66	24216
2026-01-18 10:09:45.77	165.28	5.60	-48.0	-64.1	3.8	1.49e+00	0	40	104	0	66	24581
2026-01-18 10:09:49.74	165.32	5.89	-48.0	-64.1	3.8	1.49e+00	0	40	104	0	66	24532
2026-01-18 10:09:53.71	165.37	6.19	-48.0	-63.5	3.8	1.49e+00	0	40	104	0	66	22986
2026-01-18 10:09:57.69	165.41	6.49	-48.0	-63.3	3.8	1.49e+00	0	40	104	0	66	22400
2026-01-18 10:10:01.66	165.46	6.79	-48.1	-63.9	3.8	1.49e+00	0	40	104	0	66	24104
2026-01-18 10:10:05.64	165.50	7.10	-48.1	-64.2	3.8	1.49e+00	0	40	104	0	66	24737
2026-01-18 10:10:09.61	165.55	7.41	-48.0	-63.4	3.8	1.49e+00	0	40	104	0	66	22697
2026-01-18 10:10:13.59	165.60	7.72	-47.6	-59.0	4.8	1.08e+00	0	41	0	1048576	66	13607
2026-01-18 10:10:17.56	165.64	8.04	-46.8	-54.4	8.3	9.29e-02	0	41	0	8388608	65	8550
2026-01-18 10:10:21.54	165.69	8.36	-46.5	-52.8	10.0	8.74e-03	0	41	0	15728640	64	7508
2026-01-18 10:10:25.51	165.74	8.69	-46.8	-53.9	8.9	2.41e-02	0	41	0	23068672	64	8502
2026-01-18 10:10:29.48	165.79	9.02	-47.6	-58.2	5.2	4.90e-01	0	41	0	31457280	65	13221
2026-01-18 10:10:33.46	165.84	9.36	-48.1	-63.3	3.8	1.49e+00	0	41	104	36700160	66	22468
2026-01-18 10:10:37.44	165.89	9.70	-45.1	-50.8	12.2	3.08e-04	0	41	0	41943040	62	6710
2026-01-18 10:10:41.45	165.95	10.05	-44.5	-49.1	13.9	3.00e-06	0	41	0	49283072	61	5805
2026-01-18 10:10:45.43	166.00	10.40	-44.4	-48.4	14.7	0.00e+00	0	41	0	56623104	60	5657
2026-01-18 10:10:49.41	166.06	10.75	-44.0	-47.3	15.8	0.00e+00	0	41	0	63963136	60	5028
2026-01-18 10:10:53.45	166.12	11.12	-43.8	-46.8	16.2	0.00e+00	0	41	0	72351744	59	5012
2026-01-18 10:10:57.45	166.17	11.49	-43.9	-46.9	16.2	0.00e+00	0	41	0	79691776	59	5061
2026-01-18 10:11:01.43	166.23	11.86	-43.8	-46.8	16.3	0.00e+00	0	41	0	87031808	59	4991
2026-01-18 10:11:05.41	166.29	12.23	-43.6	-46.5	16.5	0.00e+00	0	41	0	94371840	58	5156
2026-01-18 10:11:09.50	166.36	12.63	-43.4	-46.3	16.8	0.00e+00	0	42	0	101711872	58	5022
2026-01-18 10:11:13.69	166.42	13.04	-43.2	-46.0	17.0	0.00e+00	0	41	0	110100480	58	4862
2026-01-18 10:11:17.69	166.49	13.44	-43.0	-45.7	17.4	0.00e+00	0	41	0	117440512	57	4932
2026-01-18 10:11:21.64	166.55	13.84	-42.9	-45.7	17.4	0.00e+00	0	42	0	124780544	57	4927
2026-01-18 10:11:25.83	166.62	14.27	-42.4	-45.0	18.0	0.00e+00	0	42	0	133169152	56	4842
2026-01-18 10:11:29.77	166.69	14.68	-42.2	-44.7	18.4	0.00e+00	0	41	0	140509184	56	4654
2026-01-18 10:11:33.75	166.76	15.11	-42.0	-44.4	18.6	0.00e+00	0	41	0	147849216	56	4534
2026-01-18 10:11:37.83	166.83	15.55	-41.9	-44.3	18.6	0.00e+00	0	42	0	155189248	55	4740
2026-01-18 10:11:42.07	166.91	16.02	-42.1	-44.5	18.3	0.00e+00	0	42	0	163577856	55	4846
2026-01-18 10:11:46.25	166.99	16.49	-41.9	-44.4	18.5	0.00e+00	0	42	0	170917888	55	4777
2026-01-18 10:11:50.27	167.07	16.95	-41.6	-43.9	18.9	0.00e+00	0	42	0	178257920	55	4529
2026-01-18 10:11:54.26	167.15	17.42	-41.5	-43.8	19.0	0.00e+00	0	42	0	185597952	54	4750
2026-01-18 10:11:58.29	167.24	17.90	-41.5	-43.8	19.0	0.00e+00	0	42	0	193986560	54	4733
2026-01-18 10:12:02.63	167.33	18.43	-41.9	-44.3	18.6	0.00e+00	0	42	0	201326592	54	5011
2026-01-18 10:12:06.61	167.41	18.92	-41.8	-44.2	18.7	0.00e+00	0	42	0	208666624	54	4944
2026-01-18 10:12:10.61	167.51	19.43	-41.9	-44.3	18.6	0.00e+00	0	42	0	217055232	54	4995
2026-01-18 10:12:14.74	167.60	19.96	-41.9	-44.2	18.7	0.00e+00	0	42	0	224395264	54	4979
2026-01-18 10:12:18.81	167.70	20.50	-41.9	-44.3	18.6	0.00e+00	0	42	0	231735296	54	5013
2026-01-18 10:12:22.97	167.80	21.07	-42.1	-44.6	18.4	0.00e+00	0	42	0	240123904	55	4887
2026-01-18 10:12:26.94	167.90	21.62	-42.5	-45.1	16.8	0.00e+00	0	42	0	247463936	55	5173
2026-01-18 10:12:31.10	168.01	22.20	-42.8	-45.4	17.7	0.00e+00	0	42	0	254803968	56	5072
2026-01-18 10:12:35.08	168.12	22.78	-43.0	-45.6	17.5	0.00e+00	0	42	0	262144000	56	5211
2026-01-18 10:12:39.06	168.23	23.37	-43.1	-45.7	17.4	0.00e+00	0	42	0	269484032	57	4957
2026-01-18 10:12:43.03	168.35	23.97	-43.3	-46.0	17.2	0.00e+00	0	42	0	277872640	57	5125
2026-01-18 10:12:47.01	168.47	24.59	-43.1	-45.8	17.4	0.00e+00	0	42	0	285212672	57	5021
2026-01-18 10:12:51.00	168.59	25.22	-43.1	-45.8	17.4	0.00e+00	0	42	0	292552704	57	4996
2026-01-18 10:12:54.97	168.72	25.87	-43.3	-46.0	17.2	0.00e+00	0	42	0	299892736	57	5113
2026-01-18 10:12:58.95	168.85	26.53	-43.2	-45.8	17.4	0.00e+00	0	42	0	307232768	57	5014
2026-01-18 10:13:03.01	169.00	27.22	-43.2	-45.8	17.4	0.00e+00	0	42	0	314572800	57	5006
2026-01-18 10:13:06.99	169.14	27.92	-43.3	-45.9	17.3	0.00e+00	0	42	0	321912832	58	4791
2026-01-18 10:13:10.97	169.29	28.63	-43.3	-45.9	17.3	0.00e+00	0	42	0	330301440	58	4789
2026-01-18 10:13:14.95	169.45	29.37	-43.3	-45.9	17.3	0.00e+00	0	42	0	337641472	57	5086
2026-01-18 10:13:18.93	169.61	30.12	-43.7	-46.4	16.9	0.00e+00	0	42	0	344981504	58	5093
2026-01-18 10:13:22.91	169.78	30.89	-44.1	-47.0	16.3	0.00e+00	0	42	0	352321536	59	5138
2026-01-18 10:13:26.89	169.96	31.69	-44.0	-46.9	16.4	0.00e+00	0	42	0	359661568	59	5082
2026-01-18 10:13:30.98	170.15	32.53	-44.6	-47.7	15.6	0.00e+00	0	42	0	367001600	59	5580
2026-01-18 10:13:34.96	170.35	33.36	-44.5	-47.6	15.7	0.00e+00	0	42	0	374341632	60	5217
2026-01-18 10:13:38.94	170.56	34.23	-44.0	-46.9	16.4	0.00e+00	0	42	0	382730240	60	4795
2026-01-18 10:13:42.92	170.77	35.11	-43.2	-45.8	17.4	0.00e+00	0	42	0	390070272	58	4748
2026-01-18 10:13:47.27	171.02	36.11	-42.4	-44.9	18.4	0.00e+00	0	42	0	397410304	56	4762
2026-01-18 10:13:51.24	171.27	37.05	-41.6	-43.9	19.0	0.00e+00	0	42	0	405798912	55	4542
2026-01-18 10:13:55.24	171.52	38.02	-40.8	-42.9	20.0	0.00e+00	0	42	0	413138944	53	4517
2026-01-18 10:13:59.28	171.80	39.03	-41.0	-43.2	19.8	0.00e+00	0	42	0	420478976	53	4672
2026-01-18 10:14:03.26	172.09	40.05	-41.7	-44.0	19.0	0.00e+00	0	42	0	427819008	54	4840
2026-01-18 10:14:07.27	172.39	41.12	-42.6	-45.0	18.2	0.00e+00	0	42	0	435159040	56	4856
2026-01-18 10:14:11.24	172.72	42.20	-43.3	-45.9	17.4	0.00e+00	0	42	0	442499072	57	5096
2026-01-18 10:14:15.23	173.07	43.32	-42.9	-45.4	17.9	0.00e+00	0	42	0	449839104	57	4761
2026-01-18 10:14:19.73	173.49	44.62	-42.7	-45.2	18.1	0.00e+00	0	42	0	459276288	56	4933
2026-01-18 10:14:23.72	173.90	45.81	-44.4	-47.4	16.1	0.00e+00	0	42	0	466616320	60	5076
2026-01-18 10:14:27.74	174.34	47.05	-45.5	-49.0	14.4	7.00e-07	0	42	0	473956352	61	5765
2026-01-18 10:14:31.76	174.81	48.31	-44.4	-47.5	16.0	0.00e+00	0	42	0	481296384	60	5105
2026-01-18 10:14:35.73	175.32	49.60	-42.4	-44.8	18.6	0.00e+00	0	42	0	488636416	56	4712
2026-01-18 10:14:39.71	175.87	50.93	-40.7	-42.8	20.1	0.00e+00	0	42	0	495976448	53	4465
2026-01-18 10:14:43.70	176.48	52.30	-41.5	-43.7	19.4	0.00e+00	0	42	0	503316480	54	4679
2026-01-18 10:14:47.76	177.16	53.72	-41.0	-43.1	19.9	0.00e+00	0	42	0	511705088	53	4611
2026-01-18 10:14:51.97	177.93	55.24	-40.0	-42.1	20.8	0.00e+00	0	42	0	519045120	52	4367
2026-01-18 10:14:56.21	178.80	56.81	-40.0	-41.9	21.0	0.00e+00	0	42	0	527433728	50	4812
2026-01-18 10:15:00.20	179.71	58.32	-40.0	-41.9	21.0	0.00e+00	0	42	0	534773760	51	4540
2026-01-18 10:15:04.15	180.72	59.85	-40.8	-43.0	20.0	0.00e+00	0	42	0	542113792	52	4830
2026-01-18 10:15:08.13	181.87	61.41	-39.8	-41.7	21.1	0.00e+00	0	42	0	549453824	51	4427
2026-01-18 10:15:12.35	183.25	63.11	-40.4	-42.5	20.6	0.00e+00	0	42	0	557842432	51	4822
2026-01-18 10:15:16.41	184.78	64.76	-40.9	-43.0	20.0	0.00e+00	0	42	0	565182464	52	4861
2026-01-18 10:15:20.39	186.51	66.39	-40.4	-42.4	20.5	0.00e+00	0	42	0	572522496	52	4526
2026-01-18 10:15:24.62	188.67	68.14	-42.9	-45.5	17.8	0.00e+00	0	42	0	580911104	57	4823
2026-01-18 10:15:28.67	191.11	69.82	-45.3	-48.9	14.5	0.00e+00	0	42	0	588251136	61	5704
2026-01-18 10:15:32.67	193.98	71.46	-45.3	-48.7	14.9	0.00e+00	0	42	0	595591168	62	5265
2026-01-18 10:15:36.73	197.50	73.11	-44.6	-47.8	15.7	0.00e+00	0	42	0	602931200	60	5295
2026-01-18 10:15:40.71	201.71	74.67	-42.7	-45.1	18.2	0.00e+00	0	42	0	610271232	57	4643
2026-01-18 10:15:44.71	206.91	76.15	-44.3	-47.3	16.3	0.00e+00	0	42	0	617611264	59	5307
2026-01-18 10:15:48.70	213.32	77.52	-43.0	-45.5	17.9	0.00e+00	0	42	0	625999872	56	5147
2026-01-18 10:15:52.71	221.28	78.71	-43.9	-46.7	16.7	0.00e+00	0	42	0	633339904	58	5276
2026-01-18 10:15:56.75	230.99	79.65	-43.3	-46.0	17.3	0.00e+00	0	42	0	640679936	58	4850
2026-01-18 10:16:00.75	242.18	80.25	-44.5	-47.6	15.9	0.00e+00	0	42	0	648019968	60	5201
2026-01-18 10:16:05.01	255.12	80.44	-44.6	-47.8	15.7	0.00e+00	0	42	0	656408576	61	5014
2026-01-18 10:16:09.01	267.18	80.18	-43.9	-46.7	16.8	0.00e+00	0	43	0	663748608	59	4953
2026-01-18 10:16:12.99	278.10	79.54	-44.7	-47.8	15.8	0.00e+00	0	42	0	671088640	60	5337
2026-01-18 10:16:17.12	287.76	78.53	-44.0	-46.8	16.5	0.00e+00	0	42	0	678428672	59	5025
2026-01-18 10:16:21.10	295.40	77.32	-45.1	-48.4	15.2	4.50e-06	0	42	0	686817280	62	5074
2026-01-18 10:16:25.54	302.22	75.77	-41.8	-44.1	19.1	0.00e+00	0	43	0	694157312	55	4628
2026-01-18 10:16:30.09	307.73	74.04	-44.4	-47.4	16.2	0.00e+00	0	42	0	703594496	60	5071
2026-01-18 10:16:34.70	312.15	72.21	-42.9	-45.3	18.2	0.00e+00	0	42	0	711983104	56	4997
2026-01-18 10:16:39.25	315.66	70.35	-44.0	-46.7	16.8	0.00e+00	0	42	0	720371712	60	4667
2026-01-18 10:16:43.79	318.51	68.48	-44.7	-47.9	15.8	0.00e+00	0	42	0	728760320	60	5352
2026-01-18 10:16:48.52	320.97	66.53	-40.2	-42.1	20.8	0.00e+00	0	42	0	738197504	52	4389
2026-01-18 10:16:52.70	322.80	64.81	-40.5	-42.6	20.4	0.00e+00	0	43	0	745537536	53	4347
2026-01-18 10:16:56.68	324.30	63.20	-42.0	-44.5	18.7	0.00e+00	0	42	0	752877568	55	4842
2026-01-18 10:17:00.65	325.62	61.61	-40.8	-42.9	20.2	0.00e+00	0	42	0	760217600	52	4788
2026-01-18 10:17:04.84	326.84	59.96	-40.8	-42.9	20.1	0.00e+00	0	43	0	768606208	53	4522
2026-01-18 10:17:08.92	327.88	58.39	-44.3	-47.4	16.3	0.00e+00	0	42	0	775946240	59	5365
2026-01-18 10:17:13.04	328.83	56.84	-41.5	-43.7	19.5	0.00e+00	0	42	0	783286272	54	4692
2026-01-18 10:17:17.02	329.64	55.37	-41.4	-43.7	19.4	0.00e+00	0	42	0	790626304	54	4688
2026-01-18 10:17:21.00	330.38	53.93	-42.0	-44.4	18.8	0.00e+00	0	42	0	799014912	54	5079
2026-01-18 10:17:24.98	331.05	52.54	-40.7	-42.8	20.3	0.00e+00	0	42	0	806354944	52	4730
2026-01-18 10:17:28.99	331.67	51.16	-43.7	-46.4	17.1	0.00e+00	0	43	0	813694976	58	5049
2026-01-18 10:17:32.96	332.23	49.84	-43.1	-45.7	17.6	0.00e+00	0	42	0	821035008	57	4963
2026-01-18 10:17:36.94	332.74	48.55	-44.9	-48.1	15.4	0.00e+00	0	42	0	828375040	60	5526
2026-01-18 10:17:40.92	333.22	47.29	-41.6	-43.8	19.3	0.00e+00	0	42	0	835715072	54	4719
2026-01-18 10:17:44.92	333.66	46.07	-46.8	-51.7	11.8	1.06e-03	0	43	0	843055104	65	6256
2026-01-18 10:17:48.88	334.07	44.89	-42.9	-45.3	18.2	0.00e+00	0	42	0	851443712	57	4758
2026-01-18 10:17:52.85	334.45	43.73	-43.0	-45.5	18.0	0.00e+00	0	42	0	858783744	56	5135
2026-01-18 10:17:56.92	334.81	42.59	-45.2	-49.3	14.4	6.86e-05	0	42	0	866123776	62	5597
2026-01-18 10:18:01.10	335.16	41.44	-41.1	-43.2	19.9	0.00e+00	0	42	0	873463808	54	4429
2026-01-18 10:18:05.12	335.48	40.38	-42.4	-44.9	18.4	0.00e+00	0	42	0	881852416	55	5051
2026-01-18 10:18:09.17	335.77	39.33	-43.4	-46.2	17.2	0.00e+00	0	42	0	889192448	57	5269
2026-01-18 10:18:13.23	336.05	38.32	-42.9	-45.4	18.0	0.00e+00	0	42	0	896532480	57	4804
2026-01-18 10:18:17.32	336.32	37.32	-42.6	-45.0	18.3	0.00e+00	0	42	0	903872512	55	5147
2026-01-18 10:18:21.30	336.57	36.38	-46.1	-50.3	13.2	6.10e-06	0	42	0	911212544	63	5973
2026-01-18 10:18:25.28	336.80	35.47	-43.4	-46.2	17.1	0.00e+00	0	43	0	919601152	58	4966
2026-01-18 10:18:29.25	337.02	34.58	-41.2	-43.5	19.6	0.00e+00	0	42	0	926941184	54	4548
2026-01-18 10:18:33.23	337.23	33.72	-44.4	-47.6	16.0	0.00e+00	0	42	0	934281216	59	5509
2026-01-18 10:18:37.29	337.44	32.86	-45.7	-49.5	14.1	3.80e-06	0	42	0	941621248	62	5754
2026-01-18 10:18:41.30	337.63	32.03	-44.4	-47.5	16.0	0.00e+00	0	42	0	948961280	60	5129
2026-01-18 10:18:45.30	337.81	31.23	-43.6	-46.8	16.7	0.00e+00	0	42	0	956301312	58	5303
2026-01-18 10:18:49.46	338.00	30.42	-43.3	-46.2	17.2	0.00e+00	0	42	0	964689920	58	4960
2026-01-18 10:18:53.44	338.16	29.67	-42.3	-44.8	18.6	0.00e+00	0	43	0	972029952	56	4711
2026-01-18 10:18:57.45	338.33	28.93	-42.9	-45.5	17.9	0.00e+00	0	42	0	979369984	56	5108
2026-01-18 10:19:01.43	338.48	28.21	-44.0	-46.9	16.6	0.00e+00	0	43	0	986710016	58	5372
2026-01-18 10:19:05.40	338.63	27.52	-43.8	-46.8	16.7	0.00e+00	0	42	0	994050048	59	4998
2026-01-18 10:19:09.39	338.77	26.83	-42.6	-45.3	18.0	0.00e+00	0	43	0	1001390080	57	4758
2026-01-18 10:19:13.41	338.91	26.16	-41.3	-43.6	19.5	0.00e+00	0	43	0	1009778688	54	4621
2026-01-18 10:19:17.52	339.04	25.49	-40.6	-42.7	20.3	0.00e+00	0	42	0	1017118720	52	4658
2026-01-18 10:19:21.50	339.17	24.86	-40.5	-42.6	20.3	0.00e+00	0	42	0	1024458752	52	4643
2026-01-18 10:19:25.48	339.29	24.24	-40.5	-42.7	20.3	0.00e+00	0	42	0	1031798784	52	4665
2026-01-18 10:19:29.70	339.42	23.61	-40.7	-42.9	20.0	0.00e+00	0	43	0	1040187392	52	4796
2026-01-18 10:19:33.82	339.54	23.00	-41.2	-43.5	19.5	0.00e+00	0	42	0	1047527424	53	4853
2026-01-18 10:19:37.80	339.65	22.42	-41.7	-44.2	18.8	0.00e+00	0	42	0	1054867456	54	4976
2026-01-18 10:19:41.77	339.76	21.86	-41.4	-43.9	19.1	0.00e+00	0	42	0	1062207488	54	4784
2026-01-18 10:19:45.72	339.86	21.31	-41.2	-43.5	19.5	0.00e+00	0	42	0	1069547520	54	4586
2026-01-18 10:19:49.75	339.96	20.77	-41.2	-43.5	19.5	0.00e+00	0	43	0	1077936128	54	4556
2026-01-18 10:19:53.79	340.06	20.23	-41.5	-43.8	19.2	0.00e+00	0	42	0	1085276160	54	4751
2026-01-18 10:19:57.78	340.16	19.72	-41.4	-43.8	19.2	0.00e+00	0	42	0	1092616192	54	4757
2026-01-18 10:20:02.00	340.26	19.18	-41.3	-43.6	19.4	0.00e+00	0	43	0	1101004800	54	4607
2026-01-18 10:20:05.98	340.35	18.69	-41.0	-43.2	19.7	0.00e+00	0	42	0	1108344832	53	4689
2026-01-18 10:20:09.96	340.44	18.20	-40.9	-43.1	19.9	0.00e+00	0	42	0	1115684864	53	4608
2026-01-18 10:20:13.94	340.52	17.72	-40.8	-43.1	19.8	0.00e+00	0	42	0	1123024896	53	4613
2026-01-18 10:20:17.91	340.61	17.26	-41.1	-43.5	19.4	0.00e+00	0	42	0	1130364928	53	4855
2026-01-18 10:20:21.89	340.69	16.80	-41.9	-44.4	18.6	0.00e+00	0	42	0	1137704960	54	5063
2026-01-18 10:20:25.87	340.77	16.35	-42.1	-44.7	18.4	0.00e+00	0	42	0	1145044992	55	4961
2026-01-18 10:20:29.85	340.85	15.91	-42.1	-44.9	18.1	0.00e+00	0	42	0	1152385024	55	5077
2026-01-18 10:20:33.89	340.92	15.47	-42.3	-45.1	18.0	0.00e+00	0	42	0	1160773632	55	5207
2026-01-18 10:20:37.88	341.00	15.04	-42.1	-44.8	18.2	0.00e+00	0	43	0	1168113664	55	5004
2026-01-18 10:20:42.08	341.08	14.60	-42.2	-44.9	18.2	0.00e+00	0	42	0	1175453696	55	5048
2026-01-18 10:20:46.06	341.15	14.19	-42.2	-44.8	18.1	0.00e+00	0	42	0	1182793728	55	5039
2026-01-18 10:20:50.02	341.22	13.79	-42.2	-45.1	17.9	0.00e+00	0	43	0	1190133760	55	5174
2026-01-18 10:20:54.00	341.28	13.39	-42.2	-45.2	17.8	0.00e+00	0	43	0	1197473792	55	5221
2026-01-18 10:20:58.36	341.36	12.96	-42.2	-45.2	17.8	0.00e+00	0	42	0	1205862400	55	5240
2026-01-18 10:21:02.33	341.42	12.58	-42.5	-45.5	17.5	0.00e+00	0	43	0	1213202432	55	5415
2026-01-18 10:21:06.31	341.49	12.20	-42.8	-45.9	17.3	0.00e+00	0	43	0	1221591040	56	5348
2026-01-18 10:21:10.37	341.55	11.82	-42.8	-45.9	17.3	0.00e+00	0	43	0	1228931072	56	5344
2026-01-18 10:21:14.34	341.61	11.45	-42.6	-45.7	17.4	0.00e+00	0	42	0	1236271104	56	5266
2026-01-18 10:21:18.45	341.68	11.08	-42.8	-45.9	17.2	0.00e+00	0	42	0	1243611136	56	5367
2026-01-18 10:21:22.46	341.74	10.72	-42.9	-46.0	17.0	0.00e+00	0	42	0	1250951168	56	5446
2026-01-18 10:21:26.44	341.79	10.37	-42.7	-45.9	17.2	0.00e+00	0	42	0	1259339776	56	5350
2026-01-18 10:21:30.42	341.85	10.02	-42.5	-45.8	17.3	0.00e+00	0	42	0	1266679808	56	5285
2026-01-18 10:21:34.51	341.91	9.67	-42.2	-45.8	17.3	0.00e+00	0	43	0	1274019840	56	5297
2026-01-18 10:21:38.56	341.97	9.33	-42.2	-45.9	17.1	0.00e+00	0	43	0	1281359872	56	5380
2026-01-18 10:21:42.54	342.02	9.00	-41.9	-45.6	17.2	0.00e+00	0	43	0	1288699904	55	5521
2026-01-18 10:21:46.51	342.08	8.67	-47.7	-64.7	3.8	1.49e+00	0	43	104	1289748480	67	24831
2026-01-18 10:21:50.49	342.13	8.35	-49.0	-65.1	3.8	1.49e+00	0	42	104	1289748480	69	23065
2026-01-18 10:21:54.55	342.18	8.02	-49.8	-65.2	3.8	1.49e+00	0	43	104	1289748480	70	22045
2026-01-18 10:21:58.67	342.24	7.70	-49.9	-65.2	3.8	1.49e+00	0	43	104	1289748480	70	22044
2026-01-18 10:22:02.64	342.29	7.39	-50.0	-65.1	3.8	1.49e+00	0	43	104	1289748480	70	21986
2026-01-18 10:22:06.62	342.34	7.08	-49.8	-65.1	3.8	1.49e+00	0	43	104	1289748480	70	21883
2026-01-18 10:22:10.59	342.39	6.78	-49.6	-65.1	3.8	1.49e+00	0	43	104	1289748480	70	21843
2026-01-18 10:22:14.56	342.44	6.48	-49.6	-65.1	3.8	1.49e+00	0	43	104	1289748480	70	21892
2026-01-18 10:22:18.54	342.48	6.18	-49.6	-65.1	3.8	1.49e+00	0	43	104	1289748480	70	21809
2026-01-18 10:22:22.51	342.53	5.89	-49.6	-65.0	3.8	1.49e+00	0	43	104	1289748480	70	21710
2026-01-18 10:22:26.49	342.58	5.60	-49.6	-65.0	3.8	1.49e+00	0	43	104	1289748480	70	21651
2026-01-18 10:22:30.46	342.63	5.31	-49.6	-65.0	3.8	1.49e+00	0	43	104	1289748480	70	21700
2026-01-18 10:22:34.43	342.67	5.03	-49.6	-65.0	3.8	1.49e+00	0	43	104	1289748480	70	21670

#Closed at: 2026-01-18 10:22:36
#Recorded file [1289 MB]: D:/Data/31040_260118_130937.dat