passes_logs/2026/01/18/T1/T1__20260118_015958_SUOMI_NPP_rec.log

#Pass ID: 20260118_015958_SUOMI NPP
#Satellite: SUOMI NPP
#Configuration: NPP
#almurnet v.1.7.20251203
#Start time: 2026-01-18 01:59:59

#Version: 2.0.20230620
#Station: T1
#Location: 37.570604 lon 55.790049 lat
#TLE: 1 37849U 11061A   26017.28905266  .00000074  00000+0  55894-4 0  9999
#TLE: 2 37849  98.7814 319.3179 0002408  59.7048 300.4366 14.19525847737038

#Time	Az	El	Level	Level2	SNR	BER	BlckErr	Temp	State	Recorded	gain1	gain2
2026-01-18 01:59:59.94	3.25	5.06	-49.3	-65.4	3.8	1.49e+00	0	37	0	0	70	22695
2026-01-18 02:00:02.92	2.94	5.22	-44.5	-65.2	3.8	1.49e+00	0	37	104	0	60	39175
2026-01-18 02:00:05.91	2.63	5.38	-44.5	-65.2	3.8	1.49e+00	0	37	104	0	60	39189
2026-01-18 02:00:08.90	2.31	5.53	-44.5	-65.2	3.8	1.49e+00	0	38	104	0	60	39212
2026-01-18 02:00:11.90	1.99	5.69	-44.5	-65.2	3.8	1.49e+00	0	37	104	0	60	39220
2026-01-18 02:00:14.90	1.66	5.84	-44.5	-65.1	3.8	1.49e+00	0	38	104	0	60	39068
2026-01-18 02:00:17.89	1.34	6.00	-44.5	-65.2	3.8	1.49e+00	0	38	104	0	60	39218
2026-01-18 02:00:20.88	1.00	6.16	-44.5	-65.1	3.8	1.49e+00	0	38	104	0	60	39091
2026-01-18 02:00:23.87	0.67	6.31	-44.5	-65.2	3.8	1.49e+00	0	38	104	0	60	39202
2026-01-18 02:00:26.87	0.33	6.47	-44.5	-65.1	3.8	1.49e+00	0	38	104	0	60	39028
2026-01-18 02:00:29.86	359.99	6.63	-44.6	-65.1	3.8	1.49e+00	0	38	104	0	60	39003
2026-01-18 02:00:32.85	359.64	6.78	-44.5	-65.1	3.8	1.49e+00	0	38	104	0	60	39015
2026-01-18 02:00:35.84	359.29	6.94	-44.6	-65.2	3.8	1.49e+00	0	38	104	0	60	39154
2026-01-18 02:00:38.82	358.93	7.09	-44.6	-65.2	3.8	1.49e+00	0	39	104	0	60	39248
2026-01-18 02:00:41.82	358.57	7.25	-44.5	-65.1	3.8	1.49e+00	0	39	104	0	60	39029
2026-01-18 02:00:44.81	358.21	7.41	-44.6	-65.2	3.8	1.49e+00	0	39	104	0	60	39167
2026-01-18 02:00:47.80	357.85	7.56	-44.6	-65.2	3.8	1.49e+00	0	38	104	0	60	39292
2026-01-18 02:00:50.80	357.47	7.72	-44.6	-65.2	3.8	1.49e+00	0	39	104	0	60	39207
2026-01-18 02:00:53.80	357.10	7.87	-44.6	-65.1	3.8	1.49e+00	0	39	104	0	60	38815
2026-01-18 02:00:56.80	356.72	8.03	-44.6	-65.1	3.8	1.49e+00	0	39	104	0	60	38748
2026-01-18 02:00:59.79	356.33	8.18	-44.6	-64.9	3.8	1.49e+00	0	39	104	0	60	38188
2026-01-18 02:01:02.79	355.95	8.34	-44.6	-64.3	3.8	1.49e+00	0	39	104	0	60	35666
2026-01-18 02:01:05.78	355.55	8.49	-44.6	-63.8	3.8	1.49e+00	0	39	104	0	60	33417
2026-01-18 02:01:08.78	355.16	8.65	-44.6	-62.4	4.0	1.48e+00	0	39	104	0	60	28627
2026-01-18 02:01:11.77	354.76	8.80	-44.3	-57.4	6.4	3.78e-01	0	39	0	3145728	60	16099
2026-01-18 02:01:14.76	354.35	8.95	-43.9	-52.1	11.6	1.58e-03	0	39	0	8388608	59	9201
2026-01-18 02:01:17.75	353.94	9.11	-44.5	-53.0	10.9	4.21e-04	0	39	0	14680064	59	10234
2026-01-18 02:01:20.74	353.53	9.26	-43.6	-49.1	14.6	1.57e-01	0	39	0	19922944	58	6934
2026-01-18 02:01:23.74	353.11	9.41	-43.9	-49.6	14.1	0.00e+00	0	39	0	25165824	59	6921
2026-01-18 02:01:26.74	352.69	9.56	-43.7	-49.3	14.4	7.00e-07	0	39	0	31457280	59	6704
2026-01-18 02:01:29.73	352.26	9.71	-43.7	-48.3	15.3	0.00e+00	0	39	0	36700160	59	5992
2026-01-18 02:01:32.72	351.83	9.86	-44.3	-49.0	14.8	0.00e+00	0	39	0	41943040	59	6422
2026-01-18 02:01:35.71	351.39	10.01	-45.0	-50.1	13.7	3.80e-06	0	39	0	48234496	60	6927
2026-01-18 02:01:38.70	350.95	10.16	-44.3	-49.4	14.5	2.20e-06	0	39	0	53477376	60	6371
2026-01-18 02:01:41.69	350.51	10.31	-43.8	-49.1	14.7	0.00e+00	0	39	0	58720256	59	6527
2026-01-18 02:01:44.68	350.06	10.45	-43.6	-49.0	14.7	0.00e+00	0	39	0	65011712	59	6447
2026-01-18 02:01:47.68	349.61	10.60	-43.7	-48.6	15.1	0.00e+00	0	39	0	70254592	59	6186
2026-01-18 02:01:50.67	349.15	10.74	-44.1	-48.2	15.5	0.00e+00	0	39	0	75497472	59	5921
2026-01-18 02:01:53.67	348.68	10.89	-43.8	-47.8	15.8	0.00e+00	0	40	0	81788928	59	5646
2026-01-18 02:01:56.66	348.21	11.03	-43.8	-48.2	15.6	0.00e+00	0	39	0	87031808	59	5862
2026-01-18 02:01:59.65	347.74	11.17	-43.3	-47.4	16.3	0.00e+00	0	39	0	93323264	58	5673
2026-01-18 02:02:02.64	347.26	11.31	-43.1	-46.9	16.8	0.00e+00	0	39	0	98566144	57	5680
2026-01-18 02:02:05.64	346.78	11.45	-43.3	-47.2	16.4	0.00e+00	0	39	0	103809024	57	5913
2026-01-18 02:02:08.63	346.29	11.59	-43.5	-47.3	16.4	0.00e+00	0	39	0	110100480	57	5968
2026-01-18 02:02:11.62	345.80	11.73	-43.6	-47.1	16.6	0.00e+00	0	39	0	115343360	58	5494
2026-01-18 02:02:14.61	345.31	11.87	-43.6	-46.9	16.8	0.00e+00	0	39	0	120586240	58	5374
2026-01-18 02:02:17.61	344.80	12.00	-43.6	-46.9	16.8	0.00e+00	0	39	0	126877696	58	5395
2026-01-18 02:02:20.60	344.30	12.13	-43.1	-46.3	17.3	0.00e+00	0	39	0	132120576	58	5033
2026-01-18 02:02:23.59	343.79	12.27	-43.0	-46.1	17.5	0.00e+00	0	39	0	137363456	57	5172
2026-01-18 02:02:26.58	343.27	12.40	-43.6	-46.8	16.8	0.00e+00	0	39	0	143654912	57	5648
2026-01-18 02:02:29.56	342.76	12.52	-43.6	-47.0	16.6	0.00e+00	0	39	0	148897792	58	5436
2026-01-18 02:02:32.56	342.23	12.65	-43.2	-46.4	17.2	0.00e+00	0	39	0	154140672	58	5088
2026-01-18 02:02:35.55	341.70	12.78	-43.1	-46.1	17.6	0.00e+00	0	39	0	160432128	58	4908
2026-01-18 02:02:38.55	341.17	12.90	-42.8	-45.8	17.8	0.00e+00	0	39	0	165675008	57	5011
2026-01-18 02:02:41.54	340.63	13.02	-42.6	-45.5	18.1	0.00e+00	0	39	0	170917888	56	5130
2026-01-18 02:02:44.53	340.09	13.14	-43.0	-46.0	17.6	0.00e+00	0	39	0	177209344	56	5434
2026-01-18 02:02:47.52	339.54	13.26	-43.7	-46.9	16.8	0.00e+00	0	40	0	182452224	58	5362
2026-01-18 02:02:50.50	338.99	13.37	-43.4	-46.6	17.1	0.00e+00	0	39	0	187695104	58	5195
2026-01-18 02:02:53.49	338.43	13.49	-43.3	-46.5	17.2	0.00e+00	0	39	0	193986560	58	5143
2026-01-18 02:02:56.48	337.88	13.60	-43.6	-46.9	16.8	0.00e+00	0	40	0	199229440	58	5375
2026-01-18 02:02:59.47	337.31	13.71	-43.6	-46.9	16.8	0.00e+00	0	40	0	204472320	58	5398
2026-01-18 02:03:02.46	336.74	13.81	-43.6	-46.8	17.0	0.00e+00	0	39	0	210763776	58	5280
2026-01-18 02:03:05.45	336.17	13.92	-43.5	-46.3	17.3	0.00e+00	0	39	0	216006656	58	5023
2026-01-18 02:03:08.45	335.59	14.02	-43.4	-46.2	17.5	0.00e+00	0	40	0	222298112	58	4951
2026-01-18 02:03:11.44	335.01	14.12	-43.2	-46.0	17.7	0.00e+00	0	39	0	227540992	58	4822
2026-01-18 02:03:14.43	334.43	14.22	-43.3	-46.1	17.6	0.00e+00	0	39	0	232783872	58	4898
2026-01-18 02:03:17.42	333.84	14.31	-43.3	-46.1	17.5	0.00e+00	0	40	0	239075328	58	4925
2026-01-18 02:03:20.40	333.25	14.40	-43.3	-46.2	17.5	0.00e+00	0	39	0	244318208	58	4957
2026-01-18 02:03:23.40	332.65	14.49	-43.4	-46.4	17.4	0.00e+00	0	39	0	249561088	58	5049
2026-01-18 02:03:26.39	332.05	14.58	-43.3	-46.2	17.6	0.00e+00	0	40	0	255852544	58	4937
2026-01-18 02:03:29.38	331.45	14.66	-42.7	-45.3	18.3	0.00e+00	0	39	0	261095424	57	4714
2026-01-18 02:03:32.37	330.84	14.74	-42.6	-45.1	18.5	0.00e+00	0	40	0	266338304	57	4624
2026-01-18 02:03:35.36	330.23	14.82	-43.1	-45.8	17.9	0.00e+00	0	39	0	272629760	57	5017
2026-01-18 02:03:38.35	329.62	14.89	-43.2	-45.8	17.9	0.00e+00	0	40	0	277872640	57	5032
2026-01-18 02:03:41.34	329.01	14.96	-42.8	-45.3	18.3	0.00e+00	0	40	0	283115520	57	4755
2026-01-18 02:03:44.34	328.39	15.03	-43.4	-46.2	17.5	0.00e+00	0	39	0	289406976	57	5243
2026-01-18 02:03:47.32	327.77	15.10	-43.7	-46.8	17.0	0.00e+00	0	39	0	294649856	58	5296
2026-01-18 02:03:50.31	327.14	15.16	-43.3	-46.3	17.5	0.00e+00	0	39	0	299892736	58	5005
2026-01-18 02:03:53.31	326.51	15.22	-43.5	-46.4	17.4	0.00e+00	0	40	0	306184192	58	5063
2026-01-18 02:03:56.30	325.89	15.27	-43.5	-46.5	17.2	0.00e+00	0	39	0	311427072	58	5140
2026-01-18 02:03:59.29	325.25	15.32	-43.4	-46.5	17.3	0.00e+00	0	40	0	317718528	58	5108
2026-01-18 02:04:02.28	324.62	15.37	-43.1	-45.9	17.8	0.00e+00	0	40	0	322961408	58	4794
2026-01-18 02:04:05.28	323.98	15.42	-43.1	-45.7	18.0	0.00e+00	0	40	0	328204288	58	4669
2026-01-18 02:04:08.27	323.35	15.46	-43.4	-46.0	17.7	0.00e+00	0	39	0	334495744	58	4864
2026-01-18 02:04:11.27	322.70	15.50	-43.3	-46.0	17.7	0.00e+00	0	39	0	339738624	58	4865
2026-01-18 02:04:14.26	322.06	15.53	-43.1	-45.9	17.8	0.00e+00	0	39	0	344981504	58	4761
2026-01-18 02:04:17.26	321.42	15.56	-43.2	-46.1	17.6	0.00e+00	0	39	0	351272960	57	5186
2026-01-18 02:04:20.25	320.78	15.59	-43.6	-46.5	17.2	0.00e+00	0	39	0	356515840	57	5450
2026-01-18 02:04:23.24	320.13	15.61	-44.0	-47.0	16.7	0.00e+00	0	40	0	361758720	58	5464
2026-01-18 02:04:26.24	319.48	15.63	-43.7	-46.6	17.1	0.00e+00	0	40	0	368050176	58	5202
2026-01-18 02:04:29.23	318.84	15.65	-43.5	-46.4	17.3	0.00e+00	0	39	0	373293056	58	5065
2026-01-18 02:04:32.22	318.19	15.66	-43.8	-46.7	17.1	0.00e+00	0	39	0	378535936	58	5253
2026-01-18 02:04:35.21	317.54	15.67	-43.5	-46.6	17.1	0.00e+00	0	40	0	384827392	58	5174
2026-01-18 02:04:38.20	316.89	15.67	-43.2	-46.1	17.6	0.00e+00	0	40	0	390070272	58	4900
2026-01-18 02:04:41.20	316.24	15.67	-43.3	-46.0	17.7	0.00e+00	0	40	0	395313152	58	4866
2026-01-18 02:04:44.20	315.59	15.67	-43.5	-46.3	17.4	0.00e+00	0	39	0	401604608	58	5009
2026-01-18 02:04:47.20	314.94	15.67	-43.7	-46.6	17.1	0.00e+00	0	40	0	406847488	58	5188
2026-01-18 02:04:50.19	314.30	15.66	-43.7	-46.5	17.3	0.00e+00	0	39	0	413138944	58	5153
2026-01-18 02:04:53.19	313.65	15.64	-43.2	-45.9	17.8	0.00e+00	0	40	0	418381824	58	4795
2026-01-18 02:04:56.18	313.00	15.63	-43.2	-46.0	17.7	0.00e+00	0	40	0	423624704	58	4818
2026-01-18 02:04:59.17	312.35	15.61	-43.6	-46.5	17.3	0.00e+00	0	40	0	429916160	58	5118
2026-01-18 02:05:02.16	311.71	15.58	-43.9	-46.9	16.8	0.00e+00	0	40	0	435159040	58	5379
2026-01-18 02:05:05.16	311.06	15.55	-44.5	-47.7	16.0	0.00e+00	0	39	0	440401920	59	5580
2026-01-18 02:05:08.15	310.42	15.52	-44.5	-47.8	16.0	0.00e+00	0	40	0	446693376	59	5608
2026-01-18 02:05:11.15	309.78	15.49	-44.1	-47.2	16.5	0.00e+00	0	39	0	451936256	59	5225
2026-01-18 02:05:14.14	309.14	15.45	-43.8	-46.8	16.9	0.00e+00	0	40	0	457179136	59	5013
2026-01-18 02:05:17.14	308.50	15.40	-43.5	-46.3	17.4	0.00e+00	0	39	0	463470592	59	4738
2026-01-18 02:05:20.13	307.86	15.36	-44.0	-46.9	16.8	0.00e+00	0	40	0	468713472	59	5070
2026-01-18 02:05:23.13	307.23	15.31	-43.7	-46.6	17.1	0.00e+00	0	40	0	473956352	59	4900
2026-01-18 02:05:26.13	306.59	15.26	-43.3	-45.9	17.8	0.00e+00	0	40	0	480247808	58	4801
2026-01-18 02:05:29.13	305.96	15.20	-43.4	-46.0	17.7	0.00e+00	0	40	0	485490688	58	4860
2026-01-18 02:05:32.14	305.33	15.14	-43.6	-46.4	17.4	0.00e+00	0	40	0	491782144	58	5042
2026-01-18 02:05:35.15	304.70	15.08	-43.5	-46.3	17.4	0.00e+00	0	39	0	497025024	58	5014
2026-01-18 02:05:38.15	304.08	15.01	-43.6	-46.4	17.3	0.00e+00	0	39	0	502267904	58	5077
2026-01-18 02:05:41.15	303.46	14.94	-43.7	-46.6	17.2	0.00e+00	0	40	0	508559360	58	5160
2026-01-18 02:05:44.16	302.84	14.87	-43.8	-46.6	17.1	0.00e+00	0	40	0	513802240	58	5197
2026-01-18 02:05:47.16	302.22	14.80	-43.8	-46.6	17.2	0.00e+00	0	40	0	519045120	58	5167
2026-01-18 02:05:50.17	301.61	14.72	-43.2	-45.8	17.8	0.00e+00	0	39	0	525336576	58	4738
2026-01-18 02:05:53.17	301.00	14.63	-43.2	-45.8	17.9	0.00e+00	0	40	0	530579456	58	4713
2026-01-18 02:05:56.17	300.40	14.55	-43.0	-45.5	18.2	0.00e+00	0	39	0	535822336	58	4575
2026-01-18 02:05:59.17	299.80	14.46	-43.2	-45.7	17.9	0.00e+00	0	40	0	542113792	57	4969
2026-01-18 02:06:02.18	299.20	14.37	-43.6	-46.4	17.3	0.00e+00	0	39	0	547356672	58	5056
2026-01-18 02:06:05.19	298.60	14.28	-43.9	-46.7	17.0	0.00e+00	0	39	0	553648128	58	5254
2026-01-18 02:06:08.19	298.01	14.18	-44.0	-46.9	16.8	0.00e+00	0	40	0	558891008	58	5346
2026-01-18 02:06:11.19	297.42	14.09	-44.0	-46.9	16.8	0.00e+00	0	40	0	564133888	59	5089
2026-01-18 02:06:14.20	296.84	13.98	-44.3	-47.2	16.5	0.00e+00	0	40	0	570425344	59	5258
2026-01-18 02:06:17.20	296.26	13.88	-44.0	-46.8	17.0	0.00e+00	0	39	0	575668224	59	5008
2026-01-18 02:06:20.21	295.68	13.78	-43.8	-46.7	17.1	0.00e+00	0	40	0	580911104	59	4943
2026-01-18 02:06:23.21	295.11	13.67	-43.8	-46.6	17.1	0.00e+00	0	39	0	587202560	59	4924
2026-01-18 02:06:26.21	294.55	13.56	-43.9	-46.7	17.1	0.00e+00	0	39	0	592445440	59	4930
2026-01-18 02:06:29.21	293.99	13.44	-43.5	-46.1	17.6	0.00e+00	0	39	0	598736896	58	4905
2026-01-18 02:06:32.22	293.43	13.33	-43.1	-45.7	18.0	0.00e+00	0	40	0	603979776	58	4666
2026-01-18 02:06:35.21	292.87	13.21	-43.3	-45.9	17.7	0.00e+00	0	39	0	609222656	58	4793
2026-01-18 02:06:38.21	292.33	13.09	-43.7	-46.5	17.2	0.00e+00	0	40	0	615514112	58	5138
2026-01-18 02:06:41.21	291.78	12.97	-44.2	-47.1	16.6	0.00e+00	0	39	0	620756992	59	5217
2026-01-18 02:06:44.21	291.24	12.85	-44.7	-47.9	15.9	0.00e+00	0	40	0	625999872	59	5682
2026-01-18 02:06:47.22	290.70	12.73	-44.6	-47.8	16.1	0.00e+00	0	40	0	632291328	60	5280
2026-01-18 02:06:50.22	290.17	12.60	-44.5	-47.6	16.2	0.00e+00	0	39	0	637534208	60	5218
2026-01-18 02:06:53.23	289.65	12.47	-44.4	-47.5	16.3	0.00e+00	0	39	0	642777088	60	5117
2026-01-18 02:06:56.23	289.13	12.34	-44.5	-47.6	16.2	0.00e+00	0	39	0	649068544	60	5212
2026-01-18 02:06:59.23	288.61	12.21	-44.5	-47.6	16.2	0.00e+00	0	39	0	654311424	60	5210
2026-01-18 02:07:02.24	288.09	12.08	-44.4	-47.5	16.3	0.00e+00	0	39	0	660602880	60	5159
2026-01-18 02:07:05.25	287.59	11.94	-44.7	-48.0	15.8	0.00e+00	0	39	0	665845760	60	5429
2026-01-18 02:07:08.25	287.08	11.81	-44.5	-47.6	16.1	0.00e+00	0	40	0	671088640	60	5209
2026-01-18 02:07:11.25	286.59	11.67	-43.7	-46.5	17.2	0.00e+00	0	39	0	677380096	59	4815
2026-01-18 02:07:14.26	286.09	11.53	-44.2	-47.2	16.4	0.00e+00	0	40	0	682622976	59	5224
2026-01-18 02:07:17.26	285.60	11.39	-44.7	-48.0	15.8	0.00e+00	0	39	0	687865856	60	5448
2026-01-18 02:07:20.26	285.12	11.25	-45.4	-49.1	14.7	0.00e+00	0	40	0	694157312	61	5854
2026-01-18 02:07:23.27	284.64	11.11	-44.9	-48.3	15.5	0.00e+00	0	39	0	699400192	61	5314
2026-01-18 02:07:26.28	284.16	10.96	-44.7	-47.9	15.8	0.00e+00	0	39	0	705691648	61	5099
2026-01-18 02:07:29.28	283.69	10.82	-44.9	-48.3	15.5	0.00e+00	0	39	0	710934528	60	5598
2026-01-18 02:07:32.29	283.22	10.67	-46.2	-50.4	13.5	1.50e-06	0	39	0	716177408	62	6369
2026-01-18 02:07:35.29	282.76	10.53	-46.5	-51.0	12.8	1.19e-04	0	40	0	722468864	64	6114
2026-01-18 02:07:38.29	282.31	10.38	-46.1	-50.3	13.4	8.30e-06	0	39	0	727711744	64	5645
2026-01-18 02:07:41.30	281.86	10.23	-46.0	-50.1	13.7	7.60e-06	0	39	0	732954624	63	5804
2026-01-18 02:07:44.30	281.41	10.08	-45.6	-49.4	14.4	3.00e-06	0	40	0	739246080	63	5361
2026-01-18 02:07:47.30	280.97	9.93	-45.3	-48.8	14.9	0.00e+00	0	39	0	744488960	62	5340
2026-01-18 02:07:50.31	280.53	9.78	-45.2	-48.8	15.0	0.00e+00	0	39	0	750780416	62	5286
2026-01-18 02:07:53.31	280.10	9.63	-44.9	-48.4	15.3	0.00e+00	0	39	0	756023296	61	5397
2026-01-18 02:07:56.31	279.67	9.48	-45.1	-48.6	15.1	0.00e+00	0	40	0	761266176	61	5482
2026-01-18 02:07:59.32	279.24	9.33	-44.7	-47.9	15.8	0.00e+00	0	39	0	767557632	61	5064
2026-01-18 02:08:02.32	278.82	9.18	-44.6	-47.8	15.9	0.00e+00	0	40	0	772800512	61	4995
2026-01-18 02:08:05.32	278.41	9.02	-44.4	-47.5	16.1	0.00e+00	0	39	0	778043392	60	5154
2026-01-18 02:08:08.31	278.00	8.87	-50.1	-65.5	3.8	1.49e+00	0	39	104	779091968	70	22950
2026-01-18 02:08:11.30	277.59	8.72	-50.4	-65.7	3.8	1.49e+00	0	40	104	779091968	71	22083
2026-01-18 02:08:14.29	277.19	8.56	-50.6	-65.8	3.8	1.49e+00	0	40	104	779091968	71	22377
2026-01-18 02:08:17.28	276.80	8.41	-50.5	-65.8	3.8	1.49e+00	0	39	104	779091968	71	22373
2026-01-18 02:08:20.28	276.40	8.25	-50.4	-65.8	3.8	1.49e+00	0	39	104	779091968	71	22433
2026-01-18 02:08:23.26	276.02	8.10	-50.5	-65.8	3.8	1.49e+00	0	39	104	779091968	71	22433
2026-01-18 02:08:26.25	275.63	7.94	-50.3	-65.8	3.8	1.49e+00	0	40	104	779091968	71	22313
2026-01-18 02:08:29.24	275.25	7.79	-50.2	-65.7	3.8	1.49e+00	0	39	104	779091968	71	22106
2026-01-18 02:08:32.23	274.88	7.63	-50.2	-65.7	3.8	1.49e+00	0	39	104	779091968	71	22208
2026-01-18 02:08:35.22	274.51	7.48	-50.2	-65.7	3.8	1.49e+00	0	40	104	779091968	71	22046
2026-01-18 02:08:38.20	274.14	7.32	-50.2	-65.7	3.8	1.49e+00	0	39	104	779091968	71	22143
2026-01-18 02:08:41.19	273.78	7.16	-50.2	-65.7	3.8	1.49e+00	0	40	104	779091968	71	22056
2026-01-18 02:08:44.17	273.42	7.01	-50.2	-65.7	3.8	1.49e+00	0	39	104	779091968	71	22054
2026-01-18 02:08:47.16	273.06	6.85	-50.2	-65.6	3.8	1.49e+00	0	40	104	779091968	71	21905
2026-01-18 02:08:50.15	272.71	6.70	-50.2	-65.6	3.8	1.49e+00	0	40	104	779091968	71	21997
2026-01-18 02:08:53.14	272.37	6.54	-50.1	-65.7	3.8	1.49e+00	0	40	104	779091968	71	22059
2026-01-18 02:08:56.13	272.02	6.38	-50.2	-65.6	3.8	1.49e+00	0	39	104	779091968	71	21987
2026-01-18 02:08:59.11	271.68	6.23	-50.1	-65.6	3.8	1.49e+00	0	39	104	779091968	71	21952
2026-01-18 02:09:02.10	271.35	6.07	-50.1	-65.6	3.8	1.49e+00	0	39	104	779091968	71	21992
2026-01-18 02:09:05.08	271.01	5.91	-50.1	-65.6	3.8	1.49e+00	0	40	104	779091968	71	21961
2026-01-18 02:09:08.06	270.69	5.76	-50.1	-65.6	3.8	1.49e+00	0	39	104	779091968	71	21973
2026-01-18 02:09:11.05	270.36	5.60	-50.1	-65.6	3.8	1.49e+00	0	39	104	779091968	71	21939
2026-01-18 02:09:14.04	270.04	5.45	-50.1	-65.6	3.8	1.49e+00	0	40	104	779091968	71	22004
2026-01-18 02:09:17.02	269.72	5.29	-50.1	-65.6	3.8	1.49e+00	0	39	104	779091968	71	21970
2026-01-18 02:09:20.01	269.41	5.13	-50.1	-65.6	3.8	1.49e+00	0	40	104	779091968	71	21960
2026-01-18 02:09:23.00	269.09	4.98	-50.1	-65.6	3.8	1.49e+00	0	39	104	779091968	71	21992

#Closed at: 2026-01-18 02:09:23
#Recorded file [779 MB]: D:/Data/31040_260118_045959.dat