passes_logs/2026/01/18/T1/T1__20260118_071412_NOAA_20_JPSS-1_rec.log

#Pass ID: 20260118_071412_NOAA 20 (JPSS-1)
#Satellite: NOAA 20 (JPSS-1)
#Configuration: NOAA 20
#almurnet v.1.7.20251203
#Start time: 2026-01-18 07:14:14

#Version: 2.0.20230620
#Station: T1
#Location: 37.570604 lon 55.790049 lat
#TLE: 1 43013U 17073A   26017.58553584  .00000066  00000+0  52288-4 0  9998
#TLE: 2 43013  98.7639 318.4977 0001406  35.6039 324.5231 14.19536575423107

#Time	Az	El	Level	Level2	SNR	BER	BlckErr	Temp	State	Recorded	gain1	gain2
2026-01-18 07:14:14.74	71.19	5.09	-48.9	-64.1	3.8	1.49e+00	0	40	0	0	69	20766
2026-01-18 07:14:16.73	70.94	5.18	-48.8	-64.1	3.8	1.49e+00	0	41	104	0	69	20588
2026-01-18 07:14:18.71	70.69	5.26	-48.8	-64.0	3.8	1.49e+00	0	41	104	0	69	20435
2026-01-18 07:14:20.70	70.44	5.34	-48.7	-64.0	3.8	1.49e+00	0	41	104	0	69	20471
2026-01-18 07:14:22.69	70.19	5.42	-48.7	-64.0	3.8	1.49e+00	0	41	104	0	69	20405
2026-01-18 07:14:24.67	69.93	5.50	-48.7	-64.0	3.8	1.49e+00	0	41	104	0	69	20325
2026-01-18 07:14:26.66	69.68	5.58	-48.7	-64.0	3.8	1.49e+00	0	41	104	0	69	20313
2026-01-18 07:14:28.65	69.42	5.66	-48.7	-63.9	3.8	1.49e+00	0	41	104	0	69	20296
2026-01-18 07:14:30.63	69.16	5.73	-48.7	-63.9	3.8	1.49e+00	0	41	104	0	69	20268
2026-01-18 07:14:32.62	68.90	5.81	-48.6	-63.9	3.8	1.49e+00	0	41	104	0	69	20115
2026-01-18 07:14:34.61	68.64	5.89	-48.6	-63.8	3.8	1.49e+00	0	41	104	0	69	20006
2026-01-18 07:14:36.59	68.37	5.97	-48.5	-63.7	3.8	1.49e+00	0	41	104	0	69	19690
2026-01-18 07:14:38.58	68.11	6.05	-48.4	-63.6	3.8	1.49e+00	0	41	104	0	68	20749
2026-01-18 07:14:40.57	67.84	6.13	-48.4	-63.6	3.8	1.49e+00	0	41	104	0	68	20740
2026-01-18 07:14:42.56	67.58	6.20	-48.4	-63.6	3.8	1.49e+00	0	41	104	0	68	20564
2026-01-18 07:14:44.54	67.31	6.28	-48.3	-63.6	3.8	1.49e+00	0	42	104	0	68	20614
2026-01-18 07:14:46.53	67.04	6.36	-48.3	-63.6	3.8	1.49e+00	0	42	104	0	68	20626
2026-01-18 07:14:48.52	66.76	6.43	-48.3	-63.6	3.8	1.49e+00	0	42	104	0	68	20547
2026-01-18 07:14:50.50	66.49	6.51	-48.3	-63.5	3.8	1.49e+00	0	42	104	0	68	20507
2026-01-18 07:14:52.49	66.22	6.58	-48.3	-63.5	3.8	1.49e+00	0	42	104	0	68	20501
2026-01-18 07:14:54.48	65.94	6.66	-48.3	-63.6	3.8	1.49e+00	0	42	104	0	68	20539
2026-01-18 07:14:56.46	65.66	6.73	-48.3	-63.5	3.8	1.49e+00	0	42	104	0	68	20351
2026-01-18 07:14:58.45	65.38	6.81	-48.2	-63.5	3.8	1.49e+00	0	42	104	0	68	20397
2026-01-18 07:15:00.44	65.10	6.88	-48.2	-63.5	3.8	1.49e+00	0	42	104	0	68	20328
2026-01-18 07:15:02.42	64.82	6.95	-48.2	-63.4	3.8	1.49e+00	0	42	104	0	68	20251
2026-01-18 07:15:04.41	64.54	7.03	-48.2	-63.4	3.8	1.49e+00	0	42	104	0	68	20255
2026-01-18 07:15:06.40	64.25	7.10	-48.2	-63.4	3.8	1.49e+00	0	42	104	0	68	20280
2026-01-18 07:15:08.38	63.97	7.17	-48.2	-63.4	3.8	1.49e+00	0	42	104	0	68	20185
2026-01-18 07:15:10.37	63.68	7.24	-48.1	-63.4	3.8	1.49e+00	0	42	104	0	68	20145
2026-01-18 07:15:12.36	63.39	7.31	-48.1	-63.4	3.8	1.49e+00	0	42	104	0	68	20110
2026-01-18 07:15:14.34	63.10	7.38	-48.1	-63.3	3.8	1.49e+00	0	42	104	0	68	20001
2026-01-18 07:15:16.33	62.81	7.45	-48.1	-63.3	3.8	1.49e+00	0	42	104	0	68	19902
2026-01-18 07:15:18.31	62.52	7.52	-48.1	-63.3	3.8	1.49e+00	0	42	104	0	68	19943
2026-01-18 07:15:20.30	62.22	7.59	-48.2	-63.3	3.8	1.49e+00	0	42	104	0	68	19961
2026-01-18 07:15:22.29	61.93	7.66	-48.2	-63.2	3.8	1.49e+00	0	42	104	0	68	19840
2026-01-18 07:15:24.27	61.63	7.73	-48.3	-63.3	3.8	1.49e+00	0	42	104	0	68	19918
2026-01-18 07:15:26.26	61.33	7.79	-48.3	-63.4	3.8	1.49e+00	0	43	104	0	68	20153
2026-01-18 07:15:28.25	61.03	7.86	-48.3	-63.5	3.8	1.49e+00	0	42	104	0	68	20384
2026-01-18 07:15:30.23	60.73	7.93	-48.3	-63.5	3.8	1.49e+00	0	42	104	0	68	20473
2026-01-18 07:15:32.22	60.43	7.99	-48.3	-63.5	3.8	1.49e+00	0	42	104	0	68	20316
2026-01-18 07:15:34.20	60.12	8.06	-48.3	-63.3	3.8	1.49e+00	0	42	104	0	68	19987
2026-01-18 07:15:36.19	59.82	8.12	-48.4	-63.4	3.8	1.49e+00	0	42	104	0	68	20235
2026-01-18 07:15:38.18	59.51	8.18	-48.5	-63.6	3.8	1.49e+00	0	42	104	0	68	20691
2026-01-18 07:15:40.16	59.20	8.25	-48.5	-63.7	3.8	1.49e+00	0	42	104	0	68	20991
2026-01-18 07:15:42.15	58.89	8.31	-48.6	-63.6	3.8	1.49e+00	0	42	104	0	68	20553
2026-01-18 07:15:44.14	58.58	8.37	-48.6	-63.3	3.8	1.49e+00	0	43	104	0	68	19953
2026-01-18 07:15:46.12	58.27	8.43	-48.7	-63.6	3.8	1.49e+00	0	43	104	0	68	20698
2026-01-18 07:15:48.11	57.95	8.49	-48.8	-64.0	3.8	1.49e+00	0	42	104	0	68	21518
2026-01-18 07:15:50.09	57.64	8.55	-48.8	-64.0	3.8	1.49e+00	0	43	104	0	68	21544
2026-01-18 07:15:52.08	57.32	8.61	-48.8	-62.8	3.8	1.49e+00	0	42	104	0	68	18938
2026-01-18 07:15:54.07	57.01	8.67	-48.8	-62.2	3.8	1.49e+00	0	43	104	0	68	17505
2026-01-18 07:15:56.05	56.69	8.73	-48.9	-63.7	3.8	1.49e+00	0	43	104	0	68	20871
2026-01-18 07:15:58.04	56.37	8.79	-48.0	-55.8	7.0	3.71e-01	0	43	0	1048576	68	8378
2026-01-18 07:16:00.02	56.05	8.84	-45.8	-50.1	12.8	9.20e-04	0	43	0	5242880	63	5843
2026-01-18 07:16:02.01	55.72	8.90	-44.9	-48.5	14.5	7.00e-07	0	43	0	8388608	61	5437
2026-01-18 07:16:03.99	55.40	8.95	-45.9	-50.2	12.9	3.05e-05	0	43	0	12582912	62	6215
2026-01-18 07:16:05.98	55.08	9.01	-47.6	-54.6	8.2	2.04e-02	0	43	0	15728640	65	8693
2026-01-18 07:16:07.97	54.75	9.06	-45.8	-50.0	13.0	1.60e-05	0	43	0	19922944	63	5756
2026-01-18 07:16:09.96	54.42	9.11	-45.7	-49.8	13.3	3.52e-01	0	43	0	23068672	63	5641
2026-01-18 07:16:11.95	54.09	9.16	-46.4	-51.3	11.6	3.84e-02	0	43	0	26214400	64	6335
2026-01-18 07:16:13.93	53.76	9.21	-46.2	-50.9	12.0	1.54e-04	0	43	0	30408704	64	6009
2026-01-18 07:16:15.92	53.43	9.27	-46.0	-50.4	12.6	2.26e-04	0	43	0	33554432	64	5674
2026-01-18 07:16:17.91	53.10	9.31	-45.5	-49.3	13.8	9.10e-06	0	43	0	37748736	62	5630
2026-01-18 07:16:19.90	52.76	9.36	-45.1	-48.7	14.5	2.20e-06	0	43	0	40894464	62	5225
2026-01-18 07:16:21.89	52.43	9.41	-44.6	-48.0	15.1	0.00e+00	0	43	0	45088768	61	5113
2026-01-18 07:16:23.88	52.09	9.46	-44.4	-47.6	15.5	0.00e+00	0	42	0	48234496	60	5196
2026-01-18 07:16:25.83	51.76	9.50	-44.4	-47.6	15.5	0.00e+00	0	43	0	52428800	60	5173
2026-01-18 07:16:27.82	51.42	9.55	-44.2	-47.3	15.9	0.00e+00	0	43	0	55574528	60	5023
2026-01-18 07:16:29.81	51.09	9.59	-44.4	-47.6	15.6	0.00e+00	0	43	0	59768832	60	5199
2026-01-18 07:16:31.80	50.75	9.64	-44.4	-47.7	15.5	0.00e+00	0	43	0	63963136	60	5220
2026-01-18 07:16:33.79	50.40	9.68	-44.3	-47.5	15.7	0.00e+00	0	43	0	67108864	60	5107
2026-01-18 07:16:35.78	50.06	9.72	-44.3	-47.5	15.7	0.00e+00	0	43	0	71303168	60	5124
2026-01-18 07:16:37.77	49.72	9.76	-44.4	-47.6	15.6	0.00e+00	0	43	0	74448896	60	5215
2026-01-18 07:16:39.85	49.36	9.80	-44.3	-47.5	15.7	0.00e+00	0	43	0	78643200	60	5112
2026-01-18 07:16:42.24	48.94	9.85	-44.3	-47.5	15.8	0.00e+00	0	43	0	82837504	60	5112
2026-01-18 07:16:44.26	48.59	9.89	-44.3	-47.5	15.8	0.00e+00	0	43	0	87031808	60	5110
2026-01-18 07:16:46.26	48.24	9.93	-44.3	-47.6	15.6	0.00e+00	0	43	0	90177536	60	5178
2026-01-18 07:16:48.25	47.90	9.96	-44.2	-47.3	15.9	0.00e+00	0	43	0	94371840	60	5032
2026-01-18 07:16:50.24	47.55	10.00	-44.1	-47.2	16.0	0.00e+00	0	43	0	98566144	60	4943
2026-01-18 07:16:52.23	47.20	10.03	-44.0	-47.0	16.2	0.00e+00	0	43	0	101711872	60	4841
2026-01-18 07:16:54.22	46.85	10.06	-44.0	-46.9	16.3	0.00e+00	0	43	0	105906176	59	5083
2026-01-18 07:16:56.21	46.50	10.09	-44.0	-46.9	16.3	0.00e+00	0	43	0	109051904	59	5096
2026-01-18 07:16:58.20	46.14	10.13	-44.0	-46.9	16.3	0.00e+00	0	43	0	113246208	59	5091
2026-01-18 07:17:00.19	45.79	10.16	-44.0	-47.0	16.3	0.00e+00	0	43	0	116391936	59	5104
2026-01-18 07:17:02.19	45.44	10.18	-43.9	-46.9	16.4	0.00e+00	0	43	0	120586240	59	5042
2026-01-18 07:17:04.18	45.08	10.21	-44.1	-47.0	16.2	0.00e+00	0	43	0	123731968	59	5150
2026-01-18 07:17:06.17	44.73	10.24	-44.0	-47.0	16.2	0.00e+00	0	43	0	127926272	59	5114
2026-01-18 07:17:08.26	44.35	10.27	-43.9	-46.8	16.5	0.00e+00	0	43	0	132120576	59	4990
2026-01-18 07:17:10.24	44.00	10.29	-43.9	-46.8	16.5	0.00e+00	0	43	0	135266304	59	5013
2026-01-18 07:17:12.36	43.62	10.32	-43.7	-46.5	16.7	0.00e+00	0	43	0	139460608	59	4862
2026-01-18 07:17:14.35	43.26	10.34	-43.6	-46.4	16.9	0.00e+00	0	43	0	143654912	59	4775
2026-01-18 07:17:16.72	42.84	10.37	-43.4	-46.2	17.1	0.00e+00	0	43	0	147849216	58	4943
2026-01-18 07:17:18.74	42.47	10.39	-43.5	-46.4	16.9	0.00e+00	0	43	0	150994944	58	5042
2026-01-18 07:17:20.73	42.11	10.41	-43.5	-46.3	17.0	0.00e+00	0	43	0	155189248	58	5005
2026-01-18 07:17:22.72	41.75	10.42	-43.4	-46.2	17.1	0.00e+00	0	43	0	159383552	58	4942
2026-01-18 07:17:24.73	41.39	10.44	-43.5	-46.3	17.0	0.00e+00	0	43	0	162529280	58	5031
2026-01-18 07:17:26.75	41.02	10.46	-43.5	-46.3	17.0	0.00e+00	0	43	0	166723584	58	5015
2026-01-18 07:17:28.75	40.66	10.47	-43.4	-46.2	17.0	0.00e+00	0	43	0	169869312	58	4979
2026-01-18 07:17:30.74	40.30	10.49	-43.4	-46.2	17.1	0.00e+00	0	43	0	174063616	58	4959
2026-01-18 07:17:32.73	39.94	10.50	-43.3	-46.1	17.1	0.00e+00	0	43	0	178257920	58	4915
2026-01-18 07:17:34.72	39.58	10.51	-43.4	-46.2	17.0	0.00e+00	0	43	0	181403648	58	4955
2026-01-18 07:17:36.72	39.21	10.52	-43.2	-46.0	17.3	0.00e+00	0	43	0	185597952	58	4819
2026-01-18 07:17:38.72	38.85	10.53	-43.1	-46.0	17.2	0.00e+00	0	43	0	188743680	58	4833
2026-01-18 07:17:40.72	38.49	10.54	-43.0	-45.8	17.4	0.00e+00	0	43	0	192937984	57	4989
2026-01-18 07:17:42.73	38.12	10.55	-43.1	-45.8	17.4	0.00e+00	0	43	0	196083712	57	5015
2026-01-18 07:17:44.77	37.75	10.55	-43.4	-46.2	17.1	0.00e+00	0	43	0	200278016	57	5236
2026-01-18 07:17:46.79	37.38	10.56	-43.1	-45.9	17.3	0.00e+00	0	43	0	204472320	57	5060
2026-01-18 07:17:48.78	37.02	10.56	-43.0	-45.8	17.4	0.00e+00	0	43	0	207618048	57	5014
2026-01-18 07:17:50.98	36.62	10.56	-43.1	-46.0	17.1	0.00e+00	0	43	0	211812352	57	5145
2026-01-18 07:17:52.97	36.25	10.57	-43.0	-45.9	17.2	0.00e+00	0	43	0	216006656	57	5080
2026-01-18 07:17:54.99	35.88	10.57	-42.8	-45.5	17.6	0.00e+00	0	43	0	219152384	57	4864
2026-01-18 07:17:56.98	35.52	10.57	-42.9	-45.6	17.5	0.00e+00	0	43	0	223346688	57	4909
2026-01-18 07:17:58.97	35.16	10.56	-43.2	-45.9	17.3	0.00e+00	0	43	0	226492416	57	5054
2026-01-18 07:18:00.98	34.79	10.56	-43.4	-46.2	16.9	0.00e+00	0	43	0	230686720	57	5249
2026-01-18 07:18:03.11	34.40	10.56	-43.6	-46.4	16.7	0.00e+00	0	43	0	234881024	57	5357
2026-01-18 07:18:05.10	34.04	10.55	-43.6	-46.5	16.7	0.00e+00	0	43	0	238026752	57	5422
2026-01-18 07:18:07.09	33.68	10.55	-43.6	-46.5	16.6	0.00e+00	0	43	0	242221056	57	5447
2026-01-18 07:18:09.08	33.32	10.54	-43.6	-46.6	16.6	0.00e+00	0	43	0	246415360	58	5163
2026-01-18 07:18:11.07	32.95	10.53	-43.7	-46.6	16.5	0.00e+00	0	43	0	249561088	58	5217
2026-01-18 07:18:13.06	32.59	10.52	-43.5	-46.4	16.7	0.00e+00	0	43	0	253755392	58	5088
2026-01-18 07:18:15.05	32.23	10.51	-43.4	-46.4	16.7	0.00e+00	0	43	0	256901120	58	5090
2026-01-18 07:18:17.04	31.87	10.50	-43.7	-46.7	16.4	0.00e+00	0	43	0	261095424	58	5265
2026-01-18 07:18:19.03	31.51	10.49	-43.9	-47.0	16.2	0.00e+00	0	43	0	264241152	58	5414
2026-01-18 07:18:21.21	31.11	10.47	-43.9	-47.1	16.0	0.00e+00	0	43	0	268435456	58	5493
2026-01-18 07:18:23.18	30.76	10.46	-43.8	-46.8	16.3	0.00e+00	0	43	0	272629760	58	5338
2026-01-18 07:18:25.17	30.40	10.44	-43.8	-46.7	16.4	0.00e+00	0	43	0	275775488	58	5233
2026-01-18 07:18:27.16	30.04	10.42	-43.7	-46.6	16.5	0.00e+00	0	43	0	279969792	58	5186
2026-01-18 07:18:29.40	29.63	10.40	-43.7	-46.7	16.3	0.00e+00	0	43	0	284164096	58	5246
2026-01-18 07:18:31.44	29.27	10.38	-43.8	-46.9	16.2	0.00e+00	0	43	0	287309824	58	5356
2026-01-18 07:18:33.43	28.91	10.36	-43.9	-47.1	16.1	0.00e+00	0	43	0	291504128	58	5469
2026-01-18 07:18:35.42	28.55	10.34	-43.9	-47.0	16.0	0.00e+00	0	43	0	295698432	58	5436
2026-01-18 07:18:37.43	28.19	10.32	-43.7	-46.7	16.3	0.00e+00	0	43	0	298844160	58	5263
2026-01-18 07:18:39.43	27.83	10.29	-43.7	-46.8	16.2	0.00e+00	0	43	0	303038464	58	5281
2026-01-18 07:18:41.67	27.43	10.26	-43.6	-46.6	16.4	0.00e+00	0	43	0	307232768	58	5195
2026-01-18 07:18:43.68	27.07	10.24	-43.7	-46.7	16.3	0.00e+00	0	43	0	310378496	58	5224
2026-01-18 07:18:45.69	26.72	10.21	-43.8	-46.9	16.2	0.00e+00	0	43	0	314572800	58	5346
2026-01-18 07:18:47.68	26.36	10.18	-43.6	-46.7	16.3	0.00e+00	0	43	0	318767104	58	5273
2026-01-18 07:18:49.68	26.01	10.15	-43.5	-46.7	16.3	0.00e+00	0	43	0	321912832	58	5236
2026-01-18 07:18:51.69	25.65	10.12	-43.5	-46.8	16.2	0.00e+00	0	43	0	326107136	58	5289
2026-01-18 07:18:53.68	25.30	10.09	-43.7	-46.9	16.1	0.00e+00	0	43	0	329252864	58	5373
2026-01-18 07:18:55.78	24.93	10.06	-43.7	-46.9	16.1	0.00e+00	0	43	0	333447168	58	5345
2026-01-18 07:18:57.78	24.58	10.03	-43.8	-47.0	15.9	0.00e+00	0	43	0	337641472	58	5453
2026-01-18 07:18:59.77	24.23	9.99	-43.7	-47.0	16.0	0.00e+00	0	43	0	340787200	58	5415
2026-01-18 07:19:01.94	23.85	9.95	-43.7	-46.9	16.1	0.00e+00	0	43	0	344981504	58	5350
2026-01-18 07:19:03.94	23.50	9.92	-43.6	-46.7	16.3	0.00e+00	0	43	0	349175808	58	5220
2026-01-18 07:19:05.93	23.16	9.88	-43.5	-46.4	16.6	0.00e+00	0	43	0	352321536	58	5057
2026-01-18 07:19:07.92	22.81	9.84	-43.5	-46.5	16.5	0.00e+00	0	43	0	356515840	58	5120
2026-01-18 07:19:09.93	22.46	9.80	-43.4	-46.7	16.3	0.00e+00	0	43	0	359661568	58	5253
2026-01-18 07:19:12.09	22.09	9.76	-43.2	-46.8	16.2	0.00e+00	0	43	0	363855872	58	5291
2026-01-18 07:19:14.25	21.72	9.71	-43.2	-46.7	16.3	0.00e+00	0	43	0	368050176	58	5238
2026-01-18 07:19:16.46	21.34	9.67	-43.0	-46.4	16.5	0.00e+00	0	43	0	372244480	57	5383
2026-01-18 07:19:18.45	21.00	9.63	-42.9	-46.3	16.6	0.00e+00	0	43	0	376438784	57	5295
2026-01-18 07:19:20.45	20.66	9.58	-42.8	-46.2	16.7	0.00e+00	0	43	0	379584512	57	5275
2026-01-18 07:19:22.47	20.31	9.54	-43.0	-46.4	16.5	0.00e+00	0	43	0	383778816	57	5399
2026-01-18 07:19:24.46	19.98	9.49	-42.9	-46.4	16.5	0.00e+00	0	43	0	386924544	57	5397
2026-01-18 07:19:26.46	19.64	9.44	-43.2	-46.5	16.4	0.00e+00	0	43	0	391118848	57	5457
2026-01-18 07:19:28.62	19.28	9.39	-43.2	-46.5	16.4	0.00e+00	0	43	0	395313152	57	5433
2026-01-18 07:19:30.76	18.92	9.34	-43.2	-46.3	16.6	0.00e+00	0	43	0	399507456	57	5307
2026-01-18 07:19:32.95	18.55	9.29	-43.3	-46.4	16.4	0.00e+00	0	43	0	403701760	57	5392
2026-01-18 07:19:34.99	18.21	9.24	-43.1	-46.1	16.8	0.00e+00	0	43	0	406847488	57	5177
2026-01-18 07:19:36.98	17.88	9.19	-43.2	-46.1	16.8	0.00e+00	0	43	0	411041792	57	5184
2026-01-18 07:19:38.97	17.55	9.13	-42.9	-45.8	17.0	0.00e+00	0	43	0	414187520	57	5037
2026-01-18 07:19:40.97	17.22	9.08	-42.9	-45.8	17.1	0.00e+00	0	43	0	418381824	57	5015
2026-01-18 07:19:42.96	16.90	9.03	-42.6	-45.6	17.3	0.00e+00	0	43	0	421527552	57	4875
2026-01-18 07:19:44.95	16.57	8.98	-47.6	-56.4	7.0	7.00e-07	0	43	0	425721856	65	10754
2026-01-18 07:19:46.94	16.25	8.92	-48.6	-64.3	3.8	1.49e+00	0	43	104	425721856	67	23779
2026-01-18 07:19:48.93	15.93	8.87	-48.6	-64.6	3.8	1.49e+00	0	43	104	425721856	69	21921
2026-01-18 07:19:50.94	15.60	8.81	-49.5	-64.7	3.8	1.49e+00	0	43	104	425721856	69	22145
2026-01-18 07:19:53.02	15.27	8.75	-49.3	-64.8	3.8	1.49e+00	0	43	104	425721856	69	22468
2026-01-18 07:19:55.20	14.92	8.69	-49.5	-64.9	3.8	1.49e+00	0	43	104	425721856	69	22626
2026-01-18 07:19:57.25	14.59	8.63	-49.4	-64.9	3.8	1.49e+00	0	43	104	425721856	70	21391
2026-01-18 07:19:59.27	14.27	8.57	-49.7	-64.9	3.8	1.49e+00	0	43	104	425721856	70	21430
2026-01-18 07:20:01.48	13.92	8.50	-49.7	-64.9	3.8	1.49e+00	0	43	104	425721856	70	21453
2026-01-18 07:20:03.53	13.60	8.44	-49.8	-64.9	3.8	1.49e+00	0	43	104	425721856	70	21353
2026-01-18 07:20:05.58	13.28	8.37	-49.7	-64.9	3.8	1.49e+00	0	43	104	425721856	70	21317
2026-01-18 07:20:07.58	12.97	8.31	-49.7	-64.9	3.8	1.49e+00	0	43	104	425721856	70	21371
2026-01-18 07:20:09.57	12.66	8.25	-49.4	-64.9	3.8	1.49e+00	0	43	104	425721856	70	21275
2026-01-18 07:20:11.57	12.35	8.19	-49.3	-64.8	3.8	1.49e+00	0	43	104	425721856	70	21191
2026-01-18 07:20:13.57	12.04	8.12	-49.4	-64.8	3.8	1.49e+00	0	43	104	425721856	70	21155
2026-01-18 07:20:15.56	11.74	8.06	-49.3	-64.8	3.8	1.49e+00	0	43	104	425721856	70	21084
2026-01-18 07:20:17.55	11.43	7.99	-49.3	-64.8	3.8	1.49e+00	0	43	104	425721856	70	21079
2026-01-18 07:20:19.55	11.13	7.93	-49.3	-64.8	3.8	1.49e+00	0	43	104	425721856	70	21077
2026-01-18 07:20:21.54	10.83	7.86	-49.3	-64.8	3.8	1.49e+00	0	43	104	425721856	70	21133
2026-01-18 07:20:23.52	10.53	7.79	-49.3	-64.8	3.8	1.49e+00	0	43	104	425721856	70	21073
2026-01-18 07:20:25.53	10.23	7.73	-49.3	-64.8	3.8	1.49e+00	0	43	104	425721856	70	21132
2026-01-18 07:20:27.54	9.93	7.66	-49.3	-64.8	3.8	1.49e+00	0	43	104	425721856	70	21111
2026-01-18 07:20:29.53	9.63	7.59	-49.3	-64.8	3.8	1.49e+00	0	43	104	425721856	70	21113
2026-01-18 07:20:31.52	9.34	7.52	-49.3	-64.8	3.8	1.49e+00	0	43	104	425721856	70	21068
2026-01-18 07:20:33.52	9.05	7.45	-49.3	-64.8	3.8	1.49e+00	0	43	104	425721856	70	21105
2026-01-18 07:20:35.51	8.76	7.38	-49.3	-64.8	3.8	1.49e+00	0	43	104	425721856	70	21156
2026-01-18 07:20:37.51	8.46	7.31	-49.1	-64.7	3.8	1.49e+00	0	43	104	425721856	69	22092
2026-01-18 07:20:39.49	8.18	7.24	-49.3	-64.8	3.8	1.49e+00	0	43	104	425721856	69	22299
2026-01-18 07:20:41.48	7.89	7.17	-49.3	-64.7	3.8	1.49e+00	0	43	104	425721856	69	22239
2026-01-18 07:20:43.48	7.61	7.10	-49.3	-64.8	3.8	1.49e+00	0	43	104	425721856	69	22316
2026-01-18 07:20:45.47	7.32	7.02	-49.3	-64.8	3.8	1.49e+00	0	43	104	425721856	69	22293
2026-01-18 07:20:47.46	7.04	6.95	-49.2	-64.8	3.8	1.49e+00	0	43	104	425721856	69	22342
2026-01-18 07:20:49.46	6.76	6.88	-49.3	-64.7	3.8	1.49e+00	0	43	104	425721856	69	22257
2026-01-18 07:20:51.45	6.48	6.80	-49.3	-64.8	3.8	1.49e+00	0	43	104	425721856	69	22268
2026-01-18 07:20:53.45	6.20	6.73	-49.3	-64.8	3.8	1.49e+00	0	43	104	425721856	69	22296
2026-01-18 07:20:55.43	5.92	6.66	-49.2	-64.8	3.8	1.49e+00	0	43	104	425721856	69	22284
2026-01-18 07:20:57.42	5.65	6.58	-49.3	-64.8	3.8	1.49e+00	0	43	104	425721856	69	22335
2026-01-18 07:20:59.41	5.38	6.51	-49.3	-64.8	3.8	1.49e+00	0	43	104	425721856	69	22275
2026-01-18 07:21:01.43	5.10	6.43	-49.3	-64.8	3.8	1.49e+00	0	43	104	425721856	69	22301
2026-01-18 07:21:03.43	4.83	6.35	-49.3	-64.7	3.8	1.49e+00	0	43	104	425721856	69	22243
2026-01-18 07:21:05.42	4.56	6.28	-49.3	-64.8	3.8	1.49e+00	0	43	104	425721856	69	22326
2026-01-18 07:21:07.42	4.29	6.20	-49.3	-64.8	3.8	1.49e+00	0	43	104	425721856	69	22292
2026-01-18 07:21:09.42	4.02	6.12	-49.3	-64.8	3.8	1.49e+00	0	43	104	425721856	69	22349
2026-01-18 07:21:11.41	3.76	6.04	-49.3	-64.8	3.8	1.49e+00	0	43	104	425721856	69	22303
2026-01-18 07:21:13.42	3.49	5.97	-49.3	-64.8	3.8	1.49e+00	0	43	104	425721856	69	22269
2026-01-18 07:21:15.41	3.23	5.89	-49.3	-64.7	3.8	1.49e+00	0	43	104	425721856	69	22207
2026-01-18 07:21:17.40	2.97	5.81	-49.3	-64.8	3.8	1.49e+00	0	43	104	425721856	69	22279
2026-01-18 07:21:19.40	2.71	5.73	-49.3	-64.7	3.8	1.49e+00	0	43	104	425721856	69	22227
2026-01-18 07:21:21.38	2.45	5.65	-49.2	-64.7	3.8	1.49e+00	0	43	104	425721856	69	22124
2026-01-18 07:21:23.39	2.19	5.57	-49.2	-64.7	3.8	1.49e+00	0	43	104	425721856	69	22165
2026-01-18 07:21:25.37	1.94	5.49	-49.2	-64.6	3.8	1.49e+00	0	43	104	425721856	69	21992
2026-01-18 07:21:27.37	1.69	5.41	-49.2	-64.6	3.8	1.49e+00	0	43	104	425721856	69	21980
2026-01-18 07:21:29.36	1.43	5.33	-49.2	-64.6	3.8	1.49e+00	0	43	104	425721856	69	21992
2026-01-18 07:21:31.36	1.18	5.25	-49.2	-64.6	3.8	1.49e+00	0	43	104	425721856	69	21931
2026-01-18 07:21:33.35	0.93	5.17	-49.2	-64.6	3.8	1.49e+00	0	43	104	425721856	69	21953
2026-01-18 07:21:35.35	0.68	5.09	-49.2	-64.6	3.8	1.49e+00	0	43	104	425721856	69	21923
2026-01-18 07:21:37.33	0.44	5.01	-49.2	-64.6	3.8	1.49e+00	0	43	104	425721856	69	21863

#Closed at: 2026-01-18 07:21:39
#Recorded file [425 MB]: D:/Data/31040_260118_101414.dat