passes_logs/2026/01/18/T1/T1__20260118_011738_FENGYUN_3D_rec.log

#Pass ID: 20260118_011738_FENGYUN 3D
#Satellite: FENGYUN 3D
#Configuration: FENGYUN 3D
#almurnet v.1.7.20251203
#Start time: 2026-01-18 01:17:38

#Version: 2.0.20230620
#Station: T1
#Location: 37.570604 lon 55.790049 lat
#TLE: 1 43010U 17072A   26017.25882587  .00000461  00000+0  23963-3 0  9992
#TLE: 2 43010  98.9934 349.1096 0002357 104.0487 256.0951 14.19697152423579

#Time	Az	El	Level	Level2	SNR	BER	BlckErr	Temp	State	Recorded	gain1	gain2
2026-01-18 01:17:38.67	20.22	5.04	-48.8	-61.9	3.8	8.47e-01	0	41	0	0	69	15979
2026-01-18 01:17:42.65	20.34	5.32	-48.8	-61.7	3.8	8.48e-01	0	42	104	0	68	16570
2026-01-18 01:17:46.63	20.47	5.60	-48.8	-61.6	3.8	8.46e-01	0	42	104	0	68	16465
2026-01-18 01:17:50.61	20.60	5.89	-48.8	-61.8	3.8	8.47e-01	0	42	104	0	68	16748
2026-01-18 01:17:54.60	20.72	6.17	-48.8	-61.9	3.8	8.47e-01	0	42	104	0	68	17056
2026-01-18 01:17:58.60	20.86	6.47	-48.8	-61.8	3.8	8.48e-01	0	42	104	0	68	16743
2026-01-18 01:18:02.58	20.99	6.76	-48.7	-60.7	3.8	8.46e-01	0	42	104	0	68	14831
2026-01-18 01:18:06.58	21.12	7.06	-48.5	-59.3	4.0	8.44e-01	0	42	104	0	68	12556
2026-01-18 01:18:10.57	21.26	7.36	-48.4	-58.1	4.3	8.37e-01	0	43	0	0	68	10967
2026-01-18 01:18:14.57	21.40	7.67	-48.3	-57.8	4.3	8.32e-01	0	43	0	0	68	10629
2026-01-18 01:18:18.56	21.55	7.98	-48.3	-57.6	4.4	8.28e-01	0	43	0	0	68	10353
2026-01-18 01:18:22.54	21.69	8.29	-47.7	-55.3	5.6	7.30e-01	0	43	0	0	67	8374
2026-01-18 01:18:26.53	21.84	8.61	-46.2	-51.0	9.4	3.43e-02	0	43	0	22020096	64	6101
2026-01-18 01:18:30.53	21.99	8.93	-44.4	-47.8	12.9	8.92e-05	0	43	0	44040192	60	5292
2026-01-18 01:18:34.52	22.15	9.25	-44.4	-47.5	13.0	1.72e-03	0	43	0	67108864	60	5147
2026-01-18 01:18:38.50	22.31	9.58	-39.8	-41.8	18.7	0.00e+00	0	43	0	89128960	51	4464
2026-01-18 01:18:42.49	22.47	9.91	-39.7	-41.7	18.8	0.00e+00	0	43	0	111149056	51	4407
2026-01-18 01:18:46.47	22.63	10.25	-39.3	-41.2	19.3	0.00e+00	0	43	0	134217728	50	4431
2026-01-18 01:18:50.47	22.80	10.59	-39.4	-41.3	19.3	0.00e+00	0	43	0	156237824	50	4445
2026-01-18 01:18:54.46	22.97	10.94	-39.2	-41.1	19.4	0.00e+00	0	43	0	179306496	50	4365
2026-01-18 01:18:58.44	23.15	11.29	-39.3	-41.2	19.4	0.00e+00	0	43	0	201326592	50	4410
2026-01-18 01:19:02.44	23.33	11.65	-39.3	-41.2	19.4	0.00e+00	0	43	0	223346688	50	4399
2026-01-18 01:19:06.43	23.51	12.01	-39.2	-41.0	19.5	0.00e+00	0	43	0	246415360	50	4330
2026-01-18 01:19:10.42	23.70	12.38	-38.9	-40.8	19.7	0.00e+00	0	43	0	268435456	49	4469
2026-01-18 01:19:14.41	23.89	12.75	-39.1	-40.9	19.7	0.00e+00	0	43	0	291504128	49	4540
2026-01-18 01:19:18.40	24.08	13.13	-38.8	-40.6	19.9	0.00e+00	0	43	0	313524224	49	4378
2026-01-18 01:19:22.40	24.29	13.51	-38.5	-40.3	20.2	0.00e+00	0	43	0	335544320	48	4482
2026-01-18 01:19:26.39	24.49	13.90	-38.5	-40.4	20.2	0.00e+00	0	44	0	358612992	48	4508
2026-01-18 01:19:30.39	24.70	14.30	-38.6	-40.5	20.1	0.00e+00	0	44	0	380633088	48	4560
2026-01-18 01:19:34.38	24.92	14.70	-38.4	-40.2	20.3	0.00e+00	0	43	0	403701760	48	4439
2026-01-18 01:19:38.36	25.14	15.10	-38.4	-40.2	20.4	0.00e+00	0	44	0	425721856	48	4416
2026-01-18 01:19:42.35	25.37	15.52	-38.1	-39.8	20.7	0.00e+00	0	44	0	447741952	48	4232
2026-01-18 01:19:46.34	25.60	15.94	-37.9	-39.7	20.6	0.00e+00	0	43	0	470810624	47	4408
2026-01-18 01:19:50.33	25.84	16.37	-37.7	-39.6	20.7	0.00e+00	0	43	0	492830720	47	4343
2026-01-18 01:19:54.32	26.08	16.80	-37.6	-39.5	20.8	0.00e+00	0	44	0	515899392	47	4296
2026-01-18 01:19:58.31	26.34	17.25	-37.5	-39.3	20.9	0.00e+00	0	44	0	537919488	46	4479
2026-01-18 01:20:02.29	26.60	17.70	-37.4	-39.2	21.1	0.00e+00	0	43	0	560988160	46	4417
2026-01-18 01:20:06.29	26.86	18.16	-37.3	-39.1	21.2	0.00e+00	0	44	0	583008256	46	4373
2026-01-18 01:20:10.28	27.14	18.62	-37.3	-39.1	21.1	0.00e+00	0	43	0	605028352	46	4380
2026-01-18 01:20:14.27	27.42	19.10	-37.3	-39.1	21.2	0.00e+00	0	44	0	628097024	46	4372
2026-01-18 01:20:18.25	27.71	19.58	-37.1	-38.8	21.4	0.00e+00	0	44	0	650117120	46	4233
2026-01-18 01:20:22.25	28.01	20.07	-36.9	-38.6	21.6	0.00e+00	0	44	0	673185792	45	4359
2026-01-18 01:20:26.25	28.32	20.58	-36.9	-38.6	21.6	0.00e+00	0	44	0	695205888	45	4368
2026-01-18 01:20:30.24	28.64	21.09	-36.9	-38.6	21.6	0.00e+00	0	44	0	717225984	45	4365
2026-01-18 01:20:34.24	28.97	21.61	-36.6	-38.3	21.8	0.00e+00	0	43	0	740294656	45	4228
2026-01-18 01:20:38.23	29.31	22.14	-36.3	-37.9	22.1	0.00e+00	0	44	0	762314752	44	4285
2026-01-18 01:20:42.23	29.67	22.69	-36.3	-38.0	22.1	0.00e+00	0	44	0	785383424	44	4327
2026-01-18 01:20:46.22	30.03	23.24	-36.5	-38.2	22.0	0.00e+00	0	44	0	807403520	44	4395
2026-01-18 01:20:50.21	30.41	23.80	-36.6	-38.3	21.9	0.00e+00	0	43	0	830472192	44	4462
2026-01-18 01:20:54.21	30.80	24.38	-36.5	-38.2	22.0	0.00e+00	0	44	0	852492288	44	4412
2026-01-18 01:20:58.19	31.20	24.97	-36.4	-38.1	22.1	0.00e+00	0	43	0	874512384	44	4364
2026-01-18 01:21:02.19	31.62	25.57	-36.1	-37.8	22.3	0.00e+00	0	43	0	897581056	44	4217
2026-01-18 01:21:06.19	32.06	26.18	-35.7	-37.4	22.6	0.00e+00	0	43	0	919601152	43	4245
2026-01-18 01:21:10.18	32.51	26.80	-35.6	-37.3	22.6	0.00e+00	0	43	0	942669824	43	4211
2026-01-18 01:21:14.16	32.98	27.44	-35.6	-37.2	22.6	0.00e+00	0	44	0	964689920	43	4168
2026-01-18 01:21:18.16	33.46	28.09	-35.7	-37.3	22.5	0.00e+00	0	44	0	987758592	43	4234
2026-01-18 01:21:22.15	33.97	28.75	-35.5	-37.2	22.7	0.00e+00	0	43	0	1009778688	43	4146
2026-01-18 01:21:26.14	34.50	29.43	-35.4	-37.1	22.8	0.00e+00	0	44	0	1031798784	42	4346
2026-01-18 01:21:30.13	35.05	30.12	-35.7	-37.4	22.6	0.00e+00	0	43	0	1054867456	42	4511
2026-01-18 01:21:34.13	35.63	30.82	-35.9	-37.5	22.4	0.00e+00	0	43	0	1076887552	42	4596
2026-01-18 01:21:38.12	36.22	31.54	-35.3	-36.9	22.9	0.00e+00	0	43	0	1099956224	42	4285
2026-01-18 01:21:42.11	36.85	32.28	-35.3	-36.9	22.9	0.00e+00	0	43	0	1121976320	42	4278
2026-01-18 01:21:46.09	37.50	33.02	-35.6	-37.2	22.7	0.00e+00	0	43	0	1143996416	42	4424
2026-01-18 01:21:50.08	38.19	33.79	-35.1	-36.7	23.1	0.00e+00	0	43	0	1167065088	42	4182
2026-01-18 01:21:54.07	38.90	34.57	-35.0	-36.7	23.2	0.00e+00	0	43	0	1189085184	42	4149
2026-01-18 01:21:58.06	39.65	35.36	-35.2	-36.9	22.4	0.00e+00	0	43	0	1212153856	42	4273
2026-01-18 01:22:02.06	40.45	36.17	-35.1	-36.8	22.5	0.00e+00	0	44	0	1234173952	42	4222
2026-01-18 01:22:06.05	41.27	36.99	-34.8	-36.6	22.6	0.00e+00	0	43	0	1256194048	41	4345
2026-01-18 01:22:10.04	42.14	37.83	-35.3	-37.1	22.3	0.00e+00	0	44	0	1279262720	41	4609
2026-01-18 01:22:14.04	43.06	38.68	-34.9	-36.6	22.7	0.00e+00	0	43	0	1301282816	41	4378
2026-01-18 01:22:18.03	44.03	39.55	-35.0	-36.7	22.6	0.00e+00	0	43	0	1324351488	41	4405
2026-01-18 01:22:22.02	45.04	40.42	-35.0	-36.7	22.7	0.00e+00	0	43	0	1346371584	41	4406
2026-01-18 01:22:26.01	46.12	41.31	-35.2	-36.9	22.5	0.00e+00	0	43	0	1369440256	41	4515
2026-01-18 01:22:30.01	47.25	42.21	-35.3	-37.0	22.4	0.00e+00	0	43	0	1391460352	41	4556
2026-01-18 01:22:34.00	48.45	43.12	-35.4	-37.1	22.3	0.00e+00	0	43	0	1413480448	41	4625
2026-01-18 01:22:38.00	49.72	44.04	-35.3	-37.0	22.4	0.00e+00	0	43	0	1436549120	41	4551
2026-01-18 01:22:41.99	51.06	44.96	-35.4	-37.1	22.3	0.00e+00	0	43	0	1458569216	41	4616
2026-01-18 01:22:45.99	52.49	45.89	-35.3	-37.0	22.4	0.00e+00	0	43	0	1481637888	41	4581
2026-01-18 01:22:49.99	54.00	46.82	-36.0	-37.8	21.8	0.00e+00	0	44	0	1503657984	42	4723
2026-01-18 01:22:53.99	55.60	47.75	-35.5	-37.2	22.4	0.00e+00	0	43	0	1526726656	42	4397
2026-01-18 01:22:57.97	57.29	48.66	-36.1	-37.9	21.8	0.00e+00	0	43	0	1548746752	42	4773
2026-01-18 01:23:01.96	59.09	49.58	-35.5	-37.2	22.4	0.00e+00	0	43	0	1571815424	42	4414
2026-01-18 01:23:05.96	61.00	50.48	-36.0	-37.7	22.0	0.00e+00	0	43	0	1593835520	42	4666
2026-01-18 01:23:09.94	63.02	51.36	-35.6	-37.3	22.3	0.00e+00	0	43	0	1615855616	42	4491
2026-01-18 01:23:13.93	65.16	52.21	-36.1	-37.9	21.7	0.00e+00	0	43	0	1638924288	43	4538
2026-01-18 01:23:17.93	67.43	53.05	-36.0	-37.7	21.9	0.00e+00	0	43	0	1660944384	43	4413
2026-01-18 01:23:21.92	69.83	53.84	-36.0	-37.8	21.9	0.00e+00	0	43	0	1684013056	43	4455
2026-01-18 01:23:25.91	72.36	54.60	-36.5	-38.2	21.6	0.00e+00	0	43	0	1706033152	44	4430
2026-01-18 01:23:29.90	75.02	55.31	-36.6	-38.3	21.5	0.00e+00	0	44	0	1728053248	44	4493
2026-01-18 01:23:33.89	77.81	55.96	-36.2	-37.9	22.0	0.00e+00	0	43	0	1751121920	44	4273
2026-01-18 01:23:37.88	80.73	56.56	-36.7	-38.5	21.5	0.00e+00	0	43	0	1773142016	44	4556
2026-01-18 01:23:41.87	83.77	57.08	-35.8	-37.5	22.1	0.00e+00	0	43	0	1796210688	43	4334
2026-01-18 01:23:45.86	86.92	57.53	-35.9	-37.6	22.0	0.00e+00	0	43	0	1818230784	43	4391
2026-01-18 01:23:49.86	90.17	57.90	-36.3	-38.1	21.6	0.00e+00	0	43	0	1840250880	43	4608
2026-01-18 01:23:53.85	93.50	58.19	-35.9	-37.6	22.1	0.00e+00	0	43	0	1863319552	43	4368
2026-01-18 01:23:57.84	96.89	58.38	-35.7	-37.4	22.2	0.00e+00	0	43	0	1885339648	43	4279
2026-01-18 01:24:01.84	100.32	58.48	-36.0	-37.8	21.9	0.00e+00	0	43	0	1908408320	43	4455
2026-01-18 01:24:05.82	103.75	58.49	-36.0	-37.7	22.0	0.00e+00	0	43	0	1930428416	43	4435
2026-01-18 01:24:09.82	107.19	58.40	-35.5	-37.2	22.4	0.00e+00	0	43	0	1952448512	42	4429
2026-01-18 01:24:13.81	110.58	58.22	-35.9	-37.7	22.0	0.00e+00	0	43	0	1975517184	42	4672
2026-01-18 01:24:17.79	113.92	57.95	-36.4	-38.2	21.6	0.00e+00	0	43	0	1997537280	43	4665
2026-01-18 01:24:21.78	117.18	57.59	-36.1	-37.8	21.8	0.00e+00	0	43	0	2020605952	43	4484
2026-01-18 01:24:25.78	120.36	57.15	-36.2	-38.0	21.8	0.00e+00	0	43	0	2042626048	43	4563
2026-01-18 01:24:29.76	123.41	56.64	-36.2	-38.0	21.8	0.00e+00	0	43	0	2065694720	43	4554
2026-01-18 01:24:33.75	126.35	56.06	-36.9	-38.7	21.3	0.00e+00	0	43	0	2087714816	44	4679
2026-01-18 01:24:37.75	129.18	55.41	-36.8	-38.5	21.4	0.00e+00	0	43	0	2109734912	44	4597
2026-01-18 01:24:41.74	131.86	54.71	-36.4	-38.1	21.8	0.00e+00	0	43	0	2132803584	44	4375
2026-01-18 01:24:45.73	134.42	53.95	-36.8	-38.5	21.5	0.00e+00	0	43	0	2154823680	44	4593
2026-01-18 01:24:49.71	136.83	53.16	-36.4	-38.1	21.7	0.00e+00	0	43	0	2177892352	44	4386
2026-01-18 01:24:53.70	139.12	52.33	-36.5	-38.3	21.6	0.00e+00	0	43	0	2199912448	44	4467
2026-01-18 01:24:57.70	141.29	51.47	-36.3	-38.1	21.8	0.00e+00	0	43	0	2221932544	44	4372
2026-01-18 01:25:01.70	143.34	50.59	-35.7	-37.4	22.2	0.00e+00	0	43	0	2245001216	43	4275
2026-01-18 01:25:05.69	145.27	49.69	-35.6	-37.3	22.3	0.00e+00	0	43	0	2267021312	43	4232
2026-01-18 01:25:09.68	147.09	48.78	-35.4	-37.2	22.4	0.00e+00	0	43	0	2290089984	42	4397
2026-01-18 01:25:13.67	148.80	47.85	-35.7	-37.5	22.1	0.00e+00	0	43	0	2312110080	42	4551
2026-01-18 01:25:17.67	150.42	46.92	-35.2	-36.9	22.6	0.00e+00	0	43	0	2334130176	42	4270
2026-01-18 01:25:21.66	151.94	45.99	-35.6	-37.4	22.2	0.00e+00	0	43	0	2357198848	42	4497
2026-01-18 01:25:25.65	153.38	45.06	-35.4	-37.1	22.4	0.00e+00	0	43	0	2379218944	42	4379
2026-01-18 01:25:29.64	154.73	44.13	-35.5	-37.2	22.2	0.00e+00	0	43	0	2402287616	42	4429
2026-01-18 01:25:33.63	156.01	43.21	-35.6	-37.3	22.1	0.00e+00	0	43	0	2424307712	42	4466
2026-01-18 01:25:37.61	157.22	42.30	-35.4	-37.1	22.4	0.00e+00	0	43	0	2446327808	42	4349
2026-01-18 01:25:41.61	158.37	41.39	-35.3	-37.1	22.3	0.00e+00	0	43	0	2469396480	42	4368
2026-01-18 01:25:45.59	159.45	40.50	-35.1	-36.8	22.5	0.00e+00	0	43	0	2491416576	42	4229
2026-01-18 01:25:49.59	160.48	39.62	-35.0	-36.7	22.6	0.00e+00	0	43	0	2514485248	41	4413
2026-01-18 01:25:53.58	161.45	38.74	-35.1	-36.8	22.5	0.00e+00	0	43	0	2536505344	41	4486
2026-01-18 01:25:57.56	162.38	37.89	-34.9	-36.6	22.7	0.00e+00	0	43	0	2558525440	41	4357
2026-01-18 01:26:01.56	163.26	37.04	-34.7	-36.4	22.8	0.00e+00	0	43	0	2581594112	41	4249
2026-01-18 01:26:05.55	164.09	36.22	-35.1	-36.8	22.4	0.00e+00	0	43	0	2603614208	41	4476
2026-01-18 01:26:09.54	164.89	35.40	-35.1	-36.8	22.3	0.00e+00	0	43	0	2626682880	41	4477
2026-01-18 01:26:13.52	165.64	34.60	-35.0	-36.7	22.5	0.00e+00	0	43	0	2648702976	41	4420
2026-01-18 01:26:17.51	166.36	33.82	-34.8	-36.5	22.6	0.00e+00	0	43	0	2671771648	41	4313
2026-01-18 01:26:21.51	167.05	33.05	-34.9	-36.7	22.5	0.00e+00	0	43	0	2693791744	41	4392
2026-01-18 01:26:25.50	167.71	32.29	-35.1	-36.9	22.4	0.00e+00	0	43	0	2715811840	41	4499
2026-01-18 01:26:29.50	168.34	31.55	-35.1	-36.9	22.4	0.00e+00	0	43	0	2738880512	41	4505
2026-01-18 01:26:33.49	168.95	30.82	-35.2	-37.0	22.3	0.00e+00	0	43	0	2760900608	41	4555
2026-01-18 01:26:37.47	169.52	30.12	-35.2	-37.0	22.3	0.00e+00	0	43	0	2783969280	41	4554
2026-01-18 01:26:41.45	170.07	29.42	-35.3	-37.0	22.3	0.00e+00	0	43	0	2805989376	41	4579
2026-01-18 01:26:45.45	170.60	28.74	-35.4	-37.1	22.2	0.00e+00	0	42	0	2828009472	41	4641
2026-01-18 01:26:49.43	171.11	28.07	-35.5	-37.2	22.1	0.00e+00	0	43	0	2851078144	41	4695
2026-01-18 01:26:53.42	171.60	27.42	-35.2	-36.9	22.3	0.00e+00	0	43	0	2873098240	41	4521
2026-01-18 01:26:57.41	172.07	26.77	-35.1	-36.8	22.4	0.00e+00	0	43	0	2896166912	41	4448
2026-01-18 01:27:01.41	172.53	26.14	-35.4	-37.1	22.2	0.00e+00	0	43	0	2918187008	41	4613
2026-01-18 01:27:05.39	172.96	25.53	-35.6	-37.3	22.0	0.00e+00	0	43	0	2940207104	41	4747
2026-01-18 01:27:09.39	173.38	24.92	-35.7	-37.4	21.9	0.00e+00	0	43	0	2963275776	42	4528
2026-01-18 01:27:13.38	173.79	24.33	-35.7	-37.5	21.9	0.00e+00	0	42	0	2985295872	42	4550
2026-01-18 01:27:17.36	174.18	23.76	-35.7	-37.5	21.9	0.00e+00	0	43	0	3008364544	42	4566
2026-01-18 01:27:21.35	174.55	23.19	-35.7	-37.5	21.9	0.00e+00	0	43	0	3030384640	42	4563
2026-01-18 01:27:25.34	174.92	22.63	-35.9	-37.7	21.7	0.00e+00	0	43	0	3052404736	42	4686
2026-01-18 01:27:29.33	175.27	22.08	-36.3	-38.1	21.4	0.00e+00	0	43	0	3075473408	43	4613
2026-01-18 01:27:33.32	175.61	21.55	-36.3	-38.0	21.4	0.00e+00	0	43	0	3097493504	43	4592
2026-01-18 01:27:37.31	175.94	21.02	-36.4	-38.2	21.3	0.00e+00	0	43	0	3120562176	43	4674
2026-01-18 01:27:41.30	176.26	20.51	-36.6	-38.4	21.1	0.00e+00	0	43	0	3142582272	43	4777
2026-01-18 01:27:45.29	176.57	20.00	-36.9	-38.8	20.9	0.00e+00	0	42	0	3164602368	44	4715
2026-01-18 01:27:49.28	176.87	19.50	-37.1	-39.0	20.8	0.00e+00	0	43	0	3187671040	45	4559
2026-01-18 01:27:53.27	177.16	19.02	-37.1	-39.0	20.8	0.00e+00	0	43	0	3209691136	45	4552
2026-01-18 01:27:57.26	177.44	18.54	-37.0	-38.9	20.9	0.00e+00	0	43	0	3232759808	45	4503
2026-01-18 01:28:01.25	177.71	18.07	-37.0	-38.8	20.9	0.00e+00	0	43	0	3254779904	45	4492
2026-01-18 01:28:05.25	177.98	17.60	-37.1	-39.0	20.8	0.00e+00	0	43	0	3276800000	45	4555
2026-01-18 01:28:09.23	178.24	17.15	-37.5	-39.3	20.5	0.00e+00	0	42	0	3299868672	45	4740
2026-01-18 01:28:13.23	178.49	16.70	-37.6	-39.5	20.4	0.00e+00	0	42	0	3321888768	45	4836
2026-01-18 01:28:17.22	178.73	16.27	-37.8	-39.7	20.2	0.00e+00	0	42	0	3344957440	46	4698
2026-01-18 01:28:21.22	178.97	15.83	-38.0	-39.9	20.1	0.00e+00	0	42	0	3366977536	46	4797
2026-01-18 01:28:25.20	179.20	15.41	-37.9	-39.8	20.1	0.00e+00	0	42	0	3388997632	46	4746
2026-01-18 01:28:29.20	179.42	14.99	-37.9	-39.8	20.1	0.00e+00	0	42	0	3412066304	46	4757
2026-01-18 01:28:33.19	179.64	14.58	-38.0	-39.9	20.0	0.00e+00	0	42	0	3434086400	46	4811
2026-01-18 01:28:37.18	179.86	14.18	-38.1	-40.0	19.9	0.00e+00	0	42	0	3457155072	47	4588
2026-01-18 01:28:41.17	180.07	13.78	-38.2	-40.1	19.8	0.00e+00	0	43	0	3479175168	47	4637
2026-01-18 01:28:45.16	180.27	13.39	-38.4	-40.3	19.7	0.00e+00	0	42	0	3502243840	47	4749
2026-01-18 01:28:49.14	180.47	13.00	-38.3	-40.3	19.6	0.00e+00	0	43	0	3524263936	47	4737
2026-01-18 01:28:53.14	180.66	12.62	-38.5	-40.5	19.5	0.00e+00	0	43	0	3546284032	47	4832
2026-01-18 01:28:57.13	180.85	12.25	-38.9	-40.8	19.4	0.00e+00	0	42	0	3569352704	48	4750
2026-01-18 01:29:01.12	181.03	11.88	-39.1	-41.1	19.2	0.00e+00	0	43	0	3591372800	48	4892
2026-01-18 01:29:05.11	181.21	11.52	-38.8	-40.8	19.4	0.00e+00	0	43	0	3614441472	48	4729
2026-01-18 01:29:09.10	181.39	11.16	-39.0	-41.0	19.1	0.00e+00	0	42	0	3636461568	48	4862
2026-01-18 01:29:13.09	181.56	10.80	-39.0	-40.9	19.2	0.00e+00	0	43	0	3658481664	49	4536
2026-01-18 01:29:17.09	181.73	10.45	-39.3	-41.3	18.9	0.00e+00	0	43	0	3681550336	49	4729
2026-01-18 01:29:21.08	181.90	10.11	-39.5	-41.5	18.7	0.00e+00	0	43	0	3703570432	50	4552
2026-01-18 01:29:25.07	182.06	9.77	-39.2	-41.2	19.0	0.00e+00	0	43	0	3726639104	50	4403
2026-01-18 01:29:29.06	182.21	9.43	-39.4	-41.4	18.8	0.00e+00	0	42	0	3748659200	50	4509
2026-01-18 01:29:33.06	182.37	9.10	-39.6	-41.7	18.5	0.00e+00	0	42	0	3771727872	50	4659
2026-01-18 01:29:37.06	182.52	8.78	-49.8	-62.3	3.8	8.48e-01	0	42	104	3781165056	70	15794
2026-01-18 01:29:41.05	182.67	8.45	-50.3	-62.6	3.8	8.47e-01	0	42	104	3781165056	71	15449
2026-01-18 01:29:45.04	182.81	8.13	-50.4	-62.6	3.8	8.47e-01	0	42	104	3781165056	71	15580
2026-01-18 01:29:49.03	182.96	7.82	-50.6	-62.7	3.8	8.48e-01	0	42	104	3781165056	71	15585
2026-01-18 01:29:53.02	183.10	7.51	-50.5	-62.6	3.8	8.47e-01	0	42	104	3781165056	71	15579
2026-01-18 01:29:57.00	183.23	7.20	-50.5	-62.7	3.8	8.48e-01	0	42	104	3781165056	71	15617
2026-01-18 01:30:01.00	183.37	6.90	-50.1	-62.7	3.8	8.46e-01	0	42	104	3781165056	71	15597
2026-01-18 01:30:04.99	183.50	6.60	-50.1	-62.6	3.8	8.46e-01	0	42	104	3781165056	71	15459
2026-01-18 01:30:08.98	183.63	6.30	-50.1	-62.5	3.8	8.47e-01	0	42	104	3781165056	71	15397
2026-01-18 01:30:12.97	183.75	6.01	-50.1	-62.6	3.8	8.47e-01	0	42	104	3781165056	71	15442
2026-01-18 01:30:16.96	183.88	5.72	-50.1	-62.5	3.8	8.46e-01	0	43	104	3781165056	71	15398
2026-01-18 01:30:20.95	184.00	5.43	-50.1	-62.6	3.8	8.47e-01	0	42	104	3781165056	71	15415
2026-01-18 01:30:24.94	184.12	5.15	-50.1	-62.5	3.8	8.47e-01	0	42	104	3781165056	71	15395

#Closed at: 2026-01-18 01:30:28
#Recorded file [3781 MB]: D:/Data/31040_260118_041738.dat