passes_logs/2026/01/24/PlanumMoscow/PlanumMoscow__20260124_075325_METOP-B_rec.log

#Pass ID: 20260124_075325_METOP-B
#Satellite: METOP-B
#Configuration: METOP-B
#Start time: 2026-01-24 07:53:30.059933

#LorettStation: 1.0.0 05.05.2024
#Station: PlanumMoscow
#Location: 37.6253844 lon 55.6713361 lat
#TLE: 1 38771U 12049A   25293.92766658  .00000266  00000+0  14193-3 0  9996
#TLE: 2 38771  98.6882 344.7603 0001609 341.5209  18.5909 14.21379342679275

#Time	Az	El	Level	SNR
2026-01-24 07:57:08.506411	356.8	27.4	-60.7	0.5
2026-01-24 07:57:10.751918	356.5	27.7	-61.8	6.1
2026-01-24 07:57:12.995435	356.1	28.1	-61.8	4.8
2026-01-24 07:57:15.244942	355.8	28.4	-60.8	1.6
2026-01-24 07:57:17.487953	355.4	28.8	-62.5	5.1
2026-01-24 07:57:19.731964	355.0	29.2	-60.6	3.1
2026-01-24 07:57:21.978471	354.6	29.5	-61.2	2.0
2026-01-24 07:57:24.222499	354.3	29.9	-62.8	7.2
2026-01-24 07:57:26.465014	353.9	30.3	-62.8	8.0
2026-01-24 07:57:28.704034	353.4	30.6	-63.5	6.2
2026-01-24 07:57:30.947054	353.0	31.0	-62.9	7.4
2026-01-24 07:57:33.185071	352.6	31.4	-62.9	7.0
2026-01-24 07:57:35.425586	352.2	31.8	-63.0	6.2
2026-01-24 07:57:37.663616	351.7	32.1	-62.3	7.4
2026-01-24 07:57:39.908123	351.3	32.5	-63.4	6.6
2026-01-24 07:57:42.147150	350.8	32.9	-63.3	7.5
2026-01-24 07:57:44.387666	350.3	33.3	-63.3	6.6
2026-01-24 07:57:46.630686	349.8	33.7	-63.8	9.1
2026-01-24 07:57:48.872209	349.3	34.1	-63.5	8.9
2026-01-24 07:57:51.115716	348.8	34.5	-63.4	9.9
2026-01-24 07:57:53.357230	348.2	34.9	-63.5	8.9
2026-01-24 07:57:55.597754	347.7	35.3	-63.3	9.5
2026-01-24 07:57:57.839765	347.1	35.7	-63.2	7.5
2026-01-24 07:58:00.076270	346.6	36.1	-63.0	8.9
2026-01-24 07:58:02.316297	346.0	36.6	-63.5	8.7
2026-01-24 07:58:04.553307	345.4	37.0	-63.7	9.6
2026-01-24 07:58:06.794317	344.7	37.4	-63.9	9.1
2026-01-24 07:58:09.032831	344.1	37.8	-64.2	10.5
2026-01-24 07:58:11.268849	343.5	38.2	-63.7	9.8
2026-01-24 07:58:13.505363	342.8	38.6	-63.9	8.2
2026-01-24 07:58:15.745869	342.1	39.1	-64.6	9.6
2026-01-24 07:58:17.984383	341.4	39.5	-64.1	10.1
2026-01-24 07:58:20.224898	340.7	39.9	-64.2	9.2
2026-01-24 07:58:22.463908	339.9	40.3	-63.9	10.1
2026-01-24 07:58:24.702927	339.2	40.7	-64.2	10.5
2026-01-24 07:58:26.945443	338.4	41.1	-63.8	9.2
2026-01-24 07:58:29.184453	337.6	41.6	-64.3	10.0
2026-01-24 07:58:31.424528	336.7	42.0	-64.7	10.1
2026-01-24 07:58:33.664034	335.9	42.4	-64.4	8.8
2026-01-24 07:58:35.905044	335.0	42.8	-64.4	9.1
2026-01-24 07:58:38.142558	334.1	43.2	-64.7	10.5
2026-01-24 07:58:40.378156	333.2	43.6	-63.9	9.8
2026-01-24 07:58:42.618183	332.3	44.0	-64.4	9.7
2026-01-24 07:58:44.856736	331.3	44.4	-64.6	10.3
2026-01-24 07:58:47.100243	330.3	44.8	-64.0	10.0
2026-01-24 07:58:49.340758	329.3	45.2	-64.4	9.6
2026-01-24 07:58:51.582785	328.3	45.5	-64.5	9.1
2026-01-24 07:58:53.819794	327.2	45.9	-64.7	10.1
2026-01-24 07:58:56.058308	326.1	46.3	-64.5	11.1
2026-01-24 07:58:58.296317	325.0	46.6	-64.0	9.4
2026-01-24 07:59:00.537841	323.9	47.0	-63.6	9.6
2026-01-24 07:59:02.776851	322.7	47.3	-64.2	10.3
2026-01-24 07:59:05.018357	321.5	47.6	-64.3	10.4
2026-01-24 07:59:07.260873	320.3	47.9	-63.8	9.8
2026-01-24 07:59:09.499388	319.1	48.2	-63.8	9.9
2026-01-24 07:59:11.738398	317.8	48.5	-63.9	10.1
2026-01-24 07:59:13.975913	316.5	48.8	-64.0	9.0
2026-01-24 07:59:16.213930	315.2	49.0	-64.2	9.6
2026-01-24 07:59:18.453949	313.9	49.3	-64.7	10.2
2026-01-24 07:59:20.689454	312.6	49.5	-64.4	9.7
2026-01-24 07:59:22.927959	311.2	49.7	-64.1	10.2
2026-01-24 07:59:25.165482	309.8	49.9	-63.9	10.0
2026-01-24 07:59:27.407491	308.4	50.1	-64.2	10.1
2026-01-24 07:59:29.642005	307.0	50.2	-64.5	10.1
2026-01-24 07:59:31.882558	305.6	50.4	-64.3	9.7
2026-01-24 07:59:34.118080	304.1	50.5	-64.5	9.6
2026-01-24 07:59:36.355090	302.7	50.6	-64.4	9.5
2026-01-24 07:59:38.592595	301.2	50.7	-64.7	9.7
2026-01-24 07:59:40.830101	299.7	50.8	-64.6	8.9
2026-01-24 07:59:43.069125	298.3	50.8	-64.8	9.8
2026-01-24 07:59:45.303647	296.8	50.8	-65.0	10.1
2026-01-24 07:59:47.543163	295.3	50.8	-64.8	10.4
2026-01-24 07:59:49.781668	293.8	50.8	-64.7	10.7
2026-01-24 07:59:52.023183	292.3	50.8	-64.7	9.8
2026-01-24 07:59:54.260698	290.9	50.7	-64.4	10.5
2026-01-24 07:59:56.499212	289.4	50.7	-64.1	10.3
2026-01-24 07:59:58.740232	287.9	50.6	-64.4	11.1
2026-01-24 08:00:00.983250	286.5	50.4	-64.1	10.7
2026-01-24 08:00:03.220268	285.0	50.3	-64.0	10.6
2026-01-24 08:00:05.463288	283.6	50.2	-63.9	9.4
2026-01-24 08:00:07.706812	282.2	50.0	-63.3	9.3
2026-01-24 08:00:09.950367	280.8	49.8	-63.8	10.5
2026-01-24 08:00:12.193890	279.4	49.6	-63.7	8.6
2026-01-24 08:00:14.436447	278.1	49.4	-64.0	9.7
2026-01-24 08:00:16.678978	276.7	49.1	-64.1	10.0
2026-01-24 08:00:18.923042	275.4	48.9	-63.7	7.4
2026-01-24 08:00:21.167557	274.1	48.6	-63.8	9.9
2026-01-24 08:00:23.411569	272.8	48.3	-64.1	8.6
2026-01-24 08:00:25.655117	271.6	48.0	-64.2	8.2
2026-01-24 08:00:27.898138	270.4	47.7	-63.8	9.4
2026-01-24 08:00:30.140663	269.2	47.4	-63.6	8.5
2026-01-24 08:00:32.384683	268.0	47.1	-62.9	8.0
2026-01-24 08:00:34.626266	266.9	46.7	-62.4	8.5
2026-01-24 08:00:36.871294	265.7	46.4	-62.7	8.0
2026-01-24 08:00:39.114315	264.6	46.0	-63.0	9.0
2026-01-24 08:00:41.356869	263.6	45.7	-63.1	6.9
2026-01-24 08:00:43.600893	262.5	45.3	-61.8	5.1
2026-01-24 08:00:45.843465	261.5	44.9	-62.3	5.7
2026-01-24 08:00:48.087971	260.5	44.5	-62.5	6.8
2026-01-24 08:00:50.331559	259.5	44.1	-62.9	6.8
2026-01-24 08:00:52.576074	258.5	43.7	-63.1	7.3
2026-01-24 08:00:54.818645	257.6	43.3	-62.8	7.4
2026-01-24 08:00:57.060690	256.7	42.9	-62.3	3.9
2026-01-24 08:00:59.303709	255.8	42.5	-62.7	7.3
2026-01-24 08:01:01.546288	255.0	42.1	-62.3	5.1
2026-01-24 08:01:03.790804	254.1	41.7	-60.3	1.8
2026-01-24 08:01:06.033868	253.3	41.3	-61.7	5.5
2026-01-24 08:01:08.280905	252.5	40.8	-61.6	4.3
2026-01-24 08:01:10.523469	251.7	40.4	-62.3	6.7
2026-01-24 08:01:12.767488	251.0	40.0	-61.7	4.9
2026-01-24 08:01:15.011037	250.3	39.6	-61.6	4.1
2026-01-24 08:01:17.260050	249.5	39.2	-61.8	5.8
2026-01-24 08:01:19.504069	248.8	38.7	-62.0	4.5
2026-01-24 08:01:21.747129	248.2	38.3	-61.3	4.6
2026-01-24 08:01:23.991684	247.5	37.9	-59.4	1.1
2026-01-24 08:01:26.234744	246.8	37.5	-60.6	5.8
2026-01-24 08:01:28.478764	246.2	37.1	-60.9	2.7
2026-01-24 08:01:30.723816	245.6	36.6	-60.8	5.9
2026-01-24 08:01:32.967339	245.0	36.2	-60.3	4.0
2026-01-24 08:01:35.210854	244.4	35.8	-59.6	0.4
2026-01-24 08:01:37.453922	243.9	35.4	-60.2	3.8
2026-01-24 08:01:39.697933	243.3	35.0	-59.2	0.3
2026-01-24 08:01:41.941448	242.8	34.6	-60.4	4.5
2026-01-24 08:01:44.184476	242.2	34.2	-58.8	2.5
2026-01-24 08:01:46.428024	241.7	33.8	-61.2	5.2
2026-01-24 08:01:48.672539	241.2	33.4	-60.4	5.0
2026-01-24 08:01:50.916593	240.7	33.0	-59.4	2.6
2026-01-24 08:01:53.162614	240.3	32.6	-59.4	1.4
2026-01-24 08:01:55.406643	239.8	32.2	-60.4	2.7
2026-01-24 08:01:57.648206	239.3	31.8	-60.5	3.2
2026-01-24 08:01:59.891731	238.9	31.4	-60.3	4.2
2026-01-24 08:02:02.133288	238.5	31.0	-60.1	4.9
2026-01-24 08:02:04.377803	238.0	30.7	-59.8	3.6
2026-01-24 08:02:06.621349	237.6	30.3	-60.0	3.9
2026-01-24 08:02:08.867377	237.2	29.9	-60.1	4.3
2026-01-24 08:02:11.110406	236.8	29.6	-61.2	5.3
2026-01-24 08:02:13.354472	236.4	29.2	-60.6	4.0
2026-01-24 08:02:15.601532	236.1	28.8	-60.1	2.9
2026-01-24 08:02:17.845047	235.7	28.5	-59.4	3.5
2026-01-24 08:02:20.088572	235.3	28.1	-61.6	5.7
2026-01-24 08:02:22.331126	235.0	27.8	-60.5	2.3
2026-01-24 08:02:24.574641	234.6	27.4	-60.5	1.5
2026-01-24 08:02:26.817196	234.3	27.1	-60.4	1.0
2026-01-24 08:02:29.061236	234.0	26.7	-61.3	3.1
2026-01-24 08:02:31.309877	233.6	26.4	-60.4	4.0
2026-01-24 08:02:33.553423	233.3	26.0	-60.1	2.8
2026-01-24 08:02:35.797443	233.0	25.7	-60.4	3.0
2026-01-24 08:02:38.040510	232.7	25.4	-60.7	2.3
2026-01-24 08:02:40.283529	232.4	25.1	-60.5	3.0
2026-01-24 08:02:42.527044	232.1	24.7	-60.9	1.2
2026-01-24 08:02:44.772609	231.8	24.4	-59.9	2.6
2026-01-24 08:02:47.015660	231.6	24.1	-59.4	0.8
2026-01-24 08:02:49.261671	231.3	23.8	-61.0	2.6
2026-01-24 08:02:51.504700	231.0	23.5	-60.4	0.0
2026-01-24 08:02:53.749256	230.8	23.2	-60.9	5.2
2026-01-24 08:02:55.992781	230.5	22.9	-60.0	3.8
2026-01-24 08:02:58.236848	230.3	22.6	-60.5	2.1
2026-01-24 08:03:00.480371	230.0	22.3	-61.3	2.9
2026-01-24 08:03:02.724887	229.8	22.0	-60.2	0.0
2026-01-24 08:03:04.967939	229.5	21.7	-62.5	5.3
2026-01-24 08:03:07.210966	229.3	21.4	-62.7	3.0
2026-01-24 08:03:09.454999	229.1	21.1	-62.8	4.6
2026-01-24 08:03:11.699506	228.9	20.8	-61.8	3.4
2026-01-24 08:03:13.944557	228.6	20.5	-62.1	3.1
2026-01-24 08:03:16.190081	228.4	20.2	-63.1	2.8
2026-01-24 08:03:18.433627	228.2	20.0	-62.6	3.2
2026-01-24 08:03:20.677678	228.0	19.7	-62.4	4.0
2026-01-24 08:03:22.921698	227.8	19.4	-60.7	0.0
2026-01-24 08:03:25.165739	227.6	19.2	-63.0	4.1
2026-01-24 08:03:27.410254	227.4	18.9	-62.6	2.1
2026-01-24 08:03:29.654296	227.2	18.6	-60.3	0.0
2026-01-24 08:03:31.899803	227.0	18.4	-61.2	3.2
2026-01-24 08:03:34.143855	226.8	18.1	-61.8	2.4
2026-01-24 08:03:36.388370	226.6	17.8	-62.5	2.4
2026-01-24 08:03:38.632381	226.5	17.6	-63.0	0.9
2026-01-24 08:03:40.876422	226.3	17.3	-62.9	3.4
2026-01-24 08:03:43.120937	226.1	17.1	-62.3	0.0
2026-01-24 08:03:45.365980	225.9	16.8	-63.3	1.7
2026-01-24 08:03:47.610496	225.8	16.6	-61.0	0.0
2026-01-24 08:03:49.854538	225.6	16.4	-61.5	0.0
2026-01-24 08:03:52.103558	225.4	16.1	-59.3	0.9
2026-01-24 08:03:54.347592	225.3	15.9	-61.6	0.9
2026-01-24 08:03:56.591611	225.1	15.6	-62.6	3.0
2026-01-24 08:03:58.835622	225.0	15.4	-62.5	2.2
2026-01-24 08:04:01.079169	224.8	15.2	-63.1	5.0
2026-01-24 08:04:03.323684	224.7	14.9	-60.5	3.9
2026-01-24 08:04:05.568229	224.5	14.7	-62.8	3.5
2026-01-24 08:04:07.815755	224.4	14.5	-61.6	0.7
2026-01-24 08:04:10.058806	224.2	14.3	-61.9	0.0
2026-01-24 08:04:12.303320	224.1	14.0	-63.4	4.0
2026-01-24 08:04:14.547355	224.0	13.8	-63.5	3.9
2026-01-24 08:04:16.790384	223.8	13.6	-62.6	1.1
2026-01-24 08:04:19.034891	223.7	13.4	-63.1	1.1
2026-01-24 08:04:21.278933	223.6	13.2	-63.2	0.0
2026-01-24 08:04:23.525945	223.4	13.0	-62.2	0.0
2026-01-24 08:04:25.772031	223.3	12.7	-63.1	1.9
2026-01-24 08:04:28.016546	223.2	12.5	-63.2	3.0
2026-01-24 08:04:30.260092	223.0	12.3	-63.1	0.9
2026-01-24 08:04:32.506607	222.9	12.1	-63.4	2.9
2026-01-24 08:04:34.750154	222.8	11.9	-64.0	2.9
2026-01-24 08:04:36.994661	222.7	11.7	-64.7	3.7
2026-01-24 08:04:39.243683	222.6	11.5	-64.9	4.0
2026-01-24 08:04:41.488190	222.4	11.3	-64.8	2.7
2026-01-24 08:04:43.732706	222.3	11.1	-63.7	3.3
2026-01-24 08:04:45.975755	222.2	10.9	-65.2	5.0
2026-01-24 08:04:48.219774	222.1	10.7	-65.7	3.7
2026-01-24 08:04:50.463817	222.0	10.5	-65.5	5.0
2026-01-24 08:04:52.713333	221.9	10.3	-65.7	5.8
2026-01-24 08:04:54.956896	221.8	10.1	-63.7	2.2
2026-01-24 08:04:57.200907	221.7	9.9	-65.9	4.6
2026-01-24 08:04:59.444942	221.6	9.8	-66.1	5.6
2026-01-24 08:05:01.688953	221.5	9.6	-65.8	4.4
2026-01-24 08:05:03.933467	221.4	9.4	-65.0	4.3
2026-01-24 08:05:06.178014	221.3	9.2	-65.6	4.0
2026-01-24 08:05:08.423034	221.2	9.0	-65.9	4.8
2026-01-24 08:05:10.667077	221.1	8.8	-66.4	5.6
2026-01-24 08:05:12.911096	221.0	8.7	-66.9	5.0
2026-01-24 08:05:15.154148	220.9	8.5	-64.5	4.2
2026-01-24 08:05:17.398167	220.8	8.3	-66.8	4.6
2026-01-24 08:05:19.641706	220.7	8.1	-66.8	5.1
2026-01-24 08:05:21.886213	220.6	7.9	-66.3	3.9
2026-01-24 08:05:24.133729	220.5	7.8	-66.3	2.2
2026-01-24 08:05:26.378275	220.4	7.6	-64.9	5.3
2026-01-24 08:05:28.621799	220.3	7.4	-66.6	3.9
2026-01-24 08:05:30.870353	220.3	7.2	-65.6	4.6
2026-01-24 08:05:33.114869	220.2	7.1	-66.9	4.0
2026-01-24 08:05:35.359376	220.1	6.9	-66.7	3.8
2026-01-24 08:05:37.603427	220.0	6.7	-66.9	3.7
2026-01-24 08:05:39.847942	219.9	6.6	-65.6	3.1
2026-01-24 08:05:42.091994	219.8	6.4	-66.6	4.0
2026-01-24 08:05:44.337005	219.8	6.2	-65.8	3.7
2026-01-24 08:05:46.581039	219.7	6.1	-66.9	4.2
2026-01-24 08:05:48.825561	219.6	5.9	-67.1	0.0
2026-01-24 08:05:51.071077	219.5	5.7	-66.2	0.0
2026-01-24 08:05:53.317129	219.5	5.6	-65.6	0.0
2026-01-24 08:05:55.561644	219.4	5.4	-68.3	0.0
2026-01-24 08:05:57.805191	219.3	5.3	-70.5	0.0
2026-01-24 08:06:00.051210	219.2	5.1	-71.8	0.0
#Closed at: 2026-01-24 07:53:25.061885