passes_logs/2026/01/24/PlanumMoscow/PlanumMoscow__20260124_000207_METEOR-M2_4_rec.log

#Pass ID: 20260124_000207_METEOR-M2 4
#Satellite: METEOR-M2 4
#Configuration: METEOR-M2 4
#Start time: 2026-01-24 00:02:12.108828

#LorettStation: 1.0.0 05.05.2024
#Station: PlanumMoscow
#Location: 37.6253844 lon 55.6713361 lat
#TLE: 1 59051U 24039A   25293.94737965  .00000087  00000+0  58459-4 0  9998
#TLE: 2 59051  98.6671 251.7071 0007726 135.4772 224.7028 14.22388966 85257

#Time	Az	El	Level	SNR
2026-01-24 00:05:50.544700	48.0	23.9	-61.4	4.3
2026-01-24 00:05:52.789216	48.4	24.1	-62.2	4.9
2026-01-24 00:05:55.033730	48.9	24.4	-62.3	5.4
2026-01-24 00:05:57.278278	49.3	24.6	-62.5	5.8
2026-01-24 00:05:59.522297	49.8	24.9	-62.8	6.2
2026-01-24 00:06:01.764850	50.3	25.1	-63.2	6.4
2026-01-24 00:06:04.009366	50.8	25.4	-62.7	6.7
2026-01-24 00:06:06.253872	51.3	25.6	-62.1	7.6
2026-01-24 00:06:08.500927	51.8	25.9	-63.8	8.0
2026-01-24 00:06:10.746442	52.3	26.1	-62.3	7.4
2026-01-24 00:06:12.990484	52.8	26.3	-64.5	10.1
2026-01-24 00:06:15.233045	53.3	26.6	-64.8	11.3
2026-01-24 00:06:17.476599	53.9	26.8	-64.0	11.5
2026-01-24 00:06:19.720113	54.4	27.1	-64.7	11.4
2026-01-24 00:06:21.965125	55.0	27.3	-65.2	12.1
2026-01-24 00:06:24.209184	55.5	27.6	-61.9	5.4
2026-01-24 00:06:26.453203	56.1	27.8	-64.6	12.7
2026-01-24 00:06:28.697248	56.7	28.1	-65.8	12.7
2026-01-24 00:06:30.941764	57.2	28.3	-65.9	13.2
2026-01-24 00:06:33.185806	57.8	28.6	-65.7	12.7
2026-01-24 00:06:35.429330	58.4	28.8	-65.6	12.3
2026-01-24 00:06:37.673364	59.0	29.0	-64.9	11.1
2026-01-24 00:06:39.917376	59.7	29.3	-65.0	12.6
2026-01-24 00:06:42.161891	60.3	29.5	-65.3	12.6
2026-01-24 00:06:44.409437	60.9	29.8	-65.3	13.8
2026-01-24 00:06:46.653953	61.6	30.0	-64.8	13.2
2026-01-24 00:06:48.898002	62.2	30.2	-64.5	12.3
2026-01-24 00:06:51.147022	62.9	30.5	-64.6	12.9
2026-01-24 00:06:53.391529	63.6	30.7	-64.6	12.8
2026-01-24 00:06:55.634573	64.3	30.9	-62.2	9.1
2026-01-24 00:06:57.879090	65.0	31.1	-63.2	11.0
2026-01-24 00:07:00.127135	65.7	31.3	-61.8	6.6
2026-01-24 00:07:02.371155	66.4	31.6	-62.3	7.8
2026-01-24 00:07:04.615198	67.1	31.8	-60.9	7.0
2026-01-24 00:07:06.859714	67.8	32.0	-61.7	7.3
2026-01-24 00:07:09.103229	68.6	32.2	-60.6	8.8
2026-01-24 00:07:11.347271	69.3	32.4	-61.7	7.0
2026-01-24 00:07:13.593786	70.1	32.6	-61.4	7.8
2026-01-24 00:07:15.838333	70.9	32.8	-62.1	7.6
2026-01-24 00:07:18.082352	71.6	33.0	-61.5	9.3
2026-01-24 00:07:20.326394	72.4	33.2	-62.1	8.7
2026-01-24 00:07:22.570412	73.2	33.3	-62.3	10.1
2026-01-24 00:07:24.814960	74.0	33.5	-62.3	7.2
2026-01-24 00:07:27.058980	74.8	33.7	-61.0	6.9
2026-01-24 00:07:29.302991	75.7	33.8	-60.6	7.0
2026-01-24 00:07:31.547042	76.5	34.0	-62.3	10.0
2026-01-24 00:07:33.791062	77.3	34.2	-61.9	10.1
2026-01-24 00:07:36.035122	78.2	34.3	-62.1	9.4
2026-01-24 00:07:38.279141	79.0	34.4	-61.1	9.8
2026-01-24 00:07:40.523647	79.9	34.6	-61.1	8.2
2026-01-24 00:07:42.769205	80.8	34.7	-61.5	9.0
2026-01-24 00:07:45.013721	81.6	34.8	-61.8	8.0
2026-01-24 00:07:47.257762	82.5	34.9	-60.8	6.8
2026-01-24 00:07:49.502278	83.4	35.0	-61.8	6.6
2026-01-24 00:07:51.746794	84.3	35.1	-63.7	9.8
2026-01-24 00:07:53.990836	85.2	35.2	-61.8	7.2
2026-01-24 00:07:56.235350	86.1	35.3	-63.0	9.7
2026-01-24 00:07:58.479411	87.0	35.4	-63.8	10.6
2026-01-24 00:08:00.722935	87.9	35.5	-64.0	11.0
2026-01-24 00:08:02.967442	88.8	35.5	-63.5	7.4
2026-01-24 00:08:05.210987	89.7	35.6	-63.4	9.2
2026-01-24 00:08:07.455503	90.7	35.6	-63.0	9.5
2026-01-24 00:08:09.698554	91.6	35.7	-63.8	9.3
2026-01-24 00:08:11.943070	92.5	35.7	-64.9	10.7
2026-01-24 00:08:14.187577	93.4	35.7	-64.7	10.8
2026-01-24 00:08:16.432141	94.4	35.7	-64.9	10.0
2026-01-24 00:08:18.676647	95.3	35.7	-64.8	10.7
2026-01-24 00:08:20.921201	96.2	35.7	-64.9	10.8
2026-01-24 00:08:23.165716	97.1	35.7	-65.3	10.8
2026-01-24 00:08:25.408761	98.1	35.7	-65.3	11.6
2026-01-24 00:08:27.654268	99.0	35.7	-65.3	11.6
2026-01-24 00:08:29.898783	99.9	35.6	-65.1	11.9
2026-01-24 00:08:32.142817	100.8	35.6	-65.0	10.9
2026-01-24 00:08:34.386340	101.8	35.5	-65.7	11.9
2026-01-24 00:08:36.629384	102.7	35.5	-66.0	11.8
2026-01-24 00:08:38.873898	103.6	35.4	-65.8	12.2
2026-01-24 00:08:41.117910	104.5	35.3	-65.9	12.3
2026-01-24 00:08:43.361959	105.4	35.2	-66.1	12.6
2026-01-24 00:08:45.605979	106.3	35.2	-65.9	11.7
2026-01-24 00:08:47.849526	107.2	35.1	-66.2	12.7
2026-01-24 00:08:50.093561	108.1	34.9	-65.7	12.6
2026-01-24 00:08:52.339123	109.0	34.8	-66.0	12.7
2026-01-24 00:08:54.583134	109.8	34.7	-66.1	13.0
2026-01-24 00:08:56.827200	110.7	34.6	-65.7	12.9
2026-01-24 00:08:59.071725	111.6	34.4	-65.0	12.2
2026-01-24 00:09:01.315736	112.4	34.3	-65.8	12.3
2026-01-24 00:09:03.558794	113.3	34.2	-65.6	12.0
2026-01-24 00:09:05.801823	114.1	34.0	-65.9	11.4
2026-01-24 00:09:08.045386	114.9	33.9	-65.8	11.3
2026-01-24 00:09:10.289405	115.8	33.7	-65.9	10.8
2026-01-24 00:09:12.532959	116.6	33.5	-65.6	10.7
2026-01-24 00:09:14.775502	117.4	33.3	-65.4	10.7
2026-01-24 00:09:17.024010	118.2	33.2	-65.5	10.9
2026-01-24 00:09:19.266077	119.0	33.0	-65.2	11.3
2026-01-24 00:09:21.509592	119.8	32.8	-65.1	11.6
2026-01-24 00:09:23.757117	120.5	32.6	-65.4	11.9
2026-01-24 00:09:26.002128	121.3	32.4	-64.9	11.5
2026-01-24 00:09:28.245148	122.1	32.2	-65.1	11.7
2026-01-24 00:09:30.489160	122.8	32.0	-65.2	11.3
2026-01-24 00:09:32.733171	123.5	31.8	-65.3	11.1
2026-01-24 00:09:34.977182	124.3	31.6	-65.3	11.5
2026-01-24 00:09:37.220202	125.0	31.3	-65.2	10.9
2026-01-24 00:09:39.462231	125.7	31.1	-65.2	11.7
2026-01-24 00:09:41.705267	126.4	30.9	-65.2	11.0
2026-01-24 00:09:43.949774	127.1	30.7	-65.0	10.8
2026-01-24 00:09:46.193289	127.8	30.4	-64.8	11.3
2026-01-24 00:09:48.442301	128.4	30.2	-65.5	11.7
2026-01-24 00:09:50.686313	129.1	30.0	-65.5	12.1
2026-01-24 00:09:52.930820	129.8	29.7	-65.6	12.1
2026-01-24 00:09:55.174831	130.4	29.5	-65.5	11.9
2026-01-24 00:09:57.422357	131.0	29.3	-65.6	12.0
2026-01-24 00:09:59.665872	131.7	29.0	-65.6	11.2
2026-01-24 00:10:01.909882	132.3	28.8	-65.4	11.5
2026-01-24 00:10:04.151918	132.9	28.5	-65.2	11.3
2026-01-24 00:10:06.393958	133.5	28.3	-65.3	11.3
2026-01-24 00:10:08.636482	134.1	28.0	-65.3	11.2
2026-01-24 00:10:10.880493	134.6	27.8	-65.3	11.1
2026-01-24 00:10:13.123533	135.2	27.5	-65.2	11.0
2026-01-24 00:10:15.367544	135.8	27.3	-65.3	10.9
2026-01-24 00:10:17.610563	136.3	27.0	-65.1	10.4
2026-01-24 00:10:19.854582	136.9	26.8	-65.1	10.6
2026-01-24 00:10:22.097601	137.4	26.5	-65.0	10.4
2026-01-24 00:10:24.341612	137.9	26.3	-65.0	10.6
2026-01-24 00:10:26.585127	138.4	26.0	-64.8	10.5
2026-01-24 00:10:28.828661	139.0	25.8	-65.0	10.4
2026-01-24 00:10:31.072176	139.5	25.5	-65.2	10.9
2026-01-24 00:10:33.316187	140.0	25.3	-65.0	11.0
2026-01-24 00:10:35.562226	140.4	25.0	-64.9	10.7
2026-01-24 00:10:37.807237	140.9	24.8	-64.8	10.5
2026-01-24 00:10:40.051247	141.4	24.5	-64.6	10.3
2026-01-24 00:10:42.295258	141.9	24.3	-64.5	10.7
2026-01-24 00:10:44.538780	142.3	24.0	-64.7	10.6
2026-01-24 00:10:46.783287	142.8	23.8	-64.9	11.1
2026-01-24 00:10:49.026803	143.2	23.5	-65.2	10.7
2026-01-24 00:10:51.268844	143.7	23.3	-65.0	10.7
2026-01-24 00:10:53.511368	144.1	23.1	-64.8	10.5
2026-01-24 00:10:55.755379	144.5	22.8	-65.0	10.2
2026-01-24 00:10:58.000390	144.9	22.6	-64.8	9.9
2026-01-24 00:11:00.246410	145.4	22.3	-64.8	10.2
2026-01-24 00:11:02.498421	145.8	22.1	-64.8	9.9
2026-01-24 00:11:04.740945	146.2	21.8	-65.1	9.7
2026-01-24 00:11:06.984460	146.6	21.6	-65.1	9.8
2026-01-24 00:11:09.228472	146.9	21.4	-65.2	9.5
2026-01-24 00:11:11.471483	147.3	21.1	-65.2	9.3
2026-01-24 00:11:13.714494	147.7	20.9	-65.0	9.2
2026-01-24 00:11:15.958505	148.1	20.6	-65.2	9.0
2026-01-24 00:11:18.202516	148.4	20.4	-65.0	9.4
2026-01-24 00:11:20.446528	148.8	20.2	-65.1	9.2
2026-01-24 00:11:22.691053	149.2	19.9	-65.3	8.8
2026-01-24 00:11:24.935072	149.5	19.7	-65.1	9.2
2026-01-24 00:11:27.179083	149.8	19.5	-65.2	8.7
2026-01-24 00:11:29.422598	150.2	19.2	-65.3	8.3
2026-01-24 00:11:31.667113	150.5	19.0	-65.2	8.8
2026-01-24 00:11:33.909637	150.8	18.8	-65.3	8.4
2026-01-24 00:11:36.152657	151.2	18.6	-65.2	8.7
2026-01-24 00:11:38.398184	151.5	18.3	-64.8	8.5
2026-01-24 00:11:40.647205	151.8	18.1	-64.4	8.2
2026-01-24 00:11:42.890719	152.1	17.9	-64.8	8.5
2026-01-24 00:11:45.134738	152.4	17.7	-65.3	8.4
2026-01-24 00:11:47.378254	152.7	17.4	-65.2	8.4
2026-01-24 00:11:49.622769	153.0	17.2	-64.8	8.0
2026-01-24 00:11:51.865788	153.3	17.0	-64.6	7.8
2026-01-24 00:11:54.108311	153.6	16.8	-64.2	7.6
2026-01-24 00:11:56.351330	153.9	16.6	-64.4	7.7
2026-01-24 00:11:58.595342	154.2	16.4	-64.4	7.8
2026-01-24 00:12:00.839848	154.5	16.1	-64.3	7.2
2026-01-24 00:12:03.082374	154.7	15.9	-64.1	7.4
2026-01-24 00:12:05.326403	155.0	15.7	-64.1	6.9
2026-01-24 00:12:07.568927	155.3	15.5	-64.2	7.0
2026-01-24 00:12:09.810956	155.5	15.3	-63.9	6.4
2026-01-24 00:12:12.053481	155.8	15.1	-63.6	6.6
2026-01-24 00:12:14.298501	156.0	14.9	-63.6	6.5
2026-01-24 00:12:16.542511	156.3	14.7	-63.6	5.8
2026-01-24 00:12:18.784540	156.5	14.5	-63.5	5.2
2026-01-24 00:12:21.031562	156.8	14.3	-63.5	5.4
2026-01-24 00:12:23.275115	157.0	14.1	-63.1	5.2
2026-01-24 00:12:25.519126	157.3	13.9	-62.7	4.4
2026-01-24 00:12:27.763137	157.5	13.7	-63.1	4.5
2026-01-24 00:12:30.007149	157.7	13.5	-63.2	3.9
2026-01-24 00:12:32.250672	158.0	13.3	-63.2	4.2
2026-01-24 00:12:34.496187	158.2	13.1	-62.6	3.3
2026-01-24 00:12:36.739702	158.4	12.9	-62.6	3.6
2026-01-24 00:12:38.983255	158.6	12.7	-62.7	3.6
2026-01-24 00:12:41.226275	158.9	12.5	-62.5	3.0
2026-01-24 00:12:43.469295	159.1	12.3	-62.5	2.7
2026-01-24 00:12:45.711345	159.3	12.1	-62.4	2.6
2026-01-24 00:12:47.953871	159.5	11.9	-62.4	2.1
2026-01-24 00:12:50.197424	159.7	11.8	-61.7	2.8
2026-01-24 00:12:52.440940	159.9	11.6	-61.8	2.2
2026-01-24 00:12:54.684959	160.1	11.4	-61.8	1.0
2026-01-24 00:12:56.927529	160.3	11.2	-62.0	1.9
2026-01-24 00:12:59.171045	160.5	11.0	-61.7	1.2
2026-01-24 00:13:01.417577	160.7	10.8	-61.5	0.8
2026-01-24 00:13:03.660100	160.9	10.7	-61.5	0.5
2026-01-24 00:13:05.904615	161.1	10.5	-61.3	0.0
2026-01-24 00:13:08.151122	161.3	10.3	-61.3	0.2
2026-01-24 00:13:10.396133	161.5	10.1	-61.1	0.2
2026-01-24 00:13:12.639649	161.7	9.9	-60.9	0.0
2026-01-24 00:13:14.882669	161.9	9.8	-60.9	0.0
2026-01-24 00:13:17.127690	162.0	9.6	-60.7	0.6
2026-01-24 00:13:19.371205	162.2	9.4	-60.9	0.0
2026-01-24 00:13:21.614225	162.4	9.2	-60.4	0.0
2026-01-24 00:13:23.858741	162.6	9.1	-60.2	0.0
2026-01-24 00:13:26.103256	162.7	8.9	-60.3	0.0
2026-01-24 00:13:28.347267	162.9	8.7	-60.5	0.0
2026-01-24 00:13:30.591278	163.1	8.6	-60.4	0.0
2026-01-24 00:13:32.834793	163.2	8.4	-60.2	0.0
2026-01-24 00:13:35.078804	163.4	8.2	-59.9	0.0
2026-01-24 00:13:37.322320	163.6	8.1	-60.0	0.0
2026-01-24 00:13:39.565845	163.7	7.9	-59.8	0.0
2026-01-24 00:13:41.809856	163.9	7.7	-59.8	0.0
2026-01-24 00:13:44.053866	164.1	7.6	-60.3	0.0
2026-01-24 00:13:46.297878	164.2	7.4	-60.2	0.0
2026-01-24 00:13:48.542907	164.4	7.3	-59.7	0.0
2026-01-24 00:13:50.786918	164.5	7.1	-59.7	0.0
2026-01-24 00:13:53.031930	164.7	6.9	-59.8	0.0
2026-01-24 00:13:55.275454	164.8	6.8	-59.7	0.0
2026-01-24 00:13:57.519466	165.0	6.6	-59.6	0.0
2026-01-24 00:13:59.763477	165.1	6.5	-59.5	0.0
2026-01-24 00:14:02.007984	165.3	6.3	-59.6	0.0
2026-01-24 00:14:04.251005	165.4	6.1	-59.9	0.0
2026-01-24 00:14:06.493529	165.5	6.0	-59.9	0.0
2026-01-24 00:14:08.737044	165.7	5.8	-67.3	0.0
2026-01-24 00:14:10.980559	165.8	5.7	-67.5	0.0
2026-01-24 00:14:13.228572	166.0	5.5	-67.4	0.0
2026-01-24 00:14:15.472583	166.1	5.4	-68.0	0.0
2026-01-24 00:14:17.717090	166.2	5.2	-69.5	0.0
2026-01-24 00:14:19.961101	166.4	5.1	-67.7	0.0
#Closed at: 2026-01-24 00:02:07.110625