passes_logs/2026/01/24/PlanumMoscow/PlanumMoscow__20260124_065829_METEOR-M2_3_rec.log

#Pass ID: 20260124_065829_METEOR-M2 3
#Satellite: METEOR-M2 3
#Configuration: METEOR-M2 3
#Start time: 2026-01-24 06:58:34.765911

#LorettStation: 1.0.0 05.05.2024
#Station: PlanumMoscow
#Location: 37.6253844 lon 55.6713361 lat
#TLE: 1 57166U 23091A   25293.99389264  .00000062  00000+0  46113-4 0  9997
#TLE: 2 57166  98.6457 348.4330 0004759 135.3141 224.8422 14.24016546120475

#Time	Az	El	Level	SNR
2026-01-24 07:02:13.179307	33.6	27.9	-64.8	12.3
2026-01-24 07:02:15.422832	33.9	28.3	-64.9	10.6
2026-01-24 07:02:17.665854	34.2	28.6	-65.2	12.0
2026-01-24 07:02:19.912867	34.5	29.0	-64.4	10.7
2026-01-24 07:02:22.156878	34.8	29.4	-65.0	10.0
2026-01-24 07:02:24.401385	35.1	29.8	-64.1	10.8
2026-01-24 07:02:26.645397	35.5	30.2	-65.3	12.0
2026-01-24 07:02:28.887928	35.8	30.6	-65.4	11.9
2026-01-24 07:02:31.132435	36.2	31.0	-64.6	10.0
2026-01-24 07:02:33.373489	36.5	31.4	-65.5	12.5
2026-01-24 07:02:35.616021	36.9	31.8	-64.1	10.9
2026-01-24 07:02:37.858050	37.3	32.2	-65.2	11.1
2026-01-24 07:02:40.102574	37.6	32.6	-63.6	8.6
2026-01-24 07:02:42.346585	38.0	33.0	-64.7	10.3
2026-01-24 07:02:44.590101	38.4	33.5	-64.7	10.0
2026-01-24 07:02:46.834113	38.9	33.9	-64.5	10.0
2026-01-24 07:02:49.076646	39.3	34.3	-63.4	8.3
2026-01-24 07:02:51.319674	39.7	34.8	-63.4	9.0
2026-01-24 07:02:53.564181	40.2	35.2	-63.8	9.5
2026-01-24 07:02:55.808193	40.6	35.7	-63.5	9.0
2026-01-24 07:02:58.051708	41.1	36.1	-64.2	9.9
2026-01-24 07:03:00.296729	41.6	36.6	-62.9	9.4
2026-01-24 07:03:02.540740	42.1	37.1	-61.6	6.1
2026-01-24 07:03:04.784255	42.6	37.5	-63.2	9.4
2026-01-24 07:03:07.028266	43.1	38.0	-63.2	8.8
2026-01-24 07:03:09.276793	43.7	38.5	-62.7	9.2
2026-01-24 07:03:11.520804	44.2	39.0	-61.5	7.7
2026-01-24 07:03:13.765311	44.8	39.4	-60.8	4.5
2026-01-24 07:03:16.007340	45.4	39.9	-62.1	8.3
2026-01-24 07:03:18.250874	46.0	40.4	-61.4	5.1
2026-01-24 07:03:20.492903	46.7	40.9	-61.2	4.3
2026-01-24 07:03:22.735922	47.3	41.4	-61.3	4.2
2026-01-24 07:03:24.978447	48.0	41.9	-60.8	3.4
2026-01-24 07:03:27.221467	48.7	42.4	-61.5	5.1
2026-01-24 07:03:29.463495	49.4	42.9	-62.1	5.3
2026-01-24 07:03:31.707011	50.1	43.4	-61.1	1.8
2026-01-24 07:03:33.950031	50.9	43.9	-62.9	7.6
2026-01-24 07:03:36.194538	51.7	44.4	-61.0	8.0
2026-01-24 07:03:38.438053	52.5	44.9	-60.9	1.7
2026-01-24 07:03:40.682064	53.3	45.4	-61.0	5.8
2026-01-24 07:03:42.925092	54.2	46.0	-62.1	5.7
2026-01-24 07:03:45.167615	55.1	46.5	-63.2	6.2
2026-01-24 07:03:47.411130	56.0	47.0	-63.5	6.7
2026-01-24 07:03:49.653175	57.0	47.5	-59.7	1.7
2026-01-24 07:03:51.897195	58.0	48.0	-62.9	5.9
2026-01-24 07:03:54.139719	59.0	48.5	-63.7	6.6
2026-01-24 07:03:56.383731	60.0	49.0	-62.9	5.4
2026-01-24 07:03:58.631247	61.1	49.5	-63.1	4.2
2026-01-24 07:04:00.875260	62.2	49.9	-63.8	5.1
2026-01-24 07:04:03.119767	63.4	50.4	-63.4	5.8
2026-01-24 07:04:05.362291	64.6	50.9	-63.8	6.7
2026-01-24 07:04:07.604818	65.8	51.3	-64.0	5.3
2026-01-24 07:04:09.847349	67.0	51.8	-64.0	5.9
2026-01-24 07:04:12.091856	68.3	52.2	-65.0	6.5
2026-01-24 07:04:14.335867	69.7	52.7	-64.1	6.3
2026-01-24 07:04:16.579879	71.1	53.1	-65.1	7.4
2026-01-24 07:04:18.823393	72.5	53.5	-65.0	7.6
2026-01-24 07:04:21.067404	74.0	53.9	-65.2	6.6
2026-01-24 07:04:23.311921	75.5	54.3	-65.6	8.3
2026-01-24 07:04:25.555437	77.0	54.6	-64.1	4.5
2026-01-24 07:04:27.797464	78.6	55.0	-66.2	7.2
2026-01-24 07:04:30.044494	80.2	55.3	-65.2	7.2
2026-01-24 07:04:32.288505	81.8	55.6	-65.4	6.6
2026-01-24 07:04:34.530049	83.5	55.8	-64.3	7.0
2026-01-24 07:04:36.772573	85.2	56.1	-66.2	8.7
2026-01-24 07:04:39.015601	87.0	56.3	-65.7	5.9
2026-01-24 07:04:41.260613	88.7	56.5	-63.6	5.8
2026-01-24 07:04:43.504623	90.5	56.7	-65.7	5.9
2026-01-24 07:04:45.748634	92.3	56.9	-64.0	5.0
2026-01-24 07:04:47.991654	94.2	57.0	-66.1	8.8
2026-01-24 07:04:50.234181	96.0	57.1	-65.1	4.8
2026-01-24 07:04:52.477201	97.9	57.2	-65.4	4.7
2026-01-24 07:04:54.720716	99.7	57.2	-63.3	1.0
2026-01-24 07:04:56.969738	101.6	57.2	-66.2	6.6
2026-01-24 07:04:59.212263	103.5	57.2	-64.4	5.6
2026-01-24 07:05:01.456770	105.4	57.1	-63.7	3.2
2026-01-24 07:05:03.701285	107.2	57.1	-62.8	0.8
2026-01-24 07:05:05.945793	109.1	57.0	-65.8	6.9
2026-01-24 07:05:08.189813	110.9	56.8	-64.8	2.8
2026-01-24 07:05:10.432335	112.7	56.7	-65.9	6.5
2026-01-24 07:05:12.678346	114.5	56.5	-65.7	4.5
2026-01-24 07:05:14.922358	116.3	56.3	-65.2	6.4
2026-01-24 07:05:17.166369	118.0	56.0	-66.1	9.1
2026-01-24 07:05:19.410894	119.7	55.8	-63.9	7.4
2026-01-24 07:05:21.653914	121.4	55.5	-66.3	9.1
2026-01-24 07:05:23.896934	123.1	55.2	-66.2	9.2
2026-01-24 07:05:26.140945	124.7	54.9	-66.8	10.4
2026-01-24 07:05:28.386966	126.2	54.5	-66.4	9.8
2026-01-24 07:05:30.629985	127.8	54.2	-65.7	8.4
2026-01-24 07:05:32.874492	129.3	53.8	-64.9	6.5
2026-01-24 07:05:35.116024	130.7	53.4	-65.4	8.2
2026-01-24 07:05:37.358050	132.1	53.0	-66.3	9.8
2026-01-24 07:05:39.600574	133.5	52.6	-66.7	10.7
2026-01-24 07:05:41.842610	134.8	52.1	-67.1	10.2
2026-01-24 07:05:44.085639	136.1	51.7	-67.1	8.1
2026-01-24 07:05:46.330661	137.4	51.2	-67.3	10.1
2026-01-24 07:05:48.574176	138.6	50.8	-67.5	13.1
2026-01-24 07:05:50.817691	139.8	50.3	-67.6	12.4
2026-01-24 07:05:53.061207	140.9	49.8	-67.2	11.3
2026-01-24 07:05:55.305217	142.1	49.3	-67.2	11.9
2026-01-24 07:05:57.549724	143.1	48.8	-67.4	11.8
2026-01-24 07:05:59.793248	144.2	48.3	-67.7	11.0
2026-01-24 07:06:02.037755	145.2	47.8	-67.8	12.8
2026-01-24 07:06:04.282271	146.2	47.3	-67.4	11.6
2026-01-24 07:06:06.524794	147.1	46.8	-67.5	11.5
2026-01-24 07:06:08.766823	148.0	46.3	-67.8	12.9
2026-01-24 07:06:11.009849	148.9	45.8	-68.0	14.0
2026-01-24 07:06:13.252371	149.8	45.3	-67.5	12.9
2026-01-24 07:06:15.494400	150.6	44.8	-67.5	14.6
2026-01-24 07:06:17.737420	151.4	44.3	-66.8	11.5
2026-01-24 07:06:19.980936	152.2	43.8	-67.2	12.9
2026-01-24 07:06:22.224452	153.0	43.2	-67.0	13.4
2026-01-24 07:06:24.468959	153.7	42.7	-66.6	12.8
2026-01-24 07:06:26.713486	154.4	42.2	-66.9	13.8
2026-01-24 07:06:28.957002	155.1	41.7	-67.0	15.2
2026-01-24 07:06:31.201013	155.8	41.2	-67.0	15.1
2026-01-24 07:06:33.444530	156.4	40.7	-66.8	13.0
2026-01-24 07:06:35.690551	157.1	40.2	-67.0	14.1
2026-01-24 07:06:37.934066	157.7	39.7	-67.1	14.5
2026-01-24 07:06:40.178590	158.3	39.2	-67.2	14.4
2026-01-24 07:06:42.422601	158.8	38.8	-67.2	13.9
2026-01-24 07:06:44.665623	159.4	38.3	-67.0	13.2
2026-01-24 07:06:46.909634	160.0	37.8	-67.2	14.5
2026-01-24 07:06:49.152654	160.5	37.3	-66.5	13.1
2026-01-24 07:06:51.396665	161.0	36.9	-67.1	14.2
2026-01-24 07:06:53.640676	161.5	36.4	-66.4	13.2
2026-01-24 07:06:55.883696	162.0	35.9	-66.4	13.7
2026-01-24 07:06:58.127212	162.5	35.5	-66.9	14.3
2026-01-24 07:07:00.370240	162.9	35.0	-66.3	14.6
2026-01-24 07:07:02.613755	163.4	34.6	-66.4	14.3
2026-01-24 07:07:04.857767	163.8	34.1	-66.5	14.6
2026-01-24 07:07:07.102793	164.2	33.7	-66.4	15.1
2026-01-24 07:07:09.347308	164.6	33.3	-65.6	14.0
2026-01-24 07:07:11.590329	165.0	32.8	-66.7	15.4
2026-01-24 07:07:13.832357	165.4	32.4	-66.5	15.1
2026-01-24 07:07:16.075882	165.8	32.0	-66.6	14.8
2026-01-24 07:07:18.319893	166.2	31.6	-66.4	14.9
2026-01-24 07:07:20.564905	166.5	31.2	-66.3	14.2
2026-01-24 07:07:22.807430	166.9	30.8	-66.5	14.9
2026-01-24 07:07:25.050946	167.3	30.4	-66.6	14.5
2026-01-24 07:07:27.292975	167.6	30.0	-66.4	14.0
2026-01-24 07:07:29.535994	167.9	29.6	-66.4	14.2
2026-01-24 07:07:31.783015	168.2	29.2	-66.3	14.4
2026-01-24 07:07:34.027522	168.6	28.8	-66.1	12.5
2026-01-24 07:07:36.271037	168.9	28.4	-66.2	13.8
2026-01-24 07:07:38.515049	169.2	28.0	-66.1	14.3
2026-01-24 07:07:40.760069	169.5	27.7	-66.2	14.5
2026-01-24 07:07:43.003089	169.7	27.3	-66.2	14.4
2026-01-24 07:07:45.246615	170.0	26.9	-66.1	13.9
2026-01-24 07:07:47.489139	170.3	26.6	-66.4	14.1
2026-01-24 07:07:49.732159	170.6	26.2	-66.9	15.2
2026-01-24 07:07:51.976171	170.8	25.9	-66.4	13.8
2026-01-24 07:07:54.221192	171.1	25.5	-66.7	15.0
2026-01-24 07:07:56.464720	171.3	25.2	-66.4	14.0
2026-01-24 07:07:58.709228	171.6	24.8	-66.0	13.0
2026-01-24 07:08:00.953743	171.8	24.5	-66.7	14.5
2026-01-24 07:08:03.197773	172.1	24.2	-66.1	14.3
2026-01-24 07:08:05.442279	172.3	23.8	-65.6	14.7
2026-01-24 07:08:07.686290	172.5	23.5	-66.1	14.3
2026-01-24 07:08:09.929311	172.8	23.2	-65.5	13.9
2026-01-24 07:08:12.178323	173.0	22.9	-65.9	13.6
2026-01-24 07:08:14.422335	173.2	22.6	-66.0	13.7
2026-01-24 07:08:16.664364	173.4	22.3	-66.1	14.3
2026-01-24 07:08:18.906392	173.6	22.0	-66.5	14.5
2026-01-24 07:08:21.148419	173.8	21.7	-66.0	14.0
2026-01-24 07:08:23.391934	174.0	21.4	-66.3	13.7
2026-01-24 07:08:25.633964	174.2	21.1	-66.3	12.7
2026-01-24 07:08:27.876488	174.4	20.8	-66.2	13.4
2026-01-24 07:08:30.122510	174.6	20.5	-66.5	13.2
2026-01-24 07:08:32.367016	174.8	20.2	-66.0	12.5
2026-01-24 07:08:34.611038	175.0	19.9	-66.6	11.4
2026-01-24 07:08:36.853562	175.1	19.6	-66.0	11.7
2026-01-24 07:08:39.099088	175.3	19.3	-66.3	12.9
2026-01-24 07:08:41.342117	175.5	19.1	-66.2	13.1
2026-01-24 07:08:43.586625	175.7	18.8	-66.0	12.4
2026-01-24 07:08:45.829645	175.8	18.5	-64.6	10.4
2026-01-24 07:08:48.073655	176.0	18.3	-65.9	12.0
2026-01-24 07:08:50.317171	176.1	18.0	-65.9	12.3
2026-01-24 07:08:52.560687	176.3	17.7	-66.1	13.5
2026-01-24 07:08:54.803708	176.5	17.5	-66.1	12.5
2026-01-24 07:08:57.045239	176.6	17.2	-66.1	12.6
2026-01-24 07:08:59.289251	176.8	17.0	-65.7	11.4
2026-01-24 07:09:01.532269	176.9	16.7	-65.4	11.1
2026-01-24 07:09:03.775784	177.1	16.5	-65.5	11.0
2026-01-24 07:09:06.019805	177.2	16.2	-65.9	11.4
2026-01-24 07:09:08.264320	177.3	16.0	-65.9	11.1
2026-01-24 07:09:10.508340	177.5	15.7	-65.7	10.9
2026-01-24 07:09:12.750367	177.6	15.5	-66.1	10.6
2026-01-24 07:09:14.992394	177.8	15.3	-64.5	8.5
2026-01-24 07:09:17.235412	177.9	15.0	-66.0	12.1
2026-01-24 07:09:19.484920	178.0	14.8	-65.8	11.2
2026-01-24 07:09:21.728939	178.1	14.6	-65.2	10.1
2026-01-24 07:09:23.970966	178.3	14.3	-66.1	10.2
2026-01-24 07:09:26.219482	178.4	14.1	-66.1	10.5
2026-01-24 07:09:28.463998	178.5	13.9	-66.2	10.5
2026-01-24 07:09:30.708009	178.6	13.6	-66.3	11.4
2026-01-24 07:09:32.952021	178.8	13.4	-65.6	8.6
2026-01-24 07:09:35.198032	178.9	13.2	-66.5	11.7
2026-01-24 07:09:37.441555	179.0	13.0	-65.5	7.1
2026-01-24 07:09:39.684575	179.1	12.8	-65.3	10.1
2026-01-24 07:09:41.927594	179.2	12.6	-65.9	9.6
2026-01-24 07:09:44.171631	179.3	12.3	-65.6	7.4
2026-01-24 07:09:46.415147	179.5	12.1	-64.3	5.4
2026-01-24 07:09:48.658661	179.6	11.9	-65.4	10.3
2026-01-24 07:09:50.906689	179.7	11.7	-64.3	6.1
2026-01-24 07:09:53.150700	179.8	11.5	-65.7	8.0
2026-01-24 07:09:55.393223	179.9	11.3	-66.0	8.1
2026-01-24 07:09:57.637747	180.0	11.1	-66.2	9.9
2026-01-24 07:09:59.883766	180.1	10.9	-65.4	8.3
2026-01-24 07:10:02.126340	180.2	10.7	-65.3	8.9
2026-01-24 07:10:04.364358	180.3	10.5	-65.9	9.1
2026-01-24 07:10:06.607369	180.4	10.3	-65.1	8.7
2026-01-24 07:10:08.850875	180.5	10.1	-65.6	8.2
2026-01-24 07:10:11.091399	180.6	9.9	-65.4	9.0
2026-01-24 07:10:13.335410	180.7	9.7	-63.6	4.0
2026-01-24 07:10:15.575430	180.8	9.6	-63.4	8.2
2026-01-24 07:10:17.818441	180.9	9.4	-65.1	8.7
2026-01-24 07:10:20.062452	181.0	9.2	-65.8	8.7
2026-01-24 07:10:22.307968	181.0	9.0	-65.1	6.2
2026-01-24 07:10:24.550980	181.1	8.8	-64.2	5.4
2026-01-24 07:10:26.793506	181.2	8.6	-64.1	5.8
2026-01-24 07:10:29.034029	181.3	8.4	-64.7	5.5
2026-01-24 07:10:31.275544	181.4	8.3	-63.5	4.1
2026-01-24 07:10:33.518051	181.5	8.1	-61.3	0.2
2026-01-24 07:10:35.760567	181.6	7.9	-61.8	1.6
2026-01-24 07:10:38.003092	181.6	7.7	-62.4	2.3
2026-01-24 07:10:40.246598	181.7	7.6	-64.1	5.4
2026-01-24 07:10:42.490609	181.8	7.4	-63.9	6.1
2026-01-24 07:10:44.733132	181.9	7.2	-63.2	4.8
2026-01-24 07:10:46.975160	182.0	7.0	-64.1	7.4
2026-01-24 07:10:49.212665	182.1	6.9	-64.2	5.9
2026-01-24 07:10:51.456172	182.1	6.7	-65.6	6.8
2026-01-24 07:10:53.698192	182.2	6.5	-65.5	6.2
2026-01-24 07:10:55.938706	182.3	6.4	-66.3	6.4
2026-01-24 07:10:58.181221	182.4	6.2	-64.6	5.3
2026-01-24 07:11:00.423241	182.4	6.0	-60.3	0.8
2026-01-24 07:11:02.667757	182.5	5.9	-69.1	0.0
2026-01-24 07:11:04.904279	182.6	5.7	-71.8	0.0
2026-01-24 07:11:07.141793	182.7	5.5	-69.6	0.0
2026-01-24 07:11:09.379811	182.7	5.4	-69.0	0.0
2026-01-24 07:11:11.622823	182.8	5.2	-69.6	0.0
2026-01-24 07:11:13.857840	182.9	5.1	-70.5	0.0
#Closed at: 2026-01-24 06:58:29.768118