passes_logs/2026/01/24/PlanumMoscow/PlanumMoscow__20260124_083012_METOP-C_rec.log

#Pass ID: 20260124_083012_METOP-C
#Satellite: METOP-C
#Configuration: METOP-C
#Start time: 2026-01-24 08:30:17.664773

#LorettStation: 1.0.0 05.05.2024
#Station: PlanumMoscow
#Location: 37.6253844 lon 55.6713361 lat
#TLE: 1 43689U 18087A   25293.88981035  .00000265  00000+0  14109-3 0  9997
#TLE: 2 43689  98.7006 352.4487 0002041 122.1097 238.0279 14.21482740360838

#Time	Az	El	Level	SNR
2026-01-24 08:33:56.119044	354.5	26.8	-63.4	0.0
2026-01-24 08:33:58.363084	354.2	27.1	-64.5	0.0
2026-01-24 08:34:00.607103	353.8	27.5	-64.2	0.0
2026-01-24 08:34:02.851143	353.4	27.8	-64.9	0.0
2026-01-24 08:34:05.095162	353.0	28.1	-64.0	0.0
2026-01-24 08:34:07.338700	352.6	28.5	-65.0	0.0
2026-01-24 08:34:09.583207	352.2	28.8	-64.9	0.0
2026-01-24 08:34:11.827247	351.8	29.1	-64.2	0.0
2026-01-24 08:34:14.071761	351.3	29.5	-65.3	0.0
2026-01-24 08:34:16.317268	350.9	29.8	-65.6	0.0
2026-01-24 08:34:18.561309	350.5	30.2	-64.6	0.0
2026-01-24 08:34:20.805826	350.0	30.5	-65.6	0.0
2026-01-24 08:34:23.049370	349.5	30.9	-66.3	0.0
2026-01-24 08:34:25.293885	349.0	31.3	-65.7	0.0
2026-01-24 08:34:27.537925	348.5	31.6	-65.8	0.0
2026-01-24 08:34:29.781440	348.0	32.0	-66.0	0.0
2026-01-24 08:34:32.024495	347.5	32.3	-66.1	0.0
2026-01-24 08:34:34.268514	347.0	32.7	-66.7	0.0
2026-01-24 08:34:36.513021	346.5	33.1	-66.8	0.0
2026-01-24 08:34:38.761572	345.9	33.4	-66.5	0.0
2026-01-24 08:34:41.007087	345.4	33.8	-67.3	0.0
2026-01-24 08:34:43.250630	344.8	34.2	-67.0	0.0
2026-01-24 08:34:45.499146	344.2	34.5	-67.5	0.0
2026-01-24 08:34:47.743205	343.6	34.9	-67.2	0.0
2026-01-24 08:34:49.985756	343.0	35.3	-66.9	0.0
2026-01-24 08:34:52.228812	342.3	35.7	-66.2	0.0
2026-01-24 08:34:54.473327	341.7	36.0	-66.9	0.0
2026-01-24 08:34:56.717834	341.0	36.4	-67.5	0.0
2026-01-24 08:34:58.962875	340.3	36.8	-67.2	0.0
2026-01-24 08:35:01.206931	339.6	37.2	-67.5	0.0
2026-01-24 08:35:03.451438	338.9	37.5	-68.1	0.0
2026-01-24 08:35:05.695989	338.2	37.9	-67.7	0.0
2026-01-24 08:35:07.939008	337.5	38.3	-67.4	0.0
2026-01-24 08:35:10.183019	336.7	38.6	-67.0	0.0
2026-01-24 08:35:12.426557	335.9	39.0	-67.3	0.0
2026-01-24 08:35:14.675578	335.1	39.4	-67.7	0.0
2026-01-24 08:35:16.920085	334.3	39.7	-68.1	0.0
2026-01-24 08:35:19.163629	333.5	40.1	-67.7	0.0
2026-01-24 08:35:21.407650	332.6	40.4	-68.0	0.0
2026-01-24 08:35:23.650699	331.8	40.8	-68.4	0.0
2026-01-24 08:35:25.895213	330.9	41.1	-68.9	0.0
2026-01-24 08:35:28.139283	330.0	41.5	-68.5	0.0
2026-01-24 08:35:30.383302	329.0	41.8	-68.9	0.0
2026-01-24 08:35:32.627335	328.1	42.1	-67.4	0.0
2026-01-24 08:35:34.871842	327.1	42.5	-68.8	0.0
2026-01-24 08:35:37.116357	326.1	42.8	-68.8	0.0
2026-01-24 08:35:39.360406	325.1	43.1	-69.0	0.0
2026-01-24 08:35:41.604921	324.1	43.4	-67.9	0.0
2026-01-24 08:35:43.849464	323.0	43.7	-68.9	0.0
2026-01-24 08:35:46.098980	322.0	44.0	-68.1	0.0
2026-01-24 08:35:48.343525	320.9	44.3	-68.2	0.0
2026-01-24 08:35:50.588032	319.8	44.5	-68.7	0.0
2026-01-24 08:35:52.832539	318.7	44.8	-68.3	0.0
2026-01-24 08:35:55.081550	317.5	45.0	-68.8	0.0
2026-01-24 08:35:57.326057	316.4	45.3	-68.2	0.0
2026-01-24 08:35:59.570564	315.2	45.5	-68.2	0.0
2026-01-24 08:36:01.815071	314.0	45.7	-68.9	0.0
2026-01-24 08:36:04.060082	312.8	45.9	-68.0	0.0
2026-01-24 08:36:06.304589	311.6	46.1	-67.7	0.0
2026-01-24 08:36:08.548600	310.3	46.3	-68.6	0.0
2026-01-24 08:36:10.793107	309.1	46.4	-67.9	0.0
2026-01-24 08:36:13.039134	307.8	46.6	-68.7	0.0
2026-01-24 08:36:15.283174	306.5	46.7	-68.2	0.0
2026-01-24 08:36:17.527688	305.2	46.8	-67.0	0.0
2026-01-24 08:36:19.770731	304.0	46.9	-68.5	0.0
2026-01-24 08:36:22.014742	302.7	47.0	-68.3	0.0
2026-01-24 08:36:24.259257	301.3	47.0	-67.9	0.0
2026-01-24 08:36:26.503298	300.0	47.1	-68.2	0.0
2026-01-24 08:36:28.747318	298.7	47.1	-67.9	0.0
2026-01-24 08:36:30.991863	297.4	47.1	-67.6	0.0
2026-01-24 08:36:33.236378	296.1	47.1	-67.2	0.0
2026-01-24 08:36:35.480426	294.8	47.1	-68.1	0.0
2026-01-24 08:36:37.724941	293.5	47.1	-68.5	0.0
2026-01-24 08:36:39.969448	292.2	47.0	-68.1	0.0
2026-01-24 08:36:42.214000	290.8	47.0	-67.8	0.0
2026-01-24 08:36:44.457549	289.5	46.9	-68.2	0.0
2026-01-24 08:36:46.701612	288.3	46.8	-68.3	0.0
2026-01-24 08:36:48.945653	287.0	46.7	-66.9	0.0
2026-01-24 08:36:51.190664	285.7	46.5	-68.3	0.0
2026-01-24 08:36:53.435171	284.4	46.4	-69.2	0.0
2026-01-24 08:36:55.679190	283.2	46.2	-68.6	0.0
2026-01-24 08:36:57.923238	281.9	46.1	-68.1	0.0
2026-01-24 08:37:00.167755	280.7	45.9	-68.0	0.0
2026-01-24 08:37:02.411794	279.5	45.7	-67.9	0.0
2026-01-24 08:37:04.655855	278.3	45.5	-66.6	0.0
2026-01-24 08:37:06.899370	277.1	45.2	-67.3	0.0
2026-01-24 08:37:09.143877	276.0	45.0	-67.9	0.0
2026-01-24 08:37:11.387421	274.8	44.7	-67.3	0.0
2026-01-24 08:37:13.635939	273.7	44.5	-67.9	0.0
2026-01-24 08:37:15.880453	272.6	44.2	-67.6	0.0
2026-01-24 08:37:18.124494	271.5	43.9	-67.7	0.0
2026-01-24 08:37:20.368543	270.5	43.6	-67.5	0.0
2026-01-24 08:37:22.613554	269.4	43.3	-66.7	0.0
2026-01-24 08:37:24.860088	268.4	43.0	-65.9	0.0
2026-01-24 08:37:27.104122	267.4	42.7	-65.8	0.0
2026-01-24 08:37:29.351143	266.4	42.4	-66.3	0.0
2026-01-24 08:37:31.595650	265.4	42.1	-66.0	0.0
2026-01-24 08:37:33.840692	264.5	41.7	-64.9	0.0
2026-01-24 08:37:36.084712	263.6	41.4	-65.7	0.0
2026-01-24 08:37:38.330256	262.6	41.1	-65.3	0.0
2026-01-24 08:37:40.575275	261.8	40.7	-65.8	0.0
2026-01-24 08:37:42.819309	260.9	40.4	-64.2	0.0
2026-01-24 08:37:45.062824	260.0	40.0	-65.9	0.0
2026-01-24 08:37:47.306863	259.2	39.6	-66.0	0.0
2026-01-24 08:37:49.550925	258.4	39.3	-65.7	0.0
2026-01-24 08:37:51.795432	257.6	38.9	-65.4	0.0
2026-01-24 08:37:54.043987	256.8	38.5	-63.6	0.0
2026-01-24 08:37:56.288494	256.0	38.2	-63.3	0.0
2026-01-24 08:37:58.533008	255.3	37.8	-62.6	0.0
2026-01-24 08:38:00.776565	254.6	37.4	-62.4	0.0
2026-01-24 08:38:03.020583	253.9	37.1	-61.1	0.0
2026-01-24 08:38:05.265090	253.2	36.7	-63.8	0.0
2026-01-24 08:38:07.512607	252.5	36.3	-63.5	0.0
2026-01-24 08:38:09.756618	251.8	35.9	-63.2	0.0
2026-01-24 08:38:12.000659	251.2	35.6	-62.2	0.0
2026-01-24 08:38:14.245174	250.5	35.2	-62.4	0.0
2026-01-24 08:38:16.489185	249.9	34.8	-61.6	0.0
2026-01-24 08:38:18.733692	249.3	34.4	-61.5	0.0
2026-01-24 08:38:20.978198	248.7	34.1	-61.3	0.0
2026-01-24 08:38:23.221216	248.2	33.7	-61.9	0.0
2026-01-24 08:38:25.465723	247.6	33.3	-62.2	0.0
2026-01-24 08:38:27.710735	247.0	32.9	-62.5	0.0
2026-01-24 08:38:29.954305	246.5	32.6	-61.8	0.0
2026-01-24 08:38:32.201813	246.0	32.2	-61.5	0.0
2026-01-24 08:38:34.446327	245.5	31.9	-59.7	0.0
2026-01-24 08:38:36.695835	245.0	31.5	-62.3	0.0
2026-01-24 08:38:38.943887	244.5	31.1	-62.8	0.0
2026-01-24 08:38:41.188402	244.0	30.8	-61.6	0.0
2026-01-24 08:38:43.434446	243.5	30.4	-61.3	0.0
2026-01-24 08:38:45.679498	243.1	30.1	-58.5	0.0
2026-01-24 08:38:47.925005	242.6	29.7	-60.8	0.0
2026-01-24 08:38:50.171511	242.2	29.4	-59.8	0.0
2026-01-24 08:38:52.416027	241.7	29.0	-62.2	0.0
2026-01-24 08:38:54.689619	241.3	28.7	-58.8	0.0
2026-01-24 08:38:56.934126	240.9	28.3	-59.0	0.0
2026-01-24 08:38:59.178633	240.5	28.0	-59.3	0.0
2026-01-24 08:39:01.422645	240.1	27.6	-60.0	0.0
2026-01-24 08:39:03.666190	239.7	27.3	-60.0	0.0
2026-01-24 08:39:05.908234	239.3	27.0	-57.1	0.0
2026-01-24 08:39:08.152749	239.0	26.7	-59.2	0.0
2026-01-24 08:39:10.396810	238.6	26.3	-57.9	0.0
2026-01-24 08:39:12.639836	238.2	26.0	-60.7	0.0
2026-01-24 08:39:14.882856	237.9	25.7	-58.0	0.0
2026-01-24 08:39:17.126409	237.5	25.4	-59.9	0.0
2026-01-24 08:39:19.369934	237.2	25.1	-58.5	0.0
2026-01-24 08:39:21.613474	236.9	24.7	-60.3	0.0
2026-01-24 08:39:23.857492	236.6	24.4	-61.5	0.0
2026-01-24 08:39:26.101040	236.2	24.1	-61.5	0.0
2026-01-24 08:39:28.345556	235.9	23.8	-62.8	0.0
2026-01-24 08:39:30.589604	235.6	23.5	-62.9	0.0
2026-01-24 08:39:32.837634	235.3	23.2	-61.1	0.0
2026-01-24 08:39:35.086647	235.0	22.9	-60.1	0.0
2026-01-24 08:39:37.331206	234.8	22.6	-61.7	0.0
2026-01-24 08:39:39.579267	234.5	22.3	-62.8	0.0
2026-01-24 08:39:41.823278	234.2	22.0	-62.8	0.0
2026-01-24 08:39:44.067299	233.9	21.8	-60.8	0.0
2026-01-24 08:39:46.316340	233.7	21.5	-62.0	0.0
2026-01-24 08:39:48.562389	233.4	21.2	-62.2	0.0
2026-01-24 08:39:50.807904	233.1	20.9	-63.9	0.0
2026-01-24 08:39:53.052441	232.9	20.6	-63.8	0.0
2026-01-24 08:39:55.299977	232.7	20.4	-61.8	0.0
2026-01-24 08:39:57.542502	232.4	20.1	-62.3	0.0
2026-01-24 08:39:59.785538	232.2	19.8	-62.2	0.0
2026-01-24 08:40:02.024052	231.9	19.6	-61.9	0.0
2026-01-24 08:40:04.268063	231.7	19.3	-58.2	0.0
2026-01-24 08:40:06.512578	231.5	19.0	-61.0	0.0
2026-01-24 08:40:08.760102	231.3	18.8	-61.6	0.0
2026-01-24 08:40:11.004609	231.0	18.5	-61.8	0.0
2026-01-24 08:40:13.248125	230.8	18.3	-60.5	0.0
2026-01-24 08:40:15.492136	230.6	18.0	-61.4	0.0
2026-01-24 08:40:17.735651	230.4	17.8	-62.7	0.0
2026-01-24 08:40:19.978670	230.2	17.5	-61.4	0.0
2026-01-24 08:40:22.222185	230.0	17.3	-61.6	0.0
2026-01-24 08:40:24.466708	229.8	17.0	-61.6	0.0
2026-01-24 08:40:26.710719	229.6	16.8	-62.2	0.0
2026-01-24 08:40:28.953738	229.4	16.5	-62.4	0.0
2026-01-24 08:40:31.197253	229.2	16.3	-62.9	0.0
2026-01-24 08:40:33.445273	229.1	16.1	-61.9	0.0
2026-01-24 08:40:35.684292	228.9	15.8	-61.5	0.0
2026-01-24 08:40:37.923310	228.7	15.6	-62.9	0.0
2026-01-24 08:40:40.161320	228.5	15.4	-63.6	0.0
2026-01-24 08:40:42.404341	228.4	15.1	-63.2	0.0
2026-01-24 08:40:44.648351	228.2	14.9	-63.2	0.0
2026-01-24 08:40:46.890858	228.0	14.7	-63.5	0.0
2026-01-24 08:40:49.131380	227.9	14.5	-64.2	0.0
2026-01-24 08:40:51.371398	227.7	14.2	-63.1	0.0
2026-01-24 08:40:53.614913	227.5	14.0	-63.6	0.0
2026-01-24 08:40:55.858935	227.4	13.8	-63.1	0.0
2026-01-24 08:40:58.101458	227.2	13.6	-63.0	0.0
2026-01-24 08:41:00.342987	227.1	13.4	-63.3	0.0
2026-01-24 08:41:02.591503	226.9	13.2	-63.5	0.0
2026-01-24 08:41:04.837010	226.8	13.0	-63.1	0.0
2026-01-24 08:41:07.080525	226.6	12.7	-62.8	0.0
2026-01-24 08:41:09.324040	226.5	12.5	-62.8	0.0
2026-01-24 08:41:11.572558	226.3	12.3	-63.3	0.0
2026-01-24 08:41:13.815577	226.2	12.1	-63.2	0.0
2026-01-24 08:41:16.059588	226.1	11.9	-63.4	0.0
2026-01-24 08:41:18.308097	225.9	11.7	-62.2	0.0
2026-01-24 08:41:20.551602	225.8	11.5	-63.6	0.0
2026-01-24 08:41:22.794109	225.7	11.3	-61.5	0.0
2026-01-24 08:41:25.039623	225.5	11.1	-61.9	0.0
2026-01-24 08:41:27.280642	225.4	10.9	-62.8	0.0
2026-01-24 08:41:29.522652	225.3	10.7	-63.1	0.0
2026-01-24 08:41:31.771167	225.2	10.5	-61.3	0.0
2026-01-24 08:41:34.010681	225.0	10.4	-62.1	0.0
2026-01-24 08:41:36.251692	224.9	10.2	-63.5	0.0
2026-01-24 08:41:38.492710	224.8	10.0	-63.8	0.0
2026-01-24 08:41:40.733224	224.7	9.8	-63.0	0.0
2026-01-24 08:41:42.973234	224.6	9.6	-63.1	0.0
2026-01-24 08:41:45.210748	224.4	9.4	-62.3	0.0
2026-01-24 08:41:47.456760	224.3	9.2	-62.5	0.0
2026-01-24 08:41:49.695283	224.2	9.1	-63.3	1.5
2026-01-24 08:41:51.933796	224.1	8.9	-63.9	1.3
2026-01-24 08:41:54.175303	224.0	8.7	-62.1	0.0
2026-01-24 08:41:56.422314	223.9	8.5	-62.0	0.0
2026-01-24 08:41:58.666334	223.8	8.3	-62.8	0.0
2026-01-24 08:42:00.910849	223.7	8.2	-63.1	0.0
2026-01-24 08:42:03.159366	223.6	8.0	-62.6	0.0
2026-01-24 08:42:05.402880	223.5	7.8	-62.3	0.0
2026-01-24 08:42:07.646396	223.4	7.6	-62.9	0.0
2026-01-24 08:42:09.885910	223.3	7.5	-64.6	5.7
2026-01-24 08:42:12.125930	223.2	7.3	-64.6	2.8
2026-01-24 08:42:14.364949	223.1	7.1	-65.4	3.3
2026-01-24 08:42:16.606959	223.0	7.0	-64.6	0.1
2026-01-24 08:42:18.850970	222.9	6.8	-66.0	5.6
2026-01-24 08:42:21.093981	222.8	6.6	-64.4	5.8
2026-01-24 08:42:23.334009	222.7	6.5	-64.7	5.7
2026-01-24 08:42:25.574524	222.6	6.3	-65.4	5.5
2026-01-24 08:42:27.817030	222.5	6.1	-65.7	3.9
2026-01-24 08:42:30.059057	222.4	6.0	-62.3	5.1
2026-01-24 08:42:32.299589	222.3	5.8	-61.6	0.0
2026-01-24 08:42:34.539608	222.3	5.6	-62.5	0.0
2026-01-24 08:42:36.781123	222.2	5.5	-67.1	0.0
2026-01-24 08:42:39.020637	222.1	5.3	-70.1	0.0
2026-01-24 08:42:41.259160	222.0	5.2	-71.6	0.0
2026-01-24 08:42:43.497682	221.9	5.0	-70.8	0.0
#Closed at: 2026-01-24 08:30:12.665743