passes_logs/2026/01/24/PlanumMoscow/PlanumMoscow__20260124_174304_METOP-B_rec.log

#Pass ID: 20260124_174304_METOP-B
#Satellite: METOP-B
#Configuration: METOP-B
#Start time: 2026-01-24 17:43:09.432275

#LorettStation: 1.0.0 05.05.2024
#Station: PlanumMoscow
#Location: 37.6253844 lon 55.6713361 lat
#TLE: 1 38771U 12049A   25293.92766658  .00000266  00000+0  14193-3 0  9996
#TLE: 2 38771  98.6882 344.7603 0001609 341.5209  18.5909 14.21379342679275

#Time	Az	El	Level	SNR
2026-01-24 17:46:47.845369	173.2	29.6	-62.9	7.3
2026-01-24 17:46:50.090430	173.3	30.0	-63.4	8.3
2026-01-24 17:46:52.332956	173.4	30.4	-64.0	9.2
2026-01-24 17:46:54.574983	173.6	30.9	-63.6	7.9
2026-01-24 17:46:56.818579	173.7	31.3	-64.3	7.2
2026-01-24 17:46:59.062152	173.9	31.7	-64.8	8.8
2026-01-24 17:47:01.305172	174.0	32.2	-63.4	7.2
2026-01-24 17:47:03.547206	174.2	32.7	-63.5	5.7
2026-01-24 17:47:05.791771	174.3	33.1	-64.0	7.1
2026-01-24 17:47:08.035347	174.5	33.6	-63.7	5.6
2026-01-24 17:47:10.279418	174.7	34.1	-64.2	7.1
2026-01-24 17:47:12.522941	174.8	34.6	-64.9	7.7
2026-01-24 17:47:14.766998	175.0	35.1	-64.9	7.2
2026-01-24 17:47:17.009521	175.2	35.6	-63.7	6.6
2026-01-24 17:47:19.253540	175.4	36.1	-64.5	7.5
2026-01-24 17:47:21.497055	175.6	36.6	-64.0	7.3
2026-01-24 17:47:23.740075	175.8	37.2	-64.6	6.9
2026-01-24 17:47:25.984086	176.0	37.7	-64.8	9.2
2026-01-24 17:47:28.226610	176.2	38.3	-64.2	8.7
2026-01-24 17:47:30.469658	176.4	38.8	-64.4	7.4
2026-01-24 17:47:32.713677	176.6	39.4	-64.5	9.8
2026-01-24 17:47:34.956747	176.9	40.0	-64.4	9.5
2026-01-24 17:47:37.200784	177.1	40.6	-64.4	10.4
2026-01-24 17:47:39.443843	177.3	41.1	-64.2	9.4
2026-01-24 17:47:41.688350	177.6	41.8	-63.9	9.1
2026-01-24 17:47:43.931378	177.9	42.4	-64.4	9.8
2026-01-24 17:47:46.174427	178.2	43.0	-64.0	8.6
2026-01-24 17:47:48.416961	178.4	43.6	-65.0	9.2
2026-01-24 17:47:50.660025	178.7	44.3	-64.9	9.1
2026-01-24 17:47:52.902557	179.1	44.9	-65.2	9.0
2026-01-24 17:47:55.146080	179.4	45.6	-65.4	9.0
2026-01-24 17:47:57.390141	179.7	46.2	-65.4	8.3
2026-01-24 17:47:59.636176	180.1	46.9	-65.5	8.3
2026-01-24 17:48:01.878227	180.5	47.6	-65.3	8.8
2026-01-24 17:48:04.122265	180.8	48.3	-65.3	9.2
2026-01-24 17:48:06.365314	181.3	49.0	-65.2	9.0
2026-01-24 17:48:08.609838	181.7	49.8	-64.9	8.9
2026-01-24 17:48:10.852888	182.1	50.5	-64.9	9.8
2026-01-24 17:48:13.097395	182.6	51.2	-65.1	10.0
2026-01-24 17:48:15.344414	183.1	52.0	-65.3	8.9
2026-01-24 17:48:17.587951	183.6	52.7	-65.7	10.3
2026-01-24 17:48:19.830978	184.1	53.5	-65.5	8.7
2026-01-24 17:48:22.075019	184.7	54.3	-65.9	8.6
2026-01-24 17:48:24.320526	185.3	55.1	-65.9	7.6
2026-01-24 17:48:26.566033	186.0	55.9	-66.6	7.7
2026-01-24 17:48:28.809082	186.6	56.7	-66.5	7.9
2026-01-24 17:48:31.053101	187.3	57.5	-66.5	8.0
2026-01-24 17:48:33.297647	188.1	58.3	-66.2	7.8
2026-01-24 17:48:35.541658	188.9	59.2	-66.0	7.5
2026-01-24 17:48:37.790678	189.8	60.0	-66.4	8.2
2026-01-24 17:48:40.034223	190.7	60.8	-67.0	8.3
2026-01-24 17:48:42.278242	191.7	61.7	-66.8	8.3
2026-01-24 17:48:44.521788	192.7	62.5	-66.6	8.6
2026-01-24 17:48:46.765808	193.8	63.4	-66.6	7.5
2026-01-24 17:48:49.010336	195.1	64.2	-67.7	7.2
2026-01-24 17:48:51.254851	196.4	65.1	-67.7	7.4
2026-01-24 17:48:53.499399	197.8	65.9	-67.8	6.9
2026-01-24 17:48:55.743914	199.3	66.7	-68.0	7.2
2026-01-24 17:48:57.988421	200.9	67.6	-68.1	7.3
2026-01-24 17:49:00.231970	202.7	68.4	-68.5	7.2
2026-01-24 17:49:02.480982	204.6	69.2	-68.1	6.2
2026-01-24 17:49:04.725024	206.7	70.0	-67.9	7.0
2026-01-24 17:49:06.970045	208.9	70.8	-68.3	6.3
2026-01-24 17:49:09.214598	211.4	71.5	-67.6	5.9
2026-01-24 17:49:11.459105	214.1	72.2	-67.8	6.2
2026-01-24 17:49:13.703620	217.0	72.9	-68.2	6.2
2026-01-24 17:49:15.947169	220.2	73.6	-68.2	6.1
2026-01-24 17:49:18.191684	223.6	74.1	-68.7	6.0
2026-01-24 17:49:20.435726	227.3	74.7	-68.7	4.7
2026-01-24 17:49:22.680241	231.2	75.2	-68.5	4.0
2026-01-24 17:49:24.926294	235.4	75.6	-68.7	4.8
2026-01-24 17:49:27.170313	239.8	75.9	-68.7	5.0
2026-01-24 17:49:29.414324	244.4	76.1	-68.8	4.7
2026-01-24 17:49:31.657373	249.1	76.3	-68.4	3.1
2026-01-24 17:49:33.903414	253.9	76.3	-69.0	3.6
2026-01-24 17:49:36.147921	258.7	76.3	-69.0	2.8
2026-01-24 17:49:38.392436	263.5	76.2	-68.9	3.4
2026-01-24 17:49:40.636943	268.2	76.0	-68.6	1.9
2026-01-24 17:49:42.880983	272.6	75.7	-68.9	2.6
2026-01-24 17:49:45.125498	276.9	75.3	-69.0	2.7
2026-01-24 17:49:47.370540	280.9	74.8	-68.4	0.0
2026-01-24 17:49:49.615054	284.7	74.3	-69.1	0.0
2026-01-24 17:49:51.859095	288.2	73.8	-68.7	1.6
2026-01-24 17:49:54.103114	291.4	73.1	-68.3	0.5
2026-01-24 17:49:56.346650	294.4	72.5	-68.2	0.0
2026-01-24 17:49:58.591165	297.2	71.8	-68.5	1.3
2026-01-24 17:50:00.835672	299.7	71.0	-68.8	0.0
2026-01-24 17:50:03.078225	302.0	70.3	-68.6	1.6
2026-01-24 17:50:05.322275	304.2	69.5	-69.2	0.7
2026-01-24 17:50:07.565843	306.1	68.7	-68.7	0.0
2026-01-24 17:50:09.812350	308.0	67.9	-68.0	0.0
2026-01-24 17:50:12.057865	309.6	67.0	-68.4	0.5
2026-01-24 17:50:14.302413	311.2	66.2	-69.0	0.0
2026-01-24 17:50:16.546927	312.6	65.4	-68.1	0.0
2026-01-24 17:50:18.790472	314.0	64.5	-68.3	0.0
2026-01-24 17:50:21.034986	315.2	63.7	-67.7	0.0
2026-01-24 17:50:23.280027	316.3	62.8	-67.6	0.0
2026-01-24 17:50:25.524542	317.4	62.0	-67.9	2.1
2026-01-24 17:50:27.768590	318.4	61.1	-67.6	0.0
2026-01-24 17:50:30.013104	319.4	60.3	-68.1	0.3
2026-01-24 17:50:32.257115	320.2	59.5	-67.4	0.6
2026-01-24 17:50:34.501660	321.1	58.6	-67.4	1.8
2026-01-24 17:50:36.745679	321.8	57.8	-68.1	2.9
2026-01-24 17:50:38.990721	322.6	57.0	-67.3	2.6
2026-01-24 17:50:41.233740	323.3	56.2	-67.4	3.9
2026-01-24 17:50:43.478797	323.9	55.4	-67.2	3.5
2026-01-24 17:50:45.723311	324.5	54.6	-67.0	3.5
2026-01-24 17:50:47.966826	325.1	53.8	-66.8	4.4
2026-01-24 17:50:50.211370	325.7	53.1	-66.8	4.3
2026-01-24 17:50:52.455884	326.2	52.3	-66.5	3.8
2026-01-24 17:50:54.699438	326.7	51.6	-66.7	5.1
2026-01-24 17:50:56.942968	327.2	50.8	-67.2	6.2
2026-01-24 17:50:59.188512	327.6	50.1	-66.3	4.9
2026-01-24 17:51:01.433028	328.0	49.4	-65.8	3.3
2026-01-24 17:51:03.675575	328.5	48.6	-66.1	4.4
2026-01-24 17:51:05.920082	328.9	47.9	-66.8	4.9
2026-01-24 17:51:08.164635	329.2	47.2	-67.2	6.3
2026-01-24 17:51:10.408646	329.6	46.6	-67.0	5.7
2026-01-24 17:51:12.653161	329.9	45.9	-66.9	6.1
2026-01-24 17:51:14.897202	330.3	45.2	-66.6	6.6
2026-01-24 17:51:17.141717	330.6	44.6	-66.0	7.1
2026-01-24 17:51:19.390234	330.9	43.9	-66.3	7.5
2026-01-24 17:51:21.634294	331.2	43.3	-66.2	6.8
2026-01-24 17:51:23.878809	331.5	42.7	-65.8	6.3
2026-01-24 17:51:26.121859	331.7	42.1	-66.1	7.5
2026-01-24 17:51:28.368366	332.0	41.5	-66.0	7.4
2026-01-24 17:51:30.612917	332.3	40.9	-65.7	6.8
2026-01-24 17:51:32.857432	332.5	40.3	-66.0	7.1
2026-01-24 17:51:35.100987	332.8	39.7	-65.8	5.7
2026-01-24 17:51:37.345493	333.0	39.1	-66.0	6.7
2026-01-24 17:51:39.590009	333.2	38.6	-65.5	6.3
2026-01-24 17:51:41.836561	333.4	38.0	-65.5	6.8
2026-01-24 17:51:44.081076	333.6	37.5	-65.4	6.8
2026-01-24 17:51:46.325117	333.8	36.9	-65.0	7.3
2026-01-24 17:51:48.569662	334.0	36.4	-64.8	7.3
2026-01-24 17:51:50.813674	334.2	35.9	-64.9	8.3
2026-01-24 17:51:53.060189	334.4	35.4	-64.3	6.9
2026-01-24 17:51:55.304696	334.6	34.9	-65.0	7.3
2026-01-24 17:51:57.553745	334.7	34.4	-64.8	7.8
2026-01-24 17:51:59.797319	334.9	33.9	-64.8	7.6
2026-01-24 17:52:02.041379	335.1	33.4	-64.5	4.9
2026-01-24 17:52:04.285398	335.2	33.0	-65.0	7.3
2026-01-24 17:52:06.529450	335.4	32.5	-65.6	7.3
2026-01-24 17:52:08.773965	335.5	32.0	-65.5	7.6
2026-01-24 17:52:11.018472	335.7	31.6	-65.4	6.4
2026-01-24 17:52:13.262011	335.8	31.1	-65.6	7.2
2026-01-24 17:52:15.506525	336.0	30.7	-65.1	7.5
2026-01-24 17:52:17.750567	336.1	30.3	-65.1	6.7
2026-01-24 17:52:19.994587	336.2	29.8	-65.1	7.3
2026-01-24 17:52:22.239132	336.4	29.4	-65.3	6.9
2026-01-24 17:52:24.483151	336.5	29.0	-65.6	7.4
2026-01-24 17:52:26.727658	336.6	28.6	-65.0	6.8
2026-01-24 17:52:28.971711	336.7	28.2	-64.5	6.8
2026-01-24 17:52:31.215761	336.9	27.8	-64.8	7.4
2026-01-24 17:52:33.459818	337.0	27.4	-65.0	6.6
2026-01-24 17:52:35.703829	337.1	27.0	-64.9	6.4
2026-01-24 17:52:37.953842	337.2	26.7	-65.4	6.7
2026-01-24 17:52:40.200349	337.3	26.3	-64.4	5.6
2026-01-24 17:52:42.444864	337.4	25.9	-65.1	6.5
2026-01-24 17:52:44.688912	337.5	25.6	-65.2	7.1
2026-01-24 17:52:46.932932	337.6	25.2	-65.6	6.1
2026-01-24 17:52:49.176975	337.7	24.8	-65.5	6.7
2026-01-24 17:52:51.427996	337.8	24.5	-65.4	6.0
2026-01-24 17:52:53.671536	337.9	24.1	-65.4	7.0
2026-01-24 17:52:55.916043	338.0	23.8	-66.2	6.9
2026-01-24 17:52:58.160557	338.1	23.5	-65.6	6.3
2026-01-24 17:53:00.404610	338.2	23.1	-65.6	5.3
2026-01-24 17:53:02.649125	338.3	22.8	-65.8	7.2
2026-01-24 17:53:04.893143	338.4	22.5	-65.9	7.4
2026-01-24 17:53:07.140682	338.4	22.2	-65.5	6.3
2026-01-24 17:53:09.385189	338.5	21.8	-65.8	6.9
2026-01-24 17:53:11.628735	338.6	21.5	-65.6	5.2
2026-01-24 17:53:13.872250	338.7	21.2	-66.0	5.8
2026-01-24 17:53:16.117299	338.8	20.9	-65.7	6.0
2026-01-24 17:53:18.361814	338.9	20.6	-65.4	6.0
2026-01-24 17:53:20.606321	338.9	20.3	-65.7	7.3
2026-01-24 17:53:22.850371	339.0	20.0	-65.2	6.8
2026-01-24 17:53:25.101879	339.1	19.7	-65.5	6.6
2026-01-24 17:53:27.347386	339.2	19.5	-65.9	6.8
2026-01-24 17:53:29.591893	339.2	19.2	-65.6	5.8
2026-01-24 17:53:31.835409	339.3	18.9	-65.4	5.8
2026-01-24 17:53:34.082421	339.4	18.6	-65.6	6.0
2026-01-24 17:53:36.325450	339.4	18.3	-66.0	5.5
2026-01-24 17:53:38.569013	339.5	18.1	-65.7	5.9
2026-01-24 17:53:40.811544	339.6	17.8	-65.8	5.7
2026-01-24 17:53:43.055059	339.6	17.5	-65.7	6.2
2026-01-24 17:53:45.297621	339.7	17.3	-65.2	5.1
2026-01-24 17:53:47.539649	339.8	17.0	-65.5	6.6
2026-01-24 17:53:49.782700	339.8	16.8	-65.6	6.3
2026-01-24 17:53:52.025224	339.9	16.5	-65.7	3.4
2026-01-24 17:53:54.269289	339.9	16.3	-66.1	4.7
2026-01-24 17:53:56.522352	340.0	16.0	-65.5	4.5
2026-01-24 17:53:58.765883	340.1	15.8	-66.2	5.4
2026-01-24 17:54:01.009946	340.1	15.5	-65.9	4.2
2026-01-24 17:54:03.252982	340.2	15.3	-65.8	4.7
2026-01-24 17:54:05.497037	340.2	15.0	-65.9	4.6
2026-01-24 17:54:07.740578	340.3	14.8	-66.0	5.0
2026-01-24 17:54:09.984626	340.3	14.6	-65.4	3.7
2026-01-24 17:54:12.233655	340.4	14.3	-65.6	3.5
2026-01-24 17:54:14.477666	340.4	14.1	-65.8	4.0
2026-01-24 17:54:16.721707	340.5	13.9	-65.1	3.8
2026-01-24 17:54:18.970231	340.6	13.6	-64.9	3.5
2026-01-24 17:54:21.213280	340.6	13.4	-64.6	0.8
2026-01-24 17:54:23.455810	340.7	13.2	-65.6	3.6
2026-01-24 17:54:25.698876	340.7	13.0	-64.9	3.3
2026-01-24 17:54:27.941897	340.8	12.8	-65.8	4.4
2026-01-24 17:54:30.185908	340.8	12.5	-65.7	3.8
2026-01-24 17:54:32.429423	340.9	12.3	-65.0	1.1
2026-01-24 17:54:34.672938	340.9	12.1	-65.1	0.8
2026-01-24 17:54:36.918457	341.0	11.9	-64.9	2.5
2026-01-24 17:54:39.161477	341.0	11.7	-64.3	1.0
2026-01-24 17:54:41.406497	341.0	11.5	-64.5	2.0
2026-01-24 17:54:43.650509	341.1	11.3	-65.1	2.6
2026-01-24 17:54:45.894520	341.1	11.1	-64.9	3.8
2026-01-24 17:54:48.139045	341.2	10.9	-64.5	1.8
2026-01-24 17:54:50.383056	341.2	10.7	-64.5	2.3
2026-01-24 17:54:52.627571	341.3	10.5	-65.8	3.8
2026-01-24 17:54:54.871087	341.3	10.3	-65.5	1.4
2026-01-24 17:54:57.117603	341.4	10.1	-65.6	1.9
2026-01-24 17:54:59.361614	341.4	9.9	-66.0	0.7
2026-01-24 17:55:01.606132	341.4	9.7	-65.1	0.0
2026-01-24 17:55:03.849152	341.5	9.5	-65.7	0.0
2026-01-24 17:55:06.092667	341.5	9.3	-64.9	0.0
2026-01-24 17:55:08.330696	341.6	9.1	-65.3	0.0
2026-01-24 17:55:10.575202	341.6	9.0	-64.7	0.0
2026-01-24 17:55:12.818221	341.6	8.8	-64.8	0.0
2026-01-24 17:55:15.060232	341.7	8.6	-64.9	0.0
2026-01-24 17:55:17.302755	341.7	8.4	-64.5	0.0
2026-01-24 17:55:19.545765	341.8	8.2	-64.9	0.0
2026-01-24 17:55:21.788281	341.8	8.0	-64.4	0.0
2026-01-24 17:55:24.031300	341.8	7.9	-64.3	0.0
2026-01-24 17:55:26.275311	341.9	7.7	-63.4	0.0
2026-01-24 17:55:28.518825	341.9	7.5	-64.6	0.0
2026-01-24 17:55:30.762347	342.0	7.3	-63.8	0.0
2026-01-24 17:55:32.989453	342.0	7.2	-63.1	0.0
2026-01-24 17:55:35.231975	342.0	7.0	-64.7	0.0
2026-01-24 17:55:37.477995	342.1	6.8	-64.4	0.0
2026-01-24 17:55:39.720518	342.1	6.7	-65.1	0.0
2026-01-24 17:55:41.964033	342.1	6.5	-64.5	0.0
2026-01-24 17:55:44.207052	342.2	6.3	-64.7	0.0
2026-01-24 17:55:46.448582	342.2	6.1	-64.5	0.0
2026-01-24 17:55:48.688592	342.2	6.0	-64.8	0.0
2026-01-24 17:55:50.932603	342.3	5.8	-67.4	0.0
2026-01-24 17:55:53.173135	342.3	5.7	-68.4	0.0
2026-01-24 17:55:55.406648	342.3	5.5	-68.3	0.0
2026-01-24 17:55:57.646176	342.4	5.3	-68.6	0.0
2026-01-24 17:55:59.881697	342.4	5.2	-68.7	0.0
2026-01-24 17:56:02.120708	342.4	5.0	-68.9	0.0
#Closed at: 2026-01-24 17:43:04.432985