passes_logs/2026/01/24/PlanumMoscow/PlanumMoscow__20260124_061317_METOP-B_rec.log

#Pass ID: 20260124_061317_METOP-B
#Satellite: METOP-B
#Configuration: METOP-B
#Start time: 2026-01-24 06:13:22.884862

#LorettStation: 1.0.0 05.05.2024
#Station: PlanumMoscow
#Location: 37.6253844 lon 55.6713361 lat
#TLE: 1 38771U 12049A   25293.92766658  .00000266  00000+0  14193-3 0  9996
#TLE: 2 38771  98.6882 344.7603 0001609 341.5209  18.5909 14.21379342679275

#Time	Az	El	Level	SNR
2026-01-24 06:17:01.451219	48.7	23.7	-63.1	2.8
2026-01-24 06:17:03.694743	49.2	23.9	-64.3	3.3
2026-01-24 06:17:05.938259	49.7	24.2	-64.6	2.9
2026-01-24 06:17:08.181774	50.1	24.4	-64.3	3.2
2026-01-24 06:17:10.426281	50.6	24.7	-64.4	5.5
2026-01-24 06:17:12.670292	51.1	24.9	-64.0	3.8
2026-01-24 06:17:14.914304	51.6	25.1	-64.6	4.3
2026-01-24 06:17:17.157323	52.1	25.4	-64.9	4.3
2026-01-24 06:17:19.399362	52.6	25.6	-64.1	3.6
2026-01-24 06:17:21.644374	53.1	25.9	-64.5	4.5
2026-01-24 06:17:23.888386	53.6	26.1	-64.5	5.2
2026-01-24 06:17:26.132893	54.1	26.3	-64.9	5.3
2026-01-24 06:17:28.376905	54.7	26.6	-65.0	2.6
2026-01-24 06:17:30.620421	55.2	26.8	-65.2	4.4
2026-01-24 06:17:32.864928	55.8	27.1	-65.1	2.5
2026-01-24 06:17:35.108443	56.3	27.3	-64.4	2.4
2026-01-24 06:17:37.348014	56.9	27.5	-64.5	0.0
2026-01-24 06:17:39.585589	57.5	27.8	-64.9	2.9
2026-01-24 06:17:41.825146	58.1	28.0	-64.3	4.5
2026-01-24 06:17:44.073672	58.7	28.2	-63.4	3.4
2026-01-24 06:17:46.318179	59.3	28.5	-64.7	3.1
2026-01-24 06:17:48.562191	59.9	28.7	-65.5	5.4
2026-01-24 06:17:50.811204	60.5	28.9	-64.0	0.0
2026-01-24 06:17:53.055719	61.1	29.2	-64.9	4.3
2026-01-24 06:17:55.300731	61.8	29.4	-64.6	1.1
2026-01-24 06:17:57.541775	62.4	29.6	-65.3	1.3
2026-01-24 06:17:59.790301	63.1	29.8	-65.4	0.7
2026-01-24 06:18:02.034808	63.7	30.0	-64.6	0.0
2026-01-24 06:18:04.278819	64.4	30.3	-64.4	0.0
2026-01-24 06:18:06.522335	65.1	30.5	-64.3	0.0
2026-01-24 06:18:08.766842	65.8	30.7	-64.1	0.0
2026-01-24 06:18:11.010357	66.5	30.9	-63.3	0.0
2026-01-24 06:18:13.252882	67.2	31.1	-63.2	0.4
2026-01-24 06:18:15.495416	67.9	31.3	-63.1	0.0
2026-01-24 06:18:17.739923	68.6	31.5	-63.3	0.0
2026-01-24 06:18:19.984430	69.4	31.7	-61.6	0.0
2026-01-24 06:18:22.228441	70.1	31.9	-63.7	0.0
2026-01-24 06:18:24.472948	70.9	32.1	-62.2	0.0
2026-01-24 06:18:26.716959	71.6	32.3	-62.2	0.0
2026-01-24 06:18:28.961465	72.4	32.4	-62.6	0.4
2026-01-24 06:18:31.202024	73.2	32.6	-62.8	0.0
2026-01-24 06:18:33.445079	74.0	32.8	-62.7	0.6
2026-01-24 06:18:35.684141	74.7	32.9	-63.6	3.5
2026-01-24 06:18:37.929701	75.6	33.1	-61.9	0.0
2026-01-24 06:18:40.173712	76.4	33.3	-62.2	0.0
2026-01-24 06:18:42.418219	77.2	33.4	-61.5	0.0
2026-01-24 06:18:44.662230	78.0	33.5	-63.1	0.0
2026-01-24 06:18:46.906242	78.8	33.7	-63.1	0.0
2026-01-24 06:18:49.150253	79.7	33.8	-62.2	0.0
2026-01-24 06:18:51.394760	80.5	33.9	-61.7	0.0
2026-01-24 06:18:53.633823	81.4	34.1	-63.0	0.0
2026-01-24 06:18:55.875404	82.2	34.2	-63.5	0.0
2026-01-24 06:18:58.113972	83.1	34.3	-63.9	0.0
2026-01-24 06:19:00.351553	84.0	34.4	-63.8	0.0
2026-01-24 06:19:02.595574	84.8	34.5	-61.4	0.0
2026-01-24 06:19:04.840081	85.7	34.5	-63.6	2.1
2026-01-24 06:19:07.084588	86.6	34.6	-62.6	0.6
2026-01-24 06:19:09.328104	87.5	34.7	-63.6	0.0
2026-01-24 06:19:11.572116	88.4	34.7	-63.4	3.3
2026-01-24 06:19:13.816623	89.3	34.8	-63.2	1.1
2026-01-24 06:19:16.063130	90.2	34.8	-63.9	2.9
2026-01-24 06:19:18.300711	91.1	34.9	-64.1	3.8
2026-01-24 06:19:20.539780	92.0	34.9	-63.6	0.0
2026-01-24 06:19:22.777861	92.9	34.9	-64.2	1.5
2026-01-24 06:19:25.016930	93.8	35.0	-64.4	0.3
2026-01-24 06:19:27.262502	94.7	35.0	-64.6	1.5
2026-01-24 06:19:29.500575	95.6	35.0	-64.8	1.4
2026-01-24 06:19:31.738644	96.5	35.0	-65.2	3.0
2026-01-24 06:19:33.982665	97.4	34.9	-65.0	3.9
2026-01-24 06:19:36.227172	98.3	34.9	-65.8	4.6
2026-01-24 06:19:38.471679	99.2	34.9	-65.1	2.3
2026-01-24 06:19:40.715691	100.1	34.8	-63.3	1.3
2026-01-24 06:19:42.960198	101.0	34.8	-65.8	3.4
2026-01-24 06:19:45.204705	101.9	34.7	-65.3	4.0
2026-01-24 06:19:47.449212	102.7	34.7	-66.0	3.5
2026-01-24 06:19:49.688768	103.6	34.6	-65.3	5.8
2026-01-24 06:19:51.927839	104.5	34.5	-65.6	5.0
2026-01-24 06:19:54.165912	105.4	34.4	-66.0	5.8
2026-01-24 06:19:56.407463	106.3	34.4	-66.2	5.6
2026-01-24 06:19:58.651969	107.1	34.3	-66.3	5.9
2026-01-24 06:20:00.895980	108.0	34.2	-65.8	4.9
2026-01-24 06:20:03.140487	108.9	34.0	-65.7	5.2
2026-01-24 06:20:05.385499	109.7	33.9	-65.7	3.8
2026-01-24 06:20:07.630006	110.6	33.8	-66.7	5.7
2026-01-24 06:20:09.874513	111.4	33.7	-65.9	5.3
2026-01-24 06:20:12.115061	112.2	33.5	-65.5	3.9
2026-01-24 06:20:14.359568	113.1	33.4	-64.8	5.4
2026-01-24 06:20:16.603580	113.9	33.2	-65.8	4.3
2026-01-24 06:20:18.848086	114.7	33.1	-65.9	5.2
2026-01-24 06:20:21.092097	115.5	32.9	-64.2	3.3
2026-01-24 06:20:23.336604	116.3	32.8	-66.0	5.3
2026-01-24 06:20:25.581111	117.1	32.6	-65.5	5.6
2026-01-24 06:20:27.823635	117.9	32.4	-66.3	5.3
2026-01-24 06:20:30.066655	118.6	32.2	-63.1	0.0
2026-01-24 06:20:32.311163	119.4	32.1	-64.2	2.6
2026-01-24 06:20:34.555173	120.2	31.9	-64.9	5.1
2026-01-24 06:20:36.800680	120.9	31.7	-65.8	5.7
2026-01-24 06:20:39.046187	121.6	31.5	-65.3	5.0
2026-01-24 06:20:41.290694	122.4	31.3	-65.3	4.3
2026-01-24 06:20:43.535201	123.1	31.1	-65.0	5.1
2026-01-24 06:20:45.779708	123.8	30.9	-64.6	3.7
2026-01-24 06:20:48.024215	124.5	30.7	-66.0	6.7
2026-01-24 06:20:50.267730	125.2	30.4	-64.1	2.4
2026-01-24 06:20:52.512237	125.9	30.2	-66.1	7.5
2026-01-24 06:20:54.758753	126.6	30.0	-65.2	4.9
2026-01-24 06:20:57.003260	127.2	29.8	-66.4	6.0
2026-01-24 06:20:59.245289	127.9	29.6	-66.1	6.0
2026-01-24 06:21:01.486343	128.5	29.3	-66.9	6.2
2026-01-24 06:21:03.730850	129.2	29.1	-66.2	6.5
2026-01-24 06:21:05.974861	129.8	28.9	-66.1	5.2
2026-01-24 06:21:08.218872	130.4	28.7	-66.4	6.2
2026-01-24 06:21:10.464883	131.0	28.4	-66.0	4.3
2026-01-24 06:21:12.708895	131.6	28.2	-66.3	6.2
2026-01-24 06:21:14.953402	132.2	28.0	-66.4	6.5
2026-01-24 06:21:17.195925	132.8	27.7	-65.9	4.4
2026-01-24 06:21:19.440441	133.4	27.5	-64.9	4.0
2026-01-24 06:21:21.684948	134.0	27.2	-66.1	6.8
2026-01-24 06:21:23.928959	134.5	27.0	-65.9	7.2
2026-01-24 06:21:26.175970	135.1	26.8	-65.8	7.3
2026-01-24 06:21:28.419982	135.6	26.5	-65.9	7.3
2026-01-24 06:21:30.664489	136.2	26.3	-65.4	7.0
2026-01-24 06:21:32.907012	136.7	26.0	-65.8	8.2
2026-01-24 06:21:35.150032	137.2	25.8	-65.8	7.4
2026-01-24 06:21:37.394539	137.7	25.5	-65.5	7.4
2026-01-24 06:21:39.638550	138.2	25.3	-65.2	7.9
2026-01-24 06:21:41.882066	138.7	25.1	-65.5	7.7
2026-01-24 06:21:44.126077	139.2	24.8	-64.1	7.0
2026-01-24 06:21:46.370584	139.7	24.6	-65.3	6.7
2026-01-24 06:21:48.615091	140.2	24.3	-65.3	6.2
2026-01-24 06:21:50.860633	140.7	24.1	-64.9	6.0
2026-01-24 06:21:53.105140	141.1	23.9	-65.3	8.0
2026-01-24 06:21:55.349151	141.6	23.6	-65.2	6.6
2026-01-24 06:21:57.593162	142.0	23.4	-66.0	8.7
2026-01-24 06:21:59.839174	142.5	23.1	-65.3	7.4
2026-01-24 06:22:02.083185	142.9	22.9	-65.6	7.8
2026-01-24 06:22:04.327692	143.3	22.6	-65.2	6.3
2026-01-24 06:22:06.570232	143.7	22.4	-66.0	7.5
2026-01-24 06:22:08.808810	144.2	22.2	-65.8	6.3
2026-01-24 06:22:11.047871	144.6	21.9	-65.7	6.1
2026-01-24 06:22:13.288918	145.0	21.7	-65.8	6.7
2026-01-24 06:22:15.532929	145.4	21.5	-65.8	7.1
2026-01-24 06:22:17.777436	145.8	21.2	-66.4	7.0
2026-01-24 06:22:20.021447	146.2	21.0	-66.2	6.4
2026-01-24 06:22:22.265458	146.5	20.8	-66.4	6.4
2026-01-24 06:22:24.508973	146.9	20.5	-66.1	6.3
2026-01-24 06:22:26.752992	147.3	20.3	-65.9	6.5
2026-01-24 06:22:28.994044	147.6	20.1	-66.0	5.9
2026-01-24 06:22:31.234102	148.0	19.8	-66.0	5.0
2026-01-24 06:22:33.473674	148.4	19.6	-66.4	6.7
2026-01-24 06:22:35.712750	148.7	19.4	-65.7	6.4
2026-01-24 06:22:37.952825	149.0	19.2	-66.4	7.3
2026-01-24 06:22:40.197837	149.4	18.9	-66.3	7.0
2026-01-24 06:22:42.442343	149.7	18.7	-65.9	5.4
2026-01-24 06:22:44.686354	150.0	18.5	-66.2	6.4
2026-01-24 06:22:46.929873	150.4	18.3	-65.7	4.8
2026-01-24 06:22:49.174885	150.7	18.0	-66.5	7.4
2026-01-24 06:22:51.419896	151.0	17.8	-65.7	6.3
2026-01-24 06:22:53.663908	151.3	17.6	-65.9	6.9
2026-01-24 06:22:55.902469	151.6	17.4	-66.3	5.6
2026-01-24 06:22:58.141540	151.9	17.2	-66.1	6.3
2026-01-24 06:23:00.379611	152.2	17.0	-65.9	7.8
2026-01-24 06:23:02.623623	152.5	16.7	-65.8	5.3
2026-01-24 06:23:04.868130	152.8	16.5	-65.7	6.5
2026-01-24 06:23:07.112142	153.1	16.3	-66.0	6.9
2026-01-24 06:23:09.361154	153.4	16.1	-65.7	7.4
2026-01-24 06:23:11.604669	153.7	15.9	-65.3	5.4
2026-01-24 06:23:13.849176	153.9	15.7	-66.0	7.5
2026-01-24 06:23:16.093187	154.2	15.5	-66.3	7.9
2026-01-24 06:23:18.334244	154.5	15.3	-65.9	5.7
2026-01-24 06:23:20.572810	154.7	15.1	-66.1	7.3
2026-01-24 06:23:22.811387	155.0	14.9	-66.2	6.7
2026-01-24 06:23:25.053417	155.3	14.7	-65.5	5.3
2026-01-24 06:23:27.297924	155.5	14.5	-66.2	7.0
2026-01-24 06:23:29.541935	155.8	14.3	-66.0	6.1
2026-01-24 06:23:31.785947	156.0	14.1	-65.3	6.3
2026-01-24 06:23:34.029462	156.2	13.9	-65.9	6.8
2026-01-24 06:23:36.273474	156.5	13.7	-65.7	5.9
2026-01-24 06:23:38.516493	156.7	13.5	-65.9	5.8
2026-01-24 06:23:40.755556	157.0	13.3	-65.3	3.9
2026-01-24 06:23:42.996637	157.2	13.1	-65.5	4.7
2026-01-24 06:23:45.239673	157.4	12.9	-65.3	5.5
2026-01-24 06:23:47.483192	157.6	12.7	-65.6	4.2
2026-01-24 06:23:49.727700	157.9	12.5	-65.7	3.8
2026-01-24 06:23:51.972206	158.1	12.3	-65.9	5.0
2026-01-24 06:23:54.216217	158.3	12.2	-65.9	4.9
2026-01-24 06:23:56.460724	158.5	12.0	-65.6	3.8
2026-01-24 06:23:58.709736	158.7	11.8	-66.1	3.8
2026-01-24 06:24:00.948801	158.9	11.6	-65.3	1.9
2026-01-24 06:24:03.192822	159.2	11.4	-65.7	3.2
2026-01-24 06:24:05.438843	159.4	11.2	-65.6	1.5
2026-01-24 06:24:07.683350	159.6	11.1	-66.1	4.7
2026-01-24 06:24:09.926867	159.8	10.9	-66.1	4.2
2026-01-24 06:24:12.170384	160.0	10.7	-65.4	4.1
2026-01-24 06:24:14.415395	160.2	10.5	-65.9	3.9
2026-01-24 06:24:16.659406	160.4	10.3	-65.7	2.5
2026-01-24 06:24:18.903912	160.5	10.2	-65.6	4.0
2026-01-24 06:24:21.145939	160.7	10.0	-65.4	4.0
2026-01-24 06:24:23.390446	160.9	9.8	-65.3	1.3
2026-01-24 06:24:25.634458	161.1	9.6	-65.1	2.8
2026-01-24 06:24:27.878469	161.3	9.5	-65.5	3.2
2026-01-24 06:24:30.123481	161.5	9.3	-65.5	3.2
2026-01-24 06:24:32.367988	161.6	9.1	-65.5	3.3
2026-01-24 06:24:34.612495	161.8	9.0	-66.2	2.2
2026-01-24 06:24:36.854524	162.0	8.8	-65.3	3.7
2026-01-24 06:24:39.098038	162.2	8.6	-65.8	2.4
2026-01-24 06:24:41.343545	162.3	8.5	-65.3	2.5
2026-01-24 06:24:43.588052	162.5	8.3	-65.9	3.1
2026-01-24 06:24:45.832063	162.7	8.1	-65.3	2.9
2026-01-24 06:24:48.077075	162.8	8.0	-65.2	1.8
2026-01-24 06:24:50.321582	163.0	7.8	-64.9	0.4
2026-01-24 06:24:52.563611	163.2	7.6	-64.8	2.3
2026-01-24 06:24:54.807622	163.3	7.5	-64.7	1.9
2026-01-24 06:24:57.052129	163.5	7.3	-64.7	0.0
2026-01-24 06:24:59.296636	163.6	7.2	-65.3	0.5
2026-01-24 06:25:01.537647	163.8	7.0	-65.3	2.2
2026-01-24 06:25:03.778661	164.0	6.8	-64.9	1.3
2026-01-24 06:25:06.022168	164.1	6.7	-64.9	0.0
2026-01-24 06:25:08.261683	164.3	6.5	-65.6	1.0
2026-01-24 06:25:10.509695	164.4	6.4	-65.2	0.0
2026-01-24 06:25:12.753202	164.5	6.2	-65.5	1.3
2026-01-24 06:25:14.997709	164.7	6.1	-65.0	1.7
2026-01-24 06:25:17.226065	164.8	5.9	-67.8	0.0
2026-01-24 06:25:19.474582	165.0	5.8	-69.9	0.0
2026-01-24 06:25:21.719089	165.1	5.6	-70.0	0.0
2026-01-24 06:25:23.961613	165.3	5.5	-70.5	0.0
2026-01-24 06:25:26.201623	165.4	5.3	-71.6	0.0
2026-01-24 06:25:28.440129	165.5	5.2	-72.0	0.0
2026-01-24 06:25:30.679139	165.7	5.0	-71.6	0.0
#Closed at: 2026-01-24 06:13:17.885617