passes_logs/2026/01/24/PlanumMoscow/PlanumMoscow__20260124_181948_METOP-C_rec.log

#Pass ID: 20260124_181948_METOP-C
#Satellite: METOP-C
#Configuration: METOP-C
#Start time: 2026-01-24 18:19:53.796316

#LorettStation: 1.0.0 05.05.2024
#Station: PlanumMoscow
#Location: 37.6253844 lon 55.6713361 lat
#TLE: 1 43689U 18087A   25293.88981035  .00000265  00000+0  14109-3 0  9997
#TLE: 2 43689  98.7006 352.4487 0002041 122.1097 238.0279 14.21482740360838

#Time	Az	El	Level	SNR
2026-01-24 18:23:32.250012	178.3	29.2	-65.3	0.0
2026-01-24 18:23:34.492565	178.5	29.6	-65.8	0.0
2026-01-24 18:23:36.735092	178.6	30.1	-66.2	0.0
2026-01-24 18:23:38.984154	178.8	30.5	-65.9	0.0
2026-01-24 18:23:41.228192	179.0	30.9	-67.3	0.0
2026-01-24 18:23:43.472237	179.2	31.3	-67.2	0.0
2026-01-24 18:23:45.715303	179.4	31.8	-67.0	0.0
2026-01-24 18:23:47.958835	179.7	32.2	-67.4	0.0
2026-01-24 18:23:50.201893	179.9	32.7	-66.9	0.0
2026-01-24 18:23:52.445904	180.1	33.2	-66.9	0.0
2026-01-24 18:23:54.690506	180.3	33.6	-66.8	0.0
2026-01-24 18:23:56.936021	180.6	34.1	-67.1	0.0
2026-01-24 18:23:59.181071	180.8	34.6	-66.1	0.0
2026-01-24 18:24:01.425597	181.1	35.1	-64.9	0.0
2026-01-24 18:24:03.669113	181.3	35.6	-67.1	0.0
2026-01-24 18:24:05.911172	181.6	36.1	-67.1	0.0
2026-01-24 18:24:08.153209	181.9	36.6	-66.3	0.0
2026-01-24 18:24:10.398269	182.2	37.1	-68.1	0.0
2026-01-24 18:24:12.641822	182.4	37.6	-66.6	0.0
2026-01-24 18:24:14.883354	182.7	38.2	-67.1	0.0
2026-01-24 18:24:17.127366	183.1	38.7	-68.0	0.0
2026-01-24 18:24:19.370895	183.4	39.2	-67.8	0.0
2026-01-24 18:24:21.614906	183.7	39.8	-67.7	0.0
2026-01-24 18:24:23.861430	184.1	40.4	-67.5	0.0
2026-01-24 18:24:26.105442	184.4	40.9	-67.1	0.0
2026-01-24 18:24:28.349949	184.8	41.5	-67.4	0.0
2026-01-24 18:24:30.594456	185.2	42.1	-67.8	0.0
2026-01-24 18:24:32.843468	185.6	42.7	-68.2	0.0
2026-01-24 18:24:35.087479	186.0	43.3	-68.2	0.0
2026-01-24 18:24:37.331986	186.4	43.9	-68.6	0.0
2026-01-24 18:24:39.575501	186.8	44.5	-68.1	0.0
2026-01-24 18:24:41.820008	187.3	45.2	-68.3	0.0
2026-01-24 18:24:44.064019	187.8	45.8	-67.8	0.0
2026-01-24 18:24:46.308526	188.3	46.4	-68.0	0.0
2026-01-24 18:24:48.552537	188.8	47.1	-68.0	0.0
2026-01-24 18:24:50.797043	189.3	47.8	-67.5	0.0
2026-01-24 18:24:53.041551	189.9	48.4	-67.7	0.0
2026-01-24 18:24:55.287562	190.5	49.1	-68.3	0.0
2026-01-24 18:24:57.531572	191.1	49.8	-67.9	0.0
2026-01-24 18:24:59.776079	191.8	50.5	-68.1	0.0
2026-01-24 18:25:02.019586	192.4	51.2	-68.4	0.0
2026-01-24 18:25:04.265093	193.1	51.9	-69.2	0.0
2026-01-24 18:25:06.507600	193.9	52.6	-69.0	0.0
2026-01-24 18:25:08.751106	194.6	53.3	-69.3	0.0
2026-01-24 18:25:10.992612	195.5	54.0	-68.4	0.0
2026-01-24 18:25:13.232127	196.3	54.7	-67.7	0.0
2026-01-24 18:25:15.472633	197.2	55.4	-68.4	0.0
2026-01-24 18:25:17.717140	198.1	56.2	-68.3	0.0
2026-01-24 18:25:19.957166	199.1	56.9	-69.1	0.0
2026-01-24 18:25:22.197176	200.2	57.6	-68.8	0.0
2026-01-24 18:25:24.434681	201.3	58.3	-69.2	0.0
2026-01-24 18:25:26.677188	202.4	59.1	-69.1	0.0
2026-01-24 18:25:28.922199	203.7	59.8	-69.6	0.0
2026-01-24 18:25:31.161705	205.0	60.5	-69.2	0.0
2026-01-24 18:25:33.405220	206.4	61.2	-69.5	0.0
2026-01-24 18:25:35.647238	207.8	61.9	-69.0	0.0
2026-01-24 18:25:37.874580	209.3	62.6	-69.2	0.0
2026-01-24 18:25:40.118086	211.0	63.3	-69.1	0.0
2026-01-24 18:25:42.361593	212.7	64.0	-70.1	0.0
2026-01-24 18:25:44.601602	214.5	64.6	-70.0	0.0
2026-01-24 18:25:46.845109	216.5	65.3	-69.7	0.0
2026-01-24 18:25:49.087616	218.5	65.9	-70.0	0.0
2026-01-24 18:25:51.332122	220.7	66.5	-69.3	0.0
2026-01-24 18:25:53.579134	222.9	67.0	-69.3	0.0
2026-01-24 18:25:55.821155	225.4	67.6	-69.1	0.0
2026-01-24 18:25:58.063661	227.9	68.1	-70.5	0.0
2026-01-24 18:26:00.306177	230.5	68.5	-69.6	0.0
2026-01-24 18:26:02.547682	233.3	69.0	-69.5	0.0
2026-01-24 18:26:04.792189	236.2	69.3	-69.8	0.0
2026-01-24 18:26:07.035706	239.2	69.7	-68.8	0.0
2026-01-24 18:26:09.280213	242.2	69.9	-69.2	0.0
2026-01-24 18:26:11.524720	245.4	70.1	-69.8	0.0
2026-01-24 18:26:13.769226	248.6	70.3	-68.7	0.0
2026-01-24 18:26:16.018239	251.9	70.4	-69.2	0.0
2026-01-24 18:26:18.262746	255.2	70.4	-69.6	0.0
2026-01-24 18:26:20.507253	258.5	70.4	-69.1	0.0
2026-01-24 18:26:22.751264	261.8	70.3	-69.1	0.0
2026-01-24 18:26:24.997771	265.1	70.2	-69.7	0.0
2026-01-24 18:26:27.240278	268.2	70.0	-68.5	0.0
2026-01-24 18:26:29.481288	271.4	69.8	-68.8	0.0
2026-01-24 18:26:31.726795	274.4	69.5	-69.0	0.0
2026-01-24 18:26:33.969302	277.3	69.1	-68.3	0.0
2026-01-24 18:26:36.211808	280.1	68.7	-67.6	0.0
2026-01-24 18:26:38.452818	282.8	68.2	-69.4	0.0
2026-01-24 18:26:40.696830	285.4	67.8	-69.9	0.0
2026-01-24 18:26:42.939336	287.8	67.2	-69.9	0.0
2026-01-24 18:26:45.181347	290.1	66.7	-69.4	0.0
2026-01-24 18:26:47.423854	292.3	66.1	-67.9	0.0
2026-01-24 18:26:49.667360	294.4	65.5	-69.1	0.0
2026-01-24 18:26:51.911867	296.4	64.9	-70.4	0.0
2026-01-24 18:26:54.154878	298.2	64.2	-69.7	0.0
2026-01-24 18:26:56.398384	300.0	63.6	-68.7	0.0
2026-01-24 18:26:58.640891	301.7	62.9	-69.5	0.0
2026-01-24 18:27:00.883397	303.2	62.2	-69.9	0.0
2026-01-24 18:27:03.126408	304.7	61.5	-69.6	0.0
2026-01-24 18:27:05.366923	306.1	60.8	-69.0	0.0
2026-01-24 18:27:07.610430	307.4	60.1	-69.1	0.0
2026-01-24 18:27:09.851944	308.7	59.3	-67.2	0.0
2026-01-24 18:27:12.091450	309.9	58.6	-68.9	0.0
2026-01-24 18:27:14.333956	311.0	57.9	-69.3	0.0
2026-01-24 18:27:16.576462	312.1	57.2	-69.4	0.0
2026-01-24 18:27:18.818473	313.1	56.4	-68.0	0.0
2026-01-24 18:27:21.060484	314.0	55.7	-68.6	0.0
2026-01-24 18:27:23.303991	314.9	55.0	-68.9	0.0
2026-01-24 18:27:25.548003	315.8	54.3	-69.7	0.0
2026-01-24 18:27:27.797015	316.6	53.6	-68.9	0.0
2026-01-24 18:27:30.041522	317.4	52.9	-69.0	0.0
2026-01-24 18:27:32.286029	318.2	52.1	-68.5	0.0
2026-01-24 18:27:34.530536	318.9	51.4	-68.8	0.0
2026-01-24 18:27:36.775043	319.6	50.8	-68.8	0.0
2026-01-24 18:27:39.019549	320.2	50.1	-69.3	0.0
2026-01-24 18:27:41.263561	320.8	49.4	-69.2	0.0
2026-01-24 18:27:43.506067	321.4	48.7	-68.5	0.0
2026-01-24 18:27:45.749079	322.0	48.0	-69.2	0.0
2026-01-24 18:27:47.989584	322.6	47.4	-70.0	0.0
2026-01-24 18:27:50.232595	323.1	46.7	-68.3	0.0
2026-01-24 18:27:52.475101	323.6	46.1	-68.7	0.0
2026-01-24 18:27:54.714607	324.1	45.5	-68.8	0.0
2026-01-24 18:27:56.957113	324.5	44.8	-68.6	0.0
2026-01-24 18:27:59.197123	325.0	44.2	-68.3	0.0
2026-01-24 18:28:01.439629	325.4	43.6	-68.9	0.0
2026-01-24 18:28:03.681135	325.8	43.0	-69.0	0.0
2026-01-24 18:28:05.922146	326.2	42.4	-68.4	0.0
2026-01-24 18:28:08.162652	326.6	41.8	-68.2	0.0
2026-01-24 18:28:10.405663	327.0	41.2	-68.8	0.0
2026-01-24 18:28:12.646685	327.4	40.7	-68.4	0.0
2026-01-24 18:28:14.886191	327.7	40.1	-69.0	0.0
2026-01-24 18:28:17.126707	328.1	39.5	-68.9	0.0
2026-01-24 18:28:19.366740	328.4	39.0	-68.6	0.0
2026-01-24 18:28:21.607750	328.7	38.5	-68.8	0.0
2026-01-24 18:28:23.849274	329.0	37.9	-68.6	0.0
2026-01-24 18:28:26.091285	329.3	37.4	-68.5	0.0
2026-01-24 18:28:28.330800	329.6	36.9	-68.0	0.0
2026-01-24 18:28:30.571810	329.9	36.4	-68.3	0.0
2026-01-24 18:28:32.814324	330.1	35.9	-68.4	0.0
2026-01-24 18:28:35.057335	330.4	35.4	-68.7	0.0
2026-01-24 18:28:37.299345	330.7	34.9	-67.9	0.0
2026-01-24 18:28:39.543356	330.9	34.4	-67.9	0.0
2026-01-24 18:28:41.783879	331.1	33.9	-68.3	0.0
2026-01-24 18:28:44.023393	331.4	33.5	-67.8	0.0
2026-01-24 18:28:46.266909	331.6	33.0	-68.0	0.0
2026-01-24 18:28:48.510943	331.8	32.5	-68.3	0.0
2026-01-24 18:28:50.754467	332.0	32.1	-68.3	0.0
2026-01-24 18:28:52.997485	332.3	31.6	-67.1	0.0
2026-01-24 18:28:55.241497	332.5	31.2	-67.8	0.0
2026-01-24 18:28:57.484525	332.7	30.8	-68.0	0.0
2026-01-24 18:28:59.726553	332.9	30.4	-68.4	0.0
2026-01-24 18:29:01.968582	333.0	29.9	-68.1	0.0
2026-01-24 18:29:04.211088	333.2	29.5	-66.8	0.0
2026-01-24 18:29:06.455099	333.4	29.1	-68.0	0.0
2026-01-24 18:29:08.695110	333.6	28.7	-67.2	0.0
2026-01-24 18:29:10.936128	333.8	28.3	-67.4	0.0
2026-01-24 18:29:13.175641	333.9	27.9	-68.1	0.0
2026-01-24 18:29:15.415147	334.1	27.5	-67.6	0.0
2026-01-24 18:29:17.655652	334.3	27.2	-68.3	0.0
2026-01-24 18:29:19.896167	334.4	26.8	-68.4	0.0
2026-01-24 18:29:22.135689	334.6	26.4	-67.9	0.0
2026-01-24 18:29:24.372699	334.7	26.1	-69.0	0.0
2026-01-24 18:29:26.611718	334.9	25.7	-68.8	0.0
2026-01-24 18:29:28.850224	335.0	25.3	-68.6	0.0
2026-01-24 18:29:31.089747	335.2	25.0	-68.8	0.0
2026-01-24 18:29:33.330767	335.3	24.6	-68.9	0.0
2026-01-24 18:29:35.568272	335.4	24.3	-67.9	0.0
2026-01-24 18:29:37.807290	335.6	24.0	-68.6	0.0
2026-01-24 18:29:40.047308	335.7	23.6	-68.6	0.0
2026-01-24 18:29:42.284814	335.8	23.3	-68.2	0.0
2026-01-24 18:29:44.523823	335.9	23.0	-68.4	0.0
2026-01-24 18:29:46.766843	336.1	22.7	-68.1	0.0
2026-01-24 18:29:49.009871	336.2	22.3	-68.7	0.0
2026-01-24 18:29:51.248882	336.3	22.0	-69.3	0.0
2026-01-24 18:29:53.486892	336.4	21.7	-68.5	0.0
2026-01-24 18:29:55.723405	336.5	21.4	-68.7	0.0
2026-01-24 18:29:57.962911	336.6	21.1	-68.4	0.0
2026-01-24 18:30:00.200433	336.8	20.8	-68.9	0.0
2026-01-24 18:30:02.440938	336.9	20.5	-69.1	0.0
2026-01-24 18:30:04.685445	337.0	20.2	-68.6	0.0
2026-01-24 18:30:06.929952	337.1	19.9	-68.4	0.0
2026-01-24 18:30:09.173974	337.2	19.6	-69.2	0.0
2026-01-24 18:30:11.417024	337.3	19.4	-69.1	0.0
2026-01-24 18:30:13.661540	337.4	19.1	-68.5	0.0
2026-01-24 18:30:15.906591	337.5	18.8	-68.8	0.0
2026-01-24 18:30:18.150610	337.6	18.5	-68.5	0.0
2026-01-24 18:30:20.394135	337.7	18.3	-68.3	0.0
2026-01-24 18:30:22.637182	337.8	18.0	-68.7	0.0
2026-01-24 18:30:24.880707	337.9	17.7	-68.7	0.0
2026-01-24 18:30:27.123749	337.9	17.5	-68.0	0.0
2026-01-24 18:30:29.367273	338.0	17.2	-68.1	0.0
2026-01-24 18:30:31.610820	338.1	17.0	-68.4	0.0
2026-01-24 18:30:33.854346	338.2	16.7	-67.9	0.0
2026-01-24 18:30:36.096870	338.3	16.4	-68.1	0.0
2026-01-24 18:30:38.340415	338.4	16.2	-68.1	0.0
2026-01-24 18:30:40.584929	338.5	16.0	-68.0	0.0
2026-01-24 18:30:42.828493	338.5	15.7	-68.1	0.0
2026-01-24 18:30:45.072512	338.6	15.5	-67.6	0.0
2026-01-24 18:30:47.315576	338.7	15.2	-67.6	0.0
2026-01-24 18:30:49.560083	338.8	15.0	-67.9	0.0
2026-01-24 18:30:51.803620	338.9	14.8	-68.0	0.0
2026-01-24 18:30:54.049647	338.9	14.5	-67.5	0.0
2026-01-24 18:30:56.294659	339.0	14.3	-67.3	0.0
2026-01-24 18:30:58.537227	339.1	14.1	-66.5	0.0
2026-01-24 18:31:00.780751	339.2	13.8	-67.1	0.0
2026-01-24 18:31:03.024799	339.2	13.6	-67.7	0.0
2026-01-24 18:31:05.268322	339.3	13.4	-66.4	0.0
2026-01-24 18:31:07.512877	339.4	13.2	-67.1	0.0
2026-01-24 18:31:09.754905	339.4	13.0	-67.4	0.0
2026-01-24 18:31:11.998925	339.5	12.7	-67.3	0.0
2026-01-24 18:31:14.242480	339.6	12.5	-67.2	0.0
2026-01-24 18:31:16.485508	339.6	12.3	-66.9	0.0
2026-01-24 18:31:18.731558	339.7	12.1	-66.8	0.0
2026-01-24 18:31:20.974083	339.8	11.9	-66.5	0.0
2026-01-24 18:31:23.218149	339.8	11.7	-67.1	0.0
2026-01-24 18:31:25.463674	339.9	11.5	-67.3	0.0
2026-01-24 18:31:27.707188	340.0	11.3	-66.9	0.0
2026-01-24 18:31:29.949253	340.0	11.1	-66.6	0.0
2026-01-24 18:31:32.194323	340.1	10.9	-66.1	0.0
2026-01-24 18:31:34.437350	340.1	10.7	-65.7	0.0
2026-01-24 18:31:36.679891	340.2	10.5	-66.2	0.0
2026-01-24 18:31:38.922949	340.3	10.3	-65.6	0.0
2026-01-24 18:31:41.167983	340.3	10.1	-66.8	0.0
2026-01-24 18:31:43.412032	340.4	9.9	-66.2	0.0
2026-01-24 18:31:45.655052	340.4	9.7	-65.6	0.0
2026-01-24 18:31:47.899072	340.5	9.5	-66.1	0.0
2026-01-24 18:31:50.143655	340.5	9.3	-66.6	0.0
2026-01-24 18:31:52.389171	340.6	9.1	-66.8	0.0
2026-01-24 18:31:54.631731	340.7	9.0	-66.2	0.0
2026-01-24 18:31:56.874758	340.7	8.8	-65.4	0.0
2026-01-24 18:31:59.118320	340.8	8.6	-65.9	0.0
2026-01-24 18:32:01.361844	340.8	8.4	-65.8	0.0
2026-01-24 18:32:03.605893	340.9	8.2	-64.8	0.0
2026-01-24 18:32:05.850435	340.9	8.0	-65.9	0.0
2026-01-24 18:32:08.094463	341.0	7.9	-65.7	0.0
2026-01-24 18:32:10.339024	341.0	7.7	-65.3	0.0
2026-01-24 18:32:12.582055	341.1	7.5	-65.7	0.0
2026-01-24 18:32:14.826104	341.1	7.3	-65.4	0.0
2026-01-24 18:32:17.069135	341.2	7.2	-65.9	0.0
2026-01-24 18:32:19.311695	341.2	7.0	-65.4	0.0
2026-01-24 18:32:21.553743	341.3	6.8	-64.9	0.0
2026-01-24 18:32:23.798250	341.3	6.7	-65.2	0.0
2026-01-24 18:32:26.041309	341.4	6.5	-64.9	0.0
2026-01-24 18:32:28.284831	341.4	6.3	-64.5	0.0
2026-01-24 18:32:30.528377	341.5	6.2	-64.8	0.0
2026-01-24 18:32:32.774893	341.5	6.0	-66.0	0.4
2026-01-24 18:32:35.018942	341.6	5.8	-67.5	0.0
2026-01-24 18:32:37.268450	341.6	5.7	-67.8	0.0
2026-01-24 18:32:39.512470	341.6	5.5	-67.7	0.0
2026-01-24 18:32:41.756035	341.7	5.3	-66.9	0.0
2026-01-24 18:32:43.999063	341.7	5.2	-67.7	0.0
2026-01-24 18:32:46.245610	341.8	5.0	-68.6	0.0
#Closed at: 2026-01-24 18:19:48.798963