passes_logs/2025/01/19/planumMaritime01/planumMaritime01__20250119_165430_NOAA_18_rec.log

#Pass ID: 20250119_165430_NOAA 18
#Satellite: NOAA 18
#Configuration: NOAA 18
#Start time: 2025-01-19 16:54:35.901788

#LorettStation: 1.0.0 05.05.2024
#Station: planumMaritime01
#Location: 37.49445 lon 55.92918 lat
#TLE: 1 28654U 05018A   25019.12683114  .00000403  00000+0  23745-3 0  9992
#TLE: 2 28654  98.8559 100.1402 0014536 167.7337 192.4191 14.13490232 13765

#Time	Az	El	Level	SNR
2025-01-19 16:54:38.062161	70.6	10.1	-94.8	0.0
2025-01-19 16:54:39.183285	70.4	10.1	-94.6	0.0
2025-01-19 16:54:40.304387	70.3	10.2	-94.8	0.0
2025-01-19 16:54:41.425396	70.1	10.2	-94.8	0.0
2025-01-19 16:54:42.547413	69.9	10.3	-94.8	0.0
2025-01-19 16:54:43.668961	69.8	10.3	-94.4	0.0
2025-01-19 16:54:44.789414	69.6	10.4	-94.5	0.0
2025-01-19 16:54:45.910597	69.4	10.4	-94.6	0.0
2025-01-19 16:54:47.029460	69.2	10.5	-95.0	0.0
2025-01-19 16:54:48.150410	69.1	10.5	-94.7	0.0
2025-01-19 16:54:49.270521	68.9	10.6	-94.5	0.0
2025-01-19 16:54:50.393363	68.7	10.6	-94.6	0.0
2025-01-19 16:54:51.515379	68.5	10.7	-94.5	0.0
2025-01-19 16:54:52.635552	68.3	10.7	-94.6	0.0
2025-01-19 16:54:53.756651	68.2	10.7	-94.7	0.0
2025-01-19 16:54:54.877160	68.0	10.8	-94.6	0.0
2025-01-19 16:54:55.999185	67.8	10.8	-94.5	0.0
2025-01-19 16:54:57.120394	67.6	10.9	-94.5	0.0
2025-01-19 16:54:58.242392	67.4	10.9	-94.6	0.0
2025-01-19 16:54:59.361697	67.3	11.0	-94.5	0.0
2025-01-19 16:55:00.483057	67.1	11.0	-94.4	0.0
2025-01-19 16:55:01.603433	66.9	11.1	-94.6	0.0
2025-01-19 16:55:02.725649	66.7	11.1	-94.5	0.0
2025-01-19 16:55:03.846378	66.5	11.2	-94.5	0.0
2025-01-19 16:55:04.967144	66.3	11.2	-94.7	0.0
2025-01-19 16:55:06.087123	66.2	11.2	-94.5	0.0
2025-01-19 16:55:07.206994	66.0	11.3	-94.7	0.0
2025-01-19 16:55:08.328421	65.8	11.3	-94.5	0.0
2025-01-19 16:55:09.447975	65.6	11.4	-94.6	0.0
2025-01-19 16:55:10.567429	65.4	11.4	-94.7	0.0
2025-01-19 16:55:11.688910	65.2	11.5	-94.7	0.0
2025-01-19 16:55:12.809845	65.0	11.5	-94.6	0.0
2025-01-19 16:55:13.932363	64.8	11.5	-94.5	0.0
2025-01-19 16:55:15.053283	64.7	11.6	-94.7	0.0
2025-01-19 16:55:16.175830	64.5	11.6	-94.9	0.0
2025-01-19 16:55:17.296263	64.3	11.7	-94.8	0.0
2025-01-19 16:55:18.419213	64.1	11.7	-94.8	0.0
2025-01-19 16:55:19.539476	63.9	11.7	-94.7	0.0
2025-01-19 16:55:20.659199	63.7	11.8	-94.9	0.0
2025-01-19 16:55:21.780441	63.5	11.8	-94.8	0.0
2025-01-19 16:55:22.901457	63.3	11.9	-94.8	0.0
2025-01-19 16:55:24.022861	63.1	11.9	-94.9	0.0
2025-01-19 16:55:25.143857	62.9	11.9	-94.8	0.0
2025-01-19 16:55:26.265180	62.7	12.0	-94.8	0.0
2025-01-19 16:55:27.386667	62.5	12.0	-94.9	0.0
2025-01-19 16:55:28.508803	62.3	12.1	-94.9	0.0
2025-01-19 16:55:29.630113	62.1	12.1	-94.6	0.0
2025-01-19 16:55:30.751925	62.0	12.1	-94.7	0.0
2025-01-19 16:55:31.871581	61.8	12.2	-94.9	0.0
2025-01-19 16:55:32.994026	61.6	12.2	-94.8	0.0
2025-01-19 16:55:34.115961	61.4	12.2	-94.8	0.0
2025-01-19 16:55:35.235770	61.2	12.3	-94.7	0.0
2025-01-19 16:55:36.356606	61.0	12.3	-95.0	0.0
2025-01-19 16:55:37.477292	60.8	12.4	-94.9	0.0
2025-01-19 16:55:38.599191	60.6	12.4	-94.8	0.0
2025-01-19 16:55:39.721515	60.4	12.4	-94.8	0.0
2025-01-19 16:55:40.843876	60.2	12.5	-94.7	0.0
2025-01-19 16:55:41.963199	60.0	12.5	-94.7	0.0
2025-01-19 16:55:43.083049	59.8	12.5	-94.9	0.0
2025-01-19 16:55:44.202326	59.6	12.6	-94.8	0.0
2025-01-19 16:55:45.324550	59.4	12.6	-94.7	0.0
2025-01-19 16:55:46.444053	59.1	12.6	-94.7	0.0
2025-01-19 16:55:47.566414	58.9	12.7	-94.7	0.0
2025-01-19 16:55:48.688543	58.7	12.7	-94.8	0.0
2025-01-19 16:55:49.808123	58.5	12.7	-94.9	0.0
2025-01-19 16:55:50.928841	58.3	12.8	-94.6	0.0
2025-01-19 16:55:52.049261	58.1	12.8	-94.7	0.0
2025-01-19 16:55:53.168247	57.9	12.8	-94.6	0.0
2025-01-19 16:55:54.290003	57.7	12.9	-95.0	0.0
2025-01-19 16:55:55.410820	57.5	12.9	-94.5	0.0
2025-01-19 16:55:56.533062	57.3	12.9	-94.5	0.0
2025-01-19 16:55:57.655880	57.1	13.0	-94.6	0.0
2025-01-19 16:55:58.775167	56.9	13.0	-94.8	0.0
2025-01-19 16:55:59.896389	56.7	13.0	-94.7	0.0
2025-01-19 16:56:01.016500	56.5	13.0	-94.7	0.0
2025-01-19 16:56:02.136385	56.3	13.1	-94.7	0.0
2025-01-19 16:56:03.258186	56.0	13.1	-94.7	0.0
2025-01-19 16:56:04.379226	55.8	13.1	-94.5	0.0
2025-01-19 16:56:05.501392	55.6	13.2	-94.7	0.0
2025-01-19 16:56:06.624361	55.4	13.2	-94.6	0.0
2025-01-19 16:56:07.744668	55.2	13.2	-94.8	0.0
2025-01-19 16:56:08.865223	55.0	13.2	-94.7	0.0
2025-01-19 16:56:09.985236	54.8	13.3	-94.6	0.0
2025-01-19 16:56:11.107226	54.6	13.3	-94.8	0.0
2025-01-19 16:56:12.228880	54.3	13.3	-94.7	0.0
2025-01-19 16:56:13.351881	54.1	13.4	-94.8	0.0
2025-01-19 16:56:14.472729	53.9	13.4	-94.6	0.0
2025-01-19 16:56:15.594817	53.7	13.4	-94.9	0.0
2025-01-19 16:56:16.715017	53.5	13.4	-94.8	0.0
2025-01-19 16:56:17.834830	53.3	13.5	-94.8	0.0
2025-01-19 16:56:18.956639	53.1	13.5	-94.6	0.0
2025-01-19 16:56:20.077263	52.8	13.5	-94.8	0.0
2025-01-19 16:56:21.198288	52.6	13.5	-94.7	0.0
2025-01-19 16:56:22.321006	52.4	13.5	-94.7	0.0
2025-01-19 16:56:23.439643	52.2	13.6	-94.8	0.0
2025-01-19 16:56:24.560379	52.0	13.6	-94.8	0.0
2025-01-19 16:56:25.683749	51.8	13.6	-94.9	0.0
2025-01-19 16:56:26.803536	51.5	13.6	-95.0	0.0
2025-01-19 16:56:27.926394	51.3	13.7	-94.9	0.0
2025-01-19 16:56:29.050338	51.1	13.7	-94.9	0.0
2025-01-19 16:56:30.173114	50.9	13.7	-95.1	0.0
2025-01-19 16:56:31.295328	50.7	13.7	-94.9	0.0
2025-01-19 16:56:32.415404	50.4	13.7	-94.8	0.0
2025-01-19 16:56:33.536212	50.2	13.8	-94.7	0.0
2025-01-19 16:56:34.657986	50.0	13.8	-94.9	0.0
2025-01-19 16:56:35.777489	49.8	13.8	-95.0	0.0
2025-01-19 16:56:36.900405	49.6	13.8	-94.8	0.0
2025-01-19 16:56:38.020879	49.3	13.8	-94.8	0.0
2025-01-19 16:56:39.140384	49.1	13.8	-94.9	0.0
2025-01-19 16:56:40.260729	48.9	13.9	-94.6	0.0
2025-01-19 16:56:41.384211	48.7	13.9	-94.8	0.0
2025-01-19 16:56:42.506852	48.5	13.9	-95.0	0.0
2025-01-19 16:56:43.628194	48.2	13.9	-95.0	0.0
2025-01-19 16:56:44.751391	48.0	13.9	-94.8	0.0
2025-01-19 16:56:45.874503	47.8	13.9	-94.6	0.0
2025-01-19 16:56:46.996028	47.6	13.9	-94.5	0.0
2025-01-19 16:56:48.118094	47.3	14.0	-94.8	0.0
2025-01-19 16:56:49.237859	47.1	14.0	-94.5	0.0
2025-01-19 16:56:50.362172	46.9	14.0	-94.4	0.0
2025-01-19 16:56:51.482384	46.7	14.0	-94.4	0.0
2025-01-19 16:56:52.605659	46.4	14.0	-94.8	0.0
2025-01-19 16:56:53.727979	46.2	14.0	-94.8	0.0
2025-01-19 16:56:54.849101	46.0	14.0	-94.8	0.0
2025-01-19 16:56:55.969332	45.8	14.0	-94.8	0.0
2025-01-19 16:56:57.093305	45.6	14.1	-94.8	0.0
2025-01-19 16:56:58.213479	45.3	14.1	-94.8	0.0
2025-01-19 16:56:59.334714	45.1	14.1	-95.0	0.0
2025-01-19 16:57:00.455019	44.9	14.1	-94.8	0.0
2025-01-19 16:57:01.575837	44.7	14.1	-94.7	0.0
2025-01-19 16:57:02.697294	44.4	14.1	-95.0	0.0
2025-01-19 16:57:03.817487	44.2	14.1	-95.1	0.0
2025-01-19 16:57:04.938318	44.0	14.1	-94.9	0.0
2025-01-19 16:57:06.060719	43.8	14.1	-94.6	0.0
2025-01-19 16:57:07.184360	43.5	14.1	-94.8	0.0
2025-01-19 16:57:08.306309	43.3	14.1	-94.9	0.0
2025-01-19 16:57:09.429440	43.1	14.1	-94.7	0.0
2025-01-19 16:57:10.551267	42.8	14.1	-95.0	0.0
2025-01-19 16:57:11.671827	42.6	14.1	-94.8	0.0
2025-01-19 16:57:12.791687	42.4	14.1	-94.9	0.0
2025-01-19 16:57:13.912149	42.2	14.1	-94.7	0.0
2025-01-19 16:57:15.033246	41.9	14.2	-94.9	0.0
2025-01-19 16:57:16.155564	41.7	14.2	-94.9	0.0
2025-01-19 16:57:17.277090	41.5	14.2	-95.0	0.0
2025-01-19 16:57:18.400023	41.3	14.2	-94.8	0.0
2025-01-19 16:57:19.519501	41.0	14.2	-94.8	0.0
2025-01-19 16:57:20.640383	40.8	14.2	-94.9	0.0
2025-01-19 16:57:21.761512	40.6	14.2	-94.9	0.0
2025-01-19 16:57:22.883707	40.4	14.2	-94.9	0.0
2025-01-19 16:57:24.002489	40.1	14.2	-94.8	0.0
2025-01-19 16:57:25.124005	39.9	14.2	-94.9	0.0
2025-01-19 16:57:26.246028	39.7	14.2	-94.9	0.0
2025-01-19 16:57:27.365218	39.5	14.2	-94.8	0.0
2025-01-19 16:57:28.486748	39.2	14.2	-94.8	0.0
2025-01-19 16:57:29.607697	39.0	14.1	-95.0	0.0
2025-01-19 16:57:30.729246	38.8	14.1	-94.9	0.0
2025-01-19 16:57:31.851644	38.6	14.1	-94.8	0.0
2025-01-19 16:57:32.971373	38.3	14.1	-94.8	0.0
2025-01-19 16:57:34.093860	38.1	14.1	-94.8	0.0
2025-01-19 16:57:35.214158	37.9	14.1	-94.9	0.0
2025-01-19 16:57:36.334601	37.7	14.1	-94.9	0.0
2025-01-19 16:57:37.457305	37.4	14.1	-95.0	0.0
2025-01-19 16:57:38.576540	37.2	14.1	-94.8	0.0
2025-01-19 16:57:39.698780	37.0	14.1	-94.6	0.0
2025-01-19 16:57:40.819888	36.8	14.1	-94.8	0.0
2025-01-19 16:57:41.939533	36.5	14.1	-94.9	0.0
2025-01-19 16:57:43.063385	36.3	14.1	-94.7	0.0
2025-01-19 16:57:44.184269	36.1	14.1	-94.6	0.0
2025-01-19 16:57:45.305643	35.9	14.1	-94.9	0.0
2025-01-19 16:57:46.426654	35.6	14.1	-94.8	0.0
2025-01-19 16:57:47.548226	35.4	14.0	-94.9	0.0
2025-01-19 16:57:48.671429	35.2	14.0	-94.9	0.0
2025-01-19 16:57:49.792433	35.0	14.0	-94.7	0.0
2025-01-19 16:57:50.912895	34.7	14.0	-94.8	0.0
2025-01-19 16:57:52.033222	34.5	14.0	-94.7	0.0
2025-01-19 16:57:53.155839	34.3	14.0	-95.0	0.0
2025-01-19 16:57:54.276642	34.1	14.0	-94.9	0.0
2025-01-19 16:57:55.399667	33.8	14.0	-94.7	0.0
2025-01-19 16:57:56.520599	33.6	13.9	-94.8	0.0
2025-01-19 16:57:57.640262	33.4	13.9	-95.1	0.0
2025-01-19 16:57:58.761354	33.2	13.9	-95.0	0.0
2025-01-19 16:57:59.881135	33.0	13.9	-94.9	0.0
2025-01-19 16:58:01.002524	32.7	13.9	-94.8	0.0
2025-01-19 16:58:02.125470	32.5	13.9	-94.9	0.0
2025-01-19 16:58:03.246931	32.3	13.9	-95.1	0.0
2025-01-19 16:58:04.368459	32.1	13.8	-95.0	0.0
2025-01-19 16:58:05.492396	31.8	13.8	-95.1	0.0
2025-01-19 16:58:06.613248	31.6	13.8	-94.9	0.0
2025-01-19 16:58:07.736495	31.4	13.8	-95.0	0.0
2025-01-19 16:58:08.859821	31.2	13.8	-94.8	0.0
2025-01-19 16:58:09.980235	31.0	13.8	-94.7	0.0
2025-01-19 16:58:11.099225	30.7	13.7	-94.8	0.0
2025-01-19 16:58:12.222830	30.5	13.7	-94.7	0.0
2025-01-19 16:58:13.344101	30.3	13.7	-94.9	0.0
2025-01-19 16:58:14.465168	30.1	13.7	-94.9	0.0
2025-01-19 16:58:15.587483	29.9	13.7	-94.9	0.0
2025-01-19 16:58:16.707636	29.6	13.6	-94.7	0.0
2025-01-19 16:58:17.830151	29.4	13.6	-94.7	0.0
2025-01-19 16:58:18.952240	29.2	13.6	-94.9	0.0
2025-01-19 16:58:20.074627	29.0	13.6	-94.9	0.0
2025-01-19 16:58:21.195949	28.8	13.5	-94.9	0.0
2025-01-19 16:58:22.320002	28.6	13.5	-94.7	0.0
2025-01-19 16:58:23.438921	28.3	13.5	-94.9	0.0
2025-01-19 16:58:24.561232	28.1	13.5	-94.9	0.0
2025-01-19 16:58:25.683217	27.9	13.5	-94.9	0.0
2025-01-19 16:58:26.804868	27.7	13.4	-95.1	0.0
2025-01-19 16:58:27.926453	27.5	13.4	-95.0	0.0
2025-01-19 16:58:29.046627	27.3	13.4	-95.0	0.0
2025-01-19 16:58:30.166741	27.1	13.4	-94.8	0.0
2025-01-19 16:58:31.288282	26.8	13.3	-95.1	0.0
2025-01-19 16:58:32.410964	26.6	13.3	-94.9	0.0
2025-01-19 16:58:33.531867	26.4	13.3	-94.7	0.0
2025-01-19 16:58:34.653290	26.2	13.2	-95.0	0.0
2025-01-19 16:58:35.775038	26.0	13.2	-95.0	0.0
2025-01-19 16:58:36.896978	25.8	13.2	-94.7	0.0
2025-01-19 16:58:38.018833	25.6	13.2	-95.1	0.0
2025-01-19 16:58:39.140379	25.4	13.1	-95.1	0.0
2025-01-19 16:58:40.262246	25.1	13.1	-95.0	0.0
2025-01-19 16:58:41.383958	24.9	13.1	-95.1	0.0
2025-01-19 16:58:42.507423	24.7	13.0	-95.0	0.0
2025-01-19 16:58:43.630247	24.5	13.0	-94.9	0.0
2025-01-19 16:58:44.749405	24.3	13.0	-94.8	0.0
2025-01-19 16:58:45.869674	24.1	13.0	-95.0	0.0
2025-01-19 16:58:46.991300	23.9	12.9	-95.0	0.0
2025-01-19 16:58:48.111554	23.7	12.9	-94.9	0.0
2025-01-19 16:58:49.235623	23.5	12.9	-94.7	0.0
2025-01-19 16:58:50.355429	23.3	12.8	-94.8	0.0
2025-01-19 16:58:51.479153	23.1	12.8	-94.9	0.0
2025-01-19 16:58:52.600054	22.8	12.8	-94.6	0.0
2025-01-19 16:58:53.720355	22.6	12.7	-94.5	0.0
2025-01-19 16:58:54.841932	22.4	12.7	-94.5	0.0
2025-01-19 16:58:55.962642	22.2	12.7	-94.7	0.0
2025-01-19 16:58:57.082411	22.0	12.6	-94.6	0.0
2025-01-19 16:58:58.205518	21.8	12.6	-94.7	0.0
2025-01-19 16:58:59.327401	21.6	12.6	-94.7	0.0
2025-01-19 16:59:00.448593	21.4	12.5	-94.7	0.0
2025-01-19 16:59:01.569245	21.2	12.5	-95.0	0.0
2025-01-19 16:59:02.691537	21.0	12.5	-95.1	0.0
2025-01-19 16:59:03.810420	20.8	12.4	-94.5	0.0
2025-01-19 16:59:04.930935	20.6	12.4	-94.5	0.0
2025-01-19 16:59:06.052889	20.4	12.4	-94.8	0.0
2025-01-19 16:59:07.172924	20.2	12.3	-94.9	0.0
2025-01-19 16:59:08.295232	20.0	12.3	-95.1	0.0
2025-01-19 16:59:09.417770	19.8	12.2	-95.1	0.0
2025-01-19 16:59:10.538027	19.6	12.2	-94.9	0.0
2025-01-19 16:59:11.659393	19.4	12.2	-94.7	0.0
2025-01-19 16:59:12.780264	19.2	12.1	-95.0	0.0
2025-01-19 16:59:13.901046	19.0	12.1	-95.1	0.0
2025-01-19 16:59:15.021516	18.8	12.1	-95.0	0.0
2025-01-19 16:59:16.142439	18.6	12.0	-94.9	0.0
2025-01-19 16:59:17.263403	18.4	12.0	-94.8	0.0
2025-01-19 16:59:18.384093	18.2	11.9	-95.0	0.0
2025-01-19 16:59:19.505009	18.1	11.9	-95.1	0.0
2025-01-19 16:59:20.628674	17.9	11.9	-95.1	0.0
2025-01-19 16:59:21.752516	17.7	11.8	-94.7	0.0
2025-01-19 16:59:22.873158	17.5	11.8	-95.0	0.0
2025-01-19 16:59:23.994304	17.3	11.7	-94.8	0.0
2025-01-19 16:59:25.116588	17.1	11.7	-94.7	0.0
2025-01-19 16:59:26.236736	16.9	11.7	-94.6	0.0
2025-01-19 16:59:27.357177	16.7	11.6	-94.6	0.0
2025-01-19 16:59:28.479436	16.5	11.6	-94.6	0.0
2025-01-19 16:59:29.599403	16.3	11.5	-94.7	0.0
2025-01-19 16:59:30.721345	16.1	11.5	-95.0	0.0
2025-01-19 16:59:31.843244	16.0	11.4	-94.8	0.0
2025-01-19 16:59:32.964184	15.8	11.4	-94.6	0.0
2025-01-19 16:59:34.084409	15.6	11.4	-94.5	0.0
2025-01-19 16:59:35.205328	15.4	11.3	-94.8	0.0
2025-01-19 16:59:36.325813	15.2	11.3	-94.7	0.0
2025-01-19 16:59:37.444513	15.0	11.2	-94.6	0.0
2025-01-19 16:59:38.565731	14.8	11.2	-94.6	0.0
2025-01-19 16:59:39.686102	14.6	11.1	-94.8	0.0
2025-01-19 16:59:40.805751	14.5	11.1	-94.7	0.0
2025-01-19 16:59:41.926926	14.3	11.1	-94.8	0.0
2025-01-19 16:59:43.047409	14.1	11.0	-94.7	0.0
2025-01-19 16:59:44.168914	13.9	11.0	-94.7	0.0
2025-01-19 16:59:45.290393	13.7	10.9	-94.6	0.0
2025-01-19 16:59:46.412203	13.6	10.9	-94.8	0.0
2025-01-19 16:59:47.531160	13.4	10.8	-94.7	0.0
2025-01-19 16:59:48.652369	13.2	10.8	-94.5	0.0
2025-01-19 16:59:49.774347	13.0	10.7	-94.7	0.0
2025-01-19 16:59:50.896223	12.8	10.7	-94.6	0.0
2025-01-19 16:59:52.017641	12.7	10.6	-94.6	0.0
2025-01-19 16:59:53.138278	12.5	10.6	-94.7	0.0
2025-01-19 16:59:54.260241	12.3	10.6	-94.9	0.0
2025-01-19 16:59:55.382915	12.1	10.5	-95.1	0.0
2025-01-19 16:59:56.503756	11.9	10.5	-94.7	0.0
2025-01-19 16:59:57.623695	11.8	10.4	-94.7	0.0
2025-01-19 16:59:58.745105	11.6	10.4	-95.0	0.0
2025-01-19 16:59:59.865305	11.4	10.3	-94.8	0.0
2025-01-19 17:00:00.986323	11.3	10.3	-94.8	0.0
2025-01-19 17:00:02.108468	11.1	10.2	-94.9	0.0
2025-01-19 17:00:03.232065	10.9	10.2	-95.1	0.0
2025-01-19 17:00:04.355381	10.7	10.1	-94.9	0.0
2025-01-19 17:00:05.476390	10.6	10.1	-94.7	0.0
2025-01-19 17:00:06.599536	10.4	10.0	-94.8	0.0
#Closed at: 2025-01-19 16:54:30.904910