passes_logs/2025/01/19/planumMaritime01/planumMaritime01__20250119_125431_METEOR-M2_4_rec.log

#Pass ID: 20250119_125431_METEOR-M2 4
#Satellite: METEOR-M2 4
#Configuration: METEOR-M2 4
#Start time: 2025-01-19 12:54:36.636850

#LorettStation: 1.0.0 05.05.2024
#Station: planumMaritime01
#Location: 37.49445 lon 55.92918 lat
#TLE: 1 59051U 24039A   25018.12322251  .00000104  00000+0  66034-4 0  9999
#TLE: 2 59051  98.6299 341.0677 0006317 214.7140 145.3626 14.22326011 46042

#Time	Az	El	Level	SNR
2025-01-19 12:54:38.788183	217.4	10.1	-94.6	0.0
2025-01-19 12:54:41.032318	217.7	10.3	-94.8	0.0
2025-01-19 12:54:43.273698	218.0	10.4	-94.8	0.0
2025-01-19 12:54:45.516958	218.2	10.6	-94.6	0.0
2025-01-19 12:54:47.758682	218.5	10.7	-94.8	0.0
2025-01-19 12:54:50.001034	218.8	10.9	-94.2	0.0
2025-01-19 12:54:52.237497	219.0	11.1	-94.7	0.0
2025-01-19 12:54:54.477257	219.3	11.2	-94.3	0.0
2025-01-19 12:54:56.721456	219.6	11.4	-94.4	0.0
2025-01-19 12:54:58.962190	219.9	11.5	-94.7	0.0
2025-01-19 12:55:01.202702	220.2	11.7	-94.4	0.0
2025-01-19 12:55:03.444411	220.5	11.8	-94.6	0.0
2025-01-19 12:55:05.684103	220.8	12.0	-94.9	0.0
2025-01-19 12:55:07.925170	221.1	12.1	-94.9	0.0
2025-01-19 12:55:10.168506	221.4	12.3	-94.6	0.0
2025-01-19 12:55:12.411326	221.7	12.4	-94.6	0.0
2025-01-19 12:55:14.655739	222.0	12.6	-94.4	0.0
2025-01-19 12:55:16.899447	222.3	12.8	-94.3	0.0
2025-01-19 12:55:19.144323	222.6	12.9	-94.7	0.0
2025-01-19 12:55:21.389568	222.9	13.1	-94.5	0.0
2025-01-19 12:55:23.633855	223.3	13.2	-94.8	0.0
2025-01-19 12:55:25.875366	223.6	13.4	-94.8	0.0
2025-01-19 12:55:28.119491	223.9	13.5	-94.7	0.0
2025-01-19 12:55:30.362566	224.3	13.7	-94.8	0.0
2025-01-19 12:55:32.602086	224.6	13.9	-94.8	0.0
2025-01-19 12:55:34.844938	224.9	14.0	-94.6	0.0
2025-01-19 12:55:37.087158	225.3	14.2	-94.6	0.0
2025-01-19 12:55:39.331392	225.6	14.3	-94.6	0.0
2025-01-19 12:55:41.572645	226.0	14.5	-95.1	0.0
2025-01-19 12:55:43.810739	226.3	14.6	-94.5	0.0
2025-01-19 12:55:46.050801	226.7	14.8	-94.5	0.0
2025-01-19 12:55:48.293684	227.0	15.0	-94.5	0.0
2025-01-19 12:55:50.535430	227.4	15.1	-94.6	0.0
2025-01-19 12:55:52.774657	227.8	15.3	-94.5	0.0
2025-01-19 12:55:55.017332	228.1	15.4	-94.7	0.0
2025-01-19 12:55:57.256435	228.5	15.6	-94.5	0.0
2025-01-19 12:55:59.498323	228.9	15.7	-94.7	0.0
2025-01-19 12:56:01.738094	229.3	15.9	-94.6	0.0
2025-01-19 12:56:03.982355	229.7	16.1	-94.8	0.0
2025-01-19 12:56:06.227442	230.1	16.2	-94.5	0.0
2025-01-19 12:56:08.469576	230.4	16.4	-94.6	0.0
2025-01-19 12:56:10.709491	230.8	16.5	-94.5	0.0
2025-01-19 12:56:12.953055	231.3	16.7	-94.5	0.0
2025-01-19 12:56:15.197159	231.7	16.8	-94.6	0.0
2025-01-19 12:56:17.438802	232.1	17.0	-94.6	0.0
2025-01-19 12:56:19.679328	232.5	17.1	-94.8	0.0
2025-01-19 12:56:21.923137	232.9	17.3	-94.7	0.0
2025-01-19 12:56:24.168336	233.3	17.5	-94.7	0.0
2025-01-19 12:56:26.412355	233.8	17.6	-94.6	0.0
2025-01-19 12:56:28.655020	234.2	17.8	-94.6	0.0
2025-01-19 12:56:30.896637	234.6	17.9	-94.8	0.0
2025-01-19 12:56:33.138861	235.1	18.1	-94.7	0.0
2025-01-19 12:56:35.382850	235.5	18.2	-94.6	0.0
2025-01-19 12:56:37.626620	236.0	18.4	-94.9	0.0
2025-01-19 12:56:39.869275	236.4	18.5	-95.2	0.0
2025-01-19 12:56:42.112243	236.9	18.7	-94.7	0.0
2025-01-19 12:56:44.356048	237.3	18.8	-94.6	0.0
2025-01-19 12:56:46.598315	237.8	18.9	-94.8	0.0
2025-01-19 12:56:48.839487	238.3	19.1	-94.7	0.0
2025-01-19 12:56:51.081462	238.8	19.2	-95.0	0.0
2025-01-19 12:56:53.322814	239.2	19.4	-94.7	0.0
2025-01-19 12:56:55.564393	239.7	19.5	-94.3	0.0
2025-01-19 12:56:57.805284	240.2	19.7	-94.5	0.0
2025-01-19 12:57:00.048889	240.7	19.8	-94.8	0.0
2025-01-19 12:57:02.293740	241.2	19.9	-94.4	0.0
2025-01-19 12:57:04.536837	241.7	20.1	-94.8	0.0
2025-01-19 12:57:06.779006	242.2	20.2	-94.7	0.0
2025-01-19 12:57:09.022278	242.7	20.3	-94.9	0.0
2025-01-19 12:57:11.262170	243.2	20.5	-94.9	0.0
2025-01-19 12:57:13.504494	243.7	20.6	-94.8	0.0
2025-01-19 12:57:15.745497	244.3	20.7	-94.9	0.0
2025-01-19 12:57:17.988549	244.8	20.9	-94.9	0.0
2025-01-19 12:57:20.232457	245.3	21.0	-94.8	0.0
2025-01-19 12:57:22.476610	245.9	21.1	-94.7	0.0
2025-01-19 12:57:24.716984	246.4	21.2	-94.9	0.0
2025-01-19 12:57:26.958810	247.0	21.3	-94.7	0.0
2025-01-19 12:57:29.200357	247.5	21.5	-94.7	0.0
2025-01-19 12:57:31.444489	248.1	21.6	-94.5	0.0
2025-01-19 12:57:33.686383	248.6	21.7	-94.7	0.0
2025-01-19 12:57:35.926243	249.2	21.8	-94.5	0.0
2025-01-19 12:57:38.163743	249.7	21.9	-94.8	0.0
2025-01-19 12:57:40.407821	250.3	22.0	-94.7	0.0
2025-01-19 12:57:42.652675	250.9	22.1	-94.5	0.0
2025-01-19 12:57:44.894457	251.4	22.2	-94.8	0.0
2025-01-19 12:57:47.137475	252.0	22.3	-94.6	0.0
2025-01-19 12:57:49.380648	252.6	22.4	-94.7	0.0
2025-01-19 12:57:51.624378	253.2	22.5	-94.8	0.0
2025-01-19 12:57:53.866649	253.8	22.6	-94.9	0.0
2025-01-19 12:57:56.110739	254.4	22.7	-95.0	0.0
2025-01-19 12:57:58.354954	255.0	22.8	-94.8	0.0
2025-01-19 12:58:00.596320	255.6	22.9	-94.7	0.0
2025-01-19 12:58:02.836736	256.2	22.9	-94.9	0.0
2025-01-19 12:58:05.076519	256.8	23.0	-95.1	0.0
2025-01-19 12:58:07.320661	257.4	23.1	-94.8	0.0
2025-01-19 12:58:09.564041	258.0	23.1	-94.5	0.0
2025-01-19 12:58:11.805030	258.6	23.2	-94.8	0.0
2025-01-19 12:58:14.048146	259.2	23.3	-94.6	0.0
2025-01-19 12:58:16.292186	259.8	23.3	-94.6	0.0
2025-01-19 12:58:18.532785	260.5	23.4	-94.8	0.0
2025-01-19 12:58:20.776470	261.1	23.4	-95.0	0.0
2025-01-19 12:58:23.021369	261.7	23.5	-94.8	0.0
2025-01-19 12:58:25.261940	262.3	23.5	-94.5	0.0
2025-01-19 12:58:27.504856	263.0	23.6	-95.0	0.0
2025-01-19 12:58:29.746320	263.6	23.6	-94.7	0.0
2025-01-19 12:58:31.991190	264.2	23.7	-94.6	0.0
2025-01-19 12:58:34.231099	264.9	23.7	-94.9	0.0
2025-01-19 12:58:36.470267	265.5	23.7	-94.8	0.0
2025-01-19 12:58:38.711697	266.1	23.8	-94.6	0.0
2025-01-19 12:58:40.954617	266.8	23.8	-94.7	0.0
2025-01-19 12:58:43.199375	267.4	23.8	-94.7	0.0
2025-01-19 12:58:45.440464	268.0	23.8	-94.7	0.0
2025-01-19 12:58:47.680982	268.7	23.8	-94.7	0.0
2025-01-19 12:58:49.926411	269.3	23.8	-94.8	0.0
2025-01-19 12:58:52.166345	269.9	23.8	-94.6	0.0
2025-01-19 12:58:54.407488	270.6	23.8	-94.8	0.0
2025-01-19 12:58:56.646287	271.2	23.8	-94.9	0.0
2025-01-19 12:58:58.888643	271.9	23.8	-94.8	0.0
2025-01-19 12:59:01.132112	272.5	23.8	-94.6	0.0
2025-01-19 12:59:03.372064	273.1	23.8	-94.6	0.0
2025-01-19 12:59:05.615110	273.8	23.8	-94.8	0.0
2025-01-19 12:59:07.854321	274.4	23.8	-95.1	0.0
2025-01-19 12:59:10.095213	275.0	23.7	-94.9	0.0
2025-01-19 12:59:12.337021	275.7	23.7	-94.9	0.0
2025-01-19 12:59:14.578920	276.3	23.7	-94.9	0.0
2025-01-19 12:59:16.823385	276.9	23.6	-94.8	0.0
2025-01-19 12:59:19.062876	277.6	23.6	-94.9	0.0
2025-01-19 12:59:21.303876	278.2	23.6	-94.7	0.0
2025-01-19 12:59:23.548356	278.8	23.5	-95.0	0.0
2025-01-19 12:59:25.790693	279.4	23.5	-94.8	0.0
2025-01-19 12:59:28.032250	280.1	23.4	-95.0	0.0
2025-01-19 12:59:30.274502	280.7	23.4	-94.7	0.0
2025-01-19 12:59:32.518424	281.3	23.3	-94.9	0.0
2025-01-19 12:59:34.761186	281.9	23.2	-94.9	0.0
2025-01-19 12:59:37.003363	282.5	23.2	-94.8	0.0
2025-01-19 12:59:39.245299	283.1	23.1	-94.8	0.0
2025-01-19 12:59:41.487199	283.7	23.0	-95.0	0.0
2025-01-19 12:59:43.731185	284.3	22.9	-94.7	0.0
2025-01-19 12:59:45.976148	284.9	22.9	-94.7	0.0
2025-01-19 12:59:48.218804	285.5	22.8	-94.8	0.0
2025-01-19 12:59:50.460021	286.1	22.7	-94.8	0.0
2025-01-19 12:59:52.702240	286.7	22.6	-94.6	0.0
2025-01-19 12:59:54.947908	287.3	22.5	-94.8	0.0
2025-01-19 12:59:57.190780	287.9	22.4	-94.8	0.0
2025-01-19 12:59:59.430534	288.5	22.3	-94.7	0.0
2025-01-19 13:00:01.671457	289.1	22.2	-95.0	0.0
2025-01-19 13:00:03.914484	289.6	22.1	-95.0	0.0
2025-01-19 13:00:06.155690	290.2	22.0	-94.8	0.0
2025-01-19 13:00:08.400833	290.8	21.9	-95.1	0.0
2025-01-19 13:00:10.640842	291.3	21.8	-94.7	0.0
2025-01-19 13:00:12.886365	291.9	21.7	-94.7	0.0
2025-01-19 13:00:15.130341	292.5	21.6	-94.6	0.0
2025-01-19 13:00:17.373729	293.0	21.5	-94.7	0.0
2025-01-19 13:00:19.620202	293.6	21.4	-94.9	0.0
2025-01-19 13:00:21.863713	294.1	21.3	-94.9	0.0
2025-01-19 13:00:24.107867	294.6	21.1	-94.8	0.0
2025-01-19 13:00:26.349252	295.2	21.0	-94.9	0.0
2025-01-19 13:00:28.592305	295.7	20.9	-94.8	0.0
2025-01-19 13:00:30.836894	296.2	20.8	-94.8	0.0
2025-01-19 13:00:33.078827	296.8	20.6	-94.6	0.0
2025-01-19 13:00:35.322332	297.3	20.5	-94.8	0.0
2025-01-19 13:00:37.562462	297.8	20.4	-94.8	0.0
2025-01-19 13:00:39.803636	298.3	20.3	-94.9	0.0
2025-01-19 13:00:42.043740	298.8	20.1	-94.8	0.0
2025-01-19 13:00:44.284666	299.3	20.0	-94.9	0.0
2025-01-19 13:00:46.524950	299.8	19.9	-94.8	0.0
2025-01-19 13:00:48.768956	300.3	19.7	-94.8	0.0
2025-01-19 13:00:51.012292	300.8	19.6	-94.7	0.0
2025-01-19 13:00:53.257233	301.3	19.4	-94.8	0.0
2025-01-19 13:00:55.499236	301.7	19.3	-94.9	0.0
2025-01-19 13:00:57.741833	302.2	19.1	-94.9	0.0
2025-01-19 13:00:59.984518	302.7	19.0	-95.0	0.0
2025-01-19 13:01:02.226812	303.2	18.9	-95.0	0.0
2025-01-19 13:01:04.468704	303.6	18.7	-94.8	0.0
2025-01-19 13:01:06.710161	304.1	18.6	-95.2	0.0
2025-01-19 13:01:08.954429	304.5	18.4	-94.7	0.0
2025-01-19 13:01:11.196466	305.0	18.3	-94.7	0.0
2025-01-19 13:01:13.438420	305.4	18.1	-94.6	0.0
2025-01-19 13:01:15.679864	305.9	18.0	-95.0	0.0
2025-01-19 13:01:17.919979	306.3	17.8	-94.6	0.0
2025-01-19 13:01:20.162305	306.7	17.7	-94.7	0.0
2025-01-19 13:01:22.402688	307.2	17.5	-94.8	0.0
2025-01-19 13:01:24.644316	307.6	17.4	-94.8	0.0
2025-01-19 13:01:26.884912	308.0	17.2	-94.8	0.0
2025-01-19 13:01:29.128541	308.4	17.1	-94.7	0.0
2025-01-19 13:01:31.371357	308.8	16.9	-94.8	0.0
2025-01-19 13:01:33.617721	309.2	16.8	-95.1	0.0
2025-01-19 13:01:35.858951	309.6	16.6	-94.7	0.0
2025-01-19 13:01:38.097809	310.0	16.4	-95.0	0.0
2025-01-19 13:01:40.340648	310.4	16.3	-95.1	0.0
2025-01-19 13:01:42.582316	310.8	16.1	-94.8	0.0
2025-01-19 13:01:44.823490	311.2	16.0	-95.2	0.0
2025-01-19 13:01:47.063849	311.6	15.8	-94.9	0.0
2025-01-19 13:01:49.308654	312.0	15.7	-95.0	0.0
2025-01-19 13:01:51.553855	312.3	15.5	-94.9	0.0
2025-01-19 13:01:53.798551	312.7	15.4	-94.9	0.0
2025-01-19 13:01:56.038280	313.1	15.2	-94.8	0.0
2025-01-19 13:01:58.280331	313.4	15.0	-95.1	0.0
2025-01-19 13:02:00.525026	313.8	14.9	-94.8	0.0
2025-01-19 13:02:02.768890	314.2	14.7	-94.8	0.0
2025-01-19 13:02:05.010472	314.5	14.6	-94.7	0.0
2025-01-19 13:02:07.252533	314.9	14.4	-95.2	0.0
2025-01-19 13:02:09.493319	315.2	14.3	-94.7	0.0
2025-01-19 13:02:11.734628	315.6	14.1	-94.8	0.0
2025-01-19 13:02:13.976254	315.9	14.0	-94.8	0.0
2025-01-19 13:02:16.216605	316.2	13.8	-94.7	0.0
2025-01-19 13:02:18.459662	316.6	13.6	-94.9	0.0
2025-01-19 13:02:20.702143	316.9	13.5	-94.7	0.0
2025-01-19 13:02:22.944814	317.2	13.3	-94.9	0.0
2025-01-19 13:02:25.189279	317.5	13.2	-95.1	0.0
2025-01-19 13:02:27.431897	317.9	13.0	-95.0	0.0
2025-01-19 13:02:29.672417	318.2	12.9	-95.1	0.0
2025-01-19 13:02:31.911747	318.5	12.7	-95.0	0.0
2025-01-19 13:02:34.155869	318.8	12.6	-95.1	0.0
2025-01-19 13:02:36.398732	319.1	12.4	-94.5	0.0
2025-01-19 13:02:38.640573	319.4	12.3	-95.0	0.0
2025-01-19 13:02:40.881670	319.7	12.1	-94.7	0.0
2025-01-19 13:02:43.125722	320.0	11.9	-94.8	0.0
2025-01-19 13:02:45.368404	320.3	11.8	-94.7	0.0
2025-01-19 13:02:47.610705	320.6	11.6	-94.7	0.0
2025-01-19 13:02:49.854061	320.9	11.5	-94.5	0.0
2025-01-19 13:02:52.094194	321.2	11.3	-94.7	0.0
2025-01-19 13:02:54.332937	321.4	11.2	-94.7	0.0
2025-01-19 13:02:56.577060	321.7	11.0	-94.7	0.0
2025-01-19 13:02:58.820285	322.0	10.9	-94.9	0.0
2025-01-19 13:03:01.061761	322.3	10.7	-94.6	0.0
2025-01-19 13:03:03.303325	322.5	10.6	-94.7	0.0
2025-01-19 13:03:05.542973	322.8	10.4	-94.7	0.0
2025-01-19 13:03:07.783417	323.1	10.3	-94.7	0.0
2025-01-19 13:03:10.025943	323.3	10.1	-94.6	0.0
#Closed at: 2025-01-19 12:54:31.638828