passes_logs/2025/01/19/planumMaritime01/planumMaritime01__20250119_120236_METEOR-M2_2_rec.log

#Pass ID: 20250119_120236_METEOR-M2 2
#Satellite: METEOR-M2 2
#Configuration: METEOR-M2 2
#Start time: 2025-01-19 12:02:41.369314

#LorettStation: 1.0.0 05.05.2024
#Station: planumMaritime01
#Location: 37.49445 lon 55.92918 lat
#TLE: 1 44387U 19038A   25018.08914431  .00000283  00000+0  14263-3 0  9994
#TLE: 2 44387  98.8572 354.5105 0002264  74.1378 286.0050 14.24118986287972

#Time	Az	El	Level	SNR
2025-01-19 12:02:43.531190	151.3	10.2	-94.6	0.0
2025-01-19 12:02:45.774036	151.2	10.4	-94.2	0.0
2025-01-19 12:02:48.016887	151.2	10.6	-94.5	0.0
2025-01-19 12:02:50.258306	151.2	10.8	-94.8	0.0
2025-01-19 12:02:52.499023	151.1	11.0	-94.6	0.0
2025-01-19 12:02:54.740912	151.1	11.2	-94.5	0.0
2025-01-19 12:02:56.985192	151.0	11.4	-94.5	0.0
2025-01-19 12:02:59.225923	151.0	11.6	-94.8	0.0
2025-01-19 12:03:01.468381	150.9	11.8	-94.5	0.0
2025-01-19 12:03:03.709717	150.9	12.0	-94.6	0.0
2025-01-19 12:03:05.950779	150.8	12.3	-94.6	0.0
2025-01-19 12:03:08.193293	150.8	12.5	-94.6	0.0
2025-01-19 12:03:10.433971	150.7	12.7	-94.5	0.0
2025-01-19 12:03:12.676117	150.7	12.9	-94.8	0.0
2025-01-19 12:03:14.920625	150.6	13.1	-94.7	0.0
2025-01-19 12:03:17.161821	150.6	13.4	-94.8	0.0
2025-01-19 12:03:19.403593	150.5	13.6	-94.7	0.0
2025-01-19 12:03:21.646003	150.5	13.8	-94.4	0.0
2025-01-19 12:03:23.889115	150.4	14.0	-94.8	0.0
2025-01-19 12:03:26.129827	150.4	14.3	-94.5	0.0
2025-01-19 12:03:28.370189	150.3	14.5	-94.6	0.0
2025-01-19 12:03:30.614940	150.2	14.7	-94.5	0.0
2025-01-19 12:03:32.854746	150.2	15.0	-94.4	0.0
2025-01-19 12:03:35.100671	150.1	15.2	-94.8	0.0
2025-01-19 12:03:37.342039	150.1	15.5	-94.4	0.0
2025-01-19 12:03:39.582023	150.0	15.7	-94.6	0.0
2025-01-19 12:03:41.822849	149.9	16.0	-94.6	0.0
2025-01-19 12:03:44.063522	149.9	16.2	-94.7	0.0
2025-01-19 12:03:46.306815	149.8	16.5	-94.8	0.0
2025-01-19 12:03:48.550325	149.7	16.7	-94.6	0.0
2025-01-19 12:03:50.793093	149.7	17.0	-94.9	0.0
2025-01-19 12:03:53.036043	149.6	17.3	-94.7	0.0
2025-01-19 12:03:55.281172	149.5	17.5	-94.5	0.0
2025-01-19 12:03:57.520745	149.5	17.8	-94.8	0.0
2025-01-19 12:03:59.763862	149.4	18.1	-94.7	0.0
2025-01-19 12:04:02.006315	149.3	18.3	-94.7	0.0
2025-01-19 12:04:04.248043	149.2	18.6	-94.7	0.0
2025-01-19 12:04:06.487098	149.2	18.9	-94.8	0.0
2025-01-19 12:04:08.727335	149.1	19.2	-94.6	0.0
2025-01-19 12:04:10.969312	149.0	19.5	-94.6	0.0
2025-01-19 12:04:13.210700	148.9	19.8	-94.7	0.0
2025-01-19 12:04:15.453125	148.8	20.1	-94.5	0.0
2025-01-19 12:04:17.696929	148.7	20.4	-94.5	0.0
2025-01-19 12:04:19.939113	148.6	20.7	-94.8	0.0
2025-01-19 12:04:22.181072	148.6	21.0	-94.8	0.0
2025-01-19 12:04:24.424190	148.5	21.3	-94.9	0.0
2025-01-19 12:04:26.665863	148.4	21.6	-94.8	0.0
2025-01-19 12:04:28.910693	148.3	21.9	-94.9	0.0
2025-01-19 12:04:31.152266	148.2	22.2	-94.9	0.0
2025-01-19 12:04:33.391809	148.1	22.5	-95.0	0.0
2025-01-19 12:04:35.629534	148.0	22.9	-94.5	0.0
2025-01-19 12:04:37.873368	147.9	23.2	-94.8	0.0
2025-01-19 12:04:40.115291	147.8	23.5	-94.6	0.0
2025-01-19 12:04:42.355935	147.6	23.9	-94.7	0.0
2025-01-19 12:04:44.596186	147.5	24.2	-94.8	0.0
2025-01-19 12:04:46.836680	147.4	24.6	-94.5	0.0
2025-01-19 12:04:49.078888	147.3	24.9	-94.7	0.0
2025-01-19 12:04:51.320991	147.2	25.3	-94.7	0.0
2025-01-19 12:04:53.561283	147.0	25.7	-94.7	0.0
2025-01-19 12:04:55.805088	146.9	26.0	-94.9	0.0
2025-01-19 12:04:58.049674	146.8	26.4	-94.8	0.0
2025-01-19 12:05:00.289438	146.7	26.8	-94.7	0.0
2025-01-19 12:05:02.530129	146.5	27.2	-94.6	0.0
2025-01-19 12:05:04.772251	146.4	27.6	-94.6	0.0
2025-01-19 12:05:07.013273	146.2	27.9	-95.0	0.0
2025-01-19 12:05:09.252839	146.1	28.4	-94.9	0.0
2025-01-19 12:05:11.492250	145.9	28.8	-94.8	0.0
2025-01-19 12:05:13.736282	145.8	29.2	-94.9	0.0
2025-01-19 12:05:15.980297	145.6	29.6	-94.7	0.0
2025-01-19 12:05:18.222020	145.4	30.0	-94.6	0.0
2025-01-19 12:05:20.461487	145.3	30.4	-94.6	0.0
2025-01-19 12:05:22.705199	145.1	30.9	-94.9	0.0
2025-01-19 12:05:24.948040	144.9	31.3	-94.8	0.0
2025-01-19 12:05:27.189563	144.7	31.8	-94.8	0.0
2025-01-19 12:05:29.431731	144.5	32.2	-94.8	0.0
2025-01-19 12:05:31.674556	144.4	32.7	-94.8	0.0
2025-01-19 12:05:33.918188	144.2	33.2	-94.9	0.0
2025-01-19 12:05:36.160188	143.9	33.6	-94.4	0.0
2025-01-19 12:05:38.403293	143.7	34.1	-94.8	0.0
2025-01-19 12:05:40.647345	143.5	34.6	-94.9	0.0
2025-01-19 12:05:42.888205	143.3	35.1	-94.8	0.0
2025-01-19 12:05:45.131965	143.0	35.6	-94.6	0.0
2025-01-19 12:05:47.371570	142.8	36.1	-94.6	0.0
2025-01-19 12:05:49.612929	142.5	36.7	-94.7	0.0
2025-01-19 12:05:51.855204	142.3	37.2	-94.8	0.0
2025-01-19 12:05:54.097132	142.0	37.7	-94.7	0.0
2025-01-19 12:05:56.340871	141.7	38.3	-94.8	0.0
2025-01-19 12:05:58.583113	141.5	38.8	-94.5	0.0
2025-01-19 12:06:00.824599	141.2	39.4	-94.6	0.0
2025-01-19 12:06:03.066268	140.8	40.0	-94.7	0.0
2025-01-19 12:06:05.308060	140.5	40.5	-94.7	0.0
2025-01-19 12:06:07.548792	140.2	41.1	-94.9	0.0
2025-01-19 12:06:09.793327	139.9	41.7	-94.7	0.0
2025-01-19 12:06:12.039204	139.5	42.3	-94.8	0.0
2025-01-19 12:06:14.281236	139.1	42.9	-95.0	0.0
2025-01-19 12:06:16.520438	138.7	43.6	-94.8	0.0
2025-01-19 12:06:18.759484	138.3	44.2	-94.7	0.0
2025-01-19 12:06:21.001422	137.9	44.8	-94.9	0.0
2025-01-19 12:06:23.243546	137.5	45.5	-95.0	0.0
2025-01-19 12:06:25.484104	137.0	46.1	-94.6	0.0
2025-01-19 12:06:27.725919	136.5	46.8	-95.0	0.0
2025-01-19 12:06:29.964967	136.1	47.5	-94.7	0.0
2025-01-19 12:06:32.207694	135.5	48.1	-95.0	0.0
2025-01-19 12:06:34.450934	135.0	48.8	-94.9	0.0
2025-01-19 12:06:36.691769	134.4	49.5	-94.9	0.0
2025-01-19 12:06:38.933682	133.8	50.2	-94.8	0.0
2025-01-19 12:06:41.176212	133.2	51.0	-95.0	0.0
2025-01-19 12:06:43.419392	132.5	51.7	-94.8	0.0
2025-01-19 12:06:45.660014	131.9	52.4	-95.0	0.0
2025-01-19 12:06:47.900690	131.1	53.1	-94.8	0.0
2025-01-19 12:06:50.142264	130.4	53.9	-94.7	0.0
2025-01-19 12:06:52.385113	129.6	54.6	-94.9	0.0
2025-01-19 12:06:54.624787	128.7	55.4	-94.7	0.0
2025-01-19 12:06:56.865020	127.8	56.1	-94.8	0.0
2025-01-19 12:06:59.105681	126.9	56.9	-94.9	0.0
2025-01-19 12:07:01.350001	125.9	57.6	-94.7	0.0
2025-01-19 12:07:03.594187	124.9	58.4	-94.8	0.0
2025-01-19 12:07:05.834208	123.7	59.2	-94.8	0.0
2025-01-19 12:07:08.075476	122.6	59.9	-95.0	0.0
2025-01-19 12:07:10.316398	121.3	60.7	-94.9	0.0
2025-01-19 12:07:12.558057	120.0	61.4	-94.9	0.0
2025-01-19 12:07:14.796696	118.6	62.2	-95.0	0.0
2025-01-19 12:07:17.038470	117.1	62.9	-95.0	0.0
2025-01-19 12:07:19.280470	115.5	63.6	-95.1	0.0
2025-01-19 12:07:21.525541	113.8	64.4	-94.9	0.0
2025-01-19 12:07:23.766067	112.0	65.1	-94.7	0.0
2025-01-19 12:07:26.010724	110.0	65.8	-94.6	0.0
2025-01-19 12:07:28.252711	108.0	66.4	-94.8	0.0
2025-01-19 12:07:30.492829	105.8	67.1	-94.8	0.0
2025-01-19 12:07:32.733432	103.5	67.7	-94.6	0.0
2025-01-19 12:07:34.975319	101.1	68.2	-94.8	0.0
2025-01-19 12:07:37.220276	98.5	68.8	-94.6	0.0
2025-01-19 12:07:39.463535	95.7	69.3	-94.6	0.0
2025-01-19 12:07:41.707059	92.9	69.8	-94.8	0.0
2025-01-19 12:07:43.948251	89.8	70.2	-94.7	0.0
2025-01-19 12:07:46.190150	86.7	70.5	-94.7	0.0
2025-01-19 12:07:48.433092	83.4	70.8	-94.8	0.0
2025-01-19 12:07:50.674125	80.1	71.1	-95.0	0.0
2025-01-19 12:07:52.920103	76.6	71.3	-94.5	0.0
2025-01-19 12:07:55.160739	73.1	71.4	-94.9	0.0
2025-01-19 12:07:57.401066	69.6	71.4	-94.9	0.0
2025-01-19 12:07:59.644978	66.1	71.4	-94.8	0.0
2025-01-19 12:08:01.884589	62.5	71.4	-94.7	0.0
2025-01-19 12:08:04.127550	59.1	71.2	-94.9	0.0
2025-01-19 12:08:06.368020	55.7	71.0	-94.8	0.0
2025-01-19 12:08:08.606122	52.4	70.7	-95.0	0.0
2025-01-19 12:08:10.849839	49.1	70.4	-94.9	0.0
2025-01-19 12:08:13.092232	46.1	70.0	-94.8	0.0
2025-01-19 12:08:15.334274	43.1	69.6	-95.0	0.0
2025-01-19 12:08:17.574821	40.3	69.1	-94.9	0.0
2025-01-19 12:08:19.815692	37.6	68.6	-94.9	0.0
2025-01-19 12:08:22.059435	35.1	68.0	-94.9	0.0
2025-01-19 12:08:24.304140	32.7	67.4	-94.9	0.0
2025-01-19 12:08:26.545886	30.5	66.8	-94.9	0.0
2025-01-19 12:08:28.789192	28.3	66.1	-94.7	0.0
2025-01-19 12:08:31.030063	26.3	65.5	-94.8	0.0
2025-01-19 12:08:33.274040	24.5	64.8	-95.1	0.0
2025-01-19 12:08:35.514019	22.7	64.1	-94.9	0.0
2025-01-19 12:08:37.756200	21.1	63.4	-94.9	0.0
2025-01-19 12:08:39.997919	19.5	62.6	-95.1	0.0
2025-01-19 12:08:42.240252	18.0	61.9	-94.9	0.0
2025-01-19 12:08:44.482382	16.7	61.1	-95.0	0.0
2025-01-19 12:08:46.725322	15.4	60.4	-95.0	0.0
2025-01-19 12:08:48.971116	14.1	59.6	-94.8	0.0
2025-01-19 12:08:51.213540	13.0	58.9	-94.8	0.0
2025-01-19 12:08:53.455253	11.9	58.1	-94.7	0.0
2025-01-19 12:08:55.695131	10.9	57.3	-94.7	0.0
2025-01-19 12:08:57.936347	9.9	56.6	-94.7	0.0
2025-01-19 12:09:00.180194	9.0	55.8	-94.7	0.0
2025-01-19 12:09:02.421562	8.1	55.1	-94.6	0.0
2025-01-19 12:09:04.664210	7.3	54.3	-94.7	0.0
2025-01-19 12:09:06.908938	6.5	53.6	-94.9	0.0
2025-01-19 12:09:09.150039	5.8	52.9	-94.6	0.0
2025-01-19 12:09:11.390136	5.1	52.1	-94.9	0.0
2025-01-19 12:09:13.632200	4.4	51.4	-94.7	0.0
2025-01-19 12:09:15.874538	3.8	50.7	-94.6	0.0
2025-01-19 12:09:18.112802	3.2	50.0	-94.9	0.0
2025-01-19 12:09:20.357790	2.6	49.3	-94.7	0.0
2025-01-19 12:09:22.601630	2.0	48.6	-94.8	0.0
2025-01-19 12:09:24.842370	1.5	47.9	-94.8	0.0
2025-01-19 12:09:27.083583	1.0	47.2	-94.9	0.0
2025-01-19 12:09:29.324954	0.5	46.6	-94.8	0.0
2025-01-19 12:09:31.564484	0.0	45.9	-94.8	0.0
2025-01-19 12:09:33.808188	359.6	45.3	-94.8	0.0
2025-01-19 12:09:36.051344	359.2	44.6	-95.1	0.0
2025-01-19 12:09:38.290031	358.7	44.0	-94.6	0.0
2025-01-19 12:09:40.534445	358.4	43.4	-95.0	0.0
2025-01-19 12:09:42.777096	358.0	42.8	-94.8	0.0
2025-01-19 12:09:45.020058	357.6	42.1	-94.8	0.0
2025-01-19 12:09:47.264810	357.3	41.5	-94.6	0.0
2025-01-19 12:09:49.510129	356.9	41.0	-94.7	0.0
2025-01-19 12:09:51.750983	356.6	40.4	-94.5	0.0
2025-01-19 12:09:53.989915	356.3	39.8	-94.7	0.0
2025-01-19 12:09:56.230010	356.0	39.2	-94.7	0.0
2025-01-19 12:09:58.471421	355.7	38.7	-94.6	0.0
2025-01-19 12:10:00.713743	355.4	38.1	-94.7	0.0
2025-01-19 12:10:02.956371	355.1	37.6	-94.8	0.0
2025-01-19 12:10:05.198957	354.9	37.1	-94.6	0.0
2025-01-19 12:10:07.442167	354.6	36.5	-95.1	0.0
2025-01-19 12:10:09.686998	354.4	36.0	-95.1	0.0
2025-01-19 12:10:11.929617	354.1	35.5	-94.8	0.0
2025-01-19 12:10:14.168875	353.9	35.0	-95.1	0.0
2025-01-19 12:10:16.410881	353.7	34.5	-95.0	0.0
2025-01-19 12:10:18.652747	353.5	34.0	-95.0	0.0
2025-01-19 12:10:20.895930	353.2	33.5	-95.2	0.0
2025-01-19 12:10:23.136802	353.0	33.1	-94.8	0.0
2025-01-19 12:10:25.378819	352.8	32.6	-95.1	0.0
2025-01-19 12:10:27.622494	352.6	32.2	-94.9	0.0
2025-01-19 12:10:29.864087	352.5	31.7	-94.8	0.0
2025-01-19 12:10:32.105082	352.3	31.3	-94.5	0.0
2025-01-19 12:10:34.346688	352.1	30.8	-94.7	0.0
2025-01-19 12:10:36.587713	351.9	30.4	-94.6	0.0
2025-01-19 12:10:38.828066	351.8	30.0	-94.9	0.0
2025-01-19 12:10:41.072213	351.6	29.5	-94.8	0.0
2025-01-19 12:10:43.314533	351.4	29.1	-94.6	0.0
2025-01-19 12:10:45.557945	351.3	28.7	-94.7	0.0
2025-01-19 12:10:47.798197	351.1	28.3	-94.9	0.0
2025-01-19 12:10:50.042118	351.0	27.9	-94.8	0.0
2025-01-19 12:10:52.285556	350.9	27.5	-94.8	0.0
2025-01-19 12:10:54.527641	350.7	27.1	-94.8	0.0
2025-01-19 12:10:56.772404	350.6	26.8	-94.9	0.0
2025-01-19 12:10:59.013133	350.4	26.4	-94.9	0.0
2025-01-19 12:11:01.251006	350.3	26.0	-94.8	0.0
2025-01-19 12:11:03.492261	350.2	25.6	-95.0	0.0
2025-01-19 12:11:05.732164	350.1	25.3	-94.8	0.0
2025-01-19 12:11:07.977749	350.0	24.9	-94.8	0.0
2025-01-19 12:11:10.219417	349.8	24.6	-95.0	0.0
2025-01-19 12:11:12.460354	349.7	24.2	-94.9	0.0
2025-01-19 12:11:14.699416	349.6	23.9	-95.0	0.0
2025-01-19 12:11:16.939839	349.5	23.5	-95.0	0.0
2025-01-19 12:11:19.182677	349.4	23.2	-95.0	0.0
2025-01-19 12:11:21.426876	349.3	22.9	-95.2	0.0
2025-01-19 12:11:23.667214	349.2	22.6	-95.1	0.0
2025-01-19 12:11:25.907267	349.1	22.2	-95.3	0.0
2025-01-19 12:11:28.148371	349.0	21.9	-94.9	0.0
2025-01-19 12:11:30.390507	348.9	21.6	-94.7	0.0
2025-01-19 12:11:32.631812	348.8	21.3	-94.9	0.0
2025-01-19 12:11:34.873537	348.7	21.0	-95.1	0.0
2025-01-19 12:11:37.115252	348.6	20.7	-95.0	0.0
2025-01-19 12:11:39.357286	348.5	20.4	-95.1	0.0
2025-01-19 12:11:41.598215	348.5	20.1	-94.8	0.0
2025-01-19 12:11:43.837812	348.4	19.8	-95.1	0.0
2025-01-19 12:11:46.075334	348.3	19.5	-94.9	0.0
2025-01-19 12:11:48.316297	348.2	19.2	-94.6	0.0
2025-01-19 12:11:50.560813	348.1	18.9	-94.8	0.0
2025-01-19 12:11:52.801893	348.1	18.7	-94.8	0.0
2025-01-19 12:11:55.042262	348.0	18.4	-94.5	0.0
2025-01-19 12:11:57.284384	347.9	18.1	-95.0	0.0
2025-01-19 12:11:59.523845	347.8	17.8	-94.9	0.0
2025-01-19 12:12:01.766214	347.8	17.6	-94.8	0.0
2025-01-19 12:12:04.010277	347.7	17.3	-94.6	0.0
2025-01-19 12:12:06.254812	347.6	17.1	-94.8	0.0
2025-01-19 12:12:08.495135	347.6	16.8	-94.7	0.0
2025-01-19 12:12:10.735597	347.5	16.5	-95.0	0.0
2025-01-19 12:12:12.975712	347.4	16.3	-94.9	0.0
2025-01-19 12:12:15.217499	347.4	16.0	-95.0	0.0
2025-01-19 12:12:17.459245	347.3	15.8	-94.9	0.0
2025-01-19 12:12:19.700644	347.3	15.5	-94.9	0.0
2025-01-19 12:12:21.942270	347.2	15.3	-94.9	0.0
2025-01-19 12:12:24.183844	347.1	15.1	-95.1	0.0
2025-01-19 12:12:26.422978	347.1	14.8	-95.0	0.0
2025-01-19 12:12:28.664968	347.0	14.6	-95.1	0.0
2025-01-19 12:12:30.907550	347.0	14.4	-94.8	0.0
2025-01-19 12:12:33.148076	346.9	14.1	-94.8	0.0
2025-01-19 12:12:35.392226	346.9	13.9	-95.2	0.0
2025-01-19 12:12:37.631913	346.8	13.7	-94.9	0.0
2025-01-19 12:12:39.872788	346.8	13.4	-94.8	0.0
2025-01-19 12:12:42.117504	346.7	13.2	-95.0	0.0
2025-01-19 12:12:44.358963	346.7	13.0	-94.5	0.0
2025-01-19 12:12:46.601783	346.6	12.8	-95.0	0.0
2025-01-19 12:12:48.843116	346.6	12.6	-94.7	0.0
2025-01-19 12:12:51.086835	346.5	12.3	-94.9	0.0
2025-01-19 12:12:53.328881	346.5	12.1	-94.9	0.0
2025-01-19 12:12:55.566420	346.4	11.9	-94.7	0.0
2025-01-19 12:12:57.806243	346.4	11.7	-94.7	0.0
2025-01-19 12:13:00.048781	346.3	11.5	-94.8	0.0
2025-01-19 12:13:02.290127	346.3	11.3	-94.9	0.0
2025-01-19 12:13:04.532064	346.3	11.1	-94.7	0.0
2025-01-19 12:13:06.772245	346.2	10.9	-94.4	0.0
2025-01-19 12:13:09.012129	346.2	10.7	-94.8	0.0
2025-01-19 12:13:11.251069	346.1	10.5	-94.9	0.0
2025-01-19 12:13:13.495897	346.1	10.3	-94.9	0.0
2025-01-19 12:13:15.735028	346.1	10.1	-94.4	0.0
#Closed at: 2025-01-19 12:02:36.371722