passes_logs/2025/01/19/planumMaritime01/planumMaritime01__20250119_134359_METEOR-M2_2_rec.log

#Pass ID: 20250119_134359_METEOR-M2 2
#Satellite: METEOR-M2 2
#Configuration: METEOR-M2 2
#Start time: 2025-01-19 13:44:04.674731

#LorettStation: 1.0.0 05.05.2024
#Station: planumMaritime01
#Location: 37.49445 lon 55.92918 lat
#TLE: 1 44387U 19038A   25018.08914431  .00000283  00000+0  14263-3 0  9994
#TLE: 2 44387  98.8572 354.5105 0002264  74.1378 286.0050 14.24118986287972

#Time	Az	El	Level	SNR
2025-01-19 13:44:06.833401	215.0	10.1	-94.7	0.0
2025-01-19 13:44:09.075469	215.3	10.3	-94.4	0.0
2025-01-19 13:44:11.314390	215.6	10.5	-94.5	0.0
2025-01-19 13:44:13.556641	215.8	10.6	-94.5	0.0
2025-01-19 13:44:15.798765	216.1	10.8	-94.8	0.0
2025-01-19 13:44:18.037844	216.4	10.9	-94.5	0.0
2025-01-19 13:44:20.281206	216.6	11.1	-94.4	0.0
2025-01-19 13:44:22.525253	216.9	11.2	-94.7	0.0
2025-01-19 13:44:24.769594	217.2	11.4	-94.8	0.0
2025-01-19 13:44:27.011267	217.5	11.6	-94.5	0.0
2025-01-19 13:44:29.253833	217.8	11.7	-94.4	0.0
2025-01-19 13:44:31.497363	218.1	11.9	-94.5	0.0
2025-01-19 13:44:33.739525	218.4	12.0	-94.4	0.0
2025-01-19 13:44:35.980629	218.7	12.2	-94.2	0.0
2025-01-19 13:44:38.223593	219.0	12.4	-94.5	0.0
2025-01-19 13:44:40.464730	219.3	12.5	-94.3	0.0
2025-01-19 13:44:42.706954	219.6	12.7	-94.5	0.0
2025-01-19 13:44:44.946645	219.9	12.8	-94.5	0.0
2025-01-19 13:44:47.188667	220.2	13.0	-94.3	0.0
2025-01-19 13:44:49.432751	220.5	13.2	-94.6	0.0
2025-01-19 13:44:51.674830	220.8	13.3	-94.5	0.0
2025-01-19 13:44:53.917668	221.1	13.5	-94.5	0.0
2025-01-19 13:44:56.158820	221.5	13.6	-94.9	0.0
2025-01-19 13:44:58.403239	221.8	13.8	-94.5	0.0
2025-01-19 13:45:00.644519	222.1	14.0	-94.6	0.0
2025-01-19 13:45:02.887941	222.5	14.1	-94.7	0.0
2025-01-19 13:45:05.129600	222.8	14.3	-94.7	0.0
2025-01-19 13:45:07.373189	223.1	14.5	-94.6	0.0
2025-01-19 13:45:09.614694	223.5	14.6	-94.9	0.0
2025-01-19 13:45:11.857733	223.8	14.8	-94.7	0.0
2025-01-19 13:45:14.100594	224.2	15.0	-94.7	0.0
2025-01-19 13:45:16.344345	224.6	15.1	-94.7	0.0
2025-01-19 13:45:18.588548	224.9	15.3	-95.0	0.0
2025-01-19 13:45:20.833000	225.3	15.5	-94.9	0.0
2025-01-19 13:45:23.072724	225.7	15.6	-94.6	0.0
2025-01-19 13:45:25.314717	226.0	15.8	-94.4	0.0
2025-01-19 13:45:27.558885	226.4	15.9	-94.7	0.0
2025-01-19 13:45:29.801859	226.8	16.1	-94.4	0.0
2025-01-19 13:45:32.044754	227.2	16.3	-94.6	0.0
2025-01-19 13:45:34.284740	227.6	16.4	-94.5	0.0
2025-01-19 13:45:36.526055	228.0	16.6	-94.4	0.0
2025-01-19 13:45:38.768899	228.4	16.8	-94.5	0.0
2025-01-19 13:45:41.013807	228.8	16.9	-94.6	0.0
2025-01-19 13:45:43.256088	229.2	17.1	-94.8	0.0
2025-01-19 13:45:45.498211	229.6	17.3	-94.6	0.0
2025-01-19 13:45:47.740864	230.0	17.4	-94.9	0.0
2025-01-19 13:45:49.983556	230.4	17.6	-94.5	0.0
2025-01-19 13:45:52.228599	230.9	17.7	-94.7	0.0
2025-01-19 13:45:54.472380	231.3	17.9	-94.9	0.0
2025-01-19 13:45:56.713314	231.7	18.1	-94.9	0.0
2025-01-19 13:45:58.955796	232.2	18.2	-95.0	0.0
2025-01-19 13:46:01.200684	232.6	18.4	-94.8	0.0
2025-01-19 13:46:03.443157	233.1	18.6	-94.8	0.0
2025-01-19 13:46:05.686818	233.5	18.7	-94.7	0.0
2025-01-19 13:46:07.927599	234.0	18.9	-94.4	0.0
2025-01-19 13:46:10.171502	234.4	19.0	-94.7	0.0
2025-01-19 13:46:12.413079	234.9	19.2	-94.4	0.0
2025-01-19 13:46:14.659117	235.4	19.3	-94.6	0.0
2025-01-19 13:46:16.903928	235.9	19.5	-94.4	0.0
2025-01-19 13:46:19.145587	236.3	19.6	-94.8	0.0
2025-01-19 13:46:21.389803	236.8	19.8	-94.8	0.0
2025-01-19 13:46:23.633162	237.3	19.9	-94.6	0.0
2025-01-19 13:46:25.879059	237.8	20.1	-94.8	0.0
2025-01-19 13:46:28.120459	238.3	20.2	-94.5	0.0
2025-01-19 13:46:30.365808	238.8	20.4	-95.2	0.0
2025-01-19 13:46:32.608382	239.3	20.5	-94.8	0.0
2025-01-19 13:46:34.847293	239.8	20.7	-94.6	0.0
2025-01-19 13:46:37.092783	240.4	20.8	-95.0	0.0
2025-01-19 13:46:39.335778	240.9	21.0	-94.7	0.0
2025-01-19 13:46:41.578311	241.4	21.1	-94.7	0.0
2025-01-19 13:46:43.819514	241.9	21.3	-94.9	0.0
2025-01-19 13:46:46.064945	242.5	21.4	-94.8	0.0
2025-01-19 13:46:48.305758	243.0	21.5	-95.0	0.0
2025-01-19 13:46:50.546267	243.6	21.7	-94.7	0.0
2025-01-19 13:46:52.789602	244.1	21.8	-94.8	0.0
2025-01-19 13:46:55.030611	244.7	21.9	-94.5	0.0
2025-01-19 13:46:57.272059	245.2	22.0	-94.6	0.0
2025-01-19 13:46:59.514083	245.8	22.2	-94.6	0.0
2025-01-19 13:47:01.755169	246.4	22.3	-94.5	0.0
2025-01-19 13:47:03.998618	247.0	22.4	-94.7	0.0
2025-01-19 13:47:06.239668	247.5	22.5	-94.7	0.0
2025-01-19 13:47:08.482062	248.1	22.6	-94.8	0.0
2025-01-19 13:47:10.721704	248.7	22.8	-94.7	0.0
2025-01-19 13:47:12.964554	249.3	22.9	-94.4	0.0
2025-01-19 13:47:15.206656	249.9	23.0	-94.9	0.0
2025-01-19 13:47:17.450781	250.5	23.1	-94.7	0.0
2025-01-19 13:47:19.693262	251.1	23.2	-94.6	0.0
2025-01-19 13:47:21.935486	251.7	23.3	-94.9	0.0
2025-01-19 13:47:24.177024	252.3	23.4	-94.8	0.0
2025-01-19 13:47:26.419430	252.9	23.5	-95.1	0.0
2025-01-19 13:47:28.664792	253.6	23.6	-95.0	0.0
2025-01-19 13:47:30.907988	254.2	23.7	-94.7	0.0
2025-01-19 13:47:33.147549	254.8	23.7	-94.7	0.0
2025-01-19 13:47:35.389708	255.4	23.8	-94.7	0.0
2025-01-19 13:47:37.632621	256.1	23.9	-94.6	0.0
2025-01-19 13:47:39.873939	256.7	24.0	-94.4	0.0
2025-01-19 13:47:42.115528	257.3	24.0	-94.9	0.0
2025-01-19 13:47:44.359255	258.0	24.1	-94.4	0.0
2025-01-19 13:47:46.602834	258.6	24.2	-94.6	0.0
2025-01-19 13:47:48.845046	259.3	24.2	-94.7	0.0
2025-01-19 13:47:51.084737	259.9	24.3	-94.5	0.0
2025-01-19 13:47:53.326308	260.6	24.3	-94.5	0.0
2025-01-19 13:47:55.570104	261.2	24.4	-94.9	0.0
2025-01-19 13:47:57.812209	261.9	24.4	-94.7	0.0
2025-01-19 13:48:00.055184	262.5	24.5	-95.0	0.0
2025-01-19 13:48:02.297651	263.2	24.5	-95.0	0.0
2025-01-19 13:48:04.537737	263.8	24.6	-94.8	0.0
2025-01-19 13:48:06.784806	264.5	24.6	-94.9	0.0
2025-01-19 13:48:09.027771	265.2	24.6	-94.6	0.0
2025-01-19 13:48:11.269679	265.8	24.6	-94.9	0.0
2025-01-19 13:48:13.514851	266.5	24.7	-94.6	0.0
2025-01-19 13:48:15.755769	267.1	24.7	-94.8	0.0
2025-01-19 13:48:17.997161	267.8	24.7	-94.6	0.0
2025-01-19 13:48:20.240220	268.5	24.7	-94.5	0.0
2025-01-19 13:48:22.483761	269.1	24.7	-94.6	0.0
2025-01-19 13:48:24.727576	269.8	24.7	-94.7	0.0
2025-01-19 13:48:26.968951	270.5	24.7	-94.8	0.0
2025-01-19 13:48:29.212317	271.1	24.7	-94.6	0.0
2025-01-19 13:48:31.455383	271.8	24.7	-94.8	0.0
2025-01-19 13:48:33.698072	272.5	24.6	-94.6	0.0
2025-01-19 13:48:35.940658	273.1	24.6	-94.5	0.0
2025-01-19 13:48:38.184857	273.8	24.6	-94.4	0.0
2025-01-19 13:48:40.425923	274.4	24.6	-94.4	0.0
2025-01-19 13:48:42.666804	275.1	24.5	-94.5	0.0
2025-01-19 13:48:44.908632	275.8	24.5	-94.8	0.0
2025-01-19 13:48:47.149390	276.4	24.5	-94.7	0.0
2025-01-19 13:48:49.390169	277.1	24.4	-94.5	0.0
2025-01-19 13:48:51.632915	277.7	24.4	-94.7	0.0
2025-01-19 13:48:53.874887	278.4	24.3	-94.8	0.0
2025-01-19 13:48:56.115433	279.0	24.3	-94.8	0.0
2025-01-19 13:48:58.358646	279.7	24.2	-94.8	0.0
2025-01-19 13:49:00.598844	280.3	24.1	-94.8	0.0
2025-01-19 13:49:02.842414	280.9	24.1	-94.9	0.0
2025-01-19 13:49:05.084168	281.6	24.0	-94.7	0.0
2025-01-19 13:49:07.326480	282.2	23.9	-94.8	0.0
2025-01-19 13:49:09.569913	282.8	23.9	-95.0	0.0
2025-01-19 13:49:11.814494	283.5	23.8	-94.9	0.0
2025-01-19 13:49:14.057836	284.1	23.7	-94.9	0.0
2025-01-19 13:49:16.300909	284.7	23.6	-94.8	0.0
2025-01-19 13:49:18.541127	285.3	23.5	-94.8	0.0
2025-01-19 13:49:20.783709	286.0	23.4	-94.9	0.0
2025-01-19 13:49:23.027091	286.6	23.3	-94.3	0.0
2025-01-19 13:49:25.269812	287.2	23.2	-94.8	0.0
2025-01-19 13:49:27.510425	287.8	23.1	-94.7	0.0
2025-01-19 13:49:29.750111	288.4	23.0	-94.8	0.0
2025-01-19 13:49:31.992424	289.0	22.9	-94.7	0.0
2025-01-19 13:49:34.231499	289.6	22.8	-94.7	0.0
2025-01-19 13:49:36.473412	290.1	22.7	-94.6	0.0
2025-01-19 13:49:38.716719	290.7	22.6	-94.8	0.0
2025-01-19 13:49:40.955505	291.3	22.5	-94.9	0.0
2025-01-19 13:49:43.198400	291.9	22.4	-94.8	0.0
2025-01-19 13:49:45.442712	292.5	22.2	-94.7	0.0
2025-01-19 13:49:47.683718	293.0	22.1	-94.9	0.0
2025-01-19 13:49:49.928050	293.6	22.0	-95.0	0.0
2025-01-19 13:49:52.171211	294.1	21.9	-94.7	0.0
2025-01-19 13:49:54.414254	294.7	21.7	-95.0	0.0
2025-01-19 13:49:56.654692	295.2	21.6	-94.8	0.0
2025-01-19 13:49:58.895238	295.8	21.5	-94.6	0.0
2025-01-19 13:50:01.134693	296.3	21.3	-94.7	0.0
2025-01-19 13:50:03.378493	296.8	21.2	-94.9	0.0
2025-01-19 13:50:05.619523	297.4	21.1	-94.8	0.0
2025-01-19 13:50:07.858355	297.9	20.9	-94.9	0.0
2025-01-19 13:50:10.096192	298.4	20.8	-94.6	0.0
2025-01-19 13:50:12.335598	298.9	20.6	-94.8	0.0
2025-01-19 13:50:14.580793	299.4	20.5	-94.8	0.0
2025-01-19 13:50:16.821383	300.0	20.3	-94.7	0.0
2025-01-19 13:50:19.064690	300.5	20.2	-94.8	0.0
2025-01-19 13:50:21.306033	300.9	20.0	-94.7	0.0
2025-01-19 13:50:23.552204	301.4	19.9	-94.6	0.0
2025-01-19 13:50:25.795509	301.9	19.7	-94.7	0.0
2025-01-19 13:50:28.039405	302.4	19.6	-94.5	0.0
2025-01-19 13:50:30.281723	302.9	19.4	-94.8	0.0
2025-01-19 13:50:32.524962	303.4	19.3	-94.7	0.0
2025-01-19 13:50:34.762880	303.8	19.1	-94.7	0.0
2025-01-19 13:50:37.002805	304.3	19.0	-94.6	0.0
2025-01-19 13:50:39.244747	304.7	18.8	-94.9	0.0
2025-01-19 13:50:41.488175	305.2	18.7	-94.9	0.0
2025-01-19 13:50:43.731518	305.6	18.5	-94.6	0.0
2025-01-19 13:50:45.974915	306.1	18.3	-94.4	0.0
2025-01-19 13:50:48.218261	306.5	18.2	-94.7	0.0
2025-01-19 13:50:50.459237	307.0	18.0	-95.0	0.0
2025-01-19 13:50:52.702758	307.4	17.9	-94.7	0.0
2025-01-19 13:50:54.945582	307.8	17.7	-95.1	0.0
2025-01-19 13:50:57.188374	308.2	17.5	-95.0	0.0
2025-01-19 13:50:59.431595	308.7	17.4	-94.8	0.0
2025-01-19 13:51:01.671184	309.1	17.2	-95.1	0.0
2025-01-19 13:51:03.912561	309.5	17.1	-95.1	0.0
2025-01-19 13:51:06.154369	309.9	16.9	-95.1	0.0
2025-01-19 13:51:08.398619	310.3	16.7	-94.8	0.0
2025-01-19 13:51:10.641347	310.7	16.6	-94.8	0.0
2025-01-19 13:51:12.885478	311.1	16.4	-94.8	0.0
2025-01-19 13:51:15.127520	311.5	16.2	-94.6	0.0
2025-01-19 13:51:17.372048	311.8	16.1	-94.8	0.0
2025-01-19 13:51:19.613098	312.2	15.9	-94.5	0.0
2025-01-19 13:51:21.853064	312.6	15.8	-94.5	0.0
2025-01-19 13:51:24.095452	313.0	15.6	-94.8	0.0
2025-01-19 13:51:26.334541	313.3	15.4	-94.6	0.0
2025-01-19 13:51:28.576839	313.7	15.3	-94.7	0.0
2025-01-19 13:51:30.820789	314.1	15.1	-94.8	0.0
2025-01-19 13:51:33.058684	314.4	14.9	-94.7	0.0
2025-01-19 13:51:35.301532	314.8	14.8	-94.7	0.0
2025-01-19 13:51:37.543939	315.1	14.6	-94.6	0.0
2025-01-19 13:51:39.785620	315.5	14.5	-94.8	0.0
2025-01-19 13:51:42.027736	315.8	14.3	-95.1	0.0
2025-01-19 13:51:44.267773	316.1	14.1	-94.9	0.0
2025-01-19 13:51:46.508779	316.5	14.0	-95.1	0.0
2025-01-19 13:51:48.749443	316.8	13.8	-94.8	0.0
2025-01-19 13:51:50.990530	317.1	13.6	-94.9	0.0
2025-01-19 13:51:53.232296	317.5	13.5	-94.8	0.0
2025-01-19 13:51:55.476553	317.8	13.3	-95.0	0.0
2025-01-19 13:51:57.714840	318.1	13.2	-95.0	0.0
2025-01-19 13:51:59.960703	318.4	13.0	-95.1	0.0
2025-01-19 13:52:02.200761	318.7	12.8	-95.1	0.0
2025-01-19 13:52:04.439027	319.0	12.7	-94.9	0.0
2025-01-19 13:52:06.682259	319.3	12.5	-94.8	0.0
2025-01-19 13:52:08.923508	319.6	12.4	-95.0	0.0
2025-01-19 13:52:11.167354	319.9	12.2	-94.9	0.0
2025-01-19 13:52:13.408702	320.2	12.0	-94.9	0.0
2025-01-19 13:52:15.651313	320.5	11.9	-95.1	0.0
2025-01-19 13:52:17.894909	320.8	11.7	-94.8	0.0
2025-01-19 13:52:20.135888	321.1	11.6	-94.9	0.0
2025-01-19 13:52:22.378638	321.4	11.4	-94.8	0.0
2025-01-19 13:52:24.616207	321.6	11.3	-95.2	0.0
2025-01-19 13:52:26.858929	321.9	11.1	-94.9	0.0
2025-01-19 13:52:29.101305	322.2	11.0	-94.8	0.0
2025-01-19 13:52:31.343724	322.5	10.8	-94.7	0.0
2025-01-19 13:52:33.584769	322.7	10.6	-94.9	0.0
2025-01-19 13:52:35.826511	323.0	10.5	-94.6	0.0
2025-01-19 13:52:38.070042	323.3	10.3	-94.5	0.0
2025-01-19 13:52:40.312263	323.5	10.2	-94.6	0.0
2025-01-19 13:52:42.553922	323.8	10.0	-94.6	0.0
#Closed at: 2025-01-19 13:43:59.676730