passes_logs/2025/01/19/planumMaritime01/planumMaritime01__20250119_095514_NOAA_19_rec.log

#Pass ID: 20250119_095514_NOAA 19
#Satellite: NOAA 19
#Configuration: NOAA 19
#Start time: 2025-01-19 09:55:19.930239

#LorettStation: 1.0.0 05.05.2024
#Station: planumMaritime01
#Location: 37.49445 lon 55.92918 lat
#TLE: 1 33591U 09005A   25018.04840605  .00000325  00000+0  19728-3 0  9997
#TLE: 2 33591  99.0190  81.8343 0014373  49.4310 310.8111 14.13261983821977

#Time	Az	El	Level	SNR
2025-01-19 09:55:22.090064	356.5	10.1	-94.7	0.0
2025-01-19 09:55:23.214381	356.4	10.2	-94.7	0.0
2025-01-19 09:55:24.336858	356.2	10.3	-94.5	0.0
2025-01-19 09:55:25.458044	356.1	10.3	-94.7	0.0
2025-01-19 09:55:26.578003	355.9	10.4	-94.6	0.0
2025-01-19 09:55:27.700307	355.8	10.5	-94.3	0.0
2025-01-19 09:55:28.823553	355.6	10.5	-94.4	0.0
2025-01-19 09:55:29.944218	355.5	10.6	-94.3	0.0
2025-01-19 09:55:31.064406	355.3	10.7	-94.7	0.0
2025-01-19 09:55:32.185777	355.2	10.7	-94.6	0.0
2025-01-19 09:55:33.308779	355.0	10.8	-94.5	0.0
2025-01-19 09:55:34.430435	354.9	10.9	-94.6	0.0
2025-01-19 09:55:35.550790	354.7	10.9	-94.6	0.0
2025-01-19 09:55:36.672773	354.6	11.0	-94.6	0.0
2025-01-19 09:55:37.794447	354.4	11.1	-94.4	0.0
2025-01-19 09:55:38.914420	354.3	11.1	-94.4	0.0
2025-01-19 09:55:40.035742	354.1	11.2	-94.5	0.0
2025-01-19 09:55:41.155585	354.0	11.3	-94.5	0.0
2025-01-19 09:55:42.276228	353.8	11.3	-94.6	0.0
2025-01-19 09:55:43.396378	353.6	11.4	-94.6	0.0
2025-01-19 09:55:44.519031	353.5	11.4	-94.5	0.0
2025-01-19 09:55:45.640066	353.3	11.5	-94.6	0.0
2025-01-19 09:55:46.762424	353.2	11.6	-94.6	0.0
2025-01-19 09:55:47.881783	353.0	11.6	-94.7	0.0
2025-01-19 09:55:49.003787	352.8	11.7	-94.3	0.0
2025-01-19 09:55:50.125669	352.7	11.8	-94.7	0.0
2025-01-19 09:55:51.249226	352.5	11.8	-94.4	0.0
2025-01-19 09:55:52.368492	352.3	11.9	-94.6	0.0
2025-01-19 09:55:53.488806	352.2	12.0	-94.5	0.0
2025-01-19 09:55:54.612032	352.0	12.0	-94.4	0.0
2025-01-19 09:55:55.732982	351.9	12.1	-94.5	0.0
2025-01-19 09:55:56.852902	351.7	12.2	-94.5	0.0
2025-01-19 09:55:57.975320	351.5	12.2	-94.5	0.0
2025-01-19 09:55:59.098573	351.3	12.3	-94.3	0.0
2025-01-19 09:56:00.218897	351.2	12.4	-94.5	0.0
2025-01-19 09:56:01.341607	351.0	12.4	-94.6	0.0
2025-01-19 09:56:02.463336	350.8	12.5	-94.8	0.0
2025-01-19 09:56:03.582155	350.7	12.6	-94.5	0.0
2025-01-19 09:56:04.703213	350.5	12.6	-94.5	0.0
2025-01-19 09:56:05.824370	350.3	12.7	-94.7	0.0
2025-01-19 09:56:06.945493	350.1	12.8	-94.4	0.0
2025-01-19 09:56:08.067619	350.0	12.8	-94.9	0.0
2025-01-19 09:56:09.187691	349.8	12.9	-94.8	0.0
2025-01-19 09:56:10.310542	349.6	12.9	-94.8	0.0
2025-01-19 09:56:11.432756	349.4	13.0	-94.8	0.0
2025-01-19 09:56:12.555004	349.3	13.1	-94.7	0.0
2025-01-19 09:56:13.677289	349.1	13.1	-94.6	0.0
2025-01-19 09:56:14.798407	348.9	13.2	-94.7	0.0
2025-01-19 09:56:15.920406	348.7	13.3	-94.6	0.0
2025-01-19 09:56:17.042472	348.5	13.3	-94.5	0.0
2025-01-19 09:56:18.164144	348.4	13.4	-94.7	0.0
2025-01-19 09:56:19.285903	348.2	13.5	-94.5	0.0
2025-01-19 09:56:20.406901	348.0	13.5	-94.5	0.0
2025-01-19 09:56:21.529697	347.8	13.6	-94.4	0.0
2025-01-19 09:56:22.652554	347.6	13.6	-94.7	0.0
2025-01-19 09:56:23.774021	347.4	13.7	-94.7	0.0
2025-01-19 09:56:24.894467	347.3	13.8	-94.7	0.0
2025-01-19 09:56:26.015582	347.1	13.8	-94.4	0.0
2025-01-19 09:56:27.137556	346.9	13.9	-94.6	0.0
2025-01-19 09:56:28.258446	346.7	14.0	-94.7	0.0
2025-01-19 09:56:29.378066	346.5	14.0	-94.5	0.0
2025-01-19 09:56:30.499207	346.3	14.1	-94.6	0.0
2025-01-19 09:56:31.618577	346.1	14.1	-94.6	0.0
2025-01-19 09:56:32.739747	345.9	14.2	-94.5	0.0
2025-01-19 09:56:33.862003	345.7	14.3	-94.5	0.0
2025-01-19 09:56:34.984715	345.5	14.3	-94.9	0.0
2025-01-19 09:56:36.106329	345.4	14.4	-94.5	0.0
2025-01-19 09:56:37.227700	345.2	14.4	-94.7	0.0
2025-01-19 09:56:38.347454	345.0	14.5	-94.5	0.0
2025-01-19 09:56:39.469231	344.8	14.6	-94.7	0.0
2025-01-19 09:56:40.590658	344.6	14.6	-94.6	0.0
2025-01-19 09:56:41.711082	344.4	14.7	-94.7	0.0
2025-01-19 09:56:42.831844	344.2	14.7	-94.6	0.0
2025-01-19 09:56:43.954907	344.0	14.8	-94.6	0.0
2025-01-19 09:56:45.076427	343.8	14.9	-94.7	0.0
2025-01-19 09:56:46.196294	343.6	14.9	-94.6	0.0
2025-01-19 09:56:47.318352	343.4	15.0	-94.7	0.0
2025-01-19 09:56:48.440860	343.2	15.0	-94.5	0.0
2025-01-19 09:56:49.562975	343.0	15.1	-94.7	0.0
2025-01-19 09:56:50.681059	342.8	15.2	-94.6	0.0
2025-01-19 09:56:51.804494	342.6	15.2	-94.7	0.0
2025-01-19 09:56:52.924664	342.3	15.3	-94.7	0.0
2025-01-19 09:56:54.046522	342.1	15.3	-94.7	0.0
2025-01-19 09:56:55.167388	341.9	15.4	-94.8	0.0
2025-01-19 09:56:56.287362	341.7	15.4	-94.6	0.0
2025-01-19 09:56:57.409434	341.5	15.5	-94.7	0.0
2025-01-19 09:56:58.530475	341.3	15.6	-94.7	0.0
2025-01-19 09:56:59.651725	341.1	15.6	-94.7	0.0
2025-01-19 09:57:00.772641	340.9	15.7	-94.8	0.0
2025-01-19 09:57:01.894279	340.7	15.7	-94.7	0.0
2025-01-19 09:57:03.013546	340.5	15.8	-94.8	0.0
2025-01-19 09:57:04.136236	340.2	15.8	-94.9	0.0
2025-01-19 09:57:05.255517	340.0	15.9	-94.5	0.0
2025-01-19 09:57:06.375188	339.8	15.9	-94.9	0.0
2025-01-19 09:57:07.497658	339.6	16.0	-94.7	0.0
2025-01-19 09:57:08.618454	339.4	16.1	-94.5	0.0
2025-01-19 09:57:09.740352	339.2	16.1	-94.5	0.0
2025-01-19 09:57:10.861313	338.9	16.2	-94.7	0.0
2025-01-19 09:57:11.983627	338.7	16.2	-94.8	0.0
2025-01-19 09:57:13.107667	338.5	16.3	-94.8	0.0
2025-01-19 09:57:14.229096	338.3	16.3	-94.7	0.0
2025-01-19 09:57:15.351066	338.1	16.4	-94.8	0.0
2025-01-19 09:57:16.472845	337.8	16.4	-94.7	0.0
2025-01-19 09:57:17.593467	337.6	16.5	-94.7	0.0
2025-01-19 09:57:18.714148	337.4	16.5	-94.7	0.0
2025-01-19 09:57:19.837360	337.2	16.6	-94.5	0.0
2025-01-19 09:57:20.958520	336.9	16.6	-94.6	0.0
2025-01-19 09:57:22.080570	336.7	16.7	-94.7	0.0
2025-01-19 09:57:23.200402	336.5	16.7	-94.7	0.0
2025-01-19 09:57:24.320427	336.2	16.8	-94.6	0.0
2025-01-19 09:57:25.441498	336.0	16.8	-94.7	0.0
2025-01-19 09:57:26.563000	335.8	16.9	-94.4	0.0
2025-01-19 09:57:27.685254	335.6	16.9	-94.6	0.0
2025-01-19 09:57:28.806510	335.3	17.0	-94.8	0.0
2025-01-19 09:57:29.927167	335.1	17.0	-94.8	0.0
2025-01-19 09:57:31.049183	334.9	17.1	-94.9	0.0
2025-01-19 09:57:32.169854	334.6	17.1	-94.5	0.0
2025-01-19 09:57:33.291420	334.4	17.2	-94.7	0.0
2025-01-19 09:57:34.411420	334.2	17.2	-94.8	0.0
2025-01-19 09:57:35.533821	333.9	17.2	-94.9	0.0
2025-01-19 09:57:36.653413	333.7	17.3	-95.0	0.0
2025-01-19 09:57:37.776039	333.5	17.3	-94.8	0.0
2025-01-19 09:57:38.897586	333.2	17.4	-94.6	0.0
2025-01-19 09:57:40.019264	333.0	17.4	-94.6	0.0
2025-01-19 09:57:41.141712	332.7	17.5	-94.5	0.0
2025-01-19 09:57:42.265038	332.5	17.5	-94.6	0.0
2025-01-19 09:57:43.387714	332.3	17.5	-94.4	0.0
2025-01-19 09:57:44.508957	332.0	17.6	-94.4	0.0
2025-01-19 09:57:45.629997	331.8	17.6	-94.4	0.0
2025-01-19 09:57:46.751854	331.5	17.7	-94.7	0.0
2025-01-19 09:57:47.872767	331.3	17.7	-94.4	0.0
2025-01-19 09:57:48.992557	331.0	17.8	-94.4	0.0
2025-01-19 09:57:50.115645	330.8	17.8	-94.5	0.0
2025-01-19 09:57:51.235326	330.6	17.8	-94.6	0.0
2025-01-19 09:57:52.355314	330.3	17.9	-94.5	0.0
2025-01-19 09:57:53.474617	330.1	17.9	-94.5	0.0
2025-01-19 09:57:54.593310	329.8	17.9	-94.5	0.0
2025-01-19 09:57:55.714422	329.6	18.0	-94.8	0.0
2025-01-19 09:57:56.835595	329.3	18.0	-94.7	0.0
2025-01-19 09:57:57.955583	329.1	18.1	-94.6	0.0
2025-01-19 09:57:59.076406	328.8	18.1	-94.6	0.0
2025-01-19 09:58:00.196524	328.6	18.1	-94.4	0.0
2025-01-19 09:58:01.317550	328.3	18.2	-94.6	0.0
2025-01-19 09:58:02.439130	328.1	18.2	-94.7	0.0
2025-01-19 09:58:03.560332	327.8	18.2	-94.7	0.0
2025-01-19 09:58:04.680706	327.6	18.3	-94.5	0.0
2025-01-19 09:58:05.803151	327.3	18.3	-94.6	0.0
2025-01-19 09:58:06.926397	327.1	18.3	-94.6	0.0
2025-01-19 09:58:08.047404	326.8	18.4	-95.0	0.0
2025-01-19 09:58:09.168882	326.6	18.4	-94.7	0.0
2025-01-19 09:58:10.288815	326.3	18.4	-95.0	0.0
2025-01-19 09:58:11.407447	326.1	18.4	-94.6	0.0
2025-01-19 09:58:12.528189	325.8	18.5	-94.6	0.0
2025-01-19 09:58:13.650139	325.5	18.5	-94.7	0.0
2025-01-19 09:58:14.770423	325.3	18.5	-94.8	0.0
2025-01-19 09:58:15.891941	325.0	18.6	-94.9	0.0
2025-01-19 09:58:17.012772	324.8	18.6	-94.7	0.0
2025-01-19 09:58:18.133764	324.5	18.6	-94.6	0.0
2025-01-19 09:58:19.253863	324.3	18.6	-94.8	0.0
2025-01-19 09:58:20.374685	324.0	18.7	-94.8	0.0
2025-01-19 09:58:21.496359	323.7	18.7	-94.8	0.0
2025-01-19 09:58:22.619733	323.5	18.7	-94.9	0.0
2025-01-19 09:58:23.741074	323.2	18.7	-94.8	0.0
2025-01-19 09:58:24.860702	323.0	18.8	-94.9	0.0
2025-01-19 09:58:25.980583	322.7	18.8	-95.0	0.0
2025-01-19 09:58:27.102203	322.4	18.8	-94.8	0.0
2025-01-19 09:58:28.220395	322.2	18.8	-94.8	0.0
2025-01-19 09:58:29.342162	321.9	18.8	-94.7	0.0
2025-01-19 09:58:30.464007	321.6	18.9	-95.0	0.0
2025-01-19 09:58:31.585219	321.4	18.9	-94.9	0.0
2025-01-19 09:58:32.707527	321.1	18.9	-94.8	0.0
2025-01-19 09:58:33.827643	320.9	18.9	-94.7	0.0
2025-01-19 09:58:34.948575	320.6	18.9	-94.9	0.0
2025-01-19 09:58:36.071114	320.3	19.0	-94.9	0.0
2025-01-19 09:58:37.190389	320.1	19.0	-95.0	0.0
2025-01-19 09:58:38.312300	319.8	19.0	-94.9	0.0
2025-01-19 09:58:39.431753	319.5	19.0	-94.8	0.0
2025-01-19 09:58:40.553395	319.3	19.0	-94.9	0.0
2025-01-19 09:58:41.675595	319.0	19.0	-94.7	0.0
2025-01-19 09:58:42.796610	318.7	19.0	-94.6	0.0
2025-01-19 09:58:43.915879	318.5	19.0	-94.8	0.0
2025-01-19 09:58:45.037579	318.2	19.1	-94.8	0.0
2025-01-19 09:58:46.159735	317.9	19.1	-94.7	0.0
2025-01-19 09:58:47.281902	317.7	19.1	-94.5	0.0
2025-01-19 09:58:48.404456	317.4	19.1	-94.4	0.0
2025-01-19 09:58:49.524641	317.1	19.1	-94.6	0.0
2025-01-19 09:58:50.645522	316.9	19.1	-94.4	0.0
2025-01-19 09:58:51.766970	316.6	19.1	-94.6	0.0
2025-01-19 09:58:52.888621	316.3	19.1	-94.7	0.0
2025-01-19 09:58:54.009461	316.1	19.1	-94.7	0.0
2025-01-19 09:58:55.128137	315.8	19.1	-94.6	0.0
2025-01-19 09:58:56.250400	315.5	19.1	-94.4	0.0
2025-01-19 09:58:57.370644	315.3	19.1	-94.6	0.0
2025-01-19 09:58:58.491227	315.0	19.1	-94.7	0.0
2025-01-19 09:58:59.613220	314.7	19.2	-94.5	0.0
2025-01-19 09:59:00.737153	314.5	19.2	-94.5	0.0
2025-01-19 09:59:01.857981	314.2	19.2	-94.6	0.0
2025-01-19 09:59:02.979124	313.9	19.2	-94.7	0.0
2025-01-19 09:59:04.101786	313.7	19.2	-94.7	0.0
2025-01-19 09:59:05.222570	313.4	19.2	-94.6	0.0
2025-01-19 09:59:06.346592	313.1	19.2	-94.7	0.0
2025-01-19 09:59:07.466889	312.9	19.2	-94.6	0.0
2025-01-19 09:59:08.587963	312.6	19.2	-94.9	0.0
2025-01-19 09:59:09.707460	312.3	19.2	-94.8	0.0
2025-01-19 09:59:10.829638	312.1	19.1	-94.4	0.0
2025-01-19 09:59:11.952481	311.8	19.1	-94.6	0.0
2025-01-19 09:59:13.073458	311.5	19.1	-94.7	0.0
2025-01-19 09:59:14.195597	311.3	19.1	-94.6	0.0
2025-01-19 09:59:15.317577	311.0	19.1	-94.6	0.0
2025-01-19 09:59:16.437597	310.7	19.1	-94.5	0.0
2025-01-19 09:59:17.557204	310.5	19.1	-94.5	0.0
2025-01-19 09:59:18.677432	310.2	19.1	-94.5	0.0
2025-01-19 09:59:19.800083	309.9	19.1	-94.7	0.0
2025-01-19 09:59:20.919746	309.7	19.1	-94.7	0.0
2025-01-19 09:59:22.039661	309.4	19.1	-94.6	0.0
2025-01-19 09:59:23.162981	309.1	19.1	-94.6	0.0
2025-01-19 09:59:24.281746	308.9	19.1	-94.6	0.0
2025-01-19 09:59:25.403605	308.6	19.0	-94.8	0.0
2025-01-19 09:59:26.525904	308.3	19.0	-94.7	0.0
2025-01-19 09:59:27.649921	308.1	19.0	-94.9	0.0
2025-01-19 09:59:28.771463	307.8	19.0	-94.9	0.0
2025-01-19 09:59:29.892987	307.5	19.0	-94.9	0.0
2025-01-19 09:59:31.014133	307.3	19.0	-94.9	0.0
2025-01-19 09:59:32.136350	307.0	19.0	-94.9	0.0
2025-01-19 09:59:33.254551	306.7	18.9	-94.8	0.0
2025-01-19 09:59:34.377218	306.5	18.9	-95.0	0.0
2025-01-19 09:59:35.497118	306.2	18.9	-94.9	0.0
2025-01-19 09:59:36.619849	306.0	18.9	-94.8	0.0
2025-01-19 09:59:37.741506	305.7	18.9	-94.8	0.0
2025-01-19 09:59:38.861474	305.4	18.9	-94.7	0.0
2025-01-19 09:59:39.981170	305.2	18.8	-94.7	0.0
2025-01-19 09:59:41.103554	304.9	18.8	-94.9	0.0
2025-01-19 09:59:42.225055	304.6	18.8	-95.0	0.0
2025-01-19 09:59:43.347330	304.4	18.8	-94.7	0.0
2025-01-19 09:59:44.467986	304.1	18.7	-94.5	0.0
2025-01-19 09:59:45.589893	303.9	18.7	-94.8	0.0
2025-01-19 09:59:46.710662	303.6	18.7	-94.8	0.0
2025-01-19 09:59:47.832631	303.3	18.7	-94.5	0.0
2025-01-19 09:59:48.952883	303.1	18.7	-94.7	0.0
2025-01-19 09:59:50.074722	302.8	18.6	-94.8	0.0
2025-01-19 09:59:51.196214	302.6	18.6	-94.7	0.0
2025-01-19 09:59:52.317621	302.3	18.6	-94.8	0.0
2025-01-19 09:59:53.437339	302.0	18.5	-94.7	0.0
2025-01-19 09:59:54.558566	301.8	18.5	-94.7	0.0
2025-01-19 09:59:55.680331	301.5	18.5	-94.8	0.0
2025-01-19 09:59:56.803002	301.3	18.5	-94.8	0.0
2025-01-19 09:59:57.920950	301.0	18.4	-94.8	0.0
2025-01-19 09:59:59.041456	300.8	18.4	-94.9	0.0
2025-01-19 10:00:00.163558	300.5	18.4	-94.6	0.0
2025-01-19 10:00:01.283381	300.3	18.3	-94.9	0.0
2025-01-19 10:00:02.405347	300.0	18.3	-95.0	0.0
2025-01-19 10:00:03.525629	299.8	18.3	-94.9	0.0
2025-01-19 10:00:04.648376	299.5	18.2	-94.9	0.0
2025-01-19 10:00:05.769129	299.3	18.2	-94.7	0.0
2025-01-19 10:00:06.889312	299.0	18.2	-94.8	0.0
2025-01-19 10:00:08.010821	298.7	18.1	-94.9	0.0
2025-01-19 10:00:09.129500	298.5	18.1	-94.9	0.0
2025-01-19 10:00:10.253501	298.2	18.1	-95.0	0.0
2025-01-19 10:00:11.372948	298.0	18.0	-94.9	0.0
2025-01-19 10:00:12.492844	297.8	18.0	-95.1	0.0
2025-01-19 10:00:13.614520	297.5	18.0	-94.9	0.0
2025-01-19 10:00:14.734448	297.3	17.9	-95.1	0.0
2025-01-19 10:00:15.857592	297.0	17.9	-95.0	0.0
2025-01-19 10:00:16.977107	296.8	17.9	-94.7	0.0
2025-01-19 10:00:18.098276	296.5	17.8	-95.0	0.0
2025-01-19 10:00:19.220037	296.3	17.8	-95.0	0.0
2025-01-19 10:00:20.341335	296.0	17.7	-95.1	0.0
2025-01-19 10:00:21.461624	295.8	17.7	-95.0	0.0
2025-01-19 10:00:22.582677	295.5	17.7	-94.7	0.0
2025-01-19 10:00:23.702955	295.3	17.6	-94.7	0.0
2025-01-19 10:00:24.824754	295.1	17.6	-95.2	0.0
2025-01-19 10:00:25.944619	294.8	17.5	-95.0	0.0
2025-01-19 10:00:27.065655	294.6	17.5	-94.8	0.0
2025-01-19 10:00:28.185918	294.3	17.4	-94.8	0.0
2025-01-19 10:00:29.305894	294.1	17.4	-94.8	0.0
2025-01-19 10:00:30.425472	293.9	17.4	-95.0	0.0
2025-01-19 10:00:31.544649	293.6	17.3	-94.9	0.0
2025-01-19 10:00:32.664108	293.4	17.3	-94.8	0.0
2025-01-19 10:00:33.787048	293.2	17.2	-94.9	0.0
2025-01-19 10:00:34.908563	292.9	17.2	-94.8	0.0
2025-01-19 10:00:36.028971	292.7	17.1	-94.8	0.0
2025-01-19 10:00:37.151052	292.5	17.1	-94.9	0.0
2025-01-19 10:00:38.272507	292.2	17.0	-95.0	0.0
2025-01-19 10:00:39.391976	292.0	17.0	-94.7	0.0
2025-01-19 10:00:40.513909	291.8	16.9	-94.7	0.0
2025-01-19 10:00:41.634703	291.5	16.9	-95.0	0.0
2025-01-19 10:00:42.755422	291.3	16.9	-95.0	0.0
2025-01-19 10:00:43.876166	291.1	16.8	-94.9	0.0
2025-01-19 10:00:44.997078	290.8	16.8	-94.6	0.0
2025-01-19 10:00:46.117052	290.6	16.7	-94.6	0.0
2025-01-19 10:00:47.238293	290.4	16.7	-94.9	0.0
2025-01-19 10:00:48.359706	290.2	16.6	-94.7	0.0
2025-01-19 10:00:49.480751	289.9	16.6	-94.7	0.0
2025-01-19 10:00:50.603570	289.7	16.5	-94.7	0.0
2025-01-19 10:00:51.724428	289.5	16.5	-94.7	0.0
2025-01-19 10:00:52.845802	289.3	16.4	-94.5	0.0
2025-01-19 10:00:53.966746	289.0	16.4	-94.6	0.0
2025-01-19 10:00:55.088547	288.8	16.3	-94.5	0.0
2025-01-19 10:00:56.208862	288.6	16.2	-94.6	0.0
2025-01-19 10:00:57.329677	288.4	16.2	-94.7	0.0
2025-01-19 10:00:58.452024	288.2	16.1	-94.7	0.0
2025-01-19 10:00:59.572727	287.9	16.1	-94.7	0.0
2025-01-19 10:01:00.692110	287.7	16.0	-94.6	0.0
2025-01-19 10:01:01.814011	287.5	16.0	-94.8	0.0
2025-01-19 10:01:02.933162	287.3	15.9	-94.6	0.0
2025-01-19 10:01:04.056932	287.1	15.9	-94.8	0.0
2025-01-19 10:01:05.178623	286.9	15.8	-94.7	0.0
2025-01-19 10:01:06.299592	286.6	15.8	-94.6	0.0
2025-01-19 10:01:07.422458	286.4	15.7	-94.7	0.0
2025-01-19 10:01:08.545536	286.2	15.7	-94.7	0.0
2025-01-19 10:01:09.667594	286.0	15.6	-95.1	0.0
2025-01-19 10:01:10.789107	285.8	15.5	-94.9	0.0
2025-01-19 10:01:11.911299	285.6	15.5	-94.7	0.0
2025-01-19 10:01:13.033640	285.4	15.4	-94.7	0.0
2025-01-19 10:01:14.155130	285.2	15.4	-94.8	0.0
2025-01-19 10:01:15.276327	285.0	15.3	-94.8	0.0
2025-01-19 10:01:16.399683	284.7	15.3	-94.4	0.0
2025-01-19 10:01:17.521423	284.5	15.2	-94.4	0.0
2025-01-19 10:01:18.642993	284.3	15.1	-94.5	0.0
2025-01-19 10:01:19.763533	284.1	15.1	-94.6	0.0
2025-01-19 10:01:20.883437	283.9	15.0	-94.6	0.0
2025-01-19 10:01:22.004206	283.7	15.0	-94.5	0.0
2025-01-19 10:01:23.121427	283.5	14.9	-94.5	0.0
2025-01-19 10:01:24.242495	283.3	14.8	-94.6	0.0
2025-01-19 10:01:25.362887	283.1	14.8	-94.6	0.0
2025-01-19 10:01:26.485251	282.9	14.7	-94.6	0.0
2025-01-19 10:01:27.606051	282.7	14.7	-94.6	0.0
2025-01-19 10:01:28.726762	282.5	14.6	-94.5	0.0
2025-01-19 10:01:29.847161	282.3	14.5	-94.6	0.0
2025-01-19 10:01:30.968267	282.1	14.5	-94.7	0.0
2025-01-19 10:01:32.088479	281.9	14.4	-94.7	0.0
2025-01-19 10:01:33.209793	281.7	14.4	-94.5	0.0
2025-01-19 10:01:34.330627	281.5	14.3	-94.7	0.0
2025-01-19 10:01:35.449338	281.4	14.2	-94.6	0.0
2025-01-19 10:01:36.570947	281.2	14.2	-94.9	0.0
2025-01-19 10:01:37.692299	281.0	14.1	-94.6	0.0
2025-01-19 10:01:38.814213	280.8	14.1	-94.6	0.0
2025-01-19 10:01:39.934348	280.6	14.0	-94.4	0.0
2025-01-19 10:01:41.054405	280.4	13.9	-94.6	0.0
2025-01-19 10:01:42.175519	280.2	13.9	-94.9	0.0
2025-01-19 10:01:43.296321	280.0	13.8	-94.7	0.0
2025-01-19 10:01:44.416929	279.8	13.7	-94.5	0.0
2025-01-19 10:01:45.538413	279.7	13.7	-94.6	0.0
2025-01-19 10:01:46.659057	279.5	13.6	-94.7	0.0
2025-01-19 10:01:47.780298	279.3	13.6	-94.7	0.0
2025-01-19 10:01:48.900641	279.1	13.5	-94.7	0.0
2025-01-19 10:01:50.020609	278.9	13.4	-94.6	0.0
2025-01-19 10:01:51.142756	278.7	13.4	-94.5	0.0
2025-01-19 10:01:52.262491	278.6	13.3	-94.6	0.0
2025-01-19 10:01:53.383622	278.4	13.2	-94.9	0.0
2025-01-19 10:01:54.505433	278.2	13.2	-95.0	0.0
2025-01-19 10:01:55.627028	278.0	13.1	-94.8	0.0
2025-01-19 10:01:56.747516	277.8	13.1	-94.9	0.0
2025-01-19 10:01:57.868206	277.7	13.0	-94.6	0.0
2025-01-19 10:01:58.989483	277.5	12.9	-95.0	0.0
2025-01-19 10:02:00.111442	277.3	12.9	-95.0	0.0
2025-01-19 10:02:01.233778	277.1	12.8	-95.1	0.0
2025-01-19 10:02:02.355787	277.0	12.7	-94.9	0.0
2025-01-19 10:02:03.478189	276.8	12.7	-95.2	0.0
2025-01-19 10:02:04.599371	276.6	12.6	-95.1	0.0
2025-01-19 10:02:05.721658	276.4	12.5	-95.1	0.0
2025-01-19 10:02:06.843817	276.3	12.5	-94.7	0.0
2025-01-19 10:02:07.968521	276.1	12.4	-94.8	0.0
2025-01-19 10:02:09.090685	275.9	12.3	-94.6	0.0
2025-01-19 10:02:10.210767	275.8	12.3	-94.9	0.0
2025-01-19 10:02:11.332840	275.6	12.2	-94.7	0.0
2025-01-19 10:02:12.452515	275.4	12.2	-94.8	0.0
2025-01-19 10:02:13.571924	275.3	12.1	-94.7	0.0
2025-01-19 10:02:14.693886	275.1	12.0	-94.6	0.0
2025-01-19 10:02:15.817505	274.9	12.0	-94.6	0.0
2025-01-19 10:02:16.938849	274.8	11.9	-94.7	0.0
2025-01-19 10:02:18.061908	274.6	11.8	-94.8	0.0
2025-01-19 10:02:19.182368	274.4	11.8	-94.9	0.0
2025-01-19 10:02:20.305418	274.3	11.7	-94.7	0.0
2025-01-19 10:02:21.425580	274.1	11.6	-94.9	0.0
2025-01-19 10:02:22.547128	273.9	11.6	-95.0	0.0
2025-01-19 10:02:23.668696	273.8	11.5	-94.6	0.0
2025-01-19 10:02:24.789962	273.6	11.4	-94.7	0.0
2025-01-19 10:02:25.913142	273.5	11.4	-94.8	0.0
2025-01-19 10:02:27.034229	273.3	11.3	-94.7	0.0
2025-01-19 10:02:28.154268	273.1	11.2	-94.9	0.0
2025-01-19 10:02:29.275662	273.0	11.2	-94.9	0.0
2025-01-19 10:02:30.397347	272.8	11.1	-94.6	0.0
2025-01-19 10:02:31.520322	272.7	11.0	-94.8	0.0
2025-01-19 10:02:32.641988	272.5	11.0	-95.0	0.0
2025-01-19 10:02:33.764394	272.4	10.9	-94.7	0.0
2025-01-19 10:02:34.886179	272.2	10.8	-94.9	0.0
2025-01-19 10:02:36.007326	272.1	10.8	-95.0	0.0
2025-01-19 10:02:37.126726	271.9	10.7	-95.1	0.0
2025-01-19 10:02:38.247512	271.8	10.6	-94.7	0.0
2025-01-19 10:02:39.369273	271.6	10.6	-94.7	0.0
2025-01-19 10:02:40.487671	271.5	10.5	-94.8	0.0
2025-01-19 10:02:41.607130	271.3	10.4	-95.1	0.0
2025-01-19 10:02:42.727433	271.2	10.4	-94.8	0.0
2025-01-19 10:02:43.849399	271.0	10.3	-94.8	0.0
2025-01-19 10:02:44.972696	270.9	10.2	-94.6	0.0
2025-01-19 10:02:46.093785	270.7	10.2	-94.9	0.0
2025-01-19 10:02:47.216082	270.6	10.1	-95.2	0.0
2025-01-19 10:02:48.336604	270.4	10.0	-94.9	0.0
#Closed at: 2025-01-19 09:55:14.933699