passes_logs/2025/01/19/planumMaritime01/planumMaritime01__20250119_163241_METEOR-M2_3_rec.log

#Pass ID: 20250119_163241_METEOR-M2 3
#Satellite: METEOR-M2 3
#Configuration: METEOR-M2 3
#Start time: 2025-01-19 16:32:46.434704

#LorettStation: 1.0.0 05.05.2024
#Station: planumMaritime01
#Location: 37.49445 lon 55.92918 lat
#TLE: 1 57166U 23091A   25019.11852169  .00000046  00000+0  39019-4 0  9995
#TLE: 2 57166  98.6842  77.5312 0003403 210.3992 149.6989 14.23970176 81358

#Time	Az	El	Level	SNR
2025-01-19 16:32:48.588485	115.9	10.2	-94.4	0.0
2025-01-19 16:32:50.833375	115.6	10.3	-94.3	0.0
2025-01-19 16:32:53.076809	115.4	10.5	-94.6	0.0
2025-01-19 16:32:55.318809	115.2	10.7	-94.6	0.0
2025-01-19 16:32:57.559071	115.0	10.9	-94.5	0.0
2025-01-19 16:32:59.801180	114.8	11.0	-94.3	0.0
2025-01-19 16:33:02.041889	114.6	11.2	-94.4	0.0
2025-01-19 16:33:04.283281	114.4	11.4	-94.3	0.0
2025-01-19 16:33:06.524568	114.1	11.6	-94.5	0.0
2025-01-19 16:33:08.765634	113.9	11.7	-94.4	0.0
2025-01-19 16:33:11.006581	113.7	11.9	-94.3	0.0
2025-01-19 16:33:13.248346	113.4	12.1	-94.5	0.0
2025-01-19 16:33:15.489669	113.2	12.3	-94.6	0.0
2025-01-19 16:33:17.733008	113.0	12.5	-94.5	0.0
2025-01-19 16:33:19.975838	112.7	12.6	-94.4	0.0
2025-01-19 16:33:22.219918	112.5	12.8	-94.6	0.0
2025-01-19 16:33:24.463246	112.2	13.0	-94.7	0.0
2025-01-19 16:33:26.705887	112.0	13.2	-94.4	0.0
2025-01-19 16:33:28.947480	111.7	13.4	-94.6	0.0
2025-01-19 16:33:31.189942	111.4	13.6	-94.6	0.0
2025-01-19 16:33:33.432266	111.2	13.8	-94.5	0.0
2025-01-19 16:33:35.673676	110.9	14.0	-94.9	0.0
2025-01-19 16:33:37.918829	110.6	14.1	-94.5	0.0
2025-01-19 16:33:40.157440	110.4	14.3	-94.6	0.0
2025-01-19 16:33:42.397715	110.1	14.5	-94.8	0.0
2025-01-19 16:33:44.637829	109.8	14.7	-94.6	0.0
2025-01-19 16:33:46.881000	109.5	14.9	-94.7	0.0
2025-01-19 16:33:49.123955	109.2	15.1	-94.9	0.0
2025-01-19 16:33:51.365512	109.0	15.3	-94.5	0.0
2025-01-19 16:33:53.604742	108.7	15.5	-94.8	0.0
2025-01-19 16:33:55.846050	108.4	15.7	-94.4	0.0
2025-01-19 16:33:58.087461	108.1	15.9	-94.6	0.0
2025-01-19 16:34:00.331475	107.7	16.1	-94.6	0.0
2025-01-19 16:34:02.573915	107.4	16.3	-94.4	0.0
2025-01-19 16:34:04.816468	107.1	16.5	-94.7	0.0
2025-01-19 16:34:07.060905	106.8	16.7	-94.5	0.0
2025-01-19 16:34:09.305485	106.5	16.9	-94.9	0.0
2025-01-19 16:34:11.551584	106.1	17.1	-94.5	0.0
2025-01-19 16:34:13.792366	105.8	17.3	-94.3	0.0
2025-01-19 16:34:16.036018	105.5	17.5	-94.8	0.0
2025-01-19 16:34:18.275929	105.1	17.7	-94.5	0.0
2025-01-19 16:34:20.517916	104.8	17.9	-94.5	0.0
2025-01-19 16:34:22.757570	104.4	18.1	-94.4	0.0
2025-01-19 16:34:24.998108	104.1	18.3	-94.8	0.0
2025-01-19 16:34:27.238490	103.7	18.5	-94.5	0.0
2025-01-19 16:34:29.482748	103.3	18.7	-94.4	0.0
2025-01-19 16:34:31.723935	103.0	18.9	-94.6	0.0
2025-01-19 16:34:33.963897	102.6	19.1	-94.4	0.0
2025-01-19 16:34:36.206318	102.2	19.4	-94.7	0.0
2025-01-19 16:34:38.448058	101.8	19.6	-94.6	0.0
2025-01-19 16:34:40.691477	101.4	19.8	-94.6	0.0
2025-01-19 16:34:42.933847	101.0	20.0	-94.6	0.0
2025-01-19 16:34:45.174538	100.6	20.2	-94.7	0.0
2025-01-19 16:34:47.416504	100.2	20.4	-94.7	0.0
2025-01-19 16:34:49.658242	99.8	20.6	-94.4	0.0
2025-01-19 16:34:51.901868	99.4	20.8	-95.0	0.0
2025-01-19 16:34:54.144636	98.9	21.0	-94.5	0.0
2025-01-19 16:34:56.387921	98.5	21.2	-94.6	0.0
2025-01-19 16:34:58.628847	98.1	21.5	-94.8	0.0
2025-01-19 16:35:00.870988	97.6	21.7	-94.7	0.0
2025-01-19 16:35:03.112228	97.2	21.9	-95.1	0.0
2025-01-19 16:35:05.353637	96.7	22.1	-94.7	0.0
2025-01-19 16:35:07.594542	96.2	22.3	-94.7	0.0
2025-01-19 16:35:09.838611	95.8	22.5	-94.7	0.0
2025-01-19 16:35:12.079766	95.3	22.7	-94.9	0.0
2025-01-19 16:35:14.320766	94.8	22.9	-94.8	0.0
2025-01-19 16:35:16.567870	94.3	23.1	-94.5	0.0
2025-01-19 16:35:18.811520	93.8	23.3	-94.6	0.0
2025-01-19 16:35:21.054069	93.3	23.5	-94.7	0.0
2025-01-19 16:35:23.297768	92.8	23.8	-94.6	0.0
2025-01-19 16:35:25.544632	92.3	24.0	-94.8	0.0
2025-01-19 16:35:27.787676	91.7	24.2	-94.9	0.0
2025-01-19 16:35:30.026935	91.2	24.4	-94.9	0.0
2025-01-19 16:35:32.268565	90.7	24.6	-94.8	0.0
2025-01-19 16:35:34.511711	90.1	24.8	-94.8	0.0
2025-01-19 16:35:36.752793	89.6	25.0	-94.7	0.0
2025-01-19 16:35:38.994078	89.0	25.2	-94.9	0.0
2025-01-19 16:35:41.238496	88.4	25.4	-94.6	0.0
2025-01-19 16:35:43.481539	87.9	25.6	-94.7	0.0
2025-01-19 16:35:45.724737	87.3	25.8	-94.3	0.0
2025-01-19 16:35:47.964679	86.7	25.9	-94.7	0.0
2025-01-19 16:35:50.206198	86.1	26.1	-94.3	0.0
2025-01-19 16:35:52.449764	85.5	26.3	-94.3	0.0
2025-01-19 16:35:54.692128	84.9	26.5	-94.6	0.0
2025-01-19 16:35:56.933008	84.3	26.7	-94.4	0.0
2025-01-19 16:35:59.176068	83.6	26.9	-94.7	0.0
2025-01-19 16:36:01.416520	83.0	27.0	-94.4	0.0
2025-01-19 16:36:03.657045	82.4	27.2	-94.5	0.0
2025-01-19 16:36:05.901038	81.7	27.4	-94.7	0.0
2025-01-19 16:36:08.143824	81.1	27.6	-94.8	0.0
2025-01-19 16:36:10.384787	80.4	27.7	-94.7	0.0
2025-01-19 16:36:12.627918	79.7	27.9	-94.8	0.0
2025-01-19 16:36:14.871832	79.1	28.0	-94.9	0.0
2025-01-19 16:36:17.114299	78.4	28.2	-94.9	0.0
2025-01-19 16:36:19.354430	77.7	28.4	-94.8	0.0
2025-01-19 16:36:21.598048	77.0	28.5	-94.8	0.0
2025-01-19 16:36:23.840861	76.3	28.6	-94.8	0.0
2025-01-19 16:36:26.083021	75.6	28.8	-94.8	0.0
2025-01-19 16:36:28.322709	74.9	28.9	-94.8	0.0
2025-01-19 16:36:30.566071	74.2	29.1	-94.7	0.0
2025-01-19 16:36:32.807486	73.5	29.2	-94.7	0.0
2025-01-19 16:36:35.049115	72.7	29.3	-94.5	0.0
2025-01-19 16:36:37.290975	72.0	29.4	-94.9	0.0
2025-01-19 16:36:39.531673	71.2	29.5	-94.6	0.0
2025-01-19 16:36:41.775806	70.5	29.6	-94.4	0.0
2025-01-19 16:36:44.020918	69.8	29.7	-94.6	0.0
2025-01-19 16:36:46.263616	69.0	29.8	-94.9	0.0
2025-01-19 16:36:48.507044	68.2	29.9	-94.6	0.0
2025-01-19 16:36:50.751767	67.5	30.0	-94.5	0.0
2025-01-19 16:36:52.992909	66.7	30.1	-94.7	0.0
2025-01-19 16:36:55.236536	65.9	30.2	-94.7	0.0
2025-01-19 16:36:57.476282	65.2	30.3	-94.7	0.0
2025-01-19 16:36:59.720771	64.4	30.3	-94.8	0.0
2025-01-19 16:37:01.963783	63.6	30.4	-94.6	0.0
2025-01-19 16:37:04.205967	62.8	30.4	-94.7	0.0
2025-01-19 16:37:06.449873	62.0	30.5	-94.6	0.0
2025-01-19 16:37:08.694675	61.2	30.5	-95.1	0.0
2025-01-19 16:37:10.938802	60.4	30.6	-95.1	0.0
2025-01-19 16:37:13.183789	59.7	30.6	-94.7	0.0
2025-01-19 16:37:15.425217	58.9	30.6	-94.8	0.0
2025-01-19 16:37:17.668354	58.1	30.6	-94.9	0.0
2025-01-19 16:37:19.913240	57.3	30.6	-94.7	0.0
2025-01-19 16:37:22.154578	56.5	30.6	-94.4	0.0
2025-01-19 16:37:24.395910	55.7	30.6	-94.5	0.0
2025-01-19 16:37:26.637859	54.9	30.6	-94.6	0.0
2025-01-19 16:37:28.882593	54.1	30.6	-94.6	0.0
2025-01-19 16:37:31.124168	53.3	30.6	-94.6	0.0
2025-01-19 16:37:33.366905	52.5	30.6	-94.8	0.0
2025-01-19 16:37:35.611848	51.7	30.5	-94.8	0.0
2025-01-19 16:37:37.854610	50.9	30.5	-94.9	0.0
2025-01-19 16:37:40.096385	50.1	30.4	-94.7	0.0
2025-01-19 16:37:42.340867	49.4	30.4	-94.8	0.0
2025-01-19 16:37:44.580259	48.6	30.3	-94.6	0.0
2025-01-19 16:37:46.822368	47.8	30.3	-94.9	0.0
2025-01-19 16:37:49.065353	47.0	30.2	-95.0	0.0
2025-01-19 16:37:51.308769	46.3	30.1	-94.8	0.0
2025-01-19 16:37:53.552698	45.5	30.1	-94.7	0.0
2025-01-19 16:37:55.792879	44.7	30.0	-94.8	0.0
2025-01-19 16:37:58.035446	44.0	29.9	-94.8	0.0
2025-01-19 16:38:00.280325	43.2	29.8	-94.7	0.0
2025-01-19 16:38:02.521440	42.5	29.7	-95.0	0.0
2025-01-19 16:38:04.762268	41.7	29.6	-94.9	0.0
2025-01-19 16:38:07.003238	41.0	29.5	-94.8	0.0
2025-01-19 16:38:09.244850	40.2	29.4	-94.6	0.0
2025-01-19 16:38:11.486175	39.5	29.2	-95.0	0.0
2025-01-19 16:38:13.727862	38.8	29.1	-94.9	0.0
2025-01-19 16:38:15.969332	38.1	29.0	-94.9	0.0
2025-01-19 16:38:18.213417	37.3	28.8	-94.7	0.0
2025-01-19 16:38:20.456135	36.6	28.7	-95.0	0.0
2025-01-19 16:38:22.697668	35.9	28.6	-94.8	0.0
2025-01-19 16:38:24.938879	35.2	28.4	-94.7	0.0
2025-01-19 16:38:27.179995	34.6	28.3	-94.8	0.0
2025-01-19 16:38:29.423893	33.9	28.1	-94.7	0.0
2025-01-19 16:38:31.666107	33.2	28.0	-94.8	0.0
2025-01-19 16:38:33.910767	32.5	27.8	-94.7	0.0
2025-01-19 16:38:36.155031	31.9	27.6	-94.8	0.0
2025-01-19 16:38:38.395831	31.2	27.5	-94.5	0.0
2025-01-19 16:38:40.639902	30.6	27.3	-94.8	0.0
2025-01-19 16:38:42.880954	29.9	27.1	-94.7	0.0
2025-01-19 16:38:45.123594	29.3	26.9	-94.5	0.0
2025-01-19 16:38:47.363426	28.7	26.8	-95.0	0.0
2025-01-19 16:38:49.608299	28.1	26.6	-94.7	0.0
2025-01-19 16:38:51.849332	27.4	26.4	-94.8	0.0
2025-01-19 16:38:54.088517	26.8	26.2	-94.8	0.0
2025-01-19 16:38:56.328861	26.2	26.0	-94.9	0.0
2025-01-19 16:38:58.570479	25.7	25.8	-94.9	0.0
2025-01-19 16:39:00.815797	25.1	25.7	-94.9	0.0
2025-01-19 16:39:03.059845	24.5	25.5	-94.7	0.0
2025-01-19 16:39:05.301711	23.9	25.3	-94.8	0.0
2025-01-19 16:39:07.543744	23.4	25.1	-94.4	0.0
2025-01-19 16:39:09.784979	22.8	24.9	-94.6	0.0
2025-01-19 16:39:12.027081	22.3	24.7	-94.7	0.0
2025-01-19 16:39:14.269955	21.7	24.5	-94.8	0.0
2025-01-19 16:39:16.510383	21.2	24.3	-94.5	0.0
2025-01-19 16:39:18.751569	20.7	24.1	-94.5	0.0
2025-01-19 16:39:20.992864	20.1	23.9	-94.6	0.0
2025-01-19 16:39:23.234354	19.6	23.7	-94.7	0.0
2025-01-19 16:39:25.474930	19.1	23.4	-94.7	0.0
2025-01-19 16:39:27.715645	18.6	23.2	-94.7	0.0
2025-01-19 16:39:29.958205	18.1	23.0	-94.6	0.0
2025-01-19 16:39:32.195475	17.7	22.8	-94.7	0.0
2025-01-19 16:39:34.437917	17.2	22.6	-94.9	0.0
2025-01-19 16:39:36.681061	16.7	22.4	-94.8	0.0
2025-01-19 16:39:38.923826	16.2	22.2	-94.6	0.0
2025-01-19 16:39:41.162829	15.8	22.0	-95.0	0.0
2025-01-19 16:39:43.402885	15.3	21.8	-94.7	0.0
2025-01-19 16:39:45.641720	14.9	21.6	-95.1	0.0
2025-01-19 16:39:47.883362	14.4	21.4	-94.8	0.0
2025-01-19 16:39:50.124675	14.0	21.2	-94.8	0.0
2025-01-19 16:39:52.365566	13.6	20.9	-94.9	0.0
2025-01-19 16:39:54.607769	13.1	20.7	-95.0	0.0
2025-01-19 16:39:56.851656	12.7	20.5	-95.0	0.0
2025-01-19 16:39:59.092110	12.3	20.3	-95.0	0.0
2025-01-19 16:40:01.332072	11.9	20.1	-95.0	0.0
2025-01-19 16:40:03.571859	11.5	19.9	-95.0	0.0
2025-01-19 16:40:05.812821	11.1	19.7	-95.1	0.0
2025-01-19 16:40:08.053669	10.7	19.5	-95.0	0.0
2025-01-19 16:40:10.291268	10.3	19.3	-95.1	0.0
2025-01-19 16:40:12.534044	10.0	19.1	-95.0	0.0
2025-01-19 16:40:14.778768	9.6	18.9	-95.1	0.0
2025-01-19 16:40:17.019207	9.2	18.7	-94.8	0.0
2025-01-19 16:40:19.259923	8.9	18.4	-94.9	0.0
2025-01-19 16:40:21.503247	8.5	18.2	-94.9	0.0
2025-01-19 16:40:23.746771	8.2	18.0	-94.7	0.0
2025-01-19 16:40:25.987324	7.8	17.8	-94.5	0.0
2025-01-19 16:40:28.228203	7.5	17.6	-94.7	0.0
2025-01-19 16:40:30.468305	7.1	17.4	-94.8	0.0
2025-01-19 16:40:32.712188	6.8	17.2	-94.6	0.0
2025-01-19 16:40:34.954356	6.5	17.0	-94.9	0.0
2025-01-19 16:40:37.193758	6.1	16.8	-94.5	0.0
2025-01-19 16:40:39.436990	5.8	16.6	-94.9	0.0
2025-01-19 16:40:41.676424	5.5	16.4	-94.5	0.0
2025-01-19 16:40:43.916291	5.2	16.2	-95.0	0.0
2025-01-19 16:40:46.160068	4.9	16.0	-94.7	0.0
2025-01-19 16:40:48.401251	4.6	15.8	-94.7	0.0
2025-01-19 16:40:50.642013	4.3	15.6	-94.5	0.0
2025-01-19 16:40:52.886715	4.0	15.4	-94.8	0.0
2025-01-19 16:40:55.129208	3.7	15.2	-94.5	0.0
2025-01-19 16:40:57.369654	3.4	15.1	-94.8	0.0
2025-01-19 16:40:59.614342	3.1	14.9	-94.6	0.0
2025-01-19 16:41:01.854974	2.8	14.7	-94.8	0.0
2025-01-19 16:41:04.096578	2.6	14.5	-94.7	0.0
2025-01-19 16:41:06.340313	2.3	14.3	-94.7	0.0
2025-01-19 16:41:08.585393	2.0	14.1	-94.9	0.0
2025-01-19 16:41:10.825887	1.7	13.9	-95.0	0.0
2025-01-19 16:41:13.070377	1.5	13.7	-94.8	0.0
2025-01-19 16:41:15.312164	1.2	13.5	-94.8	0.0
2025-01-19 16:41:17.555131	1.0	13.3	-94.9	0.0
2025-01-19 16:41:19.795345	0.7	13.2	-94.7	0.0
2025-01-19 16:41:22.039397	0.5	13.0	-94.9	0.0
2025-01-19 16:41:24.280432	0.2	12.8	-95.0	0.0
2025-01-19 16:41:26.523024	360.0	12.6	-94.6	0.0
2025-01-19 16:41:28.764636	359.7	12.4	-94.8	0.0
2025-01-19 16:41:31.006830	359.5	12.2	-94.7	0.0
2025-01-19 16:41:33.249966	359.3	12.1	-94.8	0.0
2025-01-19 16:41:35.490248	359.0	11.9	-94.6	0.0
2025-01-19 16:41:37.730207	358.8	11.7	-94.7	0.0
2025-01-19 16:41:39.969311	358.6	11.5	-94.6	0.0
2025-01-19 16:41:42.211308	358.4	11.4	-94.7	0.0
2025-01-19 16:41:44.452315	358.2	11.2	-94.9	0.0
2025-01-19 16:41:46.693388	357.9	11.0	-94.8	0.0
2025-01-19 16:41:48.932158	357.7	10.8	-95.0	0.0
2025-01-19 16:41:51.174362	357.5	10.7	-94.7	0.0
2025-01-19 16:41:53.417246	357.3	10.5	-94.6	0.0
2025-01-19 16:41:55.659245	357.1	10.3	-94.8	0.0
2025-01-19 16:41:57.900435	356.9	10.1	-94.7	0.0
2025-01-19 16:42:00.143270	356.7	10.0	-95.2	0.0
#Closed at: 2025-01-19 16:32:41.438763