passes_logs/2025/01/19/planumMaritime01/planumMaritime01__20250119_012322_METEOR-M2_4_rec.log

#Pass ID: 20250119_012322_METEOR-M2 4
#Satellite: METEOR-M2 4
#Configuration: METEOR-M2 4
#Start time: 2025-01-19 01:23:27.068883

#LorettStation: 1.0.0 05.05.2024
#Station: planumMaritime01
#Location: 37.49445 lon 55.92918 lat
#TLE: 1 59051U 24039A   25018.12322251  .00000104  00000+0  66034-4 0  9999
#TLE: 2 59051  98.6299 341.0677 0006317 214.7140 145.3626 14.22326011 46042

#Time	Az	El	Level	SNR
2025-01-19 01:23:29.220306	13.9	10.2	-94.6	0.0
2025-01-19 01:23:31.461651	13.9	10.4	-94.6	0.0
2025-01-19 01:23:33.704357	13.9	10.6	-94.5	0.0
2025-01-19 01:23:35.943609	13.8	10.8	-94.8	0.0
2025-01-19 01:23:38.185046	13.8	11.0	-94.6	0.0
2025-01-19 01:23:40.430126	13.8	11.2	-94.5	0.0
2025-01-19 01:23:42.672560	13.7	11.4	-94.7	0.0
2025-01-19 01:23:44.912957	13.7	11.6	-94.6	0.0
2025-01-19 01:23:47.153078	13.6	11.8	-94.4	0.0
2025-01-19 01:23:49.393008	13.6	12.0	-94.3	0.0
2025-01-19 01:23:51.636303	13.6	12.2	-94.7	0.0
2025-01-19 01:23:53.879293	13.5	12.4	-94.7	0.0
2025-01-19 01:23:56.123692	13.5	12.6	-94.5	0.0
2025-01-19 01:23:58.367964	13.5	12.9	-94.6	0.0
2025-01-19 01:24:00.609979	13.4	13.1	-94.7	0.0
2025-01-19 01:24:02.849541	13.4	13.3	-94.3	0.0
2025-01-19 01:24:05.093264	13.3	13.5	-94.5	0.0
2025-01-19 01:24:07.336033	13.3	13.8	-94.6	0.0
2025-01-19 01:24:09.577594	13.2	14.0	-94.8	0.0
2025-01-19 01:24:11.821946	13.2	14.2	-94.5	0.0
2025-01-19 01:24:14.064643	13.2	14.4	-94.7	0.0
2025-01-19 01:24:16.304557	13.1	14.7	-94.4	0.0
2025-01-19 01:24:18.544338	13.1	14.9	-94.5	0.0
2025-01-19 01:24:20.784552	13.0	15.1	-94.5	0.0
2025-01-19 01:24:23.028141	13.0	15.4	-94.6	0.0
2025-01-19 01:24:25.268882	12.9	15.6	-94.6	0.0
2025-01-19 01:24:27.510348	12.9	15.9	-94.6	0.0
2025-01-19 01:24:29.756819	12.8	16.1	-94.7	0.0
2025-01-19 01:24:31.996389	12.8	16.4	-94.8	0.0
2025-01-19 01:24:34.237905	12.7	16.6	-94.9	0.0
2025-01-19 01:24:36.479120	12.7	16.9	-94.6	0.0
2025-01-19 01:24:38.723200	12.6	17.1	-94.8	0.0
2025-01-19 01:24:40.966716	12.5	17.4	-94.6	0.0
2025-01-19 01:24:43.207721	12.5	17.7	-94.6	0.0
2025-01-19 01:24:45.449874	12.4	17.9	-94.8	0.0
2025-01-19 01:24:47.691143	12.4	18.2	-94.6	0.0
2025-01-19 01:24:49.930560	12.3	18.5	-94.7	0.0
2025-01-19 01:24:52.172422	12.2	18.7	-94.7	0.0
2025-01-19 01:24:54.415766	12.2	19.0	-94.5	0.0
2025-01-19 01:24:56.656453	12.1	19.3	-94.7	0.0
2025-01-19 01:24:58.900089	12.0	19.6	-94.7	0.0
2025-01-19 01:25:01.142741	12.0	19.9	-94.4	0.0
2025-01-19 01:25:03.381733	11.9	20.2	-94.5	0.0
2025-01-19 01:25:05.623245	11.8	20.5	-94.6	0.0
2025-01-19 01:25:07.863606	11.8	20.8	-94.5	0.0
2025-01-19 01:25:10.107487	11.7	21.1	-94.8	0.0
2025-01-19 01:25:12.352227	11.6	21.4	-94.6	0.0
2025-01-19 01:25:14.594693	11.5	21.7	-94.7	0.0
2025-01-19 01:25:16.835937	11.5	22.0	-94.8	0.0
2025-01-19 01:25:19.077387	11.4	22.3	-94.7	0.0
2025-01-19 01:25:21.318058	11.3	22.6	-94.7	0.0
2025-01-19 01:25:23.557097	11.2	23.0	-94.8	0.0
2025-01-19 01:25:25.799099	11.1	23.3	-94.7	0.0
2025-01-19 01:25:28.042377	11.0	23.6	-95.1	0.0
2025-01-19 01:25:30.284587	10.9	24.0	-94.8	0.0
2025-01-19 01:25:32.527597	10.8	24.3	-95.0	0.0
2025-01-19 01:25:34.767302	10.7	24.7	-95.0	0.0
2025-01-19 01:25:37.008103	10.6	25.0	-94.8	0.0
2025-01-19 01:25:39.247416	10.5	25.4	-94.6	0.0
2025-01-19 01:25:41.488913	10.4	25.7	-94.6	0.0
2025-01-19 01:25:43.732114	10.3	26.1	-94.9	0.0
2025-01-19 01:25:45.971785	10.2	26.5	-94.5	0.0
2025-01-19 01:25:48.215154	10.1	26.8	-94.6	0.0
2025-01-19 01:25:50.457744	10.0	27.2	-95.0	0.0
2025-01-19 01:25:52.700994	9.9	27.6	-94.6	0.0
2025-01-19 01:25:54.942767	9.8	28.0	-94.7	0.0
2025-01-19 01:25:57.184194	9.6	28.4	-94.7	0.0
2025-01-19 01:25:59.424485	9.5	28.8	-94.7	0.0
2025-01-19 01:26:01.663990	9.4	29.2	-94.7	0.0
2025-01-19 01:26:03.905408	9.2	29.6	-94.7	0.0
2025-01-19 01:26:06.147787	9.1	30.0	-94.6	0.0
2025-01-19 01:26:08.391330	9.0	30.5	-94.8	0.0
2025-01-19 01:26:10.632452	8.8	30.9	-94.5	0.0
2025-01-19 01:26:12.875442	8.7	31.3	-94.7	0.0
2025-01-19 01:26:15.118216	8.5	31.8	-94.7	0.0
2025-01-19 01:26:17.359952	8.4	32.2	-94.7	0.0
2025-01-19 01:26:19.602688	8.2	32.7	-94.7	0.0
2025-01-19 01:26:21.843605	8.0	33.1	-94.8	0.0
2025-01-19 01:26:24.085520	7.9	33.6	-94.7	0.0
2025-01-19 01:26:26.327101	7.7	34.1	-94.7	0.0
2025-01-19 01:26:28.568037	7.5	34.6	-94.6	0.0
2025-01-19 01:26:30.812085	7.3	35.1	-94.7	0.0
2025-01-19 01:26:33.053024	7.1	35.6	-94.6	0.0
2025-01-19 01:26:35.295466	6.9	36.1	-94.8	0.0
2025-01-19 01:26:37.536430	6.7	36.6	-94.8	0.0
2025-01-19 01:26:39.780204	6.5	37.1	-95.0	0.0
2025-01-19 01:26:42.018777	6.2	37.7	-94.7	0.0
2025-01-19 01:26:44.263030	6.0	38.2	-94.6	0.0
2025-01-19 01:26:46.505840	5.8	38.8	-94.7	0.0
2025-01-19 01:26:48.748746	5.5	39.3	-94.8	0.0
2025-01-19 01:26:50.987898	5.3	39.9	-94.9	0.0
2025-01-19 01:26:53.228266	5.0	40.5	-94.8	0.0
2025-01-19 01:26:55.468698	4.7	41.0	-94.7	0.0
2025-01-19 01:26:57.712562	4.4	41.6	-94.9	0.0
2025-01-19 01:26:59.954575	4.1	42.2	-94.7	0.0
2025-01-19 01:27:02.198094	3.8	42.9	-94.8	0.0
2025-01-19 01:27:04.439099	3.5	43.5	-94.9	0.0
2025-01-19 01:27:06.680534	3.2	44.1	-94.6	0.0
2025-01-19 01:27:08.921091	2.8	44.7	-94.8	0.0
2025-01-19 01:27:11.164944	2.4	45.4	-94.7	0.0
2025-01-19 01:27:13.404971	2.1	46.0	-94.8	0.0
2025-01-19 01:27:15.647045	1.7	46.7	-94.7	0.0
2025-01-19 01:27:17.894196	1.2	47.4	-94.7	0.0
2025-01-19 01:27:20.135039	0.8	48.1	-94.9	0.0
2025-01-19 01:27:22.378373	0.3	48.8	-94.9	0.0
2025-01-19 01:27:24.619920	359.9	49.5	-94.6	0.0
2025-01-19 01:27:26.863646	359.4	50.2	-94.9	0.0
2025-01-19 01:27:29.106929	358.8	50.9	-95.0	0.0
2025-01-19 01:27:31.347352	358.3	51.6	-94.8	0.0
2025-01-19 01:27:33.590295	357.7	52.4	-94.7	0.0
2025-01-19 01:27:35.830956	357.1	53.1	-95.1	0.0
2025-01-19 01:27:38.071469	356.5	53.9	-94.7	0.0
2025-01-19 01:27:40.313021	355.8	54.6	-94.8	0.0
2025-01-19 01:27:42.555074	355.1	55.4	-94.8	0.0
2025-01-19 01:27:44.795984	354.3	56.2	-94.8	0.0
2025-01-19 01:27:47.035432	353.5	57.0	-94.6	0.0
2025-01-19 01:27:49.276567	352.7	57.7	-94.8	0.0
2025-01-19 01:27:51.516105	351.8	58.5	-94.6	0.0
2025-01-19 01:27:53.759264	350.8	59.3	-94.8	0.0
2025-01-19 01:27:55.998717	349.8	60.1	-94.7	0.0
2025-01-19 01:27:58.240397	348.7	60.9	-94.4	0.0
2025-01-19 01:28:00.481682	347.5	61.7	-94.7	0.0
2025-01-19 01:28:02.726164	346.3	62.5	-94.7	0.0
2025-01-19 01:28:04.969127	345.0	63.3	-94.9	0.0
2025-01-19 01:28:07.210147	343.6	64.1	-94.7	0.0
2025-01-19 01:28:09.449724	342.1	64.9	-94.8	0.0
2025-01-19 01:28:11.691701	340.5	65.7	-94.5	0.0
2025-01-19 01:28:13.934103	338.7	66.4	-94.7	0.0
2025-01-19 01:28:16.176228	336.9	67.2	-94.8	0.0
2025-01-19 01:28:18.420969	334.9	67.9	-94.9	0.0
2025-01-19 01:28:20.662138	332.7	68.6	-94.6	0.0
2025-01-19 01:28:22.905140	330.4	69.3	-94.8	0.0
2025-01-19 01:28:25.143602	327.9	70.0	-94.7	0.0
2025-01-19 01:28:27.389921	325.3	70.6	-94.7	0.0
2025-01-19 01:28:29.632192	322.4	71.2	-94.7	0.0
2025-01-19 01:28:31.873498	319.4	71.7	-94.5	0.0
2025-01-19 01:28:34.117097	316.2	72.2	-94.8	0.0
2025-01-19 01:28:36.360195	312.8	72.7	-94.9	0.0
2025-01-19 01:28:38.603379	309.2	73.0	-94.7	0.0
2025-01-19 01:28:40.844455	305.5	73.4	-94.8	0.0
2025-01-19 01:28:43.085070	301.7	73.6	-94.6	0.0
2025-01-19 01:28:45.328126	297.7	73.8	-94.8	0.0
2025-01-19 01:28:47.570159	293.7	73.9	-94.7	0.0
2025-01-19 01:28:49.810662	289.6	73.9	-94.8	0.0
2025-01-19 01:28:52.051152	285.5	73.8	-94.6	0.0
2025-01-19 01:28:54.293405	281.5	73.7	-94.8	0.0
2025-01-19 01:28:56.532133	277.6	73.5	-94.6	0.0
2025-01-19 01:28:58.774088	273.8	73.2	-94.8	0.0
2025-01-19 01:29:01.018150	270.2	72.9	-94.7	0.0
2025-01-19 01:29:03.259960	266.7	72.5	-94.7	0.0
2025-01-19 01:29:05.504352	263.4	72.0	-94.9	0.0
2025-01-19 01:29:07.745940	260.2	71.5	-94.9	0.0
2025-01-19 01:29:09.987656	257.3	70.9	-94.9	0.0
2025-01-19 01:29:12.227618	254.5	70.3	-94.9	0.0
2025-01-19 01:29:14.467394	252.0	69.7	-94.7	0.0
2025-01-19 01:29:16.708522	249.6	69.0	-94.7	0.0
2025-01-19 01:29:18.950053	247.3	68.3	-94.7	0.0
2025-01-19 01:29:21.191034	245.3	67.6	-94.7	0.0
2025-01-19 01:29:23.435282	243.3	66.8	-94.7	0.0
2025-01-19 01:29:25.678700	241.5	66.1	-94.8	0.0
2025-01-19 01:29:27.922263	239.8	65.3	-95.0	0.0
2025-01-19 01:29:30.167083	238.3	64.5	-94.7	0.0
2025-01-19 01:29:32.408928	236.8	63.7	-94.5	0.0
2025-01-19 01:29:34.651275	235.4	62.9	-94.8	0.0
2025-01-19 01:29:36.893038	234.2	62.1	-94.7	0.0
2025-01-19 01:29:39.133138	233.0	61.3	-94.8	0.0
2025-01-19 01:29:41.374047	231.8	60.5	-94.7	0.0
2025-01-19 01:29:43.616405	230.8	59.7	-95.3	0.0
2025-01-19 01:29:45.859622	229.8	58.9	-95.0	0.0
2025-01-19 01:29:48.104382	228.9	58.1	-95.0	0.0
2025-01-19 01:29:50.345045	228.0	57.3	-95.0	0.0
2025-01-19 01:29:52.586974	227.2	56.5	-94.8	0.0
2025-01-19 01:29:54.828681	226.4	55.8	-95.2	0.0
2025-01-19 01:29:57.067764	225.6	55.0	-94.9	0.0
2025-01-19 01:29:59.310048	224.9	54.2	-95.0	0.0
2025-01-19 01:30:01.554974	224.3	53.4	-94.9	0.0
2025-01-19 01:30:03.800023	223.7	52.7	-94.8	0.0
2025-01-19 01:30:06.042147	223.1	51.9	-94.8	0.0
2025-01-19 01:30:08.284719	222.5	51.2	-94.5	0.0
2025-01-19 01:30:10.526898	221.9	50.5	-95.0	0.0
2025-01-19 01:30:12.767798	221.4	49.8	-94.9	0.0
2025-01-19 01:30:15.008132	220.9	49.0	-94.6	0.0
2025-01-19 01:30:17.251286	220.5	48.3	-94.6	0.0
2025-01-19 01:30:19.494229	220.0	47.6	-94.9	0.0
2025-01-19 01:30:21.740342	219.6	47.0	-95.0	0.0
2025-01-19 01:30:23.983918	219.2	46.3	-95.1	0.0
2025-01-19 01:30:26.224113	218.8	45.6	-95.0	0.0
2025-01-19 01:30:28.468476	218.4	45.0	-95.1	0.0
2025-01-19 01:30:30.709900	218.1	44.3	-95.0	0.0
2025-01-19 01:30:32.954148	217.7	43.7	-95.0	0.0
2025-01-19 01:30:35.198392	217.4	43.1	-94.6	0.0
2025-01-19 01:30:37.440881	217.1	42.4	-94.7	0.0
2025-01-19 01:30:39.685140	216.8	41.8	-94.8	0.0
2025-01-19 01:30:41.931601	216.5	41.2	-94.9	0.0
2025-01-19 01:30:44.174780	216.2	40.6	-94.9	0.0
2025-01-19 01:30:46.417390	215.9	40.0	-94.8	0.0
2025-01-19 01:30:48.659427	215.6	39.5	-94.8	0.0
2025-01-19 01:30:50.897308	215.4	38.9	-94.9	0.0
2025-01-19 01:30:53.141424	215.1	38.3	-94.7	0.0
2025-01-19 01:30:55.388131	214.9	37.8	-94.7	0.0
2025-01-19 01:30:57.629824	214.7	37.3	-94.8	0.0
2025-01-19 01:30:59.868747	214.4	36.7	-95.2	0.0
2025-01-19 01:31:02.111992	214.2	36.2	-95.0	0.0
2025-01-19 01:31:04.358562	214.0	35.7	-95.1	0.0
2025-01-19 01:31:06.601019	213.8	35.2	-95.0	0.0
2025-01-19 01:31:08.839946	213.6	34.7	-95.0	0.0
2025-01-19 01:31:11.080114	213.4	34.2	-94.9	0.0
2025-01-19 01:31:13.324882	213.3	33.7	-94.9	0.0
2025-01-19 01:31:15.566474	213.1	33.2	-95.0	0.0
2025-01-19 01:31:17.809140	212.9	32.7	-95.1	0.0
2025-01-19 01:31:20.048972	212.7	32.3	-94.9	0.0
2025-01-19 01:31:22.291825	212.6	31.8	-95.1	0.0
2025-01-19 01:31:24.530967	212.4	31.4	-94.9	0.0
2025-01-19 01:31:26.772435	212.3	30.9	-94.9	0.0
2025-01-19 01:31:29.015065	212.1	30.5	-95.0	0.0
2025-01-19 01:31:31.256122	212.0	30.1	-94.5	0.0
2025-01-19 01:31:33.498990	211.8	29.6	-94.9	0.0
2025-01-19 01:31:35.738710	211.7	29.2	-94.8	0.0
2025-01-19 01:31:37.981389	211.6	28.8	-94.8	0.0
2025-01-19 01:31:40.224032	211.4	28.4	-94.9	0.0
2025-01-19 01:31:42.468233	211.3	28.0	-94.7	0.0
2025-01-19 01:31:44.709775	211.2	27.6	-94.7	0.0
2025-01-19 01:31:46.951563	211.1	27.2	-94.8	0.0
2025-01-19 01:31:49.195535	210.9	26.8	-94.8	0.0
2025-01-19 01:31:51.436225	210.8	26.4	-94.7	0.0
2025-01-19 01:31:53.677815	210.7	26.1	-94.8	0.0
2025-01-19 01:31:55.916636	210.6	25.7	-94.7	0.0
2025-01-19 01:31:58.159120	210.5	25.3	-94.8	0.0
2025-01-19 01:32:00.400787	210.4	25.0	-94.8	0.0
2025-01-19 01:32:02.642325	210.3	24.6	-94.9	0.0
2025-01-19 01:32:04.882104	210.2	24.3	-94.8	0.0
2025-01-19 01:32:07.123063	210.1	23.9	-94.7	0.0
2025-01-19 01:32:09.366816	210.0	23.6	-94.9	0.0
2025-01-19 01:32:11.609991	209.9	23.2	-94.6	0.0
2025-01-19 01:32:13.851969	209.8	22.9	-94.8	0.0
2025-01-19 01:32:16.096989	209.7	22.6	-94.7	0.0
2025-01-19 01:32:18.336638	209.6	22.3	-94.8	0.0
2025-01-19 01:32:20.576116	209.6	21.9	-94.8	0.0
2025-01-19 01:32:22.820451	209.5	21.6	-94.8	0.0
2025-01-19 01:32:25.060094	209.4	21.3	-94.7	0.0
2025-01-19 01:32:27.301665	209.3	21.0	-94.7	0.0
2025-01-19 01:32:29.540656	209.2	20.7	-94.7	0.0
2025-01-19 01:32:31.781952	209.2	20.4	-94.7	0.0
2025-01-19 01:32:34.021170	209.1	20.1	-94.4	0.0
2025-01-19 01:32:36.263783	209.0	19.8	-94.8	0.0
2025-01-19 01:32:38.505243	209.0	19.5	-94.5	0.0
2025-01-19 01:32:40.746519	208.9	19.2	-94.6	0.0
2025-01-19 01:32:42.988266	208.8	18.9	-94.5	0.0
2025-01-19 01:32:45.229995	208.8	18.7	-94.7	0.0
2025-01-19 01:32:47.468838	208.7	18.4	-94.7	0.0
2025-01-19 01:32:49.710824	208.6	18.1	-94.7	0.0
2025-01-19 01:32:51.956357	208.6	17.8	-94.5	0.0
2025-01-19 01:32:54.197046	208.5	17.6	-94.9	0.0
2025-01-19 01:32:56.437955	208.4	17.3	-94.2	0.0
2025-01-19 01:32:58.678583	208.4	17.0	-94.7	0.0
2025-01-19 01:33:00.921539	208.3	16.8	-94.3	0.0
2025-01-19 01:33:03.163109	208.3	16.5	-94.7	0.0
2025-01-19 01:33:05.406926	208.2	16.3	-94.5	0.0
2025-01-19 01:33:07.648244	208.2	16.0	-94.7	0.0
2025-01-19 01:33:09.888619	208.1	15.8	-94.5	0.0
2025-01-19 01:33:12.128790	208.0	15.5	-95.0	0.0
2025-01-19 01:33:14.370480	208.0	15.3	-94.4	0.0
2025-01-19 01:33:16.612943	207.9	15.0	-94.9	0.0
2025-01-19 01:33:18.855428	207.9	14.8	-94.8	0.0
2025-01-19 01:33:21.096708	207.8	14.5	-95.1	0.0
2025-01-19 01:33:23.338654	207.8	14.3	-94.9	0.0
2025-01-19 01:33:25.579533	207.7	14.1	-94.9	0.0
2025-01-19 01:33:27.822110	207.7	13.8	-94.7	0.0
2025-01-19 01:33:30.064340	207.7	13.6	-94.8	0.0
2025-01-19 01:33:32.310154	207.6	13.4	-94.7	0.0
2025-01-19 01:33:34.548109	207.6	13.2	-94.7	0.0
2025-01-19 01:33:36.789043	207.5	12.9	-94.8	0.0
2025-01-19 01:33:39.029948	207.5	12.7	-94.7	0.0
2025-01-19 01:33:41.273042	207.4	12.5	-94.7	0.0
2025-01-19 01:33:43.515303	207.4	12.3	-94.9	0.0
2025-01-19 01:33:45.758031	207.4	12.1	-94.5	0.0
2025-01-19 01:33:47.999348	207.3	11.9	-94.7	0.0
2025-01-19 01:33:50.241835	207.3	11.7	-94.6	0.0
2025-01-19 01:33:52.485049	207.2	11.4	-94.5	0.0
2025-01-19 01:33:54.726135	207.2	11.2	-94.7	0.0
2025-01-19 01:33:56.966703	207.2	11.0	-94.5	0.0
2025-01-19 01:33:59.209691	207.1	10.8	-94.6	0.0
2025-01-19 01:34:01.451235	207.1	10.6	-94.8	0.0
2025-01-19 01:34:03.691965	207.1	10.4	-94.6	0.0
2025-01-19 01:34:05.933888	207.0	10.2	-94.5	0.0
#Closed at: 2025-01-19 01:23:22.071113