passes_logs/2025/01/19/planumMaritime01/planumMaritime01__20250119_191905_METOP-C_rec.log

#Pass ID: 20250119_191905_METOP-C
#Satellite: METOP-C
#Configuration: METOP-C
#Start time: 2025-01-19 19:19:10.277673

#LorettStation: 1.0.0 05.05.2024
#Station: planumMaritime01
#Location: 37.49445 lon 55.92918 lat
#TLE: 1 43689U 18087A   25019.16395634  .00000282  00000+0  14866-3 0  9997
#TLE: 2 43689  98.6958  81.5940 0001612 156.8186 203.3064 14.21483818321801

#Time	Az	El	Level	SNR
2025-01-19 19:19:12.439374	208.2	10.2	-94.6	0.0
2025-01-19 19:19:14.680741	208.4	10.3	-94.7	0.0
2025-01-19 19:19:16.926100	208.6	10.5	-94.8	0.0
2025-01-19 19:19:19.168709	208.9	10.7	-94.6	0.0
2025-01-19 19:19:21.409615	209.1	10.8	-94.7	0.0
2025-01-19 19:19:23.651517	209.3	11.0	-94.2	0.0
2025-01-19 19:19:25.892381	209.6	11.2	-94.3	0.0
2025-01-19 19:19:28.134824	209.8	11.3	-94.4	0.0
2025-01-19 19:19:30.377166	210.1	11.5	-94.4	0.0
2025-01-19 19:19:32.621027	210.3	11.7	-94.4	0.0
2025-01-19 19:19:34.862585	210.6	11.8	-94.6	0.0
2025-01-19 19:19:37.106213	210.8	12.0	-94.5	0.0
2025-01-19 19:19:39.349963	211.1	12.2	-94.7	0.0
2025-01-19 19:19:41.591161	211.4	12.4	-94.5	0.0
2025-01-19 19:19:43.834417	211.6	12.5	-94.7	0.0
2025-01-19 19:19:46.076624	211.9	12.7	-94.5	0.0
2025-01-19 19:19:48.320170	212.2	12.9	-94.6	0.0
2025-01-19 19:19:50.562795	212.4	13.1	-94.5	0.0
2025-01-19 19:19:52.804248	212.7	13.2	-94.7	0.0
2025-01-19 19:19:55.043512	213.0	13.4	-94.7	0.0
2025-01-19 19:19:57.287192	213.3	13.6	-94.6	0.0
2025-01-19 19:19:59.527903	213.6	13.8	-94.7	0.0
2025-01-19 19:20:01.774279	213.9	13.9	-94.5	0.0
2025-01-19 19:20:04.016585	214.1	14.1	-94.7	0.0
2025-01-19 19:20:06.259099	214.4	14.3	-94.7	0.0
2025-01-19 19:20:08.503102	214.7	14.5	-94.8	0.0
2025-01-19 19:20:10.747764	215.0	14.7	-95.1	0.0
2025-01-19 19:20:12.990791	215.4	14.9	-94.6	0.0
2025-01-19 19:20:15.238129	215.7	15.0	-94.8	0.0
2025-01-19 19:20:17.479975	216.0	15.2	-94.7	0.0
2025-01-19 19:20:19.725251	216.3	15.4	-94.6	0.0
2025-01-19 19:20:21.969594	216.6	15.6	-94.5	0.0
2025-01-19 19:20:24.210468	217.0	15.8	-94.7	0.0
2025-01-19 19:20:26.451906	217.3	16.0	-94.7	0.0
2025-01-19 19:20:28.691842	217.6	16.1	-94.7	0.0
2025-01-19 19:20:30.933620	218.0	16.3	-94.6	0.0
2025-01-19 19:20:33.176575	218.3	16.5	-94.7	0.0
2025-01-19 19:20:35.420070	218.6	16.7	-95.0	0.0
2025-01-19 19:20:37.661704	219.0	16.9	-95.0	0.0
2025-01-19 19:20:39.905698	219.4	17.1	-94.7	0.0
2025-01-19 19:20:42.145633	219.7	17.3	-94.8	0.0
2025-01-19 19:20:44.389121	220.1	17.5	-94.5	0.0
2025-01-19 19:20:46.631826	220.5	17.7	-94.7	0.0
2025-01-19 19:20:48.877444	220.8	17.8	-94.6	0.0
2025-01-19 19:20:51.118483	221.2	18.0	-94.7	0.0
2025-01-19 19:20:53.359065	221.6	18.2	-94.6	0.0
2025-01-19 19:20:55.602456	222.0	18.4	-94.7	0.0
2025-01-19 19:20:57.846710	222.4	18.6	-95.0	0.0
2025-01-19 19:21:00.089215	222.8	18.8	-94.5	0.0
2025-01-19 19:21:02.335527	223.2	19.0	-94.6	0.0
2025-01-19 19:21:04.578689	223.6	19.2	-94.4	0.0
2025-01-19 19:21:06.823756	224.0	19.4	-94.6	0.0
2025-01-19 19:21:09.066598	224.4	19.6	-94.6	0.0
2025-01-19 19:21:11.311173	224.8	19.8	-94.6	0.0
2025-01-19 19:21:13.553411	225.3	20.0	-94.9	0.0
2025-01-19 19:21:15.796753	225.7	20.1	-95.0	0.0
2025-01-19 19:21:18.040390	226.1	20.3	-94.8	0.0
2025-01-19 19:21:20.284419	226.6	20.5	-94.8	0.0
2025-01-19 19:21:22.529808	227.0	20.7	-94.5	0.0
2025-01-19 19:21:24.773800	227.5	20.9	-94.8	0.0
2025-01-19 19:21:27.017327	227.9	21.1	-94.6	0.0
2025-01-19 19:21:29.260744	228.4	21.3	-94.6	0.0
2025-01-19 19:21:31.502692	228.9	21.5	-95.0	0.0
2025-01-19 19:21:33.745009	229.4	21.7	-94.8	0.0
2025-01-19 19:21:35.987906	229.8	21.9	-94.9	0.0
2025-01-19 19:21:38.232093	230.3	22.0	-94.9	0.0
2025-01-19 19:21:40.473716	230.8	22.2	-94.8	0.0
2025-01-19 19:21:42.715298	231.3	22.4	-94.7	0.0
2025-01-19 19:21:44.956210	231.8	22.6	-94.7	0.0
2025-01-19 19:21:47.197627	232.3	22.8	-94.9	0.0
2025-01-19 19:21:49.438419	232.9	23.0	-94.8	0.0
2025-01-19 19:21:51.683250	233.4	23.2	-94.7	0.0
2025-01-19 19:21:53.925435	233.9	23.3	-94.7	0.0
2025-01-19 19:21:56.167869	234.5	23.5	-94.8	0.0
2025-01-19 19:21:58.411090	235.0	23.7	-94.8	0.0
2025-01-19 19:22:00.651276	235.5	23.9	-94.8	0.0
2025-01-19 19:22:02.895307	236.1	24.0	-94.6	0.0
2025-01-19 19:22:05.140117	236.7	24.2	-94.8	0.0
2025-01-19 19:22:07.384005	237.2	24.4	-95.1	0.0
2025-01-19 19:22:09.624750	237.8	24.6	-94.8	0.0
2025-01-19 19:22:11.865406	238.4	24.7	-94.6	0.0
2025-01-19 19:22:14.106962	239.0	24.9	-94.7	0.0
2025-01-19 19:22:16.351423	239.5	25.1	-94.7	0.0
2025-01-19 19:22:18.590736	240.1	25.2	-95.2	0.0
2025-01-19 19:22:20.834058	240.7	25.4	-94.8	0.0
2025-01-19 19:22:23.074801	241.4	25.5	-94.7	0.0
2025-01-19 19:22:25.320766	242.0	25.7	-94.7	0.0
2025-01-19 19:22:27.566750	242.6	25.9	-94.4	0.0
2025-01-19 19:22:29.808627	243.2	26.0	-94.9	0.0
2025-01-19 19:22:32.051613	243.9	26.2	-94.7	0.0
2025-01-19 19:22:34.292823	244.5	26.3	-94.8	0.0
2025-01-19 19:22:36.539823	245.1	26.4	-95.1	0.0
2025-01-19 19:22:38.786127	245.8	26.6	-95.0	0.0
2025-01-19 19:22:41.026749	246.4	26.7	-94.8	0.0
2025-01-19 19:22:43.270340	247.1	26.8	-94.7	0.0
2025-01-19 19:22:45.512993	247.8	27.0	-94.8	0.0
2025-01-19 19:22:47.756906	248.4	27.1	-94.8	0.0
2025-01-19 19:22:49.996498	249.1	27.2	-94.6	0.0
2025-01-19 19:22:52.237956	249.8	27.3	-94.7	0.0
2025-01-19 19:22:54.479706	250.5	27.4	-94.9	0.0
2025-01-19 19:22:56.724236	251.2	27.6	-94.6	0.0
2025-01-19 19:22:58.965749	251.9	27.7	-94.8	0.0
2025-01-19 19:23:01.209885	252.6	27.8	-94.7	0.0
2025-01-19 19:23:03.451402	253.3	27.9	-94.8	0.0
2025-01-19 19:23:05.695669	254.0	28.0	-94.8	0.0
2025-01-19 19:23:07.939641	254.7	28.0	-94.7	0.0
2025-01-19 19:23:10.185251	255.4	28.1	-94.6	0.0
2025-01-19 19:23:12.428299	256.1	28.2	-94.9	0.0
2025-01-19 19:23:14.673192	256.8	28.3	-94.8	0.0
2025-01-19 19:23:16.914582	257.6	28.4	-95.0	0.0
2025-01-19 19:23:19.158625	258.3	28.4	-95.3	0.0
2025-01-19 19:23:21.403599	259.0	28.5	-94.6	0.0
2025-01-19 19:23:23.646388	259.8	28.5	-94.8	0.0
2025-01-19 19:23:25.890568	260.5	28.6	-94.5	0.0
2025-01-19 19:23:28.133601	261.2	28.6	-94.7	0.0
2025-01-19 19:23:30.376740	262.0	28.7	-94.9	0.0
2025-01-19 19:23:32.616906	262.7	28.7	-94.5	0.0
2025-01-19 19:23:34.859605	263.5	28.7	-94.7	0.0
2025-01-19 19:23:37.100897	264.2	28.8	-94.4	0.0
2025-01-19 19:23:39.345572	264.9	28.8	-94.6	0.0
2025-01-19 19:23:41.590228	265.7	28.8	-94.8	0.0
2025-01-19 19:23:43.833855	266.4	28.8	-94.9	0.0
2025-01-19 19:23:46.075345	267.2	28.8	-94.6	0.0
2025-01-19 19:23:48.317668	267.9	28.8	-94.8	0.0
2025-01-19 19:23:50.559037	268.7	28.8	-94.9	0.0
2025-01-19 19:23:52.802381	269.4	28.8	-94.7	0.0
2025-01-19 19:23:55.045631	270.2	28.8	-94.9	0.0
2025-01-19 19:23:57.288943	270.9	28.8	-94.8	0.0
2025-01-19 19:23:59.530865	271.7	28.7	-94.9	0.0
2025-01-19 19:24:01.771651	272.4	28.7	-94.9	0.0
2025-01-19 19:24:04.013682	273.1	28.7	-94.9	0.0
2025-01-19 19:24:06.256441	273.9	28.6	-94.8	0.0
2025-01-19 19:24:08.503119	274.6	28.6	-95.0	0.0
2025-01-19 19:24:10.745453	275.4	28.5	-95.0	0.0
2025-01-19 19:24:12.989081	276.1	28.5	-94.9	0.0
2025-01-19 19:24:15.229191	276.8	28.4	-94.7	0.0
2025-01-19 19:24:17.472597	277.5	28.4	-95.0	0.0
2025-01-19 19:24:19.716643	278.3	28.3	-94.8	0.0
2025-01-19 19:24:21.956628	279.0	28.2	-94.8	0.0
2025-01-19 19:24:24.197713	279.7	28.1	-95.1	0.0
2025-01-19 19:24:26.437655	280.4	28.0	-94.5	0.0
2025-01-19 19:24:28.678393	281.1	28.0	-95.0	0.0
2025-01-19 19:24:30.917920	281.8	27.9	-94.8	0.0
2025-01-19 19:24:33.161258	282.5	27.8	-94.7	0.0
2025-01-19 19:24:35.400883	283.2	27.7	-94.9	0.0
2025-01-19 19:24:37.642801	283.9	27.6	-94.8	0.0
2025-01-19 19:24:39.885258	284.6	27.5	-94.8	0.0
2025-01-19 19:24:42.127036	285.3	27.3	-94.7	0.0
2025-01-19 19:24:44.370617	286.0	27.2	-94.7	0.0
2025-01-19 19:24:46.614862	286.7	27.1	-94.7	0.0
2025-01-19 19:24:48.857008	287.3	27.0	-94.5	0.0
2025-01-19 19:24:51.095669	288.0	26.9	-94.8	0.0
2025-01-19 19:24:53.340597	288.6	26.7	-94.8	0.0
2025-01-19 19:24:55.583411	289.3	26.6	-94.9	0.0
2025-01-19 19:24:57.825046	289.9	26.5	-94.7	0.0
2025-01-19 19:25:00.066759	290.6	26.3	-95.0	0.0
2025-01-19 19:25:02.310748	291.2	26.2	-94.9	0.0
2025-01-19 19:25:04.555354	291.9	26.0	-94.8	0.0
2025-01-19 19:25:06.795525	292.5	25.9	-94.9	0.0
2025-01-19 19:25:09.040637	293.1	25.7	-95.0	0.0
2025-01-19 19:25:11.282997	293.7	25.6	-94.6	0.0
2025-01-19 19:25:13.525740	294.3	25.4	-94.5	0.0
2025-01-19 19:25:15.771067	294.9	25.3	-94.5	0.0
2025-01-19 19:25:18.012027	295.5	25.1	-94.7	0.0
2025-01-19 19:25:20.253667	296.1	24.9	-94.5	0.0
2025-01-19 19:25:22.494773	296.7	24.8	-94.7	0.0
2025-01-19 19:25:24.738378	297.3	24.6	-94.6	0.0
2025-01-19 19:25:26.984061	297.8	24.4	-94.6	0.0
2025-01-19 19:25:29.227169	298.4	24.3	-95.0	0.0
2025-01-19 19:25:31.466604	299.0	24.1	-94.8	0.0
2025-01-19 19:25:33.711905	299.5	23.9	-95.0	0.0
2025-01-19 19:25:35.952480	300.1	23.7	-95.1	0.0
2025-01-19 19:25:38.193565	300.6	23.6	-95.0	0.0
2025-01-19 19:25:40.435344	301.1	23.4	-95.0	0.0
2025-01-19 19:25:42.678328	301.7	23.2	-95.0	0.0
2025-01-19 19:25:44.920117	302.2	23.0	-95.1	0.0
2025-01-19 19:25:47.164372	302.7	22.8	-94.9	0.0
2025-01-19 19:25:49.405602	303.2	22.7	-94.9	0.0
2025-01-19 19:25:51.648397	303.7	22.5	-94.9	0.0
2025-01-19 19:25:53.891885	304.2	22.3	-94.7	0.0
2025-01-19 19:25:56.135281	304.7	22.1	-94.9	0.0
2025-01-19 19:25:58.381185	305.2	21.9	-94.8	0.0
2025-01-19 19:26:00.624173	305.7	21.7	-94.9	0.0
2025-01-19 19:26:02.865763	306.2	21.5	-94.5	0.0
2025-01-19 19:26:05.109167	306.6	21.3	-94.9	0.0
2025-01-19 19:26:07.353643	307.1	21.2	-94.9	0.0
2025-01-19 19:26:09.591610	307.6	21.0	-94.8	0.0
2025-01-19 19:26:11.831775	308.0	20.8	-94.8	0.0
2025-01-19 19:26:14.074934	308.5	20.6	-94.5	0.0
2025-01-19 19:26:16.317494	308.9	20.4	-94.6	0.0
2025-01-19 19:26:18.556697	309.3	20.2	-94.9	0.0
2025-01-19 19:26:20.796090	309.8	20.0	-94.7	0.0
2025-01-19 19:26:23.037548	310.2	19.8	-94.6	0.0
2025-01-19 19:26:25.280459	310.6	19.6	-94.8	0.0
2025-01-19 19:26:27.521996	311.0	19.5	-94.7	0.0
2025-01-19 19:26:29.765053	311.4	19.3	-94.7	0.0
2025-01-19 19:26:32.008875	311.8	19.1	-94.9	0.0
2025-01-19 19:26:34.248219	312.3	18.9	-95.0	0.0
2025-01-19 19:26:36.492906	312.6	18.7	-94.9	0.0
2025-01-19 19:26:38.734346	313.0	18.5	-94.9	0.0
2025-01-19 19:26:40.976294	313.4	18.3	-94.8	0.0
2025-01-19 19:26:43.218622	313.8	18.1	-94.7	0.0
2025-01-19 19:26:45.459377	314.2	17.9	-94.8	0.0
2025-01-19 19:26:47.700570	314.6	17.7	-95.0	0.0
2025-01-19 19:26:49.942249	314.9	17.6	-94.8	0.0
2025-01-19 19:26:52.183741	315.3	17.4	-94.6	0.0
2025-01-19 19:26:54.426701	315.7	17.2	-94.6	0.0
2025-01-19 19:26:56.670564	316.0	17.0	-95.0	0.0
2025-01-19 19:26:58.912564	316.4	16.8	-94.8	0.0
2025-01-19 19:27:01.154146	316.7	16.6	-95.1	0.0
2025-01-19 19:27:03.396142	317.1	16.4	-95.0	0.0
2025-01-19 19:27:05.640518	317.4	16.2	-95.0	0.0
2025-01-19 19:27:07.882604	317.7	16.1	-94.8	0.0
2025-01-19 19:27:10.124579	318.1	15.9	-94.8	0.0
2025-01-19 19:27:12.367286	318.4	15.7	-94.6	0.0
2025-01-19 19:27:14.613734	318.7	15.5	-94.7	0.0
2025-01-19 19:27:16.856202	319.0	15.3	-95.0	0.0
2025-01-19 19:27:19.096188	319.3	15.1	-94.7	0.0
2025-01-19 19:27:21.339089	319.7	15.0	-94.9	0.0
2025-01-19 19:27:23.581513	320.0	14.8	-95.1	0.0
2025-01-19 19:27:25.822578	320.3	14.6	-94.8	0.0
2025-01-19 19:27:28.068893	320.6	14.4	-95.1	0.0
2025-01-19 19:27:30.312463	320.9	14.2	-95.0	0.0
2025-01-19 19:27:32.557024	321.2	14.1	-94.9	0.0
2025-01-19 19:27:34.800655	321.5	13.9	-94.7	0.0
2025-01-19 19:27:37.042241	321.7	13.7	-94.7	0.0
2025-01-19 19:27:39.286903	322.0	13.5	-95.1	0.0
2025-01-19 19:27:41.528640	322.3	13.4	-94.6	0.0
2025-01-19 19:27:43.770603	322.6	13.2	-94.7	0.0
2025-01-19 19:27:46.009434	322.9	13.0	-94.7	0.0
2025-01-19 19:27:48.252034	323.1	12.8	-94.7	0.0
2025-01-19 19:27:50.491991	323.4	12.7	-94.8	0.0
2025-01-19 19:27:52.737534	323.7	12.5	-94.9	0.0
2025-01-19 19:27:54.978911	323.9	12.3	-94.8	0.0
2025-01-19 19:27:57.223817	324.2	12.1	-94.9	0.0
2025-01-19 19:27:59.463714	324.4	12.0	-95.1	0.0
2025-01-19 19:28:01.709003	324.7	11.8	-94.8	0.0
2025-01-19 19:28:03.950693	324.9	11.6	-95.2	0.0
2025-01-19 19:28:06.193422	325.2	11.5	-95.0	0.0
2025-01-19 19:28:08.437571	325.4	11.3	-95.0	0.0
2025-01-19 19:28:10.679699	325.7	11.1	-94.9	0.0
2025-01-19 19:28:12.918979	325.9	11.0	-95.1	0.0
2025-01-19 19:28:15.162108	326.2	10.8	-94.8	0.0
2025-01-19 19:28:17.405085	326.4	10.6	-94.6	0.0
2025-01-19 19:28:19.647694	326.6	10.5	-94.7	0.0
2025-01-19 19:28:21.890433	326.9	10.3	-94.6	0.0
2025-01-19 19:28:24.136102	327.1	10.1	-94.9	0.0
#Closed at: 2025-01-19 19:19:05.280659