passes_logs/2025/01/19/planumMaritime01/planumMaritime01__20250119_194955_NOAA_19_rec.log

#Pass ID: 20250119_194955_NOAA 19
#Satellite: NOAA 19
#Configuration: NOAA 19
#Start time: 2025-01-19 19:50:00.001042

#LorettStation: 1.0.0 05.05.2024
#Station: planumMaritime01
#Location: 37.49445 lon 55.92918 lat
#TLE: 1 33591U 09005A   25019.18116543  .00000338  00000+0  20449-3 0  9996
#TLE: 2 33591  99.0189  82.9757 0014332  46.3357 313.9000 14.13262914822133

#Time	Az	El	Level	SNR
2025-01-19 19:50:02.148987	226.7	10.1	-94.3	0.0
2025-01-19 19:50:03.271534	226.8	10.2	-94.5	0.0
2025-01-19 19:50:04.393637	227.0	10.3	-94.3	0.0
2025-01-19 19:50:05.515132	227.1	10.3	-94.5	0.0
2025-01-19 19:50:06.636301	227.3	10.4	-94.5	0.0
2025-01-19 19:50:07.759422	227.4	10.5	-94.4	0.0
2025-01-19 19:50:08.881379	227.6	10.5	-94.3	0.0
2025-01-19 19:50:10.000685	227.7	10.6	-94.4	0.0
2025-01-19 19:50:11.121573	227.9	10.7	-94.5	0.0
2025-01-19 19:50:12.242915	228.0	10.7	-94.1	0.0
2025-01-19 19:50:13.364242	228.2	10.8	-94.3	0.0
2025-01-19 19:50:14.485880	228.3	10.9	-94.3	0.0
2025-01-19 19:50:15.609198	228.5	10.9	-94.5	0.0
2025-01-19 19:50:16.729933	228.6	11.0	-94.4	0.0
2025-01-19 19:50:17.852636	228.8	11.1	-94.4	0.0
2025-01-19 19:50:18.972845	229.0	11.1	-94.6	0.0
2025-01-19 19:50:20.091972	229.1	11.2	-94.7	0.0
2025-01-19 19:50:21.213837	229.3	11.3	-94.8	0.0
2025-01-19 19:50:22.334916	229.4	11.3	-94.8	0.0
2025-01-19 19:50:23.457371	229.6	11.4	-94.9	0.0
2025-01-19 19:50:24.576527	229.8	11.5	-94.6	0.0
2025-01-19 19:50:25.699775	229.9	11.5	-94.5	0.0
2025-01-19 19:50:26.819848	230.1	11.6	-94.8	0.0
2025-01-19 19:50:27.941709	230.2	11.7	-94.8	0.0
2025-01-19 19:50:29.061774	230.4	11.7	-94.8	0.0
2025-01-19 19:50:30.180986	230.6	11.8	-94.6	0.0
2025-01-19 19:50:31.301825	230.7	11.9	-94.6	0.0
2025-01-19 19:50:32.423830	230.9	11.9	-94.7	0.0
2025-01-19 19:50:33.544557	231.1	12.0	-94.8	0.0
2025-01-19 19:50:34.664825	231.2	12.1	-94.9	0.0
2025-01-19 19:50:35.787461	231.4	12.1	-94.7	0.0
2025-01-19 19:50:36.908368	231.6	12.2	-94.5	0.0
2025-01-19 19:50:38.030956	231.8	12.2	-94.5	0.0
2025-01-19 19:50:39.151907	231.9	12.3	-94.5	0.0
2025-01-19 19:50:40.272262	232.1	12.4	-95.0	0.0
2025-01-19 19:50:41.392884	232.3	12.4	-94.7	0.0
2025-01-19 19:50:42.514184	232.4	12.5	-94.5	0.0
2025-01-19 19:50:43.637248	232.6	12.6	-94.5	0.0
2025-01-19 19:50:44.757577	232.8	12.6	-94.5	0.0
2025-01-19 19:50:45.879679	233.0	12.7	-94.5	0.0
2025-01-19 19:50:46.999723	233.1	12.8	-94.8	0.0
2025-01-19 19:50:48.121231	233.3	12.8	-94.7	0.0
2025-01-19 19:50:49.243804	233.5	12.9	-94.6	0.0
2025-01-19 19:50:50.364994	233.7	13.0	-94.6	0.0
2025-01-19 19:50:51.486261	233.8	13.0	-94.5	0.0
2025-01-19 19:50:52.607075	234.0	13.1	-94.5	0.0
2025-01-19 19:50:53.727954	234.2	13.2	-94.6	0.0
2025-01-19 19:50:54.850099	234.4	13.2	-94.7	0.0
2025-01-19 19:50:55.972523	234.6	13.3	-94.7	0.0
2025-01-19 19:50:57.092205	234.8	13.4	-94.4	0.0
2025-01-19 19:50:58.214123	234.9	13.4	-94.4	0.0
2025-01-19 19:50:59.335079	235.1	13.5	-94.6	0.0
2025-01-19 19:51:00.456678	235.3	13.6	-94.5	0.0
2025-01-19 19:51:01.580805	235.5	13.6	-94.7	0.0
2025-01-19 19:51:02.701598	235.7	13.7	-94.8	0.0
2025-01-19 19:51:03.824677	235.9	13.7	-94.7	0.0
2025-01-19 19:51:04.946980	236.1	13.8	-94.7	0.0
2025-01-19 19:51:06.066886	236.2	13.9	-94.5	0.0
2025-01-19 19:51:07.188199	236.4	13.9	-94.6	0.0
2025-01-19 19:51:08.312278	236.6	14.0	-94.7	0.0
2025-01-19 19:51:09.433901	236.8	14.1	-94.8	0.0
2025-01-19 19:51:10.555943	237.0	14.1	-94.6	0.0
2025-01-19 19:51:11.675136	237.2	14.2	-94.6	0.0
2025-01-19 19:51:12.795695	237.4	14.3	-94.8	0.0
2025-01-19 19:51:13.916658	237.6	14.3	-94.7	0.0
2025-01-19 19:51:15.035687	237.8	14.4	-94.7	0.0
2025-01-19 19:51:16.155857	238.0	14.4	-94.6	0.0
2025-01-19 19:51:17.277457	238.2	14.5	-94.8	0.0
2025-01-19 19:51:18.399380	238.4	14.6	-94.7	0.0
2025-01-19 19:51:19.521129	238.6	14.6	-94.4	0.0
2025-01-19 19:51:20.642603	238.8	14.7	-94.5	0.0
2025-01-19 19:51:21.764365	239.0	14.8	-94.8	0.0
2025-01-19 19:51:22.884907	239.2	14.8	-94.6	0.0
2025-01-19 19:51:24.007766	239.4	14.9	-94.6	0.0
2025-01-19 19:51:25.127761	239.6	14.9	-95.1	0.0
2025-01-19 19:51:26.248295	239.8	15.0	-94.9	0.0
2025-01-19 19:51:27.369553	240.0	15.1	-94.8	0.0
2025-01-19 19:51:28.492843	240.2	15.1	-94.7	0.0
2025-01-19 19:51:29.612906	240.4	15.2	-94.8	0.0
2025-01-19 19:51:30.733527	240.6	15.2	-94.9	0.0
2025-01-19 19:51:31.853825	240.8	15.3	-94.8	0.0
2025-01-19 19:51:32.976174	241.0	15.4	-94.9	0.0
2025-01-19 19:51:34.097936	241.2	15.4	-94.7	0.0
2025-01-19 19:51:35.218992	241.4	15.5	-94.7	0.0
2025-01-19 19:51:36.339713	241.6	15.5	-95.0	0.0
2025-01-19 19:51:37.462060	241.8	15.6	-94.7	0.0
2025-01-19 19:51:38.583573	242.1	15.7	-94.8	0.0
2025-01-19 19:51:39.702299	242.3	15.7	-94.8	0.0
2025-01-19 19:51:40.824303	242.5	15.8	-94.6	0.0
2025-01-19 19:51:41.944715	242.7	15.8	-94.9	0.0
2025-01-19 19:51:43.064938	242.9	15.9	-94.8	0.0
2025-01-19 19:51:44.185442	243.1	15.9	-94.7	0.0
2025-01-19 19:51:45.307644	243.3	16.0	-94.8	0.0
2025-01-19 19:51:46.429386	243.6	16.1	-94.6	0.0
2025-01-19 19:51:47.551020	243.8	16.1	-94.6	0.0
2025-01-19 19:51:48.674376	244.0	16.2	-94.8	0.0
2025-01-19 19:51:49.794596	244.2	16.2	-94.5	0.0
2025-01-19 19:51:50.912915	244.4	16.3	-94.6	0.0
2025-01-19 19:51:52.032457	244.7	16.3	-94.7	0.0
2025-01-19 19:51:53.153279	244.9	16.4	-94.5	0.0
2025-01-19 19:51:54.275624	245.1	16.5	-94.6	0.0
2025-01-19 19:51:55.398268	245.3	16.5	-94.6	0.0
2025-01-19 19:51:56.519254	245.6	16.6	-94.4	0.0
2025-01-19 19:51:57.641224	245.8	16.6	-94.6	0.0
2025-01-19 19:51:58.762841	246.0	16.7	-94.6	0.0
2025-01-19 19:51:59.883726	246.2	16.7	-94.6	0.0
2025-01-19 19:52:01.004543	246.5	16.8	-94.4	0.0
2025-01-19 19:52:02.126653	246.7	16.8	-94.8	0.0
2025-01-19 19:52:03.248961	246.9	16.9	-94.7	0.0
2025-01-19 19:52:04.369801	247.2	16.9	-95.0	0.0
2025-01-19 19:52:05.491131	247.4	17.0	-95.0	0.0
2025-01-19 19:52:06.611033	247.6	17.0	-95.0	0.0
2025-01-19 19:52:07.731694	247.8	17.1	-94.8	0.0
2025-01-19 19:52:08.851214	248.1	17.1	-94.7	0.0
2025-01-19 19:52:09.970447	248.3	17.2	-95.0	0.0
2025-01-19 19:52:11.089768	248.5	17.2	-94.7	0.0
2025-01-19 19:52:12.212418	248.8	17.3	-94.7	0.0
2025-01-19 19:52:13.332562	249.0	17.3	-94.8	0.0
2025-01-19 19:52:14.455517	249.3	17.4	-94.9	0.0
2025-01-19 19:52:15.575803	249.5	17.4	-95.0	0.0
2025-01-19 19:52:16.694980	249.7	17.5	-94.7	0.0
2025-01-19 19:52:17.815914	250.0	17.5	-94.8	0.0
2025-01-19 19:52:18.936028	250.2	17.6	-94.7	0.0
2025-01-19 19:52:20.056993	250.4	17.6	-94.7	0.0
2025-01-19 19:52:21.178989	250.7	17.7	-95.0	0.0
2025-01-19 19:52:22.298641	250.9	17.7	-95.0	0.0
2025-01-19 19:52:23.419899	251.2	17.8	-94.9	0.0
2025-01-19 19:52:24.541013	251.4	17.8	-94.6	0.0
2025-01-19 19:52:25.660075	251.7	17.9	-94.8	0.0
2025-01-19 19:52:26.782511	251.9	17.9	-95.0	0.0
2025-01-19 19:52:27.901536	252.2	17.9	-94.9	0.0
2025-01-19 19:52:29.024168	252.4	18.0	-94.7	0.0
2025-01-19 19:52:30.144749	252.6	18.0	-94.7	0.0
2025-01-19 19:52:31.266405	252.9	18.1	-94.7	0.0
2025-01-19 19:52:32.388762	253.1	18.1	-94.9	0.0
2025-01-19 19:52:33.513594	253.4	18.2	-94.9	0.0
2025-01-19 19:52:34.634418	253.6	18.2	-94.8	0.0
2025-01-19 19:52:35.755478	253.9	18.2	-94.6	0.0
2025-01-19 19:52:36.876708	254.1	18.3	-94.7	0.0
2025-01-19 19:52:37.998359	254.4	18.3	-94.8	0.0
2025-01-19 19:52:39.120692	254.6	18.4	-94.6	0.0
2025-01-19 19:52:40.243808	254.9	18.4	-94.7	0.0
2025-01-19 19:52:41.365579	255.2	18.4	-94.6	0.0
2025-01-19 19:52:42.486837	255.4	18.5	-94.7	0.0
2025-01-19 19:52:43.608086	255.7	18.5	-94.6	0.0
2025-01-19 19:52:44.729972	255.9	18.6	-94.9	0.0
2025-01-19 19:52:45.850382	256.2	18.6	-94.9	0.0
2025-01-19 19:52:46.972552	256.4	18.6	-94.9	0.0
2025-01-19 19:52:48.092451	256.7	18.7	-94.7	0.0
2025-01-19 19:52:49.212024	256.9	18.7	-95.0	0.0
2025-01-19 19:52:50.330454	257.2	18.7	-94.7	0.0
2025-01-19 19:52:51.450835	257.5	18.8	-94.7	0.0
2025-01-19 19:52:52.570315	257.7	18.8	-94.7	0.0
2025-01-19 19:52:53.690008	258.0	18.8	-94.6	0.0
2025-01-19 19:52:54.810876	258.2	18.9	-94.8	0.0
2025-01-19 19:52:55.930662	258.5	18.9	-94.6	0.0
2025-01-19 19:52:57.052422	258.8	18.9	-94.8	0.0
2025-01-19 19:52:58.174595	259.0	19.0	-94.6	0.0
2025-01-19 19:52:59.296613	259.3	19.0	-94.8	0.0
2025-01-19 19:53:00.421023	259.6	19.0	-94.7	0.0
2025-01-19 19:53:01.542082	259.8	19.1	-95.0	0.0
2025-01-19 19:53:02.663122	260.1	19.1	-94.8	0.0
2025-01-19 19:53:03.783828	260.3	19.1	-94.6	0.0
2025-01-19 19:53:04.904797	260.6	19.1	-95.0	0.0
2025-01-19 19:53:06.027518	260.9	19.2	-95.0	0.0
2025-01-19 19:53:07.148603	261.1	19.2	-95.0	0.0
2025-01-19 19:53:08.269780	261.4	19.2	-94.9	0.0
2025-01-19 19:53:09.391090	261.7	19.2	-95.0	0.0
2025-01-19 19:53:10.513422	261.9	19.3	-94.5	0.0
2025-01-19 19:53:11.633371	262.2	19.3	-94.9	0.0
2025-01-19 19:53:12.754549	262.5	19.3	-94.4	0.0
2025-01-19 19:53:13.875967	262.7	19.3	-94.6	0.0
2025-01-19 19:53:14.997355	263.0	19.4	-94.5	0.0
2025-01-19 19:53:16.118939	263.3	19.4	-94.8	0.0
2025-01-19 19:53:17.239564	263.6	19.4	-94.7	0.0
2025-01-19 19:53:18.359511	263.8	19.4	-94.6	0.0
2025-01-19 19:53:19.480399	264.1	19.5	-94.3	0.0
2025-01-19 19:53:20.602115	264.4	19.5	-94.4	0.0
2025-01-19 19:53:21.723206	264.6	19.5	-94.4	0.0
2025-01-19 19:53:22.843738	264.9	19.5	-94.7	0.0
2025-01-19 19:53:23.965317	265.2	19.5	-94.6	0.0
2025-01-19 19:53:25.086632	265.4	19.5	-94.4	0.0
2025-01-19 19:53:26.206794	265.7	19.6	-94.3	0.0
2025-01-19 19:53:27.327189	266.0	19.6	-94.8	0.0
2025-01-19 19:53:28.448960	266.3	19.6	-94.6	0.0
2025-01-19 19:53:29.570637	266.5	19.6	-94.4	0.0
2025-01-19 19:53:30.691868	266.8	19.6	-94.6	0.0
2025-01-19 19:53:31.812696	267.1	19.6	-94.5	0.0
2025-01-19 19:53:32.934380	267.4	19.6	-94.5	0.0
2025-01-19 19:53:34.055159	267.6	19.7	-94.6	0.0
2025-01-19 19:53:35.176881	267.9	19.7	-94.9	0.0
2025-01-19 19:53:36.298456	268.2	19.7	-95.0	0.0
2025-01-19 19:53:37.420921	268.5	19.7	-94.7	0.0
2025-01-19 19:53:38.543303	268.7	19.7	-94.9	0.0
2025-01-19 19:53:39.663984	269.0	19.7	-94.9	0.0
2025-01-19 19:53:40.784512	269.3	19.7	-94.9	0.0
2025-01-19 19:53:41.903508	269.6	19.7	-94.9	0.0
2025-01-19 19:53:43.027234	269.8	19.7	-95.0	0.0
2025-01-19 19:53:44.149818	270.1	19.7	-95.0	0.0
2025-01-19 19:53:45.270948	270.4	19.7	-95.0	0.0
2025-01-19 19:53:46.394586	270.7	19.7	-94.8	0.0
2025-01-19 19:53:47.514572	270.9	19.7	-94.9	0.0
2025-01-19 19:53:48.634947	271.2	19.8	-94.8	0.0
2025-01-19 19:53:49.756255	271.5	19.8	-94.8	0.0
2025-01-19 19:53:50.877080	271.8	19.8	-95.0	0.0
2025-01-19 19:53:51.997772	272.0	19.8	-94.7	0.0
2025-01-19 19:53:53.117885	272.3	19.8	-94.6	0.0
2025-01-19 19:53:54.237997	272.6	19.8	-95.0	0.0
2025-01-19 19:53:55.358704	272.9	19.8	-94.9	0.0
2025-01-19 19:53:56.479569	273.1	19.8	-94.7	0.0
2025-01-19 19:53:57.599484	273.4	19.8	-94.8	0.0
2025-01-19 19:53:58.720954	273.7	19.8	-94.7	0.0
2025-01-19 19:53:59.841998	274.0	19.8	-95.0	0.0
2025-01-19 19:54:00.961303	274.2	19.7	-95.0	0.0
2025-01-19 19:54:02.083483	274.5	19.7	-94.9	0.0
2025-01-19 19:54:03.205901	274.8	19.7	-94.6	0.0
2025-01-19 19:54:04.327844	275.1	19.7	-94.7	0.0
2025-01-19 19:54:05.449334	275.3	19.7	-94.9	0.0
2025-01-19 19:54:06.570855	275.6	19.7	-94.9	0.0
2025-01-19 19:54:07.691934	275.9	19.7	-94.9	0.0
2025-01-19 19:54:08.811138	276.2	19.7	-94.8	0.0
2025-01-19 19:54:09.931849	276.4	19.7	-94.5	0.0
2025-01-19 19:54:11.051915	276.7	19.7	-94.7	0.0
2025-01-19 19:54:12.172533	277.0	19.7	-94.7	0.0
2025-01-19 19:54:13.293485	277.3	19.7	-95.0	0.0
2025-01-19 19:54:14.413246	277.5	19.7	-94.7	0.0
2025-01-19 19:54:15.534692	277.8	19.6	-94.6	0.0
2025-01-19 19:54:16.657204	278.1	19.6	-94.6	0.0
2025-01-19 19:54:17.776405	278.3	19.6	-94.8	0.0
2025-01-19 19:54:18.897344	278.6	19.6	-94.7	0.0
2025-01-19 19:54:20.021831	278.9	19.6	-94.7	0.0
2025-01-19 19:54:21.142055	279.2	19.6	-94.9	0.0
2025-01-19 19:54:22.262873	279.4	19.6	-94.8	0.0
2025-01-19 19:54:23.385306	279.7	19.5	-94.6	0.0
2025-01-19 19:54:24.506971	280.0	19.5	-94.8	0.0
2025-01-19 19:54:25.628188	280.2	19.5	-94.8	0.0
2025-01-19 19:54:26.749584	280.5	19.5	-94.8	0.0
2025-01-19 19:54:27.869885	280.8	19.5	-94.9	0.0
2025-01-19 19:54:28.988966	281.1	19.4	-94.9	0.0
2025-01-19 19:54:30.110863	281.3	19.4	-94.8	0.0
2025-01-19 19:54:31.231782	281.6	19.4	-94.8	0.0
2025-01-19 19:54:32.353340	281.9	19.4	-94.8	0.0
2025-01-19 19:54:33.476057	282.1	19.4	-94.8	0.0
2025-01-19 19:54:34.595885	282.4	19.3	-94.8	0.0
2025-01-19 19:54:35.717502	282.7	19.3	-95.1	0.0
2025-01-19 19:54:36.838468	282.9	19.3	-94.6	0.0
2025-01-19 19:54:37.958192	283.2	19.3	-94.7	0.0
2025-01-19 19:54:39.079976	283.5	19.2	-94.8	0.0
2025-01-19 19:54:40.201737	283.7	19.2	-94.8	0.0
2025-01-19 19:54:41.322267	284.0	19.2	-94.8	0.0
2025-01-19 19:54:42.444852	284.3	19.2	-94.9	0.0
2025-01-19 19:54:43.568364	284.5	19.1	-95.1	0.0
2025-01-19 19:54:44.688905	284.8	19.1	-94.8	0.0
2025-01-19 19:54:45.810005	285.1	19.1	-94.7	0.0
2025-01-19 19:54:46.930000	285.3	19.1	-94.7	0.0
2025-01-19 19:54:48.050321	285.6	19.0	-94.9	0.0
2025-01-19 19:54:49.169600	285.8	19.0	-94.7	0.0
2025-01-19 19:54:50.292902	286.1	19.0	-94.6	0.0
2025-01-19 19:54:51.414022	286.4	18.9	-94.9	0.0
2025-01-19 19:54:52.535998	286.6	18.9	-94.8	0.0
2025-01-19 19:54:53.658627	286.9	18.9	-94.9	0.0
2025-01-19 19:54:54.778258	287.1	18.8	-95.1	0.0
2025-01-19 19:54:55.898844	287.4	18.8	-95.0	0.0
2025-01-19 19:54:57.020986	287.7	18.8	-94.8	0.0
2025-01-19 19:54:58.142528	287.9	18.7	-94.9	0.0
2025-01-19 19:54:59.261944	288.2	18.7	-94.8	0.0
2025-01-19 19:55:00.385519	288.4	18.7	-94.8	0.0
2025-01-19 19:55:01.506721	288.7	18.6	-94.9	0.0
2025-01-19 19:55:02.628557	289.0	18.6	-94.8	0.0
2025-01-19 19:55:03.751232	289.2	18.6	-94.8	0.0
2025-01-19 19:55:04.871875	289.5	18.5	-94.8	0.0
2025-01-19 19:55:05.992813	289.7	18.5	-94.6	0.0
2025-01-19 19:55:07.114391	290.0	18.4	-94.6	0.0
2025-01-19 19:55:08.234776	290.2	18.4	-94.6	0.0
2025-01-19 19:55:09.358784	290.5	18.4	-94.7	0.0
2025-01-19 19:55:10.478380	290.7	18.3	-94.9	0.0
2025-01-19 19:55:11.600973	291.0	18.3	-94.7	0.0
2025-01-19 19:55:12.721259	291.2	18.2	-94.7	0.0
2025-01-19 19:55:13.842906	291.5	18.2	-94.7	0.0
2025-01-19 19:55:14.963029	291.7	18.2	-94.8	0.0
2025-01-19 19:55:16.085911	292.0	18.1	-94.8	0.0
2025-01-19 19:55:17.205991	292.2	18.1	-94.8	0.0
2025-01-19 19:55:18.326978	292.5	18.0	-94.8	0.0
2025-01-19 19:55:19.446870	292.7	18.0	-94.8	0.0
2025-01-19 19:55:20.566341	293.0	17.9	-94.9	0.0
2025-01-19 19:55:21.687674	293.2	17.9	-94.8	0.0
2025-01-19 19:55:22.809528	293.4	17.9	-94.9	0.0
2025-01-19 19:55:23.930986	293.7	17.8	-94.8	0.0
2025-01-19 19:55:25.051670	293.9	17.8	-94.7	0.0
2025-01-19 19:55:26.169805	294.2	17.7	-94.6	0.0
2025-01-19 19:55:27.289973	294.4	17.7	-94.6	0.0
2025-01-19 19:55:28.410776	294.6	17.6	-94.6	0.0
2025-01-19 19:55:29.531222	294.9	17.6	-95.1	0.0
2025-01-19 19:55:30.653795	295.1	17.5	-94.7	0.0
2025-01-19 19:55:31.773598	295.4	17.5	-94.8	0.0
2025-01-19 19:55:32.896477	295.6	17.4	-94.9	0.0
2025-01-19 19:55:34.018864	295.8	17.4	-95.3	0.0
2025-01-19 19:55:35.139711	296.1	17.3	-95.3	0.0
2025-01-19 19:55:36.259971	296.3	17.3	-95.1	0.0
2025-01-19 19:55:37.382253	296.5	17.2	-94.9	0.0
2025-01-19 19:55:38.504669	296.8	17.2	-95.0	0.0
2025-01-19 19:55:39.626486	297.0	17.1	-94.8	0.0
2025-01-19 19:55:40.746150	297.2	17.1	-95.0	0.0
2025-01-19 19:55:41.869428	297.5	17.0	-95.3	0.0
2025-01-19 19:55:42.989802	297.7	17.0	-94.8	0.0
2025-01-19 19:55:44.110840	297.9	16.9	-94.9	0.0
2025-01-19 19:55:45.231949	298.2	16.9	-95.0	0.0
2025-01-19 19:55:46.353387	298.4	16.8	-94.8	0.0
2025-01-19 19:55:47.473693	298.6	16.8	-94.8	0.0
2025-01-19 19:55:48.593712	298.8	16.7	-95.0	0.0
2025-01-19 19:55:49.716246	299.1	16.7	-94.8	0.0
2025-01-19 19:55:50.836879	299.3	16.6	-94.9	0.0
2025-01-19 19:55:51.959628	299.5	16.6	-94.8	0.0
2025-01-19 19:55:53.081723	299.7	16.5	-94.7	0.0
2025-01-19 19:55:54.203190	300.0	16.5	-94.5	0.0
2025-01-19 19:55:55.324506	300.2	16.4	-94.9	0.0
2025-01-19 19:55:56.448395	300.4	16.3	-94.9	0.0
2025-01-19 19:55:57.568127	300.6	16.3	-94.7	0.0
2025-01-19 19:55:58.688856	300.8	16.2	-94.8	0.0
2025-01-19 19:55:59.808807	301.1	16.2	-94.6	0.0
2025-01-19 19:56:00.928803	301.3	16.1	-94.9	0.0
2025-01-19 19:56:02.049830	301.5	16.1	-94.9	0.0
2025-01-19 19:56:03.169245	301.7	16.0	-94.5	0.0
2025-01-19 19:56:04.289441	301.9	16.0	-94.7	0.0
2025-01-19 19:56:05.412989	302.1	15.9	-94.7	0.0
2025-01-19 19:56:06.533604	302.4	15.8	-94.7	0.0
2025-01-19 19:56:07.656891	302.6	15.8	-94.7	0.0
2025-01-19 19:56:08.778542	302.8	15.7	-94.8	0.0
2025-01-19 19:56:09.900668	303.0	15.7	-95.0	0.0
2025-01-19 19:56:11.020953	303.2	15.6	-95.1	0.0
2025-01-19 19:56:12.141935	303.4	15.5	-95.0	0.0
2025-01-19 19:56:13.262034	303.6	15.5	-94.7	0.0
2025-01-19 19:56:14.384026	303.8	15.4	-95.0	0.0
2025-01-19 19:56:15.503692	304.0	15.4	-94.8	0.0
2025-01-19 19:56:16.626801	304.2	15.3	-94.9	0.0
2025-01-19 19:56:17.747405	304.4	15.3	-94.8	0.0
2025-01-19 19:56:18.866614	304.7	15.2	-95.1	0.0
2025-01-19 19:56:19.987421	304.9	15.1	-94.8	0.0
2025-01-19 19:56:21.109715	305.1	15.1	-94.9	0.0
2025-01-19 19:56:22.231344	305.3	15.0	-94.8	0.0
2025-01-19 19:56:23.352056	305.5	15.0	-95.0	0.0
2025-01-19 19:56:24.474307	305.7	14.9	-94.9	0.0
2025-01-19 19:56:25.594909	305.9	14.8	-94.7	0.0
2025-01-19 19:56:26.716708	306.1	14.8	-94.6	0.0
2025-01-19 19:56:27.835819	306.3	14.7	-95.0	0.0
2025-01-19 19:56:28.958910	306.5	14.6	-94.6	0.0
2025-01-19 19:56:30.078454	306.7	14.6	-94.9	0.0
2025-01-19 19:56:31.199237	306.9	14.5	-94.6	0.0
2025-01-19 19:56:32.318965	307.0	14.5	-94.6	0.0
2025-01-19 19:56:33.438791	307.2	14.4	-94.9	0.0
2025-01-19 19:56:34.558590	307.4	14.3	-94.7	0.0
2025-01-19 19:56:35.678986	307.6	14.3	-94.9	0.0
2025-01-19 19:56:36.798922	307.8	14.2	-94.6	0.0
2025-01-19 19:56:37.919914	308.0	14.2	-95.3	0.0
2025-01-19 19:56:39.042552	308.2	14.1	-94.6	0.0
2025-01-19 19:56:40.165819	308.4	14.0	-94.9	0.0
2025-01-19 19:56:41.286688	308.6	14.0	-94.7	0.0
2025-01-19 19:56:42.408284	308.8	13.9	-94.7	0.0
2025-01-19 19:56:43.530360	309.0	13.8	-94.6	0.0
2025-01-19 19:56:44.650704	309.1	13.8	-94.4	0.0
2025-01-19 19:56:45.772215	309.3	13.7	-94.7	0.0
2025-01-19 19:56:46.892578	309.5	13.6	-94.7	0.0
2025-01-19 19:56:48.012420	309.7	13.6	-94.5	0.0
2025-01-19 19:56:49.132909	309.9	13.5	-94.5	0.0
2025-01-19 19:56:50.253217	310.1	13.5	-94.5	0.0
2025-01-19 19:56:51.374506	310.2	13.4	-94.7	0.0
2025-01-19 19:56:52.497625	310.4	13.3	-94.6	0.0
2025-01-19 19:56:53.616223	310.6	13.3	-94.7	0.0
2025-01-19 19:56:54.738817	310.8	13.2	-95.0	0.0
2025-01-19 19:56:55.859904	311.0	13.1	-94.5	0.0
2025-01-19 19:56:56.980417	311.1	13.1	-94.6	0.0
2025-01-19 19:56:58.103249	311.3	13.0	-94.7	0.0
2025-01-19 19:56:59.224816	311.5	12.9	-94.6	0.0
2025-01-19 19:57:00.343913	311.7	12.9	-94.9	0.0
2025-01-19 19:57:01.464781	311.9	12.8	-94.7	0.0
2025-01-19 19:57:02.586759	312.0	12.8	-95.0	0.0
2025-01-19 19:57:03.707027	312.2	12.7	-94.8	0.0
2025-01-19 19:57:04.829867	312.4	12.6	-95.0	0.0
2025-01-19 19:57:05.949086	312.5	12.6	-94.7	0.0
2025-01-19 19:57:07.069134	312.7	12.5	-94.9	0.0
2025-01-19 19:57:08.190983	312.9	12.4	-94.8	0.0
2025-01-19 19:57:09.310106	313.1	12.4	-94.8	0.0
2025-01-19 19:57:10.429965	313.2	12.3	-94.9	0.0
2025-01-19 19:57:11.549064	313.4	12.2	-95.0	0.0
2025-01-19 19:57:12.670769	313.6	12.2	-94.6	0.0
2025-01-19 19:57:13.789347	313.7	12.1	-94.7	0.0
2025-01-19 19:57:14.909019	313.9	12.0	-95.0	0.0
2025-01-19 19:57:16.030759	314.1	12.0	-94.8	0.0
2025-01-19 19:57:17.153886	314.2	11.9	-94.9	0.0
2025-01-19 19:57:18.272973	314.4	11.8	-94.5	0.0
2025-01-19 19:57:19.395018	314.6	11.8	-94.8	0.0
2025-01-19 19:57:20.516205	314.7	11.7	-94.9	0.0
2025-01-19 19:57:21.637715	314.9	11.6	-95.1	0.0
2025-01-19 19:57:22.757618	315.0	11.6	-94.7	0.0
2025-01-19 19:57:23.879974	315.2	11.5	-95.0	0.0
2025-01-19 19:57:25.000139	315.4	11.4	-94.9	0.0
2025-01-19 19:57:26.120899	315.5	11.4	-94.9	0.0
2025-01-19 19:57:27.242747	315.7	11.3	-94.7	0.0
2025-01-19 19:57:28.363363	315.8	11.3	-95.0	0.0
2025-01-19 19:57:29.484730	316.0	11.2	-95.1	0.0
2025-01-19 19:57:30.606714	316.2	11.1	-95.0	0.0
2025-01-19 19:57:31.729555	316.3	11.1	-94.8	0.0
2025-01-19 19:57:32.850798	316.5	11.0	-94.6	0.0
2025-01-19 19:57:33.972237	316.6	10.9	-95.1	0.0
2025-01-19 19:57:35.091426	316.8	10.9	-94.9	0.0
2025-01-19 19:57:36.212623	316.9	10.8	-94.9	0.0
2025-01-19 19:57:37.333130	317.1	10.7	-94.8	0.0
2025-01-19 19:57:38.452558	317.2	10.7	-95.0	0.0
2025-01-19 19:57:39.574804	317.4	10.6	-94.8	0.0
2025-01-19 19:57:40.693979	317.5	10.5	-94.9	0.0
2025-01-19 19:57:41.815812	317.7	10.5	-94.9	0.0
2025-01-19 19:57:42.936465	317.8	10.4	-95.0	0.0
2025-01-19 19:57:44.058907	318.0	10.3	-94.7	0.0
2025-01-19 19:57:45.177468	318.1	10.3	-94.6	0.0
2025-01-19 19:57:46.296360	318.3	10.2	-94.8	0.0
2025-01-19 19:57:47.417195	318.4	10.1	-95.0	0.0
2025-01-19 19:57:48.542167	318.6	10.1	-94.9	0.0
#Closed at: 2025-01-19 19:49:55.002452