passes_logs/2025/01/19/planumMaritime01/planumMaritime01__20250119_074758_METOP-C_rec.log

#Pass ID: 20250119_074758_METOP-C
#Satellite: METOP-C
#Configuration: METOP-C
#Start time: 2025-01-19 07:48:03.192655

#LorettStation: 1.0.0 05.05.2024
#Station: planumMaritime01
#Location: 37.49445 lon 55.92918 lat
#TLE: 1 43689U 18087A   25018.03773577  .00000274  00000+0  14504-3 0  9998
#TLE: 2 43689  98.6959  80.4846 0001564 158.8304 201.2938 14.21483020321649

#Time	Az	El	Level	SNR
2025-01-19 07:48:05.342936	16.5	10.2	-94.6	0.0
2025-01-19 07:48:07.585256	16.5	10.4	-94.5	0.0
2025-01-19 07:48:09.825459	16.5	10.6	-94.6	0.0
2025-01-19 07:48:12.069002	16.5	10.8	-94.8	0.0
2025-01-19 07:48:14.310163	16.5	11.0	-94.7	0.0
2025-01-19 07:48:16.550569	16.6	11.2	-94.6	0.0
2025-01-19 07:48:18.791229	16.6	11.4	-94.7	0.0
2025-01-19 07:48:21.032192	16.6	11.6	-94.6	0.0
2025-01-19 07:48:23.277380	16.6	11.8	-94.4	0.0
2025-01-19 07:48:25.520378	16.6	12.0	-94.5	0.0
2025-01-19 07:48:27.763326	16.6	12.2	-94.4	0.0
2025-01-19 07:48:30.008774	16.6	12.4	-94.2	0.0
2025-01-19 07:48:32.251080	16.6	12.7	-94.6	0.0
2025-01-19 07:48:34.493209	16.6	12.9	-94.5	0.0
2025-01-19 07:48:36.735655	16.6	13.1	-94.8	0.0
2025-01-19 07:48:38.978359	16.6	13.3	-94.7	0.0
2025-01-19 07:48:41.222864	16.6	13.5	-94.9	0.0
2025-01-19 07:48:43.464425	16.6	13.8	-94.8	0.0
2025-01-19 07:48:45.707572	16.7	14.0	-94.6	0.0
2025-01-19 07:48:47.948428	16.7	14.2	-94.7	0.0
2025-01-19 07:48:50.191169	16.7	14.5	-94.8	0.0
2025-01-19 07:48:52.436220	16.7	14.7	-94.5	0.0
2025-01-19 07:48:54.675454	16.7	14.9	-94.7	0.0
2025-01-19 07:48:56.918741	16.7	15.2	-94.4	0.0
2025-01-19 07:48:59.161181	16.7	15.4	-94.6	0.0
2025-01-19 07:49:01.406899	16.7	15.7	-94.6	0.0
2025-01-19 07:49:03.648538	16.7	15.9	-94.9	0.0
2025-01-19 07:49:05.891425	16.7	16.2	-94.8	0.0
2025-01-19 07:49:08.132096	16.7	16.4	-94.8	0.0
2025-01-19 07:49:10.374066	16.7	16.7	-94.8	0.0
2025-01-19 07:49:12.616785	16.7	16.9	-94.7	0.0
2025-01-19 07:49:14.863309	16.8	17.2	-94.6	0.0
2025-01-19 07:49:17.106736	16.8	17.4	-94.5	0.0
2025-01-19 07:49:19.349229	16.8	17.7	-94.5	0.0
2025-01-19 07:49:21.589087	16.8	18.0	-94.6	0.0
2025-01-19 07:49:23.832427	16.8	18.3	-94.4	0.0
2025-01-19 07:49:26.074906	16.8	18.5	-94.6	0.0
2025-01-19 07:49:28.316413	16.8	18.8	-94.5	0.0
2025-01-19 07:49:30.559263	16.8	19.1	-94.8	0.0
2025-01-19 07:49:32.801033	16.8	19.4	-94.7	0.0
2025-01-19 07:49:35.044225	16.8	19.7	-94.5	0.0
2025-01-19 07:49:37.284787	16.8	20.0	-95.0	0.0
2025-01-19 07:49:39.527868	16.8	20.2	-95.1	0.0
2025-01-19 07:49:41.771324	16.8	20.5	-95.0	0.0
2025-01-19 07:49:44.012431	16.8	20.8	-95.1	0.0
2025-01-19 07:49:46.253569	16.9	21.2	-94.9	0.0
2025-01-19 07:49:48.497491	16.9	21.5	-95.1	0.0
2025-01-19 07:49:50.735421	16.9	21.8	-94.6	0.0
2025-01-19 07:49:52.979554	16.9	22.1	-94.7	0.0
2025-01-19 07:49:55.219634	16.9	22.4	-94.8	0.0
2025-01-19 07:49:57.461252	16.9	22.7	-94.5	0.0
2025-01-19 07:49:59.704874	16.9	23.1	-94.7	0.0
2025-01-19 07:50:01.949459	16.9	23.4	-94.3	0.0
2025-01-19 07:50:04.193798	16.9	23.7	-94.6	0.0
2025-01-19 07:50:06.436410	16.9	24.1	-94.3	0.0
2025-01-19 07:50:08.679733	16.9	24.4	-94.4	0.0
2025-01-19 07:50:10.923169	16.9	24.8	-94.6	0.0
2025-01-19 07:50:13.163920	16.9	25.1	-94.8	0.0
2025-01-19 07:50:15.408000	16.9	25.5	-94.7	0.0
2025-01-19 07:50:17.651067	16.9	25.9	-94.8	0.0
2025-01-19 07:50:19.893234	17.0	26.2	-94.7	0.0
2025-01-19 07:50:22.134336	17.0	26.6	-94.8	0.0
2025-01-19 07:50:24.376862	17.0	27.0	-94.8	0.0
2025-01-19 07:50:26.618956	17.0	27.4	-94.6	0.0
2025-01-19 07:50:28.860283	17.0	27.8	-94.8	0.0
2025-01-19 07:50:31.103139	17.0	28.2	-94.7	0.0
2025-01-19 07:50:33.344412	17.0	28.6	-94.9	0.0
2025-01-19 07:50:35.587278	17.0	29.0	-94.9	0.0
2025-01-19 07:50:37.827636	17.0	29.4	-94.9	0.0
2025-01-19 07:50:40.070499	17.0	29.8	-94.9	0.0
2025-01-19 07:50:42.314362	17.0	30.3	-94.6	0.0
2025-01-19 07:50:44.555261	17.0	30.7	-94.8	0.0
2025-01-19 07:50:46.798388	17.0	31.2	-94.5	0.0
2025-01-19 07:50:49.040299	17.0	31.6	-94.9	0.0
2025-01-19 07:50:51.286112	17.0	32.1	-94.6	0.0
2025-01-19 07:50:53.526694	17.0	32.5	-94.9	0.0
2025-01-19 07:50:55.773515	17.0	33.0	-94.6	0.0
2025-01-19 07:50:58.018911	17.0	33.5	-94.7	0.0
2025-01-19 07:51:00.258384	17.0	34.0	-94.8	0.0
2025-01-19 07:51:02.503442	17.1	34.5	-94.7	0.0
2025-01-19 07:51:04.741287	17.1	35.0	-94.8	0.0
2025-01-19 07:51:06.981886	17.1	35.5	-94.5	0.0
2025-01-19 07:51:09.225358	17.1	36.0	-94.9	0.0
2025-01-19 07:51:11.466499	17.1	36.5	-94.8	0.0
2025-01-19 07:51:13.709314	17.1	37.1	-94.7	0.0
2025-01-19 07:51:15.949371	17.1	37.6	-94.7	0.0
2025-01-19 07:51:18.190346	17.1	38.2	-94.6	0.0
2025-01-19 07:51:20.433176	17.1	38.7	-94.8	0.0
2025-01-19 07:51:22.676122	17.1	39.3	-94.9	0.0
2025-01-19 07:51:24.915269	17.1	39.9	-94.6	0.0
2025-01-19 07:51:27.158262	17.1	40.5	-94.8	0.0
2025-01-19 07:51:29.401425	17.1	41.1	-94.5	0.0
2025-01-19 07:51:31.643292	17.1	41.7	-94.9	0.0
2025-01-19 07:51:33.887609	17.1	42.3	-94.8	0.0
2025-01-19 07:51:36.129168	17.1	43.0	-94.8	0.0
2025-01-19 07:51:38.371200	17.1	43.6	-94.9	0.0
2025-01-19 07:51:40.613261	17.1	44.3	-94.7	0.0
2025-01-19 07:51:42.852173	17.1	45.0	-94.8	0.0
2025-01-19 07:51:45.096197	17.1	45.6	-94.9	0.0
2025-01-19 07:51:47.339428	17.1	46.3	-94.8	0.0
2025-01-19 07:51:49.583221	17.1	47.0	-94.8	0.0
2025-01-19 07:51:51.825986	17.1	47.8	-94.8	0.0
2025-01-19 07:51:54.070419	17.1	48.5	-94.8	0.0
2025-01-19 07:51:56.310341	17.1	49.2	-94.9	0.0
2025-01-19 07:51:58.551778	17.1	50.0	-94.8	0.0
2025-01-19 07:52:00.792318	17.1	50.7	-94.6	0.0
2025-01-19 07:52:03.037857	17.1	51.5	-94.7	0.0
2025-01-19 07:52:05.286560	17.1	52.3	-95.0	0.0
2025-01-19 07:52:07.529546	17.1	53.1	-95.0	0.0
2025-01-19 07:52:09.775032	17.1	54.0	-95.0	0.0
2025-01-19 07:52:12.017073	17.1	54.8	-94.6	0.0
2025-01-19 07:52:14.258456	17.1	55.6	-94.7	0.0
2025-01-19 07:52:16.498661	17.1	56.5	-94.6	0.0
2025-01-19 07:52:18.741420	17.1	57.4	-94.8	0.0
2025-01-19 07:52:20.981697	17.0	58.3	-95.0	0.0
2025-01-19 07:52:23.226239	17.0	59.2	-94.7	0.0
2025-01-19 07:52:25.466902	17.0	60.1	-94.5	0.0
2025-01-19 07:52:27.708112	17.0	61.0	-94.9	0.0
2025-01-19 07:52:29.951339	17.0	62.0	-94.6	0.0
2025-01-19 07:52:32.195660	17.0	62.9	-94.8	0.0
2025-01-19 07:52:34.438665	17.0	63.9	-94.7	0.0
2025-01-19 07:52:36.680371	16.9	64.9	-94.8	0.0
2025-01-19 07:52:38.919204	16.9	65.9	-94.5	0.0
2025-01-19 07:52:41.158869	16.9	66.9	-94.5	0.0
2025-01-19 07:52:43.398589	16.9	67.9	-94.6	0.0
2025-01-19 07:52:45.641527	16.8	68.9	-94.9	0.0
2025-01-19 07:52:47.885327	16.8	70.0	-94.4	0.0
2025-01-19 07:52:50.128043	16.7	71.0	-94.8	0.0
2025-01-19 07:52:52.372247	16.7	72.1	-94.7	0.0
2025-01-19 07:52:54.616970	16.6	73.2	-94.9	0.0
2025-01-19 07:52:56.859075	16.6	74.3	-94.8	0.0
2025-01-19 07:52:59.102074	16.5	75.4	-94.7	0.0
2025-01-19 07:53:01.348665	16.4	76.5	-94.8	0.0
2025-01-19 07:53:03.590322	16.3	77.6	-95.0	0.0
2025-01-19 07:53:05.829941	16.1	78.7	-94.8	0.0
2025-01-19 07:53:08.071375	15.9	79.9	-94.8	0.0
2025-01-19 07:53:10.314132	15.7	81.0	-94.7	0.0
2025-01-19 07:53:12.558622	15.4	82.1	-94.9	0.0
2025-01-19 07:53:14.802599	15.0	83.3	-94.9	0.0
2025-01-19 07:53:17.044057	14.4	84.4	-95.1	0.0
2025-01-19 07:53:19.288479	13.6	85.6	-94.7	0.0
2025-01-19 07:53:21.531348	12.0	86.8	-94.9	0.0
2025-01-19 07:53:23.775355	8.8	87.9	-94.6	0.0
2025-01-19 07:53:26.017522	357.7	89.1	-94.7	0.0
2025-01-19 07:53:28.261538	246.8	89.6	-94.7	0.0
2025-01-19 07:53:30.502356	210.4	88.5	-95.0	0.0
2025-01-19 07:53:32.741310	204.9	87.4	-94.8	0.0
2025-01-19 07:53:34.982456	202.7	86.2	-94.8	0.0
2025-01-19 07:53:37.223427	201.6	85.1	-94.7	0.0
2025-01-19 07:53:39.467602	200.9	83.9	-94.7	0.0
2025-01-19 07:53:41.707062	200.4	82.7	-95.0	0.0
2025-01-19 07:53:43.947529	200.1	81.6	-94.8	0.0
2025-01-19 07:53:46.187055	199.8	80.4	-94.9	0.0
2025-01-19 07:53:48.431273	199.6	79.3	-95.0	0.0
2025-01-19 07:53:50.673897	199.4	78.2	-94.8	0.0
2025-01-19 07:53:52.916048	199.3	77.1	-95.0	0.0
2025-01-19 07:53:55.158440	199.2	75.9	-95.1	0.0
2025-01-19 07:53:57.400793	199.1	74.8	-94.8	0.0
2025-01-19 07:53:59.644861	199.0	73.7	-95.2	0.0
2025-01-19 07:54:01.889972	199.0	72.6	-94.7	0.0
2025-01-19 07:54:04.130388	198.9	71.6	-94.9	0.0
2025-01-19 07:54:06.373073	198.9	70.5	-94.8	0.0
2025-01-19 07:54:08.615408	198.8	69.5	-94.9	0.0
2025-01-19 07:54:10.858899	198.8	68.4	-94.8	0.0
2025-01-19 07:54:13.101258	198.8	67.4	-94.7	0.0
2025-01-19 07:54:15.346415	198.7	66.4	-94.7	0.0
2025-01-19 07:54:17.589239	198.7	65.4	-94.8	0.0
2025-01-19 07:54:19.831495	198.7	64.4	-94.5	0.0
2025-01-19 07:54:22.074246	198.7	63.4	-94.8	0.0
2025-01-19 07:54:24.318229	198.6	62.4	-95.0	0.0
2025-01-19 07:54:26.558767	198.6	61.5	-94.9	0.0
2025-01-19 07:54:28.798690	198.6	60.5	-94.8	0.0
2025-01-19 07:54:31.043226	198.6	59.6	-94.8	0.0
2025-01-19 07:54:33.287782	198.6	58.7	-94.8	0.0
2025-01-19 07:54:35.531033	198.6	57.8	-95.0	0.0
2025-01-19 07:54:37.775071	198.6	56.9	-95.1	0.0
2025-01-19 07:54:40.015356	198.6	56.0	-94.7	0.0
2025-01-19 07:54:42.257325	198.5	55.2	-94.7	0.0
2025-01-19 07:54:44.497704	198.5	54.3	-95.0	0.0
2025-01-19 07:54:46.737537	198.5	53.5	-94.5	0.0
2025-01-19 07:54:48.980409	198.5	52.7	-94.7	0.0
2025-01-19 07:54:51.224399	198.5	51.9	-94.6	0.0
2025-01-19 07:54:53.467589	198.5	51.1	-94.7	0.0
2025-01-19 07:54:55.711128	198.5	50.3	-94.6	0.0
2025-01-19 07:54:57.951277	198.5	49.5	-94.8	0.0
2025-01-19 07:55:00.193143	198.5	48.8	-94.8	0.0
2025-01-19 07:55:02.434541	198.5	48.0	-94.9	0.0
2025-01-19 07:55:04.677510	198.5	47.3	-94.9	0.0
2025-01-19 07:55:06.921707	198.5	46.6	-94.9	0.0
2025-01-19 07:55:09.162630	198.5	45.9	-94.9	0.0
2025-01-19 07:55:11.408033	198.5	45.2	-94.9	0.0
2025-01-19 07:55:13.649762	198.5	44.5	-94.8	0.0
2025-01-19 07:55:15.893381	198.5	43.9	-95.0	0.0
2025-01-19 07:55:18.135244	198.5	43.2	-94.7	0.0
2025-01-19 07:55:20.378720	198.5	42.6	-94.8	0.0
2025-01-19 07:55:22.621989	198.5	41.9	-94.7	0.0
2025-01-19 07:55:24.862095	198.5	41.3	-94.6	0.0
2025-01-19 07:55:27.102624	198.5	40.7	-94.9	0.0
2025-01-19 07:55:29.344625	198.5	40.1	-94.9	0.0
2025-01-19 07:55:31.587751	198.5	39.5	-94.8	0.0
2025-01-19 07:55:33.829251	198.5	38.9	-94.6	0.0
2025-01-19 07:55:36.072123	198.5	38.3	-94.7	0.0
2025-01-19 07:55:38.314124	198.5	37.8	-95.2	0.0
2025-01-19 07:55:40.558600	198.5	37.2	-94.9	0.0
2025-01-19 07:55:42.798863	198.5	36.7	-94.7	0.0
2025-01-19 07:55:45.041533	198.5	36.1	-94.9	0.0
2025-01-19 07:55:47.284280	198.5	35.6	-94.7	0.0
2025-01-19 07:55:49.525590	198.5	35.1	-94.9	0.0
2025-01-19 07:55:51.768163	198.5	34.6	-94.7	0.0
2025-01-19 07:55:54.009847	198.5	34.1	-94.8	0.0
2025-01-19 07:55:56.255240	198.5	33.6	-94.6	0.0
2025-01-19 07:55:58.500452	198.6	33.1	-94.7	0.0
2025-01-19 07:56:00.742250	198.6	32.6	-94.7	0.0
2025-01-19 07:56:02.982055	198.6	32.2	-94.8	0.0
2025-01-19 07:56:05.222313	198.6	31.7	-94.6	0.0
2025-01-19 07:56:07.465377	198.6	31.2	-94.7	0.0
2025-01-19 07:56:09.708904	198.6	30.8	-94.9	0.0
2025-01-19 07:56:11.954214	198.6	30.3	-95.1	0.0
2025-01-19 07:56:14.196428	198.6	29.9	-95.0	0.0
2025-01-19 07:56:16.438437	198.6	29.5	-95.0	0.0
2025-01-19 07:56:18.677435	198.6	29.1	-95.1	0.0
2025-01-19 07:56:20.919489	198.6	28.6	-94.9	0.0
2025-01-19 07:56:23.159839	198.6	28.2	-95.3	0.0
2025-01-19 07:56:25.400396	198.6	27.8	-95.0	0.0
2025-01-19 07:56:27.642718	198.6	27.4	-95.1	0.0
2025-01-19 07:56:29.886597	198.6	27.0	-95.0	0.0
2025-01-19 07:56:32.127110	198.6	26.6	-94.9	0.0
2025-01-19 07:56:34.366323	198.6	26.3	-95.1	0.0
2025-01-19 07:56:36.609616	198.6	25.9	-94.8	0.0
2025-01-19 07:56:38.851495	198.6	25.5	-94.8	0.0
2025-01-19 07:56:41.093593	198.6	25.2	-95.0	0.0
2025-01-19 07:56:43.336391	198.6	24.8	-95.0	0.0
2025-01-19 07:56:45.579243	198.6	24.4	-94.7	0.0
2025-01-19 07:56:47.821759	198.7	24.1	-94.7	0.0
2025-01-19 07:56:50.064007	198.7	23.7	-94.7	0.0
2025-01-19 07:56:52.302579	198.7	23.4	-94.7	0.0
2025-01-19 07:56:54.545041	198.7	23.1	-94.9	0.0
2025-01-19 07:56:56.786938	198.7	22.7	-94.6	0.0
2025-01-19 07:56:59.028239	198.7	22.4	-94.9	0.0
2025-01-19 07:57:01.274050	198.7	22.1	-95.1	0.0
2025-01-19 07:57:03.516286	198.7	21.8	-94.9	0.0
2025-01-19 07:57:05.756661	198.7	21.4	-95.0	0.0
2025-01-19 07:57:07.996287	198.7	21.1	-94.6	0.0
2025-01-19 07:57:10.240172	198.7	20.8	-94.8	0.0
2025-01-19 07:57:12.480712	198.7	20.5	-95.0	0.0
2025-01-19 07:57:14.724067	198.7	20.2	-95.2	0.0
2025-01-19 07:57:16.965552	198.7	19.9	-95.1	0.0
2025-01-19 07:57:19.207135	198.7	19.6	-95.1	0.0
2025-01-19 07:57:21.449813	198.7	19.3	-94.9	0.0
2025-01-19 07:57:23.692066	198.7	19.0	-95.1	0.0
2025-01-19 07:57:25.933518	198.7	18.8	-94.9	0.0
2025-01-19 07:57:28.175438	198.7	18.5	-94.7	0.0
2025-01-19 07:57:30.417499	198.8	18.2	-95.1	0.0
2025-01-19 07:57:32.660914	198.8	17.9	-94.8	0.0
2025-01-19 07:57:34.904989	198.8	17.7	-94.9	0.0
2025-01-19 07:57:37.147138	198.8	17.4	-94.6	0.0
2025-01-19 07:57:39.388161	198.8	17.1	-94.9	0.0
2025-01-19 07:57:41.631651	198.8	16.9	-94.6	0.0
2025-01-19 07:57:43.874193	198.8	16.6	-94.7	0.0
2025-01-19 07:57:46.116373	198.8	16.3	-94.7	0.0
2025-01-19 07:57:48.355213	198.8	16.1	-94.5	0.0
2025-01-19 07:57:50.599241	198.8	15.8	-94.7	0.0
2025-01-19 07:57:52.841871	198.8	15.6	-95.0	0.0
2025-01-19 07:57:55.081379	198.8	15.3	-94.6	0.0
2025-01-19 07:57:57.322780	198.8	15.1	-94.7	0.0
2025-01-19 07:57:59.565444	198.8	14.9	-94.6	0.0
2025-01-19 07:58:01.808718	198.8	14.6	-94.8	0.0
2025-01-19 07:58:04.052693	198.8	14.4	-95.0	0.0
2025-01-19 07:58:06.293935	198.8	14.1	-94.9	0.0
2025-01-19 07:58:08.535855	198.8	13.9	-94.9	0.0
2025-01-19 07:58:10.777086	198.9	13.7	-94.7	0.0
2025-01-19 07:58:13.022471	198.9	13.5	-94.8	0.0
2025-01-19 07:58:15.264670	198.9	13.2	-94.5	0.0
2025-01-19 07:58:17.506552	198.9	13.0	-94.7	0.0
2025-01-19 07:58:19.752172	198.9	12.8	-94.6	0.0
2025-01-19 07:58:21.993169	198.9	12.6	-94.8	0.0
2025-01-19 07:58:24.235239	198.9	12.3	-94.7	0.0
2025-01-19 07:58:26.478455	198.9	12.1	-94.9	0.0
2025-01-19 07:58:28.721442	198.9	11.9	-94.7	0.0
2025-01-19 07:58:30.963371	198.9	11.7	-94.7	0.0
2025-01-19 07:58:33.206960	198.9	11.5	-94.7	0.0
2025-01-19 07:58:35.449198	198.9	11.3	-95.0	0.0
2025-01-19 07:58:37.689545	198.9	11.1	-94.8	0.0
2025-01-19 07:58:39.933708	198.9	10.9	-94.7	0.0
2025-01-19 07:58:42.175903	198.9	10.7	-94.8	0.0
2025-01-19 07:58:44.417620	198.9	10.5	-94.8	0.0
2025-01-19 07:58:46.657270	198.9	10.3	-95.1	0.0
2025-01-19 07:58:48.899141	199.0	10.1	-94.7	0.0
#Closed at: 2025-01-19 07:47:58.195262