passes_logs/2025/01/19/planumMaritime01/planumMaritime01__20250119_081343_NOAA_19_rec.log

#Pass ID: 20250119_081343_NOAA 19
#Satellite: NOAA 19
#Configuration: NOAA 19
#Start time: 2025-01-19 08:13:48.059660

#LorettStation: 1.0.0 05.05.2024
#Station: planumMaritime01
#Location: 37.49445 lon 55.92918 lat
#TLE: 1 33591U 09005A   25018.04840605  .00000325  00000+0  19728-3 0  9997
#TLE: 2 33591  99.0190  81.8343 0014373  49.4310 310.8111 14.13261983821977

#Time	Az	El	Level	SNR
2025-01-19 08:13:50.212787	14.0	10.2	-94.7	0.0
2025-01-19 08:13:52.457256	13.9	10.4	-94.5	0.0
2025-01-19 08:13:54.701169	13.9	10.6	-94.5	0.0
2025-01-19 08:13:56.944569	13.8	10.8	-94.6	0.0
2025-01-19 08:13:59.187390	13.8	11.0	-94.5	0.0
2025-01-19 08:14:01.430616	13.7	11.2	-94.4	0.0
2025-01-19 08:14:03.672095	13.7	11.4	-94.6	0.0
2025-01-19 08:14:05.914226	13.6	11.6	-94.5	0.0
2025-01-19 08:14:08.156973	13.6	11.8	-94.5	0.0
2025-01-19 08:14:10.401173	13.6	12.0	-94.6	0.0
2025-01-19 08:14:12.641994	13.5	12.2	-94.4	0.0
2025-01-19 08:14:14.883862	13.5	12.4	-94.6	0.0
2025-01-19 08:14:17.124555	13.4	12.6	-94.5	0.0
2025-01-19 08:14:19.367362	13.3	12.8	-94.6	0.0
2025-01-19 08:14:21.606122	13.3	13.0	-94.8	0.0
2025-01-19 08:14:23.850642	13.2	13.3	-94.5	0.0
2025-01-19 08:14:26.093580	13.2	13.5	-94.6	0.0
2025-01-19 08:14:28.336812	13.1	13.7	-94.7	0.0
2025-01-19 08:14:30.576776	13.1	13.9	-94.6	0.0
2025-01-19 08:14:32.822437	13.0	14.2	-94.7	0.0
2025-01-19 08:14:35.064070	13.0	14.4	-94.7	0.0
2025-01-19 08:14:37.305873	12.9	14.6	-94.8	0.0
2025-01-19 08:14:39.547572	12.8	14.8	-94.6	0.0
2025-01-19 08:14:41.790722	12.8	15.1	-94.8	0.0
2025-01-19 08:14:44.032524	12.7	15.3	-94.7	0.0
2025-01-19 08:14:46.275302	12.6	15.6	-94.4	0.0
2025-01-19 08:14:48.517675	12.6	15.8	-94.7	0.0
2025-01-19 08:14:50.758005	12.5	16.0	-94.5	0.0
2025-01-19 08:14:53.000458	12.4	16.3	-94.7	0.0
2025-01-19 08:14:55.247032	12.4	16.5	-94.3	0.0
2025-01-19 08:14:57.493308	12.3	16.8	-94.7	0.0
2025-01-19 08:14:59.734773	12.2	17.0	-94.5	0.0
2025-01-19 08:15:01.977785	12.2	17.3	-94.5	0.0
2025-01-19 08:15:04.218382	12.1	17.6	-94.6	0.0
2025-01-19 08:15:06.459681	12.0	17.8	-94.5	0.0
2025-01-19 08:15:08.701471	11.9	18.1	-94.6	0.0
2025-01-19 08:15:10.946002	11.9	18.3	-94.9	0.0
2025-01-19 08:15:13.190694	11.8	18.6	-94.9	0.0
2025-01-19 08:15:15.435296	11.7	18.9	-94.8	0.0
2025-01-19 08:15:17.675204	11.6	19.2	-94.8	0.0
2025-01-19 08:15:19.918620	11.5	19.4	-94.7	0.0
2025-01-19 08:15:22.159447	11.4	19.7	-94.8	0.0
2025-01-19 08:15:24.401646	11.3	20.0	-94.5	0.0
2025-01-19 08:15:26.641984	11.3	20.3	-94.7	0.0
2025-01-19 08:15:28.886706	11.2	20.6	-94.7	0.0
2025-01-19 08:15:31.128547	11.1	20.9	-94.6	0.0
2025-01-19 08:15:33.371385	11.0	21.2	-94.8	0.0
2025-01-19 08:15:35.615074	10.9	21.5	-94.3	0.0
2025-01-19 08:15:37.855355	10.8	21.8	-94.7	0.0
2025-01-19 08:15:40.096683	10.7	22.1	-94.3	0.0
2025-01-19 08:15:42.339091	10.6	22.4	-94.5	0.0
2025-01-19 08:15:44.584176	10.5	22.7	-94.6	0.0
2025-01-19 08:15:46.826697	10.3	23.0	-94.8	0.0
2025-01-19 08:15:49.071735	10.2	23.3	-94.8	0.0
2025-01-19 08:15:51.310890	10.1	23.7	-94.8	0.0
2025-01-19 08:15:53.552337	10.0	24.0	-94.8	0.0
2025-01-19 08:15:55.796695	9.9	24.3	-94.7	0.0
2025-01-19 08:15:58.038547	9.8	24.7	-94.9	0.0
2025-01-19 08:16:00.281838	9.6	25.0	-94.6	0.0
2025-01-19 08:16:02.522678	9.5	25.4	-94.7	0.0
2025-01-19 08:16:04.764618	9.4	25.7	-94.7	0.0
2025-01-19 08:16:07.007002	9.2	26.1	-94.8	0.0
2025-01-19 08:16:09.249017	9.1	26.4	-94.8	0.0
2025-01-19 08:16:11.490559	9.0	26.8	-94.6	0.0
2025-01-19 08:16:13.734698	8.8	27.2	-95.0	0.0
2025-01-19 08:16:15.975597	8.7	27.5	-94.8	0.0
2025-01-19 08:16:18.220498	8.5	27.9	-94.8	0.0
2025-01-19 08:16:20.461807	8.4	28.3	-95.0	0.0
2025-01-19 08:16:22.706620	8.2	28.7	-94.6	0.0
2025-01-19 08:16:24.952950	8.0	29.1	-94.8	0.0
2025-01-19 08:16:27.199858	7.9	29.5	-94.5	0.0
2025-01-19 08:16:29.440407	7.7	29.9	-94.3	0.0
2025-01-19 08:16:31.684780	7.5	30.3	-94.8	0.0
2025-01-19 08:16:33.927058	7.3	30.7	-94.9	0.0
2025-01-19 08:16:36.170121	7.2	31.1	-94.6	0.0
2025-01-19 08:16:38.414440	7.0	31.6	-94.9	0.0
2025-01-19 08:16:40.654552	6.8	32.0	-94.8	0.0
2025-01-19 08:16:42.896590	6.6	32.4	-95.0	0.0
2025-01-19 08:16:45.139694	6.4	32.9	-94.8	0.0
2025-01-19 08:16:47.381440	6.1	33.3	-94.8	0.0
2025-01-19 08:16:49.621859	5.9	33.8	-94.8	0.0
2025-01-19 08:16:51.862094	5.7	34.3	-94.9	0.0
2025-01-19 08:16:54.105703	5.5	34.7	-94.6	0.0
2025-01-19 08:16:56.348694	5.2	35.2	-94.6	0.0
2025-01-19 08:16:58.592714	5.0	35.7	-94.6	0.0
2025-01-19 08:17:00.833824	4.7	36.2	-94.5	0.0
2025-01-19 08:17:03.076463	4.4	36.7	-94.5	0.0
2025-01-19 08:17:05.317501	4.2	37.2	-94.7	0.0
2025-01-19 08:17:07.560989	3.9	37.7	-94.7	0.0
2025-01-19 08:17:09.801585	3.6	38.2	-94.7	0.0
2025-01-19 08:17:12.043102	3.3	38.7	-94.8	0.0
2025-01-19 08:17:14.287369	3.0	39.3	-94.6	0.0
2025-01-19 08:17:16.525708	2.7	39.8	-94.7	0.0
2025-01-19 08:17:18.769661	2.3	40.4	-94.7	0.0
2025-01-19 08:17:21.012374	2.0	40.9	-94.7	0.0
2025-01-19 08:17:23.253634	1.6	41.5	-94.6	0.0
2025-01-19 08:17:25.496735	1.3	42.0	-94.7	0.0
2025-01-19 08:17:27.736790	0.9	42.6	-94.5	0.0
2025-01-19 08:17:29.981494	0.5	43.2	-94.8	0.0
2025-01-19 08:17:32.223364	0.1	43.8	-94.9	0.0
2025-01-19 08:17:34.469409	359.6	44.4	-94.9	0.0
2025-01-19 08:17:36.712230	359.2	45.0	-94.7	0.0
2025-01-19 08:17:38.956896	358.7	45.6	-94.8	0.0
2025-01-19 08:17:41.200580	358.2	46.2	-94.9	0.0
2025-01-19 08:17:43.441412	357.7	46.9	-94.8	0.0
2025-01-19 08:17:45.683335	357.2	47.5	-94.9	0.0
2025-01-19 08:17:47.925897	356.7	48.1	-95.0	0.0
2025-01-19 08:17:50.166240	356.1	48.8	-95.0	0.0
2025-01-19 08:17:52.407504	355.5	49.4	-94.9	0.0
2025-01-19 08:17:54.649329	354.9	50.1	-94.8	0.0
2025-01-19 08:17:56.892814	354.2	50.8	-94.9	0.0
2025-01-19 08:17:59.134646	353.6	51.4	-95.1	0.0
2025-01-19 08:18:01.376684	352.9	52.1	-94.7	0.0
2025-01-19 08:18:03.619718	352.1	52.8	-95.0	0.0
2025-01-19 08:18:05.862497	351.3	53.5	-94.9	0.0
2025-01-19 08:18:08.104676	350.5	54.2	-94.7	0.0
2025-01-19 08:18:10.343338	349.7	54.9	-95.0	0.0
2025-01-19 08:18:12.585719	348.8	55.5	-94.8	0.0
2025-01-19 08:18:14.825349	347.8	56.2	-94.8	0.0
2025-01-19 08:18:17.068758	346.8	56.9	-94.9	0.0
2025-01-19 08:18:19.311166	345.8	57.6	-94.9	0.0
2025-01-19 08:18:21.553103	344.7	58.3	-95.0	0.0
2025-01-19 08:18:23.793688	343.5	59.0	-94.7	0.0
2025-01-19 08:18:26.035048	342.3	59.7	-94.8	0.0
2025-01-19 08:18:28.273545	341.0	60.4	-94.8	0.0
2025-01-19 08:18:30.516386	339.6	61.1	-94.7	0.0
2025-01-19 08:18:32.759383	338.2	61.7	-94.8	0.0
2025-01-19 08:18:35.001273	336.7	62.4	-95.0	0.0
2025-01-19 08:18:37.243393	335.1	63.0	-94.7	0.0
2025-01-19 08:18:39.488470	333.4	63.7	-94.9	0.0
2025-01-19 08:18:41.731289	331.6	64.3	-94.8	0.0
2025-01-19 08:18:43.974714	329.7	64.9	-95.1	0.0
2025-01-19 08:18:46.218695	327.7	65.5	-94.7	0.0
2025-01-19 08:18:48.462766	325.7	66.0	-94.9	0.0
2025-01-19 08:18:50.705973	323.5	66.5	-94.6	0.0
2025-01-19 08:18:52.949434	321.2	67.0	-94.8	0.0
2025-01-19 08:18:55.188694	318.8	67.5	-94.9	0.0
2025-01-19 08:18:57.432866	316.2	67.9	-94.6	0.0
2025-01-19 08:18:59.676088	313.6	68.3	-94.6	0.0
2025-01-19 08:19:01.918196	310.9	68.7	-94.4	0.0
2025-01-19 08:19:04.160971	308.1	69.0	-94.8	0.0
2025-01-19 08:19:06.402650	305.2	69.2	-94.5	0.0
2025-01-19 08:19:08.644609	302.3	69.4	-94.6	0.0
2025-01-19 08:19:10.889290	299.2	69.6	-94.7	0.0
2025-01-19 08:19:13.133476	296.2	69.7	-94.6	0.0
2025-01-19 08:19:15.377501	293.1	69.7	-94.9	0.0
2025-01-19 08:19:17.622847	290.0	69.7	-94.5	0.0
2025-01-19 08:19:19.864903	286.9	69.6	-94.7	0.0
2025-01-19 08:19:22.109051	283.9	69.5	-94.7	0.0
2025-01-19 08:19:24.352464	280.9	69.4	-94.6	0.0
2025-01-19 08:19:26.592898	278.0	69.1	-94.7	0.0
2025-01-19 08:19:28.835534	275.1	68.9	-94.5	0.0
2025-01-19 08:19:31.077411	272.3	68.5	-94.7	0.0
2025-01-19 08:19:33.322001	269.7	68.2	-94.7	0.0
2025-01-19 08:19:35.562560	267.1	67.8	-94.9	0.0
2025-01-19 08:19:37.805663	264.6	67.3	-94.8	0.0
2025-01-19 08:19:40.048144	262.3	66.8	-94.7	0.0
2025-01-19 08:19:42.291178	260.0	66.3	-94.8	0.0
2025-01-19 08:19:44.533522	257.8	65.8	-94.7	0.0
2025-01-19 08:19:46.774640	255.8	65.2	-94.7	0.0
2025-01-19 08:19:49.018491	253.9	64.7	-94.8	0.0
2025-01-19 08:19:51.263399	252.0	64.0	-94.5	0.0
2025-01-19 08:19:53.505573	250.3	63.4	-94.7	0.0
2025-01-19 08:19:55.745798	248.6	62.8	-94.8	0.0
2025-01-19 08:19:57.987410	247.0	62.1	-94.8	0.0
2025-01-19 08:20:00.227017	245.6	61.5	-94.6	0.0
2025-01-19 08:20:02.468546	244.2	60.8	-94.7	0.0
2025-01-19 08:20:04.710748	242.8	60.1	-94.7	0.0
2025-01-19 08:20:06.955252	241.6	59.4	-94.8	0.0
2025-01-19 08:20:09.197844	240.4	58.7	-95.0	0.0
2025-01-19 08:20:11.438566	239.2	58.0	-95.0	0.0
2025-01-19 08:20:13.681996	238.1	57.4	-95.1	0.0
2025-01-19 08:20:15.925617	237.1	56.7	-94.9	0.0
2025-01-19 08:20:18.165790	236.1	56.0	-94.8	0.0
2025-01-19 08:20:20.408844	235.2	55.3	-95.1	0.0
2025-01-19 08:20:22.651728	234.3	54.6	-95.0	0.0
2025-01-19 08:20:24.896750	233.5	53.9	-94.9	0.0
2025-01-19 08:20:27.138622	232.7	53.2	-94.7	0.0
2025-01-19 08:20:29.379628	231.9	52.5	-94.6	0.0
2025-01-19 08:20:31.624309	231.2	51.8	-94.7	0.0
2025-01-19 08:20:33.866489	230.5	51.2	-94.6	0.0
2025-01-19 08:20:36.109200	229.8	50.5	-94.5	0.0
2025-01-19 08:20:38.355301	229.2	49.8	-95.0	0.0
2025-01-19 08:20:40.597077	228.6	49.2	-94.8	0.0
2025-01-19 08:20:42.838989	228.0	48.5	-94.9	0.0
2025-01-19 08:20:45.080610	227.4	47.9	-95.0	0.0
2025-01-19 08:20:47.323501	226.9	47.2	-94.9	0.0
2025-01-19 08:20:49.567933	226.4	46.6	-94.8	0.0
2025-01-19 08:20:51.809428	225.9	46.0	-95.0	0.0
2025-01-19 08:20:54.050251	225.4	45.3	-95.1	0.0
2025-01-19 08:20:56.292204	225.0	44.7	-94.8	0.0
2025-01-19 08:20:58.533556	224.5	44.1	-95.0	0.0
2025-01-19 08:21:00.774660	224.1	43.5	-94.9	0.0
2025-01-19 08:21:03.020710	223.7	42.9	-95.0	0.0
2025-01-19 08:21:05.262694	223.3	42.4	-94.9	0.0
2025-01-19 08:21:07.502260	222.9	41.8	-94.7	0.0
2025-01-19 08:21:09.744204	222.6	41.2	-94.9	0.0
2025-01-19 08:21:11.983077	222.2	40.7	-94.9	0.0
2025-01-19 08:21:14.222605	221.9	40.1	-95.1	0.0
2025-01-19 08:21:16.464650	221.5	39.6	-95.0	0.0
2025-01-19 08:21:18.708879	221.2	39.0	-94.7	0.0
2025-01-19 08:21:20.954639	220.9	38.5	-94.8	0.0
2025-01-19 08:21:23.194122	220.6	38.0	-94.9	0.0
2025-01-19 08:21:25.436254	220.3	37.5	-94.7	0.0
2025-01-19 08:21:27.682192	220.0	37.0	-94.7	0.0
2025-01-19 08:21:29.922615	219.8	36.5	-94.9	0.0
2025-01-19 08:21:32.164206	219.5	36.0	-94.9	0.0
2025-01-19 08:21:34.408322	219.3	35.5	-94.9	0.0
2025-01-19 08:21:36.650400	219.0	35.0	-95.1	0.0
2025-01-19 08:21:38.892450	218.8	34.5	-94.8	0.0
2025-01-19 08:21:41.134556	218.5	34.1	-94.8	0.0
2025-01-19 08:21:43.379460	218.3	33.6	-94.9	0.0
2025-01-19 08:21:45.624076	218.1	33.1	-94.8	0.0
2025-01-19 08:21:47.868567	217.9	32.7	-95.0	0.0
2025-01-19 08:21:50.113657	217.7	32.2	-95.0	0.0
2025-01-19 08:21:52.357080	217.5	31.8	-94.9	0.0
2025-01-19 08:21:54.601242	217.3	31.4	-95.0	0.0
2025-01-19 08:21:56.843828	217.1	30.9	-94.7	0.0
2025-01-19 08:21:59.085664	216.9	30.5	-94.6	0.0
2025-01-19 08:22:01.329684	216.7	30.1	-94.6	0.0
2025-01-19 08:22:03.570802	216.5	29.7	-94.8	0.0
2025-01-19 08:22:05.815642	216.4	29.3	-94.7	0.0
2025-01-19 08:22:08.059191	216.2	28.9	-94.7	0.0
2025-01-19 08:22:10.303863	216.0	28.5	-94.7	0.0
2025-01-19 08:22:12.544668	215.9	28.1	-94.8	0.0
2025-01-19 08:22:14.791940	215.7	27.7	-94.9	0.0
2025-01-19 08:22:17.037608	215.6	27.4	-94.6	0.0
2025-01-19 08:22:19.282661	215.4	27.0	-94.7	0.0
2025-01-19 08:22:21.525536	215.3	26.6	-94.7	0.0
2025-01-19 08:22:23.768634	215.1	26.3	-94.8	0.0
2025-01-19 08:22:26.010594	215.0	25.9	-94.7	0.0
2025-01-19 08:22:28.254708	214.9	25.5	-94.8	0.0
2025-01-19 08:22:30.493244	214.7	25.2	-94.9	0.0
2025-01-19 08:22:32.734665	214.6	24.9	-94.7	0.0
2025-01-19 08:22:34.978258	214.5	24.5	-94.8	0.0
2025-01-19 08:22:37.222122	214.4	24.2	-94.9	0.0
2025-01-19 08:22:39.462378	214.2	23.8	-94.7	0.0
2025-01-19 08:22:41.703403	214.1	23.5	-94.8	0.0
2025-01-19 08:22:43.946057	214.0	23.2	-94.7	0.0
2025-01-19 08:22:46.187849	213.9	22.9	-94.6	0.0
2025-01-19 08:22:48.429086	213.8	22.6	-94.8	0.0
2025-01-19 08:22:50.673110	213.7	22.2	-94.8	0.0
2025-01-19 08:22:52.915397	213.6	21.9	-94.5	0.0
2025-01-19 08:22:55.161549	213.5	21.6	-94.8	0.0
2025-01-19 08:22:57.401073	213.4	21.3	-94.8	0.0
2025-01-19 08:22:59.644171	213.3	21.0	-94.7	0.0
2025-01-19 08:23:01.889666	213.2	20.7	-95.1	0.0
2025-01-19 08:23:04.131287	213.1	20.4	-94.9	0.0
2025-01-19 08:23:06.373634	213.0	20.1	-94.7	0.0
2025-01-19 08:23:08.617545	212.9	19.9	-94.7	0.0
2025-01-19 08:23:10.859473	212.8	19.6	-94.7	0.0
2025-01-19 08:23:13.099716	212.7	19.3	-94.9	0.0
2025-01-19 08:23:15.342469	212.6	19.0	-94.4	0.0
2025-01-19 08:23:17.586565	212.5	18.7	-94.7	0.0
2025-01-19 08:23:19.829527	212.5	18.5	-94.7	0.0
2025-01-19 08:23:22.073901	212.4	18.2	-94.5	0.0
2025-01-19 08:23:24.314045	212.3	17.9	-94.6	0.0
2025-01-19 08:23:26.556351	212.2	17.7	-94.6	0.0
2025-01-19 08:23:28.799054	212.1	17.4	-94.3	0.0
2025-01-19 08:23:31.044653	212.1	17.2	-94.9	0.0
2025-01-19 08:23:33.287589	212.0	16.9	-94.8	0.0
2025-01-19 08:23:35.533228	211.9	16.7	-94.6	0.0
2025-01-19 08:23:37.776033	211.8	16.4	-94.9	0.0
2025-01-19 08:23:40.021526	211.8	16.2	-94.9	0.0
2025-01-19 08:23:42.262072	211.7	15.9	-94.7	0.0
2025-01-19 08:23:44.504838	211.6	15.7	-94.7	0.0
2025-01-19 08:23:46.747547	211.6	15.4	-94.7	0.0
2025-01-19 08:23:48.992332	211.5	15.2	-95.0	0.0
2025-01-19 08:23:51.233444	211.4	15.0	-94.7	0.0
2025-01-19 08:23:53.475441	211.4	14.7	-94.7	0.0
2025-01-19 08:23:55.721403	211.3	14.5	-94.6	0.0
2025-01-19 08:23:57.962217	211.2	14.3	-95.0	0.0
2025-01-19 08:24:00.203612	211.2	14.0	-94.6	0.0
2025-01-19 08:24:02.449831	211.1	13.8	-94.5	0.0
2025-01-19 08:24:04.693880	211.1	13.6	-94.4	0.0
2025-01-19 08:24:06.935682	211.0	13.4	-94.7	0.0
2025-01-19 08:24:09.175388	211.0	13.1	-94.3	0.0
2025-01-19 08:24:11.415392	210.9	12.9	-94.7	0.0
2025-01-19 08:24:13.656649	210.8	12.7	-94.3	0.0
2025-01-19 08:24:15.900603	210.8	12.5	-94.5	0.0
2025-01-19 08:24:18.140004	210.7	12.3	-94.6	0.0
2025-01-19 08:24:20.383632	210.7	12.1	-94.7	0.0
2025-01-19 08:24:22.626530	210.6	11.9	-94.6	0.0
2025-01-19 08:24:24.865461	210.6	11.7	-94.6	0.0
2025-01-19 08:24:27.107607	210.5	11.5	-94.5	0.0
2025-01-19 08:24:29.350666	210.5	11.3	-94.9	0.0
2025-01-19 08:24:31.591028	210.4	11.1	-94.5	0.0
2025-01-19 08:24:33.833958	210.4	10.9	-94.9	0.0
2025-01-19 08:24:36.074982	210.3	10.7	-95.0	0.0
2025-01-19 08:24:38.315823	210.3	10.5	-94.6	0.0
2025-01-19 08:24:40.557144	210.2	10.3	-95.0	0.0
2025-01-19 08:24:42.796643	210.2	10.1	-94.7	0.0
#Closed at: 2025-01-19 08:13:43.061154