passes_logs/2025/01/19/planumMaritime01/planumMaritime01__20250119_063328_NOAA_19_rec.log

#Pass ID: 20250119_063328_NOAA 19
#Satellite: NOAA 19
#Configuration: NOAA 19
#Start time: 2025-01-19 06:33:33.377429

#LorettStation: 1.0.0 05.05.2024
#Station: planumMaritime01
#Location: 37.49445 lon 55.92918 lat
#TLE: 1 33591U 09005A   25018.04840605  .00000325  00000+0  19728-3 0  9997
#TLE: 2 33591  99.0190  81.8343 0014373  49.4310 310.8111 14.13261983821977

#Time	Az	El	Level	SNR
2025-01-19 06:33:35.534346	35.1	10.1	-94.6	0.0
2025-01-19 06:33:37.776622	35.3	10.3	-94.6	0.0
2025-01-19 06:33:40.020226	35.6	10.5	-94.6	0.0
2025-01-19 06:33:42.262652	35.8	10.6	-94.4	0.0
2025-01-19 06:33:44.506027	36.1	10.8	-94.6	0.0
2025-01-19 06:33:46.750960	36.3	10.9	-94.3	0.0
2025-01-19 06:33:48.992767	36.6	11.1	-94.4	0.0
2025-01-19 06:33:51.233895	36.8	11.2	-94.7	0.0
2025-01-19 06:33:53.474495	37.1	11.4	-94.4	0.0
2025-01-19 06:33:55.716212	37.3	11.6	-94.4	0.0
2025-01-19 06:33:57.960747	37.6	11.7	-94.3	0.0
2025-01-19 06:34:00.200923	37.9	11.9	-94.8	0.0
2025-01-19 06:34:02.441181	38.1	12.0	-94.5	0.0
2025-01-19 06:34:04.682237	38.4	12.2	-94.8	0.0
2025-01-19 06:34:06.925602	38.7	12.4	-94.7	0.0
2025-01-19 06:34:09.166013	39.0	12.5	-94.5	0.0
2025-01-19 06:34:11.408471	39.3	12.7	-94.6	0.0
2025-01-19 06:34:13.648481	39.5	12.9	-94.6	0.0
2025-01-19 06:34:15.889845	39.8	13.0	-94.8	0.0
2025-01-19 06:34:18.134030	40.1	13.2	-94.6	0.0
2025-01-19 06:34:20.376683	40.4	13.3	-94.5	0.0
2025-01-19 06:34:22.617360	40.7	13.5	-94.6	0.0
2025-01-19 06:34:24.858639	41.0	13.7	-94.6	0.0
2025-01-19 06:34:27.099204	41.3	13.8	-94.6	0.0
2025-01-19 06:34:29.342587	41.6	14.0	-94.9	0.0
2025-01-19 06:34:31.584663	41.9	14.2	-94.5	0.0
2025-01-19 06:34:33.826140	42.2	14.3	-94.7	0.0
2025-01-19 06:34:36.065471	42.6	14.5	-94.7	0.0
2025-01-19 06:34:38.309034	42.9	14.7	-95.0	0.0
2025-01-19 06:34:40.550818	43.2	14.8	-94.7	0.0
2025-01-19 06:34:42.793720	43.5	15.0	-94.7	0.0
2025-01-19 06:34:45.033784	43.9	15.2	-94.8	0.0
2025-01-19 06:34:47.276599	44.2	15.3	-94.7	0.0
2025-01-19 06:34:49.519717	44.5	15.5	-94.6	0.0
2025-01-19 06:34:51.761293	44.9	15.7	-94.7	0.0
2025-01-19 06:34:54.002427	45.2	15.8	-94.4	0.0
2025-01-19 06:34:56.243645	45.6	16.0	-94.8	0.0
2025-01-19 06:34:58.484507	45.9	16.2	-94.5	0.0
2025-01-19 06:35:00.727258	46.3	16.4	-94.4	0.0
2025-01-19 06:35:02.970284	46.6	16.5	-94.5	0.0
2025-01-19 06:35:05.212969	47.0	16.7	-94.6	0.0
2025-01-19 06:35:07.455455	47.4	16.9	-94.6	0.0
2025-01-19 06:35:09.700479	47.7	17.0	-94.7	0.0
2025-01-19 06:35:11.943392	48.1	17.2	-94.7	0.0
2025-01-19 06:35:14.186670	48.5	17.4	-94.6	0.0
2025-01-19 06:35:16.430347	48.9	17.5	-94.7	0.0
2025-01-19 06:35:18.670542	49.3	17.7	-94.8	0.0
2025-01-19 06:35:20.912590	49.7	17.9	-94.8	0.0
2025-01-19 06:35:23.153666	50.1	18.1	-94.8	0.0
2025-01-19 06:35:25.396655	50.5	18.2	-94.6	0.0
2025-01-19 06:35:27.641345	50.9	18.4	-94.7	0.0
2025-01-19 06:35:29.883352	51.3	18.6	-94.8	0.0
2025-01-19 06:35:32.128098	51.7	18.7	-94.5	0.0
2025-01-19 06:35:34.367023	52.1	18.9	-94.8	0.0
2025-01-19 06:35:36.608620	52.5	19.1	-94.7	0.0
2025-01-19 06:35:38.853798	53.0	19.2	-94.9	0.0
2025-01-19 06:35:41.097258	53.4	19.4	-94.9	0.0
2025-01-19 06:35:43.336075	53.8	19.6	-94.8	0.0
2025-01-19 06:35:45.577327	54.3	19.7	-94.7	0.0
2025-01-19 06:35:47.819510	54.7	19.9	-94.6	0.0
2025-01-19 06:35:50.062646	55.2	20.1	-94.8	0.0
2025-01-19 06:35:52.302856	55.6	20.2	-94.8	0.0
2025-01-19 06:35:54.540913	56.1	20.4	-94.5	0.0
2025-01-19 06:35:56.782219	56.6	20.6	-94.7	0.0
2025-01-19 06:35:59.022458	57.0	20.7	-94.4	0.0
2025-01-19 06:36:01.267639	57.5	20.9	-94.7	0.0
2025-01-19 06:36:03.507026	58.0	21.0	-94.6	0.0
2025-01-19 06:36:05.748289	58.5	21.2	-94.7	0.0
2025-01-19 06:36:07.990359	59.0	21.4	-94.7	0.0
2025-01-19 06:36:10.232397	59.5	21.5	-94.7	0.0
2025-01-19 06:36:12.471696	60.0	21.7	-94.6	0.0
2025-01-19 06:36:14.713492	60.5	21.8	-94.8	0.0
2025-01-19 06:36:16.954123	61.0	22.0	-94.4	0.0
2025-01-19 06:36:19.194526	61.5	22.1	-94.7	0.0
2025-01-19 06:36:21.437213	62.0	22.3	-94.6	0.0
2025-01-19 06:36:23.682289	62.5	22.4	-94.7	0.0
2025-01-19 06:36:25.923354	63.1	22.6	-94.8	0.0
2025-01-19 06:36:28.166951	63.6	22.7	-94.8	0.0
2025-01-19 06:36:30.410690	64.1	22.9	-94.7	0.0
2025-01-19 06:36:32.652443	64.7	23.0	-94.8	0.0
2025-01-19 06:36:34.895274	65.2	23.1	-94.7	0.0
2025-01-19 06:36:37.136121	65.8	23.3	-94.6	0.0
2025-01-19 06:36:39.376947	66.3	23.4	-94.9	0.0
2025-01-19 06:36:41.615526	66.9	23.5	-94.6	0.0
2025-01-19 06:36:43.856833	67.5	23.7	-94.8	0.0
2025-01-19 06:36:46.099514	68.0	23.8	-94.6	0.0
2025-01-19 06:36:48.340043	68.6	23.9	-95.0	0.0
2025-01-19 06:36:50.583520	69.2	24.1	-94.7	0.0
2025-01-19 06:36:52.828348	69.8	24.2	-94.9	0.0
2025-01-19 06:36:55.069469	70.4	24.3	-94.8	0.0
2025-01-19 06:36:57.309497	71.0	24.4	-94.7	0.0
2025-01-19 06:36:59.549117	71.6	24.5	-94.7	0.0
2025-01-19 06:37:01.788317	72.2	24.6	-94.5	0.0
2025-01-19 06:37:04.031876	72.8	24.7	-94.7	0.0
2025-01-19 06:37:06.274075	73.4	24.8	-94.7	0.0
2025-01-19 06:37:08.515832	74.0	25.0	-94.7	0.0
2025-01-19 06:37:10.756104	74.6	25.1	-94.6	0.0
2025-01-19 06:37:13.000485	75.2	25.1	-94.9	0.0
2025-01-19 06:37:15.242841	75.9	25.2	-94.4	0.0
2025-01-19 06:37:17.486219	76.5	25.3	-94.8	0.0
2025-01-19 06:37:19.725621	77.1	25.4	-94.8	0.0
2025-01-19 06:37:21.970712	77.8	25.5	-94.7	0.0
2025-01-19 06:37:24.213688	78.4	25.6	-94.8	0.0
2025-01-19 06:37:26.455435	79.0	25.7	-94.9	0.0
2025-01-19 06:37:28.698540	79.7	25.7	-94.8	0.0
2025-01-19 06:37:30.940864	80.3	25.8	-95.0	0.0
2025-01-19 06:37:33.180442	81.0	25.9	-94.7	0.0
2025-01-19 06:37:35.423567	81.6	25.9	-94.8	0.0
2025-01-19 06:37:37.669086	82.3	26.0	-94.6	0.0
2025-01-19 06:37:39.911185	83.0	26.0	-94.9	0.0
2025-01-19 06:37:42.152578	83.6	26.1	-94.5	0.0
2025-01-19 06:37:44.392767	84.3	26.1	-94.8	0.0
2025-01-19 06:37:46.633482	84.9	26.2	-94.9	0.0
2025-01-19 06:37:48.874208	85.6	26.2	-94.7	0.0
2025-01-19 06:37:51.114344	86.3	26.2	-94.8	0.0
2025-01-19 06:37:53.358710	86.9	26.3	-94.8	0.0
2025-01-19 06:37:55.596982	87.6	26.3	-94.8	0.0
2025-01-19 06:37:57.837231	88.3	26.3	-94.6	0.0
2025-01-19 06:38:00.076267	88.9	26.3	-94.7	0.0
2025-01-19 06:38:02.316755	89.6	26.4	-94.6	0.0
2025-01-19 06:38:04.558856	90.3	26.4	-94.7	0.0
2025-01-19 06:38:06.804731	91.0	26.4	-94.8	0.0
2025-01-19 06:38:09.045993	91.6	26.4	-94.5	0.0
2025-01-19 06:38:11.289821	92.3	26.4	-94.7	0.0
2025-01-19 06:38:13.530968	93.0	26.4	-94.8	0.0
2025-01-19 06:38:15.768706	93.7	26.3	-94.4	0.0
2025-01-19 06:38:18.012496	94.3	26.3	-94.7	0.0
2025-01-19 06:38:20.255531	95.0	26.3	-94.7	0.0
2025-01-19 06:38:22.494317	95.7	26.3	-94.9	0.0
2025-01-19 06:38:24.735203	96.3	26.3	-94.6	0.0
2025-01-19 06:38:26.977234	97.0	26.2	-94.8	0.0
2025-01-19 06:38:29.219846	97.7	26.2	-94.6	0.0
2025-01-19 06:38:31.459272	98.3	26.2	-94.7	0.0
2025-01-19 06:38:33.698275	99.0	26.1	-95.0	0.0
2025-01-19 06:38:35.939291	99.7	26.1	-94.7	0.0
2025-01-19 06:38:38.182697	100.3	26.0	-94.5	0.0
2025-01-19 06:38:40.421318	101.0	26.0	-94.8	0.0
2025-01-19 06:38:42.661642	101.6	25.9	-94.7	0.0
2025-01-19 06:38:44.904528	102.3	25.8	-94.8	0.0
2025-01-19 06:38:47.146531	102.9	25.8	-94.6	0.0
2025-01-19 06:38:49.389500	103.6	25.7	-94.7	0.0
2025-01-19 06:38:51.632161	104.2	25.6	-95.0	0.0
2025-01-19 06:38:53.875675	104.9	25.5	-94.9	0.0
2025-01-19 06:38:56.118040	105.5	25.5	-95.0	0.0
2025-01-19 06:38:58.360329	106.1	25.4	-94.9	0.0
2025-01-19 06:39:00.602456	106.8	25.3	-94.9	0.0
2025-01-19 06:39:02.844089	107.4	25.2	-95.0	0.0
2025-01-19 06:39:05.084519	108.0	25.1	-95.0	0.0
2025-01-19 06:39:07.327604	108.7	25.0	-94.8	0.0
2025-01-19 06:39:09.571698	109.3	24.9	-94.6	0.0
2025-01-19 06:39:11.813997	109.9	24.8	-94.9	0.0
2025-01-19 06:39:14.057557	110.5	24.7	-94.8	0.0
2025-01-19 06:39:16.300227	111.1	24.6	-94.6	0.0
2025-01-19 06:39:18.539136	111.7	24.5	-94.8	0.0
2025-01-19 06:39:20.781685	112.3	24.4	-94.6	0.0
2025-01-19 06:39:23.022199	112.9	24.2	-94.5	0.0
2025-01-19 06:39:25.265170	113.5	24.1	-94.8	0.0
2025-01-19 06:39:27.505852	114.1	24.0	-94.6	0.0
2025-01-19 06:39:29.745660	114.6	23.9	-94.7	0.0
2025-01-19 06:39:31.989946	115.2	23.7	-94.6	0.0
2025-01-19 06:39:34.236243	115.8	23.6	-94.6	0.0
2025-01-19 06:39:36.476873	116.3	23.5	-94.8	0.0
2025-01-19 06:39:38.718594	116.9	23.3	-94.8	0.0
2025-01-19 06:39:40.962608	117.5	23.2	-94.8	0.0
2025-01-19 06:39:43.204692	118.0	23.1	-94.8	0.0
2025-01-19 06:39:45.444541	118.6	22.9	-94.8	0.0
2025-01-19 06:39:47.682277	119.1	22.8	-94.7	0.0
2025-01-19 06:39:49.925046	119.6	22.6	-94.8	0.0
2025-01-19 06:39:52.167024	120.2	22.5	-94.8	0.0
2025-01-19 06:39:54.408318	120.7	22.3	-95.0	0.0
2025-01-19 06:39:56.650392	121.2	22.2	-94.8	0.0
2025-01-19 06:39:58.894518	121.7	22.0	-94.8	0.0
2025-01-19 06:40:01.137037	122.3	21.9	-95.0	0.0
2025-01-19 06:40:03.377611	122.8	21.7	-94.8	0.0
2025-01-19 06:40:05.617582	123.3	21.6	-94.9	0.0
2025-01-19 06:40:07.862250	123.8	21.4	-95.0	0.0
2025-01-19 06:40:10.103176	124.3	21.3	-94.8	0.0
2025-01-19 06:40:12.343252	124.7	21.1	-94.8	0.0
2025-01-19 06:40:14.582889	125.2	21.0	-94.8	0.0
2025-01-19 06:40:16.828322	125.7	20.8	-94.6	0.0
2025-01-19 06:40:19.067187	126.2	20.6	-94.8	0.0
2025-01-19 06:40:21.310567	126.6	20.5	-94.5	0.0
2025-01-19 06:40:23.553666	127.1	20.3	-94.7	0.0
2025-01-19 06:40:25.795518	127.6	20.1	-94.7	0.0
2025-01-19 06:40:28.036391	128.0	20.0	-94.4	0.0
2025-01-19 06:40:30.276467	128.5	19.8	-95.1	0.0
2025-01-19 06:40:32.518594	128.9	19.6	-94.6	0.0
2025-01-19 06:40:34.761308	129.4	19.5	-94.4	0.0
2025-01-19 06:40:37.003171	129.8	19.3	-94.9	0.0
2025-01-19 06:40:39.244351	130.2	19.1	-94.5	0.0
2025-01-19 06:40:41.485931	130.6	19.0	-94.6	0.0
2025-01-19 06:40:43.728413	131.1	18.8	-94.8	0.0
2025-01-19 06:40:45.969473	131.5	18.6	-94.6	0.0
2025-01-19 06:40:48.212138	131.9	18.5	-94.8	0.0
2025-01-19 06:40:50.454348	132.3	18.3	-95.0	0.0
2025-01-19 06:40:52.699468	132.7	18.1	-95.0	0.0
2025-01-19 06:40:54.941325	133.1	18.0	-94.7	0.0
2025-01-19 06:40:57.182798	133.5	17.8	-94.6	0.0
2025-01-19 06:40:59.424415	133.9	17.6	-95.0	0.0
2025-01-19 06:41:01.666849	134.3	17.4	-95.0	0.0
2025-01-19 06:41:03.908407	134.7	17.3	-95.0	0.0
2025-01-19 06:41:06.149939	135.0	17.1	-94.6	0.0
2025-01-19 06:41:08.390984	135.4	16.9	-94.9	0.0
2025-01-19 06:41:10.633373	135.8	16.8	-95.0	0.0
2025-01-19 06:41:12.876325	136.2	16.6	-94.6	0.0
2025-01-19 06:41:15.117161	136.5	16.4	-95.0	0.0
2025-01-19 06:41:17.358643	136.9	16.3	-94.6	0.0
2025-01-19 06:41:19.602258	137.2	16.1	-94.7	0.0
2025-01-19 06:41:21.842606	137.6	15.9	-94.7	0.0
2025-01-19 06:41:24.085903	137.9	15.7	-94.8	0.0
2025-01-19 06:41:26.328693	138.3	15.6	-94.6	0.0
2025-01-19 06:41:28.573237	138.6	15.4	-94.6	0.0
2025-01-19 06:41:30.813228	138.9	15.2	-94.5	0.0
2025-01-19 06:41:33.054028	139.3	15.1	-94.8	0.0
2025-01-19 06:41:35.296880	139.6	14.9	-94.9	0.0
2025-01-19 06:41:37.538405	139.9	14.7	-94.7	0.0
2025-01-19 06:41:39.779149	140.3	14.6	-95.0	0.0
2025-01-19 06:41:42.020846	140.6	14.4	-94.7	0.0
2025-01-19 06:41:44.262546	140.9	14.2	-95.1	0.0
2025-01-19 06:41:46.506240	141.2	14.1	-94.6	0.0
2025-01-19 06:41:48.745932	141.5	13.9	-94.9	0.0
2025-01-19 06:41:50.990183	141.8	13.7	-94.8	0.0
2025-01-19 06:41:53.232780	142.1	13.6	-95.0	0.0
2025-01-19 06:41:55.476517	142.4	13.4	-94.9	0.0
2025-01-19 06:41:57.718125	142.7	13.2	-94.9	0.0
2025-01-19 06:41:59.958897	143.0	13.1	-95.0	0.0
2025-01-19 06:42:02.198864	143.3	12.9	-95.1	0.0
2025-01-19 06:42:04.439419	143.6	12.7	-94.8	0.0
2025-01-19 06:42:06.680985	143.8	12.6	-95.0	0.0
2025-01-19 06:42:08.924421	144.1	12.4	-95.0	0.0
2025-01-19 06:42:11.163909	144.4	12.2	-95.2	0.0
2025-01-19 06:42:13.403010	144.7	12.1	-95.0	0.0
2025-01-19 06:42:15.642360	144.9	11.9	-94.9	0.0
2025-01-19 06:42:17.884365	145.2	11.8	-95.1	0.0
2025-01-19 06:42:20.129876	145.5	11.6	-95.1	0.0
2025-01-19 06:42:22.373582	145.7	11.4	-94.8	0.0
2025-01-19 06:42:24.615267	146.0	11.3	-94.7	0.0
2025-01-19 06:42:26.859270	146.3	11.1	-94.8	0.0
2025-01-19 06:42:29.099294	146.5	11.0	-94.7	0.0
2025-01-19 06:42:31.338101	146.8	10.8	-94.8	0.0
2025-01-19 06:42:33.580874	147.0	10.7	-94.8	0.0
2025-01-19 06:42:35.821304	147.3	10.5	-94.8	0.0
2025-01-19 06:42:38.062073	147.5	10.3	-94.8	0.0
2025-01-19 06:42:40.301933	147.7	10.2	-95.0	0.0
#Closed at: 2025-01-19 06:33:28.381607