passes_logs/2025/01/19/planumMaritime01/planumMaritime01__20250119_101902_NOAA_18_rec.log

#Pass ID: 20250119_101902_NOAA 18
#Satellite: NOAA 18
#Configuration: NOAA 18
#Start time: 2025-01-19 10:19:07.774854

#LorettStation: 1.0.0 05.05.2024
#Station: planumMaritime01
#Location: 37.49445 lon 55.92918 lat
#TLE: 1 28654U 05018A   25018.13582066  .00000389  00000+0  23006-3 0  9999
#TLE: 2 28654  98.8561  99.1591 0014505 170.4027 189.7425 14.13489305 13620

#Time	Az	El	Level	SNR
2025-01-19 10:19:15.975148	3.7	10.6	-94.5	0.0
2025-01-19 10:19:18.218344	3.5	10.8	-94.7	0.0
2025-01-19 10:19:20.459096	3.3	11.0	-94.5	0.0
2025-01-19 10:19:22.703062	3.1	11.1	-94.5	0.0
2025-01-19 10:19:24.946345	2.9	11.3	-94.7	0.0
2025-01-19 10:19:27.187986	2.7	11.5	-94.6	0.0
2025-01-19 10:19:29.431180	2.5	11.7	-94.6	0.0
2025-01-19 10:19:31.671136	2.3	11.8	-95.0	0.0
2025-01-19 10:19:33.910867	2.1	12.0	-94.7	0.0
2025-01-19 10:19:36.154917	1.8	12.2	-94.6	0.0
2025-01-19 10:19:38.398370	1.6	12.4	-94.7	0.0
2025-01-19 10:19:40.640978	1.4	12.6	-94.5	0.0
2025-01-19 10:19:42.884074	1.2	12.7	-94.3	0.0
2025-01-19 10:19:45.127078	0.9	12.9	-94.7	0.0
2025-01-19 10:19:47.369077	0.7	13.1	-94.6	0.0
2025-01-19 10:19:49.608360	0.5	13.3	-94.7	0.0
2025-01-19 10:19:51.850502	0.2	13.5	-94.3	0.0
2025-01-19 10:19:54.090490	360.0	13.7	-94.5	0.0
2025-01-19 10:19:56.333643	359.7	13.9	-94.6	0.0
2025-01-19 10:19:58.576448	359.5	14.0	-94.5	0.0
2025-01-19 10:20:00.818983	359.2	14.2	-94.5	0.0
2025-01-19 10:20:03.060063	359.0	14.4	-94.9	0.0
2025-01-19 10:20:05.303619	358.7	14.6	-94.4	0.0
2025-01-19 10:20:07.545244	358.4	14.8	-94.6	0.0
2025-01-19 10:20:09.787097	358.2	15.0	-94.8	0.0
2025-01-19 10:20:12.029251	357.9	15.2	-94.7	0.0
2025-01-19 10:20:14.273068	357.6	15.4	-94.9	0.0
2025-01-19 10:20:16.515154	357.4	15.6	-95.0	0.0
2025-01-19 10:20:18.757958	357.1	15.8	-94.9	0.0
2025-01-19 10:20:21.001580	356.8	16.0	-94.5	0.0
2025-01-19 10:20:23.243172	356.5	16.2	-94.7	0.0
2025-01-19 10:20:25.487057	356.2	16.4	-94.7	0.0
2025-01-19 10:20:27.730268	355.9	16.6	-94.6	0.0
2025-01-19 10:20:29.972069	355.6	16.8	-94.6	0.0
2025-01-19 10:20:32.214535	355.3	17.0	-94.5	0.0
2025-01-19 10:20:34.456974	355.0	17.2	-94.4	0.0
2025-01-19 10:20:36.699914	354.7	17.4	-94.9	0.0
2025-01-19 10:20:38.942350	354.4	17.6	-94.8	0.0
2025-01-19 10:20:41.180597	354.0	17.8	-94.7	0.0
2025-01-19 10:20:43.424154	353.7	18.0	-94.4	0.0
2025-01-19 10:20:45.666329	353.4	18.2	-94.7	0.0
2025-01-19 10:20:47.910479	353.0	18.4	-94.8	0.0
2025-01-19 10:20:50.154938	352.7	18.6	-94.9	0.0
2025-01-19 10:20:52.398340	352.4	18.8	-94.8	0.0
2025-01-19 10:20:54.640193	352.0	19.0	-94.8	0.0
2025-01-19 10:20:56.881367	351.7	19.2	-94.7	0.0
2025-01-19 10:20:59.120196	351.3	19.4	-94.6	0.0
2025-01-19 10:21:01.361615	350.9	19.6	-94.5	0.0
2025-01-19 10:21:03.603997	350.6	19.8	-94.8	0.0
2025-01-19 10:21:05.844774	350.2	20.1	-94.4	0.0
2025-01-19 10:21:08.085421	349.8	20.3	-94.7	0.0
2025-01-19 10:21:10.328860	349.4	20.5	-95.0	0.0
2025-01-19 10:21:12.570596	349.0	20.7	-94.7	0.0
2025-01-19 10:21:14.812270	348.6	20.9	-94.7	0.0
2025-01-19 10:21:17.053525	348.2	21.1	-94.7	0.0
2025-01-19 10:21:19.295457	347.8	21.3	-94.5	0.0
2025-01-19 10:21:21.536168	347.4	21.5	-94.7	0.0
2025-01-19 10:21:23.776730	347.0	21.7	-94.6	0.0
2025-01-19 10:21:26.017168	346.6	22.0	-94.7	0.0
2025-01-19 10:21:28.257323	346.1	22.2	-94.6	0.0
2025-01-19 10:21:30.499109	345.7	22.4	-94.8	0.0
2025-01-19 10:21:32.742473	345.3	22.6	-94.7	0.0
2025-01-19 10:21:34.984170	344.8	22.8	-94.5	0.0
2025-01-19 10:21:37.226623	344.4	23.0	-94.8	0.0
2025-01-19 10:21:39.469245	343.9	23.2	-94.6	0.0
2025-01-19 10:21:41.712038	343.4	23.4	-94.6	0.0
2025-01-19 10:21:43.954277	342.9	23.7	-94.8	0.0
2025-01-19 10:21:46.197952	342.5	23.9	-95.0	0.0
2025-01-19 10:21:48.440931	342.0	24.1	-94.7	0.0
2025-01-19 10:21:50.683823	341.5	24.3	-94.8	0.0
2025-01-19 10:21:52.924212	341.0	24.5	-94.8	0.0
2025-01-19 10:21:55.165180	340.5	24.7	-94.9	0.0
2025-01-19 10:21:57.403170	340.0	24.9	-94.8	0.0
2025-01-19 10:21:59.645606	339.4	25.1	-94.8	0.0
2025-01-19 10:22:01.889897	338.9	25.3	-95.0	0.0
2025-01-19 10:22:04.132289	338.4	25.5	-94.9	0.0
2025-01-19 10:22:06.376008	337.8	25.7	-94.8	0.0
2025-01-19 10:22:08.616178	337.3	25.9	-94.9	0.0
2025-01-19 10:22:10.859002	336.7	26.1	-94.7	0.0
2025-01-19 10:22:13.102182	336.2	26.3	-94.5	0.0
2025-01-19 10:22:15.344619	335.6	26.5	-94.4	0.0
2025-01-19 10:22:17.587138	335.0	26.7	-94.8	0.0
2025-01-19 10:22:19.826805	334.4	26.9	-94.7	0.0
2025-01-19 10:22:22.066698	333.8	27.1	-94.8	0.0
2025-01-19 10:22:24.310166	333.2	27.3	-94.7	0.0
2025-01-19 10:22:26.552382	332.6	27.5	-94.5	0.0
2025-01-19 10:22:28.793601	332.0	27.7	-94.8	0.0
2025-01-19 10:22:31.039300	331.4	27.9	-94.6	0.0
2025-01-19 10:22:33.280154	330.7	28.0	-94.5	0.0
2025-01-19 10:22:35.523641	330.1	28.2	-94.6	0.0
2025-01-19 10:22:37.771003	329.5	28.4	-94.7	0.0
2025-01-19 10:22:40.015940	328.8	28.6	-94.5	0.0
2025-01-19 10:22:42.257350	328.2	28.7	-94.8	0.0
2025-01-19 10:22:44.498842	327.5	28.9	-94.9	0.0
2025-01-19 10:22:46.740369	326.8	29.1	-94.8	0.0
2025-01-19 10:22:48.981189	326.1	29.2	-94.8	0.0
2025-01-19 10:22:51.224118	325.5	29.4	-94.8	0.0
2025-01-19 10:22:53.466770	324.8	29.5	-94.8	0.0
2025-01-19 10:22:55.708905	324.1	29.7	-94.9	0.0
2025-01-19 10:22:57.949256	323.4	29.8	-94.8	0.0
2025-01-19 10:23:00.188662	322.7	29.9	-94.9	0.0
2025-01-19 10:23:02.431011	321.9	30.1	-94.6	0.0
2025-01-19 10:23:04.671601	321.2	30.2	-94.7	0.0
2025-01-19 10:23:06.911108	320.5	30.3	-94.8	0.0
2025-01-19 10:23:09.157580	319.8	30.4	-94.8	0.0
2025-01-19 10:23:11.397032	319.0	30.6	-94.9	0.0
2025-01-19 10:23:13.638018	318.3	30.7	-94.8	0.0
2025-01-19 10:23:15.882155	317.5	30.8	-94.6	0.0
2025-01-19 10:23:18.123727	316.8	30.9	-94.9	0.0
2025-01-19 10:23:20.367269	316.0	31.0	-94.7	0.0
2025-01-19 10:23:22.610221	315.2	31.1	-94.8	0.0
2025-01-19 10:23:24.853220	314.5	31.1	-94.8	0.0
2025-01-19 10:23:27.094984	313.7	31.2	-95.0	0.0
2025-01-19 10:23:29.334469	312.9	31.3	-94.6	0.0
2025-01-19 10:23:31.574954	312.2	31.4	-95.0	0.0
2025-01-19 10:23:33.816779	311.4	31.4	-95.0	0.0
2025-01-19 10:23:36.057118	310.6	31.5	-94.8	0.0
2025-01-19 10:23:38.297537	309.8	31.5	-94.7	0.0
2025-01-19 10:23:40.539508	309.0	31.6	-94.8	0.0
2025-01-19 10:23:42.781316	308.2	31.6	-94.6	0.0
2025-01-19 10:23:45.020835	307.4	31.6	-94.8	0.0
2025-01-19 10:23:47.264233	306.6	31.7	-94.8	0.0
2025-01-19 10:23:49.503988	305.8	31.7	-94.9	0.0
2025-01-19 10:23:51.746397	305.0	31.7	-94.6	0.0
2025-01-19 10:23:53.988580	304.2	31.7	-95.1	0.0
2025-01-19 10:23:56.232836	303.4	31.7	-94.9	0.0
2025-01-19 10:23:58.475567	302.7	31.7	-94.8	0.0
2025-01-19 10:24:00.716473	301.9	31.7	-94.9	0.0
2025-01-19 10:24:02.959418	301.1	31.6	-95.1	0.0
2025-01-19 10:24:05.203961	300.3	31.6	-94.8	0.0
2025-01-19 10:24:07.444996	299.5	31.6	-94.9	0.0
2025-01-19 10:24:09.684767	298.7	31.5	-95.0	0.0
2025-01-19 10:24:11.928003	297.9	31.5	-94.6	0.0
2025-01-19 10:24:14.170273	297.1	31.4	-94.8	0.0
2025-01-19 10:24:16.413638	296.3	31.4	-95.1	0.0
2025-01-19 10:24:18.655754	295.5	31.3	-94.8	0.0
2025-01-19 10:24:20.898813	294.8	31.3	-95.0	0.0
2025-01-19 10:24:23.140063	294.0	31.2	-95.0	0.0
2025-01-19 10:24:25.381180	293.2	31.1	-95.0	0.0
2025-01-19 10:24:27.624646	292.4	31.0	-95.2	0.0
2025-01-19 10:24:29.867089	291.7	30.9	-94.8	0.0
2025-01-19 10:24:32.109632	290.9	30.8	-94.8	0.0
2025-01-19 10:24:34.350567	290.2	30.7	-94.9	0.0
2025-01-19 10:24:36.593007	289.4	30.6	-94.9	0.0
2025-01-19 10:24:38.837257	288.7	30.5	-94.8	0.0
2025-01-19 10:24:41.077455	287.9	30.4	-94.9	0.0
2025-01-19 10:24:43.319055	287.2	30.3	-94.7	0.0
2025-01-19 10:24:45.560001	286.5	30.1	-94.9	0.0
2025-01-19 10:24:47.803389	285.7	30.0	-94.7	0.0
2025-01-19 10:24:50.045116	285.0	29.9	-94.9	0.0
2025-01-19 10:24:52.287607	284.3	29.7	-94.7	0.0
2025-01-19 10:24:54.533377	283.6	29.6	-94.9	0.0
2025-01-19 10:24:56.774685	282.9	29.4	-94.6	0.0
2025-01-19 10:24:59.017173	282.2	29.3	-95.0	0.0
2025-01-19 10:25:01.259934	281.5	29.1	-95.0	0.0
2025-01-19 10:25:03.503086	280.8	29.0	-94.9	0.0
2025-01-19 10:25:05.746159	280.2	28.8	-94.8	0.0
2025-01-19 10:25:07.986813	279.5	28.6	-95.0	0.0
2025-01-19 10:25:10.226999	278.9	28.5	-94.7	0.0
2025-01-19 10:25:12.469405	278.2	28.3	-95.1	0.0
2025-01-19 10:25:14.713091	277.6	28.1	-94.8	0.0
2025-01-19 10:25:16.956360	276.9	28.0	-94.7	0.0
2025-01-19 10:25:19.201819	276.3	27.8	-94.6	0.0
2025-01-19 10:25:21.442058	275.7	27.6	-94.5	0.0
2025-01-19 10:25:23.684267	275.0	27.4	-94.7	0.0
2025-01-19 10:25:25.926093	274.4	27.2	-94.6	0.0
2025-01-19 10:25:28.168218	273.8	27.0	-94.7	0.0
2025-01-19 10:25:30.408964	273.2	26.8	-94.7	0.0
2025-01-19 10:25:32.651634	272.7	26.6	-94.7	0.0
2025-01-19 10:25:34.893177	272.1	26.4	-94.8	0.0
2025-01-19 10:25:37.135908	271.5	26.2	-94.7	0.0
2025-01-19 10:25:39.377266	270.9	26.0	-94.6	0.0
2025-01-19 10:25:41.619984	270.4	25.8	-94.9	0.0
2025-01-19 10:25:43.861764	269.8	25.6	-94.4	0.0
2025-01-19 10:25:46.105082	269.3	25.4	-94.8	0.0
2025-01-19 10:25:48.344079	268.7	25.2	-95.1	0.0
2025-01-19 10:25:50.584490	268.2	25.0	-94.8	0.0
2025-01-19 10:25:52.829229	267.7	24.8	-95.0	0.0
2025-01-19 10:25:55.074778	267.2	24.6	-94.8	0.0
2025-01-19 10:25:57.321030	266.7	24.4	-94.8	0.0
2025-01-19 10:25:59.564439	266.2	24.2	-94.6	0.0
2025-01-19 10:26:01.805490	265.7	24.0	-94.8	0.0
2025-01-19 10:26:04.047646	265.2	23.7	-94.5	0.0
2025-01-19 10:26:06.290921	264.7	23.5	-94.7	0.0
2025-01-19 10:26:08.537338	264.2	23.3	-94.7	0.0
2025-01-19 10:26:10.780357	263.7	23.1	-94.6	0.0
2025-01-19 10:26:13.023725	263.3	22.9	-94.8	0.0
2025-01-19 10:26:15.268952	262.8	22.7	-94.5	0.0
2025-01-19 10:26:17.509073	262.4	22.5	-94.7	0.0
2025-01-19 10:26:19.750753	261.9	22.2	-94.9	0.0
2025-01-19 10:26:21.993582	261.5	22.0	-94.8	0.0
2025-01-19 10:26:24.238988	261.1	21.8	-94.7	0.0
2025-01-19 10:26:26.478165	260.6	21.6	-94.7	0.0
2025-01-19 10:26:28.719291	260.2	21.4	-94.9	0.0
2025-01-19 10:26:30.960221	259.8	21.2	-94.7	0.0
2025-01-19 10:26:33.203081	259.4	21.0	-95.2	0.0
2025-01-19 10:26:35.448968	259.0	20.7	-95.2	0.0
2025-01-19 10:26:37.690478	258.6	20.5	-94.9	0.0
2025-01-19 10:26:39.933098	258.2	20.3	-95.2	0.0
2025-01-19 10:26:42.175959	257.8	20.1	-94.9	0.0
2025-01-19 10:26:44.416020	257.4	19.9	-95.1	0.0
2025-01-19 10:26:46.660398	257.0	19.7	-94.8	0.0
2025-01-19 10:26:48.905007	256.7	19.5	-94.7	0.0
2025-01-19 10:26:51.148204	256.3	19.3	-94.8	0.0
2025-01-19 10:26:53.388069	256.0	19.0	-94.7	0.0
2025-01-19 10:26:55.627813	255.6	18.8	-94.5	0.0
2025-01-19 10:26:57.871121	255.2	18.6	-94.6	0.0
2025-01-19 10:27:00.110962	254.9	18.4	-94.6	0.0
2025-01-19 10:27:02.352096	254.6	18.2	-94.8	0.0
2025-01-19 10:27:04.593030	254.2	18.0	-94.8	0.0
2025-01-19 10:27:06.836345	253.9	17.8	-94.8	0.0
2025-01-19 10:27:09.076110	253.6	17.6	-94.5	0.0
2025-01-19 10:27:11.316675	253.2	17.4	-94.8	0.0
2025-01-19 10:27:13.557854	252.9	17.2	-94.5	0.0
2025-01-19 10:27:15.798559	252.6	17.0	-95.0	0.0
2025-01-19 10:27:18.039504	252.3	16.8	-94.8	0.0
2025-01-19 10:27:20.284891	252.0	16.6	-94.8	0.0
2025-01-19 10:27:22.529494	251.7	16.4	-94.9	0.0
2025-01-19 10:27:24.773099	251.4	16.2	-95.0	0.0
2025-01-19 10:27:27.012535	251.1	16.0	-94.8	0.0
2025-01-19 10:27:29.256250	250.8	15.8	-95.0	0.0
2025-01-19 10:27:31.498329	250.5	15.6	-95.0	0.0
2025-01-19 10:27:33.740191	250.2	15.4	-95.0	0.0
2025-01-19 10:27:35.983140	249.9	15.2	-95.1	0.0
2025-01-19 10:27:38.227540	249.7	15.0	-95.0	0.0
2025-01-19 10:27:40.470287	249.4	14.8	-95.1	0.0
2025-01-19 10:27:42.710374	249.1	14.6	-95.0	0.0
2025-01-19 10:27:44.952386	248.9	14.4	-94.8	0.0
2025-01-19 10:27:47.194863	248.6	14.2	-94.8	0.0
2025-01-19 10:27:49.437909	248.4	14.0	-94.5	0.0
2025-01-19 10:27:51.680368	248.1	13.8	-94.8	0.0
2025-01-19 10:27:53.919866	247.8	13.6	-94.5	0.0
2025-01-19 10:27:56.160856	247.6	13.5	-94.8	0.0
2025-01-19 10:27:58.402383	247.4	13.3	-94.8	0.0
2025-01-19 10:28:00.645217	247.1	13.1	-94.6	0.0
2025-01-19 10:28:02.888993	246.9	12.9	-95.2	0.0
2025-01-19 10:28:05.131758	246.6	12.7	-94.6	0.0
2025-01-19 10:28:07.372642	246.4	12.5	-94.7	0.0
2025-01-19 10:28:09.615254	246.2	12.4	-94.9	0.0
2025-01-19 10:28:11.857589	245.9	12.2	-94.5	0.0
2025-01-19 10:28:14.098764	245.7	12.0	-94.9	0.0
2025-01-19 10:28:16.341111	245.5	11.8	-94.8	0.0
2025-01-19 10:28:18.583291	245.3	11.6	-94.9	0.0
2025-01-19 10:28:20.825144	245.1	11.5	-95.1	0.0
2025-01-19 10:28:23.070102	244.9	11.3	-95.0	0.0
2025-01-19 10:28:25.313995	244.6	11.1	-95.3	0.0
2025-01-19 10:28:27.559222	244.4	10.9	-94.6	0.0
2025-01-19 10:28:29.802151	244.2	10.7	-95.0	0.0
2025-01-19 10:28:32.043688	244.0	10.6	-95.0	0.0
2025-01-19 10:28:34.288570	243.8	10.4	-94.9	0.0
2025-01-19 10:28:36.534409	243.6	10.2	-95.1	0.0
2025-01-19 10:28:38.776401	243.4	10.1	-94.9	0.0
#Closed at: 2025-01-19 10:19:02.777248