passes_logs/2025/01/19/planumMaritime01/planumMaritime01__20250119_111250_METEOR-M2_4_rec.log

#Pass ID: 20250119_111250_METEOR-M2 4
#Satellite: METEOR-M2 4
#Configuration: METEOR-M2 4
#Start time: 2025-01-19 11:12:55.729849

#LorettStation: 1.0.0 05.05.2024
#Station: planumMaritime01
#Location: 37.49445 lon 55.92918 lat
#TLE: 1 59051U 24039A   25018.12322251  .00000104  00000+0  66034-4 0  9999
#TLE: 2 59051  98.6299 341.0677 0006317 214.7140 145.3626 14.22326011 46042

#Time	Az	El	Level	SNR
2025-01-19 11:12:57.890555	153.5	10.2	-94.3	0.0
2025-01-19 11:13:00.134411	153.4	10.4	-94.3	0.0
2025-01-19 11:13:02.377073	153.4	10.6	-94.8	0.0
2025-01-19 11:13:04.618271	153.4	10.8	-94.4	0.0
2025-01-19 11:13:06.861770	153.3	11.0	-94.3	0.0
2025-01-19 11:13:09.105250	153.3	11.2	-94.6	0.0
2025-01-19 11:13:11.348561	153.3	11.4	-94.4	0.0
2025-01-19 11:13:13.589808	153.2	11.6	-94.4	0.0
2025-01-19 11:13:15.831503	153.2	11.8	-94.7	0.0
2025-01-19 11:13:18.075030	153.2	12.0	-94.5	0.0
2025-01-19 11:13:20.319585	153.1	12.2	-94.3	0.0
2025-01-19 11:13:22.561796	153.1	12.5	-94.7	0.0
2025-01-19 11:13:24.801333	153.1	12.7	-94.5	0.0
2025-01-19 11:13:27.042466	153.0	12.9	-94.6	0.0
2025-01-19 11:13:29.286769	153.0	13.1	-94.7	0.0
2025-01-19 11:13:31.528222	152.9	13.3	-94.7	0.0
2025-01-19 11:13:33.772399	152.9	13.6	-94.6	0.0
2025-01-19 11:13:36.016574	152.8	13.8	-94.6	0.0
2025-01-19 11:13:38.256989	152.8	14.0	-94.5	0.0
2025-01-19 11:13:40.501297	152.8	14.3	-94.5	0.0
2025-01-19 11:13:42.745209	152.7	14.5	-94.5	0.0
2025-01-19 11:13:44.987478	152.7	14.7	-94.7	0.0
2025-01-19 11:13:47.229031	152.6	15.0	-94.6	0.0
2025-01-19 11:13:49.470456	152.6	15.2	-94.7	0.0
2025-01-19 11:13:51.714443	152.5	15.4	-94.8	0.0
2025-01-19 11:13:53.955014	152.5	15.7	-94.6	0.0
2025-01-19 11:13:56.200441	152.4	15.9	-94.4	0.0
2025-01-19 11:13:58.442387	152.4	16.2	-94.7	0.0
2025-01-19 11:14:00.684435	152.3	16.4	-94.6	0.0
2025-01-19 11:14:02.927863	152.3	16.7	-94.4	0.0
2025-01-19 11:14:05.172195	152.2	17.0	-94.6	0.0
2025-01-19 11:14:07.412849	152.2	17.2	-94.4	0.0
2025-01-19 11:14:09.655823	152.1	17.5	-94.5	0.0
2025-01-19 11:14:11.900578	152.1	17.8	-94.5	0.0
2025-01-19 11:14:14.144728	152.0	18.0	-94.8	0.0
2025-01-19 11:14:16.385017	151.9	18.3	-94.5	0.0
2025-01-19 11:14:18.628120	151.9	18.6	-94.7	0.0
2025-01-19 11:14:20.869736	151.8	18.9	-94.7	0.0
2025-01-19 11:14:23.112394	151.8	19.1	-95.0	0.0
2025-01-19 11:14:25.353402	151.7	19.4	-94.9	0.0
2025-01-19 11:14:27.595236	151.6	19.7	-94.5	0.0
2025-01-19 11:14:29.837484	151.6	20.0	-94.8	0.0
2025-01-19 11:14:32.079232	151.5	20.3	-95.0	0.0
2025-01-19 11:14:34.319519	151.4	20.6	-94.8	0.0
2025-01-19 11:14:36.560400	151.4	20.9	-94.7	0.0
2025-01-19 11:14:38.803901	151.3	21.2	-95.1	0.0
2025-01-19 11:14:41.045769	151.2	21.5	-94.9	0.0
2025-01-19 11:14:43.288375	151.1	21.8	-94.6	0.0
2025-01-19 11:14:45.529304	151.1	22.1	-94.9	0.0
2025-01-19 11:14:47.770896	151.0	22.5	-94.6	0.0
2025-01-19 11:14:50.014790	150.9	22.8	-94.7	0.0
2025-01-19 11:14:52.258427	150.8	23.1	-94.5	0.0
2025-01-19 11:14:54.502603	150.7	23.5	-94.6	0.0
2025-01-19 11:14:56.743909	150.6	23.8	-94.7	0.0
2025-01-19 11:14:58.984100	150.6	24.1	-94.7	0.0
2025-01-19 11:15:01.227140	150.5	24.5	-94.5	0.0
2025-01-19 11:15:03.467377	150.4	24.8	-94.6	0.0
2025-01-19 11:15:05.712622	150.3	25.2	-94.7	0.0
2025-01-19 11:15:07.955941	150.2	25.6	-94.5	0.0
2025-01-19 11:15:10.199418	150.1	25.9	-94.9	0.0
2025-01-19 11:15:12.443198	150.0	26.3	-94.7	0.0
2025-01-19 11:15:14.684492	149.9	26.7	-94.5	0.0
2025-01-19 11:15:16.927037	149.8	27.0	-94.8	0.0
2025-01-19 11:15:19.167312	149.6	27.4	-94.8	0.0
2025-01-19 11:15:21.410124	149.5	27.8	-94.7	0.0
2025-01-19 11:15:23.654380	149.4	28.2	-94.7	0.0
2025-01-19 11:15:25.896813	149.3	28.6	-94.7	0.0
2025-01-19 11:15:28.140488	149.2	29.0	-94.9	0.0
2025-01-19 11:15:30.381997	149.0	29.5	-94.9	0.0
2025-01-19 11:15:32.623556	148.9	29.9	-94.9	0.0
2025-01-19 11:15:34.866054	148.8	30.3	-94.9	0.0
2025-01-19 11:15:37.107878	148.6	30.7	-94.7	0.0
2025-01-19 11:15:39.352363	148.5	31.2	-94.8	0.0
2025-01-19 11:15:41.592211	148.4	31.6	-94.6	0.0
2025-01-19 11:15:43.830428	148.2	32.1	-94.8	0.0
2025-01-19 11:15:46.074150	148.1	32.5	-94.7	0.0
2025-01-19 11:15:48.315977	147.9	33.0	-94.5	0.0
2025-01-19 11:15:50.557292	147.7	33.5	-94.9	0.0
2025-01-19 11:15:52.801579	147.6	34.0	-94.6	0.0
2025-01-19 11:15:55.043799	147.4	34.4	-94.8	0.0
2025-01-19 11:15:57.285254	147.2	34.9	-94.6	0.0
2025-01-19 11:15:59.523554	147.0	35.4	-94.7	0.0
2025-01-19 11:16:01.763226	146.8	35.9	-94.8	0.0
2025-01-19 11:16:04.010241	146.6	36.5	-94.7	0.0
2025-01-19 11:16:06.254149	146.4	37.0	-94.5	0.0
2025-01-19 11:16:08.496776	146.2	37.5	-94.7	0.0
2025-01-19 11:16:10.739282	146.0	38.1	-94.6	0.0
2025-01-19 11:16:12.982113	145.8	38.6	-94.8	0.0
2025-01-19 11:16:15.227901	145.6	39.2	-94.7	0.0
2025-01-19 11:16:17.468590	145.3	39.8	-95.0	0.0
2025-01-19 11:16:19.709265	145.1	40.3	-95.1	0.0
2025-01-19 11:16:21.951896	144.8	40.9	-94.7	0.0
2025-01-19 11:16:24.190932	144.5	41.5	-95.2	0.0
2025-01-19 11:16:26.433472	144.3	42.1	-94.9	0.0
2025-01-19 11:16:28.676446	144.0	42.7	-95.0	0.0
2025-01-19 11:16:30.919541	143.7	43.4	-95.0	0.0
2025-01-19 11:16:33.161347	143.3	44.0	-94.6	0.0
2025-01-19 11:16:35.403583	143.0	44.6	-94.7	0.0
2025-01-19 11:16:37.645888	142.7	45.3	-94.8	0.0
2025-01-19 11:16:39.887859	142.3	45.9	-94.9	0.0
2025-01-19 11:16:42.130330	141.9	46.6	-94.7	0.0
2025-01-19 11:16:44.373860	141.6	47.3	-94.9	0.0
2025-01-19 11:16:46.614349	141.1	48.0	-94.8	0.0
2025-01-19 11:16:48.857448	140.7	48.7	-94.6	0.0
2025-01-19 11:16:51.097935	140.3	49.4	-94.8	0.0
2025-01-19 11:16:53.341290	139.8	50.1	-94.8	0.0
2025-01-19 11:16:55.583584	139.3	50.8	-94.8	0.0
2025-01-19 11:16:57.825918	138.8	51.6	-95.0	0.0
2025-01-19 11:17:00.066757	138.3	52.3	-94.6	0.0
2025-01-19 11:17:02.309417	137.7	53.1	-95.0	0.0
2025-01-19 11:17:04.551817	137.1	53.8	-94.9	0.0
2025-01-19 11:17:06.793506	136.4	54.6	-95.0	0.0
2025-01-19 11:17:09.036049	135.8	55.4	-94.9	0.0
2025-01-19 11:17:11.278458	135.1	56.2	-95.1	0.0
2025-01-19 11:17:13.519461	134.3	56.9	-95.0	0.0
2025-01-19 11:17:15.762128	133.5	57.7	-95.0	0.0
2025-01-19 11:17:18.006083	132.7	58.5	-94.8	0.0
2025-01-19 11:17:20.247176	131.8	59.4	-94.4	0.0
2025-01-19 11:17:22.491364	130.8	60.2	-94.5	0.0
2025-01-19 11:17:24.736250	129.8	61.0	-94.7	0.0
2025-01-19 11:17:26.980462	128.7	61.8	-94.8	0.0
2025-01-19 11:17:29.220628	127.5	62.6	-94.5	0.0
2025-01-19 11:17:31.461411	126.3	63.4	-94.5	0.0
2025-01-19 11:17:33.702394	125.0	64.2	-94.6	0.0
2025-01-19 11:17:35.947191	123.5	65.0	-94.6	0.0
2025-01-19 11:17:38.189294	122.0	65.8	-94.9	0.0
2025-01-19 11:17:40.432780	120.3	66.6	-94.7	0.0
2025-01-19 11:17:42.674030	118.6	67.4	-94.7	0.0
2025-01-19 11:17:44.915448	116.6	68.2	-94.7	0.0
2025-01-19 11:17:47.157316	114.6	68.9	-94.8	0.0
2025-01-19 11:17:49.401366	112.3	69.6	-94.9	0.0
2025-01-19 11:17:51.643133	109.9	70.3	-94.8	0.0
2025-01-19 11:17:53.889005	107.3	71.0	-94.7	0.0
2025-01-19 11:17:56.130221	104.5	71.6	-94.8	0.0
2025-01-19 11:17:58.371589	101.6	72.2	-94.8	0.0
2025-01-19 11:18:00.613792	98.3	72.8	-94.6	0.0
2025-01-19 11:18:02.856737	94.9	73.3	-94.6	0.0
2025-01-19 11:18:05.098384	91.3	73.7	-94.8	0.0
2025-01-19 11:18:07.339044	87.5	74.1	-94.9	0.0
2025-01-19 11:18:09.582185	83.5	74.4	-94.9	0.0
2025-01-19 11:18:11.823819	79.4	74.6	-94.9	0.0
2025-01-19 11:18:14.064351	75.2	74.8	-94.6	0.0
2025-01-19 11:18:16.304813	70.9	74.8	-94.7	0.0
2025-01-19 11:18:18.546200	66.6	74.8	-94.6	0.0
2025-01-19 11:18:20.790799	62.3	74.7	-94.8	0.0
2025-01-19 11:18:23.031090	58.1	74.5	-94.7	0.0
2025-01-19 11:18:25.274424	54.0	74.3	-94.9	0.0
2025-01-19 11:18:27.513273	50.1	73.9	-94.8	0.0
2025-01-19 11:18:29.756817	46.4	73.5	-94.9	0.0
2025-01-19 11:18:31.995272	42.9	73.1	-94.8	0.0
2025-01-19 11:18:34.237499	39.6	72.6	-94.9	0.0
2025-01-19 11:18:36.478987	36.4	72.0	-94.8	0.0
2025-01-19 11:18:38.720224	33.5	71.4	-94.7	0.0
2025-01-19 11:18:40.963104	30.8	70.7	-94.8	0.0
2025-01-19 11:18:43.203402	28.3	70.1	-94.7	0.0
2025-01-19 11:18:45.445301	26.0	69.4	-94.8	0.0
2025-01-19 11:18:47.686557	23.8	68.6	-94.9	0.0
2025-01-19 11:18:49.927933	21.8	67.9	-94.9	0.0
2025-01-19 11:18:52.168603	20.0	67.1	-94.9	0.0
2025-01-19 11:18:54.407864	18.2	66.3	-95.0	0.0
2025-01-19 11:18:56.650291	16.6	65.5	-95.0	0.0
2025-01-19 11:18:58.892621	15.1	64.7	-94.8	0.0
2025-01-19 11:19:01.135213	13.7	63.9	-95.1	0.0
2025-01-19 11:19:03.378619	12.4	63.1	-94.9	0.0
2025-01-19 11:19:05.622741	11.2	62.3	-94.8	0.0
2025-01-19 11:19:07.864359	10.1	61.5	-94.8	0.0
2025-01-19 11:19:10.107338	9.0	60.7	-95.0	0.0
2025-01-19 11:19:12.349793	8.1	59.9	-94.7	0.0
2025-01-19 11:19:14.589217	7.1	59.1	-94.9	0.0
2025-01-19 11:19:16.829293	6.3	58.2	-94.6	0.0
2025-01-19 11:19:19.070203	5.4	57.5	-94.8	0.0
2025-01-19 11:19:21.313564	4.7	56.7	-94.9	0.0
2025-01-19 11:19:23.555379	3.9	55.9	-94.4	0.0
2025-01-19 11:19:25.797407	3.2	55.1	-94.6	0.0
2025-01-19 11:19:28.038417	2.6	54.3	-94.5	0.0
2025-01-19 11:19:30.282482	2.0	53.6	-94.5	0.0
2025-01-19 11:19:32.524121	1.4	52.8	-94.7	0.0
2025-01-19 11:19:34.764775	0.8	52.1	-94.4	0.0
2025-01-19 11:19:37.006546	0.3	51.3	-94.6	0.0
2025-01-19 11:19:39.247578	359.8	50.6	-94.5	0.0
2025-01-19 11:19:41.491205	359.3	49.9	-94.5	0.0
2025-01-19 11:19:43.733829	358.8	49.2	-94.6	0.0
2025-01-19 11:19:45.976867	358.4	48.4	-94.8	0.0
2025-01-19 11:19:48.219753	358.0	47.8	-94.7	0.0
2025-01-19 11:19:50.460159	357.6	47.1	-94.6	0.0
2025-01-19 11:19:52.699425	357.2	46.4	-94.9	0.0
2025-01-19 11:19:54.942670	356.8	45.7	-94.8	0.0
2025-01-19 11:19:57.184282	356.5	45.1	-94.7	0.0
2025-01-19 11:19:59.426139	356.1	44.4	-94.8	0.0
2025-01-19 11:20:01.670855	355.8	43.8	-94.8	0.0
2025-01-19 11:20:03.915371	355.5	43.2	-94.8	0.0
2025-01-19 11:20:06.153796	355.2	42.6	-95.0	0.0
2025-01-19 11:20:08.393574	354.9	42.0	-95.0	0.0
2025-01-19 11:20:10.633520	354.6	41.4	-94.9	0.0
2025-01-19 11:20:12.875687	354.4	40.8	-94.8	0.0
2025-01-19 11:20:15.115701	354.1	40.2	-95.0	0.0
2025-01-19 11:20:17.356707	353.9	39.6	-94.9	0.0
2025-01-19 11:20:19.598293	353.6	39.0	-95.1	0.0
2025-01-19 11:20:21.840503	353.4	38.5	-94.7	0.0
2025-01-19 11:20:24.081731	353.2	37.9	-95.0	0.0
2025-01-19 11:20:26.322598	353.0	37.4	-94.8	0.0
2025-01-19 11:20:28.565090	352.8	36.9	-95.0	0.0
2025-01-19 11:20:30.807132	352.6	36.4	-95.1	0.0
2025-01-19 11:20:33.051113	352.4	35.8	-95.1	0.0
2025-01-19 11:20:35.292511	352.2	35.3	-94.6	0.0
2025-01-19 11:20:37.534130	352.0	34.8	-94.6	0.0
2025-01-19 11:20:39.774648	351.8	34.3	-94.7	0.0
2025-01-19 11:20:42.016252	351.7	33.9	-94.8	0.0
2025-01-19 11:20:44.256200	351.5	33.4	-94.9	0.0
2025-01-19 11:20:46.497277	351.3	32.9	-94.8	0.0
2025-01-19 11:20:48.737661	351.2	32.5	-94.9	0.0
2025-01-19 11:20:50.980335	351.0	32.0	-94.8	0.0
2025-01-19 11:20:53.223580	350.9	31.6	-94.5	0.0
2025-01-19 11:20:55.464047	350.7	31.1	-94.9	0.0
2025-01-19 11:20:57.707983	350.6	30.7	-94.5	0.0
2025-01-19 11:20:59.944818	350.5	30.2	-94.8	0.0
2025-01-19 11:21:02.187107	350.3	29.8	-94.8	0.0
2025-01-19 11:21:04.428466	350.2	29.4	-94.7	0.0
2025-01-19 11:21:06.668354	350.1	29.0	-94.7	0.0
2025-01-19 11:21:08.910768	350.0	28.6	-94.7	0.0
2025-01-19 11:21:11.152683	349.9	28.2	-94.7	0.0
2025-01-19 11:21:13.395238	349.7	27.8	-94.9	0.0
2025-01-19 11:21:15.635620	349.6	27.4	-94.8	0.0
2025-01-19 11:21:17.873816	349.5	27.0	-94.7	0.0
2025-01-19 11:21:20.117747	349.4	26.6	-94.7	0.0
2025-01-19 11:21:22.358458	349.3	26.3	-94.9	0.0
2025-01-19 11:21:24.600673	349.2	25.9	-94.8	0.0
2025-01-19 11:21:26.841625	349.1	25.5	-94.8	0.0
2025-01-19 11:21:29.082520	349.0	25.2	-95.0	0.0
2025-01-19 11:21:31.326437	348.9	24.8	-94.7	0.0
2025-01-19 11:21:33.568869	348.8	24.5	-94.8	0.0
2025-01-19 11:21:35.812357	348.8	24.1	-95.0	0.0
2025-01-19 11:21:38.054586	348.7	23.8	-94.8	0.0
2025-01-19 11:21:40.297205	348.6	23.5	-94.9	0.0
2025-01-19 11:21:42.540149	348.5	23.1	-94.9	0.0
2025-01-19 11:21:44.782582	348.4	22.8	-94.9	0.0
2025-01-19 11:21:47.029826	348.3	22.5	-94.9	0.0
2025-01-19 11:21:49.274917	348.3	22.2	-94.5	0.0
2025-01-19 11:21:51.515993	348.2	21.8	-94.9	0.0
2025-01-19 11:21:53.759319	348.1	21.5	-94.5	0.0
2025-01-19 11:21:56.005070	348.0	21.2	-94.9	0.0
2025-01-19 11:21:58.248314	348.0	20.9	-94.9	0.0
2025-01-19 11:22:00.490233	347.9	20.6	-94.8	0.0
2025-01-19 11:22:02.734004	347.8	20.3	-95.0	0.0
2025-01-19 11:22:04.976581	347.8	20.0	-94.8	0.0
2025-01-19 11:22:07.218858	347.7	19.7	-95.0	0.0
2025-01-19 11:22:09.460193	347.6	19.4	-94.8	0.0
2025-01-19 11:22:11.701203	347.6	19.2	-94.8	0.0
2025-01-19 11:22:13.944384	347.5	18.9	-95.1	0.0
2025-01-19 11:22:16.186480	347.5	18.6	-94.8	0.0
2025-01-19 11:22:18.429708	347.4	18.3	-94.8	0.0
2025-01-19 11:22:20.671277	347.3	18.1	-94.9	0.0
2025-01-19 11:22:22.914444	347.3	17.8	-94.7	0.0
2025-01-19 11:22:25.157331	347.2	17.5	-94.8	0.0
2025-01-19 11:22:27.399261	347.2	17.3	-94.6	0.0
2025-01-19 11:22:29.640701	347.1	17.0	-94.8	0.0
2025-01-19 11:22:31.883342	347.1	16.7	-94.8	0.0
2025-01-19 11:22:34.122789	347.0	16.5	-94.8	0.0
2025-01-19 11:22:36.365336	347.0	16.2	-94.8	0.0
2025-01-19 11:22:38.605205	346.9	16.0	-94.8	0.0
2025-01-19 11:22:40.844928	346.9	15.7	-94.9	0.0
2025-01-19 11:22:43.085656	346.8	15.5	-94.8	0.0
2025-01-19 11:22:45.326947	346.8	15.3	-94.8	0.0
2025-01-19 11:22:47.568598	346.7	15.0	-94.7	0.0
2025-01-19 11:22:49.813209	346.7	14.8	-94.6	0.0
2025-01-19 11:22:52.055900	346.7	14.6	-95.0	0.0
2025-01-19 11:22:54.298952	346.6	14.3	-94.7	0.0
2025-01-19 11:22:56.541242	346.6	14.1	-94.8	0.0
2025-01-19 11:22:58.786015	346.5	13.9	-94.7	0.0
2025-01-19 11:23:01.026103	346.5	13.6	-94.8	0.0
2025-01-19 11:23:03.269312	346.5	13.4	-94.6	0.0
2025-01-19 11:23:05.512293	346.4	13.2	-94.6	0.0
2025-01-19 11:23:07.753219	346.4	13.0	-94.4	0.0
2025-01-19 11:23:09.993839	346.3	12.7	-95.0	0.0
2025-01-19 11:23:12.235663	346.3	12.5	-94.6	0.0
2025-01-19 11:23:14.477343	346.3	12.3	-94.7	0.0
2025-01-19 11:23:16.719553	346.2	12.1	-94.6	0.0
2025-01-19 11:23:18.963293	346.2	11.9	-94.7	0.0
2025-01-19 11:23:21.206724	346.2	11.7	-94.9	0.0
2025-01-19 11:23:23.449224	346.1	11.5	-95.0	0.0
2025-01-19 11:23:25.694461	346.1	11.3	-94.7	0.0
2025-01-19 11:23:27.937217	346.1	11.1	-94.7	0.0
2025-01-19 11:23:30.180607	346.0	10.9	-94.7	0.0
2025-01-19 11:23:32.422423	346.0	10.7	-95.0	0.0
2025-01-19 11:23:34.664380	346.0	10.5	-94.8	0.0
2025-01-19 11:23:36.906577	345.9	10.3	-94.5	0.0
2025-01-19 11:23:39.146420	345.9	10.1	-94.6	0.0
#Closed at: 2025-01-19 11:12:50.732658