passes_logs/2025/01/19/planumMaritime01/planumMaritime01__20250119_180657_NOAA_19_rec.log

#Pass ID: 20250119_180657_NOAA 19
#Satellite: NOAA 19
#Configuration: NOAA 19
#Start time: 2025-01-19 18:07:02.949070

#LorettStation: 1.0.0 05.05.2024
#Station: planumMaritime01
#Location: 37.49445 lon 55.92918 lat
#TLE: 1 33591U 09005A   25019.18116543  .00000338  00000+0  20449-3 0  9996
#TLE: 2 33591  99.0189  82.9757 0014332  46.3357 313.9000 14.13262914822133

#Time	Az	El	Level	SNR
2025-01-19 18:07:05.106491	160.5	10.2	-94.7	0.0
2025-01-19 18:07:07.348778	160.5	10.4	-94.4	0.0
2025-01-19 18:07:09.590198	160.5	10.6	-94.7	0.0
2025-01-19 18:07:11.834549	160.5	10.8	-94.5	0.0
2025-01-19 18:07:14.075221	160.5	11.0	-94.8	0.0
2025-01-19 18:07:16.314709	160.5	11.2	-94.6	0.0
2025-01-19 18:07:18.561090	160.5	11.4	-94.6	0.0
2025-01-19 18:07:20.803448	160.5	11.6	-94.5	0.0
2025-01-19 18:07:23.047253	160.5	11.8	-94.1	0.0
2025-01-19 18:07:25.292199	160.6	12.0	-94.3	0.0
2025-01-19 18:07:27.533494	160.6	12.2	-94.3	0.0
2025-01-19 18:07:29.775359	160.6	12.5	-94.3	0.0
2025-01-19 18:07:32.017148	160.6	12.7	-94.5	0.0
2025-01-19 18:07:34.262203	160.6	12.9	-94.7	0.0
2025-01-19 18:07:36.499788	160.6	13.1	-94.6	0.0
2025-01-19 18:07:38.739344	160.6	13.3	-94.6	0.0
2025-01-19 18:07:40.981854	160.6	13.6	-94.5	0.0
2025-01-19 18:07:43.226249	160.6	13.8	-94.7	0.0
2025-01-19 18:07:45.467382	160.6	14.0	-94.4	0.0
2025-01-19 18:07:47.710312	160.6	14.2	-94.7	0.0
2025-01-19 18:07:49.953472	160.6	14.5	-94.6	0.0
2025-01-19 18:07:52.196649	160.6	14.7	-94.9	0.0
2025-01-19 18:07:54.437756	160.6	14.9	-94.9	0.0
2025-01-19 18:07:56.677114	160.6	15.2	-94.9	0.0
2025-01-19 18:07:58.919303	160.6	15.4	-94.9	0.0
2025-01-19 18:08:01.159856	160.7	15.7	-94.7	0.0
2025-01-19 18:08:03.402271	160.7	15.9	-94.9	0.0
2025-01-19 18:08:05.645338	160.7	16.2	-95.0	0.0
2025-01-19 18:08:07.885810	160.7	16.4	-94.8	0.0
2025-01-19 18:08:10.128652	160.7	16.7	-94.7	0.0
2025-01-19 18:08:12.372348	160.7	16.9	-94.8	0.0
2025-01-19 18:08:14.615077	160.7	17.2	-94.7	0.0
2025-01-19 18:08:16.858141	160.7	17.5	-94.8	0.0
2025-01-19 18:08:19.098233	160.7	17.7	-94.5	0.0
2025-01-19 18:08:21.341284	160.7	18.0	-94.5	0.0
2025-01-19 18:08:23.582689	160.7	18.3	-94.6	0.0
2025-01-19 18:08:25.823097	160.7	18.5	-94.6	0.0
2025-01-19 18:08:28.066348	160.7	18.8	-94.6	0.0
2025-01-19 18:08:30.308163	160.7	19.1	-94.4	0.0
2025-01-19 18:08:32.550359	160.7	19.4	-94.5	0.0
2025-01-19 18:08:34.795306	160.7	19.7	-94.7	0.0
2025-01-19 18:08:37.034660	160.7	20.0	-94.3	0.0
2025-01-19 18:08:39.273825	160.8	20.3	-94.6	0.0
2025-01-19 18:08:41.513591	160.8	20.5	-94.3	0.0
2025-01-19 18:08:43.757335	160.8	20.9	-94.3	0.0
2025-01-19 18:08:45.997880	160.8	21.2	-94.7	0.0
2025-01-19 18:08:48.240487	160.8	21.5	-94.6	0.0
2025-01-19 18:08:50.481945	160.8	21.8	-94.7	0.0
2025-01-19 18:08:52.727399	160.8	22.1	-95.0	0.0
2025-01-19 18:08:54.969865	160.8	22.4	-94.8	0.0
2025-01-19 18:08:57.213236	160.8	22.7	-94.8	0.0
2025-01-19 18:08:59.456719	160.8	23.1	-95.0	0.0
2025-01-19 18:09:01.699419	160.8	23.4	-94.6	0.0
2025-01-19 18:09:03.942476	160.8	23.7	-94.6	0.0
2025-01-19 18:09:06.188028	160.8	24.1	-94.6	0.0
2025-01-19 18:09:08.432302	160.8	24.4	-94.7	0.0
2025-01-19 18:09:10.671387	160.8	24.8	-94.6	0.0
2025-01-19 18:09:12.912760	160.8	25.1	-94.7	0.0
2025-01-19 18:09:15.152227	160.8	25.5	-94.7	0.0
2025-01-19 18:09:17.396662	160.8	25.9	-94.6	0.0
2025-01-19 18:09:19.641168	160.9	26.2	-94.7	0.0
2025-01-19 18:09:21.883349	160.9	26.6	-94.7	0.0
2025-01-19 18:09:24.125409	160.9	27.0	-94.7	0.0
2025-01-19 18:09:26.368720	160.9	27.4	-94.8	0.0
2025-01-19 18:09:28.610926	160.9	27.8	-94.8	0.0
2025-01-19 18:09:30.850278	160.9	28.2	-94.6	0.0
2025-01-19 18:09:33.091211	160.9	28.6	-94.8	0.0
2025-01-19 18:09:35.333371	160.9	29.0	-94.9	0.0
2025-01-19 18:09:37.573900	160.9	29.4	-94.7	0.0
2025-01-19 18:09:39.816756	160.9	29.8	-94.9	0.0
2025-01-19 18:09:42.060530	160.9	30.2	-94.7	0.0
2025-01-19 18:09:44.302996	160.9	30.7	-94.8	0.0
2025-01-19 18:09:46.546467	160.9	31.1	-94.7	0.0
2025-01-19 18:09:48.787540	160.9	31.5	-94.7	0.0
2025-01-19 18:09:51.029586	160.9	32.0	-94.6	0.0
2025-01-19 18:09:53.272366	160.9	32.5	-94.9	0.0
2025-01-19 18:09:55.517308	160.9	32.9	-94.7	0.0
2025-01-19 18:09:57.758684	160.9	33.4	-94.7	0.0
2025-01-19 18:10:00.001632	160.9	33.9	-94.8	0.0
2025-01-19 18:10:02.241653	161.0	34.4	-94.8	0.0
2025-01-19 18:10:04.484697	161.0	34.9	-94.8	0.0
2025-01-19 18:10:06.729804	161.0	35.4	-94.8	0.0
2025-01-19 18:10:08.975218	161.0	35.9	-94.4	0.0
2025-01-19 18:10:11.219499	161.0	36.4	-94.6	0.0
2025-01-19 18:10:13.460592	161.0	36.9	-94.7	0.0
2025-01-19 18:10:15.705912	161.0	37.5	-94.8	0.0
2025-01-19 18:10:17.945266	161.0	38.0	-94.9	0.0
2025-01-19 18:10:20.187062	161.0	38.6	-94.7	0.0
2025-01-19 18:10:22.428441	161.0	39.1	-94.9	0.0
2025-01-19 18:10:24.666554	161.0	39.7	-94.9	0.0
2025-01-19 18:10:26.906749	161.0	40.3	-94.8	0.0
2025-01-19 18:10:29.149616	161.0	40.9	-94.8	0.0
2025-01-19 18:10:31.393278	161.0	41.5	-94.6	0.0
2025-01-19 18:10:33.632543	161.0	42.1	-94.7	0.0
2025-01-19 18:10:35.875139	161.0	42.7	-94.7	0.0
2025-01-19 18:10:38.117074	161.0	43.4	-94.9	0.0
2025-01-19 18:10:40.358175	161.0	44.0	-94.9	0.0
2025-01-19 18:10:42.599627	161.0	44.7	-94.8	0.0
2025-01-19 18:10:44.841348	161.0	45.4	-95.0	0.0
2025-01-19 18:10:47.081346	161.0	46.0	-94.9	0.0
2025-01-19 18:10:49.327637	161.0	46.7	-94.7	0.0
2025-01-19 18:10:51.570151	161.0	47.4	-94.9	0.0
2025-01-19 18:10:53.811841	161.0	48.1	-94.9	0.0
2025-01-19 18:10:56.055411	161.0	48.9	-94.8	0.0
2025-01-19 18:10:58.300021	161.0	49.6	-94.4	0.0
2025-01-19 18:11:00.541432	161.0	50.4	-94.7	0.0
2025-01-19 18:11:02.783804	161.0	51.1	-94.7	0.0
2025-01-19 18:11:05.025197	161.0	51.9	-94.6	0.0
2025-01-19 18:11:07.267106	161.0	52.7	-94.5	0.0
2025-01-19 18:11:09.510386	161.0	53.5	-94.5	0.0
2025-01-19 18:11:11.750219	161.0	54.3	-94.9	0.0
2025-01-19 18:11:13.998782	161.0	55.1	-94.6	0.0
2025-01-19 18:11:16.235481	161.0	56.0	-94.6	0.0
2025-01-19 18:11:18.478604	161.0	56.8	-94.7	0.0
2025-01-19 18:11:20.721804	161.0	57.7	-94.4	0.0
2025-01-19 18:11:22.963138	161.0	58.6	-94.7	0.0
2025-01-19 18:11:25.204698	161.0	59.5	-94.5	0.0
2025-01-19 18:11:27.445781	161.0	60.4	-94.6	0.0
2025-01-19 18:11:29.683517	161.0	61.3	-94.5	0.0
2025-01-19 18:11:31.926121	161.0	62.2	-94.6	0.0
2025-01-19 18:11:34.171903	161.0	63.1	-94.7	0.0
2025-01-19 18:11:36.415428	161.0	64.1	-95.1	0.0
2025-01-19 18:11:38.658425	161.0	65.1	-95.0	0.0
2025-01-19 18:11:40.901464	160.9	66.1	-95.0	0.0
2025-01-19 18:11:43.144130	160.9	67.0	-95.2	0.0
2025-01-19 18:11:45.388162	160.9	68.1	-94.9	0.0
2025-01-19 18:11:47.630804	160.9	69.1	-94.8	0.0
2025-01-19 18:11:49.874228	160.9	70.1	-94.9	0.0
2025-01-19 18:11:52.117575	160.8	71.1	-94.9	0.0
2025-01-19 18:11:54.360375	160.8	72.2	-94.8	0.0
2025-01-19 18:11:56.603539	160.8	73.2	-94.7	0.0
2025-01-19 18:11:58.846075	160.7	74.3	-94.9	0.0
2025-01-19 18:12:01.088672	160.7	75.4	-94.9	0.0
2025-01-19 18:12:03.331134	160.6	76.5	-95.0	0.0
2025-01-19 18:12:05.573107	160.5	77.6	-94.9	0.0
2025-01-19 18:12:07.812973	160.4	78.7	-94.5	0.0
2025-01-19 18:12:10.053548	160.3	79.8	-94.9	0.0
2025-01-19 18:12:12.297157	160.2	80.9	-95.0	0.0
2025-01-19 18:12:14.538769	160.0	82.0	-94.8	0.0
2025-01-19 18:12:16.779719	159.7	83.1	-95.0	0.0
2025-01-19 18:12:19.022770	159.4	84.3	-94.8	0.0
2025-01-19 18:12:21.263591	158.9	85.4	-95.1	0.0
2025-01-19 18:12:23.507054	158.0	86.5	-94.9	0.0
2025-01-19 18:12:25.749406	156.2	87.7	-94.8	0.0
2025-01-19 18:12:27.993269	151.0	88.8	-94.8	0.0
2025-01-19 18:12:30.234371	79.7	89.8	-95.0	0.0
2025-01-19 18:12:32.475551	352.8	88.9	-95.0	0.0
2025-01-19 18:12:34.718880	347.2	87.7	-94.7	0.0
2025-01-19 18:12:36.962816	345.3	86.6	-94.8	0.0
2025-01-19 18:12:39.204092	344.4	85.5	-94.5	0.0
2025-01-19 18:12:41.446078	343.9	84.3	-94.8	0.0
2025-01-19 18:12:43.684362	343.5	83.2	-94.7	0.0
2025-01-19 18:12:45.927266	343.2	82.1	-94.5	0.0
2025-01-19 18:12:48.173970	343.1	81.0	-94.7	0.0
2025-01-19 18:12:50.414199	342.9	79.8	-94.8	0.0
2025-01-19 18:12:52.654765	342.8	78.7	-94.7	0.0
2025-01-19 18:12:54.896536	342.7	77.6	-94.9	0.0
2025-01-19 18:12:57.136403	342.6	76.5	-94.7	0.0
2025-01-19 18:12:59.379403	342.6	75.5	-94.8	0.0
2025-01-19 18:13:01.620377	342.5	74.4	-94.8	0.0
2025-01-19 18:13:03.861576	342.5	73.3	-94.8	0.0
2025-01-19 18:13:06.106750	342.4	72.3	-94.6	0.0
2025-01-19 18:13:08.348562	342.4	71.2	-94.6	0.0
2025-01-19 18:13:10.586481	342.4	70.2	-94.7	0.0
2025-01-19 18:13:12.827680	342.3	69.2	-94.8	0.0
2025-01-19 18:13:15.069939	342.3	68.1	-94.9	0.0
2025-01-19 18:13:17.311035	342.3	67.1	-94.9	0.0
2025-01-19 18:13:19.551472	342.3	66.2	-94.8	0.0
2025-01-19 18:13:21.793800	342.3	65.2	-94.8	0.0
2025-01-19 18:13:24.034305	342.3	64.2	-95.0	0.0
2025-01-19 18:13:26.278112	342.2	63.3	-95.0	0.0
2025-01-19 18:13:28.521640	342.2	62.3	-94.9	0.0
2025-01-19 18:13:30.766097	342.2	61.4	-94.7	0.0
2025-01-19 18:13:33.007533	342.2	60.5	-94.9	0.0
2025-01-19 18:13:35.248590	342.2	59.6	-94.7	0.0
2025-01-19 18:13:37.491883	342.2	58.7	-94.9	0.0
2025-01-19 18:13:39.734040	342.2	57.8	-94.8	0.0
2025-01-19 18:13:41.973687	342.2	56.9	-94.6	0.0
2025-01-19 18:13:44.217702	342.2	56.1	-95.0	0.0
2025-01-19 18:13:46.461319	342.2	55.3	-94.7	0.0
2025-01-19 18:13:48.703345	342.2	54.4	-94.9	0.0
2025-01-19 18:13:50.948562	342.2	53.6	-94.8	0.0
2025-01-19 18:13:53.188937	342.2	52.8	-95.1	0.0
2025-01-19 18:13:55.431639	342.2	52.0	-94.9	0.0
2025-01-19 18:13:57.674913	342.2	51.3	-95.0	0.0
2025-01-19 18:13:59.918225	342.2	50.5	-94.8	0.0
2025-01-19 18:14:02.159196	342.2	49.7	-94.8	0.0
2025-01-19 18:14:04.400134	342.2	49.0	-94.8	0.0
2025-01-19 18:14:06.641226	342.2	48.3	-94.8	0.0
2025-01-19 18:14:08.883270	342.2	47.6	-94.7	0.0
2025-01-19 18:14:11.123239	342.2	46.9	-94.8	0.0
2025-01-19 18:14:13.367398	342.2	46.2	-95.1	0.0
2025-01-19 18:14:15.609173	342.2	45.5	-94.7	0.0
2025-01-19 18:14:17.850301	342.2	44.8	-94.9	0.0
2025-01-19 18:14:20.094524	342.2	44.2	-95.1	0.0
2025-01-19 18:14:22.335615	342.2	43.5	-94.8	0.0
2025-01-19 18:14:24.578385	342.2	42.9	-94.9	0.0
2025-01-19 18:14:26.817525	342.2	42.3	-94.9	0.0
2025-01-19 18:14:29.059152	342.2	41.7	-95.0	0.0
2025-01-19 18:14:31.299972	342.2	41.1	-94.9	0.0
2025-01-19 18:14:33.546709	342.2	40.5	-94.9	0.0
2025-01-19 18:14:35.786575	342.3	39.9	-95.1	0.0
2025-01-19 18:14:38.029218	342.3	39.3	-95.0	0.0
2025-01-19 18:14:40.270837	342.3	38.8	-95.1	0.0
2025-01-19 18:14:42.513394	342.3	38.2	-95.0	0.0
2025-01-19 18:14:44.752829	342.3	37.7	-95.2	0.0
2025-01-19 18:14:46.994018	342.3	37.1	-94.9	0.0
2025-01-19 18:14:49.237678	342.3	36.6	-94.9	0.0
2025-01-19 18:14:51.481078	342.3	36.1	-94.8	0.0
2025-01-19 18:14:53.724029	342.3	35.6	-95.0	0.0
2025-01-19 18:14:55.966124	342.3	35.1	-94.9	0.0
2025-01-19 18:14:58.208038	342.3	34.6	-94.7	0.0
2025-01-19 18:15:00.448177	342.3	34.1	-94.9	0.0
2025-01-19 18:15:02.689902	342.3	33.6	-94.9	0.0
2025-01-19 18:15:04.935331	342.3	33.1	-94.6	0.0
2025-01-19 18:15:07.174861	342.3	32.7	-95.0	0.0
2025-01-19 18:15:09.417345	342.3	32.2	-94.6	0.0
2025-01-19 18:15:11.657048	342.3	31.7	-94.8	0.0
2025-01-19 18:15:13.898511	342.3	31.3	-94.9	0.0
2025-01-19 18:15:16.139366	342.4	30.9	-95.0	0.0
2025-01-19 18:15:18.378979	342.4	30.4	-94.8	0.0
2025-01-19 18:15:20.620342	342.4	30.0	-94.9	0.0
2025-01-19 18:15:22.863447	342.4	29.6	-94.8	0.0
2025-01-19 18:15:25.105242	342.4	29.2	-94.8	0.0
2025-01-19 18:15:27.347492	342.4	28.8	-94.7	0.0
2025-01-19 18:15:29.588844	342.4	28.4	-95.0	0.0
2025-01-19 18:15:31.829444	342.4	28.0	-94.7	0.0
2025-01-19 18:15:34.071124	342.4	27.6	-95.0	0.0
2025-01-19 18:15:36.314784	342.4	27.2	-94.6	0.0
2025-01-19 18:15:38.556981	342.4	26.8	-94.9	0.0
2025-01-19 18:15:40.798351	342.4	26.4	-94.8	0.0
2025-01-19 18:15:43.039837	342.4	26.1	-94.8	0.0
2025-01-19 18:15:45.281688	342.4	25.7	-94.7	0.0
2025-01-19 18:15:47.522805	342.4	25.3	-94.8	0.0
2025-01-19 18:15:49.766841	342.5	25.0	-94.6	0.0
2025-01-19 18:15:52.009010	342.5	24.6	-94.8	0.0
2025-01-19 18:15:54.251191	342.5	24.3	-94.8	0.0
2025-01-19 18:15:56.492523	342.5	24.0	-94.9	0.0
2025-01-19 18:15:58.735148	342.5	23.6	-94.8	0.0
2025-01-19 18:16:00.978676	342.5	23.3	-94.9	0.0
2025-01-19 18:16:03.221794	342.5	23.0	-94.7	0.0
2025-01-19 18:16:05.462440	342.5	22.6	-94.8	0.0
2025-01-19 18:16:07.704490	342.5	22.3	-94.9	0.0
2025-01-19 18:16:09.946259	342.5	22.0	-94.8	0.0
2025-01-19 18:16:12.187514	342.5	21.7	-94.9	0.0
2025-01-19 18:16:14.428427	342.5	21.4	-95.1	0.0
2025-01-19 18:16:16.671331	342.5	21.1	-94.7	0.0
2025-01-19 18:16:18.912405	342.5	20.8	-94.9	0.0
2025-01-19 18:16:21.153321	342.6	20.5	-94.8	0.0
2025-01-19 18:16:23.398516	342.6	20.2	-95.0	0.0
2025-01-19 18:16:25.642808	342.6	19.9	-94.8	0.0
2025-01-19 18:16:27.886324	342.6	19.6	-95.0	0.0
2025-01-19 18:16:30.129379	342.6	19.3	-95.0	0.0
2025-01-19 18:16:32.371427	342.6	19.0	-95.0	0.0
2025-01-19 18:16:34.613752	342.6	18.8	-94.9	0.0
2025-01-19 18:16:36.854074	342.6	18.5	-94.8	0.0
2025-01-19 18:16:39.094487	342.6	18.2	-94.9	0.0
2025-01-19 18:16:41.337259	342.6	18.0	-94.9	0.0
2025-01-19 18:16:43.578552	342.6	17.7	-94.8	0.0
2025-01-19 18:16:45.821974	342.6	17.4	-95.1	0.0
2025-01-19 18:16:48.065976	342.6	17.2	-95.0	0.0
2025-01-19 18:16:50.305363	342.7	16.9	-95.0	0.0
2025-01-19 18:16:52.547473	342.7	16.7	-95.0	0.0
2025-01-19 18:16:54.789895	342.7	16.4	-94.9	0.0
2025-01-19 18:16:57.033537	342.7	16.2	-94.6	0.0
2025-01-19 18:16:59.278685	342.7	15.9	-94.7	0.0
2025-01-19 18:17:01.522104	342.7	15.7	-95.0	0.0
2025-01-19 18:17:03.766407	342.7	15.4	-95.0	0.0
2025-01-19 18:17:06.006531	342.7	15.2	-94.5	0.0
2025-01-19 18:17:08.249276	342.7	15.0	-95.0	0.0
2025-01-19 18:17:10.489367	342.7	14.7	-94.6	0.0
2025-01-19 18:17:12.731677	342.7	14.5	-95.0	0.0
2025-01-19 18:17:14.973857	342.7	14.3	-95.1	0.0
2025-01-19 18:17:17.215216	342.7	14.0	-94.8	0.0
2025-01-19 18:17:19.458448	342.8	13.8	-95.1	0.0
2025-01-19 18:17:21.703878	342.8	13.6	-95.0	0.0
2025-01-19 18:17:23.944117	342.8	13.4	-94.9	0.0
2025-01-19 18:17:26.186657	342.8	13.1	-94.6	0.0
2025-01-19 18:17:28.430201	342.8	12.9	-95.1	0.0
2025-01-19 18:17:30.670412	342.8	12.7	-94.8	0.0
2025-01-19 18:17:32.912136	342.8	12.5	-94.9	0.0
2025-01-19 18:17:35.155900	342.8	12.3	-94.9	0.0
2025-01-19 18:17:37.399217	342.8	12.1	-94.8	0.0
2025-01-19 18:17:39.642407	342.8	11.9	-94.7	0.0
2025-01-19 18:17:41.887309	342.8	11.6	-94.7	0.0
2025-01-19 18:17:44.130533	342.8	11.4	-94.9	0.0
2025-01-19 18:17:46.370522	342.9	11.2	-94.7	0.0
2025-01-19 18:17:48.609285	342.9	11.0	-94.9	0.0
2025-01-19 18:17:50.850494	342.9	10.8	-94.6	0.0
2025-01-19 18:17:53.092477	342.9	10.6	-95.1	0.0
2025-01-19 18:17:55.335791	342.9	10.4	-95.0	0.0
2025-01-19 18:17:57.577578	342.9	10.2	-95.0	0.0
2025-01-19 18:17:59.819574	342.9	10.1	-94.9	0.0
#Closed at: 2025-01-19 18:06:57.953280