passes_logs/2025/01/19/planumMaritime01/planumMaritime01__20250119_065155_METOP-B_rec.log

#Pass ID: 20250119_065155_METOP-B
#Satellite: METOP-B
#Configuration: METOP-B
#Start time: 2025-01-19 06:52:00.440954

#LorettStation: 1.0.0 05.05.2024
#Station: planumMaritime01
#Location: 37.49445 lon 55.92918 lat
#TLE: 1 38771U 12049A   25018.13917443  .00000268  00000+0  14250-3 0  9990
#TLE: 2 38771  98.6005  76.2164 0001715  78.2005 281.9365 14.21412314640083

#Time	Az	El	Level	SNR
2025-01-19 06:52:02.597085	23.8	10.2	-94.7	0.0
2025-01-19 06:52:04.839996	23.9	10.4	-94.7	0.0
2025-01-19 06:52:07.079106	24.1	10.6	-94.7	0.0
2025-01-19 06:52:09.321840	24.2	10.7	-94.7	0.0
2025-01-19 06:52:11.563745	24.3	10.9	-94.7	0.0
2025-01-19 06:52:13.804106	24.4	11.1	-94.8	0.0
2025-01-19 06:52:16.048516	24.6	11.3	-94.7	0.0
2025-01-19 06:52:18.288669	24.7	11.5	-94.7	0.0
2025-01-19 06:52:20.529514	24.8	11.7	-94.5	0.0
2025-01-19 06:52:22.768862	24.9	11.9	-94.6	0.0
2025-01-19 06:52:25.010555	25.1	12.1	-94.8	0.0
2025-01-19 06:52:27.255242	25.2	12.3	-94.8	0.0
2025-01-19 06:52:29.496132	25.4	12.5	-94.6	0.0
2025-01-19 06:52:31.736607	25.5	12.7	-94.7	0.0
2025-01-19 06:52:33.978206	25.6	12.9	-94.7	0.0
2025-01-19 06:52:36.220254	25.8	13.2	-94.6	0.0
2025-01-19 06:52:38.463074	25.9	13.4	-94.7	0.0
2025-01-19 06:52:40.706492	26.1	13.6	-94.7	0.0
2025-01-19 06:52:42.947397	26.2	13.8	-94.5	0.0
2025-01-19 06:52:45.191418	26.4	14.0	-94.7	0.0
2025-01-19 06:52:47.430615	26.5	14.2	-94.6	0.0
2025-01-19 06:52:49.673596	26.7	14.4	-94.7	0.0
2025-01-19 06:52:51.914989	26.8	14.7	-94.3	0.0
2025-01-19 06:52:54.157220	27.0	14.9	-94.7	0.0
2025-01-19 06:52:56.397225	27.2	15.1	-94.5	0.0
2025-01-19 06:52:58.637739	27.3	15.3	-94.3	0.0
2025-01-19 06:53:00.877959	27.5	15.6	-94.5	0.0
2025-01-19 06:53:03.119901	27.7	15.8	-94.3	0.0
2025-01-19 06:53:05.364386	27.8	16.0	-94.6	0.0
2025-01-19 06:53:07.605674	28.0	16.3	-94.9	0.0
2025-01-19 06:53:09.849944	28.2	16.5	-95.1	0.0
2025-01-19 06:53:12.092519	28.4	16.7	-94.7	0.0
2025-01-19 06:53:14.334325	28.5	17.0	-94.7	0.0
2025-01-19 06:53:16.576983	28.7	17.2	-95.0	0.0
2025-01-19 06:53:18.816678	28.9	17.5	-94.7	0.0
2025-01-19 06:53:21.059322	29.1	17.7	-95.0	0.0
2025-01-19 06:53:23.303706	29.3	18.0	-94.9	0.0
2025-01-19 06:53:25.543120	29.5	18.2	-94.9	0.0
2025-01-19 06:53:27.788132	29.7	18.5	-94.7	0.0
2025-01-19 06:53:30.030089	29.9	18.7	-94.7	0.0
2025-01-19 06:53:32.274261	30.1	19.0	-94.7	0.0
2025-01-19 06:53:34.514732	30.3	19.3	-94.7	0.0
2025-01-19 06:53:36.757429	30.5	19.5	-94.5	0.0
2025-01-19 06:53:38.998255	30.7	19.8	-94.7	0.0
2025-01-19 06:53:41.239770	31.0	20.1	-94.6	0.0
2025-01-19 06:53:43.482021	31.2	20.3	-94.6	0.0
2025-01-19 06:53:45.726116	31.4	20.6	-94.7	0.0
2025-01-19 06:53:47.966262	31.7	20.9	-94.8	0.0
2025-01-19 06:53:50.210163	31.9	21.2	-94.8	0.0
2025-01-19 06:53:52.449803	32.1	21.4	-94.5	0.0
2025-01-19 06:53:54.694362	32.4	21.7	-94.8	0.0
2025-01-19 06:53:56.932518	32.6	22.0	-94.8	0.0
2025-01-19 06:53:59.174170	32.9	22.3	-94.7	0.0
2025-01-19 06:54:01.415300	33.1	22.6	-94.6	0.0
2025-01-19 06:54:03.654605	33.4	22.9	-94.9	0.0
2025-01-19 06:54:05.897442	33.7	23.2	-94.6	0.0
2025-01-19 06:54:08.136054	33.9	23.5	-94.7	0.0
2025-01-19 06:54:10.378365	34.2	23.8	-94.4	0.0
2025-01-19 06:54:12.619021	34.5	24.1	-94.7	0.0
2025-01-19 06:54:14.860511	34.8	24.4	-94.8	0.0
2025-01-19 06:54:17.101898	35.1	24.7	-94.5	0.0
2025-01-19 06:54:19.344387	35.4	25.0	-94.7	0.0
2025-01-19 06:54:21.583778	35.7	25.4	-94.5	0.0
2025-01-19 06:54:23.822511	36.0	25.7	-94.8	0.0
2025-01-19 06:54:26.065919	36.3	26.0	-94.7	0.0
2025-01-19 06:54:28.308605	36.6	26.3	-94.6	0.0
2025-01-19 06:54:30.549730	37.0	26.7	-95.1	0.0
2025-01-19 06:54:32.791643	37.3	27.0	-94.7	0.0
2025-01-19 06:54:35.034881	37.7	27.3	-95.1	0.0
2025-01-19 06:54:37.277295	38.0	27.7	-95.1	0.0
2025-01-19 06:54:39.515692	38.4	28.0	-94.7	0.0
2025-01-19 06:54:41.757349	38.7	28.4	-95.1	0.0
2025-01-19 06:54:43.996977	39.1	28.7	-94.8	0.0
2025-01-19 06:54:46.239958	39.5	29.1	-95.1	0.0
2025-01-19 06:54:48.483000	39.9	29.4	-94.7	0.0
2025-01-19 06:54:50.723450	40.3	29.8	-95.1	0.0
2025-01-19 06:54:52.965232	40.7	30.2	-94.9	0.0
2025-01-19 06:54:55.208611	41.1	30.5	-94.8	0.0
2025-01-19 06:54:57.451562	41.6	30.9	-94.9	0.0
2025-01-19 06:54:59.697257	42.0	31.3	-94.6	0.0
2025-01-19 06:55:01.939166	42.4	31.7	-95.0	0.0
2025-01-19 06:55:04.177835	42.9	32.0	-94.6	0.0
2025-01-19 06:55:06.419924	43.4	32.4	-94.5	0.0
2025-01-19 06:55:08.665850	43.9	32.8	-94.8	0.0
2025-01-19 06:55:10.907089	44.4	33.2	-94.6	0.0
2025-01-19 06:55:13.149366	44.9	33.6	-94.6	0.0
2025-01-19 06:55:15.391576	45.4	34.0	-94.9	0.0
2025-01-19 06:55:17.634518	45.9	34.4	-94.6	0.0
2025-01-19 06:55:19.878658	46.4	34.8	-94.8	0.0
2025-01-19 06:55:22.119821	47.0	35.2	-95.0	0.0
2025-01-19 06:55:24.360918	47.6	35.6	-94.8	0.0
2025-01-19 06:55:26.603725	48.1	36.0	-94.9	0.0
2025-01-19 06:55:28.845321	48.7	36.4	-94.9	0.0
2025-01-19 06:55:31.085322	49.4	36.8	-94.9	0.0
2025-01-19 06:55:33.325715	50.0	37.2	-95.2	0.0
2025-01-19 06:55:35.567164	50.6	37.6	-94.6	0.0
2025-01-19 06:55:37.808908	51.3	38.0	-95.1	0.0
2025-01-19 06:55:40.051056	52.0	38.4	-94.7	0.0
2025-01-19 06:55:42.293103	52.7	38.9	-94.7	0.0
2025-01-19 06:55:44.534046	53.4	39.3	-94.7	0.0
2025-01-19 06:55:46.776448	54.1	39.7	-94.7	0.0
2025-01-19 06:55:49.019035	54.8	40.1	-94.6	0.0
2025-01-19 06:55:51.262296	55.6	40.5	-94.8	0.0
2025-01-19 06:55:53.506358	56.4	40.9	-94.6	0.0
2025-01-19 06:55:55.749492	57.2	41.3	-94.3	0.0
2025-01-19 06:55:57.994644	58.0	41.7	-94.5	0.0
2025-01-19 06:56:00.236218	58.9	42.1	-94.7	0.0
2025-01-19 06:56:02.479951	59.7	42.6	-94.9	0.0
2025-01-19 06:56:04.720151	60.6	43.0	-94.7	0.0
2025-01-19 06:56:06.964710	61.5	43.4	-94.9	0.0
2025-01-19 06:56:09.207320	62.5	43.7	-94.9	0.0
2025-01-19 06:56:11.451984	63.4	44.1	-94.7	0.0
2025-01-19 06:56:13.694834	64.4	44.5	-94.8	0.0
2025-01-19 06:56:15.935592	65.4	44.9	-95.0	0.0
2025-01-19 06:56:18.177224	66.5	45.3	-94.8	0.0
2025-01-19 06:56:20.419389	67.5	45.6	-94.7	0.0
2025-01-19 06:56:22.661354	68.6	46.0	-94.8	0.0
2025-01-19 06:56:24.905439	69.7	46.3	-94.7	0.0
2025-01-19 06:56:27.149820	70.8	46.7	-94.7	0.0
2025-01-19 06:56:29.395575	72.0	47.0	-94.9	0.0
2025-01-19 06:56:31.636704	73.2	47.3	-95.1	0.0
2025-01-19 06:56:33.879196	74.4	47.7	-94.7	0.0
2025-01-19 06:56:36.124212	75.6	48.0	-94.6	0.0
2025-01-19 06:56:38.366261	76.8	48.2	-94.8	0.0
2025-01-19 06:56:40.605377	78.1	48.5	-94.7	0.0
2025-01-19 06:56:42.847347	79.4	48.8	-94.9	0.0
2025-01-19 06:56:45.089138	80.7	49.0	-94.8	0.0
2025-01-19 06:56:47.332901	82.0	49.3	-94.7	0.0
2025-01-19 06:56:49.576574	83.4	49.5	-94.7	0.0
2025-01-19 06:56:51.819716	84.8	49.7	-94.8	0.0
2025-01-19 06:56:54.061244	86.2	49.9	-94.6	0.0
2025-01-19 06:56:56.301310	87.6	50.0	-94.5	0.0
2025-01-19 06:56:58.538497	89.0	50.2	-94.8	0.0
2025-01-19 06:57:00.781048	90.4	50.3	-94.8	0.0
2025-01-19 06:57:03.024216	91.9	50.4	-94.8	0.0
2025-01-19 06:57:05.265857	93.3	50.5	-94.6	0.0
2025-01-19 06:57:07.510699	94.8	50.6	-94.9	0.0
2025-01-19 06:57:09.752271	96.3	50.7	-95.1	0.0
2025-01-19 06:57:11.995413	97.7	50.7	-95.1	0.0
2025-01-19 06:57:14.237331	99.2	50.7	-95.1	0.0
2025-01-19 06:57:16.480548	100.7	50.7	-95.0	0.0
2025-01-19 06:57:18.726021	102.2	50.7	-94.9	0.0
2025-01-19 06:57:20.970352	103.7	50.7	-94.8	0.0
2025-01-19 06:57:23.213753	105.1	50.6	-94.6	0.0
2025-01-19 06:57:25.454073	106.6	50.5	-94.9	0.0
2025-01-19 06:57:27.695616	108.0	50.4	-94.6	0.0
2025-01-19 06:57:29.939242	109.5	50.3	-94.7	0.0
2025-01-19 06:57:32.181990	110.9	50.2	-94.8	0.0
2025-01-19 06:57:34.426021	112.3	50.0	-94.8	0.0
2025-01-19 06:57:36.667699	113.8	49.8	-94.9	0.0
2025-01-19 06:57:38.912715	115.1	49.7	-94.9	0.0
2025-01-19 06:57:41.156170	116.5	49.4	-94.9	0.0
2025-01-19 06:57:43.396684	117.9	49.2	-95.0	0.0
2025-01-19 06:57:45.639663	119.2	49.0	-94.9	0.0
2025-01-19 06:57:47.881383	120.5	48.7	-95.1	0.0
2025-01-19 06:57:50.126067	121.8	48.5	-94.8	0.0
2025-01-19 06:57:52.369065	123.1	48.2	-94.7	0.0
2025-01-19 06:57:54.611246	124.3	47.9	-94.9	0.0
2025-01-19 06:57:56.854051	125.5	47.6	-95.0	0.0
2025-01-19 06:57:59.096595	126.7	47.3	-95.0	0.0
2025-01-19 06:58:01.338202	127.9	47.0	-95.0	0.0
2025-01-19 06:58:03.581251	129.1	46.6	-94.7	0.0
2025-01-19 06:58:05.822059	130.2	46.3	-95.0	0.0
2025-01-19 06:58:08.064107	131.3	45.9	-95.2	0.0
2025-01-19 06:58:10.305634	132.4	45.6	-94.7	0.0
2025-01-19 06:58:12.549011	133.4	45.2	-94.7	0.0
2025-01-19 06:58:14.791191	134.4	44.8	-95.1	0.0
2025-01-19 06:58:17.033381	135.4	44.4	-94.8	0.0
2025-01-19 06:58:19.274112	136.4	44.0	-94.8	0.0
2025-01-19 06:58:21.515129	137.4	43.6	-94.7	0.0
2025-01-19 06:58:23.755595	138.3	43.3	-94.8	0.0
2025-01-19 06:58:26.000929	139.2	42.9	-94.9	0.0
2025-01-19 06:58:28.243895	140.1	42.4	-94.9	0.0
2025-01-19 06:58:30.488273	141.0	42.0	-94.7	0.0
2025-01-19 06:58:32.731282	141.8	41.6	-94.6	0.0
2025-01-19 06:58:34.974538	142.6	41.2	-94.9	0.0
2025-01-19 06:58:37.216667	143.5	40.8	-95.2	0.0
2025-01-19 06:58:39.460430	144.2	40.4	-94.6	0.0
2025-01-19 06:58:41.703115	145.0	40.0	-95.1	0.0
2025-01-19 06:58:43.945821	145.7	39.6	-95.0	0.0
2025-01-19 06:58:46.189357	146.5	39.1	-94.8	0.0
2025-01-19 06:58:48.429949	147.2	38.7	-94.8	0.0
2025-01-19 06:58:50.673414	147.9	38.3	-94.8	0.0
2025-01-19 06:58:52.915422	148.5	37.9	-94.7	0.0
2025-01-19 06:58:55.158866	149.2	37.5	-94.5	0.0
2025-01-19 06:58:57.399911	149.8	37.1	-94.6	0.0
2025-01-19 06:58:59.641344	150.5	36.7	-94.5	0.0
2025-01-19 06:59:01.885341	151.1	36.2	-94.5	0.0
2025-01-19 06:59:04.130157	151.7	35.8	-94.7	0.0
2025-01-19 06:59:06.374310	152.3	35.4	-94.7	0.0
2025-01-19 06:59:08.619032	152.8	35.0	-94.9	0.0
2025-01-19 06:59:10.864372	153.4	34.6	-94.7	0.0
2025-01-19 06:59:13.104877	153.9	34.2	-94.8	0.0
2025-01-19 06:59:15.347305	154.4	33.8	-94.9	0.0
2025-01-19 06:59:17.590782	155.0	33.4	-94.5	0.0
2025-01-19 06:59:19.832727	155.5	33.0	-94.8	0.0
2025-01-19 06:59:22.076392	155.9	32.6	-94.9	0.0
2025-01-19 06:59:24.317709	156.4	32.3	-94.8	0.0
2025-01-19 06:59:26.562029	156.9	31.9	-94.9	0.0
2025-01-19 06:59:28.804514	157.4	31.5	-95.2	0.0
2025-01-19 06:59:31.046704	157.8	31.1	-95.0	0.0
2025-01-19 06:59:33.289387	158.2	30.7	-94.8	0.0
2025-01-19 06:59:35.532327	158.7	30.4	-95.1	0.0
2025-01-19 06:59:37.773977	159.1	30.0	-94.9	0.0
2025-01-19 06:59:40.015928	159.5	29.6	-94.7	0.0
2025-01-19 06:59:42.257016	159.9	29.3	-94.9	0.0
2025-01-19 06:59:44.501769	160.3	28.9	-94.7	0.0
2025-01-19 06:59:46.744407	160.7	28.6	-94.6	0.0
2025-01-19 06:59:48.986331	161.0	28.2	-94.6	0.0
2025-01-19 06:59:51.229427	161.4	27.9	-94.6	0.0
2025-01-19 06:59:53.471590	161.8	27.5	-94.6	0.0
2025-01-19 06:59:55.715523	162.1	27.2	-94.7	0.0
2025-01-19 06:59:57.961853	162.5	26.8	-95.0	0.0
2025-01-19 07:00:00.206307	162.8	26.5	-95.1	0.0
2025-01-19 07:00:02.446183	163.1	26.2	-94.9	0.0
2025-01-19 07:00:04.688548	163.5	25.8	-95.1	0.0
2025-01-19 07:00:06.930822	163.8	25.5	-95.0	0.0
2025-01-19 07:00:09.174092	164.1	25.2	-94.9	0.0
2025-01-19 07:00:11.416233	164.4	24.9	-94.7	0.0
2025-01-19 07:00:13.660592	164.7	24.5	-94.8	0.0
2025-01-19 07:00:15.903331	165.0	24.2	-94.7	0.0
2025-01-19 07:00:18.143590	165.3	23.9	-94.9	0.0
2025-01-19 07:00:20.386296	165.5	23.6	-94.9	0.0
2025-01-19 07:00:22.629882	165.8	23.3	-94.8	0.0
2025-01-19 07:00:24.875116	166.1	23.0	-94.7	0.0
2025-01-19 07:00:27.115142	166.4	22.7	-94.7	0.0
2025-01-19 07:00:29.360492	166.6	22.4	-94.9	0.0
2025-01-19 07:00:31.603389	166.9	22.1	-94.8	0.0
2025-01-19 07:00:33.847451	167.1	21.8	-95.0	0.0
2025-01-19 07:00:36.087854	167.4	21.5	-95.1	0.0
2025-01-19 07:00:38.331268	167.6	21.2	-95.1	0.0
2025-01-19 07:00:40.573557	167.9	20.9	-94.8	0.0
2025-01-19 07:00:42.815303	168.1	20.7	-94.9	0.0
2025-01-19 07:00:45.059372	168.3	20.4	-94.8	0.0
2025-01-19 07:00:47.302309	168.6	20.1	-95.0	0.0
2025-01-19 07:00:49.544388	168.8	19.8	-95.1	0.0
2025-01-19 07:00:51.791797	169.0	19.6	-95.1	0.0
2025-01-19 07:00:54.035360	169.2	19.3	-94.9	0.0
2025-01-19 07:00:56.276346	169.4	19.0	-94.9	0.0
2025-01-19 07:00:58.518375	169.6	18.8	-95.1	0.0
2025-01-19 07:01:00.758813	169.8	18.5	-94.9	0.0
2025-01-19 07:01:03.002346	170.0	18.3	-94.7	0.0
2025-01-19 07:01:05.243885	170.2	18.0	-95.0	0.0
2025-01-19 07:01:07.485361	170.4	17.8	-94.8	0.0
2025-01-19 07:01:09.729507	170.6	17.5	-94.7	0.0
2025-01-19 07:01:11.970998	170.8	17.3	-94.8	0.0
2025-01-19 07:01:14.214433	171.0	17.0	-94.7	0.0
2025-01-19 07:01:16.456262	171.2	16.8	-94.9	0.0
2025-01-19 07:01:18.699427	171.4	16.5	-95.0	0.0
2025-01-19 07:01:20.939486	171.5	16.3	-94.7	0.0
2025-01-19 07:01:23.184054	171.7	16.0	-95.0	0.0
2025-01-19 07:01:25.426496	171.9	15.8	-95.0	0.0
2025-01-19 07:01:27.668674	172.1	15.6	-95.0	0.0
2025-01-19 07:01:29.912389	172.2	15.3	-94.9	0.0
2025-01-19 07:01:32.155784	172.4	15.1	-94.9	0.0
2025-01-19 07:01:34.398616	172.5	14.9	-94.9	0.0
2025-01-19 07:01:36.639460	172.7	14.7	-95.0	0.0
2025-01-19 07:01:38.881092	172.9	14.4	-94.8	0.0
2025-01-19 07:01:41.125433	173.0	14.2	-95.1	0.0
2025-01-19 07:01:43.365292	173.2	14.0	-94.7	0.0
2025-01-19 07:01:45.608116	173.3	13.8	-94.9	0.0
2025-01-19 07:01:47.849048	173.5	13.6	-94.7	0.0
2025-01-19 07:01:50.091855	173.6	13.3	-94.8	0.0
2025-01-19 07:01:52.334769	173.8	13.1	-95.0	0.0
2025-01-19 07:01:54.578250	173.9	12.9	-94.9	0.0
2025-01-19 07:01:56.820712	174.0	12.7	-95.0	0.0
2025-01-19 07:01:59.064763	174.2	12.5	-94.8	0.0
2025-01-19 07:02:01.308724	174.3	12.3	-95.1	0.0
2025-01-19 07:02:03.551840	174.5	12.1	-94.9	0.0
2025-01-19 07:02:05.794526	174.6	11.9	-95.1	0.0
2025-01-19 07:02:08.036255	174.7	11.7	-95.0	0.0
2025-01-19 07:02:10.276157	174.9	11.5	-94.9	0.0
2025-01-19 07:02:12.519424	175.0	11.3	-94.9	0.0
2025-01-19 07:02:14.761851	175.1	11.1	-95.1	0.0
2025-01-19 07:02:17.005909	175.2	10.9	-95.0	0.0
2025-01-19 07:02:19.249890	175.4	10.7	-95.3	0.0
2025-01-19 07:02:21.494246	175.5	10.5	-95.0	0.0
2025-01-19 07:02:23.737085	175.6	10.3	-95.2	0.0
2025-01-19 07:02:25.979219	175.7	10.1	-95.1	0.0
#Closed at: 2025-01-19 06:51:55.443531