passes_logs/2026/01/25/PlanumMoscow/PlanumMoscow__20260125_030106_METEOR-M2_4_rec.log

#Pass ID: 20260125_030106_METEOR-M2 4
#Satellite: METEOR-M2 4
#Configuration: METEOR-M2 4
#Start time: 2026-01-25 03:01:11.683191

#LorettStation: 1.0.0 05.05.2024
#Station: PlanumMoscow
#Location: 37.6253844 lon 55.6713361 lat
#TLE: 1 59051U 24039A   25293.94737965  .00000087  00000+0  58459-4 0  9998
#TLE: 2 59051  98.6671 251.7071 0007726 135.4772 224.7028 14.22388966 85257

#Time	Az	El	Level	SNR
2026-01-25 03:04:50.077804	331.5	16.6	-65.9	13.0
2026-01-25 03:04:51.201100	331.2	16.6	-66.1	12.8
2026-01-25 03:04:52.323354	331.0	16.7	-66.1	13.1
2026-01-25 03:04:53.445616	330.7	16.7	-66.0	13.1
2026-01-25 03:04:54.567869	330.5	16.7	-66.1	13.0
2026-01-25 03:04:55.695629	330.3	16.8	-65.8	12.3
2026-01-25 03:04:56.817921	330.0	16.8	-66.2	13.0
2026-01-25 03:04:57.940174	329.8	16.9	-66.0	13.2
2026-01-25 03:04:59.061942	329.5	16.9	-66.2	13.0
2026-01-25 03:05:00.184195	329.3	16.9	-66.1	13.0
2026-01-25 03:05:01.306488	329.0	17.0	-66.2	13.3
2026-01-25 03:05:02.428246	328.8	17.0	-66.3	13.6
2026-01-25 03:05:03.550508	328.5	17.0	-66.5	12.9
2026-01-25 03:05:04.672762	328.3	17.1	-66.5	13.0
2026-01-25 03:05:05.794520	328.0	17.1	-66.5	13.2
2026-01-25 03:05:06.916814	327.8	17.1	-66.3	13.1
2026-01-25 03:05:08.039067	327.6	17.2	-66.4	12.9
2026-01-25 03:05:09.160856	327.3	17.2	-66.3	12.5
2026-01-25 03:05:10.282614	327.1	17.2	-66.6	12.8
2026-01-25 03:05:11.404868	326.8	17.3	-66.4	12.4
2026-01-25 03:05:12.527121	326.6	17.3	-66.3	13.5
2026-01-25 03:05:13.649383	326.3	17.3	-66.6	12.9
2026-01-25 03:05:14.771140	326.0	17.4	-66.5	14.0
2026-01-25 03:05:15.893394	325.8	17.4	-66.4	13.2
2026-01-25 03:05:17.014688	325.5	17.4	-66.3	13.5
2026-01-25 03:05:18.138446	325.3	17.5	-66.2	12.6
2026-01-25 03:05:19.260708	325.0	17.5	-66.4	13.3
2026-01-25 03:05:20.382961	324.8	17.5	-66.2	13.2
2026-01-25 03:05:21.505254	324.5	17.5	-66.5	13.5
2026-01-25 03:05:22.627508	324.3	17.6	-66.3	12.4
2026-01-25 03:05:23.749769	324.0	17.6	-66.1	13.1
2026-01-25 03:05:24.871528	323.8	17.6	-66.3	13.7
2026-01-25 03:05:25.993285	323.5	17.6	-66.5	13.4
2026-01-25 03:05:27.115086	323.2	17.7	-66.3	13.5
2026-01-25 03:05:28.237339	323.0	17.7	-66.3	13.4
2026-01-25 03:05:29.359097	322.7	17.7	-66.4	13.1
2026-01-25 03:05:30.480881	322.5	17.7	-66.2	12.5
2026-01-25 03:05:31.603134	322.2	17.8	-66.4	13.7
2026-01-25 03:05:32.725387	322.0	17.8	-66.4	13.2
2026-01-25 03:05:33.847154	321.7	17.8	-66.4	12.7
2026-01-25 03:05:34.969406	321.4	17.8	-66.8	14.1
2026-01-25 03:05:36.091660	321.2	17.8	-66.7	13.9
2026-01-25 03:05:37.213952	320.9	17.9	-66.6	13.3
2026-01-25 03:05:38.336206	320.7	17.9	-66.7	13.3
2026-01-25 03:05:39.458469	320.4	17.9	-66.7	13.4
2026-01-25 03:05:40.580722	320.1	17.9	-66.8	13.5
2026-01-25 03:05:41.702518	319.9	17.9	-66.3	12.7
2026-01-25 03:05:42.824771	319.6	17.9	-66.6	13.3
2026-01-25 03:05:43.947032	319.3	18.0	-66.4	13.5
2026-01-25 03:05:45.069285	319.1	18.0	-66.7	12.8
2026-01-25 03:05:46.191539	318.8	18.0	-66.5	13.7
2026-01-25 03:05:47.313832	318.6	18.0	-66.6	13.7
2026-01-25 03:05:48.435590	318.3	18.0	-66.6	13.3
2026-01-25 03:05:49.557852	318.0	18.0	-66.5	13.8
2026-01-25 03:05:50.680105	317.8	18.0	-66.2	13.6
2026-01-25 03:05:51.802359	317.5	18.0	-66.4	13.8
2026-01-25 03:05:52.924140	317.2	18.1	-66.5	13.5
2026-01-25 03:05:54.046393	317.0	18.1	-66.3	13.8
2026-01-25 03:05:55.168654	316.7	18.1	-66.2	14.1
2026-01-25 03:05:56.290412	316.4	18.1	-66.3	14.0
2026-01-25 03:05:57.417171	316.2	18.1	-66.1	14.0
2026-01-25 03:05:58.538958	315.9	18.1	-66.1	14.3
2026-01-25 03:05:59.661212	315.6	18.1	-66.2	14.3
2026-01-25 03:06:00.783474	315.4	18.1	-66.4	14.0
2026-01-25 03:06:01.905728	315.1	18.1	-66.6	13.8
2026-01-25 03:06:03.027518	314.9	18.1	-66.5	14.3
2026-01-25 03:06:04.149771	314.6	18.1	-66.1	14.3
2026-01-25 03:06:05.271529	314.3	18.1	-66.4	13.9
2026-01-25 03:06:06.393782	314.1	18.1	-66.4	13.6
2026-01-25 03:06:07.516044	313.8	18.1	-66.4	13.8
2026-01-25 03:06:08.637831	313.5	18.1	-66.2	14.4
2026-01-25 03:06:09.760084	313.3	18.1	-66.5	14.1
2026-01-25 03:06:10.882346	313.0	18.1	-66.7	14.1
2026-01-25 03:06:12.004599	312.7	18.1	-66.6	14.0
2026-01-25 03:06:13.125893	312.5	18.1	-66.7	14.0
2026-01-25 03:06:14.247650	312.2	18.1	-66.7	13.8
2026-01-25 03:06:15.369904	311.9	18.1	-66.6	13.6
2026-01-25 03:06:16.492166	311.7	18.1	-66.5	13.8
2026-01-25 03:06:17.614419	311.4	18.1	-66.6	13.7
2026-01-25 03:06:18.736208	311.1	18.1	-66.2	13.8
2026-01-25 03:06:19.858461	310.9	18.1	-66.2	14.0
2026-01-25 03:06:20.979731	310.6	18.1	-66.5	13.7
2026-01-25 03:06:22.101984	310.3	18.1	-66.4	14.0
2026-01-25 03:06:23.224238	310.1	18.1	-66.4	13.7
2026-01-25 03:06:24.346522	309.8	18.1	-66.3	13.7
2026-01-25 03:06:25.468776	309.5	18.1	-66.8	13.9
2026-01-25 03:06:26.591038	309.3	18.1	-66.7	13.8
2026-01-25 03:06:27.713291	309.0	18.1	-66.6	13.7
2026-01-25 03:06:28.835048	308.7	18.1	-66.5	13.4
2026-01-25 03:06:29.959837	308.5	18.1	-66.7	13.0
2026-01-25 03:06:31.082091	308.2	18.0	-66.9	13.2
2026-01-25 03:06:32.204352	307.9	18.0	-66.8	13.1
2026-01-25 03:06:33.326606	307.7	18.0	-66.7	12.4
2026-01-25 03:06:34.447915	307.4	18.0	-67.0	13.0
2026-01-25 03:06:35.570168	307.2	18.0	-66.7	13.3
2026-01-25 03:06:36.694926	306.9	18.0	-66.9	13.3
2026-01-25 03:06:37.817180	306.6	18.0	-66.9	13.3
2026-01-25 03:06:38.939442	306.4	18.0	-66.9	13.4
2026-01-25 03:06:40.060735	306.1	17.9	-66.9	13.1
2026-01-25 03:06:41.182492	305.8	17.9	-66.8	13.4
2026-01-25 03:06:42.304259	305.6	17.9	-67.0	13.5
2026-01-25 03:06:43.426017	305.3	17.9	-67.2	12.6
2026-01-25 03:06:44.547281	305.1	17.9	-67.0	13.7
2026-01-25 03:06:45.669534	304.8	17.8	-67.0	13.8
2026-01-25 03:06:46.791788	304.5	17.8	-66.9	13.3
2026-01-25 03:06:47.914041	304.3	17.8	-67.0	13.7
2026-01-25 03:06:49.035798	304.0	17.8	-67.1	13.9
2026-01-25 03:06:50.158051	303.8	17.8	-67.1	13.5
2026-01-25 03:06:51.280305	303.5	17.7	-66.8	14.0
2026-01-25 03:06:52.401567	303.2	17.7	-67.1	13.6
2026-01-25 03:06:53.524325	303.0	17.7	-67.1	13.8
2026-01-25 03:06:54.646578	302.7	17.7	-67.0	13.5
2026-01-25 03:06:55.768832	302.5	17.7	-67.0	14.1
2026-01-25 03:06:56.891085	302.2	17.6	-67.0	13.9
2026-01-25 03:06:58.012866	301.9	17.6	-66.8	13.4
2026-01-25 03:06:59.135119	301.7	17.6	-66.9	13.7
2026-01-25 03:07:00.257373	301.4	17.6	-67.0	13.1
2026-01-25 03:07:01.382637	301.2	17.5	-67.0	13.5
2026-01-25 03:07:02.503899	300.9	17.5	-66.9	12.7
2026-01-25 03:07:03.625657	300.7	17.5	-67.2	13.2
2026-01-25 03:07:04.747446	300.4	17.4	-66.8	13.2
2026-01-25 03:07:05.869700	300.2	17.4	-67.3	13.6
2026-01-25 03:07:06.991961	299.9	17.4	-67.2	13.6
2026-01-25 03:07:08.114214	299.6	17.4	-67.0	13.4
2026-01-25 03:07:09.241478	299.4	17.3	-67.1	12.8
2026-01-25 03:07:10.363268	299.1	17.3	-67.1	13.4
2026-01-25 03:07:11.485521	298.9	17.3	-67.2	13.7
2026-01-25 03:07:12.607784	298.6	17.2	-67.3	13.0
2026-01-25 03:07:13.730037	298.4	17.2	-67.3	13.1
2026-01-25 03:07:14.852291	298.1	17.2	-67.3	12.1
2026-01-25 03:07:15.973577	297.9	17.1	-67.2	13.1
2026-01-25 03:07:17.095336	297.6	17.1	-67.0	13.4
2026-01-25 03:07:18.217597	297.4	17.1	-67.0	13.2
2026-01-25 03:07:19.339851	297.1	17.0	-66.9	12.9
2026-01-25 03:07:20.461632	296.9	17.0	-66.9	13.0
2026-01-25 03:07:21.583885	296.7	16.9	-66.9	12.7
2026-01-25 03:07:22.705643	296.4	16.9	-67.1	13.0
2026-01-25 03:07:23.827410	296.2	16.9	-67.0	12.7
2026-01-25 03:07:24.949673	295.9	16.8	-66.7	12.8
2026-01-25 03:07:26.071465	295.7	16.8	-66.9	11.6
2026-01-25 03:07:27.193719	295.4	16.8	-67.0	13.3
2026-01-25 03:07:28.315980	295.2	16.7	-66.8	12.8
2026-01-25 03:07:29.438234	294.9	16.7	-66.8	12.3
2026-01-25 03:07:30.560487	294.7	16.6	-66.9	12.8
2026-01-25 03:07:31.681781	294.5	16.6	-66.8	12.9
2026-01-25 03:07:32.809035	294.2	16.6	-66.9	13.2
2026-01-25 03:07:33.931297	294.0	16.5	-67.0	12.6
2026-01-25 03:07:35.053551	293.7	16.5	-67.0	13.0
2026-01-25 03:07:36.175804	293.5	16.4	-67.0	13.6
2026-01-25 03:07:37.297593	293.3	16.4	-67.8	12.8
2026-01-25 03:07:38.419846	293.0	16.4	-67.1	12.2
2026-01-25 03:07:39.542108	292.8	16.3	-66.7	12.9
2026-01-25 03:07:40.664362	292.6	16.3	-66.7	13.4
2026-01-25 03:07:41.786640	292.3	16.2	-66.7	13.1
2026-01-25 03:07:42.908893	292.1	16.2	-66.6	13.1
2026-01-25 03:07:44.031146	291.9	16.1	-66.2	12.3
2026-01-25 03:07:45.153408	291.6	16.1	-66.2	12.9
2026-01-25 03:07:46.275662	291.4	16.0	-66.3	12.7
2026-01-25 03:07:47.402916	291.2	16.0	-66.3	12.3
2026-01-25 03:07:48.524704	290.9	15.9	-66.2	12.1
2026-01-25 03:07:49.646462	290.7	15.9	-66.0	12.0
2026-01-25 03:07:50.768723	290.5	15.9	-66.3	12.3
2026-01-25 03:07:51.890977	290.2	15.8	-66.7	13.0
2026-01-25 03:07:53.013230	290.0	15.8	-66.2	11.8
2026-01-25 03:07:54.135028	289.8	15.7	-66.7	12.9
2026-01-25 03:07:55.257786	289.6	15.7	-66.8	12.3
2026-01-25 03:07:56.380048	289.3	15.6	-66.6	12.6
2026-01-25 03:07:57.502302	289.1	15.6	-66.6	12.6
2026-01-25 03:07:58.623587	288.9	15.5	-66.8	11.2
2026-01-25 03:07:59.745841	288.7	15.5	-66.6	11.7
2026-01-25 03:08:00.868094	288.4	15.4	-66.9	12.3
2026-01-25 03:08:01.989860	288.2	15.4	-66.4	11.8
2026-01-25 03:08:03.112114	288.0	15.3	-66.8	11.8
2026-01-25 03:08:04.233902	287.8	15.3	-66.4	11.6
2026-01-25 03:08:05.356155	287.6	15.2	-66.8	11.8
2026-01-25 03:08:06.478409	287.3	15.2	-66.3	10.9
2026-01-25 03:08:07.600670	287.1	15.1	-67.0	11.8
2026-01-25 03:08:08.722924	286.9	15.0	-67.1	11.5
2026-01-25 03:08:09.844715	286.7	15.0	-66.9	11.7
2026-01-25 03:08:10.966967	286.5	14.9	-66.7	10.9
2026-01-25 03:08:12.089726	286.3	14.9	-66.9	12.1
2026-01-25 03:08:13.211988	286.1	14.8	-67.1	11.4
2026-01-25 03:08:14.334242	285.8	14.8	-66.8	11.9
2026-01-25 03:08:15.456534	285.6	14.7	-66.9	11.7
2026-01-25 03:08:16.578787	285.4	14.7	-66.6	10.4
2026-01-25 03:08:17.700545	285.2	14.6	-66.7	11.1
2026-01-25 03:08:18.822303	285.0	14.6	-66.6	11.6
2026-01-25 03:08:19.944563	284.8	14.5	-66.4	11.6
2026-01-25 03:08:21.070850	284.6	14.4	-66.3	11.6
2026-01-25 03:08:22.193103	284.4	14.4	-66.0	10.8
2026-01-25 03:08:23.315363	284.2	14.3	-66.3	11.5
2026-01-25 03:08:24.437617	284.0	14.3	-66.4	11.0
2026-01-25 03:08:25.559398	283.7	14.2	-66.4	11.4
2026-01-25 03:08:26.681651	283.5	14.2	-66.4	10.9
2026-01-25 03:08:27.803408	283.3	14.1	-66.3	10.6
2026-01-25 03:08:28.926174	283.1	14.1	-66.0	11.5
2026-01-25 03:08:30.048428	282.9	14.0	-65.8	11.2
2026-01-25 03:08:31.170681	282.7	13.9	-66.3	11.0
2026-01-25 03:08:32.292470	282.5	13.9	-66.5	10.7
2026-01-25 03:08:33.414724	282.3	13.8	-66.4	11.3
2026-01-25 03:08:34.536977	282.1	13.8	-66.6	11.9
2026-01-25 03:08:35.659230	281.9	13.7	-66.5	11.1
2026-01-25 03:08:36.787485	281.7	13.6	-66.6	10.7
2026-01-25 03:08:37.909739	281.5	13.6	-66.6	10.9
2026-01-25 03:08:39.031497	281.3	13.5	-66.3	11.1
2026-01-25 03:08:40.154750	281.2	13.5	-66.4	10.6
2026-01-25 03:08:41.277004	281.0	13.4	-66.4	10.9
2026-01-25 03:08:42.401258	280.8	13.3	-66.5	11.0
2026-01-25 03:08:43.523511	280.6	13.3	-66.3	10.3
2026-01-25 03:08:44.645765	280.4	13.2	-66.5	11.6
2026-01-25 03:08:45.768018	280.2	13.2	-66.3	10.4
2026-01-25 03:08:46.890271	280.0	13.1	-66.7	10.9
2026-01-25 03:08:48.012525	279.8	13.0	-66.6	11.3
2026-01-25 03:08:49.133329	279.6	13.0	-66.6	10.8
2026-01-25 03:08:50.255582	279.4	12.9	-66.6	10.8
2026-01-25 03:08:51.376844	279.2	12.9	-66.4	10.2
2026-01-25 03:08:52.499106	279.1	12.8	-66.5	10.0
2026-01-25 03:08:53.621368	278.9	12.7	-66.4	10.5
2026-01-25 03:08:54.743156	278.7	12.7	-66.5	10.7
2026-01-25 03:08:55.864915	278.5	12.6	-66.4	10.4
2026-01-25 03:08:56.986177	278.3	12.6	-66.9	10.2
2026-01-25 03:08:58.108439	278.1	12.5	-66.3	10.7
2026-01-25 03:08:59.230196	278.0	12.4	-66.9	9.7
2026-01-25 03:09:00.351954	277.8	12.4	-66.8	9.8
2026-01-25 03:09:01.473712	277.6	12.3	-67.1	10.5
2026-01-25 03:09:02.595965	277.4	12.2	-67.1	9.8
2026-01-25 03:09:03.718228	277.2	12.2	-66.9	10.3
2026-01-25 03:09:04.840986	277.1	12.1	-67.1	9.9
2026-01-25 03:09:05.963239	276.9	12.1	-66.7	9.8
2026-01-25 03:09:07.085493	276.7	12.0	-66.2	9.2
2026-01-25 03:09:08.206755	276.5	11.9	-66.9	9.9
2026-01-25 03:09:09.328536	276.4	11.9	-67.0	9.5
2026-01-25 03:09:10.450789	276.2	11.8	-66.7	8.4
2026-01-25 03:09:11.573052	276.0	11.7	-67.1	9.7
2026-01-25 03:09:12.694323	275.8	11.7	-66.8	9.4
2026-01-25 03:09:13.815584	275.7	11.6	-66.5	8.9
2026-01-25 03:09:14.937886	275.5	11.6	-66.4	8.8
2026-01-25 03:09:16.059644	275.3	11.5	-66.6	9.4
2026-01-25 03:09:17.180904	275.2	11.4	-66.4	8.7
2026-01-25 03:09:18.302673	275.0	11.4	-66.7	8.9
2026-01-25 03:09:19.424927	274.8	11.3	-66.7	9.1
2026-01-25 03:09:20.546229	274.6	11.2	-66.9	9.0
2026-01-25 03:09:21.667491	274.5	11.2	-66.8	8.4
2026-01-25 03:09:22.789249	274.3	11.1	-66.5	9.2
2026-01-25 03:09:23.911511	274.2	11.0	-66.6	8.4
2026-01-25 03:09:25.033795	274.0	11.0	-66.7	8.5
2026-01-25 03:09:26.155553	273.8	10.9	-67.0	8.8
2026-01-25 03:09:27.277319	273.7	10.9	-66.7	8.5
2026-01-25 03:09:28.402135	273.5	10.8	-66.4	8.8
2026-01-25 03:09:29.524388	273.3	10.7	-66.8	8.1
2026-01-25 03:09:30.646146	273.2	10.7	-66.6	8.1
2026-01-25 03:09:31.767913	273.0	10.6	-66.7	8.7
2026-01-25 03:09:32.888681	272.9	10.5	-66.4	9.2
2026-01-25 03:09:34.009487	272.7	10.5	-66.4	7.4
2026-01-25 03:09:35.130253	272.5	10.4	-67.0	9.0
2026-01-25 03:09:36.252011	272.4	10.3	-66.9	8.7
2026-01-25 03:09:37.373769	272.2	10.3	-66.6	7.7
2026-01-25 03:09:38.496022	272.1	10.2	-66.7	8.1
2026-01-25 03:09:39.617780	271.9	10.1	-66.6	8.2
2026-01-25 03:09:40.739538	271.8	10.1	-66.2	8.7
2026-01-25 03:09:41.861792	271.6	10.0	-66.4	8.2
2026-01-25 03:09:42.983549	271.5	9.9	-66.7	7.8
2026-01-25 03:09:44.105306	271.3	9.9	-66.1	7.9
2026-01-25 03:09:45.227560	271.2	9.8	-66.1	7.8
2026-01-25 03:09:46.349317	271.0	9.8	-66.4	7.5
2026-01-25 03:09:47.471571	270.8	9.7	-66.6	7.8
2026-01-25 03:09:48.593328	270.7	9.6	-66.5	7.4
2026-01-25 03:09:49.715591	270.6	9.6	-66.3	8.0
2026-01-25 03:09:50.837348	270.4	9.5	-65.9	8.3
2026-01-25 03:09:51.958611	270.3	9.4	-66.2	7.8
2026-01-25 03:09:53.084865	270.1	9.4	-65.9	7.2
2026-01-25 03:09:54.206624	270.0	9.3	-66.1	6.9
2026-01-25 03:09:55.328877	269.8	9.2	-66.3	8.1
2026-01-25 03:09:56.450640	269.7	9.2	-66.1	8.4
2026-01-25 03:09:57.572396	269.5	9.1	-65.9	7.8
2026-01-25 03:09:58.694650	269.4	9.0	-66.1	7.5
2026-01-25 03:09:59.815416	269.2	9.0	-66.4	6.8
2026-01-25 03:10:00.936174	269.1	8.9	-66.3	7.4
2026-01-25 03:10:02.058427	269.0	8.8	-65.5	8.0
2026-01-25 03:10:03.176183	268.8	8.8	-65.7	8.0
2026-01-25 03:10:04.293436	268.7	8.7	-66.3	8.2
2026-01-25 03:10:05.410192	268.5	8.7	-65.8	6.4
2026-01-25 03:10:06.528951	268.4	8.6	-66.3	7.3
2026-01-25 03:10:07.648716	268.3	8.5	-66.2	7.5
2026-01-25 03:10:08.768969	268.1	8.5	-65.7	7.2
2026-01-25 03:10:09.890733	268.0	8.4	-66.3	7.0
2026-01-25 03:10:11.009994	267.8	8.3	-66.1	7.9
2026-01-25 03:10:12.129751	267.7	8.3	-66.3	6.8
2026-01-25 03:10:13.250004	267.6	8.2	-66.0	7.0
2026-01-25 03:10:14.371762	267.4	8.1	-65.7	7.7
2026-01-25 03:10:15.493520	267.3	8.1	-65.8	7.4
2026-01-25 03:10:16.614286	267.2	8.0	-65.9	5.4
2026-01-25 03:10:17.736554	267.0	7.9	-65.7	7.1
2026-01-25 03:10:18.858312	266.9	7.9	-66.2	6.8
2026-01-25 03:10:19.980565	266.8	7.8	-65.7	8.1
2026-01-25 03:10:21.102323	266.6	7.7	-66.1	7.9
2026-01-25 03:10:22.225081	266.5	7.7	-65.9	7.1
2026-01-25 03:10:23.345848	266.4	7.6	-65.7	6.3
2026-01-25 03:10:24.468110	266.3	7.6	-66.0	5.8
2026-01-25 03:10:25.589873	266.1	7.5	-65.5	5.7
2026-01-25 03:10:26.711132	266.0	7.4	-65.2	6.9
2026-01-25 03:10:27.832374	265.9	7.4	-65.6	8.2
2026-01-25 03:10:28.954131	265.7	7.3	-65.9	8.3
2026-01-25 03:10:30.075889	265.6	7.2	-65.5	7.7
2026-01-25 03:10:31.197655	265.5	7.2	-65.2	6.8
2026-01-25 03:10:32.318927	265.4	7.1	-65.4	7.0
2026-01-25 03:10:33.439694	265.2	7.0	-65.8	7.9
2026-01-25 03:10:34.561947	265.1	7.0	-66.0	6.5
2026-01-25 03:10:35.684200	265.0	6.9	-65.9	6.9
2026-01-25 03:10:36.806454	264.9	6.8	-66.0	5.6
2026-01-25 03:10:37.928212	264.7	6.8	-66.0	4.9
2026-01-25 03:10:39.050476	264.6	6.7	-66.5	3.9
2026-01-25 03:10:40.172729	264.5	6.7	-66.0	2.4
2026-01-25 03:10:41.297991	264.4	6.6	-65.0	0.7
2026-01-25 03:10:42.419749	264.3	6.5	-66.4	1.6
2026-01-25 03:10:43.542002	264.1	6.5	-66.4	0.9
2026-01-25 03:10:44.664760	264.0	6.4	-66.2	0.0
2026-01-25 03:10:45.786519	263.9	6.3	-66.3	0.0
2026-01-25 03:10:46.908772	263.8	6.3	-66.5	0.0
2026-01-25 03:10:48.035036	263.7	6.2	-66.7	0.0
2026-01-25 03:10:49.157289	263.5	6.1	-66.8	0.0
2026-01-25 03:10:50.279046	263.4	6.1	-66.3	0.0
2026-01-25 03:10:51.400307	263.3	6.0	-67.4	0.0
2026-01-25 03:10:52.522561	263.2	6.0	-69.6	0.0
2026-01-25 03:10:53.644319	263.1	5.9	-68.6	0.0
2026-01-25 03:10:54.766077	263.0	5.8	-68.7	0.0
2026-01-25 03:10:55.887835	262.9	5.8	-70.9	0.0
2026-01-25 03:10:57.009592	262.7	5.7	-71.5	0.0
2026-01-25 03:10:58.131350	262.6	5.6	-71.1	0.0
2026-01-25 03:10:59.253604	262.5	5.6	-70.6	0.0
2026-01-25 03:11:00.375857	262.4	5.5	-71.6	0.0
2026-01-25 03:11:01.497615	262.3	5.4	-72.1	0.0
2026-01-25 03:11:02.619373	262.2	5.4	-72.4	0.0
2026-01-25 03:11:03.741130	262.1	5.3	-72.5	0.0
2026-01-25 03:11:04.863383	262.0	5.3	-72.3	0.0
2026-01-25 03:11:05.985637	261.9	5.2	-72.3	0.0
2026-01-25 03:11:07.107396	261.7	5.1	-72.5	0.0
2026-01-25 03:11:08.228657	261.6	5.1	-72.2	0.0
2026-01-25 03:11:09.350415	261.5	5.0	-72.6	0.0
#Closed at: 2026-01-25 03:01:06.684029