passes_logs/2026/01/25/PlanumMoscow/PlanumMoscow__20260125_012029_METEOR-M2_4_rec.log

#Pass ID: 20260125_012029_METEOR-M2 4
#Satellite: METEOR-M2 4
#Configuration: METEOR-M2 4
#Start time: 2026-01-25 01:20:34.554746

#LorettStation: 1.0.0 05.05.2024
#Station: PlanumMoscow
#Location: 37.6253844 lon 55.6713361 lat
#TLE: 1 59051U 24039A   25293.94737965  .00000087  00000+0  58459-4 0  9998
#TLE: 2 59051  98.6671 251.7071 0007726 135.4772 224.7028 14.22388966 85257

#Time	Az	El	Level	SNR
2026-01-25 01:24:12.969916	6.7	28.9	-54.6	0.0
2026-01-25 01:24:15.214936	6.6	29.3	-56.1	0.8
2026-01-25 01:24:17.457956	6.4	29.7	-56.1	0.1
2026-01-25 01:24:19.701510	6.2	30.2	-56.3	0.0
2026-01-25 01:24:21.946017	6.0	30.6	-56.1	0.0
2026-01-25 01:24:24.190028	5.8	31.0	-56.0	0.0
2026-01-25 01:24:26.432552	5.6	31.4	-56.3	0.5
2026-01-25 01:24:28.675579	5.4	31.9	-56.6	0.4
2026-01-25 01:24:30.918600	5.1	32.3	-57.3	0.6
2026-01-25 01:24:33.162611	4.9	32.8	-57.3	0.7
2026-01-25 01:24:35.405631	4.7	33.2	-56.8	0.3
2026-01-25 01:24:37.649652	4.4	33.7	-56.8	0.0
2026-01-25 01:24:39.894167	4.2	34.2	-57.1	1.9
2026-01-25 01:24:42.137187	3.9	34.6	-57.1	0.7
2026-01-25 01:24:44.380703	3.7	35.1	-57.2	1.3
2026-01-25 01:24:46.624218	3.4	35.6	-57.4	1.5
2026-01-25 01:24:48.867238	3.1	36.1	-57.5	2.6
2026-01-25 01:24:51.111249	2.9	36.6	-57.8	2.5
2026-01-25 01:24:53.355268	2.6	37.1	-57.7	2.4
2026-01-25 01:24:55.598287	2.3	37.7	-57.6	2.8
2026-01-25 01:24:57.846308	1.9	38.2	-57.9	2.5
2026-01-25 01:25:00.089823	1.6	38.7	-57.8	2.1
2026-01-25 01:25:02.333338	1.3	39.3	-58.0	3.1
2026-01-25 01:25:04.573356	0.9	39.8	-58.1	2.4
2026-01-25 01:25:06.814375	0.6	40.4	-57.8	2.3
2026-01-25 01:25:09.056890	0.2	40.9	-57.8	3.0
2026-01-25 01:25:11.299404	359.8	41.5	-58.0	2.5
2026-01-25 01:25:13.540919	359.4	42.1	-58.6	2.7
2026-01-25 01:25:15.783940	359.0	42.7	-58.5	3.2
2026-01-25 01:25:18.022949	358.5	43.3	-58.4	2.6
2026-01-25 01:25:20.263464	358.1	43.9	-58.3	3.5
2026-01-25 01:25:22.504483	357.6	44.5	-58.4	3.5
2026-01-25 01:25:24.746503	357.1	45.1	-58.3	3.1
2026-01-25 01:25:26.985036	356.6	45.7	-58.4	2.7
2026-01-25 01:25:29.229056	356.1	46.4	-58.8	2.8
2026-01-25 01:25:31.470076	355.5	47.0	-58.9	2.1
2026-01-25 01:25:33.713088	355.0	47.6	-58.7	2.3
2026-01-25 01:25:35.955603	354.4	48.3	-58.6	0.2
2026-01-25 01:25:38.194631	353.7	49.0	-58.6	0.7
2026-01-25 01:25:40.436650	353.1	49.6	-58.7	0.0
2026-01-25 01:25:42.678164	352.4	50.3	-58.7	0.0
2026-01-25 01:25:44.920678	351.7	51.0	-58.6	0.0
2026-01-25 01:25:47.163688	350.9	51.7	-58.8	0.0
2026-01-25 01:25:49.402706	350.1	52.3	-58.8	0.0
2026-01-25 01:25:51.641725	349.3	53.0	-58.8	0.0
2026-01-25 01:25:53.883248	348.5	53.7	-58.6	0.0
2026-01-25 01:25:56.122267	347.6	54.4	-58.5	0.0
2026-01-25 01:25:58.364286	346.6	55.1	-58.3	0.0
2026-01-25 01:26:00.601807	345.6	55.8	-58.2	0.0
2026-01-25 01:26:02.850837	344.6	56.5	-58.2	0.0
2026-01-25 01:26:05.092848	343.4	57.2	-58.1	0.0
2026-01-25 01:26:07.336858	342.3	57.9	-57.8	0.0
2026-01-25 01:26:09.579886	341.1	58.6	-58.0	0.0
2026-01-25 01:26:11.807424	339.8	59.3	-58.5	0.0
2026-01-25 01:26:14.051435	338.4	60.0	-58.5	0.0
2026-01-25 01:26:16.293445	337.0	60.6	-58.5	0.0
2026-01-25 01:26:18.536960	335.5	61.3	-58.5	0.0
2026-01-25 01:26:20.778987	333.9	61.9	-58.4	0.0
2026-01-25 01:26:23.022494	332.2	62.6	-58.5	0.0
2026-01-25 01:26:25.263512	330.4	63.2	-58.5	0.0
2026-01-25 01:26:27.506035	328.5	63.8	-59.0	0.0
2026-01-25 01:26:29.748055	326.6	64.4	-59.4	0.0
2026-01-25 01:26:31.991570	324.5	64.9	-59.2	0.0
2026-01-25 01:26:34.232590	322.3	65.5	-59.0	0.0
2026-01-25 01:26:36.475104	320.0	66.0	-59.1	0.0
2026-01-25 01:26:38.718629	317.7	66.4	-59.2	0.0
2026-01-25 01:26:40.960152	315.2	66.9	-59.5	0.0
2026-01-25 01:26:43.203170	312.6	67.2	-59.5	0.2
2026-01-25 01:26:45.443694	309.9	67.6	-59.8	0.5
2026-01-25 01:26:47.689210	307.2	67.9	-59.9	0.0
2026-01-25 01:26:49.933229	304.4	68.2	-60.2	1.5
2026-01-25 01:26:52.172239	301.5	68.4	-60.1	1.7
2026-01-25 01:26:54.414755	298.5	68.5	-60.3	2.4
2026-01-25 01:26:56.656270	295.5	68.6	-60.5	3.2
2026-01-25 01:26:58.899281	292.5	68.7	-60.7	2.2
2026-01-25 01:27:01.143293	289.5	68.6	-60.9	1.6
2026-01-25 01:27:03.390304	286.5	68.6	-61.2	1.5
2026-01-25 01:27:05.634316	283.5	68.5	-61.0	1.9
2026-01-25 01:27:07.878327	280.5	68.3	-61.2	2.7
2026-01-25 01:27:10.119840	277.7	68.1	-61.3	4.1
2026-01-25 01:27:12.362347	274.9	67.8	-61.6	4.9
2026-01-25 01:27:14.605357	272.1	67.5	-61.8	4.3
2026-01-25 01:27:16.848369	269.5	67.1	-61.8	4.1
2026-01-25 01:27:19.092380	266.9	66.7	-61.8	3.2
2026-01-25 01:27:21.336391	264.5	66.3	-61.9	2.5
2026-01-25 01:27:23.580403	262.1	65.8	-62.0	2.2
2026-01-25 01:27:25.824925	259.9	65.3	-62.3	3.3
2026-01-25 01:27:28.068936	257.8	64.7	-62.5	3.6
2026-01-25 01:27:30.312461	255.7	64.2	-62.5	4.4
2026-01-25 01:27:32.555481	253.8	63.6	-62.1	4.7
2026-01-25 01:27:34.798998	252.0	63.0	-62.2	4.9
2026-01-25 01:27:37.041513	250.2	62.3	-62.4	4.2
2026-01-25 01:27:39.280530	248.6	61.7	-63.1	3.5
2026-01-25 01:27:41.525541	247.0	61.0	-63.4	3.8
2026-01-25 01:27:43.769058	245.5	60.4	-63.7	3.3
2026-01-25 01:27:46.012582	244.1	59.7	-63.7	3.8
2026-01-25 01:27:48.252120	242.8	59.0	-64.5	4.4
2026-01-25 01:27:50.497162	241.5	58.3	-64.4	6.1
2026-01-25 01:27:52.738195	240.3	57.6	-64.0	6.1
2026-01-25 01:27:54.983208	239.1	56.9	-65.1	7.6
2026-01-25 01:27:57.226227	238.0	56.2	-64.4	7.1
2026-01-25 01:27:59.466246	237.0	55.5	-64.9	6.2
2026-01-25 01:28:01.710753	236.0	54.8	-65.7	7.4
2026-01-25 01:28:03.954764	235.1	54.1	-65.9	8.4
2026-01-25 01:28:06.197797	234.2	53.4	-64.7	6.8
2026-01-25 01:28:08.435302	233.3	52.7	-65.8	9.2
2026-01-25 01:28:10.678809	232.5	52.0	-66.4	9.5
2026-01-25 01:28:12.913819	231.8	51.3	-65.4	9.4
2026-01-25 01:28:15.153334	231.0	50.6	-66.1	9.5
2026-01-25 01:28:17.391351	230.3	50.0	-66.3	9.6
2026-01-25 01:28:19.628856	229.7	49.3	-66.1	8.8
2026-01-25 01:28:21.864369	229.0	48.6	-66.1	9.4
2026-01-25 01:28:24.103884	228.4	48.0	-66.7	10.4
2026-01-25 01:28:26.344904	227.8	47.3	-66.1	9.5
2026-01-25 01:28:28.588420	227.2	46.7	-65.7	9.4
2026-01-25 01:28:30.832431	226.7	46.0	-66.2	8.9
2026-01-25 01:28:33.074955	226.2	45.4	-65.7	8.7
2026-01-25 01:28:35.318470	225.7	44.8	-65.7	6.8
2026-01-25 01:28:37.562976	225.2	44.2	-65.9	8.7
2026-01-25 01:28:39.806996	224.7	43.5	-66.1	9.8
2026-01-25 01:28:42.049022	224.3	42.9	-65.6	7.3
2026-01-25 01:28:44.292537	223.8	42.3	-65.3	7.0
2026-01-25 01:28:46.541549	223.4	41.8	-65.5	9.7
2026-01-25 01:28:48.785065	223.0	41.2	-65.4	9.2
2026-01-25 01:28:51.027084	222.6	40.6	-65.1	9.7
2026-01-25 01:28:53.267599	222.3	40.0	-64.8	8.7
2026-01-25 01:28:55.510123	221.9	39.5	-64.9	9.6
2026-01-25 01:28:57.753150	221.6	38.9	-64.5	9.9
2026-01-25 01:28:59.991664	221.2	38.4	-64.1	9.9
2026-01-25 01:29:02.235180	220.9	37.8	-64.6	9.7
2026-01-25 01:29:04.478200	220.6	37.3	-64.7	10.0
2026-01-25 01:29:06.722211	220.3	36.8	-64.7	10.7
2026-01-25 01:29:08.965725	220.0	36.3	-64.8	11.9
2026-01-25 01:29:11.210232	219.7	35.8	-64.7	10.8
2026-01-25 01:29:13.452251	219.4	35.3	-65.1	12.5
2026-01-25 01:29:15.690773	219.2	34.8	-65.2	11.1
2026-01-25 01:29:17.933289	218.9	34.3	-64.9	11.7
2026-01-25 01:29:20.171821	218.6	33.8	-65.3	11.1
2026-01-25 01:29:22.415335	218.4	33.4	-65.0	12.6
2026-01-25 01:29:24.658851	218.2	32.9	-65.0	11.4
2026-01-25 01:29:26.901872	217.9	32.4	-64.0	11.0
2026-01-25 01:29:29.144891	217.7	32.0	-62.0	7.9
2026-01-25 01:29:31.389398	217.5	31.5	-64.4	11.1
2026-01-25 01:29:33.632913	217.3	31.1	-64.5	10.7
2026-01-25 01:29:35.876924	217.1	30.7	-64.6	10.2
2026-01-25 01:29:38.120441	216.9	30.2	-64.2	10.2
2026-01-25 01:29:40.368957	216.7	29.8	-64.3	10.0
2026-01-25 01:29:42.612472	216.5	29.4	-64.2	9.6
2026-01-25 01:29:44.856482	216.3	29.0	-64.2	9.9
2026-01-25 01:29:47.102996	216.1	28.6	-63.9	9.4
2026-01-25 01:29:49.346017	215.9	28.2	-63.6	9.0
2026-01-25 01:29:51.590028	215.8	27.8	-63.6	8.6
2026-01-25 01:29:53.835545	215.6	27.4	-62.2	8.6
2026-01-25 01:29:56.078564	215.4	27.0	-63.5	7.8
2026-01-25 01:29:58.322575	215.3	26.6	-63.3	8.3
2026-01-25 01:30:00.570596	215.1	26.3	-63.1	8.0
2026-01-25 01:30:02.809615	215.0	25.9	-63.0	7.8
2026-01-25 01:30:05.052138	214.8	25.5	-61.6	4.8
2026-01-25 01:30:07.296645	214.7	25.2	-63.2	7.8
2026-01-25 01:30:09.542177	214.5	24.8	-63.1	7.3
2026-01-25 01:30:11.785720	214.4	24.5	-63.4	8.1
2026-01-25 01:30:14.029257	214.3	24.1	-63.4	8.5
2026-01-25 01:30:16.273793	214.1	23.8	-63.5	8.2
2026-01-25 01:30:18.517821	214.0	23.4	-63.6	7.6
2026-01-25 01:30:20.760849	213.9	23.1	-63.4	7.9
2026-01-25 01:30:23.002923	213.8	22.8	-63.7	7.9
2026-01-25 01:30:25.246470	213.6	22.5	-64.0	7.6
2026-01-25 01:30:27.489491	213.5	22.1	-64.0	8.5
2026-01-25 01:30:29.733511	213.4	21.8	-63.7	7.6
2026-01-25 01:30:31.975569	213.3	21.5	-64.0	8.5
2026-01-25 01:30:34.218101	213.2	21.2	-64.4	8.9
2026-01-25 01:30:36.460663	213.1	20.9	-64.4	8.9
2026-01-25 01:30:38.704177	213.0	20.6	-64.6	9.0
2026-01-25 01:30:40.946737	212.9	20.3	-65.0	9.2
2026-01-25 01:30:43.190253	212.8	20.0	-65.4	9.7
2026-01-25 01:30:45.433776	212.7	19.7	-65.4	9.7
2026-01-25 01:30:47.676845	212.6	19.4	-65.7	9.8
2026-01-25 01:30:49.922892	212.5	19.1	-66.1	10.8
2026-01-25 01:30:52.167435	212.4	18.9	-65.7	10.2
2026-01-25 01:30:54.409960	212.3	18.6	-65.9	10.9
2026-01-25 01:30:56.656511	212.2	18.3	-65.1	10.1
2026-01-25 01:30:58.901026	212.1	18.0	-65.8	10.8
2026-01-25 01:31:01.145037	212.0	17.8	-64.9	11.0
2026-01-25 01:31:03.388584	211.9	17.5	-66.2	11.5
2026-01-25 01:31:05.631150	211.9	17.2	-66.2	10.6
2026-01-25 01:31:07.875657	211.8	17.0	-66.0	12.0
2026-01-25 01:31:10.118179	211.7	16.7	-65.4	10.6
2026-01-25 01:31:12.363246	211.6	16.5	-65.8	12.0
2026-01-25 01:31:14.606281	211.5	16.2	-66.2	10.3
2026-01-25 01:31:16.849842	211.5	15.9	-66.3	11.0
2026-01-25 01:31:19.093862	211.4	15.7	-66.2	10.5
2026-01-25 01:31:21.338377	211.3	15.5	-66.3	10.2
2026-01-25 01:31:23.581920	211.2	15.2	-66.5	10.2
2026-01-25 01:31:25.825444	211.2	15.0	-66.8	11.0
2026-01-25 01:31:28.068998	211.1	14.7	-65.7	7.4
2026-01-25 01:31:30.312522	211.0	14.5	-66.6	11.0
2026-01-25 01:31:32.556059	211.0	14.3	-66.3	10.4
2026-01-25 01:31:34.799583	210.9	14.0	-66.5	10.6
2026-01-25 01:31:37.042646	210.8	13.8	-64.9	6.2
2026-01-25 01:31:39.286665	210.8	13.6	-66.2	10.8
2026-01-25 01:31:41.529685	210.7	13.3	-66.3	10.4
2026-01-25 01:31:43.772734	210.7	13.1	-67.2	10.9
2026-01-25 01:31:46.016753	210.6	12.9	-66.8	10.5
2026-01-25 01:31:48.260795	210.5	12.7	-67.0	11.0
2026-01-25 01:31:50.505348	210.5	12.5	-66.6	11.0
2026-01-25 01:31:52.748863	210.4	12.2	-66.9	11.1
2026-01-25 01:31:54.993385	210.4	12.0	-66.9	11.5
2026-01-25 01:31:57.237431	210.3	11.8	-66.4	9.7
2026-01-25 01:31:59.481458	210.2	11.6	-66.3	10.4
2026-01-25 01:32:01.725486	210.2	11.4	-66.3	10.3
2026-01-25 01:32:03.968549	210.1	11.2	-66.4	10.1
2026-01-25 01:32:06.211082	210.1	11.0	-66.2	9.9
2026-01-25 01:32:08.455130	210.0	10.8	-66.1	8.8
2026-01-25 01:32:10.698653	210.0	10.6	-66.3	8.2
2026-01-25 01:32:12.940710	209.9	10.4	-66.3	8.8
2026-01-25 01:32:15.185225	209.9	10.2	-65.8	7.7
2026-01-25 01:32:17.431749	209.8	10.0	-65.8	7.4
2026-01-25 01:32:19.676286	209.8	9.8	-65.5	7.6
2026-01-25 01:32:21.919808	209.7	9.6	-65.4	7.5
2026-01-25 01:32:24.163875	209.7	9.4	-65.7	7.5
2026-01-25 01:32:26.408398	209.6	9.2	-65.4	7.5
2026-01-25 01:32:28.652439	209.6	9.0	-65.2	6.9
2026-01-25 01:32:30.895466	209.6	8.8	-65.1	6.8
2026-01-25 01:32:33.137493	209.5	8.7	-64.6	5.1
2026-01-25 01:32:35.380067	209.5	8.5	-65.3	6.2
2026-01-25 01:32:37.623127	209.4	8.3	-65.4	6.2
2026-01-25 01:32:39.866199	209.4	8.1	-65.2	6.0
2026-01-25 01:32:42.109724	209.3	7.9	-65.2	6.1
2026-01-25 01:32:44.353773	209.3	7.7	-64.9	6.2
2026-01-25 01:32:46.597303	209.3	7.6	-64.9	5.6
2026-01-25 01:32:48.840323	209.2	7.4	-64.9	5.8
2026-01-25 01:32:51.083884	209.2	7.2	-64.6	5.6
2026-01-25 01:32:53.328399	209.1	7.0	-63.9	4.8
2026-01-25 01:32:55.573472	209.1	6.9	-64.2	3.8
2026-01-25 01:32:57.817018	209.1	6.7	-64.1	4.3
2026-01-25 01:33:00.061029	209.0	6.5	-63.4	3.7
2026-01-25 01:33:02.305536	209.0	6.4	-63.2	4.0
2026-01-25 01:33:04.548096	209.0	6.2	-63.7	2.9
2026-01-25 01:33:06.792603	208.9	6.0	-65.1	5.7
2026-01-25 01:33:09.035631	208.9	5.8	-68.3	0.0
2026-01-25 01:33:11.281176	208.9	5.7	-68.8	0.0
2026-01-25 01:33:13.525690	208.8	5.5	-68.9	0.0
2026-01-25 01:33:15.769729	208.8	5.4	-70.0	0.0
2026-01-25 01:33:18.013747	208.7	5.2	-67.1	0.0
2026-01-25 01:33:20.257285	208.7	5.0	-66.5	0.0
#Closed at: 2026-01-25 01:20:29.556659