passes_logs/2026/01/25/PlanumMoscow/PlanumMoscow__20260125_110946_METEOR-M2_4_rec.log

#Pass ID: 20260125_110946_METEOR-M2 4
#Satellite: METEOR-M2 4
#Configuration: METEOR-M2 4
#Start time: 2026-01-25 11:09:51.450335

#LorettStation: 1.0.0 05.05.2024
#Station: PlanumMoscow
#Location: 37.6253844 lon 55.6713361 lat
#TLE: 1 59051U 24039A   25293.94737965  .00000087  00000+0  58459-4 0  9998
#TLE: 2 59051  98.6671 251.7071 0007726 135.4772 224.7028 14.22388966 85257

#Time	Az	El	Level	SNR
2026-01-25 11:13:29.862194	152.9	29.6	-64.9	13.6
2026-01-25 11:13:32.105205	152.8	30.1	-65.3	13.4
2026-01-25 11:13:34.347225	152.7	30.5	-65.2	13.1
2026-01-25 11:13:36.590741	152.6	30.9	-65.3	12.8
2026-01-25 11:13:38.832751	152.6	31.4	-65.0	13.1
2026-01-25 11:13:41.074257	152.5	31.8	-65.3	12.8
2026-01-25 11:13:43.316782	152.3	32.3	-65.6	14.1
2026-01-25 11:13:45.558298	152.2	32.8	-64.9	12.8
2026-01-25 11:13:47.799309	152.1	33.2	-65.3	13.0
2026-01-25 11:13:50.042329	152.0	33.7	-65.5	13.8
2026-01-25 11:13:52.283349	151.9	34.2	-66.1	15.3
2026-01-25 11:13:54.525360	151.8	34.7	-65.7	14.8
2026-01-25 11:13:56.768866	151.7	35.2	-65.8	14.9
2026-01-25 11:13:59.010907	151.5	35.7	-65.3	14.2
2026-01-25 11:14:01.257920	151.4	36.3	-65.8	15.0
2026-01-25 11:14:03.500941	151.3	36.8	-65.7	14.8
2026-01-25 11:14:05.744953	151.1	37.3	-66.2	15.2
2026-01-25 11:14:07.986972	151.0	37.9	-66.1	15.5
2026-01-25 11:14:10.228487	150.8	38.4	-66.0	15.5
2026-01-25 11:14:12.472499	150.7	39.0	-66.3	15.6
2026-01-25 11:14:14.720512	150.5	39.6	-66.2	14.6
2026-01-25 11:14:16.964523	150.3	40.1	-66.0	14.6
2026-01-25 11:14:19.206038	150.1	40.7	-66.3	15.5
2026-01-25 11:14:21.452563	150.0	41.3	-66.5	15.3
2026-01-25 11:14:23.694080	149.8	42.0	-66.5	15.8
2026-01-25 11:14:25.937595	149.6	42.6	-66.3	15.9
2026-01-25 11:14:28.181607	149.4	43.2	-66.8	15.3
2026-01-25 11:14:30.422635	149.1	43.8	-66.6	14.9
2026-01-25 11:14:32.665655	148.9	44.5	-66.8	15.2
2026-01-25 11:14:34.906170	148.7	45.2	-66.6	14.9
2026-01-25 11:14:37.148181	148.4	45.8	-67.1	15.0
2026-01-25 11:14:39.391697	148.2	46.5	-67.1	14.5
2026-01-25 11:14:41.635709	147.9	47.2	-67.4	14.7
2026-01-25 11:14:43.879720	147.6	47.9	-67.5	14.1
2026-01-25 11:14:46.123245	147.3	48.6	-67.6	14.0
2026-01-25 11:14:48.367762	147.0	49.4	-67.4	13.7
2026-01-25 11:14:50.611278	146.7	50.1	-67.3	13.7
2026-01-25 11:14:52.855299	146.4	50.9	-67.5	13.1
2026-01-25 11:14:55.097806	146.0	51.6	-67.5	13.0
2026-01-25 11:14:57.341816	145.6	52.4	-67.7	13.2
2026-01-25 11:14:59.583332	145.2	53.2	-67.6	11.8
2026-01-25 11:15:01.830354	144.8	54.0	-68.0	12.4
2026-01-25 11:15:04.074364	144.4	54.8	-67.4	11.7
2026-01-25 11:15:06.319384	143.9	55.6	-68.1	12.0
2026-01-25 11:15:08.558967	143.4	56.4	-68.0	12.0
2026-01-25 11:15:10.803986	142.9	57.3	-67.3	10.4
2026-01-25 11:15:13.046047	142.3	58.1	-67.4	9.9
2026-01-25 11:15:15.289572	141.7	59.0	-68.1	10.8
2026-01-25 11:15:17.533625	141.0	59.8	-68.3	10.2
2026-01-25 11:15:19.777645	140.4	60.7	-68.4	10.6
2026-01-25 11:15:22.021705	139.6	61.6	-67.9	9.5
2026-01-25 11:15:24.263742	138.8	62.5	-68.1	10.3
2026-01-25 11:15:26.507288	138.0	63.4	-68.6	11.0
2026-01-25 11:15:28.751299	137.0	64.3	-68.2	8.8
2026-01-25 11:15:30.994327	136.0	65.2	-68.3	10.4
2026-01-25 11:15:33.237392	134.9	66.1	-67.0	10.5
2026-01-25 11:15:35.479925	133.8	67.0	-67.5	9.6
2026-01-25 11:15:37.722491	132.5	67.9	-68.0	9.2
2026-01-25 11:15:39.966015	131.1	68.8	-67.7	10.0
2026-01-25 11:15:42.208082	129.5	69.7	-67.2	11.2
2026-01-25 11:15:44.451119	127.8	70.6	-67.5	9.5
2026-01-25 11:15:46.693176	125.9	71.5	-68.4	10.3
2026-01-25 11:15:48.936692	123.9	72.3	-67.8	9.1
2026-01-25 11:15:51.180713	121.6	73.2	-68.4	10.7
2026-01-25 11:15:53.424795	119.0	74.0	-68.4	10.2
2026-01-25 11:15:55.667328	116.1	74.8	-68.3	10.8
2026-01-25 11:15:57.913377	113.0	75.6	-67.9	12.5
2026-01-25 11:16:00.156398	109.4	76.3	-67.3	12.1
2026-01-25 11:16:02.400416	105.5	77.0	-67.6	11.8
2026-01-25 11:16:04.642970	101.1	77.6	-67.3	12.1
2026-01-25 11:16:06.885503	96.4	78.1	-67.3	12.9
2026-01-25 11:16:09.129569	91.2	78.6	-67.0	11.3
2026-01-25 11:16:11.373102	85.6	78.9	-66.0	11.6
2026-01-25 11:16:13.620169	79.7	79.2	-66.5	9.2
2026-01-25 11:16:15.863694	73.6	79.3	-67.7	10.4
2026-01-25 11:16:18.106714	67.4	79.3	-68.1	12.0
2026-01-25 11:16:20.351277	61.3	79.2	-67.4	12.3
2026-01-25 11:16:22.593801	55.4	78.9	-67.3	12.1
2026-01-25 11:16:24.837365	49.9	78.6	-67.1	12.3
2026-01-25 11:16:27.081880	44.7	78.1	-67.2	12.4
2026-01-25 11:16:29.323453	39.9	77.6	-67.6	11.6
2026-01-25 11:16:31.566968	35.5	77.0	-67.7	11.7
2026-01-25 11:16:33.810502	31.6	76.3	-66.8	12.0
2026-01-25 11:16:36.055047	28.1	75.6	-67.9	12.3
2026-01-25 11:16:38.297589	24.9	74.8	-67.8	12.2
2026-01-25 11:16:40.540160	22.0	74.0	-67.0	11.0
2026-01-25 11:16:42.783684	19.5	73.2	-67.6	12.0
2026-01-25 11:16:45.032735	17.2	72.4	-67.4	11.7
2026-01-25 11:16:47.276755	15.1	71.5	-67.1	9.9
2026-01-25 11:16:49.520271	13.2	70.6	-67.6	11.3
2026-01-25 11:16:51.764827	11.5	69.7	-67.3	10.4
2026-01-25 11:16:54.009334	10.0	68.8	-66.7	9.7
2026-01-25 11:16:56.252849	8.5	67.9	-67.1	11.0
2026-01-25 11:16:58.495877	7.3	67.0	-67.3	11.9
2026-01-25 11:17:00.739431	6.1	66.1	-66.6	10.9
2026-01-25 11:17:02.981966	5.0	65.2	-66.8	11.5
2026-01-25 11:17:05.224520	4.0	64.3	-66.5	11.2
2026-01-25 11:17:07.470540	3.1	63.4	-67.3	11.1
2026-01-25 11:17:09.715047	2.2	62.5	-65.4	6.4
2026-01-25 11:17:11.957599	1.4	61.6	-66.7	8.6
2026-01-25 11:17:14.200660	0.7	60.7	-67.0	7.4
2026-01-25 11:17:16.444184	360.0	59.9	-66.7	8.2
2026-01-25 11:17:18.688202	359.3	59.0	-66.7	9.0
2026-01-25 11:17:20.931263	358.7	58.1	-66.5	8.1
2026-01-25 11:17:23.175778	358.2	57.3	-67.0	7.2
2026-01-25 11:17:25.424295	357.6	56.5	-67.7	7.6
2026-01-25 11:17:27.666850	357.1	55.6	-66.9	5.3
2026-01-25 11:17:29.910869	356.7	54.8	-67.5	7.3
2026-01-25 11:17:32.154931	356.2	54.0	-66.8	6.5
2026-01-25 11:17:34.398454	355.8	53.2	-67.4	5.8
2026-01-25 11:17:36.641012	355.4	52.4	-66.8	4.5
2026-01-25 11:17:38.884542	355.0	51.7	-66.6	5.6
2026-01-25 11:17:41.129572	354.7	50.9	-66.8	6.7
2026-01-25 11:17:43.374135	354.3	50.2	-66.7	6.4
2026-01-25 11:17:45.618154	354.0	49.4	-67.0	8.8
2026-01-25 11:17:47.862213	353.7	48.7	-67.4	7.1
2026-01-25 11:17:50.104753	353.4	48.0	-67.4	8.1
2026-01-25 11:17:52.347307	353.1	47.3	-66.7	7.8
2026-01-25 11:17:54.591327	352.8	46.6	-65.8	7.1
2026-01-25 11:17:56.839843	352.6	45.9	-66.2	7.0
2026-01-25 11:17:59.082893	352.3	45.2	-66.6	8.4
2026-01-25 11:18:01.324435	352.1	44.6	-65.6	7.9
2026-01-25 11:18:03.566989	351.9	43.9	-66.9	9.6
2026-01-25 11:18:05.811001	351.7	43.3	-66.7	9.3
2026-01-25 11:18:08.054066	351.5	42.7	-66.4	9.7
2026-01-25 11:18:10.297590	351.3	42.0	-66.1	8.4
2026-01-25 11:18:12.542135	351.1	41.4	-66.5	9.5
2026-01-25 11:18:14.786650	350.9	40.8	-66.4	9.6
2026-01-25 11:18:17.031158	350.7	40.2	-66.3	9.8
2026-01-25 11:18:19.274209	350.5	39.7	-66.5	10.6
2026-01-25 11:18:21.518715	350.4	39.1	-66.3	10.1
2026-01-25 11:18:23.763222	350.2	38.5	-66.6	10.8
2026-01-25 11:18:26.007233	350.1	38.0	-66.5	10.3
2026-01-25 11:18:28.251283	349.9	37.4	-65.5	9.1
2026-01-25 11:18:30.495318	349.8	36.9	-65.7	10.9
2026-01-25 11:18:32.738865	349.6	36.4	-66.1	9.9
2026-01-25 11:18:34.983389	349.5	35.8	-65.1	8.5
2026-01-25 11:18:37.227896	349.4	35.3	-65.8	9.9
2026-01-25 11:18:39.471937	349.3	34.8	-65.0	9.5
2026-01-25 11:18:41.716978	349.1	34.3	-65.0	9.0
2026-01-25 11:18:43.961003	349.0	33.8	-65.5	9.6
2026-01-25 11:18:46.205518	348.9	33.4	-65.4	9.7
2026-01-25 11:18:48.450064	348.8	32.9	-66.0	10.2
2026-01-25 11:18:50.693587	348.7	32.4	-65.2	8.9
2026-01-25 11:18:52.938094	348.6	32.0	-65.3	9.8
2026-01-25 11:18:55.182156	348.5	31.5	-65.5	8.2
2026-01-25 11:18:57.426671	348.4	31.1	-65.0	10.0
2026-01-25 11:18:59.670721	348.3	30.6	-65.7	9.1
2026-01-25 11:19:01.915236	348.2	30.2	-65.4	7.8
2026-01-25 11:19:04.158775	348.1	29.8	-65.9	11.1
2026-01-25 11:19:06.407807	348.0	29.3	-65.7	9.2
2026-01-25 11:19:08.652344	348.0	28.9	-65.4	9.2
2026-01-25 11:19:10.896851	347.9	28.5	-64.9	9.5
2026-01-25 11:19:13.141358	347.8	28.1	-65.7	10.9
2026-01-25 11:19:15.385941	347.7	27.7	-66.0	10.2
2026-01-25 11:19:17.630456	347.6	27.3	-65.7	10.1
2026-01-25 11:19:19.875003	347.6	26.9	-65.0	8.8
2026-01-25 11:19:22.118518	347.5	26.6	-65.3	10.7
2026-01-25 11:19:24.362538	347.4	26.2	-63.2	7.6
2026-01-25 11:19:26.607084	347.4	25.8	-65.1	10.4
2026-01-25 11:19:28.851599	347.3	25.5	-65.3	10.1
2026-01-25 11:19:31.097144	347.2	25.1	-65.5	9.9
2026-01-25 11:19:33.341659	347.2	24.7	-64.7	8.1
2026-01-25 11:19:35.585708	347.1	24.4	-66.1	9.3
2026-01-25 11:19:37.829719	347.1	24.0	-64.8	7.9
2026-01-25 11:19:40.074234	347.0	23.7	-64.8	9.6
2026-01-25 11:19:42.319276	346.9	23.4	-65.6	9.9
2026-01-25 11:19:44.563792	346.9	23.0	-65.0	9.1
2026-01-25 11:19:46.806849	346.8	22.7	-65.4	9.8
2026-01-25 11:19:49.051365	346.8	22.4	-65.5	9.6
2026-01-25 11:19:51.295910	346.7	22.1	-65.7	9.2
2026-01-25 11:19:53.540424	346.7	21.7	-65.3	9.7
2026-01-25 11:19:55.784989	346.6	21.4	-65.0	8.1
2026-01-25 11:19:58.029505	346.6	21.1	-65.8	9.1
2026-01-25 11:20:00.274012	346.5	20.8	-64.4	8.7
2026-01-25 11:20:02.518061	346.5	20.5	-65.1	8.6
2026-01-25 11:20:04.762576	346.5	20.2	-65.1	9.0
2026-01-25 11:20:07.006123	346.4	19.9	-64.0	6.4
2026-01-25 11:20:09.250135	346.4	19.6	-64.9	8.2
2026-01-25 11:20:11.498691	346.3	19.4	-65.4	8.2
2026-01-25 11:20:13.742216	346.3	19.1	-65.8	8.5
2026-01-25 11:20:15.986227	346.2	18.8	-65.2	7.9
2026-01-25 11:20:18.231278	346.2	18.5	-64.5	7.1
2026-01-25 11:20:20.475792	346.2	18.2	-65.8	8.6
2026-01-25 11:20:22.720339	346.1	18.0	-65.4	8.8
2026-01-25 11:20:24.964855	346.1	17.7	-64.8	8.0
2026-01-25 11:20:27.208904	346.1	17.4	-65.3	7.8
2026-01-25 11:20:29.453419	346.0	17.2	-65.3	8.6
2026-01-25 11:20:31.696957	346.0	16.9	-64.8	8.1
2026-01-25 11:20:33.945969	346.0	16.7	-64.6	8.0
2026-01-25 11:20:36.189989	345.9	16.4	-64.6	6.0
2026-01-25 11:20:38.434535	345.9	16.2	-64.9	7.1
2026-01-25 11:20:40.678050	345.9	15.9	-63.9	5.8
2026-01-25 11:20:42.924606	345.8	15.7	-65.3	7.0
2026-01-25 11:20:45.169122	345.8	15.4	-65.2	7.9
2026-01-25 11:20:47.413132	345.8	15.2	-64.9	7.9
2026-01-25 11:20:49.656678	345.8	14.9	-64.7	6.4
2026-01-25 11:20:51.900689	345.7	14.7	-64.7	6.7
2026-01-25 11:20:54.144755	345.7	14.5	-64.8	5.6
2026-01-25 11:20:56.388773	345.7	14.2	-64.5	6.9
2026-01-25 11:20:58.632318	345.6	14.0	-65.4	6.1
2026-01-25 11:21:00.876337	345.6	13.8	-64.9	5.1
2026-01-25 11:21:03.120882	345.6	13.5	-65.2	5.3
2026-01-25 11:21:05.366894	345.6	13.3	-65.4	4.4
2026-01-25 11:21:07.611409	345.5	13.1	-64.5	6.3
2026-01-25 11:21:09.855458	345.5	12.9	-64.4	4.9
2026-01-25 11:21:12.099973	345.5	12.7	-64.4	6.3
2026-01-25 11:21:14.344519	345.5	12.4	-65.5	7.4
2026-01-25 11:21:16.589034	345.5	12.2	-65.3	6.6
2026-01-25 11:21:18.833579	345.4	12.0	-65.2	6.4
2026-01-25 11:21:21.077601	345.4	11.8	-65.2	7.0
2026-01-25 11:21:23.321611	345.4	11.6	-65.2	6.8
2026-01-25 11:21:25.568157	345.4	11.4	-64.7	7.5
2026-01-25 11:21:27.816682	345.3	11.2	-64.5	5.4
2026-01-25 11:21:30.059727	345.3	11.0	-64.9	6.9
2026-01-25 11:21:32.304242	345.3	10.8	-63.0	5.3
2026-01-25 11:21:34.547788	345.3	10.6	-65.2	5.0
2026-01-25 11:21:36.794304	345.3	10.4	-65.8	6.8
2026-01-25 11:21:39.038819	345.3	10.2	-64.4	4.0
2026-01-25 11:21:41.283365	345.2	10.0	-65.2	5.6
2026-01-25 11:21:43.527384	345.2	9.8	-64.6	3.6
2026-01-25 11:21:45.771929	345.2	9.6	-65.6	4.0
2026-01-25 11:21:48.016444	345.2	9.4	-65.2	4.0
2026-01-25 11:21:50.259990	345.2	9.2	-65.0	5.7
2026-01-25 11:21:52.506513	345.2	9.0	-65.2	3.5
2026-01-25 11:21:54.751020	345.1	8.9	-63.7	5.2
2026-01-25 11:21:56.994582	345.1	8.7	-64.7	4.2
2026-01-25 11:21:59.238625	345.1	8.5	-64.7	5.3
2026-01-25 11:22:01.482198	345.1	8.3	-65.3	5.4
2026-01-25 11:22:03.726712	345.1	8.1	-65.0	6.1
2026-01-25 11:22:05.970250	345.1	7.9	-64.9	5.8
2026-01-25 11:22:08.214765	345.1	7.8	-64.3	3.5
2026-01-25 11:22:10.459272	345.0	7.6	-65.3	3.8
2026-01-25 11:22:12.703322	345.0	7.4	-65.3	3.8
2026-01-25 11:22:14.946847	345.0	7.2	-65.4	3.4
2026-01-25 11:22:17.193392	345.0	7.1	-64.9	4.0
2026-01-25 11:22:19.437434	345.0	6.9	-64.9	2.0
2026-01-25 11:22:21.681941	345.0	6.7	-63.6	2.1
2026-01-25 11:22:23.927465	345.0	6.5	-63.1	0.2
2026-01-25 11:22:26.171972	345.0	6.4	-63.1	0.0
2026-01-25 11:22:28.415518	344.9	6.2	-63.6	0.1
2026-01-25 11:22:30.659042	344.9	6.0	-64.7	3.0
2026-01-25 11:22:32.904590	344.9	5.9	-68.4	0.0
2026-01-25 11:22:35.149104	344.9	5.7	-68.3	0.0
2026-01-25 11:22:37.393115	344.9	5.5	-69.4	0.0
2026-01-25 11:22:39.637165	344.9	5.4	-69.3	0.0
2026-01-25 11:22:41.880221	344.9	5.2	-70.3	0.0
2026-01-25 11:22:44.124233	344.9	5.1	-70.0	0.0
#Closed at: 2026-01-25 11:09:46.450728