passes_logs/2026/01/25/PlanumMoscow/PlanumMoscow__20260125_172224_METOP-B_rec.log

#Pass ID: 20260125_172224_METOP-B
#Satellite: METOP-B
#Configuration: METOP-B
#Start time: 2026-01-25 17:22:29.634084

#LorettStation: 1.0.0 05.05.2024
#Station: PlanumMoscow
#Location: 37.6253844 lon 55.6713361 lat
#TLE: 1 38771U 12049A   25293.92766658  .00000266  00000+0  14193-3 0  9996
#TLE: 2 38771  98.6882 344.7603 0001609 341.5209  18.5909 14.21379342679275

#Time	Az	El	Level	SNR
2026-01-25 17:26:08.070382	153.0	29.8	-63.4	9.7
2026-01-25 17:26:10.315889	152.9	30.2	-63.8	8.6
2026-01-25 17:26:12.560396	152.8	30.6	-63.6	9.1
2026-01-25 17:26:14.804903	152.7	31.1	-64.0	9.7
2026-01-25 17:26:17.048913	152.6	31.5	-64.0	9.1
2026-01-25 17:26:19.293420	152.5	32.0	-63.9	9.4
2026-01-25 17:26:21.537969	152.4	32.4	-64.3	9.7
2026-01-25 17:26:23.781989	152.3	32.9	-64.1	9.4
2026-01-25 17:26:26.028039	152.2	33.4	-64.6	9.6
2026-01-25 17:26:28.272554	152.1	33.9	-64.1	9.8
2026-01-25 17:26:30.516565	152.0	34.4	-63.6	8.7
2026-01-25 17:26:32.760613	151.9	34.9	-64.6	10.0
2026-01-25 17:26:35.004660	151.7	35.4	-64.3	9.3
2026-01-25 17:26:37.248708	151.6	35.9	-64.7	10.6
2026-01-25 17:26:39.492223	151.5	36.4	-64.8	10.4
2026-01-25 17:26:41.736739	151.3	37.0	-64.5	10.1
2026-01-25 17:26:43.980283	151.2	37.5	-64.5	9.6
2026-01-25 17:26:46.224790	151.0	38.1	-64.6	10.3
2026-01-25 17:26:48.473334	150.9	38.6	-64.6	10.2
2026-01-25 17:26:50.716886	150.7	39.2	-64.5	10.8
2026-01-25 17:26:52.960435	150.6	39.8	-64.3	10.9
2026-01-25 17:26:55.203949	150.4	40.4	-63.7	10.8
2026-01-25 17:26:57.447968	150.2	41.0	-64.2	11.1
2026-01-25 17:26:59.692001	150.0	41.6	-64.0	10.4
2026-01-25 17:27:01.938516	149.8	42.2	-64.6	11.4
2026-01-25 17:27:04.182557	149.6	42.8	-64.5	10.9
2026-01-25 17:27:06.426567	149.4	43.5	-64.6	10.9
2026-01-25 17:27:08.670586	149.2	44.1	-64.7	10.6
2026-01-25 17:27:10.920094	149.0	44.8	-64.9	10.3
2026-01-25 17:27:13.164128	148.7	45.4	-65.1	9.8
2026-01-25 17:27:15.413694	148.5	46.1	-65.3	9.5
2026-01-25 17:27:17.640851	148.2	46.8	-65.1	9.4
2026-01-25 17:27:19.884366	148.0	47.5	-65.3	10.5
2026-01-25 17:27:22.128873	147.7	48.2	-64.5	10.4
2026-01-25 17:27:24.372397	147.4	49.0	-64.2	9.5
2026-01-25 17:27:26.616444	147.1	49.7	-64.7	9.6
2026-01-25 17:27:28.859959	146.8	50.4	-64.8	11.0
2026-01-25 17:27:31.102978	146.4	51.2	-64.4	11.1
2026-01-25 17:27:33.352027	146.0	52.0	-64.7	10.7
2026-01-25 17:27:35.595559	145.7	52.8	-64.5	11.1
2026-01-25 17:27:37.838109	145.3	53.5	-64.2	10.7
2026-01-25 17:27:40.085633	144.8	54.3	-64.7	10.5
2026-01-25 17:27:42.327184	144.4	55.2	-64.8	9.1
2026-01-25 17:27:44.569708	143.9	56.0	-65.0	9.4
2026-01-25 17:27:46.812222	143.4	56.8	-65.0	8.8
2026-01-25 17:27:49.059770	142.8	57.7	-65.2	9.0
2026-01-25 17:27:51.303781	142.3	58.5	-65.0	8.1
2026-01-25 17:27:53.548819	141.6	59.4	-64.9	8.2
2026-01-25 17:27:55.794336	141.0	60.3	-65.0	8.2
2026-01-25 17:27:58.037859	140.3	61.2	-65.0	8.8
2026-01-25 17:28:00.280937	139.5	62.0	-64.9	7.3
2026-01-25 17:28:02.523982	138.7	62.9	-65.0	8.5
2026-01-25 17:28:04.766043	137.8	63.8	-65.2	8.4
2026-01-25 17:28:07.010564	136.8	64.7	-65.1	7.9
2026-01-25 17:28:09.253584	135.8	65.7	-65.5	6.5
2026-01-25 17:28:11.498602	134.7	66.6	-65.1	7.5
2026-01-25 17:28:13.741622	133.4	67.5	-65.9	7.7
2026-01-25 17:28:15.985667	132.1	68.4	-65.2	6.2
2026-01-25 17:28:18.228686	130.6	69.3	-66.4	8.0
2026-01-25 17:28:20.469215	129.0	70.2	-65.9	6.5
2026-01-25 17:28:22.714227	127.2	71.1	-66.0	6.4
2026-01-25 17:28:24.957247	125.2	72.0	-66.3	6.7
2026-01-25 17:28:27.205268	123.0	72.9	-66.4	6.7
2026-01-25 17:28:29.450280	120.6	73.7	-66.5	7.2
2026-01-25 17:28:31.694291	117.9	74.6	-66.3	7.0
2026-01-25 17:28:33.941815	114.8	75.4	-66.2	6.2
2026-01-25 17:28:36.185838	111.4	76.1	-66.7	6.9
2026-01-25 17:28:38.429352	107.7	76.8	-67.1	6.4
2026-01-25 17:28:40.671882	103.5	77.5	-67.3	5.8
2026-01-25 17:28:42.914405	98.8	78.0	-67.1	6.0
2026-01-25 17:28:45.156911	93.7	78.5	-66.7	5.7
2026-01-25 17:28:47.400922	88.2	78.9	-67.1	4.3
2026-01-25 17:28:49.646942	82.3	79.2	-67.3	4.0
2026-01-25 17:28:51.890953	76.2	79.4	-67.9	3.9
2026-01-25 17:28:54.132468	70.0	79.5	-67.6	3.6
2026-01-25 17:28:56.381984	63.7	79.4	-67.6	3.1
2026-01-25 17:28:58.625498	57.6	79.2	-67.8	3.7
2026-01-25 17:29:00.868510	51.8	78.9	-67.7	3.8
2026-01-25 17:29:03.114520	46.3	78.5	-67.9	4.1
2026-01-25 17:29:05.359027	41.3	78.0	-67.1	2.6
2026-01-25 17:29:07.602541	36.8	77.4	-67.8	4.1
2026-01-25 17:29:09.851058	32.6	76.7	-66.3	2.0
2026-01-25 17:29:12.095069	28.9	76.0	-66.9	2.8
2026-01-25 17:29:14.339080	25.6	75.2	-67.4	4.6
2026-01-25 17:29:16.582098	22.6	74.4	-66.1	2.2
2026-01-25 17:29:18.827613	19.9	73.6	-66.8	4.9
2026-01-25 17:29:21.070633	17.6	72.7	-66.6	4.2
2026-01-25 17:29:23.313652	15.4	71.9	-66.2	3.7
2026-01-25 17:29:25.561194	13.5	71.0	-66.6	5.4
2026-01-25 17:29:27.805205	11.7	70.1	-66.2	4.5
2026-01-25 17:29:30.049215	10.1	69.2	-66.6	3.8
2026-01-25 17:29:32.294731	8.7	68.3	-67.0	3.6
2026-01-25 17:29:34.538246	7.3	67.4	-66.5	2.4
2026-01-25 17:29:36.781263	6.1	66.4	-66.7	2.6
2026-01-25 17:29:39.024779	5.0	65.5	-66.2	3.0
2026-01-25 17:29:41.267797	4.0	64.6	-66.8	5.1
2026-01-25 17:29:43.511808	3.0	63.7	-66.5	3.2
2026-01-25 17:29:45.754819	2.2	62.8	-66.6	3.1
2026-01-25 17:29:48.001847	1.4	61.9	-66.1	3.6
2026-01-25 17:29:50.245858	0.6	61.0	-65.7	1.5
2026-01-25 17:29:52.487372	359.9	60.2	-65.9	2.4
2026-01-25 17:29:54.731384	359.3	59.3	-66.1	2.4
2026-01-25 17:29:56.974900	358.6	58.4	-65.4	1.6
2026-01-25 17:29:59.217927	358.1	57.6	-65.5	2.7
2026-01-25 17:30:01.464458	357.5	56.7	-65.7	4.0
2026-01-25 17:30:03.709470	357.0	55.9	-65.2	4.7
2026-01-25 17:30:05.953977	356.6	55.1	-64.7	3.3
2026-01-25 17:30:08.198500	356.1	54.3	-65.5	4.7
2026-01-25 17:30:10.444549	355.7	53.5	-65.4	6.3
2026-01-25 17:30:12.688576	355.3	52.7	-64.9	4.7
2026-01-25 17:30:14.932616	354.9	51.9	-64.7	4.1
2026-01-25 17:30:17.176139	354.5	51.1	-64.3	5.7
2026-01-25 17:30:19.419652	354.2	50.4	-64.9	7.7
2026-01-25 17:30:21.661715	353.9	49.6	-64.6	6.4
2026-01-25 17:30:23.905239	353.6	48.9	-64.3	4.7
2026-01-25 17:30:26.148817	353.3	48.2	-64.1	5.0
2026-01-25 17:30:28.392828	353.0	47.5	-64.4	5.3
2026-01-25 17:30:30.635885	352.7	46.8	-64.4	3.4
2026-01-25 17:30:32.878412	352.5	46.1	-64.5	5.9
2026-01-25 17:30:35.124423	352.2	45.4	-64.6	6.5
2026-01-25 17:30:37.368463	352.0	44.7	-64.5	6.3
2026-01-25 17:30:39.610992	351.8	44.1	-64.5	7.1
2026-01-25 17:30:41.853051	351.6	43.4	-63.6	7.4
2026-01-25 17:30:44.096574	351.3	42.8	-63.9	8.1
2026-01-25 17:30:46.345129	351.2	42.2	-63.7	8.0
2026-01-25 17:30:48.588664	351.0	41.6	-63.7	8.2
2026-01-25 17:30:50.832671	350.8	41.0	-64.0	7.1
2026-01-25 17:30:53.075691	350.6	40.4	-64.0	8.0
2026-01-25 17:30:55.317736	350.4	39.8	-63.2	7.7
2026-01-25 17:30:57.560813	350.3	39.2	-64.3	8.0
2026-01-25 17:30:59.804869	350.1	38.6	-63.6	6.2
2026-01-25 17:31:02.048437	350.0	38.1	-63.2	4.7
2026-01-25 17:31:04.292455	349.8	37.5	-63.5	6.3
2026-01-25 17:31:06.537971	349.7	37.0	-63.8	7.0
2026-01-25 17:31:08.781521	349.5	36.5	-63.8	7.4
2026-01-25 17:31:11.025539	349.4	35.9	-63.8	8.5
2026-01-25 17:31:13.267120	349.3	35.4	-63.6	8.0
2026-01-25 17:31:15.511138	349.2	34.9	-63.1	7.7
2026-01-25 17:31:17.755186	349.0	34.4	-62.7	7.0
2026-01-25 17:31:19.999205	348.9	33.9	-63.4	8.6
2026-01-25 17:31:22.242758	348.8	33.4	-63.6	8.3
2026-01-25 17:31:24.487281	348.7	33.0	-63.3	8.0
2026-01-25 17:31:26.730299	348.6	32.5	-63.1	6.1
2026-01-25 17:31:28.971372	348.5	32.0	-63.5	6.7
2026-01-25 17:31:31.214410	348.4	31.6	-63.6	6.0
2026-01-25 17:31:33.458954	348.3	31.1	-63.6	5.9
2026-01-25 17:31:35.702964	348.2	30.7	-63.5	7.4
2026-01-25 17:31:37.946975	348.1	30.3	-63.4	6.4
2026-01-25 17:31:40.190998	348.0	29.8	-63.0	5.6
2026-01-25 17:31:42.434559	347.9	29.4	-63.3	5.5
2026-01-25 17:31:44.677084	347.9	29.0	-63.4	7.2
2026-01-25 17:31:46.920607	347.8	28.6	-63.3	7.9
2026-01-25 17:31:49.163161	347.7	28.2	-63.4	8.5
2026-01-25 17:31:51.407172	347.6	27.8	-63.3	6.2
2026-01-25 17:31:53.650192	347.6	27.4	-63.4	5.6
2026-01-25 17:31:55.898234	347.5	27.0	-63.7	8.3
2026-01-25 17:31:58.140789	347.4	26.6	-63.4	7.0
2026-01-25 17:32:00.385309	347.3	26.2	-63.0	6.5
2026-01-25 17:32:02.629328	347.3	25.9	-63.0	7.1
2026-01-25 17:32:04.872349	347.2	25.5	-63.4	7.2
2026-01-25 17:32:07.116855	347.2	25.1	-63.4	6.9
2026-01-25 17:32:09.360867	347.1	24.8	-63.7	6.0
2026-01-25 17:32:11.606879	347.0	24.4	-63.3	5.2
2026-01-25 17:32:13.850890	347.0	24.1	-63.9	7.3
2026-01-25 17:32:16.093910	346.9	23.7	-62.0	4.3
2026-01-25 17:32:18.340426	346.9	23.4	-63.3	6.7
2026-01-25 17:32:20.583941	346.8	23.1	-63.8	6.3
2026-01-25 17:32:22.827500	346.8	22.7	-63.4	6.2
2026-01-25 17:32:25.071519	346.7	22.4	-63.7	4.1
2026-01-25 17:32:27.315072	346.7	22.1	-63.8	6.2
2026-01-25 17:32:29.558595	346.6	21.8	-64.3	6.3
2026-01-25 17:32:31.802147	346.6	21.5	-63.6	4.4
2026-01-25 17:32:34.046677	346.5	21.2	-64.1	6.3
2026-01-25 17:32:36.289735	346.5	20.9	-63.4	5.8
2026-01-25 17:32:38.532762	346.4	20.6	-64.0	6.7
2026-01-25 17:32:40.775295	346.4	20.3	-63.4	4.3
2026-01-25 17:32:43.018859	346.3	20.0	-63.9	5.3
2026-01-25 17:32:45.262404	346.3	19.7	-63.8	5.6
2026-01-25 17:32:47.506415	346.2	19.4	-63.9	4.8
2026-01-25 17:32:49.750435	346.2	19.1	-63.8	4.5
2026-01-25 17:32:51.997496	346.2	18.8	-64.0	5.0
2026-01-25 17:32:54.241027	346.1	18.5	-63.6	4.7
2026-01-25 17:32:56.484084	346.1	18.3	-64.2	5.4
2026-01-25 17:32:58.729125	346.1	18.0	-64.1	5.2
2026-01-25 17:33:00.971700	346.0	17.7	-64.2	3.8
2026-01-25 17:33:03.215719	346.0	17.5	-63.9	4.0
2026-01-25 17:33:05.459774	346.0	17.2	-64.3	4.3
2026-01-25 17:33:07.703339	345.9	16.9	-63.6	4.1
2026-01-25 17:33:09.947351	345.9	16.7	-64.9	4.9
2026-01-25 17:33:12.191857	345.9	16.4	-63.8	4.4
2026-01-25 17:33:14.437868	345.8	16.2	-64.2	3.5
2026-01-25 17:33:16.682382	345.8	15.9	-64.2	4.4
2026-01-25 17:33:18.926421	345.8	15.7	-64.5	5.2
2026-01-25 17:33:21.170471	345.7	15.4	-64.8	4.2
2026-01-25 17:33:23.415986	345.7	15.2	-64.6	4.4
2026-01-25 17:33:25.660500	345.7	15.0	-64.3	2.5
2026-01-25 17:33:27.904038	345.7	14.7	-64.1	3.8
2026-01-25 17:33:30.148545	345.6	14.5	-64.2	3.8
2026-01-25 17:33:32.394579	345.6	14.2	-64.2	3.7
2026-01-25 17:33:34.638590	345.6	14.0	-64.4	4.0
2026-01-25 17:33:36.883105	345.5	13.8	-64.3	3.9
2026-01-25 17:33:39.126666	345.5	13.6	-64.5	3.4
2026-01-25 17:33:41.371180	345.5	13.3	-63.9	2.1
2026-01-25 17:33:43.615222	345.5	13.1	-64.1	2.5
2026-01-25 17:33:45.859737	345.5	12.9	-63.4	0.0
2026-01-25 17:33:48.103252	345.4	12.7	-64.1	0.0
2026-01-25 17:33:50.346300	345.4	12.5	-64.0	1.5
2026-01-25 17:33:52.590318	345.4	12.2	-64.3	1.2
2026-01-25 17:33:54.838863	345.4	12.0	-64.2	1.9
2026-01-25 17:33:57.083379	345.3	11.8	-64.5	3.2
2026-01-25 17:33:59.327417	345.3	11.6	-64.3	2.3
2026-01-25 17:34:01.571437	345.3	11.4	-64.0	0.6
2026-01-25 17:34:03.820983	345.3	11.2	-64.1	0.7
2026-01-25 17:34:06.065508	345.3	11.0	-64.0	0.7
2026-01-25 17:34:08.309519	345.2	10.8	-63.8	1.9
2026-01-25 17:34:10.553072	345.2	10.6	-64.1	2.0
2026-01-25 17:34:12.797586	345.2	10.4	-64.3	2.4
2026-01-25 17:34:15.041130	345.2	10.2	-64.1	1.0
2026-01-25 17:34:17.286638	345.2	10.0	-63.9	0.4
2026-01-25 17:34:19.532192	345.2	9.8	-63.9	1.8
2026-01-25 17:34:21.776210	345.1	9.6	-64.2	2.9
2026-01-25 17:34:24.019754	345.1	9.4	-64.1	2.8
2026-01-25 17:34:26.264287	345.1	9.2	-63.7	1.0
2026-01-25 17:34:28.510299	345.1	9.1	-63.6	0.3
2026-01-25 17:34:30.754347	345.1	8.9	-63.7	0.0
2026-01-25 17:34:32.998357	345.1	8.7	-64.5	0.0
2026-01-25 17:34:35.241922	345.1	8.5	-64.9	0.0
2026-01-25 17:34:37.486429	345.0	8.3	-64.7	0.0
2026-01-25 17:34:39.731463	345.0	8.1	-63.8	0.0
2026-01-25 17:34:41.975978	345.0	8.0	-64.7	0.0
2026-01-25 17:34:44.219989	345.0	7.8	-64.2	0.0
2026-01-25 17:34:46.464037	345.0	7.6	-64.2	0.0
2026-01-25 17:34:48.708057	345.0	7.4	-64.4	1.0
2026-01-25 17:34:50.951609	345.0	7.2	-63.7	0.0
2026-01-25 17:34:53.196116	344.9	7.1	-64.4	0.6
2026-01-25 17:34:55.439638	344.9	6.9	-63.5	0.0
2026-01-25 17:34:57.684672	344.9	6.7	-64.2	0.0
2026-01-25 17:34:59.927722	344.9	6.6	-63.6	0.2
2026-01-25 17:35:02.172229	344.9	6.4	-63.4	0.0
2026-01-25 17:35:04.416255	344.9	6.2	-62.8	0.0
2026-01-25 17:35:06.659320	344.9	6.1	-63.4	0.0
2026-01-25 17:35:08.903835	344.9	5.9	-68.3	0.0
2026-01-25 17:35:11.147378	344.9	5.7	-67.3	0.0
2026-01-25 17:35:13.391885	344.8	5.6	-68.7	0.0
2026-01-25 17:35:15.636400	344.8	5.4	-67.6	0.0
2026-01-25 17:35:17.881441	344.8	5.2	-69.5	0.0
2026-01-25 17:35:20.127955	344.8	5.1	-71.0	0.0
#Closed at: 2026-01-25 17:22:24.636091