passes_logs/2026/01/25/PlanumMoscow/PlanumMoscow__20260125_080922_METOP-C_rec.log

#Pass ID: 20260125_080922_METOP-C
#Satellite: METOP-C
#Configuration: METOP-C
#Start time: 2026-01-25 08:09:27.453060

#LorettStation: 1.0.0 05.05.2024
#Station: PlanumMoscow
#Location: 37.6253844 lon 55.6713361 lat
#TLE: 1 43689U 18087A   25293.88981035  .00000265  00000+0  14109-3 0  9997
#TLE: 2 43689  98.7006 352.4487 0002041 122.1097 238.0279 14.21482740360838

#Time	Az	El	Level	SNR
2026-01-25 08:13:05.846131	4.4	28.7	-62.0	0.0
2026-01-25 08:13:08.090150	4.2	29.1	-63.2	0.0
2026-01-25 08:13:10.333198	4.0	29.5	-62.9	0.0
2026-01-25 08:13:12.577209	3.8	29.9	-64.3	0.0
2026-01-25 08:13:14.818777	3.5	30.3	-64.5	0.0
2026-01-25 08:13:17.060795	3.3	30.7	-64.4	0.0
2026-01-25 08:13:19.308807	3.0	31.1	-62.5	0.0
2026-01-25 08:13:21.552819	2.8	31.5	-60.9	0.0
2026-01-25 08:13:23.795332	2.5	32.0	-62.0	0.0
2026-01-25 08:13:26.038857	2.2	32.4	-62.6	0.0
2026-01-25 08:13:28.282373	2.0	32.8	-63.7	0.0
2026-01-25 08:13:30.528889	1.7	33.3	-62.9	0.0
2026-01-25 08:13:32.772908	1.4	33.7	-63.8	0.0
2026-01-25 08:13:35.019920	1.1	34.2	-64.2	0.0
2026-01-25 08:13:37.262949	0.7	34.7	-64.1	0.0
2026-01-25 08:13:39.506959	0.4	35.1	-65.0	0.0
2026-01-25 08:13:41.752491	0.1	35.6	-63.1	0.0
2026-01-25 08:13:43.997503	359.7	36.1	-63.4	0.0
2026-01-25 08:13:46.240523	359.4	36.6	-62.9	0.0
2026-01-25 08:13:48.486038	359.0	37.1	-63.6	0.0
2026-01-25 08:13:50.730553	358.6	37.6	-63.6	0.0
2026-01-25 08:13:52.972067	358.2	38.1	-64.9	0.0
2026-01-25 08:13:55.214079	357.8	38.6	-64.3	0.0
2026-01-25 08:13:57.455089	357.4	39.1	-63.2	0.0
2026-01-25 08:13:59.698110	357.0	39.7	-65.3	0.0
2026-01-25 08:14:01.942122	356.6	40.2	-66.0	0.0
2026-01-25 08:14:04.185645	356.1	40.7	-67.2	0.0
2026-01-25 08:14:06.428160	355.6	41.3	-66.0	0.0
2026-01-25 08:14:08.668675	355.1	41.8	-66.5	0.0
2026-01-25 08:14:10.911190	354.6	42.4	-67.3	0.0
2026-01-25 08:14:13.152705	354.1	43.0	-66.6	0.0
2026-01-25 08:14:15.393210	353.5	43.5	-67.4	0.0
2026-01-25 08:14:17.634717	353.0	44.1	-68.1	0.0
2026-01-25 08:14:19.875727	352.4	44.7	-67.5	0.0
2026-01-25 08:14:22.119738	351.8	45.3	-67.9	0.0
2026-01-25 08:14:24.362244	351.1	45.9	-68.5	0.0
2026-01-25 08:14:26.602263	350.5	46.5	-68.5	0.0
2026-01-25 08:14:28.844282	349.8	47.1	-66.3	0.0
2026-01-25 08:14:31.085797	349.1	47.7	-67.5	0.0
2026-01-25 08:14:33.328808	348.3	48.3	-68.5	0.0
2026-01-25 08:14:35.571332	347.6	48.9	-69.0	0.0
2026-01-25 08:14:37.814343	346.8	49.5	-68.3	0.0
2026-01-25 08:14:40.054849	345.9	50.1	-68.5	0.0
2026-01-25 08:14:42.294859	345.0	50.7	-68.7	0.0
2026-01-25 08:14:44.535869	344.1	51.4	-68.9	0.0
2026-01-25 08:14:46.776394	343.2	52.0	-68.9	0.0
2026-01-25 08:14:49.017900	342.2	52.6	-68.4	0.0
2026-01-25 08:14:51.263941	341.2	53.2	-68.5	0.0
2026-01-25 08:14:53.509456	340.1	53.8	-68.6	0.0
2026-01-25 08:14:55.753971	339.0	54.4	-67.8	0.0
2026-01-25 08:14:57.999494	337.8	55.0	-67.7	0.0
2026-01-25 08:15:00.242504	336.6	55.6	-67.9	0.0
2026-01-25 08:15:02.486011	335.3	56.2	-68.5	0.0
2026-01-25 08:15:04.730031	333.9	56.8	-67.1	0.0
2026-01-25 08:15:06.974572	332.6	57.4	-67.5	0.0
2026-01-25 08:15:09.217629	331.1	58.0	-68.3	0.0
2026-01-25 08:15:11.460648	329.6	58.5	-68.0	0.0
2026-01-25 08:15:13.703193	328.0	59.0	-68.3	0.0
2026-01-25 08:15:15.948756	326.4	59.6	-67.4	0.0
2026-01-25 08:15:18.192271	324.7	60.1	-68.2	0.0
2026-01-25 08:15:20.437322	322.9	60.6	-68.0	0.0
2026-01-25 08:15:22.680351	321.0	61.0	-68.0	0.0
2026-01-25 08:15:24.924410	319.1	61.5	-67.4	0.0
2026-01-25 08:15:27.168917	317.1	61.9	-68.4	0.0
2026-01-25 08:15:29.417486	315.1	62.2	-68.2	0.0
2026-01-25 08:15:31.662001	313.0	62.6	-67.9	0.0
2026-01-25 08:15:33.905517	310.8	62.9	-67.8	0.0
2026-01-25 08:15:36.148071	308.6	63.2	-68.4	0.0
2026-01-25 08:15:38.391098	306.3	63.5	-68.9	0.0
2026-01-25 08:15:40.634645	304.0	63.7	-68.7	0.0
2026-01-25 08:15:42.878167	301.6	63.8	-69.1	0.0
2026-01-25 08:15:45.122745	299.2	64.0	-68.0	0.0
2026-01-25 08:15:47.367260	296.8	64.1	-68.7	0.0
2026-01-25 08:15:49.610279	294.4	64.1	-68.2	0.0
2026-01-25 08:15:51.854793	291.9	64.1	-69.1	0.0
2026-01-25 08:15:54.098813	289.5	64.1	-68.4	0.0
2026-01-25 08:15:56.341860	287.1	64.0	-68.5	0.0
2026-01-25 08:15:58.585880	284.7	63.9	-69.0	0.0
2026-01-25 08:16:00.828446	282.3	63.8	-69.3	0.0
2026-01-25 08:16:03.072989	280.0	63.6	-68.0	0.0
2026-01-25 08:16:05.316532	277.6	63.3	-66.8	0.0
2026-01-25 08:16:07.561543	275.4	63.1	-68.7	0.0
2026-01-25 08:16:09.805585	273.2	62.8	-68.8	0.0
2026-01-25 08:16:12.050092	271.0	62.4	-67.9	0.0
2026-01-25 08:16:14.299112	269.0	62.1	-67.0	0.0
2026-01-25 08:16:16.543152	266.9	61.7	-67.3	0.0
2026-01-25 08:16:18.787667	265.0	61.2	-67.9	0.0
2026-01-25 08:16:21.031679	263.1	60.8	-67.8	0.0
2026-01-25 08:16:23.276224	261.3	60.3	-68.4	0.0
2026-01-25 08:16:25.525740	259.5	59.8	-66.8	0.0
2026-01-25 08:16:27.769782	257.9	59.3	-67.3	0.0
2026-01-25 08:16:30.014297	256.2	58.8	-68.0	0.0
2026-01-25 08:16:32.259331	254.7	58.2	-67.0	0.0
2026-01-25 08:16:34.504847	253.2	57.7	-65.2	0.0
2026-01-25 08:16:36.749858	251.8	57.1	-65.1	0.0
2026-01-25 08:16:38.993405	250.4	56.5	-66.7	0.0
2026-01-25 08:16:41.237920	249.1	55.9	-66.7	0.0
2026-01-25 08:16:43.481962	247.8	55.3	-65.7	0.0
2026-01-25 08:16:45.728477	246.6	54.7	-67.2	0.0
2026-01-25 08:16:47.972526	245.5	54.1	-65.8	0.0
2026-01-25 08:16:50.219040	244.4	53.5	-64.2	0.0
2026-01-25 08:16:52.463083	243.3	52.9	-64.6	0.0
2026-01-25 08:16:54.707589	242.3	52.3	-64.7	0.0
2026-01-25 08:16:56.951600	241.3	51.6	-65.4	0.0
2026-01-25 08:16:59.196145	240.4	51.0	-66.1	0.0
2026-01-25 08:17:01.445196	239.5	50.4	-63.8	0.0
2026-01-25 08:17:03.689207	238.7	49.8	-64.7	0.0
2026-01-25 08:17:05.933723	237.8	49.2	-63.5	0.0
2026-01-25 08:17:08.180278	237.0	48.5	-63.6	0.0
2026-01-25 08:17:10.424792	236.3	47.9	-64.1	0.0
2026-01-25 08:17:12.669337	235.6	47.3	-63.6	0.0
2026-01-25 08:17:14.912852	234.9	46.7	-64.3	0.0
2026-01-25 08:17:17.157359	234.2	46.1	-63.3	0.0
2026-01-25 08:17:19.401914	233.5	45.5	-63.1	0.0
2026-01-25 08:17:21.645941	232.9	44.9	-63.1	0.0
2026-01-25 08:17:23.893997	232.3	44.3	-64.2	0.0
2026-01-25 08:17:26.138511	231.7	43.8	-64.4	0.0
2026-01-25 08:17:28.383018	231.2	43.2	-63.1	0.0
2026-01-25 08:17:30.627069	230.6	42.6	-61.4	0.0
2026-01-25 08:17:32.871584	230.1	42.0	-62.2	0.0
2026-01-25 08:17:35.116130	229.6	41.5	-61.8	0.0
2026-01-25 08:17:37.360180	229.1	40.9	-63.1	0.0
2026-01-25 08:17:39.609688	228.6	40.4	-63.0	0.0
2026-01-25 08:17:41.853202	228.2	39.8	-63.1	0.0
2026-01-25 08:17:44.097221	227.7	39.3	-62.6	0.0
2026-01-25 08:17:46.341263	227.3	38.8	-63.4	0.0
2026-01-25 08:17:48.585282	226.9	38.3	-63.5	0.0
2026-01-25 08:17:50.828333	226.5	37.7	-63.2	0.0
2026-01-25 08:17:53.071354	226.1	37.2	-63.5	0.0
2026-01-25 08:17:55.315401	225.7	36.7	-64.4	0.0
2026-01-25 08:17:57.559916	225.4	36.2	-63.7	0.0
2026-01-25 08:17:59.803950	225.0	35.7	-63.0	0.0
2026-01-25 08:18:02.050457	224.7	35.3	-63.5	0.0
2026-01-25 08:18:04.295476	224.4	34.8	-62.2	0.0
2026-01-25 08:18:06.540022	224.0	34.3	-63.0	0.0
2026-01-25 08:18:08.789043	223.7	33.8	-63.5	0.0
2026-01-25 08:18:11.033590	223.4	33.4	-61.2	0.0
2026-01-25 08:18:13.277609	223.1	32.9	-64.5	0.0
2026-01-25 08:18:15.521148	222.8	32.5	-62.2	0.0
2026-01-25 08:18:17.765662	222.6	32.0	-63.8	0.0
2026-01-25 08:18:20.009672	222.3	31.6	-59.6	0.0
2026-01-25 08:18:22.254219	222.0	31.2	-62.0	0.0
2026-01-25 08:18:24.500239	221.8	30.8	-61.6	0.0
2026-01-25 08:18:26.744783	221.5	30.3	-63.5	0.0
2026-01-25 08:18:28.990298	221.3	29.9	-63.8	0.0
2026-01-25 08:18:31.238350	221.0	29.5	-64.1	0.0
2026-01-25 08:18:33.483865	220.8	29.1	-62.8	0.0
2026-01-25 08:18:35.729414	220.6	28.7	-61.6	0.0
2026-01-25 08:18:37.971946	220.4	28.3	-62.8	0.0
2026-01-25 08:18:40.215958	220.2	27.9	-63.3	0.0
2026-01-25 08:18:42.459999	219.9	27.5	-62.5	0.0
2026-01-25 08:18:44.704512	219.7	27.2	-63.2	0.0
2026-01-25 08:18:46.948067	219.5	26.8	-63.7	0.0
2026-01-25 08:18:49.192085	219.3	26.4	-63.9	0.0
2026-01-25 08:18:51.436630	219.2	26.1	-64.0	0.0
2026-01-25 08:18:53.681146	219.0	25.7	-65.3	0.0
2026-01-25 08:18:55.925691	218.8	25.3	-66.3	0.0
2026-01-25 08:18:58.170207	218.6	25.0	-65.4	0.0
2026-01-25 08:19:00.414713	218.4	24.6	-65.7	0.0
2026-01-25 08:19:02.662259	218.3	24.3	-63.3	0.0
2026-01-25 08:19:04.905805	218.1	24.0	-65.2	0.0
2026-01-25 08:19:07.150312	217.9	23.6	-58.8	0.0
2026-01-25 08:19:09.394836	217.8	23.3	-64.2	0.0
2026-01-25 08:19:11.638879	217.6	23.0	-65.4	0.0
2026-01-25 08:19:13.883393	217.5	22.7	-65.7	0.0
2026-01-25 08:19:16.127936	217.3	22.3	-66.0	0.0
2026-01-25 08:19:18.374452	217.2	22.0	-66.1	0.0
2026-01-25 08:19:20.618998	217.0	21.7	-65.6	0.0
2026-01-25 08:19:22.863009	216.9	21.4	-66.1	0.0
2026-01-25 08:19:25.106028	216.8	21.1	-65.8	0.0
2026-01-25 08:19:27.350574	216.6	20.8	-62.9	0.0
2026-01-25 08:19:29.594623	216.5	20.5	-65.4	0.0
2026-01-25 08:19:31.845636	216.4	20.2	-66.8	0.0
2026-01-25 08:19:34.090150	216.3	19.9	-65.9	0.0
2026-01-25 08:19:36.335202	216.1	19.6	-62.9	0.0
2026-01-25 08:19:38.579717	216.0	19.3	-60.2	0.0
2026-01-25 08:19:40.823728	215.9	19.1	-65.5	0.0
2026-01-25 08:19:43.068274	215.8	18.8	-66.4	0.0
2026-01-25 08:19:45.312788	215.7	18.5	-66.1	0.8
2026-01-25 08:19:47.556335	215.5	18.2	-66.1	0.0
2026-01-25 08:19:49.800841	215.4	18.0	-66.3	1.6
2026-01-25 08:19:52.043899	215.3	17.7	-65.4	0.0
2026-01-25 08:19:54.287918	215.2	17.4	-65.5	0.9
2026-01-25 08:19:56.531959	215.1	17.2	-66.3	0.4
2026-01-25 08:19:58.776474	215.0	16.9	-66.3	1.8
2026-01-25 08:20:01.020980	214.9	16.7	-64.3	0.0
2026-01-25 08:20:03.264526	214.8	16.4	-65.5	3.1
2026-01-25 08:20:05.509039	214.7	16.2	-66.2	3.9
2026-01-25 08:20:07.753080	214.6	15.9	-65.0	2.3
2026-01-25 08:20:09.997587	214.5	15.7	-65.5	2.2
2026-01-25 08:20:12.241149	214.4	15.4	-65.3	3.0
2026-01-25 08:20:14.485663	214.4	15.2	-65.0	4.0
2026-01-25 08:20:16.730170	214.3	15.0	-66.0	3.9
2026-01-25 08:20:18.978735	214.2	14.7	-65.2	2.8
2026-01-25 08:20:21.222754	214.1	14.5	-65.8	3.8
2026-01-25 08:20:23.467299	214.0	14.2	-66.0	3.6
2026-01-25 08:20:25.713814	213.9	14.0	-66.0	2.0
2026-01-25 08:20:27.957825	213.8	13.8	-65.6	2.8
2026-01-25 08:20:30.202368	213.8	13.6	-65.1	0.9
2026-01-25 08:20:32.446411	213.7	13.3	-66.5	4.6
2026-01-25 08:20:34.689927	213.6	13.1	-65.9	3.8
2026-01-25 08:20:36.933938	213.5	12.9	-65.9	3.4
2026-01-25 08:20:39.178453	213.5	12.7	-64.2	5.5
2026-01-25 08:20:41.422996	213.4	12.5	-65.6	4.6
2026-01-25 08:20:43.672513	213.3	12.3	-64.3	0.0
2026-01-25 08:20:45.918057	213.2	12.0	-64.2	4.2
2026-01-25 08:20:48.164076	213.2	11.8	-65.9	4.7
2026-01-25 08:20:50.408087	213.1	11.6	-65.4	3.1
2026-01-25 08:20:52.652633	213.0	11.4	-65.9	4.4
2026-01-25 08:20:54.896679	213.0	11.2	-66.2	4.6
2026-01-25 08:20:57.140195	212.9	11.0	-65.1	0.0
2026-01-25 08:20:59.384710	212.8	10.8	-63.6	0.0
2026-01-25 08:21:01.628776	212.8	10.6	-63.9	0.1
2026-01-25 08:21:03.873291	212.7	10.4	-62.0	0.0
2026-01-25 08:21:06.115839	212.6	10.2	-62.6	0.0
2026-01-25 08:21:08.361890	212.6	10.0	-63.4	4.2
2026-01-25 08:21:10.605444	212.5	9.8	-62.5	0.0
2026-01-25 08:21:12.849951	212.5	9.6	-61.6	0.0
2026-01-25 08:21:15.093970	212.4	9.4	-64.4	3.9
2026-01-25 08:21:17.340477	212.3	9.2	-62.7	3.0
2026-01-25 08:21:19.584518	212.3	9.1	-62.4	0.0
2026-01-25 08:21:21.828529	212.2	8.9	-62.7	1.0
2026-01-25 08:21:24.073076	212.2	8.7	-62.3	0.0
2026-01-25 08:21:26.317590	212.1	8.5	-62.4	0.0
2026-01-25 08:21:28.562097	212.1	8.3	-62.6	1.3
2026-01-25 08:21:30.807643	212.0	8.1	-62.6	1.5
2026-01-25 08:21:33.052150	212.0	8.0	-62.2	4.5
2026-01-25 08:21:35.296201	211.9	7.8	-62.0	4.0
2026-01-25 08:21:37.545221	211.8	7.6	-63.5	0.0
2026-01-25 08:21:39.789728	211.8	7.4	-63.2	0.7
2026-01-25 08:21:42.033275	211.7	7.2	-62.6	0.0
2026-01-25 08:21:44.277790	211.7	7.1	-64.0	2.2
2026-01-25 08:21:46.547837	211.6	6.9	-62.9	0.0
2026-01-25 08:21:48.792344	211.6	6.7	-62.8	0.0
2026-01-25 08:21:51.036388	211.6	6.6	-62.5	0.0
2026-01-25 08:21:53.283399	211.5	6.4	-62.2	0.0
2026-01-25 08:21:55.527914	211.5	6.2	-63.1	3.0
2026-01-25 08:21:57.770982	211.4	6.1	-62.6	0.0
2026-01-25 08:22:00.015000	211.4	5.9	-62.5	1.1
2026-01-25 08:22:02.259012	211.3	5.7	-61.5	0.0
2026-01-25 08:22:04.503053	211.3	5.6	-66.4	0.0
2026-01-25 08:22:06.747568	211.2	5.4	-68.6	0.0
2026-01-25 08:22:08.991114	211.2	5.2	-70.4	0.0
2026-01-25 08:22:11.235621	211.2	5.1	-69.0	0.0
#Closed at: 2026-01-25 08:09:22.455035