passes_logs/2026/01/17/R4.6S_Anadyr/R4.6S_Anadyr__20260117_200557_FENGYUN_3D_rec.log

#Pass ID: 20260117_200557_FENGYUN 3D
#Satellite: FENGYUN 3D
#Configuration: FENGYUN 3D
#almurnet v.1.7.20251203
#Start time: 2026-01-17 20:06:14

#Version: 2.2.20231116
#Station: R4.6S_Anadyr
#Location: 177.4865 lon 64.73178 lat
#TLE: 1 43010U 17072A   26016.62453405 -.00000112  00000+0 -31355-4 0  9995
#TLE: 2 43010  98.9932 348.4654 0002369 105.3910 254.7528 14.19694900423480

#Time	Az	El	Level	Level2	SNR	BER	BlckErr	Temp	State	Recorded	gain1	gain2
2026-01-17 20:06:14.85	36.16	0.89	-49.1	-65.2	3.2	0.00e+00	0	33	0	0	60	65053
2026-01-17 20:06:18.89	35.88	1.10	-47.1	-59.1	3.6	8.46e-01	0	34	104	0	60	32482
2026-01-17 20:06:22.92	35.59	1.32	-47.1	-59.1	3.6	8.45e-01	0	34	104	0	60	32517
2026-01-17 20:06:26.97	35.30	1.53	-47.1	-59.0	3.6	8.46e-01	0	34	104	0	60	32276
2026-01-17 20:06:31.00	35.00	1.74	-47.1	-59.1	3.6	8.45e-01	0	33	104	0	60	32474
2026-01-17 20:06:35.03	34.70	1.96	-47.1	-58.7	3.6	8.45e-01	0	33	104	0	60	30994
2026-01-17 20:06:39.07	34.39	2.17	-47.0	-58.3	3.6	8.45e-01	0	33	104	0	60	29757
2026-01-17 20:06:43.11	34.08	2.39	-47.1	-59.0	3.6	8.45e-01	0	33	104	0	60	32373
2026-01-17 20:06:47.15	33.77	2.61	-47.0	-58.5	3.6	8.45e-01	0	33	104	0	60	30579
2026-01-17 20:06:51.19	33.45	2.82	-47.0	-58.5	3.6	8.45e-01	0	33	104	0	60	30448
2026-01-17 20:06:55.23	33.12	3.04	-42.9	-45.1	13.0	1.15e-03	0	33	0	9437184	60	6485
2026-01-17 20:06:59.27	32.79	3.26	-37.5	-38.5	19.7	0.00e+00	0	33	0	32505856	50	5382
2026-01-17 20:07:03.31	32.46	3.48	-37.6	-38.6	19.6	0.00e+00	0	33	0	44040192	48	6125
2026-01-17 20:07:07.35	32.12	3.70	-36.4	-37.3	20.9	0.00e+00	0	32	0	67108864	46	5953
2026-01-17 20:07:11.38	31.77	3.93	-36.4	-37.3	21.0	0.00e+00	0	32	0	89128960	46	5949
2026-01-17 20:07:15.42	31.42	4.15	-36.7	-37.5	20.7	0.00e+00	0	32	0	112197632	46	6103
2026-01-17 20:07:19.46	31.06	4.37	-36.5	-37.4	21.1	0.00e+00	0	32	0	134217728	46	5995
2026-01-17 20:07:23.50	30.70	4.60	-36.4	-37.3	21.1	0.00e+00	0	32	0	157286400	46	5901
2026-01-17 20:07:27.54	30.33	4.82	-36.3	-37.1	21.5	0.00e+00	0	32	0	180355072	46	5805
2026-01-17 20:07:31.58	29.95	5.05	-35.9	-36.7	21.7	0.00e+00	0	32	0	203423744	44	6211
2026-01-17 20:07:35.62	29.57	5.28	-35.7	-36.6	21.9	0.00e+00	0	32	0	225443840	44	6116
2026-01-17 20:07:39.66	29.18	5.50	-35.6	-36.4	22.1	0.00e+00	0	32	0	248512512	44	5970
2026-01-17 20:07:43.70	28.79	5.73	-35.4	-36.2	22.4	0.00e+00	0	32	0	270532608	44	5863
2026-01-17 20:07:47.74	28.39	5.96	-35.4	-36.2	22.4	0.00e+00	0	32	0	293601280	44	5842
2026-01-17 20:07:51.78	27.98	6.19	-35.4	-36.2	22.4	0.00e+00	0	32	0	316669952	44	5871
2026-01-17 20:07:55.82	27.57	6.42	-35.4	-36.2	22.4	0.00e+00	0	31	0	339738624	44	5874
2026-01-17 20:07:59.86	27.15	6.65	-35.4	-36.2	22.5	0.00e+00	0	31	0	361758720	44	5865
2026-01-17 20:08:03.90	26.72	6.88	-35.2	-36.0	22.7	0.00e+00	0	31	0	384827392	44	5696
2026-01-17 20:08:07.93	26.29	7.11	-35.1	-35.9	22.8	0.00e+00	0	31	0	407896064	44	5645
2026-01-17 20:08:11.97	25.85	7.35	-34.8	-35.6	23.2	0.00e+00	0	31	0	429916160	42	6120
2026-01-17 20:08:16.01	25.40	7.58	-34.4	-35.2	23.6	0.00e+00	0	31	0	452984832	42	5857
2026-01-17 20:08:20.05	24.94	7.81	-34.4	-35.1	23.6	0.00e+00	0	31	0	475004928	42	5817
2026-01-17 20:08:24.09	24.48	8.05	-34.4	-35.1	23.6	0.00e+00	0	31	0	498073600	42	5816
2026-01-17 20:08:28.13	24.01	8.28	-34.6	-35.3	23.5	0.00e+00	0	31	0	521142272	42	5941
2026-01-17 20:08:32.17	23.53	8.51	-34.6	-35.3	23.4	0.00e+00	0	31	0	544210944	42	5931
2026-01-17 20:08:36.21	23.04	8.75	-34.6	-35.4	23.5	0.00e+00	0	31	0	566231040	42	5965
2026-01-17 20:08:40.25	22.55	8.98	-34.7	-35.4	23.4	0.00e+00	0	31	0	589299712	42	6015
2026-01-17 20:08:44.29	22.04	9.22	-34.2	-35.0	23.9	0.00e+00	0	31	0	612368384	42	5702
2026-01-17 20:08:48.33	21.53	9.45	-34.2	-34.9	23.9	0.00e+00	0	31	0	634388480	42	5667
2026-01-17 20:08:52.37	21.01	9.69	-34.1	-34.8	24.0	0.00e+00	0	31	0	657457152	42	5591
2026-01-17 20:08:56.41	20.48	9.92	-33.8	-34.5	24.3	0.00e+00	0	31	0	680525824	42	5405
2026-01-17 20:09:00.45	19.94	10.16	-33.6	-34.3	24.5	0.00e+00	0	31	0	702545920	40	5924
2026-01-17 20:09:04.49	19.39	10.39	-33.8	-34.5	24.2	0.00e+00	0	31	0	725614592	40	6097
2026-01-17 20:09:08.53	18.84	10.63	-33.8	-34.6	24.3	0.00e+00	0	31	0	748683264	40	6104
2026-01-17 20:09:12.57	18.27	10.86	-34.1	-34.8	24.0	0.00e+00	0	31	0	770703360	40	6267
2026-01-17 20:09:16.61	17.70	11.09	-33.6	-34.3	24.5	0.00e+00	0	31	0	793772032	40	5925
2026-01-17 20:09:20.65	17.11	11.32	-33.8	-34.5	24.3	0.00e+00	0	31	0	816840704	40	6064
2026-01-17 20:09:24.68	16.52	11.56	-33.6	-34.3	24.6	0.00e+00	0	31	0	838860800	40	5911
2026-01-17 20:09:28.72	15.92	11.79	-33.5	-34.2	24.8	0.00e+00	0	31	0	861929472	40	5833
2026-01-17 20:09:32.76	15.31	12.02	-33.5	-34.2	24.7	0.00e+00	0	31	0	883949568	40	5852
2026-01-17 20:09:36.80	14.68	12.24	-33.3	-34.0	24.9	0.00e+00	0	31	0	907018240	40	5697
2026-01-17 20:09:40.85	14.05	12.47	-33.2	-33.9	24.9	0.00e+00	0	31	0	930086912	40	5663
2026-01-17 20:09:44.89	13.41	12.70	-33.3	-34.0	24.9	0.00e+00	0	31	0	953155584	40	5699
2026-01-17 20:09:48.93	12.75	12.92	-33.0	-33.6	25.2	0.00e+00	0	31	0	975175680	40	5502
2026-01-17 20:09:52.97	12.09	13.14	-33.3	-34.0	24.9	0.00e+00	0	31	0	998244352	40	5713
2026-01-17 20:09:57.01	11.42	13.36	-33.3	-34.0	24.9	0.00e+00	0	31	0	1021313024	40	5739
2026-01-17 20:10:01.04	10.74	13.58	-32.8	-33.4	25.4	0.00e+00	0	31	0	1043333120	40	5372
2026-01-17 20:10:05.08	10.04	13.80	-32.6	-33.3	25.6	0.00e+00	0	31	0	1066401792	38	5923
2026-01-17 20:10:09.12	9.34	14.01	-32.7	-33.4	25.5	0.00e+00	0	31	0	1088421888	38	6010
2026-01-17 20:10:13.15	8.63	14.22	-32.5	-33.2	25.7	0.00e+00	0	31	0	1111490560	38	5844
2026-01-17 20:10:17.19	7.90	14.43	-32.6	-33.3	25.5	0.00e+00	0	31	0	1134559232	38	5937
2026-01-17 20:10:21.23	7.17	14.64	-32.9	-33.6	25.4	0.00e+00	0	31	0	1157627904	38	6119
2026-01-17 20:10:25.28	6.42	14.84	-32.7	-33.4	25.5	0.00e+00	0	31	0	1179648000	38	6023
2026-01-17 20:10:29.32	5.66	15.04	-32.5	-33.2	25.7	0.00e+00	0	31	0	1202716672	38	5874
2026-01-17 20:10:33.36	4.90	15.24	-32.6	-33.2	25.8	0.00e+00	0	31	0	1225785344	38	5877
2026-01-17 20:10:37.40	4.12	15.43	-32.6	-33.3	25.7	0.00e+00	0	31	0	1247805440	38	5924
2026-01-17 20:10:41.44	3.34	15.62	-32.6	-33.4	25.6	0.00e+00	0	31	0	1270874112	38	5967
2026-01-17 20:10:45.48	2.54	15.80	-32.2	-32.9	26.1	0.00e+00	0	31	0	1293942784	38	5652
2026-01-17 20:10:49.52	1.73	15.98	-32.1	-32.7	26.1	0.00e+00	0	31	0	1315962880	38	5563
2026-01-17 20:10:53.55	0.92	16.16	-32.1	-32.7	26.2	0.00e+00	0	31	0	1339031552	38	5550
2026-01-17 20:10:57.59	0.09	16.33	-32.0	-32.6	26.2	0.00e+00	0	31	0	1362100224	38	5464
2026-01-17 20:11:01.64	359.26	16.49	-31.9	-32.6	26.3	0.00e+00	0	31	0	1384120320	38	5474
2026-01-17 20:11:05.68	358.41	16.65	-31.7	-32.3	26.4	0.00e+00	0	31	0	1407188992	36	5963
2026-01-17 20:11:09.72	357.56	16.81	-31.6	-32.3	26.6	0.00e+00	0	30	0	1430257664	36	5904
2026-01-17 20:11:13.76	356.70	16.96	-31.6	-32.2	26.6	0.00e+00	0	31	0	1452277760	36	5873
2026-01-17 20:11:17.80	355.83	17.10	-31.3	-32.0	26.9	0.00e+00	0	31	0	1475346432	36	5703
2026-01-17 20:11:21.84	354.95	17.24	-31.5	-32.2	26.6	0.00e+00	0	30	0	1498415104	36	5838
2026-01-17 20:11:25.88	354.06	17.37	-31.7	-32.3	26.5	0.00e+00	0	31	0	1520435200	36	5961
2026-01-17 20:11:29.91	353.17	17.49	-31.8	-32.5	26.5	0.00e+00	0	31	0	1543503872	36	6070
2026-01-17 20:11:33.95	352.27	17.61	-31.9	-32.5	26.4	0.00e+00	0	31	0	1566572544	36	6100
2026-01-17 20:11:37.99	351.36	17.72	-31.8	-32.4	26.5	0.00e+00	0	31	0	1588592640	36	6001
2026-01-17 20:11:42.02	350.45	17.83	-31.7	-32.3	26.6	0.00e+00	0	31	0	1611661312	36	5962
2026-01-17 20:11:46.06	349.52	17.93	-31.6	-32.2	26.7	0.00e+00	0	31	0	1634729984	36	5870
2026-01-17 20:11:50.10	348.60	18.02	-31.4	-32.0	26.8	0.00e+00	0	31	0	1656750080	36	5725
2026-01-17 20:11:54.14	347.66	18.10	-31.7	-32.4	26.5	0.00e+00	0	31	0	1679818752	36	5993
2026-01-17 20:11:58.18	346.73	18.17	-31.7	-32.4	26.5	0.00e+00	0	31	0	1702887424	36	5972
2026-01-17 20:12:02.22	345.78	18.24	-31.4	-32.1	26.8	0.00e+00	0	31	0	1724907520	36	5779
2026-01-17 20:12:06.26	344.84	18.30	-31.3	-32.0	26.9	0.00e+00	0	30	0	1747976192	36	5708
2026-01-17 20:12:10.30	343.89	18.35	-31.3	-32.0	26.9	0.00e+00	0	31	0	1771044864	36	5718
2026-01-17 20:12:14.35	342.93	18.39	-31.5	-32.1	26.8	0.00e+00	0	31	0	1793064960	36	5777
2026-01-17 20:12:18.39	341.98	18.43	-31.4	-32.0	26.8	0.00e+00	0	31	0	1816133632	36	5751
2026-01-17 20:12:22.43	341.02	18.45	-31.2	-31.8	27.0	0.00e+00	0	31	0	1839202304	36	5599
2026-01-17 20:12:26.46	340.06	18.47	-31.1	-31.7	27.1	0.00e+00	0	30	0	1861222400	36	5543
2026-01-17 20:12:30.50	339.10	18.48	-31.0	-31.6	27.0	0.00e+00	0	30	0	1884291072	36	5485
2026-01-17 20:12:34.54	338.14	18.48	-31.2	-31.9	26.9	0.00e+00	0	31	0	1907359744	36	5656
2026-01-17 20:12:38.59	337.18	18.48	-31.4	-32.1	26.7	0.00e+00	0	30	0	1929379840	36	5793
2026-01-17 20:12:42.63	336.22	18.46	-31.5	-32.2	26.6	0.00e+00	0	31	0	1952448512	36	5850
2026-01-17 20:12:46.67	335.26	18.44	-31.5	-32.2	26.5	0.00e+00	0	30	0	1975517184	36	5856
2026-01-17 20:12:50.70	334.31	18.41	-31.1	-31.7	27.0	0.00e+00	0	30	0	1997537280	36	5547
2026-01-17 20:12:54.74	333.36	18.37	-31.2	-31.9	26.9	0.00e+00	0	31	0	2020605952	36	5646
2026-01-17 20:12:58.78	332.40	18.32	-31.1	-31.7	27.1	0.00e+00	0	31	0	2043674624	36	5528
2026-01-17 20:13:02.82	331.46	18.26	-31.3	-32.0	26.8	0.00e+00	0	30	0	2065694720	36	5720
2026-01-17 20:13:06.86	330.51	18.20	-31.7	-32.3	26.6	0.00e+00	0	30	0	2088763392	36	5935
2026-01-17 20:13:10.90	329.57	18.13	-31.6	-32.3	26.7	0.00e+00	0	30	0	2111832064	36	5910
2026-01-17 20:13:14.94	328.64	18.05	-31.8	-32.5	26.4	0.00e+00	0	31	0	2133852160	36	6083
2026-01-17 20:13:18.98	327.71	17.96	-31.6	-32.2	26.6	0.00e+00	0	30	0	2156920832	36	5881
2026-01-17 20:13:23.02	326.78	17.87	-31.7	-32.3	26.5	0.00e+00	0	30	0	2179989504	36	5947
2026-01-17 20:13:27.06	325.86	17.77	-31.9	-32.5	26.5	0.00e+00	0	30	0	2202009600	36	6100
2026-01-17 20:13:31.10	324.95	17.66	-31.9	-32.5	26.4	0.00e+00	0	30	0	2225078272	36	6093
2026-01-17 20:13:35.14	324.04	17.54	-31.7	-32.4	26.6	0.00e+00	0	30	0	2248146944	36	5982
2026-01-17 20:13:39.17	323.15	17.42	-31.6	-32.3	26.6	0.00e+00	0	30	0	2271215616	36	5941
2026-01-17 20:13:43.21	322.26	17.29	-31.7	-32.4	26.5	0.00e+00	0	30	0	2293235712	36	5996
2026-01-17 20:13:47.25	321.37	17.16	-31.8	-32.5	26.5	0.00e+00	0	30	0	2316304384	36	6093
2026-01-17 20:13:51.29	320.50	17.01	-31.8	-32.5	26.4	0.00e+00	0	31	0	2338324480	36	6063
2026-01-17 20:13:55.33	319.63	16.87	-31.6	-32.2	26.7	0.00e+00	0	31	0	2361393152	36	5832
2026-01-17 20:13:59.37	318.77	16.71	-31.8	-32.5	26.4	0.00e+00	0	30	0	2384461824	36	6086
2026-01-17 20:14:03.41	317.93	16.56	-31.9	-32.5	26.4	0.00e+00	0	30	0	2406481920	36	6084
2026-01-17 20:14:07.45	317.09	16.39	-32.0	-32.7	26.3	0.00e+00	0	31	0	2429550592	36	6186
2026-01-17 20:14:11.49	316.26	16.22	-32.2	-32.8	26.1	0.00e+00	0	30	0	2452619264	36	6308
2026-01-17 20:14:15.54	315.43	16.05	-32.2	-32.8	26.1	0.00e+00	0	30	0	2475687936	36	6304
2026-01-17 20:14:19.58	314.62	15.87	-32.3	-33.0	26.1	0.00e+00	0	30	0	2497708032	36	6420
2026-01-17 20:14:23.62	313.82	15.69	-32.3	-33.0	26.0	0.00e+00	0	30	0	2520776704	36	6419
2026-01-17 20:14:27.65	313.03	15.50	-32.4	-33.1	26.0	0.00e+00	0	31	0	2542796800	36	6482
2026-01-17 20:14:31.69	312.25	15.31	-32.7	-33.3	25.7	0.00e+00	0	30	0	2565865472	36	6680
2026-01-17 20:14:35.74	311.48	15.11	-32.6	-33.3	25.8	0.00e+00	0	30	0	2588934144	38	5961
2026-01-17 20:14:39.78	310.71	14.92	-32.6	-33.3	25.7	0.00e+00	0	31	0	2612002816	38	5933
2026-01-17 20:14:43.82	309.96	14.71	-32.6	-33.2	25.7	0.00e+00	0	30	0	2634022912	38	5853
2026-01-17 20:14:47.86	309.22	14.51	-32.8	-33.5	25.6	0.00e+00	0	30	0	2657091584	38	6044
2026-01-17 20:14:51.90	308.49	14.30	-32.9	-33.7	25.5	0.00e+00	0	31	0	2680160256	38	6202
2026-01-17 20:14:55.94	307.77	14.09	-33.3	-34.0	25.1	0.00e+00	0	30	0	2702180352	38	6431
2026-01-17 20:14:59.98	307.06	13.88	-33.2	-33.9	25.1	0.00e+00	0	30	0	2725249024	38	6384
2026-01-17 20:15:04.02	306.36	13.66	-33.4	-34.1	25.0	0.00e+00	0	30	0	2748317696	38	6517
2026-01-17 20:15:08.07	305.67	13.44	-32.6	-33.2	25.7	0.00e+00	0	30	0	2770337792	38	5870
2026-01-17 20:15:12.11	304.99	13.22	-32.9	-33.6	25.3	0.00e+00	0	30	0	2793406464	38	6104
2026-01-17 20:15:16.15	304.33	13.00	-32.8	-33.5	25.3	0.00e+00	0	30	0	2816475136	38	6060
2026-01-17 20:15:20.19	303.67	12.78	-33.3	-33.9	25.0	0.00e+00	0	30	0	2838495232	38	6375
2026-01-17 20:15:24.23	303.02	12.55	-33.3	-34.0	24.8	0.00e+00	0	30	0	2861563904	38	6403
2026-01-17 20:15:28.27	302.38	12.33	-33.3	-33.9	24.9	0.00e+00	0	30	0	2884632576	38	6388
2026-01-17 20:15:32.32	301.75	12.10	-33.7	-34.4	24.6	0.00e+00	0	30	0	2906652672	40	5983
2026-01-17 20:15:36.36	301.13	11.87	-33.7	-34.3	24.5	0.00e+00	0	30	0	2929721344	40	5922
2026-01-17 20:15:40.40	300.53	11.64	-33.8	-34.4	24.5	0.00e+00	0	30	0	2952790016	40	6032
2026-01-17 20:15:44.44	299.93	11.40	-33.7	-34.3	24.5	0.00e+00	0	30	0	2974810112	40	5955
2026-01-17 20:15:48.48	299.34	11.17	-33.7	-34.4	24.4	0.00e+00	0	30	0	2997878784	40	5977
2026-01-17 20:15:52.52	298.76	10.94	-33.7	-34.4	24.4	0.00e+00	0	31	0	3020947456	40	5965
2026-01-17 20:15:56.56	298.19	10.71	-34.3	-35.1	23.9	0.00e+00	0	30	0	3042967552	40	6491
2026-01-17 20:16:00.60	297.63	10.47	-34.7	-35.5	23.4	0.00e+00	0	31	0	3066036224	42	6051
2026-01-17 20:16:04.64	297.07	10.24	-34.6	-35.3	23.8	0.00e+00	0	30	0	3089104896	42	5909
2026-01-17 20:16:08.69	296.53	10.00	-34.5	-35.2	23.8	0.00e+00	0	30	0	3112173568	42	5888
2026-01-17 20:16:12.73	295.99	9.77	-34.3	-34.9	24.0	0.00e+00	0	30	0	3134193664	42	5675
2026-01-17 20:16:16.77	295.47	9.53	-34.3	-34.9	23.9	0.00e+00	0	31	0	3157262336	42	5669
2026-01-17 20:16:20.81	294.95	9.30	-34.8	-35.4	23.4	0.00e+00	0	31	0	3179282432	42	6030
2026-01-17 20:16:24.86	294.44	9.06	-35.1	-36.0	23.0	0.00e+00	0	30	0	3202351104	42	6399
2026-01-17 20:16:28.90	293.94	8.83	-34.6	-35.4	23.5	0.00e+00	0	30	0	3225419776	42	5990
2026-01-17 20:16:32.93	293.45	8.59	-34.8	-35.6	23.5	0.00e+00	0	30	0	3248488448	42	6126
2026-01-17 20:16:36.98	292.96	8.36	-34.9	-35.7	23.2	0.00e+00	0	30	0	3270508544	42	6207
2026-01-17 20:16:41.02	292.49	8.12	-34.6	-35.4	23.4	0.00e+00	0	30	0	3293577216	42	6015
2026-01-17 20:16:45.06	292.02	7.89	-34.6	-35.3	23.5	0.00e+00	0	30	0	3316645888	42	5919
2026-01-17 20:16:49.10	291.56	7.65	-34.9	-35.7	23.2	0.00e+00	0	30	0	3338665984	42	6198
2026-01-17 20:16:53.14	291.11	7.42	-34.8	-35.7	23.2	0.00e+00	0	30	0	3361734656	42	6181
2026-01-17 20:16:57.18	290.66	7.19	-35.0	-35.7	23.1	0.00e+00	0	30	0	3384803328	42	6199
2026-01-17 20:17:01.22	290.22	6.95	-35.2	-36.1	22.8	0.00e+00	0	30	0	3406823424	42	6475
2026-01-17 20:17:05.26	289.79	6.72	-35.2	-36.0	22.7	0.00e+00	0	31	0	3429892096	42	6421
2026-01-17 20:17:09.30	289.37	6.49	-35.3	-36.0	22.6	0.00e+00	0	31	0	3452960768	42	6438
2026-01-17 20:17:13.34	288.95	6.26	-35.6	-36.3	22.3	0.00e+00	0	31	0	3474980864	42	6672
2026-01-17 20:17:17.38	288.54	6.03	-35.4	-36.3	22.4	0.00e+00	0	30	0	3498049536	44	5940
2026-01-17 20:17:21.42	288.13	5.80	-35.7	-36.6	22.1	0.00e+00	0	30	0	3521118208	44	6146
2026-01-17 20:17:25.46	287.73	5.57	-35.6	-36.3	22.3	0.00e+00	0	30	0	3543138304	44	5938
2026-01-17 20:17:29.50	287.34	5.34	-35.8	-36.5	22.0	0.00e+00	0	30	0	3566206976	44	6102
2026-01-17 20:17:33.54	286.96	5.12	-35.6	-36.4	22.1	0.00e+00	0	31	0	3589275648	44	5996
2026-01-17 20:17:37.58	286.58	4.89	-35.8	-36.6	21.9	0.00e+00	0	31	0	3611295744	44	6117
2026-01-17 20:17:41.62	286.21	4.66	-36.4	-37.3	21.2	0.00e+00	0	30	0	3634364416	44	6659
2026-01-17 20:17:45.66	285.84	4.44	-36.3	-37.1	21.6	0.00e+00	0	31	0	3657433088	44	6476
2026-01-17 20:17:49.70	285.48	4.21	-35.9	-36.8	21.7	0.00e+00	0	30	0	3679453184	44	6277
2026-01-17 20:17:53.74	285.12	3.99	-35.8	-36.6	21.8	0.00e+00	0	30	0	3702521856	44	6169
2026-01-17 20:17:57.79	284.77	3.77	-36.1	-37.1	21.3	0.00e+00	0	30	0	3725590528	44	6478
2026-01-17 20:18:01.83	284.43	3.54	-36.1	-36.9	21.3	0.00e+00	0	30	0	3748659200	44	6387
2026-01-17 20:18:05.87	284.09	3.32	-36.2	-37.1	21.3	0.00e+00	0	31	0	3770679296	44	6530
2026-01-17 20:18:09.91	283.75	3.10	-37.0	-38.0	20.0	0.00e+00	0	30	0	3793747968	46	6417
2026-01-17 20:18:13.95	283.42	2.88	-48.5	-60.5	3.6	8.45e-01	0	31	104	3802136576	60	38497
2026-01-17 20:18:17.99	283.10	2.67	-48.8	-60.9	3.6	8.47e-01	0	30	104	3802136576	60	40078
2026-01-17 20:18:22.03	282.78	2.45	-48.2	-60.8	3.6	8.45e-01	0	31	104	3802136576	60	39555
2026-01-17 20:18:26.07	282.47	2.23	-48.6	-60.7	3.6	8.45e-01	0	31	104	3802136576	60	38963
2026-01-17 20:18:30.11	282.16	2.01	-48.8	-60.9	3.6	8.45e-01	0	31	104	3802136576	60	39866
2026-01-17 20:18:34.15	281.85	1.80	-48.7	-60.8	3.6	8.46e-01	0	31	104	3802136576	60	39602
2026-01-17 20:18:38.19	281.55	1.59	-48.7	-60.8	3.6	8.45e-01	0	31	104	3802136576	60	39698
2026-01-17 20:18:42.23	281.26	1.37	-48.7	-60.8	3.6	8.45e-01	0	31	104	3802136576	60	39514
2026-01-17 20:18:46.27	280.97	1.16	-48.7	-60.8	3.6	8.46e-01	0	31	104	3802136576	60	39562
2026-01-17 20:18:50.31	280.68	0.95	-48.8	-60.9	3.6	8.45e-01	0	31	104	3802136576	60	39881
2026-01-17 20:18:54.34	280.40	0.74	-48.7	-60.8	3.6	8.45e-01	0	31	104	3802136576	60	39546
2026-01-17 20:18:58.38	280.12	0.53	-48.7	-60.8	3.6	8.46e-01	0	31	104	3802136576	60	39414
2026-01-17 20:19:02.42	279.84	0.32	-48.7	-60.8	3.6	8.47e-01	0	31	104	3802136576	60	39467
2026-01-17 20:19:06.46	279.57	0.11	-48.7	-60.9	3.6	8.46e-01	0	31	104	3802136576	60	39866

#Closed at: 2026-01-17 20:19:09
#Recorded file [3802 MB]: D:/lorett/data/35029_260118_080614.dat