passes_logs/2026/01/17/R4.6S_Anadyr/R4.6S_Anadyr__20260117_140655_SUOMI_NPP_rec.log

#Pass ID: 20260117_140655_SUOMI NPP
#Satellite: SUOMI NPP
#Configuration: NPP
#almurnet v.1.7.20251203
#Start time: 2026-01-17 14:06:59

#Version: 2.2.20231116
#Station: R4.6S_Anadyr
#Location: 177.4865 lon 64.73178 lat
#TLE: 1 37849U 11061A   26016.58419598  .00000058  00000+0  48257-4 0  9996
#TLE: 2 37849  98.7812 318.6192 0002422  60.8544 299.2874 14.19525580736934

#Time	Az	El	Level	Level2	SNR	BER	BlckErr	Temp	State	Recorded	gain1	gain2
2026-01-17 14:06:59.12	19.49	0.19	-48.5	-62.2	3.3	1.54e+00	0	26	0	0	60	46696
2026-01-17 14:07:03.16	19.59	0.43	-48.5	-63.7	3.6	1.51e+00	0	26	104	0	60	55593
2026-01-17 14:07:07.20	19.69	0.67	-48.5	-63.7	3.6	1.51e+00	0	26	104	0	60	55186
2026-01-17 14:07:11.25	19.80	0.91	-48.1	-63.2	3.6	1.51e+00	0	26	104	0	60	52521
2026-01-17 14:07:15.29	19.90	1.15	-47.2	-62.4	3.6	1.51e+00	0	27	104	0	60	47501
2026-01-17 14:07:19.33	20.01	1.40	-46.9	-62.1	3.6	1.51e+00	0	27	104	0	60	45886
2026-01-17 14:07:23.37	20.11	1.65	-46.9	-62.1	3.6	1.51e+00	0	27	104	0	60	46043
2026-01-17 14:07:27.41	20.22	1.90	-46.9	-62.1	3.6	1.51e+00	0	27	104	0	60	45776
2026-01-17 14:07:31.46	20.34	2.15	-46.9	-61.7	3.6	1.51e+00	0	27	104	0	60	43873
2026-01-17 14:07:35.49	20.45	2.41	-46.8	-60.0	3.7	1.51e+00	0	27	104	0	60	36160
2026-01-17 14:07:39.53	20.56	2.66	-46.7	-58.3	3.8	1.50e+00	0	27	104	0	60	29809
2026-01-17 14:07:43.57	20.68	2.92	-44.1	-47.6	13.5	4.11e-05	0	27	0	5242880	60	8649
2026-01-17 14:07:47.61	20.79	3.18	-41.6	-43.6	17.5	0.00e+00	0	27	0	13631488	56	6873
2026-01-17 14:07:51.65	20.91	3.45	-42.3	-44.5	16.5	0.00e+00	0	27	0	20971520	56	7636
2026-01-17 14:07:55.69	21.03	3.72	-44.1	-47.8	11.5	0.00e+00	77	27	0	28311552	58	9946
2026-01-17 14:07:59.73	21.16	3.98	-46.4	-54.8	4.8	1.51e+00	0	27	104	34603008	60	19831
2026-01-17 14:08:03.76	21.28	4.26	-44.5	-48.1	12.7	6.94e-05	0	27	0	39845888	60	9163
2026-01-17 14:08:07.80	21.41	4.53	-43.6	-46.4	14.8	7.00e-07	0	27	0	47185920	60	7567
2026-01-17 14:08:11.83	21.54	4.81	-41.7	-43.6	17.5	0.00e+00	0	27	0	54525952	56	6900
2026-01-17 14:08:15.87	21.67	5.09	-41.4	-43.2	18.1	0.00e+00	0	27	0	62914560	56	6548
2026-01-17 14:08:19.91	21.80	5.37	-40.8	-42.4	18.9	0.00e+00	0	27	0	70254592	54	6740
2026-01-17 14:08:23.94	21.94	5.66	-40.5	-42.0	19.5	0.00e+00	69	27	0	77594624	54	6425
2026-01-17 14:08:27.98	22.07	5.94	-40.2	-41.7	19.6	0.00e+00	0	27	0	84934656	54	6191
2026-01-17 14:08:32.02	22.22	6.24	-40.1	-41.5	19.7	0.00e+00	0	27	0	93323264	54	6093
2026-01-17 14:08:36.05	22.36	6.53	-40.1	-41.5	19.7	0.00e+00	0	27	0	100663296	54	6056
2026-01-17 14:08:40.09	22.50	6.83	-40.2	-41.6	19.7	0.00e+00	45	27	0	108003328	52	6925
2026-01-17 14:08:44.13	22.65	7.13	-40.2	-41.6	19.9	0.00e+00	0	27	0	115343360	52	6869
2026-01-17 14:08:48.17	22.80	7.44	-39.9	-41.3	20.1	0.00e+00	0	27	0	122683392	52	6628
2026-01-17 14:08:52.21	22.95	7.75	-40.0	-41.4	20.0	0.00e+00	0	27	0	131072000	52	6693
2026-01-17 14:08:56.25	23.11	8.06	-40.3	-41.7	20.1	0.00e+00	92	27	0	138412032	52	6977
2026-01-17 14:09:00.29	23.27	8.38	-39.9	-41.2	20.2	0.00e+00	0	27	0	145752064	52	6601
2026-01-17 14:09:04.33	23.43	8.70	-39.5	-40.7	20.5	0.00e+00	0	27	0	153092096	52	6222
2026-01-17 14:09:08.37	23.60	9.02	-39.9	-41.2	20.4	0.00e+00	11	27	0	161480704	52	6608
2026-01-17 14:09:12.40	23.77	9.35	-39.2	-40.4	20.9	0.00e+00	0	27	0	168820736	52	5979
2026-01-17 14:09:16.44	23.94	9.68	-38.8	-39.9	21.4	0.00e+00	0	27	0	176160768	52	5671
2026-01-17 14:09:20.48	24.11	10.02	-38.9	-40.0	21.3	0.00e+00	0	27	0	183500800	50	6425
2026-01-17 14:09:24.52	24.29	10.36	-38.8	-39.9	21.4	0.00e+00	77	27	0	190840832	50	6381
2026-01-17 14:09:28.56	24.48	10.70	-38.4	-39.4	21.9	0.00e+00	0	27	0	199229440	50	6019
2026-01-17 14:09:32.59	24.66	11.05	-38.6	-39.7	21.8	0.00e+00	0	27	0	206569472	50	6176
2026-01-17 14:09:36.63	24.86	11.41	-38.3	-39.3	22.0	0.00e+00	0	27	0	213909504	50	5933
2026-01-17 14:09:40.67	25.05	11.77	-38.0	-39.0	22.2	0.00e+00	84	27	0	221249536	50	5761
2026-01-17 14:09:44.71	25.25	12.14	-37.8	-38.8	22.5	0.00e+00	0	27	0	229638144	48	6297
2026-01-17 14:09:48.75	25.46	12.51	-37.9	-38.9	22.5	0.00e+00	0	27	0	236978176	48	6366
2026-01-17 14:09:52.78	25.67	12.88	-37.8	-38.7	22.4	0.00e+00	0	27	0	244318208	48	6241
2026-01-17 14:09:56.82	25.88	13.27	-38.0	-39.0	22.3	0.00e+00	0	27	0	251658240	48	6451
2026-01-17 14:10:00.86	26.10	13.65	-37.8	-38.8	22.5	0.00e+00	0	27	0	258998272	48	6306
2026-01-17 14:10:04.89	26.32	14.05	-38.0	-39.0	22.4	0.00e+00	0	27	0	267386880	48	6402
2026-01-17 14:10:08.93	26.56	14.45	-37.6	-38.6	22.7	0.00e+00	85	27	0	274726912	48	6127
2026-01-17 14:10:12.97	26.79	14.85	-37.9	-38.9	22.6	0.00e+00	6	27	0	282066944	48	6331
2026-01-17 14:10:17.00	27.03	15.26	-37.8	-38.8	22.7	0.00e+00	0	27	0	289406976	48	6274
2026-01-17 14:10:21.04	27.28	15.68	-37.7	-38.7	22.7	0.00e+00	0	27	0	297795584	48	6211
2026-01-17 14:10:25.08	27.54	16.11	-37.8	-38.8	22.7	0.00e+00	89	27	0	305135616	48	6253
2026-01-17 14:10:29.12	27.80	16.54	-37.6	-38.5	22.8	0.00e+00	0	27	0	312475648	48	6096
2026-01-17 14:10:33.15	28.07	16.98	-37.3	-38.2	23.1	0.00e+00	0	27	0	319815680	48	5875
2026-01-17 14:10:37.19	28.35	17.43	-36.8	-37.6	23.6	0.00e+00	89	27	0	327155712	46	6171
2026-01-17 14:10:41.23	28.63	17.89	-36.4	-37.3	23.8	0.00e+00	92	27	0	335544320	46	5903
2026-01-17 14:10:45.27	28.92	18.35	-36.8	-37.7	23.6	0.00e+00	0	27	0	342884352	46	6223
2026-01-17 14:10:49.31	29.23	18.82	-36.8	-37.7	23.5	0.00e+00	0	27	0	350224384	46	6243
2026-01-17 14:10:53.35	29.54	19.30	-36.8	-37.7	23.5	0.00e+00	88	27	0	357564416	46	6239
2026-01-17 14:10:57.38	29.86	19.79	-36.9	-37.8	23.5	0.00e+00	0	27	0	365953024	46	6311
2026-01-17 14:11:01.42	30.19	20.29	-36.8	-37.7	23.7	0.00e+00	0	27	0	373293056	46	6193
2026-01-17 14:11:05.46	30.53	20.80	-36.4	-37.2	23.9	0.00e+00	0	27	0	380633088	46	5873
2026-01-17 14:11:09.50	30.88	21.31	-36.3	-37.2	23.9	0.00e+00	83	27	0	387973120	46	5869
2026-01-17 14:11:13.53	31.24	21.84	-36.5	-37.3	23.9	0.00e+00	0	27	0	395313152	46	5958
2026-01-17 14:11:17.57	31.62	22.38	-36.3	-37.2	24.0	0.00e+00	0	27	0	403701760	46	5843
2026-01-17 14:11:21.61	32.00	22.92	-35.9	-36.7	24.5	0.00e+00	0	27	0	411041792	46	5536
2026-01-17 14:11:25.65	32.40	23.48	-35.6	-36.4	24.6	0.00e+00	84	27	0	418381824	44	6012
2026-01-17 14:11:29.68	32.82	24.05	-35.7	-36.5	24.4	0.00e+00	0	27	0	425721856	44	6088
2026-01-17 14:11:33.72	33.25	24.63	-35.5	-36.3	24.6	0.00e+00	0	27	0	434110464	44	5930
2026-01-17 14:11:37.76	33.69	25.22	-36.2	-37.0	24.0	0.00e+00	81	27	0	441450496	44	6444
2026-01-17 14:11:41.80	34.15	25.82	-36.2	-37.0	23.8	0.00e+00	0	27	0	448790528	44	6461
2026-01-17 14:11:45.83	34.63	26.44	-36.8	-37.7	23.7	0.00e+00	0	27	0	456130560	46	6176
2026-01-17 14:11:49.87	35.13	27.06	-37.2	-38.1	23.3	0.00e+00	0	27	0	463470592	46	6492
2026-01-17 14:11:53.90	35.64	27.70	-37.3	-38.2	23.1	0.00e+00	88	27	0	471859200	46	6588
2026-01-17 14:11:57.94	36.18	28.35	-37.6	-38.5	23.0	0.00e+00	0	27	0	479199232	46	6834
2026-01-17 14:12:01.98	36.74	29.02	-38.0	-38.9	22.8	0.00e+00	0	27	0	486539264	48	6389
2026-01-17 14:12:06.02	37.32	29.70	-38.8	-39.8	22.1	0.00e+00	0	27	0	493879296	50	6295
2026-01-17 14:12:10.06	37.93	30.39	-40.6	-42.0	20.2	0.00e+00	92	27	0	502267904	52	7243
2026-01-17 14:12:14.09	38.56	31.10	-40.6	-42.0	20.2	0.00e+00	0	27	0	509607936	54	6415
2026-01-17 14:12:18.13	39.22	31.81	-39.5	-40.6	21.3	0.00e+00	0	27	0	516947968	52	6173
2026-01-17 14:12:22.17	39.91	32.55	-39.2	-40.3	21.6	0.00e+00	25	27	0	524288000	52	5955
2026-01-17 14:12:26.21	40.63	33.29	-38.4	-39.4	22.3	0.00e+00	51	27	0	531628032	50	6010
2026-01-17 14:12:30.25	41.38	34.05	-38.7	-39.8	22.1	0.00e+00	0	27	0	540016640	50	6279
2026-01-17 14:12:34.29	42.17	34.83	-39.3	-40.5	21.5	0.00e+00	0	27	0	547356672	50	6786
2026-01-17 14:12:38.33	43.00	35.62	-38.4	-39.4	22.3	0.00e+00	92	28	0	554696704	50	6017
2026-01-17 14:12:42.37	43.87	36.42	-37.5	-38.4	23.2	0.00e+00	0	27	0	562036736	50	5333
2026-01-17 14:12:46.41	44.78	37.23	-39.0	-40.2	21.6	0.00e+00	0	27	0	570425344	50	6558
2026-01-17 14:12:50.44	45.73	38.05	-39.4	-40.6	21.4	0.00e+00	0	27	0	577765376	50	6856
2026-01-17 14:12:54.48	46.74	38.89	-38.2	-39.2	22.5	0.00e+00	91	27	0	585105408	50	5889
2026-01-17 14:12:58.52	47.80	39.74	-37.1	-38.0	23.5	0.00e+00	0	27	0	592445440	48	5731
2026-01-17 14:13:02.56	48.91	40.60	-37.9	-38.9	22.7	0.00e+00	0	27	0	599785472	48	6325
2026-01-17 14:13:06.59	50.09	41.46	-37.9	-38.9	22.7	0.00e+00	0	27	0	608174080	48	6361
2026-01-17 14:13:10.63	51.32	42.33	-38.2	-39.2	22.4	0.00e+00	90	28	0	615514112	48	6598
2026-01-17 14:13:14.67	52.63	43.21	-38.6	-39.6	22.2	0.00e+00	0	27	0	622854144	48	6921
2026-01-17 14:13:18.70	54.01	44.09	-39.4	-40.6	21.4	0.00e+00	0	27	0	630194176	50	6869
2026-01-17 14:13:22.74	55.46	44.97	-39.1	-40.2	21.7	0.00e+00	65	27	0	638582784	50	6571
2026-01-17 14:13:26.78	57.00	45.85	-40.1	-41.4	20.7	0.00e+00	0	27	0	645922816	52	6708
2026-01-17 14:13:30.81	58.62	46.73	-40.4	-41.7	20.4	0.00e+00	0	27	0	653262848	54	6242
2026-01-17 14:13:34.84	60.34	47.60	-40.4	-41.8	20.3	0.00e+00	0	27	0	660602880	54	6247
2026-01-17 14:13:38.88	62.15	48.45	-39.0	-40.1	21.8	0.00e+00	63	27	0	667942912	52	5772
2026-01-17 14:13:42.92	64.07	49.30	-39.2	-40.4	21.3	0.00e+00	0	28	0	676331520	52	6033
2026-01-17 14:13:46.96	66.09	50.12	-39.3	-40.6	21.4	0.00e+00	0	27	0	683671552	50	6875
2026-01-17 14:13:50.99	68.22	50.92	-38.3	-39.4	22.5	0.00e+00	0	28	0	691011584	50	5990
2026-01-17 14:13:55.03	70.47	51.69	-36.5	-37.4	23.9	0.00e+00	73	28	0	698351616	46	6002
2026-01-17 14:13:59.07	72.83	52.42	-35.8	-36.6	24.4	0.00e+00	0	28	0	705691648	44	6119
2026-01-17 14:14:03.10	75.31	53.11	-37.3	-38.2	23.2	0.00e+00	0	28	0	714080256	46	6579
2026-01-17 14:14:07.14	77.90	53.76	-36.7	-37.6	23.7	0.00e+00	3	27	0	721420288	46	6131
2026-01-17 14:14:11.18	80.61	54.35	-37.1	-38.1	23.5	0.00e+00	65	27	0	728760320	48	5764
2026-01-17 14:14:15.22	83.42	54.88	-36.4	-37.3	24.0	0.00e+00	4	28	0	736100352	46	5923
2026-01-17 14:14:19.25	86.33	55.35	-36.6	-37.5	23.9	0.00e+00	0	27	0	744488960	44	6771
2026-01-17 14:14:23.29	89.34	55.74	-37.1	-38.1	23.5	0.00e+00	28	28	0	751828992	46	6479
2026-01-17 14:14:27.33	92.42	56.07	-37.6	-38.6	23.0	0.00e+00	0	28	0	759169024	46	6873
2026-01-17 14:14:31.37	95.57	56.31	-37.9	-38.9	22.7	0.00e+00	0	27	0	766509056	48	6378
2026-01-17 14:14:35.40	98.75	56.47	-36.6	-37.5	24.0	0.00e+00	0	28	0	773849088	46	6043
2026-01-17 14:14:39.44	101.97	56.54	-36.8	-37.6	23.7	0.00e+00	90	27	0	782237696	46	6169
2026-01-17 14:14:43.47	105.19	56.53	-37.1	-38.0	23.5	0.00e+00	0	28	0	789577728	48	5708
2026-01-17 14:14:47.51	108.40	56.43	-36.3	-37.1	24.2	0.00e+00	0	28	0	796917760	46	5792
2026-01-17 14:14:51.55	111.58	56.25	-35.6	-36.3	24.7	0.00e+00	0	27	0	804257792	44	5933
2026-01-17 14:14:55.59	114.71	55.98	-37.0	-37.9	23.6	0.00e+00	90	27	0	812646400	46	6377
2026-01-17 14:14:59.62	117.77	55.64	-38.9	-40.0	22.0	0.00e+00	0	28	0	819986432	50	6420
2026-01-17 14:15:03.66	120.75	55.22	-37.1	-38.0	23.5	0.00e+00	0	28	0	827326464	46	6454
2026-01-17 14:15:07.70	123.64	54.73	-36.7	-37.5	23.9	0.00e+00	73	27	0	834666496	46	6091
2026-01-17 14:15:11.73	126.42	54.18	-36.1	-36.9	24.1	0.00e+00	33	27	0	842006528	46	5695
2026-01-17 14:15:15.77	129.10	53.57	-37.3	-38.2	23.2	0.00e+00	0	27	0	850395136	46	6567
2026-01-17 14:15:19.81	131.67	52.91	-36.7	-37.6	23.9	0.00e+00	0	27	0	857735168	46	6129
2026-01-17 14:15:23.85	134.11	52.20	-38.3	-39.4	22.3	0.00e+00	72	27	0	865075200	48	6717
2026-01-17 14:15:27.89	136.45	51.45	-39.0	-40.0	22.2	0.00e+00	0	28	0	872415232	52	5750
2026-01-17 14:15:31.92	138.66	50.67	-40.2	-41.5	20.4	0.00e+00	0	28	0	879755264	54	6073
2026-01-17 14:15:35.96	140.76	49.87	-41.9	-43.7	18.7	0.00e+00	0	28	0	888143872	56	6946
2026-01-17 14:15:39.99	142.75	49.04	-39.0	-40.1	21.9	0.00e+00	73	27	0	895483904	50	6515
2026-01-17 14:15:44.03	144.64	48.18	-39.4	-40.7	21.4	0.00e+00	0	27	0	902823936	52	6181
2026-01-17 14:15:48.07	146.43	47.32	-37.4	-38.3	23.2	0.00e+00	0	27	0	910163968	46	6675
2026-01-17 14:15:52.10	148.12	46.45	-36.5	-37.4	24.0	0.00e+00	59	27	0	918552576	44	6729
2026-01-17 14:15:56.14	149.72	45.56	-37.8	-38.7	22.9	0.00e+00	62	28	0	925892608	48	6241
2026-01-17 14:16:00.18	151.24	44.68	-38.9	-40.0	22.0	0.00e+00	0	28	0	933232640	50	6453
2026-01-17 14:16:04.21	152.67	43.80	-41.0	-42.5	19.7	0.00e+00	0	28	0	940572672	54	6793
2026-01-17 14:16:08.25	154.03	42.91	-39.6	-40.8	20.9	0.00e+00	86	28	0	947912704	52	6260
2026-01-17 14:16:12.29	155.32	42.03	-43.1	-45.3	17.3	0.00e+00	0	28	0	956301312	60	6631
2026-01-17 14:16:16.33	156.54	41.16	-42.9	-45.0	17.5	0.00e+00	0	27	0	963641344	58	7207
2026-01-17 14:16:20.37	157.69	40.29	-41.2	-42.8	19.9	0.00e+00	0	27	0	970981376	56	6251
2026-01-17 14:16:24.40	158.79	39.43	-40.4	-41.7	20.5	0.00e+00	92	27	0	978321408	52	6986
2026-01-17 14:16:28.44	159.83	38.59	-36.3	-37.1	24.2	0.00e+00	0	27	0	986710016	46	5811
2026-01-17 14:16:32.48	160.82	37.75	-41.5	-43.2	19.0	0.00e+00	0	27	0	994050048	54	7375
2026-01-17 14:16:36.52	161.77	36.92	-39.0	-40.1	21.9	0.00e+00	0	28	0	1001390080	52	5801
2026-01-17 14:16:40.55	162.66	36.11	-37.9	-38.9	22.7	0.00e+00	84	27	0	1008730112	50	5647
2026-01-17 14:16:44.59	163.52	35.31	-38.4	-39.5	22.0	0.00e+00	0	28	0	1016070144	50	6047
2026-01-17 14:16:48.63	164.34	34.53	-37.9	-38.9	22.7	0.00e+00	0	27	0	1024458752	48	6324
2026-01-17 14:16:52.67	165.11	33.75	-39.3	-40.5	21.4	0.00e+00	0	28	0	1031798784	50	6777
2026-01-17 14:16:56.70	165.86	33.00	-39.5	-40.7	21.3	0.00e+00	0	28	0	1039138816	50	7001
2026-01-17 14:17:00.74	166.57	32.25	-38.9	-40.0	22.0	0.00e+00	0	28	0	1046478848	50	6426
2026-01-17 14:17:04.78	167.25	31.52	-37.4	-38.3	23.6	0.00e+00	0	27	0	1053818880	48	5923
2026-01-17 14:17:08.82	167.90	30.80	-39.1	-40.3	21.7	0.00e+00	84	28	0	1062207488	50	6621
2026-01-17 14:17:12.85	168.52	30.10	-41.0	-42.4	19.7	0.00e+00	0	28	0	1069547520	54	6746
2026-01-17 14:17:16.89	169.12	29.41	-38.4	-39.4	22.6	0.00e+00	0	28	0	1076887552	50	6023
2026-01-17 14:17:20.93	169.69	28.73	-37.0	-37.9	23.6	0.00e+00	0	28	0	1084227584	46	6349
2026-01-17 14:17:24.96	170.25	28.07	-39.9	-41.1	21.0	0.00e+00	92	28	0	1092616192	52	6501
2026-01-17 14:17:29.00	170.78	27.42	-41.1	-42.6	19.7	0.00e+00	0	28	0	1099956224	54	6858
2026-01-17 14:17:33.04	171.29	26.78	-40.0	-41.3	20.9	0.00e+00	0	28	0	1107296256	52	6662
2026-01-17 14:17:37.07	171.77	26.15	-38.7	-39.7	22.0	0.00e+00	0	28	0	1114636288	50	6238
2026-01-17 14:17:41.11	172.25	25.54	-39.9	-41.1	21.0	0.00e+00	91	27	0	1121976320	52	6478
2026-01-17 14:17:45.15	172.70	24.94	-38.0	-38.9	22.8	0.00e+00	0	28	0	1130364928	50	5677
2026-01-17 14:17:49.19	173.14	24.35	-37.2	-38.1	23.4	0.00e+00	0	28	0	1137704960	48	5786
2026-01-17 14:17:53.23	173.57	23.77	-36.7	-37.5	23.8	0.00e+00	1	27	0	1145044992	46	6080
2026-01-17 14:17:57.27	173.97	23.20	-36.5	-37.3	23.9	0.00e+00	0	28	0	1152385024	46	5958
2026-01-17 14:18:01.31	174.37	22.64	-37.3	-38.2	23.1	0.00e+00	0	28	0	1160773632	46	6579
2026-01-17 14:18:05.34	174.75	22.10	-38.1	-39.1	22.4	0.00e+00	0	28	0	1168113664	48	6488
2026-01-17 14:18:09.38	175.12	21.56	-38.0	-39.0	22.6	0.00e+00	90	28	0	1175453696	48	6462
2026-01-17 14:18:13.42	175.48	21.04	-37.0	-37.9	23.4	0.00e+00	0	28	0	1182793728	48	5676
2026-01-17 14:18:17.46	175.82	20.52	-35.7	-36.5	24.5	0.00e+00	0	28	0	1190133760	46	5419
2026-01-17 14:18:21.50	176.16	20.01	-34.8	-35.6	25.1	0.00e+00	0	28	0	1198522368	42	6116
2026-01-17 14:18:25.54	176.49	19.52	-35.2	-36.0	24.8	0.00e+00	92	28	0	1205862400	42	6405
2026-01-17 14:18:29.57	176.80	19.03	-36.2	-37.1	24.0	0.00e+00	0	28	0	1213202432	44	6482
2026-01-17 14:18:33.61	177.11	18.55	-37.3	-38.3	23.1	0.00e+00	0	27	0	1220542464	46	6631
2026-01-17 14:18:37.65	177.40	18.08	-37.9	-38.9	22.6	0.00e+00	73	28	0	1228931072	48	6362
2026-01-17 14:18:41.69	177.69	17.62	-38.0	-39.1	22.5	0.00e+00	37	28	0	1236271104	48	6468
2026-01-17 14:18:45.73	177.97	17.16	-37.8	-38.8	22.6	0.00e+00	0	28	0	1243611136	48	6280
2026-01-17 14:18:49.77	178.25	16.71	-37.8	-38.7	22.7	0.00e+00	0	28	0	1250951168	48	6242
2026-01-17 14:18:53.81	178.51	16.27	-37.9	-38.9	22.6	0.00e+00	79	28	0	1258291200	48	6323
2026-01-17 14:18:57.85	178.77	15.84	-37.4	-38.4	23.0	0.00e+00	0	28	0	1266679808	48	6000
2026-01-17 14:19:01.89	179.02	15.42	-37.2	-38.2	23.2	0.00e+00	0	27	0	1274019840	48	5834
2026-01-17 14:19:05.93	179.26	15.00	-36.9	-37.8	23.5	0.00e+00	0	28	0	1281359872	48	5602
2026-01-17 14:19:09.96	179.50	14.59	-36.6	-37.5	23.7	0.00e+00	90	28	0	1288699904	46	6066
2026-01-17 14:19:14.00	179.73	14.18	-36.4	-37.3	23.8	0.00e+00	0	27	0	1297088512	46	5926
2026-01-17 14:19:18.04	179.96	13.78	-36.6	-37.5	23.6	0.00e+00	0	28	0	1304428544	46	6060
2026-01-17 14:19:22.08	180.18	13.39	-36.7	-37.6	23.5	0.00e+00	0	28	0	1311768576	46	6148
2026-01-17 14:19:26.12	180.40	13.00	-37.2	-38.1	23.2	0.00e+00	92	27	0	1319108608	46	6485
2026-01-17 14:19:30.16	180.61	12.62	-37.6	-38.6	22.8	0.00e+00	0	27	0	1326448640	46	6863
2026-01-17 14:19:34.20	180.81	12.24	-38.3	-39.3	21.9	0.00e+00	0	27	0	1334837248	48	6675
2026-01-17 14:19:38.24	181.01	11.87	-39.2	-40.4	21.2	0.00e+00	92	27	0	1342177280	50	6726
2026-01-17 14:19:42.28	181.21	11.51	-39.7	-40.9	20.8	0.00e+00	0	27	0	1349517312	52	6373
2026-01-17 14:19:46.32	181.40	11.15	-40.4	-41.9	19.8	0.00e+00	0	28	0	1356857344	52	7129
2026-01-17 14:19:50.35	181.59	10.79	-40.1	-41.5	20.3	0.00e+00	0	27	0	1365245952	52	6781
2026-01-17 14:19:54.39	181.77	10.44	-40.1	-41.5	20.2	0.00e+00	92	28	0	1372585984	52	6818
2026-01-17 14:19:58.43	181.95	10.10	-39.7	-41.0	20.5	0.00e+00	0	27	0	1379926016	52	6421
2026-01-17 14:20:02.47	182.13	9.76	-39.3	-40.5	21.1	0.00e+00	0	28	0	1387266048	52	6059
2026-01-17 14:20:06.51	182.30	9.42	-38.8	-39.9	21.6	0.00e+00	33	28	0	1394606080	52	5662
2026-01-17 14:20:10.55	182.47	9.09	-38.4	-39.4	21.8	0.00e+00	75	27	0	1402994688	50	6029
2026-01-17 14:20:14.59	182.63	8.76	-38.2	-39.2	22.1	0.00e+00	0	28	0	1410334720	50	5875
2026-01-17 14:20:18.63	182.79	8.44	-38.0	-39.1	22.2	0.00e+00	0	27	0	1417674752	50	5766
2026-01-17 14:20:22.67	182.95	8.12	-38.1	-39.1	22.2	0.00e+00	75	28	0	1425014784	50	5794
2026-01-17 14:20:26.71	183.11	7.80	-38.2	-39.2	22.0	0.00e+00	0	28	0	1433403392	50	5879
2026-01-17 14:20:30.75	183.26	7.49	-38.1	-39.1	22.2	0.00e+00	0	28	0	1440743424	50	5787
2026-01-17 14:20:34.78	183.41	7.18	-38.3	-39.4	21.8	0.00e+00	0	28	0	1448083456	50	5975
2026-01-17 14:20:38.82	183.55	6.87	-38.6	-39.8	21.4	0.00e+00	62	28	0	1455423488	50	6254
2026-01-17 14:20:42.85	183.70	6.57	-39.1	-40.3	21.0	0.00e+00	0	28	0	1462763520	50	6637
2026-01-17 14:20:46.89	183.84	6.27	-38.8	-39.9	21.3	0.00e+00	0	28	0	1471152128	50	6385
2026-01-17 14:20:50.93	183.98	5.98	-38.9	-40.1	21.2	0.00e+00	0	28	0	1478492160	50	6492
2026-01-17 14:20:54.97	184.11	5.69	-39.4	-40.7	20.6	0.00e+00	92	28	0	1485832192	50	6956
2026-01-17 14:20:59.00	184.24	5.40	-40.0	-41.4	20.0	0.00e+00	0	27	0	1493172224	52	6701
2026-01-17 14:21:03.04	184.38	5.11	-40.1	-41.4	19.9	0.00e+00	0	27	0	1501560832	52	6763
2026-01-17 14:21:07.08	184.50	4.83	-40.4	-41.9	19.5	0.00e+00	0	28	0	1508900864	52	7115
2026-01-17 14:21:11.11	184.63	4.55	-40.1	-41.6	19.8	0.00e+00	57	28	0	1516240896	54	6107
2026-01-17 14:21:15.15	184.75	4.27	-40.5	-42.1	19.1	0.00e+00	0	28	0	1523580928	54	6486
2026-01-17 14:21:19.19	184.88	4.00	-40.7	-42.3	19.0	0.00e+00	0	28	0	1530920960	54	6621
2026-01-17 14:21:23.23	185.00	3.73	-40.3	-41.8	19.4	0.00e+00	38	28	0	1539309568	54	6266
2026-01-17 14:21:27.26	185.12	3.46	-40.4	-41.9	19.3	0.00e+00	0	28	0	1546649600	54	6342
2026-01-17 14:21:31.30	185.23	3.19	-40.6	-42.2	18.9	0.00e+00	0	28	0	1553989632	54	6571
2026-01-17 14:21:35.34	185.35	2.93	-47.7	-62.8	3.6	1.51e+00	0	28	104	1560281088	60	50183
2026-01-17 14:21:39.38	185.46	2.67	-48.5	-63.6	3.6	1.51e+00	0	28	104	1560281088	60	54840
2026-01-17 14:21:43.41	185.57	2.41	-48.4	-63.7	3.6	1.51e+00	0	28	104	1560281088	60	55629
2026-01-17 14:21:47.45	185.68	2.15	-48.5	-63.6	3.6	1.51e+00	0	28	104	1560281088	60	55010
2026-01-17 14:21:51.49	185.79	1.89	-48.5	-63.7	3.6	1.51e+00	0	28	104	1560281088	60	55122
2026-01-17 14:21:55.53	185.89	1.64	-48.5	-63.6	3.6	1.51e+00	0	28	104	1560281088	60	54728
2026-01-17 14:21:59.57	186.00	1.39	-48.4	-63.6	3.6	1.51e+00	0	28	104	1560281088	60	54729
2026-01-17 14:22:03.60	186.10	1.14	-48.4	-63.6	3.6	1.51e+00	0	28	104	1560281088	60	54841
2026-01-17 14:22:07.64	186.20	0.90	-48.5	-63.7	3.6	1.51e+00	0	28	104	1560281088	60	55185
2026-01-17 14:22:11.68	186.30	0.65	-48.5	-63.6	3.6	1.51e+00	0	28	104	1560281088	60	54906
2026-01-17 14:22:15.72	186.40	0.41	-48.4	-63.6	3.6	1.51e+00	0	28	104	1560281088	60	54973
2026-01-17 14:22:19.76	186.50	0.17	-48.4	-63.6	3.6	1.51e+00	0	28	104	1560281088	60	54615
2026-01-17 14:22:23.79	186.59	-0.07	-48.5	-63.6	3.6	1.51e+00	0	28	104	1560281088	60	54889

#Closed at: 2026-01-17 14:22:25
#Recorded file [1560 MB]: D:/lorett/data/35029_260118_020659.dat