passes_logs/2026/01/17/R4.6S_Anadyr/R4.6S_Anadyr__20260117_231145_AQUA_rec.log

#Pass ID: 20260117_231145_AQUA
#Satellite: AQUA
#Configuration: AQUA
#almurnet v.1.7.20251203
#Start time: 2026-01-17 23:11:50

#Version: 2.2.20231116
#Station: R4.6S_Anadyr
#Location: 177.4865 lon 64.73178 lat
#TLE: 1 27424U 02022A   26017.62394888  .00000781  00000+0  16630-3 0  9993
#TLE: 2 27424  98.4086 344.0954 0002010  75.0132 339.4723 14.61825944261279

#Time	Az	El	Level	Level2	SNR	BER	BlckErr	Temp	State	Recorded	gain1	gain2
2026-01-17 23:11:50.70	87.49	0.25	-49.2	-50.8	5.7	0.00e+00	0	29	0	0	60	42485
2026-01-17 23:11:53.63	87.27	0.40	-49.3	-67.2	3.5	7.66e-01	0	31	104	0	60	87700
2026-01-17 23:11:56.56	87.04	0.56	-49.2	-67.1	3.5	7.66e-01	0	31	104	0	60	87613
2026-01-17 23:11:59.50	86.81	0.72	-48.6	-67.0	3.5	7.66e-01	0	31	104	0	60	85990
2026-01-17 23:12:02.44	86.58	0.87	-47.8	-66.6	3.5	7.66e-01	0	31	104	0	60	82119
2026-01-17 23:12:05.37	86.34	1.03	-45.5	-65.5	3.5	7.66e-01	0	31	104	0	60	72482
2026-01-17 23:12:08.30	86.10	1.19	-45.5	-65.6	3.5	7.66e-01	0	31	104	0	60	73054
2026-01-17 23:12:11.24	85.86	1.35	-45.6	-65.5	3.5	7.66e-01	0	31	104	0	60	72517
2026-01-17 23:12:14.16	85.62	1.50	-45.4	-65.5	3.5	7.66e-01	0	31	104	0	60	72103
2026-01-17 23:12:17.10	85.37	1.66	-45.5	-65.5	3.5	7.66e-01	0	31	104	0	60	72440
2026-01-17 23:12:20.02	85.12	1.82	-45.5	-65.5	3.5	7.66e-01	0	31	104	0	60	72204
2026-01-17 23:12:22.95	84.87	1.98	-45.5	-65.4	3.5	7.66e-01	0	31	104	0	60	71697
2026-01-17 23:12:25.88	84.61	2.14	-45.5	-65.4	3.5	7.66e-01	0	31	104	0	60	71497
2026-01-17 23:12:28.82	84.36	2.30	-45.5	-65.1	3.5	7.66e-01	0	31	104	0	60	68870
2026-01-17 23:12:31.75	84.09	2.47	-45.4	-65.4	3.5	7.66e-01	0	31	104	0	60	71787
2026-01-17 23:12:34.69	83.83	2.63	-45.5	-65.4	3.5	7.66e-01	0	31	104	0	60	71568
2026-01-17 23:12:37.62	83.56	2.79	-45.5	-64.9	3.5	7.66e-01	0	31	104	0	60	68001
2026-01-17 23:12:40.55	83.29	2.95	-45.4	-65.1	3.5	7.66e-01	0	31	104	0	60	69091
2026-01-17 23:12:43.49	83.01	3.12	-43.2	-56.5	3.5	7.66e-01	0	31	104	0	60	25673
2026-01-17 23:12:46.42	82.73	3.28	-47.4	-65.8	3.5	7.66e-01	0	31	104	0	60	75137
2026-01-17 23:12:49.34	82.45	3.45	-45.7	-60.3	3.6	7.66e-01	0	31	104	0	60	39699
2026-01-17 23:12:52.28	82.16	3.61	-41.1	-52.4	3.5	7.66e-01	0	31	104	0	56	20188
2026-01-17 23:12:55.22	81.87	3.78	-39.0	-49.8	3.5	7.66e-01	0	31	104	0	52	18746
2026-01-17 23:12:58.15	81.58	3.94	-42.1	-54.4	3.5	7.66e-01	0	31	104	0	60	20123
2026-01-17 23:13:01.07	81.28	4.11	-40.2	-51.5	3.5	7.66e-01	0	31	104	0	56	18274
2026-01-17 23:13:04.01	80.98	4.28	-45.1	-64.2	3.5	7.66e-01	0	31	104	0	60	62298
2026-01-17 23:13:06.94	80.67	4.44	-47.6	-65.3	3.5	7.66e-01	0	31	104	0	60	70730
2026-01-17 23:13:09.88	80.36	4.61	-38.5	-49.2	3.5	7.66e-01	0	31	104	0	50	19799
2026-01-17 23:13:12.80	80.05	4.78	-40.0	-50.7	3.5	7.66e-01	0	31	104	0	52	20910
2026-01-17 23:13:15.74	79.73	4.95	-43.2	-54.8	3.5	7.66e-01	0	31	104	0	60	21230
2026-01-17 23:13:18.67	79.41	5.12	-40.0	-50.7	3.5	7.66e-01	0	31	104	0	54	18736
2026-01-17 23:13:21.60	79.09	5.29	-44.2	-56.2	3.5	7.66e-01	0	31	104	0	56	31112
2026-01-17 23:13:24.53	78.76	5.46	-44.8	-57.9	3.5	7.66e-01	0	31	104	0	60	30227
2026-01-17 23:13:27.46	78.42	5.63	-39.8	-50.7	3.5	7.66e-01	0	31	104	0	54	18572
2026-01-17 23:13:30.39	78.08	5.80	-38.4	-49.0	3.5	7.66e-01	0	31	104	0	52	17125
2026-01-17 23:13:33.33	77.74	5.97	-47.5	-65.9	3.5	7.66e-01	0	31	104	0	60	75570
2026-01-17 23:13:36.25	77.39	6.14	-42.4	-54.3	3.6	7.66e-01	0	32	104	0	60	19868
2026-01-17 23:13:39.18	77.04	6.31	-38.7	-49.2	3.5	7.66e-01	0	32	104	0	52	17618
2026-01-17 23:13:42.11	76.69	6.48	-46.0	-65.6	3.5	7.66e-01	0	32	104	0	60	73440
2026-01-17 23:13:45.03	76.33	6.66	-39.9	-50.9	3.5	7.66e-01	0	32	104	0	56	17069
2026-01-17 23:13:47.97	75.96	6.83	-39.1	-49.8	3.5	7.66e-01	0	32	104	0	52	18853
2026-01-17 23:13:50.89	75.59	7.00	-47.0	-61.9	3.5	7.66e-01	0	32	104	0	60	47937
2026-01-17 23:13:53.82	75.21	7.17	-44.0	-55.9	3.6	7.66e-01	0	31	104	0	60	23882
2026-01-17 23:13:56.76	74.83	7.35	-41.5	-52.4	3.5	7.66e-01	0	31	104	0	58	18020
2026-01-17 23:13:59.68	74.45	7.52	-39.1	-49.8	3.5	7.66e-01	0	31	104	0	54	16827
2026-01-17 23:14:02.61	74.06	7.69	-37.2	-47.9	3.5	7.66e-01	0	31	104	0	50	17027
2026-01-17 23:14:05.54	73.66	7.87	-36.6	-47.2	3.5	7.66e-01	0	32	104	0	48	17566
2026-01-17 23:14:08.47	73.26	8.04	-37.3	-48.8	3.5	7.66e-01	0	32	104	0	50	18911
2026-01-17 23:14:11.40	72.85	8.21	-43.6	-66.1	3.5	7.66e-01	0	32	104	0	60	77657
2026-01-17 23:14:14.34	72.44	8.39	-40.6	-54.3	3.5	7.66e-01	0	32	104	0	56	25035
2026-01-17 23:14:17.27	72.02	8.56	-45.3	-65.8	3.5	7.66e-01	0	32	104	0	60	74693
2026-01-17 23:14:20.20	71.60	8.73	-37.9	-48.4	3.5	7.66e-01	0	32	104	0	50	18035
2026-01-17 23:14:23.13	71.17	8.91	-37.4	-47.9	3.5	7.66e-01	0	32	104	0	50	16911
2026-01-17 23:14:26.07	70.73	9.08	-39.1	-49.8	3.6	7.66e-01	0	32	104	0	50	21039
2026-01-17 23:14:28.99	70.29	9.25	-47.8	-65.3	3.5	7.66e-01	0	32	104	0	60	70655
2026-01-17 23:14:31.93	69.85	9.43	-41.2	-52.0	3.5	7.66e-01	0	32	104	0	56	19383
2026-01-17 23:14:34.86	69.39	9.60	-37.1	-48.1	3.5	7.66e-01	0	32	104	0	48	19418
2026-01-17 23:14:37.79	68.94	9.77	-42.1	-57.3	3.5	7.66e-01	0	32	104	0	52	44481
2026-01-17 23:14:40.73	68.47	9.95	-36.8	-47.5	3.5	7.66e-01	0	32	104	0	48	18273
2026-01-17 23:14:43.65	68.00	10.12	-36.0	-46.7	3.5	7.66e-01	0	32	104	0	48	16574
2026-01-17 23:14:46.59	67.53	10.29	-39.2	-50.4	3.5	7.66e-01	0	32	104	0	50	22787
2026-01-17 23:14:49.52	67.04	10.46	-39.1	-50.1	3.6	7.66e-01	0	32	104	0	52	19503
2026-01-17 23:14:52.45	66.56	10.63	-46.3	-59.5	3.5	7.66e-01	0	32	104	0	60	36239
2026-01-17 23:14:55.38	66.06	10.80	-47.7	-63.5	3.6	7.66e-01	0	32	104	0	60	57590
2026-01-17 23:14:58.31	65.56	10.97	-39.2	-49.8	3.5	7.66e-01	0	32	104	0	54	16764
2026-01-17 23:15:01.25	65.05	11.14	-37.7	-48.1	3.5	7.66e-01	0	32	104	0	50	17399
2026-01-17 23:15:04.17	64.54	11.30	-41.3	-52.4	3.6	7.66e-01	0	32	104	0	58	17910
2026-01-17 23:15:07.11	64.02	11.47	-37.2	-47.6	3.5	7.66e-01	0	32	104	0	48	18446
2026-01-17 23:15:10.04	63.49	11.63	-44.9	-61.9	3.5	7.66e-01	0	32	104	0	60	48113
2026-01-17 23:15:12.96	62.96	11.80	-42.9	-64.7	3.5	7.66e-01	0	32	104	0	60	66093
2026-01-17 23:15:15.89	62.42	11.96	-40.0	-51.2	3.5	7.66e-01	0	32	104	0	54	19794
2026-01-17 23:15:18.82	61.88	12.12	-41.2	-56.6	3.5	7.66e-01	0	32	104	0	54	36724
2026-01-17 23:15:21.76	61.32	12.28	-40.2	-53.0	3.5	7.66e-01	0	32	104	0	56	21689
2026-01-17 23:15:24.70	60.76	12.44	-36.9	-47.3	3.5	7.66e-01	0	32	104	0	48	17795
2026-01-17 23:15:27.63	60.20	12.60	-38.1	-48.6	3.5	7.66e-01	0	32	104	0	48	20634
2026-01-17 23:15:30.56	59.63	12.76	-45.4	-58.8	3.5	7.66e-01	0	32	104	0	60	33406
2026-01-17 23:15:33.49	59.05	12.91	-41.2	-52.2	3.5	7.66e-01	0	32	104	0	58	17583
2026-01-17 23:15:36.42	58.46	13.07	-39.1	-50.2	3.5	7.66e-01	0	32	104	0	54	17564
2026-01-17 23:15:39.35	57.87	13.22	-45.0	-57.3	3.5	7.66e-01	0	32	104	0	60	28159
2026-01-17 23:15:42.28	57.27	13.37	-37.2	-47.5	3.5	7.66e-01	0	32	104	0	48	18285
2026-01-17 23:15:45.21	56.67	13.52	-36.5	-46.8	3.5	7.66e-01	0	32	104	0	48	16850
2026-01-17 23:15:48.15	56.06	13.66	-46.7	-66.0	3.5	7.66e-01	0	32	104	0	60	76560
2026-01-17 23:15:51.08	55.44	13.81	-39.9	-50.6	3.5	7.66e-01	0	32	104	0	54	18521
2026-01-17 23:15:54.01	54.81	13.95	-39.4	-49.9	3.5	7.66e-01	0	32	104	0	54	17039
2026-01-17 23:15:56.95	54.18	14.09	-45.0	-66.1	3.5	7.66e-01	0	32	104	0	60	78056
2026-01-17 23:15:59.88	53.54	14.22	-37.2	-48.0	3.5	7.66e-01	0	32	104	0	50	17137
2026-01-17 23:16:02.81	52.90	14.36	-36.3	-46.6	3.6	7.66e-01	0	32	104	0	48	16405
2026-01-17 23:16:05.75	52.25	14.49	-44.0	-55.6	3.5	7.66e-01	0	32	104	0	54	32918
2026-01-17 23:16:08.68	51.59	14.62	-42.3	-53.3	3.7	7.66e-01	0	32	104	0	60	17814
2026-01-17 23:16:11.61	50.93	14.74	-36.2	-46.5	3.5	7.66e-01	0	32	104	0	48	16257
2026-01-17 23:16:14.54	50.26	14.87	-37.9	-48.4	3.5	7.66e-01	0	32	104	0	48	20093
2026-01-17 23:16:17.46	49.59	14.99	-47.3	-65.0	3.5	7.66e-01	0	32	104	0	60	68128
2026-01-17 23:16:20.40	48.91	15.10	-39.6	-50.1	3.5	7.66e-01	0	32	104	0	54	17368
2026-01-17 23:16:23.33	48.23	15.22	-42.0	-53.0	3.6	7.66e-01	0	32	104	0	60	17104
2026-01-17 23:16:26.26	47.54	15.33	-37.3	-47.7	3.5	7.66e-01	0	32	104	0	48	18679
2026-01-17 23:16:29.19	46.84	15.43	-36.0	-46.3	3.6	7.66e-01	0	32	104	0	46	17893
2026-01-17 23:16:32.11	46.14	15.53	-37.6	-47.9	3.5	7.66e-01	0	32	104	0	48	19127
2026-01-17 23:16:35.05	45.43	15.63	-48.3	-66.3	3.5	7.66e-01	0	32	104	0	60	79895
2026-01-17 23:16:37.99	44.72	15.73	-41.7	-52.7	3.5	7.66e-01	0	32	104	0	58	18615
2026-01-17 23:16:40.93	44.00	15.82	-45.7	-66.1	3.5	7.66e-01	0	32	104	0	60	77333
2026-01-17 23:16:43.86	43.28	15.91	-37.1	-47.3	3.6	7.66e-01	0	32	104	0	50	15902
2026-01-17 23:16:46.78	42.56	15.99	-37.8	-39.2	26.7	7.66e-01	0	32	0	1048576	50	6255
2026-01-17 23:16:49.71	41.83	16.07	-37.3	-38.6	27.2	7.66e-01	0	32	0	6815744	50	5840
2026-01-17 23:16:52.64	41.10	16.15	-37.0	-38.3	27.4	7.66e-01	0	32	0	12058624	48	6350
2026-01-17 23:16:55.56	40.37	16.22	-35.7	-37.1	28.5	7.66e-01	0	32	0	17825792	46	6182
2026-01-17 23:16:58.49	39.63	16.28	-35.7	-37.0	28.6	7.66e-01	0	32	0	23068672	46	6113
2026-01-17 23:17:01.42	38.88	16.34	-35.8	-37.1	28.5	7.66e-01	0	32	0	28835840	46	6149
2026-01-17 23:17:04.36	38.13	16.40	-35.6	-37.0	28.6	7.66e-01	0	32	0	34078720	46	6078
2026-01-17 23:17:07.29	37.38	16.45	-35.4	-36.7	28.9	7.66e-01	0	32	0	39845888	46	5859
2026-01-17 23:17:10.22	36.63	16.50	-35.7	-36.9	28.7	7.66e-01	0	32	0	45088768	46	6055
2026-01-17 23:17:13.15	35.88	16.55	-35.6	-36.9	28.8	7.66e-01	0	32	0	50855936	46	6023
2026-01-17 23:17:16.08	35.12	16.58	-35.6	-36.9	28.7	7.66e-01	0	32	0	56098816	46	6010
2026-01-17 23:17:19.01	34.36	16.62	-35.7	-36.9	28.7	7.66e-01	0	32	0	61865984	46	6042
2026-01-17 23:17:21.95	33.60	16.65	-35.7	-37.0	28.7	7.66e-01	0	32	0	67108864	46	6079
2026-01-17 23:17:24.88	32.83	16.67	-35.7	-37.0	28.6	7.66e-01	0	32	0	72876032	46	6068
2026-01-17 23:17:27.80	32.07	16.69	-35.7	-37.0	28.7	7.66e-01	0	32	0	78118912	46	6093
2026-01-17 23:17:30.73	31.31	16.70	-35.7	-36.9	28.7	7.66e-01	0	32	0	83886080	46	6062
2026-01-17 23:17:33.66	30.55	16.71	-35.8	-37.1	28.5	7.66e-01	0	32	0	89128960	46	6168
2026-01-17 23:17:36.59	29.78	16.72	-35.7	-36.9	28.7	7.66e-01	0	32	0	94896128	46	6041
2026-01-17 23:17:39.52	29.02	16.72	-35.9	-37.2	28.4	7.66e-01	0	32	0	100139008	46	6235
2026-01-17 23:17:42.46	28.25	16.71	-35.6	-36.8	28.8	7.66e-01	0	32	0	105381888	46	5972
2026-01-17 23:17:45.40	27.48	16.70	-35.9	-37.2	28.5	7.66e-01	0	32	0	111149056	46	6209
2026-01-17 23:17:48.32	26.72	16.69	-35.9	-37.2	28.5	7.66e-01	0	32	0	116916224	46	6228
2026-01-17 23:17:51.25	25.96	16.67	-35.8	-37.0	28.6	7.66e-01	0	32	0	122159104	46	6123
2026-01-17 23:17:54.18	25.20	16.64	-35.9	-37.2	28.5	7.66e-01	0	32	0	127401984	46	6231
2026-01-17 23:17:57.11	24.44	16.61	-35.8	-37.1	28.6	7.66e-01	0	32	0	133169152	46	6135
2026-01-17 23:18:00.04	23.68	16.58	-35.9	-37.2	28.5	7.66e-01	0	32	0	138412032	46	6208
2026-01-17 23:18:02.97	22.92	16.54	-36.0	-37.2	28.4	7.66e-01	0	32	0	144179200	46	6268
2026-01-17 23:18:05.91	22.17	16.49	-35.8	-37.1	28.6	7.66e-01	0	32	0	149422080	46	6135
2026-01-17 23:18:08.84	21.41	16.44	-35.7	-37.0	28.5	7.66e-01	0	32	0	155189248	46	6094
2026-01-17 23:18:11.78	20.66	16.39	-35.8	-37.1	28.6	7.66e-01	0	32	0	160432128	46	6157
2026-01-17 23:18:14.71	19.92	16.33	-35.7	-36.9	28.6	7.66e-01	0	32	0	166199296	46	6051
2026-01-17 23:18:17.64	19.18	16.27	-35.8	-37.0	28.6	7.66e-01	0	32	0	171442176	46	6107
2026-01-17 23:18:20.57	18.44	16.20	-35.6	-36.8	28.8	7.66e-01	0	32	0	177209344	46	5994
2026-01-17 23:18:23.51	17.70	16.13	-35.9	-37.1	28.5	7.66e-01	0	32	0	182452224	46	6197
2026-01-17 23:18:26.45	16.97	16.05	-35.7	-36.9	28.7	7.66e-01	0	32	0	188219392	46	6063
2026-01-17 23:18:29.38	16.24	15.97	-35.7	-36.9	28.7	7.66e-01	0	32	0	193462272	46	6052
2026-01-17 23:18:32.31	15.52	15.89	-35.7	-37.0	28.6	7.66e-01	0	32	0	199229440	46	6093
2026-01-17 23:18:35.24	14.80	15.80	-35.8	-37.0	28.7	7.66e-01	0	32	0	204472320	46	6129
2026-01-17 23:18:38.17	14.09	15.71	-35.7	-37.0	28.7	7.66e-01	0	32	0	210239488	46	6084
2026-01-17 23:18:41.10	13.38	15.61	-35.7	-37.0	28.7	7.66e-01	0	32	0	215482368	46	6083
2026-01-17 23:18:44.02	12.68	15.51	-35.8	-37.0	28.7	7.66e-01	0	32	0	221249536	46	6104
2026-01-17 23:18:46.95	11.98	15.41	-35.7	-37.0	28.6	7.66e-01	0	32	0	226492416	46	6084
2026-01-17 23:18:49.88	11.28	15.30	-35.8	-37.0	28.6	7.66e-01	0	32	0	232259584	46	6105
2026-01-17 23:18:52.81	10.60	15.19	-35.6	-36.9	28.7	7.66e-01	0	32	0	237502464	46	6017
2026-01-17 23:18:55.74	9.91	15.08	-35.9	-37.1	28.5	7.66e-01	0	32	0	243269632	46	6186
2026-01-17 23:18:58.67	9.24	14.96	-35.9	-37.1	28.5	7.66e-01	0	32	0	248512512	46	6196
2026-01-17 23:19:01.61	8.57	14.84	-36.0	-37.2	28.4	7.66e-01	0	32	0	254279680	46	6276
2026-01-17 23:19:04.54	7.90	14.72	-35.9	-37.2	28.4	7.66e-01	0	32	0	259522560	46	6227
2026-01-17 23:19:07.48	7.24	14.59	-35.8	-37.1	28.6	7.66e-01	0	32	0	265289728	46	6137
2026-01-17 23:19:10.40	6.59	14.46	-35.8	-37.1	28.5	7.66e-01	0	32	0	270532608	46	6163
2026-01-17 23:19:13.33	5.94	14.33	-35.6	-36.9	28.7	7.66e-01	0	32	0	276299776	46	6011
2026-01-17 23:19:16.27	5.30	14.20	-35.7	-36.9	28.7	7.66e-01	0	32	0	281542656	46	6043
2026-01-17 23:19:19.20	4.67	14.06	-36.1	-37.3	28.4	7.66e-01	0	32	0	286785536	46	6345
2026-01-17 23:19:22.13	4.04	13.92	-35.8	-37.1	28.6	7.66e-01	0	32	0	292552704	46	6159
2026-01-17 23:19:25.06	3.42	13.78	-35.8	-37.1	28.6	7.66e-01	0	32	0	298319872	46	6162
2026-01-17 23:19:27.99	2.80	13.63	-36.0	-37.3	28.5	7.66e-01	0	32	0	303562752	46	6288
2026-01-17 23:19:30.92	2.20	13.49	-35.9	-37.2	28.4	7.66e-01	0	32	0	309329920	46	6214
2026-01-17 23:19:33.85	1.59	13.34	-35.9	-37.1	28.6	7.66e-01	0	32	0	314572800	46	6191
2026-01-17 23:19:36.77	1.00	13.19	-36.0	-37.3	28.4	7.66e-01	0	32	0	319815680	46	6287
2026-01-17 23:19:39.71	0.41	13.04	-36.2	-37.4	28.3	7.66e-01	0	32	0	325582848	46	6405
2026-01-17 23:19:42.65	359.83	12.89	-35.9	-37.2	28.5	7.66e-01	0	32	0	330825728	46	6234
2026-01-17 23:19:45.58	359.25	12.73	-35.9	-37.2	28.5	7.66e-01	0	32	0	336592896	46	6229
2026-01-17 23:19:48.51	358.68	12.57	-36.1	-37.3	28.3	7.66e-01	0	32	0	341835776	46	6338
2026-01-17 23:19:51.44	358.12	12.42	-35.9	-37.2	28.5	7.66e-01	0	32	0	347602944	46	6227
2026-01-17 23:19:54.38	357.56	12.26	-36.0	-37.2	28.4	7.66e-01	0	32	0	352845824	46	6271
2026-01-17 23:19:57.31	357.01	12.10	-36.0	-37.3	28.3	7.66e-01	0	32	0	358612992	46	6279
2026-01-17 23:20:00.25	356.47	11.93	-36.4	-37.7	27.9	7.66e-01	0	32	0	363855872	46	6618
2026-01-17 23:20:03.18	355.93	11.77	-36.4	-37.6	27.9	7.66e-01	0	32	0	369623040	46	6559
2026-01-17 23:20:06.11	355.41	11.61	-36.3	-37.6	28.1	7.66e-01	0	32	0	374865920	46	6541
2026-01-17 23:20:09.04	354.88	11.44	-36.1	-37.4	28.1	7.66e-01	0	32	0	380633088	46	6377
2026-01-17 23:20:11.97	354.37	11.27	-36.0	-37.3	28.3	7.66e-01	0	32	0	385875968	46	6284
2026-01-17 23:20:14.90	353.86	11.11	-36.5	-37.7	27.8	7.66e-01	0	32	0	391643136	46	6631
2026-01-17 23:20:17.84	353.35	10.94	-36.5	-37.9	27.8	7.66e-01	0	32	0	396886016	46	6736
2026-01-17 23:20:20.77	352.85	10.77	-36.5	-37.7	27.9	7.66e-01	0	32	0	402653184	46	6645
2026-01-17 23:20:23.70	352.36	10.60	-36.4	-37.7	27.8	7.66e-01	0	32	0	407896064	46	6623
2026-01-17 23:20:26.63	351.88	10.43	-36.4	-37.7	27.8	7.66e-01	0	32	0	413663232	46	6623
2026-01-17 23:20:29.56	351.40	10.26	-36.3	-37.6	27.9	7.66e-01	0	32	0	418906112	46	6509
2026-01-17 23:20:32.49	350.93	10.09	-36.5	-37.9	27.7	7.66e-01	0	32	0	424673280	46	6751
2026-01-17 23:20:35.42	350.46	9.92	-36.5	-37.8	27.7	7.66e-01	0	32	0	429916160	48	5945
2026-01-17 23:20:38.36	350.00	9.75	-36.9	-38.3	27.3	7.66e-01	0	32	0	435683328	48	6294
2026-01-17 23:20:41.29	349.54	9.57	-36.9	-38.2	27.6	7.66e-01	0	32	0	440926208	48	6230
2026-01-17 23:20:44.23	349.09	9.40	-37.0	-38.4	27.2	7.66e-01	0	32	0	446693376	48	6351
2026-01-17 23:20:47.16	348.65	9.23	-36.9	-38.3	27.4	7.66e-01	0	32	0	451936256	48	6287
2026-01-17 23:20:50.10	348.21	9.06	-37.3	-38.6	27.0	7.66e-01	0	32	0	457703424	48	6560
2026-01-17 23:20:53.03	347.78	8.88	-36.8	-38.1	27.4	7.66e-01	0	32	0	462946304	48	6179
2026-01-17 23:20:55.96	347.36	8.71	-36.5	-37.8	27.6	7.66e-01	0	32	0	468713472	48	5941
2026-01-17 23:20:58.90	346.93	8.54	-36.8	-38.1	27.4	7.66e-01	0	32	0	473956352	48	6173
2026-01-17 23:21:01.82	346.52	8.36	-37.3	-38.7	26.9	7.66e-01	0	32	0	479723520	48	6611
2026-01-17 23:21:04.76	346.11	8.19	-37.7	-39.1	26.5	7.66e-01	0	32	0	484966400	48	6914
2026-01-17 23:21:07.69	345.71	8.02	-37.9	-39.3	26.2	7.66e-01	0	32	0	490733568	50	6326
2026-01-17 23:21:10.63	345.31	7.84	-37.6	-39.0	26.6	7.66e-01	0	32	0	495976448	50	6095
2026-01-17 23:21:13.56	344.91	7.67	-37.4	-38.8	26.7	7.66e-01	0	32	0	501743616	50	5971
2026-01-17 23:21:16.49	344.53	7.50	-37.5	-38.9	26.6	7.66e-01	0	32	0	506986496	50	5995
2026-01-17 23:21:19.42	344.14	7.32	-37.8	-39.2	26.3	7.66e-01	0	32	0	512753664	50	6246
2026-01-17 23:21:22.35	343.77	7.15	-37.3	-38.6	26.7	7.66e-01	0	32	0	517996544	50	5839
2026-01-17 23:21:25.28	343.39	6.98	-37.3	-38.6	26.6	7.66e-01	0	32	0	523239424	50	5820
2026-01-17 23:21:28.22	343.02	6.81	-37.2	-38.5	26.6	7.66e-01	0	32	0	529006592	50	5753
2026-01-17 23:21:31.15	342.66	6.64	-37.9	-39.2	26.0	7.66e-01	0	32	0	534249472	50	6273
2026-01-17 23:21:34.08	342.30	6.46	-37.4	-38.7	26.5	7.66e-01	0	32	0	540016640	50	5910
2026-01-17 23:21:37.01	341.95	6.29	-38.1	-39.6	25.5	7.66e-01	0	32	0	545259520	50	6541
2026-01-17 23:21:39.94	341.60	6.12	-39.1	-40.8	24.3	7.66e-01	0	32	0	551026688	52	6653
2026-01-17 23:21:42.88	341.25	5.95	-39.4	-41.1	23.7	7.66e-01	0	32	0	556269568	52	6961
2026-01-17 23:21:45.81	340.91	5.78	-39.3	-41.0	24.2	7.66e-01	0	32	0	562036736	52	6866
2026-01-17 23:21:48.74	340.58	5.61	-39.4	-41.2	23.6	7.66e-01	0	32	0	567279616	52	7002
2026-01-17 23:21:51.67	340.25	5.44	-39.5	-41.3	23.5	7.66e-01	0	32	0	573046784	52	7073
2026-01-17 23:21:54.61	339.92	5.27	-40.2	-42.1	22.7	7.66e-01	0	32	0	578289664	54	6930
2026-01-17 23:21:57.54	339.60	5.10	-41.1	-43.3	21.5	7.66e-01	0	32	0	584056832	56	7062
2026-01-17 23:22:00.47	339.28	4.93	-41.6	-44.0	20.6	7.66e-01	0	32	0	589299712	56	7702
2026-01-17 23:22:03.40	338.96	4.76	-42.0	-44.8	19.4	7.66e-01	0	32	0	595066880	56	8394
2026-01-17 23:22:06.35	338.65	4.60	-42.5	-45.9	17.4	7.66e-01	0	32	0	600309760	58	8532
2026-01-17 23:22:09.28	338.34	4.43	-43.6	-48.7	14.2	7.66e-01	0	32	0	606076928	60	10522
2026-01-17 23:22:12.21	338.04	4.26	-44.3	-51.2	11.4	7.66e-01	0	32	0	611319808	60	13910
2026-01-17 23:22:15.14	337.74	4.10	-44.6	-54.0	7.5	7.66e-01	90	32	0	617086976	60	19251
2026-01-17 23:22:18.07	337.45	3.93	-44.7	-58.2	3.7	7.66e-01	0	32	104	619708416	60	31194
2026-01-17 23:22:21.00	337.16	3.76	-44.6	-60.6	3.7	7.66e-01	0	32	104	619708416	60	41420
2026-01-17 23:22:23.94	336.87	3.60	-44.7	-62.6	3.5	7.66e-01	0	32	104	619708416	60	51806
2026-01-17 23:22:26.87	336.59	3.43	-44.7	-61.7	3.5	7.66e-01	0	32	104	619708416	60	46846
2026-01-17 23:22:29.80	336.31	3.27	-44.8	-62.4	3.5	7.66e-01	0	32	104	619708416	60	50678
2026-01-17 23:22:32.72	336.03	3.11	-44.6	-62.5	3.5	7.66e-01	0	32	104	619708416	60	51351
2026-01-17 23:22:35.66	335.76	2.94	-48.5	-66.4	3.5	7.66e-01	0	32	104	619708416	60	80026
2026-01-17 23:22:38.59	335.49	2.78	-49.2	-67.0	3.5	7.66e-01	0	32	104	619708416	60	86432
2026-01-17 23:22:41.52	335.22	2.62	-49.3	-67.3	3.5	7.66e-01	0	32	104	619708416	60	88745
2026-01-17 23:22:44.45	334.96	2.46	-49.1	-67.2	3.5	7.66e-01	0	32	104	619708416	60	88338
2026-01-17 23:22:47.39	334.70	2.30	-48.9	-67.1	3.5	7.66e-01	0	32	104	619708416	60	87436
2026-01-17 23:22:50.32	334.44	2.13	-49.3	-67.3	3.5	7.66e-01	0	32	104	619708416	60	88772
2026-01-17 23:22:53.25	334.19	1.97	-49.3	-67.2	3.5	7.66e-01	0	32	104	619708416	60	88345
2026-01-17 23:22:56.18	333.94	1.81	-49.3	-67.2	3.5	7.66e-01	0	32	104	619708416	60	87699
2026-01-17 23:22:59.11	333.69	1.66	-49.3	-67.2	3.5	7.66e-01	0	32	104	619708416	60	87911
2026-01-17 23:23:02.04	333.45	1.50	-49.4	-67.3	3.5	7.66e-01	0	32	104	619708416	60	88759
2026-01-17 23:23:04.98	333.21	1.34	-49.3	-67.2	3.5	7.66e-01	0	32	104	619708416	60	88585
2026-01-17 23:23:07.91	332.97	1.18	-49.4	-67.3	3.5	7.66e-01	0	32	104	619708416	60	88683
2026-01-17 23:23:10.84	332.73	1.02	-49.3	-67.2	3.5	7.66e-01	0	32	104	619708416	60	88194
2026-01-17 23:23:13.77	332.50	0.87	-49.5	-67.4	3.5	7.66e-01	0	32	104	619708416	60	90187
2026-01-17 23:23:16.71	332.27	0.71	-49.6	-67.4	3.5	7.66e-01	0	32	104	619708416	60	90659
2026-01-17 23:23:19.64	332.04	0.56	-49.6	-67.4	3.5	7.66e-01	0	32	104	619708416	60	90562
2026-01-17 23:23:22.58	331.82	0.40	-49.3	-67.2	3.5	7.66e-01	0	32	104	619708416	60	87983
2026-01-17 23:23:25.51	331.60	0.25	-49.4	-67.2	3.5	7.66e-01	0	32	104	619708416	60	88228
2026-01-17 23:23:28.44	331.38	0.09	-49.3	-67.2	3.5	7.66e-01	0	32	104	619708416	60	87916
2026-01-17 23:23:31.37	331.16	-0.06	-49.3	-67.1	3.5	7.66e-01	0	32	104	619708416	60	87604

#Closed at: 2026-01-17 23:23:32
#Recorded file [619 MB]: D:/lorett/data/35029_260118_111150.dat