passes_logs/2026/01/17/R4.6S_Anadyr/R4.6S_Anadyr__20260117_022351_NOAA_20_JPSS-1_rec.log

#Pass ID: 20260117_022351_NOAA 20 (JPSS-1)
#Satellite: NOAA 20 (JPSS-1)
#Configuration: NOAA 20
#almurnet v.1.7.20251203
#Start time: 2026-01-17 02:23:54

#Version: 2.2.20231116
#Station: R4.6S_Anadyr
#Location: 177.4865 lon 64.73178 lat
#TLE: 1 43013U 17073A   26016.52825843  .00000039  00000+0  39346-4 0  9991
#TLE: 2 43013  98.7637 317.4515 0001446  37.2648 322.8628 14.19536276422951

#Time	Az	El	Level	Level2	SNR	BER	BlckErr	Temp	State	Recorded	gain1	gain2
2026-01-17 02:23:54.97	213.33	0.20	-48.3	-49.9	5.7	0.00e+00	0	28	0	0	60	38321
2026-01-17 02:23:58.88	213.60	0.40	-48.1	-63.4	3.6	1.51e+00	0	29	104	0	60	53261
2026-01-17 02:24:02.80	213.88	0.60	-47.7	-63.4	3.6	1.51e+00	0	29	104	0	60	53258
2026-01-17 02:24:06.71	214.16	0.80	-47.6	-62.8	3.6	1.51e+00	0	29	104	0	60	49749
2026-01-17 02:24:10.63	214.44	1.01	-46.6	-61.8	3.6	1.51e+00	0	29	104	0	60	44363
2026-01-17 02:24:14.53	214.72	1.21	-46.6	-61.7	3.6	1.51e+00	0	29	104	0	60	43842
2026-01-17 02:24:18.44	215.01	1.42	-46.6	-61.8	3.6	1.51e+00	0	29	104	0	60	44472
2026-01-17 02:24:22.34	215.30	1.62	-46.6	-61.8	3.6	1.51e+00	0	29	104	0	60	44261
2026-01-17 02:24:26.26	215.60	1.83	-46.6	-61.6	3.6	1.51e+00	0	29	104	0	60	43659
2026-01-17 02:24:30.17	215.90	2.04	-46.7	-61.6	3.6	1.51e+00	0	29	104	0	60	43562
2026-01-17 02:24:34.08	216.20	2.25	-46.6	-61.6	3.6	1.51e+00	0	29	104	0	60	43502
2026-01-17 02:24:37.99	216.51	2.46	-46.5	-59.7	3.7	1.49e+00	0	29	104	0	60	34949
2026-01-17 02:24:41.91	216.82	2.67	-45.7	-52.4	7.8	1.73e-01	0	29	0	0	60	15130
2026-01-17 02:24:45.82	217.14	2.88	-42.1	-44.3	16.5	0.00e+00	0	29	0	7340032	58	6665
2026-01-17 02:24:49.74	217.46	3.09	-42.7	-45.3	14.6	0.00e+00	0	29	0	14680064	58	7493
2026-01-17 02:24:53.65	217.79	3.31	-41.9	-44.0	17.7	5.42e-01	0	29	104	18874368	60	5707
2026-01-17 02:24:57.56	218.12	3.52	-41.0	-42.7	18.3	0.00e+00	0	29	0	25165824	56	6238
2026-01-17 02:25:01.47	218.45	3.74	-40.4	-42.0	19.0	0.00e+00	0	29	0	32505856	54	6406
2026-01-17 02:25:05.38	218.79	3.95	-40.7	-42.3	18.7	0.00e+00	0	29	0	39845888	54	6662
2026-01-17 02:25:09.32	219.14	4.17	-40.2	-41.7	19.3	0.00e+00	0	29	0	47185920	54	6213
2026-01-17 02:25:13.23	219.49	4.39	-40.2	-41.7	19.3	0.00e+00	0	29	0	54525952	54	6201
2026-01-17 02:25:17.15	219.84	4.61	-40.4	-41.9	19.2	0.00e+00	0	29	0	61865984	54	6344
2026-01-17 02:25:21.06	220.20	4.83	-40.5	-42.0	19.1	0.00e+00	0	29	0	69206016	54	6453
2026-01-17 02:25:24.98	220.56	5.05	-40.3	-41.8	19.4	0.00e+00	0	29	0	76546048	54	6268
2026-01-17 02:25:28.89	220.93	5.27	-40.5	-42.0	19.1	0.00e+00	0	29	0	83886080	54	6427
2026-01-17 02:25:32.82	221.31	5.50	-40.2	-41.7	19.5	0.00e+00	0	29	0	91226112	54	6213
2026-01-17 02:25:36.75	221.69	5.72	-40.2	-41.7	19.5	0.00e+00	0	29	0	98566144	54	6203
2026-01-17 02:25:40.71	222.09	5.95	-40.6	-42.1	19.1	0.00e+00	0	29	0	105906176	54	6506
2026-01-17 02:25:44.68	222.48	6.18	-40.8	-42.4	18.8	0.00e+00	0	29	0	113246208	54	6721
2026-01-17 02:25:48.70	222.89	6.41	-40.8	-42.4	18.7	0.00e+00	0	29	0	121634816	54	6742
2026-01-17 02:25:52.71	223.31	6.64	-40.8	-42.4	18.9	0.00e+00	0	29	0	128974848	54	6701
2026-01-17 02:25:56.73	223.73	6.87	-40.9	-42.5	18.8	0.00e+00	0	29	0	136314880	54	6779
2026-01-17 02:26:00.76	224.16	7.11	-41.1	-42.8	18.5	0.00e+00	0	29	0	143654912	54	7013
2026-01-17 02:26:04.79	224.60	7.35	-40.9	-42.5	18.9	0.00e+00	0	29	0	152043520	54	6776
2026-01-17 02:26:08.83	225.04	7.58	-40.8	-42.4	19.0	0.00e+00	0	29	0	159383552	54	6707
2026-01-17 02:26:12.87	225.49	7.82	-40.9	-42.5	18.9	0.00e+00	0	29	0	166723584	54	6781
2026-01-17 02:26:16.91	225.95	8.06	-40.9	-42.5	18.9	0.00e+00	0	29	0	174063616	54	6790
2026-01-17 02:26:20.95	226.42	8.30	-40.9	-42.4	19.0	0.00e+00	0	29	0	181403648	54	6767
2026-01-17 02:26:24.98	226.89	8.54	-40.6	-42.2	19.2	0.00e+00	0	29	0	189792256	54	6548
2026-01-17 02:26:29.02	227.37	8.78	-40.7	-42.2	19.2	0.00e+00	0	29	0	197132288	54	6570
2026-01-17 02:26:33.06	227.86	9.02	-40.9	-42.5	19.0	0.00e+00	0	29	0	204472320	54	6787
2026-01-17 02:26:37.10	228.35	9.27	-41.0	-42.5	18.9	0.00e+00	0	29	0	211812352	54	6840
2026-01-17 02:26:41.14	228.86	9.51	-40.8	-42.4	19.1	0.00e+00	0	29	0	219152384	54	6717
2026-01-17 02:26:45.17	229.37	9.75	-40.9	-42.5	19.0	0.00e+00	0	29	0	227540992	54	6787
2026-01-17 02:26:49.21	229.89	10.00	-40.8	-42.4	19.0	0.00e+00	0	29	0	234881024	54	6733
2026-01-17 02:26:53.25	230.42	10.24	-40.6	-42.1	19.3	0.00e+00	0	29	0	242221056	54	6520
2026-01-17 02:26:57.29	230.96	10.48	-40.7	-42.2	19.2	0.00e+00	0	29	0	249561088	54	6558
2026-01-17 02:27:01.33	231.51	10.73	-40.7	-42.2	19.3	0.00e+00	0	29	0	257949696	54	6597
2026-01-17 02:27:05.36	232.06	10.97	-40.4	-41.9	19.6	0.00e+00	0	29	0	265289728	54	6336
2026-01-17 02:27:09.40	232.62	11.22	-40.5	-41.9	19.6	0.00e+00	0	29	0	272629760	54	6349
2026-01-17 02:27:13.45	233.20	11.46	-40.4	-41.8	19.6	0.00e+00	0	29	0	279969792	54	6312
2026-01-17 02:27:17.49	233.78	11.71	-40.3	-41.7	19.8	0.00e+00	0	29	0	287309824	54	6209
2026-01-17 02:27:21.53	234.37	11.95	-40.1	-41.5	20.0	0.00e+00	0	29	0	295698432	54	6069
2026-01-17 02:27:25.57	234.98	12.19	-39.9	-41.2	20.2	0.00e+00	0	29	0	303038464	54	5890
2026-01-17 02:27:29.61	235.59	12.44	-39.7	-41.0	20.4	0.00e+00	0	29	0	310378496	52	6417
2026-01-17 02:27:33.65	236.21	12.68	-39.2	-40.4	21.0	0.00e+00	0	29	0	317718528	52	6019
2026-01-17 02:27:37.69	236.84	12.92	-39.1	-40.3	21.2	0.00e+00	0	29	0	326107136	52	5922
2026-01-17 02:27:41.72	237.48	13.16	-38.8	-39.9	21.5	0.00e+00	0	29	0	333447168	52	5682
2026-01-17 02:27:45.76	238.13	13.40	-38.8	-39.9	21.6	0.00e+00	0	29	0	340787200	50	6376
2026-01-17 02:27:49.80	238.79	13.64	-38.7	-39.7	21.8	0.00e+00	0	29	0	348127232	50	6243
2026-01-17 02:27:53.84	239.47	13.88	-38.6	-39.6	21.8	0.00e+00	0	29	0	356515840	50	6173
2026-01-17 02:27:57.88	240.15	14.12	-38.2	-39.2	22.3	0.00e+00	0	29	0	363855872	50	5877
2026-01-17 02:28:01.92	240.84	14.35	-37.8	-38.8	22.6	0.00e+00	0	28	0	371195904	50	5626
2026-01-17 02:28:05.96	241.55	14.58	-37.4	-38.4	23.1	0.00e+00	0	28	0	378535936	48	5988
2026-01-17 02:28:10.00	242.26	14.82	-37.2	-38.2	23.3	0.00e+00	0	29	0	385875968	48	5831
2026-01-17 02:28:14.04	242.99	15.05	-36.9	-37.9	23.7	0.00e+00	0	29	0	394264576	48	5632
2026-01-17 02:28:18.08	243.72	15.27	-36.5	-37.4	24.0	0.00e+00	0	29	0	401604608	46	5973
2026-01-17 02:28:22.12	244.47	15.50	-36.8	-37.7	23.7	0.00e+00	0	28	0	408944640	46	6228
2026-01-17 02:28:26.16	245.23	15.72	-36.6	-37.5	23.9	0.00e+00	0	28	0	416284672	46	6084
2026-01-17 02:28:30.20	246.00	15.94	-36.6	-37.5	23.9	0.00e+00	0	29	0	424673280	46	6073
2026-01-17 02:28:34.24	246.78	16.16	-36.9	-37.8	23.7	0.00e+00	0	29	0	432013312	46	6254
2026-01-17 02:28:38.28	247.57	16.37	-37.1	-38.0	23.2	0.00e+00	0	28	0	439353344	46	6439
2026-01-17 02:28:42.32	248.37	16.58	-37.1	-38.0	23.6	0.00e+00	0	28	0	446693376	46	6413
2026-01-17 02:28:46.36	249.18	16.79	-37.4	-38.3	23.2	0.00e+00	0	28	0	454033408	46	6651
2026-01-17 02:28:50.40	250.01	16.99	-37.7	-38.7	23.0	0.00e+00	0	28	0	462422016	48	6187
2026-01-17 02:28:54.44	250.84	17.19	-37.6	-38.5	23.1	0.00e+00	0	28	0	469762048	48	6067
2026-01-17 02:28:58.47	251.68	17.38	-37.9	-38.9	22.8	0.00e+00	0	28	0	477102080	48	6330
2026-01-17 02:29:02.52	252.54	17.57	-38.4	-39.5	22.3	0.00e+00	0	28	0	484442112	48	6774
2026-01-17 02:29:06.55	253.40	17.76	-38.4	-39.4	22.3	0.00e+00	0	28	0	492830720	48	6713
2026-01-17 02:29:10.59	254.28	17.94	-38.8	-39.9	21.8	0.00e+00	0	28	0	500170752	50	6379
2026-01-17 02:29:14.63	255.17	18.11	-38.8	-39.8	22.0	0.00e+00	0	28	0	507510784	50	6309
2026-01-17 02:29:18.66	256.06	18.28	-38.7	-39.7	22.0	0.00e+00	0	28	0	514850816	50	6238
2026-01-17 02:29:22.70	256.96	18.45	-38.5	-39.6	22.2	0.00e+00	0	28	0	522190848	50	6130
2026-01-17 02:29:26.74	257.88	18.60	-38.5	-39.5	22.2	0.00e+00	0	28	0	530579456	50	6103
2026-01-17 02:29:30.77	258.80	18.76	-37.9	-38.9	22.8	0.00e+00	0	28	0	537919488	50	5632
2026-01-17 02:29:34.81	259.73	18.90	-38.1	-39.1	22.6	0.00e+00	0	28	0	545259520	50	5822
2026-01-17 02:29:38.85	260.67	19.04	-38.1	-39.1	22.6	0.00e+00	0	28	0	552599552	50	5793
2026-01-17 02:29:42.89	261.62	19.17	-38.2	-39.2	22.6	0.00e+00	0	28	0	560988160	50	5860
2026-01-17 02:29:46.93	262.58	19.30	-38.0	-39.0	22.7	0.00e+00	0	28	0	568328192	50	5743
2026-01-17 02:29:50.97	263.54	19.41	-37.9	-38.8	22.9	0.00e+00	0	28	0	575668224	50	5608
2026-01-17 02:29:55.00	264.51	19.52	-38.0	-39.0	22.6	0.00e+00	0	28	0	583008256	50	5731
2026-01-17 02:29:59.04	265.49	19.62	-38.1	-39.1	22.7	0.00e+00	0	28	0	590348288	50	5813
2026-01-17 02:30:03.07	266.47	19.72	-37.6	-38.6	23.1	0.00e+00	0	28	0	598736896	48	6116
2026-01-17 02:30:07.10	267.45	19.80	-37.9	-38.9	22.9	0.00e+00	0	28	0	606076928	48	6347
2026-01-17 02:30:11.14	268.45	19.88	-37.6	-38.6	23.2	0.00e+00	0	28	0	613416960	48	6119
2026-01-17 02:30:15.18	269.45	19.95	-37.3	-38.2	23.4	0.00e+00	0	28	0	620756992	48	5862
2026-01-17 02:30:19.22	270.45	20.01	-38.2	-39.2	22.5	0.00e+00	0	28	0	628097024	48	6603
2026-01-17 02:30:23.26	271.46	20.07	-38.6	-39.6	22.2	0.00e+00	0	28	0	636485632	48	6893
2026-01-17 02:30:27.30	272.47	20.11	-37.9	-38.9	22.8	0.00e+00	0	28	0	643825664	48	6337
2026-01-17 02:30:31.34	273.48	20.15	-38.2	-39.2	22.5	0.00e+00	0	28	0	651165696	48	6612
2026-01-17 02:30:35.38	274.49	20.17	-38.3	-39.4	22.4	0.00e+00	0	28	0	658505728	48	6719
2026-01-17 02:30:39.42	275.51	20.19	-38.4	-39.5	22.3	0.00e+00	0	28	0	666894336	50	6036
2026-01-17 02:30:43.45	276.52	20.20	-38.8	-39.9	21.9	0.00e+00	0	28	0	674234368	50	6372
2026-01-17 02:30:47.50	277.54	20.20	-38.7	-39.8	22.0	0.00e+00	0	28	0	681574400	50	6247
2026-01-17 02:30:51.54	278.55	20.19	-38.6	-39.6	22.2	0.00e+00	0	28	0	688914432	50	6159
2026-01-17 02:30:55.58	279.57	20.17	-38.1	-39.1	22.6	0.00e+00	0	28	0	696254464	50	5799
2026-01-17 02:30:59.62	280.58	20.15	-37.7	-38.7	23.0	0.00e+00	0	28	0	704643072	50	5538
2026-01-17 02:31:03.66	281.59	20.11	-38.3	-39.3	22.5	0.00e+00	0	28	0	711983104	48	6636
2026-01-17 02:31:07.70	282.60	20.07	-38.2	-39.1	22.6	0.00e+00	0	28	0	719323136	48	6529
2026-01-17 02:31:11.74	283.61	20.02	-38.4	-39.4	22.4	0.00e+00	0	28	0	726663168	48	6712
2026-01-17 02:31:15.78	284.61	19.96	-38.5	-39.6	22.2	0.00e+00	0	28	0	735051776	48	6886
2026-01-17 02:31:19.82	285.61	19.89	-38.4	-39.4	22.4	0.00e+00	0	28	0	742391808	48	6714
2026-01-17 02:31:23.85	286.60	19.81	-37.6	-38.5	23.0	0.00e+00	0	28	0	749731840	48	6100
2026-01-17 02:31:27.89	287.58	19.72	-38.1	-39.1	22.6	0.00e+00	0	28	0	757071872	48	6470
2026-01-17 02:31:31.93	288.56	19.63	-38.0	-39.0	22.7	0.00e+00	0	28	0	764411904	48	6425
2026-01-17 02:31:35.97	289.54	19.53	-37.3	-38.2	23.4	0.00e+00	0	28	0	772800512	48	5841
2026-01-17 02:31:40.01	290.51	19.42	-36.7	-37.6	24.0	0.00e+00	0	28	0	780140544	46	6125
2026-01-17 02:31:44.05	291.47	19.30	-36.9	-37.8	23.7	0.00e+00	0	28	0	787480576	46	6300
2026-01-17 02:31:48.08	292.42	19.18	-37.4	-38.3	23.3	0.00e+00	0	28	0	794820608	46	6648
2026-01-17 02:31:52.12	293.37	19.05	-37.2	-38.2	23.5	0.00e+00	0	28	0	803209216	46	6547
2026-01-17 02:31:56.16	294.31	18.91	-36.6	-37.4	24.0	0.00e+00	0	28	0	810549248	46	6016
2026-01-17 02:32:00.20	295.24	18.76	-36.1	-36.9	24.4	0.00e+00	0	28	0	817889280	46	5672
2026-01-17 02:32:04.23	296.16	18.61	-36.5	-37.3	24.1	0.00e+00	0	28	0	825229312	46	5939
2026-01-17 02:32:08.28	297.07	18.46	-36.6	-37.4	24.1	0.00e+00	0	28	0	832569344	46	6012
2026-01-17 02:32:12.32	297.97	18.29	-36.2	-37.0	24.4	0.00e+00	0	28	0	840957952	46	5723
2026-01-17 02:32:16.35	298.86	18.13	-36.0	-36.8	24.7	0.00e+00	0	28	0	848297984	46	5584
2026-01-17 02:32:20.39	299.74	17.95	-35.8	-36.6	24.7	0.00e+00	0	28	0	855638016	46	5464
2026-01-17 02:32:24.43	300.62	17.77	-36.0	-36.8	24.4	0.00e+00	0	28	0	862978048	46	5614
2026-01-17 02:32:28.46	301.48	17.59	-36.5	-37.3	24.2	0.00e+00	0	28	0	871366656	46	5938
2026-01-17 02:32:32.50	302.33	17.40	-36.4	-37.2	24.2	0.00e+00	0	28	0	878706688	46	5895
2026-01-17 02:32:36.54	303.17	17.21	-37.2	-38.1	23.4	0.00e+00	0	28	0	886046720	46	6525
2026-01-17 02:32:40.58	304.00	17.01	-37.4	-38.3	23.2	0.00e+00	0	28	0	893386752	46	6676
2026-01-17 02:32:44.62	304.82	16.81	-37.7	-38.6	23.0	0.00e+00	0	28	0	900726784	46	6893
2026-01-17 02:32:48.65	305.63	16.61	-37.5	-38.5	23.1	0.00e+00	0	28	0	909115392	46	6785
2026-01-17 02:32:52.69	306.43	16.40	-37.5	-38.4	23.1	0.00e+00	0	28	0	916455424	46	6730
2026-01-17 02:32:56.73	307.22	16.18	-38.1	-39.1	22.6	0.00e+00	0	28	0	923795456	48	6479
2026-01-17 02:33:00.77	308.00	15.97	-37.9	-38.9	22.7	0.00e+00	0	28	0	931135488	48	6371
2026-01-17 02:33:04.81	308.76	15.75	-37.8	-38.8	22.7	0.00e+00	0	28	0	939524096	48	6279
2026-01-17 02:33:08.85	309.52	15.53	-37.9	-38.9	22.7	0.00e+00	0	28	0	946864128	48	6336
2026-01-17 02:33:12.89	310.26	15.31	-38.2	-39.2	22.4	0.00e+00	0	28	0	954204160	48	6585
2026-01-17 02:33:16.93	311.00	15.08	-37.7	-38.6	22.9	0.00e+00	0	28	0	961544192	48	6171
2026-01-17 02:33:20.97	311.72	14.85	-37.3	-38.3	23.2	0.00e+00	0	28	0	968884224	48	5915
2026-01-17 02:33:25.01	312.43	14.62	-37.4	-38.3	23.2	0.00e+00	0	28	0	977272832	48	5942
2026-01-17 02:33:29.05	313.13	14.39	-38.3	-39.3	22.2	0.00e+00	0	28	0	984612864	48	6657
2026-01-17 02:33:33.09	313.82	14.16	-38.8	-39.9	21.7	0.00e+00	0	28	0	991952896	50	6362
2026-01-17 02:33:37.13	314.50	13.93	-47.7	-62.8	3.6	1.51e+00	0	28	104	991952896	60	50148
2026-01-17 02:33:41.17	315.17	13.69	-47.7	-62.8	3.6	1.51e+00	0	28	104	991952896	60	50012
2026-01-17 02:33:45.21	315.83	13.45	-47.6	-62.8	3.6	1.51e+00	0	28	104	991952896	60	49831
2026-01-17 02:33:49.24	316.48	13.22	-47.6	-62.8	3.6	1.51e+00	0	28	104	991952896	60	49756
2026-01-17 02:33:53.28	317.12	12.98	-47.6	-62.8	3.6	1.51e+00	0	28	104	991952896	60	49923
2026-01-17 02:33:57.32	317.75	12.74	-47.6	-62.8	3.6	1.51e+00	0	28	104	991952896	60	49647
2026-01-17 02:34:01.36	318.37	12.50	-43.0	-45.1	16.8	7.00e-07	0	28	0	993001472	60	6508
2026-01-17 02:34:05.40	318.98	12.26	-39.0	-40.2	21.3	0.00e+00	0	28	0	1000341504	50	6569
2026-01-17 02:34:09.43	319.58	12.01	-39.9	-41.2	20.4	0.00e+00	0	28	0	1007681536	52	6561
2026-01-17 02:34:13.47	320.17	11.77	-39.8	-41.1	20.7	0.00e+00	0	28	0	1016070144	52	6493
2026-01-17 02:34:17.51	320.75	11.53	-40.1	-41.4	19.6	0.00e+00	0	27	0	1023410176	52	6750
2026-01-17 02:34:21.54	321.32	11.29	-39.6	-40.8	20.4	0.00e+00	0	28	0	1030750208	52	6302
2026-01-17 02:34:25.58	321.89	11.05	-39.1	-40.3	21.2	0.00e+00	0	28	0	1038090240	50	6663
2026-01-17 02:34:29.62	322.44	10.80	-39.5	-40.7	20.7	0.00e+00	0	28	0	1045430272	50	6947
2026-01-17 02:34:33.66	322.99	10.56	-40.0	-41.3	19.7	0.00e+00	0	28	0	1053818880	52	6656
2026-01-17 02:34:37.70	323.52	10.32	-38.8	-39.9	21.5	0.00e+00	0	27	0	1061158912	52	5661
2026-01-17 02:34:41.74	324.05	10.08	-37.9	-38.9	22.4	0.00e+00	0	28	0	1068498944	50	5662
2026-01-17 02:34:45.78	324.57	9.84	-38.6	-39.7	21.6	0.00e+00	0	27	0	1075838976	50	6212
2026-01-17 02:34:49.82	325.08	9.60	-38.5	-39.6	21.7	0.00e+00	0	28	0	1084227584	50	6131
2026-01-17 02:34:53.86	325.59	9.36	-38.5	-39.6	21.7	0.00e+00	0	27	0	1091567616	50	6112
2026-01-17 02:34:57.89	326.08	9.12	-38.6	-39.7	21.6	0.00e+00	0	27	0	1098907648	50	6203
2026-01-17 02:35:01.93	326.57	8.88	-39.0	-40.1	21.1	0.00e+00	0	28	0	1106247680	50	6528
2026-01-17 02:35:05.97	327.05	8.64	-38.8	-39.9	21.3	0.00e+00	0	27	0	1113587712	50	6377
2026-01-17 02:35:10.01	327.52	8.40	-38.8	-40.0	21.2	0.00e+00	0	27	0	1121976320	50	6409
2026-01-17 02:35:14.05	327.99	8.16	-39.3	-40.6	20.7	0.00e+00	0	27	0	1129316352	50	6851
2026-01-17 02:35:18.09	328.45	7.93	-39.6	-40.9	20.4	0.00e+00	0	27	0	1136656384	50	7123
2026-01-17 02:35:22.12	328.90	7.69	-39.4	-40.7	20.5	0.00e+00	0	27	0	1143996416	50	6955
2026-01-17 02:35:26.16	329.34	7.45	-39.1	-40.4	20.6	0.00e+00	0	27	0	1152385024	50	6716
2026-01-17 02:35:30.19	329.78	7.22	-39.3	-40.5	20.6	0.00e+00	0	27	0	1159725056	50	6817
2026-01-17 02:35:34.23	330.21	6.99	-39.6	-40.9	20.2	0.00e+00	0	27	0	1167065088	50	7131
2026-01-17 02:35:38.27	330.64	6.75	-39.3	-40.6	20.4	0.00e+00	0	27	0	1174405120	52	6155
2026-01-17 02:35:42.31	331.05	6.52	-39.6	-40.9	20.2	0.00e+00	0	27	0	1181745152	52	6355
2026-01-17 02:35:46.35	331.47	6.29	-39.8	-41.2	19.8	0.00e+00	0	27	0	1190133760	52	6583
2026-01-17 02:35:50.39	331.87	6.06	-40.1	-41.6	19.4	0.00e+00	0	27	0	1197473792	52	6897
2026-01-17 02:35:54.43	332.27	5.83	-40.1	-41.6	19.3	0.00e+00	0	27	0	1204813824	52	6864
2026-01-17 02:35:58.47	332.67	5.60	-40.6	-42.2	18.5	0.00e+00	0	27	0	1212153856	52	7394
2026-01-17 02:36:02.48	333.05	5.37	-41.3	-43.4	16.6	0.00e+00	0	27	0	1219493888	54	7587
2026-01-17 02:36:06.53	333.43	5.15	-42.6	-46.3	12.6	3.43e-05	0	27	0	1227882496	56	9405
2026-01-17 02:36:10.49	333.80	4.93	-43.1	-49.5	7.8	5.02e-02	0	27	0	1235222528	58	12064
2026-01-17 02:36:14.53	334.17	4.70	-43.0	-52.3	4.3	7.96e-01	0	27	0	1242562560	58	16777
2026-01-17 02:36:18.57	334.54	4.48	-42.9	-56.2	3.6	1.50e+00	0	27	104	1243611136	58	26159
2026-01-17 02:36:22.61	334.90	4.25	-42.9	-57.1	3.6	1.51e+00	0	27	104	1243611136	58	28973
2026-01-17 02:36:26.65	335.26	4.03	-43.0	-57.7	3.6	1.51e+00	0	27	104	1243611136	58	31169
2026-01-17 02:36:30.69	335.61	3.81	-43.1	-57.9	3.6	1.51e+00	0	27	104	1243611136	58	31973
2026-01-17 02:36:34.73	335.95	3.59	-43.0	-58.0	3.6	1.51e+00	0	27	104	1243611136	58	32311
2026-01-17 02:36:38.77	336.29	3.37	-43.0	-58.1	3.6	1.51e+00	0	27	104	1243611136	58	32632
2026-01-17 02:36:42.80	336.63	3.15	-43.1	-58.2	3.6	1.51e+00	0	27	104	1243611136	58	32801
2026-01-17 02:36:46.85	336.96	2.94	-47.1	-62.2	3.6	1.51e+00	0	27	104	1243611136	60	46685
2026-01-17 02:36:50.89	337.29	2.72	-48.1	-63.2	3.6	1.51e+00	0	27	104	1243611136	60	52519
2026-01-17 02:36:54.93	337.61	2.51	-48.1	-63.3	3.6	1.51e+00	0	27	104	1243611136	60	53072
2026-01-17 02:36:58.96	337.93	2.29	-48.0	-63.3	3.6	1.51e+00	0	27	104	1243611136	60	52634
2026-01-17 02:37:03.00	338.24	2.08	-48.1	-63.3	3.6	1.51e+00	0	27	104	1243611136	60	52732
2026-01-17 02:37:07.04	338.55	1.87	-48.3	-63.4	3.6	1.51e+00	0	27	104	1243611136	60	53460
2026-01-17 02:37:11.08	338.86	1.65	-48.1	-63.2	3.6	1.51e+00	0	27	104	1243611136	60	52488
2026-01-17 02:37:15.11	339.16	1.44	-48.3	-63.5	3.6	1.51e+00	0	27	104	1243611136	60	54234
2026-01-17 02:37:19.15	339.46	1.23	-48.1	-63.2	3.6	1.51e+00	0	27	104	1243611136	60	52342
2026-01-17 02:37:23.19	339.75	1.03	-48.1	-63.3	3.6	1.51e+00	0	27	104	1243611136	60	52701
2026-01-17 02:37:27.23	340.04	0.82	-48.2	-63.4	3.6	1.51e+00	0	27	104	1243611136	60	53191
2026-01-17 02:37:31.27	340.33	0.61	-48.1	-63.2	3.6	1.51e+00	0	27	104	1243611136	60	52380
2026-01-17 02:37:35.30	340.61	0.41	-48.1	-63.3	3.6	1.51e+00	0	27	104	1243611136	60	53064
2026-01-17 02:37:39.34	340.89	0.20	-48.1	-63.2	3.6	1.51e+00	0	27	104	1243611136	60	52389
2026-01-17 02:37:43.38	341.16	-0.00	-48.2	-63.4	3.6	1.51e+00	0	27	104	1243611136	60	53342

#Closed at: 2026-01-17 02:37:44
#Recorded file [1243 MB]: D:/lorett/data/35029_260117_142354.dat