passes_logs/2026/01/17/R4.6S_Anadyr/R4.6S_Anadyr__20260117_190638_SUOMI_NPP_rec.log

#Pass ID: 20260117_190638_SUOMI NPP
#Satellite: SUOMI NPP
#Configuration: NPP
#almurnet v.1.7.20251203
#Start time: 2026-01-17 19:06:40

#Version: 2.2.20231116
#Station: R4.6S_Anadyr
#Location: 177.4865 lon 64.73178 lat
#TLE: 1 37849U 11061A   26016.58419598  .00000058  00000+0  48257-4 0  9996
#TLE: 2 37849  98.7812 318.6192 0002422  60.8544 299.2874 14.19525580736934

#Time	Az	El	Level	Level2	SNR	BER	BlckErr	Temp	State	Recorded	gain1	gain2
2026-01-17 19:06:40.97	47.60	0.12	-48.6	-60.3	3.5	8.45e-01	0	27	0	0	60	37450
2026-01-17 19:06:44.00	47.37	0.26	-48.8	-64.0	3.6	1.51e+00	0	28	104	0	60	57310
2026-01-17 19:06:47.03	47.14	0.41	-48.8	-64.0	3.6	1.51e+00	0	28	104	0	60	57609
2026-01-17 19:06:50.06	46.91	0.56	-48.7	-64.0	3.6	1.51e+00	0	29	104	0	60	57023
2026-01-17 19:06:53.09	46.67	0.71	-48.7	-63.8	3.6	1.51e+00	0	29	104	0	60	55908
2026-01-17 19:06:56.12	46.44	0.86	-48.3	-63.5	3.6	1.51e+00	0	29	104	0	60	53819
2026-01-17 19:06:59.15	46.20	1.01	-47.1	-62.3	3.6	1.51e+00	0	29	104	0	60	47105
2026-01-17 19:07:02.18	45.95	1.16	-47.1	-62.3	3.6	1.51e+00	0	29	104	0	60	47087
2026-01-17 19:07:05.21	45.71	1.31	-47.1	-62.3	3.6	1.51e+00	0	29	104	0	60	46943
2026-01-17 19:07:08.24	45.46	1.46	-47.1	-62.3	3.6	1.51e+00	0	29	104	0	60	46968
2026-01-17 19:07:11.27	45.21	1.61	-47.1	-62.1	3.6	1.51e+00	0	29	104	0	60	46276
2026-01-17 19:07:14.30	44.96	1.76	-47.1	-62.2	3.6	1.51e+00	0	29	104	0	60	46594
2026-01-17 19:07:17.34	44.70	1.91	-47.1	-62.1	3.6	1.51e+00	0	29	104	0	60	46122
2026-01-17 19:07:20.37	44.44	2.06	-47.0	-61.8	3.6	1.51e+00	0	29	104	0	60	44508
2026-01-17 19:07:23.39	44.18	2.21	-47.0	-61.8	3.6	1.51e+00	0	29	104	0	60	44390
2026-01-17 19:07:26.42	43.92	2.36	-47.1	-62.2	3.6	1.51e+00	0	29	104	0	60	46821
2026-01-17 19:07:29.45	43.65	2.52	-47.1	-62.3	3.6	1.51e+00	0	29	104	0	60	47144
2026-01-17 19:07:32.48	43.38	2.67	-47.0	-61.1	3.6	1.51e+00	0	29	104	0	60	40840
2026-01-17 19:07:35.51	43.11	2.82	-47.0	-61.7	3.6	1.51e+00	0	29	104	0	60	43721
2026-01-17 19:07:38.54	42.84	2.97	-45.8	-51.3	9.3	5.16e-02	73	29	0	2097152	60	13340
2026-01-17 19:07:41.57	42.56	3.13	-47.2	-61.2	3.6	1.51e+00	0	29	104	5242880	60	41647
2026-01-17 19:07:44.60	42.28	3.28	-46.3	-54.0	3.7	1.14e-03	0	29	0	7340032	60	18016
2026-01-17 19:07:47.63	41.99	3.43	-42.4	-44.6	16.6	0.00e+00	28	29	0	8388608	58	6873
2026-01-17 19:07:50.67	41.70	3.59	-42.5	-44.8	16.5	0.00e+00	0	29	0	14680064	58	7032
2026-01-17 19:07:53.70	41.41	3.74	-42.2	-44.3	17.0	0.00e+00	0	29	0	19922944	58	6619
2026-01-17 19:07:56.73	41.12	3.89	-42.5	-44.7	16.6	0.00e+00	85	29	0	26214400	58	6953
2026-01-17 19:07:59.76	40.82	4.05	-42.2	-44.3	17.1	0.00e+00	92	29	0	31457280	58	6680
2026-01-17 19:08:02.78	40.52	4.20	-42.1	-44.1	17.2	0.00e+00	0	29	0	36700160	58	6506
2026-01-17 19:08:05.81	40.22	4.35	-42.2	-44.3	17.1	0.00e+00	6	29	0	42991616	58	6644
2026-01-17 19:08:08.84	39.91	4.51	-42.0	-43.9	17.5	0.00e+00	79	29	0	48234496	58	6363
2026-01-17 19:08:11.88	39.60	4.66	-41.9	-43.8	17.6	0.00e+00	0	29	0	54525952	58	6313
2026-01-17 19:08:14.91	39.29	4.82	-42.0	-44.0	17.5	0.00e+00	0	29	0	59768832	58	6408
2026-01-17 19:08:17.94	38.97	4.97	-41.9	-43.8	17.7	0.00e+00	70	29	0	66060288	58	6265
2026-01-17 19:08:20.96	38.65	5.13	-42.0	-43.9	17.6	0.00e+00	0	29	0	71303168	58	6359
2026-01-17 19:08:24.00	38.33	5.28	-42.0	-43.9	17.7	0.00e+00	0	29	0	76546048	56	7138
2026-01-17 19:08:27.03	38.00	5.44	-41.9	-43.7	17.8	0.00e+00	92	29	0	82837504	56	7006
2026-01-17 19:08:30.06	37.67	5.59	-41.8	-43.6	17.9	0.00e+00	0	29	0	88080384	56	6863
2026-01-17 19:08:33.09	37.33	5.75	-41.8	-43.6	18.0	0.00e+00	33	29	0	94371840	56	6906
2026-01-17 19:08:36.12	37.00	5.90	-41.5	-43.3	18.5	0.00e+00	0	29	0	99614720	56	6633
2026-01-17 19:08:39.15	36.65	6.06	-41.2	-42.8	18.8	0.00e+00	69	30	0	105906176	56	6316
2026-01-17 19:08:42.18	36.31	6.21	-41.0	-42.5	19.1	0.00e+00	0	29	0	111149056	56	6067
2026-01-17 19:08:45.21	35.96	6.37	-40.6	-42.1	19.4	0.00e+00	0	29	0	116391936	54	6481
2026-01-17 19:08:48.24	35.60	6.52	-40.4	-41.8	19.6	0.00e+00	0	30	0	122683392	54	6264
2026-01-17 19:08:51.27	35.25	6.67	-40.4	-41.8	19.5	0.00e+00	33	30	0	127926272	54	6272
2026-01-17 19:08:54.30	34.89	6.83	-40.7	-42.2	19.3	0.00e+00	0	29	0	134217728	54	6589
2026-01-17 19:08:57.33	34.52	6.98	-40.7	-42.1	19.4	0.00e+00	0	30	0	139460608	54	6529
2026-01-17 19:09:00.36	34.15	7.14	-40.9	-42.5	19.1	0.00e+00	31	29	0	144703488	54	6775
2026-01-17 19:09:03.39	33.78	7.29	-40.9	-42.4	19.3	0.00e+00	0	30	0	150994944	54	6706
2026-01-17 19:09:06.42	33.40	7.44	-40.9	-42.4	19.4	0.00e+00	0	30	0	156237824	54	6710
2026-01-17 19:09:09.45	33.02	7.60	-41.0	-42.5	19.2	0.00e+00	75	30	0	162529280	54	6802
2026-01-17 19:09:12.48	32.63	7.75	-40.9	-42.4	19.2	0.00e+00	0	29	0	167772160	54	6750
2026-01-17 19:09:15.51	32.24	7.90	-40.9	-42.4	19.3	0.00e+00	0	29	0	174063616	54	6744
2026-01-17 19:09:18.53	31.85	8.05	-40.7	-42.1	19.6	0.00e+00	0	29	0	179306496	54	6507
2026-01-17 19:09:21.56	31.45	8.21	-40.6	-42.0	19.7	0.00e+00	30	29	0	184549376	54	6431
2026-01-17 19:09:24.59	31.05	8.36	-40.5	-41.9	19.9	0.00e+00	0	29	0	190840832	54	6344
2026-01-17 19:09:27.62	30.64	8.51	-40.6	-42.0	19.8	0.00e+00	0	30	0	196083712	54	6392
2026-01-17 19:09:30.65	30.23	8.66	-40.5	-42.0	19.8	0.00e+00	92	30	0	202375168	54	6395
2026-01-17 19:09:33.67	29.82	8.81	-41.0	-42.5	19.3	0.00e+00	0	30	0	207618048	54	6801
2026-01-17 19:09:36.70	29.40	8.96	-41.3	-42.9	18.9	0.00e+00	0	30	0	212860928	54	7110
2026-01-17 19:09:39.73	28.98	9.10	-41.3	-42.8	19.1	0.00e+00	92	30	0	219152384	54	7081
2026-01-17 19:09:42.76	28.55	9.25	-40.9	-42.4	19.4	0.00e+00	0	30	0	224395264	54	6695
2026-01-17 19:09:45.79	28.11	9.40	-40.6	-42.0	19.8	0.00e+00	0	30	0	230686720	54	6396
2026-01-17 19:09:48.81	27.68	9.55	-40.0	-41.3	20.5	0.00e+00	0	30	0	235929600	54	5908
2026-01-17 19:09:51.85	27.23	9.69	-40.0	-41.3	20.3	0.00e+00	36	30	0	242221056	54	5952
2026-01-17 19:09:54.88	26.79	9.84	-39.7	-41.0	20.8	0.00e+00	0	30	0	247463936	52	6394
2026-01-17 19:09:57.91	26.34	9.98	-39.6	-40.8	20.8	0.00e+00	0	30	0	252706816	52	6256
2026-01-17 19:10:00.94	25.88	10.12	-39.3	-40.5	21.2	0.00e+00	92	30	0	258998272	52	6035
2026-01-17 19:10:03.97	25.42	10.27	-38.9	-40.0	21.7	0.00e+00	0	30	0	264241152	52	5710
2026-01-17 19:10:07.00	24.96	10.41	-38.8	-39.9	21.8	0.00e+00	0	30	0	270532608	50	6372
2026-01-17 19:10:10.02	24.49	10.55	-39.0	-40.2	21.5	0.00e+00	60	30	0	275775488	50	6572
2026-01-17 19:10:13.05	24.02	10.69	-39.3	-40.5	21.2	0.00e+00	39	30	0	281018368	50	6772
2026-01-17 19:10:16.08	23.54	10.82	-39.1	-40.3	21.4	0.00e+00	0	30	0	287309824	50	6623
2026-01-17 19:10:19.11	23.05	10.96	-38.7	-39.8	21.9	0.00e+00	0	30	0	292552704	50	6297
2026-01-17 19:10:22.14	22.57	11.10	-38.4	-39.5	22.0	0.00e+00	79	30	0	298844160	50	6052
2026-01-17 19:10:25.16	22.08	11.23	-38.1	-39.1	22.4	0.00e+00	0	30	0	304087040	50	5799
2026-01-17 19:10:28.19	21.58	11.36	-38.1	-39.1	22.4	0.00e+00	0	30	0	310378496	50	5805
2026-01-17 19:10:31.22	21.08	11.50	-38.4	-39.5	22.0	0.00e+00	92	30	0	315621376	50	6071
2026-01-17 19:10:34.25	20.57	11.63	-38.4	-39.5	22.1	0.00e+00	0	30	0	320864256	50	6069
2026-01-17 19:10:37.28	20.06	11.75	-37.8	-38.8	22.6	0.00e+00	0	30	0	327155712	50	5611
2026-01-17 19:10:40.31	19.55	11.88	-37.6	-38.6	22.9	0.00e+00	0	30	0	332398592	48	6111
2026-01-17 19:10:43.34	19.03	12.01	-37.6	-38.6	22.9	0.00e+00	46	30	0	338690048	48	6120
2026-01-17 19:10:46.37	18.50	12.13	-38.3	-39.3	22.3	0.00e+00	0	30	0	343932928	48	6664
2026-01-17 19:10:49.40	17.98	12.25	-38.5	-39.5	21.6	0.00e+00	0	30	0	349175808	48	6827
2026-01-17 19:10:52.43	17.44	12.37	-38.5	-39.6	22.1	0.00e+00	37	30	0	355467264	48	6868
2026-01-17 19:10:55.45	16.91	12.49	-38.4	-39.5	22.1	0.00e+00	0	30	0	360710144	48	6777
2026-01-17 19:10:58.48	16.37	12.61	-38.7	-39.8	21.8	0.00e+00	0	30	0	367001600	50	6257
2026-01-17 19:11:01.51	15.82	12.72	-39.5	-40.7	21.1	0.00e+00	92	29	0	372244480	50	6962
2026-01-17 19:11:04.54	15.27	12.83	-38.9	-40.0	21.7	0.00e+00	0	30	0	378535936	50	6437
2026-01-17 19:11:07.57	14.72	12.94	-38.7	-39.7	22.0	0.00e+00	0	30	0	383778816	50	6240
2026-01-17 19:11:10.60	14.16	13.05	-38.6	-39.6	22.1	0.00e+00	0	30	0	389021696	50	6157
2026-01-17 19:11:13.63	13.59	13.15	-38.7	-39.8	22.0	0.00e+00	30	30	0	395313152	50	6249
2026-01-17 19:11:16.66	13.03	13.26	-38.5	-39.5	22.1	0.00e+00	0	30	0	400556032	50	6100
2026-01-17 19:11:19.69	12.46	13.36	-37.9	-38.9	22.6	0.00e+00	0	30	0	406847488	48	6321
2026-01-17 19:11:22.73	11.88	13.46	-38.4	-39.5	22.1	0.00e+00	92	30	0	412090368	48	6785
2026-01-17 19:11:25.76	11.30	13.55	-38.9	-40.0	21.8	0.00e+00	0	30	0	417333248	50	6428
2026-01-17 19:11:28.79	10.72	13.65	-38.8	-39.9	21.9	0.00e+00	0	30	0	423624704	50	6359
2026-01-17 19:11:31.82	10.13	13.74	-37.8	-38.8	22.2	0.00e+00	60	30	0	428867584	50	5589
2026-01-17 19:11:34.85	9.55	13.83	-37.6	-38.5	23.1	0.00e+00	0	30	0	435159040	48	6059
2026-01-17 19:11:37.87	8.95	13.91	-37.7	-38.6	23.0	0.00e+00	0	30	0	440401920	48	6163
2026-01-17 19:11:40.91	8.36	13.99	-37.7	-38.7	23.1	0.00e+00	0	30	0	446693376	48	6208
2026-01-17 19:11:43.93	7.76	14.07	-37.6	-38.5	23.0	0.00e+00	43	30	0	451936256	48	6083
2026-01-17 19:11:46.96	7.16	14.15	-37.3	-38.2	23.3	0.00e+00	0	30	0	457179136	48	5867
2026-01-17 19:11:49.99	6.55	14.22	-38.0	-39.0	22.6	0.00e+00	0	30	0	463470592	48	6415
2026-01-17 19:11:53.02	5.94	14.30	-38.5	-39.5	22.2	0.00e+00	45	30	0	468713472	48	6804
2026-01-17 19:11:56.05	5.33	14.36	-38.4	-39.4	22.3	0.00e+00	0	30	0	475004928	48	6723
2026-01-17 19:11:59.08	4.71	14.43	-38.7	-39.8	21.9	0.00e+00	0	30	0	480247808	48	7045
2026-01-17 19:12:02.11	4.10	14.49	-38.8	-39.9	22.0	0.00e+00	0	30	0	485490688	50	6374
2026-01-17 19:12:05.14	3.48	14.55	-38.6	-39.7	22.2	0.00e+00	34	30	0	491782144	50	6194
2026-01-17 19:12:08.17	2.86	14.60	-38.9	-40.0	21.8	0.00e+00	0	30	0	497025024	50	6431
2026-01-17 19:12:11.20	2.23	14.66	-38.4	-39.4	22.5	0.00e+00	0	30	0	503316480	50	5971
2026-01-17 19:12:14.23	1.60	14.70	-37.7	-38.6	23.0	0.00e+00	31	30	0	508559360	48	6160
2026-01-17 19:12:17.26	0.98	14.75	-38.2	-39.2	22.6	0.00e+00	0	30	0	514850816	48	6575
2026-01-17 19:12:20.29	0.34	14.79	-38.1	-39.1	22.7	0.00e+00	0	30	0	520093696	48	6477
2026-01-17 19:12:23.32	359.71	14.83	-37.9	-38.9	22.7	0.00e+00	92	30	0	525336576	48	6349
2026-01-17 19:12:26.35	359.08	14.86	-38.1	-39.1	22.6	0.00e+00	0	30	0	531628032	48	6536
2026-01-17 19:12:29.38	358.44	14.90	-38.3	-39.3	22.4	0.00e+00	0	30	0	536870912	48	6645
2026-01-17 19:12:32.41	357.81	14.92	-38.5	-39.5	22.3	0.00e+00	0	30	0	543162368	48	6815
2026-01-17 19:12:35.44	357.17	14.95	-38.5	-39.6	22.2	0.00e+00	44	30	0	548405248	50	6134
2026-01-17 19:12:38.47	356.53	14.97	-38.2	-39.2	22.6	0.00e+00	0	30	0	553648128	50	5855
2026-01-17 19:12:41.50	355.89	14.99	-38.3	-39.3	22.4	0.00e+00	0	30	0	559939584	50	5916
2026-01-17 19:12:44.53	355.25	15.00	-38.3	-39.4	22.3	0.00e+00	92	30	0	565182464	50	5977
2026-01-17 19:12:47.56	354.61	15.01	-38.2	-39.2	22.5	0.00e+00	0	30	0	571473920	50	5862
2026-01-17 19:12:50.59	353.97	15.02	-38.8	-39.9	22.1	0.00e+00	0	30	0	576716800	50	6362
2026-01-17 19:12:53.62	353.33	15.02	-38.7	-39.8	22.1	0.00e+00	91	30	0	583008256	50	6249
2026-01-17 19:12:56.65	352.69	15.02	-38.1	-39.1	22.6	0.00e+00	0	30	0	588251136	50	5812
2026-01-17 19:12:59.68	352.05	15.02	-37.7	-38.6	23.1	0.00e+00	0	30	0	593494016	48	6155
2026-01-17 19:13:02.71	351.41	15.01	-38.1	-39.1	22.6	0.00e+00	0	30	0	599785472	48	6520
2026-01-17 19:13:05.75	350.76	15.00	-38.6	-39.7	22.2	0.00e+00	34	30	0	605028352	48	6942
2026-01-17 19:13:08.77	350.12	14.98	-38.6	-39.6	22.2	0.00e+00	0	30	0	611319808	48	6914
2026-01-17 19:13:11.80	349.49	14.96	-38.7	-39.8	22.1	0.00e+00	0	30	0	616562688	50	6279
2026-01-17 19:13:14.83	348.85	14.94	-39.2	-40.4	21.5	0.00e+00	67	30	0	621805568	50	6721
2026-01-17 19:13:17.86	348.21	14.91	-38.9	-40.0	22.0	0.00e+00	0	30	0	628097024	50	6420
2026-01-17 19:13:20.89	347.57	14.88	-38.5	-39.5	22.3	0.00e+00	0	30	0	633339904	50	6068
2026-01-17 19:13:23.92	346.94	14.85	-38.2	-39.2	22.6	0.00e+00	90	30	0	639631360	50	5875
2026-01-17 19:13:26.95	346.31	14.82	-38.3	-39.3	22.5	0.00e+00	0	30	0	644874240	50	5955
2026-01-17 19:13:29.98	345.67	14.78	-38.4	-39.4	22.4	0.00e+00	0	30	0	651165696	50	6007
2026-01-17 19:13:33.00	345.05	14.73	-38.0	-38.9	22.9	0.00e+00	0	30	0	656408576	50	5681
2026-01-17 19:13:36.04	344.42	14.69	-37.7	-38.6	23.0	0.00e+00	4	30	0	661651456	48	6169
2026-01-17 19:13:39.07	343.79	14.64	-37.8	-38.8	22.9	0.00e+00	0	30	0	667942912	48	6268
2026-01-17 19:13:42.10	343.17	14.58	-38.0	-39.0	22.8	0.00e+00	0	30	0	673185792	48	6396
2026-01-17 19:13:45.13	342.55	14.53	-38.4	-39.5	22.3	0.00e+00	92	30	0	679477248	48	6772
2026-01-17 19:13:48.16	341.93	14.47	-38.5	-39.6	22.1	0.00e+00	33	30	0	684720128	48	6879
2026-01-17 19:13:51.19	341.31	14.41	-38.7	-39.8	22.2	0.00e+00	0	30	0	691011584	50	6248
2026-01-17 19:13:54.22	340.70	14.34	-38.3	-39.3	22.5	0.00e+00	47	30	0	696254464	50	5948
2026-01-17 19:13:57.25	340.09	14.27	-37.9	-38.9	22.8	0.00e+00	35	30	0	701497344	50	5674
2026-01-17 19:14:00.28	339.48	14.20	-38.4	-39.4	22.4	0.00e+00	0	30	0	707788800	50	5986
2026-01-17 19:14:03.31	338.87	14.12	-38.1	-39.0	22.8	0.00e+00	0	30	0	713031680	50	5740
2026-01-17 19:14:06.34	338.27	14.05	-37.9	-38.9	22.8	0.00e+00	92	30	0	719323136	48	6329
2026-01-17 19:14:09.37	337.67	13.96	-38.6	-39.6	22.3	0.00e+00	0	30	0	724566016	48	6880
2026-01-17 19:14:12.40	337.08	13.88	-38.9	-40.0	21.8	0.00e+00	0	30	0	729808896	50	6412
2026-01-17 19:14:15.43	336.49	13.79	-38.7	-39.8	22.0	0.00e+00	54	30	0	736100352	50	6253
2026-01-17 19:14:18.46	335.90	13.71	-38.9	-40.0	21.8	0.00e+00	0	30	0	741343232	50	6418
2026-01-17 19:14:21.49	335.31	13.61	-38.7	-39.8	22.0	0.00e+00	0	30	0	747634688	50	6301
2026-01-17 19:14:24.51	334.73	13.52	-38.3	-39.3	22.4	0.00e+00	0	30	0	752877568	50	5916
2026-01-17 19:14:27.54	334.16	13.42	-38.3	-39.3	22.6	0.00e+00	29	30	0	759169024	50	5913
2026-01-17 19:14:30.57	333.58	13.32	-38.1	-39.1	22.6	0.00e+00	0	30	0	764411904	50	5807
2026-01-17 19:14:33.60	333.01	13.22	-38.1	-39.1	22.7	0.00e+00	0	30	0	769654784	50	5763
2026-01-17 19:14:36.63	332.45	13.12	-37.8	-38.7	22.9	0.00e+00	39	30	0	775946240	50	5564
2026-01-17 19:14:39.66	331.89	13.01	-37.4	-38.4	22.8	0.00e+00	0	30	0	781189120	48	5966
2026-01-17 19:14:42.68	331.33	12.90	-37.7	-38.6	22.8	0.00e+00	0	30	0	787480576	48	6137
2026-01-17 19:14:45.71	330.78	12.79	-38.1	-39.1	22.6	0.00e+00	92	30	0	792723456	48	6469
2026-01-17 19:14:48.74	330.23	12.68	-38.4	-39.4	22.3	0.00e+00	0	30	0	797966336	48	6743
2026-01-17 19:14:51.77	329.69	12.56	-38.9	-39.9	21.9	0.00e+00	0	30	0	804257792	50	6389
2026-01-17 19:14:54.80	329.15	12.45	-38.9	-39.9	21.9	0.00e+00	0	30	0	809500672	50	6383
2026-01-17 19:14:57.83	328.61	12.33	-38.8	-39.9	22.0	0.00e+00	34	30	0	815792128	50	6366
2026-01-17 19:15:00.85	328.08	12.21	-38.9	-40.0	21.8	0.00e+00	0	30	0	821035008	50	6431
2026-01-17 19:15:03.88	327.55	12.09	-39.0	-40.1	21.8	0.00e+00	0	30	0	826277888	50	6515
2026-01-17 19:15:06.91	327.03	11.96	-39.0	-40.1	21.8	0.00e+00	91	30	0	832569344	50	6502
2026-01-17 19:15:09.94	326.51	11.84	-39.3	-40.4	21.5	0.00e+00	0	30	0	837812224	50	6755
2026-01-17 19:15:12.96	326.00	11.71	-39.7	-40.8	21.2	0.00e+00	0	30	0	844103680	50	7073
2026-01-17 19:15:15.99	325.49	11.58	-39.2	-40.2	21.7	0.00e+00	92	30	0	849346560	50	6610
2026-01-17 19:15:19.02	324.99	11.45	-38.6	-39.6	22.1	0.00e+00	0	30	0	855638016	50	6162
2026-01-17 19:15:22.05	324.49	11.32	-39.0	-40.1	21.8	0.00e+00	0	30	0	860880896	50	6503
2026-01-17 19:15:25.08	323.99	11.18	-40.1	-41.4	20.7	0.00e+00	0	30	0	866123776	52	6701
2026-01-17 19:15:28.11	323.50	11.05	-40.8	-42.2	19.9	0.00e+00	34	30	0	872415232	54	6587
2026-01-17 19:15:31.14	323.02	10.91	-40.2	-41.5	20.6	0.00e+00	2	30	0	877658112	54	6055
2026-01-17 19:15:34.17	322.54	10.78	-39.7	-40.9	21.1	0.00e+00	0	30	0	883949568	52	6356
2026-01-17 19:15:37.21	322.06	10.64	-40.2	-41.5	20.5	0.00e+00	92	30	0	889192448	52	6788
2026-01-17 19:15:40.24	321.59	10.50	-42.1	-43.9	18.3	0.00e+00	0	30	0	894435328	56	7112
2026-01-17 19:15:43.27	321.12	10.36	-42.7	-44.6	17.7	0.00e+00	0	30	0	900726784	56	7726
2026-01-17 19:15:46.30	320.65	10.22	-42.2	-44.0	18.6	0.00e+00	62	30	0	905969664	56	7208
2026-01-17 19:15:49.33	320.20	10.07	-41.7	-43.3	19.0	0.00e+00	0	30	0	912261120	56	6638
2026-01-17 19:15:52.36	319.74	9.93	-41.3	-42.8	19.4	0.00e+00	0	30	0	917504000	56	6279
2026-01-17 19:15:55.39	319.29	9.79	-40.9	-42.3	19.8	0.00e+00	0	30	0	923795456	56	5904
2026-01-17 19:15:58.42	318.85	9.64	-40.3	-41.6	20.4	0.00e+00	51	30	0	929038336	54	6113
2026-01-17 19:16:01.45	318.41	9.49	-40.5	-41.8	20.2	0.00e+00	0	30	0	934281216	54	6273
2026-01-17 19:16:04.48	317.97	9.35	-40.4	-41.7	20.3	0.00e+00	0	30	0	940572672	54	6214
2026-01-17 19:16:07.51	317.54	9.20	-40.1	-41.3	20.7	0.00e+00	92	30	0	945815552	54	5949
2026-01-17 19:16:10.55	317.11	9.05	-39.8	-41.0	20.8	0.00e+00	0	30	0	952107008	54	5739
2026-01-17 19:16:13.58	316.69	8.90	-39.8	-41.1	20.8	0.00e+00	0	30	0	957349888	54	5776
2026-01-17 19:16:16.60	316.27	8.75	-39.9	-41.1	20.8	0.00e+00	0	30	0	962592768	52	6537
2026-01-17 19:16:19.63	315.86	8.60	-40.2	-41.5	20.4	0.00e+00	0	30	0	968884224	52	6799
2026-01-17 19:16:22.66	315.45	8.45	-40.5	-41.8	20.2	0.00e+00	0	30	0	974127104	52	7073
2026-01-17 19:16:25.69	315.04	8.30	-40.2	-41.5	20.3	0.00e+00	0	30	0	980418560	52	6819
2026-01-17 19:16:28.71	314.64	8.15	-40.3	-41.5	20.4	0.00e+00	57	30	0	985661440	52	6848
2026-01-17 19:16:31.75	314.25	8.00	-40.2	-41.5	20.3	0.00e+00	0	30	0	991952896	52	6832
2026-01-17 19:16:34.77	313.85	7.85	-40.1	-41.4	20.5	0.00e+00	0	30	0	997195776	52	6693
2026-01-17 19:16:37.80	313.47	7.69	-39.4	-40.5	21.2	0.00e+00	92	30	0	1002438656	52	6088
2026-01-17 19:16:40.83	313.08	7.54	-39.0	-40.2	21.6	0.00e+00	0	30	0	1008730112	52	5829
2026-01-17 19:16:43.87	312.70	7.39	-38.9	-40.0	21.7	0.00e+00	0	30	0	1013972992	52	5699
2026-01-17 19:16:46.90	312.32	7.23	-39.2	-40.4	21.4	0.00e+00	0	30	0	1020264448	52	5967
2026-01-17 19:16:49.93	311.95	7.08	-39.2	-40.4	21.4	0.00e+00	37	30	0	1025507328	52	5980
2026-01-17 19:16:52.96	311.58	6.93	-39.2	-40.4	21.2	0.00e+00	0	30	0	1030750208	52	5987
2026-01-17 19:16:55.98	311.22	6.77	-38.9	-40.0	21.6	0.00e+00	0	30	0	1037041664	52	5732
2026-01-17 19:16:59.01	310.86	6.62	-39.1	-40.3	21.2	0.00e+00	52	30	0	1042284544	52	5927
2026-01-17 19:17:02.05	310.50	6.46	-39.4	-40.5	21.1	0.00e+00	0	30	0	1048576000	52	6101
2026-01-17 19:17:05.07	310.15	6.31	-39.6	-40.8	20.8	0.00e+00	0	30	0	1053818880	52	6280
2026-01-17 19:17:08.11	309.80	6.15	-39.7	-41.0	20.7	0.00e+00	90	30	0	1060110336	52	6405
2026-01-17 19:17:11.13	309.46	6.00	-39.8	-41.1	20.5	0.00e+00	0	30	0	1065353216	52	6517
2026-01-17 19:17:14.17	309.12	5.85	-40.0	-41.3	20.3	0.00e+00	0	30	0	1070596096	52	6690
2026-01-17 19:17:17.20	308.78	5.69	-40.0	-41.3	20.4	0.00e+00	0	30	0	1076887552	52	6648
2026-01-17 19:17:20.22	308.45	5.54	-39.8	-41.1	20.5	0.00e+00	30	30	0	1082130432	52	6488
2026-01-17 19:17:23.25	308.12	5.38	-39.7	-40.9	20.5	0.00e+00	0	30	0	1088421888	52	6384
2026-01-17 19:17:26.29	307.79	5.23	-39.5	-40.7	20.7	0.00e+00	0	30	0	1093664768	52	6231
2026-01-17 19:17:29.32	307.47	5.07	-39.0	-40.2	21.2	0.00e+00	71	30	0	1098907648	52	5835
2026-01-17 19:17:32.35	307.15	4.92	-39.3	-40.5	21.0	0.00e+00	0	30	0	1105199104	52	6039
2026-01-17 19:17:35.38	306.83	4.76	-40.1	-41.5	20.1	0.00e+00	0	30	0	1110441984	52	6775
2026-01-17 19:17:38.41	306.52	4.61	-40.3	-41.7	19.8	0.00e+00	47	30	0	1116733440	52	6941
2026-01-17 19:17:41.44	306.21	4.45	-40.7	-42.2	19.4	0.00e+00	50	30	0	1121976320	54	6548
2026-01-17 19:17:44.47	305.90	4.30	-40.5	-41.9	19.6	0.00e+00	0	30	0	1128267776	54	6341
2026-01-17 19:17:47.50	305.60	4.15	-40.1	-41.4	20.0	0.00e+00	0	30	0	1133510656	54	6008
2026-01-17 19:17:50.53	305.30	3.99	-39.9	-41.2	20.2	0.00e+00	22	30	0	1138753536	52	6565
2026-01-17 19:17:53.56	305.01	3.84	-39.6	-40.9	20.4	0.00e+00	0	30	0	1145044992	52	6328
2026-01-17 19:17:56.59	304.71	3.68	-39.8	-41.1	20.2	0.00e+00	0	30	0	1150287872	52	6503
2026-01-17 19:17:59.62	304.42	3.53	-39.6	-40.8	20.3	0.00e+00	92	30	0	1156579328	52	6316
2026-01-17 19:18:02.65	304.14	3.38	-40.4	-41.9	19.5	0.00e+00	0	30	0	1161822208	52	7104
2026-01-17 19:18:05.68	303.85	3.22	-41.1	-42.7	18.6	0.00e+00	0	30	0	1167065088	54	6992
2026-01-17 19:18:08.71	303.57	3.07	-41.1	-42.7	18.6	0.00e+00	0	30	0	1173356544	54	7003
2026-01-17 19:18:11.75	303.29	2.92	-48.3	-63.5	3.6	1.51e+00	0	30	104	1176502272	60	53888
2026-01-17 19:18:14.78	303.02	2.77	-48.8	-64.0	3.6	1.51e+00	0	30	104	1176502272	60	57483
2026-01-17 19:18:17.81	302.75	2.61	-48.9	-64.1	3.5	1.51e+00	0	30	104	1176502272	60	57749
2026-01-17 19:18:20.84	302.48	2.46	-48.5	-63.9	3.6	1.51e+00	0	30	104	1176502272	60	56947
2026-01-17 19:18:23.87	302.21	2.31	-48.6	-63.9	3.6	1.51e+00	0	30	104	1176502272	60	56688
2026-01-17 19:18:26.90	301.95	2.16	-48.8	-63.9	3.6	1.51e+00	0	30	104	1176502272	60	56592
2026-01-17 19:18:29.93	301.69	2.01	-48.8	-64.0	3.6	1.51e+00	0	30	104	1176502272	60	57017
2026-01-17 19:18:32.96	301.43	1.86	-48.8	-64.0	3.6	1.51e+00	0	30	104	1176502272	60	56973
2026-01-17 19:18:35.99	301.18	1.70	-48.8	-63.9	3.6	1.51e+00	0	30	104	1176502272	60	56746
2026-01-17 19:18:39.02	300.93	1.55	-48.8	-64.0	3.6	1.51e+00	0	30	104	1176502272	60	57078
2026-01-17 19:18:42.05	300.68	1.40	-48.7	-63.9	3.6	1.51e+00	0	30	104	1176502272	60	56876
2026-01-17 19:18:45.08	300.43	1.25	-48.7	-63.9	3.6	1.51e+00	0	30	104	1176502272	60	56831
2026-01-17 19:18:48.11	300.19	1.10	-48.8	-64.0	3.6	1.51e+00	0	30	104	1176502272	60	57193
2026-01-17 19:18:51.15	299.94	0.95	-48.8	-64.0	3.6	1.51e+00	0	30	104	1176502272	60	57050
2026-01-17 19:18:54.18	299.70	0.80	-48.8	-64.0	3.6	1.51e+00	0	30	104	1176502272	60	57268
2026-01-17 19:18:57.21	299.47	0.66	-48.8	-64.0	3.6	1.51e+00	0	30	104	1176502272	60	57440
2026-01-17 19:19:00.24	299.23	0.51	-48.8	-64.0	3.6	1.51e+00	0	30	104	1176502272	60	57041
2026-01-17 19:19:03.27	299.00	0.36	-48.7	-63.9	3.6	1.51e+00	0	30	104	1176502272	60	56837
2026-01-17 19:19:06.30	298.77	0.21	-48.7	-63.9	3.6	1.51e+00	0	30	104	1176502272	60	56880
2026-01-17 19:19:09.33	298.55	0.06	-48.8	-63.9	3.6	1.51e+00	0	30	104	1176502272	60	56654

#Closed at: 2026-01-17 19:19:11
#Recorded file [1176 MB]: D:/lorett/data/35029_260118_070640.dat