passes_logs/2026/01/17/R4.6S_Anadyr/R4.6S_Anadyr__20260117_174751_NOAA_20_JPSS-1_rec.log

#Pass ID: 20260117_174751_NOAA 20 (JPSS-1)
#Satellite: NOAA 20 (JPSS-1)
#Configuration: NOAA 20
#almurnet v.1.7.20251203
#Start time: 2026-01-17 17:47:52

#Version: 2.2.20231116
#Station: R4.6S_Anadyr
#Location: 177.4865 lon 64.73178 lat
#TLE: 1 43013U 17073A   26016.52825843  .00000039  00000+0  39346-4 0  9991
#TLE: 2 43013  98.7637 317.4515 0001446  37.2648 322.8628 14.19536276422951

#Time	Az	El	Level	Level2	SNR	BER	BlckErr	Temp	State	Recorded	gain1	gain2
2026-01-17 17:47:52.40	34.64	0.07	-48.7	-63.6	3.5	1.51e+00	0	26	0	0	60	54853
2026-01-17 17:47:56.44	34.39	0.28	-48.8	-64.0	3.6	1.51e+00	0	28	104	0	60	57224
2026-01-17 17:48:00.48	34.12	0.49	-48.8	-63.9	3.6	1.51e+00	0	28	104	0	60	56734
2026-01-17 17:48:04.51	33.86	0.70	-48.5	-63.7	3.6	1.51e+00	0	28	104	0	60	55459
2026-01-17 17:48:08.56	33.58	0.92	-47.6	-62.7	3.6	1.51e+00	0	28	104	0	60	49567
2026-01-17 17:48:12.59	33.31	1.13	-47.2	-62.3	3.6	1.51e+00	0	28	104	0	60	46838
2026-01-17 17:48:16.64	33.03	1.34	-47.2	-62.3	3.6	1.51e+00	0	28	104	0	60	46977
2026-01-17 17:48:20.68	32.75	1.56	-47.2	-62.3	3.6	1.51e+00	0	28	104	0	60	46947
2026-01-17 17:48:24.72	32.46	1.78	-47.2	-62.3	3.6	1.51e+00	0	28	104	0	60	47227
2026-01-17 17:48:28.76	32.17	1.99	-47.1	-62.1	3.6	1.51e+00	0	28	104	0	60	45801
2026-01-17 17:48:32.80	31.87	2.21	-47.1	-62.2	3.6	1.51e+00	0	28	104	0	60	46513
2026-01-17 17:48:36.84	31.57	2.43	-47.2	-62.3	3.6	1.51e+00	0	28	104	0	60	46899
2026-01-17 17:48:40.88	31.26	2.65	-47.1	-61.5	3.6	1.51e+00	0	28	104	0	60	42725
2026-01-17 17:48:44.92	30.95	2.87	-47.1	-61.2	3.6	1.51e+00	0	29	104	0	60	41327
2026-01-17 17:48:48.97	30.63	3.10	-45.6	-50.6	10.3	9.14e-03	47	29	0	4194304	60	12229
2026-01-17 17:48:53.00	30.31	3.32	-46.4	-54.1	6.2	1.37e-02	92	29	0	9437184	60	18256
2026-01-17 17:48:57.04	29.98	3.54	-43.6	-46.3	15.5	0.00e+00	0	29	0	12582912	60	7432
2026-01-17 17:49:01.08	29.65	3.77	-42.0	-43.9	17.5	0.00e+00	0	28	0	20971520	58	6355
2026-01-17 17:49:05.12	29.32	3.99	-41.9	-43.7	17.8	0.00e+00	30	28	0	28311552	56	6998
2026-01-17 17:49:09.15	28.97	4.22	-42.0	-43.9	17.7	0.00e+00	92	29	0	35651584	56	7121
2026-01-17 17:49:13.19	28.63	4.45	-42.1	-44.0	17.8	0.00e+00	43	29	0	42991616	56	7225
2026-01-17 17:49:17.23	28.27	4.67	-41.6	-43.3	18.4	0.00e+00	0	29	0	50331648	56	6664
2026-01-17 17:49:21.27	27.91	4.90	-41.7	-43.4	18.3	0.00e+00	37	29	0	58720256	56	6738
2026-01-17 17:49:25.31	27.55	5.13	-41.6	-43.3	18.5	0.00e+00	92	29	0	66060288	56	6624
2026-01-17 17:49:29.35	27.17	5.37	-41.6	-43.3	18.5	0.00e+00	36	29	0	73400320	56	6616
2026-01-17 17:49:33.39	26.80	5.60	-41.4	-43.0	18.8	0.00e+00	43	28	0	80740352	56	6457
2026-01-17 17:49:37.43	26.41	5.83	-41.3	-42.9	19.0	0.00e+00	89	29	0	89128960	56	6377
2026-01-17 17:49:41.47	26.02	6.06	-41.4	-43.0	18.8	0.00e+00	37	29	0	96468992	56	6452
2026-01-17 17:49:45.51	25.63	6.30	-41.6	-43.2	18.8	0.00e+00	6	29	0	103809024	56	6567
2026-01-17 17:49:49.56	25.22	6.53	-41.8	-43.4	18.6	0.00e+00	49	29	0	111149056	56	6766
2026-01-17 17:49:53.60	24.81	6.77	-41.9	-43.6	18.5	0.00e+00	92	29	0	118489088	56	6869
2026-01-17 17:49:57.64	24.39	7.01	-41.7	-43.4	18.6	0.00e+00	6	29	0	126877696	56	6703
2026-01-17 17:50:01.68	23.97	7.24	-41.6	-43.2	18.9	0.00e+00	0	29	0	134217728	56	6540
2026-01-17 17:50:05.72	23.54	7.48	-41.6	-43.2	18.8	0.00e+00	35	29	0	141557760	56	6564
2026-01-17 17:50:09.75	23.10	7.72	-41.3	-42.9	19.2	0.00e+00	92	29	0	148897792	56	6324
2026-01-17 17:50:13.79	22.65	7.96	-41.4	-43.0	19.1	0.00e+00	0	29	0	157286400	56	6405
2026-01-17 17:50:17.84	22.20	8.20	-41.2	-42.7	19.4	0.00e+00	0	29	0	164626432	56	6186
2026-01-17 17:50:21.88	21.73	8.44	-41.2	-42.6	19.5	0.00e+00	23	29	0	171966464	56	6172
2026-01-17 17:50:25.92	21.26	8.68	-41.2	-42.7	19.5	0.00e+00	92	29	0	179306496	56	6191
2026-01-17 17:50:29.96	20.78	8.92	-41.1	-42.5	19.6	0.00e+00	40	29	0	186646528	56	6082
2026-01-17 17:50:33.99	20.30	9.16	-40.6	-41.9	19.9	0.00e+00	48	29	0	195035136	54	6384
2026-01-17 17:50:38.03	19.81	9.41	-40.4	-41.7	20.4	0.00e+00	0	29	0	202375168	54	6203
2026-01-17 17:50:42.07	19.30	9.65	-40.3	-41.6	20.5	0.00e+00	91	29	0	209715200	54	6140
2026-01-17 17:50:46.11	18.79	9.89	-40.3	-41.6	20.6	0.00e+00	0	29	0	217055232	54	6119
2026-01-17 17:50:50.14	18.27	10.13	-40.2	-41.4	20.7	0.00e+00	0	29	0	225443840	54	5999
2026-01-17 17:50:54.18	17.74	10.38	-40.1	-41.3	20.9	0.00e+00	91	29	0	232783872	54	5955
2026-01-17 17:50:58.22	17.20	10.62	-40.0	-41.2	21.0	0.00e+00	0	29	0	240123904	54	5854
2026-01-17 17:51:02.26	16.66	10.86	-40.0	-41.2	20.9	0.00e+00	0	29	0	247463936	54	5877
2026-01-17 17:51:06.29	16.10	11.10	-40.1	-41.3	20.9	0.00e+00	0	29	0	254803968	54	5950
2026-01-17 17:51:10.33	15.53	11.34	-40.0	-41.2	20.9	0.00e+00	92	29	0	263192576	54	5874
2026-01-17 17:51:14.37	14.96	11.58	-40.0	-41.3	21.0	0.00e+00	6	29	0	270532608	54	5903
2026-01-17 17:51:18.41	14.37	11.83	-40.0	-41.2	21.1	0.00e+00	7	29	0	277872640	54	5856
2026-01-17 17:51:22.46	13.77	12.07	-39.9	-41.1	21.1	0.00e+00	6	29	0	285212672	54	5799
2026-01-17 17:51:26.50	13.17	12.31	-40.1	-41.3	20.9	0.00e+00	92	29	0	293601280	54	5899
2026-01-17 17:51:30.54	12.55	12.54	-40.2	-41.4	20.9	0.00e+00	51	29	0	300941312	54	6012
2026-01-17 17:51:34.58	11.93	12.78	-40.4	-41.7	20.7	0.00e+00	6	29	0	308281344	54	6182
2026-01-17 17:51:38.62	11.29	13.02	-40.4	-41.7	20.6	0.00e+00	0	29	0	315621376	54	6216
2026-01-17 17:51:42.66	10.64	13.25	-40.3	-41.5	20.9	0.00e+00	92	29	0	322961408	54	6050
2026-01-17 17:51:46.70	9.98	13.49	-40.2	-41.4	21.0	0.00e+00	40	29	0	331350016	54	6030
2026-01-17 17:51:50.74	9.32	13.72	-40.2	-41.4	21.0	0.00e+00	43	29	0	338690048	54	6000
2026-01-17 17:51:54.78	8.64	13.95	-39.9	-41.0	21.3	0.00e+00	41	29	0	346030080	54	5752
2026-01-17 17:51:58.81	7.95	14.18	-39.6	-40.7	21.7	0.00e+00	92	29	0	353370112	52	6181
2026-01-17 17:52:02.85	7.25	14.40	-39.3	-40.3	22.0	0.00e+00	0	29	0	361758720	52	5964
2026-01-17 17:52:06.89	6.54	14.63	-39.3	-40.3	21.9	0.00e+00	0	29	0	369098752	52	5961
2026-01-17 17:52:10.93	5.82	14.85	-38.8	-39.8	22.6	0.00e+00	0	29	0	376438784	52	5572
2026-01-17 17:52:14.97	5.08	15.07	-38.6	-39.6	22.7	0.00e+00	92	29	0	383778816	50	6110
2026-01-17 17:52:19.01	4.34	15.28	-38.5	-39.5	22.8	0.00e+00	0	29	0	391118848	50	6064
2026-01-17 17:52:23.04	3.59	15.49	-38.2	-39.2	23.1	0.00e+00	0	29	0	399507456	50	5873
2026-01-17 17:52:27.08	2.82	15.70	-37.7	-38.6	23.6	0.00e+00	43	29	0	406847488	48	6169
2026-01-17 17:52:31.12	2.04	15.91	-37.6	-38.5	23.7	0.00e+00	92	29	0	414187520	48	6098
2026-01-17 17:52:35.15	1.26	16.11	-37.4	-38.3	23.9	0.00e+00	0	29	0	421527552	48	5908
2026-01-17 17:52:39.19	0.46	16.31	-37.6	-38.5	23.7	0.00e+00	47	29	0	429916160	48	6068
2026-01-17 17:52:43.23	359.65	16.50	-37.8	-38.7	23.5	0.00e+00	90	29	0	437256192	48	6224
2026-01-17 17:52:47.27	358.83	16.69	-37.9	-38.9	23.4	0.00e+00	92	29	0	444596224	48	6335
2026-01-17 17:52:51.31	358.00	16.88	-38.1	-39.0	23.3	0.00e+00	0	29	0	451936256	48	6436
2026-01-17 17:52:55.35	357.16	17.06	-38.0	-38.9	23.3	0.00e+00	34	29	0	459276288	48	6351
2026-01-17 17:52:59.38	356.31	17.23	-37.8	-38.7	23.5	0.00e+00	92	29	0	467664896	48	6236
2026-01-17 17:53:03.42	355.45	17.40	-37.5	-38.4	23.8	0.00e+00	5	29	0	475004928	48	6007
2026-01-17 17:53:07.46	354.58	17.57	-37.3	-38.1	23.2	0.00e+00	0	29	0	482344960	48	5813
2026-01-17 17:53:11.50	353.70	17.73	-37.5	-38.4	23.9	0.00e+00	34	29	0	489684992	48	6007
2026-01-17 17:53:15.54	352.82	17.88	-37.5	-38.4	23.9	0.00e+00	92	29	0	498073600	48	5971
2026-01-17 17:53:19.58	351.92	18.02	-37.3	-38.2	24.0	0.00e+00	7	29	0	505413632	48	5866
2026-01-17 17:53:23.61	351.01	18.16	-37.2	-38.1	24.1	0.00e+00	46	29	0	512753664	48	5787
2026-01-17 17:53:27.66	350.10	18.30	-37.2	-38.0	24.2	0.00e+00	0	29	0	520093696	48	5746
2026-01-17 17:53:31.70	349.18	18.42	-37.7	-38.6	23.7	0.00e+00	91	29	0	527433728	48	6144
2026-01-17 17:53:35.73	348.25	18.54	-37.3	-38.2	24.1	0.00e+00	44	29	0	535822336	48	5868
2026-01-17 17:53:39.77	347.31	18.65	-37.5	-38.4	23.9	0.00e+00	0	29	0	543162368	48	6009
2026-01-17 17:53:43.81	346.37	18.75	-37.7	-38.6	23.7	0.00e+00	0	29	0	550502400	48	6148
2026-01-17 17:53:47.85	345.42	18.85	-38.2	-39.1	23.1	0.00e+00	92	29	0	557842432	48	6533
2026-01-17 17:53:51.90	344.46	18.94	-38.4	-39.4	23.0	0.00e+00	35	29	0	566231040	48	6705
2026-01-17 17:53:55.94	343.50	19.02	-38.7	-39.7	22.8	0.00e+00	41	29	0	573571072	48	6947
2026-01-17 17:53:59.98	342.53	19.09	-38.4	-39.4	23.1	0.00e+00	27	29	0	580911104	48	6710
2026-01-17 17:54:04.02	341.56	19.15	-39.0	-40.0	22.4	0.00e+00	90	29	0	588251136	50	6396
2026-01-17 17:54:08.06	340.59	19.21	-39.2	-40.2	22.3	0.00e+00	0	29	0	595591168	50	6610
2026-01-17 17:54:12.10	339.61	19.26	-38.8	-39.8	22.6	0.00e+00	0	29	0	603979776	50	6316
2026-01-17 17:54:16.14	338.63	19.29	-38.8	-39.9	22.6	0.00e+00	38	29	0	611319808	50	6332
2026-01-17 17:54:20.18	337.65	19.32	-38.7	-39.8	22.7	0.00e+00	2	29	0	618659840	50	6257
2026-01-17 17:54:24.22	336.66	19.34	-38.9	-40.0	22.5	0.00e+00	0	29	0	625999872	50	6411
2026-01-17 17:54:28.26	335.68	19.35	-38.7	-39.7	22.8	0.00e+00	0	29	0	634388480	50	6236
2026-01-17 17:54:32.30	334.69	19.36	-38.8	-39.8	22.6	0.00e+00	90	29	0	641728512	50	6298
2026-01-17 17:54:36.33	333.71	19.35	-39.1	-40.1	22.4	0.00e+00	39	29	0	649068544	50	6485
2026-01-17 17:54:40.37	332.73	19.33	-38.4	-39.4	23.1	0.00e+00	53	29	0	656408576	50	5990
2026-01-17 17:54:44.41	331.74	19.31	-38.2	-39.1	23.3	0.00e+00	6	29	0	663748608	50	5816
2026-01-17 17:54:48.45	330.76	19.28	-38.3	-39.2	23.2	0.00e+00	92	29	0	672137216	50	5888
2026-01-17 17:54:52.49	329.78	19.24	-37.9	-38.7	23.6	0.00e+00	0	29	0	679477248	50	5562
2026-01-17 17:54:56.53	328.80	19.19	-37.8	-38.7	23.3	0.00e+00	52	29	0	686817280	48	6196
2026-01-17 17:55:00.57	327.83	19.13	-37.6	-38.4	24.0	0.00e+00	5	29	0	694157312	48	6019
2026-01-17 17:55:04.61	326.86	19.06	-37.5	-38.4	23.9	0.00e+00	90	29	0	702545920	48	5979
2026-01-17 17:55:08.64	325.90	18.98	-37.6	-38.5	23.9	0.00e+00	0	29	0	709885952	48	6046
2026-01-17 17:55:12.68	324.94	18.90	-37.1	-37.9	24.3	0.00e+00	35	29	0	717225984	48	5662
2026-01-17 17:55:16.72	323.99	18.81	-37.3	-38.1	24.2	0.00e+00	67	29	0	724566016	48	5799
2026-01-17 17:55:20.76	323.04	18.71	-37.4	-38.3	24.0	0.00e+00	92	29	0	731906048	48	5897
2026-01-17 17:55:24.80	322.10	18.60	-37.3	-38.2	24.2	0.00e+00	42	29	0	740294656	48	5864
2026-01-17 17:55:28.84	321.16	18.49	-37.7	-38.6	23.7	0.00e+00	0	29	0	747634688	48	6166
2026-01-17 17:55:32.88	320.24	18.37	-37.9	-38.8	23.6	0.00e+00	2	29	0	754974720	48	6304
2026-01-17 17:55:36.92	319.32	18.24	-38.3	-39.3	23.2	0.00e+00	92	29	0	762314752	48	6625
2026-01-17 17:55:40.96	318.40	18.10	-38.6	-39.6	23.0	0.00e+00	42	29	0	770703360	48	6890
2026-01-17 17:55:45.00	317.50	17.96	-38.9	-39.9	22.6	0.00e+00	2	29	0	778043392	50	6374
2026-01-17 17:55:49.03	316.61	17.81	-38.6	-39.6	22.9	0.00e+00	91	29	0	785383424	50	6128
2026-01-17 17:55:53.07	315.72	17.66	-38.4	-39.3	23.2	0.00e+00	38	29	0	792723456	50	5964
2026-01-17 17:55:57.11	314.85	17.49	-38.7	-39.6	22.9	0.00e+00	0	29	0	800063488	50	6151
2026-01-17 17:56:01.14	313.98	17.33	-38.7	-39.7	22.8	0.00e+00	34	29	0	808452096	50	6203
2026-01-17 17:56:05.18	313.13	17.16	-38.8	-39.8	22.7	0.00e+00	92	29	0	815792128	50	6276
2026-01-17 17:56:09.23	312.28	16.98	-38.5	-39.4	23.0	0.00e+00	0	29	0	823132160	50	6013
2026-01-17 17:56:13.27	311.44	16.80	-38.6	-39.5	22.9	0.00e+00	37	29	0	830472192	50	6080
2026-01-17 17:56:17.30	310.62	16.61	-38.8	-39.7	22.7	0.00e+00	36	29	0	838860800	50	6234
2026-01-17 17:56:21.34	309.80	16.42	-38.9	-39.9	22.7	0.00e+00	91	29	0	846200832	50	6323
2026-01-17 17:56:25.38	308.99	16.22	-39.0	-40.0	22.5	0.00e+00	6	29	0	853540864	50	6455
2026-01-17 17:56:29.42	308.20	16.02	-39.1	-40.2	22.4	0.00e+00	6	29	0	860880896	50	6540
2026-01-17 17:56:33.46	307.42	15.82	-39.0	-40.1	22.5	0.00e+00	0	29	0	868220928	50	6466
2026-01-17 17:56:37.50	306.64	15.61	-39.1	-40.1	22.4	0.00e+00	91	29	0	876609536	50	6535
2026-01-17 17:56:41.53	305.88	15.40	-39.4	-40.4	22.1	0.00e+00	0	29	0	883949568	50	6741
2026-01-17 17:56:45.57	305.13	15.18	-39.5	-40.6	21.9	0.00e+00	48	29	0	891289600	50	6894
2026-01-17 17:56:49.61	304.39	14.97	-39.5	-40.6	21.8	0.00e+00	0	29	0	898629632	50	6864
2026-01-17 17:56:53.65	303.66	14.75	-39.3	-40.4	22.1	0.00e+00	90	29	0	907018240	50	6701
2026-01-17 17:56:57.69	302.94	14.52	-39.6	-40.7	21.8	0.00e+00	0	29	0	914358272	50	6964
2026-01-17 17:57:01.72	302.23	14.30	-40.0	-41.1	21.3	0.00e+00	32	29	0	921698304	52	6525
2026-01-17 17:57:05.77	301.54	14.07	-39.9	-41.1	21.5	0.00e+00	66	29	0	929038336	52	6482
2026-01-17 17:57:09.81	300.85	13.84	-40.1	-41.2	21.3	0.00e+00	92	29	0	936378368	52	6582
2026-01-17 17:57:13.85	300.17	13.61	-40.0	-41.1	21.4	0.00e+00	0	29	0	944766976	52	6539
2026-01-17 17:57:17.89	299.51	13.38	-40.2	-41.4	21.1	0.00e+00	0	29	0	952107008	52	6729
2026-01-17 17:57:21.93	298.85	13.14	-40.0	-41.2	21.3	0.00e+00	92	29	0	959447040	52	6575
2026-01-17 17:57:25.97	298.21	12.91	-39.9	-41.0	21.5	0.00e+00	16	29	0	966787072	52	6441
2026-01-17 17:57:30.01	297.58	12.67	-39.6	-40.7	21.8	0.00e+00	0	29	0	975175680	52	6204
2026-01-17 17:57:34.05	296.95	12.43	-39.3	-40.4	22.1	0.00e+00	0	29	0	982515712	52	5996
2026-01-17 17:57:38.09	296.34	12.19	-39.3	-40.3	22.1	0.00e+00	90	29	0	989855744	52	5957
2026-01-17 17:57:42.13	295.74	11.95	-39.3	-40.4	22.0	0.00e+00	45	29	0	997195776	52	5966
2026-01-17 17:57:46.17	295.15	11.71	-39.0	-40.0	22.4	0.00e+00	0	29	0	1005584384	52	5717
2026-01-17 17:57:50.22	294.56	11.47	-38.6	-39.6	22.7	0.00e+00	45	29	0	1012924416	50	6136
2026-01-17 17:57:54.26	293.99	11.23	-38.6	-39.6	22.7	0.00e+00	92	29	0	1020264448	50	6109
2026-01-17 17:57:58.30	293.42	10.98	-38.5	-39.5	22.7	0.00e+00	0	29	0	1027604480	50	6080
2026-01-17 17:58:02.34	292.87	10.74	-38.3	-39.3	22.8	0.00e+00	0	29	0	1034944512	50	5898
2026-01-17 17:58:06.38	292.32	10.50	-38.0	-39.0	23.2	0.00e+00	57	29	0	1043333120	50	5696
2026-01-17 17:58:10.42	291.79	10.26	-38.5	-39.5	22.7	0.00e+00	92	29	0	1050673152	50	6043
2026-01-17 17:58:14.46	291.26	10.01	-38.6	-39.6	22.6	0.00e+00	0	29	0	1058013184	50	6133
2026-01-17 17:58:18.50	290.74	9.77	-38.4	-39.3	22.8	0.00e+00	34	29	0	1065353216	50	5963
2026-01-17 17:58:22.54	290.23	9.53	-38.5	-39.5	22.6	0.00e+00	9	29	0	1073741824	50	6099
2026-01-17 17:58:26.58	289.73	9.29	-38.9	-39.9	22.3	0.00e+00	85	29	0	1081081856	50	6369
2026-01-17 17:58:30.62	289.24	9.04	-39.0	-40.0	22.2	0.00e+00	7	29	0	1088421888	50	6432
2026-01-17 17:58:34.66	288.75	8.80	-38.7	-39.8	22.4	0.00e+00	7	29	0	1095761920	50	6251
2026-01-17 17:58:38.71	288.28	8.56	-38.7	-39.7	22.4	0.00e+00	28	29	0	1103101952	50	6193
2026-01-17 17:58:42.75	287.81	8.32	-39.0	-40.0	22.1	0.00e+00	71	29	0	1111490560	50	6447
2026-01-17 17:58:46.79	287.35	8.08	-39.3	-40.4	21.7	0.00e+00	49	29	0	1118830592	50	6719
2026-01-17 17:58:50.83	286.90	7.84	-39.7	-40.8	21.2	0.00e+00	2	29	0	1126170624	50	7076
2026-01-17 17:58:54.87	286.45	7.60	-39.8	-40.9	21.2	0.00e+00	92	29	0	1133510656	52	6375
2026-01-17 17:58:58.91	286.01	7.36	-39.9	-41.1	21.0	0.00e+00	4	29	0	1141899264	52	6477
2026-01-17 17:59:02.95	285.58	7.12	-40.1	-41.3	20.8	0.00e+00	55	29	0	1149239296	52	6633
2026-01-17 17:59:06.99	285.16	6.88	-40.4	-41.7	20.4	0.00e+00	0	29	0	1156579328	52	6947
2026-01-17 17:59:11.03	284.74	6.65	-40.6	-42.0	20.0	0.00e+00	92	29	0	1163919360	52	7175
2026-01-17 17:59:15.07	284.33	6.41	-40.8	-42.2	19.8	0.00e+00	0	29	0	1172307968	52	7347
2026-01-17 17:59:19.11	283.93	6.18	-40.8	-42.3	19.6	0.00e+00	31	29	0	1179648000	54	6622
2026-01-17 17:59:23.15	283.54	5.94	-41.1	-42.5	19.3	0.00e+00	0	29	0	1186988032	54	6844
2026-01-17 17:59:27.19	283.15	5.71	-41.1	-42.6	19.3	0.00e+00	91	29	0	1194328064	54	6895
2026-01-17 17:59:31.23	282.76	5.48	-40.6	-42.0	19.8	0.00e+00	0	29	0	1201668096	54	6457
2026-01-17 17:59:35.27	282.39	5.24	-41.0	-42.5	19.4	0.00e+00	24	29	0	1210056704	54	6811
2026-01-17 17:59:39.31	282.02	5.01	-41.5	-43.1	18.9	0.00e+00	0	29	0	1217396736	56	6469
2026-01-17 17:59:43.35	281.65	4.78	-41.6	-43.2	18.6	0.00e+00	92	29	0	1224736768	56	6562
2026-01-17 17:59:47.38	281.29	4.55	-41.7	-43.4	18.4	0.00e+00	7	29	0	1232076800	56	6760
2026-01-17 17:59:51.43	280.94	4.33	-41.3	-42.9	18.8	0.00e+00	0	29	0	1240465408	56	6380
2026-01-17 17:59:55.47	280.59	4.10	-41.3	-42.9	18.8	0.00e+00	1	29	0	1247805440	56	6334
2026-01-17 17:59:59.50	280.25	3.87	-41.8	-43.6	18.0	0.00e+00	90	29	0	1255145472	56	6882
2026-01-17 18:00:03.54	279.91	3.65	-41.7	-43.4	18.3	0.00e+00	24	29	0	1262485504	56	6710
2026-01-17 18:00:07.57	279.58	3.42	-41.8	-43.5	17.9	0.00e+00	8	29	0	1269825536	56	6838
2026-01-17 18:00:11.61	279.26	3.20	-42.5	-44.6	17.0	0.00e+00	88	29	0	1278214144	58	6927
2026-01-17 18:00:15.65	278.94	2.98	-47.6	-62.7	3.6	8.00e-01	0	29	104	1284505600	60	49416
2026-01-17 18:00:19.69	278.62	2.75	-48.8	-64.0	3.6	1.51e+00	0	29	104	1284505600	60	57352
2026-01-17 18:00:23.73	278.31	2.53	-48.9	-64.1	3.6	1.51e+00	0	29	104	1284505600	60	57919
2026-01-17 18:00:27.77	278.00	2.31	-48.8	-64.1	3.6	1.51e+00	0	29	104	1284505600	60	57694
2026-01-17 18:00:31.81	277.70	2.10	-48.7	-63.9	3.6	1.51e+00	0	29	104	1284505600	60	56872
2026-01-17 18:00:35.85	277.41	1.88	-48.8	-63.9	3.6	1.51e+00	0	29	104	1284505600	60	56923
2026-01-17 18:00:39.89	277.11	1.66	-48.8	-63.9	3.6	1.51e+00	0	29	104	1284505600	60	56835
2026-01-17 18:00:43.93	276.83	1.44	-48.7	-63.9	3.6	1.51e+00	0	29	104	1284505600	60	56420
2026-01-17 18:00:47.97	276.54	1.23	-48.7	-63.9	3.6	1.51e+00	0	29	104	1284505600	60	56354
2026-01-17 18:00:52.01	276.26	1.01	-48.7	-63.9	3.6	1.51e+00	0	29	104	1284505600	60	56830
2026-01-17 18:00:56.05	275.99	0.80	-48.7	-63.9	3.6	1.51e+00	0	29	104	1284505600	60	56451
2026-01-17 18:01:00.09	275.72	0.59	-48.7	-63.9	3.6	1.51e+00	0	29	104	1284505600	60	56769
2026-01-17 18:01:04.13	275.45	0.38	-48.7	-63.9	3.6	1.51e+00	0	29	104	1284505600	60	56661
2026-01-17 18:01:08.17	275.18	0.17	-48.7	-63.9	3.6	1.51e+00	0	30	104	1284505600	60	56643

#Closed at: 2026-01-17 18:01:11
#Recorded file [1284 MB]: D:/lorett/data/35029_260118_054752.dat