passes_logs/2026/01/17/R4.6S_Anadyr/R4.6S_Anadyr__20260117_030015_FENGYUN_3D_rec.log

#Pass ID: 20260117_030015_FENGYUN 3D
#Satellite: FENGYUN 3D
#Configuration: FENGYUN 3D
#almurnet v.1.7.20251203
#Start time: 2026-01-17 03:00:18

#Version: 2.2.20231116
#Station: R4.6S_Anadyr
#Location: 177.4865 lon 64.73178 lat
#TLE: 1 43010U 17072A   26016.62453405 -.00000112  00000+0 -31355-4 0  9995
#TLE: 2 43010  98.9932 348.4654 0002369 105.3910 254.7528 14.19694900423480

#Time	Az	El	Level	Level2	SNR	BER	BlckErr	Temp	State	Recorded	gain1	gain2
2026-01-17 03:00:18.99	174.84	0.19	-48.3	-59.0	3.3	8.40e-01	0	26	0	0	60	32320
2026-01-17 03:00:23.03	174.94	0.43	-48.1	-60.2	3.6	8.45e-01	0	27	104	0	60	37191
2026-01-17 03:00:27.06	175.05	0.67	-47.8	-60.0	3.6	8.46e-01	0	27	104	0	60	36155
2026-01-17 03:00:31.10	175.16	0.91	-47.5	-59.6	3.6	8.46e-01	0	27	104	0	60	34553
2026-01-17 03:00:35.14	175.27	1.16	-46.4	-58.3	3.6	8.46e-01	0	27	104	0	60	29769
2026-01-17 03:00:39.18	175.38	1.41	-46.4	-58.3	3.6	8.45e-01	0	27	104	0	60	29752
2026-01-17 03:00:43.21	175.50	1.66	-46.4	-58.4	3.6	8.46e-01	0	27	104	0	60	30118
2026-01-17 03:00:47.25	175.61	1.91	-46.4	-58.3	3.6	8.45e-01	0	27	104	0	60	29694
2026-01-17 03:00:51.29	175.73	2.16	-46.4	-58.3	3.6	8.46e-01	0	27	104	0	60	29774
2026-01-17 03:00:55.34	175.85	2.42	-46.0	-53.6	3.8	8.38e-01	0	27	0	0	60	17267
2026-01-17 03:00:59.38	175.97	2.68	-46.3	-57.5	3.6	8.44e-01	0	27	104	0	60	26970
2026-01-17 03:01:03.42	176.10	2.94	-42.4	-44.7	12.5	1.22e-03	0	27	0	9437184	58	6985
2026-01-17 03:01:07.45	176.22	3.20	-36.3	-37.3	20.2	0.00e+00	0	27	0	32505856	46	5906
2026-01-17 03:01:11.49	176.35	3.47	-34.5	-35.3	22.0	0.00e+00	0	27	0	54525952	42	5933
2026-01-17 03:01:15.53	176.48	3.74	-37.9	-39.0	18.2	0.00e+00	0	27	0	77594624	44	8124
2026-01-17 03:01:19.57	176.61	4.01	-41.0	-42.7	6.0	7.70e-01	0	27	104	95420416	60	4944
2026-01-17 03:01:23.61	176.74	4.28	-37.4	-38.4	19.7	0.00e+00	0	27	0	111149056	48	5983
2026-01-17 03:01:27.65	176.88	4.56	-37.8	-38.9	19.6	0.00e+00	0	27	0	133169152	48	6321
2026-01-17 03:01:31.68	177.02	4.84	-36.5	-37.4	20.6	0.00e+00	0	27	0	156237824	46	6020
2026-01-17 03:01:35.72	177.16	5.12	-35.7	-36.6	21.1	0.00e+00	0	27	0	179306496	44	6106
2026-01-17 03:01:39.76	177.30	5.40	-34.0	-34.7	22.9	0.00e+00	0	27	0	202375168	42	5561
2026-01-17 03:01:43.80	177.45	5.69	-33.9	-34.7	23.1	0.00e+00	0	27	0	224395264	42	5548
2026-01-17 03:01:47.84	177.60	5.98	-34.0	-34.8	22.9	0.00e+00	0	27	0	247463936	42	5588
2026-01-17 03:01:51.88	177.75	6.28	-33.8	-34.6	23.1	0.00e+00	0	27	0	269484032	40	6148
2026-01-17 03:01:55.92	177.90	6.57	-33.5	-34.3	23.5	0.00e+00	0	27	0	292552704	40	5902
2026-01-17 03:01:59.96	178.06	6.87	-33.4	-34.2	23.5	0.00e+00	0	27	0	315621376	40	5840
2026-01-17 03:02:04.00	178.22	7.18	-33.4	-34.2	23.6	0.00e+00	0	27	0	337641472	40	5861
2026-01-17 03:02:08.04	178.38	7.49	-33.3	-34.0	23.9	0.00e+00	0	27	0	360710144	40	5734
2026-01-17 03:02:12.08	178.55	7.80	-33.0	-33.7	24.1	0.00e+00	0	27	0	383778816	40	5558
2026-01-17 03:02:16.12	178.72	8.11	-32.8	-33.5	24.3	0.00e+00	0	27	0	406847488	38	6094
2026-01-17 03:02:20.17	178.89	8.43	-32.9	-33.6	24.2	0.00e+00	0	27	0	428867584	38	6156
2026-01-17 03:02:24.20	179.07	8.75	-32.7	-33.4	24.4	0.00e+00	0	27	0	451936256	38	5975
2026-01-17 03:02:28.24	179.25	9.08	-32.8	-33.5	24.4	0.00e+00	0	27	0	473956352	38	6046
2026-01-17 03:02:32.28	179.44	9.41	-32.7	-33.4	24.6	0.00e+00	0	27	0	497025024	38	5995
2026-01-17 03:02:36.31	179.62	9.74	-32.7	-33.5	24.5	0.00e+00	0	27	0	520093696	38	6038
2026-01-17 03:02:40.36	179.82	10.08	-32.7	-33.5	24.5	0.00e+00	0	27	0	543162368	38	6041
2026-01-17 03:02:44.39	180.01	10.43	-32.8	-33.4	24.6	0.00e+00	0	27	0	565182464	38	6032
2026-01-17 03:02:48.43	180.21	10.77	-32.5	-33.2	24.7	0.00e+00	0	27	0	588251136	38	5874
2026-01-17 03:02:52.47	180.42	11.13	-32.4	-33.1	25.0	0.00e+00	0	27	0	611319808	38	5811
2026-01-17 03:02:56.51	180.63	11.48	-32.1	-32.8	25.2	0.00e+00	0	27	0	633339904	38	5592
2026-01-17 03:03:00.55	180.84	11.85	-31.9	-32.6	25.4	0.00e+00	0	27	0	656408576	38	5467
2026-01-17 03:03:04.59	181.06	12.21	-31.9	-32.6	25.5	0.00e+00	0	27	0	678428672	36	6120
2026-01-17 03:03:08.63	181.29	12.59	-31.8	-32.5	25.5	0.00e+00	0	27	0	701497344	36	6091
2026-01-17 03:03:12.67	181.52	12.97	-31.9	-32.5	25.5	0.00e+00	0	27	0	724566016	36	6096
2026-01-17 03:03:16.71	181.76	13.35	-31.7	-32.4	25.6	0.00e+00	0	27	0	747634688	36	5997
2026-01-17 03:03:20.75	182.00	13.74	-31.9	-32.5	25.5	0.00e+00	0	27	0	769654784	36	6088
2026-01-17 03:03:24.78	182.25	14.13	-31.6	-32.3	25.7	0.00e+00	0	27	0	792723456	36	5916
2026-01-17 03:03:28.83	182.50	14.54	-31.2	-31.8	26.1	0.00e+00	0	27	0	815792128	36	5623
2026-01-17 03:03:32.87	182.76	14.94	-31.2	-31.9	26.1	0.00e+00	0	27	0	837812224	36	5638
2026-01-17 03:03:36.90	183.03	15.36	-31.3	-32.0	26.0	0.00e+00	0	27	0	860880896	36	5699
2026-01-17 03:03:40.94	183.30	15.78	-31.1	-31.8	26.2	0.00e+00	0	27	0	882900992	36	5581
2026-01-17 03:03:44.98	183.59	16.21	-31.0	-31.7	26.3	0.00e+00	0	27	0	905969664	36	5512
2026-01-17 03:03:49.03	183.88	16.64	-30.8	-31.4	26.5	0.00e+00	0	27	0	929038336	34	6001
2026-01-17 03:03:53.07	184.18	17.08	-30.6	-31.3	26.6	0.00e+00	0	27	0	952107008	34	5903
2026-01-17 03:03:57.11	184.48	17.53	-30.5	-31.1	26.8	0.00e+00	0	27	0	974127104	34	5815
2026-01-17 03:04:01.15	184.80	17.99	-30.4	-31.1	26.9	0.00e+00	0	27	0	997195776	34	5775
2026-01-17 03:04:05.19	185.12	18.46	-30.2	-30.8	27.0	0.00e+00	0	27	0	1020264448	34	5627
2026-01-17 03:04:09.23	185.46	18.93	-30.3	-30.9	26.9	0.00e+00	0	27	0	1042284544	34	5665
2026-01-17 03:04:13.27	185.80	19.41	-30.3	-31.0	26.9	0.00e+00	0	27	0	1065353216	34	5727
2026-01-17 03:04:17.31	186.16	19.90	-30.3	-30.9	26.9	0.00e+00	0	27	0	1088421888	34	5677
2026-01-17 03:04:21.35	186.53	20.40	-30.4	-31.0	26.9	0.00e+00	0	27	0	1110441984	34	5752
2026-01-17 03:04:25.39	186.91	20.91	-30.1	-30.7	27.2	0.00e+00	0	27	0	1133510656	34	5539
2026-01-17 03:04:29.43	187.30	21.42	-29.7	-30.3	27.5	0.00e+00	0	27	0	1156579328	32	5936
2026-01-17 03:04:33.47	187.70	21.95	-29.6	-30.2	27.6	0.00e+00	0	27	0	1178599424	32	5846
2026-01-17 03:04:37.51	188.12	22.48	-29.5	-30.1	27.7	0.00e+00	0	27	0	1201668096	32	5804
2026-01-17 03:04:41.54	188.55	23.03	-29.5	-30.2	27.7	0.00e+00	0	27	0	1224736768	32	5834
2026-01-17 03:04:45.59	188.99	23.59	-29.8	-30.4	27.4	0.00e+00	0	27	0	1246756864	32	6019
2026-01-17 03:04:49.63	189.46	24.15	-29.4	-30.0	27.8	0.00e+00	0	27	0	1269825536	32	5759
2026-01-17 03:04:53.67	189.93	24.73	-29.8	-30.4	27.5	0.00e+00	0	27	0	1292894208	32	5997
2026-01-17 03:04:57.71	190.43	25.32	-29.1	-29.7	27.9	0.00e+00	0	27	0	1314914304	32	5563
2026-01-17 03:05:01.75	190.94	25.92	-29.0	-29.6	28.0	0.00e+00	0	27	0	1337982976	32	5480
2026-01-17 03:05:05.79	191.48	26.53	-28.9	-29.6	28.2	0.00e+00	0	27	0	1361051648	32	5442
2026-01-17 03:05:09.83	192.03	27.15	-28.8	-29.5	28.2	0.00e+00	0	27	0	1383071744	32	5400
2026-01-17 03:05:13.86	192.60	27.78	-29.1	-29.8	28.0	0.00e+00	0	27	0	1406140416	32	5600
2026-01-17 03:05:17.91	193.20	28.42	-28.8	-29.4	28.3	0.00e+00	0	27	0	1429209088	30	5975
2026-01-17 03:05:21.95	193.82	29.08	-28.9	-29.5	28.3	0.00e+00	0	27	0	1451229184	30	6083
2026-01-17 03:05:25.99	194.47	29.75	-29.0	-29.6	28.2	0.00e+00	0	27	0	1474297856	30	6142
2026-01-17 03:05:30.03	195.14	30.43	-29.1	-29.7	28.2	0.00e+00	0	27	0	1497366528	30	6185
2026-01-17 03:05:34.07	195.85	31.12	-28.3	-29.0	28.6	0.00e+00	0	27	0	1519386624	30	5698
2026-01-17 03:05:38.11	196.58	31.83	-28.7	-29.4	28.4	0.00e+00	0	27	0	1542455296	30	5966
2026-01-17 03:05:42.15	197.34	32.54	-28.9	-29.5	28.3	0.00e+00	0	27	0	1565523968	30	6064
2026-01-17 03:05:46.19	198.14	33.27	-28.6	-29.2	28.5	0.00e+00	0	27	0	1587544064	30	5868
2026-01-17 03:05:50.23	198.98	34.01	-28.5	-29.2	28.6	0.00e+00	0	27	0	1610612736	30	5830
2026-01-17 03:05:54.27	199.85	34.76	-28.7	-29.3	28.6	0.00e+00	0	27	0	1633681408	30	5936
2026-01-17 03:05:58.31	200.76	35.52	-28.5	-29.1	28.6	0.00e+00	0	27	0	1656750080	30	5821
2026-01-17 03:06:02.36	201.72	36.30	-28.5	-29.1	28.6	0.00e+00	0	27	0	1678770176	30	5770
2026-01-17 03:06:06.39	202.72	37.07	-28.5	-29.2	28.6	0.00e+00	0	27	0	1701838848	30	5832
2026-01-17 03:06:10.43	203.77	37.86	-28.8	-29.4	28.4	0.00e+00	0	27	0	1723858944	30	5984
2026-01-17 03:06:14.48	204.87	38.66	-28.7	-29.4	28.5	0.00e+00	0	27	0	1746927616	30	5968
2026-01-17 03:06:18.52	206.03	39.47	-28.7	-29.3	28.5	0.00e+00	0	27	0	1769996288	30	5946
2026-01-17 03:06:22.56	207.24	40.28	-28.6	-29.3	28.5	0.00e+00	0	27	0	1793064960	30	5897
2026-01-17 03:06:26.59	208.51	41.09	-28.6	-29.2	28.7	0.00e+00	0	27	0	1815085056	30	5846
2026-01-17 03:06:30.64	209.86	41.90	-28.8	-29.5	28.3	0.00e+00	0	27	0	1838153728	30	6043
2026-01-17 03:06:34.68	211.27	42.72	-28.7	-29.3	28.5	0.00e+00	0	27	0	1861222400	30	5899
2026-01-17 03:06:38.72	212.75	43.53	-29.1	-29.7	28.2	0.00e+00	0	27	0	1883242496	30	6184
2026-01-17 03:06:42.75	214.30	44.34	-28.9	-29.5	28.4	0.00e+00	0	27	0	1906311168	30	6054
2026-01-17 03:06:46.79	215.93	45.14	-29.0	-29.6	28.3	0.00e+00	0	27	0	1928331264	30	6153
2026-01-17 03:06:50.83	217.65	45.93	-29.1	-29.7	28.2	0.00e+00	0	27	0	1951399936	30	6195
2026-01-17 03:06:54.87	219.46	46.71	-29.0	-29.6	28.2	0.00e+00	0	27	0	1974468608	30	6131
2026-01-17 03:06:58.91	221.35	47.46	-28.8	-29.4	28.4	0.00e+00	0	27	0	1997537280	30	5998
2026-01-17 03:07:02.94	223.33	48.20	-28.9	-29.5	28.2	0.00e+00	0	27	0	2019557376	30	6092
2026-01-17 03:07:06.98	225.41	48.91	-29.3	-29.9	28.2	0.00e+00	0	27	0	2042626048	30	6328
2026-01-17 03:07:11.02	227.59	49.59	-29.4	-30.1	28.0	0.00e+00	0	27	0	2065694720	30	6466
2026-01-17 03:07:15.06	229.86	50.23	-29.2	-29.8	28.2	0.00e+00	0	27	0	2087714816	30	6304
2026-01-17 03:07:19.10	232.22	50.84	-29.5	-30.0	27.9	0.00e+00	0	27	0	2110783488	30	6462
2026-01-17 03:07:23.14	234.68	51.40	-29.0	-29.7	28.1	0.00e+00	0	27	0	2132803584	30	6188
2026-01-17 03:07:27.18	237.23	51.91	-29.6	-30.2	27.8	0.00e+00	0	27	0	2155872256	32	5848
2026-01-17 03:07:31.21	239.85	52.36	-29.5	-30.1	27.8	0.00e+00	0	27	0	2178940928	32	5768
2026-01-17 03:07:35.25	242.56	52.76	-29.6	-30.2	27.8	0.00e+00	0	27	0	2200961024	32	5872
2026-01-17 03:07:39.28	245.32	53.09	-29.6	-30.2	27.8	0.00e+00	0	27	0	2224029696	32	5862
2026-01-17 03:07:43.32	248.15	53.35	-29.7	-30.3	27.7	0.00e+00	0	27	0	2247098368	32	5926
2026-01-17 03:07:47.36	251.03	53.55	-29.5	-30.1	27.9	0.00e+00	0	27	0	2270167040	32	5797
2026-01-17 03:07:51.40	253.93	53.67	-29.9	-30.5	27.5	0.00e+00	0	27	0	2292187136	32	6094
2026-01-17 03:07:55.44	256.85	53.72	-29.9	-30.5	27.5	0.00e+00	0	27	0	2315255808	32	6048
2026-01-17 03:07:59.48	259.78	53.70	-29.9	-30.6	27.5	0.00e+00	0	27	0	2337275904	32	6119
2026-01-17 03:08:03.52	262.69	53.60	-29.6	-30.2	27.7	0.00e+00	0	27	0	2360344576	32	5891
2026-01-17 03:08:07.55	265.57	53.43	-29.6	-30.1	27.7	0.00e+00	0	27	0	2383413248	32	5821
2026-01-17 03:08:11.60	268.42	53.19	-29.8	-30.4	27.5	0.00e+00	0	27	0	2405433344	32	6022
2026-01-17 03:08:15.64	271.21	52.88	-29.5	-30.2	27.7	0.00e+00	0	27	0	2428502016	32	5840
2026-01-17 03:08:19.68	273.93	52.50	-29.8	-30.4	27.6	0.00e+00	0	27	0	2451570688	32	5966
2026-01-17 03:08:23.72	276.59	52.07	-29.4	-29.9	27.8	0.00e+00	0	27	0	2474639360	32	5689
2026-01-17 03:08:27.75	279.15	51.58	-29.7	-30.4	27.7	0.00e+00	0	27	0	2496659456	32	5970
2026-01-17 03:08:31.79	281.64	51.04	-29.3	-30.0	27.8	0.00e+00	0	27	0	2519728128	32	5730
2026-01-17 03:08:35.83	284.03	50.45	-29.0	-29.7	28.1	0.00e+00	0	27	0	2541748224	32	5542
2026-01-17 03:08:39.87	286.33	49.82	-29.1	-29.6	28.1	0.00e+00	0	27	0	2564816896	32	5478
2026-01-17 03:08:43.91	288.54	49.15	-29.3	-30.0	27.9	0.00e+00	0	27	0	2587885568	32	5705
2026-01-17 03:08:47.94	290.64	48.45	-29.7	-30.3	27.6	0.00e+00	0	27	0	2609905664	32	5939
2026-01-17 03:08:51.99	292.66	47.73	-29.4	-30.1	27.8	0.00e+00	0	27	0	2632974336	30	6467
2026-01-17 03:08:56.03	294.58	46.98	-29.1	-29.8	28.0	0.00e+00	0	27	0	2656043008	30	6282
2026-01-17 03:09:00.07	296.41	46.21	-29.0	-29.7	28.1	0.00e+00	0	27	0	2679111680	30	6194
2026-01-17 03:09:04.11	298.15	45.43	-29.4	-30.0	27.8	0.00e+00	0	27	0	2701131776	30	6428
2026-01-17 03:09:08.15	299.81	44.63	-28.9	-29.5	28.2	0.00e+00	0	27	0	2724200448	30	6053
2026-01-17 03:09:12.19	301.39	43.83	-29.4	-30.1	27.9	0.00e+00	0	27	0	2746220544	30	6489
2026-01-17 03:09:16.23	302.90	43.02	-29.3	-29.9	27.8	0.00e+00	0	27	0	2769289216	30	6336
2026-01-17 03:09:20.28	304.33	42.21	-29.2	-29.8	27.9	0.00e+00	0	27	0	2792357888	32	5600
2026-01-17 03:09:24.32	305.69	41.39	-28.8	-29.4	28.1	0.00e+00	0	27	0	2815426560	32	5332
2026-01-17 03:09:28.35	306.98	40.59	-28.6	-29.3	28.2	0.00e+00	0	27	0	2837446656	30	5951
2026-01-17 03:09:32.39	308.21	39.78	-28.7	-29.4	28.3	0.00e+00	0	27	0	2860515328	30	5990
2026-01-17 03:09:36.43	309.39	38.98	-28.6	-29.2	28.4	0.00e+00	0	27	0	2883584000	30	5835
2026-01-17 03:09:40.47	310.50	38.18	-28.3	-28.9	28.6	0.00e+00	0	27	0	2905604096	30	5676
2026-01-17 03:09:44.50	311.57	37.39	-28.5	-29.1	28.5	0.00e+00	0	27	0	2928672768	30	5767
2026-01-17 03:09:48.54	312.58	36.61	-28.3	-29.0	28.6	0.00e+00	0	27	0	2950692864	30	5739
2026-01-17 03:09:52.59	313.56	35.84	-28.6	-29.2	28.4	0.00e+00	0	27	0	2973761536	30	5847
2026-01-17 03:09:56.63	314.48	35.08	-28.4	-28.9	28.5	0.00e+00	0	27	0	2996830208	30	5681
2026-01-17 03:10:00.66	315.37	34.33	-28.5	-29.2	28.5	0.00e+00	0	27	0	3019898880	30	5853
2026-01-17 03:10:04.70	316.21	33.59	-28.7	-29.2	28.3	0.00e+00	0	27	0	3041918976	30	5861
2026-01-17 03:10:08.74	317.02	32.86	-28.8	-29.4	28.2	0.00e+00	0	27	0	3064987648	30	6028
2026-01-17 03:10:12.77	317.80	32.15	-29.0	-29.7	28.1	0.00e+00	0	27	0	3088056320	30	6179
2026-01-17 03:10:16.81	318.54	31.44	-29.1	-29.7	28.0	0.00e+00	0	27	0	3110076416	30	6196
2026-01-17 03:10:20.85	319.25	30.75	-29.1	-29.7	28.0	0.00e+00	0	27	0	3133145088	30	6202
2026-01-17 03:10:24.89	319.93	30.07	-29.1	-29.6	28.1	0.00e+00	0	27	0	3155165184	30	6169
2026-01-17 03:10:28.93	320.59	29.40	-29.2	-30.0	27.9	0.00e+00	0	27	0	3178233856	30	6393
2026-01-17 03:10:32.97	321.22	28.74	-29.1	-29.8	28.0	0.00e+00	0	27	0	3201302528	30	6290
2026-01-17 03:10:37.01	321.83	28.09	-29.2	-29.7	28.0	0.00e+00	0	27	0	3224371200	30	6211
2026-01-17 03:10:41.05	322.41	27.46	-29.1	-29.7	28.1	0.00e+00	0	27	0	3246391296	30	6221
2026-01-17 03:10:45.09	322.97	26.84	-29.0	-29.6	28.1	0.00e+00	0	27	0	3269459968	30	6138
2026-01-17 03:10:49.13	323.51	26.22	-29.2	-29.9	28.0	0.00e+00	0	27	0	3292528640	30	6335
2026-01-17 03:10:53.17	324.03	25.62	-29.0	-29.5	28.1	0.00e+00	0	27	0	3314548736	30	6094
2026-01-17 03:10:57.21	324.54	25.04	-29.4	-30.0	27.7	0.00e+00	0	27	0	3337617408	30	6420
2026-01-17 03:11:01.25	325.02	24.46	-29.9	-30.5	27.3	0.00e+00	0	27	0	3359637504	32	6035
2026-01-17 03:11:05.29	325.49	23.89	-29.4	-30.0	27.8	0.00e+00	0	27	0	3382706176	32	5715
2026-01-17 03:11:09.32	325.94	23.33	-29.4	-30.1	27.7	0.00e+00	0	27	0	3405774848	32	5774
2026-01-17 03:11:13.36	326.38	22.79	-29.8	-30.5	27.4	0.00e+00	0	27	0	3428843520	32	6074
2026-01-17 03:11:17.40	326.80	22.25	-30.2	-31.0	27.1	0.00e+00	0	27	0	3450863616	32	6406
2026-01-17 03:11:21.44	327.21	21.72	-30.3	-31.0	27.0	0.00e+00	0	28	0	3473932288	32	6452
2026-01-17 03:11:25.48	327.61	21.20	-30.2	-30.9	27.1	0.00e+00	0	27	0	3497000960	32	6382
2026-01-17 03:11:29.52	327.99	20.70	-30.0	-30.7	27.2	0.00e+00	0	28	0	3519021056	32	6204
2026-01-17 03:11:33.56	328.36	20.20	-30.1	-30.6	27.1	0.00e+00	0	28	0	3542089728	32	6171
2026-01-17 03:11:37.60	328.72	19.71	-30.5	-31.1	26.8	0.00e+00	0	28	0	3564109824	32	6470
2026-01-17 03:11:41.64	329.08	19.22	-30.5	-31.1	26.8	0.00e+00	0	28	0	3587178496	32	6513
2026-01-17 03:11:45.68	329.42	18.75	-30.6	-31.2	26.6	0.00e+00	0	28	0	3610247168	34	5855
2026-01-17 03:11:49.72	329.75	18.28	-30.7	-31.4	26.6	0.00e+00	0	28	0	3633315840	34	6019
2026-01-17 03:11:53.76	330.07	17.82	-30.8	-31.4	26.6	0.00e+00	0	28	0	3655335936	34	5972
2026-01-17 03:11:57.80	330.38	17.37	-31.1	-31.8	26.3	0.00e+00	0	28	0	3678404608	34	6270
2026-01-17 03:12:01.84	330.68	16.93	-31.3	-31.9	26.1	0.00e+00	0	28	0	3701473280	34	6344
2026-01-17 03:12:05.88	330.98	16.50	-31.4	-32.1	26.0	0.00e+00	0	28	0	3723493376	34	6515
2026-01-17 03:12:09.92	331.27	16.07	-31.5	-32.1	25.9	0.00e+00	0	28	0	3746562048	34	6465
2026-01-17 03:12:13.96	331.55	15.64	-31.6	-32.4	25.8	0.00e+00	0	28	0	3769630720	36	5969
2026-01-17 03:12:18.00	331.82	15.23	-31.7	-32.3	25.6	0.00e+00	0	28	0	3791650816	36	5938
2026-01-17 03:12:22.04	332.08	14.82	-31.9	-32.5	25.5	0.00e+00	0	28	0	3814719488	36	6092
2026-01-17 03:12:26.08	332.34	14.42	-32.0	-32.6	25.4	0.00e+00	0	28	0	3837788160	36	6156
2026-01-17 03:12:30.12	332.60	14.02	-32.2	-32.8	25.2	0.00e+00	0	28	0	3859808256	36	6271
2026-01-17 03:12:34.16	332.84	13.63	-32.3	-32.9	25.1	0.00e+00	0	28	0	3882876928	36	6354
2026-01-17 03:12:38.20	333.08	13.25	-32.4	-33.2	25.0	0.00e+00	0	28	0	3905945600	36	6554
2026-01-17 03:12:42.24	333.32	12.87	-32.3	-33.0	25.0	0.00e+00	0	28	0	3927965696	36	6395
2026-01-17 03:12:46.28	333.55	12.49	-32.3	-32.9	25.1	0.00e+00	0	28	0	3951034368	36	6382
2026-01-17 03:12:50.32	333.77	12.13	-32.3	-33.1	25.0	0.00e+00	0	28	0	3974103040	36	6467
2026-01-17 03:12:54.36	333.99	11.76	-32.3	-32.9	25.0	0.00e+00	0	28	0	3996123136	36	6377
2026-01-17 03:12:58.40	334.21	11.40	-32.5	-33.3	24.8	0.00e+00	0	28	0	4019191808	38	5899
2026-01-17 03:13:02.44	334.42	11.05	-32.7	-33.5	24.7	0.00e+00	0	28	0	4042260480	38	6058
2026-01-17 03:13:06.48	334.62	10.70	-32.7	-33.3	24.6	0.00e+00	0	28	0	4064280576	38	5921
2026-01-17 03:13:10.52	334.82	10.36	-32.8	-33.4	24.4	0.00e+00	0	28	0	4087349248	38	6019
2026-01-17 03:13:14.56	335.02	10.02	-33.0	-33.6	24.2	0.00e+00	0	28	0	4110417920	38	6136
2026-01-17 03:13:18.60	335.21	9.68	-33.0	-33.8	24.2	0.00e+00	0	28	0	4132438016	38	6276
2026-01-17 03:13:22.64	335.40	9.35	-33.3	-34.0	24.0	0.00e+00	0	28	0	4155506688	38	6464
2026-01-17 03:13:26.68	335.58	9.03	-33.2	-33.9	23.9	0.00e+00	0	28	0	4178575360	38	6348
2026-01-17 03:13:30.72	335.77	8.70	-33.6	-34.2	23.6	0.00e+00	0	28	0	4200595456	38	6593
2026-01-17 03:13:34.76	335.94	8.39	-33.4	-34.2	23.8	0.00e+00	0	28	0	4223664128	38	6568
2026-01-17 03:13:38.80	336.12	8.07	-33.4	-34.2	23.7	0.00e+00	0	28	0	4246732800	38	6567
2026-01-17 03:13:42.83	336.29	7.76	-33.7	-34.3	23.4	0.00e+00	0	28	0	4268752896	40	5953
2026-01-17 03:13:46.87	336.46	7.45	-33.8	-34.7	23.3	0.00e+00	0	29	0	4291821568	40	6178
2026-01-17 03:13:50.91	336.62	7.15	-33.8	-34.4	23.2	0.00e+00	0	28	0	4314890240	40	6026
2026-01-17 03:13:54.95	336.78	6.85	-33.8	-34.6	23.2	0.00e+00	0	29	0	4336910336	40	6157
2026-01-17 03:13:58.99	336.94	6.55	-33.9	-34.6	23.1	0.00e+00	0	29	0	4359979008	40	6161
2026-01-17 03:14:03.03	337.10	6.26	-33.9	-34.7	22.8	0.00e+00	0	29	0	4383047680	40	6202
2026-01-17 03:14:07.07	337.25	5.96	-34.3	-35.1	22.4	0.00e+00	0	29	0	4405067776	40	6536
2026-01-17 03:14:11.11	337.40	5.68	-34.9	-35.7	21.3	0.00e+00	0	29	0	4428136448	42	6196
2026-01-17 03:14:15.15	337.55	5.39	-36.0	-37.1	19.6	0.00e+00	0	29	0	4451205120	44	6483
2026-01-17 03:14:19.19	337.69	5.11	-37.1	-38.3	17.9	0.00e+00	0	29	0	4473225216	46	6683
2026-01-17 03:14:23.23	337.84	4.83	-38.6	-40.1	15.3	0.00e+00	0	29	0	4496293888	48	7332
2026-01-17 03:14:27.26	337.98	4.56	-40.3	-42.7	12.1	3.72e-04	0	29	0	4519362560	52	7855
2026-01-17 03:14:31.30	338.12	4.28	-41.8	-45.8	8.2	3.95e-02	0	29	0	4541382656	54	9916
2026-01-17 03:14:35.34	338.25	4.01	-42.6	-48.6	4.9	7.53e-01	0	29	0	4560257024	56	12188
2026-01-17 03:14:39.38	338.39	3.74	-42.9	-53.0	3.6	8.44e-01	0	29	104	4560257024	58	18049
2026-01-17 03:14:43.42	338.52	3.48	-43.0	-54.5	3.6	8.47e-01	0	29	104	4560257024	58	21495
2026-01-17 03:14:47.46	338.65	3.21	-43.0	-55.0	3.5	8.45e-01	0	29	104	4560257024	58	22803
2026-01-17 03:14:51.50	338.78	2.95	-44.4	-56.4	3.6	8.46e-01	0	29	104	4560257024	58	26752
2026-01-17 03:14:55.53	338.90	2.69	-47.9	-60.0	3.6	8.45e-01	0	29	104	4560257024	60	36323
2026-01-17 03:14:59.57	339.03	2.44	-48.0	-60.1	3.6	8.45e-01	0	29	104	4560257024	60	36727
2026-01-17 03:15:03.61	339.15	2.18	-48.0	-60.2	3.6	8.46e-01	0	29	104	4560257024	60	36777
2026-01-17 03:15:07.65	339.27	1.93	-48.1	-60.2	3.6	8.44e-01	0	29	104	4560257024	60	36907
2026-01-17 03:15:11.69	339.39	1.68	-48.0	-60.1	3.6	8.46e-01	0	29	104	4560257024	60	36623
2026-01-17 03:15:15.73	339.51	1.43	-48.1	-60.1	3.6	8.46e-01	0	29	104	4560257024	60	36758
2026-01-17 03:15:19.77	339.62	1.19	-48.2	-60.3	3.6	8.45e-01	0	29	104	4560257024	60	37475
2026-01-17 03:15:23.81	339.74	0.94	-48.1	-60.3	3.6	8.46e-01	0	29	104	4560257024	60	37241
2026-01-17 03:15:27.85	339.85	0.70	-48.1	-60.3	3.6	8.46e-01	0	29	104	4560257024	60	37205
2026-01-17 03:15:31.89	339.96	0.46	-48.0	-60.1	3.6	8.46e-01	0	29	104	4560257024	60	36426
2026-01-17 03:15:35.92	340.07	0.22	-48.1	-60.1	3.6	8.46e-01	0	29	104	4560257024	60	36731
2026-01-17 03:15:39.96	340.18	-0.01	-48.0	-60.1	3.6	8.46e-01	0	29	104	4560257024	60	36628

#Closed at: 2026-01-17 03:15:41
#Recorded file [4560 MB]: D:/lorett/data/35029_260117_150018.dat