passes_logs/2026/01/17/R4.6S_Anadyr/R4.6S_Anadyr__20260117_133712_NOAA_21_JPSS-2_rec.log

#Pass ID: 20260117_133712_NOAA 21 (JPSS-2)
#Satellite: NOAA 21 (JPSS-2)
#Configuration: NOAA-21
#almurnet v.1.7.20251203
#Start time: 2026-01-17 13:37:13

#Version: 2.2.20231116
#Station: R4.6S_Anadyr
#Location: 177.4865 lon 64.73178 lat
#TLE: 1 54234U 22150A   26016.56338662  .00000024  00000+0  32257-4 0  9990
#TLE: 2 54234  98.7500 317.4442 0000622 279.9774  80.1332 14.19534942165033

#Time	Az	El	Level	Level2	SNR	BER	BlckErr	Temp	State	Recorded	gain1	gain2
2026-01-17 13:37:13.71	18.93	0.04	-48.5	-63.4	3.6	1.51e+00	0	25	0	0	60	53360
2026-01-17 13:37:17.74	19.08	0.28	-48.7	-61.5	3.5	1.51e+00	0	26	104	0	60	41656
2026-01-17 13:37:21.78	19.23	0.51	-48.6	-61.4	3.5	1.52e+00	0	27	104	0	60	41381
2026-01-17 13:37:25.82	19.38	0.74	-48.1	-60.9	3.5	1.52e+00	0	26	104	0	60	39074
2026-01-17 13:37:29.86	19.54	0.98	-47.1	-59.9	3.5	1.52e+00	0	27	104	0	60	34749
2026-01-17 13:37:33.90	19.70	1.22	-47.0	-59.9	3.5	1.52e+00	0	27	104	0	60	34591
2026-01-17 13:37:37.94	19.86	1.46	-47.0	-59.7	3.5	1.51e+00	0	27	104	0	60	34086
2026-01-17 13:37:41.97	20.02	1.70	-47.0	-59.8	3.5	1.52e+00	0	27	104	0	60	34181
2026-01-17 13:37:46.01	20.18	1.94	-47.0	-59.7	3.5	1.51e+00	0	27	104	0	60	34022
2026-01-17 13:37:50.05	20.35	2.19	-47.0	-59.5	3.5	1.52e+00	0	27	104	0	60	33134
2026-01-17 13:37:54.09	20.52	2.44	-46.9	-58.5	3.5	1.51e+00	0	27	104	0	60	29690
2026-01-17 13:37:58.12	20.69	2.69	-46.4	-54.5	5.5	6.93e-01	122	27	104	0	60	18698
2026-01-17 13:38:02.12	20.87	2.94	-40.6	-42.3	16.7	0.00e+00	121	27	0	11534336	56	5785
2026-01-17 13:38:06.16	21.05	3.19	-38.3	-39.6	19.3	0.00e+00	123	27	0	24117248	50	5937
2026-01-17 13:38:10.20	21.23	3.45	-41.4	-43.3	15.7	0.00e+00	123	27	0	36700160	54	7277
2026-01-17 13:38:14.23	21.41	3.70	-45.5	-50.2	9.3	2.05e-02	123	27	0	46137344	60	11391
2026-01-17 13:38:18.27	21.60	3.96	-42.3	-44.4	14.7	7.00e-07	122	27	0	51380224	58	6562
2026-01-17 13:38:22.30	21.79	4.23	-41.4	-43.3	16.2	0.00e+00	120	27	0	63963136	56	6438
2026-01-17 13:38:26.34	21.98	4.49	-41.2	-43.1	16.5	0.00e+00	120	27	0	77594624	54	7058
2026-01-17 13:38:30.38	22.17	4.76	-41.7	-43.6	16.1	0.00e+00	120	27	0	90177536	56	6699
2026-01-17 13:38:34.42	22.37	5.03	-41.0	-42.8	16.2	0.00e+00	120	27	0	102760448	56	6078
2026-01-17 13:38:38.46	22.58	5.30	-38.6	-39.9	19.1	0.00e+00	122	27	0	115343360	50	6184
2026-01-17 13:38:42.50	22.78	5.58	-37.7	-38.9	20.2	0.00e+00	123	27	0	127926272	50	5513
2026-01-17 13:38:46.53	22.99	5.85	-37.9	-39.1	20.1	0.00e+00	120	27	0	140509184	48	6291
2026-01-17 13:38:50.57	23.20	6.13	-37.5	-38.7	20.6	0.00e+00	122	27	0	153092096	48	6026
2026-01-17 13:38:54.61	23.42	6.42	-37.2	-38.3	20.9	0.00e+00	120	27	0	165675008	48	5766
2026-01-17 13:38:58.64	23.64	6.70	-37.0	-38.1	21.1	0.00e+00	120	27	0	178257920	48	5619
2026-01-17 13:39:02.68	23.87	6.99	-37.0	-38.1	21.1	0.00e+00	122	27	0	190840832	46	6318
2026-01-17 13:39:06.71	24.09	7.28	-36.6	-37.7	21.5	0.00e+00	123	27	0	203423744	46	6020
2026-01-17 13:39:10.75	24.33	7.58	-36.6	-37.7	21.6	0.00e+00	122	28	0	216006656	46	6034
2026-01-17 13:39:14.79	24.56	7.88	-36.4	-37.5	21.7	0.00e+00	123	28	0	228589568	46	5867
2026-01-17 13:39:18.82	24.81	8.18	-36.3	-37.4	21.8	0.00e+00	120	28	0	241172480	46	5810
2026-01-17 13:39:22.86	25.05	8.48	-36.5	-37.5	21.7	0.00e+00	122	28	0	253755392	46	5920
2026-01-17 13:39:26.90	25.30	8.79	-36.0	-37.0	22.2	0.00e+00	121	28	0	266338304	46	5578
2026-01-17 13:39:30.94	25.56	9.10	-36.0	-37.0	22.3	0.00e+00	123	28	0	278921216	46	5566
2026-01-17 13:39:34.97	25.82	9.41	-35.7	-36.7	22.4	0.00e+00	122	28	0	291504128	44	6035
2026-01-17 13:39:39.01	26.09	9.73	-35.7	-36.7	22.4	0.00e+00	123	28	0	304087040	44	6048
2026-01-17 13:39:43.05	26.36	10.05	-35.4	-36.3	22.8	0.00e+00	122	28	0	316669952	44	5783
2026-01-17 13:39:47.08	26.64	10.38	-35.7	-36.7	22.5	0.00e+00	123	28	0	329252864	44	6052
2026-01-17 13:39:51.13	26.92	10.71	-35.3	-36.3	22.8	0.00e+00	122	28	0	341835776	44	5749
2026-01-17 13:39:55.16	27.21	11.04	-35.6	-36.6	22.6	0.00e+00	120	28	0	354418688	44	5938
2026-01-17 13:39:59.20	27.51	11.38	-35.1	-36.0	23.0	0.00e+00	122	28	0	367001600	44	5588
2026-01-17 13:40:03.24	27.81	11.72	-34.8	-35.7	23.4	0.00e+00	122	28	0	379584512	44	5397
2026-01-17 13:40:07.28	28.12	12.06	-34.9	-35.8	23.3	0.00e+00	122	28	0	392167424	42	6108
2026-01-17 13:40:11.32	28.44	12.41	-34.6	-35.6	23.5	0.00e+00	123	28	0	404750336	42	5946
2026-01-17 13:40:15.35	28.76	12.77	-34.4	-35.3	23.7	0.00e+00	123	28	0	417333248	42	5772
2026-01-17 13:40:19.38	29.09	13.12	-34.5	-35.4	23.7	0.00e+00	122	28	0	429916160	42	5844
2026-01-17 13:40:23.42	29.43	13.48	-34.4	-35.4	23.8	0.00e+00	122	28	0	442499072	42	5803
2026-01-17 13:40:27.46	29.78	13.85	-34.6	-35.5	23.7	0.00e+00	122	28	0	455081984	42	5911
2026-01-17 13:40:31.50	30.13	14.22	-34.5	-35.4	23.7	0.00e+00	123	28	0	467664896	42	5826
2026-01-17 13:40:35.54	30.50	14.60	-34.3	-35.2	24.0	0.00e+00	123	28	0	481296384	42	5670
2026-01-17 13:40:39.57	30.87	14.98	-34.5	-35.4	23.8	0.00e+00	122	28	0	492830720	42	5833
2026-01-17 13:40:43.61	31.25	15.37	-34.4	-35.3	23.8	0.00e+00	123	28	0	506462208	42	5755
2026-01-17 13:40:47.65	31.64	15.76	-34.7	-35.6	23.7	0.00e+00	123	28	0	519045120	42	5954
2026-01-17 13:40:51.69	32.04	16.16	-34.7	-35.6	23.7	0.00e+00	120	28	0	531628032	42	5993
2026-01-17 13:40:55.72	32.45	16.56	-34.7	-35.6	23.7	0.00e+00	123	28	0	544210944	42	5993
2026-01-17 13:40:59.76	32.87	16.97	-34.7	-35.7	23.6	0.00e+00	122	28	0	556793856	42	6009
2026-01-17 13:41:03.80	33.31	17.38	-34.9	-35.9	23.6	0.00e+00	123	28	0	569376768	42	6158
2026-01-17 13:41:07.84	33.75	17.80	-35.2	-36.2	23.3	0.00e+00	121	28	0	581959680	42	6370
2026-01-17 13:41:11.87	34.21	18.22	-35.1	-36.0	23.5	0.00e+00	123	28	0	594542592	42	6240
2026-01-17 13:41:15.91	34.68	18.65	-34.9	-35.8	23.6	0.00e+00	122	28	0	607125504	42	6092
2026-01-17 13:41:19.94	35.16	19.08	-34.9	-35.8	23.6	0.00e+00	122	28	0	619708416	42	6122
2026-01-17 13:41:23.97	35.65	19.52	-34.8	-35.8	23.4	0.00e+00	121	28	0	632291328	42	6088
2026-01-17 13:41:28.01	36.16	19.97	-34.7	-35.6	23.7	0.00e+00	120	28	0	644874240	42	5971
2026-01-17 13:41:32.05	36.69	20.42	-34.6	-35.5	23.8	0.00e+00	122	28	0	657457152	42	5895
2026-01-17 13:41:36.09	37.23	20.88	-34.4	-35.3	23.9	0.00e+00	122	28	0	670040064	42	5779
2026-01-17 13:41:40.12	37.78	21.35	-34.4	-35.3	24.0	0.00e+00	122	28	0	682622976	42	5765
2026-01-17 13:41:44.16	38.35	21.82	-34.0	-34.9	24.2	0.00e+00	123	28	0	695205888	42	5504
2026-01-17 13:41:48.20	38.94	22.30	-33.8	-34.7	24.3	0.00e+00	120	28	0	707788800	42	5393
2026-01-17 13:41:52.24	39.55	22.78	-33.5	-34.4	24.5	0.00e+00	123	28	0	720371712	40	5824
2026-01-17 13:41:56.27	40.17	23.27	-33.4	-34.3	24.8	0.00e+00	123	28	0	732954624	40	5729
2026-01-17 13:42:00.31	40.82	23.76	-33.2	-34.1	24.9	0.00e+00	123	28	0	745537536	40	5639
2026-01-17 13:42:04.35	41.48	24.26	-33.3	-34.2	24.9	0.00e+00	122	28	0	758120448	40	5700
2026-01-17 13:42:08.39	42.17	24.77	-33.4	-34.3	24.9	0.00e+00	123	28	0	770703360	40	5735
2026-01-17 13:42:12.43	42.88	25.28	-33.4	-34.3	24.8	0.00e+00	123	28	0	783286272	40	5757
2026-01-17 13:42:16.46	43.60	25.80	-33.6	-34.5	24.6	0.00e+00	121	28	0	795869184	40	5895
2026-01-17 13:42:20.50	44.36	26.32	-34.2	-35.1	24.3	0.00e+00	122	28	0	808452096	40	6293
2026-01-17 13:42:24.54	45.14	26.85	-34.4	-35.3	24.1	0.00e+00	122	28	0	821035008	40	6488
2026-01-17 13:42:28.58	45.94	27.38	-34.9	-35.8	23.7	0.00e+00	123	28	0	833617920	42	6112
2026-01-17 13:42:32.62	46.77	27.92	-34.8	-35.8	23.8	0.00e+00	122	28	0	846200832	42	6066
2026-01-17 13:42:36.65	47.63	28.46	-34.9	-35.9	23.8	0.00e+00	123	28	0	858783744	42	6150
2026-01-17 13:42:40.69	48.52	29.00	-34.7	-35.6	23.9	0.00e+00	122	28	0	872415232	42	5980
2026-01-17 13:42:44.74	49.44	29.55	-34.5	-35.4	24.1	0.00e+00	120	28	0	884998144	42	5809
2026-01-17 13:42:48.77	50.39	30.10	-34.5	-35.4	24.1	0.00e+00	122	28	0	897581056	42	5848
2026-01-17 13:42:52.81	51.37	30.65	-34.3	-35.2	24.2	0.00e+00	123	28	0	910163968	42	5686
2026-01-17 13:42:56.85	52.39	31.21	-34.2	-35.1	24.3	0.00e+00	123	28	0	922746880	42	5602
2026-01-17 13:43:00.88	53.43	31.76	-34.5	-35.5	23.9	0.00e+00	123	28	0	935329792	42	5863
2026-01-17 13:43:04.92	54.52	32.31	-34.7	-35.6	23.8	0.00e+00	123	28	0	947912704	42	5951
2026-01-17 13:43:08.96	55.64	32.87	-34.7	-35.6	23.9	0.00e+00	122	28	0	960495616	42	5985
2026-01-17 13:43:13.00	56.81	33.42	-35.1	-36.1	23.5	0.00e+00	123	28	0	973078528	42	6305
2026-01-17 13:43:17.03	58.00	33.96	-35.3	-36.2	23.4	0.00e+00	123	28	0	985661440	42	6415
2026-01-17 13:43:21.08	59.25	34.51	-35.5	-36.5	23.3	0.00e+00	120	28	0	998244352	42	6608
2026-01-17 13:43:25.12	60.53	35.05	-35.6	-36.5	23.2	0.00e+00	123	28	0	1010827264	42	6644
2026-01-17 13:43:29.16	61.85	35.58	-35.8	-36.8	22.8	0.00e+00	122	28	0	1023410176	44	6086
2026-01-17 13:43:33.20	63.22	36.10	-36.0	-37.0	22.8	0.00e+00	123	28	0	1035993088	44	6219
2026-01-17 13:43:37.24	64.63	36.61	-35.6	-36.6	23.1	0.00e+00	122	28	0	1048576000	44	5954
2026-01-17 13:43:41.28	66.09	37.11	-36.4	-37.4	22.5	0.00e+00	123	28	0	1061158912	44	6534
2026-01-17 13:43:45.32	67.59	37.60	-35.8	-36.8	22.9	0.00e+00	123	28	0	1073741824	44	6090
2026-01-17 13:43:49.36	69.13	38.07	-36.2	-37.2	22.6	0.00e+00	122	28	0	1086324736	44	6378
2026-01-17 13:43:53.41	70.72	38.52	-36.3	-37.3	22.4	0.00e+00	123	28	0	1098907648	44	6492
2026-01-17 13:43:57.45	72.35	38.96	-36.4	-37.4	22.5	0.00e+00	123	28	0	1111490560	44	6557
2026-01-17 13:44:01.49	74.02	39.37	-36.9	-38.0	21.9	0.00e+00	120	28	0	1124073472	46	6212
2026-01-17 13:44:05.53	75.74	39.77	-37.0	-38.0	22.1	0.00e+00	122	28	0	1136656384	46	6243
2026-01-17 13:44:09.57	77.50	40.13	-36.9	-38.0	22.1	0.00e+00	122	28	0	1149239296	46	6216
2026-01-17 13:44:13.61	79.29	40.47	-36.7	-37.7	22.2	0.00e+00	123	28	0	1161822208	46	6060
2026-01-17 13:44:17.64	81.11	40.78	-36.9	-37.9	21.7	0.00e+00	123	28	0	1174405120	46	6189
2026-01-17 13:44:21.68	82.98	41.07	-36.6	-37.6	22.4	0.00e+00	123	28	0	1186988032	46	5938
2026-01-17 13:44:25.72	84.87	41.32	-37.1	-38.2	21.9	0.00e+00	123	28	0	1199570944	46	6360
2026-01-17 13:44:29.76	86.79	41.53	-36.6	-37.6	22.2	0.00e+00	122	28	0	1213202432	46	5976
2026-01-17 13:44:33.80	88.74	41.71	-36.5	-37.5	22.4	0.00e+00	123	28	0	1225785344	46	5896
2026-01-17 13:44:37.83	90.70	41.86	-36.8	-37.8	22.2	0.00e+00	122	28	0	1238368256	46	6072
2026-01-17 13:44:41.87	92.68	41.97	-37.3	-38.4	21.4	0.00e+00	121	28	0	1250951168	46	6563
2026-01-17 13:44:45.91	94.67	42.04	-37.1	-38.2	21.6	0.00e+00	120	28	0	1263534080	46	6355
2026-01-17 13:44:49.95	96.67	42.07	-36.8	-37.8	22.2	0.00e+00	122	28	0	1276116992	46	6104
2026-01-17 13:44:53.99	98.67	42.07	-36.7	-37.8	22.2	0.00e+00	120	28	0	1288699904	46	6071
2026-01-17 13:44:58.03	100.67	42.03	-37.5	-38.6	21.5	0.00e+00	120	28	0	1301282816	46	6697
2026-01-17 13:45:02.06	102.66	41.95	-37.1	-38.1	21.8	0.00e+00	122	28	0	1313865728	48	5654
2026-01-17 13:45:06.10	104.64	41.83	-36.7	-37.7	22.1	0.00e+00	122	28	0	1326448640	46	6021
2026-01-17 13:45:10.14	106.60	41.67	-36.7	-37.7	22.3	0.00e+00	123	28	0	1339031552	46	6005
2026-01-17 13:45:14.18	108.54	41.48	-37.2	-38.3	21.8	0.00e+00	122	28	0	1351614464	46	6481
2026-01-17 13:45:18.22	110.46	41.26	-36.8	-37.9	22.1	0.00e+00	120	28	0	1364197376	46	6169
2026-01-17 13:45:22.26	112.35	41.00	-37.0	-38.1	21.9	0.00e+00	122	28	0	1376780288	46	6332
2026-01-17 13:45:26.30	114.21	40.71	-36.9	-38.0	21.9	0.00e+00	122	28	0	1389363200	46	6208
2026-01-17 13:45:30.34	116.03	40.39	-36.8	-37.8	22.0	0.00e+00	123	28	0	1401946112	46	6113
2026-01-17 13:45:34.38	117.82	40.04	-36.4	-37.4	22.2	0.00e+00	121	28	0	1414529024	46	5853
2026-01-17 13:45:38.42	119.57	39.67	-36.5	-37.5	22.3	0.00e+00	122	28	0	1427111936	46	5874
2026-01-17 13:45:42.46	121.28	39.27	-36.6	-37.6	22.4	0.00e+00	123	28	0	1439694848	46	5949
2026-01-17 13:45:46.50	122.95	38.85	-37.5	-38.5	21.7	0.00e+00	123	28	0	1452277760	48	5920
2026-01-17 13:45:50.54	124.57	38.41	-36.2	-37.1	22.7	0.00e+00	122	28	0	1464860672	46	5651
2026-01-17 13:45:54.58	126.15	37.95	-36.4	-37.4	22.5	0.00e+00	122	28	0	1477443584	46	5792
2026-01-17 13:45:58.62	127.69	37.47	-35.9	-36.8	23.0	0.00e+00	122	28	0	1490026496	46	5444
2026-01-17 13:46:02.66	129.18	36.98	-36.2	-37.2	22.7	0.00e+00	123	28	0	1502609408	44	6421
2026-01-17 13:46:06.70	130.63	36.47	-35.4	-36.4	23.2	0.00e+00	123	28	0	1515192320	44	5803
2026-01-17 13:46:10.73	132.03	35.96	-35.5	-36.4	23.2	0.00e+00	120	28	0	1528823808	44	5852
2026-01-17 13:46:14.76	133.39	35.43	-36.0	-37.0	22.9	0.00e+00	123	28	0	1540358144	44	6223
2026-01-17 13:46:18.80	134.71	34.90	-36.5	-37.5	22.5	0.00e+00	123	29	0	1553989632	44	6619
2026-01-17 13:46:22.84	135.98	34.36	-36.0	-37.0	22.9	0.00e+00	123	28	0	1566572544	44	6226
2026-01-17 13:46:26.88	137.22	33.81	-35.4	-36.3	23.4	0.00e+00	120	29	0	1579155456	44	5779
2026-01-17 13:46:30.92	138.41	33.26	-34.9	-35.8	23.7	0.00e+00	122	29	0	1591738368	44	5463
2026-01-17 13:46:34.95	139.57	32.70	-34.9	-35.9	23.8	0.00e+00	122	29	0	1604321280	42	6144
2026-01-17 13:46:38.99	140.68	32.15	-34.2	-35.1	24.4	0.00e+00	121	29	0	1616904192	42	5630
2026-01-17 13:46:43.02	141.76	31.59	-34.1	-35.0	24.4	0.00e+00	122	29	0	1629487104	42	5567
2026-01-17 13:46:47.06	142.81	31.03	-34.1	-35.0	24.2	0.00e+00	122	29	0	1642070016	42	5548
2026-01-17 13:46:51.10	143.82	30.48	-33.8	-34.7	24.5	0.00e+00	120	29	0	1654652928	40	6007
2026-01-17 13:46:55.13	144.79	29.92	-34.2	-35.1	24.1	0.00e+00	120	28	0	1667235840	40	6321
2026-01-17 13:46:59.17	145.74	29.37	-34.1	-34.9	24.4	0.00e+00	123	29	0	1679818752	40	6202
2026-01-17 13:47:03.21	146.65	28.82	-34.2	-35.1	24.1	0.00e+00	122	29	0	1692401664	40	6315
2026-01-17 13:47:07.25	147.53	28.27	-34.1	-35.0	24.3	0.00e+00	123	29	0	1704984576	40	6251
2026-01-17 13:47:11.28	148.39	27.73	-34.4	-35.3	24.1	0.00e+00	123	29	0	1717567488	40	6447
2026-01-17 13:47:15.32	149.21	27.19	-34.5	-35.4	24.1	0.00e+00	123	29	0	1730150400	40	6546
2026-01-17 13:47:19.37	150.01	26.65	-34.1	-35.0	24.3	0.00e+00	123	29	0	1742733312	40	6257
2026-01-17 13:47:23.40	150.79	26.13	-33.8	-34.7	24.6	0.00e+00	123	29	0	1755316224	40	6001
2026-01-17 13:47:27.44	151.54	25.60	-33.8	-34.7	24.5	0.00e+00	123	29	0	1767899136	40	6007
2026-01-17 13:47:31.48	152.26	25.08	-33.9	-34.8	24.4	0.00e+00	122	29	0	1780482048	40	6101
2026-01-17 13:47:35.51	152.97	24.57	-33.6	-34.5	24.5	0.00e+00	122	29	0	1793064960	40	5901
2026-01-17 13:47:39.54	153.65	24.06	-33.7	-34.6	24.3	0.00e+00	122	29	0	1805647872	40	5932
2026-01-17 13:47:43.58	154.31	23.56	-33.8	-34.7	24.5	0.00e+00	123	29	0	1818230784	40	6037
2026-01-17 13:47:47.62	154.95	23.06	-34.1	-35.0	24.2	0.00e+00	122	29	0	1830813696	40	6259
2026-01-17 13:47:51.66	155.57	22.57	-34.1	-35.0	24.1	0.00e+00	120	29	0	1843396608	40	6267
2026-01-17 13:47:55.69	156.17	22.09	-34.1	-35.0	24.2	0.00e+00	120	29	0	1855979520	40	6269
2026-01-17 13:47:59.73	156.76	21.61	-33.8	-34.7	24.4	0.00e+00	122	29	0	1868562432	40	6050
2026-01-17 13:48:03.77	157.32	21.14	-34.1	-35.0	24.2	0.00e+00	123	29	0	1881145344	40	6212
2026-01-17 13:48:07.81	157.87	20.67	-33.8	-34.7	24.4	0.00e+00	123	29	0	1893728256	40	6053
2026-01-17 13:48:11.84	158.41	20.21	-33.7	-34.6	24.4	0.00e+00	123	29	0	1906311168	40	5981
2026-01-17 13:48:15.88	158.93	19.76	-33.7	-34.6	24.3	0.00e+00	122	29	0	1919942656	40	5953
2026-01-17 13:48:19.91	159.43	19.31	-33.7	-34.6	24.3	0.00e+00	122	29	0	1931476992	40	5977
2026-01-17 13:48:23.95	159.93	18.87	-33.9	-34.8	24.3	0.00e+00	122	29	0	1945108480	40	6106
2026-01-17 13:48:27.99	160.41	18.43	-34.2	-35.1	24.1	0.00e+00	120	29	0	1957691392	40	6295
2026-01-17 13:48:32.03	160.87	18.00	-34.3	-35.2	24.0	0.00e+00	123	29	0	1970274304	40	6386
2026-01-17 13:48:36.07	161.32	17.58	-34.5	-35.4	23.6	0.00e+00	123	29	0	1982857216	40	6531
2026-01-17 13:48:40.11	161.76	17.16	-34.7	-35.6	23.4	0.00e+00	122	29	0	1995440128	40	6681
2026-01-17 13:48:44.15	162.19	16.74	-34.4	-35.3	23.7	0.00e+00	123	29	0	2008023040	40	6493
2026-01-17 13:48:48.19	162.61	16.33	-34.3	-35.2	23.8	0.00e+00	122	29	0	2020605952	40	6384
2026-01-17 13:48:52.23	163.02	15.93	-34.4	-35.4	23.8	0.00e+00	123	29	0	2033188864	40	6501
2026-01-17 13:48:56.27	163.42	15.53	-34.8	-35.7	23.6	0.00e+00	122	29	0	2045771776	42	6063
2026-01-17 13:49:00.30	163.80	15.14	-35.1	-36.1	23.3	0.00e+00	123	29	0	2058354688	42	6299
2026-01-17 13:49:04.34	164.18	14.75	-35.7	-36.6	22.8	0.00e+00	123	29	0	2070937600	42	6721
2026-01-17 13:49:08.39	164.55	14.37	-35.5	-36.5	22.8	0.00e+00	122	29	0	2083520512	42	6583
2026-01-17 13:49:12.42	164.91	13.99	-35.3	-36.3	22.8	0.00e+00	122	29	0	2096103424	42	6441
2026-01-17 13:49:16.45	165.26	13.62	-35.5	-36.5	22.6	0.00e+00	120	29	0	2108686336	42	6620
2026-01-17 13:49:20.49	165.60	13.25	-35.6	-36.6	22.7	0.00e+00	123	29	0	2121269248	42	6653
2026-01-17 13:49:24.53	165.94	12.89	-35.3	-36.3	23.0	0.00e+00	123	29	0	2133852160	42	6444
2026-01-17 13:49:28.57	166.27	12.53	-35.4	-36.4	23.0	0.00e+00	121	29	0	2146435072	42	6508
2026-01-17 13:49:32.61	166.59	12.18	-35.3	-36.3	23.0	0.00e+00	122	29	0	2159017984	42	6439
2026-01-17 13:49:36.65	166.90	11.83	-35.5	-36.5	22.9	0.00e+00	123	30	0	2171600896	42	6606
2026-01-17 13:49:40.69	167.21	11.48	-35.6	-36.6	22.7	0.00e+00	122	29	0	2184183808	44	5945
2026-01-17 13:49:44.73	167.50	11.14	-35.9	-36.9	22.4	0.00e+00	123	29	0	2196766720	44	6194
2026-01-17 13:49:48.76	167.80	10.80	-35.9	-36.9	22.4	0.00e+00	123	29	0	2209349632	44	6184
2026-01-17 13:49:52.79	168.08	10.47	-35.9	-36.9	22.4	0.00e+00	122	29	0	2221932544	44	6143
2026-01-17 13:49:56.82	168.36	10.14	-35.8	-36.8	22.4	0.00e+00	123	30	0	2234515456	44	6095
2026-01-17 13:50:00.86	168.64	9.81	-36.0	-37.0	22.2	0.00e+00	122	30	0	2247098368	44	6231
2026-01-17 13:50:04.90	168.90	9.49	-36.3	-37.3	21.9	0.00e+00	123	30	0	2259681280	44	6483
2026-01-17 13:50:08.94	169.17	9.17	-36.2	-37.2	22.0	0.00e+00	120	29	0	2272264192	44	6379
2026-01-17 13:50:12.98	169.43	8.86	-36.1	-37.1	22.1	0.00e+00	122	29	0	2284847104	44	6330
2026-01-17 13:50:17.02	169.68	8.54	-36.4	-37.4	21.8	0.00e+00	122	30	0	2297430016	44	6555
2026-01-17 13:50:21.05	169.93	8.24	-36.2	-37.2	21.9	0.00e+00	120	29	0	2310012928	44	6412
2026-01-17 13:50:25.10	170.17	7.93	-36.8	-37.8	21.4	0.00e+00	120	29	0	2323644416	46	6134
2026-01-17 13:50:29.14	170.41	7.63	-37.0	-38.1	21.1	0.00e+00	122	29	0	2336227328	46	6294
2026-01-17 13:50:33.17	170.64	7.33	-36.9	-38.0	21.0	0.00e+00	123	29	0	2348810240	46	6269
2026-01-17 13:50:37.21	170.87	7.04	-36.9	-38.1	21.0	0.00e+00	122	29	0	2361393152	46	6286
2026-01-17 13:50:41.25	171.09	6.74	-36.9	-38.0	21.0	0.00e+00	123	29	0	2373976064	46	6238
2026-01-17 13:50:45.29	171.31	6.45	-37.0	-38.1	20.9	0.00e+00	123	29	0	2386558976	46	6323
2026-01-17 13:50:49.33	171.53	6.17	-37.2	-38.3	20.8	0.00e+00	120	29	0	2399141888	46	6489
2026-01-17 13:50:53.37	171.74	5.88	-37.4	-38.5	20.5	0.00e+00	122	29	0	2411724800	46	6636
2026-01-17 13:50:57.40	171.95	5.60	-37.4	-38.5	20.5	0.00e+00	122	29	0	2424307712	46	6623
2026-01-17 13:51:01.44	172.16	5.32	-37.7	-38.9	20.3	0.00e+00	120	29	0	2436890624	48	6144
2026-01-17 13:51:05.48	172.36	5.05	-37.6	-38.7	20.2	0.00e+00	123	29	0	2449473536	48	6053
2026-01-17 13:51:09.52	172.56	4.78	-37.7	-39.0	20.0	0.00e+00	123	29	0	2462056448	48	6215
2026-01-17 13:51:13.55	172.75	4.51	-38.2	-39.4	19.5	0.00e+00	123	29	0	2474639360	50	5846
2026-01-17 13:51:17.59	172.94	4.24	-38.4	-39.7	19.2	0.00e+00	122	29	0	2487222272	50	6009
2026-01-17 13:51:21.63	173.13	3.97	-38.9	-40.3	18.7	0.00e+00	122	29	0	2499805184	50	6430
2026-01-17 13:51:25.67	173.32	3.71	-39.2	-40.7	18.2	0.00e+00	123	29	0	2512388096	50	6759
2026-01-17 13:51:29.71	173.50	3.45	-39.3	-40.7	18.4	0.00e+00	123	29	0	2524971008	52	6046
2026-01-17 13:51:33.75	173.68	3.19	-41.0	-42.9	16.1	0.00e+00	122	29	0	2537553920	54	6951
2026-01-17 13:51:37.79	173.85	2.93	-47.8	-60.6	3.5	1.52e+00	0	29	104	2545942528	60	37540
2026-01-17 13:51:41.83	174.03	2.68	-48.4	-61.2	3.5	1.52e+00	0	29	104	2545942528	60	40518
2026-01-17 13:51:45.87	174.20	2.42	-48.5	-61.3	3.5	1.51e+00	0	29	104	2545942528	60	40906
2026-01-17 13:51:49.92	174.37	2.17	-48.5	-61.3	3.5	1.52e+00	0	29	104	2545942528	60	40809
2026-01-17 13:51:53.96	174.53	1.92	-48.4	-61.3	3.5	1.52e+00	0	29	104	2545942528	60	40705
2026-01-17 13:51:58.00	174.70	1.68	-48.4	-61.3	3.5	1.52e+00	0	29	104	2545942528	60	40642
2026-01-17 13:52:02.04	174.86	1.43	-48.4	-61.2	3.5	1.52e+00	0	29	104	2545942528	60	40515
2026-01-17 13:52:06.08	175.01	1.19	-48.4	-61.3	3.5	1.52e+00	0	29	104	2545942528	60	40582
2026-01-17 13:52:10.12	175.17	0.95	-48.4	-61.3	3.5	1.52e+00	0	29	104	2545942528	60	40556
2026-01-17 13:52:14.16	175.32	0.71	-48.4	-61.2	3.5	1.52e+00	0	29	104	2545942528	60	40460
2026-01-17 13:52:18.20	175.47	0.47	-48.4	-61.2	3.5	1.52e+00	0	29	104	2545942528	60	40403
2026-01-17 13:52:22.24	175.62	0.24	-48.5	-61.3	3.5	1.52e+00	0	29	104	2545942528	60	40658
2026-01-17 13:52:26.28	175.77	0.00	-48.4	-61.3	3.5	1.52e+00	0	29	104	2545942528	60	40607

#Closed at: 2026-01-17 13:52:28
#Recorded file [2545 MB]: D:/lorett/data/35029_260118_013713.dat