passes_logs/2026/01/17/R4.6S_Anadyr/R4.6S_Anadyr__20260117_021028_TY-42_rec.log

#Pass ID: 20260117_021028_TY-42
#Satellite: TY-42
#Configuration: TY-42_900M
#almurnet v.1.7.20251203
#Start time: 2026-01-17 02:11:01

#Version: 2.2.20231116
#Station: R4.6S_Anadyr
#Location: 177.4865 lon 64.73178 lat
#TLE: 1 64048U 25103A   26016.68670139  .00008013  00000-0  38191-3 0 09995
#TLE: 2 64048 097.4124 092.0725 0001744 090.9850 308.0267 15.19180168 37076

#Time	Az	El	Level	Level2	SNR	BER	BlckErr	Temp	State	Recorded	gain1	gain2
2026-01-17 02:11:01.54	15.34	1.72	-48.3	-66.1	3.5	3.02e+01	0	24	0	0	60	77705
2026-01-17 02:11:04.56	14.99	1.88	-46.5	-49.0	6.1	0.00e+00	0	26	104	0	60	34581
2026-01-17 02:11:07.59	14.63	2.04	-46.5	-49.0	6.1	0.00e+00	0	26	104	0	60	34568
2026-01-17 02:11:10.62	14.27	2.20	-46.5	-49.0	6.1	0.00e+00	0	26	104	0	60	34602
2026-01-17 02:11:13.65	13.90	2.36	-46.6	-49.0	6.1	0.00e+00	0	26	104	0	60	34527
2026-01-17 02:11:16.68	13.53	2.52	-46.5	-49.0	6.1	0.00e+00	0	26	104	0	60	34698
2026-01-17 02:11:19.71	13.15	2.68	-46.5	-49.1	6.1	0.00e+00	0	26	104	0	60	34726
2026-01-17 02:11:22.74	12.76	2.84	-46.5	-49.0	6.0	0.00e+00	0	27	104	0	60	34676
2026-01-17 02:11:25.77	12.37	3.00	-46.5	-49.0	6.1	0.00e+00	0	27	104	0	60	34582
2026-01-17 02:11:28.80	11.98	3.16	-46.5	-49.0	6.1	0.00e+00	0	27	104	0	60	34541
2026-01-17 02:11:31.83	11.58	3.33	-46.6	-49.0	6.1	0.00e+00	0	27	104	0	60	34593
2026-01-17 02:11:34.86	11.17	3.49	-46.7	-49.2	6.1	0.00e+00	0	27	104	0	60	35171
2026-01-17 02:11:37.88	10.76	3.65	-46.6	-49.0	6.1	0.00e+00	0	27	104	0	60	34657
2026-01-17 02:11:40.91	10.34	3.81	-46.8	-49.3	6.1	0.00e+00	0	27	104	0	60	35769
2026-01-17 02:11:43.93	9.92	3.97	-46.7	-49.2	6.1	0.00e+00	0	27	104	0	60	35126
2026-01-17 02:11:46.96	9.49	4.13	-46.9	-49.3	6.1	0.00e+00	0	27	104	0	60	35930
2026-01-17 02:11:49.99	9.05	4.30	-46.7	-49.2	6.0	0.00e+00	0	27	104	0	60	35485
2026-01-17 02:11:53.02	8.61	4.46	-47.0	-49.5	6.1	0.00e+00	0	27	104	0	60	36417
2026-01-17 02:11:56.04	8.16	4.62	-46.9	-49.4	6.1	0.00e+00	0	27	104	0	60	36011
2026-01-17 02:11:59.07	7.71	4.78	-46.9	-49.4	6.1	0.00e+00	0	27	104	0	60	36344
2026-01-17 02:12:02.10	7.24	4.94	-46.9	-49.4	6.0	0.00e+00	0	28	104	0	60	36165
2026-01-17 02:12:05.13	6.77	5.11	-47.0	-49.5	6.1	0.00e+00	0	28	104	0	60	36540
2026-01-17 02:12:08.15	6.30	5.27	-47.0	-49.5	6.1	0.00e+00	0	28	104	0	60	36507
2026-01-17 02:12:11.19	5.82	5.43	-47.1	-49.6	6.1	0.00e+00	0	28	104	0	60	36786
2026-01-17 02:12:14.22	5.33	5.59	-47.0	-49.5	6.1	0.00e+00	0	28	104	0	60	36429
2026-01-17 02:12:17.25	4.83	5.75	-47.2	-49.7	6.1	0.00e+00	0	28	104	0	60	37318
2026-01-17 02:12:20.28	4.33	5.91	-47.1	-49.6	6.1	0.00e+00	0	28	104	0	60	36966
2026-01-17 02:12:23.31	3.82	6.07	-47.1	-49.6	6.1	0.00e+00	0	28	104	0	60	36895
2026-01-17 02:12:26.33	3.30	6.23	-47.1	-49.6	6.1	0.00e+00	0	28	104	0	60	37112
2026-01-17 02:12:29.36	2.77	6.39	-47.3	-49.8	6.1	0.00e+00	0	28	104	0	60	37689
2026-01-17 02:12:32.39	2.24	6.54	-47.2	-49.7	6.1	0.00e+00	0	28	104	0	60	37460
2026-01-17 02:12:35.42	1.70	6.70	-47.2	-49.7	6.1	0.00e+00	0	28	104	0	60	37411
2026-01-17 02:12:38.44	1.16	6.86	-47.1	-49.6	6.1	0.00e+00	0	28	104	0	60	37183
2026-01-17 02:12:41.47	0.60	7.01	-47.3	-49.9	6.1	0.00e+00	0	28	104	0	60	38125
2026-01-17 02:12:44.50	0.04	7.17	-47.4	-49.9	6.1	0.00e+00	0	28	104	0	60	38157
2026-01-17 02:12:47.53	359.47	7.32	-47.3	-49.8	6.1	0.00e+00	0	29	104	0	60	37966
2026-01-17 02:12:50.56	358.89	7.47	-47.4	-49.8	6.1	0.00e+00	0	29	104	0	60	38068
2026-01-17 02:12:53.59	358.31	7.62	-47.4	-49.9	6.1	0.00e+00	0	29	104	0	60	38210
2026-01-17 02:12:56.62	357.72	7.77	-47.5	-50.0	6.1	0.00e+00	0	29	104	0	60	38675
2026-01-17 02:12:59.64	357.12	7.92	-47.5	-50.0	6.1	0.00e+00	0	29	104	0	60	38696
2026-01-17 02:13:02.67	356.51	8.07	-47.4	-49.9	6.1	0.00e+00	0	29	104	0	60	38390
2026-01-17 02:13:05.70	355.89	8.22	-47.4	-49.9	6.1	0.00e+00	0	29	104	0	60	38185
2026-01-17 02:13:08.73	355.27	8.36	-47.5	-50.0	6.1	0.00e+00	0	29	104	0	60	38811
2026-01-17 02:13:11.75	354.64	8.50	-47.4	-49.9	6.1	0.00e+00	0	29	104	0	60	38420
2026-01-17 02:13:14.78	354.00	8.64	-47.5	-50.0	6.1	0.00e+00	0	29	104	0	60	38761
2026-01-17 02:13:17.81	353.35	8.78	-47.5	-50.0	6.1	0.00e+00	0	29	104	0	60	38648
2026-01-17 02:13:20.83	352.70	8.92	-47.5	-50.0	6.1	0.00e+00	0	29	104	0	60	38879
2026-01-17 02:13:23.86	352.04	9.05	-47.5	-50.0	6.1	0.00e+00	0	29	104	0	60	38902
2026-01-17 02:13:26.88	351.37	9.19	-47.5	-50.0	6.1	0.00e+00	0	29	104	0	60	38672
2026-01-17 02:13:29.90	350.70	9.32	-47.6	-50.1	6.1	0.00e+00	0	29	104	0	60	39125
2026-01-17 02:13:32.93	350.01	9.44	-47.6	-50.1	6.1	0.00e+00	0	29	104	0	60	39147
2026-01-17 02:13:35.96	349.32	9.57	-47.6	-50.0	6.1	0.00e+00	0	29	104	0	60	38841
2026-01-17 02:13:38.99	348.62	9.69	-47.6	-50.0	6.1	0.00e+00	0	29	104	0	60	38710
2026-01-17 02:13:42.01	347.91	9.81	-47.6	-50.1	6.1	0.00e+00	0	30	104	0	60	39149
2026-01-17 02:13:45.04	347.20	9.93	-47.6	-50.1	6.1	0.00e+00	0	30	104	0	60	39151
2026-01-17 02:13:48.07	346.48	10.05	-47.6	-50.1	6.1	0.00e+00	0	29	104	0	60	39186
2026-01-17 02:13:51.10	345.75	10.16	-47.6	-50.1	6.1	0.00e+00	0	30	104	0	60	39137
2026-01-17 02:13:54.13	345.01	10.27	-47.6	-50.1	6.1	0.00e+00	0	30	104	0	60	39135
2026-01-17 02:13:57.16	344.27	10.37	-47.6	-50.1	6.1	0.00e+00	0	30	104	0	60	39385
2026-01-17 02:14:00.19	343.52	10.47	-47.6	-50.1	6.1	0.00e+00	0	30	104	0	60	39371
2026-01-17 02:14:03.21	342.77	10.57	-47.7	-50.2	6.1	0.00e+00	0	30	104	0	60	39560
2026-01-17 02:14:06.24	342.01	10.66	-47.7	-50.2	6.1	0.00e+00	0	30	104	0	60	39498
2026-01-17 02:14:09.27	341.24	10.76	-47.7	-50.2	6.1	0.00e+00	0	30	104	0	60	39851
2026-01-17 02:14:12.30	340.47	10.84	-47.7	-50.2	6.1	0.00e+00	0	30	104	0	60	39519
2026-01-17 02:14:15.33	339.69	10.92	-37.5	-37.9	10.1	0.00e+00	5403	30	104	0	48	19290
2026-01-17 02:14:18.36	338.91	11.00	-37.2	-37.5	10.6	3.78e-01	5514	30	0	301989888	48	18242
2026-01-17 02:14:21.39	338.12	11.08	-27.8	-28.2	15.6	2.13e-01	0	30	0	637534208	32	15767
2026-01-17 02:14:24.42	337.33	11.15	-26.0	-26.4	16.1	3.27e-04	0	30	0	981467136	26	18060
2026-01-17 02:14:27.45	336.53	11.22	-25.4	-25.8	16.2	8.71e-05	0	31	0	1317011456	26	16983
2026-01-17 02:14:30.49	335.72	11.28	-25.4	-25.8	16.2	7.62e-05	0	31	0	1660944384	26	16922
2026-01-17 02:14:33.52	334.92	11.33	-25.4	-25.8	16.2	5.44e-05	0	31	0	2004877312	26	16933
2026-01-17 02:14:36.55	334.11	11.39	-25.6	-26.0	16.1	7.62e-05	0	31	0	2340421632	26	17326
2026-01-17 02:14:39.57	333.30	11.44	-25.6	-26.0	16.1	1.03e-04	0	31	0	2684354560	26	17399
2026-01-17 02:14:42.59	332.48	11.48	-25.7	-26.1	16.0	1.42e-04	0	31	0	3028287488	26	17462
2026-01-17 02:14:45.62	331.66	11.52	-25.6	-26.0	16.0	1.03e-04	0	31	0	3372220416	26	17358
2026-01-17 02:14:48.65	330.84	11.55	-25.9	-26.3	16.0	1.20e-04	0	31	0	3707764736	26	17934
2026-01-17 02:14:51.68	330.02	11.58	-47.7	-50.2	6.1	2.07e-04	0	31	104	3892314112	60	39709
2026-01-17 02:14:54.71	329.19	11.60	-47.7	-50.2	6.1	2.07e-04	0	31	104	3892314112	60	39680
2026-01-17 02:14:57.73	328.37	11.62	-47.8	-50.3	6.1	2.07e-04	0	31	104	3892314112	60	40086
2026-01-17 02:15:00.76	327.54	11.64	-47.7	-50.2	6.1	2.07e-04	0	31	104	3892314112	60	39614
2026-01-17 02:15:03.79	326.71	11.65	-47.8	-50.3	6.1	0.00e+00	0	31	104	3892314112	60	39986
2026-01-17 02:15:06.82	325.88	11.65	-47.9	-50.3	6.1	0.00e+00	0	31	104	3892314112	60	40295
2026-01-17 02:15:09.85	325.05	11.65	-47.8	-50.3	6.1	0.00e+00	0	31	104	3892314112	60	40051
2026-01-17 02:15:12.88	324.22	11.64	-47.8	-50.2	6.1	0.00e+00	0	31	104	3892314112	60	39857
2026-01-17 02:15:15.91	323.39	11.63	-47.8	-50.3	6.1	0.00e+00	0	31	104	3892314112	60	40120
2026-01-17 02:15:18.94	322.56	11.62	-47.9	-50.4	6.1	0.00e+00	0	31	104	3892314112	60	40497
2026-01-17 02:15:21.97	321.73	11.60	-47.9	-50.4	6.1	0.00e+00	0	31	104	3892314112	60	40385
2026-01-17 02:15:25.00	320.91	11.57	-47.8	-50.3	6.1	0.00e+00	0	31	104	3892314112	60	40027
2026-01-17 02:15:28.03	320.08	11.54	-47.8	-50.3	6.1	0.00e+00	0	31	104	3892314112	60	39877
2026-01-17 02:15:31.05	319.26	11.51	-47.9	-50.4	6.1	0.00e+00	0	31	104	3892314112	60	40481
2026-01-17 02:15:34.08	318.44	11.47	-47.9	-50.3	6.1	0.00e+00	0	31	104	3892314112	60	40253
2026-01-17 02:15:37.11	317.63	11.42	-47.7	-50.3	6.1	0.00e+00	0	31	104	3892314112	60	39949
2026-01-17 02:15:40.14	316.81	11.37	-47.7	-50.2	6.1	0.00e+00	0	31	104	3892314112	60	39705
2026-01-17 02:15:43.17	316.00	11.32	-47.9	-50.3	6.1	0.00e+00	0	31	104	3892314112	60	40219
2026-01-17 02:15:46.20	315.20	11.26	-47.8	-50.3	6.1	0.00e+00	0	31	104	3892314112	60	40316
2026-01-17 02:15:49.23	314.39	11.19	-47.7	-50.2	6.1	0.00e+00	0	31	104	3892314112	60	39792
2026-01-17 02:15:52.26	313.60	11.13	-47.7	-50.2	6.1	0.00e+00	0	31	104	3892314112	60	39443
2026-01-17 02:15:55.29	312.80	11.05	-47.6	-50.2	6.1	0.00e+00	0	31	104	3892314112	60	39560
2026-01-17 02:15:58.32	312.02	10.98	-47.6	-50.2	6.1	0.00e+00	0	31	104	3892314112	60	39604
2026-01-17 02:16:01.35	311.23	10.90	-47.9	-50.4	6.1	0.00e+00	0	31	104	3892314112	60	40355
2026-01-17 02:16:04.37	310.46	10.81	-47.9	-50.3	6.1	0.00e+00	0	31	104	3892314112	60	40280
2026-01-17 02:16:07.41	309.68	10.72	-47.7	-50.3	6.1	0.00e+00	0	31	104	3892314112	60	39935
2026-01-17 02:16:10.43	308.92	10.63	-47.8	-50.2	6.1	0.00e+00	0	31	104	3892314112	60	39787
2026-01-17 02:16:13.47	308.15	10.54	-47.5	-50.1	6.1	0.00e+00	0	31	104	3892314112	60	39198
2026-01-17 02:16:16.49	307.40	10.44	-47.5	-50.1	6.1	0.00e+00	0	31	104	3892314112	60	39093
2026-01-17 02:16:19.52	306.65	10.33	-47.2	-49.8	6.1	0.00e+00	0	31	104	3892314112	60	37837
2026-01-17 02:16:22.54	305.92	10.23	-47.4	-49.9	6.1	0.00e+00	0	31	104	3892314112	60	38501
2026-01-17 02:16:25.57	305.18	10.12	-47.5	-50.0	6.1	0.00e+00	0	31	104	3892314112	60	38941
2026-01-17 02:16:28.60	304.45	10.01	-47.5	-50.1	6.1	0.00e+00	0	31	104	3892314112	60	38965
2026-01-17 02:16:31.63	303.73	9.89	-47.6	-50.2	6.1	0.00e+00	0	31	104	3892314112	60	39535
2026-01-17 02:16:34.66	303.02	9.77	-47.5	-50.1	6.1	0.00e+00	0	31	104	3892314112	60	39061
2026-01-17 02:16:37.69	302.31	9.65	-47.7	-50.2	6.1	0.00e+00	0	31	104	3892314112	60	39514
2026-01-17 02:16:40.71	301.61	9.53	-47.7	-50.1	6.1	0.00e+00	0	31	104	3892314112	60	39264
2026-01-17 02:16:43.74	300.92	9.40	-47.7	-50.2	6.1	0.00e+00	0	31	104	3892314112	60	39701
2026-01-17 02:16:46.77	300.24	9.27	-47.7	-50.3	6.1	0.00e+00	0	31	104	3892314112	60	39884
2026-01-17 02:16:49.80	299.56	9.14	-47.7	-50.2	6.1	0.00e+00	0	31	104	3892314112	60	39757
2026-01-17 02:16:52.82	298.89	9.00	-47.7	-50.2	6.1	0.00e+00	0	31	104	3892314112	60	39746
2026-01-17 02:16:55.85	298.23	8.87	-47.7	-50.2	6.1	0.00e+00	0	31	104	3892314112	60	39467
2026-01-17 02:16:58.88	297.57	8.73	-47.7	-50.2	6.1	0.00e+00	0	31	104	3892314112	60	39673
2026-01-17 02:17:01.91	296.93	8.59	-47.7	-50.2	6.1	0.00e+00	0	31	104	3892314112	60	39698
2026-01-17 02:17:04.94	296.29	8.45	-47.7	-50.3	6.1	0.00e+00	0	31	104	3892314112	60	39872
2026-01-17 02:17:07.97	295.66	8.30	-47.7	-50.2	6.1	0.00e+00	0	31	104	3892314112	60	39414
2026-01-17 02:17:11.00	295.03	8.16	-47.7	-50.2	6.1	0.00e+00	0	31	104	3892314112	60	39599
2026-01-17 02:17:14.02	294.42	8.01	-47.7	-50.2	6.1	0.00e+00	0	31	104	3892314112	60	39644
2026-01-17 02:17:17.05	293.81	7.86	-47.7	-50.2	6.1	0.00e+00	0	31	104	3892314112	60	39526
2026-01-17 02:17:20.08	293.21	7.71	-47.6	-50.1	6.1	0.00e+00	0	31	104	3892314112	60	39257
2026-01-17 02:17:23.11	292.62	7.56	-47.7	-50.2	6.1	0.00e+00	0	31	104	3892314112	60	39443
2026-01-17 02:17:26.13	292.04	7.41	-47.6	-50.1	6.1	0.00e+00	0	31	104	3892314112	60	39146
2026-01-17 02:17:29.16	291.46	7.26	-47.6	-50.1	6.1	0.00e+00	0	31	104	3892314112	60	39057
2026-01-17 02:17:32.19	290.89	7.10	-47.5	-50.0	6.1	0.00e+00	0	31	104	3892314112	60	38924
2026-01-17 02:17:35.21	290.33	6.95	-47.6	-50.1	6.1	0.00e+00	0	31	104	3892314112	60	39041
2026-01-17 02:17:38.24	289.77	6.79	-47.6	-50.0	6.1	0.00e+00	0	31	104	3892314112	60	38892
2026-01-17 02:17:41.26	289.23	6.64	-47.5	-50.0	6.1	0.00e+00	0	31	104	3892314112	60	38782
2026-01-17 02:17:44.29	288.69	6.48	-47.4	-49.9	6.1	0.00e+00	0	31	104	3892314112	60	38432
2026-01-17 02:17:47.31	288.16	6.32	-47.5	-50.0	6.1	0.00e+00	0	32	104	3892314112	60	38679
2026-01-17 02:17:50.33	287.64	6.16	-47.5	-50.0	6.1	0.00e+00	0	31	104	3892314112	60	38714
2026-01-17 02:17:53.36	287.12	6.00	-47.4	-49.9	6.1	0.00e+00	0	32	104	3892314112	60	38219
2026-01-17 02:17:56.39	286.61	5.84	-47.3	-49.8	6.1	0.00e+00	0	32	104	3892314112	60	37937
2026-01-17 02:17:59.42	286.10	5.68	-47.4	-49.9	6.1	0.00e+00	0	32	104	3892314112	60	38293
2026-01-17 02:18:02.45	285.61	5.52	-47.4	-49.9	6.1	0.00e+00	0	32	104	3892314112	60	38172
2026-01-17 02:18:05.47	285.12	5.36	-47.3	-49.8	6.1	0.00e+00	0	32	104	3892314112	60	37853
2026-01-17 02:18:08.50	284.64	5.20	-47.2	-49.7	6.1	0.00e+00	0	32	104	3892314112	60	37513
2026-01-17 02:18:11.52	284.16	5.04	-47.3	-49.8	6.1	0.00e+00	0	32	104	3892314112	60	37722
2026-01-17 02:18:14.55	283.69	4.87	-47.3	-49.8	6.1	0.00e+00	0	32	104	3892314112	60	37719
2026-01-17 02:18:17.57	283.23	4.71	-47.2	-49.7	6.1	0.00e+00	0	32	104	3892314112	60	37321
2026-01-17 02:18:20.60	282.77	4.55	-47.1	-49.6	6.1	0.00e+00	0	32	104	3892314112	60	36852
2026-01-17 02:18:23.63	282.32	4.39	-47.1	-49.6	6.1	0.00e+00	0	32	104	3892314112	60	36884
2026-01-17 02:18:26.66	281.88	4.22	-47.2	-49.7	6.1	0.00e+00	0	32	104	3892314112	60	37357
2026-01-17 02:18:29.68	281.44	4.06	-47.1	-49.6	6.1	0.00e+00	0	32	104	3892314112	60	36944
2026-01-17 02:18:32.71	281.01	3.90	-47.0	-49.4	6.1	0.00e+00	0	32	104	3892314112	60	36196
2026-01-17 02:18:35.73	280.59	3.74	-46.9	-49.4	6.1	0.00e+00	0	32	104	3892314112	60	36243
2026-01-17 02:18:38.76	280.17	3.58	-47.0	-49.5	6.1	0.00e+00	0	32	104	3892314112	60	36519
2026-01-17 02:18:41.79	279.76	3.41	-46.9	-49.3	6.1	0.00e+00	0	32	104	3892314112	60	35916
2026-01-17 02:18:44.82	279.35	3.25	-46.7	-49.2	6.1	0.00e+00	0	32	104	3892314112	60	35306
2026-01-17 02:18:47.84	278.95	3.09	-46.6	-49.1	6.1	0.00e+00	0	32	104	3892314112	60	34938
2026-01-17 02:18:50.87	278.56	2.93	-47.8	-50.3	6.1	0.00e+00	0	32	104	3892314112	60	40172
2026-01-17 02:18:53.90	278.17	2.77	-48.4	-50.8	6.1	0.00e+00	0	32	104	3892314112	60	42667
2026-01-17 02:18:56.93	277.78	2.61	-48.5	-51.0	6.1	0.00e+00	0	32	104	3892314112	60	43391
2026-01-17 02:18:59.96	277.40	2.44	-48.1	-50.6	6.1	0.00e+00	0	32	104	3892314112	60	41558
2026-01-17 02:19:02.99	277.03	2.28	-48.0	-50.5	6.1	0.00e+00	0	32	104	3892314112	60	40982
2026-01-17 02:19:06.02	276.66	2.12	-48.2	-50.7	6.1	0.00e+00	0	32	104	3892314112	60	41968
2026-01-17 02:19:09.05	276.30	1.96	-48.3	-50.7	6.1	0.00e+00	0	32	104	3892314112	60	42142
2026-01-17 02:19:12.08	275.94	1.80	-48.2	-50.7	6.1	0.00e+00	0	32	104	3892314112	60	41979
2026-01-17 02:19:15.11	275.58	1.64	-48.2	-50.8	6.1	0.00e+00	0	32	104	3892314112	60	42267
2026-01-17 02:19:18.14	275.24	1.48	-48.2	-50.7	6.1	0.00e+00	0	32	104	3892314112	60	42105
2026-01-17 02:19:21.17	274.89	1.32	-48.2	-50.8	6.1	0.00e+00	0	32	104	3892314112	60	42289
2026-01-17 02:19:24.20	274.55	1.16	-48.2	-50.7	6.1	0.00e+00	0	32	104	3892314112	60	42109
2026-01-17 02:19:27.23	274.22	1.01	-48.3	-50.8	6.1	0.00e+00	0	32	104	3892314112	60	42255
2026-01-17 02:19:30.26	273.89	0.85	-48.2	-50.8	6.1	0.00e+00	0	32	104	3892314112	60	42251
2026-01-17 02:19:33.29	273.57	0.69	-48.2	-50.7	6.1	0.00e+00	0	32	104	3892314112	60	41986
2026-01-17 02:19:36.32	273.25	0.53	-48.2	-50.7	6.1	0.00e+00	0	32	104	3892314112	60	41982
2026-01-17 02:19:39.35	272.93	0.38	-48.3	-50.8	6.1	0.00e+00	0	32	104	3892314112	60	42708
2026-01-17 02:19:42.38	272.62	0.22	-48.3	-50.8	6.1	0.00e+00	0	32	104	3892314112	60	42456
2026-01-17 02:19:45.41	272.31	0.06	-48.3	-50.8	6.1	0.00e+00	0	32	104	3892314112	60	42428
2026-01-17 02:19:48.44	272.01	-0.09	-48.3	-50.8	6.1	0.00e+00	0	32	104	3892314112	60	42690

#Closed at: 2026-01-17 02:19:49
#Recorded file [3892 MB]: D:/lorett/data/35029_260117_141101.dat