passes_logs/2026/01/17/R4.6S_Anadyr/R4.6S_Anadyr__20260117_142736_NOAA_20_JPSS-1_rec.log

#Pass ID: 20260117_142736_NOAA 20 (JPSS-1)
#Satellite: NOAA 20 (JPSS-1)
#Configuration: NOAA 20
#almurnet v.1.7.20251203
#Start time: 2026-01-17 14:27:37

#Version: 2.2.20231116
#Station: R4.6S_Anadyr
#Location: 177.4865 lon 64.73178 lat
#TLE: 1 43013U 17073A   26016.52825843  .00000039  00000+0  39346-4 0  9991
#TLE: 2 43013  98.7637 317.4515 0001446  37.2648 322.8628 14.19536276422951

#Time	Az	El	Level	Level2	SNR	BER	BlckErr	Temp	State	Recorded	gain1	gain2
2026-01-17 14:27:37.42	20.01	0.04	-48.4	-63.4	3.5	1.51e+00	0	25	0	0	60	53427
2026-01-17 14:27:41.46	20.06	0.28	-48.6	-63.8	3.6	1.51e+00	0	26	104	0	60	55822
2026-01-17 14:27:45.50	20.11	0.53	-48.5	-63.7	3.6	1.51e+00	0	26	104	0	60	55515
2026-01-17 14:27:49.54	20.16	0.77	-48.2	-63.3	3.6	1.51e+00	0	26	104	0	60	52959
2026-01-17 14:27:53.59	20.21	1.02	-47.1	-62.2	3.6	1.51e+00	0	27	104	0	60	46341
2026-01-17 14:27:57.63	20.26	1.27	-47.0	-62.1	3.6	1.51e+00	0	27	104	0	60	45918
2026-01-17 14:28:01.67	20.31	1.52	-47.0	-62.1	3.6	1.51e+00	0	27	104	0	60	45967
2026-01-17 14:28:05.71	20.37	1.77	-47.0	-62.1	3.6	1.51e+00	0	27	104	0	60	46036
2026-01-17 14:28:09.76	20.42	2.03	-47.0	-62.1	3.6	1.51e+00	0	27	104	0	60	46121
2026-01-17 14:28:13.80	20.47	2.29	-46.9	-60.3	3.6	1.51e+00	0	27	104	0	60	37213
2026-01-17 14:28:17.84	20.53	2.55	-46.9	-59.7	3.7	1.50e+00	0	27	104	0	60	34836
2026-01-17 14:28:21.88	20.58	2.81	-46.4	-53.9	6.4	3.06e-01	68	27	0	2097152	60	17976
2026-01-17 14:28:25.92	20.64	3.07	-43.4	-46.1	15.3	3.80e-06	76	27	0	9437184	60	7330
2026-01-17 14:28:29.96	20.70	3.34	-41.8	-43.7	17.4	0.00e+00	0	27	0	17825792	56	6982
2026-01-17 14:28:34.01	20.75	3.61	-43.4	-46.2	14.8	0.00e+00	81	27	0	25165824	58	8270
2026-01-17 14:28:38.05	20.81	3.88	-46.9	-58.5	3.6	1.57e-02	0	27	104	32505856	60	30357
2026-01-17 14:28:42.09	20.87	4.16	-45.2	-49.5	11.6	6.32e-04	0	27	0	33554432	60	10844
2026-01-17 14:28:46.13	20.93	4.44	-43.3	-45.9	15.4	0.00e+00	0	27	0	41943040	60	7157
2026-01-17 14:28:50.16	20.99	4.72	-42.8	-45.1	16.1	0.00e+00	2	27	0	49283072	58	7322
2026-01-17 14:28:54.20	21.05	5.00	-43.1	-45.6	15.6	0.00e+00	92	27	0	56623104	58	7720
2026-01-17 14:28:58.24	21.11	5.29	-42.1	-44.0	17.5	0.00e+00	0	27	0	63963136	56	7181
2026-01-17 14:29:02.27	21.18	5.58	-41.1	-42.7	18.7	0.00e+00	81	27	0	71303168	56	6196
2026-01-17 14:29:06.31	21.24	5.88	-40.9	-42.5	19.1	0.00e+00	0	27	0	79691776	54	6784
2026-01-17 14:29:10.35	21.30	6.17	-40.3	-41.7	19.7	0.00e+00	92	27	0	87031808	54	6185
2026-01-17 14:29:14.38	21.37	6.47	-39.7	-40.9	20.6	0.00e+00	2	27	0	94371840	52	6374
2026-01-17 14:29:18.43	21.44	6.78	-39.8	-41.1	20.5	0.00e+00	77	27	0	101711872	52	6488
2026-01-17 14:29:22.47	21.50	7.08	-40.1	-41.5	20.1	0.00e+00	0	27	0	110100480	52	6780
2026-01-17 14:29:26.51	21.57	7.40	-39.4	-40.6	21.0	0.00e+00	90	27	0	117440512	52	6117
2026-01-17 14:29:30.55	21.64	7.71	-39.3	-40.5	21.1	0.00e+00	5	27	0	124780544	52	6044
2026-01-17 14:29:34.59	21.71	8.03	-39.4	-40.7	21.0	0.00e+00	3	27	0	132120576	52	6177
2026-01-17 14:29:38.63	21.79	8.35	-39.1	-40.2	21.4	0.00e+00	0	27	0	139460608	52	5877
2026-01-17 14:29:42.67	21.86	8.68	-39.2	-40.3	21.4	0.00e+00	92	27	0	147849216	52	5940
2026-01-17 14:29:46.71	21.93	9.01	-39.2	-40.3	21.5	0.00e+00	0	27	0	155189248	52	5956
2026-01-17 14:29:50.75	22.01	9.35	-38.8	-39.9	21.8	0.00e+00	6	27	0	162529280	52	5676
2026-01-17 14:29:54.80	22.09	9.69	-38.8	-39.8	21.9	0.00e+00	0	27	0	169869312	50	6305
2026-01-17 14:29:58.83	22.17	10.04	-38.7	-39.8	21.9	0.00e+00	92	27	0	178257920	50	6271
2026-01-17 14:30:02.87	22.25	10.39	-38.6	-39.6	22.1	0.00e+00	0	27	0	185597952	50	6148
2026-01-17 14:30:06.91	22.33	10.74	-38.5	-39.5	22.3	0.00e+00	0	27	0	192937984	50	6101
2026-01-17 14:30:10.95	22.41	11.10	-38.4	-39.5	22.4	0.00e+00	84	27	0	200278016	50	6038
2026-01-17 14:30:14.98	22.50	11.47	-38.7	-39.7	22.3	0.00e+00	7	27	0	207618048	50	6210
2026-01-17 14:30:19.02	22.58	11.84	-38.4	-39.4	22.6	0.00e+00	1	27	0	216006656	50	5996
2026-01-17 14:30:23.06	22.67	12.22	-38.1	-39.1	22.8	0.00e+00	74	27	0	223346688	50	5770
2026-01-17 14:30:27.10	22.76	12.60	-37.9	-38.8	23.0	0.00e+00	92	27	0	230686720	48	6312
2026-01-17 14:30:31.14	22.85	12.99	-37.7	-38.6	23.2	0.00e+00	0	27	0	238026752	48	6167
2026-01-17 14:30:35.17	22.95	13.38	-37.7	-38.6	23.2	0.00e+00	0	27	0	246415360	48	6154
2026-01-17 14:30:39.21	23.04	13.78	-37.7	-38.6	23.3	0.00e+00	7	27	0	253755392	48	6143
2026-01-17 14:30:43.25	23.14	14.19	-37.7	-38.6	23.3	0.00e+00	92	27	0	261095424	48	6134
2026-01-17 14:30:47.29	23.24	14.61	-37.7	-38.6	23.4	0.00e+00	2	27	0	268435456	48	6126
2026-01-17 14:30:51.33	23.34	15.03	-37.8	-38.8	23.2	0.00e+00	0	27	0	275775488	48	6263
2026-01-17 14:30:55.37	23.45	15.46	-37.9	-38.9	23.1	0.00e+00	6	27	0	284164096	48	6333
2026-01-17 14:30:59.41	23.56	15.90	-38.1	-39.1	22.9	0.00e+00	91	27	0	291504128	48	6496
2026-01-17 14:31:03.45	23.67	16.34	-38.2	-39.2	22.8	0.00e+00	74	27	0	298844160	48	6550
2026-01-17 14:31:07.49	23.78	16.80	-38.5	-39.5	22.7	0.00e+00	0	27	0	306184192	48	6807
2026-01-17 14:31:11.53	23.90	17.26	-38.6	-39.6	22.5	0.00e+00	0	27	0	314572800	48	6874
2026-01-17 14:31:15.57	24.02	17.73	-38.6	-39.6	22.5	0.00e+00	91	27	0	321912832	50	6167
2026-01-17 14:31:19.62	24.14	18.21	-38.9	-39.9	22.2	0.00e+00	80	27	0	329252864	50	6366
2026-01-17 14:31:23.65	24.27	18.70	-38.9	-40.0	22.2	0.00e+00	86	27	0	336592896	50	6426
2026-01-17 14:31:27.69	24.40	19.20	-39.0	-40.1	22.1	0.00e+00	12	27	0	343932928	50	6481
2026-01-17 14:31:31.72	24.53	19.71	-39.0	-40.1	22.1	0.00e+00	71	27	0	352321536	50	6503
2026-01-17 14:31:35.76	24.67	20.23	-39.2	-40.2	22.1	0.00e+00	7	27	0	359661568	50	6599
2026-01-17 14:31:39.80	24.81	20.76	-39.0	-40.1	22.2	0.00e+00	78	27	0	367001600	50	6501
2026-01-17 14:31:43.85	24.96	21.31	-39.1	-40.1	22.2	0.00e+00	92	27	0	374341632	50	6504
2026-01-17 14:31:47.89	25.11	21.86	-38.9	-40.0	22.3	0.00e+00	0	27	0	382730240	50	6419
2026-01-17 14:31:51.92	25.26	22.43	-38.9	-40.0	22.3	0.00e+00	0	27	0	390070272	50	6407
2026-01-17 14:31:55.96	25.42	23.01	-38.8	-39.8	22.5	0.00e+00	2	27	0	397410304	50	6264
2026-01-17 14:32:00.00	25.59	23.60	-38.6	-39.5	22.6	0.00e+00	91	27	0	404750336	50	6103
2026-01-17 14:32:04.04	25.76	24.21	-38.5	-39.5	22.7	0.00e+00	74	27	0	412090368	50	6036
2026-01-17 14:32:08.08	25.94	24.83	-38.6	-39.6	22.7	0.00e+00	0	27	0	420478976	50	6115
2026-01-17 14:32:12.11	26.12	25.46	-38.4	-39.4	22.9	0.00e+00	0	27	0	427819008	50	5973
2026-01-17 14:32:16.15	26.32	26.11	-38.7	-39.7	22.6	0.00e+00	92	27	0	435159040	50	6216
2026-01-17 14:32:20.19	26.52	26.78	-39.0	-40.0	22.3	0.00e+00	74	27	0	442499072	50	6418
2026-01-17 14:32:24.23	26.72	27.46	-39.2	-40.3	22.0	0.00e+00	10	27	0	450887680	50	6644
2026-01-17 14:32:28.27	26.94	28.16	-39.6	-40.7	21.6	0.00e+00	0	27	0	458227712	50	6959
2026-01-17 14:32:32.31	27.16	28.88	-39.7	-40.8	21.5	0.00e+00	92	27	0	465567744	50	7069
2026-01-17 14:32:36.35	27.40	29.62	-40.3	-41.5	21.0	0.00e+00	10	27	0	472907776	52	6843
2026-01-17 14:32:40.39	27.64	30.38	-40.6	-41.9	20.4	0.00e+00	11	27	0	480247808	54	6385
2026-01-17 14:32:44.43	27.90	31.15	-40.8	-42.1	20.5	0.00e+00	80	27	0	488636416	54	6493
2026-01-17 14:32:48.47	28.17	31.95	-40.1	-41.3	21.2	0.00e+00	92	27	0	495976448	54	5924
2026-01-17 14:32:52.50	28.45	32.76	-40.0	-41.2	21.2	0.00e+00	0	28	0	503316480	54	5875
2026-01-17 14:32:56.54	28.74	33.60	-39.9	-41.0	21.4	0.00e+00	11	27	0	510656512	52	6448
2026-01-17 14:33:00.58	29.05	34.47	-39.3	-40.3	22.1	0.00e+00	0	28	0	519045120	52	5957
2026-01-17 14:33:04.61	29.37	35.35	-39.1	-40.1	22.2	0.00e+00	92	27	0	526385152	52	5828
2026-01-17 14:33:08.65	29.71	36.26	-38.8	-39.8	22.5	0.00e+00	77	27	0	533725184	50	6313
2026-01-17 14:33:12.69	30.08	37.20	-39.2	-40.3	22.1	0.00e+00	6	28	0	541065216	50	6645
2026-01-17 14:33:16.73	30.46	38.16	-39.3	-40.4	22.0	0.00e+00	86	27	0	548405248	50	6728
2026-01-17 14:33:20.77	30.86	39.15	-39.7	-40.8	21.6	0.00e+00	11	28	0	556793856	50	7067
2026-01-17 14:33:24.81	31.29	40.17	-40.4	-41.6	20.8	0.00e+00	70	28	0	564133888	52	6878
2026-01-17 14:33:28.85	31.75	41.22	-40.2	-41.4	21.2	0.00e+00	70	27	0	571473920	54	5987
2026-01-17 14:33:32.89	32.23	42.29	-40.0	-41.2	21.3	0.00e+00	92	28	0	578813952	54	5864
2026-01-17 14:33:36.92	32.75	43.39	-40.0	-41.2	21.0	0.00e+00	46	27	0	587202560	52	6540
2026-01-17 14:33:40.96	33.31	44.53	-39.8	-40.9	21.6	0.00e+00	12	27	0	594542592	52	6376
2026-01-17 14:33:45.00	33.90	45.70	-40.2	-41.4	21.1	0.00e+00	11	28	0	601882624	52	6748
2026-01-17 14:33:49.04	34.54	46.89	-41.1	-42.4	20.1	0.00e+00	91	27	0	609222656	54	6739
2026-01-17 14:33:53.08	35.23	48.12	-40.8	-42.1	20.5	0.00e+00	72	27	0	616562688	54	6509
2026-01-17 14:33:57.12	35.98	49.38	-39.1	-40.1	22.5	0.00e+00	0	28	0	624951296	52	5789
2026-01-17 14:34:01.16	36.79	50.67	-37.7	-38.6	23.6	0.00e+00	2	27	0	632291328	50	5497
2026-01-17 14:34:05.20	37.67	51.99	-36.4	-37.2	24.8	0.00e+00	92	28	0	639631360	46	5839
2026-01-17 14:34:09.24	38.64	53.34	-35.5	-36.3	25.6	0.00e+00	13	27	0	646971392	44	5921
2026-01-17 14:34:13.27	39.69	54.72	-35.0	-35.8	26.0	0.00e+00	0	28	0	655360000	44	5588
2026-01-17 14:34:17.32	40.86	56.13	-36.5	-37.4	24.8	0.00e+00	0	28	0	662700032	44	6703
2026-01-17 14:34:21.36	42.15	57.56	-36.5	-37.3	24.7	0.00e+00	90	28	0	670040064	46	5948
2026-01-17 14:34:25.40	43.58	59.01	-35.5	-36.2	25.7	0.00e+00	72	28	0	677380096	44	5896
2026-01-17 14:34:29.44	45.18	60.48	-34.5	-35.2	26.4	0.00e+00	0	28	0	684720128	42	5869
2026-01-17 14:34:33.48	46.97	61.96	-34.2	-34.9	26.6	0.00e+00	76	27	0	693108736	42	5654
2026-01-17 14:34:37.52	48.99	63.45	-35.1	-35.8	26.0	0.00e+00	92	28	0	700448768	42	6283
2026-01-17 14:34:41.56	51.29	64.94	-35.3	-36.0	25.7	0.00e+00	7	27	0	707788800	42	6454
2026-01-17 14:34:45.60	53.90	66.41	-38.5	-39.5	22.8	0.00e+00	12	28	0	715128832	48	6807
2026-01-17 14:34:49.64	56.89	67.87	-39.4	-40.5	22.0	0.00e+00	92	28	0	723517440	50	6770
2026-01-17 14:34:53.68	60.33	69.28	-38.6	-39.5	23.0	0.00e+00	75	28	0	730857472	50	6084
2026-01-17 14:34:57.72	64.31	70.63	-39.0	-40.1	22.2	0.00e+00	8	28	0	738197504	50	6491
2026-01-17 14:35:01.76	68.90	71.90	-40.1	-41.3	21.3	0.00e+00	7	27	0	745537536	52	6677
2026-01-17 14:35:05.80	74.18	73.06	-39.3	-40.4	22.1	0.00e+00	90	27	0	752877568	52	5968
2026-01-17 14:35:09.83	80.21	74.07	-39.7	-40.8	21.6	0.00e+00	68	28	0	761266176	52	6316
2026-01-17 14:35:13.87	87.03	74.89	-39.0	-40.0	22.5	0.00e+00	0	27	0	768606208	52	5740
2026-01-17 14:35:17.91	94.54	75.50	-38.7	-39.7	22.8	0.00e+00	0	27	0	775946240	50	6232
2026-01-17 14:35:21.95	102.59	75.85	-39.5	-40.6	21.8	0.00e+00	92	27	0	783286272	50	6869
2026-01-17 14:35:25.98	110.87	75.91	-39.4	-40.4	21.9	0.00e+00	0	28	0	791674880	52	6029
2026-01-17 14:35:30.03	119.10	75.70	-40.5	-41.7	20.9	0.00e+00	6	27	0	799014912	54	6181
2026-01-17 14:35:34.06	126.88	75.22	-41.5	-42.9	19.7	0.00e+00	0	28	0	806354944	56	6357
2026-01-17 14:35:38.10	134.06	74.49	-41.1	-42.5	20.3	0.00e+00	92	28	0	813694976	56	6047
2026-01-17 14:35:42.14	140.48	73.56	-40.2	-41.4	21.2	0.00e+00	13	28	0	821035008	54	5997
2026-01-17 14:35:46.18	146.13	72.47	-39.1	-40.1	22.4	0.00e+00	0	28	0	829423616	52	5816
2026-01-17 14:35:50.21	151.04	71.25	-38.2	-39.2	23.3	0.00e+00	79	28	0	836763648	50	5852
2026-01-17 14:35:54.25	155.30	69.93	-38.6	-39.6	22.7	0.00e+00	92	28	0	844103680	48	6914
2026-01-17 14:35:58.29	158.99	68.55	-39.8	-41.0	21.5	0.00e+00	0	27	0	851443712	52	6441
2026-01-17 14:36:02.34	162.20	67.11	-39.4	-40.5	21.9	0.00e+00	0	28	0	859832320	50	6799
2026-01-17 14:36:06.37	164.99	65.64	-37.1	-37.9	24.4	0.00e+00	2	28	0	867172352	48	5667
2026-01-17 14:36:10.41	167.43	64.16	-35.2	-35.9	25.8	0.00e+00	92	28	0	874512384	44	5690
2026-01-17 14:36:14.43	169.57	62.67	-34.2	-34.9	26.6	0.00e+00	71	28	0	881852416	42	5668
2026-01-17 14:36:18.46	171.46	61.19	-35.4	-36.2	25.7	0.00e+00	0	27	0	889192448	42	6549
2026-01-17 14:36:22.50	173.15	59.71	-37.2	-38.0	24.1	0.00e+00	89	28	0	897581056	46	6448
2026-01-17 14:36:26.54	174.66	58.24	-39.1	-40.1	22.3	0.00e+00	6	28	0	904921088	50	6511
2026-01-17 14:36:30.58	176.02	56.80	-38.5	-39.5	22.8	0.00e+00	82	28	0	912261120	50	6074
2026-01-17 14:36:34.62	177.24	55.37	-36.7	-37.5	24.5	0.00e+00	0	28	0	919601152	46	6067
2026-01-17 14:36:38.66	178.35	53.98	-35.6	-36.4	25.5	0.00e+00	92	27	0	927989760	44	5966
2026-01-17 14:36:42.70	179.36	52.61	-35.5	-36.3	25.5	0.00e+00	0	28	0	935329792	44	5912
2026-01-17 14:36:46.75	180.29	51.26	-40.1	-41.3	21.2	0.00e+00	7	28	0	942669824	52	6676
2026-01-17 14:36:50.79	181.13	49.95	-42.4	-44.1	18.6	0.00e+00	9	27	0	950009856	56	7333
2026-01-17 14:36:54.82	181.90	48.68	-41.6	-43.0	19.7	0.00e+00	91	28	0	957349888	56	6439
2026-01-17 14:36:58.86	182.62	47.43	-39.9	-41.0	21.5	0.00e+00	71	27	0	965738496	54	5729
2026-01-17 14:37:02.89	183.28	46.22	-40.1	-41.3	21.0	0.00e+00	2	28	0	973078528	52	6674
2026-01-17 14:37:06.94	183.90	45.03	-38.9	-40.0	22.6	0.00e+00	3	28	0	980418560	52	5720
2026-01-17 14:37:10.98	184.48	43.88	-36.5	-37.3	24.8	0.00e+00	92	27	0	987758592	46	5897
2026-01-17 14:37:15.02	185.01	42.75	-39.4	-40.6	21.9	0.00e+00	0	28	0	996147200	50	6857
2026-01-17 14:37:19.06	185.51	41.66	-37.5	-38.4	24.1	0.00e+00	74	27	0	1003487232	48	5976
2026-01-17 14:37:23.09	185.98	40.60	-37.0	-37.9	24.2	0.00e+00	0	27	0	1010827264	46	6347
2026-01-17 14:37:27.13	186.42	39.56	-40.1	-41.4	21.1	0.00e+00	92	27	0	1018167296	52	6744
2026-01-17 14:37:31.17	186.84	38.56	-38.1	-39.0	23.5	0.00e+00	0	27	0	1025507328	50	5717
2026-01-17 14:37:35.21	187.23	37.58	-38.1	-39.1	23.3	0.00e+00	3	27	0	1033895936	48	6477
2026-01-17 14:37:39.24	187.60	36.63	-40.6	-41.9	20.7	0.00e+00	0	27	0	1041235968	52	7170
2026-01-17 14:37:43.27	187.95	35.70	-39.1	-40.1	22.3	0.00e+00	92	27	0	1048576000	52	5812
2026-01-17 14:37:47.31	188.28	34.80	-38.6	-39.6	22.8	0.00e+00	0	27	0	1055916032	50	6112
2026-01-17 14:37:51.35	188.60	33.93	-39.5	-40.6	21.9	0.00e+00	7	28	0	1064304640	50	6905
2026-01-17 14:37:55.39	188.90	33.07	-41.1	-42.5	20.0	0.00e+00	2	27	0	1071644672	54	6802
2026-01-17 14:37:59.43	189.18	32.24	-40.6	-41.9	20.7	0.00e+00	91	28	0	1078984704	54	6373
2026-01-17 14:38:03.45	189.45	31.43	-40.3	-41.5	21.0	0.00e+00	0	28	0	1086324736	54	6099
2026-01-17 14:38:07.49	189.71	30.65	-40.0	-41.2	21.4	0.00e+00	7	27	0	1093664768	54	5837
2026-01-17 14:38:11.53	189.96	29.88	-39.1	-40.1	22.4	0.00e+00	83	27	0	1102053376	52	5820
2026-01-17 14:38:15.56	190.20	29.13	-38.4	-39.4	22.9	0.00e+00	92	27	0	1109393408	50	5998
2026-01-17 14:38:19.60	190.42	28.40	-38.4	-39.4	23.0	0.00e+00	82	28	0	1116733440	50	5978
2026-01-17 14:38:23.64	190.64	27.69	-38.1	-39.1	23.1	0.00e+00	0	27	0	1124073472	50	5777
2026-01-17 14:38:27.67	190.85	27.00	-37.4	-38.3	23.8	0.00e+00	92	27	0	1132462080	48	5950
2026-01-17 14:38:31.71	191.05	26.32	-37.4	-38.3	23.8	0.00e+00	92	27	0	1139802112	48	5950
2026-01-17 14:38:35.75	191.25	25.66	-37.6	-38.5	23.7	0.00e+00	0	28	0	1147142144	48	6052
2026-01-17 14:38:39.79	191.43	25.02	-37.6	-38.5	23.6	0.00e+00	77	28	0	1154482176	48	6087
2026-01-17 14:38:43.83	191.61	24.39	-37.2	-38.1	24.1	0.00e+00	92	27	0	1161822208	48	5785
2026-01-17 14:38:47.87	191.79	23.77	-36.7	-37.5	24.4	0.00e+00	12	27	0	1170210816	46	6057
2026-01-17 14:38:51.91	191.96	23.17	-36.5	-37.3	24.7	0.00e+00	2	28	0	1177550848	46	5934
2026-01-17 14:38:55.95	192.12	22.58	-36.4	-37.2	24.7	0.00e+00	0	27	0	1184890880	46	5871
2026-01-17 14:38:59.99	192.27	22.01	-36.7	-37.5	24.5	0.00e+00	92	28	0	1192230912	46	6061
2026-01-17 14:39:04.03	192.42	21.45	-37.0	-37.8	24.2	0.00e+00	82	28	0	1200619520	46	6291
2026-01-17 14:39:08.07	192.57	20.90	-37.0	-37.9	24.2	0.00e+00	0	27	0	1207959552	46	6352
2026-01-17 14:39:12.11	192.71	20.36	-37.1	-37.9	24.1	0.00e+00	0	27	0	1215299584	46	6368
2026-01-17 14:39:16.15	192.85	19.83	-37.1	-38.0	24.1	0.00e+00	92	27	0	1222639616	46	6403
2026-01-17 14:39:20.19	192.98	19.31	-37.0	-37.9	24.2	0.00e+00	77	27	0	1229979648	46	6350
2026-01-17 14:39:24.23	193.11	18.81	-37.1	-38.0	24.1	0.00e+00	0	27	0	1238368256	46	6399
2026-01-17 14:39:28.27	193.24	18.31	-37.5	-38.4	23.8	0.00e+00	68	27	0	1245708288	46	6711
2026-01-17 14:39:32.31	193.36	17.82	-37.6	-38.5	23.5	0.00e+00	90	27	0	1253048320	46	6808
2026-01-17 14:39:36.35	193.48	17.35	-37.7	-38.6	23.5	0.00e+00	0	27	0	1260388352	48	6128
2026-01-17 14:39:40.39	193.60	16.88	-37.6	-38.5	23.5	0.00e+00	2	28	0	1268776960	48	6062
2026-01-17 14:39:44.42	193.71	16.42	-37.6	-38.5	23.5	0.00e+00	92	28	0	1276116992	48	6071
2026-01-17 14:39:48.46	193.82	15.97	-37.7	-38.6	23.4	0.00e+00	92	27	0	1283457024	48	6172
2026-01-17 14:39:52.50	193.92	15.53	-37.7	-38.6	23.4	0.00e+00	5	27	0	1290797056	48	6142
2026-01-17 14:39:56.54	194.03	15.09	-37.7	-38.6	23.4	0.00e+00	0	27	0	1298137088	48	6170
2026-01-17 14:40:00.58	194.13	14.67	-38.0	-38.9	23.2	0.00e+00	92	27	0	1306525696	48	6352
2026-01-17 14:40:04.62	194.23	14.25	-37.9	-38.8	23.2	0.00e+00	0	27	0	1313865728	48	6307
2026-01-17 14:40:08.66	194.33	13.83	-38.0	-38.9	23.1	0.00e+00	85	27	0	1321205760	48	6390
2026-01-17 14:40:12.70	194.42	13.43	-37.9	-38.9	23.2	0.00e+00	7	27	0	1328545792	48	6334
2026-01-17 14:40:16.73	194.51	13.03	-38.1	-39.0	23.0	0.00e+00	92	28	0	1336934400	48	6449
2026-01-17 14:40:20.77	194.60	12.64	-38.0	-39.0	23.0	0.00e+00	80	27	0	1344274432	48	6399
2026-01-17 14:40:24.81	194.69	12.25	-38.2	-39.2	22.8	0.00e+00	81	27	0	1351614464	48	6548
2026-01-17 14:40:28.85	194.78	11.87	-38.3	-39.3	22.7	0.00e+00	80	28	0	1358954496	48	6655
2026-01-17 14:40:32.89	194.86	11.49	-38.4	-39.4	22.6	0.00e+00	92	28	0	1366294528	50	5984
2026-01-17 14:40:36.93	194.94	11.12	-38.5	-39.5	22.5	0.00e+00	0	28	0	1374683136	50	6070
2026-01-17 14:40:40.97	195.03	10.76	-38.5	-39.5	22.5	0.00e+00	0	28	0	1382023168	50	6072
2026-01-17 14:40:45.01	195.11	10.40	-39.1	-40.2	21.8	0.00e+00	78	27	0	1389363200	50	6546
2026-01-17 14:40:49.05	195.18	10.05	-38.8	-39.9	22.1	0.00e+00	92	28	0	1396703232	50	6346
2026-01-17 14:40:53.08	195.26	9.70	-38.8	-39.8	22.1	0.00e+00	0	28	0	1404043264	50	6312
2026-01-17 14:40:57.12	195.33	9.35	-38.8	-39.9	22.1	0.00e+00	0	28	0	1412431872	50	6321
2026-01-17 14:41:01.16	195.41	9.02	-38.8	-39.8	22.1	0.00e+00	2	28	0	1419771904	50	6312
2026-01-17 14:41:05.20	195.48	8.68	-38.7	-39.7	22.2	0.00e+00	92	28	0	1427111936	50	6243
2026-01-17 14:41:09.24	195.55	8.35	-38.8	-39.9	22.0	0.00e+00	81	27	0	1434451968	50	6339
2026-01-17 14:41:13.28	195.62	8.02	-38.9	-40.0	21.9	0.00e+00	0	28	0	1442840576	50	6421
2026-01-17 14:41:17.31	195.69	7.70	-39.0	-40.1	21.7	0.00e+00	85	28	0	1450180608	50	6494
2026-01-17 14:41:21.35	195.75	7.39	-38.8	-39.9	22.0	0.00e+00	82	27	0	1457520640	50	6359
2026-01-17 14:41:25.39	195.82	7.07	-38.9	-40.0	21.7	0.00e+00	81	28	0	1464860672	50	6426
2026-01-17 14:41:29.43	195.88	6.76	-39.5	-40.7	21.1	0.00e+00	0	28	0	1472200704	50	6961
2026-01-17 14:41:33.46	195.95	6.46	-39.8	-41.0	20.8	0.00e+00	91	28	0	1480589312	52	6462
2026-01-17 14:41:37.50	196.01	6.15	-39.0	-40.1	21.4	0.00e+00	92	27	0	1487929344	52	5816
2026-01-17 14:41:41.54	196.07	5.85	-38.9	-40.0	21.7	0.00e+00	0	28	0	1495269376	52	5741
2026-01-17 14:41:45.58	196.13	5.56	-39.0	-40.1	21.4	0.00e+00	5	28	0	1502609408	52	5815
2026-01-17 14:41:49.62	196.19	5.26	-39.6	-40.8	20.8	0.00e+00	92	27	0	1510998016	52	6292
2026-01-17 14:41:53.66	196.25	4.97	-39.6	-40.8	20.7	0.00e+00	0	28	0	1518338048	52	6303
2026-01-17 14:41:57.70	196.31	4.69	-39.9	-41.2	20.4	0.00e+00	0	27	0	1525678080	52	6565
2026-01-17 14:42:01.74	196.37	4.40	-39.9	-41.2	20.3	0.00e+00	0	27	0	1533018112	52	6563
2026-01-17 14:42:05.78	196.42	4.12	-39.9	-41.2	20.2	0.00e+00	91	27	0	1540358144	52	6598
2026-01-17 14:42:09.82	196.48	3.85	-40.0	-41.4	20.2	0.00e+00	0	27	0	1548746752	52	6704
2026-01-17 14:42:13.86	196.53	3.57	-40.2	-41.6	19.7	0.00e+00	81	27	0	1556086784	52	6889
2026-01-17 14:42:17.90	196.58	3.30	-39.6	-40.9	20.5	0.00e+00	0	27	0	1563426816	52	6337
2026-01-17 14:42:21.94	196.64	3.03	-40.8	-42.3	19.0	0.00e+00	90	27	0	1570766848	54	6688
2026-01-17 14:42:25.98	196.69	2.76	-48.4	-63.6	3.6	1.51e+00	0	28	104	1571815424	60	54479
2026-01-17 14:42:30.02	196.74	2.50	-48.5	-63.8	3.6	1.51e+00	0	28	104	1571815424	60	55903
2026-01-17 14:42:34.06	196.79	2.24	-48.5	-63.7	3.6	1.51e+00	0	28	104	1571815424	60	55580
2026-01-17 14:42:38.10	196.84	1.98	-48.6	-63.8	3.6	1.51e+00	0	28	104	1571815424	60	56278
2026-01-17 14:42:42.15	196.89	1.72	-48.5	-63.7	3.6	1.51e+00	0	28	104	1571815424	60	55187
2026-01-17 14:42:46.19	196.94	1.46	-48.5	-63.7	3.6	1.51e+00	0	28	104	1571815424	60	55362
2026-01-17 14:42:50.23	196.99	1.21	-48.5	-63.7	3.6	1.51e+00	0	28	104	1571815424	60	55522
2026-01-17 14:42:54.27	197.04	0.96	-48.5	-63.7	3.6	1.51e+00	0	28	104	1571815424	60	55308
2026-01-17 14:42:58.31	197.08	0.71	-48.5	-63.7	3.6	1.51e+00	0	28	104	1571815424	60	55192
2026-01-17 14:43:02.35	197.13	0.47	-48.5	-63.7	3.6	1.51e+00	0	28	104	1571815424	60	55155
2026-01-17 14:43:06.39	197.18	0.22	-48.5	-63.7	3.6	1.51e+00	0	28	104	1571815424	60	55361
2026-01-17 14:43:10.43	197.22	-0.02	-48.5	-63.7	3.6	1.51e+00	0	28	104	1571815424	60	55155

#Closed at: 2026-01-17 14:43:12
#Recorded file [1571 MB]: D:/lorett/data/35029_260118_022737.dat