passes_logs/2026/01/17/R4.6S_Anadyr/R4.6S_Anadyr__20260117_182612_FENGYUN_3D_rec.log

#Pass ID: 20260117_182612_FENGYUN 3D
#Satellite: FENGYUN 3D
#Configuration: FENGYUN 3D
#almurnet v.1.7.20251203
#Start time: 2026-01-17 18:26:14

#Version: 2.2.20231116
#Station: R4.6S_Anadyr
#Location: 177.4865 lon 64.73178 lat
#TLE: 1 43010U 17072A   26016.62453405 -.00000112  00000+0 -31355-4 0  9995
#TLE: 2 43010  98.9932 348.4654 0002369 105.3910 254.7528 14.19694900423480

#Time	Az	El	Level	Level2	SNR	BER	BlckErr	Temp	State	Recorded	gain1	gain2
2026-01-17 18:26:14.73	26.23	0.15	-48.7	-63.6	3.5	1.51e+00	0	27	0	0	60	54833
2026-01-17 18:26:18.76	26.08	0.38	-48.8	-60.9	3.6	8.46e-01	0	28	104	0	60	40004
2026-01-17 18:26:22.80	25.92	0.61	-48.7	-60.8	3.6	8.45e-01	0	28	104	0	60	39660
2026-01-17 18:26:26.84	25.76	0.85	-48.3	-60.4	3.6	8.46e-01	0	28	104	0	60	37932
2026-01-17 18:26:30.88	25.60	1.09	-47.2	-59.1	3.6	8.45e-01	0	28	104	0	60	32576
2026-01-17 18:26:34.92	25.44	1.33	-47.2	-59.3	3.6	8.46e-01	0	28	104	0	60	33409
2026-01-17 18:26:38.96	25.27	1.57	-47.2	-59.1	3.6	8.45e-01	0	28	104	0	60	32448
2026-01-17 18:26:43.01	25.11	1.81	-47.2	-59.3	3.6	8.46e-01	0	28	104	0	60	33473
2026-01-17 18:26:47.05	24.93	2.05	-47.2	-58.8	3.6	8.45e-01	0	29	104	0	60	31606
2026-01-17 18:26:51.09	24.76	2.30	-47.2	-59.3	3.6	8.46e-01	0	29	104	0	60	33502
2026-01-17 18:26:55.13	24.58	2.55	-47.2	-59.1	3.6	8.44e-01	0	29	104	0	60	32424
2026-01-17 18:26:59.17	24.40	2.80	-47.1	-58.0	3.6	8.45e-01	0	29	104	0	60	28761
2026-01-17 18:27:03.21	24.21	3.05	-47.2	-59.0	3.6	8.46e-01	0	29	104	0	60	32164
2026-01-17 18:27:07.25	24.03	3.30	-44.1	-46.9	11.0	4.58e-03	0	29	0	10485760	60	8027
2026-01-17 18:27:11.29	23.83	3.56	-41.4	-43.0	15.3	0.00e+00	0	29	0	33554432	56	6434
2026-01-17 18:27:15.33	23.64	3.82	-45.0	-48.1	11.3	6.50e-01	0	29	0	54525952	60	9231
2026-01-17 18:27:19.37	23.44	4.08	-36.3	-37.2	21.3	0.00e+00	0	29	0	66060288	46	5864
2026-01-17 18:27:23.41	23.24	4.34	-35.9	-36.7	21.6	0.00e+00	0	29	0	88080384	46	5565
2026-01-17 18:27:27.44	23.03	4.60	-36.1	-36.9	21.5	0.00e+00	0	29	0	111149056	46	5692
2026-01-17 18:27:31.48	22.82	4.87	-35.7	-36.6	21.9	0.00e+00	0	29	0	134217728	44	6104
2026-01-17 18:27:35.52	22.60	5.14	-35.9	-36.7	21.8	0.00e+00	0	29	0	156237824	44	6224
2026-01-17 18:27:39.56	22.38	5.41	-35.3	-36.1	22.4	0.00e+00	0	29	0	179306496	44	5816
2026-01-17 18:27:43.60	22.16	5.69	-35.3	-36.1	22.5	0.00e+00	0	29	0	202375168	44	5765
2026-01-17 18:27:47.64	21.93	5.96	-35.1	-35.9	22.8	0.00e+00	0	29	0	224395264	44	5660
2026-01-17 18:27:51.68	21.69	6.24	-34.9	-35.6	22.9	0.00e+00	0	29	0	247463936	44	5482
2026-01-17 18:27:55.72	21.46	6.52	-34.9	-35.6	23.0	0.00e+00	0	29	0	270532608	42	6157
2026-01-17 18:27:59.76	21.21	6.81	-34.9	-35.6	23.1	0.00e+00	0	29	0	292552704	42	6145
2026-01-17 18:28:03.80	20.96	7.09	-34.9	-35.7	23.0	0.00e+00	0	29	0	315621376	42	6192
2026-01-17 18:28:07.84	20.71	7.38	-35.0	-35.8	23.1	0.00e+00	0	29	0	338690048	42	6266
2026-01-17 18:28:11.88	20.45	7.67	-34.8	-35.6	23.1	0.00e+00	0	29	0	360710144	42	6159
2026-01-17 18:28:15.93	20.18	7.97	-34.8	-35.6	23.3	0.00e+00	0	29	0	383778816	42	6112
2026-01-17 18:28:19.97	19.91	8.27	-34.7	-35.4	23.3	0.00e+00	0	29	0	406847488	42	6011
2026-01-17 18:28:24.01	19.64	8.57	-34.5	-35.3	23.6	0.00e+00	0	29	0	428867584	42	5905
2026-01-17 18:28:28.06	19.35	8.87	-34.4	-35.1	23.7	0.00e+00	0	29	0	451936256	42	5804
2026-01-17 18:28:32.10	19.06	9.18	-34.2	-34.9	24.0	0.00e+00	0	29	0	475004928	42	5677
2026-01-17 18:28:36.14	18.77	9.49	-34.1	-34.8	24.1	0.00e+00	0	29	0	498073600	42	5568
2026-01-17 18:28:40.18	18.46	9.80	-34.0	-34.7	24.1	0.00e+00	0	29	0	520093696	42	5534
2026-01-17 18:28:44.22	18.16	10.11	-34.1	-34.8	24.1	0.00e+00	0	29	0	543162368	42	5598
2026-01-17 18:28:48.26	17.84	10.43	-34.0	-34.7	24.2	0.00e+00	0	29	0	566231040	42	5530
2026-01-17 18:28:52.30	17.52	10.76	-33.8	-34.5	24.3	0.00e+00	0	29	0	588251136	40	6079
2026-01-17 18:28:56.35	17.18	11.08	-33.7	-34.4	24.4	0.00e+00	0	29	0	611319808	40	6000
2026-01-17 18:29:00.38	16.84	11.41	-33.9	-34.6	24.3	0.00e+00	0	29	0	633339904	40	6122
2026-01-17 18:29:04.42	16.50	11.74	-33.8	-34.4	24.4	0.00e+00	0	29	0	656408576	40	6033
2026-01-17 18:29:08.47	16.14	12.08	-33.7	-34.3	24.6	0.00e+00	0	29	0	679477248	40	5964
2026-01-17 18:29:12.51	15.78	12.42	-33.4	-34.1	24.8	0.00e+00	0	29	0	702545920	40	5784
2026-01-17 18:29:16.55	15.40	12.76	-33.3	-34.0	24.9	0.00e+00	0	29	0	724566016	40	5743
2026-01-17 18:29:20.59	15.02	13.11	-33.5	-34.2	24.8	0.00e+00	0	29	0	747634688	40	5847
2026-01-17 18:29:24.63	14.63	13.46	-32.9	-33.6	25.3	0.00e+00	0	29	0	770703360	40	5441
2026-01-17 18:29:28.67	14.23	13.81	-33.1	-33.8	25.0	0.00e+00	0	29	0	792723456	40	5594
2026-01-17 18:29:32.71	13.82	14.17	-33.0	-33.7	25.2	0.00e+00	0	29	0	815792128	40	5560
2026-01-17 18:29:36.75	13.39	14.53	-33.0	-33.6	25.2	0.00e+00	0	29	0	838860800	40	5499
2026-01-17 18:29:40.79	12.96	14.89	-32.9	-33.6	25.3	0.00e+00	0	29	0	860880896	40	5440
2026-01-17 18:29:44.84	12.52	15.26	-32.8	-33.4	25.4	0.00e+00	0	29	0	883949568	38	6030
2026-01-17 18:29:48.88	12.06	15.64	-32.6	-33.3	25.6	0.00e+00	0	29	0	907018240	38	5901
2026-01-17 18:29:52.92	11.59	16.01	-32.3	-33.0	25.8	0.00e+00	0	29	0	929038336	38	5745
2026-01-17 18:29:56.96	11.11	16.39	-32.5	-33.2	25.6	0.00e+00	0	29	0	952107008	38	5860
2026-01-17 18:30:01.00	10.62	16.78	-32.3	-32.9	26.0	0.00e+00	0	29	0	975175680	38	5682
2026-01-17 18:30:05.04	10.11	17.16	-32.0	-32.7	26.2	0.00e+00	0	29	0	998244352	38	5516
2026-01-17 18:30:09.08	9.59	17.56	-32.3	-33.0	26.0	0.00e+00	0	29	0	1020264448	38	5756
2026-01-17 18:30:13.12	9.06	17.95	-32.2	-32.9	26.1	0.00e+00	0	29	0	1043333120	38	5637
2026-01-17 18:30:17.16	8.51	18.35	-31.9	-32.5	26.4	0.00e+00	0	29	0	1065353216	38	5418
2026-01-17 18:30:21.20	7.95	18.75	-31.8	-32.4	26.5	0.00e+00	0	29	0	1088421888	36	5986
2026-01-17 18:30:25.24	7.37	19.16	-31.8	-32.5	26.4	0.00e+00	0	29	0	1111490560	36	6051
2026-01-17 18:30:29.28	6.78	19.57	-31.5	-32.2	26.8	0.00e+00	0	29	0	1133510656	36	5839
2026-01-17 18:30:33.31	6.17	19.98	-31.6	-32.3	26.6	0.00e+00	0	29	0	1156579328	36	5920
2026-01-17 18:30:37.35	5.54	20.40	-31.6	-32.3	26.6	0.00e+00	0	29	0	1179648000	36	5933
2026-01-17 18:30:41.39	4.89	20.82	-31.4	-32.0	26.9	0.00e+00	0	29	0	1202716672	36	5759
2026-01-17 18:30:45.43	4.23	21.24	-31.0	-31.6	27.2	0.00e+00	0	29	0	1224736768	36	5476
2026-01-17 18:30:49.48	3.54	21.67	-30.9	-31.6	27.3	0.00e+00	0	29	0	1247805440	36	5449
2026-01-17 18:30:53.52	2.84	22.10	-31.0	-31.7	27.2	0.00e+00	0	29	0	1269825536	36	5508
2026-01-17 18:30:57.56	2.12	22.53	-30.9	-31.5	27.3	0.00e+00	0	29	0	1292894208	36	5409
2026-01-17 18:31:01.60	1.37	22.96	-30.8	-31.4	27.4	0.00e+00	0	29	0	1315962880	34	5984
2026-01-17 18:31:05.64	0.61	23.40	-30.8	-31.4	27.3	0.00e+00	0	29	0	1337982976	34	6025
2026-01-17 18:31:09.67	359.82	23.83	-30.7	-31.4	27.4	0.00e+00	0	29	0	1361051648	34	5981
2026-01-17 18:31:13.72	359.01	24.27	-30.7	-31.3	27.5	0.00e+00	0	29	0	1384120320	34	5906
2026-01-17 18:31:17.76	358.18	24.71	-30.6	-31.2	27.5	0.00e+00	0	29	0	1407188992	34	5863
2026-01-17 18:31:21.80	357.32	25.15	-30.6	-31.3	27.6	0.00e+00	0	29	0	1429209088	34	5902
2026-01-17 18:31:25.84	356.44	25.59	-30.7	-31.3	27.4	0.00e+00	0	29	0	1452277760	34	5939
2026-01-17 18:31:29.88	355.53	26.03	-30.2	-30.8	27.9	0.00e+00	0	29	0	1474297856	34	5616
2026-01-17 18:31:33.92	354.60	26.47	-30.2	-30.8	27.9	0.00e+00	0	29	0	1497366528	34	5596
2026-01-17 18:31:37.96	353.64	26.91	-30.1	-30.7	27.9	0.00e+00	0	29	0	1520435200	34	5517
2026-01-17 18:31:42.01	352.65	27.34	-30.0	-30.6	28.0	0.00e+00	0	29	0	1543503872	34	5479
2026-01-17 18:31:46.04	351.64	27.77	-29.9	-30.5	28.1	0.00e+00	0	29	0	1565523968	34	5432
2026-01-17 18:31:50.08	350.60	28.20	-30.0	-30.7	28.0	0.00e+00	0	29	0	1588592640	34	5527
2026-01-17 18:31:54.12	349.53	28.62	-30.1	-30.7	27.8	0.00e+00	0	29	0	1611661312	34	5537
2026-01-17 18:31:58.16	348.43	29.04	-30.2	-30.8	27.9	0.00e+00	0	29	0	1633681408	34	5594
2026-01-17 18:32:02.20	347.30	29.46	-30.1	-30.7	27.9	0.00e+00	0	29	0	1656750080	34	5549
2026-01-17 18:32:06.24	346.14	29.86	-29.8	-30.5	28.0	0.00e+00	0	29	0	1678770176	32	6056
2026-01-17 18:32:10.28	344.96	30.26	-29.7	-30.3	28.1	0.00e+00	0	29	0	1701838848	32	5922
2026-01-17 18:32:14.31	343.74	30.65	-29.5	-30.1	28.5	0.00e+00	0	29	0	1724907520	32	5799
2026-01-17 18:32:18.35	342.50	31.03	-29.6	-30.2	28.3	0.00e+00	0	29	0	1747976192	32	5862
2026-01-17 18:32:22.40	341.22	31.40	-29.5	-30.1	28.3	0.00e+00	0	29	0	1769996288	32	5805
2026-01-17 18:32:26.44	339.91	31.75	-29.4	-30.0	28.5	0.00e+00	0	29	0	1793064960	32	5737
2026-01-17 18:32:30.48	338.58	32.10	-29.7	-30.3	28.3	0.00e+00	0	29	0	1816133632	32	5934
2026-01-17 18:32:34.51	337.22	32.43	-29.2	-29.8	28.7	0.00e+00	0	29	0	1838153728	32	5583
2026-01-17 18:32:38.55	335.83	32.74	-29.2	-29.8	28.6	0.00e+00	0	29	0	1861222400	32	5607
2026-01-17 18:32:42.60	334.41	33.04	-29.4	-30.0	28.5	0.00e+00	0	29	0	1884291072	32	5703
2026-01-17 18:32:46.64	332.97	33.32	-29.5	-30.1	28.4	0.00e+00	0	29	0	1906311168	32	5816
2026-01-17 18:32:50.68	331.50	33.58	-29.7	-30.3	28.3	0.00e+00	0	29	0	1929379840	32	5910
2026-01-17 18:32:54.73	330.01	33.82	-29.5	-30.1	28.4	0.00e+00	0	29	0	1952448512	32	5799
2026-01-17 18:32:58.77	328.50	34.04	-29.3	-29.9	28.7	0.00e+00	0	29	0	1974468608	32	5680
2026-01-17 18:33:02.81	326.97	34.24	-29.5	-30.2	28.5	0.00e+00	0	29	0	1997537280	32	5847
2026-01-17 18:33:06.85	325.42	34.42	-29.3	-30.0	28.6	0.00e+00	0	29	0	2020605952	32	5701
2026-01-17 18:33:10.89	323.85	34.58	-29.7	-30.3	28.4	0.00e+00	0	29	0	2043674624	32	5916
2026-01-17 18:33:14.93	322.27	34.71	-29.3	-29.9	28.6	0.00e+00	0	29	0	2065694720	32	5664
2026-01-17 18:33:18.97	320.68	34.81	-29.5	-30.1	28.4	0.00e+00	0	29	0	2088763392	32	5818
2026-01-17 18:33:23.01	319.08	34.89	-29.4	-30.0	28.6	0.00e+00	0	29	0	2110783488	32	5736
2026-01-17 18:33:27.05	317.48	34.95	-29.0	-29.7	28.7	0.00e+00	0	29	0	2133852160	32	5509
2026-01-17 18:33:31.09	315.87	34.98	-29.4	-30.0	28.5	0.00e+00	0	29	0	2156920832	32	5729
2026-01-17 18:33:35.13	314.25	34.98	-29.3	-30.0	28.6	0.00e+00	0	29	0	2178940928	32	5699
2026-01-17 18:33:39.17	312.64	34.96	-29.3	-29.9	28.5	0.00e+00	0	29	0	2202009600	32	5691
2026-01-17 18:33:43.21	311.03	34.91	-29.4	-30.1	28.1	0.00e+00	0	29	0	2225078272	32	5768
2026-01-17 18:33:47.26	309.42	34.84	-29.4	-30.1	28.4	0.00e+00	0	29	0	2248146944	32	5776
2026-01-17 18:33:51.30	307.83	34.74	-29.4	-30.0	28.6	0.00e+00	0	29	0	2270167040	32	5712
2026-01-17 18:33:55.34	306.25	34.62	-29.3	-29.9	28.6	0.00e+00	0	29	0	2293235712	32	5680
2026-01-17 18:33:59.38	304.67	34.47	-29.3	-30.0	28.6	0.00e+00	0	29	0	2315255808	32	5746
2026-01-17 18:34:03.42	303.12	34.30	-29.3	-30.0	28.6	0.00e+00	0	29	0	2338324480	32	5704
2026-01-17 18:34:07.46	301.58	34.11	-29.3	-29.8	28.6	0.00e+00	0	29	0	2361393152	32	5622
2026-01-17 18:34:11.51	300.06	33.89	-29.5	-30.0	28.4	0.00e+00	0	29	0	2384461824	32	5757
2026-01-17 18:34:15.55	298.56	33.65	-29.2	-29.9	28.6	0.00e+00	0	29	0	2406481920	32	5633
2026-01-17 18:34:19.59	297.08	33.40	-29.4	-29.9	28.5	0.00e+00	0	29	0	2429550592	32	5690
2026-01-17 18:34:23.63	295.63	33.12	-29.8	-30.4	28.1	0.00e+00	0	29	0	2452619264	32	6033
2026-01-17 18:34:27.67	294.21	32.83	-29.6	-30.3	28.4	0.00e+00	0	29	0	2474639360	32	5918
2026-01-17 18:34:31.71	292.81	32.52	-29.2	-29.8	28.6	0.00e+00	0	29	0	2497708032	32	5624
2026-01-17 18:34:35.75	291.43	32.19	-29.6	-30.1	28.5	0.00e+00	0	29	0	2520776704	32	5826
2026-01-17 18:34:39.80	290.09	31.85	-29.5	-30.1	28.4	0.00e+00	0	29	0	2542796800	32	5820
2026-01-17 18:34:43.84	288.77	31.50	-30.2	-30.9	27.8	0.00e+00	0	29	0	2565865472	32	6368
2026-01-17 18:34:47.87	287.49	31.13	-29.5	-30.1	28.5	0.00e+00	0	29	0	2588934144	32	5782
2026-01-17 18:34:51.92	286.22	30.75	-29.7	-30.3	28.3	0.00e+00	0	29	0	2610954240	32	5908
2026-01-17 18:34:55.96	285.00	30.37	-29.7	-30.4	28.3	0.00e+00	0	29	0	2634022912	32	5980
2026-01-17 18:35:00.00	283.80	29.97	-29.7	-30.3	28.2	0.00e+00	0	29	0	2657091584	32	5925
2026-01-17 18:35:04.04	282.63	29.56	-29.8	-30.4	28.2	0.00e+00	0	29	0	2680160256	32	5980
2026-01-17 18:35:08.08	281.49	29.15	-29.8	-30.5	28.1	0.00e+00	0	29	0	2702180352	32	6075
2026-01-17 18:35:12.12	280.38	28.73	-29.6	-30.3	28.4	0.00e+00	0	29	0	2725249024	32	5923
2026-01-17 18:35:16.16	279.30	28.31	-30.0	-30.5	27.8	0.00e+00	0	29	0	2747269120	32	6095
2026-01-17 18:35:20.20	278.24	27.88	-29.8	-30.4	28.0	0.00e+00	0	29	0	2770337792	32	6030
2026-01-17 18:35:24.25	277.22	27.45	-29.9	-30.5	27.6	0.00e+00	0	29	0	2793406464	32	6047
2026-01-17 18:35:28.29	276.22	27.01	-30.2	-30.8	27.7	0.00e+00	0	29	0	2816475136	32	6305
2026-01-17 18:35:32.33	275.25	26.58	-30.5	-31.1	27.4	0.00e+00	0	29	0	2838495232	32	6476
2026-01-17 18:35:36.37	274.31	26.14	-30.4	-31.0	27.5	0.00e+00	0	29	0	2861563904	32	6400
2026-01-17 18:35:40.40	273.39	25.70	-30.4	-30.9	27.5	0.00e+00	0	29	0	2884632576	32	6366
2026-01-17 18:35:44.45	272.50	25.25	-30.7	-31.4	27.3	0.00e+00	0	29	0	2906652672	34	5979
2026-01-17 18:35:48.48	271.63	24.81	-30.5	-31.2	27.4	0.00e+00	0	29	0	2929721344	34	5833
2026-01-17 18:35:52.52	270.79	24.37	-30.6	-31.1	27.4	0.00e+00	0	29	0	2951741440	34	5812
2026-01-17 18:35:56.56	269.97	23.93	-30.7	-31.2	27.3	0.00e+00	0	30	0	2974810112	34	5878
2026-01-17 18:36:00.60	269.17	23.49	-30.8	-31.5	27.2	0.00e+00	0	29	0	2997878784	34	6049
2026-01-17 18:36:04.65	268.40	23.06	-31.0	-31.5	27.0	0.00e+00	0	29	0	3020947456	34	6093
2026-01-17 18:36:08.69	267.64	22.62	-30.8	-31.5	27.1	0.00e+00	0	29	0	3042967552	34	6065
2026-01-17 18:36:12.71	266.92	22.19	-30.6	-31.3	27.3	0.00e+00	0	29	0	3066036224	34	5904
2026-01-17 18:36:16.75	266.20	21.76	-30.5	-31.2	27.4	0.00e+00	0	29	0	3089104896	34	5892
2026-01-17 18:36:20.79	265.51	21.33	-30.6	-31.2	27.3	0.00e+00	0	29	0	3111124992	34	5841
2026-01-17 18:36:24.83	264.84	20.91	-30.8	-31.5	27.3	0.00e+00	0	29	0	3134193664	34	6055
2026-01-17 18:36:28.87	264.19	20.48	-30.9	-31.5	27.1	0.00e+00	0	29	0	3156213760	34	6035
2026-01-17 18:36:32.91	263.55	20.06	-31.0	-31.5	27.0	0.00e+00	0	29	0	3179282432	34	6096
2026-01-17 18:36:36.95	262.93	19.65	-31.0	-31.7	27.1	0.00e+00	0	29	0	3202351104	34	6188
2026-01-17 18:36:40.99	262.33	19.24	-31.2	-31.7	26.9	0.00e+00	0	29	0	3225419776	34	6229
2026-01-17 18:36:45.03	261.74	18.83	-31.4	-32.1	26.7	0.00e+00	0	29	0	3247439872	34	6493
2026-01-17 18:36:49.07	261.17	18.42	-31.4	-32.1	26.7	0.00e+00	0	29	0	3270508544	34	6501
2026-01-17 18:36:53.12	260.61	18.02	-31.6	-32.2	26.5	0.00e+00	0	29	0	3293577216	34	6543
2026-01-17 18:36:57.16	260.07	17.62	-31.6	-32.2	26.5	0.00e+00	0	29	0	3315597312	36	5859
2026-01-17 18:37:01.20	259.55	17.23	-31.7	-32.3	26.4	0.00e+00	0	29	0	3338665984	36	5939
2026-01-17 18:37:05.24	259.04	16.84	-32.0	-32.5	26.2	0.00e+00	0	29	0	3361734656	36	6100
2026-01-17 18:37:09.28	258.54	16.45	-32.3	-32.9	25.9	0.00e+00	0	29	0	3383754752	36	6360
2026-01-17 18:37:13.32	258.05	16.07	-32.4	-33.0	25.8	0.00e+00	0	29	0	3406823424	36	6413
2026-01-17 18:37:17.36	257.58	15.69	-32.6	-33.4	25.5	0.00e+00	0	29	0	3429892096	38	5984
2026-01-17 18:37:21.40	257.12	15.31	-32.9	-33.7	25.3	0.00e+00	0	29	0	3451912192	38	6199
2026-01-17 18:37:25.44	256.67	14.94	-32.8	-33.4	25.4	0.00e+00	0	30	0	3474980864	38	5977
2026-01-17 18:37:29.48	256.23	14.58	-32.8	-33.4	25.5	0.00e+00	0	30	0	3498049536	38	5990
2026-01-17 18:37:33.52	255.80	14.21	-32.9	-33.6	25.4	0.00e+00	0	29	0	3521118208	38	6168
2026-01-17 18:37:37.56	255.38	13.85	-32.9	-33.6	25.3	0.00e+00	0	29	0	3543138304	38	6152
2026-01-17 18:37:41.60	254.97	13.50	-32.9	-33.5	25.3	0.00e+00	0	29	0	3566206976	38	6058
2026-01-17 18:37:45.64	254.58	13.15	-33.1	-33.7	25.1	0.00e+00	0	29	0	3588227072	38	6239
2026-01-17 18:37:49.68	254.19	12.80	-33.2	-34.0	25.0	0.00e+00	0	29	0	3611295744	38	6409
2026-01-17 18:37:53.72	253.81	12.45	-33.4	-34.0	24.8	0.00e+00	0	29	0	3634364416	38	6431
2026-01-17 18:37:57.77	253.44	12.11	-33.5	-34.1	24.7	0.00e+00	0	29	0	3656384512	38	6510
2026-01-17 18:38:01.78	253.08	11.78	-33.5	-34.3	24.7	0.00e+00	0	30	0	3679453184	38	6628
2026-01-17 18:38:05.81	252.73	11.44	-33.8	-34.4	24.4	0.00e+00	0	29	0	3702521856	40	6029
2026-01-17 18:38:09.85	252.39	11.11	-33.7	-34.5	24.5	0.00e+00	0	29	0	3724541952	40	6060
2026-01-17 18:38:13.90	252.05	10.78	-33.7	-34.4	24.5	0.00e+00	0	29	0	3747610624	40	6008
2026-01-17 18:38:17.93	251.72	10.46	-33.8	-34.6	24.3	0.00e+00	0	29	0	3770679296	40	6133
2026-01-17 18:38:21.98	251.40	10.14	-33.8	-34.6	24.3	0.00e+00	0	30	0	3792699392	40	6117
2026-01-17 18:38:26.02	251.09	9.82	-33.9	-34.7	24.2	0.00e+00	0	29	0	3815768064	40	6217
2026-01-17 18:38:30.06	250.78	9.51	-34.2	-35.0	23.9	0.00e+00	0	29	0	3838836736	40	6404
2026-01-17 18:38:34.10	250.48	9.20	-34.1	-34.9	23.9	0.00e+00	0	30	0	3860856832	40	6380
2026-01-17 18:38:38.14	250.18	8.89	-34.0	-34.7	24.0	0.00e+00	0	29	0	3883925504	40	6200
2026-01-17 18:38:42.18	249.90	8.58	-34.2	-34.8	23.9	0.00e+00	0	30	0	3906994176	40	6303
2026-01-17 18:38:46.22	249.61	8.28	-34.3	-35.0	23.7	0.00e+00	0	30	0	3929014272	40	6418
2026-01-17 18:38:50.25	249.34	7.98	-34.4	-35.2	23.7	0.00e+00	0	29	0	3952082944	40	6540
2026-01-17 18:38:54.30	249.07	7.69	-34.5	-35.2	23.4	0.00e+00	0	30	0	3975151616	40	6582
2026-01-17 18:38:58.34	248.81	7.39	-34.6	-35.2	23.4	0.00e+00	0	30	0	3997171712	40	6601
2026-01-17 18:39:02.38	248.55	7.10	-34.7	-35.5	23.2	0.00e+00	0	30	0	4020240384	42	6093
2026-01-17 18:39:06.42	248.29	6.81	-35.1	-35.8	22.8	0.00e+00	0	29	0	4043309056	42	6263
2026-01-17 18:39:10.46	248.05	6.53	-35.2	-35.9	22.7	0.00e+00	0	29	0	4065329152	42	6381
2026-01-17 18:39:14.50	247.80	6.25	-35.6	-36.3	22.2	0.00e+00	0	30	0	4088397824	42	6688
2026-01-17 18:39:18.54	247.57	5.97	-35.8	-36.7	21.9	0.00e+00	0	30	0	4111466496	44	6221
2026-01-17 18:39:22.58	247.33	5.69	-36.3	-37.0	21.4	0.00e+00	0	29	0	4133486592	44	6454
2026-01-17 18:39:26.62	247.10	5.41	-36.3	-37.1	21.4	0.00e+00	0	30	0	4156555264	44	6469
2026-01-17 18:39:30.67	246.88	5.14	-36.8	-37.7	20.8	0.00e+00	0	30	0	4179623936	46	6208
2026-01-17 18:39:34.71	246.66	4.87	-36.9	-37.9	20.6	0.00e+00	0	30	0	4201644032	46	6335
2026-01-17 18:39:38.75	246.44	4.60	-37.3	-38.3	20.1	0.00e+00	0	30	0	4224712704	46	6626
2026-01-17 18:39:42.79	246.23	4.34	-37.9	-38.9	19.4	0.00e+00	0	30	0	4247781376	46	7163
2026-01-17 18:39:46.83	246.02	4.07	-38.5	-39.6	18.8	0.00e+00	0	30	0	4270850048	48	6873
2026-01-17 18:39:50.87	245.82	3.81	-38.7	-39.9	18.3	0.00e+00	0	30	0	4292870144	50	6347
2026-01-17 18:39:54.91	245.62	3.55	-39.3	-40.6	17.6	0.00e+00	0	30	0	4315938816	50	6861
2026-01-17 18:39:58.95	245.42	3.30	-39.4	-40.6	17.5	0.00e+00	0	30	0	4337958912	52	6104
2026-01-17 18:40:02.99	245.23	3.04	-39.5	-40.8	17.2	0.00e+00	0	30	0	4361027584	52	6304
2026-01-17 18:40:07.03	245.04	2.79	-48.7	-60.8	3.6	8.45e-01	0	30	104	4364173312	60	39474
2026-01-17 18:40:11.07	244.86	2.54	-48.8	-60.9	3.6	8.44e-01	0	30	104	4364173312	60	40073
2026-01-17 18:40:15.11	244.67	2.29	-48.4	-60.7	3.6	8.46e-01	0	30	104	4364173312	60	39335
2026-01-17 18:40:19.15	244.49	2.04	-48.6	-60.6	3.6	8.45e-01	0	30	104	4364173312	60	38875
2026-01-17 18:40:23.19	244.32	1.80	-48.7	-60.7	3.6	8.44e-01	0	30	104	4364173312	60	39336
2026-01-17 18:40:27.23	244.15	1.55	-48.7	-60.7	3.6	8.46e-01	0	30	104	4364173312	60	39356
2026-01-17 18:40:31.28	243.98	1.31	-48.7	-60.8	3.6	8.46e-01	0	30	104	4364173312	60	39566
2026-01-17 18:40:35.32	243.81	1.07	-48.6	-60.7	3.6	8.46e-01	0	30	104	4364173312	60	39177
2026-01-17 18:40:39.36	243.64	0.83	-48.6	-60.7	3.6	8.46e-01	0	30	104	4364173312	60	39277
2026-01-17 18:40:43.40	243.48	0.60	-48.7	-60.7	3.6	8.45e-01	0	30	104	4364173312	60	39281
2026-01-17 18:40:47.44	243.32	0.36	-48.6	-60.7	3.6	8.46e-01	0	30	104	4364173312	60	39237
2026-01-17 18:40:51.48	243.17	0.13	-48.6	-60.7	3.6	8.47e-01	0	30	104	4364173312	60	39225

#Closed at: 2026-01-17 18:40:53
#Recorded file [4364 MB]: D:/lorett/data/35029_260118_062614.dat