passes_logs/2026/01/17/R4.6S_Anadyr/R4.6S_Anadyr__20260117_215355_NOAA_21_JPSS-2_rec.log

#Pass ID: 20260117_215355_NOAA 21 (JPSS-2)
#Satellite: NOAA 21 (JPSS-2)
#Configuration: NOAA-21
#almurnet v.1.7.20251203
#Start time: 2026-01-17 21:53:57

#Version: 2.2.20231116
#Station: R4.6S_Anadyr
#Location: 177.4865 lon 64.73178 lat
#TLE: 1 54234U 22150A   26017.62066529  .00000042  00000+0  40984-4 0  9994
#TLE: 2 54234  98.7502 318.4887 0000613 271.5460  88.5645 14.19535234165189

#Time	Az	El	Level	Level2	SNR	BER	BlckErr	Temp	State	Recorded	gain1	gain2
2026-01-17 21:53:57.88	100.66	0.15	-48.9	-63.7	3.6	1.51e+00	0	29	0	0	60	55561
2026-01-17 21:54:01.91	100.45	0.37	-48.9	-61.7	3.5	1.52e+00	0	30	104	0	60	42629
2026-01-17 21:54:05.95	100.23	0.59	-48.8	-61.7	3.5	1.52e+00	0	30	104	0	60	42510
2026-01-17 21:54:09.99	100.00	0.82	-48.5	-61.5	3.5	1.52e+00	0	30	104	0	60	41522
2026-01-17 21:54:14.03	99.78	1.04	-47.4	-60.3	3.5	1.52e+00	0	30	104	0	60	36491
2026-01-17 21:54:18.06	99.54	1.27	-46.0	-59.8	3.5	1.52e+00	0	30	104	0	60	34427
2026-01-17 21:54:22.10	99.31	1.50	-46.0	-59.8	3.4	1.52e+00	0	30	104	0	60	34379
2026-01-17 21:54:26.14	99.07	1.73	-46.0	-60.0	3.5	1.52e+00	0	31	104	0	60	34921
2026-01-17 21:54:30.18	98.83	1.96	-46.0	-59.9	3.5	1.52e+00	0	31	104	0	60	34856
2026-01-17 21:54:34.22	98.58	2.19	-45.9	-59.6	3.5	1.52e+00	0	31	104	0	60	33503
2026-01-17 21:54:38.26	98.33	2.43	-45.9	-59.8	3.5	1.52e+00	0	31	104	0	60	34344
2026-01-17 21:54:42.30	98.08	2.66	-45.9	-59.9	3.5	1.52e+00	0	31	104	0	60	34605
2026-01-17 21:54:46.34	97.82	2.90	-45.9	-59.0	3.5	1.52e+00	0	31	104	0	60	31354
2026-01-17 21:54:50.37	97.56	3.14	-45.8	-58.9	3.5	1.51e+00	0	31	104	0	60	31034
2026-01-17 21:54:54.41	97.29	3.38	-42.4	-45.4	13.7	2.28e-05	123	31	0	7340032	58	7306
2026-01-17 21:54:58.45	97.01	3.62	-42.3	-45.8	14.5	7.87e-02	120	31	104	17825792	60	6874
2026-01-17 21:55:02.48	96.74	3.86	-38.3	-40.1	18.5	0.00e+00	123	31	104	23068672	50	6341
2026-01-17 21:55:06.52	96.46	4.11	-38.0	-39.5	19.4	0.00e+00	122	31	0	34603008	50	5919
2026-01-17 21:55:10.56	96.17	4.35	-38.1	-39.4	19.7	0.00e+00	120	31	0	47185920	50	5811
2026-01-17 21:55:14.59	95.88	4.60	-37.9	-39.2	20.1	0.00e+00	122	31	0	59768832	50	5676
2026-01-17 21:55:18.64	95.58	4.85	-37.7	-38.9	20.3	0.00e+00	122	31	0	72351744	48	6164
2026-01-17 21:55:22.68	95.28	5.10	-38.1	-39.3	20.1	0.00e+00	123	31	0	84934656	48	6459
2026-01-17 21:55:26.72	94.97	5.35	-37.7	-39.1	20.2	0.00e+00	123	31	0	97517568	48	6302
2026-01-17 21:55:30.76	94.65	5.61	-37.6	-38.9	20.4	0.00e+00	122	31	0	110100480	48	6163
2026-01-17 21:55:34.80	94.33	5.86	-37.5	-38.7	20.6	0.00e+00	123	31	0	122683392	48	6010
2026-01-17 21:55:38.84	94.01	6.12	-37.6	-38.8	20.4	0.00e+00	123	31	0	135266304	48	6070
2026-01-17 21:55:42.88	93.68	6.38	-37.3	-38.5	20.7	0.00e+00	122	31	0	147849216	48	5892
2026-01-17 21:55:46.92	93.34	6.64	-37.0	-38.2	21.1	0.00e+00	123	31	0	160432128	48	5679
2026-01-17 21:55:50.96	93.00	6.90	-37.0	-38.1	21.2	0.00e+00	123	31	0	174063616	48	5635
2026-01-17 21:55:55.00	92.65	7.16	-36.8	-37.9	21.5	0.00e+00	123	31	0	186646528	48	5520
2026-01-17 21:55:59.04	92.29	7.43	-36.7	-37.8	21.7	0.00e+00	123	31	0	199229440	46	6134
2026-01-17 21:56:03.08	91.93	7.70	-36.5	-37.6	21.8	0.00e+00	120	31	0	211812352	46	5982
2026-01-17 21:56:07.12	91.55	7.96	-36.5	-37.6	21.8	0.00e+00	120	31	0	224395264	46	5948
2026-01-17 21:56:11.16	91.18	8.24	-36.1	-37.2	22.2	0.00e+00	122	31	0	236978176	46	5679
2026-01-17 21:56:15.20	90.79	8.51	-36.1	-37.2	22.2	0.00e+00	120	31	0	249561088	46	5722
2026-01-17 21:56:19.24	90.40	8.78	-36.1	-37.1	22.3	0.00e+00	122	31	0	262144000	46	5636
2026-01-17 21:56:23.28	90.00	9.06	-36.0	-37.0	22.4	0.00e+00	120	31	0	274726912	46	5587
2026-01-17 21:56:27.32	89.59	9.33	-35.7	-36.7	22.7	0.00e+00	123	31	0	287309824	44	6007
2026-01-17 21:56:31.37	89.17	9.61	-35.3	-36.3	23.0	0.00e+00	123	31	0	299892736	44	5759
2026-01-17 21:56:35.41	88.75	9.89	-35.5	-36.5	22.8	0.00e+00	123	31	0	312475648	44	5891
2026-01-17 21:56:39.45	88.32	10.18	-35.4	-36.4	22.8	0.00e+00	123	31	0	325058560	44	5856
2026-01-17 21:56:43.49	87.87	10.46	-35.3	-36.3	23.0	0.00e+00	122	31	0	337641472	44	5774
2026-01-17 21:56:47.54	87.42	10.75	-35.2	-36.1	23.2	0.00e+00	123	31	0	350224384	44	5656
2026-01-17 21:56:51.58	86.96	11.03	-35.4	-36.4	23.0	0.00e+00	122	31	0	362807296	44	5818
2026-01-17 21:56:55.62	86.49	11.32	-35.2	-36.2	23.0	0.00e+00	123	31	0	375390208	44	5713
2026-01-17 21:56:59.66	86.02	11.61	-34.9	-35.9	23.2	0.00e+00	123	31	0	387973120	44	5470
2026-01-17 21:57:03.70	85.53	11.90	-34.9	-35.9	23.2	0.00e+00	122	31	0	400556032	44	5490
2026-01-17 21:57:07.74	85.03	12.20	-34.9	-35.9	23.3	0.00e+00	123	31	0	413138944	44	5497
2026-01-17 21:57:11.78	84.52	12.49	-35.1	-36.1	23.3	0.00e+00	120	31	0	425721856	44	5632
2026-01-17 21:57:15.81	84.00	12.78	-34.8	-35.8	23.6	0.00e+00	120	31	0	438304768	42	6097
2026-01-17 21:57:19.84	83.48	13.08	-34.8	-35.8	23.6	0.00e+00	120	31	0	450887680	42	6092
2026-01-17 21:57:23.89	82.93	13.38	-34.9	-35.9	23.5	0.00e+00	122	31	0	463470592	42	6136
2026-01-17 21:57:27.93	82.38	13.68	-34.9	-35.8	23.6	0.00e+00	123	31	0	476053504	42	6124
2026-01-17 21:57:31.96	81.82	13.98	-34.8	-35.7	23.7	0.00e+00	123	31	0	489684992	42	6041
2026-01-17 21:57:36.00	81.25	14.28	-35.1	-36.1	23.3	0.00e+00	122	31	0	502267904	42	6288
2026-01-17 21:57:40.04	80.66	14.58	-35.4	-36.4	23.2	0.00e+00	123	31	0	514850816	42	6520
2026-01-17 21:57:44.08	80.06	14.88	-35.2	-36.1	23.4	0.00e+00	123	31	0	527433728	42	6325
2026-01-17 21:57:48.12	79.45	15.18	-35.1	-36.1	23.4	0.00e+00	123	31	0	540016640	42	6283
2026-01-17 21:57:52.16	78.82	15.48	-35.4	-36.4	23.2	0.00e+00	122	31	0	552599552	42	6537
2026-01-17 21:57:56.21	78.19	15.79	-35.2	-36.1	23.5	0.00e+00	122	31	0	565182464	42	6335
2026-01-17 21:58:00.25	77.54	16.09	-35.4	-36.4	23.2	0.00e+00	122	31	0	577765376	42	6522
2026-01-17 21:58:04.29	76.87	16.39	-35.4	-36.4	23.3	0.00e+00	123	31	0	590348288	42	6503
2026-01-17 21:58:08.33	76.19	16.70	-35.1	-36.1	23.6	0.00e+00	121	31	0	602931200	42	6317
2026-01-17 21:58:12.37	75.50	17.00	-34.9	-35.9	23.6	0.00e+00	127	31	0	615514112	42	6156
2026-01-17 21:58:16.41	74.80	17.30	-34.8	-35.7	23.9	0.00e+00	123	31	0	628097024	42	6035
2026-01-17 21:58:20.45	74.08	17.60	-34.7	-35.6	23.9	0.00e+00	123	31	0	640679936	42	5947
2026-01-17 21:58:24.50	73.34	17.90	-35.0	-36.0	23.7	0.00e+00	120	31	0	653262848	42	6210
2026-01-17 21:58:28.54	72.59	18.20	-34.4	-35.4	24.1	0.00e+00	120	31	0	665845760	42	5799
2026-01-17 21:58:32.58	71.83	18.50	-34.2	-35.2	24.3	0.00e+00	122	31	0	678428672	42	5660
2026-01-17 21:58:36.62	71.05	18.79	-34.5	-35.5	24.0	0.00e+00	123	31	0	691011584	42	5867
2026-01-17 21:58:40.66	70.25	19.08	-34.6	-35.5	24.0	0.00e+00	122	31	0	703594496	42	5914
2026-01-17 21:58:44.70	69.44	19.37	-34.5	-35.4	24.0	0.00e+00	123	31	0	716177408	42	5855
2026-01-17 21:58:48.75	68.62	19.66	-34.7	-35.6	23.9	0.00e+00	120	31	0	728760320	42	5967
2026-01-17 21:58:52.79	67.77	19.94	-34.5	-35.4	24.1	0.00e+00	123	31	0	741343232	42	5828
2026-01-17 21:58:56.83	66.92	20.22	-34.3	-35.2	24.3	0.00e+00	122	31	0	753926144	42	5674
2026-01-17 21:59:00.87	66.04	20.50	-34.2	-35.1	24.3	0.00e+00	122	31	0	766509056	42	5656
2026-01-17 21:59:04.92	65.15	20.77	-34.1	-35.0	24.4	0.00e+00	123	31	0	780140544	42	5571
2026-01-17 21:59:08.96	64.25	21.04	-34.2	-35.1	24.4	0.00e+00	123	31	0	792723456	42	5620
2026-01-17 21:59:13.00	63.33	21.31	-34.2	-35.1	24.4	0.00e+00	122	31	0	805306368	42	5619
2026-01-17 21:59:17.04	62.39	21.56	-34.1	-35.0	24.5	0.00e+00	122	31	0	817889280	42	5576
2026-01-17 21:59:21.07	61.44	21.81	-34.0	-34.9	24.5	0.00e+00	123	31	0	830472192	42	5527
2026-01-17 21:59:25.12	60.47	22.06	-33.8	-34.7	24.6	0.00e+00	120	31	0	843055104	42	5396
2026-01-17 21:59:29.16	59.49	22.30	-34.0	-34.9	24.5	0.00e+00	121	31	0	855638016	42	5476
2026-01-17 21:59:33.20	58.49	22.53	-34.3	-35.2	24.3	0.00e+00	120	31	0	868220928	42	5709
2026-01-17 21:59:37.24	57.48	22.76	-34.0	-34.9	24.5	0.00e+00	123	31	0	880803840	42	5518
2026-01-17 21:59:41.28	56.45	22.97	-34.1	-35.0	24.5	0.00e+00	123	31	0	893386752	42	5554
2026-01-17 21:59:45.32	55.41	23.18	-33.8	-34.7	24.6	0.00e+00	120	31	0	905969664	42	5386
2026-01-17 21:59:49.36	54.36	23.38	-34.1	-35.0	24.5	0.00e+00	123	31	0	918552576	42	5546
2026-01-17 21:59:53.40	53.29	23.57	-34.0	-34.9	24.5	0.00e+00	122	31	0	931135488	42	5529
2026-01-17 21:59:57.44	52.21	23.75	-34.0	-35.0	24.5	0.00e+00	122	31	0	943718400	42	5531
2026-01-17 22:00:01.48	51.11	23.93	-34.1	-35.0	24.4	0.00e+00	123	31	0	956301312	42	5587
2026-01-17 22:00:05.53	50.00	24.09	-33.9	-34.8	24.6	0.00e+00	123	32	0	968884224	42	5462
2026-01-17 22:00:09.57	48.89	24.24	-33.9	-34.8	24.4	0.00e+00	122	31	0	981467136	40	6112
2026-01-17 22:00:13.61	47.76	24.38	-34.2	-35.1	24.3	0.00e+00	123	31	0	994050048	40	6350
2026-01-17 22:00:17.65	46.63	24.50	-34.0	-34.9	24.7	0.00e+00	122	32	0	1006632960	40	6155
2026-01-17 22:00:21.69	45.48	24.62	-33.9	-34.8	24.7	0.00e+00	122	31	0	1019215872	40	6101
2026-01-17 22:00:25.73	44.33	24.72	-33.6	-34.5	24.8	0.00e+00	123	31	0	1031798784	40	5915
2026-01-17 22:00:29.77	43.17	24.81	-33.4	-34.3	25.1	0.00e+00	123	32	0	1044381696	40	5747
2026-01-17 22:00:33.81	42.00	24.89	-33.6	-34.5	24.9	0.00e+00	123	31	0	1058013184	40	5909
2026-01-17 22:00:37.85	40.83	24.96	-33.8	-34.7	24.7	0.00e+00	123	31	0	1070596096	40	6051
2026-01-17 22:00:41.89	39.66	25.01	-33.6	-34.5	24.7	0.00e+00	123	32	0	1083179008	40	5887
2026-01-17 22:00:45.93	38.48	25.05	-34.0	-34.8	24.6	0.00e+00	123	31	0	1095761920	40	6132
2026-01-17 22:00:49.98	37.29	25.07	-34.1	-34.9	24.5	0.00e+00	122	31	0	1108344832	40	6203
2026-01-17 22:00:54.02	36.11	25.09	-33.6	-34.5	24.8	0.00e+00	123	31	0	1120927744	40	5906
2026-01-17 22:00:58.06	34.93	25.09	-33.7	-34.6	24.7	0.00e+00	120	32	0	1133510656	40	5963
2026-01-17 22:01:02.10	33.74	25.07	-33.7	-34.6	24.8	0.00e+00	121	32	0	1146093568	40	5954
2026-01-17 22:01:06.15	32.56	25.05	-33.7	-34.6	24.8	0.00e+00	123	32	0	1158676480	40	5941
2026-01-17 22:01:10.19	31.38	25.01	-34.0	-34.9	24.6	0.00e+00	122	31	0	1171259392	40	6186
2026-01-17 22:01:14.23	30.21	24.95	-33.7	-34.6	24.8	0.00e+00	122	31	0	1183842304	40	5941
2026-01-17 22:01:18.27	29.04	24.88	-33.6	-34.4	25.0	0.00e+00	123	32	0	1196425216	40	5846
2026-01-17 22:01:22.31	27.87	24.81	-33.9	-34.8	24.7	0.00e+00	123	32	0	1209008128	40	6091
2026-01-17 22:01:26.35	26.71	24.71	-33.7	-34.6	24.9	0.00e+00	122	32	0	1221591040	40	5929
2026-01-17 22:01:30.40	25.56	24.61	-33.7	-34.6	24.8	0.00e+00	123	32	0	1234173952	40	5945
2026-01-17 22:01:34.44	24.42	24.49	-34.1	-35.0	24.4	0.00e+00	123	31	0	1246756864	40	6277
2026-01-17 22:01:38.48	23.28	24.36	-34.4	-35.3	24.2	0.00e+00	123	32	0	1259339776	40	6494
2026-01-17 22:01:42.52	22.16	24.23	-34.0	-34.9	24.5	0.00e+00	123	32	0	1271922688	40	6186
2026-01-17 22:01:46.56	21.04	24.07	-33.8	-34.7	24.6	0.00e+00	122	32	0	1284505600	40	6040
2026-01-17 22:01:50.60	19.94	23.91	-33.7	-34.6	24.7	0.00e+00	120	32	0	1297088512	40	5974
2026-01-17 22:01:54.64	18.85	23.74	-33.8	-34.7	24.6	0.00e+00	123	32	0	1309671424	40	6041
2026-01-17 22:01:58.69	17.77	23.56	-33.9	-34.8	24.4	0.00e+00	123	32	0	1322254336	40	6080
2026-01-17 22:02:02.73	16.70	23.37	-34.0	-34.9	24.4	0.00e+00	123	32	0	1334837248	40	6182
2026-01-17 22:02:06.77	15.65	23.17	-33.7	-34.6	24.6	0.00e+00	123	32	0	1348468736	40	5969
2026-01-17 22:02:10.81	14.61	22.96	-33.6	-34.5	24.9	0.00e+00	123	32	0	1361051648	40	5890
2026-01-17 22:02:14.85	13.59	22.74	-33.9	-34.8	24.7	0.00e+00	122	32	0	1373634560	40	6103
2026-01-17 22:02:18.90	12.58	22.52	-33.9	-34.8	24.7	0.00e+00	120	32	0	1386217472	40	6122
2026-01-17 22:02:22.94	11.58	22.28	-33.8	-34.7	24.6	0.00e+00	122	32	0	1398800384	40	6048
2026-01-17 22:02:26.98	10.60	22.05	-34.2	-35.1	24.4	0.00e+00	122	32	0	1411383296	40	6301
2026-01-17 22:02:31.02	9.64	21.80	-34.0	-34.9	24.6	0.00e+00	120	32	0	1423966208	40	6192
2026-01-17 22:02:35.06	8.69	21.55	-34.3	-35.2	24.3	0.00e+00	121	32	0	1436549120	40	6370
2026-01-17 22:02:39.10	7.76	21.29	-33.9	-34.8	24.5	0.00e+00	122	32	0	1449132032	40	6130
2026-01-17 22:02:43.14	6.84	21.03	-33.9	-34.8	24.6	0.00e+00	123	32	0	1461714944	40	6072
2026-01-17 22:02:47.18	5.94	20.76	-34.1	-35.0	24.4	0.00e+00	123	32	0	1474297856	40	6276
2026-01-17 22:02:51.23	5.05	20.49	-33.9	-34.8	24.6	0.00e+00	123	32	0	1486880768	40	6104
2026-01-17 22:02:55.27	4.19	20.21	-34.1	-35.0	24.4	0.00e+00	122	31	0	1499463680	40	6216
2026-01-17 22:02:59.31	3.33	19.93	-33.8	-34.7	24.6	0.00e+00	123	32	0	1512046592	40	6018
2026-01-17 22:03:03.34	2.50	19.65	-34.2	-35.1	24.4	0.00e+00	123	32	0	1524629504	40	6323
2026-01-17 22:03:07.39	1.67	19.36	-34.2	-35.2	24.3	0.00e+00	123	31	0	1537212416	40	6357
2026-01-17 22:03:11.43	0.87	19.07	-34.0	-35.0	24.4	0.00e+00	123	32	0	1549795328	40	6208
2026-01-17 22:03:15.47	0.08	18.78	-34.3	-35.2	24.3	0.00e+00	123	32	0	1562378240	40	6377
2026-01-17 22:03:19.51	359.30	18.49	-34.3	-35.2	24.3	0.00e+00	123	31	0	1574961152	40	6378
2026-01-17 22:03:23.55	358.54	18.19	-34.4	-35.3	24.2	0.00e+00	123	31	0	1587544064	40	6492
2026-01-17 22:03:27.59	357.79	17.89	-34.7	-35.6	24.0	0.00e+00	122	32	0	1600126976	40	6703
2026-01-17 22:03:31.63	357.06	17.59	-34.7	-35.6	24.0	0.00e+00	122	32	0	1612709888	42	5986
2026-01-17 22:03:35.67	356.35	17.29	-34.9	-35.8	23.8	0.00e+00	123	32	0	1625292800	42	6125
2026-01-17 22:03:39.71	355.64	16.99	-34.9	-35.8	23.8	0.00e+00	123	32	0	1638924288	42	6124
2026-01-17 22:03:43.75	354.96	16.69	-34.7	-35.7	23.8	0.00e+00	124	32	0	1651507200	42	6020
2026-01-17 22:03:47.80	354.28	16.39	-34.9	-35.8	23.7	0.00e+00	120	31	0	1664090112	42	6118
2026-01-17 22:03:51.83	353.62	16.09	-34.7	-35.6	23.9	0.00e+00	123	32	0	1676673024	42	5965
2026-01-17 22:03:55.87	352.98	15.79	-34.6	-35.5	24.0	0.00e+00	123	32	0	1689255936	42	5913
2026-01-17 22:03:59.91	352.34	15.48	-35.0	-35.9	23.8	0.00e+00	123	32	0	1701838848	42	6163
2026-01-17 22:04:03.95	351.72	15.18	-35.3	-36.2	23.5	0.00e+00	123	32	0	1714421760	42	6390
2026-01-17 22:04:07.99	351.11	14.88	-34.9	-35.8	23.7	0.00e+00	122	31	0	1727004672	42	6128
2026-01-17 22:04:12.03	350.52	14.58	-34.8	-35.8	23.8	0.00e+00	122	32	0	1739587584	42	6069
2026-01-17 22:04:16.07	349.94	14.28	-35.4	-36.4	23.3	0.00e+00	123	32	0	1752170496	42	6509
2026-01-17 22:04:20.11	349.36	13.98	-35.8	-36.8	22.8	0.00e+00	120	32	0	1764753408	44	6090
2026-01-17 22:04:24.14	348.81	13.68	-35.4	-36.3	23.2	0.00e+00	123	32	0	1777336320	44	5778
2026-01-17 22:04:28.18	348.26	13.38	-35.4	-36.3	23.3	0.00e+00	123	32	0	1789919232	44	5775
2026-01-17 22:04:32.22	347.72	13.09	-36.1	-37.1	22.7	0.00e+00	123	32	0	1802502144	44	6292
2026-01-17 22:04:36.26	347.19	12.79	-36.1	-37.1	22.6	0.00e+00	122	32	0	1815085056	44	6329
2026-01-17 22:04:40.31	346.68	12.50	-35.5	-36.5	23.1	0.00e+00	122	32	0	1827667968	44	5898
2026-01-17 22:04:44.35	346.17	12.20	-35.3	-36.3	23.3	1.50e-06	122	32	0	1840250880	44	5778
2026-01-17 22:04:48.39	345.68	11.91	-35.9	-36.9	22.8	0.00e+00	122	31	0	1852833792	44	6138
2026-01-17 22:04:52.43	345.19	11.62	-36.2	-37.3	22.4	0.00e+00	120	32	0	1865416704	44	6451
2026-01-17 22:04:56.47	344.72	11.33	-35.6	-36.7	22.7	0.00e+00	122	32	0	1877999616	44	6002
2026-01-17 22:05:00.51	344.25	11.04	-34.9	-35.9	23.5	0.00e+00	123	32	0	1890582528	44	5473
2026-01-17 22:05:04.55	343.80	10.76	-35.3	-36.2	23.3	0.00e+00	122	32	0	1903165440	44	5717
2026-01-17 22:05:08.59	343.35	10.47	-36.1	-37.1	22.6	0.00e+00	120	31	0	1915748352	44	6335
2026-01-17 22:05:12.63	342.91	10.19	-36.7	-37.8	21.9	0.00e+00	123	32	0	1928331264	44	6808
2026-01-17 22:05:16.67	342.48	9.91	-36.3	-37.3	22.2	0.00e+00	123	31	0	1940914176	44	6455
2026-01-17 22:05:20.71	342.06	9.63	-36.2	-37.2	22.3	0.00e+00	120	32	0	1954545664	44	6377
2026-01-17 22:05:24.76	341.65	9.35	-35.8	-36.8	22.7	0.00e+00	123	31	0	1967128576	44	6127
2026-01-17 22:05:28.80	341.24	9.07	-36.3	-37.3	22.3	0.00e+00	122	32	0	1979711488	44	6484
2026-01-17 22:05:32.84	340.84	8.80	-36.7	-37.8	21.9	0.00e+00	120	32	0	1992294400	44	6834
2026-01-17 22:05:36.87	340.45	8.53	-36.9	-38.0	21.7	0.00e+00	123	32	0	2004877312	46	6209
2026-01-17 22:05:40.91	340.07	8.26	-36.9	-37.9	21.6	0.00e+00	122	32	0	2017460224	46	6198
2026-01-17 22:05:44.95	339.70	7.99	-36.7	-37.8	21.7	0.00e+00	122	32	0	2030043136	46	6094
2026-01-17 22:05:49.00	339.33	7.72	-36.7	-37.8	21.7	0.00e+00	122	32	0	2042626048	46	6100
2026-01-17 22:05:53.04	338.97	7.45	-36.9	-38.0	21.6	0.00e+00	123	32	0	2055208960	46	6214
2026-01-17 22:05:57.08	338.61	7.19	-37.2	-38.3	21.2	0.00e+00	121	32	0	2067791872	46	6459
2026-01-17 22:06:01.12	338.27	6.92	-37.9	-39.1	20.6	0.00e+00	120	32	0	2080374784	48	6287
2026-01-17 22:06:05.16	337.93	6.66	-37.8	-38.9	20.6	0.00e+00	123	32	0	2092957696	48	6203
2026-01-17 22:06:09.20	337.59	6.40	-37.5	-38.6	20.8	0.00e+00	121	32	0	2105540608	48	5957
2026-01-17 22:06:13.24	337.26	6.14	-37.3	-38.4	20.9	0.00e+00	120	32	0	2118123520	48	5843
2026-01-17 22:06:17.27	336.94	5.89	-37.6	-38.8	20.4	0.00e+00	122	31	0	2130706432	48	6066
2026-01-17 22:06:21.31	336.63	5.63	-38.5	-39.8	18.8	0.00e+00	122	32	0	2143289344	48	6841
2026-01-17 22:06:25.35	336.32	5.38	-40.2	-42.0	16.1	0.00e+00	120	31	0	2155872256	52	7028
2026-01-17 22:06:29.39	336.01	5.13	-42.0	-44.9	12.2	8.23e-05	120	32	0	2168455168	56	7726
2026-01-17 22:06:33.44	335.71	4.88	-43.2	-48.3	7.3	6.38e-02	123	32	0	2181038080	58	10245
2026-01-17 22:06:37.48	335.41	4.63	-43.7	-52.9	4.3	1.27e+00	0	31	104	2186280960	58	17389
2026-01-17 22:06:41.52	335.13	4.38	-43.8	-55.6	3.5	1.51e+00	0	32	104	2186280960	60	21108
2026-01-17 22:06:45.56	334.84	4.14	-43.9	-55.8	3.5	1.51e+00	0	32	104	2186280960	60	21650
2026-01-17 22:06:49.60	334.56	3.89	-43.8	-56.4	3.5	1.52e+00	0	32	104	2186280960	60	23162
2026-01-17 22:06:53.63	334.29	3.65	-43.9	-56.7	3.5	1.52e+00	0	32	104	2186280960	60	23876
2026-01-17 22:06:57.67	334.02	3.41	-43.9	-56.6	3.5	1.52e+00	0	32	104	2186280960	60	23774
2026-01-17 22:07:01.71	333.75	3.17	-43.9	-56.6	3.5	1.52e+00	0	32	104	2186280960	60	23860
2026-01-17 22:07:05.74	333.49	2.93	-48.1	-60.9	3.5	1.51e+00	0	32	104	2186280960	60	38787
2026-01-17 22:07:09.78	333.24	2.70	-48.8	-61.6	3.5	1.52e+00	0	32	104	2186280960	60	42331
2026-01-17 22:07:13.82	332.99	2.46	-48.8	-61.7	3.5	1.51e+00	0	32	104	2186280960	60	42700
2026-01-17 22:07:17.86	332.74	2.23	-48.6	-61.6	3.5	1.52e+00	0	32	104	2186280960	60	42135
2026-01-17 22:07:21.90	332.50	2.00	-48.8	-61.6	3.5	1.52e+00	0	32	104	2186280960	60	42407
2026-01-17 22:07:25.94	332.26	1.76	-48.8	-61.6	3.5	1.52e+00	0	32	104	2186280960	60	42307
2026-01-17 22:07:29.98	332.02	1.54	-48.8	-61.6	3.5	1.52e+00	0	32	104	2186280960	60	42161
2026-01-17 22:07:34.01	331.79	1.31	-48.9	-61.7	3.5	1.52e+00	0	32	104	2186280960	60	42555
2026-01-17 22:07:38.05	331.56	1.08	-48.8	-61.6	3.5	1.52e+00	0	32	104	2186280960	60	42156
2026-01-17 22:07:42.09	331.34	0.86	-48.9	-61.7	3.5	1.51e+00	0	32	104	2186280960	60	42625
2026-01-17 22:07:46.13	331.12	0.63	-48.9	-61.7	3.5	1.52e+00	0	32	104	2186280960	60	42769
2026-01-17 22:07:50.17	330.90	0.41	-48.8	-61.6	3.5	1.52e+00	0	32	104	2186280960	60	42338
2026-01-17 22:07:54.21	330.69	0.19	-48.8	-61.7	3.5	1.52e+00	0	32	104	2186280960	60	42567
2026-01-17 22:07:58.25	330.48	-0.03	-48.9	-61.7	3.5	1.51e+00	0	32	104	2186280960	60	42584

#Closed at: 2026-01-17 22:07:58
#Recorded file [2186 MB]: D:/lorett/data/35029_260118_095357.dat