passes_logs/2026/01/17/R4.6S_Anadyr/R4.6S_Anadyr__20260117_160757_NOAA_20_JPSS-1_rec.log

#Pass ID: 20260117_160757_NOAA 20 (JPSS-1)
#Satellite: NOAA 20 (JPSS-1)
#Configuration: NOAA 20
#almurnet v.1.7.20251203
#Start time: 2026-01-17 16:08:01

#Version: 2.2.20231116
#Station: R4.6S_Anadyr
#Location: 177.4865 lon 64.73178 lat
#TLE: 1 43013U 17073A   26016.52825843  .00000039  00000+0  39346-4 0  9991
#TLE: 2 43013  98.7637 317.4515 0001446  37.2648 322.8628 14.19536276422951

#Time	Az	El	Level	Level2	SNR	BER	BlckErr	Temp	State	Recorded	gain1	gain2
2026-01-17 16:08:01.13	24.67	0.20	-48.6	-62.4	3.3	1.54e+00	0	27	0	0	60	47901
2026-01-17 16:08:05.17	24.54	0.43	-48.6	-63.8	3.6	1.51e+00	0	27	104	0	60	55967
2026-01-17 16:08:09.21	24.40	0.67	-48.2	-63.4	3.6	1.51e+00	0	27	104	0	60	53671
2026-01-17 16:08:13.25	24.26	0.91	-47.3	-62.5	3.6	1.51e+00	0	27	104	0	60	48227
2026-01-17 16:08:17.29	24.12	1.15	-47.1	-62.2	3.6	1.51e+00	0	27	104	0	60	46562
2026-01-17 16:08:21.33	23.98	1.39	-47.1	-62.1	3.6	1.51e+00	0	27	104	0	60	45886
2026-01-17 16:08:25.37	23.83	1.63	-47.0	-62.2	3.6	1.51e+00	0	27	104	0	60	46680
2026-01-17 16:08:29.41	23.68	1.88	-47.0	-61.7	3.6	1.51e+00	0	27	104	0	60	43912
2026-01-17 16:08:33.45	23.53	2.13	-47.0	-62.2	3.6	1.51e+00	0	28	104	0	60	46393
2026-01-17 16:08:37.50	23.38	2.38	-47.0	-62.1	3.6	1.51e+00	0	27	104	0	60	46119
2026-01-17 16:08:41.54	23.22	2.63	-47.0	-61.6	3.6	1.51e+00	0	28	104	0	60	43589
2026-01-17 16:08:45.58	23.06	2.88	-47.1	-62.2	3.6	1.51e+00	0	28	104	0	60	46432
2026-01-17 16:08:49.62	22.89	3.14	-46.4	-54.1	6.4	3.15e-01	0	28	0	1048576	60	18229
2026-01-17 16:08:53.67	22.73	3.40	-44.9	-49.1	11.9	4.15e-04	92	28	0	8388608	60	10317
2026-01-17 16:08:57.71	22.56	3.66	-42.3	-44.4	6.0	1.50e+00	43	28	104	13631488	60	5977
2026-01-17 16:09:01.75	22.38	3.92	-42.8	-45.0	16.3	4.80e-05	29	28	0	15728640	60	6456
2026-01-17 16:09:05.79	22.21	4.19	-41.6	-43.5	17.9	0.00e+00	19	28	0	23068672	56	6771
2026-01-17 16:09:09.83	22.02	4.45	-41.2	-42.9	18.6	0.00e+00	90	28	0	30408704	56	6331
2026-01-17 16:09:13.86	21.84	4.72	-40.9	-42.4	19.0	0.00e+00	49	28	0	37748736	54	6751
2026-01-17 16:09:17.90	21.65	4.99	-40.6	-42.1	19.5	0.00e+00	0	28	0	45088768	54	6465
2026-01-17 16:09:21.94	21.46	5.27	-40.3	-41.7	19.6	0.00e+00	0	28	0	53477376	54	6240
2026-01-17 16:09:25.97	21.27	5.54	-40.8	-42.3	19.2	0.00e+00	92	28	0	60817408	54	6655
2026-01-17 16:09:30.01	21.07	5.82	-40.7	-42.2	19.4	0.00e+00	53	28	0	68157440	54	6567
2026-01-17 16:09:34.05	20.86	6.10	-40.8	-42.3	19.4	0.00e+00	51	28	0	75497472	54	6691
2026-01-17 16:09:38.09	20.65	6.39	-40.4	-41.7	19.9	0.00e+00	90	28	0	82837504	54	6243
2026-01-17 16:09:42.13	20.44	6.68	-40.4	-41.8	19.8	0.00e+00	47	28	0	91226112	54	6295
2026-01-17 16:09:46.17	20.22	6.97	-40.1	-41.4	20.2	0.00e+00	0	28	0	98566144	54	6031
2026-01-17 16:09:50.21	20.00	7.26	-40.0	-41.2	20.5	7.00e-07	36	28	0	105906176	52	6602
2026-01-17 16:09:54.24	19.78	7.56	-39.8	-41.0	20.8	0.00e+00	92	28	0	113246208	52	6456
2026-01-17 16:09:58.28	19.54	7.86	-40.0	-41.3	20.6	0.00e+00	0	28	0	121634816	52	6626
2026-01-17 16:10:02.32	19.31	8.16	-39.6	-40.7	21.1	0.00e+00	0	28	0	128974848	52	6244
2026-01-17 16:10:06.36	19.06	8.46	-39.6	-40.8	21.0	0.00e+00	29	28	0	136314880	52	6286
2026-01-17 16:10:10.39	18.82	8.77	-39.3	-40.5	21.3	0.00e+00	92	28	0	143654912	52	6056
2026-01-17 16:10:14.43	18.56	9.08	-39.3	-40.4	21.5	0.00e+00	47	28	0	150994944	52	6007
2026-01-17 16:10:18.47	18.30	9.40	-39.3	-40.4	21.4	0.00e+00	0	28	0	159383552	52	6013
2026-01-17 16:10:22.51	18.04	9.72	-39.1	-40.2	21.6	0.00e+00	6	28	0	166723584	52	5875
2026-01-17 16:10:26.54	17.77	10.04	-39.3	-40.4	21.4	0.00e+00	92	28	0	174063616	52	6014
2026-01-17 16:10:30.58	17.49	10.36	-39.2	-40.3	21.5	0.00e+00	30	28	0	181403648	52	5937
2026-01-17 16:10:34.62	17.21	10.69	-39.0	-40.0	21.9	0.00e+00	55	28	0	189792256	52	5752
2026-01-17 16:10:38.66	16.91	11.03	-38.9	-40.0	22.0	0.00e+00	6	28	0	197132288	52	5708
2026-01-17 16:10:42.70	16.61	11.36	-38.7	-39.7	22.1	0.00e+00	92	28	0	204472320	50	6236
2026-01-17 16:10:46.73	16.31	11.70	-38.6	-39.7	22.2	0.00e+00	6	28	0	211812352	50	6195
2026-01-17 16:10:50.77	16.00	12.05	-38.6	-39.6	22.3	0.00e+00	0	28	0	219152384	50	6167
2026-01-17 16:10:54.81	15.67	12.40	-38.6	-39.6	22.5	0.00e+00	17	28	0	227540992	50	6120
2026-01-17 16:10:58.85	15.35	12.75	-38.5	-39.6	22.4	0.00e+00	92	28	0	234881024	50	6113
2026-01-17 16:11:02.89	15.01	13.10	-38.7	-39.7	22.2	0.00e+00	2	28	0	242221056	50	6212
2026-01-17 16:11:06.92	14.66	13.46	-38.6	-39.6	22.4	0.00e+00	0	28	0	249561088	50	6136
2026-01-17 16:11:10.96	14.31	13.83	-38.7	-39.8	22.2	0.00e+00	0	28	0	257949696	50	6280
2026-01-17 16:11:15.00	13.94	14.20	-38.6	-39.7	22.4	0.00e+00	24	28	0	265289728	50	6197
2026-01-17 16:11:19.04	13.57	14.57	-38.6	-39.7	22.4	0.00e+00	38	28	0	272629760	50	6183
2026-01-17 16:11:23.07	13.18	14.95	-38.8	-39.8	22.3	0.00e+00	0	28	0	279969792	50	6302
2026-01-17 16:11:27.11	12.79	15.33	-38.7	-39.7	22.4	0.00e+00	90	28	0	287309824	50	6216
2026-01-17 16:11:31.15	12.38	15.72	-38.5	-39.5	22.6	0.00e+00	0	28	0	295698432	50	6061
2026-01-17 16:11:35.19	11.97	16.12	-38.6	-39.6	22.5	0.00e+00	0	28	0	303038464	50	6138
2026-01-17 16:11:39.23	11.54	16.51	-38.3	-39.3	22.8	0.00e+00	0	28	0	310378496	50	5935
2026-01-17 16:11:43.26	11.10	16.91	-38.3	-39.3	22.7	0.00e+00	92	28	0	317718528	50	5939
2026-01-17 16:11:47.30	10.65	17.32	-38.4	-39.4	22.5	0.00e+00	0	28	0	326107136	50	5991
2026-01-17 16:11:51.34	10.18	17.73	-38.3	-39.3	22.8	0.00e+00	38	28	0	333447168	50	5929
2026-01-17 16:11:55.38	9.70	18.15	-38.4	-39.3	22.8	0.00e+00	0	28	0	340787200	50	5954
2026-01-17 16:11:59.42	9.21	18.57	-38.3	-39.3	22.9	0.00e+00	90	28	0	348127232	50	5935
2026-01-17 16:12:03.45	8.71	19.00	-38.4	-39.3	22.9	0.00e+00	0	28	0	355467264	50	5961
2026-01-17 16:12:07.50	8.18	19.43	-38.3	-39.3	22.9	0.00e+00	0	28	0	363855872	50	5916
2026-01-17 16:12:11.53	7.65	19.87	-38.6	-39.6	22.5	0.00e+00	0	28	0	371195904	50	6113
2026-01-17 16:12:15.57	7.10	20.31	-38.3	-39.3	22.8	0.00e+00	92	28	0	378535936	50	5935
2026-01-17 16:12:19.61	6.53	20.75	-38.3	-39.3	23.0	0.00e+00	32	28	0	385875968	50	5909
2026-01-17 16:12:23.65	5.94	21.21	-38.5	-39.5	22.8	0.00e+00	6	28	0	394264576	50	6060
2026-01-17 16:12:27.69	5.34	21.66	-38.7	-39.8	22.6	0.00e+00	56	28	0	401604608	50	6260
2026-01-17 16:12:31.72	4.71	22.12	-38.8	-39.8	22.5	0.00e+00	91	28	0	408944640	50	6316
2026-01-17 16:12:35.76	4.07	22.59	-38.9	-39.9	22.4	0.00e+00	34	28	0	416284672	50	6366
2026-01-17 16:12:39.80	3.41	23.06	-39.1	-40.2	22.2	0.00e+00	43	28	0	423624704	50	6544
2026-01-17 16:12:43.84	2.73	23.53	-38.9	-39.9	22.4	0.00e+00	0	28	0	432013312	50	6386
2026-01-17 16:12:47.87	2.02	24.01	-38.8	-39.8	22.5	0.00e+00	92	28	0	439353344	50	6291
2026-01-17 16:12:51.91	1.30	24.49	-38.6	-39.6	21.9	0.00e+00	0	28	0	446693376	50	6153
2026-01-17 16:12:55.95	0.55	24.98	-38.6	-39.6	22.7	0.00e+00	0	28	0	454033408	50	6138
2026-01-17 16:12:59.99	359.77	25.47	-38.9	-39.9	22.5	0.00e+00	33	28	0	461373440	50	6363
2026-01-17 16:13:04.02	358.98	25.96	-38.9	-39.9	22.4	0.00e+00	90	28	0	469762048	50	6372
2026-01-17 16:13:08.06	358.15	26.46	-39.3	-40.3	22.0	0.00e+00	47	28	0	477102080	50	6676
2026-01-17 16:13:12.10	357.30	26.95	-40.0	-41.2	21.4	0.00e+00	0	28	0	484442112	52	6569
2026-01-17 16:13:16.13	356.42	27.45	-40.4	-41.6	20.8	0.00e+00	91	28	0	491782144	52	6926
2026-01-17 16:13:20.17	355.52	27.95	-40.9	-42.2	20.3	0.00e+00	41	28	0	500170752	54	6586
2026-01-17 16:13:24.20	354.58	28.46	-40.9	-42.2	20.4	0.00e+00	35	28	0	507510784	54	6575
2026-01-17 16:13:28.24	353.62	28.96	-41.2	-42.5	20.1	0.00e+00	41	28	0	514850816	54	6837
2026-01-17 16:13:32.28	352.62	29.46	-40.9	-42.2	20.3	0.00e+00	90	28	0	522190848	54	6613
2026-01-17 16:13:36.32	351.59	29.96	-41.0	-42.4	20.1	0.00e+00	0	28	0	529530880	54	6714
2026-01-17 16:13:40.36	350.53	30.46	-41.7	-43.2	19.5	0.00e+00	34	28	0	537919488	54	7393
2026-01-17 16:13:44.40	349.43	30.95	-41.5	-43.0	19.7	0.00e+00	40	28	0	545259520	56	6399
2026-01-17 16:13:48.43	348.30	31.44	-41.1	-42.4	20.3	0.00e+00	91	28	0	552599552	56	6002
2026-01-17 16:13:52.47	347.14	31.93	-40.4	-41.7	21.0	0.00e+00	5	28	0	559939584	54	6176
2026-01-17 16:13:56.51	345.94	32.41	-40.5	-41.7	20.9	0.00e+00	0	28	0	568328192	54	6211
2026-01-17 16:14:00.55	344.70	32.89	-41.3	-42.6	20.0	0.00e+00	24	28	0	575668224	54	6927
2026-01-17 16:14:04.58	343.43	33.35	-41.6	-43.1	19.6	0.00e+00	90	28	0	583008256	54	7282
2026-01-17 16:14:08.62	342.12	33.81	-41.6	-43.0	19.6	0.00e+00	45	28	0	590348288	54	7223
2026-01-17 16:14:12.66	340.77	34.25	-42.2	-43.7	19.1	0.00e+00	47	28	0	597688320	56	6991
2026-01-17 16:14:16.70	339.39	34.68	-42.9	-44.7	18.1	0.00e+00	5	28	0	606076928	58	7003
2026-01-17 16:14:20.74	337.97	35.10	-42.5	-44.2	18.7	0.00e+00	92	28	0	613416960	58	6558
2026-01-17 16:14:24.78	336.51	35.51	-41.4	-42.8	20.0	0.00e+00	0	28	0	620756992	56	6299
2026-01-17 16:14:28.82	335.02	35.89	-41.3	-42.7	20.0	0.00e+00	41	28	0	628097024	56	6206
2026-01-17 16:14:32.86	333.49	36.26	-41.2	-42.5	20.2	0.00e+00	68	28	0	636485632	56	6091
2026-01-17 16:14:36.90	331.92	36.61	-39.7	-40.8	21.8	0.00e+00	92	28	0	643825664	52	6294
2026-01-17 16:14:40.94	330.32	36.94	-38.9	-40.0	22.6	0.00e+00	0	28	0	651165696	52	5697
2026-01-17 16:14:44.97	328.70	37.24	-38.3	-39.3	23.1	0.00e+00	0	28	0	658505728	50	5916
2026-01-17 16:14:49.02	327.04	37.52	-38.0	-38.9	23.5	0.00e+00	51	28	0	665845760	50	5664
2026-01-17 16:14:53.05	325.36	37.77	-38.2	-39.1	23.2	0.00e+00	62	28	0	674234368	50	5815
2026-01-17 16:14:57.08	323.65	38.00	-37.6	-38.4	24.0	0.00e+00	2	28	0	681574400	48	6023
2026-01-17 16:15:01.12	321.92	38.20	-37.2	-38.0	24.2	0.00e+00	0	28	0	688914432	48	5729
2026-01-17 16:15:05.16	320.16	38.37	-37.3	-38.2	24.1	0.00e+00	91	28	0	696254464	48	5844
2026-01-17 16:15:09.20	318.39	38.51	-37.1	-38.0	24.4	0.00e+00	40	28	0	704643072	48	5700
2026-01-17 16:15:13.24	316.61	38.62	-37.0	-37.8	24.6	0.00e+00	40	28	0	711983104	46	6299
2026-01-17 16:15:17.27	314.82	38.69	-37.3	-38.1	24.3	0.00e+00	40	28	0	719323136	46	6539
2026-01-17 16:15:21.32	313.01	38.74	-37.7	-38.6	23.7	0.00e+00	92	28	0	726663168	48	6137
2026-01-17 16:15:25.35	311.21	38.75	-38.4	-39.3	23.1	0.00e+00	0	28	0	734003200	48	6672
2026-01-17 16:15:29.39	309.40	38.73	-39.3	-40.4	22.3	0.00e+00	34	28	0	742391808	50	6735
2026-01-17 16:15:33.42	307.61	38.68	-39.2	-40.3	22.4	0.00e+00	36	28	0	749731840	50	6631
2026-01-17 16:15:37.46	305.81	38.59	-39.5	-40.6	22.0	0.00e+00	92	28	0	757071872	50	6896
2026-01-17 16:15:41.50	304.03	38.48	-40.0	-41.1	21.5	0.00e+00	5	28	0	764411904	52	6499
2026-01-17 16:15:45.54	302.26	38.33	-40.3	-41.4	21.3	0.00e+00	0	28	0	771751936	52	6764
2026-01-17 16:15:49.57	300.52	38.16	-40.4	-41.6	21.2	0.00e+00	0	28	0	780140544	52	6858
2026-01-17 16:15:53.61	298.79	37.95	-41.2	-42.6	20.1	0.00e+00	91	28	0	787480576	54	6875
2026-01-17 16:15:57.65	297.08	37.72	-40.7	-41.9	20.9	0.00e+00	6	28	0	794820608	54	6367
2026-01-17 16:16:01.68	295.40	37.46	-40.3	-41.5	21.2	0.00e+00	8	28	0	802160640	54	6040
2026-01-17 16:16:05.72	293.75	37.17	-39.8	-40.9	21.8	0.00e+00	0	28	0	810549248	52	6387
2026-01-17 16:16:09.76	292.12	36.86	-38.7	-39.7	22.8	0.00e+00	92	28	0	817889280	50	6194
2026-01-17 16:16:13.80	290.53	36.53	-37.9	-38.8	23.7	0.00e+00	42	28	0	825229312	50	5610
2026-01-17 16:16:17.84	288.97	36.17	-37.8	-38.6	23.8	0.00e+00	42	28	0	832569344	48	6167
2026-01-17 16:16:21.88	287.45	35.80	-37.4	-38.3	24.0	0.00e+00	88	28	0	839909376	48	5917
2026-01-17 16:16:25.91	285.96	35.41	-38.3	-39.3	23.2	0.00e+00	0	28	0	848297984	48	6616
2026-01-17 16:16:29.95	284.51	35.00	-38.7	-39.7	22.8	0.00e+00	34	28	0	855638016	48	6988
2026-01-17 16:16:33.98	283.10	34.58	-39.0	-40.0	22.6	0.00e+00	33	28	0	862978048	50	6445
2026-01-17 16:16:38.02	281.72	34.15	-39.1	-40.0	22.5	0.00e+00	72	28	0	870318080	50	6463
2026-01-17 16:16:42.05	280.38	33.70	-39.4	-40.5	22.1	0.00e+00	2	28	0	878706688	50	6792
2026-01-17 16:16:46.09	279.08	33.24	-39.7	-40.7	21.9	0.00e+00	0	28	0	886046720	52	6245
2026-01-17 16:16:50.13	277.81	32.77	-39.4	-40.5	22.2	0.00e+00	0	28	0	893386752	52	6056
2026-01-17 16:16:54.17	276.58	32.29	-40.0	-41.1	21.6	0.00e+00	92	28	0	900726784	52	6535
2026-01-17 16:16:58.21	275.38	31.81	-40.2	-41.4	21.4	0.00e+00	0	28	0	908066816	52	6742
2026-01-17 16:17:02.24	274.22	31.32	-40.7	-41.9	20.9	0.00e+00	48	28	0	916455424	52	7139
2026-01-17 16:17:06.28	273.10	30.83	-40.4	-41.6	20.9	0.00e+00	2	28	0	923795456	54	6171
2026-01-17 16:17:10.32	272.01	30.33	-40.3	-41.4	21.2	0.00e+00	92	28	0	931135488	54	6031
2026-01-17 16:17:14.36	270.95	29.83	-39.5	-40.6	22.0	0.00e+00	2	28	0	938475520	52	6120
2026-01-17 16:17:18.39	269.93	29.33	-39.5	-40.6	22.0	0.00e+00	0	28	0	946864128	52	6107
2026-01-17 16:17:22.42	268.94	28.83	-39.2	-40.2	22.4	0.00e+00	0	28	0	954204160	52	5841
2026-01-17 16:17:26.46	267.97	28.32	-38.7	-39.7	22.8	0.00e+00	92	28	0	961544192	50	6200
2026-01-17 16:17:30.50	267.04	27.82	-38.5	-39.4	23.1	0.00e+00	7	28	0	968884224	50	6006
2026-01-17 16:17:34.54	266.14	27.32	-38.2	-39.1	23.3	0.00e+00	7	28	0	976224256	50	5815
2026-01-17 16:17:38.57	265.26	26.82	-38.0	-38.9	23.4	0.00e+00	0	28	0	984612864	50	5692
2026-01-17 16:17:42.61	264.42	26.32	-37.9	-38.8	23.5	0.00e+00	92	28	0	991952896	50	5628
2026-01-17 16:17:46.65	263.59	25.82	-38.0	-39.0	23.6	0.00e+00	6	28	0	999292928	50	5701
2026-01-17 16:17:50.68	262.80	25.33	-37.8	-38.6	23.7	0.00e+00	52	28	0	1006632960	50	5500
2026-01-17 16:17:54.72	262.03	24.84	-38.0	-38.9	23.4	0.00e+00	0	28	0	1015021568	48	6379
2026-01-17 16:17:58.75	261.28	24.35	-38.2	-39.2	23.2	0.00e+00	92	28	0	1022361600	48	6560
2026-01-17 16:18:02.79	260.56	23.87	-38.1	-39.0	23.3	0.00e+00	32	28	0	1029701632	48	6441
2026-01-17 16:18:06.83	259.86	23.39	-38.0	-38.9	23.5	0.00e+00	31	28	0	1037041664	48	6351
2026-01-17 16:18:10.86	259.18	22.91	-38.3	-39.2	23.3	0.00e+00	88	28	0	1044381696	48	6597
2026-01-17 16:18:14.90	258.52	22.44	-38.8	-39.8	22.6	0.00e+00	90	28	0	1052770304	50	6282
2026-01-17 16:18:18.94	257.88	21.98	-38.9	-39.9	22.6	0.00e+00	0	28	0	1060110336	50	6370
2026-01-17 16:18:22.98	257.26	21.52	-39.2	-40.3	22.1	0.00e+00	0	28	0	1067450368	50	6631
2026-01-17 16:18:27.02	256.65	21.06	-39.8	-40.9	21.6	0.00e+00	88	28	0	1074790400	52	6336
2026-01-17 16:18:31.07	256.07	20.61	-39.6	-40.6	21.9	0.00e+00	53	28	0	1083179008	52	6169
2026-01-17 16:18:35.11	255.50	20.16	-39.2	-40.2	22.2	0.00e+00	0	28	0	1090519040	52	5878
2026-01-17 16:18:39.15	254.95	19.72	-39.7	-40.8	21.7	0.00e+00	0	28	0	1097859072	52	6256
2026-01-17 16:18:43.19	254.41	19.28	-39.8	-41.0	21.5	0.00e+00	92	28	0	1105199104	52	6412
2026-01-17 16:18:47.23	253.89	18.85	-39.6	-40.7	21.9	0.00e+00	34	28	0	1112539136	52	6216
2026-01-17 16:18:51.27	253.38	18.42	-39.2	-40.2	22.2	0.00e+00	0	28	0	1120927744	52	5865
2026-01-17 16:18:55.30	252.89	18.00	-39.4	-40.5	21.9	0.00e+00	0	28	0	1128267776	52	6043
2026-01-17 16:18:59.34	252.42	17.58	-39.6	-40.7	21.7	0.00e+00	92	28	0	1135607808	52	6190
2026-01-17 16:19:03.38	251.95	17.17	-39.4	-40.4	22.0	0.00e+00	0	28	0	1142947840	52	6011
2026-01-17 16:19:07.42	251.50	16.77	-39.2	-40.3	22.1	0.00e+00	0	28	0	1151336448	52	5906
2026-01-17 16:19:11.46	251.06	16.36	-39.3	-40.4	22.0	0.00e+00	0	28	0	1158676480	52	6001
2026-01-17 16:19:15.50	250.63	15.97	-39.6	-40.7	21.8	0.00e+00	92	28	0	1166016512	52	6203
2026-01-17 16:19:19.53	250.22	15.57	-39.6	-40.7	21.8	0.00e+00	0	28	0	1173356544	52	6178
2026-01-17 16:19:23.57	249.81	15.19	-39.3	-40.4	21.9	0.00e+00	0	28	0	1180696576	52	6008
2026-01-17 16:19:27.62	249.41	14.80	-39.3	-40.3	22.0	0.00e+00	0	28	0	1189085184	52	5941
2026-01-17 16:19:31.66	249.03	14.42	-39.3	-40.4	21.9	0.00e+00	91	28	0	1196425216	52	6010
2026-01-17 16:19:35.70	248.66	14.05	-39.6	-40.7	21.6	0.00e+00	7	28	0	1203765248	52	6223
2026-01-17 16:19:39.74	248.29	13.68	-40.1	-41.3	21.2	0.00e+00	0	28	0	1211105280	52	6616
2026-01-17 16:19:43.78	247.93	13.32	-40.1	-41.3	21.1	0.00e+00	0	28	0	1219493888	52	6634
2026-01-17 16:19:47.82	247.59	12.95	-40.0	-41.2	21.1	0.00e+00	51	28	0	1226833920	52	6582
2026-01-17 16:19:51.86	247.25	12.60	-40.1	-41.3	21.0	0.00e+00	51	28	0	1234173952	52	6675
2026-01-17 16:19:55.90	246.92	12.24	-40.4	-41.6	20.7	0.00e+00	2	28	0	1241513984	52	6920
2026-01-17 16:19:59.94	246.60	11.90	-40.4	-41.6	20.6	0.00e+00	92	28	0	1248854016	52	6917
2026-01-17 16:20:03.97	246.28	11.55	-40.4	-41.6	20.6	0.00e+00	0	28	0	1257242624	52	6916
2026-01-17 16:20:08.02	245.98	11.21	-40.7	-42.0	20.1	0.00e+00	31	28	0	1264582656	52	7200
2026-01-17 16:20:12.06	245.68	10.87	-41.2	-42.6	19.5	0.00e+00	53	28	0	1271922688	54	6904
2026-01-17 16:20:16.10	245.38	10.54	-41.4	-42.9	19.2	0.00e+00	90	28	0	1279262720	54	7107
2026-01-17 16:20:20.14	245.10	10.21	-41.5	-43.0	19.1	0.00e+00	2	28	0	1287651328	54	7216
2026-01-17 16:20:24.18	244.82	9.89	-41.7	-43.3	18.8	0.00e+00	0	28	0	1294991360	56	6650
2026-01-17 16:20:28.22	244.55	9.57	-41.9	-43.6	18.4	0.00e+00	51	28	0	1302331392	56	6879
2026-01-17 16:20:32.26	244.28	9.25	-42.2	-44.0	17.9	0.00e+00	92	28	0	1309671424	56	7197
2026-01-17 16:20:36.30	244.02	8.93	-42.6	-44.6	17.3	0.00e+00	0	28	0	1317011456	58	6915
2026-01-17 16:20:40.34	243.76	8.62	-43.0	-45.1	16.8	0.00e+00	0	28	0	1325400064	58	7310
2026-01-17 16:20:44.38	243.51	8.31	-43.4	-45.8	16.0	0.00e+00	0	28	0	1332740096	58	7934
2026-01-17 16:20:48.43	243.27	8.01	-43.5	-46.0	15.8	0.00e+00	92	28	0	1340080128	58	8075
2026-01-17 16:20:52.47	243.03	7.70	-43.8	-46.5	15.2	0.00e+00	6	28	0	1347420160	60	7649
2026-01-17 16:20:56.51	242.80	7.41	-44.1	-47.0	14.8	7.00e-07	0	28	0	1355808768	60	8051
2026-01-17 16:21:00.55	242.57	7.11	-44.6	-47.8	13.7	6.80e-06	0	28	0	1363148800	60	8894
2026-01-17 16:21:04.59	242.34	6.82	-44.8	-48.2	13.3	1.52e-05	91	28	0	1370488832	60	9314
2026-01-17 16:21:08.63	242.13	6.53	-45.2	-49.1	12.3	9.53e-05	61	29	0	1377828864	60	10358
2026-01-17 16:21:12.67	241.91	6.24	-45.5	-49.9	11.4	8.95e-04	60	28	0	1385168896	60	11347
2026-01-17 16:21:16.70	241.70	5.95	-45.8	-50.9	10.2	4.96e-03	82	28	0	1393557504	60	12648
2026-01-17 16:21:20.74	241.50	5.67	-45.9	-51.3	9.5	2.38e-02	59	28	0	1400897536	60	13331
2026-01-17 16:21:24.78	241.29	5.39	-46.1	-52.1	8.5	3.78e-02	26	28	0	1408237568	60	14600
2026-01-17 16:21:28.82	241.10	5.12	-46.3	-52.9	7.6	1.06e-01	27	29	0	1415577600	60	15942
2026-01-17 16:21:32.86	240.90	4.84	-46.4	-53.5	6.8	1.60e-01	92	29	0	1423966208	60	17031
2026-01-17 16:21:36.90	240.71	4.57	-46.4	-54.2	5.9	2.70e-01	0	29	0	1431306240	60	18515
2026-01-17 16:21:40.95	240.53	4.30	-46.5	-54.9	5.0	6.00e-01	0	28	0	1438646272	60	19988
2026-01-17 16:21:44.99	240.34	4.03	-46.5	-55.7	4.4	7.67e-01	0	29	0	1445986304	60	22100
2026-01-17 16:21:49.03	240.16	3.77	-46.5	-56.1	4.2	1.20e+00	92	29	0	1453326336	60	23189
2026-01-17 16:21:53.06	239.99	3.51	-46.5	-57.1	3.7	1.36e+00	0	29	0	1456472064	60	26009
2026-01-17 16:21:57.11	239.81	3.25	-46.5	-59.2	3.7	1.49e+00	0	29	104	1456472064	60	32800
2026-01-17 16:22:01.15	239.65	2.99	-47.6	-62.8	3.5	1.51e+00	0	28	104	1456472064	60	49725
2026-01-17 16:22:05.19	239.48	2.73	-48.7	-63.9	3.6	1.51e+00	0	29	104	1456472064	60	56594
2026-01-17 16:22:09.23	239.32	2.48	-48.7	-63.9	3.6	1.51e+00	0	29	104	1456472064	60	56903
2026-01-17 16:22:13.27	239.16	2.23	-48.6	-63.8	3.6	1.51e+00	0	29	104	1456472064	60	55849
2026-01-17 16:22:17.31	239.00	1.98	-48.8	-64.0	3.6	1.51e+00	0	29	104	1456472064	60	57239
2026-01-17 16:22:21.35	238.84	1.73	-48.6	-63.8	3.6	1.51e+00	0	29	104	1456472064	60	56072
2026-01-17 16:22:25.39	238.69	1.49	-48.6	-63.8	3.6	1.51e+00	0	29	104	1456472064	60	55938
2026-01-17 16:22:29.43	238.54	1.24	-48.6	-63.8	3.6	1.51e+00	0	29	104	1456472064	60	56199
2026-01-17 16:22:33.46	238.40	1.00	-48.6	-63.8	3.6	1.51e+00	0	29	104	1456472064	60	56072
2026-01-17 16:22:37.50	238.25	0.76	-48.6	-63.8	3.6	1.51e+00	0	28	104	1456472064	60	55973
2026-01-17 16:22:41.54	238.11	0.52	-48.6	-63.8	3.6	1.51e+00	0	28	104	1456472064	60	55684
2026-01-17 16:22:45.58	237.97	0.29	-48.6	-63.8	3.6	1.51e+00	0	29	104	1456472064	60	55826
2026-01-17 16:22:49.62	237.84	0.05	-48.6	-63.8	3.6	1.51e+00	0	28	104	1456472064	60	55810

#Closed at: 2026-01-17 16:22:50
#Recorded file [1456 MB]: D:/lorett/data/35029_260118_040801.dat