passes_logs/2026/01/17/R4.6S_Anadyr/R4.6S_Anadyr__20260117_004146_NOAA_20_JPSS-1_rec.log

#Pass ID: 20260117_004146_NOAA 20 (JPSS-1)
#Satellite: NOAA 20 (JPSS-1)
#Configuration: NOAA 20
#almurnet v.1.7.20251203
#Start time: 2026-01-17 00:41:46

#Version: 2.2.20231116
#Station: R4.6S_Anadyr
#Location: 177.4865 lon 64.73178 lat
#TLE: 1 43013U 17073A   26016.52825843  .00000039  00000+0  39346-4 0  9991
#TLE: 2 43013  98.7637 317.4515 0001446  37.2648 322.8628 14.19536276422951

#Time	Az	El	Level	Level2	SNR	BER	BlckErr	Temp	State	Recorded	gain1	gain2
2026-01-17 00:41:46.81	168.22	0.04	-48.4	-63.3	3.5	1.51e+00	0	25	0	0	60	52701
2026-01-17 00:41:50.84	168.29	0.29	-48.9	-64.1	3.6	1.51e+00	0	26	104	0	60	58133
2026-01-17 00:41:54.89	168.36	0.53	-48.5	-63.6	3.5	1.51e+00	0	26	104	0	60	54786
2026-01-17 00:41:58.92	168.43	0.78	-48.2	-63.4	3.6	1.51e+00	0	26	104	0	60	53692
2026-01-17 00:42:02.96	168.51	1.02	-47.6	-62.8	3.6	1.51e+00	0	27	104	0	60	49657
2026-01-17 00:42:06.99	168.58	1.27	-46.8	-61.9	3.6	1.51e+00	0	27	104	0	60	45092
2026-01-17 00:42:11.03	168.66	1.52	-46.8	-61.6	3.6	1.51e+00	0	27	104	0	60	43654
2026-01-17 00:42:15.07	168.74	1.78	-46.8	-61.6	3.6	1.51e+00	0	27	104	0	60	43369
2026-01-17 00:42:19.11	168.82	2.03	-46.8	-61.9	3.5	1.51e+00	0	27	104	0	60	45053
2026-01-17 00:42:23.15	168.90	2.29	-46.7	-61.5	3.6	1.51e+00	0	27	104	0	60	42902
2026-01-17 00:42:27.18	168.98	2.55	-46.7	-60.4	3.6	1.51e+00	0	27	104	0	60	37972
2026-01-17 00:42:31.22	169.06	2.82	-46.7	-59.7	3.7	1.51e+00	0	27	104	0	60	34743
2026-01-17 00:42:35.26	169.14	3.08	-44.9	-49.4	11.4	1.15e-03	92	27	0	5242880	60	10631
2026-01-17 00:42:39.29	169.23	3.35	-41.5	-43.4	17.5	0.00e+00	92	27	0	12582912	56	6712
2026-01-17 00:42:43.33	169.31	3.62	-40.8	-42.5	18.2	0.00e+00	2	27	0	19922944	54	6848
2026-01-17 00:42:47.37	169.40	3.90	-44.1	-47.6	15.0	6.40e-05	92	27	0	28311552	60	8646
2026-01-17 00:42:51.40	169.49	4.17	-45.5	-50.5	10.1	4.64e-03	92	27	0	32505856	60	12044
2026-01-17 00:42:55.44	169.58	4.45	-44.4	-48.0	12.5	2.53e-04	90	27	0	40894464	60	9115
2026-01-17 00:42:59.47	169.67	4.73	-44.5	-48.3	12.6	7.24e-05	0	27	0	48234496	60	9358
2026-01-17 00:43:03.51	169.77	5.02	-44.6	-48.4	14.5	1.44e-05	92	27	0	55574528	60	9504
2026-01-17 00:43:07.55	169.86	5.30	-43.8	-46.7	14.4	7.00e-07	92	28	0	62914560	60	7849
2026-01-17 00:43:11.58	169.96	5.60	-43.4	-46.0	15.4	0.00e+00	93	28	0	70254592	60	7225
2026-01-17 00:43:15.62	170.06	5.89	-42.5	-44.6	16.8	0.00e+00	9	28	0	78643200	58	6890
2026-01-17 00:43:19.66	170.16	6.19	-42.6	-44.8	17.4	0.00e+00	92	28	0	85983232	58	7017
2026-01-17 00:43:23.69	170.26	6.49	-42.0	-43.9	17.5	0.00e+00	92	28	0	93323264	56	7113
2026-01-17 00:43:27.72	170.36	6.79	-41.0	-42.6	18.9	0.00e+00	90	28	0	100663296	56	6128
2026-01-17 00:43:31.76	170.47	7.10	-39.2	-40.4	20.8	0.00e+00	90	28	0	109051904	52	6007
2026-01-17 00:43:35.80	170.58	7.41	-39.1	-40.3	21.2	0.00e+00	92	28	0	116391936	52	5918
2026-01-17 00:43:39.83	170.69	7.73	-38.8	-40.0	21.2	0.00e+00	91	28	0	123731968	50	6406
2026-01-17 00:43:43.87	170.80	8.05	-38.6	-39.7	21.7	0.00e+00	92	28	0	131072000	50	6223
2026-01-17 00:43:47.90	170.91	8.37	-38.6	-39.7	21.6	0.00e+00	90	28	0	138412032	50	6204
2026-01-17 00:43:51.94	171.03	8.70	-38.4	-39.5	21.9	0.00e+00	91	28	0	146800640	50	6060
2026-01-17 00:43:55.97	171.15	9.03	-38.2	-39.2	22.1	0.00e+00	92	28	0	154140672	50	5883
2026-01-17 00:44:00.00	171.27	9.36	-37.9	-39.0	22.4	0.00e+00	71	28	0	161480704	50	5702
2026-01-17 00:44:04.04	171.39	9.71	-37.7	-38.7	22.7	0.00e+00	92	28	0	168820736	48	6207
2026-01-17 00:44:08.07	171.52	10.05	-37.6	-38.6	22.8	0.00e+00	90	28	0	176160768	48	6110
2026-01-17 00:44:12.11	171.65	10.40	-37.5	-38.4	22.9	0.00e+00	92	28	0	184549376	48	6023
2026-01-17 00:44:16.14	171.78	10.76	-37.5	-38.4	22.9	0.00e+00	8	28	0	191889408	48	6013
2026-01-17 00:44:20.17	171.91	11.12	-37.4	-38.3	23.1	0.00e+00	90	28	0	199229440	48	5964
2026-01-17 00:44:24.21	172.05	11.48	-37.2	-38.1	23.3	0.00e+00	92	28	0	206569472	48	5791
2026-01-17 00:44:28.25	172.19	11.85	-37.2	-38.2	23.3	0.00e+00	92	29	0	214958080	48	5838
2026-01-17 00:44:32.28	172.33	12.23	-37.3	-38.2	23.3	0.00e+00	7	29	0	222298112	48	5855
2026-01-17 00:44:36.31	172.48	12.61	-37.1	-38.1	23.3	0.00e+00	92	28	0	229638144	48	5767
2026-01-17 00:44:40.35	172.63	13.00	-37.2	-38.1	23.5	0.00e+00	92	29	0	236978176	48	5796
2026-01-17 00:44:44.39	172.79	13.39	-36.9	-37.8	23.7	0.00e+00	91	29	0	244318208	48	5622
2026-01-17 00:44:48.42	172.95	13.79	-37.0	-37.9	23.5	0.00e+00	0	28	0	252706816	48	5673
2026-01-17 00:44:52.46	173.11	14.20	-37.1	-38.0	23.5	0.00e+00	92	29	0	260046848	48	5709
2026-01-17 00:44:56.49	173.28	14.61	-37.0	-37.9	23.7	0.00e+00	90	29	0	267386880	48	5635
2026-01-17 00:45:00.52	173.45	15.03	-37.3	-38.2	23.5	0.00e+00	90	29	0	274726912	48	5849
2026-01-17 00:45:04.56	173.62	15.46	-37.3	-38.2	23.5	0.00e+00	29	29	0	282066944	48	5879
2026-01-17 00:45:08.60	173.80	15.90	-37.7	-38.7	23.0	0.00e+00	90	29	0	290455552	48	6203
2026-01-17 00:45:12.64	173.99	16.34	-37.5	-38.5	23.2	0.00e+00	92	29	0	297795584	48	6049
2026-01-17 00:45:16.67	174.18	16.79	-37.8	-38.7	23.0	0.00e+00	91	29	0	305135616	48	6230
2026-01-17 00:45:20.70	174.37	17.25	-37.7	-38.6	23.1	0.00e+00	76	29	0	312475648	48	6171
2026-01-17 00:45:24.74	174.57	17.72	-37.9	-38.9	22.9	0.00e+00	92	29	0	320864256	48	6346
2026-01-17 00:45:28.78	174.78	18.19	-37.6	-38.6	23.2	0.00e+00	92	29	0	328204288	48	6119
2026-01-17 00:45:32.82	174.99	18.68	-37.7	-38.6	23.2	0.00e+00	92	29	0	335544320	48	6164
2026-01-17 00:45:36.85	175.21	19.18	-38.0	-39.0	23.0	0.00e+00	92	29	0	342884352	48	6426
2026-01-17 00:45:40.88	175.44	19.68	-37.8	-38.7	23.1	0.00e+00	91	29	0	350224384	48	6206
2026-01-17 00:45:44.92	175.67	20.19	-38.0	-38.9	22.8	0.00e+00	90	29	0	358612992	48	6374
2026-01-17 00:45:48.95	175.92	20.72	-37.9	-38.9	22.9	0.00e+00	69	29	0	365953024	48	6359
2026-01-17 00:45:52.99	176.17	21.25	-37.9	-38.9	22.9	0.00e+00	92	29	0	373293056	48	6353
2026-01-17 00:45:57.02	176.42	21.80	-37.9	-38.8	23.0	0.00e+00	91	29	0	380633088	48	6314
2026-01-17 00:46:01.06	176.69	22.36	-37.8	-38.7	23.1	0.00e+00	91	29	0	387973120	48	6237
2026-01-17 00:46:05.09	176.96	22.93	-37.7	-38.7	23.2	0.00e+00	57	29	0	396361728	48	6201
2026-01-17 00:46:09.13	177.25	23.51	-37.7	-38.7	23.1	0.00e+00	92	29	0	403701760	48	6184
2026-01-17 00:46:13.17	177.55	24.11	-37.8	-38.7	23.2	0.00e+00	92	29	0	411041792	48	6204
2026-01-17 00:46:17.20	177.85	24.72	-37.6	-38.5	23.4	0.00e+00	90	29	0	418381824	48	6090
2026-01-17 00:46:21.23	178.17	25.34	-37.7	-38.7	23.0	0.00e+00	77	29	0	426770432	48	6180
2026-01-17 00:46:25.27	178.50	25.97	-37.9	-38.9	23.2	0.00e+00	90	29	0	434110464	48	6347
2026-01-17 00:46:29.30	178.84	26.62	-37.9	-38.9	23.1	0.00e+00	92	29	0	441450496	48	6331
2026-01-17 00:46:33.34	179.20	27.29	-37.2	-38.0	23.8	0.00e+00	92	29	0	448790528	48	5754
2026-01-17 00:46:37.37	179.57	27.97	-37.2	-38.1	23.8	0.00e+00	0	29	0	456130560	48	5775
2026-01-17 00:46:41.41	179.96	28.66	-37.5	-38.4	23.5	0.00e+00	92	29	0	464519168	48	5966
2026-01-17 00:46:45.44	180.36	29.38	-38.0	-38.9	23.1	0.00e+00	92	29	0	471859200	48	6364
2026-01-17 00:46:49.48	180.79	30.11	-38.6	-39.6	22.4	0.00e+00	92	29	0	479199232	48	6901
2026-01-17 00:46:53.52	181.23	30.85	-39.0	-40.1	22.1	0.00e+00	0	29	0	486539264	50	6470
2026-01-17 00:46:57.55	181.69	31.62	-39.0	-40.1	22.0	0.00e+00	90	29	0	494927872	50	6492
2026-01-17 00:47:01.59	182.17	32.40	-39.3	-40.4	21.8	0.00e+00	92	29	0	502267904	50	6735
2026-01-17 00:47:05.63	182.68	33.20	-39.1	-40.2	21.8	0.00e+00	92	29	0	509607936	50	6567
2026-01-17 00:47:09.66	183.21	34.02	-38.7	-39.7	22.4	0.00e+00	82	29	0	516947968	50	6233
2026-01-17 00:47:13.70	183.77	34.87	-39.1	-40.2	22.0	0.00e+00	92	29	0	524288000	50	6542
2026-01-17 00:47:17.74	184.36	35.73	-39.1	-40.2	21.9	0.00e+00	92	30	0	532676608	50	6594
2026-01-17 00:47:21.78	184.98	36.61	-39.6	-40.7	21.4	0.00e+00	11	30	0	540016640	50	6999
2026-01-17 00:47:25.81	185.63	37.51	-40.4	-41.7	20.6	0.00e+00	75	29	0	547356672	52	6928
2026-01-17 00:47:29.85	186.32	38.43	-40.4	-41.6	20.8	0.00e+00	90	30	0	554696704	52	6925
2026-01-17 00:47:33.88	187.04	39.37	-40.8	-42.1	20.4	0.00e+00	90	30	0	563085312	52	7293
2026-01-17 00:47:37.92	187.82	40.34	-40.8	-42.1	20.2	0.00e+00	0	30	0	570425344	54	6532
2026-01-17 00:47:41.95	188.63	41.32	-40.2	-41.4	20.8	0.00e+00	92	30	0	577765376	54	5987
2026-01-17 00:47:45.99	189.50	42.33	-39.6	-40.7	21.5	0.00e+00	92	30	0	585105408	52	6244
2026-01-17 00:47:50.02	190.42	43.35	-39.3	-40.3	21.9	0.00e+00	90	30	0	592445440	52	5963
2026-01-17 00:47:54.06	191.41	44.40	-39.2	-40.2	22.0	0.00e+00	7	30	0	600834048	52	5895
2026-01-17 00:47:58.09	192.46	45.46	-40.1	-41.3	20.9	0.00e+00	92	30	0	608174080	52	6639
2026-01-17 00:48:02.12	193.58	46.54	-39.9	-41.0	21.2	0.00e+00	92	30	0	615514112	52	6460
2026-01-17 00:48:06.16	194.78	47.64	-39.3	-40.4	21.8	0.00e+00	92	30	0	622854144	52	6008
2026-01-17 00:48:10.20	196.07	48.75	-39.2	-40.3	22.0	0.00e+00	0	30	0	630194176	52	5961
2026-01-17 00:48:14.24	197.46	49.88	-37.2	-38.1	23.8	0.00e+00	92	30	0	638582784	48	5816
2026-01-17 00:48:18.28	198.95	51.01	-36.5	-37.3	24.5	0.00e+00	92	30	0	645922816	46	5911
2026-01-17 00:48:22.31	200.56	52.15	-34.8	-35.6	25.8	0.00e+00	92	30	0	653262848	44	5462
2026-01-17 00:48:26.35	202.29	53.29	-34.6	-35.3	26.2	0.00e+00	0	30	0	660602880	42	5950
2026-01-17 00:48:30.38	204.16	54.43	-34.7	-35.4	26.0	0.00e+00	92	30	0	668991488	42	6033
2026-01-17 00:48:34.41	206.18	55.56	-36.0	-36.8	24.8	0.00e+00	92	30	0	676331520	44	6280
2026-01-17 00:48:38.45	208.38	56.67	-37.6	-38.6	23.5	0.00e+00	56	30	0	683671552	46	6862
2026-01-17 00:48:42.48	210.75	57.77	-38.2	-39.2	22.6	0.00e+00	0	30	0	691011584	48	6562
2026-01-17 00:48:46.52	213.32	58.84	-38.1	-39.0	22.9	0.00e+00	92	30	0	698351616	48	6439
2026-01-17 00:48:50.55	216.10	59.86	-37.3	-38.2	23.8	0.00e+00	91	30	0	706740224	48	5880
2026-01-17 00:48:54.59	219.10	60.84	-36.3	-37.1	24.6	0.00e+00	92	30	0	714080256	46	5775
2026-01-17 00:48:58.62	222.34	61.76	-35.7	-36.5	25.2	0.00e+00	2	30	0	721420288	46	5423
2026-01-17 00:49:02.66	225.82	62.61	-36.1	-36.8	24.9	0.00e+00	91	30	0	728760320	44	6312
2026-01-17 00:49:06.69	229.52	63.37	-36.4	-37.3	24.6	0.00e+00	90	30	0	736100352	46	5909
2026-01-17 00:49:10.73	233.47	64.04	-37.4	-38.3	23.5	0.00e+00	9	30	0	744488960	46	6675
2026-01-17 00:49:14.77	237.63	64.59	-36.9	-37.8	24.1	0.00e+00	92	30	0	751828992	46	6259
2026-01-17 00:49:18.80	241.97	65.03	-38.4	-39.5	22.6	0.00e+00	92	30	0	759169024	48	6786
2026-01-17 00:49:22.84	246.46	65.33	-38.3	-39.3	22.8	0.00e+00	92	30	0	766509056	48	6640
2026-01-17 00:49:26.88	251.04	65.50	-38.0	-38.9	23.4	0.00e+00	4	30	0	774897664	50	5684
2026-01-17 00:49:30.91	255.65	65.52	-37.1	-38.0	24.0	0.00e+00	92	30	0	782237696	48	5728
2026-01-17 00:49:34.95	260.26	65.40	-37.2	-38.1	24.0	0.00e+00	92	30	0	789577728	48	5763
2026-01-17 00:49:38.99	264.78	65.15	-38.3	-39.3	22.8	0.00e+00	92	30	0	796917760	48	6654
2026-01-17 00:49:43.03	269.18	64.76	-36.7	-37.5	24.6	0.00e+00	78	30	0	804257792	46	6063
2026-01-17 00:49:47.07	273.40	64.24	-36.1	-36.9	24.8	0.00e+00	92	30	0	812646400	46	5684
2026-01-17 00:49:51.10	277.42	63.62	-35.6	-36.4	25.4	0.00e+00	92	30	0	819986432	44	5991
2026-01-17 00:49:55.14	281.21	62.89	-35.1	-35.9	25.7	0.00e+00	90	30	0	827326464	44	5667
2026-01-17 00:49:59.19	284.78	62.07	-34.7	-35.4	26.2	0.00e+00	68	30	0	834666496	42	6016
2026-01-17 00:50:03.22	288.09	61.17	-34.8	-35.6	25.9	0.00e+00	91	30	0	842006528	42	6146
2026-01-17 00:50:07.26	291.17	60.22	-35.8	-36.7	24.8	0.00e+00	92	30	0	850395136	42	6956
2026-01-17 00:50:11.29	294.02	59.21	-37.3	-38.3	23.5	0.00e+00	7	30	0	857735168	46	6619
2026-01-17 00:50:15.33	296.66	58.16	-37.3	-38.3	23.4	0.00e+00	0	30	0	865075200	48	5916
2026-01-17 00:50:19.37	299.10	57.07	-35.6	-36.4	25.3	0.00e+00	91	30	0	872415232	44	6016
2026-01-17 00:50:23.41	301.35	55.96	-34.2	-35.0	26.3	0.00e+00	90	30	0	880803840	42	5711
2026-01-17 00:50:27.45	303.43	54.84	-34.0	-34.8	26.6	0.00e+00	0	30	0	888143872	42	5577
2026-01-17 00:50:31.48	305.35	53.71	-34.3	-35.1	26.3	0.00e+00	0	30	0	895483904	40	6473
2026-01-17 00:50:35.52	307.13	52.57	-35.4	-36.2	25.6	0.00e+00	92	30	0	902823936	42	6563
2026-01-17 00:50:39.56	308.78	51.43	-37.3	-38.3	23.7	0.00e+00	90	30	0	910163968	46	6647
2026-01-17 00:50:43.59	310.30	50.30	-38.5	-39.6	22.5	0.00e+00	85	30	0	918552576	48	6901
2026-01-17 00:50:47.63	311.72	49.18	-40.8	-42.4	19.9	0.00e+00	14	30	0	925892608	52	7526
2026-01-17 00:50:51.66	313.04	48.07	-41.0	-42.5	19.9	0.00e+00	90	31	0	933232640	54	6795
2026-01-17 00:50:55.70	314.27	46.97	-40.9	-42.4	19.9	0.00e+00	92	30	0	940572672	54	6706
2026-01-17 00:50:59.74	315.42	45.89	-39.5	-40.6	21.7	0.00e+00	7	30	0	948961280	52	6156
2026-01-17 00:51:03.77	316.50	44.82	-39.5	-40.6	22.0	0.00e+00	92	30	0	956301312	52	6112
2026-01-17 00:51:07.81	317.50	43.78	-36.7	-37.5	24.4	0.00e+00	92	30	0	963641344	48	5439
2026-01-17 00:51:11.85	318.45	42.75	-37.2	-38.1	23.9	0.00e+00	0	30	0	970981376	46	6486
2026-01-17 00:51:15.88	319.33	41.74	-36.4	-37.2	24.7	0.00e+00	2	30	0	978321408	46	5844
2026-01-17 00:51:19.92	320.17	40.75	-36.3	-37.1	24.7	0.00e+00	92	30	0	986710016	44	6520
2026-01-17 00:51:23.95	320.95	39.79	-38.1	-39.1	23.1	0.00e+00	92	30	0	994050048	48	6513
2026-01-17 00:51:27.98	321.70	38.84	-35.4	-36.1	25.6	0.00e+00	69	30	0	1001390080	44	5804
2026-01-17 00:51:32.02	322.40	37.91	-38.0	-39.0	23.2	0.00e+00	12	30	0	1008730112	48	6444
2026-01-17 00:51:36.06	323.07	37.01	-37.7	-38.6	23.6	0.00e+00	92	30	0	1017118720	48	6173
2026-01-17 00:51:40.09	323.69	36.13	-36.2	-37.0	24.8	0.00e+00	92	30	0	1024458752	44	6413
2026-01-17 00:51:44.13	324.29	35.26	-38.4	-39.5	22.7	0.00e+00	0	30	0	1031798784	48	6774
2026-01-17 00:51:48.16	324.86	34.42	-37.7	-38.6	23.5	0.00e+00	0	30	0	1039138816	48	6161
2026-01-17 00:51:52.20	325.40	33.59	-37.0	-37.9	24.2	0.00e+00	92	30	0	1046478848	46	6355
2026-01-17 00:51:56.23	325.92	32.79	-38.4	-39.4	22.8	0.00e+00	92	30	0	1054867456	48	6725
2026-01-17 00:52:00.27	326.41	32.00	-38.7	-39.7	22.7	0.00e+00	67	30	0	1062207488	50	6203
2026-01-17 00:52:04.31	326.88	31.23	-39.7	-40.8	21.4	0.00e+00	0	30	0	1069547520	50	7055
2026-01-17 00:52:08.35	327.33	30.48	-39.5	-40.6	21.6	0.00e+00	91	30	0	1076887552	52	6166
2026-01-17 00:52:12.38	327.76	29.75	-38.4	-39.4	22.8	0.00e+00	90	30	0	1085276160	50	5984
2026-01-17 00:52:16.41	328.17	29.03	-38.2	-39.2	22.9	0.00e+00	71	30	0	1092616192	50	5851
2026-01-17 00:52:20.45	328.56	28.33	-38.3	-39.3	22.8	0.00e+00	6	30	0	1099956224	50	5950
2026-01-17 00:52:24.49	328.94	27.65	-38.5	-39.5	22.7	0.00e+00	92	30	0	1107296256	50	6047
2026-01-17 00:52:28.53	329.31	26.98	-37.9	-38.9	23.2	0.00e+00	48	30	0	1114636288	50	5635
2026-01-17 00:52:32.56	329.66	26.33	-37.0	-37.9	23.9	0.00e+00	5	30	0	1123024896	48	5647
2026-01-17 00:52:36.59	329.99	25.69	-37.1	-38.0	23.9	0.00e+00	25	30	0	1130364928	48	5719
2026-01-17 00:52:40.63	330.32	25.07	-37.6	-38.5	23.4	0.00e+00	92	30	0	1137704960	48	6080
2026-01-17 00:52:44.66	330.63	24.46	-37.9	-38.9	23.1	0.00e+00	78	30	0	1145044992	48	6322
2026-01-17 00:52:48.69	330.93	23.86	-37.2	-38.2	23.8	0.00e+00	0	30	0	1152385024	48	5843
2026-01-17 00:52:52.73	331.22	23.28	-36.4	-37.2	24.6	0.00e+00	90	30	0	1160773632	46	5850
2026-01-17 00:52:56.77	331.50	22.70	-35.9	-36.7	24.9	0.00e+00	6	30	0	1168113664	46	5557
2026-01-17 00:53:00.80	331.77	22.14	-36.0	-36.8	24.9	0.00e+00	73	30	0	1175453696	46	5594
2026-01-17 00:53:04.84	332.03	21.59	-36.4	-37.2	24.5	0.00e+00	73	30	0	1182793728	46	5855
2026-01-17 00:53:08.88	332.29	21.06	-37.1	-38.0	24.0	0.00e+00	92	30	0	1191182336	46	6417
2026-01-17 00:53:12.92	332.53	20.53	-36.7	-37.6	24.1	0.00e+00	0	30	0	1198522368	46	6132
2026-01-17 00:53:16.95	332.77	20.01	-36.9	-37.7	24.2	0.00e+00	7	30	0	1205862400	46	6245
2026-01-17 00:53:20.99	333.00	19.51	-36.2	-37.1	24.2	0.00e+00	74	30	0	1213202432	46	5773
2026-01-17 00:53:25.03	333.23	19.01	-36.3	-37.2	24.5	0.00e+00	91	30	0	1220542464	46	5835
2026-01-17 00:53:29.07	333.45	18.52	-36.3	-37.2	24.5	0.00e+00	74	30	0	1228931072	46	5846
2026-01-17 00:53:33.10	333.66	18.04	-36.7	-37.6	24.3	0.00e+00	0	30	0	1236271104	46	6104
2026-01-17 00:53:37.14	333.86	17.57	-36.8	-37.7	24.0	0.00e+00	0	30	0	1243611136	46	6215
2026-01-17 00:53:41.18	334.06	17.11	-37.4	-38.3	23.6	0.00e+00	92	30	0	1250951168	46	6692
2026-01-17 00:53:45.21	334.26	16.66	-37.3	-38.2	23.4	0.00e+00	74	30	0	1258291200	46	6596
2026-01-17 00:53:49.25	334.45	16.22	-37.0	-37.9	23.8	0.00e+00	0	30	0	1266679808	46	6322
2026-01-17 00:53:53.29	334.63	15.78	-37.0	-37.9	23.7	0.00e+00	0	29	0	1274019840	46	6385
2026-01-17 00:53:57.32	334.81	15.35	-37.1	-38.0	23.5	0.00e+00	92	30	0	1281359872	46	6447
2026-01-17 00:54:01.36	334.99	14.93	-37.3	-38.3	23.4	0.00e+00	2	30	0	1288699904	46	6625
2026-01-17 00:54:05.40	335.16	14.51	-37.3	-38.3	23.2	0.00e+00	77	29	0	1297088512	46	6633
2026-01-17 00:54:09.44	335.32	14.10	-37.8	-38.8	22.8	0.00e+00	0	30	0	1304428544	48	6246
2026-01-17 00:54:13.47	335.49	13.70	-37.9	-38.9	22.8	0.00e+00	90	29	0	1311768576	48	6328
2026-01-17 00:54:17.51	335.64	13.31	-38.0	-39.0	22.6	0.00e+00	2	30	0	1319108608	48	6438
2026-01-17 00:54:21.54	335.80	12.92	-38.3	-39.4	22.2	0.00e+00	6	30	0	1326448640	48	6716
2026-01-17 00:54:25.58	335.95	12.54	-38.3	-39.4	22.2	0.00e+00	92	29	0	1334837248	48	6717
2026-01-17 00:54:29.61	336.10	12.16	-38.4	-39.5	21.9	0.00e+00	4	30	0	1342177280	48	6794
2026-01-17 00:54:33.64	336.24	11.79	-38.8	-39.9	21.8	0.00e+00	0	29	0	1349517312	50	6329
2026-01-17 00:54:37.67	336.38	11.42	-38.6	-39.6	21.9	0.00e+00	83	29	0	1356857344	50	6171
2026-01-17 00:54:41.71	336.52	11.06	-38.7	-39.8	21.8	0.00e+00	91	29	0	1364197376	50	6265
2026-01-17 00:54:45.74	336.66	10.71	-38.5	-39.6	22.0	0.00e+00	4	29	0	1372585984	50	6150
2026-01-17 00:54:49.78	336.79	10.36	-38.5	-39.5	21.9	0.00e+00	3	29	0	1379926016	50	6096
2026-01-17 00:54:53.81	336.92	10.01	-38.5	-39.6	22.0	0.00e+00	78	29	0	1387266048	50	6116
2026-01-17 00:54:57.84	337.05	9.67	-38.4	-39.5	22.0	0.00e+00	92	29	0	1394606080	50	6048
2026-01-17 00:55:01.87	337.17	9.33	-38.2	-39.3	22.1	0.00e+00	0	29	0	1402994688	50	5925
2026-01-17 00:55:05.90	337.30	9.00	-38.2	-39.3	22.1	0.00e+00	0	29	0	1410334720	50	5920
2026-01-17 00:55:09.94	337.42	8.67	-38.2	-39.3	22.1	0.00e+00	3	29	0	1417674752	50	5951
2026-01-17 00:55:13.98	337.53	8.35	-38.2	-39.3	22.0	0.00e+00	90	29	0	1425014784	50	5918
2026-01-17 00:55:18.02	337.65	8.03	-38.3	-39.4	22.0	0.00e+00	81	29	0	1432354816	50	6011
2026-01-17 00:55:22.05	337.76	7.71	-38.4	-39.5	21.8	0.00e+00	0	29	0	1440743424	50	6055
2026-01-17 00:55:26.08	337.88	7.40	-38.3	-39.4	21.8	0.00e+00	0	29	0	1448083456	50	5991
2026-01-17 00:55:30.12	337.99	7.09	-38.4	-39.5	21.7	0.00e+00	92	29	0	1455423488	50	6059
2026-01-17 00:55:34.16	338.09	6.79	-38.7	-39.8	21.4	0.00e+00	0	29	0	1462763520	50	6314
2026-01-17 00:55:38.20	338.20	6.49	-38.6	-39.7	21.4	0.00e+00	0	29	0	1471152128	50	6233
2026-01-17 00:55:42.23	338.30	6.19	-38.6	-39.8	21.3	0.00e+00	0	29	0	1478492160	50	6297
2026-01-17 00:55:46.27	338.41	5.89	-38.9	-40.1	20.9	0.00e+00	91	29	0	1485832192	50	6497
2026-01-17 00:55:50.30	338.51	5.60	-39.6	-41.0	20.0	0.00e+00	0	29	0	1493172224	50	7177
2026-01-17 00:55:54.33	338.61	5.32	-39.9	-41.4	19.0	0.00e+00	0	29	0	1500512256	52	6761
2026-01-17 00:55:58.37	338.70	5.03	-41.2	-43.6	16.5	0.00e+00	0	29	0	1508900864	54	7686
2026-01-17 00:56:02.41	338.80	4.75	-42.3	-45.8	13.1	2.20e-06	86	29	0	1516240896	56	8911
2026-01-17 00:56:06.45	338.90	4.47	-43.1	-48.9	8.8	1.22e-02	0	29	0	1523580928	58	11353
2026-01-17 00:56:10.48	338.99	4.19	-43.4	-51.8	5.1	4.42e-01	6	29	0	1530920960	58	15819
2026-01-17 00:56:14.52	339.08	3.92	-43.5	-56.2	3.8	1.49e+00	0	29	104	1535115264	58	26053
2026-01-17 00:56:18.55	339.17	3.65	-43.6	-58.5	3.6	1.51e+00	0	29	104	1535115264	58	33997
2026-01-17 00:56:22.59	339.26	3.38	-43.6	-58.7	3.6	1.51e+00	0	29	104	1535115264	58	34790
2026-01-17 00:56:26.62	339.35	3.11	-43.7	-58.9	3.6	1.51e+00	0	29	104	1535115264	58	35537
2026-01-17 00:56:30.65	339.44	2.85	-47.7	-62.8	3.6	1.51e+00	0	29	104	1535115264	60	50066
2026-01-17 00:56:34.69	339.52	2.59	-48.5	-63.6	3.6	1.51e+00	0	29	104	1535115264	60	54766
2026-01-17 00:56:38.73	339.61	2.33	-47.5	-63.5	3.6	1.51e+00	0	29	104	1535115264	60	54070
2026-01-17 00:56:42.76	339.69	2.08	-48.3	-63.5	3.6	1.51e+00	0	29	104	1535115264	60	54326
2026-01-17 00:56:46.80	339.77	1.82	-48.4	-63.5	3.6	1.51e+00	0	29	104	1535115264	60	54159
2026-01-17 00:56:50.84	339.85	1.57	-48.4	-63.6	3.6	1.51e+00	0	29	104	1535115264	60	54458
2026-01-17 00:56:54.88	339.93	1.32	-48.4	-63.6	3.6	1.51e+00	0	29	104	1535115264	60	54501
2026-01-17 00:56:58.91	340.01	1.07	-48.4	-63.6	3.6	1.51e+00	0	29	104	1535115264	60	54723
2026-01-17 00:57:02.95	340.09	0.83	-48.8	-64.0	3.6	1.51e+00	0	29	104	1535115264	60	57585
2026-01-17 00:57:06.99	340.17	0.58	-48.4	-63.6	3.6	1.51e+00	0	29	104	1535115264	60	54537
2026-01-17 00:57:11.03	340.24	0.34	-48.5	-63.7	3.6	1.51e+00	0	29	104	1535115264	60	55295
2026-01-17 00:57:15.06	340.32	0.10	-48.4	-63.5	3.6	1.51e+00	0	29	104	1535115264	60	54098

#Closed at: 2026-01-17 00:57:17
#Recorded file [1535 MB]: D:/lorett/data/35029_260117_124146.dat