passes_logs/2026/01/17/R4.6S_Anadyr/R4.6S_Anadyr__20260117_044244_FENGYUN_3D_rec.log

#Pass ID: 20260117_044244_FENGYUN 3D
#Satellite: FENGYUN 3D
#Configuration: FENGYUN 3D
#almurnet v.1.7.20251203
#Start time: 2026-01-17 04:42:46

#Version: 2.2.20231116
#Station: R4.6S_Anadyr
#Location: 177.4865 lon 64.73178 lat
#TLE: 1 43010U 17072A   26016.62453405 -.00000112  00000+0 -31355-4 0  9995
#TLE: 2 43010  98.9932 348.4654 0002369 105.3910 254.7528 14.19694900423480

#Time	Az	El	Level	Level2	SNR	BER	BlckErr	Temp	State	Recorded	gain1	gain2
2026-01-17 04:42:46.42	220.74	0.10	-48.6	-66.4	3.5	3.02e+01	0	25	0	0	60	80752
2026-01-17 04:42:50.46	221.05	0.30	-48.0	-60.2	3.6	8.46e-01	0	27	104	0	60	36908
2026-01-17 04:42:54.50	221.36	0.49	-48.1	-60.3	3.6	8.46e-01	0	27	104	0	60	37255
2026-01-17 04:42:58.54	221.68	0.69	-47.2	-60.1	3.6	8.46e-01	0	27	104	0	60	36576
2026-01-17 04:43:02.57	222.00	0.89	-47.2	-59.3	3.6	8.45e-01	0	27	104	0	60	33337
2026-01-17 04:43:06.61	222.33	1.09	-45.1	-56.9	3.6	8.44e-01	0	27	104	0	60	25256
2026-01-17 04:43:10.65	222.66	1.29	-45.1	-56.8	3.6	8.45e-01	0	27	104	0	60	25054
2026-01-17 04:43:14.69	222.99	1.49	-45.1	-56.8	3.6	8.45e-01	0	27	104	0	60	25020
2026-01-17 04:43:18.72	223.33	1.69	-45.1	-56.9	3.6	8.46e-01	0	27	104	0	60	25320
2026-01-17 04:43:22.76	223.67	1.89	-45.1	-56.8	3.6	8.46e-01	0	27	104	0	60	24886
2026-01-17 04:43:26.79	224.02	2.09	-45.1	-56.7	3.6	8.45e-01	0	28	104	0	60	24592
2026-01-17 04:43:30.83	224.37	2.29	-45.1	-56.6	3.6	8.46e-01	0	27	104	0	60	24318
2026-01-17 04:43:34.87	224.73	2.50	-44.9	-54.6	3.6	8.45e-01	0	27	104	0	60	19375
2026-01-17 04:43:38.91	225.09	2.70	-42.5	-45.7	9.9	2.46e-02	0	27	0	10485760	58	7784
2026-01-17 04:43:42.94	225.46	2.91	-40.8	-42.9	12.8	2.97e-05	0	28	0	33554432	54	7152
2026-01-17 04:43:46.98	225.83	3.11	-42.2	-45.1	5.7	8.35e-01	0	28	104	49283072	60	6517
2026-01-17 04:43:51.02	226.21	3.32	-42.0	-44.6	11.6	1.20e-02	0	28	0	55574528	58	6911
2026-01-17 04:43:55.06	226.59	3.52	-41.5	-43.9	11.8	3.70e-04	0	28	0	77594624	56	7166
2026-01-17 04:43:59.10	226.98	3.73	-42.0	-44.6	12.1	8.89e-04	0	28	0	100663296	56	7706
2026-01-17 04:44:03.14	227.37	3.94	-41.9	-44.4	12.0	6.00e-04	0	28	0	123731968	56	7517
2026-01-17 04:44:07.18	227.77	4.14	-41.8	-44.0	13.0	1.23e-04	0	28	0	145752064	56	7177
2026-01-17 04:44:11.22	228.17	4.35	-41.5	-43.5	13.7	4.50e-06	0	28	0	168820736	56	6797
2026-01-17 04:44:15.26	228.58	4.56	-41.9	-44.0	13.3	1.94e-05	0	28	0	191889408	56	7236
2026-01-17 04:44:19.31	228.99	4.77	-42.0	-44.2	12.9	6.06e-05	0	28	0	213909504	56	7413
2026-01-17 04:44:23.35	229.41	4.98	-41.8	-43.9	13.3	3.08e-05	0	28	0	236978176	56	7139
2026-01-17 04:44:27.38	229.84	5.19	-42.1	-44.3	12.9	5.83e-05	0	28	0	260046848	56	7487
2026-01-17 04:44:31.42	230.27	5.40	-42.2	-44.4	13.0	4.80e-05	0	28	0	282066944	56	7568
2026-01-17 04:44:35.47	230.71	5.61	-42.5	-44.8	12.6	1.58e-04	0	28	0	305135616	56	7923
2026-01-17 04:44:39.50	231.15	5.82	-42.5	-44.7	12.8	6.98e-05	0	28	0	328204288	56	7831
2026-01-17 04:44:43.54	231.60	6.03	-42.6	-44.9	12.8	9.26e-05	0	28	0	350224384	58	7111
2026-01-17 04:44:47.58	232.06	6.24	-42.9	-45.3	12.3	2.80e-04	0	29	0	373293056	58	7460
2026-01-17 04:44:51.63	232.52	6.46	-42.6	-44.9	12.8	1.05e-04	0	28	0	396361728	58	7127
2026-01-17 04:44:55.66	232.99	6.67	-42.5	-44.6	13.0	6.75e-05	0	28	0	418381824	58	6922
2026-01-17 04:44:59.70	233.46	6.88	-42.6	-44.8	13.0	4.57e-05	0	29	0	441450496	58	7028
2026-01-17 04:45:03.74	233.95	7.09	-42.5	-44.6	13.3	3.89e-05	0	29	0	464519168	58	6925
2026-01-17 04:45:07.78	234.44	7.30	-42.4	-44.5	13.4	2.74e-05	0	29	0	486539264	58	6787
2026-01-17 04:45:11.82	234.93	7.52	-41.7	-43.6	14.3	0.00e+00	0	29	0	509607936	58	6131
2026-01-17 04:45:15.86	235.44	7.73	-41.7	-43.5	14.6	1.10e-06	0	29	0	532676608	56	6790
2026-01-17 04:45:19.90	235.95	7.94	-41.3	-43.0	15.1	0.00e+00	0	29	0	554696704	56	6443
2026-01-17 04:45:23.94	236.46	8.15	-40.8	-42.3	15.8	0.00e+00	0	29	0	577765376	56	5921
2026-01-17 04:45:27.98	236.99	8.36	-40.1	-41.5	16.7	0.00e+00	0	29	0	600834048	54	6050
2026-01-17 04:45:32.02	237.52	8.57	-39.8	-41.1	17.1	0.00e+00	0	29	0	622854144	54	5768
2026-01-17 04:45:36.07	238.06	8.78	-39.0	-40.2	18.0	0.00e+00	0	29	0	645922816	52	5832
2026-01-17 04:45:40.11	238.61	8.99	-38.5	-39.6	18.6	0.00e+00	0	29	0	668991488	50	6107
2026-01-17 04:45:44.14	239.16	9.20	-37.8	-38.8	19.3	0.00e+00	0	29	0	692060160	50	5606
2026-01-17 04:45:48.18	239.72	9.41	-37.5	-38.5	19.7	0.00e+00	0	29	0	714080256	48	6040
2026-01-17 04:45:52.22	240.29	9.62	-36.8	-37.8	20.4	0.00e+00	0	29	0	737148928	48	5587
2026-01-17 04:45:56.26	240.87	9.83	-36.3	-37.1	21.0	0.00e+00	0	29	0	759169024	46	5825
2026-01-17 04:46:00.30	241.46	10.04	-35.6	-36.4	21.7	0.00e+00	0	29	0	782237696	44	5992
2026-01-17 04:46:04.34	242.05	10.24	-35.3	-36.1	22.0	0.00e+00	0	29	0	805306368	44	5773
2026-01-17 04:46:08.39	242.66	10.45	-34.9	-35.7	22.3	0.00e+00	0	29	0	827326464	44	5566
2026-01-17 04:46:12.42	243.27	10.65	-34.2	-35.0	23.2	0.00e+00	0	29	0	850395136	42	5698
2026-01-17 04:46:16.46	243.89	10.85	-33.7	-34.5	23.7	0.00e+00	0	29	0	873463808	40	6063
2026-01-17 04:46:20.50	244.51	11.06	-33.3	-34.0	24.2	0.00e+00	0	29	0	896532480	40	5698
2026-01-17 04:46:24.54	245.15	11.26	-33.2	-34.0	24.3	0.00e+00	0	29	0	918552576	40	5705
2026-01-17 04:46:28.58	245.79	11.45	-32.9	-33.6	24.5	0.00e+00	0	29	0	941621248	40	5489
2026-01-17 04:46:32.62	246.44	11.65	-32.6	-33.3	24.9	0.00e+00	0	29	0	963641344	38	5924
2026-01-17 04:46:36.66	247.11	11.85	-32.3	-33.0	25.2	0.00e+00	0	29	0	986710016	38	5723
2026-01-17 04:46:40.70	247.77	12.04	-32.3	-33.0	25.2	0.00e+00	0	29	0	1009778688	38	5739
2026-01-17 04:46:44.74	248.45	12.23	-32.3	-33.0	25.2	0.00e+00	0	29	0	1032847360	38	5747
2026-01-17 04:46:48.78	249.14	12.42	-32.3	-33.0	25.2	0.00e+00	0	29	0	1054867456	38	5724
2026-01-17 04:46:52.81	249.83	12.60	-32.1	-32.8	25.3	0.00e+00	0	29	0	1077936128	38	5581
2026-01-17 04:46:56.85	250.53	12.79	-32.2	-32.9	25.3	0.00e+00	0	29	0	1101004800	38	5664
2026-01-17 04:47:00.89	251.25	12.97	-32.1	-32.8	25.4	0.00e+00	0	29	0	1123024896	38	5594
2026-01-17 04:47:04.93	251.97	13.15	-32.0	-32.7	25.5	0.00e+00	0	29	0	1146093568	38	5521
2026-01-17 04:47:08.97	252.69	13.32	-32.1	-32.7	25.5	0.00e+00	0	29	0	1168113664	38	5532
2026-01-17 04:47:13.01	253.43	13.50	-31.8	-32.4	25.7	0.00e+00	0	29	0	1191182336	36	6025
2026-01-17 04:47:17.05	254.18	13.67	-31.8	-32.4	25.6	0.00e+00	0	29	0	1214251008	36	6026
2026-01-17 04:47:21.09	254.93	13.83	-32.0	-32.6	25.6	0.00e+00	0	29	0	1236271104	36	6150
2026-01-17 04:47:25.13	255.69	14.00	-32.0	-32.7	25.5	0.00e+00	0	30	0	1259339776	36	6224
2026-01-17 04:47:29.17	256.46	14.16	-31.7	-32.4	25.8	0.00e+00	0	29	0	1282408448	36	6010
2026-01-17 04:47:33.21	257.24	14.31	-31.9	-32.6	25.6	0.00e+00	0	30	0	1305477120	36	6163
2026-01-17 04:47:37.24	258.02	14.46	-31.8	-32.4	25.7	0.00e+00	0	30	0	1327497216	36	6000
2026-01-17 04:47:41.28	258.82	14.61	-31.4	-32.1	26.0	0.00e+00	0	30	0	1350565888	36	5808
2026-01-17 04:47:45.32	259.62	14.75	-31.7	-32.4	25.7	0.00e+00	0	30	0	1372585984	36	5992
2026-01-17 04:47:49.36	260.42	14.89	-31.8	-32.4	25.6	0.00e+00	0	29	0	1395654656	36	6022
2026-01-17 04:47:53.40	261.24	15.03	-31.5	-32.1	26.0	0.00e+00	0	30	0	1418723328	36	5794
2026-01-17 04:47:57.45	262.06	15.16	-31.2	-31.8	26.3	0.00e+00	0	30	0	1441792000	36	5600
2026-01-17 04:48:01.49	262.89	15.28	-31.4	-32.0	26.0	0.00e+00	0	30	0	1463812096	36	5735
2026-01-17 04:48:05.53	263.73	15.40	-31.5	-32.2	26.0	0.00e+00	0	30	0	1486880768	36	5866
2026-01-17 04:48:09.56	264.57	15.51	-31.3	-31.9	26.1	0.00e+00	0	30	0	1509949440	36	5650
2026-01-17 04:48:13.60	265.42	15.62	-31.6	-32.2	25.9	0.00e+00	0	30	0	1531969536	36	5890
2026-01-17 04:48:17.64	266.27	15.73	-31.5	-32.2	25.9	0.00e+00	0	30	0	1555038208	36	5841
2026-01-17 04:48:21.68	267.13	15.83	-31.3	-32.0	26.2	0.00e+00	0	30	0	1577058304	36	5708
2026-01-17 04:48:25.72	267.99	15.92	-31.5	-32.2	26.0	0.00e+00	0	30	0	1600126976	36	5860
2026-01-17 04:48:29.76	268.86	16.00	-31.3	-32.0	26.1	0.00e+00	0	30	0	1623195648	36	5749
2026-01-17 04:48:33.80	269.74	16.09	-31.3	-31.9	26.2	0.00e+00	0	30	0	1646264320	36	5681
2026-01-17 04:48:37.84	270.62	16.16	-31.4	-32.1	26.0	0.00e+00	0	30	0	1668284416	36	5795
2026-01-17 04:48:41.88	271.50	16.23	-31.4	-32.1	26.1	0.00e+00	0	30	0	1691353088	36	5770
2026-01-17 04:48:45.91	272.38	16.29	-31.2	-31.8	26.2	0.00e+00	0	30	0	1714421760	36	5628
2026-01-17 04:48:49.95	273.27	16.35	-31.1	-31.7	26.3	0.00e+00	0	30	0	1736441856	36	5560
2026-01-17 04:48:53.99	274.17	16.39	-31.0	-31.7	26.4	0.00e+00	0	30	0	1759510528	36	5526
2026-01-17 04:48:58.03	275.06	16.44	-31.2	-31.9	26.3	0.00e+00	0	30	0	1781530624	36	5634
2026-01-17 04:49:02.06	275.96	16.47	-30.9	-31.5	26.4	0.00e+00	0	30	0	1804599296	36	5433
2026-01-17 04:49:06.10	276.86	16.50	-31.0	-31.6	26.4	0.00e+00	0	30	0	1827667968	36	5493
2026-01-17 04:49:10.14	277.76	16.53	-31.0	-31.6	26.4	0.00e+00	0	30	0	1850736640	36	5478
2026-01-17 04:49:14.18	278.66	16.54	-31.1	-31.7	26.3	0.00e+00	0	30	0	1872756736	36	5536
2026-01-17 04:49:18.22	279.56	16.55	-31.1	-31.8	26.3	0.00e+00	0	30	0	1895825408	36	5584
2026-01-17 04:49:22.26	280.46	16.55	-31.0	-31.7	26.4	0.00e+00	0	30	0	1918894080	36	5504
2026-01-17 04:49:26.30	281.37	16.55	-31.1	-31.7	26.2	0.00e+00	0	30	0	1940914176	36	5528
2026-01-17 04:49:30.34	282.27	16.54	-31.1	-31.7	26.3	0.00e+00	0	30	0	1963982848	36	5543
2026-01-17 04:49:34.39	283.17	16.52	-31.3	-32.0	26.1	0.00e+00	0	30	0	1986002944	36	5720
2026-01-17 04:49:38.43	284.07	16.50	-31.3	-31.9	26.1	0.00e+00	0	30	0	2009071616	36	5687
2026-01-17 04:49:42.48	284.97	16.47	-31.4	-32.0	26.0	0.00e+00	0	30	0	2032140288	36	5741
2026-01-17 04:49:46.52	285.87	16.43	-31.0	-31.6	26.4	0.00e+00	0	30	0	2055208960	36	5478
2026-01-17 04:49:50.56	286.76	16.38	-31.1	-31.7	26.2	0.00e+00	0	30	0	2077229056	36	5562
2026-01-17 04:49:54.60	287.65	16.33	-31.2	-31.9	26.1	0.00e+00	0	30	0	2100297728	36	5648
2026-01-17 04:49:58.63	288.54	16.28	-31.3	-32.0	26.0	0.00e+00	0	30	0	2123366400	36	5738
2026-01-17 04:50:02.68	289.43	16.21	-31.5	-32.1	26.0	0.00e+00	0	30	0	2145386496	36	5791
2026-01-17 04:50:06.72	290.31	16.14	-31.4	-32.0	26.0	0.00e+00	0	30	0	2168455168	36	5715
2026-01-17 04:50:10.76	291.18	16.07	-31.5	-32.2	26.0	0.00e+00	0	30	0	2191523840	36	5834
2026-01-17 04:50:14.80	292.05	15.99	-31.6	-32.3	25.8	0.00e+00	0	30	0	2213543936	36	5957
2026-01-17 04:50:18.84	292.92	15.90	-31.7	-32.3	25.7	0.00e+00	0	30	0	2236612608	36	5921
2026-01-17 04:50:22.88	293.78	15.81	-31.5	-32.2	26.0	0.00e+00	0	30	0	2259681280	36	5858
2026-01-17 04:50:26.92	294.64	15.71	-31.6	-32.2	25.9	0.00e+00	0	30	0	2281701376	36	5888
2026-01-17 04:50:30.96	295.49	15.60	-31.8	-32.5	25.6	0.00e+00	0	30	0	2304770048	36	6077
2026-01-17 04:50:34.99	296.33	15.49	-31.8	-32.5	25.6	0.00e+00	0	30	0	2327838720	36	6098
2026-01-17 04:50:39.03	297.17	15.38	-32.0	-32.6	25.5	0.00e+00	0	30	0	2349858816	36	6126
2026-01-17 04:50:43.07	298.00	15.26	-31.7	-32.4	25.7	0.00e+00	0	30	0	2372927488	36	5990
2026-01-17 04:50:47.11	298.83	15.13	-32.0	-32.7	25.6	0.00e+00	0	30	0	2395996160	36	6200
2026-01-17 04:50:51.15	299.65	15.00	-31.7	-32.4	25.7	0.00e+00	0	30	0	2418016256	36	5971
2026-01-17 04:50:55.19	300.46	14.87	-31.8	-32.4	25.7	0.00e+00	0	30	0	2441084928	36	6002
2026-01-17 04:50:59.23	301.26	14.73	-31.7	-32.4	25.8	0.00e+00	0	30	0	2464153600	36	6026
2026-01-17 04:51:03.27	302.06	14.59	-31.9	-32.6	25.7	0.00e+00	0	30	0	2486173696	36	6120
2026-01-17 04:51:07.31	302.85	14.44	-31.9	-32.6	25.8	0.00e+00	0	30	0	2509242368	36	6106
2026-01-17 04:51:11.35	303.63	14.29	-32.0	-32.7	25.5	0.00e+00	0	30	0	2532311040	36	6231
2026-01-17 04:51:15.39	304.40	14.13	-31.9	-32.5	25.6	0.00e+00	0	29	0	2555379712	36	6071
2026-01-17 04:51:19.43	305.17	13.97	-32.0	-32.7	25.5	0.00e+00	0	29	0	2577399808	36	6178
2026-01-17 04:51:23.48	305.93	13.81	-32.1	-32.8	25.4	0.00e+00	0	30	0	2600468480	36	6259
2026-01-17 04:51:27.52	306.68	13.65	-32.1	-32.8	25.4	0.00e+00	0	29	0	2622488576	36	6264
2026-01-17 04:51:31.55	307.41	13.48	-32.3	-32.9	25.4	0.00e+00	0	29	0	2645557248	36	6338
2026-01-17 04:51:35.59	308.15	13.30	-32.0	-32.7	25.5	0.00e+00	0	29	0	2668625920	36	6195
2026-01-17 04:51:39.63	308.87	13.13	-32.2	-32.9	25.3	0.00e+00	0	29	0	2690646016	36	6344
2026-01-17 04:51:43.67	309.59	12.95	-32.3	-33.0	25.2	0.00e+00	0	29	0	2713714688	36	6429
2026-01-17 04:51:47.71	310.29	12.77	-32.2	-32.9	25.4	0.00e+00	0	29	0	2736783360	36	6350
2026-01-17 04:51:51.75	310.99	12.59	-32.3	-33.0	25.2	0.00e+00	0	29	0	2759852032	36	6404
2026-01-17 04:51:55.79	311.68	12.40	-32.6	-33.2	24.9	0.00e+00	0	29	0	2781872128	36	6607
2026-01-17 04:51:59.83	312.37	12.21	-32.9	-33.6	24.6	0.00e+00	0	29	0	2804940800	38	6167
2026-01-17 04:52:03.87	313.04	12.02	-32.7	-33.4	24.8	0.00e+00	0	29	0	2826960896	38	5985
2026-01-17 04:52:07.91	313.70	11.83	-32.7	-33.5	24.7	0.00e+00	0	29	0	2850029568	38	6055
2026-01-17 04:52:11.95	314.36	11.64	-32.7	-33.4	24.9	0.00e+00	0	29	0	2873098240	38	5981
2026-01-17 04:52:15.99	315.01	11.44	-32.7	-33.4	24.8	0.00e+00	0	29	0	2896166912	38	5984
2026-01-17 04:52:20.03	315.65	11.24	-32.8	-33.6	24.8	0.00e+00	0	29	0	2918187008	38	6121
2026-01-17 04:52:24.07	316.28	11.05	-32.8	-33.5	24.7	0.00e+00	0	29	0	2941255680	38	6063
2026-01-17 04:52:28.11	316.90	10.85	-32.8	-33.4	24.7	0.00e+00	0	29	0	2964324352	38	6003
2026-01-17 04:52:32.15	317.52	10.64	-32.9	-33.7	24.5	0.00e+00	0	29	0	2986344448	38	6209
2026-01-17 04:52:36.19	318.13	10.44	-33.2	-34.0	24.1	0.00e+00	0	29	0	3009413120	38	6430
2026-01-17 04:52:40.23	318.73	10.24	-33.2	-33.8	24.1	0.00e+00	0	29	0	3031433216	38	6315
2026-01-17 04:52:44.26	319.32	10.04	-33.1	-33.9	24.3	0.00e+00	0	29	0	3054501888	38	6386
2026-01-17 04:52:48.30	319.90	9.83	-33.4	-34.0	24.1	0.00e+00	0	29	0	3077570560	38	6440
2026-01-17 04:52:52.34	320.47	9.62	-33.8	-34.6	23.7	0.00e+00	0	29	0	3100639232	38	6904
2026-01-17 04:52:56.38	321.04	9.42	-33.5	-34.1	23.9	0.00e+00	0	29	0	3122659328	40	5819
2026-01-17 04:53:00.42	321.60	9.21	-33.5	-34.2	23.9	0.00e+00	0	29	0	3145728000	40	5837
2026-01-17 04:53:04.46	322.15	9.00	-33.4	-34.1	24.0	0.00e+00	0	29	0	3167748096	40	5828
2026-01-17 04:53:08.50	322.70	8.79	-33.5	-34.1	23.9	0.00e+00	0	29	0	3190816768	40	5819
2026-01-17 04:53:12.54	323.23	8.58	-33.7	-34.5	23.7	0.00e+00	0	29	0	3213885440	40	6080
2026-01-17 04:53:16.58	323.76	8.37	-33.8	-34.6	23.5	0.00e+00	0	29	0	3235905536	40	6121
2026-01-17 04:53:20.62	324.28	8.16	-33.7	-34.5	23.6	0.00e+00	0	29	0	3258974208	40	6099
2026-01-17 04:53:24.66	324.80	7.96	-33.9	-34.7	23.3	0.00e+00	0	29	0	3282042880	40	6242
2026-01-17 04:53:28.69	325.31	7.75	-33.8	-34.6	23.5	0.00e+00	0	29	0	3305111552	40	6112
2026-01-17 04:53:32.73	325.81	7.54	-33.9	-34.7	23.4	0.00e+00	0	29	0	3327131648	40	6195
2026-01-17 04:53:36.77	326.30	7.33	-34.1	-34.9	23.2	0.00e+00	0	29	0	3350200320	40	6323
2026-01-17 04:53:40.81	326.79	7.12	-34.4	-35.2	22.9	0.00e+00	0	29	0	3372220416	40	6585
2026-01-17 04:53:44.85	327.27	6.91	-34.5	-35.3	22.7	0.00e+00	0	29	0	3395289088	40	6634
2026-01-17 04:53:48.89	327.74	6.70	-34.8	-35.6	22.5	0.00e+00	0	29	0	3418357760	42	6104
2026-01-17 04:53:52.93	328.21	6.49	-34.7	-35.4	22.2	0.00e+00	0	29	0	3440377856	42	6000
2026-01-17 04:53:56.97	328.67	6.28	-35.0	-35.7	22.2	0.00e+00	0	29	0	3463446528	42	6225
2026-01-17 04:54:01.01	329.13	6.07	-35.0	-35.8	22.3	0.00e+00	0	29	0	3486515200	42	6247
2026-01-17 04:54:05.05	329.58	5.86	-34.9	-35.7	22.1	0.00e+00	0	29	0	3509583872	42	6178
2026-01-17 04:54:09.09	330.02	5.65	-34.8	-35.5	22.3	0.00e+00	0	29	0	3531603968	42	6079
2026-01-17 04:54:13.13	330.46	5.44	-35.0	-35.8	21.9	0.00e+00	0	29	0	3554672640	42	6286
2026-01-17 04:54:17.17	330.89	5.23	-35.0	-35.8	21.9	0.00e+00	0	29	0	3576692736	42	6289
2026-01-17 04:54:21.21	331.31	5.02	-35.0	-35.8	21.8	0.00e+00	0	29	0	3599761408	42	6305
2026-01-17 04:54:25.25	331.73	4.82	-35.5	-36.3	21.3	0.00e+00	0	29	0	3622830080	42	6616
2026-01-17 04:54:29.28	332.14	4.61	-36.2	-37.1	19.9	0.00e+00	0	29	0	3644850176	44	6516
2026-01-17 04:54:33.32	332.55	4.40	-38.8	-40.4	15.1	0.00e+00	0	29	0	3667918848	48	7577
2026-01-17 04:54:37.35	332.95	4.20	-41.5	-45.4	8.0	5.46e-02	0	29	0	3690987520	54	9457
2026-01-17 04:54:41.39	333.35	3.99	-42.7	-51.9	3.7	8.38e-01	0	29	104	3700424704	56	17910
2026-01-17 04:54:45.43	333.74	3.79	-42.8	-54.2	3.6	8.45e-01	0	29	104	3700424704	58	20911
2026-01-17 04:54:49.47	334.13	3.58	-42.9	-54.9	3.6	8.46e-01	0	29	104	3700424704	58	22617
2026-01-17 04:54:53.51	334.51	3.38	-43.0	-55.0	3.6	8.45e-01	0	29	104	3700424704	58	22863
2026-01-17 04:54:57.55	334.89	3.17	-43.0	-55.0	3.6	8.45e-01	0	29	104	3700424704	58	22753
2026-01-17 04:55:01.59	335.26	2.97	-42.9	-54.9	3.6	8.45e-01	0	29	104	3700424704	58	22609
2026-01-17 04:55:05.63	335.63	2.77	-47.9	-59.9	3.6	8.45e-01	0	29	104	3700424704	60	35930
2026-01-17 04:55:09.67	335.99	2.57	-48.1	-60.2	3.5	8.45e-01	0	29	104	3700424704	60	36962
2026-01-17 04:55:13.71	336.35	2.36	-47.8	-60.1	3.6	8.46e-01	0	29	104	3700424704	60	36652
2026-01-17 04:55:17.74	336.70	2.16	-48.0	-60.2	3.6	8.46e-01	0	29	104	3700424704	60	36816
2026-01-17 04:55:21.78	337.05	1.96	-48.0	-60.1	3.6	8.44e-01	0	29	104	3700424704	60	36694
2026-01-17 04:55:25.81	337.39	1.77	-48.0	-60.1	3.6	8.46e-01	0	29	104	3700424704	60	36573
2026-01-17 04:55:29.86	337.73	1.57	-48.0	-60.1	3.6	8.45e-01	0	29	104	3700424704	60	36544
2026-01-17 04:55:33.90	338.07	1.37	-48.0	-60.1	3.6	8.44e-01	0	29	104	3700424704	60	36610
2026-01-17 04:55:37.94	338.40	1.17	-48.0	-60.2	3.6	8.45e-01	0	29	104	3700424704	60	36913
2026-01-17 04:55:41.98	338.73	0.97	-48.0	-60.1	3.6	8.46e-01	0	29	104	3700424704	60	36752
2026-01-17 04:55:46.02	339.05	0.78	-48.0	-60.1	3.6	8.45e-01	0	29	104	3700424704	60	36531
2026-01-17 04:55:50.06	339.37	0.58	-48.0	-60.1	3.6	8.46e-01	0	29	104	3700424704	60	36535
2026-01-17 04:55:54.10	339.68	0.39	-48.0	-60.1	3.6	8.46e-01	0	29	104	3700424704	60	36475
2026-01-17 04:55:58.14	340.00	0.19	-48.0	-60.1	3.6	8.46e-01	0	29	104	3700424704	60	36630
2026-01-17 04:56:02.18	340.30	-0.00	-48.0	-60.1	3.6	8.46e-01	0	29	104	3700424704	60	36386

#Closed at: 2026-01-17 04:56:04
#Recorded file [3700 MB]: D:/lorett/data/35029_260117_164246.dat