passes_logs/2026/01/17/R4.6S_Anadyr/R4.6S_Anadyr__20260117_222306_SUOMI_NPP_rec.log

#Pass ID: 20260117_222306_SUOMI NPP
#Satellite: SUOMI NPP
#Configuration: NPP
#almurnet v.1.7.20251203
#Start time: 2026-01-17 22:23:10

#Version: 2.2.20231116
#Station: R4.6S_Anadyr
#Location: 177.4865 lon 64.73178 lat
#TLE: 1 37849U 11061A   26017.57099531  .00000072  00000+0  54974-4 0  9996
#TLE: 2 37849  98.7814 319.5974 0002398  59.1749 300.9663 14.19525865737072

#Time	Az	El	Level	Level2	SNR	BER	BlckErr	Temp	State	Recorded	gain1	gain2
2026-01-17 22:23:10.16	110.08	0.19	-49.5	-63.3	3.3	1.54e+00	0	30	0	0	60	52737
2026-01-17 22:23:14.20	109.89	0.42	-48.8	-64.1	3.6	1.51e+00	0	30	104	0	60	57686
2026-01-17 22:23:18.24	109.70	0.65	-48.8	-63.9	3.6	1.51e+00	0	30	104	0	60	56722
2026-01-17 22:23:22.28	109.51	0.88	-48.3	-63.5	3.6	1.51e+00	0	31	104	0	60	54083
2026-01-17 22:23:26.32	109.32	1.11	-44.9	-61.5	3.6	1.51e+00	0	31	104	0	60	42777
2026-01-17 22:23:30.37	109.12	1.35	-44.9	-61.5	3.5	1.51e+00	0	31	104	0	60	42952
2026-01-17 22:23:34.41	108.92	1.59	-44.9	-61.4	3.6	1.51e+00	0	31	104	0	60	42709
2026-01-17 22:23:38.45	108.72	1.82	-44.9	-61.4	3.6	1.51e+00	0	31	104	0	60	42288
2026-01-17 22:23:42.49	108.51	2.06	-45.0	-61.2	3.6	1.51e+00	0	31	104	0	60	41497
2026-01-17 22:23:46.53	108.30	2.31	-44.9	-61.1	3.6	1.51e+00	0	31	104	0	60	41175
2026-01-17 22:23:50.57	108.08	2.55	-44.9	-61.0	3.6	1.51e+00	0	31	104	0	60	40438
2026-01-17 22:23:54.62	107.86	2.79	-44.9	-60.2	3.6	1.51e+00	0	31	104	0	60	36850
2026-01-17 22:23:58.66	107.64	3.04	-44.8	-59.8	3.6	1.51e+00	0	31	104	0	60	35443
2026-01-17 22:24:02.70	107.41	3.29	-44.0	-51.1	8.6	9.69e-02	92	31	0	4194304	60	13041
2026-01-17 22:24:06.74	107.18	3.54	-44.4	-50.0	5.5	1.50e+00	0	31	104	9437184	60	11454
2026-01-17 22:24:10.78	106.95	3.79	-42.3	-45.4	15.2	1.50e-06	0	31	0	10485760	58	7590
2026-01-17 22:24:14.82	106.71	4.05	-42.1	-45.2	15.6	0.00e+00	0	31	0	17825792	58	7346
2026-01-17 22:24:18.85	106.47	4.30	-42.4	-45.2	15.6	0.00e+00	92	31	0	26214400	58	7388
2026-01-17 22:24:22.89	106.22	4.56	-41.8	-43.9	17.3	0.00e+00	92	31	0	33554432	56	7137
2026-01-17 22:24:26.93	105.97	4.82	-41.3	-43.1	18.1	0.00e+00	0	31	0	40894464	56	6519
2026-01-17 22:24:30.97	105.71	5.08	-41.3	-43.1	18.2	0.00e+00	0	31	0	48234496	56	6478
2026-01-17 22:24:35.01	105.45	5.35	-40.8	-42.4	18.9	0.00e+00	92	31	0	56623104	54	6726
2026-01-17 22:24:39.05	105.18	5.61	-40.9	-42.5	18.9	0.00e+00	92	31	0	63963136	54	6770
2026-01-17 22:24:43.09	104.91	5.88	-40.7	-42.2	19.2	0.00e+00	0	31	0	71303168	54	6574
2026-01-17 22:24:47.12	104.63	6.15	-40.5	-42.0	19.3	0.00e+00	56	31	0	78643200	54	6425
2026-01-17 22:24:51.16	104.35	6.42	-41.0	-42.6	18.9	0.00e+00	92	31	0	85983232	54	6910
2026-01-17 22:24:55.20	104.06	6.70	-41.3	-43.0	18.5	0.00e+00	44	31	0	94371840	54	7218
2026-01-17 22:24:59.23	103.77	6.97	-41.0	-42.6	18.9	0.00e+00	32	31	0	101711872	54	6914
2026-01-17 22:25:03.27	103.46	7.25	-41.2	-43.0	18.7	0.00e+00	92	31	0	109051904	54	7177
2026-01-17 22:25:07.31	103.16	7.53	-40.5	-42.2	19.4	0.00e+00	92	31	0	116391936	54	6583
2026-01-17 22:25:11.35	102.85	7.82	-40.5	-42.1	19.5	0.00e+00	0	31	0	124780544	54	6494
2026-01-17 22:25:15.39	102.53	8.10	-40.4	-41.7	20.0	0.00e+00	0	31	0	132120576	54	6225
2026-01-17 22:25:19.43	102.20	8.39	-39.6	-40.8	20.7	0.00e+00	90	31	0	139460608	52	6307
2026-01-17 22:25:23.47	101.87	8.68	-40.0	-41.3	20.5	0.00e+00	92	31	0	146800640	52	6643
2026-01-17 22:25:27.51	101.53	8.98	-39.7	-41.0	20.6	0.00e+00	0	31	0	154140672	52	6400
2026-01-17 22:25:31.55	101.18	9.27	-39.8	-41.1	20.5	0.00e+00	92	31	0	162529280	52	6513
2026-01-17 22:25:35.59	100.83	9.57	-40.0	-41.3	20.3	0.00e+00	92	31	0	169869312	52	6671
2026-01-17 22:25:39.62	100.47	9.87	-40.0	-41.3	20.2	0.00e+00	92	31	0	177209344	52	6689
2026-01-17 22:25:43.66	100.10	10.18	-40.2	-41.5	20.3	0.00e+00	0	31	0	184549376	52	6814
2026-01-17 22:25:47.70	99.72	10.48	-39.6	-40.8	20.8	0.00e+00	90	31	0	192937984	52	6301
2026-01-17 22:25:51.75	99.34	10.79	-39.6	-40.8	20.8	0.00e+00	92	31	0	200278016	52	6270
2026-01-17 22:25:55.78	98.94	11.10	-39.4	-40.6	21.0	0.00e+00	0	31	0	207618048	52	6160
2026-01-17 22:25:59.82	98.54	11.41	-39.5	-40.7	20.9	0.00e+00	0	31	0	214958080	52	6244
2026-01-17 22:26:03.85	98.13	11.73	-39.7	-41.0	20.9	0.00e+00	92	31	0	222298112	52	6422
2026-01-17 22:26:07.89	97.71	12.05	-39.6	-40.9	20.9	0.00e+00	92	31	0	230686720	52	6321
2026-01-17 22:26:11.93	97.28	12.37	-39.9	-41.2	20.8	0.00e+00	0	31	0	238026752	52	6580
2026-01-17 22:26:15.97	96.84	12.70	-39.7	-41.0	20.8	0.00e+00	0	31	0	245366784	52	6398
2026-01-17 22:26:20.01	96.39	13.02	-39.4	-40.6	21.2	0.00e+00	82	31	0	252706816	52	6130
2026-01-17 22:26:24.04	95.93	13.35	-39.2	-40.3	21.4	0.00e+00	91	31	0	261095424	52	5957
2026-01-17 22:26:28.08	95.46	13.68	-39.1	-40.2	21.6	0.00e+00	0	31	0	268435456	52	5895
2026-01-17 22:26:32.12	94.98	14.02	-38.9	-40.0	21.6	0.00e+00	92	31	0	275775488	50	6431
2026-01-17 22:26:36.16	94.48	14.35	-39.7	-40.9	20.9	0.00e+00	90	31	0	283115520	50	7121
2026-01-17 22:26:40.20	93.98	14.69	-39.4	-40.6	21.3	0.00e+00	0	31	0	290455552	50	6860
2026-01-17 22:26:44.24	93.46	15.04	-40.5	-41.9	20.1	0.00e+00	0	31	0	298844160	52	7153
2026-01-17 22:26:48.28	92.93	15.38	-39.2	-40.3	21.5	0.00e+00	92	31	0	306184192	52	5945
2026-01-17 22:26:52.32	92.39	15.73	-39.6	-40.8	21.1	0.00e+00	91	31	0	313524224	52	6295
2026-01-17 22:26:56.35	91.84	16.08	-39.2	-40.3	21.5	0.00e+00	0	31	0	320864256	52	5909
2026-01-17 22:27:00.39	91.27	16.43	-38.9	-40.0	21.8	0.00e+00	0	31	0	329252864	50	6435
2026-01-17 22:27:04.43	90.69	16.78	-38.1	-39.1	22.6	0.00e+00	91	31	0	336592896	50	5817
2026-01-17 22:27:08.47	90.09	17.14	-38.1	-39.1	22.6	0.00e+00	92	31	0	343932928	50	5796
2026-01-17 22:27:12.50	89.48	17.49	-38.4	-39.4	22.5	0.00e+00	0	31	0	351272960	50	5993
2026-01-17 22:27:16.54	88.86	17.85	-38.2	-39.2	22.4	0.00e+00	92	31	0	358612992	50	5863
2026-01-17 22:27:20.58	88.22	18.21	-38.7	-39.7	22.2	0.00e+00	92	31	0	367001600	50	6233
2026-01-17 22:27:24.62	87.56	18.57	-38.9	-40.0	21.9	0.00e+00	92	31	0	374341632	50	6421
2026-01-17 22:27:28.66	86.89	18.94	-38.1	-39.0	22.8	0.00e+00	0	31	0	381681664	50	5727
2026-01-17 22:27:32.70	86.20	19.30	-37.9	-38.9	22.8	0.00e+00	91	31	0	389021696	50	5644
2026-01-17 22:27:36.74	85.49	19.67	-38.2	-39.2	22.5	0.00e+00	60	31	0	397410304	50	5882
2026-01-17 22:27:40.78	84.77	20.03	-38.8	-39.9	22.0	0.00e+00	0	31	0	404750336	50	6328
2026-01-17 22:27:44.81	84.03	20.40	-39.0	-40.0	21.9	0.00e+00	0	31	0	412090368	50	6456
2026-01-17 22:27:48.85	83.27	20.77	-38.8	-39.9	22.1	0.00e+00	27	31	0	419430400	50	6333
2026-01-17 22:27:52.89	82.50	21.13	-38.9	-40.0	22.1	0.00e+00	90	31	0	426770432	50	6409
2026-01-17 22:27:56.93	81.70	21.50	-39.5	-40.7	21.4	0.00e+00	0	31	0	435159040	50	6979
2026-01-17 22:28:00.97	80.89	21.87	-38.8	-39.8	22.2	0.00e+00	49	31	0	442499072	50	6280
2026-01-17 22:28:05.01	80.05	22.23	-38.6	-39.7	22.3	0.00e+00	92	31	0	449839104	50	6213
2026-01-17 22:28:09.04	79.20	22.59	-38.5	-39.6	22.4	0.00e+00	65	31	0	457179136	50	6106
2026-01-17 22:28:13.08	78.32	22.95	-38.0	-39.0	22.8	0.00e+00	0	31	0	465567744	50	5733
2026-01-17 22:28:17.11	77.43	23.31	-37.4	-38.3	23.4	0.00e+00	75	31	0	472907776	48	5902
2026-01-17 22:28:21.15	76.51	23.67	-36.8	-37.6	23.8	0.00e+00	90	31	0	480247808	46	6164
2026-01-17 22:28:25.19	75.58	24.02	-37.3	-38.2	23.4	0.00e+00	0	31	0	487587840	46	6614
2026-01-17 22:28:29.23	74.62	24.37	-37.9	-38.9	22.9	0.00e+00	0	31	0	494927872	48	6351
2026-01-17 22:28:33.27	73.64	24.71	-37.4	-38.3	23.3	0.00e+00	90	31	0	503316480	48	5918
2026-01-17 22:28:37.31	72.64	25.05	-37.2	-38.1	23.5	0.00e+00	92	31	0	510656512	48	5762
2026-01-17 22:28:41.35	71.61	25.38	-37.5	-38.4	23.4	0.00e+00	0	31	0	517996544	48	5996
2026-01-17 22:28:45.39	70.57	25.71	-37.1	-38.0	23.5	0.00e+00	64	31	0	525336576	48	5730
2026-01-17 22:28:49.43	69.50	26.03	-36.9	-37.7	23.8	0.00e+00	66	31	0	533725184	46	6212
2026-01-17 22:28:53.46	68.41	26.34	-37.9	-38.8	22.4	0.00e+00	42	31	0	541065216	48	6290
2026-01-17 22:28:57.50	67.30	26.65	-37.5	-38.4	23.4	0.00e+00	0	31	0	548405248	48	5970
2026-01-17 22:29:01.53	66.18	26.95	-37.4	-38.3	23.3	0.00e+00	92	32	0	555745280	48	5934
2026-01-17 22:29:05.57	65.02	27.23	-37.9	-38.9	22.9	0.00e+00	92	32	0	563085312	48	6328
2026-01-17 22:29:09.61	63.85	27.51	-37.4	-38.3	23.4	0.00e+00	0	31	0	571473920	48	5943
2026-01-17 22:29:13.65	62.66	27.78	-38.2	-39.2	22.7	0.00e+00	0	31	0	578813952	48	6604
2026-01-17 22:29:17.69	61.44	28.03	-38.2	-39.2	22.8	0.00e+00	84	31	0	586153984	50	5880
2026-01-17 22:29:21.73	60.21	28.27	-37.5	-38.4	23.3	0.00e+00	91	31	0	593494016	48	6007
2026-01-17 22:29:25.76	58.97	28.50	-37.2	-38.1	23.6	0.00e+00	0	31	0	601882624	48	5795
2026-01-17 22:29:29.80	57.70	28.72	-37.8	-38.8	23.1	0.00e+00	0	31	0	609222656	48	6259
2026-01-17 22:29:33.84	56.41	28.92	-37.3	-38.1	23.6	0.00e+00	63	31	0	616562688	48	5809
2026-01-17 22:29:37.88	55.11	29.10	-37.7	-38.7	23.1	0.00e+00	0	31	0	623902720	48	6178
2026-01-17 22:29:41.92	53.80	29.27	-39.7	-40.9	21.4	0.00e+00	0	31	0	631242752	52	6385
2026-01-17 22:29:45.96	52.47	29.43	-39.8	-41.0	21.3	0.00e+00	66	31	0	639631360	52	6419
2026-01-17 22:29:50.00	51.13	29.57	-39.4	-40.6	21.6	0.00e+00	92	31	0	646971392	52	6134
2026-01-17 22:29:54.04	49.78	29.69	-38.3	-39.3	22.8	0.00e+00	0	32	0	654311424	50	5917
2026-01-17 22:29:58.07	48.43	29.79	-39.6	-40.8	21.5	0.00e+00	0	31	0	661651456	50	7050
2026-01-17 22:30:02.11	47.06	29.87	-39.1	-40.2	22.2	0.00e+00	54	32	0	670040064	50	6544
2026-01-17 22:30:06.15	45.68	29.94	-40.0	-41.3	21.0	0.00e+00	92	32	0	677380096	52	6629
2026-01-17 22:30:10.19	44.31	29.99	-37.9	-38.8	23.1	0.00e+00	0	31	0	684720128	50	5621
2026-01-17 22:30:14.23	42.92	30.02	-39.0	-40.0	22.1	0.00e+00	33	31	0	692060160	50	6446
2026-01-17 22:30:18.27	41.54	30.03	-39.8	-41.0	21.3	0.00e+00	68	31	0	699400192	52	6404
2026-01-17 22:30:22.31	40.16	30.02	-38.9	-40.0	22.2	0.00e+00	32	31	0	707788800	52	5702
2026-01-17 22:30:26.35	38.77	30.00	-39.3	-40.4	21.7	0.00e+00	0	31	0	715128832	50	6752
2026-01-17 22:30:30.39	37.39	29.95	-38.6	-39.6	22.5	0.00e+00	65	31	0	722468864	50	6119
2026-01-17 22:30:34.43	36.02	29.89	-39.4	-40.5	21.8	0.00e+00	68	31	0	729808896	50	6837
2026-01-17 22:30:38.47	34.65	29.81	-38.6	-39.6	22.5	0.00e+00	0	31	0	738197504	50	6143
2026-01-17 22:30:42.51	33.29	29.71	-38.6	-39.6	22.5	0.00e+00	0	31	0	745537536	50	6158
2026-01-17 22:30:46.55	31.94	29.59	-37.7	-38.6	23.2	0.00e+00	68	32	0	752877568	48	6124
2026-01-17 22:30:50.59	30.60	29.46	-37.7	-38.6	23.2	0.00e+00	92	31	0	760217600	48	6137
2026-01-17 22:30:54.63	29.27	29.31	-38.8	-39.8	22.2	0.00e+00	0	31	0	767557632	48	7054
2026-01-17 22:30:58.66	27.96	29.14	-38.2	-39.2	22.8	0.00e+00	0	32	0	775946240	50	5877
2026-01-17 22:31:02.70	26.66	28.96	-38.7	-39.7	22.2	0.00e+00	23	31	0	783286272	50	6240
2026-01-17 22:31:06.73	25.38	28.76	-38.6	-39.6	22.4	0.00e+00	56	32	0	790626304	50	6164
2026-01-17 22:31:10.77	24.11	28.55	-38.6	-39.7	22.4	0.00e+00	0	31	0	797966336	50	6181
2026-01-17 22:31:14.80	22.86	28.32	-38.9	-39.9	22.2	0.00e+00	0	31	0	806354944	50	6379
2026-01-17 22:31:18.84	21.63	28.08	-40.6	-41.9	20.5	0.00e+00	92	31	0	813694976	52	7158
2026-01-17 22:31:22.88	20.41	27.83	-41.6	-43.2	19.4	0.00e+00	0	31	0	821035008	56	6577
2026-01-17 22:31:26.91	19.22	27.57	-40.7	-42.1	20.3	0.00e+00	0	31	0	828375040	54	6505
2026-01-17 22:31:30.95	18.05	27.29	-38.8	-39.8	22.3	0.00e+00	64	31	0	835715072	52	5601
2026-01-17 22:31:34.99	16.89	27.01	-37.1	-38.0	23.6	0.00e+00	0	31	0	844103680	48	5723
2026-01-17 22:31:39.03	15.76	26.72	-37.4	-38.3	23.2	0.00e+00	0	31	0	851443712	48	5937
2026-01-17 22:31:43.06	14.65	26.41	-38.6	-39.6	22.3	0.00e+00	0	32	0	858783744	48	6870
2026-01-17 22:31:47.09	13.56	26.10	-38.9	-39.9	22.1	0.00e+00	27	31	0	866123776	50	6377
2026-01-17 22:31:51.13	12.49	25.79	-40.1	-41.3	21.0	0.00e+00	0	31	0	874512384	52	6685
2026-01-17 22:31:55.16	11.45	25.46	-38.8	-39.8	22.3	0.00e+00	0	31	0	881852416	50	6284
2026-01-17 22:31:59.20	10.42	25.13	-37.8	-38.7	23.0	0.00e+00	0	31	0	889192448	48	6227
2026-01-17 22:32:03.24	9.42	24.79	-37.1	-38.0	23.6	0.00e+00	92	31	0	896532480	48	5712
2026-01-17 22:32:07.29	8.44	24.45	-36.7	-37.6	23.9	0.00e+00	0	31	0	903872512	46	6152
2026-01-17 22:32:11.33	7.48	24.10	-36.6	-37.4	24.0	0.00e+00	0	31	0	912261120	46	6021
2026-01-17 22:32:15.36	6.54	23.75	-36.9	-37.8	23.9	0.00e+00	11	31	0	919601152	46	6275
2026-01-17 22:32:19.40	5.62	23.40	-37.5	-38.4	23.3	0.00e+00	33	31	0	926941184	46	6717
2026-01-17 22:32:23.44	4.73	23.04	-37.4	-38.3	23.4	0.00e+00	0	31	0	934281216	46	6667
2026-01-17 22:32:27.48	3.85	22.68	-36.6	-37.5	24.1	0.00e+00	0	31	0	942669824	46	6048
2026-01-17 22:32:31.52	3.00	22.32	-35.4	-36.2	24.8	0.00e+00	56	31	0	950009856	44	5867
2026-01-17 22:32:35.56	2.16	21.96	-36.3	-37.2	24.3	0.00e+00	0	31	0	957349888	44	6547
2026-01-17 22:32:39.59	1.35	21.60	-36.0	-36.8	24.2	0.00e+00	0	31	0	964689920	44	6312
2026-01-17 22:32:43.63	0.55	21.23	-36.4	-37.2	24.0	0.00e+00	0	31	0	972029952	44	6579
2026-01-17 22:32:47.67	359.77	20.87	-36.8	-37.7	23.8	0.00e+00	71	31	0	980418560	44	6983
2026-01-17 22:32:51.70	359.01	20.50	-36.8	-37.7	23.9	0.00e+00	0	31	0	987758592	46	6197
2026-01-17 22:32:55.74	358.27	20.14	-35.8	-36.6	24.6	0.00e+00	0	31	0	995098624	46	5478
2026-01-17 22:32:59.78	357.55	19.77	-36.6	-37.5	23.9	0.00e+00	0	31	0	1002438656	44	6809
2026-01-17 22:33:03.81	356.84	19.41	-37.5	-38.5	23.2	0.00e+00	92	31	0	1009778688	46	6771
2026-01-17 22:33:07.86	356.15	19.04	-36.7	-37.5	24.1	0.00e+00	0	32	0	1018167296	46	6089
2026-01-17 22:33:11.89	355.48	18.68	-36.8	-37.7	23.7	0.00e+00	0	31	0	1025507328	46	6224
2026-01-17 22:33:15.93	354.83	18.32	-37.5	-38.5	23.1	0.00e+00	60	31	0	1032847360	46	6798
2026-01-17 22:33:19.97	354.19	17.96	-38.2	-39.2	22.6	0.00e+00	0	31	0	1040187392	48	6609
2026-01-17 22:33:24.01	353.56	17.60	-37.5	-38.4	23.2	0.00e+00	0	31	0	1048576000	48	5992
2026-01-17 22:33:28.05	352.95	17.25	-38.2	-39.2	22.4	0.00e+00	0	31	0	1055916032	48	6580
2026-01-17 22:33:32.09	352.35	16.89	-38.5	-39.5	22.3	0.00e+00	92	32	0	1063256064	48	6829
2026-01-17 22:33:36.13	351.77	16.54	-37.2	-38.1	23.4	0.00e+00	0	31	0	1070596096	48	5773
2026-01-17 22:33:40.17	351.20	16.19	-37.1	-38.0	23.5	0.00e+00	0	31	0	1077936128	48	5713
2026-01-17 22:33:44.21	350.65	15.84	-37.6	-38.5	23.4	0.00e+00	0	31	0	1086324736	48	6063
2026-01-17 22:33:48.25	350.11	15.49	-37.9	-38.8	22.9	0.00e+00	92	31	0	1093664768	48	6284
2026-01-17 22:33:52.29	349.58	15.15	-37.7	-38.6	23.0	0.00e+00	0	31	0	1101004800	48	6131
2026-01-17 22:33:56.33	349.06	14.81	-37.9	-38.9	22.9	0.00e+00	0	31	0	1108344832	48	6319
2026-01-17 22:34:00.37	348.56	14.47	-39.1	-40.2	21.6	0.00e+00	54	31	0	1116733440	50	6582
2026-01-17 22:34:04.41	348.06	14.13	-39.8	-41.1	20.9	0.00e+00	13	31	0	1124073472	52	6470
2026-01-17 22:34:08.45	347.58	13.80	-38.4	-39.4	22.4	0.00e+00	0	31	0	1131413504	50	6026
2026-01-17 22:34:12.48	347.11	13.47	-37.7	-38.6	23.0	0.00e+00	0	31	0	1138753536	48	6159
2026-01-17 22:34:16.52	346.65	13.14	-38.5	-39.6	22.0	0.00e+00	49	31	0	1146093568	48	6879
2026-01-17 22:34:20.56	346.20	12.81	-39.7	-41.0	21.0	0.00e+00	0	31	0	1154482176	52	6426
2026-01-17 22:34:24.60	345.76	12.49	-40.1	-41.5	20.8	0.00e+00	0	31	0	1161822208	52	6770
2026-01-17 22:34:28.64	345.33	12.17	-39.9	-41.2	20.7	0.00e+00	0	31	0	1169162240	52	6547
2026-01-17 22:34:32.68	344.91	11.85	-39.8	-41.1	20.9	0.00e+00	72	32	0	1176502272	52	6515
2026-01-17 22:34:36.71	344.50	11.53	-39.7	-40.9	20.7	0.00e+00	0	32	0	1184890880	52	6381
2026-01-17 22:34:40.75	344.10	11.22	-40.2	-41.5	20.5	0.00e+00	0	32	0	1192230912	52	6797
2026-01-17 22:34:44.79	343.71	10.91	-40.2	-41.6	20.6	0.00e+00	0	31	0	1199570944	52	6858
2026-01-17 22:34:48.83	343.33	10.60	-39.7	-40.9	21.0	0.00e+00	31	32	0	1206910976	52	6344
2026-01-17 22:34:52.87	342.95	10.30	-39.0	-40.1	21.8	0.00e+00	0	31	0	1214251008	52	5775
2026-01-17 22:34:56.91	342.58	9.99	-38.7	-39.8	21.9	0.00e+00	0	31	0	1222639616	50	6248
2026-01-17 22:35:00.94	342.22	9.69	-39.1	-40.2	21.5	0.00e+00	58	32	0	1229979648	50	6568
2026-01-17 22:35:04.98	341.87	9.39	-40.3	-41.7	20.2	0.00e+00	0	31	0	1237319680	52	6938
2026-01-17 22:35:09.02	341.52	9.10	-41.2	-42.8	19.2	0.00e+00	0	32	0	1244659712	54	7008
2026-01-17 22:35:13.06	341.19	8.81	-41.2	-42.7	19.3	0.00e+00	0	32	0	1253048320	54	6955
2026-01-17 22:35:17.11	340.85	8.51	-41.2	-42.7	19.2	0.00e+00	48	32	0	1260388352	54	6973
2026-01-17 22:35:21.15	340.53	8.23	-41.2	-42.8	19.2	0.00e+00	0	32	0	1267728384	54	7026
2026-01-17 22:35:25.18	340.21	7.94	-40.7	-42.2	19.7	0.00e+00	0	32	0	1275068416	54	6555
2026-01-17 22:35:29.22	339.90	7.66	-40.6	-42.0	19.9	0.00e+00	33	32	0	1282408448	54	6409
2026-01-17 22:35:33.26	339.60	7.38	-40.5	-41.8	20.0	0.00e+00	90	32	0	1290797056	54	6303
2026-01-17 22:35:37.30	339.30	7.10	-40.7	-42.1	19.7	0.00e+00	0	31	0	1298137088	54	6522
2026-01-17 22:35:41.34	339.01	6.82	-41.4	-43.0	18.7	0.00e+00	0	32	0	1305477120	54	7234
2026-01-17 22:35:45.38	338.72	6.55	-41.8	-43.5	18.3	0.00e+00	55	32	0	1312817152	56	6801
2026-01-17 22:35:49.41	338.44	6.27	-41.7	-43.5	18.2	0.00e+00	0	31	0	1321205760	56	6778
2026-01-17 22:35:53.46	338.16	6.00	-41.8	-43.6	18.0	0.00e+00	0	31	0	1328545792	56	6883
2026-01-17 22:35:57.49	337.89	5.74	-41.7	-43.4	18.0	0.00e+00	0	32	0	1335885824	56	6767
2026-01-17 22:36:01.53	337.63	5.47	-42.5	-44.8	16.0	0.00e+00	91	32	0	1343225856	56	7946
2026-01-17 22:36:05.57	337.36	5.21	-43.2	-46.7	13.2	1.06e-05	0	32	0	1350565888	58	8776
2026-01-17 22:36:09.60	337.11	4.94	-43.9	-49.6	8.9	1.28e-02	33	32	0	1358954496	60	10973
2026-01-17 22:36:13.63	336.86	4.69	-44.2	-52.5	5.1	4.08e-01	0	32	0	1366294528	60	15244
2026-01-17 22:36:17.67	336.61	4.43	-44.1	-56.8	3.8	1.46e+00	0	32	104	1370488832	60	24898
2026-01-17 22:36:21.71	336.37	4.17	-44.1	-58.2	3.6	1.51e+00	0	32	104	1370488832	60	29346
2026-01-17 22:36:25.75	336.14	3.92	-44.2	-58.6	3.6	1.51e+00	0	32	104	1370488832	60	30816
2026-01-17 22:36:29.79	335.90	3.67	-44.2	-58.9	3.6	1.51e+00	0	32	104	1370488832	60	31931
2026-01-17 22:36:33.83	335.67	3.42	-44.0	-59.1	3.6	1.51e+00	0	32	104	1370488832	60	32668
2026-01-17 22:36:37.87	335.45	3.17	-44.0	-59.1	3.6	1.51e+00	0	32	104	1370488832	60	32423
2026-01-17 22:36:41.91	335.23	2.92	-48.1	-63.3	3.6	1.51e+00	0	32	104	1370488832	60	52725
2026-01-17 22:36:45.95	335.01	2.68	-48.9	-64.1	3.6	1.51e+00	0	32	104	1370488832	60	57681
2026-01-17 22:36:49.99	334.80	2.43	-48.9	-64.1	3.6	1.51e+00	0	32	104	1370488832	60	57826
2026-01-17 22:36:54.03	334.59	2.19	-48.7	-63.9	3.6	1.51e+00	0	32	104	1370488832	60	56612
2026-01-17 22:36:58.06	334.39	1.95	-48.9	-64.0	3.6	1.51e+00	0	32	104	1370488832	60	57283
2026-01-17 22:37:02.10	334.19	1.71	-48.9	-64.0	3.6	1.51e+00	0	32	104	1370488832	60	57119
2026-01-17 22:37:06.14	333.99	1.48	-48.8	-64.0	3.6	1.51e+00	0	32	104	1370488832	60	57108
2026-01-17 22:37:10.19	333.79	1.24	-48.8	-64.0	3.6	1.51e+00	0	32	104	1370488832	60	57111
2026-01-17 22:37:14.22	333.60	1.01	-48.9	-64.0	3.6	1.51e+00	0	32	104	1370488832	60	57316
2026-01-17 22:37:18.26	333.41	0.78	-48.8	-63.9	3.6	1.51e+00	0	32	104	1370488832	60	56837
2026-01-17 22:37:22.30	333.23	0.55	-48.8	-64.0	3.6	1.51e+00	0	32	104	1370488832	60	57218
2026-01-17 22:37:26.34	333.05	0.32	-48.8	-64.0	3.6	1.51e+00	0	32	104	1370488832	60	57129
2026-01-17 22:37:30.38	332.87	0.09	-48.9	-64.0	3.6	1.51e+00	0	32	104	1370488832	60	57039

#Closed at: 2026-01-17 22:37:32
#Recorded file [1370 MB]: D:/lorett/data/35029_260118_102310.dat