passes_logs/2026/01/17/R4.6S_Anadyr/R4.6S_Anadyr__20260117_204457_SUOMI_NPP_rec.log

#Pass ID: 20260117_204457_SUOMI NPP
#Satellite: SUOMI NPP
#Configuration: NPP
#almurnet v.1.7.20251203
#Start time: 2026-01-17 20:45:01

#Version: 2.2.20231116
#Station: R4.6S_Anadyr
#Location: 177.4865 lon 64.73178 lat
#TLE: 1 37849U 11061A   26016.58419598  .00000058  00000+0  48257-4 0  9996
#TLE: 2 37849  98.7812 318.6192 0002422  60.8544 299.2874 14.19525580736934

#Time	Az	El	Level	Level2	SNR	BER	BlckErr	Temp	State	Recorded	gain1	gain2
2026-01-17 20:45:01.17	74.47	0.17	-49.1	-62.8	3.3	1.54e+00	0	29	0	0	60	49904
2026-01-17 20:45:05.21	74.19	0.38	-48.8	-64.0	3.6	1.51e+00	0	29	104	0	60	57006
2026-01-17 20:45:09.25	73.90	0.58	-48.8	-64.0	3.6	1.51e+00	0	29	104	0	60	57093
2026-01-17 20:45:13.29	73.60	0.79	-48.2	-63.5	3.6	1.51e+00	0	29	104	0	60	54180
2026-01-17 20:45:17.33	73.30	0.99	-47.1	-62.3	3.6	1.51e+00	0	30	104	0	60	47106
2026-01-17 20:45:21.37	73.00	1.20	-47.1	-62.2	3.6	1.51e+00	0	30	104	0	60	46626
2026-01-17 20:45:25.41	72.69	1.41	-47.1	-62.2	3.6	1.51e+00	0	30	104	0	60	46745
2026-01-17 20:45:29.45	72.38	1.61	-47.1	-62.1	3.6	1.51e+00	0	30	104	0	60	46118
2026-01-17 20:45:33.49	72.06	1.82	-47.1	-62.2	3.6	1.51e+00	0	30	104	0	60	46613
2026-01-17 20:45:37.53	71.74	2.03	-47.0	-61.7	3.6	1.51e+00	0	30	104	0	60	43900
2026-01-17 20:45:41.57	71.41	2.24	-47.0	-62.0	3.6	1.51e+00	0	30	104	0	60	45382
2026-01-17 20:45:45.61	71.08	2.45	-47.0	-62.2	3.6	1.51e+00	0	30	104	0	60	46389
2026-01-17 20:45:49.65	70.74	2.67	-47.0	-61.2	3.6	1.51e+00	0	30	104	0	60	41585
2026-01-17 20:45:53.69	70.40	2.88	-46.8	-58.3	3.8	1.51e+00	0	30	104	0	60	29646
2026-01-17 20:45:57.73	70.05	3.09	-44.5	-48.2	12.8	4.95e-05	92	30	0	5242880	60	9332
2026-01-17 20:46:01.77	69.70	3.30	-44.8	-48.8	5.8	1.50e+00	0	30	104	9437184	60	9942
2026-01-17 20:46:05.80	69.34	3.52	-43.7	-46.7	13.8	1.06e-05	34	30	0	14680064	60	7774
2026-01-17 20:46:09.84	68.98	3.73	-43.8	-46.7	14.6	0.00e+00	92	30	0	22020096	60	7840
2026-01-17 20:46:13.88	68.61	3.95	-43.1	-45.6	15.8	0.00e+00	92	30	0	29360128	60	6872
2026-01-17 20:46:17.91	68.24	4.16	-41.9	-43.8	17.4	0.00e+00	0	30	0	37748736	58	6303
2026-01-17 20:46:21.95	67.86	4.38	-41.6	-43.3	18.0	0.00e+00	51	30	0	45088768	56	6672
2026-01-17 20:46:25.99	67.47	4.60	-41.5	-43.2	18.1	0.00e+00	55	30	0	52428800	56	6605
2026-01-17 20:46:30.03	67.08	4.81	-41.9	-43.8	17.7	0.00e+00	0	30	0	59768832	56	7037
2026-01-17 20:46:34.07	66.68	5.03	-41.9	-43.7	17.8	0.00e+00	0	30	0	67108864	56	6985
2026-01-17 20:46:38.10	66.28	5.25	-41.9	-43.7	17.8	0.00e+00	92	30	0	75497472	56	6995
2026-01-17 20:46:42.14	65.87	5.47	-41.8	-43.6	18.0	0.00e+00	92	30	0	82837504	56	6873
2026-01-17 20:46:46.18	65.45	5.69	-41.6	-43.3	18.3	0.00e+00	0	30	0	90177536	56	6643
2026-01-17 20:46:50.21	65.03	5.91	-41.9	-43.7	17.9	0.00e+00	17	30	0	97517568	56	6974
2026-01-17 20:46:54.25	64.60	6.13	-41.5	-43.3	18.4	0.00e+00	92	30	0	105906176	56	6620
2026-01-17 20:46:58.32	64.16	6.35	-41.7	-43.5	18.3	0.00e+00	74	30	0	113246208	56	6773
2026-01-17 20:47:02.36	63.72	6.57	-41.5	-43.2	18.5	0.00e+00	0	30	0	120586240	56	6540
2026-01-17 20:47:06.40	63.27	6.79	-41.5	-43.2	18.4	0.00e+00	90	30	0	127926272	56	6593
2026-01-17 20:47:10.43	62.81	7.01	-41.4	-43.1	18.5	0.00e+00	92	30	0	136314880	56	6494
2026-01-17 20:47:14.47	62.34	7.23	-41.5	-43.2	18.5	0.00e+00	0	30	0	143654912	56	6591
2026-01-17 20:47:18.51	61.87	7.45	-40.8	-42.3	19.4	0.00e+00	0	30	0	150994944	56	5960
2026-01-17 20:47:22.55	61.39	7.67	-40.4	-41.8	19.6	0.00e+00	92	31	0	158334976	54	6299
2026-01-17 20:47:26.59	60.91	7.90	-40.2	-41.5	20.0	0.00e+00	92	31	0	165675008	54	6092
2026-01-17 20:47:30.63	60.41	8.12	-40.3	-41.7	19.9	0.00e+00	0	31	0	174063616	54	6227
2026-01-17 20:47:34.66	59.91	8.34	-40.2	-41.6	20.0	0.00e+00	0	31	0	181403648	54	6120
2026-01-17 20:47:38.70	59.40	8.56	-40.5	-42.0	19.9	0.00e+00	77	30	0	188743680	54	6411
2026-01-17 20:47:42.74	58.88	8.78	-40.5	-42.0	19.8	0.00e+00	92	30	0	196083712	54	6392
2026-01-17 20:47:46.78	58.36	9.00	-40.3	-41.7	20.2	0.00e+00	0	30	0	203423744	54	6191
2026-01-17 20:47:50.82	57.82	9.22	-40.3	-41.7	20.0	0.00e+00	0	30	0	211812352	54	6175
2026-01-17 20:47:54.85	57.28	9.44	-40.1	-41.4	20.2	0.00e+00	79	30	0	219152384	54	6008
2026-01-17 20:47:58.89	56.73	9.66	-40.1	-41.4	20.3	0.00e+00	0	31	0	226492416	54	6005
2026-01-17 20:48:02.93	56.17	9.88	-40.0	-41.3	20.3	0.00e+00	0	31	0	233832448	54	5924
2026-01-17 20:48:06.97	55.61	10.09	-40.2	-41.6	20.2	0.00e+00	92	31	0	242221056	54	6118
2026-01-17 20:48:11.01	55.03	10.31	-40.7	-42.1	19.7	0.00e+00	92	31	0	249561088	54	6495
2026-01-17 20:48:15.05	54.44	10.52	-40.7	-42.2	19.6	0.00e+00	0	31	0	256901120	54	6585
2026-01-17 20:48:19.09	53.85	10.74	-40.7	-42.2	19.7	0.00e+00	0	30	0	264241152	54	6554
2026-01-17 20:48:23.12	53.25	10.95	-40.1	-41.4	20.4	0.00e+00	43	31	0	271581184	54	5976
2026-01-17 20:48:27.16	52.64	11.16	-39.8	-41.1	20.7	0.00e+00	92	30	0	279969792	52	6479
2026-01-17 20:48:31.20	52.02	11.37	-39.2	-40.4	21.3	0.00e+00	0	31	0	287309824	52	5972
2026-01-17 20:48:35.24	51.39	11.58	-39.0	-40.2	21.5	0.00e+00	44	31	0	294649856	52	5839
2026-01-17 20:48:39.28	50.75	11.79	-38.7	-39.7	21.9	0.00e+00	92	31	0	301989888	50	6224
2026-01-17 20:48:43.31	50.10	12.00	-38.4	-39.4	22.1	0.00e+00	0	31	0	310378496	50	6026
2026-01-17 20:48:47.35	49.44	12.20	-38.6	-39.6	21.9	0.00e+00	0	31	0	317718528	50	6159
2026-01-17 20:48:51.38	48.78	12.40	-38.3	-39.4	22.2	0.00e+00	92	30	0	325058560	50	5977
2026-01-17 20:48:55.42	48.10	12.60	-38.3	-39.3	22.4	0.00e+00	92	31	0	332398592	50	5923
2026-01-17 20:48:59.46	47.42	12.80	-38.1	-39.1	22.4	0.00e+00	33	31	0	339738624	50	5799
2026-01-17 20:49:03.50	46.72	12.99	-38.3	-39.3	22.3	0.00e+00	0	31	0	348127232	50	5944
2026-01-17 20:49:07.53	46.02	13.18	-38.8	-40.0	21.8	0.00e+00	11	30	0	355467264	50	6413
2026-01-17 20:49:11.58	45.31	13.37	-37.9	-38.9	22.5	0.00e+00	92	31	0	362807296	50	5655
2026-01-17 20:49:15.61	44.59	13.56	-37.4	-38.3	23.1	0.00e+00	0	31	0	370147328	48	5933
2026-01-17 20:49:19.65	43.85	13.74	-37.4	-38.4	23.2	0.00e+00	0	31	0	378535936	48	5982
2026-01-17 20:49:23.68	43.12	13.92	-38.1	-39.1	22.4	0.00e+00	92	30	0	385875968	48	6487
2026-01-17 20:49:27.72	42.37	14.09	-38.2	-39.2	22.3	0.00e+00	34	30	0	393216000	48	6577
2026-01-17 20:49:31.76	41.61	14.27	-38.0	-39.0	22.6	0.00e+00	0	30	0	400556032	48	6433
2026-01-17 20:49:35.80	40.84	14.43	-38.6	-39.7	22.0	0.00e+00	74	30	0	407896064	48	6933
2026-01-17 20:49:39.84	40.07	14.60	-38.3	-39.4	22.2	0.00e+00	69	30	0	416284672	48	6730
2026-01-17 20:49:43.88	39.28	14.76	-37.7	-38.7	22.9	0.00e+00	0	30	0	423624704	48	6178
2026-01-17 20:49:47.91	38.49	14.91	-37.7	-38.7	22.8	0.00e+00	0	31	0	430964736	48	6198
2026-01-17 20:49:51.95	37.69	15.06	-37.6	-38.6	23.0	0.00e+00	78	31	0	438304768	48	6117
2026-01-17 20:49:55.99	36.88	15.21	-38.0	-39.0	22.6	0.00e+00	58	30	0	446693376	48	6396
2026-01-17 20:50:00.03	36.06	15.35	-37.4	-38.3	23.1	0.00e+00	0	31	0	454033408	48	5954
2026-01-17 20:50:04.07	35.24	15.49	-36.8	-37.6	23.6	0.00e+00	0	30	0	461373440	48	5487
2026-01-17 20:50:08.11	34.41	15.62	-37.0	-37.9	23.5	0.00e+00	92	31	0	468713472	46	6362
2026-01-17 20:50:12.15	33.57	15.74	-37.4	-38.4	23.1	0.00e+00	0	30	0	476053504	46	6724
2026-01-17 20:50:16.19	32.72	15.86	-37.8	-38.8	22.9	0.00e+00	0	31	0	484442112	48	6283
2026-01-17 20:50:20.23	31.87	15.97	-38.1	-39.1	22.5	0.00e+00	45	31	0	491782144	48	6487
2026-01-17 20:50:24.26	31.01	16.08	-38.2	-39.2	22.5	0.00e+00	0	30	0	499122176	48	6581
2026-01-17 20:50:28.30	30.15	16.18	-38.6	-39.6	22.1	0.00e+00	0	30	0	506462208	48	6893
2026-01-17 20:50:32.34	29.28	16.28	-38.4	-39.4	22.4	0.00e+00	0	31	0	514850816	48	6743
2026-01-17 20:50:36.38	28.40	16.37	-37.9	-38.9	22.7	0.00e+00	11	31	0	522190848	48	6351
2026-01-17 20:50:40.41	27.52	16.45	-37.9	-38.9	22.7	0.00e+00	0	31	0	529530880	48	6343
2026-01-17 20:50:44.45	26.63	16.52	-37.7	-38.7	23.0	0.00e+00	0	31	0	536870912	48	6176
2026-01-17 20:50:48.49	25.74	16.59	-38.1	-39.1	22.7	0.00e+00	0	31	0	544210944	48	6515
2026-01-17 20:50:52.53	24.85	16.65	-38.5	-39.5	22.2	0.00e+00	92	31	0	552599552	48	6832
2026-01-17 20:50:56.56	23.95	16.71	-39.0	-40.1	21.6	0.00e+00	0	31	0	559939584	50	6487
2026-01-17 20:51:00.61	23.05	16.76	-38.5	-39.6	22.2	0.00e+00	0	31	0	567279616	50	6128
2026-01-17 20:51:04.65	22.15	16.80	-38.3	-39.3	22.4	0.00e+00	43	31	0	574619648	50	5923
2026-01-17 20:51:08.69	21.24	16.83	-38.1	-39.1	22.5	0.00e+00	24	31	0	583008256	50	5821
2026-01-17 20:51:12.73	20.33	16.86	-37.7	-38.7	22.9	0.00e+00	0	31	0	590348288	48	6184
2026-01-17 20:51:16.76	19.43	16.87	-38.3	-39.3	22.3	0.00e+00	0	30	0	597688320	48	6644
2026-01-17 20:51:20.80	18.52	16.89	-38.5	-39.5	22.3	0.00e+00	50	31	0	605028352	48	6798
2026-01-17 20:51:24.84	17.61	16.89	-38.3	-39.4	22.4	0.00e+00	0	31	0	612368384	48	6703
2026-01-17 20:51:28.88	16.70	16.89	-37.6	-38.5	23.0	0.00e+00	0	31	0	620756992	48	6094
2026-01-17 20:51:32.92	15.79	16.88	-38.2	-39.2	22.5	0.00e+00	0	31	0	628097024	48	6612
2026-01-17 20:51:36.96	14.88	16.86	-39.0	-40.1	21.8	0.00e+00	43	31	0	635437056	50	6512
2026-01-17 20:51:41.00	13.97	16.83	-38.9	-40.0	21.9	0.00e+00	0	31	0	642777088	50	6443
2026-01-17 20:51:45.03	13.07	16.80	-38.3	-39.4	22.3	0.00e+00	0	30	0	651165696	50	5972
2026-01-17 20:51:49.08	12.16	16.76	-38.7	-39.7	22.3	0.00e+00	0	30	0	658505728	50	6239
2026-01-17 20:51:53.12	11.26	16.71	-38.2	-39.2	22.5	0.00e+00	71	30	0	665845760	50	5863
2026-01-17 20:51:57.16	10.37	16.66	-38.3	-39.3	22.5	0.00e+00	0	31	0	673185792	50	5922
2026-01-17 20:52:01.19	9.47	16.60	-37.0	-37.9	23.6	0.00e+00	0	31	0	680525824	48	5642
2026-01-17 20:52:05.22	8.59	16.53	-37.2	-38.1	23.5	0.00e+00	44	31	0	688914432	48	5786
2026-01-17 20:52:09.26	7.70	16.45	-37.4	-38.4	23.2	0.00e+00	9	31	0	696254464	48	5986
2026-01-17 20:52:13.30	6.82	16.37	-37.9	-38.9	22.8	0.00e+00	0	31	0	703594496	48	6336
2026-01-17 20:52:17.34	5.94	16.28	-38.2	-39.2	22.5	0.00e+00	0	31	0	710934528	48	6562
2026-01-17 20:52:21.37	5.08	16.19	-37.6	-38.6	23.0	0.00e+00	90	31	0	718274560	48	6140
2026-01-17 20:52:25.41	4.21	16.09	-37.5	-38.4	23.1	0.00e+00	0	31	0	726663168	48	6018
2026-01-17 20:52:29.45	3.35	15.98	-37.4	-38.3	23.2	0.00e+00	0	31	0	734003200	48	5942
2026-01-17 20:52:33.49	2.50	15.87	-38.1	-39.0	22.7	0.00e+00	0	31	0	741343232	48	6463
2026-01-17 20:52:37.52	1.66	15.75	-38.4	-39.5	22.3	0.00e+00	59	30	0	748683264	48	6774
2026-01-17 20:52:41.56	0.82	15.62	-39.0	-40.1	21.8	0.00e+00	0	31	0	757071872	50	6523
2026-01-17 20:52:45.60	359.99	15.49	-38.7	-39.8	22.1	0.00e+00	0	31	0	764411904	50	6253
2026-01-17 20:52:49.64	359.16	15.36	-38.2	-39.2	22.6	0.00e+00	44	31	0	771751936	50	5872
2026-01-17 20:52:53.68	358.35	15.22	-38.3	-39.3	22.5	0.00e+00	37	31	0	779091968	50	5926
2026-01-17 20:52:57.72	357.54	15.07	-37.7	-38.7	22.9	0.00e+00	0	31	0	786432000	48	6212
2026-01-17 20:53:01.76	356.74	14.92	-37.3	-38.2	23.3	0.00e+00	0	31	0	794820608	48	5852
2026-01-17 20:53:05.80	355.95	14.77	-37.7	-38.6	22.9	0.00e+00	36	31	0	802160640	48	6161
2026-01-17 20:53:09.84	355.16	14.61	-38.4	-39.4	22.3	0.00e+00	0	31	0	809500672	48	6766
2026-01-17 20:53:13.88	354.39	14.44	-39.5	-40.7	21.2	0.00e+00	0	31	0	816840704	50	7000
2026-01-17 20:53:17.91	353.62	14.27	-39.1	-40.3	21.5	0.00e+00	0	31	0	825229312	50	6625
2026-01-17 20:53:21.95	352.87	14.10	-39.1	-40.3	21.5	0.00e+00	83	31	0	832569344	50	6643
2026-01-17 20:53:25.99	352.12	13.93	-38.9	-40.0	21.7	0.00e+00	0	31	0	839909376	50	6432
2026-01-17 20:53:30.03	351.38	13.75	-38.8	-39.9	21.9	0.00e+00	0	31	0	847249408	50	6369
2026-01-17 20:53:34.07	350.65	13.57	-38.6	-39.7	22.1	0.00e+00	0	31	0	854589440	50	6175
2026-01-17 20:53:38.10	349.93	13.38	-38.0	-38.9	22.7	0.00e+00	92	31	0	862978048	50	5683
2026-01-17 20:53:42.15	349.22	13.19	-38.5	-39.6	22.1	0.00e+00	0	31	0	870318080	50	6120
2026-01-17 20:53:46.19	348.51	13.00	-38.8	-39.9	21.9	0.00e+00	0	31	0	877658112	50	6327
2026-01-17 20:53:50.23	347.82	12.81	-38.8	-39.8	21.9	0.00e+00	43	31	0	884998144	50	6296
2026-01-17 20:53:54.27	347.14	12.61	-39.9	-41.2	20.8	0.00e+00	0	31	0	893386752	52	6559
2026-01-17 20:53:58.31	346.46	12.41	-42.1	-43.9	18.1	0.00e+00	0	31	0	900726784	56	7163
2026-01-17 20:54:02.35	345.80	12.21	-41.6	-43.3	18.9	0.00e+00	0	31	0	908066816	56	6645
2026-01-17 20:54:06.38	345.14	12.01	-40.7	-42.2	19.9	0.00e+00	92	31	0	915406848	56	5850
2026-01-17 20:54:10.42	344.49	11.80	-40.3	-41.7	20.5	0.00e+00	0	31	0	922746880	54	6186
2026-01-17 20:54:14.46	343.86	11.60	-39.5	-40.7	21.0	0.00e+00	0	31	0	931135488	52	6234
2026-01-17 20:54:18.49	343.23	11.39	-40.1	-41.4	20.6	0.00e+00	0	31	0	938475520	52	6701
2026-01-17 20:54:22.53	342.61	11.18	-39.7	-40.9	21.0	0.00e+00	92	31	0	945815552	52	6339
2026-01-17 20:54:26.57	342.00	10.97	-39.8	-41.0	20.8	0.00e+00	0	31	0	953155584	52	6464
2026-01-17 20:54:30.60	341.40	10.75	-39.5	-40.7	21.1	0.00e+00	0	31	0	961544192	52	6207
2026-01-17 20:54:34.64	340.81	10.54	-39.9	-41.1	20.7	0.00e+00	32	31	0	968884224	52	6524
2026-01-17 20:54:38.68	340.22	10.33	-40.0	-41.3	20.5	0.00e+00	86	31	0	976224256	52	6634
2026-01-17 20:54:42.72	339.65	10.11	-39.7	-41.0	20.7	0.00e+00	0	31	0	983564288	52	6428
2026-01-17 20:54:46.75	339.08	9.89	-39.3	-40.5	21.3	0.00e+00	0	31	0	990904320	52	6060
2026-01-17 20:54:50.79	338.52	9.68	-38.5	-39.5	22.0	0.00e+00	32	31	0	999292928	50	6086
2026-01-17 20:54:54.83	337.97	9.46	-38.2	-39.2	22.3	0.00e+00	0	31	0	1006632960	50	5882
2026-01-17 20:54:58.87	337.43	9.24	-38.7	-39.8	21.8	0.00e+00	0	31	0	1013972992	50	6315
2026-01-17 20:55:02.91	336.90	9.02	-38.6	-39.7	21.8	0.00e+00	0	31	0	1021313024	50	6219
2026-01-17 20:55:06.94	336.38	8.80	-38.4	-39.4	22.0	0.00e+00	92	31	0	1029701632	50	6017
2026-01-17 20:55:10.98	335.86	8.58	-38.7	-39.8	21.8	0.00e+00	0	31	0	1037041664	50	6252
2026-01-17 20:55:15.02	335.35	8.36	-39.1	-40.2	21.3	0.00e+00	0	31	0	1044381696	50	6582
2026-01-17 20:55:19.06	334.85	8.14	-39.1	-40.3	21.3	0.00e+00	0	31	0	1051721728	50	6646
2026-01-17 20:55:23.09	334.36	7.92	-39.0	-40.1	21.3	0.00e+00	92	31	0	1059061760	50	6534
2026-01-17 20:55:27.13	333.87	7.70	-39.2	-40.4	21.1	0.00e+00	0	31	0	1067450368	50	6716
2026-01-17 20:55:31.16	333.40	7.48	-39.1	-40.2	21.2	0.00e+00	0	31	0	1074790400	50	6600
2026-01-17 20:55:35.20	332.93	7.25	-38.5	-39.5	21.8	0.00e+00	35	31	0	1082130432	50	6077
2026-01-17 20:55:39.24	332.46	7.03	-38.5	-39.6	21.7	0.00e+00	0	31	0	1089470464	50	6120
2026-01-17 20:55:43.28	332.01	6.81	-39.5	-40.7	20.8	0.00e+00	0	31	0	1096810496	50	6965
2026-01-17 20:55:47.31	331.56	6.59	-40.5	-41.8	19.7	0.00e+00	0	31	0	1105199104	52	7078
2026-01-17 20:55:51.35	331.12	6.37	-39.7	-41.0	20.5	0.00e+00	92	31	0	1112539136	52	6422
2026-01-17 20:55:55.39	330.68	6.15	-39.2	-40.3	21.1	0.00e+00	0	31	0	1119879168	52	5960
2026-01-17 20:55:59.42	330.25	5.93	-39.1	-40.3	21.2	0.00e+00	0	31	0	1127219200	52	5897
2026-01-17 20:56:03.45	329.83	5.71	-39.5	-40.7	20.8	0.00e+00	0	31	0	1135607808	52	6176
2026-01-17 20:56:07.49	329.42	5.50	-39.9	-41.2	20.3	0.00e+00	90	31	0	1142947840	52	6570
2026-01-17 20:56:11.53	329.01	5.28	-40.6	-42.0	19.5	0.00e+00	0	31	0	1150287872	54	6448
2026-01-17 20:56:15.57	328.61	5.06	-41.0	-42.5	19.1	0.00e+00	0	31	0	1157627904	54	6805
2026-01-17 20:56:19.60	328.21	4.84	-41.0	-42.5	19.0	0.00e+00	0	31	0	1164967936	54	6825
2026-01-17 20:56:23.64	327.82	4.62	-40.4	-41.8	19.6	0.00e+00	84	31	0	1173356544	54	6291
2026-01-17 20:56:27.68	327.43	4.41	-41.1	-42.7	18.7	0.00e+00	0	31	0	1180696576	54	6982
2026-01-17 20:56:31.72	327.06	4.19	-41.6	-43.4	18.2	0.00e+00	0	31	0	1188036608	54	7531
2026-01-17 20:56:35.76	326.68	3.98	-41.6	-43.4	18.0	0.00e+00	30	31	0	1195376640	56	6739
2026-01-17 20:56:39.80	326.32	3.76	-41.2	-42.9	18.5	0.00e+00	0	31	0	1203765248	56	6337
2026-01-17 20:56:43.83	325.95	3.55	-41.3	-43.0	18.5	0.00e+00	0	31	0	1211105280	56	6396
2026-01-17 20:56:47.88	325.60	3.33	-41.9	-43.8	17.6	0.00e+00	0	31	0	1218445312	56	7045
2026-01-17 20:56:51.91	325.25	3.12	-41.7	-43.6	17.6	0.00e+00	92	31	0	1225785344	56	6876
2026-01-17 20:56:55.96	324.90	2.91	-48.2	-63.3	3.6	1.51e+00	0	31	104	1231028224	60	52587
2026-01-17 20:57:00.00	324.56	2.70	-48.9	-64.1	3.6	1.51e+00	0	31	104	1231028224	60	57736
2026-01-17 20:57:04.04	324.22	2.48	-48.9	-64.1	3.6	1.51e+00	0	31	104	1231028224	60	57846
2026-01-17 20:57:08.08	323.89	2.27	-48.7	-63.9	3.6	1.51e+00	0	31	104	1231028224	60	56612
2026-01-17 20:57:12.12	323.57	2.06	-48.9	-64.0	3.6	1.51e+00	0	31	104	1231028224	60	57399
2026-01-17 20:57:16.16	323.25	1.85	-48.8	-64.0	3.6	1.51e+00	0	31	104	1231028224	60	57131
2026-01-17 20:57:20.20	322.93	1.65	-48.8	-63.9	3.6	1.51e+00	0	31	104	1231028224	60	56643
2026-01-17 20:57:24.24	322.62	1.44	-48.8	-64.0	3.6	1.51e+00	0	31	104	1231028224	60	57272
2026-01-17 20:57:28.28	322.31	1.23	-48.9	-64.1	3.6	1.51e+00	0	31	104	1231028224	60	57660
2026-01-17 20:57:32.32	322.01	1.02	-48.9	-64.1	3.6	1.51e+00	0	31	104	1231028224	60	57945
2026-01-17 20:57:36.36	321.71	0.82	-48.8	-64.0	3.6	1.51e+00	0	31	104	1231028224	60	57041
2026-01-17 20:57:40.40	321.42	0.61	-48.8	-64.0	3.6	1.51e+00	0	31	104	1231028224	60	57119
2026-01-17 20:57:44.44	321.13	0.41	-48.8	-64.0	3.6	1.51e+00	0	31	104	1231028224	60	57139
2026-01-17 20:57:48.47	320.84	0.21	-48.9	-64.0	3.6	1.51e+00	0	31	104	1231028224	60	57608
2026-01-17 20:57:52.52	320.56	0.00	-49.0	-64.1	3.6	1.51e+00	0	31	104	1231028224	60	57976

#Closed at: 2026-01-17 20:57:53
#Recorded file [1231 MB]: D:/lorett/data/35029_260118_084501.dat