passes_logs/2026/01/17/R4.6S_Anadyr/R4.6S_Anadyr__20260117_115651_NOAA_21_JPSS-2_rec.log

#Pass ID: 20260117_115651_NOAA 21 (JPSS-2)
#Satellite: NOAA 21 (JPSS-2)
#Configuration: NOAA-21
#almurnet v.1.7.20251203
#Start time: 2026-01-17 11:56:52

#Version: 2.2.20231116
#Station: R4.6S_Anadyr
#Location: 177.4865 lon 64.73178 lat
#TLE: 1 54234U 22150A   26016.56338662  .00000024  00000+0  32257-4 0  9990
#TLE: 2 54234  98.7500 317.4442 0000622 279.9774  80.1332 14.19534942165033

#Time	Az	El	Level	Level2	SNR	BER	BlckErr	Temp	State	Recorded	gain1	gain2
2026-01-17 11:56:52.99	19.72	0.08	-47.9	-59.6	3.4	8.45e-01	0	25	0	0	60	34548
2026-01-17 11:56:56.01	19.98	0.21	-48.7	-61.6	3.5	1.51e+00	0	26	104	0	60	42247
2026-01-17 11:56:59.04	20.24	0.35	-48.7	-61.5	3.5	1.52e+00	0	26	104	0	60	41676
2026-01-17 11:57:02.07	20.51	0.48	-48.5	-61.4	3.5	1.52e+00	0	26	104	0	60	41248
2026-01-17 11:57:05.10	20.78	0.62	-48.2	-61.1	3.5	1.51e+00	0	26	104	0	60	39635
2026-01-17 11:57:08.13	21.04	0.75	-47.8	-60.5	3.5	1.52e+00	0	26	104	0	60	37316
2026-01-17 11:57:11.16	21.31	0.89	-46.9	-59.7	3.5	1.52e+00	0	26	104	0	60	33883
2026-01-17 11:57:14.19	21.59	1.02	-46.9	-59.6	3.5	1.52e+00	0	26	104	0	60	33555
2026-01-17 11:57:17.22	21.86	1.16	-46.8	-59.6	3.5	1.51e+00	0	27	104	0	60	33469
2026-01-17 11:57:20.25	22.14	1.29	-46.8	-59.6	3.5	1.52e+00	0	27	104	0	60	33423
2026-01-17 11:57:23.28	22.42	1.43	-46.8	-59.6	3.5	1.51e+00	0	27	104	0	60	33659
2026-01-17 11:57:26.31	22.71	1.56	-46.8	-59.6	3.5	1.52e+00	0	27	104	0	60	33331
2026-01-17 11:57:29.33	22.99	1.70	-46.8	-59.6	3.5	1.52e+00	0	27	104	0	60	33446
2026-01-17 11:57:32.36	23.28	1.84	-46.8	-59.6	3.5	1.52e+00	0	27	104	0	60	33527
2026-01-17 11:57:35.40	23.57	1.97	-46.8	-59.6	3.5	1.52e+00	0	27	104	0	60	33568
2026-01-17 11:57:38.43	23.86	2.11	-46.8	-59.6	3.5	1.52e+00	0	27	104	0	60	33347
2026-01-17 11:57:41.46	24.16	2.24	-46.8	-59.6	3.5	1.51e+00	0	27	104	0	60	33424
2026-01-17 11:57:44.49	24.46	2.38	-46.8	-59.6	3.5	1.52e+00	0	27	104	0	60	33518
2026-01-17 11:57:47.52	24.76	2.52	-46.7	-58.0	3.5	1.51e+00	0	27	104	0	60	27941
2026-01-17 11:57:50.55	25.06	2.65	-46.3	-55.4	4.7	1.50e+00	121	27	104	0	60	20569
2026-01-17 11:57:53.58	25.37	2.79	-41.2	-43.1	15.7	0.00e+00	122	27	0	7340032	56	6350
2026-01-17 11:57:56.61	25.67	2.93	-39.6	-41.1	17.7	0.00e+00	123	27	0	16777216	52	6333
2026-01-17 11:57:59.63	25.99	3.06	-40.5	-42.3	14.2	0.00e+00	123	27	0	26214400	50	8139
2026-01-17 11:58:02.66	26.30	3.20	-46.4	-56.3	3.6	1.52e+00	0	27	104	32505856	60	23031
2026-01-17 11:58:05.69	26.62	3.33	-38.9	-40.3	18.7	0.00e+00	123	27	0	38797312	52	5738
2026-01-17 11:58:08.72	26.94	3.47	-38.0	-39.3	19.5	0.00e+00	120	27	0	48234496	50	5732
2026-01-17 11:58:11.75	27.26	3.61	-38.3	-39.6	19.2	0.00e+00	122	27	0	57671680	50	5950
2026-01-17 11:58:14.78	27.58	3.74	-38.1	-39.4	19.6	0.00e+00	123	27	0	67108864	50	5821
2026-01-17 11:58:17.81	27.91	3.88	-37.9	-39.1	19.8	0.00e+00	122	27	0	76546048	50	5646
2026-01-17 11:58:20.83	28.24	4.02	-37.9	-39.2	19.8	0.00e+00	123	27	0	85983232	48	6358
2026-01-17 11:58:23.86	28.58	4.15	-37.5	-38.7	20.2	0.00e+00	122	27	0	95420416	48	6039
2026-01-17 11:58:26.89	28.91	4.29	-37.8	-39.0	20.0	0.00e+00	122	27	0	104857600	48	6239
2026-01-17 11:58:29.92	29.25	4.42	-37.7	-38.9	20.1	0.00e+00	123	27	0	114294784	48	6159
2026-01-17 11:58:32.95	29.60	4.56	-37.6	-38.8	20.2	0.00e+00	120	27	0	123731968	48	6099
2026-01-17 11:58:35.98	29.94	4.69	-37.9	-39.1	20.0	0.00e+00	122	27	0	133169152	48	6290
2026-01-17 11:58:39.01	30.29	4.83	-37.6	-38.8	20.2	0.00e+00	123	27	0	142606336	48	6068
2026-01-17 11:58:42.04	30.65	4.97	-37.6	-38.7	20.3	0.00e+00	123	27	0	152043520	48	6062
2026-01-17 11:58:45.06	31.00	5.10	-37.9	-39.1	19.9	0.00e+00	122	27	0	161480704	48	6324
2026-01-17 11:58:48.09	31.36	5.24	-37.6	-38.7	20.4	0.00e+00	123	27	0	170917888	48	6050
2026-01-17 11:58:51.12	31.72	5.37	-37.6	-38.8	20.2	0.00e+00	122	27	0	180355072	48	6071
2026-01-17 11:58:54.15	32.09	5.50	-37.7	-38.9	20.2	0.00e+00	122	27	0	189792256	48	6185
2026-01-17 11:58:57.19	32.46	5.64	-37.9	-39.1	20.0	0.00e+00	120	27	0	199229440	48	6323
2026-01-17 11:59:00.21	32.83	5.77	-37.2	-38.3	20.8	0.00e+00	120	27	0	208666624	48	5760
2026-01-17 11:59:03.24	33.20	5.91	-37.0	-38.1	20.9	0.00e+00	122	27	0	218103808	48	5645
2026-01-17 11:59:06.27	33.58	6.04	-37.1	-38.2	21.0	0.00e+00	120	27	0	227540992	48	5676
2026-01-17 11:59:09.30	33.96	6.17	-36.9	-38.1	21.0	0.00e+00	122	27	0	236978176	48	5603
2026-01-17 11:59:12.33	34.35	6.30	-37.3	-38.4	20.7	0.00e+00	120	27	0	246415360	48	5841
2026-01-17 11:59:15.35	34.73	6.44	-37.1	-38.2	20.8	0.00e+00	122	27	0	255852544	48	5711
2026-01-17 11:59:18.38	35.12	6.57	-37.4	-38.6	20.8	0.00e+00	121	27	0	265289728	48	5941
2026-01-17 11:59:21.41	35.52	6.70	-36.8	-37.9	21.2	0.00e+00	123	27	0	274726912	48	5482
2026-01-17 11:59:24.44	35.92	6.83	-36.6	-37.7	21.5	0.00e+00	123	27	0	284164096	46	6016
2026-01-17 11:59:27.47	36.32	6.96	-36.8	-37.9	21.3	0.00e+00	122	27	0	293601280	46	6155
2026-01-17 11:59:30.49	36.72	7.09	-36.7	-37.7	21.4	0.00e+00	122	27	0	303038464	46	6037
2026-01-17 11:59:33.52	37.13	7.22	-36.7	-37.7	21.5	0.00e+00	123	27	0	312475648	46	6054
2026-01-17 11:59:36.55	37.55	7.35	-36.6	-37.7	21.5	0.00e+00	123	27	0	321912832	46	5995
2026-01-17 11:59:39.58	37.96	7.48	-36.4	-37.5	21.7	0.00e+00	123	27	0	331350016	46	5880
2026-01-17 11:59:42.61	38.38	7.60	-36.5	-37.5	21.7	0.00e+00	120	27	0	340787200	46	5926
2026-01-17 11:59:45.64	38.80	7.73	-36.6	-37.7	21.5	0.00e+00	123	27	0	350224384	46	6042
2026-01-17 11:59:48.67	39.23	7.86	-36.5	-37.5	21.7	0.00e+00	120	27	0	360710144	46	5909
2026-01-17 11:59:51.70	39.66	7.98	-36.3	-37.3	21.8	0.00e+00	123	27	0	370147328	46	5785
2026-01-17 11:59:54.73	40.09	8.11	-36.4	-37.4	21.9	0.00e+00	123	27	0	379584512	46	5852
2026-01-17 11:59:57.76	40.53	8.23	-36.5	-37.5	21.8	0.00e+00	123	27	0	389021696	46	5917
2026-01-17 12:00:00.79	40.97	8.35	-36.2	-37.3	21.9	0.00e+00	120	27	0	398458880	46	5726
2026-01-17 12:00:03.82	41.42	8.47	-36.0	-37.0	22.2	0.00e+00	123	27	0	407896064	46	5588
2026-01-17 12:00:06.85	41.86	8.60	-36.2	-37.3	22.0	0.00e+00	122	27	0	417333248	46	5750
2026-01-17 12:00:09.88	42.32	8.72	-36.1	-37.1	22.2	0.00e+00	123	27	0	426770432	46	5621
2026-01-17 12:00:12.91	42.77	8.84	-36.5	-37.5	21.8	0.00e+00	122	27	0	436207616	46	5902
2026-01-17 12:00:15.94	43.23	8.95	-36.3	-37.3	22.1	0.00e+00	123	27	0	445644800	46	5767
2026-01-17 12:00:18.97	43.69	9.07	-36.0	-37.0	22.3	0.00e+00	122	27	0	455081984	46	5540
2026-01-17 12:00:22.00	44.16	9.19	-35.7	-36.7	22.5	0.00e+00	123	27	0	464519168	44	6007
2026-01-17 12:00:25.02	44.63	9.30	-35.8	-36.8	22.3	0.00e+00	120	28	0	473956352	44	6124
2026-01-17 12:00:28.05	45.10	9.42	-36.0	-37.0	22.3	0.00e+00	120	27	0	483393536	44	6226
2026-01-17 12:00:31.08	45.58	9.53	-36.0	-37.0	22.3	0.00e+00	123	27	0	492830720	44	6265
2026-01-17 12:00:34.12	46.06	9.64	-36.1	-37.1	22.2	0.00e+00	123	27	0	502267904	44	6328
2026-01-17 12:00:37.14	46.54	9.75	-36.1	-37.1	22.3	0.00e+00	123	28	0	511705088	44	6310
2026-01-17 12:00:40.18	47.03	9.86	-35.8	-36.8	22.4	0.00e+00	123	27	0	521142272	44	6118
2026-01-17 12:00:43.21	47.52	9.97	-36.0	-37.0	22.3	0.00e+00	123	28	0	530579456	44	6251
2026-01-17 12:00:46.24	48.02	10.08	-35.8	-36.8	22.4	0.00e+00	122	27	0	540016640	44	6134
2026-01-17 12:00:49.27	48.52	10.18	-36.0	-37.0	22.3	0.00e+00	123	27	0	549453824	44	6227
2026-01-17 12:00:52.29	49.02	10.28	-35.9	-37.0	22.3	0.00e+00	123	27	0	558891008	44	6218
2026-01-17 12:00:55.32	49.52	10.39	-35.9	-36.9	22.4	0.00e+00	122	28	0	568328192	44	6142
2026-01-17 12:00:58.35	50.03	10.49	-36.0	-37.0	22.3	0.00e+00	123	27	0	577765376	44	6246
2026-01-17 12:01:01.38	50.54	10.58	-36.0	-37.0	22.3	0.00e+00	122	28	0	587202560	44	6216
2026-01-17 12:01:04.41	51.06	10.68	-36.1	-37.2	22.2	0.00e+00	122	27	0	596639744	44	6379
2026-01-17 12:01:07.44	51.57	10.78	-36.0	-37.0	22.4	0.00e+00	122	27	0	606076928	44	6218
2026-01-17 12:01:10.47	52.10	10.87	-35.9	-37.0	22.4	0.00e+00	122	27	0	615514112	44	6208
2026-01-17 12:01:13.50	52.62	10.96	-35.9	-36.9	22.5	0.00e+00	120	27	0	624951296	44	6151
2026-01-17 12:01:16.53	53.15	11.05	-35.8	-36.8	22.6	0.00e+00	122	27	0	634388480	44	6110
2026-01-17 12:01:19.56	53.68	11.14	-35.9	-36.9	22.3	0.00e+00	120	27	0	643825664	44	6153
2026-01-17 12:01:22.59	54.21	11.23	-36.1	-37.1	22.5	0.00e+00	122	27	0	653262848	44	6301
2026-01-17 12:01:25.62	54.75	11.31	-35.7	-36.7	22.5	0.00e+00	123	27	0	662700032	44	6052
2026-01-17 12:01:28.65	55.29	11.40	-35.8	-36.8	22.5	0.00e+00	122	28	0	673185792	44	6113
2026-01-17 12:01:31.68	55.84	11.48	-35.6	-36.5	22.8	0.00e+00	122	27	0	681574400	44	5925
2026-01-17 12:01:34.71	56.38	11.56	-35.6	-36.6	22.7	0.00e+00	122	27	0	692060160	44	5970
2026-01-17 12:01:37.74	56.93	11.63	-35.7	-36.8	22.6	0.00e+00	122	27	0	701497344	44	6074
2026-01-17 12:01:40.77	57.48	11.71	-35.8	-36.8	22.5	0.00e+00	123	28	0	710934528	44	6127
2026-01-17 12:01:43.80	58.04	11.78	-35.6	-36.6	22.7	0.00e+00	122	27	0	720371712	44	5937
2026-01-17 12:01:46.82	58.59	11.85	-35.5	-36.6	22.7	0.00e+00	122	27	0	729808896	44	5930
2026-01-17 12:01:49.85	59.15	11.92	-35.6	-36.6	22.6	0.00e+00	123	28	0	739246080	44	5983
2026-01-17 12:01:52.88	59.72	11.98	-35.7	-36.7	22.7	0.00e+00	123	28	0	748683264	44	6044
2026-01-17 12:01:55.91	60.28	12.05	-35.5	-36.4	22.9	0.00e+00	122	27	0	758120448	44	5858
2026-01-17 12:01:58.94	60.85	12.11	-35.5	-36.5	22.8	0.00e+00	122	28	0	767557632	44	5882
2026-01-17 12:02:01.97	61.42	12.17	-35.8	-36.9	22.4	0.00e+00	123	27	0	776994816	44	6137
2026-01-17 12:02:05.00	61.99	12.22	-35.7	-36.7	22.6	0.00e+00	123	27	0	786432000	44	6033
2026-01-17 12:02:08.03	62.56	12.28	-35.4	-36.4	22.9	0.00e+00	122	28	0	795869184	44	5806
2026-01-17 12:02:11.05	63.14	12.33	-35.3	-36.3	23.0	0.00e+00	120	28	0	805306368	44	5736
2026-01-17 12:02:14.08	63.71	12.38	-35.5	-36.5	22.7	0.00e+00	120	28	0	814743552	44	5923
2026-01-17 12:02:17.11	64.29	12.42	-35.5	-36.5	22.8	0.00e+00	121	27	0	824180736	44	5892
2026-01-17 12:02:20.15	64.88	12.47	-35.5	-36.5	22.8	0.00e+00	123	28	0	833617920	44	5869
2026-01-17 12:02:23.17	65.46	12.51	-35.5	-36.5	22.8	0.00e+00	123	27	0	843055104	44	5883
2026-01-17 12:02:26.20	66.04	12.55	-35.7	-36.7	22.7	0.00e+00	122	28	0	852492288	44	6052
2026-01-17 12:02:29.23	66.63	12.58	-35.7	-36.7	22.7	0.00e+00	123	27	0	861929472	44	6008
2026-01-17 12:02:32.25	67.21	12.62	-35.6	-36.6	22.8	0.00e+00	123	27	0	871366656	44	5936
2026-01-17 12:02:35.28	67.80	12.65	-35.5	-36.5	22.8	0.00e+00	123	27	0	880803840	44	5872
2026-01-17 12:02:38.31	68.39	12.68	-35.3	-36.3	22.9	0.00e+00	123	27	0	890241024	44	5733
2026-01-17 12:02:41.34	68.98	12.70	-35.2	-36.2	23.0	0.00e+00	122	28	0	899678208	44	5666
2026-01-17 12:02:44.37	69.58	12.72	-35.4	-36.4	23.0	0.00e+00	122	28	0	909115392	44	5804
2026-01-17 12:02:47.40	70.17	12.74	-35.2	-36.2	23.0	0.00e+00	122	28	0	918552576	44	5672
2026-01-17 12:02:50.43	70.76	12.76	-35.3	-36.3	22.9	0.00e+00	123	27	0	927989760	44	5778
2026-01-17 12:02:53.46	71.36	12.77	-35.2	-36.1	23.1	0.00e+00	122	27	0	937426944	44	5651
2026-01-17 12:02:56.49	71.95	12.78	-35.3	-36.2	23.1	0.00e+00	122	27	0	946864128	44	5723
2026-01-17 12:02:59.51	72.54	12.79	-35.1	-36.0	23.2	0.00e+00	123	27	0	956301312	44	5571
2026-01-17 12:03:02.54	73.14	12.80	-35.2	-36.2	23.0	0.00e+00	123	27	0	965738496	44	5686
2026-01-17 12:03:05.57	73.74	12.80	-35.2	-36.1	23.1	0.00e+00	123	28	0	975175680	44	5654
2026-01-17 12:03:08.60	74.33	12.80	-35.3	-36.2	23.0	0.00e+00	121	28	0	984612864	44	5721
2026-01-17 12:03:11.63	74.93	12.80	-35.1	-36.1	23.1	0.00e+00	122	28	0	994050048	44	5597
2026-01-17 12:03:14.66	75.52	12.79	-35.1	-36.1	23.1	0.00e+00	122	28	0	1003487232	44	5632
2026-01-17 12:03:17.69	76.12	12.79	-35.3	-36.3	22.9	0.00e+00	123	28	0	1012924416	44	5771
2026-01-17 12:03:20.72	76.71	12.78	-35.5	-36.5	22.7	0.00e+00	120	28	0	1022361600	44	5885
2026-01-17 12:03:23.75	77.31	12.76	-35.6	-36.6	22.6	0.00e+00	123	27	0	1031798784	44	5930
2026-01-17 12:03:26.78	77.90	12.74	-35.3	-36.3	22.8	0.00e+00	120	28	0	1042284544	44	5754
2026-01-17 12:03:29.81	78.50	12.73	-35.3	-36.3	22.9	0.00e+00	122	28	0	1051721728	44	5741
2026-01-17 12:03:32.84	79.09	12.70	-35.3	-36.3	22.9	0.00e+00	123	28	0	1061158912	44	5743
2026-01-17 12:03:35.86	79.68	12.68	-35.3	-36.3	22.9	0.00e+00	123	28	0	1070596096	44	5739
2026-01-17 12:03:38.89	80.27	12.65	-35.3	-36.2	22.9	0.00e+00	122	28	0	1080033280	44	5711
2026-01-17 12:03:41.92	80.86	12.62	-34.9	-35.9	23.2	0.00e+00	123	28	0	1089470464	44	5505
2026-01-17 12:03:44.95	81.45	12.59	-35.1	-36.1	22.9	0.00e+00	123	28	0	1098907648	44	5610
2026-01-17 12:03:47.98	82.03	12.55	-35.3	-36.3	22.9	0.00e+00	121	28	0	1108344832	44	5770
2026-01-17 12:03:51.01	82.62	12.51	-35.2	-36.1	23.0	0.00e+00	122	28	0	1117782016	44	5659
2026-01-17 12:03:54.04	83.20	12.47	-35.1	-36.1	23.0	0.00e+00	122	28	0	1127219200	44	5631
2026-01-17 12:03:57.07	83.79	12.43	-35.3	-36.2	22.9	0.00e+00	122	28	0	1136656384	44	5708
2026-01-17 12:04:00.10	84.37	12.38	-35.1	-36.1	23.0	0.00e+00	123	28	0	1146093568	44	5634
2026-01-17 12:04:03.13	84.95	12.33	-35.2	-36.2	22.9	0.00e+00	123	28	0	1155530752	44	5685
2026-01-17 12:04:06.16	85.52	12.28	-35.2	-36.1	23.1	0.00e+00	120	28	0	1164967936	44	5646
2026-01-17 12:04:09.19	86.10	12.23	-35.2	-36.2	22.9	0.00e+00	123	28	0	1174405120	44	5660
2026-01-17 12:04:12.21	86.67	12.17	-35.1	-36.1	23.0	0.00e+00	122	28	0	1183842304	44	5638
2026-01-17 12:04:15.24	87.24	12.11	-35.3	-36.3	22.8	0.00e+00	123	28	0	1193279488	44	5737
2026-01-17 12:04:18.27	87.81	12.05	-35.3	-36.3	22.9	0.00e+00	122	27	0	1202716672	44	5785
2026-01-17 12:04:21.29	88.37	11.99	-35.2	-36.2	23.0	0.00e+00	122	28	0	1212153856	44	5662
2026-01-17 12:04:24.32	88.94	11.92	-35.2	-36.2	23.0	0.00e+00	120	28	0	1221591040	44	5706
2026-01-17 12:04:27.35	89.50	11.86	-35.4	-36.4	22.8	0.00e+00	122	28	0	1231028224	44	5820
2026-01-17 12:04:30.38	90.06	11.79	-35.5	-36.5	22.8	0.00e+00	122	28	0	1240465408	44	5868
2026-01-17 12:04:33.40	90.62	11.71	-35.4	-36.3	22.8	0.00e+00	122	28	0	1249902592	44	5790
2026-01-17 12:04:36.43	91.17	11.64	-35.4	-36.4	22.8	0.00e+00	122	28	0	1259339776	44	5850
2026-01-17 12:04:39.46	91.72	11.56	-35.5	-36.5	22.8	0.00e+00	122	28	0	1268776960	44	5895
2026-01-17 12:04:42.49	92.27	11.48	-35.6	-36.5	22.8	0.00e+00	122	28	0	1278214144	44	5921
2026-01-17 12:04:45.52	92.81	11.40	-35.5	-36.5	22.7	0.00e+00	122	28	0	1287651328	44	5871
2026-01-17 12:04:48.54	93.36	11.32	-35.5	-36.5	22.7	0.00e+00	123	28	0	1297088512	44	5879
2026-01-17 12:04:51.57	93.90	11.23	-35.4	-36.4	22.7	0.00e+00	123	28	0	1306525696	44	5802
2026-01-17 12:04:54.60	94.43	11.15	-35.5	-36.5	22.7	0.00e+00	121	28	0	1315962880	44	5897
2026-01-17 12:04:57.62	94.96	11.06	-35.4	-36.4	22.8	0.00e+00	123	28	0	1325400064	44	5819
2026-01-17 12:05:00.65	95.49	10.97	-35.6	-36.6	22.5	0.00e+00	120	28	0	1334837248	44	5937
2026-01-17 12:05:03.68	96.02	10.88	-35.3	-36.3	22.8	0.00e+00	122	28	0	1344274432	44	5757
2026-01-17 12:05:06.71	96.55	10.78	-35.3	-36.3	22.8	0.00e+00	121	28	0	1353711616	44	5759
2026-01-17 12:05:09.74	97.07	10.68	-35.4	-36.4	22.7	0.00e+00	122	28	0	1363148800	44	5842
2026-01-17 12:05:12.77	97.58	10.59	-35.3	-36.3	22.7	0.00e+00	122	28	0	1372585984	44	5783
2026-01-17 12:05:15.79	98.10	10.49	-35.6	-36.6	22.5	0.00e+00	122	28	0	1382023168	44	5946
2026-01-17 12:05:18.82	98.61	10.39	-35.7	-36.7	22.5	0.00e+00	122	28	0	1391460352	44	6013
2026-01-17 12:05:21.85	99.11	10.28	-35.6	-36.5	22.6	0.00e+00	122	28	0	1400897536	44	5922
2026-01-17 12:05:24.88	99.62	10.18	-35.6	-36.6	22.4	0.00e+00	123	28	0	1410334720	44	5981
2026-01-17 12:05:27.90	100.12	10.08	-35.8	-36.8	22.2	0.00e+00	123	28	0	1420820480	44	6091
2026-01-17 12:05:30.93	100.61	9.97	-35.9	-36.9	22.2	0.00e+00	123	28	0	1429209088	44	6157
2026-01-17 12:05:33.96	101.11	9.86	-36.0	-37.0	22.0	0.00e+00	123	28	0	1439694848	44	6240
2026-01-17 12:05:36.99	101.60	9.75	-36.0	-37.1	21.9	0.00e+00	120	28	0	1449132032	44	6279
2026-01-17 12:05:40.02	102.08	9.64	-36.0	-37.0	22.1	0.00e+00	123	28	0	1458569216	44	6274
2026-01-17 12:05:43.05	102.57	9.53	-35.8	-36.8	22.2	0.00e+00	122	27	0	1468006400	44	6113
2026-01-17 12:05:46.08	103.05	9.41	-35.8	-36.8	22.3	0.00e+00	123	28	0	1477443584	44	6086
2026-01-17 12:05:49.11	103.52	9.30	-36.1	-37.2	22.0	0.00e+00	120	28	0	1486880768	44	6361
2026-01-17 12:05:52.14	103.99	9.18	-36.1	-37.2	22.0	0.00e+00	123	28	0	1496317952	44	6361
2026-01-17 12:05:55.17	104.46	9.06	-36.2	-37.2	21.9	0.00e+00	123	28	0	1505755136	44	6421
2026-01-17 12:05:58.20	104.93	8.95	-36.2	-37.3	21.8	0.00e+00	123	28	0	1515192320	44	6434
2026-01-17 12:06:01.23	105.39	8.83	-36.2	-37.2	21.9	0.00e+00	123	28	0	1524629504	44	6396
2026-01-17 12:06:04.26	105.85	8.71	-36.2	-37.3	21.7	0.00e+00	123	28	0	1534066688	44	6471
2026-01-17 12:06:07.29	106.30	8.59	-36.2	-37.3	21.7	0.00e+00	123	28	0	1543503872	44	6460
2026-01-17 12:06:10.32	106.75	8.46	-36.2	-37.3	21.8	0.00e+00	122	28	0	1552941056	44	6450
2026-01-17 12:06:13.34	107.20	8.34	-36.4	-37.5	21.6	0.00e+00	122	28	0	1562378240	44	6639
2026-01-17 12:06:16.37	107.64	8.22	-36.5	-37.6	21.5	0.00e+00	122	28	0	1571815424	44	6668
2026-01-17 12:06:19.40	108.08	8.09	-36.3	-37.4	21.7	0.00e+00	122	28	0	1581252608	44	6546
2026-01-17 12:06:22.43	108.51	7.97	-36.4	-37.4	21.7	0.00e+00	120	28	0	1590689792	44	6567
2026-01-17 12:06:25.46	108.95	7.84	-36.4	-37.4	21.7	0.00e+00	122	28	0	1600126976	44	6563
2026-01-17 12:06:28.48	109.37	7.71	-36.3	-37.4	21.7	0.00e+00	122	28	0	1609564160	44	6560
2026-01-17 12:06:31.51	109.80	7.58	-37.0	-38.1	21.1	0.00e+00	123	28	0	1619001344	46	6345
2026-01-17 12:06:34.54	110.22	7.46	-37.0	-38.1	21.1	0.00e+00	123	28	0	1628438528	46	6321
2026-01-17 12:06:37.56	110.64	7.33	-36.6	-37.7	21.4	0.00e+00	122	28	0	1637875712	46	6041
2026-01-17 12:06:40.59	111.05	7.20	-36.9	-38.1	21.1	0.00e+00	123	28	0	1647312896	46	6294
2026-01-17 12:06:43.62	111.46	7.07	-37.0	-38.2	20.9	0.00e+00	123	28	0	1656750080	46	6381
2026-01-17 12:06:46.64	111.87	6.94	-37.0	-38.2	21.0	0.00e+00	123	28	0	1666187264	46	6374
2026-01-17 12:06:49.67	112.27	6.80	-36.9	-38.0	21.1	0.00e+00	123	28	0	1675624448	46	6256
2026-01-17 12:06:52.70	112.67	6.67	-37.0	-38.1	21.0	0.00e+00	123	28	0	1685061632	46	6316
2026-01-17 12:06:55.73	113.07	6.54	-37.1	-38.2	20.8	0.00e+00	123	28	0	1694498816	46	6384
2026-01-17 12:06:58.76	113.46	6.41	-37.0	-38.1	21.0	0.00e+00	123	28	0	1703936000	46	6308
2026-01-17 12:07:01.79	113.85	6.27	-36.8	-37.9	21.1	0.00e+00	123	28	0	1713373184	46	6188
2026-01-17 12:07:04.82	114.24	6.14	-36.7	-37.8	21.3	0.00e+00	123	28	0	1722810368	46	6087
2026-01-17 12:07:07.85	114.62	6.01	-36.8	-37.9	21.1	0.00e+00	122	28	0	1732247552	46	6147
2026-01-17 12:07:10.88	115.00	5.87	-37.0	-38.1	21.0	0.00e+00	123	28	0	1741684736	46	6301
2026-01-17 12:07:13.91	115.38	5.74	-36.9	-38.0	21.0	0.00e+00	120	28	0	1751121920	46	6225
2026-01-17 12:07:16.94	115.75	5.60	-37.0	-38.1	20.9	0.00e+00	123	28	0	1760559104	46	6346
2026-01-17 12:07:19.97	116.12	5.47	-37.2	-38.3	20.7	0.00e+00	122	28	0	1769996288	46	6488
2026-01-17 12:07:23.00	116.49	5.33	-37.2	-38.4	20.6	0.00e+00	123	28	0	1779433472	46	6532
2026-01-17 12:07:26.02	116.85	5.19	-37.1	-38.2	20.7	0.00e+00	123	28	0	1789919232	48	5697
2026-01-17 12:07:29.05	117.21	5.06	-37.5	-38.8	20.2	0.00e+00	123	28	0	1799356416	48	6069
2026-01-17 12:07:32.08	117.57	4.92	-37.4	-38.7	20.1	0.00e+00	123	28	0	1808793600	48	6047
2026-01-17 12:07:35.11	117.92	4.79	-37.2	-38.4	20.4	0.00e+00	120	28	0	1818230784	48	5803
2026-01-17 12:07:38.14	118.27	4.65	-37.6	-38.8	20.0	0.00e+00	123	28	0	1827667968	48	6129
2026-01-17 12:07:41.16	118.62	4.51	-38.1	-39.4	19.4	0.00e+00	123	28	0	1837105152	48	6527
2026-01-17 12:07:44.19	118.96	4.37	-37.6	-38.8	20.0	0.00e+00	123	28	0	1846542336	48	6092
2026-01-17 12:07:47.22	119.30	4.24	-38.1	-39.4	19.5	0.00e+00	120	28	0	1855979520	48	6515
2026-01-17 12:07:50.25	119.64	4.10	-37.7	-39.0	19.8	0.00e+00	123	28	0	1865416704	48	6241
2026-01-17 12:07:53.28	119.98	3.96	-37.9	-39.2	19.7	0.00e+00	122	28	0	1874853888	48	6380
2026-01-17 12:07:56.31	120.31	3.82	-38.2	-39.5	19.1	0.00e+00	123	28	0	1884291072	48	6623
2026-01-17 12:07:59.34	120.64	3.69	-38.1	-39.4	19.5	0.00e+00	123	28	0	1893728256	50	5829
2026-01-17 12:08:02.37	120.96	3.55	-38.2	-39.5	19.1	0.00e+00	123	28	0	1903165440	50	5897
2026-01-17 12:08:05.40	121.29	3.41	-38.6	-40.0	18.7	0.00e+00	122	28	0	1912602624	50	6267
2026-01-17 12:08:08.42	121.61	3.27	-38.9	-40.4	18.3	0.00e+00	123	28	0	1922039808	50	6506
2026-01-17 12:08:11.44	121.92	3.14	-38.3	-39.7	18.7	0.00e+00	122	28	0	1931476992	50	6027
2026-01-17 12:08:14.47	122.24	3.00	-45.8	-53.0	3.5	0.00e+00	118	28	104	1940914176	50	27876
2026-01-17 12:08:17.51	122.55	2.86	-48.1	-60.9	3.5	1.52e+00	0	28	104	1940914176	60	39151
2026-01-17 12:08:20.53	122.86	2.72	-48.4	-61.3	3.5	1.52e+00	0	28	104	1940914176	60	40578
2026-01-17 12:08:23.56	123.17	2.58	-48.4	-61.3	3.5	1.52e+00	0	28	104	1940914176	60	40877
2026-01-17 12:08:26.59	123.47	2.45	-48.4	-61.3	3.5	1.52e+00	0	28	104	1940914176	60	40756
2026-01-17 12:08:29.62	123.77	2.31	-48.4	-61.3	3.5	1.51e+00	0	28	104	1940914176	60	40979
2026-01-17 12:08:32.65	124.07	2.17	-48.4	-61.3	3.5	1.51e+00	0	28	104	1940914176	60	40564
2026-01-17 12:08:35.68	124.36	2.03	-48.4	-61.3	3.5	1.52e+00	0	28	104	1940914176	60	40792
2026-01-17 12:08:38.71	124.66	1.90	-48.5	-61.4	3.5	1.52e+00	0	28	104	1940914176	60	41163
2026-01-17 12:08:41.74	124.95	1.76	-48.4	-61.3	3.5	1.52e+00	0	28	104	1940914176	60	40721
2026-01-17 12:08:44.77	125.24	1.62	-48.4	-61.3	3.5	1.52e+00	0	28	104	1940914176	60	40924
2026-01-17 12:08:47.80	125.52	1.48	-48.5	-61.3	3.5	1.52e+00	0	28	104	1940914176	60	40984
2026-01-17 12:08:50.83	125.80	1.35	-48.4	-61.3	3.5	1.52e+00	0	28	104	1940914176	60	40606
2026-01-17 12:08:53.86	126.08	1.21	-48.4	-61.3	3.5	1.52e+00	0	28	104	1940914176	60	40983
2026-01-17 12:08:56.89	126.36	1.07	-48.4	-61.3	3.5	1.52e+00	0	28	104	1940914176	60	40894
2026-01-17 12:08:59.92	126.64	0.94	-48.4	-61.3	3.5	1.52e+00	0	28	104	1940914176	60	40759
2026-01-17 12:09:02.95	126.91	0.80	-48.4	-61.3	3.5	1.52e+00	0	28	104	1940914176	60	40903
2026-01-17 12:09:05.98	127.18	0.66	-48.5	-61.3	3.5	1.52e+00	0	28	104	1940914176	60	40736
2026-01-17 12:09:09.01	127.45	0.53	-48.5	-61.3	3.5	1.52e+00	0	28	104	1940914176	60	40740
2026-01-17 12:09:12.04	127.72	0.39	-48.5	-61.3	3.5	1.52e+00	0	28	104	1940914176	60	40926
2026-01-17 12:09:15.07	127.98	0.25	-48.4	-61.3	3.5	1.52e+00	0	28	104	1940914176	60	40600
2026-01-17 12:09:18.10	128.24	0.12	-48.5	-61.3	3.5	1.52e+00	0	28	104	1940914176	60	40920
2026-01-17 12:09:21.13	128.50	-0.02	-48.5	-61.3	3.5	1.52e+00	0	28	104	1940914176	60	40890

#Closed at: 2026-01-17 12:09:21
#Recorded file [1940 MB]: D:/lorett/data/35029_260117_235652.dat