passes_logs/2026/01/17/R4.6S_Anadyr/R4.6S_Anadyr__20260117_233244_NOAA_21_JPSS-2_rec.log

#Pass ID: 20260117_233244_NOAA 21 (JPSS-2)
#Satellite: NOAA 21 (JPSS-2)
#Configuration: NOAA-21
#almurnet v.1.7.20251203
#Start time: 2026-01-17 23:32:46

#Version: 2.2.20231116
#Station: R4.6S_Anadyr
#Location: 177.4865 lon 64.73178 lat
#TLE: 1 54234U 22150A   26017.62066529  .00000042  00000+0  40984-4 0  9994
#TLE: 2 54234  98.7502 318.4887 0000613 271.5460  88.5645 14.19535234165189

#Time	Az	El	Level	Level2	SNR	BER	BlckErr	Temp	State	Recorded	gain1	gain2
2026-01-17 23:32:46.16	139.70	0.11	-49.3	-67.0	3.5	7.66e-01	0	29	0	0	60	86341
2026-01-17 23:32:50.06	139.64	0.34	-49.0	-61.9	3.5	1.52e+00	0	31	104	0	60	43541
2026-01-17 23:32:53.97	139.58	0.58	-48.9	-61.8	3.5	1.52e+00	0	31	104	0	60	43019
2026-01-17 23:32:57.88	139.52	0.82	-48.5	-61.4	3.5	1.52e+00	0	31	104	0	60	41190
2026-01-17 23:33:01.79	139.45	1.06	-47.4	-60.2	3.5	1.52e+00	0	31	104	0	60	35751
2026-01-17 23:33:05.69	139.39	1.30	-47.2	-60.1	3.5	1.52e+00	0	31	104	0	60	35614
2026-01-17 23:33:09.61	139.32	1.55	-47.2	-60.2	3.5	1.52e+00	0	31	104	0	60	35829
2026-01-17 23:33:13.52	139.26	1.79	-47.2	-59.9	3.5	1.51e+00	0	31	104	0	60	34739
2026-01-17 23:33:17.42	139.19	2.04	-47.2	-59.7	3.5	1.52e+00	0	31	104	0	60	34003
2026-01-17 23:33:21.34	139.12	2.29	-47.2	-60.0	3.5	1.51e+00	0	32	104	0	60	35167
2026-01-17 23:33:25.25	139.05	2.54	-47.1	-59.7	3.5	1.52e+00	0	32	104	0	60	34042
2026-01-17 23:33:29.16	138.97	2.80	-47.1	-59.7	3.5	1.52e+00	0	31	104	0	60	33732
2026-01-17 23:33:33.07	138.90	3.06	-46.9	-59.0	3.5	1.52e+00	0	32	104	0	60	31295
2026-01-17 23:33:36.97	138.82	3.32	-44.9	-48.6	9.8	3.31e-02	122	32	0	6291456	60	9467
2026-01-17 23:33:40.89	138.74	3.58	-41.1	-42.9	16.4	0.00e+00	123	32	0	17825792	56	6159
2026-01-17 23:33:44.80	138.67	3.84	-47.3	-58.5	3.5	7.35e-04	0	32	104	30408704	60	29447
2026-01-17 23:33:48.71	138.58	4.11	-42.2	-44.3	11.0	0.00e+00	120	32	0	32505856	52	9150
2026-01-17 23:33:52.61	138.50	4.38	-38.8	-40.1	19.3	0.00e+00	124	32	0	38797312	52	5600
2026-01-17 23:33:56.52	138.42	4.65	-38.5	-39.7	19.5	0.00e+00	121	32	0	51380224	50	6037
2026-01-17 23:34:00.43	138.33	4.93	-38.3	-39.5	19.8	0.00e+00	121	32	0	62914560	50	5879
2026-01-17 23:34:04.33	138.24	5.20	-38.7	-40.0	19.2	0.00e+00	123	32	0	75497472	50	6275
2026-01-17 23:34:08.24	138.15	5.48	-38.3	-39.5	19.9	0.00e+00	122	32	0	88080384	50	5871
2026-01-17 23:34:12.15	138.06	5.77	-38.0	-39.1	20.3	0.00e+00	120	32	0	99614720	50	5642
2026-01-17 23:34:16.06	137.97	6.05	-38.5	-39.7	19.8	0.00e+00	123	32	0	112197632	48	6804
2026-01-17 23:34:19.97	137.87	6.34	-38.2	-39.4	20.4	0.00e+00	125	32	0	124780544	50	5806
2026-01-17 23:34:23.88	137.77	6.64	-37.1	-38.2	21.3	0.00e+00	124	32	0	136314880	48	5696
2026-01-17 23:34:27.79	137.67	6.93	-36.9	-37.9	21.6	0.00e+00	123	32	0	148897792	48	5506
2026-01-17 23:34:31.71	137.57	7.23	-36.7	-37.8	21.8	0.00e+00	125	32	0	160432128	46	6092
2026-01-17 23:34:35.62	137.47	7.54	-36.6	-37.7	21.9	0.00e+00	120	32	0	173015040	46	6023
2026-01-17 23:34:39.52	137.36	7.84	-36.4	-37.4	22.1	0.00e+00	120	32	0	185597952	46	5831
2026-01-17 23:34:43.43	137.25	8.15	-36.2	-37.2	22.4	0.00e+00	122	32	0	198180864	46	5716
2026-01-17 23:34:47.34	137.14	8.47	-36.1	-37.1	22.4	0.00e+00	124	32	0	209715200	46	5648
2026-01-17 23:34:51.25	137.02	8.78	-36.4	-37.5	22.2	0.00e+00	120	32	0	222298112	46	5870
2026-01-17 23:34:55.16	136.90	9.11	-36.0	-37.0	22.6	0.00e+00	120	32	0	233832448	46	5566
2026-01-17 23:34:59.06	136.78	9.43	-36.1	-37.1	22.6	0.00e+00	125	32	0	246415360	46	5655
2026-01-17 23:35:02.97	136.66	9.76	-35.8	-36.8	22.7	0.00e+00	123	32	0	258998272	44	6119
2026-01-17 23:35:06.88	136.53	10.09	-35.7	-36.7	22.9	0.00e+00	123	32	0	270532608	44	6040
2026-01-17 23:35:10.80	136.40	10.43	-35.5	-36.5	23.0	0.00e+00	124	32	0	283115520	44	5889
2026-01-17 23:35:14.69	136.27	10.78	-35.7	-36.7	22.9	0.00e+00	122	32	0	295698432	44	6006
2026-01-17 23:35:18.60	136.13	11.12	-35.5	-36.5	23.1	0.00e+00	122	32	0	307232768	44	5885
2026-01-17 23:35:22.51	135.99	11.48	-35.3	-36.3	23.3	0.00e+00	123	32	0	319815680	44	5756
2026-01-17 23:35:26.42	135.84	11.83	-35.4	-36.4	23.2	0.00e+00	124	32	0	332398592	44	5800
2026-01-17 23:35:30.33	135.69	12.20	-35.3	-36.2	23.4	0.00e+00	125	32	0	343932928	44	5707
2026-01-17 23:35:34.24	135.54	12.56	-35.2	-36.2	23.4	0.00e+00	123	32	0	356515840	44	5685
2026-01-17 23:35:38.14	135.38	12.94	-35.2	-36.2	23.4	0.00e+00	121	32	0	369098752	44	5694
2026-01-17 23:35:42.06	135.22	13.32	-35.1	-36.1	23.5	0.00e+00	122	32	0	380633088	44	5628
2026-01-17 23:35:45.96	135.06	13.70	-35.0	-35.9	23.7	0.00e+00	121	32	0	393216000	44	5523
2026-01-17 23:35:49.87	134.89	14.09	-35.1	-36.0	23.6	0.00e+00	120	32	0	405798912	44	5575
2026-01-17 23:35:53.78	134.71	14.49	-35.1	-36.0	23.7	0.00e+00	120	32	0	417333248	44	5586
2026-01-17 23:35:57.69	134.53	14.89	-35.0	-36.0	23.7	0.00e+00	123	32	0	429916160	44	5540
2026-01-17 23:36:01.60	134.35	15.30	-34.9	-35.8	23.8	0.00e+00	123	32	0	441450496	44	5445
2026-01-17 23:36:05.52	134.15	15.72	-35.0	-35.9	23.7	0.00e+00	121	32	0	454033408	44	5492
2026-01-17 23:36:09.42	133.96	16.14	-35.1	-36.1	23.6	0.00e+00	122	32	0	466616320	44	5614
2026-01-17 23:36:13.28	133.76	16.56	-35.1	-36.1	23.6	0.00e+00	121	32	0	478150656	44	5601
2026-01-17 23:36:17.19	133.55	17.00	-35.3	-36.2	23.5	0.00e+00	122	32	0	490733568	44	5724
2026-01-17 23:36:21.10	133.33	17.44	-35.3	-36.2	23.5	0.00e+00	120	32	0	503316480	44	5696
2026-01-17 23:36:25.00	133.11	17.90	-35.3	-36.2	23.5	0.00e+00	121	32	0	514850816	44	5696
2026-01-17 23:36:28.91	132.88	18.36	-35.6	-36.5	23.3	0.00e+00	123	32	0	527433728	44	5916
2026-01-17 23:36:32.82	132.64	18.83	-35.3	-36.2	23.5	0.00e+00	121	32	0	540016640	44	5716
2026-01-17 23:36:36.73	132.40	19.30	-35.4	-36.3	23.5	0.00e+00	124	32	0	551550976	44	5764
2026-01-17 23:36:40.64	132.15	19.79	-35.0	-35.9	23.8	0.00e+00	123	32	0	564133888	44	5509
2026-01-17 23:36:44.53	131.89	20.28	-35.1	-36.0	23.7	0.00e+00	121	32	0	576716800	44	5565
2026-01-17 23:36:48.44	131.62	20.78	-34.5	-35.4	24.1	0.00e+00	122	32	0	588251136	42	5838
2026-01-17 23:36:52.36	131.33	21.30	-34.2	-35.1	24.3	0.00e+00	121	32	0	600834048	42	5623
2026-01-17 23:36:56.27	131.04	21.82	-34.0	-34.9	24.5	0.00e+00	121	33	0	612368384	42	5469
2026-01-17 23:37:00.19	130.74	22.36	-33.9	-34.8	24.5	0.00e+00	122	32	0	624951296	42	5450
2026-01-17 23:37:04.09	130.43	22.90	-33.5	-34.4	25.0	0.00e+00	123	32	0	637534208	40	5850
2026-01-17 23:37:08.00	130.11	23.45	-33.5	-34.3	25.1	0.00e+00	123	33	0	649068544	40	5774
2026-01-17 23:37:11.91	129.77	24.02	-33.5	-34.4	24.9	0.00e+00	122	33	0	661651456	40	5847
2026-01-17 23:37:15.81	129.43	24.60	-33.8	-34.7	24.8	0.00e+00	122	32	0	674234368	40	6036
2026-01-17 23:37:19.72	129.06	25.18	-34.0	-34.9	24.6	0.00e+00	121	33	0	685768704	40	6190
2026-01-17 23:37:23.63	128.69	25.79	-34.6	-35.6	24.3	0.00e+00	122	32	0	698351616	40	6652
2026-01-17 23:37:27.54	128.30	26.40	-34.5	-35.4	24.4	0.00e+00	123	32	0	710934528	40	6562
2026-01-17 23:37:31.45	127.89	27.02	-34.6	-35.5	24.4	0.00e+00	123	32	0	722468864	40	6598
2026-01-17 23:37:35.36	127.47	27.66	-34.7	-35.6	24.2	0.00e+00	121	32	0	735051776	42	5952
2026-01-17 23:37:39.27	127.03	28.31	-34.8	-35.7	24.1	0.00e+00	121	33	0	747634688	42	6033
2026-01-17 23:37:43.17	126.57	28.98	-34.6	-35.5	24.3	0.00e+00	121	32	0	759169024	42	5880
2026-01-17 23:37:47.10	126.08	29.66	-34.5	-35.5	24.4	0.00e+00	122	32	0	771751936	42	5859
2026-01-17 23:37:51.01	125.58	30.35	-34.6	-35.5	24.4	0.00e+00	123	32	0	784334848	42	5910
2026-01-17 23:37:54.92	125.06	31.06	-34.6	-35.5	24.5	0.00e+00	124	32	0	795869184	42	5869
2026-01-17 23:37:58.83	124.51	31.78	-35.3	-36.2	23.9	0.00e+00	122	32	0	808452096	42	6422
2026-01-17 23:38:02.75	123.93	32.52	-35.3	-36.3	23.9	0.00e+00	123	32	0	821035008	42	6442
2026-01-17 23:38:06.66	123.33	33.27	-35.1	-36.0	24.1	0.00e+00	122	33	0	832569344	42	6223
2026-01-17 23:38:10.57	122.70	34.04	-35.2	-36.1	23.8	0.00e+00	123	32	0	845152256	42	6311
2026-01-17 23:38:14.48	122.03	34.82	-36.0	-37.0	23.2	0.00e+00	123	32	0	857735168	44	6234
2026-01-17 23:38:18.39	121.34	35.62	-36.3	-37.3	23.0	0.00e+00	124	32	0	869269504	44	6472
2026-01-17 23:38:22.29	120.61	36.43	-36.1	-37.0	23.3	0.00e+00	123	32	0	881852416	44	6265
2026-01-17 23:38:26.21	119.83	37.26	-36.1	-37.1	23.1	0.00e+00	121	32	0	894435328	44	6291
2026-01-17 23:38:30.11	119.02	38.10	-36.1	-37.1	23.1	0.00e+00	120	32	0	905969664	44	6282
2026-01-17 23:38:34.02	118.17	38.96	-36.1	-37.0	23.2	0.00e+00	122	33	0	918552576	44	6265
2026-01-17 23:38:37.93	117.27	39.83	-36.2	-37.1	23.2	0.00e+00	121	33	0	931135488	44	6316
2026-01-17 23:38:41.84	116.31	40.71	-35.8	-36.7	23.5	0.00e+00	123	32	0	942669824	44	6055
2026-01-17 23:38:45.75	115.31	41.61	-36.4	-37.4	22.8	0.00e+00	120	32	0	955252736	44	6531
2026-01-17 23:38:49.65	114.24	42.51	-37.1	-38.1	22.3	0.00e+00	125	33	0	966787072	46	6343
2026-01-17 23:38:53.55	113.12	43.43	-37.9	-39.0	21.5	0.00e+00	123	32	0	979369984	48	6259
2026-01-17 23:38:57.46	111.92	44.35	-37.5	-38.6	22.0	0.00e+00	124	32	0	991952896	48	5942
2026-01-17 23:39:01.36	110.66	45.28	-37.6	-38.7	21.8	0.00e+00	124	33	0	1003487232	48	5996
2026-01-17 23:39:05.26	109.32	46.22	-38.0	-39.2	21.5	0.00e+00	121	32	0	1016070144	48	6353
2026-01-17 23:39:09.16	107.89	47.16	-37.4	-38.5	21.9	0.00e+00	123	33	0	1028653056	48	5861
2026-01-17 23:39:13.07	106.37	48.10	-37.6	-38.7	21.9	0.00e+00	125	33	0	1040187392	48	6045
2026-01-17 23:39:16.98	104.76	49.04	-38.1	-39.2	21.5	0.00e+00	122	32	0	1052770304	48	6380
2026-01-17 23:39:20.89	103.04	49.97	-37.2	-38.3	22.1	0.00e+00	124	33	0	1065353216	48	5732
2026-01-17 23:39:24.79	101.23	50.89	-36.7	-37.6	22.7	0.00e+00	122	32	0	1076887552	46	5978
2026-01-17 23:39:28.71	99.28	51.80	-36.0	-37.0	23.2	0.00e+00	121	32	0	1089470464	46	5531
2026-01-17 23:39:32.61	97.23	52.69	-36.0	-37.0	23.1	0.00e+00	122	33	0	1101004800	46	5544
2026-01-17 23:39:36.52	95.04	53.55	-35.9	-36.9	23.2	0.00e+00	122	32	0	1113587712	46	5477
2026-01-17 23:39:40.43	92.72	54.38	-36.0	-37.0	22.9	0.00e+00	126	32	0	1126170624	44	6239
2026-01-17 23:39:44.34	90.27	55.17	-35.0	-35.8	24.1	0.00e+00	121	33	0	1137704960	44	5462
2026-01-17 23:39:48.25	87.68	55.92	-34.6	-35.5	24.4	0.00e+00	124	32	0	1150287872	42	5879
2026-01-17 23:39:52.15	84.96	56.62	-34.3	-35.2	24.4	0.00e+00	123	32	0	1162870784	42	5679
2026-01-17 23:39:56.06	82.09	57.26	-34.8	-35.7	24.2	0.00e+00	121	33	0	1174405120	42	6045
2026-01-17 23:39:59.97	79.09	57.83	-33.9	-34.8	24.8	0.00e+00	121	32	0	1186988032	42	5436
2026-01-17 23:40:03.87	75.98	58.33	-34.1	-35.0	24.9	0.00e+00	123	32	0	1199570944	42	5546
2026-01-17 23:40:07.79	72.75	58.76	-34.3	-35.2	24.6	0.00e+00	122	33	0	1211105280	42	5705
2026-01-17 23:40:11.70	69.42	59.10	-34.5	-35.4	24.4	0.00e+00	121	32	0	1223688192	42	5798
2026-01-17 23:40:15.60	66.03	59.34	-34.9	-35.9	24.1	0.00e+00	124	32	0	1236271104	42	6156
2026-01-17 23:40:19.50	62.59	59.50	-34.5	-35.4	24.6	0.00e+00	122	33	0	1247805440	42	5800
2026-01-17 23:40:23.42	59.10	59.56	-33.8	-34.7	25.0	0.00e+00	123	32	0	1260388352	42	5367
2026-01-17 23:40:27.33	55.62	59.53	-34.3	-35.2	24.5	0.00e+00	122	32	0	1272971264	40	6410
2026-01-17 23:40:31.24	52.16	59.39	-34.5	-35.5	24.0	0.00e+00	122	32	0	1284505600	40	6588
2026-01-17 23:40:35.15	48.74	59.17	-34.4	-35.2	24.7	0.00e+00	122	32	0	1297088512	42	5712
2026-01-17 23:40:39.06	45.40	58.85	-34.7	-35.6	24.4	0.00e+00	124	32	0	1308622848	40	6704
2026-01-17 23:40:42.97	42.15	58.45	-34.7	-35.6	24.3	0.00e+00	123	32	0	1321205760	42	5936
2026-01-17 23:40:46.87	39.01	57.97	-35.3	-36.3	23.9	0.00e+00	121	33	0	1333788672	42	6435
2026-01-17 23:40:50.77	35.99	57.42	-34.9	-35.8	24.3	0.00e+00	119	33	0	1345323008	42	6071
2026-01-17 23:40:54.68	33.10	56.79	-35.8	-36.7	23.4	0.00e+00	122	32	0	1357905920	44	6045
2026-01-17 23:40:58.58	30.34	56.11	-34.7	-35.6	24.4	0.00e+00	122	33	0	1370488832	42	5954
2026-01-17 23:41:02.49	27.72	55.38	-36.5	-37.5	22.7	0.00e+00	122	32	0	1382023168	44	6579
2026-01-17 23:41:06.40	25.23	54.60	-35.4	-36.3	23.8	0.00e+00	120	33	0	1394606080	44	5766
2026-01-17 23:41:10.31	22.88	53.78	-37.6	-38.8	21.2	0.00e+00	121	32	0	1407188992	46	6853
2026-01-17 23:41:14.22	20.67	52.93	-34.9	-35.8	24.0	0.00e+00	121	32	0	1418723328	44	5429
2026-01-17 23:41:18.13	18.58	52.05	-36.7	-37.7	22.4	0.00e+00	121	33	0	1431306240	48	5402
2026-01-17 23:41:22.03	16.61	51.15	-35.2	-36.2	23.4	0.00e+00	122	33	0	1443889152	44	5672
2026-01-17 23:41:25.94	14.76	50.24	-37.5	-38.6	21.4	0.00e+00	123	32	0	1455423488	46	6704
2026-01-17 23:41:29.85	13.02	49.31	-36.2	-37.1	23.2	0.00e+00	121	33	0	1468006400	46	5658
2026-01-17 23:41:33.75	11.39	48.38	-38.1	-39.2	21.4	0.00e+00	124	33	0	1479540736	48	6418
2026-01-17 23:41:37.66	9.85	47.44	-36.7	-37.7	22.9	0.00e+00	120	33	0	1492123648	48	5374
2026-01-17 23:41:41.56	8.41	46.50	-38.4	-39.6	20.9	0.00e+00	121	32	0	1504706560	48	6688
2026-01-17 23:41:45.47	7.04	45.57	-37.8	-38.9	21.4	0.00e+00	120	32	0	1516240896	48	6165
2026-01-17 23:41:49.38	5.76	44.63	-35.9	-36.8	23.4	0.00e+00	125	33	0	1528823808	46	5466
2026-01-17 23:41:53.29	4.55	43.71	-38.3	-39.6	20.0	0.00e+00	123	32	0	1541406720	50	5941
2026-01-17 23:41:57.20	3.40	42.79	-37.6	-38.6	21.9	0.00e+00	122	33	0	1552941056	48	5972
2026-01-17 23:42:01.11	2.32	41.88	-38.1	-39.3	21.4	0.00e+00	119	32	0	1565523968	48	6427
2026-01-17 23:42:05.02	1.30	40.99	-37.8	-38.9	21.8	0.00e+00	123	32	0	1578106880	48	6142
2026-01-17 23:42:08.92	0.34	40.11	-35.7	-36.6	23.4	0.00e+00	121	33	0	1589641216	44	5969
2026-01-17 23:42:12.83	359.43	39.24	-36.6	-37.6	22.7	0.00e+00	121	33	0	1602224128	44	6679
2026-01-17 23:42:16.74	358.57	38.38	-37.5	-38.6	22.0	0.00e+00	123	32	0	1614807040	48	5930
2026-01-17 23:42:20.65	357.74	37.54	-36.1	-37.1	23.3	0.00e+00	121	33	0	1626341376	46	5602
2026-01-17 23:42:24.56	356.97	36.71	-35.0	-35.9	23.8	0.00e+00	120	33	0	1638924288	44	5497
2026-01-17 23:42:28.46	356.23	35.90	-35.2	-36.1	24.0	0.00e+00	122	33	0	1650458624	42	6308
2026-01-17 23:42:32.37	355.52	35.10	-36.3	-37.3	23.1	0.00e+00	122	32	0	1663041536	44	6463
2026-01-17 23:42:36.28	354.86	34.31	-35.8	-36.7	23.4	0.00e+00	122	33	0	1675624448	44	6049
2026-01-17 23:42:40.19	354.22	33.55	-34.8	-35.7	23.9	0.00e+00	123	33	0	1687158784	44	5398
2026-01-17 23:42:44.09	353.61	32.79	-35.4	-36.4	23.5	0.00e+00	123	33	0	1699741696	44	5803
2026-01-17 23:42:48.00	353.03	32.06	-35.1	-36.0	23.9	0.00e+00	121	33	0	1712324608	44	5544
2026-01-17 23:42:51.91	352.48	31.33	-35.1	-36.0	23.9	0.00e+00	122	33	0	1723858944	44	5593
2026-01-17 23:42:55.81	351.95	30.62	-34.7	-35.6	24.2	0.00e+00	122	32	0	1736441856	42	5968
2026-01-17 23:42:59.71	351.44	29.93	-34.9	-35.9	24.0	0.00e+00	125	32	0	1749024768	42	6158
2026-01-17 23:43:03.61	350.96	29.25	-35.3	-36.3	23.8	0.00e+00	123	33	0	1760559104	42	6430
2026-01-17 23:43:07.52	350.50	28.59	-35.6	-36.6	23.5	0.00e+00	123	33	0	1773142016	42	6666
2026-01-17 23:43:11.43	350.05	27.93	-35.4	-36.3	23.6	0.00e+00	123	33	0	1785724928	42	6482
2026-01-17 23:43:15.33	349.63	27.29	-35.0	-36.0	23.9	0.00e+00	123	33	0	1797259264	42	6222
2026-01-17 23:43:19.24	349.22	26.67	-33.7	-34.6	25.1	0.00e+00	122	33	0	1809842176	42	5293
2026-01-17 23:43:23.14	348.82	26.05	-33.6	-34.4	25.1	0.00e+00	123	33	0	1821376512	40	5852
2026-01-17 23:43:27.05	348.44	25.45	-33.8	-34.6	24.9	0.00e+00	121	33	0	1833959424	40	5977
2026-01-17 23:43:30.97	348.08	24.86	-34.1	-34.9	24.8	0.00e+00	122	33	0	1846542336	40	6192
2026-01-17 23:43:34.88	347.73	24.28	-34.2	-35.1	24.6	0.00e+00	123	33	0	1859125248	40	6282
2026-01-17 23:43:38.79	347.39	23.71	-34.6	-35.5	24.3	0.00e+00	121	33	0	1870659584	40	6589
2026-01-17 23:43:42.70	347.07	23.16	-34.7	-35.6	24.2	0.00e+00	121	33	0	1883242496	40	6676
2026-01-17 23:43:46.60	346.76	22.61	-34.7	-35.6	24.1	0.00e+00	124	32	0	1894776832	42	5949
2026-01-17 23:43:50.52	346.45	22.08	-34.9	-35.8	24.1	0.00e+00	122	33	0	1907359744	42	6121
2026-01-17 23:43:54.43	346.16	21.55	-34.8	-35.7	24.2	0.00e+00	123	33	0	1919942656	42	6032
2026-01-17 23:43:58.34	345.88	21.04	-34.7	-35.6	24.2	0.00e+00	121	33	0	1931476992	42	5983
2026-01-17 23:44:02.24	345.61	20.53	-34.5	-35.4	24.3	0.00e+00	122	33	0	1944059904	42	5848
2026-01-17 23:44:06.15	345.35	20.04	-34.5	-35.4	24.3	0.00e+00	120	33	0	1956642816	42	5823
2026-01-17 23:44:10.06	345.10	19.55	-34.4	-35.3	24.4	0.00e+00	121	33	0	1968177152	42	5786
2026-01-17 23:44:13.96	344.85	19.07	-34.7	-35.7	24.2	0.00e+00	123	33	0	1980760064	42	6000
2026-01-17 23:44:17.86	344.62	18.61	-35.1	-36.0	23.9	0.00e+00	127	33	0	1993342976	42	6243
2026-01-17 23:44:21.77	344.39	18.14	-35.0	-35.9	24.0	0.00e+00	119	33	0	2004877312	42	6176
2026-01-17 23:44:25.67	344.16	17.69	-35.2	-36.1	23.8	0.00e+00	123	32	0	2017460224	42	6320
2026-01-17 23:44:29.58	343.95	17.25	-35.2	-36.1	23.7	0.00e+00	119	32	0	2030043136	42	6312
2026-01-17 23:44:33.49	343.74	16.81	-35.4	-36.3	23.5	0.00e+00	124	32	0	2041577472	42	6494
2026-01-17 23:44:37.40	343.54	16.38	-35.8	-36.8	23.1	0.00e+00	121	32	0	2054160384	44	6088
2026-01-17 23:44:41.31	343.34	15.95	-35.6	-36.6	23.2	0.00e+00	123	33	0	2065694720	44	5930
2026-01-17 23:44:45.21	343.15	15.54	-35.7	-36.7	23.1	0.00e+00	123	33	0	2078277632	44	6031
2026-01-17 23:44:49.13	342.97	15.13	-35.6	-36.6	23.1	0.00e+00	123	33	0	2090860544	44	5959
2026-01-17 23:44:53.04	342.79	14.72	-35.8	-36.8	22.9	0.00e+00	122	33	0	2102394880	44	6070
2026-01-17 23:44:56.95	342.61	14.33	-35.7	-36.7	23.1	0.00e+00	120	33	0	2114977792	44	6003
2026-01-17 23:45:00.87	342.44	13.93	-35.7	-36.7	23.1	0.00e+00	122	33	0	2127560704	44	6001
2026-01-17 23:45:04.76	342.28	13.55	-35.5	-36.5	23.1	0.00e+00	124	32	0	2139095040	44	5897
2026-01-17 23:45:08.67	342.12	13.17	-35.5	-36.4	23.3	0.00e+00	123	33	0	2151677952	44	5856
2026-01-17 23:45:12.58	341.96	12.80	-35.5	-36.5	23.3	0.00e+00	123	32	0	2164260864	44	5870
2026-01-17 23:45:16.50	341.81	12.43	-35.8	-36.7	23.0	0.00e+00	120	33	0	2175795200	44	6054
2026-01-17 23:45:20.41	341.67	12.06	-35.8	-36.8	23.0	0.00e+00	122	33	0	2188378112	44	6095
2026-01-17 23:45:24.33	341.52	11.70	-35.8	-36.8	23.1	0.00e+00	122	33	0	2200961024	44	6082
2026-01-17 23:45:28.23	341.38	11.35	-36.1	-37.0	22.7	0.00e+00	122	33	0	2212495360	44	6277
2026-01-17 23:45:32.14	341.25	11.00	-35.9	-36.9	22.9	0.00e+00	120	32	0	2225078272	44	6151
2026-01-17 23:45:36.05	341.12	10.66	-36.0	-37.0	22.8	0.00e+00	122	33	0	2237661184	44	6256
2026-01-17 23:45:39.96	340.99	10.32	-36.2	-37.3	22.4	0.00e+00	122	33	0	2249195520	44	6428
2026-01-17 23:45:43.86	340.86	9.99	-36.1	-37.1	22.6	0.00e+00	123	33	0	2261778432	44	6282
2026-01-17 23:45:47.77	340.74	9.66	-36.2	-37.2	22.5	0.00e+00	122	33	0	2274361344	44	6373
2026-01-17 23:45:51.68	340.62	9.33	-36.4	-37.4	22.3	0.00e+00	123	33	0	2285895680	44	6541
2026-01-17 23:45:55.59	340.50	9.01	-36.7	-37.8	22.0	0.00e+00	122	33	0	2298478592	44	6842
2026-01-17 23:45:59.49	340.39	8.69	-36.6	-37.6	22.1	0.00e+00	122	32	0	2310012928	46	5977
2026-01-17 23:46:03.39	340.28	8.38	-36.8	-37.8	21.9	0.00e+00	121	33	0	2322595840	46	6116
2026-01-17 23:46:07.30	340.17	8.07	-37.0	-38.0	21.7	0.00e+00	123	32	0	2335178752	46	6246
2026-01-17 23:46:11.21	340.07	7.76	-37.1	-38.2	21.6	0.00e+00	123	33	0	2346713088	46	6353
2026-01-17 23:46:15.12	339.96	7.46	-36.9	-37.9	21.6	0.00e+00	123	33	0	2359296000	46	6194
2026-01-17 23:46:19.02	339.86	7.16	-37.1	-38.2	21.4	0.00e+00	124	33	0	2371878912	46	6402
2026-01-17 23:46:22.93	339.77	6.86	-37.1	-38.3	21.2	0.00e+00	123	32	0	2383413248	46	6431
2026-01-17 23:46:26.84	339.67	6.57	-37.5	-38.6	20.9	0.00e+00	123	33	0	2395996160	46	6699
2026-01-17 23:46:30.74	339.58	6.28	-37.1	-38.2	21.2	0.00e+00	123	33	0	2408579072	46	6400
2026-01-17 23:46:34.65	339.49	5.99	-37.2	-38.3	21.1	0.00e+00	122	33	0	2420113408	46	6433
2026-01-17 23:46:38.56	339.40	5.71	-37.9	-39.1	20.3	0.00e+00	123	33	0	2432696320	48	6294
2026-01-17 23:46:42.47	339.31	5.43	-38.8	-40.1	19.0	0.00e+00	123	33	0	2445279232	48	7108
2026-01-17 23:46:46.38	339.22	5.15	-40.0	-41.6	17.6	0.00e+00	122	32	0	2456813568	52	6684
2026-01-17 23:46:50.28	339.14	4.87	-41.3	-43.5	14.8	0.00e+00	121	33	0	2469396480	54	7444
2026-01-17 23:46:54.20	339.06	4.60	-42.5	-45.7	11.8	3.13e-04	121	33	0	2480930816	56	8514
2026-01-17 23:46:58.11	338.98	4.33	-43.4	-48.2	8.2	3.88e-02	122	33	0	2493513728	58	10095
2026-01-17 23:47:02.01	338.90	4.06	-44.1	-52.1	3.8	6.28e-01	122	33	104	2501902336	60	14085
2026-01-17 23:47:05.91	338.83	3.80	-44.2	-55.2	3.8	1.51e+00	0	33	104	2501902336	60	20135
2026-01-17 23:47:09.82	338.75	3.54	-44.3	-57.0	3.5	1.52e+00	0	33	104	2501902336	60	24912
2026-01-17 23:47:13.73	338.68	3.28	-44.2	-56.8	3.5	1.52e+00	0	33	104	2501902336	60	24278
2026-01-17 23:47:17.63	338.61	3.02	-44.2	-57.0	3.5	1.52e+00	0	33	104	2501902336	60	24937
2026-01-17 23:47:21.54	338.54	2.77	-48.8	-61.6	3.5	1.52e+00	0	33	104	2501902336	60	42419
2026-01-17 23:47:25.45	338.47	2.51	-49.1	-61.9	3.5	1.52e+00	0	33	104	2501902336	60	43830
2026-01-17 23:47:29.35	338.40	2.26	-48.9	-61.8	3.5	1.52e+00	0	33	104	2501902336	60	42937
2026-01-17 23:47:33.26	338.34	2.01	-48.9	-61.8	3.5	1.51e+00	0	33	104	2501902336	60	43203
2026-01-17 23:47:37.17	338.27	1.77	-49.0	-61.8	3.5	1.52e+00	0	33	104	2501902336	60	43249
2026-01-17 23:47:41.09	338.21	1.52	-49.0	-61.9	3.5	1.51e+00	0	33	104	2501902336	60	43457
2026-01-17 23:47:45.00	338.15	1.28	-49.0	-61.9	3.5	1.51e+00	0	33	104	2501902336	60	43624
2026-01-17 23:47:48.92	338.09	1.04	-49.0	-61.8	3.5	1.52e+00	0	33	104	2501902336	60	43034
2026-01-17 23:47:52.83	338.03	0.80	-49.0	-61.9	3.5	1.52e+00	0	33	104	2501902336	60	43657
2026-01-17 23:47:56.74	337.97	0.56	-49.0	-61.8	3.5	1.52e+00	0	33	104	2501902336	60	43103
2026-01-17 23:48:00.65	337.92	0.33	-49.1	-61.9	3.5	1.52e+00	0	33	104	2501902336	60	43760
2026-01-17 23:48:04.56	337.86	0.10	-49.1	-61.9	3.5	1.52e+00	0	33	104	2501902336	60	43730

#Closed at: 2026-01-17 23:48:08
#Recorded file [2501 MB]: D:/lorett/data/35029_260118_113246.dat