passes_logs/2026/01/17/R4.6S_Anadyr/R4.6S_Anadyr__20260117_014620_AQUA_rec.log

#Pass ID: 20260117_014620_AQUA
#Satellite: AQUA
#Configuration: AQUA
#almurnet v.1.7.20251203
#Start time: 2026-01-17 01:46:22

#Version: 2.2.20231116
#Station: R4.6S_Anadyr
#Location: 177.4865 lon 64.73178 lat
#TLE: 1 27424U 02022A   26016.59833233  .00000670  00000+0  14410-3 0  9991
#TLE: 2 27424  98.4084 343.0525 0002018  76.3524 343.9424 14.61823666261128

#Time	Az	El	Level	Level2	SNR	BER	BlckErr	Temp	State	Recorded	gain1	gain2
2026-01-17 01:46:22.88	151.68	0.13	-48.3	-60.0	3.5	8.46e-01	0	26	0	0	60	36107
2026-01-17 01:46:26.91	151.67	0.38	-48.7	-66.6	3.5	3.02e+01	0	28	104	0	60	81989
2026-01-17 01:46:30.95	151.65	0.64	-48.6	-66.5	3.5	3.02e+01	0	28	104	0	60	81035
2026-01-17 01:46:34.99	151.63	0.89	-48.0	-65.9	3.5	3.02e+01	0	28	104	0	60	76033
2026-01-17 01:46:39.03	151.62	1.15	-47.0	-64.9	3.5	3.02e+01	0	28	104	0	60	67460
2026-01-17 01:46:43.07	151.60	1.41	-47.0	-65.0	3.5	3.02e+01	0	28	104	0	60	68190
2026-01-17 01:46:47.11	151.58	1.68	-47.0	-64.9	3.5	3.02e+01	0	28	104	0	60	67494
2026-01-17 01:46:51.15	151.56	1.95	-47.0	-64.4	3.5	3.02e+01	0	28	104	0	60	64065
2026-01-17 01:46:55.19	151.54	2.22	-46.9	-64.4	3.5	3.02e+01	0	28	104	0	60	64156
2026-01-17 01:46:59.23	151.52	2.49	-47.0	-64.6	3.5	3.02e+01	0	28	104	0	60	65571
2026-01-17 01:47:03.26	151.50	2.76	-46.9	-63.6	3.5	3.02e+01	0	28	104	0	60	57992
2026-01-17 01:47:07.30	151.48	3.04	-46.9	-62.1	3.9	3.02e+01	0	29	104	0	60	49229
2026-01-17 01:47:11.34	151.45	3.32	-46.4	-55.6	8.4	3.02e+01	92	29	0	524288	60	23191
2026-01-17 01:47:15.38	151.43	3.61	-41.5	-43.9	20.5	3.02e+01	92	29	0	8388608	58	6760
2026-01-17 01:47:19.41	151.41	3.90	-38.6	-40.3	24.1	3.02e+01	92	29	0	15728640	52	6318
2026-01-17 01:47:23.45	151.38	4.19	-38.8	-40.4	24.6	3.02e+01	90	29	0	23592960	56	5086
2026-01-17 01:47:27.49	151.36	4.48	-39.0	-40.8	23.9	3.02e+01	92	29	0	26214400	52	6650
2026-01-17 01:47:31.52	151.33	4.78	-36.8	-38.3	26.2	3.02e+01	92	29	0	34078720	48	6284
2026-01-17 01:47:35.56	151.30	5.09	-36.4	-37.8	26.6	3.02e+01	92	29	0	41418752	48	5947
2026-01-17 01:47:39.60	151.27	5.39	-36.4	-37.8	26.7	3.02e+01	91	29	0	48758784	48	5983
2026-01-17 01:47:43.63	151.24	5.70	-36.0	-37.3	27.2	3.02e+01	90	29	0	56623104	48	5628
2026-01-17 01:47:47.67	151.21	6.02	-36.1	-37.5	27.1	3.02e+01	91	29	0	63963136	46	6446
2026-01-17 01:47:51.71	151.18	6.34	-35.9	-37.3	27.3	3.02e+01	90	29	0	71827456	46	6278
2026-01-17 01:47:55.74	151.15	6.66	-35.6	-37.0	27.7	3.02e+01	90	29	0	79167488	46	6069
2026-01-17 01:47:59.79	151.12	6.99	-35.6	-36.9	27.7	3.02e+01	92	29	0	87031808	46	6032
2026-01-17 01:48:03.82	151.08	7.32	-35.9	-37.2	27.5	3.02e+01	90	29	0	94371840	46	6267
2026-01-17 01:48:07.86	151.05	7.66	-35.8	-37.1	27.6	3.02e+01	92	29	0	102236160	46	6150
2026-01-17 01:48:11.90	151.01	8.00	-35.6	-36.9	27.8	3.02e+01	90	29	0	109576192	46	6010
2026-01-17 01:48:15.94	150.97	8.35	-35.3	-36.6	28.0	3.02e+01	90	29	0	116916224	46	5842
2026-01-17 01:48:19.97	150.93	8.70	-35.3	-36.5	28.1	3.02e+01	91	29	0	124780544	46	5787
2026-01-17 01:48:24.00	150.89	9.06	-35.3	-36.5	28.2	3.02e+01	92	29	0	132120576	46	5784
2026-01-17 01:48:28.04	150.85	9.43	-35.1	-36.3	28.4	3.02e+01	90	29	0	139984896	46	5633
2026-01-17 01:48:32.08	150.80	9.80	-34.9	-36.2	28.6	3.02e+01	91	29	0	147324928	44	6223
2026-01-17 01:48:36.11	150.75	10.17	-35.0	-36.2	28.5	3.02e+01	87	29	0	155189248	44	6264
2026-01-17 01:48:40.15	150.71	10.56	-34.7	-35.9	28.7	3.02e+01	92	29	0	162529280	44	6058
2026-01-17 01:48:44.18	150.66	10.95	-34.6	-35.8	28.8	3.02e+01	92	29	0	169869312	44	5984
2026-01-17 01:48:48.22	150.61	11.35	-34.6	-35.8	28.9	3.02e+01	92	29	0	177733632	44	5979
2026-01-17 01:48:52.26	150.55	11.75	-34.2	-35.4	29.2	3.02e+01	92	29	0	185073664	44	5703
2026-01-17 01:48:56.29	150.50	12.16	-34.2	-35.4	29.3	3.02e+01	92	29	0	192937984	44	5704
2026-01-17 01:49:00.33	150.44	12.58	-34.1	-35.3	29.4	3.02e+01	92	29	0	200278016	44	5655
2026-01-17 01:49:04.36	150.38	13.01	-34.2	-35.4	29.4	3.02e+01	90	29	0	208142336	44	5689
2026-01-17 01:49:08.40	150.32	13.45	-34.2	-35.4	29.3	3.02e+01	91	30	0	215482368	44	5710
2026-01-17 01:49:12.44	150.26	13.89	-34.5	-44.6	3.6	3.02e+01	0	30	104	217055232	44	16509
2026-01-17 01:49:16.47	150.19	14.35	-36.6	-46.9	3.6	3.02e+01	0	30	104	217055232	54	12088
2026-01-17 01:49:20.51	150.12	14.81	-34.6	-44.7	3.6	3.02e+01	0	30	104	217055232	44	16658
2026-01-17 01:49:24.54	150.05	15.29	-42.7	-54.0	3.5	3.02e+01	0	30	104	217055232	60	19324
2026-01-17 01:49:28.58	149.97	15.77	-37.5	-47.8	4.1	3.02e+01	0	30	104	217055232	50	16796
2026-01-17 01:49:32.62	149.89	16.27	-34.6	-44.8	3.5	3.02e+01	0	30	104	217055232	46	15033
2026-01-17 01:49:36.65	149.81	16.78	-37.1	-47.5	3.5	3.02e+01	0	30	104	217055232	50	16284
2026-01-17 01:49:40.69	149.73	17.29	-38.4	-48.9	3.5	3.02e+01	0	30	104	217055232	52	16977
2026-01-17 01:49:44.73	149.64	17.83	-36.8	-47.2	3.5	3.02e+01	0	30	104	217055232	52	13897
2026-01-17 01:49:48.77	149.55	18.37	-40.1	-50.7	3.8	3.02e+01	0	30	104	217055232	50	23581
2026-01-17 01:49:52.80	149.45	18.93	-41.5	-52.4	3.5	3.02e+01	0	30	104	217055232	52	25474
2026-01-17 01:49:56.84	149.35	19.50	-37.1	-47.6	3.5	3.02e+01	0	30	104	217055232	50	16325
2026-01-17 01:50:00.88	149.24	20.09	-41.7	-52.7	3.5	3.02e+01	0	30	104	217055232	58	18615
2026-01-17 01:50:04.91	149.13	20.69	-38.0	-48.4	3.5	3.02e+01	0	30	104	217055232	50	18082
2026-01-17 01:50:08.94	149.02	21.30	-39.2	-49.7	3.5	3.02e+01	0	30	104	217055232	50	20898
2026-01-17 01:50:12.97	148.89	21.94	-35.8	-46.1	3.5	3.02e+01	0	30	104	217055232	46	17333
2026-01-17 01:50:17.01	148.77	22.59	-39.9	-50.5	3.5	3.02e+01	0	30	104	217055232	52	20488
2026-01-17 01:50:21.04	148.63	23.26	-39.0	-49.5	3.5	3.02e+01	0	30	104	217055232	54	16284
2026-01-17 01:50:25.07	148.49	23.95	-39.1	-49.6	3.5	3.02e+01	0	30	104	217055232	50	20709
2026-01-17 01:50:29.10	148.34	24.65	-47.3	-61.8	3.5	3.02e+01	0	30	104	217055232	60	47122
2026-01-17 01:50:33.14	148.19	25.38	-37.9	-48.3	3.5	3.02e+01	0	30	104	217055232	50	17819
2026-01-17 01:50:37.18	148.02	26.14	-39.6	-50.1	3.5	3.02e+01	0	30	104	217055232	54	17417
2026-01-17 01:50:41.22	147.85	26.91	-34.7	-44.9	3.5	3.02e+01	0	30	104	217055232	44	16916
2026-01-17 01:50:45.26	147.67	27.72	-47.8	-63.7	3.6	3.02e+01	0	30	104	217055232	60	58622
2026-01-17 01:50:49.29	147.47	28.54	-36.7	-47.1	3.5	3.02e+01	0	30	104	217055232	48	17316
2026-01-17 01:50:53.33	147.27	29.39	-41.6	-52.7	3.5	3.02e+01	0	30	104	217055232	60	16606
2026-01-17 01:50:57.37	147.05	30.27	-37.8	-48.2	3.5	3.02e+01	0	30	104	217055232	50	17681
2026-01-17 01:51:01.41	146.82	31.18	-34.8	-45.0	3.5	3.02e+01	0	30	104	217055232	44	17216
2026-01-17 01:51:05.45	146.57	32.13	-39.2	-49.7	3.5	3.02e+01	0	30	104	217055232	56	14812
2026-01-17 01:51:09.49	146.31	33.10	-35.6	-45.8	3.5	3.02e+01	0	30	104	217055232	44	18896
2026-01-17 01:51:13.53	146.03	34.11	-37.3	-47.6	3.5	3.02e+01	0	30	104	217055232	52	14686
2026-01-17 01:51:17.57	145.73	35.15	-37.9	-48.3	3.5	3.02e+01	0	30	104	217055232	50	17758
2026-01-17 01:51:21.60	145.40	36.22	-41.8	-52.7	3.4	3.02e+01	0	30	104	217055232	60	16612
2026-01-17 01:51:25.64	145.06	37.34	-38.3	-48.7	3.5	3.02e+01	0	30	104	217055232	52	16659
2026-01-17 01:51:29.68	144.69	38.50	-39.8	-50.3	3.5	3.02e+01	0	30	104	217055232	48	25148
2026-01-17 01:51:33.71	144.28	39.69	-39.1	-49.7	3.5	3.02e+01	0	30	104	217055232	54	16525
2026-01-17 01:51:37.75	143.85	40.93	-48.3	-65.8	3.5	3.02e+01	0	30	104	217055232	60	74697
2026-01-17 01:51:41.79	143.38	42.22	-42.0	-53.0	3.5	3.02e+01	0	30	104	217055232	60	17099
2026-01-17 01:51:45.83	142.86	43.55	-35.5	-45.8	3.5	3.02e+01	0	30	104	217055232	46	16787
2026-01-17 01:51:49.87	142.30	44.93	-44.6	-56.4	3.5	3.02e+01	0	31	104	217055232	56	32053
2026-01-17 01:51:53.90	141.69	46.36	-37.1	-47.3	3.5	3.02e+01	0	30	104	217055232	50	15861
2026-01-17 01:51:57.94	141.01	47.83	-46.4	-59.4	3.5	3.02e+01	0	30	104	217055232	60	35985
2026-01-17 01:52:01.97	140.27	49.36	-36.1	-46.5	3.5	3.02e+01	0	30	104	217055232	48	16154
2026-01-17 01:52:06.00	139.44	50.93	-48.1	-65.2	3.5	3.02e+01	0	30	104	217055232	60	69866
2026-01-17 01:52:10.03	138.52	52.55	-36.5	-46.9	3.5	3.02e+01	0	30	104	217055232	48	16986
2026-01-17 01:52:14.06	137.49	54.22	-48.4	-66.1	3.5	3.02e+01	0	30	104	217055232	60	77493
2026-01-17 01:52:18.10	136.32	55.95	-39.3	-49.8	3.5	3.02e+01	0	30	104	217055232	54	16856
2026-01-17 01:52:22.13	134.99	57.71	-37.4	-47.8	3.5	3.02e+01	0	30	104	217055232	48	18799
2026-01-17 01:52:26.17	133.47	59.51	-47.2	-61.4	3.5	3.02e+01	0	30	104	217055232	60	45376
2026-01-17 01:52:30.21	131.72	61.36	-36.6	-46.9	3.5	3.02e+01	0	30	104	217055232	48	16992
2026-01-17 01:52:34.25	129.69	63.22	-47.9	-64.4	3.6	3.02e+01	0	30	104	217055232	60	63572
2026-01-17 01:52:38.29	127.30	65.11	-39.8	-50.4	3.5	3.02e+01	0	30	104	217055232	54	17980
2026-01-17 01:52:42.33	124.46	66.99	-48.0	-64.4	3.5	3.02e+01	0	30	104	217055232	60	63527
2026-01-17 01:52:46.36	121.08	68.85	-40.7	-51.7	3.5	3.02e+01	0	30	104	217055232	56	18592
2026-01-17 01:52:50.40	116.98	70.67	-42.6	-53.9	3.5	3.02e+01	0	30	104	217055232	60	19154
2026-01-17 01:52:54.44	111.99	72.41	-41.6	-52.2	3.5	3.02e+01	0	30	104	217055232	58	17661
2026-01-17 01:52:58.47	105.89	74.02	-40.3	-50.9	3.7	3.02e+01	0	30	104	217055232	58	15092
2026-01-17 01:53:02.50	98.46	75.43	-46.0	-58.6	3.6	3.02e+01	0	30	104	217055232	60	32787
2026-01-17 01:53:06.54	89.52	76.57	-42.6	-53.7	3.5	3.02e+01	0	30	104	217055232	58	20805
2026-01-17 01:53:10.57	79.19	77.35	-40.2	-50.8	3.5	3.02e+01	0	30	104	217055232	60	13279
2026-01-17 01:53:14.61	67.87	77.68	-39.7	-50.3	3.6	3.02e+01	0	30	104	217055232	54	17896
2026-01-17 01:53:18.65	56.37	77.53	-47.5	-62.2	3.5	3.02e+01	0	30	104	217055232	60	49363
2026-01-17 01:53:22.69	45.59	76.91	-37.6	-48.2	3.5	3.02e+01	0	30	104	217055232	50	17503
2026-01-17 01:53:26.72	36.13	75.90	-43.9	-55.1	3.5	3.02e+01	0	30	104	217055232	54	30899
2026-01-17 01:53:30.76	28.14	74.57	-41.8	-52.7	3.5	3.02e+01	0	30	104	217055232	58	18591
2026-01-17 01:53:34.80	21.56	73.03	-41.0	-51.1	3.5	3.02e+01	0	30	104	217055232	54	19578
2026-01-17 01:53:38.83	16.20	71.34	-43.0	-54.3	3.5	3.02e+01	0	30	104	217055232	60	19899
2026-01-17 01:53:42.87	11.80	69.54	-46.9	-60.9	3.5	3.02e+01	0	30	104	217055232	60	42558
2026-01-17 01:53:46.91	8.17	67.69	-42.7	-54.2	3.5	3.02e+01	0	30	104	217055232	56	24911
2026-01-17 01:53:50.95	5.15	65.82	-39.2	-49.8	3.5	3.02e+01	0	30	104	217055232	54	16758
2026-01-17 01:53:54.98	2.61	63.94	-48.0	-64.5	3.5	3.02e+01	0	30	104	217055232	60	64684
2026-01-17 01:53:59.02	0.46	62.07	-43.3	-54.7	3.5	3.02e+01	0	30	104	217055232	60	20793
2026-01-17 01:54:03.06	358.61	60.22	-47.7	-63.2	3.5	3.02e+01	0	30	104	217055232	60	55488
2026-01-17 01:54:07.10	357.01	58.40	-37.9	-48.0	3.5	3.02e+01	0	30	104	217055232	52	15312
2026-01-17 01:54:11.14	355.62	56.63	-40.4	-51.1	3.5	3.02e+01	0	30	104	217055232	52	21796
2026-01-17 01:54:15.17	354.40	54.90	-35.2	-45.7	3.5	3.02e+01	0	30	104	217055232	46	16701
2026-01-17 01:54:19.21	353.32	53.21	-35.6	-45.8	3.5	3.02e+01	0	30	104	217055232	46	16729
2026-01-17 01:54:23.25	352.35	51.57	-46.0	-58.8	3.5	3.02e+01	0	30	104	217055232	60	33635
2026-01-17 01:54:27.29	351.49	49.98	-37.2	-47.6	3.5	3.02e+01	0	30	104	217055232	50	16437
2026-01-17 01:54:31.32	350.72	48.44	-47.2	-62.1	3.5	3.02e+01	0	30	104	217055232	60	48877
2026-01-17 01:54:35.36	350.02	46.95	-36.9	-47.5	3.5	3.02e+01	0	30	104	217055232	50	16140
2026-01-17 01:54:39.40	349.38	45.51	-47.9	-64.3	3.5	3.02e+01	0	29	104	217055232	60	63498
2026-01-17 01:54:43.44	348.81	44.12	-35.2	-45.5	3.5	3.02e+01	0	30	104	217055232	46	16166
2026-01-17 01:54:47.47	348.28	42.78	-36.0	-46.4	3.5	3.02e+01	0	29	104	217055232	50	14311
2026-01-17 01:54:51.51	347.79	41.48	-38.5	-48.9	3.5	3.02e+01	0	29	104	217055232	52	17091
2026-01-17 01:54:55.54	347.35	40.23	-40.0	-50.5	3.5	3.02e+01	0	29	104	217055232	52	20411
2026-01-17 01:54:59.58	346.93	39.02	-42.0	-53.1	3.5	3.02e+01	0	29	104	217055232	60	17462
2026-01-17 01:55:03.62	346.55	37.85	-37.0	-47.4	3.5	3.02e+01	0	29	104	217055232	50	15954
2026-01-17 01:55:07.66	346.20	36.72	-38.1	-48.6	3.5	3.02e+01	0	29	104	217055232	50	18349
2026-01-17 01:55:11.69	345.87	35.63	-35.2	-45.4	3.5	3.02e+01	0	29	104	217055232	46	16043
2026-01-17 01:55:15.73	345.56	34.58	-46.0	-58.8	3.5	3.02e+01	0	29	104	217055232	60	33499
2026-01-17 01:55:19.76	345.28	33.57	-35.7	-45.9	3.5	3.02e+01	0	29	104	217055232	46	17084
2026-01-17 01:55:23.80	345.01	32.59	-44.0	-55.9	3.6	3.02e+01	0	29	104	217055232	56	30185
2026-01-17 01:55:27.84	344.76	31.64	-37.7	-48.2	3.5	3.02e+01	0	29	104	217055232	50	17643
2026-01-17 01:55:31.88	344.52	30.72	-37.1	-47.2	3.5	3.02e+01	0	29	104	217055232	46	19767
2026-01-17 01:55:35.91	344.30	29.83	-35.9	-46.0	3.5	3.02e+01	0	29	104	217055232	48	15304
2026-01-17 01:55:39.95	344.09	28.97	-38.0	-48.5	3.5	3.02e+01	0	29	104	217055232	50	18159
2026-01-17 01:55:43.98	343.90	28.14	-41.2	-52.3	3.4	3.02e+01	0	29	104	217055232	52	25217
2026-01-17 01:55:48.01	343.71	27.33	-35.7	-37.3	5.3	3.02e+01	0	29	104	217055232	46	6299
2026-01-17 01:55:52.05	343.53	26.55	-47.9	-58.2	7.0	3.02e+01	90	29	0	222822400	60	31237
2026-01-17 01:55:56.08	343.37	25.79	-36.1	-37.4	27.8	3.02e+01	50	29	0	230162432	48	5715
2026-01-17 01:56:00.12	343.21	25.05	-34.8	-36.0	29.0	3.02e+01	62	29	0	237502464	44	6098
2026-01-17 01:56:04.15	343.06	24.34	-34.3	-35.5	29.4	3.02e+01	47	29	0	245366784	44	5788
2026-01-17 01:56:08.19	342.92	23.64	-34.6	-35.8	29.3	3.02e+01	60	29	0	252706816	44	5949
2026-01-17 01:56:12.23	342.78	22.97	-34.6	-35.8	29.2	3.02e+01	59	29	0	260571136	44	5973
2026-01-17 01:56:16.26	342.66	22.31	-34.7	-36.0	29.1	3.02e+01	58	29	0	267911168	44	6069
2026-01-17 01:56:20.30	342.53	21.67	-34.5	-35.8	29.1	3.02e+01	63	29	0	275775488	44	5930
2026-01-17 01:56:24.34	342.42	21.05	-34.5	-35.8	29.2	3.02e+01	53	29	0	283115520	44	5934
2026-01-17 01:56:28.37	342.31	20.44	-34.2	-35.4	29.4	3.02e+01	61	29	0	290455552	44	5719
2026-01-17 01:56:32.41	342.20	19.85	-34.1	-35.2	29.5	3.02e+01	57	29	0	298319872	44	5588
2026-01-17 01:56:36.44	342.10	19.28	-34.2	-35.4	29.6	3.02e+01	60	29	0	305659904	44	5670
2026-01-17 01:56:40.48	342.00	18.72	-34.2	-35.4	29.4	3.02e+01	59	29	0	313524224	44	5723
2026-01-17 01:56:44.51	341.91	18.17	-34.4	-35.7	29.3	3.02e+01	60	29	0	320864256	44	5859
2026-01-17 01:56:48.55	341.82	17.63	-34.5	-35.8	29.1	3.02e+01	58	29	0	328728576	44	5927
2026-01-17 01:56:52.58	341.74	17.11	-34.5	-35.8	29.1	3.02e+01	59	29	0	336068608	44	5954
2026-01-17 01:56:56.61	341.66	16.60	-34.5	-35.8	29.1	3.02e+01	58	29	0	343408640	44	5930
2026-01-17 01:57:00.64	341.58	16.10	-34.6	-35.8	29.0	3.02e+01	58	29	0	351272960	44	5959
2026-01-17 01:57:04.68	341.51	15.62	-34.4	-35.6	29.1	3.02e+01	58	29	0	358612992	44	5849
2026-01-17 01:57:08.72	341.44	15.14	-34.4	-35.6	29.1	3.02e+01	58	29	0	366477312	44	5837
2026-01-17 01:57:12.76	341.37	14.67	-34.2	-35.4	29.3	3.02e+01	59	29	0	373817344	44	5671
2026-01-17 01:57:16.79	341.30	14.21	-34.2	-35.4	29.3	3.02e+01	62	29	0	381681664	44	5672
2026-01-17 01:57:20.83	341.24	13.77	-34.2	-35.4	29.3	3.02e+01	54	29	0	389021696	44	5677
2026-01-17 01:57:24.86	341.18	13.33	-34.2	-35.4	29.3	3.02e+01	52	29	0	396361728	42	6377
2026-01-17 01:57:28.90	341.12	12.90	-34.3	-35.5	29.2	3.02e+01	45	29	0	404226048	42	6436
2026-01-17 01:57:32.94	341.07	12.47	-34.6	-35.8	29.1	3.02e+01	58	29	0	411566080	42	6677
2026-01-17 01:57:36.97	341.01	12.06	-34.4	-35.6	29.1	3.02e+01	50	29	0	419430400	42	6551
2026-01-17 01:57:41.01	340.96	11.65	-34.7	-35.9	28.8	3.02e+01	58	29	0	426770432	42	6769
2026-01-17 01:57:45.05	340.91	11.25	-34.5	-35.8	28.9	3.02e+01	46	29	0	434634752	42	6664
2026-01-17 01:57:49.09	340.86	10.86	-34.6	-35.8	28.9	3.02e+01	60	28	0	441974784	42	6700
2026-01-17 01:57:53.12	340.82	10.48	-34.6	-35.8	28.7	3.02e+01	44	28	0	449314816	42	6708
2026-01-17 01:57:57.16	340.78	10.10	-34.8	-36.0	28.7	3.02e+01	58	28	0	457179136	42	6836
2026-01-17 01:58:01.19	340.73	9.72	-34.8	-36.0	28.6	3.02e+01	58	28	0	464519168	42	6868
2026-01-17 01:58:05.23	340.69	9.36	-34.9	-36.2	28.4	3.02e+01	57	28	0	472383488	44	6216
2026-01-17 01:58:09.27	340.65	9.00	-35.0	-36.2	28.4	3.02e+01	45	29	0	479723520	44	6252
2026-01-17 01:58:13.31	340.62	8.64	-35.2	-36.4	28.2	3.02e+01	60	28	0	487587840	44	6420
2026-01-17 01:58:17.35	340.58	8.29	-35.2	-36.5	28.1	3.02e+01	47	28	0	494927872	44	6440
2026-01-17 01:58:21.38	340.54	7.95	-35.4	-36.7	27.8	3.02e+01	56	28	0	502267904	44	6606
2026-01-17 01:58:25.42	340.51	7.61	-35.3	-36.6	27.8	3.02e+01	36	29	0	510132224	44	6559
2026-01-17 01:58:29.46	340.48	7.27	-35.5	-36.9	27.7	3.02e+01	59	29	0	517472256	44	6731
2026-01-17 01:58:33.49	340.45	6.95	-35.7	-37.0	27.5	3.02e+01	57	28	0	525336576	44	6837
2026-01-17 01:58:37.53	340.42	6.62	-35.8	-37.1	27.3	3.02e+01	57	28	0	532676608	44	6936
2026-01-17 01:58:41.57	340.39	6.30	-35.9	-37.3	27.0	3.02e+01	55	28	0	540540928	44	7082
2026-01-17 01:58:45.61	340.36	5.98	-35.9	-37.3	26.9	3.02e+01	58	28	0	547880960	46	6313
2026-01-17 01:58:49.64	340.33	5.67	-37.0	-38.5	25.6	3.02e+01	60	28	0	555745280	48	6472
2026-01-17 01:58:53.68	340.31	5.37	-38.3	-40.1	23.5	3.02e+01	57	28	0	563085312	50	6928
2026-01-17 01:58:57.71	340.28	5.06	-39.9	-42.2	20.9	3.02e+01	59	28	0	570425344	52	7895
2026-01-17 01:59:01.76	340.26	4.76	-41.8	-45.6	16.5	3.02e+01	60	29	0	578289664	56	9223
2026-01-17 01:59:05.79	340.24	4.47	-43.2	-49.7	11.7	3.02e+01	59	28	0	585629696	60	11818
2026-01-17 01:59:09.83	340.22	4.17	-43.7	-53.6	6.7	3.02e+01	92	28	0	593494016	60	18457
2026-01-17 01:59:13.86	340.19	3.88	-43.9	-58.5	4.1	3.02e+01	0	28	104	595591168	60	32207
2026-01-17 01:59:17.90	340.17	3.60	-44.0	-61.9	3.5	3.02e+01	0	28	104	595591168	60	47780
2026-01-17 01:59:21.93	340.16	3.32	-44.0	-61.0	3.5	3.02e+01	0	28	104	595591168	60	43108
2026-01-17 01:59:25.97	340.14	3.04	-44.0	-61.7	3.5	3.02e+01	0	29	104	595591168	60	46863
2026-01-17 01:59:30.01	340.12	2.76	-48.3	-66.2	3.5	3.02e+01	0	28	104	595591168	60	78638
2026-01-17 01:59:34.05	340.10	2.49	-48.5	-66.5	3.5	3.02e+01	0	28	104	595591168	60	81046
2026-01-17 01:59:38.09	340.08	2.22	-48.3	-66.3	3.5	3.02e+01	0	29	104	595591168	60	79669
2026-01-17 01:59:42.13	340.07	1.95	-48.4	-66.3	3.5	3.02e+01	0	28	104	595591168	60	79186
2026-01-17 01:59:46.17	340.05	1.68	-48.4	-66.3	3.5	3.02e+01	0	28	104	595591168	60	79242
2026-01-17 01:59:50.20	340.04	1.42	-48.4	-66.3	3.5	3.02e+01	0	29	104	595591168	60	79611
2026-01-17 01:59:54.24	340.03	1.16	-48.4	-66.3	3.5	3.02e+01	0	28	104	595591168	60	79145
2026-01-17 01:59:58.28	340.01	0.91	-48.4	-66.3	3.5	3.02e+01	0	28	104	595591168	60	79588
2026-01-17 02:00:02.32	340.00	0.65	-48.4	-66.3	3.5	3.02e+01	0	28	104	595591168	60	79665
2026-01-17 02:00:06.36	339.99	0.40	-48.4	-66.3	3.5	3.02e+01	0	28	104	595591168	60	79645
2026-01-17 02:00:10.39	339.98	0.15	-48.5	-66.4	3.5	3.02e+01	0	28	104	595591168	60	80556
2026-01-17 02:00:14.43	339.96	-0.10	-48.3	-66.2	3.5	3.02e+01	0	28	104	595591168	60	78290

#Closed at: 2026-01-17 02:00:15
#Recorded file [595 MB]: D:/lorett/data/35029_260117_134622.dat