passes_logs/2026/01/17/R4.6S_Anadyr/R4.6S_Anadyr__20260117_122630_SUOMI_NPP_rec.log

#Pass ID: 20260117_122630_SUOMI NPP
#Satellite: SUOMI NPP
#Configuration: NPP
#almurnet v.1.7.20251203
#Start time: 2026-01-17 12:26:31

#Version: 2.2.20231116
#Station: R4.6S_Anadyr
#Location: 177.4865 lon 64.73178 lat
#TLE: 1 37849U 11061A   26016.58419598  .00000058  00000+0  48257-4 0  9996
#TLE: 2 37849  98.7812 318.6192 0002422  60.8544 299.2874 14.19525580736934

#Time	Az	El	Level	Level2	SNR	BER	BlckErr	Temp	State	Recorded	gain1	gain2
2026-01-17 12:26:31.66	19.15	0.05	-48.5	-61.0	3.4	1.52e+00	0	24	0	0	60	39354
2026-01-17 12:26:35.69	19.45	0.25	-48.7	-63.8	3.6	1.51e+00	0	26	104	0	60	56173
2026-01-17 12:26:39.73	19.76	0.44	-48.5	-63.8	3.5	1.51e+00	0	26	104	0	60	55762
2026-01-17 12:26:43.77	20.07	0.64	-48.2	-63.3	3.6	1.51e+00	0	26	104	0	60	53125
2026-01-17 12:26:47.81	20.38	0.84	-47.1	-62.2	3.6	1.51e+00	0	26	104	0	60	46412
2026-01-17 12:26:51.84	20.69	1.04	-46.9	-62.0	3.6	1.51e+00	0	26	104	0	60	45765
2026-01-17 12:26:55.89	21.01	1.24	-46.8	-62.0	3.6	1.51e+00	0	26	104	0	60	45441
2026-01-17 12:26:59.92	21.34	1.44	-46.8	-62.0	3.6	1.51e+00	0	26	104	0	60	45406
2026-01-17 12:27:03.96	21.67	1.64	-46.8	-62.0	3.6	1.51e+00	0	26	104	0	60	45446
2026-01-17 12:27:08.00	22.00	1.84	-46.8	-62.0	3.6	1.51e+00	0	26	104	0	60	45353
2026-01-17 12:27:12.03	22.33	2.05	-46.8	-61.9	3.6	1.51e+00	0	26	104	0	60	45122
2026-01-17 12:27:16.07	22.68	2.25	-46.8	-61.8	3.6	1.51e+00	0	26	104	0	60	44600
2026-01-17 12:27:20.11	23.02	2.46	-46.7	-60.5	3.6	1.51e+00	0	26	104	0	60	38479
2026-01-17 12:27:24.15	23.37	2.66	-44.0	-47.5	13.6	9.68e-05	30	26	0	5242880	60	8555
2026-01-17 12:27:28.19	23.73	2.87	-41.9	-44.0	16.8	0.00e+00	0	26	0	12582912	56	7202
2026-01-17 12:27:32.23	24.08	3.07	-42.7	-45.3	14.9	0.00e+00	0	26	0	19922944	58	7471
2026-01-17 12:27:36.26	24.45	3.28	-46.9	-61.4	3.6	3.36e-01	0	27	104	23068672	60	42479
2026-01-17 12:27:40.30	24.82	3.49	-43.1	-45.7	15.8	0.00e+00	0	26	0	27262976	60	6976
2026-01-17 12:27:44.34	25.19	3.70	-41.9	-44.0	17.3	0.00e+00	0	27	0	34603008	58	6409
2026-01-17 12:27:48.38	25.57	3.91	-41.8	-43.7	17.5	0.00e+00	57	27	0	42991616	56	6935
2026-01-17 12:27:52.42	25.95	4.12	-41.5	-43.4	17.6	0.00e+00	85	26	0	50331648	56	6718
2026-01-17 12:27:56.45	26.34	4.33	-41.4	-43.2	17.9	0.00e+00	0	27	0	57671680	56	6563
2026-01-17 12:28:00.49	26.74	4.54	-41.1	-42.8	18.2	0.00e+00	0	27	0	65011712	56	6276
2026-01-17 12:28:04.53	27.14	4.75	-40.9	-42.5	18.7	0.00e+00	72	27	0	72351744	56	6034
2026-01-17 12:28:08.56	27.54	4.96	-40.1	-41.5	19.6	0.00e+00	0	27	0	80740352	54	6055
2026-01-17 12:28:12.60	27.95	5.17	-39.6	-40.9	20.3	0.00e+00	0	27	0	88080384	52	6333
2026-01-17 12:28:16.64	28.37	5.39	-39.3	-40.5	20.6	0.00e+00	0	27	0	95420416	52	6056
2026-01-17 12:28:20.67	28.79	5.60	-39.2	-40.4	20.7	0.00e+00	65	27	0	102760448	52	6002
2026-01-17 12:28:24.71	29.22	5.81	-39.3	-40.6	20.5	0.00e+00	0	27	0	111149056	52	6126
2026-01-17 12:28:28.76	29.66	6.03	-39.7	-41.0	20.3	0.00e+00	0	27	0	118489088	52	6404
2026-01-17 12:28:32.79	30.10	6.24	-39.5	-40.8	20.4	0.00e+00	0	27	0	125829120	52	6288
2026-01-17 12:28:36.82	30.54	6.46	-39.9	-41.2	20.1	0.00e+00	86	27	0	133169152	52	6568
2026-01-17 12:28:40.86	31.00	6.67	-39.5	-40.8	20.4	0.00e+00	0	27	0	140509184	52	6275
2026-01-17 12:28:44.90	31.46	6.89	-39.4	-40.6	20.7	0.00e+00	0	27	0	148897792	52	6148
2026-01-17 12:28:48.93	31.92	7.11	-39.1	-40.3	21.1	0.00e+00	81	27	0	156237824	52	5927
2026-01-17 12:28:52.97	32.40	7.32	-39.1	-40.3	21.0	0.00e+00	19	27	0	163577856	52	5931
2026-01-17 12:28:57.00	32.88	7.54	-38.8	-39.9	21.3	0.00e+00	0	27	0	170917888	50	6362
2026-01-17 12:29:01.04	33.36	7.76	-38.3	-39.4	21.8	0.00e+00	0	27	0	179306496	50	5975
2026-01-17 12:29:05.08	33.86	7.97	-38.8	-39.9	21.4	0.00e+00	92	27	0	186646528	50	6347
2026-01-17 12:29:09.12	34.36	8.19	-38.9	-40.0	20.8	0.00e+00	0	27	0	193986560	50	6429
2026-01-17 12:29:13.16	34.87	8.41	-38.7	-39.8	21.5	0.00e+00	0	27	0	201326592	50	6311
2026-01-17 12:29:17.20	35.38	8.63	-38.8	-40.0	21.4	0.00e+00	0	27	0	208666624	50	6396
2026-01-17 12:29:21.23	35.91	8.84	-38.9	-40.1	21.3	0.00e+00	92	27	0	217055232	50	6475
2026-01-17 12:29:25.27	36.44	9.06	-39.0	-40.1	21.2	0.00e+00	0	27	0	224395264	50	6496
2026-01-17 12:29:29.31	36.97	9.28	-39.2	-40.4	21.0	0.00e+00	0	27	0	231735296	50	6696
2026-01-17 12:29:33.34	37.52	9.49	-38.9	-40.1	21.3	0.00e+00	0	27	0	239075328	50	6485
2026-01-17 12:29:37.38	38.07	9.71	-38.4	-39.5	21.8	0.00e+00	21	27	0	247463936	50	6077
2026-01-17 12:29:41.41	38.63	9.92	-38.3	-39.4	21.9	0.00e+00	0	27	0	254803968	50	5970
2026-01-17 12:29:45.45	39.20	10.14	-38.2	-39.2	22.1	0.00e+00	0	27	0	262144000	50	5871
2026-01-17 12:29:49.48	39.78	10.35	-37.6	-38.6	22.7	0.00e+00	0	27	0	269484032	48	6130
2026-01-17 12:29:53.51	40.37	10.57	-37.4	-38.3	22.8	0.00e+00	0	27	0	276824064	48	5944
2026-01-17 12:29:57.55	40.96	10.78	-37.9	-38.9	22.3	0.00e+00	0	27	0	285212672	48	6330
2026-01-17 12:30:01.59	41.56	10.99	-38.1	-39.1	22.2	0.00e+00	0	27	0	292552704	48	6507
2026-01-17 12:30:05.62	42.17	11.20	-37.6	-38.6	22.6	0.00e+00	66	27	0	299892736	48	6156
2026-01-17 12:30:09.66	42.79	11.41	-37.8	-38.8	22.5	0.00e+00	0	27	0	307232768	48	6275
2026-01-17 12:30:13.70	43.42	11.62	-37.6	-38.6	22.6	0.00e+00	0	27	0	314572800	48	6109
2026-01-17 12:30:17.73	44.06	11.83	-37.6	-38.6	22.5	0.00e+00	0	27	0	322961408	48	6165
2026-01-17 12:30:21.77	44.71	12.03	-37.7	-38.7	22.6	0.00e+00	67	27	0	330301440	48	6196
2026-01-17 12:30:25.80	45.36	12.24	-37.8	-38.8	22.5	0.00e+00	0	27	0	337641472	48	6274
2026-01-17 12:30:29.84	46.02	12.44	-38.0	-39.0	22.4	0.00e+00	0	27	0	344981504	48	6403
2026-01-17 12:30:33.88	46.70	12.64	-38.4	-39.5	22.0	0.00e+00	0	27	0	353370112	48	6795
2026-01-17 12:30:37.91	47.38	12.84	-38.1	-39.1	22.1	0.00e+00	88	27	0	360710144	48	6510
2026-01-17 12:30:41.95	48.07	13.04	-38.2	-39.3	22.1	0.00e+00	0	27	0	368050176	48	6624
2026-01-17 12:30:45.98	48.76	13.23	-38.7	-39.9	21.7	0.00e+00	0	27	0	375390208	50	6320
2026-01-17 12:30:50.02	49.47	13.43	-38.3	-39.4	22.1	0.00e+00	0	27	0	382730240	50	6000
2026-01-17 12:30:54.06	50.19	13.62	-38.7	-39.8	21.7	0.00e+00	0	27	0	391118848	50	6276
2026-01-17 12:30:58.09	50.92	13.80	-38.6	-39.6	21.9	0.00e+00	0	27	0	398458880	50	6171
2026-01-17 12:31:02.13	51.65	13.99	-39.0	-40.2	21.4	0.00e+00	0	27	0	405798912	50	6567
2026-01-17 12:31:06.17	52.40	14.17	-39.0	-40.2	21.4	0.00e+00	92	27	0	413138944	50	6560
2026-01-17 12:31:10.20	53.15	14.35	-39.1	-40.2	21.2	0.00e+00	0	27	0	420478976	50	6589
2026-01-17 12:31:14.23	53.91	14.52	-39.4	-40.6	21.1	0.00e+00	0	27	0	428867584	50	6924
2026-01-17 12:31:18.27	54.68	14.70	-39.6	-40.9	20.9	0.00e+00	0	27	0	436207616	52	6319
2026-01-17 12:31:22.31	55.46	14.86	-40.1	-41.4	20.5	0.00e+00	90	27	0	443547648	52	6706
2026-01-17 12:31:26.34	56.24	15.03	-39.0	-40.1	21.4	0.00e+00	33	27	0	450887680	52	5804
2026-01-17 12:31:30.38	57.04	15.19	-39.3	-40.5	21.2	0.00e+00	0	27	0	459276288	52	6076
2026-01-17 12:31:34.41	57.84	15.34	-39.3	-40.4	21.3	0.00e+00	57	27	0	466616320	52	6015
2026-01-17 12:31:38.45	58.66	15.50	-38.5	-39.6	21.9	0.00e+00	0	27	0	473956352	50	6138
2026-01-17 12:31:42.49	59.48	15.64	-38.1	-39.1	22.4	0.00e+00	0	27	0	481296384	50	5825
2026-01-17 12:31:46.52	60.30	15.79	-37.6	-38.6	22.8	0.00e+00	0	27	0	488636416	48	6131
2026-01-17 12:31:50.56	61.14	15.92	-37.7	-38.7	22.7	0.00e+00	82	27	0	497025024	48	6191
2026-01-17 12:31:54.60	61.98	16.06	-37.9	-38.9	21.9	0.00e+00	0	27	0	504365056	48	6330
2026-01-17 12:31:58.63	62.83	16.18	-38.4	-39.5	22.1	0.00e+00	0	27	0	511705088	48	6821
2026-01-17 12:32:02.67	63.69	16.31	-38.6	-39.7	21.8	0.00e+00	0	27	0	519045120	50	6236
2026-01-17 12:32:06.71	64.56	16.42	-38.2	-39.3	22.2	0.00e+00	91	27	0	526385152	50	5925
2026-01-17 12:32:10.75	65.43	16.53	-37.4	-38.3	23.0	0.00e+00	0	27	0	534773760	48	5948
2026-01-17 12:32:14.79	66.31	16.64	-38.5	-39.6	22.0	0.00e+00	0	27	0	542113792	48	6878
2026-01-17 12:32:18.83	67.19	16.74	-38.4	-39.4	22.2	0.00e+00	0	27	0	549453824	48	6738
2026-01-17 12:32:22.86	68.08	16.83	-38.5	-39.6	21.9	0.00e+00	91	27	0	556793856	50	6112
2026-01-17 12:32:26.90	68.97	16.92	-37.3	-38.2	23.0	0.00e+00	0	27	0	565182464	48	5871
2026-01-17 12:32:30.94	69.87	17.00	-38.0	-39.0	22.3	0.00e+00	0	27	0	572522496	48	6455
2026-01-17 12:32:34.97	70.77	17.07	-37.4	-38.4	22.9	0.00e+00	25	27	0	579862528	48	5968
2026-01-17 12:32:39.02	71.68	17.14	-38.7	-39.8	21.9	0.00e+00	0	27	0	587202560	50	6286
2026-01-17 12:32:43.05	72.59	17.20	-39.0	-40.1	21.6	0.00e+00	0	27	0	594542592	50	6493
2026-01-17 12:32:47.09	73.51	17.26	-39.9	-41.2	20.7	0.00e+00	0	27	0	602931200	52	6548
2026-01-17 12:32:51.12	74.42	17.30	-39.2	-40.3	21.1	0.00e+00	90	27	0	610271232	52	5952
2026-01-17 12:32:55.16	75.35	17.34	-38.6	-39.7	21.9	0.00e+00	0	27	0	617611264	50	6198
2026-01-17 12:32:59.20	76.27	17.38	-38.2	-39.2	22.3	0.00e+00	0	27	0	624951296	50	5885
2026-01-17 12:33:03.24	77.19	17.40	-38.6	-39.7	21.9	0.00e+00	0	27	0	633339904	50	6177
2026-01-17 12:33:07.27	78.12	17.42	-38.3	-39.4	22.2	0.00e+00	92	27	0	640679936	50	5988
2026-01-17 12:33:11.31	79.05	17.43	-38.6	-39.6	22.1	0.00e+00	0	27	0	648019968	50	6152
2026-01-17 12:33:15.35	79.97	17.44	-38.0	-39.0	22.4	0.00e+00	0	27	0	655360000	50	5724
2026-01-17 12:33:19.39	80.90	17.44	-38.1	-39.1	22.3	0.00e+00	73	27	0	662700032	50	5809
2026-01-17 12:33:23.42	81.83	17.43	-38.3	-39.4	22.1	0.00e+00	0	27	0	671088640	50	6000
2026-01-17 12:33:27.46	82.76	17.41	-38.8	-39.9	21.6	0.00e+00	0	27	0	678428672	50	6380
2026-01-17 12:33:31.49	83.68	17.39	-39.0	-40.1	21.5	0.00e+00	0	27	0	685768704	50	6480
2026-01-17 12:33:35.54	84.61	17.35	-39.1	-40.3	21.5	0.00e+00	79	27	0	693108736	50	6639
2026-01-17 12:33:39.57	85.53	17.32	-38.1	-39.1	22.4	0.00e+00	0	27	0	701497344	50	5788
2026-01-17 12:33:43.62	86.45	17.27	-37.5	-38.4	22.9	0.00e+00	0	27	0	708837376	48	6027
2026-01-17 12:33:47.65	87.36	17.22	-37.9	-38.9	22.5	0.00e+00	0	27	0	716177408	48	6379
2026-01-17 12:33:51.69	88.28	17.16	-38.3	-39.4	22.2	0.00e+00	83	27	0	723517440	48	6693
2026-01-17 12:33:55.73	89.19	17.09	-38.4	-39.5	22.0	0.00e+00	0	27	0	730857472	48	6787
2026-01-17 12:33:59.77	90.10	17.02	-37.8	-38.8	22.5	0.00e+00	0	27	0	739246080	48	6246
2026-01-17 12:34:03.81	91.00	16.94	-37.7	-38.7	22.8	0.00e+00	0	27	0	746586112	48	6232
2026-01-17 12:34:07.84	91.89	16.86	-37.7	-38.7	22.7	0.00e+00	92	27	0	753926144	48	6180
2026-01-17 12:34:11.88	92.79	16.76	-37.6	-38.6	22.7	0.00e+00	0	27	0	761266176	48	6111
2026-01-17 12:34:15.92	93.67	16.67	-37.4	-38.4	22.7	0.00e+00	0	27	0	768606208	48	5992
2026-01-17 12:34:19.95	94.55	16.56	-37.3	-38.3	22.9	0.00e+00	0	27	0	776994816	48	5921
2026-01-17 12:34:23.99	95.43	16.45	-37.1	-38.0	23.2	0.00e+00	0	27	0	784334848	48	5736
2026-01-17 12:34:28.03	96.30	16.34	-37.0	-37.9	23.2	0.00e+00	0	27	0	791674880	46	6373
2026-01-17 12:34:32.07	97.16	16.22	-37.3	-38.3	23.0	0.00e+00	0	27	0	799014912	46	6635
2026-01-17 12:34:36.11	98.01	16.09	-37.2	-38.2	23.0	0.00e+00	60	27	0	807403520	46	6549
2026-01-17 12:34:40.15	98.86	15.96	-37.4	-38.4	23.0	0.00e+00	0	27	0	814743552	46	6736
2026-01-17 12:34:44.18	99.70	15.82	-37.3	-38.2	23.1	0.00e+00	0	27	0	822083584	46	6593
2026-01-17 12:34:48.22	100.53	15.68	-37.0	-37.9	23.2	0.00e+00	0	27	0	829423616	46	6379
2026-01-17 12:34:52.26	101.36	15.53	-37.4	-38.4	22.9	0.00e+00	91	27	0	836763648	46	6701
2026-01-17 12:34:56.30	102.18	15.38	-37.1	-38.0	23.2	0.00e+00	0	27	0	845152256	46	6427
2026-01-17 12:35:00.33	102.98	15.22	-38.1	-39.2	22.1	0.00e+00	0	27	0	852492288	48	6544
2026-01-17 12:35:04.37	103.79	15.06	-38.4	-39.6	21.8	0.00e+00	84	27	0	859832320	50	6160
2026-01-17 12:35:08.41	104.58	14.90	-38.0	-39.1	22.2	0.00e+00	0	27	0	867172352	48	6505
2026-01-17 12:35:12.44	105.36	14.73	-37.7	-38.7	22.5	0.00e+00	0	27	0	875560960	48	6202
2026-01-17 12:35:16.48	106.14	14.56	-38.3	-39.4	21.8	0.00e+00	0	27	0	882900992	48	6697
2026-01-17 12:35:20.52	106.90	14.38	-39.3	-40.5	20.8	0.00e+00	77	27	0	890241024	50	6844
2026-01-17 12:35:24.56	107.66	14.20	-39.5	-40.8	20.9	0.00e+00	0	27	0	897581056	52	6262
2026-01-17 12:35:28.60	108.41	14.02	-38.9	-40.1	21.4	0.00e+00	0	27	0	904921088	52	5776
2026-01-17 12:35:32.64	109.15	13.84	-38.5	-39.5	22.0	0.00e+00	0	27	0	913309696	50	6091
2026-01-17 12:35:36.67	109.88	13.65	-38.2	-39.2	22.1	0.00e+00	81	27	0	920649728	50	5879
2026-01-17 12:35:40.71	110.60	13.46	-38.7	-39.8	21.6	0.00e+00	0	27	0	927989760	50	6267
2026-01-17 12:35:44.75	111.32	13.26	-38.7	-39.8	21.6	0.00e+00	0	27	0	935329792	50	6317
2026-01-17 12:35:48.79	112.02	13.07	-39.2	-40.4	21.1	0.00e+00	0	27	0	943718400	50	6697
2026-01-17 12:35:52.83	112.72	12.87	-38.4	-39.5	21.9	0.00e+00	92	27	0	951058432	50	6043
2026-01-17 12:35:56.86	113.40	12.67	-38.6	-39.7	21.7	0.00e+00	0	27	0	958398464	50	6210
2026-01-17 12:36:00.89	114.08	12.47	-38.8	-40.1	21.4	0.00e+00	0	27	0	965738496	50	6468
2026-01-17 12:36:04.93	114.75	12.26	-37.9	-39.0	22.3	0.00e+00	5	27	0	973078528	50	5714
2026-01-17 12:36:08.96	115.40	12.06	-37.8	-38.8	22.4	0.00e+00	0	27	0	981467136	48	6294
2026-01-17 12:36:12.96	116.05	11.85	-38.1	-39.1	22.1	0.00e+00	0	27	0	987758592	48	6534
2026-01-17 12:36:16.99	116.69	11.65	-37.9	-38.9	22.2	0.00e+00	0	27	0	996147200	48	6354
2026-01-17 12:36:21.03	117.32	11.44	-38.3	-39.3	22.0	0.00e+00	0	27	0	1003487232	48	6666
2026-01-17 12:36:25.06	117.95	11.22	-37.8	-38.8	22.3	0.00e+00	81	27	0	1010827264	48	6292
2026-01-17 12:36:29.10	118.56	11.01	-37.0	-38.0	23.1	0.00e+00	0	27	0	1018167296	48	5714
2026-01-17 12:36:33.13	119.17	10.80	-37.4	-38.3	22.7	0.00e+00	0	27	0	1025507328	48	5948
2026-01-17 12:36:37.16	119.76	10.58	-37.9	-38.9	22.2	0.00e+00	0	27	0	1033895936	48	6365
2026-01-17 12:36:41.20	120.35	10.37	-37.7	-38.7	22.4	0.00e+00	15	27	0	1041235968	48	6236
2026-01-17 12:36:45.23	120.93	10.15	-38.3	-39.4	21.9	0.00e+00	0	27	0	1048576000	48	6702
2026-01-17 12:36:49.27	121.51	9.94	-38.1	-39.2	21.8	0.00e+00	0	27	0	1055916032	48	6567
2026-01-17 12:36:53.30	122.07	9.72	-37.7	-38.7	22.4	0.00e+00	52	27	0	1063256064	48	6213
2026-01-17 12:36:57.33	122.63	9.50	-38.4	-39.5	21.6	0.00e+00	0	27	0	1071644672	48	6841
2026-01-17 12:37:01.37	123.18	9.28	-39.1	-40.3	20.9	0.00e+00	0	27	0	1078984704	50	6664
2026-01-17 12:37:05.41	123.72	9.07	-38.8	-39.9	21.3	0.00e+00	28	27	0	1086324736	50	6384
2026-01-17 12:37:09.44	124.25	8.85	-38.9	-40.0	21.2	0.00e+00	92	27	0	1093664768	50	6437
2026-01-17 12:37:13.48	124.78	8.63	-39.1	-40.3	20.9	0.00e+00	0	27	0	1102053376	50	6692
2026-01-17 12:37:17.52	125.30	8.41	-39.2	-40.4	20.7	0.00e+00	0	27	0	1109393408	50	6761
2026-01-17 12:37:21.55	125.81	8.19	-39.4	-40.7	20.6	0.00e+00	0	27	0	1116733440	50	6978
2026-01-17 12:37:25.59	126.31	7.97	-39.8	-41.2	20.1	0.00e+00	90	27	0	1124073472	50	7380
2026-01-17 12:37:29.63	126.81	7.75	-39.3	-40.6	20.7	0.00e+00	0	27	0	1131413504	52	6104
2026-01-17 12:37:33.66	127.30	7.53	-38.6	-39.8	21.2	0.00e+00	0	27	0	1139802112	50	6272
2026-01-17 12:37:37.70	127.78	7.31	-39.4	-40.7	20.6	0.00e+00	73	27	0	1147142144	50	6930
2026-01-17 12:37:41.73	128.25	7.10	-40.0	-41.4	19.7	0.00e+00	0	27	0	1154482176	52	6755
2026-01-17 12:37:45.77	128.72	6.88	-39.4	-40.7	20.5	0.00e+00	0	27	0	1161822208	52	6200
2026-01-17 12:37:49.81	129.18	6.66	-38.9	-40.1	20.6	0.00e+00	0	27	0	1170210816	52	5810
2026-01-17 12:37:53.85	129.64	6.44	-39.3	-40.6	20.5	0.00e+00	71	27	0	1177550848	52	6129
2026-01-17 12:37:57.89	130.09	6.22	-40.2	-41.7	19.5	0.00e+00	0	27	0	1184890880	52	6951
2026-01-17 12:38:01.93	130.53	6.01	-40.2	-41.7	19.3	0.00e+00	0	27	0	1192230912	52	6929
2026-01-17 12:38:05.97	130.97	5.79	-40.4	-41.9	19.2	0.00e+00	9	27	0	1199570944	52	7157
2026-01-17 12:38:10.01	131.40	5.57	-41.1	-42.7	18.4	0.00e+00	78	27	0	1207959552	54	7001
2026-01-17 12:38:14.05	131.82	5.36	-41.7	-43.6	17.6	0.00e+00	0	27	0	1215299584	56	6904
2026-01-17 12:38:18.09	132.24	5.14	-41.4	-43.2	17.8	0.00e+00	0	27	0	1222639616	56	6609
2026-01-17 12:38:22.13	132.65	4.93	-40.5	-42.2	18.8	0.00e+00	11	27	0	1229979648	54	6554
2026-01-17 12:38:26.16	133.06	4.71	-40.6	-42.2	18.9	0.00e+00	0	27	0	1238368256	54	6571
2026-01-17 12:38:30.20	133.46	4.50	-40.7	-42.4	18.6	0.00e+00	0	27	0	1245708288	54	6695
2026-01-17 12:38:34.24	133.86	4.29	-40.4	-42.0	18.9	0.00e+00	0	27	0	1253048320	54	6403
2026-01-17 12:38:38.27	134.24	4.08	-40.4	-42.0	18.9	0.00e+00	69	27	0	1260388352	54	6400
2026-01-17 12:38:42.31	134.63	3.86	-40.3	-41.9	19.0	0.00e+00	0	27	0	1267728384	54	6318
2026-01-17 12:38:46.35	135.01	3.65	-41.0	-42.8	18.0	0.00e+00	0	27	0	1276116992	54	7061
2026-01-17 12:38:50.39	135.38	3.44	-41.1	-43.0	17.7	0.00e+00	0	27	0	1283457024	54	7226
2026-01-17 12:38:54.42	135.75	3.23	-41.7	-43.8	17.0	0.00e+00	92	27	0	1290797056	56	7030
2026-01-17 12:38:58.46	136.12	3.02	-41.3	-43.3	17.7	0.00e+00	30	27	0	1298137088	56	6668
2026-01-17 12:39:02.50	136.47	2.81	-48.2	-63.4	3.6	1.51e+00	0	27	104	1299185664	60	53482
2026-01-17 12:39:06.54	136.83	2.61	-48.5	-63.6	3.6	1.51e+00	0	27	104	1299185664	60	55007
2026-01-17 12:39:10.58	137.18	2.40	-48.5	-63.6	3.6	1.51e+00	0	27	104	1299185664	60	54917
2026-01-17 12:39:14.61	137.52	2.19	-48.4	-63.6	3.6	1.51e+00	0	27	104	1299185664	60	54855
2026-01-17 12:39:18.65	137.86	1.99	-48.5	-63.7	3.6	1.51e+00	0	27	104	1299185664	60	55401
2026-01-17 12:39:22.69	138.20	1.78	-48.5	-63.6	3.6	1.51e+00	0	27	104	1299185664	60	55011
2026-01-17 12:39:26.73	138.53	1.58	-48.5	-63.6	3.6	1.51e+00	0	27	104	1299185664	60	54871
2026-01-17 12:39:30.76	138.86	1.37	-48.5	-63.7	3.6	1.51e+00	0	27	104	1299185664	60	55306
2026-01-17 12:39:34.80	139.18	1.17	-48.5	-63.7	3.6	1.51e+00	0	27	104	1299185664	60	55218
2026-01-17 12:39:38.84	139.50	0.97	-48.5	-63.7	3.6	1.51e+00	0	27	104	1299185664	60	55348
2026-01-17 12:39:42.88	139.81	0.77	-48.6	-63.8	3.6	1.51e+00	0	27	104	1299185664	60	55752
2026-01-17 12:39:46.91	140.12	0.57	-48.5	-63.7	3.6	1.51e+00	0	27	104	1299185664	60	55427
2026-01-17 12:39:50.96	140.43	0.37	-48.5	-63.7	3.6	1.51e+00	0	27	104	1299185664	60	55325
2026-01-17 12:39:54.99	140.73	0.17	-48.6	-63.7	3.6	1.51e+00	0	28	104	1299185664	60	55645
2026-01-17 12:39:59.03	141.03	-0.03	-48.5	-63.7	3.6	1.51e+00	0	27	104	1299185664	60	55358

#Closed at: 2026-01-17 12:40:00
#Recorded file [1299 MB]: D:/lorett/data/35029_260118_002631.dat