passes_logs/2026/01/17/R4.6S_Anadyr/R4.6S_Anadyr__20260117_012004_FENGYUN_3D_rec.log

#Pass ID: 20260117_012004_FENGYUN 3D
#Satellite: FENGYUN 3D
#Configuration: FENGYUN 3D
#almurnet v.1.7.20251203
#Start time: 2026-01-17 01:20:05

#Version: 2.2.20231116
#Station: R4.6S_Anadyr
#Location: 177.4865 lon 64.73178 lat
#TLE: 1 43010U 17072A   26016.62453405 -.00000112  00000+0 -31355-4 0  9995
#TLE: 2 43010  98.9932 348.4654 0002369 105.3910 254.7528 14.19694900423480

#Time	Az	El	Level	Level2	SNR	BER	BlckErr	Temp	State	Recorded	gain1	gain2
2026-01-17 01:20:05.79	133.36	0.06	-48.5	-63.3	3.5	1.51e+00	0	27	0	0	60	52800
2026-01-17 01:20:09.83	133.28	0.30	-48.6	-60.7	3.6	8.46e-01	0	29	104	0	60	39132
2026-01-17 01:20:13.86	133.19	0.54	-48.2	-60.3	3.6	8.47e-01	0	29	104	0	60	37600
2026-01-17 01:20:17.90	133.10	0.78	-47.9	-60.1	3.6	8.45e-01	0	29	104	0	60	36417
2026-01-17 01:20:21.94	133.01	1.03	-46.9	-59.0	3.6	8.44e-01	0	29	104	0	60	32165
2026-01-17 01:20:25.98	132.91	1.28	-46.6	-58.6	3.6	8.45e-01	0	29	104	0	60	30928
2026-01-17 01:20:30.02	132.82	1.53	-46.6	-58.6	3.6	8.45e-01	0	29	104	0	60	30932
2026-01-17 01:20:34.05	132.72	1.78	-46.6	-58.7	3.6	8.45e-01	0	29	104	0	60	31130
2026-01-17 01:20:38.09	132.62	2.03	-46.5	-58.4	3.6	8.44e-01	0	29	104	0	60	30010
2026-01-17 01:20:42.13	132.52	2.29	-46.6	-58.8	3.6	8.46e-01	0	30	104	0	60	31356
2026-01-17 01:20:46.17	132.42	2.55	-46.5	-58.1	3.6	8.44e-01	0	30	104	0	60	29148
2026-01-17 01:20:50.20	132.31	2.81	-46.4	-57.1	3.6	8.44e-01	0	30	104	0	60	25869
2026-01-17 01:20:54.24	132.20	3.07	-46.4	-56.9	3.6	8.45e-01	0	30	104	0	60	25188
2026-01-17 01:20:58.28	132.09	3.34	-42.0	-44.1	13.7	1.30e-04	0	30	0	15728640	58	6513
2026-01-17 01:21:02.33	131.98	3.61	-37.7	-38.8	19.2	0.00e+00	0	30	0	38797312	48	6256
2026-01-17 01:21:06.36	131.87	3.88	-35.2	-36.0	19.9	1.29e-01	0	30	104	51380224	46	5122
2026-01-17 01:21:10.40	131.75	4.15	-37.3	-38.3	19.4	0.00e+00	0	30	0	65011712	48	5952
2026-01-17 01:21:14.44	131.63	4.43	-35.8	-36.6	21.3	0.00e+00	0	30	0	88080384	46	5472
2026-01-17 01:21:18.48	131.51	4.71	-35.6	-36.4	21.5	0.00e+00	0	30	0	110100480	44	6031
2026-01-17 01:21:22.52	131.39	4.99	-35.2	-36.1	21.8	0.00e+00	0	30	0	133169152	44	5763
2026-01-17 01:21:26.55	131.26	5.27	-34.7	-35.5	22.4	0.00e+00	0	30	0	156237824	42	6050
2026-01-17 01:21:30.59	131.13	5.56	-34.9	-35.7	22.2	0.00e+00	0	30	0	178257920	42	6217
2026-01-17 01:21:34.63	131.00	5.85	-34.5	-35.2	22.6	0.00e+00	0	30	0	201326592	42	5895
2026-01-17 01:21:38.67	130.86	6.15	-34.8	-35.6	22.5	0.00e+00	0	30	0	224395264	42	6114
2026-01-17 01:21:42.71	130.72	6.44	-34.6	-35.4	22.7	0.00e+00	0	30	0	247463936	42	5977
2026-01-17 01:21:46.75	130.58	6.74	-34.7	-35.5	22.6	0.00e+00	0	30	0	269484032	42	6064
2026-01-17 01:21:50.79	130.44	7.05	-34.5	-35.3	22.7	0.00e+00	0	30	0	292552704	42	5962
2026-01-17 01:21:54.82	130.29	7.35	-34.6	-35.4	22.8	0.00e+00	0	30	0	314572800	42	5979
2026-01-17 01:21:58.86	130.14	7.67	-34.5	-35.3	23.0	0.00e+00	0	30	0	337641472	42	5904
2026-01-17 01:22:02.89	129.98	7.98	-34.4	-35.1	23.1	0.00e+00	0	30	0	360710144	42	5804
2026-01-17 01:22:06.92	129.83	8.30	-34.2	-35.0	23.2	0.00e+00	0	30	0	382730240	42	5726
2026-01-17 01:22:10.96	129.66	8.62	-34.1	-34.9	23.3	0.00e+00	0	30	0	405798912	42	5651
2026-01-17 01:22:15.00	129.50	8.94	-33.9	-34.6	23.6	0.00e+00	0	30	0	428867584	42	5471
2026-01-17 01:22:19.04	129.33	9.27	-33.8	-34.6	23.6	0.00e+00	0	30	0	450887680	40	6118
2026-01-17 01:22:23.08	129.15	9.61	-33.6	-34.3	23.9	0.00e+00	0	30	0	473956352	40	5949
2026-01-17 01:22:27.12	128.97	9.95	-33.6	-34.3	24.0	0.00e+00	0	30	0	497025024	40	5954
2026-01-17 01:22:31.15	128.79	10.29	-33.6	-34.3	24.0	0.00e+00	0	30	0	519045120	40	5909
2026-01-17 01:22:35.19	128.60	10.64	-33.2	-33.9	24.4	0.00e+00	0	30	0	542113792	40	5674
2026-01-17 01:22:39.22	128.41	10.99	-33.1	-33.8	24.5	0.00e+00	0	30	0	565182464	40	5598
2026-01-17 01:22:43.26	128.21	11.34	-33.1	-33.8	24.5	0.00e+00	0	30	0	587202560	40	5607
2026-01-17 01:22:47.30	128.01	11.71	-33.1	-33.8	24.5	0.00e+00	0	30	0	610271232	40	5606
2026-01-17 01:22:51.33	127.80	12.07	-33.0	-33.7	24.6	0.00e+00	0	30	0	633339904	40	5554
2026-01-17 01:22:55.37	127.59	12.44	-33.0	-33.7	24.6	0.00e+00	0	30	0	655360000	40	5550
2026-01-17 01:22:59.41	127.37	12.82	-32.9	-33.6	24.8	0.00e+00	0	30	0	678428672	38	6112
2026-01-17 01:23:03.44	127.14	13.20	-32.8	-33.5	25.0	0.00e+00	0	30	0	700448768	38	6037
2026-01-17 01:23:07.48	126.91	13.59	-32.7	-33.3	25.1	0.00e+00	0	30	0	723517440	38	5963
2026-01-17 01:23:11.52	126.67	13.98	-32.6	-33.3	25.1	0.00e+00	0	30	0	746586112	38	5902
2026-01-17 01:23:15.56	126.43	14.38	-32.3	-33.0	25.3	0.00e+00	0	30	0	769654784	38	5712
2026-01-17 01:23:19.60	126.17	14.79	-32.4	-33.0	25.3	0.00e+00	0	30	0	791674880	38	5756
2026-01-17 01:23:23.64	125.91	15.20	-32.2	-32.9	25.5	0.00e+00	0	30	0	814743552	38	5639
2026-01-17 01:23:27.68	125.65	15.62	-32.1	-32.8	25.6	0.00e+00	0	30	0	837812224	38	5569
2026-01-17 01:23:31.72	125.37	16.05	-31.7	-32.4	26.0	0.00e+00	0	30	0	859832320	36	5993
2026-01-17 01:23:35.75	125.09	16.48	-31.7	-32.4	25.9	0.00e+00	0	30	0	882900992	36	6006
2026-01-17 01:23:39.79	124.79	16.92	-31.4	-32.1	26.1	0.00e+00	0	30	0	904921088	36	5788
2026-01-17 01:23:43.83	124.49	17.36	-31.4	-32.0	26.3	0.00e+00	0	30	0	927989760	36	5743
2026-01-17 01:23:47.86	124.18	17.82	-31.2	-31.9	26.4	0.00e+00	0	30	0	951058432	36	5647
2026-01-17 01:23:51.90	123.86	18.28	-31.3	-31.9	26.3	0.00e+00	0	30	0	973078528	36	5691
2026-01-17 01:23:55.94	123.53	18.75	-31.1	-31.8	26.6	0.00e+00	0	29	0	996147200	36	5598
2026-01-17 01:23:59.97	123.19	19.22	-31.0	-31.7	26.6	0.00e+00	0	29	0	1019215872	36	5536
2026-01-17 01:24:04.01	122.83	19.71	-31.1	-31.8	26.6	0.00e+00	0	29	0	1042284544	36	5570
2026-01-17 01:24:08.05	122.47	20.20	-30.9	-31.5	26.7	0.00e+00	0	29	0	1064304640	36	5432
2026-01-17 01:24:12.09	122.09	20.70	-30.7	-31.3	27.0	0.00e+00	0	29	0	1087373312	34	5941
2026-01-17 01:24:16.12	121.70	21.21	-30.3	-31.0	27.2	0.00e+00	0	29	0	1109393408	34	5703
2026-01-17 01:24:20.15	121.30	21.73	-30.1	-30.8	27.4	0.00e+00	0	29	0	1132462080	34	5581
2026-01-17 01:24:24.19	120.88	22.26	-30.0	-30.7	27.5	0.00e+00	0	29	0	1155530752	34	5514
2026-01-17 01:24:28.23	120.45	22.80	-30.3	-30.9	27.3	0.00e+00	0	29	0	1177550848	34	5679
2026-01-17 01:24:32.26	120.00	23.35	-30.3	-30.9	27.3	0.00e+00	0	29	0	1200619520	34	5684
2026-01-17 01:24:36.30	119.53	23.90	-29.8	-30.4	27.6	0.00e+00	0	29	0	1223688192	34	5373
2026-01-17 01:24:40.34	119.05	24.47	-29.7	-30.4	27.7	0.00e+00	0	29	0	1245708288	32	5965
2026-01-17 01:24:44.38	118.55	25.05	-30.1	-30.7	27.5	0.00e+00	0	29	0	1268776960	32	6229
2026-01-17 01:24:48.42	118.03	25.64	-29.8	-30.5	27.7	0.00e+00	0	29	0	1291845632	32	6059
2026-01-17 01:24:52.45	117.49	26.24	-29.7	-30.3	27.8	0.00e+00	0	29	0	1313865728	32	5948
2026-01-17 01:24:56.49	116.92	26.85	-29.6	-30.2	27.8	0.00e+00	0	29	0	1336934400	32	5867
2026-01-17 01:25:00.52	116.34	27.47	-29.8	-30.5	27.7	0.00e+00	0	29	0	1360003072	32	6049
2026-01-17 01:25:04.56	115.73	28.10	-29.7	-30.3	27.9	0.00e+00	0	29	0	1382023168	32	5949
2026-01-17 01:25:08.60	115.10	28.74	-29.5	-30.2	27.9	0.00e+00	0	29	0	1405091840	32	5832
2026-01-17 01:25:12.64	114.44	29.39	-29.4	-30.1	28.1	0.00e+00	0	29	0	1428160512	32	5783
2026-01-17 01:25:16.67	113.75	30.05	-29.8	-30.4	27.7	0.00e+00	0	29	0	1450180608	32	6024
2026-01-17 01:25:20.70	113.03	30.73	-29.7	-30.3	27.8	0.00e+00	0	29	0	1473249280	32	5953
2026-01-17 01:25:24.74	112.28	31.41	-29.3	-30.0	28.1	0.00e+00	0	29	0	1495269376	32	5710
2026-01-17 01:25:28.78	111.50	32.11	-29.4	-30.0	28.1	0.00e+00	0	29	0	1518338048	32	5723
2026-01-17 01:25:32.82	110.68	32.81	-29.2	-29.8	28.2	0.00e+00	0	29	0	1541406720	32	5602
2026-01-17 01:25:36.86	109.83	33.53	-28.9	-29.5	28.4	0.00e+00	0	29	0	1563426816	32	5413
2026-01-17 01:25:40.89	108.94	34.25	-29.0	-29.6	28.4	0.00e+00	0	29	0	1586495488	32	5494
2026-01-17 01:25:44.93	108.00	34.98	-29.1	-29.7	28.3	0.00e+00	0	29	0	1609564160	32	5535
2026-01-17 01:25:48.97	107.03	35.72	-29.2	-29.8	28.2	0.00e+00	0	29	0	1632632832	32	5624
2026-01-17 01:25:53.00	106.00	36.47	-28.9	-29.5	28.4	0.00e+00	0	29	0	1654652928	32	5392
2026-01-17 01:25:57.04	104.93	37.22	-29.3	-29.9	28.1	0.00e+00	0	29	0	1677721600	32	5663
2026-01-17 01:26:01.08	103.81	37.98	-29.1	-29.7	28.3	0.00e+00	0	29	0	1699741696	32	5529
2026-01-17 01:26:05.12	102.63	38.75	-29.2	-29.8	28.2	0.00e+00	0	29	0	1722810368	32	5589
2026-01-17 01:26:09.16	101.39	39.51	-29.2	-29.8	28.3	0.00e+00	0	29	0	1745879040	32	5583
2026-01-17 01:26:13.19	100.10	40.28	-29.4	-30.0	28.1	0.00e+00	0	29	0	1767899136	32	5757
2026-01-17 01:26:17.23	98.74	41.04	-29.3	-29.9	28.1	0.00e+00	0	29	0	1790967808	32	5671
2026-01-17 01:26:21.27	97.32	41.81	-29.3	-29.9	28.2	0.00e+00	0	29	0	1814036480	32	5664
2026-01-17 01:26:25.31	95.82	42.56	-28.7	-29.3	28.6	0.00e+00	0	29	0	1837105152	30	5905
2026-01-17 01:26:29.35	94.26	43.31	-29.0	-29.6	28.3	0.00e+00	0	29	0	1859125248	30	6151
2026-01-17 01:26:33.38	92.62	44.05	-29.3	-29.9	28.3	0.00e+00	0	29	0	1882193920	30	6323
2026-01-17 01:26:37.42	90.90	44.77	-29.4	-30.1	28.2	0.00e+00	0	29	0	1904214016	30	6485
2026-01-17 01:26:41.46	89.11	45.48	-29.2	-29.9	28.2	0.00e+00	0	29	0	1927282688	30	6338
2026-01-17 01:26:45.50	87.23	46.17	-29.5	-30.1	28.1	0.00e+00	0	29	0	1950351360	30	6468
2026-01-17 01:26:49.53	85.27	46.83	-29.5	-30.1	28.1	0.00e+00	0	29	0	1972371456	32	5786
2026-01-17 01:26:53.57	83.23	47.46	-29.8	-30.4	27.9	0.00e+00	0	29	0	1995440128	32	5999
2026-01-17 01:26:57.61	81.10	48.06	-30.0	-30.7	27.8	0.00e+00	0	29	0	2018508800	32	6177
2026-01-17 01:27:01.64	78.89	48.63	-30.1	-30.7	27.7	0.00e+00	0	29	0	2040528896	32	6239
2026-01-17 01:27:05.68	76.61	49.15	-29.9	-30.5	27.9	0.00e+00	0	29	0	2063597568	32	6081
2026-01-17 01:27:09.72	74.24	49.63	-30.0	-30.6	27.7	0.00e+00	0	29	0	2086666240	32	6168
2026-01-17 01:27:13.76	71.80	50.06	-30.0	-30.6	27.6	0.00e+00	0	29	0	2108686336	32	6151
2026-01-17 01:27:17.80	69.30	50.43	-30.1	-30.7	27.7	0.00e+00	0	29	0	2131755008	32	6200
2026-01-17 01:27:21.84	66.74	50.75	-30.0	-30.6	27.7	0.00e+00	0	29	0	2154823680	32	6129
2026-01-17 01:27:25.89	64.13	51.01	-30.3	-31.0	27.4	0.00e+00	0	29	0	2176843776	32	6399
2026-01-17 01:27:29.92	61.48	51.21	-29.9	-30.6	27.8	0.00e+00	0	29	0	2199912448	32	6111
2026-01-17 01:27:33.96	58.80	51.34	-29.9	-30.5	27.7	0.00e+00	0	29	0	2222981120	32	6078
2026-01-17 01:27:38.00	56.11	51.41	-30.3	-30.9	27.5	0.00e+00	0	28	0	2245001216	32	6351
2026-01-17 01:27:42.04	53.40	51.40	-30.1	-30.7	27.7	0.00e+00	0	29	0	2268069888	32	6211
2026-01-17 01:27:46.07	50.72	51.34	-29.9	-30.5	27.6	0.00e+00	0	28	0	2291138560	32	6075
2026-01-17 01:27:50.11	48.04	51.20	-30.0	-30.6	27.5	0.00e+00	0	28	0	2313158656	32	6143
2026-01-17 01:27:54.15	45.39	51.01	-29.8	-30.4	28.0	0.00e+00	0	29	0	2336227328	32	5982
2026-01-17 01:27:58.19	42.78	50.75	-29.7	-30.4	27.9	0.00e+00	0	28	0	2359296000	32	5986
2026-01-17 01:28:02.23	40.23	50.43	-29.7	-30.3	27.9	0.00e+00	0	28	0	2381316096	32	5951
2026-01-17 01:28:06.26	37.73	50.05	-29.7	-30.3	28.0	0.00e+00	0	29	0	2404384768	32	5958
2026-01-17 01:28:10.31	35.29	49.62	-29.7	-30.3	27.8	0.00e+00	0	29	0	2427453440	32	5914
2026-01-17 01:28:14.34	32.94	49.14	-29.2	-29.9	28.3	0.00e+00	0	28	0	2449473536	32	5669
2026-01-17 01:28:18.38	30.66	48.62	-29.4	-30.0	28.1	0.00e+00	0	28	0	2472542208	32	5755
2026-01-17 01:28:22.42	28.45	48.06	-29.5	-30.2	28.0	0.00e+00	0	28	0	2495610880	32	5829
2026-01-17 01:28:26.45	26.33	47.46	-29.1	-29.6	28.3	0.00e+00	0	28	0	2517630976	32	5466
2026-01-17 01:28:30.49	24.29	46.82	-28.9	-29.4	28.4	0.00e+00	0	28	0	2540699648	32	5370
2026-01-17 01:28:34.52	22.34	46.16	-29.1	-29.7	28.3	0.00e+00	0	28	0	2563768320	32	5524
2026-01-17 01:28:38.56	20.47	45.48	-28.7	-29.2	28.6	0.00e+00	0	28	0	2585788416	30	5864
2026-01-17 01:28:42.60	18.67	44.77	-28.8	-29.5	28.5	0.00e+00	0	28	0	2608857088	30	6087
2026-01-17 01:28:46.63	16.97	44.05	-29.0	-29.6	28.4	0.00e+00	0	28	0	2631925760	30	6173
2026-01-17 01:28:50.68	15.33	43.31	-28.7	-29.4	28.6	0.00e+00	0	28	0	2653945856	30	5965
2026-01-17 01:28:54.71	13.77	42.57	-28.6	-29.2	28.5	0.00e+00	0	28	0	2677014528	30	5858
2026-01-17 01:28:58.75	12.28	41.81	-28.8	-29.4	28.3	0.00e+00	0	28	0	2699034624	30	5980
2026-01-17 01:29:02.78	10.86	41.05	-28.7	-29.2	28.5	0.00e+00	0	28	0	2722103296	30	5869
2026-01-17 01:29:06.81	9.51	40.29	-28.7	-29.4	28.5	0.00e+00	0	28	0	2745171968	30	6003
2026-01-17 01:29:10.85	8.22	39.53	-28.7	-29.3	28.0	0.00e+00	0	28	0	2767192064	30	5922
2026-01-17 01:29:14.88	6.99	38.76	-28.6	-29.1	28.6	0.00e+00	0	28	0	2790260736	30	5801
2026-01-17 01:29:18.92	5.81	38.00	-28.7	-29.4	28.5	0.00e+00	0	28	0	2813329408	30	6020
2026-01-17 01:29:22.95	4.70	37.25	-28.3	-28.9	28.9	0.00e+00	0	28	0	2835349504	30	5652
2026-01-17 01:29:26.99	3.63	36.50	-28.4	-29.0	28.7	0.00e+00	0	28	0	2858418176	30	5729
2026-01-17 01:29:31.03	2.60	35.75	-28.3	-29.0	28.8	0.00e+00	0	28	0	2881486848	30	5736
2026-01-17 01:29:35.07	1.63	35.01	-28.1	-28.6	29.0	0.00e+00	0	28	0	2903506944	30	5455
2026-01-17 01:29:39.10	0.70	34.28	-28.5	-29.0	28.7	0.00e+00	0	28	0	2926575616	30	5736
2026-01-17 01:29:43.14	359.81	33.56	-28.4	-29.1	28.8	0.00e+00	0	28	0	2949644288	30	5768
2026-01-17 01:29:47.18	358.96	32.85	-28.6	-29.2	28.5	0.00e+00	0	28	0	2971664384	30	5866
2026-01-17 01:29:51.21	358.15	32.15	-28.6	-29.3	28.7	0.00e+00	0	28	0	2994733056	30	5928
2026-01-17 01:29:55.25	357.37	31.45	-28.6	-29.3	28.5	0.00e+00	0	28	0	3017801728	30	5903
2026-01-17 01:29:59.29	356.62	30.77	-29.0	-29.5	28.4	0.00e+00	0	28	0	3039821824	30	6093
2026-01-17 01:30:03.33	355.90	30.10	-29.0	-29.6	28.2	0.00e+00	0	28	0	3062890496	30	6113
2026-01-17 01:30:07.37	355.22	29.44	-29.2	-29.7	28.2	0.00e+00	0	28	0	3085959168	30	6229
2026-01-17 01:30:11.41	354.56	28.79	-29.0	-29.6	28.2	0.00e+00	0	28	0	3107979264	30	6120
2026-01-17 01:30:15.44	353.93	28.15	-29.2	-29.9	28.1	0.00e+00	0	28	0	3131047936	30	6345
2026-01-17 01:30:19.48	353.32	27.52	-29.3	-30.0	28.1	0.00e+00	0	28	0	3154116608	30	6435
2026-01-17 01:30:23.52	352.74	26.90	-29.3	-29.8	28.1	0.00e+00	0	28	0	3176136704	30	6304
2026-01-17 01:30:27.56	352.18	26.29	-29.2	-29.9	28.1	0.00e+00	0	28	0	3199205376	30	6372
2026-01-17 01:30:31.60	351.64	25.70	-29.3	-29.9	28.1	0.00e+00	0	28	0	3222274048	30	6322
2026-01-17 01:30:35.63	351.12	25.11	-29.4	-30.1	27.9	0.00e+00	0	28	0	3244294144	30	6506
2026-01-17 01:30:39.67	350.63	24.54	-29.5	-30.2	27.9	0.00e+00	0	28	0	3267362816	30	6546
2026-01-17 01:30:43.70	350.15	23.97	-29.3	-30.0	28.1	0.00e+00	0	28	0	3289382912	30	6406
2026-01-17 01:30:47.74	349.68	23.41	-29.8	-30.5	27.7	0.00e+00	0	28	0	3312451584	30	6807
2026-01-17 01:30:51.78	349.24	22.87	-29.7	-30.3	27.7	0.00e+00	0	28	0	3335520256	32	5902
2026-01-17 01:30:55.81	348.80	22.33	-29.7	-30.4	27.7	0.00e+00	0	28	0	3358588928	32	6011
2026-01-17 01:30:59.85	348.39	21.80	-30.0	-30.7	27.5	0.00e+00	0	28	0	3380609024	32	6178
2026-01-17 01:31:03.89	347.99	21.28	-30.0	-30.7	27.5	0.00e+00	0	28	0	3403677696	32	6186
2026-01-17 01:31:07.92	347.60	20.78	-30.0	-30.6	27.4	0.00e+00	0	28	0	3426746368	32	6138
2026-01-17 01:31:11.96	347.22	20.28	-30.2	-30.9	27.3	0.00e+00	0	28	0	3448766464	32	6363
2026-01-17 01:31:16.00	346.86	19.78	-30.3	-31.0	27.2	0.00e+00	0	28	0	3471835136	32	6461
2026-01-17 01:31:20.04	346.51	19.30	-30.5	-31.1	27.0	0.00e+00	0	28	0	3493855232	32	6492
2026-01-17 01:31:24.07	346.17	18.82	-30.6	-31.2	26.9	0.00e+00	0	28	0	3516923904	34	5844
2026-01-17 01:31:28.11	345.84	18.36	-30.7	-31.4	26.8	0.00e+00	0	28	0	3539992576	34	6003
2026-01-17 01:31:32.15	345.52	17.90	-30.8	-31.5	26.8	0.00e+00	0	28	0	3562012672	34	6084
2026-01-17 01:31:36.19	345.21	17.44	-31.1	-31.7	26.5	0.00e+00	0	28	0	3585081344	34	6196
2026-01-17 01:31:40.23	344.92	17.00	-31.3	-32.0	26.4	0.00e+00	0	28	0	3608150016	34	6416
2026-01-17 01:31:44.27	344.63	16.56	-31.4	-32.0	26.2	0.00e+00	0	28	0	3631218688	34	6419
2026-01-17 01:31:48.30	344.34	16.13	-31.4	-32.2	26.1	0.00e+00	0	28	0	3653238784	34	6544
2026-01-17 01:31:52.34	344.07	15.71	-31.6	-32.2	26.1	0.00e+00	0	28	0	3676307456	34	6557
2026-01-17 01:31:56.38	343.81	15.29	-31.7	-32.5	25.9	0.00e+00	0	28	0	3698327552	36	6051
2026-01-17 01:32:00.42	343.55	14.88	-32.1	-32.8	25.6	0.00e+00	0	28	0	3721396224	36	6301
2026-01-17 01:32:04.45	343.30	14.47	-32.0	-32.8	25.7	0.00e+00	0	28	0	3744464896	36	6264
2026-01-17 01:32:08.49	343.06	14.07	-32.1	-32.7	25.6	0.00e+00	0	28	0	3766484992	36	6179
2026-01-17 01:32:12.53	342.82	13.68	-32.2	-32.8	25.4	0.00e+00	0	28	0	3789553664	36	6267
2026-01-17 01:32:16.57	342.59	13.29	-32.3	-32.9	25.3	0.00e+00	0	28	0	3812622336	36	6335
2026-01-17 01:32:20.61	342.37	12.91	-32.5	-33.3	25.1	0.00e+00	0	28	0	3835691008	36	6624
2026-01-17 01:32:24.65	342.15	12.54	-32.6	-33.3	25.1	0.00e+00	0	28	0	3857711104	36	6619
2026-01-17 01:32:28.69	341.94	12.17	-32.9	-33.6	24.7	0.00e+00	0	28	0	3880779776	38	6148
2026-01-17 01:32:32.73	341.73	11.80	-32.8	-33.5	24.8	0.00e+00	0	28	0	3902799872	38	6034
2026-01-17 01:32:36.76	341.53	11.44	-32.8	-33.6	24.7	0.00e+00	0	28	0	3925868544	38	6151
2026-01-17 01:32:40.80	341.34	11.08	-33.0	-33.8	24.6	0.00e+00	0	28	0	3948937216	38	6253
2026-01-17 01:32:44.84	341.15	10.73	-33.0	-33.8	24.5	0.00e+00	0	28	0	3970957312	38	6295
2026-01-17 01:32:48.88	340.96	10.39	-33.3	-34.0	24.2	0.00e+00	0	28	0	3994025984	38	6424
2026-01-17 01:32:52.92	340.78	10.04	-33.2	-34.0	24.5	0.00e+00	0	28	0	4017094656	38	6413
2026-01-17 01:32:56.96	340.61	9.71	-33.3	-34.1	24.2	0.00e+00	0	28	0	4039114752	38	6526
2026-01-17 01:33:00.99	340.44	9.37	-33.4	-34.2	24.0	0.00e+00	0	28	0	4062183424	38	6610
2026-01-17 01:33:05.03	340.27	9.04	-33.7	-34.4	23.8	0.00e+00	0	28	0	4085252096	38	6704
2026-01-17 01:33:09.07	340.10	8.72	-33.8	-34.6	23.7	0.00e+00	0	28	0	4107272192	40	6132
2026-01-17 01:33:13.10	339.95	8.40	-33.9	-34.5	23.6	0.00e+00	0	28	0	4130340864	40	6095
2026-01-17 01:33:17.14	339.79	8.08	-33.9	-34.7	23.5	0.00e+00	0	28	0	4153409536	40	6211
2026-01-17 01:33:21.18	339.64	7.77	-34.0	-34.7	23.4	0.00e+00	0	28	0	4175429632	40	6194
2026-01-17 01:33:25.21	339.49	7.46	-33.8	-34.7	23.5	0.00e+00	0	28	0	4198498304	40	6175
2026-01-17 01:33:29.26	339.34	7.15	-33.9	-34.6	23.3	0.00e+00	0	28	0	4220518400	40	6162
2026-01-17 01:33:33.29	339.20	6.85	-34.2	-34.9	23.0	0.00e+00	0	28	0	4243587072	40	6363
2026-01-17 01:33:37.32	339.07	6.55	-34.4	-35.2	22.8	0.00e+00	0	28	0	4266655744	40	6555
2026-01-17 01:33:41.36	338.93	6.25	-34.8	-35.6	22.3	0.00e+00	0	28	0	4289724416	42	6144
2026-01-17 01:33:45.39	338.80	5.96	-35.1	-35.9	21.9	0.00e+00	0	27	0	4311744512	42	6361
2026-01-17 01:33:49.43	338.67	5.67	-35.2	-36.1	21.9	0.00e+00	0	28	0	4334813184	42	6504
2026-01-17 01:33:53.47	338.54	5.38	-35.8	-36.7	20.8	0.00e+00	0	28	0	4357881856	44	6244
2026-01-17 01:33:57.51	338.42	5.10	-37.3	-38.4	18.4	0.00e+00	0	28	0	4379901952	46	6746
2026-01-17 01:34:01.54	338.30	4.82	-38.8	-40.2	16.0	0.00e+00	0	28	0	4402970624	50	6595
2026-01-17 01:34:05.58	338.18	4.54	-40.4	-42.9	12.3	1.09e-04	0	28	0	4424990720	52	7970
2026-01-17 01:34:09.62	338.06	4.26	-42.3	-46.8	6.9	1.43e-01	0	28	0	4448059392	56	10008
2026-01-17 01:34:13.66	337.95	3.99	-42.9	-50.2	3.9	8.28e-01	0	28	0	4457496576	58	13168
2026-01-17 01:34:17.70	337.84	3.72	-43.1	-54.0	3.6	8.45e-01	0	28	104	4457496576	58	20219
2026-01-17 01:34:21.73	337.73	3.45	-43.3	-55.3	3.6	8.46e-01	0	28	104	4457496576	58	23598
2026-01-17 01:34:25.77	337.63	3.19	-43.2	-55.2	3.6	8.46e-01	0	28	104	4457496576	58	23274
2026-01-17 01:34:29.80	337.52	2.92	-47.4	-59.5	3.6	8.46e-01	0	28	104	4457496576	60	34178
2026-01-17 01:34:33.84	337.42	2.66	-48.3	-60.4	3.6	8.45e-01	0	28	104	4457496576	60	37685
2026-01-17 01:34:37.88	337.32	2.40	-47.9	-60.4	3.6	8.45e-01	0	28	104	4457496576	60	37652
2026-01-17 01:34:41.92	337.22	2.15	-48.2	-60.3	3.6	8.45e-01	0	28	104	4457496576	60	37532
2026-01-17 01:34:45.95	337.13	1.89	-48.3	-60.4	3.6	8.45e-01	0	28	104	4457496576	60	38068
2026-01-17 01:34:49.99	337.03	1.64	-48.2	-60.4	3.6	8.45e-01	0	28	104	4457496576	60	37667
2026-01-17 01:34:54.02	336.94	1.39	-48.3	-60.4	3.6	8.45e-01	0	28	104	4457496576	60	37764
2026-01-17 01:34:58.06	336.85	1.15	-48.2	-60.3	3.6	8.45e-01	0	28	104	4457496576	60	37401
2026-01-17 01:35:02.10	336.76	0.90	-48.2	-60.4	3.6	8.46e-01	0	28	104	4457496576	60	37642
2026-01-17 01:35:06.14	336.68	0.66	-48.2	-60.3	3.6	8.45e-01	0	28	104	4457496576	60	37343
2026-01-17 01:35:10.17	336.59	0.41	-48.2	-60.3	3.6	8.47e-01	0	28	104	4457496576	60	37573
2026-01-17 01:35:14.21	336.51	0.17	-48.4	-60.6	3.6	8.46e-01	0	28	104	4457496576	60	38574
2026-01-17 01:35:18.25	336.43	-0.06	-48.3	-60.5	3.6	8.45e-01	0	28	104	4457496576	60	38159

#Closed at: 2026-01-17 01:35:19
#Recorded file [4457 MB]: D:/lorett/data/35029_260117_132005.dat