passes_logs/2026/01/17/R4.6S_Anadyr/R4.6S_Anadyr__20260117_164555_FENGYUN_3D_rec.log

#Pass ID: 20260117_164555_FENGYUN 3D
#Satellite: FENGYUN 3D
#Configuration: FENGYUN 3D
#almurnet v.1.7.20251203
#Start time: 2026-01-17 16:45:58

#Version: 2.2.20231116
#Station: R4.6S_Anadyr
#Location: 177.4865 lon 64.73178 lat
#TLE: 1 43010U 17072A   26016.62453405 -.00000112  00000+0 -31355-4 0  9995
#TLE: 2 43010  98.9932 348.4654 0002369 105.3910 254.7528 14.19694900423480

#Time	Az	El	Level	Level2	SNR	BER	BlckErr	Temp	State	Recorded	gain1	gain2
2026-01-17 16:45:58.51	20.97	0.17	-48.6	-63.5	3.5	1.51e+00	0	26	0	0	60	54317
2026-01-17 16:46:02.55	20.99	0.41	-48.8	-60.9	3.6	8.45e-01	0	27	104	0	60	39930
2026-01-17 16:46:06.59	21.02	0.65	-48.7	-60.9	3.5	8.45e-01	0	27	104	0	60	39940
2026-01-17 16:46:10.63	21.04	0.90	-48.6	-60.7	3.6	8.45e-01	0	27	104	0	60	39068
2026-01-17 16:46:14.67	21.07	1.15	-48.0	-60.1	3.6	8.45e-01	0	27	104	0	60	36493
2026-01-17 16:46:18.71	21.10	1.40	-47.1	-59.1	3.6	8.45e-01	0	27	104	0	60	32705
2026-01-17 16:46:22.75	21.12	1.65	-47.1	-58.7	3.6	8.45e-01	0	27	104	0	60	31188
2026-01-17 16:46:26.79	21.15	1.91	-47.1	-59.1	3.6	8.47e-01	0	28	104	0	60	32759
2026-01-17 16:46:30.83	21.17	2.17	-47.1	-59.3	3.6	8.45e-01	0	27	104	0	60	33167
2026-01-17 16:46:34.87	21.20	2.43	-47.0	-57.3	3.6	8.43e-01	0	28	104	0	60	26618
2026-01-17 16:46:38.91	21.23	2.69	-46.7	-54.2	3.8	8.33e-01	0	28	0	0	60	18482
2026-01-17 16:46:42.95	21.25	2.96	-44.9	-48.5	9.4	5.19e-02	0	28	0	7340032	60	9577
2026-01-17 16:46:46.99	21.28	3.22	-40.0	-41.4	17.3	0.00e+00	0	28	0	30408704	54	5971
2026-01-17 16:46:51.03	21.31	3.49	-37.4	-38.4	19.8	0.00e+00	0	28	0	53477376	48	5979
2026-01-17 16:46:55.07	21.33	3.77	-40.3	-41.7	16.4	0.00e+00	0	28	0	75497472	52	6968
2026-01-17 16:46:59.12	21.36	4.04	-47.0	-57.2	3.6	6.15e-01	0	28	104	96468992	60	26269
2026-01-17 16:47:03.16	21.39	4.32	-37.1	-38.0	20.2	0.00e+00	0	28	0	101711872	48	5751
2026-01-17 16:47:07.20	21.42	4.60	-36.0	-36.8	21.5	0.00e+00	0	28	0	124780544	44	6293
2026-01-17 16:47:11.24	21.44	4.89	-35.5	-36.3	22.1	0.00e+00	0	28	0	147849216	44	5923
2026-01-17 16:47:15.28	21.47	5.17	-35.0	-35.8	22.7	0.00e+00	0	28	0	170917888	44	5610
2026-01-17 16:47:19.32	21.50	5.47	-35.3	-36.1	22.4	0.00e+00	0	28	0	192937984	44	5779
2026-01-17 16:47:23.36	21.53	5.76	-34.9	-35.6	23.0	0.00e+00	0	28	0	216006656	42	6156
2026-01-17 16:47:27.41	21.56	6.06	-34.4	-35.2	23.3	0.00e+00	0	28	0	238026752	42	5832
2026-01-17 16:47:31.45	21.58	6.36	-34.4	-35.2	23.3	0.00e+00	0	28	0	261095424	42	5832
2026-01-17 16:47:35.49	21.61	6.66	-34.7	-35.4	23.2	0.00e+00	0	28	0	284164096	42	6015
2026-01-17 16:47:39.53	21.64	6.97	-34.1	-34.8	23.7	0.00e+00	0	28	0	307232768	42	5607
2026-01-17 16:47:43.57	21.67	7.28	-34.5	-35.2	23.4	0.00e+00	0	28	0	329252864	42	5891
2026-01-17 16:47:47.62	21.70	7.60	-34.3	-35.0	23.6	0.00e+00	0	28	0	352321536	42	5726
2026-01-17 16:47:51.66	21.73	7.92	-34.2	-35.0	23.6	0.00e+00	0	28	0	375390208	42	5696
2026-01-17 16:47:55.70	21.76	8.24	-34.5	-35.2	23.6	0.00e+00	0	28	0	397410304	42	5839
2026-01-17 16:47:59.75	21.79	8.57	-33.9	-34.6	24.0	0.00e+00	0	28	0	420478976	42	5484
2026-01-17 16:48:03.78	21.82	8.90	-34.2	-34.9	23.9	0.00e+00	0	28	0	443547648	42	5683
2026-01-17 16:48:07.82	21.85	9.24	-34.1	-34.8	23.9	0.00e+00	0	28	0	465567744	42	5589
2026-01-17 16:48:11.86	21.88	9.58	-33.9	-34.6	24.1	0.00e+00	0	28	0	488636416	42	5450
2026-01-17 16:48:15.90	21.92	9.93	-34.0	-34.7	24.0	0.00e+00	0	28	0	511705088	42	5551
2026-01-17 16:48:19.95	21.95	10.28	-33.8	-34.5	24.1	0.00e+00	0	28	0	533725184	40	6083
2026-01-17 16:48:23.99	21.98	10.63	-33.8	-34.4	24.3	0.00e+00	0	28	0	556793856	40	6024
2026-01-17 16:48:28.03	22.01	10.99	-33.7	-34.4	24.2	0.00e+00	0	28	0	579862528	40	6030
2026-01-17 16:48:32.08	22.05	11.36	-33.6	-34.3	24.5	0.00e+00	0	28	0	602931200	40	5957
2026-01-17 16:48:36.12	22.08	11.73	-33.5	-34.2	24.4	0.00e+00	0	28	0	624951296	40	5896
2026-01-17 16:48:40.16	22.11	12.11	-33.4	-34.1	24.6	0.00e+00	0	28	0	648019968	40	5817
2026-01-17 16:48:44.20	22.15	12.50	-33.5	-34.2	24.6	0.00e+00	0	28	0	670040064	40	5868
2026-01-17 16:48:48.25	22.18	12.89	-33.4	-34.0	24.8	0.00e+00	0	28	0	693108736	40	5749
2026-01-17 16:48:52.28	22.22	13.28	-33.3	-34.0	24.8	0.00e+00	0	28	0	716177408	40	5758
2026-01-17 16:48:56.32	22.25	13.69	-33.3	-33.9	24.8	0.00e+00	0	28	0	738197504	40	5691
2026-01-17 16:49:00.36	22.29	14.10	-33.0	-33.7	25.1	0.00e+00	0	28	0	761266176	40	5512
2026-01-17 16:49:04.40	22.33	14.51	-32.8	-33.5	25.2	0.00e+00	0	28	0	784334848	40	5411
2026-01-17 16:49:08.44	22.36	14.94	-32.7	-33.3	25.5	0.00e+00	0	28	0	807403520	38	5924
2026-01-17 16:49:12.48	22.40	15.37	-32.5	-33.1	25.6	0.00e+00	0	28	0	829423616	38	5805
2026-01-17 16:49:16.53	22.44	15.81	-32.2	-32.9	25.9	0.00e+00	0	28	0	852492288	38	5652
2026-01-17 16:49:20.57	22.48	16.26	-32.0	-32.6	26.1	0.00e+00	0	28	0	874512384	38	5462
2026-01-17 16:49:24.61	22.52	16.71	-32.0	-32.6	26.2	0.00e+00	0	28	0	897581056	38	5487
2026-01-17 16:49:28.65	22.56	17.18	-31.8	-32.5	26.2	0.00e+00	0	28	0	920649728	36	6063
2026-01-17 16:49:32.69	22.60	17.65	-31.7	-32.4	26.5	0.00e+00	0	28	0	943718400	36	5979
2026-01-17 16:49:36.73	22.64	18.14	-31.6	-32.2	26.5	0.00e+00	0	28	0	965738496	36	5879
2026-01-17 16:49:40.78	22.69	18.63	-31.2	-31.8	26.8	0.00e+00	0	28	0	988807168	36	5615
2026-01-17 16:49:44.82	22.73	19.13	-31.1	-31.7	26.9	0.00e+00	0	28	0	1011875840	36	5563
2026-01-17 16:49:48.86	22.77	19.65	-31.0	-31.6	27.0	0.00e+00	0	28	0	1033895936	36	5468
2026-01-17 16:49:52.90	22.82	20.17	-30.8	-31.4	27.2	0.00e+00	0	28	0	1056964608	36	5358
2026-01-17 16:49:56.94	22.87	20.71	-30.7	-31.3	27.3	0.00e+00	0	28	0	1080033280	34	5922
2026-01-17 16:50:00.99	22.91	21.26	-30.6	-31.2	27.4	0.00e+00	0	29	0	1102053376	34	5884
2026-01-17 16:50:05.03	22.96	21.82	-30.8	-31.4	27.2	0.00e+00	0	29	0	1125122048	34	6028
2026-01-17 16:50:09.07	23.01	22.39	-30.8	-31.4	27.3	0.00e+00	0	29	0	1148190720	34	5996
2026-01-17 16:50:13.11	23.06	22.97	-30.8	-31.4	27.3	0.00e+00	0	29	0	1170210816	34	5988
2026-01-17 16:50:17.15	23.12	23.57	-30.5	-31.1	27.4	0.00e+00	0	28	0	1193279488	34	5805
2026-01-17 16:50:21.19	23.17	24.19	-30.2	-30.8	27.7	0.00e+00	0	28	0	1216348160	34	5590
2026-01-17 16:50:25.23	23.23	24.82	-30.1	-30.6	27.8	0.00e+00	0	28	0	1239416832	34	5500
2026-01-17 16:50:29.27	23.28	25.46	-29.9	-30.5	27.9	0.00e+00	0	29	0	1261436928	34	5423
2026-01-17 16:50:33.32	23.34	26.12	-30.0	-30.6	27.9	0.00e+00	0	28	0	1284505600	34	5479
2026-01-17 16:50:37.36	23.40	26.80	-29.8	-30.4	27.9	0.00e+00	0	29	0	1306525696	34	5344
2026-01-17 16:50:41.40	23.47	27.49	-30.0	-30.6	27.9	0.00e+00	0	28	0	1329594368	34	5501
2026-01-17 16:50:45.44	23.53	28.20	-30.0	-30.6	27.9	0.00e+00	0	29	0	1352663040	34	5492
2026-01-17 16:50:49.48	23.60	28.93	-30.4	-31.0	27.6	0.00e+00	0	28	0	1375731712	34	5705
2026-01-17 16:50:53.52	23.67	29.68	-30.2	-30.8	27.8	0.00e+00	0	28	0	1397751808	34	5571
2026-01-17 16:50:57.57	23.74	30.46	-29.9	-30.5	28.0	0.00e+00	0	29	0	1420820480	34	5393
2026-01-17 16:51:01.61	23.81	31.25	-29.7	-30.3	28.2	0.00e+00	0	29	0	1443889152	32	5922
2026-01-17 16:51:05.65	23.89	32.06	-30.0	-30.6	28.0	0.00e+00	0	28	0	1465909248	32	6128
2026-01-17 16:51:09.70	23.97	32.90	-30.0	-30.7	27.9	0.00e+00	0	28	0	1488977920	32	6180
2026-01-17 16:51:13.74	24.05	33.76	-29.9	-30.5	28.0	0.00e+00	0	28	0	1512046592	32	6084
2026-01-17 16:51:17.78	24.14	34.65	-29.9	-30.5	28.1	0.00e+00	0	29	0	1534066688	32	6066
2026-01-17 16:51:21.82	24.23	35.56	-29.9	-30.6	28.0	0.00e+00	0	28	0	1557135360	32	6116
2026-01-17 16:51:25.86	24.33	36.50	-29.3	-29.9	28.5	0.00e+00	0	29	0	1580204032	32	5660
2026-01-17 16:51:29.90	24.43	37.46	-29.2	-29.9	28.6	0.00e+00	0	29	0	1602224128	32	5634
2026-01-17 16:51:33.94	24.54	38.46	-29.4	-30.0	28.4	0.00e+00	0	28	0	1625292800	32	5741
2026-01-17 16:51:37.98	24.65	39.49	-29.2	-29.8	28.6	0.00e+00	0	29	0	1648361472	32	5590
2026-01-17 16:51:42.02	24.77	40.54	-29.6	-30.2	28.3	0.00e+00	0	28	0	1670381568	32	5853
2026-01-17 16:51:46.06	24.89	41.63	-29.9	-30.5	28.1	0.00e+00	0	29	0	1693450240	32	6064
2026-01-17 16:51:50.10	25.02	42.75	-29.7	-30.3	28.1	0.00e+00	0	28	0	1716518912	32	5945
2026-01-17 16:51:54.15	25.17	43.91	-29.7	-30.3	28.1	0.00e+00	0	29	0	1738539008	32	5956
2026-01-17 16:51:58.19	25.32	45.11	-30.2	-30.8	27.8	0.00e+00	0	29	0	1761607680	32	6311
2026-01-17 16:52:02.23	25.48	46.34	-30.2	-30.8	27.8	0.00e+00	0	29	0	1784676352	32	6306
2026-01-17 16:52:06.27	25.65	47.60	-30.4	-31.1	27.6	0.00e+00	0	29	0	1807745024	32	6478
2026-01-17 16:52:10.31	25.84	48.91	-30.1	-30.7	27.8	0.00e+00	0	29	0	1829765120	32	6208
2026-01-17 16:52:14.35	26.04	50.26	-30.4	-31.0	27.6	0.00e+00	0	29	0	1852833792	32	6431
2026-01-17 16:52:18.40	26.26	51.65	-30.5	-31.1	27.5	0.00e+00	0	29	0	1875902464	32	6517
2026-01-17 16:52:22.44	26.51	53.07	-30.2	-30.8	27.8	0.00e+00	0	29	0	1897922560	34	5575
2026-01-17 16:52:26.48	26.77	54.54	-31.5	-32.2	26.7	0.00e+00	0	29	0	1920991232	34	6563
2026-01-17 16:52:30.52	27.06	56.06	-31.0	-31.7	27.2	0.00e+00	0	29	0	1943011328	34	6174
2026-01-17 16:52:34.56	27.39	57.61	-31.3	-31.9	27.0	0.00e+00	0	29	0	1966080000	34	6356
2026-01-17 16:52:38.60	27.75	59.20	-30.2	-30.8	27.8	0.00e+00	0	29	0	1989148672	34	5600
2026-01-17 16:52:42.64	28.16	60.84	-29.8	-30.4	28.1	0.00e+00	0	29	0	2012217344	34	5346
2026-01-17 16:52:46.68	28.62	62.52	-29.7	-30.3	28.0	0.00e+00	0	29	0	2034237440	32	5943
2026-01-17 16:52:50.72	29.15	64.24	-29.1	-29.6	28.6	0.00e+00	0	28	0	2057306112	32	5502
2026-01-17 16:52:54.76	29.76	66.00	-29.6	-30.2	28.3	0.00e+00	0	29	0	2080374784	32	5841
2026-01-17 16:52:58.80	30.48	67.80	-29.1	-29.7	28.7	0.00e+00	0	28	0	2102394880	32	5516
2026-01-17 16:53:02.85	31.34	69.63	-28.6	-29.2	28.9	0.00e+00	0	29	0	2125463552	30	5891
2026-01-17 16:53:06.88	32.38	71.49	-29.1	-29.7	28.6	0.00e+00	0	28	0	2148532224	30	6184
2026-01-17 16:53:10.92	33.67	73.37	-28.5	-29.1	29.1	0.00e+00	0	29	0	2170552320	30	5815
2026-01-17 16:53:14.96	35.30	75.28	-28.0	-28.6	29.4	0.00e+00	0	28	0	2193620992	30	5485
2026-01-17 16:53:19.00	37.44	77.21	-27.9	-28.5	29.5	0.00e+00	0	28	0	2216689664	30	5393
2026-01-17 16:53:23.04	40.35	79.13	-27.1	-27.7	29.9	0.00e+00	0	28	0	2238709760	28	5523
2026-01-17 16:53:27.09	44.54	81.04	-27.0	-27.6	30.0	0.00e+00	0	29	0	2261778432	28	5467
2026-01-17 16:53:31.13	50.97	82.89	-27.0	-27.5	30.0	0.00e+00	0	28	0	2284847104	26	6091
2026-01-17 16:53:35.17	61.71	84.60	-27.1	-27.7	29.9	0.00e+00	0	29	0	2306867200	26	6187
2026-01-17 16:53:39.22	81.02	85.97	-27.3	-27.8	29.8	0.00e+00	0	29	0	2329935872	26	6305
2026-01-17 16:53:43.25	112.04	86.55	-27.3	-27.8	29.7	0.00e+00	0	29	0	2353004544	26	6295
2026-01-17 16:53:47.30	143.21	85.97	-27.4	-28.0	29.6	0.00e+00	0	29	0	2375024640	26	6433
2026-01-17 16:53:51.34	162.45	84.60	-27.0	-27.6	30.0	0.00e+00	0	28	0	2398093312	26	6152
2026-01-17 16:53:55.38	173.20	82.88	-27.2	-27.8	29.8	0.00e+00	0	29	0	2421161984	26	6303
2026-01-17 16:53:59.42	179.62	81.03	-27.2	-27.7	29.9	0.00e+00	0	29	0	2443182080	26	6236
2026-01-17 16:54:03.46	183.81	79.13	-27.5	-28.0	29.8	0.00e+00	0	29	0	2466250752	26	6439
2026-01-17 16:54:07.50	186.72	77.20	-28.2	-28.8	29.3	0.00e+00	0	29	0	2489319424	28	6280
2026-01-17 16:54:11.54	188.86	75.28	-27.7	-28.3	29.4	0.00e+00	0	28	0	2511339520	28	5917
2026-01-17 16:54:15.59	190.50	73.36	-28.3	-28.9	29.1	0.00e+00	0	29	0	2534408192	28	6329
2026-01-17 16:54:19.62	191.78	71.48	-28.5	-29.0	29.0	0.00e+00	0	29	0	2557476864	28	6455
2026-01-17 16:54:23.66	192.82	69.61	-28.7	-29.3	28.9	0.00e+00	0	29	0	2579496960	28	6641
2026-01-17 16:54:27.70	193.68	67.78	-29.2	-29.8	28.5	0.00e+00	0	29	0	2602565632	30	6287
2026-01-17 16:54:31.74	194.40	65.98	-29.2	-29.8	28.6	0.00e+00	0	29	0	2625634304	30	6268
2026-01-17 16:54:35.78	195.01	64.22	-28.9	-29.5	28.8	0.00e+00	0	29	0	2648702976	30	6095
2026-01-17 16:54:39.82	195.54	62.49	-29.1	-29.7	28.6	0.00e+00	0	29	0	2670723072	30	6213
2026-01-17 16:54:43.86	196.01	60.81	-29.3	-29.8	28.5	0.00e+00	0	29	0	2693791744	30	6314
2026-01-17 16:54:47.90	196.41	59.17	-29.7	-30.3	28.2	0.00e+00	0	28	0	2715811840	30	6676
2026-01-17 16:54:51.94	196.78	57.57	-30.4	-31.0	27.5	0.00e+00	0	29	0	2738880512	32	6407
2026-01-17 16:54:55.99	197.10	56.01	-30.4	-31.0	27.4	0.00e+00	0	29	0	2761949184	32	6411
2026-01-17 16:55:00.03	197.39	54.49	-30.7	-31.2	27.3	0.00e+00	0	29	0	2785017856	34	5865
2026-01-17 16:55:04.07	197.65	53.02	-30.7	-31.4	27.4	0.00e+00	0	29	0	2807037952	34	5999
2026-01-17 16:55:08.11	197.89	51.59	-30.0	-30.5	28.1	0.00e+00	0	29	0	2830106624	34	5415
2026-01-17 16:55:12.15	198.11	50.19	-29.6	-30.2	28.2	0.00e+00	0	29	0	2853175296	32	5843
2026-01-17 16:55:16.19	198.32	48.84	-29.7	-30.2	28.2	0.00e+00	0	29	0	2875195392	32	5878
2026-01-17 16:55:20.23	198.50	47.53	-29.8	-30.4	28.1	0.00e+00	0	29	0	2898264064	32	5971
2026-01-17 16:55:24.27	198.68	46.26	-29.5	-30.0	28.3	0.00e+00	0	29	0	2921332736	32	5758
2026-01-17 16:55:28.31	198.84	45.03	-29.6	-30.2	28.2	0.00e+00	0	28	0	2943352832	32	5844
2026-01-17 16:55:32.35	198.99	43.83	-29.5	-30.0	28.3	0.00e+00	0	29	0	2966421504	32	5712
2026-01-17 16:55:36.39	199.13	42.67	-29.7	-30.2	28.1	0.00e+00	0	29	0	2989490176	32	5877
2026-01-17 16:55:40.44	199.26	41.54	-29.6	-30.2	28.2	0.00e+00	0	29	0	3011510272	32	5838
2026-01-17 16:55:44.48	199.38	40.45	-29.3	-29.8	28.4	0.00e+00	0	29	0	3034578944	32	5620
2026-01-17 16:55:48.52	199.50	39.39	-29.2	-29.8	28.5	0.00e+00	0	29	0	3057647616	32	5570
2026-01-17 16:55:52.56	199.61	38.36	-29.0	-29.5	28.7	0.00e+00	0	29	0	3079667712	32	5409
2026-01-17 16:55:56.61	199.72	37.36	-28.9	-29.5	28.8	0.00e+00	0	29	0	3102736384	32	5419
2026-01-17 16:56:00.65	199.82	36.39	-29.1	-29.7	28.6	0.00e+00	0	29	0	3125805056	32	5507
2026-01-17 16:56:04.69	199.91	35.45	-29.1	-29.8	28.5	0.00e+00	0	29	0	3147825152	32	5603
2026-01-17 16:56:08.73	200.00	34.54	-28.8	-29.3	28.9	0.00e+00	0	29	0	3170893824	30	5945
2026-01-17 16:56:12.77	200.09	33.65	-29.3	-29.8	28.4	0.00e+00	0	29	0	3193962496	30	6299
2026-01-17 16:56:16.81	200.17	32.79	-29.8	-30.3	28.1	0.00e+00	0	29	0	3215982592	32	5944
2026-01-17 16:56:20.85	200.25	31.95	-30.0	-30.5	27.9	0.00e+00	0	29	0	3239051264	32	6093
2026-01-17 16:56:24.90	200.33	31.13	-29.7	-30.3	28.2	0.00e+00	0	29	0	3262119936	32	5953
2026-01-17 16:56:28.94	200.40	30.33	-29.6	-30.1	28.2	0.00e+00	0	29	0	3285188608	32	5816
2026-01-17 16:56:32.98	200.47	29.56	-29.6	-30.1	28.3	0.00e+00	0	29	0	3307208704	32	5777
2026-01-17 16:56:37.03	200.54	28.81	-29.9	-30.4	28.1	0.00e+00	0	29	0	3330277376	32	6012
2026-01-17 16:56:41.06	200.60	28.08	-29.9	-30.4	28.0	0.00e+00	0	29	0	3352297472	32	6005
2026-01-17 16:56:45.11	200.66	27.36	-29.8	-30.3	28.1	0.00e+00	0	29	0	3375366144	32	5903
2026-01-17 16:56:49.15	200.72	26.67	-29.4	-30.1	28.3	0.00e+00	0	29	0	3398434816	32	5780
2026-01-17 16:56:53.19	200.78	25.99	-29.7	-30.3	28.1	0.00e+00	0	29	0	3421503488	32	5963
2026-01-17 16:56:57.23	200.84	25.33	-30.1	-30.7	27.9	0.00e+00	0	29	0	3443523584	32	6243
2026-01-17 16:57:01.27	200.90	24.68	-30.1	-30.8	27.8	0.00e+00	0	29	0	3466592256	32	6256
2026-01-17 16:57:05.32	200.95	24.05	-30.2	-30.9	27.7	0.00e+00	0	29	0	3489660928	32	6340
2026-01-17 16:57:09.36	201.00	23.43	-30.3	-31.0	27.7	0.00e+00	0	29	0	3511681024	32	6399
2026-01-17 16:57:13.40	201.05	22.83	-30.5	-31.2	27.5	0.00e+00	0	29	0	3534749696	32	6579
2026-01-17 16:57:17.44	201.10	22.25	-30.7	-31.4	27.4	0.00e+00	0	29	0	3557818368	34	5976
2026-01-17 16:57:21.48	201.15	21.67	-30.7	-31.4	27.2	0.00e+00	0	29	0	3579838464	34	6004
2026-01-17 16:57:25.52	201.20	21.11	-30.9	-31.5	27.2	0.00e+00	0	29	0	3602907136	34	6061
2026-01-17 16:57:29.55	201.24	20.56	-31.0	-31.6	27.1	0.00e+00	0	29	0	3625975808	34	6131
2026-01-17 16:57:33.60	201.29	20.03	-31.2	-31.7	26.9	0.00e+00	0	29	0	3647995904	34	6221
2026-01-17 16:57:37.64	201.33	19.50	-31.1	-31.7	27.0	0.00e+00	0	29	0	3671064576	34	6195
2026-01-17 16:57:41.68	201.37	18.99	-31.1	-31.6	27.0	0.00e+00	0	29	0	3694133248	34	6151
2026-01-17 16:57:45.72	201.41	18.48	-31.4	-32.0	26.6	0.00e+00	0	29	0	3716153344	34	6409
2026-01-17 16:57:49.76	201.45	17.99	-31.5	-32.0	26.7	0.00e+00	0	29	0	3739222016	34	6447
2026-01-17 16:57:53.81	201.49	17.50	-31.7	-32.3	26.5	0.00e+00	0	29	0	3762290688	34	6617
2026-01-17 16:57:57.85	201.53	17.03	-31.9	-32.5	26.3	0.00e+00	0	29	0	3784310784	36	6038
2026-01-17 16:58:01.89	201.57	16.56	-32.1	-32.6	26.2	0.00e+00	0	29	0	3807379456	36	6168
2026-01-17 16:58:05.93	201.61	16.10	-32.4	-33.2	25.8	0.00e+00	0	29	0	3830448128	36	6550
2026-01-17 16:58:09.97	201.64	15.65	-32.3	-33.0	25.9	0.00e+00	0	29	0	3852468224	36	6464
2026-01-17 16:58:14.01	201.68	15.21	-32.4	-33.0	25.8	0.00e+00	0	29	0	3875536896	36	6400
2026-01-17 16:58:18.05	201.72	14.78	-32.4	-33.0	25.8	0.00e+00	0	29	0	3898605568	36	6434
2026-01-17 16:58:22.10	201.75	14.35	-32.8	-33.4	25.5	0.00e+00	0	29	0	3921674240	36	6704
2026-01-17 16:58:26.14	201.79	13.94	-32.6	-33.2	25.6	0.00e+00	0	29	0	3943694336	38	5834
2026-01-17 16:58:30.18	201.82	13.53	-32.7	-33.2	25.6	0.00e+00	0	29	0	3966763008	38	5892
2026-01-17 16:58:34.22	201.85	13.12	-32.8	-33.5	25.5	0.00e+00	0	29	0	3988783104	38	6082
2026-01-17 16:58:38.27	201.88	12.72	-32.9	-33.5	25.3	0.00e+00	0	29	0	4011851776	38	6052
2026-01-17 16:58:42.31	201.92	12.33	-33.0	-33.6	25.3	0.00e+00	0	29	0	4034920448	38	6128
2026-01-17 16:58:46.35	201.95	11.95	-33.1	-33.7	25.1	0.00e+00	0	29	0	4057989120	38	6188
2026-01-17 16:58:50.39	201.98	11.57	-33.2	-33.8	25.1	0.00e+00	0	29	0	4080009216	38	6248
2026-01-17 16:58:54.43	202.01	11.20	-33.4	-34.0	24.8	0.00e+00	0	29	0	4103077888	38	6427
2026-01-17 16:58:58.48	202.04	10.83	-33.5	-34.1	24.7	0.00e+00	0	29	0	4126146560	38	6487
2026-01-17 16:59:02.51	202.07	10.47	-33.4	-34.0	24.8	0.00e+00	0	29	0	4148166656	40	5751
2026-01-17 16:59:06.56	202.10	10.11	-33.4	-34.0	24.8	0.00e+00	0	29	0	4171235328	40	5730
2026-01-17 16:59:10.60	202.13	9.76	-33.6	-34.4	24.6	0.00e+00	0	29	0	4194304000	40	5981
2026-01-17 16:59:14.64	202.16	9.41	-33.7	-34.3	24.6	0.00e+00	0	29	0	4216324096	40	5919
2026-01-17 16:59:18.68	202.18	9.07	-33.9	-34.7	24.3	0.00e+00	0	29	0	4239392768	40	6205
2026-01-17 16:59:22.72	202.21	8.73	-33.8	-34.5	24.3	0.00e+00	0	29	0	4262461440	40	6039
2026-01-17 16:59:26.76	202.24	8.40	-34.0	-34.6	24.1	0.00e+00	0	29	0	4284481536	40	6152
2026-01-17 16:59:30.80	202.27	8.07	-34.2	-34.8	24.0	0.00e+00	0	29	0	4307550208	40	6312
2026-01-17 16:59:34.85	202.29	7.75	-34.3	-34.9	23.8	0.00e+00	0	29	0	4330618880	40	6352
2026-01-17 16:59:38.89	202.32	7.43	-34.4	-35.2	23.7	0.00e+00	0	29	0	4352638976	40	6545
2026-01-17 16:59:42.94	202.35	7.11	-34.7	-35.5	23.3	0.00e+00	0	29	0	4375707648	40	6772
2026-01-17 16:59:46.98	202.37	6.80	-34.6	-35.3	23.4	0.00e+00	0	29	0	4398776320	40	6635
2026-01-17 16:59:51.02	202.40	6.49	-34.8	-35.5	23.1	0.00e+00	0	29	0	4420796416	42	6047
2026-01-17 16:59:55.07	202.42	6.18	-35.3	-36.2	22.7	0.00e+00	0	29	0	4443865088	42	6562
2026-01-17 16:59:59.11	202.45	5.88	-35.2	-35.9	22.7	0.00e+00	0	29	0	4466933760	42	6357
2026-01-17 17:00:03.15	202.47	5.58	-35.1	-36.0	22.8	0.00e+00	0	29	0	4490002432	42	6404
2026-01-17 17:00:07.19	202.50	5.29	-35.2	-35.9	22.7	0.00e+00	0	29	0	4512022528	42	6383
2026-01-17 17:00:11.23	202.52	5.00	-35.3	-36.2	22.4	0.00e+00	0	29	0	4535091200	42	6548
2026-01-17 17:00:15.27	202.55	4.71	-35.6	-36.4	22.3	0.00e+00	0	29	0	4557111296	44	6019
2026-01-17 17:00:19.32	202.57	4.42	-35.7	-36.6	21.9	0.00e+00	0	29	0	4580179968	44	6146
2026-01-17 17:00:23.36	202.59	4.14	-36.2	-36.9	21.4	0.00e+00	0	29	0	4603248640	44	6373
2026-01-17 17:00:27.40	202.62	3.86	-36.1	-37.0	21.5	0.00e+00	0	29	0	4626317312	44	6437
2026-01-17 17:00:31.44	202.64	3.59	-36.0	-36.8	21.5	0.00e+00	0	29	0	4648337408	44	6272
2026-01-17 17:00:35.49	202.66	3.31	-36.6	-37.4	20.9	0.00e+00	0	29	0	4671406080	44	6757
2026-01-17 17:00:39.53	202.69	3.04	-36.8	-37.7	20.4	0.00e+00	0	29	0	4694474752	46	6239
2026-01-17 17:00:43.57	202.71	2.77	-48.4	-60.5	3.6	8.46e-01	0	29	104	4699717632	60	38360
2026-01-17 17:00:47.61	202.73	2.51	-48.6	-60.9	3.6	8.46e-01	0	29	104	4699717632	60	39892
2026-01-17 17:00:51.65	202.76	2.24	-48.5	-60.7	3.6	8.46e-01	0	29	104	4699717632	60	39347
2026-01-17 17:00:55.69	202.78	1.98	-48.5	-60.6	3.6	8.45e-01	0	29	104	4699717632	60	38949
2026-01-17 17:00:59.73	202.80	1.73	-48.7	-60.7	3.6	8.45e-01	0	29	104	4699717632	60	39323
2026-01-17 17:01:03.77	202.82	1.47	-48.6	-60.7	3.6	8.45e-01	0	29	104	4699717632	60	39315
2026-01-17 17:01:07.81	202.84	1.22	-48.6	-60.8	3.6	8.46e-01	0	29	104	4699717632	60	39553
2026-01-17 17:01:11.85	202.86	0.96	-48.6	-60.7	3.6	8.45e-01	0	29	104	4699717632	60	39258
2026-01-17 17:01:15.89	202.89	0.71	-48.6	-60.8	3.6	8.45e-01	0	29	104	4699717632	60	39427
2026-01-17 17:01:19.94	202.91	0.47	-48.6	-60.7	3.6	8.47e-01	0	29	104	4699717632	60	39155
2026-01-17 17:01:23.98	202.93	0.22	-48.6	-60.7	3.6	8.45e-01	0	29	104	4699717632	60	39213
2026-01-17 17:01:28.02	202.95	-0.02	-48.6	-60.7	3.6	8.45e-01	0	29	104	4699717632	60	39349

#Closed at: 2026-01-17 17:01:29
#Recorded file [4699 MB]: D:/lorett/data/35029_260118_044558.dat