passes_logs/2026/01/17/R4.6S_Anadyr/R4.6S_Anadyr__20260117_224522_TY-42_rec.log

#Pass ID: 20260117_224522_TY-42
#Satellite: TY-42
#Configuration: TY-42_900M
#almurnet v.1.7.20251203
#Start time: 2026-01-17 22:45:54

#Version: 2.2.20231116
#Station: R4.6S_Anadyr
#Location: 177.4865 lon 64.73178 lat
#TLE: 1 64048U 25103A   26017.54141204  .00008008  00000-0  38191-3 0 09991
#TLE: 2 64048 097.4124 092.9111 0001919 092.8629 297.5859 15.19160543 37202

#Time	Az	El	Level	Level2	SNR	BER	BlckErr	Temp	State	Recorded	gain1	gain2
2026-01-17 22:45:54.59	20.55	2.05	-48.8	-63.6	3.5	1.51e+00	0	29	0	0	60	55004
2026-01-17 22:45:57.61	20.70	2.25	-47.7	-50.2	6.1	0.00e+00	0	31	104	0	60	39654
2026-01-17 22:46:00.64	20.84	2.46	-47.7	-50.2	6.1	0.00e+00	0	31	104	0	60	39532
2026-01-17 22:46:03.67	21.00	2.66	-47.7	-50.2	6.1	0.00e+00	0	31	104	0	60	39639
2026-01-17 22:46:06.70	21.15	2.87	-47.7	-50.2	6.1	0.00e+00	0	31	104	0	60	39547
2026-01-17 22:46:09.73	21.30	3.08	-47.7	-50.2	6.1	0.00e+00	0	31	104	0	60	39722
2026-01-17 22:46:12.76	21.46	3.30	-47.7	-50.2	6.1	0.00e+00	0	31	104	0	60	39639
2026-01-17 22:46:15.79	21.63	3.51	-30.4	-30.8	14.6	0.00e+00	0	31	0	50331648	36	16891
2026-01-17 22:46:18.82	21.79	3.73	-29.2	-29.6	15.0	4.51e-03	0	32	0	394264576	34	16580
2026-01-17 22:46:21.85	21.96	3.95	-34.7	-35.1	12.3	2.97e-02	0	32	0	738197504	42	19614
2026-01-17 22:46:24.88	22.13	4.18	-47.4	-49.7	6.1	5.26e-02	0	32	104	1048576000	60	37311
2026-01-17 22:46:27.91	22.30	4.40	-30.4	-30.7	12.9	0.00e+00	1326	32	104	1124073472	38	14841
2026-01-17 22:46:30.94	22.48	4.63	-29.4	-29.8	15.2	5.02e-02	0	32	0	1451229184	34	16993
2026-01-17 22:46:33.97	22.66	4.86	-29.1	-29.5	15.2	5.50e-03	0	32	0	1795162112	34	16416
2026-01-17 22:46:36.99	22.84	5.09	-29.1	-29.5	15.3	4.27e-03	0	32	0	2130706432	32	18293
2026-01-17 22:46:40.02	23.02	5.32	-28.8	-29.2	15.4	3.80e-03	0	32	0	2474639360	32	17659
2026-01-17 22:46:43.05	23.21	5.56	-28.2	-28.6	15.7	2.04e-03	0	32	0	2818572288	32	16573
2026-01-17 22:46:46.08	23.41	5.80	-28.1	-28.5	15.7	1.45e-03	0	32	0	3154116608	32	16350
2026-01-17 22:46:49.11	23.61	6.04	-27.8	-28.1	15.8	1.08e-03	0	33	0	3498049536	32	15663
2026-01-17 22:46:52.13	23.81	6.28	-27.8	-28.1	15.9	8.88e-04	0	32	0	3833593856	30	17598
2026-01-17 22:46:55.16	24.01	6.53	-27.6	-28.0	16.0	6.54e-04	0	33	0	4177526784	30	17301
2026-01-17 22:46:58.19	24.22	6.78	-27.6	-27.9	16.0	5.01e-04	0	33	0	4513071104	30	17129
2026-01-17 22:47:01.22	24.43	7.04	-27.6	-27.9	16.0	5.12e-04	0	33	0	4857004032	30	17194
2026-01-17 22:47:04.25	24.65	7.29	-27.5	-27.8	16.0	4.85e-04	0	33	0	5192548352	30	16989
2026-01-17 22:47:07.28	24.87	7.56	-27.1	-27.5	16.2	3.00e-04	0	33	0	5536481280	30	16335
2026-01-17 22:47:10.30	25.10	7.82	-27.0	-27.4	16.2	2.29e-04	0	33	0	5880414208	30	16066
2026-01-17 22:47:13.33	25.33	8.09	-26.6	-27.0	16.3	2.62e-04	0	33	0	6215958528	28	17243
2026-01-17 22:47:16.36	25.57	8.36	-26.7	-27.1	16.3	1.85e-04	0	33	0	6559891456	28	17465
2026-01-17 22:47:19.39	25.81	8.63	-26.6	-27.0	16.3	1.36e-04	0	33	0	6903824384	28	17269
2026-01-17 22:47:22.42	26.06	8.91	-26.4	-26.8	16.4	8.17e-05	0	33	0	7239368704	28	16844
2026-01-17 22:47:25.45	26.31	9.19	-26.1	-26.5	16.5	3.81e-05	0	33	0	7583301632	28	16323
2026-01-17 22:47:28.48	26.57	9.47	-26.2	-26.6	16.4	5.99e-05	0	33	0	7927234560	28	16530
2026-01-17 22:47:31.51	26.84	9.76	-25.8	-26.3	16.5	5.99e-05	0	33	0	8262778880	28	15883
2026-01-17 22:47:34.54	27.11	10.06	-25.6	-26.1	16.6	4.90e-05	0	33	0	8606711808	26	17414
2026-01-17 22:47:37.57	27.39	10.35	-25.5	-25.9	16.6	2.72e-05	0	33	0	8950644736	26	17201
2026-01-17 22:47:40.60	27.67	10.66	-25.4	-25.9	16.5	4.35e-05	0	33	0	9294577664	26	17015
2026-01-17 22:47:43.64	27.96	10.96	-25.3	-25.7	16.6	3.81e-05	0	34	0	9630121984	26	16718
2026-01-17 22:47:46.66	28.26	11.27	-25.1	-25.5	16.7	0.00e+00	0	34	0	9974054912	26	16392
2026-01-17 22:47:49.69	28.57	11.59	-24.9	-25.3	16.7	1.08e-05	0	33	0	10309599232	26	15959
2026-01-17 22:47:52.72	28.88	11.91	-25.0	-25.4	16.6	1.08e-05	0	34	0	10653532160	26	16067
2026-01-17 22:47:55.75	29.20	12.23	-24.7	-25.1	16.6	1.08e-05	0	34	0	10997465088	24	17510
2026-01-17 22:47:58.79	29.54	12.57	-24.8	-25.2	16.7	2.72e-05	0	34	0	11333009408	24	17768
2026-01-17 22:48:01.81	29.87	12.90	-24.6	-25.0	16.8	5.40e-06	0	34	0	11676942336	24	17272
2026-01-17 22:48:04.84	30.22	13.24	-24.4	-24.8	16.9	0.00e+00	0	34	0	12012486656	24	16821
2026-01-17 22:48:07.87	30.58	13.59	-24.4	-24.8	16.9	0.00e+00	0	34	0	12356419584	24	16851
2026-01-17 22:48:10.90	30.95	13.94	-24.5	-24.9	16.9	0.00e+00	0	34	0	12700352512	24	17072
2026-01-17 22:48:13.94	31.32	14.30	-23.9	-24.3	16.9	1.08e-05	0	34	0	13035896832	24	15999
2026-01-17 22:48:16.96	31.71	14.66	-23.8	-24.2	17.0	5.40e-06	0	34	0	13379829760	22	17740
2026-01-17 22:48:19.99	32.11	15.03	-23.7	-24.2	17.0	5.40e-06	0	34	0	13715374080	22	17614
2026-01-17 22:48:23.02	32.52	15.41	-23.7	-24.1	17.0	0.00e+00	0	34	0	14059307008	22	17578
2026-01-17 22:48:26.06	32.95	15.79	-23.6	-24.0	17.1	0.00e+00	0	34	0	14403239936	22	17371
2026-01-17 22:48:29.09	33.38	16.18	-23.5	-23.9	17.0	0.00e+00	0	34	0	14738784256	22	17059
2026-01-17 22:48:32.12	33.83	16.58	-23.3	-23.7	17.0	0.00e+00	0	34	0	15082717184	22	16682
2026-01-17 22:48:35.15	34.29	16.98	-23.0	-23.4	17.1	0.00e+00	0	34	0	15426650112	22	16155
2026-01-17 22:48:38.18	34.77	17.39	-22.9	-23.3	17.0	0.00e+00	0	34	0	15762194432	22	16008
2026-01-17 22:48:41.22	35.26	17.81	-22.8	-23.2	17.0	0.00e+00	0	34	0	16106127360	20	17805
2026-01-17 22:48:44.25	35.77	18.23	-22.5	-22.9	17.2	0.00e+00	0	34	0	16441671680	20	17059
2026-01-17 22:48:47.28	36.29	18.66	-22.3	-22.8	17.1	0.00e+00	0	34	0	16785604608	20	16842
2026-01-17 22:48:50.31	36.83	19.10	-22.2	-22.6	17.2	0.00e+00	0	34	0	17129537536	20	16563
2026-01-17 22:48:53.34	37.39	19.55	-21.9	-22.3	17.3	0.00e+00	0	34	0	17473470464	20	16011
2026-01-17 22:48:56.37	37.97	20.01	-21.9	-22.4	17.2	0.00e+00	0	34	0	17809014784	20	16079
2026-01-17 22:48:59.40	38.57	20.47	-21.8	-22.3	17.3	0.00e+00	0	34	0	18152947712	20	15895
2026-01-17 22:49:02.43	39.18	20.94	-21.8	-22.3	17.2	0.00e+00	0	34	0	18496880640	18	17814
2026-01-17 22:49:05.46	39.82	21.42	-21.4	-21.8	17.3	0.00e+00	0	34	0	18832424960	18	16957
2026-01-17 22:49:08.49	40.48	21.91	-21.2	-21.6	17.3	0.00e+00	0	34	0	19176357888	18	16523
2026-01-17 22:49:11.53	41.17	22.41	-21.0	-21.5	17.3	0.00e+00	0	34	0	19520290816	18	16313
2026-01-17 22:49:14.56	41.88	22.91	-21.0	-21.4	17.3	0.00e+00	0	34	0	19864223744	18	16190
2026-01-17 22:49:17.59	42.62	23.42	-20.6	-21.1	17.4	0.00e+00	0	34	0	20199768064	16	17452
2026-01-17 22:49:20.62	43.38	23.94	-20.5	-20.9	17.4	0.00e+00	0	34	0	20543700992	16	17153
2026-01-17 22:49:23.65	44.17	24.47	-20.6	-21.0	17.3	0.00e+00	0	34	0	20887633920	16	17374
2026-01-17 22:49:26.68	44.99	25.01	-20.0	-20.5	17.4	0.00e+00	0	34	0	21223178240	16	16282
2026-01-17 22:49:29.71	45.84	25.55	-19.9	-20.3	17.4	0.00e+00	0	34	0	21567111168	16	15943
2026-01-17 22:49:32.74	46.73	26.10	-19.7	-20.1	17.4	0.00e+00	0	34	0	21902655488	14	17514
2026-01-17 22:49:35.77	47.65	26.66	-19.4	-19.9	17.4	0.00e+00	0	34	0	22246588416	14	17012
2026-01-17 22:49:38.81	48.60	27.23	-19.4	-19.9	17.5	0.00e+00	0	34	0	22590521344	14	17024
2026-01-17 22:49:41.84	49.60	27.80	-19.0	-19.4	17.5	0.00e+00	0	34	0	22926065664	14	16228
2026-01-17 22:49:44.87	50.63	28.38	-18.8	-19.2	17.5	0.00e+00	0	34	0	23269998592	12	17726
2026-01-17 22:49:47.90	51.70	28.96	-18.5	-19.0	17.5	0.00e+00	0	34	0	23605542912	12	17262
2026-01-17 22:49:50.93	52.82	29.54	-18.4	-18.9	17.5	0.00e+00	0	34	0	23949475840	12	17072
2026-01-17 22:49:53.96	53.98	30.13	-18.2	-18.6	17.4	0.00e+00	0	35	0	24293408768	12	16576
2026-01-17 22:49:56.98	55.18	30.72	-18.1	-18.6	17.5	0.00e+00	0	35	0	24628953088	12	16521
2026-01-17 22:50:00.01	56.43	31.31	-17.8	-18.2	17.5	0.00e+00	0	34	0	24972886016	10	17688
2026-01-17 22:50:03.04	57.74	31.90	-17.6	-18.0	17.6	0.00e+00	0	34	0	25308430336	10	17327
2026-01-17 22:50:06.07	59.09	32.49	-17.4	-17.8	17.5	0.00e+00	0	34	0	25652363264	10	16965
2026-01-17 22:50:09.09	60.49	33.08	-17.3	-17.7	17.6	0.00e+00	0	34	0	25987907584	10	16783
2026-01-17 22:50:12.12	61.96	33.66	-17.2	-17.7	17.6	0.00e+00	0	34	0	26331840512	10	16621
2026-01-17 22:50:15.15	63.48	34.23	-17.0	-17.4	17.6	0.00e+00	0	35	0	26675773440	10	16194
2026-01-17 22:50:18.18	65.05	34.79	-16.8	-17.2	17.7	0.00e+00	0	34	0	27011317760	8	17739
2026-01-17 22:50:21.21	66.68	35.34	-16.8	-17.2	17.6	0.00e+00	0	34	0	27355250688	8	17756
2026-01-17 22:50:24.24	68.38	35.88	-16.7	-17.1	17.7	0.00e+00	0	35	0	27699183616	8	17511
2026-01-17 22:50:27.27	70.13	36.40	-16.4	-16.8	17.7	0.00e+00	0	35	0	28043116544	8	17002
2026-01-17 22:50:30.30	71.94	36.90	-16.3	-16.8	17.6	0.00e+00	0	34	0	28378660864	8	16880
2026-01-17 22:50:33.33	73.80	37.37	-16.3	-16.8	17.7	0.00e+00	0	35	0	28722593792	8	16859
2026-01-17 22:50:36.36	75.72	37.82	-16.0	-16.5	17.7	0.00e+00	0	34	0	29066526720	8	16277
2026-01-17 22:50:39.39	77.70	38.25	-16.0	-16.4	17.6	0.00e+00	0	35	0	29402071040	8	16163
2026-01-17 22:50:42.42	79.73	38.64	-15.8	-16.3	17.6	0.00e+00	0	35	0	29746003968	8	15895
2026-01-17 22:50:45.46	81.82	38.99	-15.6	-16.1	17.6	0.00e+00	0	35	0	30089936896	6	17448
2026-01-17 22:50:48.49	83.95	39.31	-15.6	-16.1	17.6	0.00e+00	0	35	0	30425481216	6	17432
2026-01-17 22:50:51.52	86.11	39.59	-15.5	-15.9	17.6	0.00e+00	0	35	0	30769414144	6	17121
2026-01-17 22:50:54.55	88.32	39.83	-15.5	-15.9	17.6	0.00e+00	0	35	0	31104958464	6	17123
2026-01-17 22:50:57.58	90.55	40.02	-15.3	-15.8	17.5	0.00e+00	0	35	0	31448891392	6	16857
2026-01-17 22:51:00.61	92.81	40.17	-15.3	-15.8	17.5	0.00e+00	0	35	0	31792824320	6	16816
2026-01-17 22:51:03.64	95.08	40.26	-15.4	-15.9	17.5	0.00e+00	0	35	0	32128368640	6	17019
2026-01-17 22:51:06.67	97.37	40.31	-15.5	-15.9	17.5	0.00e+00	0	35	0	32472301568	6	17110
2026-01-17 22:51:09.70	99.66	40.32	-15.6	-16.0	17.5	0.00e+00	0	35	0	32816234496	6	17270
2026-01-17 22:51:12.73	101.95	40.27	-15.5	-15.9	17.5	0.00e+00	0	35	0	33151778816	6	17078
2026-01-17 22:51:15.76	104.23	40.17	-15.6	-16.0	17.5	0.00e+00	0	35	0	33495711744	6	17392
2026-01-17 22:51:18.79	106.49	40.03	-15.5	-16.0	17.5	0.00e+00	0	35	0	33831256064	6	17213
2026-01-17 22:51:21.82	108.73	39.84	-15.5	-15.9	17.5	0.00e+00	0	35	0	34175188992	6	17188
2026-01-17 22:51:24.85	110.94	39.61	-15.5	-15.9	17.5	0.00e+00	0	35	0	34519121920	6	17021
2026-01-17 22:51:27.88	113.11	39.33	-15.5	-15.9	17.6	0.00e+00	0	35	0	34854666240	6	17171
2026-01-17 22:51:30.91	115.24	39.01	-15.6	-16.0	17.5	0.00e+00	0	35	0	35198599168	6	17386
2026-01-17 22:51:33.94	117.33	38.66	-49.1	-51.6	6.1	0.00e+00	0	34	104	35357982720	60	46482
2026-01-17 22:51:36.97	119.37	38.27	-49.1	-51.5	6.1	0.00e+00	0	34	104	35357982720	60	46241
2026-01-17 22:51:40.00	121.35	37.85	-48.9	-51.4	6.1	0.00e+00	0	34	104	35357982720	60	45531
2026-01-17 22:51:43.03	123.29	37.40	-48.9	-51.4	6.1	0.00e+00	0	34	104	35357982720	60	45641
2026-01-17 22:51:46.06	125.16	36.92	-48.9	-51.3	6.1	0.00e+00	0	35	104	35357982720	60	45218
2026-01-17 22:51:49.08	126.97	36.42	-48.8	-51.4	6.1	0.00e+00	0	34	104	35357982720	60	45362
2026-01-17 22:51:52.12	128.74	35.90	-48.9	-51.4	6.1	0.00e+00	0	34	104	35357982720	60	45416
2026-01-17 22:51:55.14	130.43	35.37	-49.1	-51.5	6.1	0.00e+00	0	34	104	35357982720	60	46091
2026-01-17 22:51:58.17	132.07	34.81	-49.1	-51.6	6.1	0.00e+00	0	34	104	35357982720	60	46346
2026-01-17 22:52:01.20	133.66	34.25	-49.1	-51.6	6.1	0.00e+00	0	34	104	35357982720	60	46430
2026-01-17 22:52:04.23	135.19	33.67	-49.1	-51.6	6.1	0.00e+00	0	35	104	35357982720	60	46458
2026-01-17 22:52:07.26	136.66	33.09	-48.9	-51.4	6.1	0.00e+00	0	34	104	35357982720	60	45470
2026-01-17 22:52:10.29	138.07	32.50	-49.0	-51.5	6.1	0.00e+00	0	34	104	35357982720	60	45903
2026-01-17 22:52:13.32	139.44	31.91	-49.0	-51.5	6.1	0.00e+00	0	34	104	35357982720	60	45880
2026-01-17 22:52:16.35	140.75	31.32	-49.0	-51.5	6.1	0.00e+00	0	34	104	35357982720	60	46199
2026-01-17 22:52:19.38	142.01	30.72	-48.9	-51.4	6.1	0.00e+00	0	34	104	35357982720	60	45612
2026-01-17 22:52:22.41	143.22	30.13	-49.0	-51.5	6.1	0.00e+00	0	34	104	35357982720	60	45933
2026-01-17 22:52:25.44	144.39	29.53	-48.9	-51.4	6.1	0.00e+00	0	34	104	35357982720	60	45640
2026-01-17 22:52:28.47	145.51	28.95	-49.0	-51.5	6.1	0.00e+00	0	34	104	35357982720	60	45860
2026-01-17 22:52:31.51	146.59	28.36	-49.0	-51.4	6.1	0.00e+00	0	34	104	35357982720	60	45642
2026-01-17 22:52:34.53	147.62	27.78	-49.0	-51.4	6.1	0.00e+00	0	34	104	35357982720	60	45477
2026-01-17 22:52:37.57	148.62	27.20	-48.8	-51.3	6.1	0.00e+00	0	34	104	35357982720	60	45129
2026-01-17 22:52:40.60	149.58	26.63	-48.9	-51.4	6.1	0.00e+00	0	34	104	35357982720	60	45442
2026-01-17 22:52:43.63	150.51	26.07	-48.9	-51.4	6.1	0.00e+00	0	34	104	35357982720	60	45505
2026-01-17 22:52:46.65	151.39	25.52	-48.9	-51.4	6.0	0.00e+00	0	34	104	35357982720	60	45287
2026-01-17 22:52:49.68	152.25	24.97	-48.9	-51.3	6.1	0.00e+00	0	34	104	35357982720	60	45138
2026-01-17 22:52:52.72	153.08	24.43	-48.7	-51.2	6.1	0.00e+00	0	34	104	35357982720	60	44306
2026-01-17 22:52:55.74	153.87	23.90	-48.7	-51.2	6.1	0.00e+00	0	34	104	35357982720	60	44314
2026-01-17 22:52:58.77	154.64	23.38	-48.8	-51.3	6.1	0.00e+00	0	34	104	35357982720	60	45125
2026-01-17 22:53:01.80	155.37	22.86	-48.8	-51.3	6.1	0.00e+00	0	34	104	35357982720	60	44747
2026-01-17 22:53:04.83	156.09	22.35	-48.7	-51.2	6.1	0.00e+00	0	34	104	35357982720	60	44219
2026-01-17 22:53:07.86	156.78	21.85	-48.7	-51.2	6.1	0.00e+00	0	34	104	35357982720	60	44625
2026-01-17 22:53:10.88	157.44	21.36	-48.7	-51.2	6.1	0.00e+00	0	34	104	35357982720	60	44294
2026-01-17 22:53:13.91	158.08	20.88	-48.6	-51.2	6.1	0.00e+00	0	34	104	35357982720	60	44273
2026-01-17 22:53:16.93	158.70	20.41	-48.6	-51.1	6.1	0.00e+00	0	34	104	35357982720	60	43796
2026-01-17 22:53:19.96	159.30	19.94	-48.7	-51.1	6.1	0.00e+00	0	34	104	35357982720	60	43979
2026-01-17 22:53:22.99	159.87	19.48	-48.7	-51.2	6.1	0.00e+00	0	34	104	35357982720	60	44377
2026-01-17 22:53:26.02	160.44	19.03	-48.8	-51.1	6.1	0.00e+00	0	34	104	35357982720	60	44160
2026-01-17 22:53:29.04	160.98	18.59	-48.6	-51.1	6.1	0.00e+00	0	34	104	35357982720	60	44106
2026-01-17 22:53:32.07	161.50	18.16	-48.5	-51.0	6.1	0.00e+00	0	34	104	35357982720	60	43601
2026-01-17 22:53:35.10	162.01	17.73	-48.4	-50.9	6.1	0.00e+00	0	34	104	35357982720	60	42961
2026-01-17 22:53:38.13	162.50	17.31	-48.4	-50.9	6.1	0.00e+00	0	34	104	35357982720	60	42857
2026-01-17 22:53:41.15	162.98	16.90	-48.7	-51.2	6.1	0.00e+00	0	34	104	35357982720	60	44257
2026-01-17 22:53:44.18	163.44	16.49	-48.6	-51.1	6.1	0.00e+00	0	34	104	35357982720	60	44026
2026-01-17 22:53:47.21	163.89	16.10	-48.7	-51.1	6.1	0.00e+00	0	34	104	35357982720	60	44111
2026-01-17 22:53:50.24	164.33	15.70	-48.6	-51.1	6.1	0.00e+00	0	34	104	35357982720	60	43912
2026-01-17 22:53:53.27	164.75	15.32	-48.4	-50.9	6.1	0.00e+00	0	34	104	35357982720	60	43189
2026-01-17 22:53:56.30	165.16	14.94	-48.7	-51.1	6.1	0.00e+00	0	34	104	35357982720	60	44143
2026-01-17 22:53:59.32	165.56	14.57	-48.5	-51.0	6.1	0.00e+00	0	34	104	35357982720	60	43354
2026-01-17 22:54:02.35	165.95	14.20	-48.6	-51.1	6.1	0.00e+00	0	34	104	35357982720	60	43957
2026-01-17 22:54:05.38	166.33	13.84	-48.2	-50.8	6.1	0.00e+00	0	34	104	35357982720	60	42292
2026-01-17 22:54:08.41	166.70	13.49	-48.4	-50.9	6.1	0.00e+00	0	34	104	35357982720	60	42878
2026-01-17 22:54:11.44	167.06	13.14	-48.2	-50.7	6.1	0.00e+00	0	34	104	35357982720	60	42215
2026-01-17 22:54:14.47	167.40	12.80	-48.2	-50.8	6.1	0.00e+00	0	34	104	35357982720	60	42382
2026-01-17 22:54:17.50	167.74	12.46	-48.6	-51.0	6.1	0.00e+00	0	34	104	35357982720	60	43675
2026-01-17 22:54:20.53	168.07	12.13	-48.6	-51.1	6.1	0.00e+00	0	34	104	35357982720	60	43837
2026-01-17 22:54:23.56	168.39	11.80	-48.5	-50.9	6.1	0.00e+00	0	34	104	35357982720	60	43108
2026-01-17 22:54:26.59	168.71	11.48	-48.3	-50.8	6.1	0.00e+00	0	34	104	35357982720	60	42594
2026-01-17 22:54:29.62	169.01	11.16	-48.3	-50.8	6.1	0.00e+00	0	34	104	35357982720	60	42596
2026-01-17 22:54:32.65	169.31	10.85	-48.5	-50.9	6.1	0.00e+00	0	34	104	35357982720	60	43095
2026-01-17 22:54:35.68	169.60	10.54	-48.0	-50.5	6.1	0.00e+00	0	34	104	35357982720	60	41068
2026-01-17 22:54:38.71	169.89	10.24	-48.5	-50.9	6.1	0.00e+00	0	34	104	35357982720	60	42945
2026-01-17 22:54:41.74	170.17	9.94	-48.3	-50.8	6.1	0.00e+00	0	34	104	35357982720	60	42470
2026-01-17 22:54:44.76	170.44	9.64	-48.3	-50.8	6.1	0.00e+00	0	34	104	35357982720	60	42537
2026-01-17 22:54:47.79	170.70	9.35	-48.0	-50.5	6.1	0.00e+00	0	34	104	35357982720	60	41210
2026-01-17 22:54:50.82	170.96	9.07	-48.1	-50.6	6.1	0.00e+00	0	34	104	35357982720	60	41346
2026-01-17 22:54:53.84	171.21	8.78	-48.2	-50.7	6.1	0.00e+00	0	34	104	35357982720	60	42050
2026-01-17 22:54:56.87	171.46	8.51	-47.9	-50.5	6.1	0.00e+00	0	34	104	35357982720	60	40802
2026-01-17 22:54:59.89	171.70	8.23	-47.9	-50.5	6.1	0.00e+00	0	34	104	35357982720	60	40933
2026-01-17 22:55:02.92	171.93	7.96	-48.0	-50.5	6.1	0.00e+00	0	34	104	35357982720	60	41077
2026-01-17 22:55:05.95	172.17	7.69	-47.9	-50.4	6.1	0.00e+00	0	34	104	35357982720	60	40694
2026-01-17 22:55:08.98	172.39	7.43	-47.9	-50.4	6.1	0.00e+00	0	34	104	35357982720	60	40646
2026-01-17 22:55:12.01	172.61	7.16	-47.8	-50.3	6.1	0.00e+00	0	34	104	35357982720	60	39931
2026-01-17 22:55:15.04	172.83	6.91	-48.0	-50.5	6.1	0.00e+00	0	34	104	35357982720	60	41208
2026-01-17 22:55:18.07	173.04	6.65	-47.8	-50.4	6.1	0.00e+00	0	34	104	35357982720	60	40398
2026-01-17 22:55:21.10	173.25	6.40	-47.9	-50.4	6.1	0.00e+00	0	34	104	35357982720	60	40653
2026-01-17 22:55:24.12	173.45	6.15	-47.4	-50.0	6.1	0.00e+00	0	34	104	35357982720	60	38692
2026-01-17 22:55:27.15	173.65	5.90	-47.9	-50.4	6.1	0.00e+00	0	34	104	35357982720	60	40786
2026-01-17 22:55:30.18	173.85	5.66	-47.8	-50.3	6.1	0.00e+00	0	34	104	35357982720	60	39959
2026-01-17 22:55:33.21	174.04	5.42	-47.9	-50.4	6.1	0.00e+00	0	34	104	35357982720	60	40727
2026-01-17 22:55:36.24	174.23	5.18	-47.8	-50.3	6.1	0.00e+00	0	34	104	35357982720	60	39863
2026-01-17 22:55:39.26	174.41	4.95	-47.9	-50.4	6.1	0.00e+00	0	34	104	35357982720	60	40346
2026-01-17 22:55:42.29	174.60	4.71	-47.5	-50.1	6.1	0.00e+00	0	34	104	35357982720	60	39019
2026-01-17 22:55:45.32	174.77	4.48	-47.5	-50.1	6.1	0.00e+00	0	34	104	35357982720	60	38969
2026-01-17 22:55:48.35	174.95	4.25	-47.5	-50.0	6.1	0.00e+00	0	34	104	35357982720	60	38744
2026-01-17 22:55:51.38	175.12	4.03	-47.6	-50.1	6.1	0.00e+00	0	34	104	35357982720	60	39392
2026-01-17 22:55:54.41	175.29	3.81	-47.6	-50.1	6.1	0.00e+00	0	34	104	35357982720	60	39285
2026-01-17 22:55:57.43	175.45	3.59	-47.5	-50.1	6.1	0.00e+00	0	34	104	35357982720	60	39041
2026-01-17 22:56:00.46	175.62	3.37	-47.4	-49.9	6.1	0.00e+00	0	34	104	35357982720	60	38082
2026-01-17 22:56:03.49	175.78	3.15	-47.4	-50.0	6.1	0.00e+00	0	34	104	35357982720	60	38622
2026-01-17 22:56:06.52	175.93	2.93	-48.2	-50.8	6.1	0.00e+00	0	34	104	35357982720	60	42418
2026-01-17 22:56:09.55	176.09	2.72	-48.9	-51.4	6.1	0.00e+00	0	34	104	35357982720	60	45275
2026-01-17 22:56:12.58	176.24	2.51	-48.9	-51.4	6.1	0.00e+00	0	34	104	35357982720	60	45489
2026-01-17 22:56:15.61	176.39	2.30	-48.9	-51.4	6.1	0.00e+00	0	34	104	35357982720	60	45361
2026-01-17 22:56:18.64	176.53	2.10	-48.9	-51.4	6.1	0.00e+00	0	34	104	35357982720	60	45586
2026-01-17 22:56:21.67	176.68	1.89	-49.0	-51.6	6.1	0.00e+00	0	34	104	35357982720	60	46326
2026-01-17 22:56:24.70	176.82	1.69	-49.2	-51.6	6.1	0.00e+00	0	34	104	35357982720	60	46651
2026-01-17 22:56:27.73	176.96	1.49	-49.1	-51.5	6.1	0.00e+00	0	34	104	35357982720	60	46123
2026-01-17 22:56:30.76	177.10	1.29	-49.0	-51.5	6.1	0.00e+00	0	34	104	35357982720	60	45999
2026-01-17 22:56:33.79	177.23	1.09	-49.1	-51.6	6.1	0.00e+00	0	34	104	35357982720	60	46443
2026-01-17 22:56:36.83	177.37	0.89	-49.1	-51.6	6.1	0.00e+00	0	34	104	35357982720	60	46568
2026-01-17 22:56:39.86	177.50	0.70	-49.2	-51.6	6.1	0.00e+00	0	34	104	35357982720	60	46819
2026-01-17 22:56:42.88	177.63	0.50	-49.0	-51.5	6.1	0.00e+00	0	34	104	35357982720	60	46040
2026-01-17 22:56:45.92	177.75	0.31	-49.1	-51.6	6.1	0.00e+00	0	34	104	35357982720	60	46596
2026-01-17 22:56:48.94	177.88	0.12	-49.1	-51.6	6.1	0.00e+00	0	34	104	35357982720	60	46707

#Closed at: 2026-01-17 22:56:51
#Recorded file [35357 MB]: D:/lorett/data/35029_260118_104554.dat