passes_logs/2026/01/17/R4.6S_Anadyr/R4.6S_Anadyr__20260117_172722_SUOMI_NPP_rec.log

#Pass ID: 20260117_172722_SUOMI NPP
#Satellite: SUOMI NPP
#Configuration: NPP
#almurnet v.1.7.20251203
#Start time: 2026-01-17 17:27:25

#Version: 2.2.20231116
#Station: R4.6S_Anadyr
#Location: 177.4865 lon 64.73178 lat
#TLE: 1 37849U 11061A   26016.58419598  .00000058  00000+0  48257-4 0  9996
#TLE: 2 37849  98.7812 318.6192 0002422  60.8544 299.2874 14.19525580736934

#Time	Az	El	Level	Level2	SNR	BER	BlckErr	Temp	State	Recorded	gain1	gain2
2026-01-17 17:27:25.65	31.45	0.15	-48.6	-60.2	3.5	8.46e-01	0	26	0	0	60	36888
2026-01-17 17:27:29.69	31.21	0.36	-48.8	-64.0	3.6	1.51e+00	0	27	104	0	60	56982
2026-01-17 17:27:33.73	30.97	0.58	-48.7	-63.9	3.6	1.51e+00	0	28	104	0	60	56322
2026-01-17 17:27:37.77	30.73	0.80	-48.4	-63.6	3.6	1.51e+00	0	28	104	0	60	54618
2026-01-17 17:27:41.81	30.48	1.02	-47.4	-62.5	3.6	1.51e+00	0	28	104	0	60	48223
2026-01-17 17:27:45.86	30.23	1.24	-47.2	-62.2	3.6	1.51e+00	0	28	104	0	60	46743
2026-01-17 17:27:49.90	29.98	1.47	-47.2	-62.2	3.6	1.51e+00	0	28	104	0	60	46791
2026-01-17 17:27:53.94	29.72	1.69	-47.2	-62.3	3.6	1.51e+00	0	28	104	0	60	47251
2026-01-17 17:27:57.98	29.46	1.91	-47.2	-62.3	3.6	1.51e+00	0	28	104	0	60	47044
2026-01-17 17:28:02.02	29.19	2.14	-47.1	-62.0	3.6	1.51e+00	0	28	104	0	60	45631
2026-01-17 17:28:06.06	28.92	2.37	-47.2	-62.3	3.6	1.51e+00	0	28	104	0	60	47124
2026-01-17 17:28:10.10	28.64	2.59	-47.2	-62.3	3.6	1.51e+00	0	28	104	0	60	47167
2026-01-17 17:28:14.14	28.36	2.82	-47.1	-61.5	3.6	1.51e+00	0	28	104	0	60	43046
2026-01-17 17:28:18.19	28.08	3.06	-47.0	-59.2	3.9	1.49e+00	0	28	104	0	60	32855
2026-01-17 17:28:22.23	27.79	3.29	-45.4	-50.2	10.6	4.34e-03	0	28	0	6291456	60	11714
2026-01-17 17:28:26.27	27.49	3.52	-47.1	-61.8	3.6	1.32e+00	0	28	104	10485760	60	44541
2026-01-17 17:28:30.31	27.19	3.75	-44.2	-47.5	14.0	1.06e-04	11	28	0	14680064	60	8536
2026-01-17 17:28:34.35	26.89	3.99	-42.6	-44.8	16.5	0.00e+00	0	28	0	23068672	58	7076
2026-01-17 17:28:38.39	26.58	4.23	-41.6	-43.4	18.0	0.00e+00	0	28	0	30408704	56	6740
2026-01-17 17:28:42.44	26.26	4.47	-41.7	-43.5	17.9	0.00e+00	0	28	0	37748736	56	6840
2026-01-17 17:28:46.48	25.94	4.71	-42.0	-43.9	17.7	0.00e+00	67	28	0	45088768	56	7132
2026-01-17 17:28:50.52	25.61	4.95	-41.3	-43.0	18.5	0.00e+00	0	29	0	53477376	56	6407
2026-01-17 17:28:54.56	25.28	5.19	-41.3	-43.0	18.5	0.00e+00	0	28	0	60817408	56	6405
2026-01-17 17:28:58.60	24.94	5.43	-41.2	-42.9	18.6	0.00e+00	0	28	0	68157440	54	7110
2026-01-17 17:29:02.64	24.60	5.68	-40.8	-42.3	19.2	0.00e+00	92	28	0	75497472	54	6630
2026-01-17 17:29:06.68	24.25	5.92	-41.0	-42.6	18.9	0.00e+00	0	28	0	82837504	54	6871
2026-01-17 17:29:10.72	23.89	6.17	-40.9	-42.5	19.0	0.00e+00	0	28	0	91226112	54	6806
2026-01-17 17:29:14.76	23.53	6.42	-41.4	-43.1	18.6	0.00e+00	65	28	0	98566144	54	7307
2026-01-17 17:29:18.80	23.16	6.67	-41.3	-42.9	18.8	0.00e+00	0	28	0	105906176	54	7125
2026-01-17 17:29:22.84	22.78	6.92	-40.9	-42.5	19.2	0.00e+00	0	28	0	113246208	54	6770
2026-01-17 17:29:26.88	22.40	7.17	-40.7	-42.2	19.5	0.00e+00	0	28	0	121634816	54	6543
2026-01-17 17:29:30.91	22.01	7.42	-40.3	-41.7	19.9	0.00e+00	69	29	0	128974848	54	6228
2026-01-17 17:29:34.95	21.62	7.68	-40.2	-41.6	20.1	0.00e+00	0	29	0	136314880	54	6125
2026-01-17 17:29:39.00	21.21	7.93	-39.7	-40.9	20.8	0.00e+00	0	29	0	143654912	52	6330
2026-01-17 17:29:43.04	20.80	8.19	-39.7	-40.9	20.8	0.00e+00	0	28	0	150994944	52	6359
2026-01-17 17:29:47.08	20.38	8.45	-40.1	-41.4	20.2	0.00e+00	40	29	0	159383552	52	6752
2026-01-17 17:29:51.12	19.95	8.71	-40.1	-41.4	20.3	0.00e+00	0	29	0	166723584	52	6744
2026-01-17 17:29:55.16	19.52	8.97	-40.5	-41.9	19.9	0.00e+00	0	28	0	174063616	52	7131
2026-01-17 17:29:59.20	19.08	9.23	-40.7	-42.2	19.8	0.00e+00	65	29	0	181403648	52	7343
2026-01-17 17:30:03.24	18.63	9.49	-40.4	-41.7	20.0	0.00e+00	27	29	0	189792256	54	6233
2026-01-17 17:30:07.28	18.17	9.76	-40.3	-41.6	20.1	0.00e+00	0	29	0	197132288	54	6155
2026-01-17 17:30:11.32	17.70	10.02	-40.5	-41.9	20.1	0.00e+00	0	29	0	204472320	54	6338
2026-01-17 17:30:15.36	17.22	10.29	-39.9	-41.2	20.6	0.00e+00	70	29	0	211812352	54	5833
2026-01-17 17:30:19.40	16.74	10.55	-40.0	-41.3	20.6	0.00e+00	0	29	0	219152384	54	5921
2026-01-17 17:30:23.44	16.24	10.82	-40.1	-41.4	20.6	0.00e+00	0	29	0	227540992	54	5998
2026-01-17 17:30:27.47	15.74	11.09	-39.8	-41.0	20.8	0.00e+00	0	29	0	234881024	54	5755
2026-01-17 17:30:31.51	15.22	11.36	-39.8	-41.1	20.7	0.00e+00	75	29	0	242221056	54	5790
2026-01-17 17:30:35.55	14.70	11.63	-39.4	-40.6	21.1	0.00e+00	0	29	0	249561088	52	6105
2026-01-17 17:30:39.59	14.17	11.90	-39.4	-40.5	21.1	0.00e+00	0	29	0	257949696	52	6101
2026-01-17 17:30:43.63	13.62	12.17	-39.2	-40.4	21.4	0.00e+00	70	29	0	265289728	52	5970
2026-01-17 17:30:47.67	13.07	12.44	-39.2	-40.3	21.6	0.00e+00	0	29	0	272629760	52	5964
2026-01-17 17:30:51.72	12.50	12.71	-39.4	-40.6	21.3	0.00e+00	0	29	0	279969792	52	6107
2026-01-17 17:30:55.75	11.93	12.98	-39.6	-40.9	21.1	0.00e+00	0	29	0	287309824	52	6323
2026-01-17 17:30:59.79	11.34	13.25	-39.2	-40.4	21.4	0.00e+00	26	29	0	295698432	52	5971
2026-01-17 17:31:03.83	10.74	13.52	-39.4	-40.5	21.6	0.00e+00	0	29	0	303038464	52	6064
2026-01-17 17:31:07.87	10.14	13.79	-39.4	-40.5	21.5	0.00e+00	0	29	0	310378496	52	6051
2026-01-17 17:31:11.91	9.51	14.06	-39.3	-40.4	21.6	0.00e+00	0	29	0	317718528	52	6000
2026-01-17 17:31:15.95	8.88	14.33	-39.6	-40.8	21.2	0.00e+00	92	29	0	326107136	52	6284
2026-01-17 17:31:20.00	8.24	14.60	-40.2	-41.4	20.7	0.00e+00	0	29	0	333447168	52	6740
2026-01-17 17:31:24.04	7.58	14.87	-39.7	-40.8	21.2	0.00e+00	0	29	0	340787200	52	6298
2026-01-17 17:31:28.08	6.91	15.14	-39.9	-41.1	20.9	0.00e+00	9	29	0	348127232	52	6525
2026-01-17 17:31:32.12	6.23	15.41	-39.6	-40.7	21.3	0.00e+00	65	29	0	356515840	52	6244
2026-01-17 17:31:36.16	5.54	15.67	-40.0	-41.2	20.8	0.00e+00	0	29	0	363855872	52	6573
2026-01-17 17:31:40.20	4.84	15.94	-39.6	-40.8	21.3	0.00e+00	0	29	0	371195904	52	6264
2026-01-17 17:31:44.24	4.12	16.20	-40.3	-41.6	20.6	0.00e+00	45	29	0	378535936	52	6914
2026-01-17 17:31:48.28	3.39	16.46	-40.4	-41.7	20.5	0.00e+00	0	29	0	385875968	54	6216
2026-01-17 17:31:52.32	2.64	16.72	-39.6	-40.8	21.3	0.00e+00	0	29	0	394264576	52	6266
2026-01-17 17:31:56.36	1.89	16.98	-38.9	-40.0	22.0	0.00e+00	0	29	0	401604608	52	5698
2026-01-17 17:32:00.40	1.12	17.23	-38.6	-39.6	22.3	0.00e+00	70	29	0	408944640	50	6149
2026-01-17 17:32:04.45	0.33	17.48	-38.3	-39.3	22.6	0.00e+00	0	29	0	416284672	50	5935
2026-01-17 17:32:08.49	359.53	17.73	-37.7	-38.7	23.1	0.00e+00	0	29	0	424673280	48	6207
2026-01-17 17:32:12.53	358.72	17.97	-38.0	-39.0	22.8	0.00e+00	25	29	0	432013312	48	6444
2026-01-17 17:32:16.57	357.90	18.21	-37.3	-38.2	23.4	0.00e+00	68	29	0	439353344	48	5876
2026-01-17 17:32:20.62	357.06	18.45	-37.1	-38.0	23.5	0.00e+00	0	29	0	446693376	48	5735
2026-01-17 17:32:24.66	356.21	18.68	-36.9	-37.8	23.7	0.00e+00	0	29	0	454033408	48	5591
2026-01-17 17:32:28.70	355.35	18.91	-37.5	-38.5	23.2	0.00e+00	71	29	0	462422016	48	6052
2026-01-17 17:32:32.74	354.48	19.14	-37.6	-38.6	22.6	0.00e+00	0	29	0	469762048	48	6154
2026-01-17 17:32:36.79	353.58	19.35	-37.4	-38.3	23.3	0.00e+00	0	29	0	477102080	48	5932
2026-01-17 17:32:40.82	352.69	19.57	-37.4	-38.3	23.5	0.00e+00	0	29	0	484442112	48	5925
2026-01-17 17:32:44.87	351.77	19.77	-37.1	-38.0	23.3	0.00e+00	90	29	0	492830720	48	5702
2026-01-17 17:32:48.90	350.85	19.97	-36.8	-37.7	23.9	0.00e+00	0	29	0	500170752	46	6192
2026-01-17 17:32:52.94	349.91	20.17	-36.5	-37.4	24.2	0.00e+00	0	29	0	507510784	46	5971
2026-01-17 17:32:56.98	348.96	20.36	-37.2	-38.1	23.5	0.00e+00	0	29	0	514850816	46	6534
2026-01-17 17:33:01.02	347.99	20.54	-36.6	-37.5	23.9	0.00e+00	86	29	0	523239424	46	6036
2026-01-17 17:33:05.07	347.02	20.71	-36.8	-37.7	23.8	0.00e+00	0	29	0	530579456	46	6187
2026-01-17 17:33:09.11	346.03	20.87	-36.4	-37.3	24.1	0.00e+00	0	29	0	537919488	46	5909
2026-01-17 17:33:13.15	345.04	21.03	-36.5	-37.4	24.2	0.00e+00	0	29	0	545259520	46	5983
2026-01-17 17:33:17.19	344.03	21.18	-36.3	-37.1	24.2	0.00e+00	13	29	0	552599552	46	5821
2026-01-17 17:33:21.23	343.02	21.32	-37.0	-37.8	23.8	0.00e+00	0	29	0	560988160	46	6300
2026-01-17 17:33:25.27	342.00	21.45	-37.3	-38.2	23.5	0.00e+00	0	29	0	568328192	46	6544
2026-01-17 17:33:29.31	340.96	21.57	-38.7	-39.7	22.3	0.00e+00	88	29	0	575668224	48	6959
2026-01-17 17:33:33.35	339.92	21.69	-38.5	-39.5	22.4	0.00e+00	0	29	0	583008256	50	6099
2026-01-17 17:33:37.39	338.88	21.79	-38.7	-39.8	22.3	0.00e+00	0	29	0	591396864	50	6279
2026-01-17 17:33:41.43	337.82	21.88	-38.1	-39.1	22.8	0.00e+00	0	29	0	598736896	50	5826
2026-01-17 17:33:45.47	336.76	21.97	-39.5	-40.7	21.4	0.00e+00	68	29	0	606076928	50	6967
2026-01-17 17:33:49.51	335.70	22.04	-38.1	-39.0	22.8	0.00e+00	0	29	0	613416960	50	5757
2026-01-17 17:33:53.55	334.63	22.10	-38.8	-39.8	22.1	0.00e+00	0	29	0	620756992	50	6312
2026-01-17 17:33:57.59	333.55	22.15	-38.4	-39.4	22.6	0.00e+00	0	29	0	629145600	50	5991
2026-01-17 17:34:01.63	332.47	22.20	-39.0	-40.1	22.0	0.00e+00	0	29	0	636485632	50	6524
2026-01-17 17:34:05.67	331.39	22.23	-40.0	-41.3	21.1	0.00e+00	0	29	0	643825664	52	6656
2026-01-17 17:34:09.71	330.31	22.24	-39.7	-40.9	21.5	0.00e+00	0	29	0	651165696	52	6332
2026-01-17 17:34:13.75	329.23	22.25	-38.9	-39.9	22.3	0.00e+00	0	29	0	659554304	52	5648
2026-01-17 17:34:17.79	328.14	22.25	-37.9	-38.9	23.0	0.00e+00	0	29	0	666894336	50	5645
2026-01-17 17:34:21.83	327.06	22.24	-37.9	-38.9	23.1	0.00e+00	0	29	0	674234368	48	6332
2026-01-17 17:34:25.86	325.98	22.21	-38.6	-39.6	22.5	0.00e+00	0	29	0	681574400	48	6894
2026-01-17 17:34:29.90	324.90	22.18	-38.0	-38.9	22.9	0.00e+00	82	29	0	688914432	48	6383
2026-01-17 17:34:33.94	323.83	22.13	-37.3	-38.1	23.6	0.00e+00	0	29	0	697303040	48	5823
2026-01-17 17:34:37.98	322.75	22.07	-37.6	-38.5	23.4	0.00e+00	0	29	0	704643072	48	6052
2026-01-17 17:34:42.02	321.68	22.01	-36.5	-37.3	24.0	0.00e+00	48	29	0	711983104	46	5963
2026-01-17 17:34:46.06	320.62	21.93	-36.9	-37.8	23.8	0.00e+00	50	29	0	719323136	46	6287
2026-01-17 17:34:50.10	319.56	21.84	-36.9	-37.8	23.7	0.00e+00	0	29	0	727711744	46	6273
2026-01-17 17:34:54.14	318.51	21.74	-36.6	-37.4	24.1	0.00e+00	0	29	0	735051776	46	6028
2026-01-17 17:34:58.18	317.47	21.64	-36.9	-37.8	23.8	0.00e+00	72	29	0	742391808	46	6264
2026-01-17 17:35:02.22	316.43	21.52	-37.1	-37.9	23.8	0.00e+00	0	29	0	749731840	46	6367
2026-01-17 17:35:06.27	315.40	21.39	-37.0	-37.9	23.8	0.00e+00	0	29	0	757071872	46	6347
2026-01-17 17:35:10.31	314.38	21.26	-37.9	-38.8	23.0	0.00e+00	0	29	0	765460480	48	6304
2026-01-17 17:35:14.35	313.36	21.11	-37.3	-38.1	23.7	0.00e+00	91	29	0	772800512	48	5818
2026-01-17 17:35:18.39	312.36	20.96	-38.0	-38.9	23.0	0.00e+00	0	29	0	780140544	48	6361
2026-01-17 17:35:22.43	311.37	20.80	-39.1	-40.1	22.0	0.00e+00	0	29	0	787480576	50	6531
2026-01-17 17:35:26.47	310.39	20.63	-39.6	-40.8	21.6	0.00e+00	0	29	0	795869184	50	7019
2026-01-17 17:35:30.51	309.42	20.45	-39.0	-40.0	22.2	0.00e+00	92	29	0	803209216	50	6452
2026-01-17 17:35:34.56	308.46	20.27	-38.4	-39.4	22.7	0.00e+00	0	29	0	810549248	50	5986
2026-01-17 17:35:38.60	307.51	20.08	-38.2	-39.2	22.8	0.00e+00	0	29	0	817889280	50	5849
2026-01-17 17:35:42.63	306.58	19.88	-37.7	-38.6	23.3	0.00e+00	0	29	0	825229312	48	6133
2026-01-17 17:35:46.67	305.66	19.68	-37.7	-38.6	23.3	0.00e+00	0	29	0	833617920	48	6112
2026-01-17 17:35:50.71	304.75	19.47	-38.3	-39.3	22.8	0.00e+00	0	29	0	840957952	48	6616
2026-01-17 17:35:54.75	303.85	19.25	-39.7	-40.8	21.4	0.00e+00	0	29	0	848297984	52	6311
2026-01-17 17:35:58.79	302.97	19.03	-39.8	-41.0	21.5	0.00e+00	69	29	0	855638016	52	6393
2026-01-17 17:36:02.83	302.10	18.80	-41.0	-42.4	19.9	0.00e+00	0	29	0	864026624	54	6757
2026-01-17 17:36:06.87	301.24	18.57	-40.2	-41.4	21.0	0.00e+00	0	29	0	871366656	54	5982
2026-01-17 17:36:10.91	300.39	18.34	-38.4	-39.4	22.8	0.00e+00	0	29	0	878706688	50	6011
2026-01-17 17:36:14.93	299.57	18.10	-37.2	-38.0	23.7	0.00e+00	74	29	0	886046720	48	5758
2026-01-17 17:36:18.97	298.75	17.86	-37.9	-38.8	23.1	0.00e+00	0	29	0	893386752	48	6271
2026-01-17 17:36:23.01	297.94	17.61	-37.6	-38.5	23.4	0.00e+00	0	29	0	901775360	48	6082
2026-01-17 17:36:27.05	297.15	17.36	-37.5	-38.4	23.4	0.00e+00	50	29	0	909115392	48	5989
2026-01-17 17:36:31.09	296.37	17.11	-39.2	-40.2	21.8	0.00e+00	0	29	0	916455424	50	6591
2026-01-17 17:36:35.13	295.61	16.85	-39.4	-40.5	21.7	0.00e+00	0	29	0	923795456	50	6793
2026-01-17 17:36:39.17	294.85	16.60	-38.6	-39.6	22.4	0.00e+00	33	29	0	932184064	50	6115
2026-01-17 17:36:43.22	294.11	16.34	-38.0	-38.9	23.0	0.00e+00	56	29	0	939524096	50	5651
2026-01-17 17:36:47.25	293.39	16.07	-38.2	-39.1	22.7	0.00e+00	0	29	0	946864128	50	5807
2026-01-17 17:36:51.29	292.67	15.81	-39.3	-40.4	21.8	0.00e+00	0	29	0	954204160	50	6721
2026-01-17 17:36:55.33	291.97	15.54	-38.9	-39.9	22.2	0.00e+00	0	29	0	961544192	50	6354
2026-01-17 17:36:59.37	291.28	15.28	-38.8	-39.9	22.2	0.00e+00	89	29	0	969932800	50	6318
2026-01-17 17:37:03.41	290.61	15.01	-39.3	-40.4	21.7	0.00e+00	0	29	0	977272832	50	6718
2026-01-17 17:37:07.45	289.94	14.74	-38.9	-39.9	22.0	0.00e+00	0	29	0	984612864	50	6375
2026-01-17 17:37:11.49	289.29	14.47	-38.1	-39.1	22.8	0.00e+00	68	29	0	991952896	50	5768
2026-01-17 17:37:15.54	288.65	14.20	-38.0	-39.0	22.9	0.00e+00	92	29	0	1000341504	50	5699
2026-01-17 17:37:19.58	288.02	13.93	-36.8	-37.7	23.9	0.00e+00	0	29	0	1007681536	48	5522
2026-01-17 17:37:23.62	287.40	13.66	-36.9	-37.7	23.8	0.00e+00	0	29	0	1015021568	46	6224
2026-01-17 17:37:27.66	286.80	13.39	-37.6	-38.5	23.2	0.00e+00	47	29	0	1022361600	46	6847
2026-01-17 17:37:31.70	286.20	13.11	-38.1	-39.1	22.8	0.00e+00	0	29	0	1030750208	48	6475
2026-01-17 17:37:35.74	285.62	12.84	-37.5	-38.4	23.3	0.00e+00	0	29	0	1038090240	48	5972
2026-01-17 17:37:39.78	285.05	12.57	-36.9	-37.7	23.8	0.00e+00	0	29	0	1045430272	48	5537
2026-01-17 17:37:43.82	284.48	12.30	-37.6	-38.5	23.1	0.00e+00	92	29	0	1052770304	48	6077
2026-01-17 17:37:47.86	283.93	12.03	-38.4	-39.4	22.4	0.00e+00	0	29	0	1060110336	48	6747
2026-01-17 17:37:51.89	283.39	11.76	-38.8	-39.8	21.5	0.00e+00	0	29	0	1068498944	50	6315
2026-01-17 17:37:55.93	282.86	11.49	-38.4	-39.4	22.4	0.00e+00	0	29	0	1075838976	50	5998
2026-01-17 17:37:59.97	282.34	11.22	-37.3	-38.1	23.4	0.00e+00	92	29	0	1083179008	48	5816
2026-01-17 17:38:03.99	281.83	10.95	-37.6	-38.5	23.1	0.00e+00	0	29	0	1090519040	48	6097
2026-01-17 17:38:08.03	281.33	10.68	-39.0	-40.1	21.8	0.00e+00	0	29	0	1097859072	50	6520
2026-01-17 17:38:12.07	280.84	10.42	-39.1	-40.1	21.7	0.00e+00	38	29	0	1106247680	50	6536
2026-01-17 17:38:16.11	280.35	10.15	-38.4	-39.5	22.2	0.00e+00	5	29	0	1113587712	50	6039
2026-01-17 17:38:20.16	279.88	9.88	-38.8	-39.8	22.0	0.00e+00	33	29	0	1120927744	50	6316
2026-01-17 17:38:24.20	279.41	9.62	-38.9	-40.0	21.8	0.00e+00	0	29	0	1128267776	50	6398
2026-01-17 17:38:28.24	278.95	9.36	-39.4	-40.6	21.2	0.00e+00	66	29	0	1136656384	50	6857
2026-01-17 17:38:32.28	278.50	9.09	-39.6	-40.8	21.1	0.00e+00	0	29	0	1143996416	50	7030
2026-01-17 17:38:36.32	278.06	8.83	-39.9	-41.1	20.8	0.00e+00	0	29	0	1151336448	52	6491
2026-01-17 17:38:40.36	277.63	8.57	-39.4	-40.5	21.3	0.00e+00	0	29	0	1158676480	52	6060
2026-01-17 17:38:44.40	277.20	8.31	-40.0	-41.3	20.5	0.00e+00	92	29	0	1167065088	52	6655
2026-01-17 17:38:48.44	276.79	8.05	-40.8	-42.2	19.8	0.00e+00	0	29	0	1174405120	54	6610
2026-01-17 17:38:52.48	276.38	7.80	-40.5	-41.8	20.1	0.00e+00	0	29	0	1181745152	54	6271
2026-01-17 17:38:56.52	275.97	7.54	-39.9	-41.1	20.7	0.00e+00	0	29	0	1189085184	52	6487
2026-01-17 17:39:00.56	275.58	7.29	-39.7	-40.9	20.9	0.00e+00	9	29	0	1196425216	52	6351
2026-01-17 17:39:04.60	275.19	7.03	-39.9	-41.1	20.7	0.00e+00	0	29	0	1204813824	52	6501
2026-01-17 17:39:08.64	274.81	6.78	-40.3	-41.5	20.2	0.00e+00	0	29	0	1212153856	52	6839
2026-01-17 17:39:12.68	274.43	6.53	-40.4	-41.8	19.9	0.00e+00	67	29	0	1219493888	52	7024
2026-01-17 17:39:16.72	274.06	6.28	-40.2	-41.5	20.3	0.00e+00	0	29	0	1226833920	52	6832
2026-01-17 17:39:20.76	273.70	6.03	-39.9	-41.1	20.5	0.00e+00	0	29	0	1235222528	52	6491
2026-01-17 17:39:24.81	273.35	5.79	-40.1	-41.4	20.4	0.00e+00	0	29	0	1242562560	52	6699
2026-01-17 17:39:28.85	273.00	5.54	-40.4	-41.8	19.9	0.00e+00	92	29	0	1249902592	52	7034
2026-01-17 17:39:32.89	272.65	5.30	-40.6	-42.0	19.5	0.00e+00	0	29	0	1257242624	54	6430
2026-01-17 17:39:36.93	272.32	5.05	-41.3	-42.9	18.6	0.00e+00	0	29	0	1264582656	54	7139
2026-01-17 17:39:40.97	271.98	4.81	-42.3	-44.2	17.5	0.00e+00	57	29	0	1272971264	56	7388
2026-01-17 17:39:45.01	271.66	4.57	-42.7	-44.7	17.0	0.00e+00	0	29	0	1280311296	56	7842
2026-01-17 17:39:49.05	271.34	4.33	-42.6	-44.7	16.8	0.00e+00	0	29	0	1287651328	58	6972
2026-01-17 17:39:53.09	271.02	4.09	-42.0	-43.8	17.6	0.00e+00	0	29	0	1294991360	58	6290
2026-01-17 17:39:57.13	270.71	3.86	-41.6	-43.3	18.3	0.00e+00	58	29	0	1303379968	56	6656
2026-01-17 17:40:01.17	270.41	3.62	-42.2	-44.2	17.4	0.00e+00	0	29	0	1310720000	58	6571
2026-01-17 17:40:05.21	270.11	3.39	-42.5	-44.6	16.3	0.00e+00	0	29	0	1318060032	58	6900
2026-01-17 17:40:09.25	269.81	3.16	-42.8	-45.1	16.1	0.00e+00	0	29	0	1325400064	58	7315
2026-01-17 17:40:13.29	269.52	2.92	-48.5	-63.7	3.6	1.51e+00	0	29	104	1329594368	60	55112
2026-01-17 17:40:17.33	269.24	2.69	-48.8	-64.0	3.6	1.51e+00	0	29	104	1329594368	60	57481
2026-01-17 17:40:21.37	268.96	2.46	-48.8	-64.1	3.6	1.51e+00	0	29	104	1329594368	60	57822
2026-01-17 17:40:25.41	268.68	2.24	-48.6	-63.9	3.6	1.51e+00	0	29	104	1329594368	60	56341
2026-01-17 17:40:29.45	268.41	2.01	-48.8	-64.0	3.6	1.51e+00	0	29	104	1329594368	60	57089
2026-01-17 17:40:33.49	268.14	1.78	-48.7	-63.9	3.6	1.51e+00	0	29	104	1329594368	60	56923
2026-01-17 17:40:37.53	267.88	1.56	-48.7	-63.9	3.6	1.51e+00	0	29	104	1329594368	60	56615
2026-01-17 17:40:41.57	267.62	1.34	-48.7	-63.9	3.6	1.51e+00	0	29	104	1329594368	60	56569
2026-01-17 17:40:45.61	267.36	1.12	-48.7	-63.9	3.6	1.51e+00	0	29	104	1329594368	60	56889
2026-01-17 17:40:49.65	267.11	0.89	-48.7	-63.8	3.6	1.51e+00	0	29	104	1329594368	60	56279
2026-01-17 17:40:53.69	266.86	0.67	-48.7	-63.9	3.6	1.51e+00	0	29	104	1329594368	60	56595
2026-01-17 17:40:57.73	266.62	0.46	-48.7	-63.8	3.6	1.51e+00	0	29	104	1329594368	60	56147
2026-01-17 17:41:01.77	266.38	0.24	-48.7	-63.8	3.6	1.51e+00	0	29	104	1329594368	60	56135
2026-01-17 17:41:05.80	266.15	0.02	-48.7	-63.9	3.6	1.51e+00	0	29	104	1329594368	60	56406

#Closed at: 2026-01-17 17:41:07
#Recorded file [1329 MB]: D:/lorett/data/35029_260118_052725.dat