passes_logs/2026/01/17/R4.6S_Anadyr/R4.6S_Anadyr__20260117_151739_NOAA_21_JPSS-2_rec.log

#Pass ID: 20260117_151739_NOAA 21 (JPSS-2)
#Satellite: NOAA 21 (JPSS-2)
#Configuration: NOAA-21
#almurnet v.1.7.20251203
#Start time: 2026-01-17 15:17:42

#Version: 2.2.20231116
#Station: R4.6S_Anadyr
#Location: 177.4865 lon 64.73178 lat
#TLE: 1 54234U 22150A   26016.56338662  .00000024  00000+0  32257-4 0  9990
#TLE: 2 54234  98.7500 317.4442 0000622 279.9774  80.1332 14.19534942165033

#Time	Az	El	Level	Level2	SNR	BER	BlckErr	Temp	State	Recorded	gain1	gain2
2026-01-17 15:17:42.32	21.85	0.16	-48.5	-63.3	3.5	1.51e+00	0	25	0	0	60	53108
2026-01-17 15:17:46.35	21.80	0.40	-48.7	-61.5	3.5	1.52e+00	0	26	104	0	60	41651
2026-01-17 15:17:50.39	21.75	0.64	-48.6	-61.4	3.5	1.52e+00	0	27	104	0	60	41433
2026-01-17 15:17:54.43	21.70	0.89	-48.3	-61.1	3.5	1.52e+00	0	27	104	0	60	39998
2026-01-17 15:17:58.48	21.65	1.14	-47.3	-60.1	3.5	1.52e+00	0	27	104	0	60	35466
2026-01-17 15:18:02.52	21.60	1.39	-47.1	-59.9	3.5	1.52e+00	0	27	104	0	60	34888
2026-01-17 15:18:06.56	21.55	1.64	-47.1	-59.6	3.5	1.52e+00	0	27	104	0	60	33435
2026-01-17 15:18:10.60	21.50	1.89	-47.1	-59.6	3.5	1.52e+00	0	27	104	0	60	33557
2026-01-17 15:18:14.65	21.44	2.15	-47.1	-59.9	3.5	1.52e+00	0	27	104	0	60	34840
2026-01-17 15:18:18.69	21.38	2.41	-47.1	-59.5	3.5	1.52e+00	0	27	104	0	60	33284
2026-01-17 15:18:22.73	21.33	2.67	-47.0	-58.5	3.5	1.52e+00	0	27	104	0	60	29695
2026-01-17 15:18:26.77	21.27	2.93	-47.0	-58.6	3.5	1.51e+00	0	27	104	0	60	29795
2026-01-17 15:18:30.81	21.21	3.20	-45.4	-49.9	9.0	4.53e-02	120	27	0	4194304	60	10916
2026-01-17 15:18:34.85	21.15	3.47	-42.5	-44.8	14.3	7.00e-07	122	27	0	16777216	58	6848
2026-01-17 15:18:38.89	21.08	3.74	-41.8	-43.8	15.3	0.00e+00	122	27	0	29360128	56	6870
2026-01-17 15:18:42.93	21.02	4.01	-47.1	-59.1	3.5	8.43e-01	0	27	104	37748736	60	31802
2026-01-17 15:18:46.97	20.95	4.29	-38.5	-39.8	19.2	0.00e+00	121	27	0	39845888	48	6834
2026-01-17 15:18:51.01	20.88	4.57	-37.8	-39.0	20.1	0.00e+00	120	27	0	52428800	48	6257
2026-01-17 15:18:55.05	20.82	4.85	-37.8	-39.0	20.3	0.00e+00	121	27	0	65011712	48	6225
2026-01-17 15:18:59.09	20.74	5.14	-37.8	-39.0	20.2	0.00e+00	123	27	0	77594624	48	6217
2026-01-17 15:19:03.13	20.67	5.42	-37.6	-38.8	20.5	0.00e+00	122	27	0	90177536	48	6070
2026-01-17 15:19:07.17	20.60	5.72	-37.3	-38.5	20.7	0.00e+00	123	28	0	102760448	48	5893
2026-01-17 15:19:11.21	20.52	6.01	-37.1	-38.3	20.6	1.83e-05	122	27	0	116391936	48	5727
2026-01-17 15:19:15.24	20.44	6.31	-37.0	-38.2	20.1	1.06e-05	122	28	0	128974848	48	5661
2026-01-17 15:19:19.28	20.36	6.61	-36.8	-37.9	21.3	0.00e+00	123	28	0	141557760	48	5514
2026-01-17 15:19:23.32	20.28	6.91	-37.2	-38.3	21.1	0.00e+00	122	28	0	154140672	46	6447
2026-01-17 15:19:27.35	20.19	7.22	-36.7	-37.8	21.6	0.00e+00	120	28	0	166723584	46	6075
2026-01-17 15:19:31.39	20.11	7.53	-36.7	-37.8	21.5	0.00e+00	123	28	0	179306496	46	6107
2026-01-17 15:19:35.43	20.02	7.85	-36.4	-37.5	21.8	0.00e+00	123	28	0	191889408	46	5874
2026-01-17 15:19:39.47	19.93	8.17	-36.2	-37.3	22.0	0.00e+00	123	28	0	204472320	46	5745
2026-01-17 15:19:43.51	19.83	8.49	-36.2	-37.2	22.1	0.00e+00	123	28	0	217055232	46	5711
2026-01-17 15:19:47.55	19.74	8.82	-36.1	-37.2	22.1	0.00e+00	122	28	0	229638144	46	5669
2026-01-17 15:19:51.59	19.64	9.15	-36.0	-37.0	22.2	0.00e+00	123	28	0	242221056	46	5584
2026-01-17 15:19:55.63	19.54	9.49	-35.8	-36.8	22.4	0.00e+00	122	28	0	254803968	44	6106
2026-01-17 15:19:59.66	19.43	9.83	-35.8	-36.8	22.5	0.00e+00	122	28	0	267386880	44	6085
2026-01-17 15:20:03.70	19.32	10.17	-35.5	-36.5	22.7	0.00e+00	122	28	0	279969792	44	5918
2026-01-17 15:20:07.74	19.21	10.52	-35.7	-36.7	22.6	0.00e+00	123	28	0	292552704	44	6041
2026-01-17 15:20:11.78	19.10	10.88	-36.0	-37.0	22.4	0.00e+00	123	28	0	305135616	44	6254
2026-01-17 15:20:15.82	18.98	11.24	-35.5	-36.4	22.9	0.00e+00	122	28	0	317718528	44	5841
2026-01-17 15:20:19.85	18.86	11.60	-35.3	-36.2	23.1	0.00e+00	122	28	0	330301440	44	5724
2026-01-17 15:20:23.89	18.74	11.97	-35.2	-36.2	23.1	0.00e+00	123	28	0	342884352	44	5696
2026-01-17 15:20:27.93	18.61	12.35	-35.1	-36.0	23.2	0.00e+00	121	28	0	355467264	44	5586
2026-01-17 15:20:31.97	18.48	12.73	-35.1	-36.0	23.2	0.00e+00	123	28	0	368050176	44	5588
2026-01-17 15:20:36.01	18.35	13.12	-35.0	-35.9	23.4	0.00e+00	123	28	0	380633088	44	5506
2026-01-17 15:20:40.06	18.21	13.51	-35.1	-36.1	23.3	0.00e+00	122	28	0	393216000	44	5597
2026-01-17 15:20:44.10	18.07	13.92	-34.8	-35.7	23.7	0.00e+00	123	28	0	405798912	42	6029
2026-01-17 15:20:48.14	17.92	14.32	-34.7	-35.6	23.7	0.00e+00	123	28	0	418381824	42	5989
2026-01-17 15:20:52.17	17.77	14.73	-34.6	-35.5	23.7	0.00e+00	123	28	0	430964736	42	5908
2026-01-17 15:20:56.21	17.61	15.16	-34.7	-35.7	23.6	0.00e+00	120	28	0	443547648	42	6019
2026-01-17 15:21:00.25	17.45	15.58	-34.8	-35.8	23.6	0.00e+00	122	28	0	457179136	42	6071
2026-01-17 15:21:04.30	17.28	16.02	-34.8	-35.8	23.6	0.00e+00	122	28	0	469762048	42	6078
2026-01-17 15:21:08.34	17.11	16.46	-34.8	-35.8	23.7	0.00e+00	123	28	0	482344960	42	6095
2026-01-17 15:21:12.38	16.93	16.91	-34.9	-35.8	23.6	0.00e+00	122	28	0	494927872	42	6125
2026-01-17 15:21:16.42	16.75	17.37	-34.8	-35.8	23.7	0.00e+00	123	28	0	507510784	42	6084
2026-01-17 15:21:20.46	16.56	17.84	-34.9	-35.8	23.7	0.00e+00	122	28	0	520093696	42	6084
2026-01-17 15:21:24.50	16.36	18.31	-34.7	-35.6	23.9	0.00e+00	121	28	0	532676608	42	5959
2026-01-17 15:21:28.54	16.16	18.80	-34.7	-35.6	23.9	0.00e+00	122	28	0	545259520	42	5976
2026-01-17 15:21:32.58	15.95	19.29	-34.5	-35.5	23.9	0.00e+00	123	28	0	557842432	42	5866
2026-01-17 15:21:36.62	15.73	19.79	-34.5	-35.4	23.9	0.00e+00	122	28	0	570425344	42	5849
2026-01-17 15:21:40.66	15.50	20.31	-34.4	-35.4	24.0	0.00e+00	122	28	0	583008256	42	5799
2026-01-17 15:21:44.70	15.27	20.83	-34.4	-35.4	24.0	0.00e+00	122	28	0	595591168	42	5792
2026-01-17 15:21:48.73	15.03	21.36	-34.1	-35.0	24.4	0.00e+00	122	28	0	608174080	42	5538
2026-01-17 15:21:52.77	14.78	21.91	-33.9	-34.8	24.6	0.00e+00	122	28	0	620756992	42	5429
2026-01-17 15:21:56.81	14.51	22.47	-33.5	-34.4	24.8	0.00e+00	120	28	0	633339904	40	5804
2026-01-17 15:22:00.85	14.24	23.03	-33.1	-33.9	25.2	0.00e+00	122	28	0	645922816	40	5518
2026-01-17 15:22:04.89	13.96	23.61	-33.0	-33.9	25.2	0.00e+00	120	28	0	658505728	40	5485
2026-01-17 15:22:08.93	13.67	24.21	-33.0	-33.8	25.3	0.00e+00	123	28	0	671088640	40	5433
2026-01-17 15:22:12.97	13.36	24.81	-33.3	-34.2	25.0	0.00e+00	122	28	0	683671552	40	5671
2026-01-17 15:22:17.01	13.04	25.43	-33.3	-34.2	25.0	0.00e+00	123	28	0	696254464	40	5671
2026-01-17 15:22:21.05	12.71	26.06	-33.7	-34.6	24.6	0.00e+00	122	28	0	708837376	40	5949
2026-01-17 15:22:25.09	12.36	26.71	-34.1	-35.0	24.3	0.00e+00	123	28	0	721420288	40	6258
2026-01-17 15:22:29.13	12.00	27.37	-34.5	-35.4	24.0	0.00e+00	122	28	0	734003200	40	6523
2026-01-17 15:22:33.17	11.62	28.05	-34.7	-35.6	23.7	0.00e+00	123	28	0	746586112	40	6697
2026-01-17 15:22:37.21	11.23	28.74	-34.7	-35.7	23.8	0.00e+00	120	28	0	759169024	42	5995
2026-01-17 15:22:41.25	10.82	29.44	-34.5	-35.4	24.1	0.00e+00	122	28	0	772800512	42	5833
2026-01-17 15:22:45.29	10.38	30.17	-34.5	-35.4	23.9	0.00e+00	122	28	0	785383424	42	5838
2026-01-17 15:22:49.33	9.93	30.91	-34.1	-35.0	24.1	0.00e+00	122	28	0	797966336	42	5572
2026-01-17 15:22:53.37	9.45	31.66	-34.3	-35.3	24.1	0.00e+00	122	28	0	810549248	42	5728
2026-01-17 15:22:57.41	8.96	32.44	-34.5	-35.4	24.2	0.00e+00	122	28	0	823132160	42	5857
2026-01-17 15:23:01.46	8.43	33.23	-34.6	-35.5	24.1	0.00e+00	122	28	0	835715072	42	5923
2026-01-17 15:23:05.50	7.88	34.04	-34.9	-35.8	23.9	0.00e+00	123	28	0	848297984	42	6104
2026-01-17 15:23:09.54	7.30	34.87	-35.7	-36.6	23.3	0.00e+00	122	28	0	860880896	42	6708
2026-01-17 15:23:13.57	6.69	35.72	-36.0	-37.0	22.9	0.00e+00	123	28	0	873463808	44	6227
2026-01-17 15:23:17.61	6.04	36.58	-36.5	-37.5	22.6	0.00e+00	122	28	0	886046720	44	6643
2026-01-17 15:23:21.65	5.36	37.47	-36.0	-37.0	22.9	0.00e+00	122	28	0	898629632	44	6255
2026-01-17 15:23:25.69	4.64	38.38	-35.8	-36.7	23.2	0.00e+00	121	28	0	911212544	44	6052
2026-01-17 15:23:29.73	3.87	39.30	-36.3	-37.3	22.6	0.00e+00	122	28	0	923795456	44	6479
2026-01-17 15:23:33.77	3.06	40.24	-37.2	-38.2	22.0	0.00e+00	122	28	0	936378368	46	6421
2026-01-17 15:23:37.81	2.20	41.21	-36.3	-37.3	22.9	0.00e+00	123	28	0	948961280	46	5744
2026-01-17 15:23:41.85	1.29	42.19	-36.8	-37.8	22.2	0.00e+00	123	28	0	961544192	46	6090
2026-01-17 15:23:45.89	0.31	43.18	-37.2	-38.2	21.9	0.00e+00	123	28	0	974127104	46	6401
2026-01-17 15:23:49.92	359.28	44.19	-37.1	-38.1	22.1	0.00e+00	120	28	0	986710016	46	6291
2026-01-17 15:23:53.96	358.17	45.22	-36.8	-37.8	22.1	0.00e+00	122	28	0	999292928	46	6123
2026-01-17 15:23:58.01	356.98	46.27	-36.7	-37.7	22.4	0.00e+00	120	28	0	1011875840	46	6032
2026-01-17 15:24:02.05	355.72	47.33	-36.4	-37.3	22.5	0.00e+00	123	28	0	1024458752	46	5790
2026-01-17 15:24:06.09	354.36	48.39	-36.1	-37.1	22.4	0.00e+00	122	28	0	1037041664	46	5639
2026-01-17 15:24:10.13	352.91	49.47	-36.3	-37.3	22.7	0.00e+00	123	28	0	1049624576	46	5788
2026-01-17 15:24:14.16	351.35	50.54	-35.8	-36.8	23.2	0.00e+00	123	28	0	1062207488	46	5413
2026-01-17 15:24:18.20	349.67	51.62	-35.5	-36.4	23.4	0.00e+00	122	28	0	1074790400	44	5842
2026-01-17 15:24:22.24	347.87	52.70	-35.9	-36.9	23.0	0.00e+00	122	28	0	1088421888	44	6166
2026-01-17 15:24:26.28	345.93	53.77	-34.6	-35.5	24.0	0.00e+00	122	28	0	1101004800	42	5873
2026-01-17 15:24:30.33	343.83	54.82	-34.7	-35.6	24.1	0.00e+00	122	28	0	1113587712	42	5941
2026-01-17 15:24:34.37	341.58	55.85	-34.6	-35.6	24.0	0.00e+00	122	28	0	1126170624	42	5942
2026-01-17 15:24:38.41	339.15	56.86	-34.3	-35.2	24.2	0.00e+00	123	28	0	1138753536	42	5676
2026-01-17 15:24:42.45	336.55	57.83	-33.8	-34.7	24.8	0.00e+00	122	28	0	1151336448	42	5362
2026-01-17 15:24:46.49	333.75	58.75	-34.3	-35.3	24.3	0.00e+00	121	28	0	1163919360	42	5732
2026-01-17 15:24:50.53	330.76	59.62	-34.0	-34.9	24.1	0.00e+00	122	28	0	1176502272	42	5509
2026-01-17 15:24:54.57	327.56	60.43	-33.5	-34.4	24.9	0.00e+00	123	28	0	1189085184	40	5794
2026-01-17 15:24:58.61	324.17	61.16	-33.2	-34.1	25.1	0.00e+00	123	28	0	1201668096	40	5615
2026-01-17 15:25:02.65	320.58	61.80	-33.2	-34.1	25.0	0.00e+00	120	28	0	1214251008	40	5637
2026-01-17 15:25:06.69	316.81	62.35	-33.5	-34.4	24.6	0.00e+00	123	28	0	1226833920	40	5838
2026-01-17 15:25:10.73	312.89	62.79	-33.4	-34.2	25.0	0.00e+00	122	28	0	1239416832	40	5714
2026-01-17 15:25:14.77	308.84	63.11	-32.7	-33.6	25.2	0.00e+00	122	28	0	1251999744	38	5946
2026-01-17 15:25:18.81	304.70	63.31	-33.3	-34.2	24.7	0.00e+00	123	28	0	1264582656	38	6414
2026-01-17 15:25:22.85	300.50	63.39	-33.6	-34.5	24.6	0.00e+00	122	28	0	1277165568	38	6574
2026-01-17 15:25:26.89	296.30	63.34	-33.3	-34.1	25.1	0.00e+00	122	28	0	1289748480	38	6349
2026-01-17 15:25:30.93	292.15	63.17	-33.0	-33.9	25.2	0.00e+00	122	28	0	1302331392	38	6163
2026-01-17 15:25:34.97	288.07	62.87	-33.2	-34.1	25.0	0.00e+00	122	28	0	1314914304	38	6338
2026-01-17 15:25:39.01	284.11	62.46	-33.6	-34.5	24.8	0.00e+00	123	28	0	1327497216	40	5905
2026-01-17 15:25:43.06	280.29	61.93	-33.6	-34.4	24.9	0.00e+00	120	28	0	1340080128	40	5856
2026-01-17 15:25:47.10	276.66	61.31	-34.3	-35.3	24.3	0.00e+00	123	28	0	1352663040	40	6437
2026-01-17 15:25:51.14	273.22	60.60	-33.8	-34.7	24.7	0.00e+00	122	28	0	1366294528	40	6032
2026-01-17 15:25:55.17	269.98	59.81	-34.1	-35.0	24.4	0.00e+00	123	28	0	1377828864	40	6206
2026-01-17 15:25:59.21	266.94	58.95	-35.0	-35.9	23.8	0.00e+00	123	28	0	1390411776	42	6195
2026-01-17 15:26:03.25	264.09	58.04	-33.4	-34.3	25.1	0.00e+00	123	28	0	1404043264	40	5755
2026-01-17 15:26:07.30	261.43	57.07	-34.4	-35.4	23.6	0.00e+00	123	28	0	1416626176	42	5807
2026-01-17 15:26:11.33	258.97	56.08	-34.5	-35.4	24.0	0.00e+00	123	28	0	1429209088	42	5814
2026-01-17 15:26:15.38	256.67	55.04	-35.9	-36.9	22.8	0.00e+00	122	28	0	1441792000	44	6154
2026-01-17 15:26:19.42	254.54	53.99	-34.4	-35.3	24.3	0.00e+00	123	28	0	1454374912	42	5778
2026-01-17 15:26:23.46	252.56	52.92	-35.6	-36.6	23.0	0.00e+00	123	28	0	1466957824	44	5949
2026-01-17 15:26:27.50	250.72	51.85	-34.9	-35.8	23.8	0.00e+00	122	28	0	1479540736	44	5437
2026-01-17 15:26:31.54	249.01	50.77	-36.6	-37.7	21.6	0.00e+00	122	28	0	1492123648	46	5998
2026-01-17 15:26:35.57	247.42	49.69	-36.1	-37.1	22.9	0.00e+00	122	28	0	1504706560	46	5623
2026-01-17 15:26:39.61	245.94	48.61	-37.7	-38.8	21.1	0.00e+00	122	28	0	1517289472	48	6123
2026-01-17 15:26:43.66	244.56	47.53	-35.9	-36.9	23.1	0.00e+00	122	28	0	1529872384	44	6137
2026-01-17 15:26:47.70	243.27	46.47	-38.0	-39.2	21.0	0.00e+00	120	28	0	1542455296	48	6371
2026-01-17 15:26:51.74	242.07	45.42	-39.2	-40.6	19.1	0.00e+00	122	28	0	1555038208	50	6715
2026-01-17 15:26:55.77	240.94	44.39	-36.2	-37.1	22.9	0.00e+00	120	28	0	1567621120	46	5643
2026-01-17 15:26:59.82	239.89	43.36	-38.4	-39.6	20.6	0.00e+00	121	28	0	1580204032	48	6695
2026-01-17 15:27:03.86	238.90	42.36	-37.7	-38.8	21.4	0.00e+00	122	28	0	1592786944	48	6107
2026-01-17 15:27:07.90	237.97	41.37	-36.1	-37.1	22.7	0.00e+00	123	28	0	1605369856	46	5638
2026-01-17 15:27:11.94	237.09	40.40	-36.3	-37.3	22.1	0.00e+00	120	28	0	1617952768	46	5778
2026-01-17 15:27:15.98	236.27	39.45	-36.8	-37.8	22.3	0.00e+00	120	28	0	1630535680	46	6113
2026-01-17 15:27:20.02	235.49	38.52	-36.5	-37.5	22.6	0.00e+00	123	28	0	1643118592	46	5920
2026-01-17 15:27:24.06	234.76	37.61	-35.4	-36.4	23.5	0.00e+00	123	28	0	1655701504	44	5803
2026-01-17 15:27:28.09	234.07	36.72	-35.1	-36.1	23.8	0.00e+00	122	28	0	1668284416	44	5599
2026-01-17 15:27:32.13	233.41	35.84	-36.0	-37.0	23.1	0.00e+00	123	28	0	1681915904	44	6228
2026-01-17 15:27:36.18	232.79	34.98	-35.9	-36.9	22.9	0.00e+00	122	28	0	1693450240	44	6164
2026-01-17 15:27:40.22	232.20	34.15	-34.9	-35.8	23.9	0.00e+00	123	28	0	1706033152	44	5447
2026-01-17 15:27:44.26	231.64	33.33	-34.7	-35.6	24.0	0.00e+00	123	28	0	1719664640	42	5976
2026-01-17 15:27:48.30	231.11	32.53	-35.1	-36.0	23.7	0.00e+00	122	28	0	1732247552	42	6253
2026-01-17 15:27:52.34	230.60	31.75	-35.0	-35.9	24.0	0.00e+00	122	28	0	1744830464	42	6162
2026-01-17 15:27:56.39	230.12	30.99	-34.5	-35.4	24.2	0.00e+00	123	28	0	1757413376	42	5836
2026-01-17 15:28:00.42	229.66	30.24	-34.6	-35.5	24.0	0.00e+00	122	28	0	1769996288	42	5925
2026-01-17 15:28:04.46	229.22	29.51	-35.3	-36.3	23.5	0.00e+00	123	28	0	1782579200	42	6447
2026-01-17 15:28:08.50	228.80	28.80	-35.4	-36.4	23.4	0.00e+00	123	28	0	1795162112	42	6557
2026-01-17 15:28:12.54	228.40	28.10	-35.3	-36.3	23.5	0.00e+00	123	28	0	1807745024	42	6432
2026-01-17 15:28:16.58	228.02	27.42	-34.7	-35.6	24.1	0.00e+00	123	28	0	1820327936	42	5958
2026-01-17 15:28:20.61	227.65	26.76	-33.9	-34.8	24.7	0.00e+00	123	28	0	1832910848	42	5425
2026-01-17 15:28:24.66	227.30	26.10	-33.3	-34.2	25.1	0.00e+00	120	28	0	1845493760	40	5686
2026-01-17 15:28:28.70	226.96	25.47	-33.5	-34.4	25.0	0.00e+00	123	28	0	1858076672	40	5796
2026-01-17 15:28:32.74	226.64	24.84	-33.8	-34.7	24.8	0.00e+00	123	28	0	1870659584	40	6032
2026-01-17 15:28:36.78	226.33	24.23	-34.3	-35.2	24.3	0.00e+00	122	28	0	1883242496	40	6392
2026-01-17 15:28:40.82	226.03	23.64	-34.4	-35.3	24.3	0.00e+00	121	28	0	1895825408	40	6469
2026-01-17 15:28:44.86	225.74	23.05	-34.8	-35.7	24.0	0.00e+00	122	28	0	1908408320	40	6739
2026-01-17 15:28:48.90	225.47	22.48	-34.5	-35.4	24.1	0.00e+00	120	28	0	1920991232	42	5854
2026-01-17 15:28:52.94	225.20	21.92	-34.6	-35.5	24.0	0.00e+00	120	28	0	1933574144	42	5890
2026-01-17 15:28:56.99	224.94	21.37	-34.6	-35.5	24.1	0.00e+00	120	28	0	1946157056	42	5892
2026-01-17 15:29:01.03	224.70	20.83	-34.5	-35.4	24.2	0.00e+00	122	28	0	1958739968	42	5811
2026-01-17 15:29:05.07	224.46	20.30	-34.2	-35.1	24.3	0.00e+00	122	28	0	1971322880	42	5635
2026-01-17 15:29:09.11	224.23	19.79	-34.2	-35.1	24.4	0.00e+00	123	28	0	1983905792	42	5606
2026-01-17 15:29:13.15	224.01	19.28	-34.3	-35.2	24.2	0.00e+00	122	28	0	1997537280	42	5723
2026-01-17 15:29:17.19	223.79	18.78	-34.6	-35.6	23.9	0.00e+00	122	28	0	2010120192	42	5937
2026-01-17 15:29:21.23	223.58	18.29	-34.8	-35.7	23.8	0.00e+00	123	28	0	2021654528	42	6059
2026-01-17 15:29:25.27	223.38	17.82	-34.8	-35.7	23.8	0.00e+00	122	28	0	2035286016	42	6052
2026-01-17 15:29:29.31	223.19	17.35	-34.9	-35.8	23.8	0.00e+00	123	28	0	2047868928	42	6130
2026-01-17 15:29:33.34	223.00	16.89	-35.1	-36.0	23.5	0.00e+00	123	28	0	2060451840	42	6275
2026-01-17 15:29:37.38	222.82	16.43	-35.2	-36.2	23.4	0.00e+00	123	28	0	2073034752	42	6372
2026-01-17 15:29:41.42	222.65	15.99	-35.4	-36.4	23.3	0.00e+00	123	28	0	2085617664	42	6529
2026-01-17 15:29:45.46	222.48	15.55	-35.5	-36.5	23.2	0.00e+00	123	28	0	2098200576	42	6601
2026-01-17 15:29:49.50	222.31	15.12	-35.5	-36.5	23.2	0.00e+00	123	28	0	2110783488	42	6624
2026-01-17 15:29:53.54	222.15	14.70	-35.6	-36.6	23.2	0.00e+00	122	28	0	2123366400	44	5934
2026-01-17 15:29:57.58	222.00	14.28	-35.3	-36.3	23.3	0.00e+00	123	28	0	2135949312	44	5749
2026-01-17 15:30:01.63	221.84	13.87	-35.4	-36.3	23.2	0.00e+00	120	28	0	2148532224	44	5767
2026-01-17 15:30:05.67	221.70	13.47	-35.6	-36.6	23.0	0.00e+00	122	28	0	2161115136	44	5954
2026-01-17 15:30:09.71	221.56	13.07	-35.4	-36.4	23.1	0.00e+00	123	28	0	2173698048	44	5801
2026-01-17 15:30:13.75	221.42	12.68	-35.7	-36.6	22.9	0.00e+00	123	28	0	2186280960	44	5985
2026-01-17 15:30:17.79	221.28	12.30	-35.6	-36.5	23.0	0.00e+00	122	28	0	2198863872	44	5919
2026-01-17 15:30:21.82	221.15	11.92	-35.6	-36.6	23.0	0.00e+00	123	28	0	2211446784	44	5967
2026-01-17 15:30:25.86	221.03	11.55	-35.6	-36.6	23.0	0.00e+00	123	28	0	2224029696	44	5972
2026-01-17 15:30:29.91	220.90	11.18	-35.7	-36.6	23.0	0.00e+00	123	28	0	2236612608	44	5981
2026-01-17 15:30:33.95	220.78	10.82	-35.5	-36.4	23.1	0.00e+00	123	28	0	2249195520	44	5844
2026-01-17 15:30:37.99	220.67	10.46	-35.7	-36.6	22.8	0.00e+00	123	28	0	2261778432	44	5994
2026-01-17 15:30:42.03	220.55	10.11	-35.6	-36.6	22.9	0.00e+00	122	28	0	2274361344	44	5936
2026-01-17 15:30:46.07	220.44	9.76	-35.9	-36.9	22.6	0.00e+00	123	28	0	2286944256	44	6165
2026-01-17 15:30:50.11	220.33	9.42	-36.2	-37.2	22.4	0.00e+00	120	28	0	2299527168	44	6363
2026-01-17 15:30:54.15	220.23	9.08	-36.6	-37.6	22.0	0.00e+00	123	28	0	2312110080	44	6680
2026-01-17 15:30:58.19	220.13	8.75	-36.2	-37.2	22.3	0.00e+00	122	28	0	2325741568	46	5705
2026-01-17 15:31:02.23	220.03	8.42	-36.5	-37.6	22.0	0.00e+00	123	28	0	2338324480	46	5932
2026-01-17 15:31:06.27	219.93	8.09	-37.0	-38.0	21.5	0.00e+00	123	28	0	2350907392	46	6275
2026-01-17 15:31:10.30	219.83	7.77	-36.9	-38.0	21.5	0.00e+00	122	28	0	2363490304	46	6250
2026-01-17 15:31:14.34	219.74	7.45	-36.8	-37.9	21.5	0.00e+00	123	28	0	2376073216	46	6180
2026-01-17 15:31:18.38	219.65	7.14	-37.1	-38.2	21.3	0.00e+00	122	28	0	2388656128	46	6378
2026-01-17 15:31:22.41	219.56	6.83	-37.7	-38.8	20.8	0.00e+00	123	28	0	2401239040	48	6096
2026-01-17 15:31:26.45	219.48	6.53	-37.7	-38.9	20.6	0.00e+00	122	28	0	2413821952	48	6156
2026-01-17 15:31:30.49	219.39	6.22	-37.7	-38.8	20.5	0.00e+00	122	28	0	2426404864	48	6105
2026-01-17 15:31:34.53	219.31	5.92	-37.9	-39.1	20.3	0.00e+00	123	28	0	2438987776	48	6308
2026-01-17 15:31:38.57	219.23	5.63	-37.6	-38.8	20.5	0.00e+00	123	28	0	2451570688	48	6108
2026-01-17 15:31:42.61	219.15	5.34	-38.1	-39.3	20.3	0.00e+00	123	28	0	2464153600	48	6443
2026-01-17 15:31:46.64	219.07	5.05	-39.1	-40.4	19.0	0.00e+00	123	28	0	2476736512	50	6541
2026-01-17 15:31:50.68	219.00	4.76	-37.7	-38.9	20.4	0.00e+00	123	28	0	2489319424	50	5498
2026-01-17 15:31:54.72	218.93	4.48	-38.6	-39.9	19.4	0.00e+00	120	28	0	2501902336	50	6173
2026-01-17 15:31:58.76	218.85	4.20	-38.1	-39.3	19.9	0.00e+00	123	28	0	2514485248	50	5766
2026-01-17 15:32:02.80	218.78	3.92	-38.8	-40.1	19.0	0.00e+00	122	28	0	2527068160	50	6330
2026-01-17 15:32:06.84	218.72	3.64	-38.3	-39.6	19.9	0.00e+00	123	28	0	2539651072	50	5947
2026-01-17 15:32:10.88	218.65	3.37	-39.1	-40.5	18.4	0.00e+00	123	28	0	2552233984	50	6595
2026-01-17 15:32:14.92	218.58	3.10	-38.5	-39.9	19.1	0.00e+00	123	28	0	2564816896	50	6158
2026-01-17 15:32:18.97	218.52	2.84	-48.4	-61.2	3.5	1.52e+00	0	28	104	2570059776	60	40371
2026-01-17 15:32:23.00	218.46	2.57	-48.7	-61.6	3.5	1.51e+00	0	28	104	2570059776	60	42183
2026-01-17 15:32:27.04	218.39	2.31	-48.6	-61.5	3.5	1.52e+00	0	28	104	2570059776	60	41587
2026-01-17 15:32:31.09	218.33	2.05	-48.5	-61.4	3.5	1.52e+00	0	28	104	2570059776	60	41173
2026-01-17 15:32:35.12	218.27	1.79	-48.5	-61.4	3.5	1.52e+00	0	28	104	2570059776	60	41350
2026-01-17 15:32:39.16	218.22	1.54	-48.5	-61.4	3.5	1.52e+00	0	28	104	2570059776	60	41254
2026-01-17 15:32:43.20	218.16	1.28	-48.5	-61.4	3.5	1.52e+00	0	28	104	2570059776	60	41099
2026-01-17 15:32:47.24	218.10	1.03	-48.5	-61.4	3.5	1.52e+00	0	28	104	2570059776	60	41276
2026-01-17 15:32:51.29	218.05	0.78	-48.5	-61.4	3.5	1.52e+00	0	28	104	2570059776	60	41094
2026-01-17 15:32:55.33	218.00	0.54	-48.5	-61.4	3.5	1.52e+00	0	29	104	2570059776	60	41407
2026-01-17 15:32:59.37	217.95	0.29	-48.5	-61.4	3.5	1.52e+00	0	28	104	2570059776	60	41363
2026-01-17 15:33:03.42	217.89	0.05	-48.5	-61.4	3.5	1.52e+00	0	28	104	2570059776	60	41038

#Closed at: 2026-01-17 15:33:05
#Recorded file [2570 MB]: D:/lorett/data/35029_260118_031742.dat