passes_logs/2026/01/17/R4.6S_Anadyr/R4.6S_Anadyr__20260117_192651_NOAA_20_JPSS-1_rec.log

#Pass ID: 20260117_192651_NOAA 20 (JPSS-1)
#Satellite: NOAA 20 (JPSS-1)
#Configuration: NOAA 20
#almurnet v.1.7.20251203
#Start time: 2026-01-17 19:26:52

#Version: 2.2.20231116
#Station: R4.6S_Anadyr
#Location: 177.4865 lon 64.73178 lat
#TLE: 1 43013U 17073A   26016.52825843  .00000039  00000+0  39346-4 0  9991
#TLE: 2 43013  98.7637 317.4515 0001446  37.2648 322.8628 14.19536276422951

#Time	Az	El	Level	Level2	SNR	BER	BlckErr	Temp	State	Recorded	gain1	gain2
2026-01-17 19:26:52.55	53.40	0.04	-48.7	-63.6	3.5	1.51e+00	0	27	0	0	60	54713
2026-01-17 19:26:55.58	53.17	0.19	-48.9	-64.0	3.6	1.51e+00	0	28	104	0	60	57574
2026-01-17 19:26:58.61	52.94	0.34	-48.8	-64.0	3.6	1.51e+00	0	28	104	0	60	57143
2026-01-17 19:27:01.65	52.70	0.48	-48.8	-64.0	3.6	1.51e+00	0	29	104	0	60	57426
2026-01-17 19:27:04.67	52.46	0.63	-48.7	-63.9	3.6	1.51e+00	0	29	104	0	60	56796
2026-01-17 19:27:07.70	52.23	0.78	-48.7	-63.9	3.6	1.51e+00	0	29	104	0	60	56589
2026-01-17 19:27:10.73	51.98	0.93	-48.2	-63.3	3.6	1.51e+00	0	29	104	0	60	53059
2026-01-17 19:27:13.77	51.74	1.08	-47.1	-62.3	3.6	1.51e+00	0	29	104	0	60	46893
2026-01-17 19:27:16.80	51.49	1.22	-47.1	-62.2	3.6	1.51e+00	0	29	104	0	60	46810
2026-01-17 19:27:19.83	51.24	1.37	-47.1	-62.2	3.6	1.51e+00	0	29	104	0	60	46818
2026-01-17 19:27:22.85	50.99	1.52	-47.1	-62.2	3.6	1.51e+00	0	29	104	0	60	46742
2026-01-17 19:27:25.88	50.74	1.67	-47.1	-62.1	3.6	1.51e+00	0	29	104	0	60	46271
2026-01-17 19:27:28.91	50.48	1.82	-47.1	-62.2	3.6	1.51e+00	0	29	104	0	60	46528
2026-01-17 19:27:31.94	50.22	1.97	-47.0	-62.1	3.6	1.51e+00	0	29	104	0	60	45827
2026-01-17 19:27:34.97	49.96	2.12	-47.0	-61.7	3.6	1.51e+00	0	29	104	0	60	43810
2026-01-17 19:27:38.00	49.69	2.27	-47.0	-62.1	3.6	1.51e+00	0	29	104	0	60	46121
2026-01-17 19:27:41.03	49.43	2.42	-47.0	-62.1	3.6	1.51e+00	0	29	104	0	60	46213
2026-01-17 19:27:44.06	49.16	2.57	-47.0	-62.0	3.6	1.51e+00	0	29	104	0	60	45610
2026-01-17 19:27:47.09	48.88	2.72	-47.0	-61.4	3.6	1.51e+00	0	29	104	0	60	42678
2026-01-17 19:27:50.12	48.61	2.87	-46.8	-57.7	3.9	1.50e+00	0	29	104	0	60	27593
2026-01-17 19:27:53.15	48.33	3.03	-45.2	-49.6	11.4	5.12e-03	0	29	0	3145728	60	10946
2026-01-17 19:27:56.19	48.04	3.18	-46.9	-61.8	3.6	1.13e+00	0	29	104	8388608	60	44275
2026-01-17 19:27:59.21	47.76	3.33	-45.2	-49.6	11.5	5.78e-04	92	29	0	9437184	60	10891
2026-01-17 19:28:02.24	47.47	3.48	-43.8	-46.7	14.6	0.00e+00	92	29	0	14680064	60	7844
2026-01-17 19:28:05.27	47.18	3.63	-44.3	-47.6	14.0	2.20e-06	2	29	0	20971520	60	8644
2026-01-17 19:28:08.30	46.88	3.78	-43.8	-46.7	14.9	0.00e+00	92	29	0	26214400	60	7777
2026-01-17 19:28:11.33	46.58	3.94	-43.4	-46.1	15.5	0.00e+00	92	29	0	32505856	60	7270
2026-01-17 19:28:14.36	46.28	4.09	-42.8	-45.1	16.4	0.00e+00	79	29	0	37748736	58	7254
2026-01-17 19:28:17.39	45.98	4.24	-42.4	-44.5	17.0	0.00e+00	80	29	0	42991616	58	6815
2026-01-17 19:28:20.42	45.67	4.39	-41.9	-43.7	17.7	0.00e+00	92	29	0	49283072	58	6219
2026-01-17 19:28:23.45	45.36	4.55	-41.9	-43.8	17.8	0.00e+00	0	29	0	54525952	58	6258
2026-01-17 19:28:26.48	45.04	4.70	-41.8	-43.5	18.1	0.00e+00	5	29	0	60817408	56	6847
2026-01-17 19:28:29.51	44.73	4.85	-41.9	-43.8	17.9	0.00e+00	92	30	0	66060288	56	7016
2026-01-17 19:28:32.54	44.40	5.01	-41.7	-43.4	18.2	0.00e+00	37	29	0	72351744	56	6715
2026-01-17 19:28:35.57	44.08	5.16	-41.8	-43.6	18.0	0.00e+00	84	29	0	77594624	56	6904
2026-01-17 19:28:38.60	43.75	5.31	-41.6	-43.2	18.5	0.00e+00	92	29	0	82837504	56	6611
2026-01-17 19:28:41.63	43.42	5.46	-41.3	-42.9	18.8	0.00e+00	92	30	0	89128960	56	6339
2026-01-17 19:28:44.66	43.08	5.62	-41.4	-43.0	18.8	0.00e+00	0	30	0	94371840	56	6409
2026-01-17 19:28:47.69	42.74	5.77	-41.5	-43.1	18.8	0.00e+00	53	30	0	100663296	56	6496
2026-01-17 19:28:50.72	42.40	5.92	-41.3	-42.9	18.9	0.00e+00	92	30	0	105906176	56	6323
2026-01-17 19:28:53.75	42.05	6.08	-41.3	-42.9	18.9	0.00e+00	1	30	0	111149056	56	6336
2026-01-17 19:28:56.79	41.70	6.23	-41.2	-42.7	19.1	0.00e+00	0	30	0	117440512	56	6236
2026-01-17 19:28:59.81	41.35	6.38	-41.2	-42.7	19.2	0.00e+00	92	30	0	122683392	56	6228
2026-01-17 19:29:02.84	40.99	6.53	-41.3	-42.8	19.1	0.00e+00	82	30	0	128974848	56	6291
2026-01-17 19:29:05.87	40.63	6.68	-41.1	-42.6	19.3	0.00e+00	5	30	0	134217728	56	6118
2026-01-17 19:29:08.90	40.26	6.84	-41.1	-42.7	19.3	0.00e+00	90	30	0	140509184	56	6181
2026-01-17 19:29:11.93	39.89	6.99	-41.0	-42.5	19.4	0.00e+00	92	30	0	145752064	56	6057
2026-01-17 19:29:14.96	39.52	7.14	-41.2	-42.7	19.1	0.00e+00	0	30	0	150994944	56	6182
2026-01-17 19:29:17.99	39.14	7.29	-41.0	-42.4	19.5	0.00e+00	0	30	0	157286400	56	6002
2026-01-17 19:29:21.02	38.76	7.44	-41.0	-42.4	19.5	0.00e+00	91	30	0	162529280	56	6018
2026-01-17 19:29:24.05	38.38	7.59	-40.9	-42.4	19.6	0.00e+00	0	30	0	168820736	56	5980
2026-01-17 19:29:27.08	37.99	7.74	-40.6	-42.1	19.8	0.00e+00	4	30	0	174063616	54	6472
2026-01-17 19:29:30.11	37.59	7.89	-40.7	-42.1	19.8	0.00e+00	92	30	0	179306496	54	6515
2026-01-17 19:29:33.14	37.19	8.04	-40.3	-41.6	20.3	0.00e+00	0	30	0	185597952	54	6146
2026-01-17 19:29:36.17	36.79	8.19	-40.5	-41.8	20.2	0.00e+00	82	30	0	190840832	54	6316
2026-01-17 19:29:39.20	36.39	8.34	-40.4	-41.7	20.2	0.00e+00	0	30	0	197132288	54	6206
2026-01-17 19:29:42.23	35.98	8.49	-40.3	-41.6	20.3	0.00e+00	92	30	0	202375168	54	6125
2026-01-17 19:29:45.26	35.56	8.63	-40.2	-41.5	20.5	0.00e+00	0	30	0	208666624	54	6087
2026-01-17 19:29:48.29	35.14	8.78	-40.4	-41.8	20.2	0.00e+00	4	30	0	213909504	54	6266
2026-01-17 19:29:51.32	34.72	8.93	-40.3	-41.6	20.3	0.00e+00	92	30	0	219152384	54	6162
2026-01-17 19:29:54.35	34.29	9.07	-40.4	-41.7	20.3	0.00e+00	2	30	0	225443840	54	6206
2026-01-17 19:29:57.38	33.86	9.22	-40.4	-41.7	20.4	0.00e+00	0	30	0	230686720	54	6186
2026-01-17 19:30:00.41	33.42	9.36	-40.4	-41.7	20.3	0.00e+00	92	30	0	236978176	54	6238
2026-01-17 19:30:03.44	32.98	9.50	-40.0	-41.2	20.8	0.00e+00	0	30	0	242221056	54	5855
2026-01-17 19:30:06.47	32.53	9.65	-39.8	-41.0	21.0	0.00e+00	8	30	0	248512512	54	5707
2026-01-17 19:30:09.50	32.08	9.79	-39.7	-40.9	21.0	0.00e+00	4	30	0	253755392	52	6359
2026-01-17 19:30:12.53	31.63	9.93	-39.5	-40.7	21.4	0.00e+00	22	30	0	258998272	52	6176
2026-01-17 19:30:15.56	31.17	10.07	-39.4	-40.5	21.6	0.00e+00	3	30	0	265289728	52	6056
2026-01-17 19:30:18.59	30.71	10.21	-39.0	-40.1	21.8	0.00e+00	0	30	0	270532608	52	5811
2026-01-17 19:30:21.62	30.24	10.34	-39.1	-40.1	21.8	0.00e+00	92	30	0	276824064	52	5824
2026-01-17 19:30:24.65	29.77	10.48	-38.9	-39.9	22.1	0.00e+00	7	30	0	282066944	52	5680
2026-01-17 19:30:27.68	29.29	10.61	-39.1	-40.2	21.9	0.00e+00	4	30	0	287309824	52	5830
2026-01-17 19:30:30.72	28.81	10.75	-39.0	-40.0	22.0	0.00e+00	92	30	0	293601280	52	5760
2026-01-17 19:30:33.75	28.32	10.88	-38.6	-39.6	22.4	0.00e+00	5	30	0	298844160	50	6128
2026-01-17 19:30:36.77	27.83	11.01	-38.6	-39.7	22.4	0.00e+00	0	30	0	305135616	50	6191
2026-01-17 19:30:39.81	27.34	11.14	-38.5	-39.5	22.6	0.00e+00	92	30	0	310378496	50	6053
2026-01-17 19:30:42.84	26.84	11.27	-38.4	-39.4	22.6	0.00e+00	3	30	0	316669952	50	6010
2026-01-17 19:30:45.87	26.34	11.40	-38.2	-39.1	22.8	0.00e+00	0	30	0	321912832	50	5818
2026-01-17 19:30:48.90	25.83	11.52	-38.1	-39.1	22.9	0.00e+00	5	30	0	327155712	50	5778
2026-01-17 19:30:51.93	25.32	11.65	-38.1	-39.0	22.9	0.00e+00	92	30	0	333447168	50	5738
2026-01-17 19:30:54.96	24.80	11.77	-38.1	-39.1	22.9	0.00e+00	77	30	0	338690048	50	5798
2026-01-17 19:30:57.99	24.28	11.89	-38.3	-39.3	22.7	0.00e+00	76	30	0	344981504	50	5905
2026-01-17 19:31:01.02	23.75	12.01	-38.2	-39.2	22.8	0.00e+00	92	30	0	350224384	50	5847
2026-01-17 19:31:04.05	23.22	12.13	-38.4	-39.4	22.6	0.00e+00	0	30	0	355467264	50	5980
2026-01-17 19:31:07.08	22.69	12.24	-38.7	-39.7	22.3	0.00e+00	0	30	0	361758720	50	6237
2026-01-17 19:31:10.11	22.15	12.36	-38.7	-39.7	22.4	0.00e+00	92	30	0	367001600	50	6229
2026-01-17 19:31:13.14	21.61	12.47	-38.4	-39.4	22.6	0.00e+00	0	30	0	373293056	50	5995
2026-01-17 19:31:16.17	21.06	12.58	-38.4	-39.4	22.6	0.00e+00	0	30	0	378535936	50	5971
2026-01-17 19:31:19.20	20.51	12.68	-38.5	-39.5	22.6	0.00e+00	0	30	0	384827392	50	6037
2026-01-17 19:31:22.24	19.96	12.79	-38.3	-39.3	22.8	0.00e+00	73	30	0	390070272	50	5921
2026-01-17 19:31:25.26	19.40	12.89	-38.4	-39.3	22.7	0.00e+00	0	30	0	395313152	50	5948
2026-01-17 19:31:28.30	18.83	12.99	-38.2	-39.2	22.9	0.00e+00	0	30	0	401604608	50	5874
2026-01-17 19:31:31.33	18.27	13.09	-38.1	-39.1	23.0	0.00e+00	90	30	0	406847488	50	5762
2026-01-17 19:31:34.36	17.70	13.19	-38.3	-39.3	22.9	0.00e+00	82	30	0	413138944	50	5900
2026-01-17 19:31:37.39	17.12	13.28	-38.3	-39.2	22.8	0.00e+00	0	30	0	418381824	50	5895
2026-01-17 19:31:40.42	16.55	13.37	-38.2	-39.2	22.9	0.00e+00	68	30	0	424673280	50	5877
2026-01-17 19:31:43.45	15.97	13.46	-38.0	-38.9	23.1	0.00e+00	6	30	0	429916160	50	5691
2026-01-17 19:31:46.49	15.38	13.54	-38.2	-39.1	22.9	0.00e+00	4	30	0	435159040	50	5804
2026-01-17 19:31:49.52	14.79	13.63	-38.0	-39.0	23.1	0.00e+00	6	30	0	441450496	50	5707
2026-01-17 19:31:52.55	14.20	13.71	-37.9	-38.8	23.1	0.00e+00	12	30	0	446693376	50	5607
2026-01-17 19:31:55.58	13.61	13.78	-38.3	-39.3	22.8	0.00e+00	0	30	0	452984832	50	5931
2026-01-17 19:31:58.61	13.01	13.86	-38.3	-39.2	22.8	0.00e+00	0	30	0	458227712	50	5883
2026-01-17 19:32:01.64	12.41	13.93	-38.7	-39.7	22.4	0.00e+00	92	30	0	463470592	50	6226
2026-01-17 19:32:04.67	11.81	14.00	-38.4	-39.4	22.8	0.00e+00	0	30	0	469762048	50	5988
2026-01-17 19:32:07.70	11.20	14.06	-38.6	-39.6	22.5	0.00e+00	0	30	0	475004928	50	6150
2026-01-17 19:32:10.73	10.59	14.13	-38.9	-40.0	22.2	0.00e+00	92	30	0	481296384	50	6398
2026-01-17 19:32:13.76	9.98	14.19	-39.0	-40.1	22.2	0.00e+00	75	30	0	486539264	50	6506
2026-01-17 19:32:16.79	9.37	14.24	-38.9	-40.0	22.2	0.00e+00	76	30	0	492830720	50	6412
2026-01-17 19:32:19.82	8.75	14.29	-38.8	-39.9	22.4	0.00e+00	0	30	0	498073600	50	6320
2026-01-17 19:32:22.85	8.13	14.34	-38.4	-39.3	22.8	0.00e+00	0	30	0	503316480	50	5955
2026-01-17 19:32:25.88	7.51	14.39	-38.4	-39.4	22.7	0.00e+00	4	30	0	509607936	50	5982
2026-01-17 19:32:28.91	6.89	14.43	-38.3	-39.3	22.9	0.00e+00	5	30	0	514850816	50	5911
2026-01-17 19:32:31.94	6.27	14.47	-38.4	-39.3	22.8	0.00e+00	92	30	0	521142272	50	5958
2026-01-17 19:32:34.97	5.64	14.51	-38.5	-39.5	22.7	0.00e+00	3	30	0	526385152	50	6062
2026-01-17 19:32:38.01	5.01	14.54	-38.4	-39.4	22.8	0.00e+00	0	30	0	531628032	50	6003
2026-01-17 19:32:41.04	4.39	14.57	-38.5	-39.5	22.7	0.00e+00	90	30	0	537919488	50	6066
2026-01-17 19:32:44.07	3.76	14.60	-38.5	-39.5	22.6	0.00e+00	0	30	0	543162368	50	6097
2026-01-17 19:32:47.10	3.13	14.62	-38.3	-39.3	22.8	0.00e+00	5	30	0	549453824	50	5940
2026-01-17 19:32:50.13	2.49	14.64	-38.4	-39.4	22.8	0.00e+00	92	30	0	554696704	50	6025
2026-01-17 19:32:53.16	1.86	14.66	-38.8	-39.9	22.5	0.00e+00	81	30	0	560988160	50	6320
2026-01-17 19:32:56.19	1.23	14.67	-38.4	-39.3	23.0	0.00e+00	78	30	0	566231040	50	5964
2026-01-17 19:32:59.22	0.60	14.68	-38.4	-39.3	22.9	0.00e+00	0	30	0	571473920	50	5946
2026-01-17 19:33:02.25	359.96	14.69	-38.3	-39.3	22.9	0.00e+00	82	30	0	577765376	50	5909
2026-01-17 19:33:05.28	359.33	14.69	-38.4	-39.3	22.9	0.00e+00	0	30	0	583008256	50	5947
2026-01-17 19:33:08.31	358.70	14.69	-38.2	-39.2	23.0	0.00e+00	0	30	0	589299712	50	5859
2026-01-17 19:33:11.34	358.06	14.68	-38.3	-39.3	22.9	0.00e+00	92	30	0	594542592	50	5942
2026-01-17 19:33:14.37	357.43	14.68	-38.3	-39.3	22.9	0.00e+00	0	30	0	600834048	50	5917
2026-01-17 19:33:17.40	356.80	14.66	-38.3	-39.3	22.9	0.00e+00	0	30	0	606076928	50	5902
2026-01-17 19:33:20.43	356.16	14.65	-38.7	-39.7	22.5	0.00e+00	91	30	0	611319808	50	6208
2026-01-17 19:33:23.46	355.53	14.63	-38.8	-39.8	22.4	0.00e+00	5	30	0	617611264	50	6266
2026-01-17 19:33:26.49	354.90	14.61	-38.8	-39.8	22.5	0.00e+00	2	30	0	622854144	50	6267
2026-01-17 19:33:29.52	354.27	14.58	-38.9	-39.9	22.4	0.00e+00	2	30	0	629145600	50	6334
2026-01-17 19:33:32.55	353.64	14.55	-38.6	-39.6	22.6	0.00e+00	0	30	0	634388480	50	6159
2026-01-17 19:33:35.58	353.02	14.52	-39.0	-40.0	22.3	0.00e+00	0	30	0	639631360	50	6416
2026-01-17 19:33:38.61	352.39	14.48	-39.0	-40.1	22.2	0.00e+00	85	30	0	645922816	50	6476
2026-01-17 19:33:41.64	351.77	14.44	-38.7	-39.7	22.4	0.00e+00	92	30	0	651165696	50	6230
2026-01-17 19:33:44.67	351.14	14.40	-38.4	-39.4	22.8	0.00e+00	6	30	0	657457152	50	5989
2026-01-17 19:33:47.71	350.52	14.35	-38.6	-39.6	22.6	0.00e+00	6	30	0	662700032	50	6110
2026-01-17 19:33:50.73	349.91	14.31	-38.7	-39.7	22.5	0.00e+00	92	30	0	668991488	50	6187
2026-01-17 19:33:53.76	349.29	14.25	-38.6	-39.6	22.7	0.00e+00	76	30	0	674234368	50	6127
2026-01-17 19:33:56.79	348.68	14.20	-38.3	-39.3	22.9	0.00e+00	77	30	0	679477248	50	5927
2026-01-17 19:33:59.82	348.06	14.14	-38.4	-39.3	22.8	0.00e+00	95	30	0	685768704	50	5952
2026-01-17 19:34:02.85	347.46	14.08	-38.4	-39.4	22.9	0.00e+00	0	30	0	691011584	50	5982
2026-01-17 19:34:05.88	346.85	14.01	-38.5	-39.5	22.7	0.00e+00	3	30	0	697303040	50	6036
2026-01-17 19:34:08.91	346.24	13.94	-38.5	-39.5	22.8	0.00e+00	0	30	0	702545920	50	6056
2026-01-17 19:34:11.94	345.64	13.87	-38.7	-39.7	22.5	0.00e+00	92	30	0	707788800	50	6177
2026-01-17 19:34:14.97	345.05	13.80	-38.8	-39.8	22.5	0.00e+00	77	30	0	714080256	50	6258
2026-01-17 19:34:18.01	344.45	13.72	-38.8	-39.9	22.4	0.00e+00	0	30	0	719323136	50	6324
2026-01-17 19:34:21.04	343.86	13.64	-38.8	-39.8	22.5	0.00e+00	91	30	0	725614592	50	6264
2026-01-17 19:34:24.07	343.27	13.56	-38.6	-39.6	22.5	0.00e+00	0	30	0	730857472	50	6173
2026-01-17 19:34:27.10	342.68	13.48	-38.7	-39.7	22.5	0.00e+00	0	30	0	737148928	50	6240
2026-01-17 19:34:30.14	342.10	13.39	-39.0	-40.0	22.3	0.00e+00	92	30	0	742391808	50	6451
2026-01-17 19:34:33.17	341.52	13.30	-38.9	-39.9	22.4	0.00e+00	82	30	0	747634688	50	6358
2026-01-17 19:34:36.20	340.95	13.21	-38.6	-39.6	22.6	0.00e+00	80	30	0	753926144	50	6105
2026-01-17 19:34:39.23	340.38	13.11	-38.4	-39.4	22.7	0.00e+00	19	30	0	759169024	50	6018
2026-01-17 19:34:42.26	339.81	13.01	-38.5	-39.5	22.7	0.00e+00	0	30	0	765460480	50	6087
2026-01-17 19:34:45.29	339.25	12.91	-38.4	-39.4	22.8	0.00e+00	2	30	0	770703360	50	5987
2026-01-17 19:34:48.32	338.69	12.81	-38.4	-39.4	22.8	0.00e+00	0	30	0	776994816	50	5980
2026-01-17 19:34:51.35	338.13	12.71	-38.5	-39.5	22.7	0.00e+00	92	30	0	782237696	50	6048
2026-01-17 19:34:54.39	337.58	12.60	-38.5	-39.5	22.6	0.00e+00	0	30	0	787480576	50	6067
2026-01-17 19:34:57.42	337.03	12.49	-38.4	-39.4	22.7	0.00e+00	0	30	0	793772032	50	6012
2026-01-17 19:35:00.44	336.49	12.38	-38.4	-39.4	22.7	0.00e+00	92	30	0	799014912	50	6000
2026-01-17 19:35:03.47	335.95	12.27	-38.3	-39.3	22.8	0.00e+00	5	30	0	805306368	50	5925
2026-01-17 19:35:06.49	335.42	12.15	-38.4	-39.4	22.7	0.00e+00	0	30	0	810549248	50	5972
2026-01-17 19:35:09.52	334.89	12.04	-38.4	-39.4	22.8	0.00e+00	90	30	0	815792128	50	6011
2026-01-17 19:35:12.55	334.36	11.92	-38.8	-39.8	22.3	0.00e+00	0	30	0	822083584	50	6303
2026-01-17 19:35:15.58	333.84	11.80	-39.0	-40.0	22.2	0.00e+00	84	30	0	827326464	50	6411
2026-01-17 19:35:18.61	333.32	11.68	-39.2	-40.3	21.9	0.00e+00	0	30	0	833617920	50	6637
2026-01-17 19:35:21.65	332.81	11.55	-39.2	-40.3	21.9	0.00e+00	75	30	0	838860800	50	6664
2026-01-17 19:35:24.68	332.30	11.43	-39.4	-40.4	21.7	0.00e+00	6	30	0	845152256	50	6769
2026-01-17 19:35:27.71	331.80	11.30	-39.6	-40.7	21.5	0.00e+00	6	30	0	850395136	50	6941
2026-01-17 19:35:30.74	331.30	11.17	-39.9	-41.1	21.2	0.00e+00	91	30	0	855638016	52	6504
2026-01-17 19:35:33.77	330.80	11.04	-40.2	-41.4	20.9	0.00e+00	79	30	0	861929472	52	6740
2026-01-17 19:35:36.80	330.31	10.91	-40.4	-41.6	20.5	0.00e+00	0	30	0	867172352	52	6904
2026-01-17 19:35:39.83	329.82	10.78	-40.5	-41.7	20.6	0.00e+00	92	30	0	873463808	52	6996
2026-01-17 19:35:42.86	329.34	10.65	-40.4	-41.7	20.6	0.00e+00	0	30	0	878706688	52	6956
2026-01-17 19:35:45.89	328.86	10.51	-40.6	-41.9	20.3	0.00e+00	0	30	0	883949568	52	7155
2026-01-17 19:35:48.92	328.39	10.37	-40.9	-42.3	20.0	0.00e+00	81	30	0	890241024	54	6621
2026-01-17 19:35:51.95	327.92	10.24	-41.1	-42.5	19.7	0.00e+00	88	30	0	895483904	54	6834
2026-01-17 19:35:54.97	327.46	10.10	-41.1	-42.5	19.8	0.00e+00	2	30	0	901775360	54	6789
2026-01-17 19:35:58.00	327.00	9.96	-41.0	-42.4	19.9	0.00e+00	80	30	0	907018240	54	6735
2026-01-17 19:36:01.03	326.55	9.82	-41.2	-42.7	19.6	0.00e+00	92	30	0	913309696	54	6962
2026-01-17 19:36:04.06	326.09	9.68	-41.4	-42.9	19.3	0.00e+00	0	30	0	918552576	54	7140
2026-01-17 19:36:07.09	325.65	9.54	-41.8	-43.4	19.0	0.00e+00	0	30	0	923795456	54	7548
2026-01-17 19:36:10.11	325.21	9.39	-42.3	-44.0	18.4	0.00e+00	92	30	0	930086912	56	7208
2026-01-17 19:36:13.12	324.77	9.25	-42.1	-43.8	18.6	0.00e+00	1	30	0	935329792	56	7042
2026-01-17 19:36:16.15	324.34	9.11	-41.7	-43.3	19.0	0.00e+00	0	30	0	941621248	56	6653
2026-01-17 19:36:19.18	323.91	8.96	-41.5	-43.0	19.3	0.00e+00	0	30	0	946864128	56	6461
2026-01-17 19:36:22.21	323.49	8.82	-41.3	-42.8	19.5	0.00e+00	0	30	0	952107008	56	6254
2026-01-17 19:36:25.24	323.07	8.67	-41.0	-42.4	19.9	0.00e+00	0	30	0	958398464	56	5992
2026-01-17 19:36:28.27	322.65	8.52	-41.0	-42.4	19.8	0.00e+00	0	30	0	963641344	56	6011
2026-01-17 19:36:31.30	322.24	8.38	-41.0	-42.5	19.8	0.00e+00	84	30	0	969932800	56	6041
2026-01-17 19:36:34.33	321.83	8.23	-40.9	-42.2	20.0	0.00e+00	0	30	0	975175680	56	5875
2026-01-17 19:36:37.36	321.43	8.08	-40.8	-42.2	20.1	0.00e+00	81	30	0	981467136	56	5869
2026-01-17 19:36:40.39	321.03	7.93	-40.6	-42.0	20.2	0.00e+00	92	30	0	986710016	54	6393
2026-01-17 19:36:43.42	320.64	7.78	-40.3	-41.5	20.5	0.00e+00	0	30	0	991952896	54	6079
2026-01-17 19:36:46.45	320.24	7.63	-40.1	-41.4	20.7	0.00e+00	6	30	0	998244352	54	5968
2026-01-17 19:36:49.48	319.86	7.48	-39.9	-41.1	21.0	0.00e+00	92	30	0	1003487232	54	5794
2026-01-17 19:36:52.51	319.48	7.33	-39.8	-41.0	21.1	0.00e+00	0	30	0	1009778688	52	6407
2026-01-17 19:36:55.54	319.10	7.18	-39.6	-40.8	21.3	0.00e+00	0	30	0	1015021568	52	6257
2026-01-17 19:36:58.57	318.72	7.03	-39.6	-40.8	21.2	0.00e+00	85	30	0	1020264448	52	6272
2026-01-17 19:37:01.60	318.35	6.88	-39.6	-40.8	21.2	0.00e+00	90	30	0	1026555904	52	6256
2026-01-17 19:37:04.63	317.99	6.72	-39.6	-40.8	21.2	0.00e+00	6	30	0	1031798784	52	6261
2026-01-17 19:37:07.66	317.62	6.57	-39.2	-40.3	21.5	0.00e+00	7	30	0	1038090240	52	5948
2026-01-17 19:37:10.69	317.26	6.42	-39.5	-40.6	21.4	0.00e+00	92	30	0	1043333120	52	6143
2026-01-17 19:37:13.72	316.91	6.27	-39.5	-40.6	21.3	0.00e+00	82	30	0	1049624576	52	6137
2026-01-17 19:37:16.75	316.56	6.11	-39.5	-40.7	21.2	0.00e+00	82	30	0	1054867456	52	6207
2026-01-17 19:37:19.78	316.21	5.96	-39.6	-40.8	21.1	0.00e+00	92	30	0	1060110336	52	6249
2026-01-17 19:37:22.81	315.87	5.81	-39.3	-40.5	21.4	0.00e+00	2	30	0	1066401792	52	6063
2026-01-17 19:37:25.84	315.53	5.66	-39.7	-40.9	21.0	0.00e+00	0	30	0	1071644672	52	6386
2026-01-17 19:37:28.87	315.19	5.50	-40.0	-41.3	20.4	0.00e+00	5	30	0	1077936128	52	6657
2026-01-17 19:37:31.90	314.86	5.35	-40.8	-42.2	19.8	0.00e+00	0	30	0	1083179008	54	6550
2026-01-17 19:37:34.93	314.53	5.20	-41.6	-43.2	18.7	0.00e+00	0	30	0	1088421888	54	7365
2026-01-17 19:37:37.96	314.20	5.05	-41.8	-43.4	18.4	0.00e+00	5	30	0	1094713344	56	6762
2026-01-17 19:37:40.99	313.88	4.89	-41.8	-43.5	18.6	0.00e+00	92	30	0	1099956224	56	6833
2026-01-17 19:37:44.02	313.56	4.74	-40.7	-42.1	19.8	0.00e+00	0	30	0	1106247680	54	6530
2026-01-17 19:37:47.05	313.25	4.59	-39.9	-41.1	20.6	0.00e+00	0	30	0	1111490560	54	5825
2026-01-17 19:37:50.08	312.93	4.43	-40.2	-41.5	20.3	0.00e+00	91	30	0	1117782016	52	6823
2026-01-17 19:37:53.10	312.63	4.28	-40.3	-41.6	20.1	0.00e+00	82	30	0	1123024896	52	6890
2026-01-17 19:37:56.13	312.32	4.13	-40.5	-41.9	19.7	0.00e+00	81	30	0	1128267776	54	6357
2026-01-17 19:37:59.16	312.02	3.98	-40.6	-42.1	19.5	0.00e+00	91	30	0	1134559232	54	6504
2026-01-17 19:38:02.19	311.72	3.83	-40.5	-42.0	19.5	0.00e+00	0	30	0	1139802112	54	6409
2026-01-17 19:38:05.22	311.43	3.67	-40.6	-42.1	19.3	0.00e+00	0	30	0	1146093568	54	6482
2026-01-17 19:38:08.24	311.13	3.52	-41.0	-42.5	19.1	0.00e+00	59	30	0	1151336448	54	6799
2026-01-17 19:38:11.27	310.84	3.37	-41.0	-42.5	19.0	0.00e+00	0	30	0	1156579328	54	6816
2026-01-17 19:38:14.30	310.56	3.22	-41.3	-43.0	18.6	0.00e+00	80	30	0	1162870784	54	7178
2026-01-17 19:38:17.33	310.27	3.07	-41.4	-43.1	18.4	0.00e+00	0	30	0	1168113664	54	7263
2026-01-17 19:38:20.36	309.99	2.92	-48.5	-63.7	3.6	1.51e+00	0	30	104	1170210816	60	55028
2026-01-17 19:38:23.39	309.72	2.76	-48.9	-64.0	3.6	1.51e+00	0	30	104	1170210816	60	57311
2026-01-17 19:38:26.43	309.44	2.61	-48.9	-64.1	3.6	1.51e+00	0	30	104	1170210816	60	58185
2026-01-17 19:38:29.46	309.17	2.46	-48.4	-64.0	3.6	1.51e+00	0	30	104	1170210816	60	57131
2026-01-17 19:38:32.49	308.90	2.31	-48.6	-63.9	3.6	1.51e+00	0	30	104	1170210816	60	56399
2026-01-17 19:38:35.52	308.64	2.16	-48.9	-64.0	3.6	1.51e+00	0	30	104	1170210816	60	57566
2026-01-17 19:38:38.55	308.37	2.01	-48.8	-64.0	3.6	1.51e+00	0	30	104	1170210816	60	57166
2026-01-17 19:38:41.58	308.11	1.86	-48.8	-64.0	3.6	1.51e+00	0	30	104	1170210816	60	57254
2026-01-17 19:38:44.61	307.86	1.71	-48.8	-64.0	3.6	1.51e+00	0	30	104	1170210816	60	56984
2026-01-17 19:38:47.64	307.60	1.56	-48.8	-64.0	3.6	1.51e+00	0	30	104	1170210816	60	57006
2026-01-17 19:38:50.67	307.35	1.41	-48.8	-63.9	3.6	1.51e+00	0	30	104	1170210816	60	56614
2026-01-17 19:38:53.70	307.10	1.26	-48.8	-64.0	3.6	1.51e+00	0	30	104	1170210816	60	57027
2026-01-17 19:38:56.73	306.85	1.12	-48.8	-64.0	3.6	1.51e+00	0	30	104	1170210816	60	57472
2026-01-17 19:38:59.75	306.61	0.97	-48.8	-64.0	3.6	1.51e+00	0	30	104	1170210816	60	56962
2026-01-17 19:39:02.76	306.37	0.82	-48.8	-64.0	3.6	1.51e+00	0	30	104	1170210816	60	57096
2026-01-17 19:39:05.79	306.13	0.67	-48.8	-64.0	3.6	1.51e+00	0	30	104	1170210816	60	57274
2026-01-17 19:39:08.82	305.89	0.53	-48.8	-64.0	3.6	1.51e+00	0	30	104	1170210816	60	57350
2026-01-17 19:39:11.84	305.66	0.38	-48.8	-64.0	3.6	1.51e+00	0	30	104	1170210816	60	57072
2026-01-17 19:39:14.87	305.43	0.23	-48.8	-63.9	3.6	1.51e+00	0	30	104	1170210816	60	56940
2026-01-17 19:39:17.90	305.20	0.08	-48.9	-64.0	3.6	1.51e+00	0	30	104	1170210816	60	57558
2026-01-17 19:39:20.93	304.97	-0.06	-48.8	-64.0	3.6	1.51e+00	0	30	104	1170210816	60	57098

#Closed at: 2026-01-17 19:39:22
#Recorded file [1170 MB]: D:/lorett/data/35029_260118_072652.dat