passes_logs/2026/01/17/R4.6S_Anadyr/R4.6S_Anadyr__20260117_002102_SUOMI_NPP_rec.log

#Pass ID: 20260117_002102_SUOMI NPP
#Satellite: SUOMI NPP
#Configuration: NPP
#almurnet v.1.7.20251203
#Start time: 2026-01-17 00:21:04

#Version: 2.2.20231116
#Station: R4.6S_Anadyr
#Location: 177.4865 lon 64.73178 lat
#TLE: 1 37849U 11061A   26016.58419598  .00000058  00000+0  48257-4 0  9996
#TLE: 2 37849  98.7812 318.6192 0002422  60.8544 299.2874 14.19525580736934

#Time	Az	El	Level	Level2	SNR	BER	BlckErr	Temp	State	Recorded	gain1	gain2
2026-01-17 00:21:04.00	157.71	0.07	-48.3	-60.8	3.4	1.52e+00	0	28	0	0	60	38327
2026-01-17 00:21:08.03	157.73	0.32	-49.0	-64.1	3.6	1.51e+00	0	30	104	0	60	58000
2026-01-17 00:21:12.07	157.75	0.56	-48.5	-63.7	3.6	1.51e+00	0	30	104	0	60	55071
2026-01-17 00:21:16.10	157.78	0.81	-47.8	-63.0	3.6	1.51e+00	0	30	104	0	60	51026
2026-01-17 00:21:20.14	157.80	1.06	-46.9	-62.1	3.6	1.51e+00	0	30	104	0	60	45886
2026-01-17 00:21:24.18	157.82	1.31	-46.9	-62.0	3.6	1.51e+00	0	30	104	0	60	45402
2026-01-17 00:21:28.21	157.84	1.57	-46.9	-62.0	3.6	1.51e+00	0	30	104	0	60	45557
2026-01-17 00:21:32.24	157.87	1.82	-46.9	-62.0	3.6	1.51e+00	0	30	104	0	60	45326
2026-01-17 00:21:36.27	157.89	2.08	-46.9	-61.9	3.6	1.51e+00	0	30	104	0	60	45121
2026-01-17 00:21:40.30	157.91	2.34	-46.9	-61.8	3.6	1.51e+00	0	30	104	0	60	44331
2026-01-17 00:21:44.33	157.93	2.61	-46.8	-61.2	3.6	1.51e+00	0	30	104	0	60	41580
2026-01-17 00:21:48.37	157.96	2.87	-46.8	-61.3	3.6	1.51e+00	0	30	104	0	60	41770
2026-01-17 00:21:52.40	157.98	3.14	-46.1	-53.0	7.2	2.54e-01	92	30	0	1048576	60	16056
2026-01-17 00:21:56.44	158.01	3.41	-44.0	-47.4	13.5	9.53e-05	92	30	0	8388608	60	8487
2026-01-17 00:22:00.47	158.03	3.69	-43.4	-46.3	14.6	0.00e+00	0	30	0	15728640	60	7502
2026-01-17 00:22:04.51	158.05	3.96	-43.2	-45.9	14.8	7.60e-06	11	30	0	24117248	60	7141
2026-01-17 00:22:08.54	158.08	4.24	-42.8	-45.4	15.1	5.73e-01	81	30	104	28311552	60	6700
2026-01-17 00:22:12.58	158.10	4.53	-42.7	-45.1	16.1	0.00e+00	92	30	0	34603008	58	7268
2026-01-17 00:22:16.61	158.13	4.81	-42.3	-44.4	16.8	0.00e+00	0	30	0	42991616	58	6712
2026-01-17 00:22:20.65	158.15	5.10	-42.3	-44.4	16.7	0.00e+00	92	30	0	50331648	58	6722
2026-01-17 00:22:24.69	158.18	5.39	-42.3	-44.4	16.6	0.00e+00	92	30	0	57671680	58	6754
2026-01-17 00:22:28.72	158.20	5.69	-42.2	-44.3	16.9	0.00e+00	92	30	0	65011712	58	6646
2026-01-17 00:22:32.75	158.23	5.99	-41.9	-43.8	17.4	0.00e+00	0	30	0	72351744	56	7087
2026-01-17 00:22:36.79	158.26	6.29	-41.6	-43.3	17.9	0.00e+00	91	30	0	80740352	56	6681
2026-01-17 00:22:40.83	158.28	6.59	-41.0	-42.5	18.6	0.00e+00	91	30	0	88080384	56	6097
2026-01-17 00:22:44.86	158.31	6.90	-41.5	-43.2	18.4	0.00e+00	0	30	0	95420416	56	6575
2026-01-17 00:22:48.90	158.34	7.22	-41.4	-43.1	18.2	0.00e+00	24	30	0	102760448	56	6472
2026-01-17 00:22:52.93	158.36	7.53	-41.5	-43.2	18.2	0.00e+00	91	30	0	110100480	56	6591
2026-01-17 00:22:56.97	158.39	7.85	-41.3	-42.9	18.6	0.00e+00	91	30	0	118489088	56	6389
2026-01-17 00:23:01.01	158.42	8.18	-41.0	-42.6	18.9	0.00e+00	0	30	0	125829120	56	6151
2026-01-17 00:23:05.05	158.45	8.51	-40.7	-42.1	19.2	0.00e+00	24	30	0	133169152	54	6527
2026-01-17 00:23:09.08	158.48	8.84	-40.7	-42.1	19.3	0.00e+00	52	30	0	140509184	54	6519
2026-01-17 00:23:13.12	158.50	9.18	-40.8	-42.3	19.1	0.00e+00	91	30	0	148897792	54	6671
2026-01-17 00:23:17.15	158.53	9.52	-40.8	-42.3	19.3	0.00e+00	0	30	0	156237824	54	6635
2026-01-17 00:23:21.19	158.56	9.87	-40.6	-42.1	19.4	0.00e+00	85	30	0	163577856	54	6532
2026-01-17 00:23:25.23	158.59	10.23	-40.3	-41.7	19.9	0.00e+00	92	30	0	170917888	54	6209
2026-01-17 00:23:29.26	158.63	10.58	-40.1	-41.5	19.9	0.00e+00	0	30	0	178257920	54	6043
2026-01-17 00:23:33.30	158.66	10.95	-40.1	-41.4	20.0	0.00e+00	0	30	0	186646528	54	6028
2026-01-17 00:23:37.34	158.69	11.32	-39.7	-40.9	20.5	0.00e+00	92	30	0	193986560	52	6380
2026-01-17 00:23:41.36	158.72	11.69	-39.5	-40.7	20.7	0.00e+00	91	30	0	201326592	52	6237
2026-01-17 00:23:45.40	158.75	12.07	-39.3	-40.5	21.0	0.00e+00	0	30	0	208666624	52	6055
2026-01-17 00:23:49.44	158.79	12.46	-39.3	-40.5	21.0	0.00e+00	27	30	0	216006656	52	6040
2026-01-17 00:23:53.48	158.82	12.85	-39.2	-40.4	21.0	0.00e+00	90	30	0	224395264	52	5993
2026-01-17 00:23:57.52	158.85	13.25	-38.9	-40.1	21.3	0.00e+00	92	30	0	231735296	50	6484
2026-01-17 00:24:01.55	158.89	13.65	-38.3	-39.4	21.8	0.00e+00	0	30	0	239075328	50	6007
2026-01-17 00:24:05.59	158.92	14.07	-38.2	-39.2	22.1	0.00e+00	92	30	0	246415360	50	5879
2026-01-17 00:24:09.62	158.96	14.48	-37.8	-38.8	22.3	0.00e+00	92	30	0	254803968	48	6315
2026-01-17 00:24:13.65	159.00	14.91	-37.6	-38.6	22.6	0.00e+00	91	30	0	262144000	48	6143
2026-01-17 00:24:17.69	159.03	15.35	-37.3	-38.2	22.9	0.00e+00	0	30	0	269484032	48	5888
2026-01-17 00:24:21.73	159.07	15.79	-37.3	-38.2	22.9	0.00e+00	91	30	0	276824064	48	5885
2026-01-17 00:24:25.76	159.11	16.24	-37.4	-38.3	22.9	0.00e+00	92	30	0	284164096	48	5955
2026-01-17 00:24:29.80	159.15	16.70	-37.0	-38.0	22.7	0.00e+00	0	30	0	292552704	48	5702
2026-01-17 00:24:33.84	159.19	17.17	-36.8	-37.7	23.2	0.00e+00	0	30	0	299892736	48	5554
2026-01-17 00:24:37.88	159.23	17.64	-36.8	-37.7	23.4	0.00e+00	92	30	0	307232768	46	6214
2026-01-17 00:24:41.91	159.27	18.13	-36.8	-37.7	23.3	0.00e+00	92	30	0	314572800	46	6240
2026-01-17 00:24:45.94	159.32	18.63	-36.5	-37.4	23.7	0.00e+00	0	30	0	321912832	46	5973
2026-01-17 00:24:49.98	159.36	19.13	-36.6	-37.6	23.5	0.00e+00	27	30	0	330301440	46	6107
2026-01-17 00:24:54.01	159.41	19.65	-36.9	-37.8	23.2	0.00e+00	85	30	0	337641472	46	6273
2026-01-17 00:24:58.04	159.45	20.18	-37.0	-38.0	23.2	0.00e+00	91	30	0	344981504	46	6397
2026-01-17 00:25:02.08	159.50	20.72	-37.0	-37.9	23.3	0.00e+00	0	30	0	352321536	46	6355
2026-01-17 00:25:06.11	159.55	21.27	-37.0	-37.9	23.2	0.00e+00	92	30	0	360710144	46	6368
2026-01-17 00:25:10.15	159.60	21.83	-37.1	-38.0	23.2	0.00e+00	92	30	0	368050176	46	6460
2026-01-17 00:25:14.18	159.65	22.41	-37.1	-38.1	23.2	0.00e+00	0	30	0	375390208	46	6489
2026-01-17 00:25:18.22	159.70	23.00	-37.4	-38.4	22.9	0.00e+00	0	30	0	382730240	46	6718
2026-01-17 00:25:22.25	159.75	23.60	-37.1	-38.0	23.2	0.00e+00	92	30	0	390070272	46	6463
2026-01-17 00:25:26.29	159.81	24.22	-37.4	-38.3	23.0	0.00e+00	92	30	0	398458880	46	6686
2026-01-17 00:25:30.33	159.87	24.85	-37.3	-38.2	23.1	0.00e+00	0	30	0	405798912	46	6594
2026-01-17 00:25:34.37	159.93	25.50	-37.1	-38.0	23.3	0.00e+00	27	30	0	413138944	46	6422
2026-01-17 00:25:38.40	159.99	26.16	-37.6	-38.5	22.9	0.00e+00	91	30	0	420478976	48	6092
2026-01-17 00:25:42.44	160.05	26.85	-37.5	-38.4	22.9	0.00e+00	90	30	0	428867584	48	6005
2026-01-17 00:25:46.47	160.11	27.54	-37.6	-38.5	22.8	0.00e+00	0	29	0	436207616	48	6074
2026-01-17 00:25:50.50	160.18	28.26	-38.0	-39.0	22.6	0.00e+00	19	30	0	443547648	48	6455
2026-01-17 00:25:54.54	160.25	29.00	-39.3	-40.4	21.3	0.00e+00	90	30	0	450887680	50	6760
2026-01-17 00:25:58.57	160.32	29.75	-38.8	-40.0	21.8	0.00e+00	92	30	0	458227712	50	6399
2026-01-17 00:26:02.61	160.40	30.53	-38.7	-39.8	21.8	0.00e+00	0	29	0	466616320	50	6249
2026-01-17 00:26:06.65	160.48	31.33	-39.3	-40.4	21.4	0.00e+00	91	29	0	473956352	50	6769
2026-01-17 00:26:10.69	160.56	32.15	-38.5	-39.5	22.1	0.00e+00	90	30	0	481296384	50	6053
2026-01-17 00:26:14.72	160.64	32.99	-39.3	-40.5	21.3	0.00e+00	0	29	0	488636416	50	6800
2026-01-17 00:26:18.76	160.73	33.86	-39.4	-40.6	21.2	0.00e+00	0	30	0	495976448	52	6153
2026-01-17 00:26:22.79	160.83	34.75	-38.3	-39.3	22.2	0.00e+00	92	30	0	504365056	50	5929
2026-01-17 00:26:26.83	160.92	35.67	-37.4	-38.4	23.1	0.00e+00	92	29	0	511705088	48	5995
2026-01-17 00:26:30.86	161.03	36.62	-36.1	-36.9	24.2	0.00e+00	0	29	0	519045120	46	5666
2026-01-17 00:26:34.90	161.13	37.59	-35.9	-36.8	24.3	0.00e+00	0	29	0	526385152	44	6256
2026-01-17 00:26:38.94	161.25	38.60	-35.3	-36.1	24.8	0.00e+00	54	29	0	534773760	44	5821
2026-01-17 00:26:42.97	161.37	39.63	-36.2	-37.0	24.0	0.00e+00	92	30	0	542113792	44	6460
2026-01-17 00:26:47.01	161.50	40.69	-36.4	-37.3	23.8	0.00e+00	0	29	0	549453824	44	6660
2026-01-17 00:26:51.05	161.63	41.79	-37.3	-38.3	23.1	0.00e+00	36	30	0	556793856	46	6619
2026-01-17 00:26:55.08	161.77	42.92	-38.0	-39.0	22.4	0.00e+00	62	29	0	564133888	48	6399
2026-01-17 00:26:59.12	161.93	44.09	-38.6	-39.6	22.0	0.00e+00	0	29	0	572522496	48	6921
2026-01-17 00:27:03.15	162.09	45.29	-39.9	-41.2	20.8	0.00e+00	0	29	0	579862528	52	6560
2026-01-17 00:27:07.18	162.26	46.53	-39.7	-41.0	21.0	0.00e+00	92	30	0	587202560	52	6419
2026-01-17 00:27:11.22	162.45	47.81	-39.9	-41.2	20.7	0.00e+00	92	29	0	594542592	52	6584
2026-01-17 00:27:15.25	162.66	49.12	-39.4	-40.6	21.2	0.00e+00	0	29	0	601882624	52	6171
2026-01-17 00:27:19.29	162.88	50.48	-37.6	-38.6	22.8	0.00e+00	4	29	0	610271232	50	5497
2026-01-17 00:27:23.32	163.12	51.87	-35.2	-35.9	24.8	0.00e+00	92	29	0	617611264	44	5694
2026-01-17 00:27:27.36	163.38	53.31	-36.5	-37.4	23.8	0.00e+00	92	29	0	624951296	44	6715
2026-01-17 00:27:31.39	163.67	54.78	-36.2	-37.1	24.1	0.00e+00	0	29	0	632291328	46	5765
2026-01-17 00:27:35.42	163.99	56.30	-35.7	-36.5	24.5	0.00e+00	91	29	0	640679936	44	6072
2026-01-17 00:27:39.46	164.35	57.86	-37.0	-38.0	23.3	0.00e+00	80	29	0	648019968	46	6439
2026-01-17 00:27:43.49	164.74	59.46	-36.2	-37.1	24.1	0.00e+00	91	29	0	655360000	46	5791
2026-01-17 00:27:47.53	165.19	61.11	-35.4	-36.2	24.8	0.00e+00	0	29	0	662700032	44	5893
2026-01-17 00:27:51.56	165.70	62.79	-35.1	-35.8	25.1	0.00e+00	91	29	0	670040064	42	6311
2026-01-17 00:27:55.60	166.29	64.52	-34.8	-35.5	25.1	0.00e+00	91	29	0	678428672	42	6085
2026-01-17 00:27:59.64	166.97	66.29	-35.4	-36.3	24.4	0.00e+00	0	29	0	685768704	44	5901
2026-01-17 00:28:03.67	167.77	68.08	-38.2	-39.2	22.1	0.00e+00	0	29	0	693108736	48	6573
2026-01-17 00:28:07.71	168.72	69.91	-39.4	-40.5	21.4	0.00e+00	88	29	0	700448768	52	6078
2026-01-17 00:28:11.75	169.89	71.78	-39.1	-40.2	21.8	0.00e+00	92	29	0	707788800	52	5830
2026-01-17 00:28:15.78	171.32	73.66	-35.9	-36.8	24.2	0.00e+00	0	29	0	716177408	44	6289
2026-01-17 00:28:19.81	173.15	75.56	-39.0	-40.1	21.7	0.00e+00	9	29	0	723517440	48	7302
2026-01-17 00:28:23.85	175.56	77.47	-38.3	-39.4	22.3	0.00e+00	90	29	0	730857472	48	6696
2026-01-17 00:28:27.88	178.85	79.37	-38.0	-39.0	22.6	0.00e+00	92	29	0	738197504	50	5710
2026-01-17 00:28:31.92	183.59	81.25	-40.3	-41.7	20.2	0.00e+00	0	29	0	746586112	52	6983
2026-01-17 00:28:35.95	190.87	83.04	-38.6	-39.6	22.1	0.00e+00	30	29	0	753926144	50	6129
2026-01-17 00:28:39.98	202.90	84.67	-37.1	-37.9	23.3	0.00e+00	90	29	0	761266176	48	5687
2026-01-17 00:28:44.02	223.60	85.88	-38.8	-39.9	22.1	0.00e+00	90	29	0	768606208	48	7101
2026-01-17 00:28:48.05	253.69	86.25	-37.0	-37.9	23.8	0.00e+00	0	29	0	775946240	48	5650
2026-01-17 00:28:52.09	281.42	85.55	-38.4	-39.4	22.4	0.00e+00	92	29	0	784334848	48	6767
2026-01-17 00:28:56.13	298.80	84.16	-36.8	-37.7	23.4	0.00e+00	30	29	0	791674880	46	6242
2026-01-17 00:29:00.16	308.92	82.47	-37.7	-38.7	23.0	0.00e+00	0	29	0	799014912	46	6961
2026-01-17 00:29:04.19	315.19	80.64	-38.1	-39.0	22.5	0.00e+00	0	29	0	806354944	50	5747
2026-01-17 00:29:08.22	319.36	78.76	-40.8	-42.3	19.6	0.00e+00	91	29	0	814743552	52	7457
2026-01-17 00:29:12.25	322.31	76.86	-39.6	-40.8	21.4	0.00e+00	92	29	0	822083584	50	7012
2026-01-17 00:29:16.28	324.50	74.95	-39.2	-40.2	21.8	0.00e+00	4	29	0	829423616	52	5870
2026-01-17 00:29:20.32	326.19	73.06	-43.1	-45.3	17.3	0.00e+00	25	29	0	836763648	58	7469
2026-01-17 00:29:24.35	327.53	71.18	-43.2	-45.4	16.8	0.00e+00	48	29	0	844103680	58	7532
2026-01-17 00:29:28.38	328.62	69.34	-39.7	-40.9	21.3	0.00e+00	92	29	0	852492288	52	6354
2026-01-17 00:29:32.41	329.52	67.52	-39.5	-40.8	21.0	0.00e+00	0	29	0	859832320	50	7016
2026-01-17 00:29:36.45	330.28	65.74	-37.4	-38.4	22.8	0.00e+00	92	29	0	867172352	48	5989
2026-01-17 00:29:40.49	330.92	63.99	-36.8	-37.8	23.4	0.00e+00	89	29	0	874512384	44	7075
2026-01-17 00:29:44.52	331.48	62.28	-35.5	-36.3	24.8	0.00e+00	0	29	0	881852416	44	5931
2026-01-17 00:29:48.55	331.97	60.62	-39.8	-41.2	20.8	0.00e+00	0	29	0	890241024	52	6540
2026-01-17 00:29:52.59	332.41	58.99	-36.9	-37.8	23.3	0.00e+00	92	29	0	897581056	46	6310
2026-01-17 00:29:56.62	332.79	57.41	-35.6	-36.5	24.5	0.00e+00	92	29	0	904921088	46	5383
2026-01-17 00:30:00.65	333.13	55.86	-37.3	-38.3	23.2	0.00e+00	0	29	0	912261120	46	6624
2026-01-17 00:30:04.69	333.44	54.36	-37.2	-38.1	23.3	0.00e+00	0	29	0	919601152	46	6528
2026-01-17 00:30:08.73	333.72	52.90	-37.3	-38.3	23.1	0.00e+00	27	29	0	927989760	48	5901
2026-01-17 00:30:12.76	333.98	51.48	-41.4	-43.3	18.8	0.00e+00	60	29	0	935329792	54	7426
2026-01-17 00:30:16.80	334.21	50.10	-37.8	-38.8	22.8	0.00e+00	0	29	0	942669824	50	5599
2026-01-17 00:30:20.83	334.43	48.77	-38.5	-39.6	22.0	0.00e+00	31	28	0	950009856	48	6863
2026-01-17 00:30:24.87	334.63	47.47	-37.8	-38.9	22.6	0.00e+00	92	29	0	958398464	50	5667
2026-01-17 00:30:28.91	334.82	46.20	-37.1	-38.1	22.8	0.00e+00	0	29	0	965738496	48	5769
2026-01-17 00:30:32.95	334.99	44.98	-39.6	-41.0	20.5	0.00e+00	0	29	0	973078528	50	7200
2026-01-17 00:30:36.98	335.15	43.80	-36.1	-37.0	24.2	0.00e+00	91	28	0	980418560	46	5714
2026-01-17 00:30:41.02	335.30	42.64	-36.2	-37.1	23.9	0.00e+00	79	28	0	987758592	44	6465
2026-01-17 00:30:45.06	335.44	41.53	-39.5	-40.8	21.3	0.00e+00	0	29	0	996147200	50	7064
2026-01-17 00:30:49.09	335.57	40.44	-38.4	-39.5	22.2	0.00e+00	0	28	0	1003487232	50	6069
2026-01-17 00:30:53.13	335.70	39.39	-37.1	-38.0	23.4	0.00e+00	43	29	0	1010827264	46	6395
2026-01-17 00:30:57.17	335.82	38.37	-42.5	-44.9	17.3	0.00e+00	92	28	0	1018167296	56	7955
2026-01-17 00:31:01.20	335.93	37.38	-43.2	-46.5	15.5	0.00e+00	0	28	0	1025507328	60	7672
2026-01-17 00:31:05.24	336.04	36.42	-40.8	-42.3	20.0	0.00e+00	0	28	0	1033895936	56	5921
2026-01-17 00:31:09.27	336.14	35.48	-39.5	-40.8	21.0	0.00e+00	87	28	0	1041235968	50	7026
2026-01-17 00:31:13.31	336.24	34.57	-43.5	-46.3	15.6	0.00e+00	92	28	0	1048576000	58	8337
2026-01-17 00:31:17.34	336.33	33.69	-44.0	-47.1	14.9	7.00e-07	0	28	0	1055916032	60	8233
2026-01-17 00:31:21.38	336.42	32.84	-44.1	-47.0	15.4	0.00e+00	27	28	0	1064304640	60	8119
2026-01-17 00:31:25.42	336.51	32.00	-40.5	-41.9	19.9	0.00e+00	77	28	0	1071644672	54	6363
2026-01-17 00:31:29.45	336.59	31.19	-39.2	-40.4	21.3	0.00e+00	0	28	0	1078984704	52	5986
2026-01-17 00:31:33.49	336.67	30.40	-40.7	-42.2	19.7	0.00e+00	0	28	0	1086324736	54	6611
2026-01-17 00:31:37.52	336.74	29.64	-40.2	-41.6	20.3	0.00e+00	79	28	0	1093664768	54	6158
2026-01-17 00:31:41.55	336.82	28.89	-39.2	-40.4	21.5	0.00e+00	81	28	0	1102053376	52	5993
2026-01-17 00:31:45.59	336.89	28.16	-38.5	-39.5	22.2	0.00e+00	0	28	0	1109393408	50	6095
2026-01-17 00:31:49.63	336.96	27.45	-38.0	-39.0	22.5	0.00e+00	0	28	0	1116733440	50	5708
2026-01-17 00:31:53.67	337.02	26.76	-36.7	-37.6	23.8	0.00e+00	22	28	0	1124073472	46	6147
2026-01-17 00:31:57.70	337.09	26.09	-36.2	-37.1	24.0	0.00e+00	0	28	0	1131413504	46	5790
2026-01-17 00:32:01.74	337.15	25.43	-36.6	-37.5	23.7	0.00e+00	0	28	0	1139802112	46	6096
2026-01-17 00:32:05.77	337.21	24.79	-37.2	-38.2	23.2	0.00e+00	0	28	0	1147142144	46	6576
2026-01-17 00:32:09.81	337.27	24.16	-37.0	-37.9	23.4	0.00e+00	0	28	0	1154482176	46	6348
2026-01-17 00:32:13.85	337.32	23.55	-36.1	-36.9	24.1	0.00e+00	0	28	0	1161822208	46	5676
2026-01-17 00:32:17.88	337.38	22.95	-35.4	-36.3	24.6	0.00e+00	0	28	0	1170210816	44	5897
2026-01-17 00:32:21.92	337.43	22.37	-35.6	-36.5	24.5	0.00e+00	25	28	0	1177550848	44	6045
2026-01-17 00:32:25.96	337.48	21.80	-36.3	-37.2	23.8	0.00e+00	0	28	0	1184890880	44	6583
2026-01-17 00:32:29.99	337.54	21.24	-36.6	-37.5	23.6	0.00e+00	0	28	0	1192230912	46	6047
2026-01-17 00:32:34.03	337.59	20.69	-36.8	-37.7	23.4	0.00e+00	0	28	0	1199570944	46	6238
2026-01-17 00:32:38.07	337.64	20.16	-37.1	-38.1	23.3	0.00e+00	92	28	0	1207959552	46	6473
2026-01-17 00:32:42.10	337.68	19.63	-37.1	-38.1	23.1	0.00e+00	0	28	0	1215299584	46	6521
2026-01-17 00:32:46.14	337.73	19.12	-36.9	-37.8	23.3	0.00e+00	0	28	0	1222639616	46	6293
2026-01-17 00:32:50.18	337.78	18.62	-36.6	-37.5	23.6	0.00e+00	20	28	0	1229979648	46	6076
2026-01-17 00:32:54.21	337.82	18.13	-37.2	-38.1	23.2	0.00e+00	92	28	0	1238368256	46	6536
2026-01-17 00:32:58.25	337.87	17.64	-36.7	-37.7	23.5	0.00e+00	0	28	0	1245708288	46	6186
2026-01-17 00:33:02.29	337.91	17.17	-36.9	-37.9	23.3	0.00e+00	0	28	0	1253048320	46	6338
2026-01-17 00:33:06.33	337.95	16.71	-36.7	-37.7	23.2	0.00e+00	21	28	0	1260388352	46	6191
2026-01-17 00:33:10.35	337.99	16.25	-36.8	-37.8	23.2	0.00e+00	0	28	0	1267728384	46	6268
2026-01-17 00:33:14.39	338.03	15.81	-36.7	-37.7	23.2	0.00e+00	0	28	0	1276116992	46	6196
2026-01-17 00:33:18.42	338.07	15.37	-37.2	-38.1	23.0	0.00e+00	0	28	0	1283457024	46	6529
2026-01-17 00:33:22.46	338.11	14.94	-37.3	-38.3	22.8	0.00e+00	91	28	0	1290797056	46	6672
2026-01-17 00:33:26.50	338.15	14.51	-37.6	-38.6	22.6	0.00e+00	0	28	0	1298137088	46	6912
2026-01-17 00:33:30.54	338.19	14.10	-37.9	-39.0	22.4	0.00e+00	0	28	0	1306525696	48	6403
2026-01-17 00:33:34.58	338.23	13.69	-37.6	-38.6	22.5	0.00e+00	0	28	0	1313865728	48	6169
2026-01-17 00:33:38.61	338.27	13.28	-37.9	-39.0	22.2	0.00e+00	59	28	0	1321205760	48	6401
2026-01-17 00:33:42.64	338.30	12.89	-37.4	-38.4	22.6	0.00e+00	0	28	0	1328545792	48	6019
2026-01-17 00:33:46.67	338.34	12.50	-37.4	-38.4	22.7	0.00e+00	0	28	0	1335885824	48	6008
2026-01-17 00:33:50.71	338.37	12.12	-37.3	-38.3	22.8	0.00e+00	17	28	0	1344274432	48	5910
2026-01-17 00:33:54.75	338.41	11.74	-37.4	-38.4	22.7	0.00e+00	90	28	0	1351614464	48	5986
2026-01-17 00:33:58.78	338.44	11.37	-38.0	-39.1	22.0	0.00e+00	0	28	0	1358954496	48	6529
2026-01-17 00:34:02.82	338.48	11.00	-37.5	-38.5	22.5	0.00e+00	0	28	0	1366294528	48	6101
2026-01-17 00:34:06.85	338.51	10.64	-37.6	-38.7	22.4	0.00e+00	17	28	0	1373634560	48	6203
2026-01-17 00:34:10.89	338.55	10.29	-37.7	-38.8	22.2	0.00e+00	0	28	0	1382023168	48	6262
2026-01-17 00:34:14.92	338.58	9.94	-37.8	-38.8	22.2	0.00e+00	0	28	0	1389363200	48	6302
2026-01-17 00:34:18.96	338.61	9.59	-37.8	-38.8	22.1	0.00e+00	0	28	0	1396703232	48	6307
2026-01-17 00:34:22.98	338.64	9.25	-37.8	-38.9	22.1	0.00e+00	92	28	0	1404043264	48	6324
2026-01-17 00:34:27.01	338.68	8.91	-38.0	-39.0	21.9	0.00e+00	0	28	0	1412431872	48	6451
2026-01-17 00:34:31.05	338.71	8.58	-37.9	-39.0	21.9	0.00e+00	0	28	0	1419771904	48	6406
2026-01-17 00:34:35.08	338.74	8.26	-38.0	-39.1	21.8	0.00e+00	0	28	0	1427111936	48	6491
2026-01-17 00:34:39.11	338.77	7.93	-38.0	-39.1	21.9	0.00e+00	39	28	0	1434451968	48	6537
2026-01-17 00:34:43.14	338.80	7.61	-38.1	-39.2	21.8	0.00e+00	0	28	0	1441792000	48	6579
2026-01-17 00:34:47.18	338.83	7.30	-37.9	-39.0	21.8	0.00e+00	15	28	0	1450180608	48	6436
2026-01-17 00:34:51.22	338.86	6.99	-38.1	-39.3	21.6	0.00e+00	47	28	0	1457520640	48	6623
2026-01-17 00:34:55.25	338.89	6.68	-38.3	-39.5	21.5	0.00e+00	92	28	0	1464860672	48	6772
2026-01-17 00:34:59.29	338.92	6.38	-38.3	-39.4	21.4	0.00e+00	0	28	0	1472200704	48	6766
2026-01-17 00:35:03.32	338.95	6.08	-38.1	-39.2	21.5	0.00e+00	0	28	0	1479540736	48	6596
2026-01-17 00:35:07.36	338.98	5.78	-38.2	-39.3	21.2	0.00e+00	15	28	0	1487929344	48	6674
2026-01-17 00:35:11.40	339.01	5.48	-38.4	-39.7	20.6	0.00e+00	0	28	0	1495269376	48	6934
2026-01-17 00:35:15.43	339.04	5.19	-39.6	-41.2	18.9	0.00e+00	0	28	0	1502609408	50	7371
2026-01-17 00:35:19.46	339.07	4.91	-40.8	-43.0	16.4	0.00e+00	0	28	0	1509949440	54	7227
2026-01-17 00:35:23.49	339.10	4.62	-42.2	-45.8	12.9	8.30e-06	90	28	0	1517289472	56	8893
2026-01-17 00:35:27.53	339.13	4.34	-43.1	-48.5	9.4	1.40e-02	0	28	0	1525678080	58	10852
2026-01-17 00:35:31.56	339.15	4.06	-43.6	-52.0	5.1	3.92e-01	0	28	0	1533018112	58	16099
2026-01-17 00:35:35.60	339.18	3.79	-43.6	-55.9	3.9	1.44e+00	0	28	104	1538260992	58	25321
2026-01-17 00:35:39.64	339.21	3.52	-43.6	-57.7	3.6	1.51e+00	0	28	104	1538260992	58	30988
2026-01-17 00:35:43.68	339.24	3.25	-43.7	-58.7	3.6	1.51e+00	0	28	104	1538260992	60	31067
2026-01-17 00:35:47.71	339.26	2.98	-43.7	-58.9	3.6	1.51e+00	0	28	104	1538260992	60	31711
2026-01-17 00:35:51.75	339.29	2.71	-48.3	-63.5	3.6	1.51e+00	0	28	104	1538260992	60	53828
2026-01-17 00:35:55.79	339.32	2.45	-48.4	-63.7	3.6	1.51e+00	0	28	104	1538260992	60	55096
2026-01-17 00:35:59.82	339.35	2.19	-48.2	-63.5	3.6	1.51e+00	0	28	104	1538260992	60	54192
2026-01-17 00:36:03.85	339.37	1.93	-48.4	-63.5	3.6	1.51e+00	0	28	104	1538260992	60	54043
2026-01-17 00:36:07.88	339.40	1.68	-48.4	-63.5	3.6	1.51e+00	0	28	104	1538260992	60	54300
2026-01-17 00:36:11.90	339.43	1.43	-48.4	-63.6	3.6	1.51e+00	0	28	104	1538260992	60	54752
2026-01-17 00:36:15.94	339.45	1.18	-48.5	-63.8	3.6	1.51e+00	0	28	104	1538260992	60	55693
2026-01-17 00:36:19.98	339.48	0.93	-48.3	-63.5	3.6	1.51e+00	0	28	104	1538260992	60	54036
2026-01-17 00:36:24.01	339.50	0.68	-48.4	-63.5	3.6	1.51e+00	0	28	104	1538260992	60	54138
2026-01-17 00:36:28.04	339.53	0.44	-48.8	-64.0	3.6	1.51e+00	0	28	104	1538260992	60	57151
2026-01-17 00:36:32.08	339.56	0.19	-48.5	-63.6	3.6	1.51e+00	0	28	104	1538260992	60	54962

#Closed at: 2026-01-17 00:36:36
#Recorded file [1538 MB]: D:/lorett/data/35029_260117_122103.dat