passes_logs/2026/01/17/R4.6S_Anadyr/R4.6S_Anadyr__20260117_032435_AQUA_rec.log

#Pass ID: 20260117_032435_AQUA
#Satellite: AQUA
#Configuration: AQUA
#almurnet v.1.7.20251203
#Start time: 2026-01-17 03:24:37

#Version: 2.2.20231116
#Station: R4.6S_Anadyr
#Location: 177.4865 lon 64.73178 lat
#TLE: 1 27424U 02022A   26016.59833233  .00000670  00000+0  14410-3 0  9991
#TLE: 2 27424  98.4084 343.0525 0002018  76.3524 343.9424 14.61823666261128

#Time	Az	El	Level	Level2	SNR	BER	BlckErr	Temp	State	Recorded	gain1	gain2
2026-01-17 03:24:37.04	195.58	0.09	-48.1	-59.7	3.5	8.46e-01	0	26	0	0	60	34922
2026-01-17 03:24:41.08	195.80	0.32	-48.2	-66.4	3.5	3.02e+01	0	28	104	0	60	80411
2026-01-17 03:24:45.12	196.03	0.55	-48.4	-66.3	3.5	3.02e+01	0	28	104	0	60	79894
2026-01-17 03:24:49.16	196.26	0.79	-48.1	-66.0	3.5	3.02e+01	0	28	104	0	60	76908
2026-01-17 03:24:53.19	196.49	1.03	-47.2	-64.9	3.5	3.02e+01	0	28	104	0	60	67497
2026-01-17 03:24:57.23	196.73	1.27	-47.1	-64.5	3.5	3.02e+01	0	28	104	0	60	64844
2026-01-17 03:25:01.28	196.97	1.51	-47.1	-64.2	3.5	3.02e+01	0	28	104	0	60	62375
2026-01-17 03:25:05.31	197.22	1.75	-47.2	-65.0	3.5	3.02e+01	0	28	104	0	60	68330
2026-01-17 03:25:09.35	197.47	2.00	-47.1	-64.9	3.5	3.02e+01	0	28	104	0	60	67653
2026-01-17 03:25:13.39	197.72	2.24	-47.1	-64.7	3.5	3.02e+01	0	28	104	0	60	66183
2026-01-17 03:25:17.43	197.98	2.49	-47.2	-64.8	3.5	3.02e+01	0	28	104	0	60	67197
2026-01-17 03:25:21.47	198.24	2.74	-47.0	-61.0	4.2	3.02e+01	0	28	104	0	60	43406
2026-01-17 03:25:25.50	198.51	2.99	-47.0	-61.1	3.6	3.02e+01	0	28	104	0	60	43879
2026-01-17 03:25:29.54	198.78	3.25	-40.9	-43.1	21.6	3.02e+01	91	28	0	5767168	58	6147
2026-01-17 03:25:33.58	199.06	3.51	-38.8	-40.5	23.7	3.02e+01	91	28	0	13631488	52	6450
2026-01-17 03:25:37.62	199.35	3.77	-43.7	-47.4	15.1	3.02e+01	92	28	0	20971520	56	11307
2026-01-17 03:25:41.65	199.63	4.03	-38.0	-39.6	24.9	3.02e+01	92	28	0	24641536	52	5812
2026-01-17 03:25:45.69	199.93	4.29	-37.7	-39.2	25.3	3.02e+01	92	28	0	32505856	50	6245
2026-01-17 03:25:49.72	200.23	4.56	-37.5	-39.0	25.6	3.02e+01	90	28	0	39845888	50	6084
2026-01-17 03:25:53.77	200.53	4.83	-37.5	-38.9	25.7	3.02e+01	90	28	0	47710208	50	6059
2026-01-17 03:25:57.81	200.84	5.10	-36.9	-38.3	26.2	3.02e+01	92	28	0	55050240	48	6298
2026-01-17 03:26:01.84	201.16	5.37	-36.9	-38.3	26.3	3.02e+01	92	28	0	62390272	48	6328
2026-01-17 03:26:05.88	201.48	5.65	-37.0	-38.4	26.4	3.02e+01	88	28	0	70254592	48	6363
2026-01-17 03:26:09.92	201.81	5.93	-36.8	-38.2	26.5	3.02e+01	91	28	0	77594624	48	6218
2026-01-17 03:26:13.96	202.15	6.21	-36.6	-38.0	26.7	3.02e+01	90	28	0	85458944	48	6117
2026-01-17 03:26:18.00	202.49	6.49	-36.9	-38.3	26.6	3.02e+01	92	28	0	92798976	48	6298
2026-01-17 03:26:22.03	202.84	6.78	-36.6	-38.0	26.8	3.02e+01	92	28	0	100663296	48	6120
2026-01-17 03:26:26.07	203.20	7.07	-36.5	-37.8	26.9	3.02e+01	90	28	0	108003328	48	5981
2026-01-17 03:26:30.11	203.57	7.36	-36.4	-37.8	27.0	3.02e+01	92	28	0	115867648	48	5967
2026-01-17 03:26:34.15	203.94	7.66	-36.3	-37.6	27.1	3.02e+01	92	28	0	123207680	48	5851
2026-01-17 03:26:38.19	204.32	7.96	-36.5	-37.8	27.1	3.02e+01	92	28	0	130547712	48	5990
2026-01-17 03:26:42.23	204.71	8.26	-36.2	-37.6	27.3	3.02e+01	92	28	0	138412032	48	5800
2026-01-17 03:26:46.26	205.11	8.56	-35.9	-37.2	27.7	3.02e+01	92	28	0	145752064	48	5592
2026-01-17 03:26:50.30	205.51	8.87	-36.1	-37.4	27.6	3.02e+01	92	28	0	153616384	46	6419
2026-01-17 03:26:54.34	205.93	9.18	-35.9	-37.3	27.7	3.02e+01	90	28	0	160956416	46	6286
2026-01-17 03:26:58.37	206.35	9.49	-36.0	-37.3	27.8	3.02e+01	92	28	0	168820736	46	6302
2026-01-17 03:27:02.41	206.79	9.81	-35.8	-37.1	27.9	3.02e+01	91	28	0	176160768	46	6143
2026-01-17 03:27:06.45	207.23	10.13	-35.8	-37.1	28.0	3.02e+01	89	28	0	183500800	46	6161
2026-01-17 03:27:10.49	207.69	10.45	-35.6	-36.9	28.1	3.02e+01	92	28	0	191365120	46	6002
2026-01-17 03:27:14.53	208.15	10.78	-35.6	-36.9	28.1	3.02e+01	92	28	0	198705152	46	6060
2026-01-17 03:27:18.57	208.63	11.10	-35.5	-36.7	28.3	3.02e+01	91	28	0	206569472	46	5903
2026-01-17 03:27:22.60	209.12	11.44	-35.5	-36.8	28.3	3.02e+01	89	28	0	213909504	46	5947
2026-01-17 03:27:26.65	209.62	11.77	-35.3	-36.5	28.4	3.02e+01	88	28	0	221773824	46	5788
2026-01-17 03:27:30.68	210.13	12.11	-35.3	-36.5	28.5	3.02e+01	92	28	0	229113856	46	5791
2026-01-17 03:27:34.72	210.65	12.45	-35.2	-36.5	28.7	3.02e+01	90	28	0	236978176	46	5738
2026-01-17 03:27:38.76	211.19	12.80	-35.5	-36.7	28.4	3.02e+01	90	28	0	244318208	46	5912
2026-01-17 03:27:42.80	211.74	13.15	-35.1	-36.4	28.8	3.02e+01	92	28	0	251658240	46	5692
2026-01-17 03:27:46.84	212.30	13.50	-35.1	-36.4	28.7	3.02e+01	90	28	0	259522560	46	5671
2026-01-17 03:27:50.88	212.88	13.86	-35.1	-36.3	28.8	3.02e+01	90	28	0	266862592	44	6325
2026-01-17 03:27:54.92	213.47	14.22	-34.9	-36.2	28.9	3.02e+01	90	28	0	274726912	44	6241
2026-01-17 03:27:58.96	214.08	14.58	-34.9	-36.1	28.9	3.02e+01	91	28	0	282066944	44	6188
2026-01-17 03:28:03.00	214.70	14.95	-34.9	-36.2	28.9	3.02e+01	92	28	0	289931264	44	6209
2026-01-17 03:28:07.04	215.34	15.31	-34.8	-36.1	28.9	3.02e+01	90	28	0	297271296	44	6168
2026-01-17 03:28:11.08	216.00	15.69	-34.7	-35.9	29.1	3.02e+01	92	28	0	305135616	44	6018
2026-01-17 03:28:15.12	216.67	16.06	-35.0	-36.2	28.9	3.02e+01	92	28	0	312475648	44	6244
2026-01-17 03:28:19.16	217.36	16.44	-34.7	-35.9	29.1	3.02e+01	92	28	0	319815680	44	6047
2026-01-17 03:28:23.20	218.07	16.82	-34.8	-36.0	29.1	3.02e+01	92	28	0	327680000	44	6084
2026-01-17 03:28:27.24	218.80	17.20	-34.8	-36.0	29.2	3.02e+01	92	28	0	335020032	44	6089
2026-01-17 03:28:31.28	219.55	17.58	-34.5	-35.7	29.3	3.02e+01	92	28	0	342884352	44	5920
2026-01-17 03:28:35.32	220.31	17.97	-34.6	-35.9	29.2	3.02e+01	90	28	0	350224384	44	6006
2026-01-17 03:28:39.36	221.10	18.36	-34.6	-35.8	29.2	3.02e+01	92	28	0	358088704	44	5983
2026-01-17 03:28:43.40	221.91	18.75	-34.5	-35.7	29.3	3.02e+01	92	28	0	365428736	44	5911
2026-01-17 03:28:47.44	222.74	19.14	-34.6	-35.8	29.3	3.02e+01	92	28	0	373293056	44	5976
2026-01-17 03:28:51.48	223.59	19.53	-34.7	-35.9	29.3	3.02e+01	92	28	0	380633088	44	6035
2026-01-17 03:28:55.52	224.47	19.93	-34.6	-35.9	29.2	3.02e+01	92	28	0	388497408	44	6018
2026-01-17 03:28:59.56	225.36	20.32	-34.8	-36.0	29.1	3.02e+01	91	28	0	395837440	44	6093
2026-01-17 03:29:03.60	226.29	20.71	-34.7	-36.0	29.2	3.02e+01	90	28	0	403177472	44	6075
2026-01-17 03:29:07.64	227.23	21.11	-34.8	-36.1	29.1	3.02e+01	92	28	0	411041792	44	6140
2026-01-17 03:29:11.68	228.21	21.50	-34.8	-36.0	29.1	3.02e+01	92	28	0	418381824	44	6127
2026-01-17 03:29:15.72	229.20	21.89	-35.0	-36.2	29.0	3.02e+01	92	28	0	426246144	44	6257
2026-01-17 03:29:19.76	230.23	22.28	-34.9	-36.1	29.1	3.02e+01	92	28	0	433586176	44	6169
2026-01-17 03:29:23.80	231.28	22.66	-35.0	-36.2	29.0	3.02e+01	92	28	0	441450496	44	6275
2026-01-17 03:29:27.83	232.35	23.04	-34.9	-36.1	29.1	3.02e+01	92	28	0	448790528	44	6180
2026-01-17 03:29:31.87	233.46	23.42	-35.0	-36.2	29.1	3.02e+01	92	28	0	456654848	44	6262
2026-01-17 03:29:35.91	234.59	23.79	-35.1	-36.4	29.0	3.02e+01	91	28	0	463994880	44	6368
2026-01-17 03:29:39.94	235.74	24.16	-35.1	-36.4	28.9	3.02e+01	90	28	0	471334912	44	6372
2026-01-17 03:29:43.98	236.93	24.52	-35.2	-36.4	28.8	3.02e+01	91	28	0	479199232	44	6412
2026-01-17 03:29:48.02	238.14	24.87	-35.1	-36.3	28.9	3.02e+01	90	28	0	486539264	44	6313
2026-01-17 03:29:52.06	239.39	25.22	-35.0	-36.3	28.9	3.02e+01	91	28	0	494403584	44	6301
2026-01-17 03:29:56.10	240.66	25.55	-35.0	-36.2	28.9	3.02e+01	90	28	0	501743616	44	6272
2026-01-17 03:30:00.14	241.95	25.88	-35.0	-36.3	28.9	3.02e+01	92	28	0	509607936	44	6294
2026-01-17 03:30:04.17	243.27	26.19	-35.0	-36.3	28.9	3.02e+01	92	28	0	516947968	44	6298
2026-01-17 03:30:08.21	244.62	26.50	-35.1	-36.3	28.9	3.02e+01	92	28	0	524812288	44	6336
2026-01-17 03:30:12.25	246.00	26.79	-34.9	-36.2	29.0	3.02e+01	92	28	0	532152320	44	6224
2026-01-17 03:30:16.29	247.40	27.06	-35.0	-36.2	28.9	3.02e+01	91	28	0	539492352	44	6246
2026-01-17 03:30:20.32	248.82	27.32	-35.0	-36.2	28.9	3.02e+01	91	28	0	547356672	44	6266
2026-01-17 03:30:24.36	250.27	27.57	-35.1	-36.3	28.8	3.02e+01	92	28	0	554696704	44	6343
2026-01-17 03:30:28.40	251.74	27.80	-34.8	-36.0	29.2	3.02e+01	90	28	0	562561024	44	6120
2026-01-17 03:30:32.44	253.23	28.00	-35.0	-36.2	29.0	3.02e+01	92	28	0	569901056	44	6251
2026-01-17 03:30:36.48	254.74	28.20	-34.7	-35.9	29.2	3.02e+01	92	28	0	577765376	44	6014
2026-01-17 03:30:40.52	256.27	28.37	-34.6	-35.8	29.3	3.02e+01	92	27	0	585105408	44	5942
2026-01-17 03:30:44.56	257.81	28.52	-34.6	-35.8	29.4	3.02e+01	92	28	0	592969728	44	5936
2026-01-17 03:30:48.60	259.37	28.65	-34.4	-35.6	29.4	3.02e+01	92	28	0	600309760	44	5852
2026-01-17 03:30:52.64	260.94	28.76	-34.6	-35.8	29.3	3.02e+01	92	27	0	607649792	44	5981
2026-01-17 03:30:56.67	262.51	28.84	-34.4	-35.6	29.5	3.02e+01	92	28	0	615514112	44	5843
2026-01-17 03:31:00.72	264.10	28.91	-34.4	-35.6	29.5	3.02e+01	92	28	0	622854144	44	5826
2026-01-17 03:31:04.76	265.69	28.95	-34.2	-35.4	29.6	3.02e+01	90	28	0	630718464	44	5718
2026-01-17 03:31:08.80	267.29	28.97	-34.3	-35.5	29.5	3.02e+01	92	27	0	638058496	44	5756
2026-01-17 03:31:12.84	268.88	28.96	-34.2	-35.4	29.7	3.02e+01	92	27	0	645922816	44	5688
2026-01-17 03:31:16.88	270.47	28.93	-34.1	-35.2	29.8	3.02e+01	90	28	0	653262848	44	5588
2026-01-17 03:31:20.92	272.06	28.88	-34.0	-35.2	29.8	3.02e+01	91	28	0	661127168	42	6232
2026-01-17 03:31:24.96	273.64	28.81	-34.0	-35.2	29.8	3.02e+01	92	28	0	668467200	42	6250
2026-01-17 03:31:29.00	275.21	28.71	-33.9	-35.1	29.9	3.02e+01	92	28	0	675807232	42	6168
2026-01-17 03:31:33.04	276.77	28.59	-34.4	-35.6	29.6	3.02e+01	90	28	0	683671552	42	6509
2026-01-17 03:31:37.08	278.32	28.45	-34.8	-36.0	29.5	3.02e+01	91	27	0	691011584	42	6874
2026-01-17 03:31:41.12	279.86	28.29	-34.8	-36.0	29.2	3.02e+01	91	27	0	698875904	44	6095
2026-01-17 03:31:45.16	281.37	28.11	-34.7	-36.0	29.2	3.02e+01	92	28	0	706215936	44	6082
2026-01-17 03:31:49.20	282.87	27.92	-34.0	-35.2	29.8	3.02e+01	91	27	0	714080256	42	6272
2026-01-17 03:31:53.24	284.35	27.70	-33.9	-35.1	29.9	3.02e+01	91	28	0	721420288	42	6170
2026-01-17 03:31:57.27	285.81	27.47	-34.4	-35.5	29.5	3.02e+01	92	27	0	729284608	42	6497
2026-01-17 03:32:01.31	287.24	27.21	-34.3	-35.5	29.6	3.02e+01	85	27	0	736624640	42	6467
2026-01-17 03:32:05.35	288.65	26.95	-34.3	-35.5	29.6	3.02e+01	92	27	0	743964672	42	6431
2026-01-17 03:32:09.39	290.04	26.67	-33.9	-35.1	30.0	3.02e+01	92	27	0	751828992	42	6145
2026-01-17 03:32:13.43	291.40	26.37	-33.9	-35.1	29.9	3.02e+01	91	27	0	759169024	42	6191
2026-01-17 03:32:17.47	292.73	26.07	-34.0	-35.2	29.9	3.02e+01	92	27	0	767033344	42	6250
2026-01-17 03:32:21.51	294.04	25.75	-34.1	-35.3	29.8	3.02e+01	90	27	0	774373376	42	6290
2026-01-17 03:32:25.55	295.32	25.42	-34.3	-35.5	29.6	3.02e+01	90	27	0	782237696	42	6486
2026-01-17 03:32:29.59	296.58	25.08	-34.2	-35.4	29.7	3.02e+01	91	27	0	789577728	42	6423
2026-01-17 03:32:33.63	297.80	24.73	-34.0	-35.2	29.7	3.02e+01	92	27	0	797442048	42	6261
2026-01-17 03:32:37.67	299.00	24.38	-34.1	-35.3	29.7	3.02e+01	92	27	0	804782080	42	6329
2026-01-17 03:32:41.71	300.17	24.02	-34.1	-35.3	29.7	3.02e+01	59	27	0	812646400	42	6302
2026-01-17 03:32:45.75	301.31	23.65	-34.0	-35.2	29.7	3.02e+01	52	27	0	819986432	42	6246
2026-01-17 03:32:49.79	302.43	23.28	-33.9	-35.1	29.9	3.02e+01	59	27	0	827326464	42	6174
2026-01-17 03:32:53.83	303.51	22.90	-34.1	-35.3	29.7	3.02e+01	59	27	0	835190784	42	6340
2026-01-17 03:32:57.87	304.57	22.52	-33.8	-35.0	29.9	3.02e+01	59	27	0	842530816	42	6119
2026-01-17 03:33:01.90	305.61	22.14	-33.9	-35.1	29.8	3.02e+01	59	27	0	850395136	42	6180
2026-01-17 03:33:05.94	306.61	21.75	-34.1	-35.3	29.6	3.02e+01	59	27	0	857735168	42	6332
2026-01-17 03:33:09.98	307.60	21.36	-33.8	-35.0	29.9	3.02e+01	57	27	0	865599488	42	6117
2026-01-17 03:33:14.02	308.55	20.97	-34.0	-35.2	29.8	3.02e+01	58	27	0	872939520	42	6219
2026-01-17 03:33:18.06	309.49	20.58	-33.7	-34.9	30.0	3.02e+01	59	27	0	880803840	42	6044
2026-01-17 03:33:22.10	310.40	20.19	-33.9	-35.1	29.8	3.02e+01	57	27	0	888143872	42	6179
2026-01-17 03:33:26.14	311.28	19.80	-33.7	-34.9	30.0	3.02e+01	58	27	0	895483904	42	6005
2026-01-17 03:33:30.17	312.14	19.41	-33.7	-34.9	29.9	3.02e+01	59	27	0	903348224	42	6031
2026-01-17 03:33:34.21	312.98	19.02	-33.7	-34.9	29.9	3.02e+01	45	27	0	910688256	42	6062
2026-01-17 03:33:38.25	313.80	18.63	-33.8	-35.0	29.9	3.02e+01	57	27	0	918552576	42	6096
2026-01-17 03:33:42.29	314.60	18.25	-33.7	-34.9	29.9	3.02e+01	58	27	0	925892608	42	6038
2026-01-17 03:33:46.33	315.37	17.86	-33.6	-34.8	30.0	3.02e+01	63	27	0	933756928	42	5945
2026-01-17 03:33:50.37	316.13	17.48	-33.9	-35.1	29.8	3.02e+01	46	27	0	941096960	42	6200
2026-01-17 03:33:54.40	316.86	17.10	-33.7	-34.8	30.0	3.02e+01	60	27	0	948436992	42	5987
2026-01-17 03:33:58.44	317.58	16.72	-33.7	-34.9	29.9	3.02e+01	54	27	0	956301312	42	5998
2026-01-17 03:34:02.49	318.28	16.34	-33.7	-34.9	29.9	3.02e+01	57	27	0	963641344	42	6003
2026-01-17 03:34:06.52	318.96	15.97	-33.8	-35.0	29.8	3.02e+01	49	27	0	971505664	42	6088
2026-01-17 03:34:10.56	319.62	15.60	-33.8	-35.0	29.7	3.02e+01	58	27	0	978845696	42	6122
2026-01-17 03:34:14.59	320.27	15.24	-33.6	-34.8	30.0	3.02e+01	45	27	0	986710016	42	5982
2026-01-17 03:34:18.63	320.90	14.87	-33.8	-35.0	29.8	3.02e+01	59	27	0	994050048	42	6089
2026-01-17 03:34:22.67	321.52	14.51	-33.9	-35.1	29.7	3.02e+01	44	27	0	1001914368	42	6177
2026-01-17 03:34:26.71	322.12	14.15	-33.9	-35.1	29.7	3.02e+01	60	27	0	1009254400	42	6154
2026-01-17 03:34:30.75	322.70	13.80	-33.9	-35.1	29.7	3.02e+01	43	27	0	1016594432	42	6140
2026-01-17 03:34:34.79	323.27	13.44	-34.2	-35.4	29.4	3.02e+01	61	27	0	1024458752	42	6388
2026-01-17 03:34:38.82	323.83	13.10	-34.2	-35.4	29.3	3.02e+01	59	27	0	1031798784	42	6402
2026-01-17 03:34:42.86	324.37	12.75	-34.3	-35.6	29.2	3.02e+01	57	27	0	1039663104	42	6501
2026-01-17 03:34:46.90	324.90	12.41	-34.5	-35.7	29.0	3.02e+01	59	27	0	1047003136	42	6642
2026-01-17 03:34:50.93	325.42	12.07	-34.9	-36.1	28.8	3.02e+01	59	27	0	1054867456	44	6153
2026-01-17 03:34:54.98	325.93	11.73	-34.8	-36.0	28.5	3.02e+01	59	27	0	1062207488	44	6119
2026-01-17 03:34:59.02	326.42	11.40	-34.6	-35.8	28.9	3.02e+01	59	27	0	1070071808	44	5960
2026-01-17 03:35:03.06	326.91	11.07	-34.6	-35.8	28.8	3.02e+01	59	27	0	1077411840	44	5958
2026-01-17 03:35:07.10	327.38	10.75	-34.8	-36.0	28.6	3.02e+01	56	27	0	1084751872	44	6102
2026-01-17 03:35:11.14	327.84	10.42	-34.8	-36.0	28.6	3.02e+01	60	27	0	1092616192	44	6109
2026-01-17 03:35:15.18	328.29	10.10	-34.9	-36.2	28.6	3.02e+01	59	27	0	1099956224	44	6208
2026-01-17 03:35:19.22	328.73	9.79	-34.8	-36.0	28.7	3.02e+01	59	27	0	1107820544	44	6117
2026-01-17 03:35:23.26	329.16	9.48	-35.0	-36.3	28.3	3.02e+01	61	27	0	1115160576	44	6313
2026-01-17 03:35:27.30	329.58	9.17	-35.0	-36.3	28.2	3.02e+01	57	27	0	1123024896	44	6286
2026-01-17 03:35:31.34	330.00	8.86	-35.4	-36.7	27.9	3.02e+01	59	27	0	1130364928	44	6633
2026-01-17 03:35:35.38	330.40	8.55	-35.7	-45.9	3.4	3.02e+01	0	27	104	1135607808	44	19168
2026-01-17 03:35:39.42	330.80	8.25	-35.6	-45.8	3.6	3.02e+01	0	27	104	1135607808	46	16737
2026-01-17 03:35:43.46	331.18	7.96	-36.9	-47.1	3.6	3.02e+01	0	27	104	1135607808	48	17364
2026-01-17 03:35:47.50	331.56	7.66	-38.5	-48.9	3.6	3.02e+01	0	27	104	1135607808	50	19084
2026-01-17 03:35:51.54	331.93	7.37	-42.2	-53.3	3.4	3.02e+01	0	27	104	1135607808	60	17856
2026-01-17 03:35:55.57	332.30	7.08	-40.9	-51.6	3.7	3.02e+01	0	27	104	1135607808	56	18477
2026-01-17 03:35:59.61	332.65	6.79	-37.2	-47.6	3.5	3.02e+01	0	27	104	1135607808	54	12976
2026-01-17 03:36:03.63	333.00	6.51	-37.5	-47.8	3.5	3.02e+01	0	27	104	1135607808	50	16824
2026-01-17 03:36:07.67	333.34	6.23	-44.6	-58.0	3.5	3.02e+01	0	27	104	1135607808	60	30593
2026-01-17 03:36:11.69	333.68	5.95	-37.5	-48.0	3.5	3.02e+01	0	27	104	1135607808	50	17107
2026-01-17 03:36:15.73	334.01	5.68	-41.9	-54.1	3.4	3.02e+01	0	27	104	1135607808	52	30896
2026-01-17 03:36:19.77	334.33	5.40	-41.0	-52.5	3.5	3.02e+01	0	27	104	1135607808	56	20400
2026-01-17 03:36:23.81	334.64	5.13	-43.4	-57.6	3.5	3.02e+01	0	27	104	1135607808	60	29307
2026-01-17 03:36:27.85	334.96	4.86	-43.2	-57.8	3.5	3.02e+01	0	27	104	1135607808	60	29767
2026-01-17 03:36:31.89	335.26	4.60	-43.9	-60.1	3.5	3.02e+01	0	27	104	1135607808	60	39145
2026-01-17 03:36:35.93	335.56	4.33	-43.8	-61.3	3.5	3.02e+01	0	27	104	1135607808	60	44597
2026-01-17 03:36:39.96	335.85	4.07	-43.7	-61.0	3.5	3.02e+01	0	27	104	1135607808	60	43384
2026-01-17 03:36:44.00	336.14	3.81	-43.6	-61.6	3.5	3.02e+01	0	27	104	1135607808	60	46166
2026-01-17 03:36:48.04	336.43	3.56	-43.6	-61.7	3.5	3.02e+01	0	27	104	1135607808	60	46577
2026-01-17 03:36:52.08	336.70	3.30	-43.7	-61.6	3.5	3.02e+01	0	27	104	1135607808	60	46246
2026-01-17 03:36:56.12	336.98	3.05	-43.7	-61.7	3.5	3.02e+01	0	27	104	1135607808	60	46632
2026-01-17 03:37:00.16	337.25	2.80	-48.2	-66.2	3.5	3.02e+01	0	27	104	1135607808	60	78452
2026-01-17 03:37:04.19	337.51	2.55	-48.4	-66.5	3.5	3.02e+01	0	27	104	1135607808	60	80937
2026-01-17 03:37:08.23	337.77	2.30	-48.2	-66.3	3.5	3.02e+01	0	27	104	1135607808	60	79853
2026-01-17 03:37:12.27	338.03	2.06	-48.4	-66.4	3.5	3.02e+01	0	27	104	1135607808	60	80011
2026-01-17 03:37:16.31	338.28	1.81	-48.4	-66.4	3.5	3.02e+01	0	27	104	1135607808	60	80476
2026-01-17 03:37:20.35	338.52	1.57	-48.5	-66.4	3.5	3.02e+01	0	27	104	1135607808	60	80578
2026-01-17 03:37:24.38	338.77	1.33	-48.4	-66.4	3.5	3.02e+01	0	27	104	1135607808	60	80263
2026-01-17 03:37:28.42	339.01	1.10	-48.6	-66.6	3.5	3.02e+01	0	27	104	1135607808	60	82048
2026-01-17 03:37:32.46	339.24	0.86	-48.4	-66.4	3.5	3.02e+01	0	27	104	1135607808	60	79972
2026-01-17 03:37:36.50	339.47	0.63	-48.5	-66.4	3.5	3.02e+01	0	27	104	1135607808	60	80405
2026-01-17 03:37:40.53	339.70	0.40	-48.5	-66.4	3.5	3.02e+01	0	27	104	1135607808	60	80379
2026-01-17 03:37:44.57	339.93	0.17	-48.4	-66.3	3.5	3.02e+01	0	27	104	1135607808	60	79270
2026-01-17 03:37:48.61	340.15	-0.06	-48.6	-66.6	3.5	3.02e+01	0	27	104	1135607808	60	81838

#Closed at: 2026-01-17 03:37:50
#Recorded file [1135 MB]: D:/lorett/data/35029_260117_152437.dat