passes_logs/2026/01/17/R4.6S_Anadyr/R4.6S_Anadyr__20260117_234906_JILIN-1_GAOFEN_03D18_rec.log

#Pass ID: 20260117_234906_JILIN-1 GAOFEN 03D18
#Satellite: JILIN-1 GAOFEN 03D18
#Configuration: 03D_900M
#almurnet v.1.7.20251203
#Start time: 2026-01-17 23:49:09

#Version: 2.2.20231116
#Station: R4.6S_Anadyr
#Location: 177.4865 lon 64.73178 lat
#TLE: 1 51844U 22019W   26017.59127602  .00085436  00000+0  92630-3 0  9992
#TLE: 2 51844  97.3771 107.1960 0006063 299.7401  60.3254 15.63238229216335

#Time	Az	El	Level	Level2	SNR	BER	BlckErr	Temp	State	Recorded	gain1	gain2
2026-01-17 23:49:09.74	20.74	0.24	-49.0	-61.5	3.5	1.51e+00	0	31	0	0	60	41823
2026-01-17 23:49:12.67	20.88	0.43	-45.6	-48.0	6.1	0.00e+00	0	32	104	0	60	30728
2026-01-17 23:49:15.60	21.02	0.62	-45.6	-47.9	6.1	0.00e+00	0	32	104	0	60	30508
2026-01-17 23:49:18.53	21.16	0.81	-44.5	-46.9	6.1	0.00e+00	0	32	104	0	60	27218
2026-01-17 23:49:21.46	21.31	1.00	-44.4	-46.8	6.1	0.00e+00	0	32	104	0	60	26696
2026-01-17 23:49:24.39	21.46	1.20	-44.2	-46.6	6.1	0.00e+00	0	32	104	0	60	26280
2026-01-17 23:49:27.32	21.61	1.40	-44.2	-46.6	6.1	0.00e+00	0	32	104	0	60	26123
2026-01-17 23:49:30.25	21.76	1.60	-44.2	-46.6	6.1	0.00e+00	0	33	104	0	60	26115
2026-01-17 23:49:33.18	21.92	1.80	-44.2	-46.6	6.1	0.00e+00	0	32	104	0	60	26081
2026-01-17 23:49:36.11	22.08	2.00	-44.1	-46.5	6.1	0.00e+00	0	33	104	0	60	25865
2026-01-17 23:49:39.04	22.24	2.21	-44.1	-46.5	6.0	0.00e+00	0	33	104	0	60	26001
2026-01-17 23:49:41.97	22.41	2.42	-44.1	-46.5	6.1	0.00e+00	0	33	104	0	60	25840
2026-01-17 23:49:44.91	22.58	2.63	-44.1	-46.5	6.1	0.00e+00	0	33	104	0	60	25816
2026-01-17 23:49:47.83	22.75	2.84	-44.1	-46.5	6.1	0.00e+00	0	33	104	0	60	25961
2026-01-17 23:49:50.76	22.93	3.05	-44.1	-46.5	6.1	0.00e+00	0	33	104	0	60	25917
2026-01-17 23:49:53.70	23.11	3.27	-44.1	-46.5	6.1	0.00e+00	0	33	104	0	60	25835
2026-01-17 23:49:56.63	23.29	3.49	-44.1	-46.5	6.1	0.00e+00	0	33	104	0	60	25855
2026-01-17 23:49:59.56	23.48	3.71	-44.1	-46.4	6.1	0.00e+00	0	33	104	0	60	25708
2026-01-17 23:50:02.48	23.67	3.94	-44.1	-46.5	6.1	0.00e+00	0	33	104	0	60	25870
2026-01-17 23:50:05.41	23.86	4.17	-44.2	-46.7	6.1	0.00e+00	0	33	104	0	60	26403
2026-01-17 23:50:08.33	24.06	4.40	-44.2	-46.6	6.1	0.00e+00	0	33	104	0	60	26114
2026-01-17 23:50:11.26	24.26	4.63	-44.2	-46.6	6.1	0.00e+00	0	33	104	0	60	26097
2026-01-17 23:50:14.20	24.47	4.87	-44.4	-46.7	6.1	0.00e+00	0	33	104	0	60	26629
2026-01-17 23:50:17.13	24.68	5.11	-44.4	-46.8	6.1	0.00e+00	0	33	104	0	60	26759
2026-01-17 23:50:20.07	24.90	5.35	-44.2	-46.6	6.1	0.00e+00	0	33	104	0	60	26240
2026-01-17 23:50:23.00	25.12	5.60	-44.4	-46.7	6.1	0.00e+00	0	33	104	0	60	26571
2026-01-17 23:50:25.93	25.35	5.84	-44.4	-46.8	6.1	0.00e+00	0	33	104	0	60	26762
2026-01-17 23:50:28.86	25.58	6.10	-44.6	-46.9	6.1	0.00e+00	0	33	104	0	60	27134
2026-01-17 23:50:31.80	25.82	6.35	-44.4	-46.8	6.1	0.00e+00	0	33	104	0	60	26778
2026-01-17 23:50:34.73	26.07	6.61	-44.5	-46.8	6.1	0.00e+00	0	34	104	0	60	26926
2026-01-17 23:50:37.66	26.32	6.88	-44.6	-47.0	6.1	0.00e+00	0	34	104	0	60	27398
2026-01-17 23:50:40.60	26.57	7.15	-44.6	-47.0	6.1	0.00e+00	0	34	104	0	60	27410
2026-01-17 23:50:43.53	26.83	7.42	-44.2	-46.7	6.1	0.00e+00	0	33	104	0	60	26396
2026-01-17 23:50:46.46	27.10	7.69	-44.6	-47.0	6.1	0.00e+00	0	34	104	0	60	27423
2026-01-17 23:50:49.39	27.38	7.98	-44.7	-47.1	6.1	0.00e+00	0	34	104	0	60	27608
2026-01-17 23:50:52.32	27.66	8.26	-44.6	-47.0	6.1	0.00e+00	0	34	104	0	60	27375
2026-01-17 23:50:55.24	27.95	8.55	-44.6	-47.1	6.1	0.00e+00	0	34	104	0	60	27673
2026-01-17 23:50:58.17	28.25	8.84	-44.8	-47.1	6.1	0.00e+00	0	34	104	0	60	27831
2026-01-17 23:51:01.10	28.56	9.14	-44.7	-47.1	6.1	0.00e+00	0	34	104	0	60	27853
2026-01-17 23:51:04.04	28.87	9.45	-44.8	-47.2	6.1	0.00e+00	0	34	104	0	60	27999
2026-01-17 23:51:06.97	29.20	9.76	-44.6	-47.0	6.1	0.00e+00	0	34	104	0	60	27496
2026-01-17 23:51:09.89	29.53	10.07	-43.4	-46.0	6.1	0.00e+00	0	34	104	0	60	24437
2026-01-17 23:51:12.83	29.87	10.39	-44.2	-46.7	6.1	0.00e+00	0	34	104	0	60	26558
2026-01-17 23:51:15.76	30.23	10.72	-44.8	-47.2	6.1	0.00e+00	0	34	104	0	60	27974
2026-01-17 23:51:18.69	30.59	11.05	-43.6	-46.2	6.1	0.00e+00	0	34	104	0	60	25062
2026-01-17 23:51:21.62	30.96	11.39	-44.0	-46.5	6.1	0.00e+00	0	34	104	0	60	25922
2026-01-17 23:51:24.55	31.35	11.74	-44.9	-47.2	6.1	0.00e+00	0	34	104	0	60	28216
2026-01-17 23:51:27.48	31.75	12.09	-43.9	-46.5	6.1	0.00e+00	0	34	104	0	60	25866
2026-01-17 23:51:30.41	32.16	12.45	-45.0	-47.4	6.1	0.00e+00	0	34	104	0	60	28710
2026-01-17 23:51:33.33	32.58	12.81	-44.9	-47.3	6.1	0.00e+00	0	34	104	0	60	28433
2026-01-17 23:51:36.26	33.02	13.18	-43.5	-46.1	6.1	0.00e+00	0	34	104	0	60	24702
2026-01-17 23:51:39.19	33.47	13.56	-44.3	-46.8	6.1	0.00e+00	0	34	104	0	60	26791
2026-01-17 23:51:42.13	33.94	13.95	-44.3	-46.9	6.1	0.00e+00	0	34	104	0	60	27162
2026-01-17 23:51:45.06	34.42	14.35	-45.1	-47.5	6.1	0.00e+00	0	34	104	0	60	28884
2026-01-17 23:51:47.99	34.92	14.75	-45.1	-47.5	6.1	0.00e+00	0	34	104	0	60	28992
2026-01-17 23:51:50.92	35.44	15.17	-45.0	-47.4	6.1	0.00e+00	0	34	104	0	60	28711
2026-01-17 23:51:53.85	35.97	15.59	-45.0	-47.5	6.1	0.00e+00	0	34	104	0	60	28981
2026-01-17 23:51:56.77	36.52	16.02	-44.8	-47.3	6.1	0.00e+00	0	34	104	0	60	28300
2026-01-17 23:51:59.70	37.10	16.46	-45.0	-47.4	6.1	0.00e+00	0	34	104	0	60	28779
2026-01-17 23:52:02.64	37.70	16.91	-43.0	-45.7	6.2	0.00e+00	0	34	104	0	60	23564
2026-01-17 23:52:05.57	38.32	17.37	-45.0	-47.4	6.1	0.00e+00	0	34	104	0	60	28793
2026-01-17 23:52:08.50	38.96	17.84	-45.0	-47.4	6.0	0.00e+00	0	34	104	0	60	28612
2026-01-17 23:52:11.43	39.63	18.32	-44.6	-47.2	6.1	0.00e+00	0	34	104	0	60	28001
2026-01-17 23:52:14.35	40.32	18.80	-45.1	-47.6	6.1	0.00e+00	0	34	104	0	60	29221
2026-01-17 23:52:17.28	41.04	19.30	-44.9	-47.3	6.1	0.00e+00	0	34	104	0	60	28542
2026-01-17 23:52:20.21	41.79	19.81	-45.1	-47.5	6.1	0.00e+00	0	34	104	0	60	29111
2026-01-17 23:52:23.14	42.58	20.33	-44.8	-47.4	6.1	0.00e+00	0	34	104	0	60	28651
2026-01-17 23:52:26.07	43.39	20.87	-44.6	-47.5	6.1	0.00e+00	0	34	104	0	60	29100
2026-01-17 23:52:29.00	44.24	21.41	-44.5	-47.2	6.1	0.00e+00	0	34	104	0	60	27905
2026-01-17 23:52:31.94	45.13	21.96	-45.2	-47.6	6.1	0.00e+00	0	34	104	0	60	29525
2026-01-17 23:52:34.87	46.05	22.53	-44.4	-47.2	6.1	0.00e+00	0	34	104	0	60	27932
2026-01-17 23:52:37.81	47.02	23.11	-45.1	-47.6	6.1	0.00e+00	0	34	104	0	60	29547
2026-01-17 23:52:40.75	48.03	23.69	-45.0	-47.5	6.1	0.00e+00	0	34	104	0	60	29063
2026-01-17 23:52:43.68	49.09	24.29	-45.0	-47.7	6.1	0.00e+00	0	34	104	0	60	29878
2026-01-17 23:52:46.62	50.19	24.89	-43.6	-46.2	6.1	0.00e+00	0	34	104	0	60	25130
2026-01-17 23:52:49.54	51.34	25.50	-44.4	-47.1	6.1	0.00e+00	0	34	104	0	60	27844
2026-01-17 23:52:52.48	52.55	26.13	-45.0	-47.5	6.1	0.00e+00	0	34	104	0	60	28999
2026-01-17 23:52:55.41	53.81	26.75	-45.0	-47.6	6.1	0.00e+00	0	34	104	0	60	29432
2026-01-17 23:52:58.33	55.12	27.38	-42.8	-45.6	6.2	0.00e+00	0	34	104	0	60	23284
2026-01-17 23:53:01.26	56.50	28.02	-43.7	-46.3	6.1	0.00e+00	0	34	104	0	60	25197
2026-01-17 23:53:04.19	57.94	28.66	-45.4	-47.8	6.1	0.00e+00	0	34	104	0	60	30124
2026-01-17 23:53:07.12	59.45	29.30	-45.4	-47.8	6.1	0.00e+00	0	34	104	0	60	29923
2026-01-17 23:53:10.05	61.02	29.94	-43.7	-46.4	6.1	0.00e+00	0	34	104	0	60	25549
2026-01-17 23:53:12.99	62.67	30.58	-45.3	-47.8	6.1	0.00e+00	0	34	104	0	60	30151
2026-01-17 23:53:15.92	64.39	31.20	-45.0	-47.6	6.1	0.00e+00	0	34	104	0	60	29375
2026-01-17 23:53:18.86	66.20	31.82	-44.9	-47.4	6.1	0.00e+00	0	34	104	0	60	28727
2026-01-17 23:53:21.79	68.07	32.43	-45.2	-47.7	6.1	0.00e+00	0	34	104	0	60	29583
2026-01-17 23:53:24.71	70.01	33.01	-44.9	-47.6	6.1	0.00e+00	0	34	104	0	60	29401
2026-01-17 23:53:27.64	72.03	33.58	-45.3	-47.8	6.1	0.00e+00	0	34	104	0	60	30174
2026-01-17 23:53:30.58	74.14	34.12	-44.6	-47.5	6.1	0.00e+00	0	34	104	0	60	28996
2026-01-17 23:53:33.52	76.33	34.63	-45.2	-47.8	6.1	0.00e+00	0	34	104	0	60	30172
2026-01-17 23:53:36.45	78.58	35.11	-45.5	-47.8	6.1	0.00e+00	0	34	104	0	60	30197
2026-01-17 23:53:39.38	80.90	35.55	-45.5	-47.8	6.1	0.00e+00	0	34	104	0	60	30214
2026-01-17 23:53:42.31	83.29	35.94	-45.0	-47.5	6.1	0.00e+00	0	34	104	0	60	29039
2026-01-17 23:53:45.25	85.75	36.29	-44.1	-46.7	6.1	0.00e+00	0	34	104	0	60	26590
2026-01-17 23:53:48.19	88.26	36.59	-43.6	-46.2	6.2	0.00e+00	0	34	104	0	60	25122
2026-01-17 23:53:51.13	90.81	36.83	-45.3	-47.8	6.1	0.00e+00	0	34	104	0	60	30195
2026-01-17 23:53:54.07	93.40	37.01	-45.4	-47.8	6.1	0.00e+00	0	34	104	0	60	30007
2026-01-17 23:53:57.00	96.01	37.13	-45.1	-47.5	6.1	0.00e+00	0	34	104	0	60	29198
2026-01-17 23:53:59.95	98.65	37.19	-45.6	-48.0	6.1	0.00e+00	0	34	104	0	60	30624
2026-01-17 23:54:02.91	101.31	37.19	-45.4	-47.9	6.1	0.00e+00	0	34	104	0	60	30474
2026-01-17 23:54:05.86	103.95	37.12	-45.5	-47.9	6.1	0.00e+00	0	34	104	0	60	30557
2026-01-17 23:54:08.81	106.57	36.99	-45.4	-47.9	6.1	0.00e+00	0	34	104	0	60	30412
2026-01-17 23:54:11.76	109.17	36.80	-45.6	-48.0	6.1	0.00e+00	0	34	104	0	60	30931
2026-01-17 23:54:14.70	111.72	36.55	-45.3	-47.7	6.1	0.00e+00	0	34	104	0	60	29844
2026-01-17 23:54:17.66	114.25	36.25	-45.4	-47.9	6.1	0.00e+00	0	34	104	0	60	30551
2026-01-17 23:54:20.65	116.74	35.88	-45.4	-47.8	6.1	0.00e+00	0	34	104	0	60	30133
2026-01-17 23:54:23.63	119.17	35.47	-45.7	-48.2	6.1	0.00e+00	0	34	104	0	60	31386
2026-01-17 23:54:26.64	121.54	35.02	-45.7	-48.1	6.1	0.00e+00	0	34	104	0	60	31243
2026-01-17 23:54:29.66	123.86	34.51	-45.6	-48.0	6.1	0.00e+00	0	34	104	0	60	30717
2026-01-17 23:54:32.67	126.08	33.98	-45.6	-48.1	6.1	0.00e+00	0	34	104	0	60	30944
2026-01-17 23:54:35.66	128.21	33.42	-45.4	-47.9	6.1	0.00e+00	0	34	104	0	60	30261
2026-01-17 23:54:38.64	130.26	32.83	-45.5	-47.9	6.1	0.00e+00	0	34	104	0	60	30390
2026-01-17 23:54:41.64	132.24	32.22	-45.1	-47.6	6.1	0.00e+00	0	34	104	0	60	29297
2026-01-17 23:54:44.62	134.12	31.60	-45.6	-48.0	6.1	0.00e+00	0	35	104	0	60	30631
2026-01-17 23:54:47.61	135.93	30.96	-45.2	-47.6	6.1	0.00e+00	0	34	104	0	60	29484
2026-01-17 23:54:50.59	137.66	30.32	-45.7	-48.1	6.1	0.00e+00	0	34	104	0	60	31026
2026-01-17 23:54:53.62	139.34	29.66	-45.6	-48.0	6.1	0.00e+00	0	34	104	0	60	30791
2026-01-17 23:54:56.65	140.95	28.99	-45.6	-47.9	6.1	0.00e+00	0	34	104	0	60	30541
2026-01-17 23:54:59.68	142.48	28.32	-45.5	-47.8	6.1	0.00e+00	0	34	104	0	60	30230
2026-01-17 23:55:02.71	143.95	27.66	-45.3	-47.6	6.1	0.00e+00	0	34	104	0	60	29548
2026-01-17 23:55:05.73	145.34	27.00	-45.4	-47.8	6.0	0.00e+00	0	34	104	0	60	30130
2026-01-17 23:55:08.75	146.67	26.35	-45.4	-47.8	6.1	0.00e+00	0	34	104	0	60	29912
2026-01-17 23:55:11.78	147.94	25.70	-45.3	-47.7	6.1	0.00e+00	0	34	104	0	60	29819
2026-01-17 23:55:14.81	149.16	25.06	-45.4	-47.7	6.1	0.00e+00	0	34	104	0	60	29665
2026-01-17 23:55:17.84	150.32	24.43	-45.2	-47.6	6.1	0.00e+00	0	34	104	0	60	29505
2026-01-17 23:55:20.87	151.43	23.80	-45.3	-47.7	6.1	0.00e+00	0	34	104	0	60	29715
2026-01-17 23:55:23.90	152.49	23.19	-45.3	-47.7	6.1	0.00e+00	0	34	104	0	60	29613
2026-01-17 23:55:26.93	153.50	22.59	-45.1	-47.5	6.1	0.00e+00	0	34	104	0	60	29093
2026-01-17 23:55:29.96	154.47	22.00	-45.3	-47.6	6.1	0.00e+00	0	34	104	0	60	29385
2026-01-17 23:55:32.98	155.39	21.43	-45.2	-47.6	6.1	0.00e+00	0	34	104	0	60	29255
2026-01-17 23:55:36.01	156.28	20.86	-45.1	-47.4	6.1	0.00e+00	0	34	104	0	60	28854
2026-01-17 23:55:39.04	157.13	20.30	-45.2	-47.6	6.1	0.00e+00	0	34	104	0	60	29403
2026-01-17 23:55:42.06	157.94	19.76	-45.1	-47.6	6.1	0.00e+00	0	34	104	0	60	29282
2026-01-17 23:55:45.09	158.72	19.23	-45.2	-47.6	6.1	0.00e+00	0	34	104	0	60	29354
2026-01-17 23:55:48.12	159.47	18.71	-45.2	-47.5	6.1	0.00e+00	0	34	104	0	60	29191
2026-01-17 23:55:51.15	160.19	18.20	-44.9	-46.6	6.1	0.00e+00	0	34	104	0	60	26057
2026-01-17 23:55:54.17	160.88	17.70	-45.1	-47.5	6.1	0.00e+00	0	34	104	0	60	29156
2026-01-17 23:55:57.20	161.54	17.22	-45.2	-47.6	6.1	0.00e+00	0	34	104	0	60	29414
2026-01-17 23:56:00.23	162.18	16.74	-44.9	-47.3	6.1	0.00e+00	0	34	104	0	60	28544
2026-01-17 23:56:03.26	162.80	16.28	-45.0	-47.4	6.1	0.00e+00	0	34	104	0	60	28612
2026-01-17 23:56:06.29	163.39	15.82	-45.0	-47.5	6.1	0.00e+00	0	34	104	0	60	28886
2026-01-17 23:56:09.31	163.96	15.38	-45.1	-47.6	6.1	0.00e+00	0	34	104	0	60	29298
2026-01-17 23:56:12.34	164.51	14.94	-45.1	-47.5	6.1	0.00e+00	0	34	104	0	60	29032
2026-01-17 23:56:15.37	165.04	14.51	-45.1	-47.5	6.1	0.00e+00	0	34	104	0	60	28996
2026-01-17 23:56:18.40	165.55	14.10	-45.0	-47.4	6.1	0.00e+00	0	35	104	0	60	28701
2026-01-17 23:56:21.43	166.04	13.69	-45.1	-47.5	6.1	0.00e+00	0	34	104	0	60	29083
2026-01-17 23:56:24.45	166.52	13.29	-45.1	-47.5	6.1	0.00e+00	0	34	104	0	60	29005
2026-01-17 23:56:27.48	166.98	12.89	-45.1	-47.4	6.1	0.00e+00	0	35	104	0	60	28791
2026-01-17 23:56:30.51	167.42	12.51	-44.8	-47.3	6.1	0.00e+00	0	35	104	0	60	28420
2026-01-17 23:56:33.53	167.85	12.14	-45.0	-47.4	6.1	0.00e+00	0	35	104	0	60	28690
2026-01-17 23:56:36.56	168.27	11.77	-45.1	-47.5	6.1	0.00e+00	0	35	104	0	60	28960
2026-01-17 23:56:39.58	168.68	11.41	-44.8	-47.2	6.1	0.00e+00	0	35	104	0	60	28189
2026-01-17 23:56:42.61	169.07	11.05	-45.0	-47.4	6.1	0.00e+00	0	35	104	0	60	28554
2026-01-17 23:56:45.64	169.45	10.70	-44.9	-47.3	6.1	0.00e+00	0	35	104	0	60	28319
2026-01-17 23:56:48.66	169.81	10.36	-44.9	-47.3	6.1	0.00e+00	0	35	104	0	60	28400
2026-01-17 23:56:51.69	170.17	10.03	-44.9	-47.3	6.0	0.00e+00	0	34	104	0	60	28248
2026-01-17 23:56:54.72	170.52	9.70	-44.9	-47.3	6.1	0.00e+00	0	35	104	0	60	28313
2026-01-17 23:56:57.74	170.85	9.38	-44.7	-47.1	6.1	0.00e+00	0	34	104	0	60	27810
2026-01-17 23:57:00.77	171.18	9.06	-44.7	-47.2	6.1	0.00e+00	0	34	104	0	60	27927
2026-01-17 23:57:03.80	171.50	8.75	-44.4	-46.9	6.1	0.00e+00	0	35	104	0	60	26965
2026-01-17 23:57:06.83	171.81	8.44	-44.7	-47.0	6.1	0.00e+00	0	35	104	0	60	27500
2026-01-17 23:57:09.86	172.11	8.14	-44.7	-47.1	6.1	0.00e+00	0	34	104	0	60	27607
2026-01-17 23:57:12.88	172.40	7.85	-44.6	-47.0	6.1	0.00e+00	0	35	104	0	60	27475
2026-01-17 23:57:15.92	172.69	7.55	-44.4	-46.8	6.1	0.00e+00	0	35	104	0	60	26947
2026-01-17 23:57:18.95	172.96	7.27	-44.3	-46.8	6.1	0.00e+00	0	34	104	0	60	26688
2026-01-17 23:57:21.97	173.23	6.98	-44.6	-46.9	6.1	0.00e+00	0	34	104	0	60	27178
2026-01-17 23:57:25.00	173.50	6.71	-44.7	-47.1	6.1	0.00e+00	0	35	104	0	60	27696
2026-01-17 23:57:28.03	173.75	6.43	-44.4	-46.8	6.1	0.00e+00	0	34	104	0	60	26778
2026-01-17 23:57:31.06	174.00	6.16	-44.7	-47.1	6.1	0.00e+00	0	34	104	0	60	27811
2026-01-17 23:57:34.09	174.25	5.90	-42.5	-44.9	6.1	0.00e+00	0	35	104	0	60	21513
2026-01-17 23:57:37.11	174.49	5.64	-40.1	-42.6	6.1	0.00e+00	0	34	104	0	56	20744
2026-01-17 23:57:40.14	174.72	5.38	-31.2	-33.7	6.1	0.00e+00	0	34	104	0	36	23510
2026-01-17 23:57:43.17	174.95	5.13	-33.1	-35.5	6.1	0.00e+00	0	35	104	0	42	20607
2026-01-17 23:57:46.20	175.17	4.87	-38.9	-41.3	6.1	0.00e+00	0	35	104	0	50	25391
2026-01-17 23:57:49.22	175.38	4.63	-43.6	-46.0	6.1	0.00e+00	0	35	104	0	60	24317
2026-01-17 23:57:52.25	175.60	4.38	-32.4	-34.8	6.1	0.00e+00	0	35	104	0	42	19036
2026-01-17 23:57:55.28	175.80	4.14	-39.3	-41.7	6.1	0.00e+00	0	35	104	0	52	23616
2026-01-17 23:57:58.31	176.00	3.90	-43.4	-45.8	6.1	0.00e+00	0	34	104	0	60	23767
2026-01-17 23:58:01.33	176.20	3.67	-44.3	-46.7	6.1	0.00e+00	0	35	104	0	60	26453
2026-01-17 23:58:04.36	176.40	3.44	-43.7	-46.1	6.1	0.00e+00	0	34	104	0	60	24846
2026-01-17 23:58:07.39	176.59	3.21	-43.6	-46.0	6.1	0.00e+00	0	34	104	0	60	24476
2026-01-17 23:58:10.41	176.77	2.98	-43.5	-45.9	6.1	0.00e+00	0	35	104	0	60	24182
2026-01-17 23:58:13.44	176.95	2.76	-45.1	-47.5	6.1	0.00e+00	0	35	104	0	60	29189
2026-01-17 23:58:16.48	177.13	2.54	-44.9	-47.4	6.1	0.00e+00	0	35	104	0	60	28776
2026-01-17 23:58:19.51	177.31	2.32	-45.0	-47.5	6.1	0.00e+00	0	34	104	0	60	29000
2026-01-17 23:58:22.54	177.48	2.10	-45.5	-47.9	6.1	0.00e+00	0	35	104	0	60	30255
2026-01-17 23:58:25.57	177.65	1.89	-45.6	-48.0	6.1	0.00e+00	0	35	104	0	60	30754
2026-01-17 23:58:28.60	177.81	1.67	-45.4	-47.9	6.1	0.00e+00	0	35	104	0	60	30409
2026-01-17 23:58:31.63	177.97	1.46	-45.4	-47.9	6.1	0.00e+00	0	35	104	0	60	30407
2026-01-17 23:58:34.66	178.13	1.26	-45.6	-48.0	6.1	0.00e+00	0	34	104	0	60	30881
2026-01-17 23:58:37.69	178.28	1.05	-45.8	-48.2	6.1	0.00e+00	0	34	104	0	60	31537
2026-01-17 23:58:40.72	178.44	0.85	-45.7	-48.2	6.1	0.00e+00	0	35	104	0	60	31423
2026-01-17 23:58:43.75	178.59	0.65	-45.6	-48.0	6.1	0.00e+00	0	35	104	0	60	30840
2026-01-17 23:58:46.77	178.73	0.45	-45.6	-48.0	6.1	0.00e+00	0	35	104	0	60	30744
2026-01-17 23:58:49.80	178.88	0.25	-45.7	-48.1	6.1	0.00e+00	0	35	104	0	60	30997
2026-01-17 23:58:52.82	179.02	0.06	-45.9	-48.3	6.1	0.00e+00	0	35	104	0	60	31769

#Closed at: 2026-01-17 23:58:54
#Recorded file [0 MB]: D:/lorett/data/35029_260118_114909.dat