passes_logs/2026/01/17/R4.6S_Anadyr/R4.6S_Anadyr__20260117_210501_NOAA_20_JPSS-1_rec.log

#Pass ID: 20260117_210501_NOAA 20 (JPSS-1)
#Satellite: NOAA 20 (JPSS-1)
#Configuration: NOAA 20
#almurnet v.1.7.20251203
#Start time: 2026-01-17 21:05:03

#Version: 2.2.20231116
#Station: R4.6S_Anadyr
#Location: 177.4865 lon 64.73178 lat
#TLE: 1 43013U 17073A   26016.52825843  .00000039  00000+0  39346-4 0  9991
#TLE: 2 43013  98.7637 317.4515 0001446  37.2648 322.8628 14.19536276422951

#Time	Az	El	Level	Level2	SNR	BER	BlckErr	Temp	State	Recorded	gain1	gain2
2026-01-17 21:05:03.50	82.85	0.10	-48.9	-63.8	3.6	1.51e+00	0	28	0	0	60	56043
2026-01-17 21:05:07.54	82.58	0.30	-49.3	-64.5	3.6	1.51e+00	0	30	104	0	60	60480
2026-01-17 21:05:11.58	82.31	0.51	-48.9	-64.1	3.6	1.51e+00	0	30	104	0	60	57721
2026-01-17 21:05:15.62	82.04	0.72	-48.7	-63.9	3.6	1.51e+00	0	30	104	0	60	56399
2026-01-17 21:05:19.66	81.76	0.94	-47.7	-63.2	3.6	1.51e+00	0	30	104	0	60	52156
2026-01-17 21:05:23.70	81.47	1.15	-46.9	-62.1	3.6	1.51e+00	0	30	104	0	60	46191
2026-01-17 21:05:27.73	81.19	1.36	-46.9	-62.2	3.6	1.51e+00	0	30	104	0	60	46496
2026-01-17 21:05:31.77	80.89	1.58	-46.9	-62.1	3.6	1.51e+00	0	30	104	0	60	46263
2026-01-17 21:05:35.81	80.60	1.79	-46.9	-62.2	3.6	1.51e+00	0	30	104	0	60	46709
2026-01-17 21:05:39.85	80.29	2.01	-46.9	-61.7	3.6	1.51e+00	0	30	104	0	60	44033
2026-01-17 21:05:43.89	79.99	2.22	-46.9	-61.8	3.6	1.51e+00	0	30	104	0	60	44554
2026-01-17 21:05:47.93	79.68	2.44	-46.9	-62.2	3.6	1.51e+00	0	30	104	0	60	46422
2026-01-17 21:05:51.97	79.36	2.66	-46.9	-61.9	3.6	1.51e+00	0	30	104	0	60	44779
2026-01-17 21:05:56.01	79.04	2.88	-46.9	-61.9	3.6	1.51e+00	0	30	104	0	60	44850
2026-01-17 21:06:00.05	78.72	3.10	-45.1	-49.8	11.2	2.39e-02	60	30	0	3145728	60	11113
2026-01-17 21:06:04.09	78.39	3.32	-46.8	-62.1	3.6	1.75e-01	0	30	104	10485760	60	45771
2026-01-17 21:06:08.13	78.05	3.54	-44.1	-47.4	13.6	2.20e-06	91	30	0	12582912	60	8491
2026-01-17 21:06:12.16	77.71	3.77	-42.7	-45.0	16.5	0.00e+00	45	30	0	19922944	60	6419
2026-01-17 21:06:16.20	77.37	3.99	-41.8	-43.6	17.9	0.00e+00	0	30	0	27262976	56	6910
2026-01-17 21:06:20.25	77.01	4.21	-42.1	-44.0	17.6	0.00e+00	91	30	0	35651584	56	7221
2026-01-17 21:06:24.29	76.66	4.44	-41.8	-43.7	18.0	0.00e+00	92	30	0	42991616	56	6947
2026-01-17 21:06:28.33	76.29	4.67	-41.6	-43.3	18.3	0.00e+00	3	30	0	50331648	56	6674
2026-01-17 21:06:32.36	75.92	4.89	-41.7	-43.4	18.1	0.00e+00	0	30	0	57671680	56	6768
2026-01-17 21:06:36.40	75.55	5.12	-41.8	-43.6	18.0	0.00e+00	92	31	0	65011712	56	6865
2026-01-17 21:06:40.44	75.17	5.35	-41.9	-43.6	18.1	0.00e+00	90	31	0	73400320	56	6924
2026-01-17 21:06:44.48	74.78	5.58	-41.7	-43.5	18.4	0.00e+00	60	30	0	80740352	56	6784
2026-01-17 21:06:48.52	74.39	5.81	-41.6	-43.3	18.5	0.00e+00	12	31	0	88080384	56	6665
2026-01-17 21:06:52.55	73.99	6.04	-41.6	-43.3	18.6	0.00e+00	92	30	0	95420416	56	6628
2026-01-17 21:06:56.59	73.58	6.27	-41.6	-43.3	18.5	0.00e+00	92	30	0	103809024	56	6646
2026-01-17 21:07:00.64	73.17	6.51	-41.9	-43.7	18.3	0.00e+00	71	31	0	111149056	56	6942
2026-01-17 21:07:04.68	72.75	6.74	-41.6	-43.2	18.7	0.00e+00	92	31	0	118489088	56	6596
2026-01-17 21:07:08.72	72.32	6.97	-41.6	-43.2	18.6	0.00e+00	92	30	0	125829120	56	6580
2026-01-17 21:07:12.76	71.88	7.21	-41.5	-43.2	18.8	0.00e+00	92	31	0	133169152	56	6552
2026-01-17 21:07:16.80	71.44	7.44	-41.4	-42.9	19.1	0.00e+00	0	31	0	141557760	56	6358
2026-01-17 21:07:20.83	70.99	7.68	-41.4	-42.9	19.1	0.00e+00	92	30	0	148897792	56	6364
2026-01-17 21:07:24.87	70.54	7.91	-40.7	-42.1	19.8	0.00e+00	92	30	0	156237824	54	6514
2026-01-17 21:07:28.91	70.07	8.15	-40.6	-42.0	20.0	0.00e+00	92	31	0	163577856	54	6391
2026-01-17 21:07:32.95	69.60	8.39	-40.3	-41.6	20.3	0.00e+00	11	31	0	171966464	54	6162
2026-01-17 21:07:36.98	69.12	8.62	-40.3	-41.6	20.3	0.00e+00	92	31	0	179306496	54	6152
2026-01-17 21:07:41.02	68.64	8.86	-40.5	-41.9	20.1	0.00e+00	92	31	0	186646528	54	6329
2026-01-17 21:07:45.06	68.14	9.10	-40.3	-41.7	20.3	0.00e+00	90	31	0	193986560	54	6183
2026-01-17 21:07:49.10	67.64	9.33	-40.1	-41.3	20.6	0.00e+00	0	31	0	201326592	54	5952
2026-01-17 21:07:53.14	67.12	9.57	-40.1	-41.4	20.6	0.00e+00	92	31	0	209715200	54	5966
2026-01-17 21:07:57.18	66.60	9.81	-40.2	-41.5	20.5	0.00e+00	90	31	0	217055232	54	6078
2026-01-17 21:08:01.21	66.07	10.05	-40.4	-41.7	20.3	0.00e+00	71	31	0	224395264	54	6223
2026-01-17 21:08:05.26	65.53	10.29	-40.3	-41.6	20.4	0.00e+00	14	30	0	231735296	54	6129
2026-01-17 21:08:09.30	64.98	10.52	-40.1	-41.4	20.7	0.00e+00	90	31	0	240123904	54	5988
2026-01-17 21:08:13.34	64.43	10.76	-40.1	-41.4	20.7	0.00e+00	92	31	0	247463936	54	5974
2026-01-17 21:08:17.39	63.86	11.00	-40.1	-41.4	20.7	0.00e+00	0	31	0	254803968	54	5976
2026-01-17 21:08:21.42	63.29	11.23	-40.4	-41.7	20.1	0.00e+00	92	31	0	262144000	54	6239
2026-01-17 21:08:25.46	62.70	11.47	-40.0	-41.2	20.9	0.00e+00	92	31	0	269484032	54	5853
2026-01-17 21:08:29.50	62.11	11.70	-40.1	-41.3	20.7	0.00e+00	92	31	0	277872640	54	5957
2026-01-17 21:08:33.54	61.50	11.94	-39.9	-41.1	21.0	0.00e+00	3	31	0	285212672	54	5780
2026-01-17 21:08:37.58	60.89	12.17	-39.8	-41.0	21.1	0.00e+00	92	31	0	292552704	54	5711
2026-01-17 21:08:41.61	60.26	12.40	-39.9	-41.1	20.9	0.00e+00	92	31	0	299892736	54	5812
2026-01-17 21:08:45.65	59.63	12.63	-40.1	-41.3	20.8	0.00e+00	92	31	0	308281344	54	5945
2026-01-17 21:08:49.69	58.99	12.86	-39.8	-40.9	21.2	0.00e+00	63	31	0	315621376	54	5679
2026-01-17 21:08:53.73	58.33	13.09	-39.7	-40.9	21.3	0.00e+00	92	31	0	322961408	52	6341
2026-01-17 21:08:57.77	57.67	13.31	-39.5	-40.7	21.4	0.00e+00	92	31	0	330301440	52	6192
2026-01-17 21:09:01.80	56.99	13.54	-39.1	-40.2	21.9	0.00e+00	25	31	0	337641472	52	5850
2026-01-17 21:09:05.84	56.31	13.76	-39.0	-40.0	22.2	0.00e+00	4	31	0	346030080	52	5731
2026-01-17 21:09:09.88	55.61	13.98	-38.7	-39.8	22.4	0.00e+00	92	31	0	353370112	50	6262
2026-01-17 21:09:13.92	54.91	14.20	-38.4	-39.4	22.7	0.00e+00	92	31	0	360710144	50	6004
2026-01-17 21:09:17.95	54.19	14.41	-38.3	-39.3	22.8	0.00e+00	0	31	0	368050176	50	5940
2026-01-17 21:09:21.99	53.46	14.63	-38.1	-39.0	23.0	0.00e+00	0	31	0	376438784	50	5757
2026-01-17 21:09:26.03	52.73	14.84	-37.8	-38.8	23.3	0.00e+00	92	31	0	383778816	50	5585
2026-01-17 21:09:30.07	51.98	15.04	-37.6	-38.5	23.4	0.00e+00	92	31	0	391118848	48	6097
2026-01-17 21:09:34.11	51.22	15.25	-37.6	-38.5	23.1	0.00e+00	55	31	0	398458880	48	6065
2026-01-17 21:09:38.15	50.45	15.45	-37.8	-38.8	23.4	0.00e+00	0	31	0	405798912	48	6246
2026-01-17 21:09:42.19	49.67	15.64	-37.9	-38.8	23.2	0.00e+00	90	31	0	414187520	48	6276
2026-01-17 21:09:46.23	48.88	15.84	-38.1	-39.0	23.1	0.00e+00	57	31	0	421527552	48	6435
2026-01-17 21:09:50.27	48.08	16.02	-38.0	-39.0	23.2	0.00e+00	0	31	0	428867584	48	6395
2026-01-17 21:09:54.31	47.27	16.21	-37.9	-38.8	23.3	0.00e+00	0	31	0	436207616	48	6287
2026-01-17 21:09:58.35	46.45	16.39	-37.7	-38.6	23.5	0.00e+00	92	31	0	444596224	48	6144
2026-01-17 21:10:02.39	45.62	16.56	-37.3	-38.2	23.8	0.00e+00	2	31	0	451936256	48	5876
2026-01-17 21:10:06.43	44.78	16.73	-37.3	-38.2	23.9	0.00e+00	56	31	0	459276288	48	5867
2026-01-17 21:10:10.47	43.93	16.90	-37.4	-38.3	23.7	0.00e+00	92	31	0	466616320	48	5900
2026-01-17 21:10:14.51	43.07	17.05	-37.4	-38.2	23.8	0.00e+00	92	31	0	473956352	48	5883
2026-01-17 21:10:18.55	42.20	17.21	-37.3	-38.2	23.9	0.00e+00	0	31	0	482344960	48	5867
2026-01-17 21:10:22.58	41.33	17.35	-37.0	-37.9	24.0	0.00e+00	24	31	0	489684992	48	5664
2026-01-17 21:10:26.62	40.45	17.50	-37.2	-38.1	23.9	0.00e+00	92	31	0	497025024	48	5785
2026-01-17 21:10:30.66	39.55	17.63	-37.6	-38.5	23.6	0.00e+00	92	31	0	504365056	48	6059
2026-01-17 21:10:34.70	38.65	17.76	-37.4	-38.2	23.8	0.00e+00	7	31	0	512753664	48	5879
2026-01-17 21:10:38.73	37.75	17.88	-37.4	-38.3	23.8	0.00e+00	0	31	0	520093696	48	5921
2026-01-17 21:10:42.77	36.83	18.00	-37.7	-38.6	23.5	0.00e+00	92	31	0	527433728	48	6139
2026-01-17 21:10:46.80	35.91	18.10	-37.8	-38.7	23.3	0.00e+00	92	31	0	534773760	48	6245
2026-01-17 21:10:50.84	34.98	18.20	-38.4	-39.4	22.8	0.00e+00	25	31	0	542113792	48	6700
2026-01-17 21:10:54.88	34.05	18.30	-38.2	-39.1	23.1	0.00e+00	0	31	0	550502400	48	6503
2026-01-17 21:10:58.92	33.11	18.38	-38.0	-38.9	23.2	0.00e+00	92	31	0	557842432	48	6341
2026-01-17 21:11:02.96	32.16	18.46	-38.5	-39.5	22.7	0.00e+00	0	31	0	565182464	48	6804
2026-01-17 21:11:07.00	31.21	18.53	-38.6	-39.6	22.5	0.00e+00	0	31	0	572522496	48	6905
2026-01-17 21:11:11.04	30.26	18.59	-38.9	-39.9	22.4	0.00e+00	0	31	0	580911104	50	6379
2026-01-17 21:11:15.08	29.30	18.64	-38.9	-40.0	22.4	0.00e+00	92	31	0	588251136	50	6401
2026-01-17 21:11:19.12	28.34	18.69	-38.8	-39.8	22.5	0.00e+00	0	31	0	595591168	50	6314
2026-01-17 21:11:23.16	27.38	18.73	-38.9	-39.9	22.4	0.00e+00	0	31	0	602931200	50	6343
2026-01-17 21:11:27.21	26.41	18.75	-38.7	-39.7	22.6	0.00e+00	36	31	0	610271232	50	6181
2026-01-17 21:11:31.25	25.45	18.77	-38.8	-39.8	22.5	0.00e+00	0	31	0	618659840	50	6302
2026-01-17 21:11:35.28	24.48	18.79	-38.7	-39.6	22.7	0.00e+00	57	31	0	625999872	50	6170
2026-01-17 21:11:39.32	23.51	18.79	-38.6	-39.6	22.7	0.00e+00	0	31	0	633339904	50	6116
2026-01-17 21:11:43.36	22.55	18.78	-38.0	-39.0	23.2	0.00e+00	92	31	0	640679936	50	5711
2026-01-17 21:11:47.39	21.58	18.77	-38.2	-39.1	23.1	0.00e+00	0	31	0	649068544	50	5788
2026-01-17 21:11:51.43	20.62	18.75	-37.8	-38.7	23.5	0.00e+00	24	31	0	656408576	50	5566
2026-01-17 21:11:55.48	19.65	18.72	-38.1	-39.0	23.2	0.00e+00	0	31	0	663748608	50	5738
2026-01-17 21:11:59.52	18.69	18.68	-37.4	-38.3	23.8	0.00e+00	92	31	0	671088640	48	5935
2026-01-17 21:12:03.56	17.73	18.63	-37.5	-38.4	23.8	0.00e+00	0	31	0	678428672	48	5988
2026-01-17 21:12:07.60	16.77	18.57	-37.3	-38.1	24.0	0.00e+00	0	31	0	686817280	48	5812
2026-01-17 21:12:11.64	15.82	18.51	-36.9	-37.8	24.4	0.00e+00	0	31	0	694157312	48	5584
2026-01-17 21:12:15.68	14.87	18.44	-36.9	-37.7	24.3	0.00e+00	92	31	0	701497344	48	5541
2026-01-17 21:12:19.72	13.93	18.36	-37.1	-37.9	24.2	0.00e+00	5	31	0	708837376	48	5669
2026-01-17 21:12:23.76	12.99	18.27	-37.3	-38.2	23.9	0.00e+00	0	31	0	717225984	48	5833
2026-01-17 21:12:27.80	12.06	18.18	-37.4	-38.3	23.9	0.00e+00	0	31	0	724566016	48	5939
2026-01-17 21:12:31.84	11.14	18.08	-37.5	-38.4	23.7	0.00e+00	92	31	0	731906048	48	5985
2026-01-17 21:12:35.88	10.22	17.97	-37.7	-38.6	23.6	0.00e+00	6	31	0	739246080	48	6105
2026-01-17 21:12:39.93	9.30	17.85	-38.2	-39.1	23.1	0.00e+00	0	31	0	747634688	48	6531
2026-01-17 21:12:43.96	8.40	17.73	-38.1	-39.0	23.3	0.00e+00	0	31	0	754974720	48	6411
2026-01-17 21:12:48.00	7.50	17.60	-38.4	-39.4	22.8	0.00e+00	92	31	0	762314752	48	6721
2026-01-17 21:12:52.04	6.61	17.46	-38.1	-39.1	23.2	0.00e+00	59	31	0	769654784	48	6491
2026-01-17 21:12:56.08	5.73	17.32	-38.1	-39.0	23.3	0.00e+00	2	31	0	776994816	48	6443
2026-01-17 21:13:00.12	4.86	17.17	-38.0	-39.0	23.2	0.00e+00	81	31	0	785383424	48	6393
2026-01-17 21:13:04.16	4.00	17.01	-38.1	-39.0	22.9	0.00e+00	42	31	0	792723456	48	6425
2026-01-17 21:13:08.20	3.14	16.85	-38.3	-39.3	23.0	0.00e+00	17	31	0	800063488	48	6623
2026-01-17 21:13:12.24	2.30	16.69	-38.1	-39.0	23.2	0.00e+00	22	31	0	807403520	48	6415
2026-01-17 21:13:16.28	1.46	16.52	-38.3	-39.2	22.9	0.00e+00	92	31	0	815792128	48	6601
2026-01-17 21:13:20.32	0.63	16.34	-38.6	-39.6	22.7	0.00e+00	66	31	0	823132160	48	6868
2026-01-17 21:13:24.35	359.82	16.16	-38.6	-39.6	22.7	0.00e+00	0	31	0	830472192	50	6143
2026-01-17 21:13:28.39	359.01	15.98	-38.8	-39.8	22.4	0.00e+00	25	31	0	837812224	50	6286
2026-01-17 21:13:32.42	358.22	15.79	-38.9	-39.9	22.4	0.00e+00	91	31	0	845152256	50	6339
2026-01-17 21:13:36.46	357.43	15.60	-39.0	-40.0	22.3	0.00e+00	18	31	0	853540864	50	6431
2026-01-17 21:13:40.50	356.66	15.40	-38.7	-39.7	22.5	0.00e+00	0	31	0	860880896	50	6198
2026-01-17 21:13:44.53	355.90	15.20	-39.0	-40.0	22.2	0.00e+00	0	31	0	868220928	50	6434
2026-01-17 21:13:48.57	355.14	15.00	-39.2	-40.3	21.9	0.00e+00	91	31	0	875560960	50	6683
2026-01-17 21:13:52.61	354.40	14.79	-39.1	-40.1	22.1	0.00e+00	0	31	0	882900992	50	6506
2026-01-17 21:13:56.65	353.67	14.58	-38.8	-39.8	22.4	0.00e+00	61	31	0	891289600	50	6299
2026-01-17 21:14:00.69	352.94	14.36	-39.6	-40.7	21.6	0.00e+00	0	31	0	898629632	50	6960
2026-01-17 21:14:04.73	352.23	14.15	-39.9	-41.1	21.3	0.00e+00	92	31	0	905969664	52	6469
2026-01-17 21:14:08.77	351.53	13.93	-39.9	-41.0	21.3	0.00e+00	5	31	0	913309696	52	6464
2026-01-17 21:14:12.81	350.84	13.71	-39.9	-41.1	21.2	0.00e+00	20	31	0	921698304	52	6507
2026-01-17 21:14:16.85	350.16	13.49	-39.8	-41.0	21.4	0.00e+00	0	31	0	929038336	52	6394
2026-01-17 21:14:20.89	349.49	13.26	-39.9	-41.0	21.3	0.00e+00	92	31	0	936378368	52	6435
2026-01-17 21:14:24.93	348.83	13.04	-40.0	-41.2	21.2	0.00e+00	6	31	0	943718400	52	6541
2026-01-17 21:14:28.97	348.18	12.81	-39.7	-40.8	21.5	0.00e+00	0	31	0	952107008	52	6269
2026-01-17 21:14:33.01	347.54	12.58	-39.5	-40.6	21.6	0.00e+00	0	31	0	959447040	52	6171
2026-01-17 21:14:37.04	346.91	12.35	-39.3	-40.4	21.9	0.00e+00	91	31	0	966787072	52	5971
2026-01-17 21:14:41.08	346.29	12.12	-39.1	-40.1	22.1	0.00e+00	61	31	0	974127104	52	5823
2026-01-17 21:14:45.12	345.68	11.89	-39.0	-40.1	22.1	0.00e+00	0	31	0	981467136	52	5822
2026-01-17 21:14:49.16	345.08	11.65	-38.7	-39.8	22.4	0.00e+00	92	31	0	989855744	50	6248
2026-01-17 21:14:53.20	344.49	11.42	-38.4	-39.4	22.7	0.00e+00	19	31	0	997195776	50	5981
2026-01-17 21:14:57.23	343.91	11.18	-38.5	-39.5	22.6	0.00e+00	62	31	0	1004535808	50	6091
2026-01-17 21:15:01.27	343.34	10.95	-38.5	-39.5	22.6	0.00e+00	66	31	0	1011875840	50	6072
2026-01-17 21:15:05.31	342.78	10.71	-38.0	-38.9	23.0	0.00e+00	92	31	0	1019215872	50	5683
2026-01-17 21:15:09.35	342.22	10.48	-38.3	-39.3	22.5	0.00e+00	1	31	0	1027604480	50	5928
2026-01-17 21:15:13.39	341.68	10.24	-38.3	-39.3	22.7	0.00e+00	0	31	0	1034944512	50	5900
2026-01-17 21:15:17.43	341.15	10.00	-38.3	-39.3	22.7	0.00e+00	21	31	0	1042284544	50	5929
2026-01-17 21:15:21.47	340.62	9.76	-38.5	-39.6	22.5	0.00e+00	91	31	0	1049624576	50	6104
2026-01-17 21:15:25.50	340.10	9.53	-38.6	-39.7	22.3	0.00e+00	0	31	0	1058013184	50	6204
2026-01-17 21:15:29.54	339.60	9.29	-39.2	-40.3	21.8	0.00e+00	0	31	0	1065353216	50	6663
2026-01-17 21:15:33.58	339.10	9.05	-38.8	-39.9	22.0	0.00e+00	0	31	0	1072693248	50	6331
2026-01-17 21:15:37.62	338.60	8.82	-38.8	-39.9	22.0	0.00e+00	91	31	0	1080033280	50	6368
2026-01-17 21:15:41.66	338.12	8.58	-39.0	-40.0	22.0	0.00e+00	62	31	0	1087373312	50	6460
2026-01-17 21:15:45.69	337.65	8.34	-39.2	-40.3	21.7	0.00e+00	66	31	0	1095761920	50	6671
2026-01-17 21:15:49.73	337.18	8.11	-39.6	-40.8	21.2	0.00e+00	0	31	0	1103101952	50	7042
2026-01-17 21:15:53.77	336.72	7.87	-39.6	-40.8	21.1	0.00e+00	92	31	0	1110441984	52	6288
2026-01-17 21:15:57.81	336.26	7.64	-39.8	-41.1	21.0	0.00e+00	4	31	0	1117782016	52	6467
2026-01-17 21:16:01.85	335.82	7.40	-39.9	-41.1	20.7	0.00e+00	0	31	0	1126170624	52	6523
2026-01-17 21:16:05.89	335.38	7.17	-40.1	-41.4	20.5	0.00e+00	2	31	0	1133510656	52	6707
2026-01-17 21:16:09.93	334.95	6.93	-40.2	-41.5	20.5	0.00e+00	92	31	0	1140850688	52	6797
2026-01-17 21:16:13.96	334.53	6.70	-40.2	-41.5	20.3	0.00e+00	3	31	0	1148190720	52	6780
2026-01-17 21:16:18.00	334.11	6.47	-40.5	-41.9	19.7	0.00e+00	5	31	0	1155530752	54	6341
2026-01-17 21:16:22.04	333.70	6.24	-40.8	-42.3	19.2	0.00e+00	74	31	0	1163919360	54	6640
2026-01-17 21:16:26.08	333.30	6.01	-40.8	-42.2	19.3	0.00e+00	64	31	0	1171259392	54	6615
2026-01-17 21:16:30.12	332.90	5.78	-41.0	-42.6	18.6	0.00e+00	0	31	0	1178599424	54	6916
2026-01-17 21:16:34.17	332.51	5.54	-41.4	-43.2	18.2	0.00e+00	0	31	0	1185939456	54	7342
2026-01-17 21:16:38.21	332.13	5.32	-41.5	-43.2	18.3	0.00e+00	92	31	0	1194328064	56	6561
2026-01-17 21:16:42.25	331.75	5.09	-41.3	-42.9	18.7	0.00e+00	16	31	0	1201668096	56	6343
2026-01-17 21:16:46.29	331.38	4.86	-41.6	-43.2	18.4	0.00e+00	65	31	0	1209008128	56	6603
2026-01-17 21:16:50.33	331.01	4.63	-42.0	-43.8	18.0	0.00e+00	2	31	0	1216348160	56	7047
2026-01-17 21:16:54.37	330.65	4.41	-41.6	-43.4	18.3	0.00e+00	92	31	0	1224736768	56	6708
2026-01-17 21:16:58.41	330.30	4.18	-41.6	-43.4	18.2	0.00e+00	2	31	0	1232076800	56	6715
2026-01-17 21:17:02.45	329.95	3.96	-41.6	-43.4	18.2	0.00e+00	17	31	0	1239416832	56	6701
2026-01-17 21:17:06.49	329.61	3.74	-41.8	-43.6	17.8	0.00e+00	0	31	0	1246756864	56	6927
2026-01-17 21:17:10.53	329.27	3.51	-42.1	-44.1	17.3	0.00e+00	90	31	0	1254096896	56	7285
2026-01-17 21:17:14.57	328.94	3.29	-42.3	-44.5	16.8	0.00e+00	2	31	0	1262485504	56	7623
2026-01-17 21:17:18.61	328.61	3.07	-42.5	-44.9	16.2	0.00e+00	0	31	0	1269825536	56	7967
2026-01-17 21:17:22.65	328.29	2.85	-48.6	-63.8	3.6	1.51e+00	0	31	104	1271922688	60	55787
2026-01-17 21:17:26.69	327.97	2.63	-48.9	-64.1	3.6	1.51e+00	0	31	104	1271922688	60	58015
2026-01-17 21:17:30.73	327.66	2.41	-48.2	-63.9	3.6	1.51e+00	0	31	104	1271922688	60	56847
2026-01-17 21:17:34.77	327.35	2.20	-48.8	-64.0	3.6	1.51e+00	0	31	104	1271922688	60	57039
2026-01-17 21:17:38.81	327.05	1.98	-48.8	-64.0	3.6	1.51e+00	0	31	104	1271922688	60	57231
2026-01-17 21:17:42.85	326.75	1.76	-48.8	-64.0	3.6	1.51e+00	0	31	104	1271922688	60	57313
2026-01-17 21:17:46.89	326.46	1.55	-48.9	-64.0	3.6	1.51e+00	0	31	104	1271922688	60	57515
2026-01-17 21:17:50.93	326.17	1.34	-48.8	-63.9	3.6	1.51e+00	0	31	104	1271922688	60	56950
2026-01-17 21:17:54.97	325.89	1.12	-48.8	-63.9	3.6	1.51e+00	0	31	104	1271922688	60	56951
2026-01-17 21:17:59.01	325.61	0.91	-48.9	-64.0	3.6	1.51e+00	0	31	104	1271922688	60	57604
2026-01-17 21:18:03.05	325.33	0.70	-48.9	-64.0	3.6	1.51e+00	0	31	104	1271922688	60	57545
2026-01-17 21:18:07.09	325.06	0.49	-48.8	-64.0	3.6	1.51e+00	0	31	104	1271922688	60	57098
2026-01-17 21:18:11.13	324.79	0.28	-48.9	-64.0	3.6	1.51e+00	0	31	104	1271922688	60	57453
2026-01-17 21:18:15.17	324.53	0.07	-49.1	-64.2	3.6	1.51e+00	0	31	104	1271922688	60	58939

#Closed at: 2026-01-17 21:18:19
#Recorded file [1271 MB]: D:/lorett/data/35029_260118_090503.dat