passes_logs/2026/01/17/R4.6S_Anadyr/R4.6S_Anadyr__20260117_154720_SUOMI_NPP_rec.log

#Pass ID: 20260117_154720_SUOMI NPP
#Satellite: SUOMI NPP
#Configuration: NPP
#almurnet v.1.7.20251203
#Start time: 2026-01-17 15:47:22

#Version: 2.2.20231116
#Station: R4.6S_Anadyr
#Location: 177.4865 lon 64.73178 lat
#TLE: 1 37849U 11061A   26016.58419598  .00000058  00000+0  48257-4 0  9996
#TLE: 2 37849  98.7812 318.6192 0002422  60.8544 299.2874 14.19525580736934

#Time	Az	El	Level	Level2	SNR	BER	BlckErr	Temp	State	Recorded	gain1	gain2
2026-01-17 15:47:22.27	23.19	0.11	-48.5	-61.0	3.4	1.52e+00	0	25	0	0	60	39488
2026-01-17 15:47:26.31	23.10	0.35	-48.7	-63.9	3.6	1.51e+00	0	27	104	0	60	56436
2026-01-17 15:47:30.35	23.01	0.59	-48.7	-63.9	3.6	1.51e+00	0	27	104	0	60	56471
2026-01-17 15:47:34.39	22.92	0.84	-48.3	-63.4	3.6	1.51e+00	0	27	104	0	60	53726
2026-01-17 15:47:38.43	22.82	1.08	-47.3	-62.5	3.6	1.51e+00	0	27	104	0	60	47928
2026-01-17 15:47:42.48	22.72	1.33	-47.1	-62.2	3.6	1.51e+00	0	27	104	0	60	46375
2026-01-17 15:47:46.52	22.62	1.58	-47.1	-62.3	3.6	1.51e+00	0	27	104	0	60	46843
2026-01-17 15:47:50.56	22.52	1.83	-47.1	-61.9	3.6	1.51e+00	0	27	104	0	60	44829
2026-01-17 15:47:54.60	22.41	2.08	-47.1	-62.2	3.6	1.51e+00	0	27	104	0	60	46567
2026-01-17 15:47:58.64	22.31	2.33	-47.1	-62.2	3.6	1.51e+00	0	27	104	0	60	46412
2026-01-17 15:48:02.68	22.20	2.59	-47.0	-61.3	3.6	1.51e+00	0	27	104	0	60	41895
2026-01-17 15:48:06.72	22.09	2.85	-47.0	-61.3	3.6	1.51e+00	0	27	104	0	60	41784
2026-01-17 15:48:10.76	21.98	3.11	-46.7	-56.0	4.9	1.34e+00	0	27	0	0	60	22811
2026-01-17 15:48:14.81	21.86	3.38	-44.3	-47.8	13.4	3.13e-04	58	27	0	7340032	60	8884
2026-01-17 15:48:18.85	21.74	3.64	-43.1	-45.6	15.4	0.00e+00	0	27	0	15728640	60	6905
2026-01-17 15:48:22.89	21.62	3.91	-46.8	-57.1	3.6	3.56e-02	3	28	0	23068672	60	25937
2026-01-17 15:48:26.93	21.50	4.18	-40.0	-41.4	19.8	0.00e+00	0	27	0	24117248	54	6023
2026-01-17 15:48:30.97	21.37	4.46	-39.4	-40.6	20.4	0.00e+00	70	27	0	31457280	52	6172
2026-01-17 15:48:35.01	21.25	4.74	-39.6	-40.8	20.2	0.00e+00	0	28	0	38797312	52	6314
2026-01-17 15:48:39.05	21.12	5.01	-39.5	-40.7	20.5	0.00e+00	0	27	0	47185920	52	6232
2026-01-17 15:48:43.09	20.98	5.30	-39.2	-40.4	20.8	0.00e+00	0	28	0	54525952	50	6729
2026-01-17 15:48:47.12	20.85	5.58	-38.9	-40.1	21.1	0.00e+00	0	28	0	61865984	50	6480
2026-01-17 15:48:51.16	20.71	5.87	-38.9	-40.1	21.1	0.00e+00	0	28	0	69206016	50	6496
2026-01-17 15:48:55.19	20.56	6.16	-38.6	-39.7	21.4	0.00e+00	11	28	0	76546048	50	6182
2026-01-17 15:48:59.24	20.42	6.45	-38.3	-39.4	21.7	0.00e+00	90	28	0	84934656	50	5988
2026-01-17 15:49:03.28	20.27	6.75	-38.8	-39.9	21.2	0.00e+00	0	28	0	92274688	50	6387
2026-01-17 15:49:07.32	20.11	7.05	-38.5	-39.5	21.7	0.00e+00	0	28	0	99614720	50	6101
2026-01-17 15:49:11.36	19.96	7.36	-38.6	-39.7	21.7	0.00e+00	9	28	0	106954752	50	6193
2026-01-17 15:49:15.40	19.80	7.66	-38.7	-39.8	21.3	0.00e+00	92	28	0	115343360	50	6294
2026-01-17 15:49:19.44	19.63	7.97	-38.4	-39.5	21.5	0.00e+00	0	28	0	122683392	50	6082
2026-01-17 15:49:23.48	19.47	8.29	-38.4	-39.5	21.6	0.00e+00	0	28	0	130023424	50	6091
2026-01-17 15:49:27.51	19.29	8.61	-38.5	-39.6	21.6	0.00e+00	4	28	0	137363456	50	6136
2026-01-17 15:49:31.55	19.12	8.93	-38.3	-39.4	21.8	0.00e+00	0	28	0	144703488	50	6015
2026-01-17 15:49:35.59	18.94	9.25	-38.4	-39.5	21.9	0.00e+00	0	28	0	153092096	50	6043
2026-01-17 15:49:39.63	18.75	9.58	-38.3	-39.3	22.0	0.00e+00	0	28	0	160432128	50	5956
2026-01-17 15:49:43.67	18.56	9.92	-38.1	-39.1	22.3	0.00e+00	6	28	0	167772160	50	5788
2026-01-17 15:49:47.71	18.37	10.26	-38.0	-39.0	22.4	0.00e+00	0	28	0	175112192	48	6427
2026-01-17 15:49:51.75	18.17	10.60	-37.8	-38.8	22.5	0.00e+00	0	28	0	183500800	48	6295
2026-01-17 15:49:55.79	17.97	10.95	-37.6	-38.6	22.7	0.00e+00	0	28	0	190840832	48	6124
2026-01-17 15:49:59.83	17.76	11.30	-37.3	-38.3	23.0	0.00e+00	91	28	0	198180864	48	5917
2026-01-17 15:50:03.86	17.54	11.65	-37.7	-38.7	22.6	0.00e+00	0	28	0	205520896	48	6190
2026-01-17 15:50:07.90	17.32	12.01	-37.4	-38.4	23.0	0.00e+00	0	28	0	212860928	48	5984
2026-01-17 15:50:11.94	17.09	12.38	-37.3	-38.2	23.0	0.00e+00	12	28	0	221249536	48	5866
2026-01-17 15:50:15.97	16.86	12.75	-37.4	-38.3	23.0	0.00e+00	71	28	0	228589568	48	5964
2026-01-17 15:50:20.01	16.62	13.13	-37.3	-38.2	23.1	0.00e+00	0	28	0	235929600	48	5855
2026-01-17 15:50:24.05	16.38	13.51	-37.5	-38.4	23.0	0.00e+00	0	28	0	243269632	48	6031
2026-01-17 15:50:28.10	16.12	13.89	-37.3	-38.2	23.1	0.00e+00	0	28	0	251658240	48	5875
2026-01-17 15:50:32.13	15.86	14.29	-37.3	-38.2	23.2	0.00e+00	16	28	0	258998272	48	5879
2026-01-17 15:50:36.17	15.60	14.69	-37.1	-38.0	23.3	0.00e+00	14	28	0	266338304	48	5748
2026-01-17 15:50:40.21	15.32	15.09	-37.4	-38.3	23.3	0.00e+00	0	28	0	273678336	48	5936
2026-01-17 15:50:44.25	15.04	15.50	-37.1	-38.0	23.4	0.00e+00	91	28	0	281018368	48	5714
2026-01-17 15:50:48.29	14.75	15.92	-37.4	-38.3	23.2	0.00e+00	0	28	0	289406976	48	5933
2026-01-17 15:50:52.33	14.45	16.34	-37.2	-38.1	23.3	0.00e+00	0	28	0	296747008	48	5799
2026-01-17 15:50:56.37	14.14	16.77	-37.3	-38.3	23.1	0.00e+00	0	28	0	304087040	48	5903
2026-01-17 15:51:00.41	13.82	17.21	-37.7	-38.6	23.0	0.00e+00	79	28	0	311427072	48	6166
2026-01-17 15:51:04.45	13.49	17.65	-37.4	-38.3	23.2	0.00e+00	0	28	0	319815680	48	5951
2026-01-17 15:51:08.49	13.15	18.10	-37.5	-38.4	23.2	0.00e+00	0	28	0	327155712	48	5997
2026-01-17 15:51:12.52	12.80	18.56	-37.2	-38.2	23.4	0.00e+00	73	28	0	334495744	48	5830
2026-01-17 15:51:16.56	12.44	19.02	-37.5	-38.4	23.1	0.00e+00	0	28	0	341835776	48	6008
2026-01-17 15:51:20.60	12.07	19.50	-38.0	-39.0	22.7	0.00e+00	0	28	0	349175808	48	6424
2026-01-17 15:51:24.64	11.68	19.98	-38.3	-39.4	22.4	0.00e+00	0	28	0	357564416	48	6695
2026-01-17 15:51:28.68	11.28	20.47	-38.1	-39.1	22.6	0.00e+00	63	28	0	364904448	48	6492
2026-01-17 15:51:32.72	10.87	20.96	-38.2	-39.2	22.5	0.00e+00	0	28	0	372244480	48	6598
2026-01-17 15:51:36.76	10.45	21.47	-38.1	-39.1	22.6	0.00e+00	0	28	0	379584512	48	6534
2026-01-17 15:51:40.80	10.01	21.98	-38.2	-39.2	22.8	0.00e+00	0	28	0	387973120	48	6551
2026-01-17 15:51:44.84	9.55	22.50	-38.0	-39.0	22.9	0.00e+00	92	28	0	395313152	48	6395
2026-01-17 15:51:48.88	9.08	23.03	-38.2	-39.2	22.6	0.00e+00	0	28	0	402653184	48	6552
2026-01-17 15:51:52.92	8.59	23.57	-38.6	-39.6	22.4	0.00e+00	0	28	0	409993216	48	6864
2026-01-17 15:51:56.96	8.09	24.12	-39.2	-40.3	22.0	0.00e+00	34	28	0	417333248	50	6678
2026-01-17 15:52:01.00	7.56	24.68	-38.8	-39.8	22.1	0.00e+00	37	28	0	425721856	50	6269
2026-01-17 15:52:05.05	7.01	25.25	-38.9	-39.9	22.0	0.00e+00	0	28	0	433061888	50	6378
2026-01-17 15:52:09.08	6.45	25.83	-39.7	-40.9	21.2	0.00e+00	0	28	0	440401920	52	6390
2026-01-17 15:52:13.12	5.86	26.41	-38.8	-39.9	22.2	0.00e+00	0	28	0	447741952	52	5655
2026-01-17 15:52:17.16	5.25	27.01	-38.2	-39.2	22.7	0.00e+00	0	28	0	456130560	50	5861
2026-01-17 15:52:21.20	4.62	27.61	-37.7	-38.6	23.1	0.00e+00	0	28	0	463470592	48	6147
2026-01-17 15:52:25.24	3.96	28.23	-38.6	-39.7	22.3	0.00e+00	0	28	0	470810624	50	6184
2026-01-17 15:52:29.28	3.28	28.85	-38.2	-39.2	22.5	0.00e+00	91	28	0	478150656	50	5867
2026-01-17 15:52:33.32	2.56	29.48	-39.0	-40.1	21.9	0.00e+00	0	28	0	485490688	50	6534
2026-01-17 15:52:37.36	1.82	30.13	-39.1	-40.2	21.9	0.00e+00	0	28	0	493879296	50	6557
2026-01-17 15:52:41.40	1.05	30.78	-39.9	-41.1	21.2	0.00e+00	16	28	0	501219328	52	6527
2026-01-17 15:52:45.44	0.24	31.44	-40.4	-41.8	20.4	0.00e+00	1	28	0	508559360	54	6261
2026-01-17 15:52:49.47	359.40	32.10	-39.5	-40.6	21.8	0.00e+00	0	28	0	515899392	52	6153
2026-01-17 15:52:53.51	358.53	32.78	-40.6	-42.0	19.7	0.00e+00	0	28	0	524288000	52	7185
2026-01-17 15:52:57.55	357.61	33.46	-40.4	-41.7	20.7	0.00e+00	73	28	0	531628032	54	6203
2026-01-17 15:53:01.59	356.66	34.15	-39.7	-40.8	21.4	0.00e+00	0	28	0	538968064	52	6289
2026-01-17 15:53:05.63	355.66	34.85	-40.4	-41.8	20.6	0.00e+00	0	28	0	546308096	52	7020
2026-01-17 15:53:09.67	354.62	35.55	-40.6	-41.9	20.5	0.00e+00	0	28	0	553648128	54	6356
2026-01-17 15:53:13.71	353.53	36.25	-40.5	-41.8	20.4	0.00e+00	55	28	0	562036736	54	6312
2026-01-17 15:53:17.75	352.40	36.96	-40.3	-41.5	20.7	0.00e+00	0	28	0	569376768	54	6097
2026-01-17 15:53:21.79	351.21	37.67	-39.8	-41.0	20.8	0.00e+00	0	28	0	576716800	54	5741
2026-01-17 15:53:25.83	349.97	38.38	-39.1	-40.2	21.7	0.00e+00	0	28	0	584056832	50	6577
2026-01-17 15:53:29.87	348.67	39.09	-40.0	-41.2	21.0	0.00e+00	91	28	0	592445440	52	6600
2026-01-17 15:53:33.91	347.32	39.80	-38.7	-39.7	22.4	0.00e+00	0	28	0	599785472	50	6229
2026-01-17 15:53:37.95	345.90	40.50	-39.5	-40.7	21.4	0.00e+00	0	28	0	607125504	50	6976
2026-01-17 15:53:41.99	344.42	41.19	-40.2	-41.5	20.8	0.00e+00	63	28	0	614465536	52	6795
2026-01-17 15:53:46.03	342.88	41.88	-40.9	-42.4	20.0	0.00e+00	0	28	0	621805568	54	6724
2026-01-17 15:53:50.07	341.27	42.55	-39.2	-40.3	22.0	0.00e+00	0	28	0	630194176	52	5935
2026-01-17 15:53:54.11	339.59	43.21	-40.7	-42.0	20.0	0.00e+00	0	28	0	637534208	52	7212
2026-01-17 15:53:58.15	337.84	43.85	-41.5	-43.2	19.3	0.00e+00	92	28	0	644874240	54	7364
2026-01-17 15:54:02.19	336.02	44.47	-38.7	-39.8	22.2	0.00e+00	0	28	0	652214272	50	6313
2026-01-17 15:54:06.23	334.13	45.06	-37.3	-38.2	23.6	0.00e+00	0	28	0	660602880	48	5878
2026-01-17 15:54:10.27	332.17	45.63	-38.9	-40.0	22.2	0.00e+00	0	28	0	667942912	50	6444
2026-01-17 15:54:14.30	330.14	46.17	-38.3	-39.3	22.5	0.00e+00	52	28	0	675282944	50	5915
2026-01-17 15:54:18.34	328.04	46.67	-39.1	-40.2	21.9	0.00e+00	0	28	0	682622976	50	6559
2026-01-17 15:54:22.38	325.88	47.13	-38.0	-39.0	22.8	0.00e+00	0	28	0	689963008	48	6397
2026-01-17 15:54:26.42	323.65	47.55	-41.3	-42.9	19.3	0.00e+00	18	28	0	698351616	54	7152
2026-01-17 15:54:30.46	321.36	47.93	-42.0	-43.9	18.8	0.00e+00	0	28	0	705691648	58	6339
2026-01-17 15:54:34.50	319.02	48.26	-41.0	-42.4	19.9	0.00e+00	0	28	0	713031680	56	6021
2026-01-17 15:54:38.54	316.63	48.54	-39.6	-40.8	21.5	0.00e+00	0	28	0	720371712	52	6252
2026-01-17 15:54:42.58	314.20	48.76	-39.5	-40.7	21.7	0.00e+00	92	28	0	728760320	52	6183
2026-01-17 15:54:46.61	311.75	48.93	-38.5	-39.6	22.1	0.00e+00	0	28	0	736100352	48	6874
2026-01-17 15:54:50.65	309.26	49.05	-36.3	-37.1	24.3	0.00e+00	0	28	0	743440384	46	5827
2026-01-17 15:54:54.69	306.77	49.10	-38.1	-39.2	22.7	0.00e+00	0	28	0	750780416	48	6553
2026-01-17 15:54:58.73	304.27	49.10	-39.3	-40.5	21.5	0.00e+00	92	28	0	759169024	50	6811
2026-01-17 15:55:02.77	301.77	49.03	-40.1	-41.6	20.8	0.00e+00	0	28	0	766509056	52	6875
2026-01-17 15:55:06.81	299.29	48.91	-37.8	-38.8	23.1	0.00e+00	0	28	0	773849088	48	6248
2026-01-17 15:55:10.85	296.83	48.74	-37.4	-38.3	23.2	0.00e+00	17	28	0	781189120	48	5928
2026-01-17 15:55:14.89	294.41	48.50	-39.7	-40.9	21.5	0.00e+00	81	28	0	788529152	50	7158
2026-01-17 15:55:18.93	292.03	48.22	-39.5	-40.7	21.4	0.00e+00	0	28	0	796917760	52	6186
2026-01-17 15:55:22.97	289.69	47.88	-39.9	-41.1	21.1	0.00e+00	0	28	0	804257792	52	6490
2026-01-17 15:55:27.01	287.41	47.50	-38.8	-39.9	22.0	0.00e+00	92	28	0	811597824	50	6333
2026-01-17 15:55:31.05	285.18	47.07	-40.2	-41.4	20.7	0.00e+00	0	28	0	818937856	52	6761
2026-01-17 15:55:35.09	283.02	46.60	-39.4	-40.5	21.7	0.00e+00	0	28	0	827326464	52	6052
2026-01-17 15:55:39.13	280.93	46.09	-39.3	-40.5	21.8	0.00e+00	0	28	0	834666496	50	6773
2026-01-17 15:55:43.17	278.90	45.55	-39.5	-40.6	21.6	0.00e+00	78	28	0	842006528	52	6173
2026-01-17 15:55:47.21	276.95	44.98	-39.2	-40.4	22.0	0.00e+00	19	28	0	849346560	52	5988
2026-01-17 15:55:51.24	275.07	44.38	-38.1	-39.0	22.9	0.00e+00	0	28	0	856686592	48	6463
2026-01-17 15:55:55.28	273.26	43.75	-38.4	-39.5	22.6	0.00e+00	0	28	0	865075200	48	6807
2026-01-17 15:55:59.32	271.51	43.11	-37.0	-37.8	23.8	0.00e+00	91	28	0	872415232	46	6312
2026-01-17 15:56:03.36	269.84	42.45	-37.9	-38.8	23.1	0.00e+00	0	28	0	879755264	48	6288
2026-01-17 15:56:07.40	268.24	41.77	-37.7	-38.6	23.4	0.00e+00	0	28	0	887095296	50	5479
2026-01-17 15:56:11.43	266.71	41.08	-37.4	-38.3	23.4	0.00e+00	8	28	0	895483904	46	6638
2026-01-17 15:56:15.47	265.23	40.39	-38.0	-39.0	22.9	0.00e+00	50	28	0	902823936	48	6444
2026-01-17 15:56:19.51	263.82	39.68	-40.2	-41.5	20.8	0.00e+00	0	28	0	910163968	52	6789
2026-01-17 15:56:23.55	262.47	38.97	-39.4	-40.5	21.2	0.00e+00	0	28	0	917504000	52	6095
2026-01-17 15:56:27.59	261.18	38.26	-39.3	-40.4	21.7	0.00e+00	38	28	0	924844032	52	5996
2026-01-17 15:56:31.63	259.95	37.55	-40.3	-41.6	20.8	0.00e+00	0	28	0	933232640	52	6866
2026-01-17 15:56:35.67	258.76	36.84	-40.1	-41.4	20.9	0.00e+00	0	28	0	940572672	54	6004
2026-01-17 15:56:39.71	257.63	36.13	-42.3	-44.1	18.4	0.00e+00	0	28	0	947912704	58	6519
2026-01-17 15:56:43.75	256.55	35.42	-43.9	-46.4	16.3	0.00e+00	92	28	0	955252736	60	7584
2026-01-17 15:56:47.79	255.51	34.72	-42.0	-43.6	19.2	0.00e+00	0	28	0	962592768	56	6877
2026-01-17 15:56:51.82	254.52	34.02	-41.4	-42.8	19.8	0.00e+00	0	28	0	970981376	56	6278
2026-01-17 15:56:55.86	253.57	33.33	-39.8	-40.9	21.4	0.00e+00	14	28	0	978321408	52	6365
2026-01-17 15:56:59.90	252.66	32.65	-40.1	-41.3	21.1	0.00e+00	38	28	0	985661440	52	6624
2026-01-17 15:57:03.94	251.78	31.97	-41.6	-43.1	19.3	0.00e+00	0	28	0	993001472	56	6494
2026-01-17 15:57:07.98	250.95	31.30	-41.1	-42.5	19.9	0.00e+00	0	28	0	1001390080	56	6049
2026-01-17 15:57:12.01	250.14	30.64	-39.0	-40.1	22.0	0.00e+00	14	28	0	1008730112	52	5769
2026-01-17 15:57:16.05	249.37	29.99	-41.2	-42.6	19.8	0.00e+00	0	28	0	1016070144	54	6914
2026-01-17 15:57:20.09	248.63	29.35	-39.0	-40.1	22.1	0.00e+00	0	28	0	1023410176	52	5791
2026-01-17 15:57:24.13	247.92	28.72	-37.9	-38.8	23.1	0.00e+00	0	28	0	1030750208	48	6298
2026-01-17 15:57:28.16	247.24	28.09	-41.0	-42.4	20.1	0.00e+00	66	28	0	1039138816	54	6713
2026-01-17 15:57:32.20	246.58	27.48	-39.6	-40.7	21.5	0.00e+00	0	28	0	1046478848	52	6241
2026-01-17 15:57:36.24	245.95	26.87	-39.0	-40.0	22.1	0.00e+00	0	28	0	1053818880	50	6454
2026-01-17 15:57:40.28	245.34	26.28	-39.2	-40.3	21.9	0.00e+00	13	28	0	1061158912	50	6616
2026-01-17 15:57:44.32	244.75	25.69	-38.5	-39.4	22.4	0.00e+00	90	28	0	1069547520	50	6028
2026-01-17 15:57:48.36	244.19	25.11	-39.8	-41.0	21.2	0.00e+00	0	28	0	1076887552	50	7199
2026-01-17 15:57:52.40	243.64	24.54	-40.0	-41.2	21.1	0.00e+00	0	28	0	1084227584	52	6579
2026-01-17 15:57:56.44	243.12	23.99	-39.1	-40.1	22.0	0.00e+00	78	28	0	1091567616	52	5823
2026-01-17 15:58:00.47	242.61	23.44	-39.2	-40.3	21.9	0.00e+00	45	28	0	1098907648	52	5906
2026-01-17 15:58:04.51	242.13	22.90	-39.0	-40.1	22.0	0.00e+00	0	28	0	1107296256	50	6515
2026-01-17 15:58:08.55	241.65	22.37	-39.4	-40.5	21.6	0.00e+00	0	28	0	1114636288	50	6812
2026-01-17 15:58:12.59	241.20	21.84	-38.6	-39.7	22.4	0.00e+00	44	28	0	1121976320	50	6177
2026-01-17 15:58:16.63	240.76	21.33	-39.1	-40.1	21.8	0.00e+00	0	28	0	1129316352	50	6508
2026-01-17 15:58:20.67	240.33	20.82	-41.1	-42.5	19.8	0.00e+00	0	28	0	1137704960	54	6806
2026-01-17 15:58:24.71	239.92	20.33	-40.8	-42.2	20.2	0.00e+00	0	28	0	1145044992	54	6557
2026-01-17 15:58:28.75	239.52	19.84	-40.3	-41.6	20.8	0.00e+00	92	28	0	1152385024	54	6116
2026-01-17 15:58:32.78	239.14	19.36	-40.0	-41.3	21.0	0.00e+00	0	28	0	1159725056	54	5919
2026-01-17 15:58:36.82	238.76	18.89	-39.9	-41.1	21.1	0.00e+00	0	28	0	1167065088	54	5799
2026-01-17 15:58:40.86	238.40	18.42	-40.1	-41.4	20.9	0.00e+00	26	28	0	1175453696	54	5983
2026-01-17 15:58:44.90	238.05	17.96	-40.0	-41.3	20.9	0.00e+00	0	28	0	1182793728	54	5910
2026-01-17 15:58:48.94	237.71	17.51	-39.6	-40.8	21.3	0.00e+00	0	28	0	1190133760	52	6277
2026-01-17 15:58:52.98	237.38	17.07	-40.0	-41.2	20.9	0.00e+00	0	28	0	1197473792	52	6602
2026-01-17 15:58:57.01	237.06	16.63	-40.3	-41.6	20.6	0.00e+00	92	28	0	1205862400	52	6878
2026-01-17 15:59:01.05	236.75	16.20	-40.1	-41.4	20.7	0.00e+00	0	28	0	1213202432	52	6718
2026-01-17 15:59:05.10	236.45	15.78	-39.8	-41.0	21.1	0.00e+00	0	28	0	1220542464	52	6401
2026-01-17 15:59:09.14	236.16	15.36	-39.4	-40.5	21.4	0.00e+00	0	28	0	1227882496	52	6072
2026-01-17 15:59:13.18	235.87	14.95	-39.3	-40.4	21.6	0.00e+00	73	28	0	1235222528	52	6008
2026-01-17 15:59:17.22	235.60	14.55	-39.7	-40.9	21.1	0.00e+00	0	28	0	1243611136	52	6339
2026-01-17 15:59:21.26	235.33	14.15	-40.1	-41.4	20.6	0.00e+00	0	28	0	1250951168	52	6698
2026-01-17 15:59:25.30	235.07	13.75	-40.3	-41.6	20.5	0.00e+00	51	28	0	1258291200	52	6880
2026-01-17 15:59:29.34	234.81	13.37	-40.7	-42.0	20.0	0.00e+00	92	28	0	1265631232	52	7199
2026-01-17 15:59:33.37	234.56	12.99	-40.8	-42.2	19.7	0.00e+00	0	28	0	1274019840	54	6601
2026-01-17 15:59:37.41	234.32	12.61	-41.5	-43.1	18.9	0.00e+00	0	28	0	1281359872	54	7281
2026-01-17 15:59:41.45	234.09	12.24	-41.9	-43.6	18.5	0.00e+00	0	28	0	1288699904	56	6854
2026-01-17 15:59:45.49	233.86	11.87	-42.4	-44.2	17.8	0.00e+00	0	28	0	1296039936	56	7349
2026-01-17 15:59:49.53	233.64	11.51	-42.8	-44.8	17.4	0.00e+00	0	28	0	1303379968	58	7037
2026-01-17 15:59:53.57	233.42	11.16	-42.8	-44.8	17.1	0.00e+00	0	28	0	1311768576	58	7079
2026-01-17 15:59:57.61	233.21	10.80	-43.1	-45.3	16.8	0.00e+00	91	28	0	1319108608	58	7439
2026-01-17 16:00:01.65	233.00	10.46	-43.2	-45.4	16.6	0.00e+00	0	28	0	1326448640	58	7561
2026-01-17 16:00:05.69	232.80	10.12	-43.2	-45.5	16.4	0.00e+00	0	28	0	1333788672	58	7598
2026-01-17 16:00:09.73	232.61	9.78	-43.6	-46.1	15.9	0.00e+00	3	28	0	1342177280	58	8154
2026-01-17 16:00:13.77	232.41	9.44	-43.6	-46.0	15.9	0.00e+00	92	28	0	1349517312	58	8057
2026-01-17 16:00:17.81	232.23	9.11	-43.9	-46.6	15.3	0.00e+00	0	28	0	1356857344	60	7699
2026-01-17 16:00:21.85	232.04	8.79	-44.4	-47.4	14.5	0.00e+00	0	28	0	1364197376	60	8445
2026-01-17 16:00:25.89	231.87	8.47	-44.7	-48.0	13.8	3.00e-06	92	28	0	1371537408	60	9055
2026-01-17 16:00:29.93	231.69	8.15	-45.2	-49.0	12.7	4.73e-05	0	28	0	1379926016	60	10132
2026-01-17 16:00:33.97	231.52	7.83	-45.4	-49.5	12.2	2.05e-04	0	28	0	1387266048	60	10734
2026-01-17 16:00:38.01	231.35	7.52	-45.8	-50.3	10.9	1.29e-03	0	28	0	1394606080	60	11899
2026-01-17 16:00:42.05	231.19	7.21	-46.0	-51.0	10.5	4.48e-03	85	28	0	1401946112	60	12767
2026-01-17 16:00:46.09	231.03	6.91	-46.0	-51.2	10.0	5.84e-03	0	28	0	1410334720	60	13112
2026-01-17 16:00:50.13	230.88	6.61	-46.0	-51.5	9.6	9.88e-03	0	28	0	1417674752	60	13596
2026-01-17 16:00:54.17	230.73	6.31	-46.0	-51.6	9.1	1.54e-02	0	28	0	1425014784	60	13788
2026-01-17 16:00:58.21	230.58	6.02	-46.1	-51.9	8.8	3.16e-02	92	28	0	1432354816	60	14209
2026-01-17 16:01:02.25	230.43	5.73	-45.9	-51.5	9.1	3.34e-02	30	28	0	1439694848	60	13563
2026-01-17 16:01:06.29	230.29	5.44	-46.1	-52.6	8.1	5.91e-02	0	28	0	1448083456	60	15456
2026-01-17 16:01:10.34	230.15	5.15	-46.0	-52.7	7.4	9.16e-02	0	28	0	1455423488	60	15583
2026-01-17 16:01:14.37	230.01	4.87	-46.0	-52.8	7.2	9.03e-02	37	28	0	1462763520	60	15807
2026-01-17 16:01:18.41	229.88	4.59	-45.9	-52.6	7.2	1.16e-01	0	28	0	1470103552	60	15423
2026-01-17 16:01:22.45	229.75	4.32	-46.0	-53.4	6.4	9.21e-02	0	28	0	1478492160	60	16926
2026-01-17 16:01:26.49	229.62	4.04	-45.9	-53.4	6.2	2.00e-01	21	28	0	1485832192	60	16879
2026-01-17 16:01:30.53	229.49	3.77	-45.8	-53.3	6.4	2.87e-01	0	28	0	1493172224	60	16708
2026-01-17 16:01:34.57	229.37	3.50	-45.8	-54.1	5.4	3.25e-01	0	28	0	1500512256	60	18256
2026-01-17 16:01:38.61	229.25	3.23	-45.8	-53.9	5.5	3.84e-01	0	28	0	1507852288	60	17852
2026-01-17 16:01:42.65	229.13	2.97	-46.6	-61.7	3.6	3.98e-01	0	28	104	1515192320	60	44105
2026-01-17 16:01:46.69	229.02	2.71	-48.7	-63.8	3.6	1.51e+00	0	28	104	1515192320	60	55890
2026-01-17 16:01:50.73	228.90	2.45	-48.7	-63.9	3.6	1.51e+00	0	28	104	1515192320	60	56885
2026-01-17 16:01:54.77	228.79	2.19	-48.6	-63.8	3.6	1.51e+00	0	28	104	1515192320	60	55965
2026-01-17 16:01:58.82	228.68	1.94	-48.5	-63.8	3.6	1.51e+00	0	28	104	1515192320	60	55670
2026-01-17 16:02:02.86	228.57	1.68	-48.6	-63.8	3.6	1.51e+00	0	28	104	1515192320	60	56024
2026-01-17 16:02:06.90	228.47	1.43	-48.6	-63.8	3.6	1.51e+00	0	28	104	1515192320	60	55774
2026-01-17 16:02:10.94	228.36	1.19	-48.5	-63.7	3.6	1.51e+00	0	28	104	1515192320	60	55619
2026-01-17 16:02:14.98	228.26	0.94	-48.6	-63.8	3.6	1.51e+00	0	28	104	1515192320	60	55822
2026-01-17 16:02:19.03	228.16	0.69	-48.5	-63.8	3.6	1.51e+00	0	28	104	1515192320	60	55897
2026-01-17 16:02:23.07	228.06	0.45	-48.5	-63.8	3.6	1.51e+00	0	28	104	1515192320	60	55753
2026-01-17 16:02:27.11	227.97	0.21	-48.5	-63.8	3.6	1.51e+00	0	28	104	1515192320	60	55828
2026-01-17 16:02:31.15	227.87	-0.03	-48.5	-63.7	3.6	1.51e+00	0	28	104	1515192320	60	55569

#Closed at: 2026-01-17 16:02:32
#Recorded file [1515 MB]: D:/lorett/data/35029_260118_034722.dat