passes_logs/2026/01/17/R4.6S_Anadyr/R4.6S_Anadyr__20260117_124709_NOAA_20_JPSS-1_rec.log

#Pass ID: 20260117_124709_NOAA 20 (JPSS-1)
#Satellite: NOAA 20 (JPSS-1)
#Configuration: NOAA 20
#almurnet v.1.7.20251203
#Start time: 2026-01-17 12:47:11

#Version: 2.2.20231116
#Station: R4.6S_Anadyr
#Location: 177.4865 lon 64.73178 lat
#TLE: 1 43013U 17073A   26016.52825843  .00000039  00000+0  39346-4 0  9991
#TLE: 2 43013  98.7637 317.4515 0001446  37.2648 322.8628 14.19536276422951

#Time	Az	El	Level	Level2	SNR	BER	BlckErr	Temp	State	Recorded	gain1	gain2
2026-01-17 12:47:11.03	18.83	0.09	-48.5	-63.5	3.5	1.51e+00	0	25	0	0	60	54008
2026-01-17 12:47:15.07	19.08	0.30	-48.6	-63.8	3.6	1.51e+00	0	26	104	0	60	56002
2026-01-17 12:47:19.11	19.34	0.51	-48.4	-63.7	3.6	1.51e+00	0	26	104	0	60	55284
2026-01-17 12:47:23.15	19.60	0.72	-48.1	-63.3	3.6	1.51e+00	0	26	104	0	60	52704
2026-01-17 12:47:27.19	19.86	0.94	-47.0	-62.1	3.5	1.51e+00	0	26	104	0	60	45973
2026-01-17 12:47:31.23	20.12	1.15	-46.9	-61.9	3.6	1.51e+00	0	26	104	0	60	44939
2026-01-17 12:47:35.28	20.39	1.37	-46.9	-62.0	3.6	1.51e+00	0	26	104	0	60	45605
2026-01-17 12:47:39.31	20.67	1.59	-46.9	-62.0	3.6	1.51e+00	0	26	104	0	60	45458
2026-01-17 12:47:43.36	20.94	1.81	-46.9	-62.0	3.6	1.51e+00	0	27	104	0	60	45249
2026-01-17 12:47:47.39	21.22	2.03	-46.8	-62.0	3.6	1.51e+00	0	26	104	0	60	45266
2026-01-17 12:47:51.43	21.51	2.25	-46.9	-62.0	3.6	1.51e+00	0	26	104	0	60	45381
2026-01-17 12:47:55.48	21.80	2.48	-46.8	-60.3	3.6	1.51e+00	0	27	104	0	60	37505
2026-01-17 12:47:59.52	22.09	2.70	-45.9	-52.0	8.5	1.36e-01	47	27	0	2097152	60	14336
2026-01-17 12:48:03.56	22.38	2.93	-41.7	-43.7	17.3	0.00e+00	0	26	0	9437184	58	6192
2026-01-17 12:48:07.60	22.68	3.15	-42.1	-44.3	16.6	0.00e+00	0	27	0	16777216	56	7477
2026-01-17 12:48:11.64	22.99	3.38	-46.2	-54.8	5.1	1.09e+00	0	27	104	24117248	60	19862
2026-01-17 12:48:15.67	23.30	3.61	-44.2	-47.8	12.9	2.44e-01	93	27	104	25165824	60	8867
2026-01-17 12:48:19.71	23.61	3.84	-43.2	-45.8	15.4	0.00e+00	5	27	0	31457280	60	7062
2026-01-17 12:48:23.75	23.93	4.07	-42.2	-44.2	17.1	0.00e+00	0	27	0	38797312	58	6597
2026-01-17 12:48:27.78	24.25	4.31	-42.3	-44.5	16.9	0.00e+00	0	27	0	47185920	58	6770
2026-01-17 12:48:31.82	24.58	4.54	-42.6	-44.8	16.6	0.00e+00	92	27	0	54525952	58	7059
2026-01-17 12:48:35.85	24.91	4.78	-42.7	-45.0	16.5	0.00e+00	7	27	0	61865984	58	7204
2026-01-17 12:48:39.88	25.25	5.01	-40.9	-42.5	18.9	0.00e+00	7	27	0	69206016	56	6037
2026-01-17 12:48:43.91	25.60	5.25	-40.3	-41.7	19.7	0.00e+00	6	27	0	77594624	54	6221
2026-01-17 12:48:47.95	25.94	5.49	-40.2	-41.6	19.7	0.00e+00	91	27	0	84934656	54	6158
2026-01-17 12:48:51.99	26.30	5.73	-40.2	-41.6	19.8	0.00e+00	53	27	0	92274688	54	6111
2026-01-17 12:48:56.03	26.66	5.97	-40.0	-41.4	20.1	0.00e+00	33	27	0	99614720	54	5998
2026-01-17 12:49:00.06	27.02	6.22	-39.8	-41.1	20.4	0.00e+00	28	27	0	106954752	52	6534
2026-01-17 12:49:04.10	27.40	6.46	-39.9	-41.2	20.4	0.00e+00	91	27	0	115343360	52	6547
2026-01-17 12:49:08.13	27.77	6.71	-40.2	-41.5	20.0	0.00e+00	0	27	0	122683392	52	6836
2026-01-17 12:49:12.17	28.16	6.96	-40.1	-41.4	20.2	0.00e+00	48	27	0	130023424	52	6736
2026-01-17 12:49:16.21	28.55	7.21	-40.2	-41.6	20.1	0.00e+00	46	27	0	137363456	52	6859
2026-01-17 12:49:20.24	28.94	7.46	-40.0	-41.3	20.3	0.00e+00	92	27	0	144703488	52	6633
2026-01-17 12:49:24.27	29.34	7.71	-39.9	-41.2	20.2	0.00e+00	2	27	0	153092096	52	6557
2026-01-17 12:49:28.30	29.75	7.96	-39.8	-41.1	20.6	0.00e+00	0	27	0	160432128	52	6494
2026-01-17 12:49:32.34	30.17	8.22	-40.1	-41.4	20.3	0.00e+00	0	27	0	167772160	52	6722
2026-01-17 12:49:36.38	30.59	8.47	-39.5	-40.8	21.0	0.00e+00	92	27	0	175112192	52	6249
2026-01-17 12:49:40.42	31.02	8.73	-39.5	-40.7	21.1	0.00e+00	54	27	0	183500800	52	6177
2026-01-17 12:49:44.46	31.46	8.99	-39.4	-40.6	21.2	0.00e+00	0	27	0	190840832	52	6123
2026-01-17 12:49:48.50	31.91	9.25	-39.4	-40.6	21.2	0.00e+00	47	27	0	198180864	52	6113
2026-01-17 12:49:52.53	32.36	9.51	-39.0	-40.2	21.6	0.00e+00	92	27	0	205520896	52	5837
2026-01-17 12:49:56.57	32.82	9.77	-38.7	-39.8	21.9	0.00e+00	55	27	0	212860928	52	5613
2026-01-17 12:50:00.61	33.29	10.04	-38.6	-39.7	21.8	0.00e+00	32	27	0	221249536	50	6218
2026-01-17 12:50:04.65	33.77	10.30	-38.8	-39.9	21.8	0.00e+00	53	27	0	228589568	50	6354
2026-01-17 12:50:08.68	34.25	10.57	-38.6	-39.7	22.1	0.00e+00	63	27	0	235929600	50	6183
2026-01-17 12:50:12.72	34.74	10.83	-38.7	-39.7	22.1	0.00e+00	0	27	0	243269632	50	6235
2026-01-17 12:50:16.76	35.25	11.10	-38.7	-39.8	22.0	0.00e+00	49	27	0	251658240	50	6286
2026-01-17 12:50:20.79	35.76	11.37	-38.6	-39.7	22.1	0.00e+00	92	27	0	258998272	50	6176
2026-01-17 12:50:24.83	36.28	11.64	-38.5	-39.6	22.2	0.00e+00	49	27	0	266338304	50	6104
2026-01-17 12:50:28.87	36.81	11.91	-38.3	-39.3	22.3	0.00e+00	6	27	0	273678336	50	5926
2026-01-17 12:50:32.91	37.35	12.19	-38.3	-39.3	22.4	0.00e+00	6	27	0	281018368	50	5904
2026-01-17 12:50:36.95	37.90	12.46	-38.2	-39.2	22.6	0.00e+00	92	27	0	289406976	50	5847
2026-01-17 12:50:40.99	38.46	12.73	-38.1	-39.1	22.7	0.00e+00	0	27	0	296747008	50	5771
2026-01-17 12:50:45.02	39.02	13.00	-38.2	-39.1	22.7	0.00e+00	54	27	0	304087040	50	5827
2026-01-17 12:50:49.06	39.60	13.28	-38.1	-39.1	22.7	0.00e+00	26	27	0	311427072	50	5784
2026-01-17 12:50:53.10	40.19	13.55	-38.1	-39.1	22.6	0.00e+00	92	27	0	318767104	50	5796
2026-01-17 12:50:57.13	40.79	13.83	-38.2	-39.2	22.7	0.00e+00	0	27	0	327155712	50	5837
2026-01-17 12:51:01.17	41.41	14.10	-38.2	-39.2	22.7	0.00e+00	0	27	0	334495744	50	5895
2026-01-17 12:51:05.21	42.03	14.38	-37.9	-38.8	23.0	0.00e+00	40	27	0	341835776	50	5629
2026-01-17 12:51:09.25	42.66	14.66	-38.3	-39.2	22.7	0.00e+00	92	27	0	349175808	50	5896
2026-01-17 12:51:13.28	43.31	14.93	-38.2	-39.2	22.8	0.00e+00	0	27	0	357564416	50	5852
2026-01-17 12:51:17.32	43.96	15.21	-38.0	-39.0	22.9	0.00e+00	2	27	0	364904448	50	5698
2026-01-17 12:51:21.36	44.63	15.48	-38.2	-39.2	22.7	0.00e+00	56	27	0	372244480	50	5845
2026-01-17 12:51:25.40	45.32	15.76	-38.2	-39.2	22.7	0.00e+00	91	27	0	379584512	50	5862
2026-01-17 12:51:29.43	46.01	16.03	-37.8	-38.7	23.2	0.00e+00	25	27	0	386924544	50	5558
2026-01-17 12:51:33.47	46.71	16.30	-37.9	-38.8	23.1	0.00e+00	30	27	0	395313152	48	6307
2026-01-17 12:51:37.50	47.43	16.57	-37.6	-38.5	23.4	0.00e+00	92	27	0	402653184	48	6101
2026-01-17 12:51:41.54	48.16	16.84	-37.4	-38.3	23.6	0.00e+00	19	27	0	409993216	48	5960
2026-01-17 12:51:45.58	48.90	17.11	-37.3	-38.1	23.7	0.00e+00	0	27	0	417333248	48	5824
2026-01-17 12:51:49.62	49.66	17.38	-37.0	-37.9	23.9	0.00e+00	56	27	0	425721856	48	5658
2026-01-17 12:51:53.66	50.43	17.65	-37.1	-38.0	23.8	0.00e+00	91	27	0	433061888	48	5708
2026-01-17 12:51:57.70	51.22	17.91	-37.5	-38.4	23.7	0.00e+00	25	27	0	440401920	48	6006
2026-01-17 12:52:01.73	52.01	18.17	-37.4	-38.3	23.4	0.00e+00	5	27	0	447741952	48	5935
2026-01-17 12:52:05.77	52.82	18.43	-37.6	-38.5	23.4	0.00e+00	0	27	0	455081984	48	6072
2026-01-17 12:52:09.81	53.64	18.68	-38.5	-39.5	22.4	0.00e+00	91	27	0	463470592	50	6068
2026-01-17 12:52:13.84	54.48	18.93	-39.3	-40.4	21.9	0.00e+00	29	27	0	470810624	50	6750
2026-01-17 12:52:17.88	55.33	19.18	-38.2	-39.2	22.9	0.00e+00	6	27	0	478150656	50	5862
2026-01-17 12:52:21.92	56.19	19.43	-38.8	-39.8	21.6	0.00e+00	0	27	0	485490688	50	6267
2026-01-17 12:52:25.95	57.07	19.67	-39.4	-40.5	21.5	0.00e+00	90	27	0	493879296	50	6835
2026-01-17 12:52:29.99	57.96	19.90	-39.7	-40.8	21.3	0.00e+00	52	27	0	501219328	52	6304
2026-01-17 12:52:34.03	58.87	20.14	-39.4	-40.5	21.7	0.00e+00	29	27	0	508559360	52	6064
2026-01-17 12:52:38.07	59.78	20.36	-39.3	-40.4	21.8	0.00e+00	0	27	0	515899392	52	5978
2026-01-17 12:52:42.10	60.71	20.58	-39.2	-40.3	21.9	0.00e+00	92	27	0	523239424	52	5915
2026-01-17 12:52:46.14	61.66	20.80	-38.3	-39.2	22.9	0.00e+00	0	27	0	531628032	50	5892
2026-01-17 12:52:50.18	62.62	21.01	-38.4	-39.4	22.6	0.00e+00	56	27	0	538968064	50	6001
2026-01-17 12:52:54.21	63.58	21.21	-38.9	-39.9	22.2	0.00e+00	0	27	0	546308096	50	6381
2026-01-17 12:52:58.26	64.57	21.41	-38.7	-39.7	22.4	0.00e+00	92	27	0	553648128	50	6225
2026-01-17 12:53:02.29	65.56	21.60	-38.6	-39.6	22.5	0.00e+00	29	27	0	562036736	50	6143
2026-01-17 12:53:06.33	66.57	21.78	-38.8	-39.8	22.3	0.00e+00	0	27	0	569376768	50	6303
2026-01-17 12:53:10.36	67.58	21.96	-38.4	-39.4	22.8	0.00e+00	59	27	0	576716800	50	6027
2026-01-17 12:53:14.40	68.61	22.12	-38.1	-39.0	23.0	0.00e+00	46	27	0	584056832	50	5755
2026-01-17 12:53:18.44	69.65	22.28	-37.9	-38.8	23.2	0.00e+00	58	27	0	591396864	50	5619
2026-01-17 12:53:22.48	70.70	22.43	-37.9	-38.9	23.0	0.00e+00	0	27	0	599785472	50	5650
2026-01-17 12:53:26.51	71.76	22.57	-38.1	-39.1	23.0	0.00e+00	91	27	0	607125504	50	5790
2026-01-17 12:53:30.55	72.83	22.70	-38.5	-39.5	22.6	0.00e+00	0	27	0	614465536	50	6047
2026-01-17 12:53:34.58	73.90	22.83	-38.7	-39.8	22.4	0.00e+00	50	27	0	621805568	50	6267
2026-01-17 12:53:38.60	74.98	22.94	-38.7	-39.7	22.5	0.00e+00	2	27	0	630194176	50	6212
2026-01-17 12:53:42.64	76.07	23.04	-38.4	-39.4	22.7	0.00e+00	75	27	0	637534208	50	6002
2026-01-17 12:53:46.67	77.17	23.13	-38.1	-39.0	23.1	0.00e+00	5	27	0	644874240	50	5751
2026-01-17 12:53:50.71	78.28	23.21	-37.8	-38.8	23.4	0.00e+00	6	27	0	652214272	48	6268
2026-01-17 12:53:54.75	79.39	23.28	-38.1	-39.1	22.9	0.00e+00	57	27	0	659554304	48	6499
2026-01-17 12:53:58.78	80.50	23.34	-38.2	-39.2	22.9	0.00e+00	90	27	0	667942912	48	6554
2026-01-17 12:54:02.82	81.62	23.39	-37.7	-38.6	23.3	0.00e+00	36	27	0	675282944	48	6154
2026-01-17 12:54:06.86	82.74	23.43	-38.1	-39.0	23.0	0.00e+00	7	27	0	682622976	48	6454
2026-01-17 12:54:10.89	83.87	23.46	-37.9	-38.8	23.2	0.00e+00	29	27	0	689963008	48	6277
2026-01-17 12:54:14.93	84.99	23.47	-37.9	-38.8	23.2	0.00e+00	92	27	0	697303040	48	6277
2026-01-17 12:54:18.97	86.12	23.48	-38.7	-39.7	22.4	0.00e+00	0	27	0	705691648	48	6989
2026-01-17 12:54:23.00	87.24	23.47	-38.5	-39.5	22.2	0.00e+00	55	27	0	713031680	50	6087
2026-01-17 12:54:27.04	88.37	23.45	-37.9	-38.8	23.3	0.00e+00	24	27	0	720371712	50	5592
2026-01-17 12:54:31.07	89.49	23.42	-37.7	-38.7	23.3	0.00e+00	92	27	0	727711744	48	6183
2026-01-17 12:54:35.11	90.62	23.38	-38.5	-39.5	22.7	0.00e+00	0	27	0	736100352	48	6812
2026-01-17 12:54:39.14	91.73	23.33	-38.5	-39.6	22.6	0.00e+00	0	27	0	743440384	48	6855
2026-01-17 12:54:43.18	92.85	23.27	-38.0	-39.0	22.9	0.00e+00	0	27	0	750780416	50	5738
2026-01-17 12:54:47.22	93.96	23.19	-38.3	-39.3	22.7	0.00e+00	92	27	0	758120448	50	5931
2026-01-17 12:54:51.25	95.06	23.11	-38.1	-39.1	22.9	0.00e+00	0	27	0	765460480	50	5781
2026-01-17 12:54:55.29	96.16	23.01	-37.9	-38.9	23.1	0.00e+00	0	27	0	773849088	48	6319
2026-01-17 12:54:59.32	97.25	22.91	-37.7	-38.6	23.4	0.00e+00	0	27	0	781189120	48	6151
2026-01-17 12:55:03.36	98.34	22.79	-37.2	-38.1	23.8	0.00e+00	92	27	0	788529152	48	5793
2026-01-17 12:55:07.39	99.41	22.67	-36.7	-37.6	24.2	0.00e+00	0	27	0	795869184	46	6138
2026-01-17 12:55:11.42	100.48	22.53	-36.6	-37.4	24.4	0.00e+00	25	27	0	803209216	46	6009
2026-01-17 12:55:15.46	101.54	22.39	-36.6	-37.4	24.4	0.00e+00	55	27	0	811597824	46	6021
2026-01-17 12:55:19.49	102.59	22.24	-36.3	-37.2	24.6	0.00e+00	92	27	0	818937856	46	5846
2026-01-17 12:55:23.53	103.62	22.08	-35.7	-36.4	25.2	0.00e+00	0	27	0	826277888	44	6030
2026-01-17 12:55:27.57	104.65	21.91	-35.8	-36.6	24.9	0.00e+00	0	27	0	833617920	44	6151
2026-01-17 12:55:31.61	105.67	21.73	-36.2	-37.0	24.6	0.00e+00	56	27	0	842006528	44	6433
2026-01-17 12:55:35.65	106.68	21.54	-37.0	-37.8	24.1	0.00e+00	50	27	0	849346560	46	6310
2026-01-17 12:55:39.68	107.67	21.35	-36.4	-37.2	24.0	0.00e+00	0	27	0	856686592	46	5886
2026-01-17 12:55:43.72	108.65	21.15	-36.2	-37.1	24.6	0.00e+00	0	27	0	864026624	46	5769
2026-01-17 12:55:47.75	109.62	20.95	-36.6	-37.4	24.3	0.00e+00	92	27	0	871366656	46	6030
2026-01-17 12:55:51.79	110.58	20.73	-37.8	-38.8	23.1	0.00e+00	53	27	0	879755264	48	6270
2026-01-17 12:55:55.83	111.52	20.52	-38.0	-38.9	23.0	0.00e+00	32	27	0	887095296	48	6387
2026-01-17 12:55:59.87	112.45	20.29	-37.2	-38.1	23.8	0.00e+00	5	27	0	894435328	48	5824
2026-01-17 12:56:03.90	113.37	20.06	-37.0	-37.9	23.9	0.00e+00	92	27	0	901775360	48	5650
2026-01-17 12:56:07.94	114.27	19.83	-37.5	-38.4	23.4	0.00e+00	0	27	0	909115392	48	6030
2026-01-17 12:56:11.98	115.16	19.59	-37.8	-38.8	23.1	0.00e+00	54	27	0	917504000	48	6280
2026-01-17 12:56:16.01	116.04	19.35	-37.6	-38.6	23.3	0.00e+00	54	27	0	924844032	48	6108
2026-01-17 12:56:20.05	116.90	19.10	-37.2	-38.0	23.6	0.00e+00	92	27	0	932184064	48	5757
2026-01-17 12:56:24.08	117.75	18.85	-37.6	-38.6	23.2	0.00e+00	2	27	0	939524096	48	6115
2026-01-17 12:56:28.11	118.58	18.59	-37.5	-38.5	23.2	0.00e+00	3	27	0	947912704	48	6035
2026-01-17 12:56:32.15	119.40	18.34	-37.8	-38.8	23.0	0.00e+00	0	27	0	955252736	48	6266
2026-01-17 12:56:36.19	120.21	18.08	-38.1	-39.1	22.8	0.00e+00	91	27	0	962592768	48	6527
2026-01-17 12:56:40.23	121.01	17.81	-38.7	-39.7	22.2	0.00e+00	53	27	0	969932800	48	6987
2026-01-17 12:56:44.26	121.79	17.55	-37.8	-38.7	23.2	0.00e+00	2	27	0	977272832	50	5547
2026-01-17 12:56:48.30	122.56	17.28	-38.6	-39.6	22.2	0.00e+00	0	27	0	985661440	48	6906
2026-01-17 12:56:52.34	123.32	17.01	-38.6	-39.7	22.4	0.00e+00	92	27	0	993001472	50	6175
2026-01-17 12:56:56.38	124.06	16.74	-38.2	-39.2	22.7	0.00e+00	54	27	0	1000341504	50	5888
2026-01-17 12:57:00.42	124.79	16.47	-38.1	-39.1	22.8	0.00e+00	47	27	0	1007681536	50	5764
2026-01-17 12:57:04.46	125.51	16.19	-37.8	-38.8	23.1	0.00e+00	31	27	0	1016070144	48	6249
2026-01-17 12:57:08.50	126.21	15.92	-38.3	-39.3	22.6	0.00e+00	69	27	0	1023410176	48	6660
2026-01-17 12:57:12.54	126.90	15.64	-37.9	-38.9	23.0	0.00e+00	0	27	0	1030750208	48	6355
2026-01-17 12:57:16.57	127.58	15.36	-38.2	-39.2	22.6	0.00e+00	0	27	0	1038090240	48	6575
2026-01-17 12:57:20.61	128.25	15.09	-38.7	-39.7	22.1	0.00e+00	92	27	0	1045430272	50	6241
2026-01-17 12:57:24.65	128.91	14.81	-38.0	-39.0	22.9	0.00e+00	58	27	0	1053818880	50	5715
2026-01-17 12:57:28.68	129.55	14.53	-38.9	-40.0	22.0	0.00e+00	30	27	0	1061158912	50	6416
2026-01-17 12:57:32.72	130.18	14.25	-38.4	-39.4	22.4	0.00e+00	5	27	0	1068498944	50	6015
2026-01-17 12:57:36.76	130.80	13.98	-38.1	-39.1	22.7	0.00e+00	91	27	0	1075838976	50	5799
2026-01-17 12:57:40.79	131.41	13.70	-38.8	-39.8	22.0	0.00e+00	51	27	0	1084227584	50	6312
2026-01-17 12:57:44.83	132.01	13.42	-38.6	-39.6	22.1	0.00e+00	50	27	0	1091567616	50	6158
2026-01-17 12:57:48.87	132.60	13.14	-38.3	-39.3	22.4	0.00e+00	35	27	0	1098907648	50	5949
2026-01-17 12:57:52.90	133.17	12.87	-38.8	-39.8	21.9	0.00e+00	92	27	0	1106247680	50	6313
2026-01-17 12:57:56.94	133.74	12.59	-38.7	-39.8	22.1	0.00e+00	7	27	0	1113587712	50	6250
2026-01-17 12:58:00.97	134.30	12.32	-38.3	-39.3	22.4	0.00e+00	45	27	0	1121976320	50	5917
2026-01-17 12:58:05.01	134.85	12.04	-38.3	-39.3	22.4	0.00e+00	36	27	0	1129316352	50	5943
2026-01-17 12:58:09.04	135.38	11.77	-38.7	-39.8	22.0	0.00e+00	92	27	0	1136656384	50	6253
2026-01-17 12:58:13.08	135.91	11.50	-38.8	-39.8	21.8	0.00e+00	0	27	0	1143996416	50	6307
2026-01-17 12:58:17.12	136.43	11.22	-39.2	-40.3	21.5	0.00e+00	0	27	0	1152385024	50	6673
2026-01-17 12:58:21.15	136.94	10.95	-39.1	-40.3	21.4	0.00e+00	0	27	0	1159725056	50	6629
2026-01-17 12:58:25.19	137.44	10.68	-38.7	-39.8	21.9	0.00e+00	92	27	0	1167065088	50	6286
2026-01-17 12:58:29.23	137.93	10.41	-38.9	-40.0	21.7	0.00e+00	48	27	0	1174405120	50	6415
2026-01-17 12:58:33.27	138.41	10.15	-39.2	-40.4	21.2	0.00e+00	2	27	0	1181745152	50	6741
2026-01-17 12:58:37.30	138.89	9.88	-39.9	-41.2	20.5	0.00e+00	0	27	0	1190133760	52	6558
2026-01-17 12:58:41.34	139.36	9.61	-40.6	-42.1	19.6	0.00e+00	91	27	0	1197473792	52	7294
2026-01-17 12:58:45.38	139.81	9.35	-41.3	-43.0	18.5	0.00e+00	0	27	0	1204813824	54	7231
2026-01-17 12:58:49.42	140.26	9.09	-41.7	-43.5	17.7	0.00e+00	49	27	0	1212153856	54	7660
2026-01-17 12:58:53.45	140.71	8.83	-42.3	-44.6	16.5	0.00e+00	91	27	0	1220542464	56	7687
2026-01-17 12:58:57.49	141.14	8.56	-42.5	-44.8	16.1	0.00e+00	66	27	0	1227882496	56	7920
2026-01-17 12:59:01.52	141.57	8.31	-42.2	-44.5	16.4	0.00e+00	0	27	0	1235222528	56	7604
2026-01-17 12:59:05.56	141.99	8.05	-42.0	-44.1	16.9	0.00e+00	40	27	0	1242562560	56	7257
2026-01-17 12:59:09.60	142.40	7.79	-42.2	-44.4	16.6	0.00e+00	92	27	0	1249902592	56	7577
2026-01-17 12:59:13.64	142.81	7.54	-42.0	-44.0	16.8	0.00e+00	46	27	0	1258291200	56	7244
2026-01-17 12:59:17.68	143.21	7.28	-41.6	-43.5	17.3	0.00e+00	34	27	0	1265631232	56	6842
2026-01-17 12:59:21.72	143.60	7.03	-41.1	-43.0	18.1	0.00e+00	0	27	0	1272971264	56	6406
2026-01-17 12:59:25.76	143.99	6.78	-40.7	-42.4	18.7	0.00e+00	91	27	0	1280311296	54	6699
2026-01-17 12:59:29.80	144.37	6.53	-40.3	-41.9	19.2	0.00e+00	0	27	0	1287651328	54	6324
2026-01-17 12:59:33.83	144.75	6.28	-40.5	-42.1	18.9	0.00e+00	41	27	0	1296039936	54	6515
2026-01-17 12:59:37.87	145.11	6.03	-40.7	-42.3	18.7	0.00e+00	0	27	0	1303379968	54	6658
2026-01-17 12:59:41.90	145.48	5.79	-40.9	-42.6	18.5	0.00e+00	90	27	0	1310720000	54	6871
2026-01-17 12:59:45.94	145.83	5.55	-40.6	-42.2	18.8	0.00e+00	0	27	0	1318060032	54	6580
2026-01-17 12:59:49.98	146.19	5.30	-40.6	-42.1	18.9	0.00e+00	47	27	0	1326448640	54	6531
2026-01-17 12:59:54.02	146.53	5.06	-41.1	-42.9	18.3	0.00e+00	37	27	0	1333788672	54	7130
2026-01-17 12:59:58.05	146.87	4.82	-41.0	-42.8	18.3	0.00e+00	92	27	0	1341128704	54	7022
2026-01-17 13:00:02.09	147.21	4.58	-40.6	-42.2	19.0	0.00e+00	43	27	0	1348468736	54	6576
2026-01-17 13:00:06.12	147.53	4.35	-40.7	-42.5	18.4	0.00e+00	2	27	0	1355808768	54	6773
2026-01-17 13:00:10.16	147.86	4.11	-40.9	-42.7	18.0	0.00e+00	0	27	0	1364197376	54	7004
2026-01-17 13:00:14.19	148.18	3.88	-40.4	-42.1	18.5	0.00e+00	92	27	0	1371537408	54	6527
2026-01-17 13:00:18.23	148.49	3.64	-40.1	-41.7	18.9	0.00e+00	45	27	0	1378877440	54	6228
2026-01-17 13:00:22.26	148.80	3.41	-40.7	-42.6	17.9	0.00e+00	36	27	0	1386217472	54	6881
2026-01-17 13:00:26.30	149.11	3.18	-41.3	-43.5	17.0	0.00e+00	82	27	0	1394606080	54	7605
2026-01-17 13:00:30.34	149.41	2.95	-47.0	-62.1	3.6	9.87e-01	0	27	104	1400897536	60	46032
2026-01-17 13:00:34.38	149.71	2.72	-48.3	-63.4	3.5	1.51e+00	0	27	104	1400897536	60	53291
2026-01-17 13:00:38.42	150.00	2.49	-48.5	-63.7	3.6	1.51e+00	0	27	104	1400897536	60	55422
2026-01-17 13:00:42.46	150.29	2.27	-48.4	-63.7	3.6	1.51e+00	0	27	104	1400897536	60	55134
2026-01-17 13:00:46.50	150.57	2.04	-48.5	-63.6	3.6	1.51e+00	0	27	104	1400897536	60	54697
2026-01-17 13:00:50.54	150.85	1.82	-48.4	-63.6	3.6	1.51e+00	0	27	104	1400897536	60	54870
2026-01-17 13:00:54.58	151.13	1.60	-48.5	-63.6	3.6	1.51e+00	0	27	104	1400897536	60	54652
2026-01-17 13:00:58.62	151.40	1.38	-48.5	-63.7	3.6	1.51e+00	0	27	104	1400897536	60	55177
2026-01-17 13:01:02.66	151.67	1.16	-48.4	-63.6	3.6	1.51e+00	0	27	104	1400897536	60	54802
2026-01-17 13:01:06.70	151.94	0.94	-48.5	-63.7	3.6	1.51e+00	0	27	104	1400897536	60	55028
2026-01-17 13:01:10.74	152.20	0.72	-48.4	-63.7	3.6	1.51e+00	0	28	104	1400897536	60	55182
2026-01-17 13:01:14.78	152.46	0.51	-48.4	-63.6	3.6	1.51e+00	0	28	104	1400897536	60	54767
2026-01-17 13:01:18.81	152.71	0.29	-48.4	-63.6	3.5	1.51e+00	0	28	104	1400897536	60	54677
2026-01-17 13:01:22.85	152.96	0.08	-48.5	-63.6	3.6	1.51e+00	0	27	104	1400897536	60	54881

#Closed at: 2026-01-17 13:01:24
#Recorded file [1400 MB]: D:/lorett/data/35029_260118_004711.dat