passes_logs/2026/01/04/T1/T1__20260104_022227_FENGYUN_3D_rec.log

#Pass ID: 20260104_022227_FENGYUN 3D
#Satellite: FENGYUN 3D
#Configuration: FENGYUN 3D
#almurnet v.1.7.20251203
#Start time: 2026-01-04 02:22:29

#Version: 2.0.20230620
#Station: T1
#Location: 37.570604 lon 55.790049 lat
#TLE: 1 43010U 17072A   26003.51579816  .00000092  00000+0  65324-4 0  9992
#TLE: 2 43010  98.9912 335.1548 0001916 128.4619 231.6729 14.19692074421623

#Time	Az	El	Level	Level2	SNR	BER	BlckErr	Temp	State	Recorded	gain1	gain2
2026-01-04 02:22:29.82	12.86	5.11	-53.3	-67.1	3.8	8.46e-01	0	36	0	0	78	17377
2026-01-04 02:22:32.83	12.77	5.32	-53.2	-67.0	3.8	8.47e-01	0	36	104	0	77	18156
2026-01-04 02:22:35.84	12.68	5.54	-53.2	-67.0	3.8	8.48e-01	0	37	104	0	77	18149
2026-01-04 02:22:38.85	12.59	5.75	-53.2	-67.0	3.8	8.47e-01	0	37	104	0	77	18096
2026-01-04 02:22:41.86	12.50	5.97	-53.2	-66.9	3.8	8.47e-01	0	37	104	0	77	18047
2026-01-04 02:22:44.88	12.40	6.19	-53.2	-66.6	3.8	8.47e-01	0	37	104	0	77	17467
2026-01-04 02:22:47.89	12.30	6.41	-53.1	-66.1	3.8	8.47e-01	0	37	104	0	77	16366
2026-01-04 02:22:50.90	12.21	6.63	-53.1	-65.4	3.8	8.45e-01	0	37	104	0	77	15092
2026-01-04 02:22:53.91	12.11	6.85	-53.0	-64.7	4.0	8.45e-01	0	37	104	0	77	13910
2026-01-04 02:22:56.92	12.00	7.08	-53.0	-64.9	3.9	8.46e-01	0	37	104	0	77	14312
2026-01-04 02:22:59.93	11.90	7.31	-53.1	-65.8	3.8	8.47e-01	0	37	104	0	77	15940
2026-01-04 02:23:02.94	11.79	7.54	-53.2	-66.5	3.8	8.48e-01	0	37	104	0	77	17201
2026-01-04 02:23:05.95	11.69	7.77	-53.1	-65.4	3.8	8.47e-01	0	37	104	0	77	15084
2026-01-04 02:23:08.96	11.58	8.00	-52.5	-61.4	5.0	7.96e-01	0	38	0	0	77	9583
2026-01-04 02:23:11.97	11.47	8.24	-51.6	-57.7	8.0	1.06e-01	0	38	0	11534336	75	6961
2026-01-04 02:23:14.98	11.35	8.48	-50.5	-55.2	10.6	5.42e-03	0	38	0	29360128	73	5861
2026-01-04 02:23:17.99	11.24	8.72	-50.1	-54.4	11.4	1.44e-03	0	38	0	46137344	72	5665
2026-01-04 02:23:21.00	11.12	8.96	-50.6	-55.4	10.3	4.86e-03	0	38	0	62914560	72	6359
2026-01-04 02:23:24.01	11.00	9.20	-50.2	-54.4	11.4	3.21e-03	0	38	0	79691776	72	5717
2026-01-04 02:23:27.02	10.88	9.45	-46.8	-49.5	16.2	5.03e-05	0	38	0	87031808	65	4846
2026-01-04 02:23:30.03	10.76	9.70	-45.7	-48.1	17.7	0.00e+00	0	38	0	103809024	63	4645
2026-01-04 02:23:33.03	10.63	9.95	-45.5	-47.9	18.0	0.00e+00	0	38	0	120586240	62	4774
2026-01-04 02:23:36.04	10.50	10.20	-45.4	-47.7	18.2	0.00e+00	0	38	0	137363456	62	4656
2026-01-04 02:23:39.05	10.37	10.46	-45.2	-47.4	18.4	0.00e+00	0	38	0	154140672	62	4535
2026-01-04 02:23:42.06	10.24	10.72	-45.1	-47.3	18.5	0.00e+00	0	38	0	170917888	62	4469
2026-01-04 02:23:45.19	10.09	10.99	-44.8	-47.0	18.8	0.00e+00	0	38	0	188743680	61	4579
2026-01-04 02:23:48.15	9.96	11.25	-44.8	-46.9	18.9	0.00e+00	0	38	0	205520896	61	4535
2026-01-04 02:23:51.75	9.79	11.57	-44.7	-46.8	19.0	0.00e+00	0	38	0	225443840	61	4482
2026-01-04 02:23:54.47	9.66	11.81	-44.8	-46.9	19.0	0.00e+00	0	38	0	241172480	61	4518
2026-01-04 02:23:57.76	9.49	12.11	-44.7	-46.9	19.0	0.00e+00	0	38	0	258998272	61	4497
2026-01-04 02:24:00.57	9.35	12.37	-44.5	-46.6	19.3	0.00e+00	0	38	0	274726912	61	4355
2026-01-04 02:24:03.72	9.19	12.66	-44.5	-46.5	19.4	0.00e+00	0	38	0	292552704	60	4575
2026-01-04 02:24:06.58	9.04	12.93	-44.6	-46.6	19.4	0.00e+00	0	38	0	309329920	60	4643
2026-01-04 02:24:09.73	8.87	13.23	-44.6	-46.6	19.4	0.00e+00	0	38	0	327155712	60	4632
2026-01-04 02:24:12.60	8.72	13.50	-44.5	-46.4	19.6	0.00e+00	0	38	0	342884352	60	4537
2026-01-04 02:24:15.87	8.53	13.82	-44.4	-46.3	19.7	0.00e+00	0	38	0	360710144	60	4486
2026-01-04 02:24:18.86	8.36	14.11	-44.2	-46.1	19.9	0.00e+00	0	38	0	377487360	60	4386
2026-01-04 02:24:22.43	8.16	14.46	-44.3	-46.2	19.9	0.00e+00	0	38	0	398458880	60	4432
2026-01-04 02:24:25.29	7.99	14.75	-44.3	-46.2	19.9	0.00e+00	0	39	0	414187520	60	4398
2026-01-04 02:24:28.44	7.79	15.07	-44.4	-46.3	19.8	0.00e+00	0	38	0	432013312	60	4454
2026-01-04 02:24:31.31	7.62	15.36	-44.3	-46.2	19.9	0.00e+00	0	38	0	447741952	60	4424
2026-01-04 02:24:34.60	7.41	15.71	-44.3	-46.1	20.0	0.00e+00	0	38	0	466616320	60	4387
2026-01-04 02:24:37.33	7.23	15.99	-44.2	-46.1	20.1	0.00e+00	0	39	0	482344960	60	4341
2026-01-04 02:24:40.62	7.01	16.34	-43.8	-45.6	20.4	0.00e+00	0	39	0	500170752	59	4368
2026-01-04 02:24:43.50	6.81	16.65	-43.6	-45.5	20.5	0.00e+00	0	39	0	516947968	59	4296
2026-01-04 02:24:46.84	6.58	17.02	-43.4	-45.2	20.7	0.00e+00	0	38	0	535822336	58	4420
2026-01-04 02:24:49.85	6.36	17.35	-43.2	-45.0	20.9	0.00e+00	0	39	0	552599552	58	4322
2026-01-04 02:24:52.85	6.14	17.68	-43.1	-44.9	21.0	0.00e+00	0	38	0	569376768	58	4250
2026-01-04 02:24:55.86	5.92	18.03	-43.0	-44.7	21.1	0.00e+00	0	39	0	586153984	58	4190
2026-01-04 02:24:58.96	5.68	18.38	-43.2	-45.0	20.9	0.00e+00	0	38	0	603979776	58	4303
2026-01-04 02:25:01.82	5.46	18.71	-43.2	-44.9	21.0	0.00e+00	0	38	0	619708416	58	4289
2026-01-04 02:25:04.96	5.20	19.08	-43.2	-45.0	21.0	0.00e+00	0	38	0	637534208	58	4316
2026-01-04 02:25:07.83	4.97	19.42	-43.1	-44.9	21.1	0.00e+00	0	38	0	653262848	58	4263
2026-01-04 02:25:11.09	4.69	19.82	-43.0	-44.8	21.2	0.00e+00	0	38	0	672137216	58	4222
2026-01-04 02:25:13.96	4.44	20.17	-43.1	-44.8	21.3	0.00e+00	0	39	0	687865856	58	4220
2026-01-04 02:25:17.10	4.16	20.56	-43.0	-44.8	21.2	0.00e+00	0	38	0	705691648	57	4458
2026-01-04 02:25:20.18	3.88	20.94	-43.0	-44.7	21.3	0.00e+00	0	39	0	723517440	57	4425
2026-01-04 02:25:23.05	3.61	21.31	-43.1	-44.8	21.2	0.00e+00	0	38	0	739246080	57	4486
2026-01-04 02:25:26.20	3.31	21.72	-42.9	-44.7	21.4	0.00e+00	0	38	0	757071872	57	4394
2026-01-04 02:25:29.16	3.02	22.10	-42.6	-44.3	21.6	0.00e+00	0	39	0	773849088	57	4236
2026-01-04 02:25:32.31	2.70	22.52	-42.4	-44.1	21.8	0.00e+00	0	39	0	790626304	56	4364
2026-01-04 02:25:35.18	2.40	22.91	-42.1	-43.8	21.9	0.00e+00	0	39	0	807403520	55	4467
2026-01-04 02:25:38.33	2.06	23.33	-42.2	-43.9	21.9	0.00e+00	0	39	0	825229312	55	4498
2026-01-04 02:25:41.19	1.74	23.73	-42.2	-43.9	21.9	0.00e+00	0	38	0	840957952	55	4519
2026-01-04 02:25:44.42	1.38	24.18	-42.1	-43.8	22.0	0.00e+00	0	38	0	859832320	55	4467
2026-01-04 02:25:47.34	1.04	24.59	-42.2	-43.8	22.0	0.00e+00	0	38	0	875560960	55	4493
2026-01-04 02:25:50.49	0.66	25.05	-42.1	-43.8	22.0	0.00e+00	0	38	0	893386752	55	4451
2026-01-04 02:25:53.42	0.30	25.47	-42.0	-43.7	22.1	0.00e+00	0	39	0	910163968	55	4425
2026-01-04 02:25:56.71	359.88	25.96	-41.9	-43.6	22.2	0.00e+00	0	39	0	927989760	55	4363
2026-01-04 02:25:59.50	359.52	26.38	-41.9	-43.6	22.2	0.00e+00	0	39	0	943718400	55	4353
2026-01-04 02:26:02.79	359.08	26.88	-41.8	-43.5	22.3	0.00e+00	0	39	0	962592768	55	4299
2026-01-04 02:26:05.51	358.70	27.30	-42.0	-43.6	22.2	0.00e+00	0	39	0	978321408	55	4383
2026-01-04 02:26:08.80	358.23	27.81	-41.8	-43.5	22.2	0.00e+00	0	39	0	996147200	55	4324
2026-01-04 02:26:11.52	357.83	28.24	-41.8	-43.4	22.3	0.00e+00	0	39	0	1011875840	55	4285
2026-01-04 02:26:14.81	357.33	28.77	-41.6	-43.3	22.4	0.00e+00	0	38	0	1029701632	55	4210
2026-01-04 02:26:17.66	356.88	29.23	-41.9	-43.6	22.3	0.00e+00	0	38	0	1046478848	55	4361
2026-01-04 02:26:21.13	356.32	29.80	-41.7	-43.4	22.4	0.00e+00	0	38	0	1066401792	55	4271
2026-01-04 02:26:23.94	355.85	30.27	-41.5	-43.2	22.6	0.00e+00	0	38	0	1082130432	55	4154
2026-01-04 02:26:27.25	355.28	30.83	-41.4	-43.1	22.7	0.00e+00	0	38	0	1099956224	54	4341
2026-01-04 02:26:30.26	354.74	31.34	-41.2	-42.9	22.9	0.00e+00	0	38	0	1116733440	54	4248
2026-01-04 02:26:33.27	354.18	31.86	-41.3	-43.0	22.8	0.00e+00	0	39	0	1134559232	54	4308
2026-01-04 02:26:36.28	353.61	32.39	-41.1	-42.7	23.0	0.00e+00	0	39	0	1151336448	54	4188
2026-01-04 02:26:39.30	353.01	32.92	-41.2	-42.8	22.9	0.00e+00	0	39	0	1168113664	54	4233
2026-01-04 02:26:42.39	352.38	33.48	-41.3	-43.0	22.8	0.00e+00	0	39	0	1185939456	54	4292
2026-01-04 02:26:45.26	351.78	34.00	-41.1	-42.8	22.9	0.00e+00	0	39	0	1201668096	54	4204
2026-01-04 02:26:48.41	351.09	34.57	-40.9	-42.5	23.1	0.00e+00	0	39	0	1219493888	53	4315
2026-01-04 02:26:51.28	350.44	35.10	-41.3	-43.0	22.8	0.00e+00	0	39	0	1235222528	53	4548
2026-01-04 02:26:54.59	349.66	35.72	-41.0	-42.6	23.1	0.00e+00	0	39	0	1254096896	53	4374
2026-01-04 02:26:57.45	348.97	36.26	-41.1	-42.7	23.0	0.00e+00	0	39	0	1269825536	53	4427
2026-01-04 02:27:00.56	348.19	36.84	-41.1	-42.8	22.9	0.00e+00	0	39	0	1287651328	53	4449
2026-01-04 02:27:03.56	347.40	37.42	-41.1	-42.7	23.0	0.00e+00	0	39	0	1304428544	53	4438
2026-01-04 02:27:06.58	346.59	38.00	-41.3	-43.0	22.8	0.00e+00	0	39	0	1321205760	53	4558
2026-01-04 02:27:09.58	345.75	38.58	-41.2	-42.8	23.0	0.00e+00	0	39	0	1337982976	53	4460
2026-01-04 02:27:12.58	344.87	39.16	-41.5	-43.1	22.8	0.00e+00	0	39	0	1355808768	53	4630
2026-01-04 02:27:15.59	343.97	39.74	-41.3	-43.0	22.8	0.00e+00	0	38	0	1372585984	53	4560
2026-01-04 02:27:18.80	342.96	40.37	-41.3	-43.0	22.9	0.00e+00	0	39	0	1390411776	53	4547
2026-01-04 02:27:21.67	342.03	40.93	-41.2	-42.9	22.9	0.00e+00	0	39	0	1406140416	53	4511
2026-01-04 02:27:24.82	340.97	41.54	-41.6	-43.3	22.5	0.00e+00	0	39	0	1423966208	53	4731
2026-01-04 02:27:27.68	339.97	42.10	-41.5	-43.1	22.7	0.00e+00	0	39	0	1440743424	53	4651
2026-01-04 02:27:30.83	338.83	42.71	-41.2	-42.9	22.9	0.00e+00	0	38	0	1457520640	53	4516
2026-01-04 02:27:33.74	337.74	43.27	-41.3	-42.9	22.9	0.00e+00	0	38	0	1474297856	53	4527
2026-01-04 02:27:37.03	336.45	43.90	-41.2	-42.9	22.9	0.00e+00	0	39	0	1493172224	53	4508
2026-01-04 02:27:39.75	335.35	44.42	-41.0	-42.6	23.1	0.00e+00	0	39	0	1507852288	53	4357
2026-01-04 02:27:43.04	333.97	45.04	-41.5	-43.2	22.6	0.00e+00	0	39	0	1526726656	53	4663
2026-01-04 02:27:45.88	332.74	45.56	-41.3	-43.0	22.8	0.00e+00	0	39	0	1542455296	53	4567
2026-01-04 02:27:49.46	331.12	46.21	-41.8	-43.5	22.4	0.00e+00	0	39	0	1562378240	54	4569
2026-01-04 02:27:52.32	329.78	46.72	-41.8	-43.4	22.6	0.00e+00	0	39	0	1579155456	54	4519
2026-01-04 02:27:55.46	328.26	47.26	-41.7	-43.3	22.5	0.00e+00	0	39	0	1595932672	54	4482
2026-01-04 02:27:58.33	326.82	47.74	-42.0	-43.7	22.1	0.00e+00	0	39	0	1612709888	54	4654
2026-01-04 02:28:01.49	325.18	48.26	-41.8	-43.5	22.5	2.20e-06	0	39	0	1630535680	54	4546
2026-01-04 02:28:04.35	323.65	48.71	-42.2	-43.9	22.0	1.10e-06	0	39	0	1646264320	55	4522
2026-01-04 02:28:07.51	321.91	49.18	-41.9	-43.6	22.3	0.00e+00	0	39	0	1664090112	55	4353
2026-01-04 02:28:10.39	320.28	49.59	-42.2	-43.9	22.1	0.00e+00	0	38	0	1680867328	55	4496
2026-01-04 02:28:13.60	318.41	50.02	-42.0	-43.6	22.3	0.00e+00	0	38	0	1698693120	55	4370
2026-01-04 02:28:16.46	316.70	50.38	-42.2	-43.9	22.0	0.00e+00	0	39	0	1714421760	55	4500
2026-01-04 02:28:19.61	314.77	50.75	-42.2	-43.9	22.0	0.00e+00	0	39	0	1732247552	55	4524
2026-01-04 02:28:22.64	312.87	51.07	-42.6	-44.3	21.7	0.00e+00	0	39	0	1749024768	55	4729
2026-01-04 02:28:25.69	310.92	51.36	-42.0	-43.7	22.1	0.00e+00	0	39	0	1766850560	55	4426
2026-01-04 02:28:28.99	308.77	51.64	-41.8	-43.4	22.3	0.00e+00	0	39	0	1784676352	55	4278
2026-01-04 02:28:31.71	306.96	51.83	-41.9	-43.6	22.2	0.00e+00	0	39	0	1800404992	55	4342
2026-01-04 02:28:35.39	304.49	52.05	-41.9	-43.6	22.2	0.00e+00	0	39	0	1821376512	55	4358
2026-01-04 02:28:38.32	302.49	52.19	-41.9	-43.6	22.2	0.00e+00	0	39	0	1838153728	55	4356
2026-01-04 02:28:42.09	299.90	52.31	-41.6	-43.2	22.5	0.00e+00	0	39	0	1859125248	55	4163
2026-01-04 02:28:44.97	297.91	52.36	-41.7	-43.3	22.3	0.00e+00	0	39	0	1874853888	55	4238
2026-01-04 02:28:48.25	295.64	52.38	-41.9	-43.6	22.1	0.00e+00	0	39	0	1893728256	55	4374
2026-01-04 02:28:51.32	293.52	52.35	-41.7	-43.3	22.4	0.00e+00	0	39	0	1910505472	54	4472
2026-01-04 02:28:54.71	291.18	52.28	-41.7	-43.4	22.3	0.00e+00	0	39	0	1929379840	54	4520
2026-01-04 02:28:57.48	289.28	52.18	-41.5	-43.2	22.5	0.00e+00	0	39	0	1945108480	54	4404
2026-01-04 02:29:00.78	287.03	52.01	-41.5	-43.2	22.5	0.00e+00	0	39	0	1963982848	54	4405
2026-01-04 02:29:03.72	285.06	51.83	-41.2	-42.9	22.7	0.00e+00	0	39	0	1980760064	54	4249
2026-01-04 02:29:06.73	283.06	51.61	-41.6	-43.3	22.4	0.00e+00	0	39	0	1997537280	54	4442
2026-01-04 02:29:09.79	281.06	51.35	-41.5	-43.1	22.5	0.00e+00	0	39	0	2014314496	54	4369
2026-01-04 02:29:12.81	279.13	51.06	-41.5	-43.1	22.5	0.00e+00	0	38	0	2031091712	54	4366
2026-01-04 02:29:15.82	277.24	50.74	-41.6	-43.3	22.3	0.00e+00	0	39	0	2048917504	54	4470
2026-01-04 02:29:18.82	275.40	50.39	-41.5	-43.2	22.4	0.00e+00	0	39	0	2065694720	54	4400
2026-01-04 02:29:21.83	273.59	50.02	-41.8	-43.4	22.2	0.00e+00	0	39	0	2082471936	54	4537
2026-01-04 02:29:24.89	271.80	49.61	-41.6	-43.3	22.4	0.00e+00	0	39	0	2099249152	54	4447
2026-01-04 02:29:27.98	270.05	49.16	-41.2	-42.8	22.8	0.00e+00	0	39	0	2117074944	54	4210
2026-01-04 02:29:30.88	268.45	48.73	-41.2	-42.8	22.8	0.00e+00	0	39	0	2132803584	54	4222
2026-01-04 02:29:34.03	266.76	48.24	-41.3	-42.9	22.6	0.00e+00	0	38	0	2150629376	54	4274
2026-01-04 02:29:36.89	265.28	47.77	-41.3	-43.0	22.6	0.00e+00	0	39	0	2167406592	54	4313
2026-01-04 02:29:40.04	263.69	47.24	-40.8	-42.4	23.0	0.00e+00	0	39	0	2185232384	53	4288
2026-01-04 02:29:42.89	262.31	46.74	-40.7	-42.3	23.1	0.00e+00	0	39	0	2200961024	53	4211
2026-01-04 02:29:46.18	260.76	46.16	-40.8	-42.5	23.0	0.00e+00	0	39	0	2219835392	53	4294
2026-01-04 02:29:48.97	259.49	45.65	-41.0	-42.6	22.8	0.00e+00	0	39	0	2234515456	53	4389
2026-01-04 02:29:52.26	258.05	45.04	-40.7	-42.4	23.1	0.00e+00	0	38	0	2253389824	53	4244
2026-01-04 02:29:55.18	256.82	44.49	-40.5	-42.2	23.2	0.00e+00	0	39	0	2270167040	53	4146
2026-01-04 02:29:58.28	255.56	43.90	-40.6	-42.2	23.2	0.00e+00	0	39	0	2286944256	52	4410
2026-01-04 02:30:01.57	254.27	43.27	-40.4	-42.1	23.3	0.00e+00	0	39	0	2305818624	52	4347
2026-01-04 02:30:04.30	253.24	42.74	-40.5	-42.1	23.3	0.00e+00	0	39	0	2321547264	52	4356
2026-01-04 02:30:07.59	252.04	42.10	-40.4	-42.0	23.3	0.00e+00	0	39	0	2339373056	52	4311
2026-01-04 02:30:10.31	251.08	41.57	-40.5	-42.2	23.2	0.00e+00	0	39	0	2355101696	52	4396
2026-01-04 02:30:13.77	249.91	40.89	-40.7	-42.3	23.1	0.00e+00	0	39	0	2375024640	52	4461
2026-01-04 02:30:16.50	249.02	40.36	-40.6	-42.2	23.1	0.00e+00	0	39	0	2389704704	52	4411
2026-01-04 02:30:19.79	247.99	39.71	-40.5	-42.1	23.2	0.00e+00	0	39	0	2408579072	52	4371
2026-01-04 02:30:22.67	247.12	39.15	-40.3	-41.9	23.4	0.00e+00	0	39	0	2424307712	52	4260
2026-01-04 02:30:26.14	246.10	38.47	-40.5	-42.1	23.2	0.00e+00	0	39	0	2444230656	52	4354
2026-01-04 02:30:28.88	245.34	37.94	-40.4	-42.0	23.2	0.00e+00	0	39	0	2459959296	52	4311
2026-01-04 02:30:32.12	244.46	37.32	-40.6	-42.2	23.1	0.00e+00	0	39	0	2477785088	52	4421
2026-01-04 02:30:35.46	243.59	36.68	-40.4	-42.0	23.3	0.00e+00	0	39	0	2496659456	52	4301
2026-01-04 02:30:38.33	242.87	36.13	-40.3	-41.9	23.2	0.00e+00	0	39	0	2512388096	52	4284
2026-01-04 02:30:41.48	242.10	35.54	-40.2	-41.8	23.4	0.00e+00	0	39	0	2530213888	52	4223
2026-01-04 02:30:44.35	241.43	35.00	-40.2	-41.9	23.3	0.00e+00	0	39	0	2545942528	52	4257
2026-01-04 02:30:47.50	240.72	34.42	-40.0	-41.6	23.5	0.00e+00	0	39	0	2563768320	52	4124
2026-01-04 02:30:50.35	240.10	33.90	-40.1	-41.7	23.5	0.00e+00	0	39	0	2580545536	51	4429
2026-01-04 02:30:53.64	239.40	33.30	-40.3	-41.9	23.4	0.00e+00	0	39	0	2598371328	51	4517
2026-01-04 02:30:56.50	238.82	32.79	-40.5	-42.2	23.1	0.00e+00	0	39	0	2615148544	51	4665
2026-01-04 02:30:59.65	238.20	32.23	-40.5	-42.2	23.1	0.00e+00	0	39	0	2632974336	51	4668
2026-01-04 02:31:02.85	237.59	31.67	-40.2	-41.8	23.4	0.00e+00	0	39	0	2650800128	51	4479
2026-01-04 02:31:05.71	237.06	31.17	-40.7	-42.3	23.0	0.00e+00	0	39	0	2666528768	52	4473
2026-01-04 02:31:09.01	236.47	30.60	-40.9	-42.6	22.8	0.00e+00	0	39	0	2685403136	52	4602
2026-01-04 02:31:11.86	235.98	30.12	-40.9	-42.5	22.9	0.00e+00	0	39	0	2701131776	52	4575
2026-01-04 02:31:15.02	235.45	29.59	-41.0	-42.6	22.7	0.00e+00	0	39	0	2718957568	52	4649
2026-01-04 02:31:17.88	234.99	29.12	-41.0	-42.6	22.7	0.00e+00	0	39	0	2734686208	52	4651
2026-01-04 02:31:21.03	234.50	28.61	-41.2	-42.8	22.6	0.00e+00	0	39	0	2752512000	53	4467
2026-01-04 02:31:23.89	234.06	28.15	-41.1	-42.8	22.6	0.00e+00	0	38	0	2769289216	53	4446
2026-01-04 02:31:27.03	233.60	27.65	-41.2	-42.9	22.5	0.00e+00	0	39	0	2787115008	53	4494
2026-01-04 02:31:29.95	233.18	27.20	-41.1	-42.8	22.5	0.00e+00	0	39	0	2802843648	53	4465
2026-01-04 02:31:33.29	232.72	26.68	-41.1	-42.8	22.5	0.00e+00	0	39	0	2821718016	53	4460
2026-01-04 02:31:36.01	232.35	26.27	-41.0	-42.6	22.6	0.00e+00	0	39	0	2837446656	53	4390
2026-01-04 02:31:39.31	231.92	25.77	-41.0	-42.6	22.6	0.00e+00	0	39	0	2855272448	53	4386
2026-01-04 02:31:42.03	231.57	25.37	-41.2	-42.8	22.5	0.00e+00	0	39	0	2871001088	53	4493
2026-01-04 02:31:45.32	231.16	24.89	-41.1	-42.8	22.5	0.00e+00	0	39	0	2889875456	53	4467
2026-01-04 02:31:48.28	230.81	24.46	-41.2	-42.9	22.5	0.00e+00	0	39	0	2906652672	53	4513
2026-01-04 02:31:51.96	230.38	23.94	-41.3	-43.0	22.4	0.00e+00	0	39	0	2926575616	53	4571
2026-01-04 02:31:54.69	230.07	23.56	-41.4	-43.1	22.3	0.00e+00	0	39	0	2942304256	53	4635
2026-01-04 02:31:58.09	229.70	23.09	-41.5	-43.1	22.3	0.00e+00	0	39	0	2961178624	53	4634
2026-01-04 02:32:01.21	229.36	22.66	-41.4	-43.0	22.3	0.00e+00	0	39	0	2979004416	53	4580
2026-01-04 02:32:04.36	229.03	22.24	-41.2	-42.8	22.5	0.00e+00	0	39	0	2996830208	53	4481
2026-01-04 02:32:07.22	228.74	21.86	-41.2	-42.8	22.4	0.00e+00	0	39	0	3012558848	53	4484
2026-01-04 02:32:10.37	228.43	21.45	-41.2	-42.9	22.4	0.00e+00	0	39	0	3030384640	53	4514
2026-01-04 02:32:13.32	228.15	21.07	-41.3	-43.0	22.3	0.00e+00	0	39	0	3047161856	53	4559
2026-01-04 02:32:16.71	227.83	20.64	-41.6	-43.3	22.0	0.00e+00	0	39	0	3066036224	53	4709
2026-01-04 02:32:19.42	227.59	20.30	-41.9	-43.5	21.8	0.00e+00	0	39	0	3080716288	54	4597
2026-01-04 02:32:22.72	227.29	19.89	-42.1	-43.8	21.5	0.00e+00	0	39	0	3099590656	54	4748
2026-01-04 02:32:25.53	227.05	19.55	-42.1	-43.9	21.5	0.00e+00	0	39	0	3115319296	54	4764
2026-01-04 02:32:28.69	226.78	19.17	-42.2	-43.9	21.4	0.00e+00	0	39	0	3133145088	55	4522
2026-01-04 02:32:31.95	226.51	18.78	-42.3	-44.0	21.4	0.00e+00	0	39	0	3152019456	55	4598
2026-01-04 02:32:34.73	226.29	18.45	-42.4	-44.1	21.3	0.00e+00	0	39	0	3167748096	55	4617
2026-01-04 02:32:38.02	226.03	18.07	-42.3	-44.0	21.3	0.00e+00	0	39	0	3185573888	55	4592
2026-01-04 02:32:40.74	225.82	17.76	-42.4	-44.1	21.2	0.00e+00	0	39	0	3201302528	55	4633
2026-01-04 02:32:44.04	225.57	17.39	-42.5	-44.2	21.2	0.00e+00	0	39	0	3220176896	55	4664
2026-01-04 02:32:46.76	225.38	17.08	-42.6	-44.3	21.1	0.00e+00	0	39	0	3234856960	55	4729
2026-01-04 02:32:50.07	225.14	16.72	-42.6	-44.3	21.1	0.00e+00	0	39	0	3253731328	55	4723
2026-01-04 02:32:52.87	224.94	16.41	-43.0	-44.7	20.9	0.00e+00	0	39	0	3269459968	56	4677
2026-01-04 02:32:56.27	224.71	16.05	-43.2	-44.9	20.7	0.00e+00	0	39	0	3288334336	56	4799
2026-01-04 02:32:58.99	224.53	15.76	-43.4	-45.1	20.5	0.00e+00	0	39	0	3304062976	57	4644
2026-01-04 02:33:02.28	224.31	15.41	-43.6	-45.4	20.2	0.00e+00	0	39	0	3321888768	57	4777
2026-01-04 02:33:05.03	224.14	15.13	-43.7	-45.5	20.1	0.00e+00	0	39	0	3337617408	57	4844
2026-01-04 02:33:08.32	223.93	14.79	-43.7	-45.6	20.0	0.00e+00	0	39	0	3356491776	58	4605
2026-01-04 02:33:11.04	223.76	14.52	-43.6	-45.4	20.2	0.00e+00	0	39	0	3371171840	58	4527
2026-01-04 02:33:14.33	223.57	14.19	-43.5	-45.2	20.3	0.00e+00	0	39	0	3390046208	58	4439
2026-01-04 02:33:17.05	223.41	13.92	-43.4	-45.2	20.3	0.00e+00	0	39	0	3405774848	58	4424
2026-01-04 02:33:20.35	223.22	13.59	-43.5	-45.3	20.2	0.00e+00	0	39	0	3423600640	58	4453
2026-01-04 02:33:23.35	223.05	13.30	-43.5	-45.3	20.2	0.00e+00	0	39	0	3440377856	58	4447
2026-01-04 02:33:26.65	222.87	12.99	-43.6	-45.4	20.1	0.00e+00	0	39	0	3459252224	58	4526
2026-01-04 02:33:29.37	222.72	12.73	-43.8	-45.6	19.9	0.00e+00	0	39	0	3474980864	58	4623
2026-01-04 02:33:32.59	222.55	12.43	-43.9	-45.7	19.7	0.00e+00	0	39	0	3492806656	58	4694
2026-01-04 02:33:35.60	222.39	12.15	-43.9	-45.8	19.7	0.00e+00	0	39	0	3509583872	58	4712
2026-01-04 02:33:38.60	222.24	11.88	-44.1	-45.9	19.5	0.00e+00	0	39	0	3526361088	58	4811
2026-01-04 02:33:41.64	222.09	11.60	-44.1	-46.0	19.6	0.00e+00	0	39	0	3544186880	59	4566
2026-01-04 02:33:45.01	221.92	11.30	-44.5	-46.4	19.2	0.00e+00	0	39	0	3563061248	59	4765
2026-01-04 02:33:47.95	221.78	11.04	-44.4	-46.2	19.3	0.00e+00	0	39	0	3578789888	59	4697
2026-01-04 02:33:51.25	221.63	10.75	-44.4	-46.3	19.2	0.00e+00	0	39	0	3597664256	59	4734
2026-01-04 02:33:53.98	221.50	10.51	-44.5	-46.4	19.2	0.00e+00	0	39	0	3613392896	59	4788
2026-01-04 02:33:57.54	221.34	10.21	-44.5	-46.5	19.0	0.00e+00	0	39	0	3633315840	59	4838
2026-01-04 02:34:00.46	221.21	9.96	-44.6	-46.5	19.0	0.00e+00	0	39	0	3649044480	59	4825
2026-01-04 02:34:03.79	221.07	9.68	-44.6	-46.5	18.9	0.00e+00	0	39	0	3667918848	59	4819
2026-01-04 02:34:06.51	220.95	9.45	-44.7	-46.6	18.8	0.00e+00	0	39	0	3683647488	60	4650
2026-01-04 02:34:09.81	220.81	9.18	-44.8	-46.9	18.6	0.00e+00	0	39	0	3702521856	60	4789
2026-01-04 02:34:12.53	220.70	8.95	-54.7	-66.5	3.8	8.47e-01	0	39	104	3714056192	80	14521
2026-01-04 02:34:15.86	220.57	8.68	-55.2	-67.4	3.8	8.47e-01	0	39	104	3714056192	81	15070
2026-01-04 02:34:18.59	220.46	8.46	-55.1	-67.4	3.8	8.47e-01	0	39	104	3714056192	81	15215
2026-01-04 02:34:21.88	220.33	8.20	-55.3	-67.5	3.8	8.47e-01	0	39	104	3714056192	81	15259
2026-01-04 02:34:24.60	220.22	7.99	-55.3	-67.5	3.8	8.46e-01	0	39	104	3714056192	81	15315
2026-01-04 02:34:27.90	220.10	7.73	-55.4	-67.5	3.8	8.47e-01	0	39	104	3714056192	81	15316
2026-01-04 02:34:30.63	220.00	7.52	-55.3	-67.5	3.8	8.48e-01	0	39	104	3714056192	81	15228
2026-01-04 02:34:33.92	219.88	7.27	-55.0	-67.4	3.8	8.47e-01	0	39	104	3714056192	81	15173
2026-01-04 02:34:36.64	219.78	7.06	-55.1	-67.4	3.8	8.47e-01	0	39	104	3714056192	81	15210
2026-01-04 02:34:39.94	219.67	6.81	-55.0	-67.4	3.8	8.47e-01	0	39	104	3714056192	81	15115
2026-01-04 02:34:42.66	219.57	6.61	-55.0	-67.4	3.8	8.46e-01	0	39	104	3714056192	81	15073
2026-01-04 02:34:45.96	219.46	6.36	-55.0	-67.4	3.8	8.48e-01	0	39	104	3714056192	81	15094
2026-01-04 02:34:48.69	219.37	6.16	-54.9	-67.3	3.8	8.46e-01	0	39	104	3714056192	81	15039
2026-01-04 02:34:51.99	219.26	5.92	-55.0	-67.4	3.8	8.47e-01	0	39	104	3714056192	81	15070
2026-01-04 02:34:54.71	219.17	5.72	-55.0	-67.3	3.8	8.47e-01	0	39	104	3714056192	81	14983
2026-01-04 02:34:58.01	219.07	5.48	-55.0	-67.4	3.8	8.46e-01	0	39	104	3714056192	81	15088
2026-01-04 02:35:00.73	218.98	5.29	-55.0	-67.4	3.8	8.48e-01	0	39	104	3714056192	81	15155
2026-01-04 02:35:04.03	218.88	5.06	-54.9	-67.3	3.8	8.49e-01	0	39	104	3714056192	81	15027

#Closed at: 2026-01-04 02:35:06
#Recorded file [3714 MB]: D:/Data/31040_260104_052229.dat