passes_logs/2026/01/04/T1/T1__20260104_232219_SUOMI_NPP_rec.log

#Pass ID: 20260104_232219_SUOMI NPP
#Satellite: SUOMI NPP
#Configuration: NPP
#almurnet v.1.7.20251203
#Start time: 2026-01-04 23:22:21

#Version: 2.0.20230620
#Station: T1
#Location: 37.570604 lon 55.790049 lat
#TLE: 1 37849U 11061A   26003.96724563  .00000164  00000+0  98899-4 0  9990
#TLE: 2 37849  98.7800 306.1116 0002573  82.3190 277.8279 14.19522066735141

#Time	Az	El	Level	Level2	SNR	BER	BlckErr	Temp	State	Recorded	gain1	gain2
2026-01-04 23:22:21.37	19.16	5.13	-50.8	-67.9	3.8	1.49e+00	0	41	0	0	73	25289
2026-01-04 23:22:24.38	19.24	5.34	-50.8	-67.6	3.8	1.49e+00	0	41	104	0	72	26028
2026-01-04 23:22:27.39	19.32	5.55	-50.8	-67.5	3.8	1.49e+00	0	41	104	0	72	25652
2026-01-04 23:22:30.40	19.40	5.77	-50.7	-67.5	3.8	1.49e+00	0	41	104	0	72	25844
2026-01-04 23:22:33.42	19.48	5.99	-50.8	-67.6	3.8	1.49e+00	0	41	104	0	72	26093
2026-01-04 23:22:36.43	19.56	6.21	-50.8	-67.7	3.8	1.49e+00	0	41	104	0	72	26281
2026-01-04 23:22:39.44	19.64	6.43	-50.8	-67.8	3.8	1.49e+00	0	42	104	0	72	26526
2026-01-04 23:22:42.46	19.72	6.66	-50.8	-67.9	3.8	1.49e+00	0	42	104	0	72	26841
2026-01-04 23:22:45.47	19.81	6.88	-50.8	-67.7	3.8	1.49e+00	0	42	104	0	72	26275
2026-01-04 23:22:48.48	19.89	7.11	-50.8	-66.8	3.8	1.49e+00	0	42	104	0	72	23717
2026-01-04 23:22:51.50	19.98	7.34	-50.7	-65.8	3.8	1.49e+00	0	42	104	0	72	21175
2026-01-04 23:22:54.51	20.06	7.57	-50.7	-65.3	3.9	1.48e+00	0	42	104	0	72	19967
2026-01-04 23:22:57.52	20.15	7.80	-50.7	-65.5	3.8	1.48e+00	0	42	104	0	72	20427
2026-01-04 23:23:00.54	20.24	8.04	-50.7	-65.7	3.8	1.49e+00	0	42	104	0	72	20802
2026-01-04 23:23:03.55	20.33	8.28	-50.7	-65.4	4.0	1.48e+00	0	42	104	0	72	20105
2026-01-04 23:23:06.56	20.43	8.52	-50.7	-64.4	4.1	1.42e+00	0	42	0	0	72	18060
2026-01-04 23:23:09.57	20.52	8.76	-50.5	-62.4	4.9	8.33e-01	0	42	0	3145728	72	14304
2026-01-04 23:23:12.59	20.62	9.01	-50.2	-59.9	6.6	2.45e-01	0	42	0	9437184	72	10759
2026-01-04 23:23:15.90	20.72	9.28	-48.9	-55.0	11.5	7.38e-01	0	42	0	14680064	70	6825
2026-01-04 23:23:18.83	20.82	9.52	-47.7	-52.3	14.1	7.00e-07	0	42	0	19922944	67	5965
2026-01-04 23:23:22.75	20.95	9.85	-47.8	-52.2	14.2	0.00e+00	0	43	0	27262976	66	6266
2026-01-04 23:23:25.54	21.04	10.09	-47.4	-51.3	15.2	0.00e+00	0	43	0	32505856	66	5642
2026-01-04 23:23:29.17	21.16	10.40	-47.2	-51.1	15.3	0.00e+00	0	43	0	38797312	66	5488
2026-01-04 23:23:31.95	21.26	10.64	-47.1	-50.7	15.7	0.00e+00	0	43	0	44040192	66	5279
2026-01-04 23:23:35.25	21.38	10.93	-46.7	-50.1	16.3	0.00e+00	0	43	0	50331648	65	5196
2026-01-04 23:23:37.97	21.48	11.17	-46.6	-49.8	16.6	0.00e+00	0	43	0	55574528	65	5027
2026-01-04 23:23:41.54	21.61	11.49	-46.6	-49.6	16.8	0.00e+00	0	43	0	61865984	65	4919
2026-01-04 23:23:44.26	21.71	11.74	-46.7	-49.6	16.8	0.00e+00	0	43	0	67108864	64	5209
2026-01-04 23:23:47.80	21.84	12.06	-46.7	-49.6	16.9	0.00e+00	0	43	0	74448896	64	5196
2026-01-04 23:23:50.52	21.95	12.32	-46.6	-49.4	17.1	0.00e+00	0	43	0	79691776	64	5063
2026-01-04 23:23:53.82	22.07	12.63	-46.4	-49.2	17.3	0.00e+00	0	43	0	84934656	64	4935
2026-01-04 23:23:56.65	22.19	12.90	-46.4	-49.1	17.4	0.00e+00	0	43	0	90177536	64	4883
2026-01-04 23:24:00.12	22.33	13.23	-46.2	-48.8	17.7	0.00e+00	0	43	0	97517568	64	4710
2026-01-04 23:24:02.85	22.44	13.49	-46.2	-48.7	17.8	0.00e+00	0	43	0	102760448	64	4665
2026-01-04 23:24:06.14	22.58	13.82	-46.3	-48.8	17.7	0.00e+00	0	43	0	108003328	64	4734
2026-01-04 23:24:08.86	22.69	14.09	-46.0	-48.5	17.9	0.00e+00	0	43	0	113246208	64	4593
2026-01-04 23:24:12.25	22.84	14.43	-46.1	-48.7	17.9	0.00e+00	0	43	0	119537664	63	4937
2026-01-04 23:24:14.97	22.96	14.71	-46.1	-48.6	18.0	0.00e+00	0	43	0	124780544	63	4901
2026-01-04 23:24:18.27	23.11	15.05	-46.3	-48.9	17.7	0.00e+00	0	43	0	131072000	63	5078
2026-01-04 23:24:21.12	23.24	15.35	-46.2	-48.8	17.8	0.00e+00	0	43	0	136314880	63	5007
2026-01-04 23:24:24.68	23.41	15.72	-46.4	-49.1	17.5	0.00e+00	0	43	0	143654912	63	5206
2026-01-04 23:24:27.40	23.54	16.02	-46.4	-49.1	17.5	0.00e+00	0	43	0	147849216	63	5188
2026-01-04 23:24:30.63	23.70	16.37	-46.3	-48.9	17.6	0.00e+00	0	43	0	154140672	63	5086
2026-01-04 23:24:33.83	23.86	16.72	-46.3	-49.0	17.6	0.00e+00	0	43	0	160432128	63	5109
2026-01-04 23:24:36.86	24.02	17.06	-46.3	-48.9	17.8	0.00e+00	0	43	0	165675008	63	5056
2026-01-04 23:24:39.87	24.17	17.40	-46.5	-49.1	17.5	0.00e+00	0	43	0	171966464	63	5215
2026-01-04 23:24:42.87	24.33	17.75	-46.6	-49.3	17.3	0.00e+00	0	43	0	177209344	64	5020
2026-01-04 23:24:45.82	24.49	18.09	-46.6	-49.3	17.3	0.00e+00	0	43	0	182452224	64	5017
2026-01-04 23:24:49.13	24.68	18.48	-46.8	-49.7	17.0	0.00e+00	0	43	0	188743680	64	5223
2026-01-04 23:24:52.34	24.86	18.87	-46.6	-49.5	17.1	0.00e+00	0	43	0	195035136	64	5153
2026-01-04 23:24:55.21	25.03	19.22	-46.8	-49.8	16.8	0.00e+00	0	43	0	200278016	64	5338
2026-01-04 23:24:58.49	25.22	19.62	-46.7	-49.8	16.8	0.00e+00	0	43	0	206569472	64	5292
2026-01-04 23:25:01.47	25.41	20.00	-47.0	-50.2	16.5	0.00e+00	0	43	0	211812352	64	5533
2026-01-04 23:25:04.77	25.61	20.42	-47.0	-50.1	16.5	0.00e+00	0	43	0	218103808	64	5528
2026-01-04 23:25:07.49	25.79	20.77	-46.7	-49.6	17.0	0.00e+00	0	43	0	223346688	64	5214
2026-01-04 23:25:10.78	26.00	21.20	-46.4	-49.3	17.4	0.00e+00	0	43	0	229638144	64	4988
2026-01-04 23:25:13.86	26.21	21.61	-46.2	-48.9	17.7	0.00e+00	0	43	0	234881024	64	4773
2026-01-04 23:25:17.14	26.44	22.06	-46.2	-48.7	17.9	0.00e+00	0	43	0	241172480	64	4665
2026-01-04 23:25:19.88	26.63	22.43	-46.3	-48.8	17.8	0.00e+00	0	43	0	246415360	63	5025
2026-01-04 23:25:23.13	26.87	22.89	-46.1	-48.6	18.1	0.00e+00	0	43	0	252706816	63	4889
2026-01-04 23:25:26.00	27.08	23.30	-45.7	-48.1	18.5	0.00e+00	0	43	0	257949696	63	4605
2026-01-04 23:25:29.42	27.34	23.79	-45.7	-48.1	18.5	0.00e+00	0	43	0	264241152	63	4624
2026-01-04 23:25:32.32	27.57	24.22	-45.7	-48.1	18.6	0.00e+00	0	43	0	270532608	63	4611
2026-01-04 23:25:35.47	27.83	24.68	-45.9	-48.3	18.3	0.00e+00	0	43	0	275775488	63	4731
2026-01-04 23:25:38.37	28.07	25.12	-45.8	-48.2	18.4	0.00e+00	0	43	0	281018368	63	4684
2026-01-04 23:25:41.58	28.34	25.62	-45.9	-48.3	18.4	0.00e+00	0	43	0	287309824	63	4716
2026-01-04 23:25:44.45	28.59	26.07	-46.0	-48.4	18.3	0.00e+00	0	43	0	292552704	63	4801
2026-01-04 23:25:47.60	28.88	26.57	-45.9	-48.3	18.3	0.00e+00	0	43	0	298844160	63	4758
2026-01-04 23:25:50.73	29.17	27.08	-45.6	-48.0	18.7	0.00e+00	0	43	0	304087040	63	4558
2026-01-04 23:25:53.82	29.47	27.59	-45.5	-47.9	18.8	0.00e+00	0	43	0	310378496	62	4772
2026-01-04 23:25:57.11	29.80	28.14	-45.7	-48.0	18.7	0.00e+00	0	43	0	316669952	62	4838
2026-01-04 23:25:59.97	30.09	28.63	-45.9	-48.3	18.4	0.00e+00	0	43	0	321912832	62	5010
2026-01-04 23:26:03.25	30.44	29.20	-46.4	-49.0	17.8	0.00e+00	0	44	0	328204288	63	5118
2026-01-04 23:26:06.26	30.76	29.73	-46.6	-49.2	17.5	0.00e+00	0	43	0	333447168	64	4977
2026-01-04 23:26:09.27	31.10	30.27	-47.2	-50.0	16.8	0.00e+00	0	43	0	339738624	65	5142
2026-01-04 23:26:12.28	31.46	30.83	-47.8	-50.8	16.0	0.00e+00	0	43	0	344981504	66	5317
2026-01-04 23:26:15.28	31.82	31.38	-49.1	-52.7	14.4	7.00e-07	0	43	0	350224384	68	5893
2026-01-04 23:26:18.39	32.20	31.97	-49.2	-52.8	14.2	7.00e-07	0	43	0	356515840	69	5624
2026-01-04 23:26:21.26	32.58	32.53	-49.1	-52.6	14.5	0.00e+00	0	43	0	361758720	69	5484
2026-01-04 23:26:24.41	33.00	33.15	-48.5	-51.8	15.3	0.00e+00	0	43	0	368050176	68	5291
2026-01-04 23:26:27.27	33.39	33.72	-47.9	-50.9	16.0	0.00e+00	0	43	0	373293056	67	5074
2026-01-04 23:26:30.42	33.85	34.36	-47.6	-50.5	16.3	0.00e+00	0	43	0	378535936	67	4851
2026-01-04 23:26:33.33	34.28	34.96	-47.6	-50.5	16.4	0.00e+00	0	43	0	384827392	67	4827
2026-01-04 23:26:36.71	34.80	35.67	-48.3	-51.6	15.4	0.00e+00	0	43	0	391118848	67	5470
2026-01-04 23:26:39.44	35.24	36.25	-48.8	-52.1	14.9	0.00e+00	0	43	0	396361728	68	5493
2026-01-04 23:26:42.74	35.80	36.97	-48.0	-50.9	16.1	0.00e+00	0	43	0	401604608	68	4787
2026-01-04 23:26:45.46	36.27	37.57	-48.1	-51.2	15.7	0.00e+00	0	44	0	406847488	67	5269
2026-01-04 23:26:48.75	36.87	38.31	-48.9	-52.3	14.9	7.00e-07	0	43	0	413138944	69	5308
2026-01-04 23:26:51.47	37.38	38.93	-48.1	-51.2	15.9	0.00e+00	0	43	0	418381824	68	4929
2026-01-04 23:26:54.77	38.03	39.70	-48.6	-51.9	15.2	0.00e+00	0	43	0	424673280	68	5364
2026-01-04 23:26:57.57	38.61	40.35	-48.5	-51.7	15.4	0.00e+00	0	43	0	429916160	68	5265
2026-01-04 23:27:00.86	39.31	41.14	-48.0	-51.0	16.0	0.00e+00	0	44	0	436207616	68	4837
2026-01-04 23:27:03.71	39.95	41.83	-47.3	-50.0	16.8	0.00e+00	0	43	0	441450496	66	4867
2026-01-04 23:27:06.86	40.69	42.61	-47.9	-50.8	16.1	0.00e+00	0	44	0	447741952	66	5308
2026-01-04 23:27:09.72	41.40	43.32	-48.9	-52.4	14.8	7.00e-07	0	43	0	452984832	68	5658
2026-01-04 23:27:12.88	42.21	44.12	-48.5	-51.7	15.4	0.00e+00	0	44	0	458227712	68	5234
2026-01-04 23:27:15.74	42.98	44.85	-48.3	-51.4	15.7	0.00e+00	0	43	0	463470592	68	5051
2026-01-04 23:27:18.89	43.88	45.67	-48.1	-51.1	16.0	0.00e+00	0	44	0	469762048	68	4894
2026-01-04 23:27:21.75	44.73	46.41	-47.5	-50.3	16.6	0.00e+00	0	44	0	475004928	66	5031
2026-01-04 23:27:25.28	45.83	47.34	-47.1	-49.7	17.1	0.00e+00	0	43	0	482344960	65	4981
2026-01-04 23:27:28.00	46.73	48.07	-47.7	-50.6	16.4	0.00e+00	0	43	0	486539264	65	5466
2026-01-04 23:27:31.29	47.88	48.95	-47.3	-50.1	16.9	0.00e+00	0	43	0	492830720	66	4873
2026-01-04 23:27:34.02	48.88	49.68	-46.6	-49.1	17.6	0.00e+00	0	43	0	498073600	65	4625
2026-01-04 23:27:37.31	50.15	50.57	-46.5	-48.9	17.8	0.00e+00	0	43	0	504365056	64	4809
2026-01-04 23:27:40.03	51.26	51.31	-47.2	-49.9	17.0	0.00e+00	0	43	0	509607936	65	5077
2026-01-04 23:27:43.33	52.68	52.20	-46.4	-48.9	17.9	0.00e+00	0	44	0	515899392	64	4770
2026-01-04 23:27:46.05	53.92	52.94	-47.1	-49.8	17.0	0.00e+00	0	44	0	521142272	65	5016
2026-01-04 23:27:49.34	55.50	53.82	-46.3	-48.7	18.2	0.00e+00	0	44	0	527433728	63	4929
2026-01-04 23:27:52.06	56.88	54.55	-46.4	-48.9	18.0	0.00e+00	0	43	0	531628032	63	5070
2026-01-04 23:27:55.35	58.64	55.42	-45.8	-48.1	18.7	0.00e+00	0	43	0	537919488	62	4900
2026-01-04 23:27:58.16	60.23	56.15	-47.0	-49.8	17.1	0.00e+00	0	44	0	543162368	64	5314
2026-01-04 23:28:01.54	62.26	57.01	-45.8	-48.1	18.6	0.00e+00	0	43	0	549453824	63	4635
2026-01-04 23:28:04.39	64.08	57.72	-46.4	-48.9	18.0	0.00e+00	0	43	0	554696704	63	5046
2026-01-04 23:28:07.85	66.41	58.56	-46.3	-48.7	18.0	0.00e+00	0	43	0	562036736	64	4667
2026-01-04 23:28:10.57	68.34	59.19	-46.4	-48.8	18.0	0.00e+00	0	43	0	567279616	63	5005
2026-01-04 23:28:13.86	70.81	59.92	-46.6	-49.2	17.6	0.00e+00	0	43	0	572522496	64	4975
2026-01-04 23:28:16.59	72.96	60.49	-46.6	-49.1	17.6	0.00e+00	0	44	0	577765376	65	4648
2026-01-04 23:28:19.88	75.68	61.14	-45.6	-47.9	18.9	0.00e+00	0	43	0	584056832	63	4502
2026-01-04 23:28:22.60	78.03	61.64	-45.9	-48.3	18.5	0.00e+00	0	43	0	589299712	62	4998
2026-01-04 23:28:26.04	81.14	62.22	-45.6	-47.8	18.9	0.00e+00	0	44	0	595591168	62	4751
2026-01-04 23:28:28.76	83.70	62.62	-45.0	-47.2	19.5	0.00e+00	0	43	0	600834048	61	4701
2026-01-04 23:28:32.05	86.90	63.04	-45.7	-48.0	18.7	0.00e+00	0	44	0	607125504	62	4854
2026-01-04 23:28:34.87	89.73	63.35	-46.0	-48.4	18.3	0.00e+00	0	44	0	612368384	62	5098
2026-01-04 23:28:38.02	92.97	63.62	-45.2	-47.4	19.3	0.00e+00	0	43	0	618659840	61	4777
2026-01-04 23:28:40.89	95.98	63.81	-47.4	-50.2	16.7	0.00e+00	0	44	0	623902720	65	5224
2026-01-04 23:28:44.11	99.40	63.94	-46.3	-48.9	17.9	0.00e+00	0	43	0	629145600	64	4776
2026-01-04 23:28:46.98	102.48	63.98	-44.8	-47.0	19.7	0.00e+00	0	44	0	635437056	61	4561
2026-01-04 23:28:50.03	105.75	63.96	-44.4	-46.4	20.1	0.00e+00	0	43	0	640679936	60	4543
2026-01-04 23:28:53.03	108.95	63.87	-44.5	-46.6	19.9	0.00e+00	0	43	0	645922816	60	4636
2026-01-04 23:28:56.04	112.13	63.70	-44.9	-47.1	19.5	0.00e+00	0	43	0	652214272	60	4896
2026-01-04 23:28:59.05	115.25	63.46	-46.2	-48.7	18.2	0.00e+00	0	43	0	657457152	63	4950
2026-01-04 23:29:02.17	118.41	63.14	-45.3	-47.5	19.3	0.00e+00	0	43	0	663748608	61	4842
2026-01-04 23:29:05.05	121.25	62.79	-45.0	-47.1	19.5	0.00e+00	0	44	0	668991488	61	4650
2026-01-04 23:29:08.20	124.25	62.34	-46.7	-49.3	17.5	0.00e+00	0	44	0	675282944	64	5020
2026-01-04 23:29:11.07	126.89	61.88	-44.6	-46.7	20.0	0.00e+00	0	44	0	680525824	60	4662
2026-01-04 23:29:14.30	129.73	61.31	-45.2	-47.5	19.3	0.00e+00	0	44	0	685768704	62	4547
2026-01-04 23:29:17.21	132.18	60.75	-44.6	-46.7	19.9	0.00e+00	0	43	0	692060160	61	4406
2026-01-04 23:29:20.42	134.76	60.09	-45.6	-47.8	18.9	0.00e+00	0	43	0	697303040	62	4759
2026-01-04 23:29:23.28	136.94	59.46	-45.7	-48.0	18.7	0.00e+00	0	43	0	703594496	62	4869
2026-01-04 23:29:26.65	139.38	58.68	-44.0	-45.9	20.4	0.00e+00	0	43	0	709885952	59	4545
2026-01-04 23:29:29.37	141.25	58.03	-43.7	-45.7	20.7	0.00e+00	0	43	0	714080256	59	4401
2026-01-04 23:29:32.66	143.38	57.22	-43.7	-45.8	20.6	0.00e+00	0	44	0	720371712	59	4449
2026-01-04 23:29:35.38	145.06	56.53	-45.1	-47.3	19.4	0.00e+00	0	43	0	725614592	61	4731
2026-01-04 23:29:38.78	147.03	55.65	-44.5	-46.6	19.9	0.00e+00	0	44	0	731906048	60	4617
2026-01-04 23:29:41.49	148.52	54.94	-44.1	-46.1	20.2	0.00e+00	0	44	0	737148928	59	4599
2026-01-04 23:29:44.78	150.23	54.06	-46.2	-48.6	18.3	0.00e+00	0	44	0	743440384	62	5186
2026-01-04 23:29:47.57	151.61	53.31	-45.6	-47.8	18.9	0.00e+00	0	44	0	748683264	62	4744
2026-01-04 23:29:50.90	153.15	52.41	-46.6	-49.1	17.8	0.00e+00	0	44	0	754974720	64	4873
2026-01-04 23:29:53.83	154.44	51.61	-47.3	-50.0	16.9	0.00e+00	0	43	0	760217600	65	5109
2026-01-04 23:29:57.58	155.99	50.59	-46.2	-48.6	18.2	0.00e+00	0	44	0	767557632	63	4907
2026-01-04 23:30:00.38	157.08	49.83	-46.3	-48.7	18.1	0.00e+00	0	44	0	772800512	63	4967
2026-01-04 23:30:04.02	158.42	48.84	-46.8	-49.4	17.4	0.00e+00	0	44	0	779091968	64	5077
2026-01-04 23:30:06.88	159.42	48.07	-45.1	-47.3	19.3	0.00e+00	0	44	0	784334848	62	4476
2026-01-04 23:30:10.24	160.53	47.18	-48.1	-51.2	16.0	0.00e+00	0	44	0	790626304	66	5545
2026-01-04 23:30:12.96	161.38	46.46	-46.6	-49.1	17.7	0.00e+00	0	44	0	795869184	65	4600
2026-01-04 23:30:16.26	162.36	45.59	-47.3	-50.0	16.8	0.00e+00	0	44	0	802160640	65	5132
2026-01-04 23:30:18.99	163.14	44.88	-45.4	-47.6	19.1	0.00e+00	0	44	0	807403520	62	4637
2026-01-04 23:30:22.28	164.03	44.04	-46.8	-49.4	17.4	0.00e+00	0	43	0	813694976	64	5082
2026-01-04 23:30:25.00	164.73	43.35	-50.6	-55.7	11.4	2.09e-04	0	44	0	818937856	71	7003
2026-01-04 23:30:28.30	165.55	42.52	-45.9	-48.2	18.6	0.00e+00	0	44	0	825229312	63	4665
2026-01-04 23:30:31.02	166.19	41.85	-46.3	-48.7	18.1	0.00e+00	0	43	0	830472192	63	4950
2026-01-04 23:30:34.32	166.93	41.04	-46.0	-48.5	18.2	0.00e+00	0	44	0	835715072	64	4578
2026-01-04 23:30:37.34	167.58	40.32	-45.8	-48.1	18.6	0.00e+00	0	44	0	842006528	62	4910
2026-01-04 23:30:40.64	168.26	39.54	-47.3	-50.1	16.7	0.00e+00	0	44	0	848297984	65	5204
2026-01-04 23:30:43.46	168.81	38.88	-47.3	-50.2	16.8	0.00e+00	0	44	0	853540864	66	4934
2026-01-04 23:30:46.61	169.41	38.16	-45.5	-47.7	19.0	0.00e+00	0	43	0	858783744	62	4698
2026-01-04 23:30:50.10	170.04	37.37	-45.8	-48.2	18.5	0.00e+00	0	44	0	866123776	62	4957
2026-01-04 23:30:52.83	170.51	36.77	-47.0	-49.7	17.2	0.00e+00	0	43	0	871366656	64	5228
2026-01-04 23:30:56.15	171.06	36.04	-46.7	-49.3	17.5	0.00e+00	0	43	0	877658112	65	4706
2026-01-04 23:30:58.88	171.50	35.46	-46.2	-48.6	18.2	0.00e+00	0	43	0	881852416	63	4884
2026-01-04 23:31:02.18	172.00	34.76	-45.5	-47.9	18.9	0.00e+00	0	43	0	888143872	63	4495
2026-01-04 23:31:05.22	172.45	34.14	-47.5	-50.4	16.4	0.00e+00	0	43	0	894435328	65	5388
2026-01-04 23:31:09.04	173.00	33.36	-49.3	-53.0	14.0	2.20e-06	0	44	0	901775360	69	5737
2026-01-04 23:31:11.88	173.38	32.79	-48.4	-51.5	15.4	0.00e+00	0	44	0	907018240	68	5157
2026-01-04 23:31:15.63	173.87	32.06	-46.0	-48.3	18.3	0.00e+00	0	44	0	913309696	64	4489
2026-01-04 23:31:18.60	174.25	31.49	-45.6	-47.8	18.8	0.00e+00	0	43	0	919601152	63	4482
2026-01-04 23:31:22.39	174.71	30.78	-46.9	-49.5	17.3	0.00e+00	0	43	0	925892608	64	5131
2026-01-04 23:31:25.14	175.03	30.27	-47.7	-50.6	16.2	0.00e+00	0	43	0	931135488	65	5514
2026-01-04 23:31:28.79	175.44	29.61	-48.3	-51.5	15.4	0.00e+00	0	43	0	938475520	67	5427
2026-01-04 23:31:31.51	175.74	29.13	-48.1	-51.2	15.5	0.00e+00	0	43	0	943718400	67	5274
2026-01-04 23:31:34.87	176.09	28.54	-47.7	-50.6	16.3	0.00e+00	0	44	0	950009856	67	4884
2026-01-04 23:31:37.59	176.37	28.07	-46.4	-48.8	17.8	0.00e+00	0	44	0	955252736	64	4752
2026-01-04 23:31:40.89	176.70	27.52	-45.0	-47.2	19.4	0.00e+00	0	44	0	961544192	62	4392
2026-01-04 23:31:43.61	176.96	27.06	-45.1	-47.3	19.3	0.00e+00	0	44	0	965738496	61	4726
2026-01-04 23:31:46.90	177.27	26.53	-46.0	-48.4	18.3	0.00e+00	0	44	0	972029952	62	5079
2026-01-04 23:31:49.62	177.52	26.09	-46.3	-48.9	17.8	0.00e+00	0	44	0	977272832	63	5058
2026-01-04 23:31:53.25	177.84	25.52	-46.2	-48.6	18.1	0.00e+00	0	44	0	984612864	63	4921
2026-01-04 23:31:56.01	178.07	25.09	-46.4	-48.9	17.8	0.00e+00	0	44	0	989855744	63	5091
2026-01-04 23:31:59.76	178.38	24.52	-46.6	-49.2	17.5	0.00e+00	0	44	0	996147200	64	4978
2026-01-04 23:32:02.59	178.61	24.09	-46.4	-49.0	17.7	0.00e+00	0	44	0	1001390080	64	4828
2026-01-04 23:32:06.25	178.89	23.55	-45.7	-48.1	18.5	0.00e+00	0	44	0	1008730112	63	4647
2026-01-04 23:32:08.97	179.10	23.16	-45.4	-47.7	18.9	0.00e+00	0	44	0	1013972992	62	4683
2026-01-04 23:32:12.26	179.34	22.69	-45.4	-47.7	18.9	0.00e+00	0	44	0	1020264448	62	4701
2026-01-04 23:32:15.13	179.55	22.29	-45.2	-47.5	19.2	0.00e+00	0	44	0	1025507328	62	4547
2026-01-04 23:32:18.28	179.77	21.86	-44.9	-47.1	19.4	0.00e+00	0	43	0	1030750208	61	4620
2026-01-04 23:32:21.14	179.97	21.47	-45.2	-47.5	19.1	0.00e+00	0	44	0	1037041664	61	4850
2026-01-04 23:32:24.33	180.18	21.04	-45.8	-48.3	18.4	0.00e+00	0	44	0	1042284544	62	4992
2026-01-04 23:32:27.21	180.37	20.66	-46.0	-48.4	18.2	0.00e+00	0	44	0	1047527424	62	5100
2026-01-04 23:32:30.74	180.59	20.20	-46.1	-48.6	18.1	0.00e+00	0	43	0	1054867456	63	4876
2026-01-04 23:32:33.46	180.76	19.85	-45.7	-48.2	18.5	0.00e+00	0	44	0	1060110336	63	4657
2026-01-04 23:32:36.76	180.96	19.44	-45.4	-47.7	18.9	0.00e+00	0	43	0	1065353216	62	4677
2026-01-04 23:32:39.52	181.12	19.10	-45.4	-47.7	18.9	0.00e+00	0	44	0	1070596096	62	4698
2026-01-04 23:32:42.82	181.31	18.69	-45.6	-48.0	18.6	0.00e+00	0	44	0	1076887552	62	4826
2026-01-04 23:32:45.54	181.46	18.36	-45.9	-48.3	18.2	0.00e+00	0	43	0	1082130432	62	5037
2026-01-04 23:32:48.83	181.65	17.97	-45.8	-48.2	18.4	0.00e+00	0	44	0	1088421888	62	4963
2026-01-04 23:32:51.55	181.79	17.65	-45.8	-48.2	18.4	0.00e+00	0	43	0	1093664768	62	4967
2026-01-04 23:32:54.85	181.97	17.27	-45.5	-47.8	18.8	0.00e+00	0	44	0	1099956224	62	4751
2026-01-04 23:32:57.81	182.12	16.94	-45.5	-47.8	18.8	0.00e+00	0	44	0	1105199104	62	4711
2026-01-04 23:33:01.58	182.31	16.51	-45.6	-48.0	18.1	0.00e+00	0	44	0	1112539136	62	4847
2026-01-04 23:33:04.36	182.45	16.20	-45.7	-48.2	18.4	0.00e+00	0	44	0	1117782016	62	4942
2026-01-04 23:33:08.11	182.63	15.79	-45.9	-48.3	18.3	0.00e+00	0	44	0	1124073472	62	5026
2026-01-04 23:33:11.09	182.77	15.47	-46.2	-48.8	17.8	0.00e+00	0	44	0	1130364928	63	5025
2026-01-04 23:33:14.25	182.91	15.14	-46.4	-49.1	17.5	0.00e+00	0	44	0	1135607808	63	5205
2026-01-04 23:33:17.13	183.04	14.84	-46.6	-49.3	17.3	0.00e+00	0	43	0	1141899264	63	5339
2026-01-04 23:33:20.76	183.20	14.46	-47.0	-49.9	16.7	0.00e+00	0	44	0	1148190720	64	5373
2026-01-04 23:33:23.52	183.32	14.18	-47.1	-50.1	16.4	0.00e+00	0	44	0	1153433600	65	5218
2026-01-04 23:33:27.20	183.48	13.81	-47.4	-50.6	16.0	0.00e+00	0	44	0	1160773632	65	5522
2026-01-04 23:33:30.24	183.61	13.51	-47.8	-51.3	15.3	0.00e+00	0	44	0	1166016512	66	5634
2026-01-04 23:33:33.31	183.73	13.20	-48.0	-51.5	15.1	0.00e+00	0	44	0	1172307968	66	5773
2026-01-04 23:33:36.61	183.86	12.88	-48.2	-51.8	14.8	0.00e+00	0	44	0	1177550848	67	5606
2026-01-04 23:33:39.47	183.98	12.61	-48.1	-51.7	14.9	0.00e+00	0	44	0	1183842304	67	5534
2026-01-04 23:33:42.62	184.10	12.31	-47.8	-51.1	15.5	0.00e+00	0	44	0	1189085184	67	5209
2026-01-04 23:33:46.11	184.23	11.98	-47.7	-50.9	15.6	0.00e+00	0	44	0	1195376640	67	5087
2026-01-04 23:33:48.84	184.33	11.73	-47.4	-50.6	15.8	0.00e+00	0	44	0	1200619520	66	5189
2026-01-04 23:33:52.16	184.45	11.43	-47.1	-50.1	16.3	0.00e+00	0	44	0	1206910976	66	4922
2026-01-04 23:33:54.89	184.55	11.18	-46.9	-49.8	16.7	0.00e+00	0	44	0	1212153856	65	5010
2026-01-04 23:33:58.18	184.67	10.89	-46.6	-49.4	16.9	0.00e+00	0	44	0	1218445312	65	4800
2026-01-04 23:34:00.96	184.76	10.64	-46.5	-49.3	17.0	0.00e+00	0	44	0	1223688192	64	5037
2026-01-04 23:34:04.25	184.88	10.35	-46.3	-49.1	17.2	0.00e+00	0	44	0	1229979648	64	4923
2026-01-04 23:34:06.98	184.97	10.11	-46.3	-49.1	17.2	0.00e+00	0	44	0	1235222528	64	4924
2026-01-04 23:34:10.27	185.08	9.83	-46.3	-49.2	17.2	0.00e+00	0	44	0	1241513984	64	4937
2026-01-04 23:34:13.17	185.17	9.59	-46.3	-49.1	17.2	0.00e+00	0	44	0	1246756864	64	4910
2026-01-04 23:34:16.64	185.28	9.29	-46.3	-49.1	17.2	0.00e+00	0	44	0	1253048320	64	4901
2026-01-04 23:34:19.36	185.37	9.07	-46.2	-48.9	17.3	0.00e+00	0	44	0	1258291200	64	4812
2026-01-04 23:34:22.65	185.47	8.80	-52.4	-68.0	3.8	1.49e+00	0	44	104	1261436928	75	22854
2026-01-04 23:34:25.43	185.55	8.57	-53.0	-68.3	3.8	1.49e+00	0	44	104	1261436928	76	22501
2026-01-04 23:34:28.85	185.66	8.29	-53.2	-68.4	3.8	1.49e+00	0	44	104	1261436928	77	21336
2026-01-04 23:34:31.58	185.74	8.07	-53.2	-68.4	3.8	1.49e+00	0	44	104	1261436928	77	21367
2026-01-04 23:34:34.88	185.83	7.81	-53.3	-68.5	3.8	1.49e+00	0	44	104	1261436928	77	21512
2026-01-04 23:34:37.60	185.91	7.60	-53.2	-68.4	3.8	1.49e+00	0	44	104	1261436928	77	21403
2026-01-04 23:34:40.90	186.00	7.34	-53.3	-68.4	3.8	1.49e+00	0	44	104	1261436928	77	21430
2026-01-04 23:34:43.63	186.08	7.13	-53.3	-68.4	3.8	1.49e+00	0	44	104	1261436928	77	21400
2026-01-04 23:34:46.93	186.17	6.88	-53.1	-68.4	3.8	1.49e+00	0	44	104	1261436928	77	21446
2026-01-04 23:34:49.65	186.24	6.67	-52.9	-68.4	3.8	1.49e+00	0	44	104	1261436928	77	21319
2026-01-04 23:34:52.95	186.33	6.43	-52.9	-68.4	3.8	1.49e+00	0	44	104	1261436928	77	21337
2026-01-04 23:34:55.68	186.40	6.22	-53.0	-68.4	3.8	1.49e+00	0	44	104	1261436928	77	21379
2026-01-04 23:34:58.98	186.49	5.98	-52.9	-68.4	3.8	1.49e+00	0	44	104	1261436928	77	21409
2026-01-04 23:35:01.71	186.56	5.78	-52.9	-68.4	3.8	1.49e+00	0	44	104	1261436928	77	21348
2026-01-04 23:35:05.01	186.64	5.54	-52.9	-68.4	3.8	1.49e+00	0	44	104	1261436928	77	21386
2026-01-04 23:35:07.73	186.71	5.34	-52.9	-68.4	3.8	1.49e+00	0	44	104	1261436928	77	21400
2026-01-04 23:35:11.03	186.79	5.11	-52.9	-68.4	3.8	1.49e+00	0	44	104	1261436928	77	21401

#Closed at: 2026-01-04 23:35:13
#Recorded file [1261 MB]: D:/Data/31040_260105_022221.dat