passes_logs/2026/01/04/T1/T1__20260104_130744_AQUA_rec.log

#Pass ID: 20260104_130744_AQUA
#Satellite: AQUA
#Configuration: AQUA
#almurnet v.1.7.20251203
#Start time: 2026-01-04 13:07:45

#Version: 2.0.20230620
#Station: T1
#Location: 37.570604 lon 55.790049 lat
#TLE: 1 27424U 02022A   26003.93831471  .00001925  00000+0  39553-3 0  9996
#TLE: 2 27424  98.4067 330.1809 0002002  92.1714 343.8415 14.61796291259276

#Time	Az	El	Level	Level2	SNR	BER	BlckErr	Temp	State	Recorded	gain1	gain2
2026-01-04 13:07:45.10	213.34	5.07	-51.0	-75.4	3.8	7.45e-01	0	36	0	0	73	60213
2026-01-04 13:07:48.11	213.65	5.25	-50.9	-75.3	3.8	7.46e-01	0	36	104	0	73	59498
2026-01-04 13:07:51.12	213.97	5.43	-50.9	-75.3	3.8	7.45e-01	0	37	104	0	73	59905
2026-01-04 13:07:54.13	214.29	5.62	-51.1	-75.3	3.8	7.45e-01	0	37	104	0	73	59715
2026-01-04 13:07:57.14	214.61	5.80	-51.2	-75.5	3.8	7.47e-01	0	37	104	0	73	61090
2026-01-04 13:08:00.15	214.94	5.99	-50.9	-75.3	3.8	7.47e-01	0	37	104	0	73	59378
2026-01-04 13:08:03.17	215.27	6.18	-50.9	-74.8	3.8	7.43e-01	0	37	104	0	73	56064
2026-01-04 13:08:06.18	215.61	6.37	-50.9	-74.5	3.8	7.48e-01	0	37	104	0	73	54619
2026-01-04 13:08:09.19	215.95	6.56	-51.2	-73.7	3.8	7.46e-01	0	37	104	0	73	49321
2026-01-04 13:08:12.21	216.29	6.75	-50.8	-74.8	3.8	7.46e-01	0	37	104	0	73	55979
2026-01-04 13:08:15.22	216.64	6.94	-51.1	-74.9	3.8	7.46e-01	0	37	104	0	73	56895
2026-01-04 13:08:18.23	217.00	7.13	-50.6	-73.9	3.8	7.46e-01	0	38	104	0	73	50849
2026-01-04 13:08:21.24	217.36	7.32	-51.4	-74.6	3.8	7.45e-01	0	38	104	0	73	55001
2026-01-04 13:08:24.25	217.72	7.51	-50.7	-72.2	4.1	7.38e-01	0	38	104	0	73	41477
2026-01-04 13:08:27.27	218.09	7.71	-51.4	-73.2	3.9	7.46e-01	0	38	104	0	73	46828
2026-01-04 13:08:30.28	218.47	7.90	-51.0	-72.1	3.9	7.39e-01	0	38	104	0	73	41220
2026-01-04 13:08:33.29	218.85	8.09	-51.4	-71.1	4.5	7.27e-01	0	38	104	0	73	36613
2026-01-04 13:08:36.31	219.24	8.29	-50.8	-61.8	12.3	6.13e-01	0	38	0	2621440	73	12538
2026-01-04 13:08:39.31	219.63	8.48	-48.9	-54.9	19.2	6.06e-01	0	38	0	7864320	69	7174
2026-01-04 13:08:42.33	220.02	8.68	-49.4	-55.1	19.1	6.09e-01	0	38	0	13631488	69	7350
2026-01-04 13:08:45.34	220.43	8.88	-50.2	-59.8	14.4	6.08e-01	0	38	0	19398656	72	10615
2026-01-04 13:08:48.35	220.84	9.08	-51.6	-64.7	9.4	6.32e-01	0	38	0	25165824	74	16601
2026-01-04 13:08:51.39	221.25	9.28	-51.7	-67.7	6.2	6.81e-01	0	38	0	30408704	74	23575
2026-01-04 13:08:54.38	221.67	9.47	-50.7	-66.6	7.4	6.53e-01	0	38	0	35651584	72	23204
2026-01-04 13:08:57.53	222.12	9.68	-51.2	-66.0	8.1	6.44e-01	0	38	0	41418752	74	19228
2026-01-04 13:09:00.40	222.53	9.87	-51.8	-66.7	7.5	6.56e-01	0	38	0	46661632	75	19645
2026-01-04 13:09:03.55	222.99	10.08	-52.9	-66.7	7.4	6.60e-01	0	38	0	52428800	76	18711
2026-01-04 13:09:06.49	223.43	10.28	-53.6	-61.2	12.4	6.12e-01	0	38	0	58195968	79	8287
2026-01-04 13:09:09.64	223.90	10.49	-52.6	-57.9	16.9	6.06e-01	0	38	0	63963136	76	6724
2026-01-04 13:09:12.61	224.35	10.69	-51.7	-56.0	19.0	6.07e-01	0	38	0	69730304	75	5757
2026-01-04 13:09:16.00	224.88	10.91	-50.6	-54.1	20.7	6.08e-01	0	38	0	76021760	73	5166
2026-01-04 13:09:18.92	225.33	11.11	-49.5	-52.5	21.9	6.07e-01	0	39	0	81264640	71	4858
2026-01-04 13:09:22.29	225.87	11.33	-49.3	-52.3	22.2	6.07e-01	0	39	0	87556096	70	5040
2026-01-04 13:09:25.01	226.31	11.52	-49.2	-52.2	22.4	6.08e-01	0	39	0	92798976	70	4931
2026-01-04 13:09:28.31	226.85	11.74	-49.1	-51.9	22.5	6.08e-01	0	39	0	99090432	70	4778
2026-01-04 13:09:31.11	227.32	11.92	-48.9	-51.7	22.6	6.06e-01	0	39	0	104333312	69	4980
2026-01-04 13:09:34.26	227.85	12.14	-48.8	-51.6	22.8	6.07e-01	0	39	0	110100480	69	4881
2026-01-04 13:09:37.12	228.34	12.33	-49.1	-51.9	22.5	6.07e-01	0	39	0	115343360	69	5047
2026-01-04 13:09:40.28	228.89	12.54	-48.7	-51.5	22.9	6.07e-01	0	39	0	121634816	69	4822
2026-01-04 13:09:43.22	229.41	12.74	-48.8	-51.5	22.8	6.06e-01	0	38	0	126877696	69	4859
2026-01-04 13:09:46.52	230.00	12.96	-48.8	-51.5	22.9	6.08e-01	0	39	0	133169152	69	4862
2026-01-04 13:09:49.43	230.53	13.15	-48.8	-51.6	22.8	6.06e-01	0	39	0	138412032	69	4894
2026-01-04 13:09:53.19	231.22	13.40	-48.7	-51.5	22.9	6.07e-01	0	39	0	145752064	69	4850
2026-01-04 13:09:55.99	231.74	13.59	-48.7	-51.5	23.0	6.06e-01	0	39	0	150994944	69	4824
2026-01-04 13:09:59.29	232.37	13.80	-48.9	-51.7	23.0	6.08e-01	0	39	0	157286400	69	4941
2026-01-04 13:10:02.21	232.93	14.00	-49.1	-51.8	23.0	6.07e-01	0	39	0	162529280	69	5016
2026-01-04 13:10:05.22	233.52	14.19	-48.9	-51.6	23.1	6.06e-01	0	39	0	168296448	69	4872
2026-01-04 13:10:08.28	234.13	14.39	-48.8	-51.6	23.1	6.07e-01	0	39	0	174063616	69	4876
2026-01-04 13:10:11.25	234.73	14.59	-48.8	-51.6	22.9	6.09e-01	0	39	0	179830784	69	4884
2026-01-04 13:10:14.49	235.39	14.80	-48.7	-51.4	23.0	6.04e-01	0	39	0	185597952	69	4810
2026-01-04 13:10:17.35	235.98	14.98	-48.4	-51.2	23.3	6.06e-01	0	39	0	190840832	68	4934
2026-01-04 13:10:20.50	236.64	15.18	-48.3	-51.1	23.2	6.08e-01	0	39	0	197132288	68	4877
2026-01-04 13:10:23.37	237.25	15.36	-48.5	-51.2	23.2	6.07e-01	0	39	0	202375168	68	4934
2026-01-04 13:10:26.54	237.93	15.56	-48.7	-51.3	23.2	6.07e-01	0	39	0	208142336	68	5034
2026-01-04 13:10:29.40	238.55	15.74	-48.4	-51.0	23.3	6.04e-01	0	39	0	213385216	68	4866
2026-01-04 13:10:32.55	239.24	15.93	-48.4	-51.1	23.3	6.08e-01	0	39	0	219676672	68	4914
2026-01-04 13:10:35.42	239.89	16.10	-48.4	-51.0	23.3	6.07e-01	0	39	0	224919552	68	4870
2026-01-04 13:10:38.57	240.60	16.29	-48.5	-51.1	23.3	6.06e-01	0	39	0	230686720	68	4924
2026-01-04 13:10:41.44	241.26	16.46	-48.4	-51.1	23.4	6.08e-01	0	39	0	235929600	68	4873
2026-01-04 13:10:44.59	241.99	16.65	-48.4	-51.1	23.3	6.05e-01	0	39	0	242221056	68	4908
2026-01-04 13:10:47.46	242.66	16.81	-48.3	-50.9	23.5	6.05e-01	0	39	0	247463936	68	4813
2026-01-04 13:10:50.61	243.41	16.99	-48.4	-51.1	23.3	6.06e-01	0	39	0	253231104	68	4874
2026-01-04 13:10:53.85	244.19	17.17	-48.5	-51.1	23.2	6.08e-01	0	39	0	259522560	68	4915
2026-01-04 13:10:56.71	244.88	17.33	-48.3	-50.9	23.4	6.07e-01	0	39	0	264765440	68	4778
2026-01-04 13:10:59.86	245.66	17.50	-48.3	-51.0	23.3	6.06e-01	0	39	0	270532608	68	4851
2026-01-04 13:11:02.80	246.39	17.65	-48.2	-51.1	23.2	6.08e-01	0	39	0	276299776	68	4886
2026-01-04 13:11:06.05	247.21	17.82	-48.2	-50.9	23.4	6.06e-01	0	39	0	282591232	68	4778
2026-01-04 13:11:08.92	247.93	17.96	-48.3	-51.0	23.4	6.06e-01	0	39	0	287834112	68	4863
2026-01-04 13:11:12.06	248.74	18.12	-48.7	-51.3	23.4	6.05e-01	0	39	0	293601280	68	5029
2026-01-04 13:11:15.03	249.51	18.26	-48.6	-51.4	23.3	6.06e-01	0	39	0	299368448	68	5056
2026-01-04 13:11:18.04	250.30	18.40	-48.6	-51.2	23.4	6.06e-01	0	39	0	304611328	68	4966
2026-01-04 13:11:21.05	251.09	18.53	-48.5	-51.1	23.4	6.07e-01	0	39	0	310378496	68	4921
2026-01-04 13:11:24.04	251.89	18.66	-48.5	-51.2	23.3	6.06e-01	0	39	0	316145664	68	4958
2026-01-04 13:11:27.29	252.77	18.80	-48.5	-51.2	23.3	6.07e-01	0	39	0	321912832	68	4953
2026-01-04 13:11:30.22	253.56	18.91	-48.4	-51.1	23.3	6.06e-01	0	39	0	327680000	68	4907
2026-01-04 13:11:33.79	254.54	19.05	-48.4	-51.1	23.4	6.08e-01	0	39	0	334495744	68	4897
2026-01-04 13:11:36.51	255.29	19.15	-48.7	-51.4	23.4	6.07e-01	0	39	0	339214336	68	5055
2026-01-04 13:11:39.81	256.20	19.26	-48.7	-51.3	23.3	6.08e-01	0	39	0	345505792	68	5037
2026-01-04 13:11:42.53	256.96	19.35	-48.6	-51.3	23.2	6.08e-01	0	39	0	350748672	68	5024
2026-01-04 13:11:45.77	257.88	19.45	-48.6	-51.3	23.3	6.06e-01	0	39	0	357040128	68	5010
2026-01-04 13:11:49.16	258.84	19.55	-48.5	-51.2	23.3	6.06e-01	0	39	0	363331584	68	4956
2026-01-04 13:11:52.14	259.69	19.63	-48.4	-51.1	23.4	6.07e-01	0	39	0	368574464	68	4917
2026-01-04 13:11:55.50	260.65	19.72	-48.5	-51.3	23.1	6.06e-01	0	39	0	374865920	68	5012
2026-01-04 13:11:58.38	261.48	19.79	-48.4	-51.1	23.4	6.08e-01	0	39	0	380633088	68	4901
2026-01-04 13:12:02.02	262.53	19.86	-48.6	-51.3	23.0	6.08e-01	0	39	0	387448832	68	5028
2026-01-04 13:12:04.74	263.32	19.91	-48.3	-51.0	23.3	6.08e-01	0	39	0	392167424	68	4870
2026-01-04 13:12:08.15	264.32	19.97	-48.4	-51.2	23.3	6.07e-01	0	39	0	398983168	68	4928
2026-01-04 13:12:10.92	265.13	20.01	-48.5	-51.2	23.3	6.09e-01	0	39	0	403701760	68	4982
2026-01-04 13:12:14.24	266.10	20.05	-48.7	-51.4	23.2	6.07e-01	0	39	0	409993216	68	5095
2026-01-04 13:12:17.25	266.99	20.08	-48.6	-51.3	23.4	6.05e-01	0	39	0	415760384	68	4996
2026-01-04 13:12:20.28	267.88	20.10	-48.8	-51.5	23.2	6.08e-01	0	39	0	421527552	68	5116
2026-01-04 13:12:23.22	268.75	20.12	-48.5	-51.2	23.3	6.05e-01	0	39	0	426770432	68	4946
2026-01-04 13:12:26.60	269.75	20.13	-48.4	-51.1	23.4	6.08e-01	0	39	0	433061888	68	4887
2026-01-04 13:12:29.31	270.55	20.13	-48.4	-51.1	23.4	6.10e-01	0	39	0	438304768	68	4885
2026-01-04 13:12:32.61	271.52	20.13	-48.6	-51.2	23.3	6.07e-01	0	39	0	444596224	68	4971
2026-01-04 13:12:35.71	272.44	20.12	-48.4	-51.0	23.4	6.04e-01	0	39	0	450363392	68	4859
2026-01-04 13:12:38.96	273.39	20.10	-48.4	-51.1	23.3	6.07e-01	0	39	0	456654848	68	4886
2026-01-04 13:12:41.84	274.24	20.08	-48.3	-51.0	23.4	6.06e-01	0	39	0	461897728	68	4829
2026-01-04 13:12:44.99	275.17	20.05	-48.5	-51.1	23.4	6.07e-01	0	39	0	467664896	68	4899
2026-01-04 13:12:47.86	276.01	20.01	-48.6	-51.2	23.3	6.06e-01	0	39	0	473432064	68	4951
2026-01-04 13:12:51.02	276.93	19.97	-48.6	-51.2	23.3	6.06e-01	0	39	0	479199232	68	4971
2026-01-04 13:12:53.95	277.79	19.92	-48.4	-51.0	23.4	6.07e-01	0	39	0	484442112	68	4870
2026-01-04 13:12:57.15	278.71	19.86	-48.6	-51.2	23.4	6.06e-01	0	39	0	490733568	68	4982
2026-01-04 13:13:00.48	279.68	19.79	-48.8	-51.4	23.3	6.07e-01	0	39	0	497025024	68	5092
2026-01-04 13:13:03.20	280.46	19.73	-48.5	-51.1	23.6	6.08e-01	0	39	0	501743616	68	4886
2026-01-04 13:13:06.49	281.40	19.65	-48.5	-51.1	23.5	6.05e-01	0	39	0	508035072	68	4871
2026-01-04 13:13:09.21	282.18	19.58	-48.4	-51.0	23.4	6.07e-01	0	39	0	513277952	68	4839
2026-01-04 13:13:12.51	283.11	19.48	-48.5	-51.1	23.6	6.08e-01	0	39	0	519569408	68	4907
2026-01-04 13:13:15.24	283.88	19.40	-48.5	-51.1	23.5	6.06e-01	0	39	0	524288000	68	4890
2026-01-04 13:13:18.54	284.80	19.29	-48.3	-50.8	23.6	6.07e-01	0	39	0	530579456	68	4753
2026-01-04 13:13:21.26	285.56	19.20	-48.4	-51.0	23.5	6.06e-01	0	39	0	535822336	68	4815
2026-01-04 13:13:24.76	286.52	19.07	-48.4	-51.0	23.4	6.07e-01	0	39	0	542638080	68	4853
2026-01-04 13:13:27.49	287.27	18.97	-48.4	-50.9	23.5	6.08e-01	0	39	0	547356672	68	4810
2026-01-04 13:13:30.78	288.16	18.84	-48.4	-50.9	23.5	6.06e-01	0	39	0	553648128	68	4808
2026-01-04 13:13:33.60	288.92	18.73	-48.2	-50.8	23.7	6.06e-01	0	39	0	558891008	68	4708
2026-01-04 13:13:36.84	289.78	18.59	-48.3	-50.9	23.5	6.08e-01	0	39	0	565182464	68	4781
2026-01-04 13:13:39.85	290.58	18.46	-48.3	-50.8	23.6	6.05e-01	0	39	0	570425344	68	4743
2026-01-04 13:13:42.86	291.37	18.32	-48.2	-50.8	23.6	6.05e-01	0	39	0	576192512	68	4737
2026-01-04 13:13:45.87	292.15	18.18	-48.3	-50.9	23.5	6.07e-01	0	39	0	581959680	68	4802
2026-01-04 13:13:48.89	292.92	18.04	-48.1	-50.6	23.7	6.07e-01	0	39	0	587726848	68	4643
2026-01-04 13:13:51.87	293.68	17.89	-48.3	-50.9	23.5	6.06e-01	0	39	0	592969728	68	4780
2026-01-04 13:13:55.02	294.47	17.73	-48.2	-50.7	23.6	6.07e-01	0	39	0	599261184	68	4698
2026-01-04 13:13:57.88	295.18	17.58	-48.3	-50.9	23.4	6.04e-01	0	39	0	604504064	68	4805
2026-01-04 13:14:01.03	295.96	17.42	-48.3	-50.9	23.4	6.07e-01	0	39	0	610271232	68	4795
2026-01-04 13:14:03.97	296.67	17.26	-48.6	-51.2	23.5	6.08e-01	0	39	0	616038400	68	4939
2026-01-04 13:14:07.12	297.43	17.09	-48.4	-51.0	23.5	6.08e-01	0	39	0	621805568	68	4856
2026-01-04 13:14:10.15	298.15	16.92	-48.3	-51.0	23.4	6.08e-01	0	39	0	627572736	68	4820
2026-01-04 13:14:13.16	298.86	16.75	-48.5	-51.1	23.4	6.07e-01	0	39	0	633339904	68	4903
2026-01-04 13:14:16.16	299.56	16.57	-48.5	-51.2	23.4	6.06e-01	0	39	0	638582784	68	4945
2026-01-04 13:14:19.17	300.25	16.40	-48.4	-51.0	23.5	6.07e-01	0	39	0	644349952	68	4830
2026-01-04 13:14:22.21	300.94	16.22	-48.4	-51.0	23.5	6.07e-01	0	39	0	650117120	68	4851
2026-01-04 13:14:25.19	301.60	16.04	-48.5	-51.1	23.4	6.07e-01	0	39	0	655884288	68	4896
2026-01-04 13:14:28.20	302.27	15.86	-48.3	-50.9	23.5	6.06e-01	0	39	0	661127168	68	4801
2026-01-04 13:14:31.51	302.99	15.66	-48.3	-50.9	23.5	6.09e-01	0	39	0	667418624	68	4768
2026-01-04 13:14:34.23	303.58	15.49	-48.6	-51.2	23.5	6.08e-01	0	39	0	672661504	68	4958
2026-01-04 13:14:37.54	304.28	15.28	-48.5	-51.2	23.4	6.06e-01	0	39	0	678952960	68	4927
2026-01-04 13:14:40.26	304.85	15.11	-48.4	-51.0	23.4	6.08e-01	0	39	0	684195840	68	4867
2026-01-04 13:14:43.56	305.53	14.90	-48.3	-51.0	23.4	6.05e-01	0	39	0	689963008	68	4818
2026-01-04 13:14:46.28	306.09	14.73	-48.5	-51.2	23.2	6.05e-01	0	39	0	695205888	68	4938
2026-01-04 13:14:49.58	306.75	14.52	-48.3	-50.9	23.4	6.05e-01	0	39	0	701497344	68	4797
2026-01-04 13:14:52.30	307.29	14.34	-48.3	-51.0	23.4	6.06e-01	0	39	0	706215936	68	4815
2026-01-04 13:14:55.75	307.97	14.12	-48.4	-51.1	23.2	6.09e-01	0	39	0	713031680	68	4921
2026-01-04 13:14:58.48	308.49	13.94	-48.2	-51.0	23.3	6.07e-01	0	39	0	718274560	68	4863
2026-01-04 13:15:01.77	309.12	13.72	-48.3	-51.2	23.1	6.06e-01	0	39	0	724041728	68	4943
2026-01-04 13:15:04.50	309.63	13.55	-48.3	-51.1	23.2	6.08e-01	0	39	0	729284608	68	4897
2026-01-04 13:15:07.79	310.24	13.33	-48.3	-51.0	23.3	6.07e-01	0	39	0	735576064	68	4859
2026-01-04 13:15:10.71	310.77	13.14	-48.5	-51.1	23.2	6.09e-01	0	39	0	740818944	68	4923
2026-01-04 13:15:13.71	311.31	12.94	-48.6	-51.4	22.9	6.08e-01	0	39	0	746586112	68	5053
2026-01-04 13:15:16.78	311.86	12.74	-48.6	-51.4	22.9	6.07e-01	0	39	0	752353280	68	5055
2026-01-04 13:15:19.74	312.38	12.54	-48.6	-51.5	23.0	6.07e-01	0	39	0	758120448	68	5112
2026-01-04 13:15:22.90	312.92	12.33	-48.5	-51.5	23.0	6.07e-01	0	39	0	763887616	68	5119
2026-01-04 13:15:25.76	313.41	12.14	-48.5	-51.4	23.0	6.06e-01	0	39	0	769130496	68	5096
2026-01-04 13:15:28.91	313.94	11.93	-48.5	-51.3	23.0	6.05e-01	0	39	0	775421952	68	5024
2026-01-04 13:15:31.86	314.42	11.73	-48.6	-51.3	23.0	6.08e-01	0	39	0	780664832	68	5032
2026-01-04 13:15:35.16	314.96	11.52	-48.6	-51.4	23.0	6.06e-01	0	39	0	786956288	68	5054
2026-01-04 13:15:38.44	315.49	11.30	-48.7	-51.4	23.0	6.04e-01	0	39	0	793247744	68	5076
2026-01-04 13:15:41.16	315.91	11.12	-48.6	-51.4	22.9	6.04e-01	0	39	0	797966336	68	5052
2026-01-04 13:15:44.64	316.46	10.89	-48.7	-51.6	22.8	6.02e-01	0	39	0	804782080	68	5170
2026-01-04 13:15:47.36	316.87	10.71	-48.9	-51.8	22.7	6.04e-01	0	39	0	810024960	68	5319
2026-01-04 13:15:50.66	317.37	10.49	-49.4	-52.3	22.3	6.05e-01	0	39	0	815792128	69	5332
2026-01-04 13:15:53.45	317.79	10.30	-49.2	-52.1	22.5	6.03e-01	0	39	0	821035008	69	5213
2026-01-04 13:15:56.75	318.27	10.09	-48.9	-51.9	22.6	6.03e-01	0	39	0	827326464	69	5061
2026-01-04 13:15:59.75	318.71	9.89	-48.8	-51.9	22.5	6.03e-01	0	39	0	833093632	69	5075
2026-01-04 13:16:02.77	319.14	9.69	-48.6	-51.8	22.5	6.04e-01	0	39	0	838860800	69	5038
2026-01-04 13:16:05.77	319.56	9.50	-48.7	-52.1	22.3	6.05e-01	0	39	0	844103680	69	5164
2026-01-04 13:16:08.87	319.99	9.29	-48.6	-52.1	22.2	6.04e-01	0	39	0	849870848	69	5204
2026-01-04 13:16:11.77	320.39	9.10	-48.5	-52.0	22.2	6.03e-01	0	39	0	855638016	68	5459
2026-01-04 13:16:15.30	320.86	8.88	-55.6	-75.9	3.8	7.43e-01	0	39	104	859832320	81	40328
2026-01-04 13:16:18.02	321.22	8.70	-54.0	-76.1	3.7	7.48e-01	0	39	104	859832320	79	46003
2026-01-04 13:16:21.32	321.66	8.49	-55.7	-76.1	3.8	7.44e-01	0	39	104	859832320	82	38825
2026-01-04 13:16:24.13	322.02	8.31	-55.7	-76.1	3.8	7.50e-01	0	39	104	859832320	82	39103
2026-01-04 13:16:27.78	322.48	8.07	-56.1	-76.3	3.8	7.45e-01	0	39	104	859832320	83	37490
2026-01-04 13:16:30.59	322.83	7.89	-55.9	-76.1	3.8	7.44e-01	0	39	104	859832320	83	36902
2026-01-04 13:16:33.89	323.24	7.68	-55.1	-76.1	3.8	7.44e-01	0	39	104	859832320	82	38731
2026-01-04 13:16:36.61	323.57	7.51	-55.0	-76.1	3.8	7.48e-01	0	39	104	859832320	82	38792
2026-01-04 13:16:39.90	323.97	7.30	-55.1	-76.1	3.8	7.47e-01	0	39	104	859832320	82	38771
2026-01-04 13:16:42.62	324.29	7.13	-55.0	-76.0	3.8	7.45e-01	0	39	104	859832320	82	38525
2026-01-04 13:16:45.92	324.68	6.92	-55.0	-76.0	3.8	7.48e-01	0	39	104	859832320	82	38592
2026-01-04 13:16:48.65	324.99	6.75	-55.0	-76.0	3.8	7.45e-01	0	39	104	859832320	82	38503
2026-01-04 13:16:51.95	325.37	6.55	-55.0	-76.0	3.8	7.46e-01	0	39	104	859832320	82	38568
2026-01-04 13:16:54.68	325.68	6.38	-55.1	-76.2	3.8	7.43e-01	0	39	104	859832320	82	39184
2026-01-04 13:16:57.97	326.04	6.18	-55.2	-76.1	3.8	7.45e-01	0	39	104	859832320	82	39119
2026-01-04 13:17:00.70	326.34	6.01	-55.1	-76.1	3.8	7.52e-01	0	39	104	859832320	82	38972
2026-01-04 13:17:04.00	326.70	5.81	-55.1	-76.1	3.8	7.47e-01	0	39	104	859832320	82	38780
2026-01-04 13:17:06.73	326.99	5.64	-55.1	-76.0	3.8	7.49e-01	0	39	104	859832320	82	38594
2026-01-04 13:17:10.03	327.33	5.44	-55.1	-76.0	3.8	7.43e-01	0	39	104	859832320	82	38682
2026-01-04 13:17:12.75	327.62	5.27	-55.0	-76.0	3.8	7.48e-01	0	39	104	859832320	82	38570
2026-01-04 13:17:16.05	327.95	5.08	-55.0	-76.0	3.8	7.52e-01	0	39	104	859832320	82	38528

#Closed at: 2026-01-04 13:17:18
#Recorded file [859 MB]: D:/Data/31040_260104_160745.dat