passes_logs/2026/01/04/T1/T1__20260104_090239_NOAA_21_JPSS-2_rec.log

#Pass ID: 20260104_090239_NOAA 21 (JPSS-2)
#Satellite: NOAA 21 (JPSS-2)
#Configuration: NOAA 21
#almurnet v.1.7.20251203
#Start time: 2026-01-04 09:02:39

#Version: 2.0.20230620
#Station: T1
#Location: 37.570604 lon 55.790049 lat
#TLE: 1 54234U 22150A   26003.94651505  .00000183  00000+0  10759-3 0  9990
#TLE: 2 54234  98.7488 304.9806 0001136 345.9488  14.1656 14.19531852163244

#Time	Az	El	Level	Level2	SNR	BER	BlckErr	Temp	State	Recorded	gain1	gain2
2026-01-04 09:02:39.19	132.67	4.98	-53.7	-66.6	3.8	1.49e+00	0	38	0	0	79	15561
2026-01-04 09:02:42.20	132.53	5.19	-53.8	-66.8	3.8	1.49e+00	0	38	104	0	79	15892
2026-01-04 09:02:45.21	132.39	5.40	-54.2	-67.1	3.8	1.49e+00	0	38	104	0	79	16481
2026-01-04 09:02:48.23	132.25	5.61	-53.7	-66.7	3.8	1.49e+00	0	38	104	0	79	15669
2026-01-04 09:02:51.24	132.11	5.82	-54.0	-66.7	3.8	1.49e+00	0	39	104	0	79	15703
2026-01-04 09:02:54.25	131.96	6.04	-53.6	-65.9	3.8	1.49e+00	0	39	104	0	79	14266
2026-01-04 09:02:57.26	131.81	6.25	-53.9	-66.0	3.8	1.49e+00	0	39	104	0	79	14435
2026-01-04 09:03:00.27	131.66	6.47	-54.1	-66.4	3.8	1.49e+00	0	39	104	0	79	15138
2026-01-04 09:03:03.29	131.51	6.68	-54.0	-66.9	3.8	1.49e+00	0	39	104	0	79	16060
2026-01-04 09:03:06.30	131.35	6.90	-53.8	-66.3	3.8	1.49e+00	0	39	104	0	79	14900
2026-01-04 09:03:09.31	131.20	7.12	-53.6	-64.4	3.9	1.48e+00	0	39	104	0	78	12757
2026-01-04 09:03:12.32	131.04	7.35	-53.3	-61.5	4.9	9.43e-01	0	39	104	0	78	9163
2026-01-04 09:03:15.33	130.87	7.57	-51.5	-56.9	8.1	8.04e-02	0	39	0	0	75	6370
2026-01-04 09:03:18.35	130.71	7.80	-49.7	-53.1	12.0	6.68e-04	0	39	0	0	71	5190
2026-01-04 09:03:21.36	130.54	8.03	-48.1	-50.7	14.5	2.20e-06	0	39	0	0	68	4692
2026-01-04 09:03:24.37	130.37	8.26	-47.4	-49.9	15.1	7.00e-07	0	40	0	0	66	4800
2026-01-04 09:03:27.38	130.20	8.49	-48.5	-51.4	13.6	2.20e-06	0	39	0	0	67	5362
2026-01-04 09:03:30.40	130.02	8.72	-50.8	-55.1	9.9	4.43e-03	0	40	0	0	72	6198
2026-01-04 09:03:33.41	129.84	8.96	-52.6	-60.7	5.1	5.68e-01	0	40	0	0	75	9858
2026-01-04 09:03:36.42	129.66	9.20	-52.8	-62.8	3.9	1.47e+00	0	40	104	0	76	11869
2026-01-04 09:03:39.56	129.47	9.45	-52.9	-62.3	4.1	1.48e+00	0	40	104	0	77	10614
2026-01-04 09:03:42.42	129.29	9.68	-49.9	-53.9	11.2	1.45e-03	0	40	0	0	72	5378
2026-01-04 09:03:45.57	129.09	9.93	-48.5	-51.3	13.9	9.10e-06	0	40	0	0	68	5024
2026-01-04 09:03:48.44	128.90	10.17	-47.3	-49.8	15.3	7.00e-07	0	40	0	0	66	4711
2026-01-04 09:03:51.62	128.69	10.43	-46.6	-48.9	16.1	0.00e+00	0	40	0	0	65	4515
2026-01-04 09:03:54.49	128.50	10.67	-45.9	-48.1	16.9	0.00e+00	0	40	0	0	63	4650
2026-01-04 09:03:57.63	128.28	10.93	-45.4	-47.5	17.5	0.00e+00	0	40	0	0	62	4570
2026-01-04 09:04:00.50	128.08	11.17	-45.2	-47.3	17.8	0.00e+00	0	40	0	0	62	4444
2026-01-04 09:04:03.60	127.86	11.44	-45.1	-47.1	17.9	0.00e+00	0	40	0	0	62	4367
2026-01-04 09:04:07.28	127.59	11.75	-44.8	-46.7	18.3	0.00e+00	0	40	0	0	61	4424
2026-01-04 09:04:10.26	127.37	12.01	-44.7	-46.6	18.4	0.00e+00	0	40	0	0	61	4364
2026-01-04 09:04:13.26	127.15	12.28	-44.7	-46.6	18.4	0.00e+00	0	40	0	0	61	4358
2026-01-04 09:04:16.35	126.91	12.55	-44.8	-46.7	18.3	0.00e+00	0	40	0	0	61	4431
2026-01-04 09:04:19.25	126.69	12.81	-44.7	-46.6	18.4	0.00e+00	0	40	0	0	61	4356
2026-01-04 09:04:22.40	126.44	13.10	-44.8	-46.7	18.4	0.00e+00	0	40	0	0	61	4398
2026-01-04 09:04:25.27	126.20	13.36	-44.7	-46.6	18.5	0.00e+00	0	40	0	0	61	4371
2026-01-04 09:04:28.50	125.94	13.65	-44.7	-46.6	18.5	0.00e+00	0	40	0	0	61	4349
2026-01-04 09:04:31.36	125.69	13.92	-44.6	-46.4	18.6	0.00e+00	0	40	0	0	61	4281
2026-01-04 09:04:34.54	125.42	14.22	-44.7	-46.6	18.6	0.00e+00	0	40	0	0	61	4359
2026-01-04 09:04:37.40	125.17	14.49	-44.7	-46.5	18.7	0.00e+00	0	40	0	0	61	4308
2026-01-04 09:04:40.56	124.89	14.79	-44.7	-46.5	18.6	0.00e+00	0	40	0	0	61	4319
2026-01-04 09:04:43.42	124.63	15.07	-44.6	-46.4	18.7	0.00e+00	0	40	0	0	61	4275
2026-01-04 09:04:46.62	124.33	15.38	-44.7	-46.6	18.6	0.00e+00	0	40	0	0	61	4342
2026-01-04 09:04:49.49	124.06	15.66	-44.7	-46.5	18.6	0.00e+00	0	40	0	0	61	4340
2026-01-04 09:04:52.64	123.75	15.98	-44.7	-46.6	18.6	0.00e+00	0	40	0	0	61	4390
2026-01-04 09:04:55.70	123.45	16.28	-44.6	-46.4	18.7	0.00e+00	0	41	0	0	61	4291
2026-01-04 09:04:59.09	123.10	16.63	-44.6	-46.5	18.7	0.00e+00	0	40	0	0	61	4314
2026-01-04 09:05:01.82	122.82	16.91	-44.7	-46.6	18.7	0.00e+00	0	40	0	0	61	4350
2026-01-04 09:05:05.16	122.47	17.25	-44.8	-46.7	18.5	0.00e+00	0	40	0	0	61	4410
2026-01-04 09:05:08.21	122.14	17.57	-44.8	-46.6	18.6	0.00e+00	0	40	0	0	61	4373
2026-01-04 09:05:11.46	121.78	17.92	-45.0	-46.9	18.4	0.00e+00	0	40	0	0	61	4509
2026-01-04 09:05:14.40	121.45	18.23	-44.8	-46.6	18.6	0.00e+00	0	40	0	0	61	4375
2026-01-04 09:05:17.41	121.10	18.55	-44.5	-46.3	18.8	0.00e+00	0	41	0	0	61	4231
2026-01-04 09:05:20.42	120.75	18.88	-44.4	-46.2	18.9	0.00e+00	0	40	0	0	60	4400
2026-01-04 09:05:23.42	120.38	19.21	-44.3	-46.1	19.1	0.00e+00	0	40	0	0	60	4367
2026-01-04 09:05:26.48	120.01	19.55	-44.3	-46.1	19.0	0.00e+00	0	41	0	0	60	4369
2026-01-04 09:05:29.49	119.63	19.89	-44.4	-46.2	19.0	0.00e+00	0	40	0	0	60	4397
2026-01-04 09:05:32.50	119.24	20.23	-44.2	-46.0	19.2	0.00e+00	0	40	0	0	60	4335
2026-01-04 09:05:35.50	118.84	20.57	-44.2	-46.0	19.3	0.00e+00	0	40	0	0	60	4302
2026-01-04 09:05:38.52	118.44	20.92	-44.0	-45.8	19.3	0.00e+00	0	40	0	0	59	4453
2026-01-04 09:05:41.53	118.02	21.27	-43.8	-45.6	19.4	0.00e+00	0	41	0	0	59	4341
2026-01-04 09:05:44.55	117.59	21.62	-43.7	-45.5	19.6	0.00e+00	0	41	0	0	59	4295
2026-01-04 09:05:47.56	117.16	21.98	-43.8	-45.5	19.5	0.00e+00	0	40	0	0	59	4312
2026-01-04 09:05:50.57	116.71	22.34	-43.6	-45.3	19.8	0.00e+00	0	41	0	0	59	4207
2026-01-04 09:05:53.58	116.26	22.70	-43.5	-45.2	19.9	0.00e+00	0	41	0	0	58	4409
2026-01-04 09:05:56.59	115.79	23.07	-43.6	-45.3	19.7	0.00e+00	0	40	0	0	58	4461
2026-01-04 09:05:59.59	115.31	23.44	-43.5	-45.2	19.8	0.00e+00	0	40	0	0	58	4396
2026-01-04 09:06:02.60	114.82	23.81	-43.5	-45.2	19.8	0.00e+00	0	41	0	0	58	4438
2026-01-04 09:06:05.61	114.32	24.19	-43.6	-45.3	19.7	0.00e+00	0	40	0	0	58	4460
2026-01-04 09:06:08.98	113.74	24.61	-43.4	-45.1	19.9	0.00e+00	0	40	0	0	58	4379
2026-01-04 09:06:11.70	113.27	24.96	-43.7	-45.4	19.7	0.00e+00	0	41	0	0	58	4509
2026-01-04 09:06:15.00	112.67	25.38	-43.8	-45.6	19.5	0.00e+00	0	40	0	0	58	4600
2026-01-04 09:06:18.06	112.11	25.77	-44.2	-46.0	19.3	0.00e+00	0	40	0	0	59	4560
2026-01-04 09:06:21.75	111.41	26.25	-44.4	-46.2	19.1	0.00e+00	0	40	0	0	59	4681
2026-01-04 09:06:24.66	110.84	26.63	-44.1	-45.9	19.3	0.00e+00	0	40	0	0	59	4511
2026-01-04 09:06:27.96	110.18	27.06	-44.1	-45.9	19.2	0.00e+00	0	41	0	0	59	4510
2026-01-04 09:06:31.07	109.54	27.47	-44.4	-46.2	19.0	0.00e+00	0	41	0	0	59	4668
2026-01-04 09:06:34.42	108.84	27.92	-44.2	-46.0	19.2	0.00e+00	0	40	0	0	59	4569
2026-01-04 09:06:37.38	108.20	28.31	-44.3	-46.1	19.1	0.00e+00	0	40	0	0	59	4625
2026-01-04 09:06:41.16	107.35	28.82	-44.6	-46.4	18.8	0.00e+00	0	41	0	0	59	4807
2026-01-04 09:06:43.94	106.72	29.19	-44.6	-46.4	18.9	0.00e+00	0	41	0	0	59	4761
2026-01-04 09:06:47.75	105.82	29.71	-44.4	-46.2	19.0	0.00e+00	0	40	0	0	60	4435
2026-01-04 09:06:50.49	105.16	30.08	-44.3	-46.1	19.2	0.00e+00	0	40	0	0	60	4351
2026-01-04 09:06:54.11	104.26	30.57	-44.4	-46.2	19.1	0.00e+00	0	40	0	0	60	4399
2026-01-04 09:06:56.83	103.56	30.93	-44.4	-46.2	19.1	0.00e+00	0	40	0	0	60	4400
2026-01-04 09:07:00.26	102.66	31.40	-44.8	-46.6	19.1	0.00e+00	0	41	0	0	60	4609
2026-01-04 09:07:02.98	101.93	31.76	-44.7	-46.5	18.9	7.00e-07	0	40	0	0	60	4595
2026-01-04 09:07:06.28	101.02	32.21	-44.6	-46.4	19.0	0.00e+00	0	40	0	0	60	4497
2026-01-04 09:07:09.00	100.25	32.57	-44.8	-46.7	18.7	0.00e+00	0	41	0	0	60	4656
2026-01-04 09:07:12.29	99.30	33.01	-45.1	-47.0	18.4	0.00e+00	0	40	0	0	61	4589
2026-01-04 09:07:15.02	98.49	33.37	-45.4	-47.3	18.2	0.00e+00	0	41	0	0	61	4736
2026-01-04 09:07:18.31	97.48	33.81	-45.1	-47.0	18.4	0.00e+00	0	40	0	0	61	4553
2026-01-04 09:07:21.03	96.63	34.16	-45.6	-47.5	18.2	0.00e+00	0	40	0	0	61	4835
2026-01-04 09:07:24.26	95.60	34.58	-45.3	-47.2	18.2	0.00e+00	0	40	0	0	62	4438
2026-01-04 09:07:27.13	94.66	34.94	-45.9	-47.9	17.8	0.00e+00	0	40	0	0	62	4774
2026-01-04 09:07:30.86	93.41	35.41	-45.7	-47.7	17.8	0.00e+00	0	41	0	0	62	4659
2026-01-04 09:07:33.63	92.46	35.75	-45.7	-47.7	17.8	0.00e+00	0	40	0	0	62	4679
2026-01-04 09:07:37.51	91.09	36.22	-45.6	-47.5	18.0	0.00e+00	0	40	0	0	62	4582
2026-01-04 09:07:40.28	90.09	36.55	-45.3	-47.3	18.2	0.00e+00	0	41	0	0	62	4451
2026-01-04 09:07:44.27	88.61	37.01	-45.5	-47.5	18.1	0.00e+00	0	40	0	0	62	4554
2026-01-04 09:07:47.01	87.57	37.31	-45.4	-47.3	18.2	0.00e+00	0	40	0	0	62	4469
2026-01-04 09:07:50.96	86.04	37.74	-46.0	-48.1	17.5	0.00e+00	0	41	0	0	62	4903
2026-01-04 09:07:54.13	84.78	38.07	-45.8	-47.8	17.7	0.00e+00	0	40	0	0	62	4751
2026-01-04 09:07:57.16	83.55	38.37	-45.7	-47.6	17.9	0.00e+00	0	40	0	0	62	4639
2026-01-04 09:08:00.25	82.28	38.66	-45.6	-47.6	18.0	0.00e+00	0	40	0	0	62	4603
2026-01-04 09:08:03.21	81.04	38.93	-45.9	-48.0	17.6	0.00e+00	0	40	0	0	62	4818
2026-01-04 09:08:06.22	79.75	39.19	-46.2	-48.2	17.3	0.00e+00	0	40	0	0	62	4979
2026-01-04 09:08:09.53	78.32	39.46	-46.5	-48.6	17.0	0.00e+00	0	41	0	0	63	4890
2026-01-04 09:08:12.25	77.12	39.67	-46.2	-48.3	17.2	0.00e+00	0	40	0	0	63	4741
2026-01-04 09:08:15.55	75.65	39.90	-45.7	-47.7	17.8	0.00e+00	0	40	0	0	63	4405
2026-01-04 09:08:18.33	74.40	40.08	-46.3	-48.4	17.0	0.00e+00	0	41	0	0	63	4791
2026-01-04 09:08:21.56	72.92	40.27	-46.2	-48.3	17.3	0.00e+00	0	40	0	0	63	4725
2026-01-04 09:08:24.72	71.46	40.44	-46.5	-48.6	17.0	0.00e+00	0	40	0	0	63	4906
2026-01-04 09:08:27.59	70.13	40.57	-46.7	-48.8	16.7	0.00e+00	0	40	0	0	64	4750
2026-01-04 09:08:30.93	68.56	40.71	-46.6	-48.7	16.8	0.00e+00	0	40	0	0	64	4665
2026-01-04 09:08:33.65	67.27	40.80	-46.5	-48.6	16.9	0.00e+00	0	40	0	0	64	4632
2026-01-04 09:08:36.94	65.71	40.89	-46.8	-49.0	16.4	0.00e+00	0	41	0	0	64	4867
2026-01-04 09:08:39.66	64.41	40.94	-46.6	-48.7	16.9	0.00e+00	0	40	0	0	64	4664
2026-01-04 09:08:43.12	62.75	40.99	-47.2	-49.5	16.0	0.00e+00	0	40	0	0	65	4842
2026-01-04 09:08:46.18	61.28	41.00	-47.0	-49.2	16.2	0.00e+00	0	40	0	0	65	4700
2026-01-04 09:08:49.06	59.90	41.00	-46.7	-48.9	16.6	0.00e+00	0	40	0	0	65	4531
2026-01-04 09:08:52.20	58.39	40.98	-47.5	-49.9	15.5	0.00e+00	0	41	0	0	65	5053
2026-01-04 09:08:55.15	56.98	40.93	-46.5	-48.7	16.8	0.00e+00	0	41	0	0	64	4667
2026-01-04 09:08:58.44	55.41	40.86	-46.5	-48.6	16.8	0.00e+00	0	40	0	0	64	4613
2026-01-04 09:09:01.36	54.02	40.78	-46.3	-48.4	17.0	0.00e+00	0	40	0	0	64	4512
2026-01-04 09:09:05.01	52.30	40.65	-46.4	-48.5	16.9	0.00e+00	0	40	0	0	63	4844
2026-01-04 09:09:07.73	51.03	40.53	-47.4	-49.8	15.7	0.00e+00	0	40	0	0	65	5004
2026-01-04 09:09:11.15	49.45	40.36	-46.5	-48.6	17.0	0.00e+00	0	40	0	0	64	4602
2026-01-04 09:09:13.95	48.16	40.21	-46.3	-48.3	17.2	0.00e+00	0	40	0	0	63	4759
2026-01-04 09:09:17.31	46.64	40.00	-47.0	-49.3	16.2	0.00e+00	0	40	0	0	64	4988
2026-01-04 09:09:20.02	45.42	39.82	-46.8	-49.0	16.5	0.00e+00	0	41	0	0	64	4853
2026-01-04 09:09:23.31	43.97	39.58	-46.6	-48.7	16.6	0.00e+00	0	40	0	0	64	4694
2026-01-04 09:09:26.12	42.74	39.36	-46.6	-48.7	16.6	0.00e+00	0	41	0	0	64	4705
2026-01-04 09:09:29.27	41.39	39.10	-47.3	-49.6	16.0	0.00e+00	0	40	0	0	65	4902
2026-01-04 09:09:32.13	40.18	38.85	-46.5	-48.7	16.6	0.00e+00	0	40	0	0	65	4417
2026-01-04 09:09:35.31	38.85	38.56	-45.7	-47.7	17.9	0.00e+00	0	41	0	0	62	4655
2026-01-04 09:09:38.18	37.68	38.28	-46.7	-48.8	16.7	0.00e+00	0	41	0	0	63	5022
2026-01-04 09:09:41.51	36.35	37.94	-45.6	-47.5	17.8	0.00e+00	0	41	0	0	63	4335
2026-01-04 09:09:44.49	35.18	37.63	-46.3	-48.3	17.2	0.00e+00	0	40	0	0	63	4743
2026-01-04 09:09:47.86	33.88	37.26	-45.7	-47.7	17.7	0.00e+00	0	40	0	0	63	4411
2026-01-04 09:09:50.59	32.85	36.96	-46.1	-48.2	17.3	0.00e+00	0	40	0	0	63	4660
2026-01-04 09:09:53.88	31.64	36.58	-46.4	-48.6	16.8	0.00e+00	0	40	0	0	64	4604
2026-01-04 09:09:56.60	30.65	36.26	-45.0	-46.9	18.5	0.00e+00	0	41	0	0	61	4521
2026-01-04 09:09:59.90	29.49	35.87	-45.8	-47.9	17.7	0.00e+00	0	40	0	0	62	4764
2026-01-04 09:10:02.73	28.51	35.52	-45.6	-47.6	17.6	0.00e+00	0	40	0	0	63	4359
2026-01-04 09:10:06.39	27.28	35.07	-45.0	-46.8	18.6	0.00e+00	0	40	0	0	61	4491
2026-01-04 09:10:09.32	26.32	34.70	-46.4	-48.6	17.0	0.00e+00	0	40	0	0	63	4880
2026-01-04 09:10:13.13	25.10	34.21	-44.8	-46.7	18.7	0.00e+00	0	40	0	0	61	4401
2026-01-04 09:10:15.87	24.25	33.85	-44.7	-46.6	18.8	0.00e+00	0	41	0	0	61	4372
2026-01-04 09:10:19.74	23.08	33.34	-45.1	-47.2	18.1	0.00e+00	0	40	0	0	61	4654
2026-01-04 09:10:22.53	22.25	32.98	-44.7	-46.5	18.6	0.00e+00	0	40	0	0	61	4331
2026-01-04 09:10:26.08	21.23	32.50	-44.9	-46.7	18.7	0.00e+00	0	40	0	0	60	4703
2026-01-04 09:10:29.10	20.39	32.10	-44.7	-46.6	18.7	0.00e+00	0	40	0	0	60	4619
2026-01-04 09:10:32.04	19.59	31.71	-44.6	-46.4	18.9	0.00e+00	0	40	0	0	60	4522
2026-01-04 09:10:35.19	18.75	31.28	-45.1	-47.0	18.4	0.00e+00	0	40	0	0	60	4826
2026-01-04 09:10:38.26	17.95	30.87	-45.1	-47.1	18.2	0.00e+00	0	40	0	0	61	4601
2026-01-04 09:10:41.62	17.11	30.42	-44.4	-46.2	19.1	0.00e+00	0	40	0	0	60	4412
2026-01-04 09:10:44.34	16.44	30.05	-43.9	-45.7	19.4	0.00e+00	0	40	0	0	59	4433
2026-01-04 09:10:47.58	15.66	29.62	-44.2	-46.0	19.1	0.00e+00	0	40	0	0	59	4573
2026-01-04 09:10:50.45	14.99	29.23	-43.5	-45.2	19.6	0.00e+00	0	40	0	0	58	4402
2026-01-04 09:10:53.60	14.28	28.81	-43.6	-45.3	19.8	0.00e+00	0	41	0	0	58	4467
2026-01-04 09:10:56.89	13.55	28.37	-44.5	-46.3	18.9	0.00e+00	0	40	0	0	59	4752
2026-01-04 09:10:59.61	12.96	28.01	-44.6	-46.5	18.9	0.00e+00	0	40	0	0	60	4546
2026-01-04 09:11:02.91	12.27	27.58	-44.4	-46.3	19.0	0.00e+00	0	40	0	0	60	4445
2026-01-04 09:11:06.08	11.62	27.16	-44.3	-46.2	19.1	0.00e+00	0	40	0	0	60	4395
2026-01-04 09:11:09.64	10.91	26.69	-44.4	-46.3	19.0	0.00e+00	0	40	0	0	60	4449
2026-01-04 09:11:12.36	10.38	26.34	-44.2	-46.0	19.2	0.00e+00	0	40	0	0	60	4320
2026-01-04 09:11:15.66	9.75	25.92	-43.5	-45.2	19.8	0.00e+00	0	40	0	0	59	4185
2026-01-04 09:11:18.39	9.25	25.57	-43.3	-45.0	19.9	0.00e+00	0	40	0	0	58	4321
2026-01-04 09:11:21.75	8.64	25.14	-43.9	-45.6	19.5	0.00e+00	0	40	0	0	58	4625
2026-01-04 09:11:24.47	8.17	24.79	-44.0	-45.8	19.3	0.00e+00	0	40	0	0	58	4728
2026-01-04 09:11:27.77	7.60	24.38	-44.1	-45.9	19.2	0.00e+00	0	40	0	0	58	4783
2026-01-04 09:11:30.49	7.15	24.04	-44.1	-46.0	19.1	0.00e+00	0	40	0	0	58	4838
2026-01-04 09:11:33.79	6.61	23.63	-44.4	-46.3	18.9	0.00e+00	0	40	0	0	59	4708
2026-01-04 09:11:37.25	6.06	23.21	-44.2	-46.1	19.0	0.00e+00	0	40	0	0	59	4623
2026-01-04 09:11:40.45	5.56	22.82	-44.1	-45.9	19.0	0.00e+00	0	40	0	0	59	4544
2026-01-04 09:11:43.31	5.13	22.48	-44.0	-45.8	19.1	0.00e+00	0	40	0	0	59	4480
2026-01-04 09:11:46.55	4.65	22.09	-44.1	-45.9	19.0	0.00e+00	0	40	0	0	59	4529
2026-01-04 09:11:49.49	4.23	21.74	-44.3	-46.2	18.8	0.00e+00	0	40	0	0	59	4664
2026-01-04 09:11:52.64	3.79	21.38	-44.1	-45.9	19.0	0.00e+00	0	40	0	0	59	4538
2026-01-04 09:11:55.50	3.39	21.05	-44.1	-46.0	19.1	0.00e+00	0	40	0	0	59	4556
2026-01-04 09:11:58.65	2.97	20.68	-43.9	-45.7	19.4	0.00e+00	0	40	0	0	59	4416
2026-01-04 09:12:01.95	2.54	20.31	-43.7	-45.5	19.6	0.00e+00	0	40	0	0	59	4310
2026-01-04 09:12:04.84	2.17	19.98	-43.9	-45.6	19.5	0.00e+00	0	40	0	0	59	4383
2026-01-04 09:12:08.31	1.73	19.60	-44.0	-45.8	19.3	0.00e+00	0	40	0	0	59	4465
2026-01-04 09:12:11.04	1.40	19.29	-44.0	-45.8	19.1	0.00e+00	0	40	0	0	59	4473
2026-01-04 09:12:14.33	1.01	18.94	-43.9	-45.7	19.2	0.00e+00	0	40	0	0	59	4403
2026-01-04 09:12:17.22	0.67	18.62	-43.5	-45.2	19.5	0.00e+00	0	40	0	0	59	4178
2026-01-04 09:12:20.37	0.31	18.28	-43.4	-45.1	19.7	0.00e+00	0	40	0	0	58	4370
2026-01-04 09:12:23.23	359.99	17.98	-43.7	-45.5	19.6	0.00e+00	0	40	0	0	58	4555
2026-01-04 09:12:26.38	359.65	17.65	-44.0	-45.8	19.3	0.00e+00	0	40	0	0	58	4713
2026-01-04 09:12:29.25	359.34	17.35	-44.4	-46.3	18.8	0.00e+00	0	40	0	0	59	4713
2026-01-04 09:12:32.40	359.01	17.03	-44.6	-46.5	18.6	0.00e+00	0	40	0	0	59	4860
2026-01-04 09:12:35.26	358.72	16.73	-44.4	-46.5	18.3	0.00e+00	0	40	0	0	59	4861
2026-01-04 09:12:38.41	358.40	16.42	-44.4	-46.4	18.4	0.00e+00	0	40	0	0	59	4802
2026-01-04 09:12:41.28	358.12	16.13	-44.6	-46.4	18.6	0.00e+00	0	40	0	0	59	4799
2026-01-04 09:12:44.52	357.81	15.81	-44.8	-46.6	18.6	0.00e+00	0	40	0	0	60	4637
2026-01-04 09:12:47.37	357.54	15.53	-44.7	-46.6	18.5	0.00e+00	0	40	0	0	60	4650
2026-01-04 09:12:50.66	357.23	15.21	-44.9	-46.8	18.4	0.00e+00	0	40	0	0	60	4759
2026-01-04 09:12:53.39	356.99	14.95	-45.0	-46.9	18.2	0.00e+00	0	40	0	0	60	4811
2026-01-04 09:12:56.60	356.70	14.64	-45.1	-47.1	18.0	0.00e+00	0	41	0	0	60	4915
2026-01-04 09:13:00.00	356.41	14.32	-45.1	-47.0	18.2	0.00e+00	0	40	0	0	61	4592
2026-01-04 09:13:02.72	356.17	14.06	-45.2	-47.2	18.1	0.00e+00	0	40	0	0	61	4667
2026-01-04 09:13:06.02	355.90	13.76	-45.3	-47.3	17.9	0.00e+00	0	40	0	0	61	4744
2026-01-04 09:13:08.88	355.67	13.50	-45.3	-47.4	17.8	0.00e+00	0	40	0	0	61	4788
2026-01-04 09:13:12.09	355.41	13.20	-45.2	-47.4	17.8	0.00e+00	0	40	0	0	61	4778
2026-01-04 09:13:15.32	355.15	12.91	-45.2	-47.5	17.7	0.00e+00	0	40	0	0	61	4855
2026-01-04 09:13:18.18	354.93	12.66	-45.3	-47.6	17.6	0.00e+00	0	40	0	0	61	4891
2026-01-04 09:13:21.55	354.68	12.36	-45.3	-47.5	17.6	0.00e+00	0	40	0	0	61	4868
2026-01-04 09:13:24.75	354.44	12.08	-45.3	-47.4	17.7	0.00e+00	0	40	0	0	61	4792
2026-01-04 09:13:27.76	354.22	11.82	-45.3	-47.5	17.6	0.00e+00	0	40	0	0	61	4851
2026-01-04 09:13:30.77	354.01	11.56	-45.3	-47.7	17.6	0.00e+00	0	40	0	0	61	4949
2026-01-04 09:13:33.78	353.80	11.31	-45.2	-47.7	17.5	0.00e+00	0	40	0	0	61	4971
2026-01-04 09:13:36.85	353.59	11.05	-45.1	-47.8	17.5	0.00e+00	0	40	0	0	61	4997
2026-01-04 09:13:40.00	353.38	10.78	-45.3	-48.0	17.2	0.00e+00	0	40	0	0	61	5121
2026-01-04 09:13:42.86	353.19	10.55	-45.4	-48.2	17.1	0.00e+00	0	40	0	0	61	5230
2026-01-04 09:13:46.01	352.98	10.29	-45.7	-48.4	16.9	0.00e+00	0	40	0	0	62	5067
2026-01-04 09:13:48.88	352.80	10.06	-45.9	-48.6	16.7	0.00e+00	0	40	0	0	62	5195
2026-01-04 09:13:52.16	352.59	9.79	-45.9	-48.7	16.6	0.00e+00	0	40	0	0	62	5241
2026-01-04 09:13:54.89	352.42	9.57	-46.0	-48.8	16.4	0.00e+00	0	40	0	0	62	5291
2026-01-04 09:13:58.18	352.23	9.31	-46.0	-48.7	16.4	0.00e+00	0	40	0	0	62	5274
2026-01-04 09:14:00.91	352.06	9.10	-45.6	-48.8	16.4	0.00e+00	0	40	0	0	62	5284
2026-01-04 09:14:04.21	351.87	8.84	-52.7	-66.8	3.8	1.49e+00	0	40	104	0	76	18875
2026-01-04 09:14:07.33	351.69	8.60	-53.6	-67.0	3.8	1.49e+00	0	40	104	0	78	17125
2026-01-04 09:14:10.48	351.51	8.36	-53.8	-67.0	3.8	1.49e+00	0	40	104	0	78	17209
2026-01-04 09:14:13.35	351.35	8.14	-54.2	-67.4	3.8	1.49e+00	0	40	104	0	79	16957
2026