passes_logs/2026/01/04/T1/T1__20260104_004216_FENGYUN_3D_rec.log

#Pass ID: 20260104_004216_FENGYUN 3D
#Satellite: FENGYUN 3D
#Configuration: FENGYUN 3D
#almurnet v.1.7.20251203
#Start time: 2026-01-04 00:42:18

#Version: 2.0.20230620
#Station: T1
#Location: 37.570604 lon 55.790049 lat
#TLE: 1 43010U 17072A   26003.51579816  .00000092  00000+0  65324-4 0  9992
#TLE: 2 43010  98.9912 335.1548 0001916 128.4619 231.6729 14.19692074421623

#Time	Az	El	Level	Level2	SNR	BER	BlckErr	Temp	State	Recorded	gain1	gain2
2026-01-04 00:42:18.71	25.10	5.14	-53.5	-66.3	3.8	8.46e-01	0	41	0	0	78	15786
2026-01-04 00:42:21.72	25.29	5.33	-53.3	-66.0	3.8	8.47e-01	0	41	104	0	77	16238
2026-01-04 00:42:24.73	25.48	5.53	-53.2	-66.0	3.8	8.47e-01	0	41	104	0	77	16215
2026-01-04 00:42:27.74	25.67	5.73	-53.1	-65.9	3.8	8.47e-01	0	41	104	0	77	15963
2026-01-04 00:42:30.75	25.87	5.93	-53.1	-65.8	3.8	8.46e-01	0	41	104	0	77	15838
2026-01-04 00:42:33.76	26.07	6.13	-53.2	-65.9	3.8	8.47e-01	0	42	104	0	77	16101
2026-01-04 00:42:36.77	26.26	6.34	-53.2	-66.1	3.8	8.46e-01	0	41	104	0	77	16325
2026-01-04 00:42:39.78	26.47	6.54	-53.2	-66.0	3.8	8.45e-01	0	41	104	0	77	16248
2026-01-04 00:42:42.79	26.67	6.75	-53.3	-66.1	3.8	8.47e-01	0	41	104	0	77	16374
2026-01-04 00:42:45.80	26.88	6.96	-53.3	-66.0	3.8	8.47e-01	0	42	104	0	77	16157
2026-01-04 00:42:48.82	27.09	7.17	-53.1	-65.6	3.8	8.46e-01	0	42	104	0	77	15411
2026-01-04 00:42:51.82	27.30	7.38	-53.0	-65.7	3.8	8.48e-01	0	42	104	0	77	15676
2026-01-04 00:42:54.84	27.52	7.59	-53.0	-65.6	3.8	8.47e-01	0	42	104	0	77	15532
2026-01-04 00:42:57.85	27.74	7.80	-53.0	-65.2	3.8	8.47e-01	0	42	104	0	77	14774
2026-01-04 00:43:00.85	27.96	8.01	-53.0	-65.6	3.8	8.46e-01	0	42	104	0	77	15414
2026-01-04 00:43:03.86	28.19	8.23	-53.0	-65.7	3.8	8.47e-01	0	42	104	0	77	15636
2026-01-04 00:43:06.87	28.42	8.45	-53.2	-64.9	3.8	8.46e-01	0	42	104	0	77	14246
2026-01-04 00:43:09.88	28.65	8.67	-53.0	-63.9	3.8	8.46e-01	0	42	104	0	77	12718
2026-01-04 00:43:12.89	28.89	8.89	-52.3	-60.0	5.2	7.71e-01	0	42	0	0	76	8624
2026-01-04 00:43:15.90	29.12	9.11	-51.2	-56.7	7.8	8.24e-02	0	42	0	14680064	74	6582
2026-01-04 00:43:18.95	29.37	9.34	-52.1	-58.1	6.6	1.21e-02	0	43	0	25165824	74	7780
2026-01-04 00:43:21.83	29.60	9.55	-44.9	-47.0	17.6	0.00e+00	0	43	0	41943040	61	4585
2026-01-04 00:43:24.98	29.87	9.79	-44.2	-46.3	18.3	0.00e+00	0	43	0	59768832	60	4456
2026-01-04 00:43:27.85	30.11	10.01	-44.1	-46.0	18.6	0.00e+00	0	43	0	75497472	60	4333
2026-01-04 00:43:30.99	30.38	10.25	-43.7	-45.6	18.9	0.00e+00	0	43	0	93323264	58	4616
2026-01-04 00:43:33.85	30.62	10.47	-43.4	-45.3	19.2	0.00e+00	0	43	0	109051904	58	4454
2026-01-04 00:43:37.15	30.91	10.73	-43.5	-45.5	19.0	0.00e+00	0	43	0	127926272	58	4549
2026-01-04 00:43:40.35	31.20	10.98	-43.4	-45.4	19.2	0.00e+00	0	43	0	145752064	58	4496
2026-01-04 00:43:43.21	31.46	11.20	-43.4	-45.3	19.3	5.70e-06	0	43	0	162529280	58	4460
2026-01-04 00:43:46.49	31.76	11.47	-43.3	-45.2	19.4	0.00e+00	0	43	0	180355072	58	4398
2026-01-04 00:43:49.48	32.04	11.71	-43.3	-45.2	19.5	0.00e+00	0	43	0	197132288	58	4403
2026-01-04 00:43:52.78	32.36	11.97	-43.2	-45.1	19.5	0.00e+00	0	43	0	216006656	58	4357
2026-01-04 00:43:55.50	32.62	12.19	-43.3	-45.1	19.6	0.00e+00	0	43	0	231735296	58	4374
2026-01-04 00:43:58.79	32.94	12.46	-43.2	-45.0	19.7	0.00e+00	0	43	0	249561088	58	4321
2026-01-04 00:44:01.51	33.22	12.69	-43.1	-45.0	19.7	0.00e+00	0	43	0	265289728	57	4555
2026-01-04 00:44:04.80	33.55	12.96	-42.9	-44.8	19.9	0.00e+00	0	43	0	283115520	57	4478
2026-01-04 00:44:07.52	33.83	13.19	-42.9	-44.7	19.9	0.00e+00	0	43	0	298844160	57	4435
2026-01-04 00:44:10.81	34.18	13.47	-42.8	-44.6	20.1	0.00e+00	0	43	0	317718528	57	4346
2026-01-04 00:44:13.54	34.47	13.70	-42.7	-44.5	20.0	0.00e+00	0	43	0	332398592	57	4328
2026-01-04 00:44:16.83	34.83	13.98	-42.9	-44.7	19.9	0.00e+00	0	43	0	351272960	57	4436
2026-01-04 00:44:19.57	35.13	14.22	-42.6	-44.4	20.3	0.00e+00	0	43	0	367001600	57	4260
2026-01-04 00:44:22.86	35.50	14.51	-42.5	-44.4	20.4	0.00e+00	0	43	0	385875968	57	4247
2026-01-04 00:44:25.58	35.81	14.74	-42.4	-44.2	20.4	0.00e+00	0	43	0	400556032	56	4429
2026-01-04 00:44:28.88	36.19	15.04	-42.4	-44.2	20.4	0.00e+00	0	43	0	419430400	56	4425
2026-01-04 00:44:31.60	36.51	15.28	-42.2	-43.9	20.7	0.00e+00	0	43	0	434110464	56	4290
2026-01-04 00:44:34.89	36.91	15.57	-42.2	-43.9	20.7	0.00e+00	0	43	0	452984832	56	4283
2026-01-04 00:44:37.61	37.24	15.82	-42.1	-43.8	20.7	0.00e+00	0	43	0	468713472	56	4231
2026-01-04 00:44:41.44	37.72	16.17	-42.0	-43.8	20.8	0.00e+00	0	43	0	489684992	56	4205
2026-01-04 00:44:44.19	38.07	16.42	-42.0	-43.7	20.8	0.00e+00	0	43	0	505413632	55	4420
2026-01-04 00:44:48.13	38.58	16.78	-41.9	-43.6	20.8	0.00e+00	0	43	0	527433728	55	4378
2026-01-04 00:44:50.90	38.95	17.04	-42.0	-43.7	20.8	0.00e+00	0	43	0	543162368	55	4431
2026-01-04 00:44:54.72	39.46	17.40	-41.9	-43.7	20.9	0.00e+00	0	43	0	564133888	55	4393
2026-01-04 00:44:57.49	39.85	17.66	-42.1	-43.9	20.9	0.00e+00	0	43	0	579862528	55	4515
2026-01-04 00:45:01.06	40.35	18.00	-41.7	-43.5	21.2	0.00e+00	0	43	0	599785472	55	4297
2026-01-04 00:45:04.24	40.80	18.31	-41.4	-43.1	21.6	0.00e+00	0	43	0	617611264	54	4362
2026-01-04 00:45:07.25	41.24	18.60	-41.4	-43.1	21.6	0.00e+00	0	43	0	634388480	54	4357
2026-01-04 00:45:10.25	41.69	18.89	-41.5	-43.2	21.5	0.00e+00	0	43	0	652214272	54	4402
2026-01-04 00:45:13.26	42.15	19.19	-41.3	-43.0	21.7	0.00e+00	0	43	0	668991488	54	4326
2026-01-04 00:45:16.27	42.61	19.48	-41.3	-43.0	21.7	0.00e+00	0	43	0	685768704	54	4315
2026-01-04 00:45:19.22	43.08	19.78	-41.5	-43.2	21.5	0.00e+00	0	43	0	702545920	54	4430
2026-01-04 00:45:22.59	43.62	20.11	-41.4	-43.1	21.6	0.00e+00	0	43	0	721420288	54	4376
2026-01-04 00:45:25.32	44.06	20.39	-41.4	-43.1	21.6	0.00e+00	0	43	0	737148928	54	4387
2026-01-04 00:45:28.60	44.61	20.72	-41.3	-43.0	21.6	0.00e+00	0	43	0	754974720	54	4305
2026-01-04 00:45:31.73	45.15	21.03	-41.2	-42.9	21.7	0.00e+00	0	43	0	772800512	54	4264
2026-01-04 00:45:34.60	45.64	21.32	-41.2	-42.9	21.7	0.00e+00	0	43	0	788529152	54	4259
2026-01-04 00:45:37.75	46.20	21.65	-41.1	-42.7	21.9	0.00e+00	0	43	0	806354944	54	4190
2026-01-04 00:45:40.62	46.72	21.94	-40.8	-42.5	22.1	0.00e+00	0	43	0	823132160	53	4338
2026-01-04 00:45:43.77	47.30	22.26	-40.7	-42.4	22.2	0.00e+00	0	43	0	840957952	53	4276
2026-01-04 00:45:46.64	47.84	22.56	-41.1	-42.8	22.0	0.00e+00	0	43	0	856686592	53	4473
2026-01-04 00:45:49.79	48.44	22.89	-40.9	-42.6	22.2	0.00e+00	0	43	0	874512384	53	4364
2026-01-04 00:45:52.65	49.00	23.19	-40.8	-42.5	22.2	0.00e+00	0	43	0	890241024	53	4298
2026-01-04 00:45:55.95	49.66	23.53	-40.8	-42.4	22.3	0.00e+00	0	43	0	909115392	53	4286
2026-01-04 00:45:58.67	50.21	23.81	-40.8	-42.4	22.2	0.00e+00	0	43	0	923795456	53	4288
2026-01-04 00:46:02.45	51.00	24.21	-40.4	-42.1	22.5	0.00e+00	0	43	0	945815552	52	4357
2026-01-04 00:46:05.36	51.61	24.51	-40.3	-42.0	22.6	0.00e+00	0	43	0	961544192	52	4298
2026-01-04 00:46:08.66	52.33	24.86	-40.5	-42.1	22.5	0.00e+00	0	43	0	980418560	52	4379
2026-01-04 00:46:11.46	52.95	25.15	-40.3	-42.0	22.6	0.00e+00	0	43	0	996147200	52	4297
2026-01-04 00:46:14.75	53.69	25.50	-40.2	-41.9	22.2	0.00e+00	0	43	0	1015021568	52	4270
2026-01-04 00:46:17.47	54.31	25.78	-40.2	-42.0	22.2	0.00e+00	0	43	0	1029701632	52	4305
2026-01-04 00:46:20.77	55.09	26.12	-40.0	-41.7	22.5	0.00e+00	0	43	0	1048576000	52	4188
2026-01-04 00:46:23.75	55.80	26.43	-40.2	-41.9	22.3	0.00e+00	0	43	0	1065353216	51	4522
2026-01-04 00:46:26.97	56.58	26.77	-40.4	-42.1	22.2	0.00e+00	0	43	0	1083179008	51	4634
2026-01-04 00:46:29.84	57.30	27.06	-39.9	-41.6	22.6	0.00e+00	0	43	0	1099956224	51	4365
2026-01-04 00:46:32.99	58.09	27.38	-39.7	-41.4	22.7	0.00e+00	0	43	0	1116733440	51	4281
2026-01-04 00:46:35.85	58.83	27.68	-39.8	-41.5	22.6	0.00e+00	0	43	0	1133510656	51	4330
2026-01-04 00:46:38.98	59.66	27.99	-39.7	-41.4	22.7	0.00e+00	0	44	0	1151336448	51	4277
2026-01-04 00:46:41.85	60.43	28.28	-40.1	-41.9	22.6	0.00e+00	0	43	0	1167065088	51	4497
2026-01-04 00:46:45.00	61.29	28.59	-39.9	-41.6	22.6	0.00e+00	0	43	0	1184890880	51	4348
2026-01-04 00:46:47.86	62.08	28.87	-39.6	-41.3	22.9	0.00e+00	0	43	0	1200619520	51	4227
2026-01-04 00:46:51.13	63.01	29.19	-40.1	-41.8	22.4	0.00e+00	0	43	0	1219493888	51	4483
2026-01-04 00:46:53.86	63.79	29.45	-39.7	-41.4	22.7	0.00e+00	0	43	0	1235222528	51	4253
2026-01-04 00:46:57.10	64.74	29.76	-39.8	-41.5	22.8	0.00e+00	0	43	0	1253048320	51	4299
2026-01-04 00:47:00.22	65.68	30.05	-40.0	-41.7	22.6	0.00e+00	0	43	0	1270874112	51	4401
2026-01-04 00:47:03.47	66.67	30.34	-40.0	-41.8	22.5	0.00e+00	0	43	0	1288699904	51	4445
2026-01-04 00:47:06.34	67.55	30.60	-40.0	-41.7	22.6	0.00e+00	0	43	0	1304428544	51	4403
2026-01-04 00:47:09.49	68.54	30.87	-39.8	-41.5	22.6	0.00e+00	0	43	0	1322254336	51	4306
2026-01-04 00:47:12.35	69.46	31.12	-39.6	-41.3	22.8	0.00e+00	0	43	0	1339031552	50	4472
2026-01-04 00:47:15.51	70.48	31.38	-39.8	-41.5	22.6	0.00e+00	0	43	0	1356857344	50	4564
2026-01-04 00:47:18.36	71.42	31.61	-39.3	-40.9	23.0	0.00e+00	0	43	0	1372585984	50	4290
2026-01-04 00:47:21.65	72.52	31.87	-39.8	-41.6	22.5	0.00e+00	0	43	0	1391460352	50	4609
2026-01-04 00:47:24.37	73.44	32.07	-40.1	-41.8	22.6	0.00e+00	0	43	0	1406140416	51	4478
2026-01-04 00:47:27.70	74.59	32.32	-39.8	-41.5	22.7	0.00e+00	0	43	0	1425014784	51	4336
2026-01-04 00:47:30.67	75.62	32.52	-39.8	-41.6	22.6	0.00e+00	0	43	0	1441792000	51	4344
2026-01-04 00:47:33.68	76.69	32.72	-39.5	-41.2	22.8	0.00e+00	0	43	0	1458569216	51	4188
2026-01-04 00:47:36.69	77.76	32.92	-39.7	-41.5	22.6	0.00e+00	0	43	0	1475346432	50	4549
2026-01-04 00:47:39.63	78.82	33.09	-39.4	-41.1	22.9	0.00e+00	0	43	0	1492123648	50	4356
2026-01-04 00:47:42.99	80.05	33.28	-39.5	-41.2	22.9	0.00e+00	0	44	0	1510998016	50	4427
2026-01-04 00:47:45.71	81.05	33.43	-39.6	-41.3	22.8	0.00e+00	0	43	0	1526726656	50	4462
2026-01-04 00:47:49.01	82.28	33.59	-39.4	-41.1	22.9	0.00e+00	0	44	0	1544552448	50	4347
2026-01-04 00:47:51.72	83.30	33.71	-39.7	-41.4	22.8	0.00e+00	0	43	0	1560281088	50	4507
2026-01-04 00:47:55.23	84.63	33.86	-39.1	-40.8	22.9	0.00e+00	0	43	0	1580204032	50	4221
2026-01-04 00:47:57.97	85.68	33.96	-39.5	-41.2	23.0	0.00e+00	0	44	0	1594884096	50	4425
2026-01-04 00:48:01.27	86.95	34.07	-39.7	-41.4	22.9	0.00e+00	0	43	0	1613758464	50	4530
2026-01-04 00:48:03.99	88.00	34.15	-39.6	-41.3	22.9	0.00e+00	0	43	0	1629487104	50	4454
2026-01-04 00:48:07.28	89.28	34.24	-39.4	-41.1	23.0	0.00e+00	0	44	0	1647312896	50	4391
2026-01-04 00:48:10.15	90.40	34.29	-39.7	-41.4	23.0	0.00e+00	0	43	0	1664090112	50	4535
2026-01-04 00:48:13.62	91.76	34.35	-39.6	-41.3	22.8	0.00e+00	0	44	0	1682964480	50	4475
2026-01-04 00:48:16.34	92.82	34.38	-39.4	-41.1	23.0	0.00e+00	0	43	0	1698693120	50	4385
2026-01-04 00:48:19.64	94.12	34.40	-39.6	-41.3	22.8	0.00e+00	0	43	0	1717567488	50	4469
2026-01-04 00:48:22.59	95.28	34.41	-39.4	-41.1	23.0	0.00e+00	0	43	0	1733296128	50	4368
2026-01-04 00:48:25.59	96.46	34.40	-39.5	-41.3	22.9	0.00e+00	0	43	0	1750073344	50	4442
2026-01-04 00:48:28.56	97.63	34.38	-39.6	-41.3	22.9	0.00e+00	0	44	0	1767899136	50	4448
2026-01-04 00:48:31.78	98.90	34.35	-39.9	-41.6	22.6	0.00e+00	0	43	0	1785724928	50	4644
2026-01-04 00:48:34.71	100.05	34.30	-40.0	-41.7	22.5	0.00e+00	0	44	0	1802502144	50	4698
2026-01-04 00:48:38.24	101.43	34.23	-39.8	-41.5	22.9	0.00e+00	0	43	0	1821376512	51	4330
2026-01-04 00:48:40.96	102.48	34.16	-40.0	-41.8	22.5	0.00e+00	0	43	0	1837105152	51	4442
2026-01-04 00:48:44.25	103.76	34.07	-39.7	-41.4	22.7	0.00e+00	0	43	0	1855979520	51	4284
2026-01-04 00:48:46.97	104.81	33.98	-39.8	-41.5	22.7	0.00e+00	0	43	0	1870659584	51	4313
2026-01-04 00:48:50.27	106.07	33.86	-39.8	-41.5	22.7	0.00e+00	0	43	0	1889533952	51	4311
2026-01-04 00:48:52.99	107.10	33.74	-40.1	-41.9	22.3	0.00e+00	0	43	0	1904214016	51	4516
2026-01-04 00:48:56.29	108.34	33.59	-39.5	-41.2	22.9	0.00e+00	0	44	0	1923088384	51	4171
2026-01-04 00:48:59.01	109.36	33.46	-39.4	-41.1	22.7	0.00e+00	0	43	0	1938817024	50	4371
2026-01-04 00:49:02.27	110.57	33.29	-39.2	-40.9	22.9	0.00e+00	0	43	0	1956642816	50	4266
2026-01-04 00:49:05.40	111.72	33.11	-39.8	-41.5	22.7	0.00e+00	0	43	0	1974468608	50	4555
2026-01-04 00:49:08.27	112.76	32.94	-39.8	-41.6	22.5	0.00e+00	0	44	0	1991245824	50	4600
2026-01-04 00:49:11.44	113.89	32.74	-39.9	-41.6	22.4	0.00e+00	0	43	0	2008023040	50	4622
2026-01-04 00:49:14.31	114.91	32.55	-40.0	-41.7	22.4	0.00e+00	0	44	0	2024800256	50	4697
2026-01-04 00:49:17.46	116.01	32.33	-39.7	-41.4	22.6	0.00e+00	0	43	0	2042626048	50	4516
2026-01-04 00:49:20.32	117.00	32.12	-39.8	-41.5	22.5	0.00e+00	0	43	0	2058354688	50	4578
2026-01-04 00:49:23.47	118.07	31.88	-39.8	-41.6	22.4	0.00e+00	0	44	0	2076180480	50	4615
2026-01-04 00:49:26.34	119.04	31.66	-39.9	-41.7	22.4	0.00e+00	0	44	0	2091909120	50	4676
2026-01-04 00:49:29.57	120.11	31.39	-40.0	-41.7	22.3	0.00e+00	0	44	0	2110783488	50	4683
2026-01-04 00:49:32.43	121.04	31.16	-40.1	-41.9	22.2	0.00e+00	0	43	0	2126512128	50	4773
2026-01-04 00:49:35.78	122.12	30.87	-40.4	-42.1	22.3	0.00e+00	0	44	0	2145386496	51	4648
2026-01-04 00:49:38.71	123.04	30.61	-40.1	-41.8	22.3	0.00e+00	0	44	0	2162163712	51	4485
2026-01-04 00:49:42.01	124.07	30.32	-40.2	-41.9	22.4	0.00e+00	0	44	0	2181038080	51	4545
2026-01-04 00:49:44.73	124.90	30.07	-39.8	-41.5	22.7	0.00e+00	0	43	0	2195718144	51	4309
2026-01-04 00:49:48.03	125.89	29.76	-40.1	-41.8	22.4	0.00e+00	0	43	0	2214592512	51	4492
2026-01-04 00:49:51.06	126.78	29.47	-40.2	-41.9	22.3	0.00e+00	0	44	0	2231369728	51	4521
2026-01-04 00:49:54.06	127.65	29.19	-40.0	-41.8	22.4	0.00e+00	0	44	0	2248146944	51	4444
2026-01-04 00:49:57.07	128.51	28.89	-40.0	-41.8	22.4	0.00e+00	0	44	0	2264924160	51	4444
2026-01-04 00:50:00.03	129.34	28.60	-40.2	-41.9	22.3	0.00e+00	0	43	0	2281701376	51	4541
2026-01-04 00:50:03.19	130.21	28.28	-40.3	-42.0	22.3	0.00e+00	0	44	0	2299527168	51	4572
2026-01-04 00:50:06.05	130.98	27.99	-40.5	-42.3	22.2	0.00e+00	0	43	0	2316304384	52	4448
2026-01-04 00:50:09.20	131.81	27.67	-40.3	-42.1	22.1	0.00e+00	0	44	0	2333081600	52	4358
2026-01-04 00:50:12.04	132.55	27.38	-40.1	-41.8	22.3	0.00e+00	0	44	0	2349858816	52	4241
2026-01-04 00:50:15.34	133.39	27.04	-40.2	-42.0	22.3	0.00e+00	0	43	0	2367684608	51	4568
2026-01-04 00:50:18.06	134.07	26.76	-40.6	-42.4	21.9	0.00e+00	0	43	0	2383413248	51	4772
2026-01-04 00:50:21.35	134.87	26.42	-40.5	-42.3	21.8	0.00e+00	0	43	0	2402287616	52	4451
2026-01-04 00:50:24.07	135.53	26.13	-40.5	-42.3	22.0	0.00e+00	0	44	0	2416967680	52	4449
2026-01-04 00:50:27.46	136.33	25.78	-40.4	-42.1	22.1	0.00e+00	0	44	0	2435842048	52	4389
2026-01-04 00:50:30.24	136.97	25.48	-40.4	-42.1	22.1	0.00e+00	0	44	0	2451570688	52	4376
2026-01-04 00:50:33.66	137.74	25.12	-40.3	-42.0	22.2	0.00e+00	0	44	0	2471493632	52	4317
2026-01-04 00:50:36.68	138.41	24.81	-40.5	-42.3	22.2	0.00e+00	0	44	0	2488270848	52	4457
2026-01-04 00:50:39.98	139.13	24.46	-40.7	-42.5	22.0	0.00e+00	0	44	0	2506096640	52	4569
2026-01-04 00:50:42.75	139.72	24.16	-40.8	-42.6	21.8	0.00e+00	0	44	0	2521825280	52	4610
2026-01-04 00:50:46.16	140.43	23.81	-40.7	-42.4	21.9	0.00e+00	0	44	0	2541748224	52	4526
2026-01-04 00:50:48.98	141.01	23.51	-40.9	-42.6	21.7	0.00e+00	0	43	0	2557476864	52	4641
2026-01-04 00:50:52.28	141.67	23.16	-40.9	-42.7	21.6	0.00e+00	0	43	0	2575302656	52	4689
2026-01-04 00:50:55.00	142.20	22.88	-40.9	-42.7	21.6	0.00e+00	0	43	0	2591031296	52	4699
2026-01-04 00:50:58.67	142.91	22.49	-41.0	-42.7	21.6	0.00e+00	0	44	0	2612002816	52	4705
2026-01-04 00:51:01.53	143.45	22.19	-40.9	-42.7	21.7	0.00e+00	0	44	0	2627731456	52	4675
2026-01-04 00:51:04.72	144.04	21.86	-41.7	-43.4	21.5	0.00e+00	0	44	0	2645557248	54	4541
2026-01-04 00:51:07.62	144.56	21.56	-41.2	-43.1	21.4	0.00e+00	0	44	0	2662334464	54	4342
2026-01-04 00:51:11.23	145.20	21.19	-41.1	-42.9	21.4	0.00e+00	0	44	0	2682257408	54	4250
2026-01-04 00:51:13.94	145.67	20.91	-41.0	-42.8	21.5	0.00e+00	0	44	0	2697986048	54	4226
2026-01-04 00:51:17.24	146.24	20.58	-41.3	-43.1	21.2	0.00e+00	0	43	0	2715811840	54	4373
2026-01-04 00:51:20.07	146.71	20.29	-41.5	-43.3	21.0	0.00e+00	0	44	0	2732589056	54	4491
2026-01-04 00:51:23.54	147.28	19.94	-41.6	-43.3	21.0	0.00e+00	0	43	0	2751463424	54	4485
2026-01-04 00:51:26.26	147.71	19.67	-41.6	-43.4	20.9	0.00e+00	0	44	0	2767192064	54	4542
2026-01-04 00:51:29.56	148.23	19.34	-41.9	-43.7	20.7	0.00e+00	0	43	0	2786066432	54	4699
2026-01-04 00:51:32.28	148.65	19.07	-42.1	-44.0	20.5	0.00e+00	0	44	0	2800746496	54	4829
2026-01-04 00:51:35.57	149.15	18.74	-42.6	-44.4	20.6	0.00e+00	0	44	0	2819620864	55	4803
2026-01-04 00:51:38.30	149.56	18.48	-42.2	-44.1	20.5	0.00e+00	0	44	0	2834300928	55	4621
2026-01-04 00:51:41.83	150.07	18.13	-42.2	-44.1	20.5	0.00e+00	0	44	0	2854223872	55	4624
2026-01-04 00:51:44.55	150.46	17.87	-42.4	-44.3	20.3	0.00e+00	0	44	0	2869952512	55	4733
2026-01-04 00:51:47.85	150.92	17.55	-42.3	-44.2	20.3	0.00e+00	0	44	0	2888826880	55	4687
2026-01-04 00:51:50.57	151.30	17.29	-42.3	-44.2	20.4	0.00e+00	0	44	0	2903506944	55	4661
2026-01-04 00:51:53.87	151.74	16.98	-42.3	-44.1	20.4	0.00e+00	0	44	0	2922381312	55	4629
2026-01-04 00:51:56.59	152.10	16.72	-43.0	-44.9	20.2	9.10e-06	0	43	0	2937061376	56	4763
2026-01-04 00:52:00.07	152.56	16.40	-42.7	-44.6	20.2	0.00e+00	0	44	0	2956984320	56	4644
2026-01-04 00:52:02.85	152.91	16.14	-42.8	-44.7	20.1	0.00e+00	0	44	0	2972712960	56	4653
2026-01-04 00:52:06.14	153.33	15.84	-42.7	-44.6	20.1	0.00e+00	0	44	0	2991587328	56	4618
2026-01-04 00:52:08.98	153.68	15.58	-42.7	-44.6	20.2	0.00e+00	0	44	0	3007315968	56	4603
2026-01-04 00:52:12.08	154.05	15.30	-42.7	-44.6	20.1	0.00e+00	0	44	0	3025141760	56	4626
2026-01-04 00:52:15.58	154.47	14.98	-42.8	-44.7	20.0	0.00e+00	0	44	0	3044016128	56	4692
2026-01-04 00:52:18.30	154.79	14.74	-43.0	-44.9	19.9	0.00e+00	0	44	0	3059744768	56	4776
2026-01-04 00:52:21.60	155.17	14.45	-42.9	-44.8	19.8	0.00e+00	0	44	0	3078619136	56	4751
2026-01-04 00:52:24.46	155.49	14.19	-43.0	-44.9	19.8	0.00e+00	0	43	0	3094347776	56	4793
2026-01-04 00:52:27.69	155.85	13.91	-43.8	-45.8	19.6	0.00e+00	0	44	0	3112173568	58	4713
2026-01-04 00:52:30.84	156.19	13.64	-43.3	-45.3	19.5	0.00e+00	0	44	0	3129999360	58	4462
2026-01-04 00:52:33.70	156.49	13.39	-43.4	-45.4	19.4	0.00e+00	0	44	0	3146776576	58	4526
2026-01-04 00:52:36.94	156.84	13.12	-43.7	-45.7	19.2	0.00e+00	0	44	0	3164602368	58	4690
2026-01-04 00:52:39.81	157.13	12.87	-43.8	-45.7	19.1	3.12e-03	0	43	0	3180331008	58	4705
2026-01-04 00:52:42.95	157.45	12.61	-43.7	-45.7	19.1	0.00e+00	0	44	0	3198156800	58	4676
2026-01-04 00:52:45.82	157.74	12.37	-43.8	-45.7	19.1	0.00e+00	0	44	0	3214934016	58	4690
2026-01-04 00:52:49.02	158.05	12.11	-43.8	-45.7	19.1	0.00e+00	0	44	0	3232759808	58	4703
2026-01-04 00:52:51.95	158.34	11.87	-43.9	-45.8	19.0	0.00e+00	0	44	0	3248488448	58	4759
2026-01-04 00:52:55.09	158.64	11.61	-43.8	-45.7	19.0	0.00e+00	0	44	0	3266314240	58	4705
2026-01-04 00:52:58.00	158.91	11.37	-43.9	-45.9	18.9	0.00e+00	0	44	0	3283091456	58	4774
2026-01-04 00:53:01.00	159.19	11.13	-43.9	-45.9	18.8	0.00e+00	0	44	0	3299868672	58	4794
2026-01-04 00:53:04.00	159.46	10.89	-44.5	-46.5	18.9	0.00e+00	0	44	0	3316645888	60	4589
2026-01-04 00:53:07.00	159.73	10.66	-44.1	-46.1	18.8	0.00e+00	0	44	0	3333423104	60	4379
2026-01-04 00:53:10.00	159.99	10.42	-44.1	-46.2	18.8	0.00e+00	0	44	0	3350200320	60	4396
2026-01-04 00:53:13.00	160.25	10.19	-44.2	-46.3	18.6	0.00e+00	0	44	0	3366977536	60	4450
2026-01-04 00:53:16.00	160.51	9.95	-44.3	-46.4	18.5	0.00e+00	0	44	0	3384803328	60	4499
2026-01-04 00:53:19.01	160.76	9.72	-44.4	-46.4	18.4	0.00e+00	0	44	0	3401580544	60	4535
2026-01-04 00:53:22.01	161.01	9.49	-44.3	-46.4	18.4	0.00e+00	0	44	0	3418357760	60	4503
2026-01-04 00:53:25.01	161.25	9.27	-44.5	-46.6	18.4	0.00e+00	0	44	0	3435134976	60	4601
2026-01-04 00:53:28.01	161.49	9.04	-44.8	-46.8	18.1	0.00e+00	0	44	0	3451912192	60	4754
2026-01-04 00:53:31.02	161.73	8.82	-54.4	-66.7	3.8	8.47e-01	0	44	104	3457155072	79	15662
2026-01-04 00:53:34.03	161.97	8.59	-54.7	-66.9	3.8	8.48e-01	0	44	104	3457155072	80	15188
2026-01-04 00:53:37.05	162.20	8.37	-54.8	-67.0	3.8	8.46e-01	0	44	104	3457155072	80	15295
2026-01-04 00:53:40.05	162.43	8.15	-54.9	-67.1	3.8	8.47e-01	0	44	104	3457155072	80	15489
2026-01-04 00:53:43.06	162.65	7.93	-55.3	-67.4	3.8	8.47e-01	0	44	104	3457155072	81	15185
2026-01-04 00:53:46.06	162.87	7.72	-54.9	-67.1	3.8	8.46e-01	0	44	104	3457155072	81	14618
2026-01-04 00:53:49.07	163.09	7.50	-55.0	-67.1	3.8	8.47e-01	0	44	104	3457155072	81	14575
2026-01-04 00:53:52.08	163.31	7.29	-54.8	-67.1	3.8	8.47e-01	0	44	104	3457155072	81	14584
2026-01-04 00:53:55.09	163.52	7.07	-54.6	-67.0	3.8	8.46e-01	0	44	104	3457155072	81	14426
2026-01-04 00:53:58.10	163.73	6.86	-54.6	-67.1	3.8	8.47e-01	0	44	104	3457155072	81	14552
2026-01-04 00:54:01.11	163.94	6.65	-55.0	-67.4	3.8	8.47e-01	0	44	104	3457155072	81	15190
2026-01-04 00:54:04.13	164.14	6.44	-54.8	-67.2	3.8	8.46e-01	0	44	104	3457155072	81	14818
2026-01-04 00:54:07.14	164.34	6.24	-54.6	-67.0	3.8	8.47e-01	0	44	104	3457155072	81	14497
2026-01-04 00:54:10.16	164.54	6.03	-54.7	-67.1	3.8	8.48e-01	0	44	104	3457155072	81	14606
2026-01-04 00:54:13.17	164.74	5.83	-54.6	-67.0	3.8	8.47e-01	0	44	104	3457155072	81	14446
2026-01-04 00:54:16.18	164.93	5.62	-54.6	-67.1	3.8	8.46e-01	0	44	104	3457155072	81	14573
2026-01-04 00:54:19.20	165.12	5.42	-54.6	-67.0	3.8	8.47e-01	0	44	104	3457155072	81	14516
2026-01-04 00:54:22.21	165.31	5.22	-54.6	-67.0	3.8	8.46e-01	0	44	104	3457155072	81	14427
2026-01-04 00:54:25.22	165.49	5.02	-54.5	-67.0	3.8	8.47e-01	0	44	104	3457155072	81	14387

#Closed at: 2026-01-04 00:54:26
#Recorded file [3457 MB]: D:/Data/31040_260104_034218.dat