passes_logs/2026/01/04/T1/T1__20260104_055004_FENGYUN_3E_rec.log

#Pass ID: 20260104_055004_FENGYUN 3E
#Satellite: FENGYUN 3E
#Configuration: FENGYUN 3E
#almurnet v.1.7.20251203
#Start time: 2026-01-04 05:50:05

#Version: 2.0.20230620
#Station: T1
#Location: 37.570604 lon 55.790049 lat
#TLE: 1 49008U 21062A   26004.01270550 -.00000256  00000+0 -10014-3 0  9997
#TLE: 2 49008  98.7472   9.2701 0001499 161.2681 198.8551 14.19882497233285

#Time	Az	El	Level	Level2	SNR	BER	BlckErr	Temp	State	Recorded	gain1	gain2
2026-01-04 05:50:05.41	5.30	5.07	-53.4	-65.4	3.8	8.46e-01	0	37	0	0	77	14054
2026-01-04 05:50:08.41	5.03	5.24	-53.5	-64.8	3.8	8.47e-01	0	38	104	0	77	13225
2026-01-04 05:50:11.42	4.76	5.42	-53.2	-64.5	3.8	8.47e-01	0	38	104	0	77	12737
2026-01-04 05:50:14.42	4.49	5.59	-53.6	-64.7	3.8	8.47e-01	0	38	104	0	77	13095
2026-01-04 05:50:17.43	4.21	5.77	-53.5	-64.9	3.8	8.47e-01	0	38	104	0	77	13281
2026-01-04 05:50:20.43	3.93	5.94	-53.9	-65.3	3.8	8.47e-01	0	38	104	0	77	13903
2026-01-04 05:50:23.43	3.64	6.12	-53.7	-65.0	3.8	8.47e-01	0	38	104	0	77	13509
2026-01-04 05:50:26.43	3.36	6.29	-53.7	-65.0	3.8	8.48e-01	0	38	104	0	77	13483
2026-01-04 05:50:29.44	3.06	6.47	-53.5	-64.8	3.8	8.47e-01	0	38	104	0	77	13236
2026-01-04 05:50:32.44	2.77	6.65	-53.3	-64.8	3.8	8.46e-01	0	38	104	0	77	13143
2026-01-04 05:50:35.45	2.47	6.83	-53.6	-65.0	3.8	8.47e-01	0	39	104	0	77	13425
2026-01-04 05:50:38.45	2.16	7.01	-53.6	-65.1	3.8	8.48e-01	0	39	104	0	77	13618
2026-01-04 05:50:41.46	1.86	7.19	-53.7	-65.1	3.8	8.46e-01	0	39	104	0	77	13613
2026-01-04 05:50:44.46	1.55	7.37	-53.6	-65.1	3.8	8.49e-01	0	39	104	0	77	13606
2026-01-04 05:50:47.47	1.23	7.55	-53.8	-65.2	3.8	8.47e-01	0	39	104	0	77	13871
2026-01-04 05:50:50.48	0.91	7.73	-53.7	-65.1	3.8	8.47e-01	0	39	104	0	77	13653
2026-01-04 05:50:53.48	0.59	7.91	-53.4	-63.8	3.8	8.47e-01	0	39	104	0	77	11728
2026-01-04 05:50:56.49	0.26	8.09	-53.3	-63.0	3.8	8.46e-01	0	39	104	0	77	10667
2026-01-04 05:50:59.49	359.93	8.27	-53.5	-63.9	3.8	8.45e-01	0	39	104	0	77	11946
2026-01-04 05:51:02.50	359.59	8.46	-53.5	-63.1	3.8	8.46e-01	0	39	104	0	77	10869
2026-01-04 05:51:05.50	359.25	8.64	-52.5	-58.1	6.1	4.35e-01	0	39	0	2097152	75	6820
2026-01-04 05:51:08.51	358.90	8.82	-50.2	-53.1	10.9	3.46e-03	0	39	0	24117248	70	5153
2026-01-04 05:51:11.52	358.55	9.01	-49.0	-51.2	13.1	3.66e-05	0	40	0	45088768	68	4621
2026-01-04 05:51:14.52	358.20	9.19	-49.1	-51.3	12.8	1.88e-04	0	39	0	67108864	68	4683
2026-01-04 05:51:17.52	357.84	9.38	-44.9	-46.2	17.8	0.00e+00	0	39	0	80740352	60	4139
2026-01-04 05:51:20.52	357.48	9.56	-44.7	-46.1	17.8	0.00e+00	0	40	0	101711872	60	4060
2026-01-04 05:51:23.52	357.11	9.74	-44.8	-46.1	18.0	0.00e+00	0	40	0	123731968	60	4095
2026-01-04 05:51:26.52	356.74	9.93	-44.7	-46.0	18.0	0.00e+00	0	39	0	145752064	60	4027
2026-01-04 05:51:29.52	356.36	10.11	-44.8	-46.1	17.8	0.00e+00	0	40	0	166723584	59	4333
2026-01-04 05:51:32.52	355.98	10.30	-44.6	-46.0	17.9	0.00e+00	0	40	0	188743680	59	4267
2026-01-04 05:51:35.51	355.59	10.48	-44.8	-46.2	17.8	0.00e+00	0	40	0	210763776	59	4349
2026-01-04 05:51:38.51	355.20	10.67	-44.8	-46.3	17.9	0.00e+00	0	40	0	231735296	59	4393
2026-01-04 05:51:41.50	354.80	10.85	-44.5	-45.9	18.1	0.00e+00	0	39	0	252706816	59	4234
2026-01-04 05:51:44.50	354.40	11.04	-44.4	-45.9	18.2	0.00e+00	0	40	0	274726912	58	4448
2026-01-04 05:51:47.50	353.99	11.22	-43.9	-45.3	18.6	0.00e+00	0	39	0	296747008	58	4182
2026-01-04 05:51:50.50	353.58	11.41	-43.7	-45.0	19.0	0.00e+00	0	40	0	317718528	58	4023
2026-01-04 05:51:53.51	353.16	11.59	-44.1	-45.4	18.7	0.00e+00	0	40	0	339738624	58	4217
2026-01-04 05:51:56.51	352.73	11.78	-44.0	-45.3	18.7	0.00e+00	0	40	0	361758720	58	4157
2026-01-04 05:51:59.52	352.30	11.96	-44.2	-45.4	18.5	0.00e+00	0	40	0	383778816	58	4241
2026-01-04 05:52:02.51	351.87	12.15	-44.4	-45.6	18.4	0.00e+00	0	40	0	404750336	58	4321
2026-01-04 05:52:05.50	351.43	12.33	-44.5	-45.7	18.4	0.00e+00	0	40	0	426770432	58	4350
2026-01-04 05:52:08.49	350.98	12.51	-44.0	-45.1	18.9	0.00e+00	0	40	0	447741952	58	4093
2026-01-04 05:52:11.49	350.53	12.70	-43.9	-45.0	18.9	0.00e+00	0	40	0	469762048	58	4048
2026-01-04 05:52:14.55	350.06	12.88	-44.0	-45.2	19.1	0.00e+00	0	40	0	491782144	57	4359
2026-01-04 05:52:17.69	349.58	13.08	-43.8	-45.0	19.3	0.00e+00	0	40	0	514850816	57	4267
2026-01-04 05:52:20.55	349.13	13.25	-44.3	-45.4	19.1	0.00e+00	0	40	0	534773760	57	4445
2026-01-04 05:52:23.70	348.63	13.44	-44.6	-45.7	19.1	0.00e+00	0	40	0	557842432	58	4380
2026-01-04 05:52:26.63	348.16	13.62	-44.6	-45.7	19.1	0.00e+00	0	40	0	578813952	59	4118
2026-01-04 05:52:29.93	347.62	13.81	-44.4	-45.6	19.0	0.00e+00	0	40	0	602931200	59	4077
2026-01-04 05:52:32.79	347.15	13.99	-44.3	-45.5	19.2	0.00e+00	0	40	0	623902720	59	4023
2026-01-04 05:52:35.94	346.62	14.17	-43.8	-44.9	19.2	0.00e+00	0	40	0	645922816	58	3961
2026-01-04 05:52:38.79	346.14	14.34	-43.9	-45.0	19.3	0.00e+00	0	40	0	666894336	58	4028
2026-01-04 05:52:41.94	345.60	14.53	-43.8	-45.0	19.2	0.00e+00	0	40	0	689963008	58	4047
2026-01-04 05:52:44.80	345.11	14.70	-43.6	-44.9	19.3	0.00e+00	0	40	0	709885952	57	4212
2026-01-04 05:52:48.13	344.52	14.89	-43.7	-44.9	19.5	0.00e+00	0	40	0	734003200	57	4206
2026-01-04 05:52:50.86	344.04	15.05	-43.4	-44.5	19.8	0.00e+00	0	40	0	753926144	57	4032
2026-01-04 05:52:54.12	343.45	15.23	-43.6	-44.7	19.9	0.00e+00	0	40	0	778043392	57	4122
2026-01-04 05:52:57.24	342.88	15.41	-43.7	-44.8	19.9	0.00e+00	0	40	0	800063488	57	4181
2026-01-04 05:53:00.25	342.33	15.58	-43.3	-44.3	20.0	0.00e+00	0	40	0	822083584	57	3947
2026-01-04 05:53:03.26	341.77	15.75	-43.2	-44.2	20.1	0.00e+00	0	40	0	843055104	57	3878
2026-01-04 05:53:06.26	341.20	15.91	-43.7	-44.7	20.2	0.00e+00	0	40	0	865075200	56	4381
2026-01-04 05:53:09.28	340.63	16.08	-42.9	-43.9	20.2	0.00e+00	0	40	0	887095296	56	3981
2026-01-04 05:53:12.57	340.00	16.26	-43.1	-44.0	20.3	0.00e+00	0	40	0	911212544	56	4035
2026-01-04 05:53:15.29	339.47	16.40	-42.8	-43.8	20.4	0.00e+00	0	40	0	930086912	56	3943
2026-01-04 05:53:18.57	338.82	16.57	-43.5	-44.5	20.5	0.00e+00	0	40	0	954204160	56	4248
2026-01-04 05:53:21.29	338.28	16.72	-43.0	-44.0	20.5	0.00e+00	0	40	0	974127104	56	4023
2026-01-04 05:53:24.58	337.62	16.88	-43.2	-44.2	20.3	0.00e+00	0	40	0	997195776	56	4119
2026-01-04 05:53:27.30	337.06	17.02	-42.8	-43.7	20.3	5.70e-06	0	40	0	1017118720	56	3907
2026-01-04 05:53:30.64	336.38	17.19	-42.7	-43.7	20.5	0.00e+00	0	40	0	1041235968	56	3869
2026-01-04 05:53:33.48	335.79	17.33	-42.7	-43.6	20.5	0.00e+00	0	40	0	1062207488	55	4084
2026-01-04 05:53:36.63	335.13	17.48	-42.5	-43.4	20.7	0.00e+00	0	40	0	1084227584	55	3984
2026-01-04 05:53:39.82	334.46	17.63	-42.6	-43.6	20.7	0.00e+00	0	40	0	1107296256	55	4086
2026-01-04 05:53:42.68	333.84	17.76	-42.5	-43.5	20.8	0.00e+00	0	40	0	1128267776	55	4020
2026-01-04 05:53:45.83	333.17	17.90	-42.7	-43.6	20.7	0.00e+00	0	40	0	1151336448	55	4094
2026-01-04 05:53:48.69	332.54	18.03	-42.6	-43.6	20.7	0.00e+00	0	40	0	1171259392	55	4062
2026-01-04 05:53:51.84	331.85	18.16	-42.6	-43.6	20.7	0.00e+00	0	40	0	1194328064	55	4056
2026-01-04 05:53:54.70	331.22	18.28	-42.4	-43.3	20.9	0.00e+00	0	40	0	1214251008	55	3934
2026-01-04 05:53:57.85	330.52	18.41	-42.5	-43.4	21.0	0.00e+00	0	40	0	1237319680	55	3977
2026-01-04 05:54:00.71	329.87	18.52	-42.3	-43.2	21.1	0.00e+00	0	40	0	1258291200	55	3873
2026-01-04 05:54:04.00	329.13	18.65	-42.1	-43.1	21.3	0.00e+00	0	40	0	1282408448	54	4068
2026-01-04 05:54:06.71	328.51	18.75	-42.2	-43.2	21.2	0.00e+00	0	40	0	1301282816	54	4105
2026-01-04 05:54:10.00	327.75	18.86	-41.9	-42.9	21.3	0.00e+00	0	40	0	1325400064	54	3962
2026-01-04 05:54:12.72	327.12	18.96	-42.4	-43.3	21.3	0.00e+00	0	40	0	1345323008	54	4180
2026-01-04 05:54:16.20	326.31	19.07	-42.1	-43.0	21.5	0.00e+00	0	40	0	1369440256	54	4029
2026-01-04 05:54:19.27	325.59	19.17	-41.3	-42.1	21.4	0.00e+00	0	40	0	1392508928	53	3866
2026-01-04 05:54:22.56	324.81	19.27	-41.8	-42.8	21.2	0.00e+00	0	40	0	1415577600	53	4147
2026-01-04 05:54:25.28	324.16	19.35	-42.4	-43.3	21.2	0.00e+00	0	40	0	1435500544	54	4170
2026-01-04 05:54:28.77	323.32	19.44	-42.5	-43.5	21.1	0.00e+00	0	40	0	1460666368	54	4250
2026-01-04 05:54:31.48	322.67	19.51	-41.8	-42.7	21.2	0.00e+00	0	40	0	1480589312	54	3894
2026-01-04 05:54:34.78	321.87	19.59	-41.9	-42.8	21.3	0.00e+00	0	40	0	1504706560	54	3946
2026-01-04 05:54:37.61	321.19	19.66	-41.6	-42.5	21.5	0.00e+00	0	40	0	1524629504	53	4033
2026-01-04 05:54:41.11	320.33	19.73	-41.7	-42.6	21.4	0.00e+00	0	40	0	1549795328	53	4070
2026-01-04 05:54:43.83	319.66	19.78	-42.5	-43.4	21.2	0.00e+00	0	40	0	1569718272	54	4201
2026-01-04 05:54:47.07	318.87	19.84	-42.4	-43.3	21.3	0.00e+00	0	40	0	1592786944	54	4159
2026-01-04 05:54:50.23	318.09	19.89	-41.2	-42.2	21.5	0.00e+00	0	40	0	1615855616	53	3875
2026-01-04 05:54:53.26	317.33	19.93	-41.5	-42.4	21.4	0.00e+00	0	40	0	1637875712	53	3990
2026-01-04 05:54:56.27	316.59	19.97	-42.1	-43.0	21.1	0.00e+00	0	40	0	1659895808	53	4250
2026-01-04 05:54:59.27	315.84	20.00	-41.9	-42.8	21.3	0.00e+00	0	40	0	1680867328	53	4174
2026-01-04 05:55:02.28	315.09	20.03	-42.1	-43.0	21.4	0.00e+00	0	40	0	1702887424	54	4043
2026-01-04 05:55:05.26	314.34	20.05	-42.1	-43.0	21.4	0.00e+00	0	40	0	1723858944	54	4033
2026-01-04 05:55:08.27	313.59	20.07	-42.2	-43.1	21.5	0.00e+00	0	40	0	1745879040	54	4053
2026-01-04 05:55:11.27	312.84	20.08	-42.0	-42.9	21.6	0.00e+00	0	40	0	1767899136	54	3974
2026-01-04 05:55:14.28	312.08	20.09	-42.0	-42.9	21.5	0.00e+00	0	40	0	1788870656	54	3961
2026-01-04 05:55:17.28	311.33	20.09	-42.1	-43.0	21.5	0.00e+00	0	40	0	1810890752	54	4032
2026-01-04 05:55:20.54	310.51	20.08	-41.9	-42.8	21.6	0.00e+00	0	40	0	1833959424	54	3948
2026-01-04 05:55:23.26	309.83	20.08	-41.9	-42.9	21.6	0.00e+00	0	40	0	1853882368	54	3964
2026-01-04 05:55:26.81	308.94	20.06	-42.1	-43.0	21.5	0.00e+00	0	40	0	1880096768	54	4012
2026-01-04 05:55:29.53	308.26	20.04	-42.1	-43.0	21.4	0.00e+00	0	40	0	1898971136	54	4009
2026-01-04 05:55:32.82	307.44	20.01	-41.9	-42.8	21.4	0.00e+00	0	40	0	1923088384	54	3935
2026-01-04 05:55:35.67	306.73	19.99	-41.7	-42.6	21.6	0.00e+00	0	40	0	1944059904	54	3851
2026-01-04 05:55:38.82	305.94	19.95	-41.7	-42.5	21.6	0.00e+00	0	40	0	1966080000	53	4043
2026-01-04 05:55:41.67	305.23	19.91	-41.9	-42.8	21.5	0.00e+00	0	40	0	1987051520	53	4154
2026-01-04 05:55:45.02	304.40	19.86	-41.9	-42.7	21.5	0.00e+00	0	40	0	2011168768	53	4145
2026-01-04 05:55:47.95	303.68	19.81	-41.7	-42.6	21.8	0.00e+00	0	40	0	2032140288	53	4062
2026-01-04 05:55:51.30	302.86	19.75	-41.4	-42.3	21.5	0.00e+00	0	40	0	2056257536	52	4170
2026-01-04 05:55:54.02	302.19	19.69	-42.0	-42.8	21.3	0.00e+00	0	40	0	2076180480	53	4190
2026-01-04 05:55:57.31	301.39	19.62	-41.5	-42.4	21.4	0.00e+00	0	40	0	2100297728	53	3990
2026-01-04 05:56:00.03	300.73	19.56	-41.4	-42.3	21.6	0.00e+00	0	40	0	2119172096	53	3930
2026-01-04 05:56:03.33	299.93	19.48	-41.5	-42.4	21.5	0.00e+00	0	40	0	2143289344	53	3976
2026-01-04 05:56:06.05	299.27	19.41	-41.7	-42.5	21.4	0.00e+00	0	40	0	2163212288	53	4049
2026-01-04 05:56:09.35	298.48	19.31	-41.7	-42.6	21.4	0.00e+00	0	40	0	2186280960	53	4066
2026-01-04 05:56:12.07	297.84	19.23	-41.5	-42.4	21.6	0.00e+00	0	40	0	2206203904	53	3994
2026-01-04 05:56:15.36	297.06	19.13	-41.1	-42.0	21.4	0.00e+00	0	40	0	2230321152	52	4027
2026-01-04 05:56:18.09	296.41	19.05	-41.7	-42.6	21.4	0.00e+00	0	40	0	2250244096	53	4084
2026-01-04 05:56:21.59	295.60	18.93	-41.7	-42.6	21.4	0.00e+00	0	40	0	2275409920	53	4070
2026-01-04 05:56:24.58	294.90	18.82	-41.8	-42.7	21.3	0.00e+00	0	40	0	2296381440	53	4115
2026-01-04 05:56:27.59	294.21	18.71	-42.2	-43.1	20.9	0.00e+00	0	40	0	2318401536	54	4070
2026-01-04 05:56:30.60	293.52	18.60	-42.5	-43.4	20.9	4.50e-06	0	40	0	2340421632	54	4211
2026-01-04 05:56:33.71	292.82	18.48	-42.0	-42.4	20.0	2.28e-05	0	40	0	2362441728	52	4204
2026-01-04 05:56:36.74	292.13	18.36	-42.1	-43.0	21.0	7.32e-05	0	40	0	2384461824	53	4273
2026-01-04 05:56:40.09	291.39	18.22	-42.3	-43.2	20.9	0.00e+00	0	40	0	2408579072	54	4115
2026-01-04 05:56:42.87	290.77	18.10	-42.5	-43.4	21.0	0.00e+00	0	40	0	2428502016	54	4200
2026-01-04 05:56:46.11	290.06	17.96	-42.1	-43.0	20.9	0.00e+00	0	40	0	2451570688	54	4021
2026-01-04 05:56:48.97	289.44	17.84	-42.5	-43.4	20.8	0.00e+00	0	40	0	2472542208	54	4223
2026-01-04 05:56:52.13	288.76	17.69	-42.3	-43.2	21.0	0.00e+00	0	40	0	2495610880	54	4127
2026-01-04 05:56:55.02	288.14	17.56	-42.3	-43.2	20.9	0.00e+00	0	40	0	2516582400	54	4121
2026-01-04 05:56:58.30	287.45	17.40	-42.4	-43.3	20.8	0.00e+00	0	40	0	2539651072	54	4164
2026-01-04 05:57:01.24	286.83	17.26	-42.4	-43.2	20.9	0.00e+00	0	40	0	2561671168	54	4126
2026-01-04 05:57:04.53	286.15	17.10	-42.2	-43.1	20.9	0.00e+00	0	40	0	2584739840	54	4070
2026-01-04 05:57:07.25	285.59	16.96	-42.3	-43.2	20.9	0.00e+00	0	40	0	2604662784	54	4128
2026-01-04 05:57:10.59	284.91	16.79	-42.5	-43.4	20.8	0.00e+00	0	40	0	2628780032	54	4240
2026-01-04 05:57:13.58	284.31	16.63	-42.3	-43.2	20.8	0.00e+00	0	40	0	2650800128	55	3906
2026-01-04 05:57:16.59	283.71	16.48	-42.5	-43.4	20.7	0.00e+00	0	40	0	2671771648	55	3992
2026-01-04 05:57:19.60	283.12	16.32	-42.5	-43.5	20.6	0.00e+00	0	40	0	2693791744	54	4246
2026-01-04 05:57:22.61	282.54	16.15	-42.7	-43.7	20.5	0.00e+00	0	40	0	2715811840	55	4100
2026-01-04 05:57:25.62	281.96	15.99	-43.1	-44.1	20.3	0.00e+00	0	40	0	2737831936	56	4067
2026-01-04 05:57:28.63	281.38	15.82	-43.2	-44.2	20.2	0.00e+00	0	40	0	2758803456	56	4114
2026-01-04 05:57:31.62	280.82	15.66	-43.0	-44.0	20.4	0.00e+00	0	40	0	2780823552	56	4022
2026-01-04 05:57:34.62	280.26	15.49	-43.0	-43.9	20.3	0.00e+00	0	40	0	2802843648	56	3983
2026-01-04 05:57:37.81	279.68	15.31	-43.1	-44.1	20.3	0.00e+00	0	40	0	2825912320	56	4065
2026-01-04 05:57:40.68	279.15	15.14	-43.2	-44.2	20.2	0.00e+00	0	40	0	2845835264	56	4113
2026-01-04 05:57:43.83	278.59	14.96	-43.4	-44.4	20.0	0.00e+00	0	40	0	2868903936	56	4207
2026-01-04 05:57:46.68	278.08	14.79	-43.2	-44.2	20.1	0.00e+00	0	40	0	2889875456	56	4116
2026-01-04 05:57:49.83	277.53	14.61	-43.4	-44.3	20.0	0.00e+00	0	40	0	2911895552	56	4186
2026-01-04 05:57:52.74	277.02	14.44	-43.3	-44.3	19.9	0.00e+00	0	40	0	2932867072	56	4155
2026-01-04 05:57:56.24	276.43	14.23	-43.1	-44.1	20.0	0.00e+00	0	40	0	2958032896	56	4080
2026-01-04 05:57:58.96	275.97	14.07	-43.5	-44.5	20.0	3.89e-05	0	40	0	2977955840	56	4261
2026-01-04 05:58:02.25	275.42	13.87	-43.5	-44.5	20.0	0.00e+00	0	40	0	3002073088	56	4267
2026-01-04 05:58:05.09	274.95	13.70	-43.3	-44.3	20.0	0.00e+00	0	40	0	3021996032	56	4178
2026-01-04 05:58:08.56	274.38	13.49	-43.3	-44.3	20.0	0.00e+00	0	40	0	3047161856	56	4159
2026-01-04 05:58:11.45	273.92	13.32	-43.5	-44.5	19.9	0.00e+00	0	40	0	3068133376	56	4246
2026-01-04 05:58:15.21	273.32	13.09	-43.0	-44.0	19.8	1.10e-06	0	40	0	3095396352	56	4007
2026-01-04 05:58:17.99	272.89	12.92	-42.8	-43.8	19.7	1.71e-05	0	40	0	3115319296	56	3949
2026-01-04 05:58:21.56	272.34	12.70	-43.8	-44.8	19.5	0.00e+00	0	40	0	3141533696	57	4177
2026-01-04 05:58:24.57	271.88	12.51	-43.9	-44.9	19.3	0.00e+00	0	40	0	3163553792	57	4212
2026-01-04 05:58:27.57	271.43	12.33	-44.0	-45.0	19.3	0.00e+00	0	40	0	3184525312	57	4276
2026-01-04 05:58:30.57	270.98	12.14	-43.6	-44.6	19.7	0.00e+00	0	40	0	3206545408	56	4301
2026-01-04 05:58:33.58	270.54	11.96	-43.4	-44.4	19.8	0.00e+00	0	40	0	3227516928	56	4226
2026-01-04 05:58:36.58	270.11	11.77	-43.7	-44.7	19.5	0.00e+00	0	40	0	3249537024	57	4136
2026-01-04 05:58:39.59	269.68	11.59	-44.1	-45.1	19.3	0.00e+00	0	40	0	3271557120	58	4069
2026-01-04 05:58:42.87	269.22	11.38	-44.3	-45.3	19.0	0.00e+00	0	40	0	3294625792	58	4193
2026-01-04 05:58:45.77	268.81	11.20	-44.2	-45.2	19.1	5.70e-06	0	40	0	3315597312	58	4120
2026-01-04 05:58:49.44	268.31	10.98	-44.1	-45.1	19.2	0.00e+00	0	40	0	3342860288	58	4068
2026-01-04 05:58:52.30	267.93	10.80	-43.8	-44.9	19.3	0.00e+00	0	40	0	3362783232	57	4205
2026-01-04 05:58:55.45	267.51	10.60	-44.1	-45.1	19.1	0.00e+00	0	40	0	3385851904	57	4324
2026-01-04 05:58:58.32	267.13	10.43	-43.9	-44.9	19.3	1.10e-06	0	40	0	3406823424	58	3987
2026-01-04 05:59:01.47	266.72	10.23	-44.1	-45.1	19.2	0.00e+00	0	40	0	3429892096	57	4337
2026-01-04 05:59:04.33	266.35	10.05	-44.1	-45.1	19.2	0.00e+00	0	40	0	3449815040	57	4329
2026-01-04 05:59:07.48	265.95	9.86	-44.4	-45.4	18.9	0.00e+00	0	40	0	3472883712	58	4234
2026-01-04 05:59:10.35	265.59	9.68	-44.5	-45.6	18.7	0.00e+00	0	40	0	3492806656	58	4323
2026-01-04 05:59:13.49	265.21	9.49	-45.7	-46.9	17.8	0.00e+00	0	40	0	3515875328	60	4450
2026-01-04 05:59:16.36	264.86	9.31	-44.5	-45.6	18.7	0.00e+00	0	40	0	3536846848	59	4098
2026-01-04 05:59:19.68	264.46	9.11	-44.5	-45.6	18.7	0.00e+00	0	40	0	3560964096	59	4094
2026-01-04 05:59:22.40	264.13	8.94	-54.8	-65.1	3.8	8.47e-01	0	40	104	3575644160	79	12101
2026-01-04 05:59:25.70	263.75	8.74	-55.4	-66.2	3.8	8.46e-01	0	40	104	3575644160	80	13026
2026-01-04 05:59:28.44	263.43	8.57	-55.4	-66.3	3.8	8.46e-01	0	40	104	3575644160	80	13113
2026-01-04 05:59:31.86	263.04	8.36	-55.5	-66.4	3.8	8.47e-01	0	40	104	3575644160	80	13321
2026-01-04 05:59:34.59	262.73	8.19	-55.4	-66.3	3.8	8.47e-01	0	40	104	3575644160	80	13160
2026-01-04 05:59:37.88	262.37	7.99	-55.4	-66.2	3.8	8.47e-01	0	40	104	3575644160	81	12338
2026-01-04 05:59:40.60	262.07	7.83	-55.4	-66.3	3.8	8.47e-01	0	40	104	3575644160	81	12519
2026-01-04 05:59:43.90	261.71	7.63	-55.1	-66.1	3.8	8.46e-01	0	40	104	3575644160	80	12955
2026-01-04 05:59:46.63	261.42	7.47	-55.1	-66.1	3.8	8.48e-01	0	40	104	3575644160	79	13684
2026-01-04 05:59:49.92	261.07	7.27	-55.0	-66.1	3.8	8.47e-01	0	40	104	3575644160	80	12930
2026-01-04 05:59:52.65	260.78	7.10	-55.1	-66.1	3.8	8.47e-01	0	40	104	3575644160	80	12953
2026-01-04 05:59:55.95	260.44	6.91	-55.2	-66.3	3.8	8.46e-01	0	40	104	3575644160	80	13243
2026-01-04 05:59:58.68	260.17	6.74	-55.2	-66.2	3.8	8.47e-01	0	40	104	3575644160	80	13085
2026-01-04 06:00:01.98	259.83	6.55	-55.4	-66.4	3.8	8.47e-01	0	40	104	3575644160	80	13403
2026-01-04 06:00:04.70	259.56	6.38	-55.1	-66.1	3.8	8.46e-01	0	40	104	3575644160	80	12954
2026-01-04 06:00:08.00	259.24	6.19	-55.0	-66.1	3.8	8.46e-01	0	40	104	3575644160	80	12834
2026-01-04 06:00:10.73	258.98	6.03	-55.5	-66.6	3.8	8.46e-01	0	40	104	3575644160	80	13638
2026-01-04 06:00:14.03	258.66	5.83	-55.1	-66.2	3.8	8.47e-01	0	40	104	3575644160	80	13091
2026-01-04 06:00:16.75	258.40	5.67	-55.1	-66.2	3.8	8.47e-01	0	40	104	3575644160	79	13750
2026-01-04 06:00:20.05	258.10	5.48	-55.0	-66.1	3.8	8.46e-01	0	40	104	3575644160	80	12857
2026-01-04 06:00:22.78	257.85	5.32	-55.0	-66.1	3.8	8.47e-01	0	40	104	3575644160	80	12913
2026-01-04 06:00:26.08	257.55	5.13	-55.1	-66.3	3.8	8.46e-01	0	40	104	3575644160	80	13145
2026-01-04 06:00:28.80	257.30	4.97	-55.1	-66.3	3.8	8.46e-01	0	40	104	3575644160	80	13205

#Closed at: 2026-01-04 06:00:30
#Recorded file [3575 MB]: D:/Data/31040_260104_085005.dat