passes_logs/2026/01/04/T1/T1__20260104_093150_SUOMI_NPP_rec.log

#Pass ID: 20260104_093150_SUOMI NPP
#Satellite: SUOMI NPP
#Configuration: NPP
#almurnet v.1.7.20251203
#Start time: 2026-01-04 09:31:51

#Version: 2.0.20230620
#Station: T1
#Location: 37.570604 lon 55.790049 lat
#TLE: 1 37849U 11061A   26001.07732418  .00000182  00000+0  10735-3 0  9990
#TLE: 2 37849  98.7795 303.2470 0002580  87.2016 272.9455 14.19520779734739

#Time	Az	El	Level	Level2	SNR	BER	BlckErr	Temp	State	Recorded	gain1	gain2
2026-01-04 09:31:51.84	145.63	5.06	-53.1	-68.3	3.8	1.49e+00	0	36	0	0	78	20006
2026-01-04 09:31:54.85	145.56	5.28	-53.1	-68.2	3.8	1.49e+00	0	37	104	0	78	19750
2026-01-04 09:31:57.86	145.49	5.49	-53.2	-68.5	3.8	1.49e+00	0	37	104	0	78	20410
2026-01-04 09:32:00.87	145.41	5.71	-53.1	-68.2	3.8	1.49e+00	0	37	104	0	78	19742
2026-01-04 09:32:03.88	145.34	5.93	-53.1	-67.4	3.8	1.49e+00	0	37	104	0	78	18035
2026-01-04 09:32:06.90	145.26	6.16	-53.0	-66.9	3.8	1.49e+00	0	37	104	0	77	18053
2026-01-04 09:32:09.91	145.18	6.38	-53.0	-67.4	3.8	1.49e+00	0	37	104	0	77	18958
2026-01-04 09:32:12.92	145.10	6.61	-52.9	-68.0	3.8	1.49e+00	0	37	104	0	77	20523
2026-01-04 09:32:15.94	145.02	6.83	-53.0	-67.6	3.8	1.49e+00	0	38	104	0	77	19602
2026-01-04 09:32:18.95	144.94	7.06	-53.0	-66.0	3.8	1.48e+00	0	38	104	0	77	16243
2026-01-04 09:32:21.96	144.86	7.30	-52.8	-64.0	4.5	1.33e+00	0	38	0	0	77	12919
2026-01-04 09:32:24.97	144.77	7.53	-52.4	-60.9	6.4	3.63e-01	0	38	0	6291456	76	9569
2026-01-04 09:32:27.98	144.69	7.76	-51.5	-57.6	9.5	2.22e-02	0	38	0	11534336	74	7328
2026-01-04 09:32:31.00	144.60	8.00	-50.3	-54.9	12.3	3.17e-04	0	38	0	17825792	72	5996
2026-01-04 09:32:34.01	144.51	8.24	-49.8	-53.7	13.6	1.14e-05	0	38	0	23068672	71	5554
2026-01-04 09:32:37.02	144.42	8.49	-50.1	-54.3	13.0	1.75e-05	0	38	0	28311552	71	5948
2026-01-04 09:32:40.03	144.32	8.73	-51.3	-57.1	10.0	4.09e-03	0	38	0	34603008	73	7310
2026-01-04 09:32:43.04	144.23	8.98	-52.5	-61.6	5.9	2.89e-01	0	38	0	39845888	75	10961
2026-01-04 09:32:46.50	144.12	9.27	-52.6	-63.7	4.6	1.42e+00	0	39	104	45088768	76	13155
2026-01-04 09:32:49.22	144.03	9.49	-53.0	-67.8	3.8	1.49e+00	0	38	104	48234496	76	21111
2026-01-04 09:32:52.51	143.92	9.77	-49.0	-52.4	15.0	0.00e+00	0	38	0	52428800	70	5042
2026-01-04 09:32:55.23	143.83	10.00	-48.4	-51.5	15.8	0.00e+00	0	38	0	57671680	68	5133
2026-01-04 09:32:58.53	143.71	10.29	-47.4	-50.1	17.1	0.00e+00	0	38	0	63963136	66	4904
2026-01-04 09:33:01.25	143.62	10.53	-46.9	-49.5	17.7	0.00e+00	0	38	0	69206016	65	4820
2026-01-04 09:33:04.54	143.50	10.82	-46.8	-49.4	17.7	0.00e+00	0	39	0	74448896	65	4773
2026-01-04 09:33:07.26	143.40	11.06	-47.4	-50.2	17.0	0.00e+00	0	38	0	79691776	65	5274
2026-01-04 09:33:10.55	143.28	11.35	-47.8	-50.7	16.6	0.00e+00	0	38	0	85983232	66	5241
2026-01-04 09:33:13.28	143.17	11.60	-47.6	-50.4	16.9	0.00e+00	0	39	0	91226112	66	5060
2026-01-04 09:33:17.01	143.03	11.95	-46.5	-48.9	18.3	0.00e+00	0	39	0	98566144	64	4794
2026-01-04 09:33:19.82	142.91	12.21	-46.2	-48.5	18.6	0.00e+00	0	39	0	103809024	64	4563
2026-01-04 09:33:23.25	142.77	12.53	-46.9	-49.4	17.9	0.00e+00	0	39	0	110100480	64	5079
2026-01-04 09:33:25.98	142.66	12.79	-47.4	-50.1	17.2	0.00e+00	0	39	0	115343360	65	5201
2026-01-04 09:33:29.27	142.52	13.11	-47.4	-50.1	17.2	0.00e+00	0	39	0	121634816	65	5171
2026-01-04 09:33:31.99	142.40	13.37	-46.4	-48.7	18.5	0.00e+00	0	39	0	126877696	64	4683
2026-01-04 09:33:35.28	142.26	13.70	-45.6	-47.7	19.4	0.00e+00	0	38	0	132120576	63	4428
2026-01-04 09:33:38.31	142.12	14.00	-45.9	-48.1	19.1	0.00e+00	0	39	0	138412032	63	4624
2026-01-04 09:33:41.61	141.97	14.33	-46.9	-49.5	17.7	0.00e+00	0	39	0	144703488	64	5159
2026-01-04 09:33:44.42	141.84	14.62	-46.9	-49.6	17.7	0.00e+00	0	39	0	149946368	65	4881
2026-01-04 09:33:47.58	141.68	14.95	-46.4	-48.8	18.4	0.00e+00	0	39	0	155189248	64	4744
2026-01-04 09:33:50.44	141.54	15.25	-46.0	-48.2	19.0	0.00e+00	0	39	0	161480704	63	4689
2026-01-04 09:33:53.61	141.38	15.58	-46.1	-48.4	18.8	0.00e+00	0	39	0	166723584	63	4797
2026-01-04 09:33:56.47	141.23	15.89	-46.6	-49.0	18.2	0.00e+00	0	39	0	171966464	64	4839
2026-01-04 09:33:59.62	141.07	16.23	-46.3	-48.6	18.6	0.00e+00	0	39	0	178257920	64	4631
2026-01-04 09:34:02.48	140.91	16.55	-45.8	-48.0	19.3	0.00e+00	0	39	0	183500800	63	4546
2026-01-04 09:34:05.63	140.74	16.90	-46.0	-48.3	18.9	0.00e+00	0	39	0	189792256	63	4739
2026-01-04 09:34:08.49	140.58	17.23	-46.8	-49.3	18.0	0.00e+00	0	39	0	195035136	64	5032
2026-01-04 09:34:11.65	140.39	17.59	-47.0	-49.7	17.7	0.00e+00	0	39	0	201326592	65	4945
2026-01-04 09:34:14.64	140.22	17.94	-46.3	-48.6	18.6	0.00e+00	0	39	0	206569472	64	4628
2026-01-04 09:34:18.00	140.01	18.33	-46.3	-48.6	18.6	0.00e+00	0	39	0	212860928	63	4923
2026-01-04 09:34:20.72	139.84	18.66	-46.6	-49.1	18.2	0.00e+00	0	39	0	218103808	64	4883
2026-01-04 09:34:24.01	139.63	19.06	-46.7	-49.2	18.2	0.00e+00	0	39	0	224395264	64	4941
2026-01-04 09:34:26.73	139.45	19.39	-46.1	-48.4	18.9	0.00e+00	0	39	0	228589568	63	4784
2026-01-04 09:34:30.03	139.23	19.80	-46.2	-48.4	18.9	0.00e+00	0	39	0	234881024	63	4795
2026-01-04 09:34:32.75	139.04	20.15	-46.6	-49.0	18.3	0.00e+00	0	39	0	240123904	64	4869
2026-01-04 09:34:36.05	138.81	20.57	-46.7	-49.1	18.3	0.00e+00	0	39	0	246415360	64	4882
2026-01-04 09:34:38.77	138.61	20.92	-46.4	-48.8	18.5	0.00e+00	0	39	0	251658240	64	4708
2026-01-04 09:34:42.48	138.33	21.41	-46.7	-49.1	18.2	0.00e+00	0	39	0	258998272	64	4894
2026-01-04 09:34:45.20	138.12	21.78	-46.9	-49.4	18.0	0.00e+00	0	39	0	264241152	65	4784
2026-01-04 09:34:48.50	137.86	22.23	-47.0	-49.4	18.0	0.00e+00	0	39	0	269484032	65	4797
2026-01-04 09:34:51.24	137.64	22.61	-46.9	-49.3	18.1	0.00e+00	0	39	0	274726912	65	4741
2026-01-04 09:34:54.71	137.35	23.09	-47.5	-50.1	17.4	0.00e+00	0	39	0	282066944	65	5204
2026-01-04 09:34:57.54	137.10	23.50	-47.3	-49.8	17.7	0.00e+00	0	39	0	287309824	66	4734
2026-01-04 09:35:00.84	136.81	23.98	-47.5	-50.0	17.5	0.00e+00	0	39	0	292552704	66	4860
2026-01-04 09:35:03.56	136.56	24.38	-47.8	-50.6	17.1	0.00e+00	0	39	0	297795584	66	5161
2026-01-04 09:35:06.90	136.24	24.87	-47.8	-50.5	17.0	0.00e+00	0	39	0	304087040	66	5141
2026-01-04 09:35:09.74	135.97	25.30	-47.6	-50.3	17.2	0.00e+00	0	39	0	309329920	66	5006
2026-01-04 09:35:12.88	135.66	25.79	-47.7	-50.5	17.1	0.00e+00	0	39	0	315621376	66	5101
2026-01-04 09:35:15.75	135.36	26.24	-47.4	-50.0	17.5	0.00e+00	0	39	0	320864256	66	4816
2026-01-04 09:35:19.03	135.01	26.76	-48.0	-50.7	16.8	0.00e+00	0	39	0	327155712	66	5259
2026-01-04 09:35:21.76	134.71	27.20	-48.2	-51.1	16.5	0.00e+00	0	39	0	332398592	67	5172
2026-01-04 09:35:25.06	134.34	27.74	-47.8	-50.5	16.9	0.00e+00	0	39	0	338690048	67	4845
2026-01-04 09:35:27.78	134.02	28.19	-47.8	-50.5	17.1	0.00e+00	0	39	0	343932928	67	4832
2026-01-04 09:35:31.03	133.63	28.75	-48.9	-51.9	15.9	0.00e+00	0	39	0	349175808	68	5376
2026-01-04 09:35:34.04	133.25	29.26	-48.5	-51.3	16.5	0.00e+00	0	39	0	355467264	68	4989
2026-01-04 09:35:37.04	132.87	29.79	-48.2	-51.0	16.6	0.00e+00	0	39	0	360710144	67	5157
2026-01-04 09:35:40.05	132.47	30.32	-47.8	-50.6	17.0	0.00e+00	0	39	0	367001600	67	4878
2026-01-04 09:35:43.06	132.05	30.86	-47.6	-50.3	17.2	0.00e+00	0	39	0	372244480	66	5029
2026-01-04 09:35:46.48	131.56	31.49	-47.3	-49.9	17.6	0.00e+00	0	39	0	378535936	66	4765
2026-01-04 09:35:49.20	131.16	32.00	-47.5	-50.0	17.6	0.00e+00	0	39	0	383778816	66	4833
2026-01-04 09:35:52.49	130.66	32.62	-49.4	-52.6	15.2	0.00e+00	0	39	0	390070272	69	5499
2026-01-04 09:35:55.21	130.22	33.14	-49.3	-52.5	15.3	0.00e+00	0	39	0	395313152	69	5440
2026-01-04 09:35:58.74	129.64	33.83	-49.1	-52.1	15.8	0.00e+00	0	39	0	401604608	69	5200
2026-01-04 09:36:01.47	129.17	34.37	-49.0	-52.0	15.8	0.00e+00	0	39	0	406847488	69	5154
2026-01-04 09:36:04.76	128.59	35.03	-49.4	-52.6	15.4	0.00e+00	0	39	0	413138944	69	5472
2026-01-04 09:36:07.52	128.07	35.60	-49.9	-53.4	14.7	0.00e+00	0	39	0	418381824	70	5687
2026-01-04 09:36:10.81	127.44	36.28	-50.9	-55.2	12.8	1.29e-05	0	39	0	424673280	72	6234
2026-01-04 09:36:13.53	126.90	36.85	-51.1	-55.5	12.3	1.36e-04	0	39	0	428867584	73	6124
2026-01-04 09:36:16.82	126.21	37.55	-49.7	-53.1	14.8	0.00e+00	0	39	0	435159040	71	5201
2026-01-04 09:36:19.54	125.63	38.13	-49.0	-52.1	15.7	0.00e+00	0	39	0	440401920	70	4881
2026-01-04 09:36:22.84	124.88	38.85	-49.3	-52.5	15.6	0.00e+00	0	39	0	446693376	69	5411
2026-01-04 09:36:25.56	124.24	39.45	-49.7	-53.0	15.0	0.00e+00	0	39	0	451936256	70	5448
2026-01-04 09:36:28.85	123.44	40.19	-50.3	-53.9	14.0	1.50e-06	0	39	0	458227712	71	5693
2026-01-04 09:36:31.58	122.74	40.80	-50.8	-54.9	13.2	1.38e-04	0	39	0	463470592	73	5705
2026-01-04 09:36:35.06	121.81	41.60	-51.1	-55.5	12.5	8.54e-05	0	39	0	469762048	73	6077
2026-01-04 09:36:37.82	121.04	42.23	-50.9	-55.2	12.7	1.50e-04	0	39	0	475004928	73	5885
2026-01-04 09:36:41.16	120.07	43.01	-50.0	-53.5	14.4	7.00e-07	0	39	0	481296384	71	5426
2026-01-04 09:36:44.69	118.99	43.83	-49.0	-52.1	15.8	0.00e+00	0	39	0	487587840	70	4901
2026-01-04 09:36:47.48	118.09	44.49	-48.9	-51.9	15.9	0.00e+00	0	39	0	492830720	69	5061
2026-01-04 09:36:51.16	116.85	45.36	-49.0	-52.0	15.7	0.00e+00	0	39	0	500170752	69	5136
2026-01-04 09:36:54.14	115.80	46.07	-49.0	-52.1	15.6	0.00e+00	0	39	0	505413632	69	5161
2026-01-04 09:36:57.48	114.56	46.86	-48.0	-50.6	17.1	0.00e+00	0	39	0	511705088	67	4907
2026-01-04 09:37:00.30	113.46	47.53	-48.4	-51.2	16.5	0.00e+00	0	39	0	516947968	67	5251
2026-01-04 09:37:03.44	112.18	48.27	-49.5	-52.8	15.2	0.00e+00	0	39	0	523239424	69	5614
2026-01-04 09:37:06.31	110.96	48.95	-48.5	-51.4	16.3	0.00e+00	0	39	0	528482304	68	5053
2026-01-04 09:37:09.46	109.55	49.69	-48.6	-52.0	15.6	0.00e+00	0	39	0	534773760	69	5153
2026-01-04 09:37:12.33	108.20	50.35	-47.1	-50.0	17.3	0.00e+00	0	39	0	540016640	65	5109
2026-01-04 09:37:15.48	106.66	51.07	-46.7	-49.4	17.8	0.00e+00	0	39	0	545259520	65	4812
2026-01-04 09:37:18.41	105.16	51.73	-46.4	-48.9	18.5	0.00e+00	0	39	0	551550976	64	4797
2026-01-04 09:37:21.42	103.54	52.40	-46.0	-48.5	18.7	0.00e+00	0	39	0	556793856	63	4839
2026-01-04 09:37:24.42	101.86	53.04	-47.0	-49.8	17.6	0.00e+00	0	39	0	562036736	64	5280
2026-01-04 09:37:27.43	100.09	53.67	-48.0	-51.1	16.3	0.00e+00	0	39	0	568328192	66	5527
2026-01-04 09:37:30.49	98.22	54.29	-48.1	-51.4	16.0	0.00e+00	0	39	0	573571072	66	5693
2026-01-04 09:37:33.50	96.30	54.88	-46.3	-48.7	18.6	0.00e+00	0	39	0	579862528	63	4965
2026-01-04 09:37:36.50	94.30	55.43	-47.5	-50.6	16.8	0.00e+00	0	39	0	585105408	65	5476
2026-01-04 09:37:39.51	92.22	55.96	-47.5	-50.5	16.8	0.00e+00	0	39	0	590348288	65	5454
2026-01-04 09:37:42.52	90.07	56.45	-48.6	-52.2	15.3	0.00e+00	0	39	0	596639744	67	5894
2026-01-04 09:37:45.56	87.81	56.91	-46.3	-49.0	18.1	0.00e+00	0	39	0	601882624	64	4860
2026-01-04 09:37:48.56	85.52	57.32	-46.7	-49.6	17.7	0.00e+00	0	39	0	607125504	64	5162
2026-01-04 09:37:51.57	83.14	57.70	-46.0	-48.5	19.0	0.00e+00	0	39	0	613416960	63	4835
2026-01-04 09:37:54.58	80.71	58.02	-45.5	-48.0	19.1	0.00e+00	0	39	0	618659840	62	4831
2026-01-04 09:37:57.91	77.95	58.33	-47.0	-50.1	17.0	0.00e+00	0	39	0	624951296	65	5216
2026-01-04 09:38:00.87	75.45	58.55	-45.0	-47.3	19.7	0.00e+00	0	39	0	630194176	62	4474
2026-01-04 09:38:04.75	72.12	58.76	-45.8	-48.3	19.0	0.00e+00	0	39	0	637534208	62	5001
2026-01-04 09:38:07.49	69.75	58.85	-44.4	-46.5	20.4	0.00e+00	0	39	0	642777088	60	4586
2026-01-04 09:38:11.55	66.20	58.91	-44.3	-46.4	20.6	0.00e+00	0	39	0	651165696	60	4509
2026-01-04 09:38:14.29	63.81	58.89	-45.4	-47.9	19.1	0.00e+00	0	39	0	655360000	61	5062
2026-01-04 09:38:18.04	60.54	58.79	-44.5	-46.7	20.4	0.00e+00	0	39	0	662700032	60	4671
2026-01-04 09:38:20.89	58.09	58.65	-44.9	-47.1	19.9	0.00e+00	0	39	0	667942912	60	4900
2026-01-04 09:38:24.33	55.16	58.42	-44.4	-46.6	20.3	0.00e+00	0	39	0	674234368	59	4879
2026-01-04 09:38:27.23	52.74	58.18	-46.4	-49.0	18.2	0.00e+00	0	39	0	680525824	63	5152
2026-01-04 09:38:30.38	50.16	57.87	-46.4	-49.1	18.0	0.00e+00	0	39	0	685768704	64	4910
2026-01-04 09:38:33.24	47.88	57.53	-46.6	-49.2	18.1	0.00e+00	0	39	0	691011584	64	4927
2026-01-04 09:38:36.49	45.36	57.11	-46.8	-49.4	18.1	0.00e+00	0	39	0	697303040	64	5061
2026-01-04 09:38:39.35	43.21	56.70	-47.3	-50.0	17.5	0.00e+00	0	39	0	702545920	65	5122
2026-01-04 09:38:42.62	40.83	56.18	-45.7	-47.9	19.4	0.00e+00	0	39	0	708837376	63	4518
2026-01-04 09:38:45.35	38.91	55.72	-45.1	-47.3	20.0	0.00e+00	0	39	0	714080256	62	4470
2026-01-04 09:38:48.64	36.69	55.13	-45.4	-47.7	19.6	0.00e+00	0	39	0	720371712	61	4951
2026-01-04 09:38:51.72	34.69	54.54	-47.3	-49.9	18.0	0.00e+00	0	39	0	725614592	65	5088
2026-01-04 09:38:55.10	32.59	53.87	-48.1	-50.9	17.2	0.00e+00	0	39	0	731906048	66	5365
2026-01-04 09:38:57.82	30.98	53.31	-48.1	-51.0	16.9	0.00e+00	0	39	0	737148928	67	5156
2026-01-04 09:39:01.17	29.07	52.60	-48.9	-52.1	16.2	0.00e+00	0	39	0	743440384	69	5192
2026-01-04 09:39:03.98	27.54	51.98	-48.0	-50.9	17.3	0.00e+00	0	39	0	748683264	67	5047
2026-01-04 09:39:07.13	25.91	51.28	-48.3	-51.4	16.5	0.00e+00	0	39	0	754974720	67	5380
2026-01-04 09:39:10.37	24.30	50.54	-46.3	-48.6	19.1	0.00e+00	0	39	0	761266176	63	4916
2026-01-04 09:39:13.23	22.95	49.89	-48.6	-51.7	16.2	0.00e+00	0	39	0	766509056	67	5588
2026-01-04 09:39:16.40	21.52	49.15	-48.8	-52.0	16.2	0.00e+00	0	39	0	772800512	68	5427
2026-01-04 09:39:19.31	20.27	48.47	-49.5	-52.9	15.3	0.00e+00	0	39	0	778043392	69	5674
2026-01-04 09:39:22.51	18.95	47.71	-50.8	-55.6	12.8	2.14e-03	0	39	0	783286272	73	6198
2026-01-04 09:39:25.37	17.83	47.03	-50.1	-54.0	14.4	0.00e+00	0	39	0	789577728	71	5772
2026-01-04 09:39:28.52	16.65	46.29	-50.1	-53.9	14.3	7.00e-07	0	39	0	794820608	71	5682
2026-01-04 09:39:31.38	15.63	45.61	-48.6	-51.7	16.2	0.00e+00	0	39	0	800063488	69	4953
2026-01-04 09:39:34.56	14.54	44.86	-49.3	-52.7	15.5	1.92e-03	0	39	0	806354944	69	5543
2026-01-04 09:39:37.51	13.58	44.17	-50.1	-54.0	14.1	4.77e-03	0	39	0	811597824	71	5747
2026-01-04 09:39:40.72	12.58	43.42	-49.3	-52.8	15.2	6.95e-03	0	39	0	817889280	70	5325
2026-01-04 09:39:43.63	11.71	42.74	-49.6	-53.1	15.2	0.00e+00	0	39	0	823132160	70	5480
2026-01-04 09:39:46.74	10.82	42.03	-48.6	-51.5	16.8	0.00e+00	0	39	0	829423616	69	4824
2026-01-04 09:39:49.77	9.99	41.33	-49.6	-53.1	15.1	0.00e+00	0	39	0	834666496	70	5491
2026-01-04 09:39:52.78	9.20	40.65	-50.9	-55.5	12.8	1.60e-05	0	39	0	840957952	72	6443
2026-01-04 09:39:55.79	8.45	39.98	-50.2	-53.9	14.4	0.00e+00	0	39	0	846200832	71	5703
2026-01-04 09:39:58.79	7.73	39.32	-50.4	-54.1	14.2	2.20e-06	0	39	0	851443712	71	5854
2026-01-04 09:40:02.10	6.97	38.59	-50.5	-54.5	13.7	1.44e-05	0	39	0	857735168	72	5770
2026-01-04 09:40:04.82	6.36	38.00	-50.2	-53.8	14.8	2.20e-06	0	39	0	862978048	72	5332
2026-01-04 09:40:08.12	5.66	37.30	-50.2	-54.1	14.2	7.00e-07	0	39	0	869269504	71	5789
2026-01-04 09:40:10.84	5.11	36.73	-50.9	-55.7	12.7	1.14e-04	0	39	0	874512384	72	6574
2026-01-04 09:40:14.17	4.46	36.03	-50.9	-55.9	12.3	8.85e-05	0	39	0	880803840	72	6764
2026-01-04 09:40:16.95	3.93	35.47	-50.4	-55.0	13.0	4.70e-04	0	39	0	886046720	72	6079
2026-01-04 09:40:20.24	3.34	34.80	-49.5	-53.1	14.9	1.50e-06	0	39	0	892338176	70	5491
2026-01-04 09:40:22.97	2.86	34.26	-50.6	-55.3	12.6	1.23e-04	0	39	0	897581056	72	6332
2026-01-04 09:40:26.27	2.30	33.61	-49.8	-53.8	14.1	2.20e-06	0	39	0	902823936	71	5646
2026-01-04 09:40:29.16	1.83	33.05	-50.1	-54.8	13.0	3.28e-05	0	39	0	909115392	71	6302
2026-01-04 09:40:32.84	1.26	32.35	-48.8	-52.1	15.7	0.00e+00	0	39	0	915406848	69	5188
2026-01-04 09:40:35.57	0.85	31.84	-49.4	-53.1	14.7	0.00e+00	0	39	0	920649728	69	5849
2026-01-04 09:40:38.86	0.38	31.24	-48.4	-51.4	16.3	0.00e+00	0	39	0	926941184	68	5091
2026-01-04 09:40:41.58	359.99	30.74	-49.6	-53.3	14.5	0.00e+00	0	39	0	932184064	69	5985
2026-01-04 09:40:45.26	359.50	30.09	-48.6	-51.7	16.0	0.00e+00	0	39	0	938475520	69	4971
2026-01-04 09:40:48.00	359.14	29.61	-47.6	-50.4	17.2	0.00e+00	0	39	0	943718400	66	5042
2026-01-04 09:40:51.71	358.68	28.97	-48.5	-51.6	16.0	0.00e+00	0	39	0	951058432	67	5471
2026-01-04 09:40:54.57	358.33	28.48	-48.2	-51.1	16.4	0.00e+00	0	39	0	956301312	67	5208
2026-01-04 09:40:57.72	357.96	27.96	-49.2	-52.7	15.1	0.00e+00	0	39	0	962592768	69	5581
2026-01-04 09:41:00.59	357.64	27.49	-50.3	-54.4	13.4	2.21e-05	0	39	0	967835648	71	6035
2026-01-04 09:41:03.74	357.29	26.98	-49.6	-53.2	14.5	0.00e+00	0	39	0	973078528	71	5252
2026-01-04 09:41:06.60	356.98	26.52	-49.1	-52.6	15.2	0.00e+00	0	39	0	979369984	70	5165
2026-01-04 09:41:09.92	356.64	26.00	-48.3	-51.4	16.4	0.00e+00	0	39	0	984612864	68	5054
2026-01-04 09:41:12.64	356.37	25.58	-48.0	-50.8	16.9	0.00e+00	0	39	0	989855744	68	4733
2026-01-04 09:41:16.28	356.02	25.03	-48.2	-51.1	16.5	0.00e+00	0	39	0	997195776	67	5189
2026-01-04 09:41:19.15	355.75	24.60	-49.0	-52.5	15.4	0.00e+00	0	39	0	1002438656	68	5761
2026-01-04 09:41:22.43	355.45	24.12	-48.2	-51.6	16.1	0.00e+00	0	39	0	1008730112	68	5212
2026-01-04 09:41:25.15	355.21	23.73	-47.7	-50.9	16.7	0.00e+00	0	39	0	1013972992	67	5045
2026-01-04 09:41:28.77	354.90	23.21	-48.8	-52.2	15.5	0.00e+00	0	39	0	1020264448	68	5546
2026-01-04 09:41:31.61	354.66	22.81	-50.0	-54.2	13.5	9.10e-06	0	39	0	1025507328	70	6252
2026-01-04 09:41:34.76	354.40	22.38	-49.9	-54.2	13.6	2.89e-05	0	39	0	1031798784	71	5913
2026-01-04 09:41:37.62	354.18	21.99	-48.5	-51.9	15.8	0.00e+00	0	39	0	1037041664	69	5082
2026-01-04 09:41:41.01	353.92	21.54	-47.5	-50.4	17.1	0.00e+00	0	39	0	1043333120	66	5078
2026-01-04 09:41:43.73	353.72	21.18	-47.6	-50.4	17.1	0.00e+00	0	39	0	1048576000	66	5092
2026-01-04 09:41:47.03	353.48	20.75	-47.6	-50.3	17.2	0.00e+00	0	39	0	1054867456	66	5035
2026-01-04 09:41:49.77	353.28	20.40	-47.6	-50.4	17.1	0.00e+00	0	39	0	1060110336	66	5075
2026-01-04 09:41:53.16	353.05	19.97	-47.6	-50.5	17.0	0.00e+00	0	39	0	1066401792	66	5121
2026-01-04 09:41:55.88	352.87	19.63	-47.8	-50.8	16.7	0.00e+00	0	39	0	1071644672	66	5281
2026-01-04 09:41:59.30	352.64	19.21	-48.0	-51.2	16.3	0.00e+00	0	39	0	1077936128	67	5274
2026-01-04 09:42:02.02	352.47	18.88	-48.3	-51.7	15.9	0.00e+00	0	39	0	1083179008	67	5564
2026-01-04 09:42:05.34	352.27	18.48	-48.2	-51.6	16.1	0.00e+00	0	39	0	1089470464	67	5475
2026-01-04 09:42:08.07	352.10	18.16	-48.2	-51.9	15.7	0.00e+00	0	39	0	1093664768	67	5692
2026-01-04 09:42:11.36	351.91	17.78	-48.5	-52.5	15.0	0.00e+00	0	39	0	1099956224	67	6101
2026-01-04 09:42:14.19	351.74	17.45	-49.1	-53.3	14.4	7.00e-07	0	39	0	1105199104	68	6314
2026-01-04 09:42:17.49	351.56	17.08	-49.2	-53.2	14.4	0.00e+00	0	39	0	1111490560	69	5923
2026-01-04 09:42:20.21	351.41	16.78	-49.2	-53.0	14.9	0.00e+00	0	39	0	1116733440	69	5735
2026-01-04 09:42:23.50	351.23	16.41	-48.2	-51.5	16.4	0.00e+00	0	39	0	1123024896	68	5123
2026-01-04 09:42:26.23	351.09	16.12	-47.4	-50.5	17.0	0.00e+00	0	39	0	1128267776	67	4843
2026-01-04 09:42:29.52	350.92	15.76	-47.6	-50.5	17.1	0.00e+00	0	39	0	1134559232	66	5146
2026-01-04 09:42:32.34	350.78	15.46	-47.8	-50.7	16.9	0.00e+00	0	39	0	1139802112	66	5274
2026-01-04 09:42:36.01	350.60	15.08	-48.3	-51.5	16.1	0.00e+00	0	39	0	1146093568	67	5451
2026-01-04 09:42:38.74	350.47	14.80	-48.5	-52.0	15.6	0.00e+00	0	39	0	1151336448	67	5767
2026-01-04 09:42:42.03	350.32	14.46	-48.9	-52.7	15.1	0.00e+00	0	39	0	1157627904	68	5862
2026-01-04 09:42:45.06	350.18	14.16	-49.0	-52.7	15.2	0.00e+00	0	39	0	1163919360	68	5876
2026-01-04 09:42:48.06	350.05	13.86	-48.9	-52.4	15.5	0.00e+00	0	39	0	1169162240	68	5677
2026-01-04 09:42:51.10	349.92	13.56	-48.9	-52.4	15.5	0.00e+00	0	39	0	1174405120	68	5706
2026-01-04 09:42:54.06	349.79	13.27	-48.6	-52.1	15.7	0.00e+00	0	39	0	1180696576	68	5525
2026-01-04 09:42:57.22	349.66	12.97	-48.2	-52.0	15.7	0.00e+00	0	39	0	1185939456	68	5428
2026-01-04 09:43:00.08	349.54	12.69	-48.2	-52.0	15.8	0.00e+00	0	39	0	1191182336	68	5440
2026-01-04 09:43:03.23	349.42	12.40	-48.6	-52.4	15.4	0.00e+00	0	39	0	1197473792	68	5696
2026-01-04 09:43:06.09	349.31	12.13	-48.7	-52.5	15.4	0.00e+00	0	39	0	1202716672	68	5730
2026-01-04 09:43:09.25	349.19	11.84	-48.8	-52.6	15.1	0.00e+00	0	39	0	1209008128	68	5801
2026-01-04 09:43:12.08	349.08	11.58	-48.4	-52.4	15.3	7.00e-07	0	39	0	1214251008	68	5666
2026-01-04 09:43:15.64	348.95	11.26	-48.3	-52.9	15.0	0.00e+00	0	39	0	1220542464	68	6031
2026-01-04 09:43:18.36	348.85	11.02	-48.3	-53.0	15.0	0.00e+00	0	39	0	1225785344	68	6110
2026-01-04 09:43:21.80	348.73	10.72	-47.8	-52.5	15.1	0.00e+00	0	39	0	1232076800	67	6091
2026-01-04 09:43:24.52	348.64	10.48	-48.1	-52.7	15.2	1.50e-06	0	39	0	1237319680	67	6233
2026-01-04 09:43:27.81	348.53	10.20	-47.8	-52.5	15.2	3.00e-06	0	39	0	1243611136	67	6091
2026-01-04 09:43:30.63	348.43	9.96	-48.4	-53.1	14.9	1.50e-06	0	39	0	1248854016	67	6513
2026-01-04 09:43:33.78	348.33	9.69	-48.6	-52.9	15.1	0.00e+00	0	39	0	1255145472	68	6045
2026-01-04 09:43:36.65	348.24	9.45	-48.7	-52.8	15.0	0.00e+00	0	39	0	1260388352	68	5970
2026-01-04 09:43:39.80	348.14	9.19	-48.8	-52.8	15.0	0.00e+00	0	39	0	1265631232	68	5955
2026-01-04 09:43:42.77	348.05	8.95	-50.6	-57.8	10.6	2.20e-06	0	39	0	1271922688	71	8963
2026-01-04 09:43:45.93	347.96	8.69	-53.9	-69.7	3.8	1.49e+00	0	39	104	1271922688	79	22119
2026-01-04 09:43:48.80	347.87	8.46	-54.4	-69.9	3.8	1.49e+00	0	39	104	1271922688	79	22547
2026-01-04 09:43:51.96	347.78	8.21	-54.4	-70.0	3.8	1.49e+00	0	39	104	1271922688	79	23014
2026-01-04 09:43:54.82	347.70	7.98	-54.5	-69.8	3.8	1.49e+00	0	39	104	1271922688	79	22514
2026-01-04 09:43:57.98	347.61	7.73	-54.5	-69.7	3.8	1.49e+00	0	39	104	1271922688	80	20961
2026-01-04 09:44:00.85	347.54	7.51	-54.4	-69.7	3.8	1.49e+00	0	39	104	1271922688	80	20864
2026-01-04 09:44:04.01	347.45	7.27	-54.6	-69.7	3.8	1.49e+00	0	39	104	1271922688	80	20989
2026-01-04 09:44:06.88	347.38	7.05	-54.5	-69.7	3.8	1.49e+00	0	39	104	1271922688	80	20796
2026-01-04 09:44:10.03	347.29	6.81	-54.6	-69.7	3.8	1.49e+00	0	39	104	1271922688	80	20989
2026-01-04 09:44:12.90	347.22	6.59	-54.4	-69.8	3.8	1.49e+00	0	39	104	1271922688	80	21061
2026-01-04 09:44:16.06	347.14	6.36	-54.4	-69.7	3.8	1.49e+00	0	39	104	1271922688	80	20948
2026-01-04 09:44:18.92	347.07	6.15	-54.4	-69.8	3.8	1.49e+00	0	39	104	1271922688	80	21095
2026-01-04 09:44:22.08	347.00	5.92	-54.5	-69.8	3.8	1.49e+00	0	39	104	1271922688	80	21022
2026-01-04 09:44:24.95	346.93	5.71	-54.6	-70.0	3.8	1.49e+00	0	39	104	1271922688	80	21521
2026-01-04 09:44:28.11	346.86	5.48	-54.7	-70.0	3.8	1.49e+00	0	39	104	1271922688	80	21669
2026-01-04 09:44:30.98	346.79	5.28	-54.6	-69.9	3.8	1.49e+00	0	39	104	1271922688	80	21434
2026-01-04 09:44:34.13	346.72	5.05	-53.9	-69.2	3.8	1.49e+00	0	39	104	1271922688	79	20920

#Closed at: 2026-01-04 09:44:36
#Recorded file [1271 MB]: D:/Data/31040_260104_123151.dat