passes_logs/2026/01/04/T1/T1__20260104_222613_KHAYYAM_rec.log

#Pass ID: 20260104_222613_KHAYYAM
#Satellite: KHAYYAM
#Configuration: KHAYYAM_480M
#almurnet v.1.7.20251203
#Start time: 2026-01-04 22:26:16

#Version: 2.0.20230620
#Station: T1
#Location: 37.570604 lon 55.790049 lat
#TLE: 1 53370U 22096A   26004.25948006  .00009070  00000+0  36935-3 0  9997
#TLE: 2 53370  97.3569 271.4608 0001229  85.3250 274.8128 15.24710400189604

#Time	Az	El	Level	Level2	SNR	BER	BlckErr	Temp	State	Recorded	gain1	gain2
2026-01-04 22:26:16.22	358.73	5.14	-51.2	-57.8	3.6	0.00e+00	0	45	0	0	72	33663
2026-01-04 22:26:18.22	358.52	5.28	-52.2	-58.2	3.7	0.00e+00	0	45	104	0	75	29775
2026-01-04 22:26:20.23	358.30	5.43	-52.2	-58.2	3.7	0.00e+00	0	46	104	0	75	29753
2026-01-04 22:26:22.24	358.08	5.57	-52.3	-58.3	3.7	0.00e+00	0	46	104	0	75	30066
2026-01-04 22:26:24.24	357.86	5.71	-52.2	-58.3	3.7	0.00e+00	0	46	104	0	75	29852
2026-01-04 22:26:26.25	357.63	5.86	-52.2	-58.3	3.7	0.00e+00	0	46	104	0	75	30055
2026-01-04 22:26:28.26	357.41	6.01	-52.2	-58.2	3.7	0.00e+00	0	46	104	0	75	29764
2026-01-04 22:26:30.27	357.18	6.15	-52.3	-58.2	3.7	0.00e+00	0	46	104	0	75	29799
2026-01-04 22:26:32.28	356.94	6.30	-52.2	-58.2	3.7	0.00e+00	0	47	104	0	75	29752
2026-01-04 22:26:34.29	356.71	6.45	-52.2	-58.2	3.7	0.00e+00	0	46	104	0	75	29767
2026-01-04 22:26:36.30	356.47	6.60	-52.3	-58.3	3.7	0.00e+00	0	47	104	0	75	30112
2026-01-04 22:26:38.30	356.22	6.75	-52.2	-58.3	3.7	0.00e+00	0	47	104	0	75	29898
2026-01-04 22:26:40.31	355.98	6.90	-52.2	-58.2	3.7	0.00e+00	0	47	104	0	75	29808
2026-01-04 22:26:42.32	355.73	7.05	-52.2	-58.3	3.7	0.00e+00	0	47	104	0	75	29840
2026-01-04 22:26:44.33	355.47	7.20	-52.3	-58.3	3.7	0.00e+00	0	47	104	0	75	29978
2026-01-04 22:26:46.34	355.22	7.35	-52.4	-58.4	3.7	0.00e+00	0	48	104	0	75	30219
2026-01-04 22:26:48.35	354.96	7.51	-52.3	-58.3	3.7	0.00e+00	0	48	104	0	75	30100
2026-01-04 22:26:50.36	354.69	7.66	-52.3	-58.4	3.7	0.00e+00	0	48	104	0	75	30186
2026-01-04 22:26:52.37	354.43	7.82	-52.3	-58.3	3.7	0.00e+00	0	48	104	0	75	29937
2026-01-04 22:26:54.38	354.15	7.97	-52.3	-58.3	3.7	0.00e+00	0	48	104	0	75	30109
2026-01-04 22:26:56.38	353.88	8.13	-52.3	-58.4	3.7	0.00e+00	0	48	104	0	75	30243
2026-01-04 22:26:58.39	353.60	8.29	-52.3	-58.3	3.7	0.00e+00	0	48	104	0	75	29841
2026-01-04 22:27:00.40	353.32	8.45	-52.3	-58.3	3.7	0.00e+00	0	48	104	0	75	29950
2026-01-04 22:27:02.41	353.03	8.61	-52.3	-58.3	3.7	0.00e+00	0	48	104	0	75	29927
2026-01-04 22:27:04.42	352.74	8.77	-52.3	-58.3	3.7	0.00e+00	0	48	104	0	75	30169
2026-01-04 22:27:06.43	352.45	8.93	-52.3	-58.4	3.7	0.00e+00	0	48	104	0	75	30178
2026-01-04 22:27:08.44	352.15	9.09	-52.3	-58.4	3.7	0.00e+00	0	49	104	0	75	30192
2026-01-04 22:27:10.44	351.84	9.25	-52.3	-58.4	3.7	0.00e+00	0	49	104	0	75	30224
2026-01-04 22:27:12.45	351.54	9.41	-51.5	-57.8	3.8	0.00e+00	0	49	104	0	73	31838
2026-01-04 22:27:14.46	351.22	9.58	-50.4	-56.9	3.9	0.00e+00	0	49	104	0	72	30340
2026-01-04 22:27:16.47	350.91	9.74	-50.2	-56.7	3.9	0.00e+00	0	49	104	0	72	29520
2026-01-04 22:27:18.47	350.59	9.91	-50.1	-56.6	3.9	0.00e+00	0	49	104	0	71	31148
2026-01-04 22:27:20.47	350.26	10.07	-50.2	-56.5	3.8	0.00e+00	0	49	104	0	72	29044
2026-01-04 22:27:22.40	349.95	10.23	-50.0	-56.6	3.9	0.00e+00	0	49	104	0	71	31207
2026-01-04 22:27:24.41	349.61	10.40	-49.9	-56.1	3.8	0.00e+00	0	49	104	0	71	29357
2026-01-04 22:27:26.41	349.27	10.57	-49.9	-55.5	3.7	0.00e+00	0	49	104	0	71	27469
2026-01-04 22:27:28.42	348.93	10.74	-50.3	-56.5	3.7	0.00e+00	0	49	104	0	71	30593
2026-01-04 22:27:30.43	348.58	10.90	-50.7	-56.4	3.7	0.00e+00	0	49	104	0	72	28609
2026-01-04 22:27:32.43	348.22	11.07	-49.9	-56.5	3.9	0.00e+00	0	50	104	0	71	30634
2026-01-04 22:27:34.44	347.86	11.25	-50.4	-57.0	3.8	0.00e+00	0	49	104	0	71	32420
2026-01-04 22:27:36.45	347.50	11.42	-50.6	-57.1	3.8	0.00e+00	0	50	104	0	71	33012
2026-01-04 22:27:38.45	347.13	11.59	-54.0	-59.6	3.7	0.00e+00	0	50	104	0	78	29200
2026-01-04 22:27:40.60	346.72	11.77	-51.5	-57.8	3.8	0.00e+00	0	49	104	0	74	30141
2026-01-04 22:27:42.63	346.34	11.95	-51.8	-58.0	3.7	0.00e+00	0	49	104	0	74	30667
2026-01-04 22:27:44.68	345.94	12.13	-52.9	-58.9	3.7	0.00e+00	0	50	104	0	76	30301
2026-01-04 22:27:46.69	345.55	12.30	-53.5	-59.3	3.7	0.00e+00	0	50	104	0	77	30053
2026-01-04 22:27:48.70	345.15	12.48	-53.5	-59.3	3.7	0.00e+00	0	50	104	0	78	28218
2026-01-04 22:27:50.70	344.74	12.65	-54.0	-59.8	3.7	0.00e+00	0	50	104	0	78	29952
2026-01-04 22:27:52.71	344.33	12.83	-53.9	-59.8	3.7	0.00e+00	0	50	104	0	78	30032
2026-01-04 22:27:54.72	343.91	13.00	-53.7	-59.5	3.7	0.00e+00	0	50	104	0	78	29034
2026-01-04 22:27:56.72	343.49	13.18	-53.8	-59.8	3.7	0.00e+00	0	50	104	0	78	30067
2026-01-04 22:27:58.99	343.00	13.38	-53.6	-59.6	3.7	0.00e+00	0	50	104	0	78	29255
2026-01-04 22:28:01.00	342.57	13.56	-53.0	-59.0	3.7	0.00e+00	0	50	104	0	77	28983
2026-01-04 22:28:03.00	342.12	13.74	-54.6	-60.0	3.7	0.00e+00	0	50	104	0	80	27235
2026-01-04 22:28:05.01	341.67	13.91	-53.8	-59.4	3.7	0.00e+00	0	50	104	0	79	27054
2026-01-04 22:28:07.01	341.22	14.09	-54.2	-59.7	3.7	0.00e+00	0	50	104	0	80	26315
2026-01-04 22:28:09.02	340.75	14.27	-54.5	-60.1	3.7	0.00e+00	0	50	104	0	80	27675
2026-01-04 22:28:11.23	340.23	14.47	-51.9	-58.2	3.7	0.00e+00	0	50	104	0	75	29704
2026-01-04 22:28:13.24	339.75	14.65	-52.7	-58.6	3.7	0.00e+00	0	50	104	0	76	29324
2026-01-04 22:28:15.25	339.27	14.83	-52.9	-58.9	3.7	0.00e+00	0	50	104	0	77	28530
2026-01-04 22:28:17.25	338.78	15.00	-52.9	-58.7	3.7	0.00e+00	0	50	104	0	77	27976
2026-01-04 22:28:19.26	338.28	15.18	-54.6	-59.9	3.7	0.00e+00	0	50	104	0	79	28669
2026-01-04 22:28:21.27	337.77	15.36	-55.7	-60.9	3.7	0.00e+00	0	50	104	0	82	26898
2026-01-04 22:28:23.27	337.26	15.54	-54.9	-60.0	3.7	0.00e+00	0	50	104	0	81	25733
2026-01-04 22:28:25.28	336.74	15.72	-54.8	-60.0	3.7	0.00e+00	0	50	104	0	81	25825
2026-01-04 22:28:27.28	336.21	15.89	-55.3	-60.4	3.7	0.00e+00	0	50	104	0	81	26965
2026-01-04 22:28:29.28	335.67	16.07	-55.2	-60.3	3.7	0.00e+00	0	50	104	0	81	26778
2026-01-04 22:28:31.29	335.13	16.24	-54.8	-60.0	3.7	0.00e+00	0	50	104	0	81	25857
2026-01-04 22:28:33.29	334.58	16.42	-54.0	-59.5	3.7	0.00e+00	0	50	104	0	79	27289
2026-01-04 22:28:35.30	334.02	16.59	-54.3	-59.9	3.7	0.00e+00	0	50	104	0	79	28566
2026-01-04 22:28:37.24	333.47	16.76	-54.7	-60.1	3.7	0.00e+00	0	50	104	0	80	27541
2026-01-04 22:28:39.24	332.90	16.93	-54.2	-59.6	3.7	0.00e+00	0	50	104	0	80	26249
2026-01-04 22:28:41.25	332.31	17.11	-54.9	-60.0	3.7	0.00e+00	0	50	104	0	80	27295
2026-01-04 22:28:43.25	331.73	17.28	-56.0	-60.8	3.7	0.00e+00	0	50	104	0	82	26780
2026-01-04 22:28:45.26	331.13	17.45	-56.1	-60.8	3.7	0.00e+00	0	50	104	0	82	26696
2026-01-04 22:28:47.27	330.52	17.61	-55.7	-60.5	3.7	0.00e+00	0	50	104	0	82	25975
2026-01-04 22:28:49.29	329.90	17.78	-54.2	-59.7	3.7	0.00e+00	0	50	104	0	79	28133
2026-01-04 22:28:51.30	329.28	17.95	-53.3	-59.1	3.7	0.00e+00	0	50	104	0	78	27823
2026-01-04 22:28:53.30	328.65	18.11	-53.6	-59.3	3.7	0.00e+00	0	50	104	0	78	28480
2026-01-04 22:28:55.36	327.99	18.28	-54.3	-59.6	3.7	0.00e+00	0	50	104	0	79	27524
2026-01-04 22:28:57.57	327.28	18.45	-54.4	-59.4	3.7	0.00e+00	0	50	104	0	79	27108
2026-01-04 22:28:59.58	326.62	18.61	-54.8	-59.8	3.7	0.00e+00	0	50	104	0	80	26668
2026-01-04 22:29:01.59	325.96	18.76	-56.0	-60.6	3.7	0.00e+00	0	50	104	0	82	26113
2026-01-04 22:29:03.59	325.29	18.92	-55.5	-60.2	3.7	0.00e+00	0	50	104	0	82	25051
2026-01-04 22:29:05.59	324.61	19.07	-54.4	-59.5	3.7	0.00e+00	0	50	104	0	80	25858
2026-01-04 22:29:07.66	323.90	19.22	-55.4	-60.2	3.7	0.00e+00	0	50	104	0	82	25026
2026-01-04 22:29:09.67	323.20	19.36	-55.9	-60.7	3.7	0.00e+00	0	50	104	0	82	26562
2026-01-04 22:29:11.69	322.50	19.51	-55.9	-60.8	3.7	0.00e+00	0	50	104	0	82	26604
2026-01-04 22:29:13.70	321.78	19.65	-55.9	-60.7	3.7	0.00e+00	0	50	104	0	82	26557
2026-01-04 22:29:15.70	321.07	19.78	-55.9	-60.7	3.7	0.00e+00	0	51	104	0	82	26551
2026-01-04 22:29:17.71	320.34	19.92	-55.9	-60.7	3.7	0.00e+00	0	50	104	0	82	26577
2026-01-04 22:29:19.72	319.61	20.04	-55.9	-60.7	3.7	0.00e+00	0	50	104	0	82	26567
2026-01-04 22:29:21.73	318.87	20.17	-55.9	-60.7	3.7	0.00e+00	0	50	104	0	82	26580
2026-01-04 22:29:23.74	318.12	20.29	-55.9	-60.7	3.7	0.00e+00	0	51	104	0	82	26520
2026-01-04 22:29:25.74	317.37	20.41	-55.9	-60.7	3.7	0.00e+00	0	51	104	0	82	26442
2026-01-04 22:29:27.75	316.60	20.52	-55.9	-60.7	3.7	0.00e+00	0	50	104	0	82	26524
2026-01-04 22:29:29.76	315.84	20.63	-55.9	-60.7	3.7	0.00e+00	0	50	104	0	82	26554
2026-01-04 22:29:31.77	315.06	20.74	-55.9	-60.8	3.7	0.00e+00	0	50	104	0	82	26601
2026-01-04 22:29:33.78	314.28	20.84	-55.9	-60.7	3.7	0.00e+00	0	50	104	0	82	26516
2026-01-04 22:29:35.78	313.50	20.94	-55.9	-60.7	3.7	0.00e+00	0	50	104	0	82	26484
2026-01-04 22:29:37.79	312.71	21.03	-55.9	-60.7	3.7	0.00e+00	0	50	104	0	82	26490
2026-01-04 22:29:39.80	311.91	21.12	-55.9	-60.7	3.7	0.00e+00	0	51	104	0	82	26467
2026-01-04 22:29:41.81	311.11	21.20	-55.9	-60.7	3.7	0.00e+00	0	51	104	0	82	26493
2026-01-04 22:29:43.82	310.30	21.28	-55.7	-60.7	3.7	0.00e+00	0	51	104	0	82	26407
2026-01-04 22:29:45.82	309.49	21.35	-55.5	-60.7	3.7	0.00e+00	0	51	104	0	82	26455
2026-01-04 22:29:47.83	308.67	21.42	-55.7	-60.7	3.7	0.00e+00	0	51	104	0	82	26447
2026-01-04 22:29:49.84	307.85	21.48	-55.8	-60.7	3.7	0.00e+00	0	50	104	0	82	26458
2026-01-04 22:29:51.85	307.03	21.54	-55.9	-60.7	3.7	0.00e+00	0	51	104	0	82	26476
2026-01-04 22:29:53.86	306.20	21.59	-55.9	-60.7	3.7	0.00e+00	0	51	104	0	82	26488
2026-01-04 22:29:55.87	305.37	21.63	-55.9	-60.7	3.7	0.00e+00	0	51	104	0	82	26564
2026-01-04 22:29:57.87	304.54	21.67	-55.9	-60.7	3.7	0.00e+00	0	51	104	0	82	26362
2026-01-04 22:29:59.88	303.71	21.71	-55.9	-60.7	3.7	0.00e+00	0	51	104	0	82	26482
2026-01-04 22:30:01.89	302.87	21.74	-55.9	-60.7	3.7	0.00e+00	0	51	104	0	82	26442
2026-01-04 22:30:03.90	302.03	21.76	-55.9	-60.7	3.7	0.00e+00	0	51	104	0	82	26445
2026-01-04 22:30:05.91	301.19	21.78	-55.9	-60.7	3.7	0.00e+00	0	51	104	0	82	26448
2026-01-04 22:30:07.92	300.35	21.79	-55.9	-60.7	3.7	0.00e+00	0	51	104	0	82	26499
2026-01-04 22:30:09.93	299.51	21.79	-55.9	-60.7	3.7	0.00e+00	0	50	104	0	82	26463
2026-01-04 22:30:11.93	298.67	21.79	-55.9	-60.7	3.7	0.00e+00	0	51	104	0	82	26484
2026-01-04 22:30:13.94	297.83	21.79	-55.9	-60.7	3.7	0.00e+00	0	51	104	0	82	26404
2026-01-04 22:30:15.95	296.99	21.77	-55.9	-60.7	3.7	0.00e+00	0	51	104	0	82	26436
2026-01-04 22:30:17.96	296.14	21.76	-55.9	-60.7	3.7	0.00e+00	0	51	104	0	82	26491
2026-01-04 22:30:19.97	295.31	21.73	-55.9	-60.7	3.7	0.00e+00	0	51	104	0	82	26409
2026-01-04 22:30:21.98	294.47	21.70	-55.9	-60.7	3.7	0.00e+00	0	51	104	0	82	26442
2026-01-04 22:30:23.99	293.63	21.67	-55.9	-60.7	3.7	0.00e+00	0	50	104	0	82	26401
2026-01-04 22:30:26.00	292.80	21.62	-55.8	-60.7	3.7	0.00e+00	0	51	104	0	82	26332
2026-01-04 22:30:28.00	291.97	21.58	-55.9	-60.7	3.7	0.00e+00	0	51	104	0	82	26455
2026-01-04 22:30:30.01	291.14	21.53	-55.9	-60.7	3.7	0.00e+00	0	51	104	0	82	26402
2026-01-04 22:30:32.02	290.32	21.47	-55.9	-60.7	3.7	0.00e+00	0	51	104	0	82	26378
2026-01-04 22:30:34.02	289.50	21.40	-55.9	-60.7	3.7	0.00e+00	0	51	104	0	82	26385
2026-01-04 22:30:36.03	288.68	21.34	-55.9	-60.7	3.7	0.00e+00	0	51	104	0	82	26377
2026-01-04 22:30:38.04	287.87	21.26	-55.9	-60.7	3.7	0.00e+00	0	51	104	0	82	26410
2026-01-04 22:30:40.05	287.06	21.18	-55.9	-60.7	3.7	0.00e+00	0	51	104	0	82	26392
2026-01-04 22:30:42.06	286.26	21.10	-55.9	-60.7	3.7	0.00e+00	0	51	104	0	82	26423
2026-01-04 22:30:44.07	285.46	21.01	-55.9	-60.7	3.7	0.00e+00	0	51	104	0	82	26367
2026-01-04 22:30:46.08	284.67	20.92	-55.9	-60.7	3.7	0.00e+00	0	51	104	0	82	26362
2026-01-04 22:30:48.08	283.88	20.82	-55.9	-60.7	3.7	0.00e+00	0	51	104	0	82	26392
2026-01-04 22:30:50.09	283.10	20.72	-55.9	-60.7	3.7	0.00e+00	0	51	104	0	82	26434
2026-01-04 22:30:52.10	282.33	20.61	-55.9	-60.7	3.7	0.00e+00	0	51	104	0	82	26357
2026-01-04 22:30:54.11	281.56	20.50	-55.9	-60.7	3.7	0.00e+00	0	51	104	0	82	26421
2026-01-04 22:30:56.12	280.79	20.38	-55.9	-60.7	3.7	0.00e+00	0	51	104	0	82	26313
2026-01-04 22:30:58.13	280.04	20.26	-55.9	-60.7	3.7	0.00e+00	0	50	104	0	82	26396
2026-01-04 22:31:00.13	279.29	20.14	-55.9	-60.7	3.7	0.00e+00	0	51	104	0	82	26504
2026-01-04 22:31:02.14	278.55	20.01	-55.9	-60.7	3.7	0.00e+00	0	51	104	0	82	26435
2026-01-04 22:31:04.15	277.81	19.88	-55.9	-60.7	3.7	0.00e+00	0	51	104	0	82	26361
2026-01-04 22:31:06.16	277.09	19.75	-55.8	-60.7	3.7	0.00e+00	0	51	104	0	82	26337
2026-01-04 22:31:08.17	276.37	19.61	-55.8	-60.7	3.7	0.00e+00	0	51	104	0	82	26380
2026-01-04 22:31:10.17	275.66	19.47	-55.8	-60.7	3.7	0.00e+00	0	51	104	0	82	26321
2026-01-04 22:31:12.18	274.95	19.32	-55.9	-60.7	3.7	0.00e+00	0	51	104	0	82	26435
2026-01-04 22:31:14.19	274.25	19.18	-55.9	-60.7	3.7	0.00e+00	0	51	104	0	82	26360
2026-01-04 22:31:16.20	273.56	19.03	-55.8	-60.7	3.7	0.00e+00	0	51	104	0	82	26351
2026-01-04 22:31:18.21	272.88	18.88	-55.8	-60.7	3.7	0.00e+00	0	51	104	0	82	26395
2026-01-04 22:31:20.22	272.21	18.72	-55.9	-60.7	3.7	0.00e+00	0	51	104	0	82	26386
2026-01-04 22:31:22.22	271.54	18.57	-55.9	-60.7	3.7	0.00e+00	0	50	104	0	82	26463
2026-01-04 22:31:24.23	270.88	18.41	-55.9	-60.7	3.7	0.00e+00	0	51	104	0	82	26482
2026-01-04 22:31:26.24	270.23	18.25	-55.9	-60.7	3.7	0.00e+00	0	51	104	0	82	26464
2026-01-04 22:31:28.25	269.59	18.08	-55.9	-60.7	3.7	0.00e+00	0	50	104	0	82	26344
2026-01-04 22:31:30.26	268.96	17.92	-55.8	-60.7	3.6	0.00e+00	0	51	104	0	82	26328
2026-01-04 22:31:32.27	268.33	17.75	-55.8	-60.7	3.7	0.00e+00	0	51	104	0	82	26446
2026-01-04 22:31:34.28	267.71	17.58	-55.8	-60.7	3.7	0.00e+00	0	51	104	0	82	26397
2026-01-04 22:31:36.29	267.10	17.41	-55.8	-60.7	3.7	0.00e+00	0	51	104	0	82	26352
2026-01-04 22:31:38.30	266.50	17.24	-55.8	-60.7	3.7	0.00e+00	0	51	104	0	82	26395
2026-01-04 22:31:40.30	265.91	17.07	-55.8	-60.7	3.7	0.00e+00	0	51	104	0	82	26356
2026-01-04 22:31:42.31	265.32	16.90	-55.8	-60.7	3.7	0.00e+00	0	51	104	0	82	26371
2026-01-04 22:31:44.32	264.74	16.73	-55.8	-60.7	3.7	0.00e+00	0	51	104	0	82	26376
2026-01-04 22:31:46.33	264.17	16.55	-55.8	-60.7	3.7	0.00e+00	0	51	104	0	82	26318
2026-01-04 22:31:48.34	263.61	16.37	-55.8	-60.7	3.7	0.00e+00	0	51	104	0	82	26440
2026-01-04 22:31:50.35	263.05	16.20	-55.8	-60.7	3.7	0.00e+00	0	51	104	0	82	26368
2026-01-04 22:31:52.35	262.51	16.02	-55.8	-60.6	3.7	0.00e+00	0	51	104	0	82	26266
2026-01-04 22:31:54.36	261.97	15.84	-55.8	-60.7	3.7	0.00e+00	0	51	104	0	82	26289
2026-01-04 22:31:56.37	261.44	15.66	-55.8	-60.7	3.7	0.00e+00	0	51	104	0	82	26371
2026-01-04 22:31:58.38	260.91	15.49	-55.8	-60.7	3.7	0.00e+00	0	51	104	0	82	26285
2026-01-04 22:32:00.39	260.39	15.31	-55.8	-60.7	3.7	0.00e+00	0	51	104	0	82	26306
2026-01-04 22:32:02.40	259.88	15.13	-55.8	-60.7	3.7	0.00e+00	0	51	104	0	82	26339
2026-01-04 22:32:04.41	259.38	14.95	-55.8	-60.7	3.7	0.00e+00	0	51	104	0	82	26338
2026-01-04 22:32:06.42	258.89	14.77	-55.8	-60.7	3.7	0.00e+00	0	51	104	0	82	26331
2026-01-04 22:32:08.43	258.40	14.59	-55.8	-60.6	3.7	0.00e+00	0	51	104	0	82	26252
2026-01-04 22:32:10.43	257.92	14.41	-55.8	-60.7	3.7	0.00e+00	0	51	104	0	82	26375
2026-01-04 22:32:12.44	257.44	14.23	-55.8	-60.7	3.7	0.00e+00	0	51	104	0	82	26361
2026-01-04 22:32:14.45	256.98	14.05	-55.8	-60.7	3.7	0.00e+00	0	51	104	0	82	26374
2026-01-04 22:32:16.46	256.52	13.87	-55.8	-60.7	3.7	0.00e+00	0	51	104	0	82	26282
2026-01-04 22:32:18.47	256.06	13.69	-55.8	-60.7	3.7	0.00e+00	0	51	104	0	82	26460
2026-01-04 22:32:20.48	255.61	13.51	-55.8	-60.7	3.7	0.00e+00	0	51	104	0	82	26431
2026-01-04 22:32:22.48	255.18	13.33	-55.8	-60.7	3.7	0.00e+00	0	51	104	0	82	26483
2026-01-04 22:32:24.49	254.74	13.15	-55.9	-60.7	3.7	0.00e+00	0	51	104	0	82	26396
2026-01-04 22:32:26.50	254.31	12.98	-55.8	-60.7	3.7	0.00e+00	0	51	104	0	82	26384
2026-01-04 22:32:28.51	253.89	12.80	-55.8	-60.7	3.7	0.00e+00	0	51	104	0	82	26349
2026-01-04 22:32:30.52	253.48	12.62	-55.8	-60.7	3.7	0.00e+00	0	51	104	0	82	26393
2026-01-04 22:32:32.53	253.07	12.44	-55.8	-60.7	3.7	0.00e+00	0	51	104	0	82	26314
2026-01-04 22:32:34.53	252.66	12.27	-55.9	-60.6	3.7	0.00e+00	0	51	104	0	82	26228
2026-01-04 22:32:36.54	252.27	12.09	-55.8	-60.7	3.7	0.00e+00	0	51	104	0	82	26375
2026-01-04 22:32:38.55	251.87	11.92	-55.9	-60.7	3.7	0.00e+00	0	51	104	0	82	26432
2026-01-04 22:32:40.56	251.49	11.74	-55.8	-60.7	3.7	0.00e+00	0	51	104	0	82	26400
2026-01-04 22:32:42.56	251.11	11.57	-55.8	-60.7	3.7	0.00e+00	0	51	104	0	82	26379
2026-01-04 22:32:44.57	250.73	11.39	-55.8	-60.7	3.7	0.00e+00	0	51	104	0	82	26340
2026-01-04 22:32:46.58	250.36	11.22	-55.8	-60.7	3.7	0.00e+00	0	51	104	0	82	26399
2026-01-04 22:32:48.59	250.00	11.05	-55.9	-60.7	3.7	0.00e+00	0	51	104	0	82	26401
2026-01-04 22:32:50.60	249.64	10.88	-55.9	-60.7	3.7	0.00e+00	0	51	104	0	82	26360
2026-01-04 22:32:52.61	249.29	10.71	-55.9	-60.7	3.7	0.00e+00	0	51	104	0	82	26326
2026-01-04 22:32:54.62	248.94	10.54	-55.9	-60.7	3.7	0.00e+00	0	51	104	0	82	26398
2026-01-04 22:32:56.63	248.59	10.37	-55.9	-60.7	3.7	0.00e+00	0	51	104	0	82	26431
2026-01-04 22:32:58.63	248.26	10.20	-55.9	-60.7	3.7	0.00e+00	0	51	104	0	82	26484
2026-01-04 22:33:00.64	247.92	10.03	-55.9	-60.7	3.7	0.00e+00	0	51	104	0	82	26493
2026-01-04 22:33:02.65	247.59	9.86	-55.9	-60.7	3.7	0.00e+00	0	51	104	0	82	26460
2026-01-04 22:33:04.66	247.27	9.70	-55.9	-60.7	3.7	0.00e+00	0	51	104	0	82	26348
2026-01-04 22:33:06.67	246.95	9.53	-55.9	-60.7	3.7	0.00e+00	0	51	104	0	82	26397
2026-01-04 22:33:08.68	246.63	9.37	-55.9	-60.7	3.7	0.00e+00	0	51	104	0	82	26396
2026-01-04 22:33:10.69	246.32	9.20	-55.8	-60.7	3.7	0.00e+00	0	51	104	0	82	26384
2026-01-04 22:33:12.70	246.02	9.04	-55.8	-60.7	3.7	0.00e+00	0	51	104	0	82	26439
2026-01-04 22:33:14.71	245.71	8.88	-55.9	-60.7	3.7	0.00e+00	0	51	104	0	82	26293
2026-01-04 22:33:16.71	245.42	8.72	-55.9	-60.7	3.7	0.00e+00	0	51	104	0	82	26354
2026-01-04 22:33:18.72	245.12	8.55	-55.8	-60.7	3.7	0.00e+00	0	51	104	0	82	26332
2026-01-04 22:33:20.73	244.83	8.39	-55.8	-60.7	3.7	0.00e+00	0	51	104	0	82	26357
2026-01-04 22:33:22.74	244.55	8.23	-55.8	-60.7	3.7	0.00e+00	0	51	104	0	82	26360
2026-01-04 22:33:24.74	244.27	8.08	-55.8	-60.6	3.7	0.00e+00	0	51	104	0	82	26241
2026-01-04 22:33:26.75	243.99	7.92	-55.8	-60.7	3.7	0.00e+00	0	51	104	0	82	26316
2026-01-04 22:33:28.76	243.71	7.76	-55.8	-60.7	3.7	0.00e+00	0	51	104	0	82	26314
2026-01-04 22:33:30.77	243.44	7.61	-55.8	-60.7	3.7	0.00e+00	0	51	104	0	82	26288
2026-01-04 22:33:32.78	243.18	7.45	-55.8	-60.7	3.7	0.00e+00	0	51	104	0	82	26291
2026-01-04 22:33:34.79	242.91	7.30	-55.8	-60.7	3.7	0.00e+00	0	51	104	0	82	26326
2026-01-04 22:33:36.80	242.65	7.14	-55.8	-60.6	3.7	0.00e+00	0	51	104	0	82	26208
2026-01-04 22:33:38.81	242.40	6.99	-55.8	-60.7	3.7	0.00e+00	0	51	104	0	82	26286
2026-01-04 22:33:40.81	242.14	6.84	-55.8	-60.6	3.7	0.00e+00	0	51	104	0	82	26236
2026-01-04 22:33:42.82	241.89	6.69	-55.8	-60.6	3.7	0.00e+00	0	51	104	0	82	26242
2026-01-04 22:33:44.83	241.65	6.53	-55.8	-60.6	3.7	0.00e+00	0	51	104	0	82	26126
2026-01-04 22:33:46.84	241.41	6.38	-55.8	-60.6	3.7	0.00e+00	0	51	104	0	82	26194
2026-01-04 22:33:48.85	241.17	6.24	-55.8	-60.6	3.7	0.00e+00	0	51	104	0	82	26187
2026-01-04 22:33:50.86	240.93	6.09	-55.8	-60.7	3.7	0.00e+00	0	51	104	0	82	26365
2026-01-04 22:33:52.86	240.70	5.94	-55.8	-60.6	3.7	0.00e+00	0	51	104	0	82	26207
2026-01-04 22:33:54.87	240.47	5.79	-55.8	-60.6	3.7	0.00e+00	0	51	104	0	82	26249
2026-01-04 22:33:56.88	240.24	5.65	-55.8	-60.6	3.7	0.00e+00	0	51	104	0	82	26154
2026-01-04 22:33:58.89	240.01	5.50	-55.8	-60.7	3.7	0.00e+00	0	51	104	0	82	26279
2026-01-04 22:34:00.90	239.79	5.36	-55.8	-60.6	3.7	0.00e+00	0	51	104	0	82	26261
2026-01-04 22:34:02.91	239.57	5.21	-55.8	-60.6	3.7	0.00e+00	0	51	104	0	82	26237
2026-01-04 22:34:04.91	239.36	5.07	-55.8	-60.6	3.7	0.00e+00	0	51	104	0	82	26212

#Closed at: 2026-01-04 22:34:06
#Recorded file [0 MB]: D:/Data/31040_260105_012616.dat