passes_logs/2026/01/04/T1/T1__20260104_135947_FENGYUN_3E_rec.log

#Pass ID: 20260104_135947_FENGYUN 3E
#Satellite: FENGYUN 3E
#Configuration: FENGYUN 3E
#almurnet v.1.7.20251203
#Start time: 2026-01-04 13:59:48

#Version: 2.0.20230620
#Station: T1
#Location: 37.570604 lon 55.790049 lat
#TLE: 1 49008U 21062A   26004.01270550 -.00000256  00000+0 -10014-3 0  9997
#TLE: 2 49008  98.7472   9.2701 0001499 161.2681 198.8551 14.19882497233285

#Time	Az	El	Level	Level2	SNR	BER	BlckErr	Temp	State	Recorded	gain1	gain2
2026-01-04 13:59:48.11	153.68	5.04	-53.7	-64.5	3.8	8.46e-01	0	38	0	0	78	11995
2026-01-04 13:59:52.12	153.64	5.33	-53.6	-63.8	3.8	8.47e-01	0	39	104	0	78	11136
2026-01-04 13:59:56.14	153.59	5.62	-53.6	-64.4	3.8	8.47e-01	0	39	104	0	77	12521
2026-01-04 14:00:00.16	153.55	5.92	-53.5	-63.4	3.8	8.48e-01	0	39	104	0	77	11228
2026-01-04 14:00:04.18	153.51	6.22	-53.2	-62.0	4.0	8.44e-01	0	39	104	0	77	9563
2026-01-04 14:00:08.20	153.46	6.52	-53.4	-62.9	3.8	8.46e-01	0	39	104	0	77	10563
2026-01-04 14:00:12.21	153.42	6.83	-53.6	-63.8	3.8	8.47e-01	0	39	104	0	77	11734
2026-01-04 14:00:16.23	153.37	7.14	-53.2	-61.9	3.9	8.46e-01	0	40	104	0	77	9495
2026-01-04 14:00:20.25	153.32	7.46	-52.5	-58.8	5.1	7.73e-01	0	40	0	0	75	7389
2026-01-04 14:00:24.26	153.27	7.77	-51.0	-55.0	8.3	7.56e-02	0	40	0	22020096	72	5681
2026-01-04 14:00:28.28	153.22	8.10	-49.3	-52.2	11.2	2.18e-03	0	40	0	51380224	69	4871
2026-01-04 14:00:32.29	153.17	8.42	-49.2	-52.0	11.3	1.28e-03	0	40	0	80740352	68	5096
2026-01-04 14:00:36.31	153.12	8.75	-50.8	-54.6	8.7	3.41e-02	0	40	0	109051904	71	5760
2026-01-04 14:00:40.33	153.06	9.09	-52.5	-58.6	5.2	7.62e-01	0	40	0	132120576	74	7715
2026-01-04 14:00:44.34	153.01	9.43	-48.5	-51.1	12.4	0.00e+00	0	40	0	150994944	66	5105
2026-01-04 14:00:48.36	152.95	9.77	-44.6	-46.3	17.0	0.00e+00	0	41	0	171966464	60	4186
2026-01-04 14:00:52.33	152.89	10.12	-43.7	-45.3	17.8	0.00e+00	0	40	0	200278016	58	4178
2026-01-04 14:00:56.34	152.83	10.47	-43.3	-44.9	18.3	0.00e+00	0	41	0	229638144	57	4209
2026-01-04 14:01:00.34	152.77	10.83	-43.1	-44.6	18.5	0.00e+00	0	41	0	257949696	56	4317
2026-01-04 14:01:04.39	152.70	11.20	-43.0	-44.5	18.7	0.00e+00	0	41	0	287309824	56	4287
2026-01-04 14:01:08.41	152.63	11.57	-42.8	-44.3	18.8	0.00e+00	0	41	0	316669952	56	4161
2026-01-04 14:01:12.41	152.56	11.94	-42.8	-44.3	18.8	0.00e+00	0	41	0	344981504	56	4146
2026-01-04 14:01:16.42	152.49	12.32	-42.4	-43.8	19.2	0.00e+00	0	41	0	374341632	55	4172
2026-01-04 14:01:20.41	152.42	12.70	-42.4	-43.8	19.2	0.00e+00	0	41	0	402653184	55	4181
2026-01-04 14:01:24.42	152.35	13.10	-42.3	-43.7	19.3	0.00e+00	0	41	0	432013312	55	4137
2026-01-04 14:01:28.42	152.27	13.50	-42.0	-43.4	19.6	0.00e+00	0	41	0	460324864	54	4215
2026-01-04 14:01:32.47	152.19	13.91	-42.0	-43.4	19.6	0.00e+00	0	41	0	489684992	54	4211
2026-01-04 14:01:36.47	152.10	14.32	-42.0	-43.4	19.6	0.00e+00	0	41	0	519045120	54	4211
2026-01-04 14:01:40.47	152.02	14.74	-42.1	-43.5	19.6	0.00e+00	0	41	0	547356672	54	4244
2026-01-04 14:01:44.48	151.93	15.16	-42.1	-43.5	19.5	0.00e+00	0	41	0	576716800	54	4277
2026-01-04 14:01:48.57	151.84	15.61	-41.9	-43.3	19.7	0.00e+00	0	41	0	606076928	54	4163
2026-01-04 14:01:52.57	151.75	16.05	-42.0	-43.3	19.7	0.00e+00	0	41	0	635437056	54	4186
2026-01-04 14:01:56.58	151.65	16.50	-41.7	-43.0	19.9	0.00e+00	0	41	0	663748608	54	4030
2026-01-04 14:02:00.73	151.54	16.97	-41.6	-43.0	20.0	0.00e+00	0	41	0	694157312	53	4246
2026-01-04 14:02:04.74	151.44	17.44	-41.5	-42.9	20.1	0.00e+00	0	41	0	723517440	53	4203
2026-01-04 14:02:08.74	151.33	17.92	-41.5	-42.8	20.1	0.00e+00	0	41	0	751828992	53	4193
2026-01-04 14:02:12.81	151.22	18.41	-41.0	-42.3	20.6	0.00e+00	0	41	0	781189120	52	4164
2026-01-04 14:02:16.83	151.10	18.91	-41.0	-42.2	20.6	0.00e+00	0	41	0	810549248	52	4141
2026-01-04 14:02:20.87	150.98	19.42	-40.9	-42.1	20.8	0.00e+00	0	41	0	838860800	52	4076
2026-01-04 14:02:24.88	150.86	19.94	-40.7	-42.0	21.0	0.00e+00	0	41	0	868220928	51	4244
2026-01-04 14:02:29.28	150.72	20.52	-40.5	-41.7	21.1	0.00e+00	0	41	0	900726784	51	4134
2026-01-04 14:02:33.29	150.58	21.06	-40.6	-41.8	21.1	0.00e+00	0	41	0	929038336	51	4155
2026-01-04 14:02:37.49	150.44	21.63	-40.4	-41.6	21.2	0.00e+00	0	41	0	959447040	51	4088
2026-01-04 14:02:41.76	150.28	22.23	-40.5	-41.8	21.1	0.00e+00	0	41	0	989855744	51	4154
2026-01-04 14:02:45.76	150.13	22.81	-40.6	-41.9	21.0	0.00e+00	0	41	0	1019215872	51	4211
2026-01-04 14:02:49.77	149.97	23.40	-40.5	-41.9	20.9	0.00e+00	0	42	0	1047527424	51	4195
2026-01-04 14:02:53.78	149.81	24.01	-40.5	-41.8	21.0	0.00e+00	0	41	0	1076887552	51	4190
2026-01-04 14:02:57.85	149.64	24.63	-40.6	-41.9	20.9	0.00e+00	0	41	0	1106247680	51	4226
2026-01-04 14:03:01.85	149.46	25.26	-40.4	-41.8	21.0	0.00e+00	0	41	0	1135607808	51	4160
2026-01-04 14:03:05.86	149.27	25.91	-40.3	-41.6	21.2	0.00e+00	0	41	0	1163919360	51	4065
2026-01-04 14:03:09.81	149.08	26.57	-40.1	-41.4	21.4	0.00e+00	0	41	0	1192230912	50	4206
2026-01-04 14:03:13.82	148.87	27.25	-39.9	-41.2	21.5	0.00e+00	0	42	0	1221591040	50	4129
2026-01-04 14:03:17.83	148.66	27.94	-39.7	-41.0	21.7	0.00e+00	0	42	0	1250951168	50	4040
2026-01-04 14:03:21.83	148.44	28.65	-39.8	-41.1	21.8	0.00e+00	0	42	0	1279262720	50	4057
2026-01-04 14:03:25.94	148.20	29.41	-39.6	-40.8	21.9	0.00e+00	0	42	0	1309671424	49	4191
2026-01-04 14:03:29.95	147.95	30.16	-39.7	-41.0	21.8	0.00e+00	0	42	0	1337982976	49	4252
2026-01-04 14:03:33.95	147.70	30.93	-40.0	-41.3	21.5	0.00e+00	0	42	0	1367343104	49	4400
2026-01-04 14:03:37.95	147.43	31.72	-39.7	-41.0	21.8	0.00e+00	0	42	0	1395654656	49	4246
2026-01-04 14:03:42.48	147.10	32.63	-39.9	-41.1	21.7	0.00e+00	0	42	0	1429209088	49	4330
2026-01-04 14:03:46.49	146.80	33.47	-39.8	-41.0	21.7	0.00e+00	0	42	0	1457520640	49	4291
2026-01-04 14:03:50.49	146.48	34.33	-40.0	-41.3	21.5	0.00e+00	0	42	0	1486880768	49	4402
2026-01-04 14:03:54.84	146.11	35.29	-39.8	-41.1	21.7	0.00e+00	0	42	0	1518338048	50	4056
2026-01-04 14:03:58.84	145.75	36.19	-39.9	-41.2	21.7	0.00e+00	0	42	0	1546649600	50	4101
2026-01-04 14:04:02.84	145.37	37.12	-40.0	-41.3	21.5	0.00e+00	0	42	0	1576009728	50	4180
2026-01-04 14:04:06.82	144.97	38.08	-40.3	-41.6	21.3	0.00e+00	0	42	0	1604321280	50	4312
2026-01-04 14:04:10.81	144.55	39.06	-39.9	-41.2	21.6	0.00e+00	0	42	0	1632632832	50	4118
2026-01-04 14:04:14.93	144.08	40.10	-39.9	-40.9	22.0	0.00e+00	0	42	0	1663041536	50	3973
2026-01-04 14:04:19.22	143.55	41.21	-40.4	-41.2	22.2	0.00e+00	0	41	0	1693450240	50	4136
2026-01-04 14:04:23.29	143.02	42.30	-40.6	-41.5	22.0	0.00e+00	0	42	0	1722810368	51	4008
2026-01-04 14:04:27.29	142.46	43.39	-40.5	-41.3	22.2	0.00e+00	0	42	0	1752170496	51	3939
2026-01-04 14:04:31.29	141.85	44.52	-40.4	-41.2	22.3	0.00e+00	0	42	0	1781530624	51	3886
2026-01-04 14:04:35.22	141.22	45.65	-41.1	-42.0	21.6	0.00e+00	0	42	0	1808793600	51	4250
2026-01-04 14:04:39.22	140.52	46.83	-41.3	-42.2	21.4	0.00e+00	0	42	0	1838153728	52	4129
2026-01-04 14:04:43.19	139.77	48.04	-41.0	-41.9	21.7	0.00e+00	0	42	0	1866465280	52	3980
2026-01-04 14:04:47.20	138.96	49.28	-41.6	-42.5	21.0	0.00e+00	0	42	0	1895825408	52	4281
2026-01-04 14:04:51.20	138.07	50.55	-41.7	-42.6	21.0	0.00e+00	0	42	0	1925185536	52	4325
2026-01-04 14:04:55.14	137.12	51.83	-41.5	-42.4	21.2	0.00e+00	0	42	0	1953497088	53	3981
2026-01-04 14:04:59.45	135.98	53.25	-41.7	-42.7	21.0	0.00e+00	0	42	0	1983905792	53	4106
2026-01-04 14:05:03.55	134.78	54.63	-42.0	-42.9	20.7	0.00e+00	0	42	0	2014314496	54	3980
2026-01-04 14:05:07.56	133.49	56.01	-42.0	-42.9	20.8	0.00e+00	0	42	0	2042626048	53	4204
2026-01-04 14:05:11.56	132.07	57.40	-42.0	-42.9	20.8	0.00e+00	0	42	0	2071986176	53	4211
2026-01-04 14:05:15.58	130.48	58.81	-42.1	-43.0	20.7	0.00e+00	0	42	0	2100297728	54	4044
2026-01-04 14:05:19.58	128.73	60.22	-41.6	-42.5	21.1	0.00e+00	0	42	0	2129657856	53	4032
2026-01-04 14:05:23.83	126.63	61.73	-41.8	-42.7	21.0	0.00e+00	0	42	0	2160066560	53	4113
2026-01-04 14:05:28.22	124.18	63.29	-41.1	-42.0	21.6	0.00e+00	0	42	0	2191523840	52	4023
2026-01-04 14:05:32.23	121.64	64.69	-40.8	-41.7	21.8	0.00e+00	0	42	0	2220883968	52	3890
2026-01-04 14:05:36.26	118.76	66.08	-40.2	-41.0	22.5	0.00e+00	0	42	0	2250244096	51	3814
2026-01-04 14:05:40.44	115.35	67.48	-40.4	-41.2	22.3	0.00e+00	0	42	0	2280652800	50	4140
2026-01-04 14:05:44.45	111.63	68.76	-40.5	-41.3	22.2	0.00e+00	0	42	0	2308964352	50	4187
2026-01-04 14:05:48.45	107.42	69.96	-40.7	-41.5	22.1	0.00e+00	0	42	0	2338324480	51	4030
2026-01-04 14:05:52.45	102.65	71.06	-40.7	-41.6	21.9	0.00e+00	0	42	0	2366636032	51	4077
2026-01-04 14:05:56.54	97.17	72.05	-40.6	-41.4	22.1	0.00e+00	0	42	0	2395996160	51	3994
2026-01-04 14:06:00.54	91.22	72.86	-40.5	-41.4	22.2	0.00e+00	0	42	0	2425356288	51	3959
2026-01-04 14:06:04.58	84.65	73.48	-40.0	-40.8	22.6	0.00e+00	0	42	0	2453667840	50	3948
2026-01-04 14:06:08.58	77.71	73.88	-40.2	-41.0	22.5	0.00e+00	0	42	0	2483027968	50	4046
2026-01-04 14:06:12.59	70.50	74.04	-40.7	-41.5	22.1	0.00e+00	0	42	0	2512388096	51	4026
2026-01-04 14:06:16.77	62.94	73.95	-40.3	-41.2	22.4	0.00e+00	0	42	0	2541748224	51	3874
2026-01-04 14:06:21.11	55.33	73.58	-40.3	-41.2	22.4	0.00e+00	0	42	0	2573205504	51	3880
2026-01-04 14:06:25.11	48.73	73.00	-40.3	-41.1	22.3	0.00e+00	0	42	0	2602565632	51	3860
2026-01-04 14:06:29.27	42.42	72.20	-40.6	-41.4	22.1	0.00e+00	0	42	0	2632974336	51	4000
2026-01-04 14:06:33.27	36.96	71.26	-41.0	-41.8	21.8	0.00e+00	0	42	0	2661285888	51	4191
2026-01-04 14:06:37.28	32.08	70.18	-40.3	-41.2	22.4	0.00e+00	0	42	0	2690646016	51	3870
2026-01-04 14:06:41.29	27.75	69.00	-40.7	-41.6	22.0	0.00e+00	0	42	0	2718957568	51	4079
2026-01-04 14:06:45.67	23.62	67.61	-40.6	-41.4	22.2	0.00e+00	0	42	0	2750414848	51	3974
2026-01-04 14:06:49.68	20.30	66.28	-40.3	-41.1	22.5	0.00e+00	0	42	0	2779774976	51	3865
2026-01-04 14:06:53.68	17.39	64.91	-40.6	-41.4	22.2	0.00e+00	0	42	0	2809135104	51	3978
2026-01-04 14:06:57.69	14.81	63.51	-41.0	-41.9	21.7	0.00e+00	0	42	0	2837446656	51	4220
2026-01-04 14:07:01.69	12.53	62.10	-41.3	-42.1	21.5	0.00e+00	0	42	0	2866806784	52	4094
2026-01-04 14:07:05.63	10.52	60.71	-41.5	-42.4	21.3	0.00e+00	0	42	0	2895118336	53	3980
2026-01-04 14:07:09.71	8.67	59.27	-42.1	-43.0	20.8	0.00e+00	0	42	0	2924478464	54	4018
2026-01-04 14:07:13.97	6.94	57.77	-42.0	-42.9	20.9	0.00e+00	0	42	0	2954887168	54	3964
2026-01-04 14:07:17.98	5.49	56.38	-41.5	-42.4	21.2	0.00e+00	0	42	0	2984247296	53	3988
2026-01-04 14:07:21.98	4.17	55.01	-41.2	-42.1	21.5	0.00e+00	0	42	0	3013607424	53	3853
2026-01-04 14:07:25.99	2.97	53.65	-41.7	-42.6	21.1	0.00e+00	0	42	0	3041918976	52	4292
2026-01-04 14:07:29.99	1.89	52.33	-41.7	-42.6	21.1	0.00e+00	0	42	0	3071279104	53	4072
2026-01-04 14:07:33.99	0.89	51.02	-42.1	-43.0	20.6	0.00e+00	0	42	0	3099590656	53	4280
2026-01-04 14:07:38.00	359.98	49.75	-41.8	-42.7	20.9	0.00e+00	0	42	0	3128950784	53	4127
2026-01-04 14:07:42.01	359.14	48.50	-41.2	-42.1	21.5	0.00e+00	0	42	0	3157262336	53	3844
2026-01-04 14:07:46.02	358.37	47.28	-41.3	-42.2	21.4	0.00e+00	0	42	0	3186622464	52	4107
2026-01-04 14:07:50.35	357.60	45.99	-41.1	-41.9	21.6	0.00e+00	0	42	0	3218079744	52	4003
2026-01-04 14:07:54.38	356.94	44.83	-40.7	-41.5	22.1	0.00e+00	0	42	0	3247439872	51	4033
2026-01-04 14:07:58.47	356.32	43.68	-40.5	-41.3	22.3	0.00e+00	0	42	0	3276800000	51	3933
2026-01-04 14:08:02.94	355.68	42.45	-40.3	-41.2	22.4	0.00e+00	0	42	0	3309305856	51	3872
2026-01-04 14:08:06.95	355.16	41.38	-40.5	-41.4	22.2	0.00e+00	0	42	0	3337617408	51	3970
2026-01-04 14:08:10.96	354.67	40.34	-40.8	-41.7	21.9	0.00e+00	0	42	0	3366977536	51	4103
2026-01-04 14:08:14.96	354.21	39.33	-40.8	-41.7	21.9	0.00e+00	0	42	0	3395289088	51	4107
2026-01-04 14:08:18.98	353.77	38.34	-40.6	-41.4	22.1	0.00e+00	0	42	0	3424649216	51	3995
2026-01-04 14:08:22.98	353.37	37.39	-40.5	-41.4	22.1	0.00e+00	0	42	0	3454009344	51	3980
2026-01-04 14:08:26.99	352.98	36.45	-40.3	-41.1	22.3	0.00e+00	0	42	0	3482320896	51	3841
2026-01-04 14:08:31.00	352.62	35.54	-40.3	-41.1	22.4	0.00e+00	0	42	0	3511681024	51	3849
2026-01-04 14:08:35.01	352.28	34.66	-40.2	-41.1	22.2	0.00e+00	0	42	0	3539992576	51	3842
2026-01-04 14:08:39.02	351.96	33.79	-40.1	-40.9	22.6	0.00e+00	0	42	0	3569352704	51	3776
2026-01-04 14:08:43.15	351.65	32.93	-39.8	-40.6	22.7	0.00e+00	0	42	0	3598712832	50	3866
2026-01-04 14:08:47.18	351.36	32.11	-40.2	-41.0	22.4	0.00e+00	0	42	0	3628072960	50	4026
2026-01-04 14:08:51.19	351.08	31.31	-40.3	-41.2	22.3	0.00e+00	0	42	0	3657433088	50	4099
2026-01-04 14:08:55.47	350.80	30.49	-40.3	-41.1	22.3	0.00e+00	0	42	0	3687841792	50	4076
2026-01-04 14:08:59.48	350.56	29.73	-40.2	-41.0	22.4	0.00e+00	0	42	0	3717201920	50	4043
2026-01-04 14:09:03.55	350.32	28.98	-40.3	-41.1	22.3	0.00e+00	0	42	0	3746562048	50	4077
2026-01-04 14:09:07.73	350.09	28.24	-40.6	-41.5	22.0	0.00e+00	0	42	0	3776970752	50	4263
2026-01-04 14:09:11.79	349.87	27.53	-40.8	-41.6	21.9	0.00e+00	0	42	0	3806330880	51	4086
2026-01-04 14:09:15.81	349.67	26.85	-40.7	-41.6	21.9	0.00e+00	0	42	0	3834642432	51	4061
2026-01-04 14:09:19.81	349.47	26.18	-40.4	-41.3	22.2	0.00e+00	0	42	0	3864002560	51	3932
2026-01-04 14:09:23.82	349.29	25.53	-40.4	-41.3	22.2	0.00e+00	0	42	0	3892314112	51	3920
2026-01-04 14:09:27.83	349.11	24.90	-40.7	-41.6	21.9	0.00e+00	0	42	0	3921674240	51	4067
2026-01-04 14:09:31.84	348.94	24.28	-40.8	-41.7	21.8	0.00e+00	0	42	0	3951034368	51	4105
2026-01-04 14:09:35.96	348.77	23.66	-41.0	-41.9	21.6	0.00e+00	0	42	0	3980394496	51	4216
2026-01-04 14:09:39.97	348.61	23.07	-41.2	-42.2	21.4	0.00e+00	0	42	0	4008706048	51	4349
2026-01-04 14:09:44.19	348.46	22.46	-41.0	-41.9	21.5	0.00e+00	0	42	0	4040163328	51	4230
2026-01-04 14:09:48.29	348.31	21.88	-41.1	-42.0	21.6	0.00e+00	0	42	0	4069523456	51	4243
2026-01-04 14:09:52.30	348.17	21.33	-40.9	-41.8	21.7	0.00e+00	0	42	0	4097835008	51	4187
2026-01-04 14:09:56.26	348.04	20.79	-41.0	-41.9	21.6	0.00e+00	0	42	0	4127195136	51	4206
2026-01-04 14:10:00.68	347.90	20.21	-41.1	-42.0	21.5	0.00e+00	0	42	0	4158652416	51	4265
2026-01-04 14:10:04.69	347.78	19.69	-41.2	-42.1	21.3	0.00e+00	0	42	0	4188012544	52	4073
2026-01-04 14:10:08.85	347.66	19.17	-41.3	-42.2	21.3	0.00e+00	0	42	0	4217372672	52	4105
2026-01-04 14:10:12.85	347.54	18.67	-41.4	-42.3	21.1	0.00e+00	0	42	0	4246732800	52	4192
2026-01-04 14:10:16.86	347.43	18.18	-41.5	-42.5	21.0	0.00e+00	0	42	0	4275044352	52	4270
2026-01-04 14:10:20.86	347.33	17.71	-41.5	-42.6	20.8	0.00e+00	0	42	0	4304404480	52	4307
2026-01-04 14:10:24.88	347.23	17.24	-41.8	-42.9	20.6	0.00e+00	0	42	0	4332716032	53	4204
2026-01-04 14:10:28.88	347.13	16.78	-42.0	-43.1	20.5	0.00e+00	0	42	0	4362076160	53	4293
2026-01-04 14:10:32.89	347.03	16.33	-42.0	-42.9	20.5	0.00e+00	0	42	0	4391436288	53	4240
2026-01-04 14:10:37.07	346.94	15.86	-42.0	-43.1	20.4	0.00e+00	0	42	0	4420796416	53	4318
2026-01-04 14:10:41.06	346.85	15.43	-42.1	-43.2	20.3	0.00e+00	0	42	0	4450156544	53	4345
2026-01-04 14:10:45.07	346.76	15.00	-42.4	-43.4	20.1	0.00e+00	0	42	0	4478468096	54	4221
2026-01-04 14:10:49.03	346.68	14.59	-42.5	-43.6	19.9	0.00e+00	0	42	0	4507828224	54	4313
2026-01-04 14:10:53.17	346.60	14.16	-42.7	-43.7	19.7	0.00e+00	0	42	0	4537188352	54	4386
2026-01-04 14:10:57.25	346.52	13.75	-42.9	-43.9	19.6	0.00e+00	0	42	0	4566548480	55	4219
2026-01-04 14:11:01.26	346.45	13.35	-42.8	-43.9	19.6	0.00e+00	0	42	0	4595908608	55	4228
2026-01-04 14:11:05.27	346.38	12.95	-43.0	-44.1	19.4	0.00e+00	0	42	0	4625268736	55	4328
2026-01-04 14:11:09.58	346.30	12.54	-43.0	-44.1	19.4	0.00e+00	0	42	0	4655677440	55	4311
2026-01-04 14:11:13.59	346.23	12.16	-43.2	-44.3	19.3	0.00e+00	0	42	0	4685037568	55	4406
2026-01-04 14:11:17.70	346.17	11.77	-43.0	-44.3	19.2	0.00e+00	0	42	0	4714397696	55	4393
2026-01-04 14:11:21.65	346.10	11.41	-43.0	-44.3	19.1	0.00e+00	0	42	0	4742709248	55	4415
2026-01-04 14:11:25.66	346.04	11.05	-43.1	-44.5	19.0	0.00e+00	0	42	0	4772069376	55	4523
2026-01-04 14:11:29.67	345.98	10.69	-43.0	-44.5	19.0	0.00e+00	0	42	0	4801429504	55	4495
2026-01-04 14:11:33.73	345.93	10.33	-43.1	-44.6	18.8	0.00e+00	0	42	0	4830789632	55	4556
2026-01-04 14:11:37.99	345.87	9.96	-43.3	-44.9	18.7	0.00e+00	0	42	0	4861198336	56	4463
2026-01-04 14:11:42.00	345.81	9.62	-43.1	-44.8	18.8	0.00e+00	0	42	0	4890558464	56	4411
2026-01-04 14:11:46.17	345.76	9.27	-43.1	-44.9	18.6	0.00e+00	0	42	0	4919918592	56	4473
2026-01-04 14:11:50.18	345.71	8.93	-50.4	-61.3	4.3	3.50e-01	0	42	0	4947181568	70	13150
2026-01-04 14:11:54.26	345.66	8.60	-53.4	-65.3	3.8	8.47e-01	0	42	104	4947181568	77	13940
2026-01-04 14:11:58.42	345.61	8.26	-54.1	-65.4	3.8	8.46e-01	0	42	104	4947181568	78	13287
2026-01-04 14:12:02.56	345.56	7.93	-54.6	-65.6	3.8	8.48e-01	0	42	104	4947181568	79	12895
2026-01-04 14:12:06.58	345.51	7.61	-54.9	-65.5	3.8	8.47e-01	0	42	104	4947181568	79	12784
2026-01-04 14:12:10.59	345.47	7.30	-54.7	-65.5	3.8	8.47e-01	0	42	104	4947181568	79	12746
2026-01-04 14:12:14.61	345.43	6.99	-54.7	-65.5	3.8	8.47e-01	0	42	104	4947181568	79	12675
2026-01-04 14:12:18.62	345.39	6.68	-54.4	-65.4	3.8	8.46e-01	0	42	104	4947181568	79	12659
2026-01-04 14:12:22.64	345.35	6.38	-54.4	-65.4	3.8	8.48e-01	0	43	104	4947181568	79	12661
2026-01-04 14:12:26.66	345.31	6.08	-54.4	-65.4	3.8	8.47e-01	0	42	104	4947181568	79	12594
2026-01-04 14:12:30.67	345.27	5.79	-54.6	-65.6	3.8	8.47e-01	0	43	104	4947181568	79	12888
2026-01-04 14:12:34.69	345.24	5.49	-54.6	-65.6	3.8	8.48e-01	0	43	104	4947181568	79	12873
2026-01-04 14:12:38.71	345.20	5.20	-54.6	-65.6	3.8	8.48e-01	0	42	104	4947181568	79	12825

#Closed at: 2026-01-04 14:12:42
#Recorded file [4947 MB]: D:/Data/31040_260104_165948.dat