passes_logs/2026/01/04/T1/T1__20260104_012145_SUOMI_NPP_rec.log

#Pass ID: 20260104_012145_SUOMI NPP
#Satellite: SUOMI NPP
#Configuration: NPP
#almurnet v.1.7.20251203
#Start time: 2026-01-04 01:21:45

#Version: 2.0.20230620
#Station: T1
#Location: 37.570604 lon 55.790049 lat
#TLE: 1 37849U 11061A   26001.07732418  .00000182  00000+0  10735-3 0  9990
#TLE: 2 37849  98.7795 303.2470 0002580  87.2016 272.9455 14.19520779734739

#Time	Az	El	Level	Level2	SNR	BER	BlckErr	Temp	State	Recorded	gain1	gain2
2026-01-04 01:21:45.72	6.95	5.03	-55.0	-70.9	3.8	1.49e+00	0	39	0	0	81	22607
2026-01-04 01:21:48.72	6.72	5.21	-53.8	-70.6	3.8	1.49e+00	0	39	104	0	79	24575
2026-01-04 01:21:51.74	6.49	5.40	-53.8	-70.6	3.8	1.49e+00	0	39	104	0	79	24688
2026-01-04 01:21:54.75	6.25	5.58	-53.8	-70.6	3.8	1.49e+00	0	40	104	0	79	24638
2026-01-04 01:21:57.76	6.01	5.77	-53.9	-70.7	3.8	1.49e+00	0	39	104	0	79	24780
2026-01-04 01:22:00.77	5.76	5.96	-53.8	-70.7	3.8	1.49e+00	0	40	104	0	79	24830
2026-01-04 01:22:03.78	5.51	6.15	-53.7	-70.5	3.8	1.49e+00	0	40	104	0	79	24409
2026-01-04 01:22:06.80	5.26	6.34	-53.8	-70.7	3.8	1.49e+00	0	40	104	0	79	24694
2026-01-04 01:22:09.81	5.01	6.53	-53.8	-70.7	3.8	1.49e+00	0	40	104	0	79	24906
2026-01-04 01:22:12.82	4.75	6.72	-53.7	-70.6	3.8	1.49e+00	0	40	104	0	79	24591
2026-01-04 01:22:15.84	4.49	6.92	-53.8	-70.7	3.8	1.49e+00	0	40	104	0	79	24805
2026-01-04 01:22:18.85	4.22	7.11	-53.7	-70.5	3.8	1.49e+00	0	40	104	0	79	24212
2026-01-04 01:22:21.86	3.95	7.31	-53.7	-70.3	3.8	1.49e+00	0	40	104	0	79	23601
2026-01-04 01:22:24.87	3.68	7.50	-53.7	-69.8	3.8	1.49e+00	0	41	104	0	79	22441
2026-01-04 01:22:27.88	3.40	7.70	-53.7	-69.3	3.8	1.49e+00	0	41	104	0	79	21062
2026-01-04 01:22:30.90	3.12	7.90	-53.6	-69.1	3.8	1.49e+00	0	40	104	0	78	21879
2026-01-04 01:22:33.91	2.83	8.09	-53.7	-70.0	3.8	1.49e+00	0	41	104	0	78	24321
2026-01-04 01:22:36.92	2.54	8.29	-53.6	-70.1	3.8	1.49e+00	0	41	104	0	78	24473
2026-01-04 01:22:39.93	2.25	8.49	-53.5	-65.8	4.7	1.05e+00	0	41	0	0	78	14927
2026-01-04 01:22:42.94	1.95	8.69	-52.9	-61.1	8.2	9.19e-02	0	41	0	6291456	77	9239
2026-01-04 01:22:45.96	1.65	8.90	-52.5	-59.8	9.6	1.24e-02	0	41	0	11534336	76	8402
2026-01-04 01:22:48.97	1.35	9.10	-53.4	-62.6	6.8	7.53e-02	0	41	0	16777216	77	10936
2026-01-04 01:22:51.98	1.03	9.30	-54.0	-67.5	4.1	7.37e-01	0	41	0	22020096	78	18246
2026-01-04 01:22:54.99	0.72	9.51	-50.2	-54.2	15.1	0.00e+00	0	41	0	27262976	72	5546
2026-01-04 01:22:57.99	0.40	9.71	-50.2	-54.1	15.1	0.00e+00	0	41	0	33554432	72	5500
2026-01-04 01:23:01.00	0.08	9.92	-50.1	-53.7	15.3	7.00e-07	0	41	0	38797312	72	5276
2026-01-04 01:23:04.00	359.75	10.12	-50.0	-53.8	15.0	0.00e+00	0	41	0	45088768	71	5635
2026-01-04 01:23:07.00	359.42	10.33	-50.0	-53.6	15.3	0.00e+00	0	41	0	50331648	71	5505
2026-01-04 01:23:10.01	359.08	10.54	-49.8	-53.4	15.5	0.00e+00	0	41	0	55574528	71	5350
2026-01-04 01:23:13.02	358.73	10.74	-49.7	-53.4	15.5	3.80e-06	0	41	0	61865984	71	5342
2026-01-04 01:23:16.02	358.39	10.95	-49.7	-53.3	15.6	0.00e+00	0	41	0	67108864	71	5330
2026-01-04 01:23:19.03	358.03	11.16	-49.7	-53.4	15.4	0.00e+00	0	41	0	72351744	71	5379
2026-01-04 01:23:22.04	357.67	11.37	-50.0	-53.7	15.3	0.00e+00	0	41	0	78643200	71	5580
2026-01-04 01:23:25.05	357.31	11.59	-50.0	-53.9	15.2	0.00e+00	0	41	0	83886080	71	5661
2026-01-04 01:23:28.06	356.94	11.80	-50.2	-54.3	14.6	0.00e+00	0	41	0	90177536	71	5990
2026-01-04 01:23:31.07	356.56	12.01	-50.1	-54.2	14.5	0.00e+00	0	41	0	95420416	71	5922
2026-01-04 01:23:34.08	356.18	12.23	-50.2	-54.4	14.4	1.50e-06	0	41	0	100663296	71	6061
2026-01-04 01:23:37.09	355.79	12.44	-49.6	-53.5	15.3	7.00e-07	0	41	0	106954752	71	5445
2026-01-04 01:23:40.07	355.40	12.65	-49.8	-53.4	15.8	0.00e+00	0	41	0	112197632	71	5402
2026-01-04 01:23:43.10	355.00	12.87	-49.4	-52.8	16.3	0.00e+00	0	41	0	117440512	70	5317
2026-01-04 01:23:46.41	354.56	13.11	-49.1	-52.4	16.6	0.00e+00	0	41	0	123731968	70	5100
2026-01-04 01:23:49.35	354.15	13.32	-49.0	-52.4	16.5	0.00e+00	0	41	0	130023424	70	5060
2026-01-04 01:23:53.09	353.63	13.59	-48.8	-51.9	16.7	0.00e+00	0	41	0	136314880	69	5089
2026-01-04 01:23:55.81	353.25	13.78	-49.1	-52.3	16.6	6.86e-05	0	42	0	141557760	68	5618
2026-01-04 01:23:59.17	352.77	14.03	-49.0	-52.2	16.5	0.00e+00	0	41	0	147849216	69	5264
2026-01-04 01:24:01.97	352.36	14.23	-49.1	-52.2	16.7	0.00e+00	0	41	0	153092096	69	5240
2026-01-04 01:24:05.26	351.87	14.47	-49.3	-52.1	17.1	0.00e+00	0	41	0	159383552	69	5201
2026-01-04 01:24:08.00	351.46	14.67	-49.1	-52.0	17.2	0.00e+00	0	41	0	164626432	69	5142
2026-01-04 01:24:11.29	350.96	14.91	-49.4	-52.5	16.8	0.00e+00	0	41	0	170917888	69	5431
2026-01-04 01:24:14.01	350.54	15.10	-49.6	-52.7	16.6	0.00e+00	0	41	0	176160768	69	5553
2026-01-04 01:24:17.30	350.02	15.34	-49.7	-52.9	16.3	1.50e-06	0	41	0	182452224	70	5366
2026-01-04 01:24:20.03	349.59	15.54	-49.6	-52.8	16.4	0.00e+00	0	42	0	187695104	70	5301
2026-01-04 01:24:23.33	349.05	15.78	-49.7	-53.1	15.8	3.00e-06	0	41	0	192937984	70	5500
2026-01-04 01:24:26.19	348.58	15.99	-49.7	-53.3	15.5	0.00e+00	0	42	0	199229440	70	5634
2026-01-04 01:24:29.34	348.06	16.21	-49.8	-53.4	15.8	0.00e+00	0	41	0	204472320	70	5671
2026-01-04 01:24:32.21	347.57	16.42	-49.3	-52.7	16.2	0.00e+00	0	42	0	209715200	70	5226
2026-01-04 01:24:35.36	347.03	16.65	-49.5	-52.7	16.3	4.99e-04	0	41	0	216006656	69	5559
2026-01-04 01:24:38.23	346.53	16.86	-49.5	-53.2	15.6	2.44e-05	0	42	0	221249536	70	5564
2026-01-04 01:24:41.52	345.95	17.09	-48.5	-52.2	16.4	0.00e+00	0	41	0	227540992	69	5223
2026-01-04 01:24:44.42	345.43	17.30	-48.4	-51.7	16.8	0.00e+00	0	41	0	232783872	68	5246
2026-01-04 01:24:48.17	344.74	17.57	-49.3	-52.5	16.0	0.00e+00	0	41	0	240123904	69	5438
2026-01-04 01:24:50.91	344.24	17.76	-49.5	-52.9	15.6	0.00e+00	0	41	0	245366784	69	5670
2026-01-04 01:24:54.23	343.61	18.00	-48.9	-52.1	16.6	0.00e+00	0	41	0	251658240	69	5213
2026-01-04 01:24:56.95	343.09	18.19	-49.0	-52.0	16.7	0.00e+00	0	41	0	256901120	69	5135
2026-01-04 01:25:00.24	342.46	18.42	-49.2	-52.2	16.3	1.83e-05	0	41	0	262144000	69	5257
2026-01-04 01:25:03.06	341.90	18.61	-49.3	-52.6	15.9	4.95e-05	0	41	0	267386880	70	5167
2026-01-04 01:25:06.74	341.17	18.87	-48.9	-51.9	16.8	0.00e+00	0	41	0	274726912	69	5050
2026-01-04 01:25:09.46	340.62	19.05	-49.1	-51.9	17.0	0.00e+00	0	41	0	279969792	69	5066
2026-01-04 01:25:12.75	339.94	19.27	-49.3	-52.4	16.6	3.80e-06	0	42	0	286261248	69	5355
2026-01-04 01:25:15.47	339.38	19.46	-48.3	-51.5	17.1	0.00e+00	0	41	0	291504128	68	5106
2026-01-04 01:25:18.77	338.68	19.68	-47.6	-50.3	17.9	0.00e+00	0	41	0	297795584	66	5032
2026-01-04 01:25:21.51	338.10	19.86	-47.9	-50.6	17.9	0.00e+00	0	41	0	301989888	66	5210
2026-01-04 01:25:24.87	337.37	20.07	-47.2	-50.0	18.2	0.00e+00	0	41	0	308281344	66	4869
2026-01-04 01:25:27.59	336.78	20.25	-47.0	-49.8	18.4	0.00e+00	0	41	0	313524224	65	5021
2026-01-04 01:25:31.04	336.01	20.47	-47.4	-50.1	18.0	0.00e+00	0	41	0	320864256	65	5208
2026-01-04 01:25:34.05	335.33	20.66	-47.5	-50.3	18.0	0.00e+00	0	41	0	326107136	66	4984
2026-01-04 01:25:37.05	334.65	20.84	-47.2	-49.8	18.5	0.00e+00	0	41	0	331350016	66	4731
2026-01-04 01:25:40.06	333.96	21.02	-47.0	-49.5	18.7	0.00e+00	0	41	0	337641472	65	4852
2026-01-04 01:25:43.07	333.26	21.20	-47.1	-49.7	18.5	0.00e+00	0	41	0	342884352	65	4949
2026-01-04 01:25:46.07	332.55	21.37	-46.8	-49.2	19.0	0.00e+00	0	41	0	348127232	65	4691
2026-01-04 01:25:49.08	331.83	21.55	-46.5	-48.9	19.2	0.00e+00	0	41	0	354418688	64	4813
2026-01-04 01:25:52.20	331.08	21.72	-46.8	-49.4	18.8	0.00e+00	0	41	0	359661568	64	5059
2026-01-04 01:25:55.07	330.38	21.88	-46.7	-49.2	18.8	0.00e+00	0	41	0	364904448	64	4983
2026-01-04 01:25:58.21	329.60	22.04	-46.6	-49.0	19.1	0.00e+00	0	41	0	371195904	64	4820
2026-01-04 01:26:01.08	328.89	22.19	-47.0	-49.4	18.9	0.00e+00	0	41	0	376438784	64	5082
2026-01-04 01:26:04.23	328.10	22.35	-46.8	-49.2	18.9	0.00e+00	0	41	0	382730240	64	4970
2026-01-04 01:26:07.10	327.37	22.49	-46.4	-48.8	19.2	0.00e+00	0	41	0	387973120	64	4731
2026-01-04 01:26:10.25	326.56	22.64	-46.8	-49.4	18.9	0.00e+00	0	41	0	394264576	64	5044
2026-01-04 01:26:13.12	325.82	22.77	-47.2	-49.9	18.6	1.50e-06	0	41	0	399507456	65	5070
2026-01-04 01:26:16.27	324.99	22.91	-46.7	-49.1	19.2	0.00e+00	0	41	0	404750336	65	4602
2026-01-04 01:26:19.13	324.24	23.03	-47.2	-49.6	19.0	3.00e-06	0	41	0	411041792	65	4871
2026-01-04 01:26:22.65	323.31	23.17	-47.5	-49.9	18.6	0.00e+00	0	41	0	417333248	65	5097
2026-01-04 01:26:25.37	322.58	23.27	-46.4	-48.7	19.4	0.00e+00	0	41	0	422576128	64	4699
2026-01-04 01:26:28.79	321.66	23.40	-46.0	-48.3	19.8	2.20e-06	0	41	0	428867584	63	4709
2026-01-04 01:26:31.51	320.92	23.49	-46.9	-49.3	18.9	2.20e-06	0	41	0	434110464	64	5013
2026-01-04 01:26:34.81	320.01	23.60	-47.2	-49.7	18.4	0.00e+00	0	41	0	440401920	65	4959
2026-01-04 01:26:37.53	319.27	23.68	-47.9	-50.7	17.7	1.50e-06	0	41	0	444596224	66	5222
2026-01-04 01:26:40.83	318.35	23.78	-48.8	-52.0	16.5	1.50e-06	0	41	0	450887680	68	5418
2026-01-04 01:26:43.55	317.60	23.85	-48.5	-51.5	17.0	0.00e+00	0	41	0	456130560	68	5124
2026-01-04 01:26:46.84	316.68	23.93	-47.6	-50.3	17.9	0.00e+00	0	41	0	462422016	67	4723
2026-01-04 01:26:49.85	315.83	23.99	-47.4	-50.0	18.1	0.00e+00	0	41	0	467664896	66	4857
2026-01-04 01:26:53.14	314.90	24.06	-47.7	-50.4	17.8	0.00e+00	0	41	0	473956352	66	5049
2026-01-04 01:26:55.97	314.10	24.11	-47.9	-50.7	17.4	0.00e+00	0	41	0	479199232	66	5222
2026-01-04 01:26:59.12	313.21	24.16	-48.0	-50.8	17.4	0.00e+00	0	41	0	485490688	66	5290
2026-01-04 01:27:01.99	312.39	24.19	-48.5	-51.6	16.6	0.00e+00	0	41	0	490733568	67	5498
2026-01-04 01:27:05.13	311.49	24.23	-49.0	-52.3	16.2	0.00e+00	0	41	0	497025024	68	5605
2026-01-04 01:27:08.50	310.53	24.25	-48.8	-51.7	16.9	0.00e+00	0	41	0	503316480	68	5275
2026-01-04 01:27:11.22	309.75	24.27	-49.5	-52.7	16.0	0.00e+00	0	41	0	508559360	69	5547
2026-01-04 01:27:14.73	308.74	24.28	-49.2	-52.2	16.5	7.00e-07	0	41	0	514850816	69	5266
2026-01-04 01:27:17.46	307.96	24.28	-48.9	-51.8	16.9	0.00e+00	0	41	0	520093696	69	5004
2026-01-04 01:27:20.74	307.02	24.28	-47.6	-50.2	18.0	0.00e+00	0	41	0	526385152	67	4690
2026-01-04 01:27:23.46	306.24	24.27	-47.9	-50.6	17.6	7.00e-07	0	41	0	530579456	67	4901
2026-01-04 01:27:26.76	305.29	24.25	-48.2	-51.1	17.1	1.60e-05	0	41	0	536870912	67	5203
2026-01-04 01:27:29.70	304.45	24.22	-49.1	-52.0	16.8	0.00e+00	0	41	0	543162368	68	5450
2026-01-04 01:27:33.00	303.51	24.19	-48.8	-51.6	17.4	0.00e+00	0	41	0	549453824	68	5171
2026-01-04 01:27:35.72	302.74	24.15	-48.5	-51.0	18.0	0.00e+00	0	41	0	553648128	68	4868
2026-01-04 01:27:39.14	301.76	24.10	-47.4	-49.8	18.4	3.00e-06	0	41	0	560988160	66	4755
2026-01-04 01:27:42.18	300.90	24.04	-47.5	-50.1	18.2	0.00e+00	0	41	0	566231040	66	4871
2026-01-04 01:27:45.19	300.05	23.98	-47.2	-49.5	18.7	0.00e+00	0	41	0	571473920	66	4581
2026-01-04 01:27:48.20	299.21	23.92	-46.7	-49.0	19.1	0.00e+00	0	41	0	577765376	65	4558
2026-01-04 01:27:51.17	298.38	23.84	-46.6	-48.8	19.4	0.00e+00	0	41	0	583008256	65	4446
2026-01-04 01:27:54.31	297.50	23.76	-45.9	-48.0	20.2	0.00e+00	0	41	0	589299712	63	4553
2026-01-04 01:27:57.18	296.71	23.68	-46.4	-48.5	19.7	0.00e+00	0	41	0	594542592	63	4842
2026-01-04 01:28:00.33	295.84	23.58	-46.7	-48.9	19.3	7.00e-07	0	41	0	599785472	64	4773
2026-01-04 01:28:03.20	295.06	23.49	-46.8	-49.0	19.2	0.00e+00	0	41	0	606076928	64	4859
2026-01-04 01:28:06.68	294.11	23.36	-47.0	-49.3	18.9	0.00e+00	0	41	0	612368384	64	5017
2026-01-04 01:28:09.72	293.29	23.25	-47.0	-49.2	19.0	0.00e+00	0	41	0	617611264	65	4671
2026-01-04 01:28:13.02	292.41	23.12	-48.0	-50.4	18.0	0.00e+00	0	41	0	623902720	66	5100
2026-01-04 01:28:16.00	291.62	23.00	-47.4	-49.7	18.6	7.00e-07	0	41	0	629145600	66	4662
2026-01-04 01:28:19.01	290.82	22.87	-47.6	-49.9	18.4	0.00e+00	0	41	0	635437056	66	4806
2026-01-04 01:28:22.02	290.04	22.74	-48.0	-50.5	17.8	0.00e+00	0	41	0	640679936	66	5113
2026-01-04 01:28:25.02	289.26	22.60	-48.2	-50.8	17.5	0.00e+00	0	41	0	646971392	67	5005
2026-01-04 01:28:28.03	288.49	22.46	-49.2	-51.9	16.8	0.00e+00	0	41	0	652214272	69	5094
2026-01-04 01:28:31.04	287.72	22.31	-48.9	-51.6	17.0	0.00e+00	0	41	0	657457152	69	4883
2026-01-04 01:28:34.04	286.97	22.16	-48.5	-51.0	17.5	0.00e+00	0	41	0	663748608	68	4861
2026-01-04 01:28:37.05	286.22	22.00	-48.7	-51.4	17.2	0.00e+00	0	41	0	668991488	68	5077
2026-01-04 01:28:40.05	285.48	21.84	-49.1	-51.9	16.7	0.00e+00	0	41	0	674234368	68	5394
2026-01-04 01:28:43.06	284.74	21.67	-48.4	-51.0	17.5	0.00e+00	0	41	0	680525824	68	4849
2026-01-04 01:28:46.07	284.02	21.51	-48.6	-51.2	17.3	0.00e+00	0	41	0	685768704	68	4970
2026-01-04 01:28:49.09	283.29	21.33	-48.2	-50.8	17.7	0.00e+00	0	41	0	692060160	68	4720
2026-01-04 01:28:52.10	282.58	21.16	-49.0	-51.9	16.7	0.00e+00	0	41	0	697303040	68	5356
2026-01-04 01:28:55.23	281.85	20.97	-49.2	-52.1	16.4	0.00e+00	0	41	0	703594496	69	5189
2026-01-04 01:28:58.24	281.16	20.79	-48.8	-51.5	17.0	0.00e+00	0	41	0	708837376	69	4830
2026-01-04 01:29:01.25	280.47	20.60	-49.2	-52.1	16.4	0.00e+00	0	41	0	714080256	69	5163
2026-01-04 01:29:04.26	279.80	20.41	-50.0	-53.2	15.3	0.00e+00	0	41	0	720371712	70	5577
2026-01-04 01:29:07.47	279.08	20.21	-49.2	-52.1	16.4	0.00e+00	0	41	0	726663168	70	4897
2026-01-04 01:29:10.34	278.45	20.02	-48.6	-51.3	17.2	0.00e+00	0	41	0	731906048	69	4715
2026-01-04 01:29:13.50	277.77	19.82	-47.8	-50.4	17.9	0.00e+00	0	41	0	737148928	67	4776
2026-01-04 01:29:16.36	277.16	19.63	-47.5	-49.9	18.2	0.00e+00	0	41	0	742391808	67	4540
2026-01-04 01:29:19.52	276.49	19.41	-47.0	-49.2	18.7	0.00e+00	0	41	0	748683264	65	4693
2026-01-04 01:29:22.37	275.90	19.22	-46.5	-48.6	19.3	0.00e+00	0	41	0	753926144	65	4384
2026-01-04 01:29:25.67	275.22	19.00	-46.7	-48.9	19.1	0.00e+00	0	41	0	760217600	64	4809
2026-01-04 01:29:28.56	274.63	18.80	-47.8	-50.2	18.0	0.00e+00	0	41	0	765460480	66	4964
2026-01-04 01:29:31.71	274.01	18.58	-48.3	-51.0	17.2	0.00e+00	0	41	0	771751936	67	5144
2026-01-04 01:29:34.58	273.44	18.38	-48.8	-51.7	16.8	0.00e+00	0	41	0	776994816	68	5240
2026-01-04 01:29:37.73	272.83	18.16	-48.5	-51.2	17.3	0.00e+00	0	41	0	783286272	68	4929
2026-01-04 01:29:40.59	272.28	17.96	-48.1	-50.7	17.7	0.00e+00	0	41	0	788529152	68	4655
2026-01-04 01:29:44.10	271.62	17.71	-47.4	-49.7	18.5	0.00e+00	0	41	0	794820608	66	4678
2026-01-04 01:29:46.83	271.11	17.52	-47.5	-49.9	18.2	0.00e+00	0	41	0	800063488	66	4785
2026-01-04 01:29:50.13	270.51	17.28	-48.4	-51.0	17.2	0.00e+00	0	41	0	806354944	67	5158
2026-01-04 01:29:53.18	269.96	17.06	-47.9	-50.4	17.8	0.00e+00	0	41	0	811597824	67	4808
2026-01-04 01:29:56.17	269.42	16.85	-47.9	-50.5	17.7	0.00e+00	0	41	0	817889280	67	4855
2026-01-04 01:29:59.32	268.87	16.62	-48.2	-50.8	17.4	0.00e+00	0	41	0	823132160	67	5024
2026-01-04 01:30:02.19	268.38	16.41	-48.1	-50.8	17.5	0.00e+00	0	41	0	828375040	67	4988
2026-01-04 01:30:05.41	267.83	16.18	-47.7	-50.2	18.0	0.00e+00	0	41	0	834666496	67	4672
2026-01-04 01:30:08.27	267.35	15.97	-47.2	-49.5	18.5	0.00e+00	0	41	0	839909376	66	4592
2026-01-04 01:30:11.63	266.79	15.72	-47.3	-49.6	18.4	0.00e+00	0	41	0	846200832	66	4644
2026-01-04 01:30:14.35	266.35	15.53	-47.5	-49.9	18.2	0.00e+00	0	41	0	851443712	66	4798
2026-01-04 01:30:17.64	265.82	15.29	-46.9	-49.2	18.9	0.00e+00	0	41	0	857735168	65	4674
2026-01-04 01:30:20.65	265.35	15.07	-47.2	-49.5	18.7	0.00e+00	0	41	0	862978048	65	4860
2026-01-04 01:30:23.66	264.88	14.85	-47.0	-49.3	18.7	0.00e+00	0	41	0	869269504	65	4753
2026-01-04 01:30:26.67	264.42	14.63	-47.2	-49.6	18.4	0.00e+00	0	41	0	874512384	65	4900
2026-01-04 01:30:29.68	263.96	14.41	-47.5	-50.0	18.1	0.00e+00	0	41	0	880803840	65	5103
2026-01-04 01:30:32.67	263.52	14.19	-47.4	-49.9	18.2	0.00e+00	0	41	0	886046720	65	5057
2026-01-04 01:30:36.04	263.03	13.95	-46.9	-49.2	18.8	0.00e+00	0	41	0	892338176	65	4655
2026-01-04 01:30:38.98	262.60	13.73	-47.1	-49.5	18.5	0.00e+00	0	41	0	897581056	65	4836
2026-01-04 01:30:42.28	262.14	13.49	-47.8	-50.4	17.7	0.00e+00	0	41	0	903872512	66	5059
2026-01-04 01:30:45.00	261.75	13.30	-48.0	-50.7	17.5	0.00e+00	0	41	0	909115392	67	4933
2026-01-04 01:30:48.29	261.30	13.06	-48.0	-50.6	17.5	0.00e+00	0	41	0	915406848	67	4900
2026-01-04 01:30:51.01	260.93	12.86	-48.0	-50.5	17.6	0.00e+00	0	41	0	920649728	67	4866
2026-01-04 01:30:54.31	260.49	12.63	-47.4	-49.9	18.2	0.00e+00	0	41	0	926941184	66	4794
2026-01-04 01:30:57.02	260.13	12.43	-47.5	-50.0	18.1	0.00e+00	0	41	0	931135488	66	4848
2026-01-04 01:31:00.31	259.71	12.20	-47.5	-50.0	18.1	0.00e+00	0	41	0	937426944	66	4824
2026-01-04 01:31:03.03	259.36	12.00	-48.2	-51.0	17.1	0.00e+00	0	41	0	942669824	67	5130
2026-01-04 01:31:06.24	258.96	11.78	-48.5	-51.4	16.7	0.00e+00	0	41	0	948961280	67	5370
2026-01-04 01:31:09.24	258.58	11.56	-48.1	-50.8	17.2	0.00e+00	0	41	0	954204160	67	5038
2026-01-04 01:31:12.25	258.21	11.35	-47.8	-50.4	17.7	0.00e+00	0	41	0	960495616	67	4776
2026-01-04 01:31:15.32	257.84	11.14	-47.9	-50.5	17.5	0.00e+00	0	41	0	965738496	67	4869
2026-01-04 01:31:18.17	257.51	10.94	-48.0	-50.7	17.3	0.00e+00	0	41	0	970981376	67	4960
2026-01-04 01:31:21.33	257.14	10.72	-48.1	-50.8	17.1	0.00e+00	0	41	0	977272832	67	5032
2026-01-04 01:31:24.19	256.81	10.52	-48.2	-50.9	17.1	0.00e+00	0	41	0	982515712	67	5099
2026-01-04 01:31:27.42	256.44	10.29	-48.5	-51.3	16.7	0.00e+00	0	41	0	988807168	67	5317
2026-01-04 01:31:30.28	256.12	10.09	-49.0	-51.9	16.4	0.00e+00	0	41	0	994050048	68	5383
2026-01-04 01:31:33.62	255.75	9.86	-48.6	-51.5	16.7	0.00e+00	0	41	0	1000341504	68	5155
2026-01-04 01:31:36.39	255.45	9.67	-48.8	-51.8	16.4	0.00e+00	0	41	0	1005584384	68	5333
2026-01-04 01:31:39.68	255.10	9.45	-49.4	-52.7	15.6	0.00e+00	0	41	0	1011875840	69	5549
2026-01-04 01:31:42.53	254.80	9.26	-49.7	-53.2	15.0	0.00e+00	0	41	0	1017118720	70	5545
2026-01-04 01:31:45.68	254.47	9.04	-49.7	-53.2	15.0	0.00e+00	0	41	0	1022361600	70	5548
2026-01-04 01:31:48.54	254.17	8.85	-54.3	-69.7	3.8	1.49e+00	0	41	104	1024458752	79	22169
2026-01-04 01:31:51.70	253.85	8.64	-54.7	-69.9	3.8	1.49e+00	0	41	104	1024458752	80	21378
2026-01-04 01:31:54.57	253.57	8.45	-54.9	-70.0	3.8	1.49e+00	0	41	104	1024458752	80	21636
2026-01-04 01:31:57.72	253.26	8.24	-54.9	-70.0	3.8	1.49e+00	0	41	104	1024458752	80	21535
2026-01-04 01:32:00.59	252.98	8.05	-54.9	-70.1	3.8	1.49e+00	0	41	104	1024458752	80	21851
2026-01-04 01:32:03.75	252.68	7.84	-54.9	-70.0	3.8	1.49e+00	0	41	104	1024458752	80	21632
2026-01-04 01:32:06.62	252.41	7.65	-54.9	-70.0	3.8	1.49e+00	0	41	104	1024458752	80	21748
2026-01-04 01:32:09.77	252.11	7.44	-54.7	-70.0	3.8	1.49e+00	0	41	104	1024458752	80	21668
2026-01-04 01:32:12.64	251.85	7.26	-54.6	-69.9	3.8	1.49e+00	0	41	104	1024458752	80	21485
2026-01-04 01:32:15.80	251.56	7.05	-54.6	-70.0	3.8	1.49e+00	0	41	104	1024458752	80	21536
2026-01-04 01:32:18.66	251.31	6.87	-54.6	-69.9	3.8	1.49e+00	0	41	104	1024458752	80	21438
2026-01-04 01:32:21.82	251.03	6.66	-54.6	-70.0	3.8	1.49e+00	0	41	104	1024458752	80	21518
2026-01-04 01:32:24.69	250.78	6.48	-54.7	-70.0	3.8	1.49e+00	0	41	104	1024458752	80	21735
2026-01-04 01:32:27.85	250.51	6.28	-54.6	-70.0	3.8	1.49e+00	0	41	104	1024458752	80	21583
2026-01-04 01:32:30.72	250.27	6.10	-54.7	-70.0	3.8	1.49e+00	0	41	104	1024458752	80	21688
2026-01-04 01:32:33.87	250.00	5.90	-54.6	-69.9	3.8	1.49e+00	0	41	104	1024458752	80	21458
2026-01-04 01:32:36.74	249.77	5.72	-54.6	-69.9	3.8	1.49e+00	0	41	104	1024458752	80	21432
2026-01-04 01:32:39.90	249.51	5.52	-54.6	-69.9	3.8	1.49e+00	0	41	104	1024458752	80	21449
2026-01-04 01:32:42.76	249.28	5.34	-54.6	-69.9	3.8	1.49e+00	0	41	104	1024458752	80	21422
2026-01-04 01:32:45.92	249.03	5.15	-54.6	-69.9	3.8	1.49e+00	0	41	104	1024458752	80	21446
2026-01-04 01:32:48.79	248.81	4.97	-54.6	-69.9	3.8	1.49e+00	0	41	104	1024458752	80	21470

#Closed at: 2026-01-04 01:32:49
#Recorded file [1024 MB]: D:/Data/31040_260104_042145.dat