passes_logs/2026/01/04/T1/T1__20260104_112852_AQUA_rec.log

#Pass ID: 20260104_112852_AQUA
#Satellite: AQUA
#Configuration: AQUA
#almurnet v.1.7.20251203
#Start time: 2026-01-04 11:28:55

#Version: 2.0.20230620
#Station: T1
#Location: 37.570604 lon 55.790049 lat
#TLE: 1 27424U 02022A   26003.93831471  .00001925  00000+0  39553-3 0  9996
#TLE: 2 27424  98.4067 330.1809 0002002  92.1714 343.8415 14.61796291259276

#Time	Az	El	Level	Level2	SNR	BER	BlckErr	Temp	State	Recorded	gain1	gain2
2026-01-04 11:28:55.26	155.18	5.18	-55.4	-75.8	3.8	7.47e-01	0	40	0	0	82	37598
2026-01-04 11:28:58.27	155.15	5.40	-55.3	-74.6	3.8	7.47e-01	0	41	104	0	81	34846
2026-01-04 11:29:01.28	155.12	5.64	-55.3	-75.6	3.8	7.46e-01	0	41	104	0	81	38944
2026-01-04 11:29:04.30	155.08	5.87	-55.3	-74.8	3.8	7.43e-01	0	41	104	0	81	35439
2026-01-04 11:29:07.31	155.05	6.11	-55.3	-71.7	4.6	7.21e-01	0	41	104	0	81	24723
2026-01-04 11:29:10.32	155.01	6.34	-55.2	-70.2	5.3	6.99e-01	0	41	104	0	81	20968
2026-01-04 11:29:13.33	154.98	6.59	-55.3	-71.9	3.9	7.40e-01	0	41	104	0	81	25512
2026-01-04 11:29:16.35	154.94	6.83	-55.3	-74.3	3.8	7.46e-01	0	41	104	0	81	33648
2026-01-04 11:29:19.36	154.90	7.08	-55.3	-71.6	4.4	7.22e-01	0	42	104	0	81	24570
2026-01-04 11:29:22.37	154.87	7.32	-55.1	-68.0	7.0	6.63e-01	0	42	0	2621440	81	16222
2026-01-04 11:29:25.38	154.83	7.58	-54.7	-64.7	10.3	6.25e-01	0	42	0	8388608	81	11084
2026-01-04 11:29:28.40	154.79	7.83	-54.1	-61.5	13.8	6.08e-01	0	42	0	13631488	80	8093
2026-01-04 11:29:31.41	154.74	8.09	-53.6	-59.6	15.7	6.09e-01	0	42	0	19398656	79	6942
2026-01-04 11:29:34.42	154.70	8.35	-53.5	-59.5	15.9	6.08e-01	0	42	0	25165824	78	7215
2026-01-04 11:29:37.43	154.66	8.61	-54.1	-61.1	14.3	6.07e-01	0	42	0	30932992	78	8746
2026-01-04 11:29:40.45	154.61	8.88	-54.8	-64.6	10.7	6.21e-01	0	42	0	36700160	80	11594
2026-01-04 11:29:43.57	154.57	9.16	-53.3	-58.5	17.2	6.07e-01	0	42	0	42467328	77	6876
2026-01-04 11:29:46.43	154.52	9.42	-54.7	-62.3	12.4	6.11e-01	0	42	0	46137344	81	8443
2026-01-04 11:29:49.59	154.47	9.71	-51.5	-55.1	20.3	6.08e-01	0	42	0	51904512	75	5181
2026-01-04 11:29:52.76	154.42	10.00	-51.1	-54.4	20.9	6.07e-01	0	42	0	58195968	73	5360
2026-01-04 11:29:55.90	154.37	10.30	-50.4	-53.5	21.8	6.06e-01	0	42	0	63963136	72	5142
2026-01-04 11:29:58.77	154.32	10.57	-49.9	-52.9	21.0	6.07e-01	0	42	0	69206016	71	5061
2026-01-04 11:30:01.92	154.27	10.87	-49.6	-52.5	22.7	6.08e-01	0	42	0	74973184	71	4835
2026-01-04 11:30:04.79	154.22	11.16	-49.5	-52.5	22.8	6.08e-01	0	42	0	80740352	71	4821
2026-01-04 11:30:07.93	154.16	11.47	-49.5	-52.4	23.0	6.07e-01	0	43	0	86507520	70	5093
2026-01-04 11:30:10.80	154.11	11.76	-49.7	-52.6	23.0	6.06e-01	0	42	0	91750400	70	5199
2026-01-04 11:30:13.95	154.05	12.08	-49.5	-52.4	23.1	6.06e-01	0	42	0	97517568	70	5053
2026-01-04 11:30:16.84	153.99	12.38	-49.2	-52.0	23.4	6.05e-01	0	42	0	103284736	70	4862
2026-01-04 11:30:20.03	153.92	12.71	-49.3	-52.1	23.3	6.04e-01	0	43	0	109051904	70	4891
2026-01-04 11:30:22.89	153.86	13.01	-49.2	-51.9	23.5	6.07e-01	0	43	0	114294784	70	4802
2026-01-04 11:30:26.04	153.80	13.35	-49.0	-51.7	23.7	6.07e-01	0	42	0	120586240	69	4966
2026-01-04 11:30:29.21	153.73	13.70	-49.0	-51.7	23.5	6.06e-01	0	43	0	126353408	69	4976
2026-01-04 11:30:32.08	153.66	14.02	-48.7	-51.5	23.6	6.07e-01	0	43	0	131596288	69	4821
2026-01-04 11:30:35.23	153.59	14.38	-48.9	-51.7	23.6	6.08e-01	0	42	0	137887744	69	4929
2026-01-04 11:30:38.17	153.52	14.72	-49.1	-51.8	23.6	6.06e-01	0	42	0	143130624	68	5286
2026-01-04 11:30:41.48	153.44	15.10	-48.7	-51.4	23.6	6.05e-01	0	43	0	149422080	68	5062
2026-01-04 11:30:44.34	153.37	15.44	-48.7	-51.3	23.8	6.09e-01	0	42	0	154664960	68	5026
2026-01-04 11:30:47.64	153.28	15.84	-48.7	-51.4	23.7	6.08e-01	0	42	0	160956416	68	5081
2026-01-04 11:30:50.35	153.21	16.17	-48.7	-51.3	23.8	6.05e-01	0	43	0	166199296	68	5017
2026-01-04 11:30:53.62	153.12	16.58	-48.7	-51.3	23.8	6.06e-01	0	43	0	171966464	68	5035
2026-01-04 11:30:56.72	153.03	16.97	-48.8	-51.4	23.7	6.06e-01	0	43	0	177733632	68	5090
2026-01-04 11:30:59.58	152.95	17.34	-48.7	-51.4	23.8	6.07e-01	0	42	0	183500800	68	5055
2026-01-04 11:31:02.73	152.85	17.76	-48.8	-51.4	23.7	6.08e-01	0	42	0	189267968	68	5069
2026-01-04 11:31:05.59	152.76	18.14	-48.8	-51.3	23.8	6.07e-01	0	43	0	194510848	68	5037
2026-01-04 11:31:09.16	152.65	18.63	-48.8	-51.3	23.8	6.07e-01	0	43	0	201326592	68	5013
2026-01-04 11:31:11.94	152.56	19.01	-48.8	-51.3	23.8	6.07e-01	0	43	0	206569472	68	5041
2026-01-04 11:31:15.23	152.44	19.48	-48.9	-51.5	23.6	6.08e-01	0	43	0	212860928	68	5127
2026-01-04 11:31:17.95	152.35	19.87	-48.9	-51.5	23.6	6.07e-01	0	43	0	217579520	68	5135
2026-01-04 11:31:21.25	152.23	20.36	-49.0	-51.6	23.6	6.05e-01	0	43	0	223870976	68	5188
2026-01-04 11:31:24.25	152.11	20.81	-48.9	-51.5	23.6	6.07e-01	0	43	0	229638144	68	5142
2026-01-04 11:31:27.75	151.98	21.34	-48.8	-51.3	23.9	6.07e-01	0	43	0	235929600	68	5030
2026-01-04 11:31:30.47	151.87	21.77	-48.9	-51.5	23.7	6.06e-01	0	43	0	241172480	68	5125
2026-01-04 11:31:33.76	151.73	22.29	-48.9	-51.6	23.7	6.06e-01	0	43	0	247463936	68	5160
2026-01-04 11:31:36.48	151.61	22.74	-48.9	-51.5	23.7	6.05e-01	0	43	0	252706816	68	5128
2026-01-04 11:31:40.11	151.45	23.34	-49.1	-51.8	23.5	6.07e-01	0	42	0	258998272	68	5286
2026-01-04 11:31:42.83	151.32	23.80	-49.3	-52.0	23.3	6.07e-01	0	43	0	264241152	69	5105
2026-01-04 11:31:46.11	151.16	24.37	-49.0	-51.8	23.4	6.07e-01	0	43	0	270532608	69	4987
2026-01-04 11:31:49.20	151.00	24.92	-48.9	-51.6	23.6	6.05e-01	0	43	0	276299776	69	4912
2026-01-04 11:31:52.23	150.84	25.48	-49.1	-51.9	23.4	6.09e-01	0	43	0	282066944	69	5048
2026-01-04 11:31:55.24	150.68	26.03	-48.9	-51.8	23.4	6.07e-01	0	43	0	287834112	69	5024
2026-01-04 11:31:58.24	150.51	26.60	-48.9	-51.8	23.5	6.05e-01	0	43	0	293076992	69	4994
2026-01-04 11:32:01.24	150.33	27.19	-48.5	-51.3	24.0	6.07e-01	0	43	0	298844160	68	4988
2026-01-04 11:32:04.36	150.14	27.81	-48.3	-51.0	24.2	6.05e-01	0	43	0	304611328	68	4826
2026-01-04 11:32:07.26	149.95	28.40	-48.5	-51.2	24.0	6.09e-01	0	43	0	310378496	68	4938
2026-01-04 11:32:10.63	149.73	29.10	-48.4	-50.9	24.1	6.09e-01	0	43	0	316669952	68	4806
2026-01-04 11:32:13.33	149.54	29.68	-48.3	-50.8	24.3	6.08e-01	0	43	0	321388544	68	4754
2026-01-04 11:32:16.62	149.30	30.40	-48.2	-50.7	24.5	6.07e-01	0	43	0	327680000	68	4660
2026-01-04 11:32:19.34	149.09	31.01	-48.4	-51.0	24.3	6.05e-01	0	43	0	332922880	68	4816
2026-01-04 11:32:22.98	148.80	31.85	-48.7	-51.1	24.1	6.04e-01	0	43	0	339738624	68	4908
2026-01-04 11:32:25.69	148.57	32.48	-48.5	-51.1	24.1	6.06e-01	0	43	0	344981504	68	4873
2026-01-04 11:32:28.97	148.29	33.28	-48.8	-51.3	24.0	6.08e-01	0	43	0	350748672	68	5014
2026-01-04 11:32:31.80	148.03	33.98	-49.0	-51.5	23.7	6.07e-01	0	43	0	355991552	68	5144
2026-01-04 11:32:35.23	147.69	34.85	-49.2	-51.9	23.4	6.05e-01	0	43	0	362807296	69	5050
2026-01-04 11:32:37.95	147.41	35.56	-49.4	-52.1	23.3	6.08e-01	0	43	0	367525888	69	5161
2026-01-04 11:32:41.24	147.06	36.44	-50.1	-52.9	22.4	6.08e-01	0	43	0	373817344	71	5096
2026-01-04 11:32:43.95	146.75	37.19	-50.1	-52.9	22.6	6.05e-01	0	43	0	379060224	71	5051
2026-01-04 11:32:47.24	146.36	38.11	-50.8	-53.9	21.5	6.06e-01	0	43	0	385351680	72	5376
2026-01-04 11:32:49.97	146.01	38.90	-50.3	-53.2	22.1	6.07e-01	0	43	0	390070272	72	4953
2026-01-04 11:32:53.25	145.58	39.87	-50.6	-53.6	21.8	6.06e-01	0	43	0	396361728	72	5194
2026-01-04 11:32:55.97	145.19	40.70	-50.0	-52.8	22.5	6.08e-01	0	43	0	401604608	72	4743
2026-01-04 11:32:59.26	144.70	41.72	-49.6	-52.3	23.0	6.08e-01	0	43	0	407896064	71	4747
2026-01-04 11:33:02.16	144.23	42.65	-49.6	-52.2	23.1	6.07e-01	0	43	0	413138944	71	4690
2026-01-04 11:33:05.84	143.60	43.85	-49.2	-52.0	23.3	6.05e-01	0	43	0	419954688	70	4822
2026-01-04 11:33:08.62	143.09	44.79	-48.9	-51.4	23.8	6.08e-01	0	43	0	425197568	69	4783
2026-01-04 11:33:12.55	142.32	46.15	-49.0	-51.6	23.7	6.07e-01	0	43	0	432537600	69	4873
2026-01-04 11:33:15.32	141.73	47.13	-48.9	-51.4	23.8	6.07e-01	0	43	0	437780480	69	4812
2026-01-04 11:33:19.23	140.82	48.56	-49.2	-51.8	23.5	6.05e-01	0	43	0	445120512	69	5008
2026-01-04 11:33:22.02	140.12	49.60	-49.4	-52.1	23.3	6.08e-01	0	43	0	450363392	69	5191
2026-01-04 11:33:25.91	139.06	51.09	-48.9	-51.5	23.8	6.06e-01	0	43	0	457703424	69	4840
2026-01-04 11:33:28.92	138.16	52.26	-48.1	-50.5	24.6	6.06e-01	0	43	0	463470592	67	4841
2026-01-04 11:33:32.23	137.09	53.58	-48.0	-50.4	24.7	6.06e-01	0	43	0	469762048	67	4788
2026-01-04 11:33:34.95	136.13	54.68	-48.3	-50.7	24.3	6.07e-01	0	43	0	474480640	67	4962
2026-01-04 11:33:38.23	134.86	56.04	-48.8	-51.3	23.9	6.07e-01	0	43	0	480772096	68	5025
2026-01-04 11:33:40.98	133.69	57.18	-48.9	-51.6	23.6	6.08e-01	0	43	0	486014976	68	5216
2026-01-04 11:33:44.27	132.16	58.57	-49.1	-51.8	23.5	6.07e-01	0	43	0	492306432	69	5007
2026-01-04 11:33:46.98	130.78	59.73	-49.4	-52.1	23.1	6.06e-01	0	43	0	497025024	70	4889
2026-01-04 11:33:50.27	128.91	61.13	-50.0	-52.7	22.6	6.07e-01	0	43	0	503316480	71	4974
2026-01-04 11:33:53.03	127.18	62.32	-50.5	-53.4	22.0	6.07e-01	0	43	0	508559360	71	5380
2026-01-04 11:33:56.33	124.87	63.72	-51.2	-54.4	21.0	6.08e-01	0	43	0	514850816	72	5719
2026-01-04 11:33:59.04	122.75	64.87	-51.1	-54.5	20.9	6.07e-01	0	43	0	519569408	72	5770
2026-01-04 11:34:02.33	119.88	66.24	-51.6	-55.2	20.3	6.07e-01	0	43	0	525860864	73	5862
2026-01-04 11:34:05.06	117.20	67.34	-52.2	-55.9	19.6	6.07e-01	0	43	0	531103744	75	5671
2026-01-04 11:34:08.83	113.01	68.81	-52.5	-56.4	19.2	6.05e-01	0	43	0	537919488	75	6022
2026-01-04 11:34:11.61	109.50	69.83	-52.3	-56.0	19.5	6.05e-01	0	43	0	543162368	75	5727
2026-01-04 11:34:14.89	104.86	70.94	-51.4	-54.9	20.5	6.07e-01	0	43	0	549453824	74	5375
2026-01-04 11:34:17.61	100.57	71.78	-51.9	-55.4	20.1	6.08e-01	0	43	0	554696704	74	5711
2026-01-04 11:34:20.97	94.71	72.66	-51.7	-55.3	20.1	6.06e-01	0	43	0	560988160	74	5653
2026-01-04 11:34:23.77	89.37	73.26	-51.9	-55.9	19.6	6.08e-01	0	43	0	566231040	74	6013
2026-01-04 11:34:27.15	82.45	73.79	-51.4	-54.7	20.6	6.08e-01	0	43	0	572522496	74	5249
2026-01-04 11:34:29.86	76.61	74.04	-51.2	-54.4	21.0	6.08e-01	0	43	0	577765376	74	5079
2026-01-04 11:34:33.15	69.37	74.13	-52.2	-55.8	19.8	6.06e-01	0	43	0	583532544	74	5939
2026-01-04 11:34:35.94	63.24	74.01	-51.8	-55.2	20.3	6.05e-01	0	43	0	588775424	75	5279
2026-01-04 11:34:39.19	56.32	73.66	-52.0	-55.5	20.1	6.05e-01	0	43	0	595066880	75	5455
2026-01-04 11:34:42.05	50.55	73.17	-51.9	-55.4	20.0	6.09e-01	0	43	0	600309760	75	5388
2026-01-04 11:34:45.20	44.65	72.46	-51.9	-55.6	19.9	6.07e-01	0	43	0	606076928	75	5465
2026-01-04 11:34:48.06	39.76	71.68	-52.1	-55.7	19.9	6.06e-01	0	43	0	611844096	75	5541
2026-01-04 11:34:51.33	34.72	70.66	-52.7	-56.7	18.9	6.09e-01	0	43	0	617611264	76	5864
2026-01-04 11:34:54.06	30.94	69.72	-52.5	-56.2	19.3	6.08e-01	0	43	0	622854144	77	5237
2026-01-04 11:34:57.75	26.43	68.35	-52.8	-56.9	18.7	6.08e-01	0	43	0	629669888	77	5675
2026-01-04 11:35:00.48	23.48	67.27	-53.1	-57.5	18.0	6.08e-01	0	43	0	634912768	77	6123
2026-01-04 11:35:04.08	20.04	65.81	-53.2	-57.3	18.3	6.07e-01	0	43	0	641728512	77	5979
2026-01-04 11:35:06.80	17.73	64.68	-52.2	-55.9	19.6	6.05e-01	0	43	0	646971392	76	5368
2026-01-04 11:35:10.23	15.14	63.22	-50.7	-53.8	21.6	6.05e-01	0	43	0	653262848	73	5018
2026-01-04 11:35:12.94	13.31	62.07	-50.3	-53.2	22.2	6.05e-01	0	43	0	658505728	72	4933
2026-01-04 11:35:16.24	11.30	60.66	-50.2	-53.1	22.2	6.06e-01	0	43	0	664272896	72	4896
2026-01-04 11:35:18.97	9.80	59.50	-50.4	-53.2	22.2	6.08e-01	0	43	0	669515776	72	4966
2026-01-04 11:35:22.54	8.04	57.98	-49.6	-52.3	23.1	6.07e-01	0	43	0	676331520	71	4726
2026-01-04 11:35:25.46	6.74	56.76	-49.0	-51.6	23.8	6.08e-01	0	43	0	681574400	70	4609
2026-01-04 11:35:28.76	5.40	55.40	-48.2	-50.7	24.5	6.10e-01	0	43	0	687865856	68	4663
2026-01-04 11:35:31.48	4.39	54.29	-47.9	-50.3	24.8	6.06e-01	0	43	0	693108736	67	4721
2026-01-04 11:35:34.77	3.27	52.97	-48.4	-50.9	24.2	6.06e-01	0	43	0	699400192	67	5052
2026-01-04 11:35:37.83	2.32	51.76	-47.9	-50.3	24.8	6.07e-01	0	43	0	705167360	67	4713
2026-01-04 11:35:40.86	1.45	50.59	-48.5	-51.0	24.1	6.07e-01	0	43	0	710410240	67	5123
2026-01-04 11:35:43.87	0.65	49.46	-48.9	-51.6	23.6	6.07e-01	0	43	0	716177408	68	5182
2026-01-04 11:35:46.88	359.91	48.34	-48.5	-51.0	24.1	6.06e-01	0	43	0	721944576	68	4868
2026-01-04 11:35:49.90	359.22	47.25	-49.3	-52.0	23.4	6.06e-01	0	43	0	727711744	69	5113
2026-01-04 11:35:52.91	358.58	46.18	-48.8	-51.4	23.9	6.04e-01	0	43	0	733478912	69	4765
2026-01-04 11:35:55.92	357.98	45.14	-48.4	-51.2	24.1	6.04e-01	0	43	0	738721792	68	4936
2026-01-04 11:35:58.93	357.42	44.13	-49.0	-51.7	23.6	6.07e-01	0	43	0	744488960	68	5237
2026-01-04 11:36:01.98	356.89	43.12	-48.8	-51.3	23.9	6.09e-01	0	43	0	750256128	69	4750
2026-01-04 11:36:04.85	356.42	42.20	-49.2	-51.9	23.4	6.05e-01	0	43	0	755499008	69	5072
2026-01-04 11:36:08.00	355.93	41.21	-50.1	-53.0	22.4	6.07e-01	0	43	0	761790464	70	5410
2026-01-04 11:36:10.87	355.52	40.33	-50.2	-53.1	22.3	6.07e-01	0	43	0	767033344	71	5181
2026-01-04 11:36:14.02	355.09	39.39	-50.3	-53.2	22.2	6.06e-01	0	43	0	772800512	71	5260
2026-01-04 11:36:16.87	354.72	38.57	-50.0	-53.4	22.0	6.09e-01	0	43	0	778043392	71	5365
2026-01-04 11:36:20.17	354.32	37.63	-49.7	-52.9	22.4	6.06e-01	0	43	0	784334848	71	5092
2026-01-04 11:36:22.89	354.01	36.88	-50.0	-52.9	22.4	6.07e-01	0	43	0	789577728	71	5087
2026-01-04 11:36:26.11	353.65	36.01	-49.4	-52.2	23.0	6.08e-01	0	43	0	795344896	70	4945
2026-01-04 11:36:29.50	353.30	35.12	-49.1	-51.8	23.5	6.07e-01	0	43	0	801636352	70	4707
2026-01-04 11:36:32.30	353.03	34.41	-48.9	-51.7	23.5	6.06e-01	0	43	0	806879232	69	4971
2026-01-04 11:36:35.44	352.73	33.62	-48.2	-50.9	24.3	6.09e-01	0	43	0	813170688	68	4764
2026-01-04 11:36:38.31	352.48	32.93	-48.3	-50.8	24.3	6.08e-01	0	43	0	818413568	68	4750
2026-01-04 11:36:41.46	352.21	32.18	-48.3	-50.9	24.3	6.07e-01	0	43	0	824180736	68	4762
2026-01-04 11:36:44.33	351.98	31.51	-48.3	-50.8	24.3	6.07e-01	0	43	0	829947904	68	4719
2026-01-04 11:36:47.48	351.73	30.80	-48.2	-50.6	24.5	6.07e-01	0	43	0	835715072	68	4613
2026-01-04 11:36:50.35	351.52	30.17	-47.8	-50.3	24.7	6.06e-01	0	43	0	840957952	67	4707
2026-01-04 11:36:53.50	351.30	29.49	-48.0	-50.4	24.6	6.07e-01	0	43	0	846725120	67	4804
2026-01-04 11:36:56.36	351.10	28.89	-48.0	-50.5	24.5	6.06e-01	0	43	0	851968000	67	4824
2026-01-04 11:36:59.52	350.90	28.24	-48.2	-50.8	24.2	6.06e-01	0	43	0	858259456	67	5006
2026-01-04 11:37:02.38	350.72	27.67	-48.3	-50.9	24.1	6.07e-01	0	43	0	863502336	67	5044
2026-01-04 11:37:05.53	350.53	27.05	-48.6	-51.2	23.8	6.06e-01	0	43	0	869269504	67	5257
2026-01-04 11:37:08.40	350.37	26.50	-48.7	-51.4	23.8	6.02e-01	0	43	0	875036672	68	5083
2026-01-04 11:37:11.72	350.18	25.88	-48.8	-51.6	23.6	6.02e-01	0	43	0	881328128	68	5164
2026-01-04 11:37:14.59	350.03	25.35	-48.7	-51.4	23.7	6.03e-01	0	43	0	886571008	68	5092
2026-01-04 11:37:17.84	349.87	24.77	-48.8	-51.4	23.7	6.05e-01	0	43	0	892338176	68	5088
2026-01-04 11:37:20.74	349.72	24.26	-48.5	-51.6	23.5	6.02e-01	0	43	0	898105344	68	5194
2026-01-04 11:37:24.25	349.56	23.66	-48.5	-51.8	23.4	6.00e-01	0	43	0	904396800	68	5332
2026-01-04 11:37:26.97	349.43	23.20	-48.8	-51.8	23.3	6.03e-01	0	43	0	909639680	68	5337
2026-01-04 11:37:30.26	349.29	22.66	-49.2	-51.9	23.2	6.01e-01	0	43	0	915931136	69	5072
2026-01-04 11:37:32.98	349.18	22.22	-48.9	-51.7	23.4	6.03e-01	0	43	0	921174016	69	4937
2026-01-04 11:37:36.28	349.04	21.70	-48.8	-51.7	23.5	6.03e-01	0	43	0	926941184	69	4978
2026-01-04 11:37:39.00	348.93	21.28	-48.8	-51.7	23.5	6.04e-01	0	43	0	932184064	69	4928
2026-01-04 11:37:42.30	348.81	20.78	-49.0	-51.6	23.7	6.03e-01	0	43	0	938475520	69	4899
2026-01-04 11:37:45.08	348.71	20.37	-49.0	-51.7	23.6	6.02e-01	0	43	0	943718400	69	4976
2026-01-04 11:37:48.58	348.58	19.86	-49.0	-51.9	23.4	5.98e-01	0	43	0	950009856	69	5064
2026-01-04 11:37:51.31	348.49	19.47	-48.9	-51.8	23.5	6.01e-01	0	43	0	955252736	69	5013
2026-01-04 11:37:54.60	348.38	19.01	-48.8	-51.8	23.5	6.00e-01	0	43	0	961544192	69	4993
2026-01-04 11:37:57.47	348.29	18.61	-48.4	-51.6	23.7	6.02e-01	0	43	0	966787072	68	5166
2026-01-04 11:38:00.59	348.19	18.19	-48.0	-51.6	23.6	6.03e-01	0	43	0	972554240	68	5188
2026-01-04 11:38:04.10	348.09	17.73	-47.7	-51.5	23.7	6.00e-01	0	43	0	979369984	67	5443
2026-01-04 11:38:06.91	348.00	17.36	-47.9	-51.7	23.4	6.00e-01	0	43	0	984612864	67	5545
2026-01-04 11:38:10.01	347.92	16.96	-48.4	-51.8	23.4	6.01e-01	0	43	0	990380032	67	5599
2026-01-04 11:38:13.17	347.83	16.57	-48.6	-51.8	23.3	6.03e-01	0	43	0	996147200	67	5616
2026-01-04 11:38:16.03	347.76	16.21	-48.6	-51.8	23.3	6.02e-01	0	43	0	1001390080	68	5336
2026-01-04 11:38:19.18	347.67	15.83	-48.4	-51.8	23.4	6.01e-01	0	43	0	1007681536	68	5295
2026-01-04 11:38:22.16	347.60	15.47	-48.5	-51.8	23.3	6.04e-01	0	43	0	1012924416	68	5333
2026-01-04 11:38:25.52	347.52	15.08	-48.7	-51.9	23.3	6.01e-01	0	43	0	1019215872	68	5368
2026-01-04 11:38:28.24	347.45	14.77	-48.8	-51.9	23.2	6.00e-01	0	43	0	1024458752	68	5385
2026-01-04 11:38:32.03	347.37	14.33	-48.9	-51.9	23.2	6.03e-01	0	43	0	1031798784	68	5377
2026-01-04 11:38:34.93	347.30	14.01	-48.6	-51.8	23.3	6.03e-01	0	43	0	1037041664	68	5315
2026-01-04 11:38:38.70	347.22	13.60	-48.3	-51.6	23.5	6.00e-01	0	43	0	1043857408	68	5198
2026-01-04 11:38:41.44	347.17	13.30	-48.4	-51.7	23.5	5.99e-01	0	43	0	1049100288	68	5224
2026-01-04 11:38:45.19	347.09	12.90	-48.7	-51.7	23.5	6.03e-01	0	43	0	1056440320	68	5241
2026-01-04 11:38:48.01	347.04	12.60	-48.7	-51.6	23.5	6.03e-01	0	43	0	1061683200	68	5167
2026-01-04 11:38:51.75	346.97	12.22	-48.4	-51.7	23.3	6.00e-01	0	43	0	1068498944	68	5270
2026-01-04 11:38:54.74	346.91	11.91	-48.2	-51.9	23.2	6.02e-01	0	43	0	1074266112	68	5386
2026-01-04 11:38:58.56	346.84	11.53	-47.7	-51.9	23.1	6.05e-01	0	43	0	1081081856	67	5672
2026-01-04 11:39:01.43	346.79	11.25	-47.5	-51.9	23.0	6.03e-01	0	43	0	1086849024	67	5666
2026-01-04 11:39:05.17	346.73	10.89	-47.5	-52.2	22.8	6.02e-01	0	43	0	1093664768	66	6226
2026-01-04 11:39:08.28	346.68	10.59	-47.3	-52.1	22.8	6.02e-01	0	43	0	1099431936	66	6153
2026-01-04 11:39:11.57	346.63	10.28	-46.8	-52.5	22.5	6.00e-01	0	43	0	1105723392	65	6813
2026-01-04 11:39:14.30	346.59	10.02	-46.7	-52.4	22.6	6.02e-01	0	43	0	1110966272	65	6728
2026-01-04 11:39:17.68	346.54	9.71	-46.8	-52.4	22.5	6.02e-01	0	43	0	1117257728	65	6766
2026-01-04 11:39:20.71	346.49	9.44	-46.8	-52.2	22.7	6.03e-01	0	43	0	1123024896	65	6623
2026-01-04 11:39:24.00	346.45	9.14	-46.9	-52.3	22.5	6.00e-01	0	43	0	1128792064	65	6675
2026-01-04 11:39:26.77	346.41	8.90	-53.5	-76.2	3.8	7.50e-01	0	43	104	1132986368	77	52749
2026-01-04 11:39:30.07	346.36	8.61	-54.6	-76.7	3.8	7.45e-01	0	43	104	1132986368	80	46810
2026-01-04 11:39:32.80	346.33	8.37	-55.7	-76.9	3.8	7.48e-01	0	43	104	1132986368	83	40210
2026-01-04 11:39:36.10	346.28	8.09	-56.2	-76.9	3.8	7.43e-01	0	43	104	1132986368	83	40328
2026-01-04 11:39:38.83	346.25	7.86	-56.4	-76.9	3.8	7.47e-01	0	43	104	1132986368	83	40485
2026-01-04 11:39:42.13	346.21	7.58	-56.9	-77.1	3.8	7.44e-01	0	43	104	1132986368	84	38767
2026-01-04 11:39:44.87	346.18	7.36	-56.6	-77.0	3.8	7.47e-01	0	43	104	1132986368	84	38653
2026-01-04 11:39:48.23	346.14	7.08	-56.8	-77.0	3.8	7.47e-01	0	43	104	1132986368	84	38567
2026-01-04 11:39:51.23	346.11	6.84	-56.6	-77.0	3.8	7.42e-01	0	43	104	1132986368	84	38650
2026-01-04 11:39:54.51	346.07	6.57	-56.0	-77.0	3.8	7.46e-01	0	43	104	1132986368	84	38591
2026-01-04 11:39:57.41	346.04	6.35	-56.1	-77.0	3.8	7.48e-01	0	43	104	1132986368	84	38621
2026-01-04 11:40:00.56	346.01	6.10	-56.1	-77.0	3.8	7.45e-01	0	43	104	1132986368	84	38651
2026-01-04 11:40:03.43	345.98	5.88	-56.1	-77.0	3.8	7.48e-01	0	43	104	1132986368	84	38604
2026-01-04 11:40:06.59	345.94	5.63	-56.0	-77.0	3.8	7.50e-01	0	43	104	1132986368	84	38388
2026-01-04 11:40:09.45	345.92	5.41	-56.1	-77.1	3.8	7.44e-01	0	43	104	1132986368	84	38745
2026-01-04 11:40:12.61	345.89	5.18	-56.2	-77.1	3.8	7.45e-01	0	43	104	1132986368	84	39107
