passes_logs/2026/01/04/T1/T1__20260104_154121_FENGYUN_3E_rec.log

#Pass ID: 20260104_154121_FENGYUN 3E
#Satellite: FENGYUN 3E
#Configuration: FENGYUN 3E
#almurnet v.1.7.20251203
#Start time: 2026-01-04 15:41:22

#Version: 2.0.20230620
#Station: T1
#Location: 37.570604 lon 55.790049 lat
#TLE: 1 49008U 21062A   26004.01270550 -.00000256  00000+0 -10014-3 0  9997
#TLE: 2 49008  98.7472   9.2701 0001499 161.2681 198.8551 14.19882497233285

#Time	Az	El	Level	Level2	SNR	BER	BlckErr	Temp	State	Recorded	gain1	gain2
2026-01-04 15:41:22.20	208.90	5.06	-53.7	-65.0	3.8	8.47e-01	0	41	0	0	78	12711
2026-01-04 15:41:25.20	209.15	5.24	-53.7	-64.9	3.8	8.47e-01	0	41	104	0	78	12646
2026-01-04 15:41:28.22	209.41	5.42	-53.6	-64.8	3.8	8.46e-01	0	41	104	0	78	12492
2026-01-04 15:41:31.23	209.66	5.60	-53.6	-64.7	3.8	8.47e-01	0	41	104	0	78	12362
2026-01-04 15:41:34.24	209.93	5.79	-53.6	-64.6	3.8	8.46e-01	0	42	104	0	78	12102
2026-01-04 15:41:37.25	210.19	5.97	-53.6	-64.8	3.8	8.47e-01	0	42	104	0	78	12437
2026-01-04 15:41:40.27	210.46	6.16	-53.7	-64.9	3.8	8.46e-01	0	42	104	0	78	12640
2026-01-04 15:41:43.28	210.73	6.35	-53.7	-64.8	3.8	8.47e-01	0	42	104	0	78	12468
2026-01-04 15:41:46.29	211.01	6.53	-53.6	-64.3	3.8	8.47e-01	0	42	104	0	78	11699
2026-01-04 15:41:49.30	211.28	6.72	-53.5	-64.2	3.8	8.47e-01	0	42	104	0	77	12292
2026-01-04 15:41:52.31	211.56	6.91	-53.5	-63.8	3.8	8.47e-01	0	42	104	0	77	11803
2026-01-04 15:41:55.32	211.85	7.10	-53.4	-63.2	3.8	8.46e-01	0	42	104	0	77	10977
2026-01-04 15:41:58.33	212.14	7.29	-53.5	-63.8	3.8	8.46e-01	0	43	104	0	77	11692
2026-01-04 15:42:01.34	212.43	7.48	-53.6	-64.5	3.8	8.47e-01	0	43	104	0	77	12700
2026-01-04 15:42:04.36	212.73	7.68	-53.4	-62.9	3.9	8.46e-01	0	43	104	0	77	10612
2026-01-04 15:42:07.37	213.03	7.87	-53.5	-64.1	3.8	8.46e-01	0	42	104	0	77	12108
2026-01-04 15:42:10.38	213.33	8.06	-50.6	-53.8	10.0	1.47e-02	0	43	0	9437184	71	5243
2026-01-04 15:42:13.39	213.64	8.26	-46.6	-48.2	15.7	0.00e+00	0	43	0	31457280	63	4351
2026-01-04 15:42:16.39	213.95	8.45	-45.4	-46.7	17.1	0.00e+00	0	43	0	53477376	61	4144
2026-01-04 15:42:19.40	214.26	8.65	-47.2	-48.8	15.1	0.00e+00	0	43	0	74448896	63	4693
2026-01-04 15:42:22.41	214.58	8.85	-50.5	-53.6	10.2	4.33e-03	0	43	0	96468992	70	5450
2026-01-04 15:42:25.42	214.91	9.05	-51.6	-55.8	8.0	2.11e-01	0	43	0	118489088	73	5888
2026-01-04 15:42:28.43	215.24	9.25	-52.6	-58.8	5.4	7.73e-01	0	43	0	135266304	75	7381
2026-01-04 15:42:31.44	215.57	9.45	-50.4	-53.3	10.6	3.36e-03	0	43	0	154140672	71	4955
2026-01-04 15:42:34.48	215.91	9.65	-49.3	-51.5	12.5	2.77e-04	0	43	0	176160768	69	4520
2026-01-04 15:42:37.48	216.25	9.85	-48.6	-50.6	13.4	2.17e-05	0	43	0	198180864	67	4552
2026-01-04 15:42:40.49	216.60	10.05	-46.6	-48.0	16.0	0.00e+00	0	43	0	219152384	63	4277
2026-01-04 15:42:43.50	216.95	10.25	-46.6	-48.0	16.0	0.00e+00	0	43	0	241172480	63	4273
2026-01-04 15:42:46.50	217.30	10.46	-45.4	-46.6	17.5	0.00e+00	0	43	0	263192576	61	4064
2026-01-04 15:42:49.54	217.67	10.66	-44.8	-45.9	18.1	0.00e+00	0	43	0	285212672	60	3995
2026-01-04 15:42:52.54	218.03	10.87	-44.2	-45.3	18.6	0.00e+00	0	43	0	306184192	59	3927
2026-01-04 15:42:55.55	218.40	11.07	-43.7	-44.8	19.1	0.00e+00	0	43	0	328204288	58	3918
2026-01-04 15:42:58.55	218.78	11.28	-43.9	-44.9	18.9	0.00e+00	0	43	0	350224384	58	3987
2026-01-04 15:43:01.56	219.16	11.48	-44.0	-45.1	18.8	0.00e+00	0	43	0	372244480	58	4058
2026-01-04 15:43:04.56	219.54	11.69	-44.0	-45.1	18.8	0.00e+00	0	43	0	393216000	58	4079
2026-01-04 15:43:07.56	219.93	11.90	-44.0	-45.0	18.8	0.00e+00	0	43	0	415236096	58	4050
2026-01-04 15:43:10.57	220.33	12.11	-43.8	-44.9	19.0	0.00e+00	0	43	0	437256192	58	3977
2026-01-04 15:43:13.57	220.73	12.32	-43.9	-44.9	19.0	0.00e+00	0	43	0	458227712	58	3983
2026-01-04 15:43:16.58	221.13	12.53	-43.7	-44.7	19.2	0.00e+00	0	43	0	480247808	58	3898
2026-01-04 15:43:19.58	221.55	12.73	-43.5	-44.6	19.3	0.00e+00	0	43	0	502267904	57	4058
2026-01-04 15:43:22.59	221.97	12.95	-43.4	-44.4	19.5	0.00e+00	0	44	0	523239424	57	3993
2026-01-04 15:43:25.64	222.40	13.16	-43.3	-44.3	19.5	0.00e+00	0	44	0	545259520	57	3958
2026-01-04 15:43:29.33	222.92	13.42	-43.3	-44.3	19.6	0.00e+00	0	44	0	572522496	57	3925
2026-01-04 15:43:32.19	223.34	13.62	-43.1	-44.1	19.8	0.00e+00	0	44	0	592445440	57	3841
2026-01-04 15:43:35.34	223.81	13.84	-43.3	-44.2	19.6	0.00e+00	0	44	0	615514112	57	3913
2026-01-04 15:43:38.20	224.23	14.04	-43.1	-44.1	19.8	0.00e+00	0	43	0	636485632	56	4070
2026-01-04 15:43:41.35	224.71	14.27	-43.2	-44.1	19.8	0.00e+00	0	43	0	658505728	56	4098
2026-01-04 15:43:44.20	225.15	14.47	-43.0	-43.9	20.0	0.00e+00	0	44	0	679477248	56	3998
2026-01-04 15:43:47.35	225.64	14.69	-42.9	-43.8	20.1	0.00e+00	0	44	0	702545920	56	3946
2026-01-04 15:43:50.22	226.10	14.89	-42.7	-43.6	20.3	0.00e+00	0	43	0	723517440	56	3868
2026-01-04 15:43:53.49	226.62	15.12	-42.3	-43.2	20.5	0.00e+00	0	44	0	746586112	55	3910
2026-01-04 15:43:56.35	227.08	15.33	-42.2	-43.1	20.6	0.00e+00	0	44	0	767557632	55	3843
2026-01-04 15:43:59.50	227.60	15.55	-42.3	-43.2	20.5	0.00e+00	0	43	0	789577728	55	3874
2026-01-04 15:44:02.36	228.08	15.75	-42.5	-43.4	20.3	0.00e+00	0	43	0	810549248	55	3990
2026-01-04 15:44:05.51	228.62	15.97	-42.6	-43.6	20.2	0.00e+00	0	44	0	833617920	55	4080
2026-01-04 15:44:08.36	229.11	16.17	-42.3	-43.2	20.5	0.00e+00	0	43	0	854589440	55	3912
2026-01-04 15:44:11.51	229.66	16.40	-42.3	-43.2	20.5	0.00e+00	0	44	0	876609536	55	3886
2026-01-04 15:44:14.40	230.17	16.60	-42.3	-43.2	20.5	0.00e+00	0	44	0	897581056	55	3897
2026-01-04 15:44:17.69	230.76	16.83	-42.4	-43.4	20.4	0.00e+00	0	44	0	921698304	55	3973
2026-01-04 15:44:20.41	231.25	17.02	-42.0	-42.9	20.8	0.00e+00	0	44	0	941621248	54	3975
2026-01-04 15:44:23.71	231.86	17.25	-41.9	-42.8	20.9	0.00e+00	0	44	0	964689920	54	3938
2026-01-04 15:44:26.69	232.41	17.45	-41.9	-42.9	20.8	0.00e+00	0	44	0	986710016	54	3960
2026-01-04 15:44:29.69	232.98	17.66	-42.1	-43.0	20.7	0.00e+00	0	44	0	1007681536	54	4043
2026-01-04 15:44:32.66	233.55	17.87	-42.0	-42.9	20.8	0.00e+00	0	44	0	1029701632	54	3987
2026-01-04 15:44:36.06	234.21	18.10	-41.9	-42.8	21.0	0.00e+00	0	44	0	1053818880	54	3929
2026-01-04 15:44:38.78	234.75	18.28	-41.9	-42.8	21.0	0.00e+00	0	44	0	1073741824	54	3945
2026-01-04 15:44:42.01	235.39	18.50	-41.8	-42.7	21.0	0.00e+00	0	44	0	1096810496	54	3894
2026-01-04 15:44:44.86	235.97	18.69	-41.9	-42.8	20.9	0.00e+00	0	44	0	1117782016	54	3954
2026-01-04 15:44:48.02	236.62	18.90	-41.9	-42.8	20.9	0.00e+00	0	44	0	1140850688	54	3933
2026-01-04 15:44:50.91	237.22	19.09	-41.8	-42.7	21.0	0.00e+00	0	44	0	1161822208	54	3907
2026-01-04 15:44:54.09	237.88	19.30	-41.5	-42.4	21.2	0.00e+00	0	44	0	1183842304	53	3993
2026-01-04 15:44:57.04	238.51	19.49	-41.6	-42.6	21.1	0.00e+00	0	44	0	1205862400	53	4060
2026-01-04 15:45:00.04	239.16	19.68	-41.5	-42.5	21.2	0.00e+00	0	44	0	1226833920	53	4007
2026-01-04 15:45:03.04	239.81	19.87	-41.5	-42.3	21.3	0.00e+00	0	44	0	1248854016	53	3952
2026-01-04 15:45:06.04	240.47	20.06	-41.5	-42.4	21.3	0.00e+00	0	44	0	1269825536	53	3971
2026-01-04 15:45:09.04	241.14	20.24	-41.5	-42.4	21.3	0.00e+00	0	44	0	1291845632	53	3990
2026-01-04 15:45:12.04	241.82	20.42	-41.3	-42.1	21.5	0.00e+00	0	44	0	1313865728	53	3863
2026-01-04 15:45:15.04	242.51	20.60	-41.2	-42.0	21.6	0.00e+00	0	44	0	1334837248	53	3824
2026-01-04 15:45:18.04	243.20	20.78	-41.3	-42.2	21.5	0.00e+00	0	44	0	1356857344	53	3896
2026-01-04 15:45:21.04	243.90	20.95	-41.4	-42.3	21.4	0.00e+00	0	44	0	1378877440	53	3915
2026-01-04 15:45:24.05	244.61	21.12	-41.2	-42.1	21.5	0.00e+00	0	44	0	1399848960	53	3846
2026-01-04 15:45:27.05	245.33	21.29	-41.5	-42.4	21.3	0.00e+00	0	44	0	1421869056	53	3999
2026-01-04 15:45:30.06	246.05	21.45	-41.3	-42.2	21.5	0.00e+00	0	44	0	1443889152	53	3894
2026-01-04 15:45:33.16	246.81	21.62	-41.1	-41.9	21.7	0.00e+00	0	44	0	1465909248	52	3979
2026-01-04 15:45:36.04	247.52	21.77	-41.0	-41.9	21.8	0.00e+00	0	44	0	1486880768	52	3977
2026-01-04 15:45:39.19	248.30	21.93	-41.0	-41.8	21.8	0.00e+00	0	44	0	1509949440	52	3954
2026-01-04 15:45:42.35	249.10	22.09	-41.0	-41.9	21.7	0.00e+00	0	44	0	1531969536	52	3990
2026-01-04 15:45:45.56	249.91	22.24	-41.2	-42.1	21.6	0.00e+00	0	44	0	1556086784	52	4060
2026-01-04 15:45:48.42	250.64	22.37	-41.3	-42.2	21.5	0.00e+00	0	44	0	1576009728	52	4103
2026-01-04 15:45:51.57	251.45	22.51	-41.2	-42.1	21.6	0.00e+00	0	44	0	1599078400	52	4068
2026-01-04 15:45:54.43	252.20	22.64	-41.0	-41.9	21.7	0.00e+00	0	44	0	1620049920	52	3983
2026-01-04 15:45:57.57	253.02	22.77	-40.9	-41.7	21.9	0.00e+00	0	44	0	1642070016	52	3908
2026-01-04 15:46:00.43	253.78	22.88	-41.0	-41.9	21.7	0.00e+00	0	44	0	1663041536	52	3965
2026-01-04 15:46:03.58	254.62	23.00	-40.9	-41.8	21.9	0.00e+00	0	44	0	1686110208	52	3916
2026-01-04 15:46:06.81	255.48	23.12	-40.9	-41.8	21.8	0.00e+00	0	44	0	1709178880	52	3932
2026-01-04 15:46:09.79	256.29	23.22	-40.7	-41.6	22.0	0.00e+00	0	44	0	1730150400	52	3835
2026-01-04 15:46:12.80	257.10	23.32	-40.6	-41.5	22.1	0.00e+00	0	44	0	1752170496	52	3782
2026-01-04 15:46:15.81	257.93	23.42	-40.8	-41.7	22.0	0.00e+00	0	44	0	1774190592	52	3883
2026-01-04 15:46:18.82	258.75	23.50	-40.7	-41.5	22.1	0.00e+00	0	44	0	1796210688	51	4040
2026-01-04 15:46:21.82	259.58	23.59	-40.6	-41.4	22.2	0.00e+00	0	44	0	1817182208	51	3997
2026-01-04 15:46:24.83	260.42	23.66	-40.9	-41.8	21.9	0.00e+00	0	44	0	1839202304	51	4151
2026-01-04 15:46:27.83	261.26	23.73	-41.1	-42.0	21.8	0.00e+00	0	44	0	1861222400	51	4271
2026-01-04 15:46:30.84	262.10	23.79	-40.8	-41.6	22.1	0.00e+00	0	44	0	1882193920	51	4085
2026-01-04 15:46:33.94	262.97	23.85	-40.7	-41.5	22.2	0.00e+00	0	44	0	1905262592	51	4043
2026-01-04 15:46:36.84	263.79	23.90	-40.8	-41.6	22.1	0.00e+00	0	44	0	1926234112	51	4080
2026-01-04 15:46:39.99	264.68	23.95	-40.7	-41.6	22.1	0.00e+00	0	44	0	1948254208	51	4069
2026-01-04 15:46:42.85	265.49	23.98	-40.8	-41.7	22.1	0.00e+00	0	44	0	1969225728	51	4099
2026-01-04 15:46:46.07	266.41	24.02	-41.0	-41.8	21.9	0.00e+00	0	44	0	1992294400	51	4177
2026-01-04 15:46:49.40	267.35	24.04	-41.1	-41.9	21.8	0.00e+00	0	44	0	2016411648	51	4231
2026-01-04 15:46:52.11	268.13	24.06	-40.7	-41.5	22.2	0.00e+00	0	44	0	2036334592	51	4024
2026-01-04 15:46:55.56	269.11	24.07	-40.7	-41.5	22.1	0.00e+00	0	44	0	2061500416	51	4038
2026-01-04 15:46:58.54	269.96	24.08	-40.8	-41.7	22.0	0.00e+00	0	44	0	2082471936	51	4111
2026-01-04 15:47:01.55	270.82	24.07	-40.8	-41.7	22.0	0.00e+00	0	44	0	2104492032	51	4104
2026-01-04 15:47:04.65	271.70	24.06	-40.8	-41.6	22.1	0.00e+00	0	44	0	2126512128	51	4086
2026-01-04 15:47:07.61	272.55	24.05	-41.0	-41.8	21.9	0.00e+00	0	44	0	2148532224	51	4182
2026-01-04 15:47:11.03	273.52	24.02	-40.9	-41.7	22.0	0.00e+00	0	44	0	2172649472	51	4120
2026-01-04 15:47:14.24	274.43	23.99	-40.9	-41.8	21.9	0.00e+00	0	44	0	2195718144	51	4158
2026-01-04 15:47:17.25	275.29	23.95	-40.9	-41.7	22.0	0.00e+00	0	44	0	2217738240	51	4128
2026-01-04 15:47:20.26	276.14	23.91	-40.8	-41.7	22.0	0.00e+00	0	44	0	2239758336	51	4105
2026-01-04 15:47:23.34	277.00	23.86	-40.8	-41.7	22.0	0.00e+00	0	44	0	2261778432	51	4115
2026-01-04 15:47:26.24	277.82	23.80	-40.9	-41.7	22.0	0.00e+00	0	44	0	2282749952	51	4123
2026-01-04 15:47:29.38	278.70	23.74	-41.0	-41.9	21.8	0.00e+00	0	44	0	2305818624	51	4227
2026-01-04 15:47:32.25	279.50	23.67	-41.1	-42.0	21.8	0.00e+00	0	44	0	2325741568	51	4245
2026-01-04 15:47:35.39	280.37	23.59	-40.9	-41.8	21.9	0.00e+00	0	44	0	2348810240	51	4171
2026-01-04 15:47:38.34	281.18	23.51	-41.0	-41.8	21.9	0.00e+00	0	44	0	2369781760	51	4183
2026-01-04 15:47:41.60	282.08	23.42	-41.0	-41.9	21.8	0.00e+00	0	44	0	2393899008	51	4208
2026-01-04 15:47:44.37	282.83	23.33	-41.0	-41.9	21.8	0.00e+00	0	44	0	2413821952	51	4216
2026-01-04 15:47:47.66	283.72	23.23	-40.9	-41.7	22.0	0.00e+00	0	44	0	2436890624	51	4121
2026-01-04 15:47:50.68	284.54	23.12	-41.1	-42.0	21.7	0.00e+00	0	44	0	2458910720	51	4249
2026-01-04 15:47:53.76	285.36	23.01	-41.1	-42.0	21.7	0.00e+00	0	44	0	2480930816	52	4027
2026-01-04 15:47:56.62	286.12	22.90	-41.0	-41.8	21.8	0.00e+00	0	44	0	2501902336	52	3958
2026-01-04 15:47:59.76	286.95	22.78	-41.1	-41.9	21.7	0.00e+00	0	44	0	2524971008	52	3997
2026-01-04 15:48:02.68	287.71	22.66	-41.2	-42.0	21.6	0.00e+00	0	44	0	2545942528	52	4048
2026-01-04 15:48:06.06	288.59	22.51	-41.2	-42.1	21.6	0.00e+00	0	44	0	2570059776	52	4071
2026-01-04 15:48:08.78	289.29	22.39	-41.3	-42.2	21.5	0.00e+00	0	44	0	2589982720	52	4110
2026-01-04 15:48:12.07	290.13	22.24	-41.1	-42.0	21.7	0.00e+00	0	44	0	2613051392	52	4010
2026-01-04 15:48:14.93	290.85	22.10	-41.1	-41.9	21.7	0.00e+00	0	44	0	2634022912	52	3997
2026-01-04 15:48:18.09	291.64	21.95	-41.4	-42.3	21.4	0.00e+00	0	44	0	2657091584	52	4160
2026-01-04 15:48:20.95	292.35	21.80	-41.7	-42.6	21.1	0.00e+00	0	44	0	2678063104	52	4307
2026-01-04 15:48:24.10	293.13	21.64	-41.4	-42.3	21.4	0.00e+00	0	44	0	2700083200	53	3923
2026-01-04 15:48:26.96	293.82	21.49	-41.3	-42.1	21.5	0.00e+00	0	44	0	2721054720	53	3851
2026-01-04 15:48:30.33	294.63	21.31	-41.2	-42.0	21.6	0.00e+00	0	44	0	2745171968	53	3819
2026-01-04 15:48:33.41	295.37	21.14	-41.3	-42.1	21.5	0.00e+00	0	44	0	2767192064	53	3867
2026-01-04 15:48:36.55	296.10	20.96	-41.3	-42.1	21.4	0.00e+00	0	44	0	2790260736	53	3868
2026-01-04 15:48:39.67	296.83	20.78	-41.5	-42.3	21.3	0.00e+00	0	44	0	2812280832	53	3951
2026-01-04 15:48:42.71	297.53	20.60	-42.0	-42.9	20.8	0.00e+00	0	44	0	2834300928	53	4229
2026-01-04 15:48:45.71	298.21	20.43	-41.9	-42.9	20.8	0.00e+00	0	44	0	2856321024	53	4198
2026-01-04 15:48:48.71	298.89	20.24	-41.9	-42.8	20.7	0.00e+00	0	44	0	2878341120	53	4174
2026-01-04 15:48:51.71	299.55	20.06	-41.6	-42.5	21.0	0.00e+00	0	44	0	2899312640	53	4029
2026-01-04 15:48:55.07	300.29	19.85	-41.7	-42.6	21.1	0.00e+00	0	44	0	2923429888	53	4067
2026-01-04 15:48:57.79	300.88	19.68	-41.9	-42.8	20.9	0.00e+00	0	44	0	2943352832	53	4175
2026-01-04 15:49:01.15	301.60	19.47	-41.9	-42.8	20.9	0.00e+00	0	44	0	2967470080	53	4170
2026-01-04 15:49:03.95	302.19	19.29	-41.9	-42.9	20.8	0.00e+00	0	44	0	2988441600	53	4195
2026-01-04 15:49:07.10	302.85	19.08	-42.2	-43.1	20.6	0.00e+00	0	44	0	3010461696	53	4304
2026-01-04 15:49:10.33	303.51	18.87	-42.1	-43.0	20.6	0.00e+00	0	44	0	3034578944	53	4288
2026-01-04 15:49:13.33	304.13	18.68	-42.1	-42.9	20.8	0.00e+00	0	44	0	3055550464	54	4001
2026-01-04 15:49:16.34	304.73	18.48	-42.1	-43.0	20.7	0.00e+00	0	44	0	3077570560	54	4016
2026-01-04 15:49:19.35	305.33	18.27	-42.0	-42.9	20.8	0.00e+00	0	44	0	3099590656	54	3979
2026-01-04 15:49:22.36	305.91	18.07	-42.0	-42.9	20.7	0.00e+00	0	44	0	3120562176	54	3987
2026-01-04 15:49:25.37	306.50	17.87	-42.2	-43.1	20.5	0.00e+00	0	44	0	3142582272	54	4095
2026-01-04 15:49:28.37	307.07	17.66	-42.5	-43.4	20.3	0.00e+00	0	44	0	3164602368	54	4242
2026-01-04 15:49:31.38	307.63	17.46	-42.4	-43.3	20.4	0.00e+00	0	44	0	3186622464	54	4158
2026-01-04 15:49:34.38	308.19	17.25	-42.5	-43.5	20.2	0.00e+00	0	44	0	3207593984	54	4256
2026-01-04 15:49:37.38	308.74	17.04	-42.5	-43.5	20.2	0.00e+00	0	44	0	3229614080	54	4259
2026-01-04 15:49:40.38	309.28	16.84	-42.2	-43.2	20.4	0.00e+00	0	44	0	3251634176	54	4104
2026-01-04 15:49:43.39	309.82	16.63	-42.3	-43.2	20.4	0.00e+00	0	44	0	3272605696	54	4119
2026-01-04 15:49:46.39	310.35	16.42	-42.5	-43.5	20.2	0.00e+00	0	44	0	3294625792	54	4263
2026-01-04 15:49:49.40	310.87	16.21	-43.1	-44.1	19.7	0.00e+00	0	44	0	3315597312	55	4309
2026-01-04 15:49:52.48	311.39	15.99	-43.1	-44.1	19.6	0.00e+00	0	44	0	3338665984	55	4317
2026-01-04 15:49:55.48	311.90	15.78	-43.3	-44.3	19.5	0.00e+00	0	44	0	3359637504	56	4193
2026-01-04 15:49:58.49	312.40	15.57	-42.8	-43.8	20.0	0.00e+00	0	44	0	3381657600	56	3926
2026-01-04 15:50:01.49	312.89	15.36	-42.3	-43.3	20.4	0.00e+00	0	44	0	3403677696	55	3914
2026-01-04 15:50:04.50	313.38	15.15	-42.4	-43.4	20.3	0.00e+00	0	44	0	3424649216	55	3973
2026-01-04 15:50:07.53	313.87	14.94	-42.5	-43.5	20.1	0.00e+00	0	44	0	3446669312	55	4018
2026-01-04 15:50:10.54	314.34	14.73	-42.7	-43.7	19.9	0.00e+00	0	44	0	3468689408	55	4137
2026-01-04 15:50:13.55	314.81	14.52	-43.1	-44.1	19.6	0.00e+00	0	44	0	3490709504	55	4331
2026-01-04 15:50:16.56	315.27	14.31	-43.3	-44.3	19.5	0.00e+00	0	44	0	3511681024	56	4179
2026-01-04 15:50:19.97	315.78	14.07	-43.2	-44.2	19.6	0.00e+00	0	44	0	3536846848	56	4140
2026-01-04 15:50:22.69	316.19	13.88	-43.2	-44.2	19.6	0.00e+00	0	44	0	3556769792	56	4116
2026-01-04 15:50:25.98	316.67	13.65	-42.9	-43.8	19.9	0.00e+00	0	44	0	3579838464	56	3946
2026-01-04 15:50:28.69	317.06	13.46	-42.8	-43.8	20.0	0.00e+00	0	44	0	3599761408	56	3925
2026-01-04 15:50:32.24	317.57	13.21	-43.0	-44.0	19.8	0.00e+00	0	44	0	3624927232	56	4010
2026-01-04 15:50:34.96	317.95	13.02	-43.2	-44.2	19.5	0.00e+00	0	44	0	3644850176	56	4105
2026-01-04 15:50:38.25	318.41	12.80	-43.6	-44.7	19.2	0.00e+00	0	44	0	3668967424	56	4341
2026-01-04 15:50:41.29	318.83	12.59	-44.1	-45.2	18.6	0.00e+00	0	44	0	3690987520	57	4377
2026-01-04 15:50:44.58	319.27	12.36	-43.6	-44.7	19.1	0.00e+00	0	44	0	3714056192	57	4130
2026-01-04 15:50:47.30	319.63	12.17	-43.5	-44.6	19.2	0.00e+00	0	44	0	3733979136	57	4082
2026-01-04 15:50:50.60	320.07	11.95	-43.3	-44.4	19.4	0.00e+00	0	44	0	3758096384	57	3965
2026-01-04 15:50:53.47	320.44	11.75	-43.3	-44.4	19.4	0.00e+00	0	44	0	3778019328	57	3975
2026-01-04 15:50:56.61	320.84	11.54	-43.3	-44.3	19.5	0.00e+00	0	44	0	3801088000	57	3930
2026-01-04 15:50:59.48	321.20	11.34	-43.4	-44.4	19.3	0.00e+00	0	44	0	3822059520	57	3995
2026-01-04 15:51:02.63	321.59	11.13	-43.4	-44.5	19.2	0.00e+00	0	44	0	3845128192	57	4028
2026-01-04 15:51:05.62	321.96	10.92	-43.7	-44.8	19.0	0.00e+00	0	44	0	3866099712	57	4148
2026-01-04 15:51:09.21	322.40	10.68	-43.9	-44.9	18.8	0.00e+00	0	44	0	3892314112	57	4229
2026-01-04 15:51:11.93	322.72	10.50	-43.8	-44.9	18.8	0.00e+00	0	44	0	3912237056	57	4201
2026-01-04 15:51:15.22	323.11	10.28	-44.0	-45.2	18.6	0.00e+00	0	44	0	3935305728	57	4355
2026-01-04 15:51:17.94	323.42	10.10	-44.0	-45.2	18.5	0.00e+00	0	44	0	3955228672	57	4384
2026-01-04 15:51:21.18	323.79	9.88	-44.0	-45.2	18.5	0.00e+00	0	44	0	3978297344	57	4372
2026-01-04 15:51:24.20	324.14	9.68	-44.0	-45.2	18.5	0.00e+00	0	44	0	4000317440	57	4365
2026-01-04 15:51:27.35	324.49	9.48	-44.0	-45.2	18.5	0.00e+00	0	44	0	4023386112	57	4387
2026-01-04 15:51:30.22	324.80	9.29	-44.0	-45.2	18.5	0.00e+00	0	44	0	4043309056	57	4353
2026-01-04 15:51:33.49	325.16	9.07	-44.1	-45.3	18.4	0.00e+00	0	44	0	4067426304	57	4421
2026-01-04 15:51:36.42	325.47	8.88	-53.7	-65.3	3.8	8.47e-01	0	44	104	4076863488	78	13248
2026-01-04 15:51:39.80	325.83	8.66	-54.8	-65.5	3.8	8.46e-01	0	44	104	4076863488	78	13479
2026-01-04 15:51:42.52	326.12	8.49	-54.9	-65.6	3.8	8.46e-01	0	44	104	4076863488	79	12891
2026-01-04 15:51:45.82	326.46	8.28	-54.8	-65.6	3.8	8.48e-01	0	44	104	4076863488	79	12911
2026-01-04 15:51:48.54	326.73	8.10	-54.8	-65.5	3.8	8.46e-01	0	44	104	4076863488	79	12808
2026-01-04 15:51:51.84	327.06	7.89	-54.9	-65.7	3.8	8.46e-01	0	44	104	4076863488	79	13030
2026-01-04 15:51:54.56	327.33	7.72	-54.7	-65.6	3.8	8.47e-01	0	44	104	4076863488	79	12863
2026-01-04 15:51:57.86	327.66	7.51	-54.5	-65.5	3.8	8.47e-01	0	44	104	4076863488	79	12740
2026-01-04 15:52:00.59	327.92	7.34	-54.5	-65.6	3.8	8.48e-01	0	44	104	4076863488	79	12816
2026-01-04 15:52:03.89	328.24	7.13	-54.5	-65.5	3.8	8.47e-01	0	44	104	4076863488	79	12726
2026-01-04 15:52:06.61	328.50	6.96	-54.5	-65.5	3.8	8.46e-01	0	44	104	4076863488	79	12673
2026-01-04 15:52:09.91	328.80	6.76	-54.5	-65.6	3.8	8.47e-01	0	44	104	4076863488	79	12859
2026-01-04 15:52:12.63	329.06	6.59	-54.5	-65.5	3.8	8.47e-01	0	44	104	4076863488	79	12681
2026-01-04 15:52:15.94	329.36	6.39	-54.5	-65.5	3.8	8.47e-01	0	44	104	4076863488	79	12734
2026-01-04 15:52:18.66	329.60	6.22	-54.5	-65.5	3.8	8.47e-01	0	44	104	4076863488	79	12796
2026-01-04 15:52:21.96	329.90	6.02	-54.5	-65.5	3.8	8.47e-01	0	44	104	4076863488	79	12705
2026-01-04 15:52:24.69	330.14	5.85	-54.5	-65.6	3.8	8.47e-01	0	44	104	4076863488	79	12827
2026-01-04 15:52:27.99	330.42	5.65	-54.5	-65.6	3.8	8.47e-01	0	44	104	4076863488	79	12820
2026-01-04 15:52:30.71	330.66	5.49	-54.5	-65.5	3.8	8.47e-01	0	44	104	4076863488	79	12747
2026-01-04 15:52:34.01	330.94	5.29	-54.5	-65.5	3.8	8.47e-01	0	44	104	4076863488	79	12763
2026-01-04 15:52:36.74	331.16	5.13	-54.5	-65.5	3.8	8.45e-01	0	44	104	4076863488	79	12771

#Closed at: 2026-01-04 15:52:40
#Recorded file [4076 MB]: D:/Data/31040_260104_184122.dat