passes_logs/2026/01/04/T1/T1__20260104_220316_NOAA_20_JPSS-1_rec.log

#Pass ID: 20260104_220316_NOAA 20 (JPSS-1)
#Satellite: NOAA 20 (JPSS-1)
#Configuration: NOAA 20
#almurnet v.1.7.20251203
#Start time: 2026-01-04 22:03:18

#Version: 2.0.20230620
#Station: T1
#Location: 37.570604 lon 55.790049 lat
#TLE: 1 43013U 17073A   26004.47528369  .00000132  00000+0  83671-4 0  9999
#TLE: 2 43013  98.7626 305.5264 0001854  54.5883 305.5466 14.19533142421242

#Time	Az	El	Level	Level2	SNR	BER	BlckErr	Temp	State	Recorded	gain1	gain2
2026-01-04 22:03:18.76	31.35	5.10	-52.2	-67.7	3.8	1.49e+00	0	40	0	0	75	22167
2026-01-04 22:03:21.77	31.64	5.27	-52.2	-67.7	3.8	1.49e+00	0	40	104	0	75	22121
2026-01-04 22:03:24.78	31.93	5.44	-52.2	-67.7	3.8	1.49e+00	0	40	104	0	75	22049
2026-01-04 22:03:27.79	32.22	5.61	-52.2	-67.7	3.8	1.49e+00	0	40	104	0	75	22178
2026-01-04 22:03:30.80	32.51	5.78	-52.2	-67.7	3.8	1.49e+00	0	40	104	0	75	22066
2026-01-04 22:03:33.81	32.81	5.95	-52.2	-67.7	3.8	1.49e+00	0	40	104	0	75	22140
2026-01-04 22:03:36.82	33.11	6.12	-52.2	-67.7	3.8	1.49e+00	0	41	104	0	75	22096
2026-01-04 22:03:39.83	33.42	6.29	-52.2	-67.7	3.8	1.49e+00	0	41	104	0	75	22072
2026-01-04 22:03:42.84	33.72	6.47	-52.2	-67.6	3.8	1.49e+00	0	41	104	0	75	21970
2026-01-04 22:03:45.85	34.04	6.64	-52.2	-67.6	3.8	1.49e+00	0	41	104	0	75	21795
2026-01-04 22:03:48.86	34.35	6.81	-52.2	-67.6	3.8	1.49e+00	0	41	104	0	75	21873
2026-01-04 22:03:51.87	34.67	6.98	-52.2	-67.7	3.8	1.49e+00	0	41	104	0	75	22043
2026-01-04 22:03:54.88	34.99	7.16	-52.2	-67.6	3.8	1.49e+00	0	41	104	0	75	21993
2026-01-04 22:03:57.89	35.32	7.33	-52.2	-67.6	3.8	1.49e+00	0	41	104	0	75	21777
2026-01-04 22:04:00.90	35.65	7.51	-52.2	-67.6	3.8	1.49e+00	0	41	104	0	75	21845
2026-01-04 22:04:03.91	35.98	7.68	-52.2	-67.7	3.8	1.49e+00	0	41	104	0	75	22056
2026-01-04 22:04:06.92	36.32	7.86	-52.2	-67.3	3.8	1.49e+00	0	41	104	0	75	21240
2026-01-04 22:04:09.94	36.66	8.03	-52.1	-67.3	3.8	1.49e+00	0	41	104	0	75	21216
2026-01-04 22:04:12.95	37.01	8.21	-52.2	-67.5	3.8	1.49e+00	0	42	104	0	75	21636
2026-01-04 22:04:15.96	37.36	8.39	-52.2	-67.7	3.8	1.49e+00	0	41	104	0	75	22141
2026-01-04 22:04:18.97	37.71	8.56	-52.2	-67.2	3.8	1.49e+00	0	41	104	0	75	20885
2026-01-04 22:04:21.99	38.07	8.74	-52.1	-65.9	3.8	1.49e+00	0	42	104	0	75	17965
2026-01-04 22:04:25.00	38.43	8.92	-52.0	-64.5	4.1	1.46e+00	0	42	0	0	75	15295
2026-01-04 22:04:28.01	38.80	9.10	-52.5	-66.6	3.8	1.48e+00	0	42	104	3145728	75	19545
2026-01-04 22:04:30.98	39.16	9.27	-52.1	-64.7	4.0	7.85e-01	0	42	0	4194304	74	16654
2026-01-04 22:04:33.99	39.54	9.45	-49.4	-53.4	13.3	3.66e-05	0	42	0	8388608	70	5681
2026-01-04 22:04:36.99	39.92	9.63	-48.5	-52.0	14.7	0.00e+00	0	42	0	13631488	69	5105
2026-01-04 22:04:40.00	40.30	9.81	-47.7	-50.8	15.6	0.00e+00	0	42	0	18874368	67	5041
2026-01-04 22:04:43.00	40.69	9.98	-47.7	-50.9	15.5	0.00e+00	0	42	0	25165824	67	5084
2026-01-04 22:04:46.01	41.08	10.16	-47.8	-51.0	15.4	0.00e+00	0	42	0	30408704	67	5155
2026-01-04 22:04:49.01	41.48	10.34	-47.9	-51.1	15.5	0.00e+00	0	42	0	36700160	67	5166
2026-01-04 22:04:52.01	41.88	10.52	-47.6	-50.7	15.8	0.00e+00	0	42	0	41943040	67	4959
2026-01-04 22:04:55.02	42.28	10.70	-47.5	-50.7	15.8	0.00e+00	0	42	0	47185920	67	4938
2026-01-04 22:04:58.03	42.70	10.88	-47.5	-50.6	15.9	0.00e+00	0	42	0	53477376	66	5200
2026-01-04 22:05:01.03	43.11	11.06	-47.6	-50.7	15.9	0.00e+00	0	42	0	58720256	66	5222
2026-01-04 22:05:04.04	43.53	11.24	-47.7	-50.8	15.8	0.00e+00	0	42	0	63963136	66	5300
2026-01-04 22:05:07.05	43.96	11.42	-47.5	-50.5	16.0	0.00e+00	0	42	0	70254592	66	5156
2026-01-04 22:05:10.06	44.39	11.60	-47.3	-50.3	16.3	0.00e+00	0	42	0	75497472	66	5003
2026-01-04 22:05:13.20	44.85	11.78	-47.3	-50.3	16.3	0.00e+00	0	42	0	81788928	66	5000
2026-01-04 22:05:16.49	45.33	11.98	-47.2	-50.1	16.4	0.00e+00	0	42	0	88080384	66	4915
2026-01-04 22:05:19.21	45.74	12.14	-47.3	-50.2	16.4	0.00e+00	0	42	0	93323264	66	4931
2026-01-04 22:05:22.50	46.23	12.34	-47.0	-49.9	16.7	0.00e+00	0	42	0	98566144	66	4761
2026-01-04 22:05:25.55	46.70	12.52	-47.0	-49.8	16.8	0.00e+00	0	42	0	104857600	66	4725
2026-01-04 22:05:28.56	47.16	12.69	-47.0	-49.8	16.8	0.00e+00	0	42	0	110100480	65	5011
2026-01-04 22:05:31.57	47.63	12.87	-46.8	-49.6	17.0	0.00e+00	0	42	0	116391936	65	4877
2026-01-04 22:05:34.58	48.11	13.05	-46.7	-49.3	17.2	0.00e+00	0	42	0	121634816	65	4750
2026-01-04 22:05:37.62	48.59	13.23	-46.7	-49.4	17.2	0.00e+00	0	42	0	126877696	65	4797
2026-01-04 22:05:41.23	49.18	13.44	-46.6	-49.3	17.3	0.00e+00	0	42	0	134217728	65	4733
2026-01-04 22:05:43.95	49.62	13.60	-46.4	-49.0	17.6	0.00e+00	0	42	0	139460608	64	4843
2026-01-04 22:05:47.24	50.17	13.79	-46.3	-48.9	17.7	0.00e+00	0	42	0	145752064	64	4762
2026-01-04 22:05:49.96	50.62	13.94	-46.4	-49.0	17.6	0.00e+00	0	42	0	150994944	64	4852
2026-01-04 22:05:53.25	51.18	14.13	-46.3	-48.9	17.7	0.00e+00	0	42	0	156237824	64	4800
2026-01-04 22:05:55.98	51.65	14.29	-46.4	-49.0	17.6	0.00e+00	0	42	0	161480704	64	4853
2026-01-04 22:05:59.27	52.22	14.48	-46.3	-48.9	17.7	0.00e+00	0	42	0	167772160	64	4769
2026-01-04 22:06:02.08	52.71	14.63	-46.3	-48.8	17.8	0.00e+00	0	42	0	173015040	64	4733
2026-01-04 22:06:05.37	53.30	14.82	-46.5	-49.2	17.4	0.00e+00	0	42	0	179306496	64	4931
2026-01-04 22:06:08.25	53.81	14.98	-46.6	-49.3	17.3	0.00e+00	0	42	0	184549376	64	5017
2026-01-04 22:06:11.39	54.38	15.15	-46.6	-49.3	17.4	0.00e+00	0	42	0	190840832	64	4985
2026-01-04 22:06:14.25	54.91	15.31	-46.7	-49.4	17.2	0.00e+00	0	42	0	196083712	64	5068
2026-01-04 22:06:17.53	55.51	15.49	-46.9	-49.7	17.0	0.00e+00	0	42	0	202375168	64	5241
2026-01-04 22:06:20.25	56.02	15.64	-47.0	-49.9	16.8	0.00e+00	0	42	0	207618048	64	5347
2026-01-04 22:06:23.54	56.65	15.81	-47.1	-49.9	16.7	0.00e+00	0	42	0	213909504	64	5392
2026-01-04 22:06:26.27	57.17	15.96	-47.2	-50.0	16.7	0.00e+00	0	42	0	218103808	65	5123
2026-01-04 22:06:29.56	57.81	16.13	-47.2	-50.1	16.6	0.00e+00	0	42	0	224395264	65	5165
2026-01-04 22:06:32.28	58.34	16.27	-47.3	-50.2	16.5	0.00e+00	0	42	0	229638144	65	5257
2026-01-04 22:06:35.58	58.99	16.44	-47.5	-50.4	16.3	0.00e+00	0	42	0	235929600	65	5370
2026-01-04 22:06:38.30	59.53	16.58	-47.5	-50.5	16.3	0.00e+00	0	42	0	241172480	65	5405
2026-01-04 22:06:41.59	60.19	16.74	-47.8	-50.9	15.9	0.00e+00	0	42	0	247463936	66	5344
2026-01-04 22:06:44.63	60.81	16.89	-47.9	-51.0	15.7	0.00e+00	0	42	0	252706816	66	5458
2026-01-04 22:06:48.00	61.50	17.05	-47.9	-50.9	15.8	0.00e+00	0	42	0	258998272	66	5401
2026-01-04 22:06:50.72	62.07	17.18	-47.5	-50.4	16.3	0.00e+00	0	42	0	264241152	66	5099
2026-01-04 22:06:54.02	62.76	17.34	-47.4	-50.4	16.4	0.00e+00	0	43	0	270532608	66	5048
2026-01-04 22:06:56.74	63.33	17.46	-47.5	-50.4	16.3	0.00e+00	0	42	0	275775488	66	5100
2026-01-04 22:07:00.27	64.08	17.62	-47.6	-50.5	16.2	0.00e+00	0	42	0	282066944	66	5144
2026-01-04 22:07:02.99	64.67	17.74	-47.2	-50.1	16.7	0.00e+00	0	42	0	287309824	66	4877
2026-01-04 22:07:06.29	65.39	17.88	-47.1	-49.8	16.9	0.00e+00	0	42	0	293601280	66	4751
2026-01-04 22:07:09.01	65.98	18.00	-46.9	-49.7	17.1	0.00e+00	0	42	0	298844160	65	4931
2026-01-04 22:07:12.30	66.71	18.13	-47.0	-49.7	17.0	0.00e+00	0	42	0	305135616	65	4956
2026-01-04 22:07:15.02	67.31	18.24	-47.0	-49.7	17.0	0.00e+00	0	42	0	310378496	65	4981
2026-01-04 22:07:18.31	68.05	18.37	-47.1	-49.9	16.8	0.00e+00	0	42	0	316669952	65	5056
2026-01-04 22:07:21.03	68.66	18.47	-47.2	-50.0	16.7	0.00e+00	0	42	0	320864256	65	5115
2026-01-04 22:07:24.32	69.41	18.59	-47.1	-49.8	16.9	0.00e+00	0	42	0	327155712	65	5034
2026-01-04 22:07:27.05	70.04	18.69	-47.0	-49.8	17.0	0.00e+00	0	42	0	332398592	65	4987
2026-01-04 22:07:30.34	70.79	18.80	-47.1	-49.9	16.9	0.00e+00	0	42	0	338690048	65	5074
2026-01-04 22:07:33.16	71.45	18.90	-47.0	-49.7	17.0	0.00e+00	0	43	0	343932928	65	4963
2026-01-04 22:07:36.58	72.25	19.01	-47.1	-49.8	16.9	0.00e+00	0	42	0	350224384	65	5010
2026-01-04 22:07:39.68	72.98	19.10	-47.0	-49.7	17.0	0.00e+00	0	42	0	356515840	65	4963
2026-01-04 22:07:42.99	73.76	19.20	-46.9	-49.6	17.1	0.00e+00	0	42	0	362807296	65	4921
2026-01-04 22:07:45.70	74.40	19.27	-47.1	-49.9	16.9	0.00e+00	0	42	0	367001600	65	5051
2026-01-04 22:07:49.00	75.19	19.36	-46.8	-49.5	17.3	0.00e+00	0	42	0	373293056	65	4823
2026-01-04 22:07:51.72	75.85	19.43	-46.7	-49.3	17.4	0.00e+00	0	42	0	378535936	65	4720
2026-01-04 22:07:55.36	76.73	19.51	-47.0	-49.8	16.9	0.00e+00	0	42	0	385875968	65	5035
2026-01-04 22:07:58.18	77.41	19.57	-47.4	-50.3	16.4	0.00e+00	0	42	0	391118848	65	5325
2026-01-04 22:08:01.47	78.21	19.64	-47.3	-50.2	16.6	0.00e+00	0	42	0	397410304	65	5239
2026-01-04 22:08:04.20	78.88	19.69	-47.0	-49.8	17.0	0.00e+00	0	42	0	402653184	65	5018
2026-01-04 22:08:07.93	79.80	19.76	-47.1	-49.9	16.9	0.00e+00	0	42	0	408944640	65	5061
2026-01-04 22:08:10.72	80.49	19.80	-47.2	-50.1	16.7	0.00e+00	0	43	0	414187520	65	5162
2026-01-04 22:08:14.22	81.35	19.85	-47.1	-50.0	16.7	0.00e+00	0	42	0	421527552	65	5123
2026-01-04 22:08:16.94	82.03	19.88	-47.2	-50.1	16.7	0.00e+00	0	42	0	425721856	65	5194
2026-01-04 22:08:20.23	82.84	19.92	-47.5	-50.6	16.2	0.00e+00	0	43	0	432013312	65	5473
2026-01-04 22:08:22.95	83.52	19.94	-47.8	-50.9	15.9	0.00e+00	0	43	0	437256192	66	5368
2026-01-04 22:08:26.24	84.34	19.97	-47.6	-50.7	16.1	0.00e+00	0	42	0	443547648	66	5230
2026-01-04 22:08:28.96	85.02	19.98	-47.5	-50.5	16.3	0.00e+00	0	42	0	448790528	66	5113
2026-01-04 22:08:32.26	85.85	20.00	-47.1	-49.9	16.9	0.00e+00	0	42	0	455081984	66	4804
2026-01-04 22:08:34.99	86.53	20.01	-46.8	-49.6	17.2	0.00e+00	0	42	0	460324864	65	4874
2026-01-04 22:08:38.29	87.36	20.01	-46.9	-49.6	17.1	0.00e+00	0	42	0	466616320	65	4926
2026-01-04 22:08:41.25	88.10	20.01	-47.3	-50.2	16.6	0.00e+00	0	42	0	471859200	65	5225
2026-01-04 22:08:45.27	89.10	20.00	-47.2	-50.1	16.6	0.00e+00	0	43	0	479199232	65	5204
2026-01-04 22:08:48.07	89.80	19.99	-47.3	-50.2	16.6	0.00e+00	0	42	0	484442112	65	5234
2026-01-04 22:08:51.98	90.78	19.96	-47.4	-50.3	16.5	0.00e+00	0	42	0	491782144	65	5289
2026-01-04 22:08:54.73	91.47	19.94	-47.4	-50.3	16.4	0.00e+00	0	42	0	497025024	65	5310
2026-01-04 22:08:58.34	92.37	19.91	-47.0	-49.7	16.9	0.00e+00	0	42	0	503316480	65	4981
2026-01-04 22:09:01.25	93.09	19.87	-46.7	-49.3	17.4	0.00e+00	0	43	0	509607936	65	4743
2026-01-04 22:09:04.26	93.84	19.83	-46.9	-49.6	17.1	0.00e+00	0	43	0	514850816	65	4905
2026-01-04 22:09:07.26	94.58	19.79	-47.1	-49.9	16.8	0.00e+00	0	42	0	520093696	65	5099
2026-01-04 22:09:10.23	95.31	19.74	-46.8	-49.5	17.3	0.00e+00	0	43	0	526385152	65	4817
2026-01-04 22:09:13.39	96.09	19.69	-46.5	-49.1	17.6	0.00e+00	0	43	0	531628032	65	4610
2026-01-04 22:09:16.25	96.79	19.63	-46.4	-49.0	17.7	0.00e+00	0	43	0	536870912	64	4822
2026-01-04 22:09:19.40	97.56	19.57	-46.3	-48.8	17.9	0.00e+00	0	42	0	543162368	64	4717
2026-01-04 22:09:22.26	98.25	19.51	-46.8	-49.4	17.3	0.00e+00	0	43	0	548405248	64	5085
2026-01-04 22:09:25.62	99.07	19.43	-46.7	-49.3	17.4	0.00e+00	0	43	0	554696704	64	5007
2026-01-04 22:09:28.55	99.77	19.35	-46.6	-49.2	17.6	0.00e+00	0	43	0	559939584	64	4937
2026-01-04 22:09:31.84	100.56	19.27	-46.2	-48.7	18.0	0.00e+00	0	42	0	566231040	64	4669
2026-01-04 22:09:34.57	101.21	19.19	-45.8	-48.2	18.5	0.00e+00	0	42	0	571473920	63	4683
2026-01-04 22:09:37.86	101.99	19.09	-45.9	-48.3	18.4	0.00e+00	0	42	0	577765376	63	4728
2026-01-04 22:09:40.71	102.67	19.01	-46.1	-48.6	18.2	0.00e+00	0	43	0	583008256	63	4886
2026-01-04 22:09:43.85	103.40	18.91	-46.3	-48.8	17.9	0.00e+00	0	43	0	589299712	63	5022
2026-01-04 22:09:46.72	104.07	18.81	-45.9	-48.3	18.4	0.00e+00	0	43	0	594542592	63	4751
2026-01-04 22:09:50.10	104.85	18.69	-45.5	-47.9	18.8	0.00e+00	0	42	0	600834048	63	4506
2026-01-04 22:09:53.27	105.58	18.58	-45.4	-47.7	19.0	0.00e+00	0	43	0	607125504	62	4653
2026-01-04 22:09:56.13	106.23	18.48	-45.3	-47.5	19.1	0.00e+00	0	43	0	612368384	62	4595
2026-01-04 22:09:59.34	106.96	18.35	-45.3	-47.6	19.0	0.00e+00	0	42	0	617611264	62	4641
2026-01-04 22:10:02.20	107.60	18.24	-45.6	-48.0	18.7	0.00e+00	0	42	0	623902720	62	4846
2026-01-04 22:10:05.80	108.41	18.10	-45.8	-48.2	18.5	0.00e+00	0	42	0	630194176	62	4945
2026-01-04 22:10:08.58	109.02	17.98	-45.9	-48.3	18.4	0.00e+00	0	43	0	635437056	62	5004
2026-01-04 22:10:11.88	109.74	17.84	-46.4	-48.9	17.8	0.00e+00	0	43	0	641728512	63	5066
2026-01-04 22:10:15.06	110.43	17.70	-46.3	-48.8	18.0	0.00e+00	0	43	0	648019968	63	4992
2026-01-04 22:10:18.19	111.11	17.56	-46.6	-49.2	17.5	0.00e+00	0	43	0	653262848	63	5239
2026-01-04 22:10:21.49	111.81	17.41	-46.7	-49.4	17.3	0.00e+00	0	43	0	659554304	64	5075
2026-01-04 22:10:24.21	112.39	17.29	-46.5	-49.2	17.5	0.00e+00	0	42	0	664797184	64	4946
2026-01-04 22:10:27.69	113.12	17.12	-46.8	-49.4	17.2	0.00e+00	0	43	0	671088640	64	5095
2026-01-04 22:10:30.68	113.74	16.98	-47.2	-50.0	16.7	0.00e+00	0	43	0	677380096	65	5153
2026-01-04 22:10:33.68	114.35	16.83	-47.1	-49.8	16.9	0.00e+00	0	43	0	682622976	65	5013
2026-01-04 22:10:36.69	114.97	16.68	-46.8	-49.4	17.2	0.00e+00	0	42	0	687865856	65	4791
2026-01-04 22:10:39.66	115.57	16.53	-47.0	-49.7	17.0	0.00e+00	0	42	0	694157312	65	4962
2026-01-04 22:10:43.24	116.28	16.35	-47.1	-49.9	16.8	0.00e+00	0	43	0	700448768	65	5071
2026-01-04 22:10:45.96	116.82	16.21	-47.1	-49.9	16.8	0.00e+00	0	43	0	705691648	65	5048
2026-01-04 22:10:49.25	117.46	16.03	-46.6	-49.3	17.3	0.00e+00	0	43	0	711983104	65	4723
2026-01-04 22:10:52.07	118.00	15.88	-46.3	-48.9	17.8	0.00e+00	0	43	0	717225984	64	4770
2026-01-04 22:10:55.77	118.71	15.69	-46.3	-48.9	17.7	0.00e+00	0	43	0	723517440	64	4804
2026-01-04 22:10:58.49	119.23	15.54	-46.6	-49.2	17.4	0.00e+00	0	43	0	728760320	64	4961
2026-01-04 22:11:01.78	119.84	15.36	-47.4	-50.3	16.3	0.00e+00	0	43	0	735051776	65	5338
2026-01-04 22:11:04.50	120.34	15.21	-47.7	-50.7	15.9	0.00e+00	0	43	0	740294656	66	5268
2026-01-04 22:11:07.77	120.94	15.03	-47.3	-50.2	16.5	0.00e+00	0	43	0	746586112	66	4946
2026-01-04 22:11:10.64	121.46	14.86	-46.7	-49.4	17.2	0.00e+00	0	43	0	751828992	65	4804
2026-01-04 22:11:13.78	122.02	14.69	-46.7	-49.7	16.9	0.00e+00	0	43	0	758120448	65	4954
2026-01-04 22:11:16.73	122.55	14.52	-46.6	-49.6	17.1	0.00e+00	0	43	0	763363328	65	4879
2026-01-04 22:11:19.95	123.11	14.33	-46.5	-49.2	17.4	0.00e+00	0	43	0	769654784	64	4968
2026-01-04 22:11:22.82	123.61	14.17	-46.8	-49.7	16.9	7.94e-04	0	43	0	774897664	64	5231
2026-01-04 22:11:25.96	124.14	13.99	-46.7	-49.5	16.7	2.47e-03	0	43	0	780140544	64	5143
2026-01-04 22:11:28.83	124.63	13.82	-46.6	-49.6	16.5	8.69e-03	0	43	0	785383424	64	5187
2026-01-04 22:11:31.98	125.16	13.64	-46.4	-49.5	16.7	9.04e-03	0	43	0	791674880	64	5104
2026-01-04 22:11:34.85	125.63	13.47	-46.5	-49.8	16.3	8.86e-03	0	43	0	796917760	64	5297
2026-01-04 22:11:38.00	126.15	13.28	-45.9	-49.3	16.8	8.68e-03	0	42	0	803209216	63	5303
2026-01-04 22:11:40.86	126.61	13.11	-45.8	-49.1	16.9	8.68e-03	0	43	0	808452096	63	5185
2026-01-04 22:11:44.00	127.11	12.93	-46.2	-49.7	16.5	5.36e-03	0	42	0	814743552	63	5565
2026-01-04 22:11:46.89	127.56	12.76	-46.4	-50.1	16.1	7.74e-03	0	43	0	819986432	64	5465
2026-01-04 22:11:50.08	128.06	12.57	-46.3	-49.7	16.4	4.92e-03	0	43	0	825229312	64	5273
2026-01-04 22:11:52.95	128.50	12.39	-46.6	-50.0	16.1	8.48e-03	0	43	0	831520768	64	5456
2026-01-04 22:11:56.09	128.98	12.21	-46.6	-50.3	15.8	8.40e-03	0	43	0	836763648	64	5651
2026-01-04 22:11:59.24	129.45	12.02	-47.1	-50.0	16.6	0.00e+00	0	43	0	843055104	65	5134
2026-01-04 22:12:02.48	129.94	11.82	-46.8	-49.6	17.0	0.00e+00	0	43	0	849346560	65	4875
2026-01-04 22:12:05.34	130.36	11.65	-47.0	-49.8	16.8	0.00e+00	0	43	0	854589440	65	4993
2026-01-04 22:12:08.50	130.81	11.46	-47.5	-50.5	16.0	7.00e-07	0	43	0	859832320	65	5456
2026-01-04 22:12:11.36	131.22	11.29	-47.6	-50.6	15.9	0.00e+00	0	43	0	866123776	65	5513
2026-01-04 22:12:14.51	131.67	11.10	-47.4	-50.6	15.9	7.00e-07	0	43	0	871366656	65	5469
2026-01-04 22:12:17.37	132.07	10.93	-47.2	-50.2	16.2	0.00e+00	0	43	0	876609536	65	5261
2026-01-04 22:12:20.72	132.53	10.73	-47.6	-50.7	15.9	0.00e+00	0	42	0	882900992	65	5538
2026-01-04 22:12:23.44	132.90	10.56	-47.8	-51.0	15.6	0.00e+00	0	43	0	888143872	66	5410
2026-01-04 22:12:26.73	133.35	10.36	-47.7	-50.7	15.8	0.00e+00	0	43	0	894435328	66	5258
2026-01-04 22:12:29.45	133.71	10.20	-47.8	-50.9	15.6	0.00e+00	0	43	0	899678208	66	5375
2026-01-04 22:12:32.78	134.15	10.00	-48.1	-51.4	15.1	0.00e+00	0	42	0	905969664	66	5711
2026-01-04 22:12:35.50	134.50	9.84	-48.3	-51.8	14.7	0.00e+00	0	43	0	911212544	67	5634
2026-01-04 22:12:38.80	134.92	9.64	-48.2	-51.6	14.8	0.00e+00	0	42	0	917504000	67	5524
2026-01-04 22:12:41.81	135.31	9.46	-47.8	-50.9	15.5	0.00e+00	0	43	0	922746880	67	5093
2026-01-04 22:12:45.10	135.72	9.26	-47.7	-50.9	15.5	0.00e+00	0	43	0	929038336	67	5065
2026-01-04 22:12:47.82	136.06	9.10	-48.0	-51.3	15.2	0.00e+00	0	43	0	934281216	67	5310
2026-01-04 22:12:51.12	136.46	8.90	-52.8	-68.1	3.8	1.49e+00	0	43	104	938475520	76	21855
2026-01-04 22:12:53.84	136.79	8.74	-52.9	-68.2	3.8	1.49e+00	0	43	104	938475520	76	22238
2026-01-04 22:12:57.18	137.19	8.54	-53.1	-68.3	3.8	1.49e+00	0	43	104	938475520	76	22406
2026-01-04 22:12:59.97	137.52	8.37	-53.3	-68.4	3.8	1.49e+00	0	43	104	938475520	77	21318
2026-01-04 22:13:03.27	137.90	8.18	-53.3	-68.4	3.8	1.49e+00	0	43	104	938475520	77	21305
2026-01-04 22:13:06.00	138.22	8.02	-52.9	-68.4	3.8	1.49e+00	0	43	104	938475520	77	21408
2026-01-04 22:13:09.29	138.59	7.82	-52.9	-68.4	3.8	1.49e+00	0	43	104	938475520	77	21384
2026-01-04 22:13:12.02	138.90	7.66	-52.9	-68.4	3.8	1.49e+00	0	43	104	938475520	77	21384
2026-01-04 22:13:15.32	139.27	7.47	-52.9	-68.4	3.8	1.49e+00	0	43	104	938475520	77	21331
2026-01-04 22:13:18.04	139.56	7.31	-52.9	-68.4	3.8	1.49e+00	0	43	104	938475520	77	21287
2026-01-04 22:13:21.34	139.92	7.12	-52.9	-68.3	3.8	1.49e+00	0	43	104	938475520	77	21247
2026-01-04 22:13:24.07	140.22	6.96	-52.9	-68.4	3.8	1.49e+00	0	43	104	938475520	77	21359
2026-01-04 22:13:27.37	140.57	6.76	-52.9	-68.3	3.8	1.49e+00	0	43	104	938475520	77	21227
2026-01-04 22:13:30.09	140.85	6.61	-52.9	-68.4	3.8	1.49e+00	0	43	104	938475520	77	21329
2026-01-04 22:13:33.40	141.20	6.41	-52.9	-68.3	3.8	1.49e+00	0	43	104	938475520	77	21218
2026-01-04 22:13:36.12	141.48	6.26	-52.9	-68.4	3.8	1.49e+00	0	43	104	938475520	77	21298
2026-01-04 22:13:39.42	141.81	6.07	-52.9	-68.4	3.8	1.49e+00	0	43	104	938475520	77	21338
2026-01-04 22:13:42.15	142.08	5.91	-52.9	-68.4	3.8	1.49e+00	0	43	104	938475520	77	21347
2026-01-04 22:13:45.44	142.41	5.72	-52.9	-68.3	3.8	1.49e+00	0	43	104	938475520	77	21231
2026-01-04 22:13:48.17	142.68	5.57	-52.9	-68.4	3.8	1.49e+00	0	43	104	938475520	77	21365
2026-01-04 22:13:51.47	143.00	5.38	-52.9	-68.4	3.8	1.49e+00	0	43	104	938475520	77	21332
2026-01-04 22:13:54.19	143.26	5.22	-52.9	-68.3	3.8	1.49e+00	0	43	104	938475520	77	21247
2026-01-04 22:13:57.49	143.57	5.04	-52.9	-68.4	3.8	1.49e+00	0	43	104	938475520	77	21351

#Closed at: 2026-01-04 22:13:59
#Recorded file [938 MB]: D:/Data/31040_260105_010318.dat