passes_logs/2026/01/04/T1/T1__20260104_121255_FENGYUN_3D_rec.log

#Pass ID: 20260104_121255_FENGYUN 3D
#Satellite: FENGYUN 3D
#Configuration: FENGYUN 3D
#almurnet v.1.7.20251203
#Start time: 2026-01-04 12:12:56

#Version: 2.0.20230620
#Station: T1
#Location: 37.570604 lon 55.790049 lat
#TLE: 1 43010U 17072A   26003.93866112 -.00000029  00000+0  82070-5 0  9995
#TLE: 2 43010  98.9913 335.5841 0001959 128.6134 231.5217 14.19691935421687

#Time	Az	El	Level	Level2	SNR	BER	BlckErr	Temp	State	Recorded	gain1	gain2
2026-01-04 12:12:56.13	168.42	5.07	-51.8	-65.6	3.8	8.46e-01	0	41	0	0	75	17393
2026-01-04 12:13:00.14	168.48	5.36	-50.2	-65.2	3.8	8.46e-01	0	41	104	0	71	20875
2026-01-04 12:13:04.16	168.55	5.65	-50.2	-65.5	3.8	8.47e-01	0	41	104	0	71	21548
2026-01-04 12:13:08.17	168.62	5.95	-50.2	-65.5	3.8	8.47e-01	0	41	104	0	71	21607
2026-01-04 12:13:12.19	168.69	6.25	-49.8	-63.6	3.8	8.46e-01	0	41	104	0	71	17397
2026-01-04 12:13:16.20	168.76	6.55	-50.1	-63.2	3.9	8.43e-01	0	42	104	0	71	16550
2026-01-04 12:13:20.22	168.84	6.85	-50.0	-64.3	3.8	8.48e-01	0	42	104	0	71	18873
2026-01-04 12:13:24.23	168.91	7.16	-50.0	-64.4	3.8	8.47e-01	0	42	104	0	71	19121
2026-01-04 12:13:28.25	168.99	7.48	-49.8	-61.4	4.3	8.36e-01	0	42	0	0	71	13425
2026-01-04 12:13:32.26	169.07	7.79	-49.2	-57.3	6.8	2.45e-01	0	42	0	8388608	70	8952
2026-01-04 12:13:36.26	169.15	8.11	-48.6	-54.7	9.5	1.77e-02	0	42	0	30408704	69	7015
2026-01-04 12:13:40.27	169.23	8.44	-48.5	-54.6	9.5	1.55e-02	0	42	0	53477376	68	7342
2026-01-04 12:13:44.28	169.31	8.77	-49.3	-57.8	6.5	2.14e-01	0	42	0	75497472	69	9981
2026-01-04 12:13:48.28	169.39	9.10	-50.1	-62.4	4.1	8.39e-01	0	42	0	81788928	71	15076
2026-01-04 12:13:52.45	169.48	9.45	-49.7	-55.8	8.6	4.50e-06	0	42	0	90177536	69	7932
2026-01-04 12:13:56.40	169.57	9.79	-49.7	-55.9	8.4	6.80e-02	0	43	0	105906176	71	7141
2026-01-04 12:14:00.41	169.66	10.14	-48.1	-52.5	11.8	1.97e-03	0	43	0	128974848	68	5766
2026-01-04 12:14:04.42	169.75	10.49	-47.7	-51.6	12.7	1.69e-04	0	43	0	150994944	66	5850
2026-01-04 12:14:08.47	169.84	10.85	-47.1	-50.3	14.0	3.40e-06	0	43	0	174063616	65	5334
2026-01-04 12:14:12.39	169.94	11.20	-45.8	-48.6	15.6	0.00e+00	0	43	0	196083712	63	4884
2026-01-04 12:14:16.39	170.03	11.57	-45.9	-48.7	15.7	0.00e+00	0	43	0	218103808	62	5257
2026-01-04 12:14:20.40	170.13	11.94	-44.6	-46.9	17.1	0.00e+00	0	43	0	241172480	61	4527
2026-01-04 12:14:24.40	170.23	12.32	-45.0	-47.4	16.8	0.00e+00	0	43	0	263192576	60	5078
2026-01-04 12:14:28.41	170.34	12.71	-44.0	-46.1	18.1	0.00e+00	0	43	0	286261248	60	4376
2026-01-04 12:14:32.42	170.44	13.10	-43.1	-45.1	18.8	0.00e+00	0	43	0	308281344	58	4388
2026-01-04 12:14:36.42	170.55	13.50	-42.5	-44.4	19.3	0.00e+00	0	43	0	331350016	56	4530
2026-01-04 12:14:40.42	170.66	13.90	-42.4	-44.3	19.4	0.00e+00	0	43	0	353370112	56	4493
2026-01-04 12:14:44.56	170.78	14.32	-42.5	-44.5	19.5	0.00e+00	0	43	0	376438784	56	4569
2026-01-04 12:14:48.57	170.90	14.74	-42.4	-44.3	19.7	0.00e+00	0	43	0	399507456	56	4453
2026-01-04 12:14:52.59	171.02	15.17	-42.4	-44.3	19.6	0.00e+00	0	43	0	422576128	56	4463
2026-01-04 12:14:56.60	171.14	15.60	-42.1	-44.0	20.0	0.00e+00	0	43	0	444596224	56	4332
2026-01-04 12:15:00.50	171.27	16.03	-41.7	-43.5	20.2	0.00e+00	0	43	0	466616320	55	4326
2026-01-04 12:15:04.52	171.40	16.48	-41.5	-43.4	20.3	0.00e+00	0	43	0	488636416	55	4243
2026-01-04 12:15:08.61	171.53	16.95	-41.4	-43.3	20.2	0.00e+00	0	43	0	511705088	54	4465
2026-01-04 12:15:12.61	171.67	17.41	-41.6	-43.4	20.2	0.00e+00	0	43	0	534773760	54	4528
2026-01-04 12:15:16.62	171.81	17.88	-41.6	-43.5	20.3	0.00e+00	0	43	0	556793856	54	4550
2026-01-04 12:15:20.63	171.96	18.37	-41.2	-43.0	20.6	0.00e+00	0	43	0	579862528	54	4316
2026-01-04 12:15:24.83	172.12	18.88	-40.9	-42.7	20.8	0.00e+00	0	43	0	602931200	53	4422
2026-01-04 12:15:28.84	172.27	19.39	-41.1	-42.9	20.8	0.00e+00	0	43	0	625999872	53	4514
2026-01-04 12:15:32.84	172.43	19.90	-40.9	-42.7	20.9	0.00e+00	0	43	0	649068544	53	4401
2026-01-04 12:15:36.85	172.60	20.42	-40.7	-42.5	21.0	0.00e+00	0	43	0	671088640	53	4320
2026-01-04 12:15:40.86	172.77	20.96	-40.6	-42.4	21.1	0.00e+00	0	43	0	693108736	52	4535
2026-01-04 12:15:44.86	172.94	21.51	-40.8	-42.6	21.1	0.00e+00	0	43	0	716177408	52	4618
2026-01-04 12:15:48.86	173.12	22.06	-40.6	-42.4	21.1	0.00e+00	0	43	0	738197504	52	4496
2026-01-04 12:15:52.97	173.32	22.65	-40.6	-42.4	21.3	0.00e+00	0	43	0	761266176	52	4504
2026-01-04 12:15:56.98	173.51	23.23	-40.2	-41.9	21.5	0.00e+00	0	43	0	784334848	52	4289
2026-01-04 12:16:01.02	173.71	23.83	-40.0	-41.8	21.7	0.00e+00	0	43	0	807403520	52	4204
2026-01-04 12:16:05.08	173.93	24.45	-39.9	-41.6	21.8	0.00e+00	0	43	0	830472192	51	4378
2026-01-04 12:16:09.09	174.14	25.08	-40.0	-41.8	21.8	0.00e+00	0	44	0	852492288	51	4448
2026-01-04 12:16:13.49	174.39	25.78	-40.0	-41.7	21.7	0.00e+00	0	43	0	877658112	51	4413
2026-01-04 12:16:17.50	174.63	26.44	-40.0	-41.8	21.6	0.00e+00	0	43	0	899678208	51	4474
2026-01-04 12:16:21.54	174.87	27.11	-40.2	-42.0	21.6	0.00e+00	0	43	0	922746880	51	4569
2026-01-04 12:16:25.54	175.13	27.80	-40.2	-42.0	21.6	0.00e+00	0	43	0	944766976	51	4553
2026-01-04 12:16:29.56	175.39	28.51	-39.9	-41.6	21.9	0.00e+00	0	43	0	967835648	51	4357
2026-01-04 12:16:33.57	175.67	29.23	-39.9	-41.7	21.9	0.00e+00	0	44	0	989855744	51	4401
2026-01-04 12:16:37.58	175.96	29.98	-40.1	-41.9	21.6	0.00e+00	0	43	0	1012924416	51	4503
2026-01-04 12:16:41.56	176.26	30.73	-40.0	-41.8	21.8	0.00e+00	0	43	0	1034944512	51	4452
2026-01-04 12:16:45.57	176.58	31.51	-39.8	-41.5	22.0	0.00e+00	0	43	0	1058013184	51	4322
2026-01-04 12:16:49.64	176.91	32.33	-39.8	-41.5	22.0	0.00e+00	0	43	0	1080033280	51	4328
2026-01-04 12:16:53.65	177.26	33.15	-39.9	-41.6	21.9	0.00e+00	0	43	0	1103101952	51	4380
2026-01-04 12:16:58.02	177.66	34.07	-39.8	-41.5	22.1	0.00e+00	0	44	0	1128267776	51	4314
2026-01-04 12:17:02.03	178.05	34.94	-39.1	-40.8	22.6	0.00e+00	0	43	0	1150287872	49	4470
2026-01-04 12:17:06.03	178.45	35.83	-39.5	-41.2	22.3	0.00e+00	0	43	0	1172307968	49	4679
2026-01-04 12:17:10.09	178.89	36.76	-39.2	-40.9	22.4	0.00e+00	0	43	0	1195376640	49	4523
2026-01-04 12:17:14.13	179.35	37.71	-39.4	-41.1	22.4	0.00e+00	0	43	0	1218445312	49	4648
2026-01-04 12:17:18.21	179.84	38.69	-39.4	-41.1	22.3	0.00e+00	0	43	0	1241513984	49	4635
2026-01-04 12:17:22.22	180.35	39.68	-39.6	-41.3	22.2	0.00e+00	0	43	0	1263534080	49	4745
2026-01-04 12:17:26.23	180.89	40.70	-39.6	-41.3	22.3	0.00e+00	0	43	0	1286602752	50	4458
2026-01-04 12:17:30.54	181.51	41.83	-40.0	-41.7	22.0	0.00e+00	0	44	0	1310720000	50	4677
2026-01-04 12:17:34.54	182.12	42.90	-40.1	-41.9	21.9	0.00e+00	0	43	0	1332740096	51	4519
2026-01-04 12:17:38.55	182.78	44.00	-40.2	-41.9	21.8	0.00e+00	0	43	0	1355808768	51	4535
2026-01-04 12:17:42.62	183.50	45.15	-40.5	-42.2	21.4	0.00e+00	0	43	0	1378877440	51	4702
2026-01-04 12:17:46.66	184.27	46.32	-39.9	-41.6	22.2	0.00e+00	0	44	0	1400897536	51	4375
2026-01-04 12:17:50.68	185.09	47.50	-39.4	-41.1	22.2	0.00e+00	0	43	0	1423966208	50	4391
2026-01-04 12:17:54.66	185.96	48.71	-39.8	-41.6	21.9	0.00e+00	0	43	0	1445986304	50	4600
2026-01-04 12:17:58.79	186.94	49.99	-40.6	-42.4	21.5	0.00e+00	0	43	0	1469054976	52	4497
2026-01-04 12:18:02.79	187.98	51.25	-40.7	-42.4	21.4	0.00e+00	0	43	0	1492123648	52	4527
2026-01-04 12:18:06.82	189.11	52.55	-40.7	-42.5	21.1	0.00e+00	0	43	0	1515192320	52	4583
2026-01-04 12:18:10.85	190.34	53.87	-40.5	-42.2	21.4	0.00e+00	0	43	0	1537212416	52	4417
2026-01-04 12:18:14.99	191.74	55.24	-41.3	-43.1	20.9	0.00e+00	0	43	0	1560281088	53	4627
2026-01-04 12:18:18.99	193.22	56.59	-40.6	-42.3	21.5	0.00e+00	0	43	0	1583349760	53	4224
2026-01-04 12:18:23.00	194.85	57.95	-40.4	-42.1	21.5	0.00e+00	0	43	0	1605369856	52	4373
2026-01-04 12:18:27.01	196.66	59.33	-39.9	-41.6	22.1	0.00e+00	0	44	0	1628438528	51	4355
2026-01-04 12:18:31.02	198.67	60.70	-39.8	-41.5	22.3	0.00e+00	0	43	0	1650458624	51	4308
2026-01-04 12:18:35.03	200.90	62.07	-39.3	-41.0	22.7	0.00e+00	0	43	0	1673527296	50	4303
2026-01-04 12:18:39.26	203.55	63.50	-39.3	-41.0	22.6	0.00e+00	0	43	0	1696595968	50	4305
2026-01-04 12:18:43.78	206.74	64.99	-39.1	-40.8	22.8	0.00e+00	0	43	0	1722810368	50	4203
2026-01-04 12:18:48.17	210.27	66.40	-39.6	-41.3	22.3	0.00e+00	0	43	0	1746927616	49	4729
2026-01-04 12:18:52.57	214.29	67.73	-39.5	-41.2	22.5	0.00e+00	0	43	0	1772093440	50	4437
2026-01-04 12:18:56.93	218.80	68.97	-39.7	-41.4	22.4	0.00e+00	0	43	0	1796210688	50	4510
2026-01-04 12:19:01.31	223.91	70.09	-39.1	-40.8	22.9	0.00e+00	0	43	0	1821376512	49	4449
2026-01-04 12:19:05.75	229.70	71.06	-38.4	-40.1	23.4	0.00e+00	0	43	0	1846542336	48	4366
2026-01-04 12:19:10.40	236.41	71.88	-38.8	-40.6	22.9	0.00e+00	0	43	0	1872756736	48	4604
2026-01-04 12:19:14.75	243.20	72.41	-38.4	-40.1	23.1	0.00e+00	0	43	0	1896873984	48	4357
2026-01-04 12:19:19.48	250.96	72.72	-38.2	-39.9	22.8	0.00e+00	0	43	0	1923088384	47	4528
2026-01-04 12:19:23.50	257.67	72.73	-38.2	-39.9	22.9	0.00e+00	0	43	0	1946157056	47	4541
2026-01-04 12:19:27.51	264.30	72.53	-37.8	-39.5	23.0	0.00e+00	0	43	0	1968177152	47	4315
2026-01-04 12:19:31.51	270.66	72.11	-38.3	-40.0	22.9	0.00e+00	0	43	0	1991245824	47	4570
2026-01-04 12:19:35.52	276.67	71.50	-38.3	-40.0	23.0	0.00e+00	0	43	0	2013265920	47	4580
2026-01-04 12:19:39.53	282.22	70.72	-38.3	-40.0	22.9	0.00e+00	0	43	0	2036334592	47	4550
2026-01-04 12:19:43.53	287.25	69.79	-38.2	-39.9	22.8	0.00e+00	0	43	0	2058354688	47	4509
2026-01-04 12:19:47.54	291.79	68.74	-39.0	-40.7	22.8	0.00e+00	0	43	0	2081423360	48	4657
2026-01-04 12:19:51.55	295.86	67.59	-39.3	-41.0	22.7	0.00e+00	0	43	0	2103443456	49	4580
2026-01-04 12:19:55.56	299.48	66.37	-39.0	-40.7	22.8	0.00e+00	0	43	0	2126512128	49	4404
2026-01-04 12:19:59.56	302.70	65.09	-39.3	-41.0	22.6	3.40e-06	0	43	0	2148532224	49	4566
2026-01-04 12:20:03.56	305.57	63.78	-39.3	-41.0	22.6	0.00e+00	0	43	0	2171600896	49	4587
2026-01-04 12:20:07.76	308.25	62.37	-38.8	-40.5	22.8	0.00e+00	0	43	0	2194669568	49	4309
2026-01-04 12:20:12.22	310.78	60.85	-39.9	-41.6	22.3	0.00e+00	0	43	0	2219835392	50	4637
2026-01-04 12:20:16.28	312.83	59.46	-40.2	-41.9	21.9	0.00e+00	0	43	0	2242904064	51	4542
2026-01-04 12:20:20.29	314.65	58.10	-40.2	-41.9	21.9	0.00e+00	0	43	0	2265972736	51	4542
2026-01-04 12:20:24.30	316.30	56.74	-40.5	-42.3	21.7	0.00e+00	0	43	0	2287992832	51	4708
2026-01-04 12:20:28.31	317.79	55.39	-40.6	-42.3	21.5	0.00e+00	0	43	0	2310012928	51	4744
2026-01-04 12:20:32.32	319.15	54.06	-40.9	-42.6	21.7	0.00e+00	0	43	0	2333081600	52	4631
2026-01-04 12:20:36.31	320.39	52.75	-40.7	-42.4	21.8	0.00e+00	0	43	0	2355101696	52	4519
2026-01-04 12:20:40.38	321.54	51.45	-40.1	-41.8	22.3	0.00e+00	0	43	0	2378170368	52	4200
2026-01-04 12:20:44.45	322.60	50.16	-39.9	-41.6	22.5	0.00e+00	0	43	0	2401239040	51	4356
2026-01-04 12:20:48.56	323.59	48.89	-39.8	-41.4	22.8	0.00e+00	0	43	0	2424307712	50	4523
2026-01-04 12:20:52.63	324.49	47.66	-39.9	-41.6	22.5	0.00e+00	0	43	0	2447376384	50	4607
2026-01-04 12:20:56.66	325.32	46.47	-40.3	-42.0	22.4	0.00e+00	0	43	0	2470445056	51	4551
2026-01-04 12:21:00.73	326.09	45.30	-39.6	-41.3	22.6	0.00e+00	0	43	0	2493513728	51	4209
2026-01-04 12:21:04.99	326.85	44.10	-39.7	-41.4	22.6	0.00e+00	0	43	0	2516582400	51	4258
2026-01-04 12:21:08.99	327.51	43.01	-39.2	-40.8	23.1	0.00e+00	0	43	0	2539651072	50	4226
2026-01-04 12:21:12.99	328.12	41.94	-39.4	-41.0	23.0	0.00e+00	0	43	0	2561671168	50	4324
2026-01-04 12:21:17.16	328.73	40.85	-39.0	-40.7	23.1	0.00e+00	0	43	0	2584739840	50	4151
2026-01-04 12:21:21.23	329.28	39.82	-39.4	-41.0	22.9	0.00e+00	0	43	0	2607808512	50	4324
2026-01-04 12:21:25.24	329.79	38.83	-39.6	-41.3	22.8	0.00e+00	0	43	0	2630877184	50	4451
2026-01-04 12:21:29.25	330.28	37.87	-39.4	-41.1	22.9	0.00e+00	0	43	0	2652897280	50	4348
2026-01-04 12:21:33.25	330.73	36.93	-39.5	-41.2	22.7	0.00e+00	0	43	0	2675965952	50	4429
2026-01-04 12:21:37.30	331.17	36.01	-39.2	-40.8	23.0	0.00e+00	0	43	0	2699034624	50	4217
2026-01-04 12:21:41.31	331.58	35.12	-39.3	-41.0	22.9	0.00e+00	0	43	0	2721054720	49	4552
2026-01-04 12:21:45.31	331.97	34.25	-39.5	-41.2	22.7	0.00e+00	0	43	0	2743074816	49	4671
2026-01-04 12:21:49.32	332.34	33.41	-39.3	-41.0	22.8	0.00e+00	0	43	0	2766143488	49	4585
2026-01-04 12:21:53.32	332.69	32.58	-39.2	-40.9	22.9	0.00e+00	0	43	0	2789212160	49	4510
2026-01-04 12:21:57.66	333.05	31.72	-39.4	-41.0	22.8	0.00e+00	0	43	0	2813329408	49	4577
2026-01-04 12:22:01.83	333.39	30.91	-40.0	-41.6	22.5	0.00e+00	0	43	0	2836398080	50	4646
2026-01-04 12:22:05.86	333.69	30.14	-39.8	-41.4	22.7	0.00e+00	0	43	0	2859466752	50	4532
2026-01-04 12:22:09.86	333.98	29.40	-39.2	-40.9	22.8	0.00e+00	0	43	0	2881486848	50	4253
2026-01-04 12:22:13.87	334.26	28.68	-39.3	-41.0	22.8	0.00e+00	0	43	0	2904555520	50	4308
2026-01-04 12:22:17.97	334.54	27.96	-39.7	-41.4	22.5	0.00e+00	0	43	0	2927624192	50	4537
2026-01-04 12:22:22.09	334.80	27.25	-39.7	-41.4	22.5	0.00e+00	0	43	0	2950692864	50	4511
2026-01-04 12:22:26.65	335.08	26.49	-39.8	-41.4	22.6	0.00e+00	0	43	0	2975858688	50	4538
2026-01-04 12:22:30.69	335.32	25.84	-39.7	-41.3	22.7	0.00e+00	0	43	0	2998927360	50	4481
2026-01-04 12:22:34.70	335.55	25.20	-39.7	-41.4	22.4	0.00e+00	0	43	0	3020947456	50	4521
2026-01-04 12:22:39.10	335.79	24.52	-40.0	-41.7	22.1	0.00e+00	0	43	0	3046113280	50	4661
2026-01-04 12:22:43.75	336.03	23.81	-40.0	-41.7	21.9	0.00e+00	0	43	0	3072327680	51	4401
2026-01-04 12:22:48.15	336.25	23.17	-40.4	-42.2	21.9	0.00e+00	0	43	0	3097493504	51	4659
2026-01-04 12:22:52.48	336.46	22.54	-40.5	-42.3	21.8	0.00e+00	0	43	0	3121610752	51	4710
2026-01-04 12:22:57.08	336.68	21.90	-40.6	-42.3	21.7	0.00e+00	0	43	0	3147825152	52	4481
2026-01-04 12:23:01.04	336.86	21.35	-40.7	-42.4	21.6	0.00e+00	0	43	0	3169845248	52	4537
2026-01-04 12:23:05.15	337.04	20.80	-40.5	-42.3	21.4	0.00e+00	0	43	0	3192913920	52	4444
2026-01-04 12:23:09.22	337.21	20.27	-40.6	-42.5	21.3	0.00e+00	0	43	0	3215982592	52	4559
2026-01-04 12:23:13.44	337.38	19.72	-41.0	-42.8	21.1	0.00e+00	0	43	0	3239051264	52	4727
2026-01-04 12:23:17.61	337.55	19.20	-41.3	-43.1	20.9	0.00e+00	0	43	0	3263168512	53	4608
2026-01-04 12:23:22.06	337.72	18.65	-41.3	-43.0	21.1	0.00e+00	0	43	0	3287285760	53	4597
2026-01-04 12:23:26.52	337.88	18.11	-41.1	-42.9	21.0	0.00e+00	0	43	0	3313500160	53	4521
2026-01-04 12:23:30.53	338.03	17.64	-41.1	-42.9	20.9	0.00e+00	0	43	0	3335520256	53	4520
2026-01-04 12:23:34.55	338.17	17.17	-41.2	-42.9	20.7	0.00e+00	0	43	0	3358588928	53	4541
2026-01-04 12:23:38.56	338.31	16.72	-41.1	-42.9	20.6	0.00e+00	0	43	0	3380609024	53	4532
2026-01-04 12:23:42.57	338.44	16.27	-41.8	-43.7	20.4	0.00e+00	0	42	0	3403677696	54	4673
2026-01-04 12:23:46.59	338.57	15.83	-41.9	-43.8	20.2	0.00e+00	0	43	0	3425697792	54	4745
2026-01-04 12:23:50.60	338.70	15.39	-41.8	-43.8	20.1	0.00e+00	0	43	0	3448766464	54	4715
2026-01-04 12:23:54.61	338.83	14.97	-42.0	-44.0	20.0	0.00e+00	0	43	0	3470786560	54	4816
2026-01-04 12:23:58.83	338.95	14.53	-42.3	-44.3	19.9	0.00e+00	0	43	0	3494903808	55	4714
2026-01-04 12:24:03.19	339.08	14.08	-42.4	-44.4	19.8	0.00e+00	0	43	0	3519021056	55	4795
2026-01-04 12:24:07.20	339.20	13.68	-42.2	-44.3	19.6	0.00e+00	0	43	0	3542089728	55	4733
2026-01-04 12:24:11.38	339.31	13.27	-42.1	-44.0	19.7	0.00e+00	0	42	0	3565158400	55	4593
2026-01-04 12:24:15.60	339.43	12.86	-42.4	-44.3	19.6	0.00e+00	0	43	0	3589275648	55	4738
2026-01-04 12:24:19.60	339.54	12.47	-42.6	-44.5	19.6	0.00e+00	0	43	0	3611295744	56	4581
2026-01-04 12:24:23.61	339.64	12.10	-42.8	-44.8	19.4	0.00e+00	0	42	0	3634364416	56	4728
2026-01-04 12:24:27.62	339.75	11.72	-42.7	-44.7	19.3	0.00e+00	0	42	0	3656384512	56	4692
2026-01-04 12:24:31.69	339.85	11.35	-42.6	-44.6	19.2	0.00e+00	0	43	0	3679453184	56	4639
2026-01-04 12:24:35.70	339.95	10.99	-42.8	-44.8	19.1	0.00e+00	0	42	0	3702521856	56	4718
2026-01-04 12:24:39.79	340.04	10.63	-43.0	-44.9	19.0	0.00e+00	0	42	0	3725590528	56	4804
2026-01-04 12:24:43.79	340.14	10.28	-44.0	-45.9	18.9	0.00e+00	0	42	0	3747610624	58	4801
2026-01-04 12:24:47.80	340.23	9.93	-44.3	-46.4	18.5	0.00e+00	0	43	0	3769630720	59	4763
2026-01-04 12:24:51.90	340.33	9.58	-44.2	-46.3	18.5	0.00e+00	0	42	0	3792699392	59	4716
2026-01-04 12:24:55.91	340.42	9.25	-43.2	-45.2	18.5	5.24e-04	0	42	0	3815768064	58	4422
2026-01-04 12:24:59.92	340.50	8.92	-50.9	-65.2	3.8	8.47e-01	0	42	104	3832545280	73	18679
2026-01-04 12:25:03.93	340.59	8.59	-52.6	-65.6	3.8	8.47e-01	0	42	104	3832545280	76	16325
2026-01-04 12:25:07.95	340.67	8.26	-53.1	-65.6	3.8	8.47e-01	0	42	104	3832545280	77	15405
2026-01-04 12:25:11.96	340.76	7.94	-53.5	-65.8	3.8	8.47e-01	0	43	104	3832545280	77	15805
2026-01-04 12:25:15.98	340.84	7.63	-53.3	-65.7	3.8	8.47e-01	0	43	104	3832545280	77	15623
2026-01-04 12:25:20.32	340.93	7.29	-53.4	-65.6	3.8	8.47e-01	0	43	104	3832545280	77	15556
2026-01-04 12:25:24.43	341.01	6.98	-53.2	-65.7	3.8	8.46e-01	0	42	104	3832545280	77	15593
2026-01-04 12:25:28.44	341.09	6.67	-53.3	-65.8	3.8	8.49e-01	0	42	104	3832545280	77	15815
2026-01-04 12:25:32.45	341.16	6.37	-53.5	-65.9	3.8	8.47e-01	0	42	104	3832545280	77	15954
2026-01-04 12:25:36.47	341.24	6.07	-53.3	-65.8	3.8	8.47e-01	0	43	104	3832545280	77	15793
2026-01-04 12:25:40.49	341.31	5.78	-53.2	-65.7	3.8	8.47e-01	0	43	104	3832545280	77	15640
2026-01-04 12:25:44.50	341.39	5.49	-54.2	-66.7	3.8	8.48e-01	0	43	104	3832545280	79	15697
2026-01-04 12:25:48.52	341.46	5.20	-53.4	-66.0	3.8	8.47e-01	0	42	104	3832545280	77	16135

#Closed at: 2026-01-04 12:25:52
#Recorded file [3832 MB]: D:/Data/31040_260104_151256.dat