passes_logs/2026/01/04/T1/T1__20260104_211424_NOAA_21_JPSS-2_rec.log

#Pass ID: 20260104_211424_NOAA 21 (JPSS-2)
#Satellite: NOAA 21 (JPSS-2)
#Configuration: NOAA 21
#almurnet v.1.7.20251203
#Start time: 2026-01-04 21:14:24

#Version: 2.0.20230620
#Station: T1
#Location: 37.570604 lon 55.790049 lat
#TLE: 1 54234U 22150A   26004.22845673  .00000174  00000+0  10347-3 0  9996
#TLE: 2 54234  98.7489 305.2591 0001115 345.0884  15.0259 14.19531906163281

#Time	Az	El	Level	Level2	SNR	BER	BlckErr	Temp	State	Recorded	gain1	gain2
2026-01-04 21:14:24.25	48.23	5.01	-51.8	-65.2	3.8	1.49e+00	0	36	0	0	74	17606
2026-01-04 21:14:26.26	48.50	5.07	-51.8	-65.2	3.8	1.49e+00	0	36	104	0	75	16584
2026-01-04 21:14:28.26	48.78	5.13	-51.9	-65.2	3.8	1.49e+00	0	36	104	0	75	16639
2026-01-04 21:14:30.27	49.06	5.19	-51.9	-65.2	3.8	1.49e+00	0	36	104	0	75	16583
2026-01-04 21:14:32.28	49.33	5.25	-51.9	-65.2	3.8	1.49e+00	0	36	104	0	75	16648
2026-01-04 21:14:34.29	49.61	5.30	-51.9	-65.2	3.8	1.49e+00	0	36	104	0	75	16680
2026-01-04 21:14:36.30	49.89	5.36	-51.9	-65.2	3.8	1.49e+00	0	36	104	0	75	16658
2026-01-04 21:14:38.31	50.18	5.42	-51.9	-65.3	3.8	1.49e+00	0	36	104	0	75	16727
2026-01-04 21:14:40.31	50.46	5.48	-51.9	-65.3	3.8	1.49e+00	0	37	104	0	75	16719
2026-01-04 21:14:42.32	50.74	5.53	-51.9	-65.3	3.8	1.49e+00	0	37	104	0	75	16715
2026-01-04 21:14:44.33	51.03	5.59	-51.9	-65.2	3.8	1.49e+00	0	37	104	0	75	16677
2026-01-04 21:14:46.34	51.31	5.65	-51.9	-65.2	3.8	1.49e+00	0	37	104	0	75	16636
2026-01-04 21:14:48.35	51.60	5.70	-51.9	-65.2	3.8	1.49e+00	0	37	104	0	75	16667
2026-01-04 21:14:50.36	51.89	5.76	-51.9	-65.2	3.8	1.49e+00	0	37	104	0	75	16619
2026-01-04 21:14:52.36	52.17	5.81	-51.9	-65.2	3.8	1.49e+00	0	37	104	0	75	16639
2026-01-04 21:14:54.37	52.46	5.86	-51.9	-65.2	3.8	1.49e+00	0	37	104	0	75	16683
2026-01-04 21:14:56.38	52.76	5.92	-51.9	-65.3	3.8	1.49e+00	0	37	104	0	75	16699
2026-01-04 21:14:58.39	53.05	5.97	-51.9	-65.2	3.8	1.49e+00	0	37	104	0	75	16682
2026-01-04 21:15:00.40	53.34	6.02	-51.9	-65.3	3.8	1.49e+00	0	37	104	0	75	16714
2026-01-04 21:15:02.41	53.64	6.08	-51.9	-65.3	3.8	1.49e+00	0	37	104	0	75	16703
2026-01-04 21:15:04.41	53.93	6.13	-51.9	-65.3	3.8	1.49e+00	0	38	104	0	75	16750
2026-01-04 21:15:06.42	54.23	6.18	-51.9	-65.3	3.8	1.49e+00	0	37	104	0	75	16741
2026-01-04 21:15:08.43	54.52	6.23	-51.9	-65.3	3.8	1.49e+00	0	37	104	0	75	16744
2026-01-04 21:15:10.44	54.82	6.28	-51.8	-65.2	3.8	1.49e+00	0	38	104	0	75	16575
2026-01-04 21:15:12.45	55.12	6.33	-51.9	-65.3	3.8	1.49e+00	0	37	104	0	75	16734
2026-01-04 21:15:14.46	55.42	6.38	-51.9	-65.3	3.8	1.49e+00	0	38	104	0	75	16814
2026-01-04 21:15:16.47	55.72	6.42	-51.9	-65.3	3.8	1.49e+00	0	38	104	0	75	16849
2026-01-04 21:15:18.48	56.02	6.47	-51.9	-65.3	3.8	1.49e+00	0	37	104	0	75	16826
2026-01-04 21:15:20.48	56.33	6.52	-51.9	-65.3	3.8	1.49e+00	0	38	104	0	75	16817
2026-01-04 21:15:22.49	56.63	6.56	-52.0	-65.3	3.8	1.49e+00	0	38	104	0	75	16781
2026-01-04 21:15:24.50	56.94	6.61	-51.9	-65.3	3.8	1.49e+00	0	38	104	0	75	16810
2026-01-04 21:15:26.51	57.24	6.66	-52.0	-65.3	3.8	1.49e+00	0	38	104	0	75	16824
2026-01-04 21:15:28.52	57.55	6.70	-52.0	-65.3	3.8	1.49e+00	0	38	104	0	75	16815
2026-01-04 21:15:30.53	57.86	6.74	-52.0	-65.4	3.8	1.49e+00	0	38	104	0	75	16936
2026-01-04 21:15:32.54	58.16	6.79	-52.0	-65.4	3.8	1.49e+00	0	38	104	0	75	16908
2026-01-04 21:15:34.54	58.47	6.83	-52.0	-65.3	3.8	1.49e+00	0	38	104	0	75	16824
2026-01-04 21:15:36.55	58.78	6.87	-52.0	-65.3	3.8	1.49e+00	0	38	104	0	75	16876
2026-01-04 21:15:38.56	59.09	6.91	-52.0	-65.4	3.8	1.49e+00	0	38	104	0	75	16929
2026-01-04 21:15:40.57	59.41	6.95	-52.0	-65.3	3.8	1.49e+00	0	38	104	0	75	16874
2026-01-04 21:15:42.58	59.72	6.99	-51.9	-65.3	3.8	1.49e+00	0	38	104	0	75	16738
2026-01-04 21:15:44.59	60.03	7.03	-52.0	-65.4	3.8	1.49e+00	0	38	104	0	75	16976
2026-01-04 21:15:46.59	60.35	7.07	-52.0	-65.4	3.8	1.49e+00	0	38	104	0	75	16947
2026-01-04 21:15:48.60	60.66	7.11	-52.0	-65.4	3.8	1.49e+00	0	38	104	0	75	16913
2026-01-04 21:15:50.61	60.98	7.15	-52.0	-65.4	3.8	1.49e+00	0	38	104	0	75	16912
2026-01-04 21:15:52.62	61.30	7.18	-52.0	-65.4	3.8	1.49e+00	0	38	104	0	75	16937
2026-01-04 21:15:54.63	61.61	7.22	-52.0	-65.4	3.8	1.49e+00	0	38	104	0	75	16945
2026-01-04 21:15:56.64	61.93	7.26	-52.0	-65.4	3.8	1.49e+00	0	38	104	0	75	16952
2026-01-04 21:15:58.64	62.25	7.29	-51.9	-65.3	3.8	1.49e+00	0	38	104	0	75	16750
2026-01-04 21:16:00.65	62.57	7.32	-52.0	-65.4	3.8	1.49e+00	0	38	104	0	75	16954
2026-01-04 21:16:02.66	62.89	7.36	-52.1	-65.4	3.8	1.49e+00	0	38	104	0	75	17017
2026-01-04 21:16:04.67	63.21	7.39	-52.0	-65.3	3.8	1.49e+00	0	38	104	0	75	16825
2026-01-04 21:16:06.68	63.54	7.42	-52.0	-65.4	3.8	1.49e+00	0	38	104	0	75	17042
2026-01-04 21:16:08.68	63.86	7.45	-52.0	-65.3	3.8	1.49e+00	0	38	104	0	75	16758
2026-01-04 21:16:10.69	64.18	7.48	-52.0	-65.3	3.8	1.49e+00	0	38	104	0	75	16797
2026-01-04 21:16:12.70	64.51	7.51	-51.9	-65.4	3.8	1.49e+00	0	39	104	0	75	16951
2026-01-04 21:16:14.71	64.83	7.54	-51.9	-65.3	3.8	1.49e+00	0	38	104	0	75	16828
2026-01-04 21:16:16.72	65.16	7.57	-51.9	-65.2	3.8	1.49e+00	0	38	104	0	75	16689
2026-01-04 21:16:18.73	65.48	7.60	-51.9	-65.2	3.8	1.49e+00	0	39	104	0	75	16692
2026-01-04 21:16:20.73	65.81	7.62	-51.9	-65.2	3.8	1.49e+00	0	39	104	0	75	16644
2026-01-04 21:16:22.74	66.14	7.65	-51.9	-65.3	3.8	1.49e+00	0	39	104	0	75	16730
2026-01-04 21:16:24.75	66.46	7.67	-51.9	-65.3	3.8	1.49e+00	0	39	104	0	75	16697
2026-01-04 21:16:26.76	66.79	7.70	-51.9	-65.2	3.8	1.49e+00	0	38	104	0	75	16682
2026-01-04 21:16:28.77	67.12	7.72	-51.9	-65.2	3.8	1.49e+00	0	39	104	0	75	16670
2026-01-04 21:16:30.78	67.45	7.74	-51.9	-65.2	3.8	1.49e+00	0	39	104	0	75	16660
2026-01-04 21:16:32.79	67.78	7.77	-51.9	-65.2	3.8	1.49e+00	0	39	104	0	75	16561
2026-01-04 21:16:34.79	68.11	7.79	-51.9	-65.2	3.8	1.49e+00	0	38	104	0	75	16585
2026-01-04 21:16:36.80	68.44	7.81	-51.9	-65.2	3.8	1.49e+00	0	39	104	0	75	16653
2026-01-04 21:16:38.81	68.77	7.83	-51.9	-65.2	3.8	1.49e+00	0	39	104	0	75	16689
2026-01-04 21:16:40.82	69.10	7.85	-51.9	-65.2	3.8	1.49e+00	0	39	104	0	75	16587
2026-01-04 21:16:42.83	69.44	7.86	-51.8	-65.2	3.8	1.49e+00	0	39	104	0	75	16594
2026-01-04 21:16:44.84	69.77	7.88	-51.8	-65.2	3.8	1.49e+00	0	39	104	0	75	16627
2026-01-04 21:16:46.83	70.10	7.90	-51.9	-65.2	3.8	1.49e+00	0	39	104	0	75	16612
2026-01-04 21:16:48.84	70.43	7.91	-51.8	-65.2	3.8	1.49e+00	0	39	104	0	75	16565
2026-01-04 21:16:50.85	70.77	7.93	-51.8	-65.2	3.8	1.49e+00	0	39	104	0	75	16563
2026-01-04 21:16:52.85	71.10	7.94	-51.8	-65.2	3.8	1.49e+00	0	39	104	0	75	16588
2026-01-04 21:16:54.86	71.43	7.95	-51.8	-65.2	3.8	1.49e+00	0	39	104	0	75	16600
2026-01-04 21:16:56.87	71.77	7.97	-51.8	-65.2	3.8	1.49e+00	0	39	104	0	75	16547
2026-01-04 21:16:58.88	72.10	7.98	-51.8	-65.1	3.8	1.49e+00	0	39	104	0	75	16478
2026-01-04 21:17:00.89	72.44	7.99	-51.8	-65.1	3.8	1.49e+00	0	39	104	0	75	16486
2026-01-04 21:17:02.90	72.77	8.00	-51.8	-65.1	3.8	1.49e+00	0	39	104	0	75	16468
2026-01-04 21:17:04.90	73.11	8.01	-51.8	-65.2	3.8	1.49e+00	0	39	104	0	75	16505
2026-01-04 21:17:06.91	73.44	8.01	-51.8	-65.1	3.8	1.49e+00	0	39	104	0	75	16484
2026-01-04 21:17:08.92	73.78	8.02	-51.8	-65.2	3.8	1.49e+00	0	39	104	0	75	16509
2026-01-04 21:17:10.93	74.12	8.03	-51.9	-65.2	3.8	1.49e+00	0	39	104	0	75	16653
2026-01-04 21:17:12.94	74.45	8.03	-51.9	-65.2	3.8	1.49e+00	0	39	104	0	75	16630
2026-01-04 21:17:14.94	74.79	8.04	-51.9	-65.2	3.8	1.49e+00	0	39	104	0	75	16683
2026-01-04 21:17:16.95	75.12	8.04	-51.9	-65.3	3.8	1.49e+00	0	39	104	0	75	16753
2026-01-04 21:17:18.96	75.46	8.04	-51.9	-65.2	3.8	1.49e+00	0	39	104	0	75	16692
2026-01-04 21:17:20.97	75.80	8.05	-51.9	-65.2	3.8	1.49e+00	0	39	104	0	75	16664
2026-01-04 21:17:22.98	76.13	8.05	-51.9	-65.2	3.8	1.49e+00	0	39	104	0	75	16662
2026-01-04 21:17:24.99	76.47	8.05	-51.9	-65.2	3.8	1.49e+00	0	39	104	0	75	16671
2026-01-04 21:17:26.99	76.81	8.05	-51.9	-65.3	3.8	1.49e+00	0	39	104	0	75	16697
2026-01-04 21:17:29.00	77.14	8.05	-51.9	-65.2	3.8	1.49e+00	0	39	104	0	75	16691
2026-01-04 21:17:31.01	77.48	8.04	-51.9	-65.2	3.8	1.49e+00	0	39	104	0	75	16685
2026-01-04 21:17:33.02	77.82	8.04	-51.9	-65.3	3.8	1.49e+00	0	39	104	0	75	16734
2026-01-04 21:17:35.03	78.15	8.04	-51.9	-65.3	3.8	1.49e+00	0	39	104	0	75	16731
2026-01-04 21:17:37.04	78.49	8.03	-51.9	-65.3	3.8	1.49e+00	0	39	104	0	75	16726
2026-01-04 21:17:39.05	78.83	8.03	-51.9	-65.2	3.8	1.49e+00	0	39	104	0	75	16691
2026-01-04 21:17:41.05	79.16	8.02	-51.9	-65.3	3.8	1.49e+00	0	39	104	0	75	16750
2026-01-04 21:17:43.06	79.50	8.01	-51.9	-65.3	3.8	1.49e+00	0	39	104	0	75	16695
2026-01-04 21:17:45.07	79.84	8.00	-51.9	-65.2	3.8	1.49e+00	0	39	104	0	75	16653
2026-01-04 21:17:47.08	80.17	8.00	-51.9	-65.3	3.8	1.49e+00	0	39	104	0	75	16724
2026-01-04 21:17:49.09	80.51	7.99	-51.9	-65.2	3.8	1.49e+00	0	39	104	0	75	16651
2026-01-04 21:17:51.10	80.84	7.98	-51.9	-65.3	3.8	1.49e+00	0	39	104	0	75	16724
2026-01-04 21:17:53.11	81.18	7.96	-51.9	-65.2	3.8	1.49e+00	0	39	104	0	75	16640
2026-01-04 21:17:55.11	81.51	7.95	-51.9	-65.2	3.8	1.49e+00	0	39	104	0	75	16686
2026-01-04 21:17:57.12	81.85	7.94	-51.9	-65.2	3.8	1.49e+00	0	39	104	0	75	16682
2026-01-04 21:17:59.13	82.18	7.92	-51.9	-65.3	3.8	1.49e+00	0	39	104	0	75	16739
2026-01-04 21:18:01.14	82.52	7.91	-51.9	-65.2	3.8	1.49e+00	0	39	104	0	75	16687
2026-01-04 21:18:03.15	82.85	7.89	-51.9	-65.3	3.8	1.49e+00	0	39	104	0	75	16725
2026-01-04 21:18:05.15	83.18	7.88	-51.9	-65.2	3.8	1.49e+00	0	39	104	0	75	16666
2026-01-04 21:18:07.16	83.51	7.86	-51.9	-65.3	3.8	1.49e+00	0	39	104	0	75	16701
2026-01-04 21:18:09.17	83.85	7.84	-51.9	-65.3	3.8	1.49e+00	0	39	104	0	75	16738
2026-01-04 21:18:11.18	84.18	7.82	-51.9	-65.2	3.8	1.49e+00	0	39	104	0	75	16686
2026-01-04 21:18:13.19	84.51	7.80	-51.9	-65.2	3.8	1.49e+00	0	39	104	0	75	16681
2026-01-04 21:18:15.19	84.84	7.78	-51.9	-65.3	3.8	1.49e+00	0	39	104	0	75	16742
2026-01-04 21:18:17.20	85.17	7.76	-51.9	-65.2	3.8	1.49e+00	0	39	104	0	75	16656
2026-01-04 21:18:19.21	85.50	7.74	-51.9	-65.3	3.8	1.49e+00	0	39	104	0	75	16707
2026-01-04 21:18:21.22	85.83	7.72	-51.9	-65.2	3.8	1.49e+00	0	39	104	0	75	16678
2026-01-04 21:18:23.23	86.16	7.69	-51.9	-65.3	3.8	1.49e+00	0	39	104	0	75	16728
2026-01-04 21:18:25.24	86.49	7.67	-51.9	-65.3	3.8	1.49e+00	0	39	104	0	75	16736
2026-01-04 21:18:27.25	86.82	7.64	-51.9	-65.2	3.8	1.49e+00	0	39	104	0	75	16680
2026-01-04 21:18:29.26	87.15	7.62	-51.9	-65.2	3.8	1.49e+00	0	39	104	0	75	16680
2026-01-04 21:18:31.27	87.48	7.59	-51.9	-65.2	3.8	1.49e+00	0	39	104	0	75	16681
2026-01-04 21:18:33.27	87.80	7.56	-51.9	-65.3	3.8	1.49e+00	0	39	104	0	75	16704
2026-01-04 21:18:35.28	88.13	7.54	-51.9	-65.3	3.8	1.49e+00	0	39	104	0	75	16753
2026-01-04 21:18:37.29	88.46	7.51	-51.9	-65.3	3.8	1.49e+00	0	39	104	0	75	16776
2026-01-04 21:18:39.30	88.78	7.48	-51.9	-65.3	3.8	1.49e+00	0	39	104	0	75	16786
2026-01-04 21:18:41.31	89.10	7.45	-51.9	-65.3	3.8	1.49e+00	0	39	104	0	75	16811
2026-01-04 21:18:43.32	89.43	7.41	-51.9	-65.3	3.8	1.49e+00	0	39	104	0	75	16695
2026-01-04 21:18:45.33	89.75	7.38	-51.9	-65.3	3.8	1.49e+00	0	39	104	0	75	16788
2026-01-04 21:18:47.33	90.07	7.35	-51.9	-65.3	3.8	1.49e+00	0	39	104	0	75	16735
2026-01-04 21:18:49.34	90.39	7.32	-51.9	-65.3	3.8	1.49e+00	0	39	104	0	75	16744
2026-01-04 21:18:51.35	90.72	7.28	-51.9	-65.3	3.8	1.49e+00	0	40	104	0	75	16733
2026-01-04 21:18:53.36	91.04	7.25	-51.9	-65.3	3.8	1.49e+00	0	39	104	0	75	16736
2026-01-04 21:18:55.37	91.36	7.21	-51.9	-65.3	3.8	1.49e+00	0	39	104	0	75	16769
2026-01-04 21:18:57.37	91.67	7.18	-51.9	-65.3	3.8	1.49e+00	0	39	104	0	75	16747
2026-01-04 21:18:59.38	91.99	7.14	-51.9	-65.3	3.8	1.49e+00	0	39	104	0	75	16802
2026-01-04 21:19:01.39	92.31	7.10	-51.9	-65.3	3.8	1.49e+00	0	39	104	0	75	16752
2026-01-04 21:19:03.40	92.63	7.06	-51.9	-65.3	3.8	1.49e+00	0	39	104	0	75	16806
2026-01-04 21:19:05.41	92.94	7.02	-52.0	-65.3	3.8	1.49e+00	0	39	104	0	75	16784
2026-01-04 21:19:07.42	93.26	6.98	-52.0	-65.3	3.8	1.49e+00	0	39	104	0	75	16771
2026-01-04 21:19:09.42	93.57	6.94	-52.0	-65.3	3.8	1.49e+00	0	39	104	0	75	16810
2026-01-04 21:19:11.43	93.88	6.90	-51.9	-65.3	3.8	1.49e+00	0	39	104	0	75	16738
2026-01-04 21:19:13.44	94.19	6.86	-52.0	-65.3	3.8	1.49e+00	0	39	104	0	75	16877
2026-01-04 21:19:15.45	94.51	6.82	-51.9	-65.3	3.8	1.49e+00	0	39	104	0	75	16808
2026-01-04 21:19:17.46	94.82	6.77	-51.9	-65.3	3.8	1.49e+00	0	39	104	0	75	16781
2026-01-04 21:19:19.47	95.13	6.73	-51.9	-65.3	3.8	1.49e+00	0	39	104	0	75	16885
2026-01-04 21:19:21.48	95.44	6.69	-51.9	-65.3	3.8	1.49e+00	0	39	104	0	75	16766
2026-01-04 21:19:23.48	95.74	6.64	-52.0	-65.3	3.8	1.49e+00	0	39	104	0	75	16794
2026-01-04 21:19:25.49	96.05	6.60	-52.0	-65.3	3.8	1.49e+00	0	39	104	0	75	16864
2026-01-04 21:19:27.50	96.35	6.55	-52.0	-65.3	3.8	1.49e+00	0	39	104	0	75	16803
2026-01-04 21:19:29.51	96.66	6.50	-51.9	-65.3	3.8	1.49e+00	0	39	104	0	75	16768
2026-01-04 21:19:31.52	96.96	6.46	-51.9	-65.3	3.8	1.49e+00	0	39	104	0	75	16781
2026-01-04 21:19:33.53	97.27	6.41	-51.9	-65.3	3.8	1.49e+00	0	40	104	0	75	16805
2026-01-04 21:19:35.53	97.57	6.36	-52.0	-65.3	3.8	1.49e+00	0	39	104	0	75	16760
2026-01-04 21:19:37.54	97.87	6.31	-51.9	-65.3	3.8	1.49e+00	0	39	104	0	75	16833
2026-01-04 21:19:39.55	98.17	6.26	-51.9	-65.3	3.8	1.49e+00	0	39	104	0	75	16809
2026-01-04 21:19:41.56	98.47	6.21	-51.9	-65.3	3.8	1.49e+00	0	39	104	0	75	16765
2026-01-04 21:19:43.57	98.77	6.16	-51.9	-65.3	3.8	1.49e+00	0	39	104	0	75	16841
2026-01-04 21:19:45.58	99.07	6.11	-51.9	-65.3	3.8	1.49e+00	0	39	104	0	75	16830
2026-01-04 21:19:47.59	99.36	6.06	-51.9	-65.3	3.8	1.49e+00	0	40	104	0	75	16816
2026-01-04 21:19:49.60	99.66	6.00	-51.9	-65.3	3.8	1.49e+00	0	39	104	0	75	16798
2026-01-04 21:19:51.60	99.95	5.95	-51.9	-65.3	3.8	1.49e+00	0	39	104	0	75	16779
2026-01-04 21:19:53.61	100.24	5.90	-51.9	-65.3	3.8	1.49e+00	0	40	104	0	75	16806
2026-01-04 21:19:55.62	100.54	5.84	-51.9	-65.3	3.8	1.49e+00	0	40	104	0	75	16850
2026-01-04 21:19:57.63	100.83	5.79	-51.9	-65.3	3.8	1.49e+00	0	39	104	0	75	16760
2026-01-04 21:19:59.64	101.12	5.73	-51.9	-65.3	3.8	1.49e+00	0	40	104	0	75	16774
2026-01-04 21:20:01.65	101.41	5.68	-51.9	-65.3	3.8	1.49e+00	0	39	104	0	75	16791
2026-01-04 21:20:03.66	101.70	5.62	-51.9	-65.3	3.8	1.49e+00	0	39	104	0	75	16850
2026-01-04 21:20:05.66	101.98	5.57	-51.9	-65.3	3.8	1.49e+00	0	39	104	0	75	16746
2026-01-04 21:20:07.67	102.27	5.51	-51.9	-65.3	3.8	1.49e+00	0	40	104	0	75	16844
2026-01-04 21:20:09.68	102.55	5.45	-51.9	-65.3	3.8	1.49e+00	0	39	104	0	75	16827
2026-01-04 21:20:11.69	102.84	5.39	-51.9	-65.3	3.8	1.49e+00	0	39	104	0	75	16828
2026-01-04 21:20:13.70	103.12	5.34	-51.9	-65.3	3.8	1.49e+00	0	39	104	0	75	16808
2026-01-04 21:20:15.70	103.40	5.28	-52.0	-65.3	3.8	1.49e+00	0	39	104	0	75	16781
2026-01-04 21:20:17.71	103.68	5.22	-52.0	-65.3	3.8	1.49e+00	0	39	104	0	75	16788
2026-01-04 21:20:19.72	103.96	5.16	-52.0	-65.3	3.8	1.49e+00	0	40	104	0	75	16793
2026-01-04 21:20:21.73	104.24	5.10	-52.0	-65.4	3.8	1.49e+00	0	40	104	0	75	16888
2026-01-04 2