passes_logs/2026/01/04/T1/T1__20260104_111250_SUOMI_NPP_rec.log

#Pass ID: 20260104_111250_SUOMI NPP
#Satellite: SUOMI NPP
#Configuration: NPP
#almurnet v.1.7.20251203
#Start time: 2026-01-04 11:12:51

#Version: 2.0.20230620
#Station: T1
#Location: 37.570604 lon 55.790049 lat
#TLE: 1 37849U 11061A   26001.07732418  .00000182  00000+0  10735-3 0  9990
#TLE: 2 37849  98.7795 303.2470 0002580  87.2016 272.9455 14.19520779734739

#Time	Az	El	Level	Level2	SNR	BER	BlckErr	Temp	State	Recorded	gain1	gain2
2026-01-04 11:12:51.87	199.68	5.10	-47.7	-62.8	3.8	1.49e+00	0	40	0	0	67	19888
2026-01-04 11:12:54.88	199.89	5.30	-47.4	-62.4	3.8	1.49e+00	0	40	104	0	66	20290
2026-01-04 11:12:57.89	200.10	5.49	-47.3	-62.3	3.8	1.49e+00	0	40	104	0	66	20031
2026-01-04 11:13:00.90	200.31	5.69	-47.1	-62.2	3.8	1.49e+00	0	40	104	0	66	19796
2026-01-04 11:13:03.92	200.53	5.89	-47.0	-62.0	3.8	1.49e+00	0	41	104	0	66	19290
2026-01-04 11:13:06.93	200.75	6.09	-46.8	-61.8	3.8	1.49e+00	0	41	104	0	65	20071
2026-01-04 11:13:09.94	200.98	6.29	-46.7	-61.7	3.8	1.49e+00	0	41	104	0	65	19672
2026-01-04 11:13:12.96	201.21	6.49	-46.6	-61.6	3.8	1.49e+00	0	41	104	0	65	19397
2026-01-04 11:13:15.97	201.44	6.69	-46.5	-61.3	3.8	1.49e+00	0	41	104	0	65	18857
2026-01-04 11:13:18.99	201.67	6.90	-46.3	-61.2	3.8	1.49e+00	0	41	104	0	64	19787
2026-01-04 11:13:22.00	201.91	7.10	-46.3	-61.2	3.8	1.49e+00	0	41	104	0	64	19697
2026-01-04 11:13:25.01	202.14	7.31	-46.2	-61.0	3.8	1.49e+00	0	41	104	0	64	19240
2026-01-04 11:13:28.02	202.39	7.51	-46.0	-60.9	3.8	1.49e+00	0	41	104	0	63	20143
2026-01-04 11:13:31.04	202.63	7.72	-45.9	-60.8	3.8	1.49e+00	0	41	104	0	63	19887
2026-01-04 11:13:34.05	202.88	7.93	-45.6	-57.9	4.0	1.49e+00	0	42	104	0	63	14261
2026-01-04 11:13:37.06	203.14	8.14	-44.9	-53.5	5.9	4.30e-01	0	41	0	4194304	61	9694
2026-01-04 11:13:40.08	203.39	8.36	-44.6	-52.2	7.0	1.55e-01	0	42	0	9437184	60	8848
2026-01-04 11:13:43.09	203.65	8.57	-44.7	-53.3	6.0	2.94e-01	0	42	0	15728640	60	9983
2026-01-04 11:13:46.10	203.92	8.79	-45.0	-55.9	4.4	1.01e+00	0	42	0	20971520	60	13556
2026-01-04 11:13:49.11	204.18	9.00	-45.0	-58.4	3.8	1.49e+00	0	42	104	22020096	60	18011
2026-01-04 11:13:52.41	204.48	9.24	-46.5	-59.0	4.0	5.41e-01	0	42	0	22020096	65	14428
2026-01-04 11:13:55.35	204.75	9.46	-49.6	-60.5	4.5	1.24e+00	0	42	0	23068672	69	13651
2026-01-04 11:13:59.12	205.10	9.73	-51.6	-59.6	7.0	1.63e-01	0	42	0	30408704	74	9181
2026-01-04 11:14:01.95	205.37	9.94	-52.2	-65.3	3.8	1.03e+00	0	42	104	34603008	75	16729
2026-01-04 11:14:06.01	205.76	10.24	-52.2	-60.5	6.7	1.52e-01	0	42	0	38797312	75	9655
2026-01-04 11:14:08.76	206.03	10.45	-51.7	-58.1	9.2	4.06e-02	0	42	0	42991616	75	7303
2026-01-04 11:14:12.50	206.40	10.73	-51.2	-56.5	10.9	2.12e-03	0	42	0	50331648	74	6482
2026-01-04 11:14:15.28	206.68	10.94	-50.7	-55.5	11.8	6.97e-04	0	42	0	55574528	73	6123
2026-01-04 11:14:19.02	207.06	11.23	-50.7	-55.5	12.0	3.09e-04	0	42	0	62914560	73	6080
2026-01-04 11:14:21.78	207.35	11.44	-50.2	-54.5	12.9	1.58e-04	0	42	0	68157440	72	5730
2026-01-04 11:14:25.55	207.75	11.73	-49.1	-52.5	14.9	0.00e+00	0	42	0	74448896	70	5122
2026-01-04 11:14:28.40	208.06	11.96	-48.5	-51.5	16.0	0.00e+00	0	42	0	80740352	68	5146
2026-01-04 11:14:32.14	208.47	12.25	-48.0	-50.8	16.7	0.00e+00	0	42	0	87031808	68	4738
2026-01-04 11:14:35.21	208.81	12.49	-47.4	-50.0	17.4	0.00e+00	0	42	0	93323264	66	4863
2026-01-04 11:14:39.01	209.25	12.80	-47.1	-49.7	17.7	0.00e+00	0	43	0	100663296	66	4677
2026-01-04 11:14:41.75	209.56	13.02	-47.2	-49.8	17.6	0.00e+00	0	42	0	104857600	66	4757
2026-01-04 11:14:45.53	210.01	13.32	-47.8	-50.5	17.0	0.00e+00	0	42	0	112197632	66	5149
2026-01-04 11:14:48.63	210.38	13.57	-47.8	-50.6	16.9	0.00e+00	0	42	0	118489088	66	5184
2026-01-04 11:14:52.43	210.84	13.88	-47.8	-50.5	17.0	0.00e+00	0	43	0	125829120	66	5114
2026-01-04 11:14:55.17	211.18	14.11	-47.7	-50.4	17.1	0.00e+00	0	42	0	130023424	66	5055
2026-01-04 11:14:59.17	211.69	14.44	-47.5	-50.1	17.4	0.00e+00	0	43	0	138412032	66	4896
2026-01-04 11:15:01.94	212.05	14.67	-47.8	-50.5	17.0	0.00e+00	0	43	0	143654912	66	5123
2026-01-04 11:15:05.76	212.55	14.99	-47.9	-50.7	16.7	0.00e+00	0	42	0	149946368	66	5279
2026-01-04 11:15:08.50	212.91	15.22	-47.9	-50.8	16.8	0.00e+00	0	42	0	155189248	66	5283
2026-01-04 11:15:12.03	213.39	15.52	-47.6	-50.3	17.2	0.00e+00	0	42	0	162529280	66	5025
2026-01-04 11:15:15.04	213.81	15.78	-47.6	-50.3	17.2	0.00e+00	0	42	0	167772160	66	4997
2026-01-04 11:15:18.05	214.23	16.04	-48.0	-50.7	16.8	0.00e+00	0	42	0	173015040	66	5279
2026-01-04 11:15:21.09	214.67	16.30	-48.1	-51.0	16.6	0.00e+00	0	42	0	179306496	67	5118
2026-01-04 11:15:24.50	215.16	16.59	-48.4	-51.4	16.2	0.00e+00	0	43	0	185597952	67	5388
2026-01-04 11:15:27.22	215.57	16.83	-48.4	-51.4	16.3	0.00e+00	0	42	0	190840832	67	5350
2026-01-04 11:15:30.52	216.06	17.12	-48.3	-51.2	16.4	0.00e+00	0	42	0	197132288	67	5260
2026-01-04 11:15:33.24	216.48	17.36	-47.9	-50.6	17.0	0.00e+00	0	42	0	202375168	67	4917
2026-01-04 11:15:36.54	217.00	17.65	-47.8	-50.5	17.1	0.00e+00	0	43	0	207618048	67	4821
2026-01-04 11:15:39.26	217.43	17.89	-47.6	-50.2	17.4	0.00e+00	0	42	0	212860928	66	4956
2026-01-04 11:15:42.74	217.99	18.20	-47.3	-49.9	17.7	0.00e+00	0	42	0	220200960	66	4771
2026-01-04 11:15:45.74	218.48	18.47	-47.3	-49.9	17.6	0.00e+00	0	43	0	225443840	66	4778
2026-01-04 11:15:48.75	218.99	18.73	-47.4	-50.0	17.5	0.00e+00	0	42	0	230686720	66	4867
2026-01-04 11:15:51.76	219.50	19.00	-47.2	-49.7	17.7	0.00e+00	0	42	0	236978176	66	4697
2026-01-04 11:15:54.97	220.06	19.29	-47.1	-49.6	18.0	0.00e+00	0	43	0	242221056	66	4602
2026-01-04 11:15:57.84	220.56	19.55	-47.1	-49.6	17.9	0.00e+00	0	43	0	248512512	65	4923
2026-01-04 11:16:00.99	221.13	19.84	-46.9	-49.4	18.1	0.00e+00	0	43	0	253755392	65	4793
2026-01-04 11:16:03.86	221.65	20.09	-46.8	-49.2	18.3	0.00e+00	0	43	0	258998272	65	4694
2026-01-04 11:16:07.13	222.26	20.39	-46.6	-49.0	18.5	0.00e+00	0	43	0	265289728	65	4567
2026-01-04 11:16:09.99	222.80	20.65	-46.5	-48.8	18.7	0.00e+00	0	43	0	270532608	64	4716
2026-01-04 11:16:13.14	223.41	20.93	-46.5	-48.9	18.6	0.00e+00	0	43	0	276824064	64	4792
2026-01-04 11:16:16.11	223.99	21.20	-46.5	-48.9	18.6	0.00e+00	0	43	0	282066944	64	4780
2026-01-04 11:16:19.27	224.62	21.49	-46.3	-48.6	18.9	0.00e+00	0	43	0	288358400	64	4610
2026-01-04 11:16:22.14	225.20	21.75	-46.5	-48.9	18.7	0.00e+00	0	43	0	293601280	64	4767
2026-01-04 11:16:25.29	225.85	22.03	-46.8	-49.2	18.6	0.00e+00	0	43	0	299892736	64	4949
2026-01-04 11:16:28.16	226.45	22.29	-47.1	-49.6	18.2	0.00e+00	0	43	0	305135616	65	4890
2026-01-04 11:16:31.53	227.17	22.60	-47.5	-50.0	17.8	0.00e+00	0	43	0	311427072	65	5154
2026-01-04 11:16:34.25	227.76	22.84	-47.2	-49.7	18.1	0.00e+00	0	43	0	316669952	65	4957
2026-01-04 11:16:37.55	228.49	23.13	-47.0	-49.3	18.5	0.00e+00	0	43	0	322961408	65	4748
2026-01-04 11:16:40.27	229.10	23.38	-46.9	-49.3	18.5	0.00e+00	0	43	0	327155712	65	4711
2026-01-04 11:16:43.60	229.86	23.67	-47.1	-49.5	18.3	0.00e+00	0	43	0	333447168	65	4865
2026-01-04 11:16:46.74	230.59	23.95	-46.9	-49.2	18.6	0.00e+00	0	43	0	339738624	65	4696
2026-01-04 11:16:49.81	231.32	24.21	-46.7	-49.0	18.9	0.00e+00	0	43	0	346030080	65	4555
2026-01-04 11:16:52.84	232.04	24.48	-46.5	-48.8	19.0	0.00e+00	0	43	0	351272960	64	4707
2026-01-04 11:16:55.85	232.78	24.74	-46.7	-49.0	18.8	0.00e+00	0	43	0	356515840	64	4861
2026-01-04 11:16:58.85	233.52	24.99	-47.3	-49.8	18.0	0.00e+00	0	43	0	362807296	65	5021
2026-01-04 11:17:01.93	234.30	25.25	-47.1	-49.5	18.3	0.00e+00	0	43	0	368050176	65	4851
2026-01-04 11:17:04.82	235.04	25.49	-47.0	-49.4	18.5	0.00e+00	0	43	0	373293056	65	4764
2026-01-04 11:17:07.97	235.86	25.75	-47.3	-49.8	18.1	0.00e+00	0	43	0	379584512	65	4997
2026-01-04 11:17:10.83	236.62	25.98	-47.2	-49.6	18.3	0.00e+00	0	43	0	384827392	65	4925
2026-01-04 11:17:14.01	237.47	26.23	-47.0	-49.4	18.6	0.00e+00	0	43	0	391118848	65	4763
2026-01-04 11:17:16.94	238.27	26.46	-46.8	-49.1	18.8	0.00e+00	0	43	0	396361728	65	4610
2026-01-04 11:17:20.10	239.14	26.71	-47.2	-49.7	18.3	0.00e+00	0	43	0	402653184	65	4943
2026-01-04 11:17:23.03	239.96	26.93	-47.6	-50.1	17.8	0.00e+00	0	43	0	407896064	66	4915
2026-01-04 11:17:26.04	240.81	27.15	-47.3	-49.8	18.2	0.00e+00	0	43	0	413138944	66	4725
2026-01-04 11:17:29.04	241.68	27.37	-47.1	-49.5	18.4	0.00e+00	0	43	0	419430400	65	4829
2026-01-04 11:17:32.07	242.56	27.58	-46.9	-49.3	18.6	0.00e+00	0	43	0	424673280	65	4707
2026-01-04 11:17:35.17	243.48	27.80	-47.8	-50.3	17.7	0.00e+00	0	43	0	430964736	66	5030
2026-01-04 11:17:38.04	244.34	27.99	-48.1	-50.8	17.2	0.00e+00	0	43	0	436207616	67	4996
2026-01-04 11:17:41.19	245.29	28.19	-47.1	-49.5	18.4	0.00e+00	0	43	0	441450496	66	4560
2026-01-04 11:17:44.06	246.17	28.37	-47.4	-49.9	18.0	0.00e+00	0	43	0	446693376	65	5058
2026-01-04 11:17:47.29	247.17	28.56	-47.9	-50.4	17.6	0.00e+00	0	43	0	452984832	66	5098
2026-01-04 11:17:50.15	248.07	28.73	-48.0	-50.6	17.4	0.00e+00	0	43	0	458227712	67	4912
2026-01-04 11:17:53.31	249.07	28.90	-47.9	-50.4	17.6	0.00e+00	0	43	0	464519168	67	4794
2026-01-04 11:17:56.30	250.02	29.06	-49.0	-51.9	16.4	0.00e+00	0	43	0	469762048	68	5386
2026-01-04 11:17:59.31	250.99	29.21	-49.0	-52.0	16.2	0.00e+00	0	43	0	476053504	69	5121
2026-01-04 11:18:02.32	251.97	29.36	-49.3	-52.2	16.1	0.00e+00	0	43	0	481296384	69	5277
2026-01-04 11:18:05.33	252.96	29.49	-50.3	-53.9	14.4	1.50e-06	0	43	0	487587840	71	5716
2026-01-04 11:18:08.37	253.97	29.62	-49.0	-52.1	16.1	0.00e+00	0	43	0	492830720	70	4891
2026-01-04 11:18:11.33	254.95	29.73	-48.4	-51.3	16.9	0.00e+00	0	43	0	498073600	68	4995
2026-01-04 11:18:14.34	255.96	29.84	-49.1	-52.2	16.1	0.00e+00	0	43	0	504365056	69	5251
2026-01-04 11:18:17.35	256.98	29.94	-49.6	-52.8	15.6	0.00e+00	0	43	0	509607936	69	5611
2026-01-04 11:18:20.36	258.00	30.03	-48.9	-51.8	16.5	0.00e+00	0	43	0	514850816	69	4990
2026-01-04 11:18:23.46	259.06	30.11	-48.2	-50.9	17.2	0.00e+00	0	43	0	521142272	67	5054
2026-01-04 11:18:26.36	260.06	30.18	-48.2	-50.9	17.3	0.00e+00	0	43	0	526385152	68	4788
2026-01-04 11:18:29.51	261.14	30.24	-47.9	-50.6	17.4	0.00e+00	0	43	0	532676608	66	5210
2026-01-04 11:18:32.38	262.13	30.29	-47.5	-49.9	18.0	0.00e+00	0	43	0	537919488	66	4813
2026-01-04 11:18:35.53	263.23	30.33	-47.0	-49.3	18.6	0.00e+00	0	43	0	544210944	65	4754
2026-01-04 11:18:38.40	264.22	30.36	-47.2	-49.7	18.2	0.00e+00	0	43	0	549453824	65	4944
2026-01-04 11:18:41.55	265.32	30.38	-47.9	-50.5	17.6	0.00e+00	0	43	0	554696704	67	4825
2026-01-04 11:18:44.41	266.31	30.39	-49.1	-52.1	16.2	0.00e+00	0	43	0	559939584	68	5478
2026-01-04 11:18:47.57	267.41	30.39	-48.5	-51.2	17.0	0.00e+00	0	43	0	566231040	69	4691
2026-01-04 11:18:50.43	268.41	30.38	-48.6	-51.4	16.9	0.00e+00	0	43	0	571473920	68	5077
2026-01-04 11:18:53.58	269.50	30.35	-47.5	-50.0	18.0	0.00e+00	0	43	0	577765376	66	4827
2026-01-04 11:18:56.44	270.49	30.32	-48.3	-50.9	17.1	0.00e+00	0	43	0	583008256	67	5088
2026-01-04 11:18:59.59	271.58	30.28	-48.2	-50.9	17.2	0.00e+00	0	43	0	589299712	67	5044
2026-01-04 11:19:02.95	272.74	30.22	-49.2	-52.2	16.1	0.00e+00	0	43	0	595591168	68	5529
2026-01-04 11:19:05.84	273.73	30.16	-48.8	-51.6	16.6	0.00e+00	0	43	0	600834048	69	4894
2026-01-04 11:19:09.21	274.89	30.08	-49.6	-52.8	15.6	0.00e+00	0	43	0	607125504	69	5600
2026-01-04 11:19:12.04	275.85	30.00	-49.1	-51.9	16.5	0.00e+00	0	43	0	612368384	69	5098
2026-01-04 11:19:15.51	277.02	29.89	-49.3	-52.3	16.0	0.00e+00	0	43	0	618659840	69	5320
2026-01-04 11:19:18.24	277.94	29.80	-49.1	-52.0	16.2	0.00e+00	0	43	0	623902720	69	5145
2026-01-04 11:19:21.53	279.04	29.67	-49.9	-53.3	15.1	0.00e+00	0	43	0	630194176	70	5609
2026-01-04 11:19:24.25	279.94	29.57	-49.8	-53.1	15.2	0.00e+00	0	43	0	635437056	70	5524
2026-01-04 11:19:27.61	281.05	29.42	-50.3	-53.8	14.5	0.00e+00	0	43	0	641728512	71	5624
2026-01-04 11:19:30.45	281.97	29.29	-49.9	-53.1	15.2	0.00e+00	0	43	0	646971392	71	5201
2026-01-04 11:19:33.74	283.04	29.13	-52.3	-57.7	10.7	1.66e-03	0	43	0	653262848	75	6979
2026-01-04 11:19:36.46	283.91	28.99	-50.5	-54.1	14.1	2.82e-05	0	43	0	658505728	72	5492
2026-01-04 11:19:39.76	284.96	28.81	-49.6	-52.9	15.4	0.00e+00	0	43	0	663748608	71	5049
2026-01-04 11:19:42.48	285.81	28.66	-49.2	-52.2	16.1	0.00e+00	0	43	0	668991488	70	4962
2026-01-04 11:19:45.70	286.81	28.47	-49.0	-51.8	16.5	0.00e+00	0	43	0	675282944	69	5019
2026-01-04 11:19:48.71	287.73	28.28	-49.4	-52.4	16.0	0.00e+00	0	43	0	680525824	69	5369
2026-01-04 11:19:51.71	288.65	28.09	-48.9	-51.7	16.5	0.00e+00	0	43	0	686817280	69	4954
2026-01-04 11:19:54.77	289.56	27.89	-49.1	-52.0	16.3	0.00e+00	0	43	0	692060160	69	5108
2026-01-04 11:19:57.88	290.48	27.68	-49.1	-52.0	16.3	0.00e+00	0	43	0	698351616	69	5137
2026-01-04 11:20:00.74	291.32	27.49	-50.2	-53.4	15.4	0.00e+00	0	43	0	703594496	71	5387
2026-01-04 11:20:03.90	292.23	27.26	-50.0	-53.0	16.0	0.00e+00	0	43	0	709885952	71	5104
2026-01-04 11:20:06.76	293.05	27.05	-50.9	-54.4	14.5	0.00e+00	0	43	0	715128832	72	5663
2026-01-04 11:20:09.91	293.93	26.82	-50.8	-54.3	14.6	1.50e-06	0	43	0	720371712	73	5294
2026-01-04 11:20:12.79	294.73	26.60	-50.1	-53.2	15.7	0.00e+00	0	43	0	725614592	71	5226
2026-01-04 11:20:16.08	295.63	26.35	-50.5	-53.8	15.1	0.00e+00	0	43	0	731906048	72	5305
2026-01-04 11:20:19.11	296.44	26.11	-50.0	-52.9	16.0	0.00e+00	0	43	0	738197504	71	5078
2026-01-04 11:20:21.98	297.20	25.88	-50.6	-54.0	14.9	0.00e+00	0	43	0	743440384	72	5424
2026-01-04 11:20:25.18	298.04	25.62	-49.7	-52.6	16.1	0.00e+00	0	43	0	749731840	71	4925
2026-01-04 11:20:28.33	298.85	25.36	-49.1	-51.9	16.8	0.00e+00	0	43	0	754974720	70	4795
2026-01-04 11:20:31.19	299.57	25.12	-49.1	-51.9	16.9	0.00e+00	0	43	0	760217600	70	4796
2026-01-04 11:20:34.35	300.36	24.86	-48.6	-51.2	17.2	0.00e+00	0	43	0	766509056	68	4972
2026-01-04 11:20:37.21	301.06	24.61	-49.3	-52.1	16.6	0.00e+00	0	43	0	771751936	69	5208
2026-01-04 11:20:40.36	301.82	24.34	-47.8	-50.3	18.1	0.00e+00	0	43	0	778043392	67	4712
2026-01-04 11:20:43.23	302.50	24.10	-47.6	-49.9	18.5	0.00e+00	0	43	0	783286272	66	4795
2026-01-04 11:20:46.38	303.23	23.82	-48.5	-51.0	17.3	0.00e+00	0	43	0	789577728	67	5157
2026-01-04 11:20:49.23	303.89	23.57	-48.0	-50.5	17.9	0.00e+00	0	43	0	794820608	67	4816
2026-01-04 11:20:52.53	304.63	23.28	-48.1	-50.7	17.6	0.00e+00	0	43	0	800063488	67	4965
2026-01-04 11:20:55.25	305.24	23.04	-48.1	-50.6	17.7	0.00e+00	0	43	0	805306368	67	4911
2026-01-04 11:20:58.55	305.96	22.75	-47.1	-49.4	18.7	0.00e+00	0	43	0	811597824	65	4789
2026-01-04 11:21:01.27	306.54	22.51	-48.6	-51.3	17.0	0.00e+00	0	43	0	816840704	67	5311
2026-01-04 11:21:04.57	307.24	22.21	-49.0	-51.8	16.7	0.00e+00	0	43	0	823132160	69	5034
2026-01-04 11:21:07.35	307.81	21.96	-47.4	-49.8	18.4	0.00e+00	0	43	0	828375040	66	4721
2026-01-04 11:21:10.65	308.49	21.67	-47.9	-50.5	17.8	0.00e+00	0	43	0	834666496	66	5112
2026-01-04 11:21:13.59	309.07	21.40	-47.7	-50.1	18.0	0.00e+00	0	43	0	839909376	66	4924
2026-01-04 11:21:17.26	309.80	21.07	-49.0	-51.8	16.8	0.00e+00	0	43	0	847249408	68	5315
2026-01-04 11:21:20.29	310.38	20.80	-50.2	-53.9	14.6	0.00e+00	0	43	0	852492288	71	5674
2026-01-04 11:21:24.07	311.10	20.46	-48.8	-51.8	16.5	0.00e+00	0	43	0	859832320	69	5015
2026-01-04 11:21:26.88	311.62	20.21	-50.0	-53.3	15.7	0.00e+00	0	43	0	865075200	70	5614
2026-01-04 11:21:30.64	312.30	19.87	-48.6	-51.6	16.1	7.00e-07	0	43	0	872415232	69	4918
2026-01-04 11:21:33.65	312.84	19.60	-47.4	-49.8	18.2	0.00e+00	0	43	0	877658112	66	4752
2026-01-04 11:21:36.65	313.37	19.34	-47.4	-49.9	18.1	0.00e+00	0	43	0	882900992	66	4778
2026-01-04 11:21:39.84	313.92	19.05	-47.9	-50.5	17.5	0.00e+00	0	43	0	889192448	67	4837
2026-01-04 11:21:42.80	314.42	18.79	-47.8	-50.4	17.6	0.00e+00	0	43	0	894435328	67	4801
2026-01-04 11:21:45.99	314.95	18.51	-47.7	-50.4	17.5	0.00e+00	0	43	0	900726784	66	5065
2026-01-04 11:21:48.85	315.42	18.25	-48.8	-51.8	16.6	0.00e+00	0	43	0	905969664	68	5287
2026-01-04 11:21:52.00	315.93	17.98	-48.5	-51.3	16.9	0.00e+00	0	43	0	912261120	68	5035
2026-01-04 11:21:54.87	316.38	17.72	-47.5	-50.0	18.0	0.00e+00	0	43	0	917504000	66	4834
2026-01-04 11:21:58.02	316.87	17.45	-47.4	-49.9	18.3	0.00e+00	0	43	0	923795456	66	4773
2026-01-04 11:22:00.88	317.31	17.20	-46.9	-49.3	18.6	0.00e+00	0	43	0	929038336	65	4723
2026-01-04 11:22:04.04	317.79	16.93	-46.9	-49.3	18.6	0.00e+00	0	43	0	934281216	65	4744
2026-01-04 11:22:06.99	318.22	16.67	-47.0	-49.4	18.3	0.00e+00	0	43	0	940572672	65	4813
2026-01-04 11:22:10.15	318.68	16.40	-47.2	-49.8	18.3	0.00e+00	0	43	0	945815552	65	4987
2026-01-04 11:22:13.04	319.10	16.15	-47.6	-50.4	17.4	0.00e+00	0	43	0	951058432	66	5069
2026-01-04 11:22:16.19	319.54	15.89	-47.8	-50.6	17.3	0.00e+00	0	43	0	957349888	66	5215
2026-01-04 11:22:19.06	319.94	15.64	-47.8	-50.6	17.4	0.00e+00	0	43	0	962592768	66	5177
2026-01-04 11:22:22.21	320.37	15.38	-47.7	-50.4	17.7	0.00e+00	0	43	0	968884224	67	4787
2026-01-04 11:22:25.08	320.75	15.14	-47.7	-50.3	17.7	0.00e+00	0	43	0	974127104	67	4741
2026-01-04 11:22:28.35	321.18	14.87	-47.3	-49.9	18.0	0.00e+00	0	43	0	980418560	66	4806
2026-01-04 11:22:31.26	321.56	14.62	-47.2	-50.0	17.8	0.00e+00	0	43	0	985661440	66	4817
2026-01-04 11:22:35.27	322.07	14.29	-47.0	-49.6	18.2	0.00e+00	0	43	0	993001472	65	4892
2026-01-04 11:22:38.02	322.41	14.07	-47.1	-49.6	18.3	0.00e+00	0	43	0	998244352	65	4878
2026-01-04 11:22:41.62	322.85	13.78	-47.6	-50.0	17.9	0.00e+00	0	43	0	1005584384	65	5144
2026-01-04 11:22:44.34	323.18	13.56	-48.1	-50.8	17.2	0.00e+00	0	43	0	1009778688	67	5001
2026-01-04 11:22:47.75	323.59	13.28	-48.1	-51.0	16.9	0.00e+00	0	43	0	1016070144	67	5128
2026-01-04 11:22:50.47	323.91	13.07	-48.2	-51.1	17.0	0.00e+00	0	43	0	1021313024	67	5211
2026-01-04 11:22:53.76	324.28	12.81	-48.0	-51.0	17.1	0.00e+00	0	43	0	1027604480	67	5109
2026-01-04 11:22:56.48	324.59	12.59	-48.1	-51.1	16.9	0.00e+00	0	43	0	1032847360	67	5176
2026-01-04 11:23:00.14	325.00	12.30	-48.8	-52.3	16.1	0.00e+00	0	43	0	1040187392	68	5598
2026-01-04 11:23:02.86	325.30	12.09	-48.9	-52.5	15.8	0.00e+00	0	43	0	1045430272	68	5783
2026-01-04 11:23:06.16	325.66	11.84	-49.0	-52.7	15.6	0.00e+00	0	43	0	1050673152	68	5878
2026-01-04 11:23:08.97	325.96	11.62	-48.7	-52.0	16.2	0.00e+00	0	43	0	1055916032	68	5437
2026-01-04 11:23:12.19	326.29	11.37	-48.6	-51.8	16.5	0.00e+00	0	43	0	1062207488	68	5295
2026-01-04 11:23:15.34	326.62	11.14	-48.8	-52.0	16.3	0.00e+00	0	43	0	1068498944	68	5426
2026-01-04 11:23:18.20	326.91	10.92	-49.3	-52.6	15.8	0.00e+00	0	43	0	1073741824	69	5479
2026-01-04 11:23:21.36	327.23	10.68	-49.3	-52.6	15.4	0.00e+00	0	43	0	1080033280	69	5492
2026-01-04 11:23:24.22	327.51	10.47	-49.2	-52.5	15.7	0.00e+00	0	43	0	1085276160	69	5407
2026-01-04 11:23:27.37	327.82	10.24	-48.9	-51.9	16.2	0.00e+00	0	43	0	1090519040	69	5089
2026-01-04 11:23:30.24	328.09	10.02	-48.8	-51.8	16.2	0.00e+00	0	43	0	1095761920	69	5032
2026-01-04 11:23:33.39	328.39	9.79	-48.9	-51.9	16.2	0.00e+00	0	43	0	1102053376	69	5088
2026-01-04 11:23:36.26	328.66	9.59	-49.4	-52.6	15.8	0.00e+00	0	43	0	1107296256	69	5486
2026-01-04 11:23:39.66	328.97	9.34	-49.8	-53.2	15.0	0.00e+00	0	43	0	1113587712	70	5561
2026-01-04 11:23:42.38	329.22	9.15	-50.1	-53.8	14.4	0.00e+00	0	43	0	1118830592	70	5962
2026-01-04 11:23:45.68	329.51	8.91	-53.8	-69.5	3.8	1.49e+00	0	43	104	1124073472	78	22979
2026-01-04 11:23:48.40	329.75	8.72	-54.0	-69.5	3.8	1.49e+00	0	43	104	1124073472	79	21659
2026-01-04 11:23:51.74	330.04	8.48	-53.5	-69.7	3.8	1.49e+00	0	43	104	1124073472	79	22215
2026-01-04 11:23:54.56	330.28	8.28	-54.5	-69.9	3.8	1.49e+00	0	43	104	1124073472	80	21464
2026-01-04 11:23:57.86	330.56	8.06	-54.4	-69.8	3.8	1.49e+00	0	43	104	1124073472	80	21100
2026-01-04 11:24:00.59	330.79	7.87	-54.7	-69.8	3.8	1.49e+00	0	43	104	1124073472	80	21204
2026-01-04 11:24:03.88	331.06	7.64	-54.5	-69.7	3.8	1.49e+00	0	43	104	1124073472	80	20992
2026-01-04 11:24:06.61	331.28	7.45	-54.6	-69.8	3.8	1.49e+00	0	43	104	1124073472	80	21207
2026-01-04 11:24:09.91	331.54	7.23	-54.4	-69.8	3.8	1.49e+00	0	43	104	1124073472	80	21211
2026-01-04 11:24:12.64	331.76	7.05	-54.4	-69.8	3.8	1.49e+00	0	43	104	1124073472	80	21141
2026-01-04 11:24:15.94	332.02	6.82	-54.4	-69.8	3.8	1.49e+00	0	43	104	1124073472	80	21106
2026-01-04 11:24:18.66	332.23	6.64	-54.5	-69.9	3.8	1.49e+00	0	43	104	1124073472	80	21408
2026-01-04 11:24:21.96	332.48	6.42	-54.4	-69.9	3.8	1.49e+00	0	43	104	1124073472	80	21278
2026-01-04 11:24:24.69	332.68	6.25	-54.5	-69.9	3.8	1.49e+00	0	43	104	1124073472	80	21390
2026-01-04 11:24:27.99	332.93	6.03	-54.5	-70.0	3.8	1.49e+00	0	43	104	1124073472	80	21556
2026-01-04 11:24:30.71	333.12	5.85	-54.5	-70.0	3.8	1.49e+00	0	43	104	1124073472	80	21593
2026-01-04 11:24:34.01	333.36	5.64	-54.5	-70.0	3.8	1.49e+00	0	43	104	1124073472	80	21537
2026-01-04 11:24:36.74	333.56	5.46	-54.7	-70.1	3.8	1.49e+00	0	43	104	1124073472	80	21874
2026-01-04 11:24:40.04	333.79	5.25	-54.6	-70.0	3.8	1.49e+00	0	43	104	1124073472	80	21706
2026-01-04 11:24:42.76	333.98	5.08	-54.5	-69.9	3.8	1.49e+00	0	43	104	1124073472	80	21432

#Closed at: 2026-01-04 11:24:44
#Recorded file [1124 MB]: D:/Data/31040_260104_141251.dat