passes_logs/2026/01/04/T1/T1__20260104_122729_NOAA_21_JPSS-2_rec.log

#Pass ID: 20260104_122729_NOAA 21 (JPSS-2)
#Satellite: NOAA 21 (JPSS-2)
#Configuration: NOAA 21
#almurnet v.1.7.20251203
#Start time: 2026-01-04 12:27:30

#Version: 2.0.20230620
#Station: T1
#Location: 37.570604 lon 55.790049 lat
#TLE: 1 54234U 22150A   26003.94651505  .00000183  00000+0  10759-3 0  9990
#TLE: 2 54234  98.7488 304.9806 0001136 345.9488  14.1656 14.19531852163244

#Time	Az	El	Level	Level2	SNR	BER	BlckErr	Temp	State	Recorded	gain1	gain2
2026-01-04 12:27:30.19	252.87	5.03	-53.7	-67.0	3.8	1.49e+00	0	40	0	0	79	16268
2026-01-04 12:27:32.20	253.14	5.09	-53.6	-66.8	3.8	1.49e+00	0	40	104	0	77	17838
2026-01-04 12:27:34.20	253.41	5.16	-53.3	-66.7	3.8	1.49e+00	0	40	104	0	77	17593
2026-01-04 12:27:36.21	253.69	5.22	-53.4	-66.7	3.8	1.49e+00	0	40	104	0	77	17679
2026-01-04 12:27:38.22	253.97	5.28	-53.0	-66.3	3.8	1.49e+00	0	40	104	0	77	16832
2026-01-04 12:27:40.23	254.25	5.35	-53.8	-67.1	3.8	1.49e+00	0	40	104	0	78	17290
2026-01-04 12:27:42.24	254.52	5.41	-53.4	-66.8	3.8	1.49e+00	0	41	104	0	78	16750
2026-01-04 12:27:44.25	254.80	5.47	-53.3	-66.6	3.8	1.49e+00	0	41	104	0	78	16452
2026-01-04 12:27:46.25	255.08	5.53	-53.4	-66.7	3.8	1.49e+00	0	41	104	0	78	16593
2026-01-04 12:27:48.26	255.37	5.60	-53.3	-66.6	3.8	1.49e+00	0	41	104	0	78	16374
2026-01-04 12:27:50.27	255.65	5.66	-53.2	-66.5	3.8	1.49e+00	0	41	104	0	78	16269
2026-01-04 12:27:52.28	255.94	5.72	-53.0	-66.4	3.8	1.49e+00	0	41	104	0	78	15976
2026-01-04 12:27:54.29	256.22	5.78	-53.0	-66.3	3.8	1.49e+00	0	41	104	0	78	15874
2026-01-04 12:27:56.30	256.51	5.84	-53.1	-66.4	3.8	1.49e+00	0	41	104	0	78	16000
2026-01-04 12:27:58.30	256.79	5.90	-53.3	-66.6	3.8	1.49e+00	0	41	104	0	78	16382
2026-01-04 12:28:00.31	257.08	5.96	-53.4	-66.7	3.8	1.49e+00	0	41	104	0	78	16612
2026-01-04 12:28:02.32	257.37	6.01	-53.1	-66.4	3.8	1.49e+00	0	41	104	0	78	16089
2026-01-04 12:28:04.33	257.67	6.07	-53.7	-67.1	3.8	1.49e+00	0	41	104	0	78	17371
2026-01-04 12:28:06.34	257.96	6.13	-53.4	-66.7	3.8	1.49e+00	0	41	104	0	77	17603
2026-01-04 12:28:08.34	258.25	6.19	-53.3	-66.6	3.8	1.49e+00	0	41	104	0	77	17457
2026-01-04 12:28:10.35	258.55	6.24	-53.4	-66.8	3.8	1.49e+00	0	41	104	0	77	17741
2026-01-04 12:28:12.36	258.84	6.30	-53.5	-66.7	3.8	1.49e+00	0	41	104	0	78	16651
2026-01-04 12:28:14.37	259.14	6.35	-53.7	-66.9	3.8	1.49e+00	0	41	104	0	78	17058
2026-01-04 12:28:16.38	259.44	6.41	-53.4	-66.8	3.8	1.49e+00	0	41	104	0	78	16710
2026-01-04 12:28:18.39	259.74	6.46	-53.6	-66.9	3.8	1.49e+00	0	41	104	0	78	16995
2026-01-04 12:28:20.39	260.03	6.52	-53.2	-66.5	3.8	1.49e+00	0	41	104	0	78	16163
2026-01-04 12:28:22.40	260.34	6.57	-53.4	-66.7	3.8	1.49e+00	0	41	104	0	78	16540
2026-01-04 12:28:24.41	260.64	6.62	-54.2	-67.5	3.8	1.49e+00	0	41	104	0	79	17111
2026-01-04 12:28:26.42	260.94	6.67	-54.1	-67.4	3.8	1.49e+00	0	41	104	0	78	17914
2026-01-04 12:28:28.43	261.25	6.72	-53.7	-67.0	3.8	1.49e+00	0	41	104	0	78	17140
2026-01-04 12:28:30.44	261.55	6.78	-53.5	-66.8	3.8	1.49e+00	0	41	104	0	78	16816
2026-01-04 12:28:32.45	261.86	6.83	-53.4	-66.7	3.8	1.49e+00	0	41	104	0	78	16561
2026-01-04 12:28:34.45	262.16	6.87	-53.4	-66.6	3.8	1.49e+00	0	41	104	0	78	16493
2026-01-04 12:28:36.46	262.47	6.92	-53.4	-66.7	3.8	1.49e+00	0	42	104	0	78	16621
2026-01-04 12:28:38.47	262.78	6.97	-53.0	-66.3	3.8	1.49e+00	0	41	104	0	77	16759
2026-01-04 12:28:40.48	263.09	7.02	-53.3	-66.6	3.8	1.49e+00	0	42	104	0	77	17308
2026-01-04 12:28:42.49	263.40	7.07	-53.2	-66.4	3.8	1.49e+00	0	41	104	0	77	17039
2026-01-04 12:28:44.50	263.72	7.11	-53.3	-66.6	3.8	1.49e+00	0	42	104	0	77	17453
2026-01-04 12:28:46.50	264.03	7.16	-53.3	-66.6	3.8	1.49e+00	0	42	104	0	77	17436
2026-01-04 12:28:48.51	264.34	7.20	-53.2	-66.5	3.8	1.49e+00	0	41	104	0	77	17205
2026-01-04 12:28:50.52	264.66	7.25	-53.4	-66.7	3.8	1.49e+00	0	42	104	0	77	17605
2026-01-04 12:28:52.53	264.97	7.29	-53.1	-66.4	3.8	1.49e+00	0	42	104	0	77	16934
2026-01-04 12:28:54.54	265.29	7.34	-53.3	-66.6	3.8	1.49e+00	0	42	104	0	77	17446
2026-01-04 12:28:56.55	265.61	7.38	-53.7	-66.9	3.8	1.49e+00	0	42	104	0	78	17045
2026-01-04 12:28:58.56	265.93	7.42	-53.6	-66.9	3.8	1.49e+00	0	42	104	0	78	16901
2026-01-04 12:29:00.57	266.25	7.46	-53.5	-66.8	3.8	1.49e+00	0	41	104	0	78	16815
2026-01-04 12:29:02.57	266.57	7.50	-53.4	-66.7	3.8	1.49e+00	0	41	104	0	78	16573
2026-01-04 12:29:04.58	266.89	7.54	-53.4	-66.7	3.8	1.49e+00	0	42	104	0	78	16564
2026-01-04 12:29:06.59	267.21	7.58	-53.4	-66.7	3.8	1.49e+00	0	42	104	0	78	16653
2026-01-04 12:29:08.60	267.53	7.62	-53.4	-66.7	3.8	1.49e+00	0	42	104	0	78	16580
2026-01-04 12:29:10.61	267.86	7.66	-53.5	-66.7	3.8	1.49e+00	0	41	104	0	78	16676
2026-01-04 12:29:12.62	268.18	7.69	-53.3	-66.6	3.8	1.49e+00	0	41	104	0	78	16389
2026-01-04 12:29:14.63	268.51	7.73	-53.3	-66.6	3.8	1.49e+00	0	42	104	0	77	17376
2026-01-04 12:29:16.63	268.83	7.77	-53.3	-66.7	3.8	1.49e+00	0	42	104	0	77	17545
2026-01-04 12:29:18.65	269.16	7.80	-53.4	-66.6	3.8	1.49e+00	0	42	104	0	77	17446
2026-01-04 12:29:20.65	269.48	7.83	-53.3	-66.7	3.8	1.49e+00	0	42	104	0	77	17486
2026-01-04 12:29:22.66	269.81	7.87	-53.2	-66.5	3.8	1.49e+00	0	42	104	0	77	17220
2026-01-04 12:29:24.67	270.14	7.90	-53.2	-66.5	3.8	1.49e+00	0	42	104	0	77	17219
2026-01-04 12:29:26.68	270.47	7.93	-53.2	-66.5	3.8	1.49e+00	0	42	104	0	77	17158
2026-01-04 12:29:28.69	270.80	7.96	-53.3	-66.6	3.8	1.49e+00	0	42	104	0	77	17451
2026-01-04 12:29:30.70	271.13	7.99	-53.3	-66.6	3.8	1.49e+00	0	42	104	0	77	17404
2026-01-04 12:29:32.71	271.46	8.02	-53.4	-66.7	3.8	1.49e+00	0	41	104	0	77	17499
2026-01-04 12:29:34.71	271.80	8.05	-53.3	-66.6	3.8	1.49e+00	0	42	104	0	77	17290
2026-01-04 12:29:36.72	272.13	8.08	-53.3	-66.6	3.8	1.49e+00	0	42	104	0	77	17361
2026-01-04 12:29:38.73	272.46	8.11	-53.3	-66.6	3.8	1.49e+00	0	42	104	0	77	17336
2026-01-04 12:29:40.74	272.80	8.13	-53.3	-66.5	3.8	1.49e+00	0	41	104	0	77	17253
2026-01-04 12:29:42.75	273.13	8.16	-53.4	-66.7	3.8	1.49e+00	0	42	104	0	77	17529
2026-01-04 12:29:44.76	273.47	8.18	-53.3	-66.6	3.8	1.49e+00	0	42	104	0	77	17474
2026-01-04 12:29:46.76	273.80	8.21	-52.4	-65.7	3.8	1.49e+00	0	42	104	0	76	16681
2026-01-04 12:29:48.77	274.14	8.23	-52.7	-66.0	3.8	1.49e+00	0	42	104	0	76	17165
2026-01-04 12:29:50.78	274.47	8.25	-52.5	-65.8	3.8	1.49e+00	0	41	104	0	76	16816
2026-01-04 12:29:52.79	274.81	8.27	-52.6	-65.9	3.8	1.49e+00	0	42	104	0	76	17027
2026-01-04 12:29:54.80	275.15	8.29	-52.6	-65.9	3.8	1.49e+00	0	42	104	0	76	17020
2026-01-04 12:29:56.81	275.49	8.31	-52.7	-66.0	3.8	1.49e+00	0	42	104	0	76	17178
2026-01-04 12:29:58.81	275.82	8.33	-52.6	-65.9	3.8	1.49e+00	0	42	104	0	76	16939
2026-01-04 12:30:00.82	276.16	8.35	-52.7	-66.0	3.8	1.49e+00	0	42	104	0	76	17222
2026-01-04 12:30:02.83	276.50	8.36	-52.5	-65.9	3.8	1.49e+00	0	42	104	0	76	16928
2026-01-04 12:30:04.84	276.84	8.38	-52.5	-65.8	3.8	1.49e+00	0	42	104	0	76	16870
2026-01-04 12:30:06.85	277.18	8.40	-52.5	-65.9	3.8	1.49e+00	0	42	104	0	76	16921
2026-01-04 12:30:08.85	277.52	8.41	-52.8	-66.1	3.8	1.49e+00	0	42	104	0	76	17441
2026-01-04 12:30:10.86	277.86	8.42	-52.9	-66.3	3.8	1.49e+00	0	42	104	0	76	17764
2026-01-04 12:30:12.87	278.20	8.44	-52.8	-66.1	3.8	1.49e+00	0	42	104	0	76	17424
2026-01-04 12:30:14.88	278.54	8.45	-52.5	-65.8	3.8	1.49e+00	0	41	104	0	76	16753
2026-01-04 12:30:16.88	278.88	8.46	-52.5	-65.8	3.8	1.49e+00	0	42	104	0	76	16731
2026-01-04 12:30:18.89	279.22	8.47	-52.6	-65.9	3.8	1.49e+00	0	42	104	0	76	17021
2026-01-04 12:30:20.90	279.56	8.48	-52.4	-65.8	3.8	1.49e+00	0	42	104	0	76	16769
2026-01-04 12:30:22.91	279.91	8.49	-52.5	-65.8	3.8	1.49e+00	0	42	104	0	76	16865
2026-01-04 12:30:24.92	280.25	8.49	-52.6	-65.8	3.8	1.49e+00	0	42	104	0	76	16879
2026-01-04 12:30:26.93	280.59	8.50	-52.5	-65.8	3.8	1.49e+00	0	42	104	0	76	16864
2026-01-04 12:30:28.94	280.93	8.51	-52.5	-65.9	3.8	1.49e+00	0	42	104	0	76	16889
2026-01-04 12:30:30.94	281.27	8.51	-52.7	-66.0	3.8	1.49e+00	0	42	104	0	76	17176
2026-01-04 12:30:32.95	281.62	8.52	-53.7	-67.0	3.8	1.49e+00	0	42	104	0	78	17135
2026-01-04 12:30:34.95	281.96	8.52	-53.8	-67.2	3.8	1.49e+00	0	42	104	0	78	17587
2026-01-04 12:30:36.96	282.30	8.52	-54.0	-67.3	3.8	1.49e+00	0	42	104	0	78	17723
2026-01-04 12:30:38.97	282.64	8.52	-53.6	-66.9	3.8	1.49e+00	0	42	104	0	78	17075
2026-01-04 12:30:40.98	282.99	8.52	-53.5	-66.8	3.8	1.49e+00	0	42	104	0	77	17886
2026-01-04 12:30:42.98	283.33	8.52	-53.5	-66.9	3.8	1.49e+00	0	42	104	0	77	18015
2026-01-04 12:30:44.99	283.67	8.52	-53.6	-66.9	3.8	1.49e+00	0	42	104	0	77	17984
2026-01-04 12:30:47.00	284.01	8.52	-53.8	-67.1	3.8	1.49e+00	0	42	104	0	78	17357
2026-01-04 12:30:49.01	284.35	8.52	-53.8	-67.1	3.8	1.49e+00	0	42	104	0	78	17325
2026-01-04 12:30:51.02	284.70	8.51	-53.7	-67.0	3.8	1.49e+00	0	42	104	0	78	17280
2026-01-04 12:30:53.02	285.04	8.51	-53.8	-67.1	3.8	1.49e+00	0	42	104	0	78	17313
2026-01-04 12:30:55.03	285.38	8.50	-53.9	-67.3	3.8	1.49e+00	0	42	104	0	78	17690
2026-01-04 12:30:57.04	285.72	8.49	-53.5	-66.9	3.8	1.49e+00	0	42	104	0	78	16888
2026-01-04 12:30:59.05	286.06	8.49	-53.6	-66.9	3.8	1.49e+00	0	42	104	0	78	17033
2026-01-04 12:31:01.06	286.41	8.48	-53.7	-67.0	3.8	1.49e+00	0	41	104	0	78	17087
2026-01-04 12:31:03.07	286.75	8.47	-53.7	-67.0	3.8	1.49e+00	0	41	104	0	78	17253
2026-01-04 12:31:05.07	287.09	8.46	-53.7	-67.1	3.8	1.49e+00	0	41	104	0	78	17318
2026-01-04 12:31:07.08	287.43	8.45	-53.8	-67.2	3.8	1.49e+00	0	42	104	0	78	17515
2026-01-04 12:31:09.09	287.77	8.44	-53.8	-67.1	3.8	1.49e+00	0	42	104	0	78	17412
2026-01-04 12:31:11.10	288.11	8.42	-53.8	-67.1	3.8	1.49e+00	0	42	104	0	78	17386
2026-01-04 12:31:13.11	288.45	8.41	-53.8	-67.1	3.8	1.49e+00	0	41	104	0	78	17470
2026-01-04 12:31:15.12	288.79	8.40	-53.9	-67.2	3.8	1.49e+00	0	41	104	0	78	17665
2026-01-04 12:31:17.13	289.13	8.38	-53.9	-67.3	3.8	1.49e+00	0	41	104	0	78	17720
2026-01-04 12:31:19.13	289.46	8.36	-54.4	-67.7	3.8	1.49e+00	0	42	104	0	79	17535
2026-01-04 12:31:21.14	289.80	8.35	-54.2	-67.5	3.8	1.49e+00	0	41	104	0	79	17213
2026-01-04 12:31:23.15	290.14	8.33	-54.1	-67.4	3.8	1.49e+00	0	41	104	0	79	17008
2026-01-04 12:31:25.16	290.48	8.31	-54.2	-67.5	3.8	1.49e+00	0	42	104	0	79	17245
2026-01-04 12:31:27.17	290.82	8.29	-54.0	-67.4	3.8	1.49e+00	0	41	104	0	79	17014
2026-01-04 12:31:29.17	291.15	8.27	-54.1	-67.4	3.8	1.49e+00	0	42	104	0	79	17001
2026-01-04 12:31:31.18	291.49	8.25	-54.1	-67.4	3.8	1.49e+00	0	41	104	0	79	17068
2026-01-04 12:31:33.19	291.82	8.23	-54.1	-67.4	3.8	1.49e+00	0	42	104	0	79	17051
2026-01-04 12:31:35.20	292.16	8.20	-54.1	-67.4	3.8	1.49e+00	0	42	104	0	79	17067
2026-01-04 12:31:37.21	292.49	8.18	-54.2	-67.5	3.8	1.49e+00	0	42	104	0	79	17103
2026-01-04 12:31:39.22	292.83	8.16	-54.1	-67.4	3.8	1.49e+00	0	41	104	0	79	16952
2026-01-04 12:31:41.22	293.16	8.13	-54.1	-67.4	3.8	1.49e+00	0	41	104	0	79	16935
2026-01-04 12:31:43.24	293.50	8.11	-54.2	-67.5	3.8	1.49e+00	0	41	104	0	79	17166
2026-01-04 12:31:45.24	293.83	8.08	-54.2	-67.5	3.8	1.49e+00	0	42	104	0	79	17235
2026-01-04 12:31:47.25	294.16	8.05	-54.2	-67.5	3.8	1.49e+00	0	41	104	0	79	17116
2026-01-04 12:31:49.26	294.49	8.02	-54.1	-67.4	3.8	1.49e+00	0	41	104	0	79	17020
2026-01-04 12:31:51.27	294.82	7.99	-54.0	-67.4	3.8	1.49e+00	0	42	104	0	79	16915
2026-01-04 12:31:53.28	295.15	7.96	-54.1	-67.4	3.8	1.49e+00	0	41	104	0	79	16997
2026-01-04 12:31:55.29	295.48	7.93	-54.1	-67.4	3.8	1.49e+00	0	41	104	0	79	16938
2026-01-04 12:31:57.29	295.81	7.90	-54.1	-67.4	3.8	1.49e+00	0	42	104	0	79	16932
2026-01-04 12:31:59.30	296.14	7.87	-54.1	-67.4	3.8	1.49e+00	0	41	104	0	79	17005
2026-01-04 12:32:01.31	296.46	7.84	-54.1	-67.3	3.8	1.49e+00	0	41	104	0	79	16879
2026-01-04 12:32:03.32	296.79	7.80	-54.0	-67.2	3.8	1.49e+00	0	41	104	0	79	16686
2026-01-04 12:32:05.33	297.11	7.77	-54.0	-67.3	3.8	1.49e+00	0	42	104	0	79	16750
2026-01-04 12:32:07.34	297.44	7.73	-53.9	-67.3	3.8	1.49e+00	0	42	104	0	79	16727
2026-01-04 12:32:09.34	297.76	7.70	-53.8	-67.2	3.8	1.49e+00	0	41	104	0	79	16680
2026-01-04 12:32:11.35	298.09	7.66	-53.9	-67.2	3.8	1.49e+00	0	42	104	0	79	16682
2026-01-04 12:32:13.36	298.41	7.62	-53.9	-67.2	3.8	1.49e+00	0	41	104	0	79	16635
2026-01-04 12:32:15.37	298.73	7.58	-54.2	-67.5	3.8	1.49e+00	0	41	104	0	80	16161
2026-01-04 12:32:17.37	299.05	7.55	-54.1	-67.4	3.8	1.49e+00	0	42	104	0	80	16098
2026-01-04 12:32:19.38	299.37	7.51	-54.0	-67.3	3.8	1.49e+00	0	41	104	0	80	15870
2026-01-04 12:32:21.39	299.69	7.47	-54.1	-67.4	3.8	1.49e+00	0	41	104	0	79	17035
2026-01-04 12:32:23.40	300.01	7.42	-54.2	-67.4	3.8	1.49e+00	0	41	104	0	79	17076
2026-01-04 12:32:25.41	300.32	7.38	-54.0	-67.3	3.8	1.49e+00	0	41	104	0	79	16818
2026-01-04 12:32:27.42	300.64	7.34	-53.9	-67.3	3.8	1.49e+00	0	41	104	0	79	16745
2026-01-04 12:32:29.43	300.96	7.30	-54.0	-67.3	3.8	1.49e+00	0	41	104	0	79	16873
2026-01-04 12:32:31.44	301.27	7.25	-54.1	-67.4	3.8	1.49e+00	0	41	104	0	79	16952
2026-01-04 12:32:33.44	301.58	7.21	-54.0	-67.3	3.8	1.49e+00	0	41	104	0	79	16764
2026-01-04 12:32:35.45	301.90	7.16	-54.1	-67.4	3.8	1.49e+00	0	42	104	0	79	17009
2026-01-04 12:32:37.46	302.21	7.12	-54.1	-67.4	3.8	1.49e+00	0	41	104	0	79	16920
2026-01-04 12:32:39.47	302.52	7.07	-54.0	-67.3	3.8	1.49e+00	0	42	104	0	79	16774
2026-01-04 12:32:41.48	302.83	7.03	-54.0	-67.3	3.8	1.49e+00	0	41	104	0	79	16744
2026-01-04 12:32:43.48	303.14	6.98	-54.3	-67.6	3.8	1.49e+00	0	41	104	0	79	17299
2026-01-04 12:32:45.49	303.44	6.93	-54.2	-67.5	3.8	1.49e+00	0	41	104	0	79	17244
2026-01-04 12:32:47.50	303.75	6.88	-54.2	-67.5	3.8	1.49e+00	0	41	104	0	79	17151
2026-01-04 12:32:49.51	304.06	6.83	-54.1	-67.5	3.8	1.49e+00	0	41	104	0	79	17102
2026-01-04 12:32:51.52	304.36	6.78	-54.0	-67.3	3.8	1.49e+00	0	41	104	0	79	16758
2026-01-04 12:32:53.52	304.66	6.73	-54.0	-67.3	3.8	1.49e+00	0	42	104	0	79	16804
2026-01-04 12:32:55.53	304.97	6.68	-54.0	-67.3	3.8	1.49e+00	0	41	104	0	79	16799
2026-01-04 12:32:57.54	305.27	6.63	-54.1	-67.3	3.8	1.49e+00	0	41	104	0	79	16867
2026-01-04 12:32:59.55	305.57	6.58	-54.0	-67.3	3.8	1.49e+00	0	41	104	0	79	16874
2026-01-04 12:33:01.55	305.87	6.53	-54.0	-67.3	3.8	1.49e+00	0	41	104	0	79	16798
2026-01-04 12:33:03.56	306.17	6.47	-54.0	-67.3	3.8	1.49e+00	0	41	104	0	79	16793
2026-01-04 12:33:05.57	306.47	6.42	-54.0	-67.3	3.8	1.49e+00	0	41	104	0	79	16843
2026-01-04 12:33:07.58	306.76	6.37	-53.9	-67.2	3.8	1.49e+00	0	42	104	0	79	16578
2026-01-04 12:33:09.59	307.06	6.31	-54.1	-67.5	3.8	1.49e+00	0	42	104	0	79	17104
2026-01-04 12:33:11.60	307.35	6.26	-54.1	-67.4	3.8	1.49e+00	0	41	104	0	79	16901
2026-01-04 12:33:13.61	307.64	6.20	-54.1	-67.4	3.8	1.49e+00	0	41	104	0	79	16942
2026-01-04 12:33:15.61	307.94	6.14	-54.1	-67.4	3.8	1.49e+00	0	41	104	0	79	16891
2026-01-04 12:33:17.62	308.23	6.09	-54.0	-67.3	3.8	1.49e+00	0	41	104	0	79	16792
2026-01-04 12:33:19.63	308.52	6.03	-54.1	-67.4	3.8	1.49e+00	0	41	104	0	79	16942
2026-01-04 12:33:21.64	308.81	5.97	-54.1	-67.4	3.8	1.49e+00	0	41	104	0	79	16937
2026-01-04 12:33:23.65	309.09	5.91	-54.0	-67.3	3.8	1.49e+00	0	41	104	0	79	16869
2026-01-04 12:33:25.66	309.38	5.86	-54.0	-67.3	3.8	1.49e+00	0	41	104	0	79	16796
2026-01-04 12:33:27.66	309.66	5.80	-54.0	-67.3	3.8	1.49e+00	0	42	104	0	79	16848
2026-01-04 12:33:29.67	309.95	5.74	-54.0	-67.3	3.8	1.49e+00	0	41	104	0	79	16844
2026-01-04 12:33:31.68	310.23	5.68	-54.0	-67.3	3.8	1.49e+00	0	42	104	0	79	16869
2026-01-04 12:33:33.69	310.51	5.62	-53.9	-67.2	3.8	1.49e+00	0	41	104	0	79	16681
2026-01-04 12:33:35.70	310.80	5.56	-53.9	-67.2	3.8	1.49e+00	0	41	104	0	79	16660
2026-01-04 12:33:37.71	311.08	5.49	-54.0	-67.3	3.8	1.49e+00	0	41	104	0	79	16783
2026-01-04 12:33:39.71	311.35	5.43	-54.0	-67.3	3.8	1.49e+00	0	42	104	0	79	16804
2026-01-04 12:33:41.72	311.63	5.37	-54.2	-67.5	3.8	1.49e+00	0	41	104	0	79	17155
2026-01-04 12:33:43.73	311.91	5.31	-54.1	-67.5	3.8	1.49e+00	0	41	104	0	79	17149
2026-01-04 12:33:45.74	312.18	5.25	-54.1	-67.4	3.8	1.49e+00	0	41	104	0	79	17004
2026-01-04 12:33:47.75	312.46	5.18	-54.1	-67.4	3.8	1.49e+00	0	41	104	0	79	16956
2026-01-04 12:33:49.76	312.73	5.12	-54.0	-67.4	3.8	1.49e+00	0	42	104	0	79	16936
2026-01-04 12:33:51.77	313.00	5.05	-54.0	-67.4	3.8	1.49e+00	0	41	104	0	79	16900
2026-01-04 12:33:53.77	313.27	4.99	-54.1	-67.3	3.8	1.49e+00	0	41	104	0	79	16884

#Closed at: 2026-01-04 12:33:54
#Recorded file [0 MB]: D:/Data/31040_260104_152730.dat