passes_logs/2026/01/04/T1/T1__20260104_063845_NOAA_20_JPSS-1_rec.log

#Pass ID: 20260104_063845_NOAA 20 (JPSS-1)
#Satellite: NOAA 20 (JPSS-1)
#Configuration: NOAA 20
#almurnet v.1.7.20251203
#Start time: 2026-01-04 06:38:46

#Version: 2.0.20230620
#Station: T1
#Location: 37.570604 lon 55.790049 lat
#TLE: 1 43013U 17073A   26003.91140107  .00000139  00000+0  86966-4 0  9994
#TLE: 2 43013  98.7625 304.9685 0001869  55.4713 304.6639 14.19532967421166

#Time	Az	El	Level	Level2	SNR	BER	BlckErr	Temp	State	Recorded	gain1	gain2
2026-01-04 06:38:46.06	47.26	5.03	-52.7	-67.9	3.8	1.49e+00	0	37	0	0	76	21308
2026-01-04 06:38:47.06	47.12	5.05	-52.6	-67.9	3.8	1.49e+00	0	37	104	0	77	20075
2026-01-04 06:38:48.07	46.98	5.08	-52.7	-67.9	3.8	1.49e+00	0	37	104	0	77	20146
2026-01-04 06:38:49.07	46.83	5.10	-52.7	-67.9	3.8	1.49e+00	0	37	104	0	77	20078
2026-01-04 06:38:50.08	46.69	5.12	-52.6	-67.9	3.8	1.49e+00	0	37	104	0	77	20109
2026-01-04 06:38:51.08	46.54	5.15	-52.6	-67.9	3.8	1.49e+00	0	38	104	0	77	20090
2026-01-04 06:38:52.08	46.40	5.17	-52.6	-67.9	3.8	1.49e+00	0	38	104	0	77	20105
2026-01-04 06:38:53.09	46.26	5.19	-52.6	-67.9	3.8	1.49e+00	0	38	104	0	77	20122
2026-01-04 06:38:54.09	46.11	5.22	-52.6	-67.8	3.8	1.49e+00	0	37	104	0	77	19952
2026-01-04 06:38:55.10	45.97	5.24	-52.6	-67.8	3.8	1.49e+00	0	38	104	0	77	20045
2026-01-04 06:38:56.10	45.82	5.26	-52.6	-67.9	3.8	1.49e+00	0	38	104	0	77	20114
2026-01-04 06:38:57.10	45.68	5.29	-52.6	-67.8	3.8	1.49e+00	0	38	104	0	77	20047
2026-01-04 06:38:58.11	45.53	5.31	-52.6	-67.8	3.8	1.49e+00	0	38	104	0	77	20047
2026-01-04 06:38:59.11	45.38	5.33	-52.6	-67.8	3.8	1.49e+00	0	38	104	0	77	19982
2026-01-04 06:39:00.11	45.24	5.35	-52.6	-67.8	3.8	1.49e+00	0	38	104	0	77	20046
2026-01-04 06:39:01.12	45.09	5.37	-52.6	-67.8	3.8	1.49e+00	0	38	104	0	77	20057
2026-01-04 06:39:02.12	44.95	5.40	-52.6	-67.8	3.8	1.49e+00	0	38	104	0	77	20012
2026-01-04 06:39:03.13	44.80	5.42	-52.6	-67.8	3.8	1.49e+00	0	38	104	0	77	19974
2026-01-04 06:39:04.13	44.65	5.44	-52.6	-67.8	3.8	1.49e+00	0	38	104	0	77	20050
2026-01-04 06:39:05.13	44.50	5.46	-52.6	-67.8	3.8	1.49e+00	0	38	104	0	77	20063
2026-01-04 06:39:06.14	44.36	5.48	-52.6	-67.8	3.8	1.49e+00	0	38	104	0	77	19969
2026-01-04 06:39:07.14	44.21	5.50	-52.6	-67.8	3.8	1.49e+00	0	38	104	0	77	20014
2026-01-04 06:39:08.15	44.06	5.53	-52.6	-67.9	3.8	1.49e+00	0	38	104	0	77	20094
2026-01-04 06:39:09.15	43.91	5.55	-52.6	-67.8	3.8	1.49e+00	0	38	104	0	77	20065
2026-01-04 06:39:10.16	43.76	5.57	-52.6	-67.8	3.8	1.49e+00	0	38	104	0	77	19965
2026-01-04 06:39:11.16	43.62	5.59	-52.6	-67.9	3.8	1.49e+00	0	38	104	0	77	20128
2026-01-04 06:39:12.17	43.47	5.61	-52.6	-67.8	3.8	1.49e+00	0	38	104	0	77	19982
2026-01-04 06:39:13.17	43.32	5.63	-52.6	-67.9	3.8	1.49e+00	0	38	104	0	77	20086
2026-01-04 06:39:14.17	43.17	5.65	-52.6	-67.8	3.8	1.49e+00	0	38	104	0	77	20020
2026-01-04 06:39:15.18	43.02	5.67	-52.6	-67.8	3.8	1.49e+00	0	38	104	0	77	20008
2026-01-04 06:39:16.19	42.87	5.69	-52.6	-67.9	3.8	1.49e+00	0	38	104	0	77	20072
2026-01-04 06:39:17.19	42.72	5.71	-52.6	-67.8	3.8	1.49e+00	0	38	104	0	77	20044
2026-01-04 06:39:18.19	42.57	5.73	-52.6	-67.8	3.8	1.49e+00	0	39	104	0	77	20055
2026-01-04 06:39:19.20	42.42	5.75	-52.8	-68.0	3.8	1.49e+00	0	39	104	0	77	20449
2026-01-04 06:39:20.20	42.27	5.76	-52.8	-68.0	3.8	1.49e+00	0	39	104	0	77	20393
2026-01-04 06:39:21.21	42.12	5.78	-52.7	-67.9	3.8	1.49e+00	0	39	104	0	77	20297
2026-01-04 06:39:22.21	41.97	5.80	-52.8	-68.0	3.8	1.49e+00	0	39	104	0	77	20377
2026-01-04 06:39:23.21	41.82	5.82	-52.7	-67.9	3.8	1.49e+00	0	39	104	0	77	20201
2026-01-04 06:39:24.22	41.67	5.84	-52.7	-67.9	3.8	1.49e+00	0	39	104	0	77	20287
2026-01-04 06:39:25.22	41.51	5.86	-52.7	-68.0	3.8	1.49e+00	0	39	104	0	77	20311
2026-01-04 06:39:26.23	41.36	5.88	-52.7	-67.9	3.8	1.49e+00	0	39	104	0	77	20220
2026-01-04 06:39:27.23	41.21	5.89	-52.7	-68.0	3.8	1.49e+00	0	39	104	0	77	20307
2026-01-04 06:39:28.24	41.06	5.91	-52.7	-67.9	3.8	1.49e+00	0	39	104	0	77	20227
2026-01-04 06:39:29.24	40.91	5.93	-52.7	-67.9	3.8	1.49e+00	0	39	104	0	77	20185
2026-01-04 06:39:30.24	40.76	5.95	-52.7	-67.9	3.8	1.49e+00	0	39	104	0	77	20176
2026-01-04 06:39:31.24	40.60	5.96	-52.7	-67.9	3.8	1.49e+00	0	39	104	0	77	20128
2026-01-04 06:39:32.25	40.45	5.98	-52.7	-67.9	3.8	1.49e+00	0	39	104	0	77	20240
2026-01-04 06:39:33.25	40.30	6.00	-52.7	-67.9	3.8	1.49e+00	0	39	104	0	77	20175
2026-01-04 06:39:34.25	40.15	6.01	-52.6	-67.9	3.8	1.49e+00	0	39	104	0	77	20123
2026-01-04 06:39:35.26	39.99	6.03	-52.7	-67.9	3.8	1.49e+00	0	39	104	0	77	20108
2026-01-04 06:39:36.26	39.84	6.05	-52.7	-67.9	3.8	1.49e+00	0	39	104	0	77	20114
2026-01-04 06:39:37.27	39.68	6.06	-52.6	-67.8	3.8	1.49e+00	0	39	104	0	77	19966
2026-01-04 06:39:38.27	39.53	6.08	-52.7	-67.9	3.8	1.49e+00	0	39	104	0	77	20238
2026-01-04 06:39:39.28	39.38	6.09	-52.7	-67.9	3.8	1.49e+00	0	39	104	0	77	20131
2026-01-04 06:39:40.28	39.22	6.11	-52.7	-67.9	3.8	1.49e+00	0	39	104	0	77	20119
2026-01-04 06:39:41.28	39.07	6.12	-52.7	-67.9	3.8	1.49e+00	0	39	104	0	77	20129
2026-01-04 06:39:42.29	38.91	6.14	-52.7	-67.8	3.8	1.49e+00	0	39	104	0	77	20002
2026-01-04 06:39:43.29	38.76	6.16	-52.6	-67.8	3.8	1.49e+00	0	39	104	0	77	20037
2026-01-04 06:39:44.30	38.60	6.17	-52.7	-67.9	3.8	1.49e+00	0	39	104	0	77	20150
2026-01-04 06:39:45.30	38.45	6.18	-52.7	-67.9	3.8	1.49e+00	0	39	104	0	77	20088
2026-01-04 06:39:46.30	38.30	6.20	-52.7	-67.9	3.8	1.49e+00	0	39	104	0	77	20077
2026-01-04 06:39:47.31	38.14	6.21	-52.7	-67.9	3.8	1.49e+00	0	39	104	0	77	20097
2026-01-04 06:39:48.31	37.99	6.23	-52.6	-67.9	3.8	1.49e+00	0	39	104	0	77	20093
2026-01-04 06:39:49.32	37.83	6.24	-52.6	-67.8	3.8	1.49e+00	0	39	104	0	77	20067
2026-01-04 06:39:50.32	37.67	6.25	-52.6	-67.9	3.8	1.49e+00	0	39	104	0	77	20188
2026-01-04 06:39:51.33	37.52	6.27	-52.6	-67.9	3.8	1.49e+00	0	39	104	0	77	20118
2026-01-04 06:39:52.33	37.36	6.28	-52.6	-67.9	3.8	1.49e+00	0	39	104	0	77	20126
2026-01-04 06:39:53.33	37.21	6.29	-52.6	-67.8	3.8	1.49e+00	0	39	104	0	77	20032
2026-01-04 06:39:54.34	37.05	6.31	-52.6	-67.9	3.8	1.49e+00	0	39	104	0	77	20096
2026-01-04 06:39:55.34	36.89	6.32	-52.7	-67.9	3.8	1.49e+00	0	39	104	0	77	20135
2026-01-04 06:39:56.35	36.74	6.33	-52.6	-67.8	3.8	1.49e+00	0	39	104	0	77	20022
2026-01-04 06:39:57.35	36.58	6.35	-52.6	-67.8	3.8	1.49e+00	0	39	104	0	77	20006
2026-01-04 06:39:58.36	36.42	6.36	-52.6	-67.8	3.8	1.49e+00	0	39	104	0	77	19958
2026-01-04 06:39:59.36	36.27	6.37	-52.6	-67.8	3.8	1.49e+00	0	39	104	0	77	19974
2026-01-04 06:40:00.36	36.11	6.38	-52.6	-67.8	3.8	1.49e+00	0	39	104	0	77	20055
2026-01-04 06:40:01.37	35.95	6.39	-52.6	-67.8	3.8	1.49e+00	0	39	104	0	77	19988
2026-01-04 06:40:02.37	35.80	6.40	-52.6	-67.8	3.8	1.49e+00	0	40	104	0	77	20035
2026-01-04 06:40:03.38	35.64	6.42	-52.6	-67.8	3.8	1.49e+00	0	39	104	0	77	19999
2026-01-04 06:40:04.38	35.48	6.43	-52.6	-67.8	3.8	1.49e+00	0	39	104	0	77	20001
2026-01-04 06:40:05.39	35.32	6.44	-52.6	-67.8	3.8	1.49e+00	0	39	104	0	77	19981
2026-01-04 06:40:06.39	35.17	6.45	-52.6	-67.8	3.8	1.49e+00	0	39	104	0	77	20002
2026-01-04 06:40:07.40	35.01	6.46	-52.6	-67.8	3.8	1.49e+00	0	39	104	0	77	20001
2026-01-04 06:40:08.40	34.85	6.47	-52.6	-67.8	3.8	1.49e+00	0	39	104	0	77	20008
2026-01-04 06:40:09.40	34.69	6.48	-52.6	-67.8	3.8	1.49e+00	0	39	104	0	77	19961
2026-01-04 06:40:10.41	34.53	6.49	-52.6	-67.8	3.8	1.49e+00	0	39	104	0	77	19971
2026-01-04 06:40:11.41	34.38	6.50	-52.6	-67.8	3.8	1.49e+00	0	39	104	0	77	20010
2026-01-04 06:40:12.42	34.22	6.51	-52.6	-67.8	3.8	1.49e+00	0	39	104	0	77	20055
2026-01-04 06:40:13.42	34.06	6.52	-52.6	-67.8	3.8	1.49e+00	0	40	104	0	77	19983
2026-01-04 06:40:14.42	33.90	6.53	-52.6	-67.8	3.8	1.49e+00	0	39	104	0	77	19931
2026-01-04 06:40:15.43	33.74	6.53	-52.6	-67.9	3.8	1.49e+00	0	40	104	0	77	20082
2026-01-04 06:40:16.43	33.58	6.54	-52.6	-67.8	3.8	1.49e+00	0	39	104	0	77	19874
2026-01-04 06:40:17.44	33.42	6.55	-52.5	-67.8	3.8	1.49e+00	0	40	104	0	77	19945
2026-01-04 06:40:18.44	33.27	6.56	-52.5	-67.8	3.8	1.49e+00	0	39	104	0	77	20071
2026-01-04 06:40:19.45	33.11	6.57	-52.5	-67.9	3.8	1.49e+00	0	39	104	0	77	20108
2026-01-04 06:40:20.45	32.95	6.58	-52.6	-67.8	3.8	1.49e+00	0	40	104	0	77	20015
2026-01-04 06:40:21.46	32.79	6.58	-52.6	-67.9	3.8	1.49e+00	0	39	104	0	77	20103
2026-01-04 06:40:22.46	32.63	6.59	-52.6	-67.8	3.8	1.49e+00	0	40	104	0	77	20066
2026-01-04 06:40:23.46	32.47	6.60	-52.6	-67.9	3.8	1.49e+00	0	40	104	0	77	20115
2026-01-04 06:40:24.47	32.31	6.60	-52.6	-67.8	3.8	1.49e+00	0	39	104	0	77	20010
2026-01-04 06:40:25.47	32.15	6.61	-52.6	-67.8	3.8	1.49e+00	0	39	104	0	77	20048
2026-01-04 06:40:26.48	31.99	6.62	-52.6	-67.8	3.8	1.49e+00	0	40	104	0	77	20046
2026-01-04 06:40:27.48	31.83	6.62	-52.6	-67.8	3.8	1.49e+00	0	39	104	0	77	19974
2026-01-04 06:40:28.49	31.67	6.63	-52.6	-67.8	3.8	1.49e+00	0	39	104	0	77	19969
2026-01-04 06:40:29.49	31.51	6.64	-52.6	-67.8	3.8	1.49e+00	0	39	104	0	77	19998
2026-01-04 06:40:30.49	31.35	6.64	-52.6	-67.8	3.8	1.49e+00	0	40	104	0	77	19994
2026-01-04 06:40:31.50	31.19	6.65	-52.8	-68.0	3.8	1.49e+00	0	40	104	0	77	20373
2026-01-04 06:40:32.50	31.03	6.65	-52.8	-68.0	3.8	1.49e+00	0	39	104	0	77	20322
2026-01-04 06:40:33.51	30.87	6.66	-52.8	-68.0	3.8	1.49e+00	0	40	104	0	77	20380
2026-01-04 06:40:34.51	30.71	6.66	-52.8	-68.0	3.8	1.49e+00	0	40	104	0	77	20365
2026-01-04 06:40:35.51	30.55	6.67	-52.7	-68.0	3.8	1.49e+00	0	39	104	0	77	20355
2026-01-04 06:40:36.52	30.39	6.67	-52.7	-67.9	3.8	1.49e+00	0	40	104	0	77	20267
2026-01-04 06:40:37.52	30.23	6.68	-52.7	-68.0	3.8	1.49e+00	0	40	104	0	77	20320
2026-01-04 06:40:38.53	30.07	6.68	-52.7	-67.9	3.8	1.49e+00	0	40	104	0	77	20255
2026-01-04 06:40:39.53	29.91	6.68	-52.7	-67.9	3.8	1.49e+00	0	40	104	0	77	20219
2026-01-04 06:40:40.54	29.75	6.69	-52.7	-67.9	3.8	1.49e+00	0	40	104	0	77	20241
2026-01-04 06:40:41.54	29.59	6.69	-52.7	-67.9	3.8	1.49e+00	0	40	104	0	77	20249
2026-01-04 06:40:42.54	29.43	6.69	-52.7	-67.9	3.8	1.49e+00	0	40	104	0	77	20228
2026-01-04 06:40:43.55	29.27	6.70	-52.7	-67.9	3.8	1.49e+00	0	40	104	0	77	20223
2026-01-04 06:40:44.55	29.11	6.70	-52.7	-67.9	3.8	1.49e+00	0	40	104	0	77	20281
2026-01-04 06:40:45.56	28.95	6.70	-52.7	-67.9	3.8	1.49e+00	0	40	104	0	77	20139
2026-01-04 06:40:46.56	28.79	6.71	-52.7	-67.9	3.8	1.49e+00	0	40	104	0	77	20100
2026-01-04 06:40:47.57	28.63	6.71	-52.7	-67.9	3.8	1.49e+00	0	40	104	0	77	20141
2026-01-04 06:40:48.57	28.47	6.71	-52.7	-67.9	3.8	1.49e+00	0	40	104	0	77	20198
2026-01-04 06:40:49.57	28.31	6.71	-52.7	-67.9	3.8	1.49e+00	0	40	104	0	77	20137
2026-01-04 06:40:50.58	28.14	6.71	-52.7	-67.9	3.8	1.49e+00	0	40	104	0	77	20106
2026-01-04 06:40:51.58	27.98	6.71	-52.7	-67.9	3.8	1.49e+00	0	40	104	0	77	20148
2026-01-04 06:40:52.59	27.82	6.72	-52.7	-67.9	3.8	1.49e+00	0	40	104	0	77	20192
2026-01-04 06:40:53.59	27.66	6.72	-52.7	-67.9	3.8	1.49e+00	0	40	104	0	77	20225
2026-01-04 06:40:54.59	27.50	6.72	-52.7	-67.9	3.8	1.49e+00	0	40	104	0	77	20269
2026-01-04 06:40:55.60	27.34	6.72	-52.7	-67.9	3.8	1.49e+00	0	40	104	0	77	20249
2026-01-04 06:40:56.60	27.18	6.72	-52.7	-67.9	3.8	1.49e+00	0	40	104	0	77	20172
2026-01-04 06:40:57.60	27.02	6.72	-52.7	-67.9	3.8	1.49e+00	0	40	104	0	77	20122
2026-01-04 06:40:58.61	26.86	6.72	-52.7	-67.8	3.8	1.49e+00	0	40	104	0	77	20071
2026-01-04 06:40:59.61	26.70	6.72	-52.7	-67.9	3.8	1.49e+00	0	40	104	0	77	20139
2026-01-04 06:41:00.62	26.54	6.72	-52.7	-67.9	3.8	1.49e+00	0	40	104	0	77	20088
2026-01-04 06:41:01.62	26.38	6.72	-52.7	-67.9	3.8	1.49e+00	0	40	104	0	77	20195
2026-01-04 06:41:02.62	26.22	6.72	-52.7	-67.9	3.8	1.49e+00	0	40	104	0	77	20133
2026-01-04 06:41:03.63	26.06	6.71	-52.7	-67.9	3.8	1.49e+00	0	40	104	0	77	20151
2026-01-04 06:41:04.64	25.90	6.71	-52.7	-67.9	3.8	1.49e+00	0	40	104	0	77	20215
2026-01-04 06:41:05.64	25.74	6.71	-52.7	-67.9	3.8	1.49e+00	0	40	104	0	77	20118
2026-01-04 06:41:06.64	25.58	6.71	-52.7	-67.9	3.8	1.49e+00	0	40	104	0	77	20157
2026-01-04 06:41:07.65	25.41	6.71	-52.7	-67.9	3.8	1.49e+00	0	40	104	0	77	20138
2026-01-04 06:41:08.65	25.25	6.71	-52.7	-67.9	3.8	1.49e+00	0	40	104	0	77	20139
2026-01-04 06:41:09.66	25.09	6.70	-52.7	-67.9	3.8	1.49e+00	0	40	104	0	77	20147
2026-01-04 06:41:10.66	24.93	6.70	-52.7	-67.9	3.8	1.49e+00	0	40	104	0	77	20117
2026-01-04 06:41:11.66	24.77	6.70	-52.7	-67.9	3.8	1.49e+00	0	40	104	0	77	20134
2026-01-04 06:41:12.67	24.61	6.70	-52.7	-67.9	3.8	1.49e+00	0	40	104	0	77	20104
2026-01-04 06:41:13.67	24.45	6.69	-52.7	-67.8	3.8	1.49e+00	0	40	104	0	77	20059
2026-01-04 06:41:14.68	24.29	6.69	-52.6	-67.9	3.8	1.49e+00	0	40	104	0	77	20133
2026-01-04 06:41:15.68	24.13	6.68	-52.7	-67.9	3.8	1.49e+00	0	40	104	0	77	20098
2026-01-04 06:41:16.69	23.97	6.68	-52.7	-67.9	3.8	1.49e+00	0	40	104	0	77	20117
2026-01-04 06:41:17.69	23.81	6.68	-52.7	-67.9	3.8	1.49e+00	0	40	104	0	77	20145
2026-01-04 06:41:18.69	23.65	6.67	-52.7	-67.8	3.8	1.49e+00	0	40	104	0	77	20025
2026-01-04 06:41:19.70	23.49	6.67	-52.7	-67.9	3.8	1.49e+00	0	40	104	0	77	20161
2026-01-04 06:41:20.70	23.33	6.66	-52.7	-67.9	3.8	1.49e+00	0	40	104	0	77	20163
2026-01-04 06:41:21.71	23.17	6.66	-52.7	-67.9	3.8	1.49e+00	0	40	104	0	77	20118
2026-01-04 06:41:22.71	23.01	6.65	-52.7	-67.9	3.8	1.49e+00	0	40	104	0	77	20158
2026-01-04 06:41:23.71	22.85	6.65	-52.7	-67.8	3.8	1.49e+00	0	40	104	0	77	20027
2026-01-04 06:41:24.72	22.69	6.64	-52.7	-67.8	3.8	1.49e+00	0	40	104	0	77	20066
2026-01-04 06:41:25.72	22.53	6.64	-52.7	-67.9	3.8	1.49e+00	0	40	104	0	77	20152
2026-01-04 06:41:26.72	22.37	6.63	-52.7	-67.9	3.8	1.49e+00	0	40	104	0	77	20181
2026-01-04 06:41:27.73	22.21	6.62	-52.7	-67.9	3.8	1.49e+00	0	40	104	0	77	20154
2026-01-04 06:41:28.73	22.05	6.62	-52.6	-67.9	3.8	1.49e+00	0	40	104	0	77	20129
2026-01-04 06:41:29.74	21.89	6.61	-52.7	-67.9	3.8	1.49e+00	0	40	104	0	77	20240
2026-01-04 06:41:30.74	21.73	6.61	-52.7	-67.9	3.8	1.49e+00	0	40	104	0	77	20166
2026-01-04 06:41:31.75	21.57	6.60	-52.7	-67.9	3.8	1.49e+00	0	40	104	0	77	20136
2026-01-04 06:41:32.75	21.42	6.59	-52.7	-67.9	3.8	1.49e+00	0	40	104	0	77	20114
2026-01-04 06:41:33.75	21.26	6.58	-52.7	-67.9	3.8	1.49e+00	0	40	104	0	77	20153
2026-01-04 06:41:34.76	21.10	6.58	-52.7	-67.9	3.8	1.49e+00	0	40	104	0	77	20101
2026-01-04 06:41:35.76	20.94	6.57	-52.7	-67.9	3.8	1.49e+00	0	40	104	0	77	20180
2026-01-04 06:41:36.77	20.78	6.56	-52.7	-67.8	3.8	1.49e+00	0	40	104	0	77	20057
2026-01-04 06:41:37.77	20.62	6.55	-52.7	-67.9	3.8	1.49e+00	0	40	104	0	77	20153
2026-01-04 06:41:38.78	20.46	6.54	-52.7	-67.9	3.8	1.49e+00	0	40	104	0	77	20083
2026-01-04 06:41:39.78	20.30	6.54	-52.7	-67.9	3.8	1.49e+00	0	40	104	0	77	20111
2026-01-04 06:41:40.79	20.14	6.53	-52.7	-67.9	3.8	1.49e+00	0	40	104	0	77	20183
2026-01-04 06:41:41.79	19.99	6.52	-52.7	-67.9	3.8	1.49e+00	0	40	104	0	77	20143
2026-01-04 06:41:42.79	19.83	6.51	-52.7	-67.9	3.8	1.49e+00	0	40	104	0	77	20163
2026-01-04 06:41:43.80	19.67	6.50	-52.7	-67.9	3.8	1.49e+00	0	40	104	0	77	20177
2026-01-04 06:41:44.80	19.51	6.49	-52.7	-67.9	3.8	1.49e+00	0	40	104	0	77	20106
2026-01-04 06:41:45.81	19.35	6.48	-52.7	-67.9	3.8	1.49e+00	0	40	104	0	77	20089
2026-01-04 06:41:46.81	19.20	6.47	-52.8	-68.0	3.8	1.49e+00	0	40	104	0	77	20508
2026-01-04 06:41:47.81	19.04	6.46	-52.8	-68.0	3.8	1.49e+00	0	40	104	0	77	20497
2026-01-04 06:41:48.82	18.88	6.45	-52.8	-68.0	3.8	1.49e+00	0	40	104	0	77	20467
2026-01-04 06:41:49.82	18.72	6.44	-52.8	-68.0	3.8	1.49e+00	0	40	104	0	77	20426
2026-01-04 06:41:50.83	18.56	6.43	-52.8	-68.0	3.8	1.49e+00	0	40	104	0	77	20391
2026-01-04 06:41:51.83	18.41	6.42	-52.7	-68.0	3.8	1.49e+00	0	40	104	0	77	20361
2026-01-04 06:41:52.84	18.25	6.41	-52.8	-68.0	3.8	1.49e+00	0	40	104	0	77	20395
2026-01-04 06:41:53.84	18.09	6.39	-52.7	-67.9	3.8	1.49e+00	0	40	104	0	77	20231
2026-01-04 06:41:54.85	17.94	6.38	-52.8	-68.0	3.8	1.49e+00	0	40	104	0	77	20394
2026-01-04 06:41:55.85	17.78	6.37	-52.7	-68.0	3.8	1.49e+00	0	40	104	0	77	20351
2026-01-04 06:41:56.85	17.62	6.36	-52.7	-67.9	3.8	1.49e+00	0	40	104	0	77	20229
2026-01-04 06:41:57.86	17.47	6.35	-52.8	-67.9	3.8	1.49e+00	0	40	104	0	77	20195
2026-01-04 06:41:58.86	17.31	6.33	-52.7	-67.9	3.8	1.49e+00	0	40	104	0	77	20265
2026-01-04 06:41:59.87	17.15	6.32	-52.7	-67.9	3.8	1.49e+00	0	40	104	0	77	20290
2026-01-04 06:42:00.87	17.00	6.31	-52.7	-67.9	3.8	1.49e+00	0	40	104	0	77	20273
2026-01-04 06:42:01.88	16.84	6.30	-52.7	-67.9	3.8	1.49e+00	0	40	104	0	77	20081
2026-01-04 06:42:02.88	16.69	6.28	-52.7	-68.0	3.8	1.49e+00	0	40	104	0	77	20325
2026-01-04 06:42:03.88	16.53	6.27	-52.7	-67.9	3.8	1.49e+00	0	40	104	0	77	20201
2026-01-04 06:42:04.89	16.37	6.26	-52.7	-68.0	3.8	1.49e+00	0	40	104	0	77	20307
2026-01-04 06:42:05.89	16.22	6.24	-52.7	-67.9	3.8	1.49e+00	0	40	104	0	77	20162
2026-01-04 06:42:06.90	16.06	6.23	-52.7	-67.9	3.8	1.49e+00	0	40	104	0	77	20187
2026-01-04 06:42:07.90	15.91	6.22	-52.7	-67.9	3.8	1.49e+00	0	40	104	0	77	20210
2026-01-04 06:42:08.90	15.75	6.20	-52.7	-67.9	3.8	1.49e+00	0	40	104	0	77	20269
2026-01-04 06:42:09.91	15.60	6.19	-52.7	-67.9	3.8	1.49e+00	0	40	104	0	77	20301
2026-01-04 06:42:10.91	15.44	6.17	-52.7	-67.9	3.8	1.49e+00	0	40	104	0	77	20132
2026-01-04 06:42:11.92	15.29	6.16	-52.7	-67.8	3.8	1.49e+00	0	40	104	0	77	20041
2026-01-04 06:42:12.92	15.14	6.14	-52.7	-67.9	3.8	1.49e+00	0	40	104	0	77	20152
2026-01-04 06:42:13.93	14.98	6.13	-52.7	-67.9	3.8	1.49e+00	0	40	104	0	77	20086
2026-01-04 06:42:14.93	14.83	6.11	-52.6	-67.8	3.8	1.49e+00	0	40	104	0	77	20043
2026-01-04 06:42:15.93	14.67	6.10	-52.7	-67.9	3.8	1.49e+00	0	40	104	0	77	20146
2026-01-04 06:42:16.94	14.52	6.08	-52.6	-67.8	3.8	1.49e+00	0	40	104	0	77	20022
2026-01-04 06:42:17.94	14.37	6.06	-52.7	-67.9	3.8	1.49e+00	0	40	104	0	76	21301
2026-01-04 06:42:18.94	14.21	6.05	-52.6	-67.8	3.8	1.49e+00	0	40	104	0	76	21222
2026-01-04 06:42:19.95	14.06	6.03	-52.6	-67.9	3.8	1.49e+00	0	40	104	0	76	21296
2026-01-04 06:42:20.95	13.91	6.02	-52.6	-67.8	3.8	1.49e+00	0	40	104	0	76	21210
2026-01-04 06:42:21.96	13.75	6.00	-52.6	-67.8	3.8	1.49e+00	0	40	104	0	76	21119
2026-01-04 06:42:22.96	13.60	5.98	-52.6	-67.8	3.8	1.49e+00	0	40	104	0	76	21104
2026-01-04 06:42:23.97	13.45	5.97	-52.6	-67.9	3.8	1.49e+00	0	40	104	0	76	21294
2026-01-04 06:42:24.97	13.30	5.95	-52.6	-67.9	3.8	1.49e+00	0	40	104	0	76	21292
2026-01-04 06:42:25.98	13.14	5.93	-52.6	-67.8	3.8	1.49e+00	0	40	104	0	76	21204
2026-01-04 06:42:26.98	12.99	5.91	-52.6	-67.8	3.8	1.49e+00	0	40	104	0	76	21239
2026-01-04 06:42:27.98	12.84	5.90	-52.6	-67.8	3.8	1.49e+00	0	40	104	0	76	21163
2026-01-04 06:42:28.99	12.69	5.88	-52.6	-67.9	3.8	1.49e+00	0	40	104	0	76	21297
2026-01-04 06:42:29.99	12.54	5.86	-52.6	-67.8	3.8	1.49e+00	0	40	104	0	76	21236
2026-01-04 06:42:31.00	12.39	5.84	-52.6	-67.8	3.8	1.49e+00	0	40	104	0	76	21123
2026-01-04 06:42:32.00	12.24	5.82	-52.6	-67.8	3.8	1.49e+00	0	40	104	0	76	21216
2026-01-04 06:42:33.00	12.09	5.81	-52.6	-67.8	3.8	1.49e+00	0	40	104	0	76	21192
2026-01-04 06:42:34.01	11.94	5.79	-52.6	-67.8	3.8	1.49e+00	0	40	104	0	76	21215
2026-01-04 06:42:35.01	11.79	5.77	-52.6	-67.8	3.8	1.49e+00	0	40	104	0	76	21131
2026-01-04 06:42:36.02	11.64	5.75	-52.6	-67.8	3.8	1.49e+00	0	40	104	0	76	21198
2026-01-04 06:42:37.02	11.49	5.73	-52.6	-67.8	3.8	1.49e+00	0	40	104	0	76	21173
2026-01-04 06:42:38.03	11.34	5.71	-52.6	-67.8	3.8	1.49e+00	0	40	104	0	76	21197
2026-01-04 06:42:39.03	11.19	5.69	-52.6	-67.8	3.8	1.49e+00	0	40	104	0	76	21239
2026-01-04 06:42:40.03	11.04	5.67	-52.6	-67.8	3.8	1.49e+00	0	40	104	0	76	21246
2026-01-04 06:42:41.04	10.89	5.65	-52.6	-67.8	3.8	1.49e+00	0	40	104	0	76	21198
2026-01-04 06:42:42.04	10.74	5.63	-52.6	-67.8	3.8	1.49e+00	0	40	104	0	76	21215
2026-01-04 06:42:43.05	10.59	5.61	-52.6	-67.8	3.8	1.49e+00	0	40	104	0	76	21175
2026-01-04 06:42:44.05	10.44	5.59	-52.7	-67.9	3.8	1.49e+00	0	40	104	0	76	21475
2026-01-04 06:42:45.06	10.29	5.57	-52.7	-67.9	3.8	1.49e+00	0	40	104	0	76	21484
2026-01-04 06:42:46.06	10.15	5.55	-52.7	-67.9	3.8	1.49e+00	0	40	104	0	76	21372
2026-01-04 06:42:47.07	10.00	5.53	-52.7	-67.9	3.8	1.49e+00	0	40	104	0	76	21448
2026-01-04 06:42:48.07	9.85	5.51	-52.7	-67.9	3.8	1.49e+00	0	40	104	0	76	21457
2026-01-04 06:42:49.08	9.70	5.49	-52.7	-67.9	3.8	1.49e+00	0	40	104	0	76	21360
2026-01-04 06:42:50.08	9.56	5.46	-52.7	-67.9	3.8	1.49e+00	0	40	104	0	76	21371
2026-01-04 06:42:51.08	9.41	5.44	-52.7	-67.9	3.8	1.49e+00	0	40	104	0	76	21388
2026-01-04 06:42:52.09	9.26	5.42	-52.7	-67.9	3.8	1.49e+00	0	40	104	0	76	21409
2026-01-04 06:42:53.11	9.11	5.40	-52.7	-67.9	3.8	1.49e+00	0	40	104	0	76	21392
2026-01-04 06:42:54.11	8.97	5.38	-52.7	-67.9	3.8	1.49e+00	0	40	104	0	76	21450
2026-01-04 06:42:55.12	8.82	5.36	-52.7	-67.9	3.8	1.49e+00	0	40	104	0	76	21448
2026-01-04 06:42:56.12	8.68	5.33	-52.7	-67.9	3.8	1.49e+00	0	40	104	0	76	21339
2026-01-04 06:42:57.12	8.53	5.31	-52.7	-67.9	3.8	1.49e+00	0	40	104	0	76	21386
2026-01-04 06:42:58.13	8.38	5.29	-52.7	-67.9	3.8	1.49e+00	0	40	104	0	76	21282
2026-01-04 06:42:59.13	8.24	5.27	-52.7	-67.9	3.8	1.49e+00	0	40	104	0	76	21464
2026-01-04 06:43:00.14	8.09	5.24	-52.7	-67.9	3.8	1.49e+00	0	40	104	0	76	21409
2026-01-04 06:43:01.14	7.95	5.22	-52.7	-67.9	3.8	1.49e+00	0	40	104	0	76	21390
2026-01-04 06:43:02.14	7.81	5.20	-52.7	-67.9	3.8	1.49e+00	0	40	104	0	76	21320
2026-01-04 06:43:03.15	7.66	5.17	-52.7	-67.9	3.8	1.49e+00	0	40	104	0	76	21292
2026-01-04 06:43:04.15	7.52	5.15	-52.7	-67.9	3.8	1.49e+00	0	40	104	0	76	21329
2026-01-04 06:43:05.16	7.37	5.13	-52.7	-67.9	3.8	1.49e+00	0	40	104	0	76	21417
2026-01-04 06:43:06.16	7.23	5.10	-52.7	-67.9	3.8	1.49e+00	0	40	104	0	76	21436
2026-01-04 06:43:07.16	7.09	5.08	-52.7	-67.9	3.8	1.49e+00	0	40	104	0	76	21267
2026-01-04 06:43:08.17	6.94	5.05	-52.7	-67.9	3.8	1.49e+00	0	40	104	0	76	21279
2026-01-04 06:43:09.17	6.80	5.03	-52.7	-67.9	3.8	1.49e+00	0	40	104	0	76	21394
2026-01-04 06:43:10.18	6.66	5.01	-52.7	-67.9	3.8	1.49e+00	0	40	104	0	76	21439
2026-01-04 06:43:11.18	6.52	4.98	-52.7	-67.9	3.8	1.49e+00	0	40	104	0	76	21458

#Closed at: 2026-01-04 06:43:12
#Recorded file [0 MB]: D:/Data/31040_260104_093846.dat