passes_logs/2026/01/04/T1/T1__20260104_205219_KHAYYAM_rec.log

#Pass ID: 20260104_205219_KHAYYAM
#Satellite: KHAYYAM
#Configuration: KHAYYAM_480M
#almurnet v.1.7.20251203
#Start time: 2026-01-04 20:52:19

#Version: 2.0.20230620
#Station: T1
#Location: 37.570604 lon 55.790049 lat
#TLE: 1 53370U 22096A   26004.25948006  .00009070  00000+0  36935-3 0  9997
#TLE: 2 53370  97.3569 271.4608 0001229  85.3250 274.8128 15.24710400189604

#Time	Az	El	Level	Level2	SNR	BER	BlckErr	Temp	State	Recorded	gain1	gain2
2026-01-04 20:52:19.89	20.55	5.05	-51.9	-56.1	3.4	0.00e+00	0	41	0	0	75	23251
2026-01-04 20:52:21.89	20.65	5.21	-52.0	-56.2	3.7	0.00e+00	0	41	104	0	74	24857
2026-01-04 20:52:23.90	20.75	5.37	-52.0	-56.2	3.7	0.00e+00	0	41	104	0	74	24995
2026-01-04 20:52:25.91	20.85	5.53	-52.0	-56.2	3.7	0.00e+00	0	41	104	0	74	25037
2026-01-04 20:52:27.92	20.96	5.69	-52.0	-56.2	3.7	0.00e+00	0	42	104	0	74	24958
2026-01-04 20:52:29.93	21.06	5.85	-52.0	-56.2	3.7	0.00e+00	0	42	104	0	74	25042
2026-01-04 20:52:31.94	21.17	6.02	-52.0	-56.2	3.7	0.00e+00	0	42	104	0	74	25037
2026-01-04 20:52:33.95	21.28	6.19	-52.1	-56.3	3.7	0.00e+00	0	42	104	0	74	25154
2026-01-04 20:52:35.95	21.38	6.35	-52.1	-56.3	3.7	0.00e+00	0	42	104	0	74	25219
2026-01-04 20:52:37.96	21.50	6.52	-52.1	-56.3	3.7	0.00e+00	0	43	104	0	74	25214
2026-01-04 20:52:39.97	21.61	6.69	-52.1	-56.3	3.7	0.00e+00	0	42	104	0	74	25251
2026-01-04 20:52:41.98	21.72	6.87	-52.1	-56.3	3.7	0.00e+00	0	43	104	0	74	25290
2026-01-04 20:52:43.99	21.84	7.04	-52.1	-56.3	3.7	0.00e+00	0	43	104	0	74	25263
2026-01-04 20:52:45.99	21.95	7.22	-52.1	-56.3	3.7	0.00e+00	0	43	104	0	74	25272
2026-01-04 20:52:48.00	22.07	7.39	-52.1	-56.3	3.7	0.00e+00	0	43	104	0	74	25234
2026-01-04 20:52:50.01	22.19	7.57	-52.1	-56.3	3.7	0.00e+00	0	43	104	0	74	25265
2026-01-04 20:52:52.02	22.31	7.75	-52.1	-56.3	3.7	0.00e+00	0	43	104	0	74	25332
2026-01-04 20:52:54.03	22.44	7.93	-52.1	-56.3	3.7	0.00e+00	0	43	104	0	74	25351
2026-01-04 20:52:56.04	22.56	8.12	-52.1	-56.3	3.7	0.00e+00	0	43	104	0	74	25316
2026-01-04 20:52:58.04	22.69	8.30	-52.1	-56.3	3.7	0.00e+00	0	43	104	0	74	25270
2026-01-04 20:53:00.05	22.82	8.49	-52.1	-56.4	3.7	0.00e+00	0	44	104	0	74	25391
2026-01-04 20:53:02.06	22.95	8.68	-52.1	-56.3	3.7	0.00e+00	0	44	104	0	74	25179
2026-01-04 20:53:04.07	23.09	8.87	-52.1	-56.3	3.7	0.00e+00	0	44	104	0	74	25213
2026-01-04 20:53:06.08	23.22	9.06	-52.1	-56.3	3.7	0.00e+00	0	44	104	0	74	25306
2026-01-04 20:53:08.48	23.39	9.29	-52.8	-57.8	3.7	0.00e+00	0	44	104	0	76	26770
2026-01-04 20:53:10.52	23.53	9.49	-53.2	-58.6	3.7	0.00e+00	0	44	104	0	77	27598
2026-01-04 20:53:12.53	23.67	9.69	-52.7	-57.9	3.7	0.00e+00	0	44	104	0	77	25392
2026-01-04 20:53:14.53	23.82	9.89	-53.0	-58.4	3.7	0.00e+00	0	44	104	0	77	27131
2026-01-04 20:53:16.57	23.97	10.10	-53.4	-58.6	3.7	0.00e+00	0	44	104	0	77	27806
2026-01-04 20:53:18.64	24.12	10.31	-51.9	-55.9	3.7	0.00e+00	0	44	104	0	75	22692
2026-01-04 20:53:20.65	24.27	10.52	-52.0	-55.7	3.7	0.00e+00	0	45	104	0	75	22338
2026-01-04 20:53:22.57	24.42	10.72	-52.4	-56.4	3.7	0.00e+00	0	44	104	0	75	24201
2026-01-04 20:53:24.57	24.58	10.93	-52.9	-57.9	3.7	0.00e+00	0	45	104	0	76	26916
2026-01-04 20:53:26.58	24.74	11.14	-52.6	-56.8	3.7	0.00e+00	0	45	104	0	76	23808
2026-01-04 20:53:28.59	24.90	11.36	-52.3	-56.2	3.6	0.00e+00	0	45	104	0	75	23586
2026-01-04 20:53:30.59	25.07	11.58	-52.7	-56.9	3.7	0.00e+00	0	45	104	0	76	24182
2026-01-04 20:53:32.82	25.25	11.82	-53.2	-58.2	3.7	0.00e+00	0	45	104	0	77	26518
2026-01-04 20:53:34.85	25.43	12.05	-53.1	-57.5	3.7	0.00e+00	0	45	104	0	77	24325
2026-01-04 20:53:36.86	25.60	12.28	-54.0	-58.5	3.7	0.00e+00	0	45	104	0	79	24441
2026-01-04 20:53:38.86	25.78	12.50	-53.8	-58.2	3.7	0.00e+00	0	45	104	0	79	23429
2026-01-04 20:53:40.87	25.96	12.74	-53.5	-57.2	3.7	0.00e+00	0	45	104	0	79	20999
2026-01-04 20:53:42.87	26.14	12.97	-52.9	-56.0	3.7	0.00e+00	0	45	104	0	77	20550
2026-01-04 20:53:44.94	26.34	13.22	-54.4	-58.8	3.7	0.00e+00	0	45	104	0	79	25127
2026-01-04 20:53:46.95	26.53	13.46	-53.5	-57.3	3.7	0.00e+00	0	45	104	0	79	21334
2026-01-04 20:53:48.96	26.73	13.70	-54.3	-58.9	3.7	0.00e+00	0	45	104	0	79	25455
2026-01-04 20:53:50.96	26.92	13.95	-53.8	-58.4	3.7	0.00e+00	0	45	104	0	79	24152
2026-01-04 20:53:52.97	27.13	14.20	-53.1	-57.5	3.7	0.00e+00	0	45	104	0	78	22971
2026-01-04 20:53:54.98	27.33	14.45	-52.5	-56.7	3.7	0.00e+00	0	45	104	0	77	22199
2026-01-04 20:53:56.98	27.55	14.70	-53.9	-58.6	3.7	0.00e+00	0	45	104	0	78	26169
2026-01-04 20:53:58.99	27.76	14.96	-54.9	-59.5	3.7	0.00e+00	0	45	104	0	80	25829
2026-01-04 20:54:01.00	27.98	15.23	-53.6	-56.9	3.7	0.00e+00	0	45	104	0	79	20237
2026-01-04 20:54:03.00	28.20	15.49	-53.9	-57.6	3.7	0.00e+00	0	45	104	0	78	23160
2026-01-04 20:54:05.01	28.43	15.76	-53.5	-56.7	3.7	0.00e+00	0	45	104	0	79	19884
2026-01-04 20:54:07.02	28.67	16.04	-54.5	-58.4	3.7	0.00e+00	0	45	104	0	79	23971
2026-01-04 20:54:09.02	28.91	16.31	-55.1	-59.5	3.7	0.00e+00	0	46	104	0	80	25968
2026-01-04 20:54:11.03	29.15	16.59	-55.3	-59.8	3.7	0.00e+00	0	45	104	0	81	25141
2026-01-04 20:54:13.03	29.40	16.88	-54.0	-58.2	3.7	0.00e+00	0	45	104	0	79	23666
2026-01-04 20:54:15.03	29.65	17.16	-54.3	-59.4	3.7	0.00e+00	0	46	104	0	80	25401
2026-01-04 20:54:17.04	29.91	17.46	-54.4	-59.5	3.7	0.00e+00	0	46	104	0	80	25746
2026-01-04 20:54:19.04	30.18	17.75	-54.9	-59.6	3.7	0.00e+00	0	46	104	0	80	26268
2026-01-04 20:54:21.05	30.45	18.05	-54.6	-59.5	3.7	0.00e+00	0	46	104	0	80	25859
2026-01-04 20:54:23.06	30.73	18.36	-55.3	-59.9	3.7	0.00e+00	0	46	104	0	81	25553
2026-01-04 20:54:25.06	31.01	18.67	-54.8	-58.6	3.7	0.00e+00	0	46	104	0	81	22014
2026-01-04 20:54:27.07	31.30	18.98	-54.0	-57.3	3.7	0.00e+00	0	46	104	0	80	20130
2026-01-04 20:54:29.07	31.60	19.30	-51.8	-54.1	3.9	0.00e+00	0	46	104	0	75	18464
2026-01-04 20:54:31.07	31.90	19.62	-52.9	-56.0	3.7	0.00e+00	0	46	104	0	76	21614
2026-01-04 20:54:33.08	32.22	19.95	-51.5	-53.8	3.8	0.00e+00	0	46	104	0	74	18944
2026-01-04 20:54:35.03	32.53	20.27	-53.4	-56.7	3.7	0.00e+00	0	46	104	0	77	22281
2026-01-04 20:54:37.03	32.85	20.61	-54.6	-58.5	3.7	0.00e+00	0	46	104	0	80	23132
2026-01-04 20:54:39.03	33.19	20.95	-54.8	-58.8	3.7	0.00e+00	0	46	104	0	80	23785
2026-01-04 20:54:41.04	33.53	21.29	-55.5	-59.8	3.7	0.00e+00	0	46	104	0	81	25245
2026-01-04 20:54:43.04	33.89	21.65	-54.5	-58.1	3.7	0.00e+00	0	46	104	0	81	20766
2026-01-04 20:54:45.05	34.25	22.00	-55.0	-59.5	3.7	0.00e+00	0	46	104	0	80	25731
2026-01-04 20:54:47.06	34.62	22.37	-54.3	-57.9	3.7	0.00e+00	0	46	104	0	80	21488
2026-01-04 20:54:49.06	35.00	22.73	-53.6	-56.4	3.7	0.00e+00	0	46	104	0	79	19141
2026-01-04 20:54:51.06	35.39	23.11	-53.7	-56.5	3.7	0.00e+00	0	46	104	0	79	19310
2026-01-04 20:54:53.07	35.79	23.49	-54.4	-57.5	3.8	0.00e+00	0	46	104	0	79	21639
2026-01-04 20:54:55.07	36.21	23.87	-54.7	-58.0	3.7	0.00e+00	0	46	104	0	80	21827
2026-01-04 20:54:57.08	36.63	24.26	-54.7	-58.0	3.7	0.00e+00	0	46	104	0	80	21763
2026-01-04 20:54:59.04	37.06	24.65	-53.5	-56.3	3.8	0.00e+00	0	46	104	0	79	18965
2026-01-04 20:55:01.10	37.52	25.06	-53.8	-56.9	3.8	0.00e+00	0	46	104	0	79	20280
2026-01-04 20:55:03.14	37.99	25.48	-54.7	-58.2	3.7	0.00e+00	0	46	104	0	80	22213
2026-01-04 20:55:05.14	38.46	25.89	-55.6	-59.6	3.7	0.00e+00	0	46	104	0	81	24718
2026-01-04 20:55:07.15	38.95	26.32	-55.6	-59.6	3.7	0.00e+00	0	46	104	0	81	24577
2026-01-04 20:55:09.32	39.50	26.78	-55.9	-60.1	3.7	0.00e+00	0	46	104	0	82	24739
2026-01-04 20:55:11.32	40.02	27.21	-55.7	-59.9	3.7	0.00e+00	0	46	104	0	82	24038
2026-01-04 20:55:13.33	40.55	27.65	-55.3	-59.0	3.7	0.00e+00	0	46	104	0	82	21653
2026-01-04 20:55:15.33	41.10	28.09	-56.1	-60.3	3.7	0.00e+00	0	46	104	0	82	25293
2026-01-04 20:55:17.53	41.73	28.59	-56.2	-60.6	3.7	0.00e+00	0	46	104	0	82	25982
2026-01-04 20:55:19.55	42.32	29.05	-56.1	-60.6	3.7	0.00e+00	0	46	104	0	82	26182
2026-01-04 20:55:21.55	42.92	29.52	-56.2	-60.8	3.7	0.00e+00	0	46	104	0	83	25188
2026-01-04 20:55:23.56	43.55	29.99	-55.9	-60.4	3.7	0.00e+00	0	46	104	0	83	24088
2026-01-04 20:55:25.57	44.20	30.47	-56.0	-60.4	3.7	0.00e+00	0	46	104	0	83	23982
2026-01-04 20:55:27.57	44.86	30.95	-55.8	-60.0	3.7	0.00e+00	0	46	104	0	83	23046
2026-01-04 20:55:29.58	45.55	31.44	-56.1	-60.6	3.7	0.00e+00	0	46	104	0	83	24787
2026-01-04 20:55:31.59	46.27	31.93	-55.9	-60.2	3.7	0.00e+00	0	46	104	0	83	23552
2026-01-04 20:55:33.59	47.00	32.43	-56.1	-60.5	3.7	0.00e+00	0	46	104	0	83	24272
2026-01-04 20:55:35.59	47.76	32.93	-55.8	-59.9	3.7	0.00e+00	0	46	104	0	83	22671
2026-01-04 20:55:37.60	48.54	33.44	-56.0	-60.3	3.7	0.00e+00	0	46	104	0	83	23951
2026-01-04 20:55:39.60	49.35	33.95	-56.2	-60.7	3.7	0.00e+00	0	46	104	0	83	24813
2026-01-04 20:55:41.63	50.20	34.47	-56.1	-60.7	3.7	0.00e+00	0	46	104	0	83	24963
2026-01-04 20:55:43.66	51.08	35.00	-56.4	-60.8	3.7	0.00e+00	0	46	104	0	83	25193
2026-01-04 20:55:45.67	51.98	35.52	-56.4	-60.9	3.7	0.00e+00	0	46	104	0	83	25459
2026-01-04 20:55:47.67	52.91	36.05	-56.2	-60.6	3.7	0.00e+00	0	46	104	0	83	24562
2026-01-04 20:55:49.68	53.87	36.58	-56.1	-60.2	3.7	0.00e+00	0	46	104	0	83	23649
2026-01-04 20:55:51.68	54.86	37.10	-55.8	-59.8	3.7	0.00e+00	0	46	104	0	83	22581
2026-01-04 20:55:53.69	55.90	37.63	-55.9	-59.9	3.7	0.00e+00	0	46	104	0	83	22742
2026-01-04 20:55:55.83	57.03	38.20	-56.1	-60.4	3.7	0.00e+00	0	46	104	0	83	24005
2026-01-04 20:55:58.20	58.34	38.82	-56.4	-61.0	3.7	0.00e+00	0	46	104	0	83	25782
2026-01-04 20:56:00.21	59.49	39.35	-56.4	-60.9	3.7	0.00e+00	0	46	104	0	83	25422
2026-01-04 20:56:02.22	60.69	39.87	-56.6	-61.1	3.7	0.00e+00	0	46	104	0	83	26190
2026-01-04 20:56:04.34	61.99	40.41	-56.4	-60.6	3.7	0.00e+00	0	46	104	0	83	24705
2026-01-04 20:56:06.36	63.27	40.93	-56.3	-60.6	3.7	0.00e+00	0	46	104	0	83	24761
2026-01-04 20:56:08.37	64.59	41.43	-56.6	-61.2	3.7	0.00e+00	0	46	104	0	83	26427
2026-01-04 20:56:10.37	65.94	41.92	-56.5	-60.9	3.7	0.00e+00	0	46	104	0	83	25591
2026-01-04 20:56:12.39	67.36	42.41	-56.6	-61.0	3.7	0.00e+00	0	46	104	0	83	25932
2026-01-04 20:56:14.40	68.81	42.88	-56.4	-60.9	3.7	0.00e+00	0	46	104	0	83	25445
2026-01-04 20:56:16.41	70.30	43.34	-56.7	-61.2	3.7	0.00e+00	0	46	104	0	83	26555
2026-01-04 20:56:18.44	71.85	43.79	-56.4	-60.6	3.7	0.00e+00	0	46	104	0	84	23308
2026-01-04 20:56:20.45	73.44	44.22	-56.5	-61.1	3.7	0.00e+00	0	46	104	0	84	24606
2026-01-04 20:56:22.61	75.18	44.66	-56.4	-60.8	3.7	0.00e+00	0	46	104	0	84	23905
2026-01-04 20:56:24.62	76.86	45.04	-56.7	-61.3	3.7	0.00e+00	0	46	104	0	84	25235
2026-01-04 20:56:26.62	78.56	45.40	-56.3	-61.0	3.7	0.00e+00	0	47	104	0	84	24336
2026-01-04 20:56:28.63	80.31	45.74	-56.3	-61.0	3.7	0.00e+00	0	46	104	0	84	24350
2026-01-04 20:56:30.64	82.11	46.06	-55.6	-60.4	3.7	0.00e+00	0	46	104	0	83	24153
2026-01-04 20:56:32.64	83.92	46.34	-56.1	-60.9	3.7	0.00e+00	0	46	104	0	82	27147
2026-01-04 20:56:34.65	85.78	46.60	-55.8	-60.7	3.7	0.00e+00	0	46	104	0	82	26530
2026-01-04 20:56:36.65	87.66	46.82	-55.7	-60.6	3.7	0.00e+00	0	46	104	0	82	26263
2026-01-04 20:56:38.66	89.58	47.02	-55.8	-60.7	3.7	0.00e+00	0	47	104	0	82	26362
2026-01-04 20:56:40.67	91.52	47.18	-55.8	-60.7	3.7	0.00e+00	0	46	104	0	82	26354
2026-01-04 20:56:42.68	93.47	47.31	-55.8	-60.7	3.7	0.00e+00	0	46	104	0	82	26440
2026-01-04 20:56:44.69	95.44	47.40	-55.8	-60.7	3.7	0.00e+00	0	46	104	0	82	26294
2026-01-04 20:56:46.70	97.43	47.46	-55.8	-60.7	3.7	0.00e+00	0	46	104	0	82	26396
2026-01-04 20:56:48.70	99.40	47.48	-55.8	-60.7	3.7	0.00e+00	0	46	104	0	82	26416
2026-01-04 20:56:50.71	101.39	47.47	-55.8	-60.7	3.7	0.00e+00	0	46	104	0	82	26318
2026-01-04 20:56:52.72	103.37	47.42	-55.8	-60.7	3.7	0.00e+00	0	47	104	0	82	26394
2026-01-04 20:56:54.73	105.35	47.33	-55.8	-60.7	3.7	0.00e+00	0	46	104	0	82	26482
2026-01-04 20:56:56.74	107.31	47.21	-55.8	-60.7	3.7	0.00e+00	0	47	104	0	82	26403
2026-01-04 20:56:58.75	109.26	47.05	-55.8	-60.7	3.7	0.00e+00	0	46	104	0	82	26315
2026-01-04 20:57:00.75	111.17	46.87	-55.8	-60.7	3.7	0.00e+00	0	47	104	0	82	26349
2026-01-04 20:57:02.76	113.07	46.65	-55.8	-60.7	3.7	0.00e+00	0	46	104	0	82	26365
2026-01-04 20:57:04.77	114.93	46.39	-55.8	-60.7	3.7	0.00e+00	0	47	104	0	82	26416
2026-01-04 20:57:06.77	116.76	46.11	-55.8	-60.7	3.7	0.00e+00	0	47	104	0	82	26384
2026-01-04 20:57:08.78	118.56	45.81	-55.8	-60.7	3.7	0.00e+00	0	46	104	0	82	26385
2026-01-04 20:57:10.79	120.33	45.47	-55.8	-60.7	3.7	0.00e+00	0	46	104	0	82	26434
2026-01-04 20:57:12.80	122.05	45.11	-55.8	-60.7	3.7	0.00e+00	0	47	104	0	82	26423
2026-01-04 20:57:14.81	123.74	44.73	-55.8	-60.7	3.7	0.00e+00	0	46	104	0	82	26284
2026-01-04 20:57:16.81	125.37	44.33	-55.8	-60.7	3.7	0.00e+00	0	47	104	0	82	26405
2026-01-04 20:57:18.82	126.97	43.90	-55.8	-60.7	3.7	0.00e+00	0	46	104	0	82	26410
2026-01-04 20:57:20.83	128.52	43.46	-55.8	-60.7	3.7	0.00e+00	0	46	104	0	82	26379
2026-01-04 20:57:22.84	130.03	43.00	-55.7	-60.7	3.7	0.00e+00	0	47	104	0	82	26327
2026-01-04 20:57:24.85	131.50	42.53	-55.8	-60.7	3.7	0.00e+00	0	46	104	0	82	26328
2026-01-04 20:57:26.86	132.92	42.05	-55.8	-60.7	3.7	0.00e+00	0	47	104	0	82	26318
2026-01-04 20:57:28.87	134.30	41.56	-55.8	-60.7	3.7	0.00e+00	0	47	104	0	82	26423
2026-01-04 20:57:30.87	135.63	41.05	-55.8	-60.7	3.7	0.00e+00	0	46	104	0	82	26353
2026-01-04 20:57:32.88	136.92	40.54	-55.8	-60.7	3.7	0.00e+00	0	46	104	0	82	26413
2026-01-04 20:57:34.89	138.17	40.02	-55.8	-60.7	3.7	0.00e+00	0	47	104	0	82	26394
2026-01-04 20:57:36.90	139.38	39.50	-55.8	-60.7	3.7	0.00e+00	0	46	104	0	82	26383
2026-01-04 20:57:38.91	140.55	38.97	-55.8	-60.7	3.7	0.00e+00	0	47	104	0	82	26349
2026-01-04 20:57:40.92	141.68	38.44	-55.8	-60.7	3.7	0.00e+00	0	46	104	0	82	26389
2026-01-04 20:57:42.92	142.77	37.91	-55.8	-60.7	3.7	0.00e+00	0	46	104	0	82	26301
2026-01-04 20:57:44.93	143.82	37.38	-55.8	-60.7	3.7	0.00e+00	0	47	104	0	82	26293
2026-01-04 20:57:46.94	144.84	36.85	-55.8	-60.7	3.7	0.00e+00	0	46	104	0	82	26379
2026-01-04 20:57:48.95	145.83	36.32	-55.8	-60.7	3.7	0.00e+00	0	47	104	0	82	26355
2026-01-04 20:57:50.96	146.78	35.78	-55.8	-60.7	3.7	0.00e+00	0	47	104	0	82	26365
2026-01-04 20:57:52.97	147.71	35.26	-55.8	-60.7	3.7	0.00e+00	0	46	104	0	82	26358
2026-01-04 20:57:54.98	148.60	34.73	-55.8	-60.7	3.7	0.00e+00	0	46	104	0	82	26312
2026-01-04 20:57:56.99	149.46	34.21	-55.8	-60.7	3.7	0.00e+00	0	47	104	0	82	26331
2026-01-04 20:57:58.99	150.28	33.69	-55.8	-60.7	3.7	0.00e+00	0	46	104	0	82	26350
2026-01-04 20:58:01.00	151.09	33.17	-55.8	-60.7	3.7	0.00e+00	0	46	104	0	82	26337
2026-01-04 20:58:03.01	151.87	32.66	-55.8	-60.7	3.7	0.00e+00	0	47	104	0	82	26324
2026-01-04 20:58:05.02	152.62	32.16	-55.8	-60.7	3.7	0.00e+00	0	47	104	0	82	26283
2026-01-04 20:58:07.03	153.35	31.66	-55.8	-60.6	3.7	0.00e+00	0	46	104	0	82	26272
2026-01-04 20:58:09.03	154.05	31.16	-55.8	-60.7	3.7	0.00e+00	0	46	104	0	82	26378
2026-01-04 20:58:11.04	154.73	30.67	-55.7	-60.7	3.7	0.00e+00	0	47	104	0	82	26315
2026-01-04 20:58:13.05	155.40	30.19	-55.7	-60.7	3.7	0.00e+00	0	47	104	0	82	26334
2026-01-04 20:58:15.06	156.04	29.71	-55.8	-60.7	3.7	0.00e+00	0	47	104	0	82	26327
2026-01-04 20:58:17.06	156.65	29.24	-55.8	-60.7	3.7	0.00e+00	0	46	104	0	82	26299
2026-01-04 20:58:19.09	157.26	28.77	-55.8	-60.6	3.7	0.00e+00	0	46	104	0	82	26271
2026-01-04 20:58:21.10	157.84	28.31	-55.7	-60.7	3.7	0.00e+00	0	46	104	0	82	26303
2026-01-04 20:58:23.10	158.41	27.86	-55.8	-60.7	3.7	0.00e+00	0	47	104	0	82	26306
2026-01-04 20:58:25.11	158.96	27.41	-55.7	-60.7	3.7	0.00e+00	0	47	104	0	82	26281
2026-01-04 20:58:27.12	159.49	26.97	-55.7	-60.6	3.7	0.00e+00	0	46	104	0	82	26204
2026-01-04 20:58:29.13	160.00	26.54	-55.8	-60.7	3.7	0.00e+00	0	47	104	0	82	26380
2026-01-04 20:58:31.14	160.51	26.11	-55.8	-60.7	3.7	0.00e+00	0	47	104	0	82	26288
2026-01-04 20:58:33.15	160.99	25.68	-55.8	-60.7	3.7	0.00e+00	0	46	104	0	82	26315
2026-01-04 20:58:35.16	161.47	25.27	-55.7	-60.6	3.7	0.00e+00	0	47	104	0	82	26246
2026-01-04 20:58:37.16	161.92	24.86	-55.7	-60.7	3.7	0.00e+00	0	46	104	0	82	26308
2026-01-04 20:58:39.17	162.37	24.45	-55.7	-60.6	3.7	0.00e+00	0	46	104	0	82	26266
2026-01-04 20:58:41.18	162.81	24.06	-55.7	-60.6	3.7	0.00e+00	0	46	104	0	82	26264
2026-01-04 20:58:43.19	163.23	23.66	-55.7	-60.7	3.7	0.00e+00	0	47	104	0	82	26295
2026-01-04 20:58:45.20	163.64	23.28	-55.7	-60.6	3.7	0.00e+00	0	47	104	0	82	26246
2026-01-04 20:58:47.20	164.04	22.90	-55.7	-60.7	3.7	0.00e+00	0	46	104	0	82	26320
2026-01-04 20:58:49.21	164.43	22.52	-55.7	-60.7	3.7	0.00e+00	0	46	104	0	82	26304
2026-01-04 20:58:51.22	164.81	22.15	-55.7	-60.6	3.7	0.00e+00	0	46	104	0	82	26175
2026-01-04 20:58:53.23	165.18	21.79	-55.7	-60.7	3.7	0.00e+00	0	47	104	0	82	26348
2026-01-04 20:58:55.23	165.54	21.43	-55.7	-60.6	3.7	0.00e+00	0	47	104	0	82	26276
2026-01-04 20:58:57.24	165.89	21.08	-55.7	-60.6	3.7	0.00e+00	0	47	104	0	82	26140
2026-01-04 20:58:59.25	166.23	20.73	-55.7	-60.6	3.7	0.00e+00	0	47	104	0	82	26242
2026-01-04 20:59:01.25	166.57	20.39	-55.7	-60.6	3.7	0.00e+00	0	46	104	0	82	26229
2026-01-04 20:59:03.26	166.89	20.05	-55.7	-60.6	3.7	0.00e+00	0	47	104	0	82	26211
2026-01-04 20:59:05.27	167.21	19.72	-55.7	-60.6	3.7	0.00e+00	0	47	104	0	82	26232
2026-01-04 20:59:07.28	167.52	19.39	-55.7	-60.6	3.7	0.00e+00	0	46	104	0	82	26218
2026-01-04 20:59:09.29	167.83	19.07	-55.7	-60.7	3.7	0.00e+00	0	46	104	0	82	26321
2026-01-04 20:59:11.30	168.12	18.75	-55.7	-60.6	3.7	0.00e+00	0	47	104	0	82	26239
2026-01-04 20:59:13.31	168.41	18.43	-55.7	-60.6	3.7	0.00e+00	0	46	104	0	82	26230
2026-01-04 20:59:15.32	168.69	18.12	-55.7	-60.6	3.7	0.00e+00	0	47	104	0	82	26172
2026-01-04 20:59:17.32	168.97	17.82	-55.7	-60.7	3.7	0.00e+00	0	46	104	0	82	26315
2026-01-04 20:59:19.33	169.24	17.52	-55.7	-60.6	3.7	0.00e+00	0	47	104	0	82	26195
2026-01-04 20:59:21.34	169.50	17.22	-55.7	-60.6	3.7	0.00e+00	0	47	104	0	82	26163
2026-01-04 20:59:23.35	169.76	16.93	-55.8	-60.6	3.7	0.00e+00	0	47	104	0	82	26228
2026-01-04 20:59:25.36	170.01	16.64	-55.7	-60.6	3.7	0.00e+00	0	47	104	0	82	26232
2026-01-04 20:59:27.37	170.26	16.35	-55.7	-60.7	3.7	0.00e+00	0	47	104	0	82	26281
2026-01-04 20:59:29.38	170.50	16.07	-55.7	-60.6	3.7	0.00e+00	0	47	104	0	82	26226
2026-01-04 20:59:31.39	170.74	15.79	-55.7	-60.6	3.7	0.00e+00	0	47	104	0	82	26212
2026-01-04 20:59:33.40	170.97	15.52	-55.7	-60.6	3.7	0.00e+00	0	47	104	0	82	26216
2026-01-04 20:59:35.40	171.20	15.25	-55.7	-60.6	3.7	0.00e+00	0	47	104	0	82	26097
2026-01-04 20:59:37.41	171.42	14.98	-55.7	-60.6	3.7	0.00e+00	0	47	104	0	82	26138
2026-01-04 20:59:39.42	171.64	14.72	-55.7	-60.6	3.7	0.00e+00	0	47	104	0	82	26084
2026-01-04 20:59:41.43	171.85	14.46	-55.7	-60.6	3.7	0.00e+00	0	47	104	0	82	26176
2026-01-04 20:59:43.44	172.06	14.20	-55.7	-60.6	3.7	0.00e+00	0	47	104	0	82	26127
2026-01-04 20:59:45.45	172.27	13.95	-55.7	-60.6	3.7	0.00e+00	0	47	104	0	82	26078
2026-01-04 20:59:47.45	172.47	13.70	-55.7	-60.6	3.7	0.00e+00	0	46	104	0	82	26058
2026-01-04 20:59:49.46	172.66	13.46	-55.7	-60.6	3.7	0.00e+00	0	47	104	0	82	26066
2026-01-04 20:59:51.47	172.86	13.21	-55.7	-60.6	3.7	0.00e+00	0	46	104	0	82	26113
2026-01-04 20:59:53.48	173.05	12.97	-55.7	-60.6	3.7	0.00e+00	0	47	104	0	82	26089
2026-01-04 20:59:55.49	173.23	12.73	-55.7	-60.6	3.7	0.00e+00	0	47	104	0	82	26088
2026-01-04 20:59:57.49	173.42	12.50	-55.7	-60.6	3.7	0.00e+00	0	47	104	0	82	26093
2026-01-04 20:59:59.50	173.60	12.27	-55.7	-60.6	3.7	0.00e+00	0	46	104	0	82	26020
2026-01-04 21:00:01.51	173.77	12.04	-55.7	-60.6	3.7	0.00e+00	0	47	104	0	82	25986
2026-01-04 21:00:03.52	173.95	11.81	-55.7	-60.6	3.7	0.00e+00	0	46	104	0	82	26048
2026-01-04 21:00:05.53	174.12	11.58	-55.7	-60.6	3.7	0.00e+00	0	47	104	0	82	26031
2026-01-04 21:00:07.53	174.28	11.36	-55.7	-60.6	3.7	0.00e+00	0	47	104	0	82	26008
2026-01-04 21:00:09.54	174.45	11.14	-55.7	-60.6	3.7	0.00e+00	0	47	104	0	82	26097
2026-01-04 21:00:11.55	174.61	10.93	-55.7	-60.6	3.7	0.00e+00	0	47	104	0	82	26035
2026-01-04 21:00:13.56	174.77	10.71	-55.7	-60.6	3.7	0.00e+00	0	47	104	0	82	26008
2026-01-04 21:00:15.56	174.92	10.50	-55.7	-60.6	3.7	0.00e+00	0	46	104	0	82	26088
2026-01-04 21:00:17.57	175.07	10.29	-55.7	-60.6	3.7	0.00e+00	0	47	104	0	82	26081
2026-01-04 21:00:19.58	175.23	10.08	-55.7	-60.5	3.7	0.00e+00	0	47	104	0	82	25942
2026-01-04 21:00:21.59	175.37	9.88	-55.7	-60.6	3.7	0.00e+00	0	47	104	0	82	26069
2026-01-04 21:00:23.59	175.52	9.67	-55.7	-60.6	3.7	0.00e+00	0	47	104	0	82	26006
2026-01-04 21:00:25.60	175.66	9.47	-55.7	-60.6	3.7	0.00e+00	0	47	104	0	82	26037
2026-01-04 21:00:27.61	175.80	9.27	-55.7	-60.6	3.7	0.00e+00	0	46	104	0	82	26094
2026-01-04 21:00:29.62	175.94	9.08	-55.7	-60.6	3.7	0.00e+00	0	47	104	0	82	26065
2026-01-04 21:00:31.63	176.08	8.88	-55.6	-60.5	3.7	0.00e+00	0	47	104	0	82	25937
2026-01-04 21:00:33.63	176.21	8.69	-55.7	-60.5	3.7	0.00e+00	0	47	104	0	82	25954
2026-01-04 21:00:35.64	176.34	8.50	-55.7	-60.6	3.7	0.00e+00	0	47	104	0	82	26000
2026-01-04 21:00:37.65	176.47	8.31	-55.6	-60.5	3.7	0.00e+00	0	47	104	0	82	25931
2026-01-04 21:00:39.66	176.60	8.12	-55.7	-60.6	3.7	0.00e+00	0	47	104	0	82	26057
2026-01-04 21:00:41.67	176.73	7.93	-55.7	-60.6	3.7	0.00e+00	0	47	104	0	82	26010
2026-01-04 21:00:43.67	176.85	7.75	-55.7	-60.6	3.7	0.00e+00	0	47	104	0	82	26045
2026-01-04 21:00:45.68	176.98	7.57	-55.6	-60.6	3.7	0.00e+00	0	46	104	0	82	25989
2026-01-04 21:00:47.69	177.10	7.39	-55.7	-60.6	3.7	0.00e+00	0	47	104	0	82	26004
2026-01-04 21:00:49.70	177.22	7.21	-55.7	-60.5	3.7	0.00e+00	0	47	104	0	82	25931
2026-01-04 21:00:51.71	177.33	7.03	-55.7	-60.6	3.7	0.00e+00	0	47	104	0	82	25992
2026-01-04 21:00:53.71	177.45	6.85	-55.6	-60.6	3.7	0.00e+00	0	47	104	0	82	26041
2026-01-04 21:00:55.72	177.56	6.68	-55.6	-60.6	3.7	0.00e+00	0	47	104	0	82	25995
2026-01-04 21:00:57.73	177.67	6.51	-55.7	-60.5	3.7	0.00e+00	0	46	104	0	82	25953
2026-01-04 21:00:59.74	177.79	6.33	-55.7	-60.6	3.7	0.00e+00	0	47	104	0	82	26013
2026-01-04 21:01:01.75	177.89	6.16	-55.6	-60.5	3.7	0.00e+00	0	47	104	0	82	25951
2026-01-04 21:01:03.76	178.00	6.00	-55.6	-60.6	3.7	0.00e+00	0	47	104	0	82	26035
2026-01-04 21:01:05.76	178.11	5.83	-55.6	-60.6	3.7	0.00e+00	0	46	104	0	82	26008
2026-01-04 21:01:07.77	178.21	5.66	-55.6	-60.5	3.7	0.00e+00	0	47	104	0	82	25933
2026-01-04 21:01:09.78	178.32	5.50	-55.7	-60.5	3.7	0.00e+00	0	47	104	0	82	25933
2026-01-04 21:01:11.79	178.42	5.34	-55.6	-60.5	3.7	0.00e+00	0	47	104	0	82	25936
2026-01-04 21:01:13.80	178.52	5.17	-55.6	-60.6	3.7	0.00e+00	0	47	104	0	82	26017
2026-01-04 21:01:15.81	178.62	5.01	-55.6	-60.5	3.7	0.00e+00	0	47	104	0	82	25963

#Closed at: 2026-01-04 21:01:16
#Recorded file [0 MB]: D:/Data/31040_260104_235219.dat