passes_logs/2026/01/04/T1/T1__20260104_104244_NOAA_21_JPSS-2_rec.log

#Pass ID: 20260104_104244_NOAA 21 (JPSS-2)
#Satellite: NOAA 21 (JPSS-2)
#Configuration: NOAA 21
#almurnet v.1.7.20251203
#Start time: 2026-01-04 10:42:45

#Version: 2.0.20230620
#Station: T1
#Location: 37.570604 lon 55.790049 lat
#TLE: 1 54234U 22150A   26003.94651505  .00000183  00000+0  10759-3 0  9990
#TLE: 2 54234  98.7488 304.9806 0001136 345.9488  14.1656 14.19531852163244

#Time	Az	El	Level	Level2	SNR	BER	BlckErr	Temp	State	Recorded	gain1	gain2
2026-01-04 10:42:45.86	185.34	5.07	-53.9	-67.4	3.8	1.49e+00	0	39	0	0	79	16994
2026-01-04 10:42:48.87	185.48	5.28	-53.5	-66.9	3.8	1.49e+00	0	39	104	0	78	16996
2026-01-04 10:42:51.88	185.62	5.49	-53.5	-66.9	3.8	1.49e+00	0	39	104	0	78	16907
2026-01-04 10:42:54.89	185.76	5.70	-53.3	-66.8	3.8	1.49e+00	0	39	104	0	78	16799
2026-01-04 10:42:57.90	185.90	5.92	-53.2	-66.5	3.8	1.49e+00	0	39	104	0	78	16194
2026-01-04 10:43:00.92	186.04	6.13	-53.1	-66.1	3.8	1.49e+00	0	40	104	0	78	15548
2026-01-04 10:43:03.93	186.19	6.35	-53.3	-66.4	3.8	1.49e+00	0	40	104	0	78	16031
2026-01-04 10:43:06.94	186.34	6.56	-53.2	-66.6	3.8	1.49e+00	0	40	104	0	78	16356
2026-01-04 10:43:09.96	186.49	6.78	-53.4	-65.5	3.8	1.49e+00	0	40	104	0	78	14514
2026-01-04 10:43:12.97	186.65	7.00	-53.5	-65.4	3.8	1.49e+00	0	40	104	0	78	14356
2026-01-04 10:43:15.98	186.80	7.23	-53.6	-67.0	3.8	1.49e+00	0	40	104	0	78	17235
2026-01-04 10:43:18.99	186.96	7.45	-52.3	-59.5	6.4	4.11e-01	0	40	0	0	76	8107
2026-01-04 10:43:22.01	187.12	7.68	-49.6	-53.1	12.7	4.65e-04	0	40	0	0	71	5183
2026-01-04 10:43:25.02	187.28	7.91	-47.5	-50.0	15.6	0.00e+00	0	40	0	0	66	4855
2026-01-04 10:43:28.03	187.45	8.14	-46.8	-49.2	16.3	0.00e+00	0	40	0	0	65	4667
2026-01-04 10:43:31.05	187.61	8.37	-48.1	-50.9	15.0	0.00e+00	0	41	0	0	66	5362
2026-01-04 10:43:34.06	187.78	8.60	-50.4	-54.4	11.7	2.78e-04	0	41	0	0	71	6002
2026-01-04 10:43:37.07	187.96	8.84	-52.0	-58.4	7.4	9.39e-02	0	41	0	0	74	8026
2026-01-04 10:43:40.08	188.13	9.08	-52.7	-61.4	5.1	6.04e-01	0	41	0	0	76	10118
2026-01-04 10:43:43.16	188.31	9.32	-53.4	-62.8	4.5	1.38e+00	0	41	104	0	77	11238
2026-01-04 10:43:46.51	188.52	9.59	-53.0	-60.7	5.7	3.95e-01	0	41	0	0	77	8779
2026-01-04 10:43:49.47	188.70	9.83	-52.8	-60.0	6.1	2.93e-01	0	41	0	0	77	8151
2026-01-04 10:43:52.77	188.90	10.10	-52.9	-61.0	5.4	7.56e-01	0	41	0	0	77	9136
2026-01-04 10:43:55.49	189.07	10.33	-51.1	-55.2	10.8	2.35e-03	0	41	0	0	73	5918
2026-01-04 10:43:58.78	189.28	10.60	-50.7	-54.5	11.5	5.45e-04	0	41	0	0	72	5759
2026-01-04 10:44:01.51	189.46	10.83	-48.9	-51.6	14.6	3.00e-06	0	41	0	0	69	4926
2026-01-04 10:44:04.80	189.68	11.11	-46.8	-49.0	16.9	0.00e+00	0	41	0	0	65	4575
2026-01-04 10:44:07.52	189.86	11.35	-46.0	-48.1	17.8	0.00e+00	0	41	0	0	63	4624
2026-01-04 10:44:10.82	190.09	11.63	-45.7	-47.8	17.9	0.00e+00	0	41	0	0	63	4467
2026-01-04 10:44:13.68	190.29	11.88	-45.5	-47.6	18.0	0.00e+00	0	41	0	0	63	4345
2026-01-04 10:44:16.84	190.52	12.16	-45.7	-47.7	18.1	0.00e+00	0	41	0	0	62	4660
2026-01-04 10:44:19.70	190.72	12.42	-45.8	-47.8	18.0	0.00e+00	0	41	0	0	62	4730
2026-01-04 10:44:22.99	190.96	12.71	-45.8	-47.8	18.1	0.00e+00	0	41	0	0	62	4727
2026-01-04 10:44:25.85	191.18	12.97	-45.8	-47.8	18.2	0.00e+00	0	41	0	0	62	4741
2026-01-04 10:44:29.13	191.43	13.28	-45.8	-47.8	18.2	0.00e+00	0	41	0	0	62	4708
2026-01-04 10:44:31.96	191.65	13.54	-45.9	-47.8	18.2	0.00e+00	0	41	0	0	62	4733
2026-01-04 10:44:35.25	191.91	13.85	-45.6	-47.6	18.3	0.00e+00	0	41	0	0	62	4606
2026-01-04 10:44:38.34	192.16	14.14	-45.9	-47.8	18.2	0.00e+00	0	41	0	0	62	4750
2026-01-04 10:44:41.42	192.41	14.43	-45.9	-47.8	18.4	0.00e+00	0	41	0	0	62	4755
2026-01-04 10:44:44.43	192.66	14.73	-45.7	-47.7	18.4	0.00e+00	0	42	0	0	62	4653
2026-01-04 10:44:47.43	192.92	15.02	-45.7	-47.7	18.3	0.00e+00	0	41	0	0	62	4664
2026-01-04 10:44:50.43	193.18	15.32	-45.7	-47.6	18.3	0.00e+00	0	42	0	0	62	4634
2026-01-04 10:44:53.47	193.45	15.62	-45.6	-47.5	18.4	0.00e+00	0	41	0	0	62	4596
2026-01-04 10:44:56.46	193.72	15.92	-45.7	-47.6	18.3	0.00e+00	0	41	0	0	62	4643
2026-01-04 10:44:59.46	194.00	16.23	-45.7	-47.6	18.5	0.00e+00	0	41	0	0	62	4606
2026-01-04 10:45:02.47	194.28	16.54	-45.8	-47.7	18.4	0.00e+00	0	42	0	0	62	4681
2026-01-04 10:45:05.48	194.57	16.85	-46.2	-48.2	18.2	0.00e+00	0	41	0	0	63	4656
2026-01-04 10:45:08.49	194.86	17.17	-45.9	-47.9	18.2	0.00e+00	0	41	0	0	63	4504
2026-01-04 10:45:11.46	195.16	17.48	-46.0	-48.0	18.1	0.00e+00	0	41	0	0	63	4575
2026-01-04 10:45:14.47	195.47	17.81	-45.6	-47.5	18.3	0.00e+00	0	41	0	0	63	4321
2026-01-04 10:45:17.48	195.78	18.14	-45.6	-47.4	18.3	0.00e+00	0	41	0	0	63	4291
2026-01-04 10:45:20.49	196.10	18.47	-45.6	-47.5	18.3	0.00e+00	0	41	0	0	63	4333
2026-01-04 10:45:23.52	196.43	18.80	-45.8	-47.7	18.3	0.00e+00	0	41	0	0	63	4407
2026-01-04 10:45:26.53	196.77	19.14	-45.7	-47.5	18.6	0.00e+00	0	41	0	0	63	4327
2026-01-04 10:45:29.53	197.11	19.48	-45.5	-47.3	18.7	0.00e+00	0	42	0	0	62	4491
2026-01-04 10:45:32.54	197.45	19.83	-45.4	-47.2	18.8	0.00e+00	0	42	0	0	62	4418
2026-01-04 10:45:35.55	197.81	20.18	-45.0	-46.8	19.1	0.00e+00	0	42	0	0	61	4489
2026-01-04 10:45:38.55	198.17	20.53	-45.0	-46.8	19.1	0.00e+00	0	42	0	0	61	4493
2026-01-04 10:45:41.56	198.55	20.89	-44.8	-46.5	19.3	0.00e+00	0	42	0	0	61	4340
2026-01-04 10:45:44.58	198.93	21.25	-44.8	-46.6	19.2	0.00e+00	0	42	0	0	61	4352
2026-01-04 10:45:47.59	199.32	21.62	-44.3	-46.1	19.4	0.00e+00	0	42	0	0	60	4362
2026-01-04 10:45:50.60	199.72	21.99	-44.1	-45.9	19.6	0.00e+00	0	42	0	0	60	4256
2026-01-04 10:45:53.56	200.12	22.35	-44.1	-45.8	19.6	0.00e+00	0	42	0	0	60	4225
2026-01-04 10:45:56.71	200.56	22.75	-44.1	-45.8	19.7	0.00e+00	0	42	0	0	60	4224
2026-01-04 10:45:59.57	200.96	23.11	-44.2	-46.0	19.6	0.00e+00	0	41	0	0	60	4295
2026-01-04 10:46:02.73	201.42	23.51	-44.1	-45.8	19.7	0.00e+00	0	42	0	0	60	4214
2026-01-04 10:46:05.65	201.86	23.89	-44.0	-45.7	19.7	0.00e+00	0	41	0	0	59	4417
2026-01-04 10:46:08.81	202.34	24.31	-44.1	-45.8	19.6	0.00e+00	0	42	0	0	59	4456
2026-01-04 10:46:11.75	202.80	24.69	-44.0	-45.7	19.7	0.00e+00	0	42	0	0	59	4429
2026-01-04 10:46:15.04	203.33	25.13	-44.1	-45.8	19.7	0.00e+00	0	42	0	0	59	4465
2026-01-04 10:46:17.76	203.78	25.50	-44.3	-46.1	19.5	0.00e+00	0	42	0	0	59	4600
2026-01-04 10:46:20.98	204.33	25.94	-44.4	-46.1	19.4	0.00e+00	0	42	0	0	59	4620
2026-01-04 10:46:23.99	204.85	26.35	-44.8	-46.5	19.4	0.00e+00	0	42	0	0	60	4596
2026-01-04 10:46:27.00	205.38	26.77	-44.6	-46.4	19.3	0.00e+00	0	42	0	0	60	4509
2026-01-04 10:46:30.01	205.93	27.19	-45.0	-46.8	19.1	0.00e+00	0	42	0	0	60	4723
2026-01-04 10:46:33.02	206.50	27.62	-45.0	-46.8	18.8	0.00e+00	0	42	0	0	60	4750
2026-01-04 10:46:36.02	207.08	28.05	-45.0	-46.9	18.8	0.00e+00	0	42	0	0	60	4771
2026-01-04 10:46:39.03	207.67	28.48	-45.1	-46.9	18.7	0.00e+00	0	42	0	0	61	4541
2026-01-04 10:46:42.02	208.28	28.91	-45.2	-47.0	18.9	0.00e+00	0	42	0	0	61	4573
2026-01-04 10:46:45.02	208.90	29.35	-45.0	-46.9	18.8	0.00e+00	0	42	0	0	61	4501
2026-01-04 10:46:48.02	209.54	29.79	-44.9	-46.7	19.0	0.00e+00	0	42	0	0	61	4424
2026-01-04 10:46:51.03	210.20	30.24	-44.7	-46.5	19.2	0.00e+00	0	42	0	0	61	4306
2026-01-04 10:46:54.03	210.88	30.68	-44.7	-46.5	19.2	0.00e+00	0	42	0	0	61	4298
2026-01-04 10:46:57.14	211.60	31.15	-44.6	-46.4	19.2	0.00e+00	0	42	0	0	61	4270
2026-01-04 10:47:00.51	212.41	31.66	-44.8	-46.6	19.2	0.00e+00	0	42	0	0	61	4352
2026-01-04 10:47:03.23	213.08	32.07	-45.3	-47.1	18.9	0.00e+00	0	42	0	0	61	4629
2026-01-04 10:47:06.52	213.91	32.57	-45.4	-47.3	18.4	0.00e+00	0	42	0	0	61	4716
2026-01-04 10:47:09.24	214.61	32.98	-45.6	-47.5	18.2	0.00e+00	0	42	0	0	61	4859
2026-01-04 10:47:12.53	215.49	33.48	-46.0	-47.9	18.1	0.00e+00	0	42	0	0	62	4803
2026-01-04 10:47:15.33	216.26	33.91	-45.8	-47.7	18.3	0.00e+00	0	42	0	0	62	4687
2026-01-04 10:47:18.71	217.21	34.43	-45.9	-47.8	18.0	0.00e+00	0	42	0	0	63	4484
2026-01-04 10:47:21.44	218.01	34.84	-45.6	-47.5	18.3	0.00e+00	0	42	0	0	63	4303
2026-01-04 10:47:24.73	218.99	35.34	-46.2	-48.2	17.9	0.00e+00	0	42	0	0	63	4675
2026-01-04 10:47:27.74	219.92	35.80	-46.5	-48.5	17.6	0.00e+00	0	42	0	0	63	4853
2026-01-04 10:47:30.62	220.82	36.24	-46.6	-48.6	17.4	0.00e+00	0	42	0	0	64	4645
2026-01-04 10:47:33.77	221.85	36.71	-46.9	-49.0	17.0	0.00e+00	0	42	0	0	64	4846
2026-01-04 10:47:36.63	222.80	37.14	-47.0	-49.1	16.9	0.00e+00	0	42	0	0	64	4885
2026-01-04 10:47:39.79	223.88	37.61	-47.2	-49.4	16.8	0.00e+00	0	42	0	0	65	4783
2026-01-04 10:47:42.84	224.96	38.06	-46.9	-49.0	17.1	0.00e+00	0	42	0	0	65	4562
2026-01-04 10:47:46.00	226.10	38.51	-46.2	-48.2	17.8	0.00e+00	0	42	0	0	64	4411
2026-01-04 10:47:48.86	227.16	38.92	-46.5	-48.4	17.6	0.00e+00	0	42	0	0	64	4544
2026-01-04 10:47:52.01	228.36	39.36	-46.3	-48.3	17.7	0.00e+00	0	42	0	0	64	4470
2026-01-04 10:47:55.38	229.68	39.83	-46.7	-48.7	17.4	0.00e+00	0	42	0	0	64	4664
2026-01-04 10:47:58.31	230.86	40.22	-46.8	-48.9	17.2	0.00e+00	0	42	0	0	64	4789
2026-01-04 10:48:01.32	232.10	40.61	-46.7	-48.8	17.3	0.00e+00	0	42	0	0	64	4737
2026-01-04 10:48:04.32	233.37	41.00	-47.1	-49.4	16.6	0.00e+00	0	42	0	0	64	5043
2026-01-04 10:48:07.33	234.67	41.37	-46.8	-48.8	17.0	0.00e+00	0	42	0	0	65	4483
2026-01-04 10:48:10.35	236.00	41.73	-47.1	-49.2	16.7	0.00e+00	0	42	0	0	65	4700
2026-01-04 10:48:13.35	237.35	42.07	-47.5	-49.8	16.3	0.00e+00	0	42	0	0	65	4987
2026-01-04 10:48:16.36	238.74	42.40	-47.8	-50.1	16.1	0.00e+00	0	42	0	0	66	4892
2026-01-04 10:48:19.37	240.15	42.72	-48.0	-50.3	15.7	0.00e+00	0	42	0	0	66	5037
2026-01-04 10:48:22.38	241.59	43.01	-47.4	-49.6	16.3	0.00e+00	0	42	0	0	66	4635
2026-01-04 10:48:25.38	243.05	43.29	-47.4	-49.7	16.5	0.00e+00	0	42	0	0	66	4659
2026-01-04 10:48:28.39	244.54	43.55	-47.2	-49.4	16.7	0.00e+00	0	42	0	0	65	4779
2026-01-04 10:48:31.39	246.05	43.79	-47.6	-49.9	16.2	0.00e+00	0	42	0	0	66	4807
2026-01-04 10:48:34.39	247.58	44.01	-47.8	-50.1	15.9	0.00e+00	0	42	0	0	66	4919
2026-01-04 10:48:37.47	249.17	44.22	-48.0	-50.5	15.5	0.00e+00	0	42	0	0	66	5124
2026-01-04 10:48:40.33	250.66	44.38	-47.2	-49.4	16.4	0.00e+00	0	42	0	0	66	4514
2026-01-04 10:48:43.48	252.33	44.54	-47.5	-49.7	16.5	0.00e+00	0	42	0	0	66	4692
2026-01-04 10:48:46.34	253.85	44.67	-47.2	-49.4	16.7	0.00e+00	0	42	0	0	66	4513
2026-01-04 10:48:49.51	255.55	44.78	-47.3	-49.5	16.5	0.00e+00	0	42	0	0	66	4557
2026-01-04 10:48:52.37	257.09	44.85	-47.3	-49.5	16.6	0.00e+00	0	42	0	0	66	4578
2026-01-04 10:48:55.52	258.80	44.91	-47.8	-50.1	16.0	0.00e+00	0	42	0	0	66	4876
2026-01-04 10:48:58.38	260.35	44.94	-47.3	-49.6	16.6	0.00e+00	0	42	0	0	66	4600
2026-01-04 10:49:01.54	262.07	44.95	-47.2	-49.4	16.6	0.00e+00	0	42	0	0	66	4512
2026-01-04 10:49:04.40	263.62	44.93	-47.0	-49.1	16.9	0.00e+00	0	42	0	0	65	4634
2026-01-04 10:49:07.68	265.40	44.88	-47.1	-49.3	16.6	0.00e+00	0	42	0	0	65	4751
2026-01-04 10:49:10.40	266.87	44.82	-47.1	-49.3	16.6	0.00e+00	0	42	0	0	65	4723
2026-01-04 10:49:13.70	268.64	44.71	-46.8	-48.9	17.1	0.00e+00	0	42	0	0	65	4509
2026-01-04 10:49:16.55	270.16	44.60	-46.9	-49.0	17.1	0.00e+00	0	42	0	0	65	4567
2026-01-04 10:49:19.85	271.91	44.44	-46.6	-48.7	17.0	0.00e+00	0	42	0	0	65	4424
2026-01-04 10:49:22.57	273.33	44.29	-47.2	-49.4	16.5	0.00e+00	0	42	0	0	65	4763
2026-01-04 10:49:26.25	275.23	44.06	-47.4	-49.6	16.3	0.00e+00	0	42	0	0	65	4909
2026-01-04 10:49:29.04	276.66	43.86	-46.9	-49.0	16.8	0.00e+00	0	42	0	0	65	4580
2026-01-04 10:49:32.49	278.39	43.59	-47.7	-50.1	16.0	0.00e+00	0	42	0	0	66	4896
2026-01-04 10:49:35.21	279.74	43.35	-47.1	-49.2	16.7	0.00e+00	0	42	0	0	66	4422
2026-01-04 10:49:38.51	281.35	43.05	-46.8	-48.9	17.2	0.00e+00	0	42	0	0	65	4533
2026-01-04 10:49:41.23	282.65	42.79	-48.0	-50.4	15.7	0.00e+00	0	42	0	0	66	5068
2026-01-04 10:49:44.52	284.20	42.45	-46.9	-49.0	16.7	0.00e+00	0	42	0	0	65	4573
2026-01-04 10:49:47.24	285.45	42.15	-46.8	-48.9	17.0	0.00e+00	0	42	0	0	65	4501
2026-01-04 10:49:50.63	286.98	41.77	-47.8	-50.2	15.6	0.00e+00	0	42	0	0	66	4967
2026-01-04 10:49:53.35	288.18	41.45	-47.1	-49.2	16.6	0.00e+00	0	42	0	0	66	4428
2026-01-04 10:49:56.77	289.66	41.03	-47.5	-49.8	16.1	0.00e+00	0	42	0	0	66	4717
2026-01-04 10:49:59.50	290.81	40.68	-47.3	-49.6	16.3	0.00e+00	0	42	0	0	66	4602
2026-01-04 10:50:02.79	292.16	40.26	-46.2	-48.1	17.7	0.00e+00	0	42	0	0	64	4385
2026-01-04 10:50:05.59	293.29	39.88	-46.8	-48.9	17.1	0.00e+00	0	42	0	0	64	4783
2026-01-04 10:50:08.74	294.52	39.45	-46.5	-48.5	17.4	0.00e+00	0	42	0	0	64	4587
2026-01-04 10:50:11.64	295.63	39.05	-47.0	-49.2	16.8	0.00e+00	0	42	0	0	64	4938
2026-01-04 10:50:14.78	296.80	38.61	-47.1	-49.3	16.7	0.00e+00	0	42	0	0	64	4995
2026-01-04 10:50:17.70	297.86	38.19	-47.0	-49.1	16.9	0.00e+00	0	42	0	0	65	4637
2026-01-04 10:50:21.23	299.10	37.67	-46.6	-48.6	17.4	0.00e+00	0	42	0	0	65	4385
2026-01-04 10:50:23.95	300.04	37.27	-46.2	-48.1	17.8	0.00e+00	0	42	0	0	64	4365
2026-01-04 10:50:27.28	301.15	36.78	-46.3	-48.4	17.5	0.00e+00	0	42	0	0	64	4497
2026-01-04 10:50:30.22	302.10	36.34	-46.1	-48.0	17.8	0.00e+00	0	42	0	0	63	4589
2026-01-04 10:50:34.07	303.31	35.76	-46.2	-48.2	17.8	0.00e+00	0	42	0	0	63	4665
2026-01-04 10:50:37.16	304.25	35.29	-46.4	-48.5	17.6	0.00e+00	0	42	0	0	63	4831
2026-01-04 10:50:40.05	305.11	34.86	-46.3	-48.4	17.6	0.00e+00	0	42	0	0	63	4776
2026-01-04 10:50:43.65	306.15	34.31	-46.0	-48.0	18.0	0.00e+00	0	42	0	0	63	4558
2026-01-04 10:50:46.44	306.93	33.89	-45.8	-47.8	18.2	0.00e+00	0	42	0	0	63	4442
2026-01-04 10:50:49.73	307.82	33.39	-45.7	-47.6	18.3	0.00e+00	0	42	0	0	63	4363
2026-01-04 10:50:52.45	308.54	32.98	-45.2	-47.1	18.8	0.00e+00	0	42	0	0	62	4350
2026-01-04 10:50:55.74	309.39	32.48	-44.9	-46.7	19.1	0.00e+00	0	42	0	0	61	4392
2026-01-04 10:50:58.46	310.07	32.07	-44.6	-46.4	19.4	0.00e+00	0	42	0	0	61	4253
2026-01-04 10:51:01.76	310.87	31.57	-44.6	-46.3	19.4	0.00e+00	0	42	0	0	61	4242
2026-01-04 10:51:04.48	311.52	31.17	-44.4	-46.1	19.4	0.00e+00	0	42	0	0	60	4383
2026-01-04 10:51:07.78	312.28	30.68	-44.5	-46.2	19.5	0.00e+00	0	42	0	0	60	4418
2026-01-04 10:51:10.64	312.92	30.26	-44.6	-46.3	19.4	0.00e+00	0	42	0	0	60	4467
2026-01-04 10:51:14.11	313.68	29.75	-44.8	-46.6	19.2	0.00e+00	0	42	0	0	60	4632
2026-01-04 10:51:16.84	314.25	29.35	-44.7	-46.6	19.0	0.00e+00	0	42	0	0	60	4606
2026-01-04 10:51:20.13	314.93	28.87	-44.7	-46.7	19.0	0.00e+00	0	42	0	0	60	4661
2026-01-04 10:51:23.19	315.55	28.43	-44.8	-46.7	19.1	0.00e+00	0	42	0	0	60	4682
2026-01-04 10:51:26.26	316.15	28.00	-45.0	-46.8	18.9	0.00e+00	0	42	0	0	60	4739
2026-01-04 10:51:29.55	316.78	27.53	-45.1	-47.0	18.8	0.00e+00	0	42	0	0	60	4831
2026-01-04 10:51:32.27	317.28	27.15	-45.0	-46.8	19.0	0.00e+00	0	42	0	0	60	4751
2026-01-04 10:51:35.65	317.89	26.68	-44.6	-46.4	19.4	0.00e+00	0	42	0	0	60	4504
2026-01-04 10:51:38.67	318.42	26.27	-44.3	-46.2	19.6	0.00e+00	0	42	0	0	60	4392
2026-01-04 10:51:41.68	318.94	25.86	-44.3	-46.1	19.8	0.00e+00	0	42	0	0	60	4351
2026-01-04 10:51:44.75	319.45	25.45	-44.2	-46.0	19.6	0.00e+00	0	42	0	0	60	4323
2026-01-04 10:51:47.69	319.93	25.05	-44.5	-46.3	19.4	0.00e+00	0	42	0	0	60	4454
2026-01-04 10:51:50.99	320.45	24.62	-44.5	-46.3	19.4	0.00e+00	0	42	0	0	60	4474
2026-01-04 10:51:53.71	320.88	24.26	-44.3	-46.2	19.5	0.00e+00	0	42	0	0	60	4393
2026-01-04 10:51:57.01	321.37	23.84	-44.4	-46.2	19.4	0.00e+00	0	42	0	0	60	4421
2026-01-04 10:51:59.84	321.79	23.47	-44.7	-46.5	19.2	0.00e+00	0	42	0	0	60	4591
2026-01-04 10:52:03.16	322.27	23.05	-44.5	-46.4	19.3	0.00e+00	0	42	0	0	60	4509
2026-01-04 10:52:06.25	322.71	22.67	-44.5	-46.3	19.3	0.00e+00	0	42	0	0	60	4486
2026-01-04 10:52:09.26	323.12	22.29	-44.7	-46.5	19.2	0.00e+00	0	42	0	0	60	4574
2026-01-04 10:52:12.26	323.52	21.93	-45.0	-46.9	18.9	0.00e+00	0	42	0	0	60	4767
2026-01-04 10:52:15.22	323.91	21.57	-44.8	-46.7	19.1	0.00e+00	0	42	0	0	61	4401
2026-01-04 10:52:18.47	324.33	21.18	-44.6	-46.4	19.3	0.00e+00	0	42	0	0	61	4289
2026-01-04 10:52:21.36	324.69	20.84	-44.5	-46.4	19.3	0.00e+00	0	42	0	0	61	4269
2026-01-04 10:52:24.51	325.07	20.47	-44.5	-46.4	19.3	0.00e+00	0	42	0	0	60	4502
2026-01-04 10:52:27.38	325.42	20.13	-44.6	-46.4	19.3	0.00e+00	0	42	0	0	60	4517
2026-01-04 10:52:30.53	325.79	19.77	-44.4	-46.2	19.4	0.00e+00	0	42	0	0	60	4426
2026-01-04 10:52:33.45	326.12	19.44	-44.4	-46.2	19.4	0.00e+00	0	42	0	0	60	4428
2026-01-04 10:52:36.68	326.49	19.08	-44.4	-46.2	19.4	0.00e+00	0	42	0	0	60	4405
2026-01-04 10:52:39.59	326.80	18.76	-44.4	-46.3	19.2	0.00e+00	0	42	0	0	60	4445
2026-01-04 10:52:42.94	327.16	18.39	-44.6	-46.5	19.1	0.00e+00	0	42	0	0	60	4569
2026-01-04 10:52:45.66	327.45	18.09	-44.6	-46.6	19.0	0.00e+00	0	42	0	0	60	4602
2026-01-04 10:52:49.40	327.84	17.69	-45.0	-47.0	18.7	0.00e+00	0	42	0	0	60	4866
2026-01-04 10:52:52.13	328.11	17.40	-45.1	-47.2	18.7	0.00e+00	0	42	0	0	60	4938
2026-01-04 10:52:55.92	328.48	17.01	-45.2	-47.2	18.6	0.00e+00	0	42	0	0	61	4674
2026-01-04 10:52:59.09	328.79	16.68	-45.4	-47.3	18.4	0.00e+00	0	42	0	0	61	4741
2026-01-04 10:53:02.09	329.07	16.37	-45.6	-47.6	18.1	0.00e+00	0	42	0	0	62	4610
2026-01-04 10:53:05.08	329.35	16.07	-45.5	-47.4	18.3	0.00e+00	0	42	0	0	62	4533
2026-01-04 10:53:08.26	329.64	15.75	-45.5	-47.4	18.3	0.00e+00	0	42	0	0	62	4498
2026-01-04 10:53:11.12	329.89	15.47	-45.4	-47.3	18.2	0.00e+00	0	42	0	0	62	4477
2026-01-04 10:53:14.28	330.17	15.16	-45.4	-47.3	18.3	0.00e+00	0	42	0	0	62	4472
2026-01-04 10:53:17.41	330.44	14.85	-45.5	-47.5	18.0	0.00e+00	0	42	0	0	62	4592
2026-01-04 10:53:20.42	330.69	14.56	-45.6	-47.6	18.1	0.00e+00	0	42	0	0	62	4617
2026-01-04 10:53:23.42	330.94	14.28	-45.9	-47.9	18.0	0.00e+00	0	42	0	0	62	4789
2026-01-04 10:53:26.43	331.18	13.99	-45.9	-47.9	18.0	0.00e+00	0	42	0	0	62	4803
2026-01-04 10:53:29.47	331.43	13.71	-45.9	-48.0	17.8	0.00e+00	0	42	0	0	62	4833
2026-01-04 10:53:32.48	331.66	13.43	-46.0	-48.1	17.6	0.00e+00	0	42	0	0	62	4902
2026-01-04 10:53:35.48	331.89	13.16	-46.0	-48.1	17.5	0.00e+00	0	42	0	0	63	4624
2026-01-04 10:53:38.49	332.12	12.89	-46.3	-48.4	17.1	0.00e+00	0	42	0	0	63	4773
2026-01-04 10:53:41.50	332.34	12.62	-46.3	-48.4	17.0	0.00e+00	0	42	0	0	63	4809
2026-01-04 10:53:44.53	332.56	12.35	-46.4	-48.6	16.9	0.00e+00	0	42	0	0	63	4914
2026-01-04 10:53:47.54	332.78	12.08	-46.5	-48.7	16.3	0.00e+00	0	42	0	0	63	4973
2026-01-04 10:53:50.54	332.99	11.82	-46.4	-48.5	17.0	0.00e+00	0	42	0	0	63	4864
2026-01-04 10:53:53.55	333.20	11.56	-46.3	-48.4	16.8	0.00e+00	0	42	0	0	63	4800
2026-01-04 10:53:56.57	333.41	11.31	-46.2	-48.3	17.1	0.00e+00	0	42	0	0	63	4726
2026-01-04 10:53:59.57	333.61	11.05	-46.2	-48.4	17.2	0.00e+00	0	42	0	0	63	4781
2026-01-04 10:54:02.58	333.81	10.80	-46.3	-48.5	17.0	0.00e+00	0	42	0	0	63	4859
2026-01-04 10:54:05.59	334.00	10.55	-46.3	-48.4	17.1	0.00e+00	0	42	0	0	63	4805
2026-01-04 10:54:08.60	334.20	10.30	-46.3	-48.5	17.1	0.00e+00	0	42	0	0	63	4841
2026-01-04 10:54:11.60	334.39	10.06	-46.4	-48.6	17.0	0.00e+00	0	42	0	0	63	4895
2026-01-04 10:54:14.62	334.57	9.81	-46.2	-48.4	17.2	0.00e+00	0	42	0	0	63	4796
2026-01-04 10:54:17.69	334.76	9.57	-46.3	-48.5	17.1	0.00e+00	0	42	0	0	63	4845
2026-01-04 10:54:20.71	334.94	9.33	-46.4	-48.8	16.8	0.00e+00	0	42	0	0	63	5008
2026-01-04 10:54:24.03	335.14	9.07	-46.5	-49.0	16.5	3.00e-06	0	42	0	0	63	5131
2026-01-04 10:54:26.75	335.30	8.85	-53.5	-67.1	3.8	1.49e+00	0	42	104	0	77	18359
2026-01-04 10:54:30.05	335.49	8.60	-54.3	-67.6	3.8	1.49e+00	0	42	104	0	79	17340
2026-01-04 10:54:32.78	335.64	8.39	-54.6	-67.7	3.8	1.49e+00	0	42	104	0	79	17643
2026-01-04 10:54:36.08	335.83	8.14	-54.4	-67.6	3.8	1.49e+00	0	42	104	0	80	16383
2026-01-04 10:54:38.80	335.98	7.93	-54.5	-67.4	3.8	1.49e+00	0	42	104	0	80	16073
2026-01-04 10:54:42.10	336.15	7.69	-54.8	-67.7	3.8	1.49e+00	0	42	104	0	80	16689
2026-01-04 10:54:44.82	336.30	7.49	-54.4	-67.4	3.8	1.49e+00	0	42	104	0	80	16086
2026-01-04 10:54:48.12	336.47	7.24	-54.6	-67.7	3.8	1.49e+00	0	42	104	0	80	16566
2026-01-04 10:54:51.07	336.63	7.03	-54.3	-67.6	3.8	1.49e+00	0	42	104	0	80	16356
2026-01-04 10:54:54.08	336.78	6.81	-54.3	-67.6	3.8	1.49e+00	0	42	104	0	80	16402
2026-01-04 10:54:57.09	336.93	6.59	-54.2	-67.5	3.8	1.49e+00	0	42	104	0	80	16285
2026-01-04 10:55:00.11	337.09	6.38	-54.1	-67.5	3.8	1.49e+00	0	43	104	0	80	16138
2026-01-04 10:55:03.12	337.23	6.16	-54.3	-67.6	3.8	1.49e+00	0	42	104	0	80	16372
2026-01-04 10:55:06.13	337.38	5.95	-54.1	-67.5	3.8	1.49e+00	0	42	104	0	80	16189
2026-01-04 10:55:09.14	337.52	5.74	-54.2	-67.6	3.8	1.49e+00	0	42	104	0	80	16338
2026-01-04 10:55:12.16	337.67	5.53	-54.1	-67.5	3.8	1.49e+00	0	42	104	0	80	16185
2026-01-04 10:55:15.17	337.81	5.33	-54.1	-67.4	3.8	1.49e+00	0	42	104	0	80	16053
2026-01-04 10:55:18.18	337.95	5.12	-54.2	-67.6	3.8	1.49e+00	0	42	104	0	80	16336

#Closed at: 2026-01-04 10:55:21
#Recorded file [0 MB]: D:/Data/31040_260104_134245.dat