passes_logs/2026/01/04/T1/T1__20260104_081359_NOAA_20_JPSS-1_rec.log

#Pass ID: 20260104_081359_NOAA 20 (JPSS-1)
#Satellite: NOAA 20 (JPSS-1)
#Configuration: NOAA 20
#almurnet v.1.7.20251203
#Start time: 2026-01-04 08:14:00

#Version: 2.0.20230620
#Station: T1
#Location: 37.570604 lon 55.790049 lat
#TLE: 1 43013U 17073A   26003.91140107  .00000139  00000+0  86966-4 0  9994
#TLE: 2 43013  98.7625 304.9685 0001869  55.4713 304.6639 14.19532967421166

#Time	Az	El	Level	Level2	SNR	BER	BlckErr	Temp	State	Recorded	gain1	gain2
2026-01-04 08:14:00.95	106.34	5.07	-54.1	-69.2	3.8	1.49e+00	0	41	0	0	80	19652
2026-01-04 08:14:03.95	106.09	5.25	-54.1	-69.1	3.8	1.49e+00	0	41	104	0	80	19545
2026-01-04 08:14:06.97	105.82	5.43	-54.2	-69.2	3.8	1.49e+00	0	41	104	0	80	19790
2026-01-04 08:14:09.98	105.56	5.61	-54.2	-69.3	3.8	1.49e+00	0	41	104	0	80	19874
2026-01-04 08:14:12.99	105.29	5.79	-54.1	-69.2	3.8	1.49e+00	0	41	104	0	80	19737
2026-01-04 08:14:16.00	105.02	5.98	-54.2	-69.2	3.8	1.49e+00	0	42	104	0	80	19713
2026-01-04 08:14:19.01	104.75	6.16	-54.1	-69.1	3.8	1.49e+00	0	42	104	0	80	19613
2026-01-04 08:14:22.03	104.47	6.35	-54.1	-69.2	3.8	1.49e+00	0	42	104	0	80	19643
2026-01-04 08:14:25.04	104.19	6.53	-54.2	-69.2	3.8	1.49e+00	0	42	104	0	80	19717
2026-01-04 08:14:28.05	103.91	6.72	-54.1	-69.2	3.8	1.49e+00	0	42	104	0	80	19729
2026-01-04 08:14:31.07	103.62	6.90	-54.1	-69.2	3.8	1.49e+00	0	42	104	0	80	19793
2026-01-04 08:14:34.08	103.32	7.09	-54.1	-69.0	3.8	1.49e+00	0	42	104	0	80	19317
2026-01-04 08:14:37.09	103.03	7.28	-54.1	-69.1	3.8	1.49e+00	0	42	104	0	80	19509
2026-01-04 08:14:40.10	102.73	7.47	-54.1	-69.1	3.8	1.49e+00	0	42	104	0	80	19538
2026-01-04 08:14:43.12	102.42	7.65	-54.1	-68.7	3.8	1.49e+00	0	42	104	0	80	18674
2026-01-04 08:14:46.13	102.12	7.84	-54.1	-68.5	3.8	1.49e+00	0	42	104	0	80	18119
2026-01-04 08:14:49.14	101.80	8.03	-54.1	-68.0	3.8	1.49e+00	0	42	104	0	80	17210
2026-01-04 08:14:52.16	101.49	8.23	-53.0	-60.0	7.9	1.31e-01	0	42	0	3145728	78	7659
2026-01-04 08:14:55.17	101.17	8.42	-51.2	-55.4	12.7	1.14e-04	0	42	0	8388608	74	5680
2026-01-04 08:14:58.18	100.84	8.61	-50.8	-54.7	13.4	7.60e-06	0	43	0	14680064	73	5576
2026-01-04 08:15:01.19	100.51	8.80	-52.2	-57.7	10.3	1.83e-03	0	42	0	19922944	75	7016
2026-01-04 08:15:04.21	100.18	9.00	-53.9	-64.5	4.6	5.16e-01	0	43	0	26214400	78	12887
2026-01-04 08:15:07.21	99.84	9.19	-54.1	-65.8	4.2	1.33e+00	0	43	0	26214400	78	14957
2026-01-04 08:15:10.15	99.50	9.38	-54.2	-68.6	3.8	1.49e+00	0	43	104	27262976	79	19505
2026-01-04 08:15:13.50	99.12	9.59	-51.5	-55.9	12.3	2.17e-04	0	43	0	31457280	75	5722
2026-01-04 08:15:16.22	98.80	9.77	-50.5	-54.3	13.9	5.30e-06	0	43	0	36700160	73	5286
2026-01-04 08:15:19.52	98.41	9.99	-50.3	-53.7	14.6	7.00e-07	0	43	0	42991616	72	5266
2026-01-04 08:15:22.24	98.08	10.16	-50.3	-53.7	14.8	0.00e+00	0	43	0	48234496	72	5246
2026-01-04 08:15:25.53	97.68	10.38	-49.8	-53.0	15.3	0.00e+00	0	43	0	54525952	71	5156
2026-01-04 08:15:28.46	97.31	10.57	-49.9	-53.1	15.3	0.00e+00	0	43	0	59768832	71	5216
2026-01-04 08:15:31.75	96.90	10.79	-49.8	-52.9	15.5	0.00e+00	0	43	0	66060288	71	5068
2026-01-04 08:15:34.47	96.55	10.96	-49.9	-53.1	15.2	0.00e+00	0	43	0	71303168	71	5204
2026-01-04 08:15:37.77	96.13	11.18	-49.6	-52.7	15.7	0.00e+00	0	43	0	77594624	71	4974
2026-01-04 08:15:40.76	95.74	11.38	-49.7	-52.9	15.5	0.00e+00	0	43	0	82837504	71	5063
2026-01-04 08:15:44.06	95.30	11.60	-49.7	-52.9	15.5	0.00e+00	0	43	0	89128960	71	5072
2026-01-04 08:15:46.89	94.92	11.78	-49.7	-52.7	15.8	0.00e+00	0	43	0	94371840	71	4974
2026-01-04 08:15:50.14	94.47	12.00	-49.9	-53.0	15.5	0.00e+00	0	43	0	100663296	71	5155
2026-01-04 08:15:53.25	94.04	12.20	-49.9	-53.0	15.5	7.00e-07	0	43	0	105906176	71	5127
2026-01-04 08:15:56.11	93.64	12.39	-49.8	-52.9	15.6	0.00e+00	0	43	0	111149056	71	5099
2026-01-04 08:15:59.33	93.18	12.61	-49.7	-52.7	15.8	0.00e+00	0	43	0	117440512	71	4982
2026-01-04 08:16:02.26	92.76	12.80	-49.9	-53.1	15.4	0.00e+00	0	43	0	122683392	71	5210
2026-01-04 08:16:05.41	92.30	13.01	-49.9	-53.1	15.5	0.00e+00	0	43	0	128974848	71	5180
2026-01-04 08:16:08.27	91.87	13.20	-49.8	-53.0	15.5	0.00e+00	0	43	0	134217728	71	5104
2026-01-04 08:16:11.42	91.40	13.41	-49.8	-53.0	15.6	0.00e+00	0	43	0	140509184	71	5115
2026-01-04 08:16:14.29	90.96	13.60	-49.8	-52.9	15.5	0.00e+00	0	43	0	145752064	71	5094
2026-01-04 08:16:17.46	90.47	13.81	-49.9	-53.1	15.5	0.00e+00	0	43	0	152043520	71	5196
2026-01-04 08:16:20.40	90.01	14.00	-50.0	-53.4	15.2	0.00e+00	0	43	0	157286400	71	5354
2026-01-04 08:16:23.55	89.51	14.21	-50.0	-53.4	15.2	0.00e+00	0	43	0	162529280	71	5358
2026-01-04 08:16:26.42	89.05	14.40	-50.1	-53.4	15.2	0.00e+00	0	43	0	168820736	71	5397
2026-01-04 08:16:29.57	88.53	14.61	-50.0	-53.2	15.5	0.00e+00	0	43	0	174063616	71	5252
2026-01-04 08:16:32.44	88.06	14.79	-49.9	-53.1	15.6	0.00e+00	0	43	0	179306496	71	5190
2026-01-04 08:16:35.58	87.53	15.00	-49.8	-53.0	15.5	0.00e+00	0	43	0	185597952	71	5141
2026-01-04 08:16:38.45	87.04	15.18	-49.7	-52.8	15.8	0.00e+00	0	43	0	190840832	71	5015
2026-01-04 08:16:41.59	86.50	15.39	-49.5	-52.6	16.0	7.00e-07	0	43	0	197132288	71	4914
2026-01-04 08:16:44.45	86.00	15.57	-49.2	-52.2	16.4	0.00e+00	0	43	0	202375168	70	4980
2026-01-04 08:16:47.60	85.45	15.77	-49.1	-52.0	16.5	0.00e+00	0	43	0	207618048	70	4863
2026-01-04 08:16:50.49	84.93	15.96	-49.0	-51.9	16.6	0.00e+00	0	43	0	213909504	70	4804
2026-01-04 08:16:53.64	84.36	16.16	-48.8	-51.8	16.7	0.00e+00	0	43	0	219152384	69	4996
2026-01-04 08:16:56.57	83.82	16.34	-48.8	-51.6	17.1	0.00e+00	0	43	0	224395264	69	4901
2026-01-04 08:16:59.57	83.26	16.53	-48.7	-51.5	17.2	0.00e+00	0	43	0	230686720	69	4833
2026-01-04 08:17:02.68	82.68	16.73	-48.2	-50.8	17.7	0.00e+00	0	43	0	235929600	68	4757
2026-01-04 08:17:05.97	82.05	16.93	-47.8	-50.4	18.0	0.00e+00	0	43	0	242221056	67	4775
2026-01-04 08:17:08.69	81.52	17.09	-47.6	-50.1	18.2	0.00e+00	0	43	0	247463936	67	4615
2026-01-04 08:17:11.99	80.88	17.29	-47.7	-50.1	18.2	0.00e+00	0	43	0	253755392	67	4633
2026-01-04 08:17:14.71	80.34	17.46	-47.7	-50.1	18.3	0.00e+00	0	43	0	258998272	67	4621
2026-01-04 08:17:18.00	79.68	17.65	-47.6	-50.0	18.3	0.00e+00	0	43	0	265289728	67	4589
2026-01-04 08:17:20.72	79.13	17.81	-47.6	-50.0	18.3	0.00e+00	0	43	0	270532608	67	4572
2026-01-04 08:17:24.02	78.45	18.00	-47.6	-49.9	18.5	0.00e+00	0	43	0	276824064	66	4814
2026-01-04 08:17:26.74	77.88	18.16	-47.6	-50.0	18.4	0.00e+00	0	43	0	281018368	66	4846
2026-01-04 08:17:30.03	77.19	18.34	-47.9	-50.3	18.1	0.00e+00	0	43	0	287309824	66	5040
2026-01-04 08:17:33.04	76.55	18.51	-47.8	-50.2	18.2	0.00e+00	0	44	0	293601280	66	4974
2026-01-04 08:17:36.46	75.82	18.70	-48.1	-50.6	18.0	0.00e+00	0	43	0	299892736	67	4886
2026-01-04 08:17:39.19	75.22	18.85	-47.9	-50.4	18.0	0.00e+00	0	43	0	305135616	67	4807
2026-01-04 08:17:42.48	74.50	19.02	-47.9	-50.3	18.2	0.00e+00	0	43	0	311427072	67	4739
2026-01-04 08:17:45.20	73.90	19.16	-47.5	-49.9	18.4	0.00e+00	0	43	0	315621376	67	4519
2026-01-04 08:17:48.97	73.05	19.35	-47.2	-49.5	18.9	0.00e+00	0	43	0	322961408	66	4564
2026-01-04 08:17:51.70	72.43	19.49	-47.2	-49.5	19.0	0.00e+00	0	43	0	328204288	66	4571
2026-01-04 08:17:54.98	71.68	19.64	-47.1	-49.3	19.0	0.00e+00	0	43	0	334495744	66	4489
2026-01-04 08:17:57.75	71.04	19.77	-47.4	-49.7	18.8	0.00e+00	0	43	0	339738624	66	4664
2026-01-04 08:18:01.16	70.25	19.93	-47.1	-49.4	19.0	0.00e+00	0	43	0	346030080	66	4495
2026-01-04 08:18:04.18	69.53	20.06	-47.2	-49.4	19.1	0.00e+00	0	43	0	351272960	66	4538
2026-01-04 08:18:07.47	68.75	20.21	-47.1	-49.4	19.0	0.00e+00	0	43	0	357564416	65	4795
2026-01-04 08:18:10.20	68.10	20.32	-47.1	-49.3	19.0	0.00e+00	0	43	0	362807296	65	4753
2026-01-04 08:18:13.60	67.28	20.46	-47.4	-49.7	18.9	0.00e+00	0	44	0	369098752	65	4982
2026-01-04 08:18:16.43	66.59	20.57	-47.4	-49.7	18.7	0.00e+00	0	43	0	374341632	65	4962
2026-01-04 08:18:19.73	65.78	20.69	-47.4	-49.7	18.8	0.00e+00	0	43	0	380633088	66	4675
2026-01-04 08:18:22.44	65.11	20.79	-47.7	-50.1	18.5	0.00e+00	0	43	0	385875968	66	4901
2026-01-04 08:18:25.70	64.30	20.90	-47.8	-50.3	18.2	0.00e+00	0	43	0	392167424	66	4994
2026-01-04 08:18:28.97	63.48	21.01	-48.3	-50.8	17.9	0.00e+00	0	43	0	398458880	67	5035
2026-01-04 08:18:31.84	62.75	21.10	-48.4	-51.0	17.7	0.00e+00	0	43	0	403701760	67	5105
2026-01-04 08:18:35.00	61.95	21.19	-48.4	-51.0	17.6	0.00e+00	0	43	0	409993216	67	5103
2026-01-04 08:18:37.86	61.22	21.27	-48.4	-51.0	17.6	0.00e+00	0	43	0	415236096	67	5144
2026-01-04 08:18:41.02	60.41	21.35	-48.6	-51.3	17.3	0.00e+00	0	43	0	420478976	67	5285
2026-01-04 08:18:43.88	59.67	21.42	-49.0	-51.8	16.9	0.00e+00	0	43	0	425721856	68	5331
2026-01-04 08:18:47.03	58.86	21.49	-49.0	-51.8	17.0	0.00e+00	0	43	0	432013312	68	5280
2026-01-04 08:18:49.89	58.11	21.55	-49.0	-51.7	17.1	0.00e+00	0	43	0	437256192	68	5253
2026-01-04 08:18:53.07	57.28	21.60	-48.9	-51.6	17.2	0.00e+00	0	43	0	443547648	68	5166
2026-01-04 08:18:56.40	56.41	21.66	-48.8	-51.5	17.3	0.00e+00	0	43	0	449839104	68	5105
2026-01-04 08:18:59.11	55.70	21.70	-49.1	-51.9	16.8	0.00e+00	0	43	0	455081984	69	5087
2026-01-04 08:19:02.49	54.81	21.74	-49.0	-51.7	17.1	0.00e+00	0	43	0	461373440	69	4962
2026-01-04 08:19:05.35	54.06	21.77	-49.1	-51.8	16.9	0.00e+00	0	43	0	466616320	69	5040
2026-01-04 08:19:08.63	53.19	21.80	-48.8	-51.5	17.3	0.00e+00	0	43	0	472907776	69	4836
2026-01-04 08:19:11.36	52.46	21.82	-48.9	-51.6	17.2	0.00e+00	0	43	0	478150656	69	4899
2026-01-04 08:19:14.61	51.60	21.84	-48.7	-51.3	17.5	0.00e+00	0	43	0	483393536	69	4715
2026-01-04 08:19:17.48	50.84	21.84	-48.9	-51.5	17.5	0.00e+00	0	44	0	488636416	69	4837
2026-01-04 08:19:20.62	50.01	21.85	-48.4	-50.9	18.0	0.00e+00	0	43	0	494927872	68	4785
2026-01-04 08:19:23.48	49.25	21.84	-48.4	-50.9	18.1	0.00e+00	0	43	0	500170752	68	4788
2026-01-04 08:19:26.63	48.41	21.83	-48.0	-50.5	18.5	0.00e+00	0	43	0	506462208	68	4552
2026-01-04 08:19:29.74	47.59	21.82	-48.0	-50.4	18.5	0.00e+00	0	43	0	511705088	68	4524
2026-01-04 08:19:32.82	46.77	21.80	-47.8	-50.1	18.6	0.00e+00	0	43	0	517996544	67	4649
2026-01-04 08:19:35.83	45.98	21.77	-47.5	-49.8	18.9	0.00e+00	0	43	0	523239424	66	4746
2026-01-04 08:19:38.84	45.19	21.74	-47.1	-49.3	19.3	0.00e+00	0	43	0	529530880	66	4480
2026-01-04 08:19:41.85	44.39	21.70	-46.7	-48.9	19.5	0.00e+00	0	43	0	534773760	64	4789
2026-01-04 08:19:44.93	43.59	21.65	-46.7	-49.0	19.4	0.00e+00	0	43	0	541065216	64	4823
2026-01-04 08:19:47.84	42.83	21.60	-46.2	-48.4	19.5	0.00e+00	0	43	0	546308096	64	4534
2026-01-04 08:19:50.85	42.04	21.55	-46.3	-48.5	19.6	0.00e+00	0	43	0	551550976	64	4566
2026-01-04 08:19:53.86	41.26	21.49	-46.7	-48.9	19.5	0.00e+00	0	43	0	557842432	64	4760
2026-01-04 08:19:56.93	40.47	21.42	-46.6	-48.8	19.5	0.00e+00	0	43	0	563085312	64	4753
2026-01-04 08:19:59.76	39.74	21.35	-46.7	-48.9	19.5	0.00e+00	0	43	0	568328192	64	4762
2026-01-04 08:20:02.91	38.93	21.27	-47.0	-49.3	19.0	0.00e+00	0	43	0	574619648	64	5022
2026-01-04 08:20:05.78	38.20	21.19	-47.3	-49.6	18.8	0.00e+00	0	43	0	579862528	65	4902
2026-01-04 08:20:09.09	37.36	21.09	-47.5	-50.0	18.5	0.00e+00	0	43	0	586153984	65	5107
2026-01-04 08:20:11.85	36.67	21.01	-47.6	-50.1	18.4	0.00e+00	0	44	0	591396864	66	4881
2026-01-04 08:20:15.15	35.84	20.90	-47.8	-50.3	18.2	0.00e+00	0	43	0	597688320	66	4994
2026-01-04 08:20:17.97	35.14	20.81	-48.0	-50.5	17.9	0.00e+00	0	43	0	602931200	66	5150
2026-01-04 08:20:21.12	34.36	20.69	-48.3	-50.8	17.7	0.00e+00	0	43	0	608174080	67	5037
2026-01-04 08:20:23.98	33.66	20.59	-48.1	-50.8	17.7	0.00e+00	0	43	0	613416960	67	4995
2026-01-04 08:20:27.12	32.90	20.47	-48.3	-51.0	17.6	0.00e+00	0	43	0	619708416	67	5116
2026-01-04 08:20:30.04	32.20	20.35	-48.5	-51.2	17.2	0.00e+00	0	44	0	624951296	67	5265
2026-01-04 08:20:33.09	31.47	20.22	-48.7	-51.4	17.2	0.00e+00	0	43	0	631242752	68	5099
2026-01-04 08:20:36.76	30.60	20.06	-48.7	-51.3	17.3	0.00e+00	0	43	0	637534208	68	5037
2026-01-04 08:20:39.76	29.89	19.93	-48.4	-51.1	17.6	0.00e+00	0	43	0	643825664	68	4874
2026-01-04 08:20:43.55	29.01	19.76	-48.5	-51.2	17.4	0.00e+00	0	43	0	650117120	68	4963
2026-01-04 08:20:46.43	28.35	19.62	-48.6	-51.3	17.4	6.80e-06	0	43	0	655360000	68	5017
2026-01-04 08:20:49.97	27.54	19.45	-48.5	-51.1	17.6	0.00e+00	0	43	0	662700032	68	4907
2026-01-04 08:20:52.69	26.93	19.31	-48.2	-50.9	17.6	7.00e-07	0	43	0	667942912	68	4792
2026-01-04 08:20:55.98	26.20	19.15	-48.4	-51.4	17.3	0.00e+00	0	43	0	674234368	68	5096
2026-01-04 08:20:58.70	25.60	19.01	-48.1	-51.1	17.4	5.30e-06	0	43	0	678428672	67	5167
2026-01-04 08:21:01.99	24.88	18.83	-48.2	-51.1	17.4	0.00e+00	0	43	0	684720128	67	5178
2026-01-04 08:21:04.71	24.29	18.69	-48.0	-50.8	17.4	0.00e+00	0	43	0	689963008	67	4984
2026-01-04 08:21:08.01	23.58	18.51	-48.3	-50.9	17.4	0.00e+00	0	43	0	696254464	67	5100
2026-01-04 08:21:10.72	23.01	18.36	-48.2	-51.0	17.4	0.00e+00	0	43	0	701497344	67	5111
2026-01-04 08:21:14.17	22.29	18.16	-47.9	-50.6	17.5	0.00e+00	0	44	0	707788800	67	4889
2026-01-04 08:21:17.16	21.67	17.99	-48.0	-50.7	17.6	0.00e+00	0	44	0	713031680	67	4928
2026-01-04 08:21:20.99	20.89	17.77	-47.9	-50.5	17.8	0.00e+00	0	43	0	720371712	67	4870
2026-01-04 08:21:23.89	20.31	17.60	-48.4	-51.1	17.4	0.00e+00	0	43	0	726663168	67	5188
2026-01-04 08:21:27.18	19.65	17.41	-48.3	-51.1	17.3	0.00e+00	0	43	0	731906048	67	5193
2026-01-04 08:21:29.98	19.10	17.24	-48.4	-51.2	17.2	0.00e+00	0	44	0	737148928	67	5268
2026-01-04 08:21:33.27	18.46	17.04	-48.4	-51.3	17.1	0.00e+00	0	43	0	743440384	67	5332
2026-01-04 08:21:36.05	17.93	16.87	-48.9	-51.7	17.0	0.00e+00	0	43	0	748683264	68	5257
2026-01-04 08:21:39.65	17.25	16.65	-48.8	-51.5	17.2	0.00e+00	0	43	0	756023296	68	5149
2026-01-04 08:21:42.51	16.72	16.47	-48.9	-51.6	17.1	0.00e+00	0	43	0	761266176	68	5193
2026-01-04 08:21:45.67	16.14	16.27	-48.8	-51.6	17.1	0.00e+00	0	43	0	766509056	69	4876
2026-01-04 08:21:48.53	15.62	16.09	-48.4	-51.3	17.2	0.00e+00	0	44	0	772800512	68	4990
2026-01-04 08:21:51.68	15.05	15.89	-48.1	-51.1	17.2	0.00e+00	0	44	0	778043392	68	4874
2026-01-04 08:21:54.99	14.47	15.68	-47.5	-50.5	17.6	0.00e+00	0	44	0	784334848	67	4836
2026-01-04 08:21:57.84	13.97	15.50	-47.3	-50.3	17.7	0.00e+00	0	44	0	789577728	66	5010
2026-01-04 08:22:00.99	13.43	15.30	-47.3	-50.3	17.7	0.00e+00	0	44	0	795869184	66	5040
2026-01-04 08:22:03.86	12.94	15.11	-47.4	-50.2	17.9	0.00e+00	0	43	0	801112064	66	4973
2026-01-04 08:22:07.01	12.41	14.91	-47.4	-50.0	18.0	0.00e+00	0	43	0	807403520	66	4848
2026-01-04 08:22:09.87	11.94	14.72	-47.1	-49.6	18.4	0.00e+00	0	43	0	812646400	66	4629
2026-01-04 08:22:13.02	11.42	14.51	-47.6	-50.2	18.4	0.00e+00	0	43	0	817889280	66	4982
2026-01-04 08:22:15.88	10.96	14.33	-47.5	-50.2	18.3	0.00e+00	0	43	0	823132160	66	4944
2026-01-04 08:22:19.13	10.45	14.11	-47.5	-50.2	18.3	0.00e+00	0	43	0	829423616	66	4933
2026-01-04 08:22:22.40	9.93	13.90	-46.6	-49.4	18.4	0.00e+00	0	44	0	835715072	65	4809
2026-01-04 08:22:25.18	9.50	13.72	-47.2	-50.1	18.3	0.00e+00	0	43	0	840957952	65	5190
2026-01-04 08:22:28.57	8.99	13.49	-47.4	-50.1	18.4	0.00e+00	0	43	0	847249408	65	5176
2026-01-04 08:22:31.45	8.56	13.30	-47.3	-50.2	18.1	0.00e+00	0	43	0	852492288	65	5257
2026-01-04 08:22:34.75	8.07	13.09	-47.2	-50.3	17.9	0.00e+00	0	43	0	858783744	65	5302
2026-01-04 08:22:37.48	7.67	12.91	-47.9	-50.8	17.8	0.00e+00	0	43	0	864026624	66	5313
2026-01-04 08:22:40.84	7.18	12.68	-47.9	-50.8	17.5	0.00e+00	0	43	0	870318080	66	5287
2026-01-04 08:22:43.68	6.78	12.50	-47.9	-50.8	17.6	0.00e+00	0	43	0	875560960	66	5283
2026-01-04 08:22:46.83	6.34	12.29	-48.0	-50.8	17.5	0.00e+00	0	44	0	881852416	66	5334
2026-01-04 08:22:49.70	5.94	12.10	-48.0	-51.0	17.6	0.00e+00	0	43	0	887095296	66	5416
2026-01-04 08:22:52.85	5.52	11.89	-47.7	-50.8	17.7	0.00e+00	0	43	0	893386752	66	5315
2026-01-04 08:22:55.72	5.13	11.70	-47.9	-51.0	17.4	0.00e+00	0	43	0	898629632	66	5410
2026-01-04 08:22:58.86	4.71	11.50	-48.2	-51.3	17.1	0.00e+00	0	43	0	903872512	67	5334
2026-01-04 08:23:01.72	4.34	11.31	-48.3	-51.5	16.9	0.00e+00	0	43	0	909115392	67	5448
2026-01-04 08:23:05.00	3.92	11.09	-48.2	-51.5	16.9	0.00e+00	0	44	0	915406848	67	5426
2026-01-04 08:23:07.73	3.57	10.91	-48.3	-51.6	16.9	0.00e+00	0	43	0	920649728	67	5484
2026-01-04 08:23:11.02	3.16	10.70	-48.9	-51.9	16.7	0.00e+00	0	44	0	926941184	68	5391
2026-01-04 08:23:13.74	2.82	10.52	-49.0	-51.9	16.7	0.00e+00	0	44	0	932184064	69	5094
2026-01-04 08:23:17.04	2.42	10.31	-48.8	-52.1	16.5	0.00e+00	0	43	0	938475520	69	5208
2026-01-04 08:23:19.75	2.09	10.13	-49.1	-52.3	16.2	0.00e+00	0	43	0	943718400	69	5326
2026-01-04 08:23:23.04	1.70	9.92	-49.0	-52.4	16.1	0.00e+00	0	44	0	950009856	69	5384
2026-01-04 08:23:25.76	1.39	9.74	-48.7	-52.5	15.9	0.00e+00	0	43	0	954204160	69	5433
2026-01-04 08:23:29.05	1.01	9.53	-48.7	-52.4	16.1	0.00e+00	0	43	0	960495616	69	5377
2026-01-04 08:23:31.77	0.70	9.35	-49.1	-52.5	16.2	0.00e+00	0	43	0	965738496	69	5456
2026-01-04 08:23:35.06	0.33	9.14	-49.4	-52.9	15.9	0.00e+00	0	44	0	972029952	69	5700
2026-01-04 08:23:37.84	0.02	8.96	-52.4	-59.8	9.3	0.00e+00	0	43	0	977272832	75	8877
2026-01-04 08:23:41.14	359.66	8.75	-54.8	-70.3	3.8	1.49e+00	0	44	104	977272832	80	22341
2026-01-04 08:23:43.88	359.36	8.58	-55.2	-70.4	3.8	1.49e+00	0	44	104	977272832	81	21279
2026-01-04 08:23:47.21	359.01	8.37	-54.9	-70.3	3.8	1.49e+00	0	43	104	977272832	81	21027
2026-01-04 08:23:50.01	358.72	8.19	-55.0	-70.5	3.8	1.49e+00	0	44	104	977272832	81	21708
2026-01-04 08:23:53.24	358.38	7.99	-55.2	-70.5	3.8	1.49e+00	0	43	104	977272832	81	21704
2026-01-04 08:23:56.26	358.08	7.80	-55.5	-70.6	3.8	1.49e+00	0	44	104	977272832	81	21939
2026-01-04 08:23:59.27	357.77	7.61	-55.3	-70.5	3.8	1.49e+00	0	43	104	977272832	81	21557
2026-01-04 08:24:02.28	357.47	7.42	-55.0	-70.2	3.8	1.49e+00	0	44	104	977272832	81	21011
2026-01-04 08:24:05.41	357.17	7.23	-54.8	-70.0	3.8	1.49e+00	0	44	104	977272832	81	20536
2026-01-04 08:24:08.39	356.88	7.04	-54.9	-70.4	3.8	1.49e+00	0	44	104	977272832	80	22636
2026-01-04 08:24:11.54	356.58	6.85	-55.0	-70.4	3.8	1.49e+00	0	44	104	977272832	80	22635
2026-01-04 08:24:14.41	356.31	6.67	-54.9	-70.3	3.8	1.49e+00	0	44	104	977272832	80	22327
2026-01-04 08:24:17.57	356.02	6.48	-54.6	-70.0	3.8	1.49e+00	0	43	104	977272832	80	21625
2026-01-04 08:24:20.43	355.75	6.30	-54.7	-70.1	3.8	1.49e+00	0	44	104	977272832	80	21956
2026-01-04 08:24:23.59	355.47	6.11	-54.8	-70.2	3.8	1.49e+00	0	44	104	977272832	80	22050
2026-01-04 08:24:26.45	355.21	5.93	-54.6	-70.0	3.8	1.49e+00	0	44	104	977272832	80	21517
2026-01-04 08:24:29.61	354.94	5.74	-54.5	-69.9	3.8	1.49e+00	0	43	104	977272832	80	21271
2026-01-04 08:24:32.48	354.69	5.57	-54.5	-69.9	3.8	1.49e+00	0	44	104	977272832	80	21445
2026-01-04 08:24:35.64	354.41	5.38	-54.4	-69.8	3.8	1.49e+00	0	44	104	977272832	80	21195
2026-01-04 08:24:38.50	354.17	5.21	-54.5	-69.8	3.8	1.49e+00	0	44	104	977272832	80	21254
2026-01-04 08:24:41.66	353.91	5.02	-54.4	-69.8	3.8	1.49e+00	0	44	104	977272832	79	22349

#Closed at: 2026-01-04 08:24:43
#Recorded file [977 MB]: D:/Data/31040_260104_111400.dat