passes_logs/2026/01/04/T1/T1__20260104_072544_NOAA_21_JPSS-2_rec.log

#Pass ID: 20260104_072544_NOAA 21 (JPSS-2)
#Satellite: NOAA 21 (JPSS-2)
#Configuration: NOAA 21
#almurnet v.1.7.20251203
#Start time: 2026-01-04 07:25:44

#Version: 2.0.20230620
#Station: T1
#Location: 37.570604 lon 55.790049 lat
#TLE: 1 54234U 22150A   26003.94651505  .00000183  00000+0  10759-3 0  9990
#TLE: 2 54234  98.7488 304.9806 0001136 345.9488  14.1656 14.19531852163244

#Time	Az	El	Level	Level2	SNR	BER	BlckErr	Temp	State	Recorded	gain1	gain2
2026-01-04 07:25:44.53	78.70	5.01	-53.8	-66.9	3.8	1.49e+00	0	40	0	0	78	17032
2026-01-04 07:25:46.54	78.46	5.10	-53.3	-66.5	3.8	1.49e+00	0	40	104	0	78	16182
2026-01-04 07:25:48.54	78.23	5.19	-53.4	-66.5	3.8	1.49e+00	0	40	104	0	78	16223
2026-01-04 07:25:50.55	77.99	5.28	-53.3	-66.5	3.8	1.49e+00	0	40	104	0	78	16226
2026-01-04 07:25:52.56	77.75	5.38	-53.4	-66.5	3.8	1.49e+00	0	40	104	0	78	16263
2026-01-04 07:25:54.57	77.50	5.47	-53.5	-66.6	3.8	1.49e+00	0	40	104	0	78	16457
2026-01-04 07:25:56.58	77.26	5.56	-53.6	-66.8	3.8	1.49e+00	0	40	104	0	78	16775
2026-01-04 07:25:58.59	77.01	5.65	-53.6	-66.8	3.8	1.49e+00	0	40	104	0	78	16704
2026-01-04 07:26:00.60	76.77	5.74	-54.0	-67.2	3.8	1.49e+00	0	40	104	0	78	17542
2026-01-04 07:26:02.60	76.52	5.83	-54.0	-67.2	3.8	1.49e+00	0	40	104	0	78	17551
2026-01-04 07:26:04.61	76.27	5.92	-53.9	-67.1	3.8	1.49e+00	0	40	104	0	78	17291
2026-01-04 07:26:06.62	76.02	6.00	-53.9	-67.1	3.8	1.49e+00	0	40	104	0	78	17301
2026-01-04 07:26:08.63	75.76	6.09	-54.0	-67.1	3.8	1.49e+00	0	41	104	0	78	17383
2026-01-04 07:26:10.64	75.51	6.18	-54.0	-67.1	3.8	1.49e+00	0	41	104	0	78	17372
2026-01-04 07:26:12.64	75.25	6.27	-54.0	-67.2	3.8	1.49e+00	0	41	104	0	78	17495
2026-01-04 07:26:14.65	75.00	6.36	-54.1	-67.2	3.8	1.49e+00	0	41	104	0	78	17652
2026-01-04 07:26:16.66	74.74	6.45	-54.3	-67.4	3.8	1.49e+00	0	41	104	0	79	17028
2026-01-04 07:26:18.67	74.48	6.54	-54.4	-67.5	3.8	1.49e+00	0	41	104	0	79	17164
2026-01-04 07:26:20.68	74.21	6.62	-54.3	-67.4	3.8	1.49e+00	0	41	104	0	79	16951
2026-01-04 07:26:22.69	73.95	6.71	-54.0	-67.1	3.8	1.49e+00	0	41	104	0	79	16503
2026-01-04 07:26:24.70	73.68	6.80	-54.3	-67.4	3.8	1.49e+00	0	41	104	0	79	16961
2026-01-04 07:26:26.71	73.41	6.89	-54.4	-67.4	3.8	1.49e+00	0	41	104	0	79	16904
2026-01-04 07:26:28.71	73.15	6.97	-53.6	-66.6	3.8	1.49e+00	0	41	104	0	79	15518
2026-01-04 07:26:30.72	72.88	7.06	-54.3	-67.3	3.8	1.49e+00	0	41	104	0	79	16789
2026-01-04 07:26:32.73	72.60	7.14	-54.4	-67.5	3.8	1.49e+00	0	41	104	0	79	17102
2026-01-04 07:26:34.74	72.33	7.23	-53.8	-66.9	3.8	1.49e+00	0	42	104	0	79	16049
2026-01-04 07:26:36.75	72.05	7.31	-53.9	-67.0	3.8	1.49e+00	0	41	104	0	79	16219
2026-01-04 07:26:38.76	71.78	7.40	-53.9	-67.0	3.8	1.49e+00	0	41	104	0	79	16182
2026-01-04 07:26:40.77	71.50	7.48	-53.9	-66.9	3.8	1.49e+00	0	41	104	0	78	16916
2026-01-04 07:26:42.77	71.22	7.57	-53.7	-66.5	3.8	1.49e+00	0	41	104	0	78	16298
2026-01-04 07:26:44.78	70.94	7.65	-53.8	-66.5	3.8	1.49e+00	0	42	104	0	78	16298
2026-01-04 07:26:46.79	70.65	7.74	-53.9	-66.7	3.8	1.49e+00	0	42	104	0	78	16625
2026-01-04 07:26:48.80	70.37	7.82	-53.9	-66.9	3.8	1.49e+00	0	42	104	0	78	17032
2026-01-04 07:26:50.81	70.08	7.90	-53.7	-66.7	3.8	1.49e+00	0	42	104	0	78	16525
2026-01-04 07:26:52.81	69.79	7.98	-53.9	-66.5	3.8	1.49e+00	0	42	104	0	78	16255
2026-01-04 07:26:54.82	69.50	8.07	-53.9	-66.3	3.8	1.49e+00	0	42	104	0	78	15843
2026-01-04 07:26:56.83	69.21	8.15	-53.9	-66.6	3.8	1.49e+00	0	42	104	0	78	16321
2026-01-04 07:26:58.84	68.91	8.23	-53.9	-66.9	3.8	1.49e+00	0	42	104	0	78	17044
2026-01-04 07:27:00.85	68.62	8.31	-53.7	-66.8	3.8	1.49e+00	0	42	104	0	78	16787
2026-01-04 07:27:02.86	68.32	8.39	-53.6	-65.7	3.8	1.49e+00	0	42	104	0	78	14712
2026-01-04 07:27:04.86	68.02	8.47	-53.6	-65.4	3.8	1.49e+00	0	42	104	0	78	14344
2026-01-04 07:27:06.87	67.72	8.55	-54.0	-65.8	3.8	1.49e+00	0	42	104	0	78	14953
2026-01-04 07:27:08.88	67.42	8.63	-51.8	-56.8	9.0	8.32e-02	0	42	0	0	75	6279
2026-01-04 07:27:10.89	67.12	8.70	-48.5	-51.2	14.2	3.00e-06	0	42	0	0	69	4704
2026-01-04 07:27:12.90	66.81	8.78	-47.3	-49.7	15.7	0.00e+00	0	42	0	0	66	4666
2026-01-04 07:27:14.90	66.51	8.86	-48.3	-51.0	14.6	0.00e+00	0	42	0	0	67	5102
2026-01-04 07:27:16.91	66.20	8.93	-51.1	-55.2	10.7	1.07e-03	0	42	0	0	72	6218
2026-01-04 07:27:18.92	65.89	9.01	-53.2	-61.5	5.0	5.91e-01	0	42	0	0	76	10197
2026-01-04 07:27:20.93	65.58	9.09	-52.8	-59.2	6.7	3.89e-02	0	42	0	0	76	7880
2026-01-04 07:27:22.97	65.26	9.16	-53.6	-62.4	4.7	1.48e+00	0	42	104	0	78	10132
2026-01-04 07:27:25.00	64.94	9.24	-53.4	-62.2	4.6	1.48e+00	0	42	104	0	78	9888
2026-01-04 07:27:27.01	64.62	9.31	-53.1	-59.8	6.3	2.99e-01	0	42	0	0	77	7982
2026-01-04 07:27:29.01	64.31	9.38	-51.8	-56.2	10.0	6.62e-03	0	42	0	0	75	5863
2026-01-04 07:27:31.01	63.99	9.45	-54.0	-66.0	3.8	1.49e+00	0	42	104	0	78	15358
2026-01-04 07:27:33.02	63.67	9.53	-53.9	-64.6	3.9	2.37e-01	0	42	104	0	78	13090
2026-01-04 07:27:35.02	63.34	9.60	-51.0	-54.9	11.0	2.50e-03	0	42	0	0	74	5382
2026-01-04 07:27:37.03	63.02	9.67	-50.5	-53.9	12.2	4.52e-04	0	42	0	0	72	5364
2026-01-04 07:27:39.03	62.69	9.74	-49.0	-51.7	14.4	1.50e-06	0	42	0	0	70	4667
2026-01-04 07:27:41.04	62.37	9.81	-48.5	-51.0	15.0	0.00e+00	0	42	0	0	69	4586
2026-01-04 07:27:43.04	62.04	9.87	-47.4	-49.7	16.2	0.00e+00	0	42	0	0	66	4669
2026-01-04 07:27:45.05	61.71	9.94	-47.1	-49.2	16.6	0.00e+00	0	42	0	0	66	4431
2026-01-04 07:27:47.05	61.38	10.01	-46.8	-48.9	17.0	0.00e+00	0	42	0	0	65	4521
2026-01-04 07:27:49.05	61.04	10.07	-46.9	-49.0	17.0	0.00e+00	0	42	0	0	65	4584
2026-01-04 07:27:51.09	60.70	10.14	-46.8	-48.9	17.1	0.00e+00	0	42	0	0	65	4521
2026-01-04 07:27:53.16	60.36	10.21	-47.1	-49.3	16.7	0.00e+00	0	42	0	0	65	4733
2026-01-04 07:27:55.19	60.01	10.27	-46.9	-48.9	17.1	0.00e+00	0	42	0	0	65	4538
2026-01-04 07:27:57.20	59.67	10.33	-46.8	-48.9	17.1	0.00e+00	0	42	0	0	65	4512
2026-01-04 07:27:59.49	59.29	10.40	-46.6	-48.6	17.4	0.00e+00	0	42	0	0	65	4361
2026-01-04 07:28:01.75	58.90	10.47	-46.3	-48.3	17.5	0.00e+00	0	42	0	0	64	4469
2026-01-04 07:28:03.75	58.56	10.53	-46.4	-48.4	17.5	0.00e+00	0	42	0	0	64	4522
2026-01-04 07:28:05.75	58.21	10.59	-46.8	-48.8	17.3	0.00e+00	0	42	0	0	64	4745
2026-01-04 07:28:07.76	57.86	10.65	-46.9	-49.0	16.9	0.00e+00	0	42	0	0	64	4847
2026-01-04 07:28:09.76	57.52	10.71	-46.8	-48.9	17.0	0.00e+00	0	42	0	0	64	4780
2026-01-04 07:28:11.77	57.17	10.76	-46.8	-48.9	17.0	0.00e+00	0	42	0	0	64	4800
2026-01-04 07:28:13.78	56.81	10.82	-46.9	-49.0	17.0	0.00e+00	0	42	0	0	64	4847
2026-01-04 07:28:15.78	56.46	10.87	-46.8	-48.9	17.0	0.00e+00	0	42	0	0	64	4785
2026-01-04 07:28:17.78	56.11	10.93	-46.9	-49.0	17.0	0.00e+00	0	42	0	0	64	4859
2026-01-04 07:28:19.79	55.75	10.98	-46.7	-48.8	17.2	0.00e+00	0	42	0	0	64	4740
2026-01-04 07:28:21.79	55.40	11.03	-46.7	-48.8	17.1	0.00e+00	0	42	0	0	64	4742
2026-01-04 07:28:23.80	55.04	11.08	-46.8	-48.8	17.2	0.00e+00	0	42	0	0	64	4756
2026-01-04 07:28:25.80	54.68	11.13	-46.9	-49.0	17.0	0.00e+00	0	42	0	0	64	4826
2026-01-04 07:28:28.13	54.26	11.19	-46.8	-48.9	17.2	0.00e+00	0	42	0	0	64	4776
2026-01-04 07:28:30.13	53.90	11.24	-46.7	-48.7	17.2	0.00e+00	0	42	0	0	64	4705
2026-01-04 07:28:32.14	53.54	11.28	-46.6	-48.6	17.4	0.00e+00	0	42	0	0	64	4622
2026-01-04 07:28:34.14	53.18	11.33	-46.4	-48.5	17.4	0.00e+00	0	42	0	0	64	4557
2026-01-04 07:28:36.19	52.81	11.38	-46.7	-48.8	17.2	0.00e+00	0	42	0	0	64	4731
2026-01-04 07:28:38.19	52.44	11.42	-46.7	-48.7	17.2	0.00e+00	0	42	0	0	64	4694
2026-01-04 07:28:40.20	52.07	11.46	-46.8	-48.8	17.2	0.00e+00	0	42	0	0	64	4757
2026-01-04 07:28:42.21	51.70	11.50	-46.8	-48.8	17.2	0.00e+00	0	43	0	0	64	4740
2026-01-04 07:28:44.21	51.34	11.54	-46.9	-49.0	17.0	0.00e+00	0	42	0	0	64	4825
2026-01-04 07:28:46.21	50.97	11.58	-46.9	-49.1	16.9	0.00e+00	0	42	0	0	64	4876
2026-01-04 07:28:48.22	50.60	11.62	-47.0	-49.1	17.0	0.00e+00	0	42	0	0	64	4889
2026-01-04 07:28:50.27	50.22	11.66	-46.8	-48.9	17.1	0.00e+00	0	42	0	0	64	4773
2026-01-04 07:28:52.36	49.83	11.70	-46.7	-48.7	17.4	0.00e+00	0	42	0	0	64	4704
2026-01-04 07:28:54.39	49.45	11.73	-46.5	-48.5	17.5	0.00e+00	0	42	0	0	64	4555
2026-01-04 07:28:56.40	49.07	11.77	-46.3	-48.3	17.6	0.00e+00	0	42	0	0	64	4466
2026-01-04 07:28:58.40	48.70	11.80	-46.3	-48.3	17.5	0.00e+00	0	42	0	0	64	4482
2026-01-04 07:29:00.41	48.32	11.83	-46.2	-48.2	17.6	0.00e+00	0	42	0	0	64	4422
2026-01-04 07:29:02.42	47.94	11.86	-46.1	-48.1	17.7	0.00e+00	0	42	0	0	64	4348
2026-01-04 07:29:04.42	47.57	11.89	-46.0	-48.0	17.6	0.00e+00	0	42	0	0	63	4558
2026-01-04 07:29:06.43	47.19	11.92	-46.3	-48.3	17.6	0.00e+00	0	42	0	0	63	4719
2026-01-04 07:29:08.52	46.79	11.94	-46.3	-48.3	17.6	0.00e+00	0	42	0	0	63	4722
2026-01-04 07:29:10.60	46.40	11.97	-46.3	-48.3	17.7	0.00e+00	0	42	0	0	63	4725
2026-01-04 07:29:12.61	46.02	11.99	-46.2	-48.2	17.6	0.00e+00	0	42	0	0	63	4656
2026-01-04 07:29:14.61	45.63	12.02	-46.2	-48.2	17.7	0.00e+00	0	42	0	0	63	4652
2026-01-04 07:29:16.62	45.25	12.04	-46.5	-48.5	17.4	0.00e+00	0	42	0	0	63	4842
2026-01-04 07:29:18.62	44.87	12.06	-46.5	-48.5	17.5	0.00e+00	0	43	0	0	63	4839
2026-01-04 07:29:20.63	44.49	12.08	-46.5	-48.5	17.6	0.00e+00	0	42	0	0	63	4847
2026-01-04 07:29:22.80	44.07	12.10	-46.5	-48.5	17.7	0.00e+00	0	42	0	0	64	4557
2026-01-04 07:29:24.83	43.68	12.12	-46.4	-48.4	17.8	0.00e+00	0	43	0	0	64	4500
2026-01-04 07:29:26.84	43.30	12.13	-46.2	-48.2	17.8	0.00e+00	0	42	0	0	64	4421
2026-01-04 07:29:28.84	42.91	12.14	-46.5	-48.5	17.5	0.00e+00	0	42	0	0	64	4593
2026-01-04 07:29:30.84	42.53	12.16	-46.3	-48.3	17.7	0.00e+00	0	43	0	0	64	4468
2026-01-04 07:29:32.85	42.14	12.17	-46.3	-48.3	17.8	0.00e+00	0	43	0	0	64	4469
2026-01-04 07:29:34.86	41.76	12.18	-46.2	-48.2	17.9	0.00e+00	0	43	0	0	64	4400
2026-01-04 07:29:36.86	41.37	12.19	-46.3	-48.2	17.7	0.00e+00	0	42	0	0	64	4438
2026-01-04 07:29:38.87	40.99	12.20	-46.2	-48.2	17.8	0.00e+00	0	42	0	0	64	4406
2026-01-04 07:29:40.87	40.60	12.20	-46.3	-48.3	17.8	0.00e+00	0	42	0	0	64	4462
2026-01-04 07:29:42.88	40.21	12.21	-46.3	-48.3	17.7	0.00e+00	0	42	0	0	64	4452
2026-01-04 07:29:44.89	39.83	12.21	-46.2	-48.2	17.6	0.00e+00	0	42	0	0	64	4392
2026-01-04 07:29:46.97	39.43	12.22	-46.1	-48.1	17.5	0.00e+00	0	43	0	0	64	4356
2026-01-04 07:29:48.98	39.04	12.22	-46.4	-48.4	17.5	0.00e+00	0	43	0	0	64	4516
2026-01-04 07:29:51.03	38.64	12.22	-46.5	-48.6	17.3	0.00e+00	0	43	0	0	64	4601
2026-01-04 07:29:53.04	38.26	12.22	-46.5	-48.6	17.2	0.00e+00	0	42	0	0	64	4634
2026-01-04 07:29:55.04	37.87	12.21	-46.5	-48.6	17.3	0.00e+00	0	42	0	0	64	4641
2026-01-04 07:29:57.04	37.48	12.21	-46.6	-48.6	17.5	0.00e+00	0	42	0	0	64	4632
2026-01-04 07:29:59.05	37.10	12.21	-46.4	-48.4	17.7	0.00e+00	0	42	0	0	64	4501
2026-01-04 07:30:01.06	36.71	12.20	-46.3	-48.4	17.6	0.00e+00	0	42	0	0	64	4516
2026-01-04 07:30:03.07	36.32	12.19	-46.4	-48.4	17.5	0.00e+00	0	42	0	0	64	4545
2026-01-04 07:30:05.11	35.93	12.18	-46.2	-48.2	17.8	0.00e+00	0	43	0	0	64	4425
2026-01-04 07:30:07.21	35.53	12.17	-46.3	-48.3	17.7	0.00e+00	0	42	0	0	64	4454
2026-01-04 07:30:09.25	35.14	12.16	-46.2	-48.2	17.8	0.00e+00	0	42	0	0	64	4412
2026-01-04 07:30:11.32	34.74	12.15	-46.3	-48.3	17.6	0.00e+00	0	42	0	0	64	4493
2026-01-04 07:30:13.33	34.35	12.13	-46.3	-48.3	17.7	0.00e+00	0	43	0	0	64	4448
2026-01-04 07:30:15.33	33.97	12.12	-46.4	-48.5	17.6	0.00e+00	0	42	0	0	64	4549
2026-01-04 07:30:17.34	33.59	12.10	-46.4	-48.4	17.6	0.00e+00	0	42	0	0	64	4518
2026-01-04 07:30:19.35	33.20	12.08	-46.3	-48.3	17.7	0.00e+00	0	42	0	0	64	4486
2026-01-04 07:30:21.52	32.79	12.06	-46.3	-48.4	17.6	0.00e+00	0	43	0	0	64	4503
2026-01-04 07:30:23.52	32.41	12.04	-46.3	-48.4	17.6	0.00e+00	0	43	0	0	64	4543
2026-01-04 07:30:25.78	31.98	12.02	-46.4	-48.5	17.5	0.00e+00	0	42	0	0	64	4587
2026-01-04 07:30:28.00	31.55	11.99	-46.4	-48.4	17.5	0.00e+00	0	43	0	0	64	4531
2026-01-04 07:30:30.00	31.18	11.97	-46.2	-48.2	17.7	0.00e+00	0	43	0	0	64	4430
2026-01-04 07:30:32.01	30.80	11.94	-46.1	-48.1	17.8	0.00e+00	0	42	0	0	64	4380
2026-01-04 07:30:34.01	30.42	11.92	-46.2	-48.2	17.6	0.00e+00	0	42	0	0	64	4428
2026-01-04 07:30:36.02	30.04	11.89	-46.5	-48.5	17.4	0.00e+00	0	43	0	0	64	4552
2026-01-04 07:30:38.02	29.66	11.86	-46.7	-48.8	17.2	0.00e+00	0	43	0	0	64	4739
2026-01-04 07:30:40.03	29.28	11.83	-46.6	-48.7	17.4	0.00e+00	0	42	0	0	64	4688
2026-01-04 07:30:42.03	28.91	11.80	-46.8	-49.0	17.1	0.00e+00	0	43	0	0	64	4854
2026-01-04 07:30:44.04	28.53	11.77	-46.7	-48.8	17.2	0.00e+00	0	43	0	0	64	4754
2026-01-04 07:30:46.04	28.16	11.73	-46.7	-48.8	17.2	0.00e+00	0	43	0	0	64	4756
2026-01-04 07:30:48.05	27.79	11.70	-46.7	-48.8	17.3	0.00e+00	0	43	0	0	64	4753
2026-01-04 07:30:50.14	27.40	11.66	-46.6	-48.7	17.2	0.00e+00	0	43	0	0	64	4654
2026-01-04 07:30:52.14	27.03	11.62	-46.6	-48.7	17.1	0.00e+00	0	43	0	0	64	4700
2026-01-04 07:30:54.15	26.66	11.59	-46.5	-48.7	17.2	0.00e+00	0	42	0	0	64	4655
2026-01-04 07:30:56.15	26.29	11.55	-46.6	-48.8	17.1	0.00e+00	0	43	0	0	64	4722
2026-01-04 07:30:58.16	25.92	11.51	-46.5	-48.6	17.2	0.00e+00	0	43	0	0	64	4649
2026-01-04 07:31:00.17	25.55	11.47	-46.6	-48.7	17.0	0.00e+00	0	42	0	0	64	4699
2026-01-04 07:31:02.17	25.19	11.42	-46.5	-48.6	17.2	0.00e+00	0	42	0	0	64	4637
2026-01-04 07:31:04.17	24.82	11.38	-46.4	-48.6	17.0	0.00e+00	0	43	0	0	64	4615
2026-01-04 07:31:06.18	24.46	11.33	-46.4	-48.5	16.9	0.00e+00	0	42	0	0	64	4594
2026-01-04 07:31:08.19	24.09	11.29	-46.4	-48.5	17.0	0.00e+00	0	43	0	0	64	4546
2026-01-04 07:31:10.19	23.73	11.24	-46.5	-48.6	16.6	0.00e+00	0	42	0	0	64	4607
2026-01-04 07:31:12.20	23.37	11.19	-46.4	-48.4	17.5	0.00e+00	0	42	0	0	64	4526
2026-01-04 07:31:14.21	23.01	11.15	-46.7	-48.8	16.8	0.00e+00	0	43	0	0	64	4723
2026-01-04 07:31:16.21	22.66	11.10	-46.7	-48.8	16.8	0.00e+00	0	43	0	0	64	4756
2026-01-04 07:31:18.23	22.30	11.05	-46.4	-48.7	15.9	0.00e+00	0	42	0	0	64	4658
2026-01-04 07:31:20.30	21.93	10.99	-46.6	-48.9	16.0	0.00e+00	0	42	0	0	64	4788
2026-01-04 07:31:22.40	21.56	10.94	-46.2	-48.6	16.7	0.00e+00	0	43	0	0	64	4608
2026-01-04 07:31:24.41	21.21	10.88	-46.1	-48.5	16.9	0.00e+00	0	43	0	0	63	4868
2026-01-04 07:31:26.42	20.85	10.83	-45.9	-48.4	16.6	0.00e+00	0	42	0	0	63	4772
2026-01-04 07:31:28.63	20.47	10.77	-46.3	-48.7	16.8	0.00e+00	0	42	0	0	63	4937
2026-01-04 07:31:30.86	20.08	10.71	-46.5	-48.7	17.1	0.00e+00	0	42	0	0	64	4695
2026-01-04 07:31:32.87	19.73	10.65	-46.6	-48.8	17.0	0.00e+00	0	42	0	0	64	4750
2026-01-04 07:31:34.88	19.39	10.59	-46.4	-48.6	17.4	0.00e+00	0	43	0	0	64	4614
2026-01-04 07:31:36.88	19.04	10.53	-46.5	-48.6	17.3	0.00e+00	0	43	0	0	64	4623
2026-01-04 07:31:38.89	18.70	10.47	-46.6	-48.7	17.2	0.00e+00	0	43	0	0	64	4701
2026-01-04 07:31:40.89	18.36	10.41	-46.5	-48.5	17.4	0.00e+00	0	42	0	0	64	4584
2026-01-04 07:31:42.90	18.02	10.35	-46.6	-48.7	17.4	0.00e+00	0	43	0	0	64	4662
2026-01-04 07:31:44.91	17.68	10.29	-46.6	-48.7	17.3	0.00e+00	0	43	0	0	64	4696
2026-01-04 07:31:47.07	17.32	10.22	-46.7	-48.9	17.2	0.00e+00	0	43	0	0	64	4806
2026-01-04 07:31:49.08	16.98	10.15	-46.6	-48.9	17.1	0.00e+00	0	42	0	0	64	4801
2026-01-04 07:31:51.08	16.65	10.09	-46.9	-49.4	16.7	0.00e+00	0	43	0	0	64	5059
2026-01-04 07:31:53.28	16.28	10.02	-46.6	-49.0	17.0	0.00e+00	0	43	0	0	64	4844
2026-01-04 07:31:55.29	15.95	9.95	-46.4	-48.9	17.1	0.00e+00	0	43	0	0	64	4780
2026-01-04 07:31:57.29	15.62	9.88	-46.3	-48.8	17.2	0.00e+00	0	43	0	0	64	4722
2026-01-04 07:31:59.30	15.29	9.81	-46.2	-48.6	17.4	0.00e+00	0	43	0	0	64	4607
2026-01-04 07:32:01.30	14.97	9.75	-46.3	-48.5	17.5	0.00e+00	0	43	0	0	64	4575
2026-01-04 07:32:03.37	14.63	9.67	-46.6	-48.8	17.2	0.00e+00	0	43	0	0	64	4711
2026-01-04 07:32:05.38	14.31	9.60	-46.8	-49.0	17.0	0.00e+00	0	43	0	0	64	4845
2026-01-04 07:32:07.72	13.94	9.52	-46.9	-49.1	16.9	0.00e+00	0	43	0	0	64	4896
2026-01-04 07:32:09.72	13.62	9.45	-46.8	-49.0	17.0	0.00e+00	0	43	0	0	64	4837
2026-01-04 07:32:11.72	13.30	9.38	-46.7	-48.9	17.2	0.00e+00	0	43	0	0	64	4766
2026-01-04 07:32:13.76	12.98	9.31	-46.7	-49.0	17.0	0.00e+00	0	42	0	0	64	4832
2026-01-04 07:32:15.83	12.65	9.23	-46.6	-49.0	17.0	0.00e+00	0	43	0	0	64	4828
2026-01-04 07:32:18.23	12.28	9.14	-46.7	-49.1	16.9	0.00e+00	0	43	0	0	64	4896
2026-01-04 07:32:20.40	11.94	9.06	-46.8	-49.4	16.7	0.00e+00	0	43	0	0	64	5094
2026-01-04 07:32:22.61	11.60	8.98	-47.3	-50.2	15.9	0.00e+00	0	43	0	0	65	5232
2026-01-04 07:32:24.76	11.27	8.90	-53.2	-67.8	3.8	1.49e+00	0	43	104	0	77	19977
2026-01-04 07:32:26.93	10.94	8.81	-54.4	-67.4	3.8	1.49e+00	0	43	104	0	80	16118
2026-01-04 07:32:29.08	10.62	8.73	-54.7	-67.8	3.8	1.49e+00	0	42	104	0	80	16714
2026-01-04 07:32:31.23	10.29	8.65	-55.0	-68.3	3.8	1.49e+00	0	43	104	0	80	17722
2026-01-04 07:32:33.40	9.97	8.56	-55.2	-68.3	3.8	1.49e+00	0	43	104	0	81	16787
2026-01-04 07:32:35.55	9.65	8.48	-55.2	-68.3	3.8	1.49e+00	0	43	104	0	81	16849
2026-01-04 07:32:37.72	9.33	8.39	-55.2	-68.2	3.8	1.49e+00	0	43	104	0	81	16631
2026-01-04 07:32:40.03	8.99	8.30	-54.9	-68.2	3.8	1.49e+00	0	43	104	0	81	16593
2026-01-04 07:32:42.21	8.67	8.21	-55.2	-68.2	3.8	1.49e+00	0	43	104	0	81	16618
2026-01-04 07:32:44.19	8.38	8.13	-55.0	-68.2	3.8	1.49e+00	0	43	104	0	81	16587
2026-01-04 07:32:46.20	8.09	8.05	-55.1	-68.3	3.8	1.49e+00	0	43	104	0	81	16748
2026-01-04 07:32:48.25	7.80	7.97	-55.1	-68.2	3.8	1.49e+00	0	43	104	0	81	16675
2026-01-04 07:32:50.23	7.52	7.89	-54.9	-68.2	3.8	1.49e+00	0	43	104	0	81	16530
2026-01-04 07:32:52.23	7.23	7.81	-54.9	-68.1	3.8	1.49e+00	0	43	104	0	81	16448
2026-01-04 07:32:54.24	6.95	7.72	-54.8	-68.1	3.8	1.49e+00	0	43	104	0	81	16441
2026-01-04 07:32:56.25	6.67	7.64	-54.9	-68.2	3.8	1.49e+00	0	43	104	0	81	16560
2026-01-04 07:32:58.26	6.39	7.55	-54.7	-68.0	3.8	1.49e+00	0	43	104	0	81	16243
2026-01-04 07:33:00.26	6.11	7.47	-54.8	-68.1	3.8	1.49e+00	0	43	104	0	81	16348
2026-01-04 07:33:02.27	5.83	7.39	-54.7	-68.0	3.8	1.49e+00	0	43	104	0	81	16294
2026-01-04 07:33:04.28	5.56	7.30	-54.8	-68.1	3.8	1.49e+00	0	43	104	0	81	16348
2026-01-04 07:33:06.29	5.28	7.22	-55.0	-68.3	3.8	1.49e+00	0	43	104	0	81	16702
2026-01-04 07:33:08.29	5.01	7.13	-54.9	-68.1	3.8	1.49e+00	0	43	104	0	81	16466
2026-01-04 07:33:10.30	4.74	7.05	-54.8	-68.1	3.8	1.49e+00	0	43	104	0	81	16423
2026-01-04 07:33:12.31	4.47	6.96	-54.9	-68.1	3.8	1.49e+00	0	43	104	0	81	16495
2026-01-04 07:33:14.32	4.21	6.87	-55.0	-68.3	3.8	1.49e+00	0	43	104	0	81	16727
2026-01-04 07:33:16.33	3.94	6.79	-55.1	-68.4	3.8	1.49e+00	0	43	104	0	81	16974
2026-01-04 07:33:18.34	3.68	6.70	-55.1	-68.3	3.8	1.49e+00	0	43	104	0	81	16809
2026-01-04 07:33:20.34	3.42	6.61	-55.0	-68.3	3.8	1.49e+00	0	43	104	0	81	16737
2026-01-04 07:33:22.35	3.16	6.52	-54.9	-68.3	3.8	1.49e+00	0	43	104	0	81	16708
2026-01-04 07:33:24.36	2.90	6.44	-54.9	-68.2	3.8	1.49e+00	0	43	104	0	81	16529
2026-01-04 07:33:26.37	2.64	6.35	-54.9	-68.1	3.8	1.49e+00	0	43	104	0	81	16481
2026-01-04 07:33:28.38	2.38	6.26	-54.8	-68.1	3.8	1.49e+00	0	43	104	0	81	16449
2026-01-04 07:33:30.39	2.13	6.17	-54.9	-68.2	3.8	1.49e+00	0	43	104	0	81	16515
2026-01-04 07:33:32.39	1.88	6.08	-54.8	-68.1	3.8	1.49e+00	0	43	104	0	81	16476
2026-01-04 07:33:34.40	1.63	5.99	-54.8	-68.1	3.8	1.49e+00	0	43	104	0	81	16396
2026-01-04 07:33:36.41	1.38	5.91	-54.9	-68.2	3.8	1.49e+00	0	43	104	0	81	16531
2026-01-04 07:33:38.42	1.13	5.82	-54.8	-68.1	3.8	1.49e+00	0	43	104	0	81	16400
2026-01-04 07:33:40.43	0.88	5.73	-54.8	-68.1	3.8	1.49e+00	0	43	104	0	81	16401
2026-01-04 07:33:42.44	0.64	5.64	-54.8	-68.1	3.8	1.49e+00	0	43	104	0	81	16355
2026-01-04 07:33:44.44	0.40	5.55	-54.8	-68.1	3.8	1.49e+00	0	43	104	0	81	16483
2026-01-04 07:33:46.46	0.15	5.46	-54.9	-68.2	3.8	1.49e+00	0	43	104	0	81	16670
2026-01-04 07:33:48.46	359.91	5.37	-54.9	-68.2	3.8	1.49e+00	0	43	104	0	81	16637
2026-01-04 07:33:50.47	359.68	5.28	-54.9	-68.1	3.8	1.49e+00	0	43	104	0	81	16491
2026-01-04 07:33:52.48	359.44	5.19	-55.0	-68.2	3.8	1.49e+00	0	43	104	0	81	16680
2026-01-04 07:33:54.48	359.20	5.09	-54.9	-68.3	3.8	1.49e+00	0	43	104	0	81	16696
2026-01-04 07:33:56.49	358.97	5.00	-54.8	-68.1	3.8	1.49e+00	0	43	104	0	81	16450

#Closed at: 2026-01-04 07:33:57
#Recorded file [0 MB]: D:/Data/31040_260104_102544.dat