passes_logs/2026/01/04/T1/T1__20260104_014242_NOAA_20_JPSS-1_rec.log

#Pass ID: 20260104_014242_NOAA 20 (JPSS-1)
#Satellite: NOAA 20 (JPSS-1)
#Configuration: NOAA 20
#almurnet v.1.7.20251203
#Start time: 2026-01-04 01:42:43

#Version: 2.0.20230620
#Station: T1
#Location: 37.570604 lon 55.790049 lat
#TLE: 1 43013U 17073A   26003.41800368  .00000169  00000+0  10117-3 0  9998
#TLE: 2 43013  98.7624 304.4804 0001884  56.1176 304.0179 14.19532918421092

#Time	Az	El	Level	Level2	SNR	BER	BlckErr	Temp	State	Recorded	gain1	gain2
2026-01-04 01:42:43.56	4.51	5.03	-54.4	-69.8	3.8	1.49e+00	0	37	0	0	79	22273
2026-01-04 01:42:46.57	4.22	5.20	-52.3	-69.4	3.8	1.49e+00	0	37	104	0	76	25514
2026-01-04 01:42:49.59	3.93	5.37	-52.3	-69.4	3.8	1.49e+00	0	38	104	0	76	25447
2026-01-04 01:42:52.60	3.63	5.54	-52.3	-69.4	3.8	1.49e+00	0	38	104	0	76	25532
2026-01-04 01:42:55.61	3.34	5.71	-52.3	-69.4	3.8	1.49e+00	0	38	104	0	76	25499
2026-01-04 01:42:58.62	3.04	5.87	-52.4	-69.5	3.8	1.49e+00	0	38	104	0	76	25684
2026-01-04 01:43:01.64	2.73	6.04	-52.4	-69.5	3.8	1.49e+00	0	38	104	0	76	25730
2026-01-04 01:43:04.65	2.42	6.21	-52.4	-69.5	3.8	1.49e+00	0	38	104	0	76	25766
2026-01-04 01:43:07.66	2.11	6.38	-52.3	-69.5	3.8	1.49e+00	0	38	104	0	76	25727
2026-01-04 01:43:10.67	1.79	6.55	-52.3	-69.6	3.8	1.49e+00	0	38	104	0	76	25868
2026-01-04 01:43:13.68	1.48	6.72	-52.3	-69.5	3.8	1.49e+00	0	38	104	0	76	25804
2026-01-04 01:43:16.69	1.15	6.89	-52.2	-69.4	3.8	1.49e+00	0	38	104	0	76	25552
2026-01-04 01:43:19.71	0.82	7.06	-52.2	-69.4	3.8	1.49e+00	0	39	104	0	76	25515
2026-01-04 01:43:22.72	0.49	7.23	-52.3	-69.5	3.8	1.49e+00	0	39	104	0	76	25580
2026-01-04 01:43:25.73	0.16	7.41	-52.3	-69.4	3.8	1.49e+00	0	39	104	0	76	25548
2026-01-04 01:43:28.74	359.82	7.58	-52.3	-69.5	3.8	1.49e+00	0	39	104	0	76	25637
2026-01-04 01:43:31.76	359.47	7.75	-52.3	-69.5	3.8	1.49e+00	0	39	104	0	76	25653
2026-01-04 01:43:34.77	359.12	7.92	-52.2	-69.4	3.8	1.49e+00	0	39	104	0	76	25269
2026-01-04 01:43:37.78	358.77	8.09	-52.2	-69.0	3.8	1.49e+00	0	39	104	0	76	24158
2026-01-04 01:43:40.80	358.41	8.26	-52.2	-68.5	3.8	1.49e+00	0	39	104	0	75	24351
2026-01-04 01:43:43.81	358.05	8.44	-52.3	-68.8	3.8	1.49e+00	0	39	104	0	75	25009
2026-01-04 01:43:46.82	357.69	8.61	-52.1	-66.9	3.8	1.49e+00	0	39	104	0	75	20265
2026-01-04 01:43:49.84	357.32	8.78	-51.6	-61.5	6.6	3.58e-01	0	39	0	3145728	75	10843
2026-01-04 01:43:52.85	356.94	8.95	-50.8	-57.7	10.3	8.47e-03	0	39	0	9437184	73	7891
2026-01-04 01:43:55.86	356.56	9.12	-51.2	-59.0	9.1	5.13e-03	0	39	0	14680064	73	9145
2026-01-04 01:43:58.86	356.18	9.30	-49.3	-55.4	12.7	6.33e-01	0	39	0	17825792	70	7158
2026-01-04 01:44:01.87	355.79	9.47	-51.8	-66.9	3.9	1.47e+00	0	39	104	18874368	74	21403
2026-01-04 01:44:04.88	355.40	9.64	-51.2	-60.9	7.3	3.01e-01	0	39	0	19922944	74	10741
2026-01-04 01:44:07.88	355.01	9.81	-48.4	-52.9	15.4	1.01e+00	0	39	0	23068672	68	5993
2026-01-04 01:44:10.89	354.60	9.98	-48.3	-52.9	15.4	0.00e+00	0	39	0	28311552	68	6005
2026-01-04 01:44:13.90	354.20	10.15	-48.6	-53.0	15.3	0.00e+00	0	39	0	34603008	68	6099
2026-01-04 01:44:16.86	353.79	10.32	-48.8	-53.2	15.2	0.00e+00	0	39	0	39845888	68	6203
2026-01-04 01:44:20.00	353.36	10.50	-48.6	-53.1	15.2	3.00e-06	0	39	0	46137344	68	6167
2026-01-04 01:44:22.87	352.95	10.66	-48.2	-53.0	15.3	0.00e+00	0	39	0	51380224	68	6118
2026-01-04 01:44:26.02	352.51	10.84	-48.1	-53.1	15.2	0.00e+00	0	39	0	56623104	68	6181
2026-01-04 01:44:28.94	352.09	11.00	-48.0	-53.0	15.4	0.00e+00	0	39	0	62914560	68	6076
2026-01-04 01:44:32.09	351.63	11.18	-48.2	-52.9	15.5	0.00e+00	0	39	0	68157440	68	6024
2026-01-04 01:44:35.01	351.20	11.35	-48.5	-53.0	15.3	0.00e+00	0	39	0	73400320	68	6081
2026-01-04 01:44:38.01	350.75	11.51	-48.6	-53.0	15.3	0.00e+00	0	40	0	79691776	68	6086
2026-01-04 01:44:41.02	350.30	11.68	-48.9	-53.2	15.3	0.00e+00	0	40	0	84934656	68	6209
2026-01-04 01:44:44.03	349.84	11.85	-49.3	-53.2	15.2	0.00e+00	0	39	0	91226112	69	5857
2026-01-04 01:44:47.04	349.38	12.01	-49.9	-53.5	15.0	0.00e+00	0	39	0	96468992	70	5726
2026-01-04 01:44:50.05	348.91	12.18	-49.7	-53.5	15.0	7.00e-07	0	40	0	101711872	70	5756
2026-01-04 01:44:53.06	348.43	12.34	-49.4	-53.2	15.3	0.00e+00	0	40	0	108003328	70	5562
2026-01-04 01:44:56.07	347.95	12.51	-49.3	-53.2	15.3	0.00e+00	0	40	0	113246208	70	5566
2026-01-04 01:44:59.08	347.47	12.67	-49.8	-53.5	14.9	0.00e+00	0	40	0	119537664	70	5765
2026-01-04 01:45:02.16	346.97	12.84	-49.9	-53.5	14.9	0.00e+00	0	39	0	124780544	70	5751
2026-01-04 01:45:05.15	346.47	13.00	-49.6	-53.1	15.2	0.00e+00	0	40	0	130023424	70	5497
2026-01-04 01:45:08.30	345.95	13.16	-49.4	-52.9	15.7	0.00e+00	0	40	0	136314880	70	5353
2026-01-04 01:45:11.41	345.42	13.33	-49.1	-52.7	15.9	0.00e+00	0	40	0	142606336	70	5226
2026-01-04 01:45:14.43	344.91	13.49	-49.1	-52.5	16.0	0.00e+00	0	40	0	147849216	70	5137
2026-01-04 01:45:17.44	344.39	13.64	-48.8	-52.2	16.3	0.00e+00	0	40	0	153092096	69	5238
2026-01-04 01:45:20.44	343.86	13.80	-48.6	-52.1	16.3	0.00e+00	0	40	0	159383552	69	5205
2026-01-04 01:45:23.47	343.33	13.95	-48.4	-51.8	16.7	0.00e+00	0	40	0	164626432	68	5293
2026-01-04 01:45:26.57	342.78	14.11	-48.6	-51.7	16.7	0.00e+00	0	40	0	170917888	68	5260
2026-01-04 01:45:29.53	342.25	14.25	-48.3	-51.4	17.1	0.00e+00	0	40	0	176160768	68	5060
2026-01-04 01:45:32.54	341.70	14.40	-48.2	-51.2	17.2	0.00e+00	0	40	0	181403648	68	4977
2026-01-04 01:45:35.55	341.14	14.55	-48.2	-51.0	17.4	0.00e+00	0	40	0	187695104	68	4857
2026-01-04 01:45:38.56	340.59	14.69	-47.8	-50.5	17.8	0.00e+00	0	40	0	192937984	67	4824
2026-01-04 01:45:41.56	340.02	14.84	-47.6	-50.5	17.8	0.00e+00	0	40	0	198180864	67	4859
2026-01-04 01:45:44.57	339.45	14.98	-47.6	-50.4	17.9	0.00e+00	0	40	0	204472320	67	4800
2026-01-04 01:45:47.58	338.88	15.12	-47.5	-50.1	18.2	0.00e+00	0	40	0	209715200	66	4893
2026-01-04 01:45:50.67	338.28	15.26	-47.6	-50.3	18.0	0.00e+00	0	40	0	216006656	66	5016
2026-01-04 01:45:54.44	337.55	15.43	-47.8	-50.4	17.8	0.00e+00	0	40	0	223346688	66	5091
2026-01-04 01:45:57.23	337.00	15.55	-47.9	-50.5	17.9	0.00e+00	0	40	0	228589568	66	5103
2026-01-04 01:46:00.67	336.32	15.69	-48.1	-50.8	17.5	0.00e+00	0	40	0	234881024	66	5324
2026-01-04 01:46:03.39	335.77	15.81	-48.0	-50.8	17.5	0.00e+00	0	40	0	240123904	66	5307
2026-01-04 01:46:06.76	335.09	15.95	-47.8	-50.5	17.8	0.00e+00	0	40	0	246415360	66	5126
2026-01-04 01:46:09.49	334.53	16.06	-47.9	-50.5	17.8	0.00e+00	0	40	0	250609664	66	5103
2026-01-04 01:46:12.78	333.86	16.19	-47.8	-50.4	17.9	0.00e+00	0	40	0	256901120	66	5066
2026-01-04 01:46:15.50	333.29	16.29	-47.4	-50.0	18.2	0.00e+00	0	40	0	262144000	66	4858
2026-01-04 01:46:19.14	332.53	16.43	-47.3	-49.8	18.5	0.00e+00	0	40	0	269484032	66	4712
2026-01-04 01:46:21.87	331.96	16.53	-47.3	-49.9	18.4	0.00e+00	0	40	0	274726912	66	4783
2026-01-04 01:46:25.18	331.26	16.64	-47.2	-49.7	18.6	0.00e+00	0	40	0	281018368	66	4666
2026-01-04 01:46:28.03	330.65	16.74	-47.3	-49.7	18.6	0.00e+00	0	40	0	286261248	66	4669
2026-01-04 01:46:31.18	329.97	16.85	-47.4	-49.8	18.4	0.00e+00	0	40	0	291504128	66	4753
2026-01-04 01:46:34.36	329.28	16.95	-47.2	-49.6	18.7	0.00e+00	0	40	0	297795584	66	4602
2026-01-04 01:46:37.37	328.63	17.04	-47.2	-49.6	18.6	0.00e+00	0	40	0	303038464	66	4633
2026-01-04 01:46:40.35	327.97	17.13	-47.1	-49.7	18.6	0.00e+00	0	40	0	309329920	66	4667
2026-01-04 01:46:43.36	327.31	17.21	-47.3	-50.0	18.3	0.00e+00	0	39	0	314572800	66	4847
2026-01-04 01:46:46.48	326.62	17.30	-47.6	-50.2	18.2	0.00e+00	0	40	0	320864256	66	4957
2026-01-04 01:46:49.34	325.98	17.37	-47.4	-49.9	18.4	0.00e+00	0	40	0	326107136	66	4811
2026-01-04 01:46:52.49	325.27	17.45	-47.4	-50.0	18.4	0.00e+00	0	40	0	331350016	66	4816
2026-01-04 01:46:55.36	324.62	17.52	-47.6	-50.1	18.2	0.00e+00	0	40	0	337641472	66	4883
2026-01-04 01:46:58.51	323.91	17.59	-47.6	-50.2	18.2	0.00e+00	0	40	0	342884352	66	4931
2026-01-04 01:47:01.39	323.26	17.65	-47.7	-50.4	18.0	0.00e+00	0	39	0	348127232	66	5086
2026-01-04 01:47:04.68	322.51	17.71	-48.1	-50.9	17.5	0.00e+00	0	39	0	354418688	66	5363
2026-01-04 01:47:07.41	321.88	17.76	-48.2	-50.8	17.5	0.00e+00	0	40	0	359661568	67	5026
2026-01-04 01:47:10.70	321.12	17.81	-48.0	-50.6	17.8	0.00e+00	0	39	0	365953024	67	4923
2026-01-04 01:47:13.71	320.43	17.86	-47.9	-50.6	17.7	0.00e+00	0	40	0	371195904	67	4924
2026-01-04 01:47:17.01	319.66	17.90	-48.2	-51.0	17.3	7.00e-07	0	40	0	377487360	67	5158
2026-01-04 01:47:19.74	319.03	17.94	-48.3	-51.2	17.2	0.00e+00	0	40	0	382730240	67	5231
2026-01-04 01:47:23.12	318.24	17.97	-48.6	-51.4	17.0	0.00e+00	0	40	0	389021696	67	5366
2026-01-04 01:47:25.97	317.58	18.00	-48.7	-51.6	17.0	0.00e+00	0	40	0	394264576	68	5198
2026-01-04 01:47:29.26	316.81	18.02	-48.6	-51.4	17.2	0.00e+00	0	40	0	400556032	68	5080
2026-01-04 01:47:32.00	316.17	18.04	-48.5	-51.3	17.3	0.00e+00	0	40	0	405798912	68	4998
2026-01-04 01:47:35.58	315.33	18.06	-48.5	-51.3	17.3	0.00e+00	0	40	0	412090368	68	5007
2026-01-04 01:47:38.30	314.69	18.07	-48.5	-51.3	17.3	0.00e+00	0	40	0	417333248	68	5008
2026-01-04 01:47:41.60	313.92	18.07	-48.6	-51.4	17.1	0.00e+00	0	40	0	423624704	68	5097
2026-01-04 01:47:44.41	313.26	18.07	-48.7	-51.4	17.1	0.00e+00	0	40	0	428867584	68	5099
2026-01-04 01:47:47.69	312.49	18.07	-48.8	-51.4	17.1	0.00e+00	0	40	0	435159040	68	5096
2026-01-04 01:47:50.98	311.72	18.06	-48.9	-51.7	16.9	0.00e+00	0	40	0	441450496	68	5249
2026-01-04 01:47:53.85	311.05	18.04	-48.7	-51.5	17.1	0.00e+00	0	39	0	446693376	68	5110
2026-01-04 01:47:57.00	310.31	18.03	-48.2	-50.8	17.7	0.00e+00	0	40	0	452984832	68	4750
2026-01-04 01:47:59.86	309.64	18.00	-48.2	-50.9	17.6	0.00e+00	0	40	0	458227712	68	4792
2026-01-04 01:48:03.13	308.88	17.98	-48.3	-51.0	17.5	0.00e+00	0	40	0	464519168	68	4851
2026-01-04 01:48:05.89	308.24	17.95	-48.5	-51.1	17.5	0.00e+00	0	40	0	469762048	68	4881
2026-01-04 01:48:09.18	307.47	17.91	-48.3	-50.9	17.6	0.00e+00	0	40	0	475004928	68	4790
2026-01-04 01:48:11.91	306.84	17.87	-48.2	-50.7	17.8	0.00e+00	0	40	0	480247808	68	4689
2026-01-04 01:48:15.21	306.08	17.82	-48.1	-50.6	18.0	0.00e+00	0	40	0	486539264	68	4616
2026-01-04 01:48:17.92	305.45	17.78	-47.8	-50.3	18.1	0.00e+00	0	40	0	491782144	67	4722
2026-01-04 01:48:21.22	304.69	17.72	-47.7	-50.1	18.3	0.00e+00	0	40	0	498073600	67	4626
2026-01-04 01:48:23.94	304.07	17.67	-47.7	-50.2	18.3	0.00e+00	0	40	0	503316480	67	4659
2026-01-04 01:48:27.23	303.32	17.60	-47.7	-50.1	18.2	0.00e+00	0	40	0	509607936	67	4650
2026-01-04 01:48:30.19	302.65	17.54	-47.5	-49.8	18.4	0.00e+00	0	40	0	514850816	67	4493
2026-01-04 01:48:33.20	301.97	17.47	-47.5	-49.8	18.5	0.00e+00	0	40	0	521142272	66	4747
2026-01-04 01:48:36.28	301.28	17.39	-47.5	-50.0	18.3	0.00e+00	0	40	0	526385152	66	4821
2026-01-04 01:48:39.20	300.62	17.32	-47.7	-50.1	18.2	0.00e+00	0	39	0	531628032	66	4906
2026-01-04 01:48:42.50	299.89	17.23	-47.8	-50.3	18.1	0.00e+00	0	40	0	537919488	66	4990
2026-01-04 01:48:45.22	299.28	17.15	-48.0	-50.5	17.8	0.00e+00	0	40	0	543162368	66	5111
2026-01-04 01:48:48.52	298.56	17.06	-48.0	-50.5	17.8	0.00e+00	0	40	0	549453824	66	5140
2026-01-04 01:48:51.24	297.96	16.98	-48.0	-50.5	17.8	0.00e+00	0	40	0	554696704	66	5126
2026-01-04 01:48:54.65	297.22	16.87	-48.1	-50.7	17.7	0.00e+00	0	40	0	560988160	66	5269
2026-01-04 01:48:57.67	296.57	16.77	-48.3	-51.0	17.4	0.00e+00	0	40	0	566231040	67	5136
2026-01-04 01:49:00.97	295.86	16.66	-48.4	-51.1	17.3	0.00e+00	0	39	0	572522496	67	5170
2026-01-04 01:49:03.74	295.27	16.56	-48.5	-51.2	17.3	0.00e+00	0	40	0	577765376	67	5221
2026-01-04 01:49:07.03	294.58	16.44	-48.3	-50.9	17.4	2.20e-06	0	40	0	584056832	67	5058
2026-01-04 01:49:09.76	294.00	16.34	-48.1	-50.6	17.6	7.00e-07	0	40	0	589299712	67	4918
2026-01-04 01:49:13.05	293.32	16.21	-48.2	-50.8	17.6	0.00e+00	0	40	0	595591168	67	4990
2026-01-04 01:49:15.95	292.72	16.10	-48.2	-50.7	17.6	0.00e+00	0	40	0	600834048	67	4957
2026-01-04 01:49:18.97	292.10	15.98	-48.3	-50.8	17.5	0.00e+00	0	40	0	606076928	67	5035
2026-01-04 01:49:21.98	291.49	15.85	-48.0	-50.5	17.8	0.00e+00	0	40	0	612368384	67	4858
2026-01-04 01:49:24.99	290.88	15.73	-48.0	-50.6	17.7	0.00e+00	0	40	0	617611264	67	4873
2026-01-04 01:49:27.99	290.28	15.60	-48.2	-50.8	17.5	0.00e+00	0	39	0	622854144	67	5033
2026-01-04 01:49:31.00	289.68	15.47	-48.2	-50.7	17.6	0.00e+00	0	40	0	629145600	67	4973
2026-01-04 01:49:34.01	289.09	15.34	-48.2	-50.8	17.5	0.00e+00	0	39	0	634388480	67	5016
2026-01-04 01:49:37.02	288.51	15.20	-48.3	-50.9	17.5	0.00e+00	0	40	0	640679936	67	5063
2026-01-04 01:49:40.03	287.93	15.06	-48.4	-51.0	17.3	0.00e+00	0	40	0	645922816	67	5137
2026-01-04 01:49:43.04	287.35	14.92	-48.4	-51.0	17.3	0.00e+00	0	40	0	651165696	67	5152
2026-01-04 01:49:46.05	286.78	14.78	-48.5	-51.1	17.3	0.00e+00	0	39	0	657457152	67	5181
2026-01-04 01:49:49.06	286.22	14.64	-48.5	-51.2	17.1	0.00e+00	0	40	0	662700032	67	5220
2026-01-04 01:49:52.07	285.66	14.49	-48.5	-51.2	17.1	0.00e+00	0	40	0	667942912	67	5240
2026-01-04 01:49:55.17	285.09	14.34	-48.7	-51.4	16.9	0.00e+00	0	40	0	674234368	67	5363
2026-01-04 01:49:58.20	284.54	14.19	-49.1	-51.9	16.6	0.00e+00	0	40	0	679477248	68	5364
2026-01-04 01:50:01.59	283.93	14.02	-49.2	-52.0	16.5	0.00e+00	0	40	0	686817280	69	5124
2026-01-04 01:50:04.31	283.44	13.88	-49.2	-52.0	16.5	0.00e+00	0	40	0	691011584	69	5128
2026-01-04 01:50:07.61	282.86	13.71	-49.4	-52.4	16.0	0.00e+00	0	40	0	697303040	69	5396
2026-01-04 01:50:10.45	282.37	13.56	-49.7	-52.8	15.7	0.00e+00	0	39	0	702545920	70	5295
2026-01-04 01:50:13.58	281.83	13.40	-49.7	-52.9	15.6	0.00e+00	0	40	0	708837376	70	5341
2026-01-04 01:50:16.74	281.29	13.23	-49.3	-52.3	16.1	0.00e+00	0	40	0	715128832	70	5013
2026-01-04 01:50:19.60	280.81	13.08	-49.6	-52.6	15.9	3.00e-06	0	40	0	720371712	70	5191
2026-01-04 01:50:22.87	280.26	12.91	-50.2	-53.5	15.0	0.00e+00	0	40	0	726663168	70	5773
2026-01-04 01:50:25.80	279.78	12.75	-50.2	-53.6	15.0	0.00e+00	0	40	0	731906048	71	5485
2026-01-04 01:50:29.17	279.23	12.57	-50.1	-53.5	15.1	0.00e+00	0	40	0	738197504	71	5405
2026-01-04 01:50:32.26	278.73	12.40	-50.0	-53.3	15.3	0.00e+00	0	40	0	743440384	71	5297
2026-01-04 01:50:35.27	278.25	12.23	-50.0	-53.3	15.1	0.00e+00	0	40	0	749731840	71	5333
2026-01-04 01:50:38.28	277.78	12.07	-50.1	-53.5	15.0	0.00e+00	0	40	0	754974720	71	5418
2026-01-04 01:50:41.37	277.30	11.90	-49.9	-53.2	15.3	0.00e+00	0	40	0	761266176	71	5259
2026-01-04 01:50:44.29	276.85	11.74	-49.8	-53.0	15.4	0.00e+00	0	40	0	766509056	71	5151
2026-01-04 01:50:47.58	276.35	11.55	-50.1	-53.3	15.2	0.00e+00	0	40	0	772800512	71	5323
2026-01-04 01:50:50.45	275.91	11.39	-50.0	-53.2	15.3	0.00e+00	0	40	0	778043392	71	5270
2026-01-04 01:50:53.60	275.45	11.21	-49.8	-53.0	15.5	0.00e+00	0	40	0	784334848	71	5149
2026-01-04 01:50:56.83	274.97	11.03	-49.6	-52.6	15.9	0.00e+00	0	40	0	789577728	71	4916
2026-01-04 01:50:59.86	274.53	10.86	-49.7	-52.7	15.9	0.00e+00	0	40	0	795869184	71	4934
2026-01-04 01:51:03.01	274.08	10.68	-49.6	-52.6	16.0	0.00e+00	0	40	0	801112064	71	4897
2026-01-04 01:51:05.87	273.68	10.52	-49.8	-52.9	15.8	0.00e+00	0	40	0	806354944	71	5052
2026-01-04 01:51:09.02	273.24	10.34	-49.9	-53.0	15.8	0.00e+00	0	40	0	812646400	71	5134
2026-01-04 01:51:11.89	272.84	10.18	-49.4	-52.3	16.3	0.00e+00	0	40	0	817889280	70	5035
2026-01-04 01:51:15.12	272.40	9.99	-49.0	-51.9	16.7	0.00e+00	0	40	0	824180736	70	4795
2026-01-04 01:51:18.09	272.00	9.82	-49.2	-52.2	16.5	0.00e+00	0	40	0	829423616	70	4937
2026-01-04 01:51:21.27	271.58	9.64	-49.1	-52.1	16.6	0.00e+00	0	40	0	835715072	70	4873
2026-01-04 01:51:24.14	271.20	9.48	-48.9	-51.8	16.9	0.00e+00	0	40	0	840957952	69	5000
2026-01-04 01:51:27.30	270.79	9.30	-48.8	-51.5	17.0	0.00e+00	0	40	0	847249408	69	4865
2026-01-04 01:51:30.16	270.42	9.13	-48.7	-51.5	17.1	0.00e+00	0	40	0	852492288	69	4817
2026-01-04 01:51:33.33	270.02	8.95	-54.7	-68.8	3.8	8.70e-02	0	40	104	857735168	80	18858
2026-01-04 01:51:36.20	269.66	8.79	-54.9	-70.1	3.8	1.49e+00	0	40	104	857735168	80	21929
2026-01-04 01:51:39.43	269.26	8.60	-54.9	-70.3	3.8	1.49e+00	0	40	104	857735168	80	22440
2026-01-04 01:51:42.35	268.90	8.43	-55.2	-70.4	3.8	1.49e+00	0	40	104	857735168	81	21353
2026-01-04 01:51:45.65	268.50	8.25	-55.3	-70.4	3.8	1.49e+00	0	40	104	857735168	81	21368
2026-01-04 01:51:48.52	268.16	8.08	-55.2	-70.3	3.8	1.49e+00	0	40	104	857735168	81	21060
2026-01-04 01:51:51.68	267.78	7.90	-55.3	-70.4	3.8	1.49e+00	0	40	104	857735168	81	21384
2026-01-04 01:51:54.55	267.45	7.74	-55.3	-70.5	3.8	1.49e+00	0	40	104	857735168	81	21531
2026-01-04 01:51:57.70	267.09	7.56	-55.3	-70.4	3.8	1.49e+00	0	40	104	857735168	81	21353
2026-01-04 01:52:00.57	266.76	7.39	-55.3	-70.4	3.8	1.49e+00	0	40	104	857735168	81	21351
2026-01-04 01:52:03.73	266.41	7.21	-55.2	-70.3	3.8	1.49e+00	0	40	104	857735168	81	21089
2026-01-04 01:52:06.60	266.09	7.05	-55.1	-70.3	3.8	1.49e+00	0	40	104	857735168	81	21152
2026-01-04 01:52:09.76	265.74	6.87	-55.0	-70.2	3.8	1.49e+00	0	40	104	857735168	81	21015
2026-01-04 01:52:12.63	265.43	6.71	-54.9	-70.3	3.8	1.49e+00	0	40	104	857735168	81	21062
2026-01-04 01:52:15.78	265.09	6.53	-54.9	-70.2	3.8	1.49e+00	0	40	104	857735168	81	20937
2026-01-04 01:52:18.65	264.79	6.37	-54.9	-70.2	3.8	1.49e+00	0	40	104	857735168	81	20885
2026-01-04 01:52:21.81	264.46	6.19	-55.0	-70.3	3.8	1.49e+00	0	40	104	857735168	81	21180
2026-01-04 01:52:24.68	264.16	6.03	-55.0	-70.3	3.8	1.49e+00	0	40	104	857735168	81	21223
2026-01-04 01:52:27.84	263.84	5.85	-55.0	-70.3	3.8	1.49e+00	0	40	104	857735168	81	21183
2026-01-04 01:52:30.71	263.55	5.69	-55.0	-70.3	3.8	1.49e+00	0	40	104	857735168	81	21097
2026-01-04 01:52:33.86	263.23	5.51	-55.0	-70.3	3.8	1.49e+00	0	40	104	857735168	81	21232
2026-01-04 01:52:36.73	262.95	5.35	-55.0	-70.3	3.8	1.49e+00	0	40	104	857735168	81	21224
2026-01-04 01:52:39.89	262.64	5.18	-55.0	-70.3	3.8	1.49e+00	0	40	104	857735168	81	21173
2026-01-04 01:52:42.76	262.36	5.02	-55.0	-70.3	3.8	1.49e+00	0	40	104	857735168	81	21145

#Closed at: 2026-01-04 01:52:44
#Recorded file [857 MB]: D:/Data/31040_260104_044243.dat