passes_logs/2026/01/04/T1/T1__20260104_025902_FENGYUN_3G_rec.log

#Pass ID: 20260104_025902_FENGYUN 3G
#Satellite: FENGYUN 3G
#Configuration: FENGYUN 3G
#almurnet v.1.7.20251203
#Start time: 2026-01-04 02:59:01

#Version: 2.0.20230620
#Station: T1
#Location: 37.570604 lon 55.790049 lat
#TLE: 1 56232U 23055A   26003.53327032  .00047684  00000+0  75687-3 0  9993
#TLE: 2 56232  49.9936 115.0642 0004181 334.2418  25.8340 15.52822756154418

#Time	Az	El	Level	Level2	SNR	BER	BlckErr	Temp	State	Recorded	gain1	gain2
2026-01-04 02:59:01.88	233.40	5.04	-54.3	-73.2	3.8	8.47e-01	0	38	0	0	79	33298
2026-01-04 02:59:03.88	233.21	5.19	-54.2	-73.4	3.8	8.47e-01	0	38	104	0	79	33757
2026-01-04 02:59:05.89	233.02	5.34	-54.0	-73.5	3.8	8.48e-01	0	38	104	0	79	34149
2026-01-04 02:59:07.90	232.82	5.49	-54.3	-73.5	3.8	8.47e-01	0	38	104	0	79	34323
2026-01-04 02:59:09.91	232.62	5.64	-54.3	-73.4	3.8	8.48e-01	0	38	104	0	79	33970
2026-01-04 02:59:11.92	232.42	5.80	-54.1	-73.4	3.8	8.47e-01	0	39	104	0	79	33853
2026-01-04 02:59:13.93	232.22	5.95	-54.1	-73.4	3.8	8.47e-01	0	39	104	0	79	33743
2026-01-04 02:59:15.94	232.01	6.11	-54.1	-73.2	3.8	8.47e-01	0	39	104	0	79	33281
2026-01-04 02:59:17.94	231.80	6.27	-54.2	-73.2	3.8	8.47e-01	0	39	104	0	79	33164
2026-01-04 02:59:19.95	231.58	6.42	-54.3	-72.9	3.8	8.47e-01	0	39	104	0	79	32077
2026-01-04 02:59:21.96	231.37	6.58	-54.1	-72.9	3.8	8.48e-01	0	39	104	0	79	32032
2026-01-04 02:59:23.97	231.15	6.74	-54.0	-72.6	3.8	8.47e-01	0	39	104	0	79	31002
2026-01-04 02:59:25.98	230.92	6.91	-54.2	-72.8	3.8	8.48e-01	0	39	104	0	79	31582
2026-01-04 02:59:27.99	230.69	7.07	-54.0	-72.9	3.8	8.47e-01	0	39	104	0	79	31923
2026-01-04 02:59:30.00	230.46	7.23	-54.2	-73.3	3.8	8.47e-01	0	39	104	0	79	33638
2026-01-04 02:59:32.01	230.23	7.40	-54.1	-73.4	3.8	8.48e-01	0	39	104	0	79	33949
2026-01-04 02:59:34.01	229.99	7.57	-54.1	-73.1	3.8	8.47e-01	0	39	104	0	79	32600
2026-01-04 02:59:36.02	229.75	7.73	-54.0	-71.8	3.8	8.47e-01	0	39	104	0	79	28237
2026-01-04 02:59:38.03	229.50	7.90	-54.0	-70.1	4.2	8.46e-01	0	39	0	0	79	23234
2026-01-04 02:59:40.04	229.25	8.07	-54.1	-70.1	4.1	8.36e-01	0	40	0	0	79	23195
2026-01-04 02:59:42.05	228.99	8.25	-54.1	-71.8	3.8	8.42e-01	0	39	104	0	79	28123
2026-01-04 02:59:44.05	228.74	8.42	-54.1	-71.2	3.8	8.45e-01	0	40	104	0	79	26252
2026-01-04 02:59:46.06	228.47	8.59	-54.2	-72.3	3.8	8.47e-01	0	40	104	0	79	29803
2026-01-04 02:59:48.07	228.20	8.77	-54.0	-69.0	4.5	8.46e-01	0	40	0	0	79	20441
2026-01-04 02:59:50.08	227.93	8.95	-53.6	-64.0	7.9	3.64e-01	0	40	0	0	78	12211
2026-01-04 02:59:52.08	227.66	9.13	-52.8	-59.6	12.6	3.48e-02	0	39	0	0	77	7740
2026-01-04 02:59:54.17	227.36	9.32	-53.1	-61.2	10.7	2.15e-02	0	40	0	0	78	8766
2026-01-04 02:59:56.27	227.06	9.51	-54.0	-65.7	6.6	6.35e-02	0	40	0	0	78	14757
2026-01-04 02:59:58.49	226.74	9.71	-53.6	-63.0	9.1	2.04e-01	0	40	0	0	78	10835
2026-01-04 03:00:00.49	226.44	9.89	-53.6	-63.1	8.9	3.33e-02	0	40	0	0	78	11019
2026-01-04 03:00:02.76	226.10	10.10	-53.8	-64.2	7.6	4.27e-02	0	40	0	0	78	12448
2026-01-04 03:00:04.76	225.79	10.29	-53.3	-60.7	11.5	4.17e-02	0	40	0	0	78	8280
2026-01-04 03:00:06.76	225.48	10.48	-51.5	-56.3	15.9	5.92e-04	0	40	0	0	75	5931
2026-01-04 03:00:08.77	225.16	10.67	-51.0	-55.1	17.2	0.00e+00	0	40	0	0	73	5815
2026-01-04 03:00:10.77	224.84	10.86	-50.8	-54.8	17.7	0.00e+00	0	40	0	0	72	5934
2026-01-04 03:00:12.78	224.51	11.06	-50.2	-53.8	18.5	0.00e+00	0	40	0	0	72	5329
2026-01-04 03:00:14.76	224.18	11.25	-48.6	-51.5	20.7	0.00e+00	0	40	0	0	69	4821
2026-01-04 03:00:16.76	223.83	11.45	-47.6	-50.2	21.8	0.00e+00	0	40	0	0	67	4705
2026-01-04 03:00:18.77	223.48	11.65	-47.9	-50.6	21.6	0.00e+00	0	40	0	0	66	5161
2026-01-04 03:00:20.78	223.13	11.85	-47.5	-50.2	21.9	0.00e+00	0	40	0	0	66	4934
2026-01-04 03:00:22.79	222.77	12.05	-47.1	-49.6	22.3	0.00e+00	0	40	0	0	65	4902
2026-01-04 03:00:24.79	222.40	12.26	-46.1	-48.4	23.4	0.00e+00	0	40	0	0	64	4526
2026-01-04 03:00:26.80	222.02	12.46	-45.7	-47.9	24.0	0.00e+00	0	40	0	0	63	4529
2026-01-04 03:00:28.98	221.61	12.69	-45.2	-47.3	24.5	0.00e+00	0	40	0	0	62	4468
2026-01-04 03:00:30.98	221.22	12.89	-44.8	-46.9	24.8	0.00e+00	0	40	0	0	61	4516
2026-01-04 03:00:32.99	220.82	13.10	-44.8	-46.9	24.8	0.00e+00	0	40	0	0	61	4522
2026-01-04 03:00:34.99	220.42	13.32	-44.8	-47.0	24.8	0.00e+00	0	40	0	0	61	4554
2026-01-04 03:00:37.00	220.01	13.53	-44.8	-47.0	24.8	0.00e+00	0	40	0	0	61	4547
2026-01-04 03:00:39.01	219.59	13.74	-44.5	-46.6	25.1	0.00e+00	0	40	0	0	61	4381
2026-01-04 03:00:41.01	219.16	13.96	-44.9	-47.0	24.8	0.00e+00	0	41	0	0	61	4569
2026-01-04 03:00:43.01	218.73	14.18	-45.2	-47.3	24.5	0.00e+00	0	40	0	0	61	4753
2026-01-04 03:00:45.02	218.28	14.40	-44.9	-47.1	24.6	0.00e+00	0	40	0	0	61	4638
2026-01-04 03:00:47.03	217.83	14.62	-44.5	-46.6	25.2	0.00e+00	0	40	0	0	60	4610
2026-01-04 03:00:49.05	217.36	14.84	-44.4	-46.5	25.2	0.00e+00	0	41	0	0	60	4576
2026-01-04 03:00:51.14	216.87	15.07	-44.6	-46.7	25.1	0.00e+00	0	40	0	0	60	4670
2026-01-04 03:00:53.14	216.39	15.30	-43.9	-45.9	25.6	0.00e+00	0	40	0	0	59	4516
2026-01-04 03:00:55.15	215.90	15.52	-43.7	-45.7	25.8	0.00e+00	0	40	0	0	59	4428
2026-01-04 03:00:57.06	215.43	15.74	-43.9	-45.9	25.6	0.00e+00	0	40	0	0	59	4508
2026-01-04 03:00:59.06	214.92	15.97	-44.2	-46.3	25.4	0.00e+00	0	41	0	0	59	4735
2026-01-04 03:01:01.10	214.40	16.20	-43.7	-45.7	25.9	0.00e+00	0	41	0	0	59	4395
2026-01-04 03:01:03.52	213.76	16.48	-43.6	-45.6	25.9	0.00e+00	0	40	0	0	58	4642
2026-01-04 03:01:05.52	213.22	16.71	-43.6	-45.6	25.9	0.00e+00	0	40	0	0	58	4646
2026-01-04 03:01:07.55	212.66	16.95	-43.7	-45.7	25.9	0.00e+00	0	41	0	0	58	4690
2026-01-04 03:01:09.55	212.10	17.18	-43.7	-45.7	25.9	0.00e+00	0	41	0	0	58	4686
2026-01-04 03:01:11.56	211.53	17.42	-43.5	-45.5	26.1	0.00e+00	0	41	0	0	58	4555
2026-01-04 03:01:13.64	210.92	17.66	-43.2	-45.2	26.3	0.00e+00	0	41	0	0	58	4417
2026-01-04 03:01:15.85	210.27	17.92	-43.1	-45.0	26.5	0.00e+00	0	41	0	0	57	4566
2026-01-04 03:01:17.79	209.68	18.15	-43.4	-45.4	26.2	0.00e+00	0	41	0	0	57	4783
2026-01-04 03:01:19.92	209.02	18.40	-43.2	-45.2	26.3	0.00e+00	0	40	0	0	57	4671
2026-01-04 03:01:21.93	208.38	18.64	-43.2	-45.2	26.2	0.00e+00	0	41	0	0	57	4655
2026-01-04 03:01:23.93	207.74	18.87	-43.5	-45.4	26.2	0.00e+00	0	41	0	0	57	4805
2026-01-04 03:01:25.94	207.08	19.11	-42.8	-44.7	26.6	0.00e+00	0	41	0	0	57	4429
2026-01-04 03:01:27.94	206.42	19.35	-42.7	-44.7	26.7	0.00e+00	0	41	0	0	57	4406
2026-01-04 03:01:29.95	205.73	19.58	-43.2	-45.2	26.4	0.00e+00	0	41	0	0	57	4660
2026-01-04 03:01:31.96	205.04	19.82	-43.3	-45.2	26.3	0.00e+00	0	41	0	0	57	4699
2026-01-04 03:01:33.90	204.35	20.05	-43.2	-45.2	26.4	0.00e+00	0	40	0	0	57	4658
2026-01-04 03:01:35.91	203.63	20.28	-42.9	-44.9	26.6	0.00e+00	0	41	0	0	57	4499
2026-01-04 03:01:37.91	202.90	20.51	-42.5	-44.4	26.9	0.00e+00	0	41	0	0	57	4260
2026-01-04 03:01:39.92	202.15	20.75	-42.4	-44.3	27.0	0.00e+00	0	41	0	0	56	4472
2026-01-04 03:01:41.92	201.39	20.98	-42.6	-44.5	26.8	0.00e+00	0	41	0	0	56	4577
2026-01-04 03:01:43.98	200.59	21.21	-42.8	-44.8	26.6	0.00e+00	0	41	0	0	56	4712
2026-01-04 03:01:45.98	199.81	21.43	-42.8	-44.7	26.7	0.00e+00	0	41	0	0	56	4685
2026-01-04 03:01:47.98	199.01	21.66	-42.7	-44.7	26.7	0.00e+00	0	41	0	0	56	4670
2026-01-04 03:01:49.98	198.19	21.88	-42.6	-44.5	26.9	0.00e+00	0	41	0	0	56	4556
2026-01-04 03:01:51.99	197.36	22.10	-42.3	-44.2	27.1	0.00e+00	0	41	0	0	56	4400
2026-01-04 03:01:53.99	196.52	22.31	-42.1	-44.0	27.2	0.00e+00	0	41	0	0	56	4336
2026-01-04 03:01:56.00	195.66	22.52	-42.3	-44.2	27.0	0.00e+00	0	41	0	0	56	4399
2026-01-04 03:01:58.00	194.79	22.73	-42.7	-44.6	26.7	0.00e+00	0	41	0	0	56	4611
2026-01-04 03:02:00.01	193.91	22.93	-42.6	-44.5	27.0	0.00e+00	0	41	0	0	56	4557
2026-01-04 03:02:02.01	193.01	23.13	-42.6	-44.5	26.9	0.00e+00	0	41	0	0	56	4576
2026-01-04 03:02:04.02	192.10	23.33	-42.2	-44.1	27.2	0.00e+00	0	41	0	0	56	4352
2026-01-04 03:02:06.03	191.17	23.52	-42.5	-44.4	27.0	0.00e+00	0	41	0	0	56	4507
2026-01-04 03:02:08.03	190.24	23.70	-42.0	-43.9	27.1	0.00e+00	0	41	0	0	54	4803
2026-01-04 03:02:10.04	189.28	23.88	-41.6	-43.4	27.4	0.00e+00	0	41	0	0	55	4281
2026-01-04 03:02:12.05	188.32	24.05	-41.5	-43.4	27.4	0.00e+00	0	41	0	0	54	4515
2026-01-04 03:02:14.05	187.35	24.22	-41.7	-43.6	27.3	0.00e+00	0	41	0	0	54	4651
2026-01-04 03:02:16.06	186.36	24.38	-42.1	-44.0	27.1	0.00e+00	0	41	0	0	54	4856
2026-01-04 03:02:18.09	185.35	24.53	-41.6	-43.5	27.3	0.00e+00	0	41	0	0	54	4585
2026-01-04 03:02:20.17	184.30	24.69	-41.8	-43.7	27.3	0.00e+00	0	41	0	0	54	4672
2026-01-04 03:02:22.38	183.18	24.84	-41.6	-43.5	27.4	0.00e+00	0	41	0	0	54	4569
2026-01-04 03:02:24.39	182.14	24.97	-41.5	-43.3	27.3	0.00e+00	0	41	0	0	54	4479
2026-01-04 03:02:26.39	181.10	25.09	-41.9	-43.8	27.3	0.00e+00	0	41	0	0	54	4736
2026-01-04 03:02:28.40	180.05	25.20	-41.8	-43.7	27.2	0.00e+00	0	41	0	0	54	4687
2026-01-04 03:02:30.41	178.99	25.30	-41.5	-43.3	27.6	0.00e+00	0	41	0	0	54	4479
2026-01-04 03:02:32.41	177.93	25.40	-41.2	-43.0	27.7	0.00e+00	0	41	0	0	54	4325
2026-01-04 03:02:34.46	176.83	25.48	-41.1	-43.0	27.8	0.00e+00	0	41	0	0	54	4308
2026-01-04 03:02:36.47	175.75	25.56	-40.8	-42.6	27.9	0.00e+00	0	41	0	0	53	4379
2026-01-04 03:02:38.48	174.67	25.63	-41.4	-43.3	27.5	0.00e+00	0	41	0	0	53	4716
2026-01-04 03:02:40.48	173.58	25.68	-41.6	-43.5	27.4	0.00e+00	0	41	0	0	53	4848
2026-01-04 03:02:42.49	172.48	25.73	-41.8	-43.7	27.2	0.00e+00	0	41	0	0	54	4683
2026-01-04 03:02:44.61	171.33	25.77	-42.0	-43.9	27.1	0.00e+00	0	41	0	0	54	4807
2026-01-04 03:02:46.80	170.13	25.80	-42.0	-43.9	27.1	0.00e+00	0	41	0	0	54	4797
2026-01-04 03:02:48.81	169.02	25.81	-42.1	-44.0	27.1	0.00e+00	0	41	0	0	55	4571
2026-01-04 03:02:50.82	167.92	25.81	-41.6	-43.4	27.4	0.00e+00	0	41	0	0	55	4284
2026-01-04 03:02:52.82	166.82	25.81	-41.5	-43.3	27.6	0.00e+00	0	41	0	0	54	4477
2026-01-04 03:02:55.11	165.56	25.79	-41.4	-43.3	27.6	0.00e+00	0	41	0	0	54	4448
2026-01-04 03:02:57.21	164.41	25.76	-41.4	-43.3	27.6	0.00e+00	0	41	0	0	54	4449
2026-01-04 03:02:59.41	163.21	25.72	-41.8	-43.7	27.2	0.00e+00	0	41	0	0	54	4664
2026-01-04 03:03:01.58	162.03	25.66	-41.7	-43.6	27.4	0.00e+00	0	41	0	0	54	4611
2026-01-04 03:03:03.87	160.79	25.60	-41.5	-43.4	27.4	0.00e+00	0	41	0	0	54	4526
2026-01-04 03:03:06.08	159.60	25.52	-41.5	-43.3	27.4	0.00e+00	0	41	0	0	54	4477
2026-01-04 03:03:08.12	158.51	25.43	-41.4	-43.3	27.5	0.00e+00	0	41	0	0	54	4473
2026-01-04 03:03:10.12	157.44	25.34	-41.3	-43.2	27.5	0.00e+00	0	41	0	0	54	4419
2026-01-04 03:03:12.13	156.38	25.24	-41.6	-43.4	27.4	0.00e+00	0	41	0	0	54	4534
2026-01-04 03:03:14.13	155.33	25.14	-41.8	-43.7	27.2	0.00e+00	0	41	0	0	54	4687
2026-01-04 03:03:16.17	154.27	25.02	-41.7	-43.6	27.3	0.00e+00	0	41	0	0	54	4608
2026-01-04 03:03:18.18	153.23	24.89	-41.3	-43.2	27.7	0.00e+00	0	41	0	0	54	4398
2026-01-04 03:03:20.18	152.21	24.76	-41.4	-43.3	27.5	0.00e+00	0	41	0	0	54	4442
2026-01-04 03:03:22.38	151.10	24.60	-41.3	-43.2	27.6	0.00e+00	0	41	0	0	54	4399
2026-01-04 03:03:24.45	150.07	24.45	-41.9	-43.8	27.1	0.00e+00	0	41	0	0	54	4736
2026-01-04 03:03:26.46	149.08	24.29	-41.8	-43.7	27.3	0.00e+00	0	41	0	0	54	4683
2026-01-04 03:03:28.46	148.10	24.13	-41.4	-43.2	27.5	0.00e+00	0	41	0	0	54	4440
2026-01-04 03:03:30.48	147.13	23.96	-41.3	-43.2	27.6	0.00e+00	0	41	0	0	54	4403
2026-01-04 03:03:32.49	146.17	23.78	-41.1	-43.0	27.7	0.00e+00	0	41	0	0	54	4302
2026-01-04 03:03:34.49	145.23	23.60	-41.6	-43.5	27.4	0.00e+00	0	41	0	0	54	4582
2026-01-04 03:03:36.67	144.23	23.40	-41.5	-43.4	27.4	0.00e+00	0	41	0	0	54	4508
2026-01-04 03:03:38.86	143.23	23.19	-41.5	-43.4	27.4	0.00e+00	0	41	0	0	54	4519
2026-01-04 03:03:40.87	142.33	22.99	-41.6	-43.5	27.3	0.00e+00	0	41	0	0	54	4590
2026-01-04 03:03:42.87	141.44	22.79	-41.6	-43.5	27.3	0.00e+00	0	41	0	0	54	4575
2026-01-04 03:03:44.98	140.53	22.57	-42.0	-43.9	27.0	0.00e+00	0	41	0	0	54	4779
2026-01-04 03:03:47.22	139.57	22.33	-41.8	-43.7	27.2	0.00e+00	0	41	0	0	54	4652
2026-01-04 03:03:49.26	138.71	22.12	-41.8	-43.6	27.2	0.00e+00	0	41	0	0	54	4650
2026-01-04 03:03:51.26	137.89	21.90	-42.0	-43.9	27.0	0.00e+00	0	41	0	0	54	4793
2026-01-04 03:03:53.27	137.07	21.68	-41.9	-43.8	27.2	0.00e+00	0	41	0	0	54	4724
2026-01-04 03:03:55.28	136.27	21.46	-42.1	-44.0	27.0	0.00e+00	0	41	0	0	54	4822
2026-01-04 03:03:57.28	135.48	21.23	-42.3	-44.2	26.9	0.00e+00	0	41	0	0	55	4663
2026-01-04 03:03:59.29	134.71	21.01	-42.1	-44.0	27.0	0.00e+00	0	41	0	0	55	4559
2026-01-04 03:04:01.36	133.92	20.77	-42.2	-44.2	26.9	0.00e+00	0	41	0	0	55	4654
2026-01-04 03:04:03.29	133.20	20.55	-42.9	-44.9	26.6	0.00e+00	0	41	0	0	56	4768
2026-01-04 03:04:05.28	132.48	20.32	-42.8	-44.7	26.7	0.00e+00	0	41	0	0	56	4700
2026-01-04 03:04:07.29	131.75	20.08	-43.1	-45.1	26.4	0.00e+00	0	41	0	0	56	4904
2026-01-04 03:04:09.29	131.05	19.85	-43.1	-45.1	26.3	0.00e+00	0	41	0	0	57	4626
2026-01-04 03:04:11.29	130.36	19.62	-42.5	-44.4	26.8	0.00e+00	0	41	0	0	56	4526
2026-01-04 03:04:13.30	129.68	19.38	-42.8	-44.8	26.6	0.00e+00	0	41	0	0	56	4709
2026-01-04 03:04:15.30	129.01	19.15	-42.8	-44.8	26.5	0.00e+00	0	41	0	0	56	4709
2026-01-04 03:04:17.31	128.35	18.91	-42.9	-44.8	26.5	0.00e+00	0	41	0	0	56	4739
2026-01-04 03:04:19.32	127.71	18.67	-43.3	-45.3	26.1	0.00e+00	0	41	0	0	57	4741
2026-01-04 03:04:21.33	127.07	18.44	-43.4	-45.4	26.1	0.00e+00	0	41	0	0	57	4808
2026-01-04 03:04:23.33	126.46	18.20	-43.2	-45.2	26.2	0.00e+00	0	41	0	0	57	4686
2026-01-04 03:04:25.34	125.85	17.96	-43.3	-45.3	26.1	0.00e+00	0	41	0	0	57	4728
2026-01-04 03:04:27.34	125.25	17.73	-43.8	-45.8	25.8	0.00e+00	0	41	0	0	58	4754
2026-01-04 03:04:29.35	124.67	17.50	-43.4	-45.5	26.0	0.00e+00	0	41	0	0	58	4555
2026-01-04 03:04:31.35	124.10	17.26	-43.1	-45.1	26.2	0.00e+00	0	41	0	0	58	4356
2026-01-04 03:04:33.36	123.53	17.03	-43.2	-45.2	26.2	0.00e+00	0	41	0	0	58	4395
2026-01-04 03:04:35.36	122.98	16.80	-43.4	-45.4	26.0	0.00e+00	0	41	0	0	58	4528
2026-01-04 03:04:37.37	122.44	16.56	-43.5	-45.5	25.9	0.00e+00	0	41	0	0	58	4586
2026-01-04 03:04:39.38	121.91	16.33	-43.7	-45.7	25.8	0.00e+00	0	41	0	0	58	4678
2026-01-04 03:04:41.38	121.39	16.11	-44.1	-46.2	25.4	0.00e+00	0	41	0	0	58	4953
2026-01-04 03:04:43.39	120.88	15.88	-44.5	-46.6	25.1	0.00e+00	0	41	0	0	59	4887
2026-01-04 03:04:45.40	120.37	15.65	-44.3	-46.4	25.3	0.00e+00	0	41	0	0	59	4765
2026-01-04 03:04:47.36	119.89	15.43	-44.1	-46.2	25.4	0.00e+00	0	41	0	0	59	4691
2026-01-04 03:04:49.36	119.41	15.20	-44.0	-46.1	25.5	0.00e+00	0	41	0	0	59	4605
2026-01-04 03:04:51.37	118.94	14.98	-44.1	-46.2	25.4	0.00e+00	0	41	0	0	59	4673
2026-01-04 03:04:53.38	118.47	14.76	-44.3	-46.4	25.2	0.00e+00	0	41	0	0	59	4788
2026-01-04 03:04:55.38	118.02	14.54	-44.7	-46.9	24.9	0.00e+00	0	41	0	0	60	4784
2026-01-04 03:04:57.39	117.57	14.32	-44.9	-47.0	24.8	0.00e+00	0	41	0	0	60	4827
2026-01-04 03:04:59.39	117.14	14.10	-45.0	-47.1	24.8	0.00e+00	0	41	0	0	60	4891
2026-01-04 03:05:01.40	116.70	13.88	-44.8	-47.0	24.8	0.00e+00	0	41	0	0	60	4824
2026-01-04 03:05:03.34	116.30	13.68	-45.1	-47.2	24.6	0.00e+00	0	41	0	0	60	4962
2026-01-04 03:05:05.35	115.88	13.46	-45.3	-47.4	24.4	0.00e+00	0	41	0	0	61	4807
2026-01-04 03:05:07.36	115.47	13.25	-45.6	-47.8	24.2	0.00e+00	0	41	0	0	61	4990
2026-01-04 03:05:09.37	115.07	13.04	-45.7	-47.9	24.1	0.00e+00	0	41	0	0	62	4777
2026-01-04 03:05:11.37	114.68	12.83	-45.5	-47.7	24.1	0.00e+00	0	41	0	0	62	4688
2026-01-04 03:05:13.38	114.30	12.63	-45.3	-47.5	24.3	0.00e+00	0	41	0	0	62	4570
2026-01-04 03:05:15.39	113.92	12.42	-45.2	-47.4	24.5	0.00e+00	0	41	0	0	62	4495
2026-01-04 03:05:17.40	113.55	12.22	-45.5	-47.7	24.1	0.00e+00	0	41	0	0	62	4685
2026-01-04 03:05:19.42	113.18	12.01	-45.8	-48.1	23.8	0.00e+00	0	41	0	0	62	4884
2026-01-04 03:05:21.43	112.82	11.81	-46.1	-48.5	23.4	0.00e+00	0	41	0	0	62	5107
2026-01-04 03:05:23.44	112.47	11.61	-46.1	-48.4	23.5	0.00e+00	0	41	0	0	63	4770
2026-01-04 03:05:25.52	112.11	11.41	-45.8	-48.0	23.8	0.00e+00	0	41	0	0	63	4597
2026-01-04 03:05:27.53	111.77	11.21	-45.8	-48.0	23.8	0.00e+00	0	41	0	0	63	4590
2026-01-04 03:05:29.81	111.39	10.99	-45.9	-48.2	23.7	0.00e+00	0	41	0	0	63	4659
2026-01-04 03:05:31.83	111.07	10.79	-46.3	-48.6	23.3	0.00e+00	0	41	0	0	63	4924
2026-01-04 03:05:33.84	110.75	10.60	-46.5	-48.9	23.0	0.00e+00	0	41	0	0	63	5087
2026-01-04 03:05:35.84	110.43	10.41	-46.9	-49.4	22.6	0.00e+00	0	41	0	0	64	5043
2026-01-04 03:05:37.85	110.12	10.23	-46.7	-49.1	22.7	0.00e+00	0	41	0	0	64	4919
2026-01-04 03:05:39.85	109.82	10.04	-46.7	-49.1	22.7	0.00e+00	0	41	0	0	64	4911
2026-01-04 03:05:41.89	109.52	9.85	-46.8	-49.2	22.6	0.00e+00	0	41	0	0	64	4967
2026-01-04 03:05:43.84	109.23	9.67	-46.5	-49.0	22.8	0.00e+00	0	41	0	0	64	4839
2026-01-04 03:05:45.78	108.95	9.50	-46.4	-48.8	22.9	0.00e+00	0	41	0	0	64	4742
2026-01-04 03:05:47.79	108.67	9.31	-46.3	-48.7	23.0	0.00e+00	0	41	0	0	64	4680
2026-01-04 03:05:49.79	108.39	9.14	-46.5	-48.8	22.9	0.00e+00	0	41	0	0	64	4757
2026-01-04 03:05:51.80	108.11	8.96	-52.7	-58.5	16.0	0.00e+00	0	41	0	0	75	7688
2026-01-04 03:05:53.81	107.84	8.78	-54.9	-73.7	3.8	4.59e-01	0	41	104	0	80	33061
2026-01-04 03:05:55.82	107.58	8.60	-55.0	-73.9	3.8	8.47e-01	0	41	104	0	80	33749
2026-01-04 03:05:57.82	107.32	8.43	-55.0	-73.9	3.8	8.46e-01	0	41	104	0	80	34050
2026-01-04 03:05:59.83	107.06	8.26	-54.9	-74.1	3.8	8.47e-01	0	41	104	0	80	34589
2026-01-04 03:06:01.84	106.81	8.09	-54.9	-74.1	3.8	8.47e-01	0	41	104	0	80	34549
2026-01-04 03:06:03.85	106.56	7.92	-55.0	-74.2	3.8	8.46e-01	0	41	104	0	80	34913
2026-01-04 03:06:05.86	106.31	7.75	-55.2	-74.2	3.8	8.47e-01	0	41	104	0	80	35028
2026-01-04 03:06:07.87	106.07	7.58	-55.1	-74.1	3.8	8.47e-01	0	41	104	0	80	34740
2026-01-04 03:06:09.87	105.83	7.42	-55.0	-74.1	3.8	8.46e-01	0	41	104	0	80	34778
2026-01-04 03:06:11.88	105.60	7.25	-55.0	-74.1	3.8	8.46e-01	0	41	104	0	80	34872
2026-01-04 03:06:13.89	105.37	7.09	-55.0	-74.1	3.8	8.47e-01	0	41	104	0	80	34620
2026-01-04 03:06:15.90	105.14	6.92	-55.0	-74.1	3.8	8.47e-01	0	41	104	0	80	34746
2026-01-04 03:06:17.91	104.92	6.76	-55.0	-74.1	3.8	8.46e-01	0	41	104	0	80	34556
2026-01-04 03:06:19.92	104.70	6.60	-55.0	-74.0	3.8	8.47e-01	0	41	104	0	80	34390
2026-01-04 03:06:21.93	104.49	6.44	-55.0	-74.0	3.8	8.47e-01	0	42	104	0	80	34246
2026-01-04 03:06:23.94	104.27	6.29	-55.0	-74.0	3.8	8.47e-01	0	41	104	0	80	34457
2026-01-04 03:06:25.94	104.07	6.13	-54.9	-74.0	3.8	8.46e-01	0	41	104	0	80	34426
2026-01-04 03:06:27.95	103.86	5.98	-55.0	-74.1	3.8	8.48e-01	0	41	104	0	80	34623
2026-01-04 03:06:29.96	103.66	5.82	-55.0	-74.1	3.8	8.47e-01	0	41	104	0	80	34575
2026-01-04 03:06:31.97	103.46	5.67	-55.0	-74.1	3.8	8.46e-01	0	41	104	0	80	34519
2026-01-04 03:06:33.98	103.26	5.52	-55.0	-74.1	3.8	8.48e-01	0	41	104	0	80	34584
2026-01-04 03:06:35.99	103.07	5.36	-55.0	-74.1	3.8	8.47e-01	0	41	104	0	80	34542
2026-01-04 03:06:38.00	102.87	5.21	-55.0	-74.1	3.8	8.46e-01	0	42	104	0	80	34555
2026-01-04 03:06:40.01	102.69	5.07	-55.0	-74.0	3.8	8.47e-01	0	41	104	0	80	34430
2026-01-04 03:06:42.02	102.50	4.92	-55.0	-74.1	3.8	8.47e-01	0	41	104	0	80	34613

#Closed at: 2026-01-04 03:06:44
#Recorded file [0 MB]: D:/Data/31040_260104_055901.dat