passes_logs/2026/01/04/T1/T1__20260104_225249_NOAA_21_JPSS-2_rec.log

#Pass ID: 20260104_225249_NOAA 21 (JPSS-2)
#Satellite: NOAA 21 (JPSS-2)
#Configuration: NOAA 21
#almurnet v.1.7.20251203
#Start time: 2026-01-04 22:52:51

#Version: 2.0.20230620
#Station: T1
#Location: 37.570604 lon 55.790049 lat
#TLE: 1 54234U 22150A   26004.22845673  .00000174  00000+0  10347-3 0  9996
#TLE: 2 54234  98.7489 305.2591 0001115 345.0884  15.0259 14.19531906163281

#Time	Az	El	Level	Level2	SNR	BER	BlckErr	Temp	State	Recorded	gain1	gain2
2026-01-04 22:52:51.58	22.43	5.13	-53.0	-66.2	3.8	1.49e+00	0	40	0	0	77	16625
2026-01-04 22:52:54.59	22.58	5.33	-52.0	-65.9	3.8	1.49e+00	0	41	104	0	76	16903
2026-01-04 22:52:57.61	22.72	5.54	-51.8	-65.5	3.8	1.49e+00	0	41	104	0	75	17230
2026-01-04 22:53:00.62	22.87	5.75	-51.8	-65.6	3.8	1.49e+00	0	41	104	0	75	17300
2026-01-04 22:53:03.63	23.03	5.96	-51.8	-65.7	3.8	1.49e+00	0	41	104	0	75	17642
2026-01-04 22:53:06.64	23.18	6.17	-51.8	-65.8	3.8	1.49e+00	0	42	104	0	75	17800
2026-01-04 22:53:09.66	23.34	6.38	-51.8	-65.8	3.8	1.49e+00	0	41	104	0	75	17806
2026-01-04 22:53:12.67	23.50	6.59	-51.7	-65.6	3.8	1.49e+00	0	42	104	0	75	17381
2026-01-04 22:53:15.68	23.66	6.81	-51.7	-65.3	3.8	1.49e+00	0	42	104	0	75	16818
2026-01-04 22:53:18.69	23.82	7.03	-51.8	-65.4	3.8	1.49e+00	0	42	104	0	75	17072
2026-01-04 22:53:21.71	23.98	7.25	-51.8	-65.8	3.8	1.49e+00	0	42	104	0	75	17747
2026-01-04 22:53:24.72	24.15	7.47	-51.7	-65.3	3.8	1.49e+00	0	42	104	0	75	16814
2026-01-04 22:53:27.73	24.32	7.69	-51.6	-64.5	3.8	1.49e+00	0	42	104	0	75	15244
2026-01-04 22:53:30.74	24.49	7.91	-51.6	-64.5	3.8	1.49e+00	0	42	104	0	75	15285
2026-01-04 22:53:33.76	24.67	8.14	-51.7	-64.8	3.8	1.49e+00	0	42	104	0	75	15854
2026-01-04 22:53:36.77	24.84	8.36	-51.6	-64.2	3.8	1.49e+00	0	42	104	0	75	14752
2026-01-04 22:53:39.78	25.02	8.59	-51.5	-62.8	4.1	1.47e+00	0	42	104	0	75	12573
2026-01-04 22:53:42.80	25.21	8.83	-51.3	-60.7	4.5	1.02e+00	0	42	104	0	74	10513
2026-01-04 22:53:45.81	25.39	9.06	-50.5	-57.0	7.5	1.45e-01	0	42	0	0	72	7646
2026-01-04 22:53:48.82	25.58	9.29	-49.0	-53.2	11.4	3.75e-02	0	42	0	0	70	5577
2026-01-04 22:53:51.82	25.77	9.53	-45.9	-48.5	16.0	0.00e+00	0	42	0	0	63	4836
2026-01-04 22:53:54.94	25.97	9.78	-45.3	-47.6	16.8	0.00e+00	0	42	0	0	62	4619
2026-01-04 22:53:57.87	26.16	10.01	-45.3	-47.5	16.9	0.00e+00	0	43	0	0	62	4596
2026-01-04 22:54:00.87	26.36	10.25	-44.8	-46.9	17.5	0.00e+00	0	43	0	0	61	4503
2026-01-04 22:54:03.88	26.56	10.50	-44.7	-46.7	17.6	0.00e+00	0	43	0	0	61	4429
2026-01-04 22:54:06.89	26.77	10.75	-44.4	-46.4	18.0	0.00e+00	0	43	0	0	60	4522
2026-01-04 22:54:09.89	26.98	11.00	-44.4	-46.3	18.1	0.00e+00	0	43	0	0	60	4488
2026-01-04 22:54:12.90	27.19	11.25	-44.3	-46.2	18.2	0.00e+00	0	43	0	0	60	4435
2026-01-04 22:54:15.90	27.40	11.50	-44.4	-46.4	18.0	0.00e+00	0	43	0	0	60	4515
2026-01-04 22:54:18.91	27.62	11.76	-44.3	-46.3	18.1	0.00e+00	0	43	0	0	60	4458
2026-01-04 22:54:21.96	27.85	12.02	-44.2	-46.2	18.2	0.00e+00	0	43	0	0	60	4411
2026-01-04 22:54:24.99	28.08	12.28	-44.0	-46.0	18.4	0.00e+00	0	43	0	0	60	4298
2026-01-04 22:54:28.00	28.31	12.55	-44.2	-46.2	18.3	0.00e+00	0	43	0	0	60	4400
2026-01-04 22:54:31.01	28.54	12.81	-44.1	-46.1	18.4	0.00e+00	0	43	0	0	60	4353
2026-01-04 22:54:34.02	28.78	13.08	-43.9	-45.8	18.6	0.00e+00	0	43	0	0	59	4468
2026-01-04 22:54:37.02	29.02	13.35	-43.9	-45.8	18.5	0.00e+00	0	43	0	0	59	4482
2026-01-04 22:54:40.05	29.27	13.63	-43.9	-45.7	18.7	0.00e+00	0	43	0	0	59	4412
2026-01-04 22:54:43.25	29.54	13.92	-43.8	-45.7	18.7	0.00e+00	0	43	0	0	59	4406
2026-01-04 22:54:46.15	29.78	14.19	-44.0	-45.9	18.5	0.00e+00	0	43	0	0	59	4513
2026-01-04 22:54:49.16	30.04	14.48	-43.9	-45.8	18.6	0.00e+00	0	43	0	0	59	4445
2026-01-04 22:54:52.16	30.31	14.76	-43.9	-45.7	18.7	0.00e+00	0	43	0	0	59	4411
2026-01-04 22:54:55.17	30.58	15.05	-43.9	-45.7	18.6	0.00e+00	0	43	0	0	59	4434
2026-01-04 22:54:58.20	30.86	15.34	-43.9	-45.7	18.7	0.00e+00	0	43	0	0	59	4438
2026-01-04 22:55:01.21	31.14	15.63	-44.0	-45.9	18.6	0.00e+00	0	43	0	0	59	4503
2026-01-04 22:55:04.33	31.43	15.94	-44.1	-46.0	18.5	0.00e+00	0	43	0	0	59	4552
2026-01-04 22:55:07.48	31.74	16.26	-44.2	-46.2	18.3	0.00e+00	0	43	0	0	59	4653
2026-01-04 22:55:10.35	32.02	16.54	-44.3	-46.2	18.3	0.00e+00	0	43	0	0	59	4698
2026-01-04 22:55:13.50	32.34	16.86	-44.2	-46.1	18.4	0.00e+00	0	43	0	0	59	4614
2026-01-04 22:55:16.37	32.63	17.16	-44.2	-46.1	18.3	0.00e+00	0	43	0	0	59	4643
2026-01-04 22:55:19.63	32.98	17.50	-44.4	-46.3	18.2	0.00e+00	0	43	0	0	59	4738
2026-01-04 22:55:22.35	33.27	17.78	-44.3	-46.2	18.2	0.00e+00	0	43	0	0	59	4702
2026-01-04 22:55:25.65	33.63	18.13	-44.4	-46.4	18.1	0.00e+00	0	43	0	0	59	4763
2026-01-04 22:55:28.37	33.93	18.42	-44.4	-46.4	18.1	0.00e+00	0	43	0	0	59	4772
2026-01-04 22:55:31.78	34.32	18.79	-44.4	-46.3	18.2	0.00e+00	0	43	0	0	59	4759
2026-01-04 22:55:34.57	34.64	19.10	-44.3	-46.1	18.4	0.00e+00	0	43	0	0	59	4636
2026-01-04 22:55:37.87	35.03	19.46	-44.2	-46.1	18.4	0.00e+00	0	43	0	0	59	4604
2026-01-04 22:55:40.59	35.36	19.77	-44.1	-46.0	18.5	0.00e+00	0	43	0	0	59	4549
2026-01-04 22:55:43.89	35.77	20.14	-43.9	-45.7	18.7	0.00e+00	0	43	0	0	59	4425
2026-01-04 22:55:46.61	36.11	20.45	-43.7	-45.5	18.9	0.00e+00	0	43	0	0	59	4337
2026-01-04 22:55:50.06	36.56	20.85	-43.7	-45.4	19.0	0.00e+00	0	43	0	0	59	4288
2026-01-04 22:55:52.82	36.92	21.17	-43.5	-45.3	19.0	0.00e+00	0	43	0	0	59	4226
2026-01-04 22:55:56.06	37.36	21.55	-43.5	-45.2	19.1	0.00e+00	0	43	0	0	58	4429
2026-01-04 22:55:59.20	37.79	21.92	-43.4	-45.1	19.2	0.00e+00	0	43	0	0	58	4377
2026-01-04 22:56:02.16	38.21	22.28	-43.3	-45.0	19.3	0.00e+00	0	43	0	0	58	4328
2026-01-04 22:56:05.44	38.69	22.67	-43.0	-44.8	19.6	0.00e+00	0	43	0	0	58	4202
2026-01-04 22:56:08.17	39.09	23.01	-43.0	-44.7	19.6	0.00e+00	0	43	0	0	57	4418
2026-01-04 22:56:11.46	39.59	23.42	-42.9	-44.7	19.7	0.00e+00	0	43	0	0	57	4396
2026-01-04 22:56:14.18	40.01	23.75	-42.9	-44.6	19.8	0.00e+00	0	43	0	0	57	4348
2026-01-04 22:56:17.50	40.54	24.17	-43.0	-44.7	19.7	0.00e+00	0	43	0	0	57	4416
2026-01-04 22:56:20.22	40.98	24.52	-42.9	-44.7	19.8	0.00e+00	0	43	0	0	57	4393
2026-01-04 22:56:23.77	41.58	24.97	-43.1	-44.8	19.7	0.00e+00	0	43	0	0	57	4492
2026-01-04 22:56:26.49	42.04	25.33	-43.2	-44.9	19.6	0.00e+00	0	43	0	0	57	4510
2026-01-04 22:56:29.78	42.62	25.76	-43.3	-45.1	19.5	0.00e+00	0	43	0	0	57	4599
2026-01-04 22:56:32.50	43.11	26.12	-43.4	-45.1	19.3	0.00e+00	0	43	0	0	57	4651
2026-01-04 22:56:36.13	43.77	26.60	-43.9	-45.7	18.8	0.00e+00	0	43	0	0	58	4700
2026-01-04 22:56:39.23	44.36	27.01	-44.2	-46.1	18.5	0.00e+00	0	43	0	0	59	4637
2026-01-04 22:56:42.16	44.93	27.41	-44.4	-46.3	18.4	0.00e+00	0	43	0	0	59	4712
2026-01-04 22:56:45.31	45.56	27.84	-44.5	-46.4	18.3	0.00e+00	0	44	0	0	59	4777
2026-01-04 22:56:48.27	46.16	28.25	-44.5	-46.4	18.2	0.00e+00	0	43	0	0	59	4806
2026-01-04 22:56:51.61	46.86	28.71	-44.5	-46.4	18.3	0.00e+00	0	43	0	0	59	4785
2026-01-04 22:56:54.33	47.45	29.08	-44.2	-46.1	18.5	0.00e+00	0	43	0	0	59	4626
2026-01-04 22:56:57.62	48.17	29.54	-44.1	-46.0	18.7	0.00e+00	0	43	0	0	59	4558
2026-01-04 22:57:00.57	48.84	29.96	-44.0	-45.8	18.8	0.00e+00	0	43	0	0	59	4483
2026-01-04 22:57:03.58	49.54	30.38	-43.9	-45.7	18.9	0.00e+00	0	43	0	0	59	4441
2026-01-04 22:57:06.59	50.26	30.81	-43.6	-45.3	19.2	0.00e+00	0	43	0	0	59	4226
2026-01-04 22:57:09.58	50.99	31.23	-43.8	-45.5	19.1	0.00e+00	0	43	0	0	59	4338
2026-01-04 22:57:12.76	51.79	31.69	-43.8	-45.6	19.0	0.00e+00	0	43	0	0	59	4360
2026-01-04 22:57:15.70	52.55	32.11	-43.9	-45.7	18.9	0.00e+00	0	43	0	0	59	4412
2026-01-04 22:57:18.90	53.40	32.56	-44.2	-46.1	18.5	0.00e+00	0	43	0	0	59	4610
2026-01-04 22:57:21.85	54.20	32.98	-44.2	-46.1	18.6	0.00e+00	0	43	0	0	59	4606
2026-01-04 22:57:25.00	55.08	33.43	-44.4	-46.3	18.4	0.00e+00	0	43	0	0	59	4710
2026-01-04 22:57:27.87	55.91	33.84	-44.6	-46.5	18.1	0.00e+00	0	43	0	0	59	4852
2026-01-04 22:57:31.02	56.83	34.29	-44.7	-46.6	18.1	0.00e+00	0	44	0	0	60	4612
2026-01-04 22:57:33.87	57.69	34.69	-44.8	-46.8	17.9	0.00e+00	0	43	0	0	60	4734
2026-01-04 22:57:37.13	58.71	35.15	-45.2	-47.2	17.6	0.00e+00	0	43	0	0	61	4688
2026-01-04 22:57:39.87	59.58	35.53	-45.2	-47.2	17.7	0.00e+00	0	43	0	0	61	4652
2026-01-04 22:57:43.18	60.66	35.99	-45.1	-47.1	17.7	0.00e+00	0	43	0	0	61	4621
2026-01-04 22:57:46.22	61.68	36.41	-45.3	-47.3	17.5	0.00e+00	0	43	0	0	61	4740
2026-01-04 22:57:49.26	62.72	36.82	-44.9	-46.8	18.0	0.00e+00	0	44	0	0	61	4482
2026-01-04 22:57:52.32	63.80	37.23	-44.9	-46.9	17.9	0.00e+00	0	44	0	0	61	4498
2026-01-04 22:57:55.48	64.94	37.64	-45.2	-47.2	17.7	0.00e+00	0	43	0	0	61	4701
2026-01-04 22:57:58.34	66.00	38.01	-45.4	-47.4	17.5	0.00e+00	0	43	0	0	61	4805
2026-01-04 22:58:01.50	67.20	38.41	-45.3	-47.3	17.6	0.00e+00	0	43	0	0	61	4728
2026-01-04 22:58:04.36	68.30	38.77	-45.9	-48.1	16.9	0.00e+00	0	43	0	0	62	4876
2026-01-04 22:58:07.52	69.56	39.15	-46.1	-48.3	16.7	0.00e+00	0	43	0	0	62	5015
2026-01-04 22:58:10.38	70.71	39.49	-46.0	-48.2	16.7	0.00e+00	0	43	0	0	62	4946
2026-01-04 22:58:13.53	72.02	39.84	-46.3	-48.6	16.4	0.00e+00	0	43	0	0	63	4877
2026-01-04 22:58:16.40	73.23	40.16	-46.2	-48.4	16.6	0.00e+00	0	43	0	0	63	4770
2026-01-04 22:58:19.55	74.59	40.49	-46.3	-48.5	16.5	0.00e+00	0	43	0	0	63	4853
2026-01-04 22:58:22.40	75.84	40.78	-46.3	-48.6	16.3	0.00e+00	0	43	0	0	63	4918
2026-01-04 22:58:25.70	77.31	41.09	-45.8	-47.9	16.9	0.00e+00	0	43	0	0	63	4531
2026-01-04 22:58:28.42	78.55	41.34	-46.2	-48.4	16.4	0.00e+00	0	43	0	0	63	4795
2026-01-04 22:58:31.71	80.07	41.62	-46.0	-48.2	16.6	0.00e+00	0	43	0	0	63	4662
2026-01-04 22:58:34.44	81.36	41.84	-46.0	-48.2	16.6	0.00e+00	0	43	0	0	63	4662
2026-01-04 22:58:37.76	82.94	42.08	-45.7	-47.8	17.0	0.00e+00	0	43	0	0	63	4474
2026-01-04 22:58:40.48	84.25	42.27	-46.0	-48.2	16.7	0.00e+00	0	43	0	0	63	4670
2026-01-04 22:58:43.78	85.86	42.47	-45.9	-48.1	16.8	0.00e+00	0	44	0	0	63	4614
2026-01-04 22:58:46.50	87.21	42.62	-46.3	-48.5	16.4	0.00e+00	0	43	0	0	63	4867
2026-01-04 22:58:49.80	88.85	42.77	-45.7	-47.8	17.0	0.00e+00	0	43	0	0	63	4469
2026-01-04 22:58:52.51	90.21	42.88	-45.8	-47.9	17.0	0.00e+00	0	43	0	0	63	4506
2026-01-04 22:58:55.80	91.88	42.99	-45.7	-47.8	17.1	0.00e+00	0	44	0	0	63	4449
2026-01-04 22:58:58.52	93.26	43.06	-46.2	-48.4	16.5	0.00e+00	0	43	0	0	63	4796
2026-01-04 22:59:01.82	94.95	43.12	-46.1	-48.3	16.5	0.00e+00	0	43	0	0	63	4714
2026-01-04 22:59:04.64	96.40	43.16	-45.8	-47.9	17.0	0.00e+00	0	43	0	0	63	4512
2026-01-04 22:59:08.12	98.18	43.17	-45.7	-47.8	17.0	0.00e+00	0	43	0	0	63	4455
2026-01-04 22:59:10.84	99.58	43.15	-45.9	-48.0	16.7	0.00e+00	0	43	0	0	63	4580
2026-01-04 22:59:14.12	101.26	43.11	-46.4	-48.7	16.1	0.00e+00	0	43	0	0	63	4953
2026-01-04 22:59:16.98	102.72	43.06	-46.2	-48.4	16.4	0.00e+00	0	44	0	0	63	4762
2026-01-04 22:59:20.21	104.37	42.97	-46.0	-48.2	16.6	0.00e+00	0	44	0	0	63	4672
2026-01-04 22:59:23.36	105.96	42.86	-46.6	-49.0	15.9	0.00e+00	0	43	0	0	64	4840
2026-01-04 22:59:26.22	107.39	42.73	-46.3	-48.6	16.3	0.00e+00	0	43	0	0	64	4607
2026-01-04 22:59:29.41	108.98	42.58	-45.7	-47.7	17.2	0.00e+00	0	44	0	0	63	4434
2026-01-04 22:59:32.27	110.39	42.42	-46.2	-48.4	16.5	0.00e+00	0	43	0	0	63	4804
2026-01-04 22:59:35.61	112.02	42.20	-45.6	-47.6	17.2	0.00e+00	0	43	0	0	63	4378
2026-01-04 22:59:38.34	113.34	42.01	-45.9	-48.1	16.9	0.00e+00	0	43	0	0	63	4604
2026-01-04 22:59:41.58	114.88	41.77	-46.6	-49.0	15.8	0.00e+00	0	44	0	0	64	4829
2026-01-04 22:59:44.74	116.35	41.51	-46.1	-48.3	16.4	0.00e+00	0	44	0	0	64	4470
2026-01-04 22:59:47.81	117.77	41.24	-46.0	-48.1	16.7	0.00e+00	0	44	0	0	63	4642
2026-01-04 22:59:51.11	119.26	40.93	-46.2	-48.5	16.3	0.00e+00	0	44	0	0	64	4547
2026-01-04 22:59:53.93	120.52	40.65	-46.0	-48.1	16.7	0.00e+00	0	43	0	0	63	4633
2026-01-04 22:59:57.22	121.95	40.31	-46.7	-49.1	15.7	0.00e+00	0	43	0	0	64	4878
2026-01-04 23:00:00.61	123.40	39.95	-46.1	-48.3	16.5	0.00e+00	0	43	0	0	64	4442
2026-01-04 23:00:03.32	124.53	39.64	-45.5	-47.5	17.2	0.00e+00	0	44	0	0	62	4586
2026-01-04 23:00:06.62	125.88	39.26	-45.9	-48.1	16.8	0.00e+00	0	43	0	0	62	4895
2026-01-04 23:00:09.48	127.03	38.91	-45.8	-47.9	16.8	0.00e+00	0	43	0	0	62	4808
2026-01-04 23:00:12.63	128.26	38.52	-45.8	-47.9	17.0	0.00e+00	0	43	0	0	62	4781
2026-01-04 23:00:15.82	129.48	38.12	-46.0	-48.2	16.7	0.00e+00	0	43	0	0	63	4665
2026-01-04 23:00:18.85	130.62	37.73	-45.2	-47.2	17.5	0.00e+00	0	43	0	0	62	4418
2026-01-04 23:00:21.86	131.71	37.33	-45.0	-46.9	17.8	0.00e+00	0	43	0	0	62	4289
2026-01-04 23:00:24.87	132.79	36.93	-45.1	-47.1	17.6	0.00e+00	0	44	0	0	61	4633
2026-01-04 23:00:27.88	133.83	36.52	-44.9	-46.9	17.8	0.00e+00	0	43	0	0	61	4513
2026-01-04 23:00:31.02	134.90	36.09	-45.0	-46.9	17.7	0.00e+00	0	43	0	0	61	4544
2026-01-04 23:00:33.88	135.84	35.69	-45.0	-47.0	17.8	0.00e+00	0	43	0	0	61	4550
2026-01-04 23:00:37.02	136.85	35.25	-45.2	-47.2	17.5	0.00e+00	0	43	0	0	61	4698
2026-01-04 23:00:39.88	137.75	34.85	-45.1	-47.1	17.6	0.00e+00	0	43	0	0	61	4608
2026-01-04 23:00:43.21	138.77	34.38	-45.0	-47.0	17.7	0.00e+00	0	43	0	0	61	4565
2026-01-04 23:00:45.94	139.58	33.99	-44.8	-46.7	18.0	0.00e+00	0	43	0	0	61	4431
2026-01-04 23:00:49.25	140.55	33.52	-44.3	-46.2	18.5	0.00e+00	0	43	0	0	60	4417
2026-01-04 23:00:51.97	141.32	33.13	-44.4	-46.3	18.5	0.00e+00	0	43	0	0	60	4463
2026-01-04 23:00:55.26	142.22	32.65	-43.8	-45.6	19.0	0.00e+00	0	43	0	0	59	4359
2026-01-04 23:00:57.98	142.95	32.26	-43.6	-45.4	19.2	0.00e+00	0	43	0	0	59	4255
2026-01-04 23:01:01.28	143.82	31.79	-43.1	-44.8	19.6	0.00e+00	0	43	0	0	58	4238
2026-01-04 23:01:04.13	144.54	31.38	-43.2	-44.9	19.5	0.00e+00	0	43	0	0	58	4257
2026-01-04 23:01:07.61	145.41	30.88	-43.3	-45.0	19.3	0.00e+00	0	43	0	0	58	4316
2026-01-04 23:01:10.39	146.08	30.48	-43.3	-45.0	19.4	0.00e+00	0	44	0	0	58	4321
2026-01-04 23:01:13.68	146.85	30.02	-43.4	-45.1	19.3	0.00e+00	0	43	0	0	58	4377
2026-01-04 23:01:16.40	147.47	29.63	-43.6	-45.4	19.1	0.00e+00	0	44	0	0	58	4494
2026-01-04 23:01:19.76	148.22	29.16	-43.6	-45.5	19.1	0.00e+00	0	43	0	0	58	4548
2026-01-04 23:01:22.75	148.87	28.74	-44.0	-45.9	18.6	0.00e+00	0	44	0	0	58	4767
2026-01-04 23:01:25.75	149.51	28.32	-43.9	-45.7	18.8	0.00e+00	0	44	0	0	58	4681
2026-01-04 23:01:28.79	150.13	27.90	-43.9	-45.8	18.7	0.00e+00	0	43	0	0	58	4730
2026-01-04 23:01:31.96	150.77	27.47	-43.8	-45.6	18.9	0.00e+00	0	43	0	0	58	4651
2026-01-04 23:01:34.85	151.34	27.07	-43.9	-45.8	18.8	0.00e+00	0	43	0	0	58	4717
2026-01-04 23:01:38.00	151.94	26.64	-43.8	-45.6	18.8	0.00e+00	0	43	0	0	58	4631
2026-01-04 23:01:40.87	152.47	26.26	-43.6	-45.4	19.0	0.00e+00	0	44	0	0	58	4532
2026-01-04 23:01:44.11	153.06	25.83	-43.2	-45.0	19.4	0.00e+00	0	44	0	0	58	4317
2026-01-04 23:01:46.97	153.57	25.45	-43.2	-45.0	19.4	0.00e+00	0	43	0	0	58	4319
2026-01-04 23:01:50.06	154.11	25.04	-43.3	-45.0	19.4	0.00e+00	0	44	0	0	58	4337
2026-01-04 23:01:53.06	154.61	24.65	-43.5	-45.3	19.2	0.00e+00	0	43	0	0	58	4480
2026-01-04 23:01:56.07	155.11	24.27	-43.5	-45.3	19.2	0.00e+00	0	44	0	0	58	4448
2026-01-04 23:01:59.80	155.71	23.79	-43.3	-45.1	19.2	0.00e+00	0	43	0	0	58	4373
2026-01-04 23:02:02.54	156.14	23.45	-43.3	-45.0	19.2	0.00e+00	0	44	0	0	58	4329
2026-01-04 23:02:06.32	156.71	22.98	-43.4	-45.1	19.2	0.00e+00	0	43	0	0	58	4378
2026-01-04 23:02:09.12	157.13	22.63	-43.3	-45.1	19.3	0.00e+00	0	44	0	0	58	4359
2026-01-04 23:02:12.56	157.63	22.21	-43.6	-45.4	19.0	0.00e+00	0	43	0	0	58	4518
2026-01-04 23:02:15.28	158.02	21.88	-43.5	-45.3	19.0	0.00e+00	0	43	0	0	58	4468
2026-01-04 23:02:18.57	158.47	21.49	-43.6	-45.3	18.9	0.00e+00	0	44	0	0	58	4491
2026-01-04 23:02:21.30	158.84	21.16	-43.5	-45.3	19.0	0.00e+00	0	43	0	0	58	4475
2026-01-04 23:02:24.51	159.27	20.78	-43.3	-45.0	19.3	0.00e+00	0	43	0	0	58	4324
2026-01-04 23:02:27.52	159.66	20.43	-43.4	-45.2	19.2	0.00e+00	0	43	0	0	58	4392
2026-01-04 23:02:30.55	160.04	20.09	-43.5	-45.3	19.1	0.00e+00	0	43	0	0	58	4478
2026-01-04 23:02:33.58	160.42	19.74	-43.7	-45.6	18.9	0.00e+00	0	43	0	0	58	4603
2026-01-04 23:02:36.59	160.79	19.40	-43.7	-45.5	18.9	0.00e+00	0	44	0	0	58	4598
2026-01-04 23:02:39.64	161.15	19.06	-43.7	-45.5	18.8	0.00e+00	0	43	0	0	58	4578
2026-01-04 23:02:43.27	161.57	18.66	-43.6	-45.4	18.8	0.00e+00	0	43	0	0	58	4545
2026-01-04 23:02:45.99	161.88	18.37	-43.6	-45.5	18.7	0.00e+00	0	43	0	0	58	4559
2026-01-04 23:02:49.29	162.25	18.01	-43.7	-45.5	18.8	0.00e+00	0	43	0	0	58	4571
2026-01-04 23:02:52.12	162.55	17.71	-43.4	-45.2	19.1	0.00e+00	0	44	0	0	58	4402
2026-01-04 23:02:55.28	162.89	17.37	-43.7	-45.5	18.8	0.00e+00	0	44	0	0	58	4565
2026-01-04 23:02:58.43	163.22	17.04	-43.7	-45.6	18.8	0.00e+00	0	43	0	0	58	4604
2026-01-04 23:03:01.29	163.51	16.75	-44.1	-46.0	18.4	0.00e+00	0	43	0	0	58	4852
2026-01-04 23:03:04.45	163.83	16.42	-44.3	-46.3	18.2	0.00e+00	0	43	0	0	59	4713
2026-01-04 23:03:07.39	164.12	16.13	-44.5	-46.5	18.0	0.00e+00	0	43	0	0	59	4830
2026-01-04 23:03:10.60	164.43	15.80	-44.6	-46.6	17.8	0.00e+00	0	43	0	0	59	4919
2026-01-04 23:03:13.47	164.70	15.52	-44.4	-46.4	18.0	0.00e+00	0	43	0	0	59	4778
2026-01-04 23:03:16.79	165.01	15.19	-44.4	-46.3	17.9	0.00e+00	0	44	0	0	59	4744
2026-01-04 23:03:19.72	165.28	14.91	-44.4	-46.4	17.9	0.00e+00	0	43	0	0	59	4773
2026-01-04 23:03:23.29	165.60	14.57	-44.3	-46.3	18.0	0.00e+00	0	43	0	0	59	4732
2026-01-04 23:03:26.00	165.83	14.31	-44.4	-46.3	18.0	0.00e+00	0	43	0	0	59	4737
2026-01-04 23:03:29.30	166.12	14.00	-44.2	-46.1	18.3	0.00e+00	0	44	0	0	59	4637
2026-01-04 23:03:32.02	166.35	13.74	-44.2	-46.1	18.2	0.00e+00	0	43	0	0	59	4645
2026-01-04 23:03:35.25	166.61	13.44	-44.4	-46.3	18.1	0.00e+00	0	43	0	0	59	4753
2026-01-04 23:03:38.36	166.87	13.16	-44.6	-46.6	17.8	0.00e+00	0	43	0	0	59	4893
2026-01-04 23:03:41.37	167.11	12.89	-44.6	-46.6	17.8	0.00e+00	0	43	0	0	59	4901
2026-01-04 23:03:44.38	167.34	12.62	-44.7	-46.8	17.7	0.00e+00	0	44	0	0	60	4721
2026-01-04 23:03:47.39	167.57	12.35	-44.8	-46.8	17.6	0.00e+00	0	44	0	0	60	4737
2026-01-04 23:03:50.48	167.81	12.08	-44.8	-46.9	17.5	0.00e+00	0	44	0	0	60	4786
2026-01-04 23:03:53.34	168.02	11.83	-44.8	-46.8	17.6	0.00e+00	0	43	0	0	60	4758
2026-01-04 23:03:56.35	168.24	11.57	-44.7	-46.9	17.6	0.00e+00	0	44	0	0	60	4766
2026-01-04 23:03:59.36	168.46	11.31	-44.7	-46.8	17.6	0.00e+00	0	43	0	0	60	4754
2026-01-04 23:04:02.37	168.67	11.05	-44.6	-46.8	17.6	0.00e+00	0	43	0	0	60	4738
2026-01-04 23:04:05.33	168.88	10.80	-44.7	-47.1	17.3	0.00e+00	0	43	0	0	60	4902
2026-01-04 23:04:08.47	169.09	10.54	-44.8	-47.2	17.1	0.00e+00	0	44	0	0	60	4978
2026-01-04 23:04:11.34	169.29	10.30	-44.9	-47.4	17.0	0.00e+00	0	44	0	0	60	5067
2026-01-04 23:04:14.49	169.50	10.05	-45.0	-47.4	17.0	0.00e+00	0	44	0	0	60	5066
2026-01-04 23:04:17.36	169.68	9.81	-44.9	-47.4	16.9	0.00e+00	0	44	0	0	60	5062
2026-01-04 23:04:20.43	169.88	9.57	-44.9	-47.6	16.7	0.00e+00	0	43	0	0	60	5197
2026-01-04 23:04:23.43	170.07	9.33	-44.9	-47.7	16.6	0.00e+00	0	44	0	0	60	5228
2026-01-04 23:04:26.43	170.26	9.09	-45.0	-47.8	16.5	0.00e+00	0	44	0	0	60	5288
2026-01-04 23:04:29.45	170.44	8.85	-52.6	-65.9	3.8	1.49e+00	0	44	104	0	75	17912
2026-01-04 23:04:32.43	170.62	8.62	-53.1	-66.2	3.8	1.49e+00	0	44	104	0	76	17541
2026-01-04 23:04:35.62	170.81	8.37	-53.1	-66.2	3.8	1.49e+00	0	44	104	0	77	16642
2026-01-04 23:04:38.48	170.98	8.16	-53.3	-66.3	3.8	1.49e+00	0	44	104	0	77	16727
2026-01-04 23:04:41.64	171.16	7.92	-53.2	-66.3	3.8	1.49e+00	0	43	104	0	77	16817
2026-01-04 23:04:44.51	171.33	7.70	-53.4	-66.3	3.8	1.49e+00	0	44	104	0	77	16725
2026-01-04 23:04:47.67	171.50	7.46	-53.2	-66.3	3.8	1.49e+00	0	43	104	0	77	16817
2026-01-04 23:04:50.54	171.66	7.25	-53.2	-66.3	3.8	1.49e+00	0	44	104	0	77	16874
2026-01-04 23:04:53.70	171.83	7.02	-53.3	-66.3	3.8	1.49e+00	0	44	104	0	77	16817
2026-01-04 23:04:56.57	171.99	6.81	-53.0	-66.3	3.8	1.49e+00	0	44	104	0	77	16789
2026-01-04 23:04:59.72	172.15	6.58	-53.0	-66.3	3.8	1.49e+00	0	44	104	0	77	16715
2026-01-04 23:05:02.59	172.30	6.38	-52.9	-66.3	3.8	1.49e+00	0	44	104	0	77	16721
2026-01-04 23:05:05.75	172.47	6.15	-52.9	-66.3	3.8	1.49e+00	0	44	104	0	77	16740
2026-01-04 23:05:08.62	172.61	5.95	-52.9	-66.3	3.8	1.49e+00	0	44	104	0	77	16778
2026-01-04 23:05:11.78	172.77	5.73	-52.9	-66.3	3.8	1.49e+00	0	43	104	0	77	16761
2026-01-04 23:05:14.64	172.91	5.53	-52.9	-66.2	3.8	1.49e+00	0	44	104	0	77	16688
2026-01-04 23:05:17.80	173.07	5.31	-52.9	-66.2	3.8	1.49e+00	0	44	104	0	77	16660
2026-01-04 23:05:20.67	173.20	5.11	-52.9	-66.2	3.8	1.49e+00	0	44	104	0	77	16669

#Closed at: 2026-01-04 23:05:23
#Recorded file [0 MB]: D:/Data/31040_260105_015251.dat