passes_logs/2026/01/04/T1/T1__20260104_015514_AQUA_rec.log

#Pass ID: 20260104_015514_AQUA
#Satellite: AQUA
#Configuration: AQUA
#almurnet v.1.7.20251203
#Start time: 2026-01-04 01:55:14

#Version: 2.0.20230620
#Station: T1
#Location: 37.570604 lon 55.790049 lat
#TLE: 1 27424U 02022A   25365.92641127  .00002078  00000+0  42628-3 0  9999
#TLE: 2 27424  98.4058 327.1196 0001962  94.7781 340.6230 14.61783896258835

#Time	Az	El	Level	Level2	SNR	BER	BlckErr	Temp	State	Recorded	gain1	gain2
2026-01-04 01:55:14.62	10.91	5.05	-55.3	-76.8	3.8	7.47e-01	0	37	0	0	81	44677
2026-01-04 01:55:17.63	10.80	5.27	-51.0	-76.1	3.6	7.51e-01	0	37	104	0	73	65534
2026-01-04 01:55:20.64	10.70	5.49	-51.0	-76.1	3.7	7.52e-01	0	37	104	0	73	65534
2026-01-04 01:55:23.65	10.59	5.72	-51.0	-76.1	3.7	7.53e-01	0	38	104	0	73	65535
2026-01-04 01:55:26.66	10.48	5.95	-51.1	-76.1	3.6	7.56e-01	0	38	104	0	73	65535
2026-01-04 01:55:29.67	10.37	6.17	-51.1	-76.1	3.6	7.53e-01	0	38	104	0	73	65535
2026-01-04 01:55:32.68	10.25	6.41	-51.1	-76.1	3.7	7.50e-01	0	38	104	0	73	65535
2026-01-04 01:55:35.69	10.13	6.64	-51.1	-76.1	3.7	7.48e-01	0	38	104	0	73	65534
2026-01-04 01:55:38.71	10.01	6.88	-51.0	-75.9	3.8	7.46e-01	0	38	104	0	73	64154
2026-01-04 01:55:41.72	9.89	7.12	-51.0	-75.7	3.8	7.48e-01	0	38	104	0	73	62108
2026-01-04 01:55:44.73	9.77	7.36	-51.0	-75.8	3.8	7.47e-01	0	38	104	0	73	63359
2026-01-04 01:55:47.74	9.64	7.60	-51.1	-76.1	3.8	7.47e-01	0	38	104	0	73	65533
2026-01-04 01:55:50.76	9.51	7.85	-51.1	-76.0	3.8	7.48e-01	0	38	104	0	73	64818
2026-01-04 01:55:53.77	9.38	8.10	-51.0	-74.2	3.8	7.47e-01	0	39	104	0	73	52587
2026-01-04 01:55:56.78	9.25	8.35	-50.7	-71.4	3.8	7.42e-01	0	38	104	0	73	37881
2026-01-04 01:55:59.80	9.11	8.60	-50.5	-69.4	3.8	7.50e-01	0	38	104	0	73	30330
2026-01-04 01:56:02.80	8.97	8.86	-50.4	-69.5	3.8	7.47e-01	0	38	104	0	72	32251
2026-01-04 01:56:05.81	8.83	9.12	-50.7	-71.4	3.8	7.49e-01	0	39	104	0	72	40209
2026-01-04 01:56:08.82	8.68	9.38	-49.8	-64.1	3.8	7.48e-01	0	38	104	0	71	18372
2026-01-04 01:56:11.83	8.53	9.64	-50.0	-64.0	3.8	7.48e-01	0	39	104	0	71	18299
2026-01-04 01:56:14.84	8.38	9.91	-49.6	-63.2	3.8	7.43e-01	0	39	104	0	71	16677
2026-01-04 01:56:17.85	8.22	10.18	-50.5	-64.8	3.8	7.46e-01	0	39	104	0	73	17751
2026-01-04 01:56:20.85	8.06	10.45	-50.0	-63.5	3.8	7.45e-01	0	39	104	0	72	16269
2026-01-04 01:56:23.87	7.90	10.73	-50.1	-63.2	3.8	7.43e-01	0	39	104	0	71	16603
2026-01-04 01:56:26.85	7.74	11.01	-53.5	-75.7	3.8	7.48e-01	0	39	104	0	77	49638
2026-01-04 01:56:29.86	7.57	11.29	-53.8	-75.7	3.8	7.45e-01	0	39	104	0	78	46925
2026-01-04 01:56:32.87	7.39	11.58	-53.9	-75.0	3.8	7.43e-01	0	39	104	0	78	43354
2026-01-04 01:56:35.88	7.22	11.87	-54.0	-76.3	3.8	7.47e-01	0	39	104	0	79	47253
2026-01-04 01:56:38.95	7.03	12.17	-49.7	-62.3	3.8	7.46e-01	0	39	104	0	71	15010
2026-01-04 01:56:41.88	6.85	12.46	-49.2	-61.6	3.8	7.44e-01	0	39	104	0	70	14553
2026-01-04 01:56:44.88	6.66	12.76	-51.2	-64.2	3.8	7.43e-01	0	39	104	0	74	15625
2026-01-04 01:56:47.89	6.47	13.07	-50.7	-63.6	3.8	7.47e-01	0	39	104	0	72	16446
2026-01-04 01:56:50.82	6.27	13.37	-50.2	-62.8	3.8	7.43e-01	0	39	104	0	71	15806
2026-01-04 01:56:53.97	6.06	13.70	-51.2	-64.4	3.8	7.47e-01	0	39	104	0	74	15953
2026-01-04 01:56:56.83	5.86	14.00	-50.0	-62.4	3.8	7.45e-01	0	39	104	0	71	15219
2026-01-04 01:56:59.99	5.63	14.34	-49.6	-62.0	3.8	7.48e-01	0	39	104	0	70	15241
2026-01-04 01:57:02.85	5.42	14.65	-52.0	-65.3	3.8	7.46e-01	0	39	104	0	76	15856
2026-01-04 01:57:06.15	5.18	15.02	-49.8	-52.9	22.8	6.04e-01	0	39	0	1048576	71	5072
2026-01-04 01:57:08.88	4.97	15.32	-49.5	-52.4	23.3	6.02e-01	0	39	0	6291456	70	5057
2026-01-04 01:57:12.17	4.71	15.69	-49.2	-51.9	23.6	6.01e-01	0	39	0	12582912	70	4780
2026-01-04 01:57:14.89	4.49	16.01	-49.3	-52.0	23.6	6.02e-01	0	39	0	17301504	70	4855
2026-01-04 01:57:18.19	4.21	16.39	-48.8	-51.4	24.1	6.03e-01	0	39	0	23592960	69	4800
2026-01-04 01:57:21.07	3.97	16.73	-48.6	-51.2	24.4	6.03e-01	0	39	0	28835840	69	4679
2026-01-04 01:57:24.54	3.67	17.15	-48.7	-51.2	24.3	6.02e-01	0	39	0	35651584	69	4700
2026-01-04 01:57:27.27	3.42	17.48	-48.8	-51.4	24.2	6.00e-01	0	39	0	40894464	69	4776
2026-01-04 01:57:30.57	3.11	17.89	-48.6	-51.3	24.2	6.03e-01	0	39	0	46661632	69	4752
2026-01-04 01:57:33.29	2.86	18.23	-48.8	-51.5	24.1	6.02e-01	0	39	0	51904512	69	4862
2026-01-04 01:57:36.63	2.53	18.66	-48.7	-51.5	24.2	6.04e-01	0	39	0	58195968	69	4829
2026-01-04 01:57:39.35	2.26	19.01	-48.7	-51.4	24.2	6.03e-01	0	39	0	63438848	69	4784
2026-01-04 01:57:42.64	1.92	19.44	-48.8	-51.4	24.2	6.01e-01	0	39	0	69730304	69	4787
2026-01-04 01:57:45.37	1.63	19.80	-48.7	-51.2	24.4	6.01e-01	0	39	0	74448896	69	4669
2026-01-04 01:57:48.66	1.27	20.25	-48.7	-51.3	24.4	6.01e-01	0	39	0	80740352	69	4721
2026-01-04 01:57:51.70	0.92	20.67	-48.7	-51.3	24.3	6.04e-01	0	39	0	86507520	69	4730
2026-01-04 01:57:54.99	0.54	21.13	-48.9	-51.6	24.1	6.03e-01	0	39	0	92798976	69	4907
2026-01-04 01:57:57.71	0.21	21.52	-49.0	-51.7	24.0	6.03e-01	0	39	0	97517568	69	4947
2026-01-04 01:58:01.25	359.77	22.03	-49.0	-51.5	24.1	6.01e-01	0	39	0	104333312	69	4843
2026-01-04 01:58:03.97	359.43	22.43	-49.0	-51.5	24.1	6.02e-01	0	39	0	109576192	69	4835
2026-01-04 01:58:07.27	358.99	22.92	-49.1	-51.7	24.0	6.02e-01	0	39	0	115867648	69	4931
2026-01-04 01:58:09.99	358.62	23.34	-49.0	-51.7	24.0	5.99e-01	0	39	0	120586240	69	4972
2026-01-04 01:58:13.64	358.11	23.90	-48.9	-51.8	23.8	6.02e-01	0	39	0	127926272	69	5012
2026-01-04 01:58:16.36	357.71	24.33	-48.9	-51.6	24.1	6.03e-01	0	39	0	132644864	69	4907
2026-01-04 01:58:19.65	357.22	24.85	-48.9	-51.5	24.2	6.01e-01	0	39	0	138936320	69	4816
2026-01-04 01:58:22.56	356.77	25.32	-49.1	-51.7	24.0	6.01e-01	0	39	0	144179200	69	4932
2026-01-04 01:58:25.57	356.28	25.82	-48.9	-51.4	24.3	6.01e-01	0	39	0	149946368	69	4793
2026-01-04 01:58:28.57	355.79	26.32	-48.6	-51.2	24.5	6.03e-01	0	39	0	155713536	69	4667
2026-01-04 01:58:31.58	355.27	26.83	-48.9	-51.5	24.2	6.03e-01	0	39	0	161480704	69	4821
2026-01-04 01:58:34.75	354.71	27.38	-48.9	-51.3	24.4	6.03e-01	0	39	0	167247872	69	4743
2026-01-04 01:58:37.70	354.16	27.90	-48.7	-51.0	24.6	6.05e-01	0	39	0	173015040	69	4590
2026-01-04 01:58:41.09	353.51	28.50	-48.6	-51.0	24.6	6.03e-01	0	39	0	179306496	69	4583
2026-01-04 01:58:43.81	352.98	29.00	-48.5	-50.9	24.7	6.01e-01	0	39	0	184025088	69	4517
2026-01-04 01:58:47.10	352.30	29.60	-48.5	-50.8	24.8	6.03e-01	0	39	0	190316544	69	4488
2026-01-04 01:58:49.82	351.72	30.11	-48.3	-50.8	24.7	6.00e-01	0	39	0	195559424	68	4757
2026-01-04 01:58:53.13	350.99	30.73	-48.1	-50.5	25.0	6.01e-01	0	39	0	201850880	68	4587
2026-01-04 01:58:55.98	350.34	31.28	-48.4	-50.8	24.9	6.02e-01	0	39	0	207093760	68	4720
2026-01-04 01:58:59.27	349.55	31.92	-48.4	-50.8	24.7	6.02e-01	0	39	0	213385216	68	4758
2026-01-04 01:59:02.00	348.87	32.45	-48.6	-51.1	24.6	6.03e-01	0	39	0	218103808	68	4887
2026-01-04 01:59:05.29	348.03	33.11	-48.4	-50.9	24.8	5.99e-01	0	39	0	224395264	68	4784
2026-01-04 01:59:08.01	347.30	33.65	-48.7	-51.3	24.4	6.03e-01	0	39	0	229638144	68	5031
2026-01-04 01:59:11.31	346.38	34.32	-48.8	-51.4	24.2	6.03e-01	0	39	0	235929600	68	5064
2026-01-04 01:59:14.03	345.60	34.88	-49.1	-51.8	24.0	6.00e-01	0	39	0	241172480	68	5303
2026-01-04 01:59:17.32	344.61	35.56	-49.4	-52.1	23.7	6.01e-01	0	39	0	246939648	69	5198
2026-01-04 01:59:20.04	343.76	36.13	-49.7	-52.5	23.2	5.99e-01	0	39	0	252182528	70	5130
2026-01-04 01:59:23.34	342.68	36.82	-49.7	-52.7	23.1	6.02e-01	0	39	0	258473984	70	5276
2026-01-04 01:59:26.06	341.76	37.40	-50.1	-53.2	22.6	6.01e-01	0	39	0	263192576	70	5579
2026-01-04 01:59:29.67	340.48	38.16	-49.9	-52.6	23.3	6.01e-01	0	39	0	270008320	71	4883
2026-01-04 01:59:32.70	339.36	38.80	-50.7	-53.6	22.3	6.01e-01	0	39	0	275775488	72	5193
2026-01-04 01:59:36.00	338.09	39.50	-50.4	-53.3	22.6	6.02e-01	0	39	0	282066944	72	4997
2026-01-04 01:59:38.72	337.00	40.08	-50.5	-53.5	22.4	6.02e-01	0	39	0	287309824	72	5107
2026-01-04 01:59:42.15	335.56	40.80	-50.1	-52.9	23.0	6.02e-01	0	39	0	293601280	72	4792
2026-01-04 01:59:44.95	334.34	41.39	-50.2	-53.3	22.6	6.01e-01	0	39	0	298844160	72	5002
2026-01-04 01:59:48.28	332.83	42.08	-49.8	-52.7	23.2	6.01e-01	0	39	0	305135616	71	4933
2026-01-04 01:59:51.00	331.54	42.63	-49.8	-52.6	23.2	6.02e-01	0	39	0	310378496	71	4906
2026-01-04 01:59:54.31	329.92	43.30	-50.0	-52.8	23.1	6.03e-01	0	39	0	316145664	71	4991
2026-01-04 01:59:57.16	328.46	43.86	-49.7	-52.3	23.5	6.01e-01	0	39	0	321912832	71	4733
2026-01-04 02:00:00.64	326.61	44.53	-49.9	-52.6	23.3	6.01e-01	0	39	0	328204288	71	4877
2026-01-04 02:00:03.35	325.11	45.03	-49.8	-52.4	23.5	6.00e-01	0	39	0	333447168	71	4784
2026-01-04 02:00:06.65	323.23	45.63	-49.9	-52.5	23.2	6.01e-01	0	39	0	339738624	71	4857
2026-01-04 02:00:09.70	321.42	46.15	-49.7	-52.5	23.4	6.02e-01	0	39	0	345505792	70	5125
2026-01-04 02:00:12.61	319.64	46.63	-49.7	-52.4	23.5	6.04e-01	0	39	0	350748672	70	5059
2026-01-04 02:00:15.62	317.74	47.10	-49.9	-52.6	23.3	6.03e-01	0	39	0	356515840	71	4885
2026-01-04 02:00:18.57	315.82	47.52	-49.9	-52.7	23.1	6.01e-01	0	39	0	361758720	70	5267
2026-01-04 02:00:21.87	313.61	47.97	-49.7	-52.3	23.5	6.04e-01	0	39	0	368050176	71	4746
2026-01-04 02:00:24.83	311.57	48.33	-49.9	-52.6	23.3	6.00e-01	0	39	0	373817344	71	4895
2026-01-04 02:00:28.13	309.25	48.69	-50.2	-53.0	23.0	5.99e-01	0	39	0	380108800	71	5104
2026-01-04 02:00:30.84	307.31	48.94	-49.9	-52.4	23.5	6.01e-01	0	39	0	384827392	71	4800
2026-01-04 02:00:34.22	304.84	49.22	-51.0	-54.2	21.7	6.03e-01	0	39	0	391118848	72	5563
2026-01-04 02:00:36.93	302.83	49.40	-49.7	-52.3	23.5	6.05e-01	0	39	0	396361728	70	5015
2026-01-04 02:00:40.22	300.36	49.56	-49.4	-51.9	23.7	6.00e-01	0	39	0	402653184	69	5091
2026-01-04 02:00:43.07	298.20	49.66	-49.4	-51.9	23.2	6.04e-01	0	39	0	407896064	70	4766
2026-01-04 02:00:46.23	295.79	49.72	-50.5	-53.3	22.5	5.99e-01	0	39	0	413663232	71	5286
2026-01-04 02:00:49.09	293.61	49.73	-49.1	-51.6	24.1	6.02e-01	0	39	0	418906112	70	4629
2026-01-04 02:00:52.35	291.12	49.68	-49.4	-51.9	23.6	6.01e-01	0	39	0	425197568	70	4814
2026-01-04 02:00:55.10	289.04	49.60	-49.1	-51.5	24.2	6.02e-01	0	39	0	430440448	70	4596
2026-01-04 02:00:58.39	286.56	49.45	-49.8	-52.5	23.3	6.01e-01	0	39	0	436731904	70	5156
2026-01-04 02:01:01.34	284.36	49.27	-49.6	-52.2	23.6	6.01e-01	0	39	0	441974784	71	4690
2026-01-04 02:01:05.10	281.60	48.97	-49.3	-51.7	24.0	6.01e-01	0	39	0	449314816	70	4703
2026-01-04 02:01:08.04	279.48	48.70	-49.5	-52.2	23.5	5.99e-01	0	39	0	454557696	70	4973
2026-01-04 02:01:11.05	277.36	48.37	-49.4	-51.9	23.9	6.03e-01	0	39	0	460324864	69	5063
2026-01-04 02:01:14.05	275.29	48.01	-49.0	-51.5	24.3	6.05e-01	0	39	0	466092032	69	4831
2026-01-04 02:01:17.06	273.26	47.61	-49.1	-51.6	24.1	5.99e-01	0	39	0	471334912	69	4908
2026-01-04 02:01:20.07	271.29	47.18	-49.0	-51.5	24.2	6.04e-01	0	39	0	477102080	69	4819
2026-01-04 02:01:23.08	269.37	46.72	-49.1	-51.6	24.0	6.03e-01	0	39	0	482869248	69	4914
2026-01-04 02:01:26.09	267.51	46.23	-49.0	-51.4	24.3	6.02e-01	0	39	0	488636416	69	4786
2026-01-04 02:01:29.06	265.74	45.72	-48.8	-51.3	24.4	6.00e-01	0	39	0	493879296	69	4711
2026-01-04 02:01:32.21	263.92	45.16	-49.1	-51.6	24.1	5.99e-01	0	39	0	500170752	69	4914
2026-01-04 02:01:35.30	262.20	44.58	-49.2	-51.7	24.0	6.03e-01	0	39	0	505937920	69	4932
2026-01-04 02:01:38.33	260.57	44.00	-48.7	-51.2	24.5	6.03e-01	0	39	0	511705088	69	4676
2026-01-04 02:01:41.34	259.02	43.41	-49.2	-51.6	24.1	6.01e-01	0	39	0	516947968	69	4926
2026-01-04 02:01:44.35	257.52	42.81	-49.0	-51.5	24.2	6.03e-01	0	39	0	522715136	69	4869
2026-01-04 02:01:47.35	256.08	42.19	-49.4	-51.9	23.8	6.00e-01	0	39	0	528482304	69	5084
2026-01-04 02:01:50.34	254.70	41.57	-49.9	-52.6	23.2	6.02e-01	0	39	0	534249472	70	5200
2026-01-04 02:01:53.49	253.31	40.91	-49.7	-52.2	23.6	6.05e-01	0	39	0	540016640	70	4953
2026-01-04 02:01:56.35	252.10	40.31	-49.9	-52.5	23.3	6.01e-01	0	39	0	545259520	70	5155
2026-01-04 02:01:59.50	250.81	39.64	-50.0	-52.6	23.2	6.03e-01	0	39	0	551026688	70	5192
2026-01-04 02:02:02.37	249.68	39.03	-50.3	-53.1	22.8	6.02e-01	0	39	0	556269568	71	5173
2026-01-04 02:02:05.52	248.50	38.36	-50.4	-53.3	22.6	6.00e-01	0	39	0	562561024	71	5300
2026-01-04 02:02:08.38	247.46	37.75	-50.8	-53.7	22.2	6.02e-01	0	39	0	567803904	72	5250
2026-01-04 02:02:11.53	246.37	37.08	-51.0	-54.0	21.8	6.02e-01	0	39	0	573571072	72	5441
2026-01-04 02:02:14.40	245.41	36.47	-50.6	-53.5	22.3	6.02e-01	0	39	0	579338240	72	5131
2026-01-04 02:02:17.64	244.37	35.79	-50.2	-52.9	23.0	6.02e-01	0	39	0	585105408	72	4798
2026-01-04 02:02:20.61	243.46	35.17	-50.5	-53.4	22.5	6.01e-01	0	39	0	590872576	71	5360
2026-01-04 02:02:24.00	242.46	34.47	-50.1	-52.7	23.1	6.01e-01	0	39	0	597164032	71	4975
2026-01-04 02:02:26.73	241.68	33.91	-49.7	-52.2	23.5	6.03e-01	0	39	0	602406912	71	4697
2026-01-04 02:02:30.02	240.78	33.25	-49.5	-52.0	23.7	6.01e-01	0	39	0	608174080	70	4869
2026-01-04 02:02:32.74	240.07	32.70	-50.2	-52.9	23.0	6.02e-01	0	39	0	613416960	71	5075
2026-01-04 02:02:36.16	239.21	32.02	-49.5	-52.1	23.7	6.02e-01	0	39	0	619708416	71	4605
2026-01-04 02:02:39.21	238.47	31.43	-49.2	-51.7	24.1	6.03e-01	0	39	0	625475584	70	4655
2026-01-04 02:02:42.12	237.79	30.86	-49.7	-52.3	23.6	6.00e-01	0	39	0	631242752	70	4995
2026-01-04 02:02:45.27	237.08	30.26	-49.2	-51.7	24.1	6.00e-01	0	39	0	637009920	70	4684
2026-01-04 02:02:48.21	236.44	29.71	-49.1	-51.6	24.0	6.01e-01	0	39	0	642252800	70	4642
2026-01-04 02:02:51.51	235.76	29.10	-49.4	-52.0	23.8	5.99e-01	0	39	0	648544256	70	4834
2026-01-04 02:02:54.24	235.21	28.60	-49.2	-51.7	23.9	6.01e-01	0	39	0	653787136	70	4684
2026-01-04 02:02:57.53	234.57	28.01	-49.3	-51.9	23.8	6.03e-01	0	39	0	660078592	70	4772
2026-01-04 02:03:00.30	234.05	27.52	-49.2	-51.7	23.9	6.02e-01	0	39	0	665321472	70	4700
2026-01-04 02:03:03.59	233.45	26.94	-49.5	-52.1	23.5	6.02e-01	0	39	0	671088640	70	4911
2026-01-04 02:03:06.47	232.95	26.45	-49.2	-51.8	23.8	6.02e-01	0	39	0	676855808	70	4743
2026-01-04 02:03:09.76	232.39	25.89	-49.5	-52.2	23.4	6.01e-01	0	39	0	682622976	70	4936
2026-01-04 02:03:12.48	231.95	25.44	-49.6	-52.3	23.4	6.02e-01	0	39	0	687865856	70	4988
2026-01-04 02:03:15.77	231.43	24.90	-49.7	-52.2	23.6	6.01e-01	0	39	0	694157312	70	4982
2026-01-04 02:03:18.81	230.97	24.41	-49.8	-52.4	23.3	6.01e-01	0	39	0	699924480	70	5089
2026-01-04 02:03:21.84	230.52	23.93	-49.9	-52.6	23.1	6.02e-01	0	39	0	705691648	70	5168
2026-01-04 02:03:24.84	230.09	23.46	-49.7	-52.3	23.4	6.02e-01	0	39	0	710934528	70	5009
2026-01-04 02:03:27.85	229.67	23.00	-49.5	-52.1	23.6	6.01e-01	0	39	0	716701696	70	4875
2026-01-04 02:03:30.86	229.27	22.54	-49.6	-52.2	23.5	6.05e-01	0	39	0	722468864	70	4966
2026-01-04 02:03:33.86	228.88	22.10	-50.0	-52.7	22.8	6.01e-01	0	39	0	728236032	70	5250
2026-01-04 02:03:36.87	228.50	21.66	-49.7	-52.3	23.4	6.02e-01	0	39	0	733478912	70	5008
2026-01-04 02:03:39.88	228.13	21.22	-49.6	-52.3	23.3	6.00e-01	0	39	0	739246080	70	5013
2026-01-04 02:03:42.90	227.77	20.80	-49.6	-52.2	23.4	6.01e-01	0	39	0	745013248	70	4954
2026-01-04 02:03:45.98	227.41	20.37	-49.4	-52.0	23.7	6.02e-01	0	39	0	750780416	70	4815
2026-01-04 02:03:48.88	227.09	19.97	-49.6	-52.1	23.5	6.03e-01	0	39	0	756023296	70	4922
2026-01-04 02:03:52.03	226.74	19.54	-49.7	-52.3	23.3	6.02e-01	0	39	0	762314752	70	5009
2026-01-04 02:03:54.89	226.44	19.16	-49.7	-52.3	23.4	6.04e-01	0	39	0	767557632	70	5036
2026-01-04 02:03:58.04	226.12	18.75	-49.6	-52.2	23.5	6.01e-01	0	39	0	773324800	70	4975
2026-01-04 02:04:00.91	225.83	18.38	-49.7	-52.3	23.4	5.99e-01	0	39	0	778567680	70	5036
2026-01-04 02:04:04.21	225.51	17.96	-49.8	-52.4	23.3	6.01e-01	0	39	0	784859136	70	5073
2026-01-04 02:04:07.08	225.24	17.60	-49.6	-52.2	23.4	6.00e-01	0	39	0	790626304	70	4967
2026-01-04 02:04:10.56	224.91	17.17	-49.7	-52.3	23.3	6.03e-01	0	39	0	796917760	70	5027
2026-01-04 02:04:13.28	224.67	16.84	-49.7	-52.4	23.3	6.00e-01	0	39	0	802160640	70	5050
2026-01-04 02:04:16.58	224.38	16.44	-49.7	-52.3	23.4	6.00e-01	0	39	0	808452096	70	4997
2026-01-04 02:04:19.29	224.15	16.12	-49.6	-52.3	23.3	6.03e-01	0	39	0	813170688	70	4984
2026-01-04 02:04:22.59	223.88	15.74	-49.6	-52.2	23.3	6.00e-01	0	39	0	819462144	70	4962
2026-01-04 02:04:25.56	223.64	15.40	-49.6	-52.2	23.3	6.02e-01	0	39	0	825229312	70	4974
2026-01-04 02:04:28.85	223.38	15.03	-49.6	-52.3	23.2	6.03e-01	0	39	0	830996480	70	4991
2026-01-04 02:04:31.57	223.17	14.73	-49.6	-52.2	23.2	5.99e-01	0	39	0	836239360	70	4958
2026-01-04 02:04:34.87	222.93	14.36	-49.7	-52.3	23.2	6.03e-01	0	39	0	842530816	70	5033
2026-01-04 02:04:37.72	222.72	14.06	-49.8	-52.4	23.2	6.02e-01	0	39	0	847773696	70	5091
2026-01-04 02:04:40.87	222.49	13.72	-49.8	-52.5	23.2	6.01e-01	0	39	0	853540864	70	5122
2026-01-04 02:04:43.77	222.29	13.41	-49.8	-52.5	23.1	6.03e-01	0	39	0	859308032	70	5103
2026-01-04 02:04:47.05	222.07	13.07	-49.8	-52.5	23.0	6.01e-01	0	39	0	865075200	70	5148
2026-01-04 02:04:50.22	221.86	12.75	-49.8	-52.6	23.0	6.01e-01	0	39	0	871366656	70	5161
2026-01-04 02:04:53.43	221.65	12.42	-49.8	-52.6	23.0	6.02e-01	0	39	0	877133824	70	5166
2026-01-04 02:04:56.30	221.47	12.14	-49.9	-52.7	22.9	6.01e-01	0	39	0	882900992	70	5245
2026-01-04 02:04:59.45	221.28	11.83	-50.1	-52.9	22.7	6.01e-01	0	39	0	888668160	70	5380
2026-01-04 02:05:02.32	221.10	11.55	-50.1	-52.9	22.6	6.04e-01	0	39	0	893911040	70	5394
2026-01-04 02:05:05.47	220.92	11.24	-50.0	-52.8	22.7	6.01e-01	0	39	0	899678208	70	5312
2026-01-04 02:05:08.33	220.75	10.97	-50.0	-53.0	22.5	6.01e-01	0	39	0	905445376	70	5419
2026-01-04 02:05:11.48	220.57	10.68	-49.7	-53.0	22.5	6.00e-01	0	39	0	911212544	70	5412
2026-01-04 02:05:14.36	220.41	10.41	-49.6	-52.8	22.6	5.99e-01	0	39	0	916455424	70	5299
2026-01-04 02:05:17.61	220.24	10.11	-49.8	-52.9	22.6	6.01e-01	0	39	0	922746880	70	5384
2026-01-04 02:05:20.47	220.09	9.85	-49.9	-53.0	22.3	6.05e-01	0	39	0	927989760	70	5456
2026-01-04 02:05:23.61	219.92	9.57	-50.2	-53.3	22.2	5.99e-01	0	39	0	933756928	71	5283
2026-01-04 02:05:26.73	219.77	9.30	-50.0	-53.4	22.0	6.00e-01	0	39	0	939524096	71	5362
2026-01-04 02:05:29.97	219.61	9.01	-48.6	-53.2	22.0	6.03e-01	0	39	0	945815552	69	5918
2026-01-04 02:05:32.87	219.46	8.76	-56.9	-77.1	3.8	7.45e-01	0	39	104	947388416	84	38784
2026-01-04 02:05:36.03	219.31	8.49	-57.4	-77.6	3.8	7.44e-01	0	39	104	947388416	85	38795
2026-01-04 02:05:38.89	219.18	8.25	-57.4	-77.4	3.8	7.47e-01	0	39	104	947388416	85	38077
2026-01-04 02:05:42.05	219.04	7.98	-57.3	-77.6	3.8	7.48e-01	0	39	104	947388416	85	38718
2026-01-04 02:05:44.91	218.91	7.75	-57.3	-77.5	3.8	7.48e-01	0	39	104	947388416	85	38481
2026-01-04 02:05:48.07	218.77	7.49	-57.2	-77.7	3.8	7.41e-01	0	39	104	947388416	85	39382
2026-01-04 02:05:50.94	218.64	7.25	-56.7	-77.5	3.8	7.45e-01	0	39	104	947388416	85	38273
2026-01-04 02:05:54.10	218.51	7.00	-56.5	-77.5	3.8	7.47e-01	0	39	104	947388416	85	38329
2026-01-04 02:05:56.97	218.39	6.77	-56.5	-77.4	3.8	7.45e-01	0	39	104	947388416	85	38111
2026-01-04 02:06:00.12	218.26	6.52	-56.6	-77.5	3.8	7.43e-01	0	39	104	947388416	85	38637
2026-01-04 02:06:02.99	218.15	6.30	-56.5	-77.4	3.8	7.44e-01	0	39	104	947388416	84	40178
2026-01-04 02:06:06.15	218.02	6.06	-56.5	-77.4	3.8	7.46e-01	0	39	104	947388416	84	40291
2026-01-04 02:06:09.02	217.91	5.84	-56.5	-77.3	3.8	7.42e-01	0	39	104	947388416	84	39998
2026-01-04 02:06:12.18	217.79	5.60	-56.5	-77.4	3.8	7.44e-01	0	39	104	947388416	84	40202
2026-01-04 02:06:15.05	217.69	5.38	-56.5	-77.4	3.8	7.46e-01	0	39	104	947388416	84	40161
2026-01-04 02:06:18.20	217.57	5.15	-56.5	-77.4	3.8	7.44e-01	0	39	104	947388416	84	40311

#Closed at: 2026-01-04 02:06:21
#Recorded file [947 MB]: D:/Data/31040_260104_045514.dat