passes_logs/2026/01/04/T1/T1__20260104_043509_FENGYUN_3G_rec.log

#Pass ID: 20260104_043509_FENGYUN 3G
#Satellite: FENGYUN 3G
#Configuration: FENGYUN 3G
#almurnet v.1.7.20251203
#Start time: 2026-01-04 04:35:11

#Version: 2.0.20230620
#Station: T1
#Location: 37.570604 lon 55.790049 lat
#TLE: 1 56232U 23055A   26003.53327032  .00047684  00000+0  75687-3 0  9993
#TLE: 2 56232  49.9936 115.0642 0004181 334.2418  25.8340 15.52822756154418

#Time	Az	El	Level	Level2	SNR	BER	BlckErr	Temp	State	Recorded	gain1	gain2
2026-01-04 04:35:11.96	254.65	5.27	-54.0	-72.9	3.8	8.47e-01	0	40	0	0	78	33999
2026-01-04 04:35:13.97	254.48	5.42	-53.7	-72.7	3.8	8.47e-01	0	41	104	0	79	31395
2026-01-04 04:35:15.97	254.30	5.57	-53.8	-72.8	3.8	8.47e-01	0	40	104	0	79	31551
2026-01-04 04:35:17.98	254.12	5.73	-53.6	-72.5	3.8	8.47e-01	0	41	104	0	79	30555
2026-01-04 04:35:19.99	253.93	5.88	-53.8	-72.5	3.8	8.47e-01	0	41	104	0	79	30583
2026-01-04 04:35:22.00	253.74	6.04	-53.8	-72.3	3.8	8.46e-01	0	41	104	0	79	29925
2026-01-04 04:35:24.01	253.55	6.20	-53.8	-72.1	3.8	8.47e-01	0	41	104	0	79	29177
2026-01-04 04:35:26.02	253.36	6.36	-53.7	-72.0	3.8	8.47e-01	0	41	104	0	79	28758
2026-01-04 04:35:28.02	253.16	6.52	-53.9	-72.1	3.8	8.47e-01	0	41	104	0	79	29121
2026-01-04 04:35:30.04	252.96	6.69	-53.9	-72.1	3.8	8.47e-01	0	41	104	0	79	29193
2026-01-04 04:35:32.04	252.75	6.85	-53.7	-72.1	3.8	8.48e-01	0	41	104	0	79	29333
2026-01-04 04:35:34.05	252.55	7.02	-53.7	-72.5	3.8	8.46e-01	0	41	104	0	79	30451
2026-01-04 04:35:36.06	252.34	7.18	-53.6	-72.6	3.8	8.46e-01	0	41	104	0	79	31081
2026-01-04 04:35:38.07	252.12	7.35	-53.6	-72.7	3.8	8.47e-01	0	41	104	0	79	31226
2026-01-04 04:35:40.08	251.91	7.52	-53.7	-71.7	3.8	8.47e-01	0	42	104	0	79	27928
2026-01-04 04:35:42.09	251.68	7.69	-53.7	-70.1	3.9	8.46e-01	0	42	104	0	79	23153
2026-01-04 04:35:44.10	251.46	7.86	-53.6	-69.4	4.1	8.40e-01	0	41	0	0	79	21391
2026-01-04 04:35:46.11	251.23	8.04	-53.7	-70.2	4.0	8.40e-01	0	42	0	0	79	23432
2026-01-04 04:35:48.12	251.00	8.21	-53.8	-71.1	3.8	8.45e-01	0	42	104	0	79	26124
2026-01-04 04:35:50.13	250.76	8.39	-53.6	-70.6	3.8	8.46e-01	0	42	104	0	79	24689
2026-01-04 04:35:52.13	250.52	8.57	-53.7	-71.4	3.8	8.46e-01	0	42	104	0	79	26922
2026-01-04 04:35:54.14	250.28	8.75	-53.7	-68.7	4.3	8.46e-01	0	42	0	0	79	19794
2026-01-04 04:35:56.15	250.03	8.93	-53.1	-63.0	8.3	5.47e-01	0	42	0	0	78	10880
2026-01-04 04:35:58.16	249.78	9.11	-52.1	-58.6	12.9	4.82e-02	0	42	0	0	76	7357
2026-01-04 04:36:00.14	249.52	9.29	-53.7	-66.9	5.1	9.48e-02	0	42	0	0	78	16941
2026-01-04 04:36:02.13	249.27	9.48	-51.2	-56.0	15.7	3.36e-01	0	42	0	0	74	6115
2026-01-04 04:36:04.14	249.00	9.67	-50.6	-54.7	17.2	1.37e-05	0	42	0	0	73	5572
2026-01-04 04:36:06.15	248.73	9.86	-48.6	-51.8	20.0	0.00e+00	0	42	0	0	69	5002
2026-01-04 04:36:08.15	248.45	10.05	-47.3	-50.2	21.3	0.00e+00	0	42	0	0	66	4948
2026-01-04 04:36:10.16	248.17	10.24	-47.2	-50.0	21.4	0.00e+00	0	42	0	0	66	4868
2026-01-04 04:36:12.17	247.89	10.43	-46.7	-49.4	21.9	0.00e+00	0	42	0	0	65	4789
2026-01-04 04:36:14.17	247.60	10.63	-46.1	-48.7	22.7	0.00e+00	0	42	0	0	63	4947
2026-01-04 04:36:16.35	247.27	10.84	-46.2	-48.7	22.7	0.00e+00	0	42	0	0	63	4959
2026-01-04 04:36:18.36	246.97	11.04	-45.9	-48.4	22.9	0.00e+00	0	42	0	0	63	4775
2026-01-04 04:36:20.37	246.66	11.25	-45.2	-47.4	23.8	0.00e+00	0	42	0	0	62	4535
2026-01-04 04:36:22.37	246.35	11.45	-44.7	-46.9	24.3	0.00e+00	0	42	0	0	61	4516
2026-01-04 04:36:24.47	246.02	11.66	-44.3	-46.5	24.6	0.00e+00	0	42	0	0	60	4566
2026-01-04 04:36:26.48	245.69	11.87	-44.6	-46.8	24.5	0.00e+00	0	42	0	0	60	4714
2026-01-04 04:36:28.77	245.31	12.11	-44.8	-47.0	24.4	0.00e+00	0	42	0	0	60	4856
2026-01-04 04:36:30.88	244.96	12.33	-44.9	-47.1	24.2	0.00e+00	0	42	0	0	60	4887
2026-01-04 04:36:32.78	244.63	12.53	-44.4	-46.5	24.6	0.00e+00	0	42	0	0	60	4592
2026-01-04 04:36:34.79	244.28	12.75	-44.2	-46.3	24.7	0.00e+00	0	42	0	0	60	4487
2026-01-04 04:36:36.79	243.92	12.97	-44.1	-46.2	24.8	0.00e+00	0	42	0	0	60	4406
2026-01-04 04:36:38.85	243.54	13.19	-44.2	-46.4	24.7	0.00e+00	0	42	0	0	60	4494
2026-01-04 04:36:40.80	243.18	13.41	-44.5	-46.6	24.5	0.00e+00	0	42	0	0	60	4640
2026-01-04 04:36:42.81	242.80	13.63	-44.5	-46.7	24.5	0.00e+00	0	42	0	0	60	4682
2026-01-04 04:36:44.82	242.41	13.85	-44.2	-46.3	24.8	0.00e+00	0	42	0	0	60	4486
2026-01-04 04:36:46.82	242.02	14.08	-44.1	-46.2	24.9	0.00e+00	0	42	0	0	60	4425
2026-01-04 04:36:48.83	241.61	14.31	-44.2	-46.3	24.8	0.00e+00	0	43	0	0	60	4472
2026-01-04 04:36:50.83	241.20	14.54	-44.2	-46.4	24.7	0.00e+00	0	42	0	0	60	4522
2026-01-04 04:36:52.95	240.76	14.79	-44.3	-46.5	24.7	0.00e+00	0	42	0	0	60	4568
2026-01-04 04:36:54.99	240.32	15.02	-43.9	-46.0	25.2	0.00e+00	0	42	0	0	59	4576
2026-01-04 04:36:57.00	239.88	15.26	-43.4	-45.4	25.6	0.00e+00	0	42	0	0	58	4528
2026-01-04 04:36:59.00	239.44	15.50	-43.4	-45.4	25.6	0.00e+00	0	43	0	0	58	4540
2026-01-04 04:37:01.01	238.98	15.74	-43.3	-45.4	25.6	0.00e+00	0	42	0	0	58	4509
2026-01-04 04:37:03.01	238.52	15.98	-43.0	-45.0	25.9	0.00e+00	0	42	0	0	58	4313
2026-01-04 04:37:05.02	238.04	16.23	-42.8	-44.8	26.0	0.00e+00	0	42	0	0	57	4456
2026-01-04 04:37:07.18	237.52	16.49	-43.0	-45.1	25.8	0.00e+00	0	42	0	0	57	4599
2026-01-04 04:37:09.18	237.02	16.74	-43.1	-45.2	25.8	0.00e+00	0	43	0	0	57	4654
2026-01-04 04:37:11.19	236.51	16.99	-43.1	-45.1	25.8	0.00e+00	0	42	0	0	57	4648
2026-01-04 04:37:13.14	236.01	17.23	-43.2	-45.2	25.7	0.00e+00	0	42	0	0	57	4698
2026-01-04 04:37:15.15	235.48	17.49	-43.0	-45.0	25.9	0.00e+00	0	43	0	0	57	4579
2026-01-04 04:37:17.16	234.94	17.74	-42.7	-44.7	26.0	0.00e+00	0	43	0	0	57	4418
2026-01-04 04:37:19.16	234.40	18.00	-42.6	-44.6	26.2	0.00e+00	0	43	0	0	57	4367
2026-01-04 04:37:21.17	233.83	18.25	-42.7	-44.7	26.1	0.00e+00	0	43	0	0	57	4393
2026-01-04 04:37:23.18	233.26	18.51	-42.8	-44.8	26.1	0.00e+00	0	43	0	0	57	4451
2026-01-04 04:37:25.28	232.65	18.79	-42.7	-44.6	26.2	0.00e+00	0	42	0	0	57	4386
2026-01-04 04:37:27.49	231.99	19.07	-42.5	-44.4	26.4	0.00e+00	0	43	0	0	56	4522
2026-01-04 04:37:29.50	231.37	19.34	-42.3	-44.2	26.5	0.00e+00	0	43	0	0	56	4436
2026-01-04 04:37:31.78	230.66	19.64	-42.3	-44.2	26.5	0.00e+00	0	43	0	0	56	4433
2026-01-04 04:37:33.84	230.00	19.91	-42.5	-44.5	26.4	0.00e+00	0	43	0	0	56	4562
2026-01-04 04:37:35.84	229.35	20.17	-42.5	-44.5	26.4	0.00e+00	0	42	0	0	56	4547
2026-01-04 04:37:37.85	228.68	20.44	-42.7	-44.7	26.1	0.00e+00	0	43	0	0	56	4663
2026-01-04 04:37:39.86	228.00	20.70	-42.5	-44.4	26.3	0.00e+00	0	43	0	0	56	4533
2026-01-04 04:37:41.87	227.30	20.97	-42.2	-44.1	26.6	0.00e+00	0	43	0	0	56	4378
2026-01-04 04:37:43.88	226.59	21.23	-42.4	-44.4	26.4	0.00e+00	0	43	0	0	56	4522
2026-01-04 04:37:45.88	225.86	21.50	-42.1	-44.0	26.6	0.00e+00	0	43	0	0	56	4339
2026-01-04 04:37:47.89	225.12	21.76	-42.0	-43.9	26.7	0.00e+00	0	43	0	0	56	4277
2026-01-04 04:37:49.90	224.36	22.03	-41.9	-43.8	26.7	0.00e+00	0	43	0	0	55	4448
2026-01-04 04:37:51.90	223.59	22.29	-41.9	-43.8	26.7	0.00e+00	0	43	0	0	55	4481
2026-01-04 04:37:54.17	222.70	22.58	-41.5	-43.4	27.0	0.00e+00	0	43	0	0	55	4262
2026-01-04 04:37:56.23	221.88	22.85	-41.4	-43.3	27.0	0.00e+00	0	43	0	0	54	4454
2026-01-04 04:37:58.24	221.05	23.11	-41.1	-43.0	27.2	0.00e+00	0	43	0	0	54	4320
2026-01-04 04:38:00.24	220.22	23.36	-41.3	-43.1	27.1	0.00e+00	0	43	0	0	54	4388
2026-01-04 04:38:02.25	219.36	23.61	-41.2	-43.1	27.1	0.00e+00	0	43	0	0	54	4346
2026-01-04 04:38:04.25	218.50	23.86	-41.3	-43.2	27.1	0.00e+00	0	43	0	0	54	4414
2026-01-04 04:38:06.26	217.61	24.11	-41.4	-43.3	27.1	0.00e+00	0	43	0	0	54	4464
2026-01-04 04:38:08.27	216.71	24.35	-41.7	-43.6	26.7	0.00e+00	0	43	0	0	54	4632
2026-01-04 04:38:10.29	215.78	24.60	-41.4	-43.3	27.0	0.00e+00	0	43	0	0	54	4473
2026-01-04 04:38:12.27	214.86	24.83	-41.3	-43.2	27.0	0.00e+00	0	43	0	0	54	4401
2026-01-04 04:38:14.27	213.92	25.06	-41.0	-42.8	27.4	0.00e+00	0	43	0	0	53	4484
2026-01-04 04:38:16.27	212.95	25.28	-41.0	-42.8	27.3	0.00e+00	0	43	0	0	53	4485
2026-01-04 04:38:18.28	211.97	25.50	-40.3	-42.2	27.8	0.00e+00	0	43	0	0	52	4407
2026-01-04 04:38:20.24	210.99	25.71	-40.6	-42.5	27.6	0.00e+00	0	43	0	0	52	4574
2026-01-04 04:38:22.24	209.99	25.92	-41.2	-43.1	27.1	0.00e+00	0	43	0	0	53	4628
2026-01-04 04:38:24.25	208.96	26.12	-40.9	-42.8	27.3	0.00e+00	0	43	0	0	53	4475
2026-01-04 04:38:26.25	207.92	26.31	-40.5	-42.4	27.6	0.00e+00	0	43	0	0	53	4261
2026-01-04 04:38:28.26	206.86	26.50	-40.2	-42.1	27.8	0.00e+00	0	43	0	0	52	4348
2026-01-04 04:38:30.26	205.79	26.67	-40.6	-42.4	27.6	0.00e+00	0	43	0	0	52	4540
2026-01-04 04:38:32.33	204.67	26.85	-40.3	-42.2	27.8	0.00e+00	0	43	0	0	52	4396
2026-01-04 04:38:34.36	203.56	27.01	-40.0	-41.8	27.9	0.00e+00	0	43	0	0	52	4225
2026-01-04 04:38:36.37	202.45	27.16	-40.5	-42.3	27.6	0.00e+00	0	43	0	0	52	4481
2026-01-04 04:38:38.37	201.34	27.30	-40.2	-42.0	27.8	0.00e+00	0	43	0	0	52	4329
2026-01-04 04:38:40.38	200.20	27.43	-40.6	-42.4	27.7	0.00e+00	0	43	0	0	52	4516
2026-01-04 04:38:42.48	199.01	27.56	-41.0	-42.9	27.3	0.00e+00	0	43	0	0	52	4775
2026-01-04 04:38:44.67	197.75	27.68	-40.8	-42.6	27.5	0.00e+00	0	43	0	0	52	4635
2026-01-04 04:38:46.68	196.59	27.77	-40.6	-42.5	27.6	0.00e+00	0	43	0	0	52	4564
2026-01-04 04:38:48.68	195.42	27.86	-41.0	-42.9	27.3	0.00e+00	0	43	0	0	52	4776
2026-01-04 04:38:50.72	194.23	27.94	-41.2	-43.1	27.2	0.00e+00	0	43	0	0	53	4613
2026-01-04 04:38:52.72	193.05	28.00	-40.9	-42.8	27.5	0.00e+00	0	43	0	0	53	4446
2026-01-04 04:38:54.73	191.86	28.05	-40.7	-42.6	27.6	0.00e+00	0	43	0	0	53	4357
2026-01-04 04:38:56.74	190.67	28.09	-40.5	-42.3	27.5	0.00e+00	0	43	0	0	52	4477
2026-01-04 04:38:58.74	189.48	28.11	-40.6	-42.4	27.7	0.00e+00	0	43	0	0	52	4530
2026-01-04 04:39:00.73	188.30	28.13	-40.7	-42.5	27.6	0.00e+00	0	43	0	0	52	4584
2026-01-04 04:39:02.94	186.98	28.13	-40.4	-42.2	27.7	0.00e+00	0	43	0	0	52	4441
2026-01-04 04:39:05.01	185.75	28.12	-40.8	-42.6	27.5	0.00e+00	0	43	0	0	52	4647
2026-01-04 04:39:07.02	184.56	28.09	-41.1	-42.9	27.3	0.00e+00	0	43	0	0	53	4541
2026-01-04 04:39:09.02	183.37	28.05	-40.6	-42.5	27.6	0.00e+00	0	43	0	0	53	4306
2026-01-04 04:39:11.03	182.18	28.00	-40.7	-42.6	27.4	0.00e+00	0	43	0	0	53	4353
2026-01-04 04:39:13.04	181.00	27.94	-40.4	-42.2	27.7	0.00e+00	0	43	0	0	52	4420
2026-01-04 04:39:15.09	179.80	27.87	-40.4	-42.3	27.7	0.00e+00	0	43	0	0	52	4444
2026-01-04 04:39:17.27	178.53	27.77	-40.7	-42.6	27.5	0.00e+00	0	43	0	0	52	4627
2026-01-04 04:39:20.12	176.88	27.63	-41.0	-42.9	27.3	0.00e+00	0	43	0	0	52	4772
2026-01-04 04:39:22.12	175.74	27.52	-41.2	-43.1	27.1	0.00e+00	0	43	0	0	53	4620
2026-01-04 04:39:24.05	174.64	27.40	-40.7	-42.5	27.5	0.00e+00	0	43	0	0	52	4586
2026-01-04 04:39:26.18	173.44	27.26	-40.4	-42.2	27.7	0.00e+00	0	43	0	0	52	4420
2026-01-04 04:39:28.26	172.28	27.11	-41.2	-43.1	27.3	0.00e+00	0	43	0	0	52	4879
2026-01-04 04:39:30.19	171.22	26.96	-41.3	-43.3	27.0	0.00e+00	0	43	0	0	53	4713
2026-01-04 04:39:32.20	170.12	26.80	-40.8	-42.7	27.4	0.00e+00	0	43	0	0	53	4422
2026-01-04 04:39:34.20	169.05	26.63	-40.6	-42.5	27.5	0.00e+00	0	43	0	0	53	4299
2026-01-04 04:39:36.21	167.98	26.45	-40.4	-42.2	27.7	0.00e+00	0	43	0	0	52	4441
2026-01-04 04:39:38.28	166.89	26.26	-40.5	-42.4	27.7	0.00e+00	0	43	0	0	52	4508
2026-01-04 04:39:40.35	165.82	26.05	-40.8	-42.7	27.5	0.00e+00	0	43	0	0	52	4663
2026-01-04 04:39:42.42	164.77	25.84	-41.2	-43.1	27.2	0.00e+00	0	43	0	0	53	4638
2026-01-04 04:39:44.50	163.73	25.63	-40.6	-42.5	27.6	0.00e+00	0	43	0	0	53	4293
2026-01-04 04:39:46.59	162.70	25.40	-41.1	-42.9	27.4	0.00e+00	0	43	0	0	53	4535
2026-01-04 04:39:48.59	161.72	25.18	-40.9	-42.8	27.4	0.00e+00	0	43	0	0	53	4471
2026-01-04 04:39:50.60	160.76	24.95	-40.4	-42.3	27.7	0.00e+00	0	43	0	0	52	4446
2026-01-04 04:39:52.62	159.82	24.72	-40.9	-42.8	27.4	0.00e+00	0	43	0	0	52	4744
2026-01-04 04:39:54.63	158.89	24.48	-40.8	-42.7	27.4	0.00e+00	0	43	0	0	52	4659
2026-01-04 04:39:56.90	157.86	24.21	-40.9	-42.8	27.3	0.00e+00	0	43	0	0	52	4720
2026-01-04 04:39:58.97	156.94	23.96	-40.7	-42.5	27.5	0.00e+00	0	43	0	0	52	4589
2026-01-04 04:40:00.97	156.07	23.71	-41.1	-43.0	27.3	0.00e+00	0	43	0	0	52	4844
2026-01-04 04:40:02.98	155.21	23.46	-41.1	-43.0	27.2	0.00e+00	0	43	0	0	53	4550
2026-01-04 04:40:04.98	154.37	23.20	-40.7	-42.5	27.5	0.00e+00	0	43	0	0	53	4330
2026-01-04 04:40:06.99	153.54	22.94	-40.8	-42.6	27.4	0.00e+00	0	43	0	0	53	4384
2026-01-04 04:40:08.99	152.73	22.69	-41.2	-43.1	27.1	0.00e+00	0	43	0	0	53	4601
2026-01-04 04:40:10.99	151.94	22.43	-41.4	-43.4	27.0	0.00e+00	0	43	0	0	53	4761
2026-01-04 04:40:13.00	151.16	22.17	-41.3	-43.2	27.0	0.00e+00	0	43	0	0	53	4687
2026-01-04 04:40:15.00	150.40	21.90	-41.1	-43.0	27.2	0.00e+00	0	43	0	0	53	4561
2026-01-04 04:40:17.01	149.65	21.64	-41.5	-43.5	26.8	0.00e+00	0	43	0	0	53	4833
2026-01-04 04:40:19.01	148.92	21.38	-41.8	-43.7	26.7	0.00e+00	0	43	0	0	54	4687
2026-01-04 04:40:21.07	148.18	21.10	-41.4	-43.3	27.0	0.00e+00	0	43	0	0	54	4461
2026-01-04 04:40:23.25	147.42	20.82	-41.7	-43.7	26.8	0.00e+00	0	43	0	0	54	4660
2026-01-04 04:40:25.61	146.61	20.50	-42.1	-44.1	26.5	0.00e+00	0	43	0	0	54	4889
2026-01-04 04:40:27.77	145.88	20.22	-41.8	-43.8	26.7	0.00e+00	0	43	0	0	54	4722
2026-01-04 04:40:29.95	145.17	19.93	-41.9	-43.9	26.6	0.00e+00	0	43	0	0	54	4782
2026-01-04 04:40:32.11	144.48	19.65	-41.9	-43.9	26.6	0.00e+00	0	43	0	0	54	4792
2026-01-04 04:40:34.28	143.80	19.36	-41.9	-43.9	26.5	0.00e+00	0	43	0	0	54	4763
2026-01-04 04:40:36.49	143.13	19.07	-42.3	-44.2	26.2	0.00e+00	0	43	0	0	55	4700
2026-01-04 04:40:38.70	142.47	18.79	-42.0	-43.9	26.5	0.00e+00	0	43	0	0	55	4539
2026-01-04 04:40:41.22	141.73	18.46	-41.9	-43.9	26.6	0.00e+00	0	43	0	0	55	4495
2026-01-04 04:40:43.52	141.08	18.16	-42.5	-44.4	26.1	0.00e+00	0	43	0	0	55	4811
2026-01-04 04:40:45.82	140.44	17.87	-42.4	-44.4	26.2	0.00e+00	0	43	0	0	55	4761
2026-01-04 04:40:48.07	139.83	17.58	-42.6	-44.6	26.0	0.00e+00	0	43	0	0	55	4918
2026-01-04 04:40:50.11	139.29	17.33	-43.0	-44.9	25.9	0.00e+00	0	43	0	0	56	4813
2026-01-04 04:40:52.11	138.78	17.08	-42.6	-44.6	26.1	0.00e+00	0	43	0	0	56	4634
2026-01-04 04:40:54.40	138.19	16.79	-42.8	-44.8	25.9	0.00e+00	0	43	0	0	56	4737
2026-01-04 04:40:56.57	137.66	16.52	-43.1	-45.1	25.8	0.00e+00	0	43	0	0	56	4919
2026-01-04 04:40:58.91	137.09	16.24	-42.6	-44.6	26.0	0.00e+00	0	43	0	0	56	4635
2026-01-04 04:41:01.06	136.58	15.97	-42.6	-44.6	26.1	0.00e+00	0	43	0	0	56	4631
2026-01-04 04:41:03.27	136.07	15.71	-43.5	-45.5	25.4	0.00e+00	0	43	0	0	57	4853
2026-01-04 04:41:05.50	135.57	15.44	-44.1	-46.2	24.8	0.00e+00	0	43	0	0	58	4968
2026-01-04 04:41:07.50	135.12	15.20	-44.3	-46.4	25.0	0.00e+00	0	43	0	0	59	4769
2026-01-04 04:41:09.51	134.69	14.97	-44.1	-46.2	25.0	0.00e+00	0	43	0	0	59	4699
2026-01-04 04:41:11.51	134.26	14.73	-43.3	-45.3	25.7	0.00e+00	0	43	0	0	58	4470
2026-01-04 04:41:13.61	133.82	14.49	-43.7	-45.7	25.3	0.00e+00	0	43	0	0	58	4696
2026-01-04 04:41:15.81	133.37	14.24	-44.3	-46.4	24.8	0.00e+00	0	43	0	0	59	4774
2026-01-04 04:41:17.81	132.97	14.01	-44.5	-46.7	24.5	0.00e+00	0	43	0	0	59	4940
2026-01-04 04:41:19.82	132.58	13.78	-44.5	-46.7	24.5	0.00e+00	0	43	0	0	60	4675
2026-01-04 04:41:21.97	132.17	13.54	-44.4	-46.5	24.6	0.00e+00	0	43	0	0	60	4575
2026-01-04 04:41:24.21	131.75	13.30	-44.1	-46.2	24.8	0.00e+00	0	43	0	0	60	4423
2026-01-04 04:41:26.25	131.37	13.07	-44.3	-46.4	24.6	0.00e+00	0	43	0	0	60	4537
2026-01-04 04:41:28.25	131.01	12.86	-44.8	-47.0	24.2	0.00e+00	0	43	0	0	60	4836
2026-01-04 04:41:30.26	130.66	12.64	-45.0	-47.2	24.0	0.00e+00	0	43	0	0	61	4678
2026-01-04 04:41:32.27	130.31	12.43	-44.9	-47.1	24.0	0.00e+00	0	43	0	0	61	4650
2026-01-04 04:41:34.28	129.96	12.21	-45.0	-47.2	23.9	0.00e+00	0	43	0	0	61	4692
2026-01-04 04:41:36.30	129.63	12.00	-45.0	-47.2	24.0	0.00e+00	0	43	0	0	61	4684
2026-01-04 04:41:38.37	129.29	11.79	-45.1	-47.4	23.9	0.00e+00	0	43	0	0	61	4771
2026-01-04 04:41:40.40	128.96	11.58	-45.5	-47.8	23.4	0.00e+00	0	43	0	0	61	5029
2026-01-04 04:41:42.63	128.61	11.35	-45.7	-48.1	23.2	0.00e+00	0	43	0	0	62	4872
2026-01-04 04:41:44.64	128.30	11.15	-45.6	-47.9	23.3	0.00e+00	0	43	0	0	62	4814
2026-01-04 04:41:46.65	127.99	10.95	-45.7	-48.0	23.2	0.00e+00	0	43	0	0	62	4861
2026-01-04 04:41:48.66	127.69	10.75	-45.7	-48.0	23.2	0.00e+00	0	43	0	0	62	4847
2026-01-04 04:41:50.66	127.40	10.55	-45.6	-47.9	23.2	0.00e+00	0	43	0	0	62	4807
2026-01-04 04:41:52.67	127.11	10.36	-45.2	-47.5	23.6	0.00e+00	0	43	0	0	62	4564
2026-01-04 04:41:54.73	126.82	10.16	-45.2	-47.5	23.7	0.00e+00	0	43	0	0	62	4565
2026-01-04 04:41:56.74	126.54	9.97	-45.5	-47.9	23.3	0.00e+00	0	43	0	0	62	4761
2026-01-04 04:41:58.75	126.27	9.78	-46.0	-48.4	22.8	0.00e+00	0	43	0	0	62	5099
2026-01-04 04:42:00.75	126.00	9.59	-46.4	-48.9	22.4	0.00e+00	0	43	0	0	63	5098
2026-01-04 04:42:02.75	125.74	9.40	-46.6	-49.1	22.1	0.00e+00	0	43	0	0	64	4909
2026-01-04 04:42:04.76	125.48	9.22	-46.6	-49.2	22.0	0.00e+00	0	43	0	0	64	4947
2026-01-04 04:42:06.70	125.23	9.04	-46.5	-49.0	22.1	0.00e+00	0	43	0	0	64	4844
2026-01-04 04:42:08.61	124.99	8.87	-54.2	-72.4	3.8	4.02e-01	0	43	104	0	79	30100
2026-01-04 04:42:10.62	124.75	8.69	-54.4	-73.2	3.8	8.48e-01	0	43	104	0	79	33075
2026-01-04 04:42:12.63	124.50	8.51	-54.3	-73.2	3.8	8.46e-01	0	43	104	0	79	33277
2026-01-04 04:42:14.64	124.27	8.33	-54.5	-73.3	3.8	8.46e-01	0	43	104	0	79	33592
2026-01-04 04:42:16.65	124.03	8.15	-54.4	-73.4	3.8	8.47e-01	0	43	104	0	79	33946
2026-01-04 04:42:18.66	123.80	7.98	-54.5	-73.4	3.8	8.46e-01	0	43	104	0	80	32012
2026-01-04 04:42:20.66	123.57	7.81	-54.4	-73.4	3.8	8.47e-01	0	43	104	0	80	32065
2026-01-04 04:42:22.67	123.35	7.63	-54.3	-73.3	3.8	8.47e-01	0	43	104	0	80	31810
2026-01-04 04:42:24.68	123.13	7.46	-54.3	-73.4	3.8	8.47e-01	0	43	104	0	80	32051
2026-01-04 04:42:26.69	122.91	7.29	-54.2	-73.4	3.8	8.47e-01	0	43	104	0	80	32038
2026-01-04 04:42:28.70	122.70	7.13	-54.3	-73.4	3.8	8.47e-01	0	43	104	0	80	31996
2026-01-04 04:42:30.71	122.49	6.96	-54.2	-73.4	3.8	8.48e-01	0	43	104	0	80	31894
2026-01-04 04:42:32.72	122.29	6.80	-54.2	-73.3	3.8	8.48e-01	0	43	104	0	80	31706
2026-01-04 04:42:34.72	122.09	6.63	-54.3	-73.4	3.8	8.49e-01	0	43	104	0	80	31867
2026-01-04 04:42:36.73	121.89	6.47	-54.2	-73.3	3.8	8.47e-01	0	43	104	0	80	31473
2026-01-04 04:42:38.74	121.69	6.31	-54.2	-73.3	3.8	8.46e-01	0	43	104	0	80	31516
2026-01-04 04:42:40.75	121.50	6.15	-54.1	-73.2	3.8	8.47e-01	0	43	104	0	80	31349
2026-01-04 04:42:42.76	121.31	5.99	-54.1	-73.3	3.8	8.47e-01	0	43	104	0	80	31452
2026-01-04 04:42:44.77	121.12	5.83	-54.2	-73.3	3.8	8.47e-01	0	43	104	0	80	31653
2026-01-04 04:42:46.78	120.93	5.68	-54.2	-73.4	3.8	8.47e-01	0	43	104	0	80	31849
2026-01-04 04:42:48.78	120.75	5.52	-54.2	-73.3	3.8	8.47e-01	0	43	104	0	80	31710
2026-01-04 04:42:50.79	120.57	5.37	-54.2	-73.3	3.8	8.46e-01	0	43	104	0	80	31538
2026-01-04 04:42:52.80	120.40	5.22	-54.2	-73.3	3.8	8.47e-01	0	43	104	0	80	31596
2026-01-04 04:42:54.81	120.22	5.07	-54.1	-73.2	3.8	8.46e-01	0	43	104	0	80	31219
2026-01-04 04:42:56.82	120.05	4.92	-54.1	-73.2	3.8	8.45e-01	0	43	104	0	80	31311

#Closed at: 2026-01-04 04:42:58
#Recorded file [0 MB]: D:/Data/31040_260104_073511.dat