passes_logs/2026/01/04/T1/T1__20260104_001752_AQUA_rec.log

#Pass ID: 20260104_001752_AQUA
#Satellite: AQUA
#Configuration: AQUA
#almurnet v.1.7.20251203
#Start time: 2026-01-04 00:17:52

#Version: 2.0.20230620
#Station: T1
#Location: 37.570604 lon 55.790049 lat
#TLE: 1 27424U 02022A   25365.92641127  .00002078  00000+0  42628-3 0  9999
#TLE: 2 27424  98.4058 327.1196 0001962  94.7781 340.6230 14.61783896258835

#Time	Az	El	Level	Level2	SNR	BER	BlckErr	Temp	State	Recorded	gain1	gain2
2026-01-04 00:17:52.77	26.63	5.00	-54.4	-76.0	3.8	7.51e-01	0	40	0	0	80	43038
2026-01-04 00:17:55.78	26.86	5.20	-54.6	-76.1	3.8	7.47e-01	0	41	104	0	79	46503
2026-01-04 00:17:58.79	27.09	5.40	-54.5	-76.1	3.8	7.47e-01	0	41	104	0	79	46065
2026-01-04 00:18:01.81	27.32	5.61	-54.6	-75.8	3.8	7.48e-01	0	41	104	0	79	44909
2026-01-04 00:18:04.82	27.56	5.82	-54.7	-75.8	3.8	7.46e-01	0	41	104	0	80	42234
2026-01-04 00:18:07.83	27.80	6.02	-54.7	-75.9	3.8	7.44e-01	0	41	104	0	80	42573
2026-01-04 00:18:10.85	28.05	6.23	-54.5	-75.9	3.8	7.44e-01	0	41	104	0	80	42484
2026-01-04 00:18:13.86	28.30	6.44	-54.4	-75.9	3.8	7.44e-01	0	42	104	0	80	42659
2026-01-04 00:18:16.87	28.55	6.66	-54.4	-75.8	3.8	7.43e-01	0	41	104	0	80	42065
2026-01-04 00:18:19.89	28.81	6.87	-54.4	-75.3	3.8	7.44e-01	0	42	104	0	80	40045
2026-01-04 00:18:22.90	29.07	7.09	-54.4	-75.9	3.8	7.45e-01	0	42	104	0	80	42424
2026-01-04 00:18:25.91	29.33	7.30	-54.3	-75.2	3.8	7.46e-01	0	42	104	0	80	39314
2026-01-04 00:18:28.93	29.60	7.52	-54.4	-74.5	3.8	7.44e-01	0	42	104	0	80	36368
2026-01-04 00:18:31.94	29.88	7.74	-54.6	-75.5	3.8	7.43e-01	0	42	104	0	80	40966
2026-01-04 00:18:34.96	30.15	7.96	-54.5	-74.9	3.8	7.48e-01	0	42	104	0	80	38070
2026-01-04 00:18:37.97	30.44	8.19	-54.5	-75.7	3.8	7.49e-01	0	42	104	0	80	41793
2026-01-04 00:18:40.98	30.72	8.41	-54.4	-74.5	3.8	7.45e-01	0	42	104	0	80	36297
2026-01-04 00:18:44.00	31.01	8.64	-54.3	-71.7	3.9	7.38e-01	0	42	104	0	80	26442
2026-01-04 00:18:47.01	31.31	8.87	-54.2	-69.2	5.8	6.91e-01	0	42	0	0	80	19784
2026-01-04 00:18:50.02	31.61	9.10	-52.7	-62.8	12.1	6.09e-01	0	42	0	5242880	77	11266
2026-01-04 00:18:53.03	31.92	9.33	-54.1	-73.2	3.9	7.45e-01	0	42	104	8912896	78	35272
2026-01-04 00:18:56.04	32.23	9.57	-50.1	-54.5	20.5	6.05e-01	0	42	0	13631488	72	5732
2026-01-04 00:18:59.05	32.54	9.80	-50.1	-54.1	20.9	6.03e-01	0	42	0	19398656	71	5814
2026-01-04 00:19:02.19	32.88	10.05	-49.6	-53.2	21.2	6.05e-01	0	43	0	25165824	71	5279
2026-01-04 00:19:05.05	33.19	10.28	-48.9	-52.9	21.9	6.05e-01	0	42	0	30408704	69	5720
2026-01-04 00:19:08.21	33.54	10.53	-48.8	-52.7	22.3	6.05e-01	0	43	0	36175872	69	5583
2026-01-04 00:19:11.07	33.86	10.76	-49.3	-52.7	22.2	6.04e-01	0	43	0	41943040	69	5574
2026-01-04 00:19:14.33	34.23	11.03	-49.2	-52.3	22.5	6.03e-01	0	43	0	47710208	69	5304
2026-01-04 00:19:17.27	34.57	11.27	-48.6	-52.2	22.6	6.00e-01	0	43	0	53477376	69	5255
2026-01-04 00:19:20.74	34.98	11.55	-48.7	-52.2	22.7	6.02e-01	0	42	0	59768832	69	5236
2026-01-04 00:19:23.46	35.31	11.78	-49.3	-52.2	22.7	6.03e-01	0	43	0	65011712	69	5264
2026-01-04 00:19:26.75	35.72	12.06	-48.9	-51.8	23.0	6.04e-01	0	43	0	71303168	69	5035
2026-01-04 00:19:29.48	36.06	12.29	-48.6	-51.9	22.9	6.02e-01	0	43	0	76546048	69	5098
2026-01-04 00:19:32.77	36.48	12.57	-48.6	-52.0	22.9	6.04e-01	0	43	0	82313216	69	5128
2026-01-04 00:19:35.49	36.83	12.80	-47.3	-51.7	23.1	6.04e-01	0	43	0	87556096	66	5873
2026-01-04 00:19:38.78	37.26	13.09	-46.6	-51.7	23.1	6.04e-01	0	43	0	93847552	65	6259
2026-01-04 00:19:41.55	37.64	13.33	-47.1	-51.8	23.0	6.03e-01	0	43	0	99090432	65	6320
2026-01-04 00:19:45.12	38.13	13.64	-48.4	-51.6	23.2	6.05e-01	0	43	0	105381888	67	5517
2026-01-04 00:19:48.24	38.56	13.92	-48.3	-51.6	23.2	6.02e-01	0	43	0	111673344	67	5524
2026-01-04 00:19:51.17	38.98	14.18	-48.0	-51.6	23.2	6.02e-01	0	43	0	116916224	67	5509
2026-01-04 00:19:54.33	39.44	14.47	-48.1	-51.4	23.4	6.02e-01	0	43	0	122683392	67	5365
2026-01-04 00:19:57.19	39.86	14.72	-48.4	-51.5	23.3	6.04e-01	0	43	0	128450560	67	5414
2026-01-04 00:20:00.34	40.34	15.01	-48.6	-51.5	23.5	6.03e-01	0	43	0	134217728	68	5105
2026-01-04 00:20:03.21	40.78	15.28	-48.9	-51.5	23.4	6.02e-01	0	43	0	139460608	68	5140
2026-01-04 00:20:06.36	41.28	15.57	-48.7	-51.4	23.6	6.02e-01	0	43	0	145227776	68	5084
2026-01-04 00:20:09.22	41.74	15.83	-48.8	-51.5	23.4	6.05e-01	0	43	0	150994944	68	5135
2026-01-04 00:20:12.79	42.32	16.17	-48.8	-51.4	23.5	6.06e-01	0	43	0	157286400	68	5092
2026-01-04 00:20:15.51	42.77	16.42	-48.7	-51.3	23.6	6.04e-01	0	43	0	162529280	68	5014
2026-01-04 00:20:18.80	43.33	16.73	-48.6	-51.2	23.8	6.04e-01	0	43	0	168820736	68	4945
2026-01-04 00:20:21.59	43.82	17.00	-48.7	-51.4	23.7	6.04e-01	0	43	0	174063616	68	5097
2026-01-04 00:20:25.27	44.47	17.35	-48.6	-51.3	23.7	6.02e-01	0	43	0	180879360	68	4990
2026-01-04 00:20:28.02	44.97	17.62	-48.6	-51.1	23.8	6.03e-01	0	43	0	186122240	68	4919
2026-01-04 00:20:31.82	45.67	17.99	-48.6	-51.1	23.9	6.04e-01	0	43	0	192937984	68	4925
2026-01-04 00:20:34.57	46.19	18.25	-48.6	-51.2	23.8	6.04e-01	0	43	0	198180864	68	4979
2026-01-04 00:20:38.33	46.92	18.62	-48.7	-51.3	23.7	6.02e-01	0	43	0	205520896	68	5029
2026-01-04 00:20:41.13	47.47	18.90	-48.5	-51.1	23.9	6.03e-01	0	43	0	210763776	68	4871
2026-01-04 00:20:44.56	48.16	19.24	-48.6	-51.1	23.8	6.03e-01	0	43	0	217055232	68	4912
2026-01-04 00:20:47.28	48.72	19.50	-48.6	-51.1	23.8	6.03e-01	0	43	0	222298112	68	4899
2026-01-04 00:20:50.78	49.46	19.85	-48.7	-51.3	23.7	6.00e-01	0	43	0	228589568	68	5003
2026-01-04 00:20:53.51	50.04	20.12	-48.7	-51.2	23.8	6.04e-01	0	43	0	233832448	68	4965
2026-01-04 00:20:56.79	50.76	20.45	-48.8	-51.5	23.6	6.04e-01	0	43	0	240123904	68	5131
2026-01-04 00:20:59.84	51.45	20.75	-48.7	-51.4	23.7	6.04e-01	0	43	0	245891072	68	5059
2026-01-04 00:21:03.14	52.20	21.08	-48.7	-51.3	23.7	6.04e-01	0	43	0	251658240	68	5015
2026-01-04 00:21:05.98	52.86	21.36	-48.8	-51.4	23.7	6.02e-01	0	43	0	257425408	68	5058
2026-01-04 00:21:09.12	53.61	21.68	-49.0	-51.5	23.6	6.05e-01	0	43	0	263192576	68	5146
2026-01-04 00:21:12.42	54.41	22.00	-49.1	-51.7	23.4	6.04e-01	0	43	0	269484032	68	5248
2026-01-04 00:21:15.14	55.09	22.27	-48.9	-51.4	23.7	6.03e-01	0	43	0	274202624	68	5093
2026-01-04 00:21:18.56	55.95	22.61	-48.9	-51.5	23.6	6.01e-01	0	43	0	281018368	68	5101
2026-01-04 00:21:21.28	56.65	22.88	-49.0	-51.6	23.5	6.01e-01	0	43	0	285736960	68	5208
2026-01-04 00:21:24.76	57.57	23.22	-49.2	-51.8	23.5	6.04e-01	0	43	0	292552704	68	5328
2026-01-04 00:21:27.74	58.37	23.51	-49.1	-51.9	23.5	6.03e-01	0	43	0	297795584	69	5042
2026-01-04 00:21:30.74	59.19	23.80	-49.1	-51.8	23.6	6.03e-01	0	43	0	303562752	69	5005
2026-01-04 00:21:33.75	60.03	24.08	-49.1	-51.7	23.4	6.03e-01	0	43	0	309329920	69	4959
2026-01-04 00:21:36.76	60.89	24.37	-49.1	-51.7	23.5	6.02e-01	0	43	0	315097088	69	4956
2026-01-04 00:21:39.77	61.76	24.65	-49.2	-51.8	23.4	6.03e-01	0	43	0	320339968	69	5013
2026-01-04 00:21:42.77	62.65	24.93	-49.1	-51.7	23.5	6.02e-01	0	43	0	326107136	69	4933
2026-01-04 00:21:45.78	63.55	25.20	-49.1	-51.7	23.5	6.04e-01	0	43	0	331874304	69	4962
2026-01-04 00:21:48.96	64.53	25.48	-49.1	-51.7	23.5	6.04e-01	0	43	0	337641472	69	4939
2026-01-04 00:21:51.85	65.43	25.74	-49.2	-51.7	23.6	6.04e-01	0	43	0	343408640	69	4953
2026-01-04 00:21:55.00	66.43	26.01	-49.2	-51.8	23.5	6.04e-01	0	43	0	349175808	69	5022
2026-01-04 00:21:57.87	67.35	26.25	-49.0	-51.6	23.4	6.03e-01	0	43	0	354418688	69	4879
2026-01-04 00:22:01.02	68.38	26.51	-49.1	-51.6	23.5	6.05e-01	0	43	0	360185856	69	4917
2026-01-04 00:22:03.88	69.33	26.74	-49.3	-51.9	23.5	6.04e-01	0	43	0	365953024	69	5059
2026-01-04 00:22:07.03	70.40	26.99	-49.1	-51.7	23.5	6.05e-01	0	43	0	371720192	69	4983
2026-01-04 00:22:09.90	71.38	27.21	-49.0	-51.5	23.6	6.02e-01	0	43	0	376963072	69	4861
2026-01-04 00:22:13.05	72.48	27.44	-49.1	-51.6	23.5	6.05e-01	0	43	0	382730240	69	4917
2026-01-04 00:22:15.91	73.49	27.64	-49.0	-51.5	23.7	6.04e-01	0	43	0	388497408	69	4844
2026-01-04 00:22:19.06	74.62	27.85	-49.1	-51.6	23.7	6.04e-01	0	43	0	394264576	69	4889
2026-01-04 00:22:21.92	75.65	28.04	-48.8	-51.3	24.0	6.05e-01	0	43	0	399507456	69	4726
2026-01-04 00:22:25.14	76.83	28.24	-48.9	-51.4	23.8	6.04e-01	0	43	0	405798912	69	4812
2026-01-04 00:22:28.00	77.89	28.40	-48.9	-51.4	23.8	6.03e-01	0	43	0	411041792	69	4802
2026-01-04 00:22:31.18	79.09	28.58	-48.8	-51.4	23.8	6.04e-01	0	43	0	416808960	69	4775
2026-01-04 00:22:34.15	80.21	28.73	-48.8	-51.3	23.9	6.03e-01	0	43	0	422576128	69	4731
2026-01-04 00:22:37.29	81.42	28.88	-48.6	-51.2	23.9	6.03e-01	0	43	0	428343296	69	4667
2026-01-04 00:22:40.16	82.52	29.00	-48.6	-51.3	23.8	6.01e-01	0	43	0	433586176	68	4996
2026-01-04 00:22:43.31	83.75	29.13	-48.6	-51.4	24.0	6.03e-01	0	43	0	439877632	68	5044
2026-01-04 00:22:46.17	84.87	29.23	-48.6	-51.2	24.1	6.05e-01	0	43	0	445120512	68	4966
2026-01-04 00:22:49.51	86.19	29.33	-48.4	-51.0	24.2	6.03e-01	0	43	0	451411968	68	4839
2026-01-04 00:22:52.23	87.27	29.41	-48.3	-50.9	24.2	6.03e-01	0	43	0	456654848	68	4802
2026-01-04 00:22:56.02	88.78	29.49	-48.4	-50.9	24.2	6.04e-01	0	43	0	463470592	68	4801
2026-01-04 00:22:58.76	89.88	29.54	-48.5	-51.0	24.1	6.04e-01	0	43	0	468713472	68	4860
2026-01-04 00:23:02.44	91.36	29.59	-48.3	-50.8	24.3	6.01e-01	0	43	0	475529216	68	4749
2026-01-04 00:23:05.35	92.54	29.61	-48.3	-50.8	24.2	6.03e-01	0	43	0	481296384	68	4751
2026-01-04 00:23:09.09	94.05	29.63	-48.4	-50.9	24.2	6.02e-01	0	43	0	488112128	67	5073
2026-01-04 00:23:11.81	95.14	29.62	-48.3	-50.7	24.1	6.02e-01	0	43	0	493355008	67	4962
2026-01-04 00:23:15.14	96.49	29.60	-48.2	-50.6	24.5	6.04e-01	0	43	0	499646464	67	4885
2026-01-04 00:23:17.86	97.58	29.57	-48.4	-50.8	24.3	6.04e-01	0	43	0	504365056	67	5007
2026-01-04 00:23:21.28	98.96	29.52	-47.9	-50.3	24.6	6.05e-01	0	43	0	511180800	67	4730
2026-01-04 00:23:24.00	100.05	29.47	-48.0	-50.4	24.5	6.02e-01	0	43	0	515899392	67	4811
2026-01-04 00:23:27.31	101.37	29.39	-47.9	-50.3	24.6	6.03e-01	0	43	0	522190848	67	4721
2026-01-04 00:23:30.03	102.45	29.31	-47.9	-50.3	24.6	6.05e-01	0	43	0	527433728	67	4717
2026-01-04 00:23:33.33	103.75	29.20	-48.1	-50.5	24.3	6.03e-01	0	43	0	533725184	67	4863
2026-01-04 00:23:36.06	104.82	29.10	-47.7	-50.1	24.7	6.02e-01	0	43	0	538443776	67	4605
2026-01-04 00:23:39.47	106.15	28.97	-48.1	-50.4	24.6	6.03e-01	0	43	0	544735232	67	4812
2026-01-04 00:23:42.20	107.21	28.84	-47.9	-50.3	24.6	6.02e-01	0	43	0	549978112	67	4751
2026-01-04 00:23:45.50	108.47	28.68	-48.1	-50.5	24.4	6.02e-01	0	43	0	556269568	67	4831
2026-01-04 00:23:48.22	109.50	28.54	-48.0	-50.4	24.5	6.02e-01	0	43	0	561512448	67	4761
2026-01-04 00:23:51.51	110.73	28.36	-48.0	-50.4	24.4	6.05e-01	0	43	0	567803904	67	4791
2026-01-04 00:23:54.30	111.77	28.19	-47.8	-50.2	24.6	6.04e-01	0	43	0	573046784	67	4675
2026-01-04 00:23:57.84	113.07	27.97	-47.7	-50.1	24.6	6.03e-01	0	43	0	579338240	67	4643
2026-01-04 00:24:00.71	114.11	27.78	-47.6	-50.1	24.5	6.04e-01	0	43	0	584581120	67	4616
2026-01-04 00:24:03.86	115.23	27.56	-47.8	-50.2	24.5	6.03e-01	0	43	0	590872576	67	4665
2026-01-04 00:24:06.73	116.24	27.36	-47.9	-50.3	24.4	6.03e-01	0	43	0	596115456	67	4721
2026-01-04 00:24:10.02	117.39	27.11	-48.3	-50.7	24.3	6.04e-01	0	43	0	602406912	67	4944
2026-01-04 00:24:12.74	118.32	26.90	-47.9	-50.3	24.4	6.03e-01	0	43	0	607649792	67	4747
2026-01-04 00:24:16.03	119.43	26.64	-48.0	-50.5	24.2	6.03e-01	0	43	0	613416960	67	4852
2026-01-04 00:24:18.76	120.33	26.42	-47.8	-50.2	24.5	6.02e-01	0	43	0	618659840	67	4674
2026-01-04 00:24:22.08	121.42	26.14	-48.1	-50.5	24.3	6.06e-01	0	43	0	624951296	67	4828
2026-01-04 00:24:24.81	122.30	25.91	-48.0	-50.4	24.4	6.04e-01	0	43	0	630194176	67	4773
2026-01-04 00:24:28.26	123.39	25.61	-48.2	-50.6	24.3	6.04e-01	0	43	0	636485632	67	4887
2026-01-04 00:24:30.98	124.23	25.36	-48.2	-50.6	24.3	6.04e-01	0	43	0	641728512	67	4926
2026-01-04 00:24:34.28	125.24	25.06	-48.0	-50.4	24.4	6.05e-01	0	43	0	648019968	67	4795
2026-01-04 00:24:37.00	126.06	24.81	-48.0	-50.4	24.3	6.03e-01	0	43	0	652738560	67	4797
2026-01-04 00:24:40.30	127.03	24.50	-48.1	-50.5	24.2	6.04e-01	0	43	0	659030016	67	4865
2026-01-04 00:24:43.02	127.81	24.25	-48.1	-50.7	24.4	6.06e-01	0	43	0	664272896	67	4936
2026-01-04 00:24:46.32	128.75	23.93	-48.3	-50.8	24.0	6.03e-01	0	43	0	670564352	67	5025
2026-01-04 00:24:49.03	129.50	23.67	-48.1	-50.5	24.4	6.06e-01	0	43	0	675282944	67	4833
2026-01-04 00:24:52.28	130.39	23.35	-48.2	-50.6	24.2	6.02e-01	0	43	0	681574400	67	4891
2026-01-04 00:24:55.29	131.20	23.06	-48.3	-50.7	24.2	6.05e-01	0	43	0	687341568	67	4974
2026-01-04 00:24:58.29	131.98	22.76	-48.1	-50.6	24.3	6.05e-01	0	43	0	692584448	67	4898
2026-01-04 00:25:01.39	132.78	22.46	-47.9	-50.4	24.4	6.04e-01	0	43	0	698875904	67	4763
2026-01-04 00:25:04.35	133.53	22.16	-48.0	-50.5	24.2	6.03e-01	0	43	0	704118784	67	4855
2026-01-04 00:25:07.70	134.36	21.83	-48.1	-50.5	24.2	6.06e-01	0	43	0	710410240	67	4865
2026-01-04 00:25:10.42	135.02	21.55	-48.0	-50.5	24.2	6.05e-01	0	43	0	715653120	67	4843
2026-01-04 00:25:13.67	135.79	21.23	-48.4	-50.8	24.2	6.03e-01	0	43	0	721420288	67	5030
2026-01-04 00:25:16.53	136.45	20.94	-48.3	-50.8	24.2	6.03e-01	0	43	0	727187456	67	5014
2026-01-04 00:25:19.70	137.18	20.62	-48.1	-50.6	24.2	6.02e-01	0	43	0	732954624	67	4892
2026-01-04 00:25:22.85	137.88	20.31	-48.2	-50.7	24.2	6.03e-01	0	43	0	738721792	67	4931
2026-01-04 00:25:25.72	138.51	20.02	-48.2	-50.6	24.3	6.06e-01	0	43	0	743964672	67	4920
2026-01-04 00:25:28.90	139.19	19.70	-48.0	-50.4	24.4	6.03e-01	0	43	0	750256128	67	4790
2026-01-04 00:25:31.76	139.79	19.41	-48.0	-50.4	24.5	6.02e-01	0	43	0	755499008	67	4775
2026-01-04 00:25:34.92	140.44	19.10	-47.9	-50.4	24.3	6.04e-01	0	43	0	761266176	67	4791
2026-01-04 00:25:37.78	141.02	18.82	-47.9	-50.3	24.4	6.04e-01	0	43	0	767033344	67	4758
2026-01-04 00:25:40.93	141.64	18.50	-47.9	-50.3	24.4	6.01e-01	0	43	0	772800512	67	4721
2026-01-04 00:25:43.80	142.20	18.22	-47.9	-50.4	24.4	6.05e-01	0	43	0	778043392	67	4776
2026-01-04 00:25:47.10	142.83	17.90	-48.0	-50.5	24.4	6.04e-01	0	43	0	784334848	67	4858
2026-01-04 00:25:49.82	143.33	17.63	-48.1	-50.6	24.5	6.04e-01	0	43	0	789577728	67	4911
2026-01-04 00:25:53.38	143.98	17.28	-48.2	-50.7	24.3	6.03e-01	0	43	0	795869184	67	4936
2026-01-04 00:25:56.31	144.50	17.00	-47.9	-50.4	24.5	6.05e-01	0	43	0	801636352	67	4784
2026-01-04 00:26:00.07	145.16	16.64	-48.1	-50.5	24.3	6.04e-01	0	43	0	808452096	67	4870
2026-01-04 00:26:02.82	145.63	16.38	-48.0	-50.4	24.2	6.03e-01	0	43	0	813694976	67	4798
2026-01-04 00:26:06.58	146.26	16.02	-47.8	-50.3	24.3	6.04e-01	0	43	0	821035008	67	4735
2026-01-04 00:26:09.60	146.75	15.73	-48.1	-50.6	24.3	6.02e-01	0	43	0	826277888	67	4899
2026-01-04 00:26:13.39	147.35	15.38	-47.9	-50.4	24.3	6.05e-01	0	43	0	833617920	67	4798
2026-01-04 00:26:16.14	147.78	15.12	-48.0	-50.5	24.2	6.04e-01	0	43	0	838860800	67	4856
2026-01-04 00:26:20.02	148.38	14.77	-48.1	-50.5	24.2	6.04e-01	0	43	0	846200832	67	4868
2026-01-04 00:26:22.76	148.79	14.51	-48.0	-50.4	24.3	6.02e-01	0	43	0	850919424	67	4801
2026-01-04 00:26:26.54	149.35	14.17	-47.9	-50.4	24.3	6.02e-01	0	43	0	858259456	67	4783
2026-01-04 00:26:29.44	149.76	13.91	-48.0	-50.6	24.1	6.04e-01	0	43	0	863502336	67	4880
2026-01-04 00:26:33.19	150.29	13.57	-48.2	-50.8	24.0	6.03e-01	0	43	0	870842368	67	5000
2026-01-04 00:26:36.00	150.68	13.32	-48.1	-50.6	24.0	6.03e-01	0	43	0	876085248	67	4925
2026-01-04 00:26:39.49	151.15	13.02	-48.0	-50.7	24.0	6.04e-01	0	43	0	882376704	67	4939
2026-01-04 00:26:42.20	151.51	12.78	-48.1	-50.7	23.9	6.02e-01	0	43	0	887619584	67	4948
2026-01-04 00:26:45.50	151.94	12.49	-48.2	-50.8	23.9	6.03e-01	0	43	0	893911040	67	4988
2026-01-04 00:26:48.22	152.29	12.26	-48.1	-50.7	23.9	6.07e-01	0	43	0	898629632	67	4948
2026-01-04 00:26:52.02	152.76	11.93	-48.2	-50.9	23.8	6.07e-01	0	43	0	905969664	67	5050
2026-01-04 00:26:54.87	153.11	11.69	-48.3	-50.9	23.7	6.02e-01	0	43	0	911212544	67	5065
2026-01-04 00:26:58.26	153.52	11.41	-48.3	-51.1	23.6	6.04e-01	0	43	0	917504000	67	5162
2026-01-04 00:27:01.41	153.90	11.14	-48.2	-51.1	23.4	6.04e-01	0	43	0	923795456	67	5181
2026-01-04 00:27:04.44	154.25	10.89	-48.5	-51.3	23.4	6.05e-01	0	43	0	929562624	68	5020
2026-01-04 00:27:07.45	154.59	10.65	-48.6	-51.4	23.2	6.03e-01	0	43	0	934805504	68	5057
2026-01-04 00:27:10.46	154.93	10.40	-48.9	-51.6	23.1	6.04e-01	0	43	0	940572672	68	5163
2026-01-04 00:27:13.46	155.26	10.16	-48.9	-51.7	23.0	6.00e-01	0	43	0	946339840	68	5225
2026-01-04 00:27:16.47	155.58	9.92	-49.0	-51.8	22.7	6.04e-01	0	43	0	951582720	68	5295
2026-01-04 00:27:19.47	155.90	9.68	-48.9	-51.7	22.8	6.03e-01	0	43	0	957349888	68	5233
2026-01-04 00:27:22.48	156.22	9.44	-49.1	-51.9	22.7	6.04e-01	0	43	0	963117056	68	5359
2026-01-04 00:27:25.48	156.53	9.21	-49.1	-51.9	22.8	6.03e-01	0	43	0	968884224	69	5081
2026-01-04 00:27:28.57	156.84	8.97	-49.5	-52.5	22.3	6.02e-01	0	43	0	974651392	69	5410
2026-01-04 00:27:31.44	157.13	8.75	-55.6	-76.0	3.8	7.45e-01	0	43	104	975175680	81	40878
2026-01-04 00:27:34.60	157.44	8.50	-55.6	-76.3	3.8	7.50e-01	0	43	104	975175680	82	39980
2026-01-04 00:27:37.47	157.71	8.29	-56.6	-76.7	3.8	7.44e-01	0	43	104	975175680	83	39488
2026-01-04 00:27:40.62	158.01	8.05	-56.7	-76.8	3.8	7.48e-01	0	43	104	975175680	84	37710
2026-01-04 00:27:43.49	158.28	7.83	-56.6	-76.6	3.8	7.43e-01	0	43	104	975175680	84	36715
2026-01-04 00:27:46.72	158.57	7.59	-56.6	-76.6	3.8	7.46e-01	0	43	104	975175680	83	38721
2026-01-04 00:27:49.59	158.83	7.38	-56.2	-76.5	3.8	7.46e-01	0	43	104	975175680	83	38465
2026-01-04 00:27:52.75	159.11	7.15	-55.3	-76.5	3.8	7.44e-01	0	43	104	975175680	82	40676
2026-01-04 00:27:55.62	159.36	6.94	-55.6	-76.5	3.8	7.45e-01	0	43	104	975175680	82	40770
2026-01-04 00:27:58.77	159.63	6.72	-55.6	-76.5	3.8	7.48e-01	0	43	104	975175680	82	40637
2026-01-04 00:28:01.64	159.88	6.51	-55.5	-76.4	3.8	7.47e-01	0	44	104	975175680	82	40262
2026-01-04 00:28:04.80	160.14	6.29	-55.5	-76.4	3.8	7.46e-01	0	43	104	975175680	82	40156
2026-01-04 00:28:07.67	160.38	6.08	-55.5	-76.4	3.8	7.46e-01	0	43	104	975175680	82	40193
2026-01-04 00:28:10.82	160.63	5.86	-55.6	-76.5	3.8	7.47e-01	0	43	104	975175680	82	40608
2026-01-04 00:28:13.69	160.86	5.66	-55.7	-76.6	3.8	7.44e-01	0	43	104	975175680	82	41226
2026-01-04 00:28:16.85	161.11	5.45	-55.6	-76.5	3.8	7.47e-01	0	43	104	975175680	82	40633
2026-01-04 00:28:19.72	161.33	5.25	-55.6	-76.5	3.8	7.51e-01	0	43	104	975175680	82	40680
2026-01-04 00:28:22.88	161.57	5.03	-55.6	-76.5	3.8	7.46e-01	0	43	104	975175680	82	40787

#Closed at: 2026-01-04 00:28:24
#Recorded file [975 MB]: D:/Data/31040_260104_031752.dat