passes_logs/2026/01/04/T1/T1__20260104_234305_NOAA_20_JPSS-1_rec.log

#Pass ID: 20260104_234305_NOAA 20 (JPSS-1)
#Satellite: NOAA 20 (JPSS-1)
#Configuration: NOAA 20
#almurnet v.1.7.20251203
#Start time: 2026-01-04 23:43:07

#Version: 2.0.20230620
#Station: T1
#Location: 37.570604 lon 55.790049 lat
#TLE: 1 43013U 17073A   26004.47528369  .00000132  00000+0  83671-4 0  9999
#TLE: 2 43013  98.7626 305.5264 0001854  54.5883 305.5466 14.19533142421242

#Time	Az	El	Level	Level2	SNR	BER	BlckErr	Temp	State	Recorded	gain1	gain2
2026-01-04 23:43:07.28	16.15	5.13	-52.1	-67.8	3.8	1.49e+00	0	41	0	0	75	22481
2026-01-04 23:43:11.29	16.16	5.41	-52.1	-67.9	3.8	1.49e+00	0	41	104	0	74	24000
2026-01-04 23:43:15.30	16.17	5.70	-52.1	-67.8	3.8	1.49e+00	0	41	104	0	74	23643
2026-01-04 23:43:19.32	16.18	6.00	-52.1	-67.7	3.8	1.49e+00	0	41	104	0	74	23401
2026-01-04 23:43:23.34	16.19	6.30	-52.1	-67.7	3.8	1.49e+00	0	42	104	0	74	23413
2026-01-04 23:43:27.36	16.20	6.60	-52.1	-67.7	3.8	1.49e+00	0	42	104	0	74	23535
2026-01-04 23:43:31.38	16.21	6.91	-52.1	-67.5	3.8	1.49e+00	0	42	104	0	74	22901
2026-01-04 23:43:35.39	16.21	7.21	-52.0	-66.8	3.8	1.49e+00	0	42	104	0	74	21051
2026-01-04 23:43:39.41	16.22	7.53	-52.0	-66.1	3.8	1.49e+00	0	42	104	0	74	19534
2026-01-04 23:43:43.43	16.23	7.85	-51.9	-65.3	3.8	1.49e+00	0	42	104	0	74	17865
2026-01-04 23:43:47.45	16.24	8.17	-51.9	-64.3	4.2	1.41e+00	0	42	0	0	74	15813
2026-01-04 23:43:51.46	16.24	8.49	-51.8	-62.9	4.7	8.98e-01	0	42	0	4194304	74	13502
2026-01-04 23:43:55.48	16.25	8.82	-51.6	-61.1	5.8	4.30e-01	0	42	0	12582912	74	10952
2026-01-04 23:43:59.49	16.26	9.15	-51.7	-61.8	5.3	4.95e-01	0	43	0	19922944	74	11933
2026-01-04 23:44:03.50	16.26	9.49	-49.7	-54.7	12.0	6.07e-04	0	43	0	24117248	71	6261
2026-01-04 23:44:07.51	16.27	9.83	-49.5	-54.3	12.4	1.78e-04	0	43	0	31457280	70	6321
2026-01-04 23:44:11.52	16.27	10.18	-48.4	-52.4	14.4	4.50e-06	0	43	0	38797312	68	5658
2026-01-04 23:44:15.53	16.28	10.53	-48.3	-52.2	14.6	0.00e+00	0	43	0	47185920	68	5568
2026-01-04 23:44:19.54	16.29	10.89	-48.4	-52.3	14.6	1.50e-06	0	43	0	54525952	68	5607
2026-01-04 23:44:23.55	16.29	11.25	-48.1	-51.9	14.9	0.00e+00	0	43	0	61865984	68	5370
2026-01-04 23:44:27.55	16.30	11.62	-48.0	-51.7	15.2	0.00e+00	0	43	0	69206016	68	5223
2026-01-04 23:44:31.56	16.30	11.99	-47.7	-51.2	15.4	0.00e+00	0	43	0	76546048	67	5273
2026-01-04 23:44:35.57	16.30	12.37	-47.5	-51.0	15.6	0.00e+00	0	43	0	83886080	67	5149
2026-01-04 23:44:39.60	16.31	12.76	-47.5	-50.9	15.8	0.00e+00	0	43	0	92274688	66	5354
2026-01-04 23:44:43.61	16.31	13.15	-47.5	-50.8	15.9	0.00e+00	0	43	0	99614720	66	5309
2026-01-04 23:44:47.62	16.31	13.55	-47.4	-50.6	16.1	0.00e+00	0	43	0	106954752	66	5215
2026-01-04 23:44:52.11	16.32	14.00	-47.4	-50.5	16.2	0.00e+00	0	43	0	115343360	66	5149
2026-01-04 23:44:56.03	16.32	14.41	-47.3	-50.3	16.4	0.00e+00	0	43	0	122683392	66	5034
2026-01-04 23:45:00.04	16.32	14.83	-47.2	-50.1	16.6	0.00e+00	0	43	0	130023424	66	4896
2026-01-04 23:45:04.05	16.32	15.25	-47.1	-50.0	16.8	0.00e+00	0	43	0	137363456	66	4831
2026-01-04 23:45:08.05	16.32	15.69	-47.1	-49.9	16.8	0.00e+00	0	43	0	145752064	65	5067
2026-01-04 23:45:12.15	16.32	16.14	-46.9	-49.6	17.1	0.00e+00	0	43	0	153092096	65	4916
2026-01-04 23:45:16.19	16.32	16.59	-46.9	-49.6	17.1	0.00e+00	0	43	0	160432128	65	4904
2026-01-04 23:45:20.13	16.32	17.04	-46.7	-49.3	17.4	0.00e+00	0	43	0	167772160	65	4758
2026-01-04 23:45:24.49	16.32	17.55	-46.7	-49.3	17.4	0.00e+00	0	43	0	176160768	65	4751
2026-01-04 23:45:28.50	16.32	18.03	-46.6	-49.2	17.5	0.00e+00	0	43	0	183500800	65	4694
2026-01-04 23:45:32.56	16.32	18.52	-46.6	-49.2	17.6	0.00e+00	0	43	0	190840832	65	4664
2026-01-04 23:45:36.75	16.32	19.04	-46.4	-49.0	17.8	0.00e+00	0	43	0	199229440	64	4823
2026-01-04 23:45:40.76	16.31	19.55	-46.4	-48.9	17.8	0.00e+00	0	43	0	206569472	64	4804
2026-01-04 23:45:44.78	16.31	20.07	-46.3	-48.9	17.8	0.00e+00	0	43	0	213909504	64	4805
2026-01-04 23:45:48.79	16.30	20.60	-46.3	-48.9	17.9	0.00e+00	0	43	0	221249536	64	4783
2026-01-04 23:45:52.79	16.30	21.14	-46.2	-48.9	17.9	0.00e+00	0	43	0	229638144	64	4763
2026-01-04 23:45:56.80	16.29	21.70	-46.3	-48.9	17.9	0.00e+00	0	43	0	236978176	64	4762
2026-01-04 23:46:00.85	16.29	22.27	-46.3	-48.9	17.9	0.00e+00	0	43	0	243269632	64	4767
2026-01-04 23:46:04.83	16.28	22.84	-46.2	-48.7	18.1	0.00e+00	0	43	0	251658240	64	4696
2026-01-04 23:46:08.82	16.27	23.43	-46.2	-48.8	18.1	0.00e+00	0	43	0	258998272	64	4710
2026-01-04 23:46:12.81	16.26	24.03	-46.2	-48.8	18.1	0.00e+00	0	43	0	266338304	64	4707
2026-01-04 23:46:16.79	16.25	24.65	-46.4	-49.1	17.8	0.00e+00	0	43	0	273678336	64	4872
2026-01-04 23:46:20.78	16.24	25.28	-46.5	-49.2	17.7	0.00e+00	0	43	0	282066944	64	4947
2026-01-04 23:46:24.77	16.22	25.93	-46.9	-49.7	17.2	0.00e+00	0	43	0	289406976	64	5220
2026-01-04 23:46:28.77	16.21	26.59	-47.4	-50.2	16.7	0.00e+00	0	43	0	296747008	65	5275
2026-01-04 23:46:32.76	16.19	27.27	-47.5	-50.4	16.5	0.00e+00	0	43	0	304087040	65	5394
2026-01-04 23:46:36.75	16.18	27.97	-47.9	-51.0	16.0	0.00e+00	0	44	0	311427072	66	5406
2026-01-04 23:46:40.75	16.16	28.69	-48.4	-51.8	15.2	0.00e+00	0	44	0	318767104	67	5597
2026-01-04 23:46:44.73	16.14	29.42	-48.7	-52.3	14.7	0.00e+00	0	43	0	326107136	67	5934
2026-01-04 23:46:48.70	16.12	30.17	-48.9	-52.6	14.6	0.00e+00	0	43	0	333447168	68	5816
2026-01-04 23:46:52.68	16.10	30.95	-49.0	-52.7	14.5	7.00e-07	0	44	0	341835776	68	5921
2026-01-04 23:46:56.67	16.07	31.74	-49.1	-52.8	14.4	7.00e-07	0	43	0	349175808	68	5934
2026-01-04 23:47:00.67	16.04	32.56	-49.0	-52.5	14.7	0.00e+00	0	44	0	356515840	69	5428
2026-01-04 23:47:04.67	16.01	33.41	-48.7	-52.0	15.2	0.00e+00	0	43	0	363855872	69	5156
2026-01-04 23:47:08.67	15.98	34.27	-47.8	-50.8	16.3	0.00e+00	0	43	0	371195904	67	4998
2026-01-04 23:47:12.66	15.95	35.16	-46.6	-49.2	17.7	0.00e+00	0	43	0	378535936	65	4701
2026-01-04 23:47:16.66	15.91	36.08	-46.1	-48.6	18.4	0.00e+00	0	44	0	385875968	64	4603
2026-01-04 23:47:20.67	15.87	37.03	-45.9	-48.3	18.7	0.00e+00	0	44	0	394264576	63	4718
2026-01-04 23:47:24.67	15.83	38.00	-45.7	-48.1	18.9	0.00e+00	0	43	0	401604608	63	4622
2026-01-04 23:47:28.67	15.78	39.01	-45.6	-47.9	19.1	0.00e+00	0	43	0	408944640	63	4528
2026-01-04 23:47:32.68	15.73	40.04	-45.5	-47.9	19.1	0.00e+00	0	44	0	416284672	62	4766
2026-01-04 23:47:36.67	15.67	41.10	-45.6	-48.0	19.0	0.00e+00	0	44	0	423624704	62	4818
2026-01-04 23:47:40.68	15.61	42.20	-45.7	-48.0	19.0	0.00e+00	0	43	0	430964736	62	4834
2026-01-04 23:47:44.67	15.55	43.33	-45.7	-48.0	19.0	0.00e+00	0	43	0	439353344	62	4846
2026-01-04 23:47:48.67	15.47	44.50	-47.1	-49.7	17.3	0.00e+00	0	44	0	446693376	64	5277
2026-01-04 23:47:52.68	15.39	45.70	-48.1	-51.2	15.9	0.00e+00	0	44	0	454033408	66	5546
2026-01-04 23:47:56.68	15.31	46.94	-48.0	-51.1	16.0	0.00e+00	0	43	0	461373440	67	5164
2026-01-04 23:48:00.69	15.21	48.21	-48.3	-51.4	15.7	0.00e+00	0	43	0	468713472	67	5372
2026-01-04 23:48:04.70	15.11	49.53	-48.3	-51.4	15.7	0.00e+00	0	43	0	476053504	67	5394
2026-01-04 23:48:08.70	14.99	50.89	-47.2	-49.9	17.1	0.00e+00	0	44	0	484442112	66	4807
2026-01-04 23:48:12.70	14.87	52.28	-45.5	-47.8	19.2	0.00e+00	0	44	0	491782144	63	4455
2026-01-04 23:48:16.70	14.73	53.71	-45.1	-47.3	19.6	0.00e+00	0	44	0	499122176	62	4481
2026-01-04 23:48:20.71	14.57	55.19	-45.0	-47.1	19.8	0.00e+00	0	43	0	506462208	61	4649
2026-01-04 23:48:24.72	14.39	56.72	-47.4	-50.1	16.9	0.00e+00	0	44	0	513802240	65	5211
2026-01-04 23:48:28.72	14.19	58.28	-47.9	-50.9	16.2	0.00e+00	0	44	0	521142272	67	5060
2026-01-04 23:48:32.73	13.96	59.89	-47.2	-49.9	17.2	0.00e+00	0	44	0	529530880	66	4790
2026-01-04 23:48:36.74	13.70	61.53	-45.6	-47.8	19.2	0.00e+00	0	44	0	536870912	63	4464
2026-01-04 23:48:40.74	13.40	63.22	-45.0	-47.2	19.7	0.00e+00	0	44	0	544210944	61	4667
2026-01-04 23:48:44.75	13.05	64.95	-46.5	-49.0	18.1	0.00e+00	0	44	0	551550976	63	5107
2026-01-04 23:48:48.75	12.64	66.72	-47.4	-50.1	16.9	0.00e+00	0	44	0	558891008	65	5210
2026-01-04 23:48:52.75	12.15	68.52	-48.1	-51.2	15.8	0.00e+00	0	44	0	566231040	66	5592
2026-01-04 23:48:56.76	11.56	70.37	-49.0	-52.2	15.1	0.00e+00	0	44	0	573571072	69	5268
2026-01-04 23:49:00.76	10.84	72.24	-48.1	-51.1	16.2	0.00e+00	0	44	0	581959680	68	4877
2026-01-04 23:49:04.76	9.93	74.14	-49.5	-53.3	14.0	1.50e-06	0	44	0	589299712	69	5944
2026-01-04 23:49:08.77	8.75	76.07	-49.9	-53.9	13.4	2.13e-05	0	44	0	596639744	70	6014
2026-01-04 23:49:12.77	7.17	78.02	-50.1	-54.4	12.8	1.65e-04	0	44	0	603979776	71	6041
2026-01-04 23:49:16.78	4.95	79.98	-47.9	-50.8	16.2	0.00e+00	0	44	0	611319808	67	5016
2026-01-04 23:49:20.78	1.63	81.93	-49.7	-53.5	13.9	7.00e-07	0	44	0	618659840	69	6084
2026-01-04 23:49:24.79	356.15	83.86	-45.7	-48.1	18.9	0.00e+00	0	44	0	627048448	63	4608
2026-01-04 23:49:28.80	345.78	85.69	-44.9	-47.0	19.8	0.00e+00	0	44	0	634388480	60	4857
2026-01-04 23:49:32.80	322.49	87.20	-46.4	-48.9	18.1	0.00e+00	0	44	0	641728512	63	5047
2026-01-04 23:49:36.80	276.32	87.64	-46.0	-48.3	18.7	0.00e+00	0	43	0	649068544	63	4738
2026-01-04 23:49:40.80	240.44	86.56	-47.4	-50.3	16.8	0.00e+00	0	44	0	656408576	66	4986
2026-01-04 23:49:44.80	224.88	84.85	-45.7	-48.0	19.0	0.00e+00	0	44	0	663748608	62	4866
2026-01-04 23:49:48.80	217.38	82.96	-46.4	-48.8	18.2	0.00e+00	0	44	0	672137216	63	5035
2026-01-04 23:49:52.80	213.11	81.01	-46.5	-49.0	18.0	0.00e+00	0	44	0	679477248	65	4582
2026-01-04 23:49:56.80	210.38	79.05	-45.9	-48.2	18.8	0.00e+00	0	43	0	686817280	62	4939
2026-01-04 23:50:00.80	208.51	77.10	-48.1	-51.1	16.0	0.00e+00	0	44	0	694157312	67	5199
2026-01-04 23:50:04.81	207.13	75.15	-49.0	-52.4	15.0	0.00e+00	0	44	0	701497344	68	5664
2026-01-04 23:50:08.81	206.09	73.24	-47.9	-50.9	16.1	0.00e+00	0	44	0	708837376	67	5090
2026-01-04 23:50:12.82	205.27	71.34	-47.6	-50.5	16.6	0.00e+00	0	44	0	717225984	66	5127
2026-01-04 23:50:16.82	204.62	69.48	-47.9	-50.8	16.3	0.00e+00	0	44	0	724566016	66	5286
2026-01-04 23:50:20.82	204.08	67.65	-50.0	-54.0	13.3	3.00e-06	0	44	0	731906048	70	6064
2026-01-04 23:50:24.83	203.63	65.86	-48.6	-51.7	15.5	7.00e-07	0	44	0	739246080	69	4978
2026-01-04 23:50:28.83	203.25	64.11	-45.5	-47.8	19.2	0.00e+00	0	44	0	746586112	62	4718
2026-01-04 23:50:32.82	202.92	62.40	-45.0	-47.2	19.8	0.00e+00	0	44	0	753926144	62	4399
2026-01-04 23:50:36.82	202.64	60.73	-47.0	-49.7	17.3	0.00e+00	0	44	0	761266176	64	5276
2026-01-04 23:50:40.81	202.40	59.10	-47.3	-50.0	17.0	0.00e+00	0	44	0	769654784	66	4849
2026-01-04 23:50:44.80	202.18	57.51	-48.7	-51.9	15.2	0.00e+00	0	44	0	776994816	67	5698
2026-01-04 23:50:48.80	201.99	55.97	-47.6	-50.4	16.7	0.00e+00	0	44	0	784334848	67	4788
2026-01-04 23:50:52.81	201.82	54.46	-46.1	-48.5	18.4	0.00e+00	0	44	0	791674880	64	4565
2026-01-04 23:50:56.81	201.67	53.00	-46.0	-48.3	18.6	0.00e+00	0	44	0	799014912	63	4750
2026-01-04 23:51:00.81	201.54	51.58	-48.3	-51.4	15.7	0.00e+00	0	44	0	806354944	67	5372
2026-01-04 23:51:04.80	201.41	50.20	-47.9	-50.9	16.2	0.00e+00	0	44	0	813694976	67	5055
2026-01-04 23:51:08.79	201.30	48.86	-48.6	-52.0	15.0	0.00e+00	0	44	0	822083584	67	5786
2026-01-04 23:51:12.78	201.20	47.57	-48.2	-51.3	15.8	0.00e+00	0	44	0	829423616	68	5012
2026-01-04 23:51:16.77	201.11	46.31	-47.7	-50.6	16.4	0.00e+00	0	44	0	836763648	66	5176
2026-01-04 23:51:20.77	201.03	45.08	-49.3	-53.1	14.2	1.50e-06	0	44	0	844103680	69	5790
2026-01-04 23:51:24.77	200.95	43.89	-47.5	-50.3	16.6	0.00e+00	0	44	0	851443712	67	4728
2026-01-04 23:51:28.77	200.88	42.74	-47.2	-50.0	17.0	0.00e+00	0	44	0	858783744	65	5106
2026-01-04 23:51:32.76	200.81	41.62	-49.2	-52.8	14.3	7.00e-07	0	44	0	866123776	69	5640
2026-01-04 23:51:36.74	200.75	40.54	-48.9	-52.2	14.9	0.00e+00	0	44	0	874512384	69	5250
2026-01-04 23:51:40.73	200.70	39.49	-48.0	-51.0	16.0	0.00e+00	0	44	0	881852416	67	5106
2026-01-04 23:51:44.72	200.65	38.47	-49.2	-52.7	14.5	0.00e+00	0	44	0	889192448	68	5912
2026-01-04 23:51:48.71	200.60	37.48	-49.3	-52.9	14.3	1.50e-06	0	44	0	896532480	69	5713
2026-01-04 23:51:52.70	200.56	36.52	-48.6	-51.8	15.4	0.00e+00	0	44	0	903872512	69	5002
2026-01-04 23:51:56.68	200.52	35.58	-48.1	-51.1	16.1	0.00e+00	0	44	0	911212544	68	4873
2026-01-04 23:52:00.67	200.48	34.68	-48.8	-52.1	15.1	0.00e+00	0	44	0	918552576	68	5512
2026-01-04 23:52:04.66	200.44	33.79	-49.8	-53.8	13.4	1.22e-05	0	44	0	925892608	70	5971
2026-01-04 23:52:08.65	200.41	32.94	-49.8	-53.9	13.2	2.21e-05	0	44	0	934281216	70	6022
2026-01-04 23:52:12.64	200.38	32.10	-49.3	-53.0	14.1	2.20e-06	0	44	0	941621248	70	5436
2026-01-04 23:52:16.63	200.35	31.29	-48.6	-51.9	15.2	0.00e+00	0	44	0	948961280	69	5067
2026-01-04 23:52:20.62	200.33	30.50	-48.7	-52.0	15.2	0.00e+00	0	44	0	956301312	68	5420
2026-01-04 23:52:24.60	200.30	29.73	-48.8	-52.3	14.8	0.00e+00	0	44	0	963641344	68	5611
2026-01-04 23:52:28.60	200.28	28.98	-48.7	-52.1	15.0	0.00e+00	0	44	0	970981376	68	5501
2026-01-04 23:52:32.59	200.26	28.25	-48.6	-51.9	15.2	0.00e+00	0	44	0	978321408	68	5397
2026-01-04 23:52:36.58	200.24	27.54	-48.1	-51.2	15.9	0.00e+00	0	44	0	986710016	68	4966
2026-01-04 23:52:40.57	200.22	26.85	-47.4	-50.2	16.7	0.00e+00	0	44	0	994050048	66	4944
2026-01-04 23:52:44.55	200.20	26.18	-46.9	-49.5	17.3	0.00e+00	0	44	0	1001390080	65	4832
2026-01-04 23:52:48.54	200.19	25.52	-46.7	-49.3	17.5	0.00e+00	0	44	0	1008730112	65	4708
2026-01-04 23:52:52.53	200.17	24.87	-46.6	-49.2	17.6	0.00e+00	0	44	0	1016070144	65	4661
2026-01-04 23:52:56.51	200.16	24.25	-46.9	-49.6	17.3	0.00e+00	0	44	0	1023410176	65	4871
2026-01-04 23:53:00.50	200.15	23.64	-46.9	-49.6	17.3	0.00e+00	0	44	0	1030750208	65	4872
2026-01-04 23:53:04.49	200.13	23.04	-46.9	-49.6	17.2	0.00e+00	0	44	0	1038090240	65	4907
2026-01-04 23:53:08.47	200.12	22.45	-47.0	-49.7	17.1	0.00e+00	0	44	0	1046478848	65	4975
2026-01-04 23:53:12.46	200.11	21.88	-46.7	-49.4	17.4	0.00e+00	0	44	0	1053818880	65	4802
2026-01-04 23:53:16.46	200.10	21.32	-46.7	-49.4	17.4	0.00e+00	0	44	0	1061158912	65	4787
2026-01-04 23:53:20.45	200.09	20.77	-46.9	-49.6	17.2	0.00e+00	0	44	0	1068498944	65	4888
2026-01-04 23:53:24.44	200.09	20.24	-47.1	-49.8	16.9	0.00e+00	0	44	0	1075838976	65	5031
2026-01-04 23:53:28.43	200.08	19.71	-47.3	-50.2	16.6	0.00e+00	0	44	0	1083179008	65	5248
2026-01-04 23:53:32.42	200.07	19.20	-47.3	-50.2	16.6	0.00e+00	0	44	0	1090519040	65	5233
2026-01-04 23:53:36.41	200.07	18.70	-47.4	-50.3	16.5	0.00e+00	0	44	0	1098907648	65	5289
2026-01-04 23:53:40.40	200.06	18.20	-47.4	-50.3	16.5	0.00e+00	0	44	0	1106247680	65	5290
2026-01-04 23:53:44.39	200.06	17.72	-47.6	-50.6	16.1	0.00e+00	0	44	0	1113587712	65	5486
2026-01-04 23:53:48.39	200.05	17.25	-47.8	-50.9	15.8	0.00e+00	0	44	0	1120927744	66	5383
2026-01-04 23:53:52.38	200.05	16.78	-47.9	-51.0	15.7	0.00e+00	0	44	0	1128267776	66	5464
2026-01-04 23:53:56.37	200.04	16.32	-48.1	-51.3	15.4	0.00e+00	0	44	0	1135607808	66	5648
2026-01-04 23:54:00.36	200.04	15.88	-48.1	-51.4	15.3	0.00e+00	0	44	0	1142947840	67	5401
2026-01-04 23:54:04.34	200.04	15.44	-48.2	-51.5	15.2	0.00e+00	0	44	0	1151336448	67	5459
2026-01-04 23:54:08.33	200.04	15.01	-48.1	-51.4	15.3	0.00e+00	0	44	0	1158676480	67	5396
2026-01-04 23:54:12.32	200.03	14.58	-48.1	-51.4	15.3	7.00e-07	0	44	0	1166016512	67	5398
2026-01-04 23:54:16.31	200.03	14.16	-48.0	-51.3	15.4	0.00e+00	0	44	0	1173356544	67	5321
2026-01-04 23:54:20.30	200.03	13.75	-48.0	-51.3	15.4	7.00e-07	0	44	0	1180696576	67	5303
2026-01-04 23:54:24.30	200.03	13.35	-48.1	-51.3	15.3	0.00e+00	0	44	0	1188036608	67	5334
2026-01-04 23:54:28.29	200.03	12.95	-48.0	-51.2	15.4	0.00e+00	0	44	0	1195376640	67	5275
2026-01-04 23:54:32.27	200.03	12.56	-48.1	-51.4	15.2	0.00e+00	0	44	0	1202716672	67	5370
2026-01-04 23:54:36.26	200.03	12.18	-48.1	-51.6	15.0	0.00e+00	0	44	0	1211105280	67	5511
2026-01-04 23:54:40.24	200.03	11.80	-48.2	-51.8	14.9	0.00e+00	0	43	0	1218445312	67	5616
2026-01-04 23:54:44.23	200.03	11.43	-48.3	-51.9	14.7	0.00e+00	0	44	0	1225785344	67	5687
2026-01-04 23:54:48.20	200.03	11.07	-48.3	-51.9	14.7	1.50e-06	0	44	0	1233125376	67	5691
2026-01-04 23:54:52.18	200.03	10.70	-48.4	-52.2	14.4	2.20e-06	0	44	0	1240465408	67	5904
2026-01-04 23:54:56.16	200.03	10.35	-48.4	-52.2	14.4	1.50e-06	0	44	0	1247805440	67	5874
2026-01-04 23:55:00.16	200.03	10.00	-48.4	-52.2	14.3	3.00e-06	0	44	0	1255145472	67	5874
2026-01-04 23:55:04.14	200.04	9.65	-48.5	-52.3	14.2	1.50e-06	0	44	0	1262485504	67	5943
2026-01-04 23:55:08.14	200.04	9.31	-48.5	-52.3	14.1	1.50e-06	0	44	0	1270874112	67	5976
2026-01-04 23:55:12.12	200.04	8.97	-52.4	-66.6	3.8	5.72e-01	0	44	104	1277165568	75	19562
2026-01-04 23:55:16.11	200.04	8.64	-53.1	-68.3	3.8	1.49e+00	0	44	104	1277165568	76	22352
2026-01-04 23:55:20.11	200.05	8.31	-53.2	-68.4	3.8	1.49e+00	0	44	104	1277165568	77	21270
2026-01-04 23:55:24.11	200.05	7.99	-53.3	-68.4	3.8	1.49e+00	0	44	104	1277165568	77	21447
2026-01-04 23:55:28.10	200.05	7.67	-53.3	-68.4	3.8	1.49e+00	0	44	104	1277165568	77	21421
2026-01-04 23:55:32.09	200.05	7.35	-53.1	-68.4	3.8	1.49e+00	0	44	104	1277165568	77	21285
2026-01-04 23:55:36.08	200.06	7.04	-52.9	-68.3	3.8	1.49e+00	0	44	104	1277165568	77	21255
2026-01-04 23:55:40.08	200.06	6.73	-52.9	-68.4	3.8	1.49e+00	0	44	104	1277165568	77	21295
2026-01-04 23:55:44.06	200.06	6.43	-52.9	-68.3	3.8	1.49e+00	0	44	104	1277165568	77	21244
2026-01-04 23:55:48.05	200.07	6.13	-52.9	-68.3	3.8	1.49e+00	0	44	104	1277165568	77	21202
2026-01-04 23:55:52.04	200.07	5.83	-52.9	-68.4	3.8	1.49e+00	0	44	104	1277165568	77	21406
2026-01-04 23:55:56.03	200.08	5.54	-52.9	-68.4	3.8	1.49e+00	0	44	104	1277165568	77	21288
2026-01-04 23:56:00.02	200.08	5.25	-52.9	-68.4	3.8	1.49e+00	0	44	104	1277165568	77	21328
2026-01-04 23:56:04.01	200.08	4.96	-52.9	-68.3	3.8	1.49e+00	0	44	104	1277165568	77	21246

#Closed at: 2026-01-04 23:56:04
#Recorded file [1277 MB]: D:/Data/31040_260105_024307.dat