passes_logs/2026/01/04/T1/T1__20260104_000154_NOAA_20_JPSS-1_rec.log

#Pass ID: 20260104_000154_NOAA 20 (JPSS-1)
#Satellite: NOAA 20 (JPSS-1)
#Configuration: NOAA 20
#almurnet v.1.7.20251203
#Start time: 2026-01-04 00:01:56

#Version: 2.0.20230620
#Station: T1
#Location: 37.570604 lon 55.790049 lat
#TLE: 1 43013U 17073A   26003.41800368  .00000169  00000+0  10117-3 0  9998
#TLE: 2 43013  98.7624 304.4804 0001884  56.1176 304.0179 14.19532918421092

#Time	Az	El	Level	Level2	SNR	BER	BlckErr	Temp	State	Recorded	gain1	gain2
2026-01-04 00:01:56.18	14.13	5.10	-53.1	-68.7	3.8	1.49e+00	0	40	0	0	77	22218
2026-01-04 00:01:59.19	14.09	5.32	-53.2	-68.7	3.8	1.49e+00	0	40	104	0	78	21003
2026-01-04 00:02:02.20	14.04	5.53	-53.1	-68.8	3.8	1.49e+00	0	41	104	0	78	21060
2026-01-04 00:02:05.21	14.00	5.75	-53.1	-68.8	3.8	1.49e+00	0	41	104	0	78	21259
2026-01-04 00:02:08.23	13.95	5.97	-53.0	-68.6	3.9	1.49e+00	0	41	104	0	77	21764
2026-01-04 00:02:11.24	13.90	6.20	-52.9	-68.4	3.8	1.49e+00	0	41	104	0	77	21477
2026-01-04 00:02:14.25	13.85	6.42	-53.0	-68.4	3.8	1.49e+00	0	41	104	0	77	21362
2026-01-04 00:02:17.27	13.80	6.65	-53.0	-68.2	3.8	1.49e+00	0	41	104	0	77	20966
2026-01-04 00:02:20.28	13.75	6.87	-53.0	-68.0	3.8	1.49e+00	0	41	104	0	77	20511
2026-01-04 00:02:23.30	13.70	7.10	-53.1	-68.1	3.8	1.49e+00	0	41	104	0	77	20744
2026-01-04 00:02:26.31	13.65	7.34	-53.1	-68.2	3.8	1.49e+00	0	41	104	0	77	20841
2026-01-04 00:02:29.32	13.59	7.57	-53.0	-67.8	3.8	1.49e+00	0	41	104	0	77	20053
2026-01-04 00:02:32.33	13.54	7.81	-53.0	-66.7	3.9	1.49e+00	0	41	104	0	77	17546
2026-01-04 00:02:35.34	13.48	8.04	-52.9	-64.6	4.4	1.35e+00	0	42	0	0	77	13845
2026-01-04 00:02:38.36	13.42	8.29	-52.7	-62.2	5.7	5.16e-01	0	42	0	5242880	77	10418
2026-01-04 00:02:41.37	13.37	8.53	-52.3	-60.2	7.3	1.47e-01	0	42	0	11534336	76	8776
2026-01-04 00:02:44.38	13.31	8.77	-51.9	-59.2	8.2	6.38e-02	0	42	0	16777216	74	8780
2026-01-04 00:02:47.40	13.24	9.02	-52.1	-59.5	7.8	6.81e-02	0	42	0	22020096	74	9171
2026-01-04 00:02:50.34	13.18	9.27	-52.9	-64.2	4.2	1.45e+00	0	42	104	26214400	77	13234
2026-01-04 00:02:53.50	13.12	9.53	-50.8	-55.9	11.3	1.09e-01	0	42	0	31457280	73	6407
2026-01-04 00:02:56.37	13.06	9.77	-48.9	-52.6	14.9	3.00e-06	0	42	0	36700160	69	5478
2026-01-04 00:02:59.52	12.99	10.04	-48.7	-52.2	15.5	0.00e+00	0	42	0	41943040	69	5220
2026-01-04 00:03:02.37	12.92	10.29	-48.5	-51.9	15.7	0.00e+00	0	42	0	48234496	69	5052
2026-01-04 00:03:05.66	12.85	10.58	-48.1	-51.3	16.1	0.00e+00	0	42	0	53477376	68	4996
2026-01-04 00:03:08.39	12.78	10.82	-48.2	-51.3	16.3	0.00e+00	0	42	0	58720256	68	5004
2026-01-04 00:03:11.68	12.70	11.11	-48.1	-51.2	16.3	0.00e+00	0	42	0	65011712	68	4981
2026-01-04 00:03:14.69	12.63	11.38	-48.3	-51.4	16.3	0.00e+00	0	42	0	71303168	68	5071
2026-01-04 00:03:18.47	12.54	11.73	-47.9	-50.9	16.6	0.00e+00	0	42	0	77594624	67	5050
2026-01-04 00:03:21.21	12.47	11.98	-47.9	-50.9	16.7	0.00e+00	0	42	0	82837504	67	5098
2026-01-04 00:03:25.00	12.37	12.34	-47.7	-50.7	16.9	0.00e+00	0	42	0	90177536	67	4954
2026-01-04 00:03:27.73	12.29	12.60	-47.5	-50.4	17.2	0.00e+00	0	42	0	95420416	67	4786
2026-01-04 00:03:31.51	12.19	12.96	-47.4	-50.3	17.3	0.00e+00	0	42	0	102760448	66	4987
2026-01-04 00:03:34.27	12.11	13.23	-47.3	-50.2	17.3	0.00e+00	0	42	0	108003328	66	4944
2026-01-04 00:03:38.01	12.00	13.60	-47.5	-50.3	17.3	0.00e+00	0	42	0	114294784	66	5040
2026-01-04 00:03:41.15	11.91	13.91	-47.3	-50.2	17.4	0.00e+00	0	42	0	120586240	66	4945
2026-01-04 00:03:44.16	11.82	14.21	-47.1	-49.9	17.7	0.00e+00	0	43	0	125829120	66	4774
2026-01-04 00:03:47.18	11.72	14.52	-47.0	-49.7	17.9	0.00e+00	0	42	0	132120576	65	4954
2026-01-04 00:03:50.35	11.62	14.85	-47.0	-49.7	17.9	0.00e+00	0	43	0	137363456	65	4973
2026-01-04 00:03:53.24	11.53	15.15	-46.9	-49.6	18.1	0.00e+00	0	42	0	143654912	65	4878
2026-01-04 00:03:56.39	11.42	15.49	-46.7	-49.4	18.2	0.00e+00	0	43	0	148897792	65	4779
2026-01-04 00:03:59.25	11.33	15.80	-46.7	-49.3	18.3	0.00e+00	0	43	0	154140672	65	4726
2026-01-04 00:04:02.41	11.21	16.14	-46.7	-49.3	18.4	0.00e+00	0	43	0	160432128	65	4745
2026-01-04 00:04:05.25	11.11	16.46	-46.8	-49.4	18.4	0.00e+00	0	43	0	165675008	65	4797
2026-01-04 00:04:08.75	10.98	16.85	-46.5	-49.0	18.7	0.00e+00	0	43	0	171966464	65	4596
2026-01-04 00:04:11.48	10.88	17.16	-46.4	-48.9	18.8	0.00e+00	0	43	0	177209344	64	4761
2026-01-04 00:04:14.77	10.75	17.54	-46.4	-48.9	18.8	0.00e+00	0	43	0	183500800	64	4784
2026-01-04 00:04:17.49	10.64	17.86	-46.3	-48.8	18.9	0.00e+00	0	43	0	188743680	64	4715
2026-01-04 00:04:20.79	10.51	18.25	-46.3	-48.8	19.0	0.00e+00	0	42	0	195035136	64	4716
2026-01-04 00:04:23.58	10.39	18.59	-46.3	-48.7	19.0	0.00e+00	0	43	0	200278016	64	4701
2026-01-04 00:04:26.87	10.25	18.99	-46.3	-48.8	18.9	0.00e+00	0	43	0	206569472	64	4706
2026-01-04 00:04:29.60	10.13	19.32	-46.1	-48.6	19.1	0.00e+00	0	43	0	211812352	64	4624
2026-01-04 00:04:32.89	9.98	19.74	-46.2	-48.7	19.0	0.00e+00	0	43	0	217055232	64	4663
2026-01-04 00:04:35.61	9.85	20.09	-46.1	-48.6	19.2	0.00e+00	0	43	0	222298112	64	4611
2026-01-04 00:04:38.90	9.69	20.51	-46.0	-48.5	19.3	0.00e+00	0	43	0	228589568	64	4549
2026-01-04 00:04:41.66	9.56	20.87	-46.0	-48.4	19.4	0.00e+00	0	43	0	233832448	64	4509
2026-01-04 00:04:45.42	9.37	21.38	-46.1	-48.4	19.5	0.00e+00	0	43	0	241172480	63	4767
2026-01-04 00:04:48.17	9.22	21.75	-46.1	-48.3	19.4	0.00e+00	0	43	0	246415360	63	4759
2026-01-04 00:04:51.96	9.02	22.28	-46.0	-48.2	19.5	0.00e+00	0	43	0	253755392	63	4678
2026-01-04 00:04:54.71	8.87	22.66	-46.0	-48.2	19.7	0.00e+00	0	43	0	257949696	63	4660
2026-01-04 00:04:58.72	8.63	23.24	-46.0	-48.2	19.7	0.00e+00	0	43	0	266338304	63	4683
2026-01-04 00:05:01.48	8.47	23.64	-46.0	-48.3	19.6	0.00e+00	0	43	0	271581184	63	4718
2026-01-04 00:05:05.25	8.24	24.20	-46.3	-48.6	19.3	0.00e+00	0	43	0	277872640	63	4912
2026-01-04 00:05:08.16	8.05	24.64	-46.5	-48.8	19.2	0.00e+00	0	43	0	284164096	63	5023
2026-01-04 00:05:11.49	7.83	25.15	-46.7	-49.0	18.9	0.00e+00	0	43	0	290455552	64	4841
2026-01-04 00:05:14.21	7.65	25.58	-46.9	-49.3	18.6	0.00e+00	0	43	0	294649856	64	4988
2026-01-04 00:05:17.50	7.42	26.10	-47.0	-49.4	18.4	0.00e+00	0	43	0	300941312	64	5083
2026-01-04 00:05:20.58	7.20	26.60	-47.3	-49.7	18.2	0.00e+00	0	43	0	307232768	65	4957
2026-01-04 00:05:23.95	6.94	27.16	-47.6	-50.1	17.8	0.00e+00	0	43	0	313524224	65	5179
2026-01-04 00:05:26.72	6.73	27.62	-47.9	-50.5	17.5	0.00e+00	0	43	0	318767104	66	5118
2026-01-04 00:05:30.02	6.46	28.19	-48.1	-50.7	17.2	0.00e+00	0	43	0	325058560	66	5273
2026-01-04 00:05:32.74	6.24	28.66	-48.4	-51.3	16.8	0.00e+00	0	43	0	330301440	67	5283
2026-01-04 00:05:36.25	5.94	29.28	-49.1	-52.1	16.2	0.00e+00	0	43	0	336592896	68	5490
2026-01-04 00:05:38.97	5.69	29.78	-49.3	-52.5	15.7	0.00e+00	0	43	0	341835776	69	5413
2026-01-04 00:05:42.26	5.39	30.38	-49.3	-52.4	15.7	0.00e+00	0	43	0	348127232	69	5382
2026-01-04 00:05:45.06	5.12	30.91	-49.5	-52.7	15.5	0.00e+00	0	43	0	353370112	69	5563
2026-01-04 00:05:48.72	4.76	31.60	-50.0	-53.4	14.9	0.00e+00	0	43	0	359661568	70	5704
2026-01-04 00:05:51.56	4.46	32.16	-50.2	-53.9	14.5	0.00e+00	0	43	0	364904448	71	5662
2026-01-04 00:05:54.85	4.11	32.81	-50.4	-54.2	14.1	3.00e-06	0	43	0	371195904	71	5860
2026-01-04 00:05:57.57	3.81	33.36	-50.4	-54.0	14.2	7.00e-07	0	43	0	376438784	71	5732
2026-01-04 00:06:00.86	3.42	34.04	-50.4	-54.1	14.1	4.50e-06	0	43	0	382730240	71	5831
2026-01-04 00:06:03.58	3.09	34.61	-50.2	-54.0	14.2	7.00e-07	0	43	0	387973120	71	5732
2026-01-04 00:06:06.88	2.68	35.31	-49.8	-53.3	14.9	0.00e+00	0	43	0	394264576	71	5286
2026-01-04 00:06:09.60	2.32	35.90	-49.7	-53.1	15.1	0.00e+00	0	43	0	398458880	71	5175
2026-01-04 00:06:12.90	1.87	36.63	-50.0	-53.7	14.5	1.50e-06	0	43	0	404750336	71	5568
2026-01-04 00:06:15.81	1.45	37.29	-50.4	-54.4	13.7	2.20e-06	0	43	0	411041792	71	6050
2026-01-04 00:06:19.59	0.89	38.16	-50.5	-54.5	13.6	6.10e-06	0	43	0	417333248	71	6068
2026-01-04 00:06:22.33	0.46	38.80	-50.8	-54.7	13.5	1.22e-05	0	43	0	422576128	72	5896
2026-01-04 00:06:26.07	359.84	39.69	-50.5	-54.4	13.8	6.10e-06	0	43	0	429916160	72	5660
2026-01-04 00:06:29.06	359.32	40.42	-50.5	-54.1	14.4	7.00e-07	0	43	0	435159040	72	5469
2026-01-04 00:06:32.16	358.76	41.19	-50.1	-53.6	14.7	0.00e+00	0	43	0	441450496	72	5195
2026-01-04 00:06:35.06	358.21	41.92	-49.6	-52.9	15.4	0.00e+00	0	43	0	446693376	71	5057
2026-01-04 00:06:38.66	357.48	42.84	-49.6	-52.7	15.6	0.00e+00	0	43	0	452984832	71	4953
2026-01-04 00:06:41.47	356.89	43.57	-49.1	-52.1	16.3	0.00e+00	0	43	0	458227712	70	4872
2026-01-04 00:06:44.77	356.15	44.45	-48.3	-51.0	17.2	0.00e+00	0	43	0	464519168	68	4870
2026-01-04 00:06:47.49	355.52	45.18	-48.3	-51.1	17.2	0.00e+00	0	43	0	469762048	68	4884
2026-01-04 00:06:50.79	354.70	46.08	-48.0	-50.6	17.6	0.00e+00	0	43	0	476053504	68	4600
2026-01-04 00:06:53.81	353.91	46.91	-47.8	-50.3	17.7	0.00e+00	0	43	0	481296384	67	4747
2026-01-04 00:06:56.88	353.07	47.77	-47.9	-50.5	17.6	0.00e+00	0	43	0	487587840	67	4827
2026-01-04 00:06:59.75	352.23	48.58	-48.1	-50.7	17.4	0.00e+00	0	43	0	492830720	67	4944
2026-01-04 00:07:02.99	351.23	49.51	-47.9	-50.4	17.7	0.00e+00	0	43	0	499122176	67	4787
2026-01-04 00:07:05.88	350.29	50.35	-47.6	-50.1	18.0	0.00e+00	0	43	0	504365056	67	4627
2026-01-04 00:07:09.15	349.15	51.30	-46.9	-49.2	18.9	0.00e+00	0	43	0	510656512	65	4656
2026-01-04 00:07:12.33	347.98	52.23	-46.4	-48.6	19.4	0.00e+00	0	43	0	516947968	64	4617
2026-01-04 00:07:15.20	346.85	53.08	-46.2	-48.4	19.6	0.00e+00	0	43	0	522190848	64	4534
2026-01-04 00:07:18.43	345.50	54.03	-46.9	-49.2	18.9	0.00e+00	0	43	0	528482304	64	4951
2026-01-04 00:07:21.30	344.22	54.88	-47.5	-50.0	18.1	0.00e+00	0	43	0	533725184	65	5150
2026-01-04 00:07:24.45	342.72	55.81	-48.7	-51.5	16.7	0.00e+00	0	43	0	538968064	67	5450
2026-01-04 00:07:27.31	341.28	56.65	-50.3	-53.8	14.7	0.00e+00	0	43	0	544210944	71	5621
2026-01-04 00:07:30.47	339.57	57.57	-50.5	-54.0	14.6	0.00e+00	0	43	0	550502400	71	5773
2026-01-04 00:07:33.33	337.93	58.40	-49.8	-53.0	15.6	0.00e+00	0	43	0	555745280	71	5110
2026-01-04 00:07:36.61	335.91	59.33	-49.3	-52.2	16.3	0.00e+00	0	43	0	562036736	70	4952
2026-01-04 00:07:39.33	334.13	60.08	-48.0	-50.5	17.8	0.00e+00	0	43	0	567279616	68	4592
2026-01-04 00:07:42.63	331.82	60.97	-46.0	-48.1	19.9	0.00e+00	0	43	0	573571072	63	4640
2026-01-04 00:07:45.35	329.79	61.68	-45.5	-47.6	20.5	0.00e+00	0	43	0	578813952	63	4345
2026-01-04 00:07:48.68	327.14	62.52	-46.2	-48.4	19.7	0.00e+00	0	43	0	585105408	63	4785
2026-01-04 00:07:51.74	324.55	63.25	-46.2	-48.4	19.7	0.00e+00	0	43	0	590348288	63	4768
2026-01-04 00:07:54.75	321.84	63.92	-45.7	-47.8	20.3	0.00e+00	0	43	0	595591168	63	4451
2026-01-04 00:07:57.75	318.99	64.54	-46.4	-48.6	19.5	0.00e+00	0	43	0	601882624	63	4888
2026-01-04 00:08:00.74	315.99	65.10	-46.7	-49.0	19.0	0.00e+00	0	43	0	607125504	64	4840
2026-01-04 00:08:03.99	312.56	65.65	-48.9	-51.6	17.0	0.00e+00	0	43	0	613416960	68	5188
2026-01-04 00:08:06.85	309.42	66.06	-48.6	-51.3	17.3	0.00e+00	0	43	0	618659840	68	5015
2026-01-04 00:08:10.01	305.81	66.44	-48.8	-51.5	16.8	0.00e+00	0	43	0	624951296	68	5154
2026-01-04 00:08:12.86	302.46	66.70	-48.9	-51.6	16.7	0.00e+00	0	43	0	630194176	68	5206
2026-01-04 00:08:16.11	298.55	66.92	-48.6	-51.4	17.0	0.00e+00	0	43	0	636485632	68	5051
2026-01-04 00:08:18.98	295.04	67.02	-48.7	-51.4	16.8	0.00e+00	0	43	0	641728512	68	5092
2026-01-04 00:08:22.12	291.18	67.05	-48.4	-51.1	17.1	0.00e+00	0	43	0	646971392	68	4912
2026-01-04 00:08:25.23	287.36	66.98	-48.7	-51.6	16.7	0.00e+00	0	43	0	653262848	68	5179
2026-01-04 00:08:28.27	283.67	66.82	-48.5	-51.3	17.1	0.00e+00	0	43	0	658505728	68	5002
2026-01-04 00:08:31.28	280.08	66.58	-48.2	-50.9	17.4	0.00e+00	0	43	0	664797184	68	4784
2026-01-04 00:08:34.28	276.60	66.26	-48.5	-51.2	17.0	0.00e+00	0	43	0	670040064	68	4951
2026-01-04 00:08:37.29	273.22	65.86	-47.6	-50.1	17.8	0.00e+00	0	43	0	676331520	67	4648
2026-01-04 00:08:40.28	270.00	65.39	-47.2	-49.6	18.5	0.00e+00	0	43	0	681574400	66	4608
2026-01-04 00:08:43.36	266.82	64.84	-46.1	-48.2	19.8	0.00e+00	0	43	0	686817280	63	4680
2026-01-04 00:08:46.51	263.74	64.22	-45.6	-47.6	20.4	0.00e+00	0	43	0	693108736	63	4381
2026-01-04 00:08:49.37	261.09	63.60	-45.6	-47.6	20.6	0.00e+00	0	43	0	698351616	63	4387
2026-01-04 00:08:52.52	258.33	62.88	-46.2	-48.3	19.8	0.00e+00	0	43	0	704643072	62	5025
2026-01-04 00:08:55.38	255.97	62.18	-46.9	-49.2	18.9	0.00e+00	0	43	0	709885952	64	4977
2026-01-04 00:08:58.63	253.46	61.34	-48.5	-51.2	16.9	0.00e+00	0	43	0	716177408	67	5267
2026-01-04 00:09:01.49	251.38	60.58	-49.6	-52.7	15.7	0.00e+00	0	43	0	721420288	69	5551
2026-01-04 00:09:04.64	249.24	59.72	-49.9	-53.1	15.2	0.00e+00	0	43	0	726663168	70	5498
2026-01-04 00:09:07.74	247.26	58.85	-50.4	-53.9	14.4	7.00e-07	0	43	0	732954624	71	5681
2026-01-04 00:09:10.82	245.43	57.96	-50.1	-53.4	14.9	0.00e+00	0	43	0	738197504	71	5375
2026-01-04 00:09:14.11	243.60	57.01	-49.1	-52.0	16.3	0.00e+00	0	43	0	744488960	70	4819
2026-01-04 00:09:16.93	242.13	56.18	-47.6	-50.0	18.0	0.00e+00	0	43	0	749731840	67	4591
2026-01-04 00:09:20.22	240.53	55.21	-47.7	-50.1	18.2	0.00e+00	0	43	0	756023296	66	4893
2026-01-04 00:09:23.30	239.12	54.29	-47.5	-49.9	18.3	0.00e+00	0	43	0	762314752	66	4782
2026-01-04 00:09:26.37	237.81	53.38	-47.5	-50.0	18.1	0.00e+00	0	43	0	767557632	66	4854
2026-01-04 00:09:29.24	236.65	52.53	-48.5	-51.3	16.8	0.00e+00	0	43	0	772800512	67	5325
2026-01-04 00:09:32.39	235.46	51.60	-48.1	-50.7	17.5	0.00e+00	0	43	0	779091968	68	4683
2026-01-04 00:09:35.25	234.44	50.76	-48.1	-50.8	17.2	0.00e+00	0	43	0	784334848	67	5017
2026-01-04 00:09:38.65	233.29	49.78	-49.4	-52.5	15.9	0.00e+00	0	43	0	790626304	69	5405
2026-01-04 00:09:41.37	232.43	48.99	-49.2	-52.2	16.1	0.00e+00	0	43	0	795869184	69	5231
2026-01-04 00:09:44.66	231.45	48.05	-48.4	-51.0	17.2	0.00e+00	0	43	0	802160640	68	4862
2026-01-04 00:09:47.57	230.62	47.23	-48.7	-51.4	16.8	0.00e+00	0	43	0	807403520	68	5081
2026-01-04 00:09:50.59	229.81	46.39	-48.8	-51.7	16.5	0.00e+00	0	43	0	813694976	68	5277
2026-01-04 00:09:53.60	229.05	45.56	-48.5	-51.3	16.9	1.50e-06	0	43	0	818937856	68	5037
2026-01-04 00:09:56.53	228.34	44.76	-49.3	-52.3	15.9	0.00e+00	0	43	0	824180736	69	5335
2026-01-04 00:09:59.68	227.62	43.92	-49.9	-53.1	15.4	0.00e+00	0	43	0	830472192	70	5519
2026-01-04 00:10:02.73	226.96	43.12	-50.3	-53.7	14.9	7.00e-07	0	43	0	835715072	71	5535
2026-01-04 00:10:05.98	226.29	42.28	-50.3	-53.8	14.6	0.00e+00	0	43	0	842006528	71	5606
2026-01-04 00:10:08.85	225.73	41.54	-50.5	-54.3	14.0	7.00e-07	0	43	0	847249408	71	5925
2026-01-04 00:10:12.00	225.14	40.75	-51.1	-55.2	12.9	2.51e-05	0	43	0	853540864	72	6251
2026-01-04 00:10:14.87	224.62	40.04	-51.2	-55.4	12.8	4.04e-05	0	43	0	858783744	73	6003
2026-01-04 00:10:18.02	224.09	39.28	-50.5	-54.1	14.1	2.20e-06	0	43	0	865075200	72	5495
2026-01-04 00:10:20.88	223.62	38.60	-50.6	-54.5	13.8	2.20e-06	0	43	0	870318080	72	5743
2026-01-04 00:10:24.04	223.13	37.86	-50.4	-54.3	13.8	7.00e-07	0	43	0	875560960	72	5597
2026-01-04 00:10:26.90	222.70	37.20	-49.9	-53.3	14.8	0.00e+00	0	43	0	881852416	71	5290
2026-01-04 00:10:30.15	222.24	36.47	-49.6	-52.7	15.7	0.00e+00	0	43	0	887095296	71	4962
2026-01-04 00:10:33.60	221.77	35.70	-49.7	-52.7	15.7	0.00e+00	0	43	0	893386752	70	5277
2026-01-04 00:10:36.37	221.40	35.10	-49.6	-52.7	15.6	0.00e+00	0	43	0	898629632	70	5266
2026-01-04 00:10:39.66	220.99	34.40	-49.1	-52.0	16.2	0.00e+00	0	43	0	904921088	70	4870
2026-01-04 00:10:42.39	220.66	33.83	-49.2	-52.2	16.3	0.00e+00	0	43	0	910163968	70	4932
2026-01-04 00:10:45.76	220.27	33.13	-49.7	-53.1	15.2	0.00e+00	0	43	0	916455424	70	5472
2026-01-04 00:10:48.49	219.97	32.58	-50.1	-53.7	14.4	0.00e+00	0	43	0	921698304	71	5576
2026-01-04 00:10:51.78	219.61	31.93	-50.3	-53.9	14.2	1.50e-06	0	43	0	927989760	71	5700
2026-01-04 00:10:54.82	219.30	31.34	-50.3	-53.9	14.1	7.00e-07	0	43	0	933232640	71	5709
2026-01-04 00:10:58.11	218.97	30.71	-50.5	-54.0	14.5	0.00e+00	0	43	0	939524096	71	5758
2026-01-04 00:11:00.93	218.70	30.18	-50.5	-54.1	14.3	7.00e-07	0	43	0	944766976	71	5797
2026-01-04 00:11:04.22	218.40	29.58	-50.7	-54.6	13.7	2.20e-06	0	43	0	951058432	71	6169
2026-01-04 00:11:07.30	218.13	29.02	-50.8	-54.9	13.2	1.67e-05	0	43	0	957349888	72	6032
2026-01-04 00:11:10.16	217.88	28.51	-50.7	-54.7	13.4	1.44e-05	0	43	0	962592768	72	5910
2026-01-04 00:11:13.31	217.62	27.96	-49.8	-53.2	14.9	0.00e+00	0	43	0	967835648	71	5243
2026-01-04 00:11:16.18	217.39	27.47	-49.3	-52.3	15.8	0.00e+00	0	43	0	974127104	70	5040
2026-01-04 00:11:19.33	217.14	26.94	-49.2	-52.2	16.0	0.00e+00	0	43	0	979369984	70	4935
2026-01-04 00:11:22.20	216.93	26.47	-49.6	-52.7	15.4	0.00e+00	0	43	0	984612864	70	5275
2026-01-04 00:11:25.35	216.70	25.96	-49.9	-53.3	14.8	0.00e+00	0	43	0	990904320	70	5633
2026-01-04 00:11:28.22	216.49	25.50	-49.9	-53.3	15.0	0.00e+00	0	43	0	996147200	71	5319
2026-01-04 00:11:31.37	216.28	25.00	-49.6	-52.9	15.2	0.00e+00	0	43	0	1002438656	71	5096
2026-01-04 00:11:34.24	216.09	24.56	-49.0	-52.0	16.1	0.00e+00	0	43	0	1007681536	70	4868
2026-01-04 00:11:37.39	215.88	24.08	-48.7	-51.5	16.5	0.00e+00	0	43	0	1013972992	69	4846
2026-01-04 00:11:40.25	215.71	23.65	-48.7	-51.5	16.6	0.00e+00	0	43	0	1019215872	69	4844
2026-01-04 00:11:43.45	215.51	23.18	-48.5	-51.3	16.8	0.00e+00	0	43	0	1024458752	69	4734
2026-01-04 00:11:46.32	215.34	22.77	-48.5	-51.2	16.9	0.00e+00	0	43	0	1029701632	68	4956
2026-01-04 00:11:49.47	215.16	22.32	-48.3	-51.1	17.0	0.00e+00	0	43	0	1035993088	68	4887
2026-01-04 00:11:52.43	215.00	21.91	-48.0	-50.7	17.4	0.00e+00	0	43	0	1041235968	68	4656
2026-01-04 00:11:55.44	214.83	21.49	-47.8	-50.4	17.5	0.00e+00	0	43	0	1047527424	67	4782
2026-01-04 00:11:58.44	214.68	21.09	-48.1	-50.8	17.4	0.00e+00	0	43	0	1052770304	67	5011
2026-01-04 00:12:01.45	214.52	20.68	-48.3	-51.0	17.2	0.00e+00	0	43	0	1059061760	67	5125
2026-01-04 00:12:04.54	214.37	20.28	-48.3	-51.1	16.9	0.00e+00	0	43	0	1064304640	67	5187
2026-01-04 00:12:07.40	214.23	19.91	-48.4	-51.3	16.7	0.00e+00	0	43	0	1069547520	67	5280
2026-01-04 00:12:10.55	214.08	19.50	-48.3	-51.2	16.7	0.00e+00	0	43	0	1075838976	67	5233
2026-01-04 00:12:13.41	213.95	19.14	-48.4	-51.3	16.6	0.00e+00	0	43	0	1081081856	67	5310
2026-01-04 00:12:16.56	213.81	18.75	-48.1	-51.0	16.8	0.00e+00	0	43	0	1087373312	67	5108
2026-01-04 00:12:19.43	213.68	18.40	-48.2	-51.0	16.9	0.00e+00	0	43	0	1092616192	67	5115
2026-01-04 00:12:22.58	213.55	18.02	-47.9	-50.6	17.2	0.00e+00	0	43	0	1097859072	67	4899
2026-01-04 00:12:25.45	213.43	17.68	-47.7	-50.4	17.3	0.00e+00	0	43	0	1103101952	67	4770
2026-01-04 00:12:28.74	213.30	17.30	-47.8	-50.5	17.1	0.00e+00	0	43	0	1109393408	67	4848
2026-01-04 00:12:31.65	213.18	16.96	-47.9	-50.6	17.1	0.00e+00	0	43	0	1115684864	67	4910
2026-01-04 00:12:34.66	213.07	16.62	-48.5	-51.3	16.8	0.00e+00	0	43	0	1120927744	67	5326
2026-01-04 00:12:37.76	212.95	16.27	-48.6	-51.4	16.5	0.00e+00	0	43	0	1126170624	67	5402
2026-01-04 00:12:40.72	212.84	15.95	-48.8	-51.7	16.3	0.00e+00	0	43	0	1132462080	68	5273
2026-01-04 00:12:43.82	212.73	15.61	-48.8	-51.8	16.2	0.00e+00	0	43	0	1137704960	68	5327
2026-01-04 00:12:46.97	212.62	15.27	-48.9	-52.0	16.0	0.00e+00	0	43	0	1143996416	68	5442
2026-01-04 00:12:49.84	212.52	14.96	-49.0	-52.1	16.1	0.00e+00	0	43	0	1149239296	68	5487
2026-01-04 00:12:52.98	212.42	14.63	-48.9	-51.9	16.1	0.00e+00	0	43	0	1155530752	68	5359
2026-01-04 00:12:55.88	212.32	14.33	-48.9	-51.9	16.1	0.00e+00	0	43	0	1160773632	68	5384
2026-01-04 00:12:59.16	212.22	14.00	-49.1	-52.3	15.7	0.00e+00	0	43	0	1167065088	68	5609
2026-01-04 00:13:01.88	212.14	13.72	-48.9	-52.0	16.0	0.00e+00	0	43	0	1172307968	68	5436
2026-01-04 00:13:05.19	212.03	13.39	-49.2	-52.5	15.6	0.00e+00	0	43	0	1178599424	69	5408
2026-01-04 00:13:08.07	211.95	13.11	-49.3	-52.5	15.7	0.00e+00	0	43	0	1183842304	69	5431
2026-01-04 00:13:11.75	211.84	12.75	-49.3	-52.5	15.8	0.00e+00	0	43	0	1190133760	69	5403
2026-01-04 00:13:14.47	211.76	12.49	-49.2	-52.4	15.7	0.00e+00	0	43	0	1195376640	69	5352
2026-01-04 00:13:17.77	211.67	12.17	-49.3	-52.5	15.6	0.00e+00	0	43	0	1201668096	69	5419
2026-01-04 00:13:20.50	211.60	11.92	-49.4	-52.7	15.3	0.00e+00	0	43	0	1206910976	69	5565
2026-01-04 00:13:23.86	211.51	11.60	-49.3	-52.6	15.3	0.00e+00	0	43	0	1213202432	69	5506
2026-01-04 00:13:26.84	211.43	11.33	-49.5	-52.8	15.1	0.00e+00	0	43	0	1218445312	69	5650
2026-01-04 00:13:30.13	211.35	11.03	-49.5	-53.0	15.0	0.00e+00	0	43	0	1224736768	69	5732
2026-01-04 00:13:32.90	211.28	10.78	-49.7	-53.2	14.7	7.00e-07	0	43	0	1229979648	69	5894
2026-01-04 00:13:36.18	211.20	10.49	-49.8	-53.4	14.6	7.00e-07	0	43	0	1236271104	70	5678
2026-01-04 00:13:39.04	211.13	10.24	-49.7	-53.2	14.8	0.00e+00	0	43	0	1241513984	70	5555
2026-01-04 00:13:42.20	211.05	9.96	-49.9	-53.5	14.6	0.00e+00	0	43	0	1247805440	70	5749
2026-01-04 00:13:45.13	210.99	9.71	-49.7	-53.2	14.7	0.00e+00	0	43	0	1253048320	70	5592
2026-01-04 00:13:48.52	210.91	9.42	-49.7	-53.4	14.5	1.50e-06	0	43	0	1259339776	70	5667
2026-01-04 00:13:51.23	210.85	9.20	-50.0	-53.6	14.5	7.00e-07	0	43	0	1264582656	70	5854
2026-01-04 00:13:54.56	210.78	8.92	-54.0	-69.0	3.8	1.49e+00	0	43	104	1268776960	78	21737
2026-01-04 00:13:57.29	210.72	8.69	-54.3	-69.5	3.8	1.49e+00	0	43	104	1268776960	79	21613
2026-01-04 00:14:00.62	210.65	8.42	-54.3	-69.6	3.8	1.49e+00	0	43	104	1268776960	79	21763
2026-01-04 00:14:03.41	210.59	8.19	-54.5	-69.6	3.8	1.49e+00	0	43	104	1268776960	80	20758
2026-01-04 00:14:06.84	210.52	7.92	-54.5	-69.6	3.8	1.49e+00	0	43	104	1268776960	80	20704
2026-01-04 00:14:09.56	210.47	7.70	-54.5	-69.6	3.8	1.49e+00	0	43	104	1268776960	80	20776
2026-01-04 00:14:12.88	210.40	7.44	-54.2	-69.6	3.8	1.49e+00	0	43	104	1268776960	80	20552
2026-01-04 00:14:15.60	210.35	7.23	-54.3	-69.6	3.8	1.49e+00	0	43	104	1268776960	80	20728
2026-01-04 00:14:18.90	210.29	6.97	-54.2	-69.5	3.8	1.49e+00	0	43	104	1268776960	80	20517
2026-01-04 00:14:21.63	210.24	6.76	-54.2	-69.5	3.8	1.49e+00	0	43	104	1268776960	80	20526
2026-01-04 00:14:24.93	210.18	6.51	-54.3	-69.6	3.8	1.49e+00	0	43	104	1268776960	80	20685
2026-01-04 00:14:27.66	210.13	6.31	-54.1	-69.5	3.8	1.49e+00	0	43	104	1268776960	80	20367
2026-01-04 00:14:30.96	210.07	6.06	-54.1	-69.5	3.8	1.49e+00	0	43	104	1268776960	80	20438
2026-01-04 00:14:33.68	210.03	5.86	-54.3	-69.6	3.8	1.49e+00	0	43	104	1268776960	80	20610
2026-01-04 00:14:36.98	209.97	5.62	-54.2	-69.6	3.8	1.49e+00	0	43	104	1268776960	80	20598
2026-01-04 00:14:39.71	209.93	5.42	-54.2	-69.6	3.8	1.49e+00	0	43	104	1268776960	80	20592
2026-01-04 00:14:43.01	209.87	5.18	-54.4	-69.7	3.8	1.49e+00	0	43	104	1268776960	80	20974
2026-01-04 00:14:45.73	209.83	4.99	-54.3	-69.7	3.8	1.49e+00	0	43	104	1268776960	80	21009

#Closed at: 2026-01-04 00:14:47
#Recorded file [1268 MB]: D:/Data/31040_260104_030156.dat