passes_logs/2026/01/04/T1/T1__20260104_075819_KHAYYAM_rec.log

#Pass ID: 20260104_075819_KHAYYAM
#Satellite: KHAYYAM
#Configuration: KHAYYAM_480M
#almurnet v.1.7.20251203
#Start time: 2026-01-04 07:58:20

#Version: 2.0.20230620
#Station: T1
#Location: 37.570604 lon 55.790049 lat
#TLE: 1 53370U 22096A   26003.99696618  .00009512  00000+0  38724-3 0  9995
#TLE: 2 53370  97.3569 271.2030 0001229  84.9746 275.1632 15.24705684189563

#Time	Az	El	Level	Level2	SNR	BER	BlckErr	Temp	State	Recorded	gain1	gain2
2026-01-04 07:58:20.27	168.05	5.03	-56.8	-61.7	3.5	0.00e+00	0	45	0	0	85	25021
2026-01-04 07:58:22.28	168.08	5.19	-51.5	-56.7	3.7	0.00e+00	0	45	104	0	74	26571
2026-01-04 07:58:24.29	168.11	5.36	-51.6	-56.8	3.7	0.00e+00	0	45	104	0	74	26601
2026-01-04 07:58:26.29	168.13	5.53	-51.7	-56.9	3.7	0.00e+00	0	46	104	0	74	27130
2026-01-04 07:58:28.30	168.16	5.70	-51.4	-56.6	3.7	0.00e+00	0	46	104	0	74	26254
2026-01-04 07:58:30.31	168.19	5.87	-51.7	-57.0	3.7	0.00e+00	0	46	104	0	74	27257
2026-01-04 07:58:32.32	168.22	6.04	-51.4	-56.7	3.7	0.00e+00	0	46	104	0	74	26365
2026-01-04 07:58:34.32	168.25	6.21	-51.2	-56.6	3.7	0.00e+00	0	46	104	0	74	25980
2026-01-04 07:58:36.34	168.28	6.39	-51.4	-56.7	3.7	0.00e+00	0	47	104	0	74	26579
2026-01-04 07:58:38.35	168.31	6.57	-51.3	-56.5	3.7	0.00e+00	0	47	104	0	74	25858
2026-01-04 07:58:40.35	168.34	6.74	-51.2	-56.6	3.7	0.00e+00	0	47	104	0	74	25988
2026-01-04 07:58:42.36	168.38	6.92	-51.4	-56.7	3.7	0.00e+00	0	47	104	0	74	26362
2026-01-04 07:58:44.37	168.41	7.11	-51.5	-56.9	3.7	0.00e+00	0	47	104	0	74	26912
2026-01-04 07:58:46.37	168.44	7.29	-51.5	-56.7	3.7	0.00e+00	0	47	104	0	74	26394
2026-01-04 07:58:48.38	168.47	7.47	-51.5	-56.8	3.7	0.00e+00	0	47	104	0	74	26699
2026-01-04 07:58:50.39	168.51	7.66	-51.6	-56.8	3.7	0.00e+00	0	48	104	0	74	26801
2026-01-04 07:58:52.40	168.54	7.85	-51.8	-57.0	3.7	0.00e+00	0	48	104	0	74	27489
2026-01-04 07:58:54.40	168.57	8.04	-51.0	-56.4	3.7	0.00e+00	0	48	104	0	74	25592
2026-01-04 07:58:56.42	168.61	8.24	-51.5	-56.6	3.7	0.00e+00	0	48	104	0	74	26258
2026-01-04 07:58:58.42	168.64	8.43	-51.4	-56.5	3.7	0.00e+00	0	48	104	0	74	25914
2026-01-04 07:59:00.43	168.68	8.63	-51.3	-56.5	3.7	0.00e+00	0	48	104	0	74	25730
2026-01-04 07:59:02.44	168.72	8.83	-51.3	-56.5	3.7	0.00e+00	0	48	104	0	73	27499
2026-01-04 07:59:04.44	168.75	9.03	-51.3	-56.6	3.7	0.00e+00	0	48	104	0	73	27584
2026-01-04 07:59:06.45	168.79	9.23	-51.8	-56.9	3.7	0.00e+00	0	48	104	0	74	27195
2026-01-04 07:59:08.52	168.83	9.44	-51.8	-57.0	3.7	0.00e+00	0	49	104	0	74	27506
2026-01-04 07:59:10.52	168.87	9.65	-52.1	-57.5	3.7	0.00e+00	0	49	104	0	74	28899
2026-01-04 07:59:12.52	168.91	9.86	-52.0	-57.3	3.7	0.00e+00	0	49	104	0	74	28227
2026-01-04 07:59:14.53	168.95	10.07	-52.4	-57.7	3.7	0.00e+00	0	49	104	0	75	27845
2026-01-04 07:59:16.53	168.99	10.29	-52.2	-57.5	3.7	0.00e+00	0	49	104	0	75	27290
2026-01-04 07:59:18.54	169.03	10.51	-52.1	-57.4	3.7	0.00e+00	0	49	104	0	75	27077
2026-01-04 07:59:20.55	169.07	10.73	-52.1	-57.4	3.7	0.00e+00	0	49	104	0	75	26966
2026-01-04 07:59:22.55	169.11	10.95	-52.4	-57.7	3.7	0.00e+00	0	49	104	0	75	27904
2026-01-04 07:59:24.56	169.15	11.18	-52.7	-57.9	3.7	0.00e+00	0	49	104	0	76	27176
2026-01-04 07:59:26.56	169.20	11.41	-53.3	-58.6	3.7	0.00e+00	0	49	104	0	77	27643
2026-01-04 07:59:28.57	169.24	11.64	-53.4	-58.6	3.7	0.00e+00	0	49	104	0	77	27571
2026-01-04 07:59:30.57	169.29	11.87	-53.5	-58.6	3.7	0.00e+00	0	49	104	0	77	27798
2026-01-04 07:59:32.86	169.34	12.14	-53.2	-58.4	3.7	0.00e+00	0	49	104	0	77	27066
2026-01-04 07:59:35.26	169.39	12.43	-54.7	-59.6	3.7	0.00e+00	0	49	104	0	80	25991
2026-01-04 07:59:37.42	169.45	12.70	-54.1	-59.2	3.7	0.00e+00	0	49	104	0	80	24881
2026-01-04 07:59:39.62	169.50	12.97	-54.4	-59.3	3.7	0.00e+00	0	49	104	0	80	25265
2026-01-04 07:59:41.83	169.55	13.25	-55.0	-59.9	3.7	0.00e+00	0	50	104	0	80	27085
2026-01-04 07:59:43.99	169.61	13.53	-56.6	-61.5	3.7	0.00e+00	0	49	104	0	83	27206
2026-01-04 07:59:46.16	169.66	13.81	-56.1	-61.0	3.7	0.00e+00	0	50	104	0	82	27326
2026-01-04 07:59:48.32	169.72	14.09	-56.2	-61.1	3.7	0.00e+00	0	50	104	0	83	26043
2026-01-04 07:59:50.47	169.78	14.38	-56.4	-61.2	3.7	0.00e+00	0	50	104	0	83	26365
2026-01-04 07:59:52.77	169.84	14.69	-56.4	-61.3	3.7	0.00e+00	0	50	104	0	84	25152
2026-01-04 07:59:54.93	169.90	14.99	-56.5	-61.4	3.7	0.00e+00	0	50	104	0	84	25584
2026-01-04 07:59:57.13	169.97	15.30	-56.5	-61.4	3.7	0.00e+00	0	50	104	0	84	25609
2026-01-04 07:59:59.10	170.02	15.58	-56.7	-61.6	3.7	0.00e+00	0	50	104	0	84	26029
2026-01-04 08:00:01.15	170.08	15.88	-56.6	-61.4	3.7	0.00e+00	0	50	104	0	84	25542
2026-01-04 08:00:03.15	170.14	16.18	-56.5	-61.4	3.7	0.00e+00	0	50	104	0	84	25576
2026-01-04 08:00:05.16	170.21	16.48	-56.5	-61.4	3.7	0.00e+00	0	50	104	0	84	25639
2026-01-04 08:00:07.18	170.27	16.78	-56.5	-61.4	3.7	0.00e+00	0	50	104	0	84	25422
2026-01-04 08:00:09.18	170.34	17.09	-56.6	-61.5	3.7	0.00e+00	0	50	104	0	84	25770
2026-01-04 08:00:11.19	170.40	17.41	-56.4	-61.2	3.7	0.00e+00	0	50	104	0	84	24814
2026-01-04 08:00:13.38	170.48	17.76	-56.8	-61.5	3.7	0.00e+00	0	50	104	0	84	25873
2026-01-04 08:00:15.39	170.55	18.09	-56.9	-61.5	3.7	0.00e+00	0	50	104	0	84	25791
2026-01-04 08:00:17.40	170.62	18.42	-57.3	-61.8	3.7	0.00e+00	0	50	104	0	85	25333
2026-01-04 08:00:19.40	170.69	18.76	-57.3	-61.8	3.7	0.00e+00	0	50	104	0	85	25258
2026-01-04 08:00:21.41	170.77	19.10	-57.1	-61.7	3.7	0.00e+00	0	50	104	0	85	25012
2026-01-04 08:00:23.56	170.85	19.48	-57.2	-61.7	3.7	0.00e+00	0	50	104	0	85	24921
2026-01-04 08:00:25.57	170.93	19.84	-57.1	-61.6	3.7	0.00e+00	0	50	104	0	85	24536
2026-01-04 08:00:27.57	171.01	20.20	-57.2	-61.6	3.7	0.00e+00	0	50	104	0	85	24758
2026-01-04 08:00:29.58	171.09	20.57	-57.1	-61.6	3.7	0.00e+00	0	50	104	0	85	24795
2026-01-04 08:00:31.58	171.18	20.95	-56.9	-61.5	3.7	0.00e+00	0	50	104	0	85	24480
2026-01-04 08:00:33.60	171.26	21.34	-57.0	-61.6	3.7	0.00e+00	0	50	104	0	85	24668
2026-01-04 08:00:35.63	171.35	21.73	-56.9	-61.5	3.7	0.00e+00	0	50	104	0	85	24263
2026-01-04 08:00:37.81	171.45	22.17	-56.8	-61.5	3.7	0.00e+00	0	50	104	0	84	25712
2026-01-04 08:00:39.95	171.55	22.61	-56.1	-61.0	3.7	0.00e+00	0	50	104	0	84	24465
2026-01-04 08:00:41.95	171.65	23.02	-56.3	-61.1	3.7	0.00e+00	0	50	104	0	84	24766
2026-01-04 08:00:43.96	171.75	23.45	-56.6	-61.3	3.7	0.00e+00	0	50	104	0	84	25330
2026-01-04 08:00:45.98	171.86	23.89	-56.6	-61.4	3.7	0.00e+00	0	51	104	0	84	25454
2026-01-04 08:00:47.98	171.96	24.33	-57.3	-61.9	3.7	0.00e+00	0	50	104	0	85	25678
2026-01-04 08:00:49.99	172.07	24.79	-57.3	-62.0	3.7	0.00e+00	0	50	104	0	85	25758
2026-01-04 08:00:52.00	172.19	25.25	-57.3	-61.9	3.7	0.00e+00	0	50	104	0	85	25470
2026-01-04 08:00:54.00	172.30	25.72	-57.3	-62.0	3.7	0.00e+00	0	50	104	0	85	25774
2026-01-04 08:00:56.01	172.42	26.21	-57.1	-61.9	3.7	0.00e+00	0	50	104	0	85	25456
2026-01-04 08:00:58.02	172.55	26.70	-57.3	-62.1	3.7	0.00e+00	0	51	104	0	85	26041
2026-01-04 08:01:00.07	172.68	27.22	-57.5	-62.1	3.7	0.00e+00	0	50	104	0	85	26176
2026-01-04 08:01:02.52	172.84	27.86	-57.6	-62.1	3.7	0.00e+00	0	50	104	0	85	26273
2026-01-04 08:01:04.53	172.98	28.39	-57.7	-62.2	3.7	0.00e+00	0	50	104	0	86	25090
2026-01-04 08:01:06.53	173.12	28.93	-57.5	-62.2	3.7	0.00e+00	0	51	104	0	86	24860
2026-01-04 08:01:08.54	173.27	29.49	-57.6	-62.2	3.7	0.00e+00	0	50	104	0	86	25073
2026-01-04 08:01:10.55	173.43	30.06	-57.7	-62.3	3.7	0.00e+00	0	50	104	0	86	25295
2026-01-04 08:01:12.55	173.59	30.65	-57.8	-62.4	3.7	0.00e+00	0	51	104	0	86	25540
2026-01-04 08:01:14.72	173.77	31.29	-57.4	-62.2	3.7	0.00e+00	0	50	104	0	86	24853
2026-01-04 08:01:16.80	173.95	31.93	-57.5	-62.3	3.7	0.00e+00	0	50	104	0	86	25131
2026-01-04 08:01:18.84	174.13	32.57	-57.5	-62.1	3.7	0.00e+00	0	51	104	0	86	24634
2026-01-04 08:01:20.85	174.32	33.22	-57.6	-62.2	3.7	0.00e+00	0	50	104	0	86	24971
2026-01-04 08:01:22.86	174.52	33.88	-57.6	-62.2	3.7	0.00e+00	0	51	104	0	86	24937
2026-01-04 08:01:24.86	174.72	34.56	-57.5	-62.0	3.7	0.00e+00	0	51	104	0	86	24460
2026-01-04 08:01:26.87	174.93	35.26	-57.7	-62.3	3.7	0.00e+00	0	51	104	0	86	25148
2026-01-04 08:01:28.87	175.16	35.97	-57.7	-62.2	3.7	0.00e+00	0	51	104	0	86	24854
2026-01-04 08:01:30.88	175.39	36.70	-57.6	-62.1	3.7	0.00e+00	0	51	104	0	86	24759
2026-01-04 08:01:32.89	175.64	37.46	-57.7	-62.2	3.7	0.00e+00	0	51	104	0	86	24997
2026-01-04 08:01:34.89	175.89	38.22	-57.3	-61.8	3.7	0.00e+00	0	51	104	0	86	23913
2026-01-04 08:01:36.90	176.16	39.02	-57.1	-61.7	3.7	0.00e+00	0	51	104	0	86	23672
2026-01-04 08:01:38.90	176.45	39.83	-57.5	-62.1	3.7	0.00e+00	0	51	104	0	86	24764
2026-01-04 08:01:40.91	176.75	40.66	-57.6	-62.1	3.7	0.00e+00	0	51	104	0	86	24673
2026-01-04 08:01:43.41	177.14	41.73	-57.7	-62.2	3.7	0.00e+00	0	51	104	0	86	24933
2026-01-04 08:01:45.42	177.48	42.62	-57.9	-62.4	3.7	0.00e+00	0	51	104	0	86	25406
2026-01-04 08:01:47.47	177.85	43.54	-57.9	-62.4	3.7	0.00e+00	0	51	104	0	86	25456
2026-01-04 08:01:49.56	178.24	44.51	-57.8	-62.3	3.7	0.00e+00	0	51	104	0	86	25252
2026-01-04 08:01:51.56	178.65	45.46	-57.8	-62.3	3.7	0.00e+00	0	51	104	0	86	25150
2026-01-04 08:01:53.73	179.11	46.52	-57.7	-62.3	3.7	0.00e+00	0	51	104	0	86	25119
2026-01-04 08:01:55.73	179.57	47.53	-57.7	-62.0	3.7	0.00e+00	0	51	104	0	86	24374
2026-01-04 08:01:57.74	180.07	48.56	-57.8	-62.2	3.7	0.00e+00	0	51	104	0	86	24889
2026-01-04 08:01:59.74	180.59	49.61	-57.6	-62.0	3.7	0.00e+00	0	51	104	0	86	24416
2026-01-04 08:02:01.74	181.16	50.69	-57.6	-62.0	3.7	0.00e+00	0	51	104	0	86	24369
2026-01-04 08:02:03.75	181.77	51.80	-57.9	-62.4	3.7	0.00e+00	0	51	104	0	86	25444
2026-01-04 08:02:05.73	182.42	52.92	-57.8	-62.4	3.7	0.00e+00	0	51	104	0	86	25527
2026-01-04 08:02:07.74	183.13	54.08	-57.4	-62.1	3.7	0.00e+00	0	51	104	0	86	24542
2026-01-04 08:02:09.74	183.90	55.26	-57.1	-61.9	3.7	0.00e+00	0	51	104	0	86	24129
2026-01-04 08:02:11.75	184.74	56.47	-58.0	-62.4	3.7	0.00e+00	0	51	104	0	86	25603
2026-01-04 08:02:13.75	185.66	57.70	-57.8	-62.4	3.7	0.00e+00	0	51	104	0	86	25472
2026-01-04 08:02:15.76	186.67	58.95	-57.8	-62.3	3.7	0.00e+00	0	51	104	0	86	25203
2026-01-04 08:02:17.76	187.77	60.22	-57.6	-62.2	3.7	0.00e+00	0	51	104	0	86	24846
2026-01-04 08:02:19.77	189.00	61.51	-58.0	-62.6	3.7	0.00e+00	0	51	104	0	86	26027
2026-01-04 08:02:21.77	190.36	62.81	-58.2	-62.7	3.7	0.00e+00	0	51	104	0	87	24971
2026-01-04 08:02:23.78	191.89	64.13	-57.6	-62.3	3.7	0.00e+00	0	51	104	0	87	23841
2026-01-04 08:02:25.78	193.59	65.45	-57.8	-62.4	3.7	0.00e+00	0	51	104	0	87	24181
2026-01-04 08:02:27.79	195.52	66.78	-57.5	-62.3	3.7	0.00e+00	0	51	104	0	86	25351
2026-01-04 08:02:29.97	197.90	68.21	-58.1	-62.6	3.7	0.00e+00	0	51	104	0	86	26262
2026-01-04 08:02:31.98	200.43	69.53	-58.2	-62.7	3.7	0.00e+00	0	50	104	0	86	26417
2026-01-04 08:02:33.98	203.30	70.81	-58.0	-62.6	3.7	0.00e+00	0	51	104	0	87	24571
2026-01-04 08:02:35.99	206.63	72.06	-57.9	-62.4	3.7	0.00e+00	0	51	104	0	87	24190
2026-01-04 08:02:38.00	210.48	73.27	-57.2	-62.1	3.7	0.00e+00	0	51	104	0	86	24635
2026-01-04 08:02:40.00	214.92	74.39	-57.7	-62.4	3.7	0.00e+00	0	51	104	0	86	25406
2026-01-04 08:02:42.01	220.07	75.43	-57.9	-62.3	3.7	0.00e+00	0	51	104	0	86	25236
2026-01-04 08:02:44.02	225.99	76.35	-58.1	-62.6	3.7	0.00e+00	0	51	104	0	86	26088
2026-01-04 08:02:46.02	232.68	77.11	-57.5	-62.2	3.7	0.00e+00	0	51	104	0	86	24983
2026-01-04 08:02:48.03	240.15	77.68	-57.4	-62.2	3.7	0.00e+00	0	51	104	0	86	25012
2026-01-04 08:02:50.04	248.22	78.03	-57.6	-62.2	3.7	0.00e+00	0	51	104	0	86	25078
2026-01-04 08:02:52.04	256.57	78.14	-57.1	-61.9	3.7	0.00e+00	0	51	104	0	86	24216
2026-01-04 08:02:54.05	264.95	78.01	-57.6	-62.2	3.7	0.00e+00	0	51	104	0	86	24867
2026-01-04 08:02:56.15	273.31	77.61	-57.6	-62.0	3.7	0.00e+00	0	51	104	0	86	24306
2026-01-04 08:02:58.14	280.60	77.01	-57.6	-62.1	3.7	0.00e+00	0	51	104	0	86	24795
2026-01-04 08:03:00.14	287.18	76.23	-57.5	-61.9	3.7	0.00e+00	0	51	104	0	86	24130
2026-01-04 08:03:02.21	293.14	75.27	-57.5	-62.0	3.7	0.00e+00	0	51	104	0	86	24404
2026-01-04 08:03:04.21	298.15	74.22	-57.7	-62.4	3.7	0.00e+00	0	51	104	0	86	25399
2026-01-04 08:03:06.35	302.75	73.00	-57.7	-62.4	3.7	0.00e+00	0	51	104	0	86	25469
2026-01-04 08:03:08.35	306.45	71.79	-57.7	-62.3	3.7	0.00e+00	0	51	104	0	86	25227
2026-01-04 08:03:10.48	309.85	70.45	-57.4	-61.8	3.7	0.00e+00	0	51	104	0	86	23877
2026-01-04 08:03:12.49	312.63	69.16	-57.7	-62.0	3.7	0.00e+00	0	51	104	0	86	24288
2026-01-04 08:03:14.49	315.04	67.85	-57.7	-61.9	3.7	0.00e+00	0	51	104	0	86	24230
2026-01-04 08:03:16.50	317.17	66.53	-57.9	-62.2	3.7	0.00e+00	0	51	104	0	86	24869
2026-01-04 08:03:18.56	319.09	65.17	-57.6	-62.2	3.7	0.00e+00	0	51	104	0	86	25028
2026-01-04 08:03:20.60	320.78	63.83	-57.8	-62.4	3.7	0.00e+00	0	51	104	0	86	25532
2026-01-04 08:03:22.67	322.31	62.48	-57.1	-61.9	3.7	0.00e+00	0	51	104	0	86	24053
2026-01-04 08:03:24.90	323.77	61.04	-57.7	-62.4	3.7	0.00e+00	0	51	104	0	86	25495
2026-01-04 08:03:26.91	324.95	59.76	-57.7	-62.4	3.7	0.00e+00	0	51	104	0	86	25571
2026-01-04 08:03:28.91	326.01	58.50	-57.7	-62.4	3.7	0.00e+00	0	51	104	0	86	25507
2026-01-04 08:03:30.98	327.01	57.23	-57.9	-62.5	3.7	0.00e+00	0	51	104	0	86	25914
2026-01-04 08:03:33.08	327.94	55.95	-57.9	-62.5	3.7	0.00e+00	0	51	104	0	86	25760
2026-01-04 08:03:35.26	328.81	54.66	-57.7	-62.3	3.7	0.00e+00	0	51	104	0	86	25296
2026-01-04 08:03:37.27	329.55	53.49	-58.0	-62.6	3.7	0.00e+00	0	51	104	0	86	25983
2026-01-04 08:03:39.27	330.23	52.36	-57.3	-62.2	3.7	0.00e+00	0	51	104	0	86	24865
2026-01-04 08:03:41.28	330.86	51.24	-57.8	-62.5	3.7	0.00e+00	0	51	104	0	86	25713
2026-01-04 08:03:43.28	331.44	50.15	-57.1	-62.1	3.7	0.00e+00	0	51	104	0	86	24659
2026-01-04 08:03:45.29	331.99	49.09	-57.0	-62.0	3.7	0.00e+00	0	51	104	0	85	25845
2026-01-04 08:03:47.36	332.51	48.02	-58.0	-62.6	3.7	0.00e+00	0	51	104	0	86	26017
2026-01-04 08:03:49.70	333.06	46.84	-57.9	-62.5	3.7	0.00e+00	0	51	104	0	86	25860
2026-01-04 08:03:51.70	333.50	45.86	-57.6	-62.4	3.7	0.00e+00	0	51	104	0	86	25402
2026-01-04 08:03:53.71	333.91	44.89	-57.2	-62.1	3.7	0.00e+00	0	51	104	0	86	24660
2026-01-04 08:03:55.72	334.30	43.96	-57.4	-62.2	3.7	0.00e+00	0	51	104	0	86	24855
2026-01-04 08:03:57.72	334.66	43.05	-57.0	-62.0	3.7	0.00e+00	0	51	104	0	85	25900
2026-01-04 08:03:59.66	335.00	42.19	-57.2	-62.1	3.7	0.00e+00	0	51	104	0	85	26233
2026-01-04 08:04:01.67	335.33	41.32	-56.8	-61.9	3.7	0.00e+00	0	51	104	0	85	25584
2026-01-04 08:04:03.67	335.64	40.48	-56.9	-62.1	3.7	0.00e+00	0	51	104	0	85	26041
2026-01-04 08:04:05.68	335.93	39.66	-57.6	-62.4	3.7	0.00e+00	0	51	104	0	85	26980
2026-01-04 08:04:07.69	336.21	38.85	-57.4	-62.2	3.7	0.00e+00	0	51	104	0	85	26463
2026-01-04 08:04:09.69	336.48	38.08	-57.6	-62.3	3.7	0.00e+00	0	51	104	0	85	26872
2026-01-04 08:04:11.67	336.73	37.32	-57.8	-62.5	3.7	0.00e+00	0	51	104	0	86	25857
2026-01-04 08:04:13.70	336.97	36.57	-57.7	-62.5	3.7	0.00e+00	0	51	104	0	86	25684
2026-01-04 08:04:15.71	337.20	35.85	-57.6	-62.3	3.7	0.00e+00	0	51	104	0	86	25237
2026-01-04 08:04:17.72	337.42	35.14	-56.2	-61.5	3.7	0.00e+00	0	51	104	0	84	25750
2026-01-04 08:04:19.72	337.63	34.46	-56.1	-61.5	3.7	0.00e+00	0	51	104	0	84	25742
2026-01-04 08:04:21.73	337.84	33.78	-57.2	-62.1	3.7	0.00e+00	0	51	104	0	85	26052
2026-01-04 08:04:23.74	338.03	33.13	-57.1	-61.8	3.7	0.00e+00	0	51	104	0	85	25162
2026-01-04 08:04:25.74	338.22	32.49	-56.9	-61.7	3.7	0.00e+00	0	51	104	0	85	24933
2026-01-04 08:04:27.74	338.39	31.87	-56.5	-61.3	3.7	0.00e+00	0	51	104	0	85	23858
2026-01-04 08:04:29.75	338.57	31.26	-55.4	-60.7	3.7	0.00e+00	0	51	104	0	82	26417
2026-01-04 08:04:31.75	338.73	30.67	-56.0	-61.0	3.7	0.00e+00	0	51	104	0	82	27219
2026-01-04 08:04:33.76	338.89	30.09	-55.9	-60.8	3.7	0.00e+00	0	51	104	0	82	26789
2026-01-04 08:04:35.77	339.05	29.52	-56.6	-61.3	3.7	0.00e+00	0	51	104	0	83	26805
2026-01-04 08:04:37.77	339.19	28.97	-56.4	-61.0	3.7	0.00e+00	0	51	104	0	83	25716
2026-01-04 08:04:39.78	339.34	28.43	-57.1	-61.2	3.7	0.00e+00	0	51	104	0	84	24995
2026-01-04 08:04:41.84	339.48	27.89	-57.1	-61.2	3.7	0.00e+00	0	51	104	0	84	24884
2026-01-04 08:04:43.84	339.61	27.37	-56.7	-61.1	3.7	0.00e+00	0	51	104	0	84	24579
2026-01-04 08:04:45.84	339.74	26.87	-56.5	-61.2	3.7	0.00e+00	0	51	104	0	84	24957
2026-01-04 08:04:48.11	339.88	26.31	-56.6	-61.0	3.7	0.00e+00	0	51	104	0	84	24400
2026-01-04 08:04:50.14	340.00	25.82	-56.6	-61.0	3.7	0.00e+00	0	51	104	0	84	24291
2026-01-04 08:04:52.35	340.13	25.31	-56.2	-60.8	3.7	0.00e+00	0	51	104	0	84	23853
2026-01-04 08:04:54.54	340.26	24.80	-55.8	-60.6	3.7	0.00e+00	0	51	104	0	83	24560
2026-01-04 08:04:56.83	340.38	24.29	-56.1	-60.9	3.7	0.00e+00	0	51	104	0	83	25453
2026-01-04 08:04:59.08	340.50	23.80	-56.6	-61.3	3.7	0.00e+00	0	51	104	0	83	26597
2026-01-04 08:05:01.11	340.60	23.37	-57.1	-62.0	3.7	0.00e+00	0	51	104	0	84	27495
2026-01-04 08:05:03.33	340.71	22.90	-57.0	-61.7	3.7	0.00e+00	0	51	104	0	84	26539
2026-01-04 08:05:05.48	340.82	22.46	-55.0	-60.5	3.7	0.00e+00	0	51	104	0	82	25799
2026-01-04 08:05:07.64	340.92	22.03	-54.9	-60.4	3.7	0.00e+00	0	51	104	0	81	26997
2026-01-04 08:05:09.81	341.02	21.60	-56.0	-61.2	3.7	0.00e+00	0	51	104	0	82	28037
2026-01-04 08:05:11.98	341.11	21.19	-57.2	-61.9	3.7	0.00e+00	0	51	104	0	85	25522
2026-01-04 08:05:14.14	341.20	20.78	-57.2	-62.1	3.7	0.00e+00	0	51	104	0	85	26090
2026-01-04 08:05:16.66	341.31	20.32	-55.0	-60.6	3.7	0.00e+00	0	51	104	0	82	26099
2026-01-04 08:05:18.81	341.40	19.93	-56.4	-61.6	3.7	0.00e+00	0	51	104	0	83	27676
2026-01-04 08:05:20.96	341.48	19.55	-57.5	-62.3	3.7	0.00e+00	0	51	104	0	85	26824
2026-01-04 08:05:23.12	341.56	19.17	-56.2	-61.6	3.7	0.00e+00	0	51	104	0	84	26016
2026-01-04 08:05:25.54	341.65	18.76	-57.4	-62.2	3.7	0.00e+00	0	51	104	0	85	26406
2026-01-04 08:05:27.72	341.73	18.40	-57.6	-62.4	3.7	0.00e+00	0	51	104	0	85	26924
2026-01-04 08:05:29.89	341.81	18.04	-57.2	-62.1	3.7	0.00e+00	0	51	104	0	85	26043
2026-01-04 08:05:32.06	341.89	17.70	-56.8	-62.0	3.7	0.00e+00	0	51	104	0	84	27298
2026-01-04 08:05:34.34	341.96	17.34	-57.0	-62.1	3.7	0.00e+00	0	51	104	0	84	27675
2026-01-04 08:05:36.51	342.04	17.00	-56.8	-61.9	3.7	0.00e+00	0	51	104	0	84	27155
2026-01-04 08:05:38.69	342.11	16.67	-55.5	-61.0	3.7	0.00e+00	0	51	104	0	83	25963
2026-01-04 08:05:41.08	342.18	16.31	-55.0	-60.7	3.7	0.00e+00	0	51	104	0	82	26425
2026-01-04 08:05:43.08	342.24	16.02	-55.4	-61.0	3.7	0.00e+00	0	51	104	0	82	27362
2026-01-04 08:05:45.09	342.30	15.73	-55.4	-61.0	3.7	0.00e+00	0	51	104	0	82	27307
2026-01-04 08:05:47.09	342.36	15.44	-55.3	-60.9	3.7	0.00e+00	0	51	104	0	82	27076
2026-01-04 08:05:49.34	342.43	15.13	-55.5	-61.1	3.7	0.00e+00	0	51	104	0	82	27699
2026-01-04 08:05:51.70	342.50	14.81	-56.5	-61.8	3.7	0.00e+00	0	51	104	0	83	28296
2026-01-04 08:05:53.71	342.55	14.53	-54.9	-60.7	3.7	0.00e+00	0	51	104	0	81	27894
2026-01-04 08:05:55.71	342.61	14.27	-54.7	-60.7	3.7	0.00e+00	0	51	104	0	81	27936
2026-01-04 08:05:57.72	342.66	14.00	-55.0	-60.9	3.7	0.00e+00	0	51	104	0	81	28518
2026-01-04 08:05:59.81	342.72	13.73	-54.9	-60.8	3.7	0.00e+00	0	51	104	0	81	28313
2026-01-04 08:06:01.91	342.77	13.46	-54.3	-60.2	3.7	0.00e+00	0	51	104	0	80	27913
2026-01-04 08:06:04.11	342.83	13.19	-54.8	-60.6	3.7	0.00e+00	0	51	104	0	80	29431
2026-01-04 08:06:06.12	342.88	12.94	-54.9	-60.8	3.7	0.00e+00	0	51	104	0	80	30100
2026-01-04 08:06:08.12	342.93	12.69	-54.6	-60.6	3.7	0.00e+00	0	51	104	0	80	29157
2026-01-04 08:06:10.16	342.97	12.45	-54.1	-60.0	3.7	0.00e+00	0	51	104	0	79	28849
2026-01-04 08:06:12.12	343.02	12.21	-54.8	-60.7	3.7	0.00e+00	0	51	104	0	80	29711
2026-01-04 08:06:14.12	343.07	11.98	-54.4	-60.3	3.7	0.00e+00	0	51	104	0	80	28235
2026-01-04 08:06:16.13	343.11	11.74	-54.6	-60.4	3.7	0.00e+00	0	51	104	0	80	28767
2026-01-04 08:06:18.14	343.16	11.51	-54.8	-60.6	3.7	0.00e+00	0	51	104	0	80	29352
2026-01-04 08:06:20.14	343.20	11.29	-54.7	-60.6	3.7	0.00e+00	0	51	104	0	80	29463
2026-01-04 08:06:22.15	343.25	11.06	-53.9	-59.8	3.7	0.00e+00	0	51	104	0	79	28317
2026-01-04 08:06:24.29	343.29	10.83	-53.7	-59.8	3.7	0.00e+00	0	51	104	0	79	28273
2026-01-04 08:06:26.52	343.34	10.58	-53.5	-59.7	3.7	0.00e+00	0	51	104	0	79	28090
2026-01-04 08:06:28.53	343.38	10.37	-53.2	-59.5	3.7	0.00e+00	0	51	104	0	78	29123
2026-01-04 08:06:30.53	343.42	10.15	-53.7	-59.8	3.7	0.00e+00	0	51	104	0	78	30130
2026-01-04 08:06:32.54	343.47	9.94	-52.5	-59.0	3.7	0.00e+00	0	51	104	0	77	29027
2026-01-04 08:06:34.54	343.51	9.73	-53.1	-59.7	3.7	0.00e+00	0	51	104	0	78	29546
2026-01-04 08:06:36.59	343.55	9.52	-51.3	-58.0	3.9	0.00e+00	0	51	104	0	74	30673
2026-01-04 08:06:38.57	343.58	9.32	-51.0	-57.8	3.9	0.00e+00	0	51	104	0	74	29934
2026-01-04 08:06:40.58	343.62	9.12	-50.8	-57.6	3.9	0.00e+00	0	51	104	0	73	31187
2026-01-04 08:06:42.59	343.66	8.92	-55.0	-60.9	3.7	0.00e+00	0	51	104	0	80	30461
2026-01-04 08:06:44.59	343.70	8.72	-56.4	-61.6	3.7	0.00e+00	0	51	104	0	83	27725
2026-01-04 08:06:46.60	343.74	8.53	-56.2	-61.3	3.7	0.00e+00	0	51	104	0	83	26748
2026-01-04 08:06:48.61	343.77	8.33	-56.2	-61.2	3.7	0.00e+00	0	51	104	0	84	24922
2026-01-04 08:06:50.61	343.81	8.14	-57.8	-62.4	3.7	0.00e+00	0	51	104	0	86	25661
2026-01-04 08:06:52.62	343.84	7.95	-57.8	-62.6	3.7	0.00e+00	0	51	104	0	86	26135
2026-01-04 08:06:54.63	343.88	7.76	-58.2	-62.8	3.7	0.00e+00	0	51	104	0	87	25319
2026-01-04 08:06:56.64	343.91	7.58	-58.1	-62.6	3.7	0.00e+00	0	52	104	0	87	24736
2026-01-04 08:06:58.64	343.95	7.39	-58.0	-62.6	3.7	0.00e+00	0	51	104	0	87	24777
2026-01-04 08:07:00.65	343.98	7.21	-58.1	-62.8	3.7	0.00e+00	0	51	104	0	87	25132
2026-01-04 08:07:02.66	344.02	7.03	-58.1	-62.8	3.7	0.00e+00	0	51	104	0	87	25138
2026-01-04 08:07:04.67	344.05	6.85	-58.0	-62.6	3.7	0.00e+00	0	51	104	0	87	24636
2026-01-04 08:07:06.68	344.08	6.67	-58.0	-62.3	3.7	0.00e+00	0	51	104	0	87	23836
2026-01-04 08:07:08.69	344.11	6.50	-57.3	-62.0	3.7	0.00e+00	0	51	104	0	86	24358
2026-01-04 08:07:10.69	344.15	6.33	-57.2	-61.9	3.7	0.00e+00	0	51	104	0	86	24151
2026-01-04 08:07:12.70	344.18	6.15	-57.2	-61.9	3.7	0.00e+00	0	51	104	0	86	24096
2026-01-04 08:07:14.71	344.21	5.98	-57.2	-61.8	3.7	0.00e+00	0	51	104	0	86	23955
2026-01-04 08:07:16.72	344.24	5.81	-57.2	-61.9	3.7	0.00e+00	0	51	104	0	86	24090
2026-01-04 08:07:18.73	344.27	5.64	-57.2	-61.9	3.7	0.00e+00	0	51	104	0	86	24157
2026-01-04 08:07:20.74	344.30	5.48	-57.2	-61.9	3.7	0.00e+00	0	51	104	0	86	23983
2026-01-04 08:07:22.75	344.33	5.31	-57.2	-61.9	3.7	0.00e+00	0	51	104	0	86	24119
2026-01-04 08:07:24.76	344.36	5.15	-57.2	-61.9	3.7	0.00e+00	0	51	104	0	86	24096
2026-01-04 08:07:26.76	344.39	4.99	-57.2	-61.9	3.7	0.00e+00	0	51	104	0	86	24072

#Closed at: 2026-01-04 08:07:27
#Recorded file [0 MB]: D:/Data/31040_260104_105820.dat