passes_logs/2026/01/04/T1/T1__20260104_062615_KHAYYAM_rec.log

#Pass ID: 20260104_062615_KHAYYAM
#Satellite: KHAYYAM
#Configuration: KHAYYAM_480M
#almurnet v.1.7.20251203
#Start time: 2026-01-04 06:26:17

#Version: 2.0.20230620
#Station: T1
#Location: 37.570604 lon 55.790049 lat
#TLE: 1 53370U 22096A   26003.99696618  .00009512  00000+0  38724-3 0  9995
#TLE: 2 53370  97.3569 271.2030 0001229  84.9746 275.1632 15.24705684189563

#Time	Az	El	Level	Level2	SNR	BER	BlckErr	Temp	State	Recorded	gain1	gain2
2026-01-04 06:26:17.68	106.41	5.11	-56.0	-60.6	3.6	0.00e+00	0	41	0	0	84	23415
2026-01-04 06:26:19.68	106.13	5.24	-55.9	-60.5	3.7	0.00e+00	0	41	104	0	82	25840
2026-01-04 06:26:21.69	105.85	5.36	-55.8	-60.5	3.7	0.00e+00	0	42	104	0	82	25808
2026-01-04 06:26:23.70	105.57	5.49	-55.9	-60.5	3.7	0.00e+00	0	42	104	0	82	25799
2026-01-04 06:26:25.71	105.28	5.62	-55.9	-60.5	3.7	0.00e+00	0	42	104	0	82	25834
2026-01-04 06:26:27.71	104.99	5.75	-55.9	-60.5	3.7	0.00e+00	0	42	104	0	82	25856
2026-01-04 06:26:29.72	104.69	5.87	-55.9	-60.5	3.7	0.00e+00	0	42	104	0	82	25827
2026-01-04 06:26:31.73	104.39	6.00	-55.9	-60.5	3.7	0.00e+00	0	42	104	0	82	25833
2026-01-04 06:26:33.74	104.09	6.13	-55.8	-60.5	3.7	0.00e+00	0	42	104	0	82	25798
2026-01-04 06:26:35.75	103.79	6.26	-55.9	-60.5	3.7	0.00e+00	0	43	104	0	82	25808
2026-01-04 06:26:37.75	103.48	6.39	-55.9	-60.5	3.7	0.00e+00	0	43	104	0	82	25842
2026-01-04 06:26:39.76	103.17	6.52	-55.9	-60.5	3.7	0.00e+00	0	43	104	0	82	25838
2026-01-04 06:26:41.77	102.85	6.65	-55.8	-60.5	3.7	0.00e+00	0	43	104	0	82	25761
2026-01-04 06:26:43.78	102.53	6.77	-55.9	-60.5	3.7	0.00e+00	0	43	104	0	82	25744
2026-01-04 06:26:45.79	102.21	6.90	-55.8	-60.5	3.7	0.00e+00	0	43	104	0	82	25688
2026-01-04 06:26:47.80	101.88	7.03	-55.9	-60.5	3.7	0.00e+00	0	43	104	0	82	25776
2026-01-04 06:26:49.80	101.55	7.16	-56.1	-60.7	3.7	0.00e+00	0	43	104	0	82	26389
2026-01-04 06:26:51.81	101.22	7.29	-56.0	-60.6	3.7	0.00e+00	0	44	104	0	82	26106
2026-01-04 06:26:53.82	100.88	7.42	-55.9	-60.5	3.7	0.00e+00	0	44	104	0	82	25796
2026-01-04 06:26:55.83	100.54	7.55	-55.9	-60.5	3.7	0.00e+00	0	44	104	0	82	25871
2026-01-04 06:26:57.84	100.19	7.68	-55.9	-60.5	3.7	0.00e+00	0	44	104	0	82	25868
2026-01-04 06:26:59.85	99.84	7.81	-55.9	-60.5	3.7	0.00e+00	0	44	104	0	82	25797
2026-01-04 06:27:01.86	99.49	7.95	-55.8	-60.5	3.7	0.00e+00	0	44	104	0	82	25832
2026-01-04 06:27:03.86	99.13	8.08	-55.9	-60.5	3.7	0.00e+00	0	44	104	0	82	25784
2026-01-04 06:27:05.87	98.77	8.21	-55.8	-60.5	3.7	0.00e+00	0	44	104	0	82	25809
2026-01-04 06:27:07.88	98.40	8.34	-55.8	-60.5	3.7	0.00e+00	0	44	104	0	82	25749
2026-01-04 06:27:09.89	98.03	8.47	-55.8	-60.4	3.7	0.00e+00	0	44	104	0	82	25659
2026-01-04 06:27:11.90	97.66	8.60	-56.0	-60.7	3.7	0.00e+00	0	44	104	0	82	26284
2026-01-04 06:27:13.91	97.28	8.73	-55.8	-60.4	3.7	0.00e+00	0	44	104	0	82	25633
2026-01-04 06:27:15.91	96.90	8.86	-55.8	-60.4	3.7	0.00e+00	0	45	104	0	82	25672
2026-01-04 06:27:17.92	96.51	8.99	-55.8	-60.4	3.7	0.00e+00	0	44	104	0	82	25652
2026-01-04 06:27:19.93	96.12	9.12	-55.8	-60.4	3.7	0.00e+00	0	45	104	0	82	25632
2026-01-04 06:27:21.94	95.72	9.25	-55.9	-60.4	3.7	0.00e+00	0	45	104	0	82	25664
2026-01-04 06:27:23.94	95.33	9.38	-55.7	-60.2	3.7	0.00e+00	0	45	104	0	82	25034
2026-01-04 06:27:25.98	94.92	9.51	-55.7	-60.2	3.7	0.00e+00	0	45	104	0	82	24934
2026-01-04 06:27:27.98	94.51	9.64	-55.6	-60.1	3.7	0.00e+00	0	45	104	0	82	24686
2026-01-04 06:27:29.99	94.09	9.77	-55.7	-60.2	3.7	0.00e+00	0	45	104	0	82	24882
2026-01-04 06:27:31.99	93.68	9.89	-55.8	-60.3	3.7	0.00e+00	0	45	104	0	82	25248
2026-01-04 06:27:34.00	93.25	10.02	-55.7	-60.2	3.7	0.00e+00	0	45	104	0	82	24939
2026-01-04 06:27:36.01	92.83	10.15	-55.5	-60.2	3.7	0.00e+00	0	45	104	0	82	24847
2026-01-04 06:27:38.01	92.40	10.28	-55.8	-60.4	3.7	0.00e+00	0	45	104	0	82	25490
2026-01-04 06:27:40.02	91.96	10.41	-55.6	-60.2	3.7	0.00e+00	0	45	104	0	82	24861
2026-01-04 06:27:42.02	91.52	10.53	-55.3	-59.7	3.7	0.00e+00	0	45	104	0	82	23655
2026-01-04 06:27:44.03	91.07	10.66	-55.5	-59.8	3.7	0.00e+00	0	45	104	0	82	23753
2026-01-04 06:27:46.04	90.62	10.78	-56.2	-60.8	3.7	0.00e+00	0	45	104	0	83	25103
2026-01-04 06:27:48.04	90.17	10.91	-56.1	-60.6	3.7	0.00e+00	0	45	104	0	83	24766
2026-01-04 06:27:50.05	89.70	11.03	-56.0	-60.7	3.7	0.00e+00	0	45	104	0	83	25070
2026-01-04 06:27:52.05	89.24	11.16	-55.8	-60.6	3.7	0.00e+00	0	45	104	0	83	24588
2026-01-04 06:27:54.05	88.77	11.28	-55.7	-60.4	3.7	0.00e+00	0	45	104	0	83	24201
2026-01-04 06:27:56.06	88.30	11.40	-55.4	-59.9	3.7	0.00e+00	0	45	104	0	82	24190
2026-01-04 06:27:58.07	87.82	11.52	-55.4	-59.8	3.7	0.00e+00	0	46	104	0	82	23726
2026-01-04 06:28:00.07	87.33	11.64	-55.3	-59.7	3.7	0.00e+00	0	46	104	0	82	23485
2026-01-04 06:28:02.08	86.84	11.76	-55.3	-59.8	3.7	0.00e+00	0	45	104	0	82	23714
2026-01-04 06:28:04.13	86.34	11.88	-55.3	-59.7	3.7	0.00e+00	0	45	104	0	82	23652
2026-01-04 06:28:06.12	85.84	12.00	-55.3	-59.8	3.7	0.00e+00	0	46	104	0	82	23905
2026-01-04 06:28:08.13	85.34	12.11	-55.4	-60.1	3.7	0.00e+00	0	46	104	0	82	24630
2026-01-04 06:28:10.20	84.81	12.23	-54.9	-59.7	3.7	0.00e+00	0	46	104	0	81	25089
2026-01-04 06:28:12.27	84.28	12.35	-54.7	-59.4	3.7	0.00e+00	0	46	104	0	81	24148
2026-01-04 06:28:14.31	83.75	12.46	-54.8	-59.2	3.7	0.00e+00	0	46	104	0	81	23525
2026-01-04 06:28:16.52	83.18	12.59	-54.9	-59.2	3.7	0.00e+00	0	46	104	0	81	23589
2026-01-04 06:28:18.53	82.65	12.70	-54.9	-58.9	3.7	0.00e+00	0	46	104	0	81	22708
2026-01-04 06:28:20.53	82.11	12.81	-55.1	-59.2	3.7	0.00e+00	0	46	104	0	81	23435
2026-01-04 06:28:22.54	81.57	12.91	-55.0	-59.5	3.7	0.00e+00	0	46	104	0	81	24293
2026-01-04 06:28:24.54	81.03	13.02	-54.7	-59.3	3.7	0.00e+00	0	46	104	0	81	23853
2026-01-04 06:28:26.68	80.45	13.13	-55.5	-60.2	3.7	0.00e+00	0	46	104	0	81	26567
2026-01-04 06:28:28.86	79.85	13.24	-55.7	-60.3	3.7	0.00e+00	0	46	104	0	81	26800
2026-01-04 06:28:30.87	79.29	13.34	-55.6	-60.0	3.7	0.00e+00	0	46	104	0	82	24423
2026-01-04 06:28:32.89	78.72	13.44	-55.8	-60.4	3.7	0.00e+00	0	46	104	0	82	25427
2026-01-04 06:28:34.90	78.15	13.54	-55.6	-59.8	3.7	0.00e+00	0	46	104	0	82	23921
2026-01-04 06:28:36.91	77.58	13.63	-55.8	-60.1	3.7	0.00e+00	0	46	104	0	82	24694
2026-01-04 06:28:38.91	77.01	13.72	-56.0	-60.3	3.7	0.00e+00	0	46	104	0	82	25381
2026-01-04 06:28:40.92	76.43	13.81	-55.7	-60.4	3.7	0.00e+00	0	46	104	0	82	25602
2026-01-04 06:28:42.92	75.84	13.90	-55.6	-60.3	3.7	0.00e+00	0	46	104	0	82	25358
2026-01-04 06:28:44.93	75.25	13.99	-55.7	-60.1	3.7	0.00e+00	0	46	104	0	82	24628
2026-01-04 06:28:46.94	74.66	14.07	-56.0	-60.5	3.7	0.00e+00	0	46	104	0	82	25891
2026-01-04 06:28:48.94	74.06	14.15	-55.9	-60.3	3.7	0.00e+00	0	46	104	0	82	25278
2026-01-04 06:28:50.95	73.46	14.23	-56.0	-60.4	3.7	0.00e+00	0	46	104	0	82	25418
2026-01-04 06:28:52.96	72.86	14.31	-55.7	-60.0	3.7	0.00e+00	0	46	104	0	82	24258
2026-01-04 06:28:54.98	72.25	14.39	-55.9	-60.2	3.7	0.00e+00	0	46	104	0	82	24900
2026-01-04 06:28:56.98	71.64	14.46	-56.1	-60.6	3.7	0.00e+00	0	46	104	0	82	25998
2026-01-04 06:28:58.99	71.02	14.53	-55.9	-60.5	3.7	0.00e+00	0	46	104	0	82	25807
2026-01-04 06:29:00.99	70.40	14.60	-56.0	-60.7	3.7	0.00e+00	0	46	104	0	82	26330
2026-01-04 06:29:03.08	69.75	14.66	-56.0	-60.7	3.7	0.00e+00	0	46	104	0	82	26296
2026-01-04 06:29:05.26	69.08	14.73	-56.2	-60.8	3.7	0.00e+00	0	46	104	0	83	25206
2026-01-04 06:29:07.27	68.45	14.79	-56.2	-60.7	3.7	0.00e+00	0	46	104	0	83	24875
2026-01-04 06:29:09.52	67.74	14.85	-55.9	-60.4	3.7	0.00e+00	0	46	104	0	83	24153
2026-01-04 06:29:11.53	67.10	14.91	-56.0	-60.6	3.7	0.00e+00	0	46	104	0	83	24626
2026-01-04 06:29:13.53	66.47	14.96	-55.6	-59.7	3.7	0.00e+00	0	46	104	0	82	23439
2026-01-04 06:29:15.54	65.83	15.00	-55.6	-59.8	3.7	0.00e+00	0	46	104	0	82	23752
2026-01-04 06:29:17.59	65.17	15.05	-56.1	-60.5	3.7	0.00e+00	0	46	104	0	82	25881
2026-01-04 06:29:19.66	64.51	15.09	-55.9	-60.4	3.7	0.00e+00	0	46	104	0	82	25512
2026-01-04 06:29:22.13	63.71	15.14	-55.9	-60.8	3.7	0.00e+00	0	46	104	0	82	26771
2026-01-04 06:29:24.14	63.06	15.17	-56.0	-60.3	3.7	0.00e+00	0	46	104	0	82	25292
2026-01-04 06:29:26.15	62.41	15.20	-56.1	-60.6	3.7	0.00e+00	0	46	104	0	82	26123
2026-01-04 06:29:28.16	61.76	15.23	-55.8	-60.6	3.7	0.00e+00	0	46	104	0	82	26136
2026-01-04 06:29:30.22	61.09	15.26	-55.5	-60.0	3.7	0.00e+00	0	46	104	0	82	24517
2026-01-04 06:29:32.27	60.42	15.28	-56.2	-60.9	3.7	0.00e+00	0	46	104	0	83	25462
2026-01-04 06:29:34.34	59.74	15.30	-56.1	-60.6	3.7	0.00e+00	0	46	104	0	83	24549
2026-01-04 06:29:36.35	59.09	15.31	-56.0	-60.5	3.7	0.00e+00	0	46	104	0	83	24331
2026-01-04 06:29:38.36	58.43	15.32	-56.0	-60.5	3.7	0.00e+00	0	46	104	0	83	24406
2026-01-04 06:29:40.37	57.77	15.33	-56.0	-60.5	3.7	0.00e+00	0	46	104	0	83	24389
2026-01-04 06:29:42.37	57.12	15.34	-56.0	-60.5	3.7	0.00e+00	0	46	104	0	83	24292
2026-01-04 06:29:44.38	56.46	15.34	-56.0	-60.5	3.7	0.00e+00	0	46	104	0	83	24288
2026-01-04 06:29:46.39	55.80	15.34	-56.0	-60.5	3.7	0.00e+00	0	46	104	0	83	24319
2026-01-04 06:29:48.40	55.14	15.33	-56.0	-60.5	3.7	0.00e+00	0	46	104	0	83	24265
2026-01-04 06:29:50.41	54.48	15.32	-56.0	-60.5	3.7	0.00e+00	0	46	104	0	83	24279
2026-01-04 06:29:52.41	53.83	15.31	-55.9	-60.4	3.7	0.00e+00	0	46	104	0	83	24135
2026-01-04 06:29:54.42	53.17	15.30	-55.9	-60.4	3.7	0.00e+00	0	46	104	0	83	24116
2026-01-04 06:29:56.43	52.52	15.28	-55.9	-60.4	3.7	0.00e+00	0	46	104	0	83	24171
2026-01-04 06:29:58.44	51.86	15.26	-55.9	-60.4	3.7	0.00e+00	0	46	104	0	83	24024
2026-01-04 06:30:00.45	51.21	15.23	-55.9	-60.4	3.7	0.00e+00	0	46	104	0	83	24076
2026-01-04 06:30:02.45	50.56	15.21	-56.0	-60.4	3.7	0.00e+00	0	46	104	0	83	24135
2026-01-04 06:30:04.46	49.91	15.18	-56.0	-60.4	3.7	0.00e+00	0	46	104	0	83	24156
2026-01-04 06:30:06.47	49.26	15.14	-55.9	-60.4	3.7	0.00e+00	0	47	104	0	83	24047
2026-01-04 06:30:08.48	48.62	15.10	-55.9	-60.4	3.7	0.00e+00	0	46	104	0	83	24059
2026-01-04 06:30:10.49	47.97	15.06	-55.9	-60.3	3.7	0.00e+00	0	46	104	0	83	23955
2026-01-04 06:30:12.50	47.33	15.02	-55.9	-60.4	3.7	0.00e+00	0	47	104	0	83	24020
2026-01-04 06:30:14.51	46.69	14.98	-55.9	-60.4	3.7	0.00e+00	0	47	104	0	83	24020
2026-01-04 06:30:16.51	46.06	14.93	-55.9	-60.3	3.7	0.00e+00	0	47	104	0	83	23955
2026-01-04 06:30:18.52	45.42	14.88	-55.9	-60.4	3.7	0.00e+00	0	46	104	0	83	23993
2026-01-04 06:30:20.53	44.79	14.82	-55.9	-60.3	3.7	0.00e+00	0	47	104	0	83	23862
2026-01-04 06:30:22.54	44.16	14.76	-55.9	-60.4	3.7	0.00e+00	0	46	104	0	83	24003
2026-01-04 06:30:24.55	43.53	14.70	-55.9	-60.3	3.7	0.00e+00	0	47	104	0	83	23928
2026-01-04 06:30:26.55	42.91	14.64	-56.0	-60.5	3.7	0.00e+00	0	47	104	0	83	24433
2026-01-04 06:30:28.56	42.29	14.58	-56.0	-60.5	3.7	0.00e+00	0	46	104	0	83	24322
2026-01-04 06:30:30.57	41.68	14.51	-56.0	-60.4	3.7	0.00e+00	0	47	104	0	83	24203
2026-01-04 06:30:32.58	41.06	14.44	-55.9	-60.4	3.7	0.00e+00	0	46	104	0	83	24125
2026-01-04 06:30:34.59	40.45	14.36	-56.0	-60.4	3.7	0.00e+00	0	47	104	0	83	24195
2026-01-04 06:30:36.60	39.85	14.29	-56.0	-60.4	3.7	0.00e+00	0	46	104	0	83	24222
2026-01-04 06:30:38.61	39.25	14.21	-56.0	-60.4	3.7	0.00e+00	0	47	104	0	83	24204
2026-01-04 06:30:40.61	38.65	14.13	-55.9	-60.4	3.7	0.00e+00	0	47	104	0	83	24121
2026-01-04 06:30:42.63	38.05	14.05	-55.9	-60.4	3.7	0.00e+00	0	46	104	0	83	24122
2026-01-04 06:30:44.63	37.47	13.96	-55.9	-60.4	3.7	0.00e+00	0	47	104	0	83	24064
2026-01-04 06:30:46.64	36.88	13.87	-55.9	-60.4	3.7	0.00e+00	0	46	104	0	83	24114
2026-01-04 06:30:48.65	36.30	13.79	-55.9	-60.4	3.7	0.00e+00	0	47	104	0	83	24018
2026-01-04 06:30:50.66	35.72	13.69	-55.9	-60.4	3.7	0.00e+00	0	46	104	0	83	24081
2026-01-04 06:30:52.67	35.15	13.60	-55.9	-60.4	3.7	0.00e+00	0	47	104	0	83	24131
2026-01-04 06:30:54.68	34.58	13.51	-55.9	-60.4	3.7	0.00e+00	0	47	104	0	83	24110
2026-01-04 06:30:56.68	34.02	13.41	-55.9	-60.4	3.7	0.00e+00	0	47	104	0	83	24133
2026-01-04 06:30:58.69	33.46	13.31	-55.9	-60.4	3.7	0.00e+00	0	47	104	0	83	24096
2026-01-04 06:31:00.70	32.91	13.21	-55.9	-60.4	3.7	0.00e+00	0	47	104	0	83	24112
2026-01-04 06:31:02.71	32.36	13.11	-55.9	-60.4	3.7	0.00e+00	0	46	104	0	83	24087
2026-01-04 06:31:04.72	31.81	13.00	-55.9	-60.4	3.7	0.00e+00	0	47	104	0	83	24089
2026-01-04 06:31:06.73	31.27	12.90	-55.9	-60.4	3.7	0.00e+00	0	47	104	0	83	24078
2026-01-04 06:31:08.73	30.74	12.79	-55.9	-60.4	3.7	0.00e+00	0	47	104	0	83	24053
2026-01-04 06:31:10.74	30.21	12.68	-55.9	-60.4	3.7	0.00e+00	0	47	104	0	83	23968
2026-01-04 06:31:12.75	29.68	12.57	-55.9	-60.3	3.7	0.00e+00	0	47	104	0	83	23890
2026-01-04 06:31:14.76	29.16	12.46	-55.9	-60.3	3.7	0.00e+00	0	47	104	0	83	23949
2026-01-04 06:31:16.77	28.64	12.35	-55.9	-60.3	3.6	0.00e+00	0	47	104	0	83	23913
2026-01-04 06:31:18.78	28.13	12.24	-55.9	-60.4	3.7	0.00e+00	0	47	104	0	83	23984
2026-01-04 06:31:20.79	27.62	12.12	-55.9	-60.3	3.7	0.00e+00	0	47	104	0	83	23955
2026-01-04 06:31:22.79	27.13	12.01	-55.9	-60.4	3.7	0.00e+00	0	47	104	0	83	23984
2026-01-04 06:31:24.80	26.63	11.89	-56.0	-60.5	3.7	0.00e+00	0	47	104	0	83	24477
2026-01-04 06:31:26.81	26.14	11.77	-56.0	-60.5	3.7	0.00e+00	0	47	104	0	83	24330
2026-01-04 06:31:28.82	25.65	11.65	-56.0	-60.4	3.7	0.00e+00	0	47	104	0	83	24213
2026-01-04 06:31:30.83	25.17	11.53	-56.0	-60.4	3.7	0.00e+00	0	47	104	0	83	24199
2026-01-04 06:31:32.84	24.69	11.41	-55.9	-60.4	3.7	0.00e+00	0	47	104	0	83	24114
2026-01-04 06:31:34.84	24.22	11.29	-56.0	-60.4	3.6	0.00e+00	0	47	104	0	83	24115
2026-01-04 06:31:36.85	23.75	11.17	-56.0	-60.4	3.7	0.00e+00	0	47	104	0	83	24149
2026-01-04 06:31:38.86	23.29	11.05	-56.0	-60.4	3.7	0.00e+00	0	47	104	0	83	24152
2026-01-04 06:31:40.87	22.83	10.92	-55.9	-60.4	3.7	0.00e+00	0	47	104	0	83	24055
2026-01-04 06:31:42.88	22.38	10.80	-55.9	-60.4	3.7	0.00e+00	0	47	104	0	83	24096
2026-01-04 06:31:44.89	21.93	10.67	-55.9	-60.4	3.7	0.00e+00	0	47	104	0	83	24013
2026-01-04 06:31:46.89	21.49	10.55	-55.9	-60.4	3.7	0.00e+00	0	47	104	0	83	24019
2026-01-04 06:31:48.90	21.05	10.42	-55.9	-60.4	3.7	0.00e+00	0	47	104	0	83	24044
2026-01-04 06:31:50.91	20.62	10.30	-55.9	-60.4	3.7	0.00e+00	0	47	104	0	83	24015
2026-01-04 06:31:52.92	20.19	10.17	-55.9	-60.4	3.7	0.00e+00	0	47	104	0	83	24043
2026-01-04 06:31:54.93	19.76	10.04	-55.9	-60.4	3.7	0.00e+00	0	47	104	0	83	24012
2026-01-04 06:31:56.94	19.34	9.92	-55.9	-60.4	3.7	0.00e+00	0	47	104	0	83	24015
2026-01-04 06:31:58.95	18.93	9.79	-56.0	-60.4	3.7	0.00e+00	0	47	104	0	83	24183
2026-01-04 06:32:00.96	18.52	9.66	-55.9	-60.4	3.6	0.00e+00	0	47	104	0	83	24014
2026-01-04 06:32:02.96	18.11	9.53	-55.9	-60.4	3.7	0.00e+00	0	47	104	0	83	23969
2026-01-04 06:32:04.97	17.71	9.40	-55.9	-60.3	3.7	0.00e+00	0	47	104	0	83	23961
2026-01-04 06:32:06.98	17.31	9.27	-55.9	-60.4	3.7	0.00e+00	0	47	104	0	83	24035
2026-01-04 06:32:08.99	16.92	9.14	-55.9	-60.3	3.7	0.00e+00	0	47	104	0	83	23944
2026-01-04 06:32:11.00	16.53	9.01	-55.9	-60.4	3.7	0.00e+00	0	47	104	0	83	24032
2026-01-04 06:32:13.01	16.15	8.88	-55.9	-60.4	3.7	0.00e+00	0	47	104	0	83	24060
2026-01-04 06:32:15.02	15.77	8.76	-55.9	-60.4	3.7	0.00e+00	0	47	104	0	83	24032
2026-01-04 06:32:17.03	15.39	8.63	-56.0	-60.4	3.7	0.00e+00	0	47	104	0	83	24235
2026-01-04 06:32:19.04	15.02	8.50	-55.9	-60.3	3.7	0.00e+00	0	47	104	0	83	23945
2026-01-04 06:32:21.04	14.65	8.37	-55.9	-60.4	3.7	0.00e+00	0	47	104	0	83	24063
2026-01-04 06:32:23.05	14.29	8.24	-55.9	-60.4	3.7	0.00e+00	0	47	104	0	83	24014
2026-01-04 06:32:25.06	13.93	8.11	-55.9	-60.4	3.7	0.00e+00	0	47	104	0	83	24065
2026-01-04 06:32:27.07	13.58	7.98	-56.1	-60.6	3.7	0.00e+00	0	47	104	0	83	24611
2026-01-04 06:32:29.08	13.23	7.85	-56.1	-60.6	3.7	0.00e+00	0	47	104	0	83	24589
2026-01-04 06:32:31.09	12.88	7.72	-56.1	-60.5	3.7	0.00e+00	0	47	104	0	83	24489
2026-01-04 06:32:33.09	12.54	7.59	-56.1	-60.5	3.7	0.00e+00	0	47	104	0	83	24367
2026-01-04 06:32:35.10	12.20	7.46	-56.0	-60.5	3.7	0.00e+00	0	47	104	0	83	24273
2026-01-04 06:32:37.11	11.87	7.33	-56.0	-60.5	3.7	0.00e+00	0	47	104	0	83	24249
2026-01-04 06:32:39.12	11.53	7.20	-55.9	-60.4	3.7	0.00e+00	0	47	104	0	83	24108
2026-01-04 06:32:41.12	11.21	7.07	-55.9	-60.4	3.7	0.00e+00	0	47	104	0	83	24081
2026-01-04 06:32:43.13	10.88	6.94	-56.0	-60.4	3.7	0.00e+00	0	47	104	0	83	24150
2026-01-04 06:32:45.14	10.56	6.81	-56.0	-60.4	3.7	0.00e+00	0	47	104	0	83	24189
2026-01-04 06:32:47.15	10.25	6.69	-55.9	-60.4	3.7	0.00e+00	0	47	104	0	83	24113
2026-01-04 06:32:49.16	9.94	6.56	-56.0	-60.4	3.7	0.00e+00	0	47	104	0	83	24170
2026-01-04 06:32:51.17	9.63	6.43	-55.9	-60.4	3.7	0.00e+00	0	47	104	0	83	24083
2026-01-04 06:32:53.17	9.32	6.30	-55.9	-60.3	3.7	0.00e+00	0	47	104	0	83	23946
2026-01-04 06:32:55.18	9.02	6.17	-55.9	-60.4	3.7	0.00e+00	0	47	104	0	83	24191
2026-01-04 06:32:57.19	8.72	6.05	-55.9	-60.4	3.7	0.00e+00	0	47	104	0	83	24153
2026-01-04 06:32:59.20	8.42	5.92	-55.9	-60.4	3.7	0.00e+00	0	47	104	0	83	24126
2026-01-04 06:33:01.21	8.13	5.79	-55.9	-60.4	3.7	0.00e+00	0	47	104	0	83	24026
2026-01-04 06:33:03.22	7.84	5.66	-55.9	-60.4	3.7	0.00e+00	0	47	104	0	83	24041
2026-01-04 06:33:05.22	7.56	5.54	-55.9	-60.4	3.7	0.00e+00	0	47	104	0	83	24179
2026-01-04 06:33:07.23	7.28	5.41	-55.9	-60.4	3.7	0.00e+00	0	47	104	0	83	24002
2026-01-04 06:33:09.24	7.00	5.29	-55.9	-60.4	3.7	0.00e+00	0	47	104	0	83	24097
2026-01-04 06:33:11.25	6.72	5.16	-55.9	-60.4	3.7	0.00e+00	0	47	104	0	83	24027
2026-01-04 06:33:13.25	6.45	5.04	-55.9	-60.4	3.7	0.00e+00	0	47	104	0	83	24005

#Closed at: 2026-01-04 06:33:15
#Recorded file [0 MB]: D:/Data/31040_260104_092617.dat