passes_logs/2026/01/04/T1/T1__20260104_033331_AQUA_rec.log

#Pass ID: 20260104_033331_AQUA
#Satellite: AQUA
#Configuration: AQUA
#almurnet v.1.7.20251203
#Start time: 2026-01-04 03:33:33

#Version: 2.0.20230620
#Station: T1
#Location: 37.570604 lon 55.790049 lat
#TLE: 1 27424U 02022A   25365.92641127  .00002078  00000+0  42628-3 0  9999
#TLE: 2 27424  98.4058 327.1196 0001962  94.7781 340.6230 14.61783896258835

#Time	Az	El	Level	Level2	SNR	BER	BlckErr	Temp	State	Recorded	gain1	gain2
2026-01-04 03:33:33.21	356.24	5.10	-49.9	-74.6	3.4	7.67e-01	0	40	0	0	70	65535
2026-01-04 03:33:35.21	355.98	5.20	-50.0	-74.6	3.4	7.66e-01	0	40	104	0	70	65535
2026-01-04 03:33:37.22	355.72	5.30	-50.0	-74.6	3.4	7.65e-01	0	40	104	0	70	65535
2026-01-04 03:33:39.23	355.45	5.40	-50.0	-74.6	3.4	7.66e-01	0	40	104	0	70	65535
2026-01-04 03:33:41.24	355.19	5.49	-50.0	-74.6	3.4	7.65e-01	0	40	104	0	70	65535
2026-01-04 03:33:43.25	354.92	5.59	-50.0	-74.6	3.3	7.64e-01	0	40	104	0	70	65535
2026-01-04 03:33:45.26	354.65	5.69	-50.2	-74.6	3.4	7.67e-01	0	41	104	0	70	65535
2026-01-04 03:33:47.26	354.37	5.79	-50.2	-75.1	3.4	7.62e-01	0	40	104	0	71	65535
2026-01-04 03:33:49.27	354.10	5.88	-50.2	-75.1	3.4	7.64e-01	0	41	104	0	71	65535
2026-01-04 03:33:51.28	353.82	5.98	-50.2	-75.1	3.4	7.58e-01	0	41	104	0	71	65535
2026-01-04 03:33:53.29	353.54	6.08	-50.2	-75.1	3.4	7.63e-01	0	40	104	0	71	65535
2026-01-04 03:33:55.30	353.26	6.17	-50.3	-75.1	3.4	7.62e-01	0	41	104	0	71	65535
2026-01-04 03:33:57.30	352.98	6.27	-50.2	-75.1	3.4	7.61e-01	0	41	104	0	71	65535
2026-01-04 03:33:59.31	352.69	6.37	-50.2	-75.1	3.5	7.62e-01	0	41	104	0	71	65535
2026-01-04 03:34:01.32	352.41	6.46	-50.1	-75.1	3.4	7.63e-01	0	41	104	0	71	65535
2026-01-04 03:34:03.33	352.12	6.56	-50.1	-75.1	3.5	7.61e-01	0	41	104	0	71	65535
2026-01-04 03:34:05.34	351.83	6.65	-50.1	-75.1	3.4	7.61e-01	0	41	104	0	71	65535
2026-01-04 03:34:07.34	351.53	6.75	-50.2	-75.1	3.5	7.59e-01	0	41	104	0	71	65535
2026-01-04 03:34:09.35	351.24	6.84	-50.2	-75.1	3.5	7.59e-01	0	41	104	0	71	65535
2026-01-04 03:34:11.36	350.94	6.94	-50.2	-75.1	3.5	7.59e-01	0	41	104	0	71	65535
2026-01-04 03:34:13.37	350.64	7.03	-50.2	-75.1	3.4	7.62e-01	0	41	104	0	71	65535
2026-01-04 03:34:15.38	350.34	7.13	-50.1	-75.1	3.5	7.60e-01	0	41	104	0	71	65535
2026-01-04 03:34:17.39	350.03	7.22	-50.0	-75.1	3.4	7.64e-01	0	41	104	0	71	65535
2026-01-04 03:34:19.40	349.72	7.32	-50.0	-75.1	3.4	7.59e-01	0	41	104	0	71	65535
2026-01-04 03:34:21.41	349.41	7.41	-50.1	-75.1	3.4	7.63e-01	0	41	104	0	71	65535
2026-01-04 03:34:23.42	349.10	7.50	-50.1	-75.1	3.5	7.60e-01	0	42	104	0	71	65534
2026-01-04 03:34:25.42	348.79	7.59	-50.1	-75.1	3.5	7.59e-01	0	42	104	0	71	65535
2026-01-04 03:34:27.43	348.47	7.69	-50.1	-75.1	3.6	7.55e-01	0	41	104	0	71	65535
2026-01-04 03:34:29.44	348.16	7.78	-50.1	-75.1	3.7	7.49e-01	0	42	104	0	71	65533
2026-01-04 03:34:31.45	347.84	7.87	-50.1	-75.1	3.7	7.50e-01	0	42	104	0	71	65533
2026-01-04 03:34:33.46	347.51	7.96	-50.1	-75.1	3.5	7.55e-01	0	42	104	0	71	65535
2026-01-04 03:34:35.47	347.19	8.05	-50.1	-75.1	3.5	7.62e-01	0	42	104	0	71	65535
2026-01-04 03:34:37.48	346.86	8.14	-50.1	-75.1	3.5	7.61e-01	0	42	104	0	71	65535
2026-01-04 03:34:39.48	346.53	8.23	-50.1	-75.1	3.6	7.59e-01	0	41	104	0	71	65535
2026-01-04 03:34:41.49	346.20	8.32	-50.1	-75.1	3.5	7.58e-01	0	42	104	0	71	65535
2026-01-04 03:34:43.50	345.87	8.41	-50.1	-75.1	3.8	7.45e-01	0	42	104	0	71	65439
2026-01-04 03:34:45.51	345.53	8.49	-50.1	-75.1	3.7	7.51e-01	0	42	104	0	71	65535
2026-01-04 03:34:47.52	345.19	8.58	-50.1	-75.1	3.8	7.44e-01	0	42	104	0	71	65518
2026-01-04 03:34:49.52	344.86	8.67	-50.0	-72.1	3.9	7.40e-01	0	42	104	0	71	46278
2026-01-04 03:34:51.53	344.51	8.75	-50.1	-71.9	4.5	7.23e-01	0	42	104	0	71	45015
2026-01-04 03:34:53.54	344.17	8.84	-50.1	-72.8	3.8	7.41e-01	0	42	104	0	71	50112
2026-01-04 03:34:55.55	343.82	8.92	-50.0	-69.0	6.1	6.79e-01	0	42	0	0	71	32207
2026-01-04 03:34:57.56	343.47	9.01	-49.6	-61.3	13.8	6.05e-01	0	42	0	3670016	71	13372
2026-01-04 03:34:59.57	343.12	9.09	-51.3	-66.0	10.0	6.30e-01	0	42	0	7864320	73	20398
2026-01-04 03:35:01.57	342.77	9.17	-51.0	-62.5	12.9	6.05e-01	0	42	0	9961472	72	14425
2026-01-04 03:35:03.58	342.41	9.26	-48.8	-54.1	21.0	6.04e-01	0	42	0	13631488	69	6513
2026-01-04 03:35:05.69	342.04	9.34	-48.3	-52.8	22.1	6.04e-01	0	42	0	17301504	68	5989
2026-01-04 03:35:07.69	341.68	9.42	-48.3	-52.5	22.2	6.04e-01	0	42	0	21495808	68	5776
2026-01-04 03:35:09.86	341.28	9.51	-48.4	-52.3	22.7	6.01e-01	0	42	0	25165824	68	5640
2026-01-04 03:35:12.15	340.87	9.60	-49.0	-52.5	22.6	6.03e-01	0	42	0	29360128	68	5732
2026-01-04 03:35:14.15	340.50	9.68	-49.2	-52.4	22.7	6.03e-01	0	42	0	33554432	69	5360
2026-01-04 03:35:16.16	340.13	9.76	-49.5	-52.4	22.6	6.05e-01	0	42	0	37224448	69	5384
2026-01-04 03:35:18.16	339.76	9.83	-49.5	-52.4	22.8	6.05e-01	0	42	0	40894464	69	5366
2026-01-04 03:35:20.17	339.39	9.91	-49.4	-52.3	22.8	6.04e-01	0	42	0	44564480	69	5332
2026-01-04 03:35:22.17	339.01	9.98	-49.5	-52.4	22.6	6.05e-01	0	42	0	48234496	69	5365
2026-01-04 03:35:24.18	338.63	10.06	-49.2	-52.4	22.8	6.02e-01	0	42	0	52428800	69	5355
2026-01-04 03:35:26.18	338.26	10.13	-49.0	-52.5	22.6	6.04e-01	0	42	0	56098816	69	5429
2026-01-04 03:35:28.19	337.87	10.20	-48.8	-52.4	22.7	6.05e-01	0	42	0	59768832	69	5345
2026-01-04 03:35:30.20	337.49	10.27	-48.6	-52.2	22.7	6.03e-01	0	42	0	63438848	69	5223
2026-01-04 03:35:32.20	337.10	10.34	-48.5	-52.3	22.6	6.04e-01	0	42	0	67108864	69	5329
2026-01-04 03:35:34.24	336.71	10.42	-48.4	-52.3	22.6	6.04e-01	0	42	0	71303168	68	5634
2026-01-04 03:35:36.25	336.32	10.48	-48.4	-52.2	22.6	6.03e-01	0	42	0	74973184	68	5569
2026-01-04 03:35:38.25	335.93	10.55	-48.8	-52.4	22.4	6.05e-01	0	42	0	78643200	68	5663
2026-01-04 03:35:40.26	335.53	10.62	-48.8	-52.3	22.1	6.03e-01	0	42	0	82313216	68	5593
2026-01-04 03:35:42.26	335.14	10.68	-49.0	-52.3	22.8	6.03e-01	0	42	0	85983232	68	5638
2026-01-04 03:35:44.26	334.74	10.75	-49.1	-52.2	22.0	6.06e-01	0	42	0	89653248	68	5587
2026-01-04 03:35:46.27	334.34	10.81	-49.2	-52.2	22.9	6.03e-01	0	42	0	93847552	68	5572
2026-01-04 03:35:48.19	333.96	10.87	-49.2	-52.2	22.9	6.02e-01	0	42	0	96993280	69	5272
2026-01-04 03:35:50.26	333.54	10.93	-49.2	-52.2	22.1	6.03e-01	0	42	0	101187584	69	5240
2026-01-04 03:35:52.26	333.13	10.99	-49.3	-52.2	21.6	6.03e-01	0	42	0	104857600	69	5243
2026-01-04 03:35:54.26	332.73	11.05	-49.3	-52.3	21.8	6.04e-01	0	42	0	108527616	69	5300
2026-01-04 03:35:56.27	332.32	11.11	-49.2	-52.2	22.6	6.06e-01	0	42	0	112197632	69	5241
2026-01-04 03:35:58.28	331.91	11.17	-49.4	-52.2	22.5	6.04e-01	0	42	0	116391936	69	5265
2026-01-04 03:36:00.31	331.49	11.22	-49.3	-52.2	22.8	6.02e-01	0	42	0	120061952	69	5256
2026-01-04 03:36:02.32	331.07	11.28	-49.4	-52.4	22.7	6.03e-01	0	42	0	123731968	69	5343
2026-01-04 03:36:04.32	330.66	11.33	-49.4	-52.3	22.7	6.03e-01	0	42	0	127401984	69	5296
2026-01-04 03:36:06.44	330.22	11.38	-49.4	-52.3	22.7	6.04e-01	0	42	0	131596288	69	5330
2026-01-04 03:36:08.62	329.76	11.44	-49.1	-52.0	23.0	6.05e-01	0	42	0	135790592	69	5137
2026-01-04 03:36:10.65	329.34	11.49	-49.1	-52.2	22.9	6.02e-01	0	42	0	139460608	69	5251
2026-01-04 03:36:12.71	328.90	11.54	-49.2	-52.2	22.9	6.04e-01	0	42	0	143130624	69	5233
2026-01-04 03:36:14.86	328.45	11.59	-49.2	-52.1	22.9	6.04e-01	0	42	0	147324928	69	5185
2026-01-04 03:36:16.86	328.02	11.63	-49.1	-52.0	23.1	6.04e-01	0	42	0	150994944	69	5116
2026-01-04 03:36:18.86	327.60	11.67	-49.2	-52.1	22.8	6.06e-01	0	42	0	154664960	69	5170
2026-01-04 03:36:20.86	327.17	11.71	-49.4	-52.2	22.8	6.05e-01	0	42	0	158334976	69	5232
2026-01-04 03:36:22.85	326.74	11.75	-49.2	-52.0	23.0	6.05e-01	0	42	0	162004992	69	5157
2026-01-04 03:36:24.97	326.29	11.80	-48.9	-51.9	23.1	6.01e-01	0	42	0	166199296	69	5053
2026-01-04 03:36:27.00	325.85	11.83	-48.8	-52.0	23.1	6.03e-01	0	42	0	169869312	69	5135
2026-01-04 03:36:29.00	325.42	11.87	-48.8	-52.2	22.8	6.06e-01	0	42	0	173539328	69	5265
2026-01-04 03:36:31.00	324.99	11.90	-48.5	-52.1	22.9	6.05e-01	0	42	0	177209344	69	5160
2026-01-04 03:36:33.00	324.55	11.94	-48.7	-52.1	23.0	6.05e-01	0	42	0	181403648	69	5164
2026-01-04 03:36:35.00	324.12	11.97	-48.9	-52.2	23.0	6.03e-01	0	42	0	185073664	69	5229
2026-01-04 03:36:37.09	323.66	12.00	-48.8	-52.1	22.9	6.06e-01	0	42	0	188743680	69	5203
2026-01-04 03:36:39.09	323.22	12.03	-48.9	-52.1	23.0	6.05e-01	0	42	0	192413696	69	5164
2026-01-04 03:36:41.09	322.78	12.06	-49.3	-52.1	23.0	6.03e-01	0	42	0	196608000	69	5202
2026-01-04 03:36:43.01	322.36	12.08	-49.4	-52.1	22.9	6.03e-01	0	42	0	200278016	69	5213
2026-01-04 03:36:45.02	321.92	12.11	-49.3	-52.0	23.0	6.03e-01	0	42	0	203948032	69	5136
2026-01-04 03:36:47.02	321.48	12.13	-49.1	-51.9	23.0	6.04e-01	0	42	0	207618048	69	5089
2026-01-04 03:36:49.03	321.03	12.15	-49.1	-52.0	23.1	6.02e-01	0	42	0	211288064	69	5128
2026-01-04 03:36:51.03	320.59	12.17	-49.1	-52.2	22.9	6.03e-01	0	42	0	214958080	69	5221
2026-01-04 03:36:53.03	320.15	12.19	-49.2	-52.4	22.7	6.04e-01	0	43	0	218628096	69	5352
2026-01-04 03:36:55.03	319.71	12.20	-49.3	-52.2	22.9	6.03e-01	0	42	0	222298112	69	5255
2026-01-04 03:36:57.03	319.26	12.22	-49.3	-52.2	23.0	6.04e-01	0	42	0	226492416	69	5243
2026-01-04 03:36:59.03	318.82	12.23	-49.2	-52.1	23.0	6.01e-01	0	42	0	230162432	69	5175
2026-01-04 03:37:01.03	318.37	12.24	-48.9	-51.8	23.2	6.04e-01	0	42	0	233832448	69	5001
2026-01-04 03:37:03.03	317.93	12.25	-49.0	-52.0	23.0	6.01e-01	0	42	0	237502464	69	5120
2026-01-04 03:37:05.03	317.48	12.26	-49.5	-52.6	22.4	6.02e-01	0	43	0	241172480	69	5500
2026-01-04 03:37:07.03	317.04	12.27	-49.6	-52.8	22.3	6.04e-01	0	42	0	244842496	69	5649
2026-01-04 03:37:09.03	316.59	12.27	-49.8	-52.8	22.2	6.05e-01	0	42	0	249036800	70	5330
2026-01-04 03:37:11.03	316.14	12.28	-49.5	-52.2	22.8	6.04e-01	0	42	0	252706816	70	4981
2026-01-04 03:37:13.03	315.70	12.28	-49.3	-52.1	23.0	6.03e-01	0	42	0	256376832	70	4880
2026-01-04 03:37:15.03	315.25	12.28	-49.4	-52.4	22.8	6.05e-01	0	43	0	260046848	70	5042
2026-01-04 03:37:17.03	314.80	12.28	-49.8	-52.9	22.3	6.01e-01	0	43	0	263716864	70	5384
2026-01-04 03:37:19.03	314.36	12.28	-50.0	-53.1	22.1	6.04e-01	0	42	0	267386880	70	5491
2026-01-04 03:37:21.04	313.91	12.27	-49.9	-53.0	22.3	6.04e-01	0	43	0	271056896	70	5431
2026-01-04 03:37:23.04	313.46	12.27	-49.1	-52.3	22.8	6.08e-01	0	42	0	275251200	70	5037
2026-01-04 03:37:25.04	313.02	12.26	-49.3	-52.4	22.7	6.04e-01	0	42	0	278921216	70	5079
2026-01-04 03:37:27.04	312.57	12.25	-49.6	-52.7	22.5	6.05e-01	0	42	0	282591232	70	5235
2026-01-04 03:37:29.05	312.12	12.24	-49.8	-52.7	22.4	6.01e-01	0	42	0	286261248	70	5275
2026-01-04 03:37:31.04	311.68	12.23	-49.7	-52.7	22.4	5.98e-01	0	42	0	289931264	70	5240
2026-01-04 03:37:33.04	311.24	12.21	-49.5	-52.4	22.7	6.00e-01	0	42	0	293601280	70	5074
2026-01-04 03:37:35.05	310.79	12.20	-49.5	-52.4	22.7	6.04e-01	0	43	0	297795584	70	5076
2026-01-04 03:37:37.05	310.35	12.18	-50.1	-53.0	22.1	6.04e-01	0	42	0	301465600	71	5134
2026-01-04 03:37:39.04	309.91	12.16	-49.8	-52.7	22.3	6.04e-01	0	43	0	305135616	71	4967
2026-01-04 03:37:41.05	309.46	12.14	-49.9	-53.0	22.2	6.05e-01	0	42	0	308805632	71	5145
2026-01-04 03:37:43.05	309.02	12.12	-50.0	-53.0	22.3	6.03e-01	0	43	0	312475648	71	5113
2026-01-04 03:37:45.05	308.58	12.10	-50.0	-53.0	22.2	6.01e-01	0	42	0	316145664	71	5155
2026-01-04 03:37:47.05	308.14	12.07	-49.8	-52.8	22.4	6.03e-01	0	43	0	319815680	71	5012
2026-01-04 03:37:49.05	307.70	12.04	-49.8	-52.7	22.4	6.01e-01	0	42	0	324009984	71	4950
2026-01-04 03:37:51.05	307.26	12.02	-49.7	-52.5	22.6	6.05e-01	0	42	0	327680000	71	4842
2026-01-04 03:37:53.05	306.82	11.99	-50.1	-53.0	22.1	6.01e-01	0	42	0	331350016	71	5150
2026-01-04 03:37:55.04	306.39	11.96	-49.9	-52.9	22.2	6.05e-01	0	42	0	335020032	71	5075
2026-01-04 03:37:57.05	305.95	11.92	-50.2	-53.1	22.1	6.06e-01	0	42	0	338690048	71	5188
2026-01-04 03:37:59.05	305.51	11.89	-50.1	-53.0	22.2	6.03e-01	0	42	0	342360064	71	5120
2026-01-04 03:38:01.04	305.08	11.85	-50.1	-53.0	22.1	6.04e-01	0	42	0	346554368	71	5156
2026-01-04 03:38:03.04	304.65	11.82	-50.3	-53.4	21.8	6.04e-01	0	42	0	350224384	71	5387
2026-01-04 03:38:05.04	304.22	11.78	-49.8	-52.7	22.4	6.06e-01	0	42	0	353894400	71	4962
2026-01-04 03:38:07.04	303.79	11.74	-50.1	-53.1	22.0	6.07e-01	0	43	0	357564416	71	5198
2026-01-04 03:38:09.05	303.36	11.70	-50.7	-53.8	21.4	6.05e-01	0	42	0	361234432	71	5638
2026-01-04 03:38:11.04	302.93	11.66	-49.7	-52.5	22.5	6.04e-01	0	43	0	364904448	71	4840
2026-01-04 03:38:13.05	302.50	11.61	-50.5	-53.6	21.5	6.04e-01	0	42	0	368574464	72	5215
2026-01-04 03:38:15.04	302.08	11.57	-49.7	-52.5	22.5	6.02e-01	0	42	0	372768768	71	4838
2026-01-04 03:38:17.04	301.66	11.52	-50.6	-53.7	21.5	6.03e-01	0	43	0	376438784	71	5555
2026-01-04 03:38:19.04	301.24	11.47	-50.0	-52.8	22.3	6.02e-01	0	42	0	380108800	71	5022
2026-01-04 03:38:21.04	300.82	11.43	-50.2	-53.1	22.0	6.04e-01	0	42	0	383778816	72	4881
2026-01-04 03:38:23.04	300.40	11.38	-50.3	-53.3	21.9	6.02e-01	0	42	0	387448832	71	5319
2026-01-04 03:38:25.04	299.98	11.32	-50.2	-53.2	22.0	6.01e-01	0	42	0	391118848	71	5229
2026-01-04 03:38:27.04	299.56	11.27	-50.1	-53.2	22.1	6.03e-01	0	42	0	394788864	71	5221
2026-01-04 03:38:29.04	299.15	11.22	-50.3	-53.2	22.0	6.03e-01	0	42	0	398983168	71	5230
2026-01-04 03:38:31.04	298.74	11.16	-50.6	-53.7	21.5	6.05e-01	0	43	0	402653184	71	5587
2026-01-04 03:38:33.05	298.32	11.10	-50.0	-52.9	22.3	6.03e-01	0	42	0	406323200	72	4775
2026-01-04 03:38:35.05	297.92	11.05	-50.6	-53.7	21.4	6.05e-01	0	43	0	409993216	71	5586
2026-01-04 03:38:37.05	297.51	10.99	-50.3	-53.2	22.0	6.05e-01	0	43	0	413663232	71	5274
2026-01-04 03:38:39.05	297.10	10.93	-50.5	-53.5	21.8	6.04e-01	0	42	0	417333248	71	5421
2026-01-04 03:38:41.04	296.70	10.87	-50.3	-53.3	21.8	6.02e-01	0	43	0	421527552	72	5024
2026-01-04 03:38:43.04	296.30	10.81	-50.0	-52.9	22.2	6.03e-01	0	42	0	425197568	71	5100
2026-01-04 03:38:45.04	295.90	10.74	-50.3	-53.3	21.8	6.03e-01	0	42	0	428867584	71	5329
2026-01-04 03:38:47.04	295.50	10.68	-50.6	-53.6	21.6	6.02e-01	0	43	0	432537600	71	5470
2026-01-04 03:38:49.04	295.11	10.61	-50.4	-53.2	21.9	6.03e-01	0	42	0	436207616	71	5277
2026-01-04 03:38:51.04	294.71	10.55	-50.4	-53.4	21.7	6.04e-01	0	43	0	439877632	72	5067
2026-01-04 03:38:53.04	294.32	10.48	-50.5	-53.5	21.7	6.05e-01	0	42	0	443547648	72	5115
2026-01-04 03:38:55.04	293.93	10.41	-50.4	-53.5	21.6	6.03e-01	0	43	0	447741952	72	5108
2026-01-04 03:38:57.04	293.54	10.34	-50.3	-53.2	21.9	6.06e-01	0	43	0	451411968	72	4974
2026-01-04 03:38:59.04	293.15	10.27	-50.3	-53.3	21.8	6.01e-01	0	43	0	455081984	72	4996
2026-01-04 03:39:01.04	292.77	10.20	-50.4	-53.5	21.6	6.01e-01	0	43	0	458752000	72	5122
2026-01-04 03:39:03.04	292.39	10.13	-50.2	-53.1	21.9	6.02e-01	0	43	0	462422016	72	4917
2026-01-04 03:39:05.04	292.01	10.05	-50.2	-53.1	22.0	6.01e-01	0	43	0	466092032	71	5192
2026-01-04 03:39:07.04	291.63	9.98	-50.4	-53.5	21.6	6.04e-01	0	42	0	470286336	71	5427
2026-01-04 03:39:09.04	291.25	9.90	-50.2	-53.2	21.9	6.03e-01	0	42	0	473956352	71	5249
2026-01-04 03:39:11.04	290.88	9.83	-50.2	-53.1	21.9	6.04e-01	0	42	0	477626368	71	5200
2026-01-04 03:39:13.04	290.51	9.75	-50.2	-53.3	21.8	6.05e-01	0	43	0	481296384	71	5287
2026-01-04 03:39:15.04	290.14	9.67	-50.2	-53.2	21.9	6.05e-01	0	43	0	484966400	71	5239
2026-01-04 03:39:17.05	289.77	9.59	-50.3	-53.5	21.6	6.03e-01	0	43	0	488636416	71	5411
2026-01-04 03:39:19.05	289.40	9.52	-50.2	-53.3	21.7	6.02e-01	0	43	0	492306432	71	5309
2026-01-04 03:39:21.06	289.04	9.44	-50.3	-53.4	21.6	6.05e-01	0	42	0	496500736	71	5372
2026-01-04 03:39:23.05	288.68	9.36	-50.2	-53.3	21.7	6.04e-01	0	43	0	500170752	71	5338
2026-01-04 03:39:25.06	288.32	9.27	-50.2	-53.5	21.6	6.06e-01	0	43	0	503840768	71	5405
2026-01-04 03:39:27.06	287.96	9.19	-50.1	-53.3	21.8	6.02e-01	0	43	0	507510784	71	5288
2026-01-04 03:39:29.07	287.61	9.11	-50.2	-53.4	21.7	6.04e-01	0	43	0	511180800	71	5371
2026-01-04 03:39:31.07	287.25	9.03	-50.1	-53.2	21.9	6.01e-01	0	43	0	515375104	71	5249
2026-01-04 03:39:33.07	286.90	8.94	-56.5	-76.4	3.8	7.46e-01	0	43	104	516947968	83	38220
2026-01-04 03:39:35.08	286.55	8.86	-56.5	-76.8	3.8	7.42e-01	0	43	104	516947968	83	39829
2026-01-04 03:39:37.09	286.21	8.77	-56.5	-77.0	3.8	7.48e-01	0	43	104	516947968	84	38495
2026-01-04 03:39:39.10	285.86	8.68	-56.5	-77.0	3.8	7.45e-01	0	43	104	516947968	84	38651
2026-01-04 03:39:41.10	285.52	8.60	-56.8	-77.0	3.8	7.48e-01	0	43	104	516947968	84	38677
2026-01-04 03:39:43.11	285.18	8.51	-56.7	-77.1	3.8	7.47e-01	0	43	104	516947968	84	38727
2026-01-04 03:39:45.29	284.81	8.42	-56.7	-77.1	3.8	7.43e-01	0	43	104	516947968	84	39020
2026-01-04 03:39:47.30	284.48	8.33	-56.7	-77.0	3.8	7.47e-01	0	43	104	516947968	84	38590
2026-01-04 03:39:49.31	284.14	8.24	-56.7	-77.0	3.8	7.45e-01	0	42	104	516947968	84	38636
2026-01-04 03:39:51.32	283.81	8.15	-56.6	-77.0	3.8	7.47e-01	0	43	104	516947968	84	38508
2026-01-04 03:39:53.33	283.48	8.06	-56.1	-77.0	3.8	7.43e-01	0	43	104	516947968	84	38515
2026-01-04 03:39:55.43	283.14	7.96	-56.1	-77.0	3.8	7.50e-01	0	43	104	516947968	84	38555
2026-01-04 03:39:57.44	282.82	7.87	-56.1	-77.0	3.8	7.45e-01	0	43	104	516947968	84	38451
2026-01-04 03:39:59.45	282.49	7.78	-56.0	-77.0	3.8	7.46e-01	0	43	104	516947968	84	38282
2026-01-04 03:40:01.46	282.17	7.69	-56.0	-76.9	3.8	7.47e-01	0	43	104	516947968	84	38166
2026-01-04 03:40:03.47	281.85	7.60	-56.0	-76.9	3.8	7.45e-01	0	43	104	516947968	84	37899
2026-01-04 03:40:05.47	281.54	7.50	-55.9	-76.8	3.8	7.43e-01	0	43	104	516947968	83	39621
2026-01-04 03:40:07.48	281.23	7.41	-55.9	-76.8	3.8	7.47e-01	0	43	104	516947968	83	39721
2026-01-04 03:40:09.49	280.91	7.32	-55.9	-76.8	3.8	7.47e-01	0	43	104	516947968	83	39700
2026-01-04 03:40:11.50	280.61	7.22	-55.8	-76.7	3.8	7.45e-01	0	43	104	516947968	83	39551
2026-01-04 03:40:13.51	280.30	7.13	-55.8	-76.8	3.8	7.44e-01	0	43	104	516947968	83	39591
2026-01-04 03:40:15.52	279.99	7.04	-55.8	-76.7	3.8	7.47e-01	0	43	104	516947968	83	39573
2026-01-04 03:40:17.52	279.69	6.94	-55.9	-76.8	3.8	7.45e-01	0	43	104	516947968	83	39649
2026-01-04 03:40:19.54	279.39	6.85	-55.9	-76.8	3.8	7.47e-01	0	43	104	516947968	83	39703
2026-01-04 03:40:21.54	279.09	6.75	-55.9	-76.8	3.8	7.46e-01	0	43	104	516947968	83	39726
2026-01-04 03:40:23.55	278.80	6.66	-55.8	-76.7	3.8	7.43e-01	0	43	104	516947968	83	39530
2026-01-04 03:40:25.56	278.50	6.56	-55.9	-76.8	3.8	7.45e-01	0	43	104	516947968	83	39681
2026-01-04 03:40:27.57	278.21	6.46	-55.8	-76.7	3.8	7.45e-01	0	43	104	516947968	83	39580
2026-01-04 03:40:29.57	277.92	6.37	-55.9	-76.8	3.8	7.47e-01	0	43	104	516947968	83	39857
2026-01-04 03:40:31.58	277.63	6.27	-55.8	-76.7	3.8	7.46e-01	0	43	104	516947968	83	39547
2026-01-04 03:40:33.59	277.35	6.17	-55.8	-76.7	3.8	7.47e-01	0	43	104	516947968	83	39385
2026-01-04 03:40:35.60	277.07	6.08	-55.8	-76.7	3.8	7.44e-01	0	43	104	516947968	83	39345
2026-01-04 03:40:37.61	276.78	5.98	-55.8	-76.8	3.8	7.43e-01	0	43	104	516947968	83	39646
2026-01-04 03:40:39.62	276.50	5.88	-55.8	-76.7	3.8	7.44e-01	0	43	104	516947968	83	39524
2026-01-04 03:40:41.63	276.23	5.79	-55.8	-76.7	3.8	7.43e-01	0	43	104	516947968	83	39580
2026-01-04 03:40:43.64	275.95	5.69	-55.8	-76.7	3.8	7.43e-01	0	43	104	516947968	83	39448
2026-01-04 03:40:45.64	275.68	5.59	-55.9	-76.8	3.8	7.46e-01	0	43	104	516947968	83	39977
2026-01-04 03:40:47.65	275.41	5.49	-55.9	-76.8	3.8	7.46e-01	0	43	104	516947968	83	39907
2026-01-04 03:40:49.66	275.14	5.39	-55.9	-76.8	3.8	7.46e-01	0	43	104	516947968	83	39865
2026-01-04 03:40:51.67	274.87	5.30	-55.9	-76.8	3.8	7.45e-01	0	43	104	516947968	83	39897
2026-01-04 03:40:53.68	274.61	5.20	-55.9	-76.8	3.8	7.46e-01	0	43	104	516947968	83	39981
2026-01-04 03:40:55.69	274.34	5.10	-55.9	-76.8	3.8	7.45e-01	0	43	104	516947968	83	39877
2026-01-04 03:40:57.69	274.08	5.00	-55.9	-76.8	3.8	7.46e-01	0	43	104	516947968	83	40042

#Closed at: 2026-01-04 03:40:58
#Recorded file [516 MB]: D:/Data/31040_260104_063333.dat