passes_logs/2026/01/04/T1/T1__20260104_040920_FENGYUN_3E_rec.log

#Pass ID: 20260104_040920_FENGYUN 3E
#Satellite: FENGYUN 3E
#Configuration: FENGYUN 3E
#almurnet v.1.7.20251203
#Start time: 2026-01-04 04:09:20

#Version: 2.0.20230620
#Station: T1
#Location: 37.570604 lon 55.790049 lat
#TLE: 1 49008U 21062A   26003.51942929 -.00000034  00000+0  45519-5 0  9990
#TLE: 2 49008  98.7472   8.7829 0001426 160.7926 199.3304 14.19883272233213

#Time	Az	El	Level	Level2	SNR	BER	BlckErr	Temp	State	Recorded	gain1	gain2
2026-01-04 04:09:20.21	15.09	4.98	-52.8	-65.2	3.8	8.45e-01	0	40	0	0	76	14698
2026-01-04 04:09:24.22	15.07	5.27	-52.8	-65.2	3.8	8.47e-01	0	41	104	0	75	15484
2026-01-04 04:09:28.24	15.04	5.56	-52.8	-65.1	3.8	8.47e-01	0	41	104	0	75	15275
2026-01-04 04:09:32.26	15.01	5.85	-52.7	-64.8	3.8	8.47e-01	0	41	104	0	75	14715
2026-01-04 04:09:36.27	14.99	6.15	-52.7	-64.8	3.8	8.47e-01	0	41	104	0	75	14841
2026-01-04 04:09:40.29	14.96	6.45	-52.9	-65.1	3.8	8.47e-01	0	42	104	0	75	15321
2026-01-04 04:09:44.31	14.93	6.75	-52.9	-64.5	3.8	8.46e-01	0	42	104	0	75	14368
2026-01-04 04:09:48.33	14.90	7.06	-52.9	-63.9	3.8	8.46e-01	0	42	104	0	75	13381
2026-01-04 04:09:52.35	14.86	7.37	-52.9	-63.3	3.8	8.46e-01	0	42	104	0	75	12473
2026-01-04 04:09:56.36	14.83	7.68	-52.7	-61.9	4.2	8.37e-01	0	42	0	0	75	10550
2026-01-04 04:10:00.37	14.80	8.00	-52.2	-59.8	5.0	7.70e-01	0	42	0	0	75	8290
2026-01-04 04:10:04.39	14.76	8.32	-51.6	-57.4	6.7	2.13e-01	0	42	0	17825792	74	6663
2026-01-04 04:10:08.40	14.72	8.65	-51.0	-55.9	8.1	5.71e-02	0	42	0	46137344	72	6284
2026-01-04 04:10:12.40	14.69	8.98	-50.9	-55.5	8.4	4.34e-02	0	42	0	75497472	72	6059
2026-01-04 04:10:16.40	14.65	9.31	-52.0	-60.3	4.7	7.98e-01	0	43	0	98566144	73	9888
2026-01-04 04:10:20.36	14.61	9.65	-44.8	-46.1	18.0	0.00e+00	0	43	0	119537664	60	4065
2026-01-04 04:10:24.37	14.57	9.99	-44.0	-45.2	18.8	0.00e+00	0	43	0	147849216	58	4107
2026-01-04 04:10:28.37	14.52	10.34	-43.8	-44.9	19.1	0.00e+00	0	43	0	177209344	58	3977
2026-01-04 04:10:32.46	14.48	10.70	-43.8	-44.9	19.0	0.00e+00	0	43	0	206569472	58	3995
2026-01-04 04:10:36.38	14.43	11.05	-43.6	-44.8	19.2	0.00e+00	0	43	0	234881024	58	3919
2026-01-04 04:10:40.38	14.39	11.41	-43.7	-44.8	19.2	0.00e+00	0	43	0	263192576	58	3928
2026-01-04 04:10:44.45	14.34	11.79	-43.4	-44.5	19.4	0.00e+00	0	43	0	292552704	57	4051
2026-01-04 04:10:48.39	14.29	12.16	-43.1	-44.2	19.8	0.00e+00	0	43	0	320864256	56	4111
2026-01-04 04:10:52.40	14.23	12.54	-42.9	-43.9	20.0	0.00e+00	0	43	0	350224384	56	3990
2026-01-04 04:10:56.40	14.18	12.92	-43.0	-44.1	19.9	0.00e+00	0	43	0	379584512	56	4068
2026-01-04 04:11:00.39	14.12	13.31	-42.5	-43.5	20.3	0.00e+00	0	43	0	407896064	55	4049
2026-01-04 04:11:04.48	14.06	13.72	-42.5	-43.5	20.3	0.00e+00	0	43	0	437256192	55	4048
2026-01-04 04:11:08.49	14.00	14.13	-42.3	-43.3	20.5	0.00e+00	0	43	0	466616320	55	3953
2026-01-04 04:11:12.48	13.94	14.54	-42.0	-43.1	20.7	0.00e+00	0	43	0	494927872	54	4066
2026-01-04 04:11:16.59	13.87	14.97	-42.5	-43.5	20.6	0.00e+00	0	43	0	525336576	54	4254
2026-01-04 04:11:20.59	13.81	15.40	-42.1	-43.1	20.8	0.00e+00	0	43	0	553648128	54	4060
2026-01-04 04:11:24.59	13.74	15.83	-42.0	-43.0	20.9	0.00e+00	0	43	0	583008256	54	4023
2026-01-04 04:11:28.74	13.66	16.29	-42.0	-43.0	21.0	0.00e+00	0	43	0	612368384	54	4009
2026-01-04 04:11:32.87	13.59	16.76	-41.9	-42.8	21.1	0.00e+00	0	43	0	642777088	54	3939
2026-01-04 04:11:36.87	13.51	17.22	-41.6	-42.6	21.3	0.00e+00	0	43	0	671088640	54	3829
2026-01-04 04:11:40.87	13.43	17.69	-41.5	-42.4	21.4	0.00e+00	0	43	0	700448768	53	3983
2026-01-04 04:11:44.97	13.34	18.18	-41.6	-42.5	21.3	0.00e+00	0	43	0	729808896	53	4015
2026-01-04 04:11:48.97	13.25	18.66	-41.2	-42.1	21.6	0.00e+00	0	43	0	759169024	53	3842
2026-01-04 04:11:52.97	13.16	19.16	-41.1	-42.0	21.7	0.00e+00	0	43	0	787480576	52	4032
2026-01-04 04:11:56.98	13.07	19.67	-41.2	-42.1	21.6	0.00e+00	0	44	0	816840704	52	4070
2026-01-04 04:12:00.99	12.97	20.19	-41.1	-41.9	21.8	0.00e+00	0	43	0	845152256	52	4004
2026-01-04 04:12:05.03	12.87	20.72	-41.2	-42.1	21.6	0.00e+00	0	43	0	874512384	52	4076
2026-01-04 04:12:09.10	12.76	21.27	-41.1	-41.9	21.7	0.00e+00	0	43	0	903872512	52	3996
2026-01-04 04:12:13.02	12.65	21.81	-41.3	-42.2	21.8	0.00e+00	0	43	0	932184064	52	4108
2026-01-04 04:12:17.02	12.54	22.38	-41.0	-41.9	22.0	0.00e+00	0	44	0	961544192	52	3974
2026-01-04 04:12:21.02	12.42	22.95	-41.1	-42.0	21.9	0.00e+00	0	43	0	989855744	52	4022
2026-01-04 04:12:25.02	12.30	23.54	-40.8	-41.7	22.2	0.00e+00	0	43	0	1019215872	52	3880
2026-01-04 04:12:29.03	12.17	24.15	-40.9	-41.7	22.1	0.00e+00	0	43	0	1047527424	52	3896
2026-01-04 04:12:33.03	12.03	24.76	-40.6	-41.4	22.3	0.00e+00	0	44	0	1076887552	52	3776
2026-01-04 04:12:37.04	11.89	25.40	-40.4	-41.2	22.5	0.00e+00	0	44	0	1105199104	51	3887
2026-01-04 04:12:41.05	11.74	26.05	-40.4	-41.3	22.5	0.00e+00	0	43	0	1134559232	51	3928
2026-01-04 04:12:45.05	11.58	26.71	-40.4	-41.3	22.4	0.00e+00	0	43	0	1163919360	51	3938
2026-01-04 04:12:49.06	11.42	27.39	-40.6	-41.5	22.4	0.00e+00	0	43	0	1192230912	51	4025
2026-01-04 04:12:53.02	11.25	28.08	-40.4	-41.2	22.5	0.00e+00	0	44	0	1221591040	51	3893
2026-01-04 04:12:57.03	11.07	28.80	-40.3	-41.1	22.7	0.00e+00	0	44	0	1249902592	51	3841
2026-01-04 04:13:01.51	10.86	29.62	-40.1	-41.0	22.8	0.00e+00	0	43	0	1282408448	50	4005
2026-01-04 04:13:05.51	10.66	30.37	-40.3	-41.2	22.7	0.00e+00	0	43	0	1310720000	50	4105
2026-01-04 04:13:09.51	10.45	31.15	-40.4	-41.2	22.7	0.00e+00	0	43	0	1340080128	50	4125
2026-01-04 04:13:13.52	10.23	31.94	-40.6	-41.5	22.5	0.00e+00	0	44	0	1369440256	50	4255
2026-01-04 04:13:17.53	10.00	32.76	-40.8	-41.7	22.3	0.00e+00	0	44	0	1397751808	51	4117
2026-01-04 04:13:21.54	9.76	33.60	-40.5	-41.4	22.5	0.00e+00	0	44	0	1427111936	51	3971
2026-01-04 04:13:25.54	9.50	34.47	-40.4	-41.2	22.7	0.00e+00	0	43	0	1455423488	51	3891
2026-01-04 04:13:29.55	9.22	35.35	-40.2	-41.0	22.8	0.00e+00	0	44	0	1484783616	51	3799
2026-01-04 04:13:33.56	8.93	36.27	-40.3	-41.1	22.7	0.00e+00	0	43	0	1514143744	50	4064
2026-01-04 04:13:37.57	8.62	37.20	-40.1	-40.9	22.8	0.00e+00	0	43	0	1542455296	50	4000
2026-01-04 04:13:41.57	8.30	38.17	-39.9	-40.7	23.0	0.00e+00	0	44	0	1571815424	50	3912
2026-01-04 04:13:45.63	7.94	39.17	-40.0	-40.8	23.0	0.00e+00	0	43	0	1601175552	50	3935
2026-01-04 04:13:49.64	7.57	40.19	-40.3	-41.1	22.7	0.00e+00	0	44	0	1629487104	50	4091
2026-01-04 04:13:53.78	7.16	41.28	-40.5	-41.3	22.5	0.00e+00	0	44	0	1659895808	50	4173
2026-01-04 04:13:58.01	6.71	42.42	-40.5	-41.3	22.7	0.00e+00	0	44	0	1690304512	50	4165
2026-01-04 04:14:02.28	6.21	43.60	-40.4	-41.3	22.6	0.00e+00	0	44	0	1720713216	50	4153
2026-01-04 04:14:06.29	5.72	44.75	-40.7	-41.6	22.3	0.00e+00	0	43	0	1750073344	51	4056
2026-01-04 04:14:10.26	5.19	45.91	-40.9	-41.8	22.3	0.00e+00	0	44	0	1778384896	51	4146
2026-01-04 04:14:14.28	4.61	47.12	-41.1	-42.0	22.2	0.00e+00	0	43	0	1807745024	52	4007
2026-01-04 04:14:18.33	3.97	48.38	-41.9	-42.8	21.4	0.00e+00	0	44	0	1837105152	53	4169
2026-01-04 04:14:22.40	3.28	49.67	-41.9	-42.8	21.3	0.00e+00	0	44	0	1866465280	53	4165
2026-01-04 04:14:26.41	2.53	50.98	-41.7	-42.6	21.6	0.00e+00	0	44	0	1894776832	53	4064
2026-01-04 04:14:30.72	1.65	52.41	-41.8	-42.7	21.4	0.00e+00	0	44	0	1926234112	53	4111
2026-01-04 04:14:34.73	0.75	53.79	-42.1	-43.0	21.1	0.00e+00	0	44	0	1955594240	54	4019
2026-01-04 04:14:38.76	359.75	55.19	-41.6	-42.5	21.6	0.00e+00	0	44	0	1983905792	53	4012
2026-01-04 04:14:42.76	358.66	56.62	-42.0	-42.9	21.1	0.00e+00	0	44	0	2013265920	53	4235
2026-01-04 04:14:46.77	357.43	58.07	-41.8	-42.7	21.6	0.00e+00	0	44	0	2042626048	54	3876
2026-01-04 04:14:50.71	356.09	59.53	-41.9	-42.7	21.4	0.00e+00	0	44	0	2070937600	54	3905
2026-01-04 04:14:54.72	354.56	61.02	-41.4	-42.3	21.8	0.00e+00	0	44	0	2099249152	53	3917
2026-01-04 04:14:58.72	352.84	62.53	-41.7	-42.6	21.5	0.00e+00	0	44	0	2128609280	53	4085
2026-01-04 04:15:02.92	350.78	64.12	-40.9	-41.7	22.4	0.00e+00	0	44	0	2159017984	51	4131
2026-01-04 04:15:06.93	348.53	65.64	-40.6	-41.4	22.8	0.00e+00	0	44	0	2187329536	51	3978
2026-01-04 04:15:10.93	345.95	67.15	-40.3	-41.1	22.9	0.00e+00	0	44	0	2216689664	51	3830
2026-01-04 04:15:14.94	342.96	68.63	-40.3	-41.2	22.8	0.00e+00	0	44	0	2245001216	50	4112
2026-01-04 04:15:19.26	339.20	70.19	-41.1	-42.0	22.1	0.00e+00	0	44	0	2276458496	51	4252
2026-01-04 04:15:23.39	334.98	71.62	-40.4	-41.2	22.8	0.00e+00	0	44	0	2306867200	51	3885
2026-01-04 04:15:27.40	330.18	72.91	-40.1	-40.8	23.0	0.00e+00	0	44	0	2335178752	50	3956
2026-01-04 04:15:31.42	324.58	74.09	-40.2	-41.0	22.9	0.00e+00	0	44	0	2364538880	50	4047
2026-01-04 04:15:35.42	318.14	75.10	-40.3	-41.1	22.9	0.00e+00	0	44	0	2393899008	50	4081
2026-01-04 04:15:39.42	310.82	75.91	-40.0	-40.8	23.2	0.00e+00	0	44	0	2422210560	50	3944
2026-01-04 04:15:43.47	302.63	76.48	-39.5	-40.3	23.6	0.00e+00	0	44	0	2451570688	49	3920
2026-01-04 04:15:47.42	294.10	76.76	-39.8	-40.6	23.5	0.00e+00	0	44	0	2479882240	49	4083
2026-01-04 04:15:51.42	285.28	76.74	-39.6	-40.4	23.4	0.00e+00	0	44	0	2509242368	49	3992
2026-01-04 04:15:55.43	276.67	76.42	-39.5	-40.3	23.5	0.00e+00	0	44	0	2537553920	49	3938
2026-01-04 04:15:59.48	268.56	75.82	-39.8	-40.6	23.4	0.00e+00	0	44	0	2566914048	49	4089
2026-01-04 04:16:03.49	261.33	74.98	-40.2	-41.0	23.1	0.00e+00	0	44	0	2596274176	50	4032
2026-01-04 04:16:07.50	254.99	73.94	-40.8	-41.7	22.4	0.00e+00	0	44	0	2624585728	51	4109
2026-01-04 04:16:11.51	249.50	72.74	-40.7	-41.6	22.6	0.00e+00	0	44	0	2653945856	51	4066
2026-01-04 04:16:15.43	244.89	71.47	-40.5	-41.3	22.7	0.00e+00	0	44	0	2682257408	51	3948
2026-01-04 04:16:19.43	240.85	70.08	-40.3	-41.1	23.0	0.00e+00	0	43	0	2711617536	51	3825
2026-01-04 04:16:23.43	237.38	68.63	-41.0	-41.8	22.1	0.00e+00	0	44	0	2739929088	51	4169
2026-01-04 04:16:27.44	234.39	67.14	-40.7	-41.6	22.4	0.00e+00	0	44	0	2769289216	51	4062
2026-01-04 04:16:31.60	231.71	65.57	-40.9	-41.7	22.4	0.00e+00	0	44	0	2798649344	51	4118
2026-01-04 04:16:35.72	229.41	64.00	-41.0	-41.8	22.4	0.00e+00	0	44	0	2829058048	51	4191
2026-01-04 04:16:39.93	227.36	62.40	-41.4	-42.2	21.9	0.00e+00	0	44	0	2859466752	52	4139
2026-01-04 04:16:43.93	225.65	60.89	-41.4	-42.3	21.9	0.00e+00	0	44	0	2887778304	52	4168
2026-01-04 04:16:48.06	224.09	59.35	-42.3	-43.2	21.1	0.00e+00	0	44	0	2918187008	54	4121
2026-01-04 04:16:52.24	222.68	57.80	-42.1	-43.0	21.1	0.00e+00	0	44	0	2948595712	54	4050
2026-01-04 04:16:56.25	221.48	56.35	-41.5	-42.3	21.7	0.00e+00	0	44	0	2976907264	53	3949
2026-01-04 04:17:00.25	220.40	54.92	-41.3	-42.2	21.8	0.00e+00	0	44	0	3006267392	53	3901
2026-01-04 04:17:04.35	219.40	53.49	-41.7	-42.6	21.5	0.00e+00	0	44	0	3035627520	52	4292
2026-01-04 04:17:08.43	218.49	52.10	-41.9	-42.8	21.3	0.00e+00	0	44	0	3064987648	53	4148
2026-01-04 04:17:12.45	217.68	50.75	-42.2	-43.1	21.0	0.00e+00	0	44	0	3094347776	54	4093
2026-01-04 04:17:16.74	216.89	49.36	-41.6	-42.4	21.6	0.00e+00	0	44	0	3124756480	53	3999
2026-01-04 04:17:20.66	216.23	48.11	-41.6	-42.4	21.8	0.00e+00	0	44	0	3153068032	53	3983
2026-01-04 04:17:24.67	215.61	46.87	-41.2	-42.0	22.1	0.00e+00	0	44	0	3182428160	52	4034
2026-01-04 04:17:28.64	215.04	45.67	-41.1	-41.9	22.2	0.00e+00	0	44	0	3210739712	52	3986
2026-01-04 04:17:32.73	214.50	44.47	-40.6	-41.4	22.6	0.00e+00	0	44	0	3240099840	51	3991
2026-01-04 04:17:36.74	214.01	43.33	-40.6	-41.5	22.6	0.00e+00	0	44	0	3269459968	51	4005
2026-01-04 04:17:40.74	213.55	42.22	-40.3	-41.2	22.7	0.00e+00	0	44	0	3298820096	51	3874
2026-01-04 04:17:44.75	213.12	41.13	-40.8	-41.6	22.5	0.00e+00	0	44	0	3327131648	51	4095
2026-01-04 04:17:48.75	212.72	40.08	-41.0	-41.9	22.1	0.00e+00	0	44	0	3356491776	51	4195
2026-01-04 04:17:52.77	212.35	39.06	-40.6	-41.4	22.5	0.00e+00	0	44	0	3384803328	51	4001
2026-01-04 04:17:57.20	211.96	37.96	-40.4	-41.2	22.7	0.00e+00	0	44	0	3417309184	51	3902
2026-01-04 04:18:01.20	211.63	36.99	-40.5	-41.4	22.5	0.00e+00	0	44	0	3445620736	51	3973
2026-01-04 04:18:05.21	211.33	36.06	-40.4	-41.2	22.7	0.00e+00	0	44	0	3474980864	51	3907
2026-01-04 04:18:09.28	211.03	35.13	-40.3	-41.1	22.9	0.00e+00	0	44	0	3504340992	51	3865
2026-01-04 04:18:13.32	210.75	34.23	-40.0	-40.8	23.2	0.00e+00	0	44	0	3533701120	50	3947
2026-01-04 04:18:17.32	210.49	33.37	-40.1	-40.9	23.1	0.00e+00	0	44	0	3562012672	50	3995
2026-01-04 04:18:21.33	210.25	32.53	-40.5	-41.4	22.7	0.00e+00	0	44	0	3591372800	50	4199
2026-01-04 04:18:25.32	210.02	31.71	-40.4	-41.3	22.8	0.00e+00	0	44	0	3619684352	50	4150
2026-01-04 04:18:29.33	209.80	30.92	-40.1	-40.9	23.0	0.00e+00	0	44	0	3649044480	50	3980
2026-01-04 04:18:33.42	209.58	30.13	-40.6	-41.5	22.7	0.00e+00	0	44	0	3678404608	50	4244
2026-01-04 04:18:37.42	209.38	29.37	-40.8	-41.7	22.5	0.00e+00	0	44	0	3707764736	51	4107
2026-01-04 04:18:41.43	209.19	28.63	-40.6	-41.4	22.5	0.00e+00	0	44	0	3736076288	51	4001
2026-01-04 04:18:45.49	209.01	27.91	-40.9	-41.7	22.4	0.00e+00	0	44	0	3765436416	51	4124
2026-01-04 04:18:49.50	208.84	27.21	-40.9	-41.7	22.5	0.00e+00	0	44	0	3794796544	51	4135
2026-01-04 04:18:53.79	208.66	26.48	-40.7	-41.5	22.4	0.00e+00	0	44	0	3825205248	51	4039
2026-01-04 04:18:57.82	208.50	25.81	-41.0	-41.9	22.2	0.00e+00	0	44	0	3854565376	51	4220
2026-01-04 04:19:01.83	208.35	25.16	-41.3	-42.2	22.1	0.00e+00	0	44	0	3882876928	52	4102
2026-01-04 04:19:05.84	208.21	24.52	-41.2	-42.0	22.1	0.00e+00	0	44	0	3912237056	52	4042
2026-01-04 04:19:09.85	208.07	23.91	-41.3	-42.2	22.0	0.00e+00	0	44	0	3941597184	52	4107
2026-01-04 04:19:13.84	207.94	23.30	-41.2	-42.0	22.1	0.00e+00	0	44	0	3969908736	52	4030
2026-01-04 04:19:17.84	207.81	22.71	-41.1	-42.0	22.2	0.00e+00	0	44	0	3999268864	52	4008
2026-01-04 04:19:21.85	207.69	22.14	-41.2	-42.1	22.1	0.00e+00	0	44	0	4028628992	52	4070
2026-01-04 04:19:25.86	207.57	21.57	-41.1	-42.0	22.0	0.00e+00	0	44	0	4056940544	52	4012
2026-01-04 04:19:29.82	207.46	21.02	-41.4	-42.3	21.9	0.00e+00	0	44	0	4085252096	52	4157
2026-01-04 04:19:33.83	207.35	20.48	-41.4	-42.2	21.9	0.00e+00	0	44	0	4114612224	52	4140
2026-01-04 04:19:37.84	207.25	19.95	-41.5	-42.3	21.9	0.00e+00	0	44	0	4143972352	52	4184
2026-01-04 04:19:41.85	207.15	19.43	-41.5	-42.3	21.7	0.00e+00	0	44	0	4172283904	52	4193
2026-01-04 04:19:45.85	207.05	18.93	-41.7	-42.6	21.7	0.00e+00	0	44	0	4201644032	53	4070
2026-01-04 04:19:49.97	206.96	18.41	-41.9	-42.8	21.4	0.00e+00	0	44	0	4231004160	53	4177
2026-01-04 04:19:53.98	206.87	17.92	-42.1	-43.0	21.2	0.00e+00	0	44	0	4259315712	53	4250
2026-01-04 04:19:57.98	206.78	17.45	-42.4	-43.3	21.1	0.00e+00	0	44	0	4288675840	54	4155
2026-01-04 04:20:02.04	206.70	16.97	-42.6	-43.5	20.9	0.00e+00	0	44	0	4318035968	54	4279
2026-01-04 04:20:06.04	206.62	16.51	-42.7	-43.6	20.7	0.00e+00	0	44	0	4346347520	54	4334
2026-01-04 04:20:10.19	206.54	16.04	-42.7	-43.6	20.7	0.00e+00	0	44	0	4376756224	55	4080
2026-01-04 04:20:14.20	206.46	15.60	-42.9	-43.8	20.5	0.00e+00	0	44	0	4406116352	55	4179
2026-01-04 04:20:18.20	206.39	15.16	-43.0	-44.0	20.4	0.00e+00	0	44	0	4434427904	55	4254
2026-01-04 04:20:22.34	206.32	14.72	-42.9	-43.8	20.4	0.00e+00	0	44	0	4464836608	55	4185
2026-01-04 04:20:26.48	206.25	14.29	-42.7	-43.7	20.5	3.40e-06	0	44	0	4494196736	55	4104
2026-01-04 04:20:30.48	206.18	13.88	-42.8	-43.8	20.4	0.00e+00	0	44	0	4523556864	55	4157
2026-01-04 04:20:34.49	206.12	13.47	-42.9	-43.9	20.3	0.00e+00	0	44	0	4551868416	55	4195
2026-01-04 04:20:39.26	206.04	12.99	-42.8	-43.7	20.3	0.00e+00	0	44	0	4586471424	55	4135
2026-01-04 04:20:43.32	205.98	12.60	-43.0	-44.0	20.0	0.00e+00	0	44	0	4615831552	55	4252
2026-01-04 04:20:47.39	205.93	12.20	-43.0	-44.0	20.1	0.00e+00	0	44	0	4645191680	55	4269
2026-01-04 04:20:51.54	205.87	11.81	-43.2	-44.2	19.9	0.00e+00	0	44	0	4675600384	55	4346
2026-01-04 04:20:55.74	205.81	11.42	-43.4	-44.4	19.8	0.00e+00	0	44	0	4706009088	56	4202
2026-01-04 04:20:59.75	205.76	11.05	-43.6	-44.6	19.6	0.00e+00	0	44	0	4734320640	56	4324
2026-01-04 04:21:03.76	205.71	10.69	-43.7	-44.8	19.5	0.00e+00	0	44	0	4763680768	56	4417
2026-01-04 04:21:07.78	205.66	10.33	-43.8	-44.9	19.3	0.00e+00	0	44	0	4793040896	57	4213
2026-01-04 04:21:11.86	205.61	9.97	-44.0	-45.1	19.2	0.00e+00	0	44	0	4822401024	57	4317
2026-01-04 04:21:15.91	205.56	9.62	-44.2	-45.3	19.0	0.00e+00	0	44	0	4851761152	57	4394
2026-01-04 04:21:20.02	205.52	9.27	-44.3	-45.3	18.8	0.00e+00	0	44	0	4881121280	58	4187
2026-01-04 04:21:24.02	205.47	8.93	-54.4	-65.3	3.8	3.55e-01	0	44	104	4909432832	78	13138
2026-01-04 04:21:28.03	205.43	8.60	-55.2	-66.2	3.8	8.46e-01	0	44	104	4909432832	80	13031
2026-01-04 04:21:32.05	205.39	8.27	-55.6	-66.3	3.8	8.47e-01	0	44	104	4909432832	80	13177
2026-01-04 04:21:36.06	205.35	7.95	-55.3	-66.2	3.8	8.47e-01	0	44	104	4909432832	80	13071
2026-01-04 04:21:40.08	205.31	7.63	-55.5	-66.3	3.8	8.47e-01	0	44	104	4909432832	80	13243
2026-01-04 04:21:44.09	205.27	7.31	-55.1	-66.2	3.8	8.47e-01	0	44	104	4909432832	80	13071
2026-01-04 04:21:48.11	205.23	7.00	-55.0	-66.2	3.8	8.47e-01	0	44	104	4909432832	80	12995
2026-01-04 04:21:52.12	205.20	6.69	-55.1	-66.2	3.8	8.47e-01	0	44	104	4909432832	80	13031
2026-01-04 04:21:56.14	205.16	6.38	-55.1	-66.2	3.8	8.48e-01	0	44	104	4909432832	80	13060
2026-01-04 04:22:00.15	205.13	6.08	-55.0	-66.2	3.8	8.47e-01	0	44	104	4909432832	80	13012
2026-01-04 04:22:04.17	205.10	5.78	-55.1	-66.2	3.8	8.48e-01	0	44	104	4909432832	80	13024
2026-01-04 04:22:08.19	205.06	5.48	-55.1	-66.2	3.8	8.46e-01	0	44	104	4909432832	80	13089
2026-01-04 04:22:12.20	205.03	5.19	-55.2	-66.3	3.8	8.47e-01	0	44	104	4909432832	80	13160

#Closed at: 2026-01-04 04:22:16
#Recorded file [4909 MB]: D:/Data/31040_260104_070920.dat