passes_logs/2026/01/04/T1/T1__20260104_095227_NOAA_20_JPSS-1_rec.log

#Pass ID: 20260104_095227_NOAA 20 (JPSS-1)
#Satellite: NOAA 20 (JPSS-1)
#Configuration: NOAA 20
#almurnet v.1.7.20251203
#Start time: 2026-01-04 09:52:28

#Version: 2.0.20230620
#Station: T1
#Location: 37.570604 lon 55.790049 lat
#TLE: 1 43013U 17073A   26003.91140107  .00000139  00000+0  86966-4 0  9994
#TLE: 2 43013  98.7625 304.9685 0001869  55.4713 304.6639 14.19532967421166

#Time	Az	El	Level	Level2	SNR	BER	BlckErr	Temp	State	Recorded	gain1	gain2
2026-01-04 09:52:28.00	158.64	5.02	-54.1	-69.2	3.8	1.49e+00	0	36	0	0	79	20874
2026-01-04 09:52:32.01	158.63	5.31	-54.1	-69.2	3.8	1.49e+00	0	36	104	0	79	20862
2026-01-04 09:52:36.02	158.63	5.60	-54.0	-69.1	3.8	1.49e+00	0	36	104	0	78	21939
2026-01-04 09:52:40.04	158.62	5.90	-54.1	-68.9	3.8	1.49e+00	0	36	104	0	79	20294
2026-01-04 09:52:44.05	158.62	6.20	-54.0	-68.1	3.8	1.49e+00	0	37	104	0	78	19576
2026-01-04 09:52:48.07	158.61	6.50	-53.9	-68.2	3.8	1.49e+00	0	37	104	0	78	19765
2026-01-04 09:52:52.08	158.60	6.81	-53.5	-68.4	3.8	1.49e+00	0	37	104	0	78	20236
2026-01-04 09:52:56.10	158.60	7.12	-53.4	-68.4	3.8	1.49e+00	0	37	104	0	78	20103
2026-01-04 09:53:00.12	158.59	7.44	-53.6	-67.0	3.8	1.49e+00	0	37	104	0	78	17132
2026-01-04 09:53:04.14	158.58	7.76	-52.8	-63.3	4.8	9.84e-01	0	37	0	2097152	77	11901
2026-01-04 09:53:08.15	158.57	8.08	-52.3	-60.3	6.9	1.84e-01	0	37	0	9437184	76	8865
2026-01-04 09:53:12.17	158.57	8.41	-52.2	-60.0	7.2	1.20e-01	0	37	0	17825792	76	8577
2026-01-04 09:53:16.19	158.56	8.74	-52.6	-61.9	5.6	3.98e-01	0	37	0	25165824	76	10744
2026-01-04 09:53:20.21	158.55	9.07	-53.1	-65.8	4.0	1.47e+00	0	38	104	29360128	76	16822
2026-01-04 09:53:24.28	158.54	9.42	-53.1	-64.4	4.3	1.48e+00	0	38	0	32505856	76	14268
2026-01-04 09:53:28.73	158.53	9.80	-50.0	-54.0	13.3	3.35e-05	0	38	0	39845888	72	5457
2026-01-04 09:53:32.84	158.51	10.16	-49.1	-52.5	15.0	7.00e-07	0	38	0	48234496	70	5148
2026-01-04 09:53:36.86	158.50	10.52	-49.1	-52.5	15.0	0.00e+00	0	38	0	55574528	70	5118
2026-01-04 09:53:41.58	158.49	10.94	-49.2	-52.6	14.9	0.00e+00	0	38	0	63963136	70	5173
2026-01-04 09:53:45.90	158.48	11.34	-49.0	-52.2	15.4	0.00e+00	0	38	0	72351744	70	4958
2026-01-04 09:53:50.25	158.46	11.74	-48.8	-51.9	15.6	0.00e+00	0	38	0	80740352	69	5081
2026-01-04 09:53:54.30	158.45	12.13	-48.9	-52.0	15.6	0.00e+00	0	38	0	88080384	69	5125
2026-01-04 09:53:58.31	158.43	12.51	-48.7	-51.8	15.8	8.68e-03	0	38	0	95420416	69	5024
2026-01-04 09:54:02.32	158.42	12.91	-48.6	-51.6	16.0	0.00e+00	0	38	0	103809024	69	4914
2026-01-04 09:54:06.33	158.40	13.30	-48.5	-51.5	16.0	0.00e+00	0	38	0	111149056	69	4858
2026-01-04 09:54:10.34	158.38	13.71	-48.5	-51.5	16.2	0.00e+00	0	38	0	118489088	68	5122
2026-01-04 09:54:14.35	158.37	14.12	-49.0	-52.0	16.3	0.00e+00	0	38	0	125829120	68	5414
2026-01-04 09:54:18.75	158.35	14.58	-48.8	-51.7	16.5	0.00e+00	0	38	0	134217728	68	5257
2026-01-04 09:54:23.09	158.32	15.04	-48.8	-51.7	16.6	0.00e+00	0	38	0	142606336	68	5221
2026-01-04 09:54:27.12	158.30	15.48	-48.2	-51.2	16.6	0.00e+00	0	38	0	149946368	68	4929
2026-01-04 09:54:31.33	158.28	15.94	-48.4	-51.3	16.8	0.00e+00	0	38	0	157286400	68	5018
2026-01-04 09:54:35.33	158.26	16.40	-48.4	-51.2	17.0	0.00e+00	0	38	0	165675008	68	4944
2026-01-04 09:54:39.34	158.24	16.86	-48.3	-51.1	17.2	0.00e+00	0	38	0	173015040	68	4877
2026-01-04 09:54:43.36	158.21	17.33	-48.3	-51.0	17.2	0.00e+00	0	38	0	180355072	68	4846
2026-01-04 09:54:47.36	158.19	17.80	-48.1	-50.8	17.3	0.00e+00	0	38	0	187695104	67	5038
2026-01-04 09:54:51.38	158.16	18.29	-47.3	-49.9	17.7	0.00e+00	0	38	0	195035136	66	4771
2026-01-04 09:54:55.39	158.13	18.79	-47.2	-49.8	17.8	0.00e+00	0	38	0	202375168	66	4722
2026-01-04 09:54:59.51	158.10	19.31	-47.2	-49.8	17.7	0.00e+00	0	38	0	210763776	66	4719
2026-01-04 09:55:03.52	158.07	19.83	-47.0	-49.5	18.0	0.00e+00	0	38	0	218103808	66	4597
2026-01-04 09:55:07.83	158.04	20.40	-47.0	-49.5	18.0	0.00e+00	0	38	0	226492416	65	4842
2026-01-04 09:55:11.87	158.00	20.95	-47.1	-49.6	17.9	0.00e+00	0	38	0	233832448	65	4917
2026-01-04 09:55:15.98	157.96	21.51	-47.6	-50.2	17.8	0.00e+00	0	38	0	241172480	66	4952
2026-01-04 09:55:19.99	157.93	22.08	-47.5	-50.0	18.0	0.00e+00	0	38	0	248512512	66	4838
2026-01-04 09:55:24.01	157.89	22.66	-47.1	-49.6	18.0	0.00e+00	0	38	0	256901120	66	4606
2026-01-04 09:55:28.12	157.85	23.27	-47.0	-49.4	18.2	0.00e+00	0	38	0	264241152	66	4538
2026-01-04 09:55:32.13	157.80	23.88	-47.2	-49.7	18.1	0.00e+00	0	38	0	271581184	66	4685
2026-01-04 09:55:36.15	157.76	24.50	-47.5	-50.1	17.8	0.00e+00	0	39	0	278921216	66	4876
2026-01-04 09:55:40.25	157.71	25.15	-47.7	-50.2	17.6	0.00e+00	0	38	0	287309824	66	4982
2026-01-04 09:55:44.38	157.66	25.83	-47.8	-50.4	17.6	0.00e+00	0	39	0	294649856	66	5064
2026-01-04 09:55:48.61	157.60	26.54	-47.9	-50.5	17.4	0.00e+00	0	38	0	303038464	66	5112
2026-01-04 09:55:52.62	157.54	27.22	-48.1	-50.7	17.4	0.00e+00	0	38	0	310378496	67	4983
2026-01-04 09:55:56.62	157.49	27.93	-48.3	-50.9	17.2	3.80e-06	0	38	0	317718528	67	5094
2026-01-04 09:56:00.57	157.42	28.64	-48.5	-51.3	17.0	0.00e+00	0	38	0	325058560	67	5293
2026-01-04 09:56:04.58	157.36	29.38	-49.0	-51.9	16.3	0.00e+00	0	38	0	332398592	68	5397
2026-01-04 09:56:08.59	157.29	30.15	-49.4	-52.6	15.6	0.00e+00	0	38	0	339738624	69	5513
2026-01-04 09:56:12.60	157.22	30.93	-49.5	-53.0	14.9	1.50e-06	0	39	0	347078656	70	5462
2026-01-04 09:56:16.62	157.14	31.74	-50.0	-53.6	14.7	0.00e+00	0	39	0	355467264	71	5501
2026-01-04 09:56:20.68	157.06	32.58	-49.9	-53.4	14.6	0.00e+00	0	38	0	362807296	71	5402
2026-01-04 09:56:25.00	156.96	33.50	-49.7	-53.0	15.0	0.00e+00	0	39	0	371195904	71	5141
2026-01-04 09:56:29.17	156.86	34.41	-49.1	-52.2	15.7	0.00e+00	0	38	0	378535936	70	4978
2026-01-04 09:56:33.26	156.76	35.33	-48.3	-51.0	17.0	0.00e+00	0	38	0	385875968	68	4858
2026-01-04 09:56:37.27	156.66	36.27	-47.3	-49.8	18.0	0.00e+00	0	39	0	394264576	66	4737
2026-01-04 09:56:41.38	156.54	37.25	-46.7	-49.0	18.7	0.00e+00	0	39	0	401604608	65	4592
2026-01-04 09:56:45.50	156.42	38.27	-46.6	-48.9	18.8	0.00e+00	0	39	0	408944640	64	4773
2026-01-04 09:56:49.51	156.29	39.29	-46.9	-49.3	18.4	0.00e+00	0	39	0	417333248	64	5012
2026-01-04 09:56:53.70	156.14	40.38	-47.3	-49.8	18.0	0.00e+00	0	39	0	424673280	65	4998
2026-01-04 09:56:57.71	155.99	41.47	-47.9	-50.5	17.3	0.00e+00	0	39	0	432013312	66	5133
2026-01-04 09:57:01.72	155.83	42.58	-47.9	-50.5	17.3	0.00e+00	0	38	0	439353344	66	5116
2026-01-04 09:57:05.73	155.66	43.73	-48.1	-50.8	17.1	0.00e+00	0	39	0	447741952	66	5281
2026-01-04 09:57:09.74	155.47	44.91	-48.4	-51.2	16.6	0.00e+00	0	39	0	455081984	67	5265
2026-01-04 09:57:13.78	155.27	46.14	-49.5	-52.6	15.5	0.00e+00	0	38	0	462422016	69	5510
2026-01-04 09:57:17.85	155.04	47.42	-50.5	-54.2	13.7	2.20e-06	0	39	0	469762048	71	5906
2026-01-04 09:57:22.26	154.78	48.85	-49.7	-53.0	15.0	0.00e+00	0	39	0	478150656	71	5122
2026-01-04 09:57:26.43	154.50	50.24	-48.5	-51.3	16.7	0.00e+00	0	39	0	486539264	69	4743
2026-01-04 09:57:30.60	154.19	51.68	-46.7	-49.0	18.7	0.00e+00	0	39	0	493879296	65	4591
2026-01-04 09:57:34.61	153.87	53.10	-46.3	-48.6	19.1	0.00e+00	0	39	0	501219328	64	4632
2026-01-04 09:57:38.60	153.51	54.55	-46.5	-48.7	19.0	0.00e+00	0	39	0	508559360	64	4699
2026-01-04 09:57:42.61	153.11	56.05	-47.9	-50.4	17.9	0.00e+00	0	39	0	515899392	66	5054
2026-01-04 09:57:46.86	152.63	57.69	-50.4	-54.0	14.2	0.00e+00	0	39	0	524288000	71	5773
2026-01-04 09:57:50.87	152.13	59.27	-50.3	-54.1	13.9	4.50e-06	0	39	0	531628032	72	5472
2026-01-04 09:57:54.88	151.55	60.90	-48.5	-51.4	16.7	0.00e+00	0	39	0	538968064	69	4764
2026-01-04 09:57:58.82	150.90	62.53	-46.6	-49.0	18.7	0.00e+00	0	39	0	546308096	65	4597
2026-01-04 09:58:02.83	150.15	64.23	-46.3	-48.6	19.0	0.00e+00	0	39	0	554696704	64	4651
2026-01-04 09:58:06.88	149.26	65.98	-47.9	-50.6	17.3	0.00e+00	0	39	0	562036736	66	5200
2026-01-04 09:58:10.88	148.22	67.75	-48.3	-51.0	16.9	0.00e+00	0	39	0	569376768	67	5126
2026-01-04 09:58:14.89	146.98	69.54	-48.3	-51.0	17.0	0.00e+00	0	39	0	576716800	68	4826
2026-01-04 09:58:18.90	145.48	71.36	-47.7	-50.3	17.4	0.00e+00	0	39	0	584056832	67	4751
2026-01-04 09:58:23.43	143.36	73.43	-48.1	-50.9	16.9	0.00e+00	0	39	0	592445440	67	5086
2026-01-04 09:58:27.51	140.90	75.31	-48.5	-51.2	16.7	0.00e+00	0	38	0	600834048	69	4695
2026-01-04 09:58:31.64	137.65	77.20	-48.6	-51.4	16.8	0.00e+00	0	39	0	608174080	68	5080
2026-01-04 09:58:35.56	133.50	78.96	-48.8	-51.7	16.3	0.00e+00	0	39	0	615514112	69	4968
2026-01-04 09:58:39.57	127.61	80.70	-47.5	-50.1	17.7	0.00e+00	0	39	0	622854144	65	5170
2026-01-04 09:58:43.59	119.06	82.32	-48.0	-50.8	16.9	0.00e+00	0	39	0	630194176	67	5007
2026-01-04 09:58:47.60	106.40	83.68	-47.4	-49.9	18.1	0.00e+00	0	39	0	638582784	66	4768
2026-01-04 09:58:51.62	88.13	84.60	-48.0	-50.7	17.4	0.00e+00	0	39	0	645922816	67	4946
2026-01-04 09:58:55.63	65.76	84.80	-48.1	-50.8	17.2	0.00e+00	0	39	0	653262848	68	4750
2026-01-04 09:58:59.64	44.89	84.23	-48.5	-51.3	16.7	0.00e+00	0	39	0	660602880	68	5029
2026-01-04 09:59:03.65	29.43	83.07	-49.6	-52.8	15.2	0.00e+00	0	39	0	667942912	70	5328
2026-01-04 09:59:07.72	18.83	81.54	-49.2	-52.2	16.0	7.00e-07	0	39	0	676331520	70	4956
2026-01-04 09:59:11.99	11.38	79.75	-47.0	-49.4	18.4	0.00e+00	0	38	0	683671552	66	4505
2026-01-04 09:59:15.99	6.52	77.97	-47.5	-50.1	17.7	0.00e+00	0	39	0	691011584	66	4906
2026-01-04 09:59:20.08	2.88	76.11	-49.0	-52.0	16.1	0.00e+00	0	38	0	699400192	69	5111
2026-01-04 09:59:24.27	0.07	74.19	-49.6	-52.8	15.2	0.00e+00	0	38	0	706740224	70	5325
2026-01-04 09:59:28.28	357.98	72.36	-47.5	-50.0	17.8	0.00e+00	0	39	0	714080256	67	4580
2026-01-04 09:59:32.29	356.31	70.53	-48.1	-50.9	17.0	0.00e+00	0	38	0	722468864	66	5384
2026-01-04 09:59:36.30	354.94	68.73	-49.6	-52.8	15.3	0.00e+00	0	39	0	729808896	69	5620
2026-01-04 09:59:40.30	353.81	66.95	-49.9	-53.4	14.6	2.20e-06	0	39	0	737148928	71	5385
2026-01-04 09:59:44.50	352.80	65.13	-48.3	-51.0	17.0	0.00e+00	0	39	0	744488960	68	4870
2026-01-04 09:59:48.51	351.99	63.41	-45.9	-48.1	19.7	0.00e+00	0	39	0	752877568	63	4612
2026-01-04 09:59:52.52	351.29	61.74	-45.8	-47.9	19.9	0.00e+00	0	39	0	760217600	63	4512
2026-01-04 09:59:56.52	350.68	60.10	-48.0	-50.7	17.1	0.00e+00	0	39	0	767557632	67	4969
2026-01-04 10:00:00.52	350.14	58.51	-48.5	-51.4	16.7	7.00e-07	0	39	0	774897664	68	5047
2026-01-04 10:00:04.53	349.66	56.95	-49.0	-52.2	15.8	0.00e+00	0	39	0	782237696	70	4940
2026-01-04 10:00:08.54	349.24	55.43	-47.1	-49.6	18.2	0.00e+00	0	39	0	789577728	66	4609
2026-01-04 10:00:12.55	348.86	53.95	-46.4	-48.6	19.1	0.00e+00	0	39	0	797966336	64	4638
2026-01-04 10:00:16.56	348.52	52.51	-46.6	-49.0	18.8	0.00e+00	0	39	0	805306368	64	4848
2026-01-04 10:00:20.57	348.21	51.11	-49.1	-52.1	16.0	0.00e+00	0	38	0	812646400	69	5214
2026-01-04 10:00:24.59	347.92	49.75	-49.1	-52.1	15.9	0.00e+00	0	39	0	819986432	69	5204
2026-01-04 10:00:28.73	347.66	48.39	-51.2	-55.8	12.2	1.67e-04	0	39	0	828375040	73	6326
2026-01-04 10:00:32.74	347.43	47.11	-48.4	-51.2	16.9	0.00e+00	0	39	0	835715072	68	4945
2026-01-04 10:00:36.75	347.21	45.87	-49.7	-53.4	14.9	0.00e+00	0	38	0	843055104	70	5698
2026-01-04 10:00:41.20	346.99	44.53	-49.3	-52.6	15.4	0.00e+00	0	38	0	851443712	70	5203
2026-01-04 10:00:45.21	346.81	43.37	-47.5	-50.0	17.9	0.00e+00	0	39	0	858783744	66	4861
2026-01-04 10:00:49.25	346.65	42.23	-49.8	-53.4	14.7	0.00e+00	0	39	0	866123776	70	5675
2026-01-04 10:00:53.39	346.49	41.10	-49.9	-53.6	14.5	0.00e+00	0	39	0	874512384	71	5465
2026-01-04 10:00:57.47	346.34	40.01	-49.1	-52.2	15.8	0.00e+00	0	39	0	881852416	70	4968
2026-01-04 10:01:01.48	346.21	38.98	-50.5	-54.5	13.5	1.50e-06	0	39	0	889192448	71	6080
2026-01-04 10:01:05.62	346.08	37.94	-50.6	-55.5	12.4	1.63e-04	0	38	0	896532480	72	6428
2026-01-04 10:01:09.82	345.96	36.93	-49.6	-53.2	14.8	0.00e+00	0	39	0	904921088	71	5267
2026-01-04 10:01:13.97	345.85	35.95	-49.3	-52.6	15.4	0.00e+00	0	39	0	912261120	70	5202
2026-01-04 10:01:17.98	345.75	35.03	-50.2	-54.1	13.9	1.50e-06	0	39	0	920649728	70	6136
2026-01-04 10:01:21.99	345.65	34.14	-51.1	-56.1	11.8	3.79e-04	0	39	0	927989760	72	6901
2026-01-04 10:01:26.00	345.56	33.28	-50.9	-56.1	11.8	6.14e-04	0	39	0	935329792	72	6884
2026-01-04 10:01:30.02	345.48	32.43	-50.1	-54.3	13.6	2.13e-05	0	39	0	942669824	72	5607
2026-01-04 10:01:34.42	345.39	31.54	-49.4	-52.8	15.2	0.00e+00	0	38	0	951058432	70	5315
2026-01-04 10:01:38.46	345.32	30.74	-50.1	-53.7	14.3	0.00e+00	0	39	0	958398464	70	5875
2026-01-04 10:01:42.46	345.25	29.97	-50.4	-54.5	13.6	7.60e-06	0	39	0	965738496	71	6068
2026-01-04 10:01:47.01	345.18	29.12	-50.0	-53.9	14.0	9.90e-06	0	39	0	975175680	71	5693
2026-01-04 10:01:51.02	345.11	28.39	-49.3	-52.6	15.3	0.00e+00	0	39	0	982515712	70	5197
2026-01-04 10:01:55.04	345.06	27.67	-48.5	-51.5	16.5	0.00e+00	0	39	0	989855744	68	5108
2026-01-04 10:01:59.29	345.00	26.94	-47.6	-50.4	17.3	0.00e+00	0	39	0	997195776	67	4790
2026-01-04 10:02:03.30	344.95	26.26	-47.5	-50.2	17.5	0.00e+00	0	39	0	1005584384	66	4966
2026-01-04 10:02:07.68	344.89	25.54	-47.5	-50.2	17.5	0.00e+00	0	39	0	1012924416	66	4938
2026-01-04 10:02:12.21	344.84	24.82	-47.2	-50.1	17.6	0.00e+00	0	39	0	1022361600	66	4918
2026-01-04 10:02:16.56	344.79	24.15	-47.1	-50.0	17.8	0.00e+00	0	39	0	1029701632	66	4818
2026-01-04 10:02:20.97	344.75	23.48	-46.9	-49.4	18.4	0.00e+00	0	39	0	1038090240	65	4784
2026-01-04 10:02:25.32	344.71	22.84	-46.3	-48.9	18.7	0.00e+00	0	39	0	1046478848	64	4785
2026-01-04 10:02:29.86	344.66	22.18	-46.3	-49.0	18.6	0.00e+00	0	39	0	1054867456	64	4835
2026-01-04 10:02:34.20	344.63	21.57	-46.8	-49.2	18.4	0.00e+00	0	39	0	1063256064	64	4973
2026-01-04 10:02:38.53	344.59	20.98	-46.8	-49.3	18.3	0.00e+00	0	39	0	1071644672	65	4744
2026-01-04 10:02:42.96	344.56	20.38	-46.9	-49.5	18.1	0.00e+00	0	39	0	1080033280	65	4870
2026-01-04 10:02:47.29	344.53	19.82	-47.1	-49.7	17.9	0.00e+00	0	38	0	1087373312	65	4970
2026-01-04 10:02:51.62	344.50	19.26	-47.4	-50.0	17.6	0.00e+00	0	39	0	1095761920	65	5154
2026-01-04 10:02:55.86	344.47	18.73	-47.3	-50.1	17.5	0.00e+00	0	38	0	1104150528	65	5214
2026-01-04 10:02:59.87	344.45	18.24	-47.3	-50.3	17.3	0.00e+00	0	39	0	1111490560	65	5309
2026-01-04 10:03:03.87	344.42	17.76	-47.5	-50.3	17.3	0.00e+00	0	39	0	1118830592	65	5306
2026-01-04 10:03:07.89	344.40	17.29	-47.8	-50.5	17.2	0.00e+00	0	38	0	1126170624	66	5142
2026-01-04 10:03:11.90	344.38	16.82	-48.3	-51.3	16.8	0.00e+00	0	38	0	1133510656	67	5301
2026-01-04 10:03:15.91	344.36	16.37	-47.6	-51.1	16.7	0.00e+00	0	39	0	1140850688	67	5207
2026-01-04 10:03:20.46	344.34	15.86	-48.0	-51.3	16.7	0.00e+00	0	39	0	1150287872	66	5637
2026-01-04 10:03:24.80	344.32	15.39	-47.8	-51.0	16.7	0.00e+00	0	39	0	1157627904	66	5422
2026-01-04 10:03:29.19	344.30	14.92	-47.6	-50.7	16.9	0.00e+00	0	39	0	1166016512	66	5277
2026-01-04 10:03:33.29	344.29	14.49	-47.4	-50.8	16.8	0.00e+00	0	38	0	1173356544	66	5298
2026-01-04 10:03:37.30	344.27	14.08	-47.4	-50.8	16.8	0.00e+00	0	39	0	1181745152	66	5333
2026-01-04 10:03:41.31	344.26	13.67	-47.5	-50.8	16.7	0.00e+00	0	39	0	1189085184	66	5334
2026-01-04 10:03:45.32	344.25	13.27	-47.9	-51.2	16.4	0.00e+00	0	39	0	1196425216	66	5566
2026-01-04 10:03:49.34	344.23	12.88	-47.9	-51.3	16.3	0.00e+00	0	39	0	1203765248	66	5628
2026-01-04 10:03:53.35	344.22	12.49	-47.9	-51.7	15.9	0.00e+00	0	39	0	1211105280	66	5857
2026-01-04 10:03:57.36	344.21	12.11	-47.9	-51.7	15.9	0.00e+00	0	39	0	1219493888	66	5874
2026-01-04 10:04:01.44	344.20	11.73	-48.5	-52.4	15.6	0.00e+00	0	39	0	1226833920	67	6007
2026-01-04 10:04:05.45	344.19	11.36	-48.2	-52.2	15.6	0.00e+00	0	39	0	1234173952	67	5908
2026-01-04 10:04:09.72	344.18	10.97	-48.1	-52.3	15.5	0.00e+00	0	39	0	1242562560	67	5942
2026-01-04 10:04:14.12	344.18	10.58	-47.7	-52.2	15.6	0.00e+00	0	39	0	1250951168	67	5857
2026-01-04 10:04:18.58	344.17	10.18	-47.2	-51.8	15.7	0.00e+00	0	39	0	1259339776	66	5928
2026-01-04 10:04:22.58	344.16	9.84	-47.0	-51.9	15.6	0.00e+00	0	39	0	1266679808	65	6350
2026-01-04 10:04:26.59	344.16	9.49	-46.9	-51.7	15.7	0.00e+00	0	39	0	1274019840	65	6233
2026-01-04 10:04:30.68	344.15	9.15	-46.9	-51.9	15.5	0.00e+00	0	39	0	1281359872	65	6379
2026-01-04 10:04:34.69	344.14	8.82	-53.3	-69.0	3.8	1.49e+00	0	39	104	1285554176	77	22876
2026-01-04 10:04:38.71	344.14	8.49	-53.4	-69.2	3.8	1.49e+00	0	39	104	1285554176	78	22064
2026-01-04 10:04:42.72	344.14	8.16	-53.7	-69.3	3.8	1.49e+00	0	39	104	1285554176	79	21119
2026-01-04 10:04:46.74	344.13	7.84	-54.2	-69.4	3.8	1.49e+00	0	39	104	1285554176	79	21279
2026-01-04 10:04:50.76	344.13	7.53	-54.1	-69.4	3.8	1.49e+00	0	39	104	1285554176	79	21307
2026-01-04 10:04:54.77	344.13	7.21	-54.2	-69.3	3.8	1.49e+00	0	38	104	1285554176	79	21155
2026-01-04 10:04:58.79	344.12	6.90	-54.6	-69.8	3.8	1.49e+00	0	39	104	1285554176	79	22429
2026-01-04 10:05:02.80	344.12	6.60	-54.3	-69.6	3.8	1.49e+00	0	39	104	1285554176	80	20749
2026-01-04 10:05:06.82	344.12	6.30	-53.9	-69.2	3.8	1.49e+00	0	39	104	1285554176	79	20971
2026-01-04 10:05:10.84	344.12	6.00	-54.2	-69.5	3.8	1.49e+00	0	39	104	1285554176	79	21675
2026-01-04 10:05:14.86	344.12	5.70	-53.9	-69.2	3.8	1.49e+00	0	39	104	1285554176	79	21016
2026-01-04 10:05:18.88	344.12	5.41	-53.9	-69.2	3.8	1.49e+00	0	39	104	1285554176	79	20942
2026-01-04 10:05:22.89	344.12	5.12	-54.0	-69.3	3.8	1.49e+00	0	39	104	1285554176	79	21204

#Closed at: 2026-01-04 10:05:26
#Recorded file [1285 MB]: D:/Data/31040_260104_125227.dat