passes_logs/2026/01/20/R3.2S_Murmansk/R3.2S_Murmansk__20260120_075516_SUOMI_NPP_rec.log

#Pass ID: 20260120_075516_SUOMI NPP
#Satellite: SUOMI NPP
#Configuration: NPP
#almurnet v.1.7.20251203
#Start time: 2026-01-20 07:55:19

#Version: 2.2.20231116
#Station: R3.2S_Murmansk
#Location: 33.079688 lon 68.888172 lat
#TLE: 1 37849U 11061A   26019.89702167  .00000121  00000+0  78274-4 0  9993
#TLE: 2 37849  98.7817 321.9035 0002338  55.0397 305.0998 14.19526700737401

#Time	Az	El	Level	Level2	SNR	BER	BlckErr	Temp	State	Recorded	gain1	gain2
2026-01-20 07:55:19.06	112.86	2.14	-51.2	-66.2	3.8	1.49e+00	0	36	0	0	73	20787
2026-01-20 07:55:23.08	112.71	2.39	-51.2	-66.1	3.8	1.49e+00	0	37	104	0	73	20626
2026-01-20 07:55:27.11	112.56	2.64	-51.2	-66.0	3.8	1.49e+00	0	37	104	0	73	20509
2026-01-20 07:55:31.14	112.40	2.90	-51.2	-66.1	3.8	1.49e+00	0	37	104	0	73	20614
2026-01-20 07:55:35.18	112.24	3.16	-51.2	-66.0	3.8	1.49e+00	0	37	104	0	73	20426
2026-01-20 07:55:39.21	112.08	3.42	-51.2	-65.9	3.8	1.49e+00	0	37	104	0	73	20189
2026-01-20 07:55:43.23	111.92	3.68	-51.2	-65.9	3.8	1.49e+00	0	37	104	0	73	20260
2026-01-20 07:55:47.27	111.75	3.94	-51.1	-64.4	3.8	1.49e+00	0	37	104	0	73	16979
2026-01-20 07:55:51.30	111.58	4.21	-51.0	-62.1	4.3	1.31e+00	142	37	0	1048576	72	13842
2026-01-20 07:55:55.33	111.40	4.48	-50.8	-60.0	5.4	5.77e-01	0	37	0	8388608	72	10792
2026-01-20 07:55:59.36	111.22	4.75	-50.5	-58.4	6.5	2.79e-01	0	37	0	15728640	72	8980
2026-01-20 07:56:03.39	111.04	5.02	-50.4	-57.7	7.3	1.33e-01	0	38	0	23068672	71	8800
2026-01-20 07:56:07.43	110.86	5.30	-50.4	-57.3	7.4	7.53e-01	0	38	0	30408704	72	7937
2026-01-20 07:56:11.46	110.67	5.58	-49.0	-52.8	12.4	1.11e-04	0	38	0	35651584	69	5629
2026-01-20 07:56:15.49	110.48	5.86	-48.7	-52.4	12.8	8.62e-05	0	38	0	42991616	69	5365
2026-01-20 07:56:19.52	110.28	6.15	-49.1	-53.1	12.1	2.28e-04	0	38	0	51380224	69	5825
2026-01-20 07:56:23.55	110.08	6.44	-48.6	-52.1	13.1	5.26e-05	0	38	0	58720256	69	5212
2026-01-20 07:56:27.58	109.87	6.73	-48.6	-52.0	13.2	1.83e-05	0	38	0	66060288	68	5447
2026-01-20 07:56:31.61	109.66	7.02	-48.7	-52.3	13.0	3.58e-05	0	38	0	73400320	68	5618
2026-01-20 07:56:35.64	109.45	7.32	-48.9	-52.7	12.6	1.06e-04	0	38	0	80740352	68	5882
2026-01-20 07:56:39.67	109.23	7.62	-48.9	-52.6	12.7	5.18e-05	0	38	0	89128960	68	5822
2026-01-20 07:56:43.70	109.00	7.92	-48.6	-51.9	13.4	1.52e-05	0	38	0	96468992	68	5379
2026-01-20 07:56:47.74	108.77	8.22	-48.8	-52.4	12.9	2.74e-05	0	38	0	103809024	68	5698
2026-01-20 07:56:51.77	108.54	8.53	-48.6	-52.0	13.3	1.37e-05	0	38	0	111149056	68	5428
2026-01-20 07:56:55.80	108.30	8.85	-48.4	-51.7	13.7	3.00e-06	0	38	0	118489088	68	5227
2026-01-20 07:56:59.83	108.06	9.16	-48.3	-51.4	14.0	3.00e-06	0	38	0	126877696	68	5058
2026-01-20 07:57:03.86	107.81	9.48	-48.2	-51.4	13.9	3.80e-06	0	38	0	134217728	67	5356
2026-01-20 07:57:07.89	107.55	9.80	-47.8	-50.7	14.7	1.50e-06	0	38	0	141557760	67	4931
2026-01-20 07:57:11.92	107.29	10.13	-48.0	-51.0	14.3	1.50e-06	0	38	0	148897792	67	5130
2026-01-20 07:57:15.95	107.02	10.46	-47.8	-50.8	14.5	0.00e+00	0	38	0	156237824	67	4996
2026-01-20 07:57:19.98	106.74	10.80	-47.7	-50.5	14.8	0.00e+00	0	38	0	164626432	66	5118
2026-01-20 07:57:24.01	106.46	11.13	-47.8	-50.6	14.7	7.00e-07	0	38	0	171966464	66	5202
2026-01-20 07:57:28.04	106.17	11.48	-48.0	-51.0	14.3	1.50e-06	0	38	0	179306496	66	5441
2026-01-20 07:57:32.07	105.88	11.82	-47.7	-50.5	14.9	0.00e+00	0	38	0	186646528	66	5113
2026-01-20 07:57:36.09	105.57	12.17	-47.9	-50.9	14.5	7.00e-07	0	38	0	195035136	66	5361
2026-01-20 07:57:40.12	105.26	12.53	-48.0	-51.0	14.4	1.50e-06	0	38	0	202375168	66	5445
2026-01-20 07:57:44.15	104.94	12.88	-47.7	-50.4	14.9	7.00e-07	0	38	0	209715200	66	5079
2026-01-20 07:57:48.18	104.62	13.25	-47.9	-50.8	14.5	7.00e-07	0	38	0	217055232	66	5320
2026-01-20 07:57:52.21	104.28	13.62	-48.0	-51.0	14.3	0.00e+00	0	38	0	224395264	66	5452
2026-01-20 07:57:56.25	103.94	13.99	-47.5	-50.2	15.1	0.00e+00	0	38	0	231735296	66	4954
2026-01-20 07:58:00.27	103.58	14.37	-47.6	-50.3	15.1	0.00e+00	0	38	0	240123904	66	5013
2026-01-20 07:58:04.31	103.22	14.75	-47.2	-49.7	15.7	0.00e+00	0	38	0	247463936	66	4670
2026-01-20 07:58:08.34	102.85	15.13	-47.1	-49.5	15.9	0.00e+00	0	38	0	254803968	65	4856
2026-01-20 07:58:12.37	102.46	15.53	-47.2	-49.7	15.7	0.00e+00	0	38	0	262144000	65	4965
2026-01-20 07:58:16.40	102.07	15.92	-47.6	-50.3	15.1	0.00e+00	0	38	0	270532608	65	5311
2026-01-20 07:58:20.43	101.67	16.32	-47.6	-50.3	15.1	0.00e+00	0	38	0	277872640	66	5035
2026-01-20 07:58:24.46	101.25	16.73	-47.6	-50.4	15.1	0.00e+00	0	38	0	285212672	66	5048
2026-01-20 07:58:28.49	100.82	17.14	-47.6	-50.3	15.2	0.00e+00	0	38	0	292552704	66	5005
2026-01-20 07:58:32.53	100.38	17.56	-47.4	-50.0	15.5	0.00e+00	0	38	0	299892736	66	4825
2026-01-20 07:58:36.56	99.93	17.98	-47.4	-50.0	15.5	0.00e+00	0	38	0	308281344	66	4826
2026-01-20 07:58:40.59	99.46	18.41	-47.3	-49.8	15.7	0.00e+00	0	38	0	315621376	66	4710
2026-01-20 07:58:44.62	98.98	18.85	-47.3	-49.7	15.7	0.00e+00	0	38	0	322961408	66	4676
2026-01-20 07:58:48.65	98.49	19.28	-47.2	-49.6	15.9	0.00e+00	0	38	0	330301440	66	4610
2026-01-20 07:58:52.68	97.98	19.73	-47.4	-49.9	15.6	0.00e+00	0	38	0	338690048	66	4808
2026-01-20 07:58:56.71	97.46	20.18	-47.7	-50.4	15.1	0.00e+00	0	38	0	346030080	66	5093
2026-01-20 07:59:00.75	96.92	20.64	-47.7	-50.3	15.2	0.00e+00	0	38	0	353370112	66	5036
2026-01-20 07:59:04.78	96.36	21.10	-47.5	-50.0	15.5	0.00e+00	0	38	0	360710144	66	4857
2026-01-20 07:59:08.81	95.79	21.56	-47.8	-50.6	15.0	0.00e+00	0	38	0	368050176	66	5164
2026-01-20 07:59:12.84	95.20	22.04	-48.1	-51.1	14.5	0.00e+00	0	38	0	375390208	66	5482
2026-01-20 07:59:16.87	94.59	22.51	-48.1	-51.2	14.3	0.00e+00	0	38	0	383778816	66	5545
2026-01-20 07:59:20.90	93.96	23.00	-47.9	-50.8	14.7	7.00e-07	0	38	0	391118848	67	4989
2026-01-20 07:59:24.93	93.31	23.48	-47.7	-50.5	15.1	0.00e+00	0	38	0	398458880	67	4818
2026-01-20 07:59:28.96	92.63	23.98	-47.2	-49.6	15.9	0.00e+00	0	38	0	405798912	66	4644
2026-01-20 07:59:32.99	91.94	24.48	-47.2	-49.6	15.9	0.00e+00	0	38	0	414187520	65	4871
2026-01-20 07:59:37.02	91.22	24.98	-47.1	-49.4	16.1	0.00e+00	0	38	0	421527552	65	4788
2026-01-20 07:59:41.05	90.49	25.49	-47.5	-50.1	15.4	0.00e+00	0	38	0	428867584	65	5190
2026-01-20 07:59:45.08	89.72	26.00	-48.2	-51.2	14.4	0.00e+00	0	38	0	436207616	66	5564
2026-01-20 07:59:49.12	88.93	26.52	-48.5	-51.6	14.1	1.14e-05	0	38	0	443547648	68	5216
2026-01-20 07:59:53.14	88.12	27.03	-48.9	-52.5	13.2	1.29e-05	0	38	0	451936256	68	5736
2026-01-20 07:59:57.18	87.27	27.56	-49.1	-52.8	12.9	6.86e-05	0	38	0	459276288	69	5643
2026-01-20 08:00:01.21	86.40	28.08	-49.2	-53.3	12.4	1.83e-04	0	39	0	466616320	69	5939
2026-01-20 08:00:05.24	85.50	28.61	-48.8	-52.4	13.3	4.34e-05	0	38	0	473956352	69	5368
2026-01-20 08:00:09.27	84.57	29.14	-48.6	-51.9	13.7	4.50e-06	0	38	0	481296384	68	5389
2026-01-20 08:00:13.30	83.60	29.67	-48.1	-51.0	14.6	0.00e+00	0	39	0	489684992	68	4845
2026-01-20 08:00:17.33	82.61	30.20	-48.4	-51.4	14.3	0.00e+00	0	39	0	497025024	68	5078
2026-01-20 08:00:21.36	81.58	30.73	-48.9	-52.4	13.3	2.89e-05	0	38	0	504365056	68	5666
2026-01-20 08:00:25.39	80.51	31.26	-48.9	-52.4	13.3	1.52e-05	0	38	0	511705088	69	5370
2026-01-20 08:00:29.42	79.41	31.79	-48.5	-51.7	13.9	5.30e-06	0	38	0	519045120	68	5257
2026-01-20 08:00:33.45	78.28	32.32	-48.3	-51.3	14.4	0.00e+00	0	39	0	527433728	68	4996
2026-01-20 08:00:37.49	77.10	32.84	-48.6	-52.0	13.6	6.10e-06	0	39	0	534773760	68	5457
2026-01-20 08:00:41.52	75.89	33.35	-48.4	-51.6	13.9	7.00e-07	0	38	0	542113792	68	5183
2026-01-20 08:00:45.55	74.64	33.86	-48.8	-52.5	13.1	2.44e-05	0	38	0	549453824	68	5740
2026-01-20 08:00:49.58	73.35	34.36	-49.3	-53.6	12.0	2.43e-04	0	39	0	557842432	69	6177
2026-01-20 08:00:53.61	72.02	34.85	-49.8	-54.7	10.8	5.11e-03	0	38	0	565182464	70	6614
2026-01-20 08:00:57.64	70.64	35.33	-50.0	-55.3	10.3	4.66e-03	0	38	0	572522496	70	7055
2026-01-20 08:01:01.67	69.23	35.80	-49.6	-54.0	11.6	2.78e-04	0	38	0	579862528	70	6077
2026-01-20 08:01:05.71	67.78	36.26	-49.1	-52.9	12.8	5.95e-05	0	38	0	587202560	69	5691
2026-01-20 08:01:09.74	66.28	36.70	-48.8	-52.4	13.2	3.66e-05	0	38	0	594542592	69	5358
2026-01-20 08:01:13.77	64.75	37.12	-48.2	-51.3	14.3	3.00e-06	0	38	0	602931200	68	4991
2026-01-20 08:01:17.80	63.18	37.52	-48.2	-51.3	14.4	7.00e-07	0	38	0	610271232	68	5018
2026-01-20 08:01:21.83	61.57	37.90	-47.3	-49.8	15.8	0.00e+00	0	38	0	617611264	66	4725
2026-01-20 08:01:25.86	59.92	38.26	-47.9	-50.8	14.7	0.00e+00	0	38	0	624951296	66	5305
2026-01-20 08:01:29.89	58.23	38.60	-46.7	-48.9	16.7	0.00e+00	0	38	0	633339904	65	4523
2026-01-20 08:01:33.92	56.51	38.91	-47.0	-49.3	16.2	0.00e+00	0	38	0	640679936	65	4759
2026-01-20 08:01:37.95	54.76	39.19	-47.4	-50.1	15.5	0.00e+00	0	39	0	648019968	65	5172
2026-01-20 08:01:41.98	52.99	39.45	-46.4	-48.4	17.2	0.00e+00	0	38	0	655360000	64	4521
2026-01-20 08:01:46.01	51.18	39.67	-47.1	-49.5	16.2	0.00e+00	0	38	0	662700032	65	4819
2026-01-20 08:01:50.04	49.35	39.86	-46.5	-48.5	17.2	0.00e+00	0	38	0	671088640	63	4830
2026-01-20 08:01:54.07	47.50	40.02	-46.7	-48.8	16.9	0.00e+00	0	38	0	678428672	64	4732
2026-01-20 08:01:58.10	45.64	40.15	-47.6	-50.3	15.4	0.00e+00	0	38	0	685768704	65	5309
2026-01-20 08:02:02.14	43.76	40.24	-47.3	-49.8	15.9	0.00e+00	0	38	0	693108736	66	4715
2026-01-20 08:02:06.16	41.88	40.29	-47.7	-50.2	15.4	0.00e+00	0	39	0	701497344	66	4973
2026-01-20 08:02:10.20	39.98	40.31	-47.5	-50.2	15.6	0.00e+00	0	38	0	708837376	65	5221
2026-01-20 08:02:14.22	38.10	40.30	-47.4	-49.8	15.8	0.00e+00	0	38	0	716177408	66	4757
2026-01-20 08:02:18.25	36.21	40.25	-49.4	-53.7	12.2	3.45e-04	0	38	0	723517440	69	6254
2026-01-20 08:02:22.29	34.33	40.16	-49.3	-53.3	12.6	5.11e-05	0	38	0	730857472	69	5973
2026-01-20 08:02:26.32	32.46	40.04	-48.9	-52.4	13.3	2.16e-04	0	38	0	738197504	69	5350
2026-01-20 08:02:30.35	30.61	39.89	-49.6	-54.2	11.5	8.17e-04	0	38	0	746586112	70	6236
2026-01-20 08:02:34.38	28.78	39.70	-49.0	-52.6	13.1	1.24e-04	0	38	0	753926144	70	5202
2026-01-20 08:02:38.41	26.97	39.49	-49.3	-53.4	12.2	1.43e-04	0	38	0	761266176	69	6054
2026-01-20 08:02:42.45	25.18	39.24	-48.9	-52.7	12.9	2.59e-04	0	38	0	768606208	69	5566
2026-01-20 08:02:46.48	23.43	38.96	-47.6	-50.3	15.4	0.00e+00	0	39	0	776994816	66	4988
2026-01-20 08:02:50.51	21.71	38.65	-47.5	-50.1	15.4	0.00e+00	0	38	0	784334848	66	4923
2026-01-20 08:02:54.54	20.02	38.32	-46.0	-47.9	17.6	0.00e+00	0	38	0	791674880	64	4261
2026-01-20 08:02:58.58	18.37	37.97	-45.9	-47.7	17.9	0.00e+00	0	38	0	799014912	63	4425
2026-01-20 08:03:02.61	16.75	37.59	-45.9	-47.8	17.9	0.00e+00	0	38	0	806354944	63	4464
2026-01-20 08:03:06.64	15.17	37.19	-47.3	-49.8	15.9	0.00e+00	0	38	0	814743552	65	5006
2026-01-20 08:03:10.67	13.64	36.77	-46.6	-48.7	16.9	0.00e+00	0	39	0	822083584	65	4400
2026-01-20 08:03:14.70	12.14	36.34	-47.1	-49.5	16.2	0.00e+00	0	39	0	829423616	64	5135
2026-01-20 08:03:18.73	10.68	35.89	-47.2	-49.6	16.1	0.00e+00	0	39	0	836763648	65	4883
2026-01-20 08:03:22.76	9.27	35.42	-46.4	-48.3	17.4	0.00e+00	0	38	0	844103680	64	4464
2026-01-20 08:03:26.79	7.89	34.94	-47.4	-49.8	15.8	0.00e+00	0	38	0	852492288	66	4756
2026-01-20 08:03:30.82	6.56	34.45	-47.8	-50.5	15.2	0.00e+00	0	38	0	859832320	66	5105
2026-01-20 08:03:34.85	5.26	33.96	-47.9	-50.7	15.0	7.00e-07	0	38	0	867172352	67	4954
2026-01-20 08:03:38.89	4.00	33.45	-48.5	-51.6	14.0	3.00e-06	0	39	0	874512384	67	5508
2026-01-20 08:03:42.92	2.79	32.94	-48.2	-51.1	14.6	0.00e+00	0	39	0	881852416	67	5197
2026-01-20 08:03:46.95	1.61	32.42	-47.8	-50.4	15.2	0.00e+00	0	38	0	890241024	67	4783
2026-01-20 08:03:50.98	0.47	31.90	-48.4	-51.4	14.4	3.00e-06	0	39	0	897581056	67	5343
2026-01-20 08:03:55.01	359.37	31.37	-48.0	-50.8	14.9	7.00e-07	0	38	0	904921088	67	5010
2026-01-20 08:03:59.04	358.30	30.84	-49.5	-53.7	12.0	1.46e-04	0	39	0	912261120	69	6269
2026-01-20 08:04:03.07	357.27	30.31	-48.6	-51.9	13.8	3.80e-06	0	38	0	920649728	69	5046
2026-01-20 08:04:07.11	356.27	29.78	-48.6	-51.7	14.0	1.50e-06	0	38	0	927989760	68	5277
2026-01-20 08:04:11.14	355.30	29.25	-48.6	-51.9	13.8	2.20e-06	0	38	0	935329792	68	5350
2026-01-20 08:04:15.17	354.36	28.72	-47.9	-50.7	14.9	0.00e+00	0	38	0	942669824	67	4934
2026-01-20 08:04:19.20	353.46	28.20	-48.1	-51.0	14.7	0.00e+00	0	39	0	950009856	67	5103
2026-01-20 08:04:23.23	352.59	27.67	-47.4	-49.9	15.7	0.00e+00	0	39	0	957349888	66	4777
2026-01-20 08:04:27.26	351.74	27.15	-46.8	-49.0	16.6	0.00e+00	0	38	0	965738496	65	4567
2026-01-20 08:04:31.29	350.92	26.63	-47.1	-49.3	16.2	0.00e+00	0	38	0	973078528	65	4740
2026-01-20 08:04:35.33	350.13	26.12	-47.4	-49.8	15.8	0.00e+00	0	38	0	980418560	65	5030
2026-01-20 08:04:39.35	349.36	25.61	-48.3	-51.4	14.3	0.00e+00	0	38	0	987758592	67	5352
2026-01-20 08:04:43.39	348.62	25.10	-48.7	-52.1	13.4	2.20e-06	0	38	0	996147200	67	5854
2026-01-20 08:04:47.43	347.90	24.60	-48.3	-51.3	14.3	0.00e+00	0	39	0	1003487232	68	5039
2026-01-20 08:04:51.46	347.21	24.10	-47.7	-50.3	15.3	0.00e+00	0	38	0	1010827264	67	4717
2026-01-20 08:04:55.50	346.53	23.60	-47.7	-50.4	15.2	0.00e+00	0	38	0	1018167296	66	5072
2026-01-20 08:04:59.53	345.88	23.12	-47.6	-50.1	15.5	0.00e+00	0	38	0	1025507328	66	4919
2026-01-20 08:05:03.56	345.25	22.63	-47.3	-49.8	15.9	0.00e+00	0	38	0	1033895936	66	4710
2026-01-20 08:05:07.60	344.64	22.16	-48.4	-51.6	14.0	7.00e-07	0	38	0	1041235968	67	5493
2026-01-20 08:05:11.63	344.05	21.68	-48.6	-51.8	13.7	1.14e-05	0	38	0	1048576000	68	5338
2026-01-20 08:05:15.65	343.47	21.22	-48.0	-50.8	14.8	0.00e+00	0	39	0	1055916032	68	4732
2026-01-20 08:05:19.69	342.91	20.76	-47.7	-50.4	15.1	0.00e+00	0	38	0	1064304640	67	4779
2026-01-20 08:05:23.72	342.37	20.30	-47.8	-50.6	14.9	0.00e+00	0	38	0	1071644672	67	4909
2026-01-20 08:05:27.75	341.85	19.85	-47.7	-50.3	15.2	0.00e+00	0	38	0	1078984704	67	4737
2026-01-20 08:05:31.78	341.34	19.41	-47.3	-49.7	15.8	0.00e+00	0	38	0	1086324736	66	4699
2026-01-20 08:05:35.81	340.85	18.97	-47.7	-50.4	15.1	0.00e+00	0	38	0	1093664768	66	5072
2026-01-20 08:05:39.84	340.37	18.54	-48.5	-51.7	13.8	7.60e-06	0	38	0	1101004800	67	5575
2026-01-20 08:05:43.87	339.90	18.11	-48.0	-50.9	14.5	7.00e-07	0	39	0	1109393408	67	5072
2026-01-20 08:05:47.90	339.45	17.69	-47.8	-50.5	15.0	0.00e+00	0	39	0	1116733440	67	4844
2026-01-20 08:05:51.94	339.01	17.27	-47.9	-50.7	14.8	0.00e+00	0	39	0	1124073472	67	4950
2026-01-20 08:05:55.97	338.58	16.86	-48.2	-51.2	14.3	3.00e-06	0	39	0	1131413504	67	5247
2026-01-20 08:06:00.00	338.16	16.45	-48.4	-51.7	13.7	3.80e-06	0	38	0	1139802112	67	5567
2026-01-20 08:06:04.03	337.76	16.05	-48.1	-51.2	14.3	2.20e-06	0	39	0	1147142144	67	5228
2026-01-20 08:06:08.06	337.37	15.65	-47.4	-49.9	15.5	0.00e+00	0	39	0	1154482176	66	4786
2026-01-20 08:06:12.09	336.98	15.26	-47.2	-49.7	15.8	0.00e+00	0	38	0	1161822208	66	4657
2026-01-20 08:06:16.12	336.61	14.87	-47.4	-50.0	15.5	0.00e+00	0	39	0	1169162240	66	4823
2026-01-20 08:06:20.15	336.25	14.49	-47.4	-50.0	15.3	0.00e+00	0	38	0	1177550848	66	4859
2026-01-20 08:06:24.18	335.89	14.12	-47.5	-50.1	15.2	0.00e+00	0	39	0	1184890880	66	4920
2026-01-20 08:06:28.21	335.55	13.74	-47.8	-50.6	14.8	7.00e-07	0	38	0	1192230912	66	5178
2026-01-20 08:06:32.24	335.22	13.38	-48.2	-51.3	14.1	2.20e-06	0	38	0	1199570944	67	5305
2026-01-20 08:06:36.27	334.89	13.01	-48.5	-52.0	13.4	1.22e-05	0	38	0	1206910976	67	5724
2026-01-20 08:06:40.31	334.57	12.65	-48.9	-52.6	12.8	3.12e-05	0	38	0	1215299584	68	5821
2026-01-20 08:06:44.34	334.26	12.30	-48.7	-52.3	13.0	4.65e-05	0	39	0	1222639616	68	5642
2026-01-20 08:06:48.37	333.96	11.95	-48.8	-52.4	13.0	4.34e-05	0	39	0	1229979648	68	5707
2026-01-20 08:06:52.39	333.66	11.60	-48.8	-52.6	12.8	4.42e-05	0	39	0	1237319680	68	5819
2026-01-20 08:06:56.43	333.37	11.26	-48.7	-52.4	13.0	3.73e-05	0	38	0	1244659712	68	5672
2026-01-20 08:07:00.46	333.09	10.92	-48.7	-52.3	13.0	4.73e-05	0	38	0	1253048320	68	5652
2026-01-20 08:07:04.49	332.82	10.59	-48.7	-52.3	13.0	2.59e-05	0	38	0	1260388352	68	5630
2026-01-20 08:07:08.52	332.55	10.26	-48.4	-51.8	13.5	1.90e-05	0	39	0	1267728384	68	5310
2026-01-20 08:07:12.55	332.29	9.93	-48.5	-51.9	13.4	1.75e-05	0	38	0	1275068416	68	5402
2026-01-20 08:07:16.58	332.03	9.61	-48.8	-52.5	12.8	2.74e-05	0	39	0	1283457024	68	5738
2026-01-20 08:07:20.61	331.79	9.29	-48.8	-52.5	12.7	4.19e-05	0	39	0	1290797056	68	5779
2026-01-20 08:07:24.64	331.54	8.97	-48.8	-52.6	12.7	7.78e-05	0	38	0	1298137088	68	5814
2026-01-20 08:07:28.67	331.30	8.66	-48.7	-52.3	12.9	7.78e-05	0	38	0	1305477120	68	5647
2026-01-20 08:07:32.70	331.07	8.35	-48.8	-52.5	12.7	1.30e-04	0	39	0	1312817152	68	5732
2026-01-20 08:07:36.73	330.84	8.05	-48.9	-52.8	12.4	1.82e-04	0	38	0	1320157184	68	5933
2026-01-20 08:07:40.76	330.62	7.74	-49.0	-52.9	12.2	2.69e-04	0	39	0	1328545792	68	6050
2026-01-20 08:07:44.79	330.40	7.44	-49.0	-53.2	12.0	3.46e-04	0	39	0	1335885824	68	6210
2026-01-20 08:07:48.82	330.19	7.15	-49.1	-53.3	11.8	8.25e-04	0	39	0	1343225856	69	5951
2026-01-20 08:07:52.85	329.98	6.85	-49.1	-53.2	11.9	6.58e-04	0	38	0	1350565888	69	5903
2026-01-20 08:07:56.88	329.78	6.56	-48.9	-52.8	12.2	2.99e-04	0	38	0	1358954496	69	5644
2026-01-20 08:08:00.91	329.58	6.28	-49.0	-53.1	12.0	1.59e-04	0	39	0	1366294528	69	5823
2026-01-20 08:08:04.94	329.38	5.99	-49.1	-53.4	11.6	2.68e-04	0	39	0	1373634560	69	6041
2026-01-20 08:08:08.97	329.19	5.71	-49.0	-53.3	11.7	2.46e-04	0	39	0	1380974592	69	5951
2026-01-20 08:08:12.99	329.00	5.43	-49.0	-53.2	11.7	6.32e-04	0	39	0	1388314624	69	5918
2026-01-20 08:08:17.03	328.82	5.15	-49.1	-53.4	11.5	9.92e-04	0	38	0	1396703232	69	6026
2026-01-20 08:08:21.06	328.64	4.88	-51.5	-66.5	3.8	1.49e+00	0	39	104	1400897536	73	21512
2026-01-20 08:08:25.09	328.46	4.61	-51.9	-66.8	3.8	1.49e+00	0	39	104	1400897536	74	21236
2026-01-20 08:08:29.12	328.29	4.34	-52.1	-67.1	3.8	1.49e+00	0	39	104	1400897536	74	21794
2026-01-20 08:08:33.15	328.12	4.07	-52.3	-67.2	3.8	1.49e+00	0	39	104	1400897536	75	20835
2026-01-20 08:08:37.18	327.95	3.81	-52.3	-67.2	3.8	1.49e+00	0	39	104	1400897536	75	20872
2026-01-20 08:08:41.22	327.79	3.54	-52.3	-67.2	3.8	1.49e+00	0	39	104	1400897536	75	20925
2026-01-20 08:08:45.25	327.63	3.28	-52.2	-67.2	3.8	1.49e+00	0	39	104	1400897536	75	20815
2026-01-20 08:08:49.28	327.47	3.03	-52.2	-67.1	3.8	1.49e+00	0	39	104	1400897536	75	20677
2026-01-20 08:08:53.31	327.32	2.77	-52.1	-67.1	3.8	1.49e+00	0	39	104	1400897536	75	20607
2026-01-20 08:08:57.34	327.17	2.52	-52.1	-67.1	3.8	1.49e+00	0	39	104	1400897536	75	20620
2026-01-20 08:09:01.37	327.02	2.27	-52.1	-67.0	3.8	1.49e+00	0	39	104	1400897536	75	20499
2026-01-20 08:09:05.40	326.88	2.02	-52.1	-67.0	3.8	1.49e+00	0	39	104	1400897536	75	20490

#Closed at: 2026-01-20 08:09:06
#Recorded file [1400 MB]: D:/lorett/data/31041_260120_105518.dat