passes_logs/2026/01/20/R3.2S_Murmansk/R3.2S_Murmansk__20260120_053002_AQUA_rec.log

#Pass ID: 20260120_053002_AQUA
#Satellite: AQUA
#Configuration: AQUA
#almurnet v.1.7.20251203
#Start time: 2026-01-20 05:30:03

#Version: 2.2.20231116
#Station: R3.2S_Murmansk
#Location: 33.079688 lon 68.888172 lat
#TLE: 1 27424U 02022A   26019.27629806  .00001032  00000+0  21655-3 0  9990
#TLE: 2 27424  98.4090 345.7756 0001997  73.0764  31.8912 14.61830109261513

#Time	Az	El	Level	Level2	SNR	BER	BlckErr	Temp	State	Recorded	gain1	gain2
2026-01-20 05:30:03.48	41.15	2.06	-53.3	-71.1	3.8	7.46e-01	0	36	0	0	78	27578
2026-01-20 05:30:06.50	40.93	2.24	-53.3	-70.8	3.8	7.44e-01	0	36	104	0	77	28323
2026-01-20 05:30:09.53	40.71	2.42	-53.3	-70.6	3.8	7.46e-01	0	37	104	0	77	27677
2026-01-20 05:30:12.55	40.48	2.60	-53.3	-70.9	3.8	7.43e-01	0	37	104	0	77	28436
2026-01-20 05:30:15.57	40.25	2.78	-53.3	-71.1	3.8	7.44e-01	0	37	104	0	77	29079
2026-01-20 05:30:18.60	40.01	2.96	-53.3	-71.0	3.8	7.48e-01	0	37	104	0	77	28904
2026-01-20 05:30:21.62	39.78	3.14	-53.3	-70.7	3.8	7.46e-01	0	37	104	0	77	27908
2026-01-20 05:30:24.65	39.54	3.32	-53.3	-70.6	3.8	7.46e-01	0	37	104	0	77	27642
2026-01-20 05:30:27.67	39.29	3.50	-53.3	-70.5	3.8	7.44e-01	0	37	104	0	77	27282
2026-01-20 05:30:30.70	39.05	3.69	-53.3	-70.1	3.8	7.47e-01	0	37	104	0	77	26074
2026-01-20 05:30:33.72	38.80	3.87	-53.3	-70.8	3.8	7.47e-01	0	37	104	0	77	28209
2026-01-20 05:30:36.74	38.54	4.06	-53.3	-70.2	3.8	7.42e-01	0	37	104	0	77	26360
2026-01-20 05:30:39.76	38.29	4.25	-53.0	-64.7	5.5	6.95e-01	0	38	0	0	77	13998
2026-01-20 05:30:42.79	38.02	4.43	-52.6	-61.1	8.7	6.36e-01	7	38	0	5242880	77	9276
2026-01-20 05:30:45.81	37.76	4.62	-52.3	-59.6	10.4	6.18e-01	0	37	0	10485760	76	8193
2026-01-20 05:30:48.84	37.49	4.81	-52.5	-60.5	9.4	6.26e-01	0	38	0	16252928	76	9128
2026-01-20 05:30:51.86	37.22	5.00	-52.7	-62.0	7.9	6.47e-01	180	38	0	22020096	76	10810
2026-01-20 05:30:54.88	36.94	5.19	-53.0	-68.6	3.8	7.44e-01	0	38	104	27262976	76	23236
2026-01-20 05:30:57.91	36.66	5.39	-50.6	-54.2	16.2	6.04e-01	0	38	0	31457280	73	5223
2026-01-20 05:31:00.93	36.37	5.58	-49.7	-52.6	18.0	6.02e-01	0	38	0	37224448	71	4909
2026-01-20 05:31:03.96	36.08	5.77	-48.6	-50.9	19.8	6.04e-01	0	38	0	42991616	69	4503
2026-01-20 05:31:06.98	35.78	5.97	-47.4	-49.3	21.6	6.04e-01	0	38	0	48758784	66	4450
2026-01-20 05:31:10.00	35.49	6.16	-47.3	-49.0	21.8	6.04e-01	0	38	0	54525952	66	4332
2026-01-20 05:31:13.03	35.18	6.36	-47.5	-49.4	21.5	6.02e-01	0	38	0	59768832	66	4506
2026-01-20 05:31:16.05	34.87	6.56	-47.1	-48.9	22.0	6.01e-01	0	38	0	65536000	66	4257
2026-01-20 05:31:19.07	34.56	6.76	-47.1	-48.8	21.7	6.05e-01	0	38	0	71303168	66	4229
2026-01-20 05:31:22.10	34.24	6.96	-47.1	-48.9	22.1	6.04e-01	0	38	0	77070336	66	4252
2026-01-20 05:31:25.12	33.92	7.16	-46.9	-48.5	22.5	6.02e-01	0	38	0	82837504	65	4324
2026-01-20 05:31:28.14	33.59	7.36	-46.8	-48.5	22.5	6.06e-01	0	38	0	88080384	65	4308
2026-01-20 05:31:31.17	33.26	7.56	-46.9	-48.5	22.5	6.02e-01	0	38	0	93847552	65	4329
2026-01-20 05:31:34.19	32.92	7.77	-46.8	-48.5	22.5	6.04e-01	0	38	0	99614720	65	4292
2026-01-20 05:31:37.21	32.58	7.97	-46.7	-48.3	22.7	6.05e-01	0	38	0	105381888	65	4231
2026-01-20 05:31:40.24	32.23	8.18	-46.8	-48.4	22.7	6.06e-01	0	38	0	111149056	65	4253
2026-01-20 05:31:43.26	31.87	8.38	-46.7	-48.3	22.7	6.02e-01	0	38	0	116391936	65	4213
2026-01-20 05:31:46.29	31.51	8.59	-46.8	-48.4	22.7	6.02e-01	0	38	0	122159104	65	4250
2026-01-20 05:31:49.31	31.14	8.80	-46.9	-48.5	22.6	6.06e-01	0	38	0	127926272	65	4332
2026-01-20 05:31:52.33	30.77	9.01	-46.7	-48.3	22.9	6.06e-01	0	38	0	133693440	65	4194
2026-01-20 05:31:55.36	30.39	9.22	-46.6	-48.1	23.0	6.03e-01	0	38	0	139460608	65	4135
2026-01-20 05:31:58.38	30.01	9.43	-46.6	-48.2	23.0	6.02e-01	0	38	0	145227776	64	4401
2026-01-20 05:32:01.41	29.62	9.64	-46.4	-47.9	23.2	6.02e-01	0	38	0	150470656	64	4273
2026-01-20 05:32:04.43	29.22	9.85	-46.3	-47.8	23.3	6.02e-01	0	38	0	156237824	64	4231
2026-01-20 05:32:07.45	28.82	10.06	-46.2	-47.7	23.5	6.04e-01	0	38	0	162004992	64	4158
2026-01-20 05:32:10.48	28.41	10.28	-46.1	-47.5	23.6	6.04e-01	0	38	0	167772160	64	4086
2026-01-20 05:32:13.50	27.99	10.49	-46.1	-47.6	23.5	6.04e-01	0	38	0	173539328	64	4128
2026-01-20 05:32:16.52	27.57	10.70	-46.1	-47.5	23.6	6.02e-01	0	38	0	178782208	64	4097
2026-01-20 05:32:19.55	27.14	10.92	-46.2	-47.7	23.5	6.05e-01	0	38	0	184549376	64	4174
2026-01-20 05:32:22.57	26.70	11.14	-46.1	-47.6	23.6	6.05e-01	0	38	0	190316544	64	4102
2026-01-20 05:32:25.59	26.26	11.35	-46.1	-47.6	23.6	6.03e-01	0	38	0	196083712	64	4112
2026-01-20 05:32:28.62	25.81	11.57	-46.1	-47.6	23.7	6.02e-01	0	38	0	201850880	63	4349
2026-01-20 05:32:31.64	25.35	11.79	-46.1	-47.5	23.7	6.02e-01	0	38	0	207093760	63	4334
2026-01-20 05:32:34.67	24.88	12.01	-45.9	-47.3	24.0	6.02e-01	0	38	0	212860928	63	4217
2026-01-20 05:32:37.69	24.41	12.22	-46.1	-47.5	23.8	6.04e-01	0	38	0	218628096	63	4336
2026-01-20 05:32:40.71	23.92	12.44	-46.3	-47.7	23.7	6.03e-01	0	38	0	224395264	63	4428
2026-01-20 05:32:43.73	23.44	12.66	-46.2	-47.7	23.7	6.04e-01	0	38	0	230162432	63	4396
2026-01-20 05:32:46.75	22.94	12.88	-45.8	-47.1	24.3	6.01e-01	0	38	0	235405312	63	4131
2026-01-20 05:32:49.78	22.43	13.10	-45.8	-47.1	24.2	6.03e-01	0	38	0	241172480	63	4145
2026-01-20 05:32:52.80	21.92	13.32	-46.1	-47.5	23.9	6.00e-01	0	38	0	246939648	63	4329
2026-01-20 05:32:55.83	21.39	13.54	-46.1	-47.5	23.9	6.03e-01	0	38	0	252706816	63	4305
2026-01-20 05:32:58.85	20.86	13.76	-45.9	-47.3	24.1	6.02e-01	0	38	0	258473984	63	4229
2026-01-20 05:33:01.87	20.32	13.97	-46.0	-47.4	24.1	6.04e-01	0	38	0	263716864	63	4277
2026-01-20 05:33:04.90	19.77	14.19	-45.7	-47.0	24.3	6.02e-01	0	38	0	269484032	63	4093
2026-01-20 05:33:07.92	19.22	14.41	-45.9	-47.3	24.2	6.02e-01	0	38	0	275251200	63	4208
2026-01-20 05:33:10.94	18.65	14.63	-45.7	-47.0	24.4	6.04e-01	0	38	0	281018368	63	4091
2026-01-20 05:33:13.97	18.07	14.85	-45.7	-47.1	24.5	6.04e-01	0	38	0	286785536	63	4100
2026-01-20 05:33:16.99	17.49	15.06	-45.8	-47.2	24.4	6.05e-01	0	38	0	292552704	63	4146
2026-01-20 05:33:20.01	16.90	15.28	-45.8	-47.2	24.3	6.02e-01	0	38	0	297795584	63	4171
2026-01-20 05:33:23.04	16.29	15.49	-46.0	-47.3	24.2	6.03e-01	0	38	0	303562752	63	4238
2026-01-20 05:33:26.06	15.68	15.70	-45.8	-47.1	24.4	6.03e-01	0	38	0	309329920	63	4127
2026-01-20 05:33:29.09	15.06	15.92	-45.6	-47.0	24.6	6.04e-01	0	38	0	315097088	63	4056
2026-01-20 05:33:32.11	14.43	16.13	-45.9	-47.3	24.2	6.02e-01	0	38	0	320864256	63	4227
2026-01-20 05:33:35.13	13.79	16.34	-46.2	-57.2	3.8	7.45e-01	0	38	104	320864256	63	13154
2026-01-20 05:33:38.16	13.14	16.55	-49.4	-60.8	3.8	7.42e-01	0	38	104	320864256	70	13382
2026-01-20 05:33:41.18	12.48	16.75	-48.7	-60.0	3.9	7.42e-01	0	38	104	320864256	69	12837
2026-01-20 05:33:44.21	11.80	16.96	-51.2	-63.3	4.1	7.39e-01	0	38	104	320864256	72	15831
2026-01-20 05:33:47.23	11.12	17.16	-53.4	-67.9	3.8	7.42e-01	0	38	104	320864256	77	20202
2026-01-20 05:33:50.25	10.44	17.36	-49.2	-60.7	3.8	7.42e-01	0	38	104	320864256	70	13189
2026-01-20 05:33:53.27	9.74	17.56	-54.4	-71.1	3.8	7.46e-01	0	38	104	320864256	79	26096
2026-01-20 05:33:56.30	9.02	17.75	-49.3	-60.8	3.8	7.41e-01	0	38	104	320864256	70	13292
2026-01-20 05:33:59.32	8.31	17.95	-49.1	-60.5	3.9	7.47e-01	0	38	104	320864256	70	12935
2026-01-20 05:34:02.34	7.58	18.14	-49.3	-60.8	3.9	7.45e-01	0	38	104	320864256	70	13288
2026-01-20 05:34:05.37	6.84	18.32	-48.6	-59.9	3.8	7.44e-01	0	38	104	320864256	69	12708
2026-01-20 05:34:08.40	6.09	18.51	-52.4	-65.5	3.8	7.44e-01	0	38	104	320864256	75	17236
2026-01-20 05:34:11.42	5.33	18.69	-51.9	-64.8	3.9	7.42e-01	0	38	104	320864256	76	14915
2026-01-20 05:34:14.44	4.56	18.86	-48.8	-60.1	3.8	7.45e-01	0	38	104	320864256	68	13753
2026-01-20 05:34:17.47	3.78	19.04	-53.7	-68.6	3.9	7.42e-01	0	38	104	320864256	79	19492
2026-01-20 05:34:20.49	3.00	19.20	-48.9	-60.2	3.8	7.46e-01	0	38	104	320864256	69	13235
2026-01-20 05:34:23.51	2.20	19.37	-48.1	-59.3	3.8	7.44e-01	0	38	104	320864256	68	12645
2026-01-20 05:34:26.54	1.39	19.53	-49.9	-61.7	3.8	7.43e-01	0	38	104	320864256	70	14831
2026-01-20 05:34:29.56	0.58	19.68	-48.5	-59.8	3.8	7.46e-01	0	38	104	320864256	69	12607
2026-01-20 05:34:32.59	359.76	19.83	-53.8	-68.9	3.8	7.46e-01	0	38	104	320864256	78	21453
2026-01-20 05:34:35.61	358.93	19.98	-49.1	-60.6	3.9	7.46e-01	0	38	104	320864256	70	12991
2026-01-20 05:34:38.63	358.09	20.12	-51.3	-64.0	3.8	7.44e-01	0	38	104	320864256	73	16191
2026-01-20 05:34:41.65	357.24	20.25	-51.3	-63.6	3.9	7.44e-01	0	38	104	320864256	74	14592
2026-01-20 05:34:44.68	356.39	20.38	-48.8	-60.2	3.8	7.41e-01	0	38	104	320864256	69	13110
2026-01-20 05:34:47.70	355.52	20.51	-48.3	-59.4	3.8	7.45e-01	0	38	104	320864256	68	12783
2026-01-20 05:34:50.72	354.65	20.62	-51.4	-63.8	3.8	7.49e-01	0	38	104	320864256	73	15883
2026-01-20 05:34:53.75	353.78	20.73	-48.7	-60.0	3.8	7.45e-01	0	38	104	320864256	69	12912
2026-01-20 05:34:56.77	352.89	20.84	-54.2	-69.8	3.8	7.45e-01	0	38	104	320864256	78	23739
2026-01-20 05:34:59.79	352.00	20.94	-49.2	-60.7	3.8	7.42e-01	0	39	104	320864256	70	13135
2026-01-20 05:35:02.81	351.11	21.03	-49.0	-60.4	3.8	7.46e-01	0	38	104	320864256	68	14238
2026-01-20 05:35:05.84	350.21	21.11	-50.0	-61.7	3.8	7.45e-01	0	38	104	320864256	72	13133
2026-01-20 05:35:08.86	349.30	21.19	-48.4	-59.7	3.8	7.41e-01	0	38	104	320864256	68	13202
2026-01-20 05:35:11.88	348.39	21.26	-48.4	-59.6	3.8	7.44e-01	0	38	104	320864256	67	13884
2026-01-20 05:35:14.91	347.48	21.32	-52.6	-65.9	3.8	7.45e-01	0	38	104	320864256	75	18010
2026-01-20 05:35:17.93	346.56	21.38	-47.7	-58.8	3.8	7.46e-01	0	38	104	320864256	67	12534
2026-01-20 05:35:20.95	345.64	21.43	-54.5	-71.0	3.8	7.45e-01	0	38	104	320864256	79	25831
2026-01-20 05:35:23.98	344.71	21.47	-48.6	-59.9	3.8	7.44e-01	0	38	104	320864256	69	12673
2026-01-20 05:35:27.00	343.79	21.50	-49.8	-61.6	3.8	7.43e-01	0	38	104	320864256	70	14545
2026-01-20 05:35:30.03	342.85	21.53	-49.4	-60.9	3.9	7.45e-01	0	38	104	320864256	70	13421
2026-01-20 05:35:33.05	341.93	21.55	-48.6	-60.1	3.8	7.47e-01	0	38	104	320864256	68	13729
2026-01-20 05:35:36.07	341.00	21.56	-48.1	-59.2	3.8	7.46e-01	0	38	104	320864256	67	13201
2026-01-20 05:35:39.09	340.06	21.56	-52.7	-66.0	3.9	7.46e-01	0	38	104	320864256	76	17268
2026-01-20 05:35:42.12	339.13	21.56	-47.5	-58.6	3.8	7.43e-01	0	38	104	320864256	67	12292
2026-01-20 05:35:45.14	338.20	21.54	-54.3	-70.5	3.8	7.42e-01	0	38	104	320864256	79	24197
2026-01-20 05:35:48.16	337.27	21.52	-48.1	-59.4	3.8	7.46e-01	0	38	104	320864256	68	12752
2026-01-20 05:35:51.19	336.34	21.50	-48.6	-60.0	3.8	7.42e-01	0	38	104	320864256	69	12916
2026-01-20 05:35:54.22	335.41	21.46	-48.1	-59.4	3.9	7.43e-01	0	38	104	320864256	68	12681
2026-01-20 05:35:57.23	334.49	21.42	-47.7	-58.8	3.8	7.43e-01	0	38	104	320864256	67	12534
2026-01-20 05:36:00.26	333.57	21.37	-48.9	-60.3	3.8	7.46e-01	0	38	104	320864256	68	14152
2026-01-20 05:36:03.28	332.65	21.31	-51.1	-63.5	3.9	7.45e-01	0	38	104	320864256	74	14476
2026-01-20 05:36:06.31	331.74	21.24	-46.9	-57.9	3.8	7.47e-01	0	38	104	320864256	65	12705
2026-01-20 05:36:09.33	330.83	21.17	-53.3	-67.4	3.9	7.44e-01	0	38	104	320864256	78	17940
2026-01-20 05:36:12.35	329.92	21.09	-47.6	-58.6	3.9	7.46e-01	0	39	104	320864256	67	12295
2026-01-20 05:36:15.37	329.02	21.00	-48.2	-59.4	3.9	7.46e-01	0	38	104	320864256	68	12750
2026-01-20 05:36:18.40	328.13	20.91	-47.3	-58.4	3.8	7.45e-01	0	38	104	320864256	66	12698
2026-01-20 05:36:21.42	327.24	20.81	-47.0	-58.0	3.9	7.47e-01	0	38	104	320864256	66	12110
2026-01-20 05:36:24.45	326.36	20.70	-50.5	-62.3	3.8	7.43e-01	0	38	104	320864256	71	14925
2026-01-20 05:36:27.47	325.48	20.59	-49.8	-61.4	3.8	7.46e-01	0	38	104	320864256	71	13567
2026-01-20 05:36:30.50	324.61	20.47	-47.4	-57.9	3.8	7.43e-01	0	38	104	320864256	66	12090
2026-01-20 05:36:33.52	323.75	20.35	-50.7	-62.3	3.9	7.48e-01	0	38	104	320864256	73	13300
2026-01-20 05:36:36.55	322.90	20.22	-47.2	-57.8	3.8	7.48e-01	0	38	104	320864256	66	11849
2026-01-20 05:36:39.57	322.05	20.08	-48.0	-58.8	3.8	7.48e-01	0	38	104	320864256	68	11842
2026-01-20 05:36:42.59	321.21	19.94	-48.6	-60.1	3.8	7.46e-01	0	38	104	320864256	67	14653
2026-01-20 05:36:45.62	320.38	19.79	-47.0	-57.6	3.8	7.45e-01	0	38	104	320864256	66	11587
2026-01-20 05:36:48.64	319.56	19.64	-52.4	-65.1	3.8	7.46e-01	0	38	104	320864256	75	16465
2026-01-20 05:36:51.66	318.75	19.48	-47.7	-58.7	3.8	7.45e-01	0	38	104	320864256	67	12387
2026-01-20 05:36:54.69	317.95	19.32	-49.7	-60.8	3.8	7.43e-01	0	38	104	320864256	69	14068
2026-01-20 05:36:57.71	317.15	19.16	-49.0	-60.6	3.8	7.42e-01	0	38	104	320864256	70	13052
2026-01-20 05:37:00.74	316.37	18.99	-46.8	-58.0	3.8	7.43e-01	0	38	104	320864256	65	12920
2026-01-20 05:37:03.76	315.59	18.81	-46.6	-57.3	3.8	7.40e-01	0	38	104	320864256	65	11894
2026-01-20 05:37:06.79	314.82	18.63	-50.8	-62.5	3.8	7.46e-01	0	38	104	320864256	71	15312
2026-01-20 05:37:09.81	314.07	18.45	-46.6	-57.7	3.8	7.44e-01	0	39	104	320864256	65	12398
2026-01-20 05:37:12.84	313.32	18.27	-53.3	-67.7	3.8	7.46e-01	0	39	104	320864256	77	19810
2026-01-20 05:37:15.85	312.59	18.08	-46.6	-57.4	3.8	7.45e-01	0	38	104	320864256	65	11993
2026-01-20 05:37:18.88	311.86	17.89	-48.7	-60.0	3.9	7.42e-01	0	38	104	320864256	68	13647
2026-01-20 05:37:21.90	311.14	17.70	-48.8	-59.4	3.8	7.46e-01	0	38	104	320864256	69	12055
2026-01-20 05:37:24.92	310.43	17.50	-46.6	-58.1	3.8	7.45e-01	0	38	104	320864256	65	12972
2026-01-20 05:37:27.95	309.73	17.30	-46.5	-57.9	3.8	7.44e-01	0	38	104	320864256	64	13424
2026-01-20 05:37:30.97	309.05	17.10	-50.8	-62.5	3.8	7.44e-01	0	38	104	320864256	72	14529
2026-01-20 05:37:33.99	308.37	16.90	-46.5	-57.2	3.9	7.45e-01	0	38	104	320864256	64	12430
2026-01-20 05:37:37.02	307.70	16.69	-53.3	-67.9	3.8	7.43e-01	0	38	104	320864256	77	20129
2026-01-20 05:37:40.04	307.04	16.48	-46.5	-57.1	3.8	7.43e-01	0	38	104	320864256	65	11630
2026-01-20 05:37:43.06	306.39	16.28	-49.7	-61.4	3.8	7.44e-01	0	38	104	320864256	70	14281
2026-01-20 05:37:46.09	305.75	16.07	-48.0	-59.1	3.8	7.47e-01	0	38	104	320864256	68	12242
2026-01-20 05:37:49.11	305.12	15.85	-46.5	-57.6	3.8	7.45e-01	0	38	104	320864256	64	13084
2026-01-20 05:37:52.14	304.50	15.64	-46.8	-57.8	3.8	7.41e-01	0	38	104	320864256	65	12600
2026-01-20 05:37:55.16	303.89	15.43	-51.1	-63.1	3.8	7.44e-01	0	39	104	320864256	73	14639
2026-01-20 05:37:58.18	303.29	15.21	-46.7	-57.9	3.8	7.43e-01	0	38	104	320864256	65	12741
2026-01-20 05:38:01.20	302.70	15.00	-52.2	-65.2	3.8	7.43e-01	0	38	104	320864256	76	15671
2026-01-20 05:38:04.23	302.11	14.78	-46.7	-57.8	3.8	7.44e-01	0	38	104	320864256	65	12607
2026-01-20 05:38:07.25	301.54	14.56	-47.8	-59.3	3.8	7.41e-01	0	38	104	320864256	67	13386
2026-01-20 05:38:10.27	300.98	14.34	-47.6	-59.2	3.8	7.44e-01	0	38	104	320864256	67	13123
2026-01-20 05:38:13.29	300.42	14.13	-46.8	-58.3	3.8	7.42e-01	0	38	104	320864256	65	13334
2026-01-20 05:38:16.32	299.87	13.91	-47.4	-58.9	3.8	7.44e-01	0	38	104	320864256	65	14276
2026-01-20 05:38:19.34	299.34	13.69	-50.0	-61.6	3.8	7.40e-01	0	38	104	320864256	71	13791
2026-01-20 05:38:22.36	298.81	13.47	-46.8	-58.1	3.8	7.47e-01	0	38	104	320864256	65	12998
2026-01-20 05:38:25.39	298.28	13.25	-50.7	-63.0	3.9	7.43e-01	0	38	104	320864256	73	14478
2026-01-20 05:38:28.41	297.77	13.03	-46.8	-57.5	3.8	7.44e-01	0	38	104	320864256	65	12225
2026-01-20 05:38:31.43	297.27	12.81	-47.4	-58.2	3.8	7.46e-01	0	38	104	320864256	67	11794
2026-01-20 05:38:34.45	296.77	12.59	-46.9	-57.6	3.8	7.46e-01	0	38	104	320864256	65	12367
2026-01-20 05:38:37.48	296.28	12.37	-47.2	-58.7	3.8	7.43e-01	0	38	104	320864256	66	13212
2026-01-20 05:38:40.50	295.80	12.15	-49.9	-61.8	3.8	7.47e-01	0	38	104	320864256	70	15050
2026-01-20 05:38:43.53	295.33	11.94	-47.9	-58.8	3.8	7.42e-01	0	38	104	320864256	68	11889
2026-01-20 05:38:46.55	294.86	11.72	-47.1	-58.5	3.8	7.43e-01	0	38	104	320864256	66	12906
2026-01-20 05:38:49.57	294.41	11.50	-50.7	-62.9	3.9	7.41e-01	0	38	104	320864256	73	14260
2026-01-20 05:38:52.60	293.95	11.28	-47.9	-58.7	3.8	7.44e-01	0	38	104	320864256	67	12408
2026-01-20 05:38:55.62	293.51	11.07	-47.4	-58.9	3.8	7.48e-01	0	38	104	320864256	66	13487
2026-01-20 05:38:58.64	293.08	10.85	-49.2	-60.1	3.8	7.46e-01	0	38	104	320864256	68	13838
2026-01-20 05:39:01.67	292.64	10.63	-47.7	-59.1	3.8	7.42e-01	0	38	104	320864256	67	13015
2026-01-20 05:39:04.69	292.22	10.42	-52.0	-64.6	3.8	7.47e-01	0	38	104	320864256	74	16440
2026-01-20 05:39:07.71	291.81	10.21	-47.8	-59.1	3.8	7.44e-01	0	38	104	320864256	67	12974
2026-01-20 05:39:10.74	291.40	9.99	-50.3	-61.7	3.8	7.47e-01	0	38	104	320864256	70	14817
2026-01-20 05:39:13.76	291.00	9.78	-49.2	-61.0	3.8	7.45e-01	0	39	104	320864256	70	13666
2026-01-20 05:39:16.79	290.60	9.57	-47.7	-58.6	3.8	7.44e-01	0	38	104	320864256	67	12264
2026-01-20 05:39:19.81	290.21	9.36	-49.6	-61.3	3.8	7.39e-01	0	38	104	320864256	70	14141
2026-01-20 05:39:22.84	289.83	9.15	-51.6	-64.2	3.8	7.45e-01	0	38	104	320864256	73	16574
2026-01-20 05:39:25.86	289.45	8.94	-47.7	-58.8	3.8	7.45e-01	0	38	104	320864256	67	12597
2026-01-20 05:39:28.89	289.08	8.73	-51.6	-64.3	3.8	7.47e-01	0	39	104	320864256	73	16756
2026-01-20 05:39:31.91	288.71	8.52	-48.4	-59.8	3.8	7.44e-01	0	38	104	320864256	68	13272
2026-01-20 05:39:34.93	288.35	8.31	-51.2	-63.6	3.8	7.42e-01	0	38	104	320864256	72	16352
2026-01-20 05:39:37.96	288.00	8.11	-49.3	-60.9	3.8	7.43e-01	0	38	104	320864256	70	13540
2026-01-20 05:39:40.98	287.65	7.90	-48.5	-60.0	3.8	7.46e-01	0	38	104	320864256	69	12833
2026-01-20 05:39:44.01	287.31	7.70	-49.2	-60.9	3.8	7.46e-01	0	38	104	320864256	70	13467
2026-01-20 05:39:47.03	286.97	7.49	-53.6	-68.8	3.8	7.46e-01	0	38	104	320864256	77	22514
2026-01-20 05:39:50.06	286.63	7.29	-48.1	-59.4	3.8	7.46e-01	0	38	104	320864256	67	13487
2026-01-20 05:39:53.08	286.31	7.09	-51.7	-64.6	3.8	7.44e-01	0	38	104	320864256	74	16318
2026-01-20 05:39:56.10	285.98	6.89	-48.6	-60.1	3.8	7.45e-01	0	38	104	320864256	69	13016
2026-01-20 05:39:59.13	285.67	6.69	-50.5	-62.7	3.8	7.47e-01	0	39	104	320864256	71	15752
2026-01-20 05:40:02.13	285.36	6.49	-49.6	-52.1	18.6	6.02e-01	0	39	0	320864256	71	4618
2026-01-20 05:40:05.16	285.05	6.29	-48.3	-50.2	21.0	6.01e-01	0	38	0	326631424	68	4439
2026-01-20 05:40:08.18	284.74	6.10	-48.7	-50.8	20.4	6.01e-01	0	38	0	332398592	68	4737
2026-01-20 05:40:11.20	284.45	5.90	-48.1	-50.0	21.3	6.01e-01	0	39	0	338165760	67	4549
2026-01-20 05:40:14.23	284.15	5.70	-48.2	-50.1	21.1	6.02e-01	0	39	0	343932928	67	4645
2026-01-20 05:40:17.25	283.86	5.51	-48.4	-50.5	20.7	6.01e-01	0	38	0	349175808	67	4830
2026-01-20 05:40:20.27	283.58	5.32	-48.1	-50.1	21.0	6.02e-01	0	38	0	354942976	67	4616
2026-01-20 05:40:23.29	283.29	5.12	-48.8	-51.1	20.0	5.99e-01	0	38	0	360710144	68	4883
2026-01-20 05:40:26.32	283.02	4.93	-54.4	-72.2	3.8	7.47e-01	0	38	104	365428736	79	29401
2026-01-20 05:40:29.34	282.74	4.74	-54.9	-72.7	3.8	7.43e-01	0	38	104	365428736	80	29619
2026-01-20 05:40:32.36	282.47	4.55	-55.2	-73.0	3.8	7.48e-01	0	38	104	365428736	80	30441
2026-01-20 05:40:35.39	282.21	4.36	-55.3	-73.1	3.8	7.47e-01	0	39	104	365428736	81	29323
2026-01-20 05:40:38.41	281.95	4.18	-55.4	-73.3	3.8	7.45e-01	0	38	104	365428736	81	29721
2026-01-20 05:40:41.44	281.69	3.99	-55.5	-73.4	3.8	7.47e-01	0	39	104	365428736	81	30055
2026-01-20 05:40:44.45	281.44	3.81	-55.6	-73.4	3.8	7.44e-01	0	38	104	365428736	81	30331
2026-01-20 05:40:47.48	281.18	3.62	-55.6	-73.5	3.8	7.45e-01	0	38	104	365428736	81	30403
2026-01-20 05:40:50.50	280.94	3.44	-55.6	-73.5	3.8	7.48e-01	0	39	104	365428736	81	30431
2026-01-20 05:40:53.53	280.69	3.25	-55.6	-73.4	3.8	7.44e-01	0	39	104	365428736	81	30178
2026-01-20 05:40:56.55	280.45	3.07	-55.5	-73.3	3.8	7.45e-01	0	39	104	365428736	81	29944
2026-01-20 05:40:59.57	280.22	2.89	-55.5	-73.3	3.8	7.47e-01	0	38	104	365428736	81	29870
2026-01-20 05:41:02.59	279.99	2.71	-55.4	-73.3	3.8	7.46e-01	0	38	104	365428736	81	29810
2026-01-20 05:41:05.62	279.75	2.53	-55.4	-73.3	3.8	7.44e-01	0	38	104	365428736	81	29702
2026-01-20 05:41:08.64	279.53	2.35	-55.4	-73.2	3.8	7.47e-01	0	39	104	365428736	81	29638
2026-01-20 05:41:11.66	279.30	2.17	-55.4	-73.2	3.8	7.47e-01	0	39	104	365428736	81	29652
2026-01-20 05:41:14.69	279.08	2.00	-55.4	-73.3	3.8	7.47e-01	0	38	104	365428736	81	29692

#Closed at: 2026-01-20 05:41:17
#Recorded file [365 MB]: D:/lorett/data/31041_260120_083003.dat