passes_logs/2026/01/20/R3.2S_Murmansk/R3.2S_Murmansk__20260120_210352_JL1KF02B01_rec.log

#Pass ID: 20260120_210352_JL1KF02B01
#Satellite: JL1KF02B01
#Configuration: 01B_900M
#almurnet v.1.7.20251203
#Start time: 2026-01-20 21:03:54

#Version: 2.2.20231116
#Station: R3.2S_Murmansk
#Location: 33.079688 lon 68.888172 lat
#TLE: 1 61191U 24169C   26020.27218679  .00009686  00000+0  60538-3 0  9995
#TLE: 2 61191  97.5705 111.7623 0014571 107.1494 253.1332 15.09568673 73513

#Time	Az	El	Level	Level2	SNR	BER	BlckErr	Temp	State	Recorded	gain1	gain2
2026-01-20 21:03:54.80	190.37	2.15	-54.2	-56.3	6.3	0.00e+00	0	40	0	0	79	19015
2026-01-20 21:03:57.83	190.56	2.35	-54.3	-56.5	6.2	0.00e+00	0	40	104	0	80	18264
2026-01-20 21:04:00.86	190.74	2.55	-54.3	-56.4	6.2	0.00e+00	0	40	104	0	80	18104
2026-01-20 21:04:03.88	190.93	2.75	-54.1	-56.3	6.2	0.00e+00	0	40	104	0	80	17803
2026-01-20 21:04:06.90	191.12	2.96	-53.9	-56.2	6.2	0.00e+00	0	40	104	0	79	18705
2026-01-20 21:04:09.92	191.32	3.16	-53.7	-56.0	6.2	0.00e+00	0	40	104	0	77	20417
2026-01-20 21:04:12.95	191.51	3.37	-53.4	-55.7	6.2	0.00e+00	0	40	104	0	77	19915
2026-01-20 21:04:15.97	191.71	3.58	-52.8	-55.1	6.2	0.00e+00	0	40	104	0	77	18566
2026-01-20 21:04:18.99	191.92	3.79	-53.0	-55.1	6.2	0.00e+00	0	40	104	0	77	18514
2026-01-20 21:04:22.02	192.13	4.01	-53.0	-55.1	6.2	0.00e+00	0	41	104	0	77	18419
2026-01-20 21:04:25.04	192.34	4.22	-53.0	-55.1	6.2	0.00e+00	0	41	104	0	77	18481
2026-01-20 21:04:28.07	192.55	4.44	-53.0	-55.1	6.2	0.00e+00	0	40	104	0	77	18474
2026-01-20 21:04:31.09	192.77	4.66	-52.9	-55.1	6.2	0.00e+00	0	40	104	0	77	18456
2026-01-20 21:04:34.12	193.00	4.88	-52.9	-55.1	6.2	0.00e+00	0	41	104	0	77	18420
2026-01-20 21:04:37.14	193.22	5.11	-52.9	-55.1	6.2	0.00e+00	0	41	104	0	77	18408
2026-01-20 21:04:40.17	193.45	5.34	-53.0	-55.2	6.2	0.00e+00	0	41	104	0	77	18629
2026-01-20 21:04:43.19	193.69	5.56	-53.1	-55.2	6.2	0.00e+00	0	41	104	0	77	18643
2026-01-20 21:04:46.21	193.93	5.79	-52.9	-55.0	6.2	0.00e+00	0	41	104	0	77	18381
2026-01-20 21:04:49.24	194.17	6.03	-52.9	-55.1	6.2	0.00e+00	0	41	104	0	77	18475
2026-01-20 21:04:52.26	194.42	6.26	-52.8	-55.1	6.2	0.00e+00	0	41	104	0	76	19493
2026-01-20 21:04:55.29	194.68	6.50	-52.2	-54.7	6.2	0.00e+00	0	41	104	0	76	18813
2026-01-20 21:04:58.31	194.93	6.74	-52.5	-55.0	6.2	0.00e+00	0	41	104	0	76	19280
2026-01-20 21:05:01.33	195.20	6.98	-52.5	-54.9	6.2	0.00e+00	0	41	104	0	76	19182
2026-01-20 21:05:04.35	195.47	7.23	-52.6	-54.9	6.2	0.00e+00	0	41	104	0	76	19072
2026-01-20 21:05:07.38	195.74	7.48	-52.0	-54.9	6.3	0.00e+00	0	41	104	0	76	19237
2026-01-20 21:05:10.40	196.02	7.73	-51.9	-54.9	6.3	0.00e+00	0	41	104	0	75	20198
2026-01-20 21:05:13.43	196.31	7.98	-52.6	-54.9	6.2	0.00e+00	0	41	104	0	76	19059
2026-01-20 21:05:16.45	196.60	8.24	-52.5	-54.8	6.2	0.00e+00	0	42	104	0	76	18905
2026-01-20 21:05:19.47	196.89	8.50	-47.9	-48.8	6.3	0.00e+00	0	41	104	0	67	15845
2026-01-20 21:05:22.49	197.20	8.76	-46.2	-46.6	6.3	0.00e+00	0	41	104	0	64	14679
2026-01-20 21:05:25.52	197.51	9.02	-45.4	-45.8	6.2	0.00e+00	0	41	104	0	62	15119
2026-01-20 21:05:28.54	197.82	9.29	-45.7	-46.1	6.2	0.00e+00	0	41	104	0	63	14708
2026-01-20 21:05:31.57	198.15	9.56	-44.6	-45.7	6.1	0.00e+00	0	41	104	0	61	15665
2026-01-20 21:05:34.59	198.48	9.84	-30.6	-30.9	11.4	6.89e-03	0	41	104	0	31	16096
2026-01-20 21:05:37.62	198.82	10.12	-34.2	-35.7	15.1	3.05e-04	0	41	0	209715200	39	17640
2026-01-20 21:05:40.64	199.16	10.40	-32.5	-33.0	16.2	1.52e-05	0	42	0	553648128	36	15412
2026-01-20 21:05:43.66	199.51	10.68	-29.6	-29.7	15.8	4.57e-05	0	42	0	889192448	31	14023
2026-01-20 21:05:46.69	199.88	10.97	-28.1	-28.1	16.9	0.00e+00	0	42	0	1224736768	27	14669
2026-01-20 21:05:49.71	200.25	11.26	-27.9	-27.8	17.5	1.90e-06	0	42	0	1577058304	27	14199
2026-01-20 21:05:52.74	200.62	11.56	-27.9	-27.7	17.5	0.00e+00	0	42	0	1912602624	27	14012
2026-01-20 21:05:55.76	201.01	11.85	-27.8	-27.6	17.5	0.00e+00	0	42	0	2248146944	27	13849
2026-01-20 21:05:58.78	201.41	12.16	-27.6	-27.4	17.3	0.00e+00	0	42	0	2583691264	27	13535
2026-01-20 21:06:01.81	201.81	12.46	-27.5	-27.3	17.3	0.00e+00	0	42	0	2936012800	26	14212
2026-01-20 21:06:04.83	202.23	12.77	-27.5	-27.3	17.7	0.00e+00	0	42	0	3271557120	26	14260
2026-01-20 21:06:07.86	202.65	13.09	-27.4	-27.2	17.8	0.00e+00	0	42	0	3607101440	26	14069
2026-01-20 21:06:10.88	203.09	13.40	-27.2	-27.1	17.8	0.00e+00	0	42	0	3951034368	26	13812
2026-01-20 21:06:13.90	203.54	13.73	-27.1	-26.9	18.0	0.00e+00	0	42	0	4286578688	26	13573
2026-01-20 21:06:16.92	203.99	14.05	-26.9	-26.8	17.9	0.00e+00	0	42	0	4630511616	25	14143
2026-01-20 21:06:19.95	204.47	14.38	-26.8	-26.7	18.1	0.00e+00	0	42	0	4974444544	25	13959
2026-01-20 21:06:22.97	204.95	14.72	-26.7	-26.5	18.1	0.00e+00	0	42	0	5309988864	25	13755
2026-01-20 21:06:26.00	205.44	15.05	-26.5	-26.3	18.3	0.00e+00	0	42	0	5645533184	24	14224
2026-01-20 21:06:29.02	205.95	15.40	-26.4	-26.2	18.4	0.00e+00	0	42	0	5997854720	24	14037
2026-01-20 21:06:32.05	206.47	15.74	-26.2	-26.1	18.6	0.00e+00	0	42	0	6333399040	24	13797
2026-01-20 21:06:35.07	207.00	16.09	-26.1	-25.9	18.4	0.00e+00	0	42	0	6668943360	24	13611
2026-01-20 21:06:38.10	207.55	16.45	-26.0	-25.8	18.5	0.00e+00	0	42	0	7004487680	23	14258
2026-01-20 21:06:41.11	208.12	16.81	-25.7	-25.6	18.7	0.00e+00	0	42	0	7356809216	23	13799
2026-01-20 21:06:44.14	208.70	17.17	-25.6	-25.5	18.8	0.00e+00	0	42	0	7692353536	23	13677
2026-01-20 21:06:47.16	209.29	17.54	-25.5	-25.4	18.7	0.00e+00	0	42	0	8027897856	23	13478
2026-01-20 21:06:50.19	209.90	17.91	-25.4	-25.2	18.8	0.00e+00	0	42	0	8371830784	22	14016
2026-01-20 21:06:53.22	210.53	18.29	-25.2	-25.0	19.0	0.00e+00	0	43	0	8715763712	22	13777
2026-01-20 21:06:56.24	211.18	18.67	-25.1	-24.9	19.0	0.00e+00	0	42	0	9051308032	22	13630
2026-01-20 21:06:59.27	211.85	19.06	-25.1	-25.0	19.1	0.00e+00	0	42	0	9395240960	22	13657
2026-01-20 21:07:02.29	212.53	19.44	-25.0	-24.8	19.2	0.00e+00	0	42	0	9730785280	22	13424
2026-01-20 21:07:05.32	213.23	19.84	-24.8	-24.6	19.1	0.00e+00	0	42	0	10083106816	21	13843
2026-01-20 21:07:08.35	213.96	20.23	-24.7	-24.6	19.1	0.00e+00	0	42	0	10418651136	21	13807
2026-01-20 21:07:11.37	214.70	20.63	-24.6	-24.4	19.3	0.00e+00	0	42	0	10754195456	21	13624
2026-01-20 21:07:14.39	215.47	21.04	-24.3	-24.1	19.2	0.00e+00	0	42	0	11089739776	20	13857
2026-01-20 21:07:17.42	216.26	21.44	-24.2	-24.0	19.2	0.00e+00	0	42	0	11442061312	20	13729
2026-01-20 21:07:20.44	217.07	21.85	-24.1	-23.9	19.3	0.00e+00	0	43	0	11777605632	20	13593
2026-01-20 21:07:23.46	217.90	22.26	-24.0	-23.8	19.2	0.00e+00	0	43	0	12113149952	19	14183
2026-01-20 21:07:26.49	218.77	22.68	-23.9	-23.8	18.9	0.00e+00	0	42	0	12457082880	19	14128
2026-01-20 21:07:29.51	219.65	23.09	-23.7	-23.6	19.2	0.00e+00	0	43	0	12801015808	19	13806
2026-01-20 21:07:32.53	220.56	23.51	-23.5	-23.3	19.2	0.00e+00	0	43	0	13136560128	19	13415
2026-01-20 21:07:35.56	221.50	23.93	-23.4	-23.2	19.2	0.00e+00	0	43	0	13472104448	18	14087
2026-01-20 21:07:38.58	222.47	24.35	-23.4	-23.2	19.0	0.00e+00	0	43	0	13816037376	18	14069
2026-01-20 21:07:41.61	223.47	24.77	-23.3	-23.1	19.1	0.00e+00	0	43	0	14159970304	18	13857
2026-01-20 21:07:44.63	224.49	25.18	-23.2	-23.0	19.0	0.00e+00	0	43	0	14503903232	18	13724
2026-01-20 21:07:47.66	225.54	25.60	-23.1	-23.0	19.0	0.00e+00	0	43	0	14839447552	18	13660
2026-01-20 21:07:50.68	226.63	26.02	-23.1	-22.9	18.6	0.00e+00	0	43	0	15174991872	18	13516
2026-01-20 21:07:53.71	227.74	26.43	-23.0	-22.8	18.9	0.00e+00	0	43	0	15527313408	17	14188
2026-01-20 21:07:56.73	228.89	26.84	-22.8	-22.6	18.4	0.00e+00	0	43	0	15862857728	17	13826
2026-01-20 21:07:59.76	230.07	27.24	-22.8	-22.6	18.3	0.00e+00	0	42	0	16198402048	17	13854
2026-01-20 21:08:02.78	231.28	27.64	-22.5	-22.3	18.1	0.00e+00	0	43	0	16533946368	17	13461
2026-01-20 21:08:05.81	232.52	28.04	-22.3	-22.1	17.9	0.00e+00	0	43	0	16886267904	16	13886
2026-01-20 21:08:08.83	233.80	28.42	-22.2	-22.0	18.1	0.00e+00	0	43	0	17221812224	16	13724
2026-01-20 21:08:11.85	235.10	28.80	-22.0	-21.9	17.6	0.00e+00	0	43	0	17557356544	16	13502
2026-01-20 21:08:14.88	236.45	29.17	-21.8	-21.6	17.2	0.00e+00	0	43	0	17901289472	15	13895
2026-01-20 21:08:17.90	237.82	29.52	-21.8	-21.7	17.4	0.00e+00	0	43	0	18236833792	15	13964
2026-01-20 21:08:20.92	239.22	29.87	-21.8	-21.6	16.9	0.00e+00	0	43	0	18580766720	15	13851
2026-01-20 21:08:23.94	240.66	30.20	-21.7	-21.5	16.6	0.00e+00	0	43	0	18924699648	15	13727
2026-01-20 21:08:26.97	242.13	30.52	-21.6	-21.4	16.5	0.00e+00	0	43	0	19260243968	15	13612
2026-01-20 21:08:29.99	243.63	30.82	-21.4	-21.2	17.1	0.00e+00	0	43	0	19595788288	14	14014
2026-01-20 21:08:33.02	245.16	31.10	-21.3	-21.1	17.2	0.00e+00	0	43	0	19948109824	14	13932
2026-01-20 21:08:36.04	246.71	31.37	-21.3	-21.1	17.2	0.00e+00	0	43	0	20283654144	14	13948
2026-01-20 21:08:39.06	248.29	31.61	-21.3	-21.2	17.4	0.00e+00	0	43	0	20619198464	14	13974
2026-01-20 21:08:42.08	249.89	31.84	-21.2	-21.0	17.4	0.00e+00	0	43	0	20954742784	14	13787
2026-01-20 21:08:45.11	251.52	32.04	-21.4	-21.2	17.5	0.00e+00	0	43	0	21307064320	14	14037
2026-01-20 21:08:48.13	253.17	32.22	-21.4	-21.2	18.0	0.00e+00	0	42	0	21642608640	14	13986
2026-01-20 21:08:51.16	254.84	32.38	-21.2	-21.0	17.5	0.00e+00	0	43	0	21978152960	14	13720
2026-01-20 21:08:54.18	256.52	32.51	-21.2	-21.0	17.6	0.00e+00	0	43	0	22322085888	14	13732
2026-01-20 21:08:57.21	258.22	32.62	-21.2	-21.0	18.2	0.00e+00	0	43	0	22666018816	14	13720
2026-01-20 21:09:00.23	259.93	32.70	-21.4	-21.2	18.5	0.00e+00	0	43	0	23001563136	14	13994
2026-01-20 21:09:03.25	261.64	32.76	-21.4	-21.2	18.9	0.00e+00	0	43	0	23345496064	14	14077
2026-01-20 21:09:06.28	263.36	32.79	-21.5	-21.3	18.9	0.00e+00	0	43	0	23681040384	14	14240
2026-01-20 21:09:09.31	265.08	32.79	-21.5	-21.4	19.4	0.00e+00	0	43	0	24033361920	14	14275
2026-01-20 21:09:12.33	266.80	32.76	-21.5	-21.3	19.7	0.00e+00	0	43	0	24368906240	14	14192
2026-01-20 21:09:15.36	268.51	32.71	-21.6	-21.4	19.8	0.00e+00	0	43	0	24704450560	14	14366
2026-01-20 21:09:18.38	270.22	32.63	-21.5	-21.3	19.7	0.00e+00	0	43	0	25039994880	14	14164
2026-01-20 21:09:21.40	271.91	32.53	-21.6	-21.4	19.7	0.00e+00	0	43	0	25375539200	14	14348
2026-01-20 21:09:24.42	273.59	32.40	-21.6	-21.4	19.7	0.00e+00	0	43	0	25727860736	14	14440
2026-01-20 21:09:27.45	275.26	32.24	-21.7	-21.5	19.9	0.00e+00	0	43	0	26063405056	14	14481
2026-01-20 21:09:30.47	276.91	32.06	-21.7	-21.5	19.8	0.00e+00	0	43	0	26398949376	14	14525
2026-01-20 21:09:33.49	278.54	31.86	-21.8	-21.6	20.0	0.00e+00	0	43	0	26742882304	14	14684
2026-01-20 21:09:36.51	280.14	31.64	-21.9	-21.7	19.9	0.00e+00	0	43	0	27086815232	14	14904
2026-01-20 21:09:39.54	281.73	31.39	-22.0	-21.8	19.9	0.00e+00	0	43	0	27430748160	14	14985
2026-01-20 21:09:42.56	283.28	31.13	-22.0	-21.8	19.7	0.00e+00	0	43	0	27766292480	14	14977
2026-01-20 21:09:45.59	284.82	30.85	-22.0	-21.9	19.5	0.00e+00	0	43	0	28101836800	14	15142
2026-01-20 21:09:48.61	286.31	30.55	-22.1	-21.9	19.6	0.00e+00	0	43	0	28454158336	14	15259
2026-01-20 21:09:51.63	287.78	30.24	-22.2	-22.0	19.6	0.00e+00	0	43	0	28789702656	15	14551
2026-01-20 21:09:54.66	289.22	29.90	-22.3	-22.1	19.7	0.00e+00	0	43	0	29125246976	15	14692
2026-01-20 21:09:57.68	290.63	29.56	-22.4	-22.2	19.7	0.00e+00	0	43	0	29460791296	15	14913
2026-01-20 21:10:00.71	292.01	29.21	-22.6	-22.4	19.7	0.00e+00	0	43	0	29813112832	15	15214
2026-01-20 21:10:03.73	293.35	28.84	-22.9	-22.7	19.9	0.00e+00	0	43	0	30148657152	16	14893
2026-01-20 21:10:06.75	294.66	28.47	-22.8	-22.6	19.9	0.00e+00	0	43	0	30484201472	16	14637
2026-01-20 21:10:09.78	295.94	28.08	-23.0	-22.8	20.0	0.00e+00	0	43	0	30828134400	16	14997
2026-01-20 21:10:12.80	297.18	27.69	-23.0	-22.8	19.9	0.00e+00	0	43	0	31163678720	16	15004
2026-01-20 21:10:15.82	298.39	27.29	-23.2	-23.1	19.9	0.00e+00	0	43	0	31507611648	17	14626
2026-01-20 21:10:18.85	299.57	26.89	-23.2	-23.0	19.8	0.00e+00	0	43	0	31851544576	17	14495
2026-01-20 21:10:21.87	300.72	26.48	-23.4	-23.2	19.6	0.00e+00	0	43	0	32187088896	17	14793
2026-01-20 21:10:24.90	301.84	26.07	-23.3	-23.1	19.2	0.00e+00	0	43	0	32522633216	17	14705
2026-01-20 21:10:27.93	302.93	25.65	-23.5	-23.3	19.3	0.00e+00	0	43	0	32874954752	17	15032
2026-01-20 21:10:30.95	303.98	25.24	-23.7	-23.5	19.2	0.00e+00	0	43	0	33210499072	18	14558
2026-01-20 21:10:33.98	305.01	24.82	-23.8	-23.6	19.1	0.00e+00	0	43	0	33546043392	18	14673
2026-01-20 21:10:37.00	306.00	24.40	-23.8	-23.7	19.0	0.00e+00	0	43	0	33881587712	18	14822
2026-01-20 21:10:40.03	306.97	23.98	-24.0	-23.9	18.8	0.00e+00	0	43	0	34233909248	18	15139
2026-01-20 21:10:43.05	307.91	23.57	-24.2	-24.0	18.8	0.00e+00	0	43	0	34569453568	19	14486
2026-01-20 21:10:46.07	308.83	23.15	-24.4	-24.2	18.7	0.00e+00	0	43	0	34904997888	19	14842
2026-01-20 21:10:49.09	309.71	22.74	-24.6	-24.4	18.4	0.00e+00	0	43	0	35248930816	19	15193
2026-01-20 21:10:52.11	310.57	22.32	-24.6	-24.5	18.0	0.00e+00	0	43	0	35592863744	19	15297
2026-01-20 21:10:55.13	311.41	21.91	-24.6	-24.4	17.7	0.00e+00	0	43	0	35928408064	20	14326
2026-01-20 21:10:58.15	312.22	21.51	-24.7	-24.6	17.7	0.00e+00	0	43	0	36272340992	20	14639
2026-01-20 21:11:01.18	313.02	21.10	-24.8	-24.6	17.8	0.00e+00	0	43	0	36607885312	20	14688
2026-01-20 21:11:04.20	313.78	20.70	-25.0	-24.8	17.6	0.00e+00	0	43	0	36943429632	20	14995
2026-01-20 21:11:07.22	314.53	20.30	-25.1	-24.9	17.7	0.00e+00	0	43	0	37295751168	20	15290
2026-01-20 21:11:10.25	315.26	19.90	-25.3	-25.1	17.7	0.00e+00	0	43	0	37631295488	21	14657
2026-01-20 21:11:13.27	315.96	19.51	-25.3	-25.1	17.4	0.00e+00	0	43	0	37966839808	21	14739
2026-01-20 21:11:16.29	316.65	19.13	-25.4	-25.3	17.8	0.00e+00	0	43	0	38302384128	21	14955
2026-01-20 21:11:19.32	317.31	18.74	-25.5	-25.4	17.6	0.00e+00	0	43	0	38654705664	21	15133
2026-01-20 21:11:22.34	317.96	18.36	-25.7	-25.5	17.5	0.00e+00	0	43	0	38990249984	21	15430
2026-01-20 21:11:25.37	318.59	17.98	-25.8	-25.6	17.6	0.00e+00	0	43	0	39325794304	22	14682
2026-01-20 21:11:28.39	319.21	17.61	-26.0	-25.8	17.4	0.00e+00	0	43	0	39669727232	22	15023
2026-01-20 21:11:31.42	319.80	17.24	-26.1	-25.9	17.2	1.90e-06	0	43	0	40013660160	22	15240
2026-01-20 21:11:34.44	320.38	16.88	-26.3	-26.1	17.4	0.00e+00	0	43	0	40349204480	23	14714
2026-01-20 21:11:37.47	320.95	16.52	-26.4	-26.3	17.5	0.00e+00	0	43	0	40693137408	23	14950
2026-01-20 21:11:40.49	321.50	16.17	-26.6	-26.4	17.4	0.00e+00	0	43	0	41028681728	23	15257
2026-01-20 21:11:43.51	322.04	15.82	-26.7	-26.5	17.4	0.00e+00	0	43	0	41372614656	24	14555
2026-01-20 21:11:46.54	322.56	15.47	-26.8	-26.6	17.5	0.00e+00	0	43	0	41716547584	24	14758
2026-01-20 21:11:49.56	323.07	15.13	-27.1	-26.9	17.6	0.00e+00	0	43	0	42052091904	24	15281
2026-01-20 21:11:52.58	323.56	14.79	-27.2	-27.0	17.7	0.00e+00	0	43	0	42387636224	25	14483
2026-01-20 21:11:55.61	324.05	14.46	-27.3	-27.2	17.7	0.00e+00	0	43	0	42739957760	25	14784
2026-01-20 21:11:58.63	324.52	14.13	-27.3	-27.1	17.9	0.00e+00	0	43	0	43075502080	25	14770
2026-01-20 21:12:01.65	324.98	13.80	-27.6	-27.5	17.7	0.00e+00	0	43	0	43411046400	25	15310
2026-01-20 21:12:04.68	325.43	13.48	-27.7	-27.5	17.8	1.90e-06	0	43	0	43746590720	25	15394
2026-01-20 21:12:07.70	325.87	13.16	-27.8	-27.7	18.0	0.00e+00	0	43	0	44090523648	26	14783
2026-01-20 21:12:10.72	326.29	12.85	-53.2	-55.6	6.2	0.00e+00	0	43	104	44266684416	76	20642
2026-01-20 21:12:13.75	326.71	12.54	-53.4	-55.5	6.2	0.00e+00	0	42	104	44266684416	77	19476
2026-01-20 21:12:16.77	327.12	12.24	-53.4	-55.5	6.2	0.00e+00	0	42	104	44266684416	77	19469
2026-01-20 21:12:19.79	327.52	11.93	-53.2	-55.5	6.2	0.00e+00	0	42	104	44266684416	77	19330
2026-01-20 21:12:22.82	327.91	11.64	-53.3	-55.5	6.2	0.00e+00	0	43	104	44266684416	77	19327
2026-01-20 21:12:25.84	328.28	11.34	-53.2	-55.5	6.2	0.00e+00	0	42	104	44266684416	77	19274
2026-01-20 21:12:28.86	328.66	11.05	-53.3	-55.4	6.2	0.00e+00	0	42	104	44266684416	77	19192
2026-01-20 21:12:31.89	329.02	10.76	-53.2	-55.4	6.2	0.00e+00	0	42	104	44266684416	77	19172
2026-01-20 21:12:34.91	329.37	10.48	-53.2	-55.4	6.2	0.00e+00	0	42	104	44266684416	77	19057
2026-01-20 21:12:37.93	329.72	10.20	-53.2	-55.3	6.2	0.00e+00	0	42	104	44266684416	77	19035
2026-01-20 21:12:40.96	330.06	9.92	-53.2	-55.3	6.2	0.00e+00	0	43	104	44266684416	77	18935
2026-01-20 21:12:43.98	330.39	9.65	-53.1	-55.3	6.2	0.00e+00	0	42	104	44266684416	77	18943
2026-01-20 21:12:47.01	330.72	9.37	-53.1	-55.2	6.2	0.00e+00	0	42	104	44266684416	77	18789
2026-01-20 21:12:50.03	331.04	9.11	-53.1	-55.3	6.2	0.00e+00	0	42	104	44266684416	77	18854
2026-01-20 21:12:53.06	331.35	8.84	-53.1	-55.2	6.2	0.00e+00	0	42	104	44266684416	77	18755
2026-01-20 21:12:56.07	331.65	8.58	-53.1	-55.2	6.2	0.00e+00	0	42	104	44266684416	77	18781
2026-01-20 21:12:59.10	331.95	8.32	-53.0	-55.2	6.2	0.00e+00	0	42	104	44266684416	77	18644
2026-01-20 21:13:02.12	332.25	8.07	-53.0	-55.2	6.2	0.00e+00	0	42	104	44266684416	77	18687
2026-01-20 21:13:05.15	332.53	7.81	-53.0	-55.2	6.2	0.00e+00	0	42	104	44266684416	77	18603
2026-01-20 21:13:08.17	332.82	7.56	-52.9	-55.1	6.2	0.00e+00	0	42	104	44266684416	77	18551
2026-01-20 21:13:11.19	333.09	7.31	-52.9	-55.1	6.2	0.00e+00	0	42	104	44266684416	77	18426
2026-01-20 21:13:14.22	333.36	7.07	-52.9	-55.1	6.2	0.00e+00	0	42	104	44266684416	77	18464
2026-01-20 21:13:17.24	333.63	6.83	-52.9	-55.0	6.2	0.00e+00	0	42	104	44266684416	77	18353
2026-01-20 21:13:20.26	333.89	6.59	-52.9	-55.1	6.2	0.00e+00	0	42	104	44266684416	77	18476
2026-01-20 21:13:23.28	334.14	6.35	-52.8	-54.9	6.2	0.00e+00	0	42	104	44266684416	77	18141
2026-01-20 21:13:26.31	334.39	6.11	-52.8	-54.9	6.2	0.00e+00	0	42	104	44266684416	77	18148
2026-01-20 21:13:29.33	334.64	5.88	-52.0	-54.1	6.2	0.00e+00	0	42	104	44266684416	76	17520
2026-01-20 21:13:32.35	334.88	5.65	-52.0	-54.2	6.2	0.00e+00	0	42	104	44266684416	75	18620
2026-01-20 21:13:35.38	335.12	5.42	-52.1	-54.2	6.2	0.00e+00	0	42	104	44266684416	76	17671
2026-01-20 21:13:38.40	335.35	5.20	-51.6	-53.7	6.2	0.00e+00	0	42	104	44266684416	74	18754
2026-01-20 21:13:41.43	335.58	4.97	-52.3	-54.5	6.2	0.00e+00	0	42	104	44266684416	75	19340
2026-01-20 21:13:44.45	335.81	4.75	-53.4	-55.6	6.2	0.00e+00	0	42	104	44266684416	77	19582
2026-01-20 21:13:47.48	336.03	4.53	-53.6	-55.8	6.2	0.00e+00	0	42	104	44266684416	77	19974
2026-01-20 21:13:50.50	336.25	4.31	-53.7	-55.8	6.2	0.00e+00	0	42	104	44266684416	77	20159
2026-01-20 21:13:53.53	336.46	4.10	-53.6	-55.7	6.2	0.00e+00	0	42	104	44266684416	77	19840
2026-01-20 21:13:56.55	336.67	3.88	-53.6	-55.7	6.2	0.00e+00	0	42	104	44266684416	77	19891
2026-01-20 21:13:59.58	336.88	3.67	-53.7	-55.8	6.2	0.00e+00	0	42	104	44266684416	77	20047
2026-01-20 21:14:02.60	337.08	3.46	-53.7	-55.8	6.2	0.00e+00	0	42	104	44266684416	77	19991
2026-01-20 21:14:05.62	337.28	3.25	-53.6	-55.8	6.2	0.00e+00	0	42	104	44266684416	77	19980
2026-01-20 21:14:08.65	337.48	3.05	-53.6	-55.8	6.2	0.00e+00	0	42	104	44266684416	77	19945
2026-01-20 21:14:11.67	337.67	2.84	-53.6	-55.7	6.2	0.00e+00	0	42	104	44266684416	77	19906
2026-01-20 21:14:14.69	337.86	2.64	-53.6	-55.7	6.2	0.00e+00	0	42	104	44266684416	77	19912
2026-01-20 21:14:17.72	338.05	2.44	-53.6	-55.7	6.2	0.00e+00	0	42	104	44266684416	77	19829
2026-01-20 21:14:20.74	338.23	2.24	-53.6	-55.7	6.2	0.00e+00	0	42	104	44266684416	77	19789
2026-01-20 21:14:23.76	338.41	2.04	-53.6	-55.7	6.2	0.00e+00	0	42	104	44266684416	77	19799

#Closed at: 2026-01-20 21:14:26
#Recorded file [44266 MB]: D:/lorett/data/31041_260121_000354.dat