passes_logs/2026/01/20/R3.2S_Murmansk/R3.2S_Murmansk__20260120_115553_AQUA_rec.log

#Pass ID: 20260120_115553_AQUA
#Satellite: AQUA
#Configuration: AQUA
#almurnet v.1.7.20251203
#Start time: 2026-01-20 11:55:54

#Version: 2.2.20231116
#Station: R3.2S_Murmansk
#Location: 33.079688 lon 68.888172 lat
#TLE: 1 27424U 02022A   26019.95447505  .00001296  00000+0  26931-3 0  9993
#TLE: 2 27424  98.4091 346.4652 0001983  72.1988 359.6274 14.61832814261618

#Time	Az	El	Level	Level2	SNR	BER	BlckErr	Temp	State	Recorded	gain1	gain2
2026-01-20 11:55:54.28	168.60	2.04	-50.7	-68.4	3.8	7.43e-01	0	37	0	0	73	26787
2026-01-20 11:55:58.31	168.70	2.31	-50.7	-67.8	3.8	7.47e-01	0	37	104	0	72	26659
2026-01-20 11:56:02.34	168.80	2.58	-50.7	-68.0	3.8	7.46e-01	0	37	104	0	72	27246
2026-01-20 11:56:06.37	168.90	2.85	-50.7	-68.0	3.8	7.46e-01	0	37	104	0	72	27134
2026-01-20 11:56:10.40	169.00	3.12	-50.6	-67.1	3.8	7.45e-01	0	37	104	0	72	24484
2026-01-20 11:56:14.43	169.10	3.40	-50.6	-67.2	3.8	7.47e-01	0	38	104	0	72	24930
2026-01-20 11:56:18.46	169.21	3.68	-50.6	-66.5	3.8	7.43e-01	0	38	104	0	72	22929
2026-01-20 11:56:22.49	169.31	3.97	-50.6	-67.2	3.8	7.45e-01	0	38	104	0	72	24943
2026-01-20 11:56:26.53	169.42	4.26	-50.6	-65.9	4.0	7.40e-01	0	38	104	0	72	21422
2026-01-20 11:56:30.55	169.53	4.55	-50.4	-62.8	5.1	7.07e-01	0	38	104	0	72	14910
2026-01-20 11:56:34.59	169.65	4.85	-50.1	-59.4	7.8	6.51e-01	182	38	0	5242880	72	10174
2026-01-20 11:56:38.62	169.76	5.14	-50.0	-58.1	9.2	6.32e-01	0	38	0	12582912	71	9252
2026-01-20 11:56:42.65	169.88	5.45	-50.0	-58.2	9.0	6.31e-01	1	38	0	17301504	71	9288
2026-01-20 11:56:46.68	170.00	5.75	-49.9	-57.7	9.7	6.26e-01	0	38	0	25165824	71	8773
2026-01-20 11:56:50.71	170.12	6.06	-49.9	-57.7	9.7	6.26e-01	0	38	0	32505856	71	8789
2026-01-20 11:56:54.74	170.25	6.38	-49.9	-57.5	9.7	6.24e-01	0	38	0	40370176	71	8652
2026-01-20 11:56:58.77	170.37	6.70	-49.7	-56.9	10.5	6.21e-01	0	38	0	47710208	71	8044
2026-01-20 11:57:02.80	170.50	7.02	-49.8	-57.0	10.4	6.20e-01	0	38	0	55574528	71	8119
2026-01-20 11:57:06.83	170.64	7.35	-49.8	-57.1	10.4	6.18e-01	0	38	0	62914560	71	8190
2026-01-20 11:57:10.87	170.77	7.68	-49.8	-57.1	10.3	6.24e-01	0	38	0	70254592	71	8258
2026-01-20 11:57:14.90	170.91	8.02	-49.8	-57.1	10.4	6.22e-01	0	38	0	78118912	71	8200
2026-01-20 11:57:18.93	171.06	8.36	-49.8	-57.1	10.4	6.23e-01	0	39	0	85458944	71	8247
2026-01-20 11:57:22.95	171.20	8.71	-49.8	-56.8	10.7	6.17e-01	0	38	0	92798976	71	7921
2026-01-20 11:57:26.99	171.35	9.06	-49.7	-56.7	10.9	6.15e-01	0	38	0	100663296	71	7816
2026-01-20 11:57:31.02	171.50	9.42	-49.8	-56.7	10.8	6.16e-01	0	39	0	108003328	71	7880
2026-01-20 11:57:35.05	171.66	9.78	-49.7	-56.6	10.9	6.18e-01	0	39	0	115867648	71	7765
2026-01-20 11:57:39.08	171.82	10.15	-49.8	-56.7	10.8	6.19e-01	0	39	0	123207680	71	7853
2026-01-20 11:57:43.11	171.98	10.53	-49.7	-56.6	10.7	6.23e-01	0	38	0	131072000	71	7779
2026-01-20 11:57:47.14	172.15	10.91	-49.6	-56.0	11.5	6.15e-01	0	39	0	138412032	71	7276
2026-01-20 11:57:51.17	172.33	11.30	-49.7	-56.3	11.3	6.16e-01	0	39	0	145752064	71	7478
2026-01-20 11:57:55.20	172.50	11.69	-49.6	-56.0	11.6	6.14e-01	0	39	0	153616384	71	7261
2026-01-20 11:57:59.23	172.69	12.09	-49.7	-56.1	11.5	6.14e-01	0	39	0	160956416	71	7363
2026-01-20 11:58:03.25	172.87	12.50	-49.6	-56.0	11.6	6.15e-01	0	39	0	168820736	71	7257
2026-01-20 11:58:07.29	173.07	12.92	-49.6	-55.9	11.7	6.15e-01	0	39	0	176160768	71	7166
2026-01-20 11:58:11.32	173.26	13.35	-49.6	-55.8	11.8	6.13e-01	0	39	0	184025088	71	7121
2026-01-20 11:58:15.35	173.47	13.78	-49.6	-55.7	11.9	6.15e-01	0	39	0	191365120	71	7014
2026-01-20 11:58:19.38	173.68	14.22	-49.5	-55.7	12.0	6.12e-01	0	39	0	198705152	71	6968
2026-01-20 11:58:23.41	173.90	14.67	-49.6	-55.7	12.0	6.13e-01	0	39	0	206569472	71	7034
2026-01-20 11:58:27.44	174.12	15.13	-49.6	-55.7	12.0	6.14e-01	0	39	0	213909504	71	6985
2026-01-20 11:58:31.47	174.35	15.60	-49.5	-55.5	12.2	6.10e-01	0	39	0	221249536	71	6840
2026-01-20 11:58:35.51	174.59	16.08	-49.5	-55.6	12.2	6.12e-01	0	39	0	229113856	71	6901
2026-01-20 11:58:39.53	174.83	16.57	-49.5	-55.6	12.1	6.13e-01	0	39	0	236453888	71	6927
2026-01-20 11:58:43.57	175.08	17.07	-49.5	-55.4	12.3	6.14e-01	0	39	0	244318208	71	6788
2026-01-20 11:58:47.60	175.35	17.58	-49.6	-55.8	11.9	6.12e-01	0	39	0	251658240	71	7058
2026-01-20 11:58:51.63	175.62	18.10	-49.6	-55.7	12.1	6.12e-01	0	39	0	259522560	71	6968
2026-01-20 11:58:55.66	175.90	18.63	-49.5	-55.4	12.3	6.10e-01	0	39	0	266862592	71	6789
2026-01-20 11:58:59.69	176.19	19.18	-49.5	-55.5	12.2	6.11e-01	0	39	0	274726912	71	6836
2026-01-20 11:59:03.72	176.49	19.74	-49.5	-55.5	12.2	6.12e-01	0	39	0	282066944	71	6865
2026-01-20 11:59:07.75	176.80	20.31	-49.5	-55.4	12.3	6.12e-01	0	39	0	289406976	71	6792
2026-01-20 11:59:11.79	177.13	20.90	-49.5	-55.5	12.3	6.11e-01	0	39	0	297271296	71	6826
2026-01-20 11:59:15.81	177.46	21.49	-49.6	-55.6	12.1	6.12e-01	0	39	0	304611328	71	6948
2026-01-20 11:59:19.85	177.82	22.11	-49.6	-55.6	12.2	6.11e-01	0	39	0	312475648	71	6915
2026-01-20 11:59:23.88	178.18	22.74	-49.6	-55.7	12.0	6.13e-01	0	39	0	319815680	71	7017
2026-01-20 11:59:27.91	178.56	23.39	-49.6	-55.7	12.0	6.12e-01	0	39	0	327155712	71	7028
2026-01-20 11:59:31.94	178.96	24.05	-49.6	-55.6	12.1	6.11e-01	0	39	0	335020032	71	6941
2026-01-20 11:59:35.97	179.37	24.74	-49.6	-55.6	12.1	6.12e-01	0	39	0	342360064	71	6938
2026-01-20 11:59:40.00	179.81	25.43	-49.6	-55.5	12.2	6.12e-01	0	39	0	350224384	71	6853
2026-01-20 11:59:44.03	180.26	26.15	-49.6	-55.8	11.9	6.13e-01	0	39	0	357564416	71	7089
2026-01-20 11:59:48.06	180.73	26.89	-49.5	-55.4	12.4	6.10e-01	0	39	0	364904448	70	7160
2026-01-20 11:59:52.10	181.23	27.65	-49.5	-55.2	12.5	6.09e-01	0	39	0	372768768	70	7031
2026-01-20 11:59:56.13	181.75	28.43	-49.5	-55.2	12.5	6.10e-01	0	39	0	380108800	70	7021
2026-01-20 12:00:00.16	182.30	29.23	-49.4	-55.2	12.6	6.09e-01	0	39	0	387973120	70	6986
2026-01-20 12:00:04.19	182.87	30.05	-49.4	-54.9	12.9	6.09e-01	0	39	0	395313152	70	6769
2026-01-20 12:00:08.22	183.48	30.90	-49.4	-55.0	12.7	6.11e-01	0	39	0	403177472	70	6863
2026-01-20 12:00:12.25	184.12	31.77	-49.5	-55.3	12.4	6.11e-01	0	39	0	410517504	70	7086
2026-01-20 12:00:16.29	184.80	32.66	-49.6	-55.6	12.1	6.12e-01	0	39	0	418381824	70	7327
2026-01-20 12:00:20.32	185.51	33.58	-49.7	-55.9	11.8	6.14e-01	0	39	0	425721856	70	7628
2026-01-20 12:00:24.34	186.26	34.52	-49.7	-55.9	11.8	6.13e-01	0	39	0	433061888	70	7616
2026-01-20 12:00:28.37	187.07	35.49	-49.7	-56.1	11.6	6.13e-01	0	39	0	440401920	70	7747
2026-01-20 12:00:32.41	187.92	36.49	-49.8	-56.5	11.2	6.17e-01	0	39	0	448266240	70	8173
2026-01-20 12:00:36.44	188.82	37.51	-49.9	-56.9	10.7	6.19e-01	0	39	0	455606272	70	8553
2026-01-20 12:00:40.47	189.79	38.55	-49.9	-56.9	10.8	6.18e-01	0	39	0	463470592	70	8477
2026-01-20 12:00:44.49	190.82	39.62	-49.9	-56.7	11.0	6.17e-01	0	39	0	470810624	70	8328
2026-01-20 12:00:48.53	191.92	40.72	-49.8	-56.3	11.4	6.16e-01	0	39	0	478674944	70	7965
2026-01-20 12:00:52.56	193.10	41.84	-49.7	-56.0	11.7	6.14e-01	0	39	0	486014976	70	7661
2026-01-20 12:00:56.60	194.37	42.99	-49.6	-55.5	12.4	6.10e-01	0	39	0	493879296	70	7223
2026-01-20 12:01:00.63	195.73	44.15	-49.4	-54.9	12.9	6.09e-01	0	39	0	501219328	70	6780
2026-01-20 12:01:04.66	197.19	45.34	-49.3	-54.7	13.2	6.08e-01	0	39	0	508559360	70	6574
2026-01-20 12:01:08.69	198.77	46.53	-49.3	-54.6	13.2	6.09e-01	0	39	0	516423680	70	6541
2026-01-20 12:01:12.72	200.47	47.74	-49.3	-54.6	13.3	6.08e-01	0	39	0	523763712	70	6538
2026-01-20 12:01:16.75	202.32	48.96	-49.3	-54.7	13.1	6.08e-01	0	39	0	531628032	70	6615
2026-01-20 12:01:20.78	204.31	50.18	-49.3	-54.6	13.2	6.08e-01	0	39	0	538968064	70	6517
2026-01-20 12:01:24.81	206.47	51.39	-49.4	-55.0	12.8	6.10e-01	0	39	0	546832384	70	6859
2026-01-20 12:01:28.84	208.82	52.59	-49.4	-54.8	13.0	6.13e-01	0	39	0	554172416	70	6672
2026-01-20 12:01:32.87	211.36	53.77	-49.4	-54.9	13.0	6.11e-01	0	39	0	561512448	70	6728
2026-01-20 12:01:36.90	214.11	54.92	-49.5	-55.3	12.6	6.09e-01	0	39	0	569376768	70	7047
2026-01-20 12:01:40.93	217.09	56.02	-49.8	-56.0	11.7	6.14e-01	0	39	0	576716800	70	7707
2026-01-20 12:01:44.96	220.31	57.06	-49.8	-56.1	11.7	6.11e-01	0	39	0	584056832	70	7799
2026-01-20 12:01:48.99	223.77	58.03	-50.0	-56.7	11.1	6.16e-01	0	39	0	591921152	70	8321
2026-01-20 12:01:53.02	227.48	58.91	-50.1	-57.3	10.4	6.23e-01	0	39	0	599261184	70	8949
2026-01-20 12:01:57.05	231.44	59.69	-50.3	-58.0	9.7	6.27e-01	0	39	0	607125504	71	9075
2026-01-20 12:02:01.07	235.60	60.35	-50.2	-57.6	10.2	6.23e-01	0	39	0	614465536	71	8725
2026-01-20 12:02:05.09	239.97	60.87	-50.2	-57.8	10.0	6.23e-01	0	39	0	622329856	71	8962
2026-01-20 12:02:09.12	244.50	61.25	-50.3	-58.2	9.6	6.26e-01	0	39	0	629669888	71	9306
2026-01-20 12:02:13.16	249.15	61.47	-50.4	-58.4	9.4	6.29e-01	0	39	0	637009920	71	9532
2026-01-20 12:02:17.19	253.84	61.52	-50.3	-58.0	9.8	6.26e-01	0	39	0	644874240	71	9075
2026-01-20 12:02:21.22	258.53	61.41	-50.3	-58.0	9.8	6.24e-01	0	39	0	652214272	71	9085
2026-01-20 12:02:25.25	263.14	61.15	-50.3	-57.8	10.0	6.20e-01	0	39	0	660078592	71	8875
2026-01-20 12:02:29.28	267.62	60.72	-50.2	-57.2	10.7	6.20e-01	0	39	0	667418624	71	8295
2026-01-20 12:02:33.31	271.94	60.16	-50.1	-56.9	11.0	6.18e-01	0	39	0	675282944	71	8038
2026-01-20 12:02:37.34	276.04	59.46	-50.1	-56.7	11.2	6.08e-01	0	39	0	682622976	71	7850
2026-01-20 12:02:41.37	279.92	58.65	-50.1	-56.7	11.2	6.09e-01	0	39	0	689963008	71	7881
2026-01-20 12:02:45.40	283.55	57.74	-49.9	-56.0	12.0	6.07e-01	0	39	0	697827328	71	7221
2026-01-20 12:02:49.42	286.92	56.75	-49.8	-55.6	12.4	6.04e-01	0	39	0	705167360	71	6958
2026-01-20 12:02:53.46	290.07	55.69	-49.7	-55.3	12.7	6.05e-01	0	39	0	712507392	71	6723
2026-01-20 12:02:57.49	292.97	54.58	-49.8	-55.7	12.4	6.04e-01	0	39	0	720371712	71	6987
2026-01-20 12:03:01.51	295.64	53.42	-49.8	-55.6	12.4	6.05e-01	0	39	0	727711744	71	6882
2026-01-20 12:03:05.55	298.13	52.24	-49.7	-55.4	12.6	6.04e-01	0	39	0	735576064	71	6796
2026-01-20 12:03:09.58	300.41	51.04	-49.8	-55.8	12.2	6.06e-01	0	39	0	742916096	71	7121
2026-01-20 12:03:13.61	302.51	49.82	-50.1	-56.6	11.4	6.11e-01	0	39	0	750780416	71	7743
2026-01-20 12:03:17.64	304.45	48.61	-50.0	-56.2	11.8	6.09e-01	0	39	0	758120448	71	7453
2026-01-20 12:03:21.67	306.25	47.40	-50.0	-56.1	11.9	6.07e-01	0	39	0	765460480	71	7371
2026-01-20 12:03:25.70	307.91	46.20	-50.0	-56.1	12.0	6.07e-01	0	39	0	773324800	71	7317
2026-01-20 12:03:29.73	309.45	45.01	-49.9	-56.0	12.1	6.08e-01	0	39	0	780664832	71	7209
2026-01-20 12:03:33.77	310.88	43.83	-50.0	-56.4	11.6	6.08e-01	0	39	0	788529152	71	7568
2026-01-20 12:03:37.80	312.21	42.68	-50.0	-56.4	11.6	6.08e-01	0	39	0	795869184	71	7592
2026-01-20 12:03:41.83	313.45	41.54	-50.1	-56.8	11.2	6.10e-01	0	39	0	803209216	71	7948
2026-01-20 12:03:45.85	314.60	40.44	-50.2	-57.1	10.9	6.14e-01	0	39	0	811073536	71	8243
2026-01-20 12:03:49.88	315.67	39.35	-50.0	-56.3	11.7	6.08e-01	0	39	0	818413568	71	7542
2026-01-20 12:03:53.91	316.68	38.29	-50.1	-56.7	11.3	6.13e-01	0	39	0	826277888	71	7848
2026-01-20 12:03:57.94	317.63	37.26	-50.0	-56.4	11.7	6.07e-01	0	39	0	833617920	71	7544
2026-01-20 12:04:01.97	318.52	36.25	-49.9	-55.9	12.1	6.09e-01	0	39	0	840957952	71	7173
2026-01-20 12:04:06.00	319.35	35.27	-49.7	-55.4	12.6	6.04e-01	0	39	0	848822272	71	6789
2026-01-20 12:04:10.03	320.14	34.31	-49.5	-54.9	13.2	6.04e-01	0	39	0	856162304	71	6385
2026-01-20 12:04:14.06	320.88	33.38	-49.5	-54.9	13.1	6.01e-01	0	39	0	864026624	71	6408
2026-01-20 12:04:18.09	321.58	32.47	-49.5	-54.8	13.2	6.02e-01	0	39	0	871366656	71	6324
2026-01-20 12:04:22.12	322.25	31.59	-49.4	-54.6	13.5	6.03e-01	0	39	0	879230976	70	6523
2026-01-20 12:04:26.15	322.88	30.73	-49.4	-54.5	13.5	6.02e-01	0	39	0	886571008	70	6471
2026-01-20 12:04:30.18	323.47	29.89	-49.5	-54.8	13.2	6.05e-01	0	39	0	894435328	70	6706
2026-01-20 12:04:34.21	324.04	29.08	-49.5	-54.9	13.1	6.04e-01	0	39	0	901775360	70	6794
2026-01-20 12:04:38.23	324.58	28.29	-49.6	-55.2	12.8	6.05e-01	0	39	0	909115392	70	6997
2026-01-20 12:04:42.26	325.09	27.52	-49.6	-55.1	12.9	6.05e-01	0	39	0	916455424	70	6888
2026-01-20 12:04:46.29	325.58	26.77	-49.6	-55.3	12.7	6.03e-01	0	39	0	924319744	70	7055
2026-01-20 12:04:50.32	326.05	26.04	-49.7	-55.6	12.4	6.09e-01	0	39	0	931659776	70	7319
2026-01-20 12:04:54.35	326.50	25.33	-49.7	-55.7	12.2	6.04e-01	0	39	0	939524096	70	7394
2026-01-20 12:04:58.38	326.93	24.64	-49.8	-55.8	12.1	6.05e-01	0	39	0	946864128	70	7495
2026-01-20 12:05:02.41	327.34	23.97	-49.8	-55.9	12.0	6.06e-01	0	39	0	954728448	70	7565
2026-01-20 12:05:06.44	327.73	23.31	-49.7	-55.6	12.3	6.07e-01	0	39	0	962068480	70	7299
2026-01-20 12:05:10.47	328.11	22.67	-49.7	-55.7	12.1	6.05e-01	0	39	0	969408512	70	7437
2026-01-20 12:05:14.50	328.47	22.04	-49.7	-55.7	12.2	6.05e-01	0	39	0	977272832	70	7413
2026-01-20 12:05:18.53	328.82	21.44	-49.7	-55.6	12.3	6.08e-01	0	39	0	984612864	70	7320
2026-01-20 12:05:22.56	329.15	20.84	-49.7	-55.6	12.2	6.05e-01	0	39	0	992477184	70	7353
2026-01-20 12:05:26.59	329.47	20.26	-49.7	-55.7	12.2	6.05e-01	0	39	0	999817216	70	7403
2026-01-20 12:05:30.62	329.78	19.70	-49.6	-55.5	12.3	6.07e-01	0	39	0	1007681536	70	7247
2026-01-20 12:05:34.66	330.08	19.14	-49.6	-55.5	12.3	6.07e-01	0	39	0	1015021568	70	7282
2026-01-20 12:05:38.69	330.37	18.60	-49.6	-55.5	12.3	6.06e-01	0	39	0	1022885888	70	7234
2026-01-20 12:05:42.72	330.65	18.07	-49.5	-55.2	12.6	6.03e-01	0	39	0	1030225920	70	7027
2026-01-20 12:05:46.75	330.92	17.55	-49.5	-55.3	12.6	6.06e-01	0	39	0	1037565952	70	7048
2026-01-20 12:05:50.78	331.18	17.05	-49.5	-55.3	12.5	6.05e-01	0	39	0	1045430272	70	7046
2026-01-20 12:05:54.81	331.44	16.55	-49.5	-55.2	12.6	6.05e-01	0	39	0	1052770304	70	6964
2026-01-20 12:05:58.84	331.68	16.07	-49.5	-55.3	12.5	6.06e-01	0	39	0	1060110336	70	7079
2026-01-20 12:06:02.87	331.92	15.60	-49.5	-55.3	12.5	6.06e-01	0	39	0	1067974656	70	7063
2026-01-20 12:06:06.90	332.15	15.13	-49.5	-55.3	12.5	6.06e-01	0	39	0	1075314688	70	7081
2026-01-20 12:06:10.94	332.37	14.67	-49.5	-55.4	12.4	6.03e-01	0	39	0	1083179008	70	7130
2026-01-20 12:06:14.97	332.59	14.23	-49.5	-55.4	12.4	6.06e-01	0	39	0	1090519040	70	7124
2026-01-20 12:06:19.00	332.80	13.79	-49.5	-55.3	12.5	6.08e-01	0	39	0	1098383360	70	7052
2026-01-20 12:06:23.03	333.00	13.36	-49.6	-55.6	12.1	6.05e-01	0	39	0	1105723392	70	7320
2026-01-20 12:06:27.06	333.20	12.94	-49.6	-55.7	12.0	6.06e-01	0	39	0	1113063424	70	7434
2026-01-20 12:06:31.09	333.39	12.53	-49.6	-55.7	12.0	6.06e-01	0	39	0	1120927744	70	7435
2026-01-20 12:06:35.12	333.58	12.12	-49.6	-55.7	11.9	6.06e-01	0	39	0	1128267776	70	7453
2026-01-20 12:06:39.15	333.76	11.72	-49.6	-55.7	12.0	6.07e-01	0	39	0	1136132096	70	7414
2026-01-20 12:06:43.18	333.94	11.33	-49.6	-55.9	11.8	6.06e-01	0	39	0	1143472128	70	7601
2026-01-20 12:06:47.21	334.12	10.94	-49.6	-55.9	11.7	6.08e-01	0	39	0	1151336448	70	7620
2026-01-20 12:06:51.25	334.29	10.56	-49.7	-56.1	11.6	6.10e-01	0	39	0	1158676480	70	7742
2026-01-20 12:06:55.28	334.45	10.19	-49.7	-56.2	11.5	6.09e-01	0	39	0	1166016512	70	7849
2026-01-20 12:06:59.31	334.61	9.82	-49.7	-56.1	11.5	6.11e-01	0	39	0	1173880832	70	7777
2026-01-20 12:07:03.34	334.77	9.46	-49.7	-56.3	11.3	6.07e-01	0	39	0	1181220864	70	7906
2026-01-20 12:07:07.37	334.92	9.11	-49.7	-56.3	11.3	6.13e-01	0	39	0	1188560896	70	7945
2026-01-20 12:07:11.41	335.08	8.75	-49.7	-56.4	11.2	6.09e-01	0	39	0	1196425216	70	7992
2026-01-20 12:07:15.44	335.22	8.41	-49.8	-56.6	10.9	6.14e-01	0	39	0	1203765248	70	8258
2026-01-20 12:07:19.47	335.37	8.07	-49.8	-56.7	10.8	6.12e-01	0	39	0	1211629568	70	8337
2026-01-20 12:07:23.50	335.51	7.74	-49.9	-56.9	10.6	6.15e-01	0	39	0	1218969600	70	8553
2026-01-20 12:07:27.53	335.64	7.41	-49.9	-57.0	10.6	6.15e-01	0	39	0	1226833920	70	8601
2026-01-20 12:07:31.56	335.78	7.08	-49.9	-57.4	10.0	6.18e-01	0	39	0	1234173952	70	9040
2026-01-20 12:07:35.60	335.91	6.76	-49.9	-57.1	10.5	6.15e-01	0	39	0	1242038272	70	8684
2026-01-20 12:07:39.63	336.04	6.44	-49.9	-57.2	10.3	6.16e-01	0	39	0	1249378304	70	8850
2026-01-20 12:07:43.65	336.17	6.13	-50.0	-57.8	9.7	6.23e-01	0	39	0	1256718336	70	9454
2026-01-20 12:07:47.69	336.29	5.82	-49.9	-57.4	10.0	6.21e-01	0	39	0	1264582656	70	9051
2026-01-20 12:07:51.72	336.41	5.52	-49.9	-57.5	9.9	6.20e-01	0	39	0	1271922688	70	9124
2026-01-20 12:07:55.75	336.53	5.22	-50.0	-57.8	9.7	6.23e-01	0	39	0	1279262720	70	9389
2026-01-20 12:07:59.78	336.65	4.92	-50.9	-68.7	3.8	7.44e-01	0	39	104	1285029888	72	29529
2026-01-20 12:08:03.81	336.77	4.62	-51.1	-69.0	3.8	7.41e-01	0	39	104	1285029888	72	30407
2026-01-20 12:08:07.84	336.88	4.33	-51.3	-69.1	3.8	7.43e-01	0	39	104	1285029888	73	29271
2026-01-20 12:08:11.87	336.99	4.05	-51.4	-69.2	3.8	7.43e-01	0	39	104	1285029888	73	29536
2026-01-20 12:08:15.90	337.10	3.76	-51.4	-69.2	3.8	7.44e-01	0	39	104	1285029888	73	29654
2026-01-20 12:08:19.93	337.21	3.48	-51.4	-69.3	3.8	7.44e-01	0	39	104	1285029888	73	29832
2026-01-20 12:08:23.96	337.31	3.21	-51.3	-69.2	3.8	7.45e-01	0	39	104	1285029888	73	29516
2026-01-20 12:08:27.99	337.42	2.93	-51.3	-69.2	3.8	7.44e-01	0	39	104	1285029888	73	29458
2026-01-20 12:08:32.02	337.52	2.66	-51.3	-69.1	3.8	7.45e-01	0	39	104	1285029888	73	29306
2026-01-20 12:08:36.05	337.62	2.39	-51.3	-69.1	3.8	7.40e-01	0	39	104	1285029888	73	29260
2026-01-20 12:08:40.09	337.72	2.13	-51.2	-69.1	3.8	7.45e-01	0	39	104	1285029888	73	29163
2026-01-20 12:08:44.11	337.81	1.87	-51.2	-69.1	3.8	7.46e-01	0	39	104	1285029888	73	29052

#Closed at: 2026-01-20 12:08:44
#Recorded file [1285 MB]: D:/lorett/data/31041_260120_145554.dat