passes_logs/2026/01/20/R3.2S_Murmansk/R3.2S_Murmansk__20260120_195222_TY-39_rec.log

#Pass ID: 20260120_195222_TY-39
#Satellite: TY-39
#Configuration: TY-39
#almurnet v.1.7.20251203
#Start time: 2026-01-20 19:52:22

#Version: 2.2.20231116
#Station: R3.2S_Murmansk
#Location: 33.079688 lon 68.888172 lat
#TLE: 1 51832U 22019J   26019.96292150  .00002537  00000-0  12203-3 0  9993
#TLE: 2 51832  97.3641  86.5319 0009635  37.5689 322.6217 15.19658161215288

#Time	Az	El	Level	Level2	SNR	BER	BlckErr	Temp	State	Recorded	gain1	gain2
2026-01-20 19:52:22.69	204.32	1.99	-53.9	-56.0	3.7	0.00e+00	0	42	0	0	78	19447
2026-01-20 19:52:25.72	204.58	2.18	-54.2	-56.4	3.7	0.00e+00	0	42	104	0	79	19067
2026-01-20 19:52:28.74	204.84	2.37	-54.2	-56.3	3.7	0.00e+00	0	43	104	0	79	19001
2026-01-20 19:52:31.77	205.10	2.56	-54.1	-56.3	3.7	0.00e+00	0	42	104	0	79	18836
2026-01-20 19:52:34.79	205.37	2.76	-54.0	-56.2	3.7	0.00e+00	0	43	104	0	79	18679
2026-01-20 19:52:37.82	205.64	2.95	-53.9	-56.1	3.7	0.00e+00	0	43	104	0	79	18409
2026-01-20 19:52:40.84	205.92	3.15	-53.8	-55.9	3.7	0.00e+00	0	43	104	0	79	18082
2026-01-20 19:52:43.87	206.20	3.35	-53.4	-55.5	3.7	0.00e+00	0	43	104	0	78	18366
2026-01-20 19:52:46.89	206.48	3.55	-52.8	-55.0	3.7	0.00e+00	0	43	104	0	77	18195
2026-01-20 19:52:49.91	206.78	3.75	-52.8	-54.9	3.7	0.00e+00	0	43	104	0	77	18119
2026-01-20 19:52:52.94	207.07	3.95	-52.8	-54.9	3.7	0.00e+00	0	44	104	0	77	18094
2026-01-20 19:52:55.96	207.37	4.15	-52.8	-54.9	3.7	0.00e+00	0	44	104	0	77	18067
2026-01-20 19:52:58.99	207.68	4.36	-52.8	-54.9	3.7	0.00e+00	0	44	104	0	77	18127
2026-01-20 19:53:02.01	207.99	4.57	-52.8	-54.9	3.7	0.00e+00	0	44	104	0	77	18115
2026-01-20 19:53:05.04	208.31	4.78	-52.8	-54.9	3.7	0.00e+00	0	44	104	0	77	18028
2026-01-20 19:53:08.06	208.63	4.99	-52.8	-54.9	3.7	0.00e+00	0	44	104	0	77	18057
2026-01-20 19:53:11.08	208.96	5.20	-52.8	-54.9	3.7	0.00e+00	0	44	104	0	77	18178
2026-01-20 19:53:14.11	209.29	5.41	-52.9	-55.0	3.7	0.00e+00	0	44	104	0	77	18386
2026-01-20 19:53:17.13	209.63	5.63	-52.7	-54.8	3.7	0.00e+00	0	44	104	0	77	17945
2026-01-20 19:53:20.16	209.98	5.84	-52.8	-54.9	3.7	0.00e+00	0	44	104	0	77	18129
2026-01-20 19:53:23.19	210.33	6.06	-52.9	-55.0	3.7	0.00e+00	0	44	104	0	77	18264
2026-01-20 19:53:26.21	210.69	6.28	-52.9	-55.1	3.7	0.00e+00	0	44	104	0	77	18445
2026-01-20 19:53:29.23	211.05	6.50	-52.8	-54.9	3.7	0.00e+00	0	44	104	0	77	18162
2026-01-20 19:53:32.25	211.43	6.73	-52.9	-55.0	3.7	0.00e+00	0	44	104	0	77	18249
2026-01-20 19:53:35.27	211.81	6.95	-52.9	-55.1	3.7	0.00e+00	0	44	104	0	77	18396
2026-01-20 19:53:38.29	212.19	7.18	-53.0	-55.1	3.7	0.00e+00	0	44	104	0	77	18581
2026-01-20 19:53:41.32	212.59	7.41	-52.9	-55.1	3.7	0.00e+00	0	44	104	0	77	18413
2026-01-20 19:53:44.34	212.99	7.64	-52.9	-55.1	3.7	0.00e+00	0	44	104	0	77	18407
2026-01-20 19:53:47.37	213.40	7.87	-53.0	-55.1	3.7	0.00e+00	0	45	104	0	77	18552
2026-01-20 19:53:50.39	213.81	8.11	-53.0	-55.1	3.7	0.00e+00	0	45	104	0	77	18590
2026-01-20 19:53:53.42	214.24	8.34	-53.0	-55.1	3.7	0.00e+00	0	44	104	0	77	18566
2026-01-20 19:53:56.44	214.67	8.58	-53.0	-55.1	3.7	0.00e+00	0	45	104	0	77	18550
2026-01-20 19:53:59.47	215.12	8.82	-53.0	-55.2	3.7	0.00e+00	0	45	104	0	77	18689
2026-01-20 19:54:02.49	215.57	9.06	-53.1	-55.2	3.7	0.00e+00	0	45	104	0	77	18762
2026-01-20 19:54:05.51	216.03	9.31	-53.0	-55.2	3.7	0.00e+00	0	45	104	0	77	18674
2026-01-20 19:54:08.54	216.50	9.55	-53.0	-55.2	3.7	0.00e+00	0	45	104	0	77	18623
2026-01-20 19:54:11.56	216.97	9.80	-53.1	-55.2	3.7	0.00e+00	0	45	104	0	77	18756
2026-01-20 19:54:14.58	217.46	10.05	-53.1	-55.2	3.7	0.00e+00	0	45	104	0	77	18817
2026-01-20 19:54:17.60	217.96	10.30	-53.1	-55.3	3.7	0.00e+00	0	45	104	0	77	18832
2026-01-20 19:54:20.63	218.47	10.55	-53.1	-55.2	3.7	0.00e+00	0	45	104	0	77	18772
2026-01-20 19:54:23.66	218.99	10.80	-53.1	-55.3	3.7	0.00e+00	0	45	104	0	77	18854
2026-01-20 19:54:26.68	219.52	11.06	-53.2	-55.3	3.7	0.00e+00	0	45	104	0	77	19010
2026-01-20 19:54:29.71	220.06	11.32	-53.2	-55.3	3.7	0.00e+00	0	45	104	0	77	18963
2026-01-20 19:54:32.73	220.61	11.57	-53.1	-55.3	3.6	0.00e+00	0	45	104	0	77	18902
2026-01-20 19:54:35.76	221.18	11.83	-53.2	-55.3	3.7	0.00e+00	0	45	104	0	77	18954
2026-01-20 19:54:38.78	221.76	12.10	-53.2	-55.4	3.7	0.00e+00	0	45	104	0	77	19107
2026-01-20 19:54:41.80	222.34	12.36	-53.3	-55.4	3.7	0.00e+00	0	45	104	0	77	19127
2026-01-20 19:54:44.83	222.94	12.62	-53.2	-55.3	3.7	0.00e+00	0	45	104	0	77	19016
2026-01-20 19:54:47.85	223.56	12.89	-53.2	-55.4	3.7	0.00e+00	0	45	104	0	77	19122
2026-01-20 19:54:50.87	224.18	13.16	-53.3	-55.4	3.7	0.00e+00	0	45	104	0	77	19131
2026-01-20 19:54:53.90	224.83	13.42	-53.3	-55.4	3.7	0.00e+00	0	45	104	0	77	19168
2026-01-20 19:54:56.92	225.48	13.69	-53.2	-55.4	3.7	0.00e+00	0	45	104	0	77	19036
2026-01-20 19:54:59.94	226.14	13.96	-53.3	-55.4	3.7	0.00e+00	0	45	104	0	77	19205
2026-01-20 19:55:02.96	226.83	14.23	-53.3	-55.4	3.7	0.00e+00	0	45	104	0	77	19253
2026-01-20 19:55:05.99	227.52	14.50	-53.3	-55.4	3.7	0.00e+00	0	45	104	0	77	19230
2026-01-20 19:55:09.01	228.23	14.77	-53.3	-55.4	3.7	0.00e+00	0	45	104	0	77	19156
2026-01-20 19:55:12.03	228.96	15.05	-53.3	-55.5	3.7	0.00e+00	0	45	104	0	77	19259
2026-01-20 19:55:15.06	229.70	15.32	-53.3	-55.5	3.7	0.00e+00	0	45	104	0	77	19301
2026-01-20 19:55:18.08	230.46	15.59	-53.3	-55.5	3.7	0.00e+00	0	45	104	0	77	19370
2026-01-20 19:55:21.10	231.23	15.86	-53.3	-55.5	3.7	0.00e+00	0	45	104	0	77	19276
2026-01-20 19:55:24.12	232.02	16.13	-53.3	-55.4	3.7	0.00e+00	0	45	104	0	77	19232
2026-01-20 19:55:27.15	232.83	16.40	-53.3	-55.5	3.7	0.00e+00	0	45	104	0	77	19315
2026-01-20 19:55:30.17	233.65	16.67	-53.4	-55.5	3.7	0.00e+00	0	45	104	0	77	19339
2026-01-20 19:55:33.19	234.49	16.94	-53.3	-55.4	3.7	0.00e+00	0	45	104	0	77	19224
2026-01-20 19:55:36.22	235.35	17.20	-53.3	-55.4	3.7	0.00e+00	0	45	104	0	77	19182
2026-01-20 19:55:39.24	236.22	17.47	-53.3	-55.5	3.7	0.00e+00	0	45	104	0	77	19292
2026-01-20 19:55:42.26	237.11	17.73	-53.3	-55.5	3.7	0.00e+00	0	45	104	0	77	19273
2026-01-20 19:55:45.29	238.02	17.99	-53.3	-55.4	3.7	0.00e+00	0	45	104	0	77	19228
2026-01-20 19:55:48.31	238.95	18.24	-53.3	-55.5	3.7	0.00e+00	0	45	104	0	77	19285
2026-01-20 19:55:51.33	239.89	18.49	-53.4	-55.5	3.7	0.00e+00	0	45	104	0	77	19331
2026-01-20 19:55:54.36	240.86	18.74	-53.4	-55.5	3.7	0.00e+00	0	45	104	0	77	19340
2026-01-20 19:55:57.38	241.84	18.99	-53.4	-55.5	3.7	0.00e+00	0	45	104	0	77	19302
2026-01-20 19:56:00.41	242.83	19.23	-53.4	-55.5	3.7	0.00e+00	0	45	104	0	77	19337
2026-01-20 19:56:03.44	243.85	19.47	-53.4	-55.5	3.7	0.00e+00	0	45	104	0	77	19383
2026-01-20 19:56:06.46	244.88	19.69	-53.4	-55.6	3.7	0.00e+00	0	45	104	0	77	19521
2026-01-20 19:56:09.49	245.94	19.92	-53.4	-55.5	3.7	0.00e+00	0	45	104	0	77	19478
2026-01-20 19:56:12.51	247.00	20.14	-53.4	-55.5	3.7	0.00e+00	0	45	104	0	77	19438
2026-01-20 19:56:15.53	248.08	20.35	-53.4	-55.5	3.7	0.00e+00	0	46	104	0	77	19439
2026-01-20 19:56:18.56	249.19	20.55	-53.4	-55.6	3.6	0.00e+00	0	45	104	0	77	19546
2026-01-20 19:56:21.58	250.30	20.75	-53.4	-55.6	3.7	0.00e+00	0	45	104	0	77	19480
2026-01-20 19:56:24.60	251.43	20.94	-53.4	-55.6	3.7	0.00e+00	0	45	104	0	77	19510
2026-01-20 19:56:27.63	252.58	21.12	-53.4	-55.6	3.7	0.00e+00	0	45	104	0	77	19501
2026-01-20 19:56:30.65	253.74	21.29	-53.4	-55.6	3.7	0.00e+00	0	45	104	0	77	19539
2026-01-20 19:56:33.67	254.92	21.45	-53.4	-55.6	3.7	0.00e+00	0	45	104	0	77	19526
2026-01-20 19:56:36.70	256.11	21.60	-53.4	-55.5	3.7	0.00e+00	0	45	104	0	77	19397
2026-01-20 19:56:39.72	257.30	21.74	-53.4	-55.6	3.7	0.00e+00	0	45	104	0	77	19551
2026-01-20 19:56:42.75	258.52	21.87	-53.4	-55.5	3.7	0.00e+00	0	45	104	0	77	19407
2026-01-20 19:56:45.77	259.74	21.99	-53.5	-55.6	3.7	0.00e+00	0	45	104	0	77	19511
2026-01-20 19:56:48.79	260.97	22.09	-53.4	-55.6	3.7	0.00e+00	0	45	104	0	77	19540
2026-01-20 19:56:51.82	262.22	22.19	-53.4	-55.6	3.7	0.00e+00	0	45	104	0	77	19538
2026-01-20 19:56:54.84	263.46	22.27	-53.5	-55.6	3.7	0.00e+00	0	46	104	0	77	19545
2026-01-20 19:56:57.87	264.72	22.34	-53.5	-55.6	3.7	0.00e+00	0	45	104	0	77	19621
2026-01-20 19:57:00.89	265.98	22.40	-53.5	-55.6	3.7	0.00e+00	0	45	104	0	77	19555
2026-01-20 19:57:03.92	267.25	22.45	-53.5	-55.6	3.7	0.00e+00	0	46	104	0	77	19603
2026-01-20 19:57:06.94	268.52	22.48	-53.5	-55.6	3.7	0.00e+00	0	45	104	0	77	19701
2026-01-20 19:57:09.96	269.79	22.50	-53.5	-55.7	3.7	0.00e+00	0	46	104	0	77	19729
2026-01-20 19:57:12.99	271.06	22.50	-53.5	-55.6	3.7	0.00e+00	0	45	104	0	77	19647
2026-01-20 19:57:16.01	272.33	22.49	-53.5	-55.6	3.7	0.00e+00	0	45	104	0	77	19673
2026-01-20 19:57:19.03	273.60	22.47	-53.5	-55.7	3.7	0.00e+00	0	46	104	0	77	19836
2026-01-20 19:57:22.06	274.87	22.44	-53.6	-55.7	3.7	0.00e+00	0	46	104	0	77	19732
2026-01-20 19:57:25.07	276.13	22.40	-53.5	-55.6	3.7	0.00e+00	0	46	104	0	77	19613
2026-01-20 19:57:28.10	277.39	22.34	-53.6	-55.7	3.7	0.00e+00	0	45	104	0	77	19712
2026-01-20 19:57:31.12	278.64	22.26	-53.6	-55.7	3.7	0.00e+00	0	45	104	0	77	19861
2026-01-20 19:57:34.15	279.89	22.18	-53.6	-55.7	3.7	0.00e+00	0	45	104	0	77	19871
2026-01-20 19:57:37.17	281.13	22.09	-53.6	-55.7	3.7	0.00e+00	0	45	104	0	77	19846
2026-01-20 19:57:40.19	282.36	21.98	-53.6	-55.7	3.7	0.00e+00	0	45	104	0	77	19879
2026-01-20 19:57:43.22	283.58	21.86	-53.7	-55.8	3.7	0.00e+00	0	45	104	0	77	20037
2026-01-20 19:57:46.24	284.78	21.73	-53.7	-55.8	3.7	0.00e+00	0	45	104	0	77	19981
2026-01-20 19:57:49.27	285.98	21.59	-53.7	-55.8	3.7	0.00e+00	0	46	104	0	77	20026
2026-01-20 19:57:52.29	287.16	21.44	-53.7	-55.8	3.7	0.00e+00	0	46	104	0	78	18991
2026-01-20 19:57:55.32	288.34	21.28	-53.7	-55.9	3.7	0.00e+00	0	45	104	0	78	19048
2026-01-20 19:57:58.34	289.49	21.11	-53.8	-55.9	3.7	0.00e+00	0	46	104	0	78	19087
2026-01-20 19:58:01.37	290.63	20.93	-53.8	-55.9	3.7	0.00e+00	0	46	104	0	78	19101
2026-01-20 19:58:04.39	291.76	20.74	-53.7	-55.8	3.7	0.00e+00	0	46	104	0	78	18977
2026-01-20 19:58:07.42	292.87	20.54	-53.8	-55.9	3.7	0.00e+00	0	46	104	0	78	19185
2026-01-20 19:58:10.44	293.96	20.34	-53.8	-55.9	3.7	0.00e+00	0	46	104	0	78	19210
2026-01-20 19:58:13.47	295.04	20.13	-53.8	-55.9	3.7	0.00e+00	0	46	104	0	78	19134
2026-01-20 19:58:16.49	296.10	19.91	-53.7	-55.9	3.7	0.00e+00	0	46	104	0	78	19095
2026-01-20 19:58:19.51	297.14	19.69	-53.8	-55.9	3.7	0.00e+00	0	45	104	0	78	19142
2026-01-20 19:58:22.54	298.17	19.46	-53.8	-55.9	3.7	0.00e+00	0	46	104	0	78	19110
2026-01-20 19:58:25.56	299.18	19.23	-53.7	-55.9	3.7	0.00e+00	0	46	104	0	78	19042
2026-01-20 19:58:28.58	300.17	18.99	-53.7	-55.8	3.7	0.00e+00	0	46	104	0	78	19027
2026-01-20 19:58:31.61	301.14	18.74	-53.7	-55.9	3.7	0.00e+00	0	46	104	0	78	19062
2026-01-20 19:58:34.63	302.09	18.50	-53.7	-55.9	3.7	0.00e+00	0	46	104	0	78	19087
2026-01-20 19:58:37.65	303.03	18.25	-53.7	-55.8	3.7	0.00e+00	0	45	104	0	78	18986
2026-01-20 19:58:40.68	303.95	17.99	-53.7	-55.8	3.7	0.00e+00	0	46	104	0	78	18946
2026-01-20 19:58:43.70	304.85	17.74	-53.7	-55.8	3.7	0.00e+00	0	46	104	0	78	18951
2026-01-20 19:58:46.73	305.74	17.48	-53.7	-55.8	3.7	0.00e+00	0	46	104	0	78	18889
2026-01-20 19:58:49.75	306.61	17.21	-53.7	-55.8	3.7	0.00e+00	0	45	104	0	78	18940
2026-01-20 19:58:52.77	307.45	16.95	-53.6	-55.8	3.7	0.00e+00	0	46	104	0	78	18849
2026-01-20 19:58:55.79	308.29	16.69	-53.6	-55.8	3.7	0.00e+00	0	46	104	0	78	18842
2026-01-20 19:58:58.82	309.11	16.42	-53.6	-55.7	3.7	0.00e+00	0	46	104	0	78	18803
2026-01-20 19:59:01.84	309.90	16.15	-53.6	-55.7	3.7	0.00e+00	0	46	104	0	78	18800
2026-01-20 19:59:04.86	310.69	15.89	-53.6	-55.7	3.7	0.00e+00	0	46	104	0	78	18708
2026-01-20 19:59:07.89	311.46	15.62	-53.6	-55.7	3.7	0.00e+00	0	45	104	0	78	18734
2026-01-20 19:59:10.91	312.21	15.35	-53.5	-55.7	3.7	0.00e+00	0	46	104	0	78	18641
2026-01-20 19:59:13.93	312.94	15.08	-53.6	-55.7	3.7	0.00e+00	0	46	104	0	78	18726
2026-01-20 19:59:16.96	313.66	14.81	-53.5	-55.6	3.7	0.00e+00	0	46	104	0	78	18602
2026-01-20 19:59:19.98	314.37	14.54	-53.5	-55.6	3.7	0.00e+00	0	46	104	0	78	18489
2026-01-20 19:59:23.00	315.06	14.27	-53.5	-55.6	3.7	0.00e+00	0	46	104	0	78	18542
2026-01-20 19:59:26.02	315.73	14.01	-53.5	-55.6	3.7	0.00e+00	0	46	104	0	78	18490
2026-01-20 19:59:29.05	316.40	13.74	-53.4	-55.6	3.7	0.00e+00	0	45	104	0	78	18396
2026-01-20 19:59:32.07	317.05	13.47	-53.4	-55.5	3.7	0.00e+00	0	46	104	0	78	18362
2026-01-20 19:59:35.09	317.68	13.21	-53.4	-55.5	3.7	0.00e+00	0	46	104	0	78	18274
2026-01-20 19:59:38.12	318.30	12.94	-53.4	-55.5	3.7	0.00e+00	0	45	104	0	78	18320
2026-01-20 19:59:41.14	318.91	12.68	-53.3	-55.4	3.7	0.00e+00	0	46	104	0	78	18154
2026-01-20 19:59:44.17	319.51	12.42	-53.3	-55.5	3.7	0.00e+00	0	45	104	0	78	18222
2026-01-20 19:59:47.19	320.09	12.16	-53.3	-55.4	3.7	0.00e+00	0	45	104	0	78	18043
2026-01-20 19:59:50.21	320.66	11.90	-53.3	-55.4	3.7	0.00e+00	0	45	104	0	78	18054
2026-01-20 19:59:53.23	321.22	11.64	-53.2	-55.4	3.7	0.00e+00	0	45	104	0	78	18018
2026-01-20 19:59:56.26	321.77	11.39	-53.2	-55.3	3.7	0.00e+00	0	46	104	0	78	17894
2026-01-20 19:59:59.28	322.31	11.13	-53.2	-55.3	3.7	0.00e+00	0	45	104	0	78	17918
2026-01-20 20:00:02.31	322.84	10.88	-53.2	-55.3	3.7	0.00e+00	0	46	104	0	78	17924
2026-01-20 20:00:05.33	323.35	10.63	-53.1	-55.3	3.7	0.00e+00	0	46	104	0	78	17818
2026-01-20 20:00:08.36	323.86	10.38	-53.1	-55.3	3.7	0.00e+00	0	45	104	0	78	17797
2026-01-20 20:00:11.39	324.36	10.13	-53.1	-55.2	3.7	0.00e+00	0	46	104	0	78	17745
2026-01-20 20:00:14.42	324.84	9.88	-53.1	-55.2	3.7	0.00e+00	0	46	104	0	78	17723
2026-01-20 20:00:17.44	325.32	9.64	-53.1	-55.2	3.7	0.00e+00	0	46	104	0	78	17689
2026-01-20 20:00:20.46	325.78	9.40	-53.1	-55.2	3.7	0.00e+00	0	46	104	0	78	17632
2026-01-20 20:00:23.49	326.24	9.15	-53.1	-55.2	3.7	0.00e+00	0	46	104	0	78	17564
2026-01-20 20:00:26.51	326.69	8.91	-53.0	-55.2	3.7	0.00e+00	0	45	104	0	78	17618
2026-01-20 20:00:29.54	327.13	8.68	-53.0	-55.1	3.7	0.00e+00	0	46	104	0	78	17553
2026-01-20 20:00:32.57	327.56	8.44	-53.0	-55.1	3.7	0.00e+00	0	46	104	0	78	17449
2026-01-20 20:00:35.59	327.99	8.21	-52.9	-55.1	3.7	0.00e+00	0	45	104	0	77	18439
2026-01-20 20:00:38.62	328.40	7.97	-52.9	-55.1	3.7	0.00e+00	0	46	104	0	77	18422
2026-01-20 20:00:41.64	328.81	7.74	-52.9	-55.1	3.7	0.00e+00	0	46	104	0	77	18473
2026-01-20 20:00:44.67	329.21	7.52	-52.9	-55.0	3.7	0.00e+00	0	45	104	0	77	18258
2026-01-20 20:00:47.69	329.60	7.29	-52.9	-55.0	3.7	0.00e+00	0	46	104	0	77	18271
2026-01-20 20:00:50.71	329.99	7.06	-52.8	-55.0	3.7	0.00e+00	0	45	104	0	77	18234
2026-01-20 20:00:53.74	330.36	6.84	-52.9	-55.0	3.7	0.00e+00	0	46	104	0	77	18294
2026-01-20 20:00:56.76	330.73	6.62	-52.8	-54.9	3.7	0.00e+00	0	46	104	0	77	18040
2026-01-20 20:00:59.79	331.10	6.40	-52.8	-54.9	3.7	0.00e+00	0	45	104	0	77	18131
2026-01-20 20:01:02.81	331.46	6.18	-52.7	-54.8	3.7	0.00e+00	0	46	104	0	77	17948
2026-01-20 20:01:05.83	331.81	5.96	-52.8	-54.9	3.7	0.00e+00	0	46	104	0	77	18114
2026-01-20 20:01:08.86	332.15	5.75	-52.6	-54.7	3.7	0.00e+00	0	46	104	0	77	17711
2026-01-20 20:01:11.89	332.49	5.54	-52.7	-54.8	3.7	0.00e+00	0	46	104	0	77	17791
2026-01-20 20:01:14.91	332.82	5.32	-52.5	-54.6	3.7	0.00e+00	0	46	104	0	77	17552
2026-01-20 20:01:17.94	333.15	5.11	-52.6	-54.8	3.7	0.00e+00	0	46	104	0	77	17769
2026-01-20 20:01:20.97	333.47	4.91	-53.0	-55.1	3.7	0.00e+00	0	46	104	0	76	19509
2026-01-20 20:01:23.99	333.79	4.70	-53.4	-55.5	3.7	0.00e+00	0	46	104	0	77	19299
2026-01-20 20:01:27.02	334.10	4.49	-53.5	-55.6	3.7	0.00e+00	0	46	104	0	77	19660
2026-01-20 20:01:30.04	334.41	4.29	-53.4	-55.5	3.7	0.00e+00	0	45	104	0	77	19392
2026-01-20 20:01:33.07	334.71	4.09	-53.3	-55.4	3.7	0.00e+00	0	46	104	0	77	19140
2026-01-20 20:01:36.09	335.00	3.89	-53.4	-55.5	3.7	0.00e+00	0	46	104	0	77	19434
2026-01-20 20:01:39.12	335.29	3.69	-53.5	-55.6	3.7	0.00e+00	0	46	104	0	77	19552
2026-01-20 20:01:42.14	335.58	3.49	-53.5	-55.6	3.7	0.00e+00	0	46	104	0	77	19588
2026-01-20 20:01:45.16	335.86	3.29	-53.4	-55.5	3.7	0.00e+00	0	46	104	0	77	19451
2026-01-20 20:01:48.19	336.14	3.10	-53.4	-55.6	3.7	0.00e+00	0	46	104	0	77	19498
2026-01-20 20:01:51.21	336.41	2.90	-53.4	-55.5	3.7	0.00e+00	0	46	104	0	77	19428
2026-01-20 20:01:54.24	336.68	2.71	-53.4	-55.6	3.7	0.00e+00	0	46	104	0	77	19497
2026-01-20 20:01:57.26	336.94	2.52	-53.4	-55.5	3.7	0.00e+00	0	46	104	0	77	19405
2026-01-20 20:02:00.29	337.20	2.33	-53.4	-55.5	3.7	0.00e+00	0	46	104	0	77	19370
2026-01-20 20:02:03.31	337.46	2.14	-53.4	-55.5	3.7	0.00e+00	0	46	104	0	77	19424
2026-01-20 20:02:06.34	337.71	1.95	-53.4	-55.5	3.7	0.00e+00	0	46	104	0	77	19456

#Closed at: 2026-01-20 20:02:06
#Recorded file [0 MB]: D:/lorett/data/31041_260120_225222.dat