passes_logs/2026/01/20/R3.2S_Murmansk/R3.2S_Murmansk__20260120_224848_NOAA_21_JPSS-2_rec.log

#Pass ID: 20260120_224848_NOAA 21 (JPSS-2)
#Satellite: NOAA 21 (JPSS-2)
#Configuration: NOAA-21
#almurnet v.1.7.20251203
#Start time: 2026-01-20 22:48:50

#Version: 2.2.20231116
#Station: R3.2S_Murmansk
#Location: 33.079688 lon 68.888172 lat
#TLE: 1 54234U 22150A   26020.29910383  .00000141  00000+0  87571-4 0  9990
#TLE: 2 54234  98.7506 321.1348 0000615 250.8428 109.2682 14.19536295165564

#Time	Az	El	Level	Level2	SNR	BER	BlckErr	Temp	State	Recorded	gain1	gain2
2026-01-20 22:48:50.53	19.53	2.12	-53.9	-66.7	3.8	1.49e+00	0	38	0	0	78	16585
2026-01-20 22:48:54.56	19.76	2.35	-53.7	-66.5	3.8	1.49e+00	0	38	104	0	78	16205
2026-01-20 22:48:58.59	20.00	2.59	-53.5	-66.2	3.8	1.49e+00	0	38	104	0	78	15739
2026-01-20 22:49:02.63	20.23	2.83	-52.8	-65.6	3.8	1.49e+00	0	39	104	0	77	15453
2026-01-20 22:49:06.66	20.47	3.07	-52.2	-64.8	3.8	1.49e+00	0	39	104	0	76	14937
2026-01-20 22:49:10.69	20.72	3.31	-52.2	-64.9	3.8	1.49e+00	0	39	104	0	76	15136
2026-01-20 22:49:14.73	20.96	3.56	-52.2	-64.9	3.8	1.49e+00	0	39	104	0	76	15138
2026-01-20 22:49:18.76	21.22	3.80	-52.1	-64.6	3.8	1.49e+00	0	39	104	0	76	14638
2026-01-20 22:49:22.80	21.47	4.05	-52.0	-63.6	3.8	1.49e+00	0	39	104	0	76	13074
2026-01-20 22:49:26.83	21.73	4.30	-51.7	-60.6	4.4	1.43e+00	0	39	104	0	75	9741
2026-01-20 22:49:30.87	21.99	4.55	-50.3	-54.9	8.7	4.72e-02	0	39	0	9437184	72	5999
2026-01-20 22:49:34.90	22.26	4.81	-49.0	-52.2	11.4	2.37e-03	0	39	0	20971520	69	5236
2026-01-20 22:49:38.93	22.53	5.06	-50.1	-54.4	9.2	1.83e-02	0	39	0	34603008	70	6378
2026-01-20 22:49:42.96	22.81	5.32	-48.7	-51.6	12.1	8.54e-05	0	39	0	41943040	67	5505
2026-01-20 22:49:46.99	23.09	5.58	-45.0	-46.4	17.3	0.00e+00	0	39	0	54525952	61	4276
2026-01-20 22:49:51.03	23.38	5.84	-45.2	-46.5	17.4	0.00e+00	0	39	0	67108864	61	4336
2026-01-20 22:49:55.06	23.67	6.10	-45.0	-46.3	17.6	0.00e+00	0	39	0	79691776	61	4223
2026-01-20 22:49:59.09	23.96	6.37	-44.6	-45.8	18.1	0.00e+00	0	39	0	92274688	61	3988
2026-01-20 22:50:03.12	24.26	6.64	-44.3	-45.5	18.5	0.00e+00	0	39	0	104857600	60	4087
2026-01-20 22:50:07.16	24.57	6.91	-44.5	-45.7	18.3	0.00e+00	0	39	0	117440512	60	4186
2026-01-20 22:50:11.18	24.88	7.18	-44.5	-45.7	18.4	0.00e+00	0	39	0	130023424	60	4147
2026-01-20 22:50:15.21	25.20	7.45	-44.3	-45.5	18.6	0.00e+00	0	39	0	142606336	60	4080
2026-01-20 22:50:19.25	25.52	7.73	-44.4	-45.6	18.5	0.00e+00	0	40	0	155189248	60	4124
2026-01-20 22:50:23.28	25.85	8.01	-44.3	-45.5	18.6	0.00e+00	0	40	0	167772160	60	4089
2026-01-20 22:50:27.31	26.18	8.29	-44.3	-45.5	18.6	0.00e+00	0	40	0	180355072	60	4077
2026-01-20 22:50:31.34	26.52	8.57	-44.3	-45.5	18.6	0.00e+00	0	39	0	192937984	60	4077
2026-01-20 22:50:35.37	26.87	8.86	-44.1	-45.2	18.9	0.00e+00	0	40	0	205520896	60	3955
2026-01-20 22:50:39.41	27.22	9.15	-44.3	-45.4	18.8	0.00e+00	0	40	0	218103808	60	4025
2026-01-20 22:50:43.44	27.58	9.44	-44.1	-45.2	19.0	0.00e+00	0	40	0	230686720	60	3945
2026-01-20 22:50:47.47	27.95	9.73	-44.3	-45.4	19.1	0.00e+00	0	40	0	243269632	59	4291
2026-01-20 22:50:51.51	28.32	10.03	-44.2	-45.3	19.3	0.00e+00	0	40	0	255852544	59	4206
2026-01-20 22:50:55.54	28.71	10.33	-44.0	-45.1	19.5	0.00e+00	0	40	0	269484032	59	4115
2026-01-20 22:50:59.58	29.10	10.63	-43.8	-44.8	19.8	0.00e+00	0	40	0	281018368	59	3979
2026-01-20 22:51:03.61	29.49	10.93	-43.8	-44.9	19.7	0.00e+00	0	40	0	293601280	59	4014
2026-01-20 22:51:07.65	29.90	11.24	-43.6	-44.6	20.0	0.00e+00	0	40	0	307232768	59	3905
2026-01-20 22:51:11.68	30.31	11.55	-43.5	-44.6	20.0	0.00e+00	0	40	0	319815680	59	3872
2026-01-20 22:51:15.72	30.73	11.86	-43.5	-44.5	20.1	0.00e+00	0	40	0	331350016	58	4060
2026-01-20 22:51:19.75	31.16	12.17	-43.3	-44.3	20.3	0.00e+00	0	40	0	344981504	58	3987
2026-01-20 22:51:23.79	31.60	12.49	-43.3	-44.2	20.4	0.00e+00	0	39	0	357564416	58	3956
2026-01-20 22:51:27.82	32.05	12.81	-43.2	-44.2	20.4	0.00e+00	0	40	0	370147328	58	3934
2026-01-20 22:51:31.86	32.50	13.13	-43.4	-44.3	20.3	0.00e+00	0	40	0	382730240	58	3993
2026-01-20 22:51:35.89	32.97	13.46	-43.2	-44.1	20.5	0.00e+00	0	39	0	395313152	58	3906
2026-01-20 22:51:39.93	33.45	13.79	-43.3	-44.2	20.4	0.00e+00	0	40	0	407896064	58	3945
2026-01-20 22:51:43.96	33.93	14.12	-43.3	-44.3	20.4	0.00e+00	0	40	0	420478976	58	3967
2026-01-20 22:51:48.00	34.43	14.45	-43.5	-44.5	20.2	0.00e+00	0	40	0	433061888	58	4055
2026-01-20 22:51:52.03	34.94	14.78	-43.5	-44.5	20.2	0.00e+00	0	39	0	445644800	58	4094
2026-01-20 22:51:56.07	35.46	15.12	-43.6	-44.6	20.1	0.00e+00	0	40	0	458227712	58	4131
2026-01-20 22:52:00.10	35.99	15.46	-43.6	-44.6	20.1	0.00e+00	0	40	0	470810624	58	4141
2026-01-20 22:52:04.13	36.53	15.81	-43.6	-44.6	20.2	0.00e+00	0	40	0	483393536	58	4140
2026-01-20 22:52:08.17	37.09	16.15	-43.8	-44.8	20.0	0.00e+00	0	40	0	495976448	58	4204
2026-01-20 22:52:12.20	37.65	16.50	-43.7	-44.6	20.2	0.00e+00	0	40	0	508559360	58	4141
2026-01-20 22:52:16.23	38.23	16.85	-43.3	-44.2	20.5	0.00e+00	0	40	0	521142272	58	3951
2026-01-20 22:52:20.27	38.83	17.20	-43.1	-44.0	20.7	0.00e+00	0	40	0	533725184	58	3856
2026-01-20 22:52:24.30	39.43	17.56	-43.3	-44.3	20.5	0.00e+00	0	40	0	546308096	58	3978
2026-01-20 22:52:28.33	40.05	17.92	-43.1	-44.0	20.6	0.00e+00	0	40	0	558891008	58	3858
2026-01-20 22:52:32.36	40.69	18.27	-43.0	-43.9	20.8	0.00e+00	0	40	0	571473920	57	4017
2026-01-20 22:52:36.40	41.34	18.64	-43.3	-44.2	20.6	0.00e+00	0	40	0	584056832	57	4172
2026-01-20 22:52:40.43	42.00	19.00	-43.3	-44.3	20.4	0.00e+00	0	40	0	596639744	57	4207
2026-01-20 22:52:44.46	42.68	19.36	-43.0	-43.9	20.8	0.00e+00	0	40	0	609222656	57	4050
2026-01-20 22:52:48.49	43.38	19.73	-43.0	-43.9	20.9	0.00e+00	0	40	0	621805568	57	4019
2026-01-20 22:52:52.52	44.09	20.09	-42.6	-43.5	21.2	0.00e+00	0	40	0	634388480	57	3831
2026-01-20 22:52:56.56	44.82	20.46	-42.2	-43.0	21.7	0.00e+00	0	40	0	646971392	56	3842
2026-01-20 22:53:00.57	45.57	20.83	-42.4	-43.2	21.4	0.00e+00	0	40	0	659554304	56	3952
2026-01-20 22:53:04.60	46.33	21.20	-42.4	-43.3	21.3	0.00e+00	0	40	0	672137216	56	3964
2026-01-20 22:53:08.63	47.11	21.57	-42.1	-43.0	21.7	0.00e+00	0	40	0	684720128	56	3833
2026-01-20 22:53:12.66	47.91	21.93	-42.4	-43.2	21.5	0.00e+00	0	40	0	697303040	56	3946
2026-01-20 22:53:16.70	48.73	22.30	-42.2	-43.1	21.6	0.00e+00	0	40	0	709885952	56	3877
2026-01-20 22:53:20.73	49.57	22.67	-41.8	-42.6	21.9	0.00e+00	0	40	0	722468864	55	3909
2026-01-20 22:53:24.77	50.43	23.04	-42.2	-43.0	21.6	0.00e+00	0	40	0	735051776	55	4080
2026-01-20 22:53:28.80	51.31	23.41	-42.2	-43.1	21.5	0.00e+00	0	40	0	747634688	55	4101
2026-01-20 22:53:32.84	52.21	23.77	-42.4	-43.2	21.5	0.00e+00	0	39	0	760217600	55	4182
2026-01-20 22:53:36.88	53.13	24.13	-42.3	-43.1	21.6	0.00e+00	0	40	0	772800512	55	4127
2026-01-20 22:53:40.91	54.07	24.49	-42.2	-43.1	21.6	0.00e+00	0	40	0	785383424	55	4101
2026-01-20 22:53:44.94	55.03	24.85	-42.6	-43.5	21.3	0.00e+00	0	40	0	797966336	55	4320
2026-01-20 22:53:48.98	56.02	25.20	-42.8	-43.7	21.2	0.00e+00	0	40	0	810549248	56	4162
2026-01-20 22:53:53.01	57.02	25.55	-42.5	-43.4	21.4	0.00e+00	0	40	0	823132160	56	4033
2026-01-20 22:53:57.04	58.05	25.89	-42.6	-43.4	21.4	0.00e+00	0	40	0	835715072	56	4043
2026-01-20 22:54:01.08	59.10	26.23	-42.7	-43.6	21.3	0.00e+00	0	40	0	848297984	56	4103
2026-01-20 22:54:05.11	60.17	26.56	-42.6	-43.4	21.2	0.00e+00	0	40	0	860880896	56	4034
2026-01-20 22:54:09.14	61.26	26.89	-42.4	-43.2	21.5	0.00e+00	0	40	0	874512384	56	3955
2026-01-20 22:54:13.18	62.37	27.21	-42.5	-43.4	21.3	0.00e+00	0	40	0	886046720	56	4010
2026-01-20 22:54:17.21	63.51	27.52	-42.5	-43.4	21.3	0.00e+00	0	40	0	898629632	56	4014
2026-01-20 22:54:21.24	64.67	27.82	-42.2	-43.0	21.8	0.00e+00	0	40	0	912261120	56	3866
2026-01-20 22:54:25.28	65.85	28.11	-42.8	-43.6	21.3	0.00e+00	0	40	0	924844032	56	4143
2026-01-20 22:54:29.31	67.04	28.39	-42.4	-43.3	21.6	0.00e+00	0	40	0	936378368	56	3966
2026-01-20 22:54:33.35	68.27	28.67	-42.6	-43.5	21.4	0.00e+00	0	40	0	950009856	56	4069
2026-01-20 22:54:37.38	69.51	28.93	-42.6	-43.4	21.5	0.00e+00	0	40	0	962592768	56	4041
2026-01-20 22:54:41.41	70.77	29.17	-42.4	-43.3	21.6	0.00e+00	0	40	0	974127104	56	3962
2026-01-20 22:54:45.45	72.05	29.41	-42.7	-43.5	21.4	0.00e+00	0	40	0	987758592	56	4084
2026-01-20 22:54:49.48	73.34	29.63	-42.7	-43.6	21.3	0.00e+00	0	40	0	1000341504	56	4114
2026-01-20 22:54:53.51	74.66	29.84	-42.7	-43.6	21.2	0.00e+00	0	40	0	1012924416	56	4131
2026-01-20 22:54:57.54	75.99	30.03	-43.1	-44.0	21.0	0.00e+00	0	40	0	1025507328	56	4312
2026-01-20 22:55:01.57	77.33	30.20	-43.2	-44.2	20.8	0.00e+00	0	40	0	1038090240	57	4153
2026-01-20 22:55:05.60	78.69	30.37	-42.9	-43.8	21.1	0.00e+00	0	40	0	1050673152	57	3970
2026-01-20 22:55:09.64	80.06	30.51	-42.9	-43.8	21.1	0.00e+00	0	40	0	1063256064	57	3973
2026-01-20 22:55:13.66	81.44	30.64	-43.2	-44.1	20.9	0.00e+00	0	40	0	1075838976	57	4119
2026-01-20 22:55:17.69	82.83	30.74	-43.0	-43.9	21.1	0.00e+00	0	40	0	1088421888	57	4021
2026-01-20 22:55:21.73	84.24	30.84	-42.9	-43.8	21.1	0.00e+00	0	40	0	1101004800	57	3987
2026-01-20 22:55:25.76	85.65	30.91	-43.0	-43.9	21.1	0.00e+00	0	40	0	1113587712	57	4031
2026-01-20 22:55:29.79	87.06	30.96	-43.4	-44.3	20.7	0.00e+00	0	40	0	1126170624	57	4221
2026-01-20 22:55:33.82	88.48	31.00	-43.5	-44.5	20.6	0.00e+00	0	40	0	1138753536	57	4295
2026-01-20 22:55:37.85	89.90	31.01	-43.2	-44.1	20.9	0.00e+00	0	40	0	1151336448	57	4128
2026-01-20 22:55:41.89	91.32	31.01	-43.2	-44.1	20.9	0.00e+00	0	40	0	1163919360	57	4103
2026-01-20 22:55:45.92	92.74	30.99	-43.0	-43.9	21.1	0.00e+00	0	40	0	1176502272	57	4015
2026-01-20 22:55:49.95	94.16	30.95	-43.1	-44.0	20.9	0.00e+00	0	40	0	1189085184	57	4090
2026-01-20 22:55:53.98	95.58	30.89	-43.0	-43.9	21.0	0.00e+00	0	40	0	1201668096	57	4043
2026-01-20 22:55:58.02	96.99	30.81	-43.0	-43.9	21.0	0.00e+00	0	40	0	1214251008	57	4042
2026-01-20 22:56:02.05	98.39	30.71	-42.6	-43.5	21.4	0.00e+00	0	40	0	1226833920	57	3839
2026-01-20 22:56:06.08	99.78	30.60	-43.0	-43.9	21.1	0.00e+00	0	40	0	1239416832	57	4033
2026-01-20 22:56:10.11	101.16	30.47	-42.8	-43.7	21.2	0.00e+00	0	40	0	1251999744	57	3949
2026-01-20 22:56:14.15	102.53	30.32	-42.8	-43.6	21.3	0.00e+00	0	40	0	1264582656	57	3900
2026-01-20 22:56:18.18	103.89	30.15	-43.2	-44.1	20.9	0.00e+00	0	40	0	1277165568	57	4115
2026-01-20 22:56:22.22	105.23	29.97	-42.9	-43.8	21.2	0.00e+00	0	40	0	1289748480	57	3978
2026-01-20 22:56:26.25	106.56	29.77	-43.0	-43.9	21.1	0.00e+00	0	40	0	1302331392	57	4005
2026-01-20 22:56:30.28	107.87	29.56	-42.7	-43.5	21.3	0.00e+00	0	40	0	1314914304	57	3858
2026-01-20 22:56:34.32	109.17	29.34	-42.8	-43.7	21.2	0.00e+00	0	40	0	1327497216	57	3946
2026-01-20 22:56:38.35	110.44	29.10	-42.8	-43.7	21.2	0.00e+00	0	40	0	1340080128	57	3945
2026-01-20 22:56:42.38	111.70	28.84	-43.0	-43.9	21.0	0.00e+00	0	40	0	1352663040	57	4020
2026-01-20 22:56:46.41	112.94	28.58	-42.9	-43.9	21.1	0.00e+00	0	40	0	1365245952	57	4005
2026-01-20 22:56:50.45	114.16	28.30	-42.7	-43.6	21.3	0.00e+00	0	40	0	1377828864	57	3903
2026-01-20 22:56:54.49	115.36	28.02	-42.9	-43.8	21.2	0.00e+00	0	40	0	1390411776	57	3961
2026-01-20 22:56:58.52	116.53	27.72	-42.6	-43.5	21.4	0.00e+00	0	40	0	1402994688	57	3829
2026-01-20 22:57:02.56	117.69	27.41	-42.7	-43.6	21.3	0.00e+00	0	40	0	1415577600	57	3894
2026-01-20 22:57:06.59	118.82	27.10	-42.6	-43.4	21.4	0.00e+00	0	40	0	1428160512	56	4040
2026-01-20 22:57:10.62	119.93	26.78	-42.3	-43.2	21.5	0.00e+00	0	40	0	1440743424	56	3927
2026-01-20 22:57:14.65	121.02	26.45	-42.2	-43.1	21.7	0.00e+00	0	40	0	1453326336	56	3884
2026-01-20 22:57:18.68	122.08	26.11	-41.6	-42.4	22.0	0.00e+00	0	40	0	1465909248	55	3799
2026-01-20 22:57:22.72	123.13	25.77	-42.1	-42.9	21.7	0.00e+00	0	40	0	1478492160	55	4024
2026-01-20 22:57:26.75	124.15	25.42	-42.1	-43.0	21.7	0.00e+00	0	40	0	1491075072	55	4064
2026-01-20 22:57:30.78	125.15	25.07	-42.2	-43.0	21.6	0.00e+00	0	40	0	1503657984	55	4077
2026-01-20 22:57:34.82	126.13	24.72	-42.2	-43.0	21.6	0.00e+00	0	40	0	1517289472	55	4090
2026-01-20 22:57:38.86	127.09	24.36	-42.0	-42.9	21.7	0.00e+00	0	40	0	1528823808	55	4009
2026-01-20 22:57:42.89	128.03	23.99	-41.9	-42.7	21.8	0.00e+00	0	40	0	1541406720	55	3949
2026-01-20 22:57:46.92	128.94	23.63	-41.9	-42.7	21.8	0.00e+00	0	40	0	1553989632	55	3930
2026-01-20 22:57:50.95	129.84	23.26	-42.1	-42.9	21.6	0.00e+00	0	40	0	1567621120	55	4026
2026-01-20 22:57:54.99	130.72	22.89	-42.5	-43.3	21.2	0.00e+00	0	40	0	1579155456	55	4241
2026-01-20 22:57:59.02	131.57	22.52	-42.2	-43.1	21.4	0.00e+00	0	40	0	1592786944	55	4113
2026-01-20 22:58:03.05	132.40	22.15	-42.2	-43.1	21.4	0.00e+00	0	40	0	1605369856	55	4103
2026-01-20 22:58:07.09	133.22	21.78	-42.0	-42.8	21.6	0.00e+00	0	40	0	1617952768	55	3999
2026-01-20 22:58:11.12	134.02	21.41	-42.0	-42.8	21.6	0.00e+00	0	40	0	1629487104	55	3978
2026-01-20 22:58:15.16	134.80	21.04	-41.9	-42.7	21.7	0.00e+00	0	40	0	1643118592	55	3930
2026-01-20 22:58:19.19	135.56	20.67	-42.0	-42.9	21.6	0.00e+00	0	40	0	1655701504	55	4005
2026-01-20 22:58:23.22	136.30	20.30	-42.5	-43.3	21.1	0.00e+00	0	40	0	1668284416	55	4242
2026-01-20 22:58:27.26	137.03	19.93	-42.5	-43.4	21.1	0.00e+00	0	40	0	1680867328	55	4247
2026-01-20 22:58:31.29	137.74	19.56	-42.3	-43.2	21.2	0.00e+00	0	40	0	1693450240	55	4174
2026-01-20 22:58:35.32	138.43	19.19	-42.1	-42.9	21.4	0.00e+00	0	40	0	1706033152	55	4043
2026-01-20 22:58:39.35	139.11	18.82	-42.2	-43.1	21.3	0.00e+00	0	40	0	1718616064	55	4107
2026-01-20 22:58:43.39	139.77	18.46	-42.3	-43.1	21.3	0.00e+00	0	40	0	1731198976	55	4138
2026-01-20 22:58:47.42	140.42	18.10	-42.2	-43.0	21.4	0.00e+00	0	40	0	1743781888	55	4080
2026-01-20 22:58:51.45	141.05	17.74	-42.2	-43.0	21.3	0.00e+00	0	40	0	1756364800	55	4088
2026-01-20 22:58:55.49	141.67	17.38	-42.3	-43.1	21.3	0.00e+00	0	40	0	1768947712	55	4141
2026-01-20 22:58:59.52	142.27	17.02	-42.2	-43.0	21.3	0.00e+00	0	40	0	1781530624	55	4088
2026-01-20 22:59:03.55	142.86	16.67	-42.5	-43.4	20.9	0.00e+00	0	40	0	1794113536	55	4282
2026-01-20 22:59:07.59	143.44	16.31	-42.8	-43.7	20.7	0.00e+00	0	40	0	1806696448	56	4190
2026-01-20 22:59:11.62	144.00	15.96	-42.9	-43.9	20.6	0.00e+00	0	40	0	1819279360	56	4265
2026-01-20 22:59:15.65	144.55	15.62	-43.2	-44.2	20.4	0.00e+00	0	40	0	1831862272	57	4147
2026-01-20 22:59:19.69	145.09	15.27	-43.2	-44.2	20.4	0.00e+00	0	40	0	1844445184	57	4159
2026-01-20 22:59:23.72	145.62	14.93	-43.4	-44.4	20.1	0.00e+00	0	40	0	1857028096	57	4259
2026-01-20 22:59:27.75	146.14	14.59	-43.7	-44.7	19.8	0.00e+00	0	40	0	1869611008	58	4187
2026-01-20 22:59:31.78	146.64	14.26	-43.6	-44.6	20.0	0.00e+00	0	40	0	1882193920	58	4103
2026-01-20 22:59:35.81	147.13	13.92	-43.5	-44.5	20.0	0.00e+00	0	40	0	1894776832	58	4080
2026-01-20 22:59:39.85	147.62	13.59	-43.7	-44.7	19.9	0.00e+00	0	40	0	1907359744	58	4158
2026-01-20 22:59:43.88	148.09	13.26	-43.8	-44.9	19.7	0.00e+00	0	40	0	1919942656	58	4246
2026-01-20 22:59:47.91	148.55	12.93	-43.8	-44.9	19.7	0.00e+00	0	40	0	1932525568	58	4253
2026-01-20 22:59:51.94	149.01	12.61	-43.4	-44.4	20.0	0.00e+00	0	40	0	1945108480	58	4034
2026-01-20 22:59:55.98	149.45	12.29	-43.5	-44.5	19.9	0.00e+00	0	40	0	1957691392	58	4083
2026-01-20 23:00:00.01	149.89	11.97	-43.6	-44.6	19.9	0.00e+00	0	40	0	1970274304	58	4109
2026-01-20 23:00:04.04	150.31	11.66	-43.9	-45.0	19.5	0.00e+00	0	40	0	1982857216	58	4301
2026-01-20 23:00:08.07	150.73	11.35	-44.0	-45.1	19.4	0.00e+00	0	40	0	1995440128	58	4344
2026-01-20 23:00:12.10	151.14	11.04	-44.0	-45.0	19.4	0.00e+00	0	40	0	2008023040	58	4337
2026-01-20 23:00:16.14	151.54	10.73	-43.9	-45.0	19.4	0.00e+00	0	40	0	2020605952	58	4306
2026-01-20 23:00:20.17	151.93	10.42	-43.8	-44.9	19.4	0.00e+00	0	40	0	2033188864	58	4256
2026-01-20 23:00:24.20	152.32	10.12	-43.8	-44.8	19.5	0.00e+00	0	40	0	2045771776	58	4240
2026-01-20 23:00:28.24	152.70	9.82	-43.7	-44.8	19.6	0.00e+00	0	40	0	2058354688	58	4195
2026-01-20 23:00:32.27	153.07	9.52	-43.8	-44.9	19.5	0.00e+00	0	40	0	2070937600	58	4245
2026-01-20 23:00:36.31	153.43	9.23	-44.0	-45.0	19.2	0.00e+00	0	40	0	2083520512	58	4338
2026-01-20 23:00:40.34	153.79	8.94	-44.1	-45.3	19.0	0.00e+00	0	40	0	2096103424	58	4455
2026-01-20 23:00:44.37	154.14	8.65	-44.4	-45.6	18.6	0.00e+00	0	40	0	2108686336	59	4348
2026-01-20 23:00:48.41	154.48	8.36	-44.5	-45.7	18.5	0.00e+00	0	40	0	2121269248	59	4401
2026-01-20 23:00:52.44	154.82	8.08	-44.4	-45.6	18.5	0.00e+00	0	40	0	2133852160	59	4378
2026-01-20 23:00:56.48	155.15	7.79	-44.6	-45.9	18.2	0.00e+00	0	40	0	2146435072	59	4502
2026-01-20 23:01:00.51	155.47	7.51	-44.7	-45.9	18.2	0.00e+00	0	40	0	2159017984	59	4515
2026-01-20 23:01:04.55	155.79	7.24	-44.5	-45.7	18.1	0.00e+00	0	40	0	2172649472	60	4162
2026-01-20 23:01:08.58	156.11	6.96	-44.6	-45.9	17.9	0.00e+00	0	40	0	2184183808	60	4260
2026-01-20 23:01:12.61	156.42	6.69	-44.8	-46.1	17.7	0.00e+00	0	40	0	2196766720	60	4381
2026-01-20 23:01:16.65	156.72	6.42	-44.9	-46.3	17.5	0.00e+00	0	40	0	2210398208	60	4464
2026-01-20 23:01:20.68	157.02	6.15	-45.3	-46.7	17.0	0.00e+00	0	40	0	2221932544	61	4439
2026-01-20 23:01:24.72	157.31	5.88	-45.0	-46.4	17.3	0.00e+00	0	40	0	2234515456	61	4269
2026-01-20 23:01:28.75	157.59	5.62	-45.4	-46.9	16.8	0.00e+00	0	40	0	2248146944	61	4536
2026-01-20 23:01:32.79	157.88	5.35	-45.9	-47.5	16.2	0.00e+00	0	40	0	2260729856	62	4555
2026-01-20 23:01:36.82	158.15	5.09	-45.6	-47.1	16.5	0.00e+00	0	40	0	2273312768	62	4359
2026-01-20 23:01:40.86	158.43	4.84	-52.8	-65.6	3.8	1.49e+00	0	40	104	2278555648	76	16359
2026-01-20 23:01:44.89	158.70	4.58	-53.2	-66.0	3.8	1.49e+00	0	40	104	2278555648	77	16207
2026-01-20 23:01:48.92	158.96	4.33	-53.5	-66.3	3.8	1.49e+00	0	40	104	2278555648	77	16732
2026-01-20 23:01:52.95	159.22	4.07	-53.7	-66.5	3.8	1.49e+00	0	40	104	2278555648	77	17213
2026-01-20 23:01:56.98	159.48	3.82	-53.9	-66.7	3.8	1.49e+00	0	40	104	2278555648	78	16525
2026-01-20 23:02:01.02	159.73	3.57	-54.0	-66.8	3.8	1.49e+00	0	40	104	2278555648	78	16820
2026-01-20 23:02:05.05	159.98	3.33	-54.0	-66.8	3.8	1.49e+00	0	40	104	2278555648	78	16843
2026-01-20 23:02:09.08	160.22	3.08	-54.0	-66.7	3.8	1.49e+00	0	40	104	2278555648	78	16639
2026-01-20 23:02:13.11	160.46	2.84	-53.8	-66.6	3.8	1.49e+00	0	40	104	2278555648	78	16371
2026-01-20 23:02:17.15	160.70	2.60	-53.6	-66.4	3.8	1.49e+00	0	40	104	2278555648	78	16019
2026-01-20 23:02:21.18	160.93	2.36	-53.3	-66.0	3.8	1.49e+00	0	40	104	2278555648	78	15302
2026-01-20 23:02:25.21	161.16	2.12	-53.1	-65.9	3.8	1.49e+00	0	40	104	2278555648	78	15083

#Closed at: 2026-01-20 23:02:29
#Recorded file [2278 MB]: D:/lorett/data/31041_260121_014850.dat