passes_logs/2026/01/20/R3.2S_Murmansk/R3.2S_Murmansk__20260120_004809_NOAA_21_JPSS-2_rec.log

#Pass ID: 20260120_004809_NOAA 21 (JPSS-2)
#Satellite: NOAA 21 (JPSS-2)
#Configuration: NOAA-21
#almurnet v.1.7.20251203
#Start time: 2026-01-20 00:48:11

#Version: 2.2.20231116
#Station: R3.2S_Murmansk
#Location: 33.079688 lon 68.888172 lat
#TLE: 1 54234U 22150A   26019.31231101  .00000073  00000+0  55355-4 0  9994
#TLE: 2 54234  98.7504 320.1599 0000604 258.3686 101.7423 14.19535697165426

#Time	Az	El	Level	Level2	SNR	BER	BlckErr	Temp	State	Recorded	gain1	gain2
2026-01-20 00:48:11.22	24.93	2.08	-51.6	-64.3	3.8	1.49e+00	0	37	0	0	75	14898
2026-01-20 00:48:15.24	24.94	2.34	-51.5	-64.0	3.8	1.49e+00	0	37	104	0	73	16194
2026-01-20 00:48:19.27	24.94	2.60	-51.5	-63.8	3.8	1.49e+00	0	37	104	0	73	15827
2026-01-20 00:48:23.30	24.94	2.87	-51.3	-61.2	4.1	1.48e+00	0	37	104	0	73	11799
2026-01-20 00:48:27.33	24.94	3.13	-49.8	-54.4	8.7	5.01e-02	0	37	0	6291456	71	6015
2026-01-20 00:48:31.37	24.94	3.40	-47.6	-50.2	12.9	7.32e-05	0	37	0	18874368	67	4662
2026-01-20 00:48:35.40	24.94	3.67	-45.9	-47.7	15.6	0.00e+00	0	37	0	31457280	63	4398
2026-01-20 00:48:39.43	24.94	3.95	-46.8	-48.9	14.2	7.00e-07	0	37	0	45088768	64	4786
2026-01-20 00:48:43.46	24.94	4.23	-48.7	-52.0	11.0	1.13e-03	0	37	0	56623104	67	5783
2026-01-20 00:48:47.49	24.94	4.51	-50.0	-54.8	8.2	3.37e-02	0	38	0	69206016	70	6678
2026-01-20 00:48:51.52	24.94	4.79	-50.6	-57.1	6.0	3.62e-01	0	38	0	81788928	72	7788
2026-01-20 00:48:55.55	24.94	5.07	-50.6	-56.0	7.1	1.02e+00	0	38	104	88080384	72	6862
2026-01-20 00:48:59.58	24.94	5.36	-50.0	-54.1	9.4	4.45e-02	0	38	0	95420416	72	5480
2026-01-20 00:49:03.61	24.94	5.66	-50.2	-54.2	9.5	1.63e-02	0	38	0	106954752	71	5921
2026-01-20 00:49:07.65	24.93	5.95	-50.3	-54.6	9.3	1.38e-02	0	38	0	120586240	71	6159
2026-01-20 00:49:11.68	24.93	6.25	-50.2	-54.2	9.7	9.28e-03	0	38	0	133169152	71	5900
2026-01-20 00:49:15.71	24.93	6.55	-49.0	-51.7	12.5	1.80e-04	0	38	0	145752064	69	4959
2026-01-20 00:49:19.74	24.92	6.86	-48.3	-50.6	13.7	2.20e-06	0	38	0	158334976	68	4599
2026-01-20 00:49:23.77	24.92	7.17	-47.2	-49.0	15.3	0.00e+00	0	38	0	170917888	66	4309
2026-01-20 00:49:27.80	24.92	7.48	-46.2	-47.8	16.5	0.00e+00	0	38	0	183500800	64	4197
2026-01-20 00:49:31.84	24.91	7.80	-46.4	-47.9	16.3	0.00e+00	0	38	0	196083712	64	4285
2026-01-20 00:49:35.87	24.91	8.12	-46.1	-47.6	16.7	0.00e+00	0	38	0	208666624	63	4379
2026-01-20 00:49:39.90	24.90	8.45	-45.3	-46.6	17.8	0.00e+00	0	38	0	221249536	62	4120
2026-01-20 00:49:43.93	24.89	8.78	-45.6	-47.0	17.5	0.00e+00	0	38	0	233832448	62	4312
2026-01-20 00:49:47.97	24.89	9.11	-45.0	-46.3	18.2	0.00e+00	0	38	0	246415360	62	3962
2026-01-20 00:49:52.00	24.88	9.45	-45.1	-46.3	18.1	0.00e+00	0	38	0	258998272	61	4242
2026-01-20 00:49:56.03	24.87	9.79	-45.3	-46.6	17.9	0.00e+00	0	38	0	271581184	61	4378
2026-01-20 00:50:00.06	24.86	10.14	-45.1	-46.4	18.2	0.00e+00	0	38	0	284164096	61	4253
2026-01-20 00:50:04.09	24.85	10.49	-44.9	-46.1	18.4	0.00e+00	0	38	0	296747008	61	4138
2026-01-20 00:50:08.13	24.84	10.85	-44.9	-46.1	18.5	0.00e+00	0	38	0	309329920	61	4104
2026-01-20 00:50:12.16	24.83	11.22	-44.5	-45.6	18.9	0.00e+00	0	38	0	321912832	60	4132
2026-01-20 00:50:16.19	24.82	11.58	-44.6	-45.7	18.9	0.00e+00	0	38	0	334495744	60	4173
2026-01-20 00:50:20.22	24.81	11.96	-44.3	-45.4	19.2	0.00e+00	0	38	0	347078656	60	4037
2026-01-20 00:50:24.26	24.79	12.34	-44.2	-45.3	19.4	0.00e+00	0	38	0	359661568	60	3959
2026-01-20 00:50:28.29	24.78	12.73	-44.3	-45.4	19.2	0.00e+00	0	38	0	372244480	60	4020
2026-01-20 00:50:32.32	24.76	13.12	-44.2	-45.2	19.4	0.00e+00	0	38	0	384827392	60	3939
2026-01-20 00:50:36.35	24.75	13.52	-44.1	-45.1	19.5	0.00e+00	0	38	0	397410304	60	3905
2026-01-20 00:50:40.38	24.73	13.92	-44.4	-45.4	19.5	0.00e+00	0	38	0	409993216	59	4290
2026-01-20 00:50:44.41	24.71	14.34	-44.2	-45.2	19.7	0.00e+00	0	38	0	422576128	59	4183
2026-01-20 00:50:48.44	24.70	14.76	-44.3	-45.3	19.7	0.00e+00	0	38	0	435159040	59	4225
2026-01-20 00:50:52.47	24.68	15.18	-44.2	-45.2	19.8	0.00e+00	0	38	0	447741952	59	4171
2026-01-20 00:50:56.50	24.66	15.62	-44.2	-45.3	19.7	0.00e+00	0	38	0	460324864	59	4205
2026-01-20 00:51:00.54	24.63	16.06	-44.2	-45.2	19.8	0.00e+00	0	38	0	472907776	59	4169
2026-01-20 00:51:04.57	24.61	16.51	-44.3	-45.4	19.7	0.00e+00	0	38	0	485490688	59	4251
2026-01-20 00:51:08.60	24.59	16.97	-44.2	-45.2	19.8	0.00e+00	0	38	0	498073600	59	4179
2026-01-20 00:51:12.63	24.56	17.44	-44.3	-45.3	19.8	0.00e+00	0	38	0	510656512	59	4227
2026-01-20 00:51:16.66	24.54	17.92	-44.2	-45.2	19.9	0.00e+00	0	38	0	523239424	59	4167
2026-01-20 00:51:20.70	24.51	18.40	-44.2	-45.3	19.8	0.00e+00	0	38	0	535822336	59	4200
2026-01-20 00:51:24.72	24.48	18.90	-44.1	-45.1	20.0	0.00e+00	0	38	0	548405248	59	4110
2026-01-20 00:51:28.75	24.45	19.41	-43.9	-44.9	20.2	0.00e+00	0	38	0	560988160	59	4036
2026-01-20 00:51:32.79	24.41	19.92	-43.9	-44.9	20.2	0.00e+00	0	38	0	573571072	59	4043
2026-01-20 00:51:36.82	24.38	20.45	-43.9	-44.8	20.3	0.00e+00	0	38	0	586153984	59	4002
2026-01-20 00:51:40.85	24.34	20.99	-43.8	-44.8	20.3	0.00e+00	0	39	0	598736896	59	3990
2026-01-20 00:51:44.89	24.31	21.55	-43.4	-44.3	20.7	0.00e+00	0	38	0	611319808	58	4001
2026-01-20 00:51:48.92	24.27	22.11	-43.4	-44.3	20.8	0.00e+00	0	39	0	623902720	58	3973
2026-01-20 00:51:52.95	24.22	22.68	-43.1	-44.0	21.1	0.00e+00	0	39	0	636485632	58	3848
2026-01-20 00:51:56.98	24.18	23.27	-42.8	-43.7	21.4	0.00e+00	0	38	0	649068544	57	3914
2026-01-20 00:52:01.01	24.13	23.88	-42.8	-43.7	21.3	0.00e+00	0	39	0	661651456	57	3922
2026-01-20 00:52:05.05	24.08	24.50	-43.0	-43.9	21.2	0.00e+00	0	38	0	674234368	57	4011
2026-01-20 00:52:09.08	24.03	25.13	-42.8	-43.7	21.3	0.00e+00	0	38	0	686817280	57	3930
2026-01-20 00:52:13.11	23.98	25.78	-43.1	-44.0	21.1	0.00e+00	0	38	0	699400192	57	4058
2026-01-20 00:52:17.14	23.92	26.44	-43.5	-44.5	20.7	0.00e+00	0	39	0	711983104	57	4300
2026-01-20 00:52:21.17	23.86	27.12	-44.2	-45.1	20.1	0.00e+00	0	38	0	724566016	58	4383
2026-01-20 00:52:25.21	23.79	27.82	-44.2	-45.2	20.0	0.00e+00	0	39	0	737148928	59	4184
2026-01-20 00:52:29.24	23.72	28.54	-44.3	-45.3	19.9	0.00e+00	0	39	0	749731840	59	4229
2026-01-20 00:52:33.28	23.65	29.28	-44.3	-45.3	20.0	0.00e+00	0	38	0	762314752	59	4198
2026-01-20 00:52:37.31	23.58	30.03	-44.2	-45.2	20.1	0.00e+00	0	39	0	774897664	59	4190
2026-01-20 00:52:41.34	23.49	30.81	-44.1	-45.1	20.3	0.00e+00	0	39	0	788529152	59	4111
2026-01-20 00:52:45.37	23.41	31.60	-44.0	-45.0	20.3	0.00e+00	0	39	0	800063488	59	4054
2026-01-20 00:52:49.40	23.32	32.42	-44.0	-45.0	20.3	0.00e+00	0	39	0	812646400	59	4065
2026-01-20 00:52:53.44	23.22	33.27	-44.5	-45.5	19.9	0.00e+00	0	39	0	826277888	59	4320
2026-01-20 00:52:57.47	23.12	34.13	-44.7	-45.7	19.4	0.00e+00	0	39	0	838860800	60	4191
2026-01-20 00:53:01.50	23.01	35.02	-45.2	-46.4	18.7	0.00e+00	0	39	0	850395136	61	4256
2026-01-20 00:53:05.53	22.89	35.94	-45.6	-46.8	18.4	0.00e+00	0	39	0	864026624	61	4463
2026-01-20 00:53:09.56	22.77	36.88	-45.5	-46.6	18.5	0.00e+00	0	39	0	876609536	61	4387
2026-01-20 00:53:13.59	22.64	37.85	-45.4	-46.6	18.6	0.00e+00	0	39	0	889192448	61	4360
2026-01-20 00:53:17.63	22.50	38.85	-45.7	-46.8	18.4	0.00e+00	0	39	0	901775360	62	4225
2026-01-20 00:53:21.66	22.34	39.88	-45.5	-46.6	18.6	0.00e+00	0	39	0	914358272	62	4142
2026-01-20 00:53:25.69	22.18	40.94	-45.9	-47.2	18.1	0.00e+00	0	39	0	926941184	62	4423
2026-01-20 00:53:29.72	22.00	42.04	-46.1	-47.4	17.9	0.00e+00	0	39	0	938475520	62	4517
2026-01-20 00:53:33.75	21.82	43.16	-46.0	-47.3	18.0	0.00e+00	0	39	0	952107008	62	4443
2026-01-20 00:53:37.78	21.61	44.32	-46.7	-48.1	17.2	0.00e+00	0	39	0	964689920	64	4356
2026-01-20 00:53:41.81	21.39	45.51	-46.4	-47.8	17.5	0.00e+00	0	38	0	977272832	64	4224
2026-01-20 00:53:45.85	21.15	46.75	-45.9	-47.1	18.3	0.00e+00	0	38	0	989855744	63	4104
2026-01-20 00:53:49.88	20.89	48.02	-45.1	-46.2	18.9	0.00e+00	0	39	0	1002438656	62	3947
2026-01-20 00:53:53.91	20.60	49.32	-44.5	-45.5	19.7	0.00e+00	0	39	0	1015021568	61	3847
2026-01-20 00:53:57.94	20.29	50.66	-45.1	-46.2	19.0	0.00e+00	0	39	0	1027604480	61	4184
2026-01-20 00:54:01.97	19.95	52.05	-45.1	-46.2	19.1	0.00e+00	0	38	0	1040187392	61	4150
2026-01-20 00:54:06.00	19.57	53.47	-44.1	-45.0	20.2	0.00e+00	0	39	0	1052770304	60	3862
2026-01-20 00:54:10.03	19.15	54.93	-44.2	-45.1	20.4	0.00e+00	0	39	0	1065353216	59	4133
2026-01-20 00:54:14.06	18.68	56.43	-43.6	-44.4	21.1	0.00e+00	0	39	0	1077936128	58	4050
2026-01-20 00:54:18.10	18.16	57.97	-43.6	-44.5	21.0	0.00e+00	0	39	0	1090519040	58	4069
2026-01-20 00:54:22.13	17.56	59.56	-43.6	-44.4	21.0	0.00e+00	0	39	0	1103101952	58	4051
2026-01-20 00:54:26.16	16.89	61.17	-43.6	-44.5	21.0	0.00e+00	0	39	0	1115684864	58	4080
2026-01-20 00:54:30.19	16.13	62.83	-42.9	-43.7	21.6	0.00e+00	0	39	0	1128267776	57	3958
2026-01-20 00:54:34.23	15.24	64.52	-42.8	-43.6	21.8	0.00e+00	0	39	0	1140850688	57	3907
2026-01-20 00:54:38.25	14.21	66.24	-42.3	-43.1	22.2	0.00e+00	0	39	0	1153433600	56	3879
2026-01-20 00:54:42.29	13.00	68.00	-42.5	-43.3	22.1	0.00e+00	0	39	0	1166016512	56	3967
2026-01-20 00:54:46.32	11.55	69.77	-42.9	-43.8	21.6	0.00e+00	0	39	0	1178599424	56	4207
2026-01-20 00:54:50.35	9.79	71.57	-43.1	-44.0	21.4	0.00e+00	0	39	0	1191182336	56	4333
2026-01-20 00:54:54.38	7.63	73.38	-43.3	-44.2	21.2	0.00e+00	0	39	0	1203765248	57	4184
2026-01-20 00:54:58.41	4.91	75.18	-42.7	-43.5	21.8	0.00e+00	0	39	0	1216348160	57	3853
2026-01-20 00:55:02.45	1.39	76.97	-43.0	-43.9	21.6	0.00e+00	0	38	0	1228931072	57	4018
2026-01-20 00:55:06.48	356.73	78.72	-43.2	-44.1	21.1	0.00e+00	0	39	0	1241513984	57	4106
2026-01-20 00:55:10.51	350.37	80.38	-42.9	-43.7	21.6	0.00e+00	0	39	0	1254096896	57	3944
2026-01-20 00:55:14.54	341.45	81.89	-42.9	-43.8	21.6	0.00e+00	0	38	0	1266679808	57	3961
2026-01-20 00:55:18.57	328.87	83.12	-44.0	-45.0	20.6	0.00e+00	0	39	0	1279262720	58	4299
2026-01-20 00:55:22.61	311.91	83.91	-43.1	-43.9	21.5	0.00e+00	0	39	0	1291845632	58	3820
2026-01-20 00:55:26.64	292.21	84.05	-42.9	-43.8	21.7	0.00e+00	0	39	0	1304428544	56	4210
2026-01-20 00:55:30.67	273.79	83.51	-43.6	-44.5	21.0	0.00e+00	0	39	0	1317011456	58	4091
2026-01-20 00:55:34.70	259.44	82.43	-43.2	-44.1	21.4	0.00e+00	0	39	0	1329594368	57	4108
2026-01-20 00:55:38.73	249.16	81.02	-43.0	-43.8	21.6	0.00e+00	0	39	0	1342177280	56	4214
2026-01-20 00:55:42.76	241.88	79.40	-43.0	-43.9	21.3	0.00e+00	0	39	0	1354760192	57	4029
2026-01-20 00:55:46.79	236.61	77.69	-43.5	-44.4	21.2	0.00e+00	0	38	0	1367343104	57	4245
2026-01-20 00:55:50.83	232.68	75.91	-42.6	-43.4	21.8	0.00e+00	0	39	0	1379926016	57	3799
2026-01-20 00:55:54.86	229.66	74.10	-42.4	-43.2	22.2	0.00e+00	0	39	0	1392508928	56	3922
2026-01-20 00:55:58.89	227.29	72.29	-43.2	-44.1	21.2	0.00e+00	0	39	0	1405091840	56	4349
2026-01-20 00:56:02.92	225.39	70.49	-42.0	-42.8	22.4	0.00e+00	0	38	0	1417674752	55	3964
2026-01-20 00:56:06.95	223.82	68.70	-43.3	-44.2	21.3	0.00e+00	0	39	0	1430257664	58	3932
2026-01-20 00:56:10.99	222.52	66.93	-42.2	-43.0	21.9	0.00e+00	0	39	0	1442840576	56	3843
2026-01-20 00:56:15.02	221.42	65.19	-43.0	-43.9	21.1	0.00e+00	0	39	0	1455423488	57	4020
2026-01-20 00:56:19.05	220.48	63.49	-42.0	-42.7	22.5	0.00e+00	0	39	0	1468006400	54	4181
2026-01-20 00:56:23.09	219.66	61.81	-43.3	-44.2	20.8	0.00e+00	0	39	0	1480589312	57	4155
2026-01-20 00:56:27.12	218.96	60.17	-42.0	-42.8	22.3	0.00e+00	0	39	0	1493172224	55	3975
2026-01-20 00:56:31.15	218.33	58.57	-44.2	-45.1	20.3	0.00e+00	0	39	0	1505755136	58	4372
2026-01-20 00:56:35.18	217.78	57.01	-43.0	-43.8	21.4	0.00e+00	0	39	0	1518338048	57	3994
2026-01-20 00:56:39.21	217.29	55.49	-44.4	-45.4	19.9	0.00e+00	0	39	0	1530920960	60	4042
2026-01-20 00:56:43.25	216.85	54.01	-45.2	-46.4	18.8	0.00e+00	0	39	0	1543503872	61	4249
2026-01-20 00:56:47.28	216.46	52.57	-44.1	-45.0	20.1	0.00e+00	0	39	0	1556086784	60	3846
2026-01-20 00:56:51.31	216.10	51.16	-46.0	-47.3	18.1	0.00e+00	0	39	0	1568669696	62	4447
2026-01-20 00:56:55.34	215.77	49.80	-46.3	-47.6	17.8	0.00e+00	0	38	0	1582301184	63	4371
2026-01-20 00:56:59.37	215.48	48.48	-46.1	-47.4	17.8	0.00e+00	0	39	0	1593835520	64	4041
2026-01-20 00:57:03.40	215.21	47.19	-45.0	-46.0	19.2	0.00e+00	0	39	0	1606418432	61	4092
2026-01-20 00:57:07.43	214.96	45.94	-46.5	-47.8	17.5	0.00e+00	0	39	0	1620049920	63	4467
2026-01-20 00:57:11.46	214.73	44.73	-47.0	-48.5	16.7	0.00e+00	0	39	0	1632632832	64	4593
2026-01-20 00:57:15.49	214.52	43.56	-46.8	-48.3	17.0	0.00e+00	0	39	0	1644167168	65	4218
2026-01-20 00:57:19.53	214.32	42.41	-45.4	-46.5	18.8	0.00e+00	0	38	0	1657798656	62	4074
2026-01-20 00:57:23.56	214.14	41.30	-46.6	-48.0	17.3	0.00e+00	0	39	0	1670381568	63	4565
2026-01-20 00:57:27.59	213.97	40.23	-46.2	-47.5	17.8	0.00e+00	0	39	0	1681915904	63	4322
2026-01-20 00:57:31.62	213.81	39.18	-46.0	-47.2	18.1	0.00e+00	0	39	0	1694498816	63	4186
2026-01-20 00:57:35.65	213.67	38.17	-46.0	-47.2	18.1	0.00e+00	0	39	0	1708130304	63	4186
2026-01-20 00:57:39.68	213.53	37.18	-45.2	-46.4	18.9	0.00e+00	0	38	0	1720713216	62	4010
2026-01-20 00:57:43.71	213.40	36.23	-44.2	-45.2	19.9	0.00e+00	0	39	0	1732247552	60	3933
2026-01-20 00:57:47.74	213.28	35.30	-44.7	-45.7	19.4	0.00e+00	0	39	0	1745879040	60	4174
2026-01-20 00:57:51.77	213.17	34.40	-44.9	-46.0	19.2	0.00e+00	0	39	0	1758461952	60	4323
2026-01-20 00:57:55.80	213.06	33.52	-44.8	-45.8	19.3	0.00e+00	0	39	0	1771044864	60	4237
2026-01-20 00:57:59.84	212.96	32.66	-44.1	-45.1	20.3	0.00e+00	0	39	0	1783627776	59	4112
2026-01-20 00:58:03.87	212.87	31.83	-44.1	-45.1	20.2	0.00e+00	0	39	0	1796210688	59	4124
2026-01-20 00:58:07.90	212.78	31.02	-44.4	-45.4	19.6	0.00e+00	0	39	0	1808793600	60	4040
2026-01-20 00:58:11.93	212.69	30.24	-44.2	-45.3	19.8	0.00e+00	0	39	0	1821376512	60	3966
2026-01-20 00:58:15.97	212.61	29.47	-44.1	-45.1	19.9	0.00e+00	0	39	0	1833959424	60	3871
2026-01-20 00:58:20.00	212.54	28.73	-44.3	-45.3	19.9	0.00e+00	0	39	0	1846542336	59	4210
2026-01-20 00:58:24.03	212.47	28.00	-44.0	-45.0	20.3	0.00e+00	0	39	0	1859125248	59	4052
2026-01-20 00:58:28.07	212.40	27.29	-43.8	-44.7	20.5	0.00e+00	0	39	0	1871708160	59	3951
2026-01-20 00:58:32.10	212.34	26.60	-43.6	-44.5	20.6	0.00e+00	0	39	0	1884291072	59	3861
2026-01-20 00:58:36.14	212.28	25.93	-43.5	-44.4	20.8	0.00e+00	0	39	0	1896873984	58	4019
2026-01-20 00:58:40.17	212.22	25.27	-43.5	-44.4	20.8	0.00e+00	0	39	0	1909456896	58	4020
2026-01-20 00:58:44.20	212.16	24.63	-43.4	-44.4	20.8	0.00e+00	0	38	0	1922039808	58	4009
2026-01-20 00:58:48.23	212.11	24.01	-43.6	-44.5	20.6	0.00e+00	0	39	0	1934622720	58	4093
2026-01-20 00:58:52.26	212.06	23.40	-43.7	-44.6	20.5	0.00e+00	0	39	0	1947205632	58	4138
2026-01-20 00:58:56.30	212.02	22.80	-43.5	-44.5	20.6	0.00e+00	0	39	0	1959788544	58	4061
2026-01-20 00:59:00.33	211.97	22.22	-43.4	-44.3	20.8	0.00e+00	0	39	0	1972371456	58	3962
2026-01-20 00:59:04.36	211.93	21.65	-43.4	-44.3	20.8	0.00e+00	0	39	0	1984954368	58	3981
2026-01-20 00:59:08.39	211.89	21.09	-43.5	-44.4	20.7	0.00e+00	0	39	0	1997537280	58	4028
2026-01-20 00:59:12.42	211.85	20.54	-43.4	-44.3	20.8	0.00e+00	0	39	0	2010120192	58	3970
2026-01-20 00:59:16.45	211.81	20.01	-43.7	-44.7	20.4	0.00e+00	0	39	0	2022703104	58	4162
2026-01-20 00:59:20.49	211.78	19.49	-43.7	-44.6	20.4	0.00e+00	0	39	0	2035286016	58	4143
2026-01-20 00:59:24.52	211.74	18.98	-43.8	-44.8	20.3	0.00e+00	0	39	0	2047868928	58	4200
2026-01-20 00:59:28.55	211.71	18.47	-44.0	-44.9	20.1	0.00e+00	0	39	0	2060451840	58	4289
2026-01-20 00:59:32.58	211.68	17.98	-44.2	-45.2	19.8	0.00e+00	0	39	0	2073034752	59	4182
2026-01-20 00:59:36.61	211.65	17.50	-44.3	-45.4	19.7	0.00e+00	0	39	0	2085617664	59	4251
2026-01-20 00:59:40.65	211.62	17.03	-44.3	-45.4	19.7	0.00e+00	0	39	0	2098200576	59	4244
2026-01-20 00:59:44.67	211.60	16.56	-44.4	-45.5	19.6	0.00e+00	0	39	0	2110783488	59	4311
2026-01-20 00:59:48.71	211.57	16.11	-44.6	-45.6	19.4	0.00e+00	0	39	0	2123366400	59	4380
2026-01-20 00:59:52.74	211.55	15.66	-44.5	-45.5	19.2	0.00e+00	0	39	0	2135949312	60	4096
2026-01-20 00:59:56.77	211.53	15.22	-44.5	-45.6	19.1	0.00e+00	0	39	0	2148532224	60	4103
2026-01-20 01:00:00.81	211.50	14.79	-44.4	-45.4	19.2	0.00e+00	0	39	0	2161115136	60	4051
2026-01-20 01:00:04.84	211.48	14.37	-44.6	-45.7	19.0	0.00e+00	0	38	0	2173698048	60	4168
2026-01-20 01:00:08.87	211.46	13.95	-44.7	-45.8	18.8	0.00e+00	0	39	0	2186280960	60	4231
2026-01-20 01:00:12.90	211.44	13.54	-44.8	-46.0	18.7	0.00e+00	0	39	0	2198863872	60	4304
2026-01-20 01:00:16.93	211.43	13.14	-44.7	-45.9	18.8	0.00e+00	0	39	0	2211446784	60	4243
2026-01-20 01:00:20.96	211.41	12.74	-44.7	-45.9	18.7	0.00e+00	0	39	0	2224029696	60	4251
2026-01-20 01:00:24.99	211.39	12.35	-44.6	-45.7	18.9	0.00e+00	0	39	0	2236612608	60	4171
2026-01-20 01:00:29.02	211.38	11.97	-44.7	-45.8	18.7	0.00e+00	0	39	0	2249195520	60	4241
2026-01-20 01:00:33.06	211.36	11.59	-44.7	-45.9	18.6	0.00e+00	0	39	0	2261778432	60	4267
2026-01-20 01:00:37.09	211.35	11.22	-44.8	-46.0	18.6	0.00e+00	0	39	0	2274361344	60	4315
2026-01-20 01:00:41.12	211.33	10.85	-45.0	-46.2	18.3	0.00e+00	0	39	0	2286944256	60	4421
2026-01-20 01:00:45.15	211.32	10.49	-45.1	-46.3	18.2	0.00e+00	0	39	0	2299527168	60	4465
2026-01-20 01:00:49.19	211.31	10.14	-45.4	-46.6	17.9	0.00e+00	0	39	0	2312110080	61	4389
2026-01-20 01:00:53.22	211.30	9.79	-45.2	-46.5	18.0	0.00e+00	0	39	0	2324692992	61	4301
2026-01-20 01:00:57.25	211.29	9.44	-45.4	-46.7	17.8	0.00e+00	0	39	0	2337275904	61	4400
2026-01-20 01:01:01.28	211.28	9.10	-45.2	-46.5	18.0	0.00e+00	0	39	0	2349858816	61	4307
2026-01-20 01:01:05.32	211.27	8.76	-45.3	-46.6	17.8	0.00e+00	0	39	0	2362441728	61	4353
2026-01-20 01:01:09.35	211.26	8.43	-45.4	-46.7	17.7	0.00e+00	0	39	0	2376073216	61	4407
2026-01-20 01:01:13.38	211.25	8.10	-45.5	-46.9	17.5	0.00e+00	0	39	0	2387607552	61	4505
2026-01-20 01:01:17.41	211.24	7.78	-45.7	-47.1	17.3	0.00e+00	0	39	0	2400190464	62	4375
2026-01-20 01:01:21.45	211.23	7.46	-45.7	-47.1	17.2	0.00e+00	0	39	0	2413821952	62	4390
2026-01-20 01:01:25.47	211.22	7.15	-45.9	-47.4	17.0	0.00e+00	0	39	0	2425356288	62	4503
2026-01-20 01:01:29.51	211.22	6.83	-46.0	-47.5	16.8	0.00e+00	0	39	0	2437939200	62	4556
2026-01-20 01:01:33.54	211.21	6.53	-46.2	-47.7	16.6	0.00e+00	0	39	0	2451570688	63	4412
2026-01-20 01:01:37.57	211.20	6.22	-46.3	-47.9	16.3	0.00e+00	0	39	0	2464153600	63	4528
2026-01-20 01:01:41.60	211.20	5.92	-46.5	-48.2	16.0	0.00e+00	0	39	0	2475687936	63	4659
2026-01-20 01:01:45.63	211.19	5.62	-46.8	-48.6	15.5	0.00e+00	0	39	0	2489319424	64	4615
2026-01-20 01:01:49.66	211.19	5.33	-46.7	-48.5	15.5	0.00e+00	0	39	0	2501902336	64	4572
2026-01-20 01:01:53.70	211.18	5.04	-46.3	-48.0	16.0	0.00e+00	0	39	0	2514485248	64	4312
2026-01-20 01:01:57.73	211.18	4.75	-53.4	-66.2	3.8	1.49e+00	0	39	104	2517630976	77	16515
2026-01-20 01:02:01.76	211.18	4.47	-53.7	-66.5	3.9	1.49e+00	0	39	104	2517630976	78	16230
2026-01-20 01:02:05.79	211.17	4.18	-53.9	-66.6	3.8	1.49e+00	0	39	104	2517630976	78	16460
2026-01-20 01:02:09.82	211.17	3.91	-54.0	-66.8	3.8	1.49e+00	0	39	104	2517630976	78	16801
2026-01-20 01:02:13.85	211.17	3.63	-54.1	-66.9	3.8	1.49e+00	0	39	104	2517630976	78	16925
2026-01-20 01:02:17.88	211.16	3.36	-54.1	-66.9	3.8	1.49e+00	0	39	104	2517630976	78	16892
2026-01-20 01:02:21.92	211.16	3.09	-54.0	-66.8	3.8	1.49e+00	0	39	104	2517630976	78	16740
2026-01-20 01:02:25.95	211.16	2.82	-54.0	-66.8	3.8	1.49e+00	0	39	104	2517630976	78	16744
2026-01-20 01:02:29.98	211.16	2.55	-54.0	-66.8	3.8	1.49e+00	0	39	104	2517630976	78	16719
2026-01-20 01:02:34.01	211.16	2.29	-54.0	-66.7	3.8	1.49e+00	0	39	104	2517630976	78	16689
2026-01-20 01:02:38.04	211.15	2.03	-54.0	-66.7	3.8	1.49e+00	0	39	104	2517630976	78	16628

#Closed at: 2026-01-20 01:02:40
#Recorded file [2517 MB]: D:/lorett/data/31041_260120_034811.dat