passes_logs/2026/01/20/R3.2S_Murmansk/R3.2S_Murmansk__20260120_122838_NOAA_21_JPSS-2_rec.log

#Pass ID: 20260120_122838_NOAA 21 (JPSS-2)
#Satellite: NOAA 21 (JPSS-2)
#Configuration: NOAA-21
#almurnet v.1.7.20251203
#Start time: 2026-01-20 12:28:39

#Version: 2.2.20231116
#Station: R3.2S_Murmansk
#Location: 33.079688 lon 68.888172 lat
#TLE: 1 54234U 22150A   26019.94667805  .00000106  00000+0  71222-4 0  9995
#TLE: 2 54234  98.7505 320.7866 0000607 253.4528 106.6582 14.19535964165511

#Time	Az	El	Level	Level2	SNR	BER	BlckErr	Temp	State	Recorded	gain1	gain2
2026-01-20 12:28:39.41	227.67	2.04	-49.2	-61.8	3.8	1.49e+00	0	38	0	0	70	14905
2026-01-20 12:28:42.43	227.93	2.19	-49.1	-61.8	3.8	1.49e+00	0	38	104	0	68	16703
2026-01-20 12:28:45.46	228.19	2.34	-49.1	-61.7	3.8	1.49e+00	0	38	104	0	68	16685
2026-01-20 12:28:48.49	228.46	2.50	-49.1	-61.8	3.8	1.49e+00	0	38	104	0	68	16736
2026-01-20 12:28:51.51	228.73	2.65	-49.1	-61.8	3.8	1.49e+00	0	38	104	0	68	16715
2026-01-20 12:28:54.53	229.00	2.80	-49.1	-61.8	3.8	1.49e+00	0	38	104	0	68	16726
2026-01-20 12:28:57.56	229.27	2.96	-49.1	-61.7	3.8	1.49e+00	0	38	104	0	68	16685
2026-01-20 12:29:00.58	229.55	3.11	-49.1	-61.7	3.8	1.49e+00	0	38	104	0	68	16533
2026-01-20 12:29:03.60	229.82	3.27	-49.1	-61.6	3.8	1.49e+00	0	38	104	0	68	16491
2026-01-20 12:29:06.63	230.11	3.42	-49.1	-61.7	3.8	1.49e+00	0	38	104	0	68	16575
2026-01-20 12:29:09.65	230.39	3.58	-49.1	-61.7	3.8	1.49e+00	0	38	104	0	68	16520
2026-01-20 12:29:12.67	230.68	3.73	-49.1	-61.7	3.8	1.49e+00	0	38	104	0	68	16623
2026-01-20 12:29:15.70	230.97	3.89	-49.1	-61.6	3.8	1.49e+00	0	38	104	0	68	16474
2026-01-20 12:29:18.72	231.26	4.04	-49.1	-61.6	3.8	1.49e+00	0	38	104	0	68	16454
2026-01-20 12:29:21.74	231.55	4.20	-49.1	-61.5	3.8	1.49e+00	0	38	104	0	68	16222
2026-01-20 12:29:24.77	231.85	4.36	-49.0	-61.2	3.8	1.49e+00	0	38	104	0	68	15698
2026-01-20 12:29:27.79	232.16	4.51	-49.0	-61.3	3.8	1.49e+00	0	38	104	0	68	15925
2026-01-20 12:29:30.81	232.46	4.67	-49.1	-61.6	3.8	1.49e+00	0	38	104	0	68	16495
2026-01-20 12:29:33.83	232.77	4.83	-49.0	-61.0	3.8	1.49e+00	0	38	104	0	68	15326
2026-01-20 12:29:36.86	233.08	4.99	-48.7	-58.1	4.2	1.47e+00	0	38	104	0	68	11023
2026-01-20 12:29:39.88	233.39	5.14	-49.0	-60.7	3.8	1.49e+00	0	38	104	0	68	14859
2026-01-20 12:29:42.90	233.71	5.30	-48.9	-59.7	3.8	9.84e-01	0	38	104	0	68	13121
2026-01-20 12:29:45.93	234.03	5.46	-48.5	-56.6	4.8	1.36e+00	0	38	104	1048576	68	9259
2026-01-20 12:29:48.95	234.36	5.62	-48.5	-57.3	4.0	9.53e-01	0	38	104	7340032	68	10028
2026-01-20 12:29:51.97	234.69	5.78	-49.0	-60.4	3.8	1.48e+00	0	38	104	8388608	68	14235
2026-01-20 12:29:54.99	235.02	5.94	-48.5	-56.5	4.8	1.18e+00	0	38	104	8388608	68	9173
2026-01-20 12:29:58.02	235.35	6.10	-48.5	-57.1	4.0	8.75e-01	0	38	104	14680064	68	9813
2026-01-20 12:30:01.04	235.69	6.26	-48.4	-56.1	5.0	6.88e-01	0	38	0	19922944	68	8758
2026-01-20 12:30:04.06	236.03	6.41	-49.0	-60.6	3.8	1.49e+00	0	38	104	24117248	68	14579
2026-01-20 12:30:07.08	236.38	6.57	-48.4	-56.1	5.0	8.63e-01	0	38	0	24117248	68	8746
2026-01-20 12:30:10.10	236.73	6.73	-48.3	-55.7	5.2	5.50e-01	0	38	0	33554432	68	8331
2026-01-20 12:30:13.13	237.08	6.89	-48.5	-56.7	4.7	1.44e+00	2	38	104	41943040	68	9312
2026-01-20 12:30:16.15	237.44	7.05	-48.4	-56.3	4.9	1.04e+00	0	38	104	45088768	68	8917
2026-01-20 12:30:19.17	237.80	7.21	-48.3	-55.7	5.3	5.88e-01	0	38	0	49283072	68	8319
2026-01-20 12:30:22.20	238.16	7.37	-48.3	-55.6	5.3	5.57e-01	0	38	0	58720256	68	8199
2026-01-20 12:30:25.22	238.53	7.53	-48.4	-55.9	5.2	6.55e-01	0	38	0	66060288	68	8471
2026-01-20 12:30:28.24	238.90	7.69	-48.9	-59.0	4.0	1.49e+00	0	38	104	68157440	68	12186
2026-01-20 12:30:31.26	239.28	7.85	-48.4	-56.0	5.1	6.31e-01	0	38	0	75497472	68	8603
2026-01-20 12:30:34.29	239.66	8.01	-48.3	-55.7	5.3	5.45e-01	0	38	0	84934656	68	8283
2026-01-20 12:30:37.31	240.04	8.17	-48.8	-59.3	3.9	1.49e+00	0	38	104	89128960	68	12544
2026-01-20 12:30:40.34	240.43	8.33	-48.3	-55.4	5.5	4.79e-01	0	38	0	91226112	68	7998
2026-01-20 12:30:43.36	240.82	8.49	-48.2	-55.0	5.7	4.03e-01	0	38	0	100663296	68	7675
2026-01-20 12:30:46.38	241.22	8.65	-48.5	-56.6	4.8	1.41e+00	0	38	104	108003328	68	9207
2026-01-20 12:30:49.41	241.62	8.81	-48.2	-54.8	5.9	5.61e-01	0	38	0	111149056	68	7506
2026-01-20 12:30:52.43	242.02	8.97	-48.2	-54.8	5.9	3.59e-01	0	38	0	116391936	68	7501
2026-01-20 12:30:55.45	242.43	9.13	-48.2	-54.9	5.8	3.73e-01	0	38	0	125829120	68	7581
2026-01-20 12:30:58.47	242.84	9.29	-48.3	-55.6	5.4	4.51e-01	0	38	0	133169152	68	8227
2026-01-20 12:31:01.49	243.26	9.45	-48.6	-57.3	4.0	1.46e+00	0	38	104	136314880	68	10054
2026-01-20 12:31:04.52	243.68	9.61	-48.2	-54.7	5.9	3.31e-01	0	38	0	144703488	68	7434
2026-01-20 12:31:07.54	244.11	9.76	-48.4	-55.9	5.2	3.47e-01	0	38	0	154140672	68	8545
2026-01-20 12:31:10.56	244.54	9.92	-48.6	-57.2	4.5	1.48e+00	0	38	104	157286400	68	9896
2026-01-20 12:31:13.59	244.97	10.08	-48.3	-55.3	5.6	4.51e-01	0	38	0	161480704	68	7936
2026-01-20 12:31:16.61	245.41	10.24	-48.2	-54.9	5.8	3.87e-01	0	38	0	170917888	68	7578
2026-01-20 12:31:19.63	245.86	10.39	-48.2	-54.8	5.9	1.03e+00	0	38	104	178257920	68	7505
2026-01-20 12:31:22.65	246.30	10.55	-48.5	-56.4	5.0	3.44e-01	0	38	0	183500800	68	8972
2026-01-20 12:31:25.68	246.76	10.70	-48.2	-54.7	6.0	3.65e-01	0	38	0	188743680	68	7435
2026-01-20 12:31:28.71	247.22	10.86	-48.1	-54.6	6.1	3.14e-01	0	38	0	198180864	68	7315
2026-01-20 12:31:31.73	247.68	11.01	-48.8	-59.2	3.9	1.00e+00	0	38	104	207618048	68	12453
2026-01-20 12:31:34.76	248.15	11.16	-48.3	-55.2	5.6	1.15e+00	0	38	104	209715200	68	7897
2026-01-20 12:31:37.78	248.62	11.32	-48.1	-54.5	6.2	2.91e-01	0	38	0	218103808	68	7230
2026-01-20 12:31:40.80	249.10	11.47	-48.6	-56.6	4.8	4.54e-01	0	38	0	227540992	68	9249
2026-01-20 12:31:43.82	249.58	11.62	-48.4	-55.5	5.5	5.70e-01	0	38	104	230686720	68	8124
2026-01-20 12:31:46.84	250.06	11.77	-48.0	-54.1	6.5	2.27e-01	0	38	0	235929600	68	6935
2026-01-20 12:31:49.87	250.56	11.92	-47.9	-53.7	6.7	1.91e-01	0	38	0	245366784	67	7037
2026-01-20 12:31:52.89	251.05	12.06	-48.0	-54.1	6.4	2.87e-01	0	38	0	254803968	67	7320
2026-01-20 12:31:55.91	251.55	12.21	-48.8	-58.7	3.9	9.63e-01	0	38	104	260046848	68	11772
2026-01-20 12:31:58.94	252.06	12.36	-48.1	-54.2	6.3	2.63e-01	0	38	0	267386880	68	7039
2026-01-20 12:32:01.96	252.57	12.50	-48.0	-54.1	6.5	2.30e-01	0	38	0	276824064	68	6932
2026-01-20 12:32:04.98	253.08	12.64	-49.0	-60.4	3.8	1.16e+00	0	38	104	285212672	68	14278
2026-01-20 12:32:08.01	253.60	12.79	-48.1	-54.2	6.4	2.91e-01	0	38	0	288358400	68	6993
2026-01-20 12:32:11.03	254.13	12.93	-48.0	-54.0	6.6	2.12e-01	0	38	0	297795584	68	6853
2026-01-20 12:32:14.05	254.66	13.07	-48.6	-57.4	4.0	7.97e-01	2	38	104	307232768	68	10114
2026-01-20 12:32:17.08	255.19	13.20	-48.5	-56.0	5.1	7.46e-01	0	38	0	310378496	68	8661
2026-01-20 12:32:20.10	255.73	13.34	-48.2	-54.7	6.0	3.19e-01	0	38	0	316669952	68	7394
2026-01-20 12:32:23.12	256.27	13.47	-48.1	-54.2	6.4	2.56e-01	0	38	0	326107136	68	7028
2026-01-20 12:32:26.14	256.82	13.61	-48.1	-54.2	6.4	2.53e-01	0	38	0	335544320	68	7032
2026-01-20 12:32:29.16	257.38	13.74	-48.8	-57.9	4.3	1.05e+00	0	38	104	339738624	68	10697
2026-01-20 12:32:32.19	257.94	13.87	-48.0	-53.9	6.6	2.07e-01	0	38	0	347078656	68	6798
2026-01-20 12:32:35.21	258.50	14.00	-48.0	-54.0	6.4	2.37e-01	0	38	0	357564416	67	7285
2026-01-20 12:32:38.24	259.07	14.12	-49.0	-60.0	3.8	1.49e+00	0	38	104	363855872	68	13633
2026-01-20 12:32:41.26	259.64	14.25	-48.1	-54.1	6.5	2.30e-01	0	38	0	367001600	68	6931
2026-01-20 12:32:44.27	260.21	14.37	-47.9	-53.7	6.8	1.95e-01	0	38	0	376438784	67	7009
2026-01-20 12:32:47.30	260.80	14.49	-48.2	-55.0	5.7	4.90e-01	0	38	0	385875968	67	8129
2026-01-20 12:32:50.32	261.38	14.60	-48.1	-54.3	6.3	7.30e-01	0	38	0	391118848	68	7104
2026-01-20 12:32:53.34	261.97	14.72	-48.0	-53.9	6.6	2.10e-01	0	38	0	397410304	68	6794
2026-01-20 12:32:56.37	262.57	14.83	-47.8	-53.5	6.9	1.67e-01	0	38	0	406847488	67	6855
2026-01-20 12:32:59.39	263.16	14.94	-48.0	-54.0	6.5	1.83e-01	0	38	0	416284672	67	7251
2026-01-20 12:33:02.41	263.77	15.05	-48.4	-55.5	5.4	7.81e-01	0	38	104	418381824	68	8127
2026-01-20 12:33:05.43	264.37	15.16	-48.0	-53.9	6.7	2.18e-01	0	38	0	426770432	68	6770
2026-01-20 12:33:08.45	264.99	15.26	-48.0	-54.0	6.5	1.64e-01	0	38	0	436207616	67	7257
2026-01-20 12:33:11.47	265.60	15.36	-48.8	-58.5	3.9	1.49e+00	0	38	104	443547648	68	11461
2026-01-20 12:33:14.50	266.22	15.46	-47.8	-53.5	7.0	1.64e-01	0	38	0	446693376	67	6839
2026-01-20 12:33:17.52	266.84	15.55	-47.8	-53.5	7.0	1.53e-01	0	38	0	457179136	67	6819
2026-01-20 12:33:20.54	267.47	15.64	-47.9	-53.7	6.8	2.26e-01	0	38	0	465567744	67	6960
2026-01-20 12:33:23.57	268.10	15.73	-47.9	-53.7	6.9	3.67e-01	0	38	0	469762048	67	6985
2026-01-20 12:33:26.59	268.74	15.82	-47.8	-53.4	7.1	1.45e-01	0	38	0	476053504	67	6761
2026-01-20 12:33:29.61	269.37	15.90	-47.8	-53.3	7.2	1.38e-01	0	38	0	486539264	67	6650
2026-01-20 12:33:32.63	270.01	15.98	-48.7	-57.9	4.3	4.37e-01	3	38	0	492830720	67	11331
2026-01-20 12:33:35.66	270.66	16.06	-48.0	-54.1	6.4	1.14e+00	0	38	104	494927872	67	7359
2026-01-20 12:33:38.68	271.31	16.13	-47.7	-53.1	7.3	1.21e-01	0	38	0	503316480	67	6548
2026-01-20 12:33:41.70	271.96	16.21	-48.1	-54.5	6.2	1.43e-01	0	38	0	512753664	67	7686
2026-01-20 12:33:44.73	272.61	16.27	-48.8	-58.2	4.2	1.47e+00	0	38	104	519045120	68	11089
2026-01-20 12:33:47.75	273.27	16.34	-47.8	-53.2	7.3	1.24e-01	0	38	0	526385152	67	6571
2026-01-20 12:33:50.77	273.93	16.40	-47.8	-53.2	7.3	1.25e-01	0	38	0	535822336	67	6601
2026-01-20 12:33:53.80	274.59	16.45	-47.8	-53.4	7.1	2.06e-01	0	38	0	545259520	67	6741
2026-01-20 12:33:56.82	275.25	16.51	-48.4	-55.6	5.4	1.65e-01	0	38	0	548405248	67	8744
2026-01-20 12:33:59.85	275.92	16.56	-47.8	-53.2	7.3	1.28e-01	0	38	0	557842432	67	6608
2026-01-20 12:34:02.87	276.59	16.60	-47.9	-53.4	7.1	1.44e-01	0	38	0	567279616	67	6774
2026-01-20 12:34:05.89	277.26	16.65	-49.1	-60.2	3.8	7.21e-01	0	38	104	575668224	68	13960
2026-01-20 12:34:08.91	277.93	16.69	-47.8	-53.2	7.4	1.62e-01	0	38	0	578813952	67	6620
2026-01-20 12:34:11.94	278.60	16.72	-47.8	-53.2	7.3	1.20e-01	0	38	0	588251136	67	6642
2026-01-20 12:34:14.96	279.28	16.75	-48.1	-54.2	6.5	1.85e-01	0	38	0	597688320	67	7397
2026-01-20 12:34:17.99	279.95	16.78	-49.2	-60.8	3.8	1.49e+00	0	38	104	602931200	68	14892
2026-01-20 12:34:21.01	280.63	16.81	-47.9	-53.4	7.2	1.35e-01	0	38	0	609222656	67	6787
2026-01-20 12:34:24.03	281.31	16.83	-47.9	-53.3	7.3	1.27e-01	0	38	0	618659840	67	6711
2026-01-20 12:34:27.05	281.99	16.84	-48.1	-53.8	6.8	1.82e-01	0	38	0	628097024	67	7104
2026-01-20 12:34:30.08	282.67	16.86	-48.6	-55.4	5.6	3.20e-01	0	38	0	631242752	68	8052
2026-01-20 12:34:33.10	283.35	16.86	-48.0	-53.5	7.3	1.26e-01	0	38	0	639631360	68	6436
2026-01-20 12:34:36.13	284.03	16.87	-48.1	-53.6	7.2	1.40e-01	0	38	0	650117120	68	6511
2026-01-20 12:34:39.15	284.71	16.87	-49.2	-59.5	4.0	1.48e+00	0	38	104	657457152	69	12125
2026-01-20 12:34:42.18	285.39	16.87	-48.1	-53.6	7.3	1.31e-01	0	38	0	661651456	68	6511
2026-01-20 12:34:45.20	286.07	16.86	-48.1	-53.7	7.1	1.40e-01	0	38	0	671088640	68	6612
2026-01-20 12:34:48.22	286.75	16.85	-48.2	-53.9	6.9	1.59e-01	0	38	0	680525824	68	6734
2026-01-20 12:34:51.25	287.43	16.84	-49.4	-61.4	3.8	1.49e+00	0	38	104	684720128	69	15059
2026-01-20 12:34:54.27	288.10	16.82	-48.1	-53.5	7.3	1.19e-01	0	38	0	692060160	68	6473
2026-01-20 12:34:57.29	288.78	16.80	-48.1	-53.5	7.4	1.15e-01	0	38	0	701497344	68	6440
2026-01-20 12:35:00.31	289.46	16.77	-48.8	-56.2	5.3	4.90e-01	0	38	0	710934528	68	8775
2026-01-20 12:35:03.34	290.13	16.74	-48.4	-54.3	6.6	2.28e-01	0	38	0	713031680	68	7074
2026-01-20 12:35:06.36	290.81	16.71	-48.2	-53.7	7.2	1.43e-01	0	38	0	722468864	68	6588
2026-01-20 12:35:09.39	291.48	16.68	-48.2	-53.9	7.0	1.59e-01	0	38	0	731906048	68	6761
2026-01-20 12:35:12.41	292.15	16.63	-49.4	-60.2	3.8	1.46e+00	0	38	104	739246080	69	13175
2026-01-20 12:35:15.43	292.82	16.59	-48.2	-53.7	7.2	1.28e-01	0	38	0	744488960	68	6593
2026-01-20 12:35:18.45	293.48	16.54	-48.3	-53.9	7.0	1.59e-01	0	38	0	753926144	68	6769
2026-01-20 12:35:21.48	294.15	16.49	-48.7	-55.7	5.6	3.25e-01	0	38	0	763363328	68	8307
2026-01-20 12:35:24.50	294.81	16.44	-49.1	-58.5	3.9	1.49e+00	0	38	104	764411904	69	10874
2026-01-20 12:35:27.52	295.47	16.38	-48.5	-54.6	6.4	2.48e-01	0	38	0	771751936	68	7318
2026-01-20 12:35:30.54	296.13	16.32	-48.4	-54.3	6.6	2.21e-01	0	38	0	781189120	68	7109
2026-01-20 12:35:33.57	296.78	16.25	-49.3	-59.2	4.1	3.01e-01	6	38	0	790626304	69	11736
2026-01-20 12:35:36.59	297.43	16.19	-48.3	-54.0	7.0	1.84e-01	0	38	0	793772032	68	6818
2026-01-20 12:35:39.61	298.08	16.11	-48.2	-53.8	7.2	1.35e-01	0	38	0	804257792	68	6662
2026-01-20 12:35:42.64	298.73	16.04	-48.2	-53.7	7.3	1.19e-01	0	38	0	813694976	68	6608
2026-01-20 12:35:45.66	299.37	15.96	-48.9	-57.2	4.1	1.49e+00	0	38	104	818937856	69	9364
2026-01-20 12:35:48.68	300.01	15.88	-48.3	-53.9	7.1	1.49e-01	0	38	0	826277888	68	6748
2026-01-20 12:35:51.71	300.64	15.80	-48.3	-54.0	7.0	1.66e-01	0	38	0	835715072	68	6803
2026-01-20 12:35:54.73	301.27	15.71	-48.3	-54.2	6.8	1.98e-01	0	38	0	845152256	68	6980
2026-01-20 12:35:57.75	301.90	15.62	-48.4	-54.1	6.9	2.05e-01	0	38	0	848297984	68	6959
2026-01-20 12:36:00.77	302.53	15.53	-48.2	-53.7	7.2	1.40e-01	0	38	0	857735168	68	6645
2026-01-20 12:36:03.79	303.15	15.43	-48.2	-53.6	7.3	1.27e-01	0	38	0	867172352	68	6553
2026-01-20 12:36:06.82	303.76	15.34	-49.5	-61.9	3.8	1.43e+00	0	38	104	875560960	69	16099
2026-01-20 12:36:09.84	304.38	15.23	-48.2	-53.8	7.2	1.69e-01	0	38	0	881852416	68	6674
2026-01-20 12:36:12.87	304.99	15.13	-48.3	-53.9	7.1	1.42e-01	0	38	0	891289600	68	6741
2026-01-20 12:36:15.89	305.59	15.03	-48.5	-54.7	6.4	1.67e-01	0	38	0	900726784	68	7393
2026-01-20 12:36:18.91	306.19	14.92	-48.9	-56.3	5.2	6.18e-01	0	38	0	905969664	69	8410
2026-01-20 12:36:21.94	306.79	14.81	-48.3	-54.1	6.8	1.78e-01	0	38	0	915406848	68	6932
2026-01-20 12:36:24.96	307.38	14.69	-48.2	-53.8	7.1	1.46e-01	0	38	0	924844032	68	6704
2026-01-20 12:36:27.99	307.97	14.58	-48.2	-53.7	7.2	1.54e-01	0	38	0	934281216	68	6598
2026-01-20 12:36:31.01	308.55	14.46	-48.7	-55.4	5.8	1.93e-01	0	38	0	939524096	68	8058
2026-01-20 12:36:34.03	309.13	14.34	-48.2	-53.8	7.1	1.51e-01	0	38	0	948961280	68	6713
2026-01-20 12:36:37.06	309.70	14.22	-48.2	-53.9	6.9	1.58e-01	0	38	0	958398464	68	6785
2026-01-20 12:36:40.08	310.27	14.09	-49.4	-61.8	3.8	1.49e+00	0	38	104	966787072	69	15866
2026-01-20 12:36:43.10	310.83	13.97	-48.4	-54.7	6.3	2.73e-01	0	38	0	972029952	68	7397
2026-01-20 12:36:46.13	311.39	13.84	-48.3	-54.1	6.8	1.86e-01	0	38	0	982515712	68	6881
2026-01-20 12:36:49.15	311.95	13.71	-48.2	-53.8	7.1	1.61e-01	0	38	0	990904320	68	6650
2026-01-20 12:36:52.17	312.50	13.58	-48.6	-55.4	5.7	5.36e-01	0	38	104	995098624	69	7615
2026-01-20 12:36:55.20	313.04	13.45	-48.3	-54.1	6.7	1.95e-01	0	38	0	1004535808	68	6934
2026-01-20 12:36:58.22	313.58	13.31	-48.3	-54.2	6.7	1.96e-01	0	38	0	1013972992	68	6964
2026-01-20 12:37:01.24	314.12	13.18	-48.6	-55.3	5.9	2.40e-01	0	38	0	1023410176	68	7932
2026-01-20 12:37:04.27	314.65	13.04	-48.9	-57.1	4.7	1.47e+00	2	38	104	1025507328	68	9731
2026-01-20 12:37:07.29	315.18	12.90	-48.3	-54.4	6.5	2.37e-01	0	38	0	1033895936	68	7182
2026-01-20 12:37:10.32	315.70	12.76	-48.3	-54.5	6.4	2.57e-01	0	38	0	1043333120	68	7251
2026-01-20 12:37:13.34	316.22	12.62	-49.2	-60.5	3.8	1.49e+00	0	38	104	1049624576	69	13653
2026-01-20 12:37:16.37	316.73	12.48	-48.5	-55.1	5.9	3.84e-01	0	38	0	1053818880	68	7782
2026-01-20 12:37:19.39	317.24	12.34	-48.3	-54.3	6.5	2.34e-01	0	38	0	1063256064	68	7082
2026-01-20 12:37:22.41	317.74	12.19	-48.4	-54.8	6.0	4.89e-01	0	38	0	1072693248	68	7541
2026-01-20 12:37:25.43	318.24	12.04	-48.4	-54.7	6.2	4.31e-01	0	38	0	1076887552	68	7429
2026-01-20 12:37:28.46	318.73	11.90	-48.5	-55.2	5.8	3.93e-01	0	38	0	1083179008	68	7861
2026-01-20 12:37:31.48	319.22	11.75	-48.4	-54.8	6.1	3.10e-01	0	38	0	1092616192	68	7529
2026-01-20 12:37:34.50	319.70	11.60	-49.0	-59.1	3.9	4.58e-01	2	38	104	1102053376	68	12307
2026-01-20 12:37:37.53	320.18	11.45	-48.7	-56.1	5.2	1.10e+00	0	38	104	1104150528	68	8724
2026-01-20 12:37:40.55	320.65	11.30	-48.3	-54.8	6.1	3.32e-01	0	38	0	1113587712	68	7491
2026-01-20 12:37:43.57	321.12	11.15	-48.3	-54.4	6.4	2.40e-01	0	38	0	1123024896	68	7176
2026-01-20 12:37:46.60	321.59	11.00	-48.9	-58.4	3.9	1.49e+00	0	38	104	1128267776	69	10776
2026-01-20 12:37:49.62	322.05	10.84	-48.5	-55.6	5.5	4.85e-01	0	38	0	1132462080	68	8179
2026-01-20 12:37:52.64	322.50	10.69	-48.5	-55.3	5.7	4.08e-01	0	38	0	1141899264	68	7968
2026-01-20 12:37:55.67	322.95	10.54	-48.4	-55.1	5.8	4.19e-01	0	38	0	1151336448	68	7782
2026-01-20 12:37:58.69	323.40	10.38	-48.7	-56.6	5.0	5.48e-01	0	38	0	1154482176	69	8684
2026-01-20 12:38:01.71	323.84	10.23	-48.4	-55.3	5.7	4.63e-01	0	38	0	1159725056	68	7935
2026-01-20 12:38:04.74	324.28	10.07	-48.3	-54.8	6.1	3.11e-01	0	38	0	1169162240	68	7481
2026-01-20 12:38:07.76	324.71	9.92	-49.2	-61.4	3.8	1.43e+00	0	38	104	1177550848	68	16068
2026-01-20 12:38:10.78	325.14	9.76	-48.6	-56.0	5.2	1.05e+00	0	38	104	1178599424	68	8652
2026-01-20 12:38:13.81	325.56	9.60	-48.4	-55.1	5.9	3.92e-01	0	38	0	1186988032	68	7726
2026-01-20 12:38:16.83	325.98	9.45	-48.4	-55.0	5.9	3.44e-01	0	38	0	1196425216	68	7634
2026-01-20 12:38:19.85	326.39	9.29	-48.8	-57.2	4.6	1.48e+00	0	38	104	1200619520	68	9891
2026-01-20 12:38:22.87	326.81	9.13	-48.5	-55.9	5.3	5.92e-01	0	38	0	1203765248	68	8536
2026-01-20 12:38:25.90	327.21	8.97	-48.4	-55.2	5.7	4.36e-01	0	38	0	1213202432	68	7819
2026-01-20 12:38:28.92	327.61	8.82	-48.5	-55.7	5.4	4.27e-01	0	38	0	1222639616	68	8326
2026-01-20 12:38:31.94	328.01	8.66	-49.0	-59.4	3.9	7.79e-01	0	38	104	1223688192	68	12758
2026-01-20 12:38:34.97	328.41	8.50	-48.5	-55.7	5.4	5.52e-01	0	38	0	1229979648	68	8317
2026-01-20 12:38:37.99	328.80	8.34	-48.3	-54.9	5.9	3.70e-01	0	38	0	1239416832	68	7628
2026-01-20 12:38:41.01	329.18	8.18	-49.2	-61.3	3.8	1.49e+00	0	38	104	1246756864	68	15939
2026-01-20 12:38:44.03	329.56	8.02	-48.6	-57.3	4.0	1.20e+00	0	38	104	1246756864	68	10053
2026-01-20 12:38:47.05	329.94	7.86	-48.6	-57.3	4.0	8.83e-01	0	38	104	1247805440	68	10035
2026-01-20 12:38:50.07	330.31	7.71	-48.8	-57.7	4.4	1.45e+00	0	38	104	1248854016	68	10447
2026-01-20 12:38:53.09	330.68	7.55	-48.7	-56.8	4.7	1.17e+00	0	38	104	1248854016	68	9487
2026-01-20 12:38:56.11	331.05	7.39	-48.7	-57.2	4.6	8.05e-01	0	38	104	1249902592	68	9847
2026-01-20 12:38:59.14	331.41	7.23	-49.0	-59.6	4.0	1.48e+00	0	38	104	1249902592	68	12989
2026-01-20 12:39:02.16	331.77	7.07	-48.7	-57.0	4.6	1.03e+00	4	38	104	1249902592	68	9674
2026-01-20 12:39:05.19	332.13	6.91	-49.1	-61.4	3.8	1.49e+00	0	38	104	1250951168	68	15954
2026-01-20 12:39:08.21	332.48	6.75	-48.7	-57.2	4.5	1.12e+00	5	38	104	1250951168	68	9933
2026-01-20 12:39:11.24	332.83	6.60	-48.6	-56.4	4.9	7.34e-01	0	38	0	1253048320	68	9031
2026-01-20 12:39:14.26	333.17	6.44	-48.7	-57.9	4.0	1.44e+00	0	38	104	1255145472	68	10677
2026-01-20 12:39:17.28	333.51	6.28	-48.7	-58.0	4.0	1.12e+00	0	38	104	1255145472	68	10878
2026-01-20 12:39:20.31	333.85	6.12	-48.8	-58.4	4.2	1.45e+00	0	38	104	1258291200	68	11373
2026-01-20 12:39:23.33	334.18	5.96	-48.8	-59.0	3.9	1.49e+00	0	38	104	1258291200	68	12193
2026-01-20 12:39:26.35	334.51	5.81	-48.5	-56.3	4.9	9.93e-01	0	38	104	1258291200	68	8941
2026-01-20 12:39:29.37	334.84	5.65	-48.9	-61.1	3.8	1.49e+00	0	38	104	1261436928	68	15479
2026-01-20 12:39:32.39	335.16	5.49	-48.7	-57.6	4.4	1.44e+00	0	38	104	1261436928	68	10349
2026-01-20 12:39:35.42	335.48	5.33	-48.7	-58.3	3.9	1.46e+00	0	38	104	1261436928	68	11263
2026-01-20 12:39:38.45	335.80	5.18	-48.7	-58.5	3.9	1.47e+00	0	38	104	1261436928	68	11426
2026-01-20 12:39:41.47	336.11	5.02	-48.5	-57.3	4.0	1.28e+00	2	38	104	1261436928	68	9960
2026-01-20 12:39:44.50	336.42	4.86	-49.4	-62.0	3.8	1.49e+00	0	38	104	1261436928	69	16226
2026-01-20 12:39:47.52	336.73	4.71	-49.5	-62.2	3.8	1.49e+00	0	38	104	1261436928	69	16531
2026-01-20 12:39:50.55	337.04	4.55	-49.6	-62.3	3.8	1.49e+00	0	38	104	1261436928	69	16716
2026-01-20 12:39:53.57	337.34	4.40	-49.7	-62.4	3.8	1.49e+00	0	38	104	1261436928	69	16891
2026-01-20 12:39:56.60	337.64	4.24	-49.7	-62.4	3.8	1.49e+00	0	38	104	1261436928	70	16076
2026-01-20 12:39:59.62	337.93	4.09	-49.8	-62.5	3.8	1.49e+00	0	38	104	1261436928	70	16137
2026-01-20 12:40:02.64	338.22	3.93	-49.8	-62.4	3.8	1.49e+00	0	38	104	1261436928	70	16123
2026-01-20 12:40:05.66	338.51	3.78	-49.7	-62.4	3.8	1.49e+00	0	38	104	1261436928	70	16038
2026-01-20 12:40:08.69	338.80	3.62	-49.7	-62.4	3.8	1.49e+00	0	38	104	1261436928	70	16022
2026-01-20 12:40:11.71	339.08	3.47	-49.7	-62.3	3.8	1.49e+00	0	38	104	1261436928	70	15940
2026-01-20 12:40:14.73	339.36	3.32	-49.7	-62.3	3.8	1.49e+00	0	38	104	1261436928	70	15864
2026-01-20 12:40:17.76	339.64	3.16	-49.7	-62.3	3.8	1.49e+00	0	38	104	1261436928	70	15861
2026-01-20 12:40:20.78	339.92	3.01	-49.6	-62.3	3.8	1.49e+00	0	38	104	1261436928	70	15863
2026-01-20 12:40:23.80	340.19	2.86	-49.6	-62.3	3.8	1.49e+00	0	38	104	1261436928	70	15840
2026-01-20 12:40:26.83	340.46	2.70	-49.6	-62.3	3.8	1.49e+00	0	38	104	1261436928	70	15854
2026-01-20 12:40:29.85	340.73	2.55	-49.6	-62.3	3.8	1.49e+00	0	38	104	1261436928	70	15847
2026-01-20 12:40:32.87	340.99	2.40	-49.6	-62.3	3.8	1.49e+00	0	38	104	1261436928	70	15825
2026-01-20 12:40:35.90	341.25	2.25	-49.6	-62.3	3.8	1.49e+00	0	38	104	1261436928	70	15824
2026-01-20 12:40:38.92	341.51	2.10	-49.6	-62.3	3.8	1.49e+00	0	38	104	1261436928	70	15791

#Closed at: 2026-01-20 12:40:41
#Recorded file [1261 MB]: D:/lorett/data/31041_260120_152839.dat