passes_logs/2026/01/20/R3.2S_Murmansk/R3.2S_Murmansk__20260120_102802_JL1KF02B02_rec.log

#Pass ID: 20260120_102802_JL1KF02B02
#Satellite: JL1KF02B02
#Configuration: 01B_900M
#almurnet v.1.7.20251203
#Start time: 2026-01-20 10:28:03

#Version: 2.2.20231116
#Station: R3.2S_Murmansk
#Location: 33.079688 lon 68.888172 lat
#TLE: 1 61193U 24169E   26019.62438445  .00004394  00000+0  27612-3 0  9996
#TLE: 2 61193  97.5742 111.4362 0013795 119.4106 240.8502 15.09695978 73427

#Time	Az	El	Level	Level2	SNR	BER	BlckErr	Temp	State	Recorded	gain1	gain2
2026-01-20 10:28:03.35	21.25	2.09	-49.8	-52.0	6.2	0.00e+00	0	39	0	0	71	18225
2026-01-20 10:28:06.37	21.27	2.30	-49.8	-52.0	6.2	0.00e+00	0	39	104	0	71	18264
2026-01-20 10:28:09.39	21.30	2.51	-49.8	-52.0	6.2	0.00e+00	0	39	104	0	71	18229
2026-01-20 10:28:12.42	21.32	2.73	-49.8	-52.0	6.2	0.00e+00	0	39	104	0	71	18321
2026-01-20 10:28:15.44	21.34	2.94	-49.8	-52.0	6.2	0.00e+00	0	39	104	0	71	18298
2026-01-20 10:28:18.46	21.36	3.16	-49.8	-52.0	6.2	0.00e+00	0	39	104	0	71	18196
2026-01-20 10:28:21.49	21.39	3.38	-49.8	-52.0	6.2	0.00e+00	0	39	104	0	71	18258
2026-01-20 10:28:24.51	21.41	3.60	-49.8	-52.0	6.2	0.00e+00	0	39	104	0	71	18234
2026-01-20 10:28:27.53	21.43	3.83	-49.8	-52.0	6.2	0.00e+00	0	39	104	0	71	18307
2026-01-20 10:28:30.56	21.45	4.06	-49.8	-51.9	6.2	0.00e+00	0	39	104	0	71	18172
2026-01-20 10:28:33.58	21.48	4.29	-49.8	-52.0	6.2	0.00e+00	0	39	104	0	71	18193
2026-01-20 10:28:36.61	21.50	4.52	-49.8	-52.0	6.2	0.00e+00	0	39	104	0	71	18229
2026-01-20 10:28:39.63	21.52	4.76	-49.8	-52.0	6.2	0.00e+00	0	39	104	0	71	18292
2026-01-20 10:28:42.65	21.55	4.99	-49.8	-52.0	6.2	0.00e+00	0	39	104	0	71	18286
2026-01-20 10:28:45.68	21.57	5.23	-49.9	-52.0	6.2	0.00e+00	0	39	104	0	71	18332
2026-01-20 10:28:48.70	21.60	5.48	-49.8	-52.0	6.2	0.00e+00	0	40	104	0	71	18243
2026-01-20 10:28:51.73	21.62	5.73	-49.9	-52.0	6.2	0.00e+00	0	40	104	0	71	18291
2026-01-20 10:28:54.75	21.65	5.98	-49.9	-52.1	6.2	0.00e+00	0	40	104	0	71	18391
2026-01-20 10:28:57.77	21.67	6.23	-49.9	-52.0	6.2	0.00e+00	0	40	104	0	71	18374
2026-01-20 10:29:00.79	21.70	6.48	-49.9	-52.0	6.2	0.00e+00	0	40	104	0	71	18279
2026-01-20 10:29:03.81	21.72	6.74	-49.9	-52.1	6.2	0.00e+00	0	40	104	0	71	18405
2026-01-20 10:29:06.84	21.75	7.01	-49.9	-52.1	6.2	0.00e+00	0	40	104	0	71	18516
2026-01-20 10:29:09.86	21.77	7.27	-49.9	-52.1	6.2	0.00e+00	0	40	104	0	71	18440
2026-01-20 10:29:12.88	21.80	7.54	-49.9	-52.1	6.2	0.00e+00	0	40	104	0	71	18391
2026-01-20 10:29:15.91	21.83	7.82	-49.9	-52.1	6.2	0.00e+00	0	40	104	0	71	18402
2026-01-20 10:29:18.93	21.85	8.10	-50.0	-52.1	6.2	0.00e+00	0	40	104	0	71	18520
2026-01-20 10:29:21.95	21.88	8.38	-49.9	-52.1	6.2	0.00e+00	0	40	104	0	71	18426
2026-01-20 10:29:24.98	21.91	8.66	-49.9	-52.1	6.2	0.00e+00	0	40	104	0	71	18422
2026-01-20 10:29:28.00	21.94	8.95	-49.9	-52.1	6.2	0.00e+00	0	40	104	0	71	18463
2026-01-20 10:29:31.02	21.96	9.25	-50.0	-52.1	6.2	0.00e+00	0	40	104	0	71	18536
2026-01-20 10:29:34.04	21.99	9.55	-49.9	-52.1	6.2	0.00e+00	0	40	104	0	71	18514
2026-01-20 10:29:37.06	22.02	9.85	-49.9	-52.1	6.2	0.00e+00	0	40	104	0	71	18471
2026-01-20 10:29:40.09	22.05	10.16	-49.9	-52.1	6.2	0.00e+00	0	40	104	0	71	18474
2026-01-20 10:29:43.11	22.08	10.48	-50.0	-52.1	6.2	0.00e+00	0	40	104	0	71	18521
2026-01-20 10:29:46.13	22.11	10.80	-50.0	-52.1	6.2	0.00e+00	0	40	104	0	71	18570
2026-01-20 10:29:49.16	22.14	11.12	-50.0	-52.1	6.2	0.00e+00	0	40	104	0	71	18525
2026-01-20 10:29:52.17	22.17	11.45	-50.0	-52.1	6.2	0.00e+00	0	40	104	0	71	18514
2026-01-20 10:29:55.20	22.21	11.79	-50.0	-52.2	6.2	0.00e+00	0	40	104	0	71	18614
2026-01-20 10:29:58.22	22.24	12.13	-50.0	-52.1	6.2	0.00e+00	0	40	104	0	71	18576
2026-01-20 10:30:01.25	22.27	12.48	-50.0	-52.1	6.2	0.00e+00	0	40	104	0	71	18551
2026-01-20 10:30:04.26	22.30	12.83	-50.0	-52.1	6.2	0.00e+00	0	40	104	0	71	18547
2026-01-20 10:30:07.28	22.34	13.19	-50.0	-52.2	6.2	0.00e+00	0	40	104	0	71	18656
2026-01-20 10:30:10.30	22.37	13.56	-50.0	-52.1	6.2	0.00e+00	0	41	104	0	71	18591
2026-01-20 10:30:13.33	22.41	13.94	-50.0	-52.1	6.2	0.00e+00	0	40	104	0	71	18583
2026-01-20 10:30:16.35	22.45	14.32	-50.0	-52.2	6.2	0.00e+00	0	40	104	0	71	18617
2026-01-20 10:30:19.37	22.48	14.72	-50.0	-52.2	6.2	0.00e+00	0	41	104	0	71	18652
2026-01-20 10:30:22.40	22.52	15.12	-50.0	-52.2	6.2	0.00e+00	0	40	104	0	71	18688
2026-01-20 10:30:25.42	22.56	15.52	-50.0	-52.1	6.2	0.00e+00	0	40	104	0	71	18602
2026-01-20 10:30:28.44	22.60	15.94	-50.0	-52.2	6.2	0.00e+00	0	41	104	0	71	18604
2026-01-20 10:30:31.47	22.64	16.37	-50.0	-52.2	6.2	0.00e+00	0	41	104	0	71	18696
2026-01-20 10:30:34.49	22.68	16.80	-50.0	-52.2	6.2	0.00e+00	0	41	104	0	71	18754
2026-01-20 10:30:37.51	22.72	17.25	-50.0	-52.2	6.2	0.00e+00	0	41	104	0	71	18641
2026-01-20 10:30:40.54	22.76	17.71	-50.0	-52.2	6.2	0.00e+00	0	41	104	0	71	18635
2026-01-20 10:30:43.56	22.81	18.17	-50.1	-52.2	6.2	0.00e+00	0	40	104	0	71	18748
2026-01-20 10:30:46.59	22.85	18.65	-50.1	-52.2	6.2	0.00e+00	0	41	104	0	71	18703
2026-01-20 10:30:49.61	22.90	19.14	-50.0	-52.2	6.2	0.00e+00	0	41	104	0	71	18702
2026-01-20 10:30:52.64	22.95	19.65	-50.1	-52.2	6.2	0.00e+00	0	40	104	0	71	18730
2026-01-20 10:30:55.66	23.00	20.16	-50.1	-52.2	6.2	0.00e+00	0	41	104	0	71	18731
2026-01-20 10:30:58.68	23.05	20.69	-50.1	-52.2	6.2	0.00e+00	0	41	104	0	71	18743
2026-01-20 10:31:01.71	23.10	21.24	-50.1	-52.2	6.2	0.00e+00	0	41	104	0	71	18780
2026-01-20 10:31:04.73	23.15	21.79	-50.1	-52.2	6.2	0.00e+00	0	41	104	0	71	18738
2026-01-20 10:31:07.75	23.21	22.37	-50.1	-52.2	6.2	0.00e+00	0	41	104	0	71	18796
2026-01-20 10:31:10.78	23.27	22.96	-50.1	-52.2	6.2	0.00e+00	0	41	104	0	71	18775
2026-01-20 10:31:13.80	23.32	23.56	-50.1	-52.2	6.2	0.00e+00	0	41	104	0	71	18803
2026-01-20 10:31:16.82	23.39	24.19	-50.1	-52.3	6.2	0.00e+00	0	41	104	0	71	18848
2026-01-20 10:31:19.85	23.45	24.83	-50.1	-52.3	6.2	0.00e+00	0	41	104	0	71	18823
2026-01-20 10:31:22.87	23.52	25.49	-50.1	-52.3	6.2	0.00e+00	0	41	104	0	71	18838
2026-01-20 10:31:25.89	23.58	26.18	-50.1	-52.3	6.2	0.00e+00	0	41	104	0	71	18887
2026-01-20 10:31:28.91	23.65	26.88	-50.1	-52.3	6.2	0.00e+00	0	41	104	0	71	18866
2026-01-20 10:31:31.94	23.73	27.61	-50.1	-52.3	6.2	0.00e+00	0	41	104	0	71	18917
2026-01-20 10:31:34.96	23.81	28.36	-50.1	-52.3	6.2	0.00e+00	0	41	104	0	71	18903
2026-01-20 10:31:37.98	23.89	29.13	-50.1	-52.3	6.2	0.00e+00	0	41	104	0	71	18923
2026-01-20 10:31:41.01	23.97	29.93	-50.2	-52.3	6.2	0.00e+00	0	41	104	0	71	18895
2026-01-20 10:31:44.03	24.06	30.76	-50.2	-52.3	6.2	0.00e+00	0	41	104	0	71	18981
2026-01-20 10:31:47.05	24.15	31.61	-50.2	-52.3	6.2	0.00e+00	0	41	104	0	71	19005
2026-01-20 10:31:50.08	24.25	32.50	-50.2	-52.3	6.2	0.00e+00	0	41	104	0	71	18974
2026-01-20 10:31:53.10	24.35	33.41	-50.2	-52.3	6.2	0.00e+00	0	41	104	0	71	18989
2026-01-20 10:31:56.12	24.46	34.36	-50.2	-52.3	6.2	0.00e+00	0	41	104	0	71	19030
2026-01-20 10:31:59.14	24.58	35.35	-50.2	-52.3	6.2	0.00e+00	0	41	104	0	71	19027
2026-01-20 10:32:02.17	24.70	36.37	-50.2	-52.4	6.2	0.00e+00	0	41	104	0	71	19122
2026-01-20 10:32:05.19	24.83	37.43	-50.2	-52.4	6.2	0.00e+00	0	41	104	0	71	19094
2026-01-20 10:32:08.22	24.96	38.53	-50.2	-52.4	6.2	0.00e+00	0	41	104	0	71	19137
2026-01-20 10:32:11.24	25.11	39.66	-50.2	-52.4	6.2	0.00e+00	0	41	104	0	71	19153
2026-01-20 10:32:14.26	25.27	40.85	-50.3	-52.4	6.2	0.00e+00	0	41	104	0	71	19139
2026-01-20 10:32:17.28	25.44	42.07	-50.3	-52.4	6.2	0.00e+00	0	41	104	0	71	19178
2026-01-20 10:32:20.30	25.62	43.35	-50.3	-52.4	6.2	0.00e+00	0	41	104	0	71	19191
2026-01-20 10:32:23.33	25.81	44.67	-50.3	-52.5	6.2	0.00e+00	0	41	104	0	71	19299
2026-01-20 10:32:26.35	26.03	46.05	-50.3	-52.5	6.2	0.00e+00	0	41	104	0	71	19274
2026-01-20 10:32:29.37	26.26	47.48	-50.3	-52.5	6.2	0.00e+00	0	41	104	0	71	19336
2026-01-20 10:32:32.40	26.52	48.96	-50.3	-52.5	6.2	0.00e+00	0	41	104	0	71	19306
2026-01-20 10:32:35.42	26.80	50.50	-50.3	-52.5	6.2	0.00e+00	0	41	104	0	71	19387
2026-01-20 10:32:38.44	27.11	52.10	-50.4	-52.5	6.2	0.00e+00	0	41	104	0	71	19402
2026-01-20 10:32:41.47	27.46	53.76	-50.4	-52.5	6.2	0.00e+00	0	41	104	0	71	19415
2026-01-20 10:32:44.49	27.85	55.47	-50.4	-52.5	6.2	0.00e+00	0	41	104	0	71	19428
2026-01-20 10:32:47.51	28.29	57.25	-50.4	-52.5	6.2	0.00e+00	0	41	104	0	71	19434
2026-01-20 10:32:50.54	28.79	59.09	-50.4	-52.5	6.2	0.00e+00	0	41	104	0	71	19477
2026-01-20 10:32:53.56	29.37	60.98	-50.4	-52.5	6.2	0.00e+00	0	41	104	0	71	19474
2026-01-20 10:32:56.58	30.04	62.94	-50.4	-52.5	6.2	0.00e+00	0	41	104	0	71	19477
2026-01-20 10:32:59.60	30.83	64.95	-50.4	-52.5	6.2	0.00e+00	0	41	104	0	71	19464
2026-01-20 10:33:02.63	31.78	67.02	-50.4	-52.6	6.2	0.00e+00	0	41	104	0	71	19530
2026-01-20 10:33:05.65	32.94	69.14	-50.4	-52.6	6.2	0.00e+00	0	41	104	0	71	19522
2026-01-20 10:33:08.67	34.39	71.30	-50.4	-52.6	6.2	0.00e+00	0	41	104	0	71	19519
2026-01-20 10:33:11.70	36.25	73.50	-50.4	-52.6	6.2	0.00e+00	0	41	104	0	71	19609
2026-01-20 10:33:14.72	38.71	75.72	-50.4	-52.6	6.2	0.00e+00	0	41	104	0	71	19615
2026-01-20 10:33:17.74	42.10	77.94	-50.5	-52.6	6.2	0.00e+00	0	41	104	0	71	19576
2026-01-20 10:33:20.77	47.09	80.14	-50.5	-52.6	6.2	0.00e+00	0	41	104	0	71	19584
2026-01-20 10:33:23.79	54.87	82.24	-50.4	-52.6	6.2	0.00e+00	0	41	104	0	71	19558
2026-01-20 10:33:26.81	68.08	84.12	-50.5	-52.6	6.2	0.00e+00	0	41	104	0	71	19662
2026-01-20 10:33:29.84	91.15	85.45	-50.5	-52.6	6.2	0.00e+00	0	41	104	0	71	19652
2026-01-20 10:33:32.86	123.08	85.65	-50.5	-52.6	6.2	0.00e+00	0	41	104	0	71	19581
2026-01-20 10:33:35.89	149.64	84.60	-50.4	-52.6	6.2	0.00e+00	0	41	104	0	71	19584
2026-01-20 10:33:38.91	165.30	82.84	-50.5	-52.6	6.2	0.00e+00	0	41	104	0	71	19683
2026-01-20 10:33:41.93	174.37	80.78	-50.5	-52.6	6.2	0.00e+00	0	41	104	0	71	19693
2026-01-20 10:33:44.95	180.01	78.61	-50.5	-52.6	6.2	0.00e+00	0	41	104	0	71	19636
2026-01-20 10:33:47.98	183.81	76.38	-50.5	-52.6	6.2	0.00e+00	0	41	104	0	71	19626
2026-01-20 10:33:51.00	186.51	74.15	-50.5	-52.6	6.2	0.00e+00	0	41	104	0	71	19666
2026-01-20 10:33:54.03	188.52	71.94	-50.5	-52.6	6.2	0.00e+00	0	41	104	0	71	19619
2026-01-20 10:33:57.05	190.08	69.77	-50.4	-52.6	6.2	0.00e+00	0	41	104	0	71	19578
2026-01-20 10:34:00.07	191.31	67.63	-50.4	-52.6	6.2	0.00e+00	0	41	104	0	71	19517
2026-01-20 10:34:03.10	192.32	65.54	-50.4	-52.5	6.2	0.00e+00	0	41	104	0	71	19461
2026-01-20 10:34:06.12	193.16	63.51	-50.4	-52.6	6.2	0.00e+00	0	41	104	0	71	19515
2026-01-20 10:34:09.15	193.87	61.52	-50.4	-52.6	6.2	0.00e+00	0	41	104	0	71	19481
2026-01-20 10:34:12.17	194.47	59.61	-50.4	-52.5	6.2	0.00e+00	0	41	104	0	71	19426
2026-01-20 10:34:15.20	194.99	57.74	-50.3	-52.5	6.2	0.00e+00	0	41	104	0	71	19393
2026-01-20 10:34:18.22	195.45	55.94	-50.4	-52.5	6.2	0.00e+00	0	41	104	0	71	19419
2026-01-20 10:34:21.24	195.85	54.21	-50.4	-52.5	6.2	0.00e+00	0	41	104	0	71	19405
2026-01-20 10:34:24.26	196.21	52.53	-50.3	-52.5	6.2	0.00e+00	0	41	104	0	71	19385
2026-01-20 10:34:27.29	196.53	50.90	-50.3	-52.5	6.2	0.00e+00	0	41	104	0	71	19383
2026-01-20 10:34:30.31	196.82	49.34	-50.3	-52.5	6.2	0.00e+00	0	41	104	0	71	19292
2026-01-20 10:34:33.34	197.09	47.84	-50.3	-52.5	6.2	0.00e+00	0	41	104	0	71	19366
2026-01-20 10:34:36.36	197.32	46.39	-50.3	-52.5	6.2	0.00e+00	0	41	104	0	71	19298
2026-01-20 10:34:39.38	197.54	45.00	-50.3	-52.5	6.2	0.00e+00	0	41	104	0	71	19289
2026-01-20 10:34:42.41	197.74	43.65	-50.3	-52.4	6.2	0.00e+00	0	41	104	0	71	19237
2026-01-20 10:34:45.43	197.93	42.36	-50.3	-52.4	6.2	0.00e+00	0	41	104	0	71	19181
2026-01-20 10:34:48.45	198.10	41.11	-50.3	-52.4	6.2	0.00e+00	0	41	104	0	71	19174
2026-01-20 10:34:51.48	198.26	39.91	-50.3	-52.4	6.2	0.00e+00	0	41	104	0	71	19171
2026-01-20 10:34:54.50	198.41	38.76	-50.2	-52.4	6.2	0.00e+00	0	41	104	0	71	19178
2026-01-20 10:34:57.53	198.55	37.64	-50.2	-52.4	6.2	0.00e+00	0	41	104	0	71	19132
2026-01-20 10:35:00.55	198.68	36.57	-50.2	-52.4	6.2	0.00e+00	0	41	104	0	71	19087
2026-01-20 10:35:03.57	198.81	35.54	-50.2	-52.4	6.2	0.00e+00	0	41	104	0	71	19054
2026-01-20 10:35:06.59	198.92	34.54	-50.2	-52.4	6.2	0.00e+00	0	41	104	0	71	19062
2026-01-20 10:35:09.62	199.03	33.57	-50.2	-52.3	6.2	0.00e+00	0	41	104	0	71	19035
2026-01-20 10:35:12.64	199.13	32.65	-50.2	-52.3	6.2	0.00e+00	0	41	104	0	71	19011
2026-01-20 10:35:15.66	199.23	31.75	-50.2	-52.4	6.2	0.00e+00	0	41	104	0	71	19045
2026-01-20 10:35:18.69	199.33	30.88	-50.1	-52.3	6.2	0.00e+00	0	41	104	0	71	18947
2026-01-20 10:35:21.71	199.41	30.05	-50.1	-52.3	6.2	0.00e+00	0	41	104	0	71	18897
2026-01-20 10:35:24.73	199.50	29.24	-50.1	-52.3	6.2	0.00e+00	0	41	104	0	71	18899
2026-01-20 10:35:27.76	199.58	28.45	-50.1	-52.3	6.2	0.00e+00	0	41	104	0	71	18836
2026-01-20 10:35:30.78	199.66	27.69	-50.1	-52.3	6.2	0.00e+00	0	41	104	0	71	18872
2026-01-20 10:35:33.81	199.73	26.96	-50.1	-52.2	6.2	0.00e+00	0	41	104	0	71	18799
2026-01-20 10:35:36.83	199.80	26.25	-50.1	-52.3	6.2	0.00e+00	0	41	104	0	71	18866
2026-01-20 10:35:39.85	199.87	25.56	-50.1	-52.3	6.2	0.00e+00	0	41	104	0	71	18826
2026-01-20 10:35:42.87	199.94	24.89	-50.1	-52.2	6.2	0.00e+00	0	41	104	0	71	18794
2026-01-20 10:35:45.90	200.00	24.24	-50.1	-52.2	6.2	0.00e+00	0	41	104	0	71	18751
2026-01-20 10:35:48.92	200.06	23.61	-50.1	-52.2	6.2	0.00e+00	0	41	104	0	71	18725
2026-01-20 10:35:51.95	200.12	22.99	-50.1	-52.2	6.2	0.00e+00	0	41	104	0	71	18738
2026-01-20 10:35:54.97	200.18	22.40	-50.0	-52.2	6.2	0.00e+00	0	41	104	0	71	18670
2026-01-20 10:35:57.99	200.23	21.82	-50.0	-52.2	6.2	0.00e+00	0	41	104	0	71	18675
2026-01-20 10:36:01.01	200.29	21.25	-50.0	-52.2	6.2	0.00e+00	0	41	104	0	71	18681
2026-01-20 10:36:04.04	200.34	20.70	-50.0	-52.2	6.2	0.00e+00	0	41	104	0	71	18614
2026-01-20 10:36:07.06	200.39	20.17	-50.0	-52.1	6.2	0.00e+00	0	41	104	0	71	18576
2026-01-20 10:36:10.09	200.44	19.65	-50.0	-52.1	6.2	0.00e+00	0	41	104	0	71	18596
2026-01-20 10:36:13.11	200.48	19.14	-50.0	-52.1	6.2	0.00e+00	0	41	104	0	71	18559
2026-01-20 10:36:16.13	200.53	18.65	-50.0	-52.1	6.2	0.00e+00	0	41	104	0	71	18562
2026-01-20 10:36:19.15	200.57	18.16	-50.0	-52.1	6.2	0.00e+00	0	41	104	0	71	18570
2026-01-20 10:36:22.18	200.62	17.69	-50.0	-52.1	6.2	0.00e+00	0	41	104	0	71	18493
2026-01-20 10:36:25.20	200.66	17.23	-50.0	-52.1	6.2	0.00e+00	0	41	104	0	71	18508
2026-01-20 10:36:28.23	200.70	16.78	-50.0	-52.1	6.2	0.00e+00	0	41	104	0	71	18480
2026-01-20 10:36:31.25	200.74	16.34	-50.0	-52.1	6.2	0.00e+00	0	41	104	0	71	18465
2026-01-20 10:36:34.28	200.78	15.91	-49.9	-52.1	6.2	0.00e+00	0	41	104	0	71	18477
2026-01-20 10:36:37.30	200.82	15.49	-49.9	-52.1	6.2	0.00e+00	0	41	104	0	71	18503
2026-01-20 10:36:40.32	200.86	15.08	-49.9	-52.1	6.2	0.00e+00	0	41	104	0	71	18469
2026-01-20 10:36:43.34	200.89	14.67	-49.9	-52.1	6.2	0.00e+00	0	41	104	0	71	18520
2026-01-20 10:36:46.37	200.93	14.28	-49.9	-52.1	6.2	0.00e+00	0	41	104	0	71	18417
2026-01-20 10:36:49.39	200.96	13.89	-49.9	-52.1	6.2	0.00e+00	0	41	104	0	71	18423
2026-01-20 10:36:52.41	201.00	13.51	-49.9	-52.1	6.2	0.00e+00	0	41	104	0	71	18485
2026-01-20 10:36:55.43	201.03	13.14	-49.9	-52.1	6.2	0.00e+00	0	41	104	0	71	18414
2026-01-20 10:36:58.46	201.07	12.78	-49.9	-52.0	6.2	0.00e+00	0	41	104	0	71	18389
2026-01-20 10:37:01.48	201.10	12.42	-49.9	-52.1	6.2	0.00e+00	0	41	104	0	71	18392
2026-01-20 10:37:04.51	201.13	12.07	-49.9	-52.0	6.2	0.00e+00	0	41	104	0	71	18381
2026-01-20 10:37:07.53	201.16	11.72	-49.9	-52.0	6.2	0.00e+00	0	41	104	0	71	18363
2026-01-20 10:37:10.55	201.19	11.38	-49.9	-52.0	6.2	0.00e+00	0	41	104	0	71	18299
2026-01-20 10:37:13.58	201.22	11.05	-49.9	-52.0	6.2	0.00e+00	0	41	104	0	71	18315
2026-01-20 10:37:16.60	201.25	10.72	-49.9	-52.0	6.2	0.00e+00	0	41	104	0	71	18325
2026-01-20 10:37:19.62	201.28	10.40	-49.9	-52.0	6.2	0.00e+00	0	41	104	0	71	18333
2026-01-20 10:37:22.65	201.31	10.08	-49.8	-52.0	6.2	0.00e+00	0	41	104	0	71	18254
2026-01-20 10:37:25.67	201.34	9.77	-49.8	-52.0	6.2	0.00e+00	0	41	104	0	71	18212
2026-01-20 10:37:28.69	201.37	9.47	-49.8	-52.0	6.2	0.00e+00	0	41	104	0	71	18199
2026-01-20 10:37:31.71	201.39	9.17	-49.8	-52.0	6.2	0.00e+00	0	41	104	0	71	18203
2026-01-20 10:37:34.74	201.42	8.87	-49.8	-51.9	6.2	0.00e+00	0	41	104	0	71	18093
2026-01-20 10:37:37.76	201.45	8.58	-49.8	-51.9	6.2	0.00e+00	0	41	104	0	71	18133
2026-01-20 10:37:40.78	201.47	8.29	-49.8	-51.9	6.2	0.00e+00	0	41	104	0	71	18088
2026-01-20 10:37:43.80	201.50	8.01	-49.8	-51.9	6.2	0.00e+00	0	41	104	0	71	18136
2026-01-20 10:37:46.83	201.52	7.73	-49.7	-51.9	6.2	0.00e+00	0	42	104	0	71	18069
2026-01-20 10:37:49.85	201.55	7.45	-49.8	-51.9	6.2	0.00e+00	0	41	104	0	71	18090
2026-01-20 10:37:52.87	201.57	7.18	-49.7	-51.9	6.2	0.00e+00	0	41	104	0	71	18098
2026-01-20 10:37:55.90	201.60	6.91	-49.7	-51.9	6.2	0.00e+00	0	41	104	0	71	18046
2026-01-20 10:37:58.91	201.62	6.65	-49.7	-51.8	6.2	0.00e+00	0	41	104	0	71	17945
2026-01-20 10:38:01.94	201.65	6.39	-49.7	-51.8	6.2	0.00e+00	0	41	104	0	71	17952
2026-01-20 10:38:04.96	201.67	6.13	-49.7	-51.8	6.2	0.00e+00	0	41	104	0	71	17935
2026-01-20 10:38:07.99	201.69	5.87	-49.7	-51.9	6.2	0.00e+00	0	41	104	0	71	18000
2026-01-20 10:38:11.01	201.72	5.62	-49.6	-51.8	6.2	0.00e+00	0	41	104	0	71	17778
2026-01-20 10:38:14.04	201.74	5.37	-49.6	-51.8	6.2	0.00e+00	0	41	104	0	71	17823
2026-01-20 10:38:17.05	201.76	5.13	-49.6	-51.8	6.2	0.00e+00	0	41	104	0	71	17792
2026-01-20 10:38:20.08	201.78	4.89	-49.9	-52.0	6.2	0.00e+00	0	41	104	0	71	18375
2026-01-20 10:38:23.10	201.81	4.65	-50.1	-52.2	6.2	0.00e+00	0	41	104	0	71	18806
2026-01-20 10:38:26.13	201.83	4.41	-50.2	-52.3	6.2	0.00e+00	0	41	104	0	71	19006
2026-01-20 10:38:29.15	201.85	4.18	-50.2	-52.4	6.2	0.00e+00	0	41	104	0	71	19153
2026-01-20 10:38:32.18	201.87	3.95	-50.3	-52.5	6.2	0.00e+00	0	41	104	0	71	19270
2026-01-20 10:38:35.20	201.89	3.72	-50.4	-52.5	6.2	0.00e+00	0	41	104	0	71	19361
2026-01-20 10:38:38.23	201.91	3.49	-50.4	-52.6	6.2	0.00e+00	0	41	104	0	71	19511
2026-01-20 10:38:41.25	201.93	3.27	-50.5	-52.6	6.2	0.00e+00	0	41	104	0	71	19649
2026-01-20 10:38:44.27	201.95	3.04	-50.4	-52.6	6.2	0.00e+00	0	41	104	0	71	19563
2026-01-20 10:38:47.30	201.97	2.82	-50.4	-52.6	6.2	0.00e+00	0	41	104	0	71	19508
2026-01-20 10:38:50.32	201.99	2.61	-50.4	-52.5	6.2	0.00e+00	0	41	104	0	71	19454
2026-01-20 10:38:53.34	202.01	2.39	-50.4	-52.6	6.2	0.00e+00	0	41	104	0	71	19490
2026-01-20 10:38:56.37	202.03	2.18	-50.4	-52.5	6.2	0.00e+00	0	41	104	0	71	19412

#Closed at: 2026-01-20 10:38:59
#Recorded file [0 MB]: D:/lorett/data/31041_260120_132803.dat