passes_logs/2026/01/20/R3.2S_Murmansk/R3.2S_Murmansk__20260120_121326_FENGYUN_3D_rec.log

#Pass ID: 20260120_121326_FENGYUN 3D
#Satellite: FENGYUN 3D
#Configuration: FENGYUN 3D
#almurnet v.1.7.20251203
#Start time: 2026-01-20 12:13:29

#Version: 2.2.20231116
#Station: R3.2S_Murmansk
#Location: 33.079688 lon 68.888172 lat
#TLE: 1 43010U 17072A   26019.93695019 -.00000250  00000+0 -96545-4 0  9996
#TLE: 2 43010  98.9942 351.8290 0002452 100.7901 259.3550 14.19695974423957

#Time	Az	El	Level	Level2	SNR	BER	BlckErr	Temp	State	Recorded	gain1	gain2
2026-01-20 12:13:29.03	167.39	2.14	-49.0	-60.6	3.8	8.45e-01	0	37	0	0	68	14603
2026-01-20 12:13:33.06	167.48	2.40	-49.0	-60.8	3.8	8.47e-01	0	37	104	0	68	14984
2026-01-20 12:13:37.09	167.57	2.66	-49.0	-60.5	3.8	8.45e-01	0	37	104	0	68	14480
2026-01-20 12:13:41.12	167.66	2.93	-48.9	-59.8	3.8	8.46e-01	0	38	104	0	68	13354
2026-01-20 12:13:45.15	167.75	3.19	-48.9	-59.7	3.8	8.46e-01	0	38	104	0	68	13229
2026-01-20 12:13:49.18	167.85	3.46	-48.9	-59.8	3.8	8.47e-01	0	38	104	0	68	13331
2026-01-20 12:13:53.21	167.94	3.73	-48.9	-60.2	3.8	8.45e-01	0	38	104	0	68	14034
2026-01-20 12:13:57.24	168.04	4.00	-48.9	-60.4	3.8	8.47e-01	0	38	104	0	68	14242
2026-01-20 12:14:01.27	168.14	4.28	-48.9	-59.5	3.8	8.46e-01	0	38	104	0	68	12947
2026-01-20 12:14:05.31	168.23	4.56	-48.6	-57.4	4.2	8.38e-01	0	38	0	0	68	10085
2026-01-20 12:14:09.33	168.34	4.84	-48.3	-55.6	4.7	8.16e-01	0	38	0	0	67	8756
2026-01-20 12:14:13.37	168.44	5.13	-48.3	-55.6	4.8	7.70e-01	0	38	0	2097152	67	8740
2026-01-20 12:14:17.40	168.54	5.41	-48.4	-56.2	4.5	8.36e-01	0	38	0	6291456	67	9310
2026-01-20 12:14:21.43	168.65	5.70	-47.8	-53.8	5.9	3.97e-01	0	38	0	25165824	66	7492
2026-01-20 12:14:25.46	168.76	6.00	-47.8	-53.7	6.1	7.01e-01	0	38	0	41943040	66	7380
2026-01-20 12:14:29.49	168.87	6.30	-47.8	-53.7	6.0	3.84e-01	0	38	0	50331648	67	7003
2026-01-20 12:14:33.52	168.98	6.60	-47.8	-53.6	6.1	3.44e-01	0	38	0	72351744	67	6891
2026-01-20 12:14:37.55	169.09	6.90	-48.1	-54.7	5.3	7.88e-01	0	39	0	83886080	67	7853
2026-01-20 12:14:41.58	169.21	7.21	-47.6	-53.1	6.5	2.78e-01	0	39	0	99614720	66	6899
2026-01-20 12:14:45.61	169.33	7.52	-48.0	-54.2	5.7	2.45e-01	0	38	0	121634816	66	7835
2026-01-20 12:14:49.65	169.45	7.84	-47.6	-52.8	6.8	6.43e-01	0	38	0	127926272	67	6282
2026-01-20 12:14:53.68	169.57	8.15	-47.6	-52.9	6.6	2.04e-01	0	38	0	149946368	66	6782
2026-01-20 12:14:57.71	169.70	8.48	-47.7	-53.1	6.5	2.05e-01	0	39	0	171966464	66	6959
2026-01-20 12:15:01.74	169.83	8.80	-47.4	-52.4	7.1	2.54e-01	0	39	0	186646528	66	6373
2026-01-20 12:15:05.78	169.96	9.14	-47.4	-52.3	7.2	1.37e-01	0	39	0	209715200	66	6333
2026-01-20 12:15:09.80	170.09	9.47	-48.3	-55.6	4.9	2.14e-01	0	38	0	229638144	67	8719
2026-01-20 12:15:13.83	170.23	9.81	-47.4	-52.3	7.2	1.42e-01	0	38	0	244318208	66	6302
2026-01-20 12:15:17.87	170.37	10.16	-47.3	-52.1	7.4	1.21e-01	0	39	0	266338304	66	6194
2026-01-20 12:15:21.90	170.51	10.51	-47.6	-52.9	6.7	2.06e-01	0	39	0	285212672	67	6420
2026-01-20 12:15:25.93	170.65	10.86	-47.3	-52.2	7.4	1.36e-01	0	38	0	304087040	66	6225
2026-01-20 12:15:29.97	170.80	11.22	-48.2	-55.0	5.2	2.69e-01	0	39	0	326107136	66	8625
2026-01-20 12:15:34.00	170.95	11.59	-47.8	-53.4	6.3	1.46e-01	0	39	0	337641472	66	7175
2026-01-20 12:15:38.03	171.11	11.96	-47.5	-52.4	7.2	1.63e-01	0	39	0	360710144	66	6418
2026-01-20 12:15:42.06	171.27	12.33	-47.9	-53.7	6.0	2.56e-01	0	38	0	383778816	66	7438
2026-01-20 12:15:46.09	171.43	12.71	-47.3	-52.0	7.6	1.20e-01	0	39	0	397410304	66	6089
2026-01-20 12:15:50.12	171.60	13.10	-47.3	-52.0	7.6	1.07e-01	0	39	0	420478976	66	6079
2026-01-20 12:15:54.15	171.77	13.50	-48.5	-56.3	4.5	8.28e-01	0	39	0	437256192	67	9401
2026-01-20 12:15:58.19	171.94	13.90	-47.2	-51.7	7.9	8.44e-02	0	39	0	455081984	66	5898
2026-01-20 12:16:02.21	172.12	14.30	-47.1	-51.5	8.1	7.02e-02	0	39	0	477102080	66	5768
2026-01-20 12:16:06.25	172.30	14.72	-47.1	-51.4	8.2	7.08e-02	0	39	0	500170752	66	5706
2026-01-20 12:16:10.28	172.49	15.14	-46.9	-51.0	8.6	4.59e-02	0	39	0	522190848	65	5773
2026-01-20 12:16:14.31	172.68	15.56	-46.8	-50.7	9.0	3.38e-02	0	39	0	545259520	65	5557
2026-01-20 12:16:18.34	172.88	16.00	-46.7	-50.4	9.2	2.50e-02	0	39	0	568328192	65	5394
2026-01-20 12:16:22.37	173.09	16.44	-46.7	-50.5	9.2	2.50e-02	0	39	0	590348288	65	5433
2026-01-20 12:16:26.40	173.30	16.89	-46.7	-50.4	9.3	2.24e-02	0	39	0	613416960	65	5390
2026-01-20 12:16:30.43	173.51	17.35	-46.6	-50.2	9.5	1.92e-02	0	39	0	635437056	65	5263
2026-01-20 12:16:34.46	173.73	17.81	-46.6	-50.3	9.4	1.88e-02	0	39	0	658505728	65	5284
2026-01-20 12:16:38.49	173.96	18.29	-46.6	-50.3	9.5	1.92e-02	0	39	0	681574400	65	5287
2026-01-20 12:16:42.52	174.20	18.77	-46.6	-50.3	9.4	2.00e-02	0	39	0	703594496	65	5336
2026-01-20 12:16:46.55	174.44	19.26	-46.5	-50.2	9.5	1.72e-02	0	39	0	726663168	65	5225
2026-01-20 12:16:50.58	174.69	19.77	-46.4	-49.9	9.8	1.26e-02	0	38	0	749731840	64	5393
2026-01-20 12:16:54.61	174.95	20.28	-46.4	-49.9	9.9	1.14e-02	0	39	0	771751936	64	5343
2026-01-20 12:16:58.65	175.21	20.80	-46.4	-49.8	9.9	1.07e-02	0	39	0	794820608	64	5327
2026-01-20 12:17:02.68	175.49	21.33	-46.3	-49.6	10.2	8.42e-03	0	39	0	817889280	64	5187
2026-01-20 12:17:06.71	175.77	21.88	-46.3	-49.6	10.2	7.85e-03	0	39	0	839909376	64	5194
2026-01-20 12:17:10.74	176.06	22.43	-46.2	-49.5	10.4	6.75e-03	0	39	0	862978048	64	5102
2026-01-20 12:17:14.77	176.37	23.00	-46.1	-49.3	10.5	5.74e-03	0	39	0	884998144	64	5012
2026-01-20 12:17:18.79	176.68	23.58	-46.1	-49.2	10.6	4.40e-03	0	39	0	908066816	64	4982
2026-01-20 12:17:22.82	177.01	24.17	-46.1	-49.3	10.5	5.20e-03	0	39	0	930086912	64	5012
2026-01-20 12:17:26.85	177.34	24.77	-46.0	-49.1	10.8	3.27e-03	0	39	0	953155584	63	5168
2026-01-20 12:17:30.89	177.70	25.39	-46.1	-49.2	10.7	3.71e-03	0	39	0	976224256	63	5254
2026-01-20 12:17:34.92	178.06	26.02	-46.0	-49.0	10.9	2.93e-03	0	39	0	998244352	63	5135
2026-01-20 12:17:38.95	178.44	26.67	-45.9	-48.9	11.0	2.93e-03	0	39	0	1021313024	63	5085
2026-01-20 12:17:42.98	178.83	27.32	-46.0	-49.1	10.9	2.93e-03	0	39	0	1044381696	63	5170
2026-01-20 12:17:47.01	179.24	28.00	-45.9	-48.8	11.1	2.15e-03	0	39	0	1066401792	63	5019
2026-01-20 12:17:51.04	179.66	28.69	-45.9	-48.9	11.1	2.44e-03	0	39	0	1089470464	63	5062
2026-01-20 12:17:55.07	180.11	29.39	-46.0	-49.0	10.9	3.17e-03	0	39	0	1112539136	63	5155
2026-01-20 12:17:59.10	180.57	30.11	-45.9	-48.8	11.1	2.39e-03	0	39	0	1134559232	63	5034
2026-01-20 12:18:03.13	181.06	30.85	-45.8	-48.7	11.3	2.04e-03	0	39	0	1157627904	63	4952
2026-01-20 12:18:07.17	181.56	31.61	-45.8	-48.6	11.3	1.78e-03	0	39	0	1180696576	63	4909
2026-01-20 12:18:11.20	182.09	32.38	-45.8	-48.7	11.3	1.58e-03	0	39	0	1202716672	63	4940
2026-01-20 12:18:15.23	182.65	33.17	-45.7	-48.5	11.5	1.12e-03	0	39	0	1224736768	63	4821
2026-01-20 12:18:19.26	183.23	33.97	-45.7	-48.5	11.5	1.10e-03	0	39	0	1247805440	63	4837
2026-01-20 12:18:23.29	183.84	34.80	-45.8	-48.6	11.4	1.60e-03	0	39	0	1270874112	63	4881
2026-01-20 12:18:27.32	184.48	35.64	-45.6	-48.3	11.7	7.74e-04	0	38	0	1292894208	63	4758
2026-01-20 12:18:31.35	185.16	36.51	-45.6	-48.2	11.8	7.75e-04	0	39	0	1315962880	63	4692
2026-01-20 12:18:35.38	185.87	37.39	-45.7	-48.4	11.6	9.22e-04	0	38	0	1339031552	62	5075
2026-01-20 12:18:39.41	186.62	38.29	-45.9	-48.7	11.3	1.85e-03	0	39	0	1361051648	62	5267
2026-01-20 12:18:43.45	187.41	39.21	-45.6	-48.3	11.8	7.52e-04	0	38	0	1384120320	62	4986
2026-01-20 12:18:47.48	188.25	40.15	-45.8	-48.5	11.5	1.23e-03	0	39	0	1407188992	62	5157
2026-01-20 12:18:51.51	189.14	41.10	-45.9	-48.7	11.3	1.72e-03	0	38	0	1429209088	62	5268
2026-01-20 12:18:55.54	190.08	42.08	-45.9	-48.7	11.3	1.44e-03	0	39	0	1452277760	62	5261
2026-01-20 12:18:59.57	191.08	43.07	-46.0	-48.9	11.1	2.39e-03	0	39	0	1475346432	62	5394
2026-01-20 12:19:03.60	192.14	44.08	-45.9	-48.7	11.3	1.87e-03	0	38	0	1497366528	62	5263
2026-01-20 12:19:07.63	193.27	45.10	-45.9	-48.7	11.3	1.44e-03	0	39	0	1520435200	62	5235
2026-01-20 12:19:11.66	194.47	46.14	-45.9	-48.8	11.2	1.93e-03	0	39	0	1543503872	62	5319
2026-01-20 12:19:15.69	195.76	47.19	-45.9	-48.8	11.2	1.80e-03	0	39	0	1565523968	62	5338
2026-01-20 12:19:19.73	197.14	48.25	-46.2	-49.3	10.7	3.42e-03	0	39	0	1587544064	62	5626
2026-01-20 12:19:23.76	198.61	49.32	-46.1	-49.2	10.9	3.81e-03	0	39	0	1610612736	63	5221
2026-01-20 12:19:27.79	200.19	50.39	-46.3	-49.4	10.6	4.26e-03	0	38	0	1633681408	63	5370
2026-01-20 12:19:31.82	201.88	51.46	-46.2	-49.2	10.8	3.27e-03	0	39	0	1655701504	63	5277
2026-01-20 12:19:35.85	203.69	52.53	-46.4	-49.6	10.3	6.04e-03	0	39	0	1678770176	63	5528
2026-01-20 12:19:39.88	205.64	53.59	-46.2	-49.3	10.7	4.57e-03	0	39	0	1701838848	63	5323
2026-01-20 12:19:43.91	207.74	54.64	-46.7	-50.2	9.8	1.34e-02	0	38	0	1723858944	63	5916
2026-01-20 12:19:47.94	209.99	55.67	-46.4	-49.6	10.5	6.60e-03	0	39	0	1746927616	63	5478
2026-01-20 12:19:51.97	212.41	56.67	-46.4	-49.6	10.3	6.23e-03	0	39	0	1769996288	63	5512
2026-01-20 12:19:56.01	215.02	57.64	-46.3	-49.5	10.6	4.41e-03	0	39	0	1792016384	63	5410
2026-01-20 12:20:00.04	217.80	58.56	-46.2	-49.2	10.8	3.58e-03	0	39	0	1815085056	63	5236
2026-01-20 12:20:04.07	220.78	59.43	-46.1	-49.0	11.0	3.32e-03	0	39	0	1838153728	63	5155
2026-01-20 12:20:08.10	223.95	60.24	-46.1	-49.0	11.0	2.65e-03	0	39	0	1860173824	63	5155
2026-01-20 12:20:12.13	227.32	60.98	-46.1	-49.1	11.0	2.17e-03	0	38	0	1883242496	63	5186
2026-01-20 12:20:16.16	230.88	61.63	-45.9	-48.8	11.4	1.34e-03	0	39	0	1906311168	63	5001
2026-01-20 12:20:20.19	234.62	62.18	-46.0	-48.9	11.2	1.72e-03	0	39	0	1928331264	63	5086
2026-01-20 12:20:24.22	238.51	62.64	-46.1	-48.9	11.2	1.94e-03	0	39	0	1950351360	63	5096
2026-01-20 12:20:28.25	242.54	62.98	-45.8	-48.6	11.6	7.67e-04	0	39	0	1973420032	63	4886
2026-01-20 12:20:32.29	246.67	63.20	-45.8	-48.5	11.6	8.97e-04	0	38	0	1996488704	63	4855
2026-01-20 12:20:36.32	250.84	63.30	-45.7	-48.3	11.9	7.70e-04	0	39	0	2018508800	63	4737
2026-01-20 12:20:40.35	255.03	63.28	-45.8	-48.5	11.7	8.17e-04	0	39	0	2041577472	63	4841
2026-01-20 12:20:44.38	259.19	63.13	-45.9	-48.6	11.6	1.14e-03	0	39	0	2064646144	63	4908
2026-01-20 12:20:48.42	263.29	62.86	-45.8	-48.6	11.6	9.30e-04	0	39	0	2086666240	63	4888
2026-01-20 12:20:52.44	267.25	62.48	-46.0	-48.8	11.3	1.44e-03	0	39	0	2109734912	63	5039
2026-01-20 12:20:56.47	271.09	61.98	-45.9	-48.7	11.5	8.25e-04	0	38	0	2132803584	63	4930
2026-01-20 12:21:00.51	274.76	61.39	-46.0	-48.9	11.3	1.78e-03	0	38	0	2154823680	63	5072
2026-01-20 12:21:04.54	278.25	60.70	-46.0	-48.8	11.4	1.39e-03	0	39	0	2177892352	63	5032
2026-01-20 12:21:08.57	281.54	59.94	-46.2	-49.2	11.0	2.36e-03	0	39	0	2200961024	63	5248
2026-01-20 12:21:12.60	284.64	59.11	-46.4	-49.4	10.7	3.87e-03	0	38	0	2222981120	63	5399
2026-01-20 12:21:16.62	287.53	58.22	-46.4	-49.6	10.6	4.47e-03	0	39	0	2246049792	63	5476
2026-01-20 12:21:20.65	290.24	57.28	-46.3	-49.4	10.8	3.67e-03	0	39	0	2269118464	63	5341
2026-01-20 12:21:24.69	292.77	56.30	-46.6	-50.0	10.1	8.91e-03	0	39	0	2291138560	64	5405
2026-01-20 12:21:28.72	295.12	55.29	-46.8	-50.4	9.7	1.67e-02	0	39	0	2313158656	64	5673
2026-01-20 12:21:32.75	297.31	54.26	-46.9	-50.6	9.5	1.78e-02	0	39	0	2336227328	64	5792
2026-01-20 12:21:36.78	299.35	53.21	-46.8	-50.3	9.7	1.33e-02	0	39	0	2359296000	64	5624
2026-01-20 12:21:40.81	301.24	52.15	-46.6	-49.9	10.2	7.26e-03	0	39	0	2381316096	64	5379
2026-01-20 12:21:44.85	303.01	51.07	-46.4	-49.6	10.5	5.51e-03	0	38	0	2404384768	64	5175
2026-01-20 12:21:48.88	304.66	50.01	-46.6	-49.9	10.2	7.45e-03	0	39	0	2427453440	64	5379
2026-01-20 12:21:52.91	306.19	48.94	-46.2	-49.2	10.9	3.43e-03	0	39	0	2449473536	64	4980
2026-01-20 12:21:56.94	307.62	47.88	-46.2	-49.3	10.9	3.53e-03	0	39	0	2472542208	64	4987
2026-01-20 12:22:00.97	308.96	46.82	-46.3	-49.3	10.8	3.02e-03	0	39	0	2495610880	64	5002
2026-01-20 12:22:05.00	310.21	45.78	-46.2	-49.2	10.9	3.09e-03	0	39	0	2517630976	64	4963
2026-01-20 12:22:09.03	311.39	44.75	-46.1	-49.1	11.0	2.42e-03	0	39	0	2540699648	64	4895
2026-01-20 12:22:13.06	312.49	43.74	-46.2	-49.2	10.9	2.67e-03	0	38	0	2563768320	64	4966
2026-01-20 12:22:17.09	313.53	42.74	-46.2	-49.2	11.0	2.49e-03	0	38	0	2585788416	64	4941
2026-01-20 12:22:21.13	314.51	41.75	-46.2	-49.1	11.0	2.97e-03	0	39	0	2608857088	64	4908
2026-01-20 12:22:25.16	315.43	40.79	-46.1	-49.0	11.1	1.88e-03	0	38	0	2631925760	64	4835
2026-01-20 12:22:29.19	316.29	39.84	-46.1	-48.9	11.3	1.54e-03	0	39	0	2653945856	63	5090
2026-01-20 12:22:33.22	317.11	38.92	-46.0	-48.8	11.5	1.16e-03	0	39	0	2675965952	63	4992
2026-01-20 12:22:37.25	317.89	38.01	-46.0	-48.8	11.4	1.39e-03	0	39	0	2699034624	63	5024
2026-01-20 12:22:41.28	318.63	37.12	-46.0	-48.8	11.5	1.08e-03	0	38	0	2722103296	63	4989
2026-01-20 12:22:45.31	319.32	36.24	-46.0	-48.7	11.5	1.19e-03	0	38	0	2744123392	63	4966
2026-01-20 12:22:49.34	319.99	35.39	-46.0	-48.8	11.4	1.49e-03	0	39	0	2767192064	63	5033
2026-01-20 12:22:53.37	320.62	34.56	-46.0	-48.8	11.4	1.47e-03	0	38	0	2790260736	63	5000
2026-01-20 12:22:57.41	321.22	33.74	-46.0	-48.8	11.3	1.49e-03	0	39	0	2812280832	63	5035
2026-01-20 12:23:01.44	321.79	32.94	-46.1	-49.0	11.2	1.90e-03	0	38	0	2835349504	63	5142
2026-01-20 12:23:05.47	322.34	32.16	-46.0	-48.8	11.4	1.63e-03	0	38	0	2858418176	63	5020
2026-01-20 12:23:09.50	322.86	31.40	-46.0	-48.9	11.3	1.70e-03	0	39	0	2880438272	63	5071
2026-01-20 12:23:13.53	323.35	30.65	-46.1	-48.9	11.3	1.70e-03	0	38	0	2903506944	63	5070
2026-01-20 12:23:17.57	323.83	29.92	-46.1	-48.9	11.2	1.83e-03	0	39	0	2926575616	63	5094
2026-01-20 12:23:21.60	324.29	29.21	-46.2	-49.2	11.0	2.53e-03	0	39	0	2948595712	63	5221
2026-01-20 12:23:25.63	324.73	28.51	-46.2	-49.2	10.9	2.88e-03	0	38	0	2971664384	63	5245
2026-01-20 12:23:29.66	325.15	27.83	-46.0	-48.9	11.3	1.65e-03	0	38	0	2994733056	63	5051
2026-01-20 12:23:33.69	325.55	27.17	-45.9	-48.7	11.4	1.43e-03	0	38	0	3016753152	63	4963
2026-01-20 12:23:37.72	325.94	26.52	-46.1	-49.0	11.1	2.14e-03	0	38	0	3038773248	63	5149
2026-01-20 12:23:41.75	326.31	25.88	-46.2	-49.1	11.0	2.41e-03	0	38	0	3061841920	63	5211
2026-01-20 12:23:45.79	326.67	25.25	-46.3	-49.3	10.7	3.70e-03	0	38	0	3084910592	63	5339
2026-01-20 12:23:49.82	327.02	24.64	-46.3	-49.4	10.6	4.27e-03	0	39	0	3106930688	63	5377
2026-01-20 12:23:53.85	327.35	24.05	-46.4	-49.5	10.6	4.31e-03	0	38	0	3129999360	63	5424
2026-01-20 12:23:57.88	327.68	23.46	-46.3	-49.4	10.6	4.34e-03	0	38	0	3153068032	63	5391
2026-01-20 12:24:01.91	327.99	22.89	-46.4	-49.6	10.5	4.80e-03	0	38	0	3175088128	63	5466
2026-01-20 12:24:05.94	328.29	22.33	-46.4	-49.7	10.3	5.95e-03	0	38	0	3198156800	63	5533
2026-01-20 12:24:09.97	328.58	21.78	-46.5	-49.8	10.2	7.70e-03	0	39	0	3221225472	63	5635
2026-01-20 12:24:14.01	328.86	21.24	-46.7	-50.1	9.9	1.10e-02	0	39	0	3243245568	63	5822
2026-01-20 12:24:18.04	329.13	20.71	-46.7	-50.1	9.8	1.16e-02	0	38	0	3266314240	63	5834
2026-01-20 12:24:22.07	329.40	20.20	-46.6	-50.2	9.7	1.43e-02	0	38	0	3289382912	64	5529
2026-01-20 12:24:26.10	329.65	19.69	-46.7	-50.3	9.5	1.81e-02	0	38	0	3311403008	64	5624
2026-01-20 12:24:30.13	329.90	19.19	-46.7	-50.4	9.5	1.89e-02	0	38	0	3334471680	64	5687
2026-01-20 12:24:34.17	330.14	18.70	-46.8	-50.5	9.3	2.27e-02	0	38	0	3357540352	64	5782
2026-01-20 12:24:38.20	330.38	18.22	-46.8	-50.5	9.3	2.27e-02	0	39	0	3379560448	64	5756
2026-01-20 12:24:42.23	330.61	17.75	-46.8	-50.6	9.1	2.58e-02	0	38	0	3402629120	64	5855
2026-01-20 12:24:46.27	330.83	17.29	-46.8	-50.6	9.2	2.42e-02	0	38	0	3424649216	64	5797
2026-01-20 12:24:50.29	331.04	16.84	-46.9	-50.7	9.1	2.91e-02	0	38	0	3447717888	64	5893
2026-01-20 12:24:54.33	331.25	16.39	-46.9	-50.8	8.9	3.28e-02	0	38	0	3469737984	64	5981
2026-01-20 12:24:58.35	331.46	15.96	-46.9	-50.9	8.8	3.55e-02	0	38	0	3492806656	64	6032
2026-01-20 12:25:02.39	331.65	15.52	-47.0	-51.1	8.6	4.19e-02	0	38	0	3515875328	64	6168
2026-01-20 12:25:06.42	331.85	15.10	-47.1	-51.2	8.5	4.68e-02	0	38	0	3537895424	64	6264
2026-01-20 12:25:10.45	332.04	14.68	-47.1	-51.3	8.5	5.17e-02	0	38	0	3560964096	64	6290
2026-01-20 12:25:14.48	332.22	14.28	-47.2	-51.4	8.3	5.61e-02	0	39	0	3584032768	64	6396
2026-01-20 12:25:18.51	332.40	13.87	-47.2	-51.6	8.1	7.07e-02	0	38	0	3606052864	65	6174
2026-01-20 12:25:22.54	332.57	13.48	-47.3	-51.8	7.9	8.26e-02	0	38	0	3629121536	65	6293
2026-01-20 12:25:26.57	332.75	13.09	-47.2	-51.6	8.1	7.52e-02	0	38	0	3652190208	65	6197
2026-01-20 12:25:30.60	332.91	12.70	-47.3	-51.7	8.0	7.84e-02	0	38	0	3674210304	65	6254
2026-01-20 12:25:34.63	333.08	12.32	-47.3	-51.8	7.9	8.45e-02	0	38	0	3697278976	65	6330
2026-01-20 12:25:38.67	333.24	11.95	-47.6	-52.6	4.9	8.41e-01	0	38	104	3703570432	67	6174
2026-01-20 12:25:42.70	333.39	11.58	-47.4	-52.1	7.7	7.73e-02	0	38	0	3722444800	66	6147
2026-01-20 12:25:46.73	333.54	11.22	-48.3	-54.9	5.4	2.95e-01	0	39	0	3745513472	67	8006
2026-01-20 12:25:50.76	333.69	10.86	-47.6	-52.5	7.2	1.44e-01	0	38	0	3748659200	67	6108
2026-01-20 12:25:54.79	333.84	10.51	-47.5	-52.4	7.3	1.43e-01	0	38	0	3770679296	66	6406
2026-01-20 12:25:58.83	333.98	10.16	-49.1	-60.2	3.8	8.42e-01	0	38	104	3786407936	68	13948
2026-01-20 12:26:02.86	334.12	9.82	-47.7	-52.8	7.0	1.41e-01	0	38	0	3795845120	67	6294
2026-01-20 12:26:06.89	334.26	9.48	-47.6	-52.6	7.1	1.35e-01	0	38	0	3817865216	67	6194
2026-01-20 12:26:10.92	334.40	9.15	-49.2	-60.8	3.8	8.46e-01	0	38	104	3827302400	68	15026
2026-01-20 12:26:14.95	334.53	8.82	-47.6	-52.7	7.0	1.82e-01	0	38	0	3843031040	67	6242
2026-01-20 12:26:18.99	334.66	8.50	-47.7	-53.1	6.7	2.32e-01	0	38	0	3865051136	67	6496
2026-01-20 12:26:23.02	334.79	8.18	-47.9	-53.5	6.3	8.00e-01	0	38	104	3868196864	67	6810
2026-01-20 12:26:27.05	334.91	7.86	-47.9	-53.8	6.0	3.47e-01	0	38	0	3890216960	67	7108
2026-01-20 12:26:31.08	335.03	7.55	-48.6	-56.9	4.3	8.26e-01	0	38	0	3904897024	67	10155
2026-01-20 12:26:35.11	335.15	7.24	-47.9	-53.7	6.1	3.25e-01	0	38	0	3910139904	67	6968
2026-01-20 12:26:39.14	335.27	6.93	-47.8	-53.3	6.4	2.94e-01	0	38	0	3933208576	67	6717
2026-01-20 12:26:43.17	335.39	6.63	-49.0	-60.1	3.8	8.47e-01	0	38	104	3945791488	68	13878
2026-01-20 12:26:47.20	335.50	6.33	-47.9	-53.6	6.2	3.34e-01	0	38	0	3957325824	67	6904
2026-01-20 12:26:51.23	335.62	6.03	-47.9	-53.7	6.1	2.99e-01	0	38	0	3980394496	67	6971
2026-01-20 12:26:55.26	335.73	5.74	-48.9	-59.4	3.8	8.45e-01	0	38	104	3986685952	68	12771
2026-01-20 12:26:59.29	335.83	5.45	-48.2	-54.6	5.5	5.06e-01	0	38	0	3999268864	68	7361
2026-01-20 12:27:03.32	335.94	5.17	-48.0	-54.1	5.8	3.68e-01	0	38	0	4020240384	67	7356
2026-01-20 12:27:07.35	336.05	4.88	-49.2	-61.1	3.8	8.46e-01	0	38	104	4021288960	69	14645
2026-01-20 12:27:11.39	336.15	4.60	-49.4	-61.3	3.8	8.46e-01	0	39	104	4021288960	69	14935
2026-01-20 12:27:15.42	336.25	4.33	-49.6	-61.5	3.8	8.47e-01	0	38	104	4021288960	69	15262
2026-01-20 12:27:19.45	336.35	4.05	-49.7	-61.6	3.8	8.46e-01	0	38	104	4021288960	69	15435
2026-01-20 12:27:23.48	336.45	3.78	-49.7	-61.6	3.8	8.45e-01	0	38	104	4021288960	70	14599
2026-01-20 12:27:27.51	336.55	3.51	-49.8	-61.6	3.8	8.47e-01	0	38	104	4021288960	70	14635
2026-01-20 12:27:31.54	336.65	3.25	-49.7	-61.5	3.8	8.46e-01	0	38	104	4021288960	70	14509
2026-01-20 12:27:35.58	336.74	2.98	-49.7	-61.5	3.8	8.46e-01	0	38	104	4021288960	70	14483
2026-01-20 12:27:39.60	336.83	2.72	-49.6	-61.5	3.8	8.46e-01	0	38	104	4021288960	70	14471
2026-01-20 12:27:43.63	336.93	2.46	-49.6	-61.5	3.8	8.46e-01	0	38	104	4021288960	70	14441
2026-01-20 12:27:47.67	337.02	2.20	-49.6	-61.4	3.8	8.45e-01	0	38	104	4021288960	70	14346
2026-01-20 12:27:51.70	337.11	1.95	-49.6	-61.4	3.8	8.47e-01	0	38	104	4021288960	70	14346

#Closed at: 2026-01-20 12:27:52
#Recorded file [4021 MB]: D:/lorett/data/31041_260120_151328.dat