passes_logs/2026/01/20/R3.2S_Murmansk/R3.2S_Murmansk__20260120_011752_SUOMI_NPP_rec.log

#Pass ID: 20260120_011752_SUOMI NPP
#Satellite: SUOMI NPP
#Configuration: NPP
#almurnet v.1.7.20251203
#Start time: 2026-01-20 01:17:54

#Version: 2.2.20231116
#Station: R3.2S_Murmansk
#Location: 33.079688 lon 68.888172 lat
#TLE: 1 37849U 11061A   26019.26265094  .00000081  00000+0  59609-4 0  9993
#TLE: 2 37849  98.7817 321.2746 0002356  56.2510 303.8890 14.19526363737315

#Time	Az	El	Level	Level2	SNR	BER	BlckErr	Temp	State	Recorded	gain1	gain2
2026-01-20 01:17:54.13	26.75	2.09	-51.0	-65.9	3.8	1.49e+00	0	37	0	0	74	18992
2026-01-20 01:17:58.16	26.71	2.35	-51.0	-65.9	3.8	1.49e+00	0	37	104	0	72	21387
2026-01-20 01:18:02.19	26.67	2.61	-51.0	-65.7	3.8	1.49e+00	0	37	104	0	72	21010
2026-01-20 01:18:06.23	26.63	2.88	-51.0	-65.7	3.8	1.49e+00	0	37	104	0	72	20838
2026-01-20 01:18:10.26	26.58	3.14	-50.9	-63.8	3.8	1.49e+00	0	37	104	0	72	16753
2026-01-20 01:18:14.29	26.54	3.41	-50.1	-57.4	7.2	2.09e-01	0	37	0	5242880	72	8035
2026-01-20 01:18:18.32	26.49	3.68	-49.2	-54.0	10.7	7.52e-03	0	37	0	12582912	70	6095
2026-01-20 01:18:22.35	26.44	3.96	-48.5	-52.5	12.2	4.95e-05	0	38	0	19922944	67	6071
2026-01-20 01:18:26.39	26.39	4.23	-49.9	-56.2	8.5	2.32e-02	0	38	0	27262976	70	7858
2026-01-20 01:18:30.42	26.34	4.51	-50.1	-57.1	7.6	9.50e-02	0	38	0	34603008	71	8186
2026-01-20 01:18:34.45	26.29	4.79	-50.7	-61.2	4.6	1.01e+00	0	38	0	42991616	72	12419
2026-01-20 01:18:38.48	26.24	5.08	-50.9	-63.8	3.8	1.48e+00	0	38	104	47185920	72	16801
2026-01-20 01:18:42.51	26.19	5.37	-51.4	-62.2	4.6	1.40e-01	1	38	0	48234496	73	13143
2026-01-20 01:18:46.55	26.13	5.66	-49.1	-52.4	13.7	7.70e-05	0	38	0	52428800	70	5065
2026-01-20 01:18:50.57	26.07	5.95	-48.9	-51.9	14.4	0.00e+00	0	38	0	59768832	69	5072
2026-01-20 01:18:54.61	26.01	6.25	-48.4	-51.0	15.3	0.00e+00	0	38	0	67108864	68	4858
2026-01-20 01:18:58.64	25.95	6.55	-48.1	-50.6	15.7	0.00e+00	0	38	0	74448896	68	4633
2026-01-20 01:19:02.67	25.89	6.86	-47.7	-50.0	16.3	0.00e+00	0	38	0	81788928	67	4585
2026-01-20 01:19:06.69	25.83	7.17	-48.0	-50.4	15.9	0.00e+00	0	38	0	90177536	67	4814
2026-01-20 01:19:10.73	25.76	7.48	-47.6	-49.8	16.5	0.00e+00	0	38	0	97517568	67	4480
2026-01-20 01:19:14.76	25.70	7.80	-47.7	-50.0	16.4	0.00e+00	0	38	0	104857600	67	4554
2026-01-20 01:19:18.79	25.63	8.12	-47.6	-49.9	16.5	0.00e+00	0	38	0	112197632	67	4510
2026-01-20 01:19:22.82	25.56	8.44	-47.9	-50.2	16.3	0.00e+00	0	38	0	119537664	67	4670
2026-01-20 01:19:26.85	25.48	8.77	-47.9	-50.2	16.3	0.00e+00	0	38	0	127926272	67	4659
2026-01-20 01:19:30.88	25.41	9.10	-47.9	-50.1	16.3	0.00e+00	0	38	0	135266304	67	4644
2026-01-20 01:19:34.92	25.33	9.44	-47.6	-49.7	16.8	0.00e+00	0	38	0	142606336	66	4703
2026-01-20 01:19:38.95	25.25	9.78	-47.6	-49.7	16.8	0.00e+00	0	38	0	149946368	66	4690
2026-01-20 01:19:42.98	25.17	10.12	-47.4	-49.4	17.1	0.00e+00	0	38	0	158334976	66	4533
2026-01-20 01:19:47.01	25.09	10.48	-47.1	-49.1	17.5	0.00e+00	0	38	0	165675008	66	4347
2026-01-20 01:19:51.04	25.00	10.83	-47.0	-48.9	17.6	0.00e+00	0	38	0	173015040	65	4543
2026-01-20 01:19:55.08	24.91	11.19	-47.0	-48.8	17.8	0.00e+00	0	38	0	180355072	65	4488
2026-01-20 01:19:59.11	24.82	11.56	-46.8	-48.7	17.9	0.00e+00	0	38	0	187695104	65	4392
2026-01-20 01:20:03.14	24.73	11.93	-46.8	-48.6	18.0	0.00e+00	0	38	0	196083712	65	4368
2026-01-20 01:20:07.17	24.63	12.31	-46.7	-48.4	18.2	0.00e+00	0	38	0	203423744	65	4283
2026-01-20 01:20:11.20	24.53	12.69	-46.6	-48.4	18.3	0.00e+00	0	38	0	210763776	64	4496
2026-01-20 01:20:15.24	24.43	13.08	-46.4	-48.0	18.6	0.00e+00	0	38	0	218103808	64	4334
2026-01-20 01:20:19.27	24.32	13.48	-46.2	-47.9	18.8	0.00e+00	0	38	0	225443840	64	4247
2026-01-20 01:20:23.30	24.21	13.88	-46.4	-48.1	18.6	0.00e+00	0	38	0	233832448	64	4342
2026-01-20 01:20:27.33	24.10	14.29	-46.1	-47.6	19.0	0.00e+00	0	38	0	241172480	64	4135
2026-01-20 01:20:31.36	23.98	14.70	-46.0	-47.5	19.2	0.00e+00	0	38	0	248512512	63	4326
2026-01-20 01:20:35.39	23.86	15.13	-45.9	-47.4	19.3	0.00e+00	0	38	0	255852544	63	4277
2026-01-20 01:20:39.43	23.73	15.56	-45.7	-47.1	19.7	0.00e+00	0	39	0	264241152	63	4126
2026-01-20 01:20:43.45	23.61	15.99	-45.6	-47.1	19.7	0.00e+00	0	38	0	271581184	62	4342
2026-01-20 01:20:47.49	23.47	16.44	-45.5	-47.0	19.8	0.00e+00	0	38	0	278921216	62	4301
2026-01-20 01:20:51.52	23.33	16.89	-45.4	-46.8	20.0	0.00e+00	0	38	0	286261248	62	4228
2026-01-20 01:20:55.55	23.19	17.36	-45.6	-47.0	19.8	0.00e+00	0	38	0	293601280	62	4318
2026-01-20 01:20:59.58	23.04	17.83	-45.6	-47.1	19.8	0.00e+00	0	39	0	301989888	62	4354
2026-01-20 01:21:03.61	22.89	18.31	-45.6	-47.0	19.8	0.00e+00	0	38	0	309329920	62	4333
2026-01-20 01:21:07.64	22.73	18.79	-45.6	-47.0	19.9	0.00e+00	0	39	0	316669952	62	4316
2026-01-20 01:21:11.67	22.57	19.29	-45.6	-46.9	19.9	0.00e+00	0	39	0	324009984	62	4288
2026-01-20 01:21:15.71	22.40	19.80	-45.7	-47.1	19.8	0.00e+00	0	39	0	331350016	62	4355
2026-01-20 01:21:19.73	22.22	20.32	-45.4	-46.7	20.1	0.00e+00	0	38	0	339738624	62	4182
2026-01-20 01:21:23.76	22.04	20.85	-45.3	-46.7	20.2	0.00e+00	0	39	0	347078656	62	4148
2026-01-20 01:21:27.79	21.85	21.39	-45.3	-46.5	20.3	0.00e+00	0	39	0	354418688	62	4095
2026-01-20 01:21:31.83	21.65	21.94	-45.6	-46.9	20.0	0.00e+00	0	39	0	361758720	62	4281
2026-01-20 01:21:35.86	21.45	22.50	-45.5	-46.8	20.1	0.00e+00	0	38	0	369098752	62	4237
2026-01-20 01:21:39.89	21.24	23.08	-45.7	-47.2	19.8	0.00e+00	0	39	0	377487360	62	4396
2026-01-20 01:21:43.93	21.01	23.67	-45.3	-46.7	20.3	0.00e+00	0	39	0	384827392	62	4151
2026-01-20 01:21:47.96	20.78	24.27	-45.6	-47.0	20.0	0.00e+00	0	38	0	392167424	62	4331
2026-01-20 01:21:51.99	20.54	24.89	-45.8	-47.2	19.8	0.00e+00	0	39	0	399507456	62	4403
2026-01-20 01:21:56.02	20.29	25.52	-46.5	-48.1	18.9	0.00e+00	0	39	0	406847488	63	4651
2026-01-20 01:22:00.05	20.03	26.16	-46.1	-47.6	19.4	0.00e+00	0	38	0	415236096	64	4118
2026-01-20 01:22:04.08	19.75	26.82	-46.8	-48.5	18.6	0.00e+00	0	38	0	422576128	64	4556
2026-01-20 01:22:08.11	19.47	27.49	-47.4	-49.2	17.9	0.00e+00	0	39	0	429916160	65	4696
2026-01-20 01:22:12.14	19.17	28.18	-47.7	-49.7	17.5	0.00e+00	0	39	0	437256192	66	4671
2026-01-20 01:22:16.17	18.85	28.89	-47.3	-49.1	18.0	0.00e+00	0	38	0	444596224	66	4369
2026-01-20 01:22:20.21	18.53	29.62	-48.0	-50.1	17.2	0.00e+00	0	38	0	452984832	66	4873
2026-01-20 01:22:24.23	18.18	30.36	-48.0	-50.2	17.0	0.00e+00	0	39	0	460324864	67	4687
2026-01-20 01:22:28.27	17.82	31.12	-48.3	-50.5	16.7	0.00e+00	0	38	0	467664896	67	4854
2026-01-20 01:22:32.30	17.44	31.90	-48.6	-50.9	16.5	0.00e+00	0	39	0	475004928	68	4795
2026-01-20 01:22:36.33	17.04	32.70	-48.8	-51.2	16.1	0.00e+00	0	38	0	483393536	68	4967
2026-01-20 01:22:40.36	16.62	33.52	-48.8	-51.3	16.0	0.00e+00	0	38	0	490733568	68	4996
2026-01-20 01:22:44.39	16.18	34.35	-49.6	-52.5	14.8	0.00e+00	0	39	0	498073600	70	5127
2026-01-20 01:22:48.42	15.71	35.22	-48.7	-51.1	16.2	0.00e+00	0	39	0	505413632	68	4912
2026-01-20 01:22:52.45	15.21	36.10	-49.2	-51.8	15.5	0.00e+00	0	39	0	512753664	68	5337
2026-01-20 01:22:56.48	14.69	37.00	-49.6	-52.6	14.7	0.00e+00	0	39	0	521142272	69	5472
2026-01-20 01:23:00.51	14.14	37.93	-48.2	-50.3	16.9	0.00e+00	0	39	0	528482304	68	4465
2026-01-20 01:23:04.55	13.55	38.88	-48.9	-51.4	16.0	0.00e+00	0	38	0	535822336	68	5058
2026-01-20 01:23:08.57	12.92	39.85	-49.4	-52.2	15.2	0.00e+00	0	39	0	543162368	69	5238
2026-01-20 01:23:12.61	12.26	40.85	-49.3	-52.0	15.5	7.00e-07	0	39	0	550502400	70	4836
2026-01-20 01:23:16.64	11.55	41.87	-47.9	-49.9	17.4	0.00e+00	0	39	0	558891008	67	4529
2026-01-20 01:23:20.67	10.79	42.92	-47.9	-50.0	17.2	0.00e+00	0	39	0	566231040	67	4568
2026-01-20 01:23:24.70	9.98	43.98	-47.8	-49.8	17.4	0.00e+00	0	39	0	573571072	67	4491
2026-01-20 01:23:28.73	9.12	45.07	-46.6	-48.2	18.9	0.00e+00	0	39	0	580911104	64	4437
2026-01-20 01:23:32.76	8.19	46.19	-47.7	-49.8	17.5	0.00e+00	0	39	0	588251136	66	4755
2026-01-20 01:23:36.80	7.19	47.32	-46.8	-48.5	18.8	0.00e+00	0	39	0	596639744	65	4296
2026-01-20 01:23:40.82	6.11	48.48	-47.5	-49.4	17.8	0.00e+00	0	39	0	603979776	66	4514
2026-01-20 01:23:44.86	4.95	49.65	-46.5	-48.1	19.1	0.00e+00	0	39	0	611319808	64	4354
2026-01-20 01:23:48.89	3.69	50.84	-45.8	-47.3	20.2	0.00e+00	0	39	0	618659840	63	4198
2026-01-20 01:23:52.92	2.32	52.05	-46.7	-48.3	19.0	0.00e+00	0	39	0	625999872	64	4471
2026-01-20 01:23:56.95	0.84	53.27	-46.4	-47.9	19.4	0.00e+00	0	39	0	634388480	64	4279
2026-01-20 01:24:00.99	359.23	54.50	-46.0	-47.4	19.8	0.00e+00	0	39	0	641728512	63	4275
2026-01-20 01:24:05.02	357.47	55.73	-47.7	-49.7	17.7	0.00e+00	0	38	0	649068544	66	4658
2026-01-20 01:24:09.05	355.55	56.96	-49.0	-51.5	16.1	0.00e+00	0	39	0	656408576	68	5148
2026-01-20 01:24:13.08	353.45	58.18	-47.7	-49.5	17.9	0.00e+00	0	39	0	664797184	67	4337
2026-01-20 01:24:17.11	351.14	59.39	-47.3	-49.1	18.2	0.00e+00	0	38	0	672137216	65	4624
2026-01-20 01:24:21.15	348.61	60.57	-47.1	-48.8	18.6	0.00e+00	0	39	0	679477248	65	4469
2026-01-20 01:24:25.18	345.84	61.72	-45.7	-47.1	20.2	0.00e+00	0	39	0	686817280	63	4104
2026-01-20 01:24:29.21	342.80	62.83	-45.7	-47.1	20.2	0.00e+00	0	39	0	694157312	63	4130
2026-01-20 01:24:33.24	339.47	63.88	-45.9	-47.3	20.1	0.00e+00	0	38	0	702545920	63	4211
2026-01-20 01:24:37.27	335.84	64.85	-46.2	-47.7	19.7	0.00e+00	0	39	0	709885952	62	4676
2026-01-20 01:24:41.31	331.89	65.74	-45.7	-47.0	20.3	0.00e+00	0	39	0	717225984	62	4324
2026-01-20 01:24:45.33	327.64	66.53	-46.0	-47.4	20.0	0.00e+00	0	39	0	724566016	63	4248
2026-01-20 01:24:49.37	323.07	67.19	-47.5	-49.3	18.1	0.00e+00	0	39	0	731906048	66	4477
2026-01-20 01:24:53.40	318.24	67.72	-48.8	-51.1	16.5	0.00e+00	0	39	0	740294656	69	4610
2026-01-20 01:24:57.43	313.19	68.09	-47.7	-49.4	18.1	0.00e+00	0	38	0	747634688	66	4527
2026-01-20 01:25:01.46	308.00	68.31	-47.9	-49.8	17.6	0.00e+00	0	38	0	754974720	66	4738
2026-01-20 01:25:05.49	302.74	68.35	-47.6	-49.4	18.1	0.00e+00	0	39	0	762314752	67	4252
2026-01-20 01:25:09.52	297.49	68.23	-47.1	-48.7	18.8	0.00e+00	0	39	0	769654784	65	4394
2026-01-20 01:25:13.56	292.34	67.94	-47.8	-49.7	17.7	0.00e+00	0	39	0	778043392	66	4702
2026-01-20 01:25:17.58	287.40	67.49	-49.7	-52.4	15.3	0.00e+00	0	39	0	785383424	71	4788
2026-01-20 01:25:21.61	282.69	66.90	-49.5	-52.3	15.3	0.00e+00	0	39	0	792723456	70	4984
2026-01-20 01:25:25.64	278.26	66.18	-47.3	-49.1	18.5	0.00e+00	0	39	0	800063488	65	4602
2026-01-20 01:25:29.67	274.14	65.35	-45.2	-46.4	20.9	0.00e+00	0	39	0	807403520	62	4016
2026-01-20 01:25:33.71	270.33	64.41	-45.5	-46.7	20.6	0.00e+00	0	39	0	815792128	62	4191
2026-01-20 01:25:37.74	266.84	63.40	-46.8	-48.4	18.9	0.00e+00	0	39	0	823132160	64	4521
2026-01-20 01:25:41.77	263.64	62.32	-48.0	-50.0	17.6	0.00e+00	0	39	0	830472192	67	4564
2026-01-20 01:25:45.81	260.72	61.19	-48.6	-50.9	16.6	0.00e+00	0	39	0	837812224	67	5075
2026-01-20 01:25:49.84	258.06	60.02	-49.7	-52.6	15.1	0.00e+00	0	39	0	846200832	70	5212
2026-01-20 01:25:53.87	255.64	58.83	-47.8	-49.7	17.7	0.00e+00	0	39	0	853540864	66	4688
2026-01-20 01:25:57.90	253.43	57.61	-45.5	-46.8	20.4	0.00e+00	0	39	0	860880896	63	3990
2026-01-20 01:26:01.93	251.41	56.38	-46.0	-47.5	19.8	0.00e+00	0	39	0	868220928	62	4549
2026-01-20 01:26:05.97	249.56	55.14	-46.0	-47.4	20.0	0.00e+00	0	39	0	875560960	63	4248
2026-01-20 01:26:09.99	247.87	53.91	-46.4	-47.9	19.4	0.00e+00	0	39	0	883949568	63	4534
2026-01-20 01:26:14.03	246.32	52.69	-46.7	-48.4	19.0	0.00e+00	0	39	0	891289600	63	4782
2026-01-20 01:26:18.06	244.89	51.47	-47.2	-49.0	18.4	0.00e+00	0	39	0	898629632	65	4554
2026-01-20 01:26:22.09	243.57	50.27	-46.6	-48.1	19.1	0.00e+00	0	39	0	905969664	64	4390
2026-01-20 01:26:26.12	242.36	49.08	-46.6	-48.2	19.2	0.00e+00	0	39	0	913309696	63	4667
2026-01-20 01:26:30.15	241.24	47.91	-47.6	-49.6	17.7	0.00e+00	0	39	0	921698304	65	4905
2026-01-20 01:26:34.19	240.19	46.76	-48.8	-51.2	16.4	0.00e+00	0	39	0	929038336	68	4963
2026-01-20 01:26:38.22	239.22	45.64	-47.2	-48.9	18.4	0.00e+00	0	39	0	936378368	65	4528
2026-01-20 01:26:42.25	238.32	44.53	-45.9	-47.3	19.8	0.00e+00	0	39	0	943718400	63	4230
2026-01-20 01:26:46.28	237.48	43.45	-47.8	-49.7	17.6	0.00e+00	0	39	0	951058432	67	4434
2026-01-20 01:26:50.31	236.70	42.39	-50.8	-54.9	12.4	1.72e-04	0	39	0	959447040	72	6022
2026-01-20 01:26:54.34	235.96	41.35	-48.5	-50.7	16.6	0.00e+00	0	39	0	966787072	69	4412
2026-01-20 01:26:58.37	235.27	40.34	-48.4	-50.6	16.8	0.00e+00	0	39	0	974127104	67	4894
2026-01-20 01:27:02.40	234.63	39.35	-49.8	-52.9	14.7	0.00e+00	0	39	0	981467136	70	5350
2026-01-20 01:27:06.43	234.02	38.39	-49.8	-52.8	14.6	0.00e+00	0	39	0	989855744	70	5324
2026-01-20 01:27:10.46	233.44	37.45	-50.3	-53.7	13.7	1.14e-05	0	39	0	997195776	71	5571
2026-01-20 01:27:14.49	232.90	36.53	-47.3	-49.0	18.3	0.00e+00	0	39	0	1004535808	66	4327
2026-01-20 01:27:18.53	232.39	35.63	-47.2	-49.0	18.2	0.00e+00	0	39	0	1011875840	65	4581
2026-01-20 01:27:22.55	231.91	34.76	-49.1	-51.7	15.8	0.00e+00	0	39	0	1019215872	69	4961
2026-01-20 01:27:26.58	231.45	33.91	-48.4	-50.4	16.9	0.00e+00	0	39	0	1027604480	68	4545
2026-01-20 01:27:30.61	231.02	33.08	-48.8	-51.2	16.3	0.00e+00	0	39	0	1034944512	68	4970
2026-01-20 01:27:34.64	230.61	32.26	-49.1	-51.6	15.9	0.00e+00	0	39	0	1042284544	68	5211
2026-01-20 01:27:38.67	230.21	31.47	-48.9	-51.3	16.1	0.00e+00	0	39	0	1049624576	69	4708
2026-01-20 01:27:42.70	229.84	30.70	-48.4	-50.6	16.8	0.00e+00	0	39	0	1056964608	67	4884
2026-01-20 01:27:46.74	229.49	29.94	-50.5	-54.0	13.4	7.60e-06	0	39	0	1065353216	71	5780
2026-01-20 01:27:50.77	229.15	29.21	-49.5	-52.2	15.2	0.00e+00	0	39	0	1072693248	70	4942
2026-01-20 01:27:54.80	228.83	28.49	-49.7	-52.6	14.7	0.00e+00	0	39	0	1080033280	70	5215
2026-01-20 01:27:58.83	228.52	27.79	-49.4	-52.0	15.3	0.00e+00	0	39	0	1087373312	70	4863
2026-01-20 01:28:02.87	228.22	27.10	-48.5	-50.7	16.6	0.00e+00	0	39	0	1094713344	68	4698
2026-01-20 01:28:06.89	227.94	26.44	-48.1	-50.2	17.0	0.00e+00	0	39	0	1103101952	67	4670
2026-01-20 01:28:10.93	227.67	25.78	-48.7	-51.1	16.3	0.00e+00	0	39	0	1110441984	68	4886
2026-01-20 01:28:14.96	227.41	25.15	-49.1	-51.6	15.7	0.00e+00	0	39	0	1117782016	69	4918
2026-01-20 01:28:18.99	227.16	24.52	-48.0	-50.0	17.2	0.00e+00	0	39	0	1125122048	68	4328
2026-01-20 01:28:23.02	226.93	23.91	-47.6	-49.5	17.6	0.00e+00	0	39	0	1132462080	66	4580
2026-01-20 01:28:27.05	226.70	23.32	-48.6	-51.0	16.2	0.00e+00	0	39	0	1140850688	67	5123
2026-01-20 01:28:31.08	226.48	22.73	-48.7	-51.0	16.2	0.00e+00	0	39	0	1148190720	68	4857
2026-01-20 01:28:35.11	226.27	22.16	-47.8	-49.8	17.3	0.00e+00	0	39	0	1155530752	67	4470
2026-01-20 01:28:39.15	226.06	21.60	-47.7	-49.7	17.4	0.00e+00	0	39	0	1162870784	66	4686
2026-01-20 01:28:43.18	225.87	21.05	-48.2	-50.4	16.7	0.00e+00	0	39	0	1170210816	67	4782
2026-01-20 01:28:47.21	225.68	20.52	-48.6	-51.0	16.2	0.00e+00	0	39	0	1178599424	67	5103
2026-01-20 01:28:51.24	225.50	19.99	-47.9	-50.0	17.1	0.00e+00	0	39	0	1185939456	67	4577
2026-01-20 01:28:55.27	225.32	19.48	-47.7	-49.7	17.3	0.00e+00	0	39	0	1193279488	67	4416
2026-01-20 01:28:59.30	225.15	18.97	-47.6	-49.6	17.4	0.00e+00	0	39	0	1200619520	66	4641
2026-01-20 01:29:03.33	224.99	18.48	-47.4	-49.3	17.6	0.00e+00	0	39	0	1209008128	66	4483
2026-01-20 01:29:07.36	224.83	17.99	-47.1	-48.9	18.0	0.00e+00	0	39	0	1216348160	66	4283
2026-01-20 01:29:11.39	224.68	17.52	-47.2	-49.0	17.9	0.00e+00	0	39	0	1223688192	66	4320
2026-01-20 01:29:15.43	224.54	17.05	-46.8	-48.5	18.4	0.00e+00	0	39	0	1231028224	65	4314
2026-01-20 01:29:19.46	224.39	16.59	-47.3	-49.2	17.7	0.00e+00	0	39	0	1238368256	65	4678
2026-01-20 01:29:23.49	224.26	16.14	-47.6	-49.6	17.3	0.00e+00	0	39	0	1246756864	65	4922
2026-01-20 01:29:27.53	224.12	15.70	-47.7	-49.8	17.1	0.00e+00	0	39	0	1254096896	66	4722
2026-01-20 01:29:31.56	223.99	15.26	-47.7	-49.8	17.1	0.00e+00	0	39	0	1261436928	66	4721
2026-01-20 01:29:35.59	223.87	14.84	-47.9	-50.0	16.8	0.00e+00	0	39	0	1268776960	66	4860
2026-01-20 01:29:39.62	223.75	14.42	-48.1	-50.4	16.4	0.00e+00	0	39	0	1276116992	66	5096
2026-01-20 01:29:43.65	223.63	14.00	-48.4	-50.8	16.0	0.00e+00	0	39	0	1284505600	67	5037
2026-01-20 01:29:47.68	223.52	13.60	-48.7	-51.3	15.6	0.00e+00	0	39	0	1291845632	67	5288
2026-01-20 01:29:51.71	223.41	13.20	-48.8	-51.4	15.4	0.00e+00	0	39	0	1299185664	68	5090
2026-01-20 01:29:55.74	223.30	12.80	-48.7	-51.2	15.7	0.00e+00	0	39	0	1306525696	68	4948
2026-01-20 01:29:59.77	223.20	12.42	-48.4	-50.8	16.1	0.00e+00	0	39	0	1313865728	68	4729
2026-01-20 01:30:03.81	223.10	12.04	-48.2	-50.3	16.6	0.00e+00	0	39	0	1322254336	68	4491
2026-01-20 01:30:07.84	223.00	11.66	-48.0	-50.2	16.7	0.00e+00	0	39	0	1329594368	67	4652
2026-01-20 01:30:11.87	222.90	11.29	-47.7	-49.7	17.1	0.00e+00	0	39	0	1336934400	67	4428
2026-01-20 01:30:15.90	222.81	10.93	-47.6	-49.5	17.2	0.00e+00	0	39	0	1344274432	66	4570
2026-01-20 01:30:19.93	222.72	10.57	-47.6	-49.5	17.2	0.00e+00	0	39	0	1352663040	66	4582
2026-01-20 01:30:23.96	222.63	10.21	-47.7	-49.8	16.9	0.00e+00	0	39	0	1360003072	66	4713
2026-01-20 01:30:27.99	222.55	9.86	-47.7	-49.8	16.9	0.00e+00	0	39	0	1367343104	66	4721
2026-01-20 01:30:32.02	222.46	9.52	-48.1	-50.3	16.4	0.00e+00	0	39	0	1374683136	67	4752
2026-01-20 01:30:36.05	222.38	9.18	-48.1	-50.3	16.3	0.00e+00	0	39	0	1382023168	67	4747
2026-01-20 01:30:40.08	222.31	8.84	-48.4	-50.8	15.8	0.00e+00	0	39	0	1390411776	67	5012
2026-01-20 01:30:44.11	222.23	8.51	-48.5	-51.0	15.6	0.00e+00	0	39	0	1397751808	67	5106
2026-01-20 01:30:48.14	222.16	8.19	-48.7	-51.2	15.5	0.00e+00	0	39	0	1405091840	68	4980
2026-01-20 01:30:52.17	222.08	7.86	-48.9	-51.6	15.1	7.00e-07	0	39	0	1412431872	68	5189
2026-01-20 01:30:56.21	222.01	7.54	-49.1	-51.9	14.7	0.00e+00	0	39	0	1419771904	68	5397
2026-01-20 01:31:00.24	221.94	7.23	-49.1	-51.9	14.7	0.00e+00	0	39	0	1428160512	69	5083
2026-01-20 01:31:04.27	221.88	6.92	-49.1	-52.0	14.6	0.00e+00	0	39	0	1435500544	69	5135
2026-01-20 01:31:08.30	221.81	6.61	-49.5	-52.7	13.8	3.00e-06	0	39	0	1442840576	69	5565
2026-01-20 01:31:12.33	221.75	6.31	-49.2	-52.2	14.2	2.20e-06	0	39	0	1450180608	69	5262
2026-01-20 01:31:16.36	221.69	6.01	-49.4	-52.6	13.8	6.80e-06	0	39	0	1457520640	69	5520
2026-01-20 01:31:20.39	221.63	5.71	-49.3	-52.5	14.0	1.50e-06	0	39	0	1465909248	69	5404
2026-01-20 01:31:24.43	221.57	5.42	-49.5	-52.9	13.4	2.05e-05	0	39	0	1473249280	69	5687
2026-01-20 01:31:28.46	221.51	5.13	-49.4	-52.7	13.6	9.90e-06	0	39	0	1480589312	69	5567
2026-01-20 01:31:32.49	221.45	4.84	-53.2	-68.2	3.8	1.49e+00	0	39	104	1484783616	76	22011
2026-01-20 01:31:36.52	221.40	4.56	-53.7	-68.6	3.8	1.49e+00	0	39	104	1484783616	77	21928
2026-01-20 01:31:40.55	221.34	4.28	-53.9	-68.8	3.8	1.49e+00	0	39	104	1484783616	78	21195
2026-01-20 01:31:44.58	221.29	4.00	-54.0	-69.0	3.8	1.49e+00	0	39	104	1484783616	78	21520
2026-01-20 01:31:48.62	221.24	3.72	-54.1	-69.1	3.8	1.49e+00	0	39	104	1484783616	78	21798
2026-01-20 01:31:52.65	221.19	3.45	-54.1	-69.1	3.8	1.49e+00	0	39	104	1484783616	78	21822
2026-01-20 01:31:56.68	221.14	3.18	-54.0	-69.0	3.8	1.49e+00	0	39	104	1484783616	78	21675
2026-01-20 01:32:00.71	221.09	2.91	-54.0	-69.0	3.8	1.49e+00	0	39	104	1484783616	78	21647
2026-01-20 01:32:04.75	221.05	2.64	-54.0	-69.0	3.8	1.49e+00	0	39	104	1484783616	78	21572
2026-01-20 01:32:08.77	221.00	2.38	-54.0	-69.0	3.8	1.49e+00	0	39	104	1484783616	78	21546
2026-01-20 01:32:12.80	220.96	2.12	-54.0	-69.0	3.8	1.49e+00	0	39	104	1484783616	78	21513
2026-01-20 01:32:16.83	220.91	1.86	-54.0	-69.0	3.8	1.49e+00	0	39	104	1484783616	78	21525

#Closed at: 2026-01-20 01:32:17
#Recorded file [1484 MB]: D:/lorett/data/31041_260120_041753.dat