passes_logs/2026/01/20/R3.2S_Murmansk/R3.2S_Murmansk__20260120_095532_NOAA_20_JPSS-1_rec.log

#Pass ID: 20260120_095532_NOAA 20 (JPSS-1)
#Satellite: NOAA 20 (JPSS-1)
#Configuration: NOAA 20
#almurnet v.1.7.20251203
#Start time: 2026-01-20 09:55:34

#Version: 2.2.20231116
#Station: R3.2S_Murmansk
#Location: 33.079688 lon 68.888172 lat
#TLE: 1 43013U 17073A   26019.91154542  .00000116  00000+0  76014-4 0  9997
#TLE: 2 43013  98.7642 320.7991 0001304  32.0041 328.1214 14.19537346423438

#Time	Az	El	Level	Level2	SNR	BER	BlckErr	Temp	State	Recorded	gain1	gain2
2026-01-20 09:55:34.95	161.37	2.14	-49.7	-64.6	3.8	1.49e+00	0	37	0	0	71	19535
2026-01-20 09:55:38.97	161.42	2.40	-49.7	-64.6	3.8	1.49e+00	0	37	104	0	69	21855
2026-01-20 09:55:43.00	161.48	2.66	-49.7	-64.4	3.8	1.49e+00	0	37	104	0	69	21409
2026-01-20 09:55:47.03	161.54	2.93	-49.7	-64.2	3.8	1.49e+00	0	37	104	0	69	20803
2026-01-20 09:55:51.06	161.60	3.19	-49.7	-64.1	3.8	1.49e+00	0	37	104	0	69	20727
2026-01-20 09:55:55.09	161.66	3.46	-49.7	-64.4	3.8	1.49e+00	0	37	104	0	69	21451
2026-01-20 09:55:59.12	161.72	3.74	-49.7	-64.5	3.8	1.49e+00	0	37	104	0	69	21625
2026-01-20 09:56:03.15	161.78	4.01	-49.7	-64.3	3.8	1.49e+00	0	37	104	0	69	21159
2026-01-20 09:56:07.18	161.84	4.29	-49.6	-63.3	3.8	1.49e+00	0	37	104	0	69	18796
2026-01-20 09:56:11.21	161.90	4.57	-49.5	-60.9	4.3	1.38e+00	0	37	0	0	69	14216
2026-01-20 09:56:15.25	161.97	4.86	-49.2	-58.1	5.6	4.87e-01	0	38	0	6291456	69	10359
2026-01-20 09:56:19.28	162.03	5.14	-49.4	-59.8	4.7	8.42e-01	0	37	0	14680064	69	12554
2026-01-20 09:56:23.31	162.10	5.43	-49.5	-61.1	3.9	1.44e+00	0	37	104	19922944	69	14708
2026-01-20 09:56:27.34	162.17	5.73	-48.6	-55.1	8.2	6.05e-02	0	38	0	26214400	69	7323
2026-01-20 09:56:31.37	162.24	6.03	-48.6	-55.0	8.3	4.62e-02	0	38	0	33554432	69	7273
2026-01-20 09:56:35.40	162.31	6.33	-48.7	-55.4	8.0	8.09e-02	0	38	0	40894464	69	7577
2026-01-20 09:56:39.43	162.38	6.63	-48.6	-54.7	8.7	3.24e-02	0	38	0	49283072	69	6996
2026-01-20 09:56:43.46	162.45	6.94	-48.6	-54.8	8.6	3.28e-02	0	38	0	56623104	69	7075
2026-01-20 09:56:47.49	162.52	7.25	-48.6	-54.6	8.8	3.15e-02	0	38	0	63963136	69	6919
2026-01-20 09:56:51.52	162.60	7.56	-48.6	-54.6	8.8	2.32e-02	0	38	0	71303168	68	7342
2026-01-20 09:56:55.55	162.67	7.88	-48.5	-54.3	9.1	2.06e-02	0	38	0	79691776	68	7103
2026-01-20 09:56:59.59	162.75	8.21	-48.4	-54.1	9.4	2.05e-02	0	38	0	87031808	68	6932
2026-01-20 09:57:03.62	162.83	8.53	-48.4	-53.8	9.7	1.35e-02	0	38	0	94371840	68	6716
2026-01-20 09:57:07.65	162.91	8.86	-48.3	-53.7	9.8	1.13e-02	0	38	0	101711872	68	6602
2026-01-20 09:57:11.68	162.99	9.20	-48.3	-53.7	9.7	1.14e-02	0	38	0	109051904	68	6632
2026-01-20 09:57:15.71	163.07	9.54	-48.3	-53.5	10.0	7.48e-03	0	38	0	117440512	68	6469
2026-01-20 09:57:19.74	163.16	9.88	-48.2	-53.4	10.0	8.55e-03	0	38	0	124780544	68	6420
2026-01-20 09:57:23.77	163.24	10.23	-48.2	-53.3	10.2	4.78e-03	0	38	0	132120576	68	6336
2026-01-20 09:57:27.81	163.33	10.59	-48.1	-53.1	10.5	4.05e-03	0	38	0	139460608	68	6167
2026-01-20 09:57:31.84	163.42	10.95	-48.2	-53.2	10.4	4.56e-03	0	38	0	146800640	68	6226
2026-01-20 09:57:35.87	163.51	11.32	-48.2	-53.3	10.2	4.73e-03	0	38	0	155189248	68	6305
2026-01-20 09:57:39.90	163.61	11.69	-48.1	-53.1	10.5	3.66e-03	0	38	0	162529280	68	6165
2026-01-20 09:57:43.93	163.70	12.06	-48.1	-52.9	10.7	2.68e-03	0	38	0	169869312	68	6051
2026-01-20 09:57:47.97	163.80	12.45	-48.0	-52.9	10.8	2.87e-03	0	38	0	177209344	68	5999
2026-01-20 09:57:52.00	163.90	12.83	-47.8	-52.4	11.1	1.84e-03	0	38	0	184549376	67	6049
2026-01-20 09:57:56.03	164.00	13.23	-47.8	-52.4	11.1	1.61e-03	0	38	0	192937984	67	6043
2026-01-20 09:58:00.06	164.11	13.63	-47.8	-52.3	11.2	1.48e-03	0	38	0	200278016	67	5991
2026-01-20 09:58:04.09	164.22	14.04	-47.8	-52.4	11.1	1.30e-03	0	38	0	207618048	67	6014
2026-01-20 09:58:08.12	164.33	14.45	-47.8	-52.2	11.3	1.04e-03	0	38	0	214958080	67	5899
2026-01-20 09:58:12.15	164.44	14.87	-47.8	-52.3	11.2	1.17e-03	0	38	0	223346688	67	5967
2026-01-20 09:58:16.18	164.56	15.30	-47.7	-52.1	11.5	9.30e-04	0	38	0	230686720	67	5828
2026-01-20 09:58:20.22	164.67	15.74	-47.7	-52.0	11.5	8.97e-04	0	38	0	238026752	67	5779
2026-01-20 09:58:24.25	164.80	16.19	-47.7	-52.1	11.5	9.63e-04	0	38	0	245366784	67	5815
2026-01-20 09:58:28.28	164.92	16.64	-47.8	-52.3	11.3	1.00e-03	0	38	0	252706816	67	5972
2026-01-20 09:58:32.31	165.05	17.10	-47.8	-52.3	11.3	1.31e-03	0	38	0	261095424	67	5973
2026-01-20 09:58:36.34	165.18	17.57	-47.9	-52.5	11.1	1.48e-03	0	38	0	268435456	67	6067
2026-01-20 09:58:40.37	165.32	18.05	-47.9	-52.5	11.0	1.63e-03	0	38	0	275775488	67	6109
2026-01-20 09:58:44.40	165.46	18.54	-48.0	-52.6	11.0	1.65e-03	0	38	0	283115520	67	6168
2026-01-20 09:58:48.43	165.60	19.03	-48.0	-52.8	10.7	2.58e-03	0	38	0	290455552	67	6342
2026-01-20 09:58:52.46	165.75	19.54	-48.1	-52.9	10.6	3.55e-03	0	38	0	298844160	67	6416
2026-01-20 09:58:56.49	165.90	20.06	-48.2	-53.2	10.4	4.32e-03	0	38	0	306184192	67	6580
2026-01-20 09:59:00.52	166.06	20.59	-48.2	-53.4	10.2	5.70e-03	0	38	0	313524224	67	6746
2026-01-20 09:59:04.55	166.22	21.13	-48.3	-53.5	10.0	7.28e-03	0	38	0	320864256	67	6860
2026-01-20 09:59:08.59	166.39	21.68	-48.3	-53.6	9.9	8.73e-03	0	38	0	328204288	67	6900
2026-01-20 09:59:12.61	166.56	22.25	-48.3	-53.5	10.0	8.31e-03	0	38	0	336592896	67	6870
2026-01-20 09:59:16.64	166.74	22.82	-48.3	-53.6	9.9	9.64e-03	0	38	0	343932928	67	6924
2026-01-20 09:59:20.67	166.92	23.41	-48.3	-53.6	9.9	7.55e-03	0	38	0	351272960	67	6905
2026-01-20 09:59:24.70	167.12	24.02	-48.2	-53.2	10.3	6.93e-03	0	38	0	358612992	67	6637
2026-01-20 09:59:28.73	167.31	24.64	-48.1	-53.0	10.5	4.03e-03	0	38	0	365953024	67	6465
2026-01-20 09:59:32.76	167.52	25.27	-48.0	-52.8	10.7	3.34e-03	0	38	0	374341632	67	6335
2026-01-20 09:59:36.79	167.73	25.91	-48.0	-52.7	10.8	2.55e-03	0	38	0	381681664	67	6262
2026-01-20 09:59:40.83	167.96	26.58	-48.0	-52.9	10.6	3.20e-03	0	38	0	389021696	66	6742
2026-01-20 09:59:44.85	168.19	27.25	-48.2	-53.4	10.1	6.63e-03	0	38	0	396361728	67	6746
2026-01-20 09:59:48.89	168.43	27.95	-48.5	-54.1	9.4	1.56e-02	0	39	0	404750336	67	7366
2026-01-20 09:59:52.92	168.68	28.67	-48.5	-54.4	9.1	2.30e-02	0	38	0	412090368	67	7563
2026-01-20 09:59:56.95	168.94	29.40	-48.7	-54.8	8.7	3.56e-02	0	38	0	419430400	67	7940
2026-01-20 10:00:00.98	169.21	30.15	-48.8	-55.1	8.4	4.23e-02	0	38	0	426770432	68	7790
2026-01-20 10:00:05.01	169.50	30.92	-48.9	-55.5	8.1	6.04e-02	0	39	0	434110464	68	8107
2026-01-20 10:00:09.04	169.80	31.70	-48.9	-55.5	8.1	6.73e-02	0	38	0	441450496	68	8104
2026-01-20 10:00:13.06	170.11	32.51	-48.8	-55.1	8.4	4.73e-02	0	38	0	449839104	68	7795
2026-01-20 10:00:17.09	170.44	33.34	-48.5	-54.3	9.1	2.40e-02	0	39	0	457179136	67	7541
2026-01-20 10:00:21.13	170.78	34.20	-48.4	-53.8	9.7	1.09e-02	0	38	0	464519168	67	7049
2026-01-20 10:00:25.16	171.15	35.08	-48.2	-53.3	10.3	4.98e-03	0	38	0	471859200	67	6686
2026-01-20 10:00:29.19	171.53	35.98	-48.2	-53.3	10.2	5.17e-03	0	38	0	480247808	67	6700
2026-01-20 10:00:33.22	171.93	36.90	-48.1	-52.9	10.6	3.40e-03	0	38	0	487587840	67	6383
2026-01-20 10:00:37.25	172.36	37.86	-48.3	-53.4	10.2	5.70e-03	0	38	0	494927872	67	6766
2026-01-20 10:00:41.28	172.81	38.83	-48.4	-54.0	9.5	1.13e-02	0	38	0	502267904	67	7209
2026-01-20 10:00:45.31	173.29	39.83	-48.4	-53.8	9.6	1.26e-02	0	38	0	509607936	67	7092
2026-01-20 10:00:49.34	173.80	40.87	-48.5	-54.3	9.1	2.20e-02	0	38	0	517996544	67	7512
2026-01-20 10:00:53.38	174.34	41.93	-48.4	-54.0	9.5	1.43e-02	0	38	0	525336576	67	7230
2026-01-20 10:00:57.40	174.91	43.01	-48.6	-54.4	9.1	1.71e-02	0	38	0	532676608	67	7601
2026-01-20 10:01:01.43	175.53	44.12	-48.8	-55.2	8.4	4.35e-02	0	38	0	540016640	68	7868
2026-01-20 10:01:05.46	176.19	45.27	-48.8	-55.1	8.5	4.04e-02	0	38	0	547356672	68	7741
2026-01-20 10:01:09.50	176.90	46.45	-48.8	-54.9	8.6	4.18e-02	0	38	0	555745280	68	7610
2026-01-20 10:01:13.52	177.66	47.64	-49.0	-55.7	7.8	7.21e-02	0	38	0	563085312	68	8367
2026-01-20 10:01:17.55	178.49	48.88	-48.6	-54.4	9.2	3.76e-02	0	38	0	570425344	68	7129
2026-01-20 10:01:21.58	179.38	50.14	-48.1	-53.0	10.5	4.49e-03	0	38	0	577765376	67	6428
2026-01-20 10:01:25.61	180.35	51.42	-47.6	-51.8	11.9	5.51e-04	0	38	0	585105408	67	5618
2026-01-20 10:01:29.63	181.40	52.73	-47.2	-50.8	12.8	7.40e-05	0	38	0	593494016	66	5319
2026-01-20 10:01:33.66	182.56	54.07	-47.0	-50.5	13.2	1.98e-05	0	38	0	600834048	65	5444
2026-01-20 10:01:37.69	183.82	55.43	-47.2	-50.8	12.8	2.36e-05	0	38	0	608174080	65	5634
2026-01-20 10:01:41.73	185.22	56.82	-47.7	-52.0	11.6	5.84e-04	0	38	0	615514112	65	6456
2026-01-20 10:01:45.75	186.75	58.22	-47.6	-51.7	11.9	4.17e-04	0	39	0	623902720	66	5903
2026-01-20 10:01:49.79	188.47	59.63	-47.1	-50.7	12.9	3.66e-05	0	38	0	631242752	66	5266
2026-01-20 10:01:53.82	190.37	61.05	-46.3	-49.2	14.5	1.50e-06	0	39	0	638582784	64	4947
2026-01-20 10:01:57.85	192.50	62.47	-46.6	-49.7	14.1	2.20e-06	0	38	0	645922816	64	5223
2026-01-20 10:02:01.88	194.89	63.88	-46.8	-50.1	13.5	6.10e-06	0	38	0	653262848	64	5507
2026-01-20 10:02:05.91	197.59	65.27	-47.6	-51.8	11.9	4.03e-04	0	39	0	660602880	65	6298
2026-01-20 10:02:09.94	200.63	66.63	-48.3	-53.6	10.0	6.15e-03	0	38	0	668991488	67	6905
2026-01-20 10:02:13.97	204.09	67.95	-48.7	-54.8	8.7	2.61e-02	0	38	0	676331520	67	7978
2026-01-20 10:02:18.00	208.01	69.20	-48.4	-53.7	9.9	7.99e-03	0	39	0	683671552	68	6627
2026-01-20 10:02:22.03	212.45	70.37	-48.8	-55.1	8.5	3.07e-02	0	38	0	691011584	68	7736
2026-01-20 10:02:26.06	217.45	71.42	-48.4	-53.7	10.0	6.29e-03	0	38	0	699400192	68	6572
2026-01-20 10:02:30.09	223.05	72.33	-48.7	-54.5	9.2	3.47e-02	0	38	0	706740224	68	7252
2026-01-20 10:02:34.12	229.23	73.08	-48.8	-55.0	8.8	1.79e-02	0	38	0	714080256	68	7642
2026-01-20 10:02:38.16	235.93	73.63	-48.1	-52.7	11.1	2.01e-03	0	38	0	721420288	68	5891
2026-01-20 10:02:42.19	243.00	73.95	-48.2	-53.0	10.6	1.88e-03	0	39	0	728760320	67	6469
2026-01-20 10:02:46.22	250.26	74.03	-48.0	-52.6	11.0	1.98e-03	0	38	0	737148928	67	6171
2026-01-20 10:02:50.25	257.48	73.86	-48.6	-54.1	9.5	1.58e-02	0	38	0	744488960	67	7331
2026-01-20 10:02:54.28	264.44	73.47	-49.0	-55.6	8.1	3.78e-02	0	39	0	751828992	68	8233
2026-01-20 10:02:58.31	270.96	72.85	-48.9	-55.2	8.5	4.69e-02	0	38	0	759169024	68	7850
2026-01-20 10:03:02.34	276.95	72.05	-48.8	-54.6	9.0	4.37e-02	0	39	0	766509056	68	7304
2026-01-20 10:03:06.36	282.33	71.09	-48.5	-53.8	10.0	7.78e-03	0	38	0	774897664	68	6676
2026-01-20 10:03:10.40	287.15	69.99	-48.8	-54.7	8.9	2.98e-02	0	38	0	782237696	68	7444
2026-01-20 10:03:14.43	291.40	68.79	-49.4	-57.3	6.5	2.15e-01	0	38	0	789577728	69	9422
2026-01-20 10:03:18.46	295.16	67.52	-49.3	-56.8	6.9	1.26e-01	0	38	0	796917760	69	8925
2026-01-20 10:03:22.49	298.47	66.19	-48.9	-55.1	8.5	6.28e-02	0	38	0	804257792	69	7371
2026-01-20 10:03:26.52	301.39	64.82	-48.1	-52.5	11.4	1.68e-03	0	39	0	812646400	68	5756
2026-01-20 10:03:30.55	303.98	63.42	-46.1	-48.8	15.0	0.00e+00	0	38	0	819986432	64	4744
2026-01-20 10:03:34.58	306.27	62.01	-46.2	-48.9	15.0	0.00e+00	0	39	0	827326464	64	4778
2026-01-20 10:03:38.61	308.32	60.60	-47.7	-51.9	11.9	7.93e-05	0	39	0	834666496	65	6356
2026-01-20 10:03:42.64	310.16	59.18	-47.9	-52.2	11.6	1.83e-04	0	38	0	842006528	66	6271
2026-01-20 10:03:46.67	311.80	57.78	-48.4	-53.5	10.3	1.06e-02	0	38	0	850395136	68	6441
2026-01-20 10:03:50.71	313.30	56.39	-48.5	-53.8	9.9	5.11e-03	0	39	0	857735168	67	7046
2026-01-20 10:03:54.74	314.64	55.01	-47.7	-51.9	12.0	5.22e-04	0	39	0	865075200	67	5665
2026-01-20 10:03:58.77	315.87	53.66	-47.2	-50.7	13.1	2.59e-05	0	38	0	872415232	66	5250
2026-01-20 10:04:02.80	316.99	52.34	-46.7	-49.8	14.1	0.00e+00	0	38	0	880803840	64	5295
2026-01-20 10:04:06.83	318.01	51.04	-48.2	-53.1	10.7	2.65e-03	0	38	0	888143872	66	6916
2026-01-20 10:04:10.86	318.96	49.76	-48.6	-54.2	9.5	7.60e-03	0	39	0	895483904	67	7381
2026-01-20 10:04:14.89	319.83	48.51	-49.4	-57.7	6.1	4.97e-01	0	38	0	902823936	70	9335
2026-01-20 10:04:18.92	320.63	47.30	-50.1	-64.6	3.8	7.54e-01	0	38	104	909115392	70	20696
2026-01-20 10:04:22.95	321.37	46.11	-49.4	-57.4	6.4	3.01e-01	0	39	0	911212544	70	8996
2026-01-20 10:04:26.98	322.07	44.95	-48.2	-52.9	10.8	2.88e-03	0	39	0	918552576	68	6023
2026-01-20 10:04:31.01	322.71	43.82	-48.5	-54.0	9.7	1.11e-02	0	38	0	925892608	67	7225
2026-01-20 10:04:35.05	323.32	42.71	-47.9	-52.4	11.2	2.62e-03	0	38	0	933232640	67	6039
2026-01-20 10:04:39.08	323.88	41.64	-47.4	-51.3	12.5	1.19e-04	0	38	0	940572672	66	5595
2026-01-20 10:04:43.11	324.41	40.59	-49.0	-55.7	7.9	5.07e-02	0	38	0	947912704	68	8351
2026-01-20 10:04:47.14	324.91	39.58	-48.5	-54.0	9.5	1.48e-02	0	39	0	956301312	68	6869
2026-01-20 10:04:51.18	325.38	38.58	-48.3	-53.4	10.2	6.29e-03	0	38	0	963641344	67	6725
2026-01-20 10:04:55.20	325.82	37.62	-48.8	-55.1	8.5	3.78e-02	0	38	0	970981376	68	7780
2026-01-20 10:04:59.24	326.24	36.68	-48.4	-53.9	9.7	1.14e-02	0	38	0	978321408	68	6732
2026-01-20 10:05:03.27	326.64	35.77	-48.1	-52.9	10.7	2.93e-03	0	38	0	986710016	68	6042
2026-01-20 10:05:07.30	327.02	34.88	-48.4	-53.6	10.0	7.91e-03	0	38	0	994050048	68	6557
2026-01-20 10:05:11.33	327.37	34.01	-48.6	-54.5	9.0	2.02e-02	0	39	0	1001390080	67	7645
2026-01-20 10:05:15.36	327.71	33.17	-48.8	-55.0	8.5	4.39e-02	0	39	0	1008730112	68	7676
2026-01-20 10:05:19.39	328.04	32.34	-48.7	-54.8	8.7	3.40e-02	0	39	0	1016070144	68	7509
2026-01-20 10:05:23.43	328.35	31.54	-48.8	-55.1	8.4	4.75e-02	0	38	0	1024458752	68	7788
2026-01-20 10:05:27.46	328.64	30.76	-48.7	-54.8	8.7	3.41e-02	0	38	0	1031798784	68	7527
2026-01-20 10:05:31.49	328.92	30.00	-48.6	-54.6	8.9	2.83e-02	0	38	0	1039138816	68	7324
2026-01-20 10:05:35.51	329.19	29.26	-48.7	-54.8	8.7	3.36e-02	0	38	0	1046478848	68	7543
2026-01-20 10:05:39.55	329.45	28.54	-48.5	-54.3	9.3	2.24e-02	0	38	0	1053818880	68	7078
2026-01-20 10:05:43.58	329.70	27.83	-48.3	-53.4	10.2	9.31e-03	0	39	0	1062207488	68	6367
2026-01-20 10:05:47.61	329.94	27.14	-47.8	-52.3	11.2	1.47e-03	0	38	0	1069547520	67	5933
2026-01-20 10:05:51.64	330.17	26.47	-48.0	-52.7	10.8	1.89e-03	0	39	0	1076887552	67	6257
2026-01-20 10:05:55.67	330.39	25.82	-48.1	-53.3	10.2	5.65e-03	0	38	0	1084227584	67	6664
2026-01-20 10:05:59.70	330.60	25.18	-48.1	-53.1	10.3	5.01e-03	0	38	0	1091567616	67	6533
2026-01-20 10:06:03.73	330.81	24.55	-47.8	-52.4	11.0	2.84e-03	0	39	0	1099956224	67	6028
2026-01-20 10:06:07.76	331.01	23.94	-47.6	-51.8	11.7	5.27e-04	0	38	0	1107296256	67	5622
2026-01-20 10:06:11.79	331.20	23.34	-47.5	-51.7	11.8	4.10e-04	0	38	0	1114636288	66	5886
2026-01-20 10:06:15.82	331.38	22.76	-47.7	-52.1	11.4	8.79e-04	0	39	0	1121976320	66	6132
2026-01-20 10:06:19.86	331.56	22.19	-47.7	-52.2	11.2	9.50e-04	0	38	0	1130364928	66	6253
2026-01-20 10:06:23.88	331.73	21.63	-47.7	-52.1	11.3	1.14e-03	0	38	0	1137704960	66	6187
2026-01-20 10:06:27.91	331.90	21.08	-47.7	-52.2	11.2	1.12e-03	0	38	0	1145044992	66	6242
2026-01-20 10:06:31.95	332.06	20.55	-47.6	-52.0	11.5	8.22e-04	0	39	0	1152385024	66	6084
2026-01-20 10:06:35.98	332.22	20.02	-47.7	-52.1	11.3	9.30e-04	0	38	0	1159725056	66	6163
2026-01-20 10:06:40.01	332.37	19.51	-47.7	-52.2	11.2	1.12e-03	0	39	0	1168113664	66	6253
2026-01-20 10:06:44.04	332.52	19.01	-47.8	-52.4	11.0	1.82e-03	0	38	0	1175453696	66	6391
2026-01-20 10:06:48.07	332.66	18.51	-47.9	-52.8	10.6	3.11e-03	0	38	0	1182793728	66	6686
2026-01-20 10:06:52.10	332.80	18.03	-47.9	-52.9	10.5	3.46e-03	0	39	0	1190133760	66	6748
2026-01-20 10:06:56.13	332.94	17.55	-48.0	-53.2	10.1	6.31e-03	0	39	0	1197473792	66	7001
2026-01-20 10:07:00.17	333.07	17.09	-48.0	-53.3	10.1	7.06e-03	0	38	0	1205862400	66	7041
2026-01-20 10:07:04.20	333.20	16.63	-48.0	-53.2	10.1	7.25e-03	0	39	0	1213202432	66	7016
2026-01-20 10:07:08.23	333.33	16.18	-48.0	-53.2	10.0	7.37e-03	0	39	0	1220542464	66	7039
2026-01-20 10:07:12.26	333.45	15.74	-48.0	-53.3	10.0	7.36e-03	0	38	0	1227882496	66	7066
2026-01-20 10:07:16.29	333.57	15.31	-48.0	-53.2	10.1	7.40e-03	0	38	0	1235222528	66	7015
2026-01-20 10:07:20.32	333.69	14.88	-48.0	-53.1	10.2	5.84e-03	0	38	0	1243611136	66	6931
2026-01-20 10:07:24.35	333.80	14.46	-48.0	-53.1	10.1	7.44e-03	0	39	0	1250951168	66	6926
2026-01-20 10:07:28.38	333.91	14.05	-48.0	-53.2	10.0	7.44e-03	0	39	0	1258291200	66	7021
2026-01-20 10:07:32.41	334.02	13.65	-48.0	-53.3	10.0	9.01e-03	0	39	0	1265631232	66	7046
2026-01-20 10:07:36.44	334.13	13.25	-48.1	-53.4	9.8	9.83e-03	0	38	0	1272971264	66	7194
2026-01-20 10:07:40.48	334.23	12.86	-48.1	-53.4	9.8	1.06e-02	0	38	0	1281359872	66	7179
2026-01-20 10:07:44.51	334.33	12.47	-48.1	-53.6	9.6	1.14e-02	0	39	0	1288699904	66	7345
2026-01-20 10:07:48.53	334.43	12.09	-48.1	-53.5	9.7	1.16e-02	0	39	0	1296039936	66	7227
2026-01-20 10:07:52.57	334.53	11.72	-48.1	-53.5	9.6	1.24e-02	0	38	0	1303379968	66	7279
2026-01-20 10:07:56.60	334.63	11.35	-48.0	-53.5	9.6	1.21e-02	0	38	0	1310720000	66	7222
2026-01-20 10:08:00.62	334.72	10.99	-48.0	-53.5	9.6	1.23e-02	0	39	0	1319108608	66	7243
2026-01-20 10:08:04.66	334.81	10.63	-48.1	-53.6	9.5	1.27e-02	0	39	0	1326448640	66	7321
2026-01-20 10:08:08.69	334.90	10.28	-48.1	-53.7	9.4	1.47e-02	0	38	0	1333788672	66	7389
2026-01-20 10:08:12.72	334.99	9.93	-48.1	-53.7	9.4	1.45e-02	0	38	0	1341128704	66	7390
2026-01-20 10:08:16.75	335.08	9.59	-48.1	-53.7	9.4	1.72e-02	0	39	0	1349517312	66	7423
2026-01-20 10:08:20.78	335.16	9.25	-48.1	-53.7	9.4	1.58e-02	0	38	0	1356857344	66	7402
2026-01-20 10:08:24.81	335.25	8.92	-48.1	-53.9	9.1	2.30e-02	0	39	0	1364197376	66	7613
2026-01-20 10:08:28.84	335.33	8.59	-48.1	-54.0	9.1	2.04e-02	0	39	0	1371537408	66	7635
2026-01-20 10:08:32.88	335.41	8.26	-48.2	-54.1	8.9	2.61e-02	0	39	0	1378877440	66	7803
2026-01-20 10:08:36.91	335.49	7.94	-48.2	-54.3	8.7	3.05e-02	0	38	0	1387266048	67	7519
2026-01-20 10:08:40.93	335.57	7.62	-48.3	-54.4	8.6	3.34e-02	0	38	0	1394606080	67	7617
2026-01-20 10:08:44.97	335.64	7.31	-48.3	-54.6	8.4	4.35e-02	0	38	0	1401946112	67	7750
2026-01-20 10:08:49.00	335.72	7.00	-48.3	-54.8	8.2	4.79e-02	0	38	0	1409286144	67	7930
2026-01-20 10:08:53.03	335.79	6.70	-48.3	-54.8	8.2	5.60e-02	0	38	0	1416626176	67	7934
2026-01-20 10:08:57.06	335.87	6.39	-48.4	-55.1	7.8	8.28e-02	0	39	0	1425014784	67	8230
2026-01-20 10:09:01.09	335.94	6.10	-48.5	-55.7	7.3	1.08e-01	0	39	0	1432354816	67	8763
2026-01-20 10:09:05.13	336.01	5.80	-48.9	-57.5	5.8	4.86e-01	0	39	0	1434451968	69	9690
2026-01-20 10:09:09.16	336.08	5.51	-48.7	-56.3	6.8	1.55e-01	0	39	0	1442840576	68	8882
2026-01-20 10:09:13.19	336.15	5.22	-49.1	-59.8	4.6	5.07e-01	0	39	0	1450180608	68	13404
2026-01-20 10:09:17.22	336.22	4.93	-49.5	-64.4	3.8	1.41e+00	0	38	104	1452277760	69	21274
2026-01-20 10:09:21.25	336.28	4.65	-49.8	-64.7	3.8	1.49e+00	0	39	104	1452277760	70	20904
2026-01-20 10:09:25.28	336.35	4.37	-50.0	-64.9	3.8	1.49e+00	0	39	104	1452277760	70	21374
2026-01-20 10:09:29.31	336.42	4.09	-50.1	-65.0	3.8	1.49e+00	0	39	104	1452277760	70	21608
2026-01-20 10:09:33.35	336.48	3.82	-50.1	-65.0	3.8	1.49e+00	0	39	104	1452277760	70	21698
2026-01-20 10:09:37.38	336.54	3.55	-50.2	-65.1	3.8	1.49e+00	0	39	104	1452277760	70	21860
2026-01-20 10:09:41.41	336.61	3.28	-50.1	-65.0	3.8	1.49e+00	0	39	104	1452277760	70	21694
2026-01-20 10:09:45.45	336.67	3.01	-50.1	-65.0	3.8	1.49e+00	0	39	104	1452277760	70	21599
2026-01-20 10:09:49.48	336.73	2.75	-50.1	-65.0	3.8	1.49e+00	0	39	104	1452277760	70	21532
2026-01-20 10:09:53.51	336.79	2.49	-50.0	-64.9	3.8	1.49e+00	0	39	104	1452277760	70	21492
2026-01-20 10:09:57.54	336.85	2.23	-50.0	-64.9	3.8	1.49e+00	0	39	104	1452277760	70	21444

#Closed at: 2026-01-20 10:10:01
#Recorded file [1452 MB]: D:/lorett/data/31041_260120_125534.dat