passes_logs/2026/01/20/R3.2S_Murmansk/R3.2S_Murmansk__20260120_043733_SUOMI_NPP_rec.log

#Pass ID: 20260120_043733_SUOMI NPP
#Satellite: SUOMI NPP
#Configuration: NPP
#almurnet v.1.7.20251203
#Start time: 2026-01-20 04:37:32

#Version: 2.2.20231116
#Station: R3.2S_Murmansk
#Location: 33.079688 lon 68.888172 lat
#TLE: 1 37849U 11061A   26019.26265094  .00000081  00000+0  59609-4 0  9993
#TLE: 2 37849  98.7817 321.2746 0002356  56.2510 303.8890 14.19526363737315

#Time	Az	El	Level	Level2	SNR	BER	BlckErr	Temp	State	Recorded	gain1	gain2
2026-01-20 04:37:32.84	53.71	1.97	-52.0	-66.9	3.8	1.49e+00	0	37	0	0	76	19112
2026-01-20 04:37:35.85	53.52	2.14	-52.0	-66.9	3.8	1.49e+00	0	37	104	0	74	21402
2026-01-20 04:37:38.87	53.33	2.31	-52.0	-66.9	3.8	1.49e+00	0	37	104	0	74	21367
2026-01-20 04:37:41.90	53.13	2.48	-52.0	-66.9	3.8	1.49e+00	0	37	104	0	74	21442
2026-01-20 04:37:44.92	52.93	2.66	-51.9	-66.9	3.8	1.49e+00	0	37	104	0	74	21343
2026-01-20 04:37:47.95	52.74	2.83	-52.0	-66.9	3.8	1.49e+00	0	37	104	0	74	21336
2026-01-20 04:37:50.97	52.53	3.01	-51.9	-66.8	3.8	1.49e+00	0	37	104	0	74	21258
2026-01-20 04:37:53.99	52.33	3.19	-51.9	-66.9	3.8	1.49e+00	0	37	104	0	74	21400
2026-01-20 04:37:57.01	52.12	3.36	-51.2	-66.9	3.8	1.49e+00	0	37	104	0	74	21279
2026-01-20 04:38:00.04	51.91	3.54	-48.4	-66.6	3.8	1.49e+00	0	37	104	0	68	29341
2026-01-20 04:38:03.06	51.70	3.72	-48.4	-66.6	3.8	1.49e+00	0	37	104	0	67	30834
2026-01-20 04:38:06.09	51.49	3.90	-51.0	-66.3	3.8	1.49e+00	0	37	104	0	72	22467
2026-01-20 04:38:09.11	51.27	4.08	-51.8	-65.5	3.8	1.49e+00	0	37	104	0	74	18178
2026-01-20 04:38:12.14	51.05	4.26	-51.8	-63.9	4.1	1.47e+00	0	38	104	0	74	15094
2026-01-20 04:38:15.16	50.83	4.45	-51.5	-60.9	5.2	7.16e-01	0	38	0	3145728	74	10743
2026-01-20 04:38:18.18	50.60	4.63	-51.2	-59.1	6.5	2.96e-01	0	38	0	8388608	74	8758
2026-01-20 04:38:21.21	50.37	4.81	-51.2	-59.2	6.5	1.90e-01	0	38	0	13631488	74	8777
2026-01-20 04:38:24.23	50.14	5.00	-51.5	-61.3	5.0	6.05e-01	0	38	0	19922944	74	11160
2026-01-20 04:38:27.25	49.90	5.18	-51.1	-58.1	7.9	1.50e-02	0	38	0	25165824	73	8178
2026-01-20 04:38:30.28	49.66	5.37	-51.9	-62.8	4.3	1.37e+00	5	38	0	27262976	74	13408
2026-01-20 04:38:33.30	49.42	5.56	-49.4	-53.1	13.1	1.60e-05	0	38	0	33554432	70	5473
2026-01-20 04:38:36.33	49.18	5.75	-49.1	-52.4	13.7	1.75e-05	0	38	0	38797312	70	5071
2026-01-20 04:38:39.35	48.93	5.93	-48.7	-51.7	14.5	0.00e+00	0	38	0	44040192	69	4963
2026-01-20 04:38:42.37	48.68	6.12	-48.6	-51.4	14.8	0.00e+00	0	38	0	50331648	68	5081
2026-01-20 04:38:45.39	48.42	6.32	-48.8	-51.8	14.5	1.50e-06	0	38	0	55574528	68	5323
2026-01-20 04:38:48.42	48.16	6.51	-48.6	-51.5	14.8	0.00e+00	0	38	0	61865984	68	5123
2026-01-20 04:38:51.44	47.90	6.70	-48.5	-51.2	15.0	0.00e+00	0	38	0	67108864	68	4955
2026-01-20 04:38:54.47	47.64	6.89	-48.3	-51.0	15.3	0.00e+00	0	38	0	72351744	68	4835
2026-01-20 04:38:57.49	47.37	7.09	-48.6	-51.5	14.9	0.00e+00	0	38	0	78643200	68	5125
2026-01-20 04:39:00.52	47.09	7.28	-49.1	-52.3	14.1	7.00e-07	0	38	0	83886080	68	5598
2026-01-20 04:39:03.54	46.82	7.48	-49.0	-52.1	14.1	3.00e-06	0	38	0	90177536	69	5190
2026-01-20 04:39:06.57	46.53	7.67	-49.1	-52.3	14.1	0.00e+00	0	38	0	95420416	69	5303
2026-01-20 04:39:09.59	46.25	7.87	-48.9	-52.0	14.5	7.00e-07	0	38	0	100663296	69	5128
2026-01-20 04:39:12.61	45.96	8.07	-48.8	-51.7	14.7	2.20e-06	0	38	0	106954752	69	4972
2026-01-20 04:39:15.63	45.67	8.27	-48.5	-51.2	15.3	0.00e+00	0	38	0	112197632	68	4938
2026-01-20 04:39:18.66	45.37	8.47	-48.3	-50.9	15.6	0.00e+00	0	38	0	118489088	68	4800
2026-01-20 04:39:21.68	45.07	8.67	-48.3	-50.9	15.6	0.00e+00	0	38	0	123731968	68	4761
2026-01-20 04:39:24.70	44.76	8.87	-48.2	-50.7	15.9	0.00e+00	0	38	0	128974848	68	4664
2026-01-20 04:39:27.73	44.45	9.07	-47.9	-50.3	16.1	0.00e+00	0	38	0	135266304	67	4740
2026-01-20 04:39:30.75	44.14	9.28	-48.3	-50.8	15.7	0.00e+00	0	38	0	140509184	67	5006
2026-01-20 04:39:33.77	43.82	9.48	-48.1	-50.5	16.0	0.00e+00	0	38	0	146800640	67	4844
2026-01-20 04:39:36.80	43.50	9.69	-48.2	-50.6	15.9	0.00e+00	0	38	0	152043520	67	4925
2026-01-20 04:39:39.82	43.17	9.89	-48.2	-50.7	15.9	0.00e+00	0	38	0	157286400	67	4948
2026-01-20 04:39:42.84	42.83	10.10	-48.3	-50.9	15.7	0.00e+00	0	38	0	163577856	67	5061
2026-01-20 04:39:45.87	42.49	10.31	-48.2	-50.7	15.9	0.00e+00	0	38	0	168820736	67	4948
2026-01-20 04:39:48.89	42.15	10.51	-48.3	-50.8	15.8	0.00e+00	0	38	0	175112192	67	5011
2026-01-20 04:39:51.92	41.80	10.72	-48.5	-51.0	15.5	0.00e+00	0	38	0	180355072	67	5136
2026-01-20 04:39:54.94	41.45	10.93	-48.8	-51.5	15.2	0.00e+00	0	38	0	186646528	68	5111
2026-01-20 04:39:57.97	41.09	11.14	-48.7	-51.3	15.4	0.00e+00	0	38	0	191889408	68	5020
2026-01-20 04:40:00.96	40.73	11.35	-48.3	-50.7	16.0	0.00e+00	0	38	0	197132288	68	4658
2026-01-20 04:40:03.99	40.36	11.56	-48.2	-50.5	16.2	0.00e+00	0	38	0	203423744	68	4595
2026-01-20 04:40:07.01	39.99	11.77	-47.8	-50.0	16.6	0.00e+00	0	38	0	208666624	67	4563
2026-01-20 04:40:10.03	39.60	11.99	-47.5	-49.6	17.1	0.00e+00	0	38	0	213909504	66	4622
2026-01-20 04:40:13.06	39.22	12.20	-47.4	-49.5	17.1	0.00e+00	0	38	0	220200960	66	4584
2026-01-20 04:40:16.08	38.83	12.41	-47.4	-49.5	17.2	0.00e+00	0	39	0	225443840	66	4567
2026-01-20 04:40:19.10	38.43	12.63	-47.5	-49.6	17.1	0.00e+00	0	38	0	231735296	66	4620
2026-01-20 04:40:22.12	38.03	12.84	-47.3	-49.4	17.3	0.00e+00	0	38	0	236978176	66	4500
2026-01-20 04:40:25.15	37.61	13.06	-47.4	-49.4	17.2	0.00e+00	0	38	0	243269632	66	4522
2026-01-20 04:40:28.17	37.20	13.27	-47.4	-49.4	17.3	0.00e+00	0	38	0	248512512	66	4514
2026-01-20 04:40:31.19	36.78	13.49	-47.3	-49.3	17.4	0.00e+00	0	38	0	253755392	66	4460
2026-01-20 04:40:34.21	36.35	13.70	-47.3	-49.2	17.4	0.00e+00	0	38	0	260046848	66	4438
2026-01-20 04:40:37.24	35.91	13.92	-47.2	-49.2	17.5	0.00e+00	0	38	0	265289728	66	4419
2026-01-20 04:40:40.26	35.47	14.14	-47.2	-49.1	17.5	0.00e+00	0	38	0	271581184	65	4640
2026-01-20 04:40:43.28	35.02	14.35	-47.7	-49.9	16.8	0.00e+00	0	38	0	276824064	65	5055
2026-01-20 04:40:46.31	34.57	14.57	-47.6	-49.8	16.9	0.00e+00	0	38	0	282066944	66	4732
2026-01-20 04:40:49.33	34.11	14.79	-47.8	-50.0	16.7	0.00e+00	0	38	0	288358400	66	4868
2026-01-20 04:40:52.35	33.64	15.01	-47.7	-49.9	16.8	0.00e+00	0	38	0	293601280	66	4789
2026-01-20 04:40:55.38	33.16	15.22	-47.5	-49.5	17.2	0.00e+00	0	38	0	299892736	66	4574
2026-01-20 04:40:58.40	32.68	15.44	-48.0	-50.2	16.5	0.00e+00	0	38	0	305135616	66	4964
2026-01-20 04:41:01.43	32.19	15.66	-48.0	-50.2	16.5	0.00e+00	0	38	0	310378496	66	4981
2026-01-20 04:41:04.45	31.69	15.87	-48.0	-50.2	16.5	0.00e+00	0	39	0	316669952	66	4978
2026-01-20 04:41:07.47	31.19	16.09	-48.0	-50.3	16.5	0.00e+00	0	39	0	321912832	66	5020
2026-01-20 04:41:10.50	30.67	16.31	-47.7	-49.8	16.9	0.00e+00	0	38	0	328204288	66	4734
2026-01-20 04:41:13.52	30.15	16.52	-47.6	-49.8	17.0	0.00e+00	0	38	0	333447168	66	4707
2026-01-20 04:41:16.55	29.63	16.74	-47.6	-49.7	17.0	0.00e+00	0	38	0	339738624	66	4694
2026-01-20 04:41:19.57	29.09	16.95	-47.6	-49.7	17.1	0.00e+00	0	38	0	344981504	66	4661
2026-01-20 04:41:22.60	28.55	17.17	-47.6	-49.7	17.1	0.00e+00	0	39	0	350224384	66	4664
2026-01-20 04:41:25.62	28.00	17.38	-47.8	-49.9	16.9	0.00e+00	0	38	0	356515840	66	4798
2026-01-20 04:41:28.65	27.44	17.59	-48.1	-50.4	16.4	0.00e+00	0	38	0	361758720	66	5074
2026-01-20 04:41:31.67	26.87	17.80	-47.9	-50.1	16.7	0.00e+00	0	38	0	368050176	67	4634
2026-01-20 04:41:34.69	26.30	18.01	-47.4	-49.4	17.4	0.00e+00	0	38	0	373293056	66	4515
2026-01-20 04:41:37.71	25.72	18.22	-47.2	-49.0	17.7	0.00e+00	0	39	0	378535936	66	4331
2026-01-20 04:41:40.73	25.13	18.42	-47.2	-49.2	17.7	0.00e+00	0	39	0	384827392	66	4403
2026-01-20 04:41:43.76	24.52	18.63	-47.2	-49.2	17.7	0.00e+00	0	38	0	390070272	66	4422
2026-01-20 04:41:46.78	23.92	18.83	-46.3	-48.1	18.7	0.00e+00	0	38	0	396361728	64	4365
2026-01-20 04:41:49.81	23.30	19.04	-46.2	-47.9	18.8	0.00e+00	0	39	0	401604608	64	4291
2026-01-20 04:41:52.83	22.68	19.24	-46.1	-47.8	18.9	0.00e+00	0	38	0	406847488	64	4217
2026-01-20 04:41:55.85	22.05	19.43	-46.5	-48.2	18.5	0.00e+00	0	38	0	413138944	64	4422
2026-01-20 04:41:58.87	21.41	19.63	-46.2	-47.9	18.9	0.00e+00	0	38	0	418381824	64	4256
2026-01-20 04:42:01.89	20.76	19.82	-45.9	-47.4	19.4	0.00e+00	0	38	0	424673280	63	4290
2026-01-20 04:42:04.92	20.10	20.01	-46.1	-47.7	19.2	0.00e+00	0	39	0	429916160	63	4421
2026-01-20 04:42:07.94	19.44	20.20	-46.1	-47.7	19.1	0.00e+00	0	39	0	435159040	63	4438
2026-01-20 04:42:10.97	18.76	20.39	-46.1	-47.7	19.2	0.00e+00	0	38	0	441450496	63	4409
2026-01-20 04:42:13.99	18.08	20.57	-46.0	-47.5	19.3	0.00e+00	0	38	0	446693376	63	4331
2026-01-20 04:42:17.01	17.39	20.75	-45.7	-47.2	19.7	0.00e+00	0	38	0	452984832	63	4146
2026-01-20 04:42:20.03	16.70	20.93	-45.5	-47.0	19.9	0.00e+00	0	38	0	458227712	63	4056
2026-01-20 04:42:23.06	15.99	21.10	-45.8	-47.2	19.6	0.00e+00	0	38	0	463470592	62	4436
2026-01-20 04:42:26.08	15.27	21.27	-45.3	-46.7	20.1	0.00e+00	0	38	0	469762048	62	4165
2026-01-20 04:42:29.10	14.55	21.44	-45.4	-46.8	20.0	0.00e+00	0	39	0	475004928	62	4225
2026-01-20 04:42:32.12	13.82	21.60	-45.3	-46.7	20.1	0.00e+00	0	38	0	481296384	62	4182
2026-01-20 04:42:35.15	13.09	21.76	-45.7	-47.2	19.7	0.00e+00	0	38	0	486539264	62	4399
2026-01-20 04:42:38.17	12.34	21.91	-45.7	-47.1	19.8	0.00e+00	0	38	0	491782144	62	4374
2026-01-20 04:42:41.19	11.59	22.06	-46.0	-47.5	19.4	0.00e+00	0	38	0	498073600	62	4560
2026-01-20 04:42:44.22	10.83	22.21	-45.5	-46.9	20.0	0.00e+00	0	39	0	503316480	62	4265
2026-01-20 04:42:47.24	10.06	22.35	-45.7	-47.2	19.7	0.00e+00	0	38	0	509607936	62	4423
2026-01-20 04:42:50.26	9.29	22.48	-45.7	-47.2	19.7	0.00e+00	0	38	0	514850816	62	4400
2026-01-20 04:42:53.28	8.51	22.61	-45.4	-46.7	20.1	0.00e+00	0	39	0	520093696	62	4187
2026-01-20 04:42:56.31	7.72	22.74	-45.5	-46.9	20.0	0.00e+00	0	39	0	526385152	62	4275
2026-01-20 04:42:59.33	6.93	22.86	-45.1	-46.5	20.4	0.00e+00	0	39	0	531628032	62	4052
2026-01-20 04:43:02.35	6.13	22.98	-45.6	-47.0	19.9	0.00e+00	0	38	0	537919488	62	4340
2026-01-20 04:43:05.37	5.33	23.08	-46.0	-47.5	19.4	0.00e+00	0	39	0	543162368	62	4592
2026-01-20 04:43:08.40	4.52	23.19	-47.1	-48.9	18.1	0.00e+00	0	38	0	548405248	64	4788
2026-01-20 04:43:11.42	3.70	23.29	-47.2	-49.0	17.9	0.00e+00	0	38	0	554696704	65	4585
2026-01-20 04:43:14.45	2.88	23.38	-47.1	-48.9	18.0	0.00e+00	0	39	0	559939584	65	4537
2026-01-20 04:43:17.47	2.05	23.46	-46.3	-47.9	19.0	0.00e+00	0	39	0	566231040	64	4257
2026-01-20 04:43:20.49	1.23	23.54	-46.6	-48.3	18.6	0.00e+00	0	38	0	571473920	64	4475
2026-01-20 04:43:23.52	0.39	23.62	-46.5	-48.2	18.7	0.00e+00	0	39	0	576716800	64	4409
2026-01-20 04:43:26.54	359.55	23.68	-46.9	-48.7	18.2	0.00e+00	0	39	0	583008256	64	4686
2026-01-20 04:43:29.57	358.71	23.75	-47.2	-49.1	17.9	0.00e+00	0	39	0	588251136	65	4618
2026-01-20 04:43:32.59	357.87	23.80	-47.1	-49.0	18.0	0.00e+00	0	38	0	594542592	65	4555
2026-01-20 04:43:35.61	357.02	23.85	-47.6	-49.6	17.4	0.00e+00	0	38	0	599785472	66	4648
2026-01-20 04:43:38.64	356.17	23.89	-47.0	-48.8	18.1	0.00e+00	0	39	0	606076928	66	4242
2026-01-20 04:43:41.66	355.32	23.92	-47.8	-50.0	17.0	0.00e+00	0	38	0	611319808	66	4825
2026-01-20 04:43:44.69	354.46	23.95	-47.9	-50.2	16.9	0.00e+00	0	39	0	616562688	67	4654
2026-01-20 04:43:47.71	353.61	23.97	-47.6	-49.7	17.2	0.00e+00	0	38	0	622854144	66	4703
2026-01-20 04:43:50.73	352.75	23.98	-46.9	-48.7	18.2	0.00e+00	0	38	0	628097024	65	4433
2026-01-20 04:43:53.76	351.90	23.99	-46.4	-48.0	18.9	0.00e+00	0	38	0	634388480	64	4326
2026-01-20 04:43:56.78	351.04	23.99	-47.2	-49.1	17.8	0.00e+00	0	38	0	639631360	64	4898
2026-01-20 04:43:59.80	350.19	23.98	-47.3	-49.2	17.7	0.00e+00	0	38	0	644874240	65	4678
2026-01-20 04:44:02.83	349.33	23.96	-46.4	-48.1	18.8	0.00e+00	0	38	0	651165696	64	4356
2026-01-20 04:44:05.85	348.48	23.94	-46.5	-48.2	18.7	0.00e+00	0	38	0	656408576	64	4402
2026-01-20 04:44:08.87	347.62	23.91	-46.3	-47.8	19.0	0.00e+00	0	39	0	662700032	64	4231
2026-01-20 04:44:11.89	346.77	23.88	-45.9	-47.4	19.6	0.00e+00	0	38	0	667942912	63	4245
2026-01-20 04:44:14.92	345.92	23.84	-46.5	-48.1	18.9	0.00e+00	0	38	0	673185792	63	4617
2026-01-20 04:44:17.94	345.08	23.79	-45.8	-47.2	19.7	0.00e+00	0	38	0	679477248	63	4184
2026-01-20 04:44:20.97	344.23	23.73	-45.8	-47.3	19.8	0.00e+00	0	39	0	684720128	63	4201
2026-01-20 04:44:23.99	343.39	23.67	-45.3	-46.7	20.3	0.00e+00	0	39	0	691011584	62	4146
2026-01-20 04:44:27.01	342.56	23.60	-45.4	-46.8	20.2	0.00e+00	0	38	0	696254464	62	4203
2026-01-20 04:44:30.04	341.72	23.53	-45.2	-46.5	20.4	0.00e+00	0	38	0	702545920	62	4065
2026-01-20 04:44:33.06	340.89	23.45	-45.6	-47.0	19.9	0.00e+00	0	38	0	707788800	62	4333
2026-01-20 04:44:36.09	340.07	23.36	-46.1	-47.5	19.5	0.00e+00	0	38	0	713031680	62	4595
2026-01-20 04:44:39.11	339.25	23.26	-46.1	-47.5	19.5	0.00e+00	0	39	0	719323136	62	4593
2026-01-20 04:44:42.13	338.43	23.17	-45.7	-47.1	19.8	0.00e+00	0	38	0	724566016	62	4379
2026-01-20 04:44:45.16	337.62	23.06	-46.4	-47.9	19.0	0.00e+00	0	38	0	730857472	63	4532
2026-01-20 04:44:48.18	336.82	22.95	-45.8	-47.2	19.8	0.00e+00	0	38	0	736100352	63	4170
2026-01-20 04:44:51.20	336.02	22.83	-46.1	-47.6	19.4	0.00e+00	0	38	0	741343232	63	4342
2026-01-20 04:44:54.23	335.23	22.71	-46.3	-47.9	19.1	0.00e+00	0	38	0	747634688	63	4506
2026-01-20 04:44:57.25	334.45	22.58	-46.4	-48.0	18.9	0.00e+00	0	38	0	752877568	63	4589
2026-01-20 04:45:00.27	333.67	22.45	-47.0	-48.8	18.1	0.00e+00	0	39	0	759169024	64	4758
2026-01-20 04:45:03.30	332.89	22.31	-47.1	-49.0	17.9	0.00e+00	0	39	0	764411904	64	4824
2026-01-20 04:45:06.32	332.13	22.17	-47.2	-49.1	17.8	0.00e+00	0	39	0	769654784	65	4639
2026-01-20 04:45:09.35	331.37	22.03	-47.1	-49.0	17.9	0.00e+00	0	39	0	775946240	65	4570
2026-01-20 04:45:12.37	330.62	21.88	-46.8	-48.6	18.3	0.00e+00	0	38	0	781189120	65	4346
2026-01-20 04:45:15.39	329.88	21.72	-46.7	-48.4	18.5	0.00e+00	0	39	0	787480576	64	4495
2026-01-20 04:45:18.41	329.14	21.56	-46.7	-48.4	18.5	0.00e+00	0	38	0	792723456	64	4515
2026-01-20 04:45:21.44	328.41	21.40	-46.7	-48.5	18.4	0.00e+00	0	38	0	797966336	64	4546
2026-01-20 04:45:24.46	327.69	21.23	-47.7	-49.8	17.1	0.00e+00	0	38	0	804257792	65	4995
2026-01-20 04:45:27.49	326.98	21.06	-47.4	-49.4	17.5	0.00e+00	0	38	0	809500672	66	4506
2026-01-20 04:45:30.51	326.28	20.89	-47.4	-49.4	17.4	0.00e+00	0	38	0	815792128	66	4521
2026-01-20 04:45:33.53	325.58	20.71	-48.0	-50.2	16.7	0.00e+00	0	38	0	821035008	66	4983
2026-01-20 04:45:36.56	324.89	20.53	-48.2	-50.6	16.3	0.00e+00	0	38	0	826277888	67	4899
2026-01-20 04:45:39.58	324.21	20.34	-47.1	-49.0	17.9	0.00e+00	0	39	0	832569344	66	4315
2026-01-20 04:45:42.60	323.54	20.16	-46.7	-48.5	18.4	0.00e+00	0	39	0	837812224	65	4293
2026-01-20 04:45:45.63	322.88	19.97	-46.7	-48.5	18.3	0.00e+00	0	39	0	844103680	64	4556
2026-01-20 04:45:48.66	322.22	19.78	-46.4	-48.1	18.7	0.00e+00	0	39	0	849346560	64	4368
2026-01-20 04:45:51.68	321.58	19.58	-46.3	-47.8	19.0	0.00e+00	0	38	0	854589440	63	4491
2026-01-20 04:45:54.70	320.94	19.39	-45.6	-47.0	19.7	0.00e+00	0	38	0	860880896	63	4083
2026-01-20 04:45:57.73	320.31	19.19	-45.8	-47.3	19.5	0.00e+00	0	38	0	866123776	62	4476
2026-01-20 04:46:00.75	319.68	18.99	-46.8	-48.6	18.2	0.00e+00	0	39	0	872415232	64	4624
2026-01-20 04:46:03.77	319.07	18.78	-47.3	-49.4	17.4	0.00e+00	0	38	0	877658112	65	4762
2026-01-20 04:46:06.80	318.47	18.58	-47.0	-48.9	17.8	0.00e+00	0	38	0	882900992	65	4544
2026-01-20 04:46:09.82	317.87	18.37	-46.4	-48.1	18.6	0.00e+00	0	38	0	889192448	64	4382
2026-01-20 04:46:12.84	317.28	18.17	-46.2	-47.8	18.8	0.00e+00	0	38	0	894435328	64	4209
2026-01-20 04:46:15.87	316.70	17.96	-46.2	-47.7	19.1	0.00e+00	0	38	0	900726784	63	4436
2026-01-20 04:46:18.89	316.13	17.75	-46.6	-48.4	18.4	0.00e+00	0	39	0	905969664	64	4503
2026-01-20 04:46:21.91	315.56	17.54	-46.9	-48.8	18.0	0.00e+00	0	39	0	911212544	64	4712
2026-01-20 04:46:24.94	315.00	17.33	-46.6	-48.3	18.4	0.00e+00	0	38	0	917504000	64	4486
2026-01-20 04:46:27.96	314.46	17.11	-47.2	-49.1	17.7	0.00e+00	0	39	0	922746880	64	4915
2026-01-20 04:46:30.99	313.91	16.90	-47.0	-48.9	17.9	0.00e+00	0	39	0	929038336	65	4520
2026-01-20 04:46:34.01	313.38	16.69	-46.7	-48.5	18.3	0.00e+00	0	39	0	934281216	65	4294
2026-01-20 04:46:37.03	312.86	16.47	-46.4	-48.1	18.7	0.00e+00	0	39	0	939524096	64	4353
2026-01-20 04:46:40.05	312.34	16.26	-46.1	-47.7	19.1	0.00e+00	0	39	0	945815552	63	4400
2026-01-20 04:46:43.08	311.83	16.04	-46.4	-48.1	18.8	0.00e+00	0	39	0	951058432	63	4606
2026-01-20 04:46:46.10	311.32	15.82	-46.3	-47.9	19.0	0.00e+00	0	38	0	957349888	63	4495
2026-01-20 04:46:49.13	310.83	15.61	-45.8	-47.2	19.6	0.00e+00	0	39	0	962592768	63	4171
2026-01-20 04:46:52.15	310.34	15.39	-45.6	-47.0	19.8	0.00e+00	0	39	0	968884224	62	4296
2026-01-20 04:46:55.18	309.86	15.17	-45.8	-47.2	19.6	0.00e+00	0	38	0	974127104	62	4420
2026-01-20 04:46:58.20	309.38	14.95	-46.1	-47.6	19.2	0.00e+00	0	39	0	979369984	62	4637
2026-01-20 04:47:01.22	308.92	14.74	-46.2	-47.7	19.1	0.00e+00	0	38	0	985661440	63	4416
2026-01-20 04:47:04.25	308.45	14.52	-45.5	-46.8	19.8	0.00e+00	0	39	0	990904320	63	4003
2026-01-20 04:47:07.27	308.00	14.30	-45.5	-46.9	19.8	0.00e+00	0	38	0	997195776	62	4265
2026-01-20 04:47:10.29	307.56	14.09	-46.3	-47.9	18.9	0.00e+00	0	39	0	1002438656	63	4508
2026-01-20 04:47:13.32	307.11	13.87	-46.6	-48.3	18.5	0.00e+00	0	38	0	1007681536	63	4756
2026-01-20 04:47:16.34	306.68	13.65	-46.4	-48.1	18.6	0.00e+00	0	39	0	1013972992	64	4356
2026-01-20 04:47:19.36	306.25	13.44	-46.5	-48.1	18.6	0.00e+00	0	38	0	1019215872	64	4389
2026-01-20 04:47:22.39	305.83	13.22	-46.1	-47.6	19.2	0.00e+00	0	38	0	1025507328	63	4368
2026-01-20 04:47:25.41	305.42	13.00	-45.6	-47.0	19.7	0.00e+00	0	38	0	1030750208	63	4068
2026-01-20 04:47:28.44	305.01	12.79	-46.1	-47.6	19.1	0.00e+00	0	38	0	1037041664	63	4387
2026-01-20 04:47:31.46	304.61	12.57	-47.0	-48.9	17.8	0.00e+00	0	39	0	1042284544	64	4787
2026-01-20 04:47:34.49	304.21	12.36	-47.5	-49.5	17.3	0.00e+00	0	39	0	1047527424	65	4833
2026-01-20 04:47:37.51	303.82	12.15	-46.9	-48.7	18.0	0.00e+00	0	38	0	1053818880	65	4392
2026-01-20 04:47:40.53	303.43	11.93	-46.5	-48.2	18.5	0.00e+00	0	39	0	1059061760	64	4411
2026-01-20 04:47:43.55	303.05	11.72	-46.5	-48.2	18.3	0.00e+00	0	38	0	1065353216	64	4424
2026-01-20 04:47:46.58	302.68	11.51	-46.5	-48.2	18.4	0.00e+00	0	39	0	1070596096	64	4421
2026-01-20 04:47:49.60	302.31	11.30	-46.8	-48.5	18.1	0.00e+00	0	39	0	1075838976	64	4597
2026-01-20 04:47:52.62	301.95	11.09	-46.7	-48.4	18.1	0.00e+00	0	38	0	1082130432	64	4536
2026-01-20 04:47:55.65	301.59	10.88	-47.1	-49.0	17.6	0.00e+00	0	39	0	1087373312	64	4837
2026-01-20 04:47:58.67	301.24	10.67	-47.5	-49.6	17.0	0.00e+00	0	38	0	1093664768	65	4885
2026-01-20 04:48:01.69	300.89	10.46	-47.5	-49.6	17.0	0.00e+00	0	38	0	1098907648	65	4916
2026-01-20 04:48:04.72	300.55	10.25	-47.4	-49.5	17.1	0.00e+00	0	38	0	1104150528	65	4848
2026-01-20 04:48:07.74	300.21	10.05	-47.9	-50.2	16.4	0.00e+00	0	39	0	1110441984	66	4978
2026-01-20 04:48:10.77	299.88	9.84	-48.3	-50.8	15.8	0.00e+00	0	39	0	1115684864	67	5035
2026-01-20 04:48:13.79	299.55	9.63	-47.9	-50.1	16.5	0.00e+00	0	39	0	1121976320	67	4625
2026-01-20 04:48:16.81	299.23	9.43	-47.5	-49.5	17.0	0.00e+00	0	39	0	1127219200	66	4577
2026-01-20 04:48:19.84	298.91	9.23	-47.2	-49.1	17.4	0.00e+00	0	39	0	1132462080	65	4647
2026-01-20 04:48:22.86	298.60	9.02	-47.2	-49.1	17.3	0.00e+00	0	38	0	1138753536	65	4647
2026-01-20 04:48:25.89	298.29	8.82	-47.5	-49.5	17.0	0.00e+00	0	38	0	1143996416	65	4860
2026-01-20 04:48:28.91	297.98	8.62	-47.9	-50.1	16.4	0.00e+00	0	38	0	1150287872	66	4890
2026-01-20 04:48:31.93	297.68	8.42	-47.7	-49.9	16.6	0.00e+00	0	39	0	1155530752	66	4771
2026-01-20 04:48:34.96	297.38	8.22	-47.6	-49.6	16.8	0.00e+00	0	39	0	1160773632	66	4644
2026-01-20 04:48:37.98	297.09	8.02	-47.6	-49.8	16.7	0.00e+00	0	39	0	1167065088	66	4710
2026-01-20 04:48:41.00	296.80	7.82	-47.7	-49.9	16.5	0.00e+00	0	39	0	1172307968	66	4787
2026-01-20 04:48:44.03	296.52	7.62	-47.5	-49.6	16.8	0.00e+00	0	39	0	1178599424	66	4607
2026-01-20 04:48:47.05	296.24	7.43	-47.7	-50.0	16.4	0.00e+00	0	39	0	1183842304	66	4835
2026-01-20 04:48:50.07	295.96	7.23	-48.2	-50.7	15.7	0.00e+00	0	39	0	1189085184	66	5248
2026-01-20 04:48:53.10	295.69	7.04	-48.6	-51.3	15.1	0.00e+00	0	39	0	1195376640	67	5315
2026-01-20 04:48:56.12	295.42	6.84	-48.8	-51.7	14.7	1.50e-06	0	39	0	1200619520	68	5261
2026-01-20 04:48:59.15	295.15	6.65	-49.0	-52.0	14.4	0.00e+00	0	39	0	1206910976	68	5453
2026-01-20 04:49:02.17	294.89	6.46	-49.2	-52.3	14.0	0.00e+00	0	39	0	1212153856	69	5319
2026-01-20 04:49:05.19	294.64	6.27	-49.2	-52.4	13.9	1.50e-06	0	39	0	1217396736	69	5397
2026-01-20 04:49:08.22	294.38	6.08	-49.2	-52.4	13.9	3.80e-06	0	39	0	1223688192	69	5360
2026-01-20 04:49:11.24	294.13	5.89	-49.1	-52.2	14.1	3.80e-06	0	39	0	1228931072	69	5250
2026-01-20 04:49:14.27	293.88	5.70	-49.3	-52.6	13.6	7.60e-06	0	39	0	1235222528	69	5500
2026-01-20 04:49:17.29	293.64	5.51	-50.2	-54.4	11.9	6.80e-06	0	39	0	1240465408	70	6380
2026-01-20 04:49:20.31	293.40	5.32	-49.5	-53.1	13.2	1.23e-04	0	39	0	1245708288	70	5468
2026-01-20 04:49:23.34	293.16	5.14	-50.0	-54.0	12.3	9.00e-05	0	39	0	1251999744	70	6085
2026-01-20 04:49:26.36	292.92	4.95	-52.8	-67.7	3.8	7.91e-01	0	39	104	1256194048	76	20978
2026-01-20 04:49:29.38	292.69	4.77	-53.4	-68.4	3.8	1.49e+00	0	39	104	1256194048	77	21301
2026-01-20 04:49:32.41	292.46	4.58	-53.6	-68.6	3.8	1.49e+00	0	39	104	1256194048	77	21887
2026-01-20 04:49:35.43	292.24	4.40	-53.9	-68.8	3.8	1.49e+00	0	39	104	1256194048	78	21194
2026-01-20 04:49:38.45	292.01	4.22	-53.9	-68.9	3.8	1.49e+00	0	39	104	1256194048	78	21365
2026-01-20 04:49:41.48	291.79	4.04	-54.0	-69.0	3.8	1.49e+00	0	39	104	1256194048	78	21563
2026-01-20 04:49:44.50	291.58	3.86	-54.1	-69.0	3.8	1.49e+00	0	39	104	1256194048	78	21725
2026-01-20 04:49:47.53	291.36	3.68	-54.1	-69.1	3.8	1.49e+00	0	39	104	1256194048	78	21783
2026-01-20 04:49:50.55	291.15	3.50	-54.1	-69.1	3.8	1.49e+00	0	39	104	1256194048	78	21884
2026-01-20 04:49:53.57	290.94	3.32	-54.1	-69.1	3.8	1.49e+00	0	39	104	1256194048	78	21787
2026-01-20 04:49:56.60	290.74	3.14	-54.0	-69.0	3.8	1.49e+00	0	39	104	1256194048	78	21557
2026-01-20 04:49:59.62	290.53	2.97	-54.0	-68.9	3.8	1.49e+00	0	39	104	1256194048	78	21493
2026-01-20 04:50:02.65	290.33	2.79	-54.0	-68.9	3.8	1.49e+00	0	39	104	1256194048	78	21503
2026-01-20 04:50:05.67	290.13	2.61	-53.9	-68.9	3.8	1.49e+00	0	39	104	1256194048	78	21445
2026-01-20 04:50:08.70	289.94	2.44	-53.9	-68.9	3.8	1.49e+00	0	39	104	1256194048	78	21440
2026-01-20 04:50:11.72	289.74	2.27	-53.9	-68.9	3.8	1.49e+00	0	39	104	1256194048	78	21352
2026-01-20 04:50:14.74	289.55	2.09	-53.9	-68.9	3.8	1.49e+00	0	39	104	1256194048	78	21409

#Closed at: 2026-01-20 04:50:16
#Recorded file [1256 MB]: D:/lorett/data/31041_260120_073732.dat