passes_logs/2026/01/20/R3.2S_Murmansk/R3.2S_Murmansk__20260120_215841_NOAA_20_JPSS-1_rec.log

#Pass ID: 20260120_215841_NOAA 20 (JPSS-1)
#Satellite: NOAA 20 (JPSS-1)
#Configuration: NOAA 20
#almurnet v.1.7.20251203
#Start time: 2026-01-20 21:58:42

#Version: 2.2.20231116
#Station: R3.2S_Murmansk
#Location: 33.079688 lon 68.888172 lat
#TLE: 1 43013U 17073A   26020.26397077  .00000127  00000+0  80954-4 0  9999
#TLE: 2 43013  98.7643 321.1479 0001288  31.3158 328.8095 14.19537595423482

#Time	Az	El	Level	Level2	SNR	BER	BlckErr	Temp	State	Recorded	gain1	gain2
2026-01-20 21:58:42.10	18.52	2.03	-53.6	-68.6	3.8	1.49e+00	0	39	0	0	78	20655
2026-01-20 21:58:45.97	18.83	2.23	-53.8	-68.8	3.8	1.49e+00	0	38	104	0	78	21083
2026-01-20 21:58:49.86	19.15	2.43	-53.7	-68.7	3.8	1.49e+00	0	38	104	0	78	20923
2026-01-20 21:58:53.73	19.47	2.63	-53.6	-68.6	3.8	1.49e+00	0	39	104	0	78	20735
2026-01-20 21:58:57.61	19.79	2.83	-53.4	-68.4	3.8	1.49e+00	0	39	104	0	78	20117
2026-01-20 21:59:01.49	20.12	3.04	-52.8	-67.8	3.8	1.49e+00	0	39	104	0	77	20008
2026-01-20 21:59:05.39	20.45	3.24	-52.1	-67.0	3.8	1.49e+00	0	39	104	0	76	19287
2026-01-20 21:59:09.26	20.79	3.45	-52.1	-67.0	3.8	1.49e+00	0	39	104	0	76	19275
2026-01-20 21:59:13.14	21.13	3.66	-52.0	-67.0	3.8	1.49e+00	0	39	104	0	76	19253
2026-01-20 21:59:17.03	21.48	3.86	-52.0	-67.0	3.8	1.49e+00	0	39	104	0	76	19168
2026-01-20 21:59:21.00	21.84	4.08	-52.1	-67.0	3.8	1.49e+00	0	39	104	0	76	19292
2026-01-20 21:59:25.03	22.21	4.29	-52.0	-66.5	3.8	1.49e+00	0	39	104	0	76	18124
2026-01-20 21:59:29.06	22.58	4.51	-51.9	-64.4	3.9	1.49e+00	0	39	104	0	75	15158
2026-01-20 21:59:33.09	22.96	4.73	-50.9	-57.1	8.6	5.01e-02	0	39	0	5242880	73	7312
2026-01-20 21:59:37.12	23.35	4.95	-50.3	-55.4	10.4	4.34e-03	0	39	0	12582912	72	6353
2026-01-20 21:59:41.15	23.74	5.17	-51.9	-66.7	3.8	9.10e-01	0	40	104	19922944	74	20938
2026-01-20 21:59:45.19	24.13	5.39	-48.2	-50.7	15.4	1.01e-04	0	40	0	25165824	68	4694
2026-01-20 21:59:49.22	24.54	5.61	-47.8	-50.2	16.0	0.00e+00	0	40	0	33554432	67	4671
2026-01-20 21:59:53.24	24.94	5.83	-47.8	-50.1	16.0	0.00e+00	0	39	0	40894464	67	4649
2026-01-20 21:59:57.28	25.36	6.06	-48.1	-50.6	15.6	0.00e+00	0	40	0	48234496	67	4903
2026-01-20 22:00:01.31	25.78	6.28	-47.9	-50.2	16.0	0.00e+00	0	39	0	55574528	67	4694
2026-01-20 22:00:05.34	26.20	6.50	-47.7	-50.0	16.3	0.00e+00	0	40	0	62914560	67	4566
2026-01-20 22:00:09.37	26.64	6.73	-47.5	-49.6	16.7	0.00e+00	0	40	0	71303168	66	4634
2026-01-20 22:00:13.40	27.08	6.96	-47.5	-49.6	16.8	0.00e+00	0	40	0	78643200	66	4626
2026-01-20 22:00:17.43	27.52	7.18	-47.2	-49.2	17.2	0.00e+00	0	40	0	85983232	66	4404
2026-01-20 22:00:21.45	27.97	7.41	-47.2	-49.1	17.3	0.00e+00	0	39	0	93323264	66	4390
2026-01-20 22:00:25.48	28.43	7.63	-46.8	-48.7	17.7	0.00e+00	0	40	0	100663296	65	4415
2026-01-20 22:00:29.52	28.90	7.86	-46.8	-48.6	17.8	0.00e+00	0	40	0	109051904	65	4380
2026-01-20 22:00:33.54	29.37	8.09	-46.7	-48.5	18.0	0.00e+00	0	40	0	116391936	65	4293
2026-01-20 22:00:37.57	29.85	8.32	-46.7	-48.5	18.0	0.00e+00	0	40	0	123731968	65	4310
2026-01-20 22:00:41.59	30.34	8.55	-47.0	-48.9	17.6	0.00e+00	0	40	0	131072000	65	4530
2026-01-20 22:00:45.62	30.83	8.78	-47.0	-48.9	17.6	0.00e+00	0	40	0	138412032	65	4524
2026-01-20 22:00:49.65	31.33	9.01	-46.9	-48.8	17.7	0.00e+00	0	40	0	146800640	65	4461
2026-01-20 22:00:53.68	31.84	9.24	-46.7	-48.5	18.1	0.00e+00	0	40	0	154140672	65	4298
2026-01-20 22:00:57.72	32.36	9.47	-46.8	-48.6	18.0	0.00e+00	0	40	0	161480704	65	4359
2026-01-20 22:01:01.74	32.88	9.70	-46.7	-48.5	18.1	0.00e+00	0	40	0	168820736	65	4297
2026-01-20 22:01:05.76	33.42	9.93	-46.8	-48.6	18.1	0.00e+00	0	40	0	176160768	65	4341
2026-01-20 22:01:09.79	33.96	10.16	-46.6	-48.4	18.2	0.00e+00	0	40	0	184549376	65	4248
2026-01-20 22:01:13.81	34.51	10.39	-46.5	-48.2	18.5	0.00e+00	0	40	0	191889408	64	4393
2026-01-20 22:01:17.83	35.06	10.62	-46.5	-48.2	18.4	0.00e+00	0	40	0	199229440	64	4410
2026-01-20 22:01:21.84	35.63	10.84	-46.6	-48.3	18.4	0.00e+00	0	40	0	206569472	64	4456
2026-01-20 22:01:25.87	36.20	11.07	-46.3	-47.9	18.8	0.00e+00	0	40	0	213909504	64	4265
2026-01-20 22:01:29.88	36.78	11.30	-46.2	-47.8	18.9	0.00e+00	0	40	0	222298112	64	4211
2026-01-20 22:01:33.90	37.38	11.53	-46.2	-47.8	18.9	0.00e+00	0	40	0	229638144	64	4200
2026-01-20 22:01:37.93	37.98	11.76	-45.9	-47.4	19.4	0.00e+00	0	40	0	236978176	63	4271
2026-01-20 22:01:41.96	38.59	11.99	-45.8	-47.3	19.5	0.00e+00	0	40	0	244318208	63	4228
2026-01-20 22:01:45.98	39.21	12.21	-45.8	-47.2	19.6	0.00e+00	0	40	0	251658240	63	4181
2026-01-20 22:01:50.01	39.84	12.44	-45.5	-46.9	19.8	0.00e+00	0	40	0	260046848	63	4045
2026-01-20 22:01:54.03	40.47	12.66	-45.7	-47.1	19.7	0.00e+00	0	40	0	267386880	63	4133
2026-01-20 22:01:58.06	41.12	12.88	-45.6	-47.0	19.8	0.00e+00	0	40	0	274726912	63	4077
2026-01-20 22:02:02.08	41.78	13.11	-45.6	-47.0	19.9	0.00e+00	0	40	0	282066944	63	4072
2026-01-20 22:02:06.11	42.44	13.33	-45.6	-46.9	19.9	0.00e+00	0	40	0	289406976	62	4287
2026-01-20 22:02:10.14	43.12	13.55	-45.6	-47.0	19.8	0.00e+00	0	40	0	297795584	62	4308
2026-01-20 22:02:14.16	43.81	13.76	-45.4	-46.8	20.0	0.00e+00	0	40	0	305135616	62	4218
2026-01-20 22:02:18.19	44.50	13.98	-45.5	-46.9	20.0	0.00e+00	0	40	0	312475648	62	4262
2026-01-20 22:02:22.23	45.21	14.19	-45.6	-47.0	19.8	0.00e+00	0	40	0	319815680	62	4329
2026-01-20 22:02:26.26	45.93	14.40	-45.7	-47.1	19.8	0.00e+00	0	40	0	327155712	62	4358
2026-01-20 22:02:30.29	46.65	14.61	-46.2	-47.7	19.2	0.00e+00	0	40	0	335544320	62	4699
2026-01-20 22:02:34.23	47.37	14.81	-46.4	-47.9	19.0	0.00e+00	0	40	0	342884352	63	4543
2026-01-20 22:02:38.12	48.09	15.01	-46.3	-47.9	19.0	0.00e+00	0	40	0	350224384	63	4521
2026-01-20 22:02:41.99	48.82	15.20	-46.7	-48.4	18.5	0.00e+00	0	40	0	357564416	63	4775
2026-01-20 22:02:45.87	49.55	15.39	-46.8	-48.5	18.3	0.00e+00	0	40	0	363855872	64	4591
2026-01-20 22:02:49.74	50.30	15.58	-46.7	-48.4	18.5	0.00e+00	0	40	0	371195904	64	4511
2026-01-20 22:02:53.61	51.05	15.77	-46.9	-48.6	18.2	0.00e+00	0	40	0	378535936	64	4614
2026-01-20 22:02:57.49	51.81	15.95	-47.3	-49.2	17.7	0.00e+00	0	40	0	385875968	65	4688
2026-01-20 22:03:01.36	52.58	16.13	-47.3	-49.1	17.7	0.00e+00	0	40	0	393216000	65	4642
2026-01-20 22:03:05.23	53.36	16.30	-47.0	-48.8	18.1	0.00e+00	0	40	0	400556032	65	4446
2026-01-20 22:03:09.11	54.15	16.47	-47.1	-48.9	18.0	0.00e+00	0	40	0	407896064	65	4529
2026-01-20 22:03:12.99	54.95	16.64	-47.0	-48.8	18.1	0.00e+00	0	40	0	415236096	65	4464
2026-01-20 22:03:16.86	55.76	16.80	-46.8	-48.5	18.5	0.00e+00	0	40	0	422576128	65	4313
2026-01-20 22:03:20.74	56.57	16.96	-46.3	-47.8	19.1	0.00e+00	0	40	0	429916160	64	4221
2026-01-20 22:03:24.61	57.39	17.11	-46.0	-47.5	19.3	0.00e+00	0	40	0	437256192	64	4083
2026-01-20 22:03:28.49	58.23	17.26	-45.8	-47.2	19.8	0.00e+00	0	40	0	444596224	63	4162
2026-01-20 22:03:32.36	59.06	17.40	-46.1	-47.5	19.4	0.00e+00	0	40	0	451936256	63	4339
2026-01-20 22:03:36.25	59.91	17.54	-46.2	-47.7	19.3	0.00e+00	0	40	0	459276288	63	4428
2026-01-20 22:03:40.13	60.77	17.67	-46.1	-47.5	19.4	0.00e+00	0	40	0	466616320	63	4339
2026-01-20 22:03:44.01	61.63	17.80	-46.4	-47.9	19.1	0.00e+00	0	40	0	472907776	63	4520
2026-01-20 22:03:47.88	62.50	17.92	-46.4	-47.9	19.0	0.00e+00	0	40	0	480247808	63	4530
2026-01-20 22:03:51.76	63.38	18.04	-46.0	-47.5	19.5	0.00e+00	0	40	0	487587840	63	4317
2026-01-20 22:03:55.64	64.26	18.15	-46.2	-47.7	19.3	0.00e+00	0	40	0	494927872	63	4413
2026-01-20 22:03:59.52	65.15	18.26	-46.3	-47.8	19.2	0.00e+00	0	40	0	502267904	63	4466
2026-01-20 22:04:03.40	66.04	18.35	-46.1	-47.6	19.4	0.00e+00	0	40	0	509607936	63	4364
2026-01-20 22:04:07.27	66.94	18.45	-46.1	-47.6	19.4	0.00e+00	0	40	0	516947968	63	4347
2026-01-20 22:04:11.16	67.85	18.53	-46.2	-47.7	19.4	0.00e+00	0	40	0	524288000	63	4399
2026-01-20 22:04:15.04	68.76	18.61	-46.4	-47.9	19.1	0.00e+00	0	40	0	531628032	63	4523
2026-01-20 22:04:18.91	69.67	18.68	-46.3	-47.8	19.2	0.00e+00	0	40	0	538968064	63	4463
2026-01-20 22:04:22.79	70.59	18.75	-46.6	-48.2	18.8	0.00e+00	0	40	0	546308096	63	4699
2026-01-20 22:04:26.67	71.51	18.80	-46.5	-48.1	18.8	0.00e+00	0	40	0	553648128	64	4373
2026-01-20 22:04:30.55	72.44	18.85	-46.3	-47.9	19.1	0.00e+00	0	40	0	560988160	64	4251
2026-01-20 22:04:34.42	73.37	18.90	-46.2	-47.7	19.3	0.00e+00	0	40	0	568328192	64	4164
2026-01-20 22:04:38.30	74.30	18.93	-46.8	-48.5	18.5	0.00e+00	0	40	0	575668224	64	4551
2026-01-20 22:04:42.18	75.23	18.96	-46.9	-48.6	18.3	0.00e+00	0	40	0	581959680	64	4645
2026-01-20 22:04:46.05	76.16	18.98	-46.4	-47.9	19.0	0.00e+00	0	40	0	589299712	64	4281
2026-01-20 22:04:49.93	77.10	19.00	-46.8	-48.5	18.5	0.00e+00	0	40	0	596639744	64	4584
2026-01-20 22:04:53.82	78.04	19.00	-46.9	-48.6	18.3	0.00e+00	0	40	0	603979776	64	4623
2026-01-20 22:04:57.69	78.97	19.00	-46.3	-47.9	19.1	0.00e+00	0	40	0	611319808	64	4258
2026-01-20 22:05:01.57	79.91	18.99	-46.1	-47.6	19.4	0.00e+00	0	40	0	618659840	64	4103
2026-01-20 22:05:05.45	80.85	18.98	-46.2	-47.7	19.2	0.00e+00	0	40	0	625999872	64	4158
2026-01-20 22:05:09.32	81.78	18.96	-46.6	-48.2	18.7	0.00e+00	0	40	0	633339904	64	4439
2026-01-20 22:05:13.20	82.71	18.92	-46.7	-48.4	18.5	0.00e+00	0	40	0	640679936	64	4540
2026-01-20 22:05:17.08	83.64	18.89	-46.2	-47.7	19.2	0.00e+00	0	40	0	648019968	64	4191
2026-01-20 22:05:20.95	84.57	18.84	-45.7	-47.1	19.8	0.00e+00	0	40	0	655360000	63	4133
2026-01-20 22:05:24.83	85.50	18.79	-46.1	-47.6	19.3	0.00e+00	0	40	0	662700032	63	4377
2026-01-20 22:05:28.70	86.42	18.73	-46.4	-48.0	19.0	0.00e+00	0	40	0	670040064	63	4560
2026-01-20 22:05:32.58	87.34	18.66	-46.0	-47.4	19.5	0.00e+00	0	40	0	677380096	63	4281
2026-01-20 22:05:36.46	88.25	18.59	-45.7	-47.0	19.9	0.00e+00	0	40	0	683671552	63	4097
2026-01-20 22:05:40.34	89.16	18.51	-45.2	-46.5	20.4	0.00e+00	0	40	0	691011584	62	4080
2026-01-20 22:05:44.21	90.07	18.42	-45.5	-46.8	20.1	0.00e+00	0	40	0	698351616	62	4242
2026-01-20 22:05:48.10	90.97	18.33	-45.7	-47.2	19.8	0.00e+00	0	40	0	705691648	62	4396
2026-01-20 22:05:52.00	91.87	18.23	-45.8	-47.2	19.7	0.00e+00	0	40	0	713031680	62	4431
2026-01-20 22:05:55.88	92.76	18.12	-45.3	-46.7	20.2	0.00e+00	0	40	0	720371712	62	4151
2026-01-20 22:05:59.77	93.64	18.01	-44.8	-46.1	20.8	0.00e+00	0	40	0	727711744	61	4118
2026-01-20 22:06:03.65	94.52	17.89	-44.8	-46.0	20.8	0.00e+00	0	40	0	735051776	61	4097
2026-01-20 22:06:07.52	95.39	17.77	-44.9	-46.1	20.7	0.00e+00	0	40	0	742391808	61	4133
2026-01-20 22:06:11.40	96.25	17.64	-44.5	-45.7	21.1	0.00e+00	0	40	0	749731840	61	3935
2026-01-20 22:06:15.29	97.11	17.50	-44.4	-45.6	21.2	0.00e+00	0	40	0	757071872	60	4107
2026-01-20 22:06:19.16	97.95	17.36	-44.4	-45.6	21.3	0.00e+00	0	40	0	764411904	60	4113
2026-01-20 22:06:23.05	98.80	17.22	-44.6	-45.8	21.0	0.00e+00	0	39	0	771751936	60	4231
2026-01-20 22:06:26.92	99.63	17.07	-45.0	-46.3	20.6	0.00e+00	0	40	0	779091968	60	4442
2026-01-20 22:06:30.80	100.45	16.91	-44.8	-46.1	20.8	0.00e+00	0	40	0	786432000	60	4359
2026-01-20 22:06:34.67	101.26	16.75	-45.4	-46.7	20.2	0.00e+00	0	40	0	793772032	61	4434
2026-01-20 22:06:38.55	102.07	16.59	-45.8	-47.3	19.6	0.00e+00	0	40	0	801112064	62	4452
2026-01-20 22:06:42.43	102.87	16.42	-46.0	-47.5	19.4	0.00e+00	0	40	0	807403520	62	4578
2026-01-20 22:06:46.32	103.66	16.24	-45.9	-47.4	19.5	0.00e+00	0	40	0	814743552	62	4525
2026-01-20 22:06:50.19	104.44	16.07	-45.7	-47.1	19.8	0.00e+00	0	40	0	822083584	62	4384
2026-01-20 22:06:54.07	105.21	15.89	-46.2	-47.8	19.2	0.00e+00	0	40	0	829423616	63	4449
2026-01-20 22:06:57.95	105.98	15.71	-46.5	-48.1	18.8	0.00e+00	0	40	0	836763648	63	4634
2026-01-20 22:07:01.84	106.73	15.52	-46.3	-47.9	19.0	0.00e+00	0	40	0	844103680	63	4519
2026-01-20 22:07:05.72	107.48	15.33	-46.4	-48.0	18.9	0.00e+00	0	40	0	851443712	63	4562
2026-01-20 22:07:09.60	108.21	15.14	-46.4	-48.0	18.9	0.00e+00	0	40	0	858783744	63	4593
2026-01-20 22:07:13.48	108.94	14.94	-46.2	-47.8	19.1	0.00e+00	0	40	0	866123776	63	4449
2026-01-20 22:07:17.37	109.66	14.74	-45.8	-47.2	19.6	0.00e+00	0	40	0	873463808	63	4173
2026-01-20 22:07:21.24	110.37	14.54	-45.6	-47.0	19.9	0.00e+00	0	40	0	880803840	63	4053
2026-01-20 22:07:25.11	111.06	14.34	-45.7	-47.2	19.7	0.00e+00	0	40	0	888143872	63	4150
2026-01-20 22:07:28.99	111.75	14.13	-46.6	-48.2	18.6	0.00e+00	0	40	0	895483904	63	4690
2026-01-20 22:07:32.86	112.43	13.93	-46.5	-48.2	18.6	0.00e+00	0	40	0	902823936	64	4401
2026-01-20 22:07:36.74	113.10	13.72	-45.5	-46.9	19.9	0.00e+00	0	40	0	910163968	63	4022
2026-01-20 22:07:40.61	113.76	13.51	-45.8	-47.2	19.6	0.00e+00	0	40	0	917504000	62	4433
2026-01-20 22:07:44.48	114.42	13.29	-45.7	-47.1	19.7	0.00e+00	0	40	0	923795456	62	4366
2026-01-20 22:07:48.37	115.06	13.08	-45.6	-47.0	19.8	0.00e+00	0	40	0	931135488	62	4311
2026-01-20 22:07:52.24	115.70	12.87	-46.0	-47.5	19.2	0.00e+00	0	40	0	938475520	62	4571
2026-01-20 22:07:56.13	116.32	12.65	-45.8	-47.2	19.5	0.00e+00	0	40	0	945815552	62	4421
2026-01-20 22:07:59.99	116.94	12.43	-45.5	-46.9	19.9	0.00e+00	0	40	0	953155584	62	4244
2026-01-20 22:08:03.87	117.55	12.21	-46.1	-47.6	19.1	0.00e+00	0	40	0	960495616	62	4636
2026-01-20 22:08:07.75	118.15	11.99	-45.7	-47.1	19.5	0.00e+00	0	40	0	967835648	62	4378
2026-01-20 22:08:11.62	118.74	11.77	-45.6	-47.1	19.5	0.00e+00	0	40	0	975175680	62	4354
2026-01-20 22:08:15.50	119.32	11.55	-46.2	-47.9	18.7	0.00e+00	0	40	0	982515712	63	4499
2026-01-20 22:08:19.37	119.89	11.33	-46.2	-47.8	18.8	0.00e+00	0	40	0	989855744	63	4448
2026-01-20 22:08:23.24	120.46	11.11	-45.8	-47.3	19.3	0.00e+00	0	40	0	997195776	63	4195
2026-01-20 22:08:27.12	121.02	10.89	-46.3	-47.9	18.6	0.00e+00	0	40	0	1004535808	63	4527
2026-01-20 22:08:30.99	121.56	10.67	-46.1	-47.7	18.9	0.00e+00	0	40	0	1011875840	63	4406
2026-01-20 22:08:34.87	122.11	10.44	-45.9	-47.5	19.1	0.00e+00	0	39	0	1018167296	63	4298
2026-01-20 22:08:38.74	122.64	10.22	-46.3	-48.0	18.5	0.00e+00	0	40	0	1025507328	63	4574
2026-01-20 22:08:42.62	123.17	10.00	-46.7	-48.5	17.9	0.00e+00	0	40	0	1032847360	64	4596
2026-01-20 22:08:46.50	123.68	9.77	-46.3	-48.0	18.4	0.00e+00	0	39	0	1040187392	64	4315
2026-01-20 22:08:50.38	124.20	9.55	-46.5	-48.3	18.1	0.00e+00	0	39	0	1047527424	64	4461
2026-01-20 22:08:54.27	124.70	9.33	-46.8	-48.7	17.6	0.00e+00	0	39	0	1054867456	64	4670
2026-01-20 22:08:58.14	125.20	9.11	-46.7	-48.5	17.8	0.00e+00	0	40	0	1062207488	64	4581
2026-01-20 22:09:02.02	125.68	8.88	-46.7	-48.5	17.8	0.00e+00	0	40	0	1069547520	64	4577
2026-01-20 22:09:05.90	126.17	8.66	-46.9	-48.9	17.4	0.00e+00	0	40	0	1076887552	64	4766
2026-01-20 22:09:09.77	126.64	8.44	-47.2	-49.3	17.0	0.00e+00	0	40	0	1084227584	65	4714
2026-01-20 22:09:13.65	127.11	8.22	-46.9	-48.9	17.4	0.00e+00	0	40	0	1091567616	65	4494
2026-01-20 22:09:17.52	127.57	7.99	-46.7	-48.6	17.6	0.00e+00	0	39	0	1098907648	65	4385
2026-01-20 22:09:21.41	128.02	7.77	-47.0	-49.0	17.2	0.00e+00	0	40	0	1106247680	65	4563
2026-01-20 22:09:25.28	128.47	7.55	-47.1	-49.2	16.9	0.00e+00	0	40	0	1113587712	65	4668
2026-01-20 22:09:29.15	128.91	7.33	-47.1	-49.1	17.0	0.00e+00	0	40	0	1120927744	65	4639
2026-01-20 22:09:33.03	129.35	7.11	-47.4	-49.6	16.5	0.00e+00	0	40	0	1128267776	65	4872
2026-01-20 22:09:36.91	129.78	6.89	-47.7	-50.1	16.0	0.00e+00	0	40	0	1135607808	66	4905
2026-01-20 22:09:40.80	130.20	6.67	-47.9	-50.5	15.6	0.00e+00	0	40	0	1142947840	66	5101
2026-01-20 22:09:44.67	130.62	6.46	-47.8	-50.2	15.9	0.00e+00	0	40	0	1149239296	66	4936
2026-01-20 22:09:48.55	131.03	6.24	-47.5	-49.8	16.2	0.00e+00	0	40	0	1156579328	66	4750
2026-01-20 22:09:52.43	131.43	6.02	-47.9	-50.4	15.6	0.00e+00	0	40	0	1163919360	66	5060
2026-01-20 22:09:56.30	131.83	5.80	-47.9	-50.5	15.5	0.00e+00	0	40	0	1171259392	66	5120
2026-01-20 22:10:00.18	132.22	5.59	-48.0	-50.7	15.2	0.00e+00	0	40	0	1178599424	66	5241
2026-01-20 22:10:04.05	132.61	5.37	-48.4	-51.3	14.5	7.00e-07	0	40	0	1185939456	67	5333
2026-01-20 22:10:07.93	132.99	5.16	-48.3	-51.2	14.6	0.00e+00	0	40	0	1193279488	67	5264
2026-01-20 22:10:11.81	133.37	4.95	-52.3	-67.3	3.8	1.49e+00	0	40	104	1198522368	75	21200
2026-01-20 22:10:15.70	133.75	4.73	-53.0	-68.0	3.8	1.49e+00	0	40	104	1198522368	76	21581
2026-01-20 22:10:19.58	134.11	4.52	-53.3	-68.3	3.8	1.49e+00	0	40	104	1198522368	77	21119
2026-01-20 22:10:23.45	134.47	4.31	-53.5	-68.5	3.8	1.49e+00	0	40	104	1198522368	77	21660
2026-01-20 22:10:27.33	134.83	4.10	-53.7	-68.7	3.8	1.49e+00	0	40	104	1198522368	77	22094
2026-01-20 22:10:31.21	135.18	3.89	-53.8	-68.8	3.8	1.49e+00	0	40	104	1198522368	78	21192
2026-01-20 22:10:35.10	135.53	3.68	-53.9	-68.9	3.8	1.49e+00	0	40	104	1198522368	78	21422
2026-01-20 22:10:38.98	135.88	3.47	-54.0	-69.0	3.8	1.49e+00	0	40	104	1198522368	78	21650
2026-01-20 22:10:42.87	136.21	3.26	-54.0	-69.0	3.8	1.49e+00	0	40	104	1198522368	78	21613
2026-01-20 22:10:46.75	136.55	3.06	-54.0	-69.0	3.8	1.49e+00	0	40	104	1198522368	78	21692
2026-01-20 22:10:50.63	136.88	2.85	-53.9	-68.9	3.8	1.49e+00	0	40	104	1198522368	78	21362
2026-01-20 22:10:54.51	137.20	2.64	-53.8	-68.8	3.8	1.49e+00	0	40	104	1198522368	78	21052
2026-01-20 22:10:58.39	137.52	2.44	-53.6	-68.6	3.8	1.49e+00	0	40	104	1198522368	78	20589
2026-01-20 22:11:02.27	137.84	2.24	-53.2	-68.2	3.8	1.49e+00	0	40	104	1198522368	78	19638
2026-01-20 22:11:06.14	138.15	2.03	-53.1	-68.0	3.8	1.49e+00	0	40	104	1198522368	78	19358

#Closed at: 2026-01-20 22:11:08
#Recorded file [1198 MB]: D:/lorett/data/31041_260121_005841.dat