passes_logs/2026/01/20/R3.2S_Murmansk/R3.2S_Murmansk__20260120_113710_NOAA_20_JPSS-1_rec.log

#Pass ID: 20260120_113710_NOAA 20 (JPSS-1)
#Satellite: NOAA 20 (JPSS-1)
#Configuration: NOAA 20
#almurnet v.1.7.20251203
#Start time: 2026-01-20 11:37:10

#Version: 2.2.20231116
#Station: R3.2S_Murmansk
#Location: 33.079688 lon 68.888172 lat
#TLE: 1 43013U 17073A   26019.91154542  .00000116  00000+0  76014-4 0  9997
#TLE: 2 43013  98.7642 320.7991 0001304  32.0041 328.1214 14.19537346423438

#Time	Az	El	Level	Level2	SNR	BER	BlckErr	Temp	State	Recorded	gain1	gain2
2026-01-20 11:37:10.01	204.20	1.98	-49.1	-64.0	3.8	1.49e+00	0	37	0	0	69	20311
2026-01-20 11:37:14.04	204.45	2.21	-49.1	-64.0	3.8	1.49e+00	0	37	104	0	68	21560
2026-01-20 11:37:18.08	204.71	2.45	-49.1	-64.0	3.8	1.49e+00	0	37	104	0	68	21542
2026-01-20 11:37:22.11	204.97	2.68	-49.1	-63.8	3.8	1.49e+00	0	37	104	0	68	21228
2026-01-20 11:37:26.13	205.23	2.92	-49.1	-63.8	3.8	1.49e+00	0	37	104	0	68	21037
2026-01-20 11:37:30.17	205.50	3.16	-49.1	-63.8	3.8	1.49e+00	0	38	104	0	68	21111
2026-01-20 11:37:34.20	205.77	3.40	-49.1	-63.9	3.8	1.49e+00	0	38	104	0	68	21309
2026-01-20 11:37:38.23	206.04	3.64	-49.1	-63.9	3.8	1.49e+00	0	38	104	0	68	21386
2026-01-20 11:37:42.26	206.32	3.88	-49.1	-63.9	3.8	1.49e+00	0	38	104	0	68	21381
2026-01-20 11:37:46.29	206.61	4.12	-49.1	-63.9	3.8	1.49e+00	0	38	104	0	68	21290
2026-01-20 11:37:50.33	206.90	4.37	-49.1	-63.9	3.8	1.49e+00	0	38	104	0	68	21347
2026-01-20 11:37:54.36	207.19	4.62	-49.0	-62.7	3.8	1.49e+00	0	38	104	0	68	18551
2026-01-20 11:37:58.39	207.49	4.87	-48.8	-60.1	4.3	1.36e+00	128	38	0	0	68	13744
2026-01-20 11:38:02.43	207.79	5.12	-48.9	-60.5	4.2	1.36e+00	0	38	0	4194304	68	14528
2026-01-20 11:38:06.46	208.10	5.37	-49.0	-61.7	3.8	1.49e+00	0	38	104	4194304	68	16560
2026-01-20 11:38:10.49	208.41	5.63	-48.7	-58.6	4.9	8.43e-01	0	38	0	10485760	68	11562
2026-01-20 11:38:14.52	208.73	5.88	-48.8	-59.1	4.8	7.89e-01	0	38	0	17825792	68	12257
2026-01-20 11:38:18.55	209.05	6.14	-48.7	-58.5	4.9	7.01e-01	0	38	0	20971520	68	11499
2026-01-20 11:38:22.58	209.38	6.40	-48.6	-57.9	5.3	5.51e-01	0	38	0	28311552	68	10759
2026-01-20 11:38:26.61	209.72	6.66	-48.8	-59.6	4.0	1.48e+00	0	38	104	34603008	68	13023
2026-01-20 11:38:30.65	210.06	6.93	-48.6	-57.8	5.4	5.48e-01	0	38	0	39845888	68	10574
2026-01-20 11:38:34.68	210.41	7.19	-48.7	-58.4	5.1	5.29e-01	0	38	0	47185920	68	11338
2026-01-20 11:38:38.71	210.76	7.46	-48.8	-59.1	4.7	1.07e+00	0	39	0	52428800	68	12322
2026-01-20 11:38:42.74	211.12	7.73	-48.6	-57.5	5.6	5.56e-01	0	39	0	58720256	68	10212
2026-01-20 11:38:46.77	211.48	8.00	-48.6	-57.5	5.6	4.89e-01	0	38	0	66060288	68	10276
2026-01-20 11:38:50.81	211.86	8.27	-48.7	-57.9	5.3	9.16e-01	0	39	0	70254592	68	10723
2026-01-20 11:38:54.84	212.23	8.55	-48.6	-57.6	5.5	5.15e-01	0	39	0	78643200	68	10369
2026-01-20 11:38:58.87	212.62	8.82	-49.1	-62.1	3.9	4.98e-01	0	39	0	84934656	68	17461
2026-01-20 11:39:02.90	213.01	9.10	-48.6	-57.4	5.7	4.47e-01	0	39	0	89128960	68	10068
2026-01-20 11:39:06.93	213.41	9.39	-48.6	-57.4	5.7	4.45e-01	0	39	0	96468992	68	10156
2026-01-20 11:39:10.96	213.82	9.67	-48.9	-59.7	4.4	1.30e+00	60	39	104	101711872	68	13209
2026-01-20 11:39:14.99	214.23	9.95	-48.6	-57.1	5.9	3.80e-01	0	39	0	109051904	68	9796
2026-01-20 11:39:19.02	214.66	10.24	-48.7	-57.9	5.4	3.51e-01	0	39	0	116391936	68	10680
2026-01-20 11:39:23.05	215.09	10.53	-48.9	-59.7	4.5	6.36e-01	20	39	0	121634816	68	13129
2026-01-20 11:39:27.09	215.53	10.82	-48.6	-57.0	6.0	3.30e-01	0	39	0	128974848	68	9627
2026-01-20 11:39:31.12	215.97	11.11	-48.6	-57.2	5.8	5.47e-01	0	39	0	136314880	68	9902
2026-01-20 11:39:35.15	216.43	11.41	-48.6	-57.3	5.8	5.77e-01	0	39	0	140509184	68	9955
2026-01-20 11:39:39.18	216.90	11.71	-48.6	-57.0	6.0	3.67e-01	0	39	0	147849216	68	9679
2026-01-20 11:39:43.21	217.37	12.01	-49.1	-62.1	3.8	1.46e+00	0	39	104	155189248	68	17471
2026-01-20 11:39:47.24	217.85	12.31	-48.6	-57.1	5.9	3.59e-01	0	39	0	160432128	68	9774
2026-01-20 11:39:51.27	218.35	12.61	-48.6	-56.7	6.2	2.87e-01	0	39	0	167772160	68	9324
2026-01-20 11:39:55.30	218.85	12.91	-48.8	-58.3	5.0	1.14e+00	0	39	0	173015040	68	11283
2026-01-20 11:39:59.33	219.36	13.22	-48.5	-56.5	6.4	2.40e-01	0	39	0	180355072	68	9110
2026-01-20 11:40:03.36	219.89	13.53	-48.7	-57.8	5.4	7.07e-01	0	39	0	188743680	68	10600
2026-01-20 11:40:07.39	220.42	13.84	-48.8	-58.4	5.0	7.10e-01	0	39	0	192937984	68	11404
2026-01-20 11:40:11.43	220.97	14.15	-48.6	-56.7	6.2	2.82e-01	0	39	0	200278016	68	9337
2026-01-20 11:40:15.45	221.52	14.46	-48.6	-56.9	6.1	3.10e-01	0	39	0	207618048	68	9551
2026-01-20 11:40:19.49	222.09	14.78	-48.6	-56.7	6.2	2.98e-01	0	39	0	212860928	68	9369
2026-01-20 11:40:23.52	222.67	15.10	-48.5	-56.4	6.4	2.53e-01	0	39	0	220200960	68	9065
2026-01-20 11:40:27.55	223.26	15.41	-49.0	-59.8	4.0	1.49e+00	0	39	104	226492416	68	13315
2026-01-20 11:40:31.58	223.87	15.73	-48.5	-56.4	6.5	2.37e-01	0	39	0	232783872	68	9029
2026-01-20 11:40:35.61	224.48	16.05	-48.7	-57.3	5.9	2.35e-01	0	39	0	240123904	68	10026
2026-01-20 11:40:39.64	225.11	16.37	-48.5	-56.3	6.6	6.88e-01	0	39	0	245366784	68	8948
2026-01-20 11:40:43.67	225.75	16.70	-48.4	-56.0	6.9	1.79e-01	0	39	0	252706816	68	8625
2026-01-20 11:40:47.70	226.41	17.02	-48.6	-56.6	6.3	4.75e-01	0	39	0	260046848	68	9276
2026-01-20 11:40:51.74	227.08	17.34	-48.5	-56.0	6.8	2.86e-01	0	39	0	265289728	68	8643
2026-01-20 11:40:55.76	227.76	17.67	-48.4	-55.8	7.0	1.52e-01	0	39	0	272629760	68	8451
2026-01-20 11:40:59.79	228.46	17.99	-49.1	-60.9	4.2	2.10e-01	40	39	0	279969792	68	15145
2026-01-20 11:41:03.82	229.17	18.32	-48.4	-55.8	7.0	1.73e-01	0	39	0	285212672	68	8421
2026-01-20 11:41:07.85	229.90	18.64	-48.4	-55.6	7.2	1.34e-01	0	39	0	292552704	68	8215
2026-01-20 11:41:11.89	230.65	18.96	-49.0	-60.0	4.4	1.36e+00	77	39	104	297795584	68	13579
2026-01-20 11:41:15.92	231.41	19.29	-48.3	-55.4	7.4	1.09e-01	0	39	0	305135616	68	8028
2026-01-20 11:41:19.95	232.18	19.61	-48.8	-58.5	5.1	2.13e-01	0	39	0	312475648	68	11512
2026-01-20 11:41:23.98	232.97	19.93	-48.6	-56.9	6.1	3.79e-01	0	39	0	316669952	68	9532
2026-01-20 11:41:28.01	233.78	20.25	-48.3	-55.2	7.6	9.81e-02	0	39	0	324009984	68	7840
2026-01-20 11:41:32.04	234.60	20.57	-48.5	-56.3	6.5	2.27e-01	0	39	0	332398592	68	8959
2026-01-20 11:41:36.07	235.44	20.89	-48.3	-55.4	7.4	1.56e-01	0	39	0	337641472	68	8048
2026-01-20 11:41:40.10	236.29	21.20	-48.3	-55.2	7.6	9.80e-02	0	39	0	344981504	68	7811
2026-01-20 11:41:44.13	237.17	21.52	-49.1	-61.9	3.8	1.45e+00	0	39	104	351272960	68	16889
2026-01-20 11:41:48.16	238.06	21.83	-48.3	-55.3	7.5	9.92e-02	0	39	0	357564416	68	7900
2026-01-20 11:41:52.19	238.97	22.13	-48.2	-54.8	7.9	7.16e-02	0	39	0	364904448	68	7526
2026-01-20 11:41:56.23	239.89	22.43	-48.8	-58.3	5.0	1.07e+00	0	39	0	369098752	68	11195
2026-01-20 11:42:00.26	240.84	22.73	-48.3	-55.1	7.7	8.91e-02	0	39	0	376438784	68	7758
2026-01-20 11:42:04.29	241.80	23.03	-48.4	-55.8	7.1	1.67e-01	0	39	0	384827392	68	8370
2026-01-20 11:42:08.32	242.78	23.31	-49.0	-60.5	4.1	1.47e+00	0	39	104	390070272	68	14430
2026-01-20 11:42:12.35	243.77	23.60	-48.4	-55.9	6.9	1.78e-01	0	39	0	396361728	68	8558
2026-01-20 11:42:16.38	244.78	23.87	-48.6	-56.7	6.1	3.64e-01	0	39	0	404750336	68	9365
2026-01-20 11:42:20.41	245.82	24.14	-48.4	-55.9	7.0	1.61e-01	0	39	0	407896064	68	8483
2026-01-20 11:42:24.45	246.87	24.41	-48.5	-56.1	6.7	1.88e-01	0	39	0	415236096	68	8747
2026-01-20 11:42:28.48	247.93	24.66	-48.8	-58.4	5.0	1.47e+00	0	39	104	421527552	68	11404
2026-01-20 11:42:32.51	249.01	24.91	-48.6	-56.6	6.3	2.60e-01	0	39	0	425721856	68	9266
2026-01-20 11:42:36.54	250.11	25.15	-48.9	-59.1	4.8	4.52e-01	0	39	0	433061888	68	12245
2026-01-20 11:42:40.57	251.22	25.38	-48.9	-58.6	5.2	4.19e-01	0	39	0	436207616	68	11646
2026-01-20 11:42:44.60	252.35	25.60	-48.7	-57.4	5.7	4.02e-01	0	39	0	442499072	68	10166
2026-01-20 11:42:48.64	253.50	25.82	-48.8	-58.4	5.1	1.38e+00	0	39	0	448790528	68	11367
2026-01-20 11:42:52.67	254.66	26.02	-48.9	-58.9	4.8	1.49e+00	1	39	104	450887680	68	11999
2026-01-20 11:42:56.70	255.83	26.21	-48.8	-58.5	5.1	6.56e-01	0	39	0	457179136	68	11425
2026-01-20 11:43:00.73	257.02	26.38	-49.1	-62.1	3.9	9.28e-01	0	39	0	463470592	68	17474
2026-01-20 11:43:04.76	258.22	26.55	-48.8	-58.3	5.2	6.06e-01	0	39	0	465567744	68	11190
2026-01-20 11:43:08.79	259.43	26.71	-48.8	-58.2	5.2	5.90e-01	0	39	0	472907776	68	11112
2026-01-20 11:43:12.82	260.65	26.85	-49.0	-60.5	4.2	1.42e+00	0	39	104	476053504	68	14468
2026-01-20 11:43:16.85	261.89	26.97	-48.8	-58.3	5.2	6.22e-01	0	39	0	479199232	68	11190
2026-01-20 11:43:20.88	263.13	27.09	-49.1	-61.5	4.0	8.45e-01	0	39	0	486539264	68	16314
2026-01-20 11:43:24.92	264.38	27.19	-49.2	-62.8	3.8	6.09e-01	0	39	104	488636416	68	18815
2026-01-20 11:43:28.95	265.64	27.28	-48.8	-58.2	5.2	6.24e-01	0	39	0	493879296	68	11140
2026-01-20 11:43:32.98	266.90	27.35	-48.9	-58.6	5.0	6.57e-01	0	39	0	499122176	68	11556
2026-01-20 11:43:37.01	268.17	27.41	-48.8	-57.9	5.4	9.27e-01	0	39	0	501219328	69	10082
2026-01-20 11:43:41.04	269.44	27.45	-48.8	-57.5	5.7	4.57e-01	0	39	0	508559360	69	9640
2026-01-20 11:43:45.07	270.71	27.48	-49.3	-62.6	3.8	8.78e-01	0	39	104	512753664	69	17467
2026-01-20 11:43:49.10	271.99	27.49	-48.7	-57.0	6.1	3.25e-01	0	39	0	515899392	69	9137
2026-01-20 11:43:53.14	273.27	27.49	-48.8	-57.2	5.9	3.55e-01	0	39	0	524288000	69	9369
2026-01-20 11:43:57.16	274.54	27.47	-48.9	-58.4	5.1	1.11e+00	0	39	0	528482304	69	10693
2026-01-20 11:44:01.19	275.81	27.44	-48.7	-56.8	6.2	2.73e-01	0	39	0	533725184	69	8931
2026-01-20 11:44:05.22	277.08	27.40	-48.9	-58.3	5.2	8.17e-01	0	39	0	541065216	69	10620
2026-01-20 11:44:09.25	278.35	27.33	-49.3	-62.0	3.8	1.48e+00	0	39	104	545259520	69	16142
2026-01-20 11:44:13.27	279.60	27.26	-48.9	-57.7	5.6	4.34e-01	0	39	0	550502400	69	9938
2026-01-20 11:44:17.31	280.86	27.17	-48.9	-57.7	5.7	3.60e-01	0	39	0	558891008	69	9910
2026-01-20 11:44:21.34	282.11	27.07	-48.8	-57.1	6.1	3.48e-01	0	39	0	560988160	69	9177
2026-01-20 11:44:25.37	283.35	26.95	-48.9	-57.3	5.9	3.49e-01	0	39	0	568328192	69	9473
2026-01-20 11:44:29.40	284.57	26.82	-49.3	-61.7	3.9	1.49e+00	0	39	104	571473920	69	15672
2026-01-20 11:44:33.43	285.79	26.67	-48.9	-57.4	5.9	3.30e-01	0	39	0	574619648	69	9555
2026-01-20 11:44:37.46	287.00	26.52	-48.9	-57.4	6.0	2.94e-01	0	39	0	581959680	69	9500
2026-01-20 11:44:41.49	288.19	26.35	-48.8	-56.7	4.7	1.47e+00	52	39	104	586153984	69	8851
2026-01-20 11:44:45.53	289.38	26.17	-48.7	-56.3	6.9	1.74e-01	0	39	0	592445440	69	8436
2026-01-20 11:44:49.56	290.54	25.98	-48.7	-56.2	6.8	3.50e-01	0	39	0	599785472	69	8350
2026-01-20 11:44:53.59	291.70	25.77	-48.8	-56.5	6.6	8.31e-01	0	39	0	602931200	69	8594
2026-01-20 11:44:57.62	292.83	25.56	-48.7	-55.8	7.4	1.16e-01	0	39	0	610271232	69	7907
2026-01-20 11:45:01.65	293.96	25.34	-49.3	-60.2	4.5	2.81e-01	20	39	0	617611264	69	13244
2026-01-20 11:45:05.68	295.07	25.11	-48.7	-55.8	7.4	1.09e-01	0	39	0	620756992	69	7941
2026-01-20 11:45:09.71	296.16	24.87	-48.7	-55.8	7.4	1.26e-01	0	39	0	628097024	69	7903
2026-01-20 11:45:13.75	297.23	24.62	-49.5	-63.0	3.8	1.43e+00	0	39	104	633339904	69	18298
2026-01-20 11:45:17.78	298.29	24.36	-48.8	-56.3	6.9	1.40e-01	0	39	0	638582784	69	8392
2026-01-20 11:45:21.81	299.33	24.10	-49.0	-57.3	6.1	2.34e-01	0	39	0	645922816	69	9492
2026-01-20 11:45:25.84	300.36	23.83	-49.1	-57.9	5.7	8.17e-01	0	39	0	649068544	69	10149
2026-01-20 11:45:29.86	301.36	23.55	-48.8	-56.3	6.9	1.77e-01	0	39	0	656408576	69	8446
2026-01-20 11:45:33.89	302.35	23.27	-49.0	-57.3	6.1	2.02e-01	0	39	0	663748608	69	9392
2026-01-20 11:45:37.93	303.32	22.98	-48.9	-56.8	6.5	2.73e-01	0	39	0	666894336	69	8884
2026-01-20 11:45:41.96	304.28	22.69	-48.8	-56.1	7.1	1.40e-01	0	39	0	674234368	69	8208
2026-01-20 11:45:45.98	305.21	22.39	-49.5	-62.5	3.8	9.16e-01	0	39	104	680525824	69	17196
2026-01-20 11:45:50.01	306.13	22.09	-49.0	-57.4	6.0	3.09e-01	0	39	0	684720128	69	9579
2026-01-20 11:45:54.05	307.03	21.78	-49.0	-57.1	6.3	2.71e-01	0	39	0	692060160	69	9218
2026-01-20 11:45:58.08	307.91	21.48	-49.5	-62.2	3.8	1.48e+00	0	39	104	697303040	69	16641
2026-01-20 11:46:02.11	308.78	21.16	-48.9	-56.9	6.3	3.15e-01	0	39	0	702545920	69	9067
2026-01-20 11:46:06.14	309.63	20.85	-48.9	-57.1	6.2	2.51e-01	0	39	0	710934528	69	9203
2026-01-20 11:46:10.17	310.46	20.54	-49.2	-58.7	5.1	1.11e+00	0	39	0	713031680	69	11135
2026-01-20 11:46:14.19	311.28	20.22	-48.9	-57.2	6.1	2.92e-01	0	39	0	720371712	69	9286
2026-01-20 11:46:18.22	312.08	19.90	-49.3	-59.7	4.6	8.99e-01	0	39	0	727711744	69	12438
2026-01-20 11:46:22.25	312.86	19.58	-48.9	-57.2	6.1	3.13e-01	0	39	0	730857472	69	9367
2026-01-20 11:46:26.28	313.63	19.26	-49.1	-58.1	5.5	4.45e-01	0	39	0	738197504	69	10325
2026-01-20 11:46:30.31	314.38	18.94	-49.4	-62.6	3.8	1.49e+00	0	39	104	744488960	69	17370
2026-01-20 11:46:34.34	315.12	18.62	-49.0	-57.9	5.6	4.62e-01	0	39	0	748683264	69	10148
2026-01-20 11:46:38.38	315.85	18.29	-48.9	-57.2	6.1	3.44e-01	0	39	0	756023296	69	9283
2026-01-20 11:46:42.40	316.55	17.97	-49.3	-61.2	3.9	1.49e+00	0	39	104	760217600	69	14714
2026-01-20 11:46:46.43	317.24	17.65	-49.1	-58.9	5.0	6.23e-01	0	39	0	766509056	69	11337
2026-01-20 11:46:50.46	317.92	17.33	-49.1	-58.7	5.1	6.96e-01	0	39	0	773849088	69	11114
2026-01-20 11:46:54.49	318.59	17.01	-49.0	-57.9	5.6	4.40e-01	0	39	0	778043392	69	10066
2026-01-20 11:46:58.53	319.24	16.69	-48.8	-57.0	6.2	2.86e-01	0	39	0	785383424	69	9089
2026-01-20 11:47:02.56	319.88	16.37	-49.3	-60.8	4.3	9.27e-01	95	39	0	792723456	69	14063
2026-01-20 11:47:06.58	320.50	16.05	-49.0	-58.3	5.3	5.01e-01	0	39	0	795869184	69	10535
2026-01-20 11:47:10.61	321.12	15.73	-48.9	-57.3	6.0	3.78e-01	0	39	0	803209216	69	9438
2026-01-20 11:47:14.64	321.72	15.41	-49.3	-62.1	3.8	1.49e+00	0	39	104	808452096	69	16395
2026-01-20 11:47:18.67	322.30	15.10	-48.8	-57.3	6.0	3.50e-01	0	39	0	814743552	69	9430
2026-01-20 11:47:22.70	322.88	14.79	-48.8	-56.9	6.2	3.14e-01	0	39	0	822083584	69	9039
2026-01-20 11:47:26.73	323.44	14.47	-48.9	-57.9	5.5	1.19e+00	0	39	104	825229312	69	10062
2026-01-20 11:47:30.76	324.00	14.16	-48.8	-57.3	5.9	3.76e-01	0	39	0	832569344	69	9488
2026-01-20 11:47:34.79	324.54	13.85	-48.9	-58.2	5.3	6.88e-01	0	39	0	839909376	69	10520
2026-01-20 11:47:38.82	325.07	13.55	-48.8	-57.3	5.9	3.73e-01	0	39	0	843055104	69	9483
2026-01-20 11:47:42.85	325.59	13.24	-48.8	-57.0	6.1	3.17e-01	0	39	0	850395136	69	9130
2026-01-20 11:47:46.88	326.10	12.94	-49.3	-63.5	3.8	1.39e+00	0	39	104	856686592	69	19281
2026-01-20 11:47:50.90	326.60	12.63	-48.8	-57.3	5.9	3.63e-01	0	39	0	859832320	69	9432
2026-01-20 11:47:54.94	327.09	12.33	-48.7	-57.0	6.1	3.14e-01	0	39	0	868220928	69	9144
2026-01-20 11:47:58.97	327.57	12.04	-49.3	-62.3	3.9	1.49e+00	0	39	104	872415232	69	16860
2026-01-20 11:48:03.00	328.05	11.74	-48.8	-57.6	5.7	4.26e-01	0	39	0	878706688	69	9769
2026-01-20 11:48:07.03	328.51	11.44	-48.9	-58.6	5.0	6.22e-01	0	39	0	886046720	69	11001
2026-01-20 11:48:11.06	328.97	11.15	-49.0	-58.8	4.9	8.63e-01	0	39	0	889192448	69	11264
2026-01-20 11:48:15.09	329.41	10.86	-48.9	-58.5	5.1	6.56e-01	0	39	0	896532480	69	10842
2026-01-20 11:48:19.12	329.85	10.57	-49.0	-59.7	4.5	9.37e-01	3	39	0	904921088	69	12500
2026-01-20 11:48:23.15	330.28	10.29	-48.9	-58.9	4.9	7.38e-01	0	39	0	907018240	69	11302
2026-01-20 11:48:27.18	330.70	10.00	-48.8	-58.2	5.2	6.30e-01	0	39	0	914358272	69	10474
2026-01-20 11:48:31.22	331.11	9.72	-49.2	-63.4	3.8	1.49e+00	0	39	104	920649728	69	19120
2026-01-20 11:48:35.25	331.52	9.44	-48.9	-58.5	5.0	6.81e-01	0	39	0	924844032	69	10896
2026-01-20 11:48:39.28	331.92	9.16	-48.8	-58.5	5.0	7.13e-01	0	39	0	932184064	69	10818
2026-01-20 11:48:43.31	332.31	8.88	-49.2	-63.1	3.8	1.49e+00	0	39	104	935329792	69	18311
2026-01-20 11:48:47.34	332.70	8.61	-48.9	-58.6	5.0	7.25e-01	0	39	0	941621248	69	10967
2026-01-20 11:48:51.37	333.07	8.33	-48.8	-58.0	5.4	5.10e-01	0	39	0	948961280	69	10214
2026-01-20 11:48:55.40	333.45	8.06	-48.8	-57.9	5.4	5.19e-01	0	39	0	951058432	69	10164
2026-01-20 11:48:59.43	333.81	7.79	-48.7	-57.6	5.6	4.99e-01	0	39	0	958398464	69	9730
2026-01-20 11:49:03.47	334.17	7.53	-49.1	-62.3	3.9	8.52e-01	0	39	0	965738496	69	16698
2026-01-20 11:49:07.50	334.52	7.26	-48.8	-58.5	5.0	6.76e-01	0	39	0	968884224	69	10849
2026-01-20 11:49:11.53	334.87	7.00	-48.8	-58.3	5.1	6.29e-01	0	39	0	976224256	69	10582
2026-01-20 11:49:15.56	335.21	6.74	-49.1	-63.0	3.8	1.49e+00	0	39	104	981467136	69	18258
2026-01-20 11:49:19.59	335.55	6.48	-48.8	-58.6	5.0	7.60e-01	0	39	0	986710016	69	10948
2026-01-20 11:49:23.63	335.88	6.22	-48.7	-58.1	5.3	5.51e-01	0	39	0	994050048	69	10324
2026-01-20 11:49:27.66	336.20	5.96	-48.8	-58.5	5.0	1.49e+00	0	39	0	997195776	69	10840
2026-01-20 11:49:31.69	336.52	5.71	-48.7	-57.9	5.3	5.61e-01	0	39	0	1004535808	69	10117
2026-01-20 11:49:35.72	336.83	5.45	-48.9	-59.8	4.4	8.66e-01	136	39	0	1011875840	69	12607
2026-01-20 11:49:39.75	337.14	5.20	-48.8	-59.1	4.7	8.61e-01	0	39	0	1013972992	69	11588
2026-01-20 11:49:43.78	337.44	4.96	-49.1	-62.6	3.8	7.73e-01	0	39	0	1021313024	69	17312
2026-01-20 11:49:47.81	337.74	4.71	-49.4	-64.3	3.8	1.49e+00	0	39	104	1021313024	69	21164
2026-01-20 11:49:51.85	338.04	4.46	-49.6	-64.4	3.8	1.49e+00	0	39	104	1021313024	69	21491
2026-01-20 11:49:55.88	338.33	4.22	-49.7	-64.6	3.8	1.49e+00	0	39	104	1021313024	69	21851
2026-01-20 11:49:59.91	338.61	3.98	-49.8	-64.6	3.8	1.49e+00	0	39	104	1021313024	70	20743
2026-01-20 11:50:03.94	338.89	3.73	-49.8	-64.7	3.8	1.49e+00	0	39	104	1021313024	70	20794
2026-01-20 11:50:07.97	339.17	3.50	-49.7	-64.6	3.8	1.49e+00	0	39	104	1021313024	70	20612
2026-01-20 11:50:12.00	339.44	3.26	-49.7	-64.6	3.8	1.49e+00	0	39	104	1021313024	70	20560
2026-01-20 11:50:16.03	339.71	3.02	-49.7	-64.5	3.8	1.49e+00	0	39	104	1021313024	70	20504
2026-01-20 11:50:20.07	339.98	2.79	-49.6	-64.5	3.8	1.49e+00	0	39	104	1021313024	70	20403
2026-01-20 11:50:24.10	340.24	2.55	-49.6	-64.5	3.8	1.49e+00	0	39	104	1021313024	70	20422
2026-01-20 11:50:28.13	340.50	2.32	-49.6	-64.5	3.8	1.49e+00	0	39	104	1021313024	70	20369
2026-01-20 11:50:32.16	340.75	2.09	-49.6	-64.5	3.8	1.49e+00	0	39	104	1021313024	70	20384
2026-01-20 11:50:36.19	341.00	1.87	-49.6	-64.4	3.8	1.49e+00	0	39	104	1021313024	70	20293

#Closed at: 2026-01-20 11:50:36
#Recorded file [1021 MB]: D:/lorett/data/31041_260120_143709.dat