passes_logs/2026/01/20/R3.2S_Murmansk/R3.2S_Murmansk__20260120_021528_AQUA_rec.log

#Pass ID: 20260120_021528_AQUA
#Satellite: AQUA
#Configuration: AQUA
#almurnet v.1.7.20251203
#Start time: 2026-01-20 02:15:28

#Version: 2.2.20231116
#Station: R3.2S_Murmansk
#Location: 33.079688 lon 68.888172 lat
#TLE: 1 27424U 02022A   26019.27629806  .00001032  00000+0  21655-3 0  9990
#TLE: 2 27424  98.4090 345.7756 0001997  73.0764  31.8912 14.61830109261513

#Time	Az	El	Level	Level2	SNR	BER	BlckErr	Temp	State	Recorded	gain1	gain2
2026-01-20 02:15:28.46	23.38	1.99	-53.6	-71.4	3.8	7.47e-01	0	37	0	0	79	26900
2026-01-20 02:15:32.49	23.40	2.26	-53.5	-70.1	3.8	7.48e-01	0	37	104	0	77	26094
2026-01-20 02:15:36.52	23.43	2.53	-53.5	-70.3	3.8	7.44e-01	0	37	104	0	77	26764
2026-01-20 02:15:40.55	23.46	2.80	-53.4	-66.9	4.2	7.23e-01	0	37	104	0	77	18055
2026-01-20 02:15:44.58	23.48	3.08	-53.5	-67.5	4.3	7.31e-01	0	37	104	0	77	19356
2026-01-20 02:15:48.61	23.51	3.36	-52.9	-61.6	8.5	6.38e-01	21	37	0	3670016	77	9765
2026-01-20 02:15:52.65	23.53	3.64	-50.2	-53.5	16.9	6.02e-01	0	37	0	11010048	72	5111
2026-01-20 02:15:56.68	23.56	3.93	-48.6	-50.9	19.5	5.99e-01	0	37	0	18874368	69	4523
2026-01-20 02:16:00.71	23.59	4.22	-48.7	-51.0	19.5	6.01e-01	0	37	0	26214400	67	5153
2026-01-20 02:16:04.75	23.61	4.51	-49.3	-52.1	18.4	6.01e-01	0	38	0	33554432	69	5178
2026-01-20 02:16:08.78	23.64	4.81	-50.9	-55.0	15.3	6.00e-01	0	38	0	41418752	72	6127
2026-01-20 02:16:12.81	23.67	5.11	-48.2	-50.3	20.2	6.01e-01	0	38	0	48758784	68	4473
2026-01-20 02:16:16.84	23.70	5.41	-53.1	-63.2	7.6	6.57e-01	132	38	0	56098816	76	12517
2026-01-20 02:16:20.87	23.72	5.72	-48.3	-50.4	20.4	6.00e-01	0	38	0	63438848	68	4520
2026-01-20 02:16:24.90	23.75	6.03	-47.4	-49.3	21.6	6.02e-01	0	38	0	71303168	66	4450
2026-01-20 02:16:28.94	23.78	6.35	-47.2	-49.0	21.9	6.02e-01	0	38	0	78643200	66	4304
2026-01-20 02:16:32.97	23.81	6.67	-47.6	-49.4	21.6	6.04e-01	0	38	0	86507520	66	4534
2026-01-20 02:16:36.99	23.84	6.99	-47.9	-49.8	21.2	6.00e-01	0	38	0	93847552	66	4759
2026-01-20 02:16:41.03	23.87	7.32	-47.2	-49.0	22.1	6.00e-01	0	38	0	101187584	65	4547
2026-01-20 02:16:45.06	23.90	7.66	-47.1	-48.8	22.3	6.01e-01	0	38	0	108527616	65	4473
2026-01-20 02:16:49.09	23.93	8.00	-47.1	-48.8	22.3	6.01e-01	0	38	0	116391936	65	4445
2026-01-20 02:16:53.12	23.96	8.34	-47.0	-48.6	22.5	6.03e-01	0	38	0	123731968	65	4373
2026-01-20 02:16:57.15	23.99	8.69	-47.0	-48.6	22.5	6.01e-01	0	38	0	131596288	65	4389
2026-01-20 02:17:01.18	24.02	9.05	-47.1	-48.8	22.4	6.01e-01	0	38	0	138936320	65	4478
2026-01-20 02:17:05.21	24.05	9.41	-46.8	-48.4	22.7	6.02e-01	0	38	0	146800640	65	4280
2026-01-20 02:17:09.25	24.08	9.77	-47.1	-48.7	22.5	5.99e-01	0	38	0	154140672	65	4437
2026-01-20 02:17:13.28	24.11	10.15	-46.6	-48.2	23.0	6.02e-01	0	38	0	162004992	65	4172
2026-01-20 02:17:17.31	24.15	10.53	-46.6	-57.8	3.8	7.48e-01	0	38	104	168820736	64	13307
2026-01-20 02:17:21.34	24.18	10.91	-49.1	-60.7	3.7	7.49e-01	0	38	104	168820736	68	14789
2026-01-20 02:17:25.37	24.21	11.31	-48.4	-59.7	3.9	7.42e-01	0	38	104	168820736	68	13129
2026-01-20 02:17:29.40	24.24	11.71	-50.0	-61.9	3.7	7.43e-01	0	38	104	168820736	70	15082
2026-01-20 02:17:33.43	24.28	12.11	-48.1	-59.2	3.9	7.41e-01	0	38	104	168820736	67	13233
2026-01-20 02:17:37.46	24.31	12.53	-50.0	-61.6	4.0	7.38e-01	0	38	104	168820736	70	14704
2026-01-20 02:17:41.49	24.35	12.95	-48.2	-59.4	3.8	7.41e-01	0	38	104	168820736	68	12793
2026-01-20 02:17:45.52	24.38	13.38	-51.4	-64.1	3.8	7.46e-01	0	38	104	168820736	73	16344
2026-01-20 02:17:49.56	24.42	13.83	-48.0	-59.3	3.8	7.43e-01	0	38	104	168820736	68	12592
2026-01-20 02:17:53.58	24.46	14.27	-52.4	-65.8	3.8	7.44e-01	0	38	104	168820736	75	17740
2026-01-20 02:17:57.61	24.49	14.73	-47.2	-58.3	3.8	7.47e-01	0	38	104	168820736	66	12556
2026-01-20 02:18:01.65	24.53	15.20	-52.4	-65.7	3.8	7.45e-01	0	38	104	168820736	75	17518
2026-01-20 02:18:05.68	24.57	15.68	-47.9	-59.1	3.8	7.44e-01	0	38	104	168820736	67	13046
2026-01-20 02:18:09.71	24.61	16.17	-53.0	-66.7	3.8	7.44e-01	0	38	104	168820736	76	18679
2026-01-20 02:18:13.74	24.65	16.67	-48.0	-59.2	3.8	7.46e-01	0	38	104	168820736	68	12434
2026-01-20 02:18:17.77	24.69	17.18	-53.6	-68.2	3.8	7.48e-01	0	39	104	168820736	77	20935
2026-01-20 02:18:21.81	24.74	17.71	-47.1	-58.1	3.8	7.46e-01	0	38	104	168820736	66	12337
2026-01-20 02:18:25.84	24.78	18.25	-53.5	-68.0	3.8	7.48e-01	0	38	104	168820736	77	20480
2026-01-20 02:18:29.87	24.82	18.80	-46.6	-57.7	3.8	7.45e-01	0	39	104	168820736	65	12397
2026-01-20 02:18:33.90	24.87	19.36	-53.9	-69.0	3.7	7.43e-01	0	39	104	168820736	78	21614
2026-01-20 02:18:37.94	24.92	19.94	-48.3	-59.5	3.8	7.48e-01	0	39	104	168820736	68	12876
2026-01-20 02:18:41.97	24.96	20.53	-54.1	-69.6	3.8	7.46e-01	0	39	104	168820736	78	23103
2026-01-20 02:18:46.00	25.01	21.14	-47.0	-58.1	3.8	7.46e-01	0	39	104	168820736	66	12287
2026-01-20 02:18:50.03	25.06	21.77	-54.1	-69.8	3.8	7.46e-01	0	39	104	168820736	78	23605
2026-01-20 02:18:54.06	25.11	22.41	-47.0	-58.0	3.8	7.44e-01	0	38	104	168820736	66	12154
2026-01-20 02:18:58.09	25.17	23.07	-54.1	-69.7	3.8	7.45e-01	0	39	104	168820736	78	23441
2026-01-20 02:19:02.13	25.22	23.76	-47.0	-58.0	3.8	7.45e-01	0	39	104	168820736	66	12233
2026-01-20 02:19:06.16	25.28	24.46	-54.1	-69.8	3.8	7.43e-01	0	39	104	168820736	78	23722
2026-01-20 02:19:10.19	25.34	25.18	-47.1	-58.2	3.8	7.43e-01	0	39	104	168820736	66	12446
2026-01-20 02:19:14.23	25.40	25.92	-53.8	-68.6	3.9	7.41e-01	0	39	104	168820736	78	20714
2026-01-20 02:19:18.26	25.46	26.69	-48.0	-59.2	3.8	7.42e-01	0	39	104	168820736	68	12495
2026-01-20 02:19:22.29	25.53	27.48	-53.4	-67.6	3.9	7.41e-01	0	39	104	168820736	78	18473
2026-01-20 02:19:26.32	25.60	28.30	-47.4	-58.5	3.8	7.44e-01	0	38	104	168820736	66	12834
2026-01-20 02:19:30.35	25.67	29.14	-53.3	-67.3	3.8	7.42e-01	0	39	104	168820736	78	17699
2026-01-20 02:19:34.39	25.74	30.01	-46.7	-57.6	3.8	7.42e-01	0	39	104	168820736	64	13083
2026-01-20 02:19:38.41	25.82	30.91	-52.6	-65.9	3.9	7.40e-01	0	39	104	168820736	77	16057
2026-01-20 02:19:42.45	25.90	31.84	-46.2	-57.1	3.9	7.44e-01	0	38	104	168820736	64	12372
2026-01-20 02:19:46.48	25.99	32.81	-51.7	-64.2	3.8	7.44e-01	0	39	104	168820736	75	14876
2026-01-20 02:19:50.51	26.07	33.80	-46.6	-57.6	3.8	7.44e-01	0	39	104	168820736	65	12327
2026-01-20 02:19:54.54	26.17	34.84	-51.9	-64.7	3.8	7.44e-01	0	39	104	168820736	76	14847
2026-01-20 02:19:58.57	26.27	35.91	-47.4	-58.5	3.8	7.45e-01	0	39	104	168820736	66	12823
2026-01-20 02:20:02.60	26.37	37.02	-50.8	-62.7	3.9	7.43e-01	0	39	104	168820736	73	13963
2026-01-20 02:20:06.63	26.49	38.17	-48.0	-59.2	3.8	7.46e-01	0	39	104	168820736	68	12417
2026-01-20 02:20:10.67	26.61	39.36	-50.3	-62.1	3.9	7.43e-01	0	39	104	168820736	72	13816
2026-01-20 02:20:14.70	26.73	40.60	-48.1	-59.2	3.8	7.47e-01	0	39	104	168820736	67	13207
2026-01-20 02:20:18.73	26.87	41.89	-49.5	-61.0	3.8	7.46e-01	0	39	104	168820736	71	12951
2026-01-20 02:20:22.76	27.02	43.22	-47.0	-58.0	3.9	7.41e-01	0	39	104	168820736	66	12169
2026-01-20 02:20:26.79	27.17	44.61	-48.5	-59.8	3.9	7.45e-01	0	39	104	168820736	69	12606
2026-01-20 02:20:30.82	27.35	46.05	-46.8	-57.8	3.8	7.42e-01	0	39	104	168820736	64	13366
2026-01-20 02:20:34.85	27.53	47.54	-48.6	-59.9	3.8	7.46e-01	0	39	104	168820736	69	12674
2026-01-20 02:20:38.88	27.74	49.10	-46.5	-57.4	3.9	7.47e-01	0	39	104	168820736	64	12791
2026-01-20 02:20:42.91	27.97	50.71	-48.4	-59.6	3.8	7.45e-01	0	39	104	168820736	68	13067
2026-01-20 02:20:46.94	28.22	52.38	-45.7	-56.5	3.8	7.45e-01	0	39	104	168820736	63	12133
2026-01-20 02:20:50.97	28.50	54.11	-48.5	-59.6	3.8	7.46e-01	0	39	104	168820736	67	13845
2026-01-20 02:20:55.01	28.81	55.90	-46.3	-57.2	3.8	7.44e-01	0	39	104	168820736	63	13222
2026-01-20 02:20:59.04	29.17	57.76	-49.5	-61.1	3.8	7.43e-01	0	39	104	168820736	70	13768
2026-01-20 02:21:03.07	29.57	59.68	-47.7	-58.7	3.8	7.44e-01	0	39	104	168820736	66	13217
2026-01-20 02:21:07.10	30.05	61.66	-50.2	-61.9	3.8	7.45e-01	0	39	104	168820736	72	13549
2026-01-20 02:21:11.13	30.60	63.70	-48.7	-60.0	3.8	7.45e-01	0	39	104	168820736	68	13631
2026-01-20 02:21:15.17	31.26	65.81	-51.3	-63.5	3.9	7.46e-01	0	39	104	168820736	74	14468
2026-01-20 02:21:19.20	32.05	67.96	-50.7	-62.7	3.8	7.44e-01	0	39	104	168820736	72	14745
2026-01-20 02:21:23.23	33.04	70.17	-52.1	-64.8	3.9	7.44e-01	0	39	104	168820736	76	14963
2026-01-20 02:21:27.26	34.29	72.43	-50.1	-61.7	3.8	7.43e-01	0	39	104	168820736	71	13893
2026-01-20 02:21:31.29	35.93	74.72	-50.0	-61.6	3.8	7.41e-01	0	39	104	168820736	72	13023
2026-01-20 02:21:35.33	38.19	77.05	-49.2	-60.6	3.8	7.46e-01	0	39	104	168820736	69	13743
2026-01-20 02:21:39.36	41.46	79.38	-49.1	-60.7	3.8	7.46e-01	0	39	104	168820736	70	13130
2026-01-20 02:21:43.39	46.59	81.69	-47.0	-58.0	3.8	7.43e-01	0	39	104	168820736	66	12132
2026-01-20 02:21:47.42	55.60	83.90	-47.2	-58.4	3.8	7.44e-01	0	39	104	168820736	66	12729
2026-01-20 02:21:51.45	73.82	85.82	-47.0	-58.1	3.8	7.46e-01	0	39	104	168820736	65	12994
2026-01-20 02:21:55.49	110.72	86.81	-46.8	-57.6	3.8	7.44e-01	0	39	104	168820736	65	12266
2026-01-20 02:21:59.51	150.17	86.07	-48.8	-60.3	3.8	7.46e-01	0	39	104	168820736	68	14167
2026-01-20 02:22:03.55	170.83	84.23	-47.4	-58.2	3.8	7.43e-01	0	39	104	168820736	66	12477
2026-01-20 02:22:07.57	180.79	82.05	-50.6	-62.3	3.8	7.48e-01	0	39	104	168820736	71	14942
2026-01-20 02:22:11.61	186.37	79.75	-48.7	-60.0	3.8	7.44e-01	0	39	104	168820736	67	14447
2026-01-20 02:22:15.64	189.86	77.41	-49.0	-60.0	3.8	7.44e-01	0	39	104	168820736	68	13628
2026-01-20 02:22:19.67	192.24	75.09	-52.0	-64.0	3.8	7.47e-01	0	39	104	168820736	74	15338
2026-01-20 02:22:23.70	193.97	72.79	-51.1	-63.0	3.9	7.50e-01	0	39	104	168820736	72	15290
2026-01-20 02:22:27.74	195.27	70.51	-51.8	-64.1	3.8	7.46e-01	0	39	104	168820736	74	15443
2026-01-20 02:22:31.77	196.29	68.29	-51.9	-64.1	3.8	7.44e-01	0	39	104	168820736	74	15566
2026-01-20 02:22:35.80	197.12	66.13	-53.0	-65.9	3.8	7.45e-01	0	39	104	168820736	76	16978
2026-01-20 02:22:39.83	197.79	64.01	-50.5	-62.1	3.8	7.48e-01	0	39	104	168820736	71	14636
2026-01-20 02:22:43.86	198.36	61.96	-51.2	-63.5	3.8	7.43e-01	0	39	104	168820736	72	16257
2026-01-20 02:22:47.89	198.84	59.96	-51.6	-64.1	3.8	7.44e-01	0	39	104	168820736	73	16419
2026-01-20 02:22:51.92	199.26	58.03	-52.3	-65.1	3.8	7.46e-01	0	39	104	168820736	75	16388
2026-01-20 02:22:55.95	199.62	56.16	-54.2	-69.1	3.8	7.47e-01	0	39	104	168820736	78	21911
2026-01-20 02:22:59.99	199.94	54.35	-50.6	-62.7	3.8	7.46e-01	0	39	104	168820736	71	15598
2026-01-20 02:23:04.01	200.23	52.61	-46.8	-57.8	3.8	7.44e-01	0	39	104	168820736	64	13342
2026-01-20 02:23:08.05	200.48	50.92	-52.1	-64.8	3.9	7.43e-01	0	39	104	168820736	74	16746
2026-01-20 02:23:12.08	200.71	49.30	-49.2	-60.7	3.8	7.43e-01	0	39	104	168820736	70	13147
2026-01-20 02:23:16.11	200.92	47.73	-51.6	-63.9	3.8	7.46e-01	0	39	104	168820736	73	16028
2026-01-20 02:23:20.14	201.11	46.23	-53.2	-66.9	3.9	7.44e-01	0	39	104	168820736	78	17055
2026-01-20 02:23:24.18	201.28	44.77	-51.5	-63.6	3.8	7.45e-01	0	39	104	168820736	74	14679
2026-01-20 02:23:28.21	201.44	43.37	-51.5	-63.9	3.9	7.41e-01	0	39	104	168820736	75	14246
2026-01-20 02:23:32.24	201.59	42.03	-51.1	-63.1	3.9	7.45e-01	0	39	104	168820736	73	14544
2026-01-20 02:23:36.27	201.73	40.73	-49.1	-60.9	3.8	7.47e-01	0	39	104	168820736	70	13524
2026-01-20 02:23:40.31	201.86	39.48	-51.1	-63.0	3.9	7.42e-01	0	39	104	168820736	74	13675
2026-01-20 02:23:44.34	201.98	38.27	-48.8	-60.1	3.8	7.42e-01	0	39	104	168820736	69	13038
2026-01-20 02:23:48.37	202.09	37.11	-49.7	-61.2	3.8	7.40e-01	0	39	104	168820736	71	13195
2026-01-20 02:23:52.41	202.19	35.99	-48.1	-59.3	3.8	7.44e-01	0	39	104	168820736	68	12627
2026-01-20 02:23:56.43	202.29	34.92	-48.9	-60.1	3.8	7.46e-01	0	39	104	168820736	69	13064
2026-01-20 02:24:00.47	202.39	33.87	-47.7	-49.3	21.6	6.08e-01	0	39	0	168820736	67	4234
2026-01-20 02:24:04.50	202.48	32.87	-46.2	-47.5	23.9	6.04e-01	0	39	0	176160768	64	4095
2026-01-20 02:24:08.53	202.56	31.90	-45.1	-46.3	25.6	6.03e-01	0	39	0	184025088	62	3968
2026-01-20 02:24:12.56	202.64	30.96	-45.3	-46.6	25.3	6.03e-01	0	39	0	191365120	62	4106
2026-01-20 02:24:16.59	202.72	30.05	-45.1	-46.3	25.6	6.00e-01	0	39	0	199229440	62	3965
2026-01-20 02:24:20.62	202.79	29.17	-45.4	-46.6	25.2	6.02e-01	0	39	0	206569472	62	4139
2026-01-20 02:24:24.65	202.86	28.33	-45.3	-46.5	25.2	6.03e-01	0	39	0	213909504	62	4094
2026-01-20 02:24:28.68	202.93	27.50	-45.6	-46.9	24.9	6.03e-01	0	39	0	221773824	62	4276
2026-01-20 02:24:32.71	202.99	26.71	-45.9	-47.2	24.7	6.01e-01	0	38	0	229113856	62	4407
2026-01-20 02:24:36.75	203.06	25.93	-45.9	-47.2	24.6	6.01e-01	0	39	0	236453888	62	4415
2026-01-20 02:24:40.78	203.12	25.19	-46.2	-47.6	24.2	6.04e-01	0	39	0	244318208	63	4377
2026-01-20 02:24:44.81	203.17	24.46	-46.2	-47.6	24.2	6.03e-01	0	39	0	251658240	63	4377
2026-01-20 02:24:48.85	203.23	23.75	-46.2	-47.6	24.1	6.01e-01	0	39	0	259522560	63	4373
2026-01-20 02:24:52.88	203.28	23.07	-46.2	-47.5	24.2	6.05e-01	0	39	0	266862592	63	4331
2026-01-20 02:24:56.91	203.34	22.40	-46.3	-47.7	24.1	6.03e-01	0	39	0	274726912	63	4402
2026-01-20 02:25:00.94	203.39	21.76	-46.2	-47.6	24.1	6.03e-01	0	39	0	282066944	63	4373
2026-01-20 02:25:04.98	203.44	21.12	-46.1	-47.5	24.2	6.02e-01	0	39	0	289931264	63	4300
2026-01-20 02:25:09.01	203.48	20.51	-46.0	-47.3	24.3	6.02e-01	0	39	0	297271296	63	4239
2026-01-20 02:25:13.04	203.53	19.91	-46.1	-47.4	24.2	6.03e-01	0	39	0	304611328	63	4285
2026-01-20 02:25:17.07	203.57	19.33	-45.8	-47.2	24.5	6.04e-01	0	39	0	312475648	63	4167
2026-01-20 02:25:21.10	203.62	18.77	-46.0	-47.4	24.3	6.03e-01	0	39	0	319815680	63	4264
2026-01-20 02:25:25.13	203.66	18.21	-46.0	-47.3	24.3	6.05e-01	0	39	0	327680000	63	4229
2026-01-20 02:25:29.17	203.70	17.67	-46.0	-47.4	24.2	6.04e-01	0	39	0	335020032	63	4245
2026-01-20 02:25:33.20	203.74	17.14	-46.0	-47.4	24.2	6.02e-01	0	39	0	342884352	63	4259
2026-01-20 02:25:37.23	203.78	16.63	-45.9	-47.3	24.3	6.02e-01	0	39	0	350224384	63	4210
2026-01-20 02:25:41.26	203.82	16.13	-46.0	-47.4	24.1	6.02e-01	0	38	0	357564416	63	4285
2026-01-20 02:25:45.29	203.86	15.63	-45.9	-47.3	24.2	6.04e-01	0	39	0	365428736	63	4237
2026-01-20 02:25:49.32	203.90	15.15	-45.8	-47.2	24.3	6.03e-01	0	39	0	372768768	63	4154
2026-01-20 02:25:53.36	203.93	14.68	-45.9	-47.2	24.3	6.02e-01	0	38	0	380108800	63	4191
2026-01-20 02:25:57.39	203.97	14.22	-45.9	-47.2	24.3	6.03e-01	0	39	0	387973120	63	4181
2026-01-20 02:26:01.42	204.01	13.77	-45.7	-47.1	24.4	6.02e-01	0	39	0	395313152	63	4114
2026-01-20 02:26:05.46	204.04	13.32	-45.8	-47.2	24.3	6.02e-01	0	38	0	403177472	63	4163
2026-01-20 02:26:09.49	204.07	12.89	-45.9	-47.2	24.2	6.04e-01	0	39	0	410517504	63	4189
2026-01-20 02:26:13.52	204.11	12.46	-45.9	-47.3	24.1	6.02e-01	0	38	0	418381824	63	4232
2026-01-20 02:26:17.55	204.14	12.05	-46.0	-47.5	24.0	6.03e-01	0	39	0	425721856	63	4293
2026-01-20 02:26:21.58	204.17	11.64	-46.1	-47.5	23.9	6.03e-01	0	39	0	433586176	63	4305
2026-01-20 02:26:25.61	204.20	11.24	-46.1	-47.6	23.8	6.02e-01	0	39	0	440926208	63	4342
2026-01-20 02:26:29.64	204.23	10.84	-46.2	-47.6	23.7	6.01e-01	0	39	0	448266240	63	4386
2026-01-20 02:26:33.67	204.26	10.45	-46.3	-47.7	23.6	6.04e-01	0	38	0	456130560	63	4437
2026-01-20 02:26:37.71	204.29	10.07	-46.3	-47.8	23.5	6.03e-01	0	39	0	463470592	63	4486
2026-01-20 02:26:41.73	204.32	9.70	-46.6	-48.2	23.1	6.03e-01	0	39	0	470810624	63	4658
2026-01-20 02:26:45.77	204.35	9.33	-46.5	-48.0	23.2	6.00e-01	0	38	0	478674944	64	4332
2026-01-20 02:26:49.80	204.38	8.97	-46.6	-48.1	23.0	6.03e-01	0	39	0	486014976	64	4378
2026-01-20 02:26:53.83	204.41	8.61	-46.6	-48.1	23.0	6.04e-01	0	38	0	493879296	64	4380
2026-01-20 02:26:57.86	204.44	8.26	-46.8	-48.4	22.7	6.02e-01	0	39	0	501219328	64	4521
2026-01-20 02:27:01.89	204.47	7.91	-46.6	-48.1	23.0	6.02e-01	0	39	0	509083648	64	4387
2026-01-20 02:27:05.92	204.49	7.57	-46.9	-48.6	22.5	6.03e-01	0	39	0	516423680	64	4616
2026-01-20 02:27:09.95	204.52	7.24	-46.9	-48.6	22.4	6.00e-01	0	39	0	523763712	64	4618
2026-01-20 02:27:13.98	204.55	6.91	-46.8	-48.5	22.5	6.02e-01	0	39	0	531628032	64	4571
2026-01-20 02:27:18.01	204.57	6.58	-47.2	-49.0	22.0	6.03e-01	0	39	0	538968064	65	4568
2026-01-20 02:27:22.04	204.60	6.26	-47.1	-48.8	22.0	6.04e-01	0	38	0	546832384	65	4491
2026-01-20 02:27:26.07	204.63	5.94	-47.2	-49.0	21.9	6.02e-01	0	39	0	554172416	65	4558
2026-01-20 02:27:30.11	204.65	5.63	-47.3	-49.1	21.7	6.04e-01	0	39	0	562036736	65	4615
2026-01-20 02:27:34.14	204.68	5.32	-47.8	-49.7	21.1	6.02e-01	0	39	0	569376768	66	4696
2026-01-20 02:27:38.18	204.70	5.01	-47.5	-49.4	21.3	6.04e-01	0	39	0	577241088	66	4497
2026-01-20 02:27:42.21	204.73	4.71	-54.8	-72.6	3.8	7.44e-01	0	39	104	578289664	80	29165
2026-01-20 02:27:46.24	204.75	4.41	-55.2	-73.0	3.8	7.41e-01	0	39	104	578289664	80	30461
2026-01-20 02:27:50.27	204.78	4.12	-55.3	-73.1	3.8	7.46e-01	0	39	104	578289664	81	29332
2026-01-20 02:27:54.30	204.80	3.83	-55.5	-73.3	3.8	7.45e-01	0	39	104	578289664	81	29748
2026-01-20 02:27:58.34	204.82	3.54	-55.5	-73.3	3.8	7.45e-01	0	39	104	578289664	81	29881
2026-01-20 02:28:02.37	204.85	3.26	-55.5	-73.3	3.8	7.43e-01	0	39	104	578289664	81	29888
2026-01-20 02:28:06.40	204.87	2.98	-55.4	-73.3	3.8	7.48e-01	0	39	104	578289664	81	29809
2026-01-20 02:28:10.43	204.89	2.70	-55.4	-73.3	3.8	7.46e-01	0	39	104	578289664	81	29764
2026-01-20 02:28:14.46	204.92	2.43	-55.4	-73.2	3.8	7.44e-01	0	39	104	578289664	81	29675
2026-01-20 02:28:18.49	204.94	2.16	-55.4	-73.2	3.8	7.44e-01	0	39	104	578289664	81	29657

#Closed at: 2026-01-20 02:28:21
#Recorded file [578 MB]: D:/lorett/data/31041_260120_051528.dat