passes_logs/2026/01/20/R3.2S_Murmansk/R3.2S_Murmansk__20260120_214549_JL1KF02B06_rec.log

#Pass ID: 20260120_214549_JL1KF02B06
#Satellite: JL1KF02B06
#Configuration: 01B_900M
#almurnet v.1.7.20251203
#Start time: 2026-01-20 21:45:49

#Version: 2.2.20231116
#Station: R3.2S_Murmansk
#Location: 33.079688 lon 68.888172 lat
#TLE: 1 61192U 24169D   26019.96962642  .00006246  00000+0  39251-3 0  9993
#TLE: 2 61192  97.5635 111.0833 0007142  89.5016 270.7032 15.09582421 73475

#Time	Az	El	Level	Level2	SNR	BER	BlckErr	Temp	State	Recorded	gain1	gain2
2026-01-20 21:45:49.99	211.65	2.05	-54.3	-56.4	6.2	0.00e+00	0	41	0	0	79	19188
2026-01-20 21:45:52.90	211.92	2.22	-54.2	-56.4	6.2	0.00e+00	0	40	104	0	80	18087
2026-01-20 21:45:55.81	212.20	2.39	-54.1	-56.2	6.2	0.00e+00	0	41	104	0	80	17706
2026-01-20 21:45:58.72	212.48	2.57	-54.0	-56.1	6.2	0.00e+00	0	41	104	0	80	17436
2026-01-20 21:46:01.62	212.76	2.75	-53.9	-56.1	6.2	0.00e+00	0	41	104	0	79	18399
2026-01-20 21:46:04.53	213.04	2.92	-53.7	-55.8	6.2	0.00e+00	0	41	104	0	79	17957
2026-01-20 21:46:07.44	213.33	3.10	-53.2	-55.3	6.2	0.00e+00	0	41	104	0	78	17963
2026-01-20 21:46:10.35	213.63	3.28	-52.8	-55.0	6.2	0.00e+00	0	41	104	0	77	18306
2026-01-20 21:46:13.25	213.92	3.46	-52.8	-55.0	6.2	0.00e+00	0	41	104	0	77	18207
2026-01-20 21:46:16.17	214.23	3.64	-52.8	-54.9	6.2	0.00e+00	0	41	104	0	77	18150
2026-01-20 21:46:19.07	214.53	3.83	-52.8	-55.0	6.2	0.00e+00	0	41	104	0	77	18229
2026-01-20 21:46:21.98	214.84	4.01	-52.8	-55.0	6.2	0.00e+00	0	41	104	0	77	18204
2026-01-20 21:46:24.88	215.16	4.19	-52.8	-54.9	6.2	0.00e+00	0	41	104	0	77	18162
2026-01-20 21:46:27.79	215.48	4.38	-52.8	-54.9	6.2	0.00e+00	0	41	104	0	77	18115
2026-01-20 21:46:30.72	215.81	4.57	-52.8	-54.9	6.2	0.00e+00	0	41	104	0	77	18114
2026-01-20 21:46:33.63	216.14	4.76	-52.8	-54.9	6.2	0.00e+00	0	41	104	0	77	18155
2026-01-20 21:46:36.54	216.48	4.94	-52.8	-54.9	6.2	0.00e+00	0	41	104	0	77	18037
2026-01-20 21:46:39.46	216.82	5.13	-52.9	-55.0	6.2	0.00e+00	0	42	104	0	77	18331
2026-01-20 21:46:42.38	217.17	5.33	-52.7	-54.9	6.2	0.00e+00	0	41	104	0	77	18026
2026-01-20 21:46:45.28	217.52	5.52	-52.8	-54.9	6.2	0.00e+00	0	41	104	0	77	18120
2026-01-20 21:46:48.20	217.88	5.71	-52.8	-55.0	6.2	0.00e+00	0	41	104	0	77	18238
2026-01-20 21:46:51.10	218.24	5.90	-52.9	-55.1	6.2	0.00e+00	0	42	104	0	77	18465
2026-01-20 21:46:54.01	218.61	6.10	-52.8	-54.9	6.2	0.00e+00	0	42	104	0	77	18120
2026-01-20 21:46:56.92	218.98	6.30	-52.8	-55.0	6.2	0.00e+00	0	42	104	0	77	18303
2026-01-20 21:46:59.82	219.36	6.49	-52.9	-55.1	6.2	0.00e+00	0	42	104	0	77	18400
2026-01-20 21:47:02.73	219.75	6.69	-52.9	-55.1	6.2	0.00e+00	0	42	104	0	77	18433
2026-01-20 21:47:05.64	220.14	6.89	-52.8	-55.0	6.2	0.00e+00	0	42	104	0	77	18285
2026-01-20 21:47:08.55	220.54	7.09	-52.9	-55.1	6.2	0.00e+00	0	42	104	0	77	18419
2026-01-20 21:47:11.46	220.95	7.29	-53.0	-55.1	6.2	0.00e+00	0	42	104	0	77	18479
2026-01-20 21:47:14.37	221.36	7.49	-52.9	-55.0	6.2	0.00e+00	0	42	104	0	77	18369
2026-01-20 21:47:17.28	221.78	7.69	-52.9	-55.1	6.2	0.00e+00	0	42	104	0	77	18445
2026-01-20 21:47:20.18	222.21	7.90	-53.0	-55.1	6.2	0.00e+00	0	42	104	0	77	18491
2026-01-20 21:47:23.09	222.64	8.10	-53.0	-55.1	6.2	0.00e+00	0	42	104	0	77	18576
2026-01-20 21:47:26.00	223.08	8.31	-52.9	-55.1	6.2	0.00e+00	0	42	104	0	77	18464
2026-01-20 21:47:28.91	223.53	8.51	-53.0	-55.1	6.2	0.00e+00	0	42	104	0	77	18530
2026-01-20 21:47:31.81	223.99	8.72	-52.9	-55.0	6.2	0.00e+00	0	42	104	0	77	18284
2026-01-20 21:47:34.72	224.45	8.93	-51.9	-53.5	6.3	0.00e+00	0	42	104	0	74	18346
2026-01-20 21:47:37.62	224.92	9.14	-49.7	-50.6	6.7	0.00e+00	0	42	104	0	71	15496
2026-01-20 21:47:40.52	225.40	9.35	-50.5	-51.6	6.5	0.00e+00	0	42	104	0	71	17453
2026-01-20 21:47:43.43	225.88	9.56	-51.5	-52.9	6.3	0.00e+00	0	42	104	0	74	17023
2026-01-20 21:47:46.34	226.38	9.77	-50.7	-51.8	6.5	0.00e+00	0	42	104	0	73	15959
2026-01-20 21:47:49.25	226.88	9.98	-42.7	-42.7	11.2	1.71e-02	0	42	0	92274688	57	13985
2026-01-20 21:47:52.16	227.40	10.19	-28.5	-28.4	17.9	0.00e+00	0	42	0	419430400	29	13478
2026-01-20 21:47:55.07	227.92	10.41	-28.1	-27.9	18.2	0.00e+00	0	43	0	746586112	27	14359
2026-01-20 21:47:57.97	228.45	10.62	-27.9	-27.7	18.3	0.00e+00	0	43	0	1073741824	27	14071
2026-01-20 21:48:00.88	228.98	10.83	-27.6	-27.4	18.4	0.00e+00	0	43	0	1400897536	27	13631
2026-01-20 21:48:03.79	229.53	11.05	-27.9	-27.7	18.3	1.90e-06	0	42	0	1736441856	27	14048
2026-01-20 21:48:06.70	230.09	11.26	-27.6	-27.5	18.3	0.00e+00	0	42	0	2063597568	27	13662
2026-01-20 21:48:09.61	230.66	11.48	-27.5	-27.3	18.3	1.90e-06	0	43	0	2390753280	26	14186
2026-01-20 21:48:12.52	231.24	11.69	-27.3	-27.1	18.2	1.90e-06	0	43	0	2717908992	26	13863
2026-01-20 21:48:15.42	231.82	11.91	-27.3	-27.2	18.2	1.90e-06	0	43	0	3045064704	26	13995
2026-01-20 21:48:18.33	232.42	12.12	-27.1	-27.0	18.3	1.90e-06	0	43	0	3372220416	26	13647
2026-01-20 21:48:21.24	233.02	12.34	-27.1	-26.9	18.1	0.00e+00	0	43	0	3699376128	26	13581
2026-01-20 21:48:24.15	233.64	12.55	-26.8	-26.7	18.3	0.00e+00	0	43	0	4026531840	25	14006
2026-01-20 21:48:27.06	234.27	12.77	-26.8	-26.7	18.0	0.00e+00	0	43	0	4345298944	25	13990
2026-01-20 21:48:29.97	234.91	12.98	-26.8	-26.6	18.1	1.90e-06	0	43	0	4672454656	25	13881
2026-01-20 21:48:32.89	235.56	13.20	-26.7	-26.5	18.1	0.00e+00	0	43	0	5016387584	25	13751
2026-01-20 21:48:35.79	236.22	13.41	-26.9	-26.7	18.1	0.00e+00	0	43	0	5335154688	25	14072
2026-01-20 21:48:38.70	236.89	13.62	-26.6	-26.5	18.2	0.00e+00	0	43	0	5662310400	25	13677
2026-01-20 21:48:41.61	237.57	13.83	-26.6	-26.4	18.2	0.00e+00	0	43	0	5989466112	25	13541
2026-01-20 21:48:44.53	238.26	14.04	-26.6	-26.4	18.1	0.00e+00	0	43	0	6316621824	25	13568
2026-01-20 21:48:47.44	238.97	14.25	-26.5	-26.4	18.1	0.00e+00	0	43	0	6643777536	25	13531
2026-01-20 21:48:50.34	239.68	14.46	-26.7	-26.6	18.0	0.00e+00	0	43	0	6970933248	24	14641
2026-01-20 21:48:53.25	240.41	14.67	-26.3	-26.2	18.2	0.00e+00	0	43	0	7298088960	24	14015
2026-01-20 21:48:56.15	241.14	14.87	-26.3	-26.1	18.1	1.90e-06	0	43	0	7625244672	24	13891
2026-01-20 21:48:59.07	241.90	15.07	-26.3	-26.1	17.8	0.00e+00	0	43	0	7952400384	24	13876
2026-01-20 21:49:01.98	242.66	15.27	-26.3	-26.2	17.7	0.00e+00	0	43	0	8271167488	24	14002
2026-01-20 21:49:04.89	243.43	15.47	-26.1	-26.0	17.6	0.00e+00	0	43	0	8598323200	24	13643
2026-01-20 21:49:07.80	244.22	15.67	-26.1	-26.0	17.4	0.00e+00	0	43	0	8942256128	24	13687
2026-01-20 21:49:10.70	245.01	15.86	-25.9	-25.8	17.5	0.00e+00	0	43	0	9261023232	23	14143
2026-01-20 21:49:13.62	245.82	16.05	-26.0	-25.8	17.2	0.00e+00	0	43	0	9588178944	23	14213
2026-01-20 21:49:16.52	246.64	16.24	-25.9	-25.8	17.3	0.00e+00	0	43	0	9915334656	23	14116
2026-01-20 21:49:19.43	247.47	16.42	-25.8	-25.6	17.1	0.00e+00	0	43	0	10242490368	23	13910
2026-01-20 21:49:22.33	248.31	16.60	-25.7	-25.5	17.5	0.00e+00	0	43	0	10569646080	23	13790
2026-01-20 21:49:25.24	249.16	16.78	-25.6	-25.5	17.1	0.00e+00	0	43	0	10896801792	23	13635
2026-01-20 21:49:28.15	250.03	16.95	-25.6	-25.4	16.9	0.00e+00	0	43	0	11223957504	23	13558
2026-01-20 21:49:31.05	250.90	17.12	-25.6	-25.4	17.0	0.00e+00	0	43	0	11551113216	23	13587
2026-01-20 21:49:33.95	251.78	17.28	-25.5	-25.4	17.1	0.00e+00	0	43	0	11878268928	22	14346
2026-01-20 21:49:36.86	252.68	17.44	-25.4	-25.2	16.8	0.00e+00	0	43	0	12205424640	22	14088
2026-01-20 21:49:39.77	253.59	17.59	-25.3	-25.2	16.3	0.00e+00	0	43	0	12524191744	22	13964
2026-01-20 21:49:42.67	254.50	17.74	-25.4	-25.2	16.6	0.00e+00	0	43	0	12851347456	22	14017
2026-01-20 21:49:45.58	255.43	17.89	-25.4	-25.3	16.9	1.90e-06	0	43	0	13178503168	22	14161
2026-01-20 21:49:48.48	256.36	18.02	-25.4	-25.2	16.4	0.00e+00	0	43	0	13505658880	22	14021
2026-01-20 21:49:51.40	257.31	18.16	-25.4	-25.2	16.4	1.90e-06	0	43	0	13841203200	22	14076
2026-01-20 21:49:54.30	258.26	18.28	-25.4	-25.2	16.3	0.00e+00	0	43	0	14168358912	22	14067
2026-01-20 21:49:57.22	259.23	18.40	-25.4	-25.3	16.9	0.00e+00	0	43	0	14495514624	22	14173
2026-01-20 21:50:00.12	260.20	18.51	-25.3	-25.2	16.6	0.00e+00	0	43	0	14822670336	22	13976
2026-01-20 21:50:03.03	261.18	18.62	-25.2	-25.1	17.0	1.90e-06	0	43	0	15149826048	22	13808
2026-01-20 21:50:05.94	262.17	18.72	-25.3	-25.1	16.9	0.00e+00	0	43	0	15476981760	22	13910
2026-01-20 21:50:08.85	263.16	18.81	-25.2	-25.0	16.8	0.00e+00	0	43	0	15804137472	22	13738
2026-01-20 21:50:11.76	264.16	18.90	-25.2	-25.0	17.0	0.00e+00	0	43	0	16131293184	22	13689
2026-01-20 21:50:14.67	265.17	18.97	-25.2	-25.0	17.1	0.00e+00	0	43	0	16450060288	22	13721
2026-01-20 21:50:17.59	266.19	19.04	-25.1	-25.0	17.3	0.00e+00	0	43	0	16793993216	22	13651
2026-01-20 21:50:20.50	267.20	19.10	-25.1	-24.9	17.9	0.00e+00	0	43	0	17121148928	22	13632
2026-01-20 21:50:23.41	268.22	19.16	-25.2	-25.0	17.7	0.00e+00	0	43	0	17439916032	22	13790
2026-01-20 21:50:26.32	269.25	19.20	-25.2	-25.0	17.8	0.00e+00	0	43	0	17767071744	22	13790
2026-01-20 21:50:29.23	270.27	19.24	-25.2	-25.0	18.3	0.00e+00	0	43	0	18094227456	22	13755
2026-01-20 21:50:32.13	271.30	19.27	-25.3	-25.1	18.7	0.00e+00	0	43	0	18421383168	22	13845
2026-01-20 21:50:35.04	272.33	19.29	-25.4	-25.2	18.8	0.00e+00	0	43	0	18748538880	22	14089
2026-01-20 21:50:37.95	273.37	19.30	-25.4	-25.2	19.0	0.00e+00	0	43	0	19075694592	22	14071
2026-01-20 21:50:40.86	274.40	19.31	-25.4	-25.2	18.8	0.00e+00	0	43	0	19402850304	22	14000
2026-01-20 21:50:43.76	275.43	19.31	-25.4	-25.2	18.6	0.00e+00	0	43	0	19730006016	22	14036
2026-01-20 21:50:46.66	276.46	19.29	-25.5	-25.3	18.6	0.00e+00	0	43	0	20057161728	22	14157
2026-01-20 21:50:49.57	277.49	19.27	-25.5	-25.3	18.5	0.00e+00	0	43	0	20384317440	22	14209
2026-01-20 21:50:52.49	278.52	19.24	-25.5	-25.3	18.4	0.00e+00	0	43	0	20719861760	22	14158
2026-01-20 21:50:55.40	279.55	19.21	-25.6	-25.4	18.4	0.00e+00	0	43	0	21047017472	22	14332
2026-01-20 21:50:58.31	280.57	19.16	-25.6	-25.4	18.5	0.00e+00	0	43	0	21374173184	22	14393
2026-01-20 21:51:01.22	281.59	19.11	-25.6	-25.4	18.5	1.90e-06	0	43	0	21692940288	22	14392
2026-01-20 21:51:04.14	282.61	19.05	-25.8	-25.6	18.5	0.00e+00	0	43	0	22020096000	22	14706
2026-01-20 21:51:07.04	283.62	18.98	-25.8	-25.7	18.7	0.00e+00	0	43	0	22347251712	22	14796
2026-01-20 21:51:09.95	284.63	18.90	-25.9	-25.8	18.8	0.00e+00	0	43	0	22674407424	22	14952
2026-01-20 21:51:12.86	285.63	18.82	-25.9	-25.7	18.9	0.00e+00	0	43	0	23001563136	22	14892
2026-01-20 21:51:15.78	286.62	18.72	-25.9	-25.7	18.9	0.00e+00	0	43	0	23328718848	22	14872
2026-01-20 21:51:18.68	287.61	18.63	-25.9	-25.7	18.8	0.00e+00	0	43	0	23655874560	22	14941
2026-01-20 21:51:21.59	288.58	18.52	-26.1	-25.9	18.9	0.00e+00	0	43	0	23991418880	22	15247
2026-01-20 21:51:24.49	289.55	18.41	-26.0	-25.8	18.9	0.00e+00	0	43	0	24318574592	22	15068
2026-01-20 21:51:27.40	290.51	18.29	-26.2	-26.0	18.6	0.00e+00	0	43	0	24645730304	23	14518
2026-01-20 21:51:30.31	291.47	18.17	-26.2	-26.0	18.6	0.00e+00	0	43	0	24972886016	23	14576
2026-01-20 21:51:33.22	292.41	18.03	-26.3	-26.1	18.6	0.00e+00	0	43	0	25300041728	23	14709
2026-01-20 21:51:36.12	293.34	17.90	-26.3	-26.2	18.5	0.00e+00	0	43	0	25618808832	23	14796
2026-01-20 21:51:39.03	294.27	17.75	-26.3	-26.2	18.4	0.00e+00	0	43	0	25945964544	23	14805
2026-01-20 21:51:41.94	295.19	17.61	-26.3	-26.2	18.6	0.00e+00	0	43	0	26273120256	23	14812
2026-01-20 21:51:44.85	296.09	17.45	-26.4	-26.2	18.6	0.00e+00	0	43	0	26600275968	23	14871
2026-01-20 21:51:47.77	296.99	17.29	-26.6	-26.5	18.2	0.00e+00	0	43	0	26927431680	23	15310
2026-01-20 21:51:50.68	297.87	17.13	-26.5	-26.3	18.3	0.00e+00	0	43	0	27254587392	23	15073
2026-01-20 21:51:53.58	298.74	16.97	-26.5	-26.4	18.6	0.00e+00	0	43	0	27581743104	23	15156
2026-01-20 21:51:56.49	299.61	16.79	-26.7	-26.5	18.5	0.00e+00	0	43	0	27917287424	23	15354
2026-01-20 21:51:59.40	300.46	16.62	-26.6	-26.4	18.6	0.00e+00	0	43	0	28244443136	24	14308
2026-01-20 21:52:02.30	301.29	16.44	-26.7	-26.5	18.5	0.00e+00	0	43	0	28571598848	24	14566
2026-01-20 21:52:05.21	302.12	16.26	-26.6	-26.4	18.6	0.00e+00	0	43	0	28898754560	24	14416
2026-01-20 21:52:08.12	302.94	16.07	-26.8	-26.6	18.7	0.00e+00	0	43	0	29225910272	24	14718
2026-01-20 21:52:11.02	303.74	15.88	-26.5	-26.3	18.9	0.00e+00	0	43	0	29544677376	24	14265
2026-01-20 21:52:13.93	304.54	15.69	-26.7	-26.6	18.8	0.00e+00	0	43	0	29871833088	24	14614
2026-01-20 21:52:16.84	305.32	15.50	-26.9	-26.7	18.5	0.00e+00	0	43	0	30198988800	24	14873
2026-01-20 21:52:19.76	306.09	15.30	-26.9	-26.7	18.4	0.00e+00	0	43	0	30526144512	24	14896
2026-01-20 21:52:22.66	306.85	15.10	-26.9	-26.7	18.5	0.00e+00	0	43	0	30853300224	24	14868
2026-01-20 21:52:25.58	307.60	14.90	-27.0	-26.8	18.2	0.00e+00	0	43	0	31180455936	24	15054
2026-01-20 21:52:28.49	308.33	14.70	-27.0	-26.8	18.2	0.00e+00	0	43	0	31516000256	24	15063
2026-01-20 21:52:31.39	309.06	14.49	-27.1	-27.0	18.4	0.00e+00	0	44	0	31843155968	25	14506
2026-01-20 21:52:34.30	309.77	14.29	-27.4	-27.2	18.3	0.00e+00	0	43	0	32170311680	25	14854
2026-01-20 21:52:37.21	310.47	14.08	-27.5	-27.4	18.1	0.00e+00	0	43	0	32497467392	25	15155
2026-01-20 21:52:40.11	311.16	13.87	-27.5	-27.3	18.0	0.00e+00	0	43	0	32824623104	25	14999
2026-01-20 21:52:43.02	311.84	13.66	-27.6	-27.4	18.0	0.00e+00	0	43	0	33151778816	25	15235
2026-01-20 21:52:45.93	312.51	13.45	-27.6	-27.4	17.9	0.00e+00	0	43	0	33478934528	26	14397
2026-01-20 21:52:48.83	313.17	13.24	-27.7	-27.6	17.9	1.90e-06	0	43	0	33797701632	26	14626
2026-01-20 21:52:51.75	313.81	13.02	-27.7	-27.6	18.0	0.00e+00	0	43	0	34124857344	26	14635
2026-01-20 21:52:54.66	314.45	12.81	-27.8	-27.7	18.0	0.00e+00	0	43	0	34452013056	26	14818
2026-01-20 21:52:57.56	315.08	12.60	-27.8	-27.7	18.1	0.00e+00	0	43	0	34779168768	26	14799
2026-01-20 21:53:00.46	315.69	12.39	-28.0	-27.8	17.9	0.00e+00	0	43	0	35106324480	26	15077
2026-01-20 21:53:03.37	316.29	12.17	-28.1	-27.9	17.9	0.00e+00	0	43	0	35433480192	26	15197
2026-01-20 21:53:06.27	316.89	11.96	-28.1	-27.9	17.6	1.90e-06	0	43	0	35760635904	26	15228
2026-01-20 21:53:09.18	317.47	11.75	-28.2	-28.1	17.4	1.90e-06	0	43	0	36087791616	27	14634
2026-01-20 21:53:12.10	318.05	11.53	-28.2	-28.1	17.4	1.90e-06	0	43	0	36423335936	27	14651
2026-01-20 21:53:15.00	318.62	11.32	-28.3	-28.2	17.5	1.90e-06	0	43	0	36750491648	27	14813
2026-01-20 21:53:17.91	319.17	11.10	-28.5	-28.3	17.4	1.90e-06	0	43	0	37077647360	27	15032
2026-01-20 21:53:20.83	319.72	10.89	-28.6	-28.4	17.5	0.00e+00	0	43	0	37404803072	27	15222
2026-01-20 21:53:23.73	320.26	10.68	-28.4	-28.3	17.5	0.00e+00	0	43	0	37723570176	27	14954
2026-01-20 21:53:26.65	320.79	10.47	-53.1	-55.4	6.2	0.00e+00	0	43	104	38017171456	76	20298
2026-01-20 21:53:29.55	321.31	10.25	-53.0	-55.3	6.2	0.00e+00	0	43	104	38017171456	76	19965
2026-01-20 21:53:32.46	321.82	10.04	-53.1	-55.2	6.2	0.00e+00	0	43	104	38017171456	76	19835
2026-01-20 21:53:35.38	322.32	9.83	-53.1	-55.2	6.2	0.00e+00	0	43	104	38017171456	76	19843
2026-01-20 21:53:38.29	322.82	9.62	-53.0	-55.1	6.2	0.00e+00	0	43	104	38017171456	76	19584
2026-01-20 21:53:41.20	323.30	9.41	-53.0	-55.2	6.2	0.00e+00	0	43	104	38017171456	76	19737
2026-01-20 21:53:44.11	323.78	9.20	-52.9	-55.0	6.2	0.00e+00	0	43	104	38017171456	76	19470
2026-01-20 21:53:47.01	324.25	9.00	-53.0	-55.1	6.2	0.00e+00	0	43	104	38017171456	76	19657
2026-01-20 21:53:49.92	324.72	8.79	-52.9	-55.0	6.2	0.00e+00	0	43	104	38017171456	76	19306
2026-01-20 21:53:52.83	325.17	8.58	-52.9	-55.0	6.2	0.00e+00	0	43	104	38017171456	76	19406
2026-01-20 21:53:55.75	325.62	8.38	-52.8	-54.9	6.2	0.00e+00	0	43	104	38017171456	76	19136
2026-01-20 21:53:58.65	326.06	8.17	-52.8	-55.0	6.2	0.00e+00	0	43	104	38017171456	76	19266
2026-01-20 21:54:01.56	326.49	7.97	-52.7	-54.8	6.2	0.00e+00	0	43	104	38017171456	76	18914
2026-01-20 21:54:04.47	326.92	7.77	-52.8	-54.9	6.2	0.00e+00	0	43	104	38017171456	76	19110
2026-01-20 21:54:07.37	327.34	7.57	-52.7	-54.8	6.2	0.00e+00	0	43	104	38017171456	76	18865
2026-01-20 21:54:10.29	327.75	7.37	-51.2	-52.6	6.3	0.00e+00	0	43	104	38017171456	74	16569
2026-01-20 21:54:13.20	328.16	7.17	-49.5	-50.5	6.7	0.00e+00	0	43	104	38017171456	71	15396
2026-01-20 21:54:16.10	328.55	6.97	-48.0	-48.6	7.0	0.00e+00	0	43	104	38017171456	68	14776
2026-01-20 21:54:19.01	328.95	6.77	-46.2	-46.7	7.5	0.00e+00	0	43	104	38017171456	64	14931
2026-01-20 21:54:21.92	329.33	6.57	-45.1	-45.5	7.9	0.00e+00	0	43	104	38017171456	60	16378
2026-01-20 21:54:24.82	329.71	6.38	-48.7	-49.6	6.9	0.00e+00	0	42	104	38017171456	68	16513
2026-01-20 21:54:27.73	330.09	6.18	-43.0	-43.3	8.4	0.00e+00	0	43	0	38017171456	58	14244
2026-01-20 21:54:30.64	330.46	5.99	-52.4	-54.7	6.2	0.00e+00	0	43	104	38017171456	75	19877
2026-01-20 21:54:33.54	330.82	5.80	-42.5	-42.7	8.4	0.00e+00	0	43	104	38017171456	57	14061
2026-01-20 21:54:36.45	331.18	5.61	-41.6	-41.9	8.7	0.00e+00	0	43	0	38017171456	53	16037
2026-01-20 21:54:39.38	331.53	5.41	-51.9	-53.8	6.2	0.00e+00	0	43	104	38017171456	75	17883
2026-01-20 21:54:42.28	331.88	5.23	-40.4	-40.7	8.9	0.00e+00	0	43	0	38017171456	52	14779
2026-01-20 21:54:45.19	332.22	5.04	-44.5	-44.9	8.0	0.00e+00	0	43	0	38017171456	59	16171
2026-01-20 21:54:48.09	332.56	4.85	-53.2	-55.3	6.2	0.00e+00	0	43	104	38017171456	76	20098
2026-01-20 21:54:51.00	332.89	4.66	-53.5	-55.6	6.2	0.00e+00	0	43	104	38017171456	77	19566
2026-01-20 21:54:53.91	333.21	4.48	-53.5	-55.7	6.2	0.00e+00	0	42	104	38017171456	77	19723
2026-01-20 21:54:56.82	333.54	4.29	-53.3	-55.4	6.2	0.00e+00	0	43	104	38017171456	77	19239
2026-01-20 21:54:59.72	333.85	4.11	-53.3	-55.5	6.2	0.00e+00	0	43	104	38017171456	77	19348
2026-01-20 21:55:02.63	334.16	3.93	-53.5	-55.6	6.2	0.00e+00	0	43	104	38017171456	77	19587
2026-01-20 21:55:05.54	334.47	3.75	-53.5	-55.7	6.2	0.00e+00	0	42	104	38017171456	77	19785
2026-01-20 21:55:08.45	334.77	3.56	-53.5	-55.7	6.2	0.00e+00	0	43	104	38017171456	77	19749
2026-01-20 21:55:11.36	335.07	3.39	-53.5	-55.6	6.2	0.00e+00	0	42	104	38017171456	77	19700
2026-01-20 21:55:14.28	335.37	3.21	-53.4	-55.6	6.2	0.00e+00	0	43	104	38017171456	77	19569
2026-01-20 21:55:17.19	335.66	3.03	-53.4	-55.6	6.2	0.00e+00	0	43	104	38017171456	77	19546
2026-01-20 21:55:20.10	335.95	2.85	-53.5	-55.6	6.2	0.00e+00	0	42	104	38017171456	77	19616
2026-01-20 21:55:23.00	336.23	2.68	-53.5	-55.6	6.2	0.00e+00	0	43	104	38017171456	77	19566
2026-01-20 21:55:25.91	336.51	2.50	-53.4	-55.6	6.2	0.00e+00	0	43	104	38017171456	77	19521
2026-01-20 21:55:28.83	336.78	2.33	-53.4	-55.6	6.2	0.00e+00	0	42	104	38017171456	77	19494
2026-01-20 21:55:31.73	337.05	2.15	-53.4	-55.6	6.2	0.00e+00	0	42	104	38017171456	77	19536
2026-01-20 21:55:34.65	337.32	1.98	-53.4	-55.5	6.2	0.00e+00	0	43	104	38017171456	77	19478

#Closed at: 2026-01-20 21:55:36
#Recorded file [38017 MB]: D:/lorett/data/31041_260121_004549.dat