passes_logs/2026/01/20/R3.2S_Murmansk/R3.2S_Murmansk__20260120_103318_FENGYUN_3D_rec.log

#Pass ID: 20260120_103318_FENGYUN 3D
#Satellite: FENGYUN 3D
#Configuration: FENGYUN 3D
#almurnet v.1.7.20251203
#Start time: 2026-01-20 10:39:06

#Version: 2.2.20231116
#Station: R3.2S_Murmansk
#Location: 33.079688 lon 68.888172 lat
#TLE: 1 43010U 17072A   26019.93695019 -.00000250  00000+0 -96545-4 0  9996
#TLE: 2 43010  98.9942 351.8290 0002452 100.7901 259.3550 14.19695974423957

#Time	Az	El	Level	Level2	SNR	BER	BlckErr	Temp	State	Recorded	gain1	gain2
2026-01-20 10:39:06.60	93.51	43.97	-50.4	-52.5	6.2	0.00e+00	0	40	0	0	71	19425
2026-01-20 10:39:08.62	92.74	44.39	-49.9	-61.8	3.8	8.46e-01	0	40	104	0	70	14957
2026-01-20 10:39:10.64	91.96	44.80	-49.9	-61.7	3.8	8.45e-01	0	40	104	0	70	14853
2026-01-20 10:39:12.65	91.16	45.21	-49.9	-61.7	3.8	8.47e-01	0	40	104	0	70	14804
2026-01-20 10:39:14.67	90.34	45.63	-49.8	-61.7	3.8	8.46e-01	0	40	104	0	70	14787
2026-01-20 10:39:16.68	89.49	46.03	-49.8	-61.7	3.8	8.46e-01	0	40	104	0	70	14727
2026-01-20 10:39:18.70	88.63	46.44	-49.8	-61.7	3.8	8.45e-01	0	40	104	0	70	14739
2026-01-20 10:39:20.71	87.74	46.84	-49.8	-61.7	3.8	8.46e-01	0	40	104	0	70	14740
2026-01-20 10:39:22.73	86.83	47.24	-49.8	-61.7	3.8	8.46e-01	0	40	104	0	70	14748
2026-01-20 10:39:24.74	85.89	47.63	-49.8	-61.6	3.8	8.46e-01	0	40	104	0	70	14690
2026-01-20 10:39:26.76	84.93	48.02	-49.8	-61.6	3.8	8.45e-01	0	40	104	0	70	14586
2026-01-20 10:39:28.78	83.94	48.40	-49.8	-61.6	3.8	8.46e-01	0	40	104	0	70	14632
2026-01-20 10:39:30.79	82.94	48.78	-49.8	-61.6	3.8	8.47e-01	0	40	104	0	70	14623
2026-01-20 10:39:32.81	81.90	49.15	-49.8	-61.6	3.8	8.46e-01	0	40	104	0	70	14628
2026-01-20 10:39:34.83	80.84	49.52	-49.8	-61.6	3.8	8.46e-01	0	40	104	0	70	14607
2026-01-20 10:39:36.84	79.76	49.87	-49.8	-61.6	3.8	8.47e-01	0	40	104	0	70	14665
2026-01-20 10:39:38.86	78.65	50.22	-49.8	-61.6	3.8	8.47e-01	0	40	104	0	70	14642
2026-01-20 10:39:40.87	77.51	50.55	-49.7	-61.5	3.8	8.46e-01	0	40	104	0	70	14514
2026-01-20 10:39:42.89	76.35	50.88	-49.8	-61.6	3.8	8.46e-01	0	40	104	0	70	14552
2026-01-20 10:39:44.90	75.17	51.20	-49.7	-61.4	3.8	8.46e-01	0	40	104	0	70	14335
2026-01-20 10:39:46.92	73.96	51.50	-49.7	-61.2	3.8	8.46e-01	0	40	104	0	70	13924
2026-01-20 10:39:48.94	72.72	51.80	-49.8	-61.6	3.8	8.47e-01	0	40	104	0	70	14603
2026-01-20 10:39:50.95	71.46	52.08	-49.7	-61.4	3.8	8.47e-01	0	40	104	0	70	14308
2026-01-20 10:39:52.97	70.18	52.35	-49.7	-61.1	3.8	8.46e-01	0	40	104	0	70	13756
2026-01-20 10:39:54.99	68.87	52.60	-49.5	-59.2	3.8	8.42e-01	0	40	104	0	70	11060
2026-01-20 10:39:57.00	67.54	52.84	-49.7	-61.2	3.8	8.46e-01	0	40	104	0	70	13887
2026-01-20 10:39:59.01	66.20	53.07	-49.6	-60.5	3.8	8.46e-01	0	40	104	0	70	12922
2026-01-20 10:40:01.03	64.82	53.28	-49.4	-58.2	4.1	8.38e-01	0	40	0	0	70	9931
2026-01-20 10:40:03.05	63.43	53.47	-46.2	-49.0	11.3	8.38e-03	0	40	0	5242880	64	4839
2026-01-20 10:40:05.05	62.04	53.65	-49.1	-56.7	4.7	8.38e-01	0	40	104	7340032	70	8319
2026-01-20 10:40:07.07	60.61	53.81	-46.8	-50.0	10.3	5.54e-03	0	40	0	16777216	65	5159
2026-01-20 10:40:09.08	59.18	53.95	-46.5	-49.6	10.7	4.21e-03	0	40	0	28311552	65	4890
2026-01-20 10:40:11.09	57.73	54.07	-46.1	-48.9	11.6	1.29e-03	0	40	0	38797312	63	5058
2026-01-20 10:40:13.11	56.26	54.18	-45.9	-48.4	12.0	1.09e-03	0	40	0	51380224	63	4806
2026-01-20 10:40:15.12	54.79	54.26	-46.2	-48.9	11.6	9.62e-04	0	40	0	61865984	63	5091
2026-01-20 10:40:17.14	53.31	54.33	-46.2	-48.9	11.5	1.45e-03	0	40	0	73400320	63	5067
2026-01-20 10:40:19.16	51.82	54.38	-46.1	-48.8	11.7	1.02e-03	0	40	0	84934656	63	4992
2026-01-20 10:40:21.17	50.33	54.41	-46.3	-49.1	11.4	1.18e-03	0	40	0	95420416	63	5175
2026-01-20 10:40:23.18	48.84	54.42	-46.5	-49.6	10.8	2.33e-03	0	39	0	106954752	63	5493
2026-01-20 10:40:25.20	47.35	54.41	-46.2	-49.0	11.3	1.53e-03	0	40	0	118489088	64	4849
2026-01-20 10:40:27.21	45.86	54.38	-46.2	-48.9	11.5	9.43e-04	0	40	0	130023424	63	5091
2026-01-20 10:40:29.23	44.37	54.33	-46.2	-48.9	11.5	1.29e-03	0	40	0	141557760	63	5075
2026-01-20 10:40:31.25	42.89	54.26	-46.0	-48.6	11.8	9.09e-04	0	40	0	153092096	63	4913
2026-01-20 10:40:33.26	41.42	54.17	-45.0	-47.1	13.4	4.11e-05	0	39	0	163577856	62	4350
2026-01-20 10:40:35.28	39.96	54.06	-45.1	-47.3	13.2	3.54e-05	0	40	0	175112192	61	4727
2026-01-20 10:40:37.29	38.51	53.94	-44.8	-46.8	13.7	1.02e-05	0	40	0	186646528	61	4453
2026-01-20 10:40:39.31	37.07	53.80	-44.8	-46.8	13.7	8.00e-06	0	40	0	198180864	61	4463
2026-01-20 10:40:41.33	35.65	53.64	-44.8	-46.9	13.7	1.37e-05	0	39	0	209715200	61	4506
2026-01-20 10:40:43.34	34.25	53.46	-44.9	-47.0	13.5	1.37e-05	0	40	0	221249536	61	4552
2026-01-20 10:40:45.36	32.86	53.26	-44.8	-46.9	13.6	8.00e-06	0	39	0	231735296	61	4508
2026-01-20 10:40:47.37	31.49	53.05	-44.8	-46.9	13.6	1.71e-05	0	39	0	243269632	61	4522
2026-01-20 10:40:49.39	30.14	52.83	-44.6	-46.6	13.9	6.80e-06	0	40	0	254803968	61	4388
2026-01-20 10:40:51.40	28.82	52.59	-44.6	-46.6	14.0	1.10e-06	0	40	0	266338304	61	4349
2026-01-20 10:40:53.42	27.51	52.33	-44.7	-46.7	13.8	1.14e-05	0	40	0	277872640	61	4420
2026-01-20 10:40:55.43	26.24	52.06	-44.7	-46.7	13.8	5.70e-06	0	40	0	288358400	61	4424
2026-01-20 10:40:57.45	24.98	51.78	-44.7	-46.7	13.8	1.02e-05	0	39	0	299892736	61	4427
2026-01-20 10:40:59.46	23.75	51.49	-44.7	-46.6	13.9	8.00e-06	0	40	0	311427072	61	4386
2026-01-20 10:41:01.48	22.54	51.18	-44.8	-46.8	13.7	1.25e-05	0	40	0	322961408	61	4484
2026-01-20 10:41:03.50	21.35	50.86	-44.8	-46.9	13.7	1.94e-05	0	39	0	333447168	61	4503
2026-01-20 10:41:05.51	20.20	50.53	-44.8	-46.8	13.8	1.37e-05	0	39	0	346030080	61	4450
2026-01-20 10:41:07.53	19.07	50.20	-45.1	-47.3	13.2	2.86e-05	0	40	0	356515840	61	4744
2026-01-20 10:41:09.54	17.96	49.85	-45.0	-47.1	13.4	2.28e-05	0	39	0	368050176	61	4649
2026-01-20 10:41:11.56	16.88	49.50	-45.0	-47.1	13.4	1.60e-05	0	39	0	379584512	61	4647
2026-01-20 10:41:13.57	15.83	49.13	-44.9	-47.0	13.5	1.60e-05	0	40	0	391118848	61	4591
2026-01-20 10:41:15.59	14.79	48.76	-44.8	-46.8	13.7	6.80e-06	0	40	0	401604608	61	4490
2026-01-20 10:41:17.61	13.78	48.39	-44.7	-46.7	13.9	9.10e-06	0	39	0	414187520	61	4407
2026-01-20 10:41:19.62	12.81	48.00	-44.5	-46.5	14.1	5.70e-06	0	40	0	424673280	61	4311
2026-01-20 10:41:21.64	11.85	47.61	-44.5	-46.4	14.2	3.40e-06	0	39	0	436207616	60	4508
2026-01-20 10:41:23.65	10.92	47.22	-44.3	-46.2	14.4	1.10e-06	0	39	0	447741952	60	4397
2026-01-20 10:41:25.67	10.00	46.82	-44.3	-46.2	14.4	2.20e-06	0	39	0	458227712	60	4395
2026-01-20 10:41:27.68	9.12	46.42	-44.5	-46.5	14.1	0.00e+00	0	39	0	469762048	60	4548
2026-01-20 10:41:29.70	8.25	46.02	-44.4	-46.3	14.2	4.50e-06	0	39	0	481296384	60	4493
2026-01-20 10:41:31.71	7.41	45.61	-44.4	-46.3	14.2	3.40e-06	0	40	0	492830720	60	4484
2026-01-20 10:41:33.73	6.59	45.20	-44.2	-46.0	14.6	0.00e+00	0	39	0	504365056	60	4322
2026-01-20 10:41:35.74	5.80	44.79	-44.2	-46.0	14.5	0.00e+00	0	40	0	515899392	60	4340
2026-01-20 10:41:37.76	5.02	44.37	-44.4	-46.3	14.3	1.10e-06	0	40	0	526385152	60	4457
2026-01-20 10:41:39.77	4.26	43.96	-44.4	-46.3	14.2	1.10e-06	0	39	0	537919488	60	4475
2026-01-20 10:41:41.79	3.52	43.54	-44.2	-46.0	14.5	0.00e+00	0	40	0	549453824	60	4326
2026-01-20 10:41:43.81	2.80	43.12	-44.1	-45.9	14.6	1.10e-06	0	40	0	560988160	60	4276
2026-01-20 10:41:45.82	2.10	42.71	-44.1	-45.9	14.7	0.00e+00	0	40	0	572522496	60	4267
2026-01-20 10:41:47.84	1.42	42.29	-44.1	-45.9	14.7	1.10e-06	0	40	0	584056832	60	4260
2026-01-20 10:41:49.85	0.76	41.87	-44.2	-46.1	14.4	0.00e+00	0	40	0	594542592	60	4362
2026-01-20 10:41:51.87	0.11	41.45	-44.4	-46.3	14.2	2.20e-06	0	39	0	606076928	60	4465
2026-01-20 10:41:53.89	359.47	41.04	-44.4	-46.3	14.2	3.40e-06	0	40	0	617611264	60	4479
2026-01-20 10:41:55.90	358.86	40.62	-44.1	-45.9	14.6	0.00e+00	0	40	0	629145600	60	4262
2026-01-20 10:41:57.92	358.26	40.21	-44.2	-46.0	14.9	0.00e+00	0	39	0	640679936	59	4586
2026-01-20 10:41:59.93	357.68	39.79	-44.4	-46.2	14.7	0.00e+00	0	39	0	651165696	59	4693
2026-01-20 10:42:01.95	357.11	39.38	-44.5	-46.4	14.5	2.20e-06	0	39	0	662700032	59	4765
2026-01-20 10:42:03.96	356.56	38.97	-44.5	-46.4	14.5	1.10e-06	0	40	0	674234368	59	4774
2026-01-20 10:42:05.98	356.01	38.56	-44.5	-46.4	14.5	0.00e+00	0	39	0	685768704	59	4777
2026-01-20 10:42:08.00	355.49	38.16	-44.6	-46.5	14.4	1.10e-06	0	39	0	696254464	59	4817
2026-01-20 10:42:10.01	354.97	37.76	-44.6	-46.5	14.4	2.20e-06	0	40	0	708837376	59	4823
2026-01-20 10:42:12.02	354.47	37.35	-44.4	-46.3	14.6	0.00e+00	0	40	0	719323136	59	4709
2026-01-20 10:42:14.04	353.98	36.95	-44.5	-46.4	14.5	2.20e-06	0	40	0	730857472	59	4779
2026-01-20 10:42:16.06	353.51	36.56	-44.5	-46.4	14.4	1.10e-06	0	39	0	742391808	59	4802
2026-01-20 10:42:18.07	353.04	36.16	-44.3	-46.1	14.8	0.00e+00	0	39	0	753926144	59	4611
2026-01-20 10:42:20.09	352.59	35.77	-44.3	-46.1	14.8	0.00e+00	0	39	0	764411904	59	4627
2026-01-20 10:42:22.11	352.14	35.38	-44.2	-46.0	14.8	1.10e-06	0	40	0	776994816	59	4591
2026-01-20 10:42:24.12	351.71	35.00	-44.2	-46.0	14.9	1.10e-06	0	39	0	787480576	59	4579
2026-01-20 10:42:26.14	351.29	34.61	-44.4	-46.2	14.6	0.00e+00	0	39	0	799014912	59	4703
2026-01-20 10:42:28.16	350.88	34.23	-44.5	-46.3	14.5	2.20e-06	0	40	0	810549248	59	4758
2026-01-20 10:42:30.17	350.47	33.86	-44.4	-46.3	14.5	0.00e+00	0	39	0	821035008	59	4745
2026-01-20 10:42:32.19	350.08	33.48	-44.2	-46.0	14.9	0.00e+00	0	39	0	832569344	59	4567
2026-01-20 10:42:34.20	349.70	33.11	-44.3	-46.1	14.8	0.00e+00	0	40	0	844103680	59	4607
2026-01-20 10:42:36.22	349.32	32.74	-44.4	-46.2	14.6	0.00e+00	0	39	0	855638016	59	4682
2026-01-20 10:42:38.24	348.95	32.38	-44.4	-46.3	14.6	0.00e+00	0	39	0	867172352	59	4734
2026-01-20 10:42:40.25	348.59	32.02	-44.7	-46.6	14.2	0.00e+00	0	39	0	878706688	59	4924
2026-01-20 10:42:42.26	348.24	31.66	-44.7	-46.7	14.1	1.10e-06	0	39	0	889192448	59	4947
2026-01-20 10:42:44.28	347.90	31.30	-44.3	-46.1	14.3	3.40e-06	0	39	0	900726784	60	4389
2026-01-20 10:42:46.30	347.56	30.95	-44.1	-45.9	14.6	0.00e+00	0	39	0	912261120	60	4265
2026-01-20 10:42:48.31	347.24	30.60	-44.2	-46.1	14.4	2.20e-06	0	39	0	923795456	60	4345
2026-01-20 10:42:50.33	346.92	30.25	-44.3	-46.2	14.3	0.00e+00	0	40	0	935329792	60	4425
2026-01-20 10:42:52.34	346.60	29.91	-44.4	-46.3	14.2	8.00e-06	0	39	0	946864128	60	4460
2026-01-20 10:42:54.36	346.29	29.57	-44.5	-46.4	14.1	4.50e-06	0	39	0	957349888	60	4524
2026-01-20 10:42:56.37	345.99	29.23	-44.5	-46.5	14.0	9.10e-06	0	40	0	968884224	60	4551
2026-01-20 10:42:58.39	345.70	28.90	-44.5	-46.5	14.0	4.50e-06	0	40	0	980418560	60	4556
2026-01-20 10:43:00.41	345.41	28.57	-44.5	-46.5	14.0	3.40e-06	0	39	0	991952896	60	4556
2026-01-20 10:43:02.42	345.13	28.24	-44.4	-46.3	14.2	0.00e+00	0	40	0	1003487232	60	4462
2026-01-20 10:43:04.44	344.85	27.92	-44.3	-46.2	14.2	5.70e-06	0	39	0	1013972992	60	4426
2026-01-20 10:43:06.45	344.58	27.60	-44.5	-46.4	14.0	1.10e-06	0	39	0	1025507328	60	4542
2026-01-20 10:43:08.47	344.32	27.28	-44.5	-46.5	14.0	5.70e-06	0	39	0	1037041664	60	4552
2026-01-20 10:43:10.48	344.06	26.96	-44.6	-46.6	13.8	8.00e-06	0	39	0	1048576000	60	4611
2026-01-20 10:43:12.50	343.80	26.65	-44.4	-46.3	14.1	5.70e-06	0	40	0	1059061760	60	4470
2026-01-20 10:43:14.51	343.55	26.34	-44.4	-46.4	14.0	2.20e-06	0	39	0	1071644672	60	4514
2026-01-20 10:43:16.53	343.31	26.03	-44.3	-46.2	14.3	1.10e-06	0	39	0	1082130432	60	4441
2026-01-20 10:43:18.54	343.07	25.73	-44.4	-46.3	14.1	1.10e-06	0	39	0	1093664768	60	4481
2026-01-20 10:43:20.56	342.83	25.43	-44.4	-46.3	14.1	1.10e-06	0	39	0	1105199104	60	4461
2026-01-20 10:43:22.57	342.60	25.13	-44.4	-46.4	14.0	1.14e-05	0	40	0	1116733440	60	4524
2026-01-20 10:43:24.59	342.38	24.84	-44.4	-46.3	14.1	4.50e-06	0	39	0	1127219200	60	4477
2026-01-20 10:43:26.61	342.16	24.54	-44.4	-46.4	14.0	5.70e-06	0	39	0	1139802112	60	4505
2026-01-20 10:43:28.62	341.94	24.25	-44.5	-46.6	13.8	5.70e-06	0	39	0	1150287872	60	4601
2026-01-20 10:43:30.63	341.73	23.97	-44.6	-46.6	13.8	6.80e-06	0	39	0	1161822208	60	4650
2026-01-20 10:43:32.65	341.52	23.68	-44.7	-46.8	13.6	1.48e-05	0	39	0	1173356544	60	4742
2026-01-20 10:43:34.67	341.31	23.40	-44.7	-46.7	13.7	1.37e-05	0	39	0	1183842304	60	4701
2026-01-20 10:43:36.68	341.11	23.12	-44.7	-46.7	13.7	1.14e-05	0	39	0	1195376640	60	4683
2026-01-20 10:43:38.70	340.91	22.85	-44.6	-46.7	13.7	1.25e-05	0	40	0	1206910976	60	4667
2026-01-20 10:43:40.71	340.71	22.57	-44.6	-46.7	13.7	1.71e-05	0	39	0	1218445312	60	4658
2026-01-20 10:43:42.73	340.52	22.30	-44.6	-46.7	13.8	1.02e-05	0	39	0	1229979648	60	4652
2026-01-20 10:43:44.75	340.34	22.03	-44.6	-46.7	13.8	1.83e-05	0	39	0	1241513984	60	4655
2026-01-20 10:43:46.76	340.15	21.77	-44.7	-46.8	13.6	9.10e-06	0	39	0	1251999744	60	4718
2026-01-20 10:43:48.78	339.97	21.50	-44.7	-46.8	13.6	1.94e-05	0	40	0	1263534080	60	4720
2026-01-20 10:43:50.79	339.79	21.24	-44.8	-46.9	13.5	1.71e-05	0	40	0	1275068416	60	4765
2026-01-20 10:43:52.81	339.62	20.98	-44.8	-46.9	13.4	1.37e-05	0	39	0	1286602752	60	4802
2026-01-20 10:43:54.83	339.44	20.72	-44.9	-47.1	13.3	3.89e-05	0	39	0	1298137088	60	4894
2026-01-20 10:43:56.84	339.28	20.47	-45.0	-47.2	13.2	2.74e-05	0	39	0	1309671424	60	4933
2026-01-20 10:43:58.86	339.11	20.22	-45.0	-47.3	13.1	5.83e-05	0	40	0	1320157184	60	4992
2026-01-20 10:44:00.85	338.95	19.97	-45.1	-47.4	12.9	6.52e-05	0	39	0	1331691520	60	5083
2026-01-20 10:44:02.87	338.79	19.72	-45.2	-47.5	12.8	7.32e-05	0	39	0	1343225856	60	5149
2026-01-20 10:44:04.89	338.63	19.48	-45.4	-47.8	12.6	1.42e-04	0	40	0	1353711616	61	4994
2026-01-20 10:44:06.90	338.48	19.23	-45.4	-47.8	12.5	1.37e-04	0	39	0	1366294528	61	5040
2026-01-20 10:44:08.91	338.32	18.99	-45.4	-47.8	12.6	1.92e-04	0	39	0	1376780288	61	4993
2026-01-20 10:44:10.93	338.17	18.75	-45.4	-47.8	12.5	1.68e-04	0	39	0	1388314624	61	5030
2026-01-20 10:44:12.95	338.02	18.52	-45.5	-47.9	12.4	2.00e-04	0	39	0	1399848960	61	5076
2026-01-20 10:44:14.96	337.88	18.28	-45.4	-47.8	12.5	1.58e-04	0	39	0	1411383296	61	5005
2026-01-20 10:44:16.98	337.74	18.05	-45.5	-47.9	12.4	1.97e-04	0	40	0	1421869056	61	5068
2026-01-20 10:44:18.99	337.60	17.82	-45.5	-47.9	12.4	2.15e-04	0	40	0	1433403392	61	5098
2026-01-20 10:44:21.01	337.46	17.59	-45.5	-47.9	12.4	2.45e-04	0	40	0	1444937728	61	5097
2026-01-20 10:44:23.03	337.32	17.36	-45.6	-48.1	12.2	2.91e-04	0	39	0	1456472064	61	5176
2026-01-20 10:44:25.04	337.19	17.14	-45.6	-48.1	12.1	3.18e-04	0	39	0	1468006400	61	5211
2026-01-20 10:44:27.06	337.06	16.92	-45.8	-48.5	11.8	6.51e-04	0	39	0	1479540736	62	5105
2026-01-20 10:44:29.07	336.93	16.69	-45.8	-48.5	11.7	6.80e-04	0	40	0	1490026496	62	5151
2026-01-20 10:44:31.09	336.80	16.47	-45.8	-48.6	11.8	8.06e-04	0	39	0	1501560832	62	5167
2026-01-20 10:44:33.11	336.67	16.26	-45.8	-48.6	11.8	7.49e-04	0	39	0	1513095168	62	5167
2026-01-20 10:44:35.12	336.55	16.04	-45.8	-48.5	11.8	7.16e-04	0	40	0	1524629504	62	5119
2026-01-20 10:44:37.14	336.43	15.83	-45.8	-48.5	11.7	8.07e-04	0	39	0	1536163840	62	5152
2026-01-20 10:44:39.15	336.31	15.61	-45.9	-48.6	11.6	8.79e-04	0	39	0	1546649600	62	5205
2026-01-20 10:44:41.17	336.19	15.40	-45.9	-48.7	11.6	1.16e-03	0	40	0	1558183936	62	5243
2026-01-20 10:44:43.19	336.07	15.19	-45.9	-48.6	11.6	9.23e-04	0	39	0	1569718272	62	5185
2026-01-20 10:44:45.20	335.95	14.99	-45.9	-48.6	11.6	9.81e-04	0	39	0	1581252608	62	5194
2026-01-20 10:44:47.22	335.84	14.78	-45.9	-48.6	11.6	1.02e-03	0	39	0	1592786944	62	5199
2026-01-20 10:44:49.24	335.73	14.58	-46.0	-48.7	11.5	1.14e-03	0	39	0	1604321280	62	5278
2026-01-20 10:44:51.26	335.62	14.37	-46.0	-48.8	11.4	1.22e-03	0	39	0	1614807040	62	5300
2026-01-20 10:44:53.28	335.51	14.17	-46.0	-48.8	11.4	1.34e-03	0	39	0	1626341376	62	5336
2026-01-20 10:44:55.29	335.40	13.97	-46.1	-48.9	11.3	1.66e-03	0	40	0	1637875712	62	5369
2026-01-20 10:44:57.31	335.30	13.78	-46.1	-49.0	11.3	2.00e-03	0	39	0	1649410048	62	5409
2026-01-20 10:44:59.32	335.19	13.58	-46.2	-49.2	11.0	2.02e-03	0	39	0	1660944384	62	5531
2026-01-20 10:45:01.34	335.09	13.38	-46.2	-49.1	11.1	2.27e-03	0	39	0	1672478720	63	5210
2026-01-20 10:45:03.35	334.99	13.19	-46.2	-49.2	11.0	2.47e-03	0	39	0	1682964480	63	5224
2026-01-20 10:45:05.37	334.89	13.00	-46.3	-49.3	10.8	3.06e-03	0	39	0	1694498816	63	5335
2026-01-20 10:45:07.39	334.79	12.81	-46.3	-49.3	10.9	2.96e-03	0	39	0	1706033152	63	5328
2026-01-20 10:45:09.40	334.70	12.62	-46.4	-49.6	10.6	3.88e-03	0	39	0	1717567488	63	5466
2026-01-20 10:45:11.42	334.60	12.43	-46.5	-49.7	10.5	5.03e-03	0	39	0	1729101824	63	5533
2026-01-20 10:45:13.44	334.51	12.24	-46.4	-49.5	10.6	4.52e-03	0	39	0	1739587584	63	5462
2026-01-20 10:45:15.45	334.41	12.06	-46.5	-49.6	10.5	5.19e-03	0	39	0	1751121920	63	5525
2026-01-20 10:45:17.46	334.32	11.88	-46.5	-49.7	10.5	5.80e-03	0	40	0	1762656256	63	5538
2026-01-20 10:45:19.48	334.23	11.69	-46.5	-49.7	10.4	5.55e-03	0	39	0	1774190592	63	5566
2026-01-20 10:45:21.49	334.14	11.51	-46.6	-49.9	10.2	6.52e-03	0	39	0	1784676352	63	5677
2026-01-20 10:45:23.51	334.05	11.33	-46.5	-49.7	10.4	6.05e-03	0	39	0	1797259264	63	5581
2026-01-20 10:45:25.52	333.97	11.15	-46.6	-49.9	10.3	7.10e-03	0	39	0	1807745024	63	5658
2026-01-20 10:45:27.54	333.88	10.98	-46.7	-50.2	9.8	1.11e-02	0	40	0	1819279360	64	5550
2026-01-20 10:45:29.55	333.80	10.80	-46.6	-50.1	9.9	7.99e-03	0	39	0	1830813696	64	5469
2026-01-20 10:45:31.57	333.71	10.62	-46.6	-50.0	10.0	8.95e-03	0	39	0	1842348032	64	5441
2026-01-20 10:45:33.58	333.63	10.45	-46.6	-49.9	10.1	9.31e-03	0	39	0	1852833792	64	5378
2026-01-20 10:45:35.60	333.55	10.28	-46.6	-50.0	10.0	9.04e-03	0	39	0	1865416704	64	5414
2026-01-20 10:45:37.61	333.47	10.11	-46.6	-50.0	10.0	1.01e-02	0	39	0	1875902464	64	5453
2026-01-20 10:45:39.63	333.39	9.94	-46.6	-50.1	9.9	1.11e-02	0	39	0	1887436800	64	5476
2026-01-20 10:45:41.65	333.31	9.77	-46.6	-50.1	9.9	1.25e-02	0	39	0	1898971136	64	5490
2026-01-20 10:45:43.66	333.24	9.60	-46.6	-50.0	10.0	1.14e-02	0	40	0	1909456896	64	5461
2026-01-20 10:45:45.67	333.16	9.43	-46.6	-50.1	9.9	1.27e-02	0	39	0	1920991232	64	5487
2026-01-20 10:45:47.69	333.08	9.26	-46.7	-50.2	9.8	1.21e-02	0	39	0	1932525568	64	5567
2026-01-20 10:45:49.71	333.01	9.10	-46.7	-50.2	9.7	1.31e-02	0	39	0	1944059904	64	5584
2026-01-20 10:45:51.72	332.94	8.94	-46.7	-50.3	9.6	1.57e-02	0	39	0	1955594240	64	5637
2026-01-20 10:45:53.74	332.86	8.77	-46.7	-50.2	9.7	1.79e-02	0	40	0	1967128576	64	5582
2026-01-20 10:45:55.75	332.79	8.61	-46.7	-50.2	9.7	1.37e-02	0	39	0	1977614336	64	5577
2026-01-20 10:45:57.77	332.72	8.45	-46.7	-50.3	9.6	1.35e-02	0	39	0	1989148672	64	5646
2026-01-20 10:45:59.78	332.65	8.29	-46.8	-50.5	9.4	1.93e-02	0	40	0	2000683008	64	5754
2026-01-20 10:46:01.79	332.58	8.13	-46.8	-50.4	9.5	1.98e-02	0	39	0	2012217344	64	5697
2026-01-20 10:46:03.80	332.51	7.97	-46.8	-50.5	9.4	2.15e-02	0	40	0	2023751680	64	5756
2026-01-20 10:46:05.82	332.45	7.81	-46.7	-50.3	9.6	1.49e-02	0	40	0	2035286016	64	5655
2026-01-20 10:46:07.83	332.38	7.66	-46.8	-50.5	9.5	1.78e-02	0	39	0	2045771776	64	5730
2026-01-20 10:46:09.85	332.32	7.50	-46.8	-50.4	9.5	2.05e-02	0	39	0	2057306112	64	5688
2026-01-20 10:46:11.86	332.25	7.35	-46.9	-50.6	9.3	2.35e-02	0	39	0	2068840448	64	5847
2026-01-20 10:46:13.87	332.19	7.20	-46.9	-50.7	9.2	2.38e-02	0	39	0	2079326208	64	5889
2026-01-20 10:46:15.89	332.12	7.04	-47.0	-50.9	9.0	2.68e-02	0	39	0	2090860544	64	5999
2026-01-20 10:46:17.90	332.06	6.89	-46.8	-50.5	9.4	2.13e-02	0	39	0	2102394880	64	5734
2026-01-20 10:46:19.92	332.00	6.74	-46.9	-50.7	9.1	2.73e-02	0	39	0	2113929216	64	5909
2026-01-20 10:46:21.93	331.94	6.59	-47.0	-50.8	9.0	2.95e-02	0	40	0	2125463552	64	5987
2026-01-20 10:46:23.95	331.88	6.44	-47.0	-50.9	9.0	2.87e-02	0	39	0	2136997888	64	6009
2026-01-20 10:46:25.97	331.82	6.29	-47.0	-50.8	9.0	3.36e-02	0	40	0	2147483648	64	5969
2026-01-20 10:46:27.98	331.76	6.14	-46.9	-50.8	9.1	2.54e-02	0	40	0	2159017984	64	5935
2026-01-20 10:46:30.00	331.70	6.00	-46.9	-50.8	9.1	2.75e-02	0	40	0	2170552320	64	5939
2026-01-20 10:46:32.01	331.64	5.85	-47.1	-51.2	8.6	3.72e-02	0	40	0	2182086656	64	6235
2026-01-20 10:46:34.03	331.58	5.71	-47.1	-51.2	8.6	5.08e-02	0	40	0	2193620992	64	6251
2026-01-20 10:46:36.04	331.53	5.56	-47.1	-51.2	8.6	4.96e-02	0	40	0	2205155328	64	6244
2026-01-20 10:46:38.06	331.47	5.42	-47.1	-51.1	8.7	4.47e-02	0	40	0	2215641088	64	6193
2026-01-20 10:46:40.08	331.42	5.27	-47.1	-51.1	8.7	4.35e-02	0	40	0	2227175424	65	5846
2026-01-20 10:46:42.09	331.36	5.13	-47.3	-51.5	8.3	5.94e-02	0	39	0	2238709760	65	6103
2026-01-20 10:46:44.11	331.31	4.99	-49.4	-60.9	3.8	8.37e-01	0	39	104	2248146944	69	14362
2026-01-20 10:46:46.13	331.25	4.85	-49.6	-61.4	3.8	8.45e-01	0	40	104	2248146944	69	15206
2026-01-20 10:46:48.14	331.20	4.71	-49.7	-61.5	3.8	8.47e-01	0	39	104	2248146944	69	15392
2026-01-20 10:46:50.16	331.15	4.57	-49.8	-61.6	3.8	8.46e-01	0	39	104	2248146944	70	14654
2026-01-20 10:46:52.18	331.10	4.43	-49.9	-61.7	3.8	8.46e-01	0	39	104	2248146944	70	14873
2026-01-20 10:46:54.19	331.05	4.29	-49.9	-61.8	3.8	8.46e-01	0	39	104	2248146944	70	14930
2026-01-20 10:46:56.21	331.00	4.15	-50.0	-61.8	3.8	8.46e-01	0	39	104	2248146944	70	14999
2026-01-20 10:46:58.22	330.95	4.02	-50.0	-61.9	3.8	8.45e-01	0	40	104	2248146944	70	15123
2026-01-20 10:47:00.24	330.90	3.88	-50.1	-61.9	3.8	8.46e-01	0	40	104	2248146944	70	15153
2026-01-20 10:47:02.26	330.85	3.75	-50.1	-61.9	3.8	8.47e-01	0	39	104	2248146944	70	15224
2026-01-20 10:47:04.27	330.80	3.61	-50.1	-62.0	3.8	8.46e-01	0	39	104	2248146944	70	15250
2026-01-20 10:47:06.29	330.75	3.48	-50.1	-61.9	3.8	8.46e-01	0	40	104	2248146944	70	15174
2026-01-20 10:47:08.31	330.70	3.34	-50.0	-61.9	3.8	8.46e-01	0	39	104	2248146944	70	15110
2026-01-20 10:47:10.32	330.66	3.21	-50.0	-61.8	3.8	8.46e-01	0	39	104	2248146944	70	15051
2026-01-20 10:47:12.34	330.61	3.08	-50.0	-61.9	3.8	8.47e-01	0	39	104	2248146944	70	15071
2026-01-20 10:47:14.35	330.57	2.95	-50.0	-61.9	3.8	8.45e-01	0	40	104	2248146944	70	15077
2026-01-20 10:47:16.37	330.52	2.82	-50.0	-61.8	3.8	8.46e-01	0	40	104	2248146944	70	15014
2026-01-20 10:47:18.39	330.47	2.68	-50.0	-61.8	3.8	8.46e-01	0	40	104	2248146944	70	15038
2026-01-20 10:47:20.40	330.43	2.56	-50.0	-61.8	3.8	8.47e-01	0	40	104	2248146944	70	15033
2026-01-20 10:47:22.42	330.39	2.43	-50.0	-61.8	3.8	8.46e-01	0	39	104	2248146944	70	14989
2026-01-20 10:47:24.43	330.34	2.30	-49.9	-61.8	3.8	8.45e-01	0	39	104	2248146944	70	14970
2026-01-20 10:47:26.45	330.30	2.17	-49.9	-61.8	3.8	8.46e-01	0	40	104	2248146944	70	14995
2026-01-20 10:47:28.46	330.26	2.04	-49.9	-61.8	3.8	8.46e-01	0	40	104	2248146944	70	14941

#Closed at: 2026-01-20 10:47:29
#Recorded file [2248 MB]: D:/lorett/data/31041_260120_133906.dat