passes_logs/2026/01/20/R3.2S_Murmansk/R3.2S_Murmansk__20260120_013829_NOAA_20_JPSS-1_rec.log

#Pass ID: 20260120_013829_NOAA 20 (JPSS-1)
#Satellite: NOAA 20 (JPSS-1)
#Configuration: NOAA 20
#almurnet v.1.7.20251203
#Start time: 2026-01-20 01:38:29

#Version: 2.2.20231116
#Station: R3.2S_Murmansk
#Location: 33.079688 lon 68.888172 lat
#TLE: 1 43013U 17073A   26019.27717929  .00000087  00000+0  62288-4 0  9995
#TLE: 2 43013  98.7641 320.1715 0001339  33.1986 326.9274 14.19537047423343

#Time	Az	El	Level	Level2	SNR	BER	BlckErr	Temp	State	Recorded	gain1	gain2
2026-01-20 01:38:29.47	28.76	2.00	-51.6	-66.5	3.8	1.49e+00	0	37	0	0	75	19302
2026-01-20 01:38:33.49	28.68	2.25	-51.5	-66.2	3.8	1.49e+00	0	37	104	0	73	20984
2026-01-20 01:38:37.52	28.60	2.51	-51.5	-65.6	3.8	1.49e+00	0	37	104	0	73	19582
2026-01-20 01:38:41.55	28.51	2.77	-51.5	-64.5	3.8	1.49e+00	0	37	104	0	73	17124
2026-01-20 01:38:45.58	28.43	3.03	-51.5	-65.4	3.8	1.49e+00	0	37	104	0	73	19081
2026-01-20 01:38:49.62	28.34	3.30	-51.2	-61.4	4.7	1.12e+00	0	38	0	1048576	73	12053
2026-01-20 01:38:53.65	28.25	3.57	-50.2	-55.9	9.3	3.72e-02	0	38	0	8388608	72	6750
2026-01-20 01:38:57.68	28.15	3.83	-49.6	-54.0	11.4	1.61e-03	0	38	0	15728640	71	5746
2026-01-20 01:39:01.70	28.06	4.11	-49.8	-54.7	10.6	3.05e-03	0	38	0	23068672	70	6634
2026-01-20 01:39:05.73	27.96	4.38	-50.3	-56.2	9.1	1.96e-02	0	38	0	30408704	71	7429
2026-01-20 01:39:09.77	27.86	4.66	-50.9	-59.1	6.2	2.44e-01	0	38	0	38797312	72	9826
2026-01-20 01:39:13.79	27.76	4.94	-51.2	-61.2	4.8	6.99e-01	0	38	0	46137344	72	12491
2026-01-20 01:39:17.83	27.66	5.22	-51.3	-64.3	3.8	1.03e+00	0	38	104	52428800	73	16810
2026-01-20 01:39:21.86	27.55	5.51	-50.8	-56.9	8.8	3.11e-02	0	38	0	54525952	73	7183
2026-01-20 01:39:25.89	27.45	5.80	-50.0	-54.1	11.9	1.03e-03	0	38	0	62914560	72	5527
2026-01-20 01:39:29.92	27.33	6.09	-49.4	-52.7	13.5	5.64e-05	0	38	0	70254592	70	5278
2026-01-20 01:39:33.95	27.22	6.39	-48.9	-51.8	14.5	7.00e-07	0	38	0	77594624	68	5333
2026-01-20 01:39:37.98	27.10	6.69	-47.9	-50.1	16.3	0.00e+00	0	38	0	84934656	67	4642
2026-01-20 01:39:42.01	26.99	6.99	-47.1	-49.0	17.5	0.00e+00	0	38	0	92274688	66	4335
2026-01-20 01:39:46.05	26.86	7.30	-47.0	-48.8	17.7	0.00e+00	0	38	0	99614720	65	4489
2026-01-20 01:39:50.08	26.74	7.61	-47.0	-48.8	17.7	0.00e+00	0	38	0	108003328	65	4490
2026-01-20 01:39:54.11	26.61	7.92	-46.9	-48.8	17.8	0.00e+00	0	38	0	115343360	65	4445
2026-01-20 01:39:58.14	26.48	8.24	-47.1	-49.0	17.6	0.00e+00	0	38	0	122683392	65	4561
2026-01-20 01:40:02.17	26.35	8.56	-47.3	-49.3	17.3	0.00e+00	0	38	0	130023424	65	4707
2026-01-20 01:40:06.20	26.21	8.88	-46.6	-48.3	18.3	0.00e+00	0	38	0	138412032	65	4217
2026-01-20 01:40:10.24	26.07	9.21	-46.6	-48.3	18.4	0.00e+00	0	38	0	145752064	64	4456
2026-01-20 01:40:14.26	25.92	9.54	-46.5	-48.2	18.5	0.00e+00	0	38	0	153092096	64	4413
2026-01-20 01:40:18.30	25.78	9.88	-46.5	-48.1	18.6	0.00e+00	0	38	0	160432128	64	4391
2026-01-20 01:40:22.33	25.62	10.22	-46.5	-48.1	18.6	0.00e+00	0	38	0	167772160	64	4367
2026-01-20 01:40:26.36	25.47	10.57	-46.5	-48.1	18.6	0.00e+00	0	38	0	176160768	64	4383
2026-01-20 01:40:30.39	25.31	10.92	-46.4	-48.0	18.8	0.00e+00	0	38	0	183500800	64	4295
2026-01-20 01:40:34.42	25.14	11.28	-46.5	-48.1	18.7	0.00e+00	0	38	0	190840832	64	4378
2026-01-20 01:40:38.45	24.97	11.64	-46.4	-48.0	18.8	0.00e+00	0	39	0	198180864	64	4303
2026-01-20 01:40:42.48	24.80	12.00	-46.2	-47.8	19.1	0.00e+00	0	39	0	205520896	64	4203
2026-01-20 01:40:46.51	24.62	12.38	-46.2	-47.7	19.1	0.00e+00	0	39	0	213909504	64	4185
2026-01-20 01:40:50.55	24.44	12.75	-46.2	-47.8	19.1	0.00e+00	0	39	0	221249536	64	4211
2026-01-20 01:40:54.58	24.25	13.13	-46.3	-47.8	19.0	0.00e+00	0	39	0	228589568	64	4234
2026-01-20 01:40:58.61	24.05	13.52	-46.3	-47.9	19.0	0.00e+00	0	38	0	235929600	64	4273
2026-01-20 01:41:02.64	23.85	13.92	-46.3	-47.9	19.1	0.00e+00	0	39	0	243269632	64	4249
2026-01-20 01:41:06.67	23.65	14.32	-46.2	-47.7	19.2	0.00e+00	0	39	0	251658240	64	4187
2026-01-20 01:41:10.70	23.44	14.72	-46.1	-47.6	19.3	0.00e+00	0	39	0	258998272	64	4123
2026-01-20 01:41:14.73	23.22	15.13	-46.0	-47.5	19.5	0.00e+00	0	39	0	266338304	64	4070
2026-01-20 01:41:18.76	22.99	15.55	-46.1	-47.5	19.6	0.00e+00	0	39	0	273678336	63	4314
2026-01-20 01:41:22.79	22.76	15.98	-46.1	-47.6	19.5	0.00e+00	0	39	0	282066944	63	4347
2026-01-20 01:41:26.82	22.52	16.41	-46.1	-47.6	19.6	0.00e+00	0	39	0	289406976	63	4344
2026-01-20 01:41:30.85	22.28	16.85	-46.0	-47.5	19.6	0.00e+00	0	39	0	296747008	63	4303
2026-01-20 01:41:34.89	22.02	17.30	-46.2	-47.7	19.5	0.00e+00	0	39	0	304087040	63	4395
2026-01-20 01:41:38.92	21.76	17.76	-46.1	-47.6	19.5	0.00e+00	0	39	0	311427072	63	4360
2026-01-20 01:41:42.95	21.49	18.22	-46.1	-47.5	19.6	0.00e+00	0	39	0	318767104	63	4337
2026-01-20 01:41:46.98	21.21	18.69	-46.0	-47.5	19.7	0.00e+00	0	39	0	327155712	63	4297
2026-01-20 01:41:51.01	20.92	19.17	-46.1	-47.5	19.7	0.00e+00	0	39	0	334495744	63	4333
2026-01-20 01:41:55.04	20.62	19.66	-45.9	-47.3	19.9	0.00e+00	0	39	0	341835776	63	4213
2026-01-20 01:41:59.07	20.31	20.16	-45.9	-47.2	20.0	0.00e+00	0	38	0	349175808	63	4178
2026-01-20 01:42:03.11	19.99	20.67	-45.9	-47.2	20.0	0.00e+00	0	39	0	357564416	63	4179
2026-01-20 01:42:07.14	19.66	21.18	-45.8	-47.2	20.1	0.00e+00	0	38	0	364904448	63	4165
2026-01-20 01:42:11.17	19.32	21.71	-45.8	-47.2	20.1	0.00e+00	0	39	0	372244480	63	4163
2026-01-20 01:42:15.20	18.96	22.24	-45.9	-47.3	19.9	0.00e+00	0	39	0	379584512	63	4220
2026-01-20 01:42:19.24	18.59	22.79	-46.1	-47.4	19.9	0.00e+00	0	38	0	386924544	63	4291
2026-01-20 01:42:23.27	18.21	23.35	-46.4	-47.9	19.4	0.00e+00	0	39	0	395313152	63	4499
2026-01-20 01:42:27.30	17.81	23.91	-46.5	-48.0	19.3	0.00e+00	0	39	0	402653184	63	4567
2026-01-20 01:42:31.33	17.40	24.49	-46.9	-48.6	18.7	0.00e+00	0	39	0	409993216	64	4606
2026-01-20 01:42:35.36	16.97	25.08	-47.1	-48.8	18.5	0.00e+00	0	39	0	417333248	64	4744
2026-01-20 01:42:39.39	16.52	25.68	-47.4	-49.2	18.1	0.00e+00	0	39	0	425721856	65	4680
2026-01-20 01:42:43.42	16.06	26.29	-48.0	-49.9	17.5	0.00e+00	0	39	0	433061888	66	4777
2026-01-20 01:42:47.45	15.58	26.92	-48.3	-50.3	17.0	0.00e+00	0	39	0	440401920	67	4756
2026-01-20 01:42:51.48	15.08	27.55	-48.5	-50.7	16.7	0.00e+00	0	39	0	447741952	67	4928
2026-01-20 01:42:55.51	14.55	28.20	-48.8	-51.0	16.4	0.00e+00	0	39	0	455081984	68	4859
2026-01-20 01:42:59.55	14.00	28.87	-48.7	-51.0	16.5	0.00e+00	0	39	0	462422016	68	4817
2026-01-20 01:43:03.57	13.44	29.54	-48.7	-50.8	16.7	0.00e+00	0	39	0	470810624	68	4757
2026-01-20 01:43:07.61	12.84	30.23	-48.4	-50.4	17.1	0.00e+00	0	39	0	478150656	68	4534
2026-01-20 01:43:11.64	12.22	30.93	-48.4	-50.5	17.0	0.00e+00	0	39	0	485490688	68	4564
2026-01-20 01:43:15.67	11.57	31.64	-48.5	-50.6	16.9	0.00e+00	0	39	0	492830720	68	4616
2026-01-20 01:43:19.70	10.89	32.37	-48.2	-50.2	17.4	0.00e+00	0	39	0	501219328	68	4397
2026-01-20 01:43:23.73	10.17	33.11	-48.4	-50.5	17.1	0.00e+00	0	39	0	508559360	68	4550
2026-01-20 01:43:27.76	9.43	33.86	-48.6	-50.7	16.9	0.00e+00	0	39	0	515899392	68	4685
2026-01-20 01:43:31.79	8.64	34.63	-49.0	-51.3	16.2	0.00e+00	0	39	0	523239424	68	5020
2026-01-20 01:43:35.82	7.82	35.40	-49.2	-51.6	16.0	0.00e+00	0	39	0	530579456	69	4915
2026-01-20 01:43:39.85	6.96	36.20	-49.5	-52.0	15.6	0.00e+00	0	39	0	538968064	69	5153
2026-01-20 01:43:43.89	6.05	37.00	-49.7	-52.3	15.3	0.00e+00	0	39	0	546308096	69	5339
2026-01-20 01:43:47.92	5.09	37.81	-49.6	-52.1	15.5	0.00e+00	0	39	0	553648128	70	4918
2026-01-20 01:43:51.95	4.09	38.64	-49.7	-52.3	15.4	0.00e+00	0	39	0	560988160	70	5003
2026-01-20 01:43:55.98	3.03	39.47	-50.0	-52.8	14.9	0.00e+00	0	39	0	569376768	70	5282
2026-01-20 01:44:00.02	1.92	40.31	-49.7	-52.4	15.3	0.00e+00	0	39	0	576716800	70	5055
2026-01-20 01:44:04.05	0.74	41.16	-49.8	-52.5	15.2	0.00e+00	0	39	0	584056832	70	5126
2026-01-20 01:44:08.08	359.51	42.02	-49.1	-51.4	16.3	0.00e+00	0	39	0	591396864	70	4524
2026-01-20 01:44:12.11	358.20	42.87	-48.6	-50.6	17.2	0.00e+00	0	39	0	598736896	69	4365
2026-01-20 01:44:16.15	356.82	43.73	-48.3	-50.2	17.6	0.00e+00	0	39	0	606076928	68	4409
2026-01-20 01:44:20.18	355.36	44.59	-48.8	-50.9	16.8	0.00e+00	0	39	0	614465536	68	4796
2026-01-20 01:44:24.21	353.82	45.45	-48.8	-50.9	16.9	0.00e+00	0	39	0	621805568	68	4779
2026-01-20 01:44:28.24	352.20	46.30	-48.5	-50.5	17.3	0.00e+00	0	39	0	629145600	68	4548
2026-01-20 01:44:32.27	350.49	47.14	-48.9	-51.1	16.7	0.00e+00	0	39	0	636485632	68	4878
2026-01-20 01:44:36.30	348.68	47.97	-49.3	-51.7	16.1	0.00e+00	0	39	0	644874240	69	4929
2026-01-20 01:44:40.34	346.77	48.78	-48.9	-51.1	16.7	0.00e+00	0	39	0	652214272	69	4612
2026-01-20 01:44:44.37	344.76	49.57	-48.6	-50.7	17.1	0.00e+00	0	39	0	659554304	69	4397
2026-01-20 01:44:48.40	342.64	50.33	-47.4	-49.1	18.6	0.00e+00	0	39	0	666894336	66	4345
2026-01-20 01:44:52.43	340.42	51.06	-46.2	-47.6	20.1	0.00e+00	0	39	0	674234368	64	4103
2026-01-20 01:44:56.46	338.09	51.75	-45.9	-47.2	20.6	0.00e+00	0	39	0	682622976	63	4153
2026-01-20 01:45:00.49	335.65	52.40	-46.1	-47.5	20.3	0.00e+00	0	39	0	689963008	63	4293
2026-01-20 01:45:04.52	333.10	53.00	-47.1	-48.6	19.0	0.00e+00	0	39	0	697303040	64	4649
2026-01-20 01:45:08.55	330.45	53.55	-47.2	-48.8	19.0	0.00e+00	0	39	0	704643072	65	4462
2026-01-20 01:45:12.58	327.71	54.04	-45.9	-47.2	20.5	0.00e+00	0	39	0	711983104	63	4174
2026-01-20 01:45:16.61	324.87	54.46	-46.0	-47.3	20.5	0.00e+00	0	39	0	720371712	63	4216
2026-01-20 01:45:20.64	321.96	54.82	-46.0	-47.3	20.5	0.00e+00	0	39	0	727711744	63	4227
2026-01-20 01:45:24.68	318.97	55.10	-44.7	-45.8	21.9	0.00e+00	0	39	0	735051776	61	3965
2026-01-20 01:45:28.71	315.94	55.30	-44.3	-45.4	22.2	0.00e+00	0	39	0	742391808	60	4011
2026-01-20 01:45:32.74	312.87	55.42	-44.3	-45.4	22.3	0.00e+00	0	39	0	749731840	60	4024
2026-01-20 01:45:36.77	309.79	55.46	-44.7	-45.8	21.8	0.00e+00	0	39	0	758120448	60	4231
2026-01-20 01:45:40.80	306.70	55.42	-45.1	-46.3	21.5	0.00e+00	0	39	0	765460480	60	4444
2026-01-20 01:45:44.83	303.63	55.30	-45.2	-46.4	21.4	0.00e+00	0	39	0	772800512	61	4277
2026-01-20 01:45:48.87	300.59	55.10	-44.5	-45.6	22.1	0.00e+00	0	39	0	780140544	61	3874
2026-01-20 01:45:52.90	297.61	54.82	-44.2	-45.3	22.6	0.00e+00	0	39	0	788529152	59	4198
2026-01-20 01:45:56.93	294.70	54.46	-43.9	-44.9	22.9	0.00e+00	0	39	0	795869184	59	4048
2026-01-20 01:46:00.96	291.86	54.04	-44.5	-45.6	22.3	0.00e+00	0	39	0	803209216	59	4352
2026-01-20 01:46:04.99	289.11	53.55	-44.8	-46.0	21.7	0.00e+00	0	39	0	810549248	60	4295
2026-01-20 01:46:09.02	286.46	53.00	-46.2	-47.6	20.2	0.00e+00	0	39	0	817889280	62	4602
2026-01-20 01:46:13.05	283.91	52.40	-46.3	-47.6	20.1	0.00e+00	0	39	0	825229312	64	4125
2026-01-20 01:46:17.08	281.47	51.75	-46.9	-48.4	19.3	0.00e+00	0	39	0	833617920	64	4530
2026-01-20 01:46:21.11	279.13	51.06	-46.5	-48.0	19.8	0.00e+00	0	39	0	840957952	64	4304
2026-01-20 01:46:25.14	276.91	50.32	-47.8	-49.6	18.1	0.00e+00	0	39	0	848297984	66	4629
2026-01-20 01:46:29.18	274.78	49.56	-47.5	-49.1	18.6	0.00e+00	0	39	0	855638016	66	4377
2026-01-20 01:46:33.21	272.77	48.77	-49.8	-52.4	15.5	0.00e+00	0	39	0	864026624	70	5042
2026-01-20 01:46:37.24	270.86	47.96	-49.8	-52.4	15.4	0.00e+00	0	39	0	871366656	70	5099
2026-01-20 01:46:41.27	269.05	47.13	-50.7	-54.0	13.7	1.06e-05	0	39	0	878706688	72	5428
2026-01-20 01:46:45.30	267.33	46.29	-49.9	-52.6	15.3	0.00e+00	0	39	0	886046720	71	4871
2026-01-20 01:46:49.33	265.70	45.44	-50.0	-52.8	15.0	0.00e+00	0	39	0	893386752	71	5002
2026-01-20 01:46:53.37	264.16	44.58	-48.8	-50.9	16.9	0.00e+00	0	39	0	901775360	69	4512
2026-01-20 01:46:57.40	262.70	43.72	-49.2	-51.5	16.3	0.00e+00	0	39	0	909115392	69	4837
2026-01-20 01:47:01.43	261.32	42.86	-48.5	-50.5	17.2	0.00e+00	0	39	0	916455424	69	4335
2026-01-20 01:47:05.47	260.01	41.99	-49.5	-52.0	15.9	0.00e+00	0	39	0	923795456	69	5122
2026-01-20 01:47:09.50	258.77	41.14	-49.7	-52.2	15.6	0.00e+00	0	39	0	932184064	70	4960
2026-01-20 01:47:13.53	257.59	40.29	-50.0	-52.7	15.0	0.00e+00	0	39	0	939524096	70	5277
2026-01-20 01:47:17.56	256.48	39.44	-49.7	-52.3	15.5	0.00e+00	0	39	0	946864128	70	4984
2026-01-20 01:47:21.59	255.42	38.61	-50.0	-52.8	15.0	0.00e+00	0	39	0	954204160	70	5286
2026-01-20 01:47:25.62	254.41	37.78	-49.4	-51.8	16.0	0.00e+00	0	39	0	961544192	70	4710
2026-01-20 01:47:29.65	253.46	36.97	-49.2	-51.5	16.2	0.00e+00	0	39	0	968884224	69	4834
2026-01-20 01:47:33.69	252.55	36.16	-49.4	-51.9	15.8	0.00e+00	0	39	0	977272832	69	5049
2026-01-20 01:47:37.72	251.68	35.37	-48.6	-50.6	17.1	0.00e+00	0	39	0	984612864	68	4614
2026-01-20 01:47:41.75	250.86	34.59	-49.1	-51.4	16.3	0.00e+00	0	39	0	991952896	68	5060
2026-01-20 01:47:45.78	250.07	33.82	-48.9	-51.0	16.6	0.00e+00	0	39	0	999292928	69	4595
2026-01-20 01:47:49.81	249.32	33.07	-49.1	-51.4	16.3	0.00e+00	0	39	0	1007681536	69	4777
2026-01-20 01:47:53.84	248.61	32.33	-48.9	-51.1	16.6	0.00e+00	0	39	0	1015021568	69	4617
2026-01-20 01:47:57.87	247.93	31.60	-49.1	-51.4	16.2	0.00e+00	0	39	0	1022361600	69	4792
2026-01-20 01:48:01.91	247.27	30.88	-49.1	-51.4	16.2	0.00e+00	0	39	0	1029701632	69	4814
2026-01-20 01:48:05.94	246.65	30.18	-48.9	-51.1	16.6	0.00e+00	0	39	0	1037041664	69	4608
2026-01-20 01:48:09.97	246.05	29.49	-48.3	-50.3	17.3	0.00e+00	0	39	0	1045430272	68	4460
2026-01-20 01:48:14.00	245.48	28.81	-48.1	-50.0	17.6	0.00e+00	0	39	0	1052770304	68	4336
2026-01-20 01:48:18.03	244.93	28.15	-48.1	-50.0	17.6	0.00e+00	0	39	0	1060110336	68	4315
2026-01-20 01:48:22.06	244.41	27.50	-47.7	-49.5	18.0	0.00e+00	0	39	0	1067450368	67	4310
2026-01-20 01:48:26.09	243.90	26.86	-47.7	-49.5	17.9	0.00e+00	0	39	0	1074790400	67	4323
2026-01-20 01:48:30.12	243.42	26.24	-47.8	-49.7	17.8	0.00e+00	0	39	0	1083179008	67	4395
2026-01-20 01:48:34.15	242.95	25.62	-47.8	-49.6	17.8	0.00e+00	0	39	0	1090519040	67	4380
2026-01-20 01:48:38.19	242.51	25.02	-47.6	-49.4	18.1	0.00e+00	0	39	0	1097859072	67	4245
2026-01-20 01:48:42.22	242.08	24.43	-47.4	-49.1	18.3	0.00e+00	0	39	0	1105199104	66	4349
2026-01-20 01:48:46.25	241.66	23.85	-46.9	-48.4	18.9	0.00e+00	0	39	0	1112539136	65	4286
2026-01-20 01:48:50.28	241.26	23.28	-47.0	-48.6	18.8	0.00e+00	0	39	0	1120927744	65	4350
2026-01-20 01:48:54.31	240.88	22.72	-47.3	-49.0	18.4	0.00e+00	0	39	0	1128267776	65	4560
2026-01-20 01:48:58.34	240.51	22.18	-47.2	-48.9	18.4	0.00e+00	0	39	0	1135607808	65	4523
2026-01-20 01:49:02.37	240.15	21.64	-47.2	-48.9	18.4	0.00e+00	0	39	0	1142947840	65	4502
2026-01-20 01:49:06.41	239.80	21.11	-47.4	-49.1	18.2	0.00e+00	0	39	0	1151336448	65	4622
2026-01-20 01:49:10.43	239.47	20.60	-47.5	-49.3	18.0	0.00e+00	0	39	0	1158676480	65	4722
2026-01-20 01:49:14.47	239.15	20.09	-47.5	-49.3	17.9	0.00e+00	0	39	0	1166016512	65	4750
2026-01-20 01:49:18.50	238.84	19.59	-47.2	-48.9	18.3	0.00e+00	0	39	0	1173356544	65	4521
2026-01-20 01:49:22.53	238.54	19.10	-46.8	-48.4	18.8	0.00e+00	0	39	0	1180696576	65	4279
2026-01-20 01:49:26.56	238.25	18.62	-47.0	-48.6	18.6	0.00e+00	0	39	0	1188036608	65	4375
2026-01-20 01:49:30.59	237.97	18.15	-47.2	-48.9	18.3	0.00e+00	0	39	0	1196425216	65	4509
2026-01-20 01:49:34.62	237.69	17.68	-47.2	-48.9	18.3	0.00e+00	0	39	0	1203765248	65	4519
2026-01-20 01:49:38.65	237.43	17.23	-47.1	-48.8	18.4	0.00e+00	0	39	0	1211105280	65	4459
2026-01-20 01:49:42.69	237.17	16.78	-47.4	-49.2	17.9	0.00e+00	0	39	0	1218445312	65	4705
2026-01-20 01:49:46.72	236.92	16.34	-47.7	-49.6	17.5	0.00e+00	0	39	0	1226833920	65	4916
2026-01-20 01:49:50.75	236.68	15.90	-47.8	-49.8	17.4	0.00e+00	0	39	0	1234173952	66	4716
2026-01-20 01:49:54.78	236.45	15.47	-47.7	-49.7	17.5	0.00e+00	0	39	0	1241513984	66	4656
2026-01-20 01:49:58.81	236.22	15.05	-47.5	-49.3	17.8	0.00e+00	0	39	0	1248854016	66	4485
2026-01-20 01:50:02.85	236.00	14.64	-47.5	-49.3	17.8	0.00e+00	0	39	0	1256194048	66	4467
2026-01-20 01:50:06.88	235.79	14.23	-47.6	-49.5	17.6	0.00e+00	0	39	0	1264582656	66	4572
2026-01-20 01:50:10.91	235.58	13.83	-47.8	-49.8	17.3	0.00e+00	0	39	0	1271922688	66	4728
2026-01-20 01:50:14.94	235.38	13.44	-47.7	-49.7	17.4	0.00e+00	0	39	0	1279262720	66	4660
2026-01-20 01:50:18.97	235.18	13.05	-47.7	-49.6	17.4	0.00e+00	0	39	0	1286602752	66	4646
2026-01-20 01:50:23.01	234.99	12.67	-47.7	-49.6	17.4	0.00e+00	0	39	0	1294991360	66	4629
2026-01-20 01:50:27.04	234.81	12.29	-47.9	-50.0	17.0	0.00e+00	0	39	0	1302331392	66	4842
2026-01-20 01:50:31.07	234.63	11.92	-48.2	-50.3	16.6	0.00e+00	0	39	0	1309671424	66	5032
2026-01-20 01:50:35.10	234.45	11.55	-48.4	-50.6	16.3	0.00e+00	0	39	0	1317011456	67	4918
2026-01-20 01:50:39.13	234.28	11.19	-48.4	-50.7	16.2	0.00e+00	0	39	0	1324351488	67	4973
2026-01-20 01:50:43.16	234.11	10.83	-48.3	-50.5	16.3	0.00e+00	0	39	0	1331691520	67	4861
2026-01-20 01:50:47.20	233.95	10.48	-48.1	-50.2	16.7	0.00e+00	0	39	0	1340080128	67	4677
2026-01-20 01:50:51.23	233.79	10.13	-47.9	-50.0	16.8	0.00e+00	0	39	0	1347420160	67	4582
2026-01-20 01:50:55.26	233.64	9.79	-48.0	-50.1	16.8	0.00e+00	0	39	0	1354760192	67	4628
2026-01-20 01:50:59.29	233.49	9.45	-48.2	-50.4	16.4	0.00e+00	0	39	0	1362100224	67	4792
2026-01-20 01:51:03.32	233.34	9.12	-48.4	-50.8	16.0	0.00e+00	0	39	0	1370488832	67	5025
2026-01-20 01:51:07.35	233.20	8.79	-48.6	-51.1	15.7	0.00e+00	0	39	0	1377828864	67	5169
2026-01-20 01:51:11.38	233.06	8.47	-49.2	-52.0	14.8	0.00e+00	0	39	0	1385168896	68	5425
2026-01-20 01:51:15.41	232.92	8.15	-49.3	-52.2	14.6	0.00e+00	0	39	0	1392508928	69	5253
2026-01-20 01:51:19.44	232.79	7.83	-49.3	-52.2	14.5	1.50e-06	0	39	0	1399848960	69	5252
2026-01-20 01:51:23.47	232.66	7.51	-49.2	-52.1	14.6	3.00e-06	0	39	0	1408237568	69	5179
2026-01-20 01:51:27.51	232.53	7.20	-49.1	-52.0	14.7	0.00e+00	0	39	0	1415577600	69	5111
2026-01-20 01:51:31.54	232.41	6.90	-49.2	-52.1	14.6	2.20e-06	0	39	0	1422917632	69	5175
2026-01-20 01:51:35.57	232.29	6.59	-49.2	-52.1	14.5	7.00e-07	0	39	0	1430257664	69	5196
2026-01-20 01:51:39.60	232.17	6.29	-49.4	-52.6	14.0	2.20e-06	0	39	0	1437597696	69	5476
2026-01-20 01:51:43.64	232.05	6.00	-49.3	-52.5	14.0	4.50e-06	0	39	0	1445986304	69	5428
2026-01-20 01:51:47.67	231.94	5.70	-49.3	-52.5	13.9	8.30e-06	0	39	0	1453326336	69	5425
2026-01-20 01:51:51.71	231.83	5.41	-49.6	-53.0	13.3	1.67e-05	0	39	0	1460666368	70	5448
2026-01-20 01:51:55.74	231.72	5.13	-50.0	-53.9	12.4	7.01e-05	0	39	0	1468006400	70	6012
2026-01-20 01:51:59.77	231.61	4.84	-53.3	-68.3	3.8	1.49e+00	0	39	104	1472200704	77	21071
2026-01-20 01:52:03.80	231.51	4.56	-53.7	-68.7	3.8	1.49e+00	0	39	104	1472200704	77	22119
2026-01-20 01:52:07.83	231.41	4.28	-53.9	-68.9	3.8	1.49e+00	0	39	104	1472200704	78	21401
2026-01-20 01:52:11.86	231.31	4.01	-54.0	-69.0	3.8	1.49e+00	0	39	104	1472200704	78	21685
2026-01-20 01:52:15.89	231.21	3.74	-54.1	-69.1	3.8	1.49e+00	0	39	104	1472200704	78	21887
2026-01-20 01:52:19.93	231.11	3.47	-54.2	-69.2	3.8	1.49e+00	0	39	104	1472200704	78	22023
2026-01-20 01:52:23.96	231.02	3.20	-54.1	-69.1	3.8	1.49e+00	0	39	104	1472200704	78	21847
2026-01-20 01:52:27.99	230.93	2.93	-54.1	-69.1	3.8	1.49e+00	0	39	104	1472200704	78	21779
2026-01-20 01:52:32.02	230.84	2.67	-54.0	-69.0	3.8	1.49e+00	0	39	104	1472200704	78	21732
2026-01-20 01:52:36.05	230.75	2.41	-54.0	-69.0	3.8	1.49e+00	0	39	104	1472200704	78	21642
2026-01-20 01:52:40.09	230.67	2.15	-54.0	-69.0	3.8	1.49e+00	0	39	104	1472200704	78	21661

#Closed at: 2026-01-20 01:52:43
#Recorded file [1472 MB]: D:/lorett/data/31041_260120_043829.dat