passes_logs/2026/01/20/R3.2S_Murmansk/R3.2S_Murmansk__20260120_061627_SUOMI_NPP_rec.log

#Pass ID: 20260120_061627_SUOMI NPP
#Satellite: SUOMI NPP
#Configuration: NPP
#almurnet v.1.7.20251203
#Start time: 2026-01-20 06:16:28

#Version: 2.2.20231116
#Station: R3.2S_Murmansk
#Location: 33.079688 lon 68.888172 lat
#TLE: 1 37849U 11061A   26019.89702167  .00000121  00000+0  78274-4 0  9993
#TLE: 2 37849  98.7817 321.9035 0002338  55.0397 305.0998 14.19526700737401

#Time	Az	El	Level	Level2	SNR	BER	BlckErr	Temp	State	Recorded	gain1	gain2
2026-01-20 06:16:28.19	79.40	2.02	-51.9	-66.8	3.8	1.49e+00	0	37	0	0	75	20050
2026-01-20 06:16:32.21	79.16	2.25	-51.9	-66.9	3.8	1.49e+00	0	37	104	0	74	21274
2026-01-20 06:16:36.24	78.92	2.49	-51.9	-66.8	3.8	1.49e+00	0	37	104	0	74	21253
2026-01-20 06:16:40.28	78.67	2.73	-51.9	-66.9	3.8	1.49e+00	0	37	104	0	74	21286
2026-01-20 06:16:44.31	78.41	2.96	-51.9	-66.8	3.8	1.49e+00	0	37	104	0	74	21191
2026-01-20 06:16:48.34	78.15	3.20	-51.9	-66.9	3.8	1.49e+00	0	37	104	0	74	21290
2026-01-20 06:16:52.37	77.89	3.44	-51.9	-66.8	3.8	1.49e+00	0	37	104	0	74	21090
2026-01-20 06:16:56.41	77.62	3.69	-51.9	-66.8	3.8	1.49e+00	0	37	104	0	74	21145
2026-01-20 06:17:00.44	77.35	3.93	-51.9	-65.8	3.8	1.49e+00	0	37	104	0	74	18783
2026-01-20 06:17:04.47	77.07	4.17	-51.8	-64.2	3.8	1.49e+00	0	37	104	0	74	15721
2026-01-20 06:17:08.50	76.79	4.42	-51.6	-61.8	4.7	7.71e-01	0	37	0	4194304	74	11893
2026-01-20 06:17:12.53	76.50	4.67	-51.3	-59.8	6.0	3.53e-01	0	38	0	11534336	74	9394
2026-01-20 06:17:16.56	76.21	4.92	-51.5	-61.6	4.8	7.07e-01	0	38	0	18874368	74	11676
2026-01-20 06:17:20.60	75.91	5.17	-51.7	-62.9	4.4	3.62e-01	65	38	0	26214400	73	14282
2026-01-20 06:17:24.62	75.61	5.43	-49.6	-53.3	12.8	1.36e-04	0	38	0	30408704	70	5613
2026-01-20 06:17:28.65	75.30	5.68	-49.7	-53.6	12.6	8.08e-05	0	38	0	37748736	70	5812
2026-01-20 06:17:32.68	74.98	5.94	-49.1	-52.4	13.8	3.80e-06	0	38	0	45088768	69	5384
2026-01-20 06:17:36.71	74.66	6.20	-49.0	-52.2	14.0	7.00e-07	0	38	0	52428800	69	5278
2026-01-20 06:17:40.74	74.34	6.46	-48.8	-51.8	14.5	2.20e-06	0	38	0	59768832	69	4990
2026-01-20 06:17:44.77	74.01	6.72	-48.5	-51.3	15.0	0.00e+00	0	38	0	67108864	69	4756
2026-01-20 06:17:48.80	73.67	6.98	-48.4	-51.1	15.2	0.00e+00	0	38	0	75497472	68	4902
2026-01-20 06:17:52.83	73.32	7.25	-48.6	-51.3	15.0	0.00e+00	0	38	0	82837504	68	5028
2026-01-20 06:17:56.86	72.97	7.51	-48.6	-51.3	15.1	0.00e+00	0	38	0	90177536	68	5024
2026-01-20 06:18:00.89	72.61	7.78	-48.4	-51.1	15.3	0.00e+00	0	38	0	97517568	68	4895
2026-01-20 06:18:04.92	72.25	8.05	-48.6	-51.5	14.9	0.00e+00	0	38	0	105906176	68	5103
2026-01-20 06:18:08.95	71.87	8.33	-49.0	-52.1	14.4	7.00e-07	0	38	0	113246208	68	5498
2026-01-20 06:18:12.98	71.49	8.60	-48.7	-51.5	14.9	7.00e-07	0	38	0	120586240	68	5139
2026-01-20 06:18:17.01	71.11	8.88	-48.6	-51.3	15.2	0.00e+00	0	38	0	127926272	68	5019
2026-01-20 06:18:21.04	70.71	9.15	-48.4	-51.1	15.4	0.00e+00	0	38	0	135266304	68	4894
2026-01-20 06:18:25.07	70.31	9.43	-48.0	-50.4	16.1	0.00e+00	0	38	0	143654912	68	4544
2026-01-20 06:18:29.11	69.90	9.71	-48.2	-50.7	15.7	0.00e+00	0	38	0	150994944	67	4960
2026-01-20 06:18:33.14	69.48	10.00	-48.2	-50.7	15.8	0.00e+00	0	38	0	158334976	67	4952
2026-01-20 06:18:37.17	69.05	10.28	-48.2	-50.7	15.8	0.00e+00	0	38	0	165675008	67	4940
2026-01-20 06:18:41.20	68.61	10.57	-47.8	-50.1	16.4	0.00e+00	0	38	0	174063616	67	4626
2026-01-20 06:18:45.24	68.17	10.86	-48.0	-50.4	16.2	0.00e+00	0	38	0	181403648	67	4798
2026-01-20 06:18:49.26	67.71	11.15	-48.0	-50.3	16.3	0.00e+00	0	38	0	188743680	67	4730
2026-01-20 06:18:53.30	67.25	11.44	-48.3	-50.8	15.8	0.00e+00	0	38	0	196083712	67	5011
2026-01-20 06:18:57.33	66.78	11.73	-48.3	-50.8	15.8	0.00e+00	0	38	0	203423744	67	4999
2026-01-20 06:19:01.36	66.29	12.02	-48.3	-50.7	15.9	0.00e+00	0	38	0	210763776	67	4972
2026-01-20 06:19:05.39	65.80	12.32	-48.1	-50.4	16.2	0.00e+00	0	38	0	219152384	67	4800
2026-01-20 06:19:09.42	65.30	12.62	-47.4	-49.5	17.1	0.00e+00	0	38	0	226492416	66	4570
2026-01-20 06:19:13.45	64.78	12.92	-47.3	-49.3	17.3	0.00e+00	0	38	0	233832448	66	4465
2026-01-20 06:19:17.48	64.26	13.22	-47.2	-49.1	17.5	0.00e+00	0	38	0	241172480	66	4388
2026-01-20 06:19:21.51	63.72	13.52	-47.2	-49.3	17.3	0.00e+00	0	38	0	249561088	66	4472
2026-01-20 06:19:25.54	63.18	13.82	-47.3	-49.3	17.3	0.00e+00	0	38	0	256901120	66	4459
2026-01-20 06:19:29.57	62.62	14.12	-47.1	-49.0	17.6	0.00e+00	0	38	0	264241152	66	4321
2026-01-20 06:19:33.60	62.05	14.43	-47.0	-48.9	17.7	0.00e+00	0	38	0	271581184	65	4516
2026-01-20 06:19:37.63	61.47	14.73	-47.2	-49.2	17.5	0.00e+00	0	38	0	278921216	65	4666
2026-01-20 06:19:41.66	60.87	15.04	-47.0	-49.0	17.7	0.00e+00	0	38	0	287309824	65	4559
2026-01-20 06:19:45.70	60.26	15.34	-47.4	-49.5	17.2	0.00e+00	0	38	0	294649856	65	4827
2026-01-20 06:19:49.73	59.64	15.65	-47.6	-49.8	16.9	0.00e+00	0	38	0	301989888	65	4988
2026-01-20 06:19:53.76	59.01	15.96	-47.7	-49.9	16.8	0.00e+00	0	38	0	309329920	66	4810
2026-01-20 06:19:57.79	58.37	16.27	-47.8	-50.1	16.7	0.00e+00	0	38	0	316669952	66	4875
2026-01-20 06:20:01.83	57.70	16.58	-47.8	-50.0	16.7	0.00e+00	0	38	0	325058560	66	4843
2026-01-20 06:20:05.86	57.03	16.88	-48.0	-50.3	16.4	0.00e+00	0	38	0	332398592	66	5026
2026-01-20 06:20:09.89	56.34	17.19	-47.7	-49.9	16.8	0.00e+00	0	38	0	339738624	66	4790
2026-01-20 06:20:13.92	55.64	17.50	-47.4	-49.4	17.3	0.00e+00	0	38	0	347078656	66	4501
2026-01-20 06:20:17.95	54.92	17.80	-47.7	-49.9	16.8	0.00e+00	0	38	0	354418688	66	4813
2026-01-20 06:20:21.98	54.19	18.11	-47.7	-49.8	17.0	0.00e+00	0	38	0	362807296	66	4724
2026-01-20 06:20:26.01	53.45	18.41	-47.5	-49.6	17.2	0.00e+00	0	38	0	370147328	66	4642
2026-01-20 06:20:30.04	52.68	18.71	-47.4	-49.5	17.3	0.00e+00	0	38	0	377487360	66	4548
2026-01-20 06:20:34.07	51.91	19.02	-47.4	-49.4	17.4	0.00e+00	0	38	0	384827392	66	4508
2026-01-20 06:20:38.11	51.11	19.32	-47.1	-49.0	17.8	0.00e+00	0	38	0	393216000	66	4296
2026-01-20 06:20:42.14	50.30	19.61	-46.8	-48.6	18.2	0.00e+00	0	38	0	400556032	65	4348
2026-01-20 06:20:46.17	49.48	19.91	-46.6	-48.4	18.3	0.00e+00	0	38	0	407896064	65	4276
2026-01-20 06:20:50.20	48.64	20.20	-46.3	-48.0	18.6	0.00e+00	0	38	0	415236096	64	4329
2026-01-20 06:20:54.23	47.78	20.48	-46.1	-47.7	19.0	0.00e+00	0	38	0	422576128	64	4174
2026-01-20 06:20:58.26	46.91	20.77	-46.0	-47.5	19.2	0.00e+00	0	38	0	429916160	63	4335
2026-01-20 06:21:02.29	46.02	21.05	-46.2	-47.8	19.1	0.00e+00	0	38	0	438304768	63	4442
2026-01-20 06:21:06.33	45.11	21.32	-45.8	-47.3	19.4	0.00e+00	0	39	0	445644800	63	4241
2026-01-20 06:21:10.36	44.19	21.59	-45.6	-47.1	19.6	0.00e+00	0	38	0	452984832	63	4110
2026-01-20 06:21:14.39	43.25	21.86	-45.8	-47.3	19.5	0.00e+00	0	38	0	460324864	63	4197
2026-01-20 06:21:18.42	42.30	22.12	-45.6	-47.1	19.7	0.00e+00	0	38	0	468713472	63	4115
2026-01-20 06:21:22.45	41.32	22.37	-45.6	-47.0	19.8	0.00e+00	0	39	0	476053504	62	4339
2026-01-20 06:21:26.48	40.34	22.62	-45.8	-47.2	19.6	0.00e+00	0	38	0	483393536	62	4426
2026-01-20 06:21:30.51	39.34	22.86	-45.8	-47.2	19.6	0.00e+00	0	38	0	490733568	62	4433
2026-01-20 06:21:34.55	38.32	23.09	-45.5	-46.9	19.9	0.00e+00	0	38	0	498073600	62	4258
2026-01-20 06:21:38.58	37.28	23.32	-45.8	-47.2	19.6	0.00e+00	0	38	0	506462208	62	4423
2026-01-20 06:21:42.61	36.24	23.53	-45.9	-47.4	19.5	0.00e+00	0	38	0	513802240	62	4496
2026-01-20 06:21:46.64	35.18	23.74	-45.5	-46.9	20.0	0.00e+00	0	38	0	521142272	62	4254
2026-01-20 06:21:50.67	34.10	23.94	-45.6	-47.0	19.9	0.00e+00	0	38	0	528482304	62	4307
2026-01-20 06:21:54.70	33.01	24.13	-45.4	-46.7	20.1	0.00e+00	0	38	0	536870912	62	4171
2026-01-20 06:21:58.74	31.91	24.31	-45.2	-46.5	20.3	0.00e+00	0	38	0	544210944	62	4052
2026-01-20 06:22:02.76	30.79	24.47	-45.9	-47.3	19.5	0.00e+00	0	38	0	551550976	62	4490
2026-01-20 06:22:06.80	29.67	24.63	-46.7	-48.3	18.6	0.00e+00	0	38	0	558891008	64	4487
2026-01-20 06:22:10.83	28.53	24.78	-47.3	-49.2	17.8	0.00e+00	0	38	0	566231040	66	4394
2026-01-20 06:22:14.86	27.38	24.91	-46.8	-48.6	18.3	0.00e+00	0	38	0	573571072	64	4622
2026-01-20 06:22:18.89	26.23	25.03	-46.8	-48.6	18.3	0.00e+00	0	38	0	581959680	64	4630
2026-01-20 06:22:22.92	25.06	25.14	-46.9	-48.7	18.2	0.00e+00	0	38	0	589299712	64	4656
2026-01-20 06:22:26.95	23.89	25.24	-47.7	-49.8	17.1	0.00e+00	0	38	0	596639744	66	4715
2026-01-20 06:22:30.98	22.71	25.32	-47.4	-49.4	17.5	0.00e+00	0	38	0	603979776	66	4511
2026-01-20 06:22:35.01	21.52	25.39	-46.9	-48.7	18.2	0.00e+00	0	38	0	612368384	65	4416
2026-01-20 06:22:39.04	20.33	25.45	-47.3	-49.3	17.6	0.00e+00	0	38	0	619708416	65	4717
2026-01-20 06:22:43.07	19.14	25.50	-47.2	-49.1	17.8	0.00e+00	0	38	0	627048448	65	4605
2026-01-20 06:22:47.11	17.94	25.53	-46.7	-48.4	18.5	0.00e+00	0	38	0	634388480	65	4253
2026-01-20 06:22:51.14	16.74	25.54	-46.7	-48.4	18.5	0.00e+00	0	38	0	641728512	64	4530
2026-01-20 06:22:55.17	15.54	25.55	-47.5	-49.6	17.3	0.00e+00	0	38	0	650117120	65	4902
2026-01-20 06:22:59.20	14.35	25.54	-47.4	-49.4	17.5	0.00e+00	0	38	0	657457152	65	4802
2026-01-20 06:23:03.23	13.15	25.51	-46.0	-47.5	19.2	0.00e+00	0	38	0	664797184	64	4084
2026-01-20 06:23:07.26	11.95	25.47	-46.0	-47.4	19.4	0.00e+00	0	38	0	672137216	63	4285
2026-01-20 06:23:11.29	10.76	25.42	-45.8	-47.2	19.7	0.00e+00	0	38	0	679477248	63	4184
2026-01-20 06:23:15.33	9.57	25.36	-44.7	-45.9	20.9	0.00e+00	0	38	0	687865856	61	4018
2026-01-20 06:23:19.36	8.39	25.28	-44.9	-46.1	20.7	0.00e+00	0	38	0	695205888	61	4111
2026-01-20 06:23:23.39	7.21	25.19	-45.1	-46.4	20.4	0.00e+00	0	38	0	702545920	60	4543
2026-01-20 06:23:27.42	6.05	25.08	-45.3	-46.6	20.2	0.00e+00	0	38	0	709885952	61	4378
2026-01-20 06:23:31.45	4.89	24.97	-45.7	-47.1	19.8	0.00e+00	0	38	0	717225984	61	4601
2026-01-20 06:23:35.48	3.74	24.84	-45.8	-47.3	19.7	0.00e+00	0	38	0	725614592	62	4444
2026-01-20 06:23:39.51	2.60	24.70	-46.7	-48.4	18.5	0.00e+00	0	38	0	732954624	64	4501
2026-01-20 06:23:43.54	1.47	24.54	-46.1	-47.6	19.2	0.00e+00	0	38	0	740294656	64	4139
2026-01-20 06:23:47.57	0.35	24.38	-46.6	-48.2	18.7	0.00e+00	0	39	0	747634688	64	4440
2026-01-20 06:23:51.60	359.24	24.21	-47.2	-49.0	17.9	0.00e+00	0	38	0	756023296	65	4589
2026-01-20 06:23:55.63	358.15	24.02	-47.5	-49.6	17.4	0.00e+00	0	38	0	763363328	65	4891
2026-01-20 06:23:59.66	357.07	23.83	-47.0	-48.8	18.0	0.00e+00	0	39	0	770703360	65	4481
2026-01-20 06:24:03.69	356.00	23.63	-47.5	-49.5	17.4	0.00e+00	0	39	0	778043392	65	4845
2026-01-20 06:24:07.73	354.95	23.41	-47.4	-49.4	17.5	0.00e+00	0	38	0	785383424	66	4500
2026-01-20 06:24:11.76	353.91	23.19	-47.2	-49.1	17.8	0.00e+00	0	38	0	792723456	66	4345
2026-01-20 06:24:15.79	352.89	22.96	-47.5	-49.5	17.4	0.00e+00	0	38	0	801112064	65	4834
2026-01-20 06:24:19.82	351.88	22.73	-47.6	-49.6	17.2	0.00e+00	0	38	0	808452096	66	4650
2026-01-20 06:24:23.85	350.89	22.48	-47.2	-49.1	17.7	0.00e+00	0	38	0	815792128	66	4377
2026-01-20 06:24:27.88	349.91	22.23	-48.1	-50.6	16.3	0.00e+00	0	39	0	823132160	66	5165
2026-01-20 06:24:31.91	348.95	21.98	-46.9	-48.7	18.1	0.00e+00	0	38	0	831520768	65	4428
2026-01-20 06:24:35.95	348.00	21.71	-46.9	-48.7	18.1	0.00e+00	0	38	0	838860800	65	4423
2026-01-20 06:24:39.98	347.07	21.45	-47.1	-49.0	17.8	0.00e+00	0	38	0	846200832	65	4576
2026-01-20 06:24:44.01	346.16	21.17	-46.1	-47.6	19.1	0.00e+00	0	39	0	853540864	63	4390
2026-01-20 06:24:48.04	345.27	20.90	-45.2	-46.5	20.2	0.00e+00	0	39	0	860880896	62	4092
2026-01-20 06:24:52.07	344.39	20.61	-46.2	-47.8	19.0	0.00e+00	0	39	0	869269504	63	4492
2026-01-20 06:24:56.10	343.53	20.33	-46.4	-48.1	18.7	0.00e+00	0	39	0	876609536	63	4636
2026-01-20 06:25:00.13	342.68	20.04	-46.3	-48.0	18.8	0.00e+00	0	39	0	883949568	63	4568
2026-01-20 06:25:04.17	341.85	19.75	-46.3	-48.0	18.8	0.00e+00	0	38	0	891289600	63	4559
2026-01-20 06:25:08.19	341.04	19.45	-45.8	-47.3	19.4	0.00e+00	0	39	0	899678208	63	4239
2026-01-20 06:25:12.23	340.23	19.15	-46.5	-48.2	18.6	0.00e+00	0	39	0	907018240	63	4667
2026-01-20 06:25:16.25	339.45	18.86	-46.1	-47.6	19.1	0.00e+00	0	39	0	914358272	63	4383
2026-01-20 06:25:20.29	338.68	18.55	-46.4	-48.1	18.6	0.00e+00	0	39	0	921698304	64	4358
2026-01-20 06:25:24.31	337.93	18.25	-45.6	-47.1	19.6	0.00e+00	0	39	0	929038336	63	4102
2026-01-20 06:25:28.35	337.20	17.95	-45.5	-46.9	19.8	0.00e+00	0	38	0	936378368	62	4245
2026-01-20 06:25:32.38	336.47	17.64	-46.0	-47.5	19.3	0.00e+00	0	39	0	944766976	62	4573
2026-01-20 06:25:36.41	335.77	17.34	-45.5	-46.9	19.7	0.00e+00	0	38	0	952107008	62	4282
2026-01-20 06:25:40.44	335.07	17.03	-45.3	-46.6	20.1	0.00e+00	0	39	0	959447040	62	4126
2026-01-20 06:25:44.47	334.40	16.72	-45.8	-47.3	19.4	0.00e+00	0	39	0	966787072	62	4478
2026-01-20 06:25:48.50	333.73	16.41	-45.9	-47.4	19.4	0.00e+00	0	39	0	975175680	62	4503
2026-01-20 06:25:52.53	333.08	16.11	-45.3	-46.6	20.0	0.00e+00	0	38	0	982515712	62	4126
2026-01-20 06:25:56.56	332.44	15.80	-45.6	-47.0	19.6	0.00e+00	0	39	0	989855744	62	4324
2026-01-20 06:26:00.59	331.82	15.49	-46.7	-48.4	18.3	0.00e+00	0	38	0	997195776	63	4790
2026-01-20 06:26:04.63	331.21	15.19	-46.1	-47.7	18.9	0.00e+00	0	38	0	1004535808	64	4182
2026-01-20 06:26:08.66	330.61	14.88	-45.9	-47.4	19.3	0.00e+00	0	38	0	1012924416	63	4260
2026-01-20 06:26:12.69	330.02	14.58	-46.2	-47.9	18.8	0.00e+00	0	39	0	1020264448	63	4499
2026-01-20 06:26:16.72	329.45	14.27	-47.0	-48.9	17.7	0.00e+00	0	39	0	1027604480	64	4789
2026-01-20 06:26:20.75	328.88	13.97	-47.2	-49.2	17.4	0.00e+00	0	39	0	1034944512	65	4685
2026-01-20 06:26:24.78	328.33	13.67	-46.3	-47.9	18.7	0.00e+00	0	38	0	1042284544	64	4271
2026-01-20 06:26:28.81	327.79	13.36	-46.3	-47.9	18.8	0.00e+00	0	38	0	1050673152	63	4513
2026-01-20 06:26:32.84	327.27	13.06	-46.5	-48.2	18.4	0.00e+00	0	38	0	1058013184	63	4671
2026-01-20 06:26:36.87	326.75	12.77	-46.4	-48.0	18.6	0.00e+00	0	38	0	1065353216	63	4597
2026-01-20 06:26:40.90	326.24	12.47	-46.7	-48.5	18.1	0.00e+00	0	38	0	1072693248	64	4551
2026-01-20 06:26:44.93	325.75	12.17	-46.8	-48.6	17.9	0.00e+00	0	39	0	1080033280	64	4630
2026-01-20 06:26:48.96	325.26	11.88	-47.1	-49.0	17.5	0.00e+00	0	39	0	1088421888	64	4842
2026-01-20 06:26:52.99	324.78	11.59	-47.5	-49.6	17.0	0.00e+00	0	39	0	1095761920	65	4897
2026-01-20 06:26:57.03	324.32	11.29	-47.4	-49.5	17.0	0.00e+00	0	39	0	1103101952	65	4847
2026-01-20 06:27:01.05	323.86	11.00	-46.9	-48.7	17.8	0.00e+00	0	39	0	1110441984	65	4432
2026-01-20 06:27:05.09	323.41	10.72	-46.9	-48.7	17.8	0.00e+00	0	38	0	1117782016	65	4418
2026-01-20 06:27:09.12	322.97	10.43	-47.5	-49.6	16.8	0.00e+00	0	38	0	1126170624	65	4920
2026-01-20 06:27:13.15	322.54	10.14	-47.8	-50.0	16.6	0.00e+00	0	38	0	1133510656	66	4825
2026-01-20 06:27:17.18	322.12	9.86	-47.5	-49.6	16.9	0.00e+00	0	38	0	1140850688	66	4620
2026-01-20 06:27:21.21	321.71	9.58	-47.1	-49.0	17.5	0.00e+00	0	39	0	1148190720	66	4311
2026-01-20 06:27:25.23	321.30	9.30	-47.4	-49.5	17.0	0.00e+00	0	38	0	1155530752	66	4547
2026-01-20 06:27:29.27	320.90	9.02	-47.9	-50.2	16.3	0.00e+00	0	39	0	1163919360	66	4958
2026-01-20 06:27:33.30	320.51	8.75	-48.2	-50.7	15.7	0.00e+00	0	39	0	1171259392	67	4958
2026-01-20 06:27:37.33	320.13	8.47	-48.5	-51.1	15.3	0.00e+00	0	39	0	1178599424	67	5218
2026-01-20 06:27:41.36	319.76	8.20	-48.5	-51.1	15.4	0.00e+00	0	38	0	1185939456	67	5172
2026-01-20 06:27:45.39	319.39	7.93	-48.3	-50.8	15.6	0.00e+00	0	39	0	1193279488	67	4997
2026-01-20 06:27:49.42	319.03	7.66	-48.3	-50.9	15.6	0.00e+00	0	39	0	1201668096	67	5054
2026-01-20 06:27:53.44	318.68	7.39	-48.9	-51.7	14.8	0.00e+00	0	38	0	1209008128	68	5250
2026-01-20 06:27:57.47	318.33	7.13	-49.2	-52.4	14.0	1.50e-06	0	39	0	1216348160	69	5363
2026-01-20 06:28:01.50	317.99	6.86	-49.3	-52.6	13.8	8.30e-06	0	38	0	1223688192	69	5477
2026-01-20 06:28:05.53	317.66	6.60	-48.7	-51.5	14.9	7.00e-07	0	39	0	1232076800	69	4844
2026-01-20 06:28:09.56	317.33	6.34	-48.2	-50.6	15.7	0.00e+00	0	39	0	1239416832	68	4638
2026-01-20 06:28:13.59	317.01	6.08	-47.6	-49.9	16.4	0.00e+00	0	39	0	1246756864	67	4495
2026-01-20 06:28:17.62	316.69	5.82	-47.8	-50.2	16.0	0.00e+00	0	39	0	1254096896	66	4955
2026-01-20 06:28:21.65	316.38	5.57	-48.2	-50.8	15.4	0.00e+00	0	39	0	1261436928	66	5299
2026-01-20 06:28:25.69	316.07	5.31	-48.9	-51.9	14.2	0.00e+00	0	39	0	1268776960	68	5364
2026-01-20 06:28:29.72	315.78	5.06	-49.0	-52.1	14.1	3.80e-06	0	39	0	1277165568	69	5160
2026-01-20 06:28:33.75	315.48	4.81	-53.0	-68.0	3.8	1.49e+00	0	38	104	1279262720	76	21597
2026-01-20 06:28:37.78	315.19	4.56	-53.5	-68.5	3.8	1.49e+00	0	39	104	1279262720	77	21548
2026-01-20 06:28:41.81	314.91	4.31	-53.7	-68.7	3.8	1.49e+00	0	39	104	1279262720	78	20960
2026-01-20 06:28:45.84	314.63	4.07	-53.9	-68.9	3.8	1.49e+00	0	39	104	1279262720	78	21361
2026-01-20 06:28:49.87	314.36	3.82	-54.0	-68.9	3.8	1.49e+00	0	38	104	1279262720	78	21481
2026-01-20 06:28:53.91	314.09	3.58	-53.9	-68.9	3.8	1.49e+00	0	38	104	1279262720	78	21358
2026-01-20 06:28:57.94	313.82	3.34	-53.9	-68.9	3.8	1.49e+00	0	39	104	1279262720	78	21300
2026-01-20 06:29:01.97	313.56	3.10	-53.9	-68.8	3.8	1.49e+00	0	38	104	1279262720	78	21218
2026-01-20 06:29:06.00	313.31	2.86	-53.8	-68.8	3.8	1.49e+00	0	39	104	1279262720	78	21137
2026-01-20 06:29:10.03	313.06	2.62	-53.8	-68.8	3.8	1.49e+00	0	39	104	1279262720	78	21103
2026-01-20 06:29:14.07	312.81	2.39	-53.8	-68.8	3.8	1.49e+00	0	39	104	1279262720	78	21091
2026-01-20 06:29:18.10	312.57	2.15	-53.8	-68.8	3.8	1.49e+00	0	39	104	1279262720	78	21044

#Closed at: 2026-01-20 06:29:21
#Recorded file [1279 MB]: D:/lorett/data/31041_260120_091628.dat