passes_logs/2026/01/20/R3.2S_Murmansk/R3.2S_Murmansk__20260120_152329_FENGYUN_3F_rec.log

#Pass ID: 20260120_152329_FENGYUN 3F
#Satellite: FENGYUN 3F
#Configuration: FENGYUN 3F
#almurnet v.1.7.20251203
#Start time: 2026-01-20 15:23:29

#Version: 2.2.20231116
#Station: R3.2S_Murmansk
#Location: 33.079688 lon 68.888172 lat
#TLE: 1 57490U 23111A   26019.92512622  .00000154  00000+0  92852-4 0  9999
#TLE: 2 57490  98.7024  92.5925 0001319 112.4467 247.6849 14.19904935127823

#Time	Az	El	Level	Level2	SNR	BER	BlckErr	Temp	State	Recorded	gain1	gain2
2026-01-20 15:23:29.36	86.92	2.01	-52.3	-63.1	3.8	8.45e-01	0	37	0	0	76	12290
2026-01-20 15:23:33.38	86.69	2.25	-52.3	-63.1	3.8	8.46e-01	0	37	104	0	75	13052
2026-01-20 15:23:37.41	86.46	2.49	-52.3	-63.1	3.8	8.46e-01	0	37	104	0	75	13005
2026-01-20 15:23:41.43	86.22	2.72	-52.3	-63.1	3.8	8.46e-01	0	37	104	0	75	13005
2026-01-20 15:23:45.44	85.98	2.96	-52.3	-63.1	3.8	8.46e-01	0	38	104	0	75	13023
2026-01-20 15:23:49.46	85.74	3.21	-52.3	-63.0	3.8	8.47e-01	0	37	104	0	75	12948
2026-01-20 15:23:53.47	85.49	3.45	-52.3	-62.9	3.8	8.45e-01	0	38	104	0	75	12795
2026-01-20 15:23:57.47	85.24	3.69	-52.3	-63.1	3.8	8.48e-01	0	38	104	0	75	13005
2026-01-20 15:24:01.47	84.99	3.94	-52.2	-62.6	3.8	8.46e-01	0	38	104	0	75	12310
2026-01-20 15:24:05.48	84.73	4.19	-52.1	-61.7	3.8	8.46e-01	0	38	104	0	75	11033
2026-01-20 15:24:09.48	84.46	4.44	-50.4	-54.4	7.3	1.58e-01	0	38	0	7340032	72	5718
2026-01-20 15:24:13.48	84.20	4.69	-47.3	-49.1	12.8	1.37e-04	0	38	0	36700160	66	4390
2026-01-20 15:24:17.49	83.92	4.94	-47.3	-49.2	12.7	1.60e-04	0	38	0	65011712	65	4705
2026-01-20 15:24:21.49	83.64	5.20	-48.3	-50.0	12.3	2.51e-05	0	38	0	94371840	66	4825
2026-01-20 15:24:25.51	83.36	5.45	-45.0	-46.1	16.1	0.00e+00	0	38	0	114294784	61	4138
2026-01-20 15:24:29.51	83.07	5.71	-45.0	-46.2	16.2	0.00e+00	0	38	0	143654912	61	4147
2026-01-20 15:24:33.50	82.77	5.97	-44.9	-46.0	16.4	0.00e+00	0	39	0	171966464	61	4098
2026-01-20 15:24:37.50	82.47	6.23	-44.8	-46.0	16.5	0.00e+00	0	38	0	201326592	61	4059
2026-01-20 15:24:41.50	82.17	6.50	-44.4	-45.5	17.0	0.00e+00	0	38	0	229638144	60	4071
2026-01-20 15:24:45.50	81.86	6.76	-44.5	-45.6	17.2	0.00e+00	0	39	0	258998272	59	4361
2026-01-20 15:24:49.50	81.54	7.03	-44.2	-45.2	17.7	0.00e+00	0	39	0	287309824	59	4165
2026-01-20 15:24:53.51	81.21	7.30	-44.2	-45.2	17.7	0.00e+00	0	39	0	316669952	59	4174
2026-01-20 15:24:57.51	80.88	7.57	-44.0	-44.9	18.0	0.00e+00	0	39	0	344981504	59	4048
2026-01-20 15:25:01.53	80.54	7.85	-44.2	-45.2	17.7	0.00e+00	0	39	0	374341632	59	4164
2026-01-20 15:25:05.54	80.20	8.12	-44.1	-45.1	17.9	0.00e+00	0	39	0	402653184	59	4117
2026-01-20 15:25:09.56	79.85	8.40	-43.7	-44.7	18.4	0.00e+00	0	39	0	433061888	59	3917
2026-01-20 15:25:13.58	79.49	8.68	-43.6	-44.5	18.5	0.00e+00	0	39	0	461373440	59	3862
2026-01-20 15:25:17.61	79.12	8.96	-43.5	-44.4	18.6	0.00e+00	0	39	0	490733568	59	3814
2026-01-20 15:25:21.63	78.75	9.25	-43.4	-44.3	18.8	0.00e+00	0	39	0	519045120	58	3972
2026-01-20 15:25:25.65	78.37	9.54	-43.1	-44.0	19.1	0.00e+00	0	39	0	548405248	58	3847
2026-01-20 15:25:29.66	77.98	9.83	-43.0	-43.8	19.3	0.00e+00	0	39	0	577765376	58	3775
2026-01-20 15:25:33.67	77.58	10.12	-43.1	-43.9	19.2	0.00e+00	0	39	0	607125504	57	4044
2026-01-20 15:25:37.69	77.18	10.41	-43.2	-44.1	19.1	0.00e+00	0	39	0	635437056	57	4107
2026-01-20 15:25:41.70	76.76	10.70	-43.0	-43.9	19.3	0.00e+00	0	39	0	664797184	57	4005
2026-01-20 15:25:45.71	76.34	11.00	-42.9	-43.7	19.5	0.00e+00	0	39	0	693108736	57	3944
2026-01-20 15:25:49.72	75.91	11.30	-42.7	-43.6	19.7	0.00e+00	0	39	0	722468864	57	3871
2026-01-20 15:25:53.74	75.47	11.60	-43.0	-43.9	19.3	0.00e+00	0	39	0	750780416	57	4032
2026-01-20 15:25:57.74	75.02	11.90	-42.8	-43.7	19.5	0.00e+00	0	39	0	780140544	57	3927
2026-01-20 15:26:01.74	74.56	12.20	-42.9	-43.7	19.5	0.00e+00	0	39	0	808452096	57	3952
2026-01-20 15:26:05.73	74.10	12.51	-42.7	-43.6	19.7	0.00e+00	0	39	0	837812224	57	3881
2026-01-20 15:26:09.73	73.62	12.82	-42.4	-43.2	20.1	0.00e+00	0	39	0	866123776	56	3929
2026-01-20 15:26:13.75	73.13	13.13	-42.1	-42.9	20.3	0.00e+00	0	39	0	895483904	56	3807
2026-01-20 15:26:17.76	72.63	13.44	-42.2	-43.0	20.3	0.00e+00	0	39	0	924844032	56	3836
2026-01-20 15:26:21.76	72.12	13.75	-42.2	-43.0	20.3	0.00e+00	0	39	0	954204160	56	3826
2026-01-20 15:26:25.76	71.60	14.07	-42.2	-43.0	20.3	0.00e+00	0	39	0	982515712	56	3828
2026-01-20 15:26:29.76	71.07	14.38	-41.9	-42.6	20.6	0.00e+00	0	39	0	1011875840	55	3910
2026-01-20 15:26:33.76	70.53	14.70	-41.6	-42.3	20.8	0.00e+00	0	39	0	1040187392	55	3775
2026-01-20 15:26:37.75	69.97	15.02	-41.7	-42.5	20.7	0.00e+00	0	40	0	1068498944	55	3842
2026-01-20 15:26:41.74	69.40	15.34	-42.0	-42.7	20.5	0.00e+00	0	40	0	1097859072	55	3955
2026-01-20 15:26:45.74	68.82	15.66	-42.1	-42.9	20.3	0.00e+00	0	40	0	1126170624	55	4042
2026-01-20 15:26:49.72	68.23	15.98	-41.9	-42.7	20.6	0.00e+00	0	40	0	1155530752	55	3917
2026-01-20 15:26:53.72	67.63	16.31	-41.6	-42.3	20.9	0.00e+00	0	40	0	1183842304	55	3760
2026-01-20 15:26:57.72	67.01	16.63	-41.0	-41.7	21.4	0.00e+00	0	40	0	1213202432	53	3946
2026-01-20 15:27:01.72	66.37	16.96	-41.1	-41.8	21.4	0.00e+00	0	40	0	1241513984	53	3964
2026-01-20 15:27:05.72	65.73	17.29	-40.9	-41.6	21.6	0.00e+00	0	40	0	1270874112	53	3902
2026-01-20 15:27:09.74	65.06	17.62	-41.2	-41.9	21.3	0.00e+00	0	40	0	1299185664	53	4028
2026-01-20 15:27:13.74	64.38	17.94	-41.1	-41.8	21.4	0.00e+00	0	40	0	1328545792	53	3965
2026-01-20 15:27:17.74	63.69	18.27	-41.0	-41.7	21.5	0.00e+00	0	40	0	1356857344	53	3947
2026-01-20 15:27:21.76	62.98	18.60	-40.9	-41.6	21.6	0.00e+00	0	39	0	1387266048	53	3897
2026-01-20 15:27:25.76	62.26	18.93	-40.8	-41.4	21.8	0.00e+00	0	39	0	1415577600	53	3823
2026-01-20 15:27:29.78	61.51	19.26	-40.6	-41.2	22.0	0.00e+00	0	40	0	1444937728	52	3957
2026-01-20 15:27:33.79	60.76	19.58	-40.6	-41.3	21.9	0.00e+00	0	40	0	1473249280	52	3974
2026-01-20 15:27:37.80	59.98	19.91	-40.5	-41.2	22.0	0.00e+00	0	40	0	1502609408	52	3955
2026-01-20 15:27:41.81	59.19	20.23	-40.4	-41.1	22.1	0.00e+00	0	40	0	1530920960	52	3877
2026-01-20 15:27:45.81	58.39	20.55	-40.2	-40.9	22.3	0.00e+00	0	40	0	1560281088	52	3794
2026-01-20 15:27:49.82	57.56	20.87	-40.1	-40.8	22.5	0.00e+00	0	40	0	1588592640	51	3971
2026-01-20 15:27:53.81	56.72	21.19	-40.2	-40.9	22.4	0.00e+00	0	40	0	1617952768	51	4036
2026-01-20 15:27:57.81	55.87	21.50	-40.4	-41.1	22.2	0.00e+00	0	40	0	1647312896	51	4128
2026-01-20 15:28:01.82	54.99	21.82	-40.4	-41.1	22.3	0.00e+00	0	40	0	1675624448	51	4105
2026-01-20 15:28:05.84	54.09	22.13	-40.6	-41.2	22.2	0.00e+00	0	40	0	1704984576	51	4185
2026-01-20 15:28:09.83	53.18	22.43	-40.2	-40.8	22.5	0.00e+00	0	40	0	1733296128	51	3999
2026-01-20 15:28:13.83	52.25	22.73	-39.9	-40.6	22.7	0.00e+00	0	40	0	1762656256	51	3878
2026-01-20 15:28:17.84	51.30	23.02	-39.8	-40.4	22.9	0.00e+00	0	40	0	1790967808	51	3811
2026-01-20 15:28:21.84	50.34	23.31	-40.0	-40.6	22.7	0.00e+00	0	40	0	1820327936	51	3908
2026-01-20 15:28:25.84	49.36	23.59	-40.0	-40.7	22.7	0.00e+00	0	40	0	1848639488	51	3936
2026-01-20 15:28:29.85	48.35	23.87	-39.8	-40.4	22.9	0.00e+00	0	40	0	1877999616	51	3822
2026-01-20 15:28:33.85	47.33	24.14	-39.6	-40.3	23.1	0.00e+00	0	40	0	1906311168	51	3745
2026-01-20 15:28:37.85	46.30	24.41	-39.9	-40.6	22.8	0.00e+00	0	40	0	1935671296	51	3881
2026-01-20 15:28:41.85	45.24	24.66	-39.9	-40.5	22.8	0.00e+00	0	40	0	1963982848	51	3864
2026-01-20 15:28:45.85	44.17	24.91	-39.6	-40.2	23.1	0.00e+00	0	40	0	1993342976	51	3735
2026-01-20 15:28:49.86	43.08	25.14	-39.7	-40.4	23.0	0.00e+00	0	40	0	2022703104	51	3782
2026-01-20 15:28:53.85	41.98	25.37	-40.0	-40.6	22.7	0.00e+00	0	40	0	2052063232	51	3907
2026-01-20 15:28:57.85	40.86	25.59	-39.6	-40.3	23.0	0.00e+00	0	40	0	2080374784	51	3748
2026-01-20 15:29:01.86	39.72	25.80	-39.8	-40.4	23.0	0.00e+00	0	40	0	2109734912	51	3811
2026-01-20 15:29:05.86	38.57	26.00	-39.6	-40.3	23.1	0.00e+00	0	40	0	2138046464	51	3740
2026-01-20 15:29:09.87	37.41	26.18	-39.4	-40.0	23.3	0.00e+00	0	40	0	2167406592	50	3857
2026-01-20 15:29:13.87	36.23	26.35	-39.5	-40.1	23.2	0.00e+00	0	40	0	2195718144	50	3905
2026-01-20 15:29:17.88	35.04	26.52	-39.7	-40.4	23.0	0.00e+00	0	40	0	2225078272	50	4008
2026-01-20 15:29:21.86	33.84	26.66	-39.5	-40.2	23.2	0.00e+00	0	40	0	2254438400	50	3922
2026-01-20 15:29:25.87	32.63	26.80	-39.5	-40.1	23.3	0.00e+00	0	40	0	2282749952	50	3883
2026-01-20 15:29:29.88	31.40	26.92	-39.5	-40.1	23.2	0.00e+00	0	40	0	2312110080	50	3909
2026-01-20 15:29:33.89	30.17	27.03	-39.6	-40.2	23.2	0.00e+00	0	40	0	2340421632	50	3944
2026-01-20 15:29:37.91	28.93	27.12	-39.7	-40.3	23.1	0.00e+00	0	40	0	2369781760	50	3990
2026-01-20 15:29:41.91	27.68	27.20	-39.3	-39.9	23.5	0.00e+00	0	40	0	2398093312	50	3805
2026-01-20 15:29:45.91	26.43	27.26	-39.5	-40.1	23.2	0.00e+00	0	40	0	2427453440	50	3911
2026-01-20 15:29:49.91	25.18	27.31	-39.4	-40.0	23.4	0.00e+00	0	40	0	2455764992	50	3836
2026-01-20 15:29:53.93	23.91	27.34	-39.4	-40.1	23.3	0.00e+00	0	40	0	2485125120	50	3869
2026-01-20 15:29:57.93	22.65	27.36	-39.3	-39.9	23.5	0.00e+00	0	40	0	2513436672	50	3815
2026-01-20 15:30:01.94	21.39	27.36	-39.5	-40.1	23.3	0.00e+00	0	40	0	2542796800	50	3899
2026-01-20 15:30:05.94	20.13	27.35	-39.4	-40.1	23.4	0.00e+00	0	40	0	2571108352	50	3877
2026-01-20 15:30:09.95	18.87	27.32	-39.4	-40.1	23.4	0.00e+00	0	40	0	2600468480	50	3879
2026-01-20 15:30:13.97	17.61	27.27	-39.9	-40.5	22.9	0.00e+00	0	40	0	2629828608	50	4081
2026-01-20 15:30:17.98	16.35	27.21	-39.6	-40.2	23.2	0.00e+00	0	40	0	2659188736	50	3941
2026-01-20 15:30:21.99	15.10	27.14	-39.7	-40.4	23.1	0.00e+00	0	40	0	2687500288	50	4021
2026-01-20 15:30:26.00	13.86	27.05	-39.8	-40.4	23.0	0.00e+00	0	40	0	2716860416	50	4048
2026-01-20 15:30:30.01	12.62	26.95	-39.6	-40.2	23.1	0.00e+00	0	40	0	2745171968	50	3958
2026-01-20 15:30:34.02	11.40	26.83	-39.7	-40.3	23.1	0.00e+00	0	40	0	2774532096	50	3976
2026-01-20 15:30:38.03	10.18	26.70	-39.5	-40.1	23.3	0.00e+00	0	40	0	2802843648	50	3893
2026-01-20 15:30:42.05	8.97	26.55	-39.8	-40.4	23.1	0.00e+00	0	40	0	2832203776	50	4026
2026-01-20 15:30:46.06	7.78	26.39	-39.7	-40.4	23.0	0.00e+00	0	40	0	2861563904	50	4018
2026-01-20 15:30:50.06	6.60	26.22	-40.1	-40.8	22.6	0.00e+00	0	40	0	2890924032	50	4222
2026-01-20 15:30:54.05	5.44	26.04	-40.2	-40.8	22.6	0.00e+00	0	40	0	2919235584	51	3999
2026-01-20 15:30:58.05	4.28	25.85	-40.0	-40.7	22.8	0.00e+00	0	40	0	2947547136	51	3926
2026-01-20 15:31:02.05	3.15	25.64	-39.9	-40.5	22.9	0.00e+00	0	40	0	2976907264	51	3867
2026-01-20 15:31:06.05	2.03	25.42	-40.1	-40.8	22.7	0.00e+00	0	40	0	3005218816	51	3960
2026-01-20 15:31:10.04	0.92	25.20	-40.1	-40.8	22.6	0.00e+00	0	40	0	3034578944	51	3976
2026-01-20 15:31:14.04	359.83	24.96	-40.4	-41.0	22.4	0.00e+00	0	40	0	3062890496	51	4088
2026-01-20 15:31:18.03	358.76	24.72	-40.6	-41.3	22.2	0.00e+00	0	40	0	3092250624	51	4196
2026-01-20 15:31:22.03	357.70	24.47	-40.2	-40.8	22.6	0.00e+00	0	40	0	3120562176	51	4002
2026-01-20 15:31:26.03	356.66	24.21	-40.0	-40.7	22.7	0.00e+00	0	40	0	3149922304	51	3930
2026-01-20 15:31:30.03	355.64	23.94	-40.2	-40.8	22.5	0.00e+00	0	40	0	3178233856	51	3999
2026-01-20 15:31:34.02	354.64	23.66	-40.2	-40.9	22.5	0.00e+00	0	40	0	3207593984	51	4009
2026-01-20 15:31:38.03	353.65	23.38	-40.3	-40.9	22.4	0.00e+00	0	40	0	3235905536	51	4047
2026-01-20 15:31:42.04	352.68	23.09	-40.6	-41.3	22.2	0.00e+00	0	40	0	3265265664	51	4196
2026-01-20 15:31:46.05	351.73	22.80	-40.3	-41.0	22.4	0.00e+00	0	40	0	3294625792	51	4080
2026-01-20 15:31:50.05	350.80	22.50	-40.1	-40.8	22.6	0.00e+00	0	40	0	3322937344	51	3984
2026-01-20 15:31:54.07	349.88	22.20	-40.4	-41.1	22.3	0.00e+00	0	40	0	3352297472	51	4114
2026-01-20 15:31:58.07	348.98	21.89	-40.5	-41.2	22.1	0.00e+00	0	40	0	3381657600	52	3931
2026-01-20 15:32:02.09	348.10	21.58	-40.4	-41.0	22.2	0.00e+00	0	40	0	3409969152	52	3853
2026-01-20 15:32:06.11	347.23	21.27	-40.3	-41.0	22.3	0.00e+00	0	40	0	3439329280	52	3845
2026-01-20 15:32:10.13	346.39	20.95	-40.4	-41.0	22.2	0.00e+00	0	40	0	3467640832	52	3859
2026-01-20 15:32:14.16	345.56	20.63	-40.4	-41.1	22.2	0.00e+00	0	40	0	3498049536	52	3887
2026-01-20 15:32:18.17	344.75	20.31	-40.5	-41.2	22.0	0.00e+00	0	40	0	3526361088	52	3948
2026-01-20 15:32:22.19	343.95	19.98	-40.8	-41.5	21.8	0.00e+00	0	40	0	3555721216	52	4072
2026-01-20 15:32:26.21	343.17	19.66	-41.0	-41.7	21.5	0.00e+00	0	40	0	3584032768	52	4177
2026-01-20 15:32:30.21	342.42	19.33	-41.0	-41.7	21.5	0.00e+00	0	40	0	3613392896	53	3921
2026-01-20 15:32:34.24	341.67	19.00	-40.8	-41.6	21.7	0.00e+00	0	40	0	3641704448	53	3869
2026-01-20 15:32:38.26	340.94	18.68	-40.7	-41.4	21.8	0.00e+00	0	40	0	3672113152	53	3797
2026-01-20 15:32:42.28	340.23	18.35	-40.9	-41.6	21.6	0.00e+00	0	40	0	3700424704	53	3904
2026-01-20 15:32:46.30	339.53	18.02	-41.1	-41.8	21.5	0.00e+00	0	40	0	3729784832	53	3968
2026-01-20 15:32:50.32	338.85	17.69	-41.6	-42.3	20.9	0.00e+00	0	40	0	3758096384	53	4217
2026-01-20 15:32:54.34	338.18	17.36	-41.7	-42.4	20.9	0.00e+00	0	40	0	3787456512	54	4033
2026-01-20 15:32:58.35	337.53	17.03	-41.5	-42.3	20.8	0.00e+00	0	40	0	3815768064	54	3996
2026-01-20 15:33:02.37	336.89	16.71	-41.4	-42.3	20.8	0.00e+00	0	40	0	3845128192	54	3964
2026-01-20 15:33:06.39	336.27	16.38	-41.6	-42.3	20.8	0.00e+00	0	40	0	3874488320	54	3993
2026-01-20 15:33:10.40	335.66	16.05	-41.7	-42.5	20.7	0.00e+00	0	40	0	3903848448	54	4064
2026-01-20 15:33:14.41	335.06	15.73	-41.6	-42.4	20.8	0.00e+00	0	40	0	3932160000	54	4017
2026-01-20 15:33:18.44	334.48	15.41	-41.9	-42.7	20.5	0.00e+00	0	40	0	3961520128	54	4167
2026-01-20 15:33:22.46	333.91	15.08	-41.9	-42.7	20.5	0.00e+00	0	40	0	3990880256	54	4156
2026-01-20 15:33:26.47	333.35	14.76	-41.9	-42.7	20.5	0.00e+00	0	40	0	4019191808	54	4149
2026-01-20 15:33:30.49	332.80	14.44	-41.7	-42.4	20.7	0.00e+00	0	40	0	4048551936	54	4040
2026-01-20 15:33:34.50	332.27	14.13	-41.8	-42.6	20.6	0.00e+00	0	40	0	4076863488	54	4108
2026-01-20 15:33:38.50	331.75	13.81	-41.9	-42.7	20.4	0.00e+00	0	40	0	4106223616	54	4173
2026-01-20 15:33:42.51	331.24	13.50	-42.0	-42.8	20.3	0.00e+00	0	40	0	4135583744	54	4212
2026-01-20 15:33:46.51	330.74	13.19	-42.2	-43.0	20.1	0.00e+00	0	40	0	4163895296	55	4091
2026-01-20 15:33:50.51	330.25	12.88	-42.5	-43.3	19.8	0.00e+00	0	40	0	4193255424	55	4223
2026-01-20 15:33:54.51	329.77	12.57	-42.6	-43.4	19.7	0.00e+00	0	40	0	4221566976	55	4254
2026-01-20 15:33:58.51	329.30	12.27	-42.6	-43.4	19.6	0.00e+00	0	40	0	4250927104	55	4288
2026-01-20 15:34:02.53	328.84	11.96	-43.0	-43.8	19.4	0.00e+00	0	40	0	4279238656	56	4240
2026-01-20 15:34:06.53	328.40	11.66	-43.0	-43.9	19.3	0.00e+00	0	40	0	4308598784	56	4256
2026-01-20 15:34:10.52	327.96	11.36	-43.0	-43.9	19.3	0.00e+00	0	40	0	4336910336	56	4258
2026-01-20 15:34:14.51	327.53	11.06	-42.8	-43.6	19.6	0.00e+00	0	40	0	4366270464	56	4119
2026-01-20 15:34:18.51	327.11	10.77	-43.0	-43.8	19.4	0.00e+00	0	40	0	4394582016	56	4223
2026-01-20 15:34:22.53	326.70	10.47	-43.2	-44.0	19.1	0.00e+00	0	40	0	4423942144	56	4335
2026-01-20 15:34:26.54	326.29	10.18	-43.3	-44.2	18.9	0.00e+00	0	40	0	4452253696	57	4193
2026-01-20 15:34:30.56	325.89	9.89	-43.5	-44.4	18.7	0.00e+00	0	40	0	4482662400	57	4261
2026-01-20 15:34:34.57	325.51	9.60	-43.7	-44.7	18.5	0.00e+00	0	40	0	4510973952	58	4146
2026-01-20 15:34:38.59	325.12	9.31	-43.6	-44.5	18.6	0.00e+00	0	40	0	4540334080	58	4076
2026-01-20 15:34:42.61	324.75	9.03	-43.6	-44.6	18.5	0.00e+00	0	40	0	4568645632	58	4115
2026-01-20 15:34:46.62	324.38	8.75	-43.6	-44.5	18.6	0.00e+00	0	40	0	4598005760	58	4075
2026-01-20 15:34:50.64	324.03	8.47	-43.6	-44.6	18.5	0.00e+00	0	40	0	4626317312	58	4101
2026-01-20 15:34:54.65	323.67	8.19	-43.8	-44.8	18.2	0.00e+00	0	40	0	4655677440	58	4210
2026-01-20 15:34:58.66	323.33	7.91	-44.0	-45.0	18.0	0.00e+00	0	40	0	4685037568	58	4313
2026-01-20 15:35:02.68	322.99	7.64	-44.0	-44.9	18.0	0.00e+00	0	40	0	4714397696	59	4049
2026-01-20 15:35:06.70	322.66	7.36	-44.0	-45.0	17.9	0.00e+00	0	40	0	4742709248	59	4086
2026-01-20 15:35:10.72	322.34	7.09	-44.0	-45.1	17.8	0.00e+00	0	40	0	4772069376	59	4100
2026-01-20 15:35:14.73	322.02	6.83	-44.1	-45.1	17.8	0.00e+00	0	40	0	4800380928	59	4115
2026-01-20 15:35:18.75	321.70	6.56	-44.3	-45.4	17.5	0.00e+00	0	40	0	4829741056	59	4248
2026-01-20 15:35:22.78	321.40	6.29	-43.9	-44.9	17.9	0.00e+00	0	40	0	4859101184	59	4037
2026-01-20 15:35:26.80	321.10	6.03	-44.2	-45.2	17.6	0.00e+00	0	40	0	4888461312	59	4166
2026-01-20 15:35:30.82	320.80	5.77	-44.3	-45.4	17.3	0.00e+00	0	40	0	4916772864	59	4274
2026-01-20 15:35:34.83	320.51	5.51	-44.4	-45.4	17.3	0.00e+00	0	40	0	4946132992	59	4291
2026-01-20 15:35:38.85	320.23	5.25	-44.3	-45.4	17.3	0.00e+00	0	40	0	4975493120	59	4255
2026-01-20 15:35:42.88	319.95	5.00	-52.5	-62.5	3.8	1.11e-02	0	40	0	5002756096	75	12182
2026-01-20 15:35:46.87	319.67	4.74	-53.8	-64.6	3.8	8.47e-01	0	40	104	5002756096	78	13034
2026-01-20 15:35:50.87	319.40	4.49	-54.2	-65.0	3.8	8.46e-01	0	40	104	5002756096	79	12934
2026-01-20 15:35:54.86	319.14	4.24	-54.4	-65.2	3.8	8.46e-01	0	40	104	5002756096	79	13245
2026-01-20 15:35:58.88	318.88	4.00	-54.5	-65.3	3.8	8.46e-01	0	40	104	5002756096	79	13303
2026-01-20 15:36:02.88	318.63	3.75	-54.5	-65.2	3.8	8.46e-01	0	40	104	5002756096	79	13242
2026-01-20 15:36:06.91	318.38	3.50	-54.3	-65.1	3.8	8.46e-01	0	40	104	5002756096	79	13049
2026-01-20 15:36:10.93	318.13	3.26	-54.3	-65.0	3.8	8.47e-01	0	40	104	5002756096	79	12925
2026-01-20 15:36:14.95	317.89	3.02	-54.2	-65.0	3.8	8.46e-01	0	40	104	5002756096	79	12893
2026-01-20 15:36:18.98	317.65	2.78	-54.2	-65.0	3.8	8.46e-01	0	40	104	5002756096	79	12845
2026-01-20 15:36:23.00	317.42	2.54	-54.2	-65.0	3.8	8.46e-01	0	40	104	5002756096	79	12813
2026-01-20 15:36:27.03	317.18	2.30	-54.2	-64.9	3.8	8.46e-01	0	40	104	5002756096	79	12746
2026-01-20 15:36:31.06	316.96	2.06	-54.1	-64.9	3.8	8.45e-01	0	40	104	5002756096	79	12794

#Closed at: 2026-01-20 15:36:34
#Recorded file [5002 MB]: D:/lorett/data/31041_260120_182329.dat