passes_logs/2026/01/20/R3.2S_Murmansk/R3.2S_Murmansk__20260120_212531_JL1KF02B02_rec.log

#Pass ID: 20260120_212531_JL1KF02B02
#Satellite: JL1KF02B02
#Configuration: 01B_900M
#almurnet v.1.7.20251203
#Start time: 2026-01-20 21:25:33

#Version: 2.2.20231116
#Station: R3.2S_Murmansk
#Location: 33.079688 lon 68.888172 lat
#TLE: 1 61193U 24169E   26020.02206547  .00006304  00000+0  39418-3 0  9998
#TLE: 2 61193  97.5740 111.8291 0013774 118.2213 242.0409 15.09703468 73483

#Time	Az	El	Level	Level2	SNR	BER	BlckErr	Temp	State	Recorded	gain1	gain2
2026-01-20 21:25:33.04	200.21	2.08	-54.1	-56.3	6.2	0.00e+00	0	40	0	0	79	18891
2026-01-20 21:25:35.95	200.43	2.26	-54.4	-56.5	6.2	0.00e+00	0	40	104	0	79	19425
2026-01-20 21:25:38.86	200.66	2.45	-54.4	-56.5	6.2	0.00e+00	0	40	104	0	79	19437
2026-01-20 21:25:41.77	200.88	2.64	-54.4	-56.5	6.2	0.00e+00	0	40	104	0	79	19340
2026-01-20 21:25:44.69	201.11	2.83	-54.3	-56.4	6.2	0.00e+00	0	40	104	0	79	19079
2026-01-20 21:25:47.60	201.35	3.02	-54.1	-56.3	6.2	0.00e+00	0	41	104	0	79	18840
2026-01-20 21:25:50.50	201.58	3.21	-54.0	-56.1	6.2	0.00e+00	0	40	104	0	79	18547
2026-01-20 21:25:53.42	201.83	3.40	-53.8	-55.9	6.2	0.00e+00	0	41	104	0	79	18178
2026-01-20 21:25:56.32	202.07	3.59	-53.3	-55.5	6.2	0.00e+00	0	41	104	0	78	18220
2026-01-20 21:25:59.23	202.32	3.79	-52.9	-55.0	6.2	0.00e+00	0	41	104	0	77	18337
2026-01-20 21:26:02.15	202.57	3.98	-52.9	-55.0	6.2	0.00e+00	0	41	104	0	77	18343
2026-01-20 21:26:05.08	202.83	4.18	-52.9	-55.0	6.2	0.00e+00	0	41	104	0	77	18359
2026-01-20 21:26:08.00	203.09	4.38	-52.9	-55.0	6.2	0.00e+00	0	41	104	0	77	18386
2026-01-20 21:26:10.91	203.36	4.58	-52.9	-55.0	6.2	0.00e+00	0	41	104	0	77	18278
2026-01-20 21:26:13.82	203.62	4.79	-52.8	-55.0	6.2	0.00e+00	0	41	104	0	77	18265
2026-01-20 21:26:16.73	203.90	4.99	-52.8	-55.0	6.2	0.00e+00	0	41	104	0	77	18257
2026-01-20 21:26:19.64	204.18	5.20	-52.9	-55.0	6.2	0.00e+00	0	41	104	0	77	18296
2026-01-20 21:26:22.56	204.46	5.40	-53.0	-55.1	6.2	0.00e+00	0	41	104	0	77	18525
2026-01-20 21:26:25.47	204.75	5.61	-52.9	-55.0	6.2	0.00e+00	0	41	104	0	77	18359
2026-01-20 21:26:28.38	205.04	5.82	-52.9	-55.0	6.2	0.00e+00	0	41	104	0	77	18327
2026-01-20 21:26:31.31	205.34	6.04	-52.9	-55.1	6.2	0.00e+00	0	41	104	0	77	18520
2026-01-20 21:26:34.22	205.64	6.25	-53.0	-55.2	6.2	0.00e+00	0	41	104	0	77	18642
2026-01-20 21:26:37.12	205.95	6.47	-52.9	-55.1	6.2	0.00e+00	0	41	104	0	77	18409
2026-01-20 21:26:40.02	206.26	6.68	-52.9	-55.1	6.2	0.00e+00	0	41	104	0	77	18455
2026-01-20 21:26:42.94	206.58	6.90	-53.0	-55.2	6.2	0.00e+00	0	41	104	0	77	18620
2026-01-20 21:26:45.85	206.91	7.12	-53.0	-55.2	6.2	0.00e+00	0	42	104	0	77	18707
2026-01-20 21:26:48.75	207.24	7.35	-53.0	-55.1	6.2	0.00e+00	0	42	104	0	77	18568
2026-01-20 21:26:51.65	207.57	7.57	-53.0	-55.2	6.2	0.00e+00	0	41	104	0	77	18618
2026-01-20 21:26:54.57	207.92	7.80	-53.0	-55.2	6.2	0.00e+00	0	42	104	0	77	18748
2026-01-20 21:26:57.49	208.27	8.03	-53.0	-55.2	6.2	0.00e+00	0	42	104	0	77	18648
2026-01-20 21:27:00.39	208.62	8.26	-53.0	-55.2	6.2	0.00e+00	0	42	104	0	77	18665
2026-01-20 21:27:03.30	208.99	8.49	-53.0	-55.2	6.2	0.00e+00	0	42	104	0	77	18725
2026-01-20 21:27:06.21	209.35	8.72	-49.5	-50.4	6.4	0.00e+00	0	42	104	0	70	16040
2026-01-20 21:27:09.12	209.73	8.96	-45.2	-45.5	6.8	0.00e+00	0	42	104	0	62	14572
2026-01-20 21:27:12.03	210.11	9.20	-50.3	-51.4	6.4	0.00e+00	0	41	104	0	71	17043
2026-01-20 21:27:14.93	210.50	9.43	-45.1	-45.4	6.9	0.00e+00	0	42	104	0	62	14295
2026-01-20 21:27:17.84	210.90	9.68	-44.9	-45.2	7.4	0.00e+00	0	42	104	0	61	14796
2026-01-20 21:27:20.75	211.31	9.92	-45.1	-45.3	8.5	7.60e-06	0	42	104	0	60	15895
2026-01-20 21:27:23.66	211.72	10.17	-38.7	-38.6	13.5	1.37e-03	0	42	0	201326592	48	14650
2026-01-20 21:27:26.57	212.15	10.41	-33.9	-33.8	16.1	1.71e-05	0	42	0	528482304	39	14134
2026-01-20 21:27:29.47	212.57	10.66	-29.2	-29.0	16.8	3.80e-06	0	42	0	855638016	30	13707
2026-01-20 21:27:32.37	213.01	10.91	-28.6	-28.5	17.3	0.00e+00	0	42	0	1182793728	29	13668
2026-01-20 21:27:35.29	213.46	11.17	-27.4	-27.3	17.8	0.00e+00	0	42	0	1509949440	26	14115
2026-01-20 21:27:38.19	213.92	11.42	-27.3	-27.1	17.9	0.00e+00	0	42	0	1837105152	26	13890
2026-01-20 21:27:41.10	214.39	11.68	-27.2	-27.0	17.8	0.00e+00	0	42	0	2164260864	26	13761
2026-01-20 21:27:44.02	214.86	11.94	-27.1	-27.0	17.9	0.00e+00	0	42	0	2483027968	26	13697
2026-01-20 21:27:46.92	215.35	12.20	-27.1	-27.0	18.0	0.00e+00	0	42	0	2810183680	26	13673
2026-01-20 21:27:49.82	215.84	12.47	-26.9	-26.8	18.1	0.00e+00	0	42	0	3137339392	25	14123
2026-01-20 21:27:52.73	216.35	12.73	-26.8	-26.7	18.0	0.00e+00	0	43	0	3464495104	25	14008
2026-01-20 21:27:55.64	216.87	13.00	-26.8	-26.6	18.2	0.00e+00	0	42	0	3800039424	25	13868
2026-01-20 21:27:58.55	217.40	13.27	-26.7	-26.5	18.2	0.00e+00	0	42	0	4127195136	25	13774
2026-01-20 21:28:01.45	217.93	13.54	-26.6	-26.5	18.3	0.00e+00	0	43	0	4454350848	25	13712
2026-01-20 21:28:04.35	218.48	13.81	-26.5	-26.3	18.3	0.00e+00	0	43	0	4781506560	24	14243
2026-01-20 21:28:07.26	219.04	14.09	-26.4	-26.2	18.4	0.00e+00	0	42	0	5108662272	24	14048
2026-01-20 21:28:10.17	219.62	14.37	-26.1	-26.0	18.3	0.00e+00	0	42	0	5435817984	24	13701
2026-01-20 21:28:13.08	220.21	14.64	-26.1	-25.9	18.2	0.00e+00	0	43	0	5762973696	24	13617
2026-01-20 21:28:15.99	220.81	14.92	-26.0	-25.8	18.4	0.00e+00	0	42	0	6090129408	23	14188
2026-01-20 21:28:18.91	221.42	15.21	-25.9	-25.7	18.4	0.00e+00	0	43	0	6408896512	23	14094
2026-01-20 21:28:21.81	222.04	15.49	-25.7	-25.5	18.5	0.00e+00	0	43	0	6736052224	23	13721
2026-01-20 21:28:24.72	222.68	15.77	-25.7	-25.5	18.5	0.00e+00	0	43	0	7063207936	23	13701
2026-01-20 21:28:27.64	223.34	16.06	-25.5	-25.4	18.5	0.00e+00	0	43	0	7390363648	23	13500
2026-01-20 21:28:30.54	224.00	16.34	-25.6	-25.4	18.4	0.00e+00	0	43	0	7725907968	23	13574
2026-01-20 21:28:33.44	224.68	16.63	-25.3	-25.2	18.4	0.00e+00	0	43	0	8053063680	22	13974
2026-01-20 21:28:36.35	225.38	16.91	-25.2	-25.0	18.5	0.00e+00	0	43	0	8380219392	22	13768
2026-01-20 21:28:39.25	226.09	17.20	-25.2	-25.0	18.6	0.00e+00	0	43	0	8707375104	22	13704
2026-01-20 21:28:42.16	226.82	17.49	-25.0	-24.8	18.6	0.00e+00	0	43	0	9034530816	22	13439
2026-01-20 21:28:45.07	227.56	17.78	-24.9	-24.7	18.5	0.00e+00	0	43	0	9361686528	21	14065
2026-01-20 21:28:47.98	228.32	18.07	-24.9	-24.7	18.6	0.00e+00	0	43	0	9688842240	21	14065
2026-01-20 21:28:50.89	229.09	18.35	-24.8	-24.7	18.5	0.00e+00	0	43	0	10015997952	21	13952
2026-01-20 21:28:53.80	229.89	18.64	-24.6	-24.4	18.5	0.00e+00	0	43	0	10343153664	21	13596
2026-01-20 21:28:56.71	230.69	18.93	-24.5	-24.4	18.6	0.00e+00	0	43	0	10661920768	21	13506
2026-01-20 21:28:59.63	231.52	19.21	-24.4	-24.2	18.3	0.00e+00	0	43	0	10989076480	20	14085
2026-01-20 21:29:02.54	232.37	19.50	-24.5	-24.3	18.4	0.00e+00	0	43	0	11316232192	20	14248
2026-01-20 21:29:05.44	233.22	19.78	-24.4	-24.2	18.4	0.00e+00	0	43	0	11651776512	20	14060
2026-01-20 21:29:08.35	234.10	20.06	-24.3	-24.1	18.3	0.00e+00	0	43	0	11978932224	20	13923
2026-01-20 21:29:11.27	235.00	20.34	-24.3	-24.1	18.3	0.00e+00	0	43	0	12306087936	20	13899
2026-01-20 21:29:14.17	235.91	20.61	-24.1	-23.9	18.1	0.00e+00	0	43	0	12633243648	20	13548
2026-01-20 21:29:17.08	236.84	20.89	-24.0	-23.9	18.1	0.00e+00	0	43	0	12960399360	20	13512
2026-01-20 21:29:19.98	237.79	21.15	-24.2	-24.0	17.8	0.00e+00	0	43	0	13287555072	19	14553
2026-01-20 21:29:22.90	238.76	21.42	-23.9	-23.7	17.8	0.00e+00	0	43	0	13614710784	19	14062
2026-01-20 21:29:25.81	239.75	21.68	-23.8	-23.7	17.3	0.00e+00	0	43	0	13941866496	19	13979
2026-01-20 21:29:28.72	240.75	21.94	-23.7	-23.6	17.5	0.00e+00	0	43	0	14269022208	19	13823
2026-01-20 21:29:31.62	241.77	22.19	-23.6	-23.4	17.1	0.00e+00	0	43	0	14587789312	19	13570
2026-01-20 21:29:34.53	242.82	22.43	-23.6	-23.4	17.0	0.00e+00	0	43	0	14914945024	18	14379
2026-01-20 21:29:37.44	243.87	22.67	-23.6	-23.5	17.2	0.00e+00	0	43	0	15258877952	18	14466
2026-01-20 21:29:40.34	244.95	22.90	-23.4	-23.2	16.8	0.00e+00	0	43	0	15577645056	18	14079
2026-01-20 21:29:43.25	246.04	23.12	-23.3	-23.1	16.7	0.00e+00	0	43	0	15904800768	18	13910
2026-01-20 21:29:46.16	247.15	23.34	-23.3	-23.1	16.7	0.00e+00	0	43	0	16231956480	18	13881
2026-01-20 21:29:49.06	248.28	23.55	-23.2	-23.0	16.9	0.00e+00	0	43	0	16559112192	18	13730
2026-01-20 21:29:51.97	249.42	23.75	-23.2	-23.0	17.0	0.00e+00	0	43	0	16886267904	18	13732
2026-01-20 21:29:54.89	250.58	23.94	-23.2	-23.0	17.0	0.00e+00	0	43	0	17213423616	18	13742
2026-01-20 21:29:57.79	251.75	24.12	-23.1	-23.0	16.8	0.00e+00	0	43	0	17540579328	18	13679
2026-01-20 21:30:00.71	252.94	24.29	-23.1	-23.0	17.0	0.00e+00	0	43	0	17867735040	18	13671
2026-01-20 21:30:03.62	254.15	24.45	-23.0	-22.9	17.5	0.00e+00	0	43	0	18194890752	18	13510
2026-01-20 21:30:06.54	255.37	24.60	-23.1	-22.9	17.2	0.00e+00	0	43	0	18530435072	18	13515
2026-01-20 21:30:09.45	256.59	24.73	-22.9	-22.8	17.2	0.00e+00	0	43	0	18857590784	17	14137
2026-01-20 21:30:12.36	257.83	24.86	-22.9	-22.7	17.1	0.00e+00	0	43	0	19184746496	17	14043
2026-01-20 21:30:15.27	259.08	24.97	-22.9	-22.8	17.0	0.00e+00	0	43	0	19511902208	17	14137
2026-01-20 21:30:18.17	260.33	25.07	-22.9	-22.7	17.3	0.00e+00	0	43	0	19830669312	17	14063
2026-01-20 21:30:21.08	261.60	25.16	-22.8	-22.7	17.5	0.00e+00	0	43	0	20157825024	17	13967
2026-01-20 21:30:23.99	262.87	25.23	-22.9	-22.7	18.0	0.00e+00	0	43	0	20484980736	17	14082
2026-01-20 21:30:26.91	264.15	25.29	-22.9	-22.7	17.8	0.00e+00	0	43	0	20812136448	17	14060
2026-01-20 21:30:29.81	265.43	25.34	-22.9	-22.7	18.0	0.00e+00	0	43	0	21139292160	17	14098
2026-01-20 21:30:32.72	266.71	25.37	-22.9	-22.8	18.4	0.00e+00	0	43	0	21466447872	17	14148
2026-01-20 21:30:35.63	268.00	25.39	-22.9	-22.7	18.7	0.00e+00	0	43	0	21793603584	17	14088
2026-01-20 21:30:38.53	269.29	25.39	-23.0	-22.8	18.8	0.00e+00	0	43	0	22120759296	17	14269
2026-01-20 21:30:41.44	270.57	25.38	-23.0	-22.8	19.2	0.00e+00	0	43	0	22456303616	17	14228
2026-01-20 21:30:44.36	271.87	25.35	-23.1	-23.0	19.0	0.00e+00	0	43	0	22783459328	17	14502
2026-01-20 21:30:47.28	273.15	25.32	-23.2	-23.1	19.1	0.00e+00	0	43	0	23110615040	17	14644
2026-01-20 21:30:50.19	274.43	25.26	-23.3	-23.2	19.3	0.00e+00	0	43	0	23437770752	17	14814
2026-01-20 21:30:53.09	275.70	25.20	-23.2	-23.0	19.1	0.00e+00	0	43	0	23756537856	17	14595
2026-01-20 21:30:56.01	276.98	25.12	-23.3	-23.1	19.3	0.00e+00	0	43	0	24083693568	17	14702
2026-01-20 21:30:58.92	278.24	25.03	-23.4	-23.2	19.0	0.00e+00	0	43	0	24410849280	17	14873
2026-01-20 21:31:01.83	279.49	24.92	-23.4	-23.2	19.1	0.00e+00	0	43	0	24738004992	17	14904
2026-01-20 21:31:04.74	280.73	24.80	-23.4	-23.2	19.0	0.00e+00	0	43	0	25065160704	17	14843
2026-01-20 21:31:07.65	281.97	24.67	-23.4	-23.3	18.9	0.00e+00	0	43	0	25400705024	17	14981
2026-01-20 21:31:10.56	283.19	24.53	-23.5	-23.3	18.9	0.00e+00	0	43	0	25727860736	17	15120
2026-01-20 21:31:13.47	284.39	24.38	-23.6	-23.4	18.8	0.00e+00	0	43	0	26055016448	17	15231
2026-01-20 21:31:16.38	285.59	24.21	-23.6	-23.4	19.0	0.00e+00	0	43	0	26382172160	17	15253
2026-01-20 21:31:19.29	286.77	24.04	-23.6	-23.4	19.1	0.00e+00	0	43	0	26709327872	17	15292
2026-01-20 21:31:22.20	287.94	23.85	-23.7	-23.6	19.2	0.00e+00	0	43	0	27036483584	18	14639
2026-01-20 21:31:25.12	289.09	23.66	-23.8	-23.7	19.0	0.00e+00	0	43	0	27363639296	18	14799
2026-01-20 21:31:28.03	290.23	23.45	-24.0	-23.8	19.0	0.00e+00	0	43	0	27682406400	18	15068
2026-01-20 21:31:30.93	291.34	23.24	-23.9	-23.7	19.2	0.00e+00	0	43	0	28009562112	18	14915
2026-01-20 21:31:33.84	292.44	23.02	-23.9	-23.7	19.3	0.00e+00	0	43	0	28353495040	18	14891
2026-01-20 21:31:36.75	293.53	22.80	-24.0	-23.8	19.3	0.00e+00	0	43	0	28680650752	18	15030
2026-01-20 21:31:39.66	294.60	22.56	-24.2	-24.0	19.4	0.00e+00	0	43	0	28999417856	18	15376
2026-01-20 21:31:42.57	295.65	22.32	-24.1	-23.9	19.4	0.00e+00	0	43	0	29326573568	19	14429
2026-01-20 21:31:45.48	296.68	22.07	-24.3	-24.1	19.4	0.00e+00	0	43	0	29653729280	19	14721
2026-01-20 21:31:48.39	297.69	21.82	-24.4	-24.2	19.3	0.00e+00	0	43	0	29980884992	19	14891
2026-01-20 21:31:51.31	298.69	21.56	-24.3	-24.2	19.3	0.00e+00	0	43	0	30308040704	19	14831
2026-01-20 21:31:54.23	299.67	21.30	-24.4	-24.2	19.1	0.00e+00	0	43	0	30635196416	19	14936
2026-01-20 21:31:57.13	300.63	21.04	-24.5	-24.4	19.0	0.00e+00	0	43	0	30962352128	19	15151
2026-01-20 21:32:00.05	301.57	20.77	-24.7	-24.5	19.1	0.00e+00	0	43	0	31297896448	19	15373
2026-01-20 21:32:02.97	302.50	20.49	-24.5	-24.4	18.8	0.00e+00	0	43	0	31625052160	20	14294
2026-01-20 21:32:05.88	303.40	20.22	-24.6	-24.4	18.7	0.00e+00	0	43	0	31952207872	20	14346
2026-01-20 21:32:08.79	304.29	19.94	-24.7	-24.6	18.6	0.00e+00	0	43	0	32279363584	20	14612
2026-01-20 21:32:11.71	305.16	19.65	-24.9	-24.7	18.6	0.00e+00	0	43	0	32606519296	20	14922
2026-01-20 21:32:14.62	306.01	19.37	-25.0	-24.9	18.4	0.00e+00	0	43	0	32925286400	20	15131
2026-01-20 21:32:17.54	306.85	19.09	-25.1	-24.9	18.0	0.00e+00	0	43	0	33252442112	20	15213
2026-01-20 21:32:20.45	307.67	18.80	-25.2	-25.0	18.2	0.00e+00	0	43	0	33596375040	20	15387
2026-01-20 21:32:23.37	308.47	18.51	-25.2	-25.0	18.0	0.00e+00	0	43	0	33915142144	21	14577
2026-01-20 21:32:26.29	309.26	18.23	-25.3	-25.1	18.0	0.00e+00	0	43	0	34242297856	21	14759
2026-01-20 21:32:29.20	310.02	17.94	-25.4	-25.2	18.0	0.00e+00	0	43	0	34569453568	21	14914
2026-01-20 21:32:32.11	310.77	17.65	-25.5	-25.3	17.9	0.00e+00	0	43	0	34896609280	21	15010
2026-01-20 21:32:35.03	311.51	17.36	-25.6	-25.5	18.1	0.00e+00	0	43	0	35223764992	21	15313
2026-01-20 21:32:37.94	312.23	17.08	-25.6	-25.5	17.8	0.00e+00	0	43	0	35559309312	21	15297
2026-01-20 21:32:40.85	312.93	16.79	-25.7	-25.6	17.6	0.00e+00	0	43	0	35886465024	22	14674
2026-01-20 21:32:43.76	313.62	16.50	-25.8	-25.7	17.2	0.00e+00	0	43	0	36213620736	22	14808
2026-01-20 21:32:46.68	314.30	16.22	-26.0	-25.9	17.2	0.00e+00	0	43	0	36540776448	22	15128
2026-01-20 21:32:49.60	314.96	15.93	-26.0	-25.9	17.2	0.00e+00	0	43	0	36867932160	22	15176
2026-01-20 21:32:52.52	315.61	15.65	-26.3	-26.1	17.3	0.00e+00	0	43	0	37195087872	23	14774
2026-01-20 21:32:55.43	316.24	15.36	-26.4	-26.2	17.2	0.00e+00	0	43	0	37522243584	23	14837
2026-01-20 21:32:58.34	316.86	15.08	-26.5	-26.3	17.3	0.00e+00	0	43	0	37857787904	23	15017
2026-01-20 21:33:01.25	317.47	14.80	-26.6	-26.4	17.2	0.00e+00	0	43	0	38184943616	23	15226
2026-01-20 21:33:04.16	318.06	14.52	-26.8	-26.6	17.4	0.00e+00	0	43	0	38512099328	24	14678
2026-01-20 21:33:07.07	318.64	14.25	-26.7	-26.5	17.4	0.00e+00	0	43	0	38839255040	24	14579
2026-01-20 21:33:09.99	319.21	13.97	-26.8	-26.7	17.6	0.00e+00	0	43	0	39158022144	24	14819
2026-01-20 21:33:12.90	319.77	13.70	-27.0	-26.8	17.6	0.00e+00	0	43	0	39485177856	24	15065
2026-01-20 21:33:15.82	320.31	13.42	-27.1	-26.9	17.6	0.00e+00	0	43	0	39812333568	24	15201
2026-01-20 21:33:18.72	320.85	13.16	-27.1	-26.9	17.6	0.00e+00	0	43	0	40139489280	25	14434
2026-01-20 21:33:21.63	321.37	12.89	-27.2	-27.0	17.5	0.00e+00	0	43	0	40466644992	25	14582
2026-01-20 21:33:24.55	321.88	12.62	-27.5	-27.3	18.8	0.00e+00	0	43	0	40802189312	25	15041
2026-01-20 21:33:27.47	322.39	12.36	-53.3	-55.6	6.2	0.00e+00	0	43	104	40877686784	77	19492
2026-01-20 21:33:30.38	322.88	12.09	-53.4	-55.5	6.2	0.00e+00	0	43	104	40877686784	77	19342
2026-01-20 21:33:33.28	323.36	11.83	-53.3	-55.5	6.2	0.00e+00	0	43	104	40877686784	77	19267
2026-01-20 21:33:36.20	323.83	11.57	-53.3	-55.4	6.2	0.00e+00	0	43	104	40877686784	77	19211
2026-01-20 21:33:39.12	324.29	11.32	-53.3	-55.4	6.2	0.00e+00	0	43	104	40877686784	77	19129
2026-01-20 21:33:42.03	324.75	11.06	-53.3	-55.5	6.2	0.00e+00	0	43	104	40877686784	77	19273
2026-01-20 21:33:44.95	325.19	10.81	-53.2	-55.3	6.2	0.00e+00	0	43	104	40877686784	77	18977
2026-01-20 21:33:47.87	325.63	10.56	-53.2	-55.4	6.2	0.00e+00	0	43	104	40877686784	77	19065
2026-01-20 21:33:50.78	326.06	10.31	-53.2	-55.3	6.2	0.00e+00	0	42	104	40877686784	77	18979
2026-01-20 21:33:53.70	326.48	10.06	-53.1	-55.3	6.2	0.00e+00	0	43	104	40877686784	77	18919
2026-01-20 21:33:56.61	326.89	9.82	-53.1	-55.3	6.2	0.00e+00	0	42	104	40877686784	77	18874
2026-01-20 21:33:59.53	327.29	9.58	-53.1	-55.2	6.2	0.00e+00	0	43	104	40877686784	77	18808
2026-01-20 21:34:02.44	327.69	9.34	-53.0	-55.2	6.2	0.00e+00	0	42	104	40877686784	77	18781
2026-01-20 21:34:05.35	328.07	9.10	-53.1	-55.2	6.2	0.00e+00	0	42	104	40877686784	77	18725
2026-01-20 21:34:08.27	328.45	8.86	-53.1	-55.2	6.2	0.00e+00	0	42	104	40877686784	77	18662
2026-01-20 21:34:11.18	328.83	8.63	-53.0	-55.2	6.2	0.00e+00	0	42	104	40877686784	77	18668
2026-01-20 21:34:14.10	329.20	8.39	-53.0	-55.2	6.2	0.00e+00	0	42	104	40877686784	77	18680
2026-01-20 21:34:17.02	329.56	8.16	-53.0	-55.1	6.2	0.00e+00	0	42	104	40877686784	77	18501
2026-01-20 21:34:19.92	329.91	7.93	-53.0	-55.1	6.2	0.00e+00	0	42	104	40877686784	77	18557
2026-01-20 21:34:22.83	330.25	7.71	-53.0	-55.1	6.2	0.00e+00	0	42	104	40877686784	77	18552
2026-01-20 21:34:25.74	330.60	7.48	-53.0	-55.1	6.2	0.00e+00	0	42	104	40877686784	77	18584
2026-01-20 21:34:28.65	330.93	7.26	-52.9	-55.1	6.2	0.00e+00	0	42	104	40877686784	77	18403
2026-01-20 21:34:31.56	331.26	7.04	-52.9	-55.1	6.2	0.00e+00	0	42	104	40877686784	77	18412
2026-01-20 21:34:34.48	331.58	6.82	-52.9	-55.1	6.2	0.00e+00	0	42	104	40877686784	77	18413
2026-01-20 21:34:37.39	331.90	6.60	-52.8	-55.0	6.2	0.00e+00	0	42	104	40877686784	77	18238
2026-01-20 21:34:40.30	332.21	6.38	-52.8	-55.0	6.2	0.00e+00	0	42	104	40877686784	77	18215
2026-01-20 21:34:43.21	332.52	6.17	-52.7	-54.9	6.2	0.00e+00	0	42	104	40877686784	77	18053
2026-01-20 21:34:46.12	332.82	5.96	-52.8	-54.9	6.2	0.00e+00	0	42	104	40877686784	77	18154
2026-01-20 21:34:49.03	333.11	5.75	-52.6	-54.8	6.2	0.00e+00	0	42	104	40877686784	77	17812
2026-01-20 21:34:51.93	333.40	5.54	-52.7	-54.8	6.2	0.00e+00	0	42	104	40877686784	77	17904
2026-01-20 21:34:54.84	333.69	5.33	-52.1	-54.2	6.2	0.00e+00	0	42	104	40877686784	76	17690
2026-01-20 21:34:57.76	333.97	5.13	-51.1	-53.2	6.2	0.00e+00	0	42	104	40877686784	74	17745
2026-01-20 21:35:00.67	334.25	4.92	-53.0	-55.1	6.2	0.00e+00	0	43	104	40877686784	76	19568
2026-01-20 21:35:03.59	334.52	4.72	-53.4	-55.6	6.2	0.00e+00	0	42	104	40877686784	77	19567
2026-01-20 21:35:06.50	334.79	4.52	-53.6	-55.8	6.2	0.00e+00	0	42	104	40877686784	77	19979
2026-01-20 21:35:09.40	335.06	4.32	-53.6	-55.7	6.2	0.00e+00	0	42	104	40877686784	77	19919
2026-01-20 21:35:12.30	335.31	4.12	-53.4	-55.5	6.2	0.00e+00	0	42	104	40877686784	77	19359
2026-01-20 21:35:15.19	335.57	3.92	-53.5	-55.7	6.2	0.00e+00	0	42	104	40877686784	77	19706
2026-01-20 21:35:18.10	335.82	3.73	-53.6	-55.7	6.2	0.00e+00	0	42	104	40877686784	77	19898
2026-01-20 21:35:21.01	336.07	3.54	-53.6	-55.8	6.2	0.00e+00	0	42	104	40877686784	77	19965
2026-01-20 21:35:23.91	336.31	3.34	-53.6	-55.7	6.2	0.00e+00	0	42	104	40877686784	77	19826
2026-01-20 21:35:26.81	336.55	3.15	-53.6	-55.7	6.2	0.00e+00	0	42	104	40877686784	77	19801
2026-01-20 21:35:29.72	336.79	2.96	-53.6	-55.7	6.2	0.00e+00	0	42	104	40877686784	77	19766
2026-01-20 21:35:32.61	337.02	2.78	-53.6	-55.7	6.2	0.00e+00	0	42	104	40877686784	77	19777
2026-01-20 21:35:35.51	337.25	2.59	-53.5	-55.7	6.2	0.00e+00	0	42	104	40877686784	77	19778
2026-01-20 21:35:38.41	337.47	2.40	-53.5	-55.7	6.2	0.00e+00	0	42	104	40877686784	77	19764
2026-01-20 21:35:41.31	337.70	2.22	-53.5	-55.7	6.2	0.00e+00	0	42	104	40877686784	77	19721
2026-01-20 21:35:44.21	337.92	2.04	-53.5	-55.7	6.2	0.00e+00	0	42	104	40877686784	77	19718

#Closed at: 2026-01-20 21:35:46
#Recorded file [40877 MB]: D:/lorett/data/31041_260121_002532.dat