passes_logs/2026/01/20/R3.2S_Murmansk/R3.2S_Murmansk__20260120_072554_NOAA_21_JPSS-2_rec.log

#Pass ID: 20260120_072554_NOAA 21 (JPSS-2)
#Satellite: NOAA 21 (JPSS-2)
#Configuration: NOAA-21
#almurnet v.1.7.20251203
#Start time: 2026-01-20 07:25:55

#Version: 2.2.20231116
#Station: R3.2S_Murmansk
#Location: 33.079688 lon 68.888172 lat
#TLE: 1 54234U 22150A   26019.94667805  .00000106  00000+0  71222-4 0  9995
#TLE: 2 54234  98.7505 320.7866 0000607 253.4528 106.6582 14.19535964165511

#Time	Az	El	Level	Level2	SNR	BER	BlckErr	Temp	State	Recorded	gain1	gain2
2026-01-20 07:25:55.51	103.96	2.04	-51.3	-64.0	3.8	1.49e+00	0	37	0	0	74	15291
2026-01-20 07:25:59.54	103.78	2.29	-51.3	-63.9	3.8	1.49e+00	0	37	104	0	73	16096
2026-01-20 07:26:03.57	103.60	2.54	-51.3	-63.9	3.8	1.49e+00	0	37	104	0	73	15995
2026-01-20 07:26:07.60	103.41	2.79	-51.3	-63.9	3.8	1.49e+00	0	37	104	0	73	16104
2026-01-20 07:26:11.64	103.22	3.04	-51.3	-63.9	3.8	1.49e+00	0	37	104	0	73	15986
2026-01-20 07:26:15.67	103.03	3.29	-51.3	-63.9	3.8	1.49e+00	0	37	104	0	73	16050
2026-01-20 07:26:19.69	102.83	3.55	-51.3	-63.9	3.8	1.49e+00	0	37	104	0	73	15982
2026-01-20 07:26:23.73	102.63	3.81	-51.2	-62.8	3.8	1.49e+00	0	37	104	0	73	14147
2026-01-20 07:26:27.76	102.43	4.07	-50.9	-60.1	4.3	1.47e+00	0	38	104	0	73	10336
2026-01-20 07:26:31.79	102.22	4.33	-50.5	-57.3	5.7	4.04e-01	0	37	0	4194304	72	7947
2026-01-20 07:26:35.82	102.01	4.59	-49.9	-55.1	7.6	9.51e-02	0	38	0	16777216	71	6550
2026-01-20 07:26:39.85	101.79	4.86	-50.0	-55.4	7.4	1.10e-01	0	38	0	29360128	71	6746
2026-01-20 07:26:43.88	101.57	5.13	-49.9	-54.8	8.1	4.78e-02	0	38	0	41943040	70	6650
2026-01-20 07:26:47.91	101.35	5.40	-47.7	-50.3	12.7	2.09e-02	0	38	0	49283072	67	4719
2026-01-20 07:26:51.94	101.12	5.67	-46.7	-48.7	14.4	1.50e-06	0	38	0	61865984	65	4429
2026-01-20 07:26:55.97	100.89	5.95	-46.5	-48.6	14.6	7.00e-07	0	38	0	74448896	64	4600
2026-01-20 07:27:00.00	100.65	6.23	-46.5	-48.5	14.7	7.00e-07	0	38	0	87031808	64	4562
2026-01-20 07:27:04.03	100.41	6.51	-46.5	-48.5	14.6	1.50e-06	0	38	0	99614720	64	4597
2026-01-20 07:27:08.07	100.16	6.79	-46.2	-48.1	15.1	0.00e+00	0	38	0	112197632	64	4364
2026-01-20 07:27:12.09	99.91	7.07	-46.2	-48.1	15.1	0.00e+00	0	38	0	124780544	64	4378
2026-01-20 07:27:16.13	99.65	7.36	-46.0	-47.8	15.5	0.00e+00	0	38	0	137363456	63	4482
2026-01-20 07:27:20.16	99.38	7.66	-45.9	-47.6	15.8	0.00e+00	0	38	0	149946368	63	4363
2026-01-20 07:27:24.19	99.11	7.95	-45.7	-47.3	16.0	0.00e+00	0	38	0	162529280	63	4211
2026-01-20 07:27:28.22	98.84	8.25	-45.6	-47.2	16.1	0.00e+00	0	38	0	175112192	62	4425
2026-01-20 07:27:32.25	98.56	8.55	-45.4	-47.0	16.3	0.00e+00	0	38	0	187695104	62	4317
2026-01-20 07:27:36.29	98.27	8.85	-45.6	-47.3	16.1	0.00e+00	0	38	0	200278016	62	4447
2026-01-20 07:27:40.31	97.98	9.15	-45.4	-46.9	16.5	0.00e+00	0	38	0	212860928	62	4279
2026-01-20 07:27:44.35	97.68	9.46	-45.2	-46.7	16.7	0.00e+00	0	38	0	225443840	62	4187
2026-01-20 07:27:48.38	97.37	9.77	-44.9	-46.4	17.0	0.00e+00	0	38	0	238026752	61	4246
2026-01-20 07:27:52.41	97.06	10.09	-44.8	-46.1	17.3	0.00e+00	0	38	0	250609664	61	4135
2026-01-20 07:27:56.44	96.74	10.41	-44.6	-46.0	17.4	0.00e+00	0	38	0	263192576	61	4064
2026-01-20 07:28:00.48	96.41	10.73	-44.7	-46.1	17.3	0.00e+00	0	38	0	275775488	61	4131
2026-01-20 07:28:04.51	96.07	11.05	-44.7	-46.1	17.3	0.00e+00	0	38	0	288358400	61	4127
2026-01-20 07:28:08.54	95.73	11.38	-44.6	-46.0	17.4	0.00e+00	0	38	0	300941312	61	4081
2026-01-20 07:28:12.57	95.38	11.71	-44.6	-45.9	17.5	0.00e+00	0	38	0	313524224	61	4042
2026-01-20 07:28:16.61	95.02	12.05	-44.5	-45.8	17.7	0.00e+00	0	38	0	326107136	60	4204
2026-01-20 07:28:20.64	94.65	12.38	-44.7	-46.0	17.4	0.00e+00	0	38	0	338690048	60	4321
2026-01-20 07:28:24.67	94.27	12.72	-44.6	-46.0	17.5	0.00e+00	0	38	0	351272960	60	4303
2026-01-20 07:28:28.70	93.89	13.07	-44.5	-45.8	17.7	0.00e+00	0	38	0	363855872	60	4205
2026-01-20 07:28:32.73	93.49	13.42	-44.3	-45.6	17.9	0.00e+00	0	38	0	376438784	60	4109
2026-01-20 07:28:36.76	93.09	13.77	-44.4	-45.6	17.9	0.00e+00	0	38	0	389021696	60	4141
2026-01-20 07:28:40.79	92.67	14.13	-44.4	-45.7	17.8	0.00e+00	0	38	0	401604608	60	4190
2026-01-20 07:28:44.83	92.24	14.49	-44.3	-45.6	17.9	0.00e+00	0	38	0	414187520	60	4117
2026-01-20 07:28:48.86	91.81	14.85	-44.7	-46.0	17.9	0.00e+00	0	39	0	426770432	59	4585
2026-01-20 07:28:52.89	91.36	15.21	-44.4	-45.7	17.9	0.00e+00	0	38	0	439353344	60	4152
2026-01-20 07:28:56.92	90.90	15.58	-44.3	-45.5	18.0	0.00e+00	0	38	0	451936256	60	4096
2026-01-20 07:29:00.95	90.43	15.96	-44.4	-45.7	17.9	0.00e+00	0	38	0	464519168	60	4157
2026-01-20 07:29:04.98	89.95	16.34	-44.5	-45.8	17.8	0.00e+00	0	39	0	477102080	60	4229
2026-01-20 07:29:09.01	89.45	16.72	-44.4	-45.6	18.0	0.00e+00	0	38	0	489684992	60	4138
2026-01-20 07:29:13.04	88.94	17.10	-44.4	-45.7	17.9	0.00e+00	0	38	0	502267904	60	4153
2026-01-20 07:29:17.08	88.42	17.49	-44.7	-46.0	17.7	0.00e+00	0	38	0	514850816	60	4300
2026-01-20 07:29:21.10	87.88	17.88	-44.7	-46.1	17.6	0.00e+00	0	38	0	527433728	60	4343
2026-01-20 07:29:25.13	87.33	18.28	-44.5	-45.8	17.8	0.00e+00	0	38	0	540016640	60	4227
2026-01-20 07:29:29.17	86.76	18.68	-44.6	-45.9	17.7	0.00e+00	0	38	0	552599552	60	4278
2026-01-20 07:29:33.20	86.18	19.08	-44.6	-45.9	17.8	0.00e+00	0	38	0	565182464	60	4273
2026-01-20 07:29:37.23	85.58	19.49	-44.2	-45.4	18.2	0.00e+00	0	38	0	577765376	60	4046
2026-01-20 07:29:41.26	84.97	19.90	-44.3	-45.5	18.5	0.00e+00	0	39	0	590348288	59	4328
2026-01-20 07:29:45.29	84.34	20.31	-44.2	-45.4	18.6	0.00e+00	0	38	0	602931200	59	4246
2026-01-20 07:29:49.33	83.69	20.73	-44.1	-45.2	18.7	0.00e+00	0	38	0	615514112	59	4182
2026-01-20 07:29:53.36	83.02	21.15	-43.9	-45.0	18.9	0.00e+00	0	38	0	628097024	59	4091
2026-01-20 07:29:57.39	82.34	21.57	-43.7	-44.8	19.2	0.00e+00	0	38	0	640679936	59	3968
2026-01-20 07:30:01.42	81.64	21.99	-43.8	-44.9	19.1	0.00e+00	0	38	0	654311424	59	4024
2026-01-20 07:30:05.45	80.91	22.42	-43.8	-44.9	19.1	0.00e+00	0	39	0	665845760	59	4042
2026-01-20 07:30:09.49	80.17	22.85	-43.7	-44.8	19.2	0.00e+00	0	38	0	678428672	59	3988
2026-01-20 07:30:13.52	79.40	23.28	-43.9	-45.1	18.9	0.00e+00	0	38	0	692060160	59	4103
2026-01-20 07:30:17.55	78.61	23.71	-43.8	-44.9	19.1	0.00e+00	0	38	0	703594496	59	4051
2026-01-20 07:30:21.58	77.80	24.14	-43.7	-44.7	19.3	0.00e+00	0	38	0	716177408	59	3957
2026-01-20 07:30:25.61	76.97	24.58	-44.0	-45.2	18.9	0.00e+00	0	38	0	729808896	59	4160
2026-01-20 07:30:29.64	76.12	25.01	-44.0	-45.1	19.0	0.00e+00	0	38	0	742391808	59	4104
2026-01-20 07:30:33.67	75.24	25.45	-43.8	-44.9	19.1	0.00e+00	0	38	0	753926144	59	4048
2026-01-20 07:30:37.70	74.33	25.88	-44.4	-45.7	18.4	0.00e+00	0	38	0	766509056	59	4395
2026-01-20 07:30:41.74	73.40	26.31	-44.5	-45.7	18.4	0.00e+00	0	38	0	780140544	59	4400
2026-01-20 07:30:45.76	72.45	26.74	-44.4	-45.6	18.2	0.00e+00	0	39	0	792723456	60	4117
2026-01-20 07:30:49.79	71.47	27.17	-44.4	-45.6	18.3	0.00e+00	0	39	0	804257792	60	4107
2026-01-20 07:30:53.82	70.46	27.59	-44.0	-45.2	18.6	0.00e+00	0	38	0	817889280	60	3934
2026-01-20 07:30:57.86	69.42	28.02	-44.3	-45.5	18.7	0.00e+00	0	38	0	830472192	59	4311
2026-01-20 07:31:01.89	68.36	28.43	-44.2	-45.4	18.7	0.00e+00	0	38	0	843055104	59	4262
2026-01-20 07:31:05.92	67.27	28.84	-44.2	-45.3	18.8	0.00e+00	0	38	0	855638016	59	4223
2026-01-20 07:31:09.95	66.15	29.25	-44.5	-45.7	18.5	0.00e+00	0	38	0	868220928	59	4401
2026-01-20 07:31:13.98	65.00	29.65	-44.4	-45.6	18.6	0.00e+00	0	38	0	880803840	59	4343
2026-01-20 07:31:18.01	63.82	30.04	-44.1	-45.3	18.9	0.00e+00	0	38	0	893386752	59	4212
2026-01-20 07:31:22.04	62.62	30.42	-44.2	-45.3	18.8	0.00e+00	0	38	0	905969664	59	4218
2026-01-20 07:31:26.07	61.38	30.79	-44.3	-45.5	18.7	0.00e+00	0	38	0	918552576	59	4301
2026-01-20 07:31:30.10	60.12	31.15	-44.4	-45.6	18.6	0.00e+00	0	39	0	931135488	59	4381
2026-01-20 07:31:34.13	58.83	31.50	-44.5	-45.7	18.6	0.00e+00	0	38	0	943718400	59	4399
2026-01-20 07:31:38.16	57.51	31.84	-44.5	-45.7	18.2	0.00e+00	0	39	0	956301312	60	4160
2026-01-20 07:31:42.19	56.16	32.16	-44.9	-46.2	17.8	0.00e+00	0	38	0	968884224	60	4395
2026-01-20 07:31:46.21	54.79	32.47	-44.8	-46.1	17.8	0.00e+00	0	39	0	981467136	60	4370
2026-01-20 07:31:50.25	53.39	32.76	-44.7	-45.9	18.0	0.00e+00	0	39	0	994050048	60	4265
2026-01-20 07:31:54.28	51.97	33.04	-44.8	-46.0	17.9	0.00e+00	0	38	0	1006632960	60	4324
2026-01-20 07:31:58.31	50.52	33.29	-44.9	-46.2	17.8	0.00e+00	0	39	0	1019215872	60	4398
2026-01-20 07:32:02.34	49.06	33.53	-45.0	-46.3	17.6	0.00e+00	0	38	0	1031798784	60	4463
2026-01-20 07:32:06.37	47.57	33.75	-44.9	-46.2	17.7	0.00e+00	0	39	0	1044381696	60	4436
2026-01-20 07:32:10.40	46.06	33.95	-44.8	-46.0	17.9	0.00e+00	0	38	0	1056964608	60	4328
2026-01-20 07:32:14.43	44.53	34.12	-44.9	-46.1	17.8	0.00e+00	0	38	0	1069547520	60	4390
2026-01-20 07:32:18.46	42.99	34.27	-45.1	-46.4	17.6	0.00e+00	0	38	0	1082130432	61	4270
2026-01-20 07:32:22.49	41.44	34.40	-45.1	-46.4	17.6	0.00e+00	0	39	0	1094713344	61	4267
2026-01-20 07:32:26.52	39.87	34.51	-45.2	-46.5	17.4	0.00e+00	0	38	0	1107296256	61	4337
2026-01-20 07:32:30.55	38.30	34.59	-45.0	-46.3	17.7	0.00e+00	0	38	0	1119879168	61	4204
2026-01-20 07:32:34.58	36.72	34.65	-45.4	-46.7	17.2	0.00e+00	0	39	0	1132462080	61	4441
2026-01-20 07:32:38.61	35.13	34.68	-45.4	-46.8	17.2	0.00e+00	0	38	0	1145044992	61	4452
2026-01-20 07:32:42.64	33.54	34.68	-44.8	-46.1	17.9	0.00e+00	0	38	0	1157627904	61	4120
2026-01-20 07:32:46.67	31.96	34.66	-45.2	-46.5	17.4	0.00e+00	0	38	0	1170210816	61	4333
2026-01-20 07:32:50.70	30.37	34.62	-45.3	-46.7	17.3	0.00e+00	0	39	0	1182793728	61	4424
2026-01-20 07:32:54.73	28.80	34.55	-45.1	-46.4	17.5	0.00e+00	0	38	0	1195376640	61	4277
2026-01-20 07:32:58.76	27.23	34.46	-45.1	-46.5	17.5	0.00e+00	0	39	0	1207959552	61	4307
2026-01-20 07:33:02.79	25.67	34.34	-45.3	-46.7	17.3	0.00e+00	0	39	0	1220542464	61	4395
2026-01-20 07:33:06.82	24.12	34.20	-45.3	-46.6	17.4	0.00e+00	0	39	0	1233125376	61	4386
2026-01-20 07:33:10.85	22.59	34.04	-44.6	-45.8	18.2	0.00e+00	0	39	0	1245708288	61	3994
2026-01-20 07:33:14.88	21.07	33.86	-44.8	-46.1	17.9	0.00e+00	0	38	0	1258291200	60	4358
2026-01-20 07:33:18.91	19.57	33.65	-45.0	-46.3	17.6	0.00e+00	0	38	0	1270874112	60	4469
2026-01-20 07:33:22.94	18.09	33.42	-45.3	-46.7	17.3	0.00e+00	0	38	0	1283457024	61	4428
2026-01-20 07:33:26.97	16.64	33.18	-45.1	-46.4	17.5	0.00e+00	0	38	0	1296039936	61	4284
2026-01-20 07:33:31.00	15.20	32.91	-44.8	-46.1	17.9	0.00e+00	0	38	0	1308622848	61	4128
2026-01-20 07:33:35.04	13.79	32.63	-44.5	-45.7	18.2	0.00e+00	0	39	0	1321205760	60	4180
2026-01-20 07:33:39.07	12.41	32.33	-44.5	-45.7	18.3	0.00e+00	0	39	0	1333788672	60	4152
2026-01-20 07:33:43.09	11.05	32.01	-44.1	-45.2	18.7	0.00e+00	0	38	0	1346371584	60	3935
2026-01-20 07:33:47.13	9.72	31.68	-44.9	-46.2	17.8	0.00e+00	0	39	0	1358954496	60	4414
2026-01-20 07:33:51.15	8.42	31.34	-44.5	-45.7	18.3	0.00e+00	0	38	0	1371537408	60	4163
2026-01-20 07:33:55.19	7.14	30.99	-45.0	-46.3	17.7	0.00e+00	0	39	0	1384120320	60	4471
2026-01-20 07:33:59.22	5.89	30.62	-44.3	-45.5	18.7	0.00e+00	0	39	0	1396703232	59	4306
2026-01-20 07:34:03.25	4.67	30.25	-44.6	-45.9	18.0	0.00e+00	0	38	0	1409286144	60	4260
2026-01-20 07:34:07.28	3.48	29.86	-44.7	-45.9	18.0	0.00e+00	0	39	0	1421869056	60	4280
2026-01-20 07:34:11.31	2.32	29.47	-44.3	-45.4	18.5	0.00e+00	0	39	0	1434451968	60	4051
2026-01-20 07:34:15.34	1.19	29.07	-44.5	-45.7	18.2	0.00e+00	0	39	0	1447034880	60	4190
2026-01-20 07:34:19.37	0.09	28.66	-44.6	-45.9	18.1	0.00e+00	0	39	0	1459617792	60	4251
2026-01-20 07:34:23.41	359.01	28.24	-44.2	-45.4	18.5	0.00e+00	0	39	0	1472200704	60	4021
2026-01-20 07:34:27.43	357.96	27.83	-44.0	-45.1	19.2	0.00e+00	0	39	0	1484783616	59	4100
2026-01-20 07:34:31.47	356.94	27.40	-44.5	-45.7	18.6	0.00e+00	0	39	0	1497366528	59	4407
2026-01-20 07:34:35.49	355.95	26.98	-44.0	-45.1	19.1	0.00e+00	0	39	0	1509949440	59	4132
2026-01-20 07:34:39.53	354.98	26.55	-44.1	-45.2	19.0	0.00e+00	0	39	0	1522532352	59	4184
2026-01-20 07:34:43.56	354.04	26.12	-44.2	-45.3	18.8	0.00e+00	0	39	0	1535115264	59	4242
2026-01-20 07:34:47.59	353.12	25.69	-44.1	-45.2	18.9	0.00e+00	0	39	0	1547698176	59	4160
2026-01-20 07:34:51.62	352.23	25.26	-43.9	-45.0	19.1	0.00e+00	0	39	0	1560281088	59	4082
2026-01-20 07:34:55.65	351.37	24.82	-44.1	-45.2	19.0	0.00e+00	0	39	0	1572864000	59	4168
2026-01-20 07:34:59.68	350.52	24.39	-43.8	-44.9	19.2	0.00e+00	0	38	0	1585446912	59	4025
2026-01-20 07:35:03.71	349.70	23.96	-43.4	-44.5	19.5	0.00e+00	0	38	0	1598029824	58	4058
2026-01-20 07:35:07.74	348.91	23.53	-43.6	-44.6	19.4	0.00e+00	0	38	0	1610612736	58	4145
2026-01-20 07:35:11.77	348.13	23.10	-44.1	-45.2	18.8	0.00e+00	0	39	0	1623195648	58	4437
2026-01-20 07:35:15.81	347.38	22.67	-44.2	-45.4	18.7	0.00e+00	0	38	0	1635778560	59	4266
2026-01-20 07:35:19.84	346.65	22.24	-44.1	-45.3	18.9	0.00e+00	0	39	0	1648361472	59	4205
2026-01-20 07:35:23.87	345.93	21.82	-44.2	-45.3	18.8	0.00e+00	0	39	0	1660944384	59	4241
2026-01-20 07:35:27.90	345.24	21.40	-43.9	-45.0	19.1	0.00e+00	0	39	0	1673527296	59	4081
2026-01-20 07:35:31.93	344.57	20.98	-44.4	-45.6	18.5	0.00e+00	0	39	0	1686110208	59	4372
2026-01-20 07:35:35.97	343.91	20.56	-44.5	-45.8	18.4	0.00e+00	0	39	0	1698693120	59	4459
2026-01-20 07:35:39.99	343.27	20.15	-44.5	-45.7	18.4	0.00e+00	0	39	0	1711276032	59	4422
2026-01-20 07:35:44.02	342.65	19.74	-44.1	-45.3	18.9	0.00e+00	0	39	0	1724907520	59	4196
2026-01-20 07:35:48.05	342.05	19.33	-44.2	-45.3	18.8	0.00e+00	0	38	0	1736441856	59	4229
2026-01-20 07:35:52.09	341.46	18.92	-44.3	-45.5	18.5	0.00e+00	0	38	0	1749024768	59	4330
2026-01-20 07:35:56.12	340.89	18.52	-44.4	-45.6	18.3	0.00e+00	0	38	0	1762656256	59	4391
2026-01-20 07:36:00.15	340.33	18.13	-44.3	-45.5	18.4	0.00e+00	0	39	0	1775239168	59	4335
2026-01-20 07:36:04.18	339.79	17.73	-44.4	-45.6	18.4	0.00e+00	0	39	0	1786773504	59	4362
2026-01-20 07:36:08.21	339.26	17.34	-44.4	-45.6	18.1	0.00e+00	0	39	0	1800404992	60	4141
2026-01-20 07:36:12.24	338.75	16.96	-44.8	-46.1	17.6	0.00e+00	0	39	0	1812987904	60	4370
2026-01-20 07:36:16.27	338.24	16.57	-44.6	-45.8	17.9	0.00e+00	0	39	0	1824522240	60	4239
2026-01-20 07:36:20.31	337.76	16.19	-44.4	-45.7	18.1	0.00e+00	0	39	0	1837105152	60	4159
2026-01-20 07:36:24.33	337.28	15.82	-44.7	-46.0	17.8	0.00e+00	0	39	0	1850736640	60	4292
2026-01-20 07:36:28.37	336.82	15.45	-45.0	-46.3	17.4	0.00e+00	0	38	0	1863319552	60	4475
2026-01-20 07:36:32.40	336.36	15.08	-45.0	-46.4	17.3	0.00e+00	0	38	0	1874853888	60	4509
2026-01-20 07:36:36.43	335.92	14.72	-44.8	-46.2	17.5	0.00e+00	0	39	0	1888485376	60	4394
2026-01-20 07:36:40.46	335.49	14.36	-44.7	-46.0	17.7	0.00e+00	0	38	0	1901068288	60	4300
2026-01-20 07:36:44.49	335.07	14.00	-44.7	-45.9	17.7	0.00e+00	0	39	0	1913651200	60	4289
2026-01-20 07:36:48.53	334.66	13.65	-44.6	-45.9	17.7	0.00e+00	0	38	0	1926234112	60	4280
2026-01-20 07:36:52.56	334.27	13.30	-45.1	-46.5	17.2	0.00e+00	0	38	0	1938817024	60	4564
2026-01-20 07:36:56.59	333.88	12.95	-45.1	-46.5	17.1	0.00e+00	0	39	0	1951399936	60	4561
2026-01-20 07:37:00.62	333.50	12.61	-44.9	-46.3	17.2	0.00e+00	0	39	0	1963982848	60	4475
2026-01-20 07:37:04.66	333.12	12.27	-44.7	-46.0	17.5	0.00e+00	0	38	0	1976565760	60	4336
2026-01-20 07:37:08.69	332.76	11.93	-44.6	-45.9	17.7	0.00e+00	0	39	0	1989148672	60	4274
2026-01-20 07:37:12.72	332.41	11.60	-44.8	-46.2	17.5	0.00e+00	0	38	0	2001731584	60	4403
2026-01-20 07:37:16.75	332.06	11.27	-45.1	-46.5	17.1	0.00e+00	0	39	0	2014314496	60	4565
2026-01-20 07:37:20.78	331.72	10.95	-45.3	-46.7	16.9	0.00e+00	0	39	0	2026897408	61	4436
2026-01-20 07:37:24.81	331.39	10.62	-45.3	-46.8	16.8	0.00e+00	0	38	0	2039480320	61	4481
2026-01-20 07:37:28.84	331.07	10.31	-45.4	-46.9	16.7	0.00e+00	0	38	0	2052063232	61	4499
2026-01-20 07:37:32.88	330.76	9.99	-45.3	-46.8	16.8	0.00e+00	0	38	0	2064646144	61	4474
2026-01-20 07:37:36.91	330.45	9.68	-45.6	-47.2	16.3	0.00e+00	0	38	0	2077229056	61	4667
2026-01-20 07:37:40.94	330.15	9.37	-45.3	-46.8	16.7	0.00e+00	0	39	0	2089811968	62	4215
2026-01-20 07:37:44.97	329.85	9.06	-45.6	-47.2	16.3	0.00e+00	0	39	0	2102394880	62	4409
2026-01-20 07:37:49.00	329.56	8.76	-45.9	-47.5	15.9	0.00e+00	0	38	0	2114977792	62	4597
2026-01-20 07:37:53.03	329.28	8.46	-46.1	-47.9	15.6	0.00e+00	0	39	0	2127560704	62	4772
2026-01-20 07:37:57.06	329.00	8.16	-45.8	-47.4	16.0	0.00e+00	0	39	0	2140143616	62	4532
2026-01-20 07:38:01.09	328.73	7.86	-46.0	-47.7	15.7	0.00e+00	0	38	0	2152726528	62	4694
2026-01-20 07:38:05.13	328.47	7.57	-45.8	-47.5	15.9	0.00e+00	0	39	0	2165309440	62	4562
2026-01-20 07:38:09.16	328.21	7.28	-45.9	-47.6	15.8	0.00e+00	0	39	0	2177892352	62	4632
2026-01-20 07:38:13.19	327.95	6.99	-46.1	-47.9	15.5	0.00e+00	0	39	0	2190475264	62	4782
2026-01-20 07:38:17.23	327.71	6.71	-46.4	-48.2	15.2	0.00e+00	0	38	0	2203058176	63	4700
2026-01-20 07:38:21.26	327.46	6.43	-46.4	-48.3	15.1	7.00e-07	0	39	0	2215641088	63	4711
2026-01-20 07:38:25.29	327.22	6.15	-46.6	-48.6	14.7	0.00e+00	0	39	0	2228224000	64	4607
2026-01-20 07:38:29.33	326.99	5.87	-46.3	-48.2	15.0	0.00e+00	0	39	0	2240806912	64	4413
2026-01-20 07:38:33.36	326.76	5.60	-46.4	-48.3	14.9	0.00e+00	0	39	0	2253389824	64	4462
2026-01-20 07:38:37.39	326.54	5.33	-46.7	-48.7	14.5	1.50e-06	0	39	0	2265972736	64	4672
2026-01-20 07:38:41.42	326.32	5.06	-46.7	-48.8	14.3	7.00e-07	0	38	0	2278555648	64	4721
2026-01-20 07:38:45.45	326.10	4.79	-52.1	-64.8	3.8	1.49e+00	0	38	104	2282749952	74	16885
2026-01-20 07:38:49.48	325.89	4.52	-52.5	-65.2	3.8	1.49e+00	0	39	104	2282749952	75	16640
2026-01-20 07:38:53.51	325.68	4.26	-52.7	-65.4	3.8	1.49e+00	0	39	104	2282749952	75	17023
2026-01-20 07:38:57.55	325.48	4.00	-52.8	-65.5	3.8	1.49e+00	0	39	104	2282749952	76	16240
2026-01-20 07:39:01.58	325.28	3.74	-52.8	-65.5	3.8	1.49e+00	0	39	104	2282749952	76	16210
2026-01-20 07:39:05.61	325.08	3.49	-52.7	-65.5	3.8	1.49e+00	0	39	104	2282749952	76	16136
2026-01-20 07:39:09.64	324.89	3.23	-52.7	-65.4	3.8	1.49e+00	0	39	104	2282749952	76	16027
2026-01-20 07:39:13.67	324.70	2.98	-52.7	-65.4	3.8	1.49e+00	0	39	104	2282749952	76	16000
2026-01-20 07:39:17.70	324.51	2.73	-52.6	-65.4	3.8	1.49e+00	0	39	104	2282749952	76	15953
2026-01-20 07:39:21.73	324.33	2.48	-52.6	-65.3	3.8	1.49e+00	0	39	104	2282749952	76	15891
2026-01-20 07:39:25.76	324.15	2.23	-52.6	-65.3	3.8	1.49e+00	0	39	104	2282749952	76	15848

#Closed at: 2026-01-20 07:39:29
#Recorded file [2282 MB]: D:/lorett/data/31041_260120_102555.dat