passes_logs/2026/01/20/R3.2S_Murmansk/R3.2S_Murmansk__20260120_031830_NOAA_20_JPSS-1_rec.log

#Pass ID: 20260120_031830_NOAA 20 (JPSS-1)
#Satellite: NOAA 20 (JPSS-1)
#Configuration: NOAA 20
#almurnet v.1.7.20251203
#Start time: 2026-01-20 03:18:30

#Version: 2.2.20231116
#Station: R3.2S_Murmansk
#Location: 33.079688 lon 68.888172 lat
#TLE: 1 43013U 17073A   26019.27717929  .00000087  00000+0  62288-4 0  9995
#TLE: 2 43013  98.7641 320.1715 0001339  33.1986 326.9274 14.19537047423343

#Time	Az	El	Level	Level2	SNR	BER	BlckErr	Temp	State	Recorded	gain1	gain2
2026-01-20 03:18:30.74	40.22	2.03	-51.8	-66.7	3.8	1.49e+00	0	37	0	0	75	19783
2026-01-20 03:18:34.76	40.01	2.27	-51.8	-66.7	3.8	1.49e+00	0	37	104	0	74	20937
2026-01-20 03:18:38.79	39.80	2.51	-51.8	-66.7	3.8	1.49e+00	0	37	104	0	74	20903
2026-01-20 03:18:42.82	39.59	2.76	-51.8	-66.7	3.8	1.49e+00	0	37	104	0	74	20882
2026-01-20 03:18:46.85	39.37	3.00	-51.8	-66.7	3.8	1.49e+00	0	37	104	0	74	20860
2026-01-20 03:18:50.89	39.14	3.25	-51.8	-66.7	3.8	1.49e+00	0	37	104	0	74	20872
2026-01-20 03:18:54.92	38.92	3.50	-51.8	-66.5	3.8	1.49e+00	0	37	104	0	74	20306
2026-01-20 03:18:58.95	38.68	3.75	-51.7	-65.5	3.8	1.49e+00	0	37	104	0	74	18289
2026-01-20 03:19:02.98	38.45	4.00	-51.6	-63.5	4.1	1.46e+00	0	38	0	0	74	14454
2026-01-20 03:19:07.01	38.21	4.25	-51.4	-61.4	4.8	9.39e-01	0	38	0	5242880	74	11313
2026-01-20 03:19:11.05	37.96	4.51	-51.3	-60.6	5.4	5.38e-01	0	38	0	12582912	74	10324
2026-01-20 03:19:15.08	37.71	4.77	-51.5	-62.1	4.5	9.35e-01	0	38	0	19922944	74	12308
2026-01-20 03:19:19.11	37.46	5.03	-51.6	-64.3	4.0	1.48e+00	0	38	104	23068672	74	15819
2026-01-20 03:19:23.14	37.20	5.29	-50.9	-56.9	9.1	4.36e-01	0	38	0	26214400	73	7140
2026-01-20 03:19:27.17	36.94	5.55	-50.3	-54.9	11.1	4.55e-03	0	38	0	31457280	72	6036
2026-01-20 03:19:31.20	36.67	5.82	-49.8	-53.5	12.7	1.24e-04	0	38	0	38797312	71	5427
2026-01-20 03:19:35.23	36.40	6.09	-49.4	-52.8	13.5	8.30e-06	0	38	0	46137344	70	5301
2026-01-20 03:19:39.26	36.12	6.36	-49.3	-52.5	13.9	5.30e-06	0	38	0	53477376	70	5117
2026-01-20 03:19:43.29	35.83	6.63	-48.9	-51.7	14.7	1.50e-06	0	38	0	60817408	69	4983
2026-01-20 03:19:47.33	35.54	6.90	-48.8	-51.6	14.9	0.00e+00	0	38	0	69206016	69	4912
2026-01-20 03:19:51.36	35.24	7.18	-48.7	-51.4	15.1	0.00e+00	0	38	0	76546048	69	4779
2026-01-20 03:19:55.39	34.94	7.46	-48.7	-51.4	15.1	0.00e+00	0	38	0	83886080	69	4812
2026-01-20 03:19:59.42	34.63	7.74	-48.7	-51.4	15.2	0.00e+00	0	38	0	91226112	69	4771
2026-01-20 03:20:03.45	34.32	8.02	-48.6	-51.2	15.3	0.00e+00	0	38	0	99614720	69	4678
2026-01-20 03:20:07.49	34.00	8.31	-48.5	-51.1	15.5	0.00e+00	0	38	0	106954752	68	4875
2026-01-20 03:20:11.52	33.67	8.60	-48.4	-50.9	15.8	0.00e+00	0	38	0	114294784	68	4790
2026-01-20 03:20:15.55	33.33	8.89	-48.2	-50.5	16.2	0.00e+00	0	38	0	121634816	68	4565
2026-01-20 03:20:19.58	32.99	9.18	-48.3	-50.7	15.9	0.00e+00	0	38	0	128974848	67	4951
2026-01-20 03:20:23.61	32.64	9.47	-48.0	-50.3	16.3	0.00e+00	0	38	0	137363456	67	4740
2026-01-20 03:20:27.64	32.29	9.77	-48.2	-50.6	16.1	0.00e+00	0	38	0	144703488	67	4871
2026-01-20 03:20:31.67	31.92	10.07	-48.0	-50.3	16.4	0.00e+00	0	38	0	152043520	67	4715
2026-01-20 03:20:35.71	31.55	10.37	-47.9	-50.1	16.6	0.00e+00	0	38	0	159383552	67	4636
2026-01-20 03:20:39.74	31.17	10.68	-47.9	-50.0	16.7	0.00e+00	0	38	0	167772160	67	4596
2026-01-20 03:20:43.77	30.78	10.99	-47.8	-49.8	16.9	0.00e+00	0	38	0	175112192	67	4480
2026-01-20 03:20:47.80	30.38	11.30	-47.8	-49.9	16.9	0.00e+00	0	38	0	182452224	67	4535
2026-01-20 03:20:51.83	29.98	11.61	-47.9	-50.0	16.8	0.00e+00	0	38	0	189792256	67	4598
2026-01-20 03:20:55.87	29.56	11.92	-47.9	-50.0	16.8	0.00e+00	0	38	0	197132288	67	4597
2026-01-20 03:20:59.90	29.14	12.24	-47.9	-50.1	16.8	0.00e+00	0	38	0	204472320	67	4614
2026-01-20 03:21:03.93	28.70	12.56	-48.0	-50.1	16.7	0.00e+00	0	38	0	212860928	67	4626
2026-01-20 03:21:07.96	28.26	12.89	-48.1	-50.3	16.7	0.00e+00	0	38	0	220200960	67	4718
2026-01-20 03:21:11.99	27.81	13.21	-48.0	-50.1	16.8	0.00e+00	0	38	0	227540992	67	4648
2026-01-20 03:21:16.03	27.34	13.54	-48.0	-50.1	16.8	0.00e+00	0	38	0	234881024	67	4649
2026-01-20 03:21:20.06	26.87	13.87	-48.0	-50.1	16.8	0.00e+00	0	38	0	243269632	67	4650
2026-01-20 03:21:24.09	26.38	14.20	-48.0	-50.1	16.9	0.00e+00	0	38	0	250609664	67	4607
2026-01-20 03:21:28.12	25.88	14.54	-47.9	-50.0	17.0	0.00e+00	0	38	0	257949696	67	4558
2026-01-20 03:21:32.15	25.37	14.87	-47.6	-49.5	17.5	0.00e+00	0	38	0	265289728	67	4323
2026-01-20 03:21:36.18	24.85	15.21	-47.8	-49.7	17.3	0.00e+00	0	38	0	272629760	67	4429
2026-01-20 03:21:40.21	24.32	15.56	-47.7	-49.7	17.4	0.00e+00	0	38	0	281018368	67	4401
2026-01-20 03:21:44.25	23.77	15.90	-47.7	-49.7	17.4	0.00e+00	0	38	0	288358400	67	4417
2026-01-20 03:21:48.28	23.21	16.25	-47.6	-49.5	17.6	0.00e+00	0	38	0	295698432	67	4307
2026-01-20 03:21:52.31	22.64	16.60	-47.4	-49.2	17.9	0.00e+00	0	38	0	303038464	66	4402
2026-01-20 03:21:56.34	22.05	16.95	-47.3	-49.1	18.0	0.00e+00	0	38	0	310378496	66	4369
2026-01-20 03:22:00.37	21.45	17.30	-47.2	-49.0	18.1	0.00e+00	0	38	0	318767104	66	4308
2026-01-20 03:22:04.40	20.84	17.65	-47.3	-49.0	18.1	0.00e+00	0	38	0	326107136	66	4336
2026-01-20 03:22:08.43	20.21	18.01	-47.1	-48.8	18.3	0.00e+00	0	38	0	333447168	66	4237
2026-01-20 03:22:12.47	19.56	18.36	-47.2	-48.9	18.2	0.00e+00	0	38	0	340787200	66	4268
2026-01-20 03:22:16.50	18.90	18.72	-47.0	-48.6	18.5	0.00e+00	0	38	0	348127232	66	4129
2026-01-20 03:22:20.53	18.22	19.08	-47.0	-48.7	18.4	0.00e+00	0	38	0	356515840	65	4406
2026-01-20 03:22:24.56	17.53	19.44	-47.2	-48.9	18.2	0.00e+00	0	38	0	363855872	65	4527
2026-01-20 03:22:28.59	16.82	19.80	-47.3	-49.1	18.1	0.00e+00	0	38	0	371195904	65	4617
2026-01-20 03:22:32.62	16.09	20.16	-47.4	-49.2	18.0	0.00e+00	0	38	0	378535936	65	4666
2026-01-20 03:22:36.65	15.35	20.53	-47.5	-49.3	17.9	0.00e+00	0	38	0	386924544	65	4712
2026-01-20 03:22:40.69	14.58	20.89	-47.3	-49.1	18.1	0.00e+00	0	38	0	394264576	65	4602
2026-01-20 03:22:44.72	13.80	21.25	-47.2	-48.9	18.3	0.00e+00	0	38	0	401604608	65	4527
2026-01-20 03:22:48.76	13.00	21.61	-47.1	-48.7	18.5	0.00e+00	0	38	0	408944640	65	4435
2026-01-20 03:22:52.79	12.18	21.97	-47.0	-48.7	18.5	0.00e+00	0	38	0	416284672	65	4417
2026-01-20 03:22:56.82	11.34	22.33	-46.9	-48.5	18.7	0.00e+00	0	38	0	423624704	65	4340
2026-01-20 03:23:00.85	10.48	22.68	-46.6	-48.1	19.1	0.00e+00	0	38	0	432013312	65	4139
2026-01-20 03:23:04.89	9.60	23.04	-46.6	-48.1	19.1	0.00e+00	0	38	0	439353344	64	4382
2026-01-20 03:23:08.92	8.70	23.39	-46.5	-48.0	19.3	0.00e+00	0	38	0	446693376	64	4304
2026-01-20 03:23:12.95	7.78	23.74	-46.2	-47.7	19.6	0.00e+00	0	38	0	454033408	64	4150
2026-01-20 03:23:16.99	6.84	24.08	-46.1	-47.5	19.7	0.00e+00	0	38	0	462422016	64	4060
2026-01-20 03:23:21.02	5.88	24.42	-46.0	-47.4	19.9	0.00e+00	0	38	0	469762048	63	4284
2026-01-20 03:23:25.05	4.90	24.76	-46.2	-47.7	19.7	0.00e+00	0	39	0	477102080	63	4402
2026-01-20 03:23:29.08	3.89	25.09	-46.5	-47.9	19.4	0.00e+00	0	38	0	484442112	63	4542
2026-01-20 03:23:33.11	2.87	25.41	-46.6	-48.2	19.1	0.00e+00	0	38	0	491782144	64	4407
2026-01-20 03:23:37.14	1.82	25.73	-46.5	-48.0	19.2	0.00e+00	0	38	0	500170752	64	4339
2026-01-20 03:23:41.17	0.75	26.04	-46.7	-48.2	19.1	0.00e+00	0	38	0	507510784	64	4418
2026-01-20 03:23:45.20	359.66	26.35	-47.0	-48.6	18.7	0.00e+00	0	38	0	514850816	64	4635
2026-01-20 03:23:49.23	358.56	26.64	-47.0	-48.6	18.7	0.00e+00	0	38	0	522190848	64	4642
2026-01-20 03:23:53.27	357.42	26.93	-46.9	-48.5	18.8	0.00e+00	0	38	0	530579456	64	4571
2026-01-20 03:23:57.30	356.27	27.20	-47.0	-48.6	18.7	0.00e+00	0	38	0	537919488	64	4631
2026-01-20 03:24:01.33	355.10	27.47	-46.8	-48.4	18.9	0.00e+00	0	38	0	545259520	64	4535
2026-01-20 03:24:05.36	353.91	27.72	-47.0	-48.7	18.6	0.00e+00	0	38	0	552599552	64	4660
2026-01-20 03:24:09.40	352.70	27.97	-47.3	-49.0	18.3	0.00e+00	0	38	0	559939584	65	4577
2026-01-20 03:24:13.43	351.47	28.20	-47.4	-49.2	18.2	0.00e+00	0	38	0	567279616	65	4659
2026-01-20 03:24:17.46	350.23	28.42	-47.5	-49.3	18.0	0.00e+00	0	38	0	575668224	65	4747
2026-01-20 03:24:21.49	348.97	28.62	-47.6	-49.4	18.0	0.00e+00	0	38	0	583008256	65	4781
2026-01-20 03:24:25.52	347.69	28.81	-47.8	-49.6	17.8	0.00e+00	0	38	0	590348288	66	4627
2026-01-20 03:24:29.55	346.40	28.99	-47.5	-49.2	18.2	0.00e+00	0	38	0	597688320	66	4425
2026-01-20 03:24:33.58	345.09	29.15	-47.5	-49.3	18.1	0.00e+00	0	38	0	606076928	66	4456
2026-01-20 03:24:37.61	343.78	29.29	-47.9	-49.8	17.6	0.00e+00	0	39	0	613416960	66	4733
2026-01-20 03:24:41.64	342.45	29.42	-47.6	-49.3	18.1	0.00e+00	0	38	0	620756992	66	4477
2026-01-20 03:24:45.68	341.10	29.53	-48.3	-50.3	17.1	0.00e+00	0	38	0	628097024	67	4729
2026-01-20 03:24:49.71	339.76	29.62	-48.5	-50.5	16.9	0.00e+00	0	38	0	635437056	67	4861
2026-01-20 03:24:53.74	338.40	29.69	-48.4	-50.5	16.9	0.00e+00	0	38	0	643825664	67	4822
2026-01-20 03:24:57.77	337.04	29.75	-48.5	-50.6	16.8	0.00e+00	0	38	0	651165696	67	4877
2026-01-20 03:25:01.80	335.68	29.79	-48.6	-50.7	16.8	0.00e+00	0	38	0	658505728	67	4966
2026-01-20 03:25:05.84	334.31	29.81	-48.6	-50.8	16.6	0.00e+00	0	38	0	665845760	67	4994
2026-01-20 03:25:09.87	332.94	29.81	-48.8	-51.0	16.6	0.00e+00	0	38	0	673185792	68	4853
2026-01-20 03:25:13.89	331.58	29.80	-48.5	-50.6	17.0	0.00e+00	0	38	0	681574400	68	4604
2026-01-20 03:25:17.93	330.21	29.76	-48.3	-50.3	17.3	0.00e+00	0	38	0	688914432	68	4442
2026-01-20 03:25:21.96	328.85	29.71	-48.4	-50.4	17.2	0.00e+00	0	38	0	696254464	68	4516
2026-01-20 03:25:25.99	327.49	29.64	-47.9	-49.8	17.7	0.00e+00	0	38	0	703594496	67	4442
2026-01-20 03:25:30.02	326.14	29.55	-47.7	-49.5	18.1	0.00e+00	0	38	0	710934528	67	4292
2026-01-20 03:25:34.05	324.80	29.45	-47.7	-49.5	17.9	0.00e+00	0	38	0	719323136	67	4335
2026-01-20 03:25:38.09	323.46	29.32	-47.2	-48.9	18.5	0.00e+00	0	38	0	726663168	66	4261
2026-01-20 03:25:42.11	322.14	29.18	-47.6	-49.4	18.1	0.00e+00	0	38	0	734003200	66	4494
2026-01-20 03:25:46.15	320.83	29.03	-47.4	-49.1	18.4	0.00e+00	0	38	0	741343232	66	4380
2026-01-20 03:25:50.18	319.54	28.86	-47.3	-49.0	18.5	0.00e+00	0	38	0	749731840	66	4306
2026-01-20 03:25:54.21	318.25	28.67	-47.6	-49.3	18.1	0.00e+00	0	39	0	757071872	66	4488
2026-01-20 03:25:58.24	316.99	28.47	-48.0	-49.9	17.6	0.00e+00	0	38	0	764411904	66	4763
2026-01-20 03:26:02.27	315.74	28.26	-48.3	-50.3	17.2	0.00e+00	0	38	0	771751936	67	4715
2026-01-20 03:26:06.30	314.51	28.03	-48.4	-50.4	17.1	0.00e+00	0	39	0	779091968	67	4796
2026-01-20 03:26:10.34	313.29	27.79	-48.2	-50.1	17.4	0.00e+00	0	38	0	787480576	67	4636
2026-01-20 03:26:14.37	312.09	27.53	-48.3	-50.3	17.1	0.00e+00	0	38	0	794820608	67	4743
2026-01-20 03:26:18.39	310.92	27.27	-48.4	-50.4	17.1	0.00e+00	0	38	0	802160640	67	4779
2026-01-20 03:26:22.43	309.76	27.00	-48.1	-50.1	17.4	0.00e+00	0	38	0	809500672	67	4609
2026-01-20 03:26:26.45	308.62	26.71	-48.1	-50.1	17.4	0.00e+00	0	38	0	816840704	67	4605
2026-01-20 03:26:30.49	307.51	26.42	-48.1	-50.0	17.5	0.00e+00	0	38	0	825229312	67	4568
2026-01-20 03:26:34.52	306.41	26.12	-47.6	-49.4	18.1	0.00e+00	0	38	0	832569344	67	4261
2026-01-20 03:26:38.55	305.34	25.81	-47.7	-49.5	18.0	0.00e+00	0	39	0	839909376	67	4326
2026-01-20 03:26:42.58	304.28	25.49	-47.5	-49.3	18.2	0.00e+00	0	38	0	847249408	67	4200
2026-01-20 03:26:46.61	303.25	25.17	-47.1	-48.7	18.7	0.00e+00	0	38	0	854589440	66	4191
2026-01-20 03:26:50.64	302.24	24.84	-47.2	-48.8	18.6	0.00e+00	0	38	0	862978048	66	4231
2026-01-20 03:26:54.67	301.25	24.50	-46.6	-48.1	19.4	0.00e+00	0	38	0	870318080	65	4113
2026-01-20 03:26:58.71	300.28	24.16	-46.6	-48.1	19.4	0.00e+00	0	38	0	877658112	65	4106
2026-01-20 03:27:02.73	299.34	23.82	-46.4	-47.8	19.6	0.00e+00	0	38	0	884998144	64	4231
2026-01-20 03:27:06.77	298.41	23.47	-46.2	-47.7	19.8	0.00e+00	0	38	0	893386752	64	4146
2026-01-20 03:27:10.80	297.50	23.12	-46.2	-47.6	19.8	0.00e+00	0	38	0	900726784	64	4135
2026-01-20 03:27:14.83	296.62	22.77	-45.9	-47.2	20.2	0.00e+00	0	38	0	908066816	63	4161
2026-01-20 03:27:18.86	295.75	22.41	-45.8	-47.1	20.4	0.00e+00	0	38	0	915406848	63	4104
2026-01-20 03:27:22.89	294.91	22.05	-45.5	-46.8	20.7	0.00e+00	0	38	0	922746880	63	3977
2026-01-20 03:27:26.92	294.08	21.69	-45.1	-46.3	21.1	0.00e+00	0	38	0	930086912	62	3976
2026-01-20 03:27:30.96	293.27	21.33	-45.4	-46.6	20.8	0.00e+00	0	38	0	938475520	62	4142
2026-01-20 03:27:34.99	292.49	20.97	-45.2	-46.4	21.0	0.00e+00	0	38	0	945815552	62	4017
2026-01-20 03:27:39.02	291.72	20.61	-45.3	-46.5	20.9	0.00e+00	0	38	0	953155584	62	4088
2026-01-20 03:27:43.05	290.96	20.25	-45.5	-46.8	20.5	0.00e+00	0	38	0	960495616	62	4235
2026-01-20 03:27:47.08	290.23	19.89	-45.6	-46.9	20.5	0.00e+00	0	38	0	968884224	62	4266
2026-01-20 03:27:51.11	289.52	19.52	-45.7	-47.0	20.4	0.00e+00	0	38	0	976224256	62	4324
2026-01-20 03:27:55.14	288.82	19.16	-45.8	-47.2	20.2	0.00e+00	0	38	0	983564288	62	4402
2026-01-20 03:27:59.17	288.13	18.80	-46.0	-47.4	20.0	0.00e+00	0	38	0	990904320	62	4511
2026-01-20 03:28:03.21	287.47	18.44	-46.4	-47.9	19.6	0.00e+00	0	38	0	998244352	63	4502
2026-01-20 03:28:07.23	286.82	18.09	-46.5	-47.9	19.4	0.00e+00	0	38	0	1006632960	63	4541
2026-01-20 03:28:11.27	286.18	17.73	-46.6	-48.1	19.2	0.00e+00	0	39	0	1013972992	63	4646
2026-01-20 03:28:15.30	285.56	17.37	-46.4	-47.9	19.4	0.00e+00	0	38	0	1021313024	63	4519
2026-01-20 03:28:19.33	284.95	17.02	-46.7	-48.2	19.1	0.00e+00	0	38	0	1028653056	63	4702
2026-01-20 03:28:23.36	284.36	16.67	-46.8	-48.4	18.9	0.00e+00	0	38	0	1037041664	64	4501
2026-01-20 03:28:27.39	283.78	16.32	-46.8	-48.4	18.8	0.00e+00	0	38	0	1044381696	64	4530
2026-01-20 03:28:31.43	283.22	15.97	-46.9	-48.5	18.7	0.00e+00	0	38	0	1051721728	64	4574
2026-01-20 03:28:35.46	282.67	15.63	-47.0	-48.6	18.6	0.00e+00	0	38	0	1059061760	64	4623
2026-01-20 03:28:39.49	282.13	15.28	-47.1	-48.8	18.4	0.00e+00	0	38	0	1066401792	64	4757
2026-01-20 03:28:43.52	281.60	14.94	-47.1	-48.8	18.4	0.00e+00	0	38	0	1073741824	64	4749
2026-01-20 03:28:47.56	281.09	14.60	-47.3	-49.0	18.2	0.00e+00	0	38	0	1082130432	65	4586
2026-01-20 03:28:51.59	280.59	14.27	-47.6	-49.4	17.8	0.00e+00	0	38	0	1089470464	65	4802
2026-01-20 03:28:55.62	280.10	13.93	-47.7	-49.6	17.6	0.00e+00	0	38	0	1096810496	65	4909
2026-01-20 03:28:59.65	279.62	13.60	-48.1	-50.1	17.1	0.00e+00	0	38	0	1104150528	66	4893
2026-01-20 03:29:03.68	279.15	13.27	-48.0	-50.0	17.2	0.00e+00	0	38	0	1112539136	66	4839
2026-01-20 03:29:07.71	278.69	12.95	-47.9	-49.9	17.3	0.00e+00	0	38	0	1119879168	66	4769
2026-01-20 03:29:11.75	278.24	12.62	-47.8	-49.7	17.4	0.00e+00	0	38	0	1127219200	66	4693
2026-01-20 03:29:15.78	277.81	12.30	-47.8	-49.8	17.4	0.00e+00	0	38	0	1134559232	66	4719
2026-01-20 03:29:19.81	277.38	11.98	-48.0	-50.1	17.0	0.00e+00	0	38	0	1141899264	66	4893
2026-01-20 03:29:23.84	276.96	11.67	-47.9	-49.9	17.2	0.00e+00	0	38	0	1150287872	66	4801
2026-01-20 03:29:27.87	276.55	11.35	-48.0	-50.1	17.0	0.00e+00	0	38	0	1157627904	66	4886
2026-01-20 03:29:31.90	276.15	11.04	-48.2	-50.3	16.8	0.00e+00	0	38	0	1164967936	67	4727
2026-01-20 03:29:35.94	275.76	10.73	-48.4	-50.6	16.5	0.00e+00	0	38	0	1172307968	67	4893
2026-01-20 03:29:39.97	275.37	10.43	-48.2	-50.4	16.6	0.00e+00	0	38	0	1179648000	67	4788
2026-01-20 03:29:44.00	275.00	10.12	-48.4	-50.6	16.4	0.00e+00	0	38	0	1188036608	67	4912
2026-01-20 03:29:48.03	274.63	9.82	-48.9	-51.3	15.8	0.00e+00	0	38	0	1195376640	68	5034
2026-01-20 03:29:52.06	274.27	9.53	-49.0	-51.6	15.4	0.00e+00	0	38	0	1202716672	68	5192
2026-01-20 03:29:56.09	273.92	9.23	-48.7	-51.1	16.0	0.00e+00	0	38	0	1210056704	68	4873
2026-01-20 03:30:00.12	273.57	8.94	-48.6	-50.9	16.1	0.00e+00	0	38	0	1217396736	68	4805
2026-01-20 03:30:04.16	273.23	8.64	-48.5	-50.9	16.1	0.00e+00	0	39	0	1225785344	68	4767
2026-01-20 03:30:08.19	272.90	8.36	-48.7	-51.1	15.8	0.00e+00	0	38	0	1233125376	68	4911
2026-01-20 03:30:12.22	272.58	8.07	-48.8	-51.4	15.5	0.00e+00	0	38	0	1240465408	68	5054
2026-01-20 03:30:16.25	272.26	7.78	-49.0	-51.6	15.2	0.00e+00	0	38	0	1247805440	68	5205
2026-01-20 03:30:20.28	271.95	7.50	-48.9	-51.6	15.1	0.00e+00	0	38	0	1256194048	68	5204
2026-01-20 03:30:24.31	271.64	7.22	-49.4	-52.5	14.2	1.50e-06	0	38	0	1263534080	69	5441
2026-01-20 03:30:28.34	271.34	6.95	-49.5	-52.7	13.8	4.50e-06	0	38	0	1270874112	69	5592
2026-01-20 03:30:32.37	271.05	6.67	-49.5	-52.7	13.8	3.00e-06	0	38	0	1278214144	69	5558
2026-01-20 03:30:36.40	270.76	6.40	-49.3	-52.4	14.0	0.00e+00	0	38	0	1285554176	69	5377
2026-01-20 03:30:40.43	270.48	6.13	-49.3	-52.4	14.0	3.00e-06	0	38	0	1292894208	69	5377
2026-01-20 03:30:44.46	270.20	5.86	-49.7	-53.2	13.1	2.89e-05	0	38	0	1301282816	70	5568
2026-01-20 03:30:48.49	269.93	5.59	-50.1	-54.2	12.0	3.81e-04	0	39	0	1308622848	70	6273
2026-01-20 03:30:52.53	269.66	5.33	-50.5	-55.5	10.6	3.28e-03	0	39	0	1315962880	71	6810
2026-01-20 03:30:56.56	269.40	5.07	-50.5	-55.7	10.1	1.19e-02	0	38	0	1323302912	72	6625
2026-01-20 03:31:00.59	269.15	4.81	-53.3	-68.3	3.8	1.49e+00	0	38	104	1325400064	77	21185
2026-01-20 03:31:04.62	268.89	4.55	-53.7	-68.7	3.8	1.49e+00	0	38	104	1325400064	77	22024
2026-01-20 03:31:08.65	268.65	4.29	-53.9	-68.9	3.8	1.49e+00	0	38	104	1325400064	78	21275
2026-01-20 03:31:12.68	268.40	4.04	-54.0	-69.0	3.8	1.49e+00	0	39	104	1325400064	78	21604
2026-01-20 03:31:16.72	268.17	3.78	-54.2	-69.1	3.8	1.49e+00	0	39	104	1325400064	78	21986
2026-01-20 03:31:20.74	267.93	3.53	-54.1	-69.1	3.8	1.49e+00	0	39	104	1325400064	78	21919
2026-01-20 03:31:24.77	267.70	3.28	-54.1	-69.1	3.8	1.49e+00	0	39	104	1325400064	78	21793
2026-01-20 03:31:28.81	267.48	3.04	-54.0	-69.0	3.8	1.49e+00	0	39	104	1325400064	78	21733
2026-01-20 03:31:32.84	267.25	2.79	-54.0	-69.0	3.8	1.49e+00	0	39	104	1325400064	78	21566
2026-01-20 03:31:36.87	267.04	2.55	-54.0	-69.0	3.8	1.49e+00	0	39	104	1325400064	78	21532
2026-01-20 03:31:40.90	266.82	2.30	-54.0	-69.0	3.8	1.49e+00	0	39	104	1325400064	78	21517
2026-01-20 03:31:44.93	266.61	2.06	-53.9	-68.9	3.8	1.49e+00	0	39	104	1325400064	78	21474

#Closed at: 2026-01-20 03:31:47
#Recorded file [1325 MB]: D:/lorett/data/31041_260120_061830.dat