passes_logs/2026/01/20/R3.2S_Murmansk/R3.2S_Murmansk__20260120_091348_TY-42_rec.log

#Pass ID: 20260120_091348_TY-42
#Satellite: TY-42
#Configuration: TY-42_900M
#almurnet v.1.7.20251203
#Start time: 2026-01-20 09:13:49

#Version: 2.2.20231116
#Station: R3.2S_Murmansk
#Location: 33.079688 lon 68.888172 lat
#TLE: 1 64048U 25103A   26019.69670139  .00008010  00000-0  38191-3 0 09996
#TLE: 2 64048 097.4123 095.0255 0001753 094.0404 196.1589 15.19169419 37525

#Time	Az	El	Level	Level2	SNR	BER	BlckErr	Temp	State	Recorded	gain1	gain2
2026-01-20 09:13:49.80	20.82	2.07	-50.4	-52.5	6.2	0.00e+00	0	45	0	0	72	18377
2026-01-20 09:13:52.82	20.86	2.28	-50.4	-52.5	6.2	0.00e+00	0	45	104	0	72	18350
2026-01-20 09:13:55.84	20.89	2.50	-50.4	-52.5	6.2	0.00e+00	0	45	104	0	72	18389
2026-01-20 09:13:58.87	20.93	2.71	-50.4	-52.6	6.2	0.00e+00	0	45	104	0	72	18399
2026-01-20 09:14:01.89	20.97	2.93	-50.4	-52.5	6.2	0.00e+00	0	45	104	0	72	18282
2026-01-20 09:14:04.91	21.01	3.15	-50.4	-52.5	6.2	0.00e+00	0	45	104	0	72	18310
2026-01-20 09:14:07.94	21.05	3.37	-50.4	-52.5	6.2	0.00e+00	0	46	104	0	72	18355
2026-01-20 09:14:10.96	21.09	3.60	-50.4	-52.5	6.2	0.00e+00	0	46	104	0	72	18347
2026-01-20 09:14:13.99	21.13	3.82	-50.4	-52.5	6.2	0.00e+00	0	46	104	0	72	18309
2026-01-20 09:14:17.01	21.17	4.05	-50.4	-52.5	6.2	0.00e+00	0	46	104	0	72	18298
2026-01-20 09:14:20.04	21.22	4.28	-50.4	-52.5	6.2	0.00e+00	0	46	104	0	72	18253
2026-01-20 09:14:23.06	21.26	4.52	-50.4	-52.5	6.2	0.00e+00	0	46	104	0	72	18285
2026-01-20 09:14:26.08	21.30	4.76	-50.4	-52.5	6.2	0.00e+00	0	46	104	0	72	18258
2026-01-20 09:14:29.10	21.35	5.00	-50.4	-52.5	6.2	0.00e+00	0	46	104	0	72	18318
2026-01-20 09:14:32.13	21.39	5.24	-50.5	-52.6	6.2	0.00e+00	0	47	104	0	72	18503
2026-01-20 09:14:35.15	21.44	5.49	-50.4	-52.6	6.2	0.00e+00	0	47	104	0	72	18434
2026-01-20 09:14:38.17	21.48	5.73	-50.0	-51.9	6.2	0.00e+00	0	47	104	0	70	19219
2026-01-20 09:14:41.19	21.53	5.99	-49.5	-51.1	6.3	0.00e+00	0	47	104	0	70	17442
2026-01-20 09:14:44.22	21.58	6.24	-48.2	-49.2	6.7	0.00e+00	0	47	104	0	67	16771
2026-01-20 09:14:47.24	21.63	6.50	-49.8	-51.6	6.3	0.00e+00	0	47	104	0	70	18418
2026-01-20 09:14:50.26	21.68	6.76	-44.3	-44.6	8.7	0.00e+00	0	47	104	0	59	15547
2026-01-20 09:14:53.29	21.73	7.03	-43.6	-43.9	9.2	0.00e+00	10909	50	0	8388608	58	15181
2026-01-20 09:14:56.31	21.78	7.30	-47.9	-48.9	6.8	0.00e+00	0	48	104	67108864	67	16098
2026-01-20 09:14:59.33	21.83	7.57	-43.5	-43.8	9.1	0.00e+00	0	48	104	67108864	59	14112
2026-01-20 09:15:02.35	21.88	7.85	-42.2	-42.4	10.0	1.59e-01	10913	51	0	285212672	56	14292
2026-01-20 09:15:05.37	21.93	8.13	-41.7	-41.8	10.4	5.11e-01	10911	52	0	620756992	55	14270
2026-01-20 09:15:08.40	21.99	8.42	-41.6	-41.7	10.4	4.18e-01	11023	52	0	956301312	55	14067
2026-01-20 09:15:11.42	22.04	8.71	-41.4	-41.4	10.6	3.78e-01	11028	53	0	1308622848	54	14433
2026-01-20 09:15:14.45	22.10	9.00	-41.4	-41.5	10.6	3.57e-01	11028	53	0	1644167168	54	14518
2026-01-20 09:15:17.47	22.16	9.30	-41.2	-41.3	10.7	3.53e-01	11028	54	0	1979711488	54	14117
2026-01-20 09:15:20.49	22.22	9.61	-41.0	-41.1	10.8	3.26e-01	10915	54	0	2315255808	54	13858
2026-01-20 09:15:23.51	22.28	9.92	-40.9	-41.0	10.9	3.13e-01	11083	54	0	2667577344	53	14546
2026-01-20 09:15:26.54	22.34	10.23	-40.7	-40.7	11.0	2.78e-01	10905	54	0	3003121664	53	14064
2026-01-20 09:15:29.56	22.40	10.55	-40.5	-40.6	11.1	2.62e-01	10910	55	0	3338665984	53	13813
2026-01-20 09:15:32.58	22.46	10.88	-40.5	-40.6	11.1	2.56e-01	11019	55	0	3682598912	52	14641
2026-01-20 09:15:35.61	22.53	11.21	-40.4	-40.4	11.2	2.45e-01	10909	55	0	4026531840	52	14333
2026-01-20 09:15:38.63	22.60	11.54	-40.1	-40.1	11.4	2.33e-01	9816	55	0	4362076160	52	13949
2026-01-20 09:15:41.65	22.67	11.89	-40.1	-40.1	11.5	2.19e-01	6848	56	0	4706009088	51	14637
2026-01-20 09:15:44.68	22.74	12.24	-40.0	-40.0	11.5	2.11e-01	5405	56	0	5041553408	51	14568
2026-01-20 09:15:47.70	22.81	12.59	-39.9	-39.9	11.6	2.04e-01	2788	56	0	5377097728	51	14379
2026-01-20 09:15:50.72	22.88	12.96	-39.6	-39.6	11.7	1.96e-01	274	55	0	5729419264	51	13915
2026-01-20 09:15:53.75	22.96	13.33	-39.4	-39.4	11.9	1.76e-01	21	55	0	6064963584	50	14341
2026-01-20 09:15:56.77	23.03	13.71	-39.3	-39.3	11.9	1.56e-01	11	55	0	6400507904	50	14256
2026-01-20 09:15:59.79	23.11	14.09	-39.2	-39.2	12.0	1.48e-01	1	54	0	6736052224	50	14084
2026-01-20 09:16:02.81	23.19	14.48	-39.0	-39.0	12.1	1.48e-01	0	54	0	7088373760	50	13769
2026-01-20 09:16:05.83	23.28	14.89	-38.9	-38.9	12.1	1.30e-01	0	54	0	7423918080	49	14382
2026-01-20 09:16:08.86	23.36	15.30	-39.0	-38.9	12.1	1.29e-01	0	54	0	7759462400	49	14426
2026-01-20 09:16:11.88	23.45	15.72	-38.8	-38.8	12.2	1.30e-01	0	54	0	8103395328	49	14127
2026-01-20 09:16:14.90	23.54	16.15	-38.6	-38.5	12.4	1.21e-01	0	54	0	8438939648	49	13752
2026-01-20 09:16:17.93	23.63	16.59	-38.6	-38.5	12.3	1.12e-01	0	54	0	8782872576	49	13780
2026-01-20 09:16:20.95	23.73	17.04	-38.4	-38.4	12.4	1.10e-01	0	54	0	9126805504	48	14289
2026-01-20 09:16:23.97	23.83	17.50	-38.3	-38.2	12.5	1.04e-01	0	54	0	9462349824	48	14087
2026-01-20 09:16:26.99	23.93	17.97	-37.1	-37.1	12.4	9.81e-02	0	54	0	9797894144	46	13838
2026-01-20 09:16:30.02	24.04	18.45	-36.8	-36.8	12.5	9.81e-02	0	54	0	10150215680	45	14213
2026-01-20 09:16:33.04	24.14	18.95	-36.9	-36.9	12.5	9.36e-02	0	54	0	10485760000	45	14289
2026-01-20 09:16:36.06	24.26	19.46	-36.5	-36.4	12.8	8.78e-02	0	54	0	10821304320	45	13631
2026-01-20 09:16:39.08	24.37	19.98	-36.5	-36.5	12.8	7.94e-02	0	54	0	11156848640	44	14442
2026-01-20 09:16:42.10	24.49	20.51	-36.3	-36.3	12.8	7.77e-02	0	53	0	11500781568	44	14187
2026-01-20 09:16:45.13	24.62	21.07	-36.0	-35.9	13.1	7.11e-02	0	53	0	11844714496	43	14409
2026-01-20 09:16:48.15	24.75	21.63	-35.8	-35.8	13.2	5.91e-02	0	54	0	12180258816	43	14163
2026-01-20 09:16:51.17	24.88	22.21	-35.6	-35.5	13.3	5.89e-02	0	53	0	12524191744	43	13780
2026-01-20 09:16:54.19	25.02	22.81	-35.5	-35.4	13.4	4.85e-02	0	53	0	12859736064	42	14365
2026-01-20 09:16:57.21	25.17	23.43	-35.1	-35.0	13.6	4.83e-02	0	53	0	13203668992	42	13775
2026-01-20 09:17:00.24	25.32	24.06	-34.8	-34.8	13.7	4.08e-02	0	53	0	13547601920	41	14123
2026-01-20 09:17:03.26	25.48	24.71	-34.7	-34.6	13.8	3.46e-02	0	53	0	13883146240	41	13918
2026-01-20 09:17:06.28	25.65	25.39	-34.3	-34.3	14.0	2.98e-02	0	53	0	14218690560	40	14140
2026-01-20 09:17:09.30	25.82	26.08	-33.8	-33.7	14.3	2.45e-02	0	53	0	14554234880	39	14102
2026-01-20 09:17:12.32	26.00	26.80	-33.5	-33.5	14.4	2.02e-02	0	53	0	14906556416	39	13639
2026-01-20 09:17:15.34	26.19	27.54	-33.3	-33.2	14.5	1.66e-02	0	53	0	15242100736	38	14044
2026-01-20 09:17:18.37	26.39	28.31	-33.2	-33.1	14.5	1.33e-02	0	53	0	15577645056	38	13935
2026-01-20 09:17:21.39	26.60	29.10	-32.9	-32.8	14.7	1.23e-02	0	53	0	15921577984	37	14140
2026-01-20 09:17:24.41	26.82	29.91	-32.6	-32.5	14.8	1.02e-02	0	53	0	16265510912	37	13718
2026-01-20 09:17:27.44	27.05	30.76	-32.3	-32.2	14.9	8.04e-03	0	53	0	16609443840	36	14051
2026-01-20 09:17:30.46	27.30	31.64	-32.0	-31.9	15.1	6.65e-03	0	53	0	16944988160	36	13501
2026-01-20 09:17:33.48	27.56	32.55	-29.6	-29.5	14.9	9.33e-03	0	53	0	17280532480	31	13689
2026-01-20 09:17:36.50	27.83	33.48	-29.2	-29.1	15.1	1.19e-02	0	53	0	17616076800	30	13811
2026-01-20 09:17:39.53	28.12	34.46	-28.9	-28.8	15.2	1.09e-02	0	53	0	17968398336	29	14193
2026-01-20 09:17:42.55	28.43	35.47	-50.9	-53.1	6.2	9.49e-03	0	52	104	18161336320	72	19639
2026-01-20 09:17:45.57	28.76	36.52	-50.9	-53.0	6.2	9.49e-03	0	52	104	18161336320	72	19427
2026-01-20 09:17:48.59	29.12	37.60	-50.9	-53.1	6.2	9.49e-03	0	51	104	18161336320	72	19538
2026-01-20 09:17:51.62	29.50	38.73	-50.9	-53.1	6.2	9.49e-03	0	51	104	18161336320	72	19494
2026-01-20 09:17:54.64	29.90	39.90	-50.9	-53.1	6.2	0.00e+00	0	51	104	18161336320	72	19516
2026-01-20 09:17:57.66	30.34	41.12	-50.9	-53.1	6.2	0.00e+00	0	51	104	18161336320	72	19540
2026-01-20 09:18:00.68	30.82	42.38	-51.0	-53.1	6.2	0.00e+00	0	51	104	18161336320	72	19601
2026-01-20 09:18:03.71	31.33	43.69	-51.0	-53.1	6.2	0.00e+00	0	51	104	18161336320	72	19631
2026-01-20 09:18:06.73	31.89	45.05	-51.0	-53.1	6.2	0.00e+00	0	51	104	18161336320	72	19589
2026-01-20 09:18:09.75	32.50	46.46	-51.0	-53.1	6.2	0.00e+00	0	51	104	18161336320	72	19571
2026-01-20 09:18:12.77	33.17	47.92	-51.0	-53.1	6.2	0.00e+00	0	50	104	18161336320	72	19671
2026-01-20 09:18:15.80	33.91	49.44	-51.0	-53.2	6.2	0.00e+00	0	50	104	18161336320	72	19721
2026-01-20 09:18:18.82	34.73	51.01	-51.0	-53.2	6.2	0.00e+00	0	50	104	18161336320	72	19707
2026-01-20 09:18:21.85	35.64	52.63	-51.0	-53.1	6.2	0.00e+00	0	50	104	18161336320	72	19673
2026-01-20 09:18:24.87	36.66	54.31	-51.0	-53.2	6.2	0.00e+00	0	50	104	18161336320	72	19830
2026-01-20 09:18:27.89	37.81	56.03	-51.0	-53.2	6.2	0.00e+00	0	50	104	18161336320	72	19784
2026-01-20 09:18:30.92	39.12	57.81	-51.0	-53.2	6.2	0.00e+00	0	50	104	18161336320	72	19771
2026-01-20 09:18:33.94	40.61	59.63	-51.0	-53.2	6.2	0.00e+00	0	50	104	18161336320	72	19745
2026-01-20 09:18:36.96	42.34	61.49	-51.0	-53.2	6.2	0.00e+00	0	50	104	18161336320	72	19736
2026-01-20 09:18:39.99	44.35	63.39	-51.1	-53.2	6.2	0.00e+00	0	50	104	18161336320	72	19782
2026-01-20 09:18:43.01	46.71	65.30	-51.1	-53.2	6.2	0.00e+00	0	50	104	18161336320	72	19793
2026-01-20 09:18:46.03	49.51	67.22	-51.0	-53.2	6.2	0.00e+00	0	50	104	18161336320	72	19751
2026-01-20 09:18:49.06	52.90	69.14	-51.1	-53.2	6.2	0.00e+00	0	49	104	18161336320	72	19845
2026-01-20 09:18:52.08	57.01	71.01	-51.1	-53.2	6.2	0.00e+00	0	50	104	18161336320	72	19814
2026-01-20 09:18:55.11	62.08	72.81	-51.1	-53.2	6.2	0.00e+00	0	50	104	18161336320	72	19799
2026-01-20 09:18:58.13	68.32	74.47	-51.0	-53.2	6.2	0.00e+00	0	50	104	18161336320	72	19776
2026-01-20 09:19:01.15	76.04	75.94	-51.1	-53.2	6.2	0.00e+00	0	50	104	18161336320	72	19864
2026-01-20 09:19:04.18	85.46	77.12	-51.1	-53.2	6.2	0.00e+00	0	49	104	18161336320	72	19866
2026-01-20 09:19:07.20	96.44	77.91	-51.1	-53.2	6.2	0.00e+00	0	50	104	18161336320	72	19830
2026-01-20 09:19:10.22	108.50	78.22	-51.1	-53.2	6.2	0.00e+00	0	49	104	18161336320	72	19770
2026-01-20 09:19:13.25	120.70	78.01	-51.1	-53.2	6.2	0.00e+00	0	49	104	18161336320	72	19839
2026-01-20 09:19:16.27	131.95	77.31	-51.1	-53.2	6.2	0.00e+00	0	50	104	18161336320	72	19871
2026-01-20 09:19:19.29	141.67	76.19	-51.1	-53.2	6.2	0.00e+00	0	49	104	18161336320	72	19872
2026-01-20 09:19:22.32	149.73	74.77	-51.1	-53.2	6.2	0.00e+00	0	49	104	18161336320	72	19857
2026-01-20 09:19:25.34	156.24	73.13	-51.1	-53.2	6.2	0.00e+00	0	49	104	18161336320	72	19882
2026-01-20 09:19:28.36	161.50	71.36	-51.1	-53.2	6.2	0.00e+00	0	49	104	18161336320	72	19912
2026-01-20 09:19:31.39	165.79	69.49	-51.1	-53.2	6.2	0.00e+00	0	49	104	18161336320	72	19906
2026-01-20 09:19:34.41	169.30	67.58	-51.1	-53.2	6.2	0.00e+00	0	49	104	18161336320	72	19873
2026-01-20 09:19:37.43	172.20	65.66	-51.1	-53.2	6.2	0.00e+00	0	49	104	18161336320	72	19873
2026-01-20 09:19:40.46	174.65	63.73	-51.1	-53.2	6.2	0.00e+00	0	49	104	18161336320	72	19840
2026-01-20 09:19:43.48	176.72	61.83	-51.1	-53.2	6.2	0.00e+00	0	49	104	18161336320	72	19853
2026-01-20 09:19:46.50	178.49	59.96	-51.1	-53.2	6.2	0.00e+00	0	49	104	18161336320	72	19785
2026-01-20 09:19:49.52	180.02	58.13	-51.0	-53.2	6.2	0.00e+00	0	49	104	18161336320	72	19752
2026-01-20 09:19:52.55	181.36	56.33	-51.1	-53.2	6.2	0.00e+00	0	49	104	18161336320	72	19783
2026-01-20 09:19:55.57	182.54	54.59	-51.0	-53.1	6.2	0.00e+00	0	49	104	18161336320	72	19700
2026-01-20 09:19:58.59	183.59	52.91	-51.0	-53.2	6.2	0.00e+00	0	49	104	18161336320	72	19737
2026-01-20 09:20:01.62	184.52	51.27	-51.0	-53.2	6.2	0.00e+00	0	49	104	18161336320	72	19711
2026-01-20 09:20:04.64	185.35	49.68	-51.0	-53.2	6.2	0.00e+00	0	49	104	18161336320	72	19761
2026-01-20 09:20:07.66	186.11	48.16	-51.0	-53.1	6.2	0.00e+00	0	49	104	18161336320	72	19690
2026-01-20 09:20:10.68	186.79	46.68	-51.0	-53.1	6.2	0.00e+00	0	49	104	18161336320	72	19649
2026-01-20 09:20:13.71	187.41	45.25	-51.0	-53.1	6.2	0.00e+00	0	49	104	18161336320	72	19665
2026-01-20 09:20:16.73	187.98	43.88	-51.0	-53.1	6.2	0.00e+00	0	49	104	18161336320	72	19607
2026-01-20 09:20:19.75	188.50	42.56	-51.0	-53.1	6.2	0.00e+00	0	49	104	18161336320	72	19627
2026-01-20 09:20:22.78	188.99	41.28	-51.0	-53.1	6.2	0.00e+00	0	49	104	18161336320	72	19542
2026-01-20 09:20:25.80	189.43	40.06	-50.9	-53.1	6.2	0.00e+00	0	49	104	18161336320	72	19509
2026-01-20 09:20:28.82	189.84	38.87	-50.9	-53.1	6.2	0.00e+00	0	49	104	18161336320	72	19528
2026-01-20 09:20:31.85	190.23	37.73	-50.9	-53.0	6.2	0.00e+00	0	49	104	18161336320	72	19464
2026-01-20 09:20:34.87	190.59	36.64	-50.9	-53.1	6.2	0.00e+00	0	49	104	18161336320	72	19514
2026-01-20 09:20:37.90	190.92	35.57	-50.9	-53.0	6.2	0.00e+00	0	49	104	18161336320	72	19452
2026-01-20 09:20:40.92	191.23	34.56	-50.9	-53.0	6.2	0.00e+00	0	49	104	18161336320	72	19457
2026-01-20 09:20:43.95	191.53	33.57	-50.9	-53.0	6.2	0.00e+00	0	49	104	18161336320	72	19354
2026-01-20 09:20:46.97	191.81	32.62	-50.9	-53.0	6.2	0.00e+00	0	49	104	18161336320	72	19377
2026-01-20 09:20:50.00	192.07	31.70	-50.8	-53.0	6.2	0.00e+00	0	49	104	18161336320	72	19352
2026-01-20 09:20:53.02	192.32	30.82	-50.8	-53.0	6.2	0.00e+00	0	49	104	18161336320	72	19309
2026-01-20 09:20:56.05	192.55	29.96	-50.8	-52.9	6.2	0.00e+00	0	49	104	18161336320	72	19219
2026-01-20 09:20:59.07	192.77	29.14	-50.8	-52.9	6.2	0.00e+00	0	49	104	18161336320	72	19247
2026-01-20 09:21:02.09	192.98	28.34	-50.8	-52.9	6.2	0.00e+00	0	49	104	18161336320	72	19211
2026-01-20 09:21:05.11	193.18	27.57	-50.8	-52.9	6.2	0.00e+00	0	49	104	18161336320	72	19148
2026-01-20 09:21:08.13	193.37	26.82	-50.8	-52.9	6.2	0.00e+00	0	49	104	18161336320	72	19133
2026-01-20 09:21:11.16	193.55	26.10	-50.8	-52.9	6.2	0.00e+00	0	49	104	18161336320	72	19167
2026-01-20 09:21:14.18	193.73	25.40	-50.8	-52.9	6.2	0.00e+00	0	49	104	18161336320	72	19098
2026-01-20 09:21:17.21	193.89	24.72	-50.7	-52.9	6.2	0.00e+00	0	49	104	18161336320	72	19050
2026-01-20 09:21:20.23	194.05	24.06	-50.7	-52.9	6.2	0.00e+00	0	49	104	18161336320	72	19054
2026-01-20 09:21:23.25	194.21	23.42	-50.7	-52.8	6.2	0.00e+00	0	49	104	18161336320	72	19035
2026-01-20 09:21:26.27	194.35	22.80	-50.7	-52.8	6.2	0.00e+00	0	49	104	18161336320	72	19027
2026-01-20 09:21:29.29	194.49	22.20	-50.7	-52.8	6.2	0.00e+00	0	49	104	18161336320	72	18987
2026-01-20 09:21:32.31	194.63	21.61	-50.7	-52.8	6.2	0.00e+00	0	49	104	18161336320	72	19001
2026-01-20 09:21:35.34	194.76	21.04	-50.7	-52.8	6.2	0.00e+00	0	49	104	18161336320	72	18919
2026-01-20 09:21:38.36	194.88	20.49	-50.7	-52.8	6.2	0.00e+00	0	49	104	18161336320	72	18904
2026-01-20 09:21:41.39	195.00	19.95	-50.7	-52.8	6.2	0.00e+00	0	49	104	18161336320	72	18888
2026-01-20 09:21:44.41	195.12	19.42	-50.7	-52.8	6.2	0.00e+00	0	49	104	18161336320	72	18876
2026-01-20 09:21:47.43	195.23	18.91	-50.6	-52.8	6.2	0.00e+00	0	49	104	18161336320	72	18824
2026-01-20 09:21:50.45	195.34	18.41	-50.6	-52.8	6.2	0.00e+00	0	49	104	18161336320	72	18878
2026-01-20 09:21:53.48	195.45	17.92	-50.6	-52.7	6.2	0.00e+00	0	49	104	18161336320	72	18813
2026-01-20 09:21:56.50	195.55	17.45	-50.6	-52.8	6.2	0.00e+00	0	49	104	18161336320	72	18845
2026-01-20 09:21:59.53	195.65	16.99	-50.6	-52.7	6.2	0.00e+00	0	49	104	18161336320	72	18793
2026-01-20 09:22:02.55	195.74	16.53	-50.6	-52.7	6.2	0.00e+00	0	49	104	18161336320	72	18774
2026-01-20 09:22:05.58	195.83	16.09	-50.6	-52.7	6.2	0.00e+00	0	49	104	18161336320	72	18802
2026-01-20 09:22:08.60	195.92	15.66	-50.6	-52.7	6.2	0.00e+00	0	49	104	18161336320	72	18729
2026-01-20 09:22:11.62	196.01	15.24	-50.6	-52.7	6.2	0.00e+00	0	49	104	18161336320	72	18714
2026-01-20 09:22:14.65	196.10	14.82	-50.6	-52.7	6.2	0.00e+00	0	49	104	18161336320	72	18759
2026-01-20 09:22:17.67	196.18	14.42	-50.6	-52.7	6.2	0.00e+00	0	49	104	18161336320	72	18692
2026-01-20 09:22:20.69	196.26	14.02	-50.6	-52.7	6.2	0.00e+00	0	49	104	18161336320	72	18678
2026-01-20 09:22:23.71	196.34	13.63	-50.5	-52.7	6.2	0.00e+00	0	49	104	18161336320	72	18638
2026-01-20 09:22:26.73	196.41	13.26	-50.5	-52.7	6.2	0.00e+00	0	49	104	18161336320	72	18614
2026-01-20 09:22:29.76	196.49	12.88	-50.5	-52.7	6.2	0.00e+00	0	49	104	18161336320	72	18627
2026-01-20 09:22:32.78	196.56	12.52	-50.5	-52.6	6.2	0.00e+00	0	49	104	18161336320	72	18594
2026-01-20 09:22:35.81	196.63	12.16	-50.5	-52.6	6.2	0.00e+00	0	49	104	18161336320	72	18542
2026-01-20 09:22:38.83	196.70	11.81	-50.5	-52.6	6.2	0.00e+00	0	49	104	18161336320	72	18536
2026-01-20 09:22:41.85	196.77	11.46	-50.5	-52.6	6.2	0.00e+00	0	49	104	18161336320	72	18577
2026-01-20 09:22:44.88	196.83	11.12	-50.5	-52.6	6.2	0.00e+00	0	49	104	18161336320	72	18430
2026-01-20 09:22:47.90	196.90	10.79	-50.5	-52.6	6.2	0.00e+00	0	49	104	18161336320	72	18491
2026-01-20 09:22:50.92	196.96	10.46	-50.4	-52.6	6.2	0.00e+00	0	49	104	18161336320	72	18433
2026-01-20 09:22:53.95	197.02	10.14	-50.5	-52.6	6.2	0.00e+00	0	49	104	18161336320	72	18465
2026-01-20 09:22:56.97	197.08	9.83	-50.4	-52.6	6.2	0.00e+00	0	49	104	18161336320	72	18395
2026-01-20 09:22:59.99	197.14	9.52	-50.4	-52.5	6.2	0.00e+00	0	49	104	18161336320	72	18324
2026-01-20 09:23:03.01	197.20	9.21	-50.4	-52.5	6.2	0.00e+00	0	49	104	18161336320	72	18305
2026-01-20 09:23:06.04	197.25	8.91	-50.4	-52.5	6.2	0.00e+00	0	49	104	18161336320	72	18273
2026-01-20 09:23:09.06	197.31	8.61	-50.3	-52.5	6.2	0.00e+00	0	49	104	18161336320	72	18259
2026-01-20 09:23:12.09	197.36	8.32	-50.3	-52.5	6.2	0.00e+00	0	49	104	18161336320	72	18242
2026-01-20 09:23:15.11	197.42	8.03	-50.3	-52.4	6.2	0.00e+00	0	49	104	18161336320	72	18170
2026-01-20 09:23:18.14	197.47	7.75	-50.3	-52.5	6.2	0.00e+00	0	49	104	18161336320	72	18223
2026-01-20 09:23:21.16	197.52	7.47	-50.3	-52.4	6.2	0.00e+00	0	49	104	18161336320	72	18124
2026-01-20 09:23:24.19	197.57	7.20	-50.3	-52.4	6.2	0.00e+00	0	49	104	18161336320	72	18143
2026-01-20 09:23:27.21	197.62	6.93	-50.3	-52.4	6.2	0.00e+00	0	49	104	18161336320	72	18036
2026-01-20 09:23:30.23	197.67	6.66	-50.3	-52.4	6.2	0.00e+00	0	49	104	18161336320	72	18095
2026-01-20 09:23:33.25	197.72	6.40	-50.2	-52.4	6.2	0.00e+00	0	49	104	18161336320	72	17989
2026-01-20 09:23:36.28	197.76	6.14	-50.2	-52.4	6.2	0.00e+00	0	49	104	18161336320	72	17980
2026-01-20 09:23:39.30	197.81	5.88	-50.2	-52.3	6.2	0.00e+00	0	49	104	18161336320	72	17866
2026-01-20 09:23:42.33	197.85	5.63	-50.2	-52.3	6.2	0.00e+00	0	49	104	18161336320	72	17963
2026-01-20 09:23:45.35	197.90	5.38	-50.1	-52.3	6.2	0.00e+00	0	49	104	18161336320	72	17791
2026-01-20 09:23:48.37	197.94	5.13	-50.1	-52.2	6.2	0.00e+00	0	49	104	18161336320	72	17740
2026-01-20 09:23:51.39	197.99	4.89	-50.5	-52.6	6.2	0.00e+00	0	49	104	18161336320	72	18455
2026-01-20 09:23:54.42	198.03	4.64	-50.7	-52.8	6.2	0.00e+00	0	49	104	18161336320	72	18928
2026-01-20 09:23:57.44	198.07	4.41	-50.8	-52.9	6.2	0.00e+00	0	49	104	18161336320	72	19202
2026-01-20 09:24:00.46	198.11	4.17	-50.9	-53.0	6.2	0.00e+00	0	49	104	18161336320	72	19357
2026-01-20 09:24:03.49	198.15	3.94	-50.9	-53.0	6.2	0.00e+00	0	49	104	18161336320	72	19362
2026-01-20 09:24:06.51	198.19	3.71	-50.8	-53.0	6.2	0.00e+00	0	49	104	18161336320	72	19259
2026-01-20 09:24:09.53	198.23	3.48	-50.9	-53.1	6.2	0.00e+00	0	49	104	18161336320	72	19516
2026-01-20 09:24:12.56	198.27	3.25	-51.0	-53.1	6.2	0.00e+00	0	49	104	18161336320	72	19702
2026-01-20 09:24:15.58	198.31	3.03	-51.1	-53.2	6.2	0.00e+00	0	49	104	18161336320	72	19876
2026-01-20 09:24:18.61	198.35	2.81	-51.1	-53.2	6.2	0.00e+00	0	49	104	18161336320	72	19933
2026-01-20 09:24:21.63	198.38	2.59	-51.1	-53.2	6.2	0.00e+00	0	49	104	18161336320	72	19781
2026-01-20 09:24:24.65	198.42	2.38	-51.1	-53.2	6.2	0.00e+00	0	49	104	18161336320	72	19931
2026-01-20 09:24:27.68	198.46	2.16	-51.0	-53.2	6.2	0.00e+00	0	49	104	18161336320	72	19752

#Closed at: 2026-01-20 09:24:30
#Recorded file [18161 MB]: D:/lorett/data/31041_260120_121349.dat