passes_logs/2026/01/20/R3.2S_Murmansk/R3.2S_Murmansk__20260120_084222_AQUA_rec.log

#Pass ID: 20260120_084222_AQUA
#Satellite: AQUA
#Configuration: AQUA
#almurnet v.1.7.20251203
#Start time: 2026-01-20 08:42:24

#Version: 2.2.20231116
#Station: R3.2S_Murmansk
#Location: 33.079688 lon 68.888172 lat
#TLE: 1 27424U 02022A   26019.95447505  .00001296  00000+0  26931-3 0  9993
#TLE: 2 27424  98.4091 346.4652 0001983  72.1988 359.6274 14.61832814261618

#Time	Az	El	Level	Level2	SNR	BER	BlckErr	Temp	State	Recorded	gain1	gain2
2026-01-20 08:42:24.42	91.40	2.14	-51.9	-69.6	3.8	7.47e-01	0	37	0	0	75	27491
2026-01-20 08:42:27.44	91.20	2.32	-51.9	-69.4	3.8	7.45e-01	0	36	104	0	74	28426
2026-01-20 08:42:30.46	91.00	2.50	-51.8	-69.4	3.8	7.43e-01	0	37	104	0	74	28552
2026-01-20 08:42:33.49	90.79	2.69	-51.8	-69.4	3.8	7.44e-01	0	37	104	0	74	28535
2026-01-20 08:42:36.51	90.58	2.87	-51.8	-69.1	3.8	7.44e-01	0	37	104	0	74	27568
2026-01-20 08:42:39.54	90.37	3.06	-51.8	-68.8	3.8	7.42e-01	0	37	104	0	74	26629
2026-01-20 08:42:42.57	90.16	3.25	-51.8	-69.0	3.8	7.45e-01	0	37	104	0	74	27205
2026-01-20 08:42:45.59	89.94	3.44	-51.8	-68.8	3.8	7.45e-01	0	37	104	0	74	26765
2026-01-20 08:42:48.61	89.72	3.63	-51.8	-69.1	3.8	7.42e-01	0	37	104	0	74	27576
2026-01-20 08:42:51.64	89.49	3.82	-51.8	-68.4	3.8	7.45e-01	0	37	104	0	74	25558
2026-01-20 08:42:54.66	89.26	4.01	-51.7	-66.1	4.2	7.33e-01	0	37	104	0	74	19577
2026-01-20 08:42:57.69	89.03	4.21	-51.6	-62.9	5.7	6.88e-01	34	37	0	0	74	13541
2026-01-20 08:43:00.71	88.80	4.40	-50.9	-58.5	9.9	6.24e-01	0	37	0	5242880	73	8583
2026-01-20 08:43:03.73	88.56	4.60	-50.6	-57.1	11.4	6.15e-01	0	37	0	11010048	73	7312
2026-01-20 08:43:06.76	88.32	4.80	-50.9	-58.1	10.4	6.21e-01	0	38	0	16777216	73	8204
2026-01-20 08:43:09.78	88.07	4.99	-51.3	-60.8	7.6	6.55e-01	182	38	0	22544384	73	11232
2026-01-20 08:43:12.80	87.82	5.19	-51.6	-63.9	5.3	7.04e-01	48	38	0	27787264	73	16003
2026-01-20 08:43:15.83	87.57	5.39	-49.2	-53.0	15.6	6.09e-01	0	38	0	31457280	70	5405
2026-01-20 08:43:18.85	87.31	5.60	-48.8	-52.2	16.7	6.06e-01	0	38	0	37224448	69	5234
2026-01-20 08:43:21.87	87.05	5.80	-48.9	-52.4	16.5	6.05e-01	0	38	0	42467328	69	5373
2026-01-20 08:43:24.90	86.78	6.00	-48.8	-52.2	16.8	6.06e-01	0	38	0	48234496	69	5221
2026-01-20 08:43:27.92	86.51	6.21	-48.6	-51.8	17.2	6.07e-01	0	38	0	54001664	69	4997
2026-01-20 08:43:30.95	86.23	6.42	-48.3	-51.4	17.6	6.06e-01	0	38	0	59768832	68	5066
2026-01-20 08:43:33.97	85.95	6.62	-48.1	-51.0	18.0	6.06e-01	0	38	0	65536000	68	4856
2026-01-20 08:43:36.99	85.67	6.83	-48.1	-51.0	18.1	6.05e-01	0	38	0	70778880	68	4828
2026-01-20 08:43:40.01	85.38	7.04	-48.2	-51.1	17.9	6.06e-01	0	38	0	76546048	68	4910
2026-01-20 08:43:43.04	85.09	7.25	-48.2	-51.0	18.1	6.06e-01	0	38	0	82313216	68	4863
2026-01-20 08:43:46.06	84.79	7.47	-48.0	-50.8	18.3	6.05e-01	0	38	0	88080384	67	5033
2026-01-20 08:43:49.09	84.49	7.68	-48.1	-50.9	18.2	6.06e-01	0	38	0	93847552	67	5077
2026-01-20 08:43:52.11	84.18	7.90	-48.0	-50.8	18.4	6.05e-01	0	38	0	99090432	67	5012
2026-01-20 08:43:55.13	83.87	8.11	-48.0	-50.7	18.5	6.06e-01	0	38	0	105381888	67	4981
2026-01-20 08:43:58.16	83.55	8.33	-47.9	-50.6	18.6	6.06e-01	0	38	0	110624768	67	4897
2026-01-20 08:44:01.17	83.23	8.55	-47.8	-50.3	18.9	6.09e-01	0	38	0	116391936	67	4758
2026-01-20 08:44:04.20	82.90	8.77	-47.9	-50.5	18.7	6.04e-01	0	38	0	122159104	67	4839
2026-01-20 08:44:07.22	82.56	8.99	-47.9	-50.5	18.8	6.05e-01	0	38	0	127926272	67	4835
2026-01-20 08:44:10.25	82.22	9.22	-47.8	-50.3	18.9	6.07e-01	0	38	0	133693440	67	4758
2026-01-20 08:44:13.27	81.88	9.44	-47.8	-50.4	18.9	6.05e-01	0	38	0	138936320	67	4778
2026-01-20 08:44:16.30	81.52	9.67	-47.8	-50.4	18.8	6.07e-01	0	38	0	144703488	67	4763
2026-01-20 08:44:19.32	81.16	9.90	-47.8	-50.3	18.9	6.06e-01	0	38	0	150470656	67	4745
2026-01-20 08:44:22.34	80.80	10.12	-47.8	-50.4	18.9	6.06e-01	0	38	0	156237824	67	4783
2026-01-20 08:44:25.36	80.43	10.35	-47.7	-50.1	19.1	6.06e-01	0	38	0	162004992	67	4649
2026-01-20 08:44:28.39	80.05	10.59	-47.5	-50.0	19.3	6.07e-01	0	38	0	167247872	67	4569
2026-01-20 08:44:31.41	79.67	10.82	-47.6	-50.1	19.2	6.05e-01	0	38	0	173015040	66	4887
2026-01-20 08:44:34.43	79.28	11.05	-47.3	-49.6	19.7	6.07e-01	0	38	0	178782208	66	4623
2026-01-20 08:44:37.45	78.88	11.28	-47.2	-49.5	19.8	6.06e-01	0	38	0	184549376	66	4592
2026-01-20 08:44:40.48	78.47	11.52	-47.2	-49.5	19.7	6.07e-01	0	38	0	190316544	66	4595
2026-01-20 08:44:43.50	78.06	11.76	-47.3	-49.6	19.7	6.05e-01	0	38	0	195559424	66	4638
2026-01-20 08:44:46.52	77.64	12.00	-47.4	-49.7	19.6	6.06e-01	0	38	0	201326592	66	4687
2026-01-20 08:44:49.54	77.22	12.24	-47.7	-59.5	3.8	7.46e-01	0	38	104	206569472	66	14527
2026-01-20 08:44:52.57	76.78	12.48	-47.9	-59.8	3.8	7.45e-01	0	38	104	206569472	67	14146
2026-01-20 08:44:55.60	76.34	12.72	-49.7	-62.5	3.7	7.44e-01	0	38	104	206569472	69	17125
2026-01-20 08:44:58.62	75.89	12.96	-48.3	-60.4	3.8	7.43e-01	0	38	104	206569472	68	14264
2026-01-20 08:45:01.65	75.43	13.20	-51.8	-67.8	3.8	7.43e-01	0	38	104	206569472	74	23798
2026-01-20 08:45:04.67	74.96	13.45	-48.7	-60.8	4.0	7.35e-01	0	38	104	206569472	69	14053
2026-01-20 08:45:07.69	74.48	13.69	-50.7	-64.8	3.9	7.42e-01	0	38	104	206569472	72	18779
2026-01-20 08:45:10.72	74.00	13.94	-49.8	-62.8	3.9	7.43e-01	0	38	104	206569472	71	15788
2026-01-20 08:45:13.74	73.51	14.19	-48.4	-60.5	3.8	7.42e-01	0	38	104	206569472	68	14415
2026-01-20 08:45:16.77	73.00	14.44	-48.5	-60.5	3.8	7.43e-01	0	38	104	206569472	68	14457
2026-01-20 08:45:19.79	72.49	14.68	-51.0	-65.4	3.8	7.46e-01	0	38	104	206569472	72	20155
2026-01-20 08:45:22.81	71.97	14.93	-48.0	-59.9	3.8	7.46e-01	0	38	104	206569472	67	14261
2026-01-20 08:45:25.84	71.44	15.18	-52.1	-68.8	3.8	7.47e-01	0	38	104	206569472	74	26699
2026-01-20 08:45:28.86	70.90	15.43	-48.5	-60.6	3.8	7.44e-01	0	38	104	206569472	69	13799
2026-01-20 08:45:31.89	70.35	15.68	-50.5	-64.1	3.9	7.45e-01	0	38	104	206569472	71	18448
2026-01-20 08:45:34.91	69.79	15.93	-49.0	-61.4	3.8	7.46e-01	0	38	104	206569472	70	14267
2026-01-20 08:45:37.94	69.22	16.18	-48.4	-60.4	3.8	7.46e-01	0	38	104	206569472	68	14318
2026-01-20 08:45:40.96	68.64	16.43	-48.9	-61.2	3.8	7.46e-01	0	38	104	206569472	68	15636
2026-01-20 08:45:43.98	68.05	16.68	-51.8	-67.8	3.8	7.48e-01	0	38	104	206569472	74	23706
2026-01-20 08:45:47.01	67.44	16.93	-48.3	-60.3	3.8	7.46e-01	0	38	104	206569472	68	14197
2026-01-20 08:45:50.03	66.83	17.18	-52.2	-69.2	3.8	7.45e-01	0	38	104	206569472	74	27952
2026-01-20 08:45:53.06	66.21	17.43	-48.6	-60.7	3.8	7.47e-01	0	38	104	206569472	69	14026
2026-01-20 08:45:56.08	65.57	17.68	-50.6	-64.5	3.8	7.43e-01	0	38	104	206569472	72	18226
2026-01-20 08:45:59.11	64.93	17.93	-49.0	-61.4	3.8	7.41e-01	0	38	104	206569472	70	14210
2026-01-20 08:46:02.13	64.27	18.18	-48.8	-61.1	3.8	7.44e-01	0	38	104	206569472	69	14672
2026-01-20 08:46:05.15	63.60	18.42	-49.6	-62.2	3.8	7.45e-01	0	38	104	206569472	69	16556
2026-01-20 08:46:08.17	62.92	18.67	-51.8	-67.5	3.8	7.44e-01	0	38	104	206569472	74	22885
2026-01-20 08:46:11.19	62.23	18.91	-48.0	-59.9	3.8	7.47e-01	0	39	104	206569472	67	14217
2026-01-20 08:46:14.22	61.53	19.15	-52.2	-69.1	3.8	7.43e-01	0	38	104	206569472	75	25988
2026-01-20 08:46:17.24	60.81	19.39	-48.9	-61.3	3.8	7.43e-01	0	39	104	206569472	69	14884
2026-01-20 08:46:20.27	60.08	19.63	-49.7	-62.5	3.9	7.46e-01	0	38	104	206569472	71	15275
2026-01-20 08:46:23.29	59.34	19.87	-48.9	-61.1	3.8	7.49e-01	0	38	104	206569472	69	14622
2026-01-20 08:46:26.31	58.59	20.10	-49.1	-61.4	3.8	7.44e-01	0	38	104	206569472	69	15177
2026-01-20 08:46:29.33	57.83	20.33	-51.0	-65.0	3.8	7.46e-01	0	39	104	206569472	72	19274
2026-01-20 08:46:32.36	57.05	20.56	-51.0	-65.3	3.9	7.42e-01	0	38	104	206569472	74	17802
2026-01-20 08:46:35.38	56.26	20.78	-49.0	-61.3	3.8	7.48e-01	0	38	104	206569472	69	15013
2026-01-20 08:46:38.41	55.46	21.00	-51.9	-68.1	3.8	7.42e-01	0	39	104	206569472	75	23311
2026-01-20 08:46:41.43	54.65	21.22	-49.1	-61.5	3.8	7.45e-01	0	39	104	206569472	70	14440
2026-01-20 08:46:44.45	53.83	21.43	-48.9	-61.1	3.8	7.41e-01	0	38	104	206569472	69	14641
2026-01-20 08:46:47.48	52.99	21.64	-49.4	-61.9	3.8	7.47e-01	0	39	104	206569472	70	15154
2026-01-20 08:46:50.50	52.14	21.85	-48.6	-60.8	3.8	7.45e-01	0	39	104	206569472	69	14144
2026-01-20 08:46:53.52	51.28	22.04	-51.8	-67.6	3.8	7.48e-01	0	38	104	206569472	74	23226
2026-01-20 08:46:56.55	50.41	22.24	-49.9	-62.8	3.9	7.45e-01	0	38	104	206569472	71	15892
2026-01-20 08:46:59.57	49.52	22.43	-50.3	-62.9	3.8	7.48e-01	0	38	104	206569472	70	17073
2026-01-20 08:47:02.59	48.63	22.61	-51.0	-65.4	3.9	7.42e-01	0	39	104	206569472	74	18057
2026-01-20 08:47:05.61	47.73	22.79	-49.3	-61.9	3.8	7.44e-01	0	38	104	206569472	70	15141
2026-01-20 08:47:08.64	46.81	22.96	-48.8	-60.9	3.9	7.44e-01	0	38	104	206569472	69	14317
2026-01-20 08:47:11.66	45.88	23.12	-50.6	-64.2	3.8	7.43e-01	0	38	104	206569472	71	18623
2026-01-20 08:47:14.68	44.95	23.28	-48.8	-61.1	3.8	7.42e-01	0	39	104	206569472	69	14616
2026-01-20 08:47:17.71	44.00	23.43	-52.1	-68.5	3.8	7.45e-01	0	38	104	206569472	74	25566
2026-01-20 08:47:20.73	43.04	23.58	-49.3	-61.8	3.8	7.43e-01	0	39	104	206569472	70	14984
2026-01-20 08:47:23.75	42.08	23.71	-51.5	-66.4	3.7	7.47e-01	0	39	104	206569472	73	21376
2026-01-20 08:47:26.78	41.10	23.84	-50.3	-63.7	3.9	7.44e-01	0	38	104	206569472	72	16660
2026-01-20 08:47:29.80	40.12	23.96	-49.3	-61.8	3.8	7.44e-01	0	39	104	206569472	70	14951
2026-01-20 08:47:32.82	39.13	24.07	-49.2	-61.6	3.8	7.44e-01	0	39	104	206569472	69	15420
2026-01-20 08:47:35.85	38.14	24.18	-51.5	-66.4	3.8	7.49e-01	0	38	104	206569472	73	21459
2026-01-20 08:47:38.87	37.13	24.27	-48.8	-61.1	3.8	7.45e-01	0	39	104	206569472	69	14697
2026-01-20 08:47:41.89	36.13	24.36	-52.3	-69.4	3.8	7.44e-01	0	39	104	206569472	75	27059
2026-01-20 08:47:44.91	35.11	24.43	-49.4	-62.0	3.8	7.40e-01	0	39	104	206569472	70	15311
2026-01-20 08:47:47.94	34.09	24.50	-51.5	-66.7	3.8	7.44e-01	0	39	104	206569472	73	22071
2026-01-20 08:47:50.96	33.07	24.56	-50.2	-63.4	3.8	7.46e-01	0	38	104	206569472	72	15948
2026-01-20 08:47:53.99	32.04	24.61	-49.4	-62.0	3.8	7.44e-01	0	39	104	206569472	70	15387
2026-01-20 08:47:57.01	31.01	24.65	-49.4	-62.0	3.8	7.47e-01	0	39	104	206569472	70	15285
2026-01-20 08:48:00.03	29.98	24.68	-51.7	-67.2	3.8	7.45e-01	0	39	104	206569472	73	23523
2026-01-20 08:48:03.06	28.94	24.70	-49.0	-61.3	3.8	7.41e-01	0	38	104	206569472	69	15024
2026-01-20 08:48:06.08	27.91	24.70	-52.3	-69.6	3.8	7.48e-01	0	39	104	206569472	75	27609
2026-01-20 08:48:09.10	26.88	24.70	-49.5	-62.1	3.8	7.41e-01	0	39	104	206569472	70	15407
2026-01-20 08:48:12.13	25.84	24.69	-49.7	-62.5	3.8	7.46e-01	0	39	104	206569472	70	16221
2026-01-20 08:48:15.15	24.81	24.67	-50.0	-63.0	3.8	7.46e-01	0	38	104	206569472	72	15326
2026-01-20 08:48:18.18	23.77	24.64	-49.1	-61.5	3.8	7.47e-01	0	38	104	206569472	70	14375
2026-01-20 08:48:21.20	22.74	24.61	-50.0	-63.0	3.8	7.47e-01	0	39	104	206569472	70	17278
2026-01-20 08:48:24.22	21.72	24.56	-51.5	-66.6	3.8	7.45e-01	0	38	104	206569472	73	21867
2026-01-20 08:48:27.24	20.70	24.50	-48.5	-60.5	3.8	7.46e-01	0	39	104	206569472	69	13700
2026-01-20 08:48:30.26	19.68	24.43	-52.2	-69.1	3.8	7.43e-01	0	39	104	206569472	75	26077
2026-01-20 08:48:33.28	18.67	24.35	-49.4	-62.0	3.8	7.46e-01	0	39	104	206569472	70	15303
2026-01-20 08:48:36.31	17.66	24.27	-50.1	-63.3	3.8	7.42e-01	0	39	104	206569472	72	15791
2026-01-20 08:48:39.33	16.66	24.17	-49.5	-62.3	3.8	7.45e-01	0	39	104	206569472	71	14981
2026-01-20 08:48:42.35	15.66	24.07	-48.9	-61.1	3.8	7.47e-01	0	39	104	206569472	69	14618
2026-01-20 08:48:45.38	14.67	23.96	-51.0	-65.2	3.8	7.46e-01	0	39	104	206569472	72	19694
2026-01-20 08:48:48.40	13.69	23.84	-50.7	-64.6	3.9	7.48e-01	0	39	104	206569472	73	17426
2026-01-20 08:48:51.43	12.72	23.71	-49.8	-62.6	3.8	7.46e-01	0	39	104	206569472	70	16355
2026-01-20 08:48:54.45	11.76	23.57	-51.7	-67.2	3.9	7.44e-01	0	39	104	206569472	75	20878
2026-01-20 08:48:57.47	10.80	23.43	-49.7	-62.6	3.8	7.45e-01	0	39	104	206569472	71	15580
2026-01-20 08:49:00.49	9.86	23.28	-48.4	-60.6	3.8	7.39e-01	0	39	104	206569472	68	14589
2026-01-20 08:49:03.52	8.92	23.12	-49.3	-61.8	3.8	7.42e-01	0	39	104	206569472	70	14948
2026-01-20 08:49:06.54	8.00	22.95	-49.2	-61.6	3.8	7.46e-01	0	39	104	206569472	70	14619
2026-01-20 08:49:09.57	7.08	22.78	-51.8	-67.8	3.8	7.45e-01	0	39	104	206569472	74	23699
2026-01-20 08:49:12.59	6.18	22.60	-49.9	-62.9	3.9	7.47e-01	0	38	104	206569472	71	16117
2026-01-20 08:49:15.61	5.29	22.42	-48.5	-60.6	3.8	7.42e-01	0	39	104	206569472	69	13824
2026-01-20 08:49:18.64	4.40	22.23	-50.9	-65.0	3.9	7.42e-01	0	39	104	206569472	73	18180
2026-01-20 08:49:21.66	3.53	22.04	-49.3	-61.8	3.8	7.41e-01	0	39	104	206569472	70	15007
2026-01-20 08:49:24.68	2.68	21.84	-48.7	-60.9	3.8	7.47e-01	0	39	104	206569472	69	14359
2026-01-20 08:49:27.70	1.83	21.63	-49.6	-62.3	3.8	7.45e-01	0	39	104	206569472	70	15897
2026-01-20 08:49:30.73	1.00	21.43	-48.6	-60.7	3.8	7.41e-01	0	39	104	206569472	69	14038
2026-01-20 08:49:33.75	0.17	21.21	-52.1	-69.0	3.8	7.46e-01	0	39	104	206569472	74	27156
2026-01-20 08:49:36.78	359.36	21.00	-49.1	-61.5	3.8	7.43e-01	0	39	104	206569472	70	14450
2026-01-20 08:49:39.80	358.56	20.78	-48.5	-60.6	3.8	7.49e-01	0	39	104	206569472	67	15414
2026-01-20 08:49:42.82	357.78	20.55	-50.7	-64.5	3.8	7.45e-01	0	39	104	206569472	73	17272
2026-01-20 08:49:45.83	357.01	20.33	-49.0	-61.4	3.8	7.45e-01	0	39	104	206569472	70	14218
2026-01-20 08:49:48.85	356.25	20.10	-48.6	-60.6	3.8	7.46e-01	0	39	104	206569472	67	15510
2026-01-20 08:49:51.88	355.49	19.86	-50.7	-64.2	3.8	7.48e-01	0	39	104	206569472	71	18698
2026-01-20 08:49:54.90	354.76	19.63	-48.2	-60.2	3.8	7.43e-01	0	38	104	206569472	68	13906
2026-01-20 08:49:57.92	354.03	19.39	-52.1	-69.2	3.8	7.44e-01	0	39	104	206569472	74	27774
2026-01-20 08:50:00.94	353.32	19.15	-48.8	-61.2	3.8	7.45e-01	0	38	104	206569472	69	14818
2026-01-20 08:50:03.97	352.62	18.91	-49.6	-62.4	3.8	7.50e-01	0	39	104	206569472	69	17017
2026-01-20 08:50:06.99	351.93	18.67	-50.6	-64.5	3.8	7.45e-01	0	38	104	206569472	73	17168
2026-01-20 08:50:10.01	351.25	18.42	-48.8	-61.2	3.8	7.46e-01	0	38	104	206569472	69	14798
2026-01-20 08:50:13.04	350.58	18.18	-48.5	-60.6	3.8	7.46e-01	0	38	104	206569472	68	14574
2026-01-20 08:50:16.06	349.93	17.93	-50.2	-63.5	3.8	7.45e-01	0	39	104	206569472	70	18209
2026-01-20 08:50:19.08	349.29	17.68	-48.0	-60.1	3.8	7.47e-01	0	38	104	206569472	68	13807
2026-01-20 08:50:22.10	348.65	17.44	-52.1	-69.1	3.8	7.47e-01	0	38	104	206569472	74	27412
2026-01-20 08:50:25.13	348.03	17.19	-48.9	-61.1	3.8	7.47e-01	0	39	104	206569472	69	14683
2026-01-20 08:50:28.15	347.42	16.94	-48.9	-61.2	3.8	7.49e-01	0	38	104	206569472	69	14744
2026-01-20 08:50:31.17	346.82	16.69	-50.0	-63.1	3.9	7.44e-01	0	39	104	206569472	71	16349
2026-01-20 08:50:34.19	346.23	16.44	-48.7	-61.3	3.8	7.42e-01	0	39	104	206569472	69	14935
2026-01-20 08:50:37.22	345.65	16.19	-48.8	-60.7	3.8	7.43e-01	0	38	104	206569472	68	14802
2026-01-20 08:50:40.23	345.09	15.94	-49.6	-62.9	3.8	7.42e-01	0	38	104	206569472	70	17046
2026-01-20 08:50:43.26	344.53	15.69	-48.0	-59.8	3.8	7.44e-01	0	39	104	206569472	67	14069
2026-01-20 08:50:46.28	343.98	15.44	-51.8	-68.1	3.8	7.45e-01	0	39	104	206569472	74	24620
2026-01-20 08:50:49.30	343.44	15.19	-48.5	-60.9	3.8	7.45e-01	0	39	104	206569472	68	15189
2026-01-20 08:50:52.33	342.92	14.94	-48.2	-59.8	3.8	7.45e-01	0	38	104	206569472	67	14172
2026-01-20 08:50:55.35	342.40	14.69	-49.0	-61.2	3.8	7.43e-01	0	39	104	206569472	70	14042
2026-01-20 08:50:58.37	341.89	14.45	-48.3	-61.3	3.8	7.44e-01	0	38	104	206569472	68	15782
2026-01-20 08:51:01.40	341.39	14.20	-50.3	-63.6	3.8	7.45e-01	0	38	104	206569472	71	17379
2026-01-20 08:51:04.42	340.90	13.95	-49.6	-62.8	3.8	7.46e-01	0	38	104	206569472	70	16801
2026-01-20 08:51:07.44	340.41	13.71	-48.7	-61.3	3.8	7.46e-01	0	39	104	206569472	69	14939
2026-01-20 08:51:10.47	339.94	13.46	-51.3	-66.2	3.9	7.42e-01	0	39	104	206569472	74	19637
2026-01-20 08:51:13.49	339.47	13.22	-48.6	-60.5	3.8	7.46e-01	0	38	104	206569472	69	13717
2026-01-20 08:51:16.52	339.01	12.97	-48.1	-60.0	3.8	7.46e-01	0	39	104	206569472	67	14533
2026-01-20 08:51:19.54	338.57	12.73	-48.5	-51.5	17.4	6.01e-01	0	38	0	206569472	69	4855
2026-01-20 08:51:22.56	338.13	12.49	-48.3	-51.3	17.7	6.01e-01	0	38	0	212336640	68	5000
2026-01-20 08:51:25.58	337.69	12.25	-48.0	-50.7	18.4	6.02e-01	0	38	0	217579520	67	4982
2026-01-20 08:51:28.60	337.27	12.01	-48.3	-51.2	17.9	6.01e-01	0	38	0	223346688	67	5267
2026-01-20 08:51:31.63	336.85	11.78	-48.0	-50.6	18.5	6.02e-01	0	39	0	229113856	67	4916
2026-01-20 08:51:34.65	336.44	11.54	-47.8	-50.4	18.8	6.00e-01	0	38	0	234881024	67	4785
2026-01-20 08:51:37.68	336.03	11.30	-47.8	-50.4	18.8	5.99e-01	0	38	0	240648192	67	4804
2026-01-20 08:51:40.70	335.64	11.07	-48.0	-50.8	18.4	5.99e-01	0	38	0	245891072	67	5010
2026-01-20 08:51:43.72	335.25	10.84	-47.9	-50.5	18.6	5.99e-01	0	38	0	251658240	67	4857
2026-01-20 08:51:46.75	334.87	10.60	-48.0	-50.7	18.5	5.99e-01	0	38	0	257425408	67	4949
2026-01-20 08:51:49.77	334.49	10.37	-48.0	-50.8	18.4	6.03e-01	0	38	0	263192576	67	5001
2026-01-20 08:51:52.79	334.12	10.15	-48.1	-50.9	18.2	6.04e-01	0	38	0	268959744	67	5089
2026-01-20 08:51:55.82	333.76	9.92	-48.2	-51.1	18.0	6.01e-01	0	38	0	274202624	67	5190
2026-01-20 08:51:58.84	333.40	9.69	-48.1	-50.9	18.3	6.00e-01	0	38	0	280494080	67	5052
2026-01-20 08:52:01.86	333.05	9.47	-48.1	-50.9	18.3	6.00e-01	0	39	0	285736960	67	5060
2026-01-20 08:52:04.88	332.71	9.24	-48.3	-51.3	17.9	6.02e-01	0	38	0	291504128	67	5290
2026-01-20 08:52:07.90	332.37	9.02	-48.2	-51.1	18.0	5.99e-01	0	39	0	297271296	67	5215
2026-01-20 08:52:10.92	332.03	8.80	-48.3	-51.3	17.8	6.02e-01	0	38	0	303038464	67	5293
2026-01-20 08:52:13.95	331.71	8.58	-48.1	-50.9	18.2	6.01e-01	0	38	0	308805632	67	5067
2026-01-20 08:52:16.97	331.38	8.36	-48.4	-51.5	17.6	6.00e-01	0	38	0	314048512	67	5432
2026-01-20 08:52:19.99	331.07	8.14	-48.4	-51.4	17.7	6.00e-01	0	39	0	319815680	67	5381
2026-01-20 08:52:23.02	330.76	7.92	-48.3	-51.2	17.8	6.01e-01	0	38	0	325582848	67	5271
2026-01-20 08:52:26.04	330.45	7.71	-48.4	-51.4	17.7	6.02e-01	0	38	0	331350016	67	5379
2026-01-20 08:52:29.07	330.15	7.49	-48.5	-51.7	17.4	6.00e-01	0	38	0	337117184	67	5554
2026-01-20 08:52:32.09	329.85	7.28	-48.6	-51.8	17.3	6.00e-01	0	39	0	342360064	67	5607
2026-01-20 08:52:35.11	329.56	7.07	-48.6	-51.9	17.2	6.03e-01	0	38	0	348127232	67	5670
2026-01-20 08:52:38.13	329.27	6.86	-48.3	-51.3	17.7	6.02e-01	0	38	0	353894400	67	5310
2026-01-20 08:52:41.16	328.99	6.65	-48.7	-52.0	17.1	6.00e-01	0	38	0	359661568	67	5728
2026-01-20 08:52:44.18	328.71	6.45	-48.7	-52.1	16.9	5.99e-01	0	39	0	365428736	68	5501
2026-01-20 08:52:47.20	328.44	6.24	-48.7	-52.1	16.8	6.00e-01	0	38	0	370671616	68	5471
2026-01-20 08:52:50.23	328.17	6.03	-48.7	-52.0	16.8	6.01e-01	0	38	0	376438784	68	5463
2026-01-20 08:52:53.25	327.91	5.83	-48.6	-52.0	17.0	6.02e-01	0	38	0	382205952	68	5403
2026-01-20 08:52:56.28	327.65	5.63	-48.8	-52.3	16.6	6.03e-01	0	38	0	387973120	68	5639
2026-01-20 08:52:59.30	327.39	5.43	-48.9	-52.5	16.4	6.00e-01	0	38	0	393740288	68	5744
2026-01-20 08:53:02.32	327.14	5.23	-48.8	-52.3	16.6	6.02e-01	0	38	0	399507456	68	5595
2026-01-20 08:53:05.34	326.89	5.03	-48.7	-52.2	16.8	6.02e-01	0	39	0	404750336	69	5240
2026-01-20 08:53:08.37	326.64	4.83	-52.3	-70.1	3.8	7.47e-01	0	39	104	405798912	75	29204
2026-01-20 08:53:11.39	326.40	4.63	-52.5	-70.4	3.8	7.45e-01	0	38	104	405798912	75	30062
2026-01-20 08:53:14.42	326.16	4.44	-52.7	-70.6	3.8	7.48e-01	0	39	104	405798912	75	30732
2026-01-20 08:53:17.44	325.93	4.24	-52.8	-70.7	3.8	7.42e-01	0	39	104	405798912	76	29354
2026-01-20 08:53:20.46	325.70	4.05	-52.9	-70.7	3.8	7.46e-01	0	39	104	405798912	76	29598
2026-01-20 08:53:23.49	325.47	3.86	-52.9	-70.7	3.8	7.46e-01	0	38	104	405798912	76	29668
2026-01-20 08:53:26.51	325.25	3.67	-52.9	-70.8	3.8	7.43e-01	0	38	104	405798912	76	29741
2026-01-20 08:53:29.53	325.03	3.48	-52.8	-70.7	3.8	7.48e-01	0	38	104	405798912	76	29382
2026-01-20 08:53:32.56	324.81	3.29	-52.8	-70.7	3.8	7.48e-01	0	38	104	405798912	76	29445
2026-01-20 08:53:35.58	324.60	3.10	-52.8	-70.6	3.8	7.45e-01	0	38	104	405798912	76	29282
2026-01-20 08:53:38.61	324.39	2.91	-52.8	-70.6	3.8	7.46e-01	0	39	104	405798912	76	29271
2026-01-20 08:53:41.64	324.18	2.73	-52.8	-70.6	3.8	7.44e-01	0	39	104	405798912	76	29181
2026-01-20 08:53:44.66	323.98	2.54	-52.8	-70.6	3.8	7.45e-01	0	38	104	405798912	76	29225
2026-01-20 08:53:47.68	323.78	2.36	-52.8	-70.6	3.8	7.50e-01	0	39	104	405798912	76	29155
2026-01-20 08:53:50.70	323.58	2.17	-52.7	-70.6	3.8	7.46e-01	0	39	104	405798912	76	29056
2026-01-20 08:53:53.73	323.38	1.99	-52.7	-70.5	3.8	7.43e-01	0	39	104	405798912	76	28997

#Closed at: 2026-01-20 08:53:56
#Recorded file [405 MB]: D:/lorett/data/31041_260120_114224.dat