passes_logs/2026/01/20/R3.2S_Murmansk/R3.2S_Murmansk__20260120_035621_FENGYUN_3D_rec.log

#Pass ID: 20260120_035621_FENGYUN 3D
#Satellite: FENGYUN 3D
#Configuration: FENGYUN 3D
#almurnet v.1.7.20251203
#Start time: 2026-01-20 03:56:21

#Version: 2.2.20231116
#Station: R3.2S_Murmansk
#Location: 33.079688 lon 68.888172 lat
#TLE: 1 43010U 17072A   26019.30265705  .00000224  00000+0  12791-3 0  9991
#TLE: 2 43010  98.9940 351.1850 0002428 100.8496 259.2953 14.19697535423864

#Time	Az	El	Level	Level2	SNR	BER	BlckErr	Temp	State	Recorded	gain1	gain2
2026-01-20 03:56:21.21	30.52	2.00	-51.6	-63.5	3.8	8.46e-01	0	37	0	0	75	13654
2026-01-20 03:56:25.23	30.42	2.26	-51.6	-63.5	3.8	8.46e-01	0	37	104	0	73	15268
2026-01-20 03:56:29.26	30.32	2.51	-51.6	-63.5	3.8	8.46e-01	0	37	104	0	73	15329
2026-01-20 03:56:33.29	30.22	2.77	-51.5	-62.8	3.8	8.46e-01	0	37	104	0	73	14137
2026-01-20 03:56:37.32	30.12	3.03	-51.4	-60.9	4.0	8.45e-01	0	37	104	0	73	11343
2026-01-20 03:56:41.35	30.01	3.30	-51.5	-62.7	3.8	8.47e-01	0	37	104	0	73	13955
2026-01-20 03:56:45.38	29.90	3.56	-50.8	-57.6	5.2	8.01e-01	0	37	0	0	73	7773
2026-01-20 03:56:49.41	29.79	3.83	-48.8	-52.2	10.2	8.18e-03	0	37	0	17825792	69	5235
2026-01-20 03:56:53.44	29.68	4.10	-47.1	-49.3	13.1	2.43e-04	0	37	0	39845888	66	4488
2026-01-20 03:56:57.48	29.56	4.38	-47.2	-49.5	12.9	4.69e-05	0	37	0	62914560	65	4870
2026-01-20 03:57:01.51	29.44	4.65	-48.4	-51.4	10.9	2.48e-03	0	38	0	85983232	67	5381
2026-01-20 03:57:05.54	29.32	4.93	-49.9	-54.6	7.7	1.58e-01	0	38	0	108003328	70	6551
2026-01-20 03:57:09.57	29.20	5.21	-50.5	-56.0	6.7	2.88e-03	0	38	0	131072000	71	7267
2026-01-20 03:57:13.61	29.07	5.50	-46.0	-47.6	15.6	0.00e+00	0	38	0	148897792	63	4370
2026-01-20 03:57:17.64	28.94	5.79	-44.5	-45.8	17.5	0.00e+00	0	38	0	171966464	60	4218
2026-01-20 03:57:21.67	28.81	6.08	-45.0	-46.3	17.0	0.00e+00	0	38	0	193986560	60	4480
2026-01-20 03:57:25.70	28.68	6.37	-44.7	-45.9	17.4	0.00e+00	0	38	0	217055232	60	4288
2026-01-20 03:57:29.73	28.54	6.67	-44.5	-45.8	17.6	0.00e+00	0	38	0	240123904	60	4209
2026-01-20 03:57:33.76	28.40	6.97	-44.4	-45.7	18.1	0.00e+00	0	38	0	262144000	59	4392
2026-01-20 03:57:37.80	28.25	7.27	-44.5	-45.7	17.7	0.00e+00	0	38	0	285212672	60	4169
2026-01-20 03:57:41.83	28.10	7.58	-44.1	-45.3	18.5	0.00e+00	0	38	0	308281344	59	4213
2026-01-20 03:57:45.87	27.95	7.89	-43.8	-44.9	18.9	0.00e+00	0	38	0	330301440	59	4045
2026-01-20 03:57:49.90	27.80	8.20	-43.8	-44.9	18.9	0.00e+00	0	38	0	353370112	59	4051
2026-01-20 03:57:53.93	27.64	8.52	-44.0	-45.1	18.7	0.00e+00	0	38	0	376438784	59	4130
2026-01-20 03:57:57.96	27.48	8.84	-43.9	-45.0	18.9	0.00e+00	0	38	0	398458880	59	4086
2026-01-20 03:58:01.99	27.31	9.17	-43.7	-44.8	19.1	0.00e+00	0	38	0	421527552	59	3963
2026-01-20 03:58:06.02	27.14	9.50	-43.6	-44.7	19.3	0.00e+00	0	38	0	444596224	58	4166
2026-01-20 03:58:10.06	26.96	9.84	-43.6	-44.7	19.3	0.00e+00	0	38	0	466616320	58	4151
2026-01-20 03:58:14.09	26.78	10.17	-43.6	-44.7	19.3	0.00e+00	0	38	0	488636416	58	4171
2026-01-20 03:58:18.12	26.60	10.52	-43.8	-44.8	19.2	0.00e+00	0	38	0	511705088	58	4241
2026-01-20 03:58:22.15	26.41	10.86	-43.5	-44.5	19.5	0.00e+00	0	38	0	534773760	58	4094
2026-01-20 03:58:26.18	26.21	11.21	-43.5	-44.6	19.5	0.00e+00	0	38	0	556793856	58	4110
2026-01-20 03:58:30.22	26.01	11.57	-43.4	-44.4	19.7	0.00e+00	0	38	0	579862528	58	4033
2026-01-20 03:58:34.25	25.81	11.93	-43.1	-44.1	20.0	0.00e+00	0	38	0	602931200	58	3907
2026-01-20 03:58:38.28	25.60	12.30	-43.4	-44.4	19.8	0.00e+00	0	38	0	624951296	58	4025
2026-01-20 03:58:42.32	25.38	12.67	-43.0	-44.0	20.2	0.00e+00	0	38	0	648019968	57	4053
2026-01-20 03:58:46.35	25.16	13.05	-42.9	-43.8	20.3	0.00e+00	0	38	0	671088640	57	4003
2026-01-20 03:58:50.38	24.93	13.43	-42.6	-43.5	20.6	0.00e+00	0	38	0	693108736	57	3864
2026-01-20 03:58:54.41	24.70	13.82	-42.6	-43.6	20.6	0.00e+00	0	38	0	716177408	57	3876
2026-01-20 03:58:58.45	24.46	14.21	-42.6	-43.5	20.6	0.00e+00	0	38	0	739246080	57	3864
2026-01-20 03:59:02.48	24.21	14.61	-42.6	-43.6	20.6	0.00e+00	0	38	0	761266176	57	3886
2026-01-20 03:59:06.51	23.95	15.02	-42.4	-43.4	20.8	0.00e+00	0	38	0	784334848	56	4009
2026-01-20 03:59:10.54	23.69	15.43	-42.2	-43.2	21.1	0.00e+00	0	38	0	807403520	56	3920
2026-01-20 03:59:14.57	23.42	15.85	-42.0	-42.9	21.3	0.00e+00	0	38	0	829423616	56	3813
2026-01-20 03:59:18.61	23.14	16.28	-41.7	-42.5	21.6	0.00e+00	0	38	0	852492288	55	3862
2026-01-20 03:59:22.64	22.85	16.71	-41.6	-42.4	21.7	0.00e+00	0	38	0	874512384	55	3817
2026-01-20 03:59:26.67	22.56	17.15	-41.5	-42.3	21.8	0.00e+00	0	38	0	897581056	54	3983
2026-01-20 03:59:30.70	22.25	17.59	-41.6	-42.4	21.7	0.00e+00	0	38	0	919601152	54	4036
2026-01-20 03:59:34.73	21.94	18.05	-41.4	-42.3	21.9	0.00e+00	0	38	0	942669824	54	3978
2026-01-20 03:59:38.77	21.61	18.51	-41.3	-42.1	22.0	0.00e+00	0	38	0	965738496	54	3907
2026-01-20 03:59:42.80	21.27	18.98	-41.1	-41.9	22.3	0.00e+00	0	38	0	987758592	54	3793
2026-01-20 03:59:46.83	20.93	19.45	-40.9	-41.7	22.5	0.00e+00	0	38	0	1010827264	53	3938
2026-01-20 03:59:50.86	20.57	19.94	-40.7	-41.5	22.7	0.00e+00	0	38	0	1033895936	53	3852
2026-01-20 03:59:54.89	20.20	20.43	-40.8	-41.6	22.6	0.00e+00	0	38	0	1055916032	53	3874
2026-01-20 03:59:58.92	19.81	20.93	-40.7	-41.5	22.7	0.00e+00	0	38	0	1078984704	53	3837
2026-01-20 04:00:02.95	19.42	21.44	-40.6	-41.4	22.8	0.00e+00	0	38	0	1102053376	53	3815
2026-01-20 04:00:06.98	19.01	21.96	-40.5	-41.3	22.9	0.00e+00	0	38	0	1124073472	53	3763
2026-01-20 04:00:11.01	18.58	22.49	-40.6	-41.4	22.8	0.00e+00	0	38	0	1147142144	53	3817
2026-01-20 04:00:15.05	18.14	23.03	-40.5	-41.3	23.0	0.00e+00	0	38	0	1170210816	52	3968
2026-01-20 04:00:19.07	17.68	23.57	-40.4	-41.2	23.0	0.00e+00	0	38	0	1192230912	52	3924
2026-01-20 04:00:23.11	17.21	24.13	-40.1	-40.9	23.3	0.00e+00	0	38	0	1214251008	52	3800
2026-01-20 04:00:27.14	16.72	24.70	-40.0	-40.8	23.5	0.00e+00	0	38	0	1237319680	51	3990
2026-01-20 04:00:31.17	16.21	25.27	-40.2	-41.0	23.3	0.00e+00	0	38	0	1260388352	51	4068
2026-01-20 04:00:35.20	15.68	25.86	-40.2	-40.9	23.4	0.00e+00	0	38	0	1282408448	51	4042
2026-01-20 04:00:39.23	15.13	26.45	-40.0	-40.8	23.6	0.00e+00	0	38	0	1305477120	51	3960
2026-01-20 04:00:43.26	14.56	27.06	-40.0	-40.8	23.5	0.00e+00	0	38	0	1328545792	51	3988
2026-01-20 04:00:47.29	13.96	27.68	-40.1	-40.9	23.5	0.00e+00	0	38	0	1350565888	51	4028
2026-01-20 04:00:51.32	13.34	28.31	-39.8	-40.6	23.8	0.00e+00	0	38	0	1373634560	51	3883
2026-01-20 04:00:55.35	12.70	28.94	-40.0	-40.8	23.6	0.00e+00	0	38	0	1396703232	51	3963
2026-01-20 04:00:59.39	12.02	29.60	-39.8	-40.6	23.8	0.00e+00	0	39	0	1418723328	51	3886
2026-01-20 04:01:03.42	11.32	30.25	-39.9	-40.7	23.8	0.00e+00	0	39	0	1441792000	51	3921
2026-01-20 04:01:07.45	10.59	30.92	-40.0	-40.8	23.7	0.00e+00	0	38	0	1464860672	51	3971
2026-01-20 04:01:11.48	9.83	31.60	-39.4	-40.1	24.2	0.00e+00	0	38	0	1486880768	50	3899
2026-01-20 04:01:15.51	9.04	32.29	-39.3	-40.0	24.4	0.00e+00	0	38	0	1509949440	50	3835
2026-01-20 04:01:19.54	8.21	32.99	-39.4	-40.1	24.2	0.00e+00	0	38	0	1533018112	50	3912
2026-01-20 04:01:23.57	7.34	33.70	-39.4	-40.2	24.2	0.00e+00	0	38	0	1555038208	50	3927
2026-01-20 04:01:27.60	6.43	34.42	-39.7	-40.4	24.0	0.00e+00	0	38	0	1577058304	50	4038
2026-01-20 04:01:31.63	5.48	35.14	-39.7	-40.4	24.0	0.00e+00	0	38	0	1600126976	50	4048
2026-01-20 04:01:35.66	4.49	35.87	-39.5	-40.3	24.2	0.00e+00	0	38	0	1623195648	50	3969
2026-01-20 04:01:39.69	3.45	36.61	-39.6	-40.4	24.1	0.00e+00	0	38	0	1645215744	50	4020
2026-01-20 04:01:43.73	2.36	37.36	-39.5	-40.2	24.2	0.00e+00	0	39	0	1668284416	50	3953
2026-01-20 04:01:47.76	1.22	38.11	-39.6	-40.3	24.2	0.00e+00	0	38	0	1691353088	50	3989
2026-01-20 04:01:51.79	0.02	38.86	-39.6	-40.3	24.2	0.00e+00	0	38	0	1713373184	50	3981
2026-01-20 04:01:55.83	358.77	39.61	-39.7	-40.5	24.1	0.00e+00	0	38	0	1736441856	50	4052
2026-01-20 04:01:59.86	357.45	40.37	-39.6	-40.3	24.2	0.00e+00	0	38	0	1759510528	50	3976
2026-01-20 04:02:03.90	356.08	41.12	-39.8	-40.6	24.0	0.00e+00	0	38	0	1781530624	50	4118
2026-01-20 04:02:07.93	354.63	41.87	-39.7	-40.4	24.2	0.00e+00	0	38	0	1804599296	50	4029
2026-01-20 04:02:11.96	353.13	42.61	-39.7	-40.5	24.1	0.00e+00	0	38	0	1827667968	50	4059
2026-01-20 04:02:15.99	351.54	43.34	-39.5	-40.2	24.3	0.00e+00	0	38	0	1849688064	50	3942
2026-01-20 04:02:20.03	349.88	44.06	-39.7	-40.5	24.1	0.00e+00	0	38	0	1872756736	50	4061
2026-01-20 04:02:24.06	348.15	44.76	-39.7	-40.5	24.1	0.00e+00	0	38	0	1895825408	50	4057
2026-01-20 04:02:28.09	346.34	45.45	-39.7	-40.5	24.1	0.00e+00	0	38	0	1917845504	50	4053
2026-01-20 04:02:32.12	344.46	46.11	-39.7	-40.5	24.1	0.00e+00	0	38	0	1940914176	50	4054
2026-01-20 04:02:36.15	342.49	46.75	-40.3	-41.0	23.7	0.00e+00	0	38	0	1962934272	51	4079
2026-01-20 04:02:40.18	340.44	47.36	-40.2	-41.0	23.7	0.00e+00	0	38	0	1986002944	51	4059
2026-01-20 04:02:44.21	338.31	47.94	-40.4	-41.1	23.6	0.00e+00	0	38	0	2009071616	51	4139
2026-01-20 04:02:48.24	336.10	48.47	-40.7	-41.5	23.2	0.00e+00	0	38	0	2031091712	52	4071
2026-01-20 04:02:52.27	333.81	48.97	-40.5	-41.2	23.4	0.00e+00	0	39	0	2054160384	52	3951
2026-01-20 04:02:56.30	331.46	49.42	-40.4	-41.1	23.5	0.00e+00	0	38	0	2076180480	52	3902
2026-01-20 04:03:00.34	329.03	49.82	-40.5	-41.3	23.4	0.00e+00	0	39	0	2099249152	52	3965
2026-01-20 04:03:04.37	326.54	50.17	-40.6	-41.4	23.3	0.00e+00	0	38	0	2122317824	52	4016
2026-01-20 04:03:08.39	324.01	50.46	-40.5	-41.2	23.4	0.00e+00	0	38	0	2144337920	52	3943
2026-01-20 04:03:12.43	321.42	50.70	-40.6	-41.4	23.3	0.00e+00	0	38	0	2167406592	52	4036
2026-01-20 04:03:16.45	318.81	50.87	-40.7	-41.4	23.2	0.00e+00	0	38	0	2190475264	52	4042
2026-01-20 04:03:20.49	316.16	50.97	-40.4	-41.1	23.5	0.00e+00	0	39	0	2212495360	52	3902
2026-01-20 04:03:24.52	313.51	51.02	-40.4	-41.2	23.5	0.00e+00	0	39	0	2235564032	52	3931
2026-01-20 04:03:28.55	310.85	51.00	-40.7	-41.5	23.2	0.00e+00	0	38	0	2258632704	52	4062
2026-01-20 04:03:32.58	308.20	50.91	-40.7	-41.4	23.3	0.00e+00	0	38	0	2280652800	52	4043
2026-01-20 04:03:36.61	305.57	50.76	-40.4	-41.2	23.5	0.00e+00	0	38	0	2303721472	52	3917
2026-01-20 04:03:40.65	302.97	50.55	-40.1	-40.8	23.9	0.00e+00	0	39	0	2325741568	51	3990
2026-01-20 04:03:44.67	300.42	50.27	-40.4	-41.2	23.6	0.00e+00	0	39	0	2348810240	51	4155
2026-01-20 04:03:48.71	297.91	49.94	-40.4	-41.2	23.6	0.00e+00	0	39	0	2370830336	51	4170
2026-01-20 04:03:52.74	295.46	49.56	-40.4	-41.2	23.5	0.00e+00	0	38	0	2393899008	52	3923
2026-01-20 04:03:56.77	293.08	49.12	-40.2	-41.0	23.7	0.00e+00	0	39	0	2416967680	52	3825
2026-01-20 04:04:00.80	290.77	48.64	-40.1	-40.9	23.8	0.00e+00	0	38	0	2438987776	52	3784
2026-01-20 04:04:04.83	288.53	48.11	-40.2	-40.9	23.7	0.00e+00	0	38	0	2462056448	52	3811
2026-01-20 04:04:08.86	286.38	47.55	-40.3	-41.0	23.6	0.00e+00	0	39	0	2485125120	52	3860
2026-01-20 04:04:12.90	284.29	46.95	-40.0	-40.7	24.0	0.00e+00	0	39	0	2507145216	51	3938
2026-01-20 04:04:16.93	282.29	46.32	-39.6	-40.4	24.3	0.00e+00	0	39	0	2530213888	51	3797
2026-01-20 04:04:20.96	280.38	45.66	-39.4	-40.2	24.5	0.00e+00	0	39	0	2553282560	50	3922
2026-01-20 04:04:24.99	278.54	44.98	-39.7	-40.4	24.2	0.00e+00	0	39	0	2575302656	50	4041
2026-01-20 04:04:29.02	276.78	44.28	-39.6	-40.3	24.3	0.00e+00	0	39	0	2598371328	50	3986
2026-01-20 04:04:33.06	275.09	43.56	-39.3	-40.0	24.6	0.00e+00	0	38	0	2621440000	50	3867
2026-01-20 04:04:37.09	273.49	42.83	-39.2	-39.9	24.7	0.00e+00	0	39	0	2643460096	50	3818
2026-01-20 04:04:41.12	271.95	42.09	-39.8	-40.5	24.2	0.00e+00	0	39	0	2666528768	50	4084
2026-01-20 04:04:45.15	270.48	41.34	-39.6	-40.3	24.3	0.00e+00	0	38	0	2688548864	50	3975
2026-01-20 04:04:49.19	269.08	40.59	-39.7	-40.5	24.2	0.00e+00	0	38	0	2711617536	50	4067
2026-01-20 04:04:53.21	267.75	39.84	-39.6	-40.3	24.3	0.00e+00	0	38	0	2734686208	50	4000
2026-01-20 04:04:57.25	266.47	39.08	-39.2	-39.9	24.6	0.00e+00	0	39	0	2756706304	50	3820
2026-01-20 04:05:01.28	265.26	38.33	-39.0	-39.7	24.8	0.00e+00	0	38	0	2779774976	50	3702
2026-01-20 04:05:05.31	264.10	37.58	-39.2	-39.9	24.6	0.00e+00	0	38	0	2802843648	49	4045
2026-01-20 04:05:09.34	262.99	36.83	-39.4	-40.2	24.4	0.00e+00	0	38	0	2824863744	49	4151
2026-01-20 04:05:13.37	261.93	36.09	-39.1	-39.8	24.7	0.00e+00	0	38	0	2847932416	49	3959
2026-01-20 04:05:17.41	260.92	35.35	-39.1	-39.9	24.6	0.00e+00	0	39	0	2871001088	49	4005
2026-01-20 04:05:21.44	259.96	34.62	-39.2	-39.9	24.6	0.00e+00	0	38	0	2893021184	49	4031
2026-01-20 04:05:25.47	259.03	33.90	-39.1	-39.8	24.7	0.00e+00	0	38	0	2916089856	49	3967
2026-01-20 04:05:29.51	258.15	33.18	-39.3	-40.0	24.5	0.00e+00	0	39	0	2938109952	49	4080
2026-01-20 04:05:33.54	257.30	32.48	-39.6	-40.4	24.2	0.00e+00	0	38	0	2961178624	49	4251
2026-01-20 04:05:37.57	256.50	31.78	-39.5	-40.2	24.3	0.00e+00	0	38	0	2984247296	50	3932
2026-01-20 04:05:41.60	255.72	31.10	-39.2	-39.9	24.5	0.00e+00	0	38	0	3006267392	50	3810
2026-01-20 04:05:45.64	254.98	30.42	-39.6	-40.3	24.2	0.00e+00	0	39	0	3029336064	50	3980
2026-01-20 04:05:49.67	254.27	29.76	-39.7	-40.4	24.1	0.00e+00	0	38	0	3051356160	50	4036
2026-01-20 04:05:53.70	253.58	29.11	-39.9	-40.6	23.9	0.00e+00	0	38	0	3074424832	50	4124
2026-01-20 04:05:57.73	252.93	28.46	-40.0	-40.8	23.7	0.00e+00	0	38	0	3097493504	50	4198
2026-01-20 04:06:01.76	252.30	27.83	-40.0	-40.8	23.7	0.00e+00	0	38	0	3119513600	50	4202
2026-01-20 04:06:05.79	251.69	27.21	-39.9	-40.6	23.8	0.00e+00	0	39	0	3142582272	50	4145
2026-01-20 04:06:09.83	251.11	26.59	-39.7	-40.4	24.0	0.00e+00	0	39	0	3165650944	50	4033
2026-01-20 04:06:13.86	250.55	25.99	-39.8	-40.5	23.9	0.00e+00	0	38	0	3187671040	50	4075
2026-01-20 04:06:17.89	250.02	25.40	-39.9	-40.7	23.8	0.00e+00	0	39	0	3210739712	50	4157
2026-01-20 04:06:21.93	249.50	24.82	-40.0	-40.8	23.7	0.00e+00	0	38	0	3233808384	50	4199
2026-01-20 04:06:25.96	249.00	24.25	-40.0	-40.7	23.7	0.00e+00	0	38	0	3255828480	50	4175
2026-01-20 04:06:29.99	248.52	23.69	-40.1	-40.8	23.6	0.00e+00	0	38	0	3278897152	50	4235
2026-01-20 04:06:34.03	248.05	23.13	-40.2	-40.9	23.5	0.00e+00	0	38	0	3301965824	51	4045
2026-01-20 04:06:38.06	247.61	22.59	-40.1	-40.9	23.5	0.00e+00	0	38	0	3323985920	51	4030
2026-01-20 04:06:42.09	247.17	22.06	-39.9	-40.6	23.7	0.00e+00	0	39	0	3347054592	51	3908
2026-01-20 04:06:46.12	246.76	21.54	-40.0	-40.7	23.6	0.00e+00	0	38	0	3370123264	51	3935
2026-01-20 04:06:50.15	246.35	21.02	-40.2	-40.9	23.4	0.00e+00	0	38	0	3392143360	51	4050
2026-01-20 04:06:54.18	245.96	20.52	-40.5	-41.3	23.1	0.00e+00	0	39	0	3414163456	51	4217
2026-01-20 04:06:58.21	245.59	20.02	-40.7	-41.5	22.8	0.00e+00	0	39	0	3437232128	52	4088
2026-01-20 04:07:02.25	245.22	19.53	-40.9	-41.7	22.6	0.00e+00	0	38	0	3460300800	52	4176
2026-01-20 04:07:06.28	244.87	19.05	-40.9	-41.8	22.6	0.00e+00	0	38	0	3482320896	52	4203
2026-01-20 04:07:10.31	244.53	18.58	-40.9	-41.8	22.5	0.00e+00	0	39	0	3505389568	52	4196
2026-01-20 04:07:14.34	244.20	18.12	-41.1	-41.9	22.4	0.00e+00	0	38	0	3528458240	52	4266
2026-01-20 04:07:18.37	243.88	17.66	-41.2	-42.0	22.2	0.00e+00	0	39	0	3550478336	53	4083
2026-01-20 04:07:22.41	243.57	17.21	-41.2	-42.0	22.2	0.00e+00	0	39	0	3573547008	53	4095
2026-01-20 04:07:26.44	243.27	16.77	-41.3	-42.1	22.1	0.00e+00	0	39	0	3596615680	53	4130
2026-01-20 04:07:30.47	242.97	16.33	-41.5	-42.4	21.9	0.00e+00	0	39	0	3618635776	53	4257
2026-01-20 04:07:34.50	242.69	15.91	-41.8	-42.7	21.5	0.00e+00	0	38	0	3641704448	54	4184
2026-01-20 04:07:38.53	242.42	15.48	-42.1	-43.0	21.3	0.00e+00	0	38	0	3664773120	54	4298
2026-01-20 04:07:42.56	242.15	15.07	-42.1	-43.0	21.2	0.00e+00	0	38	0	3686793216	54	4326
2026-01-20 04:07:46.60	241.89	14.66	-42.0	-42.9	21.4	0.00e+00	0	38	0	3709861888	55	4030
2026-01-20 04:07:50.63	241.64	14.26	-42.0	-42.9	21.4	0.00e+00	0	39	0	3732930560	55	4014
2026-01-20 04:07:54.66	241.39	13.86	-42.1	-43.0	21.2	0.00e+00	0	39	0	3754950656	55	4063
2026-01-20 04:07:58.69	241.15	13.47	-42.1	-43.0	21.2	0.00e+00	0	39	0	3776970752	55	4065
2026-01-20 04:08:02.72	240.92	13.09	-42.2	-43.1	21.1	0.00e+00	0	39	0	3800039424	55	4113
2026-01-20 04:08:06.75	240.70	12.71	-42.5	-43.4	20.8	0.00e+00	0	38	0	3823108096	55	4287
2026-01-20 04:08:10.78	240.48	12.33	-42.4	-43.4	20.8	0.00e+00	0	38	0	3845128192	55	4244
2026-01-20 04:08:14.81	240.26	11.96	-43.0	-43.9	20.4	0.00e+00	0	39	0	3868196864	56	4277
2026-01-20 04:08:18.85	240.05	11.60	-43.0	-43.9	20.3	0.00e+00	0	38	0	3891265536	56	4286
2026-01-20 04:08:22.88	239.85	11.24	-42.9	-43.9	20.4	0.00e+00	0	39	0	3913285632	56	4247
2026-01-20 04:08:26.91	239.65	10.89	-43.1	-44.0	20.2	0.00e+00	0	38	0	3936354304	56	4340
2026-01-20 04:08:30.94	239.46	10.54	-43.0	-44.0	20.2	0.00e+00	0	39	0	3959422976	56	4303
2026-01-20 04:08:34.97	239.27	10.19	-43.1	-44.0	20.1	0.00e+00	0	39	0	3981443072	56	4330
2026-01-20 04:08:39.01	239.09	9.85	-43.4	-44.4	19.8	0.00e+00	0	38	0	4004511744	57	4260
2026-01-20 04:08:43.04	238.91	9.52	-43.3	-44.3	19.9	0.00e+00	0	39	0	4027580416	57	4202
2026-01-20 04:08:47.07	238.73	9.18	-43.4	-44.4	19.7	0.00e+00	0	38	0	4049600512	57	4286
2026-01-20 04:08:51.10	238.56	8.86	-43.5	-44.6	19.5	0.00e+00	0	39	0	4072669184	57	4348
2026-01-20 04:08:55.13	238.40	8.53	-43.6	-44.7	19.4	0.00e+00	0	38	0	4095737856	57	4398
2026-01-20 04:08:59.16	238.23	8.21	-43.5	-44.6	19.5	0.00e+00	0	39	0	4117757952	58	4122
2026-01-20 04:09:03.19	238.08	7.90	-43.6	-44.7	19.3	0.00e+00	0	38	0	4139778048	58	4175
2026-01-20 04:09:07.23	237.92	7.58	-43.8	-44.9	19.0	0.00e+00	0	38	0	4162846720	58	4289
2026-01-20 04:09:11.26	237.77	7.28	-44.0	-45.2	18.8	0.00e+00	0	39	0	4185915392	58	4405
2026-01-20 04:09:15.29	237.62	6.97	-44.0	-45.1	18.8	0.00e+00	0	39	0	4207935488	58	4375
2026-01-20 04:09:19.32	237.48	6.67	-44.1	-45.3	18.6	0.00e+00	0	39	0	4231004160	59	4212
2026-01-20 04:09:23.35	237.34	6.37	-44.2	-45.3	18.5	0.00e+00	0	39	0	4254072832	59	4222
2026-01-20 04:09:27.38	237.20	6.08	-44.3	-45.5	18.3	0.00e+00	0	39	0	4276092928	59	4322
2026-01-20 04:09:31.41	237.06	5.78	-44.6	-45.8	18.0	0.00e+00	0	38	0	4299161600	59	4472
2026-01-20 04:09:35.45	236.93	5.49	-44.2	-45.4	18.1	0.00e+00	0	38	0	4322230272	60	4023
2026-01-20 04:09:39.48	236.80	5.21	-44.2	-45.3	18.0	0.00e+00	0	39	0	4344250368	60	4004
2026-01-20 04:09:43.52	236.67	4.92	-52.8	-64.8	3.8	8.47e-01	0	39	104	4363124736	76	14977
2026-01-20 04:09:47.55	236.55	4.64	-53.6	-65.5	3.8	8.47e-01	0	39	104	4363124736	77	15324
2026-01-20 04:09:51.58	236.43	4.37	-53.8	-65.7	3.8	8.46e-01	0	39	104	4363124736	78	14859
2026-01-20 04:09:55.61	236.31	4.09	-53.9	-65.9	3.8	8.45e-01	0	39	104	4363124736	78	15110
2026-01-20 04:09:59.64	236.19	3.82	-54.0	-65.9	3.8	8.46e-01	0	39	104	4363124736	78	15184
2026-01-20 04:10:03.67	236.08	3.55	-54.0	-65.9	3.8	8.46e-01	0	39	104	4363124736	78	15210
2026-01-20 04:10:07.70	235.97	3.28	-53.9	-65.9	3.8	8.46e-01	0	39	104	4363124736	78	15106
2026-01-20 04:10:11.73	235.86	3.02	-53.9	-65.8	3.8	8.46e-01	0	39	104	4363124736	78	15035
2026-01-20 04:10:15.76	235.75	2.76	-53.9	-65.8	3.8	8.46e-01	0	39	104	4363124736	78	15025
2026-01-20 04:10:19.79	235.64	2.50	-53.9	-65.8	3.8	8.46e-01	0	39	104	4363124736	78	14955
2026-01-20 04:10:23.82	235.54	2.24	-53.9	-65.8	3.8	8.46e-01	0	39	104	4363124736	78	14978
2026-01-20 04:10:27.85	235.44	1.98	-53.8	-65.8	3.8	8.46e-01	0	39	104	4363124736	78	15003

#Closed at: 2026-01-20 04:10:29
#Recorded file [4363 MB]: D:/lorett/data/31041_260120_065621.dat