passes_logs/2026/01/20/R3.2S_Murmansk/R3.2S_Murmansk__20260120_063640_NOAA_20_JPSS-1_rec.log

#Pass ID: 20260120_063640_NOAA 20 (JPSS-1)
#Satellite: NOAA 20 (JPSS-1)
#Configuration: NOAA 20
#almurnet v.1.7.20251203
#Start time: 2026-01-20 06:36:42

#Version: 2.2.20231116
#Station: R3.2S_Murmansk
#Location: 33.079688 lon 68.888172 lat
#TLE: 1 43013U 17073A   26019.91154542  .00000116  00000+0  76014-4 0  9997
#TLE: 2 43013  98.7642 320.7991 0001304  32.0041 328.1214 14.19537346423438

#Time	Az	El	Level	Level2	SNR	BER	BlckErr	Temp	State	Recorded	gain1	gain2
2026-01-20 06:36:42.38	87.08	2.10	-51.9	-66.8	3.8	1.49e+00	0	37	0	0	74	21100
2026-01-20 06:36:46.41	86.86	2.33	-51.9	-66.8	3.8	1.49e+00	0	37	104	0	74	21224
2026-01-20 06:36:50.44	86.63	2.57	-51.9	-66.8	3.8	1.49e+00	0	37	104	0	74	21219
2026-01-20 06:36:54.47	86.39	2.81	-51.9	-66.8	3.8	1.49e+00	0	37	104	0	74	21155
2026-01-20 06:36:58.50	86.15	3.06	-51.9	-66.8	3.8	1.49e+00	0	37	104	0	74	21162
2026-01-20 06:37:02.54	85.91	3.30	-51.9	-66.8	3.8	1.49e+00	0	37	104	0	74	21150
2026-01-20 06:37:06.57	85.66	3.55	-51.9	-66.8	3.8	1.49e+00	0	37	104	0	74	21158
2026-01-20 06:37:10.60	85.41	3.79	-51.9	-66.8	3.8	1.49e+00	0	38	104	0	74	21044
2026-01-20 06:37:14.63	85.15	4.04	-51.8	-65.8	3.8	1.49e+00	0	38	104	0	74	18808
2026-01-20 06:37:18.66	84.89	4.29	-51.7	-63.4	4.2	1.43e+00	0	38	0	0	74	14294
2026-01-20 06:37:22.69	84.62	4.55	-51.4	-60.5	5.5	6.44e-01	0	38	0	5242880	74	10232
2026-01-20 06:37:26.72	84.35	4.80	-51.4	-60.2	5.8	4.04e-01	0	38	0	12582912	73	10457
2026-01-20 06:37:30.75	84.08	5.06	-50.6	-56.0	9.6	3.42e-01	0	38	0	19922944	73	6490
2026-01-20 06:37:34.78	83.80	5.31	-51.7	-63.1	4.3	7.80e-02	59	38	0	26214400	73	14669
2026-01-20 06:37:38.81	83.51	5.57	-50.1	-54.6	11.4	9.57e-04	0	38	0	31457280	72	5790
2026-01-20 06:37:42.84	83.22	5.83	-49.4	-52.8	13.3	3.80e-06	0	38	0	38797312	70	5301
2026-01-20 06:37:46.87	82.92	6.10	-48.9	-52.0	14.2	2.20e-06	0	38	0	47185920	69	5109
2026-01-20 06:37:50.91	82.62	6.36	-49.1	-52.3	13.9	1.50e-06	0	38	0	54525952	69	5287
2026-01-20 06:37:54.94	82.31	6.63	-48.8	-51.7	14.6	1.50e-06	0	38	0	61865984	69	4971
2026-01-20 06:37:58.97	81.99	6.90	-48.8	-51.8	14.5	0.00e+00	0	38	0	69206016	69	5003
2026-01-20 06:38:03.01	81.67	7.17	-48.6	-51.3	15.0	0.00e+00	0	38	0	77594624	69	4756
2026-01-20 06:38:07.04	81.35	7.45	-48.7	-51.5	14.9	0.00e+00	0	38	0	84934656	69	4826
2026-01-20 06:38:11.07	81.01	7.72	-48.8	-51.6	14.7	7.00e-07	0	38	0	92274688	69	4921
2026-01-20 06:38:15.10	80.67	8.00	-48.6	-51.3	15.2	0.00e+00	0	38	0	99614720	68	5013
2026-01-20 06:38:19.13	80.33	8.28	-48.7	-51.4	15.1	0.00e+00	0	38	0	106954752	68	5050
2026-01-20 06:38:23.16	79.97	8.56	-48.6	-51.2	15.2	0.00e+00	0	38	0	115343360	68	4983
2026-01-20 06:38:27.19	79.61	8.84	-48.6	-51.2	15.3	0.00e+00	0	38	0	122683392	68	4962
2026-01-20 06:38:31.22	79.24	9.13	-48.6	-51.1	15.5	0.00e+00	0	38	0	130023424	68	4907
2026-01-20 06:38:35.25	78.87	9.42	-48.5	-51.0	15.6	0.00e+00	0	38	0	137363456	68	4841
2026-01-20 06:38:39.28	78.48	9.71	-48.5	-51.1	15.6	0.00e+00	0	38	0	144703488	68	4872
2026-01-20 06:38:43.31	78.09	10.00	-48.5	-50.9	15.7	0.00e+00	0	38	0	153092096	68	4811
2026-01-20 06:38:47.35	77.69	10.29	-48.5	-51.0	15.7	0.00e+00	0	38	0	160432128	68	4842
2026-01-20 06:38:51.38	77.28	10.59	-48.5	-51.0	15.7	0.00e+00	0	38	0	167772160	68	4832
2026-01-20 06:38:55.41	76.87	10.89	-48.4	-50.8	15.9	0.00e+00	0	38	0	175112192	68	4728
2026-01-20 06:38:59.44	76.44	11.19	-48.4	-50.8	15.9	0.00e+00	0	38	0	182452224	68	4749
2026-01-20 06:39:03.47	76.01	11.49	-48.4	-50.8	16.0	0.00e+00	0	38	0	190840832	68	4739
2026-01-20 06:39:07.50	75.56	11.79	-48.4	-50.7	16.1	0.00e+00	0	38	0	198180864	68	4673
2026-01-20 06:39:11.53	75.11	12.10	-48.3	-50.5	16.2	0.00e+00	0	38	0	205520896	68	4592
2026-01-20 06:39:15.57	74.64	12.41	-48.1	-50.3	16.5	0.00e+00	0	38	0	212860928	68	4490
2026-01-20 06:39:19.59	74.17	12.72	-48.3	-50.6	16.2	0.00e+00	0	38	0	221249536	68	4627
2026-01-20 06:39:23.62	73.69	13.03	-48.1	-50.3	16.5	0.00e+00	0	38	0	228589568	68	4481
2026-01-20 06:39:27.66	73.19	13.35	-48.2	-50.5	16.4	0.00e+00	0	38	0	235929600	68	4554
2026-01-20 06:39:31.69	72.69	13.66	-47.8	-49.9	16.9	0.00e+00	0	38	0	243269632	67	4533
2026-01-20 06:39:35.72	72.17	13.98	-47.7	-49.7	17.1	0.00e+00	0	38	0	250609664	67	4409
2026-01-20 06:39:39.75	71.64	14.30	-47.6	-49.6	17.2	0.00e+00	0	38	0	257949696	67	4382
2026-01-20 06:39:43.78	71.10	14.62	-47.7	-49.7	17.1	0.00e+00	0	38	0	266338304	67	4430
2026-01-20 06:39:47.81	70.55	14.95	-47.6	-49.6	17.3	0.00e+00	0	38	0	273678336	67	4354
2026-01-20 06:39:51.85	69.98	15.27	-47.4	-49.3	17.6	0.00e+00	0	38	0	281018368	66	4462
2026-01-20 06:39:55.88	69.41	15.60	-47.4	-49.4	17.5	0.00e+00	0	38	0	288358400	66	4498
2026-01-20 06:39:59.91	68.82	15.93	-47.5	-49.5	17.4	0.00e+00	0	38	0	296747008	66	4555
2026-01-20 06:40:03.94	68.21	16.25	-47.4	-49.3	17.6	0.00e+00	0	38	0	304087040	66	4456
2026-01-20 06:40:07.97	67.60	16.58	-47.4	-49.3	17.5	0.00e+00	0	38	0	311427072	66	4481
2026-01-20 06:40:12.00	66.97	16.91	-47.4	-49.3	17.6	0.00e+00	0	38	0	318767104	66	4449
2026-01-20 06:40:16.03	66.32	17.25	-47.5	-49.4	17.5	0.00e+00	0	38	0	326107136	66	4530
2026-01-20 06:40:20.07	65.66	17.58	-47.6	-49.5	17.4	0.00e+00	0	38	0	334495744	66	4592
2026-01-20 06:40:24.09	64.99	17.91	-47.7	-49.6	17.3	0.00e+00	0	38	0	341835776	66	4626
2026-01-20 06:40:28.13	64.30	18.25	-47.6	-49.6	17.4	0.00e+00	0	38	0	349175808	66	4603
2026-01-20 06:40:32.15	63.59	18.58	-47.7	-49.6	17.3	0.00e+00	0	38	0	356515840	66	4634
2026-01-20 06:40:36.19	62.87	18.91	-47.5	-49.4	17.5	0.00e+00	0	38	0	364904448	66	4529
2026-01-20 06:40:40.22	62.13	19.24	-47.7	-49.6	17.3	0.00e+00	0	38	0	372244480	66	4641
2026-01-20 06:40:44.25	61.38	19.58	-47.7	-49.6	17.3	0.00e+00	0	38	0	379584512	66	4647
2026-01-20 06:40:48.28	60.61	19.91	-47.4	-49.3	17.7	0.00e+00	0	38	0	386924544	66	4451
2026-01-20 06:40:52.31	59.82	20.24	-47.2	-49.0	17.9	0.00e+00	0	38	0	394264576	66	4332
2026-01-20 06:40:56.35	59.01	20.56	-47.1	-48.9	18.1	0.00e+00	0	38	0	401604608	66	4276
2026-01-20 06:41:00.36	58.20	20.89	-46.9	-48.6	18.3	0.00e+00	0	38	0	409993216	65	4366
2026-01-20 06:41:04.38	57.36	21.21	-46.6	-48.2	18.8	0.00e+00	0	38	0	417333248	65	4164
2026-01-20 06:41:08.41	56.50	21.53	-46.5	-48.1	18.9	0.00e+00	0	38	0	424673280	64	4378
2026-01-20 06:41:12.44	55.63	21.85	-46.2	-47.7	19.2	0.00e+00	0	38	0	432013312	64	4182
2026-01-20 06:41:16.47	54.73	22.17	-46.0	-47.5	19.6	0.00e+00	0	38	0	439353344	63	4313
2026-01-20 06:41:20.50	53.82	22.48	-46.1	-47.6	19.5	0.00e+00	0	38	0	447741952	63	4372
2026-01-20 06:41:24.54	52.89	22.79	-46.1	-47.6	19.4	0.00e+00	0	38	0	455081984	63	4374
2026-01-20 06:41:28.57	51.94	23.09	-46.1	-47.6	19.5	0.00e+00	0	38	0	462422016	63	4344
2026-01-20 06:41:32.60	50.97	23.39	-46.2	-47.7	19.3	0.00e+00	0	38	0	469762048	63	4424
2026-01-20 06:41:36.63	49.98	23.68	-46.0	-47.5	19.6	0.00e+00	0	38	0	478150656	63	4295
2026-01-20 06:41:40.66	48.98	23.96	-46.2	-47.6	19.4	0.00e+00	0	38	0	485490688	63	4379
2026-01-20 06:41:44.69	47.96	24.24	-46.3	-47.8	19.2	0.00e+00	0	38	0	492830720	63	4490
2026-01-20 06:41:48.72	46.91	24.51	-46.6	-48.1	19.0	0.00e+00	0	38	0	500170752	63	4640
2026-01-20 06:41:52.75	45.86	24.77	-46.3	-47.8	19.3	0.00e+00	0	38	0	507510784	63	4455
2026-01-20 06:41:56.79	44.78	25.03	-46.1	-47.5	19.6	0.00e+00	0	38	0	515899392	63	4317
2026-01-20 06:42:00.81	43.68	25.28	-46.0	-47.5	19.6	0.00e+00	0	38	0	523239424	63	4300
2026-01-20 06:42:04.85	42.57	25.51	-46.0	-47.4	19.6	0.00e+00	0	38	0	530579456	63	4291
2026-01-20 06:42:08.88	41.44	25.74	-45.9	-47.3	19.8	0.00e+00	0	38	0	537919488	63	4218
2026-01-20 06:42:12.91	40.30	25.96	-46.1	-47.5	19.6	0.00e+00	0	38	0	545259520	63	4340
2026-01-20 06:42:16.94	39.14	26.16	-46.3	-47.8	19.3	0.00e+00	0	38	0	553648128	63	4483
2026-01-20 06:42:20.97	37.97	26.35	-46.7	-48.3	18.7	0.00e+00	0	38	0	560988160	64	4478
2026-01-20 06:42:25.00	36.78	26.54	-47.0	-48.7	18.3	0.00e+00	0	38	0	568328192	64	4691
2026-01-20 06:42:29.03	35.58	26.70	-47.1	-48.9	18.2	0.00e+00	0	38	0	575668224	64	4785
2026-01-20 06:42:33.06	34.36	26.86	-47.1	-48.8	18.2	0.00e+00	0	38	0	583008256	64	4733
2026-01-20 06:42:37.10	33.14	27.00	-47.3	-49.2	17.9	0.00e+00	0	38	0	591396864	65	4654
2026-01-20 06:42:41.12	31.91	27.13	-47.4	-49.3	17.8	0.00e+00	0	38	0	598736896	65	4722
2026-01-20 06:42:45.16	30.66	27.24	-47.5	-49.4	17.6	0.00e+00	0	38	0	606076928	65	4784
2026-01-20 06:42:49.18	29.41	27.34	-47.7	-49.6	17.5	0.00e+00	0	38	0	613416960	66	4616
2026-01-20 06:42:53.21	28.15	27.43	-47.9	-49.9	17.1	0.00e+00	0	38	0	621805568	66	4811
2026-01-20 06:42:57.25	26.88	27.50	-47.9	-49.9	17.2	0.00e+00	0	38	0	629145600	66	4760
2026-01-20 06:43:01.28	25.61	27.55	-48.0	-50.1	16.9	0.00e+00	0	38	0	636485632	67	4635
2026-01-20 06:43:05.31	24.33	27.59	-47.7	-49.6	17.4	0.00e+00	0	38	0	643825664	67	4383
2026-01-20 06:43:09.34	23.06	27.61	-47.3	-49.0	18.0	0.00e+00	0	38	0	651165696	66	4333
2026-01-20 06:43:13.37	21.78	27.61	-47.2	-49.0	18.1	0.00e+00	0	38	0	658505728	66	4305
2026-01-20 06:43:17.40	20.50	27.60	-47.2	-48.9	18.2	0.00e+00	0	38	0	666894336	66	4268
2026-01-20 06:43:21.43	19.22	27.58	-46.8	-48.5	18.6	0.00e+00	0	39	0	674234368	65	4295
2026-01-20 06:43:25.46	17.95	27.54	-47.0	-48.7	18.3	0.00e+00	0	38	0	681574400	65	4409
2026-01-20 06:43:29.49	16.68	27.48	-46.5	-48.0	19.0	0.00e+00	0	38	0	688914432	64	4337
2026-01-20 06:43:33.52	15.42	27.41	-46.4	-48.0	19.1	0.00e+00	0	38	0	697303040	64	4294
2026-01-20 06:43:37.55	14.16	27.32	-46.3	-47.8	19.3	0.00e+00	0	38	0	704643072	64	4215
2026-01-20 06:43:41.59	12.91	27.22	-46.4	-47.9	19.2	0.00e+00	0	38	0	711983104	64	4278
2026-01-20 06:43:45.62	11.66	27.10	-46.3	-47.8	19.2	0.00e+00	0	38	0	719323136	64	4220
2026-01-20 06:43:49.65	10.43	26.97	-46.3	-47.8	19.2	0.00e+00	0	38	0	726663168	64	4231
2026-01-20 06:43:53.68	9.21	26.82	-46.5	-48.1	18.9	0.00e+00	0	38	0	735051776	64	4344
2026-01-20 06:43:57.71	8.00	26.67	-46.7	-48.3	18.7	0.00e+00	0	38	0	742391808	64	4473
2026-01-20 06:44:01.74	6.80	26.49	-46.8	-48.5	18.5	0.00e+00	0	38	0	749731840	64	4581
2026-01-20 06:44:05.77	5.62	26.31	-47.1	-48.8	18.2	0.00e+00	0	38	0	757071872	64	4739
2026-01-20 06:44:09.80	4.45	26.12	-47.4	-49.3	17.8	0.00e+00	0	38	0	764411904	65	4720
2026-01-20 06:44:13.83	3.30	25.91	-47.5	-49.5	17.6	0.00e+00	0	39	0	772800512	65	4815
2026-01-20 06:44:17.86	2.16	25.69	-47.5	-49.4	17.6	0.00e+00	0	38	0	780140544	65	4766
2026-01-20 06:44:21.90	1.03	25.46	-47.6	-49.5	17.5	0.00e+00	0	39	0	787480576	65	4862
2026-01-20 06:44:25.93	359.93	25.22	-47.6	-49.6	17.4	0.00e+00	0	38	0	794820608	65	4871
2026-01-20 06:44:29.95	358.84	24.97	-47.6	-49.5	17.5	0.00e+00	0	38	0	802160640	66	4588
2026-01-20 06:44:33.99	357.77	24.72	-47.5	-49.3	17.6	0.00e+00	0	38	0	810549248	66	4489
2026-01-20 06:44:38.02	356.71	24.45	-47.3	-49.2	17.8	0.00e+00	0	39	0	817889280	66	4410
2026-01-20 06:44:42.05	355.68	24.18	-47.4	-49.2	17.7	0.00e+00	0	38	0	825229312	66	4439
2026-01-20 06:44:46.09	354.66	23.90	-47.1	-48.8	18.1	0.00e+00	0	39	0	832569344	66	4234
2026-01-20 06:44:50.12	353.66	23.61	-46.9	-48.6	18.4	0.00e+00	0	39	0	840957952	65	4347
2026-01-20 06:44:54.15	352.68	23.32	-46.5	-48.1	18.8	0.00e+00	0	38	0	848297984	64	4388
2026-01-20 06:44:58.18	351.72	23.02	-46.5	-48.1	18.8	0.00e+00	0	38	0	855638016	64	4355
2026-01-20 06:45:02.21	350.77	22.72	-46.2	-47.8	19.1	0.00e+00	0	39	0	862978048	64	4202
2026-01-20 06:45:06.24	349.85	22.41	-46.1	-47.6	19.2	0.00e+00	0	38	0	870318080	64	4140
2026-01-20 06:45:10.27	348.94	22.10	-46.3	-47.8	19.0	0.00e+00	0	39	0	877658112	64	4232
2026-01-20 06:45:14.30	348.06	21.79	-46.1	-47.6	19.3	0.00e+00	0	38	0	886046720	63	4347
2026-01-20 06:45:18.34	347.18	21.47	-46.0	-47.4	19.5	0.00e+00	0	38	0	893386752	63	4279
2026-01-20 06:45:22.37	346.33	21.15	-45.6	-47.0	19.8	0.00e+00	0	38	0	900726784	63	4095
2026-01-20 06:45:26.40	345.50	20.82	-45.4	-46.8	20.1	0.00e+00	0	39	0	908066816	62	4202
2026-01-20 06:45:30.43	344.68	20.50	-45.4	-46.8	20.1	0.00e+00	0	38	0	916455424	62	4200
2026-01-20 06:45:34.46	343.88	20.17	-45.0	-46.3	20.6	0.00e+00	0	38	0	923795456	62	3959
2026-01-20 06:45:38.49	343.10	19.84	-45.2	-46.5	20.3	0.00e+00	0	39	0	931135488	61	4312
2026-01-20 06:45:42.52	342.34	19.51	-45.2	-46.5	20.2	0.00e+00	0	39	0	938475520	61	4338
2026-01-20 06:45:46.56	341.59	19.18	-45.1	-46.4	20.3	0.00e+00	0	39	0	945815552	61	4277
2026-01-20 06:45:50.59	340.86	18.84	-45.3	-46.6	20.2	0.00e+00	0	38	0	954204160	61	4364
2026-01-20 06:45:54.61	340.14	18.51	-45.2	-46.6	20.2	0.00e+00	0	38	0	961544192	61	4348
2026-01-20 06:45:58.64	339.44	18.18	-45.6	-47.0	19.8	0.00e+00	0	38	0	968884224	61	4562
2026-01-20 06:46:02.67	338.76	17.85	-45.6	-47.1	19.6	0.00e+00	0	38	0	976224256	61	4600
2026-01-20 06:46:06.71	338.09	17.51	-46.0	-47.5	19.3	0.00e+00	0	38	0	984612864	62	4547
2026-01-20 06:46:10.74	337.43	17.18	-46.3	-47.9	18.9	0.00e+00	0	38	0	991952896	63	4507
2026-01-20 06:46:14.78	336.79	16.85	-46.7	-48.4	18.4	0.00e+00	0	38	0	999292928	63	4782
2026-01-20 06:46:18.82	336.16	16.52	-46.6	-48.3	18.3	0.00e+00	0	38	0	1006632960	64	4475
2026-01-20 06:46:22.85	335.55	16.19	-46.5	-48.2	18.4	0.00e+00	0	38	0	1013972992	64	4402
2026-01-20 06:46:26.88	334.95	15.86	-46.6	-48.3	18.4	0.00e+00	0	38	0	1021313024	64	4444
2026-01-20 06:46:30.84	334.38	15.54	-46.6	-48.4	18.2	0.00e+00	0	38	0	1029701632	64	4500
2026-01-20 06:46:34.87	333.81	15.22	-46.8	-48.6	18.0	0.00e+00	0	38	0	1037041664	64	4600
2026-01-20 06:46:38.90	333.25	14.89	-46.8	-48.6	17.9	0.00e+00	0	38	0	1044381696	64	4631
2026-01-20 06:46:42.93	332.70	14.57	-46.9	-48.8	17.8	0.00e+00	0	38	0	1051721728	64	4708
2026-01-20 06:46:46.97	332.16	14.25	-47.1	-49.0	17.5	0.00e+00	0	38	0	1060110336	64	4835
2026-01-20 06:46:51.00	331.64	13.93	-47.1	-49.0	17.5	0.00e+00	0	38	0	1067450368	64	4822
2026-01-20 06:46:55.03	331.12	13.61	-47.1	-49.0	17.5	0.00e+00	0	38	0	1074790400	64	4859
2026-01-20 06:46:59.06	330.62	13.30	-47.3	-49.3	17.2	0.00e+00	0	39	0	1082130432	65	4754
2026-01-20 06:47:03.09	330.13	12.99	-47.5	-49.5	17.0	0.00e+00	0	38	0	1089470464	65	4862
2026-01-20 06:47:07.12	329.65	12.67	-47.8	-50.0	16.5	0.00e+00	0	39	0	1097859072	66	4856
2026-01-20 06:47:11.15	329.18	12.36	-47.8	-50.0	16.5	0.00e+00	0	38	0	1105199104	66	4836
2026-01-20 06:47:15.18	328.72	12.06	-47.7	-49.9	16.5	0.00e+00	0	38	0	1112539136	66	4798
2026-01-20 06:47:19.21	328.27	11.75	-47.8	-50.0	16.5	0.00e+00	0	38	0	1119879168	66	4816
2026-01-20 06:47:23.25	327.83	11.45	-47.9	-50.2	16.2	0.00e+00	0	39	0	1127219200	66	4974
2026-01-20 06:47:27.28	327.40	11.15	-48.0	-50.3	16.1	0.00e+00	0	38	0	1135607808	66	5017
2026-01-20 06:47:31.31	326.98	10.85	-47.9	-50.2	16.2	0.00e+00	0	39	0	1142947840	66	4945
2026-01-20 06:47:35.34	326.56	10.55	-47.9	-50.2	16.1	0.00e+00	0	38	0	1150287872	66	4948
2026-01-20 06:47:39.37	326.16	10.25	-48.1	-50.5	15.8	0.00e+00	0	38	0	1157627904	66	5159
2026-01-20 06:47:43.40	325.76	9.96	-48.3	-50.8	15.5	0.00e+00	0	39	0	1164967936	67	5014
2026-01-20 06:47:47.44	325.37	9.67	-48.3	-50.9	15.4	0.00e+00	0	38	0	1173356544	67	5083
2026-01-20 06:47:51.47	324.99	9.38	-48.4	-51.1	15.1	0.00e+00	0	38	0	1180696576	67	5205
2026-01-20 06:47:55.49	324.62	9.10	-48.6	-51.4	14.8	7.00e-07	0	39	0	1188036608	67	5389
2026-01-20 06:47:59.53	324.26	8.81	-48.8	-51.6	14.7	7.00e-07	0	39	0	1195376640	68	5210
2026-01-20 06:48:03.56	323.90	8.53	-48.5	-51.3	14.9	0.00e+00	0	38	0	1203765248	67	5298
2026-01-20 06:48:07.59	323.55	8.25	-48.3	-50.8	15.3	0.00e+00	0	39	0	1211105280	67	5040
2026-01-20 06:48:11.62	323.20	7.97	-48.4	-51.2	15.0	0.00e+00	0	38	0	1218445312	67	5224
2026-01-20 06:48:15.65	322.87	7.69	-48.6	-51.5	14.6	0.00e+00	0	38	0	1225785344	67	5445
2026-01-20 06:48:19.68	322.54	7.42	-49.0	-52.2	14.0	7.00e-07	0	38	0	1233125376	68	5551
2026-01-20 06:48:23.71	322.21	7.15	-48.9	-51.9	14.3	3.00e-06	0	38	0	1240465408	68	5346
2026-01-20 06:48:27.74	321.89	6.87	-48.8	-51.8	14.4	0.00e+00	0	38	0	1248854016	68	5282
2026-01-20 06:48:31.77	321.58	6.61	-49.0	-52.1	13.9	1.50e-06	0	39	0	1256194048	68	5527
2026-01-20 06:48:35.80	321.28	6.34	-49.1	-52.4	13.6	8.30e-06	0	39	0	1263534080	68	5694
2026-01-20 06:48:39.83	320.98	6.08	-49.5	-53.3	12.7	6.80e-06	0	38	0	1270874112	69	5927
2026-01-20 06:48:43.87	320.68	5.81	-49.7	-53.6	12.3	1.50e-04	0	38	0	1279262720	69	6200
2026-01-20 06:48:47.90	320.39	5.55	-49.5	-53.3	12.6	9.61e-05	0	39	0	1286602752	69	5973
2026-01-20 06:48:51.93	320.11	5.29	-49.1	-52.5	13.4	2.59e-05	0	39	0	1293942784	69	5458
2026-01-20 06:48:55.96	319.83	5.04	-49.3	-52.8	13.0	2.05e-05	0	39	0	1301282816	69	5639
2026-01-20 06:48:59.99	319.56	4.78	-52.6	-67.6	3.8	1.49e+00	0	38	104	1303379968	75	21877
2026-01-20 06:49:04.02	319.29	4.53	-53.0	-68.0	3.8	1.49e+00	0	39	104	1303379968	76	21589
2026-01-20 06:49:08.05	319.03	4.28	-53.2	-68.2	3.8	1.49e+00	0	38	104	1303379968	77	20806
2026-01-20 06:49:12.08	318.77	4.03	-53.4	-68.3	3.8	1.49e+00	0	39	104	1303379968	77	21245
2026-01-20 06:49:16.11	318.51	3.78	-53.4	-68.4	3.8	1.49e+00	0	38	104	1303379968	77	21400
2026-01-20 06:49:20.14	318.26	3.53	-53.4	-68.3	3.8	1.49e+00	0	39	104	1303379968	77	21209
2026-01-20 06:49:24.17	318.02	3.29	-53.3	-68.3	3.8	1.49e+00	0	39	104	1303379968	77	21086
2026-01-20 06:49:28.21	317.78	3.04	-53.3	-68.2	3.8	1.49e+00	0	39	104	1303379968	77	20995
2026-01-20 06:49:32.24	317.54	2.80	-53.3	-68.2	3.8	1.49e+00	0	39	104	1303379968	77	20912
2026-01-20 06:49:36.27	317.31	2.56	-53.3	-68.2	3.8	1.49e+00	0	39	104	1303379968	77	20892
2026-01-20 06:49:40.30	317.08	2.32	-53.2	-68.2	3.8	1.49e+00	0	39	104	1303379968	77	20875
2026-01-20 06:49:44.33	316.85	2.09	-53.2	-68.2	3.8	1.49e+00	0	39	104	1303379968	77	20817

#Closed at: 2026-01-20 06:49:47
#Recorded file [1303 MB]: D:/lorett/data/31041_260120_093642.dat