passes_logs/2026/01/20/R3.2S_Murmansk/R3.2S_Murmansk__20260120_045752_NOAA_20_JPSS-1_rec.log

#Pass ID: 20260120_045752_NOAA 20 (JPSS-1)
#Satellite: NOAA 20 (JPSS-1)
#Configuration: NOAA 20
#almurnet v.1.7.20251203
#Start time: 2026-01-20 04:57:52

#Version: 2.2.20231116
#Station: R3.2S_Murmansk
#Location: 33.079688 lon 68.888172 lat
#TLE: 1 43013U 17073A   26019.27717929  .00000087  00000+0  62288-4 0  9995
#TLE: 2 43013  98.7641 320.1715 0001339  33.1986 326.9274 14.19537047423343

#Time	Az	El	Level	Level2	SNR	BER	BlckErr	Temp	State	Recorded	gain1	gain2
2026-01-20 04:57:52.98	59.18	2.04	-51.9	-66.8	3.8	1.49e+00	0	37	0	0	75	20011
2026-01-20 04:57:56.01	58.99	2.21	-51.9	-66.8	3.8	1.49e+00	0	37	104	0	74	21140
2026-01-20 04:57:59.03	58.79	2.38	-51.9	-66.8	3.8	1.49e+00	0	37	104	0	74	21162
2026-01-20 04:58:02.06	58.59	2.56	-51.9	-66.8	3.8	1.49e+00	0	37	104	0	74	21206
2026-01-20 04:58:05.08	58.39	2.73	-51.9	-66.8	3.8	1.49e+00	0	37	104	0	74	21197
2026-01-20 04:58:08.11	58.19	2.91	-51.9	-66.8	3.8	1.49e+00	0	37	104	0	74	21158
2026-01-20 04:58:11.13	57.98	3.08	-51.9	-66.8	3.8	1.49e+00	0	37	104	0	74	21085
2026-01-20 04:58:14.16	57.77	3.26	-51.9	-66.8	3.8	1.49e+00	0	37	104	0	74	21196
2026-01-20 04:58:17.18	57.56	3.43	-51.9	-66.7	3.8	1.49e+00	0	38	104	0	74	20996
2026-01-20 04:58:20.21	57.34	3.61	-51.9	-66.8	3.8	1.49e+00	0	38	104	0	74	21026
2026-01-20 04:58:23.23	57.13	3.79	-51.9	-66.8	3.8	1.49e+00	0	38	104	0	74	21160
2026-01-20 04:58:26.26	56.91	3.97	-51.9	-66.4	3.8	1.49e+00	0	38	104	0	74	20096
2026-01-20 04:58:29.28	56.68	4.15	-51.8	-65.0	3.8	1.49e+00	0	37	104	0	74	17104
2026-01-20 04:58:32.30	56.46	4.33	-51.7	-63.1	4.2	1.42e+00	0	38	0	0	74	13876
2026-01-20 04:58:35.33	56.23	4.51	-51.5	-61.1	5.1	9.75e-01	0	38	0	4194304	74	10922
2026-01-20 04:58:38.35	56.00	4.69	-51.5	-61.5	4.9	7.00e-01	0	38	0	10485760	74	11436
2026-01-20 04:58:41.37	55.76	4.88	-51.6	-61.9	4.7	8.55e-01	0	38	0	15728640	74	12091
2026-01-20 04:58:44.39	55.53	5.06	-51.6	-62.7	4.3	1.38e+00	12	38	0	18874368	74	13165
2026-01-20 04:58:47.42	55.28	5.24	-51.7	-63.5	3.9	1.49e+00	0	38	104	23068672	74	14518
2026-01-20 04:58:50.44	55.04	5.43	-50.5	-55.6	10.1	9.65e-03	0	38	0	24117248	73	6200
2026-01-20 04:58:53.47	54.79	5.62	-49.4	-52.8	13.3	1.22e-05	0	38	0	30408704	70	5340
2026-01-20 04:58:56.49	54.54	5.80	-49.0	-52.1	14.1	4.50e-06	0	38	0	35651584	70	4898
2026-01-20 04:58:59.51	54.29	5.99	-49.2	-52.5	13.8	3.80e-06	0	38	0	41943040	70	5124
2026-01-20 04:59:02.54	54.03	6.18	-48.9	-51.8	14.4	1.50e-06	0	38	0	47185920	69	5036
2026-01-20 04:59:05.56	53.77	6.37	-49.0	-52.1	14.2	0.00e+00	0	38	0	52428800	69	5194
2026-01-20 04:59:08.58	53.51	6.56	-49.0	-52.0	14.3	1.50e-06	0	38	0	58720256	69	5122
2026-01-20 04:59:11.61	53.24	6.75	-49.0	-52.0	14.4	7.00e-07	0	38	0	63963136	69	5117
2026-01-20 04:59:14.63	52.97	6.94	-48.9	-51.8	14.5	2.20e-06	0	38	0	70254592	69	5037
2026-01-20 04:59:17.65	52.69	7.13	-49.0	-52.0	14.5	0.00e+00	0	38	0	75497472	69	5110
2026-01-20 04:59:20.68	52.41	7.33	-49.2	-52.2	14.2	2.20e-06	0	38	0	80740352	69	5272
2026-01-20 04:59:23.70	52.13	7.52	-49.0	-51.9	14.6	7.00e-07	0	38	0	87031808	69	5055
2026-01-20 04:59:26.73	51.84	7.72	-49.0	-51.8	14.7	0.00e+00	0	38	0	92274688	69	5026
2026-01-20 04:59:29.75	51.55	7.91	-48.9	-51.7	14.8	0.00e+00	0	38	0	98566144	69	4966
2026-01-20 04:59:32.77	51.25	8.11	-48.8	-51.5	15.1	0.00e+00	0	38	0	103809024	69	4838
2026-01-20 04:59:35.80	50.95	8.31	-48.6	-51.2	15.4	0.00e+00	0	38	0	110100480	69	4696
2026-01-20 04:59:38.82	50.65	8.50	-48.6	-51.2	15.4	0.00e+00	0	38	0	115343360	69	4685
2026-01-20 04:59:41.85	50.34	8.70	-48.6	-51.2	15.4	0.00e+00	0	38	0	120586240	69	4686
2026-01-20 04:59:44.87	50.03	8.90	-48.7	-51.3	15.4	0.00e+00	0	38	0	126877696	69	4709
2026-01-20 04:59:47.89	49.71	9.10	-48.5	-51.1	15.6	0.00e+00	0	38	0	132120576	68	4873
2026-01-20 04:59:50.92	49.39	9.30	-48.6	-51.2	15.5	0.00e+00	0	38	0	138412032	68	4927
2026-01-20 04:59:53.94	49.06	9.51	-48.8	-51.4	15.3	0.00e+00	0	38	0	143654912	68	5057
2026-01-20 04:59:56.97	48.73	9.71	-48.7	-51.3	15.4	0.00e+00	0	38	0	148897792	68	4985
2026-01-20 04:59:59.99	48.40	9.91	-49.0	-51.7	15.0	0.00e+00	0	38	0	155189248	68	5243
2026-01-20 05:00:03.01	48.06	10.12	-48.9	-51.6	15.1	0.00e+00	0	38	0	160432128	68	5205
2026-01-20 05:00:06.03	47.71	10.32	-48.9	-51.6	15.2	0.00e+00	0	38	0	166723584	68	5168
2026-01-20 05:00:09.06	47.36	10.53	-48.6	-51.1	15.6	0.00e+00	0	38	0	171966464	68	4926
2026-01-20 05:00:12.09	47.01	10.73	-48.6	-51.1	15.7	0.00e+00	0	38	0	178257920	68	4885
2026-01-20 05:00:15.11	46.65	10.94	-48.4	-50.8	16.0	0.00e+00	0	38	0	183500800	68	4715
2026-01-20 05:00:18.13	46.28	11.15	-48.5	-50.9	15.9	0.00e+00	0	38	0	188743680	68	4786
2026-01-20 05:00:21.16	45.91	11.35	-48.3	-50.5	16.3	0.00e+00	0	38	0	195035136	68	4593
2026-01-20 05:00:24.18	45.53	11.56	-48.2	-50.5	16.3	0.00e+00	0	38	0	200278016	68	4551
2026-01-20 05:00:27.20	45.15	11.77	-48.2	-50.4	16.4	0.00e+00	0	38	0	206569472	68	4540
2026-01-20 05:00:30.23	44.76	11.98	-48.2	-50.4	16.5	0.00e+00	0	38	0	211812352	68	4515
2026-01-20 05:00:33.25	44.37	12.19	-48.1	-50.3	16.6	0.00e+00	0	38	0	217055232	68	4469
2026-01-20 05:00:36.28	43.97	12.40	-48.1	-50.2	16.7	0.00e+00	0	38	0	223346688	68	4436
2026-01-20 05:00:39.30	43.57	12.61	-48.0	-50.1	16.8	0.00e+00	0	38	0	228589568	68	4384
2026-01-20 05:00:42.32	43.16	12.82	-47.8	-49.8	17.0	0.00e+00	0	38	0	234881024	67	4485
2026-01-20 05:00:45.34	42.74	13.03	-47.6	-49.5	17.3	0.00e+00	0	38	0	240123904	67	4330
2026-01-20 05:00:48.36	42.32	13.24	-47.4	-49.3	17.5	0.00e+00	0	38	0	245366784	66	4468
2026-01-20 05:00:51.39	41.89	13.46	-47.5	-49.4	17.5	0.00e+00	0	38	0	251658240	66	4519
2026-01-20 05:00:54.41	41.45	13.67	-47.5	-49.4	17.4	0.00e+00	0	38	0	256901120	66	4539
2026-01-20 05:00:57.44	41.01	13.88	-47.7	-49.7	17.2	0.00e+00	0	38	0	263192576	66	4681
2026-01-20 05:01:00.46	40.56	14.09	-47.8	-49.8	17.1	0.00e+00	0	38	0	268435456	66	4714
2026-01-20 05:01:03.49	40.10	14.31	-47.7	-49.7	17.2	0.00e+00	0	38	0	273678336	66	4669
2026-01-20 05:01:06.51	39.64	14.52	-47.8	-49.8	17.1	0.00e+00	0	38	0	279969792	66	4755
2026-01-20 05:01:09.53	39.18	14.73	-47.8	-49.9	17.1	0.00e+00	0	38	0	285212672	66	4771
2026-01-20 05:01:12.55	38.70	14.94	-48.0	-50.1	16.8	0.00e+00	0	38	0	291504128	66	4915
2026-01-20 05:01:15.58	38.22	15.16	-48.1	-50.3	16.7	0.00e+00	0	38	0	296747008	66	4999
2026-01-20 05:01:18.60	37.73	15.37	-48.2	-50.4	16.5	0.00e+00	0	38	0	301989888	67	4780
2026-01-20 05:01:21.63	37.23	15.58	-48.2	-50.3	16.6	0.00e+00	0	38	0	308281344	67	4741
2026-01-20 05:01:24.65	36.73	15.79	-48.2	-50.3	16.7	0.00e+00	0	38	0	313524224	67	4744
2026-01-20 05:01:27.67	36.22	16.00	-48.1	-50.3	16.7	0.00e+00	0	38	0	319815680	67	4708
2026-01-20 05:01:30.69	35.70	16.21	-48.2	-50.4	16.6	0.00e+00	0	38	0	325058560	67	4793
2026-01-20 05:01:33.71	35.17	16.42	-48.2	-50.4	16.5	0.00e+00	0	38	0	330301440	67	4805
2026-01-20 05:01:36.74	34.64	16.63	-48.2	-50.4	16.6	0.00e+00	0	38	0	336592896	67	4769
2026-01-20 05:01:39.77	34.10	16.84	-48.3	-50.5	16.5	0.00e+00	0	38	0	341835776	67	4825
2026-01-20 05:01:42.79	33.55	17.04	-48.1	-50.2	16.8	0.00e+00	0	38	0	348127232	67	4685
2026-01-20 05:01:45.81	33.00	17.25	-48.1	-50.2	16.8	0.00e+00	0	38	0	353370112	67	4681
2026-01-20 05:01:48.84	32.43	17.45	-47.9	-49.9	17.1	0.00e+00	0	38	0	358612992	67	4527
2026-01-20 05:01:51.86	31.86	17.66	-47.7	-49.7	17.4	0.00e+00	0	38	0	364904448	67	4392
2026-01-20 05:01:54.88	31.28	17.86	-47.4	-49.2	17.8	0.00e+00	0	38	0	370147328	66	4439
2026-01-20 05:01:57.91	30.69	18.06	-47.1	-48.8	18.2	0.00e+00	0	38	0	376438784	66	4218
2026-01-20 05:02:00.93	30.10	18.26	-46.7	-48.4	18.7	0.00e+00	0	38	0	381681664	65	4247
2026-01-20 05:02:03.96	29.49	18.46	-46.6	-48.2	18.9	0.00e+00	0	38	0	386924544	65	4156
2026-01-20 05:02:06.98	28.88	18.65	-46.5	-48.0	19.0	0.00e+00	0	38	0	393216000	64	4335
2026-01-20 05:02:10.00	28.27	18.85	-46.3	-47.8	19.2	0.00e+00	0	38	0	398458880	64	4218
2026-01-20 05:02:13.03	27.64	19.04	-46.1	-47.6	19.4	0.00e+00	0	38	0	404750336	64	4129
2026-01-20 05:02:16.05	27.00	19.23	-46.0	-47.5	19.6	0.00e+00	0	38	0	409993216	64	4059
2026-01-20 05:02:19.07	26.36	19.42	-46.1	-47.6	19.6	0.00e+00	0	38	0	415236096	63	4354
2026-01-20 05:02:22.10	25.71	19.60	-45.9	-47.3	19.9	0.00e+00	0	38	0	421527552	63	4195
2026-01-20 05:02:25.12	25.05	19.78	-45.9	-47.3	19.8	0.00e+00	0	38	0	426770432	63	4225
2026-01-20 05:02:28.15	24.38	19.96	-46.0	-47.4	19.8	0.00e+00	0	38	0	433061888	63	4247
2026-01-20 05:02:31.17	23.71	20.14	-46.0	-47.4	19.8	0.00e+00	0	38	0	438304768	63	4244
2026-01-20 05:02:34.20	23.02	20.32	-46.1	-47.6	19.6	0.00e+00	0	38	0	444596224	63	4353
2026-01-20 05:02:37.22	22.34	20.49	-46.2	-47.6	19.6	0.00e+00	0	38	0	449839104	63	4369
2026-01-20 05:02:40.25	21.64	20.65	-46.1	-47.6	19.6	0.00e+00	0	38	0	455081984	63	4346
2026-01-20 05:02:43.27	20.93	20.82	-46.1	-47.5	19.7	0.00e+00	0	38	0	461373440	63	4339
2026-01-20 05:02:46.29	20.22	20.98	-46.0	-47.4	19.8	0.00e+00	0	38	0	466616320	63	4259
2026-01-20 05:02:49.32	19.50	21.13	-45.9	-47.3	19.9	0.00e+00	0	38	0	472907776	63	4207
2026-01-20 05:02:52.34	18.77	21.29	-45.7	-47.0	20.2	0.00e+00	0	38	0	478150656	63	4086
2026-01-20 05:02:55.37	18.03	21.43	-45.6	-46.9	20.3	0.00e+00	0	38	0	483393536	62	4259
2026-01-20 05:02:58.39	17.29	21.58	-45.6	-46.9	20.3	0.00e+00	0	38	0	489684992	62	4288
2026-01-20 05:03:01.41	16.54	21.72	-45.4	-46.7	20.5	0.00e+00	0	38	0	494927872	62	4149
2026-01-20 05:03:04.44	15.79	21.85	-45.4	-46.7	20.5	0.00e+00	0	38	0	501219328	62	4164
2026-01-20 05:03:07.46	15.03	21.98	-45.3	-46.6	20.6	0.00e+00	0	38	0	506462208	62	4099
2026-01-20 05:03:10.49	14.25	22.11	-45.6	-47.0	20.3	0.00e+00	0	38	0	512753664	62	4292
2026-01-20 05:03:13.51	13.48	22.23	-45.7	-47.1	20.1	0.00e+00	0	39	0	517996544	62	4364
2026-01-20 05:03:16.53	12.70	22.35	-45.8	-47.2	20.0	0.00e+00	0	38	0	523239424	62	4401
2026-01-20 05:03:19.56	11.91	22.46	-45.6	-46.9	20.3	0.00e+00	0	38	0	529530880	62	4263
2026-01-20 05:03:22.58	11.12	22.56	-46.0	-47.4	19.9	0.00e+00	0	38	0	534773760	62	4513
2026-01-20 05:03:25.61	10.32	22.66	-46.4	-47.9	19.3	0.00e+00	0	38	0	541065216	63	4532
2026-01-20 05:03:28.63	9.52	22.76	-46.7	-48.3	18.9	0.00e+00	0	38	0	546308096	64	4469
2026-01-20 05:03:31.65	8.71	22.84	-46.7	-48.3	18.9	0.00e+00	0	38	0	551550976	64	4442
2026-01-20 05:03:34.67	7.90	22.93	-46.9	-48.5	18.6	0.00e+00	0	38	0	557842432	64	4586
2026-01-20 05:03:37.70	7.09	23.00	-47.0	-48.6	18.6	0.00e+00	0	39	0	563085312	64	4626
2026-01-20 05:03:40.72	6.27	23.07	-47.0	-48.7	18.5	0.00e+00	0	38	0	569376768	64	4677
2026-01-20 05:03:43.75	5.44	23.14	-47.5	-49.3	17.9	0.00e+00	0	38	0	574619648	65	4737
2026-01-20 05:03:46.77	4.62	23.19	-47.4	-49.2	18.0	0.00e+00	0	38	0	579862528	65	4656
2026-01-20 05:03:49.79	3.79	23.25	-47.6	-49.5	17.7	0.00e+00	0	38	0	586153984	65	4819
2026-01-20 05:03:52.82	2.96	23.29	-47.2	-49.0	18.2	0.00e+00	0	38	0	591396864	65	4557
2026-01-20 05:03:55.84	2.12	23.33	-47.2	-48.9	18.2	0.00e+00	0	38	0	597688320	65	4535
2026-01-20 05:03:58.87	1.29	23.36	-47.4	-49.1	18.1	0.00e+00	0	38	0	602931200	65	4631
2026-01-20 05:04:01.89	0.45	23.39	-47.2	-48.9	18.3	0.00e+00	0	38	0	608174080	65	4510
2026-01-20 05:04:04.91	359.61	23.40	-47.4	-49.2	18.1	0.00e+00	0	38	0	614465536	65	4653
2026-01-20 05:04:07.94	358.77	23.42	-47.1	-48.7	18.5	0.00e+00	0	38	0	619708416	65	4438
2026-01-20 05:04:10.96	357.93	23.42	-47.1	-48.7	18.4	0.00e+00	0	38	0	625999872	65	4433
2026-01-20 05:04:13.99	357.09	23.42	-46.9	-48.5	18.6	0.00e+00	0	38	0	631242752	65	4340
2026-01-20 05:04:17.01	356.25	23.41	-46.5	-48.0	19.2	0.00e+00	0	38	0	636485632	64	4299
2026-01-20 05:04:20.03	355.41	23.40	-46.5	-48.0	19.1	0.00e+00	0	38	0	642777088	64	4329
2026-01-20 05:04:23.06	354.57	23.38	-46.3	-47.8	19.3	0.00e+00	0	38	0	648019968	64	4222
2026-01-20 05:04:26.08	353.74	23.35	-46.0	-47.5	19.7	0.00e+00	0	38	0	654311424	64	4056
2026-01-20 05:04:29.11	352.90	23.32	-46.0	-47.4	19.8	0.00e+00	0	38	0	659554304	63	4280
2026-01-20 05:04:32.13	352.07	23.28	-45.7	-47.0	20.2	0.00e+00	0	38	0	664797184	63	4074
2026-01-20 05:04:35.15	351.24	23.23	-45.4	-46.6	20.6	0.00e+00	0	38	0	671088640	62	4139
2026-01-20 05:04:38.17	350.41	23.17	-45.2	-46.4	20.8	0.00e+00	0	38	0	676331520	62	4048
2026-01-20 05:04:41.20	349.58	23.11	-45.4	-46.7	20.5	0.00e+00	0	38	0	682622976	62	4163
2026-01-20 05:04:44.22	348.76	23.05	-45.0	-46.2	21.0	0.00e+00	0	38	0	687865856	61	4155
2026-01-20 05:04:47.25	347.94	22.98	-44.9	-46.1	21.1	0.00e+00	0	38	0	693108736	61	4103
2026-01-20 05:04:50.27	347.13	22.90	-45.2	-46.4	20.8	0.00e+00	0	38	0	699400192	61	4266
2026-01-20 05:04:53.29	346.32	22.81	-45.3	-46.6	20.6	0.00e+00	0	38	0	704643072	61	4363
2026-01-20 05:04:56.31	345.51	22.72	-45.3	-46.6	20.6	0.00e+00	0	38	0	710934528	61	4352
2026-01-20 05:04:59.34	344.71	22.63	-45.6	-47.0	20.2	0.00e+00	0	38	0	716177408	61	4564
2026-01-20 05:05:02.37	343.91	22.53	-45.7	-47.0	20.2	0.00e+00	0	38	0	721420288	62	4339
2026-01-20 05:05:05.39	343.13	22.42	-45.9	-47.3	19.9	0.00e+00	0	38	0	727711744	62	4475
2026-01-20 05:05:08.41	342.34	22.31	-46.2	-47.6	19.6	0.00e+00	0	38	0	732954624	63	4391
2026-01-20 05:05:11.44	341.56	22.19	-46.3	-47.8	19.5	0.00e+00	0	38	0	739246080	63	4464
2026-01-20 05:05:14.46	340.79	22.07	-46.5	-48.1	19.2	0.00e+00	0	38	0	744488960	63	4599
2026-01-20 05:05:17.49	340.02	21.94	-46.7	-48.3	18.8	0.00e+00	0	38	0	750780416	64	4473
2026-01-20 05:05:20.51	339.26	21.81	-46.6	-48.1	19.1	0.00e+00	0	38	0	756023296	64	4367
2026-01-20 05:05:23.53	338.51	21.67	-46.6	-48.1	19.0	0.00e+00	0	38	0	761266176	64	4387
2026-01-20 05:05:26.56	337.76	21.53	-46.9	-48.5	18.7	0.00e+00	0	38	0	767557632	64	4582
2026-01-20 05:05:29.58	337.02	21.38	-47.0	-48.7	18.4	0.00e+00	0	38	0	772800512	64	4695
2026-01-20 05:05:32.61	336.29	21.23	-47.2	-49.0	18.2	0.00e+00	0	38	0	779091968	65	4556
2026-01-20 05:05:35.63	335.57	21.08	-47.0	-48.7	18.4	0.00e+00	0	38	0	784334848	65	4425
2026-01-20 05:05:38.65	334.85	20.92	-46.8	-48.4	18.7	0.00e+00	0	38	0	789577728	65	4283
2026-01-20 05:05:41.68	334.14	20.76	-47.2	-48.9	18.2	0.00e+00	0	38	0	795869184	65	4539
2026-01-20 05:05:44.70	333.43	20.59	-46.9	-48.6	18.6	0.00e+00	0	38	0	801112064	65	4355
2026-01-20 05:05:47.72	332.74	20.43	-47.0	-48.6	18.5	0.00e+00	0	38	0	807403520	65	4373
2026-01-20 05:05:50.75	332.05	20.25	-47.0	-48.7	18.4	0.00e+00	0	38	0	812646400	65	4396
2026-01-20 05:05:53.77	331.37	20.08	-47.0	-48.7	18.4	0.00e+00	0	38	0	817889280	65	4407
2026-01-20 05:05:56.79	330.70	19.90	-46.7	-48.3	18.8	0.00e+00	0	38	0	824180736	65	4231
2026-01-20 05:05:59.81	330.04	19.72	-46.7	-48.3	18.8	0.00e+00	0	39	0	829423616	65	4214
2026-01-20 05:06:02.84	329.38	19.54	-46.6	-48.1	19.0	0.00e+00	0	38	0	835715072	65	4143
2026-01-20 05:06:05.86	328.73	19.35	-46.6	-48.2	18.9	0.00e+00	0	38	0	840957952	64	4421
2026-01-20 05:06:08.89	328.09	19.16	-46.7	-48.3	18.8	0.00e+00	0	38	0	847249408	64	4465
2026-01-20 05:06:11.91	327.46	18.97	-46.7	-48.4	18.7	0.00e+00	0	38	0	852492288	64	4497
2026-01-20 05:06:14.93	326.84	18.78	-46.6	-48.2	18.8	0.00e+00	0	38	0	857735168	64	4421
2026-01-20 05:06:17.96	326.22	18.59	-46.6	-48.2	18.8	0.00e+00	0	38	0	864026624	64	4434
2026-01-20 05:06:20.98	325.61	18.39	-46.9	-48.6	18.5	0.00e+00	0	38	0	869269504	64	4599
2026-01-20 05:06:24.01	325.01	18.19	-46.9	-48.6	18.4	0.00e+00	0	38	0	875560960	64	4641
2026-01-20 05:06:27.03	324.42	17.99	-46.8	-48.5	18.5	0.00e+00	0	38	0	880803840	64	4560
2026-01-20 05:06:30.05	323.84	17.79	-46.9	-48.6	18.4	0.00e+00	0	38	0	886046720	64	4615
2026-01-20 05:06:33.08	323.26	17.59	-46.9	-48.5	18.5	0.00e+00	0	38	0	892338176	64	4590
2026-01-20 05:06:36.11	322.69	17.38	-46.9	-48.5	18.5	0.00e+00	0	38	0	897581056	64	4589
2026-01-20 05:06:39.13	322.13	17.18	-46.9	-48.6	18.4	0.00e+00	0	38	0	903872512	64	4636
2026-01-20 05:06:42.15	321.58	16.97	-46.8	-48.5	18.5	0.00e+00	0	38	0	909115392	64	4565
2026-01-20 05:06:45.18	321.03	16.76	-46.7	-48.3	18.7	0.00e+00	0	38	0	914358272	64	4468
2026-01-20 05:06:48.20	320.49	16.56	-46.5	-48.1	18.9	0.00e+00	0	38	0	920649728	64	4351
2026-01-20 05:06:51.22	319.96	16.35	-46.3	-47.8	19.1	0.00e+00	0	38	0	925892608	64	4235
2026-01-20 05:06:54.25	319.44	16.14	-46.4	-47.9	19.0	0.00e+00	0	38	0	932184064	64	4282
2026-01-20 05:06:57.27	318.92	15.93	-46.4	-48.0	19.0	0.00e+00	0	38	0	937426944	64	4326
2026-01-20 05:07:00.29	318.42	15.72	-46.3	-47.9	19.1	0.00e+00	0	38	0	942669824	64	4245
2026-01-20 05:07:03.32	317.91	15.51	-46.0	-47.5	19.6	0.00e+00	0	39	0	948961280	63	4300
2026-01-20 05:07:06.34	317.42	15.29	-45.9	-47.3	19.7	0.00e+00	0	38	0	954204160	63	4236
2026-01-20 05:07:09.36	316.93	15.08	-46.1	-47.5	19.5	0.00e+00	0	38	0	960495616	63	4333
2026-01-20 05:07:12.39	316.45	14.87	-46.2	-47.6	19.4	0.00e+00	0	39	0	965738496	63	4389
2026-01-20 05:07:15.41	315.98	14.66	-45.9	-47.3	19.7	0.00e+00	0	38	0	970981376	63	4205
2026-01-20 05:07:18.44	315.51	14.45	-45.9	-47.4	19.6	0.00e+00	0	38	0	977272832	63	4254
2026-01-20 05:07:21.46	315.05	14.23	-46.0	-47.4	19.6	0.00e+00	0	38	0	982515712	63	4279
2026-01-20 05:07:24.48	314.60	14.02	-46.1	-47.6	19.4	0.00e+00	0	38	0	988807168	63	4359
2026-01-20 05:07:27.51	314.15	13.81	-46.3	-47.9	19.1	0.00e+00	0	38	0	994050048	63	4497
2026-01-20 05:07:30.53	313.72	13.60	-46.3	-47.9	19.1	0.00e+00	0	38	0	999292928	63	4500
2026-01-20 05:07:33.55	313.28	13.38	-46.6	-48.2	18.8	0.00e+00	0	38	0	1005584384	63	4655
2026-01-20 05:07:36.57	312.86	13.17	-46.7	-48.3	18.6	0.00e+00	0	39	0	1010827264	64	4490
2026-01-20 05:07:39.60	312.43	12.96	-46.7	-48.4	18.5	0.00e+00	0	39	0	1017118720	64	4519
2026-01-20 05:07:42.62	312.02	12.75	-46.6	-48.2	18.7	0.00e+00	0	38	0	1022361600	64	4404
2026-01-20 05:07:45.65	311.61	12.54	-46.5	-48.2	18.7	0.00e+00	0	38	0	1027604480	64	4398
2026-01-20 05:07:48.67	311.21	12.33	-46.6	-48.3	18.5	0.00e+00	0	38	0	1033895936	64	4466
2026-01-20 05:07:51.69	310.81	12.12	-46.8	-48.5	18.3	0.00e+00	0	38	0	1039138816	64	4593
2026-01-20 05:07:54.71	310.42	11.91	-47.0	-48.7	18.1	0.00e+00	0	38	0	1045430272	64	4683
2026-01-20 05:07:57.74	310.03	11.70	-47.0	-48.8	18.0	0.00e+00	0	38	0	1050673152	64	4744
2026-01-20 05:08:00.76	309.66	11.49	-47.0	-48.8	18.0	0.00e+00	0	38	0	1055916032	64	4751
2026-01-20 05:08:03.78	309.28	11.28	-47.2	-49.0	17.8	0.00e+00	0	39	0	1062207488	64	4839
2026-01-20 05:08:06.81	308.91	11.08	-47.2	-49.1	17.7	0.00e+00	0	38	0	1067450368	65	4621
2026-01-20 05:08:09.83	308.55	10.87	-47.1	-48.9	17.9	0.00e+00	0	38	0	1073741824	65	4540
2026-01-20 05:08:12.85	308.19	10.66	-47.2	-49.0	17.8	0.00e+00	0	39	0	1078984704	65	4568
2026-01-20 05:08:15.88	307.84	10.46	-47.4	-49.3	17.4	0.00e+00	0	38	0	1084227584	65	4756
2026-01-20 05:08:18.90	307.49	10.25	-47.4	-49.3	17.5	0.00e+00	0	38	0	1090519040	65	4714
2026-01-20 05:08:21.93	307.14	10.05	-47.7	-49.7	17.0	0.00e+00	0	38	0	1095761920	65	4967
2026-01-20 05:08:24.95	306.81	9.84	-47.7	-49.7	17.0	0.00e+00	0	38	0	1102053376	66	4705
2026-01-20 05:08:27.97	306.47	9.64	-47.3	-49.2	17.5	0.00e+00	0	39	0	1107296256	66	4438
2026-01-20 05:08:31.00	306.14	9.44	-47.4	-49.4	17.4	0.00e+00	0	38	0	1113587712	66	4513
2026-01-20 05:08:34.02	305.82	9.24	-47.6	-49.7	17.1	0.00e+00	0	38	0	1118830592	66	4663
2026-01-20 05:08:37.04	305.50	9.04	-47.9	-50.1	16.6	0.00e+00	0	39	0	1124073472	66	4886
2026-01-20 05:08:40.07	305.18	8.84	-48.0	-50.2	16.5	0.00e+00	0	38	0	1130364928	66	4962
2026-01-20 05:08:43.10	304.87	8.64	-48.1	-50.3	16.3	0.00e+00	0	38	0	1135607808	66	5024
2026-01-20 05:08:46.12	304.57	8.44	-48.2	-50.5	16.2	0.00e+00	0	39	0	1141899264	66	5104
2026-01-20 05:08:49.14	304.26	8.24	-48.1	-50.4	16.2	0.00e+00	0	38	0	1147142144	67	4803
2026-01-20 05:08:52.16	303.97	8.04	-48.2	-50.6	16.0	0.00e+00	0	38	0	1152385024	67	4903
2026-01-20 05:08:55.18	303.67	7.85	-48.6	-51.1	15.5	0.00e+00	0	38	0	1158676480	67	5197
2026-01-20 05:08:58.21	303.38	7.65	-48.6	-51.1	15.5	0.00e+00	0	38	0	1163919360	68	4926
2026-01-20 05:09:01.23	303.10	7.46	-48.6	-51.2	15.5	0.00e+00	0	38	0	1170210816	68	4927
2026-01-20 05:09:04.25	302.81	7.26	-48.8	-51.4	15.2	0.00e+00	0	39	0	1175453696	68	5083
2026-01-20 05:09:07.28	302.54	7.07	-48.8	-51.5	15.1	0.00e+00	0	38	0	1180696576	68	5149
2026-01-20 05:09:10.30	302.26	6.88	-48.7	-51.3	15.2	0.00e+00	0	39	0	1186988032	68	5014
2026-01-20 05:09:13.33	301.99	6.69	-49.0	-51.9	14.6	0.00e+00	0	38	0	1192230912	68	5396
2026-01-20 05:09:16.35	301.72	6.50	-49.1	-52.0	14.5	0.00e+00	0	38	0	1198522368	68	5419
2026-01-20 05:09:19.38	301.46	6.31	-49.0	-52.0	14.5	7.00e-07	0	38	0	1203765248	68	5416
2026-01-20 05:09:22.40	301.20	6.12	-49.3	-52.4	14.0	2.20e-06	0	39	0	1210056704	69	5357
2026-01-20 05:09:25.42	300.94	5.93	-48.9	-51.8	14.7	0.00e+00	0	39	0	1215299584	69	5033
2026-01-20 05:09:28.44	300.69	5.74	-48.7	-51.4	15.0	0.00e+00	0	38	0	1220542464	69	4801
2026-01-20 05:09:31.47	300.44	5.56	-49.1	-52.1	14.3	7.00e-07	0	38	0	1226833920	69	5197
2026-01-20 05:09:34.49	300.20	5.37	-49.2	-52.3	14.1	3.00e-06	0	38	0	1232076800	69	5302
2026-01-20 05:09:37.52	299.95	5.18	-49.5	-53.0	13.2	4.50e-05	0	39	0	1238368256	70	5449
2026-01-20 05:09:40.54	299.71	5.00	-49.5	-53.0	13.4	2.74e-05	0	38	0	1243611136	70	5433
2026-01-20 05:09:43.57	299.47	4.82	-53.1	-68.1	3.8	1.49e+00	0	38	104	1244659712	76	21770
2026-01-20 05:09:46.59	299.24	4.63	-53.5	-68.4	3.8	1.49e+00	0	39	104	1244659712	77	21465
2026-01-20 05:09:49.61	299.01	4.45	-53.7	-68.7	3.8	1.49e+00	0	39	104	1244659712	78	20955
2026-01-20 05:09:52.64	298.78	4.27	-53.9	-68.9	3.8	1.49e+00	0	38	104	1244659712	78	21352
2026-01-20 05:09:55.66	298.56	4.09	-54.0	-69.0	3.8	1.49e+00	0	39	104	1244659712	78	21698
2026-01-20 05:09:58.68	298.34	3.91	-54.1	-69.1	3.8	1.49e+00	0	39	104	1244659712	78	21987
2026-01-20 05:10:01.71	298.12	3.73	-54.2	-69.2	3.8	1.49e+00	0	39	104	1244659712	78	22064
2026-01-20 05:10:04.73	297.90	3.55	-54.2	-69.2	3.8	1.49e+00	0	38	104	1244659712	78	22016
2026-01-20 05:10:07.75	297.69	3.38	-54.1	-69.1	3.8	1.49e+00	0	39	104	1244659712	78	21814
2026-01-20 05:10:10.78	297.48	3.20	-54.0	-69.0	3.8	1.49e+00	0	39	104	1244659712	78	21594
2026-01-20 05:10:13.80	297.27	3.03	-54.0	-69.0	3.8	1.49e+00	0	38	104	1244659712	78	21567
2026-01-20 05:10:16.83	297.06	2.85	-54.0	-68.9	3.8	1.49e+00	0	39	104	1244659712	78	21490
2026-01-20 05:10:19.85	296.86	2.68	-53.9	-68.9	3.8	1.49e+00	0	39	104	1244659712	78	21497
2026-01-20 05:10:22.87	296.66	2.50	-53.9	-68.9	3.8	1.49e+00	0	38	104	1244659712	78	21467
2026-01-20 05:10:25.90	296.46	2.33	-53.9	-68.9	3.8	1.49e+00	0	39	104	1244659712	78	21462
2026-01-20 05:10:28.92	296.26	2.16	-53.9	-68.9	3.8	1.49e+00	0	39	104	1244659712	78	21442
2026-01-20 05:10:31.94	296.07	1.99	-53.9	-68.9	3.8	1.49e+00	0	39	104	1244659712	78	21447

#Closed at: 2026-01-20 05:10:34
#Recorded file [1244 MB]: D:/lorett/data/31041_260120_075752.dat