passes_logs/2026/01/20/R3.2S_Murmansk/R3.2S_Murmansk__20260120_025800_SUOMI_NPP_rec.log

#Pass ID: 20260120_025800_SUOMI NPP
#Satellite: SUOMI NPP
#Configuration: NPP
#almurnet v.1.7.20251203
#Start time: 2026-01-20 02:58:01

#Version: 2.2.20231116
#Station: R3.2S_Murmansk
#Location: 33.079688 lon 68.888172 lat
#TLE: 1 37849U 11061A   26019.26265094  .00000081  00000+0  59609-4 0  9993
#TLE: 2 37849  98.7817 321.2746 0002356  56.2510 303.8890 14.19526363737315

#Time	Az	El	Level	Level2	SNR	BER	BlckErr	Temp	State	Recorded	gain1	gain2
2026-01-20 02:58:01.46	36.79	2.04	-51.6	-66.5	3.8	1.49e+00	0	37	0	0	75	19271
2026-01-20 02:58:05.49	36.60	2.28	-51.5	-66.4	3.8	1.49e+00	0	37	104	0	73	21417
2026-01-20 02:58:09.53	36.42	2.53	-51.5	-66.5	3.8	1.49e+00	0	37	104	0	73	21548
2026-01-20 02:58:13.56	36.23	2.78	-51.5	-66.4	3.8	1.49e+00	0	37	104	0	73	21499
2026-01-20 02:58:17.59	36.04	3.03	-51.5	-66.4	3.8	1.49e+00	0	37	104	0	73	21354
2026-01-20 02:58:21.62	35.84	3.28	-51.5	-66.2	3.8	1.49e+00	0	37	104	0	73	20963
2026-01-20 02:58:25.66	35.64	3.53	-51.5	-65.6	3.8	1.49e+00	0	37	104	0	73	19613
2026-01-20 02:58:29.69	35.43	3.79	-51.4	-64.6	3.8	1.49e+00	0	38	104	0	73	17445
2026-01-20 02:58:33.72	35.23	4.05	-51.3	-62.7	4.2	1.33e+00	0	37	0	1048576	73	13971
2026-01-20 02:58:37.75	35.01	4.31	-51.0	-60.2	5.4	5.68e-01	0	38	0	8388608	73	10478
2026-01-20 02:58:41.79	34.80	4.57	-51.1	-60.9	5.0	5.55e-01	0	38	0	15728640	73	11393
2026-01-20 02:58:45.81	34.58	4.83	-51.2	-62.2	4.4	1.13e+00	125	38	0	23068672	73	13219
2026-01-20 02:58:49.85	34.35	5.10	-51.3	-60.6	5.3	1.22e+00	0	38	0	23068672	73	10913
2026-01-20 02:58:53.88	34.13	5.37	-51.6	-65.7	3.8	5.55e-01	0	38	104	26214400	73	19731
2026-01-20 02:58:57.91	33.89	5.64	-50.1	-54.7	11.2	7.45e-04	0	38	0	31457280	71	6235
2026-01-20 02:59:01.94	33.65	5.91	-50.3	-55.2	10.7	2.13e-03	0	38	0	38797312	71	6602
2026-01-20 02:59:05.97	33.41	6.19	-49.3	-52.7	13.4	7.47e-05	0	38	0	46137344	70	5264
2026-01-20 02:59:10.00	33.16	6.47	-49.1	-52.3	13.9	6.80e-06	0	38	0	54525952	70	5002
2026-01-20 02:59:14.03	32.91	6.75	-48.8	-51.8	14.4	0.00e+00	0	38	0	61865984	69	5035
2026-01-20 02:59:18.06	32.65	7.03	-48.5	-51.3	15.0	0.00e+00	0	38	0	69206016	68	4992
2026-01-20 02:59:22.09	32.39	7.32	-48.4	-51.1	15.2	0.00e+00	0	38	0	76546048	68	4883
2026-01-20 02:59:26.12	32.12	7.60	-48.2	-50.8	15.5	0.00e+00	0	38	0	83886080	68	4721
2026-01-20 02:59:30.16	31.84	7.90	-48.2	-50.8	15.6	0.00e+00	0	38	0	92274688	68	4707
2026-01-20 02:59:34.18	31.56	8.19	-48.2	-50.9	15.4	0.00e+00	0	38	0	99614720	67	5045
2026-01-20 02:59:38.21	31.28	8.49	-48.1	-50.7	15.6	0.00e+00	0	38	0	106954752	67	4934
2026-01-20 02:59:42.24	30.98	8.78	-48.0	-50.5	15.7	0.00e+00	0	38	0	114294784	67	4862
2026-01-20 02:59:46.27	30.69	9.09	-47.9	-50.3	15.9	0.00e+00	0	38	0	121634816	67	4742
2026-01-20 02:59:50.30	30.38	9.39	-48.1	-50.6	15.7	0.00e+00	0	38	0	130023424	67	4887
2026-01-20 02:59:54.33	30.07	9.70	-47.9	-50.2	16.0	0.00e+00	0	38	0	137363456	67	4695
2026-01-20 02:59:58.36	29.75	10.01	-47.5	-49.7	16.7	0.00e+00	0	38	0	144703488	66	4655
2026-01-20 03:00:02.39	29.42	10.32	-47.1	-49.2	17.2	0.00e+00	0	38	0	152043520	66	4393
2026-01-20 03:00:06.43	29.08	10.64	-47.4	-49.5	16.9	0.00e+00	0	39	0	159383552	66	4584
2026-01-20 03:00:10.46	28.74	10.96	-47.3	-49.3	17.1	0.00e+00	0	39	0	167772160	66	4474
2026-01-20 03:00:14.49	28.39	11.28	-47.3	-49.3	17.2	0.00e+00	0	38	0	175112192	66	4459
2026-01-20 03:00:18.52	28.03	11.61	-47.3	-49.3	17.2	0.00e+00	0	39	0	182452224	66	4468
2026-01-20 03:00:22.55	27.67	11.94	-47.6	-49.7	16.8	0.00e+00	0	39	0	189792256	66	4703
2026-01-20 03:00:26.59	27.29	12.27	-47.4	-49.5	17.1	0.00e+00	0	38	0	198180864	66	4551
2026-01-20 03:00:30.62	26.91	12.61	-47.5	-49.6	17.0	0.00e+00	0	39	0	205520896	66	4619
2026-01-20 03:00:34.65	26.51	12.95	-47.3	-49.2	17.4	0.00e+00	0	38	0	212860928	66	4426
2026-01-20 03:00:38.68	26.11	13.29	-47.3	-49.3	17.3	0.00e+00	0	38	0	220200960	66	4474
2026-01-20 03:00:42.72	25.70	13.64	-47.1	-49.0	17.7	0.00e+00	0	38	0	227540992	66	4294
2026-01-20 03:00:46.75	25.27	13.99	-47.2	-49.2	17.4	0.00e+00	0	39	0	234881024	66	4419
2026-01-20 03:00:50.78	24.84	14.34	-46.8	-48.6	18.0	0.00e+00	0	39	0	243269632	65	4363
2026-01-20 03:00:54.81	24.40	14.70	-46.7	-48.4	18.2	0.00e+00	0	39	0	250609664	65	4278
2026-01-20 03:00:58.84	23.94	15.06	-46.5	-48.1	18.5	0.00e+00	0	39	0	257949696	64	4385
2026-01-20 03:01:02.87	23.47	15.42	-46.9	-48.7	18.0	0.00e+00	0	39	0	265289728	64	4672
2026-01-20 03:01:06.90	22.99	15.79	-46.9	-48.6	18.1	0.00e+00	0	39	0	273678336	64	4647
2026-01-20 03:01:10.93	22.50	16.16	-47.1	-48.9	17.8	0.00e+00	0	38	0	281018368	64	4804
2026-01-20 03:01:14.97	22.00	16.53	-47.1	-49.0	17.7	0.00e+00	0	39	0	288358400	65	4580
2026-01-20 03:01:18.99	21.48	16.91	-46.9	-48.7	18.1	0.00e+00	0	38	0	295698432	65	4425
2026-01-20 03:01:23.03	20.95	17.29	-46.9	-48.6	18.1	0.00e+00	0	39	0	303038464	65	4379
2026-01-20 03:01:27.06	20.41	17.67	-47.0	-48.8	18.0	0.00e+00	0	39	0	311427072	65	4448
2026-01-20 03:01:31.09	19.85	18.06	-47.1	-49.0	17.9	0.00e+00	0	39	0	318767104	65	4556
2026-01-20 03:01:35.12	19.27	18.45	-47.4	-49.3	17.6	0.00e+00	0	39	0	326107136	65	4715
2026-01-20 03:01:39.15	18.69	18.84	-47.7	-49.7	17.2	0.00e+00	0	39	0	333447168	66	4676
2026-01-20 03:01:43.19	18.08	19.24	-47.5	-49.4	17.5	0.00e+00	0	39	0	341835776	66	4544
2026-01-20 03:01:47.22	17.46	19.64	-47.7	-49.6	17.3	0.00e+00	0	39	0	349175808	66	4644
2026-01-20 03:01:51.25	16.82	20.04	-47.1	-48.8	18.1	0.00e+00	0	39	0	356515840	66	4223
2026-01-20 03:01:55.28	16.16	20.45	-47.4	-49.2	17.7	0.00e+00	0	39	0	363855872	66	4431
2026-01-20 03:01:59.31	15.49	20.85	-47.0	-48.8	18.2	0.00e+00	0	39	0	371195904	65	4452
2026-01-20 03:02:03.34	14.80	21.26	-47.1	-49.0	18.0	0.00e+00	0	38	0	378535936	65	4549
2026-01-20 03:02:07.37	14.09	21.67	-47.2	-49.1	17.9	0.00e+00	0	39	0	386924544	65	4601
2026-01-20 03:02:11.41	13.36	22.09	-47.4	-49.3	17.7	0.00e+00	0	39	0	394264576	65	4716
2026-01-20 03:02:15.44	12.61	22.50	-47.7	-49.7	17.3	0.00e+00	0	39	0	401604608	66	4666
2026-01-20 03:02:19.47	11.84	22.92	-47.8	-49.9	17.0	0.00e+00	0	39	0	408944640	66	4789
2026-01-20 03:02:23.50	11.05	23.33	-47.8	-49.9	17.0	0.00e+00	0	39	0	417333248	67	4516
2026-01-20 03:02:27.54	10.23	23.75	-47.4	-49.3	17.6	0.00e+00	0	39	0	424673280	66	4487
2026-01-20 03:02:31.57	9.39	24.17	-47.5	-49.4	17.7	0.00e+00	0	39	0	432013312	66	4519
2026-01-20 03:02:35.59	8.54	24.59	-47.3	-49.0	18.0	0.00e+00	0	39	0	439353344	66	4339
2026-01-20 03:02:39.63	7.65	25.00	-47.7	-49.6	17.5	0.00e+00	0	39	0	446693376	66	4632
2026-01-20 03:02:43.65	6.75	25.42	-47.4	-49.3	17.7	0.00e+00	0	39	0	455081984	66	4469
2026-01-20 03:02:47.69	5.82	25.83	-47.3	-49.2	17.9	0.00e+00	0	39	0	462422016	66	4395
2026-01-20 03:02:51.72	4.86	26.25	-47.2	-49.0	18.1	0.00e+00	0	39	0	469762048	65	4574
2026-01-20 03:02:55.75	3.88	26.65	-47.8	-49.7	17.4	0.00e+00	0	39	0	477102080	66	4702
2026-01-20 03:02:59.78	2.87	27.06	-47.2	-48.9	18.1	0.00e+00	0	39	0	484442112	66	4286
2026-01-20 03:03:03.81	1.84	27.46	-46.5	-48.0	19.0	0.00e+00	0	39	0	492830720	64	4318
2026-01-20 03:03:07.85	0.78	27.86	-46.9	-48.6	18.4	0.00e+00	0	39	0	500170752	64	4632
2026-01-20 03:03:11.88	359.70	28.25	-46.9	-48.6	18.4	0.00e+00	0	39	0	507510784	65	4379
2026-01-20 03:03:15.91	358.58	28.64	-48.8	-51.4	15.9	0.00e+00	0	39	0	514850816	68	5068
2026-01-20 03:03:19.94	357.44	29.01	-48.9	-51.5	15.7	0.00e+00	0	39	0	522190848	69	4820
2026-01-20 03:03:23.97	356.28	29.38	-48.1	-50.3	16.9	0.00e+00	0	39	0	530579456	68	4443
2026-01-20 03:03:28.00	355.08	29.74	-48.7	-51.2	15.9	0.00e+00	0	39	0	537919488	67	5222
2026-01-20 03:03:32.03	353.86	30.09	-49.1	-51.7	15.5	0.00e+00	0	39	0	545259520	69	4965
2026-01-20 03:03:36.06	352.61	30.43	-50.4	-54.0	13.1	9.84e-05	0	39	0	552599552	71	5786
2026-01-20 03:03:40.09	351.34	30.76	-49.6	-52.6	14.7	0.00e+00	0	39	0	560988160	71	4898
2026-01-20 03:03:44.13	350.04	31.08	-49.3	-52.1	15.2	0.00e+00	0	39	0	568328192	70	4910
2026-01-20 03:03:48.16	348.71	31.38	-48.7	-51.2	16.1	0.00e+00	0	39	0	575668224	69	4671
2026-01-20 03:03:52.19	347.36	31.67	-48.9	-51.5	15.6	0.00e+00	0	39	0	583008256	69	4866
2026-01-20 03:03:56.22	345.99	31.94	-49.0	-51.7	15.5	0.00e+00	0	39	0	590348288	68	5278
2026-01-20 03:04:00.25	344.60	32.19	-48.8	-51.2	16.0	0.00e+00	0	39	0	597688320	68	4961
2026-01-20 03:04:04.29	343.18	32.43	-48.3	-50.4	16.8	0.00e+00	0	39	0	606076928	68	4541
2026-01-20 03:04:08.32	341.74	32.65	-47.8	-49.9	17.2	0.00e+00	0	39	0	613416960	67	4532
2026-01-20 03:04:12.35	340.28	32.85	-47.6	-49.5	17.6	0.00e+00	0	39	0	620756992	66	4562
2026-01-20 03:04:16.38	338.81	33.03	-48.8	-51.3	16.0	0.00e+00	0	39	0	628097024	68	5034
2026-01-20 03:04:20.41	337.32	33.18	-46.6	-48.2	18.9	0.00e+00	0	39	0	636485632	65	4171
2026-01-20 03:04:24.45	335.81	33.32	-46.4	-47.9	19.1	0.00e+00	0	39	0	643825664	64	4269
2026-01-20 03:04:28.48	334.30	33.44	-48.4	-50.8	16.4	0.00e+00	0	39	0	651165696	67	5004
2026-01-20 03:04:32.51	332.78	33.53	-48.0	-50.1	17.1	0.00e+00	0	39	0	658505728	67	4639
2026-01-20 03:04:36.54	331.24	33.60	-48.0	-50.1	17.2	0.00e+00	0	39	0	665845760	67	4602
2026-01-20 03:04:40.57	329.71	33.64	-47.0	-48.6	18.5	0.00e+00	0	39	0	674234368	65	4385
2026-01-20 03:04:44.60	328.17	33.67	-49.0	-51.5	15.9	0.00e+00	0	39	0	681574400	68	5132
2026-01-20 03:04:48.63	326.63	33.66	-48.6	-50.8	16.5	0.00e+00	0	39	0	688914432	69	4480
2026-01-20 03:04:52.67	325.08	33.64	-48.9	-51.4	16.0	0.00e+00	0	39	0	696254464	69	4765
2026-01-20 03:04:56.70	323.54	33.59	-47.4	-49.3	17.9	0.00e+00	0	39	0	704643072	66	4466
2026-01-20 03:05:00.73	322.01	33.52	-48.7	-51.0	16.3	0.00e+00	0	39	0	711983104	68	4867
2026-01-20 03:05:04.77	320.49	33.43	-47.8	-49.7	17.5	0.00e+00	0	39	0	719323136	66	4698
2026-01-20 03:05:08.80	318.97	33.31	-49.1	-51.8	15.5	0.00e+00	0	39	0	726663168	69	5026
2026-01-20 03:05:12.83	317.47	33.17	-48.3	-50.5	16.9	0.00e+00	0	39	0	734003200	68	4564
2026-01-20 03:05:16.86	315.98	33.01	-48.4	-50.7	16.4	0.00e+00	0	39	0	742391808	67	4927
2026-01-20 03:05:20.90	314.51	32.83	-48.5	-50.8	16.5	0.00e+00	0	39	0	749731840	68	4722
2026-01-20 03:05:24.93	313.05	32.63	-48.5	-50.8	16.5	0.00e+00	0	39	0	757071872	68	4727
2026-01-20 03:05:28.96	311.61	32.40	-48.0	-50.2	17.1	0.00e+00	0	39	0	764411904	67	4675
2026-01-20 03:05:32.99	310.20	32.17	-47.1	-48.9	18.2	0.00e+00	0	39	0	771751936	66	4252
2026-01-20 03:05:37.02	308.80	31.91	-48.1	-50.3	17.0	0.00e+00	0	39	0	780140544	66	5027
2026-01-20 03:05:41.05	307.43	31.64	-47.8	-49.7	17.5	0.00e+00	0	39	0	787480576	67	4432
2026-01-20 03:05:45.08	306.08	31.35	-48.2	-50.4	16.8	0.00e+00	0	39	0	794820608	67	4771
2026-01-20 03:05:49.11	304.76	31.04	-49.1	-51.7	15.7	0.00e+00	0	39	0	802160640	68	5260
2026-01-20 03:05:53.14	303.46	30.73	-49.1	-51.8	15.6	0.00e+00	0	39	0	809500672	69	4990
2026-01-20 03:05:57.17	302.19	30.40	-48.5	-50.8	16.5	0.00e+00	0	39	0	817889280	68	4732
2026-01-20 03:06:01.21	300.94	30.06	-47.8	-49.8	17.4	0.00e+00	0	39	0	825229312	67	4484
2026-01-20 03:06:05.24	299.72	29.70	-46.5	-48.0	19.0	0.00e+00	0	39	0	832569344	64	4338
2026-01-20 03:06:09.26	298.53	29.34	-47.9	-50.0	17.2	0.00e+00	0	39	0	839909376	66	4834
2026-01-20 03:06:13.30	297.36	28.97	-48.1	-50.1	17.1	0.00e+00	0	39	0	847249408	68	4377
2026-01-20 03:06:17.33	296.23	28.59	-47.9	-50.0	17.3	0.00e+00	0	39	0	855638016	66	4822
2026-01-20 03:06:21.36	295.11	28.21	-49.1	-51.7	15.6	0.00e+00	0	39	0	862978048	70	4675
2026-01-20 03:06:25.39	294.03	27.81	-48.4	-50.6	16.7	0.00e+00	0	39	0	870318080	68	4618
2026-01-20 03:06:29.42	292.97	27.42	-48.5	-50.8	16.6	0.00e+00	0	39	0	877658112	68	4714
2026-01-20 03:06:33.45	291.94	27.01	-46.8	-48.4	18.7	0.00e+00	0	39	0	884998144	65	4276
2026-01-20 03:06:37.49	290.93	26.61	-46.9	-48.5	18.7	0.00e+00	0	39	0	893386752	64	4586
2026-01-20 03:06:41.52	289.95	26.20	-47.3	-49.2	18.0	0.00e+00	0	39	0	900726784	65	4665
2026-01-20 03:06:45.54	289.00	25.78	-47.1	-48.9	18.2	0.00e+00	0	39	0	908066816	65	4528
2026-01-20 03:06:49.57	288.07	25.37	-47.4	-49.3	17.9	0.00e+00	0	39	0	915406848	65	4717
2026-01-20 03:06:53.61	287.16	24.95	-46.4	-47.9	19.2	0.00e+00	0	39	0	923795456	64	4289
2026-01-20 03:06:57.64	286.28	24.53	-45.3	-46.6	20.5	0.00e+00	0	39	0	931135488	62	4123
2026-01-20 03:07:01.67	285.42	24.12	-46.6	-48.1	19.1	0.00e+00	0	39	0	938475520	63	4648
2026-01-20 03:07:05.70	284.59	23.70	-46.0	-47.4	19.8	0.00e+00	0	39	0	945815552	63	4265
2026-01-20 03:07:09.73	283.78	23.28	-46.3	-47.8	19.4	0.00e+00	0	39	0	953155584	63	4448
2026-01-20 03:07:13.76	282.98	22.86	-46.0	-47.4	19.7	0.00e+00	0	39	0	961544192	63	4248
2026-01-20 03:07:17.79	282.21	22.45	-46.1	-47.5	19.6	0.00e+00	0	39	0	968884224	63	4330
2026-01-20 03:07:21.82	281.46	22.03	-45.7	-47.0	20.1	0.00e+00	0	39	0	976224256	63	4087
2026-01-20 03:07:25.85	280.73	21.62	-46.4	-48.0	19.3	0.00e+00	0	39	0	983564288	63	4551
2026-01-20 03:07:29.89	280.02	21.20	-46.5	-48.1	19.1	0.00e+00	0	39	0	990904320	63	4629
2026-01-20 03:07:33.92	279.33	20.79	-46.4	-47.9	19.2	0.00e+00	0	39	0	999292928	63	4542
2026-01-20 03:07:37.95	278.66	20.39	-46.5	-48.0	19.2	0.00e+00	0	39	0	1006632960	63	4561
2026-01-20 03:07:41.98	278.00	19.98	-47.2	-49.0	18.1	0.00e+00	0	39	0	1013972992	65	4596
2026-01-20 03:07:46.01	277.37	19.58	-47.1	-48.8	18.3	0.00e+00	0	39	0	1021313024	65	4463
2026-01-20 03:07:50.04	276.74	19.18	-46.4	-47.9	19.1	0.00e+00	0	39	0	1028653056	64	4263
2026-01-20 03:07:54.07	276.14	18.78	-47.1	-48.8	18.3	0.00e+00	0	39	0	1037041664	64	4723
2026-01-20 03:07:58.11	275.55	18.39	-46.9	-48.6	18.4	0.00e+00	0	39	0	1044381696	65	4365
2026-01-20 03:08:02.14	274.98	18.00	-46.2	-47.7	19.2	0.00e+00	0	39	0	1051721728	64	4177
2026-01-20 03:08:06.17	274.42	17.61	-46.3	-47.8	19.1	0.00e+00	0	39	0	1059061760	64	4240
2026-01-20 03:08:10.20	273.87	17.23	-46.7	-48.3	18.7	0.00e+00	0	39	0	1067450368	64	4459
2026-01-20 03:08:14.23	273.34	16.85	-46.5	-48.1	18.8	0.00e+00	0	39	0	1074790400	64	4364
2026-01-20 03:08:18.26	272.82	16.47	-46.2	-47.7	19.2	0.00e+00	0	39	0	1082130432	64	4156
2026-01-20 03:08:22.29	272.32	16.10	-47.1	-48.9	18.1	0.00e+00	0	39	0	1089470464	64	4773
2026-01-20 03:08:26.33	271.83	15.72	-48.5	-50.8	16.2	0.00e+00	0	39	0	1096810496	67	5041
2026-01-20 03:08:30.36	271.35	15.36	-47.5	-49.3	17.5	0.00e+00	0	39	0	1104150528	66	4492
2026-01-20 03:08:34.39	270.88	14.99	-46.1	-47.6	19.2	0.00e+00	0	39	0	1112539136	64	4127
2026-01-20 03:08:38.42	270.43	14.63	-46.7	-48.4	18.4	0.00e+00	0	39	0	1119879168	64	4531
2026-01-20 03:08:42.46	269.98	14.28	-47.8	-49.9	16.9	0.00e+00	0	39	0	1127219200	66	4810
2026-01-20 03:08:46.49	269.55	13.92	-48.1	-50.4	16.6	0.00e+00	0	39	0	1134559232	66	5063
2026-01-20 03:08:50.52	269.12	13.57	-48.0	-50.2	16.8	0.00e+00	0	39	0	1142947840	67	4655
2026-01-20 03:08:54.55	268.71	13.23	-47.9	-50.1	16.8	0.00e+00	0	39	0	1150287872	67	4617
2026-01-20 03:08:58.58	268.31	12.89	-47.9	-50.1	16.8	0.00e+00	0	39	0	1157627904	67	4611
2026-01-20 03:09:02.61	267.91	12.55	-48.1	-50.3	16.5	0.00e+00	0	39	0	1164967936	67	4738
2026-01-20 03:09:06.64	267.53	12.21	-48.1	-50.3	16.5	0.00e+00	0	39	0	1172307968	67	4745
2026-01-20 03:09:10.67	267.15	11.88	-47.7	-49.7	17.1	0.00e+00	0	39	0	1180696576	67	4413
2026-01-20 03:09:14.70	266.78	11.55	-47.2	-49.1	17.7	0.00e+00	0	39	0	1188036608	66	4374
2026-01-20 03:09:18.73	266.42	11.22	-47.2	-49.1	17.6	0.00e+00	0	39	0	1195376640	66	4359
2026-01-20 03:09:22.77	266.07	10.90	-47.7	-49.8	16.6	0.00e+00	0	39	0	1202716672	66	4734
2026-01-20 03:09:26.80	265.73	10.58	-48.8	-51.5	15.4	0.00e+00	0	39	0	1210056704	68	5107
2026-01-20 03:09:30.83	265.39	10.26	-49.4	-52.4	14.4	7.00e-07	0	39	0	1218445312	69	5372
2026-01-20 03:09:34.87	265.07	9.95	-49.1	-52.0	14.8	0.00e+00	0	39	0	1225785344	69	5149
2026-01-20 03:09:38.89	264.75	9.64	-49.0	-51.8	14.9	0.00e+00	0	39	0	1233125376	69	5036
2026-01-20 03:09:42.93	264.43	9.33	-48.8	-51.4	15.4	0.00e+00	0	39	0	1240465408	69	4791
2026-01-20 03:09:46.96	264.12	9.02	-48.5	-51.0	15.8	0.00e+00	0	39	0	1247805440	68	4815
2026-01-20 03:09:50.99	263.82	8.72	-48.3	-50.7	16.1	0.00e+00	0	39	0	1256194048	68	4665
2026-01-20 03:09:55.02	263.53	8.42	-48.1	-50.4	16.2	0.00e+00	0	39	0	1263534080	67	4778
2026-01-20 03:09:59.06	263.24	8.12	-48.3	-50.8	15.8	0.00e+00	0	39	0	1270874112	67	4996
2026-01-20 03:10:03.09	262.96	7.83	-48.9	-51.7	15.0	0.00e+00	0	39	0	1278214144	68	5223
2026-01-20 03:10:07.11	262.68	7.54	-49.2	-52.2	14.4	1.50e-06	0	39	0	1286602752	68	5572
2026-01-20 03:10:11.15	262.41	7.25	-49.3	-52.4	14.1	2.20e-06	0	39	0	1293942784	69	5396
2026-01-20 03:10:15.18	262.15	6.96	-49.3	-52.5	14.0	6.10e-06	0	39	0	1301282816	69	5434
2026-01-20 03:10:19.21	261.89	6.68	-49.1	-52.1	14.3	1.50e-06	0	39	0	1308622848	69	5218
2026-01-20 03:10:23.24	261.63	6.40	-49.2	-52.2	14.3	0.00e+00	0	39	0	1315962880	69	5278
2026-01-20 03:10:27.28	261.38	6.12	-49.3	-52.5	14.0	3.80e-06	0	39	0	1324351488	69	5417
2026-01-20 03:10:31.30	261.14	5.85	-49.1	-52.1	14.2	6.10e-06	0	39	0	1331691520	69	5215
2026-01-20 03:10:35.33	260.90	5.57	-49.3	-52.5	13.9	1.22e-05	0	39	0	1339031552	69	5409
2026-01-20 03:10:39.37	260.67	5.30	-49.5	-52.9	13.4	5.30e-06	0	39	0	1346371584	69	5672
2026-01-20 03:10:43.39	260.44	5.03	-49.7	-53.4	13.0	2.20e-06	0	39	0	1353711616	69	6011
2026-01-20 03:10:47.43	260.21	4.77	-53.4	-68.3	3.8	1.49e+00	0	39	104	1354760192	77	21221
2026-01-20 03:10:51.46	259.99	4.50	-53.8	-68.7	3.8	1.49e+00	0	39	104	1354760192	78	20968
2026-01-20 03:10:55.49	259.77	4.24	-53.9	-68.9	3.8	1.49e+00	0	39	104	1354760192	78	21437
2026-01-20 03:10:59.51	259.56	3.98	-54.1	-69.0	3.8	1.49e+00	0	39	104	1354760192	78	21695
2026-01-20 03:11:03.54	259.35	3.72	-54.1	-69.1	3.8	1.49e+00	0	39	104	1354760192	78	21811
2026-01-20 03:11:07.57	259.14	3.47	-54.0	-69.0	3.8	1.49e+00	0	39	104	1354760192	78	21621
2026-01-20 03:11:11.60	258.94	3.21	-54.0	-69.0	3.8	1.49e+00	0	39	104	1354760192	78	21597
2026-01-20 03:11:15.63	258.75	2.96	-54.0	-69.0	3.8	1.49e+00	0	39	104	1354760192	78	21558
2026-01-20 03:11:19.66	258.55	2.71	-54.0	-69.0	3.8	1.49e+00	0	39	104	1354760192	78	21512
2026-01-20 03:11:23.69	258.36	2.46	-53.9	-68.9	3.8	1.49e+00	0	39	104	1354760192	78	21473
2026-01-20 03:11:27.73	258.17	2.22	-53.9	-68.9	3.8	1.49e+00	0	39	104	1354760192	78	21413
2026-01-20 03:11:31.76	257.99	1.97	-53.9	-68.9	3.8	1.49e+00	0	39	104	1354760192	78	21374

#Closed at: 2026-01-20 03:11:33
#Recorded file [1354 MB]: D:/lorett/data/31041_260120_055801.dat