passes_logs/2026/01/20/R3.2S_Murmansk/R3.2S_Murmansk__20260120_233914_NOAA_20_JPSS-1_rec.log

#Pass ID: 20260120_233914_NOAA 20 (JPSS-1)
#Satellite: NOAA 20 (JPSS-1)
#Configuration: NOAA 20
#almurnet v.1.7.20251203
#Start time: 2026-01-20 23:39:16

#Version: 2.2.20231116
#Station: R3.2S_Murmansk
#Location: 33.079688 lon 68.888172 lat
#TLE: 1 43013U 17073A   26020.26397077  .00000127  00000+0  80954-4 0  9999
#TLE: 2 43013  98.7643 321.1479 0001288  31.3158 328.8095 14.19537595423482

#Time	Az	El	Level	Level2	SNR	BER	BlckErr	Temp	State	Recorded	gain1	gain2
2026-01-20 23:39:16.48	21.30	2.12	-53.9	-68.9	3.8	1.49e+00	0	38	0	0	78	21402
2026-01-20 23:39:20.52	21.44	2.37	-53.8	-68.8	3.8	1.49e+00	0	38	104	0	78	21111
2026-01-20 23:39:24.55	21.57	2.63	-53.7	-68.7	3.8	1.49e+00	0	38	104	0	78	20883
2026-01-20 23:39:28.59	21.71	2.88	-53.4	-68.4	3.8	1.49e+00	0	38	104	0	78	20228
2026-01-20 23:39:32.62	21.85	3.14	-52.8	-67.8	3.8	1.49e+00	0	38	104	0	77	19849
2026-01-20 23:39:36.66	21.99	3.40	-52.0	-66.5	3.8	1.49e+00	0	38	104	0	76	18232
2026-01-20 23:39:40.69	22.13	3.67	-51.9	-63.7	4.1	1.46e+00	0	38	104	0	75	14007
2026-01-20 23:39:44.73	22.27	3.93	-50.9	-57.2	8.5	6.95e-02	0	38	0	6291456	73	7401
2026-01-20 23:39:48.76	22.42	4.20	-49.2	-52.7	13.2	8.08e-05	0	38	0	13631488	70	5263
2026-01-20 23:39:52.79	22.57	4.47	-48.8	-52.0	14.1	1.50e-06	0	39	0	20971520	69	5102
2026-01-20 23:39:56.82	22.72	4.74	-49.6	-53.5	12.5	7.62e-05	0	39	0	28311552	69	6080
2026-01-20 23:40:00.86	22.88	5.02	-51.3	-59.0	6.7	1.40e-01	0	39	0	35651584	73	9137
2026-01-20 23:40:04.89	23.04	5.30	-48.5	-51.3	14.8	2.97e-05	0	39	0	40894464	68	5009
2026-01-20 23:40:08.93	23.20	5.58	-48.4	-51.1	15.1	0.00e+00	0	39	0	46137344	68	4891
2026-01-20 23:40:12.96	23.36	5.87	-48.3	-50.9	15.2	0.00e+00	0	39	0	53477376	68	4799
2026-01-20 23:40:16.99	23.52	6.15	-47.8	-50.2	15.9	0.00e+00	0	39	0	60817408	67	4667
2026-01-20 23:40:21.02	23.69	6.44	-47.6	-49.8	16.4	0.00e+00	0	39	0	69206016	67	4468
2026-01-20 23:40:25.05	23.86	6.74	-47.5	-49.7	16.5	0.00e+00	0	39	0	76546048	66	4694
2026-01-20 23:40:29.08	24.04	7.03	-47.6	-49.8	16.5	0.00e+00	0	39	0	83886080	66	4727
2026-01-20 23:40:33.12	24.22	7.33	-47.6	-49.8	16.6	0.00e+00	0	39	0	91226112	66	4718
2026-01-20 23:40:37.15	24.40	7.64	-47.4	-49.5	16.9	0.00e+00	0	39	0	98566144	66	4567
2026-01-20 23:40:41.18	24.58	7.94	-47.2	-49.2	17.2	0.00e+00	0	39	0	106954752	66	4438
2026-01-20 23:40:45.21	24.77	8.25	-47.1	-49.1	17.3	0.00e+00	0	39	0	114294784	66	4377
2026-01-20 23:40:49.24	24.96	8.57	-47.0	-48.9	17.5	0.00e+00	0	39	0	121634816	66	4282
2026-01-20 23:40:53.28	25.16	8.89	-46.9	-48.8	17.7	0.00e+00	0	39	0	128974848	65	4466
2026-01-20 23:40:57.31	25.36	9.21	-47.0	-48.8	17.7	0.00e+00	0	39	0	137363456	65	4484
2026-01-20 23:41:01.34	25.56	9.53	-46.7	-48.5	18.0	0.00e+00	0	39	0	144703488	65	4307
2026-01-20 23:41:05.37	25.77	9.86	-46.9	-48.8	17.8	0.00e+00	0	39	0	152043520	65	4453
2026-01-20 23:41:09.40	25.98	10.20	-46.7	-48.4	18.2	0.00e+00	0	39	0	159383552	65	4285
2026-01-20 23:41:13.43	26.19	10.54	-46.4	-48.1	18.5	0.00e+00	0	39	0	166723584	64	4344
2026-01-20 23:41:17.46	26.42	10.88	-46.4	-48.1	18.5	0.00e+00	0	39	0	174063616	64	4375
2026-01-20 23:41:21.49	26.64	11.22	-46.2	-47.8	18.8	0.00e+00	0	39	0	182452224	64	4227
2026-01-20 23:41:25.52	26.87	11.58	-46.0	-47.5	19.2	0.00e+00	0	39	0	189792256	63	4327
2026-01-20 23:41:29.56	27.11	11.93	-45.8	-47.3	19.5	0.00e+00	0	39	0	197132288	63	4220
2026-01-20 23:41:33.59	27.35	12.29	-45.8	-47.3	19.5	0.00e+00	0	39	0	204472320	63	4208
2026-01-20 23:41:37.62	27.60	12.66	-45.5	-46.9	19.9	0.00e+00	0	39	0	212860928	63	4035
2026-01-20 23:41:41.65	27.85	13.03	-45.5	-46.9	19.9	0.00e+00	0	39	0	220200960	62	4247
2026-01-20 23:41:45.68	28.11	13.41	-45.5	-46.9	19.9	0.00e+00	0	39	0	227540992	62	4276
2026-01-20 23:41:49.71	28.37	13.79	-45.3	-46.6	20.2	0.00e+00	0	39	0	234881024	62	4127
2026-01-20 23:41:53.74	28.64	14.18	-45.3	-46.6	20.3	0.00e+00	0	39	0	242221056	62	4131
2026-01-20 23:41:57.77	28.92	14.57	-45.3	-46.6	20.2	0.00e+00	0	39	0	250609664	62	4121
2026-01-20 23:42:01.80	29.21	14.97	-45.4	-46.8	20.1	0.00e+00	0	39	0	257949696	62	4194
2026-01-20 23:42:05.83	29.50	15.37	-45.3	-46.7	20.2	0.00e+00	0	39	0	265289728	62	4150
2026-01-20 23:42:09.86	29.80	15.79	-45.2	-46.5	20.4	0.00e+00	0	39	0	272629760	62	4097
2026-01-20 23:42:13.89	30.11	16.20	-45.3	-46.7	20.3	0.00e+00	0	39	0	279969792	62	4164
2026-01-20 23:42:17.92	30.42	16.63	-45.1	-46.3	20.6	0.00e+00	0	39	0	288358400	62	4004
2026-01-20 23:42:21.95	30.75	17.06	-44.9	-46.1	20.8	0.00e+00	0	39	0	295698432	61	4139
2026-01-20 23:42:25.99	31.08	17.50	-44.8	-46.0	20.9	0.00e+00	0	39	0	303038464	61	4098
2026-01-20 23:42:30.02	31.42	17.94	-44.8	-46.0	20.9	0.00e+00	0	39	0	310378496	61	4063
2026-01-20 23:42:34.05	31.78	18.39	-45.0	-46.3	20.7	0.00e+00	0	39	0	317718528	61	4206
2026-01-20 23:42:38.09	32.14	18.85	-45.1	-46.4	20.6	0.00e+00	0	39	0	326107136	61	4259
2026-01-20 23:42:42.13	32.52	19.32	-45.2	-46.5	20.5	0.00e+00	0	39	0	333447168	61	4302
2026-01-20 23:42:46.16	32.90	19.80	-45.3	-46.6	20.4	0.00e+00	0	39	0	340787200	61	4368
2026-01-20 23:42:50.19	33.30	20.28	-45.3	-46.6	20.3	0.00e+00	0	39	0	348127232	61	4390
2026-01-20 23:42:54.22	33.70	20.77	-45.3	-46.6	20.4	0.00e+00	0	39	0	356515840	61	4345
2026-01-20 23:42:58.25	34.12	21.27	-45.2	-46.5	20.5	0.00e+00	0	39	0	363855872	61	4313
2026-01-20 23:43:02.29	34.56	21.78	-45.2	-46.5	20.5	0.00e+00	0	40	0	371195904	61	4305
2026-01-20 23:43:06.32	35.01	22.30	-45.1	-46.4	20.6	0.00e+00	0	39	0	378535936	61	4275
2026-01-20 23:43:10.36	35.47	22.83	-45.2	-46.4	20.6	0.00e+00	0	40	0	385875968	61	4277
2026-01-20 23:43:14.39	35.95	23.36	-44.9	-46.2	20.8	0.00e+00	0	40	0	394264576	61	4156
2026-01-20 23:43:18.42	36.45	23.90	-45.1	-46.3	20.8	0.00e+00	0	39	0	401604608	61	4211
2026-01-20 23:43:22.45	36.96	24.46	-45.3	-46.6	20.5	0.00e+00	0	39	0	408944640	61	4352
2026-01-20 23:43:26.48	37.49	25.02	-45.3	-46.6	20.4	0.00e+00	0	39	0	416284672	61	4387
2026-01-20 23:43:30.51	38.03	25.60	-45.6	-46.9	20.2	0.00e+00	0	40	0	423624704	61	4513
2026-01-20 23:43:34.55	38.60	26.18	-45.7	-47.0	20.1	0.00e+00	0	40	0	432013312	61	4589
2026-01-20 23:43:38.58	39.19	26.77	-46.0	-47.4	19.7	0.00e+00	0	39	0	439353344	62	4540
2026-01-20 23:43:42.62	39.80	27.38	-45.9	-47.2	19.9	0.00e+00	0	40	0	446693376	62	4441
2026-01-20 23:43:46.65	40.43	27.99	-46.2	-47.6	19.6	0.00e+00	0	39	0	454033408	62	4634
2026-01-20 23:43:50.69	41.09	28.61	-46.5	-48.0	19.2	0.00e+00	0	39	0	462422016	63	4563
2026-01-20 23:43:54.72	41.78	29.25	-46.9	-48.6	18.6	0.00e+00	0	39	0	469762048	64	4609
2026-01-20 23:43:58.76	42.49	29.89	-47.5	-49.3	17.9	0.00e+00	0	39	0	477102080	65	4731
2026-01-20 23:44:02.79	43.23	30.55	-48.0	-50.0	17.2	0.00e+00	0	40	0	484442112	66	4848
2026-01-20 23:44:06.83	43.99	31.21	-48.2	-50.2	17.0	0.00e+00	0	40	0	491782144	66	4958
2026-01-20 23:44:10.87	44.80	31.89	-47.7	-49.5	17.7	0.00e+00	0	39	0	500170752	66	4590
2026-01-20 23:44:14.90	45.63	32.57	-47.2	-48.9	18.3	0.00e+00	0	40	0	507510784	66	4282
2026-01-20 23:44:18.93	46.50	33.26	-46.6	-48.1	19.0	0.00e+00	0	39	0	514850816	65	4120
2026-01-20 23:44:22.97	47.40	33.96	-46.0	-47.4	19.9	0.00e+00	0	39	0	522190848	63	4277
2026-01-20 23:44:27.00	48.35	34.67	-46.0	-47.4	20.0	0.00e+00	0	40	0	530579456	63	4252
2026-01-20 23:44:31.03	49.33	35.38	-45.2	-46.4	20.9	0.00e+00	0	39	0	537919488	62	4028
2026-01-20 23:44:35.06	50.36	36.11	-45.9	-47.3	20.0	0.00e+00	0	39	0	545259520	62	4484
2026-01-20 23:44:39.10	51.44	36.84	-45.5	-46.8	20.5	0.00e+00	0	39	0	552599552	62	4223
2026-01-20 23:44:43.13	52.56	37.57	-45.0	-46.2	21.1	0.00e+00	0	39	0	559939584	61	4171
2026-01-20 23:44:47.16	53.74	38.31	-44.5	-45.6	21.6	0.00e+00	0	40	0	567279616	61	3906
2026-01-20 23:44:51.19	54.97	39.05	-45.6	-47.0	20.4	0.00e+00	0	39	0	575668224	61	4549
2026-01-20 23:44:55.22	56.25	39.79	-45.2	-46.4	20.9	0.00e+00	0	39	0	583008256	61	4254
2026-01-20 23:44:59.24	57.59	40.52	-45.8	-47.1	20.3	0.00e+00	0	40	0	590348288	62	4369
2026-01-20 23:45:03.27	59.00	41.26	-46.0	-47.4	20.0	0.00e+00	0	40	0	597688320	63	4255
2026-01-20 23:45:07.31	60.47	41.99	-46.2	-47.6	19.8	0.00e+00	0	40	0	606076928	63	4348
2026-01-20 23:45:11.34	62.01	42.72	-46.1	-47.5	20.0	0.00e+00	0	39	0	613416960	63	4303
2026-01-20 23:45:15.37	63.61	43.44	-45.7	-47.0	20.4	0.00e+00	0	40	0	620756992	63	4086
2026-01-20 23:45:19.39	65.29	44.14	-46.0	-47.3	20.1	0.00e+00	0	40	0	628097024	63	4223
2026-01-20 23:45:23.42	67.04	44.82	-45.8	-47.1	20.3	0.00e+00	0	40	0	635437056	63	4111
2026-01-20 23:45:27.45	68.87	45.49	-45.8	-47.1	20.2	0.00e+00	0	40	0	643825664	63	4120
2026-01-20 23:45:31.48	70.77	46.14	-46.3	-47.7	19.7	0.00e+00	0	40	0	651165696	63	4430
2026-01-20 23:45:35.52	72.76	46.77	-46.4	-47.9	19.5	0.00e+00	0	40	0	658505728	63	4531
2026-01-20 23:45:39.54	74.82	47.36	-46.8	-48.3	19.0	0.00e+00	0	40	0	665845760	64	4487
2026-01-20 23:45:43.58	76.96	47.92	-46.4	-47.9	19.5	0.00e+00	0	40	0	673185792	64	4269
2026-01-20 23:45:47.61	79.17	48.44	-46.8	-48.3	19.1	0.00e+00	0	40	0	681574400	64	4469
2026-01-20 23:45:51.64	81.46	48.92	-47.7	-49.5	17.9	0.00e+00	0	40	0	688914432	66	4587
2026-01-20 23:45:55.67	83.81	49.36	-46.4	-47.9	19.5	0.00e+00	0	40	0	696254464	64	4244
2026-01-20 23:45:59.70	86.23	49.75	-47.8	-49.7	17.7	0.00e+00	0	40	0	703594496	66	4666
2026-01-20 23:46:03.73	88.71	50.09	-45.7	-47.0	20.3	0.00e+00	0	40	0	710934528	63	4074
2026-01-20 23:46:07.76	91.24	50.37	-46.8	-48.4	19.0	0.00e+00	0	39	0	719323136	64	4523
2026-01-20 23:46:11.79	93.81	50.60	-44.9	-46.0	21.3	0.00e+00	0	39	0	726663168	61	4087
2026-01-20 23:46:15.82	96.41	50.76	-46.1	-47.5	20.0	0.00e+00	0	39	0	734003200	62	4562
2026-01-20 23:46:19.85	99.04	50.87	-44.9	-46.1	21.3	0.00e+00	0	40	0	741343232	61	4124
2026-01-20 23:46:23.88	101.68	50.91	-45.7	-47.1	20.3	0.00e+00	0	40	0	749731840	62	4343
2026-01-20 23:46:27.92	104.34	50.89	-46.3	-47.8	19.6	0.00e+00	0	40	0	757071872	64	4199
2026-01-20 23:46:31.95	106.97	50.81	-46.2	-47.6	19.9	0.00e+00	0	40	0	764411904	63	4353
2026-01-20 23:46:35.98	109.59	50.66	-46.2	-47.6	19.8	0.00e+00	0	40	0	771751936	63	4380
2026-01-20 23:46:40.02	112.18	50.46	-45.6	-46.9	20.5	0.00e+00	0	39	0	779091968	63	4019
2026-01-20 23:46:44.05	114.72	50.20	-46.1	-47.5	19.9	0.00e+00	0	39	0	786432000	63	4307
2026-01-20 23:46:48.09	117.23	49.87	-48.3	-50.3	17.1	0.00e+00	0	40	0	794820608	68	4468
2026-01-20 23:46:52.12	119.67	49.50	-48.8	-51.1	16.4	0.00e+00	0	39	0	802160640	68	4921
2026-01-20 23:46:56.15	122.05	49.08	-49.1	-51.5	16.0	0.00e+00	0	40	0	809500672	68	5125
2026-01-20 23:47:00.18	124.37	48.61	-48.4	-50.5	16.9	0.00e+00	0	39	0	816840704	68	4565
2026-01-20 23:47:04.22	126.61	48.10	-48.0	-49.9	17.5	0.00e+00	0	40	0	825229312	68	4276
2026-01-20 23:47:08.25	128.78	47.55	-47.8	-49.6	17.7	0.00e+00	0	40	0	832569344	67	4379
2026-01-20 23:47:12.27	130.87	46.97	-47.7	-49.5	17.8	0.00e+00	0	39	0	839909376	65	4851
2026-01-20 23:47:16.31	132.88	46.35	-47.1	-48.8	18.5	0.00e+00	0	39	0	847249408	65	4480
2026-01-20 23:47:20.34	134.82	45.71	-47.2	-48.9	18.5	0.00e+00	0	40	0	854589440	66	4255
2026-01-20 23:47:24.38	136.68	45.05	-47.5	-49.3	18.0	0.00e+00	0	40	0	862978048	66	4488
2026-01-20 23:47:28.41	138.46	44.36	-46.1	-47.5	19.8	0.00e+00	0	40	0	870318080	64	4084
2026-01-20 23:47:32.44	140.17	43.66	-46.8	-48.4	18.8	0.00e+00	0	40	0	877658112	64	4527
2026-01-20 23:47:36.47	141.80	42.95	-46.5	-48.0	19.3	0.00e+00	0	39	0	884998144	63	4554
2026-01-20 23:47:40.50	143.37	42.22	-46.0	-47.4	20.0	0.00e+00	0	40	0	893386752	63	4244
2026-01-20 23:47:44.53	144.86	41.49	-47.4	-49.2	18.1	0.00e+00	0	39	0	900726784	65	4682
2026-01-20 23:47:48.56	146.29	40.75	-47.0	-48.6	18.6	0.00e+00	0	40	0	908066816	65	4387
2026-01-20 23:47:52.59	147.66	40.01	-49.9	-52.9	14.4	0.00e+00	0	40	0	915406848	70	5388
2026-01-20 23:47:56.63	148.97	39.27	-48.4	-50.5	16.8	0.00e+00	0	40	0	922746880	68	4591
2026-01-20 23:48:00.66	150.21	38.52	-49.2	-51.8	15.4	2.20e-06	0	40	0	930086912	70	4747
2026-01-20 23:48:04.69	151.41	37.78	-47.8	-49.7	17.5	0.00e+00	0	40	0	938475520	66	4698
2026-01-20 23:48:08.72	152.55	37.05	-48.4	-50.5	16.7	0.00e+00	0	39	0	945815552	68	4593
2026-01-20 23:48:12.75	153.64	36.31	-47.0	-48.6	18.6	0.00e+00	0	40	0	953155584	64	4649
2026-01-20 23:48:16.78	154.69	35.59	-47.5	-49.4	17.7	0.00e+00	0	40	0	960495616	67	4263
2026-01-20 23:48:20.82	155.69	34.86	-46.3	-47.8	19.4	0.00e+00	0	39	0	968884224	63	4466
2026-01-20 23:48:24.85	156.65	34.15	-48.6	-50.9	16.3	0.00e+00	0	40	0	976224256	69	4509
2026-01-20 23:48:28.88	157.57	33.44	-46.4	-47.9	19.2	0.00e+00	0	40	0	983564288	64	4266
2026-01-20 23:48:32.91	158.45	32.75	-48.3	-50.5	16.7	0.00e+00	0	40	0	990904320	67	4857
2026-01-20 23:48:36.94	159.30	32.06	-48.0	-50.0	17.1	0.00e+00	0	39	0	998244352	68	4339
2026-01-20 23:48:40.97	160.11	31.38	-47.0	-48.6	18.5	0.00e+00	0	40	0	1006632960	66	4127
2026-01-20 23:48:45.00	160.89	30.71	-48.9	-51.3	15.9	0.00e+00	0	40	0	1013972992	68	5038
2026-01-20 23:48:49.04	161.64	30.05	-48.6	-50.9	16.3	0.00e+00	0	40	0	1021313024	69	4536
2026-01-20 23:48:53.07	162.36	29.40	-47.3	-49.0	18.1	0.00e+00	0	39	0	1028653056	66	4334
2026-01-20 23:48:57.10	163.05	28.76	-47.7	-49.6	17.5	0.00e+00	0	40	0	1035993088	66	4634
2026-01-20 23:49:01.13	163.71	28.13	-47.2	-49.0	18.1	0.00e+00	0	39	0	1044381696	66	4308
2026-01-20 23:49:05.16	164.35	27.51	-46.1	-47.6	19.4	0.00e+00	0	40	0	1051721728	64	4127
2026-01-20 23:49:09.19	164.97	26.90	-46.1	-47.6	19.4	0.00e+00	0	40	0	1059061760	64	4114
2026-01-20 23:49:13.23	165.57	26.30	-46.8	-48.5	18.5	0.00e+00	0	40	0	1066401792	64	4557
2026-01-20 23:49:17.26	166.14	25.71	-46.8	-48.5	18.5	0.00e+00	0	40	0	1073741824	64	4577
2026-01-20 23:49:21.29	166.70	25.14	-46.3	-47.9	19.1	0.00e+00	0	40	0	1082130432	64	4252
2026-01-20 23:49:25.32	167.23	24.57	-46.1	-47.6	19.5	0.00e+00	0	40	0	1089470464	63	4348
2026-01-20 23:49:29.35	167.75	24.01	-46.6	-48.2	18.9	0.00e+00	0	40	0	1096810496	63	4659
2026-01-20 23:49:33.39	168.25	23.46	-46.5	-48.1	18.9	0.00e+00	0	40	0	1104150528	63	4610
2026-01-20 23:49:37.41	168.73	22.92	-46.0	-47.4	19.5	0.00e+00	0	40	0	1112539136	63	4284
2026-01-20 23:49:41.45	169.20	22.38	-45.9	-47.3	19.7	0.00e+00	0	40	0	1119879168	63	4217
2026-01-20 23:49:45.48	169.65	21.86	-46.2	-47.7	19.3	0.00e+00	0	40	0	1127219200	63	4395
2026-01-20 23:49:49.51	170.09	21.35	-46.6	-48.3	18.6	0.00e+00	0	40	0	1134559232	64	4485
2026-01-20 23:49:53.54	170.51	20.85	-46.7	-48.4	18.5	0.00e+00	0	40	0	1141899264	64	4496
2026-01-20 23:49:57.57	170.93	20.35	-46.0	-47.5	19.4	0.00e+00	0	40	0	1149239296	64	4064
2026-01-20 23:50:01.61	171.33	19.86	-45.6	-46.9	20.0	0.00e+00	0	40	0	1157627904	63	4035
2026-01-20 23:50:05.64	171.71	19.38	-45.6	-47.0	20.0	0.00e+00	0	40	0	1164967936	62	4295
2026-01-20 23:50:09.67	172.09	18.91	-46.1	-47.6	19.3	0.00e+00	0	40	0	1172307968	62	4611
2026-01-20 23:50:13.70	172.45	18.45	-46.4	-48.0	19.0	0.00e+00	0	40	0	1179648000	63	4555
2026-01-20 23:50:17.74	172.81	17.99	-45.9	-47.4	19.4	0.00e+00	0	40	0	1188036608	63	4282
2026-01-20 23:50:21.77	173.15	17.54	-45.6	-46.9	19.9	0.00e+00	0	40	0	1195376640	63	4051
2026-01-20 23:50:25.80	173.49	17.10	-45.2	-46.5	20.3	0.00e+00	0	40	0	1202716672	62	4073
2026-01-20 23:50:29.83	173.82	16.66	-44.8	-46.0	20.7	0.00e+00	0	40	0	1210056704	61	4087
2026-01-20 23:50:33.86	174.13	16.23	-45.0	-46.3	20.4	0.00e+00	0	40	0	1217396736	61	4233
2026-01-20 23:50:37.89	174.44	15.81	-45.6	-47.0	19.8	0.00e+00	0	40	0	1225785344	61	4570
2026-01-20 23:50:41.92	174.74	15.40	-46.1	-47.6	19.1	0.00e+00	0	39	0	1233125376	62	4651
2026-01-20 23:50:45.95	175.04	14.99	-46.3	-47.9	18.8	0.00e+00	0	39	0	1240465408	63	4525
2026-01-20 23:50:49.98	175.32	14.59	-46.3	-47.9	18.9	0.00e+00	0	40	0	1247805440	63	4507
2026-01-20 23:50:54.02	175.60	14.19	-45.9	-47.4	19.3	0.00e+00	0	39	0	1256194048	63	4278
2026-01-20 23:50:58.05	175.87	13.80	-45.7	-47.1	19.5	0.00e+00	0	40	0	1263534080	63	4139
2026-01-20 23:51:02.08	176.14	13.41	-45.7	-47.1	19.5	0.00e+00	0	40	0	1270874112	63	4145
2026-01-20 23:51:06.11	176.40	13.03	-45.8	-47.3	19.4	0.00e+00	0	40	0	1278214144	63	4218
2026-01-20 23:51:10.15	176.65	12.66	-46.0	-47.5	19.1	0.00e+00	0	40	0	1285554176	63	4328
2026-01-20 23:51:14.18	176.90	12.29	-46.2	-47.8	18.9	0.00e+00	0	40	0	1293942784	63	4454
2026-01-20 23:51:18.21	177.14	11.93	-46.6	-48.4	18.3	0.00e+00	0	40	0	1301282816	63	4780
2026-01-20 23:51:22.24	177.37	11.57	-46.6	-48.4	18.3	0.00e+00	0	40	0	1308622848	63	4760
2026-01-20 23:51:26.27	177.60	11.21	-46.5	-48.3	18.2	0.00e+00	0	40	0	1315962880	64	4469
2026-01-20 23:51:30.30	177.83	10.86	-46.4	-48.2	18.3	0.00e+00	0	40	0	1323302912	64	4395
2026-01-20 23:51:34.33	178.05	10.52	-46.3	-48.0	18.4	0.00e+00	0	40	0	1331691520	64	4328
2026-01-20 23:51:38.37	178.27	10.18	-46.3	-48.0	18.4	0.00e+00	0	40	0	1339031552	64	4313
2026-01-20 23:51:42.40	178.48	9.84	-46.3	-48.0	18.4	0.00e+00	0	40	0	1346371584	64	4325
2026-01-20 23:51:46.43	178.68	9.51	-46.3	-48.0	18.4	0.00e+00	0	40	0	1353711616	64	4302
2026-01-20 23:51:50.47	178.89	9.18	-46.2	-47.9	18.5	0.00e+00	0	40	0	1361051648	64	4247
2026-01-20 23:51:54.50	179.08	8.86	-46.3	-48.0	18.4	0.00e+00	0	40	0	1369440256	64	4324
2026-01-20 23:51:58.53	179.28	8.54	-46.4	-48.2	18.1	0.00e+00	0	40	0	1376780288	64	4423
2026-01-20 23:52:02.56	179.47	8.22	-46.6	-48.4	18.0	0.00e+00	0	40	0	1384120320	64	4499
2026-01-20 23:52:06.60	179.66	7.91	-46.7	-48.6	17.7	0.00e+00	0	40	0	1391460352	64	4610
2026-01-20 23:52:10.63	179.84	7.60	-46.8	-48.7	17.6	0.00e+00	0	40	0	1398800384	64	4691
2026-01-20 23:52:14.67	180.02	7.29	-47.1	-49.1	17.2	0.00e+00	0	40	0	1407188992	64	4913
2026-01-20 23:52:18.70	180.19	6.99	-47.6	-49.8	16.5	0.00e+00	0	40	0	1414529024	65	5008
2026-01-20 23:52:22.73	180.37	6.69	-47.4	-49.5	16.7	0.00e+00	0	40	0	1421869056	65	4870
2026-01-20 23:52:26.77	180.54	6.40	-47.3	-49.5	16.7	0.00e+00	0	40	0	1429209088	65	4850
2026-01-20 23:52:30.80	180.70	6.10	-47.4	-49.6	16.6	0.00e+00	0	40	0	1437597696	65	4887
2026-01-20 23:52:34.83	180.87	5.81	-47.5	-49.8	16.3	0.00e+00	0	40	0	1444937728	66	4734
2026-01-20 23:52:38.87	181.03	5.53	-47.4	-49.6	16.5	0.00e+00	0	40	0	1452277760	66	4634
2026-01-20 23:52:42.90	181.19	5.24	-47.3	-49.5	16.5	0.00e+00	0	40	0	1459617792	66	4579
2026-01-20 23:52:46.93	181.34	4.96	-52.3	-67.4	3.8	2.25e-01	0	40	104	1466957824	75	21308
2026-01-20 23:52:50.97	181.49	4.68	-53.2	-68.2	3.8	1.49e+00	0	40	104	1466957824	76	22058
2026-01-20 23:52:55.00	181.64	4.41	-53.5	-68.5	3.8	1.49e+00	0	40	104	1466957824	77	21526
2026-01-20 23:52:59.03	181.79	4.14	-53.6	-68.7	3.8	1.49e+00	0	40	104	1466957824	77	22022
2026-01-20 23:53:03.07	181.94	3.87	-53.8	-68.8	3.8	1.49e+00	0	40	104	1466957824	78	21174
2026-01-20 23:53:07.10	182.08	3.60	-53.9	-68.9	3.8	1.49e+00	0	40	104	1466957824	78	21418
2026-01-20 23:53:11.13	182.22	3.34	-54.0	-69.0	3.8	1.49e+00	0	40	104	1466957824	78	21595
2026-01-20 23:53:15.16	182.36	3.07	-53.8	-68.8	3.8	1.49e+00	0	40	104	1466957824	78	21083
2026-01-20 23:53:19.19	182.49	2.81	-53.5	-68.5	3.8	1.49e+00	0	40	104	1466957824	78	20473
2026-01-20 23:53:23.23	182.63	2.55	-53.1	-68.1	3.8	1.49e+00	0	40	104	1466957824	78	19549
2026-01-20 23:53:27.26	182.76	2.30	-53.1	-68.1	3.8	1.49e+00	0	40	104	1466957824	78	19462
2026-01-20 23:53:31.29	182.89	2.05	-53.1	-68.1	3.8	1.49e+00	0	40	104	1466957824	78	19461

#Closed at: 2026-01-20 23:53:33
#Recorded file [1466 MB]: D:/lorett/data/31041_260121_023916.dat