passes_logs/2026/01/20/R3.2S_Murmansk/R3.2S_Murmansk__20260120_081536_NOAA_20_JPSS-1_rec.log

#Pass ID: 20260120_081536_NOAA 20 (JPSS-1)
#Satellite: NOAA 20 (JPSS-1)
#Configuration: NOAA 20
#almurnet v.1.7.20251203
#Start time: 2026-01-20 08:15:36

#Version: 2.2.20231116
#Station: R3.2S_Murmansk
#Location: 33.079688 lon 68.888172 lat
#TLE: 1 43013U 17073A   26019.91154542  .00000116  00000+0  76014-4 0  9997
#TLE: 2 43013  98.7642 320.7991 0001304  32.0041 328.1214 14.19537346423438

#Time	Az	El	Level	Level2	SNR	BER	BlckErr	Temp	State	Recorded	gain1	gain2
2026-01-20 08:15:36.13	122.15	1.97	-50.8	-65.8	3.8	1.49e+00	0	37	0	0	73	19883
2026-01-20 08:15:40.15	122.04	2.22	-50.8	-65.7	3.8	1.49e+00	0	37	104	0	72	21017
2026-01-20 08:15:44.18	121.93	2.48	-50.8	-65.8	3.8	1.49e+00	0	37	104	0	72	21048
2026-01-20 08:15:48.22	121.81	2.74	-50.8	-65.8	3.8	1.49e+00	0	37	104	0	72	21033
2026-01-20 08:15:52.25	121.69	3.00	-50.8	-65.7	3.8	1.49e+00	0	37	104	0	72	20973
2026-01-20 08:15:56.28	121.56	3.26	-50.8	-65.7	3.8	1.49e+00	0	37	104	0	72	20785
2026-01-20 08:16:00.31	121.44	3.53	-50.8	-65.4	3.8	1.49e+00	0	37	104	0	72	20171
2026-01-20 08:16:04.34	121.31	3.79	-50.8	-64.6	3.8	1.49e+00	0	37	104	0	72	18324
2026-01-20 08:16:08.38	121.18	4.07	-50.7	-63.4	4.0	1.48e+00	0	37	104	0	72	15997
2026-01-20 08:16:12.41	121.05	4.34	-50.6	-62.5	4.1	1.44e+00	0	38	0	0	72	14399
2026-01-20 08:16:16.44	120.91	4.61	-50.3	-59.1	5.7	5.12e-01	0	37	0	5242880	72	9749
2026-01-20 08:16:20.47	120.77	4.89	-49.4	-54.7	9.8	1.37e-02	0	38	0	12582912	70	6638
2026-01-20 08:16:24.50	120.63	5.17	-50.5	-60.2	4.2	1.49e+00	0	38	104	18874368	72	11066
2026-01-20 08:16:28.54	120.48	5.46	-48.6	-52.5	12.2	2.13e-03	0	38	0	25165824	69	5451
2026-01-20 08:16:32.57	120.34	5.74	-48.4	-52.1	12.8	4.73e-05	0	38	0	32505856	68	5483
2026-01-20 08:16:36.60	120.19	6.03	-48.4	-52.1	12.8	4.11e-05	0	38	0	39845888	68	5499
2026-01-20 08:16:40.63	120.03	6.33	-48.3	-51.9	13.1	3.43e-05	0	38	0	48234496	68	5346
2026-01-20 08:16:44.66	119.87	6.62	-48.2	-51.6	13.3	1.44e-05	0	38	0	55574528	68	5208
2026-01-20 08:16:48.70	119.71	6.92	-48.3	-51.7	13.2	2.89e-05	0	38	0	62914560	68	5260
2026-01-20 08:16:52.73	119.55	7.23	-48.2	-51.5	13.5	1.06e-05	0	38	0	70254592	68	5144
2026-01-20 08:16:56.76	119.38	7.53	-48.2	-51.5	13.6	9.90e-06	0	38	0	78643200	68	5106
2026-01-20 08:17:00.79	119.20	7.84	-48.2	-51.6	13.4	1.83e-05	0	38	0	85983232	68	5204
2026-01-20 08:17:04.81	119.03	8.15	-48.1	-51.2	13.9	5.30e-06	0	38	0	93323264	68	4979
2026-01-20 08:17:08.84	118.85	8.47	-48.2	-51.5	13.7	1.50e-06	0	38	0	100663296	68	5112
2026-01-20 08:17:12.87	118.66	8.79	-47.9	-51.0	14.0	6.10e-06	0	38	0	108003328	67	5129
2026-01-20 08:17:16.90	118.47	9.11	-47.9	-51.0	14.0	2.20e-06	0	38	0	116391936	67	5158
2026-01-20 08:17:20.93	118.28	9.44	-47.9	-51.0	14.1	1.50e-06	0	38	0	123731968	67	5115
2026-01-20 08:17:24.96	118.08	9.77	-47.9	-50.9	14.2	3.00e-06	0	38	0	131072000	67	5065
2026-01-20 08:17:28.99	117.88	10.11	-47.7	-50.6	14.5	1.50e-06	0	38	0	138412032	67	4922
2026-01-20 08:17:33.03	117.67	10.45	-47.8	-50.7	14.5	0.00e+00	0	38	0	145752064	67	4973
2026-01-20 08:17:37.06	117.45	10.79	-47.7	-50.6	14.6	0.00e+00	0	38	0	154140672	67	4889
2026-01-20 08:17:41.09	117.24	11.14	-47.6	-50.4	14.8	0.00e+00	0	38	0	161480704	67	4796
2026-01-20 08:17:45.12	117.01	11.50	-47.6	-50.3	14.9	0.00e+00	0	38	0	168820736	67	4734
2026-01-20 08:17:49.15	116.78	11.85	-47.5	-50.2	15.0	0.00e+00	0	38	0	176160768	66	4954
2026-01-20 08:17:53.18	116.54	12.22	-47.4	-50.1	15.2	0.00e+00	0	38	0	183500800	66	4901
2026-01-20 08:17:57.21	116.30	12.59	-47.5	-50.1	15.2	0.00e+00	0	38	0	191889408	66	4901
2026-01-20 08:18:01.25	116.05	12.96	-47.4	-50.0	15.2	0.00e+00	0	38	0	199229440	66	4855
2026-01-20 08:18:05.28	115.79	13.34	-47.3	-49.8	15.6	0.00e+00	0	38	0	206569472	66	4713
2026-01-20 08:18:09.31	115.53	13.72	-47.3	-49.8	15.5	0.00e+00	0	38	0	213909504	66	4742
2026-01-20 08:18:13.34	115.26	14.11	-47.3	-49.8	15.6	0.00e+00	0	38	0	222298112	66	4713
2026-01-20 08:18:17.37	114.98	14.51	-47.3	-49.8	15.5	0.00e+00	0	38	0	229638144	66	4743
2026-01-20 08:18:21.40	114.69	14.91	-47.2	-49.7	15.7	0.00e+00	0	38	0	236978176	66	4669
2026-01-20 08:18:25.43	114.40	15.31	-47.3	-49.8	15.6	0.00e+00	0	38	0	244318208	66	4718
2026-01-20 08:18:29.46	114.10	15.73	-47.2	-49.7	15.7	0.00e+00	0	38	0	251658240	66	4677
2026-01-20 08:18:33.49	113.79	16.14	-47.1	-49.6	15.8	0.00e+00	0	38	0	260046848	66	4600
2026-01-20 08:18:37.52	113.47	16.57	-47.2	-49.7	15.7	0.00e+00	0	38	0	267386880	66	4653
2026-01-20 08:18:41.55	113.14	17.00	-47.2	-49.6	15.8	0.00e+00	0	38	0	274726912	66	4625
2026-01-20 08:18:45.58	112.79	17.44	-47.2	-49.7	15.6	0.00e+00	0	38	0	282066944	66	4692
2026-01-20 08:18:49.61	112.44	17.88	-47.3	-49.8	15.6	0.00e+00	0	38	0	289406976	66	4717
2026-01-20 08:18:53.64	112.08	18.34	-47.4	-50.0	15.4	0.00e+00	0	39	0	297795584	66	4843
2026-01-20 08:18:57.67	111.71	18.80	-47.6	-50.2	15.1	0.00e+00	0	39	0	305135616	66	4967
2026-01-20 08:19:01.71	111.32	19.26	-47.6	-50.2	15.1	0.00e+00	0	38	0	312475648	66	4981
2026-01-20 08:19:05.74	110.93	19.74	-47.7	-50.5	14.8	0.00e+00	0	38	0	319815680	66	5135
2026-01-20 08:19:09.77	110.51	20.22	-47.8	-50.7	14.6	0.00e+00	0	38	0	327155712	66	5251
2026-01-20 08:19:13.80	110.09	20.71	-47.9	-50.8	14.5	0.00e+00	0	39	0	335544320	66	5304
2026-01-20 08:19:17.83	109.65	21.21	-47.9	-50.8	14.5	1.50e-06	0	38	0	342884352	66	5326
2026-01-20 08:19:21.86	109.20	21.71	-48.0	-50.9	14.4	0.00e+00	0	38	0	350224384	66	5392
2026-01-20 08:19:25.89	108.73	22.23	-48.1	-51.1	14.3	0.00e+00	0	38	0	357564416	66	5475
2026-01-20 08:19:29.92	108.25	22.75	-47.9	-50.8	14.5	7.00e-07	0	38	0	364904448	66	5310
2026-01-20 08:19:33.95	107.74	23.28	-48.0	-51.0	14.3	0.00e+00	0	38	0	373293056	66	5449
2026-01-20 08:19:37.98	107.22	23.82	-48.1	-51.2	14.1	1.50e-06	0	38	0	380633088	66	5547
2026-01-20 08:19:42.01	106.69	24.36	-47.9	-50.8	14.5	7.00e-07	0	38	0	387973120	66	5315
2026-01-20 08:19:46.04	106.13	24.92	-47.8	-50.6	14.8	0.00e+00	0	39	0	395313152	66	5169
2026-01-20 08:19:50.07	105.55	25.49	-47.8	-50.6	14.7	0.00e+00	0	39	0	403701760	66	5207
2026-01-20 08:19:54.10	104.95	26.06	-47.8	-50.6	14.8	0.00e+00	0	39	0	411041792	66	5186
2026-01-20 08:19:58.13	104.33	26.64	-47.9	-50.7	14.6	7.00e-07	0	38	0	418381824	66	5257
2026-01-20 08:20:02.17	103.68	27.23	-47.7	-50.5	14.9	0.00e+00	0	38	0	425721856	66	5110
2026-01-20 08:20:06.20	103.01	27.83	-47.9	-50.9	14.5	7.00e-07	0	38	0	433061888	66	5349
2026-01-20 08:20:10.23	102.31	28.44	-47.8	-50.6	14.7	0.00e+00	0	38	0	441450496	66	5214
2026-01-20 08:20:14.26	101.58	29.06	-47.8	-50.5	14.8	0.00e+00	0	39	0	448790528	66	5157
2026-01-20 08:20:18.29	100.83	29.69	-47.9	-50.7	14.6	0.00e+00	0	38	0	456130560	66	5276
2026-01-20 08:20:22.33	100.04	30.32	-48.4	-51.7	13.6	4.50e-06	0	39	0	463470592	67	5568
2026-01-20 08:20:26.36	99.22	30.96	-48.6	-52.1	13.2	2.67e-05	0	39	0	470810624	67	5817
2026-01-20 08:20:30.39	98.37	31.61	-48.9	-52.6	12.8	4.73e-05	0	38	0	479199232	68	5795
2026-01-20 08:20:34.42	97.49	32.27	-48.9	-52.7	12.7	7.78e-05	0	39	0	486539264	68	5865
2026-01-20 08:20:38.45	96.56	32.93	-48.9	-52.7	12.7	5.18e-05	0	38	0	493879296	68	5876
2026-01-20 08:20:42.49	95.60	33.60	-49.1	-53.0	12.4	1.70e-04	0	39	0	501219328	68	6125
2026-01-20 08:20:46.51	94.60	34.27	-49.1	-53.1	12.3	2.33e-04	0	38	0	508559360	69	5817
2026-01-20 08:20:50.55	93.55	34.94	-49.1	-53.0	12.4	1.73e-04	0	38	0	516947968	69	5785
2026-01-20 08:20:54.58	92.46	35.62	-48.8	-52.3	13.1	4.50e-05	0	38	0	524288000	69	5337
2026-01-20 08:20:58.61	91.32	36.31	-48.6	-52.0	13.4	9.10e-06	0	38	0	531628032	69	5113
2026-01-20 08:21:02.64	90.14	36.99	-48.6	-52.0	13.5	1.37e-05	0	38	0	538968064	69	5136
2026-01-20 08:21:06.67	88.90	37.67	-48.3	-51.4	14.2	0.00e+00	0	39	0	546308096	68	5044
2026-01-20 08:21:10.70	87.61	38.35	-48.6	-52.0	13.6	1.29e-05	0	38	0	554696704	68	5418
2026-01-20 08:21:14.74	86.26	39.03	-48.7	-52.0	13.5	1.14e-05	0	39	0	562036736	68	5432
2026-01-20 08:21:18.77	84.86	39.70	-48.6	-51.9	13.6	4.50e-06	0	39	0	569376768	68	5375
2026-01-20 08:21:22.80	83.39	40.36	-49.2	-53.1	12.4	1.38e-04	0	38	0	576716800	68	6147
2026-01-20 08:21:26.83	81.87	41.01	-49.1	-53.0	12.5	9.00e-05	0	39	0	585105408	68	6087
2026-01-20 08:21:30.86	80.29	41.65	-48.8	-52.4	13.2	3.28e-05	0	39	0	592445440	69	5347
2026-01-20 08:21:34.89	78.64	42.28	-47.8	-50.5	14.9	7.00e-07	0	38	0	599785472	67	4857
2026-01-20 08:21:38.92	76.92	42.88	-47.3	-49.7	15.6	0.00e+00	0	39	0	607125504	66	4704
2026-01-20 08:21:42.95	75.15	43.47	-47.2	-49.5	15.9	0.00e+00	0	38	0	614465536	65	4858
2026-01-20 08:21:46.99	73.30	44.03	-47.2	-49.5	15.9	0.00e+00	0	39	0	622854144	65	4857
2026-01-20 08:21:51.02	71.39	44.57	-46.9	-49.2	16.2	0.00e+00	0	39	0	630194176	65	4680
2026-01-20 08:21:55.05	69.42	45.07	-48.2	-51.2	14.3	0.00e+00	0	39	0	637534208	67	5251
2026-01-20 08:21:59.08	67.38	45.55	-48.0	-50.9	14.5	0.00e+00	0	39	0	644874240	67	5099
2026-01-20 08:22:03.11	65.29	45.98	-48.4	-51.5	14.0	3.80e-06	0	38	0	652214272	67	5445
2026-01-20 08:22:07.15	63.13	46.38	-49.0	-52.7	12.8	3.20e-05	0	39	0	660602880	68	5905
2026-01-20 08:22:11.18	60.93	46.74	-49.0	-52.7	12.8	8.01e-05	0	39	0	667942912	68	5895
2026-01-20 08:22:15.21	58.68	47.05	-49.2	-53.0	12.5	2.66e-04	0	39	0	675282944	69	5772
2026-01-20 08:22:19.24	56.39	47.31	-48.8	-52.2	13.4	1.37e-05	0	39	0	682622976	69	5250
2026-01-20 08:22:23.28	54.05	47.52	-48.9	-52.5	13.0	3.89e-05	0	39	0	689963008	69	5447
2026-01-20 08:22:27.30	51.70	47.69	-48.7	-52.1	13.4	3.66e-05	0	38	0	698351616	69	5200
2026-01-20 08:22:31.34	49.32	47.79	-49.0	-52.8	12.8	8.46e-05	0	39	0	705691648	69	5594
2026-01-20 08:22:35.37	46.93	47.85	-48.4	-52.1	13.4	1.90e-05	0	39	0	713031680	68	5491
2026-01-20 08:22:39.40	44.54	47.85	-48.7	-52.1	13.4	1.14e-05	0	39	0	720371712	68	5515
2026-01-20 08:22:43.43	42.15	47.80	-48.8	-52.3	13.3	4.04e-05	0	39	0	728760320	68	5595
2026-01-20 08:22:47.46	39.78	47.69	-49.0	-52.6	13.0	3.12e-05	0	39	0	736100352	68	5820
2026-01-20 08:22:51.49	37.43	47.53	-49.1	-52.7	12.8	5.87e-05	0	39	0	743440384	68	5912
2026-01-20 08:22:55.53	35.09	47.31	-49.0	-52.6	13.0	4.42e-05	0	38	0	750780416	68	5829
2026-01-20 08:22:59.56	32.80	47.05	-49.1	-52.9	12.6	1.32e-04	0	39	0	758120448	69	5679
2026-01-20 08:23:03.59	30.55	46.74	-49.1	-52.7	12.8	9.68e-05	0	39	0	766509056	69	5587
2026-01-20 08:23:07.62	28.35	46.39	-49.0	-52.7	12.8	5.18e-05	0	39	0	773849088	69	5570
2026-01-20 08:23:11.65	26.20	45.99	-48.6	-51.8	13.8	6.10e-06	0	39	0	781189120	69	5039
2026-01-20 08:23:15.68	24.11	45.56	-48.4	-51.5	14.1	3.00e-06	0	39	0	788529152	68	5130
2026-01-20 08:23:19.71	22.08	45.09	-47.8	-50.5	15.0	0.00e+00	0	39	0	795869184	67	4867
2026-01-20 08:23:23.74	20.11	44.58	-47.5	-50.1	15.5	0.00e+00	0	39	0	804257792	67	4619
2026-01-20 08:23:27.77	18.20	44.05	-47.4	-49.8	15.7	0.00e+00	0	39	0	811597824	66	4752
2026-01-20 08:23:31.79	16.36	43.49	-47.0	-49.2	16.3	0.00e+00	0	39	0	818937856	65	4694
2026-01-20 08:23:35.83	14.58	42.90	-46.9	-49.0	16.5	0.00e+00	0	39	0	826277888	65	4590
2026-01-20 08:23:39.86	12.87	42.30	-46.6	-48.6	16.9	0.00e+00	0	38	0	833617920	65	4373
2026-01-20 08:23:43.89	11.22	41.67	-47.1	-49.4	16.1	0.00e+00	0	39	0	842006528	65	4770
2026-01-20 08:23:47.92	9.64	41.04	-47.2	-49.5	16.0	0.00e+00	0	39	0	849346560	65	4854
2026-01-20 08:23:51.95	8.12	40.39	-47.1	-49.4	16.1	0.00e+00	0	38	0	856686592	65	4774
2026-01-20 08:23:55.98	6.66	39.73	-47.2	-49.6	15.9	0.00e+00	0	38	0	864026624	65	4909
2026-01-20 08:24:00.01	5.26	39.06	-47.2	-49.5	16.0	0.00e+00	0	39	0	871366656	65	4853
2026-01-20 08:24:04.04	3.91	38.38	-47.7	-50.4	15.2	0.00e+00	0	39	0	879755264	66	5083
2026-01-20 08:24:08.06	2.63	37.71	-47.9	-50.6	14.9	0.00e+00	0	39	0	887095296	66	5213
2026-01-20 08:24:12.09	1.39	37.03	-48.2	-51.3	14.2	0.00e+00	0	39	0	894435328	67	5286
2026-01-20 08:24:16.12	0.21	36.35	-48.9	-52.4	13.1	2.59e-05	0	39	0	901775360	68	5712
2026-01-20 08:24:20.15	359.07	35.67	-49.2	-53.1	12.4	1.36e-04	0	38	0	909115392	68	6186
2026-01-20 08:24:24.18	357.98	34.99	-49.4	-53.5	12.0	2.64e-04	0	39	0	917504000	69	6083
2026-01-20 08:24:28.21	356.94	34.32	-49.3	-53.3	12.2	2.38e-04	0	39	0	924844032	69	5966
2026-01-20 08:24:32.25	355.93	33.64	-49.4	-53.5	12.0	3.79e-04	0	39	0	932184064	69	6109
2026-01-20 08:24:36.28	354.97	32.98	-49.0	-52.8	12.7	5.18e-05	0	39	0	939524096	69	5602
2026-01-20 08:24:40.31	354.05	32.32	-49.0	-52.8	12.8	6.56e-05	0	39	0	946864128	69	5593
2026-01-20 08:24:44.34	353.17	31.67	-48.9	-52.6	12.9	3.81e-05	0	39	0	955252736	69	5471
2026-01-20 08:24:48.37	352.32	31.02	-49.0	-52.7	12.7	4.73e-05	0	39	0	962592768	69	5582
2026-01-20 08:24:52.40	351.50	30.38	-49.0	-52.8	12.7	5.26e-05	0	39	0	969932800	69	5614
2026-01-20 08:24:56.43	350.72	29.75	-48.7	-52.1	13.4	1.44e-05	0	39	0	977272832	69	5197
2026-01-20 08:25:00.46	349.96	29.12	-48.5	-51.7	13.8	7.60e-06	0	39	0	985661440	68	5242
2026-01-20 08:25:04.49	349.24	28.51	-48.7	-52.1	13.3	1.22e-05	0	39	0	993001472	68	5521
2026-01-20 08:25:08.53	348.54	27.90	-48.4	-51.5	14.0	5.30e-06	0	38	0	1000341504	68	5118
2026-01-20 08:25:12.55	347.87	27.30	-48.2	-51.3	14.2	3.00e-06	0	39	0	1007681536	68	5004
2026-01-20 08:25:16.58	347.23	26.71	-48.2	-51.3	14.2	7.00e-07	0	39	0	1015021568	68	5003
2026-01-20 08:25:20.61	346.61	26.13	-48.2	-51.3	14.2	2.20e-06	0	38	0	1022361600	68	5013
2026-01-20 08:25:24.64	346.01	25.56	-48.3	-51.4	14.0	3.00e-06	0	39	0	1030750208	68	5093
2026-01-20 08:25:28.68	345.43	25.00	-48.1	-51.1	14.4	2.20e-06	0	39	0	1038090240	68	4875
2026-01-20 08:25:32.71	344.87	24.44	-47.8	-50.6	14.7	0.00e+00	0	39	0	1045430272	67	4902
2026-01-20 08:25:36.73	344.33	23.90	-47.7	-50.4	15.0	0.00e+00	0	38	0	1052770304	67	4780
2026-01-20 08:25:40.76	343.82	23.36	-47.8	-50.7	14.7	0.00e+00	0	39	0	1061158912	67	4929
2026-01-20 08:25:44.79	343.32	22.83	-47.8	-50.6	14.7	7.00e-07	0	39	0	1068498944	67	4909
2026-01-20 08:25:48.83	342.83	22.31	-47.7	-50.5	14.7	0.00e+00	0	39	0	1075838976	67	4869
2026-01-20 08:25:52.86	342.36	21.79	-47.7	-50.4	14.9	0.00e+00	0	38	0	1083179008	67	4785
2026-01-20 08:25:56.89	341.91	21.29	-47.6	-50.3	15.0	0.00e+00	0	39	0	1090519040	67	4744
2026-01-20 08:26:00.92	341.48	20.79	-47.6	-50.3	15.0	7.00e-07	0	39	0	1098907648	67	4749
2026-01-20 08:26:04.96	341.05	20.30	-47.6	-50.3	15.0	0.00e+00	0	38	0	1106247680	67	4740
2026-01-20 08:26:08.99	340.64	19.82	-47.6	-50.2	15.1	0.00e+00	0	38	0	1113587712	67	4699
2026-01-20 08:26:13.03	340.25	19.35	-47.8	-50.6	14.6	7.00e-07	0	39	0	1120927744	67	4922
2026-01-20 08:26:17.06	339.86	18.88	-47.7	-50.5	14.8	0.00e+00	0	38	0	1129316352	67	4845
2026-01-20 08:26:21.09	339.49	18.43	-47.9	-50.8	14.5	7.00e-07	0	39	0	1136656384	67	5033
2026-01-20 08:26:25.12	339.13	17.97	-47.9	-50.8	14.5	0.00e+00	0	38	0	1143996416	67	5005
2026-01-20 08:26:29.15	338.78	17.53	-47.9	-50.9	14.3	7.00e-07	0	39	0	1151336448	67	5099
2026-01-20 08:26:33.18	338.44	17.09	-47.9	-50.8	14.4	7.00e-07	0	38	0	1158676480	67	5028
2026-01-20 08:26:37.21	338.11	16.66	-47.7	-50.5	14.7	0.00e+00	0	38	0	1166016512	67	4849
2026-01-20 08:26:41.24	337.79	16.24	-47.7	-50.6	14.6	0.00e+00	0	39	0	1174405120	67	4889
2026-01-20 08:26:45.27	337.48	15.82	-47.8	-50.7	14.5	0.00e+00	0	38	0	1181745152	67	4939
2026-01-20 08:26:49.30	337.18	15.41	-47.9	-50.9	14.2	1.50e-06	0	39	0	1189085184	67	5097
2026-01-20 08:26:53.33	336.89	15.00	-48.1	-51.2	13.9	3.00e-06	0	38	0	1196425216	67	5272
2026-01-20 08:26:57.36	336.61	14.60	-48.2	-51.4	13.7	9.90e-06	0	39	0	1204813824	67	5386
2026-01-20 08:27:01.39	336.33	14.21	-48.2	-51.4	13.8	6.10e-06	0	39	0	1212153856	67	5359
2026-01-20 08:27:05.43	336.06	13.82	-48.3	-51.7	13.4	1.22e-05	0	39	0	1219493888	67	5531
2026-01-20 08:27:09.46	335.80	13.44	-48.3	-51.8	13.4	2.05e-05	0	38	0	1226833920	67	5610
2026-01-20 08:27:13.49	335.54	13.06	-48.4	-51.8	13.3	2.51e-05	0	38	0	1234173952	67	5603
2026-01-20 08:27:17.52	335.30	12.69	-48.3	-51.6	13.4	1.06e-05	0	39	0	1242562560	67	5514
2026-01-20 08:27:21.55	335.06	12.32	-48.3	-51.6	13.4	1.52e-05	0	39	0	1249902592	67	5523
2026-01-20 08:27:25.58	334.82	11.96	-48.3	-51.8	13.3	2.05e-05	0	39	0	1257242624	67	5626
2026-01-20 08:27:29.61	334.59	11.60	-48.3	-51.8	13.3	2.05e-05	0	39	0	1264582656	67	5605
2026-01-20 08:27:33.64	334.37	11.24	-48.4	-52.0	13.0	2.21e-05	0	39	0	1271922688	67	5757
2026-01-20 08:27:37.67	334.15	10.90	-48.4	-52.0	13.0	3.20e-05	0	39	0	1280311296	67	5744
2026-01-20 08:27:41.70	333.94	10.55	-48.5	-52.2	12.8	5.64e-05	0	39	0	1287651328	67	5871
2026-01-20 08:27:45.73	333.73	10.21	-48.5	-52.1	12.9	6.10e-05	0	39	0	1294991360	67	5821
2026-01-20 08:27:49.76	333.53	9.88	-48.4	-52.1	12.9	6.40e-05	0	39	0	1302331392	67	5797
2026-01-20 08:27:53.79	333.33	9.55	-48.4	-52.1	12.9	3.43e-05	0	39	0	1309671424	67	5795
2026-01-20 08:27:57.83	333.14	9.22	-48.5	-52.2	12.7	7.78e-05	0	39	0	1318060032	67	5913
2026-01-20 08:28:01.85	332.95	8.90	-48.6	-52.4	12.5	1.15e-04	0	39	0	1325400064	67	6053
2026-01-20 08:28:05.89	332.77	8.57	-48.6	-52.4	12.5	1.28e-04	0	39	0	1332740096	67	6038
2026-01-20 08:28:09.91	332.59	8.26	-48.8	-52.8	12.1	1.75e-04	0	39	0	1340080128	68	5989
2026-01-20 08:28:13.95	332.42	7.95	-48.8	-52.9	12.1	2.63e-04	0	39	0	1348468736	68	6008
2026-01-20 08:28:17.98	332.25	7.64	-49.0	-53.3	11.6	8.20e-04	0	38	0	1355808768	68	6275
2026-01-20 08:28:22.01	332.08	7.33	-48.8	-52.9	12.0	3.06e-04	0	39	0	1363148800	68	6024
2026-01-20 08:28:26.04	331.92	7.03	-48.9	-53.0	11.8	4.97e-04	0	38	0	1370488832	68	6129
2026-01-20 08:28:30.07	331.76	6.73	-48.9	-53.2	11.6	6.35e-04	0	39	0	1377828864	68	6272
2026-01-20 08:28:34.10	331.60	6.44	-49.1	-53.6	11.2	1.08e-03	0	39	0	1385168896	68	6541
2026-01-20 08:28:38.14	331.45	6.14	-49.1	-53.7	11.0	2.15e-03	0	39	0	1393557504	68	6627
2026-01-20 08:28:42.17	331.30	5.85	-49.1	-53.8	10.9	2.53e-03	0	39	0	1400897536	68	6688
2026-01-20 08:28:46.20	331.16	5.57	-49.2	-53.9	10.8	1.99e-03	0	39	0	1408237568	69	6407
2026-01-20 08:28:50.23	331.01	5.28	-49.3	-54.4	10.2	5.93e-03	0	38	0	1415577600	69	6781
2026-01-20 08:28:54.26	330.87	5.00	-49.4	-54.7	10.0	7.93e-03	0	39	0	1423966208	69	6978
2026-01-20 08:28:58.29	330.74	4.73	-51.4	-66.3	3.8	1.49e+00	0	39	104	1423966208	73	21211
2026-01-20 08:29:02.32	330.60	4.45	-51.7	-66.6	3.8	1.49e+00	0	39	104	1423966208	73	21969
2026-01-20 08:29:06.36	330.47	4.18	-51.8	-66.8	3.8	1.49e+00	0	39	104	1423966208	74	21033
2026-01-20 08:29:10.39	330.35	3.91	-51.9	-66.8	3.8	1.49e+00	0	39	104	1423966208	74	21181
2026-01-20 08:29:14.42	330.22	3.64	-51.9	-66.9	3.8	1.49e+00	0	39	104	1423966208	74	21270
2026-01-20 08:29:18.45	330.10	3.37	-51.9	-66.8	3.8	1.49e+00	0	39	104	1423966208	74	21150
2026-01-20 08:29:22.48	329.98	3.11	-51.9	-66.8	3.8	1.49e+00	0	39	104	1423966208	74	21095
2026-01-20 08:29:26.51	329.86	2.85	-51.8	-66.8	3.8	1.49e+00	0	39	104	1423966208	74	21026
2026-01-20 08:29:30.55	329.74	2.59	-51.8	-66.7	3.8	1.49e+00	0	39	104	1423966208	74	20945
2026-01-20 08:29:34.58	329.63	2.34	-51.8	-66.7	3.8	1.49e+00	0	39	104	1423966208	74	20911
2026-01-20 08:29:38.61	329.52	2.08	-51.8	-66.7	3.8	1.49e+00	0	39	104	1423966208	74	20866

#Closed at: 2026-01-20 08:29:41
#Recorded file [1423 MB]: D:/lorett/data/31041_260120_111535.dat