passes_logs/2026/01/20/R3.2S_Murmansk/R3.2S_Murmansk__20260120_231204_KANOPUS-V_5_rec.log

#Pass ID: 20260120_231204_KANOPUS-V 5
#Satellite: KANOPUS-V 5
#Configuration: KANOPUS-V_8320
#almurnet v.1.7.20251203
#Start time: 2026-01-20 23:12:06

#Version: 2.2.20231116
#Station: R3.2S_Murmansk
#Location: 33.079688 lon 68.888172 lat
#TLE: 1 43876U 18111A   26020.16250899  .00005594  00000+0  23751-3 0  9993
#TLE: 2 43876  97.3687 288.5833 0001817  87.9007 272.2438 15.23474018392259

#Time	Az	El	Level	Level2	SNR	BER	BlckErr	Temp	State	Recorded	gain1	gain2
2026-01-20 23:12:06.13	21.42	2.12	-54.7	-63.5	3.8	7.44e-01	0	38	0	0	80	10215
2026-01-20 23:12:09.16	21.30	2.33	-54.5	-63.3	3.8	7.45e-01	0	38	104	0	80	10015
2026-01-20 23:12:12.19	21.18	2.54	-54.3	-63.1	3.8	7.46e-01	0	39	104	0	80	9783
2026-01-20 23:12:15.21	21.06	2.76	-54.0	-62.8	3.8	7.44e-01	0	39	104	0	79	10051
2026-01-20 23:12:18.24	20.94	2.97	-53.0	-61.9	3.8	7.46e-01	0	39	104	0	78	9509
2026-01-20 23:12:21.27	20.81	3.19	-52.9	-61.8	3.8	7.45e-01	0	39	104	0	77	9963
2026-01-20 23:12:24.29	20.69	3.41	-52.9	-61.8	3.8	7.46e-01	0	39	104	0	77	9959
2026-01-20 23:12:27.32	20.55	3.63	-52.9	-61.7	3.8	7.45e-01	0	39	104	0	77	9935
2026-01-20 23:12:30.35	20.42	3.85	-52.9	-61.7	3.8	7.46e-01	0	39	104	0	77	9898
2026-01-20 23:12:33.37	20.28	4.08	-52.9	-61.8	3.8	7.45e-01	0	39	104	0	77	9951
2026-01-20 23:12:36.40	20.14	4.31	-52.9	-61.7	3.8	7.43e-01	0	39	104	0	77	9943
2026-01-20 23:12:39.42	20.00	4.54	-52.9	-61.7	3.8	7.46e-01	0	39	104	0	77	9936
2026-01-20 23:12:42.45	19.86	4.77	-52.9	-61.7	3.8	7.46e-01	0	39	104	0	77	9926
2026-01-20 23:12:45.48	19.71	5.01	-52.9	-61.7	3.8	7.45e-01	0	39	104	0	77	9904
2026-01-20 23:12:48.50	19.55	5.24	-53.0	-61.8	3.8	7.45e-01	0	39	104	0	77	9963
2026-01-20 23:12:51.53	19.40	5.49	-52.9	-61.8	3.8	7.45e-01	0	39	104	0	77	9986
2026-01-20 23:12:54.56	19.24	5.73	-53.0	-61.8	3.8	7.45e-01	0	40	104	0	77	10012
2026-01-20 23:12:57.58	19.08	5.98	-53.0	-61.8	3.8	7.45e-01	0	40	104	0	77	10031
2026-01-20 23:13:00.60	18.91	6.23	-53.0	-61.9	3.8	7.44e-01	0	40	104	0	77	10079
2026-01-20 23:13:03.62	18.74	6.48	-53.1	-61.9	3.8	7.44e-01	0	40	104	0	77	10100
2026-01-20 23:13:06.65	18.56	6.74	-53.1	-61.9	3.8	7.44e-01	0	40	104	0	77	10162
2026-01-20 23:13:09.67	18.38	6.99	-53.2	-62.0	3.8	7.45e-01	0	40	104	0	77	10219
2026-01-20 23:13:12.70	18.20	7.26	-53.1	-62.0	3.8	7.45e-01	0	40	104	0	77	10220
2026-01-20 23:13:15.72	18.01	7.52	-53.2	-62.1	3.8	7.46e-01	0	40	104	0	77	10296
2026-01-20 23:13:18.75	17.82	7.79	-53.2	-62.0	3.8	7.42e-01	0	40	104	0	77	10261
2026-01-20 23:13:21.77	17.62	8.07	-53.3	-62.1	3.8	7.44e-01	0	40	104	0	77	10324
2026-01-20 23:13:24.80	17.42	8.34	-53.2	-62.1	3.8	7.45e-01	0	40	104	0	77	10311
2026-01-20 23:13:27.83	17.21	8.63	-53.3	-62.1	3.8	7.44e-01	0	40	104	0	77	10314
2026-01-20 23:13:30.86	17.00	8.91	-53.3	-62.1	3.8	7.45e-01	0	40	104	0	77	10300
2026-01-20 23:13:33.89	16.78	9.20	-53.3	-62.1	3.8	7.46e-01	0	40	104	0	77	10409
2026-01-20 23:13:36.91	16.55	9.49	-53.3	-62.1	3.8	7.45e-01	0	40	104	0	77	10371
2026-01-20 23:13:39.94	16.32	9.79	-53.4	-62.2	3.8	7.45e-01	0	40	104	0	77	10530
2026-01-20 23:13:42.96	16.08	10.09	-53.3	-62.2	3.8	7.47e-01	0	40	104	0	77	10432
2026-01-20 23:13:45.99	15.84	10.40	-53.4	-62.2	3.8	7.45e-01	0	40	104	0	77	10526
2026-01-20 23:13:49.01	15.59	10.71	-53.4	-62.2	3.8	7.45e-01	0	40	104	0	77	10476
2026-01-20 23:13:52.04	15.33	11.03	-53.5	-62.3	3.8	7.45e-01	0	40	104	0	77	10588
2026-01-20 23:13:55.06	15.07	11.35	-53.4	-62.2	3.8	7.46e-01	0	40	104	0	77	10524
2026-01-20 23:13:58.09	14.80	11.67	-53.5	-62.4	3.8	7.45e-01	0	40	104	0	77	10656
2026-01-20 23:14:01.12	14.52	12.01	-53.5	-62.3	3.8	7.44e-01	0	40	104	0	77	10617
2026-01-20 23:14:04.14	14.23	12.34	-53.6	-62.4	3.8	7.45e-01	0	40	104	0	77	10685
2026-01-20 23:14:07.16	13.93	12.68	-53.5	-62.4	3.8	7.45e-01	0	40	104	0	77	10674
2026-01-20 23:14:10.19	13.63	13.03	-53.6	-62.4	3.8	7.46e-01	0	40	104	0	77	10753
2026-01-20 23:14:13.21	13.31	13.39	-53.6	-62.4	3.8	7.44e-01	0	40	104	0	77	10703
2026-01-20 23:14:16.24	12.99	13.75	-53.6	-62.5	3.8	7.46e-01	0	40	104	0	77	10789
2026-01-20 23:14:19.26	12.66	14.11	-53.6	-62.4	3.8	7.46e-01	0	40	104	0	77	10771
2026-01-20 23:14:22.29	12.31	14.49	-53.7	-62.5	3.8	7.44e-01	0	40	104	0	77	10806
2026-01-20 23:14:25.31	11.96	14.87	-53.6	-62.5	3.8	7.47e-01	0	40	104	0	77	10825
2026-01-20 23:14:28.33	11.59	15.25	-53.7	-62.5	3.8	7.45e-01	0	40	104	0	77	10826
2026-01-20 23:14:31.36	11.21	15.65	-53.7	-62.5	3.8	7.44e-01	0	40	104	0	77	10816
2026-01-20 23:14:34.39	10.82	16.05	-53.7	-62.5	3.8	7.45e-01	0	40	104	0	77	10867
2026-01-20 23:14:37.41	10.42	16.46	-53.7	-62.6	3.8	7.44e-01	0	40	104	0	78	10323
2026-01-20 23:14:40.44	10.00	16.87	-53.8	-62.6	3.8	7.44e-01	0	40	104	0	78	10317
2026-01-20 23:14:43.46	9.57	17.30	-53.7	-62.6	3.8	7.44e-01	0	40	104	0	78	10317
2026-01-20 23:14:46.49	9.12	17.73	-53.8	-62.6	3.8	7.44e-01	0	40	104	0	78	10357
2026-01-20 23:14:49.51	8.66	18.17	-53.8	-62.6	3.8	7.45e-01	0	40	104	0	78	10366
2026-01-20 23:14:52.54	8.18	18.62	-53.8	-62.6	3.8	7.47e-01	0	40	104	0	78	10374
2026-01-20 23:14:55.56	7.68	19.08	-53.8	-62.6	3.8	7.45e-01	0	40	104	0	78	10409
2026-01-20 23:14:58.59	7.17	19.55	-53.8	-62.7	3.8	7.46e-01	0	40	104	0	78	10422
2026-01-20 23:15:01.61	6.63	20.02	-53.8	-62.7	3.8	7.44e-01	0	40	104	0	78	10437
2026-01-20 23:15:04.64	6.08	20.51	-53.9	-62.7	3.8	7.46e-01	0	40	104	0	78	10432
2026-01-20 23:15:07.66	5.51	21.00	-53.9	-62.7	3.8	7.46e-01	0	40	104	0	78	10514
2026-01-20 23:15:10.69	4.91	21.51	-53.9	-62.7	3.8	7.44e-01	0	40	104	0	78	10473
2026-01-20 23:15:13.71	4.29	22.02	-53.9	-62.8	3.8	7.45e-01	0	40	104	0	78	10581
2026-01-20 23:15:16.74	3.65	22.54	-53.9	-62.7	3.8	7.44e-01	0	40	104	0	78	10513
2026-01-20 23:15:19.76	2.98	23.08	-54.0	-62.8	3.8	7.45e-01	0	40	104	0	78	10541
2026-01-20 23:15:22.78	2.28	23.62	-54.0	-62.8	3.8	7.43e-01	0	40	104	0	78	10573
2026-01-20 23:15:25.81	1.56	24.17	-54.0	-62.8	3.8	7.45e-01	0	40	104	0	78	10629
2026-01-20 23:15:28.83	0.80	24.74	-54.0	-62.8	3.8	7.45e-01	0	40	104	0	78	10564
2026-01-20 23:15:31.85	0.02	25.31	-54.0	-62.8	3.8	7.44e-01	0	40	104	0	78	10643
2026-01-20 23:15:34.88	359.20	25.89	-54.0	-62.8	3.8	7.47e-01	0	40	104	0	78	10638
2026-01-20 23:15:37.90	358.35	26.49	-54.1	-62.9	3.8	7.45e-01	0	40	104	0	78	10669
2026-01-20 23:15:40.93	357.46	27.09	-54.0	-62.8	3.8	7.46e-01	0	40	104	0	78	10641
2026-01-20 23:15:43.95	356.53	27.70	-54.1	-62.9	3.8	7.45e-01	0	40	104	0	78	10691
2026-01-20 23:15:46.97	355.56	28.32	-54.1	-62.9	3.8	7.46e-01	0	40	104	0	78	10730
2026-01-20 23:15:50.00	354.55	28.95	-54.1	-62.9	3.8	7.46e-01	0	40	104	0	78	10764
2026-01-20 23:15:53.02	353.50	29.58	-54.1	-63.0	3.8	7.45e-01	0	40	104	0	78	10780
2026-01-20 23:15:56.05	352.39	30.22	-54.2	-63.0	3.8	7.47e-01	0	40	104	0	78	10876
2026-01-20 23:15:59.07	351.24	30.87	-54.1	-62.9	3.8	7.46e-01	0	40	104	0	78	10755
2026-01-20 23:16:02.09	350.04	31.52	-54.2	-63.1	3.8	7.45e-01	0	40	104	0	78	10912
2026-01-20 23:16:05.12	348.78	32.18	-54.2	-63.0	3.8	7.46e-01	0	41	104	0	78	10863
2026-01-20 23:16:08.14	347.47	32.83	-54.2	-63.1	3.8	7.44e-01	0	40	104	0	79	10350
2026-01-20 23:16:11.17	346.09	33.49	-54.2	-63.0	3.8	7.46e-01	0	40	104	0	79	10293
2026-01-20 23:16:14.19	344.66	34.14	-54.3	-63.1	3.8	7.44e-01	0	40	104	0	79	10379
2026-01-20 23:16:17.21	343.16	34.79	-54.3	-63.1	3.8	7.45e-01	0	40	104	0	79	10373
2026-01-20 23:16:20.24	341.60	35.44	-54.3	-63.1	3.8	7.44e-01	0	41	104	0	79	10387
2026-01-20 23:16:23.26	339.97	36.07	-54.3	-63.1	3.8	7.45e-01	0	40	104	0	79	10382
2026-01-20 23:16:26.28	338.28	36.70	-54.4	-63.2	3.8	7.44e-01	0	41	104	0	79	10427
2026-01-20 23:16:29.30	336.51	37.31	-54.4	-63.2	3.8	7.45e-01	0	40	104	0	79	10423
2026-01-20 23:16:32.33	334.67	37.90	-54.4	-63.2	3.8	7.44e-01	0	40	104	0	79	10453
2026-01-20 23:16:35.35	332.76	38.46	-54.4	-63.2	3.8	7.44e-01	0	41	104	0	79	10477
2026-01-20 23:16:38.38	330.78	39.01	-54.4	-63.2	3.8	7.47e-01	0	40	104	0	79	10515
2026-01-20 23:16:41.40	328.73	39.52	-54.4	-63.2	3.8	7.45e-01	0	40	104	0	79	10525
2026-01-20 23:16:44.43	326.61	40.00	-54.4	-63.2	3.8	7.44e-01	0	40	104	0	79	10527
2026-01-20 23:16:47.45	324.44	40.45	-54.4	-63.3	3.8	7.44e-01	0	40	104	0	79	10567
2026-01-20 23:16:50.47	322.20	40.85	-54.5	-63.3	3.8	7.44e-01	0	40	104	0	79	10593
2026-01-20 23:16:53.50	319.90	41.21	-54.5	-63.3	3.8	7.45e-01	0	40	104	0	79	10636
2026-01-20 23:16:56.52	317.55	41.52	-54.5	-63.3	3.8	7.46e-01	0	40	104	0	79	10601
2026-01-20 23:16:59.55	315.15	41.79	-54.5	-63.3	3.8	7.45e-01	0	41	104	0	79	10635
2026-01-20 23:17:02.58	312.72	41.99	-54.5	-63.3	3.8	7.44e-01	0	40	104	0	79	10644
2026-01-20 23:17:05.60	310.26	42.15	-54.6	-63.4	3.8	7.46e-01	0	40	104	0	79	10694
2026-01-20 23:17:08.62	307.79	42.24	-54.6	-63.4	3.8	7.45e-01	0	40	104	0	79	10711
2026-01-20 23:17:11.65	305.29	42.28	-54.6	-63.4	3.8	7.44e-01	0	40	104	0	79	10714
2026-01-20 23:17:14.67	302.81	42.25	-54.6	-63.4	3.8	7.44e-01	0	41	104	0	79	10702
2026-01-20 23:17:17.69	300.33	42.17	-54.6	-63.4	3.8	7.44e-01	0	40	104	0	79	10741
2026-01-20 23:17:20.71	297.87	42.04	-54.6	-63.4	3.8	7.45e-01	0	41	104	0	79	10735
2026-01-20 23:17:23.74	295.42	41.84	-54.6	-63.4	3.8	7.47e-01	0	41	104	0	79	10738
2026-01-20 23:17:26.76	293.02	41.59	-54.6	-63.4	3.8	7.46e-01	0	40	104	0	79	10688
2026-01-20 23:17:29.79	290.65	41.29	-54.6	-63.4	3.8	7.44e-01	0	40	104	0	79	10753
2026-01-20 23:17:32.81	288.34	40.95	-54.6	-63.4	3.8	7.46e-01	0	41	104	0	79	10767
2026-01-20 23:17:35.83	286.09	40.55	-54.6	-63.4	3.8	7.44e-01	0	40	104	0	79	10744
2026-01-20 23:17:38.86	283.88	40.12	-54.6	-63.4	3.8	7.46e-01	0	41	104	0	79	10709
2026-01-20 23:17:41.88	281.75	39.64	-54.6	-63.4	3.8	7.45e-01	0	40	104	0	79	10681
2026-01-20 23:17:44.91	279.68	39.14	-54.6	-63.4	3.8	7.46e-01	0	41	104	0	79	10712
2026-01-20 23:17:47.93	277.68	38.60	-54.6	-63.4	3.8	7.46e-01	0	40	104	0	79	10661
2026-01-20 23:17:50.95	275.75	38.04	-54.5	-63.3	3.8	7.44e-01	0	41	104	0	79	10651
2026-01-20 23:17:53.98	273.89	37.45	-54.5	-63.3	3.8	7.45e-01	0	40	104	0	79	10604
2026-01-20 23:17:57.00	272.10	36.84	-54.5	-63.3	3.8	7.45e-01	0	41	104	0	79	10596
2026-01-20 23:18:00.03	270.38	36.22	-54.5	-63.3	3.8	7.46e-01	0	40	104	0	79	10589
2026-01-20 23:18:03.05	268.73	35.58	-54.5	-63.3	3.8	7.46e-01	0	41	104	0	79	10561
2026-01-20 23:18:06.07	267.15	34.94	-54.4	-63.3	3.8	7.45e-01	0	40	104	0	79	10554
2026-01-20 23:18:09.10	265.63	34.29	-54.4	-63.3	3.8	7.44e-01	0	41	104	0	79	10570
2026-01-20 23:18:12.12	264.18	33.63	-54.4	-63.3	3.8	7.46e-01	0	40	104	0	79	10540
2026-01-20 23:18:15.15	262.79	32.97	-54.4	-63.2	3.8	7.45e-01	0	40	104	0	79	10505
2026-01-20 23:18:18.17	261.46	32.32	-54.4	-63.2	3.8	7.46e-01	0	40	104	0	79	10476
2026-01-20 23:18:21.19	260.18	31.66	-54.4	-63.2	3.8	7.44e-01	0	41	104	0	79	10453
2026-01-20 23:18:24.22	258.96	31.00	-54.3	-63.2	3.8	7.44e-01	0	41	104	0	79	10464
2026-01-20 23:18:27.25	257.79	30.35	-54.3	-63.2	3.8	7.46e-01	0	41	104	0	79	10451
2026-01-20 23:18:30.27	256.68	29.71	-54.3	-63.1	3.8	7.45e-01	0	41	104	0	79	10389
2026-01-20 23:18:33.29	255.61	29.07	-54.3	-63.2	3.8	7.43e-01	0	41	104	0	79	10416
2026-01-20 23:18:36.32	254.58	28.43	-54.3	-63.1	3.8	7.45e-01	0	41	104	0	79	10378
2026-01-20 23:18:39.34	253.60	27.81	-54.3	-63.1	3.8	7.45e-01	0	40	104	0	79	10326
2026-01-20 23:18:42.37	252.66	27.19	-54.3	-63.1	3.8	7.46e-01	0	40	104	0	79	10337
2026-01-20 23:18:45.39	251.76	26.59	-54.2	-63.1	3.8	7.46e-01	0	40	104	0	79	10312
2026-01-20 23:18:48.41	250.89	25.99	-54.2	-63.1	3.8	7.45e-01	0	40	104	0	79	10320
2026-01-20 23:18:51.44	250.06	25.40	-54.2	-63.0	3.8	7.45e-01	0	40	104	0	79	10267
2026-01-20 23:18:54.46	249.27	24.83	-54.2	-63.0	3.8	7.45e-01	0	41	104	0	79	10269
2026-01-20 23:18:57.49	248.50	24.26	-54.2	-63.0	3.8	7.44e-01	0	41	104	0	79	10242
2026-01-20 23:19:00.52	247.77	23.70	-54.2	-63.0	3.8	7.46e-01	0	40	104	0	79	10185
2026-01-20 23:19:03.54	247.07	23.15	-54.1	-63.0	3.8	7.46e-01	0	40	104	0	79	10180
2026-01-20 23:19:06.57	246.39	22.61	-54.1	-62.9	3.8	7.46e-01	0	41	104	0	79	10157
2026-01-20 23:19:09.59	245.74	22.08	-54.1	-62.9	3.8	7.46e-01	0	40	104	0	79	10144
2026-01-20 23:19:12.61	245.11	21.57	-54.1	-62.9	3.8	7.46e-01	0	41	104	0	79	10084
2026-01-20 23:19:15.64	244.51	21.06	-54.1	-62.9	3.8	7.47e-01	0	41	104	0	79	10079
2026-01-20 23:19:18.66	243.93	20.56	-54.0	-62.8	3.8	7.46e-01	0	41	104	0	79	10052
2026-01-20 23:19:21.69	243.36	20.07	-54.0	-62.8	3.8	7.44e-01	0	40	104	0	79	10036
2026-01-20 23:19:24.71	242.83	19.59	-54.0	-62.8	3.8	7.45e-01	0	40	104	0	79	10012
2026-01-20 23:19:27.73	242.31	19.12	-54.0	-62.8	3.8	7.45e-01	0	41	104	0	79	10029
2026-01-20 23:19:30.76	241.80	18.66	-54.0	-62.8	3.8	7.45e-01	0	41	104	0	79	10033
2026-01-20 23:19:33.78	241.32	18.21	-54.0	-62.8	3.8	7.46e-01	0	40	104	0	79	10020
2026-01-20 23:19:36.81	240.85	17.76	-54.0	-62.8	3.8	7.44e-01	0	41	104	0	79	9980
2026-01-20 23:19:39.83	240.40	17.33	-53.9	-62.8	3.8	7.45e-01	0	41	104	0	79	9999
2026-01-20 23:19:42.86	239.96	16.90	-53.9	-62.8	3.8	7.44e-01	0	41	104	0	79	9988
2026-01-20 23:19:45.88	239.54	16.48	-53.9	-62.8	3.8	7.47e-01	0	41	104	0	79	9961
2026-01-20 23:19:48.90	239.13	16.07	-53.9	-62.7	3.8	7.46e-01	0	41	104	0	79	9933
2026-01-20 23:19:51.93	238.73	15.66	-53.9	-62.7	3.8	7.45e-01	0	41	104	0	79	9916
2026-01-20 23:19:54.95	238.35	15.27	-53.9	-62.7	3.8	7.45e-01	0	41	104	0	79	9915
2026-01-20 23:19:57.98	237.98	14.88	-53.9	-62.7	3.8	7.45e-01	0	41	104	0	79	9918
2026-01-20 23:20:01.01	237.62	14.49	-53.8	-62.6	3.8	7.44e-01	0	40	104	0	79	9821
2026-01-20 23:20:04.03	237.27	14.12	-53.8	-62.7	3.8	7.45e-01	0	41	104	0	79	9863
2026-01-20 23:20:07.05	236.93	13.75	-53.8	-62.6	3.8	7.44e-01	0	41	104	0	79	9798
2026-01-20 23:20:10.08	236.60	13.39	-53.8	-62.6	3.8	7.45e-01	0	41	104	0	79	9789
2026-01-20 23:20:13.10	236.29	13.03	-53.8	-62.6	3.8	7.46e-01	0	41	104	0	79	9720
2026-01-20 23:20:16.13	235.98	12.68	-53.8	-62.6	3.8	7.46e-01	0	41	104	0	79	9774
2026-01-20 23:20:19.16	235.68	12.33	-53.8	-62.6	3.8	7.44e-01	0	41	104	0	79	9804
2026-01-20 23:20:22.18	235.39	12.00	-53.7	-62.6	3.8	7.46e-01	0	40	104	0	79	9743
2026-01-20 23:20:25.20	235.10	11.66	-53.7	-62.5	3.8	7.44e-01	0	40	104	0	79	9700
2026-01-20 23:20:28.23	234.83	11.33	-53.7	-62.6	3.8	7.46e-01	0	40	104	0	79	9723
2026-01-20 23:20:31.25	234.56	11.01	-53.7	-62.5	3.8	7.45e-01	0	41	104	0	79	9708
2026-01-20 23:20:34.27	234.30	10.69	-53.6	-62.5	3.8	7.47e-01	0	40	104	0	79	9607
2026-01-20 23:20:37.30	234.05	10.38	-53.6	-62.5	3.8	7.46e-01	0	41	104	0	79	9633
2026-01-20 23:20:40.32	233.80	10.07	-53.6	-62.5	3.8	7.46e-01	0	41	104	0	79	9615
2026-01-20 23:20:43.35	233.56	9.77	-53.6	-62.5	3.8	7.45e-01	0	40	104	0	79	9624
2026-01-20 23:20:46.37	233.33	9.47	-53.6	-62.4	3.8	7.44e-01	0	40	104	0	79	9574
2026-01-20 23:20:49.39	233.10	9.18	-53.6	-62.4	3.8	7.47e-01	0	40	104	0	79	9577
2026-01-20 23:20:52.42	232.88	8.88	-53.5	-62.4	3.8	7.46e-01	0	40	104	0	79	9516
2026-01-20 23:20:55.44	232.66	8.60	-53.5	-62.4	3.8	7.44e-01	0	41	104	0	79	9529
2026-01-20 23:20:58.47	232.45	8.32	-53.5	-62.3	3.8	7.46e-01	0	41	104	0	78	10000
2026-01-20 23:21:01.49	232.24	8.04	-53.4	-62.3	3.8	7.44e-01	0	41	104	0	78	9961
2026-01-20 23:21:04.52	232.04	7.76	-53.4	-62.2	3.8	7.46e-01	0	41	104	0	78	9895
2026-01-20 23:21:07.55	231.85	7.49	-53.4	-62.3	3.8	7.45e-01	0	40	104	0	78	9982
2026-01-20 23:21:10.57	231.66	7.22	-53.4	-62.2	3.8	7.45e-01	0	40	104	0	78	9905
2026-01-20 23:21:13.60	231.47	6.96	-53.3	-62.1	3.8	7.46e-01	0	41	104	0	78	9815
2026-01-20 23:21:16.63	231.29	6.70	-53.3	-62.1	3.8	7.45e-01	0	41	104	0	78	9801
2026-01-20 23:21:19.65	231.11	6.44	-53.3	-62.1	3.8	7.46e-01	0	40	104	0	78	9797
2026-01-20 23:21:22.67	230.94	6.19	-53.3	-62.1	3.8	7.46e-01	0	41	104	0	78	9802
2026-01-20 23:21:25.70	230.77	5.94	-53.2	-62.0	3.8	7.45e-01	0	41	104	0	78	9671
2026-01-20 23:21:28.72	230.60	5.69	-53.2	-62.0	3.8	7.45e-01	0	40	104	0	78	9624
2026-01-20 23:21:31.75	230.44	5.44	-53.2	-62.0	3.8	7.46e-01	0	41	104	0	78	9686
2026-01-20 23:21:34.77	230.28	5.20	-53.2	-62.0	3.8	7.44e-01	0	41	104	0	78	9671
2026-01-20 23:21:37.80	230.13	4.96	-53.1	-62.0	3.8	7.46e-01	0	41	104	0	78	9631
2026-01-20 23:21:40.82	229.97	4.72	-53.8	-62.7	3.8	7.46e-01	0	40	104	0	78	10449
2026-01-20 23:21:43.85	229.83	4.49	-54.1	-62.9	3.8	7.46e-01	0	40	104	0	78	10680
2026-01-20 23:21:46.87	229.68	4.26	-54.1	-63.0	3.8	7.44e-01	0	40	104	0	78	10800
2026-01-20 23:21:49.90	229.54	4.03	-54.1	-63.0	3.8	7.46e-01	0	41	104	0	78	10794
2026-01-20 23:21:52.93	229.40	3.80	-54.1	-62.9	3.8	7.47e-01	0	40	104	0	78	10731
2026-01-20 23:21:55.95	229.26	3.58	-53.9	-62.8	3.8	7.45e-01	0	40	104	0	78	10558
2026-01-20 23:21:58.98	229.13	3.35	-54.0	-62.9	3.8	7.45e-01	0	41	104	0	78	10667
2026-01-20 23:22:02.00	229.00	3.13	-54.0	-62.8	3.8	7.45e-01	0	41	104	0	78	10648
2026-01-20 23:22:05.03	228.87	2.92	-54.0	-62.8	3.8	7.45e-01	0	41	104	0	78	10640
2026-01-20 23:22:08.05	228.75	2.70	-54.0	-62.8	3.8	7.46e-01	0	41	104	0	78	10594
2026-01-20 23:22:11.08	228.62	2.49	-54.0	-62.8	3.8	7.46e-01	0	41	104	0	78	10606
2026-01-20 23:22:14.10	228.50	2.28	-54.0	-62.8	3.8	7.44e-01	0	41	104	0	78	10606
2026-01-20 23:22:17.13	228.39	2.07	-53.9	-62.8	3.8	7.45e-01	0	41	104	0	78	10555

#Closed at: 2026-01-20 23:22:20
#Recorded file [0 MB]: D:/lorett/data/31041_260121_021205.dat