passes_logs/2026/01/06/R2.0S_Moscow/R2.0S_Moscow__20260106_011624_FENGYUN_3G_rec.log

#Pass ID: 20260106_011624_FENGYUN 3G
#Satellite: FENGYUN 3G
#Configuration: FENGYUN 3G
#almurnet v.1.7.20251203
#Start time: 2026-01-06 01:17:18

#Version: 2.2.20231116
#Station: R2.0S_Moscow
#Location: 37.707566 lon 55.798166 lat
#TLE: 1 56232U 23055A   26005.27063903  .00035143  00000+0  55802-3 0  9994
#TLE: 2 56232  49.9940 106.1098 0004225 341.8364  18.2452 15.52952562154680

#Time	Az	El	Level	Level2	SNR	BER	BlckErr	Temp	State	Recorded	gain1	gain2
2026-01-06 01:17:18.32	212.81	5.50	-44.9	-59.8	3.8	1.49e+00	0	56	0	0	60	21037
2026-01-06 01:17:20.35	212.54	5.64	-45.2	-63.6	3.8	8.45e-01	0	56	104	0	62	29126
2026-01-06 01:17:22.37	212.26	5.78	-45.2	-63.5	3.8	8.45e-01	0	56	104	0	62	28944
2026-01-06 01:17:24.39	211.98	5.92	-45.0	-63.4	3.8	8.46e-01	0	56	104	0	62	28400
2026-01-06 01:17:26.41	211.70	6.06	-44.8	-63.1	3.8	8.47e-01	0	57	104	0	61	29265
2026-01-06 01:17:28.43	211.42	6.20	-44.4	-62.5	3.8	8.47e-01	0	56	104	0	60	28948
2026-01-06 01:17:30.46	211.12	6.35	-44.2	-62.5	3.8	8.46e-01	0	56	104	0	60	28803
2026-01-06 01:17:32.48	210.83	6.49	-44.2	-62.5	3.8	8.46e-01	0	57	104	0	60	28931
2026-01-06 01:17:34.50	210.53	6.63	-44.2	-62.6	3.8	8.46e-01	0	56	104	0	60	29069
2026-01-06 01:17:36.52	210.23	6.78	-44.2	-62.6	3.8	8.46e-01	0	56	104	0	60	29040
2026-01-06 01:17:38.54	209.92	6.93	-44.2	-62.6	3.8	8.46e-01	0	56	104	0	60	29131
2026-01-06 01:17:40.57	209.61	7.07	-44.2	-62.6	3.8	8.46e-01	0	56	104	0	60	29021
2026-01-06 01:17:42.59	209.29	7.22	-44.2	-62.4	3.8	8.46e-01	0	56	104	0	60	28646
2026-01-06 01:17:44.61	208.97	7.37	-44.2	-62.5	3.8	8.46e-01	0	56	104	0	60	28711
2026-01-06 01:17:46.63	208.65	7.51	-44.2	-62.0	3.8	8.48e-01	0	56	104	0	60	27197
2026-01-06 01:17:48.65	208.32	7.66	-44.1	-60.9	3.8	8.45e-01	0	56	104	0	60	23976
2026-01-06 01:17:50.67	207.99	7.81	-44.1	-59.9	3.9	8.45e-01	0	56	104	0	60	21366
2026-01-06 01:17:52.69	207.65	7.96	-44.1	-59.8	4.0	8.43e-01	0	56	0	0	60	21184
2026-01-06 01:17:54.72	207.30	8.11	-44.1	-59.7	4.0	8.44e-01	0	56	0	0	60	20839
2026-01-06 01:17:56.74	206.95	8.27	-44.0	-58.1	4.5	8.39e-01	0	56	0	0	60	17359
2026-01-06 01:17:58.76	206.60	8.42	-43.9	-55.3	6.1	8.08e-01	0	56	0	0	59	13399
2026-01-06 01:18:00.78	206.24	8.57	-43.8	-53.7	7.6	1.52e-01	0	56	0	2621440	59	11051
2026-01-06 01:18:02.80	205.88	8.72	-44.0	-56.5	5.4	1.45e-01	0	56	0	4718592	59	15259
2026-01-06 01:18:04.83	205.51	8.88	-44.2	-59.3	4.1	6.14e-01	0	56	104	4718592	59	21222
2026-01-06 01:18:06.85	205.13	9.03	-42.5	-48.2	13.2	2.46e-01	0	56	0	6291456	57	6576
2026-01-06 01:18:08.87	204.75	9.19	-39.7	-42.7	18.7	7.09e-05	0	56	0	8388608	51	4948
2026-01-06 01:18:10.89	204.37	9.34	-38.1	-40.4	21.0	0.00e+00	0	56	0	10485760	48	4529
2026-01-06 01:18:12.91	203.98	9.50	-39.8	-42.8	18.9	0.00e+00	0	56	0	13107200	50	5308
2026-01-06 01:18:14.93	203.58	9.65	-43.3	-51.8	10.2	0.00e+00	0	56	0	15204352	57	10022
2026-01-06 01:18:16.95	203.18	9.81	-41.0	-44.9	17.0	8.93e-04	0	56	0	17301504	52	6026
2026-01-06 01:18:18.97	202.77	9.97	-38.0	-40.2	21.3	0.00e+00	0	56	0	19922944	48	4422
2026-01-06 01:18:20.99	202.36	10.12	-37.7	-39.8	21.7	0.00e+00	0	56	0	22020096	47	4480
2026-01-06 01:18:23.01	201.93	10.28	-37.8	-40.0	21.5	0.00e+00	0	56	0	24117248	47	4547
2026-01-06 01:18:25.03	201.51	10.44	-37.9	-40.0	21.5	0.00e+00	0	56	0	26738688	47	4596
2026-01-06 01:18:27.04	201.08	10.60	-37.8	-40.0	21.6	0.00e+00	0	56	0	28835840	47	4547
2026-01-06 01:18:29.07	200.64	10.76	-37.8	-40.0	21.5	0.00e+00	0	56	0	30932992	47	4576
2026-01-06 01:18:31.09	200.19	10.92	-37.9	-40.1	21.6	0.00e+00	0	56	0	33554432	47	4599
2026-01-06 01:18:33.10	199.74	11.07	-37.4	-39.5	22.1	0.00e+00	0	56	0	35651584	46	4559
2026-01-06 01:18:35.12	199.28	11.23	-37.5	-39.6	22.0	0.00e+00	0	56	0	37748736	46	4624
2026-01-06 01:18:37.14	198.82	11.39	-37.5	-39.5	22.1	0.00e+00	0	56	0	40370176	46	4575
2026-01-06 01:18:39.16	198.35	11.55	-37.3	-39.3	22.3	0.00e+00	0	56	0	42467328	46	4475
2026-01-06 01:18:41.18	197.87	11.71	-37.0	-38.9	22.7	0.00e+00	0	56	0	44564480	46	4263
2026-01-06 01:18:43.20	197.38	11.87	-37.0	-38.9	22.7	0.00e+00	0	56	0	47185920	45	4533
2026-01-06 01:18:45.22	196.89	12.03	-37.3	-39.3	22.4	0.00e+00	0	56	0	49283072	45	4732
2026-01-06 01:18:47.24	196.39	12.19	-37.8	-39.9	21.8	0.00e+00	0	56	0	51380224	46	4770
2026-01-06 01:18:49.26	195.88	12.35	-37.7	-39.8	21.8	0.00e+00	0	56	0	54001664	46	4753
2026-01-06 01:18:51.28	195.37	12.51	-37.3	-39.3	22.4	0.00e+00	0	56	0	56098816	46	4461
2026-01-06 01:18:53.29	194.85	12.66	-36.9	-38.8	22.9	0.00e+00	0	56	0	58195968	45	4449
2026-01-06 01:18:55.31	194.32	12.82	-36.9	-38.8	22.9	0.00e+00	0	56	0	60817408	45	4468
2026-01-06 01:18:57.33	193.79	12.98	-37.2	-39.2	22.5	0.00e+00	0	56	0	62914560	45	4692
2026-01-06 01:18:59.36	193.24	13.14	-37.3	-39.3	22.4	0.00e+00	0	56	0	65011712	45	4733
2026-01-06 01:19:01.37	192.69	13.29	-37.6	-39.7	22.1	0.00e+00	0	56	0	67633152	45	4931
2026-01-06 01:19:03.39	192.14	13.45	-37.2	-39.1	22.6	0.00e+00	0	56	0	69730304	45	4639
2026-01-06 01:19:05.41	191.57	13.60	-37.1	-39.1	22.6	0.00e+00	0	56	0	71827456	45	4602
2026-01-06 01:19:07.43	191.00	13.76	-36.8	-38.7	23.0	0.00e+00	0	56	0	74448896	45	4433
2026-01-06 01:19:09.45	190.42	13.91	-37.0	-39.0	22.8	0.00e+00	0	56	0	76546048	45	4553
2026-01-06 01:19:11.47	189.83	14.06	-37.1	-39.1	22.6	0.00e+00	0	56	0	78643200	45	4607
2026-01-06 01:19:13.49	189.23	14.21	-37.0	-39.0	22.8	0.00e+00	0	56	0	81264640	45	4546
2026-01-06 01:19:15.51	188.63	14.36	-37.1	-39.0	22.7	0.00e+00	0	56	0	83361792	45	4563
2026-01-06 01:19:17.52	188.02	14.51	-36.5	-38.2	23.4	0.00e+00	0	56	0	85458944	44	4439
2026-01-06 01:19:19.55	187.39	14.66	-36.1	-37.9	23.8	0.00e+00	0	56	0	88080384	44	4257
2026-01-06 01:19:21.57	186.77	14.81	-36.4	-38.1	23.6	0.00e+00	0	56	0	90177536	44	4391
2026-01-06 01:19:23.58	186.13	14.95	-35.7	-37.4	24.1	0.00e+00	0	56	0	92274688	43	4270
2026-01-06 01:19:25.60	185.49	15.09	-35.5	-37.1	24.4	0.00e+00	0	56	0	94896128	42	4364
2026-01-06 01:19:27.62	184.84	15.23	-36.0	-37.8	23.8	0.00e+00	0	56	0	96993280	42	4725
2026-01-06 01:19:29.64	184.18	15.37	-36.1	-37.8	23.7	0.00e+00	0	56	0	99090432	42	4754
2026-01-06 01:19:31.66	183.51	15.51	-36.2	-38.0	23.6	0.00e+00	0	56	0	101711872	42	4815
2026-01-06 01:19:33.68	182.84	15.64	-36.0	-37.8	23.7	0.00e+00	0	56	0	103809024	42	4706
2026-01-06 01:19:35.69	182.16	15.77	-36.1	-37.9	23.6	0.00e+00	0	56	0	105906176	42	4784
2026-01-06 01:19:37.71	181.47	15.90	-36.2	-38.1	23.5	0.00e+00	0	56	0	108527616	43	4612
2026-01-06 01:19:39.73	180.77	16.03	-36.3	-38.1	23.4	0.00e+00	0	56	0	110624768	43	4635
2026-01-06 01:19:41.76	180.06	16.16	-36.3	-38.2	23.4	0.00e+00	0	56	0	112721920	43	4667
2026-01-06 01:19:43.78	179.35	16.28	-36.3	-38.1	23.5	0.00e+00	0	56	0	115343360	43	4604
2026-01-06 01:19:45.80	178.63	16.40	-36.1	-37.9	23.7	0.00e+00	0	56	0	117440512	43	4514
2026-01-06 01:19:47.81	177.91	16.51	-36.2	-38.0	23.6	0.00e+00	0	56	0	119537664	43	4582
2026-01-06 01:19:49.83	177.18	16.63	-35.9	-37.6	23.9	0.00e+00	0	56	0	122159104	43	4381
2026-01-06 01:19:51.85	176.44	16.74	-36.0	-37.7	23.9	0.00e+00	0	56	0	124256256	43	4423
2026-01-06 01:19:53.87	175.69	16.84	-35.6	-37.3	24.3	0.00e+00	0	56	0	126353408	43	4228
2026-01-06 01:19:55.89	174.94	16.95	-35.6	-37.3	24.3	0.00e+00	0	56	0	128974848	43	4198
2026-01-06 01:19:57.91	174.18	17.05	-35.7	-37.4	24.2	0.00e+00	0	56	0	131072000	43	4252
2026-01-06 01:19:59.93	173.42	17.14	-35.9	-37.6	24.2	0.00e+00	0	56	0	133169152	43	4371
2026-01-06 01:20:01.95	172.64	17.23	-35.5	-37.2	24.5	0.00e+00	0	56	0	135790592	42	4409
2026-01-06 01:20:03.96	171.87	17.32	-35.6	-37.3	24.5	0.00e+00	0	56	0	137887744	42	4464
2026-01-06 01:20:05.98	171.09	17.41	-35.5	-37.1	24.5	0.00e+00	0	56	0	139984896	42	4371
2026-01-06 01:20:08.00	170.30	17.49	-35.6	-37.2	24.5	0.00e+00	0	56	0	142606336	42	4416
2026-01-06 01:20:10.02	169.51	17.56	-35.4	-37.1	24.7	0.00e+00	0	56	0	144703488	42	4346
2026-01-06 01:20:12.04	168.71	17.63	-35.5	-37.1	24.6	0.00e+00	0	56	0	146800640	42	4378
2026-01-06 01:20:14.06	167.91	17.70	-35.3	-36.9	24.9	0.00e+00	0	56	0	149422080	42	4268
2026-01-06 01:20:16.08	167.11	17.76	-35.5	-37.1	24.7	0.00e+00	0	56	0	151519232	42	4369
2026-01-06 01:20:18.10	166.30	17.82	-35.3	-36.9	24.9	0.00e+00	0	56	0	153616384	42	4258
2026-01-06 01:20:20.12	165.48	17.87	-35.9	-37.6	24.3	0.00e+00	0	56	0	156237824	42	4605
2026-01-06 01:20:22.14	164.67	17.92	-35.7	-37.4	24.4	0.00e+00	0	56	0	158334976	42	4509
2026-01-06 01:20:24.16	163.85	17.96	-36.0	-37.8	24.1	0.00e+00	0	56	0	160432128	42	4708
2026-01-06 01:20:26.18	163.03	18.00	-35.7	-37.3	24.5	0.00e+00	0	56	0	163053568	42	4471
2026-01-06 01:20:28.20	162.20	18.03	-35.8	-37.5	24.2	0.00e+00	0	56	0	165150720	42	4597
2026-01-06 01:20:30.22	161.38	18.06	-35.6	-37.3	24.5	0.00e+00	0	56	0	167247872	41	4707
2026-01-06 01:20:32.24	160.55	18.08	-35.0	-36.6	25.1	0.00e+00	0	56	0	169869312	41	4377
2026-01-06 01:20:34.26	159.72	18.10	-35.1	-36.7	25.0	0.00e+00	0	56	0	171966464	41	4421
2026-01-06 01:20:36.28	158.89	18.11	-35.1	-36.7	24.9	0.00e+00	0	56	0	174063616	41	4422
2026-01-06 01:20:38.29	158.06	18.12	-35.4	-37.0	24.8	0.00e+00	0	56	0	176685056	41	4560
2026-01-06 01:20:40.31	157.23	18.12	-35.1	-36.6	25.0	0.00e+00	0	56	0	178782208	41	4384
2026-01-06 01:20:42.33	156.40	18.12	-35.4	-37.0	24.7	0.00e+00	0	56	0	180879360	41	4566
2026-01-06 01:20:44.35	155.57	18.11	-35.6	-37.2	24.5	0.00e+00	0	55	0	183500800	41	4685
2026-01-06 01:20:46.37	154.74	18.10	-35.5	-37.1	24.5	0.00e+00	0	56	0	185597952	41	4629
2026-01-06 01:20:48.39	153.91	18.08	-35.4	-37.0	24.6	0.00e+00	0	56	0	187695104	41	4589
2026-01-06 01:20:50.41	153.09	18.05	-35.4	-37.0	24.6	0.00e+00	0	56	0	190316544	41	4572
2026-01-06 01:20:52.43	152.26	18.02	-35.4	-37.0	24.6	0.00e+00	0	56	0	192413696	41	4577
2026-01-06 01:20:54.45	151.44	17.99	-35.2	-36.8	24.7	0.00e+00	0	56	0	194510848	41	4489
2026-01-06 01:20:56.47	150.62	17.95	-34.9	-36.5	25.0	0.00e+00	0	56	0	197132288	41	4317
2026-01-06 01:20:58.49	149.80	17.91	-35.0	-36.6	25.0	0.00e+00	0	56	0	199229440	41	4342
2026-01-06 01:21:00.51	148.99	17.86	-35.0	-36.6	24.9	0.00e+00	0	56	0	201326592	41	4349
2026-01-06 01:21:02.53	148.18	17.81	-35.2	-36.8	24.7	0.00e+00	0	56	0	203948032	41	4453
2026-01-06 01:21:04.55	147.37	17.75	-35.4	-37.1	24.4	0.00e+00	0	56	0	206045184	41	4618
2026-01-06 01:21:06.57	146.57	17.69	-35.8	-37.5	24.1	0.00e+00	0	56	0	208142336	42	4548
2026-01-06 01:21:08.58	145.77	17.62	-35.2	-36.8	24.7	0.00e+00	0	56	0	210763776	42	4212
2026-01-06 01:21:10.61	144.97	17.55	-35.3	-36.9	24.6	0.00e+00	0	56	0	212860928	42	4263
2026-01-06 01:21:12.63	144.18	17.47	-35.4	-37.1	24.4	0.00e+00	0	56	0	214958080	42	4362
2026-01-06 01:21:14.65	143.40	17.39	-35.7	-37.4	24.1	0.00e+00	0	56	0	217579520	42	4542
2026-01-06 01:21:16.66	142.62	17.31	-36.0	-37.7	23.8	0.00e+00	0	56	0	219676672	42	4694
2026-01-06 01:21:18.68	141.85	17.22	-35.9	-37.7	23.8	0.00e+00	0	56	0	221773824	42	4668
2026-01-06 01:21:20.70	141.08	17.13	-35.8	-37.6	23.9	0.00e+00	0	56	0	224395264	42	4605
2026-01-06 01:21:22.73	140.32	17.03	-35.5	-37.2	24.2	0.00e+00	0	56	0	226492416	42	4421
2026-01-06 01:21:24.74	139.57	16.93	-35.6	-37.3	24.1	0.00e+00	0	56	0	228589568	42	4484
2026-01-06 01:21:26.76	138.82	16.83	-35.4	-37.0	24.4	0.00e+00	0	56	0	231211008	42	4325
2026-01-06 01:21:28.78	138.07	16.72	-35.1	-36.7	24.7	0.00e+00	0	56	0	233308160	42	4188
2026-01-06 01:21:30.80	137.34	16.61	-35.5	-37.2	24.2	0.00e+00	0	56	0	235405312	42	4418
2026-01-06 01:21:32.81	136.61	16.50	-35.7	-37.7	23.7	0.00e+00	0	56	0	238026752	42	4703
2026-01-06 01:21:34.83	135.89	16.38	-35.6	-37.3	24.0	0.00e+00	0	56	0	240123904	42	4491
2026-01-06 01:21:36.85	135.17	16.26	-34.9	-37.0	23.9	1.10e-06	0	55	0	242221056	40	4852
2026-01-06 01:21:38.87	134.47	16.14	-35.9	-37.7	23.5	2.20e-06	0	56	0	244842496	42	4654
2026-01-06 01:21:40.89	133.77	16.01	-35.7	-37.5	23.7	1.02e-05	0	56	0	246939648	42	4566
2026-01-06 01:21:42.91	133.07	15.89	-33.8	-37.4	21.8	1.37e-05	0	56	0	249036800	39	5369
2026-01-06 01:21:44.93	132.39	15.76	-36.5	-38.2	21.7	3.08e-05	0	56	0	251658240	42	4981
2026-01-06 01:21:46.94	131.71	15.62	-36.1	-38.1	23.0	1.60e-05	0	56	0	253755392	42	4897
2026-01-06 01:21:48.96	131.04	15.49	-35.8	-37.6	23.4	1.14e-05	0	56	0	255852544	42	4638
2026-01-06 01:21:50.98	130.38	15.35	-35.5	-37.2	23.7	1.25e-05	0	56	0	258473984	41	4684
2026-01-06 01:21:53.00	129.73	15.22	-34.2	-37.6	22.5	3.40e-06	0	56	0	260571136	41	4887
2026-01-06 01:21:55.02	129.08	15.07	-34.3	-37.9	21.7	1.14e-05	0	56	0	262668288	41	5042
2026-01-06 01:21:57.04	128.44	14.93	-35.7	-38.1	22.6	4.11e-05	0	56	0	265289728	43	4617
2026-01-06 01:21:59.06	127.81	14.79	-36.0	-38.2	22.3	4.00e-05	0	56	0	267386880	42	4959
2026-01-06 01:22:01.07	127.19	14.64	-36.4	-38.6	19.6	2.05e-05	0	56	0	269484032	41	5525
2026-01-06 01:22:03.09	126.57	14.50	-36.6	-38.6	22.3	2.40e-05	0	56	0	272105472	43	4903
2026-01-06 01:22:05.11	125.96	14.35	-36.5	-38.5	22.4	4.34e-05	0	56	0	274202624	43	4840
2026-01-06 01:22:07.13	125.36	14.20	-36.9	-39.1	22.2	2.97e-05	0	56	0	276299776	44	4885
2026-01-06 01:22:09.15	124.77	14.05	-36.5	-38.5	22.6	1.83e-05	0	56	0	278921216	43	4841
2026-01-06 01:22:11.17	124.19	13.90	-36.3	-38.2	23.0	0.00e+00	0	56	0	281018368	43	4681
2026-01-06 01:22:13.19	123.61	13.74	-36.3	-38.2	23.0	0.00e+00	0	56	0	283115520	43	4695
2026-01-06 01:22:15.21	123.04	13.59	-36.5	-38.6	22.6	0.00e+00	0	56	0	285736960	43	4920
2026-01-06 01:22:17.23	122.48	13.44	-36.9	-39.4	21.9	0.00e+00	0	56	0	287834112	45	4795
2026-01-06 01:22:19.25	121.93	13.28	-37.0	-39.1	22.2	0.00e+00	0	56	0	289931264	45	4612
2026-01-06 01:22:21.27	121.38	13.13	-36.2	-38.9	22.2	0.00e+00	0	55	0	292552704	43	5087
2026-01-06 01:22:23.29	120.84	12.97	-37.0	-39.3	21.9	0.00e+00	0	56	0	294649856	44	5025
2026-01-06 01:22:25.30	120.31	12.81	-36.8	-39.3	21.7	3.40e-06	0	56	0	296747008	44	4987
2026-01-06 01:22:27.32	119.79	12.66	-34.8	-38.7	21.6	6.23e-04	0	56	0	299368448	42	5272
2026-01-06 01:22:29.34	119.27	12.50	-32.5	-38.8	20.6	3.35e-03	0	56	0	301465600	41	5655
2026-01-06 01:22:31.36	118.76	12.34	-35.3	-38.7	21.5	1.95e-03	0	55	0	303562752	41	5573
2026-01-06 01:22:33.38	118.26	12.18	-32.4	-39.4	17.9	1.85e-04	0	56	0	306184192	37	7614
2026-01-06 01:22:35.40	117.76	12.03	-36.4	-38.9	21.2	5.25e-04	0	56	0	308281344	43	5076
2026-01-06 01:22:37.42	117.27	11.87	-36.4	-39.5	21.3	4.50e-06	0	56	0	310378496	44	5157
2026-01-06 01:22:39.44	116.79	11.71	-36.9	-39.8	21.1	1.10e-06	0	56	0	312999936	45	4986
2026-01-06 01:22:41.46	116.32	11.55	-36.3	-39.9	20.7	0.00e+00	0	56	0	315097088	45	5084
2026-01-06 01:22:43.48	115.85	11.39	-36.6	-39.6	20.5	1.10e-06	0	56	0	317194240	42	5841
2026-01-06 01:22:45.50	115.39	11.23	-36.5	-39.6	20.7	6.80e-06	0	56	0	319815680	44	5176
2026-01-06 01:22:47.51	114.94	11.08	-35.8	-39.6	19.5	1.10e-06	0	56	0	321912832	43	5519
2026-01-06 01:22:49.54	114.49	10.92	-28.5	-39.0	15.3	3.20e-05	0	56	0	324009984	31	10274
2026-01-06 01:22:51.56	114.04	10.76	-35.1	-39.7	18.9	5.92e-04	0	56	0	326631424	42	5905
2026-01-06 01:22:53.58	113.61	10.60	-33.9	-38.4	16.2	4.31e-04	0	56	0	328728576	35	7585
2026-01-06 01:22:55.60	113.18	10.44	-28.1	-38.8	16.0	1.57e-03	0	56	0	330825728	36	7460
2026-01-06 01:22:57.62	112.76	10.29	-35.3	-39.3	16.2	2.57e-03	0	56	0	333447168	33	9487
2026-01-06 01:22:59.63	112.34	10.13	-36.4	-42.9	16.6	2.69e-03	0	56	0	335544320	46	6796
2026-01-06 01:23:01.66	111.93	9.97	-32.2	-43.9	12.6	2.95e-02	0	56	0	337641472	40	10726
2026-01-06 01:23:03.67	111.53	9.82	-37.1	-41.4	18.1	2.69e-04	0	56	0	340262912	45	6023
2026-01-06 01:23:05.69	111.13	9.66	-37.0	-40.1	20.1	6.06e-05	0	56	0	342360064	44	5510
2026-01-06 01:23:07.71	110.74	9.51	-36.2	-40.5	17.9	2.51e-05	0	56	0	344457216	42	6491
2026-01-06 01:23:09.73	110.35	9.35	-36.7	-40.7	19.5	1.14e-05	0	56	0	347078656	44	5860
2026-01-06 01:23:11.75	109.97	9.20	-37.3	-40.9	19.4	6.22e-03	0	56	0	349175808	45	5674
2026-01-06 01:23:13.77	109.59	9.05	-37.3	-41.4	13.5	3.61e-02	0	56	0	351272960	41	7607
2026-01-06 01:23:15.79	109.22	8.89	-34.1	-40.8	18.9	3.55e-02	0	56	0	353894400	43	6338
2026-01-06 01:23:17.81	108.85	8.74	-37.4	-41.3	18.4	6.40e-05	0	56	0	355991552	45	5989
2026-01-06 01:23:19.83	108.49	8.59	-36.1	-41.0	17.1	2.15e-04	0	56	0	358088704	43	6454
2026-01-06 01:23:21.85	108.14	8.44	-37.0	-41.3	18.3	1.24e-02	0	56	0	360710144	45	5983
2026-01-06 01:23:23.87	107.79	8.29	-36.7	-41.6	17.8	6.49e-02	0	56	0	362807296	44	6537
2026-01-06 01:23:25.89	107.44	8.13	-37.0	-41.5	17.5	3.16e-04	0	56	0	364904448	45	6112
2026-01-06 01:23:27.91	107.10	7.98	-43.4	-59.8	4.0	3.52e-02	0	56	104	367001600	57	25048
2026-01-06 01:23:29.93	106.76	7.84	-44.7	-63.0	3.8	8.45e-01	0	56	104	367001600	60	30535
2026-01-06 01:23:31.95	106.43	7.69	-45.2	-63.4	3.8	8.47e-01	0	56	104	367001600	60	32161
2026-01-06 01:23:33.97	106.11	7.54	-45.4	-63.7	3.8	8.46e-01	0	56	104	367001600	61	31207
2026-01-06 01:23:35.99	105.79	7.39	-45.5	-63.8	3.8	8.46e-01	0	56	104	367001600	61	31727
2026-01-06 01:23:38.02	105.47	7.24	-45.5	-63.8	3.8	8.46e-01	0	56	104	367001600	61	31772
2026-01-06 01:23:40.04	105.15	7.10	-45.4	-63.8	3.8	8.47e-01	0	56	104	367001600	61	31473
2026-01-06 01:23:42.06	104.85	6.95	-45.3	-63.7	3.8	8.45e-01	0	56	104	367001600	61	31239
2026-01-06 01:23:44.08	104.54	6.81	-45.2	-63.7	3.8	8.45e-01	0	56	104	367001600	61	31129
2026-01-06 01:23:46.11	104.24	6.66	-45.2	-63.6	3.8	8.46e-01	0	56	104	367001600	61	31058
2026-01-06 01:23:48.13	103.94	6.52	-45.2	-63.7	3.8	8.46e-01	0	56	104	367001600	61	31103
2026-01-06 01:23:50.15	103.65	6.38	-45.2	-63.6	3.8	8.46e-01	0	56	104	367001600	61	31079
2026-01-06 01:23:52.17	103.37	6.23	-45.2	-63.6	3.8	8.47e-01	0	56	104	367001600	61	31027
2026-01-06 01:23:54.20	103.08	6.09	-45.2	-63.6	3.8	8.46e-01	0	56	104	367001600	61	31067
2026-01-06 01:23:56.22	102.80	5.95	-45.2	-63.6	3.8	8.45e-01	0	56	104	367001600	61	30973
2026-01-06 01:23:58.24	102.52	5.81	-45.2	-63.6	3.8	8.47e-01	0	56	104	367001600	61	30994
2026-01-06 01:24:00.26	102.25	5.67	-45.2	-63.6	3.8	8.46e-01	0	56	104	367001600	61	31007
2026-01-06 01:24:02.28	101.98	5.53	-45.2	-63.6	3.8	8.45e-01	0	56	104	367001600	61	31010
2026-01-06 01:24:04.30	101.72	5.40	-45.2	-63.6	3.8	8.46e-01	0	56	104	367001600	61	30968
2026-01-06 01:24:06.33	101.46	5.26	-45.2	-63.6	3.8	8.47e-01	0	56	104	367001600	61	30911
2026-01-06 01:24:08.35	101.20	5.12	-45.2	-63.6	3.8	8.45e-01	0	56	104	367001600	61	30841
2026-01-06 01:24:10.37	100.94	4.98	-45.2	-63.6	3.8	8.46e-01	0	56	104	367001600	61	30995
2026-01-06 01:24:12.39	100.69	4.85	-45.2	-63.6	3.8	8.46e-01	0	56	104	367001600	61	30876
2026-01-06 01:24:14.41	100.44	4.71	-45.2	-63.6	3.8	8.46e-01	0	56	104	367001600	61	30965
2026-01-06 01:24:16.44	100.20	4.58	-45.1	-63.6	3.8	8.46e-01	0	56	104	367001600	61	30934
2026-01-06 01:24:18.46	99.96	4.44	-45.2	-63.6	3.8	8.47e-01	0	56	104	367001600	61	30793
2026-01-06 01:24:20.48	99.72	4.31	-45.2	-63.6	3.8	8.46e-01	0	56	104	367001600	61	30941
2026-01-06 01:24:22.50	99.48	4.18	-45.2	-63.6	3.8	8.44e-01	0	56	104	367001600	61	30987
2026-01-06 01:24:24.53	99.25	4.05	-45.2	-63.6	3.8	8.46e-01	0	56	104	367001600	61	30888
2026-01-06 01:24:26.55	99.02	3.92	-45.2	-63.6	3.8	8.46e-01	0	56	104	367001600	61	30909
2026-01-06 01:24:28.57	98.80	3.79	-45.2	-63.6	3.8	8.46e-01	0	56	104	367001600	61	30928
2026-01-06 01:24:30.59	98.57	3.66	-45.2	-63.6	3.8	8.47e-01	0	56	104	367001600	61	30928
2026-01-06 01:24:32.61	98.35	3.53	-45.2	-63.6	3.8	8.47e-01	0	56	104	367001600	61	30885
2026-01-06 01:24:34.64	98.13	3.40	-45.2	-63.6	3.8	8.46e-01	0	56	104	367001600	61	30910
2026-01-06 01:24:36.66	97.92	3.27	-45.2	-63.6	3.8	8.45e-01	0	56	104	367001600	61	30882
2026-01-06 01:24:38.68	97.71	3.14	-45.1	-63.6	3.8	8.46e-01	0	56	104	367001600	61	30878
2026-01-06 01:24:40.70	97.50	3.02	-45.1	-63.6	3.8	8.46e-01	0	56	104	367001600	61	30827
2026-01-06 01:24:42.72	97.29	2.89	-45.2	-63.6	3.8	8.47e-01	0	56	104	367001600	61	30838
2026-01-06 01:24:44.74	97.09	2.76	-45.2	-63.6	3.8	8.46e-01	0	56	104	367001600	61	30852
2026-01-06 01:24:46.77	96.88	2.64	-45.1	-63.6	3.8	8.46e-01	0	56	104	367001600	61	30953
2026-01-06 01:24:48.79	96.69	2.51	-45.2	-63.6	3.8	8.45e-01	0	56	104	367001600	61	30797
2026-01-06 01:24:50.81	96.49	2.39	-45.2	-63.6	3.8	8.48e-01	0	56	104	367001600	61	30787
2026-01-06 01:24:52.83	96.29	2.27	-45.1	-63.6	3.8	8.46e-01	0	56	104	367001600	61	30909
2026-01-06 01:24:54.86	96.10	2.14	-45.2	-63.6	3.8	8.47e-01	0	56	104	367001600	61	30828
2026-01-06 01:24:56.88	95.91	2.02	-45.1	-63.6	3.8	8.47e-01	0	56	104	367001600	61	30845

#Closed at: 2026-01-06 01:24:58
#Recorded file [367 MB]: D:/lorett/data/31039_260106_041718.dat