passes_logs/2026/01/06/R2.0S_Moscow/R2.0S_Moscow__20260106_114626_NOAA_21_JPSS-2_rec.log

#Pass ID: 20260106_114626_NOAA 21 (JPSS-2)
#Satellite: NOAA 21 (JPSS-2)
#Configuration: NOAA-21
#almurnet v.1.7.20251203
#Start time: 2026-01-06 11:48:49

#Version: 2.2.20231116
#Station: R2.0S_Moscow
#Location: 37.707566 lon 55.798166 lat
#TLE: 1 54234U 22150A   26005.21525222  .00000150  00000+0  91957-4 0  9992
#TLE: 2 54234  98.7490 306.2339 0001053 341.6032  18.5106 14.19532220163427

#Time	Az	El	Level	Level2	SNR	BER	BlckErr	Temp	State	Recorded	gain1	gain2
2026-01-06 11:48:49.13	233.59	9.53	-45.0	-56.8	3.8	8.47e-01	0	56	0	0	60	15041
2026-01-06 11:48:52.15	234.02	9.69	-45.2	-57.7	3.8	1.49e+00	0	57	104	0	62	14859
2026-01-06 11:48:55.18	234.45	9.85	-45.1	-57.7	3.8	1.49e+00	0	57	104	0	62	14753
2026-01-06 11:48:58.21	234.88	10.01	-45.0	-57.4	3.8	1.49e+00	0	56	104	0	62	14349
2026-01-06 11:49:01.25	235.32	10.17	-44.5	-57.0	3.8	1.49e+00	0	57	104	0	61	14536
2026-01-06 11:49:04.28	235.76	10.33	-44.5	-56.9	3.8	1.49e+00	0	57	104	0	61	14306
2026-01-06 11:49:07.31	236.21	10.48	-44.5	-56.6	3.8	1.49e+00	0	56	104	0	60	14612
2026-01-06 11:49:10.34	236.67	10.64	-44.5	-56.7	3.8	1.49e+00	0	56	104	0	60	14823
2026-01-06 11:49:13.37	237.12	10.80	-44.5	-57.0	3.8	1.49e+00	0	57	104	0	60	15232
2026-01-06 11:49:16.40	237.59	10.95	-44.5	-56.8	3.8	1.49e+00	0	56	104	0	60	14998
2026-01-06 11:49:19.44	238.05	11.11	-44.3	-55.4	3.8	1.49e+00	0	56	104	0	60	12784
2026-01-06 11:49:22.47	238.53	11.26	-44.3	-54.5	4.0	1.48e+00	0	56	104	0	60	11462
2026-01-06 11:49:25.50	239.00	11.42	-44.4	-56.2	3.8	1.49e+00	0	57	104	0	60	13886
2026-01-06 11:49:28.53	239.48	11.57	-44.4	-56.3	3.8	1.49e+00	0	57	104	0	60	14069
2026-01-06 11:49:31.57	239.97	11.72	-44.3	-54.7	3.9	1.49e+00	0	56	104	0	60	11744
2026-01-06 11:49:34.60	240.46	11.88	-43.3	-49.1	6.6	2.67e-01	0	57	0	2097152	58	6929
2026-01-06 11:49:37.63	240.96	12.03	-40.7	-43.7	11.9	9.44e-04	0	57	0	11534336	53	4934
2026-01-06 11:49:40.66	241.46	12.18	-38.9	-40.8	14.9	7.00e-07	0	56	0	20971520	49	4484
2026-01-06 11:49:43.70	241.97	12.32	-44.6	-55.4	3.8	2.88e-02	0	56	104	30408704	59	13426
2026-01-06 11:49:46.73	242.48	12.47	-43.9	-51.4	5.1	5.75e-02	0	56	0	35651584	58	9002
2026-01-06 11:49:49.76	243.00	12.62	-38.5	-40.4	15.3	0.00e+00	0	57	0	40894464	49	4259
2026-01-06 11:49:52.78	243.51	12.76	-38.2	-40.0	15.7	0.00e+00	0	56	0	51380224	48	4323
2026-01-06 11:49:55.81	244.04	12.90	-38.3	-40.1	15.6	0.00e+00	0	57	0	59768832	48	4389
2026-01-06 11:49:58.84	244.57	13.05	-38.2	-40.0	15.7	0.00e+00	0	57	0	70254592	48	4312
2026-01-06 11:50:01.87	245.11	13.19	-38.2	-39.9	15.8	0.00e+00	0	57	0	78643200	48	4278
2026-01-06 11:50:04.90	245.65	13.33	-38.2	-40.0	15.7	0.00e+00	0	56	0	89128960	48	4318
2026-01-06 11:50:07.93	246.19	13.46	-38.4	-40.3	15.5	0.00e+00	0	56	0	98566144	48	4460
2026-01-06 11:50:10.96	246.74	13.60	-38.4	-40.3	15.5	0.00e+00	0	56	0	108003328	48	4458
2026-01-06 11:50:13.99	247.30	13.73	-38.3	-40.1	15.6	0.00e+00	0	56	0	117440512	48	4369
2026-01-06 11:50:17.02	247.86	13.87	-38.2	-40.0	15.8	0.00e+00	0	57	0	126877696	48	4299
2026-01-06 11:50:20.05	248.42	14.00	-38.2	-39.9	15.8	0.00e+00	0	56	0	136314880	48	4279
2026-01-06 11:50:23.07	248.99	14.12	-38.1	-39.8	15.9	0.00e+00	0	56	0	145752064	48	4240
2026-01-06 11:50:26.10	249.57	14.25	-38.2	-40.0	15.7	0.00e+00	0	57	0	155189248	48	4339
2026-01-06 11:50:29.13	250.15	14.37	-38.1	-39.9	15.9	0.00e+00	0	57	0	164626432	48	4271
2026-01-06 11:50:32.17	250.73	14.50	-38.1	-39.8	16.0	0.00e+00	0	56	0	174063616	48	4213
2026-01-06 11:50:35.20	251.32	14.62	-38.1	-39.8	16.0	0.00e+00	0	56	0	183500800	48	4230
2026-01-06 11:50:38.23	251.91	14.74	-38.3	-40.1	15.7	0.00e+00	0	56	0	192937984	48	4345
2026-01-06 11:50:41.26	252.51	14.85	-38.3	-40.1	15.7	0.00e+00	0	56	0	202375168	48	4357
2026-01-06 11:50:44.29	253.11	14.96	-38.1	-39.8	16.0	0.00e+00	0	56	0	211812352	48	4238
2026-01-06 11:50:47.32	253.72	15.08	-37.9	-39.6	16.1	0.00e+00	0	56	0	221249536	47	4357
2026-01-06 11:50:50.35	254.33	15.18	-37.9	-39.7	16.0	0.00e+00	0	56	0	230686720	47	4422
2026-01-06 11:50:53.38	254.95	15.29	-37.9	-39.7	16.0	0.00e+00	0	56	0	240123904	47	4401
2026-01-06 11:50:56.41	255.56	15.39	-37.8	-39.6	16.1	0.00e+00	0	56	0	249561088	47	4357
2026-01-06 11:50:59.44	256.19	15.49	-37.6	-39.3	16.4	0.00e+00	0	56	0	258998272	47	4203
2026-01-06 11:51:02.47	256.82	15.59	-37.6	-39.3	16.4	0.00e+00	0	56	0	268435456	47	4205
2026-01-06 11:51:05.50	257.45	15.69	-37.8	-39.5	16.2	0.00e+00	0	56	0	277872640	47	4301
2026-01-06 11:51:08.53	258.08	15.78	-37.7	-39.4	16.3	0.00e+00	0	57	0	287309824	47	4280
2026-01-06 11:51:11.56	258.72	15.87	-37.6	-39.3	16.4	0.00e+00	0	57	0	296747008	47	4198
2026-01-06 11:51:14.59	259.36	15.95	-37.6	-39.2	16.5	0.00e+00	0	56	0	306184192	47	4167
2026-01-06 11:51:17.62	260.01	16.03	-37.4	-39.0	16.7	0.00e+00	0	57	0	315621376	46	4333
2026-01-06 11:51:20.66	260.66	16.11	-37.4	-39.0	16.7	0.00e+00	0	56	0	325058560	46	4315
2026-01-06 11:51:23.69	261.31	16.19	-37.6	-39.2	16.5	0.00e+00	0	56	0	334495744	46	4412
2026-01-06 11:51:26.72	261.97	16.26	-37.5	-39.2	16.5	0.00e+00	0	56	0	343932928	46	4404
2026-01-06 11:51:29.75	262.63	16.33	-37.4	-39.0	16.7	0.00e+00	0	56	0	353370112	46	4320
2026-01-06 11:51:32.78	263.29	16.40	-37.4	-39.1	16.6	0.00e+00	0	56	0	363855872	46	4342
2026-01-06 11:51:35.81	263.95	16.46	-37.4	-39.0	16.7	0.00e+00	0	56	0	372244480	46	4322
2026-01-06 11:51:38.84	264.62	16.52	-37.5	-39.1	16.6	0.00e+00	0	56	0	382730240	46	4348
2026-01-06 11:51:41.87	265.29	16.57	-37.6	-39.2	16.5	0.00e+00	0	57	0	392167424	46	4426
2026-01-06 11:51:44.91	265.96	16.63	-37.6	-39.3	16.5	0.00e+00	0	56	0	401604608	46	4450
2026-01-06 11:51:47.94	266.63	16.67	-37.4	-39.1	16.7	0.00e+00	0	57	0	411041792	46	4344
2026-01-06 11:51:50.97	267.31	16.72	-37.5	-39.1	16.6	0.00e+00	0	56	0	420478976	46	4389
2026-01-06 11:51:54.00	267.99	16.76	-37.6	-39.3	16.4	0.00e+00	0	56	0	429916160	46	4461
2026-01-06 11:51:57.03	268.67	16.80	-37.5	-39.1	16.6	0.00e+00	0	57	0	439353344	46	4347
2026-01-06 11:52:00.05	269.34	16.83	-37.5	-39.1	16.6	0.00e+00	0	57	0	448790528	46	4364
2026-01-06 11:52:03.08	270.03	16.86	-37.5	-39.2	16.5	0.00e+00	0	56	0	458227712	46	4403
2026-01-06 11:52:06.11	270.71	16.88	-37.4	-39.0	16.6	0.00e+00	0	56	0	467664896	46	4327
2026-01-06 11:52:09.15	271.40	16.90	-37.5	-39.1	16.5	0.00e+00	0	56	0	477102080	46	4384
2026-01-06 11:52:12.18	272.08	16.92	-37.6	-39.3	16.4	0.00e+00	0	56	0	486539264	46	4460
2026-01-06 11:52:15.21	272.77	16.94	-37.5	-39.1	16.5	0.00e+00	0	56	0	495976448	46	4384
2026-01-06 11:52:18.24	273.45	16.95	-37.6	-39.2	16.5	0.00e+00	0	56	0	505413632	46	4420
2026-01-06 11:52:21.27	274.14	16.95	-37.5	-39.1	16.5	0.00e+00	0	56	0	514850816	46	4386
2026-01-06 11:52:24.31	274.83	16.95	-37.5	-39.2	16.5	0.00e+00	0	56	0	524288000	46	4408
2026-01-06 11:52:27.34	275.51	16.95	-37.6	-39.2	16.4	0.00e+00	0	56	0	533725184	46	4427
2026-01-06 11:52:30.37	276.20	16.95	-37.5	-39.2	16.5	0.00e+00	0	56	0	543162368	46	4411
2026-01-06 11:52:33.40	276.88	16.94	-37.6	-39.2	16.5	0.00e+00	0	56	0	552599552	46	4422
2026-01-06 11:52:36.43	277.57	16.92	-37.7	-39.4	16.3	0.00e+00	0	56	0	562036736	46	4501
2026-01-06 11:52:39.46	278.25	16.91	-37.6	-39.2	16.4	0.00e+00	0	56	0	571473920	46	4427
2026-01-06 11:52:42.49	278.94	16.88	-37.6	-39.3	16.4	0.00e+00	0	56	0	580911104	46	4457
2026-01-06 11:52:45.52	279.62	16.86	-37.4	-39.0	16.6	0.00e+00	0	56	0	590348288	46	4312
2026-01-06 11:52:48.56	280.30	16.83	-37.5	-39.2	16.4	0.00e+00	0	56	0	599785472	46	4397
2026-01-06 11:52:51.58	280.98	16.80	-37.5	-39.1	16.5	0.00e+00	0	56	0	609222656	46	4387
2026-01-06 11:52:54.61	281.66	16.76	-37.6	-39.2	16.4	0.00e+00	0	56	0	618659840	46	4435
2026-01-06 11:52:57.64	282.33	16.72	-37.7	-39.4	16.2	0.00e+00	0	56	0	628097024	46	4503
2026-01-06 11:53:00.66	283.01	16.67	-37.7	-39.4	16.2	0.00e+00	0	56	0	637534208	46	4532
2026-01-06 11:53:03.69	283.68	16.63	-37.5	-39.2	16.4	0.00e+00	0	56	0	646971392	46	4400
2026-01-06 11:53:06.72	284.35	16.58	-37.8	-39.6	16.1	0.00e+00	0	56	0	656408576	46	4601
2026-01-06 11:53:09.76	285.02	16.52	-37.9	-39.7	15.9	0.00e+00	0	56	0	665845760	46	4679
2026-01-06 11:53:12.79	285.68	16.46	-37.7	-39.5	16.1	0.00e+00	0	56	0	676331520	46	4546
2026-01-06 11:53:15.82	286.35	16.40	-37.7	-39.4	16.2	0.00e+00	0	56	0	685768704	46	4521
2026-01-06 11:53:18.85	287.01	16.33	-37.5	-39.2	16.4	0.00e+00	0	56	0	695205888	46	4398
2026-01-06 11:53:21.88	287.66	16.27	-37.7	-39.4	16.2	0.00e+00	0	56	0	704643072	46	4507
2026-01-06 11:53:24.91	288.32	16.19	-37.7	-39.4	16.1	0.00e+00	0	56	0	714080256	46	4543
2026-01-06 11:53:27.94	288.97	16.12	-37.7	-39.4	16.2	0.00e+00	0	56	0	723517440	46	4507
2026-01-06 11:53:30.97	289.61	16.04	-37.6	-39.2	16.3	0.00e+00	0	56	0	732954624	46	4436
2026-01-06 11:53:34.01	290.26	15.96	-37.6	-39.3	16.3	0.00e+00	0	56	0	742391808	46	4480
2026-01-06 11:53:37.03	290.90	15.87	-37.6	-39.2	16.3	0.00e+00	0	56	0	751828992	46	4432
2026-01-06 11:53:40.07	291.54	15.78	-37.6	-39.3	16.3	0.00e+00	0	56	0	761266176	46	4486
2026-01-06 11:53:43.10	292.17	15.69	-37.5	-39.1	16.4	0.00e+00	0	56	0	770703360	46	4380
2026-01-06 11:53:46.13	292.80	15.60	-37.4	-39.1	16.5	0.00e+00	0	56	0	780140544	46	4348
2026-01-06 11:53:49.16	293.42	15.50	-37.4	-39.1	16.5	0.00e+00	0	56	0	789577728	46	4346
2026-01-06 11:53:52.19	294.04	15.40	-37.4	-39.0	16.5	0.00e+00	0	56	0	799014912	46	4321
2026-01-06 11:53:55.22	294.66	15.30	-37.4	-39.0	16.5	0.00e+00	0	56	0	808452096	46	4308
2026-01-06 11:53:58.25	295.27	15.19	-37.4	-39.1	16.4	0.00e+00	0	56	0	817889280	46	4370
2026-01-06 11:54:01.29	295.88	15.09	-37.6	-39.3	16.3	0.00e+00	0	56	0	827326464	46	4446
2026-01-06 11:54:04.32	296.49	14.98	-37.6	-39.3	16.2	0.00e+00	0	56	0	836763648	46	4463
2026-01-06 11:54:07.35	297.09	14.86	-37.4	-39.0	16.5	0.00e+00	0	56	0	846200832	46	4325
2026-01-06 11:54:10.38	297.68	14.75	-37.4	-39.1	16.4	0.00e+00	0	57	0	855638016	46	4355
2026-01-06 11:54:13.41	298.27	14.63	-37.5	-39.2	16.3	0.00e+00	0	56	0	865075200	46	4420
2026-01-06 11:54:16.43	298.86	14.51	-37.7	-39.4	16.1	0.00e+00	0	56	0	874512384	46	4519
2026-01-06 11:54:19.46	299.44	14.39	-37.5	-39.2	16.4	0.00e+00	0	56	0	883949568	46	4396
2026-01-06 11:54:22.49	300.01	14.27	-37.4	-39.0	16.5	0.00e+00	0	56	0	893386752	46	4312
2026-01-06 11:54:25.52	300.59	14.14	-37.5	-39.2	16.4	0.00e+00	0	56	0	902823936	46	4395
2026-01-06 11:54:28.56	301.16	14.02	-37.5	-39.2	16.4	0.00e+00	0	56	0	912261120	46	4404
2026-01-06 11:54:31.58	301.72	13.89	-37.8	-39.5	16.0	0.00e+00	0	56	0	921698304	46	4567
2026-01-06 11:54:34.61	302.27	13.76	-37.7	-39.4	16.2	0.00e+00	0	56	0	931135488	46	4512
2026-01-06 11:54:37.65	302.83	13.62	-37.7	-39.4	16.2	0.00e+00	0	56	0	940572672	46	4507
2026-01-06 11:54:40.67	303.37	13.49	-37.8	-39.6	16.0	0.00e+00	0	56	0	950009856	46	4606
2026-01-06 11:54:43.71	303.92	13.35	-37.9	-39.7	15.8	0.00e+00	0	56	0	959447040	46	4685
2026-01-06 11:54:46.74	304.46	13.22	-38.1	-39.9	15.7	0.00e+00	0	56	0	969932800	46	4768
2026-01-06 11:54:49.77	304.99	13.08	-38.0	-39.9	15.6	0.00e+00	0	56	0	979369984	46	4766
2026-01-06 11:54:52.80	305.52	12.94	-37.9	-39.7	15.8	0.00e+00	0	56	0	988807168	46	4674
2026-01-06 11:54:55.83	306.04	12.79	-37.9	-39.6	15.8	0.00e+00	0	56	0	998244352	46	4640
2026-01-06 11:54:58.86	306.56	12.65	-37.9	-39.7	15.7	0.00e+00	0	56	0	1007681536	46	4701
2026-01-06 11:55:01.88	307.07	12.51	-38.1	-39.9	15.6	0.00e+00	0	56	0	1017118720	46	4792
2026-01-06 11:55:04.92	307.58	12.36	-38.2	-40.0	15.4	0.00e+00	0	56	0	1026555904	47	4591
2026-01-06 11:55:07.95	308.09	12.21	-38.2	-40.0	15.4	0.00e+00	0	56	0	1035993088	47	4593
2026-01-06 11:55:10.98	308.59	12.07	-38.2	-40.1	15.4	0.00e+00	0	56	0	1045430272	47	4607
2026-01-06 11:55:14.01	309.08	11.92	-38.3	-40.3	15.1	0.00e+00	0	56	0	1054867456	47	4718
2026-01-06 11:55:17.05	309.57	11.77	-38.3	-40.2	15.2	0.00e+00	0	56	0	1064304640	47	4678
2026-01-06 11:55:20.08	310.05	11.62	-38.5	-40.5	14.9	0.00e+00	0	56	0	1073741824	47	4831
2026-01-06 11:55:23.11	310.53	11.47	-38.5	-40.5	14.9	0.00e+00	0	56	0	1083179008	47	4834
2026-01-06 11:55:26.14	311.01	11.31	-38.6	-40.6	14.8	7.00e-07	0	56	0	1092616192	47	4899
2026-01-06 11:55:29.17	311.48	11.16	-38.5	-40.5	14.9	0.00e+00	0	56	0	1102053376	47	4841
2026-01-06 11:55:32.19	311.94	11.01	-38.4	-40.4	15.0	0.00e+00	0	56	0	1111490560	47	4786
2026-01-06 11:55:35.22	312.40	10.85	-38.3	-40.2	15.1	0.00e+00	0	56	0	1120927744	47	4705
2026-01-06 11:55:38.25	312.86	10.70	-38.5	-40.4	15.0	7.00e-07	0	56	0	1130364928	47	4814
2026-01-06 11:55:41.28	313.31	10.54	-38.5	-40.6	14.8	0.00e+00	0	56	0	1139802112	47	4871
2026-01-06 11:55:44.32	313.76	10.39	-38.5	-40.5	14.9	7.00e-07	0	56	0	1149239296	47	4844
2026-01-06 11:55:47.35	314.20	10.23	-38.6	-40.7	14.7	0.00e+00	0	56	0	1158676480	47	4933
2026-01-06 11:55:50.38	314.64	10.07	-38.8	-40.9	14.5	0.00e+00	0	56	0	1168113664	48	4800
2026-01-06 11:55:53.41	315.07	9.92	-38.7	-40.8	14.6	0.00e+00	0	56	0	1177550848	48	4723
2026-01-06 11:55:56.44	315.50	9.76	-38.8	-40.8	14.6	0.00e+00	0	56	0	1186988032	48	4745
2026-01-06 11:55:59.47	315.92	9.60	-38.9	-41.0	14.4	7.00e-07	0	56	0	1196425216	48	4832
2026-01-06 11:56:02.50	316.34	9.44	-38.8	-40.9	14.5	2.20e-06	0	56	0	1205862400	48	4801
2026-01-06 11:56:05.53	316.75	9.28	-38.8	-40.8	14.5	7.00e-07	0	56	0	1215299584	48	4755
2026-01-06 11:56:08.56	317.16	9.12	-38.8	-40.9	14.4	0.00e+00	0	56	0	1224736768	48	4805
2026-01-06 11:56:11.59	317.57	8.96	-38.7	-40.8	14.6	7.00e-07	0	56	0	1234173952	48	4719
2026-01-06 11:56:14.62	317.97	8.80	-38.9	-41.0	14.4	0.00e+00	0	56	0	1243611136	48	4826
2026-01-06 11:56:17.65	318.37	8.64	-38.9	-41.1	14.2	1.50e-06	0	56	0	1253048320	48	4897
2026-01-06 11:56:20.69	318.76	8.48	-38.9	-41.1	14.3	0.00e+00	0	57	0	1263534080	48	4878
2026-01-06 11:56:23.72	319.15	8.32	-38.9	-41.1	14.2	7.00e-07	0	56	0	1271922688	48	4874
2026-01-06 11:56:26.75	319.54	8.16	-39.0	-41.2	14.1	2.20e-06	0	56	0	1282408448	48	4938
2026-01-06 11:56:29.78	319.92	8.00	-43.9	-53.5	3.9	9.26e-01	0	57	104	1290797056	58	11489
2026-01-06 11:56:32.81	320.30	7.84	-44.9	-57.4	3.8	1.49e+00	0	56	104	1290797056	60	16008
2026-01-06 11:56:35.84	320.67	7.68	-45.2	-57.7	3.8	1.49e+00	0	57	104	1290797056	60	16627
2026-01-06 11:56:38.87	321.04	7.52	-45.2	-57.8	3.8	1.49e+00	0	57	104	1290797056	60	16711
2026-01-06 11:56:41.90	321.41	7.36	-45.1	-57.7	3.8	1.49e+00	0	56	104	1290797056	60	16660
2026-01-06 11:56:44.93	321.77	7.20	-45.1	-57.7	3.8	1.49e+00	0	56	104	1290797056	60	16668
2026-01-06 11:56:47.96	322.12	7.04	-45.1	-57.7	3.8	1.49e+00	0	57	104	1290797056	60	16611
2026-01-06 11:56:50.99	322.48	6.88	-45.1	-57.7	3.8	1.49e+00	0	57	104	1290797056	60	16603
2026-01-06 11:56:54.03	322.83	6.72	-45.1	-57.7	3.8	1.49e+00	0	56	104	1290797056	60	16629
2026-01-06 11:56:57.06	323.18	6.56	-45.1	-57.7	3.8	1.49e+00	0	57	104	1290797056	60	16603
2026-01-06 11:57:00.09	323.52	6.41	-45.1	-57.7	3.8	1.49e+00	0	57	104	1290797056	60	16559
2026-01-06 11:57:03.12	323.86	6.25	-45.1	-57.7	3.8	1.49e+00	0	56	104	1290797056	60	16569
2026-01-06 11:57:06.16	324.20	6.09	-45.1	-57.7	3.8	1.49e+00	0	57	104	1290797056	60	16578
2026-01-06 11:57:09.19	324.53	5.93	-45.1	-57.7	3.8	1.49e+00	0	57	104	1290797056	60	16507
2026-01-06 11:57:12.22	324.86	5.77	-45.1	-57.7	3.8	1.49e+00	0	57	104	1290797056	60	16563
2026-01-06 11:57:15.25	325.18	5.61	-45.1	-57.7	3.8	1.49e+00	0	57	104	1290797056	60	16529
2026-01-06 11:57:18.28	325.51	5.45	-45.1	-57.7	3.8	1.49e+00	0	57	104	1290797056	60	16549
2026-01-06 11:57:21.32	325.83	5.29	-45.1	-57.7	3.8	1.49e+00	0	57	104	1290797056	60	16544
2026-01-06 11:57:24.35	326.14	5.14	-45.1	-57.7	3.8	1.49e+00	0	57	104	1290797056	60	16521
2026-01-06 11:57:27.38	326.45	4.98	-45.1	-57.7	3.8	1.49e+00	0	57	104	1290797056	60	16528
2026-01-06 11:57:30.41	326.76	4.82	-45.1	-57.6	3.8	1.49e+00	0	57	104	1290797056	60	16489
2026-01-06 11:57:33.44	327.07	4.66	-45.1	-57.7	3.8	1.49e+00	0	56	104	1290797056	60	16549
2026-01-06 11:57:36.48	327.37	4.51	-45.1	-57.7	3.8	1.49e+00	0	57	104	1290797056	60	16531
2026-01-06 11:57:39.51	327.67	4.35	-45.1	-57.7	3.8	1.49e+00	0	57	104	1290797056	60	16504
2026-01-06 11:57:42.54	327.97	4.19	-45.1	-57.6	3.8	1.49e+00	0	57	104	1290797056	60	16493
2026-01-06 11:57:45.57	328.26	4.04	-45.0	-57.7	3.8	1.49e+00	0	57	104	1290797056	60	16510
2026-01-06 11:57:48.60	328.55	3.88	-45.1	-57.7	3.8	1.49e+00	0	56	104	1290797056	60	16527
2026-01-06 11:57:51.63	328.84	3.73	-45.1	-57.7	3.8	1.49e+00	0	57	104	1290797056	60	16543
2026-01-06 11:57:54.66	329.13	3.57	-45.0	-57.7	3.8	1.49e+00	0	57	104	1290797056	60	16510
2026-01-06 11:57:57.69	329.41	3.42	-45.0	-57.7	3.8	1.49e+00	0	57	104	1290797056	60	16533
2026-01-06 11:58:00.73	329.69	3.26	-45.0	-57.6	3.8	1.49e+00	0	57	104	1290797056	60	16492
2026-01-06 11:58:03.76	329.97	3.11	-45.0	-57.6	3.8	1.49e+00	0	57	104	1290797056	60	16459
2026-01-06 11:58:06.79	330.24	2.96	-45.0	-57.6	3.8	1.49e+00	0	57	104	1290797056	60	16435
2026-01-06 11:58:09.82	330.51	2.80	-45.0	-57.6	3.8	1.49e+00	0	57	104	1290797056	60	16478
2026-01-06 11:58:12.85	330.78	2.65	-45.0	-57.6	3.8	1.49e+00	0	57	104	1290797056	60	16483
2026-01-06 11:58:15.88	331.04	2.50	-45.0	-57.6	3.8	1.49e+00	0	57	104	1290797056	60	16497
2026-01-06 11:58:18.92	331.31	2.34	-45.0	-57.6	3.8	1.49e+00	0	57	104	1290797056	60	16469
2026-01-06 11:58:21.95	331.57	2.19	-45.0	-57.7	3.8	1.49e+00	0	57	104	1290797056	60	16508
2026-01-06 11:58:24.98	331.83	2.04	-45.0	-57.6	3.8	1.49e+00	0	57	104	1290797056	60	16464

#Closed at: 2026-01-06 11:58:26
#Recorded file [1290 MB]: D:/lorett/data/31039_260106_144848.dat