passes_logs/2026/01/06/R2.0S_Moscow/R2.0S_Moscow__20260106_031101_AQUA_rec.log

#Pass ID: 20260106_031101_AQUA
#Satellite: AQUA
#Configuration: AQUA
#almurnet v.1.7.20251203
#Start time: 2026-01-06 03:11:02

#Version: 2.2.20231116
#Station: R2.0S_Moscow
#Location: 37.707566 lon 55.798166 lat
#TLE: 1 27424U 02022A   26004.96787593  .00001598  00000+0  32997-3 0  9996
#TLE: 2 27424  98.4069 331.2279 0002002  90.2377   0.6092 14.61798176259425

#Time	Az	El	Level	Level2	SNR	BER	BlckErr	Temp	State	Recorded	gain1	gain2
2026-01-06 03:11:02.39	5.35	2.05	-41.0	-59.9	3.8	7.46e-01	0	48	0	0	52	33996
2026-01-06 03:11:05.43	5.09	2.21	-41.0	-59.9	3.8	7.43e-01	0	48	104	0	52	34083
2026-01-06 03:11:08.46	4.81	2.38	-41.0	-59.9	3.8	7.48e-01	0	48	104	0	52	33960
2026-01-06 03:11:11.50	4.54	2.54	-41.0	-59.9	3.8	7.46e-01	0	49	104	0	52	34008
2026-01-06 03:11:14.53	4.26	2.71	-41.0	-59.9	3.8	7.45e-01	0	49	104	0	52	34012
2026-01-06 03:11:17.56	3.98	2.88	-41.0	-59.9	3.8	7.47e-01	0	49	104	0	52	33994
2026-01-06 03:11:20.59	3.70	3.04	-41.0	-59.9	3.8	7.45e-01	0	49	104	0	52	34039
2026-01-06 03:11:23.63	3.41	3.21	-41.0	-59.9	3.8	7.44e-01	0	49	104	0	52	33991
2026-01-06 03:11:26.66	3.11	3.38	-41.0	-59.9	3.8	7.48e-01	0	50	104	0	52	34004
2026-01-06 03:11:29.69	2.82	3.55	-41.0	-59.9	3.8	7.47e-01	0	50	104	0	52	33953
2026-01-06 03:11:32.73	2.51	3.72	-41.0	-59.9	3.8	7.43e-01	0	50	104	0	52	34012
2026-01-06 03:11:35.76	2.21	3.88	-41.0	-59.9	3.8	7.51e-01	0	50	104	0	52	33971
2026-01-06 03:11:38.79	1.90	4.05	-41.0	-59.9	3.8	7.46e-01	0	50	104	0	52	33992
2026-01-06 03:11:41.83	1.59	4.23	-41.0	-59.9	3.8	7.44e-01	0	50	104	0	52	34024
2026-01-06 03:11:44.86	1.27	4.40	-41.0	-59.9	3.8	7.42e-01	0	51	104	0	52	33982
2026-01-06 03:11:47.89	0.95	4.57	-41.0	-59.9	3.8	7.41e-01	0	51	104	0	52	33932
2026-01-06 03:11:50.93	0.62	4.74	-41.0	-59.9	3.8	7.45e-01	0	51	104	0	52	33971
2026-01-06 03:11:53.96	0.30	4.91	-41.0	-59.9	3.8	7.46e-01	0	51	104	0	52	33997
2026-01-06 03:11:56.99	359.96	5.08	-41.0	-59.9	3.8	7.45e-01	0	51	104	0	52	33933
2026-01-06 03:12:00.03	359.62	5.26	-41.0	-59.9	3.8	7.44e-01	0	51	104	0	52	33963
2026-01-06 03:12:03.04	359.28	5.43	-41.0	-59.9	3.8	7.46e-01	0	52	104	0	52	33940
2026-01-06 03:12:06.07	358.93	5.60	-41.0	-59.9	3.8	7.45e-01	0	52	104	0	52	34004
2026-01-06 03:12:09.11	358.58	5.78	-41.0	-59.9	3.8	7.48e-01	0	52	104	0	52	33941
2026-01-06 03:12:12.14	358.22	5.95	-41.0	-59.9	3.8	7.45e-01	0	52	104	0	52	34021
2026-01-06 03:12:15.17	357.86	6.12	-40.9	-59.9	3.8	7.42e-01	0	52	104	0	52	33912
2026-01-06 03:12:18.21	357.49	6.30	-41.0	-59.9	3.8	7.40e-01	0	52	104	0	52	33972
2026-01-06 03:12:21.24	357.12	6.47	-41.0	-59.9	3.8	7.45e-01	0	52	104	0	52	33960
2026-01-06 03:12:24.27	356.74	6.65	-41.0	-59.9	3.8	7.44e-01	0	52	104	0	52	33899
2026-01-06 03:12:27.31	356.36	6.83	-41.0	-59.9	3.8	7.43e-01	0	52	104	0	52	33977
2026-01-06 03:12:30.34	355.97	7.00	-41.0	-59.9	3.8	7.47e-01	0	53	104	0	52	33955
2026-01-06 03:12:33.37	355.58	7.18	-40.9	-59.9	3.8	7.48e-01	0	53	104	0	52	33930
2026-01-06 03:12:36.41	355.18	7.35	-41.0	-59.9	3.8	7.46e-01	0	53	104	0	52	33914
2026-01-06 03:12:39.44	354.78	7.53	-41.0	-59.9	3.8	7.47e-01	0	53	104	0	52	33989
2026-01-06 03:12:42.47	354.37	7.70	-41.0	-59.9	3.8	7.48e-01	0	53	104	0	52	33970
2026-01-06 03:12:45.50	353.96	7.88	-41.0	-59.9	3.8	7.44e-01	0	53	104	0	52	33882
2026-01-06 03:12:48.54	353.54	8.06	-41.0	-59.9	3.8	7.44e-01	0	53	104	0	52	34068
2026-01-06 03:12:51.57	353.11	8.23	-41.4	-60.4	3.8	7.47e-01	0	53	104	0	53	33870
2026-01-06 03:12:54.60	352.68	8.41	-41.2	-60.3	3.8	7.45e-01	0	53	104	0	53	33315
2026-01-06 03:12:57.63	352.24	8.58	-41.2	-60.3	3.8	7.47e-01	0	54	104	0	53	33382
2026-01-06 03:13:00.66	351.80	8.76	-41.2	-60.3	3.8	7.45e-01	0	54	104	0	53	33495
2026-01-06 03:13:03.69	351.35	8.94	-41.2	-60.2	3.8	7.43e-01	0	54	104	0	53	33245
2026-01-06 03:13:06.72	350.90	9.11	-41.4	-60.4	3.8	7.43e-01	0	54	104	0	53	33934
2026-01-06 03:13:09.75	350.43	9.29	-41.6	-60.5	3.8	7.46e-01	0	54	104	0	53	34348
2026-01-06 03:13:12.78	349.97	9.46	-41.3	-60.3	3.8	7.47e-01	0	54	104	0	53	33505
2026-01-06 03:13:15.81	349.49	9.63	-41.8	-60.8	3.8	7.45e-01	0	54	104	0	54	33524
2026-01-06 03:13:18.84	349.01	9.81	-41.5	-60.4	3.8	7.47e-01	0	54	104	0	54	32008
2026-01-06 03:13:21.87	348.53	9.98	-41.7	-60.7	3.8	7.46e-01	0	54	104	0	54	33144
2026-01-06 03:13:24.90	348.04	10.15	-41.9	-60.9	3.8	7.46e-01	0	54	104	0	54	33839
2026-01-06 03:13:27.93	347.54	10.33	-41.7	-60.7	3.8	7.47e-01	0	54	104	0	54	32963
2026-01-06 03:13:30.97	347.03	10.50	-41.9	-61.0	3.8	7.47e-01	0	54	104	0	54	34297
2026-01-06 03:13:34.00	346.52	10.67	-41.3	-60.4	3.8	7.45e-01	0	54	104	0	54	32126
2026-01-06 03:13:37.03	346.00	10.84	-41.4	-60.5	3.8	7.43e-01	0	54	104	0	54	32317
2026-01-06 03:13:40.06	345.47	11.01	-41.7	-60.6	3.8	7.46e-01	0	54	104	0	54	32768
2026-01-06 03:13:43.09	344.94	11.18	-41.3	-60.4	3.8	7.45e-01	0	54	104	0	54	31901
2026-01-06 03:13:46.12	344.40	11.34	-41.6	-60.5	3.8	7.46e-01	0	55	104	0	54	32211
2026-01-06 03:13:49.15	343.86	11.51	-41.4	-60.2	3.8	7.44e-01	0	55	104	0	54	31434
2026-01-06 03:13:52.19	343.30	11.67	-41.1	-60.1	3.8	7.41e-01	0	55	104	0	54	30869
2026-01-06 03:13:55.22	342.74	11.84	-41.4	-60.4	3.8	7.45e-01	0	55	104	0	54	32082
2026-01-06 03:13:58.25	342.18	12.00	-41.2	-60.2	3.8	7.46e-01	0	55	104	0	54	31325
2026-01-06 03:14:01.27	341.61	12.16	-41.0	-60.1	3.8	7.43e-01	0	55	104	0	53	32637
2026-01-06 03:14:04.30	341.03	12.32	-41.2	-60.0	3.8	7.45e-01	0	55	104	0	53	32396
2026-01-06 03:14:07.33	340.44	12.48	-41.0	-60.1	3.8	7.46e-01	0	55	104	0	53	32810
2026-01-06 03:14:10.36	339.85	12.63	-42.3	-52.1	8.2	6.39e-01	61	55	0	1048576	55	11671
2026-01-06 03:14:13.39	339.25	12.79	-41.8	-47.1	14.5	6.03e-01	0	55	0	6291456	55	6550
2026-01-06 03:14:16.42	338.64	12.94	-41.0	-44.8	17.2	6.02e-01	0	55	0	12058624	54	5335
2026-01-06 03:14:19.45	338.03	13.09	-39.5	-42.3	20.1	6.00e-01	0	55	0	17825792	51	4709
2026-01-06 03:14:22.48	337.41	13.24	-40.0	-42.8	20.0	6.02e-01	0	55	0	23592960	51	4999
2026-01-06 03:14:25.51	336.78	13.38	-39.9	-42.5	20.5	6.00e-01	0	55	0	29360128	51	4830
2026-01-06 03:14:28.54	336.14	13.53	-39.5	-41.9	21.3	6.01e-01	0	55	0	35127296	51	4500
2026-01-06 03:14:31.56	335.51	13.67	-39.5	-41.7	21.5	6.01e-01	0	55	0	40370176	50	4705
2026-01-06 03:14:34.60	334.86	13.81	-39.5	-41.8	21.5	6.02e-01	0	55	0	46137344	50	4746
2026-01-06 03:14:37.63	334.20	13.94	-39.6	-41.8	21.5	6.02e-01	0	55	0	51904512	50	4746
2026-01-06 03:14:40.66	333.54	14.08	-39.5	-41.7	21.6	6.02e-01	0	55	0	57671680	50	4674
2026-01-06 03:14:43.69	332.87	14.21	-39.5	-41.8	21.6	6.01e-01	0	55	0	63438848	50	4716
2026-01-06 03:14:46.71	332.20	14.33	-39.4	-41.6	21.8	6.00e-01	0	55	0	69206016	50	4631
2026-01-06 03:14:49.74	331.52	14.46	-39.5	-41.7	21.7	6.01e-01	0	55	0	74448896	50	4694
2026-01-06 03:14:52.77	330.84	14.58	-39.5	-41.7	21.8	6.02e-01	0	55	0	80216064	50	4663
2026-01-06 03:14:55.80	330.15	14.70	-39.5	-41.7	21.8	6.01e-01	0	55	0	85983232	50	4665
2026-01-06 03:14:58.83	329.45	14.81	-39.6	-41.9	21.6	6.02e-01	0	56	0	91750400	50	4775
2026-01-06 03:15:01.86	328.74	14.93	-39.5	-41.8	21.8	6.00e-01	0	56	0	97517568	50	4707
2026-01-06 03:15:04.89	328.03	15.03	-39.5	-41.8	21.8	5.99e-01	0	56	0	103284736	50	4709
2026-01-06 03:15:07.92	327.32	15.14	-39.6	-41.8	21.8	6.00e-01	0	55	0	108527616	50	4728
2026-01-06 03:15:10.95	326.60	15.24	-39.7	-41.9	21.6	6.04e-01	0	56	0	114294784	50	4786
2026-01-06 03:15:13.98	325.87	15.33	-39.5	-41.7	21.9	6.02e-01	0	55	0	120061952	50	4667
2026-01-06 03:15:17.01	325.14	15.43	-39.6	-41.7	21.8	6.01e-01	0	56	0	125829120	50	4705
2026-01-06 03:15:20.04	324.41	15.51	-39.6	-41.8	21.8	6.04e-01	0	56	0	131596288	50	4740
2026-01-06 03:15:23.07	323.67	15.60	-39.7	-41.9	21.7	6.00e-01	0	56	0	137363456	50	4786
2026-01-06 03:15:26.10	322.93	15.68	-39.5	-41.7	21.9	6.04e-01	0	56	0	143130624	50	4695
2026-01-06 03:15:29.12	322.18	15.75	-39.6	-41.8	21.8	5.99e-01	0	56	0	148373504	50	4722
2026-01-06 03:15:32.15	321.43	15.82	-39.6	-41.7	21.9	6.04e-01	0	56	0	154140672	50	4693
2026-01-06 03:15:35.18	320.67	15.89	-39.9	-42.2	21.4	6.01e-01	0	56	0	159907840	50	4955
2026-01-06 03:15:38.21	319.91	15.95	-39.6	-41.7	21.9	6.03e-01	0	56	0	165675008	50	4694
2026-01-06 03:15:41.23	319.15	16.01	-39.7	-42.0	21.7	6.02e-01	0	56	0	171442176	50	4832
2026-01-06 03:15:44.26	318.39	16.06	-39.7	-42.0	21.7	6.01e-01	0	56	0	176685056	50	4815
2026-01-06 03:15:47.29	317.62	16.11	-39.7	-41.9	21.8	6.02e-01	0	56	0	182452224	50	4795
2026-01-06 03:15:50.32	316.85	16.15	-40.1	-42.5	21.1	6.02e-01	0	56	0	188219392	50	5109
2026-01-06 03:15:53.35	316.07	16.19	-39.6	-41.8	21.9	6.01e-01	0	56	0	193986560	51	4461
2026-01-06 03:15:56.38	315.30	16.22	-40.3	-42.7	20.9	6.00e-01	0	56	0	199753728	51	4959
2026-01-06 03:15:59.41	314.52	16.25	-39.4	-41.6	22.1	6.02e-01	0	56	0	205520896	50	4600
2026-01-06 03:16:02.44	313.74	16.27	-40.1	-42.4	21.2	6.02e-01	0	56	0	210763776	50	5098
2026-01-06 03:16:05.47	312.96	16.29	-40.0	-42.3	21.3	6.01e-01	0	56	0	216530944	51	4714
2026-01-06 03:16:08.49	312.18	16.30	-40.1	-42.4	21.2	6.01e-01	0	56	0	222298112	51	4803
2026-01-06 03:16:11.53	311.40	16.31	-40.4	-42.9	20.7	5.98e-01	0	56	0	228065280	51	5049
2026-01-06 03:16:14.56	310.62	16.31	-39.9	-42.2	21.5	6.00e-01	0	56	0	233832448	51	4682
2026-01-06 03:16:17.59	309.83	16.31	-40.0	-42.4	21.2	6.04e-01	0	56	0	239599616	50	5046
2026-01-06 03:16:20.62	309.05	16.30	-40.4	-42.9	20.8	6.01e-01	0	56	0	244842496	51	5058
2026-01-06 03:16:23.65	308.27	16.29	-39.7	-42.0	21.7	6.00e-01	0	56	0	250609664	51	4565
2026-01-06 03:16:26.68	307.49	16.27	-40.1	-42.4	21.1	6.01e-01	0	56	0	256376832	51	4810
2026-01-06 03:16:29.71	306.71	16.25	-40.1	-42.4	21.2	6.00e-01	0	56	0	262144000	51	4792
2026-01-06 03:16:32.74	305.93	16.22	-39.9	-42.2	21.5	6.00e-01	0	56	0	267911168	51	4654
2026-01-06 03:16:35.77	305.16	16.18	-40.2	-42.6	20.9	6.02e-01	0	56	0	273678336	51	4912
2026-01-06 03:16:38.79	304.39	16.15	-40.3	-42.7	20.9	6.00e-01	0	56	0	278921216	51	4961
2026-01-06 03:16:41.82	303.62	16.10	-39.9	-42.2	21.4	6.00e-01	0	56	0	284688384	51	4689
2026-01-06 03:16:44.85	302.85	16.05	-40.2	-42.7	20.8	5.98e-01	0	56	0	290455552	51	4949
2026-01-06 03:16:47.88	302.08	16.00	-40.0	-42.4	21.1	6.00e-01	0	56	0	296222720	51	4782
2026-01-06 03:16:50.91	301.32	15.94	-39.7	-41.9	21.5	6.01e-01	0	56	0	301989888	51	4532
2026-01-06 03:16:53.93	300.56	15.88	-39.9	-42.2	21.3	6.03e-01	0	56	0	307757056	50	4953
2026-01-06 03:16:56.96	299.80	15.81	-39.5	-41.7	21.7	6.03e-01	0	56	0	312999936	51	4392
2026-01-06 03:16:59.99	299.05	15.74	-39.3	-41.4	22.0	5.99e-01	0	56	0	318767104	50	4541
2026-01-06 03:17:03.02	298.30	15.67	-39.7	-42.0	21.5	6.03e-01	0	56	0	324534272	50	4847
2026-01-06 03:17:06.04	297.56	15.59	-40.0	-42.4	21.0	5.99e-01	0	56	0	330301440	51	4780
2026-01-06 03:17:09.07	296.81	15.50	-39.8	-42.0	21.3	6.01e-01	0	56	0	336068608	51	4595
2026-01-06 03:17:12.10	296.08	15.41	-39.8	-42.1	21.3	6.01e-01	0	56	0	341835776	51	4622
2026-01-06 03:17:15.13	295.35	15.32	-39.8	-42.1	21.3	6.01e-01	0	56	0	347078656	51	4650
2026-01-06 03:17:18.16	294.62	15.22	-39.9	-42.4	21.1	5.99e-01	0	56	0	352845824	50	5044
2026-01-06 03:17:21.19	293.90	15.12	-39.8	-42.2	21.2	6.01e-01	0	56	0	358612992	50	4939
2026-01-06 03:17:24.21	293.19	15.02	-39.9	-42.3	21.0	6.01e-01	0	56	0	364380160	50	5039
2026-01-06 03:17:27.24	292.47	14.91	-40.1	-42.6	20.6	6.00e-01	0	56	0	370147328	51	4892
2026-01-06 03:17:30.27	291.77	14.80	-39.9	-42.4	20.9	6.00e-01	0	56	0	375914496	51	4781
2026-01-06 03:17:33.30	291.07	14.68	-39.7	-42.1	21.2	6.02e-01	0	56	0	381157376	51	4621
2026-01-06 03:17:36.33	290.38	14.56	-40.0	-42.5	20.7	6.03e-01	0	56	0	386924544	51	4849
2026-01-06 03:17:39.36	289.69	14.44	-40.0	-42.6	20.7	6.02e-01	0	56	0	392691712	51	4871
2026-01-06 03:17:42.39	289.01	14.31	-39.6	-41.9	21.3	6.04e-01	0	56	0	398458880	51	4514
2026-01-06 03:17:45.42	288.33	14.19	-39.6	-42.0	21.1	6.00e-01	0	56	0	404226048	51	4573
2026-01-06 03:17:48.45	287.66	14.05	-39.7	-42.2	20.9	6.01e-01	0	56	0	409993216	50	4965
2026-01-06 03:17:51.47	287.00	13.92	-39.5	-41.9	21.1	6.03e-01	0	56	0	415236096	50	4813
2026-01-06 03:17:54.50	286.35	13.78	-39.4	-41.7	21.4	6.01e-01	0	56	0	421003264	50	4673
2026-01-06 03:17:57.53	285.70	13.64	-39.4	-41.8	21.2	6.02e-01	0	56	0	426770432	50	4752
2026-01-06 03:18:00.56	285.06	13.50	-39.6	-42.1	21.0	6.00e-01	0	56	0	432537600	50	4875
2026-01-06 03:18:03.60	284.42	13.36	-39.4	-41.7	21.4	6.00e-01	0	56	0	438304768	50	4675
2026-01-06 03:18:06.62	283.79	13.21	-39.7	-42.1	21.0	6.00e-01	0	56	0	444071936	50	4901
2026-01-06 03:18:09.65	283.17	13.06	-39.6	-41.9	21.2	6.04e-01	0	56	0	449314816	50	4805
2026-01-06 03:18:12.68	282.55	12.91	-39.7	-42.1	21.0	6.03e-01	0	56	0	455081984	50	4903
2026-01-06 03:18:15.71	281.94	12.76	-39.7	-42.1	21.0	6.01e-01	0	56	0	460849152	50	4916
2026-01-06 03:18:18.74	281.34	12.60	-39.8	-42.3	20.9	6.01e-01	0	56	0	466616320	50	5013
2026-01-06 03:18:21.77	280.74	12.45	-39.8	-42.2	20.9	5.99e-01	0	56	0	472383488	50	4977
2026-01-06 03:18:24.80	280.16	12.29	-39.6	-42.0	21.2	6.00e-01	0	56	0	478150656	50	4850
2026-01-06 03:18:27.83	279.57	12.13	-40.0	-42.5	20.6	6.03e-01	0	56	0	483393536	50	5138
2026-01-06 03:18:30.85	279.00	11.97	-39.6	-42.1	21.0	6.01e-01	0	56	0	489160704	50	4878
2026-01-06 03:18:33.88	278.43	11.80	-39.7	-42.2	20.8	6.02e-01	0	56	0	494927872	50	4972
2026-01-06 03:18:36.91	277.87	11.64	-39.6	-42.1	20.8	6.01e-01	0	56	0	500695040	50	4919
2026-01-06 03:18:39.94	277.32	11.47	-39.6	-42.2	20.7	6.02e-01	0	56	0	506462208	50	4928
2026-01-06 03:18:42.97	276.77	11.31	-39.5	-42.1	20.8	6.02e-01	0	56	0	512229376	50	4877
2026-01-06 03:18:46.00	276.23	11.14	-39.6	-42.2	20.5	6.02e-01	0	56	0	517472256	50	4970
2026-01-06 03:18:49.03	275.69	10.97	-39.8	-42.6	20.1	6.01e-01	0	57	0	523239424	50	5177
2026-01-06 03:18:52.06	275.17	10.80	-40.2	-43.1	19.6	6.00e-01	0	56	0	529006592	50	5470
2026-01-06 03:18:55.09	274.65	10.63	-40.0	-42.9	19.5	6.02e-01	0	56	0	534773760	50	5366
2026-01-06 03:18:58.12	274.13	10.46	-40.3	-43.6	18.6	6.03e-01	0	57	0	540540928	51	5506
2026-01-06 03:19:01.15	273.62	10.29	-40.7	-44.5	17.6	6.03e-01	0	56	0	546308096	51	6078
2026-01-06 03:19:04.18	273.12	10.11	-40.9	-45.2	16.5	5.99e-01	0	57	0	551550976	52	6268
2026-01-06 03:19:07.21	272.63	9.94	-40.9	-45.5	16.1	6.03e-01	0	56	0	557318144	52	6425
2026-01-06 03:19:10.24	272.14	9.77	-41.1	-45.9	15.5	6.01e-01	0	57	0	563085312	52	6791
2026-01-06 03:19:13.27	271.66	9.59	-41.2	-46.1	15.3	6.00e-01	0	57	0	568852480	52	6907
2026-01-06 03:19:16.30	271.18	9.42	-41.3	-45.8	15.9	6.00e-01	0	56	0	574619648	53	6323
2026-01-06 03:19:19.32	270.71	9.24	-41.2	-45.7	15.9	6.01e-01	0	57	0	579862528	53	6251
2026-01-06 03:19:22.36	270.25	9.07	-41.3	-46.2	15.3	6.02e-01	0	57	0	585629696	53	6614
2026-01-06 03:19:25.39	269.79	8.89	-41.5	-47.2	14.1	6.03e-01	0	57	0	591396864	53	7401
2026-01-06 03:19:28.41	269.34	8.71	-41.6	-47.7	13.4	6.06e-01	0	57	0	597164032	53	7884
2026-01-06 03:19:31.44	268.90	8.54	-41.8	-49.2	11.5	6.10e-01	0	57	0	602931200	54	8789
2026-01-06 03:19:34.47	268.46	8.36	-41.8	-50.3	10.0	6.18e-01	0	57	0	608698368	54	9998
2026-01-06 03:19:37.50	268.02	8.18	-41.9	-51.3	8.8	6.32e-01	0	57	0	614465536	54	11240
2026-01-06 03:19:40.53	267.59	8.01	-43.2	-52.5	9.3	6.28e-01	0	57	0	619708416	56	11441
2026-01-06 03:19:43.56	267.17	7.83	-45.9	-64.7	3.8	7.48e-01	0	57	104	620232704	62	33215
2026-01-06 03:19:46.59	266.76	7.65	-46.1	-65.0	3.8	7.43e-01	0	57	104	620232704	62	34240
2026-01-06 03:19:49.62	266.34	7.48	-46.2	-65.1	3.8	7.47e-01	0	57	104	620232704	62	34569
2026-01-06 03:19:52.66	265.94	7.30	-46.1	-65.0	3.8	7.43e-01	0	57	104	620232704	62	34396
2026-01-06 03:19:55.69	265.54	7.12	-46.1	-65.0	3.8	7.46e-01	0	57	104	620232704	62	34174
2026-01-06 03:19:58.72	265.14	6.95	-46.1	-65.0	3.8	7.49e-01	0	57	104	620232704	62	34185
2026-01-06 03:20:01.75	264.75	6.77	-46.1	-65.0	3.8	7.47e-01	0	57	104	620232704	62	34139
2026-01-06 03:20:04.79	264.37	6.60	-46.1	-65.0	3.8	7.48e-01	0	57	104	620232704	62	34088
2026-01-06 03:20:07.82	263.99	6.42	-46.1	-65.0	3.8	7.43e-01	0	57	104	620232704	62	34115
2026-01-06 03:20:10.85	263.61	6.25	-46.1	-64.9	3.8	7.46e-01	0	57	104	620232704	62	34047
2026-01-06 03:20:13.89	263.24	6.07	-46.1	-64.9	3.8	7.45e-01	0	57	104	620232704	62	34070
2026-01-06 03:20:16.92	262.88	5.89	-46.1	-64.9	3.8	7.45e-01	0	57	104	620232704	62	34016
2026-01-06 03:20:19.95	262.52	5.72	-46.1	-64.9	3.8	7.46e-01	0	57	104	620232704	62	34064
2026-01-06 03:20:22.99	262.16	5.55	-46.0	-64.9	3.8	7.45e-01	0	57	104	620232704	62	34016
2026-01-06 03:20:26.02	261.81	5.37	-46.0	-64.9	3.8	7.44e-01	0	57	104	620232704	62	34049
2026-01-06 03:20:29.05	261.46	5.20	-46.0	-64.9	3.8	7.43e-01	0	57	104	620232704	62	33995
2026-01-06 03:20:32.08	261.12	5.02	-46.0	-64.9	3.8	7.45e-01	0	57	104	620232704	62	34004
2026-01-06 03:20:35.12	260.79	4.85	-46.0	-64.9	3.8	7.47e-01	0	57	104	620232704	62	33961
2026-01-06 03:20:38.15	260.45	4.68	-46.0	-64.9	3.8	7.45e-01	0	57	104	620232704	62	33977
2026-01-06 03:20:41.18	260.13	4.51	-46.0	-64.9	3.8	7.45e-01	0	57	104	620232704	62	34005
2026-01-06 03:20:44.22	259.80	4.33	-46.0	-64.9	3.8	7.44e-01	0	57	104	620232704	62	33949
2026-01-06 03:20:47.25	259.48	4.16	-46.0	-64.9	3.8	7.48e-01	0	57	104	620232704	62	33943
2026-01-06 03:20:50.28	259.17	3.99	-46.0	-64.9	3.8	7.45e-01	0	57	104	620232704	62	33885
2026-01-06 03:20:53.32	258.85	3.82	-46.0	-64.9	3.8	7.44e-01	0	57	104	620232704	62	33912
2026-01-06 03:20:56.35	258.55	3.65	-46.0	-64.9	3.8	7.45e-01	0	57	104	620232704	62	33862
2026-01-06 03:20:59.38	258.24	3.48	-46.0	-64.9	3.8	7.43e-01	0	57	104	620232704	62	33807
2026-01-06 03:21:02.41	257.94	3.31	-46.0	-64.9	3.8	7.44e-01	0	57	104	620232704	62	33789
2026-01-06 03:21:05.45	257.65	3.15	-46.0	-64.9	3.8	7.46e-01	0	57	104	620232704	62	33870
2026-01-06 03:21:08.48	257.36	2.98	-46.0	-64.9	3.8	7.46e-01	0	57	104	620232704	62	33866
2026-01-06 03:21:11.52	257.07	2.81	-46.0	-64.9	3.8	7.44e-01	0	57	104	620232704	62	33860
2026-01-06 03:21:14.55	256.78	2.64	-46.0	-64.9	3.8	7.45e-01	0	57	104	620232704	62	33823
2026-01-06 03:21:17.58	256.50	2.48	-46.0	-64.9	3.8	7.43e-01	0	57	104	620232704	62	33797
2026-01-06 03:21:20.61	256.22	2.31	-46.0	-64.9	3.8	7.49e-01	0	57	104	620232704	62	33777
2026-01-06 03:21:23.65	255.95	2.15	-46.0	-64.9	3.8	7.44e-01	0	57	104	620232704	62	33752
2026-01-06 03:21:26.68	255.68	1.98	-46.0	-64.9	3.8	7.46e-01	0	57	104	620232704	62	33799

#Closed at: 2026-01-06 03:21:27
#Recorded file [620 MB]: D:/lorett/data/31039_260106_061102.dat