passes_logs/2026/01/06/R2.0S_Moscow/R2.0S_Moscow__20260106_004312_SUOMI_NPP_rec.log

#Pass ID: 20260106_004312_SUOMI NPP
#Satellite: SUOMI NPP
#Configuration: NPP
#almurnet v.1.7.20251203
#Start time: 2026-01-06 00:43:14

#Version: 2.2.20231116
#Station: R2.0S_Moscow
#Location: 37.707566 lon 55.798166 lat
#TLE: 1 37849U 11061A   26004.95404768  .00000136  00000+0  85334-4 0  9991
#TLE: 2 37849  98.7801 307.0898 0002575  80.6707 279.4760 14.19522289735281

#Time	Az	El	Level	Level2	SNR	BER	BlckErr	Temp	State	Recorded	gain1	gain2
2026-01-06 00:43:14.11	12.36	2.09	-40.0	-54.4	3.8	1.49e+00	0	47	0	0	51	19157
2026-01-06 00:43:18.15	12.21	2.34	-39.9	-54.5	3.8	1.49e+00	0	47	104	0	51	19182
2026-01-06 00:43:22.19	12.05	2.60	-39.9	-54.4	3.8	1.49e+00	0	48	104	0	51	19142
2026-01-06 00:43:26.23	11.89	2.85	-39.9	-54.5	3.8	1.49e+00	0	48	104	0	51	19173
2026-01-06 00:43:30.28	11.73	3.11	-39.9	-54.4	3.8	1.49e+00	0	48	104	0	51	19137
2026-01-06 00:43:34.32	11.56	3.36	-39.9	-54.4	3.8	1.49e+00	0	49	104	0	51	19131
2026-01-06 00:43:38.37	11.39	3.62	-39.9	-54.4	3.8	1.49e+00	0	49	104	0	51	19118
2026-01-06 00:43:42.41	11.22	3.89	-39.9	-54.4	3.8	1.49e+00	0	49	104	0	51	18999
2026-01-06 00:43:46.46	11.04	4.15	-39.9	-54.4	3.8	1.49e+00	0	49	104	0	51	19062
2026-01-06 00:43:50.50	10.86	4.42	-39.9	-54.4	3.8	1.49e+00	0	50	104	0	51	19055
2026-01-06 00:43:54.54	10.68	4.69	-39.9	-54.4	3.8	1.49e+00	0	50	104	0	51	19063
2026-01-06 00:43:58.59	10.49	4.96	-39.9	-54.4	3.8	1.49e+00	0	50	104	0	51	19103
2026-01-06 00:44:02.63	10.30	5.23	-39.9	-54.4	3.8	1.49e+00	0	50	104	0	51	19133
2026-01-06 00:44:06.68	10.10	5.51	-39.9	-54.4	3.8	1.49e+00	0	50	104	0	51	19114
2026-01-06 00:44:10.72	9.90	5.79	-39.9	-54.4	3.8	1.49e+00	0	50	104	0	51	19135
2026-01-06 00:44:14.76	9.70	6.07	-39.9	-54.4	3.8	1.49e+00	0	51	104	0	51	19116
2026-01-06 00:44:18.81	9.49	6.36	-39.9	-54.4	3.8	1.49e+00	0	51	104	0	51	19067
2026-01-06 00:44:22.85	9.28	6.64	-39.9	-54.4	3.8	1.49e+00	0	51	104	0	51	19083
2026-01-06 00:44:26.90	9.06	6.93	-39.9	-54.4	3.8	1.49e+00	0	51	104	0	51	19104
2026-01-06 00:44:30.94	8.84	7.23	-39.9	-54.4	3.8	1.49e+00	0	51	104	0	51	19153
2026-01-06 00:44:34.99	8.61	7.52	-39.9	-54.4	3.8	1.49e+00	0	51	104	0	51	19099
2026-01-06 00:44:39.03	8.38	7.82	-39.9	-54.4	3.8	1.49e+00	0	52	104	0	51	19062
2026-01-06 00:44:43.08	8.14	8.12	-39.9	-54.3	3.8	1.49e+00	0	52	104	0	51	18872
2026-01-06 00:44:47.11	7.90	8.43	-40.0	-54.5	3.8	1.49e+00	0	52	104	0	51	19213
2026-01-06 00:44:51.15	7.66	8.74	-39.9	-54.3	3.8	1.49e+00	0	52	104	0	51	18862
2026-01-06 00:44:55.19	7.40	9.05	-39.9	-54.4	3.8	1.49e+00	0	52	104	0	51	19099
2026-01-06 00:44:59.23	7.14	9.36	-39.9	-54.3	3.8	1.49e+00	0	52	104	0	51	18864
2026-01-06 00:45:03.27	6.88	9.68	-40.0	-54.4	3.8	1.49e+00	0	52	104	0	51	19003
2026-01-06 00:45:07.31	6.61	10.00	-39.9	-54.4	3.8	1.49e+00	0	53	104	0	51	19018
2026-01-06 00:45:11.35	6.33	10.33	-40.0	-54.5	3.8	1.49e+00	0	52	104	0	51	19272
2026-01-06 00:45:15.39	6.05	10.66	-40.1	-54.6	3.8	1.49e+00	0	53	104	0	51	19462
2026-01-06 00:45:19.43	5.75	10.99	-40.2	-54.7	3.8	1.49e+00	0	53	104	0	51	19694
2026-01-06 00:45:23.47	5.46	11.33	-40.1	-54.4	3.8	1.49e+00	0	53	104	0	51	19106
2026-01-06 00:45:27.51	5.15	11.67	-40.3	-51.4	4.2	1.42e+00	0	53	0	0	51	13520
2026-01-06 00:45:31.56	4.84	12.01	-40.3	-48.1	6.2	2.92e-01	0	53	0	6291456	51	9199
2026-01-06 00:45:35.60	4.52	12.36	-40.6	-48.7	6.0	3.22e-01	0	53	0	13631488	51	9934
2026-01-06 00:45:39.64	4.19	12.72	-40.5	-48.2	6.4	2.20e-01	0	53	0	20971520	51	9336
2026-01-06 00:45:43.68	3.85	13.07	-40.8	-48.6	6.3	3.22e-01	0	53	0	28311552	52	9241
2026-01-06 00:45:47.72	3.50	13.43	-40.0	-44.1	11.9	6.82e-04	0	54	0	36700160	51	5802
2026-01-06 00:45:51.76	3.15	13.80	-39.6	-43.0	13.4	7.60e-06	0	54	0	44040192	50	5406
2026-01-06 00:45:55.80	2.79	14.17	-40.3	-44.2	12.3	9.84e-05	0	54	0	51380224	51	5920
2026-01-06 00:45:59.84	2.41	14.54	-40.2	-43.8	12.8	1.04e-04	0	54	0	58720256	51	5605
2026-01-06 00:46:03.87	2.03	14.92	-40.3	-43.8	13.0	3.05e-05	0	54	0	67108864	51	5621
2026-01-06 00:46:07.91	1.63	15.30	-40.3	-43.6	13.4	1.22e-05	0	54	0	74448896	51	5507
2026-01-06 00:46:11.95	1.23	15.69	-40.1	-43.2	14.0	0.00e+00	0	54	0	81788928	51	5250
2026-01-06 00:46:15.99	0.81	16.08	-40.1	-43.1	14.4	0.00e+00	0	54	0	89128960	51	5162
2026-01-06 00:46:20.02	0.39	16.48	-40.3	-43.4	14.1	7.00e-07	0	54	0	96468992	51	5361
2026-01-06 00:46:24.06	359.95	16.88	-40.4	-43.5	14.2	0.00e+00	0	54	0	104857600	51	5405
2026-01-06 00:46:28.10	359.50	17.29	-40.3	-43.3	14.3	7.00e-07	0	54	0	112197632	51	5289
2026-01-06 00:46:32.14	359.03	17.70	-40.4	-43.3	14.3	1.50e-06	0	54	0	119537664	51	5316
2026-01-06 00:46:36.18	358.55	18.12	-40.2	-43.1	14.4	7.00e-07	0	55	0	126877696	51	5201
2026-01-06 00:46:40.22	358.06	18.54	-40.3	-43.2	14.3	0.00e+00	0	54	0	135266304	51	5249
2026-01-06 00:46:44.26	357.56	18.97	-40.2	-43.2	14.2	3.00e-06	0	55	0	142606336	51	5247
2026-01-06 00:46:48.30	357.04	19.40	-40.0	-42.9	14.5	0.00e+00	0	55	0	149946368	51	5057
2026-01-06 00:46:52.33	356.50	19.84	-40.6	-44.1	12.9	2.97e-05	0	54	0	157286400	51	5824
2026-01-06 00:46:56.37	355.95	20.28	-40.7	-44.7	11.9	4.25e-04	0	55	0	164626432	52	5860
2026-01-06 00:47:00.41	355.38	20.73	-40.8	-44.6	12.3	2.07e-04	0	55	0	173015040	52	5834
2026-01-06 00:47:04.45	354.79	21.18	-40.3	-43.5	13.5	9.90e-06	0	55	0	180355072	52	5155
2026-01-06 00:47:08.49	354.19	21.64	-40.0	-43.2	13.9	2.20e-06	0	55	0	187695104	51	5230
2026-01-06 00:47:12.53	353.57	22.10	-40.1	-43.3	13.9	7.00e-07	0	55	0	195035136	51	5300
2026-01-06 00:47:16.57	352.92	22.57	-40.8	-44.4	12.8	4.42e-05	0	55	0	203423744	52	5689
2026-01-06 00:47:20.61	352.26	23.04	-40.5	-43.8	13.7	8.30e-06	0	55	0	210763776	52	5301
2026-01-06 00:47:24.65	351.58	23.51	-40.9	-44.1	13.6	3.00e-06	0	55	0	218103808	52	5516
2026-01-06 00:47:28.68	350.88	23.99	-40.7	-43.7	14.1	4.50e-06	0	55	0	225443840	52	5278
2026-01-06 00:47:32.73	350.15	24.48	-40.6	-43.5	14.3	7.00e-07	0	55	0	232783872	52	5106
2026-01-06 00:47:36.76	349.40	24.96	-40.4	-43.2	14.7	0.00e+00	0	55	0	241172480	52	4952
2026-01-06 00:47:40.80	348.63	25.46	-40.5	-43.3	14.8	0.00e+00	0	55	0	248512512	51	5292
2026-01-06 00:47:44.84	347.83	25.95	-40.9	-44.0	14.0	1.50e-06	0	55	0	255852544	52	5440
2026-01-06 00:47:48.88	347.00	26.45	-41.2	-44.4	13.6	1.06e-05	0	55	0	263192576	53	5363
2026-01-06 00:47:52.92	346.15	26.95	-41.5	-44.9	13.1	2.67e-05	0	55	0	271581184	53	5719
2026-01-06 00:47:56.96	345.27	27.45	-41.8	-45.5	12.4	1.92e-04	0	55	0	278921216	54	5770
2026-01-06 00:48:01.00	344.36	27.95	-42.2	-46.3	11.8	3.89e-04	0	55	0	286261248	55	5945
2026-01-06 00:48:05.04	343.43	28.46	-42.0	-46.0	12.2	5.26e-04	0	55	0	293601280	55	5746
2026-01-06 00:48:09.07	342.46	28.96	-42.1	-46.1	12.0	6.30e-04	0	56	0	300941312	55	5842
2026-01-06 00:48:13.11	341.46	29.46	-41.3	-44.5	13.6	1.29e-05	0	55	0	309329920	54	5149
2026-01-06 00:48:17.15	340.43	29.97	-40.9	-43.8	14.4	7.00e-07	0	56	0	316669952	53	5024
2026-01-06 00:48:21.19	339.37	30.47	-41.8	-45.5	12.7	1.98e-05	0	55	0	324009984	54	5738
2026-01-06 00:48:25.23	338.27	30.97	-42.0	-45.8	12.4	2.21e-04	0	55	0	331350016	55	5649
2026-01-06 00:48:29.27	337.14	31.46	-41.3	-44.5	13.8	1.22e-05	0	55	0	339738624	54	5121
2026-01-06 00:48:33.30	335.97	31.95	-41.6	-44.9	13.3	1.90e-05	0	56	0	347078656	54	5365
2026-01-06 00:48:37.34	334.77	32.43	-41.6	-45.0	13.3	2.36e-05	0	55	0	354418688	54	5418
2026-01-06 00:48:41.37	333.53	32.91	-41.3	-44.4	13.9	3.00e-06	0	56	0	361758720	54	5050
2026-01-06 00:48:45.41	332.25	33.38	-42.0	-45.6	12.6	1.17e-04	0	56	0	369098752	54	5832
2026-01-06 00:48:49.45	330.94	33.84	-42.3	-46.4	11.9	3.34e-04	0	55	0	377487360	55	6009
2026-01-06 00:48:53.48	329.59	34.28	-43.2	-48.3	10.0	1.07e-02	0	56	0	384827392	57	6713
2026-01-06 00:48:57.53	328.20	34.72	-43.4	-48.7	9.6	9.06e-03	0	56	0	392167424	57	6995
2026-01-06 00:49:01.57	326.77	35.14	-42.5	-46.5	12.0	8.51e-04	0	56	0	399507456	56	5785
2026-01-06 00:49:05.61	325.31	35.55	-42.5	-46.6	11.6	4.84e-04	0	56	0	406847488	55	6196
2026-01-06 00:49:09.64	323.81	35.94	-42.8	-47.3	11.1	3.02e-03	0	56	0	415236096	57	5926
2026-01-06 00:49:13.68	322.27	36.31	-41.7	-45.0	13.3	3.73e-05	0	56	0	422576128	55	5139
2026-01-06 00:49:17.72	320.70	36.66	-41.6	-45.0	13.3	1.60e-05	0	56	0	429916160	55	5110
2026-01-06 00:49:21.76	319.10	36.99	-40.7	-43.5	14.9	0.00e+00	0	56	0	437256192	53	4817
2026-01-06 00:49:25.80	317.46	37.30	-41.2	-44.2	14.1	3.00e-06	0	56	0	445644800	53	5252
2026-01-06 00:49:29.83	315.80	37.58	-40.3	-42.8	15.5	0.00e+00	0	56	0	452984832	52	4715
2026-01-06 00:49:33.88	314.10	37.83	-40.6	-43.4	15.0	0.00e+00	0	56	0	460324864	52	5071
2026-01-06 00:49:37.91	312.39	38.06	-40.9	-43.9	14.5	0.00e+00	0	56	0	467664896	52	5366
2026-01-06 00:49:41.95	310.64	38.26	-39.3	-41.4	17.0	0.00e+00	0	56	0	475004928	50	4523
2026-01-06 00:49:45.99	308.88	38.43	-39.5	-41.7	16.7	0.00e+00	0	56	0	483393536	49	4932
2026-01-06 00:49:50.03	307.10	38.58	-39.3	-41.4	17.0	0.00e+00	0	56	0	490733568	49	4805
2026-01-06 00:49:54.07	305.30	38.68	-40.1	-42.6	15.9	0.00e+00	0	56	0	498073600	51	4900
2026-01-06 00:49:58.11	303.50	38.76	-39.3	-41.3	17.0	0.00e+00	0	56	0	505413632	50	4480
2026-01-06 00:50:02.15	301.68	38.81	-39.7	-41.9	16.5	0.00e+00	0	56	0	513802240	50	4798
2026-01-06 00:50:06.18	299.87	38.82	-40.0	-42.3	16.2	0.00e+00	0	56	0	521142272	50	5006
2026-01-06 00:50:10.23	298.05	38.80	-40.7	-43.5	14.9	7.00e-07	0	56	0	528482304	52	5130
2026-01-06 00:50:14.26	296.24	38.75	-41.3	-44.4	13.9	4.50e-06	0	56	0	535822336	53	5397
2026-01-06 00:50:18.30	294.44	38.66	-40.9	-43.7	14.6	7.00e-07	0	56	0	543162368	53	4962
2026-01-06 00:50:22.34	292.65	38.54	-40.7	-43.5	14.8	0.00e+00	0	56	0	551550976	53	4839
2026-01-06 00:50:26.38	290.87	38.40	-42.4	-46.5	11.8	3.14e-04	0	56	0	558891008	55	6062
2026-01-06 00:50:30.42	289.11	38.22	-42.3	-46.3	12.0	2.34e-04	0	56	0	566231040	55	5939
2026-01-06 00:50:34.46	287.37	38.01	-42.7	-47.2	11.1	4.93e-04	0	56	0	573571072	55	6635
2026-01-06 00:50:38.50	285.65	37.77	-42.1	-46.0	12.2	3.41e-04	0	56	0	581959680	55	5741
2026-01-06 00:50:42.53	283.96	37.51	-43.3	-48.6	9.7	5.04e-03	0	56	0	589299712	57	6938
2026-01-06 00:50:46.57	282.30	37.22	-43.0	-47.7	10.6	9.54e-03	0	56	0	596639744	58	5904
2026-01-06 00:50:50.61	280.67	36.91	-40.9	-43.8	14.6	0.00e+00	0	56	0	603979776	53	4999
2026-01-06 00:50:54.65	279.07	36.57	-41.4	-44.7	13.6	8.92e-05	0	56	0	611319808	54	5235
2026-01-06 00:50:58.69	277.50	36.22	-39.8	-42.0	16.3	0.00e+00	0	56	0	619708416	51	4598
2026-01-06 00:51:02.73	275.97	35.84	-40.4	-43.0	15.4	0.00e+00	0	56	0	627048448	51	5123
2026-01-06 00:51:06.77	274.47	35.45	-40.6	-43.3	14.9	0.00e+00	0	56	0	634388480	52	5038
2026-01-06 00:51:10.80	273.02	35.03	-41.3	-44.5	13.8	5.30e-06	0	56	0	641728512	53	5462
2026-01-06 00:51:14.85	271.59	34.61	-41.2	-44.2	14.1	3.00e-06	0	56	0	650117120	53	5267
2026-01-06 00:51:18.89	270.21	34.17	-40.2	-42.6	15.7	0.00e+00	0	56	0	657457152	52	4646
2026-01-06 00:51:22.92	268.87	33.72	-40.7	-43.4	15.0	0.00e+00	0	56	0	664797184	51	5372
2026-01-06 00:51:26.97	267.55	33.25	-40.2	-42.7	15.6	0.00e+00	0	56	0	672137216	52	4658
2026-01-06 00:51:31.00	266.28	32.78	-40.8	-43.6	14.6	0.00e+00	0	56	0	679477248	52	5209
2026-01-06 00:51:35.04	265.05	32.30	-40.7	-43.5	14.8	0.00e+00	0	56	0	687865856	53	4848
2026-01-06 00:51:39.08	263.85	31.81	-42.0	-45.7	12.5	7.01e-05	0	56	0	695205888	54	5890
2026-01-06 00:51:43.12	262.69	31.32	-42.6	-47.2	11.0	1.20e-03	0	56	0	702545920	55	6618
2026-01-06 00:51:47.16	261.56	30.82	-42.2	-45.9	12.4	1.64e-04	0	56	0	709885952	56	5387
2026-01-06 00:51:51.20	260.46	30.32	-41.7	-45.2	12.9	5.72e-05	0	56	0	718274560	55	5258
2026-01-06 00:51:55.24	259.40	29.82	-40.8	-43.7	14.5	2.20e-06	0	56	0	725614592	53	4960
2026-01-06 00:51:59.28	258.38	29.31	-40.0	-42.4	15.8	0.00e+00	0	56	0	732954624	51	4801
2026-01-06 00:52:03.31	257.39	28.81	-41.0	-44.0	14.1	0.00e+00	0	56	0	740294656	52	5456
2026-01-06 00:52:07.35	256.42	28.30	-41.0	-44.0	14.1	7.00e-07	0	56	0	747634688	53	5151
2026-01-06 00:52:11.39	255.49	27.80	-40.8	-43.7	14.5	7.00e-07	0	56	0	756023296	52	5247
2026-01-06 00:52:15.44	254.58	27.29	-40.4	-43.1	15.0	0.00e+00	0	56	0	763363328	52	4875
2026-01-06 00:52:19.47	253.71	26.79	-40.1	-42.6	15.6	0.00e+00	0	56	0	770703360	51	4915
2026-01-06 00:52:23.51	252.86	26.29	-40.2	-42.7	15.4	0.00e+00	0	56	0	778043392	51	4962
2026-01-06 00:52:27.55	252.04	25.79	-40.5	-43.3	14.9	0.00e+00	0	56	0	786432000	52	4989
2026-01-06 00:52:31.59	251.24	25.29	-40.2	-42.8	15.3	0.00e+00	0	56	0	793772032	52	4759
2026-01-06 00:52:35.62	250.47	24.80	-40.5	-43.2	14.9	0.00e+00	0	56	0	801112064	52	4962
2026-01-06 00:52:39.66	249.72	24.31	-40.2	-42.7	15.4	0.00e+00	0	56	0	808452096	51	4979
2026-01-06 00:52:43.70	249.00	23.83	-40.4	-43.1	15.1	0.00e+00	0	56	0	815792128	51	5197
2026-01-06 00:52:47.74	248.29	23.34	-40.2	-42.8	15.4	0.00e+00	0	56	0	824180736	51	5026
2026-01-06 00:52:51.78	247.61	22.87	-40.4	-43.2	14.9	7.00e-07	0	56	0	831520768	52	4928
2026-01-06 00:52:55.82	246.95	22.40	-40.8	-43.8	14.2	7.00e-07	0	56	0	838860800	52	5302
2026-01-06 00:52:59.86	246.31	21.93	-41.1	-44.4	13.6	9.10e-06	0	56	0	846200832	53	5354
2026-01-06 00:53:03.90	245.69	21.47	-40.3	-43.1	15.0	0.00e+00	0	57	0	854589440	52	4888
2026-01-06 00:53:07.95	245.08	21.01	-40.0	-42.4	15.7	0.00e+00	0	56	0	861929472	51	4808
2026-01-06 00:53:11.99	244.50	20.55	-40.3	-42.9	15.1	0.00e+00	0	56	0	869269504	51	5096
2026-01-06 00:53:16.02	243.93	20.11	-39.7	-42.0	16.1	0.00e+00	0	57	0	876609536	51	4585
2026-01-06 00:53:20.06	243.38	19.66	-39.7	-42.1	16.0	0.00e+00	0	57	0	883949568	50	4874
2026-01-06 00:53:24.10	242.84	19.23	-40.7	-43.7	14.3	7.00e-07	0	56	0	892338176	52	5234
2026-01-06 00:53:28.14	242.32	18.79	-41.7	-45.5	12.5	1.68e-04	0	57	0	899678208	54	5726
2026-01-06 00:53:32.17	241.82	18.37	-41.4	-45.0	13.0	8.23e-05	0	56	0	907018240	54	5411
2026-01-06 00:53:36.21	241.33	17.94	-40.5	-43.3	14.6	0.00e+00	0	57	0	914358272	52	5017
2026-01-06 00:53:40.24	240.85	17.53	-40.5	-43.4	14.5	0.00e+00	0	57	0	922746880	52	5071
2026-01-06 00:53:44.28	240.38	17.11	-41.1	-44.4	13.5	1.60e-05	0	56	0	930086912	53	5344
2026-01-06 00:53:48.32	239.93	16.71	-40.6	-43.4	14.4	1.50e-06	0	56	0	937426944	53	4807
2026-01-06 00:53:52.36	239.49	16.30	-40.3	-43.1	14.8	0.00e+00	0	56	0	944766976	52	4877
2026-01-06 00:53:56.40	239.06	15.91	-40.7	-43.7	14.2	1.50e-06	0	56	0	952107008	52	5276
2026-01-06 00:54:00.43	238.65	15.51	-40.9	-44.0	13.9	6.10e-06	0	57	0	960495616	52	5423
2026-01-06 00:54:04.47	238.24	15.13	-40.9	-44.0	13.8	6.80e-06	0	57	0	967835648	52	5455
2026-01-06 00:54:08.50	237.85	14.74	-40.9	-44.0	13.8	4.50e-06	0	56	0	975175680	52	5420
2026-01-06 00:54:12.54	237.46	14.36	-40.5	-43.4	14.4	7.00e-07	0	56	0	982515712	52	5065
2026-01-06 00:54:16.58	237.09	13.99	-40.3	-43.1	14.7	0.00e+00	0	57	0	990904320	52	4888
2026-01-06 00:54:20.62	236.72	13.62	-40.6	-43.7	14.1	7.00e-07	0	56	0	998244352	52	5226
2026-01-06 00:54:24.66	236.37	13.26	-41.4	-45.0	12.7	5.95e-05	0	56	0	1005584384	53	5771
2026-01-06 00:54:28.70	236.02	12.89	-41.7	-45.7	12.0	3.97e-04	0	57	0	1012924416	54	5891
2026-01-06 00:54:32.74	235.68	12.54	-41.3	-44.9	12.8	9.23e-05	0	57	0	1020264448	54	5347
2026-01-06 00:54:36.78	235.35	12.18	-40.9	-44.2	13.5	1.22e-05	0	56	0	1028653056	53	5250
2026-01-06 00:54:40.82	235.03	11.84	-40.5	-43.6	14.1	6.10e-06	0	56	0	1035993088	53	4896
2026-01-06 00:54:44.86	234.71	11.49	-40.6	-43.7	13.9	3.80e-06	0	56	0	1043333120	53	4952
2026-01-06 00:54:48.90	234.40	11.15	-40.6	-43.6	14.0	2.20e-06	0	57	0	1050673152	53	4916
2026-01-06 00:54:52.94	234.10	10.81	-40.5	-43.6	14.0	2.20e-06	0	56	0	1059061760	52	5191
2026-01-06 00:54:56.98	233.81	10.48	-40.7	-43.9	13.7	5.30e-06	0	57	0	1066401792	52	5356
2026-01-06 00:55:01.02	233.52	10.15	-40.8	-44.0	13.5	1.44e-05	0	57	0	1073741824	52	5441
2026-01-06 00:55:05.05	233.24	9.83	-41.0	-44.5	12.9	4.04e-05	0	56	0	1081081856	52	5778
2026-01-06 00:55:09.09	232.97	9.51	-41.1	-44.7	12.8	6.71e-05	0	57	0	1088421888	52	5884
2026-01-06 00:55:13.13	232.70	9.19	-41.2	-45.0	12.4	1.27e-04	0	56	0	1096810496	53	5756
2026-01-06 00:55:17.17	232.44	8.87	-41.7	-45.9	11.5	6.13e-04	0	57	0	1104150528	53	6364
2026-01-06 00:55:21.21	232.18	8.56	-41.8	-46.2	11.1	1.85e-03	0	57	0	1111490560	54	6247
2026-01-06 00:55:25.24	231.94	8.25	-41.9	-46.5	10.8	2.76e-03	0	57	0	1118830592	54	6446
2026-01-06 00:55:29.28	231.69	7.95	-44.5	-58.9	3.8	1.49e+00	0	57	104	1125122048	59	20111
2026-01-06 00:55:33.32	231.45	7.65	-45.1	-59.8	3.8	1.49e+00	0	56	104	1125122048	60	21144
2026-01-06 00:55:37.37	231.22	7.35	-45.2	-59.9	3.8	1.49e+00	0	56	104	1125122048	60	21504
2026-01-06 00:55:41.41	230.99	7.05	-45.1	-59.9	3.8	1.49e+00	0	57	104	1125122048	60	21339
2026-01-06 00:55:45.45	230.76	6.76	-45.1	-59.9	3.8	1.49e+00	0	56	104	1125122048	60	21391
2026-01-06 00:55:49.50	230.54	6.47	-45.1	-59.9	3.8	1.49e+00	0	57	104	1125122048	60	21367
2026-01-06 00:55:53.54	230.33	6.18	-45.1	-59.9	3.8	1.49e+00	0	56	104	1125122048	60	21360
2026-01-06 00:55:57.58	230.11	5.89	-45.1	-59.9	3.8	1.49e+00	0	57	104	1125122048	60	21326
2026-01-06 00:56:01.63	229.91	5.61	-45.1	-59.9	3.8	1.49e+00	0	57	104	1125122048	60	21270
2026-01-06 00:56:05.67	229.70	5.33	-45.1	-59.9	3.8	1.49e+00	0	57	104	1125122048	60	21284
2026-01-06 00:56:09.71	229.50	5.06	-45.1	-59.9	3.8	1.49e+00	0	57	104	1125122048	60	21268
2026-01-06 00:56:13.75	229.31	4.78	-45.0	-59.9	3.8	1.49e+00	0	57	104	1125122048	60	21283
2026-01-06 00:56:17.80	229.12	4.51	-45.0	-59.9	3.8	1.49e+00	0	57	104	1125122048	60	21271
2026-01-06 00:56:21.84	228.93	4.24	-45.0	-59.8	3.8	1.49e+00	0	57	104	1125122048	60	21242
2026-01-06 00:56:25.88	228.75	3.98	-45.0	-59.9	3.8	1.49e+00	0	57	104	1125122048	60	21262
2026-01-06 00:56:29.93	228.57	3.71	-45.0	-59.8	3.8	1.49e+00	0	57	104	1125122048	60	21193
2026-01-06 00:56:33.98	228.39	3.45	-45.0	-59.8	3.8	1.49e+00	0	56	104	1125122048	60	21198
2026-01-06 00:56:38.02	228.21	3.19	-45.0	-59.8	3.8	1.49e+00	0	57	104	1125122048	60	21224
2026-01-06 00:56:42.06	228.04	2.93	-45.0	-59.8	3.8	1.49e+00	0	57	104	1125122048	60	21154
2026-01-06 00:56:46.11	227.88	2.67	-45.0	-59.8	3.8	1.49e+00	0	57	104	1125122048	60	21178
2026-01-06 00:56:50.15	227.71	2.42	-45.0	-59.8	3.8	1.49e+00	0	57	104	1125122048	60	21176
2026-01-06 00:56:54.19	227.55	2.17	-45.0	-59.8	3.8	1.49e+00	0	57	104	1125122048	60	21130
2026-01-06 00:56:58.24	227.39	1.92	-45.0	-59.8	3.8	1.49e+00	0	57	104	1125122048	60	21161

#Closed at: 2026-01-06 00:56:58
#Recorded file [1125 MB]: D:/lorett/data/31039_260106_034313.dat