passes_logs/2026/01/06/R2.0S_Moscow/R2.0S_Moscow__20260106_013308_AQUA_rec.log

#Pass ID: 20260106_013308_AQUA
#Satellite: AQUA
#Configuration: AQUA
#almurnet v.1.7.20251203
#Start time: 2026-01-06 01:33:09

#Version: 2.2.20231116
#Station: R2.0S_Moscow
#Location: 37.707566 lon 55.798166 lat
#TLE: 1 27424U 02022A   26004.96787593  .00001598  00000+0  32997-3 0  9996
#TLE: 2 27424  98.4069 331.2279 0002002  90.2377   0.6092 14.61798176259425

#Time	Az	El	Level	Level2	SNR	BER	BlckErr	Temp	State	Recorded	gain1	gain2
2026-01-06 01:33:09.29	14.27	2.08	-44.1	-63.1	3.8	7.48e-01	0	47	0	0	60	31023
2026-01-06 01:33:13.32	14.24	2.34	-44.4	-63.5	3.8	7.47e-01	0	48	104	0	59	34228
2026-01-06 01:33:17.37	14.21	2.62	-44.4	-63.5	3.8	7.47e-01	0	48	104	0	59	34231
2026-01-06 01:33:21.41	14.17	2.89	-44.4	-63.5	3.8	7.44e-01	0	49	104	0	59	34095
2026-01-06 01:33:25.46	14.13	3.17	-44.4	-63.3	3.8	7.50e-01	0	48	104	0	59	33668
2026-01-06 01:33:29.50	14.09	3.45	-44.4	-63.0	3.8	7.43e-01	0	49	104	0	59	32422
2026-01-06 01:33:33.54	14.06	3.73	-44.4	-62.6	3.8	7.47e-01	0	49	104	0	59	31055
2026-01-06 01:33:37.59	14.02	4.02	-44.3	-61.9	3.8	7.43e-01	0	49	104	0	59	28452
2026-01-06 01:33:41.63	13.97	4.31	-44.3	-61.3	3.9	7.44e-01	0	49	104	0	59	26554
2026-01-06 01:33:45.68	13.93	4.61	-44.3	-60.6	3.8	7.43e-01	0	50	104	0	59	24634
2026-01-06 01:33:49.72	13.89	4.90	-44.3	-59.4	3.9	7.41e-01	0	50	104	0	59	21499
2026-01-06 01:33:53.76	13.84	5.21	-44.2	-57.7	5.1	7.04e-01	3	50	0	0	59	17536
2026-01-06 01:33:57.81	13.79	5.51	-44.1	-56.7	5.8	6.89e-01	77	50	0	4718592	59	15678
2026-01-06 01:34:01.85	13.75	5.82	-44.2	-56.8	5.7	6.91e-01	66	51	0	11534336	59	15916
2026-01-06 01:34:05.89	13.70	6.13	-44.3	-61.2	3.8	7.43e-01	0	51	104	12058624	59	26402
2026-01-06 01:34:09.93	13.64	6.45	-44.0	-54.9	7.2	6.57e-01	92	51	0	13631488	59	12743
2026-01-06 01:34:13.97	13.59	6.77	-42.7	-48.4	14.0	6.07e-01	0	51	0	21495808	57	6775
2026-01-06 01:34:18.02	13.53	7.10	-41.0	-44.7	17.7	6.02e-01	0	51	0	28835840	54	5248
2026-01-06 01:34:22.06	13.48	7.43	-40.1	-43.2	19.2	6.03e-01	0	51	0	36175872	52	4954
2026-01-06 01:34:26.10	13.42	7.77	-40.2	-43.3	19.1	6.04e-01	0	52	0	44040192	51	5326
2026-01-06 01:34:30.14	13.36	8.11	-41.1	-44.7	17.8	6.04e-01	0	52	0	51380224	53	5564
2026-01-06 01:34:34.18	13.30	8.45	-41.7	-46.3	15.7	6.02e-01	0	52	0	57671680	54	6346
2026-01-06 01:34:38.22	13.23	8.81	-40.0	-42.9	19.6	6.02e-01	0	52	0	65536000	51	5081
2026-01-06 01:34:42.26	13.16	9.16	-39.9	-42.8	19.8	6.06e-01	0	52	0	72876032	51	4995
2026-01-06 01:34:46.30	13.10	9.53	-39.9	-42.7	19.8	6.02e-01	0	53	0	80740352	51	4968
2026-01-06 01:34:50.34	13.02	9.89	-39.8	-42.4	20.1	6.03e-01	0	52	0	88080384	51	4813
2026-01-06 01:34:54.38	12.95	10.27	-39.7	-42.3	20.5	6.03e-01	0	53	0	95420416	51	4706
2026-01-06 01:34:58.42	12.87	10.65	-39.6	-42.1	20.7	6.01e-01	0	52	0	103284736	51	4649
2026-01-06 01:35:02.46	12.79	11.04	-39.8	-42.3	20.5	6.02e-01	0	52	0	110624768	50	5035
2026-01-06 01:35:06.50	12.71	11.43	-39.6	-42.1	20.7	6.03e-01	0	53	0	118489088	50	4925
2026-01-06 01:35:10.54	12.63	11.84	-39.6	-42.1	20.8	6.02e-01	0	53	0	125829120	50	4877
2026-01-06 01:35:14.58	12.54	12.24	-39.7	-42.2	20.8	6.04e-01	0	53	0	133693440	50	4946
2026-01-06 01:35:18.62	12.45	12.66	-39.7	-42.1	20.9	6.02e-01	0	53	0	141033472	50	4907
2026-01-06 01:35:22.66	12.35	13.09	-39.5	-41.8	21.3	6.06e-01	0	53	0	148897792	50	4759
2026-01-06 01:35:26.69	12.26	13.52	-39.3	-41.6	21.7	6.01e-01	0	53	0	156237824	50	4616
2026-01-06 01:35:30.73	12.15	13.96	-39.2	-41.4	21.9	6.03e-01	0	53	0	163577856	50	4518
2026-01-06 01:35:34.77	12.05	14.41	-39.2	-41.4	22.0	6.01e-01	0	54	0	171442176	50	4519
2026-01-06 01:35:38.81	11.94	14.87	-39.1	-41.2	22.2	6.04e-01	0	54	0	178782208	50	4438
2026-01-06 01:35:42.84	11.83	15.34	-39.1	-41.2	22.3	6.03e-01	0	54	0	186646528	50	4404
2026-01-06 01:35:46.88	11.71	15.82	-39.2	-41.3	22.3	6.03e-01	0	54	0	193986560	50	4462
2026-01-06 01:35:50.93	11.58	16.32	-39.2	-41.3	22.3	6.04e-01	0	54	0	201850880	50	4449
2026-01-06 01:35:54.97	11.46	16.82	-39.2	-41.3	22.3	6.03e-01	0	54	0	209190912	50	4490
2026-01-06 01:35:59.01	11.32	17.33	-39.2	-41.3	22.4	6.02e-01	0	54	0	217055232	50	4443
2026-01-06 01:36:03.04	11.18	17.86	-39.0	-41.0	22.7	6.04e-01	0	54	0	224395264	50	4312
2026-01-06 01:36:07.08	11.04	18.39	-39.0	-41.0	22.7	6.02e-01	0	54	0	231735296	49	4569
2026-01-06 01:36:11.12	10.89	18.94	-39.1	-41.1	22.6	6.04e-01	0	54	0	239599616	49	4630
2026-01-06 01:36:15.16	10.73	19.51	-39.3	-41.4	22.4	6.04e-01	0	54	0	246939648	49	4773
2026-01-06 01:36:19.20	10.57	20.09	-39.6	-41.7	22.1	6.04e-01	0	54	0	254803968	49	4953
2026-01-06 01:36:23.24	10.40	20.68	-39.4	-41.5	22.3	6.04e-01	0	54	0	262144000	49	4856
2026-01-06 01:36:27.28	10.22	21.29	-39.4	-41.4	22.4	6.02e-01	0	54	0	270008320	49	4808
2026-01-06 01:36:31.32	10.03	21.92	-39.4	-41.5	22.3	6.05e-01	0	54	0	277348352	49	4862
2026-01-06 01:36:35.35	9.83	22.56	-39.4	-41.4	22.5	6.01e-01	0	54	0	285212672	49	4790
2026-01-06 01:36:39.39	9.63	23.22	-39.2	-41.2	22.7	6.04e-01	0	54	0	292552704	49	4692
2026-01-06 01:36:43.43	9.41	23.90	-39.2	-41.2	22.6	6.01e-01	0	54	0	299892736	49	4704
2026-01-06 01:36:47.46	9.18	24.59	-39.3	-41.3	22.5	6.03e-01	0	54	0	307757056	49	4759
2026-01-06 01:36:51.50	8.94	25.31	-39.3	-41.4	22.5	6.01e-01	0	55	0	315097088	49	4779
2026-01-06 01:36:55.54	8.69	26.05	-39.2	-41.2	22.7	6.05e-01	0	54	0	322961408	49	4680
2026-01-06 01:36:59.58	8.43	26.81	-39.2	-41.1	22.8	6.01e-01	0	54	0	330301440	49	4648
2026-01-06 01:37:03.62	8.15	27.59	-39.2	-41.2	22.7	6.03e-01	0	55	0	338165760	49	4689
2026-01-06 01:37:07.65	7.86	28.40	-38.9	-40.7	23.2	6.04e-01	0	55	0	345505792	49	4441
2026-01-06 01:37:11.69	7.54	29.23	-38.8	-40.6	23.3	6.05e-01	0	55	0	353370112	49	4391
2026-01-06 01:37:15.73	7.21	30.09	-38.8	-40.6	23.3	6.03e-01	0	55	0	360710144	49	4383
2026-01-06 01:37:19.77	6.87	30.98	-38.5	-40.4	23.6	6.06e-01	0	55	0	368050176	48	4494
2026-01-06 01:37:23.81	6.49	31.90	-39.0	-40.9	23.1	6.03e-01	0	55	0	375914496	48	4797
2026-01-06 01:37:27.85	6.10	32.84	-38.9	-40.8	23.2	6.04e-01	0	55	0	383254528	48	4743
2026-01-06 01:37:31.89	5.68	33.82	-39.2	-41.1	22.9	6.03e-01	0	55	0	391118848	48	4915
2026-01-06 01:37:35.93	5.23	34.83	-39.8	-41.9	22.2	6.04e-01	0	55	0	398458880	50	4810
2026-01-06 01:37:39.97	4.75	35.87	-40.0	-42.1	22.0	6.02e-01	0	55	0	406323200	50	4922
2026-01-06 01:37:44.01	4.24	36.95	-40.5	-42.9	21.2	6.04e-01	0	55	0	413663232	51	5044
2026-01-06 01:37:48.05	3.69	38.07	-41.1	-43.7	20.5	6.01e-01	0	55	0	421527552	52	5226
2026-01-06 01:37:52.08	3.10	39.21	-40.9	-43.4	20.7	6.04e-01	0	55	0	428867584	52	5059
2026-01-06 01:37:56.13	2.46	40.41	-41.0	-43.5	20.6	6.02e-01	0	55	0	436207616	53	4828
2026-01-06 01:38:00.16	1.77	41.63	-40.3	-42.6	21.5	6.02e-01	0	55	0	444071936	52	4639
2026-01-06 01:38:04.20	1.02	42.90	-40.3	-42.5	21.6	6.03e-01	0	55	0	451411968	52	4590
2026-01-06 01:38:08.24	0.21	44.21	-40.1	-42.3	21.8	6.01e-01	0	55	0	459276288	52	4486
2026-01-06 01:38:12.28	359.32	45.56	-39.5	-41.5	22.7	6.03e-01	0	55	0	466616320	50	4563
2026-01-06 01:38:16.32	358.36	46.95	-39.6	-41.7	22.5	6.03e-01	0	55	0	474480640	50	4652
2026-01-06 01:38:20.36	357.29	48.38	-39.7	-41.7	22.5	6.05e-01	0	55	0	481820672	50	4696
2026-01-06 01:38:24.40	356.12	49.85	-40.0	-42.1	22.1	6.03e-01	0	55	0	489684992	50	4912
2026-01-06 01:38:28.43	354.84	51.35	-39.7	-41.8	22.4	6.02e-01	0	55	0	497025024	50	4709
2026-01-06 01:38:32.48	353.40	52.89	-38.9	-40.7	23.4	6.02e-01	0	55	0	504365056	48	4693
2026-01-06 01:38:36.52	351.80	54.46	-38.7	-40.5	23.7	6.02e-01	0	55	0	512229376	48	4588
2026-01-06 01:38:40.56	350.01	56.06	-39.2	-41.2	23.0	6.04e-01	0	55	0	519569408	49	4656
2026-01-06 01:38:44.59	348.01	57.67	-39.6	-41.7	22.5	6.04e-01	0	55	0	527433728	49	4947
2026-01-06 01:38:48.63	345.74	59.29	-40.1	-42.2	22.0	6.03e-01	0	55	0	534773760	50	4960
2026-01-06 01:38:52.67	343.16	60.91	-40.6	-43.0	21.2	6.03e-01	0	55	0	542638080	52	4826
2026-01-06 01:38:56.71	340.23	62.52	-40.8	-43.2	20.9	6.05e-01	0	55	0	549978112	52	4971
2026-01-06 01:39:00.74	336.90	64.09	-41.2	-43.8	20.4	6.04e-01	0	55	0	557842432	53	5002
2026-01-06 01:39:04.78	333.07	65.60	-41.9	-45.0	19.3	6.04e-01	0	55	0	565182464	54	5416
2026-01-06 01:39:08.82	328.69	67.03	-42.9	-46.5	17.8	6.03e-01	0	55	0	572522496	56	5782
2026-01-06 01:39:12.86	323.69	68.35	-42.3	-45.5	18.7	6.03e-01	0	55	0	580386816	56	5109
2026-01-06 01:39:16.90	318.03	69.50	-42.5	-45.9	18.4	6.01e-01	0	56	0	587726848	56	5357
2026-01-06 01:39:20.94	311.70	70.47	-42.7	-46.3	17.9	6.03e-01	0	56	0	595591168	55	5954
2026-01-06 01:39:24.98	304.76	71.19	-42.4	-45.6	18.6	6.04e-01	0	55	0	602931200	56	5206
2026-01-06 01:39:29.02	297.34	71.63	-42.0	-45.1	19.1	6.04e-01	0	56	0	610795520	54	5468
2026-01-06 01:39:33.06	289.67	71.78	-42.2	-45.5	18.7	6.03e-01	0	55	0	618135552	55	5423
2026-01-06 01:39:37.10	282.00	71.61	-42.5	-45.8	18.3	6.01e-01	0	56	0	625999872	56	5330
2026-01-06 01:39:41.14	274.61	71.14	-42.2	-45.4	18.8	6.05e-01	0	56	0	633339904	56	5076
2026-01-06 01:39:45.18	267.71	70.40	-42.4	-45.7	18.5	6.03e-01	0	56	0	640679936	55	5579
2026-01-06 01:39:49.22	261.42	69.42	-43.3	-47.4	16.9	6.05e-01	0	56	0	648544256	57	6021
2026-01-06 01:39:53.25	255.82	68.25	-43.1	-46.9	17.2	6.03e-01	0	56	0	655884288	57	5706
2026-01-06 01:39:57.29	250.87	66.93	-42.9	-46.6	17.7	6.03e-01	0	56	0	663748608	57	5475
2026-01-06 01:40:01.33	246.52	65.48	-43.2	-47.2	17.0	6.04e-01	0	55	0	671088640	57	5906
2026-01-06 01:40:05.37	242.73	63.96	-42.6	-46.0	18.3	6.01e-01	0	56	0	678952960	56	5453
2026-01-06 01:40:09.41	239.41	62.38	-42.0	-45.0	19.2	6.04e-01	0	56	0	686292992	55	5136
2026-01-06 01:40:13.45	236.51	60.77	-41.9	-44.9	19.3	6.03e-01	0	56	0	694157312	54	5383
2026-01-06 01:40:17.49	233.95	59.14	-40.8	-43.3	20.9	6.01e-01	0	56	0	701497344	53	4748
2026-01-06 01:40:21.53	231.70	57.52	-40.1	-42.3	22.0	6.02e-01	0	56	0	708837376	51	4706
2026-01-06 01:40:25.57	229.71	55.90	-39.0	-40.9	23.3	6.05e-01	0	56	0	716701696	49	4506
2026-01-06 01:40:29.61	227.94	54.30	-38.5	-40.2	23.9	6.04e-01	0	56	0	724041728	48	4420
2026-01-06 01:40:33.65	226.35	52.72	-38.7	-40.5	23.6	6.03e-01	0	56	0	731906048	48	4577
2026-01-06 01:40:37.69	224.93	51.18	-38.9	-40.8	23.5	6.03e-01	0	56	0	739246080	48	4718
2026-01-06 01:40:41.73	223.64	49.67	-39.1	-41.0	23.2	6.02e-01	0	56	0	747110400	49	4559
2026-01-06 01:40:45.77	222.48	48.20	-39.6	-41.6	22.5	6.03e-01	0	56	0	754450432	49	4926
2026-01-06 01:40:49.80	221.43	46.77	-39.2	-41.2	23.0	6.02e-01	0	56	0	762314752	49	4656
2026-01-06 01:40:53.84	220.46	45.38	-39.5	-41.5	22.7	6.03e-01	0	56	0	769654784	49	4831
2026-01-06 01:40:57.88	219.58	44.03	-39.2	-41.1	23.0	6.05e-01	0	56	0	776994816	49	4650
2026-01-06 01:41:01.92	218.77	42.72	-39.8	-41.9	22.2	6.03e-01	0	56	0	784859136	50	4810
2026-01-06 01:41:05.96	218.03	41.45	-40.1	-42.3	21.9	6.05e-01	0	56	0	792199168	50	4989
2026-01-06 01:41:10.00	217.34	40.22	-40.6	-43.0	21.2	6.04e-01	0	56	0	800063488	51	5146
2026-01-06 01:41:14.03	216.71	39.03	-40.8	-43.2	20.9	6.05e-01	0	56	0	807403520	52	4983
2026-01-06 01:41:18.07	216.12	37.88	-40.6	-42.9	21.2	6.03e-01	0	56	0	815267840	52	4798
2026-01-06 01:41:22.11	215.57	36.77	-40.2	-42.5	21.6	6.02e-01	0	56	0	822607872	52	4572
2026-01-06 01:41:26.15	215.05	35.69	-39.9	-42.1	22.0	6.02e-01	0	56	0	830472192	51	4605
2026-01-06 01:41:30.18	214.58	34.64	-39.8	-42.0	22.2	6.03e-01	0	56	0	837812224	51	4552
2026-01-06 01:41:34.22	214.13	33.63	-39.3	-41.3	22.8	6.03e-01	0	56	0	845152256	50	4463
2026-01-06 01:41:38.26	213.71	32.66	-39.1	-41.0	23.1	6.04e-01	0	56	0	853016576	50	4317
2026-01-06 01:41:42.30	213.31	31.71	-39.0	-40.9	23.1	6.04e-01	0	56	0	860356608	49	4512
2026-01-06 01:41:46.34	212.94	30.79	-38.5	-40.3	23.7	6.02e-01	0	56	0	868220928	49	4234
2026-01-06 01:41:50.37	212.59	29.91	-38.7	-40.5	23.5	6.05e-01	0	56	0	875560960	49	4314
2026-01-06 01:41:54.41	212.26	29.05	-39.0	-40.9	23.2	6.02e-01	0	56	0	883425280	49	4526
2026-01-06 01:41:58.45	211.95	28.21	-39.2	-41.2	22.9	6.04e-01	0	56	0	890765312	49	4660
2026-01-06 01:42:02.49	211.66	27.40	-39.3	-41.2	22.8	6.01e-01	0	56	0	898629632	49	4702
2026-01-06 01:42:06.53	211.38	26.62	-39.2	-41.2	22.8	6.02e-01	0	56	0	905969664	49	4680
2026-01-06 01:42:10.57	211.11	25.85	-39.5	-41.6	22.4	6.01e-01	0	56	0	913309696	49	4882
2026-01-06 01:42:14.62	210.86	25.11	-39.4	-41.4	22.6	6.03e-01	0	56	0	921174016	49	4801
2026-01-06 01:42:18.65	210.62	24.40	-39.4	-41.5	22.6	6.04e-01	0	56	0	928514048	49	4817
2026-01-06 01:42:22.69	210.39	23.70	-39.6	-41.6	22.4	6.03e-01	0	56	0	936378368	49	4920
2026-01-06 01:42:26.73	210.17	23.02	-39.6	-41.7	22.3	6.02e-01	0	56	0	943718400	49	4939
2026-01-06 01:42:30.77	209.96	22.36	-39.5	-41.6	22.4	6.03e-01	0	56	0	951582720	49	4890
2026-01-06 01:42:34.81	209.76	21.72	-39.7	-41.8	22.1	6.02e-01	0	56	0	958922752	50	4746
2026-01-06 01:42:38.84	209.58	21.09	-39.7	-41.8	22.1	6.02e-01	0	56	0	966787072	50	4733
2026-01-06 01:42:42.88	209.39	20.48	-39.8	-41.9	22.0	6.03e-01	0	56	0	974127104	50	4783
2026-01-06 01:42:46.92	209.22	19.89	-39.8	-42.0	22.0	6.05e-01	0	56	0	981467136	50	4815
2026-01-06 01:42:50.96	209.05	19.31	-39.5	-41.6	22.3	6.02e-01	0	56	0	989331456	50	4633
2026-01-06 01:42:54.99	208.90	18.74	-39.6	-41.8	22.1	6.03e-01	0	56	0	996671488	50	4727
2026-01-06 01:42:59.03	208.74	18.19	-39.6	-41.8	22.1	6.02e-01	0	56	0	1004535808	50	4717
2026-01-06 01:43:03.07	208.60	17.65	-39.7	-41.8	22.0	6.03e-01	0	56	0	1011875840	50	4748
2026-01-06 01:43:07.11	208.45	17.13	-39.8	-42.0	21.8	6.03e-01	0	56	0	1019740160	50	4826
2026-01-06 01:43:11.14	208.32	16.62	-39.7	-41.8	21.9	6.04e-01	0	56	0	1027080192	50	4756
2026-01-06 01:43:15.19	208.19	16.11	-39.7	-41.8	21.9	6.06e-01	0	56	0	1034944512	50	4757
2026-01-06 01:43:19.22	208.06	15.62	-39.6	-41.7	22.0	6.02e-01	0	56	0	1042284544	50	4691
2026-01-06 01:43:23.26	207.94	15.14	-39.5	-41.7	22.0	6.02e-01	0	56	0	1049624576	50	4663
2026-01-06 01:43:27.30	207.83	14.67	-39.5	-41.7	22.0	6.03e-01	0	56	0	1057488896	50	4689
2026-01-06 01:43:31.34	207.71	14.21	-39.6	-41.8	21.9	6.03e-01	0	56	0	1064828928	50	4732
2026-01-06 01:43:35.38	207.61	13.76	-39.7	-41.9	21.7	6.04e-01	0	56	0	1072693248	50	4786
2026-01-06 01:43:39.42	207.50	13.32	-39.7	-41.9	21.7	6.04e-01	0	56	0	1080033280	50	4795
2026-01-06 01:43:43.46	207.40	12.88	-39.7	-41.9	21.7	6.03e-01	0	56	0	1087897600	50	4785
2026-01-06 01:43:47.49	207.30	12.46	-39.6	-41.9	21.7	6.02e-01	0	56	0	1095237632	50	4782
2026-01-06 01:43:51.53	207.21	12.04	-39.8	-42.1	21.5	6.05e-01	0	56	0	1103101952	50	4897
2026-01-06 01:43:55.57	207.12	11.63	-39.9	-42.3	21.2	6.03e-01	0	56	0	1110441984	50	5010
2026-01-06 01:43:59.61	207.03	11.23	-40.3	-42.8	20.7	6.02e-01	0	56	0	1117782016	51	5016
2026-01-06 01:44:03.65	206.94	10.83	-40.0	-42.5	21.0	6.04e-01	0	56	0	1125646336	51	4821
2026-01-06 01:44:07.69	206.86	10.44	-40.0	-42.5	21.0	6.03e-01	0	56	0	1132986368	51	4815
2026-01-06 01:44:11.73	206.78	10.06	-40.2	-42.8	20.7	6.05e-01	0	56	0	1140850688	51	4994
2026-01-06 01:44:15.77	206.70	9.69	-40.0	-42.5	20.9	6.04e-01	0	56	0	1148190720	51	4826
2026-01-06 01:44:19.81	206.63	9.32	-40.2	-42.8	20.5	6.01e-01	0	56	0	1156055040	51	5002
2026-01-06 01:44:23.85	206.56	8.96	-40.1	-42.7	20.6	6.04e-01	0	56	0	1163395072	51	4941
2026-01-06 01:44:27.88	206.49	8.60	-40.1	-42.7	20.4	6.02e-01	0	56	0	1171259392	51	4974
2026-01-06 01:44:31.92	206.42	8.25	-40.1	-42.8	20.3	6.04e-01	0	56	0	1178599424	51	5006
2026-01-06 01:44:35.96	206.35	7.90	-45.6	-64.4	3.8	7.48e-01	0	56	104	1183842304	61	34056
2026-01-06 01:44:40.00	206.29	7.56	-46.2	-65.1	3.8	7.43e-01	0	56	104	1183842304	62	34542
2026-01-06 01:44:44.05	206.22	7.22	-46.2	-65.1	3.8	7.47e-01	0	56	104	1183842304	63	32832
2026-01-06 01:44:48.09	206.16	6.89	-46.2	-65.1	3.8	7.46e-01	0	56	104	1183842304	63	32566
2026-01-06 01:44:52.13	206.10	6.56	-46.2	-65.0	3.8	7.47e-01	0	56	104	1183842304	63	32538
2026-01-06 01:44:56.18	206.05	6.24	-46.1	-65.0	3.8	7.48e-01	0	56	104	1183842304	63	32521
2026-01-06 01:45:00.22	205.99	5.92	-46.1	-65.0	3.8	7.44e-01	0	56	104	1183842304	63	32420
2026-01-06 01:45:04.26	205.94	5.61	-46.1	-65.0	3.8	7.43e-01	0	56	104	1183842304	63	32402
2026-01-06 01:45:08.31	205.88	5.30	-46.1	-65.0	3.8	7.44e-01	0	56	104	1183842304	63	32305
2026-01-06 01:45:12.35	205.83	4.99	-46.1	-65.0	3.8	7.45e-01	0	56	104	1183842304	63	32332
2026-01-06 01:45:16.40	205.78	4.69	-46.1	-65.0	3.8	7.46e-01	0	56	104	1183842304	63	32260
2026-01-06 01:45:20.44	205.73	4.39	-46.1	-65.0	3.8	7.45e-01	0	56	104	1183842304	63	32302
2026-01-06 01:45:24.48	205.69	4.10	-46.1	-65.0	3.8	7.48e-01	0	56	104	1183842304	63	32298
2026-01-06 01:45:28.53	205.64	3.81	-46.1	-65.0	3.8	7.44e-01	0	56	104	1183842304	63	32298
2026-01-06 01:45:32.57	205.60	3.52	-46.1	-65.0	3.8	7.46e-01	0	56	104	1183842304	63	32280
2026-01-06 01:45:36.62	205.55	3.24	-46.1	-65.0	3.8	7.45e-01	0	56	104	1183842304	63	32230
2026-01-06 01:45:40.66	205.51	2.96	-46.1	-65.0	3.8	7.42e-01	0	57	104	1183842304	63	32246
2026-01-06 01:45:44.70	205.47	2.68	-46.1	-65.0	3.8	7.42e-01	0	56	104	1183842304	63	32180
2026-01-06 01:45:48.75	205.43	2.40	-46.1	-65.0	3.8	7.44e-01	0	56	104	1183842304	63	32248
2026-01-06 01:45:52.79	205.39	2.13	-46.1	-64.9	3.8	7.46e-01	0	56	104	1183842304	63	32164

#Closed at: 2026-01-06 01:45:56
#Recorded file [1183 MB]: D:/lorett/data/31039_260106_043309.dat