passes_logs/2026/01/06/R2.0S_Moscow/R2.0S_Moscow__20260106_224404_SUOMI_NPP_rec.log

#Pass ID: 20260106_224404_SUOMI NPP
#Satellite: SUOMI NPP
#Configuration: NPP
#almurnet v.1.7.20251203
#Start time: 2026-01-06 22:44:04

#Version: 2.2.20231116
#Station: R2.0S_Moscow
#Location: 37.707566 lon 55.798166 lat
#TLE: 1 37849U 11061A   26005.94084933  .00000134  00000+0  84554-4 0  9990
#TLE: 2 37849  98.7803 308.0679 0002567  79.1029 281.0436 14.19522657735426

#Time	Az	El	Level	Level2	SNR	BER	BlckErr	Temp	State	Recorded	gain1	gain2
2026-01-06 22:44:04.41	21.62	1.99	-42.1	-57.3	3.8	1.49e+00	0	47	0	0	56	19957
2026-01-06 22:44:08.45	21.82	2.23	-41.9	-57.1	3.8	1.49e+00	0	47	104	0	54	21958
2026-01-06 22:44:12.49	22.02	2.47	-41.9	-57.2	3.8	1.49e+00	0	48	104	0	54	22038
2026-01-06 22:44:16.53	22.23	2.72	-41.9	-57.1	3.8	1.49e+00	0	48	104	0	54	21943
2026-01-06 22:44:20.58	22.44	2.96	-41.9	-57.1	3.8	1.49e+00	0	48	104	0	54	21987
2026-01-06 22:44:24.62	22.65	3.21	-41.9	-57.1	3.8	1.49e+00	0	49	104	0	54	21912
2026-01-06 22:44:28.66	22.87	3.46	-41.9	-57.1	3.8	1.49e+00	0	49	104	0	54	21912
2026-01-06 22:44:32.70	23.09	3.71	-41.9	-57.1	3.8	1.49e+00	0	49	104	0	54	21979
2026-01-06 22:44:36.75	23.31	3.97	-41.9	-57.2	3.8	1.49e+00	0	49	104	0	54	22011
2026-01-06 22:44:40.79	23.54	4.23	-41.9	-57.1	3.8	1.49e+00	0	49	104	0	54	21916
2026-01-06 22:44:44.84	23.77	4.49	-41.9	-57.1	3.8	1.49e+00	0	50	104	0	54	21963
2026-01-06 22:44:48.88	24.00	4.75	-41.9	-57.1	3.8	1.49e+00	0	50	104	0	54	21970
2026-01-06 22:44:52.92	24.24	5.01	-41.9	-57.1	3.8	1.49e+00	0	50	104	0	54	21932
2026-01-06 22:44:56.96	24.48	5.28	-41.9	-57.1	3.8	1.49e+00	0	50	104	0	54	21979
2026-01-06 22:45:01.00	24.72	5.54	-41.9	-57.1	3.8	1.49e+00	0	51	104	0	54	21935
2026-01-06 22:45:05.05	24.97	5.81	-41.9	-57.1	3.8	1.49e+00	0	51	104	0	54	21901
2026-01-06 22:45:09.09	25.23	6.09	-41.9	-57.1	3.8	1.49e+00	0	51	104	0	54	21886
2026-01-06 22:45:13.13	25.49	6.36	-41.9	-57.1	3.8	1.49e+00	0	51	104	0	54	21920
2026-01-06 22:45:17.17	25.75	6.64	-41.9	-57.1	3.8	1.49e+00	0	51	104	0	54	21889
2026-01-06 22:45:21.22	26.02	6.92	-41.9	-57.0	3.8	1.49e+00	0	52	104	0	54	21710
2026-01-06 22:45:25.26	26.29	7.20	-41.9	-56.1	3.8	1.49e+00	0	52	104	0	54	19487
2026-01-06 22:45:29.30	26.57	7.49	-41.6	-52.5	4.6	1.36e+00	0	52	0	0	54	12879
2026-01-06 22:45:33.35	26.85	7.78	-40.4	-46.2	9.6	1.38e-02	0	52	0	7340032	52	6987
2026-01-06 22:45:37.39	27.14	8.07	-40.2	-45.0	11.1	1.41e-03	0	52	0	15728640	51	6472
2026-01-06 22:45:41.43	27.43	8.36	-41.3	-47.5	8.0	1.22e+00	0	53	104	22020096	54	7210
2026-01-06 22:45:45.46	27.73	8.66	-40.5	-44.6	11.9	2.62e-04	0	53	0	28311552	52	5840
2026-01-06 22:45:49.50	28.04	8.96	-40.4	-44.4	12.2	2.38e-04	0	53	0	36700160	52	5686
2026-01-06 22:45:53.54	28.35	9.26	-40.5	-44.3	12.6	1.17e-04	0	53	0	44040192	52	5602
2026-01-06 22:45:57.59	28.67	9.56	-40.4	-44.0	12.9	6.25e-05	0	53	0	51380224	52	5448
2026-01-06 22:46:01.63	28.99	9.87	-40.4	-43.9	13.2	1.60e-05	0	53	0	58720256	52	5361
2026-01-06 22:46:05.67	29.32	10.18	-40.4	-43.8	13.2	1.90e-05	0	53	0	66060288	52	5320
2026-01-06 22:46:09.70	29.66	10.50	-40.1	-43.3	13.9	6.80e-06	0	53	0	74448896	52	4989
2026-01-06 22:46:13.74	30.00	10.82	-40.0	-43.0	14.3	0.00e+00	0	53	0	81788928	51	5136
2026-01-06 22:46:17.78	30.35	11.14	-39.9	-42.6	14.8	0.00e+00	0	54	0	89128960	51	4926
2026-01-06 22:46:21.82	30.71	11.46	-39.9	-42.7	14.8	7.00e-07	0	53	0	96468992	51	4935
2026-01-06 22:46:25.86	31.08	11.79	-40.1	-43.0	14.4	0.00e+00	0	54	0	104857600	51	5156
2026-01-06 22:46:29.90	31.45	12.12	-40.2	-43.2	14.3	1.50e-06	0	54	0	112197632	51	5235
2026-01-06 22:46:33.94	31.83	12.46	-40.2	-43.1	14.4	0.00e+00	0	54	0	119537664	51	5196
2026-01-06 22:46:37.98	32.22	12.80	-40.1	-43.0	14.5	0.00e+00	0	54	0	126877696	51	5133
2026-01-06 22:46:42.02	32.62	13.14	-40.0	-42.7	14.8	0.00e+00	0	54	0	134217728	51	4973
2026-01-06 22:46:46.06	33.03	13.48	-39.8	-42.4	15.2	0.00e+00	0	54	0	142606336	51	4777
2026-01-06 22:46:50.09	33.45	13.83	-39.8	-42.5	15.1	0.00e+00	0	54	0	149946368	51	4824
2026-01-06 22:46:54.13	33.87	14.19	-39.7	-42.3	15.3	0.00e+00	0	54	0	157286400	51	4742
2026-01-06 22:46:58.17	34.31	14.54	-40.0	-42.8	14.9	0.00e+00	0	54	0	164626432	51	5006
2026-01-06 22:47:02.21	34.76	14.90	-40.3	-43.1	14.5	7.00e-07	0	54	0	173015040	51	5210
2026-01-06 22:47:06.25	35.22	15.27	-40.2	-43.0	14.7	7.00e-07	0	54	0	180355072	51	5129
2026-01-06 22:47:10.29	35.68	15.64	-40.3	-43.1	14.6	0.00e+00	0	55	0	187695104	51	5200
2026-01-06 22:47:14.33	36.16	16.01	-40.4	-43.2	14.5	0.00e+00	0	55	0	195035136	51	5258
2026-01-06 22:47:18.36	36.66	16.38	-40.5	-43.3	14.5	7.00e-07	0	55	0	202375168	51	5338
2026-01-06 22:47:22.41	37.16	16.77	-40.4	-43.3	14.5	1.50e-06	0	55	0	210763776	51	5312
2026-01-06 22:47:26.45	37.68	17.15	-40.5	-43.3	14.5	0.00e+00	0	55	0	218103808	51	5331
2026-01-06 22:47:30.48	38.20	17.54	-40.5	-43.3	14.6	0.00e+00	0	55	0	225443840	51	5313
2026-01-06 22:47:34.53	38.75	17.93	-40.5	-43.4	14.5	7.00e-07	0	55	0	232783872	51	5348
2026-01-06 22:47:38.57	39.30	18.32	-40.7	-43.7	14.3	0.00e+00	0	55	0	241172480	51	5532
2026-01-06 22:47:42.61	39.88	18.72	-40.6	-43.5	14.3	0.00e+00	0	55	0	248512512	52	5139
2026-01-06 22:47:46.64	40.46	19.13	-40.6	-43.6	14.3	7.00e-07	0	55	0	255852544	52	5166
2026-01-06 22:47:50.68	41.06	19.53	-40.7	-43.8	14.1	7.00e-07	0	55	0	263192576	52	5287
2026-01-06 22:47:54.72	41.68	19.94	-40.4	-43.2	14.6	7.00e-07	0	55	0	270532608	52	4960
2026-01-06 22:47:58.76	42.31	20.36	-40.0	-42.6	15.2	0.00e+00	0	55	0	278921216	52	4631
2026-01-06 22:48:02.79	42.96	20.78	-40.3	-43.0	15.0	0.00e+00	0	55	0	286261248	51	5119
2026-01-06 22:48:06.83	43.63	21.20	-39.9	-42.3	15.7	0.00e+00	0	55	0	293601280	51	4747
2026-01-06 22:48:10.87	44.31	21.62	-39.3	-41.5	16.5	0.00e+00	0	55	0	300941312	50	4582
2026-01-06 22:48:14.91	45.01	22.05	-39.3	-41.5	16.5	0.00e+00	0	55	0	309329920	50	4556
2026-01-06 22:48:18.95	45.74	22.48	-39.3	-41.5	16.6	0.00e+00	0	55	0	316669952	50	4551
2026-01-06 22:48:22.99	46.48	22.91	-39.6	-41.9	16.1	0.00e+00	0	55	0	324009984	50	4801
2026-01-06 22:48:27.03	47.24	23.35	-39.4	-41.7	16.4	0.00e+00	0	55	0	331350016	50	4664
2026-01-06 22:48:31.07	48.03	23.79	-39.3	-41.5	16.6	0.00e+00	0	56	0	338690048	50	4551
2026-01-06 22:48:35.10	48.83	24.22	-39.1	-41.2	16.8	0.00e+00	0	55	0	347078656	50	4423
2026-01-06 22:48:39.14	49.66	24.66	-39.1	-41.2	16.8	0.00e+00	0	55	0	354418688	50	4425
2026-01-06 22:48:43.18	50.51	25.11	-39.6	-41.9	16.1	0.00e+00	0	56	0	361758720	50	4799
2026-01-06 22:48:47.23	51.39	25.55	-39.6	-41.9	16.2	0.00e+00	0	56	0	369098752	50	4791
2026-01-06 22:48:51.26	52.29	25.99	-39.5	-41.8	16.3	0.00e+00	0	56	0	377487360	50	4719
2026-01-06 22:48:55.31	53.22	26.44	-39.7	-42.1	16.1	0.00e+00	0	56	0	384827392	50	4882
2026-01-06 22:48:59.35	54.17	26.88	-39.8	-42.1	16.1	0.00e+00	0	56	0	392167424	50	4910
2026-01-06 22:49:03.39	55.14	27.32	-40.1	-42.7	15.5	0.00e+00	0	56	0	399507456	51	4928
2026-01-06 22:49:07.42	56.14	27.76	-40.5	-43.2	14.9	0.00e+00	0	56	0	406847488	51	5259
2026-01-06 22:49:11.46	57.18	28.20	-40.7	-43.6	14.5	2.20e-06	0	56	0	415236096	52	5203
2026-01-06 22:49:15.50	58.24	28.63	-40.7	-43.6	14.5	0.00e+00	0	56	0	422576128	52	5195
2026-01-06 22:49:19.53	59.32	29.06	-41.6	-45.2	12.8	2.44e-05	0	55	0	429916160	54	5546
2026-01-06 22:49:23.57	60.44	29.48	-41.7	-45.3	12.7	8.46e-05	0	56	0	437256192	54	5649
2026-01-06 22:49:27.61	61.58	29.90	-42.0	-45.8	12.2	1.27e-04	0	56	0	445644800	54	5983
2026-01-06 22:49:31.65	62.76	30.32	-42.3	-46.5	11.6	3.33e-04	0	56	0	452984832	55	6072
2026-01-06 22:49:35.69	63.96	30.72	-42.7	-47.2	10.9	2.39e-03	0	56	0	460324864	56	6247
2026-01-06 22:49:39.73	65.20	31.12	-42.5	-46.7	11.6	6.23e-04	0	56	0	467664896	56	5890
2026-01-06 22:49:43.77	66.46	31.51	-42.7	-47.1	11.2	1.84e-03	0	56	0	475004928	56	6162
2026-01-06 22:49:47.80	67.75	31.89	-42.1	-45.8	12.5	2.80e-04	0	56	0	483393536	56	5300
2026-01-06 22:49:51.84	69.08	32.25	-41.6	-45.0	13.2	6.10e-06	0	56	0	490733568	54	5413
2026-01-06 22:49:55.88	70.43	32.61	-42.7	-47.1	11.2	1.87e-03	0	56	0	498073600	56	6151
2026-01-06 22:49:59.92	71.82	32.95	-41.5	-44.9	13.3	2.44e-05	0	56	0	505413632	55	5055
2026-01-06 22:50:03.96	73.23	33.27	-42.7	-47.3	10.9	1.60e-03	0	56	0	513802240	55	6694
2026-01-06 22:50:08.01	74.67	33.58	-42.8	-47.4	10.8	1.42e-03	0	56	0	521142272	56	6364
2026-01-06 22:50:12.04	76.13	33.87	-43.0	-48.0	10.3	5.28e-03	0	56	0	528482304	56	6868
2026-01-06 22:50:16.08	77.62	34.15	-43.3	-48.6	9.7	1.90e-02	0	56	0	535822336	57	6881
2026-01-06 22:50:20.12	79.14	34.40	-42.9	-47.4	11.0	1.37e-03	0	56	0	543162368	57	6007
2026-01-06 22:50:24.16	80.67	34.64	-42.2	-46.0	12.3	3.38e-04	0	56	0	551550976	56	5464
2026-01-06 22:50:28.20	82.23	34.85	-42.6	-46.9	11.5	1.30e-03	0	56	0	558891008	56	5998
2026-01-06 22:50:32.23	83.81	35.04	-42.4	-46.4	11.9	3.58e-04	0	56	0	566231040	56	5711
2026-01-06 22:50:36.27	85.40	35.21	-42.7	-46.9	11.5	1.05e-03	0	56	0	573571072	56	5993
2026-01-06 22:50:40.31	87.02	35.35	-42.8	-47.1	11.2	7.03e-04	0	56	0	581959680	56	6184
2026-01-06 22:50:44.35	88.64	35.47	-42.9	-47.6	10.8	3.52e-03	0	56	0	589299712	57	6167
2026-01-06 22:50:48.39	90.27	35.56	-43.1	-47.9	10.4	5.15e-03	0	56	0	596639744	57	6381
2026-01-06 22:50:52.43	91.92	35.63	-42.7	-47.1	11.2	1.02e-03	0	56	0	603979776	57	5802
2026-01-06 22:50:56.47	93.57	35.68	-43.1	-48.0	10.2	7.85e-03	0	56	0	611319808	57	6487
2026-01-06 22:51:00.52	95.22	35.69	-41.6	-44.9	13.3	3.12e-05	0	56	0	619708416	55	5084
2026-01-06 22:51:04.56	96.88	35.68	-41.4	-44.6	13.6	6.10e-06	0	56	0	627048448	54	5188
2026-01-06 22:51:08.60	98.53	35.65	-43.6	-49.4	8.8	3.30e-02	0	56	0	634388480	57	7596
2026-01-06 22:51:12.64	100.17	35.59	-42.5	-46.6	11.7	3.11e-04	0	56	0	641728512	56	5837
2026-01-06 22:51:16.68	101.81	35.50	-42.4	-46.2	12.1	2.39e-04	0	56	0	650117120	56	5574
2026-01-06 22:51:20.72	103.44	35.39	-43.3	-48.5	9.7	2.32e-02	0	56	0	657457152	57	6816
2026-01-06 22:51:24.75	105.05	35.25	-43.0	-47.7	10.5	2.25e-03	0	56	0	664797184	57	6207
2026-01-06 22:51:28.80	106.66	35.09	-43.2	-48.1	10.3	3.18e-03	0	56	0	672137216	57	6503
2026-01-06 22:51:32.83	108.24	34.90	-43.4	-48.8	9.3	2.16e-02	0	57	0	679477248	58	6705
2026-01-06 22:51:36.87	109.81	34.69	-44.1	-51.2	7.1	9.77e-02	0	56	0	687865856	58	8848
2026-01-06 22:51:40.91	111.35	34.47	-43.8	-50.0	8.1	5.21e-02	0	56	0	695205888	58	7698
2026-01-06 22:51:44.95	112.88	34.22	-42.1	-45.6	12.7	7.01e-05	0	57	0	702545920	56	5216
2026-01-06 22:51:48.99	114.38	33.95	-41.6	-44.9	13.2	3.50e-05	0	56	0	709885952	55	5083
2026-01-06 22:51:53.03	115.86	33.66	-42.8	-47.2	11.1	2.91e-03	0	56	0	718274560	56	6238
2026-01-06 22:51:57.07	117.31	33.35	-42.6	-46.7	11.6	3.98e-04	0	56	0	725614592	56	5871
2026-01-06 22:52:01.11	118.73	33.03	-41.4	-44.6	13.6	5.26e-05	0	57	0	732954624	54	5163
2026-01-06 22:52:05.15	120.12	32.69	-41.7	-45.2	12.9	5.18e-05	0	57	0	740294656	54	5533
2026-01-06 22:52:09.19	121.49	32.34	-42.5	-46.8	11.4	3.97e-04	0	56	0	747634688	55	6288
2026-01-06 22:52:13.23	122.82	31.97	-40.6	-43.2	14.8	2.74e-05	0	56	0	756023296	53	4700
2026-01-06 22:52:17.26	124.13	31.60	-40.8	-43.7	14.5	7.00e-07	0	56	0	763363328	52	5232
2026-01-06 22:52:21.30	125.41	31.21	-40.0	-42.4	15.8	0.00e+00	0	57	0	770703360	51	4785
2026-01-06 22:52:25.34	126.65	30.81	-40.4	-43.1	15.1	0.00e+00	0	57	0	778043392	52	4879
2026-01-06 22:52:29.38	127.87	30.41	-40.6	-43.3	14.9	0.00e+00	0	56	0	786432000	51	5328
2026-01-06 22:52:33.42	129.06	29.99	-39.7	-42.0	16.2	0.00e+00	0	56	0	793772032	51	4572
2026-01-06 22:52:37.46	130.21	29.57	-41.0	-44.0	14.1	2.20e-06	0	56	0	801112064	52	5456
2026-01-06 22:52:41.50	131.34	29.15	-40.5	-43.1	15.0	0.00e+00	0	57	0	808452096	51	5217
2026-01-06 22:52:45.54	132.44	28.72	-41.4	-44.7	13.4	4.27e-05	0	57	0	815792128	54	5236
2026-01-06 22:52:49.58	133.51	28.28	-40.5	-43.2	14.9	0.00e+00	0	57	0	824180736	52	4950
2026-01-06 22:52:53.62	134.55	27.84	-38.7	-40.7	17.4	0.00e+00	0	56	0	831520768	49	4405
2026-01-06 22:52:57.65	135.56	27.40	-40.8	-43.7	14.4	0.00e+00	0	57	0	838860800	52	5237
2026-01-06 22:53:01.69	136.55	26.96	-39.8	-42.1	16.0	0.00e+00	0	56	0	846200832	51	4625
2026-01-06 22:53:05.73	137.51	26.51	-39.8	-42.1	16.0	0.00e+00	0	57	0	854589440	51	4637
2026-01-06 22:53:09.77	138.45	26.06	-38.7	-40.6	17.5	0.00e+00	0	57	0	861929472	49	4361
2026-01-06 22:53:13.80	139.35	25.62	-39.8	-42.2	15.9	0.00e+00	0	57	0	869269504	50	4954
2026-01-06 22:53:17.84	140.24	25.17	-39.5	-41.7	16.4	0.00e+00	0	57	0	876609536	50	4685
2026-01-06 22:53:21.88	141.10	24.73	-40.1	-42.6	15.6	0.00e+00	0	57	0	883949568	50	5160
2026-01-06 22:53:25.92	141.93	24.28	-38.9	-41.0	17.1	0.00e+00	0	56	0	892338176	49	4557
2026-01-06 22:53:29.96	142.75	23.84	-38.8	-40.8	17.3	0.00e+00	0	56	0	899678208	48	4723
2026-01-06 22:53:34.00	143.54	23.40	-39.3	-41.5	16.5	0.00e+00	0	57	0	907018240	49	4829
2026-01-06 22:53:38.04	144.31	22.96	-38.6	-40.6	17.4	0.00e+00	0	57	0	914358272	49	4359
2026-01-06 22:53:42.08	145.06	22.52	-39.0	-41.1	16.9	0.00e+00	0	57	0	922746880	49	4625
2026-01-06 22:53:46.12	145.79	22.09	-39.1	-41.2	16.8	0.00e+00	0	57	0	930086912	49	4673
2026-01-06 22:53:50.16	146.50	21.66	-38.9	-40.9	17.1	0.00e+00	0	57	0	937426944	49	4532
2026-01-06 22:53:54.19	147.19	21.23	-38.9	-41.0	16.9	0.00e+00	0	57	0	944766976	49	4576
2026-01-06 22:53:58.23	147.86	20.80	-39.4	-41.6	16.3	0.00e+00	0	57	0	952107008	49	4917
2026-01-06 22:54:02.27	148.52	20.38	-39.4	-41.7	16.3	0.00e+00	0	57	0	960495616	49	4940
2026-01-06 22:54:06.31	149.15	19.96	-39.3	-41.5	16.5	0.00e+00	0	57	0	967835648	49	4853
2026-01-06 22:54:10.35	149.77	19.55	-39.6	-42.0	16.0	0.00e+00	0	57	0	975175680	49	5115
2026-01-06 22:54:14.38	150.38	19.14	-40.3	-43.0	15.0	0.00e+00	0	57	0	982515712	51	5120
2026-01-06 22:54:18.42	150.97	18.73	-40.5	-43.4	14.6	0.00e+00	0	57	0	990904320	51	5343
2026-01-06 22:54:22.45	151.54	18.33	-41.0	-44.2	13.6	6.10e-06	0	57	0	998244352	52	5580
2026-01-06 22:54:26.49	152.10	17.93	-41.1	-44.4	13.4	1.44e-05	0	57	0	1005584384	53	5369
2026-01-06 22:54:30.53	152.65	17.53	-40.2	-42.9	14.9	7.00e-07	0	57	0	1012924416	52	4772
2026-01-06 22:54:34.57	153.18	17.14	-39.9	-42.4	15.4	0.00e+00	0	57	0	1020264448	51	4774
2026-01-06 22:54:38.61	153.70	16.75	-40.5	-43.3	14.5	1.50e-06	0	57	0	1028653056	51	5324
2026-01-06 22:54:42.65	154.20	16.37	-40.4	-43.3	14.5	0.00e+00	0	57	0	1035993088	51	5304
2026-01-06 22:54:46.69	154.70	15.99	-40.3	-43.1	14.6	0.00e+00	0	57	0	1043333120	51	5205
2026-01-06 22:54:50.73	155.18	15.61	-40.4	-43.2	14.6	0.00e+00	0	57	0	1050673152	51	5260
2026-01-06 22:54:54.77	155.65	15.24	-40.5	-43.6	14.1	0.00e+00	0	57	0	1059061760	52	5163
2026-01-06 22:54:58.81	156.11	14.87	-40.4	-43.3	14.3	0.00e+00	0	57	0	1066401792	52	4993
2026-01-06 22:55:02.85	156.56	14.51	-40.2	-43.0	14.6	0.00e+00	0	57	0	1073741824	52	4840
2026-01-06 22:55:06.89	157.00	14.15	-40.4	-43.4	14.2	0.00e+00	0	57	0	1081081856	52	5054
2026-01-06 22:55:10.93	157.43	13.79	-40.8	-44.1	13.5	1.22e-05	0	57	0	1088421888	52	5471
2026-01-06 22:55:14.97	157.84	13.44	-41.4	-45.2	12.3	9.76e-05	0	57	0	1096810496	53	5865
2026-01-06 22:55:19.00	158.25	13.09	-41.3	-45.0	12.4	1.80e-04	0	57	0	1104150528	53	5782
2026-01-06 22:55:23.04	158.65	12.75	-41.2	-44.8	12.6	7.01e-05	0	57	0	1111490560	53	5615
2026-01-06 22:55:27.07	159.04	12.41	-40.7	-43.9	13.6	1.29e-05	0	57	0	1118830592	53	5055
2026-01-06 22:55:31.11	159.42	12.07	-40.6	-43.7	13.7	2.20e-06	0	57	0	1127219200	52	5255
2026-01-06 22:55:35.15	159.80	11.73	-40.4	-43.5	13.9	3.80e-06	0	57	0	1134559232	52	5124
2026-01-06 22:55:39.19	160.16	11.40	-40.4	-43.5	13.8	3.80e-06	0	57	0	1141899264	52	5156
2026-01-06 22:55:43.23	160.52	11.07	-40.5	-43.7	13.6	6.80e-06	0	57	0	1149239296	52	5255
2026-01-06 22:55:47.27	160.87	10.75	-40.5	-43.7	13.5	1.06e-05	0	57	0	1156579328	52	5266
2026-01-06 22:55:51.31	161.21	10.43	-40.7	-44.1	13.0	2.67e-05	0	57	0	1164967936	52	5518
2026-01-06 22:55:55.35	161.55	10.11	-40.8	-44.5	12.6	6.02e-05	0	57	0	1172307968	52	5730
2026-01-06 22:55:59.39	161.88	9.80	-40.9	-44.6	12.4	1.40e-04	0	56	0	1179648000	52	5831
2026-01-06 22:56:03.43	162.20	9.48	-41.0	-44.8	12.2	2.10e-04	0	57	0	1186988032	52	5955
2026-01-06 22:56:07.47	162.52	9.18	-41.0	-44.8	12.1	2.79e-04	0	57	0	1195376640	52	5992
2026-01-06 22:56:11.50	162.83	8.87	-41.1	-45.1	11.8	5.40e-04	0	57	0	1202716672	52	6163
2026-01-06 22:56:15.55	163.13	8.57	-40.8	-45.1	11.7	6.48e-04	0	57	0	1210056704	52	6177
2026-01-06 22:56:19.59	163.43	8.27	-41.2	-45.4	11.3	7.00e-04	0	57	0	1217396736	52	6391
2026-01-06 22:56:23.62	163.72	7.97	-43.2	-51.3	6.5	9.10e-04	0	57	0	1224736768	56	10004
2026-01-06 22:56:27.66	164.01	7.68	-44.9	-59.7	3.8	1.49e+00	0	57	104	1225785344	60	20891
2026-01-06 22:56:31.70	164.29	7.39	-45.1	-59.9	3.8	1.49e+00	0	57	104	1225785344	60	21448
2026-01-06 22:56:35.74	164.56	7.10	-45.1	-59.9	3.8	1.49e+00	0	57	104	1225785344	60	21303
2026-01-06 22:56:39.78	164.83	6.82	-45.0	-59.9	3.8	1.49e+00	0	57	104	1225785344	60	21265
2026-01-06 22:56:43.83	165.10	6.53	-45.0	-59.8	3.8	1.49e+00	0	57	104	1225785344	60	21210
2026-01-06 22:56:47.87	165.36	6.25	-45.0	-59.8	3.8	1.49e+00	0	57	104	1225785344	60	21237
2026-01-06 22:56:51.91	165.62	5.98	-45.0	-59.8	3.8	1.49e+00	0	57	104	1225785344	60	21149
2026-01-06 22:56:55.95	165.87	5.70	-45.0	-59.8	3.8	1.49e+00	0	57	104	1225785344	60	21208
2026-01-06 22:56:59.99	166.11	5.43	-45.0	-59.8	3.8	1.49e+00	0	57	104	1225785344	60	21108
2026-01-06 22:57:04.03	166.36	5.16	-45.0	-59.8	3.8	1.49e+00	0	57	104	1225785344	60	21146
2026-01-06 22:57:08.07	166.60	4.89	-45.0	-59.8	3.8	1.49e+00	0	57	104	1225785344	60	21173
2026-01-06 22:57:12.12	166.83	4.63	-45.0	-59.8	3.8	1.49e+00	0	57	104	1225785344	60	21127
2026-01-06 22:57:16.16	167.06	4.36	-45.0	-59.8	3.8	1.49e+00	0	57	104	1225785344	60	21137
2026-01-06 22:57:20.20	167.29	4.10	-45.0	-59.8	3.8	1.49e+00	0	57	104	1225785344	60	21152
2026-01-06 22:57:24.24	167.51	3.84	-45.0	-59.8	3.8	1.49e+00	0	57	104	1225785344	60	21152
2026-01-06 22:57:28.29	167.73	3.58	-45.0	-59.8	3.8	1.49e+00	0	57	104	1225785344	60	21117
2026-01-06 22:57:32.33	167.94	3.33	-45.0	-59.8	3.8	1.49e+00	0	57	104	1225785344	60	21140
2026-01-06 22:57:36.38	168.16	3.08	-45.0	-59.8	3.8	1.49e+00	0	57	104	1225785344	60	21144
2026-01-06 22:57:40.42	168.36	2.83	-45.0	-59.8	3.8	1.49e+00	0	57	104	1225785344	60	21089
2026-01-06 22:57:44.46	168.57	2.58	-45.0	-59.8	3.8	1.49e+00	0	57	104	1225785344	60	21090
2026-01-06 22:57:48.50	168.77	2.33	-45.0	-59.8	3.8	1.49e+00	0	57	104	1225785344	60	21134
2026-01-06 22:57:52.55	168.97	2.09	-44.9	-59.8	3.8	1.49e+00	0	57	104	1225785344	60	21059

#Closed at: 2026-01-06 22:57:55
#Recorded file [1225 MB]: D:/lorett/data/31039_260107_014404.dat