passes_logs/2026/01/06/R2.0S_Moscow/R2.0S_Moscow__20260106_235444_NOAA_21_JPSS-2_rec.log

#Pass ID: 20260106_235444_NOAA 21 (JPSS-2)
#Satellite: NOAA 21 (JPSS-2)
#Configuration: NOAA-21
#almurnet v.1.7.20251203
#Start time: 2026-01-06 23:54:47

#Version: 2.2.20231116
#Station: R2.0S_Moscow
#Location: 37.707566 lon 55.798166 lat
#TLE: 1 54234U 22150A   26005.56767909  .00000152  00000+0  92756-4 0  9990
#TLE: 2 54234  98.7490 306.5820 0001036 340.2747  19.8389 14.19532370163472

#Time	Az	El	Level	Level2	SNR	BER	BlckErr	Temp	State	Recorded	gain1	gain2
2026-01-06 23:54:47.02	15.07	2.15	-42.9	-55.4	3.8	1.49e+00	0	47	0	0	57	15160
2026-01-06 23:54:51.05	15.04	2.41	-42.9	-55.4	3.8	1.49e+00	0	48	104	0	57	15175
2026-01-06 23:54:55.10	15.01	2.67	-42.9	-55.4	3.8	1.49e+00	0	48	104	0	57	15140
2026-01-06 23:54:59.14	14.98	2.93	-42.9	-55.4	3.8	1.49e+00	0	48	104	0	57	15191
2026-01-06 23:55:03.18	14.95	3.20	-42.9	-55.4	3.8	1.49e+00	0	49	104	0	57	15078
2026-01-06 23:55:07.22	14.92	3.47	-42.9	-55.4	3.8	1.49e+00	0	49	104	0	57	15172
2026-01-06 23:55:11.26	14.89	3.74	-42.9	-55.4	3.8	1.49e+00	0	49	104	0	57	15138
2026-01-06 23:55:15.30	14.86	4.02	-42.9	-55.4	3.8	1.49e+00	0	49	104	0	57	15161
2026-01-06 23:55:19.34	14.82	4.30	-42.9	-55.4	3.8	1.49e+00	0	50	104	0	57	15188
2026-01-06 23:55:23.39	14.78	4.58	-42.9	-55.4	3.8	1.49e+00	0	50	104	0	57	15184
2026-01-06 23:55:27.43	14.75	4.86	-42.9	-55.4	3.8	1.49e+00	0	50	104	0	57	15082
2026-01-06 23:55:31.47	14.71	5.15	-42.9	-55.3	3.8	1.49e+00	0	50	104	0	57	14994
2026-01-06 23:55:35.51	14.67	5.44	-42.9	-55.3	3.8	1.49e+00	0	51	104	0	57	14931
2026-01-06 23:55:39.55	14.63	5.73	-42.9	-55.1	3.8	1.49e+00	0	51	104	0	57	14618
2026-01-06 23:55:43.60	14.59	6.03	-42.9	-55.2	3.8	1.49e+00	0	51	104	0	57	14731
2026-01-06 23:55:47.64	14.55	6.33	-42.9	-54.9	3.8	1.49e+00	0	51	104	0	57	14285
2026-01-06 23:55:51.68	14.50	6.63	-42.6	-51.7	4.2	1.47e+00	0	51	104	0	57	9887
2026-01-06 23:55:55.72	14.46	6.94	-41.5	-47.3	6.7	2.31e-01	0	51	0	7340032	55	6670
2026-01-06 23:55:59.77	14.41	7.25	-39.1	-42.0	12.2	3.15e-04	0	52	0	19922944	50	4839
2026-01-06 23:56:03.81	14.36	7.56	-39.0	-41.8	12.4	1.35e-04	0	52	0	32505856	48	5287
2026-01-06 23:56:07.86	14.31	7.88	-38.9	-41.6	12.5	9.38e-05	0	52	0	45088768	48	5218
2026-01-06 23:56:11.90	14.26	8.20	-40.7	-44.7	9.6	3.25e-03	0	52	0	57671680	51	6208
2026-01-06 23:56:15.94	14.21	8.53	-39.0	-41.5	12.8	9.08e-01	0	52	0	67108864	50	4596
2026-01-06 23:56:19.98	14.16	8.86	-38.8	-41.2	13.3	2.28e-05	0	53	0	79691776	49	4681
2026-01-06 23:56:24.02	14.10	9.19	-38.6	-40.9	13.6	6.80e-06	0	53	0	92274688	49	4529
2026-01-06 23:56:28.05	14.05	9.53	-38.5	-40.7	13.9	6.10e-06	0	53	0	104857600	48	4699
2026-01-06 23:56:32.09	13.99	9.88	-38.5	-40.8	13.8	4.50e-06	0	53	0	117440512	48	4736
2026-01-06 23:56:36.13	13.93	10.23	-38.3	-40.5	14.2	3.80e-06	0	53	0	130023424	48	4561
2026-01-06 23:56:40.17	13.86	10.58	-38.3	-40.4	14.4	0.00e+00	0	53	0	142606336	48	4512
2026-01-06 23:56:44.21	13.80	10.94	-38.1	-40.1	14.7	7.00e-07	0	53	0	155189248	48	4380
2026-01-06 23:56:48.25	13.73	11.30	-38.1	-40.2	14.7	0.00e+00	0	53	0	167772160	48	4396
2026-01-06 23:56:52.29	13.66	11.67	-38.1	-40.1	14.8	0.00e+00	0	53	0	180355072	48	4345
2026-01-06 23:56:56.33	13.59	12.05	-37.9	-39.9	15.0	0.00e+00	0	54	0	192937984	47	4512
2026-01-06 23:57:00.37	13.52	12.43	-37.8	-39.7	15.2	0.00e+00	0	54	0	205520896	47	4422
2026-01-06 23:57:04.41	13.44	12.82	-37.9	-39.8	15.2	0.00e+00	0	54	0	218103808	47	4459
2026-01-06 23:57:08.46	13.37	13.21	-37.8	-39.7	15.3	0.00e+00	0	54	0	230686720	47	4415
2026-01-06 23:57:12.50	13.29	13.61	-37.7	-39.5	15.6	0.00e+00	0	54	0	243269632	47	4335
2026-01-06 23:57:16.54	13.20	14.02	-37.6	-39.4	15.7	0.00e+00	0	54	0	255852544	47	4284
2026-01-06 23:57:20.58	13.12	14.43	-37.5	-39.3	15.8	0.00e+00	0	54	0	268435456	47	4220
2026-01-06 23:57:24.62	13.03	14.85	-37.6	-39.4	15.8	0.00e+00	0	54	0	281018368	46	4507
2026-01-06 23:57:28.67	12.94	15.28	-37.5	-39.2	15.9	0.00e+00	0	54	0	293601280	46	4433
2026-01-06 23:57:32.71	12.84	15.71	-37.6	-39.4	15.9	0.00e+00	0	54	0	307232768	46	4509
2026-01-06 23:57:36.75	12.74	16.16	-37.7	-39.5	15.8	0.00e+00	0	54	0	319815680	46	4559
2026-01-06 23:57:40.79	12.64	16.61	-37.7	-39.5	15.8	0.00e+00	0	54	0	332398592	46	4587
2026-01-06 23:57:44.83	12.54	17.07	-37.9	-39.7	15.7	0.00e+00	0	55	0	344981504	46	4694
2026-01-06 23:57:48.88	12.43	17.53	-37.9	-39.7	15.7	0.00e+00	0	55	0	357564416	46	4693
2026-01-06 23:57:52.92	12.31	18.01	-37.9	-39.7	15.7	0.00e+00	0	55	0	370147328	46	4690
2026-01-06 23:57:56.96	12.20	18.50	-38.0	-39.8	15.7	0.00e+00	0	55	0	382730240	46	4709
2026-01-06 23:58:01.00	12.07	18.99	-37.9	-39.7	15.9	0.00e+00	0	55	0	395313152	46	4653
2026-01-06 23:58:05.04	11.95	19.50	-37.8	-39.6	16.0	0.00e+00	0	55	0	407896064	46	4599
2026-01-06 23:58:09.08	11.82	20.02	-37.6	-39.3	16.3	0.00e+00	0	55	0	420478976	46	4472
2026-01-06 23:58:13.13	11.68	20.55	-37.4	-39.1	16.5	0.00e+00	0	55	0	433061888	46	4343
2026-01-06 23:58:17.16	11.54	21.08	-37.1	-38.7	16.9	0.00e+00	0	55	0	445644800	46	4171
2026-01-06 23:58:21.20	11.39	21.63	-36.9	-38.4	17.1	0.00e+00	0	55	0	458227712	45	4273
2026-01-06 23:58:25.24	11.24	22.19	-36.7	-38.1	17.4	0.00e+00	0	55	0	470810624	45	4141
2026-01-06 23:58:29.28	11.08	22.77	-36.5	-38.0	17.6	0.00e+00	0	55	0	483393536	45	4054
2026-01-06 23:58:33.32	10.91	23.36	-36.4	-37.8	17.8	0.00e+00	0	55	0	495976448	44	4203
2026-01-06 23:58:37.36	10.74	23.96	-36.5	-37.9	17.7	0.00e+00	0	55	0	508559360	44	4257
2026-01-06 23:58:41.40	10.56	24.57	-36.5	-37.9	17.8	0.00e+00	0	55	0	521142272	44	4255
2026-01-06 23:58:45.44	10.37	25.20	-36.7	-38.2	17.5	0.00e+00	0	56	0	533725184	44	4417
2026-01-06 23:58:49.48	10.18	25.84	-37.0	-38.5	17.2	0.00e+00	0	56	0	546308096	44	4598
2026-01-06 23:58:53.52	9.97	26.50	-37.5	-39.1	16.6	0.00e+00	0	56	0	558891008	45	4646
2026-01-06 23:58:57.56	9.76	27.18	-38.0	-39.7	16.1	0.00e+00	0	56	0	571473920	46	4682
2026-01-06 23:59:01.60	9.53	27.87	-38.4	-40.2	15.6	0.00e+00	0	55	0	584056832	47	4703
2026-01-06 23:59:05.64	9.30	28.58	-38.4	-40.3	15.5	0.00e+00	0	55	0	597688320	47	4730
2026-01-06 23:59:09.67	9.05	29.31	-38.2	-40.0	15.8	0.00e+00	0	55	0	609222656	47	4587
2026-01-06 23:59:13.71	8.79	30.05	-37.8	-39.5	16.3	0.00e+00	0	56	0	622854144	47	4320
2026-01-06 23:59:17.75	8.52	30.82	-37.3	-38.9	17.0	0.00e+00	0	56	0	635437056	46	4252
2026-01-06 23:59:21.79	8.23	31.60	-37.0	-38.4	17.3	0.00e+00	0	56	0	648019968	45	4289
2026-01-06 23:59:25.83	7.93	32.41	-37.2	-38.7	17.1	0.00e+00	0	56	0	660602880	45	4425
2026-01-06 23:59:29.87	7.61	33.23	-37.5	-39.1	16.7	0.00e+00	0	56	0	673185792	45	4646
2026-01-06 23:59:33.91	7.28	34.08	-38.0	-39.7	16.2	0.00e+00	0	56	0	685768704	46	4660
2026-01-06 23:59:37.95	6.92	34.96	-38.6	-40.4	15.5	0.00e+00	0	56	0	698351616	47	4787
2026-01-06 23:59:41.99	6.55	35.85	-39.0	-40.9	15.1	0.00e+00	0	56	0	710934528	48	4802
2026-01-06 23:59:46.03	6.15	36.77	-39.1	-41.0	15.0	0.00e+00	0	56	0	723517440	48	4864
2026-01-06 23:59:50.07	5.73	37.72	-39.2	-41.2	14.9	7.00e-07	0	56	0	736100352	49	4679
2026-01-06 23:59:54.11	5.28	38.69	-39.0	-40.9	15.2	0.00e+00	0	56	0	748683264	49	4526
2026-01-06 23:59:58.15	4.80	39.68	-39.0	-40.9	15.1	0.00e+00	0	56	0	761266176	49	4521
2026-01-07 00:00:02.19	4.29	40.71	-39.3	-41.3	14.8	0.00e+00	0	56	0	773849088	49	4711
2026-01-07 00:00:06.23	3.75	41.76	-39.7	-41.8	14.3	1.50e-06	0	56	0	786432000	49	5008
2026-01-07 00:00:10.27	3.17	42.83	-39.9	-42.2	13.9	7.00e-07	0	56	0	799014912	50	4933
2026-01-07 00:00:14.32	2.55	43.94	-40.0	-42.3	13.8	6.10e-06	0	56	0	811597824	51	4717
2026-01-07 00:00:18.36	1.88	45.08	-40.1	-42.4	13.8	3.00e-06	0	56	0	824180736	51	4777
2026-01-07 00:00:22.40	1.16	46.24	-39.8	-42.0	14.2	1.50e-06	0	56	0	836763648	51	4555
2026-01-07 00:00:26.43	0.38	47.43	-39.0	-40.8	15.3	0.00e+00	0	56	0	849346560	49	4490
2026-01-07 00:00:30.47	359.54	48.65	-39.2	-41.1	15.0	0.00e+00	0	56	0	861929472	49	4624
2026-01-07 00:00:34.51	358.63	49.90	-38.9	-40.8	15.4	0.00e+00	0	56	0	874512384	49	4456
2026-01-07 00:00:38.55	357.63	51.17	-39.1	-41.1	15.1	0.00e+00	0	56	0	887095296	49	4599
2026-01-07 00:00:42.59	356.55	52.47	-38.6	-40.4	15.7	0.00e+00	0	56	0	899678208	49	4266
2026-01-07 00:00:46.64	355.36	53.79	-38.0	-39.7	16.4	0.00e+00	0	56	0	913309696	48	4149
2026-01-07 00:00:50.68	354.06	55.14	-37.7	-39.3	16.7	0.00e+00	0	56	0	925892608	47	4205
2026-01-07 00:00:54.72	352.63	56.50	-36.9	-38.4	17.6	0.00e+00	0	56	0	938475520	45	4251
2026-01-07 00:00:58.77	351.04	57.88	-37.0	-38.5	17.5	0.00e+00	0	56	0	951058432	45	4320
2026-01-07 00:01:02.80	349.29	59.26	-37.0	-38.5	17.5	0.00e+00	0	56	0	963641344	45	4321
2026-01-07 00:01:06.85	347.33	60.65	-36.7	-38.1	17.9	0.00e+00	0	56	0	976224256	45	4143
2026-01-07 00:01:10.89	345.14	62.04	-36.5	-37.8	18.1	0.00e+00	0	56	0	988807168	44	4237
2026-01-07 00:01:14.93	342.69	63.41	-36.2	-37.5	18.5	0.00e+00	0	56	0	1001390080	44	4082
2026-01-07 00:01:18.97	339.94	64.77	-35.8	-37.1	18.6	0.00e+00	0	56	0	1013972992	43	4135
2026-01-07 00:01:23.01	336.85	66.08	-35.6	-36.9	18.8	0.00e+00	0	56	0	1026555904	43	4023
2026-01-07 00:01:27.05	333.36	67.35	-36.1	-37.4	18.3	0.00e+00	0	56	0	1039138816	43	4281
2026-01-07 00:01:31.09	329.43	68.54	-35.7	-37.0	18.7	0.00e+00	0	56	0	1051721728	43	4089
2026-01-07 00:01:35.14	325.00	69.65	-35.8	-37.1	18.6	0.00e+00	0	56	0	1064304640	42	4386
2026-01-07 00:01:39.18	320.06	70.64	-36.4	-37.8	17.9	0.00e+00	0	56	0	1076887552	43	4488
2026-01-07 00:01:43.22	314.60	71.49	-36.2	-37.6	18.0	0.00e+00	0	56	0	1089470464	43	4366
2026-01-07 00:01:47.25	308.65	72.17	-36.5	-38.0	17.7	0.00e+00	0	56	0	1102053376	43	4561
2026-01-07 00:01:51.30	302.24	72.65	-36.1	-37.4	18.3	0.00e+00	0	56	0	1114636288	43	4286
2026-01-07 00:01:55.33	295.57	72.92	-35.6	-36.9	18.7	0.00e+00	0	56	0	1127219200	43	4016
2026-01-07 00:01:59.37	288.74	72.96	-36.4	-37.9	17.8	0.00e+00	0	56	0	1139802112	43	4502
2026-01-07 00:02:03.41	281.98	72.78	-35.9	-37.3	18.4	0.00e+00	0	56	0	1152385024	43	4206
2026-01-07 00:02:07.44	275.48	72.37	-35.5	-36.8	18.8	0.00e+00	0	56	0	1164967936	42	4218
2026-01-07 00:02:11.48	269.34	71.76	-35.7	-37.0	18.6	0.00e+00	0	56	0	1177550848	42	4323
2026-01-07 00:02:15.53	263.67	70.96	-36.2	-37.5	18.2	0.00e+00	0	56	0	1190133760	42	4595
2026-01-07 00:02:19.57	258.54	70.02	-35.3	-36.5	19.2	0.00e+00	0	57	0	1202716672	42	4080
2026-01-07 00:02:23.61	253.93	68.95	-36.0	-37.3	18.3	0.00e+00	0	57	0	1215299584	42	4476
2026-01-07 00:02:27.65	249.83	67.78	-35.8	-37.2	18.5	0.00e+00	0	57	0	1228931072	42	4395
2026-01-07 00:02:31.69	246.18	66.54	-35.4	-36.6	19.0	0.00e+00	0	56	0	1241513984	42	4132
2026-01-07 00:02:35.73	242.94	65.24	-37.1	-38.6	17.4	0.00e+00	0	57	0	1254096896	44	4607
2026-01-07 00:02:39.77	240.07	63.89	-35.8	-37.1	18.5	0.00e+00	0	57	0	1266679808	43	4132
2026-01-07 00:02:43.81	237.51	62.52	-36.9	-38.3	17.5	0.00e+00	0	57	0	1279262720	45	4242
2026-01-07 00:02:47.85	235.24	61.13	-36.6	-38.0	17.6	0.00e+00	0	57	0	1291845632	43	4574
2026-01-07 00:02:51.89	233.20	59.74	-37.0	-38.4	17.5	0.00e+00	0	57	0	1304428544	45	4290
2026-01-07 00:02:55.93	231.37	58.35	-36.9	-38.3	17.6	0.00e+00	0	57	0	1317011456	44	4466
2026-01-07 00:02:59.97	229.72	56.96	-36.9	-38.4	17.4	0.00e+00	0	57	0	1329594368	45	4246
2026-01-07 00:03:04.01	228.23	55.59	-36.9	-38.4	17.6	0.00e+00	0	57	0	1342177280	44	4510
2026-01-07 00:03:08.05	226.88	54.24	-39.4	-41.5	14.6	0.00e+00	0	57	0	1354760192	49	4830
2026-01-07 00:03:12.09	225.66	52.90	-38.4	-40.1	15.9	0.00e+00	0	57	0	1367343104	48	4370
2026-01-07 00:03:16.13	224.54	51.59	-38.4	-40.1	15.8	0.00e+00	0	57	0	1379926016	47	4638
2026-01-07 00:03:20.17	223.51	50.30	-39.1	-41.1	14.9	0.00e+00	0	57	0	1392508928	49	4625
2026-01-07 00:03:24.21	222.57	49.04	-38.7	-40.4	15.6	0.00e+00	0	57	0	1405091840	48	4542
2026-01-07 00:03:28.26	221.70	47.81	-39.8	-42.0	14.0	6.10e-06	0	57	0	1417674752	50	4869
2026-01-07 00:03:32.30	220.89	46.60	-39.8	-42.1	14.0	1.50e-06	0	57	0	1430257664	51	4608
2026-01-07 00:03:36.34	220.15	45.42	-38.1	-39.7	16.4	0.00e+00	0	57	0	1442840576	48	4164
2026-01-07 00:03:40.38	219.46	44.27	-40.7	-43.4	12.6	4.19e-05	0	57	0	1455423488	51	5350
2026-01-07 00:03:44.41	218.82	43.15	-39.6	-41.7	14.3	3.00e-06	0	57	0	1468006400	51	4434
2026-01-07 00:03:48.45	218.23	42.06	-39.4	-41.4	14.5	7.00e-07	0	57	0	1480589312	50	4526
2026-01-07 00:03:52.49	217.67	41.00	-37.9	-39.5	16.5	0.00e+00	0	57	0	1493172224	47	4296
2026-01-07 00:03:56.53	217.15	39.96	-39.3	-41.4	14.6	7.00e-07	0	57	0	1505755136	49	4772
2026-01-07 00:04:00.57	216.66	38.95	-39.8	-42.1	13.9	5.30e-06	0	57	0	1518338048	51	4607
2026-01-07 00:04:04.61	216.20	37.97	-39.2	-41.1	14.9	0.00e+00	0	57	0	1530920960	50	4383
2026-01-07 00:04:08.65	215.76	37.01	-38.3	-39.9	16.0	0.00e+00	0	57	0	1544552448	48	4291
2026-01-07 00:04:12.69	215.36	36.08	-37.8	-39.4	16.5	0.00e+00	0	57	0	1557135360	47	4251
2026-01-07 00:04:16.73	214.97	35.17	-37.8	-39.4	16.5	0.00e+00	0	57	0	1569718272	47	4261
2026-01-07 00:04:20.78	214.61	34.28	-37.6	-39.2	16.7	0.00e+00	0	57	0	1582301184	47	4174
2026-01-07 00:04:24.82	214.26	33.42	-38.1	-39.8	16.1	0.00e+00	0	57	0	1594884096	47	4457
2026-01-07 00:04:28.86	213.94	32.59	-37.4	-39.0	16.8	0.00e+00	0	57	0	1607467008	46	4319
2026-01-07 00:04:32.90	213.63	31.77	-37.2	-38.7	17.1	0.00e+00	0	57	0	1620049920	46	4185
2026-01-07 00:04:36.93	213.33	30.98	-37.5	-39.1	16.7	0.00e+00	0	57	0	1632632832	46	4371
2026-01-07 00:04:40.98	213.05	30.20	-38.1	-39.8	16.0	0.00e+00	0	57	0	1645215744	46	4745
2026-01-07 00:04:45.02	212.79	29.44	-37.7	-39.4	16.4	0.00e+00	0	57	0	1657798656	46	4517
2026-01-07 00:04:49.05	212.53	28.71	-37.1	-38.6	17.2	0.00e+00	0	57	0	1670381568	46	4122
2026-01-07 00:04:53.09	212.29	27.99	-36.5	-37.9	17.8	0.00e+00	0	57	0	1682964480	45	4023
2026-01-07 00:04:57.13	212.06	27.29	-36.2	-37.5	18.2	0.00e+00	0	57	0	1695547392	44	4070
2026-01-07 00:05:01.17	211.84	26.61	-36.1	-37.4	18.2	0.00e+00	0	57	0	1708130304	44	4046
2026-01-07 00:05:05.21	211.63	25.94	-36.7	-38.1	17.6	0.00e+00	0	57	0	1720713216	44	4362
2026-01-07 00:05:09.25	211.43	25.29	-36.9	-38.4	17.3	0.00e+00	0	56	0	1733296128	44	4523
2026-01-07 00:05:13.29	211.23	24.65	-37.2	-38.8	16.9	0.00e+00	0	57	0	1745879040	45	4459
2026-01-07 00:05:17.33	211.05	24.03	-37.2	-38.8	16.9	0.00e+00	0	57	0	1758461952	45	4475
2026-01-07 00:05:21.36	210.87	23.42	-37.2	-38.7	16.9	0.00e+00	0	57	0	1771044864	45	4426
2026-01-07 00:05:25.40	210.70	22.83	-37.2	-38.7	16.9	0.00e+00	0	57	0	1783627776	45	4432
2026-01-07 00:05:29.45	210.53	22.25	-37.0	-38.5	17.1	0.00e+00	0	57	0	1796210688	45	4334
2026-01-07 00:05:33.49	210.38	21.68	-36.9	-38.4	17.2	0.00e+00	0	57	0	1808793600	45	4276
2026-01-07 00:05:37.53	210.22	21.13	-36.9	-38.4	17.2	0.00e+00	0	57	0	1821376512	45	4266
2026-01-07 00:05:41.57	210.08	20.58	-36.9	-38.4	17.2	0.00e+00	0	57	0	1833959424	45	4277
2026-01-07 00:05:45.60	209.94	20.05	-36.8	-38.3	17.3	0.00e+00	0	57	0	1846542336	45	4203
2026-01-07 00:05:49.65	209.80	19.53	-36.8	-38.3	17.2	0.00e+00	0	57	0	1860173824	45	4220
2026-01-07 00:05:53.69	209.67	19.02	-37.0	-38.6	16.9	0.00e+00	0	57	0	1872756736	45	4344
2026-01-07 00:05:57.73	209.54	18.51	-37.2	-38.8	16.8	0.00e+00	0	57	0	1885339648	45	4443
2026-01-07 00:06:01.77	209.42	18.02	-37.3	-38.9	16.6	0.00e+00	0	57	0	1897922560	45	4521
2026-01-07 00:06:05.81	209.30	17.54	-37.4	-39.0	16.5	0.00e+00	0	57	0	1910505472	45	4574
2026-01-07 00:06:09.85	209.19	17.07	-37.5	-39.2	16.3	0.00e+00	0	57	0	1923088384	45	4699
2026-01-07 00:06:13.89	209.08	16.61	-37.7	-39.4	16.1	0.00e+00	0	57	0	1935671296	45	4775
2026-01-07 00:06:17.93	208.97	16.15	-37.7	-39.4	16.0	0.00e+00	0	57	0	1948254208	45	4799
2026-01-07 00:06:21.97	208.87	15.70	-37.6	-39.3	16.1	0.00e+00	0	57	0	1960837120	46	4480
2026-01-07 00:06:26.00	208.77	15.27	-37.9	-39.7	15.8	0.00e+00	0	57	0	1973420032	46	4653
2026-01-07 00:06:30.05	208.68	14.83	-37.7	-39.4	16.0	0.00e+00	0	57	0	1986002944	46	4521
2026-01-07 00:06:34.08	208.58	14.41	-37.8	-39.6	15.7	0.00e+00	0	57	0	1998585856	46	4639
2026-01-07 00:06:38.13	208.49	13.99	-37.9	-39.7	15.6	0.00e+00	0	57	0	2011168768	46	4697
2026-01-07 00:06:42.17	208.40	13.58	-38.0	-39.8	15.5	0.00e+00	0	57	0	2023751680	46	4727
2026-01-07 00:06:46.21	208.32	13.18	-37.9	-39.7	15.5	0.00e+00	0	57	0	2036334592	46	4700
2026-01-07 00:06:50.25	208.24	12.78	-38.0	-39.8	15.4	0.00e+00	0	57	0	2048917504	46	4752
2026-01-07 00:06:54.29	208.16	12.39	-38.1	-40.0	15.2	0.00e+00	0	57	0	2061500416	46	4839
2026-01-07 00:06:58.32	208.08	12.01	-38.3	-40.3	14.9	0.00e+00	0	57	0	2074083328	47	4750
2026-01-07 00:07:02.36	208.00	11.63	-38.3	-40.3	14.9	0.00e+00	0	57	0	2086666240	47	4725
2026-01-07 00:07:06.40	207.93	11.26	-38.4	-40.4	14.7	0.00e+00	0	57	0	2099249152	47	4801
2026-01-07 00:07:10.44	207.86	10.89	-38.2	-40.2	14.9	0.00e+00	0	57	0	2111832064	47	4671
2026-01-07 00:07:14.48	207.79	10.53	-38.2	-40.2	14.8	0.00e+00	0	57	0	2124414976	47	4682
2026-01-07 00:07:18.52	207.72	10.17	-38.4	-40.4	14.6	1.50e-06	0	57	0	2136997888	47	4811
2026-01-07 00:07:22.56	207.66	9.82	-38.4	-40.5	14.5	0.00e+00	0	57	0	2150629376	47	4822
2026-01-07 00:07:26.61	207.59	9.47	-38.3	-40.4	14.5	0.00e+00	0	57	0	2162163712	47	4782
2026-01-07 00:07:30.65	207.53	9.13	-38.3	-40.4	14.4	7.00e-07	0	57	0	2175795200	47	4812
2026-01-07 00:07:34.69	207.47	8.80	-38.3	-40.5	14.3	7.00e-07	0	57	0	2188378112	47	4830
2026-01-07 00:07:38.72	207.41	8.46	-38.5	-40.7	14.1	2.20e-06	0	57	0	2200961024	47	4957
2026-01-07 00:07:42.77	207.36	8.13	-38.4	-40.6	14.1	3.80e-06	0	57	0	2213543936	47	4919
2026-01-07 00:07:46.81	207.30	7.81	-44.6	-57.0	3.8	1.49e+00	0	57	104	2218786816	59	16180
2026-01-07 00:07:50.85	207.25	7.49	-45.0	-57.5	3.8	1.49e+00	0	57	104	2218786816	60	16289
2026-01-07 00:07:54.89	207.19	7.17	-45.0	-57.5	3.8	1.49e+00	0	57	104	2218786816	60	16311
2026-01-07 00:07:58.93	207.14	6.86	-44.9	-57.5	3.8	1.49e+00	0	57	104	2218786816	60	16247
2026-01-07 00:08:02.97	207.09	6.55	-44.9	-57.5	3.8	1.49e+00	0	57	104	2218786816	60	16197
2026-01-07 00:08:07.01	207.04	6.25	-44.9	-57.5	3.8	1.49e+00	0	57	104	2218786816	60	16177
2026-01-07 00:08:11.05	207.00	5.95	-44.9	-57.5	3.8	1.49e+00	0	57	104	2218786816	60	16138
2026-01-07 00:08:15.10	206.95	5.65	-44.9	-57.4	3.8	1.49e+00	0	57	104	2218786816	60	16094
2026-01-07 00:08:19.14	206.90	5.35	-44.9	-57.4	3.8	1.49e+00	0	57	104	2218786816	60	16119
2026-01-07 00:08:23.19	206.86	5.06	-44.9	-57.5	3.8	1.49e+00	0	57	104	2218786816	60	16142
2026-01-07 00:08:27.23	206.82	4.77	-44.9	-57.5	3.8	1.49e+00	0	57	104	2218786816	60	16137
2026-01-07 00:08:31.27	206.78	4.49	-44.9	-57.4	3.8	1.49e+00	0	57	104	2218786816	60	16112
2026-01-07 00:08:35.32	206.73	4.20	-44.9	-57.4	3.8	1.49e+00	0	57	104	2218786816	60	16118
2026-01-07 00:08:39.36	206.69	3.92	-44.8	-57.4	3.8	1.49e+00	0	57	104	2218786816	60	16055
2026-01-07 00:08:43.40	206.65	3.65	-44.8	-57.4	3.8	1.49e+00	0	57	104	2218786816	60	16054
2026-01-07 00:08:47.44	206.62	3.37	-44.8	-57.4	3.8	1.49e+00	0	57	104	2218786816	60	16091
2026-01-07 00:08:51.49	206.58	3.10	-44.8	-57.4	3.8	1.49e+00	0	57	104	2218786816	60	16056
2026-01-07 00:08:55.53	206.54	2.83	-44.8	-57.4	3.8	1.49e+00	0	57	104	2218786816	60	16041
2026-01-07 00:08:59.57	206.51	2.57	-44.8	-57.4	3.8	1.49e+00	0	57	104	2218786816	60	16071
2026-01-07 00:09:03.61	206.47	2.30	-44.8	-57.4	3.8	1.49e+00	0	57	104	2218786816	60	16104
2026-01-07 00:09:07.65	206.44	2.04	-44.8	-57.4	3.8	1.49e+00	0	57	104	2218786816	60	16044

#Closed at: 2026-01-07 00:09:11
#Recorded file [2218 MB]: D:/lorett/data/31039_260107_025446.dat