passes_logs/2026/01/06/R2.0S_Moscow/R2.0S_Moscow__20260106_032416_FENGYUN_3D_rec.log

#Pass ID: 20260106_032416_FENGYUN 3D
#Satellite: FENGYUN 3D
#Configuration: FENGYUN 3D
#almurnet v.1.7.20251203
#Start time: 2026-01-06 03:24:17

#Version: 2.2.20231116
#Station: R2.0S_Moscow
#Location: 37.707566 lon 55.798166 lat
#TLE: 1 43010U 17072A   26005.48915933 -.00000051  00000+0 -21983-5 0  9995
#TLE: 2 43010  98.9919 337.1582 0002001 124.6377 235.4988 14.19691925421909

#Time	Az	El	Level	Level2	SNR	BER	BlckErr	Temp	State	Recorded	gain1	gain2
2026-01-06 03:24:17.05	10.72	2.03	-39.8	-51.4	3.8	8.46e-01	0	51	0	0	51	13513
2026-01-06 03:24:20.07	10.52	2.20	-39.9	-51.4	3.8	8.46e-01	0	51	104	0	51	13506
2026-01-06 03:24:23.11	10.33	2.37	-39.8	-51.4	3.8	8.45e-01	0	51	104	0	51	13542
2026-01-06 03:24:26.14	10.13	2.55	-39.8	-51.4	3.8	8.46e-01	0	51	104	0	51	13487
2026-01-06 03:24:29.17	9.92	2.72	-39.8	-51.4	3.8	8.45e-01	0	51	104	0	51	13478
2026-01-06 03:24:32.20	9.72	2.89	-39.8	-51.4	3.8	8.46e-01	0	52	104	0	51	13472
2026-01-06 03:24:35.24	9.51	3.07	-39.8	-51.4	3.8	8.46e-01	0	52	104	0	51	13472
2026-01-06 03:24:38.27	9.30	3.25	-39.8	-51.4	3.8	8.46e-01	0	52	104	0	51	13528
2026-01-06 03:24:41.30	9.08	3.42	-39.8	-51.4	3.8	8.46e-01	0	52	104	0	51	13521
2026-01-06 03:24:44.34	8.87	3.60	-39.8	-51.4	3.8	8.46e-01	0	52	104	0	51	13543
2026-01-06 03:24:47.37	8.65	3.78	-39.8	-51.4	3.8	8.46e-01	0	53	104	0	51	13513
2026-01-06 03:24:50.40	8.43	3.96	-39.8	-51.4	3.8	8.46e-01	0	53	104	0	51	13508
2026-01-06 03:24:53.44	8.20	4.14	-39.8	-51.4	3.8	8.46e-01	0	53	104	0	51	13485
2026-01-06 03:24:56.47	7.98	4.32	-39.8	-51.4	3.8	8.46e-01	0	53	104	0	51	13462
2026-01-06 03:24:59.50	7.75	4.50	-39.8	-51.4	3.8	8.47e-01	0	53	104	0	51	13473
2026-01-06 03:25:02.53	7.51	4.68	-39.8	-51.4	3.8	8.46e-01	0	53	104	0	51	13496
2026-01-06 03:25:05.57	7.27	4.86	-39.8	-51.4	3.8	8.44e-01	0	53	104	0	51	13464
2026-01-06 03:25:08.60	7.04	5.04	-39.8	-51.4	3.8	8.46e-01	0	53	104	0	51	13478
2026-01-06 03:25:11.63	6.79	5.23	-39.8	-51.4	3.8	8.45e-01	0	54	104	0	51	13485
2026-01-06 03:25:14.67	6.55	5.41	-39.8	-51.4	3.8	8.46e-01	0	54	104	0	51	13458
2026-01-06 03:25:17.70	6.30	5.60	-39.8	-51.4	3.8	8.46e-01	0	54	104	0	51	13418
2026-01-06 03:25:20.73	6.04	5.79	-39.8	-51.4	3.8	8.45e-01	0	54	104	0	51	13461
2026-01-06 03:25:23.77	5.79	5.97	-39.8	-51.4	3.8	8.46e-01	0	54	104	0	51	13470
2026-01-06 03:25:26.80	5.53	6.16	-39.8	-51.4	3.8	8.46e-01	0	54	104	0	51	13451
2026-01-06 03:25:29.83	5.26	6.35	-39.8	-51.4	3.8	8.46e-01	0	54	104	0	51	13448
2026-01-06 03:25:32.86	5.00	6.54	-39.8	-51.4	3.8	8.47e-01	0	54	104	0	51	13459
2026-01-06 03:25:35.90	4.73	6.73	-39.8	-51.4	3.8	8.46e-01	0	54	104	0	51	13442
2026-01-06 03:25:38.93	4.45	6.92	-39.8	-51.4	3.8	8.46e-01	0	54	104	0	51	13440
2026-01-06 03:25:41.96	4.17	7.11	-39.8	-51.4	3.8	8.46e-01	0	54	104	0	51	13482
2026-01-06 03:25:45.00	3.89	7.31	-39.8	-51.4	3.8	8.46e-01	0	55	104	0	51	13450
2026-01-06 03:25:48.03	3.61	7.50	-39.8	-51.4	3.8	8.45e-01	0	55	104	0	51	13431
2026-01-06 03:25:51.06	3.32	7.69	-39.8	-51.3	3.8	8.45e-01	0	55	104	0	51	13413
2026-01-06 03:25:54.09	3.02	7.89	-39.8	-51.4	3.8	8.46e-01	0	55	104	0	51	13460
2026-01-06 03:25:57.13	2.72	8.08	-39.9	-51.5	3.8	8.47e-01	0	55	104	0	51	13714
2026-01-06 03:26:00.15	2.42	8.28	-39.9	-51.5	3.8	8.46e-01	0	55	104	0	51	13572
2026-01-06 03:26:03.18	2.12	8.48	-39.8	-51.5	3.8	8.46e-01	0	55	104	0	51	13637
2026-01-06 03:26:06.21	1.81	8.68	-39.7	-51.5	3.8	8.46e-01	0	55	104	0	51	13620
2026-01-06 03:26:09.24	1.49	8.87	-39.6	-51.4	3.8	8.46e-01	0	55	104	0	51	13536
2026-01-06 03:26:12.27	1.17	9.07	-39.7	-51.5	3.8	8.47e-01	0	55	104	0	51	13598
2026-01-06 03:26:15.30	0.85	9.27	-39.8	-51.4	3.8	8.46e-01	0	55	104	0	51	13552
2026-01-06 03:26:18.33	0.52	9.48	-39.8	-51.5	3.8	8.45e-01	0	55	104	0	51	13624
2026-01-06 03:26:21.36	0.19	9.68	-39.7	-51.5	3.8	8.44e-01	0	55	104	0	51	13592
2026-01-06 03:26:24.39	359.85	9.88	-39.7	-51.5	3.8	8.45e-01	0	55	104	0	51	13656
2026-01-06 03:26:27.42	359.51	10.08	-39.4	-51.4	3.8	8.46e-01	0	55	104	0	50	14364
2026-01-06 03:26:30.45	359.16	10.29	-39.5	-51.4	3.8	8.46e-01	0	56	104	0	50	14338
2026-01-06 03:26:33.48	358.81	10.49	-39.6	-51.4	3.8	8.47e-01	0	56	104	0	50	14277
2026-01-06 03:26:36.51	358.45	10.69	-39.7	-51.5	3.8	8.45e-01	0	56	104	0	50	14459
2026-01-06 03:26:39.54	358.08	10.90	-39.7	-51.5	3.8	8.47e-01	0	56	104	0	50	14518
2026-01-06 03:26:42.57	357.72	11.11	-39.8	-51.5	3.8	8.47e-01	0	56	104	0	50	14447
2026-01-06 03:26:45.60	357.34	11.31	-39.9	-51.4	3.8	8.46e-01	0	56	104	0	50	14337
2026-01-06 03:26:48.63	356.96	11.52	-39.8	-51.3	3.8	8.47e-01	0	56	104	0	50	14055
2026-01-06 03:26:51.66	356.58	11.73	-39.6	-49.0	3.9	8.46e-01	0	56	104	0	50	10798
2026-01-06 03:26:54.69	356.19	11.94	-39.4	-47.5	4.7	7.94e-01	0	56	0	0	50	9124
2026-01-06 03:26:57.72	355.79	12.14	-39.9	-49.5	4.0	8.43e-01	0	56	104	0	50	11508
2026-01-06 03:27:00.76	355.39	12.35	-40.1	-50.0	3.9	8.45e-01	0	56	104	0	50	12104
2026-01-06 03:27:03.79	354.98	12.56	-40.1	-51.1	3.8	8.47e-01	0	56	104	0	50	13762
2026-01-06 03:27:06.81	354.57	12.77	-40.1	-51.6	3.8	8.45e-01	0	56	104	0	50	14667
2026-01-06 03:27:09.84	354.14	12.98	-40.4	-51.9	3.8	8.47e-01	0	56	104	0	51	14344
2026-01-06 03:27:12.87	353.72	13.19	-39.8	-51.9	3.8	8.46e-01	0	56	104	0	51	14229
2026-01-06 03:27:15.91	353.28	13.40	-40.7	-52.3	3.8	8.46e-01	0	56	104	0	51	14975
2026-01-06 03:27:18.94	352.85	13.61	-39.8	-51.9	3.8	8.46e-01	0	56	104	0	51	14322
2026-01-06 03:27:21.97	352.40	13.82	-40.4	-52.0	3.8	8.46e-01	0	56	104	0	51	14536
2026-01-06 03:27:25.00	351.95	14.03	-40.6	-52.3	3.8	8.46e-01	0	56	104	0	51	14880
2026-01-06 03:27:28.03	351.49	14.25	-40.6	-52.3	3.8	8.46e-01	0	56	104	0	52	14063
2026-01-06 03:27:31.06	351.02	14.46	-40.7	-52.4	3.8	8.47e-01	0	56	104	0	52	14237
2026-01-06 03:27:34.09	350.55	14.67	-40.4	-52.3	3.8	8.46e-01	0	56	104	0	52	14208
2026-01-06 03:27:37.12	350.07	14.88	-40.6	-52.3	3.8	8.45e-01	0	56	104	0	52	14060
2026-01-06 03:27:40.15	349.59	15.09	-40.4	-52.4	3.8	8.47e-01	0	56	104	0	52	14213
2026-01-06 03:27:43.18	349.09	15.30	-40.5	-52.3	3.8	8.46e-01	0	56	104	0	52	14166
2026-01-06 03:27:46.21	348.59	15.51	-40.6	-52.4	3.8	8.46e-01	0	56	104	0	52	14370
2026-01-06 03:27:49.24	348.09	15.72	-41.5	-53.2	3.8	8.46e-01	0	57	104	0	53	14827
2026-01-06 03:27:52.27	347.57	15.92	-41.7	-53.4	3.8	8.46e-01	0	57	104	0	54	14248
2026-01-06 03:27:55.30	347.05	16.13	-41.5	-53.2	3.8	8.45e-01	0	57	104	0	54	13902
2026-01-06 03:27:58.33	346.52	16.34	-41.5	-53.3	3.8	8.46e-01	0	57	104	0	54	14171
2026-01-06 03:28:01.36	345.98	16.55	-40.9	-52.5	3.8	8.46e-01	0	56	104	0	53	13702
2026-01-06 03:28:04.39	345.44	16.75	-40.8	-52.5	3.8	8.47e-01	0	57	104	0	53	13604
2026-01-06 03:28:07.41	344.89	16.96	-40.7	-52.4	3.8	8.45e-01	0	57	104	0	53	13463
2026-01-06 03:28:10.44	344.33	17.16	-41.0	-52.6	3.8	8.45e-01	0	57	104	0	53	13826
2026-01-06 03:28:13.47	343.76	17.36	-40.3	-52.2	3.8	8.47e-01	0	57	104	0	52	14031
2026-01-06 03:28:16.50	343.19	17.56	-40.0	-52.3	3.8	8.45e-01	0	57	104	0	52	14122
2026-01-06 03:28:19.54	342.60	17.76	-40.2	-52.4	3.8	8.46e-01	0	57	104	0	51	15199
2026-01-06 03:28:22.57	342.01	17.96	-40.5	-52.3	3.8	8.45e-01	0	57	104	0	51	14954
2026-01-06 03:28:25.60	341.41	18.16	-40.3	-52.1	3.8	8.45e-01	0	57	104	0	51	14677
2026-01-06 03:28:28.64	340.80	18.35	-40.5	-52.1	3.8	8.45e-01	0	57	104	0	51	14619
2026-01-06 03:28:31.66	340.19	18.55	-40.5	-50.2	3.8	8.46e-01	0	57	104	0	52	11131
2026-01-06 03:28:34.69	339.57	18.74	-39.6	-43.7	8.7	6.07e-02	0	57	0	8388608	51	5532
2026-01-06 03:28:37.72	338.94	18.93	-36.2	-37.9	15.4	1.10e-06	0	57	0	26214400	44	4287
2026-01-06 03:28:40.75	338.30	19.11	-33.9	-35.1	18.6	0.00e+00	0	57	0	42991616	39	4139
2026-01-06 03:28:43.78	337.65	19.30	-34.7	-36.1	17.9	0.00e+00	0	57	0	59768832	40	4355
2026-01-06 03:28:46.81	337.00	19.48	-34.4	-35.6	18.7	0.00e+00	0	57	0	77594624	40	4140
2026-01-06 03:28:49.84	336.33	19.66	-34.5	-35.7	18.8	0.00e+00	0	57	0	94371840	40	4189
2026-01-06 03:28:52.87	335.66	19.84	-34.6	-35.8	18.9	0.00e+00	0	57	0	111149056	40	4227
2026-01-06 03:28:55.90	334.99	20.01	-34.2	-35.4	19.4	0.00e+00	0	57	0	127926272	40	4020
2026-01-06 03:28:58.93	334.30	20.18	-34.2	-35.4	19.4	0.00e+00	0	57	0	145752064	40	4044
2026-01-06 03:29:01.97	333.60	20.35	-34.3	-35.5	19.3	0.00e+00	0	57	0	162529280	40	4089
2026-01-06 03:29:05.00	332.90	20.51	-34.1	-35.3	19.5	0.00e+00	0	57	0	179306496	40	3986
2026-01-06 03:29:08.03	332.19	20.67	-34.0	-35.2	19.8	0.00e+00	0	57	0	196083712	39	4172
2026-01-06 03:29:11.06	331.48	20.83	-33.9	-35.1	19.9	0.00e+00	0	57	0	213909504	39	4118
2026-01-06 03:29:14.09	330.75	20.98	-33.9	-35.0	19.9	0.00e+00	0	57	0	230686720	39	4097
2026-01-06 03:29:17.12	330.02	21.13	-34.1	-35.3	19.8	0.00e+00	0	57	0	247463936	39	4194
2026-01-06 03:29:20.15	329.29	21.27	-33.7	-34.8	20.2	0.00e+00	0	57	0	264241152	39	3979
2026-01-06 03:29:23.18	328.54	21.42	-33.9	-35.1	19.9	0.00e+00	0	57	0	282066944	39	4101
2026-01-06 03:29:26.21	327.79	21.55	-33.8	-35.0	20.0	0.00e+00	0	57	0	298844160	39	4055
2026-01-06 03:29:29.24	327.03	21.68	-33.7	-34.8	20.2	0.00e+00	0	57	0	315621376	39	3985
2026-01-06 03:29:32.26	326.27	21.81	-33.6	-34.7	20.3	0.00e+00	0	57	0	332398592	39	3925
2026-01-06 03:29:35.30	325.50	21.93	-33.6	-34.7	20.3	0.00e+00	0	57	0	350224384	39	3929
2026-01-06 03:29:38.33	324.72	22.05	-33.8	-34.9	20.1	0.00e+00	0	57	0	367001600	39	4032
2026-01-06 03:29:41.36	323.94	22.16	-33.7	-34.9	20.1	0.00e+00	0	57	0	383778816	39	4014
2026-01-06 03:29:44.40	323.14	22.27	-33.6	-34.7	20.3	0.00e+00	0	57	0	400556032	39	3953
2026-01-06 03:29:47.42	322.35	22.37	-33.4	-34.5	20.5	0.00e+00	0	57	0	418381824	38	4089
2026-01-06 03:29:50.45	321.55	22.46	-33.5	-34.6	20.4	0.00e+00	0	57	0	435159040	38	4134
2026-01-06 03:29:53.48	320.75	22.55	-33.7	-34.9	20.1	0.00e+00	0	57	0	451936256	38	4257
2026-01-06 03:29:56.52	319.94	22.64	-33.8	-34.9	20.1	0.00e+00	0	57	0	468713472	38	4280
2026-01-06 03:29:59.55	319.13	22.72	-33.7	-34.8	20.2	0.00e+00	0	57	0	486539264	38	4218
2026-01-06 03:30:02.57	318.31	22.79	-33.5	-34.6	20.4	0.00e+00	0	57	0	503316480	38	4140
2026-01-06 03:30:05.60	317.49	22.85	-33.5	-34.6	20.4	0.00e+00	0	57	0	520093696	38	4112
2026-01-06 03:30:08.63	316.67	22.91	-33.1	-34.2	20.7	0.00e+00	0	57	0	536870912	38	3951
2026-01-06 03:30:11.66	315.84	22.97	-33.0	-34.1	20.9	0.00e+00	0	57	0	554696704	38	3880
2026-01-06 03:30:14.69	315.01	23.01	-33.3	-34.4	20.6	0.00e+00	0	57	0	571473920	38	4010
2026-01-06 03:30:17.72	314.18	23.06	-33.4	-34.5	20.4	0.00e+00	0	57	0	588251136	38	4082
2026-01-06 03:30:20.75	313.34	23.09	-33.2	-34.3	20.6	0.00e+00	0	57	0	606076928	38	4001
2026-01-06 03:30:23.78	312.51	23.12	-33.1	-34.2	20.8	0.00e+00	0	57	0	622854144	38	3941
2026-01-06 03:30:26.80	311.67	23.14	-33.3	-34.4	20.6	0.00e+00	0	57	0	639631360	38	4005
2026-01-06 03:30:29.83	310.83	23.15	-33.3	-34.4	20.6	0.00e+00	0	57	0	656408576	38	4007
2026-01-06 03:30:32.87	309.99	23.16	-33.3	-34.4	20.6	0.00e+00	0	57	0	673185792	38	4013
2026-01-06 03:30:35.90	309.15	23.16	-33.2	-34.3	20.7	0.00e+00	0	57	0	691011584	38	3961
2026-01-06 03:30:38.93	308.31	23.16	-33.2	-34.2	20.7	0.00e+00	0	57	0	707788800	38	3953
2026-01-06 03:30:41.96	307.47	23.15	-33.5	-34.6	20.4	0.00e+00	0	57	0	724566016	38	4114
2026-01-06 03:30:44.99	306.64	23.13	-33.4	-34.5	20.5	0.00e+00	0	57	0	741343232	38	4065
2026-01-06 03:30:48.02	305.80	23.11	-33.5	-34.7	20.3	0.00e+00	0	57	0	759169024	38	4146
2026-01-06 03:30:51.05	304.96	23.07	-33.4	-34.5	20.5	0.00e+00	0	57	0	775946240	38	4090
2026-01-06 03:30:54.08	304.13	23.04	-33.5	-34.6	20.4	0.00e+00	0	57	0	792723456	38	4111
2026-01-06 03:30:57.11	303.30	22.99	-33.2	-34.3	20.7	0.00e+00	0	57	0	810549248	38	3965
2026-01-06 03:31:00.14	302.47	22.94	-33.3	-34.4	20.6	0.00e+00	0	57	0	827326464	38	4013
2026-01-06 03:31:03.18	301.64	22.88	-33.2	-34.3	20.6	0.00e+00	0	57	0	844103680	38	3990
2026-01-06 03:31:06.21	300.81	22.82	-33.3	-34.4	20.5	0.00e+00	0	57	0	860880896	38	4042
2026-01-06 03:31:09.24	299.99	22.75	-33.2	-34.2	20.7	0.00e+00	0	57	0	877658112	38	3954
2026-01-06 03:31:12.27	299.18	22.68	-33.5	-34.6	20.3	0.00e+00	0	57	0	895483904	38	4140
2026-01-06 03:31:15.30	298.37	22.60	-33.1	-34.2	20.8	0.00e+00	0	57	0	912261120	38	3924
2026-01-06 03:31:18.33	297.56	22.51	-33.3	-34.4	20.6	0.00e+00	0	57	0	929038336	38	4030
2026-01-06 03:31:21.37	296.75	22.42	-33.3	-34.4	20.5	0.00e+00	0	57	0	946864128	38	4041
2026-01-06 03:31:24.40	295.95	22.32	-33.2	-34.3	20.6	0.00e+00	0	57	0	963641344	38	4000
2026-01-06 03:31:27.43	295.16	22.21	-33.2	-34.3	20.6	0.00e+00	0	57	0	980418560	38	3984
2026-01-06 03:31:30.47	294.37	22.10	-33.2	-34.3	20.6	0.00e+00	0	57	0	997195776	38	3998
2026-01-06 03:31:33.50	293.59	21.99	-33.5	-34.7	20.2	0.00e+00	0	57	0	1015021568	38	4177
2026-01-06 03:31:36.53	292.81	21.87	-33.4	-34.6	20.4	0.00e+00	0	57	0	1031798784	38	4112
2026-01-06 03:31:39.56	292.04	21.75	-33.4	-34.5	20.5	0.00e+00	0	57	0	1048576000	38	4059
2026-01-06 03:31:42.59	291.28	21.62	-33.6	-34.8	20.2	0.00e+00	0	57	0	1065353216	38	4195
2026-01-06 03:31:45.62	290.52	21.48	-33.5	-34.6	20.3	0.00e+00	0	57	0	1083179008	38	4142
2026-01-06 03:31:48.65	289.77	21.34	-33.4	-34.5	20.4	0.00e+00	0	57	0	1099956224	38	4092
2026-01-06 03:31:51.69	289.02	21.20	-33.5	-34.7	20.3	0.00e+00	0	57	0	1116733440	38	4149
2026-01-06 03:31:54.72	288.29	21.05	-33.6	-34.7	20.2	0.00e+00	0	57	0	1134559232	38	4170
2026-01-06 03:31:57.75	287.56	20.90	-33.6	-34.7	20.2	0.00e+00	0	57	0	1151336448	38	4190
2026-01-06 03:32:00.78	286.84	20.75	-33.8	-35.0	20.0	0.00e+00	0	57	0	1168113664	38	4292
2026-01-06 03:32:03.82	286.12	20.59	-33.9	-35.0	19.9	0.00e+00	0	57	0	1184890880	38	4332
2026-01-06 03:32:06.85	285.41	20.42	-33.7	-34.9	20.0	0.00e+00	0	57	0	1202716672	38	4254
2026-01-06 03:32:09.88	284.71	20.26	-33.8	-34.9	20.0	0.00e+00	0	57	0	1219493888	38	4264
2026-01-06 03:32:12.91	284.02	20.09	-33.7	-34.9	20.0	0.00e+00	0	57	0	1236271104	38	4253
2026-01-06 03:32:15.94	283.33	19.91	-33.9	-35.0	19.9	0.00e+00	0	57	0	1253048320	38	4322
2026-01-06 03:32:18.97	282.66	19.74	-33.9	-35.0	19.9	0.00e+00	0	57	0	1270874112	38	4318
2026-01-06 03:32:22.00	281.99	19.56	-34.1	-35.3	19.6	0.00e+00	0	57	0	1287651328	38	4450
2026-01-06 03:32:25.04	281.32	19.38	-34.1	-35.2	19.6	0.00e+00	0	57	0	1304428544	39	4187
2026-01-06 03:32:28.07	280.67	19.19	-34.1	-35.3	19.6	0.00e+00	0	57	0	1321205760	39	4225
2026-01-06 03:32:31.09	280.03	19.01	-34.3	-35.5	19.4	0.00e+00	0	57	0	1339031552	39	4298
2026-01-06 03:32:34.13	279.39	18.82	-34.2	-35.3	19.5	0.00e+00	0	57	0	1355808768	39	4233
2026-01-06 03:32:37.16	278.76	18.63	-34.2	-35.4	19.5	0.00e+00	0	58	0	1372585984	39	4267
2026-01-06 03:32:40.19	278.14	18.44	-34.4	-35.6	19.3	0.00e+00	0	57	0	1389363200	39	4349
2026-01-06 03:32:43.22	277.52	18.24	-34.4	-35.6	19.3	0.00e+00	0	57	0	1407188992	39	4353
2026-01-06 03:32:46.25	276.92	18.04	-34.5	-35.7	19.2	0.00e+00	0	57	0	1423966208	39	4401
2026-01-06 03:32:49.28	276.32	17.85	-34.8	-36.1	18.7	0.00e+00	0	57	0	1440743424	40	4350
2026-01-06 03:32:52.30	275.73	17.65	-34.5	-35.7	19.0	0.00e+00	0	57	0	1458569216	40	4187
2026-01-06 03:32:55.33	275.15	17.45	-34.6	-35.8	18.9	0.00e+00	0	57	0	1475346432	40	4230
2026-01-06 03:32:58.37	274.57	17.24	-34.5	-35.8	19.0	0.00e+00	0	57	0	1492123648	40	4200
2026-01-06 03:33:01.40	274.01	17.04	-34.3	-35.5	19.2	0.00e+00	0	57	0	1508900864	40	4091
2026-01-06 03:33:04.43	273.45	16.83	-34.4	-35.7	19.0	0.00e+00	0	57	0	1525678080	40	4166
2026-01-06 03:33:07.46	272.90	16.63	-34.4	-35.7	19.0	0.00e+00	0	57	0	1543503872	40	4168
2026-01-06 03:33:10.50	272.35	16.42	-34.5	-35.8	18.9	0.00e+00	0	57	0	1560281088	40	4215
2026-01-06 03:33:13.52	271.82	16.21	-34.8	-36.1	18.6	0.00e+00	0	57	0	1577058304	40	4380
2026-01-06 03:33:16.56	271.28	16.00	-35.0	-36.3	18.4	0.00e+00	0	57	0	1594884096	40	4464
2026-01-06 03:33:19.59	270.76	15.80	-34.7	-36.0	18.7	0.00e+00	0	57	0	1611661312	40	4311
2026-01-06 03:33:22.62	270.25	15.59	-34.7	-36.0	18.7	0.00e+00	0	57	0	1628438528	40	4315
2026-01-06 03:33:25.65	269.74	15.38	-34.6	-35.9	18.8	0.00e+00	0	57	0	1645215744	40	4253
2026-01-06 03:33:28.68	269.24	15.16	-34.8	-36.0	18.6	0.00e+00	0	57	0	1663041536	40	4338
2026-01-06 03:33:31.72	268.75	14.95	-34.8	-36.1	18.5	0.00e+00	0	58	0	1679818752	40	4377
2026-01-06 03:33:34.75	268.26	14.74	-34.9	-36.2	18.4	0.00e+00	0	57	0	1696595968	40	4440
2026-01-06 03:33:37.78	267.78	14.53	-35.2	-36.5	18.1	0.00e+00	0	57	0	1713373184	40	4586
2026-01-06 03:33:40.81	267.31	14.32	-35.3	-36.6	18.0	0.00e+00	0	58	0	1731198976	41	4369
2026-01-06 03:33:43.83	266.85	14.11	-35.4	-36.8	17.9	0.00e+00	0	57	0	1747976192	41	4447
2026-01-06 03:33:46.86	266.39	13.90	-35.3	-36.7	17.9	0.00e+00	0	57	0	1764753408	41	4417
2026-01-06 03:33:49.89	265.94	13.68	-35.4	-36.7	17.9	0.00e+00	0	57	0	1781530624	41	4419
2026-01-06 03:33:52.92	265.49	13.47	-35.3	-36.6	18.0	0.00e+00	0	58	0	1799356416	41	4386
2026-01-06 03:33:55.95	265.05	13.26	-35.4	-36.8	17.8	0.00e+00	0	57	0	1816133632	41	4449
2026-01-06 03:33:58.98	264.62	13.05	-35.3	-36.7	17.8	0.00e+00	0	57	0	1832910848	41	4425
2026-01-06 03:34:02.00	264.20	12.84	-35.5	-36.9	17.7	0.00e+00	0	58	0	1849688064	41	4498
2026-01-06 03:34:05.03	263.78	12.63	-35.5	-36.8	17.7	0.00e+00	0	58	0	1867513856	41	4492
2026-01-06 03:34:08.06	263.36	12.42	-35.4	-36.8	17.8	0.00e+00	0	58	0	1884291072	41	4450
2026-01-06 03:34:11.09	262.95	12.21	-35.8	-37.2	17.3	0.00e+00	0	57	0	1901068288	42	4425
2026-01-06 03:34:14.12	262.55	12.00	-35.8	-37.3	17.2	0.00e+00	0	57	0	1917845504	42	4456
2026-01-06 03:34:17.15	262.16	11.79	-36.1	-37.5	16.9	0.00e+00	0	57	0	1935671296	42	4592
2026-01-06 03:34:20.18	261.76	11.58	-36.1	-37.6	16.9	0.00e+00	0	57	0	1952448512	42	4628
2026-01-06 03:34:23.21	261.38	11.37	-36.0	-37.5	17.0	0.00e+00	0	57	0	1969225728	42	4575
2026-01-06 03:34:26.24	261.00	11.17	-36.0	-37.5	17.0	0.00e+00	0	57	0	1986002944	42	4547
2026-01-06 03:34:29.27	260.62	10.96	-36.1	-37.5	16.9	0.00e+00	0	57	0	2003828736	42	4596
2026-01-06 03:34:32.30	260.26	10.75	-36.1	-37.5	16.9	0.00e+00	0	58	0	2020605952	43	4335
2026-01-06 03:34:35.34	259.89	10.55	-36.2	-37.8	16.6	0.00e+00	0	58	0	2037383168	43	4456
2026-01-06 03:34:38.37	259.53	10.34	-36.3	-37.9	16.5	0.00e+00	0	58	0	2054160384	43	4498
2026-01-06 03:34:41.40	259.18	10.14	-36.2	-37.7	16.6	0.00e+00	0	57	0	2071986176	43	4440
2026-01-06 03:34:44.43	258.83	9.93	-36.4	-38.0	16.4	0.00e+00	0	58	0	2088763392	43	4561
2026-01-06 03:34:47.46	258.49	9.73	-36.5	-38.1	16.3	0.00e+00	0	57	0	2105540608	43	4622
2026-01-06 03:34:50.49	258.15	9.53	-36.7	-38.4	16.0	0.00e+00	0	57	0	2122317824	43	4762
2026-01-06 03:34:53.52	257.81	9.32	-36.7	-38.3	16.2	0.00e+00	0	57	0	2140143616	44	4452
2026-01-06 03:34:56.55	257.48	9.12	-36.9	-38.5	16.0	0.00e+00	0	57	0	2156920832	44	4579
2026-01-06 03:34:59.58	257.16	8.92	-36.8	-38.5	16.0	0.00e+00	0	58	0	2173698048	44	4565
2026-01-06 03:35:02.60	256.84	8.72	-37.0	-38.7	15.7	0.00e+00	0	58	0	2191523840	44	4704
2026-01-06 03:35:05.63	256.52	8.52	-37.1	-38.8	15.6	0.00e+00	0	58	0	2208301056	44	4747
2026-01-06 03:35:08.66	256.21	8.33	-37.1	-38.8	15.6	0.00e+00	0	57	0	2225078272	44	4742
2026-01-06 03:35:11.69	255.91	8.13	-37.0	-38.7	15.7	0.00e+00	0	58	0	2241855488	44	4681
2026-01-06 03:35:14.72	255.60	7.93	-44.6	-56.1	3.8	8.46e-01	0	58	104	2252341248	59	14629
2026-01-06 03:35:17.75	255.30	7.74	-45.0	-56.8	3.8	8.47e-01	0	58	104	2252341248	60	14916
2026-01-06 03:35:20.79	255.01	7.54	-45.2	-57.0	3.8	8.46e-01	0	57	104	2252341248	60	15228
2026-01-06 03:35:23.82	254.72	7.35	-45.2	-57.0	3.8	8.47e-01	0	58	104	2252341248	60	15329
2026-01-06 03:35:26.85	254.43	7.15	-45.1	-56.9	3.8	8.47e-01	0	58	104	2252341248	60	15200
2026-01-06 03:35:29.88	254.15	6.96	-45.1	-57.0	3.8	8.46e-01	0	58	104	2252341248	60	15229
2026-01-06 03:35:32.91	253.87	6.77	-45.1	-56.9	3.8	8.47e-01	0	57	104	2252341248	60	15197
2026-01-06 03:35:35.94	253.59	6.58	-45.1	-56.9	3.8	8.47e-01	0	58	104	2252341248	60	15169
2026-01-06 03:35:38.97	253.32	6.39	-45.1	-56.9	3.8	8.46e-01	0	58	104	2252341248	60	15136
2026-01-06 03:35:42.01	253.05	6.19	-45.0	-56.9	3.8	8.46e-01	0	58	104	2252341248	60	15155
2026-01-06 03:35:45.04	252.79	6.01	-45.1	-56.9	3.8	8.46e-01	0	58	104	2252341248	60	15132
2026-01-06 03:35:48.07	252.53	5.82	-45.1	-56.9	3.8	8.46e-01	0	58	104	2252341248	60	15154
2026-01-06 03:35:51.11	252.27	5.63	-45.0	-56.9	3.8	8.47e-01	0	58	104	2252341248	60	15146
2026-01-06 03:35:54.14	252.01	5.44	-45.0	-56.9	3.8	8.47e-01	0	58	104	2252341248	60	15100
2026-01-06 03:35:57.17	251.76	5.26	-45.0	-56.9	3.8	8.47e-01	0	58	104	2252341248	60	15157
2026-01-06 03:36:00.21	251.51	5.07	-45.0	-56.9	3.8	8.46e-01	0	58	104	2252341248	60	15191
2026-01-06 03:36:03.24	251.27	4.89	-45.0	-56.9	3.8	8.46e-01	0	58	104	2252341248	60	15109
2026-01-06 03:36:06.27	251.03	4.71	-45.0	-56.9	3.8	8.46e-01	0	58	104	2252341248	60	15113
2026-01-06 03:36:09.30	250.79	4.52	-45.0	-56.9	3.8	8.46e-01	0	58	104	2252341248	60	15126
2026-01-06 03:36:12.34	250.55	4.34	-45.0	-56.9	3.8	8.46e-01	0	58	104	2252341248	60	15079
2026-01-06 03:36:15.37	250.32	4.16	-45.0	-56.8	3.8	8.46e-01	0	58	104	2252341248	60	15041
2026-01-06 03:36:18.40	250.09	3.98	-45.0	-56.9	3.8	8.46e-01	0	58	104	2252341248	60	15071
2026-01-06 03:36:21.44	249.87	3.80	-45.0	-56.9	3.8	8.46e-01	0	58	104	2252341248	60	15109
2026-01-06 03:36:24.47	249.64	3.62	-45.0	-56.9	3.8	8.46e-01	0	58	104	2252341248	60	15052
2026-01-06 03:36:27.50	249.42	3.44	-45.0	-56.8	3.8	8.46e-01	0	57	104	2252341248	60	15035
2026-01-06 03:36:30.54	249.20	3.27	-45.0	-56.9	3.8	8.46e-01	0	58	104	2252341248	60	15116
2026-01-06 03:36:33.56	248.99	3.09	-45.0	-56.9	3.8	8.48e-01	0	58	104	2252341248	60	15059
2026-01-06 03:36:36.59	248.78	2.91	-45.0	-56.8	3.8	8.46e-01	0	58	104	2252341248	60	15016
2026-01-06 03:36:39.62	248.57	2.74	-45.0	-56.9	3.8	8.46e-01	0	58	104	2252341248	60	15071
2026-01-06 03:36:42.66	248.36	2.56	-45.0	-56.8	3.8	8.46e-01	0	58	104	2252341248	60	15039
2026-01-06 03:36:45.69	248.15	2.39	-45.0	-56.8	3.8	8.47e-01	0	58	104	2252341248	60	15013
2026-01-06 03:36:48.72	247.95	2.22	-45.0	-56.9	3.8	8.46e-01	0	58	104	2252341248	60	15057
2026-01-06 03:36:51.75	247.75	2.05	-45.0	-56.8	3.8	8.46e-01	0	58	104	2252341248	60	14988

#Closed at: 2026-01-06 03:36:54
#Recorded file [2252 MB]: D:/lorett/data/31039_260106_062416.dat