passes_logs/2026/01/06/R2.0S_Moscow/R2.0S_Moscow__20260106_091426_NOAA_20_JPSS-1_rec.log

#Pass ID: 20260106_091426_NOAA 20 (JPSS-1)
#Satellite: NOAA 20 (JPSS-1)
#Configuration: NOAA 20
#almurnet v.1.7.20251203
#Start time: 2026-01-06 09:14:28

#Version: 2.2.20231116
#Station: R2.0S_Moscow
#Location: 37.707566 lon 55.798166 lat
#TLE: 1 43013U 17073A   26005.46207808  .00000128  00000+0  81791-4 0  9997
#TLE: 2 43013  98.7627 306.5027 0001826  53.0458 307.0885 14.19533487421381

#Time	Az	El	Level	Level2	SNR	BER	BlckErr	Temp	State	Recorded	gain1	gain2
2026-01-06 09:14:28.49	140.79	2.15	-41.7	-56.4	3.6	1.49e+00	0	47	0	0	53	21373
2026-01-06 09:14:32.52	140.68	2.41	-42.1	-56.6	3.8	1.49e+00	0	48	104	0	54	20588
2026-01-06 09:14:36.57	140.56	2.67	-42.1	-56.6	3.9	1.49e+00	0	48	104	0	54	20592
2026-01-06 09:14:40.61	140.45	2.93	-42.0	-56.5	3.8	1.49e+00	0	48	104	0	54	20501
2026-01-06 09:14:44.65	140.33	3.19	-42.0	-56.8	3.8	1.49e+00	0	49	104	0	54	21020
2026-01-06 09:14:48.70	140.20	3.46	-42.1	-56.5	3.8	1.49e+00	0	49	104	0	54	20442
2026-01-06 09:14:52.74	140.08	3.73	-41.7	-56.9	3.9	1.49e+00	0	49	104	0	53	22607
2026-01-06 09:14:56.78	139.95	4.00	-40.3	-56.7	3.8	1.49e+00	0	49	104	0	52	23517
2026-01-06 09:15:00.82	139.83	4.28	-42.0	-56.4	4.0	1.49e+00	0	50	104	0	54	20269
2026-01-06 09:15:04.86	139.69	4.55	-41.9	-56.4	3.8	1.49e+00	0	50	104	0	54	20241
2026-01-06 09:15:08.90	139.56	4.83	-41.7	-56.4	3.8	1.49e+00	0	50	104	0	54	20231
2026-01-06 09:15:12.95	139.42	5.12	-41.7	-56.4	3.8	1.49e+00	0	50	104	0	54	20123
2026-01-06 09:15:16.99	139.28	5.40	-42.1	-56.4	3.8	1.49e+00	0	50	104	0	54	20223
2026-01-06 09:15:21.03	139.14	5.69	-42.1	-56.4	3.8	1.49e+00	0	51	104	0	54	20265
2026-01-06 09:15:25.07	138.99	5.98	-42.0	-56.5	3.8	1.49e+00	0	51	104	0	54	20310
2026-01-06 09:15:29.11	138.84	6.28	-40.9	-56.3	3.8	1.49e+00	0	51	104	0	54	20039
2026-01-06 09:15:33.15	138.69	6.57	-41.5	-56.4	3.8	1.49e+00	0	51	104	0	54	20236
2026-01-06 09:15:37.19	138.53	6.88	-42.1	-56.5	3.8	1.49e+00	0	51	104	0	54	20378
2026-01-06 09:15:41.24	138.37	7.18	-42.0	-56.5	3.8	1.49e+00	0	52	104	0	54	20422
2026-01-06 09:15:45.28	138.21	7.49	-42.0	-56.5	3.8	1.49e+00	0	52	104	0	54	20353
2026-01-06 09:15:49.32	138.05	7.80	-42.0	-56.5	3.8	1.49e+00	0	52	104	0	54	20422
2026-01-06 09:15:53.37	137.87	8.11	-41.7	-56.3	3.8	1.49e+00	0	52	104	0	54	19844
2026-01-06 09:15:57.40	137.70	8.43	-34.8	-53.0	4.1	1.49e+00	0	52	104	0	44	24232
2026-01-06 09:16:01.44	137.52	8.76	-41.6	-56.3	3.6	1.49e+00	0	52	104	0	54	20034
2026-01-06 09:16:05.48	137.34	9.08	-40.8	-55.1	3.9	1.49e+00	0	52	104	0	48	24431
2026-01-06 09:16:09.52	137.15	9.41	-40.1	-55.9	4.1	1.50e+00	0	52	104	0	51	22589
2026-01-06 09:16:13.56	136.96	9.75	-42.1	-57.0	3.7	1.49e+00	0	53	104	0	54	21724
2026-01-06 09:16:17.60	136.76	10.09	-41.8	-56.0	3.8	1.49e+00	0	53	104	0	54	19349
2026-01-06 09:16:21.65	136.56	10.43	-41.2	-48.8	6.3	9.61e-01	0	53	0	2097152	52	9423
2026-01-06 09:16:25.69	136.36	10.78	-39.1	-42.7	13.6	1.78e-02	0	53	0	8388608	49	5546
2026-01-06 09:16:29.73	136.14	11.13	-40.0	-43.5	12.9	1.06e-02	0	53	0	16777216	50	5777
2026-01-06 09:16:33.77	135.93	11.49	-39.7	-43.0	13.6	8.81e-03	0	53	0	24117248	50	5403
2026-01-06 09:16:37.81	135.70	11.85	-38.8	-42.8	13.1	3.63e-02	0	53	0	31457280	48	5969
2026-01-06 09:16:41.84	135.48	12.21	-39.5	-43.0	13.3	1.70e-02	0	53	0	38797312	49	5733
2026-01-06 09:16:45.88	135.24	12.59	-30.1	-42.0	8.4	9.54e-02	19	54	0	46137344	39	9090
2026-01-06 09:16:49.92	135.00	12.96	-38.0	-42.6	12.6	8.69e-02	0	54	0	54525952	48	5855
2026-01-06 09:16:53.96	134.75	13.35	-35.9	-42.2	13.2	3.13e-02	0	54	0	61865984	48	5561
2026-01-06 09:16:58.00	134.50	13.73	-39.0	-42.6	8.5	2.94e-01	14	54	0	68157440	46	6566
2026-01-06 09:17:02.04	134.24	14.13	-39.3	-42.7	13.9	7.36e-02	0	54	0	75497472	49	5554
2026-01-06 09:17:06.08	133.97	14.53	-39.5	-42.6	13.9	1.19e-02	0	54	0	82837504	49	5510
2026-01-06 09:17:10.12	133.69	14.93	-39.2	-42.4	8.1	8.62e-03	9	54	0	91226112	36	11330
2026-01-06 09:17:14.16	133.41	15.35	-36.0	-42.3	10.3	1.69e-02	0	54	0	97517568	45	6707
2026-01-06 09:17:18.20	133.12	15.76	-39.4	-42.1	14.9	1.42e-03	0	54	0	105906176	49	5208
2026-01-06 09:17:22.23	132.82	16.19	-39.6	-42.5	15.0	9.39e-03	0	54	0	113246208	50	5120
2026-01-06 09:17:26.27	132.51	16.62	-39.4	-42.0	15.5	2.25e-03	0	54	0	120586240	49	5159
2026-01-06 09:17:30.31	132.19	17.06	-39.7	-42.2	15.7	7.93e-03	0	54	0	127926272	50	4934
2026-01-06 09:17:34.36	131.86	17.50	-39.9	-42.4	15.4	1.22e-03	0	54	0	136314880	50	5096
2026-01-06 09:17:38.39	131.52	17.95	-39.8	-42.2	15.7	9.29e-04	0	54	0	143654912	50	4954
2026-01-06 09:17:42.43	131.17	18.41	-40.0	-42.6	15.4	8.12e-03	0	55	0	150994944	50	5174
2026-01-06 09:17:46.47	130.81	18.88	-40.0	-42.5	15.5	1.66e-03	0	54	0	158334976	50	5150
2026-01-06 09:17:50.51	130.44	19.36	-40.3	-42.9	15.2	1.77e-04	0	55	0	165675008	51	5069
2026-01-06 09:17:54.55	130.05	19.84	-40.3	-42.9	15.1	9.10e-06	0	55	0	174063616	51	5098
2026-01-06 09:17:58.59	129.65	20.33	-40.5	-43.3	14.8	0.00e+00	0	55	0	181403648	51	5300
2026-01-06 09:18:02.63	129.24	20.83	-40.6	-43.3	14.8	0.00e+00	0	55	0	188743680	51	5332
2026-01-06 09:18:06.66	128.82	21.34	-40.6	-43.4	14.8	0.00e+00	0	55	0	196083712	51	5360
2026-01-06 09:18:10.70	128.38	21.85	-40.5	-43.2	14.9	0.00e+00	0	55	0	204472320	51	5267
2026-01-06 09:18:14.74	127.93	22.38	-40.6	-43.4	14.6	0.00e+00	0	55	0	211812352	52	5092
2026-01-06 09:18:18.78	127.46	22.91	-40.4	-43.1	15.0	0.00e+00	0	55	0	219152384	52	4893
2026-01-06 09:18:22.82	126.97	23.46	-40.5	-43.3	14.8	0.00e+00	0	55	0	226492416	52	4997
2026-01-06 09:18:26.86	126.46	24.01	-40.5	-43.2	14.9	7.00e-07	0	55	0	233832448	52	4979
2026-01-06 09:18:30.90	125.94	24.57	-40.6	-43.4	14.7	0.00e+00	0	55	0	242221056	52	5060
2026-01-06 09:18:34.93	125.40	25.14	-40.5	-43.2	14.9	0.00e+00	0	55	0	249561088	52	4973
2026-01-06 09:18:38.98	124.83	25.72	-40.7	-43.5	14.7	1.50e-06	0	55	0	256901120	52	5117
2026-01-06 09:18:43.02	124.25	26.31	-40.7	-43.4	14.7	0.00e+00	0	55	0	264241152	52	5090
2026-01-06 09:18:47.05	123.64	26.91	-40.7	-43.5	14.7	2.20e-06	0	55	0	272629760	52	5153
2026-01-06 09:18:51.09	123.01	27.52	-40.6	-43.3	14.9	0.00e+00	0	55	0	279969792	52	5024
2026-01-06 09:18:55.13	122.35	28.14	-40.7	-43.5	14.8	0.00e+00	0	55	0	287309824	52	5102
2026-01-06 09:18:59.17	121.67	28.77	-40.8	-43.6	14.6	0.00e+00	0	55	0	294649856	52	5178
2026-01-06 09:19:03.21	120.96	29.41	-40.8	-43.6	14.6	0.00e+00	0	55	0	301989888	52	5180
2026-01-06 09:19:07.25	120.21	30.06	-40.9	-43.7	14.6	0.00e+00	0	55	0	310378496	52	5250
2026-01-06 09:19:11.28	119.45	30.71	-41.3	-44.5	13.7	5.30e-06	0	55	0	317718528	53	5417
2026-01-06 09:19:15.32	118.64	31.38	-41.8	-45.2	13.0	5.03e-05	0	55	0	325058560	54	5583
2026-01-06 09:19:19.37	117.80	32.06	-42.0	-45.7	12.5	1.07e-04	0	55	0	332398592	54	5900
2026-01-06 09:19:23.41	116.93	32.74	-41.8	-45.3	12.9	5.18e-05	0	56	0	340787200	54	5642
2026-01-06 09:19:27.44	116.02	33.43	-41.7	-45.1	13.2	3.35e-05	0	55	0	348127232	54	5468
2026-01-06 09:19:31.48	115.06	34.13	-41.9	-45.5	12.7	5.49e-05	0	55	0	355467264	54	5771
2026-01-06 09:19:35.52	114.07	34.83	-41.6	-44.8	13.4	1.44e-05	0	55	0	362807296	54	5334
2026-01-06 09:19:39.56	113.03	35.54	-41.6	-45.0	13.4	2.51e-05	0	56	0	370147328	54	5412
2026-01-06 09:19:43.59	111.95	36.26	-41.4	-44.6	13.7	6.10e-06	0	55	0	378535936	54	5211
2026-01-06 09:19:47.63	110.81	36.97	-41.4	-44.5	13.8	5.30e-06	0	55	0	385875968	54	5137
2026-01-06 09:19:51.67	109.62	37.69	-41.2	-44.2	14.1	2.20e-06	0	55	0	393216000	54	4955
2026-01-06 09:19:55.71	108.38	38.42	-40.9	-43.8	14.6	0.00e+00	0	56	0	400556032	53	4988
2026-01-06 09:19:59.75	107.09	39.14	-41.2	-44.2	14.1	3.80e-06	0	55	0	408944640	53	5252
2026-01-06 09:20:03.79	105.73	39.85	-41.6	-45.0	13.4	1.67e-05	0	55	0	416284672	53	5727
2026-01-06 09:20:07.82	104.32	40.57	-41.5	-44.8	13.6	9.90e-06	0	55	0	423624704	53	5595
2026-01-06 09:20:11.86	102.84	41.27	-41.8	-45.3	13.0	2.44e-05	0	56	0	430964736	54	5634
2026-01-06 09:20:15.90	101.29	41.97	-41.8	-45.3	13.1	3.35e-05	0	56	0	438304768	54	5605
2026-01-06 09:20:19.94	99.67	42.66	-41.7	-45.0	13.4	1.22e-05	0	55	0	446693376	54	5405
2026-01-06 09:20:23.98	97.99	43.33	-40.8	-43.6	14.8	7.00e-07	0	55	0	454033408	53	4899
2026-01-06 09:20:28.01	96.24	43.98	-40.1	-42.4	16.0	0.00e+00	0	56	0	461373440	52	4538
2026-01-06 09:20:32.05	94.41	44.61	-40.4	-42.9	15.5	0.00e+00	0	56	0	468713472	52	4801
2026-01-06 09:20:36.09	92.51	45.22	-40.4	-42.9	15.5	0.00e+00	0	55	0	476053504	52	4767
2026-01-06 09:20:40.13	90.53	45.80	-40.3	-42.7	15.8	0.00e+00	0	56	0	484442112	51	4933
2026-01-06 09:20:44.16	88.49	46.35	-41.4	-44.5	13.9	7.00e-07	0	56	0	491782144	53	5459
2026-01-06 09:20:48.20	86.38	46.87	-41.6	-44.8	13.6	6.80e-06	0	56	0	499122176	53	5624
2026-01-06 09:20:52.24	84.19	47.34	-42.2	-45.9	12.5	9.91e-05	0	56	0	506462208	55	5658
2026-01-06 09:20:56.27	81.95	47.78	-42.4	-46.4	11.9	2.18e-04	0	56	0	514850816	55	5995
2026-01-06 09:21:00.31	79.64	48.17	-43.0	-47.3	11.2	1.02e-03	0	56	0	522190848	56	6336
2026-01-06 09:21:04.35	77.27	48.51	-42.5	-46.3	12.2	2.64e-04	0	56	0	529530880	56	5655
2026-01-06 09:21:08.39	74.86	48.79	-42.5	-46.2	12.4	1.25e-04	0	56	0	536870912	56	5565
2026-01-06 09:21:12.43	72.40	49.03	-42.1	-45.5	13.1	2.44e-05	0	56	0	544210944	56	5146
2026-01-06 09:21:16.47	69.91	49.21	-41.5	-44.5	14.0	6.80e-06	0	56	0	552599552	55	4867
2026-01-06 09:21:20.51	67.40	49.33	-41.5	-44.6	13.9	7.00e-07	0	56	0	559939584	54	5179
2026-01-06 09:21:24.54	64.88	49.39	-41.2	-44.0	14.6	7.00e-07	0	56	0	567279616	54	4836
2026-01-06 09:21:28.58	62.35	49.39	-41.8	-45.1	13.5	6.10e-06	0	56	0	574619648	54	5476
2026-01-06 09:21:32.62	59.82	49.33	-41.4	-44.4	14.2	7.00e-07	0	56	0	583008256	54	5055
2026-01-06 09:21:36.65	57.32	49.21	-41.3	-44.3	14.3	3.80e-06	0	56	0	590348288	54	4990
2026-01-06 09:21:40.69	54.83	49.04	-41.3	-44.2	14.3	7.00e-07	0	56	0	597688320	54	4928
2026-01-06 09:21:44.73	52.37	48.81	-41.3	-44.2	14.3	1.50e-06	0	56	0	605028352	54	4970
2026-01-06 09:21:48.77	49.96	48.52	-41.3	-44.2	14.4	7.00e-07	0	56	0	612368384	54	4929
2026-01-06 09:21:52.81	47.60	48.18	-41.5	-44.6	14.0	2.20e-06	0	56	0	620756992	54	5180
2026-01-06 09:21:56.85	45.29	47.79	-41.5	-44.6	13.9	3.00e-06	0	56	0	628097024	54	5188
2026-01-06 09:22:00.89	43.04	47.36	-41.9	-45.4	13.2	2.51e-05	0	56	0	635437056	54	5673
2026-01-06 09:22:04.93	40.86	46.89	-41.7	-44.9	13.7	6.10e-06	0	56	0	642777088	54	5374
2026-01-06 09:22:08.97	38.74	46.38	-41.4	-44.4	14.2	2.20e-06	0	56	0	651165696	54	5045
2026-01-06 09:22:13.01	36.70	45.83	-40.9	-43.6	14.9	7.00e-07	0	56	0	658505728	53	4917
2026-01-06 09:22:17.05	34.73	45.25	-40.9	-43.7	14.9	0.00e+00	0	56	0	665845760	53	4942
2026-01-06 09:22:21.09	32.83	44.64	-40.8	-43.5	15.1	0.00e+00	0	56	0	673185792	53	4846
2026-01-06 09:22:25.13	31.00	44.01	-40.8	-43.4	15.1	7.00e-07	0	56	0	680525824	53	4806
2026-01-06 09:22:29.17	29.25	43.36	-41.0	-43.8	14.8	0.00e+00	0	56	0	688914432	53	5022
2026-01-06 09:22:33.21	27.56	42.70	-41.0	-43.7	14.8	7.00e-07	0	56	0	696254464	53	4972
2026-01-06 09:22:37.26	25.95	42.01	-40.5	-43.0	15.5	0.00e+00	0	56	0	703594496	53	4590
2026-01-06 09:22:41.30	24.40	41.32	-40.7	-43.3	15.2	0.00e+00	0	56	0	710934528	53	4748
2026-01-06 09:22:45.34	22.92	40.61	-41.2	-44.1	14.4	0.00e+00	0	56	0	719323136	53	5210
2026-01-06 09:22:49.37	21.51	39.91	-41.8	-45.1	13.3	1.52e-05	0	56	0	726663168	54	5513
2026-01-06 09:22:53.41	20.16	39.19	-42.2	-45.8	12.6	1.19e-04	0	56	0	734003200	55	5653
2026-01-06 09:22:57.44	18.87	38.48	-42.2	-46.0	12.5	7.40e-05	0	56	0	741343232	55	5733
2026-01-06 09:23:01.48	17.63	37.76	-42.1	-45.7	12.8	6.33e-05	0	56	0	748683264	55	5545
2026-01-06 09:23:05.52	16.45	37.04	-42.5	-46.5	11.9	3.54e-04	0	56	0	757071872	55	6113
2026-01-06 09:23:09.56	15.31	36.33	-42.1	-45.8	12.5	1.40e-04	0	56	0	764411904	55	5646
2026-01-06 09:23:13.60	14.23	35.61	-42.3	-46.1	12.2	2.43e-04	0	56	0	771751936	55	5846
2026-01-06 09:23:17.64	13.19	34.91	-42.1	-45.8	12.5	1.94e-04	0	56	0	779091968	55	5638
2026-01-06 09:23:21.68	12.20	34.21	-42.1	-45.7	12.7	7.78e-05	0	56	0	787480576	55	5589
2026-01-06 09:23:25.72	11.25	33.51	-41.7	-45.1	13.3	2.67e-05	0	56	0	794820608	55	5198
2026-01-06 09:23:29.76	10.34	32.82	-41.6	-44.9	13.5	1.22e-05	0	56	0	802160640	55	5061
2026-01-06 09:23:33.80	9.47	32.14	-41.9	-45.4	12.9	4.27e-05	0	56	0	809500672	55	5386
2026-01-06 09:23:37.83	8.63	31.47	-41.9	-45.5	12.8	1.17e-04	0	56	0	816840704	55	5440
2026-01-06 09:23:41.87	7.83	30.81	-41.8	-45.3	13.0	3.96e-05	0	56	0	825229312	55	5295
2026-01-06 09:23:45.91	7.06	30.15	-41.9	-45.5	12.8	5.49e-05	0	56	0	832569344	55	5438
2026-01-06 09:23:49.95	6.32	29.51	-42.0	-45.7	12.6	1.17e-04	0	56	0	839909376	55	5561
2026-01-06 09:23:53.99	5.62	28.87	-41.4	-44.6	13.7	3.80e-06	0	56	0	847249408	54	5178
2026-01-06 09:23:58.03	4.93	28.24	-41.5	-44.7	13.5	8.30e-06	0	56	0	855638016	54	5262
2026-01-06 09:24:02.07	4.28	27.63	-41.1	-44.0	14.2	1.50e-06	0	56	0	862978048	54	4868
2026-01-06 09:24:06.11	3.65	27.02	-40.9	-43.9	14.4	7.00e-07	0	56	0	870318080	53	5047
2026-01-06 09:24:10.15	3.04	26.42	-40.8	-43.7	14.5	7.00e-07	0	56	0	877658112	53	4961
2026-01-06 09:24:14.19	2.46	25.83	-40.8	-43.6	14.6	7.00e-07	0	56	0	886046720	53	4901
2026-01-06 09:24:18.23	1.90	25.25	-40.6	-43.3	14.9	0.00e+00	0	56	0	893386752	53	4725
2026-01-06 09:24:22.27	1.36	24.69	-40.8	-43.7	14.5	7.00e-07	0	56	0	900726784	53	4946
2026-01-06 09:24:26.31	0.84	24.13	-40.8	-43.8	14.4	0.00e+00	0	56	0	908066816	53	4991
2026-01-06 09:24:30.35	0.34	23.58	-40.7	-43.6	14.5	7.00e-07	0	56	0	915406848	53	4881
2026-01-06 09:24:34.39	359.85	23.03	-40.5	-43.3	14.8	0.00e+00	0	56	0	923795456	53	4742
2026-01-06 09:24:38.43	359.38	22.50	-40.6	-43.4	14.7	7.00e-07	0	56	0	931135488	53	4785
2026-01-06 09:24:42.47	358.93	21.98	-40.7	-43.6	14.4	7.00e-07	0	56	0	938475520	53	4910
2026-01-06 09:24:46.50	358.50	21.46	-40.6	-43.5	14.4	0.00e+00	0	56	0	945815552	53	4847
2026-01-06 09:24:50.54	358.07	20.96	-40.5	-43.4	14.4	1.50e-06	0	56	0	954204160	53	4801
2026-01-06 09:24:54.58	357.67	20.46	-40.6	-43.7	14.0	3.00e-06	0	56	0	961544192	53	4971
2026-01-06 09:24:58.62	357.27	19.97	-40.6	-43.8	13.7	5.30e-06	0	56	0	968884224	53	5033
2026-01-06 09:25:02.66	356.89	19.49	-40.5	-43.8	13.5	6.10e-06	0	56	0	976224256	52	5286
2026-01-06 09:25:06.69	356.52	19.02	-40.5	-44.3	12.3	9.91e-05	0	56	0	983564288	52	5649
2026-01-06 09:25:10.73	356.16	18.55	-40.9	-46.3	9.5	9.85e-03	0	56	0	991952896	52	7066
2026-01-06 09:25:14.77	355.82	18.09	-41.2	-49.6	5.7	3.12e-01	0	56	0	999292928	52	10399
2026-01-06 09:25:18.81	355.48	17.64	-41.0	-52.9	3.9	1.45e+00	0	56	104	1004535808	52	15130
2026-01-06 09:25:22.85	355.15	17.20	-40.7	-54.4	3.8	1.49e+00	0	56	104	1004535808	52	18009
2026-01-06 09:25:26.88	354.84	16.76	-40.5	-54.8	3.8	1.49e+00	0	56	104	1004535808	52	18900
2026-01-06 09:25:30.92	354.53	16.33	-40.7	-55.2	3.8	1.49e+00	0	56	104	1004535808	52	19648
2026-01-06 09:25:34.96	354.23	15.91	-40.5	-55.0	3.8	1.49e+00	0	56	104	1004535808	52	19218
2026-01-06 09:25:39.00	353.94	15.49	-40.4	-54.8	3.8	1.49e+00	0	56	104	1004535808	52	18929
2026-01-06 09:25:43.04	353.66	15.08	-40.4	-55.0	3.8	1.49e+00	0	56	104	1004535808	52	19187
2026-01-06 09:25:47.08	353.39	14.68	-40.4	-54.8	3.8	1.49e+00	0	57	104	1004535808	52	18934
2026-01-06 09:25:51.12	353.12	14.28	-40.3	-54.8	3.8	1.49e+00	0	56	104	1004535808	52	18868
2026-01-06 09:25:55.16	352.87	13.89	-40.3	-54.8	3.8	1.49e+00	0	56	104	1004535808	52	18906
2026-01-06 09:25:59.21	352.62	13.50	-40.4	-55.0	3.8	1.49e+00	0	56	104	1004535808	52	19379
2026-01-06 09:26:03.25	352.37	13.12	-40.1	-55.0	3.8	1.49e+00	0	56	104	1004535808	51	20487
2026-01-06 09:26:07.28	352.14	12.74	-40.6	-55.2	3.8	1.49e+00	0	57	104	1004535808	51	20795
2026-01-06 09:26:11.32	351.90	12.37	-40.4	-55.2	3.8	1.49e+00	0	57	104	1004535808	51	20941
2026-01-06 09:26:15.37	351.68	12.00	-40.5	-55.1	3.8	1.49e+00	0	57	104	1004535808	51	20635
2026-01-06 09:26:19.41	351.46	11.64	-40.5	-55.1	3.8	1.49e+00	0	57	104	1004535808	51	20540
2026-01-06 09:26:23.45	351.25	11.29	-40.5	-55.1	3.8	1.49e+00	0	57	104	1004535808	51	20658
2026-01-06 09:26:27.49	351.04	10.93	-40.1	-54.7	3.8	1.49e+00	0	57	104	1004535808	52	18554
2026-01-06 09:26:31.53	350.84	10.59	-40.2	-54.8	3.8	1.49e+00	0	57	104	1004535808	52	18746
2026-01-06 09:26:35.57	350.64	10.24	-40.5	-55.0	3.8	1.49e+00	0	57	104	1004535808	52	19276
2026-01-06 09:26:39.61	350.45	9.91	-40.6	-55.1	3.8	1.49e+00	0	57	104	1004535808	52	19426
2026-01-06 09:26:43.65	350.26	9.57	-40.6	-55.1	3.8	1.49e+00	0	57	104	1004535808	52	19418
2026-01-06 09:26:47.69	350.07	9.24	-40.6	-55.0	3.8	1.49e+00	0	57	104	1004535808	52	19324
2026-01-06 09:26:51.73	349.90	8.92	-40.4	-54.9	3.8	1.49e+00	0	57	104	1004535808	52	19068
2026-01-06 09:26:55.77	349.72	8.60	-40.6	-55.0	3.8	1.49e+00	0	56	104	1004535808	52	19381
2026-01-06 09:26:59.81	349.55	8.28	-40.6	-55.1	3.8	1.49e+00	0	57	104	1004535808	52	19582
2026-01-06 09:27:03.85	349.38	7.96	-40.6	-55.0	3.8	1.49e+00	0	57	104	1004535808	52	19292
2026-01-06 09:27:07.89	349.22	7.65	-44.9	-59.6	3.8	1.49e+00	0	57	104	1004535808	60	20613
2026-01-06 09:27:11.93	349.06	7.35	-45.2	-59.9	3.8	1.49e+00	0	56	104	1004535808	60	21402
2026-01-06 09:27:15.98	348.91	7.04	-45.1	-59.9	3.8	1.49e+00	0	57	104	1004535808	60	21478
2026-01-06 09:27:20.02	348.76	6.74	-45.1	-59.9	3.8	1.49e+00	0	57	104	1004535808	60	21455
2026-01-06 09:27:24.06	348.61	6.44	-45.1	-59.9	3.8	1.49e+00	0	57	104	1004535808	60	21344
2026-01-06 09:27:28.11	348.46	6.15	-45.1	-59.9	3.8	1.49e+00	0	56	104	1004535808	60	21383
2026-01-06 09:27:32.15	348.32	5.86	-45.0	-59.8	3.8	1.49e+00	0	57	104	1004535808	60	21227
2026-01-06 09:27:36.19	348.18	5.57	-45.0	-59.9	3.8	1.49e+00	0	57	104	1004535808	60	21266
2026-01-06 09:27:40.24	348.05	5.29	-45.0	-59.8	3.8	1.49e+00	0	57	104	1004535808	60	21222
2026-01-06 09:27:44.28	347.91	5.00	-45.0	-59.9	3.8	1.49e+00	0	57	104	1004535808	60	21269
2026-01-06 09:27:48.32	347.78	4.72	-45.0	-59.8	3.8	1.49e+00	0	56	104	1004535808	60	21241
2026-01-06 09:27:52.37	347.66	4.45	-45.0	-59.8	3.8	1.49e+00	0	57	104	1004535808	60	21187
2026-01-06 09:27:56.41	347.53	4.17	-45.0	-59.8	3.8	1.49e+00	0	56	104	1004535808	60	21131
2026-01-06 09:28:00.45	347.41	3.90	-45.0	-59.8	3.8	1.49e+00	0	57	104	1004535808	60	21149
2026-01-06 09:28:04.50	347.29	3.63	-45.0	-59.8	3.8	1.49e+00	0	56	104	1004535808	60	21073
2026-01-06 09:28:08.54	347.18	3.37	-45.0	-59.8	3.8	1.49e+00	0	56	104	1004535808	60	21026
2026-01-06 09:28:12.58	347.06	3.10	-45.0	-59.8	3.8	1.49e+00	0	56	104	1004535808	60	21079
2026-01-06 09:28:16.62	346.95	2.84	-45.0	-59.8	3.8	1.49e+00	0	57	104	1004535808	60	21165
2026-01-06 09:28:20.67	346.84	2.58	-45.0	-59.8	3.8	1.49e+00	0	57	104	1004535808	60	21167
2026-01-06 09:28:24.71	346.73	2.33	-45.0	-59.8	3.8	1.49e+00	0	57	104	1004535808	60	21092
2026-01-06 09:28:28.75	346.63	2.07	-45.0	-59.8	3.8	1.49e+00	0	57	104	1004535808	60	21167

#Closed at: 2026-01-06 09:28:31
#Recorded file [1004 MB]: D:/lorett/data/31039_260106_121428.dat