passes_logs/2026/01/06/R2.0S_Moscow/R2.0S_Moscow__20260106_082507_NOAA_21_JPSS-2_rec.log

#Pass ID: 20260106_082507_NOAA 21 (JPSS-2)
#Satellite: NOAA 21 (JPSS-2)
#Configuration: NOAA-21
#almurnet v.1.7.20251203
#Start time: 2026-01-06 08:25:08

#Version: 2.2.20231116
#Station: R2.0S_Moscow
#Location: 37.707566 lon 55.798166 lat
#TLE: 1 54234U 22150A   26005.21525222  .00000150  00000+0  91957-4 0  9992
#TLE: 2 54234  98.7490 306.2339 0001053 341.6032  18.5106 14.19532220163427

#Time	Az	El	Level	Level2	SNR	BER	BlckErr	Temp	State	Recorded	gain1	gain2
2026-01-06 08:25:08.91	116.65	2.06	-40.0	-54.4	3.8	1.49e+00	0	46	0	0	50	20245
2026-01-06 08:25:12.95	116.40	2.29	-41.4	-55.1	3.8	1.49e+00	0	47	104	0	55	16453
2026-01-06 08:25:17.00	116.15	2.53	-41.8	-55.0	3.8	1.50e+00	0	47	104	0	51	20422
2026-01-06 08:25:21.04	115.89	2.77	-42.0	-54.6	3.8	1.49e+00	0	47	104	0	54	16487
2026-01-06 08:25:25.08	115.63	3.01	-42.2	-55.2	3.8	1.49e+00	0	48	104	0	54	17602
2026-01-06 08:25:29.13	115.37	3.25	-42.4	-55.3	3.7	1.49e+00	0	48	104	0	55	16821
2026-01-06 08:25:33.17	115.10	3.49	-42.3	-55.1	3.8	1.49e+00	0	48	104	0	54	17440
2026-01-06 08:25:37.21	114.82	3.73	-41.5	-55.1	3.8	1.49e+00	0	49	104	0	54	17381
2026-01-06 08:25:41.25	114.55	3.98	-42.3	-55.2	3.8	1.49e+00	0	49	104	0	55	16585
2026-01-06 08:25:45.29	114.26	4.22	-42.3	-55.0	3.8	1.49e+00	0	49	104	0	54	17274
2026-01-06 08:25:49.33	113.98	4.47	-41.8	-54.8	3.8	1.49e+00	0	49	104	0	52	18747
2026-01-06 08:25:53.38	113.68	4.72	-41.9	-55.1	3.8	1.49e+00	0	50	104	0	54	17405
2026-01-06 08:25:57.42	113.38	4.97	-41.1	-54.4	3.9	1.49e+00	0	50	104	0	53	17064
2026-01-06 08:26:01.46	113.08	5.22	-42.2	-55.4	3.9	1.49e+00	0	50	104	0	54	18045
2026-01-06 08:26:05.50	112.77	5.48	-42.2	-54.7	3.9	1.49e+00	0	50	104	0	53	17615
2026-01-06 08:26:09.55	112.45	5.74	-41.4	-55.0	3.8	1.49e+00	0	51	104	0	55	16307
2026-01-06 08:26:13.59	112.13	5.99	-40.1	-54.1	3.9	1.49e+00	0	51	104	0	53	16447
2026-01-06 08:26:17.64	111.81	6.25	-41.7	-54.9	3.8	1.49e+00	0	51	104	0	55	16081
2026-01-06 08:26:21.68	111.47	6.52	-42.0	-54.7	3.8	1.49e+00	0	51	104	0	55	15760
2026-01-06 08:26:25.72	111.13	6.78	-42.1	-54.9	3.8	1.49e+00	0	51	104	0	55	16055
2026-01-06 08:26:29.76	110.79	7.04	-41.6	-54.7	3.8	1.49e+00	0	51	104	0	52	18708
2026-01-06 08:26:33.81	110.44	7.31	-39.5	-50.9	4.1	1.49e+00	0	51	104	0	49	14310
2026-01-06 08:26:37.85	110.08	7.58	-35.4	-45.3	6.6	1.94e-01	0	52	0	3145728	47	8418
2026-01-06 08:26:41.90	109.71	7.85	-38.5	-41.6	12.1	6.53e-03	0	52	0	15728640	47	5494
2026-01-06 08:26:45.94	109.34	8.12	-42.0	-54.8	3.6	2.20e-01	0	52	104	27262976	52	18876
2026-01-06 08:26:49.97	108.96	8.40	-40.1	-45.1	8.5	9.44e-03	0	52	0	36700160	50	6913
2026-01-06 08:26:54.01	108.57	8.67	-37.7	-40.4	13.4	4.70e-03	0	52	0	49283072	46	5082
2026-01-06 08:26:58.05	108.18	8.95	-36.5	-40.2	13.4	7.34e-03	0	52	0	61865984	45	5250
2026-01-06 08:27:02.09	107.78	9.23	-37.3	-40.1	13.4	3.54e-03	0	52	0	74448896	45	5207
2026-01-06 08:27:06.12	107.37	9.51	-37.4	-39.9	14.2	2.17e-03	0	52	0	87031808	45	5043
2026-01-06 08:27:10.17	106.95	9.79	-37.4	-39.7	14.6	1.48e-03	0	53	0	99614720	45	4935
2026-01-06 08:27:14.21	106.52	10.08	-37.8	-39.8	14.7	1.36e-03	0	53	0	112197632	46	4733
2026-01-06 08:27:18.25	106.09	10.36	-37.6	-39.7	13.9	9.91e-05	0	53	0	124780544	45	4930
2026-01-06 08:27:22.29	105.64	10.65	-37.6	-39.6	14.4	9.57e-04	0	53	0	137363456	45	4916
2026-01-06 08:27:26.33	105.19	10.94	-36.8	-39.7	13.9	2.48e-03	0	53	0	149946368	45	4958
2026-01-06 08:27:30.37	104.73	11.23	-36.9	-39.9	13.3	9.40e-03	0	53	0	163577856	45	5043
2026-01-06 08:27:34.42	104.25	11.52	-37.3	-39.5	13.7	1.58e-02	0	53	0	176160768	45	4836
2026-01-06 08:27:38.45	103.77	11.82	-36.6	-39.6	13.1	3.54e-01	0	53	0	187695104	45	4896
2026-01-06 08:27:42.49	103.28	12.11	-34.5	-39.4	9.3	2.18e-01	0	53	0	200278016	42	5708
2026-01-06 08:27:46.54	102.78	12.41	-36.3	-39.1	13.2	1.53e-01	0	53	0	212860928	43	5180
2026-01-06 08:27:50.58	102.27	12.71	-37.0	-39.3	13.2	1.59e-02	0	53	0	225443840	44	5001
2026-01-06 08:27:54.61	101.75	13.01	-38.6	-41.9	10.6	5.89e-02	1	54	0	236978176	48	5352
2026-01-06 08:27:58.65	101.21	13.31	-38.9	-42.5	10.6	3.41e-02	0	54	0	248512512	49	5432
2026-01-06 08:28:02.69	100.67	13.61	-39.5	-43.4	10.1	3.56e-02	0	54	0	261095424	49	6034
2026-01-06 08:28:06.73	100.11	13.92	-39.4	-42.5	11.2	1.37e-02	0	54	0	274726912	49	5427
2026-01-06 08:28:10.77	99.55	14.22	-39.3	-42.2	12.4	2.54e-03	0	54	0	287309824	49	5243
2026-01-06 08:28:14.81	98.97	14.53	-39.9	-42.7	12.2	4.07e-04	0	54	0	299892736	50	5269
2026-01-06 08:28:18.84	98.38	14.83	-39.3	-41.7	13.4	1.75e-05	0	54	0	312475648	50	4704
2026-01-06 08:28:22.88	97.77	15.14	-38.2	-40.1	15.1	7.00e-07	0	54	0	325058560	48	4360
2026-01-06 08:28:26.92	97.15	15.45	-37.5	-39.3	15.9	0.00e+00	0	54	0	337641472	46	4474
2026-01-06 08:28:30.96	96.52	15.75	-37.7	-39.5	15.8	0.00e+00	0	54	0	350224384	46	4548
2026-01-06 08:28:35.00	95.88	16.06	-37.7	-39.5	15.8	0.00e+00	0	54	0	362807296	46	4563
2026-01-06 08:28:39.05	95.22	16.37	-37.7	-39.4	16.0	0.00e+00	0	54	0	375390208	46	4513
2026-01-06 08:28:43.09	94.55	16.68	-37.4	-39.1	16.3	0.00e+00	0	54	0	387973120	46	4341
2026-01-06 08:28:47.13	93.87	16.99	-37.4	-39.0	16.3	0.00e+00	0	54	0	400556032	46	4323
2026-01-06 08:28:51.17	93.17	17.30	-37.2	-38.8	16.5	0.00e+00	0	54	0	413138944	46	4240
2026-01-06 08:28:55.22	92.45	17.61	-37.2	-38.8	16.5	0.00e+00	0	55	0	425721856	46	4207
2026-01-06 08:28:59.26	91.73	17.91	-37.3	-39.0	16.2	0.00e+00	0	54	0	438304768	46	4336
2026-01-06 08:29:03.30	90.98	18.22	-37.3	-39.0	16.1	0.00e+00	0	55	0	450887680	46	4303
2026-01-06 08:29:07.34	90.22	18.52	-37.3	-39.0	15.8	0.00e+00	0	55	0	463470592	46	4327
2026-01-06 08:29:11.38	89.45	18.83	-37.5	-39.4	15.2	0.00e+00	0	55	0	476053504	46	4502
2026-01-06 08:29:15.42	88.66	19.13	-37.5	-39.6	14.5	0.00e+00	0	55	0	488636416	46	4633
2026-01-06 08:29:19.45	87.86	19.42	-38.0	-40.4	13.4	1.22e-05	0	55	0	501219328	46	5091
2026-01-06 08:29:23.49	87.04	19.72	-38.1	-40.5	13.2	2.97e-05	0	55	0	513802240	46	5140
2026-01-06 08:29:27.54	86.20	20.01	-38.0	-40.3	13.6	4.50e-06	0	55	0	526385152	46	5013
2026-01-06 08:29:31.58	85.34	20.30	-37.8	-39.9	14.3	0.00e+00	0	55	0	538968064	46	4786
2026-01-06 08:29:35.61	84.48	20.59	-37.4	-39.3	15.2	0.00e+00	0	55	0	551550976	46	4487
2026-01-06 08:29:39.65	83.59	20.87	-37.2	-39.0	15.8	0.00e+00	0	55	0	564133888	46	4315
2026-01-06 08:29:43.70	82.69	21.15	-37.2	-38.9	16.0	0.00e+00	0	55	0	576716800	46	4290
2026-01-06 08:29:47.74	81.77	21.43	-37.2	-39.0	16.0	0.00e+00	0	55	0	590348288	46	4300
2026-01-06 08:29:51.78	80.83	21.70	-37.3	-39.1	15.9	0.00e+00	0	55	0	602931200	46	4361
2026-01-06 08:29:55.82	79.88	21.96	-36.9	-38.6	16.4	0.00e+00	0	55	0	615514112	45	4352
2026-01-06 08:29:59.87	78.91	22.22	-36.8	-38.3	16.7	0.00e+00	0	55	0	628097024	45	4235
2026-01-06 08:30:03.91	77.93	22.47	-36.8	-38.4	16.7	0.00e+00	0	55	0	640679936	45	4269
2026-01-06 08:30:07.95	76.93	22.71	-36.8	-38.4	16.7	0.00e+00	0	55	0	653262848	45	4287
2026-01-06 08:30:11.99	75.92	22.95	-36.9	-38.5	16.7	0.00e+00	0	55	0	665845760	45	4304
2026-01-06 08:30:16.03	74.89	23.18	-36.8	-38.3	16.9	0.00e+00	0	55	0	678428672	45	4226
2026-01-06 08:30:20.07	73.84	23.40	-36.7	-38.2	17.1	0.00e+00	0	55	0	691011584	45	4152
2026-01-06 08:30:24.11	72.78	23.61	-36.8	-38.4	17.0	0.00e+00	0	55	0	703594496	45	4248
2026-01-06 08:30:28.15	71.71	23.82	-37.1	-38.6	16.8	0.00e+00	0	55	0	716177408	45	4384
2026-01-06 08:30:32.20	70.62	24.01	-36.9	-38.4	17.2	0.00e+00	0	55	0	728760320	45	4261
2026-01-06 08:30:36.24	69.52	24.20	-36.9	-38.4	17.2	0.00e+00	0	55	0	741343232	45	4264
2026-01-06 08:30:40.28	68.40	24.37	-36.8	-38.2	17.4	0.00e+00	0	55	0	753926144	45	4175
2026-01-06 08:30:44.32	67.28	24.53	-36.7	-38.1	17.5	0.00e+00	0	55	0	766509056	45	4134
2026-01-06 08:30:48.36	66.14	24.69	-36.8	-38.3	17.3	0.00e+00	0	55	0	779091968	45	4233
2026-01-06 08:30:52.41	64.99	24.83	-36.8	-38.3	17.3	0.00e+00	0	55	0	791674880	45	4224
2026-01-06 08:30:56.44	63.84	24.95	-36.9	-38.4	17.3	0.00e+00	0	55	0	804257792	45	4248
2026-01-06 08:31:00.48	62.67	25.07	-36.5	-38.0	17.7	0.00e+00	0	55	0	816840704	45	4056
2026-01-06 08:31:04.52	61.50	25.17	-36.5	-37.9	17.8	0.00e+00	0	55	0	829423616	45	4035
2026-01-06 08:31:08.56	60.32	25.26	-36.6	-38.0	17.7	0.00e+00	0	55	0	842006528	44	4313
2026-01-06 08:31:12.60	59.13	25.34	-36.8	-38.2	17.5	0.00e+00	0	55	0	854589440	44	4428
2026-01-06 08:31:16.65	57.93	25.41	-36.5	-37.8	17.9	0.00e+00	0	56	0	867172352	44	4239
2026-01-06 08:31:20.69	56.74	25.46	-36.7	-38.2	17.6	0.00e+00	0	55	0	880803840	44	4409
2026-01-06 08:31:24.73	55.54	25.49	-36.8	-38.2	17.6	0.00e+00	0	55	0	893386752	44	4427
2026-01-06 08:31:28.78	54.33	25.52	-36.6	-38.0	17.8	0.00e+00	0	55	0	905969664	44	4301
2026-01-06 08:31:32.82	53.13	25.53	-36.8	-38.3	17.5	0.00e+00	0	56	0	918552576	44	4453
2026-01-06 08:31:36.86	51.93	25.52	-36.7	-38.2	17.6	0.00e+00	0	55	0	931135488	44	4403
2026-01-06 08:31:40.91	50.72	25.51	-36.7	-38.1	17.7	0.00e+00	0	56	0	943718400	44	4356
2026-01-06 08:31:44.95	49.52	25.47	-36.7	-38.2	17.6	0.00e+00	0	56	0	956301312	44	4394
2026-01-06 08:31:48.99	48.32	25.43	-36.8	-38.2	17.6	0.00e+00	0	56	0	968884224	44	4419
2026-01-06 08:31:53.02	47.13	25.37	-36.7	-38.1	17.7	0.00e+00	0	56	0	981467136	44	4388
2026-01-06 08:31:57.07	45.94	25.30	-37.1	-38.6	17.2	0.00e+00	0	56	0	994050048	44	4647
2026-01-06 08:32:01.11	44.76	25.21	-36.8	-38.3	17.6	0.00e+00	0	56	0	1006632960	44	4448
2026-01-06 08:32:05.15	43.58	25.11	-36.8	-38.3	17.6	0.00e+00	0	56	0	1019215872	44	4461
2026-01-06 08:32:09.19	42.42	25.00	-37.1	-38.6	17.3	0.00e+00	0	56	0	1031798784	44	4603
2026-01-06 08:32:13.23	41.26	24.88	-37.1	-38.6	17.3	0.00e+00	0	56	0	1044381696	45	4364
2026-01-06 08:32:17.27	40.11	24.74	-36.8	-38.2	17.6	0.00e+00	0	56	0	1056964608	45	4184
2026-01-06 08:32:21.32	38.97	24.60	-36.7	-38.2	17.7	0.00e+00	0	56	0	1069547520	45	4154
2026-01-06 08:32:25.36	37.84	24.44	-36.8	-38.2	17.6	0.00e+00	0	56	0	1082130432	45	4172
2026-01-06 08:32:29.40	36.73	24.27	-36.8	-38.2	17.7	0.00e+00	0	56	0	1094713344	45	4159
2026-01-06 08:32:33.44	35.62	24.09	-36.6	-38.0	17.9	0.00e+00	0	56	0	1107296256	45	4055
2026-01-06 08:32:37.48	34.53	23.90	-37.1	-38.6	17.3	0.00e+00	0	56	0	1119879168	45	4356
2026-01-06 08:32:41.52	33.46	23.70	-37.2	-38.7	17.2	0.00e+00	0	56	0	1133510656	45	4422
2026-01-06 08:32:45.56	32.39	23.49	-36.9	-38.4	17.5	0.00e+00	0	56	0	1146093568	45	4250
2026-01-06 08:32:49.60	31.35	23.27	-36.8	-38.3	17.6	0.00e+00	0	56	0	1157627904	45	4215
2026-01-06 08:32:53.64	30.32	23.05	-36.8	-38.2	17.7	0.00e+00	0	56	0	1171259392	45	4180
2026-01-06 08:32:57.68	29.30	22.81	-36.8	-38.3	17.6	0.00e+00	0	56	0	1183842304	45	4204
2026-01-06 08:33:01.73	28.29	22.57	-37.0	-38.4	17.4	0.00e+00	0	56	0	1196425216	45	4291
2026-01-06 08:33:05.77	27.31	22.33	-37.2	-38.7	17.2	0.00e+00	0	56	0	1209008128	45	4412
2026-01-06 08:33:09.81	26.34	22.07	-36.7	-38.1	17.7	0.00e+00	0	56	0	1221591040	45	4144
2026-01-06 08:33:13.85	25.39	21.81	-36.5	-37.9	17.9	0.00e+00	0	56	0	1234173952	44	4277
2026-01-06 08:33:17.89	24.45	21.55	-37.0	-38.5	17.4	0.00e+00	0	56	0	1246756864	44	4558
2026-01-06 08:33:21.94	23.53	21.27	-36.7	-38.1	17.8	0.00e+00	0	56	0	1259339776	44	4355
2026-01-06 08:33:25.98	22.62	21.00	-36.7	-38.2	17.6	0.00e+00	0	56	0	1271922688	44	4409
2026-01-06 08:33:30.02	21.73	20.72	-36.5	-37.9	17.9	0.00e+00	0	56	0	1284505600	44	4284
2026-01-06 08:33:34.06	20.86	20.43	-36.9	-38.4	17.5	0.00e+00	0	56	0	1297088512	44	4514
2026-01-06 08:33:38.10	20.01	20.15	-37.4	-38.9	17.0	0.00e+00	0	56	0	1309671424	45	4534
2026-01-06 08:33:42.14	19.17	19.86	-37.1	-38.6	17.3	0.00e+00	0	56	0	1322254336	45	4355
2026-01-06 08:33:46.19	18.34	19.56	-37.1	-38.6	17.2	0.00e+00	0	56	0	1334837248	45	4372
2026-01-06 08:33:50.22	17.54	19.27	-37.0	-38.5	17.3	0.00e+00	0	56	0	1347420160	45	4329
2026-01-06 08:33:54.26	16.75	18.97	-37.1	-38.6	17.2	0.00e+00	0	56	0	1360003072	45	4389
2026-01-06 08:33:58.30	15.97	18.67	-37.7	-39.4	16.5	0.00e+00	0	56	0	1372585984	45	4762
2026-01-06 08:34:02.34	15.21	18.36	-37.7	-39.4	16.5	0.00e+00	0	56	0	1385168896	46	4500
2026-01-06 08:34:06.38	14.47	18.06	-37.7	-39.3	16.5	0.00e+00	0	56	0	1397751808	46	4470
2026-01-06 08:34:10.42	13.74	17.76	-37.7	-39.4	16.4	0.00e+00	0	56	0	1410334720	46	4528
2026-01-06 08:34:14.46	13.02	17.45	-37.6	-39.2	16.5	0.00e+00	0	56	0	1422917632	46	4406
2026-01-06 08:34:18.50	12.32	17.14	-37.6	-39.3	16.4	0.00e+00	0	56	0	1435500544	46	4458
2026-01-06 08:34:22.54	11.64	16.84	-37.1	-38.7	17.0	0.00e+00	0	56	0	1449132032	46	4158
2026-01-06 08:34:26.58	10.96	16.53	-37.2	-38.8	16.9	0.00e+00	0	56	0	1461714944	46	4226
2026-01-06 08:34:30.62	10.31	16.22	-37.6	-39.2	16.4	0.00e+00	0	56	0	1474297856	46	4434
2026-01-06 08:34:34.65	9.66	15.92	-37.6	-39.3	16.3	0.00e+00	0	56	0	1486880768	46	4461
2026-01-06 08:34:38.69	9.03	15.61	-37.4	-39.0	16.5	0.00e+00	0	56	0	1499463680	46	4322
2026-01-06 08:34:42.73	8.41	15.30	-37.7	-39.4	16.0	0.00e+00	0	56	0	1512046592	46	4527
2026-01-06 08:34:46.78	7.81	15.00	-38.0	-39.8	15.6	0.00e+00	0	56	0	1524629504	46	4730
2026-01-06 08:34:50.81	7.22	14.69	-37.5	-39.2	16.0	0.00e+00	0	56	0	1537212416	46	4404
2026-01-06 08:34:54.85	6.64	14.39	-37.3	-39.0	16.1	0.00e+00	0	56	0	1549795328	46	4311
2026-01-06 08:34:58.89	6.07	14.08	-38.0	-40.0	14.9	0.00e+00	0	56	0	1562378240	46	4840
2026-01-06 08:35:02.93	5.51	13.78	-38.4	-40.6	13.9	1.50e-06	0	56	0	1574961152	47	4914
2026-01-06 08:35:06.97	4.97	13.48	-37.4	-39.5	14.8	0.00e+00	0	56	0	1587544064	46	4557
2026-01-06 08:35:11.01	4.44	13.18	-38.3	-40.9	12.7	3.66e-05	0	56	0	1600126976	47	5065
2026-01-06 08:35:15.05	3.91	12.88	-40.3	-46.2	6.5	1.42e-01	0	56	0	1612709888	51	7378
2026-01-06 08:35:19.09	3.40	12.58	-40.6	-52.2	3.8	1.49e+00	0	56	104	1616904192	52	13936
2026-01-06 08:35:23.13	2.90	12.28	-40.4	-52.5	3.8	1.49e+00	0	56	104	1616904192	52	14424
2026-01-06 08:35:27.17	2.41	11.99	-40.5	-52.5	3.8	1.49e+00	0	56	104	1616904192	52	14471
2026-01-06 08:35:31.22	1.93	11.69	-40.0	-52.3	3.8	1.49e+00	0	56	104	1616904192	52	14148
2026-01-06 08:35:35.25	1.46	11.40	-40.2	-52.5	3.8	1.49e+00	0	56	104	1616904192	52	14413
2026-01-06 08:35:39.29	0.99	11.11	-40.1	-52.4	3.8	1.49e+00	0	56	104	1616904192	51	15119
2026-01-06 08:35:43.33	0.54	10.82	-40.2	-52.4	3.8	1.49e+00	0	56	104	1616904192	51	15221
2026-01-06 08:35:47.38	0.10	10.54	-39.7	-52.3	3.8	1.49e+00	0	56	104	1616904192	51	14882
2026-01-06 08:35:51.42	359.66	10.25	-39.7	-52.3	3.8	1.49e+00	0	56	104	1616904192	51	14946
2026-01-06 08:35:55.46	359.24	9.97	-39.6	-52.2	3.8	1.49e+00	0	56	104	1616904192	51	14779
2026-01-06 08:35:59.50	358.82	9.69	-39.7	-52.2	3.8	1.49e+00	0	56	104	1616904192	51	14782
2026-01-06 08:36:03.54	358.41	9.40	-39.6	-52.1	3.8	1.49e+00	0	56	104	1616904192	50	15576
2026-01-06 08:36:07.58	358.01	9.13	-39.3	-52.2	3.8	1.49e+00	0	56	104	1616904192	50	15621
2026-01-06 08:36:11.62	357.62	8.85	-39.2	-52.1	3.8	1.49e+00	0	56	104	1616904192	49	16428
2026-01-06 08:36:15.66	357.23	8.57	-38.8	-52.1	3.8	1.49e+00	0	56	104	1616904192	49	16341
2026-01-06 08:36:19.70	356.85	8.30	-39.3	-52.1	3.8	1.49e+00	0	56	104	1616904192	49	16337
2026-01-06 08:36:23.75	356.48	8.03	-39.5	-52.0	3.8	1.49e+00	0	56	104	1616904192	50	15364
2026-01-06 08:36:27.79	356.12	7.76	-44.9	-57.4	3.8	1.49e+00	0	56	104	1616904192	60	15962
2026-01-06 08:36:31.83	355.76	7.49	-45.3	-57.8	3.8	1.49e+00	0	56	104	1616904192	61	15933
2026-01-06 08:36:35.87	355.41	7.22	-45.3	-57.8	3.8	1.49e+00	0	56	104	1616904192	61	15937
2026-01-06 08:36:39.91	355.07	6.96	-45.2	-57.8	3.8	1.49e+00	0	56	104	1616904192	61	15884
2026-01-06 08:36:43.95	354.73	6.70	-45.2	-57.7	3.8	1.49e+00	0	57	104	1616904192	61	15749
2026-01-06 08:36:48.00	354.40	6.43	-45.1	-57.7	3.8	1.49e+00	0	56	104	1616904192	61	15725
2026-01-06 08:36:52.04	354.08	6.18	-45.1	-57.7	3.8	1.49e+00	0	56	104	1616904192	61	15725
2026-01-06 08:36:56.08	353.76	5.92	-45.1	-57.7	3.8	1.49e+00	0	56	104	1616904192	61	15693
2026-01-06 08:37:00.12	353.44	5.66	-45.1	-57.7	3.8	1.49e+00	0	56	104	1616904192	61	15722
2026-01-06 08:37:04.17	353.14	5.41	-45.1	-57.7	3.8	1.49e+00	0	56	104	1616904192	61	15692
2026-01-06 08:37:08.21	352.84	5.15	-45.1	-57.7	3.8	1.49e+00	0	56	104	1616904192	61	15702
2026-01-06 08:37:12.25	352.54	4.90	-45.1	-57.7	3.8	1.49e+00	0	56	104	1616904192	61	15663
2026-01-06 08:37:16.30	352.25	4.65	-45.1	-57.7	3.8	1.49e+00	0	57	104	1616904192	61	15622
2026-01-06 08:37:20.34	351.96	4.40	-45.1	-57.7	3.8	1.49e+00	0	57	104	1616904192	61	15679
2026-01-06 08:37:24.38	351.68	4.16	-45.1	-57.7	3.8	1.49e+00	0	56	104	1616904192	61	15682
2026-01-06 08:37:28.42	351.41	3.91	-45.1	-57.7	3.8	1.49e+00	0	57	104	1616904192	61	15700
2026-01-06 08:37:32.46	351.14	3.67	-45.1	-57.7	3.8	1.49e+00	0	56	104	1616904192	61	15656
2026-01-06 08:37:36.49	350.87	3.43	-45.1	-57.7	3.8	1.49e+00	0	56	104	1616904192	61	15642
2026-01-06 08:37:40.54	350.61	3.19	-45.1	-57.7	3.8	1.49e+00	0	57	104	1616904192	61	15617
2026-01-06 08:37:44.58	350.35	2.95	-45.1	-57.7	3.8	1.49e+00	0	56	104	1616904192	60	16552
2026-01-06 08:37:48.62	350.10	2.71	-45.1	-57.7	3.8	1.49e+00	0	57	104	1616904192	60	16563
2026-01-06 08:37:52.66	349.85	2.48	-45.1	-57.7	3.8	1.49e+00	0	57	104	1616904192	60	16553
2026-01-06 08:37:56.70	349.61	2.24	-45.1	-57.7	3.8	1.49e+00	0	57	104	1616904192	60	16568
2026-01-06 08:38:00.75	349.37	2.01	-45.1	-57.7	3.8	1.49e+00	0	57	104	1616904192	60	16550

#Closed at: 2026-01-06 08:38:01
#Recorded file [1616 MB]: D:/lorett/data/31039_260106_112508.dat