passes_logs/2026/01/06/R2.0S_Moscow/R2.0S_Moscow__20260106_230445_NOAA_20_JPSS-1_rec.log

#Pass ID: 20260106_230445_NOAA 20 (JPSS-1)
#Satellite: NOAA 20 (JPSS-1)
#Configuration: NOAA 20
#almurnet v.1.7.20251203
#Start time: 2026-01-06 23:04:46

#Version: 2.2.20231116
#Station: R2.0S_Moscow
#Location: 37.707566 lon 55.798166 lat
#TLE: 1 43013U 17073A   26006.30790171  .00000126  00000+0  80695-4 0  9991
#TLE: 2 43013  98.7629 307.3394 0001808  51.8724 308.2615 14.19533762421505

#Time	Az	El	Level	Level2	SNR	BER	BlckErr	Temp	State	Recorded	gain1	gain2
2026-01-06 23:04:46.03	19.09	2.02	-40.9	-56.0	3.8	1.49e+00	0	48	0	0	53	20425
2026-01-06 23:04:50.06	19.21	2.27	-40.9	-56.0	3.8	1.49e+00	0	48	104	0	53	20406
2026-01-06 23:04:54.11	19.34	2.53	-40.8	-56.0	3.8	1.49e+00	0	49	104	0	53	20456
2026-01-06 23:04:58.15	19.46	2.79	-40.9	-56.0	3.8	1.49e+00	0	49	104	0	53	20457
2026-01-06 23:05:02.19	19.59	3.04	-40.9	-56.0	3.8	1.49e+00	0	49	104	0	53	20400
2026-01-06 23:05:06.23	19.72	3.31	-40.9	-56.0	3.8	1.49e+00	0	49	104	0	53	20431
2026-01-06 23:05:10.28	19.86	3.57	-40.9	-56.0	3.8	1.49e+00	0	50	104	0	53	20436
2026-01-06 23:05:14.32	19.99	3.84	-40.9	-56.0	3.8	1.49e+00	0	50	104	0	53	20381
2026-01-06 23:05:18.36	20.13	4.11	-40.9	-56.0	3.8	1.49e+00	0	50	104	0	53	20355
2026-01-06 23:05:22.40	20.27	4.38	-40.9	-56.0	3.8	1.49e+00	0	50	104	0	53	20414
2026-01-06 23:05:26.45	20.41	4.65	-40.9	-56.0	3.8	1.49e+00	0	51	104	0	53	20409
2026-01-06 23:05:30.49	20.55	4.93	-40.9	-56.0	3.8	1.49e+00	0	51	104	0	53	20309
2026-01-06 23:05:34.54	20.70	5.21	-40.9	-56.0	3.8	1.49e+00	0	51	104	0	53	20432
2026-01-06 23:05:38.58	20.85	5.49	-40.9	-56.0	3.8	1.49e+00	0	51	104	0	53	20412
2026-01-06 23:05:42.62	21.00	5.78	-40.9	-56.0	3.8	1.49e+00	0	52	104	0	53	20368
2026-01-06 23:05:46.67	21.15	6.07	-40.8	-56.0	3.8	1.49e+00	0	52	104	0	53	20360
2026-01-06 23:05:50.71	21.31	6.36	-40.9	-56.0	3.8	1.49e+00	0	52	104	0	53	20310
2026-01-06 23:05:54.76	21.47	6.65	-40.9	-56.0	3.8	1.49e+00	0	52	104	0	53	20357
2026-01-06 23:05:58.80	21.63	6.95	-40.9	-55.8	3.8	1.49e+00	0	52	104	0	53	20011
2026-01-06 23:06:02.84	21.80	7.25	-40.8	-55.2	3.8	1.49e+00	0	53	104	0	53	18525
2026-01-06 23:06:06.89	21.96	7.56	-40.8	-54.0	3.8	1.49e+00	0	53	104	0	53	16176
2026-01-06 23:06:10.93	22.14	7.87	-40.3	-49.1	5.9	5.07e-01	0	53	0	4194304	52	9737
2026-01-06 23:06:14.97	22.31	8.18	-40.5	-53.3	4.0	7.19e-01	0	53	0	11534336	51	16751
2026-01-06 23:06:19.01	22.49	8.49	-40.1	-44.4	11.7	2.42e-02	0	53	0	17825792	52	5696
2026-01-06 23:06:23.05	22.67	8.81	-40.7	-45.4	10.9	2.11e-03	0	53	0	25165824	52	6414
2026-01-06 23:06:27.09	22.86	9.14	-40.6	-44.9	11.6	6.36e-04	0	53	0	32505856	52	6006
2026-01-06 23:06:31.13	23.05	9.46	-40.6	-44.8	11.8	4.17e-04	0	53	0	39845888	52	5980
2026-01-06 23:06:35.17	23.24	9.80	-40.6	-44.6	12.1	2.48e-04	0	53	0	48234496	52	5843
2026-01-06 23:06:39.21	23.44	10.13	-40.4	-44.1	12.8	7.78e-05	0	54	0	55574528	52	5476
2026-01-06 23:06:43.24	23.64	10.47	-40.4	-43.9	13.1	5.72e-05	0	54	0	62914560	52	5355
2026-01-06 23:06:47.28	23.84	10.82	-40.5	-43.9	13.1	3.50e-05	0	54	0	70254592	52	5400
2026-01-06 23:06:51.32	24.05	11.16	-40.4	-43.7	13.4	2.13e-05	0	54	0	77594624	52	5268
2026-01-06 23:06:55.36	24.27	11.52	-40.2	-43.4	13.8	8.30e-06	0	54	0	85983232	52	5044
2026-01-06 23:06:59.39	24.49	11.88	-40.2	-43.3	14.0	2.20e-06	0	54	0	93323264	52	5012
2026-01-06 23:07:03.43	24.71	12.24	-40.1	-43.1	14.2	2.20e-06	0	54	0	100663296	52	4902
2026-01-06 23:07:07.47	24.94	12.61	-40.0	-43.0	14.3	7.00e-07	0	54	0	108003328	52	4862
2026-01-06 23:07:11.50	25.18	12.98	-40.0	-42.9	14.5	7.00e-07	0	54	0	116391936	51	5088
2026-01-06 23:07:15.54	25.42	13.36	-39.8	-42.5	15.0	0.00e+00	0	55	0	123731968	51	4865
2026-01-06 23:07:19.58	25.66	13.75	-39.8	-42.5	15.1	0.00e+00	0	55	0	131072000	51	4832
2026-01-06 23:07:23.62	25.92	14.14	-39.8	-42.4	15.3	0.00e+00	0	55	0	138412032	51	4785
2026-01-06 23:07:27.66	26.18	14.54	-39.8	-42.4	15.3	0.00e+00	0	55	0	145752064	51	4765
2026-01-06 23:07:31.70	26.44	14.94	-39.7	-42.3	15.4	0.00e+00	0	55	0	154140672	51	4729
2026-01-06 23:07:35.74	26.72	15.35	-39.7	-42.2	15.5	0.00e+00	0	55	0	161480704	51	4694
2026-01-06 23:07:39.78	27.00	15.76	-39.7	-42.2	15.6	0.00e+00	0	55	0	168820736	51	4678
2026-01-06 23:07:43.82	27.28	16.19	-39.6	-42.1	15.7	0.00e+00	0	55	0	176160768	51	4647
2026-01-06 23:07:47.85	27.58	16.62	-39.6	-42.0	15.8	0.00e+00	0	55	0	184549376	51	4571
2026-01-06 23:07:51.89	27.88	17.05	-39.5	-41.9	15.9	0.00e+00	0	55	0	191889408	51	4545
2026-01-06 23:07:55.94	28.19	17.50	-39.5	-41.8	16.1	0.00e+00	0	55	0	199229440	51	4488
2026-01-06 23:07:59.97	28.51	17.95	-39.5	-41.8	16.2	0.00e+00	0	55	0	206569472	50	4717
2026-01-06 23:08:04.01	28.84	18.41	-39.4	-41.7	16.3	0.00e+00	0	55	0	213909504	50	4702
2026-01-06 23:08:08.05	29.18	18.87	-39.5	-41.8	16.2	0.00e+00	0	56	0	222298112	50	4739
2026-01-06 23:08:12.09	29.53	19.35	-39.6	-42.0	16.1	0.00e+00	0	55	0	229638144	50	4823
2026-01-06 23:08:16.13	29.89	19.83	-39.5	-41.8	16.2	0.00e+00	0	55	0	236978176	50	4750
2026-01-06 23:08:20.17	30.26	20.32	-39.4	-41.7	16.3	0.00e+00	0	56	0	244318208	50	4688
2026-01-06 23:08:24.21	30.64	20.82	-39.5	-41.8	16.2	0.00e+00	0	56	0	252706816	50	4748
2026-01-06 23:08:28.24	31.04	21.33	-39.6	-41.9	16.2	0.00e+00	0	55	0	260046848	50	4802
2026-01-06 23:08:32.28	31.45	21.85	-39.6	-41.9	16.3	0.00e+00	0	55	0	267386880	50	4782
2026-01-06 23:08:36.32	31.87	22.37	-39.4	-41.7	16.5	0.00e+00	0	56	0	274726912	50	4660
2026-01-06 23:08:40.36	32.30	22.91	-39.5	-41.7	16.4	0.00e+00	0	56	0	282066944	50	4704
2026-01-06 23:08:44.40	32.75	23.46	-39.7	-42.0	16.2	0.00e+00	0	56	0	290455552	50	4848
2026-01-06 23:08:48.44	33.22	24.02	-39.6	-41.8	16.3	0.00e+00	0	56	0	297795584	50	4754
2026-01-06 23:08:52.48	33.70	24.58	-39.5	-41.7	16.5	0.00e+00	0	56	0	305135616	50	4676
2026-01-06 23:08:56.52	34.20	25.16	-39.6	-41.9	16.3	0.00e+00	0	56	0	312475648	50	4808
2026-01-06 23:09:00.55	34.71	25.75	-39.9	-42.3	16.0	0.00e+00	0	56	0	320864256	50	4999
2026-01-06 23:09:04.59	35.25	26.35	-39.8	-42.2	16.1	0.00e+00	0	56	0	328204288	50	4933
2026-01-06 23:09:08.63	35.80	26.96	-39.9	-42.3	16.0	0.00e+00	0	56	0	335544320	50	5023
2026-01-06 23:09:12.67	36.38	27.58	-40.4	-43.0	15.3	0.00e+00	0	56	0	342884352	51	5127
2026-01-06 23:09:16.71	36.98	28.21	-40.7	-43.4	14.9	0.00e+00	0	56	0	350224384	51	5390
2026-01-06 23:09:20.75	37.61	28.85	-40.8	-43.6	14.6	0.00e+00	0	56	0	358612992	52	5194
2026-01-06 23:09:24.79	38.25	29.51	-41.1	-44.2	14.0	7.00e-07	0	56	0	365953024	52	5532
2026-01-06 23:09:28.83	38.93	30.18	-41.5	-44.8	13.4	9.90e-06	0	56	0	373293056	53	5628
2026-01-06 23:09:32.87	39.63	30.85	-41.6	-45.0	13.2	2.89e-05	0	56	0	380633088	53	5747
2026-01-06 23:09:36.91	40.36	31.54	-41.3	-44.6	13.6	1.29e-05	0	56	0	389021696	53	5486
2026-01-06 23:09:40.95	41.13	32.25	-41.4	-44.7	13.5	6.80e-06	0	56	0	396361728	53	5570
2026-01-06 23:09:44.98	41.92	32.96	-41.2	-44.4	13.8	7.60e-06	0	56	0	403701760	53	5352
2026-01-06 23:09:49.02	42.76	33.68	-40.9	-43.8	14.5	0.00e+00	0	56	0	411041792	53	4984
2026-01-06 23:09:53.06	43.63	34.41	-40.8	-43.6	14.7	0.00e+00	0	56	0	418381824	53	4877
2026-01-06 23:09:57.10	44.53	35.16	-40.3	-42.9	15.3	0.00e+00	0	56	0	426770432	52	4793
2026-01-06 23:10:01.14	45.49	35.91	-40.2	-42.6	15.7	0.00e+00	0	56	0	434110464	52	4645
2026-01-06 23:10:05.18	46.48	36.67	-39.6	-41.7	16.6	0.00e+00	0	56	0	441450496	51	4440
2026-01-06 23:10:09.21	47.52	37.44	-39.9	-42.2	16.2	0.00e+00	0	56	0	448790528	50	4978
2026-01-06 23:10:13.25	48.62	38.22	-39.7	-42.0	16.4	0.00e+00	0	56	0	457179136	51	4552
2026-01-06 23:10:17.29	49.76	39.01	-39.8	-42.1	16.3	0.00e+00	0	56	0	464519168	50	4886
2026-01-06 23:10:21.32	50.96	39.79	-40.1	-42.5	15.9	0.00e+00	0	56	0	471859200	50	5155
2026-01-06 23:10:25.37	52.22	40.59	-40.0	-42.3	16.1	0.00e+00	0	56	0	479199232	50	5028
2026-01-06 23:10:29.40	53.54	41.38	-40.0	-42.3	16.2	0.00e+00	0	56	0	486539264	50	5013
2026-01-06 23:10:33.44	54.93	42.18	-40.5	-43.1	15.4	0.00e+00	0	56	0	494927872	51	5173
2026-01-06 23:10:37.48	56.39	42.97	-40.0	-42.4	16.1	0.00e+00	0	57	0	502267904	51	4778
2026-01-06 23:10:41.51	57.92	43.76	-40.8	-43.6	14.9	0.00e+00	0	57	0	509607936	52	5190
2026-01-06 23:10:45.55	59.53	44.54	-40.3	-42.7	15.7	0.00e+00	0	56	0	516947968	52	4691
2026-01-06 23:10:49.59	61.22	45.31	-41.9	-45.4	13.0	1.44e-05	0	57	0	525336576	54	5696
2026-01-06 23:10:53.63	62.99	46.07	-41.0	-43.8	14.6	7.00e-07	0	56	0	532676608	54	4736
2026-01-06 23:10:57.67	64.84	46.81	-41.6	-45.0	13.5	1.06e-05	0	57	0	540016640	53	5723
2026-01-06 23:11:01.71	66.79	47.53	-40.7	-43.4	15.0	7.00e-07	0	56	0	547356672	53	4789
2026-01-06 23:11:05.75	68.82	48.22	-40.9	-43.8	14.7	0.00e+00	0	57	0	554696704	53	4987
2026-01-06 23:11:09.78	70.94	48.89	-40.2	-42.7	15.8	0.00e+00	0	57	0	563085312	52	4675
2026-01-06 23:11:13.82	73.15	49.52	-40.0	-42.3	16.2	0.00e+00	0	57	0	570425344	51	4752
2026-01-06 23:11:17.86	75.46	50.12	-40.5	-43.0	15.6	0.00e+00	0	57	0	577765376	51	5120
2026-01-06 23:11:21.90	77.85	50.67	-40.1	-42.5	16.0	0.00e+00	0	57	0	585105408	52	4567
2026-01-06 23:11:25.94	80.33	51.17	-40.6	-43.2	15.3	0.00e+00	0	56	0	593494016	51	5253
2026-01-06 23:11:29.98	82.89	51.62	-39.8	-42.0	16.5	0.00e+00	0	56	0	600834048	51	4590
2026-01-06 23:11:34.01	85.52	52.02	-40.0	-42.4	16.2	0.00e+00	0	57	0	608174080	51	4761
2026-01-06 23:11:38.05	88.22	52.35	-40.0	-42.3	16.2	0.00e+00	0	57	0	615514112	51	4717
2026-01-06 23:11:42.09	90.97	52.63	-39.7	-41.9	16.7	0.00e+00	0	57	0	622854144	50	4781
2026-01-06 23:11:46.13	93.77	52.83	-38.8	-40.7	17.8	0.00e+00	0	57	0	631242752	49	4399
2026-01-06 23:11:50.17	96.60	52.97	-38.8	-40.7	17.8	0.00e+00	0	57	0	638582784	49	4420
2026-01-06 23:11:54.21	99.46	53.03	-38.9	-40.8	17.7	0.00e+00	0	57	0	645922816	49	4481
2026-01-06 23:11:58.25	102.31	53.02	-39.4	-41.4	17.1	0.00e+00	0	57	0	653262848	49	4801
2026-01-06 23:12:02.27	105.15	52.95	-39.3	-41.3	17.2	0.00e+00	0	57	0	661651456	49	4721
2026-01-06 23:12:06.31	107.98	52.80	-38.6	-40.5	18.0	0.00e+00	0	57	0	668991488	48	4551
2026-01-06 23:12:10.35	110.77	52.58	-38.6	-40.4	18.1	0.00e+00	0	56	0	676331520	48	4523
2026-01-06 23:12:14.39	113.52	52.30	-39.1	-41.1	17.3	0.00e+00	0	57	0	683671552	49	4628
2026-01-06 23:12:18.42	116.21	51.95	-39.6	-41.8	16.7	0.00e+00	0	57	0	691011584	50	4709
2026-01-06 23:12:22.46	118.83	51.54	-41.0	-43.8	14.6	0.00e+00	0	57	0	699400192	52	5334
2026-01-06 23:12:26.50	121.38	51.08	-41.0	-43.8	14.6	0.00e+00	0	57	0	706740224	52	5333
2026-01-06 23:12:30.54	123.85	50.57	-40.6	-43.2	15.2	0.00e+00	0	57	0	714080256	53	4695
2026-01-06 23:12:34.58	126.23	50.01	-42.1	-45.8	12.6	5.26e-05	0	57	0	721420288	54	5946
2026-01-06 23:12:38.61	128.52	49.40	-42.8	-47.2	11.3	1.64e-03	0	57	0	728760320	56	6222
2026-01-06 23:12:42.65	130.72	48.76	-42.7	-46.8	11.7	3.00e-04	0	57	0	737148928	56	5984
2026-01-06 23:12:46.69	132.83	48.09	-42.6	-46.6	11.9	1.02e-03	0	57	0	744488960	57	5466
2026-01-06 23:12:50.73	134.85	47.38	-43.2	-48.0	10.3	9.91e-03	0	57	0	751828992	57	6492
2026-01-06 23:12:54.77	136.78	46.66	-42.3	-46.2	12.1	2.04e-04	0	57	0	759169024	55	5873
2026-01-06 23:12:58.81	138.63	45.91	-40.8	-43.5	14.8	0.00e+00	0	57	0	767557632	53	4866
2026-01-06 23:13:02.84	140.38	45.15	-41.8	-45.2	13.1	5.95e-05	0	57	0	774897664	54	5544
2026-01-06 23:13:06.88	142.06	44.37	-41.3	-44.5	13.9	1.50e-06	0	57	0	782237696	53	5407
2026-01-06 23:13:10.92	143.66	43.59	-41.7	-45.2	13.1	8.39e-05	0	57	0	789577728	55	5230
2026-01-06 23:13:14.96	145.18	42.79	-42.4	-46.5	11.7	4.95e-05	0	57	0	796917760	55	6102
2026-01-06 23:13:18.99	146.62	42.00	-42.6	-46.7	11.7	6.26e-04	0	57	0	805306368	57	5551
2026-01-06 23:13:23.03	148.00	41.20	-44.3	-52.6	5.9	3.50e-01	0	57	0	812646400	59	9776
2026-01-06 23:13:27.07	149.32	40.40	-42.6	-47.2	10.8	2.45e-03	0	57	0	819986432	57	5859
2026-01-06 23:13:31.11	150.57	39.60	-43.9	-50.6	7.6	1.97e-01	0	57	0	827326464	59	7728
2026-01-06 23:13:35.15	151.76	38.81	-43.1	-47.9	10.3	2.38e-03	0	57	0	835715072	57	6409
2026-01-06 23:13:39.19	152.90	38.02	-43.4	-48.8	9.4	1.93e-02	0	57	0	843055104	57	7111
2026-01-06 23:13:43.23	153.98	37.24	-42.2	-45.9	12.5	1.24e-04	0	57	0	850395136	56	5377
2026-01-06 23:13:47.27	155.02	36.47	-43.0	-47.7	10.6	4.60e-03	0	57	0	857735168	56	6599
2026-01-06 23:13:51.31	156.01	35.70	-41.8	-45.3	12.9	8.39e-05	0	57	0	865075200	55	5324
2026-01-06 23:13:55.35	156.95	34.95	-42.3	-46.3	11.9	1.27e-04	0	57	0	873463808	55	5989
2026-01-06 23:13:59.39	157.85	34.20	-41.1	-44.1	14.2	3.00e-06	0	57	0	880803840	54	4900
2026-01-06 23:14:03.42	158.72	33.46	-41.4	-44.6	13.7	2.20e-06	0	57	0	888143872	53	5491
2026-01-06 23:14:07.46	159.54	32.74	-42.2	-46.3	11.9	8.03e-04	0	57	0	895483904	55	5938
2026-01-06 23:14:11.50	160.33	32.03	-41.4	-44.7	13.5	1.83e-05	0	57	0	903872512	54	5253
2026-01-06 23:14:15.53	161.09	31.32	-42.5	-46.9	11.3	8.14e-04	0	57	0	911212544	55	6354
2026-01-06 23:14:19.57	161.82	30.63	-42.4	-46.7	11.4	1.80e-03	0	57	0	918552576	55	6216
2026-01-06 23:14:23.61	162.51	29.95	-41.6	-45.1	13.1	5.72e-05	0	57	0	925892608	55	5162
2026-01-06 23:14:27.65	163.18	29.28	-41.1	-44.2	14.0	4.50e-06	0	57	0	933232640	54	4949
2026-01-06 23:14:31.68	163.82	28.63	-40.9	-43.9	14.2	7.00e-07	0	57	0	941621248	53	5065
2026-01-06 23:14:35.72	164.44	27.98	-41.4	-44.8	13.3	1.52e-05	0	57	0	948961280	53	5640
2026-01-06 23:14:39.76	165.04	27.35	-40.7	-43.6	14.5	7.00e-07	0	57	0	956301312	53	4908
2026-01-06 23:14:43.79	165.61	26.73	-40.8	-43.8	14.4	0.00e+00	0	57	0	963641344	52	5281
2026-01-06 23:14:47.83	166.16	26.12	-41.4	-44.9	13.2	2.67e-05	0	57	0	972029952	53	5694
2026-01-06 23:14:51.87	166.69	25.52	-41.2	-44.5	13.6	9.10e-06	0	57	0	979369984	53	5407
2026-01-06 23:14:55.91	167.20	24.93	-41.1	-44.3	13.8	1.50e-06	0	57	0	986710016	53	5290
2026-01-06 23:14:59.95	167.70	24.35	-40.6	-43.4	14.6	2.20e-06	0	57	0	994050048	53	4803
2026-01-06 23:15:03.98	168.17	23.78	-40.5	-43.3	14.8	0.00e+00	0	57	0	1001390080	52	5023
2026-01-06 23:15:08.02	168.63	23.23	-41.1	-44.4	13.6	6.10e-06	0	57	0	1009778688	52	5704
2026-01-06 23:15:12.05	169.08	22.68	-41.3	-44.6	13.4	1.52e-05	0	57	0	1017118720	53	5526
2026-01-06 23:15:16.09	169.51	22.14	-40.6	-43.6	14.4	7.00e-07	0	57	0	1024458752	53	4886
2026-01-06 23:15:20.13	169.93	21.61	-40.3	-43.0	15.1	0.00e+00	0	57	0	1031798784	52	4815
2026-01-06 23:15:24.17	170.33	21.09	-40.4	-43.2	14.7	7.00e-07	0	57	0	1039138816	52	4981
2026-01-06 23:15:28.21	170.72	20.58	-40.5	-43.3	14.7	7.00e-07	0	57	0	1047527424	52	5035
2026-01-06 23:15:32.25	171.10	20.08	-40.3	-43.0	15.0	0.00e+00	0	57	0	1054867456	52	4860
2026-01-06 23:15:36.29	171.46	19.59	-40.0	-42.5	15.5	0.00e+00	0	57	0	1062207488	51	4859
2026-01-06 23:15:40.33	171.82	19.11	-39.8	-42.3	15.7	0.00e+00	0	57	0	1069547520	51	4716
2026-01-06 23:15:44.37	172.17	18.63	-39.7	-42.2	15.8	0.00e+00	0	57	0	1077936128	51	4654
2026-01-06 23:15:48.40	172.50	18.17	-39.8	-42.4	15.6	0.00e+00	0	57	0	1085276160	51	4768
2026-01-06 23:15:52.44	172.83	17.71	-40.0	-42.6	15.3	0.00e+00	0	57	0	1092616192	51	4924
2026-01-06 23:15:56.48	173.14	17.26	-40.2	-42.9	15.0	0.00e+00	0	57	0	1099956224	51	5079
2026-01-06 23:16:00.52	173.45	16.81	-40.1	-42.9	15.0	7.00e-07	0	57	0	1108344832	51	5055
2026-01-06 23:16:04.56	173.75	16.37	-39.9	-42.5	15.3	0.00e+00	0	57	0	1115684864	51	4868
2026-01-06 23:16:08.60	174.04	15.94	-39.8	-42.3	15.5	0.00e+00	0	57	0	1123024896	51	4735
2026-01-06 23:16:12.63	174.32	15.52	-39.8	-42.4	15.4	0.00e+00	0	57	0	1130364928	51	4779
2026-01-06 23:16:16.67	174.60	15.11	-39.9	-42.5	15.3	0.00e+00	0	57	0	1137704960	51	4846
2026-01-06 23:16:20.71	174.86	14.70	-40.2	-42.9	14.8	0.00e+00	0	57	0	1146093568	51	5094
2026-01-06 23:16:24.75	175.13	14.29	-40.2	-43.1	14.6	7.00e-07	0	57	0	1153433600	51	5177
2026-01-06 23:16:28.79	175.38	13.89	-40.4	-43.4	14.3	0.00e+00	0	57	0	1160773632	51	5359
2026-01-06 23:16:32.83	175.63	13.50	-40.4	-43.4	14.3	0.00e+00	0	57	0	1168113664	51	5361
2026-01-06 23:16:36.86	175.87	13.12	-40.3	-43.3	14.3	7.00e-07	0	57	0	1175453696	51	5295
2026-01-06 23:16:40.90	176.11	12.74	-40.3	-43.2	14.4	0.00e+00	0	57	0	1183842304	51	5259
2026-01-06 23:16:44.94	176.34	12.36	-40.3	-43.2	14.4	1.50e-06	0	57	0	1191182336	51	5242
2026-01-06 23:16:48.98	176.56	11.99	-40.2	-43.0	14.5	7.00e-07	0	57	0	1198522368	51	5144
2026-01-06 23:16:53.02	176.79	11.63	-40.2	-43.1	14.4	0.00e+00	0	57	0	1205862400	51	5183
2026-01-06 23:16:57.06	177.00	11.27	-40.2	-43.2	14.3	0.00e+00	0	57	0	1214251008	51	5227
2026-01-06 23:17:01.10	177.21	10.91	-40.3	-43.4	14.0	5.30e-06	0	57	0	1221591040	51	5341
2026-01-06 23:17:05.14	177.42	10.56	-40.3	-43.4	13.8	3.80e-06	0	57	0	1228931072	51	5400
2026-01-06 23:17:09.18	177.62	10.22	-40.5	-43.8	13.5	1.37e-05	0	57	0	1236271104	51	5614
2026-01-06 23:17:13.21	177.81	9.88	-40.7	-44.1	13.1	3.43e-05	0	57	0	1243611136	51	5849
2026-01-06 23:17:17.25	178.01	9.54	-40.7	-44.3	12.8	5.64e-05	0	57	0	1251999744	52	5622
2026-01-06 23:17:21.28	178.19	9.21	-40.7	-44.4	12.7	6.63e-05	0	57	0	1259339776	52	5678
2026-01-06 23:17:25.32	178.38	8.88	-40.7	-44.3	12.7	9.91e-05	0	57	0	1266679808	52	5655
2026-01-06 23:17:29.36	178.56	8.56	-40.7	-44.4	12.6	8.16e-05	0	57	0	1274019840	52	5681
2026-01-06 23:17:33.40	178.74	8.24	-40.7	-44.4	12.5	1.14e-04	0	57	0	1282408448	52	5717
2026-01-06 23:17:37.44	178.91	7.92	-44.3	-58.7	3.8	1.49e+00	0	57	104	1288699904	59	19802
2026-01-06 23:17:41.48	179.08	7.61	-44.9	-59.6	3.8	1.49e+00	0	57	104	1288699904	60	20643
2026-01-06 23:17:45.52	179.25	7.30	-45.1	-59.9	3.8	1.49e+00	0	57	104	1288699904	60	21264
2026-01-06 23:17:49.56	179.41	7.00	-45.0	-59.8	3.8	1.49e+00	0	57	104	1288699904	60	21203
2026-01-06 23:17:53.60	179.57	6.69	-45.0	-59.8	3.8	1.49e+00	0	57	104	1288699904	60	21114
2026-01-06 23:17:57.64	179.73	6.40	-45.0	-59.8	3.8	1.49e+00	0	57	104	1288699904	60	21031
2026-01-06 23:18:01.68	179.88	6.10	-44.9	-59.8	3.8	1.49e+00	0	57	104	1288699904	60	21019
2026-01-06 23:18:05.72	180.03	5.81	-44.9	-59.7	3.8	1.49e+00	0	57	104	1288699904	60	21008
2026-01-06 23:18:09.76	180.18	5.52	-44.9	-59.7	3.8	1.49e+00	0	57	104	1288699904	60	20979
2026-01-06 23:18:13.80	180.33	5.23	-44.9	-59.7	3.8	1.49e+00	0	57	104	1288699904	60	20968
2026-01-06 23:18:17.85	180.47	4.95	-44.9	-59.7	3.8	1.49e+00	0	57	104	1288699904	60	20995
2026-01-06 23:18:21.89	180.61	4.67	-44.9	-59.7	3.8	1.49e+00	0	57	104	1288699904	60	20996
2026-01-06 23:18:25.93	180.75	4.39	-44.9	-59.7	3.8	1.49e+00	0	57	104	1288699904	60	20963
2026-01-06 23:18:29.97	180.89	4.12	-44.9	-59.7	3.8	1.49e+00	0	57	104	1288699904	60	20956
2026-01-06 23:18:34.01	181.02	3.85	-44.9	-59.7	3.8	1.49e+00	0	57	104	1288699904	60	20908
2026-01-06 23:18:38.06	181.15	3.58	-44.9	-59.7	3.8	1.49e+00	0	58	104	1288699904	60	20885
2026-01-06 23:18:42.10	181.28	3.31	-44.9	-59.7	3.8	1.49e+00	0	57	104	1288699904	60	20863
2026-01-06 23:18:46.14	181.41	3.04	-44.9	-59.7	3.8	1.49e+00	0	57	104	1288699904	60	20859
2026-01-06 23:18:50.19	181.53	2.78	-44.9	-59.7	3.8	1.49e+00	0	57	104	1288699904	60	20927
2026-01-06 23:18:54.23	181.66	2.52	-44.9	-59.7	3.8	1.49e+00	0	57	104	1288699904	60	20882
2026-01-06 23:18:58.27	181.78	2.26	-44.9	-59.7	3.8	1.49e+00	0	57	104	1288699904	60	20862
2026-01-06 23:19:02.32	181.90	2.01	-44.9	-59.7	3.8	1.49e+00	0	58	104	1288699904	60	20893

#Closed at: 2026-01-06 23:19:03
#Recorded file [1288 MB]: D:/lorett/data/31039_260107_020445.dat