passes_logs/2026/01/06/R2.0S_Moscow/R2.0S_Moscow__20260106_131528_FENGYUN_3D_rec.log

#Pass ID: 20260106_131528_FENGYUN 3D
#Satellite: FENGYUN 3D
#Configuration: FENGYUN 3D
#almurnet v.1.7.20251203
#Start time: 2026-01-06 13:15:30

#Version: 2.2.20231116
#Station: R2.0S_Moscow
#Location: 37.707566 lon 55.798166 lat
#TLE: 1 43010U 17072A   26005.63011380 -.00000074  00000+0 -13266-4 0  9994
#TLE: 2 43010  98.9921 337.3013 0002022 125.0204 235.1161 14.19691768421927

#Time	Az	El	Level	Level2	SNR	BER	BlckErr	Temp	State	Recorded	gain1	gain2
2026-01-06 13:15:30.08	199.85	2.08	-43.9	-55.5	3.8	8.46e-01	0	47	0	0	59	13576
2026-01-06 13:15:34.11	200.11	2.32	-43.9	-55.5	3.8	8.46e-01	0	47	104	0	59	13619
2026-01-06 13:15:38.16	200.36	2.55	-43.9	-55.5	3.8	8.46e-01	0	48	104	0	59	13574
2026-01-06 13:15:42.20	200.62	2.79	-43.9	-55.5	3.8	8.47e-01	0	48	104	0	59	13619
2026-01-06 13:15:46.24	200.89	3.03	-43.9	-55.5	3.8	8.47e-01	0	48	104	0	59	13587
2026-01-06 13:15:50.28	201.16	3.27	-43.8	-55.4	3.8	8.45e-01	0	48	104	0	59	13561
2026-01-06 13:15:54.32	201.43	3.51	-43.9	-55.4	3.8	8.46e-01	0	49	104	0	59	13556
2026-01-06 13:15:58.37	201.71	3.75	-43.8	-55.4	3.8	8.46e-01	0	49	104	0	59	13557
2026-01-06 13:16:02.41	201.99	4.00	-43.9	-55.5	3.8	8.47e-01	0	49	104	0	59	13586
2026-01-06 13:16:06.45	202.27	4.25	-43.9	-55.4	3.8	8.45e-01	0	49	104	0	59	13529
2026-01-06 13:16:10.50	202.57	4.50	-43.9	-55.5	3.8	8.46e-01	0	49	104	0	59	13577
2026-01-06 13:16:14.54	202.86	4.74	-43.9	-55.4	3.8	8.45e-01	0	50	104	0	59	13553
2026-01-06 13:16:18.58	203.16	5.00	-43.8	-55.4	3.8	8.46e-01	0	50	104	0	59	13496
2026-01-06 13:16:22.62	203.47	5.25	-43.8	-55.3	3.8	8.45e-01	0	50	104	0	59	13310
2026-01-06 13:16:26.66	203.78	5.51	-43.7	-54.1	3.8	8.45e-01	0	51	104	0	59	11616
2026-01-06 13:16:30.70	204.09	5.76	-43.5	-52.7	3.9	8.43e-01	0	50	104	0	59	9863
2026-01-06 13:16:34.75	204.42	6.02	-43.6	-53.1	4.0	8.44e-01	0	51	104	0	58	10960
2026-01-06 13:16:38.79	204.74	6.28	-43.8	-54.8	3.8	8.46e-01	0	51	104	0	58	13351
2026-01-06 13:16:42.83	205.07	6.55	-43.7	-53.9	3.8	8.46e-01	0	51	104	0	58	12087
2026-01-06 13:16:46.88	205.41	6.81	-43.5	-52.8	3.9	8.44e-01	0	51	104	0	58	10654
2026-01-06 13:16:50.92	205.76	7.08	-42.5	-48.0	6.2	3.49e-01	0	51	0	3145728	56	6862
2026-01-06 13:16:54.97	206.11	7.35	-40.2	-43.4	10.7	4.55e-03	0	52	0	26214400	52	5043
2026-01-06 13:16:59.01	206.47	7.62	-38.1	-40.2	14.0	9.10e-06	0	52	0	49283072	48	4417
2026-01-06 13:17:03.05	206.83	7.89	-36.9	-38.8	15.3	0.00e+00	0	52	0	71303168	45	4443
2026-01-06 13:17:07.09	207.20	8.16	-37.9	-39.9	14.3	2.20e-06	0	52	0	94371840	46	4808
2026-01-06 13:17:11.14	207.58	8.44	-37.1	-38.9	15.3	0.00e+00	0	52	0	114294784	46	4289
2026-01-06 13:17:15.18	207.96	8.72	-36.7	-38.5	15.8	0.00e+00	0	52	0	137363456	45	4298
2026-01-06 13:17:19.22	208.35	9.00	-36.8	-38.6	15.7	0.00e+00	0	53	0	160432128	45	4347
2026-01-06 13:17:23.26	208.75	9.28	-36.7	-38.4	15.9	0.00e+00	0	53	0	182452224	45	4276
2026-01-06 13:17:27.30	209.15	9.56	-36.6	-38.3	16.0	0.00e+00	0	53	0	205520896	45	4209
2026-01-06 13:17:31.34	209.57	9.85	-36.4	-38.1	16.3	0.00e+00	0	53	0	228589568	44	4346
2026-01-06 13:17:35.38	209.99	10.14	-36.4	-38.0	16.4	0.00e+00	0	53	0	250609664	44	4337
2026-01-06 13:17:39.42	210.42	10.43	-36.3	-38.0	16.4	0.00e+00	0	53	0	273678336	44	4319
2026-01-06 13:17:43.46	210.86	10.72	-36.3	-37.9	16.5	0.00e+00	0	53	0	296747008	44	4263
2026-01-06 13:17:47.50	211.30	11.02	-36.1	-37.8	16.7	0.00e+00	0	53	0	318767104	44	4199
2026-01-06 13:17:51.54	211.76	11.31	-36.0	-37.6	16.8	0.00e+00	0	53	0	341835776	44	4135
2026-01-06 13:17:55.59	212.22	11.61	-35.8	-37.4	17.0	0.00e+00	0	54	0	364904448	43	4250
2026-01-06 13:17:59.63	212.70	11.91	-35.6	-37.2	17.2	0.00e+00	0	53	0	387973120	43	4147
2026-01-06 13:18:03.67	213.18	12.21	-35.6	-37.1	17.2	0.00e+00	0	53	0	409993216	43	4143
2026-01-06 13:18:07.71	213.67	12.52	-35.8	-37.3	17.1	0.00e+00	0	54	0	433061888	43	4219
2026-01-06 13:18:11.75	214.17	12.82	-35.7	-37.2	17.1	0.00e+00	0	54	0	455081984	43	4187
2026-01-06 13:18:15.79	214.69	13.13	-35.6	-37.2	17.2	0.00e+00	0	54	0	478150656	43	4156
2026-01-06 13:18:19.83	215.21	13.44	-35.6	-37.1	17.3	0.00e+00	0	54	0	501219328	43	4137
2026-01-06 13:18:23.88	215.74	13.75	-35.4	-36.9	17.5	0.00e+00	0	54	0	523239424	42	4265
2026-01-06 13:18:27.92	216.29	14.07	-35.1	-36.5	17.9	0.00e+00	0	54	0	546308096	42	4090
2026-01-06 13:18:31.96	216.84	14.38	-35.2	-36.7	17.7	0.00e+00	0	54	0	569376768	42	4167
2026-01-06 13:18:36.00	217.41	14.70	-35.1	-36.5	17.9	0.00e+00	0	54	0	592445440	42	4086
2026-01-06 13:18:40.04	217.99	15.02	-35.0	-36.4	18.0	0.00e+00	0	54	0	614465536	41	4266
2026-01-06 13:18:44.08	218.58	15.34	-35.0	-36.4	18.1	0.00e+00	0	54	0	637534208	41	4264
2026-01-06 13:18:48.13	219.19	15.66	-34.8	-36.2	18.3	0.00e+00	0	54	0	659554304	41	4149
2026-01-06 13:18:52.17	219.81	15.98	-34.8	-36.2	18.3	0.00e+00	0	54	0	682622976	41	4175
2026-01-06 13:18:56.21	220.44	16.30	-34.7	-36.2	18.3	0.00e+00	0	54	0	705691648	41	4149
2026-01-06 13:19:00.24	221.08	16.63	-34.6	-36.0	18.5	0.00e+00	0	55	0	728760320	41	4063
2026-01-06 13:19:04.29	221.74	16.95	-34.5	-35.8	18.7	0.00e+00	0	55	0	750780416	41	4004
2026-01-06 13:19:08.33	222.41	17.28	-34.5	-35.9	18.7	0.00e+00	0	55	0	773849088	40	4247
2026-01-06 13:19:12.37	223.09	17.60	-34.5	-35.8	18.7	0.00e+00	0	55	0	796917760	40	4236
2026-01-06 13:19:16.40	223.79	17.93	-34.4	-35.7	18.8	0.00e+00	0	55	0	818937856	40	4175
2026-01-06 13:19:20.44	224.50	18.25	-34.3	-35.6	18.9	0.00e+00	0	55	0	842006528	40	4113
2026-01-06 13:19:24.48	225.23	18.58	-34.2	-35.6	18.9	0.00e+00	0	55	0	865075200	40	4113
2026-01-06 13:19:28.52	225.98	18.91	-34.1	-35.4	19.1	0.00e+00	0	55	0	887095296	40	4024
2026-01-06 13:19:32.56	226.74	19.23	-34.2	-35.5	19.0	0.00e+00	0	55	0	910163968	40	4091
2026-01-06 13:19:36.60	227.52	19.56	-34.1	-35.4	19.2	0.00e+00	0	55	0	933232640	40	4014
2026-01-06 13:19:40.63	228.31	19.88	-33.9	-35.2	19.4	0.00e+00	0	55	0	955252736	39	4157
2026-01-06 13:19:44.67	229.12	20.20	-33.9	-35.2	19.4	0.00e+00	0	55	0	978321408	39	4158
2026-01-06 13:19:48.71	229.94	20.52	-33.9	-35.2	19.4	0.00e+00	0	55	0	1001390080	39	4160
2026-01-06 13:19:52.75	230.79	20.84	-33.9	-35.2	19.4	0.00e+00	0	55	0	1023410176	39	4171
2026-01-06 13:19:56.79	231.65	21.16	-33.7	-35.0	19.6	0.00e+00	0	55	0	1046478848	39	4076
2026-01-06 13:20:00.82	232.52	21.47	-33.9	-35.1	19.4	0.00e+00	0	55	0	1068498944	39	4143
2026-01-06 13:20:04.87	233.42	21.78	-33.8	-35.1	19.5	0.00e+00	0	55	0	1091567616	39	4109
2026-01-06 13:20:08.91	234.33	22.09	-33.3	-34.6	19.9	0.00e+00	0	55	0	1114636288	38	4116
2026-01-06 13:20:12.95	235.26	22.40	-33.5	-34.8	19.7	0.00e+00	0	55	0	1137704960	38	4218
2026-01-06 13:20:16.99	236.21	22.69	-33.5	-34.7	19.8	0.00e+00	0	55	0	1159725056	38	4179
2026-01-06 13:20:21.02	237.17	22.99	-33.7	-35.0	19.6	0.00e+00	0	55	0	1182793728	38	4296
2026-01-06 13:20:25.06	238.15	23.28	-33.3	-34.5	20.0	0.00e+00	0	55	0	1205862400	38	4076
2026-01-06 13:20:29.10	239.16	23.56	-33.4	-34.7	19.9	0.00e+00	0	55	0	1227882496	38	4154
2026-01-06 13:20:33.14	240.17	23.84	-33.3	-34.5	20.1	0.00e+00	0	55	0	1250951168	38	4087
2026-01-06 13:20:37.18	241.21	24.11	-33.2	-34.4	20.2	0.00e+00	0	55	0	1274019840	38	4028
2026-01-06 13:20:41.22	242.26	24.38	-32.9	-34.1	20.4	0.00e+00	0	55	0	1296039936	37	4128
2026-01-06 13:20:45.26	243.34	24.63	-32.9	-34.1	20.4	0.00e+00	0	56	0	1319108608	37	4125
2026-01-06 13:20:49.30	244.42	24.88	-33.2	-34.3	20.7	0.00e+00	0	55	0	1342177280	37	4226
2026-01-06 13:20:53.34	245.53	25.12	-33.1	-34.1	20.9	0.00e+00	0	55	0	1364197376	37	4138
2026-01-06 13:20:57.39	246.65	25.36	-33.1	-34.1	20.9	0.00e+00	0	55	0	1387266048	37	4133
2026-01-06 13:21:01.43	247.79	25.58	-33.1	-34.2	20.8	0.00e+00	0	55	0	1410334720	37	4175
2026-01-06 13:21:05.47	248.94	25.79	-33.0	-34.1	20.9	0.00e+00	0	56	0	1432354816	37	4124
2026-01-06 13:21:09.51	250.11	25.99	-32.7	-33.8	21.2	0.00e+00	0	56	0	1455423488	37	3971
2026-01-06 13:21:13.55	251.29	26.18	-33.0	-34.1	21.0	0.00e+00	0	56	0	1478492160	37	4106
2026-01-06 13:21:17.59	252.48	26.36	-33.0	-34.1	20.9	0.00e+00	0	55	0	1500512256	37	4121
2026-01-06 13:21:21.63	253.69	26.52	-33.0	-34.1	20.9	0.00e+00	0	56	0	1523580928	37	4125
2026-01-06 13:21:25.67	254.91	26.68	-32.9	-34.0	21.1	0.00e+00	0	56	0	1546649600	37	4057
2026-01-06 13:21:29.72	256.14	26.82	-33.0	-34.0	21.0	0.00e+00	0	56	0	1568669696	37	4090
2026-01-06 13:21:33.76	257.38	26.94	-32.9	-34.0	21.1	0.00e+00	0	56	0	1591738368	37	4060
2026-01-06 13:21:37.80	258.63	27.06	-32.8	-33.8	21.2	0.00e+00	0	56	0	1614807040	37	3995
2026-01-06 13:21:41.84	259.89	27.16	-32.7	-33.8	21.3	0.00e+00	0	56	0	1637875712	37	3972
2026-01-06 13:21:45.88	261.15	27.24	-32.6	-33.6	21.4	0.00e+00	0	56	0	1659895808	37	3905
2026-01-06 13:21:49.92	262.42	27.31	-32.8	-33.9	21.1	0.00e+00	0	56	0	1682964480	37	4027
2026-01-06 13:21:53.96	263.70	27.37	-33.0	-34.0	21.0	0.00e+00	0	55	0	1704984576	37	4091
2026-01-06 13:21:58.00	264.97	27.41	-33.0	-34.1	21.0	0.00e+00	0	56	0	1728053248	37	4103
2026-01-06 13:22:02.04	266.25	27.43	-32.7	-33.8	21.3	0.00e+00	0	56	0	1751121920	37	3977
2026-01-06 13:22:06.08	267.54	27.44	-32.8	-33.9	21.2	0.00e+00	0	56	0	1773142016	37	4007
2026-01-06 13:22:10.12	268.82	27.44	-32.6	-33.7	21.4	0.00e+00	0	56	0	1796210688	37	3925
2026-01-06 13:22:14.16	270.10	27.42	-32.9	-34.0	21.0	0.00e+00	0	56	0	1819279360	37	4078
2026-01-06 13:22:18.20	271.38	27.38	-32.8	-33.9	21.2	0.00e+00	0	56	0	1842348032	37	4011
2026-01-06 13:22:22.24	272.65	27.33	-32.9	-33.9	21.1	0.00e+00	0	56	0	1864368128	37	4036
2026-01-06 13:22:26.28	273.93	27.27	-32.7	-33.7	21.3	0.00e+00	0	56	0	1887436800	37	3952
2026-01-06 13:22:30.32	275.19	27.19	-32.9	-34.0	21.1	0.00e+00	0	56	0	1909456896	37	4058
2026-01-06 13:22:34.37	276.45	27.09	-33.0	-34.1	21.0	0.00e+00	0	56	0	1932525568	37	4102
2026-01-06 13:22:38.41	277.70	26.99	-33.0	-34.1	21.0	0.00e+00	0	56	0	1955594240	37	4107
2026-01-06 13:22:42.45	278.94	26.86	-32.7	-33.7	21.3	0.00e+00	0	56	0	1978662912	37	3942
2026-01-06 13:22:46.49	280.17	26.73	-33.0	-34.1	21.0	0.00e+00	0	56	0	2000683008	37	4115
2026-01-06 13:22:50.53	281.39	26.58	-33.0	-34.1	21.0	0.00e+00	0	56	0	2023751680	37	4102
2026-01-06 13:22:54.57	282.60	26.42	-33.0	-34.1	20.9	0.00e+00	0	56	0	2046820352	37	4121
2026-01-06 13:22:58.61	283.80	26.25	-33.0	-34.1	20.9	0.00e+00	0	56	0	2068840448	37	4114
2026-01-06 13:23:02.65	284.98	26.06	-33.4	-34.5	20.5	0.00e+00	0	56	0	2091909120	37	4316
2026-01-06 13:23:06.70	286.15	25.87	-33.2	-34.3	20.8	0.00e+00	0	56	0	2114977792	37	4211
2026-01-06 13:23:10.74	287.31	25.66	-33.1	-34.2	20.9	0.00e+00	0	56	0	2136997888	37	4146
2026-01-06 13:23:14.78	288.45	25.44	-33.1	-34.2	20.9	0.00e+00	0	56	0	2160066560	37	4147
2026-01-06 13:23:18.82	289.57	25.22	-33.4	-34.5	20.5	0.00e+00	0	56	0	2183135232	37	4324
2026-01-06 13:23:22.85	290.67	24.98	-33.3	-34.4	20.6	0.00e+00	0	56	0	2205155328	37	4263
2026-01-06 13:23:26.90	291.77	24.74	-33.5	-34.7	20.4	0.00e+00	0	56	0	2228224000	37	4398
2026-01-06 13:23:30.93	292.84	24.48	-33.2	-34.3	20.7	0.00e+00	0	56	0	2251292672	37	4226
2026-01-06 13:23:34.97	293.90	24.22	-33.5	-34.6	20.4	0.00e+00	0	56	0	2273312768	37	4364
2026-01-06 13:23:39.01	294.93	23.96	-33.4	-34.5	20.5	0.00e+00	0	56	0	2296381440	37	4326
2026-01-06 13:23:43.05	295.96	23.68	-33.8	-34.9	20.1	0.00e+00	0	56	0	2319450112	38	4287
2026-01-06 13:23:47.09	296.96	23.40	-33.6	-34.7	20.3	0.00e+00	0	56	0	2341470208	38	4162
2026-01-06 13:23:51.13	297.95	23.12	-33.6	-34.7	20.3	0.00e+00	0	56	0	2364538880	38	4153
2026-01-06 13:23:55.17	298.92	22.83	-33.9	-35.1	19.9	0.00e+00	0	56	0	2387607552	38	4355
2026-01-06 13:23:59.21	299.87	22.53	-34.0	-35.2	19.9	0.00e+00	0	56	0	2409627648	38	4410
2026-01-06 13:24:03.25	300.80	22.23	-33.9	-35.1	19.9	0.00e+00	0	56	0	2432696320	38	4359
2026-01-06 13:24:07.29	301.72	21.93	-34.0	-35.2	19.8	0.00e+00	0	56	0	2455764992	38	4411
2026-01-06 13:24:11.33	302.61	21.62	-33.8	-35.0	20.0	0.00e+00	0	56	0	2478833664	38	4308
2026-01-06 13:24:15.37	303.49	21.31	-34.0	-35.1	19.8	0.00e+00	0	56	0	2500853760	38	4385
2026-01-06 13:24:19.42	304.36	20.99	-34.2	-35.4	19.6	0.00e+00	0	56	0	2523922432	39	4249
2026-01-06 13:24:23.46	305.21	20.68	-34.4	-35.6	19.4	0.00e+00	0	56	0	2545942528	39	4361
2026-01-06 13:24:27.50	306.03	20.36	-34.6	-35.8	19.1	0.00e+00	0	56	0	2569011200	39	4470
2026-01-06 13:24:31.54	306.85	20.04	-34.7	-36.0	18.9	0.00e+00	0	56	0	2592079872	40	4296
2026-01-06 13:24:35.58	307.64	19.72	-34.4	-35.7	19.2	0.00e+00	0	56	0	2615148544	40	4146
2026-01-06 13:24:39.63	308.42	19.40	-34.3	-35.5	19.4	0.00e+00	0	56	0	2637168640	40	4058
2026-01-06 13:24:43.66	309.19	19.08	-34.6	-35.8	19.0	0.00e+00	0	56	0	2660237312	40	4233
2026-01-06 13:24:47.71	309.94	18.75	-34.8	-36.1	18.7	0.00e+00	0	56	0	2682257408	40	4373
2026-01-06 13:24:51.75	310.67	18.43	-34.9	-36.1	18.7	0.00e+00	0	56	0	2705326080	40	4374
2026-01-06 13:24:55.78	311.39	18.11	-35.0	-36.3	18.6	0.00e+00	0	56	0	2728394752	40	4463
2026-01-06 13:24:59.82	312.09	17.78	-34.9	-36.2	18.7	0.00e+00	0	56	0	2750414848	40	4404
2026-01-06 13:25:03.86	312.78	17.46	-35.1	-36.4	18.4	0.00e+00	0	56	0	2773483520	40	4524
2026-01-06 13:25:07.90	313.45	17.14	-35.1	-36.4	18.4	0.00e+00	0	56	0	2796552192	40	4514
2026-01-06 13:25:11.95	314.11	16.81	-35.2	-36.5	18.3	0.00e+00	0	56	0	2819620864	41	4337
2026-01-06 13:25:15.99	314.76	16.49	-35.1	-36.3	18.4	0.00e+00	0	56	0	2841640960	41	4240
2026-01-06 13:25:20.03	315.40	16.17	-35.1	-36.3	18.4	0.00e+00	0	56	0	2864709632	41	4237
2026-01-06 13:25:24.07	316.02	15.85	-35.3	-36.7	18.1	0.00e+00	0	56	0	2886729728	41	4394
2026-01-06 13:25:28.11	316.62	15.53	-35.3	-36.7	18.1	0.00e+00	0	56	0	2909798400	41	4397
2026-01-06 13:25:32.15	317.22	15.22	-35.3	-36.7	18.1	0.00e+00	0	56	0	2932867072	41	4399
2026-01-06 13:25:36.19	317.80	14.90	-35.5	-36.9	17.8	0.00e+00	0	56	0	2955935744	41	4525
2026-01-06 13:25:40.23	318.37	14.59	-35.6	-37.0	17.7	0.00e+00	0	56	0	2977955840	41	4548
2026-01-06 13:25:44.27	318.93	14.27	-35.6	-37.1	17.7	0.00e+00	0	56	0	3001024512	41	4599
2026-01-06 13:25:48.31	319.48	13.96	-35.8	-37.2	17.6	0.00e+00	0	56	0	3024093184	42	4394
2026-01-06 13:25:52.35	320.02	13.65	-35.8	-37.2	17.5	0.00e+00	0	56	0	3046113280	42	4392
2026-01-06 13:25:56.39	320.55	13.34	-35.8	-37.2	17.4	0.00e+00	0	56	0	3069181952	42	4431
2026-01-06 13:26:00.44	321.07	13.04	-36.0	-37.4	17.3	0.00e+00	0	56	0	3092250624	42	4528
2026-01-06 13:26:04.48	321.57	12.73	-36.1	-37.5	17.1	0.00e+00	0	56	0	3114270720	42	4588
2026-01-06 13:26:08.52	322.07	12.43	-36.0	-37.5	17.1	0.00e+00	0	56	0	3137339392	42	4578
2026-01-06 13:26:12.56	322.55	12.13	-35.8	-37.3	17.3	0.00e+00	0	56	0	3160408064	42	4458
2026-01-06 13:26:16.60	323.03	11.83	-36.0	-37.4	17.1	0.00e+00	0	56	0	3182428160	42	4528
2026-01-06 13:26:20.64	323.50	11.54	-36.1	-37.6	16.9	0.00e+00	0	56	0	3205496832	42	4636
2026-01-06 13:26:24.68	323.96	11.24	-36.2	-37.8	16.8	0.00e+00	0	56	0	3228565504	43	4445
2026-01-06 13:26:28.72	324.41	10.95	-36.3	-37.8	16.7	0.00e+00	0	56	0	3250585600	43	4454
2026-01-06 13:26:32.76	324.85	10.66	-36.5	-38.0	16.4	0.00e+00	0	56	0	3273654272	43	4596
2026-01-06 13:26:36.79	325.28	10.37	-36.6	-38.2	16.2	0.00e+00	0	56	0	3296722944	43	4684
2026-01-06 13:26:40.83	325.71	10.08	-36.9	-38.6	16.0	0.00e+00	0	56	0	3318743040	44	4618
2026-01-06 13:26:44.86	326.13	9.80	-37.0	-38.7	15.9	0.00e+00	0	56	0	3341811712	44	4677
2026-01-06 13:26:48.91	326.54	9.52	-37.2	-38.9	15.6	0.00e+00	0	56	0	3364880384	44	4785
2026-01-06 13:26:52.95	326.94	9.24	-37.1	-38.8	15.7	0.00e+00	0	56	0	3386900480	45	4480
2026-01-06 13:26:57.00	327.34	8.96	-37.1	-38.8	15.6	0.00e+00	0	56	0	3409969152	45	4474
2026-01-06 13:27:01.04	327.72	8.68	-37.2	-39.0	15.4	0.00e+00	0	56	0	3433037824	45	4573
2026-01-06 13:27:05.08	328.10	8.41	-37.3	-39.1	15.3	0.00e+00	0	56	0	3456106496	45	4605
2026-01-06 13:27:09.12	328.48	8.13	-37.5	-39.3	15.0	0.00e+00	0	56	0	3478126592	45	4753
2026-01-06 13:27:13.16	328.85	7.86	-44.5	-55.9	3.8	8.46e-01	0	56	104	3492806656	59	14358
2026-01-06 13:27:17.20	329.21	7.59	-45.0	-56.9	3.8	8.46e-01	0	56	104	3492806656	60	15070
2026-01-06 13:27:21.24	329.56	7.33	-45.1	-57.0	3.8	8.46e-01	0	56	104	3492806656	60	15266
2026-01-06 13:27:25.28	329.91	7.06	-45.0	-56.9	3.8	8.45e-01	0	56	104	3492806656	60	15106
2026-01-06 13:27:29.32	330.26	6.80	-45.0	-56.8	3.8	8.47e-01	0	56	104	3492806656	60	14996
2026-01-06 13:27:33.36	330.59	6.54	-45.0	-56.8	3.8	8.46e-01	0	56	104	3492806656	60	15006
2026-01-06 13:27:37.39	330.92	6.28	-45.0	-56.8	3.8	8.46e-01	0	56	104	3492806656	60	15009
2026-01-06 13:27:41.44	331.25	6.02	-45.0	-56.8	3.8	8.45e-01	0	57	104	3492806656	60	14968
2026-01-06 13:27:45.48	331.57	5.76	-45.0	-56.9	3.8	8.47e-01	0	56	104	3492806656	60	15056
2026-01-06 13:27:49.52	331.89	5.51	-44.9	-56.8	3.8	8.45e-01	0	56	104	3492806656	60	15038
2026-01-06 13:27:53.56	332.20	5.26	-44.9	-56.8	3.8	8.46e-01	0	57	104	3492806656	60	14996
2026-01-06 13:27:57.60	332.50	5.01	-44.9	-56.8	3.8	8.47e-01	0	57	104	3492806656	60	14994
2026-01-06 13:28:01.64	332.80	4.76	-44.9	-56.8	3.8	8.46e-01	0	56	104	3492806656	60	14964
2026-01-06 13:28:05.68	333.10	4.51	-44.9	-56.8	3.8	8.47e-01	0	56	104	3492806656	60	15048
2026-01-06 13:28:09.72	333.39	4.27	-44.9	-56.8	3.8	8.46e-01	0	57	104	3492806656	60	14994
2026-01-06 13:28:13.77	333.68	4.02	-44.9	-56.8	3.8	8.46e-01	0	56	104	3492806656	60	14930
2026-01-06 13:28:17.81	333.96	3.78	-44.9	-56.8	3.8	8.47e-01	0	57	104	3492806656	60	14972
2026-01-06 13:28:21.85	334.24	3.54	-44.9	-56.8	3.8	8.45e-01	0	56	104	3492806656	60	14970
2026-01-06 13:28:25.89	334.51	3.30	-44.9	-56.8	3.8	8.46e-01	0	57	104	3492806656	60	14985
2026-01-06 13:28:29.93	334.78	3.07	-44.9	-56.8	3.8	8.46e-01	0	56	104	3492806656	60	14995
2026-01-06 13:28:33.98	335.05	2.83	-44.9	-56.8	3.8	8.46e-01	0	57	104	3492806656	60	15000
2026-01-06 13:28:38.02	335.31	2.60	-44.9	-56.8	3.8	8.46e-01	0	57	104	3492806656	60	15006
2026-01-06 13:28:42.06	335.57	2.36	-44.9	-56.8	3.8	8.46e-01	0	57	104	3492806656	60	14915
2026-01-06 13:28:46.10	335.82	2.13	-44.7	-56.8	3.8	8.45e-01	0	57	104	3492806656	60	15047
2026-01-06 13:28:50.15	336.08	1.90	-44.9	-56.8	3.8	8.46e-01	0	57	104	3492806656	60	14967

#Closed at: 2026-01-06 13:28:50
#Recorded file [3492 MB]: D:/lorett/data/31039_260106_161529.dat