passes_logs/2026/01/06/R2.0S_Moscow/R2.0S_Moscow__20260106_025208_FENGYUN_3G_rec.log

#Pass ID: 20260106_025208_FENGYUN 3G
#Satellite: FENGYUN 3G
#Configuration: FENGYUN 3G
#almurnet v.1.7.20251203
#Start time: 2026-01-06 02:52:08

#Version: 2.2.20231116
#Station: R2.0S_Moscow
#Location: 37.707566 lon 55.798166 lat
#TLE: 1 56232U 23055A   26005.27063903  .00035143  00000+0  55802-3 0  9994
#TLE: 2 56232  49.9940 106.1098 0004225 341.8364  18.2452 15.52952562154680

#Time	Az	El	Level	Level2	SNR	BER	BlckErr	Temp	State	Recorded	gain1	gain2
2026-01-06 02:52:08.05	248.11	1.99	-44.2	-62.6	3.8	8.46e-01	0	47	0	0	60	29071
2026-01-06 02:52:11.09	247.92	2.19	-44.2	-62.6	3.8	8.47e-01	0	47	104	0	60	29108
2026-01-06 02:52:14.12	247.73	2.39	-44.2	-62.6	3.8	8.46e-01	0	48	104	0	60	29073
2026-01-06 02:52:17.15	247.54	2.59	-44.2	-62.6	3.8	8.45e-01	0	48	104	0	60	29170
2026-01-06 02:52:20.19	247.34	2.80	-44.2	-62.6	3.8	8.46e-01	0	48	104	0	60	29038
2026-01-06 02:52:23.22	247.14	3.01	-44.2	-62.6	3.8	8.45e-01	0	48	104	0	60	29041
2026-01-06 02:52:26.25	246.94	3.21	-44.2	-62.6	3.8	8.46e-01	0	48	104	0	60	29015
2026-01-06 02:52:29.29	246.73	3.43	-44.2	-62.5	3.8	8.46e-01	0	49	104	0	60	28937
2026-01-06 02:52:32.32	246.51	3.64	-44.2	-62.6	3.8	8.46e-01	0	49	104	0	60	29022
2026-01-06 02:52:35.35	246.29	3.86	-44.2	-62.6	3.8	8.46e-01	0	49	104	0	60	29114
2026-01-06 02:52:38.39	246.07	4.07	-44.2	-62.5	3.8	8.46e-01	0	49	104	0	60	28865
2026-01-06 02:52:41.42	245.84	4.29	-44.2	-62.5	3.8	8.47e-01	0	49	104	0	60	28917
2026-01-06 02:52:44.45	245.61	4.52	-44.2	-62.6	3.8	8.46e-01	0	50	104	0	60	29026
2026-01-06 02:52:47.49	245.37	4.74	-44.2	-62.4	3.8	8.47e-01	0	49	104	0	60	28468
2026-01-06 02:52:50.52	245.12	4.97	-44.1	-61.5	3.8	8.47e-01	0	50	104	0	60	25840
2026-01-06 02:52:53.55	244.87	5.20	-44.1	-60.9	3.8	8.45e-01	0	50	104	0	60	24045
2026-01-06 02:52:56.59	244.62	5.43	-44.1	-61.2	3.8	8.46e-01	0	50	104	0	60	24717
2026-01-06 02:52:59.62	244.35	5.67	-44.2	-61.4	3.8	8.46e-01	0	50	104	0	60	25365
2026-01-06 02:53:02.65	244.09	5.91	-44.1	-60.7	3.9	8.46e-01	0	50	104	0	60	23437
2026-01-06 02:53:05.68	243.81	6.15	-44.1	-58.6	4.3	8.44e-01	0	51	0	0	60	18436
2026-01-06 02:53:08.72	243.53	6.39	-44.0	-55.9	5.7	7.69e-01	0	51	0	0	59	14246
2026-01-06 02:53:11.75	243.24	6.64	-43.9	-55.3	6.2	3.24e-01	0	51	0	3145728	59	13302
2026-01-06 02:53:14.78	242.95	6.89	-44.2	-59.6	4.0	5.33e-01	0	51	0	5242880	59	21804
2026-01-06 02:53:17.82	242.65	7.14	-44.0	-55.7	5.8	8.46e-01	0	51	0	5242880	59	13897
2026-01-06 02:53:20.85	242.34	7.40	-42.0	-46.9	14.5	6.04e-02	0	51	0	8388608	56	6036
2026-01-06 02:53:23.88	242.02	7.66	-39.5	-42.3	19.2	0.00e+00	0	52	0	12058624	51	4708
2026-01-06 02:53:26.91	241.69	7.92	-38.6	-41.0	20.5	0.00e+00	0	52	0	15204352	49	4550
2026-01-06 02:53:29.94	241.36	8.19	-40.3	-43.4	18.1	0.00e+00	0	52	0	18874368	51	5402
2026-01-06 02:53:32.97	241.02	8.46	-43.7	-53.3	9.1	2.20e-06	0	52	0	22020096	57	11929
2026-01-06 02:53:35.99	240.67	8.73	-39.1	-41.7	19.9	0.00e+00	0	52	0	25690112	50	4677
2026-01-06 02:53:39.03	240.30	9.01	-38.7	-41.1	20.4	0.00e+00	0	52	0	28835840	49	4633
2026-01-06 02:53:42.06	239.93	9.29	-38.7	-41.1	20.5	0.00e+00	0	52	0	32505856	49	4630
2026-01-06 02:53:45.09	239.55	9.58	-38.6	-41.0	20.7	0.00e+00	0	52	0	35651584	48	4831
2026-01-06 02:53:48.12	239.16	9.87	-38.3	-40.6	21.1	0.00e+00	0	52	0	39321600	48	4607
2026-01-06 02:53:51.15	238.76	10.16	-37.9	-40.0	21.5	0.00e+00	0	52	0	42467328	47	4596
2026-01-06 02:53:54.17	238.35	10.46	-37.4	-39.4	22.2	0.00e+00	0	53	0	46137344	46	4526
2026-01-06 02:53:57.20	237.92	10.76	-37.4	-39.4	22.2	0.00e+00	0	52	0	49283072	46	4542
2026-01-06 02:54:00.23	237.49	11.07	-37.5	-39.6	22.1	0.00e+00	0	53	0	52953088	46	4600
2026-01-06 02:54:03.26	237.04	11.38	-37.6	-39.6	22.1	0.00e+00	0	53	0	56098816	46	4642
2026-01-06 02:54:06.29	236.58	11.69	-37.7	-39.8	21.9	0.00e+00	0	53	0	59768832	46	4721
2026-01-06 02:54:09.32	236.10	12.01	-37.5	-39.5	22.2	0.00e+00	0	53	0	62914560	46	4595
2026-01-06 02:54:12.35	235.61	12.34	-36.8	-38.7	23.0	0.00e+00	0	53	0	66584576	45	4427
2026-01-06 02:54:15.38	235.11	12.67	-36.9	-38.8	22.9	0.00e+00	0	53	0	69730304	45	4478
2026-01-06 02:54:18.41	234.59	13.00	-37.1	-39.1	22.7	0.00e+00	0	53	0	73400320	45	4620
2026-01-06 02:54:21.43	234.06	13.34	-37.3	-39.2	22.6	0.00e+00	0	53	0	76546048	45	4692
2026-01-06 02:54:24.46	233.51	13.68	-36.6	-38.5	23.3	0.00e+00	0	53	0	80216064	45	4292
2026-01-06 02:54:27.49	232.94	14.03	-36.8	-38.6	23.2	0.00e+00	0	53	0	83361792	44	4646
2026-01-06 02:54:30.52	232.35	14.39	-36.9	-38.8	23.1	0.00e+00	0	53	0	87031808	44	4716
2026-01-06 02:54:33.55	231.75	14.74	-36.6	-38.4	23.4	0.00e+00	0	53	0	90177536	44	4514
2026-01-06 02:54:36.58	231.12	15.11	-36.5	-38.3	23.6	0.00e+00	0	54	0	93847552	44	4452
2026-01-06 02:54:39.61	230.48	15.48	-36.6	-38.4	23.4	0.00e+00	0	53	0	96993280	44	4515
2026-01-06 02:54:42.64	229.82	15.85	-36.1	-37.8	24.0	0.00e+00	0	54	0	100663296	44	4211
2026-01-06 02:54:45.67	229.13	16.23	-35.8	-37.5	24.2	0.00e+00	0	54	0	103809024	43	4292
2026-01-06 02:54:48.70	228.42	16.62	-35.5	-37.2	24.5	0.00e+00	0	54	0	107479040	43	4149
2026-01-06 02:54:51.73	227.69	17.00	-35.1	-36.7	25.0	0.00e+00	0	54	0	110624768	42	4171
2026-01-06 02:54:54.75	226.94	17.40	-35.6	-37.2	24.5	0.00e+00	0	54	0	114294784	42	4435
2026-01-06 02:54:57.79	226.16	17.80	-35.2	-36.8	24.9	0.00e+00	0	54	0	117440512	42	4205
2026-01-06 02:55:00.82	225.35	18.20	-34.8	-36.4	25.2	0.00e+00	0	54	0	121110528	41	4250
2026-01-06 02:55:03.84	224.52	18.60	-35.0	-36.6	25.1	0.00e+00	0	54	0	124256256	41	4369
2026-01-06 02:55:06.87	223.66	19.02	-34.9	-36.4	25.3	0.00e+00	0	54	0	127926272	41	4265
2026-01-06 02:55:09.90	222.77	19.43	-35.2	-36.8	24.9	0.00e+00	0	54	0	131072000	41	4479
2026-01-06 02:55:12.93	221.85	19.85	-35.0	-36.6	25.2	0.00e+00	0	54	0	134742016	41	4351
2026-01-06 02:55:15.96	220.90	20.27	-34.6	-36.1	25.6	0.00e+00	0	54	0	137887744	41	4118
2026-01-06 02:55:18.99	219.92	20.69	-34.8	-36.3	25.4	0.00e+00	0	54	0	141557760	40	4487
2026-01-06 02:55:22.02	218.90	21.12	-34.7	-36.2	25.6	0.00e+00	0	54	0	144703488	40	4400
2026-01-06 02:55:25.05	217.86	21.54	-35.1	-36.7	25.1	0.00e+00	0	54	0	148373504	40	4669
2026-01-06 02:55:28.07	216.77	21.97	-34.3	-35.8	25.9	0.00e+00	0	54	0	151519232	40	4215
2026-01-06 02:55:31.10	215.65	22.39	-34.1	-35.6	26.2	0.00e+00	0	54	0	155189248	40	4110
2026-01-06 02:55:34.13	214.50	22.82	-34.2	-35.7	26.1	0.00e+00	0	54	0	158334976	40	4162
2026-01-06 02:55:37.16	213.30	23.24	-34.2	-35.7	26.0	0.00e+00	0	54	0	162004992	40	4158
2026-01-06 02:55:40.19	212.07	23.67	-33.9	-35.3	26.5	0.00e+00	0	54	0	165150720	39	4221
2026-01-06 02:55:43.22	210.79	24.08	-33.8	-35.2	26.6	0.00e+00	0	54	0	168820736	39	4168
2026-01-06 02:55:46.24	209.49	24.49	-33.8	-35.2	26.5	0.00e+00	0	54	0	171966464	39	4184
2026-01-06 02:55:49.27	208.13	24.90	-33.8	-35.2	26.7	0.00e+00	0	54	0	175636480	39	4151
2026-01-06 02:55:52.30	206.74	25.30	-34.0	-35.4	26.4	0.00e+00	0	55	0	178782208	39	4281
2026-01-06 02:55:55.33	205.31	25.69	-34.0	-35.5	26.4	0.00e+00	0	55	0	182452224	39	4307
2026-01-06 02:55:58.36	203.83	26.06	-33.7	-35.1	26.7	0.00e+00	0	55	0	185597952	39	4137
2026-01-06 02:56:01.39	202.32	26.43	-33.4	-34.8	26.8	0.00e+00	0	55	0	189267968	38	4233
2026-01-06 02:56:04.42	200.76	26.78	-33.9	-35.3	26.6	0.00e+00	0	55	0	192413696	38	4466
2026-01-06 02:56:07.45	199.17	27.12	-33.9	-35.3	26.6	0.00e+00	0	55	0	196083712	38	4484
2026-01-06 02:56:10.47	197.55	27.44	-33.7	-35.1	26.7	0.00e+00	0	55	0	199229440	38	4366
2026-01-06 02:56:13.50	195.88	27.74	-34.0	-35.4	26.4	0.00e+00	0	55	0	202899456	38	4542
2026-01-06 02:56:16.53	194.18	28.02	-33.4	-34.7	27.0	0.00e+00	0	55	0	206045184	38	4188
2026-01-06 02:56:19.56	192.45	28.28	-33.5	-34.9	26.9	0.00e+00	0	55	0	209715200	38	4266
2026-01-06 02:56:22.59	190.68	28.51	-33.5	-34.9	26.9	0.00e+00	0	55	0	212860928	37	4524
2026-01-06 02:56:25.62	188.89	28.72	-33.9	-35.4	26.4	0.00e+00	0	55	0	216530944	38	4514
2026-01-06 02:56:28.65	187.07	28.90	-33.5	-34.9	26.8	0.00e+00	0	55	0	219676672	38	4281
2026-01-06 02:56:31.68	185.24	29.05	-34.0	-35.4	26.4	0.00e+00	0	55	0	223346688	38	4514
2026-01-06 02:56:34.71	183.38	29.18	-33.3	-34.7	27.0	0.00e+00	0	55	0	226492416	38	4175
2026-01-06 02:56:37.74	181.51	29.27	-33.6	-35.0	26.8	0.00e+00	0	55	0	230162432	38	4335
2026-01-06 02:56:40.76	179.64	29.34	-33.0	-34.3	27.4	0.00e+00	0	55	0	233308160	38	4000
2026-01-06 02:56:43.79	177.75	29.37	-33.2	-34.6	27.2	0.00e+00	0	55	0	236978176	38	4107
2026-01-06 02:56:46.82	175.86	29.37	-33.3	-34.7	27.2	0.00e+00	0	55	0	240123904	38	4174
2026-01-06 02:56:49.85	173.98	29.34	-33.9	-35.3	26.7	0.00e+00	0	55	0	243793920	38	4453
2026-01-06 02:56:52.88	172.09	29.28	-33.6	-35.0	26.9	0.00e+00	0	55	0	246939648	38	4320
2026-01-06 02:56:55.91	170.22	29.19	-33.4	-34.8	27.0	0.00e+00	0	55	0	250609664	37	4487
2026-01-06 02:56:58.94	168.37	29.07	-33.3	-34.7	27.2	0.00e+00	0	55	0	253755392	37	4428
2026-01-06 02:57:01.96	166.53	28.92	-33.6	-35.0	26.9	0.00e+00	0	55	0	257425408	38	4309
2026-01-06 02:57:04.99	164.72	28.75	-33.6	-35.0	26.9	0.00e+00	0	55	0	260571136	38	4303
2026-01-06 02:57:08.02	162.92	28.54	-33.1	-34.5	27.4	0.00e+00	0	55	0	264241152	38	4088
2026-01-06 02:57:11.05	161.16	28.31	-33.5	-34.9	27.0	0.00e+00	0	55	0	267386880	38	4280
2026-01-06 02:57:14.08	159.42	28.06	-33.4	-34.8	27.1	0.00e+00	0	55	0	271056896	38	4205
2026-01-06 02:57:17.11	157.71	27.78	-33.5	-35.0	27.0	0.00e+00	0	55	0	274202624	38	4295
2026-01-06 02:57:20.14	156.04	27.48	-33.5	-34.9	27.0	0.00e+00	0	55	0	277872640	38	4278
2026-01-06 02:57:23.17	154.41	27.17	-33.8	-35.3	26.6	0.00e+00	0	55	0	281018368	38	4452
2026-01-06 02:57:26.19	152.82	26.83	-33.7	-35.1	26.7	0.00e+00	0	55	0	284688384	38	4355
2026-01-06 02:57:29.22	151.26	26.48	-33.9	-35.4	26.5	0.00e+00	0	55	0	287834112	39	4270
2026-01-06 02:57:32.25	149.74	26.12	-33.4	-34.8	27.0	0.00e+00	0	55	0	291504128	38	4240
2026-01-06 02:57:35.28	148.27	25.75	-33.6	-35.0	26.8	0.00e+00	0	55	0	294649856	38	4338
2026-01-06 02:57:38.31	146.83	25.36	-34.3	-35.8	26.0	0.00e+00	0	55	0	298319872	39	4481
2026-01-06 02:57:41.34	145.43	24.96	-33.6	-35.0	26.8	0.00e+00	0	55	0	301465600	39	4097
2026-01-06 02:57:44.36	144.08	24.56	-33.6	-35.0	26.7	0.00e+00	0	55	0	305135616	39	4092
2026-01-06 02:57:47.39	142.76	24.15	-33.8	-35.3	26.5	0.00e+00	0	55	0	308281344	39	4198
2026-01-06 02:57:50.42	141.49	23.73	-34.2	-35.7	26.0	0.00e+00	0	55	0	311951360	39	4425
2026-01-06 02:57:53.45	140.25	23.31	-33.9	-35.3	26.3	0.00e+00	0	55	0	315097088	39	4217
2026-01-06 02:57:56.48	139.05	22.89	-34.3	-35.8	25.8	0.00e+00	0	55	0	318767104	39	4445
2026-01-06 02:57:59.51	137.89	22.47	-34.3	-35.8	25.9	0.00e+00	0	55	0	321912832	39	4477
2026-01-06 02:58:02.53	136.77	22.04	-34.5	-36.0	25.8	0.00e+00	0	55	0	325582848	39	4562
2026-01-06 02:58:05.56	135.68	21.62	-34.3	-35.8	25.8	0.00e+00	0	55	0	328728576	40	4239
2026-01-06 02:58:08.60	134.63	21.19	-34.9	-36.5	25.2	0.00e+00	0	55	0	332398592	40	4563
2026-01-06 02:58:11.62	133.61	20.77	-35.1	-36.7	24.9	0.00e+00	0	55	0	335544320	41	4431
2026-01-06 02:58:14.65	132.63	20.34	-34.3	-35.8	25.7	0.00e+00	0	55	0	338690048	40	4232
2026-01-06 02:58:17.68	131.67	19.92	-34.9	-36.5	25.1	0.00e+00	0	56	0	342360064	40	4546
2026-01-06 02:58:20.70	130.75	19.51	-35.1	-36.8	24.8	0.00e+00	0	55	0	346030080	40	4713
2026-01-06 02:58:23.73	129.86	19.09	-35.2	-36.9	24.6	0.00e+00	0	56	0	349175808	41	4515
2026-01-06 02:58:26.76	129.00	18.68	-35.0	-36.6	24.9	0.00e+00	0	55	0	352845824	41	4382
2026-01-06 02:58:29.79	128.16	18.28	-34.9	-36.5	25.0	0.00e+00	0	55	0	355991552	41	4326
2026-01-06 02:58:32.82	127.36	17.88	-35.2	-36.8	24.8	0.00e+00	0	56	0	359661568	41	4447
2026-01-06 02:58:35.85	126.57	17.48	-35.6	-37.3	24.3	0.00e+00	0	56	0	362807296	41	4721
2026-01-06 02:58:38.87	125.82	17.09	-35.1	-36.7	24.8	0.00e+00	0	56	0	366477312	41	4406
2026-01-06 02:58:41.90	125.09	16.70	-35.8	-37.5	23.9	0.00e+00	0	56	0	369623040	42	4565
2026-01-06 02:58:44.93	124.38	16.31	-36.1	-37.9	23.6	0.00e+00	0	55	0	373293056	42	4803
2026-01-06 02:58:47.96	123.69	15.93	-35.6	-37.3	24.1	0.00e+00	0	56	0	376438784	42	4459
2026-01-06 02:58:50.99	123.02	15.56	-35.3	-37.1	24.3	0.00e+00	0	55	0	379584512	42	4345
2026-01-06 02:58:54.02	122.38	15.19	-36.2	-38.2	23.2	0.00e+00	0	56	0	383254528	43	4656
2026-01-06 02:58:57.04	121.76	14.83	-37.1	-39.2	22.4	0.00e+00	0	56	0	386400256	44	4972
2026-01-06 02:59:00.07	121.15	14.47	-36.6	-38.4	23.1	0.00e+00	0	56	0	390070272	44	4538
2026-01-06 02:59:03.10	120.56	14.11	-36.3	-38.2	23.2	0.00e+00	0	56	0	393216000	43	4659
2026-01-06 02:59:06.13	119.99	13.77	-36.9	-39.0	22.4	0.00e+00	0	56	0	396886016	44	4825
2026-01-06 02:59:09.15	119.44	13.42	-36.7	-39.0	22.3	0.00e+00	0	56	0	400556032	43	5146
2026-01-06 02:59:12.19	118.90	13.08	-36.6	-39.1	21.6	1.10e-06	0	56	0	403701760	43	5191
2026-01-06 02:59:15.21	118.38	12.75	-35.8	-39.2	21.2	3.40e-06	0	56	0	407371776	43	5259
2026-01-06 02:59:18.24	117.88	12.42	-36.9	-39.5	21.4	9.61e-05	0	56	0	410517504	43	5419
2026-01-06 02:59:21.26	117.39	12.10	-37.2	-39.8	21.3	0.00e+00	0	56	0	414187520	44	5318
2026-01-06 02:59:24.30	116.91	11.78	-37.3	-40.0	21.1	0.00e+00	0	56	0	417333248	45	5158
2026-01-06 02:59:27.33	116.45	11.46	-36.7	-39.9	21.1	0.00e+00	0	56	0	420478976	45	5049
2026-01-06 02:59:30.35	116.00	11.15	-36.2	-39.1	20.5	1.48e-05	0	56	0	424148992	43	5202
2026-01-06 02:59:33.38	115.56	10.84	-33.5	-40.0	16.0	1.74e-04	0	56	0	427294720	40	6835
2026-01-06 02:59:36.41	115.14	10.54	-29.6	-38.6	15.6	7.79e-03	0	56	0	430964736	34	8240
2026-01-06 02:59:39.44	114.72	10.24	-28.4	-42.6	9.2	2.29e-02	0	56	0	434110464	30	16494
2026-01-06 02:59:42.47	114.32	9.95	-28.6	-40.2	6.4	3.69e-01	0	56	0	436731904	20	22065
2026-01-06 02:59:45.50	113.93	9.66	-29.2	-47.4	6.7	5.52e-01	0	56	0	438304768	29	30280
2026-01-06 02:59:48.53	113.55	9.38	-27.5	-45.3	7.7	5.41e-01	0	56	0	439877632	28	25245
2026-01-06 02:59:51.56	113.18	9.09	-29.4	-38.7	12.2	5.66e-02	0	56	0	443023360	29	11061
2026-01-06 02:59:54.59	112.81	8.82	-30.1	-40.0	12.5	7.07e-02	0	56	0	446169088	31	11506
2026-01-06 02:59:57.62	112.46	8.54	-23.2	-40.8	10.9	5.24e-02	0	56	0	449839104	32	11935
2026-01-06 03:00:00.65	112.12	8.27	-29.7	-41.0	13.2	4.64e-02	0	56	0	452984832	34	10843
2026-01-06 03:00:03.68	111.78	8.01	-41.3	-58.5	5.1	3.78e-02	0	56	0	456654848	51	30530
2026-01-06 03:00:06.71	111.46	7.74	-45.0	-63.3	3.8	8.45e-01	0	56	104	456654848	60	31480
2026-01-06 03:00:09.74	111.14	7.48	-45.5	-63.7	3.8	8.46e-01	0	56	104	456654848	61	31436
2026-01-06 03:00:12.77	110.83	7.23	-45.7	-64.0	3.8	8.45e-01	0	56	104	456654848	61	32311
2026-01-06 03:00:15.81	110.53	6.97	-45.5	-63.9	3.8	8.47e-01	0	56	104	456654848	61	31830
2026-01-06 03:00:18.84	110.23	6.72	-45.4	-63.8	3.8	8.46e-01	0	56	104	456654848	61	31609
2026-01-06 03:00:21.87	109.94	6.47	-45.3	-63.8	3.8	8.46e-01	0	56	104	456654848	61	31484
2026-01-06 03:00:24.91	109.66	6.23	-45.3	-63.7	3.8	8.47e-01	0	56	104	456654848	61	31420
2026-01-06 03:00:27.94	109.39	5.99	-45.3	-63.7	3.8	8.46e-01	0	56	104	456654848	61	31358
2026-01-06 03:00:30.97	109.12	5.75	-45.3	-63.7	3.8	8.45e-01	0	56	104	456654848	61	31357
2026-01-06 03:00:34.00	108.85	5.51	-45.3	-63.7	3.8	8.45e-01	0	56	104	456654848	61	31346
2026-01-06 03:00:37.04	108.60	5.28	-45.3	-63.7	3.8	8.46e-01	0	56	104	456654848	61	31334
2026-01-06 03:00:40.07	108.35	5.05	-45.3	-63.7	3.8	8.46e-01	0	56	104	456654848	61	31238
2026-01-06 03:00:43.10	108.10	4.82	-45.3	-63.7	3.8	8.46e-01	0	56	104	456654848	61	31269
2026-01-06 03:00:46.14	107.86	4.60	-45.1	-63.7	3.8	8.46e-01	0	56	104	456654848	61	31245
2026-01-06 03:00:49.17	107.63	4.37	-45.3	-63.7	3.8	8.47e-01	0	56	104	456654848	61	31290
2026-01-06 03:00:52.20	107.40	4.15	-45.3	-63.7	3.8	8.45e-01	0	56	104	456654848	61	31145
2026-01-06 03:00:55.24	107.18	3.94	-45.2	-63.7	3.8	8.48e-01	0	56	104	456654848	61	31244
2026-01-06 03:00:58.27	106.96	3.72	-45.3	-63.7	3.8	8.46e-01	0	56	104	456654848	61	31201
2026-01-06 03:01:01.30	106.74	3.51	-45.2	-63.7	3.8	8.45e-01	0	56	104	456654848	61	31146
2026-01-06 03:01:04.34	106.53	3.29	-45.2	-63.7	3.8	8.46e-01	0	56	104	456654848	61	31235
2026-01-06 03:01:07.37	106.33	3.09	-45.3	-63.7	3.8	8.47e-01	0	56	104	456654848	61	31276
2026-01-06 03:01:10.40	106.12	2.88	-45.2	-63.7	3.8	8.46e-01	0	56	104	456654848	61	31325
2026-01-06 03:01:13.43	105.93	2.67	-45.2	-63.7	3.8	8.46e-01	0	56	104	456654848	61	31124
2026-01-06 03:01:16.47	105.73	2.47	-45.2	-63.7	3.8	8.45e-01	0	56	104	456654848	61	31210
2026-01-06 03:01:19.50	105.54	2.27	-45.2	-63.7	3.8	8.45e-01	0	56	104	456654848	61	31104
2026-01-06 03:01:22.53	105.36	2.07	-45.2	-63.7	3.8	8.45e-01	0	56	104	456654848	61	31131

#Closed at: 2026-01-06 03:01:24
#Recorded file [456 MB]: D:/lorett/data/31039_260106_055207.dat