passes_logs/2026/01/06/R2.0S_Moscow/R2.0S_Moscow__20260106_051044_FENGYUN_3E_rec.log

#Pass ID: 20260106_051044_FENGYUN 3E
#Satellite: FENGYUN 3E
#Configuration: FENGYUN 3E
#almurnet v.1.7.20251203
#Start time: 2026-01-06 05:10:46

#Version: 2.2.20231116
#Station: R2.0S_Moscow
#Location: 37.707566 lon 55.798166 lat
#TLE: 1 49008U 21062A   26005.56299987  .00000339  00000+0  18069-3 0  9991
#TLE: 2 49008  98.7472  10.8019 0001562 158.0357 202.0886 14.19884907233502

#Time	Az	El	Level	Level2	SNR	BER	BlckErr	Temp	State	Recorded	gain1	gain2
2026-01-06 05:10:46.38	11.45	2.09	-40.1	-51.1	3.8	8.45e-01	0	47	0	0	51	12299
2026-01-06 05:10:50.42	11.25	2.33	-40.1	-51.1	3.8	8.46e-01	0	48	104	0	51	12327
2026-01-06 05:10:54.47	11.05	2.57	-40.1	-51.1	3.8	8.45e-01	0	48	104	0	51	12311
2026-01-06 05:10:58.51	10.85	2.82	-40.1	-51.1	3.8	8.45e-01	0	48	104	0	51	12322
2026-01-06 05:11:02.55	10.64	3.07	-40.1	-51.1	3.8	8.46e-01	0	48	104	0	51	12294
2026-01-06 05:11:06.60	10.43	3.32	-40.1	-51.1	3.8	8.45e-01	0	49	104	0	51	12346
2026-01-06 05:11:10.64	10.22	3.57	-40.1	-51.1	3.8	8.46e-01	0	49	104	0	51	12285
2026-01-06 05:11:14.69	10.00	3.83	-40.1	-51.1	3.8	8.46e-01	0	49	104	0	51	12316
2026-01-06 05:11:18.73	9.78	4.08	-40.1	-51.1	3.8	8.47e-01	0	49	104	0	51	12299
2026-01-06 05:11:22.77	9.55	4.34	-40.1	-51.1	3.8	8.46e-01	0	50	104	0	51	12262
2026-01-06 05:11:26.82	9.32	4.60	-40.1	-51.1	3.8	8.46e-01	0	50	104	0	51	12269
2026-01-06 05:11:30.86	9.08	4.86	-40.1	-51.1	3.8	8.46e-01	0	50	104	0	51	12298
2026-01-06 05:11:34.91	8.84	5.13	-40.1	-51.1	3.8	8.46e-01	0	51	104	0	51	12305
2026-01-06 05:11:38.95	8.60	5.39	-40.1	-51.1	3.8	8.46e-01	0	51	104	0	51	12325
2026-01-06 05:11:42.99	8.35	5.66	-40.1	-51.1	3.8	8.47e-01	0	51	104	0	51	12315
2026-01-06 05:11:47.04	8.09	5.93	-40.1	-51.1	3.8	8.45e-01	0	51	104	0	51	12296
2026-01-06 05:11:51.08	7.83	6.20	-40.1	-51.1	3.8	8.45e-01	0	51	104	0	51	12313
2026-01-06 05:11:55.13	7.57	6.48	-40.1	-51.1	3.8	8.47e-01	0	52	104	0	51	12291
2026-01-06 05:11:59.17	7.30	6.76	-40.1	-51.1	3.8	8.46e-01	0	52	104	0	51	12332
2026-01-06 05:12:03.19	7.02	7.04	-40.1	-51.1	3.8	8.46e-01	0	52	104	0	51	12359
2026-01-06 05:12:07.23	6.74	7.32	-40.1	-51.1	3.8	8.47e-01	0	52	104	0	51	12327
2026-01-06 05:12:11.28	6.45	7.60	-40.1	-51.1	3.8	8.46e-01	0	52	104	0	51	12294
2026-01-06 05:12:15.32	6.16	7.89	-40.1	-51.1	3.8	8.47e-01	0	52	104	0	51	12357
2026-01-06 05:12:19.37	5.86	8.18	-40.2	-51.2	3.8	8.46e-01	0	52	104	0	51	12419
2026-01-06 05:12:23.41	5.55	8.47	-40.2	-51.2	3.8	8.46e-01	0	53	104	0	51	12436
2026-01-06 05:12:27.45	5.24	8.77	-40.2	-51.2	3.8	8.46e-01	0	53	104	0	51	12443
2026-01-06 05:12:31.49	4.92	9.07	-40.2	-51.2	3.8	8.46e-01	0	53	104	0	51	12426
2026-01-06 05:12:35.54	4.60	9.37	-40.2	-51.2	3.8	8.47e-01	0	53	104	0	51	12482
2026-01-06 05:12:39.58	4.26	9.67	-40.3	-51.3	3.8	8.46e-01	0	53	104	0	51	12622
2026-01-06 05:12:43.62	3.92	9.97	-40.4	-51.4	3.8	8.46e-01	0	53	104	0	51	12709
2026-01-06 05:12:47.66	3.57	10.28	-40.3	-51.4	3.8	8.45e-01	0	53	104	0	51	12671
2026-01-06 05:12:51.70	3.22	10.59	-40.4	-51.4	3.8	8.45e-01	0	54	104	0	51	12794
2026-01-06 05:12:55.75	2.85	10.91	-40.3	-51.3	3.8	8.46e-01	0	54	104	0	51	12619
2026-01-06 05:12:59.79	2.48	11.23	-40.4	-51.4	3.8	8.45e-01	0	54	104	0	51	12745
2026-01-06 05:13:03.83	2.10	11.55	-40.3	-51.3	3.8	8.45e-01	0	54	104	0	51	12653
2026-01-06 05:13:07.88	1.71	11.87	-40.4	-51.5	3.8	8.47e-01	0	54	104	0	51	12865
2026-01-06 05:13:11.92	1.31	12.20	-40.4	-51.5	3.8	8.46e-01	0	54	104	0	51	12818
2026-01-06 05:13:15.95	0.90	12.52	-40.5	-51.6	3.8	8.45e-01	0	54	104	0	51	12980
2026-01-06 05:13:19.99	0.49	12.85	-40.3	-48.0	4.3	8.35e-01	0	54	0	0	51	8564
2026-01-06 05:13:24.03	0.06	13.19	-39.6	-44.7	6.4	3.04e-01	0	54	0	5242880	50	6208
2026-01-06 05:13:28.07	359.62	13.53	-37.8	-40.4	11.4	1.32e-03	0	54	0	34603008	46	4802
2026-01-06 05:13:32.11	359.17	13.87	-36.0	-37.7	15.1	0.00e+00	0	55	0	63963136	43	4166
2026-01-06 05:13:36.15	358.71	14.21	-36.0	-37.6	15.4	0.00e+00	0	55	0	93323264	42	4380
2026-01-06 05:13:40.20	358.24	14.56	-36.0	-37.6	15.5	0.00e+00	0	55	0	121634816	43	4128
2026-01-06 05:13:44.24	357.76	14.91	-36.1	-37.7	15.5	0.00e+00	0	55	0	150994944	42	4427
2026-01-06 05:13:48.28	357.27	15.26	-35.2	-36.5	16.8	0.00e+00	0	55	0	180355072	41	4086
2026-01-06 05:13:52.32	356.76	15.62	-35.0	-36.4	16.8	0.00e+00	0	55	0	209715200	40	4253
2026-01-06 05:13:56.36	356.25	15.97	-37.0	-39.0	13.5	4.50e-06	0	55	0	239075328	43	4841
2026-01-06 05:14:00.40	355.71	16.34	-39.9	-44.5	7.1	9.78e-02	0	55	0	267386880	49	6450
2026-01-06 05:14:04.44	355.17	16.70	-40.8	-49.9	3.8	8.42e-01	0	55	104	275775488	51	10718
2026-01-06 05:14:08.47	354.61	17.07	-40.9	-51.9	3.8	8.46e-01	0	55	104	275775488	51	13478
2026-01-06 05:14:12.52	354.04	17.44	-40.9	-51.9	3.8	8.46e-01	0	55	104	275775488	51	13465
2026-01-06 05:14:16.56	353.45	17.81	-40.7	-52.1	3.8	8.47e-01	0	55	104	275775488	51	13826
2026-01-06 05:14:20.59	352.85	18.18	-41.0	-52.0	3.8	8.46e-01	0	55	104	275775488	51	13650
2026-01-06 05:14:24.63	352.24	18.56	-41.0	-52.0	3.8	8.46e-01	0	55	104	275775488	51	13656
2026-01-06 05:14:28.67	351.60	18.94	-41.0	-52.0	3.8	8.46e-01	0	55	104	275775488	51	13706
2026-01-06 05:14:32.71	350.95	19.32	-41.0	-52.0	3.8	8.45e-01	0	55	104	275775488	51	13683
2026-01-06 05:14:36.75	350.29	19.70	-41.0	-51.3	3.8	8.47e-01	0	56	104	275775488	51	12570
2026-01-06 05:14:40.79	349.60	20.09	-41.0	-50.4	3.8	8.44e-01	0	56	104	275775488	52	10672
2026-01-06 05:14:44.83	348.90	20.47	-41.0	-48.2	4.6	8.18e-01	0	56	0	275775488	52	8327
2026-01-06 05:14:48.87	348.18	20.86	-40.7	-45.4	6.9	1.97e-01	0	56	0	287309824	52	6035
2026-01-06 05:14:52.91	347.45	21.25	-38.8	-41.6	10.6	3.61e-03	0	56	0	316669952	48	4922
2026-01-06 05:14:56.95	346.69	21.64	-37.1	-39.3	12.8	8.92e-05	0	56	0	346030080	45	4471
2026-01-06 05:15:00.99	345.91	22.03	-34.6	-35.9	17.3	0.00e+00	0	56	0	375390208	40	4012
2026-01-06 05:15:05.04	345.11	22.42	-35.1	-36.4	17.3	0.00e+00	0	56	0	404750336	39	4495
2026-01-06 05:15:09.08	344.29	22.81	-35.2	-36.5	17.3	0.00e+00	0	56	0	433061888	40	4334
2026-01-06 05:15:13.12	343.46	23.20	-34.4	-35.6	18.7	0.00e+00	0	56	0	462422016	39	4114
2026-01-06 05:15:17.16	342.59	23.59	-34.1	-35.1	19.2	0.00e+00	0	56	0	491782144	39	3913
2026-01-06 05:15:21.20	341.71	23.97	-34.0	-35.1	19.4	0.00e+00	0	56	0	521142272	38	4107
2026-01-06 05:15:25.24	340.81	24.36	-34.1	-35.1	19.4	0.00e+00	0	56	0	550502400	38	4127
2026-01-06 05:15:29.28	339.88	24.74	-33.6	-34.7	20.0	0.00e+00	0	56	0	578813952	38	3923
2026-01-06 05:15:33.32	338.93	25.12	-33.5	-34.5	20.1	0.00e+00	0	56	0	608174080	38	3846
2026-01-06 05:15:37.36	337.96	25.50	-33.7	-34.8	19.9	0.00e+00	0	56	0	637534208	38	3960
2026-01-06 05:15:41.40	336.96	25.87	-33.8	-34.9	19.9	0.00e+00	0	56	0	666894336	38	4020
2026-01-06 05:15:45.44	335.94	26.24	-33.9	-35.0	19.8	0.00e+00	0	56	0	696254464	38	4057
2026-01-06 05:15:49.48	334.89	26.60	-33.9	-34.9	19.8	0.00e+00	0	56	0	725614592	38	4048
2026-01-06 05:15:53.52	333.82	26.96	-33.8	-34.8	19.9	0.00e+00	0	56	0	753926144	38	4000
2026-01-06 05:15:57.57	332.73	27.31	-33.9	-34.9	19.9	0.00e+00	0	56	0	783286272	38	4024
2026-01-06 05:16:01.60	331.61	27.65	-33.9	-34.9	19.9	0.00e+00	0	56	0	812646400	38	4023
2026-01-06 05:16:05.64	330.47	27.99	-33.5	-34.5	20.3	0.00e+00	0	56	0	842006528	37	4054
2026-01-06 05:16:09.68	329.30	28.31	-33.6	-34.6	20.2	0.00e+00	0	56	0	871366656	37	4139
2026-01-06 05:16:13.72	328.11	28.63	-33.9	-34.9	19.9	0.00e+00	0	56	0	899678208	37	4283
2026-01-06 05:16:17.76	326.90	28.93	-33.8	-34.8	20.0	0.00e+00	0	56	0	929038336	37	4208
2026-01-06 05:16:21.80	325.66	29.23	-33.7	-34.8	20.0	0.00e+00	0	56	0	958398464	37	4195
2026-01-06 05:16:25.84	324.40	29.51	-33.7	-34.7	20.1	0.00e+00	0	56	0	987758592	37	4160
2026-01-06 05:16:29.89	323.11	29.78	-33.8	-34.8	20.0	0.00e+00	0	56	0	1017118720	37	4234
2026-01-06 05:16:33.92	321.81	30.03	-33.6	-34.6	20.2	0.00e+00	0	56	0	1045430272	37	4100
2026-01-06 05:16:37.97	320.49	30.27	-33.5	-34.5	20.3	0.00e+00	0	56	0	1074790400	37	4076
2026-01-06 05:16:42.00	319.15	30.50	-33.3	-34.3	20.5	0.00e+00	0	56	0	1104150528	37	3991
2026-01-06 05:16:46.05	317.78	30.70	-33.5	-34.5	20.3	0.00e+00	0	56	0	1133510656	37	4083
2026-01-06 05:16:50.08	316.40	30.89	-33.7	-34.7	20.1	0.00e+00	0	56	0	1162870784	37	4164
2026-01-06 05:16:54.13	315.01	31.07	-33.3	-34.3	20.5	0.00e+00	0	56	0	1192230912	37	3973
2026-01-06 05:16:58.17	313.60	31.22	-33.3	-34.2	20.5	0.00e+00	0	56	0	1220542464	37	3957
2026-01-06 05:17:02.21	312.18	31.36	-33.0	-34.0	20.8	0.00e+00	0	56	0	1249902592	36	4074
2026-01-06 05:17:06.25	310.74	31.47	-33.2	-34.2	20.6	0.00e+00	0	56	0	1279262720	36	4157
2026-01-06 05:17:10.29	309.30	31.57	-33.1	-34.1	20.6	0.00e+00	0	56	0	1308622848	36	4125
2026-01-06 05:17:14.33	307.85	31.65	-33.0	-34.0	20.8	0.00e+00	0	56	0	1337982976	36	4078
2026-01-06 05:17:18.37	306.39	31.70	-33.2	-34.1	20.6	0.00e+00	0	56	0	1366294528	36	4136
2026-01-06 05:17:22.41	304.93	31.74	-33.1	-34.1	20.7	0.00e+00	0	56	0	1395654656	36	4120
2026-01-06 05:17:26.44	303.47	31.75	-33.1	-34.1	20.7	0.00e+00	0	57	0	1425014784	36	4114
2026-01-06 05:17:30.49	302.00	31.74	-32.9	-33.9	20.9	0.00e+00	0	56	0	1454374912	36	4028
2026-01-06 05:17:34.53	300.54	31.71	-32.9	-33.9	20.8	0.00e+00	0	56	0	1483735040	36	4031
2026-01-06 05:17:38.57	299.08	31.66	-32.9	-33.8	20.9	0.00e+00	0	56	0	1512046592	36	3995
2026-01-06 05:17:42.61	297.63	31.59	-32.9	-33.9	20.9	0.00e+00	0	57	0	1541406720	36	4017
2026-01-06 05:17:46.66	296.18	31.50	-32.8	-33.8	20.9	0.00e+00	0	56	0	1570766848	36	3982
2026-01-06 05:17:50.70	294.74	31.39	-33.1	-34.1	20.7	0.00e+00	0	56	0	1600126976	36	4114
2026-01-06 05:17:54.74	293.32	31.26	-32.9	-33.9	20.9	0.00e+00	0	56	0	1629487104	36	4026
2026-01-06 05:17:58.78	291.90	31.11	-33.0	-34.0	20.8	0.00e+00	0	57	0	1658847232	36	4062
2026-01-06 05:18:02.82	290.50	30.94	-32.9	-33.9	20.9	0.00e+00	0	57	0	1687158784	36	4033
2026-01-06 05:18:06.86	289.12	30.75	-33.0	-34.0	20.8	0.00e+00	0	56	0	1716518912	36	4070
2026-01-06 05:18:10.90	287.75	30.55	-32.9	-33.9	20.9	0.00e+00	0	57	0	1745879040	36	4010
2026-01-06 05:18:14.95	286.39	30.33	-33.2	-34.2	20.6	0.00e+00	0	57	0	1775239168	36	4150
2026-01-06 05:18:18.99	285.06	30.09	-33.1	-34.1	20.7	0.00e+00	0	57	0	1804599296	36	4126
2026-01-06 05:18:23.03	283.75	29.84	-33.1	-34.1	20.6	0.00e+00	0	56	0	1832910848	36	4134
2026-01-06 05:18:27.06	282.46	29.57	-33.2	-34.2	20.6	0.00e+00	0	57	0	1862270976	36	4166
2026-01-06 05:18:31.10	281.19	29.30	-33.0	-34.0	20.5	0.00e+00	0	56	0	1891631104	36	4069
2026-01-06 05:18:35.14	279.94	29.00	-33.5	-34.5	20.3	0.00e+00	0	56	0	1920991232	36	4318
2026-01-06 05:18:39.19	278.72	28.70	-33.2	-34.2	20.6	0.00e+00	0	57	0	1950351360	36	4167
2026-01-06 05:18:43.22	277.52	28.39	-33.1	-34.1	20.7	0.00e+00	0	56	0	1979711488	36	4103
2026-01-06 05:18:47.26	276.34	28.06	-33.5	-34.5	20.3	0.00e+00	0	56	0	2008023040	36	4315
2026-01-06 05:18:51.30	275.19	27.73	-33.4	-34.4	20.4	0.00e+00	0	57	0	2037383168	36	4256
2026-01-06 05:18:55.34	274.06	27.39	-33.4	-34.4	20.3	0.00e+00	0	57	0	2066743296	36	4282
2026-01-06 05:18:59.38	272.95	27.04	-33.7	-34.7	20.1	0.00e+00	0	56	0	2096103424	36	4403
2026-01-06 05:19:03.42	271.87	26.68	-33.5	-34.5	20.2	0.00e+00	0	57	0	2125463552	36	4319
2026-01-06 05:19:07.46	270.82	26.32	-33.6	-34.6	20.1	0.00e+00	0	56	0	2153775104	36	4358
2026-01-06 05:19:11.50	269.78	25.95	-33.7	-34.8	20.0	0.00e+00	0	57	0	2183135232	37	4194
2026-01-06 05:19:15.55	268.77	25.57	-33.6	-34.6	20.1	0.00e+00	0	56	0	2212495360	37	4135
2026-01-06 05:19:19.59	267.79	25.20	-33.4	-34.4	20.3	0.00e+00	0	57	0	2241855488	37	4042
2026-01-06 05:19:23.62	266.83	24.82	-33.5	-34.5	20.2	0.00e+00	0	57	0	2271215616	37	4078
2026-01-06 05:19:27.66	265.89	24.43	-33.6	-34.7	20.0	0.00e+00	0	57	0	2300575744	37	4151
2026-01-06 05:19:31.70	264.98	24.04	-33.4	-34.4	20.3	0.00e+00	0	57	0	2328887296	37	4042
2026-01-06 05:19:35.75	264.08	23.65	-33.8	-34.8	19.9	0.00e+00	0	57	0	2358247424	37	4227
2026-01-06 05:19:39.79	263.21	23.26	-33.8	-34.8	19.8	0.00e+00	0	57	0	2387607552	37	4242
2026-01-06 05:19:43.83	262.36	22.87	-33.8	-34.8	19.8	0.00e+00	0	57	0	2416967680	37	4238
2026-01-06 05:19:47.87	261.54	22.48	-34.1	-35.2	19.5	0.00e+00	0	57	0	2446327808	37	4396
2026-01-06 05:19:51.91	260.73	22.09	-33.8	-34.8	19.9	0.00e+00	0	57	0	2474639360	37	4222
2026-01-06 05:19:55.96	259.94	21.70	-33.8	-34.9	19.8	0.00e+00	0	57	0	2503999488	37	4250
2026-01-06 05:20:00.00	259.17	21.30	-33.9	-35.0	19.7	0.00e+00	0	57	0	2533359616	37	4306
2026-01-06 05:20:04.04	258.43	20.91	-34.2	-35.2	19.4	0.00e+00	0	57	0	2562719744	37	4435
2026-01-06 05:20:08.08	257.70	20.52	-34.4	-35.5	19.1	0.00e+00	0	57	0	2592079872	38	4338
2026-01-06 05:20:12.12	256.99	20.14	-34.3	-35.4	19.3	0.00e+00	0	57	0	2621440000	38	4247
2026-01-06 05:20:16.16	256.30	19.75	-34.4	-35.5	19.2	0.00e+00	0	57	0	2649751552	38	4307
2026-01-06 05:20:20.20	255.62	19.36	-34.5	-35.6	19.1	0.00e+00	0	57	0	2679111680	38	4355
2026-01-06 05:20:24.24	254.96	18.98	-34.1	-35.2	19.4	0.00e+00	0	57	0	2708471808	38	4152
2026-01-06 05:20:28.28	254.32	18.60	-34.3	-35.4	19.2	0.00e+00	0	57	0	2737831936	38	4284
2026-01-06 05:20:32.32	253.70	18.22	-34.8	-36.0	18.7	0.00e+00	0	57	0	2767192064	39	4295
2026-01-06 05:20:36.36	253.09	17.84	-34.9	-36.0	18.5	0.00e+00	0	57	0	2795503616	39	4329
2026-01-06 05:20:40.40	252.49	17.47	-35.1	-36.3	18.3	0.00e+00	0	57	0	2824863744	39	4468
2026-01-06 05:20:44.43	251.91	17.10	-35.1	-36.3	18.2	0.00e+00	0	57	0	2854223872	40	4222
2026-01-06 05:20:48.47	251.35	16.73	-35.3	-36.5	18.0	0.00e+00	0	57	0	2883584000	40	4295
2026-01-06 05:20:52.51	250.80	16.36	-35.4	-36.6	17.9	0.00e+00	0	57	0	2912944128	40	4350
2026-01-06 05:20:56.56	250.26	16.00	-35.6	-36.9	17.5	0.00e+00	0	57	0	2942304256	40	4502
2026-01-06 05:21:00.60	249.73	15.64	-35.6	-36.9	17.6	0.00e+00	0	57	0	2970615808	41	4246
2026-01-06 05:21:04.63	249.22	15.28	-35.5	-36.7	17.7	0.00e+00	0	57	0	2999975936	41	4192
2026-01-06 05:21:08.67	248.72	14.92	-35.3	-36.5	18.0	0.00e+00	0	57	0	3029336064	41	4060
2026-01-06 05:21:12.71	248.23	14.57	-35.4	-36.7	17.8	0.00e+00	0	57	0	3058696192	41	4147
2026-01-06 05:21:16.76	247.75	14.22	-35.8	-37.0	17.4	0.00e+00	0	57	0	3088056320	41	4325
2026-01-06 05:21:20.80	247.29	13.88	-35.9	-37.2	17.2	0.00e+00	0	57	0	3116367872	41	4396
2026-01-06 05:21:24.84	246.83	13.53	-35.9	-37.2	17.2	0.00e+00	0	57	0	3145728000	41	4403
2026-01-06 05:21:28.88	246.39	13.19	-35.7	-36.9	17.4	0.00e+00	0	57	0	3175088128	41	4278
2026-01-06 05:21:32.92	245.95	12.86	-35.9	-37.1	17.2	0.00e+00	0	57	0	3204448256	41	4389
2026-01-06 05:21:36.97	245.53	12.52	-36.1	-37.5	16.9	0.00e+00	0	57	0	3233808384	41	4546
2026-01-06 05:21:41.01	245.11	12.19	-36.4	-37.8	16.6	0.00e+00	0	57	0	3263168512	42	4473
2026-01-06 05:21:45.05	244.71	11.86	-36.4	-37.7	16.6	0.00e+00	0	57	0	3291480064	42	4424
2026-01-06 05:21:49.08	244.31	11.54	-36.4	-37.7	16.6	0.00e+00	0	57	0	3320840192	42	4414
2026-01-06 05:21:53.12	243.93	11.22	-36.6	-38.0	16.3	0.00e+00	0	57	0	3350200320	42	4576
2026-01-06 05:21:57.16	243.55	10.90	-36.9	-38.4	15.9	0.00e+00	0	57	0	3379560448	43	4501
2026-01-06 05:22:01.19	243.18	10.58	-37.0	-38.5	15.7	0.00e+00	0	57	0	3408920576	43	4566
2026-01-06 05:22:05.23	242.82	10.27	-36.9	-38.3	15.9	0.00e+00	0	57	0	3437232128	43	4489
2026-01-06 05:22:09.27	242.46	9.96	-36.8	-38.2	16.0	0.00e+00	0	57	0	3466592256	43	4428
2026-01-06 05:22:13.31	242.12	9.65	-36.7	-38.1	16.0	0.00e+00	0	57	0	3495952384	43	4391
2026-01-06 05:22:17.36	241.78	9.35	-36.8	-38.2	15.9	0.00e+00	0	57	0	3525312512	43	4441
2026-01-06 05:22:21.40	241.44	9.05	-36.8	-38.3	15.8	0.00e+00	0	57	0	3554672640	43	4476
2026-01-06 05:22:25.44	241.12	8.75	-36.9	-38.4	15.6	0.00e+00	0	57	0	3584032768	43	4533
2026-01-06 05:22:29.48	240.80	8.45	-37.6	-39.2	15.0	0.00e+00	0	57	0	3612344320	44	4667
2026-01-06 05:22:33.52	240.49	8.16	-37.5	-39.1	15.0	0.00e+00	0	57	0	3641704448	45	4386
2026-01-06 05:22:37.56	240.18	7.86	-45.2	-56.3	3.8	8.46e-01	0	57	104	3657433088	60	13330
2026-01-06 05:22:41.61	239.88	7.57	-45.6	-56.7	3.8	8.44e-01	0	57	104	3657433088	60	13954
2026-01-06 05:22:45.65	239.59	7.29	-45.6	-56.8	3.8	8.46e-01	0	57	104	3657433088	60	14056
2026-01-06 05:22:49.69	239.30	7.00	-45.6	-56.6	3.8	8.45e-01	0	57	104	3657433088	60	13849
2026-01-06 05:22:53.74	239.02	6.72	-45.6	-56.6	3.8	8.47e-01	0	57	104	3657433088	60	13862
2026-01-06 05:22:57.78	238.74	6.44	-45.5	-56.6	3.8	8.46e-01	0	57	104	3657433088	60	13804
2026-01-06 05:23:01.82	238.47	6.17	-45.5	-56.6	3.8	8.46e-01	0	57	104	3657433088	60	13748
2026-01-06 05:23:05.86	238.21	5.89	-45.5	-56.6	3.8	8.47e-01	0	57	104	3657433088	60	13788
2026-01-06 05:23:09.91	237.95	5.62	-45.5	-56.6	3.8	8.46e-01	0	57	104	3657433088	60	13795
2026-01-06 05:23:13.95	237.69	5.35	-45.5	-56.6	3.8	8.46e-01	0	57	104	3657433088	60	13782
2026-01-06 05:23:17.99	237.44	5.08	-45.5	-56.6	3.8	8.46e-01	0	57	104	3657433088	60	13758
2026-01-06 05:23:22.03	237.19	4.82	-45.5	-56.6	3.8	8.46e-01	0	57	104	3657433088	60	13805
2026-01-06 05:23:26.08	236.95	4.55	-45.5	-56.6	3.8	8.47e-01	0	57	104	3657433088	60	13743
2026-01-06 05:23:30.13	236.72	4.29	-45.5	-56.5	3.8	8.46e-01	0	57	104	3657433088	60	13686
2026-01-06 05:23:34.17	236.48	4.03	-45.5	-56.5	3.8	8.45e-01	0	57	104	3657433088	60	13714
2026-01-06 05:23:38.21	236.25	3.78	-45.5	-56.5	3.8	8.46e-01	0	57	104	3657433088	60	13699
2026-01-06 05:23:42.26	236.03	3.52	-45.5	-56.5	3.8	8.46e-01	0	57	104	3657433088	60	13693
2026-01-06 05:23:46.31	235.81	3.27	-45.5	-56.5	3.8	8.46e-01	0	57	104	3657433088	60	13706
2026-01-06 05:23:50.35	235.59	3.02	-45.5	-56.5	3.8	8.46e-01	0	57	104	3657433088	60	13722
2026-01-06 05:23:54.39	235.38	2.77	-45.5	-56.5	3.8	8.47e-01	0	57	104	3657433088	60	13664
2026-01-06 05:23:58.44	235.17	2.52	-45.5	-56.5	3.8	8.47e-01	0	57	104	3657433088	60	13712
2026-01-06 05:24:02.48	234.97	2.27	-45.5	-56.5	3.8	8.46e-01	0	57	104	3657433088	60	13684
2026-01-06 05:24:06.53	234.76	2.03	-45.5	-56.5	3.8	8.45e-01	0	57	104	3657433088	60	13712

#Closed at: 2026-01-06 05:24:09
#Recorded file [3657 MB]: D:/lorett/data/31039_260106_081046.dat