passes_logs/2026/01/06/R2.0S_Moscow/R2.0S_Moscow__20260106_033017_FENGYUN_3E_rec.log

#Pass ID: 20260106_033017_FENGYUN 3E
#Satellite: FENGYUN 3E
#Configuration: FENGYUN 3E
#almurnet v.1.7.20251203
#Start time: 2026-01-06 03:37:01

#Version: 2.2.20231116
#Station: R2.0S_Moscow
#Location: 37.707566 lon 55.798166 lat
#TLE: 1 49008U 21062A   26005.56299987  .00000339  00000+0  18069-3 0  9991
#TLE: 2 49008  98.7472  10.8019 0001562 158.0357 202.0886 14.19884907233502

#Time	Az	El	Level	Level2	SNR	BER	BlckErr	Temp	State	Recorded	gain1	gain2
2026-01-06 03:37:01.73	77.06	58.41	-45.0	-56.8	3.8	8.46e-01	0	57	0	0	60	15038
2026-01-06 03:37:03.75	78.65	58.75	-45.7	-56.8	3.8	8.46e-01	0	57	104	0	62	12619
2026-01-06 03:37:05.77	80.28	59.06	-45.7	-56.8	3.8	8.45e-01	0	57	104	0	62	12544
2026-01-06 03:37:07.79	81.94	59.35	-45.7	-56.8	3.8	8.46e-01	0	58	104	0	62	12592
2026-01-06 03:37:09.81	83.65	59.63	-45.7	-56.8	3.8	8.46e-01	0	58	104	0	62	12548
2026-01-06 03:37:11.83	85.39	59.88	-45.7	-56.8	3.8	8.46e-01	0	57	104	0	62	12607
2026-01-06 03:37:13.85	87.16	60.10	-45.7	-56.7	3.8	8.46e-01	0	57	104	0	62	12517
2026-01-06 03:37:15.88	88.97	60.31	-45.7	-56.8	3.8	8.46e-01	0	57	104	0	62	12532
2026-01-06 03:37:17.90	90.80	60.49	-45.7	-56.7	3.8	8.46e-01	0	57	104	0	62	12503
2026-01-06 03:37:19.92	92.65	60.64	-45.7	-56.7	3.8	8.47e-01	0	58	104	0	62	12497
2026-01-06 03:37:21.94	94.52	60.77	-45.6	-56.7	3.8	8.46e-01	0	57	104	0	62	12453
2026-01-06 03:37:23.96	96.41	60.87	-45.6	-56.7	3.8	8.46e-01	0	58	104	0	62	12476
2026-01-06 03:37:25.99	98.32	60.94	-45.6	-56.7	3.8	8.46e-01	0	57	104	0	62	12431
2026-01-06 03:37:28.01	100.24	60.99	-45.6	-56.6	3.8	8.45e-01	0	58	104	0	62	12374
2026-01-06 03:37:30.03	102.15	61.00	-45.6	-56.6	3.8	8.47e-01	0	58	104	0	62	12368
2026-01-06 03:37:32.05	104.07	60.99	-45.6	-56.7	3.8	8.47e-01	0	58	104	0	62	12397
2026-01-06 03:37:34.08	105.99	60.95	-45.6	-56.7	3.8	8.46e-01	0	58	104	0	62	12433
2026-01-06 03:37:36.10	107.90	60.89	-45.6	-56.6	3.8	8.46e-01	0	57	104	0	62	12334
2026-01-06 03:37:38.12	109.79	60.80	-45.5	-55.9	3.8	8.46e-01	0	57	104	0	62	11350
2026-01-06 03:37:40.14	111.67	60.68	-45.6	-56.5	3.8	8.45e-01	0	58	104	0	62	12108
2026-01-06 03:37:42.16	113.53	60.53	-45.6	-56.2	3.8	8.45e-01	0	58	104	0	62	11692
2026-01-06 03:37:44.18	115.37	60.36	-45.5	-56.3	3.8	8.46e-01	0	58	104	0	61	12566
2026-01-06 03:37:46.21	117.19	60.16	-45.2	-53.5	4.1	8.43e-01	0	58	0	0	61	9073
2026-01-06 03:37:48.23	118.97	59.94	-45.5	-56.4	3.8	8.46e-01	0	58	104	0	61	12804
2026-01-06 03:37:50.25	120.72	59.69	-44.2	-49.4	5.9	7.66e-01	0	58	0	0	59	6416
2026-01-06 03:37:52.27	122.43	59.42	-43.8	-48.4	6.9	7.36e-02	0	58	0	14680064	57	6367
2026-01-06 03:37:54.29	124.11	59.14	-39.2	-40.9	14.4	1.27e-04	0	58	0	24117248	49	4284
2026-01-06 03:37:56.31	125.75	58.83	-36.1	-37.3	17.8	0.00e+00	0	58	0	38797312	41	4463
2026-01-06 03:37:58.33	127.36	58.50	-37.0	-38.3	16.8	1.10e-06	0	58	0	42991616	45	3983
2026-01-06 03:38:00.35	128.92	58.15	-36.4	-37.7	17.5	3.89e-05	0	58	0	57671680	44	3914
2026-01-06 03:38:02.37	130.44	57.79	-35.9	-37.1	17.9	0.00e+00	0	58	0	72351744	42	4124
2026-01-06 03:38:04.39	131.92	57.41	-35.9	-37.0	18.0	0.00e+00	0	58	0	87031808	42	4091
2026-01-06 03:38:06.42	133.37	57.01	-35.2	-36.3	18.7	0.00e+00	0	58	0	101711872	41	3993
2026-01-06 03:38:08.44	134.77	56.60	-35.3	-36.4	18.6	0.00e+00	0	57	0	116391936	41	4040
2026-01-06 03:38:10.45	136.12	56.19	-35.5	-36.7	18.4	0.00e+00	0	58	0	131072000	41	4164
2026-01-06 03:38:12.47	137.44	55.75	-35.1	-36.1	18.9	0.00e+00	0	58	0	145752064	41	3909
2026-01-06 03:38:14.49	138.71	55.31	-34.7	-35.8	19.0	0.00e+00	0	58	0	160432128	40	3984
2026-01-06 03:38:16.52	139.96	54.86	-35.4	-36.6	18.5	0.00e+00	0	58	0	174063616	40	4363
2026-01-06 03:38:18.54	141.16	54.39	-35.4	-36.6	18.5	0.00e+00	0	58	0	189792256	40	4347
2026-01-06 03:38:20.56	142.32	53.92	-35.1	-36.2	18.7	0.00e+00	0	58	0	203423744	40	4180
2026-01-06 03:38:22.58	143.44	53.45	-35.3	-36.5	18.6	0.00e+00	0	58	0	218103808	40	4300
2026-01-06 03:38:24.60	144.53	52.97	-35.1	-36.2	18.9	0.00e+00	0	58	0	232783872	40	4154
2026-01-06 03:38:26.62	145.58	52.48	-35.1	-36.2	18.8	0.00e+00	0	58	0	247463936	40	4170
2026-01-06 03:38:28.64	146.60	51.99	-35.4	-36.5	18.5	0.00e+00	0	58	0	262144000	40	4328
2026-01-06 03:38:30.66	147.58	51.49	-35.6	-36.8	18.3	0.00e+00	0	58	0	276824064	41	4194
2026-01-06 03:38:32.68	148.54	50.99	-35.4	-36.5	18.5	0.00e+00	0	58	0	291504128	41	4094
2026-01-06 03:38:34.70	149.46	50.49	-35.2	-36.3	18.7	0.00e+00	0	58	0	306184192	41	3980
2026-01-06 03:38:36.72	150.35	49.99	-35.3	-36.4	18.5	0.00e+00	0	58	0	319815680	41	4051
2026-01-06 03:38:38.75	151.22	49.48	-35.4	-36.5	17.9	0.00e+00	0	58	0	335544320	41	4086
2026-01-06 03:38:40.77	152.05	48.97	-34.9	-36.0	19.0	0.00e+00	0	58	0	349175808	40	4078
2026-01-06 03:38:42.79	152.86	48.47	-35.0	-36.1	18.9	0.00e+00	0	58	0	363855872	40	4112
2026-01-06 03:38:44.81	153.64	47.96	-35.0	-36.1	18.8	0.00e+00	0	58	0	378535936	40	4126
2026-01-06 03:38:46.83	154.40	47.45	-34.9	-36.0	18.9	0.00e+00	0	58	0	393216000	40	4078
2026-01-06 03:38:48.84	155.13	46.95	-34.5	-35.5	19.4	0.00e+00	0	58	0	407896064	39	4084
2026-01-06 03:38:50.86	155.85	46.45	-34.2	-35.2	19.7	0.00e+00	0	58	0	422576128	39	3946
2026-01-06 03:38:52.88	156.53	45.95	-34.0	-35.0	20.0	0.00e+00	0	58	0	437256192	38	4082
2026-01-06 03:38:54.91	157.21	45.44	-33.9	-34.9	20.0	0.00e+00	0	58	0	451936256	38	4015
2026-01-06 03:38:56.93	157.85	44.94	-33.8	-34.8	20.2	0.00e+00	0	58	0	466616320	38	3964
2026-01-06 03:38:58.95	158.48	44.45	-33.8	-34.8	20.1	0.00e+00	0	58	0	481296384	38	3986
2026-01-06 03:39:00.97	159.09	43.96	-33.9	-35.0	19.9	0.00e+00	0	57	0	494927872	38	4052
2026-01-06 03:39:02.99	159.68	43.46	-33.8	-34.8	20.1	0.00e+00	0	58	0	510656512	38	3999
2026-01-06 03:39:05.01	160.25	42.98	-34.0	-35.0	19.8	0.00e+00	0	57	0	524288000	38	4074
2026-01-06 03:39:07.03	160.81	42.49	-33.9	-34.9	20.1	0.00e+00	0	58	0	538968064	38	4017
2026-01-06 03:39:09.05	161.35	42.01	-33.6	-34.6	20.3	0.00e+00	0	58	0	553648128	38	3883
2026-01-06 03:39:11.07	161.87	41.54	-33.5	-34.5	20.3	0.00e+00	0	58	0	568328192	37	4076
2026-01-06 03:39:13.09	162.38	41.06	-33.8	-34.8	20.1	0.00e+00	0	58	0	583008256	37	4220
2026-01-06 03:39:15.11	162.88	40.59	-34.0	-35.0	19.9	0.00e+00	0	58	0	597688320	37	4313
2026-01-06 03:39:17.13	163.36	40.13	-33.9	-35.0	19.9	0.00e+00	0	58	0	612368384	37	4300
2026-01-06 03:39:19.16	163.83	39.66	-33.7	-34.7	20.2	0.00e+00	0	58	0	627048448	37	4161
2026-01-06 03:39:21.18	164.29	39.20	-33.6	-34.6	20.0	0.00e+00	0	58	0	640679936	37	4118
2026-01-06 03:39:23.20	164.73	38.75	-33.8	-34.8	20.0	0.00e+00	0	58	0	656408576	37	4224
2026-01-06 03:39:25.22	165.16	38.30	-33.9	-34.9	19.9	0.00e+00	0	57	0	670040064	37	4288
2026-01-06 03:39:27.24	165.58	37.85	-33.9	-34.9	19.9	0.00e+00	0	57	0	684720128	37	4277
2026-01-06 03:39:29.26	165.99	37.41	-33.9	-34.9	19.9	0.00e+00	0	58	0	699400192	37	4287
2026-01-06 03:39:31.28	166.38	36.98	-33.9	-34.9	19.9	0.00e+00	0	58	0	714080256	37	4263
2026-01-06 03:39:33.30	166.77	36.54	-33.9	-34.9	19.9	0.00e+00	0	57	0	728760320	37	4261
2026-01-06 03:39:35.32	167.15	36.12	-33.8	-34.8	20.0	0.00e+00	0	58	0	743440384	37	4231
2026-01-06 03:39:37.34	167.52	35.69	-33.6	-34.6	20.2	0.00e+00	0	58	0	758120448	37	4117
2026-01-06 03:39:39.36	167.88	35.27	-33.4	-34.4	20.4	0.00e+00	0	58	0	772800512	37	4033
2026-01-06 03:39:41.38	168.23	34.86	-33.2	-34.2	20.4	0.00e+00	0	58	0	787480576	37	3925
2026-01-06 03:39:43.40	168.57	34.44	-33.2	-34.2	20.6	0.00e+00	0	58	0	802160640	37	3940
2026-01-06 03:39:45.42	168.90	34.04	-33.3	-34.3	20.5	0.00e+00	0	57	0	815792128	37	3990
2026-01-06 03:39:47.43	169.23	33.64	-33.5	-34.5	20.3	0.00e+00	0	58	0	831520768	37	4072
2026-01-06 03:39:49.45	169.54	33.24	-33.6	-34.6	20.2	0.00e+00	0	58	0	845152256	37	4126
2026-01-06 03:39:51.47	169.85	32.85	-33.6	-34.6	20.0	0.00e+00	0	58	0	859832320	37	4141
2026-01-06 03:39:53.49	170.16	32.46	-33.5	-34.5	20.2	0.00e+00	0	58	0	874512384	37	4092
2026-01-06 03:39:55.51	170.45	32.07	-33.6	-34.6	20.2	0.00e+00	0	58	0	889192448	37	4114
2026-01-06 03:39:57.53	170.74	31.69	-33.4	-34.4	20.3	0.00e+00	0	58	0	903872512	37	4048
2026-01-06 03:39:59.55	171.02	31.31	-33.4	-34.5	20.3	0.00e+00	0	57	0	918552576	37	4052
2026-01-06 03:40:01.57	171.30	30.94	-33.5	-34.5	20.3	0.00e+00	0	58	0	933232640	37	4056
2026-01-06 03:40:03.60	171.57	30.57	-33.4	-34.4	20.1	0.00e+00	0	58	0	947912704	37	4019
2026-01-06 03:40:05.61	171.84	30.20	-33.5	-34.5	20.2	0.00e+00	0	58	0	961544192	37	4063
2026-01-06 03:40:07.63	172.09	29.84	-33.6	-34.6	20.1	0.00e+00	0	58	0	976224256	37	4119
2026-01-06 03:40:09.65	172.35	29.48	-33.6	-34.6	20.1	0.00e+00	0	58	0	990904320	37	4144
2026-01-06 03:40:11.67	172.59	29.13	-33.6	-34.6	20.1	0.00e+00	0	58	0	1005584384	37	4127
2026-01-06 03:40:13.69	172.84	28.78	-33.7	-34.7	20.0	0.00e+00	0	58	0	1020264448	37	4157
2026-01-06 03:40:15.71	173.08	28.44	-33.7	-34.7	20.0	0.00e+00	0	58	0	1034944512	37	4178
2026-01-06 03:40:17.73	173.31	28.09	-33.8	-34.8	19.9	0.00e+00	0	57	0	1049624576	37	4204
2026-01-06 03:40:19.75	173.54	27.76	-33.9	-34.9	19.8	0.00e+00	0	58	0	1064304640	37	4278
2026-01-06 03:40:21.76	173.76	27.42	-33.9	-35.0	19.8	0.00e+00	0	58	0	1078984704	37	4294
2026-01-06 03:40:23.78	173.98	27.09	-34.0	-35.0	19.7	0.00e+00	0	58	0	1092616192	37	4306
2026-01-06 03:40:25.80	174.19	26.76	-34.0	-35.1	19.6	0.00e+00	0	58	0	1108344832	37	4346
2026-01-06 03:40:27.82	174.40	26.44	-34.0	-35.0	19.7	0.00e+00	0	57	0	1121976320	37	4332
2026-01-06 03:40:29.84	174.61	26.12	-33.9	-35.0	19.7	0.00e+00	0	58	0	1136656384	37	4312
2026-01-06 03:40:31.86	174.81	25.80	-33.8	-34.9	19.8	0.00e+00	0	58	0	1151336448	37	4255
2026-01-06 03:40:33.88	175.01	25.49	-33.7	-34.7	19.9	0.00e+00	0	58	0	1166016512	37	4184
2026-01-06 03:40:35.91	175.21	25.18	-33.6	-34.6	20.0	0.00e+00	0	57	0	1180696576	37	4140
2026-01-06 03:40:37.93	175.40	24.87	-33.6	-34.6	20.1	0.00e+00	0	58	0	1195376640	37	4107
2026-01-06 03:40:39.95	175.58	24.57	-33.5	-34.6	20.1	0.00e+00	0	58	0	1210056704	37	4100
2026-01-06 03:40:41.97	175.77	24.27	-33.6	-34.6	20.0	0.00e+00	0	58	0	1224736768	37	4129
2026-01-06 03:40:43.99	175.95	23.97	-33.7	-34.7	19.9	0.00e+00	0	58	0	1239416832	37	4177
2026-01-06 03:40:46.01	176.13	23.67	-33.9	-34.9	19.7	0.00e+00	0	58	0	1254096896	37	4272
2026-01-06 03:40:48.04	176.30	23.38	-34.0	-35.0	19.6	0.00e+00	0	58	0	1268776960	37	4335
2026-01-06 03:40:50.05	176.47	23.09	-34.1	-35.1	19.5	0.00e+00	0	58	0	1282408448	37	4372
2026-01-06 03:40:52.08	176.64	22.81	-34.3	-35.3	19.3	0.00e+00	0	58	0	1297088512	38	4235
2026-01-06 03:40:54.10	176.81	22.52	-34.3	-35.3	19.3	0.00e+00	0	58	0	1311768576	38	4240
2026-01-06 03:40:56.11	176.97	22.25	-34.3	-35.3	19.2	0.00e+00	0	58	0	1326448640	38	4239
2026-01-06 03:40:58.14	177.13	21.97	-34.3	-35.3	19.3	0.00e+00	0	58	0	1341128704	38	4234
2026-01-06 03:41:00.16	177.29	21.69	-34.3	-35.3	19.3	0.00e+00	0	58	0	1355808768	38	4240
2026-01-06 03:41:02.18	177.44	21.42	-34.3	-35.3	19.3	0.00e+00	0	58	0	1370488832	38	4234
2026-01-06 03:41:04.20	177.60	21.15	-34.2	-35.3	19.4	0.00e+00	0	58	0	1385168896	38	4198
2026-01-06 03:41:06.22	177.74	20.89	-34.2	-35.2	19.4	0.00e+00	0	58	0	1399848960	38	4190
2026-01-06 03:41:08.24	177.89	20.62	-34.2	-35.3	19.3	0.00e+00	0	58	0	1414529024	38	4213
2026-01-06 03:41:10.26	178.04	20.36	-34.2	-35.2	19.4	0.00e+00	0	58	0	1429209088	38	4180
2026-01-06 03:41:12.28	178.18	20.11	-34.2	-35.3	19.3	0.00e+00	0	58	0	1442840576	38	4203
2026-01-06 03:41:14.30	178.32	19.85	-34.4	-35.4	19.1	0.00e+00	0	58	0	1457520640	38	4288
2026-01-06 03:41:16.32	178.46	19.60	-34.4	-35.5	19.1	0.00e+00	0	58	0	1472200704	38	4315
2026-01-06 03:41:18.34	178.59	19.35	-34.6	-35.7	18.9	0.00e+00	0	58	0	1486880768	38	4399
2026-01-06 03:41:20.37	178.73	19.10	-34.7	-35.8	18.8	0.00e+00	0	58	0	1501560832	38	4458
2026-01-06 03:41:22.39	178.86	18.85	-34.8	-35.9	18.7	0.00e+00	0	58	0	1516240896	39	4260
2026-01-06 03:41:24.41	178.99	18.61	-34.8	-35.9	18.5	0.00e+00	0	58	0	1530920960	39	4289
2026-01-06 03:41:26.43	179.12	18.36	-34.9	-36.0	18.5	0.00e+00	0	58	0	1545601024	39	4318
2026-01-06 03:41:28.44	179.24	18.13	-34.9	-36.1	18.5	0.00e+00	0	58	0	1560281088	39	4360
2026-01-06 03:41:30.46	179.37	17.89	-35.0	-36.2	18.4	0.00e+00	0	58	0	1574961152	39	4405
2026-01-06 03:41:32.48	179.49	17.65	-35.2	-36.4	18.2	0.00e+00	0	58	0	1588592640	39	4497
2026-01-06 03:41:34.50	179.61	17.42	-35.0	-36.2	18.3	0.00e+00	0	58	0	1603272704	39	4397
2026-01-06 03:41:36.52	179.73	17.19	-35.0	-36.1	18.4	0.00e+00	0	58	0	1617952768	39	4376
2026-01-06 03:41:38.55	179.85	16.96	-35.0	-36.1	18.4	0.00e+00	0	58	0	1632632832	39	4372
2026-01-06 03:41:40.57	179.96	16.73	-35.0	-36.2	18.3	0.00e+00	0	58	0	1647312896	39	4414
2026-01-06 03:41:42.58	180.07	16.51	-35.0	-36.2	18.3	0.00e+00	0	58	0	1661992960	39	4399
2026-01-06 03:41:44.60	180.19	16.29	-35.2	-36.4	18.1	0.00e+00	0	58	0	1676673024	39	4501
2026-01-06 03:41:46.63	180.30	16.06	-35.2	-36.4	18.1	0.00e+00	0	58	0	1691353088	39	4494
2026-01-06 03:41:48.65	180.41	15.85	-35.2	-36.4	17.9	0.00e+00	0	58	0	1706033152	40	4282
2026-01-06 03:41:50.67	180.51	15.63	-35.3	-36.5	17.9	0.00e+00	0	58	0	1720713216	40	4331
2026-01-06 03:41:52.69	180.62	15.41	-35.5	-36.7	17.7	0.00e+00	0	58	0	1735393280	40	4410
2026-01-06 03:41:54.71	180.72	15.20	-35.5	-36.7	17.6	0.00e+00	0	58	0	1750073344	40	4435
2026-01-06 03:41:56.73	180.83	14.99	-35.7	-36.9	17.4	0.00e+00	0	58	0	1763704832	40	4536
2026-01-06 03:41:58.75	180.93	14.78	-35.8	-37.1	17.3	0.00e+00	0	58	0	1778384896	41	4343
2026-01-06 03:42:00.77	181.03	14.57	-35.9	-37.2	17.1	0.00e+00	0	58	0	1793064960	41	4395
2026-01-06 03:42:02.79	181.13	14.36	-36.1	-37.4	16.9	0.00e+00	0	58	0	1807745024	41	4526
2026-01-06 03:42:04.81	181.23	14.16	-36.0	-37.3	17.0	0.00e+00	0	58	0	1822425088	41	4479
2026-01-06 03:42:06.83	181.32	13.96	-36.1	-37.4	17.0	0.00e+00	0	58	0	1837105152	41	4502
2026-01-06 03:42:08.85	181.42	13.75	-36.3	-37.6	16.7	0.00e+00	0	58	0	1851785216	42	4362
2026-01-06 03:42:10.87	181.51	13.55	-36.5	-37.9	16.4	0.00e+00	0	58	0	1866465280	42	4501
2026-01-06 03:42:12.89	181.61	13.36	-36.1	-37.4	16.9	0.00e+00	0	58	0	1881145344	42	4283
2026-01-06 03:42:14.90	181.70	13.16	-35.9	-37.2	17.2	0.00e+00	0	58	0	1895825408	42	4156
2026-01-06 03:42:16.92	181.79	12.96	-35.9	-37.2	17.1	0.00e+00	0	58	0	1909456896	42	4177
2026-01-06 03:42:18.94	181.88	12.77	-35.9	-37.1	17.2	0.00e+00	0	58	0	1924136960	42	4140
2026-01-06 03:42:20.96	181.97	12.58	-35.9	-37.2	17.2	0.00e+00	0	58	0	1938817024	42	4154
2026-01-06 03:42:22.98	182.06	12.39	-36.0	-37.3	17.0	0.00e+00	0	58	0	1953497088	42	4202
2026-01-06 03:42:25.00	182.14	12.20	-35.9	-37.2	17.1	0.00e+00	0	58	0	1968177152	42	4187
2026-01-06 03:42:27.02	182.23	12.01	-36.0	-37.4	16.9	0.00e+00	0	58	0	1982857216	42	4243
2026-01-06 03:42:29.04	182.31	11.82	-36.0	-37.3	17.0	0.00e+00	0	58	0	1997537280	42	4210
2026-01-06 03:42:31.06	182.40	11.64	-36.1	-37.5	16.8	0.00e+00	0	57	0	2012217344	42	4314
2026-01-06 03:42:33.08	182.48	11.45	-36.1	-37.4	16.9	0.00e+00	0	58	0	2026897408	42	4260
2026-01-06 03:42:35.10	182.56	11.27	-36.2	-37.6	16.7	0.00e+00	0	58	0	2041577472	42	4357
2026-01-06 03:42:37.12	182.64	11.09	-36.4	-37.8	16.5	0.00e+00	0	58	0	2055208960	42	4442
2026-01-06 03:42:39.14	182.72	10.91	-36.7	-38.1	16.1	0.00e+00	0	58	0	2070937600	42	4646
2026-01-06 03:42:41.16	182.80	10.73	-36.7	-38.2	16.0	0.00e+00	0	58	0	2084569088	43	4400
2026-01-06 03:42:43.18	182.88	10.55	-36.4	-37.8	16.4	0.00e+00	0	58	0	2099249152	43	4234
2026-01-06 03:42:45.20	182.96	10.38	-36.5	-38.0	16.2	0.00e+00	0	58	0	2113929216	43	4300
2026-01-06 03:42:47.22	183.03	10.20	-36.7	-38.1	16.1	0.00e+00	0	58	0	2128609280	43	4376
2026-01-06 03:42:49.23	183.11	10.03	-36.9	-38.4	15.7	0.00e+00	0	58	0	2143289344	43	4497
2026-01-06 03:42:51.26	183.18	9.86	-36.9	-38.4	15.7	0.00e+00	0	58	0	2157969408	43	4525
2026-01-06 03:42:53.28	183.26	9.68	-36.9	-38.5	15.6	0.00e+00	0	58	0	2172649472	43	4547
2026-01-06 03:42:55.29	183.33	9.51	-37.0	-38.6	15.5	0.00e+00	0	58	0	2187329536	43	4606
2026-01-06 03:42:57.31	183.40	9.35	-37.0	-38.6	15.5	0.00e+00	0	58	0	2200961024	43	4612
2026-01-06 03:42:59.33	183.47	9.18	-37.3	-38.9	15.3	0.00e+00	0	58	0	2216689664	44	4518
2026-01-06 03:43:01.35	183.54	9.01	-37.2	-38.8	15.4	0.00e+00	0	58	0	2230321152	44	4460
2026-01-06 03:43:03.37	183.61	8.84	-37.3	-38.9	15.3	0.00e+00	0	58	0	2245001216	44	4526
2026-01-06 03:43:05.39	183.68	8.68	-37.3	-38.9	15.3	0.00e+00	0	58	0	2259681280	44	4512
2026-01-06 03:43:07.41	183.75	8.52	-37.3	-38.9	15.3	0.00e+00	0	58	0	2274361344	44	4502
2026-01-06 03:43:09.43	183.82	8.35	-37.2	-38.7	15.4	0.00e+00	0	58	0	2289041408	44	4441
2026-01-06 03:43:11.45	183.89	8.19	-37.3	-38.8	15.2	0.00e+00	0	58	0	2303721472	44	4481
2026-01-06 03:43:13.47	183.95	8.03	-38.0	-39.8	14.4	0.00e+00	0	58	0	2318401536	45	4748
2026-01-06 03:43:15.49	184.02	7.87	-45.2	-56.0	3.8	8.46e-01	0	58	104	2319450112	59	13614
2026-01-06 03:43:17.51	184.08	7.71	-45.3	-56.5	3.8	8.46e-01	0	58	104	2319450112	60	13578
2026-01-06 03:43:19.53	184.15	7.55	-45.5	-56.6	3.8	8.46e-01	0	58	104	2319450112	60	13840
2026-01-06 03:43:21.56	184.21	7.40	-45.6	-56.7	3.8	8.46e-01	0	58	104	2319450112	60	14007
2026-01-06 03:43:23.58	184.28	7.24	-45.6	-56.7	3.8	8.48e-01	0	58	104	2319450112	60	13971
2026-01-06 03:43:25.60	184.34	7.09	-45.6	-56.7	3.8	8.47e-01	0	58	104	2319450112	60	13937
2026-01-06 03:43:27.62	184.40	6.93	-45.6	-56.7	3.8	8.46e-01	0	58	104	2319450112	60	13893
2026-01-06 03:43:29.64	184.46	6.78	-45.5	-56.6	3.8	8.47e-01	0	58	104	2319450112	60	13850
2026-01-06 03:43:31.66	184.52	6.63	-45.5	-56.6	3.8	8.47e-01	0	58	104	2319450112	60	13812
2026-01-06 03:43:33.68	184.58	6.47	-45.5	-56.6	3.8	8.48e-01	0	58	104	2319450112	60	13789
2026-01-06 03:43:35.70	184.64	6.32	-45.5	-56.6	3.8	8.46e-01	0	58	104	2319450112	60	13767
2026-01-06 03:43:37.73	184.70	6.17	-45.5	-56.6	3.8	8.45e-01	0	58	104	2319450112	60	13833
2026-01-06 03:43:39.75	184.76	6.02	-45.5	-56.6	3.8	8.46e-01	0	58	104	2319450112	60	13751
2026-01-06 03:43:41.77	184.82	5.88	-45.5	-56.5	3.8	8.46e-01	0	58	104	2319450112	60	13709
2026-01-06 03:43:43.79	184.88	5.73	-45.5	-56.5	3.8	8.47e-01	0	58	104	2319450112	60	13724
2026-01-06 03:43:45.81	184.93	5.58	-45.5	-56.6	3.8	8.46e-01	0	58	104	2319450112	60	13742
2026-01-06 03:43:47.83	184.99	5.44	-45.5	-56.5	3.8	8.46e-01	0	58	104	2319450112	60	13719
2026-01-06 03:43:49.85	185.05	5.29	-45.5	-56.5	3.8	8.47e-01	0	58	104	2319450112	60	13677
2026-01-06 03:43:51.87	185.10	5.15	-45.5	-56.5	3.8	8.45e-01	0	58	104	2319450112	60	13654
2026-01-06 03:43:53.90	185.16	5.00	-45.4	-56.5	3.8	8.47e-01	0	58	104	2319450112	60	13608
2026-01-06 03:43:55.92	185.21	4.86	-45.4	-56.5	3.8	8.46e-01	0	58	104	2319450112	60	13674
2026-01-06 03:43:57.94	185.27	4.72	-45.4	-56.5	3.8	8.45e-01	0	58	104	2319450112	60	13637
2026-01-06 03:43:59.96	185.32	4.58	-45.5	-56.5	3.8	8.46e-01	0	58	104	2319450112	60	13715
2026-01-06 03:44:01.99	185.37	4.44	-45.4	-56.5	3.8	8.46e-01	0	58	104	2319450112	60	13656
2026-01-06 03:44:04.01	185.43	4.30	-45.4	-56.5	3.8	8.46e-01	0	58	104	2319450112	60	13648
2026-01-06 03:44:06.03	185.48	4.16	-45.4	-56.5	3.8	8.45e-01	0	58	104	2319450112	60	13642
2026-01-06 03:44:08.05	185.53	4.02	-45.4	-56.5	3.8	8.47e-01	0	58	104	2319450112	60	13628
2026-01-06 03:44:10.07	185.58	3.88	-45.4	-56.5	3.8	8.45e-01	0	58	104	2319450112	60	13630
2026-01-06 03:44:12.09	185.63	3.75	-45.3	-56.4	3.8	8.46e-01	0	58	104	2319450112	60	13541
2026-01-06 03:44:14.12	185.68	3.61	-45.4	-56.5	3.8	8.47e-01	0	58	104	2319450112	60	13634
2026-01-06 03:44:16.14	185.73	3.47	-45.4	-56.5	3.8	8.47e-01	0	58	104	2319450112	60	13570
2026-01-06 03:44:18.16	185.78	3.34	-45.4	-56.5	3.8	8.46e-01	0	58	104	2319450112	60	13575
2026-01-06 03:44:20.18	185.83	3.21	-45.4	-56.4	3.8	8.47e-01	0	58	104	2319450112	60	13559
2026-01-06 03:44:22.20	185.88	3.07	-45.4	-56.4	3.8	8.46e-01	0	58	104	2319450112	60	13569
2026-01-06 03:44:24.23	185.93	2.94	-45.4	-56.4	3.8	8.46e-01	0	58	104	2319450112	60	13532
2026-01-06 03:44:26.25	185.98	2.81	-45.4	-56.4	3.8	8.45e-01	0	58	104	2319450112	60	13526
2026-01-06 03:44:28.27	186.03	2.67	-45.4	-56.4	3.8	8.46e-01	0	58	104	2319450112	60	13536
2026-01-06 03:44:30.29	186.07	2.54	-45.4	-56.4	3.8	8.45e-01	0	58	104	2319450112	60	13556
2026-01-06 03:44:32.31	186.12	2.41	-45.4	-56.4	3.8	8.46e-01	0	58	104	2319450112	60	13541
2026-01-06 03:44:34.34	186.17	2.28	-45.4	-56.4	3.8	8.46e-01	0	58	104	2319450112	60	13544
2026-01-06 03:44:36.36	186.21	2.15	-45.4	-56.4	3.8	8.46e-01	0	58	104	2319450112	60	13537
2026-01-06 03:44:38.38	186.26	2.02	-45.4	-56.4	3.8	8.45e-01	0	58	104	2319450112	60	13513

#Closed at: 2026-01-06 03:44:38
#Recorded file [2319 MB]: D:/lorett/data/31039_260106_063701.dat