passes_logs/2026/01/06/R2.0S_Moscow/R2.0S_Moscow__20260106_014344_FENGYUN_3D_rec.log

#Pass ID: 20260106_014344_FENGYUN 3D
#Satellite: FENGYUN 3D
#Configuration: FENGYUN 3D
#almurnet v.1.7.20251203
#Start time: 2026-01-06 01:46:03

#Version: 2.2.20231116
#Station: R2.0S_Moscow
#Location: 37.707566 lon 55.798166 lat
#TLE: 1 43010U 17072A   26005.48915933 -.00000051  00000+0 -21983-5 0  9995
#TLE: 2 43010  98.9919 337.1582 0002001 124.6377 235.4988 14.19691925421909

#Time	Az	El	Level	Level2	SNR	BER	BlckErr	Temp	State	Recorded	gain1	gain2
2026-01-06 01:46:03.59	17.18	12.76	-46.1	-64.9	3.8	7.45e-01	0	56	0	0	63	32097
2026-01-06 01:46:06.63	17.19	13.05	-45.4	-57.2	3.8	8.46e-01	0	56	104	0	62	14027
2026-01-06 01:46:09.66	17.21	13.35	-45.0	-56.7	3.8	8.47e-01	0	56	104	0	62	13208
2026-01-06 01:46:12.69	17.22	13.66	-44.7	-55.7	3.8	8.47e-01	0	56	104	0	61	12432
2026-01-06 01:46:15.73	17.23	13.96	-44.5	-54.2	3.9	8.44e-01	0	56	104	0	61	10524
2026-01-06 01:46:18.76	17.24	14.27	-44.4	-53.0	4.2	8.39e-01	0	56	0	0	60	9667
2026-01-06 01:46:21.80	17.26	14.59	-44.3	-52.5	4.3	8.30e-01	0	56	0	0	60	9138
2026-01-06 01:46:24.83	17.27	14.91	-44.3	-52.7	4.3	8.33e-01	0	56	0	0	60	9348
2026-01-06 01:46:27.86	17.28	15.23	-44.3	-52.5	4.3	8.29e-01	0	56	0	0	60	9111
2026-01-06 01:46:30.89	17.29	15.56	-44.1	-51.5	4.7	8.04e-01	0	56	0	0	60	8106
2026-01-06 01:46:33.93	17.31	15.89	-43.7	-49.7	5.8	5.49e-01	0	56	0	2097152	59	6971
2026-01-06 01:46:36.96	17.32	16.23	-43.3	-48.5	6.7	2.15e-01	0	56	0	18874368	58	6473
2026-01-06 01:46:39.99	17.33	16.57	-43.7	-49.6	5.9	3.44e-01	0	56	0	36700160	58	7326
2026-01-06 01:46:43.03	17.34	16.92	-44.4	-53.2	4.1	8.40e-01	0	56	0	38797312	59	10477
2026-01-06 01:46:46.06	17.35	17.27	-42.4	-46.3	8.8	8.39e-02	0	56	0	47185920	56	5640
2026-01-06 01:46:49.09	17.37	17.63	-38.5	-40.4	14.9	2.20e-06	0	56	0	63963136	49	4277
2026-01-06 01:46:52.13	17.38	17.99	-35.6	-37.0	18.0	0.00e+00	0	56	0	80740352	43	4078
2026-01-06 01:46:55.16	17.39	18.36	-34.6	-35.8	19.1	0.00e+00	0	56	0	97517568	41	3996
2026-01-06 01:46:58.19	17.40	18.73	-35.2	-36.5	18.5	0.00e+00	0	56	0	115343360	41	4324
2026-01-06 01:47:01.22	17.42	19.11	-36.9	-38.5	16.7	0.00e+00	0	56	0	132120576	45	4301
2026-01-06 01:47:04.25	17.43	19.49	-34.7	-36.0	19.1	0.00e+00	0	56	0	148897792	41	4058
2026-01-06 01:47:07.28	17.44	19.88	-34.3	-35.5	19.5	0.00e+00	0	57	0	165675008	40	4089
2026-01-06 01:47:10.31	17.45	20.28	-34.3	-35.4	19.6	0.00e+00	0	56	0	183500800	40	4049
2026-01-06 01:47:13.35	17.46	20.68	-34.3	-35.4	19.6	0.00e+00	0	56	0	200278016	40	4039
2026-01-06 01:47:16.37	17.48	21.09	-34.0	-35.1	19.9	0.00e+00	0	56	0	217055232	40	3911
2026-01-06 01:47:19.40	17.49	21.51	-34.1	-35.3	19.8	0.00e+00	0	57	0	234881024	39	4219
2026-01-06 01:47:22.43	17.50	21.93	-34.1	-35.3	19.8	0.00e+00	0	56	0	251658240	39	4206
2026-01-06 01:47:25.45	17.51	22.36	-33.9	-35.1	20.0	0.00e+00	0	56	0	268435456	39	4120
2026-01-06 01:47:28.48	17.53	22.80	-33.9	-35.1	20.1	0.00e+00	0	56	0	285212672	39	4106
2026-01-06 01:47:31.51	17.54	23.24	-33.8	-34.9	20.2	0.00e+00	0	56	0	301989888	39	4040
2026-01-06 01:47:34.54	17.55	23.70	-33.7	-34.9	20.2	0.00e+00	0	56	0	319815680	39	4016
2026-01-06 01:47:37.58	17.56	24.16	-33.7	-34.9	20.3	0.00e+00	0	57	0	336592896	39	4018
2026-01-06 01:47:40.60	17.58	24.63	-33.6	-34.7	20.5	0.00e+00	0	56	0	353370112	39	3933
2026-01-06 01:47:43.63	17.59	25.11	-33.5	-34.6	20.6	0.00e+00	0	56	0	370147328	38	4102
2026-01-06 01:47:46.67	17.60	25.60	-33.4	-34.5	20.6	0.00e+00	0	56	0	387973120	38	4083
2026-01-06 01:47:49.70	17.61	26.09	-33.4	-34.5	20.7	0.00e+00	0	56	0	404750336	38	4075
2026-01-06 01:47:52.73	17.63	26.60	-33.3	-34.4	20.8	0.00e+00	0	56	0	421527552	38	4025
2026-01-06 01:47:55.75	17.64	27.11	-33.3	-34.4	20.8	0.00e+00	0	57	0	439353344	38	4029
2026-01-06 01:47:58.79	17.65	27.64	-33.1	-34.2	21.0	0.00e+00	0	57	0	456130560	38	3922
2026-01-06 01:48:01.82	17.66	28.18	-33.0	-34.1	21.1	0.00e+00	0	57	0	472907776	38	3877
2026-01-06 01:48:04.85	17.68	28.72	-33.3	-34.4	20.9	0.00e+00	0	56	0	489684992	38	4008
2026-01-06 01:48:07.88	17.69	29.28	-33.5	-34.6	20.7	0.00e+00	0	56	0	506462208	38	4109
2026-01-06 01:48:10.91	17.70	29.85	-33.4	-34.5	20.7	0.00e+00	0	56	0	524288000	38	4062
2026-01-06 01:48:13.94	17.71	30.43	-33.4	-34.5	20.8	0.00e+00	0	56	0	541065216	38	4061
2026-01-06 01:48:16.97	17.73	31.02	-33.4	-34.5	20.7	0.00e+00	0	56	0	557842432	38	4076
2026-01-06 01:48:20.01	17.74	31.63	-33.3	-34.4	20.9	0.00e+00	0	56	0	575668224	38	4017
2026-01-06 01:48:23.04	17.75	32.25	-32.9	-34.0	21.2	0.00e+00	0	57	0	592445440	37	4070
2026-01-06 01:48:26.07	17.76	32.88	-32.6	-33.6	21.6	0.00e+00	0	56	0	609222656	37	3900
2026-01-06 01:48:29.10	17.78	33.52	-32.8	-33.9	21.3	0.00e+00	0	56	0	625999872	37	4023
2026-01-06 01:48:32.13	17.79	34.18	-32.8	-33.8	21.4	0.00e+00	0	56	0	643825664	37	3988
2026-01-06 01:48:35.16	17.80	34.85	-32.7	-33.8	21.5	0.00e+00	0	56	0	660602880	37	3977
2026-01-06 01:48:38.19	17.82	35.54	-32.8	-33.8	21.4	0.00e+00	0	56	0	677380096	37	3999
2026-01-06 01:48:41.22	17.83	36.25	-32.8	-33.9	21.4	0.00e+00	0	56	0	694157312	37	4010
2026-01-06 01:48:44.25	17.84	36.96	-32.5	-33.5	21.7	0.00e+00	0	56	0	711983104	36	4081
2026-01-06 01:48:47.28	17.86	37.70	-32.7	-33.7	21.5	0.00e+00	0	56	0	728760320	36	4180
2026-01-06 01:48:50.31	17.87	38.45	-32.9	-34.0	21.3	0.00e+00	0	56	0	745537536	36	4310
2026-01-06 01:48:53.34	17.88	39.22	-32.8	-33.8	21.5	0.00e+00	0	56	0	762314752	36	4227
2026-01-06 01:48:56.37	17.90	40.01	-33.1	-34.1	21.2	0.00e+00	0	56	0	780140544	36	4391
2026-01-06 01:48:59.40	17.91	40.81	-33.1	-34.1	21.2	0.00e+00	0	56	0	796917760	37	4131
2026-01-06 01:49:02.43	17.92	41.63	-33.1	-34.1	21.2	0.00e+00	0	56	0	813694976	37	4123
2026-01-06 01:49:05.45	17.94	42.47	-33.3	-34.4	20.9	0.00e+00	0	56	0	830472192	37	4271
2026-01-06 01:49:08.48	17.95	43.33	-33.4	-34.5	20.8	0.00e+00	0	56	0	848297984	37	4315
2026-01-06 01:49:11.51	17.97	44.21	-33.2	-34.2	21.1	0.00e+00	0	57	0	865075200	37	4182
2026-01-06 01:49:14.54	17.98	45.12	-33.4	-34.5	20.8	0.00e+00	0	56	0	881852416	37	4337
2026-01-06 01:49:17.57	18.00	46.04	-33.3	-34.4	20.9	0.00e+00	0	56	0	898629632	37	4259
2026-01-06 01:49:20.60	18.01	46.98	-32.9	-34.1	20.8	0.00e+00	0	56	0	916455424	37	4122
2026-01-06 01:49:23.63	18.03	47.95	-32.8	-34.0	20.9	0.00e+00	0	56	0	933232640	37	4058
2026-01-06 01:49:26.66	18.04	48.94	-32.9	-34.1	20.8	0.00e+00	0	56	0	950009856	37	4107
2026-01-06 01:49:29.69	18.06	49.95	-33.3	-34.4	20.5	0.00e+00	0	56	0	966787072	37	4286
2026-01-06 01:49:32.72	18.07	50.98	-33.9	-35.2	19.8	0.00e+00	0	56	0	984612864	38	4405
2026-01-06 01:49:35.75	18.09	52.04	-34.4	-35.6	19.3	0.00e+00	0	57	0	1001390080	39	4386
2026-01-06 01:49:38.78	18.11	53.12	-34.2	-35.4	19.5	0.00e+00	0	56	0	1018167296	39	4288
2026-01-06 01:49:41.81	18.12	54.23	-34.2	-35.5	19.5	0.00e+00	0	56	0	1034944512	39	4309
2026-01-06 01:49:44.84	18.14	55.36	-33.8	-35.0	20.0	0.00e+00	0	56	0	1052770304	39	4077
2026-01-06 01:49:47.87	18.16	56.51	-34.2	-35.5	19.6	0.00e+00	0	56	0	1069547520	39	4304
2026-01-06 01:49:50.90	18.18	57.69	-34.2	-35.5	19.5	0.00e+00	0	56	0	1086324736	39	4327
2026-01-06 01:49:53.94	18.20	58.90	-33.8	-35.0	19.9	0.00e+00	0	56	0	1103101952	39	4083
2026-01-06 01:49:56.97	18.22	60.12	-32.9	-34.0	20.8	0.00e+00	0	56	0	1120927744	37	4094
2026-01-06 01:49:59.99	18.24	61.37	-33.3	-34.5	20.5	0.00e+00	0	56	0	1137704960	37	4319
2026-01-06 01:50:03.02	18.26	62.65	-33.1	-34.2	20.7	0.00e+00	0	56	0	1154482176	37	4189
2026-01-06 01:50:06.05	18.28	63.95	-32.6	-33.7	21.1	0.00e+00	0	56	0	1172307968	37	3946
2026-01-06 01:50:09.07	18.31	65.27	-32.3	-33.5	21.2	0.00e+00	0	57	0	1189085184	36	4061
2026-01-06 01:50:12.11	18.34	66.62	-31.6	-32.8	21.2	0.00e+00	0	56	0	1205862400	34	4195
2026-01-06 01:50:15.13	18.37	67.99	-31.7	-32.9	21.1	0.00e+00	0	56	0	1222639616	34	4263
2026-01-06 01:50:18.17	18.40	69.38	-31.5	-32.7	21.3	0.00e+00	0	57	0	1239416832	34	4151
2026-01-06 01:50:21.20	18.44	70.80	-31.1	-32.2	21.6	0.00e+00	0	56	0	1257242624	33	4192
2026-01-06 01:50:24.23	18.48	72.23	-31.2	-32.3	21.5	0.00e+00	0	56	0	1274019840	33	4222
2026-01-06 01:50:27.26	18.52	73.69	-31.0	-32.1	21.7	0.00e+00	0	56	0	1290797056	33	4119
2026-01-06 01:50:30.29	18.57	75.16	-31.0	-32.1	21.5	0.00e+00	0	57	0	1307574272	33	4144
2026-01-06 01:50:33.32	18.64	76.64	-30.5	-31.6	22.1	0.00e+00	0	56	0	1325400064	32	4110
2026-01-06 01:50:36.35	18.71	78.15	-30.2	-31.3	22.3	0.00e+00	0	56	0	1342177280	32	3975
2026-01-06 01:50:39.38	18.81	79.67	-30.1	-31.2	22.2	0.00e+00	0	57	0	1358954496	32	3941
2026-01-06 01:50:42.41	18.93	81.20	-29.6	-30.7	22.6	0.00e+00	0	56	0	1376780288	30	4167
2026-01-06 01:50:45.45	19.11	82.74	-29.1	-30.1	23.1	0.00e+00	0	56	0	1393557504	29	4113
2026-01-06 01:50:48.48	19.37	84.29	-29.6	-30.7	22.5	0.00e+00	0	56	0	1410334720	29	4412
2026-01-06 01:50:51.51	19.83	85.85	-29.9	-31.0	22.4	0.00e+00	0	56	0	1427111936	30	4316
2026-01-06 01:50:54.54	20.82	87.41	-30.0	-31.1	22.2	0.00e+00	0	56	0	1443889152	30	4386
2026-01-06 01:50:57.57	24.80	88.97	-30.4	-31.5	21.6	0.00e+00	0	57	0	1461714944	31	4339
2026-01-06 01:51:00.60	185.92	89.45	-30.8	-32.0	21.6	0.00e+00	0	56	0	1478492160	33	4059
2026-01-06 01:51:03.64	195.04	87.88	-30.3	-31.5	21.9	0.00e+00	0	56	0	1495269376	32	4054
2026-01-06 01:51:06.66	196.41	86.33	-29.7	-30.8	22.4	0.00e+00	0	56	0	1513095168	31	3998
2026-01-06 01:51:09.70	196.97	84.76	-29.5	-30.5	22.6	0.00e+00	0	56	0	1529872384	30	4085
2026-01-06 01:51:12.73	197.28	83.21	-29.3	-30.4	22.8	0.00e+00	0	56	0	1546649600	30	4038
2026-01-06 01:51:15.76	197.47	81.66	-29.1	-30.2	22.9	0.00e+00	0	56	0	1563426816	30	3933
2026-01-06 01:51:18.79	197.61	80.13	-29.4	-30.5	22.7	0.00e+00	0	56	0	1581252608	30	4053
2026-01-06 01:51:21.82	197.71	78.61	-29.8	-30.9	22.5	0.00e+00	0	57	0	1598029824	30	4249
2026-01-06 01:51:24.86	197.80	77.09	-30.0	-31.1	22.3	0.00e+00	0	56	0	1614807040	30	4348
2026-01-06 01:51:27.89	197.86	75.60	-30.3	-31.4	22.0	0.00e+00	0	57	0	1631584256	31	4265
2026-01-06 01:51:30.92	197.92	74.12	-30.4	-31.5	21.9	0.00e+00	0	56	0	1649410048	31	4321
2026-01-06 01:51:33.95	197.96	72.66	-30.2	-31.3	22.1	0.00e+00	0	56	0	1666187264	31	4219
2026-01-06 01:51:36.98	198.00	71.21	-31.2	-32.3	21.5	0.00e+00	0	57	0	1682964480	33	4223
2026-01-06 01:51:40.01	198.04	69.79	-31.4	-32.6	21.2	0.00e+00	0	57	0	1700790272	33	4361
2026-01-06 01:51:43.04	198.07	68.39	-31.3	-32.4	21.3	0.00e+00	0	56	0	1717567488	33	4286
2026-01-06 01:51:46.06	198.10	67.01	-31.6	-32.8	21.0	0.00e+00	0	57	0	1734344704	33	4448
2026-01-06 01:51:49.09	198.13	65.65	-31.3	-32.4	21.3	0.00e+00	0	57	0	1751121920	33	4279
2026-01-06 01:51:52.12	198.16	64.32	-31.5	-32.7	21.2	0.00e+00	0	57	0	1767899136	33	4401
2026-01-06 01:51:55.15	198.18	63.01	-31.5	-32.6	21.4	0.00e+00	0	56	0	1785724928	33	4357
2026-01-06 01:51:58.18	198.20	61.72	-31.8	-32.9	21.1	0.00e+00	0	56	0	1802502144	34	4283
2026-01-06 01:52:01.21	198.22	60.45	-31.7	-32.8	21.2	0.00e+00	0	57	0	1819279360	34	4216
2026-01-06 01:52:04.23	198.24	59.22	-31.9	-33.0	21.0	0.00e+00	0	56	0	1836056576	34	4312
2026-01-06 01:52:07.26	198.26	58.00	-32.4	-33.6	20.4	0.00e+00	0	56	0	1853882368	35	4374
2026-01-06 01:52:10.29	198.28	56.81	-34.0	-35.3	19.6	0.00e+00	0	56	0	1870659584	38	4475
2026-01-06 01:52:13.32	198.30	55.65	-33.9	-35.2	19.7	0.00e+00	0	57	0	1887436800	38	4409
2026-01-06 01:52:16.35	198.32	54.51	-33.8	-35.0	19.8	0.00e+00	0	57	0	1905262592	38	4334
2026-01-06 01:52:19.38	198.33	53.39	-33.6	-34.8	20.0	0.00e+00	0	56	0	1922039808	38	4224
2026-01-06 01:52:22.41	198.35	52.30	-33.7	-34.9	19.9	0.00e+00	0	56	0	1938817024	38	4287
2026-01-06 01:52:25.44	198.36	51.23	-33.4	-34.6	20.2	0.00e+00	0	57	0	1955594240	38	4136
2026-01-06 01:52:28.47	198.38	50.19	-32.9	-34.1	20.7	0.00e+00	0	56	0	1972371456	37	4101
2026-01-06 01:52:31.50	198.39	49.16	-33.0	-34.2	20.6	0.00e+00	0	56	0	1990197248	37	4158
2026-01-06 01:52:34.53	198.41	48.16	-32.9	-34.0	20.7	0.00e+00	0	57	0	2006974464	37	4094
2026-01-06 01:52:37.56	198.42	47.19	-32.6	-33.7	21.0	0.00e+00	0	57	0	2023751680	37	3947
2026-01-06 01:52:40.59	198.44	46.23	-32.9	-34.1	20.6	0.00e+00	0	56	0	2040528896	37	4141
2026-01-06 01:52:43.62	198.45	45.30	-32.8	-34.0	20.7	0.00e+00	0	56	0	2058354688	37	4075
2026-01-06 01:52:46.65	198.47	44.39	-32.6	-33.7	20.9	0.00e+00	0	56	0	2075131904	37	3940
2026-01-06 01:52:49.68	198.48	43.50	-32.7	-33.9	20.7	0.00e+00	0	57	0	2091909120	37	4017
2026-01-06 01:52:52.71	198.49	42.63	-33.0	-34.2	20.3	0.00e+00	0	56	0	2109734912	37	4172
2026-01-06 01:52:55.74	198.50	41.78	-32.6	-33.8	20.7	0.00e+00	0	57	0	2126512128	37	3966
2026-01-06 01:52:58.77	198.52	40.95	-32.3	-33.5	21.0	0.00e+00	0	56	0	2143289344	36	4070
2026-01-06 01:53:01.80	198.53	40.13	-32.2	-33.4	21.0	0.00e+00	0	56	0	2160066560	36	4024
2026-01-06 01:53:04.83	198.54	39.34	-32.1	-33.3	21.1	0.00e+00	0	56	0	2176843776	36	3963
2026-01-06 01:53:07.86	198.55	38.56	-31.2	-32.3	21.2	0.00e+00	0	56	0	2194669568	34	3998
2026-01-06 01:53:10.89	198.57	37.80	-31.1	-32.2	21.3	0.00e+00	0	56	0	2211446784	34	3936
2026-01-06 01:53:13.93	198.58	37.06	-31.4	-32.6	21.0	0.00e+00	0	56	0	2228224000	34	4117
2026-01-06 01:53:16.95	198.59	36.34	-31.8	-33.1	20.6	0.00e+00	0	56	0	2246049792	34	4343
2026-01-06 01:53:19.98	198.60	35.62	-31.7	-33.0	20.7	0.00e+00	0	56	0	2262827008	34	4301
2026-01-06 01:53:23.01	198.61	34.93	-31.5	-32.7	20.9	0.00e+00	0	56	0	2279604224	34	4156
2026-01-06 01:53:26.04	198.63	34.25	-31.4	-32.6	21.0	0.00e+00	0	57	0	2296381440	34	4104
2026-01-06 01:53:29.07	198.64	33.59	-31.6	-32.8	20.8	0.00e+00	0	57	0	2314207232	34	4231
2026-01-06 01:53:32.10	198.65	32.93	-31.9	-33.1	20.6	0.00e+00	0	57	0	2330984448	34	4350
2026-01-06 01:53:35.13	198.66	32.30	-32.1	-33.4	20.3	0.00e+00	0	57	0	2347761664	34	4508
2026-01-06 01:53:38.16	198.67	31.67	-32.3	-33.6	20.1	0.00e+00	0	56	0	2364538880	35	4368
2026-01-06 01:53:41.19	198.68	31.06	-32.4	-33.7	20.0	0.00e+00	0	56	0	2381316096	35	4432
2026-01-06 01:53:44.22	198.69	30.46	-32.5	-33.7	19.9	0.00e+00	0	56	0	2399141888	35	4439
2026-01-06 01:53:47.25	198.71	29.88	-32.4	-33.7	20.0	0.00e+00	0	56	0	2415919104	35	4403
2026-01-06 01:53:50.28	198.72	29.30	-32.3	-33.5	20.1	0.00e+00	0	56	0	2432696320	35	4334
2026-01-06 01:53:53.31	198.73	28.74	-32.1	-33.3	20.3	0.00e+00	0	57	0	2450522112	35	4233
2026-01-06 01:53:56.34	198.74	28.19	-31.9	-33.1	20.6	0.00e+00	0	56	0	2467299328	35	4105
2026-01-06 01:53:59.37	198.75	27.65	-31.7	-32.9	20.7	0.00e+00	0	57	0	2484076544	35	4024
2026-01-06 01:54:02.40	198.76	27.12	-31.6	-32.8	20.8	0.00e+00	0	57	0	2500853760	35	3989
2026-01-06 01:54:05.44	198.77	26.59	-31.7	-32.9	20.7	0.00e+00	0	57	0	2518679552	35	4040
2026-01-06 01:54:08.47	198.78	26.08	-31.9	-33.1	20.5	0.00e+00	0	56	0	2535456768	35	4117
2026-01-06 01:54:11.50	198.79	25.58	-32.1	-33.3	20.3	0.00e+00	0	57	0	2552233984	35	4221
2026-01-06 01:54:14.53	198.80	25.09	-32.1	-33.4	20.2	0.00e+00	0	57	0	2569011200	35	4259
2026-01-06 01:54:17.56	198.81	24.61	-32.2	-33.5	20.1	0.00e+00	0	57	0	2586836992	35	4318
2026-01-06 01:54:20.60	198.82	24.13	-32.3	-33.6	20.0	0.00e+00	0	57	0	2603614208	35	4363
2026-01-06 01:54:23.62	198.83	23.67	-32.4	-33.7	19.9	0.00e+00	0	57	0	2620391424	35	4397
2026-01-06 01:54:26.66	198.84	23.21	-32.5	-33.7	19.9	0.00e+00	0	56	0	2638217216	35	4433
2026-01-06 01:54:29.69	198.86	22.76	-32.6	-33.9	19.8	0.00e+00	0	57	0	2654994432	35	4497
2026-01-06 01:54:32.72	198.87	22.32	-32.7	-34.0	19.7	0.00e+00	0	57	0	2671771648	35	4563
2026-01-06 01:54:35.75	198.88	21.88	-33.5	-34.8	19.7	0.00e+00	0	56	0	2688548864	37	4444
2026-01-06 01:54:38.78	198.89	21.46	-33.6	-34.9	19.6	0.00e+00	0	57	0	2705326080	37	4515
2026-01-06 01:54:41.81	198.90	21.04	-33.7	-35.0	19.5	0.00e+00	0	57	0	2723151872	38	4333
2026-01-06 01:54:44.84	198.91	20.62	-33.9	-35.1	19.3	0.00e+00	0	57	0	2739929088	38	4391
2026-01-06 01:54:47.87	198.92	20.22	-33.9	-35.2	19.3	0.00e+00	0	57	0	2756706304	38	4439
2026-01-06 01:54:50.91	198.93	19.82	-34.0	-35.3	19.1	0.00e+00	0	57	0	2774532096	38	4493
2026-01-06 01:54:53.94	198.94	19.42	-34.1	-35.4	19.1	0.00e+00	0	56	0	2791309312	38	4545
2026-01-06 01:54:56.97	198.95	19.04	-34.2	-35.5	19.0	0.00e+00	0	57	0	2808086528	38	4594
2026-01-06 01:55:00.00	198.96	18.66	-34.3	-35.6	18.9	0.00e+00	0	57	0	2824863744	39	4389
2026-01-06 01:55:03.04	198.97	18.28	-34.3	-35.7	18.8	0.00e+00	0	57	0	2842689536	39	4417
2026-01-06 01:55:06.06	198.98	17.91	-34.5	-35.8	18.7	0.00e+00	0	57	0	2859466752	39	4486
2026-01-06 01:55:09.09	198.99	17.55	-34.5	-35.9	18.6	0.00e+00	0	56	0	2876243968	39	4527
2026-01-06 01:55:12.13	199.00	17.19	-34.7	-36.1	18.5	0.00e+00	0	57	0	2893021184	39	4613
2026-01-06 01:55:15.16	199.01	16.83	-34.7	-36.1	18.4	0.00e+00	0	57	0	2910846976	40	4357
2026-01-06 01:55:18.19	199.02	16.48	-34.7	-36.1	18.3	0.00e+00	0	57	0	2927624192	40	4387
2026-01-06 01:55:21.21	199.03	16.14	-34.8	-36.2	18.3	0.00e+00	0	56	0	2944401408	40	4397
2026-01-06 01:55:24.24	199.04	15.80	-34.9	-36.3	18.2	0.00e+00	0	56	0	2961178624	40	4468
2026-01-06 01:55:27.27	199.05	15.47	-35.0	-36.5	18.0	0.00e+00	0	56	0	2979004416	40	4564
2026-01-06 01:55:30.30	199.06	15.14	-35.0	-36.5	18.0	0.00e+00	0	57	0	2995781632	40	4565
2026-01-06 01:55:33.33	199.07	14.81	-35.1	-36.5	17.9	0.00e+00	0	57	0	3012558848	40	4590
2026-01-06 01:55:36.36	199.08	14.49	-35.2	-36.6	17.8	0.00e+00	0	57	0	3029336064	40	4629
2026-01-06 01:55:39.39	199.08	14.18	-35.2	-36.7	17.7	0.00e+00	0	56	0	3046113280	41	4415
2026-01-06 01:55:42.42	199.09	13.86	-35.3	-36.8	17.7	0.00e+00	0	57	0	3063939072	41	4468
2026-01-06 01:55:45.45	199.10	13.56	-35.2	-36.7	17.8	0.00e+00	0	56	0	3080716288	41	4399
2026-01-06 01:55:48.48	199.11	13.25	-35.3	-36.8	17.6	0.00e+00	0	57	0	3097493504	41	4447
2026-01-06 01:55:51.51	199.12	12.95	-35.4	-36.9	17.5	0.00e+00	0	57	0	3115319296	41	4543
2026-01-06 01:55:54.55	199.13	12.65	-35.3	-36.7	17.6	0.00e+00	0	56	0	3132096512	41	4434
2026-01-06 01:55:57.58	199.14	12.36	-35.4	-36.9	17.5	0.00e+00	0	56	0	3148873728	41	4527
2026-01-06 01:56:00.60	199.15	12.07	-35.5	-37.0	17.4	0.00e+00	0	57	0	3165650944	41	4576
2026-01-06 01:56:03.63	199.16	11.78	-35.5	-37.0	17.3	0.00e+00	0	56	0	3183476736	41	4582
2026-01-06 01:56:06.66	199.17	11.50	-35.6	-37.1	17.2	0.00e+00	0	56	0	3200253952	41	4616
2026-01-06 01:56:09.69	199.18	11.22	-35.7	-37.2	17.1	0.00e+00	0	56	0	3217031168	41	4677
2026-01-06 01:56:12.72	199.19	10.94	-35.9	-37.5	16.8	0.00e+00	0	56	0	3233808384	42	4590
2026-01-06 01:56:15.75	199.20	10.67	-35.9	-37.5	16.9	0.00e+00	0	56	0	3251634176	42	4553
2026-01-06 01:56:18.78	199.21	10.40	-36.2	-37.8	16.4	0.00e+00	0	56	0	3268411392	43	4489
2026-01-06 01:56:21.81	199.22	10.13	-36.2	-37.8	16.4	0.00e+00	0	57	0	3285188608	43	4488
2026-01-06 01:56:24.84	199.23	9.86	-35.9	-37.5	16.7	0.00e+00	0	57	0	3301965824	43	4335
2026-01-06 01:56:27.87	199.24	9.60	-36.1	-37.7	16.5	0.00e+00	0	57	0	3319791616	43	4414
2026-01-06 01:56:30.90	199.25	9.34	-36.2	-37.8	16.4	0.00e+00	0	57	0	3336568832	43	4493
2026-01-06 01:56:33.93	199.25	9.08	-36.5	-38.2	16.0	0.00e+00	0	56	0	3353346048	43	4699
2026-01-06 01:56:36.97	199.26	8.83	-36.5	-38.2	15.9	0.00e+00	0	57	0	3370123264	43	4675
2026-01-06 01:56:39.99	199.27	8.58	-36.3	-38.0	16.1	0.00e+00	0	57	0	3387949056	43	4597
2026-01-06 01:56:43.02	199.28	8.33	-36.5	-38.3	15.7	0.00e+00	0	57	0	3404726272	43	4732
2026-01-06 01:56:46.05	199.29	8.08	-36.4	-38.2	15.8	0.00e+00	0	56	0	3421503488	43	4674
2026-01-06 01:56:49.08	199.30	7.84	-44.7	-56.4	3.8	8.47e-01	0	57	104	3430940672	60	14302
2026-01-06 01:56:52.12	199.31	7.60	-45.1	-56.9	3.8	8.46e-01	0	57	104	3430940672	60	15162
2026-01-06 01:56:55.15	199.32	7.36	-45.2	-57.0	3.8	8.45e-01	0	57	104	3430940672	60	15275
2026-01-06 01:56:58.18	199.33	7.12	-45.1	-57.0	3.8	8.47e-01	0	57	104	3430940672	60	15271
2026-01-06 01:57:01.21	199.34	6.88	-45.1	-56.9	3.8	8.47e-01	0	56	104	3430940672	60	15222
2026-01-06 01:57:04.24	199.35	6.65	-45.1	-57.0	3.8	8.46e-01	0	56	104	3430940672	60	15231
2026-01-06 01:57:07.27	199.35	6.42	-45.1	-56.9	3.8	8.46e-01	0	57	104	3430940672	60	15182
2026-01-06 01:57:10.30	199.36	6.19	-45.1	-56.9	3.8	8.47e-01	0	57	104	3430940672	60	15168
2026-01-06 01:57:13.33	199.37	5.96	-45.1	-56.9	3.8	8.46e-01	0	57	104	3430940672	60	15220
2026-01-06 01:57:16.37	199.38	5.74	-45.1	-56.9	3.8	8.47e-01	0	57	104	3430940672	60	15197
2026-01-06 01:57:19.40	199.39	5.52	-45.1	-56.9	3.8	8.46e-01	0	56	104	3430940672	60	15200
2026-01-06 01:57:22.44	199.40	5.29	-45.1	-56.9	3.8	8.46e-01	0	57	104	3430940672	60	15174
2026-01-06 01:57:25.47	199.41	5.07	-45.1	-56.9	3.8	8.47e-01	0	57	104	3430940672	60	15174
2026-01-06 01:57:28.50	199.42	4.86	-45.1	-56.9	3.8	8.47e-01	0	56	104	3430940672	60	15182
2026-01-06 01:57:31.54	199.43	4.64	-45.1	-56.9	3.8	8.46e-01	0	57	104	3430940672	60	15189
2026-01-06 01:57:34.57	199.44	4.43	-45.1	-56.9	3.8	8.47e-01	0	57	104	3430940672	60	15151
2026-01-06 01:57:37.61	199.44	4.21	-45.0	-56.9	3.8	8.47e-01	0	57	104	3430940672	60	15111
2026-01-06 01:57:40.64	199.45	4.00	-45.0	-56.9	3.8	8.47e-01	0	57	104	3430940672	60	15131
2026-01-06 01:57:43.67	199.46	3.79	-45.0	-56.9	3.8	8.45e-01	0	57	104	3430940672	60	15140
2026-01-06 01:57:46.70	199.47	3.59	-45.0	-56.9	3.8	8.46e-01	0	57	104	3430940672	60	15127
2026-01-06 01:57:49.74	199.48	3.38	-45.0	-56.9	3.8	8.46e-01	0	57	104	3430940672	60	15130
2026-01-06 01:57:52.77	199.49	3.18	-45.0	-56.9	3.8	8.46e-01	0	57	104	3430940672	60	15099
2026-01-06 01:57:55.80	199.50	2.97	-45.0	-56.9	3.8	8.45e-01	0	57	104	3430940672	60	15132
2026-01-06 01:57:58.84	199.51	2.77	-45.0	-56.9	3.8	8.47e-01	0	57	104	3430940672	60	15110
2026-01-06 01:58:01.87	199.51	2.57	-45.0	-56.9	3.8	8.46e-01	0	57	104	3430940672	60	15078
2026-01-06 01:58:04.90	199.52	2.37	-45.0	-56.9	3.8	8.46e-01	0	57	104	3430940672	60	15139
2026-01-06 01:58:07.93	199.53	2.18	-45.0	-56.9	3.8	8.44e-01	0	57	104	3430940672	60	15109
2026-01-06 01:58:10.97	199.54	1.98	-45.0	-56.9	3.8	8.47e-01	0	57	104	3430940672	60	15098

#Closed at: 2026-01-06 01:58:11
#Recorded file [3430 MB]: D:/lorett/data/31039_260106_044603.dat