passes_logs/2026/01/06/R2.0S_Moscow/R2.0S_Moscow__20260106_095617_FENGYUN_3D_rec.log

#Pass ID: 20260106_095617_FENGYUN 3D
#Satellite: FENGYUN 3D
#Configuration: FENGYUN 3D
#almurnet v.1.7.20251203
#Start time: 2026-01-06 09:56:19

#Version: 2.2.20231116
#Station: R2.0S_Moscow
#Location: 37.707566 lon 55.798166 lat
#TLE: 1 43010U 17072A   26005.48915933 -.00000051  00000+0 -21983-5 0  9995
#TLE: 2 43010  98.9919 337.1582 0002001 124.6377 235.4988 14.19691925421909

#Time	Az	El	Level	Level2	SNR	BER	BlckErr	Temp	State	Recorded	gain1	gain2
2026-01-06 09:56:19.67	101.14	2.11	-40.0	-51.6	3.8	8.46e-01	0	47	0	0	52	13038
2026-01-06 09:56:22.69	100.90	2.27	-40.0	-51.6	3.8	8.46e-01	0	47	104	0	52	12984
2026-01-06 09:56:25.72	100.66	2.44	-40.0	-51.6	3.8	8.46e-01	0	47	104	0	52	13045
2026-01-06 09:56:28.75	100.41	2.60	-40.0	-51.6	3.8	8.45e-01	0	48	104	0	52	13047
2026-01-06 09:56:31.78	100.16	2.76	-40.0	-51.6	3.8	8.47e-01	0	48	104	0	52	12995
2026-01-06 09:56:34.81	99.91	2.92	-40.0	-51.6	3.8	8.46e-01	0	48	104	0	52	13017
2026-01-06 09:56:37.85	99.66	3.08	-40.0	-51.6	3.8	8.46e-01	0	48	104	0	52	13001
2026-01-06 09:56:40.88	99.40	3.25	-40.0	-51.6	3.8	8.45e-01	0	49	104	0	52	13019
2026-01-06 09:56:43.91	99.14	3.41	-40.0	-51.6	3.8	8.46e-01	0	49	104	0	52	13005
2026-01-06 09:56:46.95	98.87	3.57	-40.0	-51.6	3.8	8.46e-01	0	49	104	0	52	13023
2026-01-06 09:56:49.98	98.61	3.74	-40.0	-51.6	3.8	8.47e-01	0	49	104	0	52	12998
2026-01-06 09:56:53.01	98.34	3.90	-40.0	-51.6	3.8	8.46e-01	0	49	104	0	52	13056
2026-01-06 09:56:56.04	98.07	4.07	-40.0	-51.6	3.8	8.46e-01	0	49	104	0	52	13008
2026-01-06 09:56:59.07	97.79	4.23	-40.0	-51.6	3.8	8.46e-01	0	50	104	0	52	12994
2026-01-06 09:57:02.10	97.51	4.40	-40.0	-51.6	3.8	8.46e-01	0	50	104	0	52	13027
2026-01-06 09:57:05.13	97.23	4.57	-40.0	-51.6	3.8	8.46e-01	0	50	104	0	52	12979
2026-01-06 09:57:08.17	96.94	4.73	-40.0	-51.6	3.8	8.46e-01	0	50	104	0	52	12997
2026-01-06 09:57:11.19	96.65	4.90	-40.0	-51.6	3.8	8.46e-01	0	50	104	0	52	13010
2026-01-06 09:57:14.23	96.36	5.07	-40.0	-51.6	3.8	8.45e-01	0	50	104	0	52	12993
2026-01-06 09:57:17.26	96.07	5.24	-40.0	-51.6	3.8	8.45e-01	0	51	104	0	52	12974
2026-01-06 09:57:20.29	95.77	5.40	-40.0	-51.5	3.8	8.47e-01	0	51	104	0	52	12956
2026-01-06 09:57:23.33	95.46	5.57	-40.0	-51.6	3.8	8.46e-01	0	51	104	0	52	13017
2026-01-06 09:57:26.36	95.16	5.74	-40.0	-51.5	3.8	8.47e-01	0	51	104	0	52	12950
2026-01-06 09:57:29.39	94.85	5.91	-40.0	-51.6	3.8	8.48e-01	0	51	104	0	52	13000
2026-01-06 09:57:32.42	94.53	6.08	-40.0	-51.6	3.8	8.47e-01	0	51	104	0	52	12990
2026-01-06 09:57:35.45	94.22	6.25	-40.0	-51.6	3.8	8.46e-01	0	52	104	0	52	12979
2026-01-06 09:57:38.48	93.89	6.42	-40.0	-51.6	3.8	8.47e-01	0	51	104	0	52	12973
2026-01-06 09:57:41.52	93.57	6.59	-40.0	-51.6	3.8	8.46e-01	0	52	104	0	52	12986
2026-01-06 09:57:44.55	93.24	6.76	-40.0	-51.6	3.8	8.46e-01	0	52	104	0	52	13025
2026-01-06 09:57:47.58	92.91	6.93	-40.0	-51.6	3.8	8.47e-01	0	52	104	0	52	13005
2026-01-06 09:57:50.61	92.57	7.10	-40.0	-51.5	3.8	8.45e-01	0	52	104	0	52	12948
2026-01-06 09:57:53.64	92.23	7.27	-40.0	-51.5	3.8	8.47e-01	0	52	104	0	52	12955
2026-01-06 09:57:56.67	91.88	7.45	-40.0	-51.5	3.8	8.46e-01	0	52	104	0	52	12959
2026-01-06 09:57:59.71	91.53	7.62	-40.0	-51.5	3.8	8.46e-01	0	52	104	0	52	12927
2026-01-06 09:58:02.74	91.18	7.79	-40.0	-51.6	3.8	8.47e-01	0	53	104	0	52	12964
2026-01-06 09:58:05.77	90.82	7.96	-39.7	-48.8	3.9	8.41e-01	0	52	104	0	51	10024
2026-01-06 09:58:08.80	90.46	8.13	-40.1	-51.4	3.8	8.46e-01	0	52	104	0	52	12805
2026-01-06 09:58:11.83	90.09	8.31	-40.1	-51.5	3.8	8.46e-01	0	53	104	0	51	13603
2026-01-06 09:58:14.86	89.72	8.48	-40.2	-51.7	3.8	8.46e-01	0	53	104	0	51	14014
2026-01-06 09:58:17.89	89.35	8.65	-40.2	-51.7	3.8	8.46e-01	0	53	104	0	51	13954
2026-01-06 09:58:20.92	88.97	8.82	-40.3	-52.2	3.8	8.45e-01	0	53	104	0	51	14719
2026-01-06 09:58:23.95	88.58	8.99	-40.1	-51.9	3.8	8.45e-01	0	53	104	0	51	14335
2026-01-06 09:58:26.98	88.19	9.17	-40.4	-52.2	3.8	8.46e-01	0	53	104	0	51	14804
2026-01-06 09:58:30.01	87.80	9.34	-40.2	-51.7	3.8	8.47e-01	0	53	104	0	51	14017
2026-01-06 09:58:33.03	87.40	9.51	-40.2	-52.0	3.8	8.47e-01	0	54	104	0	51	14411
2026-01-06 09:58:36.06	87.00	9.68	-40.2	-51.8	3.8	8.46e-01	0	54	104	0	51	14193
2026-01-06 09:58:39.09	86.59	9.85	-40.2	-51.9	3.8	8.46e-01	0	53	104	0	51	14350
2026-01-06 09:58:42.13	86.17	10.02	-40.2	-51.9	3.8	8.46e-01	0	54	104	0	51	14304
2026-01-06 09:58:45.15	85.76	10.19	-40.4	-51.9	3.8	8.46e-01	0	54	104	0	51	14273
2026-01-06 09:58:48.18	85.33	10.36	-40.2	-51.9	3.8	8.45e-01	0	54	104	0	51	14358
2026-01-06 09:58:51.21	84.91	10.54	-40.2	-51.8	3.8	8.47e-01	0	54	104	0	51	14160
2026-01-06 09:58:54.24	84.47	10.71	-40.0	-51.6	3.8	8.46e-01	0	54	104	0	51	13788
2026-01-06 09:58:57.27	84.04	10.87	-40.2	-51.7	3.8	8.46e-01	0	54	104	0	51	13943
2026-01-06 09:59:00.30	83.59	11.04	-40.0	-51.6	3.8	8.47e-01	0	54	104	0	51	13800
2026-01-06 09:59:03.33	83.14	11.21	-40.2	-51.7	3.8	8.45e-01	0	54	104	0	51	13966
2026-01-06 09:59:06.36	82.69	11.38	-40.2	-51.7	3.8	8.46e-01	0	54	104	0	51	14001
2026-01-06 09:59:09.39	82.23	11.55	-40.3	-51.8	3.8	8.47e-01	0	54	104	0	51	14082
2026-01-06 09:59:12.42	81.77	11.71	-40.2	-51.7	3.8	8.45e-01	0	54	104	0	51	13968
2026-01-06 09:59:15.44	81.30	11.88	-40.3	-51.8	3.8	8.45e-01	0	54	104	0	51	14161
2026-01-06 09:59:18.47	80.82	12.04	-40.3	-51.8	3.8	8.47e-01	0	54	104	0	51	14172
2026-01-06 09:59:21.50	80.34	12.21	-40.3	-51.9	3.8	8.44e-01	0	54	104	0	51	14276
2026-01-06 09:59:24.53	79.86	12.37	-40.3	-51.9	3.8	8.47e-01	0	54	104	0	51	14305
2026-01-06 09:59:27.55	79.37	12.53	-40.4	-52.0	3.8	8.47e-01	0	54	104	0	51	14406
2026-01-06 09:59:30.58	78.87	12.69	-40.5	-52.1	3.8	8.46e-01	0	55	104	0	51	14575
2026-01-06 09:59:33.62	78.36	12.86	-40.5	-52.1	3.8	8.45e-01	0	54	104	0	52	13772
2026-01-06 09:59:36.65	77.86	13.01	-40.6	-52.0	3.8	8.46e-01	0	55	104	0	52	13698
2026-01-06 09:59:39.68	77.34	13.17	-40.6	-52.1	3.8	8.45e-01	0	55	104	0	52	13830
2026-01-06 09:59:42.70	76.83	13.33	-40.8	-51.2	3.8	8.46e-01	0	55	104	0	52	12448
2026-01-06 09:59:45.74	76.30	13.48	-40.8	-50.9	3.8	8.47e-01	0	55	104	0	52	12094
2026-01-06 09:59:48.77	75.77	13.64	-40.7	-50.3	3.8	8.44e-01	0	55	104	0	52	11231
2026-01-06 09:59:51.79	75.23	13.79	-40.7	-49.8	3.9	8.44e-01	0	55	104	0	52	10634
2026-01-06 09:59:54.82	74.69	13.94	-40.6	-48.7	4.3	8.36e-01	0	55	0	0	52	9375
2026-01-06 09:59:57.85	74.15	14.09	-40.4	-47.5	4.8	7.92e-01	0	55	0	0	52	8087
2026-01-06 10:00:00.88	73.59	14.24	-40.1	-46.3	5.6	7.24e-01	0	55	0	0	52	7046
2026-01-06 10:00:03.91	73.04	14.38	-39.3	-44.1	7.4	1.44e-01	0	55	0	15728640	50	6136
2026-01-06 10:00:06.94	72.47	14.53	-38.3	-42.0	9.2	2.80e-02	0	55	0	32505856	48	5446
2026-01-06 10:00:09.97	71.90	14.67	-38.0	-41.7	9.4	2.08e-02	0	55	0	50331648	48	5226
2026-01-06 10:00:13.00	71.33	14.81	-38.6	-42.9	8.2	6.04e-02	0	55	0	67108864	48	6041
2026-01-06 10:00:16.03	70.75	14.95	-38.3	-42.0	9.4	2.15e-02	0	55	0	83886080	48	5438
2026-01-06 10:00:19.06	70.16	15.08	-37.7	-40.8	10.9	2.99e-03	0	55	0	100663296	47	5019
2026-01-06 10:00:22.09	69.57	15.22	-37.0	-39.5	12.6	1.49e-04	0	55	0	118489088	46	4562
2026-01-06 10:00:25.11	68.98	15.35	-36.4	-38.5	14.0	8.00e-06	0	55	0	135266304	44	4567
2026-01-06 10:00:28.14	68.38	15.47	-36.1	-38.1	14.6	2.20e-06	0	55	0	152043520	44	4370
2026-01-06 10:00:31.17	67.77	15.60	-35.3	-37.0	15.8	0.00e+00	0	55	0	168820736	42	4321
2026-01-06 10:00:34.20	67.16	15.72	-35.2	-36.8	16.3	0.00e+00	0	55	0	185597952	42	4241
2026-01-06 10:00:37.23	66.55	15.84	-35.1	-36.7	16.8	0.00e+00	0	55	0	203423744	42	4157
2026-01-06 10:00:40.26	65.92	15.96	-34.4	-35.9	17.8	0.00e+00	0	55	0	220200960	40	4256
2026-01-06 10:00:43.29	65.30	16.08	-34.6	-36.0	17.7	0.00e+00	0	55	0	236978176	40	4329
2026-01-06 10:00:46.32	64.67	16.19	-34.4	-35.8	18.1	0.00e+00	0	55	0	254803968	40	4208
2026-01-06 10:00:49.36	64.03	16.30	-34.6	-36.1	17.9	0.00e+00	0	55	0	271581184	40	4343
2026-01-06 10:00:52.38	63.39	16.40	-34.8	-36.3	17.8	0.00e+00	0	55	0	288358400	40	4462
2026-01-06 10:00:55.41	62.75	16.51	-34.7	-36.1	18.0	0.00e+00	0	55	0	305135616	40	4387
2026-01-06 10:00:58.45	62.10	16.61	-34.7	-36.1	18.0	0.00e+00	0	55	0	322961408	40	4385
2026-01-06 10:01:01.47	61.45	16.70	-34.6	-36.1	18.1	0.00e+00	0	55	0	339738624	40	4355
2026-01-06 10:01:04.50	60.79	16.79	-34.8	-36.2	18.0	0.00e+00	0	55	0	356515840	40	4426
2026-01-06 10:01:07.53	60.13	16.88	-34.7	-36.2	18.0	0.00e+00	0	55	0	373293056	40	4407
2026-01-06 10:01:10.56	59.46	16.97	-34.6	-36.0	18.2	0.00e+00	0	55	0	390070272	40	4331
2026-01-06 10:01:13.59	58.79	17.05	-34.4	-35.8	18.4	0.00e+00	0	55	0	407896064	40	4197
2026-01-06 10:01:16.63	58.12	17.13	-34.5	-35.9	18.4	0.00e+00	0	55	0	424673280	40	4245
2026-01-06 10:01:19.66	57.44	17.20	-34.6	-35.9	18.7	0.00e+00	0	55	0	441450496	40	4249
2026-01-06 10:01:22.69	56.76	17.27	-34.4	-35.7	19.0	0.00e+00	0	56	0	459276288	40	4151
2026-01-06 10:01:25.72	56.08	17.34	-34.6	-35.8	18.8	0.00e+00	0	56	0	476053504	40	4235
2026-01-06 10:01:28.75	55.40	17.40	-34.4	-35.7	18.9	0.00e+00	0	55	0	492830720	40	4153
2026-01-06 10:01:31.78	54.71	17.46	-34.3	-35.5	19.2	0.00e+00	0	56	0	509607936	40	4060
2026-01-06 10:01:34.81	54.02	17.51	-34.3	-35.6	19.1	0.00e+00	0	56	0	527433728	40	4111
2026-01-06 10:01:37.83	53.33	17.56	-34.3	-35.5	19.1	0.00e+00	0	55	0	544210944	40	4089
2026-01-06 10:01:40.86	52.63	17.61	-34.6	-35.8	18.9	0.00e+00	0	56	0	560988160	40	4235
2026-01-06 10:01:43.89	51.94	17.65	-34.5	-35.8	18.9	0.00e+00	0	55	0	577765376	40	4194
2026-01-06 10:01:46.92	51.24	17.69	-34.3	-35.5	19.2	0.00e+00	0	56	0	595591168	40	4055
2026-01-06 10:01:49.96	50.53	17.72	-34.3	-35.5	19.2	0.00e+00	0	55	0	612368384	40	4054
2026-01-06 10:01:52.99	49.83	17.75	-34.1	-35.3	19.4	0.00e+00	0	56	0	629145600	40	3968
2026-01-06 10:01:56.01	49.13	17.77	-34.1	-35.2	19.5	0.00e+00	0	56	0	645922816	39	4180
2026-01-06 10:01:59.04	48.43	17.79	-34.2	-35.3	19.4	0.00e+00	0	55	0	663748608	39	4239
2026-01-06 10:02:02.07	47.72	17.81	-34.3	-35.5	19.3	0.00e+00	0	55	0	680525824	39	4309
2026-01-06 10:02:05.10	47.02	17.82	-34.5	-35.7	19.1	0.00e+00	0	56	0	697303040	39	4408
2026-01-06 10:02:08.14	46.31	17.82	-34.6	-35.9	18.9	0.00e+00	0	56	0	714080256	39	4504
2026-01-06 10:02:11.17	45.61	17.83	-34.6	-35.9	18.9	0.00e+00	0	56	0	731906048	39	4511
2026-01-06 10:02:14.20	44.90	17.82	-34.6	-35.8	19.0	0.00e+00	0	56	0	748683264	39	4462
2026-01-06 10:02:17.23	44.19	17.82	-34.2	-35.4	19.4	0.00e+00	0	56	0	765460480	39	4258
2026-01-06 10:02:20.26	43.49	17.80	-34.2	-35.4	19.3	0.00e+00	0	56	0	782237696	39	4281
2026-01-06 10:02:23.29	42.79	17.79	-34.1	-35.3	19.5	0.00e+00	0	56	0	800063488	39	4235
2026-01-06 10:02:26.31	42.08	17.77	-34.2	-35.4	19.4	0.00e+00	0	56	0	816840704	39	4270
2026-01-06 10:02:29.34	41.38	17.74	-34.3	-35.6	19.2	0.00e+00	0	56	0	833617920	39	4341
2026-01-06 10:02:32.37	40.68	17.71	-34.4	-35.7	19.1	0.00e+00	0	56	0	851443712	39	4401
2026-01-06 10:02:35.40	39.98	17.68	-34.6	-35.9	18.9	0.00e+00	0	56	0	868220928	39	4507
2026-01-06 10:02:38.43	39.28	17.64	-34.5	-35.8	19.0	0.00e+00	0	56	0	884998144	39	4445
2026-01-06 10:02:41.46	38.59	17.60	-34.4	-35.7	19.1	0.00e+00	0	56	0	901775360	39	4392
2026-01-06 10:02:44.49	37.89	17.55	-34.5	-35.7	19.0	0.00e+00	0	56	0	918552576	39	4434
2026-01-06 10:02:47.52	37.20	17.50	-34.6	-35.8	18.9	0.00e+00	0	56	0	936378368	40	4239
2026-01-06 10:02:50.55	36.51	17.45	-34.6	-35.8	18.9	0.00e+00	0	56	0	953155584	40	4233
2026-01-06 10:02:53.58	35.83	17.39	-34.6	-35.8	18.9	0.00e+00	0	56	0	969932800	40	4239
2026-01-06 10:02:56.61	35.14	17.33	-34.7	-36.0	18.7	0.00e+00	0	56	0	986710016	40	4323
2026-01-06 10:02:59.63	34.47	17.26	-34.9	-36.1	18.6	0.00e+00	0	56	0	1004535808	40	4376
2026-01-06 10:03:02.66	33.79	17.19	-34.7	-36.0	18.7	0.00e+00	0	56	0	1021313024	40	4305
2026-01-06 10:03:05.69	33.11	17.12	-34.7	-35.9	18.8	0.00e+00	0	56	0	1038090240	40	4269
2026-01-06 10:03:08.72	32.44	17.04	-34.5	-35.8	18.9	0.00e+00	0	56	0	1055916032	40	4207
2026-01-06 10:03:11.75	31.78	16.95	-34.6	-35.8	18.8	0.00e+00	0	56	0	1072693248	40	4237
2026-01-06 10:03:14.78	31.11	16.87	-34.8	-36.1	18.7	0.00e+00	0	56	0	1089470464	40	4351
2026-01-06 10:03:17.81	30.45	16.78	-34.9	-36.1	18.6	0.00e+00	0	56	0	1106247680	40	4381
2026-01-06 10:03:20.84	29.80	16.69	-34.9	-36.2	18.5	0.00e+00	0	56	0	1123024896	40	4415
2026-01-06 10:03:23.87	29.15	16.59	-34.7	-35.9	18.8	0.00e+00	0	56	0	1140850688	40	4283
2026-01-06 10:03:26.90	28.50	16.49	-34.8	-36.1	18.6	0.00e+00	0	56	0	1157627904	40	4357
2026-01-06 10:03:29.93	27.86	16.39	-34.8	-36.0	18.7	0.00e+00	0	56	0	1174405120	40	4336
2026-01-06 10:03:32.96	27.22	16.28	-34.9	-36.2	18.5	0.00e+00	0	56	0	1191182336	40	4424
2026-01-06 10:03:35.99	26.59	16.17	-34.9	-36.1	18.6	0.00e+00	0	56	0	1209008128	40	4381
2026-01-06 10:03:39.01	25.96	16.06	-35.1	-36.5	18.2	0.00e+00	0	56	0	1225785344	40	4558
2026-01-06 10:03:42.05	25.34	15.95	-35.0	-36.3	18.3	0.00e+00	0	56	0	1242562560	40	4492
2026-01-06 10:03:45.08	24.72	15.83	-35.1	-36.4	18.3	0.00e+00	0	56	0	1260388352	40	4509
2026-01-06 10:03:48.11	24.10	15.71	-35.1	-36.4	18.3	0.00e+00	0	56	0	1277165568	40	4507
2026-01-06 10:03:51.14	23.50	15.58	-35.1	-36.5	18.2	0.00e+00	0	56	0	1293942784	41	4294
2026-01-06 10:03:54.17	22.89	15.46	-35.1	-36.5	18.2	0.00e+00	0	56	0	1310720000	41	4295
2026-01-06 10:03:57.20	22.29	15.33	-35.2	-36.5	18.1	0.00e+00	0	56	0	1327497216	41	4336
2026-01-06 10:04:00.24	21.70	15.20	-35.3	-36.7	17.9	0.00e+00	0	56	0	1345323008	41	4424
2026-01-06 10:04:03.26	21.11	15.06	-35.4	-36.7	17.9	0.00e+00	0	56	0	1362100224	41	4417
2026-01-06 10:04:06.29	20.53	14.93	-35.5	-36.9	17.7	0.00e+00	0	56	0	1378877440	41	4535
2026-01-06 10:04:09.32	19.96	14.79	-35.5	-37.0	17.6	0.00e+00	0	56	0	1396703232	41	4546
2026-01-06 10:04:12.35	19.38	14.65	-35.5	-36.9	17.7	0.00e+00	0	56	0	1413480448	41	4530
2026-01-06 10:04:15.38	18.82	14.51	-35.7	-37.1	17.4	0.00e+00	0	56	0	1430257664	41	4623
2026-01-06 10:04:18.41	18.26	14.37	-35.7	-37.1	17.5	0.00e+00	0	56	0	1447034880	42	4357
2026-01-06 10:04:21.44	17.70	14.22	-35.9	-37.3	17.3	0.00e+00	0	56	0	1464860672	42	4475
2026-01-06 10:04:24.47	17.15	14.07	-35.9	-37.4	17.1	0.00e+00	0	56	0	1481637888	42	4511
2026-01-06 10:04:27.50	16.61	13.92	-35.8	-37.2	17.4	0.00e+00	0	56	0	1498415104	42	4405
2026-01-06 10:04:30.53	16.07	13.77	-35.9	-37.4	17.1	0.00e+00	0	56	0	1515192320	42	4509
2026-01-06 10:04:33.56	15.54	13.62	-35.7	-37.1	17.4	0.00e+00	0	56	0	1531969536	42	4369
2026-01-06 10:04:36.59	15.01	13.47	-35.8	-37.3	17.2	0.00e+00	0	56	0	1549795328	42	4461
2026-01-06 10:04:39.62	14.49	13.31	-35.9	-37.4	17.1	0.00e+00	0	56	0	1566572544	42	4522
2026-01-06 10:04:42.64	13.98	13.16	-35.8	-37.2	17.2	0.00e+00	0	56	0	1583349760	42	4420
2026-01-06 10:04:45.67	13.47	13.00	-35.8	-37.3	17.1	0.00e+00	0	56	0	1601175552	42	4473
2026-01-06 10:04:48.70	12.96	12.84	-36.0	-37.5	16.8	0.00e+00	0	56	0	1617952768	42	4588
2026-01-06 10:04:51.73	12.46	12.68	-36.0	-37.5	16.8	0.00e+00	0	56	0	1634729984	42	4561
2026-01-06 10:04:54.76	11.97	12.52	-36.1	-37.7	16.4	0.00e+00	0	56	0	1651507200	42	4665
2026-01-06 10:04:57.79	11.48	12.36	-36.2	-37.9	16.0	0.00e+00	0	56	0	1669332992	43	4494
2026-01-06 10:05:00.82	11.00	12.19	-36.1	-37.8	15.9	0.00e+00	0	56	0	1686110208	43	4456
2026-01-06 10:05:03.85	10.52	12.03	-36.0	-37.7	15.8	0.00e+00	0	56	0	1702887424	43	4404
2026-01-06 10:05:06.88	10.05	11.86	-36.1	-37.9	15.3	0.00e+00	0	56	0	1719664640	43	4512
2026-01-06 10:05:09.91	9.58	11.70	-36.5	-38.6	14.2	0.00e+00	0	56	0	1736441856	43	4881
2026-01-06 10:05:12.94	9.12	11.53	-38.0	-40.8	11.6	5.70e-04	0	56	0	1754267648	46	5297
2026-01-06 10:05:15.98	8.67	11.36	-39.1	-43.0	8.9	3.02e-02	0	56	0	1771044864	48	6099
2026-01-06 10:05:19.01	8.21	11.20	-39.7	-45.1	6.5	2.27e-01	0	56	0	1787822080	49	7318
2026-01-06 10:05:22.03	7.77	11.03	-40.1	-47.4	4.7	7.72e-01	0	56	0	1798307840	50	9014
2026-01-06 10:05:25.06	7.33	10.86	-40.4	-50.6	3.8	8.45e-01	0	56	104	1798307840	51	12272
2026-01-06 10:05:28.09	6.90	10.69	-40.4	-51.7	3.8	8.45e-01	0	56	104	1798307840	51	13968
2026-01-06 10:05:31.13	6.47	10.52	-40.0	-51.5	3.8	8.46e-01	0	56	104	1798307840	51	13723
2026-01-06 10:05:34.15	6.04	10.35	-40.0	-51.7	3.8	8.47e-01	0	56	104	1798307840	51	13888
2026-01-06 10:05:37.18	5.62	10.18	-39.9	-51.4	3.8	8.46e-01	0	56	104	1798307840	51	13559
2026-01-06 10:05:40.21	5.21	10.01	-39.9	-51.5	3.8	8.47e-01	0	56	104	1798307840	51	13715
2026-01-06 10:05:43.24	4.80	9.84	-40.0	-51.6	3.8	8.47e-01	0	56	104	1798307840	51	13833
2026-01-06 10:05:46.27	4.39	9.67	-40.1	-51.7	3.8	8.47e-01	0	56	104	1798307840	51	13922
2026-01-06 10:05:49.30	3.99	9.50	-39.9	-51.5	3.8	8.46e-01	0	56	104	1798307840	51	13636
2026-01-06 10:05:52.33	3.60	9.33	-40.0	-51.6	3.8	8.48e-01	0	56	104	1798307840	51	13805
2026-01-06 10:05:55.36	3.21	9.16	-39.8	-51.4	3.8	8.46e-01	0	56	104	1798307840	51	13446
2026-01-06 10:05:58.39	2.82	8.98	-39.9	-51.4	3.8	8.46e-01	0	56	104	1798307840	51	13496
2026-01-06 10:06:01.42	2.44	8.81	-39.9	-51.4	3.8	8.46e-01	0	56	104	1798307840	51	13524
2026-01-06 10:06:04.45	2.07	8.64	-39.8	-51.5	3.8	8.47e-01	0	56	104	1798307840	51	13668
2026-01-06 10:06:07.48	1.69	8.47	-39.9	-51.5	3.8	8.46e-01	0	56	104	1798307840	51	13656
2026-01-06 10:06:10.51	1.33	8.30	-39.6	-51.5	3.8	8.45e-01	0	56	104	1798307840	51	13598
2026-01-06 10:06:13.54	0.96	8.13	-39.5	-51.4	3.8	8.46e-01	0	56	104	1798307840	51	13416
2026-01-06 10:06:16.58	0.60	7.95	-42.9	-54.6	3.8	8.47e-01	0	56	104	1798307840	56	14703
2026-01-06 10:06:19.61	0.25	7.78	-45.1	-56.8	3.8	8.47e-01	0	56	104	1798307840	60	15017
2026-01-06 10:06:22.64	359.90	7.61	-45.3	-57.1	3.8	8.45e-01	0	57	104	1798307840	61	14672
2026-01-06 10:06:25.67	359.55	7.44	-45.3	-57.1	3.8	8.47e-01	0	57	104	1798307840	61	14681
2026-01-06 10:06:28.71	359.21	7.27	-45.2	-57.1	3.8	8.46e-01	0	56	104	1798307840	61	14573
2026-01-06 10:06:31.74	358.87	7.10	-45.1	-57.0	3.8	8.47e-01	0	57	104	1798307840	61	14452
2026-01-06 10:06:34.77	358.54	6.93	-45.1	-57.0	3.8	8.46e-01	0	56	104	1798307840	61	14486
2026-01-06 10:06:37.80	358.21	6.76	-45.1	-57.0	3.8	8.45e-01	0	56	104	1798307840	61	14433
2026-01-06 10:06:40.84	357.88	6.59	-45.1	-57.0	3.8	8.45e-01	0	57	104	1798307840	61	14458
2026-01-06 10:06:43.87	357.56	6.42	-45.1	-57.0	3.8	8.46e-01	0	56	104	1798307840	61	14403
2026-01-06 10:06:46.90	357.24	6.25	-45.0	-56.9	3.8	8.46e-01	0	57	104	1798307840	61	14370
2026-01-06 10:06:49.92	356.93	6.08	-45.1	-56.9	3.8	8.46e-01	0	56	104	1798307840	61	14347
2026-01-06 10:06:52.95	356.62	5.91	-45.1	-57.0	3.8	8.46e-01	0	57	104	1798307840	61	14396
2026-01-06 10:06:55.98	356.31	5.74	-45.1	-57.0	3.8	8.46e-01	0	56	104	1798307840	61	14377
2026-01-06 10:06:59.01	356.01	5.57	-45.1	-56.9	3.8	8.46e-01	0	56	104	1798307840	61	14355
2026-01-06 10:07:02.04	355.71	5.40	-45.1	-56.9	3.8	8.46e-01	0	57	104	1798307840	61	14318
2026-01-06 10:07:05.08	355.42	5.24	-45.1	-56.9	3.8	8.46e-01	0	56	104	1798307840	61	14327
2026-01-06 10:07:08.11	355.12	5.07	-45.0	-56.9	3.8	8.46e-01	0	56	104	1798307840	61	14360
2026-01-06 10:07:11.14	354.83	4.90	-45.0	-56.9	3.8	8.46e-01	0	57	104	1798307840	61	14293
2026-01-06 10:07:14.18	354.55	4.73	-45.1	-56.9	3.8	8.45e-01	0	57	104	1798307840	61	14317
2026-01-06 10:07:17.21	354.27	4.57	-45.0	-56.9	3.8	8.46e-01	0	57	104	1798307840	61	14347
2026-01-06 10:07:20.24	353.99	4.40	-45.0	-56.9	3.8	8.46e-01	0	57	104	1798307840	61	14303
2026-01-06 10:07:23.27	353.71	4.24	-45.0	-56.9	3.8	8.46e-01	0	57	104	1798307840	61	14286
2026-01-06 10:07:26.30	353.44	4.07	-45.0	-56.9	3.8	8.46e-01	0	57	104	1798307840	61	14340
2026-01-06 10:07:29.33	353.17	3.91	-45.0	-56.9	3.8	8.47e-01	0	57	104	1798307840	61	14299
2026-01-06 10:07:32.36	352.91	3.74	-45.0	-56.9	3.8	8.46e-01	0	57	104	1798307840	61	14296
2026-01-06 10:07:35.40	352.64	3.58	-45.0	-56.9	3.8	8.46e-01	0	57	104	1798307840	61	14286
2026-01-06 10:07:38.43	352.38	3.41	-45.0	-56.9	3.8	8.47e-01	0	57	104	1798307840	61	14301
2026-01-06 10:07:41.46	352.13	3.25	-45.0	-56.9	3.8	8.46e-01	0	57	104	1798307840	61	14342
2026-01-06 10:07:44.49	351.87	3.09	-45.0	-56.9	3.8	8.46e-01	0	57	104	1798307840	61	14290
2026-01-06 10:07:47.53	351.62	2.93	-45.0	-56.9	3.8	8.46e-01	0	56	104	1798307840	61	14307
2026-01-06 10:07:50.56	351.37	2.76	-45.0	-56.9	3.8	8.46e-01	0	57	104	1798307840	61	14296
2026-01-06 10:07:53.59	351.13	2.60	-45.0	-56.9	3.8	8.46e-01	0	57	104	1798307840	61	14281
2026-01-06 10:07:56.63	350.88	2.44	-45.0	-56.9	3.8	8.46e-01	0	57	104	1798307840	61	14240
2026-01-06 10:07:59.66	350.65	2.28	-45.0	-56.9	3.8	8.47e-01	0	57	104	1798307840	61	14300
2026-01-06 10:08:02.69	350.41	2.12	-45.0	-56.9	3.8	8.48e-01	0	56	104	1798307840	61	14286
2026-01-06 10:08:05.72	350.17	1.96	-45.0	-56.9	3.8	8.46e-01	0	57	104	1798307840	61	14295

#Closed at: 2026-01-06 10:08:06
#Recorded file [1798 MB]: D:/lorett/data/31039_260106_125619.dat