passes_logs/2026/01/06/R2.0S_Moscow/R2.0S_Moscow__20260106_113421_FENGYUN_3D_rec.log

#Pass ID: 20260106_113421_FENGYUN 3D
#Satellite: FENGYUN 3D
#Configuration: FENGYUN 3D
#almurnet v.1.7.20251203
#Start time: 2026-01-06 11:34:22

#Version: 2.2.20231116
#Station: R2.0S_Moscow
#Location: 37.707566 lon 55.798166 lat
#TLE: 1 43010U 17072A   26005.48915933 -.00000051  00000+0 -21983-5 0  9995
#TLE: 2 43010  98.9919 337.1582 0002001 124.6377 235.4988 14.19691925421909

#Time	Az	El	Level	Level2	SNR	BER	BlckErr	Temp	State	Recorded	gain1	gain2
2026-01-06 11:34:22.04	149.53	2.02	-43.9	-55.3	3.8	8.46e-01	0	47	0	0	58	14174
2026-01-06 11:34:26.09	149.48	2.28	-43.9	-55.4	3.8	8.45e-01	0	47	104	0	58	14224
2026-01-06 11:34:30.14	149.42	2.55	-43.9	-55.3	3.8	8.47e-01	0	48	104	0	58	14206
2026-01-06 11:34:34.18	149.36	2.81	-43.8	-55.4	3.8	8.46e-01	0	48	104	0	58	14218
2026-01-06 11:34:38.22	149.30	3.08	-43.9	-55.4	3.8	8.46e-01	0	48	104	0	58	14221
2026-01-06 11:34:42.27	149.24	3.35	-43.8	-55.3	3.8	8.47e-01	0	49	104	0	58	14164
2026-01-06 11:34:46.31	149.18	3.62	-43.9	-55.3	3.8	8.46e-01	0	49	104	0	58	14203
2026-01-06 11:34:50.35	149.11	3.90	-43.9	-55.3	3.8	8.46e-01	0	49	104	0	58	14144
2026-01-06 11:34:54.40	149.05	4.18	-43.9	-55.3	3.8	8.46e-01	0	49	104	0	58	14183
2026-01-06 11:34:58.44	148.98	4.46	-43.9	-55.3	3.8	8.47e-01	0	49	104	0	58	14184
2026-01-06 11:35:02.49	148.91	4.74	-43.9	-55.3	3.8	8.45e-01	0	50	104	0	58	14157
2026-01-06 11:35:06.53	148.84	5.03	-43.8	-55.3	3.8	8.46e-01	0	50	104	0	58	14130
2026-01-06 11:35:10.57	148.77	5.32	-43.9	-55.3	3.8	8.46e-01	0	50	104	0	58	14085
2026-01-06 11:35:14.62	148.70	5.61	-43.8	-55.2	3.8	8.47e-01	0	50	104	0	58	13894
2026-01-06 11:35:18.66	148.62	5.91	-43.8	-54.5	3.8	8.47e-01	0	51	104	0	58	12931
2026-01-06 11:35:22.70	148.55	6.21	-43.6	-53.4	3.8	8.46e-01	0	51	104	0	57	12088
2026-01-06 11:35:26.75	148.47	6.51	-43.6	-53.4	3.8	8.45e-01	0	51	104	0	57	12077
2026-01-06 11:35:30.79	148.39	6.82	-43.8	-54.7	3.8	8.47e-01	0	51	104	0	58	13215
2026-01-06 11:35:34.83	148.31	7.13	-43.2	-50.9	4.5	8.33e-01	0	51	0	0	58	8476
2026-01-06 11:35:38.88	148.22	7.45	-41.1	-45.0	8.8	5.02e-02	0	51	0	14680064	53	5726
2026-01-06 11:35:42.92	148.14	7.76	-38.9	-41.4	12.6	2.13e-04	0	52	0	37748736	49	4777
2026-01-06 11:35:46.96	148.05	8.09	-43.7	-51.3	4.5	8.41e-01	0	52	104	57671680	58	8964
2026-01-06 11:35:51.00	147.96	8.41	-40.9	-44.8	8.9	3.16e-03	0	52	0	73400320	52	5957
2026-01-06 11:35:55.03	147.87	8.74	-37.2	-39.2	14.9	2.20e-06	0	52	0	96468992	46	4397
2026-01-06 11:35:59.07	147.77	9.08	-37.0	-38.9	15.2	0.00e+00	0	52	0	118489088	46	4254
2026-01-06 11:36:03.12	147.67	9.42	-36.8	-38.5	15.6	0.00e+00	0	52	0	141557760	45	4334
2026-01-06 11:36:07.15	147.57	9.76	-36.7	-38.5	15.7	0.00e+00	0	52	0	164626432	45	4311
2026-01-06 11:36:11.20	147.47	10.11	-36.6	-38.4	15.8	0.00e+00	0	52	0	187695104	45	4259
2026-01-06 11:36:15.24	147.36	10.46	-36.6	-38.3	16.0	1.71e-05	0	53	0	209715200	44	4477
2026-01-06 11:36:19.28	147.26	10.82	-36.6	-38.3	16.1	0.00e+00	0	53	0	232783872	44	4463
2026-01-06 11:36:23.33	147.14	11.19	-36.5	-38.2	16.2	0.00e+00	0	53	0	255852544	44	4411
2026-01-06 11:36:27.37	147.03	11.56	-36.4	-38.1	16.3	0.00e+00	0	53	0	277872640	44	4361
2026-01-06 11:36:31.41	146.91	11.93	-36.4	-38.0	16.4	0.00e+00	0	53	0	300941312	44	4331
2026-01-06 11:36:35.45	146.79	12.31	-36.2	-37.8	16.6	0.00e+00	0	53	0	324009984	44	4233
2026-01-06 11:36:39.49	146.67	12.70	-36.1	-37.7	16.8	0.00e+00	0	54	0	346030080	44	4151
2026-01-06 11:36:43.54	146.54	13.09	-36.1	-37.6	16.9	0.00e+00	0	54	0	369098752	44	4136
2026-01-06 11:36:47.58	146.41	13.49	-35.9	-37.4	16.9	0.00e+00	0	54	0	392167424	43	4274
2026-01-06 11:36:51.61	146.27	13.89	-35.7	-37.3	17.1	0.00e+00	0	54	0	414187520	43	4198
2026-01-06 11:36:55.66	146.13	14.31	-35.6	-37.1	17.3	0.00e+00	0	54	0	437256192	43	4143
2026-01-06 11:36:59.70	145.99	14.73	-35.4	-36.9	17.5	0.00e+00	0	54	0	460324864	42	4252
2026-01-06 11:37:03.74	145.84	15.15	-35.2	-36.7	17.7	0.00e+00	0	54	0	483393536	42	4153
2026-01-06 11:37:07.78	145.69	15.58	-35.1	-36.6	17.9	0.00e+00	0	54	0	505413632	42	4109
2026-01-06 11:37:11.82	145.53	16.03	-34.9	-36.3	18.2	0.00e+00	0	54	0	528482304	41	4198
2026-01-06 11:37:15.86	145.36	16.47	-34.8	-36.2	18.3	0.00e+00	0	54	0	550502400	41	4152
2026-01-06 11:37:19.90	145.20	16.93	-34.7	-36.1	18.3	0.00e+00	0	54	0	573571072	41	4112
2026-01-06 11:37:23.95	145.02	17.40	-34.6	-36.0	18.5	0.00e+00	0	54	0	596639744	41	4055
2026-01-06 11:37:27.99	144.84	17.87	-34.6	-36.0	18.5	0.00e+00	0	54	0	619708416	41	4072
2026-01-06 11:37:32.03	144.66	18.36	-34.6	-36.0	18.5	0.00e+00	0	54	0	641728512	41	4063
2026-01-06 11:37:36.06	144.46	18.85	-34.6	-36.0	18.5	0.00e+00	0	55	0	664797184	41	4060
2026-01-06 11:37:40.11	144.27	19.35	-34.6	-36.0	18.5	0.00e+00	0	54	0	687865856	41	4075
2026-01-06 11:37:44.15	144.06	19.86	-34.6	-36.0	18.5	0.00e+00	0	54	0	709885952	41	4059
2026-01-06 11:37:48.19	143.85	20.38	-34.6	-36.0	18.5	0.00e+00	0	54	0	732954624	41	4059
2026-01-06 11:37:52.23	143.62	20.92	-34.5	-35.8	18.6	0.00e+00	0	55	0	754974720	40	4237
2026-01-06 11:37:56.27	143.40	21.46	-34.2	-35.5	19.0	0.00e+00	0	54	0	778043392	40	4075
2026-01-06 11:38:00.31	143.16	22.02	-34.0	-35.3	19.3	0.00e+00	0	55	0	801112064	39	4225
2026-01-06 11:38:04.35	142.91	22.59	-33.8	-35.1	19.4	0.00e+00	0	55	0	824180736	39	4132
2026-01-06 11:38:08.39	142.65	23.17	-33.8	-35.0	19.5	0.00e+00	0	55	0	846200832	39	4088
2026-01-06 11:38:12.44	142.38	23.76	-33.8	-35.1	19.6	0.00e+00	0	55	0	869269504	39	4111
2026-01-06 11:38:16.48	142.11	24.36	-33.8	-35.1	19.5	0.00e+00	0	55	0	892338176	39	4107
2026-01-06 11:38:20.52	141.82	24.98	-33.6	-34.8	19.8	0.00e+00	0	55	0	914358272	39	3982
2026-01-06 11:38:24.56	141.52	25.62	-33.3	-34.5	20.1	0.00e+00	0	55	0	937426944	38	4067
2026-01-06 11:38:28.59	141.20	26.26	-33.4	-34.6	20.1	0.00e+00	0	55	0	960495616	38	4108
2026-01-06 11:38:32.64	140.87	26.93	-33.6	-34.9	19.8	0.00e+00	0	55	0	982515712	38	4243
2026-01-06 11:38:36.68	140.53	27.60	-33.5	-34.7	19.9	0.00e+00	0	55	0	1005584384	38	4171
2026-01-06 11:38:40.72	140.17	28.30	-33.3	-34.5	20.2	0.00e+00	0	55	0	1028653056	38	4074
2026-01-06 11:38:44.76	139.80	29.01	-33.3	-34.6	20.1	0.00e+00	0	55	0	1050673152	38	4100
2026-01-06 11:38:48.80	139.41	29.73	-33.4	-34.6	20.1	0.00e+00	0	55	0	1073741824	38	4130
2026-01-06 11:38:52.85	138.99	30.48	-33.2	-34.4	20.3	0.00e+00	0	55	0	1096810496	38	4017
2026-01-06 11:38:56.89	138.56	31.24	-32.9	-34.1	20.5	0.00e+00	0	55	0	1119879168	37	4139
2026-01-06 11:39:00.93	138.11	32.02	-33.1	-34.3	20.3	0.00e+00	0	55	0	1141899264	37	4232
2026-01-06 11:39:04.97	137.63	32.82	-33.0	-34.2	20.4	0.00e+00	0	55	0	1164967936	37	4152
2026-01-06 11:39:09.01	137.13	33.64	-33.1	-34.3	20.4	0.00e+00	0	55	0	1186988032	37	4202
2026-01-06 11:39:13.05	136.61	34.48	-32.9	-34.1	20.5	0.00e+00	0	55	0	1210056704	37	4142
2026-01-06 11:39:17.09	136.05	35.34	-32.9	-34.1	20.6	0.00e+00	0	55	0	1233125376	37	4109
2026-01-06 11:39:21.13	135.46	36.21	-32.9	-34.1	20.6	0.00e+00	0	55	0	1255145472	37	4108
2026-01-06 11:39:25.17	134.84	37.11	-33.1	-34.3	20.4	0.00e+00	0	55	0	1278214144	37	4235
2026-01-06 11:39:29.21	134.19	38.03	-33.0	-34.2	20.6	0.00e+00	0	55	0	1301282816	37	4175
2026-01-06 11:39:33.25	133.49	38.98	-33.1	-34.2	20.5	0.00e+00	0	55	0	1324351488	37	4191
2026-01-06 11:39:37.29	132.75	39.94	-33.2	-34.4	20.4	0.00e+00	0	55	0	1346371584	37	4272
2026-01-06 11:39:41.33	131.97	40.92	-33.2	-34.4	20.4	0.00e+00	0	55	0	1369440256	37	4257
2026-01-06 11:39:45.37	131.14	41.93	-33.3	-34.6	20.2	0.00e+00	0	55	0	1391460352	37	4347
2026-01-06 11:39:49.41	130.25	42.95	-33.6	-34.9	20.0	0.00e+00	0	56	0	1414529024	37	4516
2026-01-06 11:39:53.45	129.30	44.00	-33.6	-34.8	20.1	0.00e+00	0	56	0	1437597696	37	4457
2026-01-06 11:39:57.49	128.28	45.06	-33.4	-34.7	20.3	0.00e+00	0	56	0	1460666368	37	4400
2026-01-06 11:40:01.52	127.20	46.14	-33.4	-34.6	20.3	0.00e+00	0	56	0	1482686464	37	4381
2026-01-06 11:40:05.56	126.03	47.24	-33.4	-34.6	20.4	0.00e+00	0	56	0	1505755136	37	4367
2026-01-06 11:40:09.60	124.78	48.35	-33.7	-34.9	20.1	0.00e+00	0	56	0	1528823808	38	4266
2026-01-06 11:40:13.64	123.44	49.48	-34.4	-35.7	19.3	0.00e+00	0	55	0	1550843904	39	4397
2026-01-06 11:40:17.68	121.99	50.62	-34.3	-35.5	19.5	0.00e+00	0	56	0	1573912576	39	4325
2026-01-06 11:40:21.71	120.43	51.76	-33.7	-35.1	17.2	2.83e-03	0	56	0	1595932672	39	4138
2026-01-06 11:40:25.76	118.73	52.91	-34.1	-35.5	16.5	1.43e-02	0	56	0	1619001344	38	4595
2026-01-06 11:40:29.79	116.91	54.05	-33.8	-35.3	16.8	9.67e-03	0	56	0	1642070016	39	4209
2026-01-06 11:40:33.83	114.93	55.19	-34.3	-35.6	19.5	0.00e+00	0	56	0	1665138688	39	4347
2026-01-06 11:40:37.87	112.78	56.31	-34.3	-35.6	19.5	0.00e+00	0	56	0	1687158784	39	4344
2026-01-06 11:40:41.92	110.45	57.42	-34.2	-35.5	19.5	0.00e+00	0	56	0	1710227456	39	4305
2026-01-06 11:40:45.96	107.93	58.50	-33.8	-35.0	19.9	0.00e+00	0	56	0	1733296128	39	4088
2026-01-06 11:40:49.99	105.21	59.53	-33.4	-34.6	20.4	0.00e+00	0	56	0	1755316224	38	4119
2026-01-06 11:40:54.03	102.25	60.52	-33.8	-35.1	19.9	0.00e+00	0	56	0	1778384896	38	4345
2026-01-06 11:40:58.07	99.07	61.46	-33.4	-34.6	20.2	0.00e+00	0	56	0	1800404992	38	4137
2026-01-06 11:41:02.11	95.64	62.32	-33.3	-34.4	20.5	0.00e+00	0	56	0	1823473664	38	4039
2026-01-06 11:41:06.15	91.97	63.10	-33.2	-34.4	20.5	0.00e+00	0	56	0	1846542336	38	4032
2026-01-06 11:41:10.19	88.08	63.78	-32.6	-33.8	21.1	0.00e+00	0	56	0	1869611008	37	3973
2026-01-06 11:41:14.23	83.96	64.35	-32.8	-33.9	21.0	0.00e+00	0	56	0	1891631104	37	4044
2026-01-06 11:41:18.27	79.66	64.80	-32.5	-33.7	21.2	0.00e+00	0	56	0	1914699776	36	4155
2026-01-06 11:41:22.31	75.21	65.12	-32.2	-33.3	21.6	0.00e+00	0	56	0	1937768448	36	3967
2026-01-06 11:41:26.35	70.66	65.30	-32.5	-33.6	21.3	0.00e+00	0	56	0	1959788544	36	4107
2026-01-06 11:41:30.40	66.06	65.34	-32.1	-33.2	21.6	0.00e+00	0	56	0	1982857216	36	3914
2026-01-06 11:41:34.44	61.47	65.24	-32.2	-33.3	21.4	0.00e+00	0	56	0	2005925888	36	3983
2026-01-06 11:41:38.48	56.96	64.99	-32.3	-33.4	21.5	0.00e+00	0	56	0	2027945984	36	4014
2026-01-06 11:41:42.52	52.58	64.61	-32.5	-33.7	21.2	0.00e+00	0	56	0	2051014656	36	4161
2026-01-06 11:41:46.57	48.35	64.11	-32.7	-33.9	20.9	0.00e+00	0	56	0	2074083328	36	4265
2026-01-06 11:41:50.61	44.34	63.48	-33.0	-34.2	20.8	0.00e+00	0	56	0	2096103424	36	4397
2026-01-06 11:41:54.65	40.55	62.76	-32.9	-34.1	20.9	0.00e+00	0	56	0	2119172096	36	4346
2026-01-06 11:41:58.69	36.99	61.94	-33.2	-34.4	20.6	0.00e+00	0	56	0	2142240768	37	4255
2026-01-06 11:42:02.73	33.68	61.05	-32.9	-34.0	21.0	0.00e+00	0	56	0	2164260864	37	4070
2026-01-06 11:42:06.78	30.60	60.09	-33.5	-34.7	20.3	0.00e+00	0	56	0	2187329536	37	4413
2026-01-06 11:42:10.82	27.75	59.08	-34.0	-35.2	19.8	0.00e+00	0	56	0	2210398208	38	4431
2026-01-06 11:42:14.86	25.12	58.02	-33.6	-34.8	20.3	0.00e+00	0	56	0	2232418304	38	4242
2026-01-06 11:42:18.90	22.70	56.93	-34.3	-35.6	19.5	0.00e+00	0	56	0	2255486976	39	4386
2026-01-06 11:42:22.94	20.46	55.82	-33.7	-34.9	20.2	0.00e+00	0	56	0	2278555648	39	4031
2026-01-06 11:42:26.97	18.40	54.69	-34.0	-35.2	19.9	0.00e+00	0	56	0	2300575744	39	4183
2026-01-06 11:42:31.01	16.49	53.56	-33.8	-34.9	20.2	0.00e+00	0	56	0	2323644416	39	4046
2026-01-06 11:42:35.05	14.73	52.41	-33.9	-35.1	20.1	0.00e+00	0	56	0	2346713088	39	4101
2026-01-06 11:42:39.09	13.10	51.27	-33.7	-34.9	20.2	0.00e+00	0	56	0	2369781760	39	4019
2026-01-06 11:42:43.13	11.59	50.14	-33.5	-34.7	20.3	0.00e+00	0	56	0	2391801856	39	3927
2026-01-06 11:42:47.17	10.19	49.01	-33.4	-34.6	20.4	0.00e+00	0	56	0	2414870528	38	4122
2026-01-06 11:42:51.21	8.89	47.89	-33.4	-34.4	20.9	0.00e+00	0	56	0	2436890624	38	4047
2026-01-06 11:42:55.25	7.69	46.79	-33.3	-34.4	21.0	0.00e+00	0	56	0	2459959296	38	4039
2026-01-06 11:42:59.29	6.56	45.70	-33.1	-34.1	21.2	0.00e+00	0	56	0	2483027968	37	4120
2026-01-06 11:43:03.33	5.51	44.63	-33.3	-34.4	20.9	0.00e+00	0	56	0	2505048064	37	4289
2026-01-06 11:43:07.37	4.53	43.58	-33.3	-34.4	20.9	0.00e+00	0	56	0	2528116736	37	4269
2026-01-06 11:43:11.42	3.61	42.54	-33.1	-34.1	21.2	0.00e+00	0	56	0	2551185408	37	4140
2026-01-06 11:43:15.46	2.75	41.53	-32.8	-33.8	21.5	0.00e+00	0	56	0	2574254080	37	3976
2026-01-06 11:43:19.50	1.94	40.54	-33.0	-34.1	21.2	0.00e+00	0	56	0	2596274176	37	4120
2026-01-06 11:43:23.54	1.18	39.57	-33.0	-34.1	21.2	0.00e+00	0	56	0	2619342848	37	4119
2026-01-06 11:43:27.58	0.46	38.62	-32.8	-33.8	21.5	0.00e+00	0	56	0	2641362944	37	3977
2026-01-06 11:43:31.62	359.79	37.69	-32.7	-33.8	21.5	0.00e+00	0	56	0	2664431616	37	3965
2026-01-06 11:43:35.66	359.15	36.78	-32.7	-33.8	21.5	0.00e+00	0	56	0	2687500288	37	3971
2026-01-06 11:43:39.70	358.55	35.90	-33.2	-34.3	21.0	0.00e+00	0	56	0	2710568960	37	4198
2026-01-06 11:43:43.75	357.97	35.03	-33.0	-34.1	21.1	0.00e+00	0	56	0	2732589056	37	4113
2026-01-06 11:43:47.79	357.43	34.18	-33.1	-34.2	21.0	0.00e+00	0	56	0	2755657728	37	4173
2026-01-06 11:43:51.82	356.92	33.36	-32.9	-34.0	21.2	0.00e+00	0	56	0	2778726400	37	4075
2026-01-06 11:43:55.86	356.44	32.55	-33.1	-34.1	21.0	0.00e+00	0	56	0	2800746496	37	4141
2026-01-06 11:43:59.90	355.97	31.76	-33.1	-34.2	21.0	0.00e+00	0	56	0	2823815168	37	4161
2026-01-06 11:44:03.94	355.53	30.99	-33.2	-34.2	20.9	0.00e+00	0	56	0	2846883840	37	4181
2026-01-06 11:44:07.98	355.11	30.24	-33.3	-34.3	20.8	0.00e+00	0	56	0	2868903936	37	4237
2026-01-06 11:44:12.01	354.71	29.51	-33.3	-34.4	20.7	0.00e+00	0	56	0	2891972608	37	4283
2026-01-06 11:44:16.05	354.33	28.79	-33.2	-34.3	20.8	0.00e+00	0	56	0	2915041280	37	4204
2026-01-06 11:44:20.09	353.97	28.09	-33.2	-34.3	20.8	0.00e+00	0	56	0	2937061376	37	4195
2026-01-06 11:44:24.13	353.62	27.41	-33.4	-34.5	20.5	0.00e+00	0	56	0	2960130048	37	4313
2026-01-06 11:44:28.17	353.29	26.74	-33.5	-34.6	20.5	0.00e+00	0	56	0	2983198720	37	4357
2026-01-06 11:44:32.21	352.97	26.09	-33.3	-34.4	20.5	0.00e+00	0	56	0	3005218816	37	4278
2026-01-06 11:44:36.25	352.66	25.45	-33.5	-34.6	20.3	0.00e+00	0	56	0	3028287488	37	4357
2026-01-06 11:44:40.30	352.37	24.82	-33.8	-35.0	20.0	0.00e+00	0	56	0	3051356160	38	4303
2026-01-06 11:44:44.34	352.08	24.21	-34.0	-35.2	19.7	0.00e+00	0	56	0	3073376256	38	4412
2026-01-06 11:44:48.37	351.81	23.61	-33.9	-35.0	19.7	0.00e+00	0	56	0	3096444928	38	4339
2026-01-06 11:44:52.42	351.55	23.03	-33.6	-34.7	19.7	0.00e+00	0	56	0	3119513600	38	4188
2026-01-06 11:44:56.46	351.30	22.46	-33.7	-34.9	19.2	0.00e+00	0	56	0	3141533696	38	4274
2026-01-06 11:45:00.50	351.06	21.90	-33.2	-34.4	19.4	0.00e+00	0	56	0	3164602368	38	4043
2026-01-06 11:45:04.54	350.83	21.35	-35.1	-36.6	16.6	0.00e+00	0	56	0	3187671040	40	4641
2026-01-06 11:45:08.58	350.61	20.81	-38.7	-42.1	10.0	5.29e-03	0	56	0	3209691136	47	5818
2026-01-06 11:45:12.62	350.39	20.28	-40.3	-48.1	4.5	8.07e-01	0	57	0	3226468352	51	9183
2026-01-06 11:45:16.66	350.19	19.77	-40.6	-51.5	3.8	8.46e-01	0	56	104	3226468352	51	13637
2026-01-06 11:45:20.69	349.99	19.26	-40.6	-52.1	3.8	8.46e-01	0	56	104	3226468352	52	13867
2026-01-06 11:45:24.73	349.80	18.76	-40.7	-52.4	3.8	8.46e-01	0	56	104	3226468352	52	14231
2026-01-06 11:45:28.77	349.61	18.28	-40.5	-52.2	3.8	8.47e-01	0	56	104	3226468352	52	13945
2026-01-06 11:45:32.81	349.43	17.80	-41.0	-52.7	3.8	8.45e-01	0	56	104	3226468352	52	14839
2026-01-06 11:45:36.85	349.25	17.33	-40.6	-52.3	3.8	8.46e-01	0	56	104	3226468352	52	14073
2026-01-06 11:45:40.88	349.09	16.87	-40.3	-52.5	3.8	8.45e-01	0	56	104	3226468352	52	14474
2026-01-06 11:45:44.92	348.92	16.42	-40.5	-52.3	3.8	8.46e-01	0	57	104	3226468352	52	14207
2026-01-06 11:45:48.96	348.77	15.97	-40.9	-52.6	3.8	8.47e-01	0	56	104	3226468352	53	13822
2026-01-06 11:45:53.00	348.61	15.54	-40.5	-52.5	3.8	8.47e-01	0	56	104	3226468352	52	14504
2026-01-06 11:45:57.04	348.47	15.11	-41.2	-52.8	3.8	8.46e-01	0	57	104	3226468352	53	14204
2026-01-06 11:46:01.08	348.32	14.69	-41.4	-53.2	3.8	8.47e-01	0	57	104	3226468352	53	14742
2026-01-06 11:46:05.12	348.18	14.27	-41.1	-52.8	3.8	8.46e-01	0	57	104	3226468352	53	14198
2026-01-06 11:46:09.16	348.05	13.86	-41.2	-52.9	3.8	8.46e-01	0	57	104	3226468352	53	14348
2026-01-06 11:46:13.20	347.92	13.46	-41.0	-52.7	3.8	8.46e-01	0	56	104	3226468352	53	13978
2026-01-06 11:46:17.24	347.79	13.07	-41.1	-52.8	3.8	8.47e-01	0	57	104	3226468352	53	14208
2026-01-06 11:46:21.28	347.67	12.68	-40.9	-52.6	3.8	8.46e-01	0	57	104	3226468352	53	13749
2026-01-06 11:46:25.32	347.55	12.30	-41.0	-52.7	3.8	8.46e-01	0	57	104	3226468352	53	13955
2026-01-06 11:46:29.36	347.44	11.92	-40.9	-52.6	3.8	8.47e-01	0	57	104	3226468352	53	13742
2026-01-06 11:46:33.40	347.32	11.55	-40.9	-52.6	3.8	8.46e-01	0	57	104	3226468352	53	13823
2026-01-06 11:46:37.43	347.21	11.18	-40.9	-52.6	3.8	8.45e-01	0	56	104	3226468352	53	13788
2026-01-06 11:46:41.47	347.11	10.82	-40.9	-52.6	3.8	8.45e-01	0	57	104	3226468352	53	13806
2026-01-06 11:46:45.51	347.00	10.47	-40.9	-52.6	3.8	8.45e-01	0	56	104	3226468352	53	13763
2026-01-06 11:46:49.56	346.90	10.11	-40.9	-52.6	3.8	8.46e-01	0	56	104	3226468352	53	13821
2026-01-06 11:46:53.60	346.81	9.77	-40.9	-52.6	3.8	8.45e-01	0	57	104	3226468352	53	13869
2026-01-06 11:46:57.64	346.71	9.43	-41.0	-52.8	3.8	8.46e-01	0	57	104	3226468352	53	14054
2026-01-06 11:47:01.68	346.62	9.09	-41.0	-52.7	3.8	8.46e-01	0	57	104	3226468352	53	14002
2026-01-06 11:47:05.72	346.53	8.76	-41.0	-52.6	3.8	8.45e-01	0	57	104	3226468352	53	13858
2026-01-06 11:47:09.76	346.44	8.43	-41.0	-52.7	3.8	8.46e-01	0	57	104	3226468352	53	13961
2026-01-06 11:47:13.80	346.36	8.11	-40.9	-52.5	3.8	8.46e-01	0	57	104	3226468352	53	13633
2026-01-06 11:47:17.84	346.27	7.79	-41.8	-53.3	3.8	8.46e-01	0	57	104	3226468352	53	14949
2026-01-06 11:47:21.89	346.19	7.47	-45.1	-56.9	3.8	8.46e-01	0	57	104	3226468352	60	15144
2026-01-06 11:47:25.93	346.11	7.16	-45.2	-57.1	3.8	8.46e-01	0	57	104	3226468352	60	15415
2026-01-06 11:47:29.98	346.04	6.85	-45.1	-57.0	3.8	8.46e-01	0	57	104	3226468352	60	15327
2026-01-06 11:47:34.02	345.96	6.55	-45.1	-57.0	3.8	8.46e-01	0	57	104	3226468352	60	15252
2026-01-06 11:47:38.06	345.89	6.24	-45.1	-57.0	3.8	8.45e-01	0	57	104	3226468352	60	15273
2026-01-06 11:47:42.10	345.82	5.95	-45.0	-57.0	3.8	8.46e-01	0	57	104	3226468352	60	15260
2026-01-06 11:47:46.15	345.75	5.65	-45.0	-57.0	3.8	8.47e-01	0	57	104	3226468352	60	15263
2026-01-06 11:47:50.19	345.68	5.36	-45.0	-57.0	3.8	8.45e-01	0	57	104	3226468352	60	15268
2026-01-06 11:47:54.23	345.62	5.07	-45.0	-56.9	3.8	8.47e-01	0	57	104	3226468352	60	15209
2026-01-06 11:47:58.28	345.55	4.79	-45.0	-56.9	3.8	8.46e-01	0	57	104	3226468352	60	15180
2026-01-06 11:48:02.32	345.49	4.50	-45.0	-56.9	3.8	8.46e-01	0	57	104	3226468352	60	15215
2026-01-06 11:48:06.37	345.43	4.22	-45.0	-56.9	3.8	8.45e-01	0	57	104	3226468352	60	15156
2026-01-06 11:48:10.41	345.37	3.95	-45.0	-56.9	3.8	8.47e-01	0	57	104	3226468352	60	15164
2026-01-06 11:48:14.45	345.31	3.67	-45.0	-56.9	3.8	8.47e-01	0	57	104	3226468352	60	15166
2026-01-06 11:48:18.50	345.25	3.40	-45.0	-56.9	3.8	8.47e-01	0	57	104	3226468352	60	15161
2026-01-06 11:48:22.54	345.20	3.13	-45.0	-56.9	3.8	8.45e-01	0	57	104	3226468352	60	15119
2026-01-06 11:48:26.59	345.14	2.87	-45.0	-56.9	3.8	8.45e-01	0	57	104	3226468352	60	15141
2026-01-06 11:48:30.63	345.09	2.60	-45.0	-56.9	3.8	8.46e-01	0	57	104	3226468352	60	15142
2026-01-06 11:48:34.67	345.04	2.34	-45.0	-56.9	3.8	8.45e-01	0	57	104	3226468352	60	15170
2026-01-06 11:48:38.72	344.99	2.08	-45.0	-56.9	3.8	8.46e-01	0	57	104	3226468352	60	15076

#Closed at: 2026-01-06 11:48:42
#Recorded file [3226 MB]: D:/lorett/data/31039_260106_143421.dat