passes_logs/2026/01/06/R2.0S_Moscow/R2.0S_Moscow__20260106_132111_FENGYUN_3E_rec.log

#Pass ID: 20260106_132111_FENGYUN 3E
#Satellite: FENGYUN 3E
#Configuration: FENGYUN 3E
#almurnet v.1.7.20251203
#Start time: 2026-01-06 13:28:57

#Version: 2.2.20231116
#Station: R2.0S_Moscow
#Location: 37.707566 lon 55.798166 lat
#TLE: 1 49008U 21062A   26005.63346808  .00000216  00000+0  12264-3 0  9999
#TLE: 2 49008  98.7472  10.8714 0001569 158.0856 202.0387 14.19884439233512

#Time	Az	El	Level	Level2	SNR	BER	BlckErr	Temp	State	Recorded	gain1	gain2
2026-01-06 13:28:57.27	37.34	39.75	-44.9	-56.8	3.8	8.45e-01	0	56	0	0	60	14949
2026-01-06 13:28:59.28	36.50	39.53	-45.7	-56.7	3.8	8.47e-01	0	56	104	0	62	12392
2026-01-06 13:29:01.30	35.67	39.30	-45.5	-56.3	3.8	8.46e-01	0	57	104	0	61	12546
2026-01-06 13:29:03.32	34.85	39.07	-45.5	-56.6	3.8	8.47e-01	0	56	104	0	61	13032
2026-01-06 13:29:05.34	34.04	38.84	-45.4	-56.5	3.8	8.46e-01	0	57	104	0	61	12893
2026-01-06 13:29:07.37	33.23	38.60	-45.4	-56.5	3.8	8.46e-01	0	56	104	0	61	12925
2026-01-06 13:29:09.39	32.45	38.35	-45.4	-56.6	3.8	8.46e-01	0	56	104	0	61	13005
2026-01-06 13:29:11.41	31.67	38.10	-45.5	-56.6	3.8	8.45e-01	0	57	104	0	61	13016
2026-01-06 13:29:13.43	30.91	37.85	-45.4	-56.6	3.8	8.46e-01	0	57	104	0	61	12992
2026-01-06 13:29:15.45	30.16	37.59	-45.4	-56.4	3.8	8.45e-01	0	56	104	0	61	12686
2026-01-06 13:29:17.47	29.42	37.33	-45.4	-56.0	3.8	8.46e-01	0	57	104	0	61	12097
2026-01-06 13:29:19.49	28.70	37.07	-45.4	-56.1	3.8	8.46e-01	0	57	104	0	61	12278
2026-01-06 13:29:21.51	27.98	36.81	-45.4	-56.2	3.8	8.45e-01	0	57	104	0	61	12471
2026-01-06 13:29:23.54	27.28	36.53	-45.4	-56.2	3.8	8.46e-01	0	57	104	0	61	12423
2026-01-06 13:29:25.56	26.59	36.26	-45.4	-56.4	3.8	8.47e-01	0	56	104	0	61	12773
2026-01-06 13:29:27.58	25.91	35.99	-45.4	-56.5	3.8	8.46e-01	0	57	104	0	61	12943
2026-01-06 13:29:29.60	25.24	35.71	-45.4	-56.4	3.8	8.46e-01	0	57	104	0	61	12778
2026-01-06 13:29:31.61	24.58	35.44	-45.4	-56.1	3.8	8.46e-01	0	57	104	0	61	12280
2026-01-06 13:29:33.64	23.94	35.15	-45.4	-56.3	3.8	8.46e-01	0	57	104	0	61	12639
2026-01-06 13:29:35.66	23.30	34.87	-45.4	-56.6	3.8	8.47e-01	0	57	104	0	61	12967
2026-01-06 13:29:37.68	22.68	34.59	-45.3	-55.5	3.8	8.46e-01	0	57	104	0	61	11536
2026-01-06 13:29:39.70	22.07	34.31	-45.2	-54.6	3.9	8.46e-01	0	57	104	0	61	10365
2026-01-06 13:29:41.72	21.46	34.02	-45.1	-53.8	4.0	8.45e-01	0	57	104	0	61	9421
2026-01-06 13:29:43.74	20.87	33.73	-44.7	-51.8	4.6	8.20e-01	0	57	0	0	60	7927
2026-01-06 13:29:45.76	20.29	33.45	-43.6	-48.0	7.0	2.81e-01	0	57	0	3145728	58	5779
2026-01-06 13:29:47.79	19.72	33.16	-39.0	-40.7	14.5	6.80e-06	0	57	0	17825792	49	4167
2026-01-06 13:29:49.81	19.16	32.87	-34.9	-36.0	18.9	0.00e+00	0	57	0	32505856	40	4074
2026-01-06 13:29:51.83	18.61	32.58	-33.5	-34.5	20.4	0.00e+00	0	57	0	47185920	37	4083
2026-01-06 13:29:53.85	18.07	32.29	-39.0	-40.8	14.4	0.00e+00	0	57	0	61865984	47	4730
2026-01-06 13:29:55.86	17.54	32.01	-35.4	-36.5	18.5	0.00e+00	0	57	0	76546048	40	4328
2026-01-06 13:29:57.88	17.02	31.72	-34.5	-35.6	19.3	0.00e+00	0	57	0	91226112	39	4125
2026-01-06 13:29:59.90	16.51	31.43	-34.3	-35.4	19.5	0.00e+00	0	57	0	104857600	39	4039
2026-01-06 13:30:01.92	16.00	31.14	-34.6	-35.7	19.2	0.00e+00	0	57	0	119537664	39	4174
2026-01-06 13:30:03.94	15.51	30.86	-34.5	-35.6	19.3	0.00e+00	0	57	0	134217728	39	4134
2026-01-06 13:30:05.96	15.03	30.57	-33.9	-35.0	19.9	0.00e+00	0	57	0	148897792	38	4055
2026-01-06 13:30:07.98	14.55	30.28	-33.8	-34.9	20.0	0.00e+00	0	57	0	163577856	38	4006
2026-01-06 13:30:10.01	14.08	29.99	-33.8	-34.8	20.0	0.00e+00	0	57	0	178257920	38	3965
2026-01-06 13:30:12.02	13.62	29.71	-33.8	-34.8	20.1	0.00e+00	0	57	0	192937984	38	3972
2026-01-06 13:30:14.04	13.17	29.43	-33.9	-35.0	19.9	0.00e+00	0	57	0	207618048	38	4058
2026-01-06 13:30:16.06	12.73	29.14	-34.0	-35.0	19.8	0.00e+00	0	57	0	222298112	38	4072
2026-01-06 13:30:18.08	12.29	28.86	-34.1	-35.1	19.7	0.00e+00	0	57	0	236978176	38	4131
2026-01-06 13:30:20.10	11.86	28.58	-34.0	-35.1	19.7	0.00e+00	0	57	0	250609664	38	4112
2026-01-06 13:30:22.12	11.44	28.30	-34.2	-35.3	19.5	0.00e+00	0	57	0	265289728	38	4218
2026-01-06 13:30:24.14	11.03	28.02	-34.5	-35.6	19.2	0.00e+00	0	57	0	279969792	38	4379
2026-01-06 13:30:26.16	10.62	27.74	-34.7	-35.8	19.0	0.00e+00	0	57	0	294649856	39	4224
2026-01-06 13:30:28.18	10.22	27.46	-34.2	-35.3	19.5	0.00e+00	0	57	0	309329920	39	3976
2026-01-06 13:30:30.20	9.83	27.19	-34.3	-35.3	19.5	0.00e+00	0	57	0	324009984	39	3996
2026-01-06 13:30:32.22	9.45	26.92	-34.2	-35.3	19.5	0.00e+00	0	57	0	338690048	39	3971
2026-01-06 13:30:34.24	9.07	26.64	-34.2	-35.3	19.5	0.00e+00	0	57	0	353370112	39	3959
2026-01-06 13:30:36.26	8.70	26.37	-34.3	-35.4	19.4	0.00e+00	0	57	0	368050176	39	4011
2026-01-06 13:30:38.28	8.33	26.10	-34.5	-35.6	19.2	0.00e+00	0	57	0	382730240	39	4124
2026-01-06 13:30:40.30	7.97	25.83	-34.6	-35.7	19.0	0.00e+00	0	57	0	397410304	39	4189
2026-01-06 13:30:42.32	7.62	25.56	-34.2	-35.3	19.5	0.00e+00	0	57	0	411041792	39	3970
2026-01-06 13:30:44.34	7.27	25.30	-34.0	-35.1	19.7	0.00e+00	0	57	0	425721856	39	3870
2026-01-06 13:30:46.36	6.93	25.03	-33.9	-35.0	19.7	0.00e+00	0	57	0	440401920	38	4059
2026-01-06 13:30:48.38	6.60	24.77	-34.2	-35.3	19.5	0.00e+00	0	57	0	455081984	38	4200
2026-01-06 13:30:50.40	6.27	24.51	-34.5	-35.6	19.1	0.00e+00	0	57	0	469762048	38	4373
2026-01-06 13:30:52.41	5.95	24.25	-34.6	-35.7	19.0	0.00e+00	0	57	0	484442112	38	4429
2026-01-06 13:30:54.43	5.63	23.99	-34.6	-35.7	19.0	0.00e+00	0	57	0	499122176	38	4396
2026-01-06 13:30:56.45	5.31	23.74	-34.5	-35.6	19.1	0.00e+00	0	57	0	513802240	38	4363
2026-01-06 13:30:58.47	5.00	23.48	-34.5	-35.6	19.0	0.00e+00	0	57	0	527433728	38	4387
2026-01-06 13:31:00.49	4.70	23.23	-34.4	-35.5	19.1	0.00e+00	0	57	0	543162368	38	4335
2026-01-06 13:31:02.51	4.40	22.98	-34.3	-35.3	19.3	0.00e+00	0	56	0	556793856	38	4229
2026-01-06 13:31:04.53	4.11	22.73	-34.2	-35.3	19.4	0.00e+00	0	56	0	571473920	38	4198
2026-01-06 13:31:06.55	3.82	22.48	-34.2	-35.3	19.3	0.00e+00	0	57	0	586153984	38	4210
2026-01-06 13:31:08.57	3.54	22.23	-34.4	-35.4	19.1	0.00e+00	0	57	0	600834048	38	4288
2026-01-06 13:31:10.59	3.26	21.99	-34.5	-35.6	19.0	0.00e+00	0	57	0	615514112	38	4380
2026-01-06 13:31:12.61	2.98	21.74	-34.7	-35.9	18.7	0.00e+00	0	57	0	630194176	38	4500
2026-01-06 13:31:14.63	2.71	21.50	-34.9	-36.0	18.5	0.00e+00	0	57	0	644874240	39	4322
2026-01-06 13:31:16.65	2.45	21.26	-34.9	-36.1	18.5	0.00e+00	0	57	0	659554304	39	4364
2026-01-06 13:31:18.66	2.19	21.02	-35.0	-36.2	18.3	0.00e+00	0	57	0	674234368	39	4413
2026-01-06 13:31:20.68	1.93	20.79	-35.2	-36.4	18.1	0.00e+00	0	57	0	688914432	39	4521
2026-01-06 13:31:22.71	1.67	20.55	-35.3	-36.5	17.9	0.00e+00	0	57	0	702545920	40	4335
2026-01-06 13:31:24.73	1.42	20.32	-35.4	-36.6	17.8	0.00e+00	0	57	0	718274560	40	4390
2026-01-06 13:31:26.75	1.18	20.09	-35.0	-36.2	18.2	0.00e+00	0	57	0	731906048	40	4146
2026-01-06 13:31:28.77	0.93	19.85	-34.8	-36.0	18.3	0.00e+00	0	57	0	746586112	40	4080
2026-01-06 13:31:30.79	0.70	19.63	-34.7	-35.8	18.5	0.00e+00	0	57	0	761266176	40	3981
2026-01-06 13:31:32.81	0.46	19.40	-34.6	-35.7	18.5	0.00e+00	0	57	0	775946240	40	3954
2026-01-06 13:31:34.83	0.23	19.17	-34.5	-35.6	18.6	0.00e+00	0	57	0	790626304	40	3909
2026-01-06 13:31:36.85	0.00	18.95	-34.6	-35.8	18.4	0.00e+00	0	57	0	805306368	40	3961
2026-01-06 13:31:38.88	359.78	18.72	-34.8	-36.0	18.2	0.00e+00	0	57	0	819986432	40	4067
2026-01-06 13:31:40.89	359.56	18.50	-35.1	-36.3	17.9	0.00e+00	0	57	0	834666496	40	4210
2026-01-06 13:31:42.91	359.34	18.28	-35.0	-36.2	17.9	0.00e+00	0	57	0	848297984	40	4181
2026-01-06 13:31:44.94	359.12	18.06	-35.2	-36.4	17.7	0.00e+00	0	57	0	864026624	40	4280
2026-01-06 13:31:46.95	358.91	17.85	-35.3	-36.6	17.4	0.00e+00	0	57	0	877658112	40	4355
2026-01-06 13:31:48.97	358.70	17.63	-35.4	-36.7	17.3	0.00e+00	0	57	0	892338176	40	4417
2026-01-06 13:31:50.99	358.50	17.42	-35.5	-36.8	17.1	0.00e+00	0	57	0	907018240	40	4471
2026-01-06 13:31:53.01	358.30	17.21	-35.3	-36.6	17.2	0.00e+00	0	56	0	921698304	40	4381
2026-01-06 13:31:55.03	358.10	17.00	-35.1	-36.4	17.3	0.00e+00	0	57	0	936378368	40	4252
2026-01-06 13:31:57.06	357.90	16.79	-35.2	-36.4	17.2	0.00e+00	0	57	0	951058432	40	4288
2026-01-06 13:31:59.07	357.71	16.58	-35.5	-36.8	16.8	0.00e+00	0	57	0	965738496	40	4457
2026-01-06 13:32:01.10	357.51	16.37	-35.7	-37.1	16.5	0.00e+00	0	57	0	980418560	40	4610
2026-01-06 13:32:03.12	357.33	16.17	-35.7	-37.1	16.3	0.00e+00	0	57	0	995098624	41	4386
2026-01-06 13:32:05.14	357.14	15.96	-35.3	-36.7	16.6	0.00e+00	0	57	0	1009778688	41	4148
2026-01-06 13:32:07.16	356.96	15.76	-35.2	-36.5	16.6	0.00e+00	0	57	0	1023410176	41	4092
2026-01-06 13:32:09.17	356.78	15.56	-35.5	-36.9	16.1	0.00e+00	0	57	0	1038090240	41	4265
2026-01-06 13:32:11.19	356.60	15.36	-36.0	-37.6	15.2	0.00e+00	0	57	0	1052770304	41	4636
2026-01-06 13:32:13.21	356.42	15.16	-36.9	-38.8	13.7	3.40e-06	0	57	0	1067450368	43	4716
2026-01-06 13:32:15.23	356.25	14.97	-37.9	-40.3	11.9	2.54e-04	0	57	0	1082130432	45	4987
2026-01-06 13:32:17.25	356.08	14.77	-38.7	-41.8	10.0	6.29e-03	0	57	0	1096810496	46	5601
2026-01-06 13:32:19.27	355.91	14.58	-39.4	-43.4	8.2	4.11e-02	0	57	0	1111490560	48	6010
2026-01-06 13:32:21.28	355.75	14.38	-40.0	-45.1	6.3	2.27e-01	0	57	0	1126170624	49	6881
2026-01-06 13:32:23.30	355.58	14.19	-40.3	-46.8	5.0	7.48e-01	0	57	0	1134559232	50	7903
2026-01-06 13:32:25.32	355.42	14.00	-40.5	-48.2	4.3	8.30e-01	0	57	0	1134559232	50	9322
2026-01-06 13:32:27.34	355.26	13.81	-40.6	-49.6	3.9	8.45e-01	0	57	104	1134559232	50	10983
2026-01-06 13:32:29.37	355.10	13.62	-40.7	-50.7	3.8	8.46e-01	0	57	104	1134559232	50	12498
2026-01-06 13:32:31.38	354.95	13.44	-40.7	-50.7	3.8	8.45e-01	0	57	104	1134559232	51	11690
2026-01-06 13:32:33.40	354.79	13.25	-40.9	-51.6	3.8	8.46e-01	0	57	104	1134559232	51	13065
2026-01-06 13:32:35.42	354.64	13.07	-40.9	-50.9	3.8	8.46e-01	0	57	104	1134559232	51	11973
2026-01-06 13:32:37.44	354.49	12.88	-40.6	-50.9	3.8	8.47e-01	0	57	104	1134559232	51	11958
2026-01-06 13:32:39.46	354.35	12.70	-40.5	-51.3	3.8	8.45e-01	0	57	104	1134559232	51	12616
2026-01-06 13:32:41.48	354.20	12.52	-40.5	-51.5	3.8	8.46e-01	0	57	104	1134559232	51	12952
2026-01-06 13:32:43.50	354.06	12.34	-40.6	-51.5	3.8	8.46e-01	0	57	104	1134559232	51	12926
2026-01-06 13:32:45.52	353.92	12.16	-40.4	-51.7	3.8	8.46e-01	0	57	104	1134559232	51	13193
2026-01-06 13:32:47.54	353.78	11.99	-40.3	-51.6	3.8	8.46e-01	0	57	104	1134559232	51	13024
2026-01-06 13:32:49.57	353.64	11.81	-40.5	-51.7	3.8	8.47e-01	0	57	104	1134559232	51	13179
2026-01-06 13:32:51.58	353.50	11.63	-40.2	-51.6	3.8	8.46e-01	0	57	104	1134559232	51	13105
2026-01-06 13:32:53.60	353.37	11.46	-40.3	-51.5	3.8	8.46e-01	0	57	104	1134559232	51	12882
2026-01-06 13:32:55.63	353.23	11.29	-40.3	-51.6	3.8	8.46e-01	0	57	104	1134559232	51	13007
2026-01-06 13:32:57.65	353.10	11.11	-40.4	-51.8	3.8	8.47e-01	0	57	104	1134559232	51	13398
2026-01-06 13:32:59.67	352.97	10.94	-40.2	-51.3	3.8	8.47e-01	0	57	104	1134559232	51	12632
2026-01-06 13:33:01.69	352.84	10.77	-40.3	-51.4	3.8	8.46e-01	0	57	104	1134559232	51	12693
2026-01-06 13:33:03.71	352.72	10.60	-40.2	-51.5	3.8	8.46e-01	0	57	104	1134559232	51	12859
2026-01-06 13:33:05.73	352.59	10.44	-40.7	-51.7	3.8	8.45e-01	0	57	104	1134559232	51	13244
2026-01-06 13:33:07.75	352.47	10.27	-40.7	-51.7	3.8	8.46e-01	0	57	104	1134559232	51	13168
2026-01-06 13:33:09.77	352.34	10.10	-40.7	-51.7	3.8	8.46e-01	0	57	104	1134559232	51	13257
2026-01-06 13:33:11.79	352.22	9.94	-40.7	-51.7	3.8	8.46e-01	0	57	104	1134559232	51	13193
2026-01-06 13:33:13.81	352.10	9.77	-40.6	-51.6	3.8	8.46e-01	0	57	104	1134559232	51	13070
2026-01-06 13:33:15.82	351.99	9.61	-40.6	-51.6	3.8	8.46e-01	0	57	104	1134559232	51	13093
2026-01-06 13:33:17.85	351.87	9.45	-40.8	-51.8	3.8	8.47e-01	0	57	104	1134559232	51	13277
2026-01-06 13:33:19.87	351.75	9.29	-40.8	-51.8	3.8	8.46e-01	0	57	104	1134559232	51	13289
2026-01-06 13:33:21.89	351.64	9.13	-40.8	-51.8	3.8	8.46e-01	0	57	104	1134559232	51	13303
2026-01-06 13:33:23.91	351.53	8.97	-40.9	-51.9	3.8	8.46e-01	0	57	104	1134559232	51	13521
2026-01-06 13:33:25.93	351.42	8.81	-41.0	-51.9	3.8	8.47e-01	0	57	104	1134559232	51	13484
2026-01-06 13:33:27.95	351.31	8.65	-41.0	-52.0	3.8	8.45e-01	0	57	104	1134559232	51	13620
2026-01-06 13:33:29.97	351.20	8.50	-41.1	-52.1	3.8	8.47e-01	0	57	104	1134559232	51	13751
2026-01-06 13:33:31.99	351.09	8.34	-41.1	-52.0	3.8	8.46e-01	0	57	104	1134559232	51	13684
2026-01-06 13:33:34.01	350.98	8.19	-41.2	-52.1	3.8	8.47e-01	0	57	104	1134559232	51	13761
2026-01-06 13:33:36.03	350.88	8.03	-41.1	-52.1	3.8	8.46e-01	0	57	104	1134559232	51	13735
2026-01-06 13:33:38.05	350.78	7.88	-40.8	-52.3	3.8	8.47e-01	0	57	104	1134559232	51	14126
2026-01-06 13:33:40.07	350.67	7.73	-45.0	-55.9	3.8	8.46e-01	0	57	104	1134559232	59	13480
2026-01-06 13:33:42.09	350.57	7.57	-45.4	-56.5	3.8	8.46e-01	0	57	104	1134559232	60	13622
2026-01-06 13:33:44.11	350.47	7.42	-45.5	-56.6	3.8	8.46e-01	0	57	104	1134559232	60	13860
2026-01-06 13:33:46.13	350.37	7.27	-45.5	-56.7	3.8	8.47e-01	0	57	104	1134559232	60	13887
2026-01-06 13:33:48.15	350.27	7.12	-45.5	-56.6	3.8	8.46e-01	0	57	104	1134559232	60	13867
2026-01-06 13:33:50.17	350.18	6.98	-45.5	-56.5	3.8	8.46e-01	0	57	104	1134559232	60	13723
2026-01-06 13:33:52.19	350.08	6.83	-45.4	-56.5	3.8	8.46e-01	0	57	104	1134559232	60	13657
2026-01-06 13:33:54.22	349.99	6.68	-45.4	-56.5	3.8	8.46e-01	0	57	104	1134559232	60	13608
2026-01-06 13:33:56.24	349.89	6.53	-45.4	-56.4	3.8	8.47e-01	0	57	104	1134559232	60	13553
2026-01-06 13:33:58.26	349.80	6.39	-45.4	-56.4	3.8	8.47e-01	0	57	104	1134559232	60	13529
2026-01-06 13:34:00.28	349.71	6.24	-45.3	-56.4	3.8	8.47e-01	0	57	104	1134559232	60	13511
2026-01-06 13:34:02.30	349.62	6.10	-45.3	-56.4	3.8	8.46e-01	0	57	104	1134559232	60	13434
2026-01-06 13:34:04.32	349.53	5.96	-45.3	-56.4	3.8	8.47e-01	0	57	104	1134559232	60	13459
2026-01-06 13:34:06.35	349.44	5.81	-45.3	-56.4	3.8	8.46e-01	0	57	104	1134559232	60	13456
2026-01-06 13:34:08.37	349.35	5.67	-45.3	-56.4	3.8	8.47e-01	0	57	104	1134559232	60	13468
2026-01-06 13:34:10.39	349.26	5.53	-45.3	-56.4	3.8	8.47e-01	0	57	104	1134559232	60	13466
2026-01-06 13:34:12.41	349.18	5.39	-45.3	-56.4	3.8	8.47e-01	0	57	104	1134559232	60	13477
2026-01-06 13:34:14.43	349.09	5.25	-45.3	-56.4	3.8	8.47e-01	0	57	104	1134559232	60	13426
2026-01-06 13:34:16.45	349.01	5.11	-45.3	-56.4	3.8	8.46e-01	0	57	104	1134559232	60	13498
2026-01-06 13:34:18.47	348.92	4.97	-45.3	-56.3	3.8	8.46e-01	0	57	104	1134559232	60	13380
2026-01-06 13:34:20.49	348.84	4.84	-45.3	-56.3	3.8	8.46e-01	0	57	104	1134559232	60	13404
2026-01-06 13:34:22.51	348.76	4.70	-45.3	-56.4	3.8	8.44e-01	0	57	104	1134559232	60	13418
2026-01-06 13:34:24.54	348.68	4.56	-45.3	-56.4	3.8	8.46e-01	0	57	104	1134559232	60	13474
2026-01-06 13:34:26.56	348.60	4.42	-45.3	-56.3	3.8	8.47e-01	0	57	104	1134559232	60	13405
2026-01-06 13:34:28.58	348.52	4.29	-45.3	-56.3	3.8	8.47e-01	0	57	104	1134559232	60	13393
2026-01-06 13:34:30.60	348.44	4.16	-45.3	-56.4	3.8	8.46e-01	0	57	104	1134559232	60	13429
2026-01-06 13:34:32.62	348.36	4.02	-45.3	-56.4	3.8	8.46e-01	0	57	104	1134559232	60	13452
2026-01-06 13:34:34.64	348.29	3.89	-45.3	-56.3	3.8	8.46e-01	0	57	104	1134559232	60	13403
2026-01-06 13:34:36.66	348.21	3.75	-45.3	-56.3	3.8	8.44e-01	0	57	104	1134559232	60	13352
2026-01-06 13:34:38.68	348.13	3.62	-45.3	-56.3	3.8	8.45e-01	0	57	104	1134559232	60	13407
2026-01-06 13:34:40.70	348.06	3.49	-45.3	-56.4	3.8	8.47e-01	0	57	104	1134559232	60	13429
2026-01-06 13:34:42.73	347.98	3.36	-45.3	-56.3	3.8	8.48e-01	0	57	104	1134559232	60	13369
2026-01-06 13:34:44.75	347.91	3.23	-45.3	-56.3	3.8	8.47e-01	0	57	104	1134559232	60	13352
2026-01-06 13:34:46.77	347.84	3.10	-45.3	-56.3	3.8	8.46e-01	0	57	104	1134559232	60	13348
2026-01-06 13:34:48.79	347.77	2.97	-45.3	-56.3	3.8	8.46e-01	0	57	104	1134559232	60	13365
2026-01-06 13:34:50.81	347.70	2.84	-45.3	-56.3	3.8	8.46e-01	0	57	104	1134559232	60	13357
2026-01-06 13:34:52.83	347.63	2.71	-45.3	-56.3	3.8	8.46e-01	0	57	104	1134559232	60	13363
2026-01-06 13:34:54.85	347.56	2.58	-45.3	-56.3	3.8	8.45e-01	0	57	104	1134559232	60	13382
2026-01-06 13:34:56.88	347.49	2.46	-45.3	-56.3	3.8	8.45e-01	0	57	104	1134559232	60	13359
2026-01-06 13:34:58.90	347.42	2.33	-45.3	-56.3	3.8	8.46e-01	0	57	104	1134559232	60	13337
2026-01-06 13:35:00.92	347.35	2.20	-45.3	-56.3	3.8	8.45e-01	0	57	104	1134559232	60	13309
2026-01-06 13:35:02.94	347.28	2.08	-45.3	-56.3	3.8	8.48e-01	0	57	104	1134559232	60	13352

#Closed at: 2026-01-06 13:35:04
#Recorded file [1134 MB]: D:/lorett/data/31039_260106_162857.dat