passes_logs/2026/01/06/R2.0S_Moscow/R2.0S_Moscow__20260106_000349_FENGYUN_3D_rec.log

#Pass ID: 20260106_000349_FENGYUN 3D
#Satellite: FENGYUN 3D
#Configuration: FENGYUN 3D
#almurnet v.1.7.20251203
#Start time: 2026-01-06 00:07:26

#Version: 2.2.20231116
#Station: R2.0S_Moscow
#Location: 37.707566 lon 55.798166 lat
#TLE: 1 43010U 17072A   26005.48915933 -.00000051  00000+0 -21983-5 0  9995
#TLE: 2 43010  98.9919 337.1582 0002001 124.6377 235.4988 14.19691925421909

#Time	Az	El	Level	Level2	SNR	BER	BlckErr	Temp	State	Recorded	gain1	gain2
2026-01-06 00:07:26.07	53.15	14.18	-46.0	-64.8	3.8	7.44e-01	0	56	0	0	63	31682
2026-01-06 00:07:29.09	53.68	14.34	-45.4	-57.2	3.8	8.46e-01	0	57	104	0	62	13978
2026-01-06 00:07:32.12	54.22	14.51	-45.3	-57.1	3.8	8.46e-01	0	57	104	0	62	13822
2026-01-06 00:07:35.16	54.77	14.67	-44.9	-56.6	3.8	8.47e-01	0	57	104	0	61	13760
2026-01-06 00:07:38.19	55.32	14.83	-44.4	-56.2	3.8	8.46e-01	0	57	104	0	60	13897
2026-01-06 00:07:41.23	55.87	14.99	-44.4	-56.1	3.8	8.45e-01	0	57	104	0	60	13867
2026-01-06 00:07:44.26	56.43	15.15	-44.4	-56.1	3.8	8.45e-01	0	57	104	0	60	13845
2026-01-06 00:07:47.29	57.00	15.31	-44.4	-55.9	3.8	8.48e-01	0	57	104	0	60	13435
2026-01-06 00:07:50.32	57.58	15.46	-44.4	-55.7	3.8	8.47e-01	0	57	104	0	60	13142
2026-01-06 00:07:53.36	58.16	15.62	-44.4	-56.1	3.8	8.46e-01	0	57	104	0	60	13869
2026-01-06 00:07:56.39	58.74	15.77	-44.3	-55.0	3.8	8.46e-01	0	57	104	0	60	12205
2026-01-06 00:07:59.42	59.33	15.92	-44.3	-54.9	3.8	8.45e-01	0	57	104	0	60	12045
2026-01-06 00:08:02.45	59.93	16.07	-44.4	-56.0	3.8	8.46e-01	0	57	104	0	60	13673
2026-01-06 00:08:05.49	60.53	16.21	-44.0	-52.7	4.2	8.42e-01	0	57	0	0	60	9334
2026-01-06 00:08:08.52	61.14	16.36	-42.9	-48.2	6.6	2.84e-01	0	57	0	6291456	57	6608
2026-01-06 00:08:11.55	61.76	16.50	-43.8	-51.3	4.6	7.38e-01	0	57	0	20971520	58	8912
2026-01-06 00:08:14.59	62.38	16.64	-41.1	-44.4	10.2	1.90e-02	0	57	0	26214400	54	5076
2026-01-06 00:08:17.62	63.00	16.78	-36.1	-37.7	16.8	0.00e+00	0	57	0	42991616	44	4177
2026-01-06 00:08:20.65	63.64	16.91	-34.9	-36.4	18.0	0.00e+00	0	57	0	60817408	41	4259
2026-01-06 00:08:23.68	64.27	17.04	-39.3	-41.7	13.0	0.00e+00	0	57	0	77594624	49	4979
2026-01-06 00:08:26.72	64.92	17.17	-34.7	-36.1	18.1	0.00e+00	0	57	0	94371840	41	4112
2026-01-06 00:08:29.75	65.56	17.30	-34.4	-35.9	18.2	0.00e+00	0	57	0	111149056	40	4243
2026-01-06 00:08:32.78	66.22	17.42	-34.5	-36.0	18.1	0.00e+00	0	57	0	128974848	40	4293
2026-01-06 00:08:35.81	66.87	17.54	-34.6	-36.0	17.9	0.00e+00	0	57	0	145752064	40	4323
2026-01-06 00:08:38.83	67.53	17.66	-34.5	-35.9	17.9	0.00e+00	0	57	0	162529280	40	4278
2026-01-06 00:08:41.86	68.20	17.77	-34.9	-36.5	17.1	0.00e+00	0	57	0	179306496	40	4557
2026-01-06 00:08:44.89	68.87	17.88	-35.2	-36.9	16.4	0.00e+00	0	57	0	197132288	41	4509
2026-01-06 00:08:47.92	69.55	17.99	-35.5	-37.3	15.7	0.00e+00	0	57	0	213909504	41	4733
2026-01-06 00:08:50.95	70.23	18.09	-35.8	-37.8	14.8	0.00e+00	0	57	0	230686720	42	4733
2026-01-06 00:08:53.99	70.92	18.19	-36.2	-38.4	13.9	0.00e+00	0	57	0	247463936	43	4775
2026-01-06 00:08:57.01	71.61	18.29	-36.4	-38.6	13.6	8.00e-06	0	57	0	265289728	43	4910
2026-01-06 00:09:00.04	72.31	18.38	-36.3	-38.5	13.8	1.10e-06	0	57	0	282066944	43	4841
2026-01-06 00:09:03.07	73.01	18.47	-36.3	-38.5	13.7	3.40e-06	0	57	0	298844160	43	4821
2026-01-06 00:09:06.10	73.71	18.56	-36.1	-38.2	14.0	1.10e-06	0	57	0	315621376	43	4702
2026-01-06 00:09:09.13	74.42	18.64	-36.1	-38.2	14.1	1.10e-06	0	57	0	333447168	43	4656
2026-01-06 00:09:12.17	75.13	18.72	-35.9	-38.0	14.3	1.10e-06	0	57	0	350224384	43	4575
2026-01-06 00:09:15.20	75.85	18.79	-35.9	-38.0	14.2	1.10e-06	0	57	0	367001600	43	4595
2026-01-06 00:09:18.23	76.57	18.86	-35.7	-37.6	14.8	0.00e+00	0	57	0	384827392	43	4374
2026-01-06 00:09:21.26	77.29	18.93	-35.7	-37.7	15.0	0.00e+00	0	57	0	401604608	43	4400
2026-01-06 00:09:24.29	78.01	18.99	-35.6	-37.6	15.1	1.10e-06	0	57	0	418381824	43	4344
2026-01-06 00:09:27.32	78.74	19.05	-35.8	-37.7	14.8	0.00e+00	0	57	0	435159040	43	4439
2026-01-06 00:09:30.35	79.47	19.10	-35.4	-37.3	15.1	0.00e+00	0	57	0	451936256	42	4467
2026-01-06 00:09:33.37	80.20	19.15	-35.2	-37.0	15.6	0.00e+00	0	57	0	469762048	42	4292
2026-01-06 00:09:36.40	80.93	19.19	-34.9	-36.6	16.4	0.00e+00	0	57	0	486539264	41	4366
2026-01-06 00:09:39.43	81.67	19.23	-34.7	-36.2	17.1	0.00e+00	0	57	0	503316480	41	4174
2026-01-06 00:09:42.46	82.41	19.26	-34.6	-36.1	17.3	0.00e+00	0	57	0	520093696	41	4137
2026-01-06 00:09:45.49	83.15	19.29	-34.7	-36.2	17.2	0.00e+00	0	57	0	537919488	41	4170
2026-01-06 00:09:48.52	83.89	19.32	-34.7	-36.3	17.0	0.00e+00	0	57	0	554696704	41	4213
2026-01-06 00:09:51.55	84.63	19.34	-35.1	-36.8	16.2	0.00e+00	0	57	0	571473920	41	4459
2026-01-06 00:09:54.58	85.37	19.35	-35.3	-37.0	15.9	0.00e+00	0	57	0	589299712	41	4560
2026-01-06 00:09:57.61	86.12	19.36	-35.5	-37.4	15.3	0.00e+00	0	57	0	606076928	41	4770
2026-01-06 00:10:00.63	86.86	19.37	-35.5	-37.3	15.3	0.00e+00	0	57	0	622854144	41	4737
2026-01-06 00:10:03.67	87.61	19.37	-35.3	-37.1	15.6	0.00e+00	0	57	0	639631360	41	4643
2026-01-06 00:10:06.70	88.35	19.37	-35.1	-36.8	16.1	0.00e+00	0	57	0	656408576	41	4458
2026-01-06 00:10:09.73	89.09	19.36	-34.9	-36.5	16.7	0.00e+00	0	57	0	674234368	41	4332
2026-01-06 00:10:12.76	89.84	19.35	-34.4	-35.9	17.6	0.00e+00	0	57	0	691011584	40	4276
2026-01-06 00:10:15.79	90.58	19.33	-34.3	-35.8	18.0	0.00e+00	0	57	0	707788800	40	4194
2026-01-06 00:10:18.82	91.32	19.31	-34.0	-35.4	18.6	0.00e+00	0	57	0	725614592	40	4023
2026-01-06 00:10:21.85	92.07	19.28	-34.3	-35.8	18.3	0.00e+00	0	57	0	742391808	40	4194
2026-01-06 00:10:24.88	92.81	19.25	-34.1	-35.5	18.6	0.00e+00	0	57	0	759169024	40	4068
2026-01-06 00:10:27.91	93.54	19.21	-34.4	-35.8	18.4	0.00e+00	0	57	0	775946240	40	4197
2026-01-06 00:10:30.95	94.28	19.17	-34.5	-35.9	18.3	0.00e+00	0	57	0	793772032	40	4291
2026-01-06 00:10:33.98	95.02	19.12	-34.5	-35.9	18.3	0.00e+00	0	57	0	810549248	40	4275
2026-01-06 00:10:37.00	95.75	19.08	-34.3	-35.7	18.5	0.00e+00	0	57	0	827326464	40	4165
2026-01-06 00:10:40.03	96.48	19.02	-34.2	-35.6	18.6	0.00e+00	0	57	0	844103680	40	4111
2026-01-06 00:10:43.06	97.20	18.96	-34.3	-35.7	18.5	0.00e+00	0	57	0	860880896	40	4160
2026-01-06 00:10:46.09	97.93	18.90	-34.2	-35.6	18.6	0.00e+00	0	57	0	878706688	40	4110
2026-01-06 00:10:49.12	98.65	18.83	-34.4	-35.8	18.5	0.00e+00	0	57	0	895483904	40	4215
2026-01-06 00:10:52.15	99.37	18.76	-34.7	-36.1	18.3	0.00e+00	0	57	0	912261120	40	4352
2026-01-06 00:10:55.18	100.08	18.68	-34.4	-35.8	18.5	0.00e+00	0	57	0	930086912	40	4234
2026-01-06 00:10:58.21	100.80	18.60	-34.3	-35.7	18.6	0.00e+00	0	57	0	946864128	40	4156
2026-01-06 00:11:01.23	101.50	18.52	-34.3	-35.7	18.6	0.00e+00	0	57	0	963641344	40	4152
2026-01-06 00:11:04.26	102.21	18.43	-34.4	-35.8	18.4	0.00e+00	0	57	0	980418560	40	4218
2026-01-06 00:11:07.29	102.91	18.34	-34.5	-35.9	18.4	0.00e+00	0	57	0	998244352	40	4253
2026-01-06 00:11:10.32	103.60	18.25	-34.4	-35.8	18.5	0.00e+00	0	57	0	1015021568	40	4204
2026-01-06 00:11:13.35	104.29	18.15	-34.6	-36.0	18.3	0.00e+00	0	57	0	1031798784	40	4322
2026-01-06 00:11:16.38	104.98	18.04	-34.9	-36.4	18.0	0.00e+00	0	57	0	1048576000	40	4516
2026-01-06 00:11:19.41	105.66	17.94	-35.0	-36.4	17.9	0.00e+00	0	57	0	1065353216	40	4531
2026-01-06 00:11:22.44	106.34	17.83	-34.8	-36.3	18.1	0.00e+00	0	57	0	1083179008	40	4452
2026-01-06 00:11:25.47	107.01	17.72	-34.8	-36.3	18.0	0.00e+00	0	57	0	1099956224	40	4474
2026-01-06 00:11:28.50	107.68	17.60	-34.6	-36.1	18.2	0.00e+00	0	57	0	1116733440	40	4342
2026-01-06 00:11:31.53	108.35	17.48	-34.7	-36.1	18.2	0.00e+00	0	57	0	1134559232	40	4376
2026-01-06 00:11:34.56	109.00	17.36	-34.8	-36.2	18.1	0.00e+00	0	57	0	1151336448	40	4429
2026-01-06 00:11:37.59	109.66	17.23	-34.7	-36.1	18.2	0.00e+00	0	57	0	1168113664	40	4373
2026-01-06 00:11:40.62	110.30	17.10	-34.7	-36.2	18.1	0.00e+00	0	57	0	1184890880	40	4402
2026-01-06 00:11:43.65	110.95	16.97	-34.9	-36.3	18.0	0.00e+00	0	57	0	1202716672	40	4486
2026-01-06 00:11:46.68	111.58	16.84	-34.7	-36.1	18.2	0.00e+00	0	57	0	1219493888	40	4364
2026-01-06 00:11:49.71	112.21	16.70	-34.6	-36.0	18.3	0.00e+00	0	57	0	1236271104	40	4338
2026-01-06 00:11:52.74	112.84	16.56	-34.7	-36.1	18.2	0.00e+00	0	57	0	1253048320	40	4379
2026-01-06 00:11:55.78	113.46	16.42	-35.0	-36.6	17.7	0.00e+00	0	57	0	1270874112	40	4599
2026-01-06 00:11:58.81	114.08	16.28	-35.2	-36.7	17.5	0.00e+00	0	57	0	1287651328	41	4428
2026-01-06 00:12:01.81	114.68	16.13	-35.0	-36.5	17.6	3.31e-05	0	57	0	1304428544	41	4319
2026-01-06 00:12:04.84	115.28	15.99	-35.0	-36.5	17.7	3.54e-05	0	57	0	1321205760	40	4568
2026-01-06 00:12:07.87	115.88	15.84	-34.9	-36.4	17.7	5.26e-05	0	57	0	1339031552	40	4541
2026-01-06 00:12:10.91	116.47	15.68	-34.9	-36.4	17.8	2.63e-05	0	57	0	1355808768	40	4522
2026-01-06 00:12:13.94	117.06	15.53	-34.9	-36.4	17.6	1.37e-05	0	57	0	1372585984	40	4544
2026-01-06 00:12:16.97	117.64	15.37	-35.2	-36.8	17.2	9.26e-05	0	57	0	1389363200	41	4473
2026-01-06 00:12:20.00	118.21	15.22	-35.3	-36.9	17.2	7.20e-05	0	57	0	1407188992	41	4509
2026-01-06 00:12:23.02	118.78	15.06	-35.3	-37.1	17.0	5.26e-05	0	57	0	1423966208	41	4616
2026-01-06 00:12:26.05	119.34	14.90	-35.6	-37.3	16.7	3.94e-04	0	57	0	1440743424	41	4740
2026-01-06 00:12:29.08	119.89	14.73	-35.5	-37.2	16.6	1.41e-03	0	57	0	1457520640	41	4703
2026-01-06 00:12:32.11	120.44	14.57	-35.3	-37.0	16.7	1.50e-03	0	57	0	1474297856	41	4577
2026-01-06 00:12:35.14	120.99	14.41	-35.1	-37.0	16.9	2.28e-04	0	57	0	1492123648	41	4563
2026-01-06 00:12:38.17	121.53	14.24	-35.3	-37.0	16.9	5.21e-04	0	57	0	1508900864	41	4592
2026-01-06 00:12:41.20	122.06	14.07	-35.1	-36.8	16.7	5.53e-03	0	57	0	1525678080	40	4725
2026-01-06 00:12:44.23	122.58	13.91	-33.6	-36.8	14.7	1.80e-03	0	57	0	1543503872	39	5030
2026-01-06 00:12:47.26	123.11	13.74	-35.1	-37.0	16.6	2.79e-04	0	57	0	1560281088	41	4548
2026-01-06 00:12:50.28	123.62	13.57	-35.6	-37.3	16.7	7.41e-04	0	57	0	1577058304	41	4723
2026-01-06 00:12:53.32	124.13	13.39	-35.7	-37.5	16.5	5.98e-03	0	57	0	1593835520	42	4559
2026-01-06 00:12:56.34	124.63	13.22	-35.6	-37.4	16.3	1.52e-04	0	57	0	1610612736	41	4767
2026-01-06 00:12:59.38	125.13	13.05	-35.5	-37.5	15.8	1.00e-03	0	57	0	1628438528	41	4865
2026-01-06 00:13:02.41	125.62	12.88	-35.3	-37.6	15.2	6.20e-02	0	57	0	1645215744	42	4606
2026-01-06 00:13:05.43	126.11	12.70	-35.0	-37.4	13.9	3.32e-02	0	57	0	1661992960	40	5081
2026-01-06 00:13:08.46	126.59	12.53	-34.2	-37.4	13.3	9.86e-02	0	57	0	1677721600	39	5386
2026-01-06 00:13:11.49	127.07	12.35	-32.5	-36.7	10.5	1.81e-01	0	57	0	1693450240	33	6987
2026-01-06 00:13:14.52	127.54	12.18	-28.6	-36.0	8.9	2.92e-01	0	57	0	1707081728	27	9161
2026-01-06 00:13:17.55	128.00	12.00	-26.4	-35.2	6.0	4.89e-01	0	57	0	1717567488	23	10514
2026-01-06 00:13:20.59	128.46	11.82	-26.0	-35.5	7.5	5.46e-01	0	57	0	1723858944	27	8631
2026-01-06 00:13:23.61	128.92	11.65	-26.4	-35.9	7.9	5.29e-01	0	57	0	1730150400	23	11302
2026-01-06 00:13:26.65	129.37	11.47	-24.6	-35.2	6.8	6.09e-01	0	57	0	1733296128	22	11030
2026-01-06 00:13:29.68	129.81	11.29	-23.3	-33.8	5.7	6.28e-01	0	57	0	1733296128	20	10639
2026-01-06 00:13:32.71	130.25	11.11	-25.6	-35.7	5.2	8.00e-01	0	57	104	1733296128	27	8835
2026-01-06 00:13:35.73	130.68	10.94	-23.8	-34.9	5.1	8.08e-01	0	57	104	1733296128	24	9514
2026-01-06 00:13:38.76	131.11	10.76	-24.5	-33.9	5.2	8.05e-01	0	57	104	1733296128	21	10078
2026-01-06 00:13:41.79	131.53	10.58	-25.5	-34.9	4.9	8.10e-01	0	57	104	1733296128	18	13449
2026-01-06 00:13:44.82	131.95	10.40	-26.2	-37.7	4.0	8.16e-01	0	57	104	1733296128	22	14733
2026-01-06 00:13:47.85	132.36	10.22	-25.0	-37.0	3.7	8.14e-01	0	57	104	1733296128	21	14447
2026-01-06 00:13:50.88	132.77	10.05	-25.9	-41.0	3.8	7.92e-01	0	57	104	1733296128	21	23009
2026-01-06 00:13:53.91	133.18	9.87	-24.5	-37.7	3.6	7.84e-01	0	57	104	1733296128	22	14739
2026-01-06 00:13:56.95	133.58	9.69	-24.9	-37.4	3.7	7.86e-01	0	57	104	1733296128	22	14304
2026-01-06 00:13:59.97	133.97	9.51	-29.3	-44.8	3.8	7.93e-01	0	57	104	1733296128	26	26536
2026-01-06 00:14:03.00	134.36	9.33	-31.8	-44.1	3.7	7.99e-01	0	57	104	1733296128	25	26036
2026-01-06 00:14:06.03	134.74	9.16	-31.0	-46.2	4.4	8.17e-01	0	57	104	1733296128	30	24725
2026-01-06 00:14:09.06	135.13	8.98	-30.2	-45.5	4.4	8.09e-01	0	57	104	1733296128	35	17136
2026-01-06 00:14:12.09	135.50	8.80	-30.6	-42.6	4.2	8.32e-01	0	57	104	1733296128	34	13029
2026-01-06 00:14:15.13	135.87	8.62	-37.4	-50.2	4.2	8.37e-01	0	57	104	1733296128	43	18537
2026-01-06 00:14:18.16	136.24	8.45	-35.6	-48.3	4.0	8.42e-01	0	57	104	1733296128	42	15818
2026-01-06 00:14:21.19	136.61	8.27	-41.8	-53.5	3.9	8.44e-01	0	57	104	1733296128	49	19214
2026-01-06 00:14:24.22	136.96	8.09	-41.7	-53.4	3.8	8.46e-01	0	57	104	1733296128	54	14303
2026-01-06 00:14:27.25	137.32	7.92	-44.4	-55.9	3.8	8.43e-01	0	57	104	1733296128	59	14343
2026-01-06 00:14:30.29	137.67	7.74	-45.1	-56.9	3.8	8.47e-01	0	57	104	1733296128	60	15063
2026-01-06 00:14:33.32	138.02	7.56	-45.3	-57.1	3.8	8.46e-01	0	57	104	1733296128	61	14576
2026-01-06 00:14:36.35	138.36	7.39	-45.2	-57.1	3.8	8.45e-01	0	57	104	1733296128	61	14584
2026-01-06 00:14:39.39	138.70	7.21	-45.1	-56.9	3.8	8.46e-01	0	57	104	1733296128	61	14370
2026-01-06 00:14:42.42	139.03	7.04	-45.0	-56.9	3.8	8.46e-01	0	57	104	1733296128	61	14290
2026-01-06 00:14:45.45	139.37	6.86	-45.0	-56.9	3.8	8.46e-01	0	57	104	1733296128	61	14263
2026-01-06 00:14:48.48	139.69	6.69	-45.0	-56.9	3.8	8.47e-01	0	57	104	1733296128	61	14300
2026-01-06 00:14:51.52	140.02	6.52	-45.0	-56.9	3.8	8.45e-01	0	57	104	1733296128	61	14231
2026-01-06 00:14:54.55	140.34	6.34	-45.0	-56.9	3.8	8.45e-01	0	57	104	1733296128	61	14216
2026-01-06 00:14:57.58	140.65	6.17	-45.0	-56.9	3.8	8.46e-01	0	57	104	1733296128	61	14247
2026-01-06 00:15:00.62	140.97	6.00	-45.0	-56.9	3.8	8.47e-01	0	57	104	1733296128	61	14257
2026-01-06 00:15:03.65	141.27	5.83	-45.0	-56.9	3.8	8.48e-01	0	57	104	1733296128	61	14227
2026-01-06 00:15:06.68	141.58	5.66	-45.0	-56.8	3.8	8.46e-01	0	57	104	1733296128	61	14182
2026-01-06 00:15:09.71	141.88	5.48	-45.0	-56.9	3.8	8.44e-01	0	57	104	1733296128	61	14232
2026-01-06 00:15:12.75	142.18	5.31	-45.0	-56.9	3.8	8.46e-01	0	57	104	1733296128	61	14215
2026-01-06 00:15:15.78	142.48	5.14	-45.0	-56.8	3.8	8.46e-01	0	57	104	1733296128	61	14188
2026-01-06 00:15:18.82	142.77	4.97	-45.0	-56.9	3.8	8.47e-01	0	57	104	1733296128	61	14220
2026-01-06 00:15:21.85	143.06	4.81	-45.0	-56.8	3.8	8.46e-01	0	57	104	1733296128	61	14207
2026-01-06 00:15:24.88	143.34	4.64	-45.0	-56.9	3.8	8.45e-01	0	57	104	1733296128	61	14220
2026-01-06 00:15:27.91	143.63	4.47	-45.0	-56.9	3.8	8.46e-01	0	57	104	1733296128	61	14263
2026-01-06 00:15:30.94	143.90	4.30	-45.0	-56.9	3.8	8.47e-01	0	57	104	1733296128	61	14229
2026-01-06 00:15:33.98	144.18	4.13	-45.0	-56.8	3.8	8.47e-01	0	57	104	1733296128	61	14172
2026-01-06 00:15:37.01	144.46	3.97	-45.0	-56.8	3.8	8.46e-01	0	57	104	1733296128	61	14201
2026-01-06 00:15:40.05	144.73	3.80	-45.0	-56.8	3.8	8.46e-01	0	57	104	1733296128	61	14176
2026-01-06 00:15:43.08	144.99	3.64	-45.0	-56.8	3.8	8.46e-01	0	57	104	1733296128	61	14183
2026-01-06 00:15:46.11	145.26	3.47	-45.0	-56.8	3.8	8.47e-01	0	57	104	1733296128	61	14173
2026-01-06 00:15:49.14	145.52	3.31	-45.0	-56.8	3.8	8.45e-01	0	57	104	1733296128	61	14191
2026-01-06 00:15:52.17	145.78	3.14	-45.0	-56.8	3.8	8.47e-01	0	57	104	1733296128	61	14163
2026-01-06 00:15:55.21	146.03	2.98	-45.0	-56.8	3.8	8.45e-01	0	57	104	1733296128	61	14142
2026-01-06 00:15:58.24	146.29	2.82	-45.0	-56.8	3.8	8.46e-01	0	57	104	1733296128	61	14169
2026-01-06 00:16:01.27	146.54	2.65	-45.0	-56.8	3.8	8.46e-01	0	57	104	1733296128	61	14139
2026-01-06 00:16:04.31	146.79	2.49	-45.0	-56.8	3.8	8.46e-01	0	58	104	1733296128	61	14182
2026-01-06 00:16:07.34	147.03	2.33	-45.0	-56.8	3.8	8.46e-01	0	57	104	1733296128	61	14144
2026-01-06 00:16:10.37	147.28	2.17	-45.0	-56.8	3.8	8.46e-01	0	57	104	1733296128	61	14153
2026-01-06 00:16:13.41	147.52	2.01	-45.0	-56.8	3.8	8.47e-01	0	57	104	1733296128	61	14178

#Closed at: 2026-01-06 00:16:15
#Recorded file [1733 MB]: D:/lorett/data/31039_260106_030725.dat