passes_logs/2026/01/06/R2.0S_Moscow/R2.0S_Moscow__20260106_100406_NOAA_21_JPSS-2_rec.log

#Pass ID: 20260106_100406_NOAA 21 (JPSS-2)
#Satellite: NOAA 21 (JPSS-2)
#Configuration: NOAA-21
#almurnet v.1.7.20251203
#Start time: 2026-01-06 10:08:13

#Version: 2.2.20231116
#Station: R2.0S_Moscow
#Location: 37.707566 lon 55.798166 lat
#TLE: 1 54234U 22150A   26005.21525222  .00000150  00000+0  91957-4 0  9992
#TLE: 2 54234  98.7490 306.2339 0001053 341.6032  18.5106 14.19532220163427

#Time	Az	El	Level	Level2	SNR	BER	BlckErr	Temp	State	Recorded	gain1	gain2
2026-01-06 10:08:13.76	169.27	26.83	-45.0	-56.9	3.8	8.45e-01	0	56	0	0	61	14287
2026-01-06 10:08:16.78	169.38	27.35	-45.3	-57.9	3.8	1.49e+00	0	56	104	0	62	15082
2026-01-06 10:08:19.81	169.49	27.88	-45.2	-57.7	3.8	1.49e+00	0	56	104	0	62	14721
2026-01-06 10:08:22.85	169.61	28.43	-45.1	-57.6	3.8	1.49e+00	0	56	104	0	62	14546
2026-01-06 10:08:25.88	169.73	28.98	-45.1	-57.6	3.8	1.49e+00	0	56	104	0	62	14573
2026-01-06 10:08:28.91	169.86	29.54	-45.1	-57.6	3.8	1.49e+00	0	56	104	0	62	14659
2026-01-06 10:08:31.94	169.99	30.11	-45.2	-57.7	3.8	1.49e+00	0	56	104	0	62	14784
2026-01-06 10:08:34.98	170.12	30.70	-45.1	-57.6	3.8	1.49e+00	0	56	104	0	62	14629
2026-01-06 10:08:38.01	170.26	31.30	-45.1	-57.6	3.8	1.49e+00	0	56	104	0	62	14676
2026-01-06 10:08:41.04	170.40	31.91	-45.1	-57.5	3.8	1.49e+00	0	56	104	0	62	14527
2026-01-06 10:08:44.07	170.55	32.53	-45.1	-57.4	3.8	1.49e+00	0	56	104	0	62	14290
2026-01-06 10:08:47.11	170.71	33.17	-45.1	-57.6	3.8	1.49e+00	0	56	104	0	62	14616
2026-01-06 10:08:50.14	170.87	33.82	-45.1	-57.7	3.8	1.49e+00	0	56	104	0	62	14717
2026-01-06 10:08:53.17	171.03	34.48	-45.1	-57.4	3.8	1.49e+00	0	56	104	0	62	14319
2026-01-06 10:08:56.20	171.21	35.16	-45.1	-57.6	3.8	1.49e+00	0	56	104	0	62	14701
2026-01-06 10:08:59.24	171.39	35.85	-45.1	-57.3	3.8	1.49e+00	0	56	104	0	62	14066
2026-01-06 10:09:02.27	171.57	36.56	-44.8	-54.1	4.2	1.49e+00	0	57	104	0	61	10409
2026-01-06 10:09:05.30	171.77	37.28	-42.0	-45.3	11.0	3.37e-03	0	56	0	7340032	56	5007
2026-01-06 10:09:08.33	171.97	38.01	-39.8	-41.9	14.5	7.00e-07	0	56	0	16777216	50	4770
2026-01-06 10:09:11.36	172.18	38.77	-40.6	-43.1	13.1	5.26e-05	0	57	0	26214400	52	4913
2026-01-06 10:09:14.40	172.41	39.54	-39.3	-41.3	15.0	7.00e-07	0	56	0	35651584	50	4473
2026-01-06 10:09:17.42	172.64	40.32	-39.2	-41.1	15.2	0.00e+00	0	56	0	45088768	50	4356
2026-01-06 10:09:20.46	172.88	41.13	-39.3	-41.3	15.0	7.00e-07	0	56	0	54525952	50	4456
2026-01-06 10:09:23.49	173.14	41.95	-39.5	-41.5	14.8	7.00e-07	0	56	0	63963136	50	4590
2026-01-06 10:09:26.52	173.41	42.79	-40.3	-42.6	13.7	6.10e-06	0	56	0	73400320	51	4883
2026-01-06 10:09:29.55	173.69	43.65	-40.5	-42.9	13.4	1.44e-05	0	56	0	82837504	51	5083
2026-01-06 10:09:32.58	173.99	44.52	-40.6	-43.1	13.1	2.44e-05	0	56	0	92274688	51	5192
2026-01-06 10:09:35.60	174.30	45.42	-40.8	-43.4	12.8	5.11e-05	0	56	0	101711872	52	5090
2026-01-06 10:09:38.63	174.63	46.33	-40.4	-42.8	13.4	1.44e-05	0	56	0	111149056	52	4710
2026-01-06 10:09:41.66	174.98	47.27	-40.0	-42.3	13.9	3.00e-06	0	56	0	120586240	52	4476
2026-01-06 10:09:44.69	175.35	48.22	-39.5	-41.6	14.7	7.00e-07	0	56	0	130023424	51	4366
2026-01-06 10:09:47.72	175.75	49.20	-39.4	-41.4	14.9	0.00e+00	0	56	0	139460608	50	4524
2026-01-06 10:09:50.75	176.17	50.19	-38.9	-40.7	15.6	0.00e+00	0	56	0	148897792	49	4405
2026-01-06 10:09:53.79	176.62	51.21	-38.7	-40.4	15.8	0.00e+00	0	56	0	158334976	49	4282
2026-01-06 10:09:56.82	177.10	52.25	-39.0	-40.9	15.4	0.00e+00	0	56	0	167772160	49	4532
2026-01-06 10:09:59.85	177.62	53.30	-38.6	-40.3	16.0	0.00e+00	0	57	0	177209344	49	4226
2026-01-06 10:10:02.88	178.17	54.38	-38.6	-40.3	16.0	0.00e+00	0	56	0	186646528	49	4232
2026-01-06 10:10:05.91	178.77	55.47	-37.7	-39.3	16.9	0.00e+00	0	56	0	197132288	47	4204
2026-01-06 10:10:08.95	179.41	56.59	-37.9	-39.5	16.6	0.00e+00	0	56	0	205520896	47	4335
2026-01-06 10:10:11.97	180.11	57.72	-37.8	-39.5	16.7	0.00e+00	0	56	0	216006656	47	4303
2026-01-06 10:10:15.00	180.87	58.88	-37.5	-39.1	17.1	0.00e+00	0	56	0	225443840	47	4111
2026-01-06 10:10:18.03	181.69	60.05	-36.9	-38.3	17.8	0.00e+00	0	56	0	234881024	45	4241
2026-01-06 10:10:21.06	182.60	61.23	-36.6	-38.0	18.1	0.00e+00	0	56	0	244318208	45	4088
2026-01-06 10:10:24.09	183.59	62.43	-36.6	-37.9	18.1	0.00e+00	0	56	0	253755392	44	4274
2026-01-06 10:10:27.12	184.69	63.65	-36.3	-37.6	18.5	0.00e+00	0	56	0	263192576	44	4117
2026-01-06 10:10:30.15	185.91	64.87	-35.6	-36.8	19.0	0.00e+00	0	56	0	272629760	43	3984
2026-01-06 10:10:33.18	187.27	66.11	-36.2	-37.5	18.4	0.00e+00	0	56	0	282066944	43	4340
2026-01-06 10:10:36.22	188.79	67.35	-35.9	-37.2	18.7	0.00e+00	0	56	0	291504128	43	4191
2026-01-06 10:10:39.25	190.50	68.59	-35.9	-37.2	18.7	0.00e+00	0	56	0	300941312	43	4152
2026-01-06 10:10:42.28	192.44	69.83	-35.9	-37.2	18.6	0.00e+00	0	56	0	310378496	43	4187
2026-01-06 10:10:45.31	194.65	71.06	-35.8	-37.1	18.7	0.00e+00	0	56	0	319815680	43	4140
2026-01-06 10:10:48.34	197.18	72.28	-36.4	-37.9	18.0	0.00e+00	0	57	0	329252864	43	4500
2026-01-06 10:10:51.37	200.10	73.47	-35.8	-37.1	18.7	0.00e+00	0	56	0	338690048	43	4104
2026-01-06 10:10:54.41	203.50	74.63	-35.9	-37.2	18.7	0.00e+00	0	56	0	348127232	43	4172
2026-01-06 10:10:57.44	207.45	75.73	-35.9	-37.2	18.6	0.00e+00	0	56	0	357564416	43	4154
2026-01-06 10:11:00.47	212.06	76.77	-36.1	-37.5	18.3	0.00e+00	0	56	0	367001600	43	4305
2026-01-06 10:11:03.50	217.44	77.72	-35.4	-36.7	19.1	0.00e+00	0	56	0	376438784	42	4155
2026-01-06 10:11:06.53	223.68	78.55	-35.5	-36.7	19.0	0.00e+00	0	56	0	385875968	42	4185
2026-01-06 10:11:09.56	230.82	79.23	-36.3	-37.7	18.2	0.00e+00	0	56	0	395313152	43	4398
2026-01-06 10:11:12.59	238.79	79.72	-36.1	-37.4	18.4	0.00e+00	0	56	0	404750336	43	4287
2026-01-06 10:11:15.62	247.40	80.01	-35.9	-37.2	18.7	0.00e+00	0	56	0	414187520	43	4169
2026-01-06 10:11:18.65	256.32	80.07	-36.1	-37.5	18.4	0.00e+00	0	56	0	423624704	43	4314
2026-01-06 10:11:21.68	265.13	79.89	-36.0	-37.3	18.5	0.00e+00	0	56	0	433061888	43	4226
2026-01-06 10:11:24.72	273.46	79.48	-35.4	-36.6	19.1	0.00e+00	0	57	0	442499072	42	4144
2026-01-06 10:11:27.75	280.99	78.88	-36.0	-37.4	18.5	0.00e+00	0	56	0	451936256	42	4514
2026-01-06 10:11:30.78	287.64	78.12	-36.4	-37.7	18.1	0.00e+00	0	56	0	461373440	43	4440
2026-01-06 10:11:33.82	293.43	77.22	-35.6	-36.8	18.9	0.00e+00	0	56	0	470810624	43	3990
2026-01-06 10:11:36.85	298.37	76.22	-35.6	-36.8	18.9	0.00e+00	0	56	0	480247808	42	4234
2026-01-06 10:11:39.87	302.60	75.15	-36.2	-37.6	18.3	0.00e+00	0	56	0	490733568	43	4360
2026-01-06 10:11:42.91	306.25	74.02	-35.7	-37.0	18.9	0.00e+00	0	56	0	499122176	43	4052
2026-01-06 10:11:45.94	309.37	72.85	-35.6	-36.9	18.9	0.00e+00	0	56	0	509607936	42	4263
2026-01-06 10:11:48.97	312.07	71.64	-35.9	-37.2	18.7	0.00e+00	0	56	0	519045120	43	4148
2026-01-06 10:11:52.00	314.43	70.42	-34.9	-36.0	19.7	0.00e+00	0	56	0	528482304	41	4098
2026-01-06 10:11:55.02	316.48	69.19	-36.2	-37.6	18.3	0.00e+00	0	56	0	537919488	43	4368
2026-01-06 10:11:58.05	318.29	67.96	-35.9	-37.2	18.7	0.00e+00	0	56	0	547356672	43	4151
2026-01-06 10:12:01.06	319.88	66.73	-35.8	-37.1	18.8	0.00e+00	0	56	0	556793856	42	4377
2026-01-06 10:12:04.09	321.32	65.49	-36.2	-37.6	18.3	0.00e+00	0	56	0	566231040	43	4346
2026-01-06 10:12:07.12	322.60	64.27	-35.3	-36.5	19.3	0.00e+00	0	56	0	575668224	42	4088
2026-01-06 10:12:10.16	323.75	63.05	-37.4	-38.9	17.0	0.00e+00	0	56	0	585105408	45	4538
2026-01-06 10:12:13.19	324.80	61.84	-36.4	-37.7	18.4	0.00e+00	0	56	0	594542592	44	4183
2026-01-06 10:12:16.22	325.74	60.65	-36.7	-38.1	18.0	0.00e+00	0	56	0	603979776	44	4353
2026-01-06 10:12:19.25	326.60	59.48	-37.8	-39.4	16.7	0.00e+00	0	56	0	613416960	46	4512
2026-01-06 10:12:22.28	327.39	58.32	-36.0	-37.2	18.9	0.00e+00	0	57	0	622854144	44	3944
2026-01-06 10:12:25.31	328.12	57.18	-38.0	-39.6	16.7	0.00e+00	0	56	0	632291328	46	4633
2026-01-06 10:12:28.34	328.79	56.06	-39.4	-41.4	14.9	0.00e+00	0	56	0	641728512	49	4795
2026-01-06 10:12:31.37	329.41	54.96	-37.5	-39.0	17.1	0.00e+00	0	56	0	651165696	47	4078
2026-01-06 10:12:34.40	329.98	53.88	-38.1	-39.7	16.4	0.00e+00	0	56	0	660602880	46	4683
2026-01-06 10:12:37.43	330.51	52.82	-38.8	-40.6	15.7	0.00e+00	0	56	0	670040064	48	4635
2026-01-06 10:12:40.46	331.01	51.77	-39.6	-41.7	14.7	0.00e+00	0	56	0	679477248	49	4937
2026-01-06 10:12:43.49	331.48	50.75	-38.3	-39.9	16.4	0.00e+00	0	56	0	688914432	48	4272
2026-01-06 10:12:46.52	331.91	49.75	-38.7	-40.5	15.6	0.00e+00	0	56	0	698351616	48	4563
2026-01-06 10:12:49.56	332.32	48.77	-39.4	-41.3	14.9	0.00e+00	0	56	0	707788800	49	4748
2026-01-06 10:12:52.58	332.70	47.81	-39.0	-40.9	15.4	0.00e+00	0	56	0	717225984	49	4497
2026-01-06 10:12:55.61	333.06	46.87	-39.8	-41.9	14.5	7.00e-07	0	56	0	726663168	50	4782
2026-01-06 10:12:58.64	333.41	45.95	-39.3	-41.2	15.1	0.00e+00	0	56	0	736100352	50	4426
2026-01-06 10:13:01.67	333.73	45.05	-40.1	-42.3	14.0	2.20e-06	0	56	0	745537536	50	5015
2026-01-06 10:13:04.70	334.04	44.17	-40.4	-42.8	13.2	2.05e-05	0	56	0	754974720	51	5032
2026-01-06 10:13:07.73	334.33	43.30	-39.8	-41.9	14.3	7.00e-07	0	56	0	764411904	51	4535
2026-01-06 10:13:10.76	334.60	42.46	-39.2	-41.1	15.1	0.00e+00	0	56	0	773849088	50	4389
2026-01-06 10:13:13.79	334.86	41.63	-39.5	-41.5	14.8	7.00e-07	0	56	0	783286272	50	4591
2026-01-06 10:13:16.82	335.11	40.82	-39.2	-41.0	15.3	0.00e+00	0	56	0	792723456	50	4338
2026-01-06 10:13:19.85	335.35	40.03	-40.0	-42.2	14.1	7.00e-07	0	56	0	802160640	50	4939
2026-01-06 10:13:22.89	335.58	39.26	-40.4	-42.8	13.4	1.29e-05	0	57	0	811597824	51	5023
2026-01-06 10:13:25.92	335.80	38.50	-39.8	-42.0	14.2	3.00e-06	0	56	0	822083584	51	4574
2026-01-06 10:13:28.95	336.01	37.76	-39.0	-40.9	15.4	0.00e+00	0	56	0	831520768	50	4251
2026-01-06 10:13:31.98	336.21	37.03	-38.1	-39.8	16.4	0.00e+00	0	56	0	840957952	48	4206
2026-01-06 10:13:35.01	336.40	36.32	-38.4	-40.1	16.1	0.00e+00	0	56	0	850395136	48	4378
2026-01-06 10:13:38.04	336.59	35.62	-38.1	-39.7	16.5	0.00e+00	0	56	0	859832320	48	4176
2026-01-06 10:13:41.07	336.76	34.94	-38.2	-39.9	16.3	0.00e+00	0	56	0	869269504	48	4243
2026-01-06 10:13:44.10	336.93	34.28	-38.4	-40.1	16.1	0.00e+00	0	56	0	878706688	48	4351
2026-01-06 10:13:47.13	337.10	33.63	-38.4	-40.1	16.0	0.00e+00	0	56	0	888143872	48	4385
2026-01-06 10:13:50.16	337.26	32.99	-38.2	-39.9	16.3	0.00e+00	0	56	0	897581056	48	4283
2026-01-06 10:13:53.19	337.41	32.36	-37.7	-39.2	16.8	0.00e+00	0	56	0	907018240	47	4190
2026-01-06 10:13:56.22	337.56	31.75	-37.5	-39.0	17.0	0.00e+00	0	56	0	916455424	46	4326
2026-01-06 10:13:59.25	337.70	31.15	-37.2	-38.7	17.2	0.00e+00	0	56	0	925892608	46	4183
2026-01-06 10:14:02.28	337.84	30.56	-37.0	-38.4	17.5	0.00e+00	0	56	0	935329792	46	4044
2026-01-06 10:14:05.31	337.97	29.98	-37.2	-38.6	17.4	0.00e+00	0	56	0	944766976	46	4139
2026-01-06 10:14:08.34	338.10	29.41	-37.3	-38.8	17.2	0.00e+00	0	56	0	954204160	46	4207
2026-01-06 10:14:11.37	338.22	28.86	-37.4	-38.9	17.0	0.00e+00	0	56	0	963641344	46	4275
2026-01-06 10:14:14.40	338.34	28.31	-37.7	-39.3	16.6	0.00e+00	0	56	0	973078528	46	4485
2026-01-06 10:14:17.42	338.46	27.78	-37.7	-39.4	16.6	0.00e+00	0	56	0	982515712	46	4508
2026-01-06 10:14:20.46	338.58	27.26	-37.6	-39.3	16.6	0.00e+00	0	57	0	991952896	46	4444
2026-01-06 10:14:23.49	338.69	26.74	-37.4	-39.0	16.9	0.00e+00	0	56	0	1001390080	46	4325
2026-01-06 10:14:26.52	338.79	26.24	-37.3	-38.9	17.0	0.00e+00	0	56	0	1010827264	46	4257
2026-01-06 10:14:29.55	338.90	25.74	-37.2	-38.8	17.1	0.00e+00	0	56	0	1020264448	46	4210
2026-01-06 10:14:32.58	339.00	25.26	-37.2	-38.7	17.1	0.00e+00	0	56	0	1029701632	46	4188
2026-01-06 10:14:35.61	339.10	24.78	-37.3	-38.9	16.9	0.00e+00	0	56	0	1039138816	46	4265
2026-01-06 10:14:38.64	339.20	24.31	-37.3	-38.9	16.9	0.00e+00	0	56	0	1048576000	46	4263
2026-01-06 10:14:41.67	339.29	23.85	-37.2	-38.8	16.9	0.00e+00	0	56	0	1058013184	46	4224
2026-01-06 10:14:44.71	339.38	23.40	-37.1	-38.7	17.0	0.00e+00	0	56	0	1067450368	46	4161
2026-01-06 10:14:47.74	339.47	22.95	-37.1	-38.6	16.9	0.00e+00	0	56	0	1076887552	46	4130
2026-01-06 10:14:50.78	339.56	22.51	-37.0	-38.6	16.8	0.00e+00	0	56	0	1086324736	45	4363
2026-01-06 10:14:53.81	339.65	22.08	-36.8	-38.4	16.8	0.00e+00	0	56	0	1095761920	45	4257
2026-01-06 10:14:56.84	339.73	21.66	-36.8	-38.5	16.4	0.00e+00	0	56	0	1105199104	45	4317
2026-01-06 10:14:59.87	339.81	21.24	-36.6	-38.2	16.6	0.00e+00	0	56	0	1115684864	45	4171
2026-01-06 10:15:02.90	339.89	20.83	-36.9	-38.7	15.8	0.00e+00	0	56	0	1125122048	44	4662
2026-01-06 10:15:05.93	339.97	20.43	-38.5	-41.2	12.6	6.02e-05	0	56	0	1134559232	47	5256
2026-01-06 10:15:08.96	340.05	20.04	-39.9	-44.4	8.4	3.06e-02	0	56	0	1143996416	50	6407
2026-01-06 10:15:11.99	340.12	19.65	-40.3	-46.9	5.7	3.75e-01	0	56	0	1153433600	51	8068
2026-01-06 10:15:15.02	340.19	19.26	-40.7	-50.4	3.9	1.46e+00	0	57	104	1157627904	51	11963
2026-01-06 10:15:18.05	340.26	18.88	-41.2	-53.0	3.8	1.49e+00	0	56	104	1157627904	52	15318
2026-01-06 10:15:21.07	340.33	18.51	-40.3	-52.9	3.8	1.49e+00	0	56	104	1157627904	52	15177
2026-01-06 10:15:24.10	340.40	18.14	-41.0	-52.6	3.8	1.49e+00	0	57	104	1157627904	52	14695
2026-01-06 10:15:27.13	340.47	17.78	-40.4	-52.9	3.8	1.49e+00	0	57	104	1157627904	52	15109
2026-01-06 10:15:30.15	340.54	17.43	-40.7	-52.3	3.8	1.49e+00	0	56	104	1157627904	52	14154
2026-01-06 10:15:33.18	340.60	17.08	-40.5	-52.9	3.8	1.49e+00	0	56	104	1157627904	52	15095
2026-01-06 10:15:36.21	340.67	16.73	-40.4	-52.8	3.8	1.49e+00	0	57	104	1157627904	52	14977
2026-01-06 10:15:39.24	340.73	16.39	-40.5	-52.8	3.8	1.49e+00	0	56	104	1157627904	52	15016
2026-01-06 10:15:42.27	340.79	16.05	-40.4	-52.8	3.8	1.49e+00	0	56	104	1157627904	52	14943
2026-01-06 10:15:45.30	340.85	15.72	-40.3	-52.8	3.8	1.49e+00	0	56	104	1157627904	52	14903
2026-01-06 10:15:48.33	340.91	15.39	-40.4	-52.7	3.8	1.49e+00	0	57	104	1157627904	52	14796
2026-01-06 10:15:51.36	340.97	15.07	-40.5	-52.7	3.8	1.49e+00	0	57	104	1157627904	52	14854
2026-01-06 10:15:54.39	341.02	14.75	-40.4	-52.8	3.8	1.49e+00	0	56	104	1157627904	52	14912
2026-01-06 10:15:57.42	341.08	14.43	-40.4	-52.7	3.8	1.49e+00	0	56	104	1157627904	52	14857
2026-01-06 10:16:00.45	341.14	14.12	-40.2	-52.8	3.8	1.49e+00	0	57	104	1157627904	52	14908
2026-01-06 10:16:03.48	341.19	13.82	-40.5	-52.8	3.8	1.49e+00	0	57	104	1157627904	52	14943
2026-01-06 10:16:06.51	341.24	13.51	-40.1	-52.7	3.8	1.49e+00	0	56	104	1157627904	52	14861
2026-01-06 10:16:09.54	341.30	13.21	-40.0	-52.7	3.8	1.49e+00	0	57	104	1157627904	52	14717
2026-01-06 10:16:12.58	341.35	12.92	-40.0	-52.6	3.8	1.49e+00	0	57	104	1157627904	52	14692
2026-01-06 10:16:15.60	341.40	12.63	-40.4	-52.8	3.8	1.49e+00	0	56	104	1157627904	52	14889
2026-01-06 10:16:18.63	341.45	12.34	-40.1	-52.7	3.8	1.49e+00	0	56	104	1157627904	52	14711
2026-01-06 10:16:21.66	341.50	12.05	-40.4	-52.7	3.8	1.49e+00	0	57	104	1157627904	52	14797
2026-01-06 10:16:24.69	341.55	11.77	-40.4	-52.7	3.8	1.49e+00	0	57	104	1157627904	52	14836
2026-01-06 10:16:27.72	341.60	11.49	-40.2	-52.6	3.8	1.49e+00	0	57	104	1157627904	52	14584
2026-01-06 10:16:30.75	341.65	11.21	-40.4	-52.8	3.8	1.49e+00	0	57	104	1157627904	52	14906
2026-01-06 10:16:33.78	341.69	10.94	-40.1	-52.4	3.8	1.49e+00	0	57	104	1157627904	52	14355
2026-01-06 10:16:36.81	341.74	10.67	-40.3	-52.6	3.8	1.49e+00	0	57	104	1157627904	52	14683
2026-01-06 10:16:39.83	341.79	10.41	-40.3	-52.6	3.8	1.49e+00	0	57	104	1157627904	52	14645
2026-01-06 10:16:42.86	341.83	10.14	-40.1	-52.5	3.8	1.49e+00	0	57	104	1157627904	52	14453
2026-01-06 10:16:45.89	341.88	9.88	-40.1	-52.4	3.8	1.49e+00	0	57	104	1157627904	52	14246
2026-01-06 10:16:48.92	341.92	9.62	-40.1	-52.4	3.8	1.49e+00	0	57	104	1157627904	52	14303
2026-01-06 10:16:51.96	341.96	9.37	-40.2	-52.5	3.8	1.49e+00	0	57	104	1157627904	52	14383
2026-01-06 10:16:54.98	342.01	9.11	-40.6	-52.9	3.8	1.49e+00	0	57	104	1157627904	52	15086
2026-01-06 10:16:58.01	342.05	8.86	-40.5	-52.7	3.8	1.49e+00	0	57	104	1157627904	52	14874
2026-01-06 10:17:01.04	342.09	8.61	-40.5	-52.8	3.8	1.49e+00	0	57	104	1157627904	52	15002
2026-01-06 10:17:04.06	342.13	8.37	-40.5	-52.7	3.8	1.49e+00	0	57	104	1157627904	52	14864
2026-01-06 10:17:07.09	342.17	8.13	-40.4	-52.6	3.8	1.49e+00	0	57	104	1157627904	52	14649
2026-01-06 10:17:10.12	342.22	7.88	-43.5	-55.9	3.8	1.49e+00	0	57	104	1157627904	57	16110
2026-01-06 10:17:13.15	342.26	7.65	-45.0	-57.6	3.8	1.49e+00	0	57	104	1157627904	60	16331
2026-01-06 10:17:16.18	342.30	7.41	-45.3	-57.8	3.8	1.49e+00	0	57	104	1157627904	61	15824
2026-01-06 10:17:19.21	342.33	7.17	-45.2	-57.8	3.8	1.49e+00	0	57	104	1157627904	61	15855
2026-01-06 10:17:22.24	342.37	6.94	-45.2	-57.8	3.8	1.49e+00	0	57	104	1157627904	61	15772
2026-01-06 10:17:25.28	342.41	6.71	-45.1	-57.7	3.8	1.49e+00	0	57	104	1157627904	61	15729
2026-01-06 10:17:28.31	342.45	6.48	-45.1	-57.7	3.8	1.49e+00	0	57	104	1157627904	61	15672
2026-01-06 10:17:31.34	342.49	6.26	-45.1	-57.7	3.8	1.49e+00	0	57	104	1157627904	61	15677
2026-01-06 10:17:34.37	342.53	6.03	-45.1	-57.7	3.8	1.49e+00	0	57	104	1157627904	61	15641
2026-01-06 10:17:37.40	342.56	5.81	-45.1	-57.7	3.8	1.49e+00	0	57	104	1157627904	61	15626
2026-01-06 10:17:40.44	342.60	5.59	-45.1	-57.7	3.8	1.49e+00	0	57	104	1157627904	61	15625
2026-01-06 10:17:43.47	342.64	5.37	-45.1	-57.7	3.8	1.49e+00	0	57	104	1157627904	60	16568
2026-01-06 10:17:46.50	342.67	5.15	-45.1	-57.7	3.8	1.49e+00	0	57	104	1157627904	60	16548
2026-01-06 10:17:49.54	342.71	4.94	-45.1	-57.7	3.8	1.49e+00	0	57	104	1157627904	60	16551
2026-01-06 10:17:52.57	342.74	4.73	-45.1	-57.6	3.8	1.49e+00	0	57	104	1157627904	60	16500
2026-01-06 10:17:55.60	342.78	4.51	-45.1	-57.7	3.8	1.49e+00	0	57	104	1157627904	60	16558
2026-01-06 10:17:58.63	342.81	4.30	-45.1	-57.7	3.8	1.49e+00	0	57	104	1157627904	60	16523
2026-01-06 10:18:01.66	342.85	4.10	-45.1	-57.6	3.8	1.49e+00	0	57	104	1157627904	60	16494
2026-01-06 10:18:04.70	342.88	3.89	-45.0	-57.6	3.8	1.49e+00	0	57	104	1157627904	60	16490
2026-01-06 10:18:07.73	342.92	3.68	-45.0	-57.7	3.8	1.49e+00	0	57	104	1157627904	60	16528
2026-01-06 10:18:10.76	342.95	3.48	-45.1	-57.6	3.8	1.49e+00	0	57	104	1157627904	60	16497
2026-01-06 10:18:13.79	342.98	3.28	-45.1	-57.6	3.8	1.49e+00	0	57	104	1157627904	60	16480
2026-01-06 10:18:16.82	343.01	3.08	-45.0	-57.6	3.8	1.49e+00	0	57	104	1157627904	60	16497
2026-01-06 10:18:19.85	343.05	2.88	-45.1	-57.6	3.8	1.49e+00	0	57	104	1157627904	60	16460
2026-01-06 10:18:22.88	343.08	2.68	-45.1	-57.6	3.8	1.49e+00	0	57	104	1157627904	60	16485
2026-01-06 10:18:25.91	343.11	2.48	-45.0	-57.6	3.8	1.49e+00	0	57	104	1157627904	60	16467
2026-01-06 10:18:28.95	343.14	2.29	-45.0	-57.7	3.8	1.49e+00	0	57	104	1157627904	60	16510
2026-01-06 10:18:31.98	343.18	2.09	-45.0	-57.6	3.8	1.49e+00	0	57	104	1157627904	60	16483

#Closed at: 2026-01-06 10:18:33
#Recorded file [1157 MB]: D:/lorett/data/31039_260106_130813.dat