passes_logs/2026/01/06/R2.0S_Moscow/R2.0S_Moscow__20260106_110701_AQUA_rec.log

#Pass ID: 20260106_110701_AQUA
#Satellite: AQUA
#Configuration: AQUA
#almurnet v.1.7.20251203
#Start time: 2026-01-06 11:08:56

#Version: 2.2.20231116
#Station: R2.0S_Moscow
#Location: 37.707566 lon 55.798166 lat
#TLE: 1 27424U 02022A   26004.96787593  .00001598  00000+0  32997-3 0  9996
#TLE: 2 27424  98.4069 331.2279 0002002  90.2377   0.6092 14.61798176259425

#Time	Az	El	Level	Level2	SNR	BER	BlckErr	Temp	State	Recorded	gain1	gain2
2026-01-06 11:08:56.06	140.49	10.98	-45.1	-59.9	3.8	1.49e+00	0	56	0	0	60	21361
2026-01-06 11:08:59.08	140.33	11.27	-46.4	-65.1	3.8	7.44e-01	0	56	104	0	63	32756
2026-01-06 11:09:02.11	140.16	11.56	-46.0	-64.5	3.8	7.46e-01	0	56	104	0	63	30585
2026-01-06 11:09:05.15	139.99	11.86	-45.6	-64.1	3.8	7.42e-01	0	57	104	0	61	32777
2026-01-06 11:09:08.18	139.81	12.16	-45.6	-64.1	3.7	7.46e-01	0	56	104	0	61	32694
2026-01-06 11:09:11.21	139.63	12.46	-45.6	-64.2	3.8	7.48e-01	0	56	104	0	61	33230
2026-01-06 11:09:14.24	139.44	12.77	-45.4	-64.3	3.8	7.43e-01	0	56	104	0	61	33336
2026-01-06 11:09:17.27	139.25	13.09	-45.5	-64.1	3.8	7.48e-01	0	56	104	0	61	32847
2026-01-06 11:09:20.31	139.06	13.40	-45.6	-64.2	3.8	7.48e-01	0	56	104	0	61	33141
2026-01-06 11:09:23.34	138.86	13.72	-45.6	-63.7	3.8	7.43e-01	0	56	104	0	61	31227
2026-01-06 11:09:26.37	138.66	14.05	-45.5	-62.7	3.9	7.44e-01	0	56	104	0	61	27835
2026-01-06 11:09:29.40	138.45	14.38	-41.8	-61.7	4.0	7.45e-01	0	56	104	0	61	24874
2026-01-06 11:09:32.44	138.23	14.72	-45.6	-62.3	3.9	7.44e-01	0	56	104	0	61	26599
2026-01-06 11:09:35.47	138.01	15.05	-45.6	-63.4	3.8	7.42e-01	0	56	104	0	61	30041
2026-01-06 11:09:38.49	137.79	15.40	-45.6	-61.4	4.1	7.35e-01	0	56	104	0	61	23914
2026-01-06 11:09:41.53	137.56	15.75	-44.8	-55.0	7.7	6.55e-01	89	56	0	1572864	60	12205
2026-01-06 11:09:44.56	137.32	16.10	-43.8	-48.9	14.6	6.07e-01	0	56	0	7340032	58	6774
2026-01-06 11:09:47.59	137.08	16.46	-41.5	-44.5	19.1	6.06e-01	0	56	0	12582912	53	5433
2026-01-06 11:09:50.63	136.83	16.83	-42.2	-45.7	18.4	6.06e-01	0	56	0	18350080	54	5881
2026-01-06 11:09:53.66	136.57	17.20	-41.2	-44.2	19.5	6.08e-01	0	56	0	24117248	53	5255
2026-01-06 11:09:56.69	136.31	17.58	-40.0	-42.3	21.1	6.06e-01	0	56	0	29884416	50	4999
2026-01-06 11:09:59.72	136.03	17.96	-39.7	-42.0	21.2	6.07e-01	0	56	0	35651584	50	4835
2026-01-06 11:10:02.75	135.76	18.35	-39.5	-41.7	21.9	6.05e-01	0	56	0	40894464	50	4661
2026-01-06 11:10:05.77	135.47	18.74	-39.7	-41.8	18.8	6.09e-01	0	56	0	46661632	49	5014
2026-01-06 11:10:08.80	135.18	19.14	-38.8	-41.9	21.4	6.06e-01	0	56	0	52428800	49	5055
2026-01-06 11:10:11.83	134.87	19.55	-39.8	-41.9	21.8	6.06e-01	0	56	0	58195968	50	4811
2026-01-06 11:10:14.86	134.56	19.96	-39.9	-42.1	21.4	6.04e-01	0	56	0	63963136	50	4882
2026-01-06 11:10:17.89	134.24	20.38	-40.0	-42.3	21.6	6.06e-01	0	56	0	69730304	50	5002
2026-01-06 11:10:20.92	133.91	20.81	-40.0	-42.2	21.6	6.05e-01	0	56	0	75497472	51	4691
2026-01-06 11:10:23.95	133.57	21.24	-40.1	-42.4	20.9	6.08e-01	0	56	0	80740352	50	5082
2026-01-06 11:10:26.99	133.21	21.68	-40.2	-42.4	21.4	6.06e-01	0	56	0	86507520	50	5099
2026-01-06 11:10:30.02	132.85	22.13	-40.0	-42.3	21.7	6.06e-01	0	56	0	92274688	50	4990
2026-01-06 11:10:33.04	132.48	22.59	-40.1	-42.3	21.6	6.05e-01	0	56	0	98041856	50	5010
2026-01-06 11:10:36.08	132.09	23.05	-40.1	-42.3	21.6	6.06e-01	0	56	0	103809024	50	5000
2026-01-06 11:10:39.10	131.69	23.52	-40.3	-42.6	21.4	6.06e-01	0	56	0	109051904	51	4891
2026-01-06 11:10:42.13	131.28	24.00	-40.6	-43.0	21.0	6.08e-01	0	56	0	114819072	51	5111
2026-01-06 11:10:45.16	130.86	24.49	-40.3	-42.6	21.4	6.08e-01	0	56	0	120586240	51	4916
2026-01-06 11:10:48.19	130.42	24.99	-40.0	-42.2	21.9	6.05e-01	0	56	0	126353408	51	4658
2026-01-06 11:10:51.22	129.96	25.49	-40.0	-42.1	21.9	6.07e-01	0	56	0	132120576	51	4645
2026-01-06 11:10:54.25	129.49	26.00	-40.3	-42.7	21.3	6.06e-01	0	56	0	137887744	51	4938
2026-01-06 11:10:57.28	129.01	26.53	-40.0	-42.2	21.8	6.05e-01	0	56	0	143654912	51	4692
2026-01-06 11:11:00.31	128.50	27.06	-39.8	-41.9	22.1	6.06e-01	0	56	0	148897792	51	4521
2026-01-06 11:11:03.34	127.98	27.59	-39.9	-42.1	22.0	6.03e-01	0	56	0	154664960	51	4617
2026-01-06 11:11:06.37	127.44	28.14	-39.6	-41.6	22.4	6.05e-01	0	56	0	160432128	51	4381
2026-01-06 11:11:09.40	126.88	28.70	-39.5	-41.6	22.5	6.05e-01	0	56	0	166199296	51	4349
2026-01-06 11:11:12.43	126.30	29.27	-39.6	-41.7	22.4	6.08e-01	0	56	0	171966464	51	4415
2026-01-06 11:11:15.46	125.69	29.84	-39.4	-41.4	22.6	6.05e-01	0	56	0	177209344	50	4529
2026-01-06 11:11:18.49	125.07	30.42	-39.5	-41.6	22.5	6.06e-01	0	56	0	182976512	50	4611
2026-01-06 11:11:21.51	124.42	31.02	-39.2	-41.1	22.9	6.06e-01	0	56	0	188743680	50	4388
2026-01-06 11:11:24.55	123.74	31.62	-39.6	-41.7	22.4	6.06e-01	0	56	0	194510848	50	4686
2026-01-06 11:11:27.58	123.03	32.23	-39.7	-41.8	22.3	6.06e-01	0	56	0	200278016	50	4738
2026-01-06 11:11:30.61	122.30	32.85	-39.5	-41.5	22.6	6.05e-01	0	56	0	206045184	50	4580
2026-01-06 11:11:33.63	121.54	33.47	-39.9	-42.0	22.1	6.08e-01	0	56	0	211812352	50	4849
2026-01-06 11:11:36.66	120.75	34.11	-39.8	-41.9	22.3	6.06e-01	0	56	0	217055232	50	4760
2026-01-06 11:11:39.69	119.93	34.75	-40.0	-42.2	22.0	6.05e-01	0	56	0	222822400	50	4943
2026-01-06 11:11:42.72	119.07	35.40	-40.4	-42.7	21.5	6.05e-01	0	56	0	228589568	51	4948
2026-01-06 11:11:45.75	118.17	36.06	-40.5	-42.8	21.3	6.06e-01	0	56	0	234356736	51	5041
2026-01-06 11:11:48.78	117.24	36.72	-40.7	-43.2	21.0	6.08e-01	0	56	0	240123904	52	4939
2026-01-06 11:11:51.81	116.26	37.39	-40.7	-43.2	20.9	6.07e-01	0	56	0	245366784	52	4942
2026-01-06 11:11:54.84	115.25	38.06	-41.0	-43.5	20.7	6.07e-01	0	56	0	251133952	52	5133
2026-01-06 11:11:57.86	114.19	38.74	-40.9	-43.3	20.8	6.07e-01	0	56	0	256901120	53	4742
2026-01-06 11:12:00.86	113.10	39.41	-40.9	-43.5	20.7	6.05e-01	0	56	0	262668288	53	4818
2026-01-06 11:12:03.89	111.94	40.09	-40.8	-43.2	20.9	6.06e-01	0	56	0	268435456	53	4668
2026-01-06 11:12:06.92	110.74	40.77	-40.9	-43.4	20.8	6.07e-01	0	56	0	274202624	53	4810
2026-01-06 11:12:09.95	109.48	41.45	-40.7	-43.0	21.1	6.06e-01	0	56	0	279445504	53	4588
2026-01-06 11:12:12.98	108.17	42.13	-41.2	-43.8	20.4	6.08e-01	0	56	0	285212672	53	4995
2026-01-06 11:12:16.01	106.80	42.80	-40.4	-42.7	21.5	6.08e-01	0	56	0	290979840	52	4696
2026-01-06 11:12:19.04	105.37	43.46	-40.6	-42.9	21.3	6.06e-01	0	56	0	296747008	52	4778
2026-01-06 11:12:22.07	103.88	44.12	-40.4	-42.6	21.5	6.08e-01	0	56	0	302514176	52	4636
2026-01-06 11:12:25.10	102.33	44.77	-40.6	-42.9	21.3	6.06e-01	0	56	0	308281344	52	4796
2026-01-06 11:12:28.13	100.71	45.40	-41.0	-43.5	20.7	6.07e-01	0	56	0	313524224	52	5128
2026-01-06 11:12:31.16	99.02	46.02	-41.2	-43.7	20.5	6.06e-01	0	56	0	319291392	52	5279
2026-01-06 11:12:34.19	97.27	46.62	-40.7	-43.0	21.2	6.05e-01	0	56	0	325058560	52	4859
2026-01-06 11:12:37.21	95.46	47.19	-41.1	-43.7	20.6	6.08e-01	0	56	0	330825728	52	5227
2026-01-06 11:12:40.24	93.57	47.74	-40.7	-43.1	21.1	6.06e-01	0	56	0	336592896	52	4893
2026-01-06 11:12:43.27	91.61	48.27	-40.8	-43.2	21.0	6.07e-01	0	56	0	342360064	52	4977
2026-01-06 11:12:46.30	89.59	48.76	-40.9	-43.4	20.8	6.07e-01	0	56	0	347602944	52	5050
2026-01-06 11:12:49.33	87.50	49.22	-40.7	-43.0	21.3	6.06e-01	0	56	0	353370112	52	4845
2026-01-06 11:12:52.36	85.36	49.64	-40.2	-42.4	21.9	6.08e-01	0	56	0	359137280	52	4509
2026-01-06 11:12:55.39	83.15	50.03	-40.5	-42.8	21.5	6.08e-01	0	56	0	364904448	52	4727
2026-01-06 11:12:58.42	80.89	50.37	-40.6	-42.9	21.3	6.08e-01	0	56	0	370671616	52	4812
2026-01-06 11:13:01.45	78.58	50.66	-40.7	-43.0	21.3	6.05e-01	0	56	0	376438784	52	4843
2026-01-06 11:13:04.48	76.23	50.91	-40.4	-42.6	21.8	6.06e-01	0	56	0	381681664	52	4619
2026-01-06 11:13:07.51	73.85	51.10	-40.5	-42.7	21.6	6.05e-01	0	56	0	387448832	52	4703
2026-01-06 11:13:10.54	71.44	51.25	-40.5	-42.8	21.6	6.05e-01	0	56	0	393216000	52	4707
2026-01-06 11:13:13.57	69.00	51.34	-40.2	-42.4	21.9	6.08e-01	0	56	0	398983168	52	4527
2026-01-06 11:13:16.60	66.56	51.38	-40.3	-42.5	21.9	6.06e-01	0	56	0	404750336	51	4841
2026-01-06 11:13:19.63	64.12	51.36	-40.3	-42.4	21.9	6.06e-01	0	56	0	410517504	51	4798
2026-01-06 11:13:22.67	61.67	51.29	-40.4	-42.6	21.8	6.06e-01	0	56	0	416284672	51	4883
2026-01-06 11:13:25.70	59.25	51.17	-40.2	-42.3	22.1	6.06e-01	0	56	0	421527552	51	4728
2026-01-06 11:13:28.73	56.86	50.99	-40.2	-42.4	22.1	6.06e-01	0	56	0	427294720	51	4761
2026-01-06 11:13:31.76	54.50	50.77	-39.9	-41.9	22.4	6.06e-01	0	56	0	433061888	51	4517
2026-01-06 11:13:34.78	52.18	50.49	-39.8	-41.9	22.4	6.04e-01	0	56	0	438829056	51	4506
2026-01-06 11:13:37.81	49.90	50.17	-39.6	-41.6	22.6	6.05e-01	0	56	0	444596224	51	4374
2026-01-06 11:13:40.84	47.68	49.81	-40.1	-42.2	22.0	6.05e-01	0	56	0	449839104	51	4670
2026-01-06 11:13:43.87	45.51	49.40	-40.3	-42.4	21.8	6.07e-01	0	56	0	455606272	51	4812
2026-01-06 11:13:46.90	43.40	48.96	-39.9	-41.9	22.2	6.06e-01	0	56	0	461373440	51	4545
2026-01-06 11:13:49.93	41.36	48.48	-39.7	-41.8	22.5	6.08e-01	0	56	0	467140608	51	4442
2026-01-06 11:13:52.96	39.38	47.97	-39.7	-41.7	22.5	6.07e-01	0	56	0	472907776	51	4410
2026-01-06 11:13:55.99	37.47	47.43	-40.0	-42.1	22.1	6.08e-01	0	56	0	478674944	51	4627
2026-01-06 11:13:59.02	35.62	46.86	-39.6	-41.6	22.6	6.08e-01	0	56	0	484442112	51	4346
2026-01-06 11:14:02.04	33.85	46.28	-39.6	-41.6	22.5	6.08e-01	0	56	0	489684992	51	4370
2026-01-06 11:14:05.07	32.14	45.67	-39.8	-41.9	22.2	6.07e-01	0	56	0	495452160	51	4505
2026-01-06 11:14:08.10	30.50	45.04	-39.9	-42.0	22.1	6.05e-01	0	56	0	501219328	51	4555
2026-01-06 11:14:11.13	28.93	44.40	-39.6	-41.7	22.4	6.07e-01	0	56	0	506986496	51	4397
2026-01-06 11:14:14.16	27.41	43.75	-39.7	-41.7	22.2	6.06e-01	0	56	0	512753664	50	4689
2026-01-06 11:14:17.19	25.96	43.09	-39.7	-41.8	22.1	6.04e-01	0	56	0	517996544	50	4736
2026-01-06 11:14:20.22	24.57	42.43	-40.2	-42.4	21.5	6.06e-01	0	56	0	523763712	50	5061
2026-01-06 11:14:23.24	23.25	41.76	-40.2	-42.5	21.4	6.05e-01	0	56	0	529530880	51	4820
2026-01-06 11:14:26.27	21.97	41.08	-40.6	-43.0	20.9	6.05e-01	0	56	0	535298048	51	5140
2026-01-06 11:14:29.30	20.75	40.40	-40.4	-42.8	21.0	6.08e-01	0	56	0	541065216	52	4717
2026-01-06 11:14:32.32	19.58	39.73	-40.9	-43.5	20.3	6.08e-01	0	56	0	546832384	53	4836
2026-01-06 11:14:35.36	18.46	39.05	-40.9	-43.5	20.4	6.07e-01	0	56	0	552075264	53	4820
2026-01-06 11:14:38.38	17.38	38.38	-41.1	-43.7	20.4	6.05e-01	0	56	0	557842432	53	4929
2026-01-06 11:14:41.41	16.35	37.70	-41.3	-43.9	20.1	6.03e-01	0	56	0	563609600	53	5091
2026-01-06 11:14:44.44	15.37	37.04	-41.1	-43.7	20.3	6.06e-01	0	56	0	569376768	53	4982
2026-01-06 11:14:47.47	14.42	36.37	-40.6	-42.9	21.1	6.05e-01	0	56	0	575143936	53	4544
2026-01-06 11:14:50.50	13.51	35.72	-40.2	-42.4	21.6	6.05e-01	0	56	0	580911104	52	4520
2026-01-06 11:14:53.53	12.64	35.07	-40.4	-42.7	21.3	6.07e-01	0	56	0	586153984	52	4666
2026-01-06 11:14:56.56	11.81	34.43	-40.6	-42.9	21.2	6.06e-01	0	56	0	591921152	51	5081
2026-01-06 11:14:59.58	11.01	33.79	-39.6	-41.7	22.2	6.06e-01	0	56	0	597688320	51	4411
2026-01-06 11:15:02.61	10.23	33.16	-39.6	-41.7	22.0	6.04e-01	0	56	0	603455488	51	4398
2026-01-06 11:15:05.64	9.49	32.55	-39.8	-41.9	22.1	6.07e-01	0	56	0	609222656	51	4509
2026-01-06 11:15:08.67	8.78	31.93	-39.4	-41.4	22.6	6.06e-01	0	56	0	614989824	50	4517
2026-01-06 11:15:11.70	8.10	31.33	-39.3	-41.3	22.6	6.05e-01	0	56	0	620232704	50	4483
2026-01-06 11:15:14.73	7.44	30.74	-39.0	-40.9	23.0	6.06e-01	0	56	0	625999872	50	4270
2026-01-06 11:15:17.76	6.80	30.15	-39.3	-41.3	22.6	6.05e-01	0	56	0	631767040	50	4452
2026-01-06 11:15:20.79	6.19	29.58	-39.2	-41.2	22.6	6.06e-01	0	56	0	637534208	50	4428
2026-01-06 11:15:23.82	5.61	29.01	-39.1	-41.1	22.9	6.07e-01	0	56	0	643301376	50	4362
2026-01-06 11:15:26.85	5.04	28.45	-39.8	-42.0	22.0	6.05e-01	0	56	0	649068544	50	4837
2026-01-06 11:15:29.88	4.49	27.90	-39.3	-41.4	22.5	6.07e-01	0	56	0	654311424	50	4496
2026-01-06 11:15:32.91	3.96	27.36	-39.5	-41.6	22.4	6.06e-01	0	56	0	660078592	50	4611
2026-01-06 11:15:35.94	3.46	26.83	-39.6	-41.7	22.3	6.07e-01	0	56	0	665845760	50	4674
2026-01-06 11:15:38.97	2.96	26.31	-39.6	-41.7	22.1	6.04e-01	0	56	0	671612928	50	4699
2026-01-06 11:15:42.00	2.49	25.79	-39.5	-41.6	22.3	6.03e-01	0	56	0	677380096	50	4630
2026-01-06 11:15:45.02	2.03	25.29	-39.7	-41.9	22.0	6.03e-01	0	56	0	683147264	50	4789
2026-01-06 11:15:48.05	1.59	24.79	-39.8	-42.1	21.8	6.00e-01	0	56	0	688390144	50	4877
2026-01-06 11:15:51.08	1.16	24.30	-39.5	-41.6	22.2	5.99e-01	0	56	0	694157312	50	4642
2026-01-06 11:15:54.11	0.75	23.82	-39.6	-41.8	22.0	6.03e-01	0	56	0	699924480	50	4719
2026-01-06 11:15:57.15	0.34	23.35	-39.7	-41.9	21.8	6.00e-01	0	56	0	705691648	50	4809
2026-01-06 11:16:00.17	359.96	22.88	-39.9	-42.2	21.6	6.04e-01	0	56	0	711458816	50	4955
2026-01-06 11:16:03.20	359.58	22.43	-39.9	-42.2	21.5	6.03e-01	0	56	0	717225984	50	4954
2026-01-06 11:16:06.23	359.21	21.98	-39.8	-42.0	21.7	5.97e-01	0	56	0	722468864	50	4844
2026-01-06 11:16:09.26	358.86	21.53	-39.7	-42.0	21.7	6.02e-01	0	56	0	728236032	50	4821
2026-01-06 11:16:12.29	358.52	21.10	-39.7	-41.9	21.6	6.02e-01	0	56	0	734003200	50	4805
2026-01-06 11:16:15.32	358.18	20.67	-39.5	-41.7	21.8	6.01e-01	0	56	0	739770368	50	4691
2026-01-06 11:16:18.35	357.86	20.25	-39.6	-41.8	21.6	6.02e-01	0	56	0	745537536	50	4740
2026-01-06 11:16:21.37	357.55	19.84	-39.6	-42.0	21.3	6.03e-01	0	56	0	751304704	50	4835
2026-01-06 11:16:24.40	357.24	19.43	-39.3	-41.6	21.5	6.01e-01	0	56	0	756547584	50	4611
2026-01-06 11:16:27.43	356.95	19.03	-39.2	-41.5	21.5	6.03e-01	0	56	0	762314752	50	4551
2026-01-06 11:16:30.46	356.66	18.63	-39.5	-42.1	20.5	6.06e-01	0	56	0	768081920	50	4907
2026-01-06 11:16:33.49	356.38	18.24	-40.3	-43.5	18.5	6.00e-01	0	56	0	773849088	51	5446
2026-01-06 11:16:36.52	356.11	17.86	-41.1	-45.8	15.5	6.01e-01	0	56	0	779616256	52	6684
2026-01-06 11:16:39.55	355.85	17.48	-41.5	-48.4	12.3	6.07e-01	0	56	0	785383424	53	8500
2026-01-06 11:16:42.58	355.59	17.11	-41.6	-51.3	8.6	6.36e-01	2	56	0	790626304	53	11858
2026-01-06 11:16:45.61	355.34	16.74	-41.5	-54.7	5.3	7.02e-01	0	56	0	795344896	53	17553
2026-01-06 11:16:48.64	355.09	16.38	-41.4	-58.1	3.8	7.45e-01	0	56	104	795344896	53	25879
2026-01-06 11:16:51.67	354.86	16.03	-41.4	-60.0	3.8	7.41e-01	0	56	104	795344896	54	30532
2026-01-06 11:16:54.69	354.63	15.68	-42.1	-58.8	3.8	7.44e-01	0	56	104	795344896	54	26542
2026-01-06 11:16:57.72	354.40	15.33	-41.7	-58.7	3.9	7.43e-01	0	56	104	795344896	54	26306
2026-01-06 11:17:00.75	354.18	14.99	-41.2	-60.2	3.8	7.45e-01	0	56	104	795344896	54	31156
2026-01-06 11:17:03.78	353.97	14.66	-41.4	-60.3	3.8	7.46e-01	0	56	104	795344896	54	31714
2026-01-06 11:17:06.81	353.76	14.33	-41.2	-60.3	3.8	7.48e-01	0	56	104	795344896	54	31666
2026-01-06 11:17:09.84	353.56	14.00	-41.2	-60.2	3.8	7.47e-01	0	56	104	795344896	54	31278
2026-01-06 11:17:12.87	353.36	13.68	-41.0	-60.3	3.8	7.45e-01	0	56	104	795344896	53	33556
2026-01-06 11:17:15.90	353.16	13.36	-41.1	-60.2	3.8	7.45e-01	0	56	104	795344896	53	33259
2026-01-06 11:17:18.93	352.98	13.05	-41.5	-60.6	3.8	7.41e-01	0	57	104	795344896	53	34707
2026-01-06 11:17:21.96	352.79	12.74	-41.2	-60.3	3.8	7.44e-01	0	56	104	795344896	52	35467
2026-01-06 11:17:24.99	352.61	12.43	-41.5	-60.4	3.8	7.43e-01	0	56	104	795344896	53	34016
2026-01-06 11:17:28.01	352.44	12.13	-40.1	-60.2	3.8	7.46e-01	0	56	104	795344896	52	35218
2026-01-06 11:17:31.04	352.26	11.83	-41.2	-60.2	3.8	7.46e-01	0	56	104	795344896	53	33153
2026-01-06 11:17:34.07	352.10	11.54	-40.8	-60.1	3.8	7.52e-01	0	56	104	795344896	53	32900
2026-01-06 11:17:37.10	351.93	11.25	-41.0	-60.0	3.8	7.44e-01	0	56	104	795344896	53	32299
2026-01-06 11:17:40.13	351.77	10.96	-41.2	-60.5	3.8	7.45e-01	0	56	104	795344896	53	34306
2026-01-06 11:17:43.16	351.61	10.68	-41.3	-60.4	3.8	7.48e-01	0	56	104	795344896	53	33897
2026-01-06 11:17:46.19	351.46	10.40	-41.2	-60.2	3.8	7.44e-01	0	57	104	795344896	53	33214
2026-01-06 11:17:49.22	351.31	10.13	-41.1	-60.2	3.8	7.46e-01	0	56	104	795344896	52	35227
2026-01-06 11:17:52.25	351.16	9.85	-41.2	-60.2	3.8	7.45e-01	0	57	104	795344896	53	33296
2026-01-06 11:17:55.27	351.02	9.58	-40.9	-60.0	3.8	7.43e-01	0	57	104	795344896	53	32186
2026-01-06 11:17:58.30	350.88	9.32	-40.9	-60.0	3.8	7.43e-01	0	56	104	795344896	53	32271
2026-01-06 11:18:01.34	350.74	9.05	-41.6	-60.6	3.8	7.50e-01	0	56	104	795344896	53	34802
2026-01-06 11:18:04.37	350.61	8.79	-41.5	-60.4	3.8	7.48e-01	0	56	104	795344896	53	33840
2026-01-06 11:18:07.39	350.47	8.53	-41.4	-60.3	3.8	7.44e-01	0	56	104	795344896	53	33654
2026-01-06 11:18:10.42	350.34	8.28	-41.5	-60.5	3.8	7.45e-01	0	56	104	795344896	53	34223
2026-01-06 11:18:13.45	350.22	8.03	-41.4	-60.3	3.8	7.45e-01	0	57	104	795344896	53	33640
2026-01-06 11:18:16.48	350.09	7.77	-44.4	-63.5	3.8	7.45e-01	0	56	104	795344896	59	34464
2026-01-06 11:18:19.51	349.97	7.53	-46.0	-64.9	3.8	7.45e-01	0	57	104	795344896	62	33745
2026-01-06 11:18:22.54	349.85	7.28	-46.2	-65.0	3.8	7.44e-01	0	57	104	795344896	62	34449
2026-01-06 11:18:25.57	349.74	7.04	-46.2	-65.0	3.8	7.50e-01	0	56	104	795344896	62	34429
2026-01-06 11:18:28.60	349.62	6.80	-46.1	-65.0	3.8	7.47e-01	0	56	104	795344896	62	34261
2026-01-06 11:18:31.64	349.51	6.56	-46.1	-65.0	3.8	7.45e-01	0	56	104	795344896	62	34162
2026-01-06 11:18:34.67	349.40	6.33	-46.1	-64.9	3.8	7.45e-01	0	56	104	795344896	62	34031
2026-01-06 11:18:37.70	349.29	6.09	-46.1	-64.9	3.8	7.42e-01	0	57	104	795344896	62	34000
2026-01-06 11:18:40.73	349.19	5.86	-46.0	-64.9	3.8	7.46e-01	0	56	104	795344896	62	33913
2026-01-06 11:18:43.77	349.08	5.63	-46.1	-64.9	3.8	7.45e-01	0	56	104	795344896	62	33979
2026-01-06 11:18:46.80	348.98	5.41	-46.0	-64.9	3.8	7.49e-01	0	57	104	795344896	62	33989
2026-01-06 11:18:49.83	348.88	5.18	-46.0	-64.9	3.8	7.45e-01	0	57	104	795344896	62	33992
2026-01-06 11:18:52.86	348.78	4.96	-46.0	-64.9	3.8	7.44e-01	0	57	104	795344896	62	34049
2026-01-06 11:18:55.89	348.69	4.74	-46.0	-64.9	3.8	7.43e-01	0	57	104	795344896	62	33911
2026-01-06 11:18:58.92	348.59	4.52	-46.0	-64.9	3.8	7.45e-01	0	56	104	795344896	62	33932
2026-01-06 11:19:01.96	348.50	4.30	-46.0	-64.9	3.8	7.42e-01	0	57	104	795344896	62	33759
2026-01-06 11:19:04.99	348.41	4.09	-46.0	-64.9	3.8	7.45e-01	0	57	104	795344896	62	33827
2026-01-06 11:19:08.02	348.32	3.87	-46.0	-64.9	3.8	7.43e-01	0	56	104	795344896	62	33902
2026-01-06 11:19:11.05	348.23	3.66	-46.0	-64.9	3.8	7.42e-01	0	57	104	795344896	62	33891
2026-01-06 11:19:14.08	348.14	3.45	-46.0	-64.9	3.8	7.48e-01	0	57	104	795344896	62	33896
2026-01-06 11:19:17.11	348.06	3.25	-46.0	-64.9	3.8	7.44e-01	0	56	104	795344896	62	33802
2026-01-06 11:19:20.14	347.98	3.04	-46.0	-64.9	3.8	7.47e-01	0	57	104	795344896	62	33915
2026-01-06 11:19:23.18	347.89	2.83	-46.0	-64.9	3.8	7.42e-01	0	57	104	795344896	62	33930
2026-01-06 11:19:26.21	347.81	2.63	-46.0	-64.9	3.8	7.46e-01	0	57	104	795344896	62	33936
2026-01-06 11:19:29.24	347.74	2.43	-46.0	-64.9	3.8	7.45e-01	0	57	104	795344896	62	33969
2026-01-06 11:19:32.27	347.66	2.23	-46.0	-64.9	3.8	7.44e-01	0	57	104	795344896	62	33910
2026-01-06 11:19:35.30	347.58	2.03	-46.0	-64.9	3.8	7.44e-01	0	57	104	795344896	62	33827

#Closed at: 2026-01-06 11:19:37
#Recorded file [795 MB]: D:/lorett/data/31039_260106_140855.dat