passes_logs/2026/01/06/R2.0S_Moscow/R2.0S_Moscow__20260106_150120_FENGYUN_3E_rec.log

#Pass ID: 20260106_150120_FENGYUN 3E
#Satellite: FENGYUN 3E
#Configuration: FENGYUN 3E
#almurnet v.1.7.20251203
#Start time: 2026-01-06 15:01:22

#Version: 2.2.20231116
#Station: R2.0S_Moscow
#Location: 37.707566 lon 55.798166 lat
#TLE: 1 49008U 21062A   26005.63346808  .00000216  00000+0  12264-3 0  9999
#TLE: 2 49008  98.7472  10.8714 0001569 158.0856 202.0387 14.19884439233512

#Time	Az	El	Level	Level2	SNR	BER	BlckErr	Temp	State	Recorded	gain1	gain2
2026-01-06 15:01:22.57	184.99	2.12	-44.4	-55.2	3.8	8.45e-01	0	47	0	0	59	12410
2026-01-06 15:01:26.61	185.15	2.37	-44.4	-55.2	3.8	8.46e-01	0	47	104	0	59	12431
2026-01-06 15:01:30.66	185.31	2.62	-44.4	-55.2	3.8	8.46e-01	0	48	104	0	59	12433
2026-01-06 15:01:34.70	185.48	2.88	-44.4	-55.2	3.8	8.45e-01	0	48	104	0	59	12438
2026-01-06 15:01:38.74	185.65	3.14	-44.4	-55.2	3.8	8.46e-01	0	48	104	0	59	12450
2026-01-06 15:01:42.78	185.82	3.39	-44.4	-55.2	3.8	8.45e-01	0	49	104	0	59	12420
2026-01-06 15:01:46.82	186.00	3.66	-44.4	-55.2	3.8	8.46e-01	0	49	104	0	59	12436
2026-01-06 15:01:50.86	186.18	3.92	-44.4	-55.2	3.8	8.45e-01	0	49	104	0	59	12405
2026-01-06 15:01:54.90	186.36	4.19	-44.4	-55.1	3.8	8.47e-01	0	49	104	0	59	12350
2026-01-06 15:01:58.94	186.54	4.46	-44.3	-54.3	3.8	8.45e-01	0	50	104	0	59	11270
2026-01-06 15:02:02.99	186.73	4.73	-44.1	-53.0	3.8	8.44e-01	0	50	104	0	59	9674
2026-01-06 15:02:07.03	186.92	5.00	-44.1	-52.6	4.0	8.45e-01	0	50	104	0	59	9258
2026-01-06 15:02:11.08	187.12	5.28	-44.0	-52.5	4.0	8.44e-01	0	50	104	0	59	9134
2026-01-06 15:02:15.12	187.32	5.56	-44.2	-53.6	3.8	8.46e-01	0	51	104	0	59	10307
2026-01-06 15:02:19.16	187.52	5.84	-44.2	-53.5	3.8	8.46e-01	0	51	104	0	59	10265
2026-01-06 15:02:23.20	187.73	6.13	-44.1	-52.6	4.0	8.44e-01	0	51	104	0	59	9272
2026-01-06 15:02:27.25	187.94	6.42	-43.8	-51.4	4.3	8.38e-01	0	51	0	0	58	8497
2026-01-06 15:02:31.29	188.15	6.71	-43.1	-48.9	5.4	7.36e-01	0	51	0	0	57	6736
2026-01-06 15:02:35.33	188.37	7.00	-41.2	-44.8	8.9	3.34e-02	0	52	0	26214400	53	5309
2026-01-06 15:02:39.38	188.59	7.30	-39.1	-41.7	12.2	5.03e-04	0	52	0	55574528	49	4660
2026-01-06 15:02:43.42	188.82	7.60	-37.5	-39.8	13.9	4.50e-06	0	52	0	84934656	46	4461
2026-01-06 15:02:47.46	189.05	7.90	-37.0	-39.1	14.6	1.10e-06	0	52	0	114294784	44	4621
2026-01-06 15:02:51.50	189.28	8.21	-37.5	-39.7	13.9	2.93e-01	0	52	0	141557760	46	4405
2026-01-06 15:02:55.55	189.53	8.52	-36.4	-38.4	15.1	0.00e+00	0	52	0	170917888	43	4544
2026-01-06 15:02:59.58	189.77	8.83	-36.3	-38.3	15.3	0.00e+00	0	53	0	200278016	43	4487
2026-01-06 15:03:03.62	190.02	9.15	-36.3	-38.3	15.3	0.00e+00	0	53	0	229638144	43	4482
2026-01-06 15:03:07.66	190.28	9.47	-36.4	-38.5	15.3	0.00e+00	0	53	0	258998272	43	4555
2026-01-06 15:03:11.70	190.54	9.79	-36.3	-38.3	15.4	0.00e+00	0	53	0	287309824	43	4481
2026-01-06 15:03:15.74	190.80	10.12	-36.0	-37.9	15.8	0.00e+00	0	53	0	316669952	42	4533
2026-01-06 15:03:19.78	191.08	10.45	-36.2	-38.3	15.5	0.00e+00	0	53	0	346030080	42	4710
2026-01-06 15:03:23.82	191.35	10.79	-35.9	-38.0	15.8	0.00e+00	0	53	0	375390208	42	4559
2026-01-06 15:03:27.86	191.64	11.13	-35.9	-37.9	15.8	0.00e+00	0	53	0	404750336	42	4540
2026-01-06 15:03:31.89	191.93	11.47	-35.9	-37.9	15.9	0.00e+00	0	54	0	433061888	42	4524
2026-01-06 15:03:35.94	192.23	11.82	-35.7	-37.8	16.1	0.00e+00	0	54	0	462422016	42	4443
2026-01-06 15:03:39.98	192.53	12.18	-35.6	-37.7	16.1	0.00e+00	0	54	0	491782144	42	4417
2026-01-06 15:03:44.01	192.84	12.53	-35.6	-37.7	16.2	0.00e+00	0	54	0	521142272	41	4661
2026-01-06 15:03:48.05	193.16	12.90	-35.3	-37.3	16.5	0.00e+00	0	54	0	550502400	41	4482
2026-01-06 15:03:52.09	193.49	13.26	-35.1	-37.0	16.8	0.00e+00	0	54	0	579862528	41	4338
2026-01-06 15:03:56.13	193.82	13.63	-35.0	-36.9	16.9	0.00e+00	0	54	0	608174080	40	4538
2026-01-06 15:04:00.17	194.17	14.01	-34.9	-36.8	17.0	0.00e+00	0	54	0	637534208	40	4471
2026-01-06 15:04:04.22	194.52	14.39	-35.1	-37.0	16.9	0.00e+00	0	54	0	666894336	40	4548
2026-01-06 15:04:08.26	194.88	14.78	-35.0	-36.9	17.0	0.00e+00	0	54	0	696254464	40	4530
2026-01-06 15:04:12.30	195.25	15.17	-34.9	-36.8	17.1	0.00e+00	0	54	0	725614592	40	4480
2026-01-06 15:04:16.34	195.63	15.57	-35.0	-36.9	17.1	0.00e+00	0	55	0	753926144	40	4543
2026-01-06 15:04:20.38	196.01	15.97	-34.9	-36.8	17.2	0.00e+00	0	55	0	783286272	40	4456
2026-01-06 15:04:24.42	196.41	16.38	-34.8	-36.7	17.3	0.00e+00	0	55	0	812646400	40	4419
2026-01-06 15:04:28.45	196.82	16.79	-34.5	-36.3	17.7	0.00e+00	0	55	0	842006528	39	4477
2026-01-06 15:04:32.49	197.24	17.21	-34.3	-36.0	17.9	0.00e+00	0	55	0	871366656	39	4313
2026-01-06 15:04:36.54	197.68	17.63	-34.1	-35.9	18.1	0.00e+00	0	55	0	900726784	39	4248
2026-01-06 15:04:40.58	198.12	18.06	-34.0	-35.8	18.2	0.00e+00	0	55	0	929038336	38	4449
2026-01-06 15:04:44.62	198.58	18.50	-34.1	-35.8	18.1	0.00e+00	0	55	0	958398464	38	4482
2026-01-06 15:04:48.66	199.05	18.94	-34.0	-35.7	18.2	0.00e+00	0	55	0	987758592	38	4432
2026-01-06 15:04:52.70	199.53	19.39	-34.1	-35.9	18.0	0.00e+00	0	55	0	1017118720	38	4511
2026-01-06 15:04:56.75	200.03	19.85	-34.1	-35.8	18.1	0.00e+00	0	55	0	1046478848	38	4485
2026-01-06 15:05:00.79	200.54	20.31	-33.8	-35.5	18.4	0.00e+00	0	55	0	1074790400	38	4319
2026-01-06 15:05:04.83	201.06	20.78	-33.7	-35.5	18.5	0.00e+00	0	55	0	1104150528	38	4292
2026-01-06 15:05:08.88	201.61	21.25	-33.8	-35.5	18.5	0.00e+00	0	55	0	1133510656	38	4320
2026-01-06 15:05:12.91	202.17	21.73	-33.9	-35.6	18.4	0.00e+00	0	55	0	1162870784	38	4375
2026-01-06 15:05:16.95	202.74	22.22	-33.8	-35.5	18.5	0.00e+00	0	55	0	1192230912	38	4329
2026-01-06 15:05:20.99	203.34	22.71	-33.8	-35.4	18.6	0.00e+00	0	55	0	1221591040	38	4283
2026-01-06 15:05:25.04	203.95	23.21	-33.7	-35.3	18.7	0.00e+00	0	55	0	1249902592	38	4239
2026-01-06 15:05:29.07	204.58	23.72	-33.6	-35.3	18.8	0.00e+00	0	56	0	1279262720	37	4462
2026-01-06 15:05:33.12	205.24	24.23	-33.5	-35.2	18.8	0.00e+00	0	56	0	1308622848	37	4432
2026-01-06 15:05:37.15	205.91	24.75	-33.5	-35.2	18.8	0.00e+00	0	55	0	1337982976	37	4431
2026-01-06 15:05:41.20	206.61	25.27	-33.5	-35.2	18.7	0.00e+00	0	56	0	1367343104	37	4430
2026-01-06 15:05:45.23	207.32	25.80	-33.4	-35.1	18.8	0.00e+00	0	56	0	1395654656	37	4384
2026-01-06 15:05:49.27	208.07	26.34	-33.2	-34.9	19.1	0.00e+00	0	56	0	1425014784	37	4275
2026-01-06 15:05:53.31	208.83	26.88	-32.9	-34.5	19.5	0.00e+00	0	56	0	1454374912	36	4313
2026-01-06 15:05:57.35	209.63	27.43	-32.7	-34.3	19.7	0.00e+00	0	56	0	1483735040	36	4224
2026-01-06 15:06:01.39	210.45	27.99	-32.9	-34.5	19.4	0.00e+00	0	56	0	1513095168	36	4338
2026-01-06 15:06:05.44	211.30	28.54	-33.0	-34.7	19.2	0.00e+00	0	55	0	1542455296	36	4431
2026-01-06 15:06:09.47	212.18	29.11	-33.1	-34.8	19.1	0.00e+00	0	56	0	1570766848	36	4469
2026-01-06 15:06:13.51	213.09	29.67	-33.0	-34.6	19.3	0.00e+00	0	56	0	1600126976	36	4378
2026-01-06 15:06:17.56	214.03	30.24	-33.2	-34.9	19.1	0.00e+00	0	56	0	1629487104	36	4511
2026-01-06 15:06:21.60	215.01	30.81	-33.0	-34.5	19.5	0.00e+00	0	56	0	1658847232	36	4331
2026-01-06 15:06:25.63	216.02	31.39	-33.0	-34.6	19.4	0.00e+00	0	56	0	1688207360	36	4359
2026-01-06 15:06:29.67	217.06	31.96	-33.1	-34.8	19.3	0.00e+00	0	56	0	1717567488	36	4442
2026-01-06 15:06:33.72	218.15	32.54	-32.8	-34.4	19.5	0.00e+00	0	56	0	1745879040	36	4279
2026-01-06 15:06:37.76	219.27	33.12	-32.9	-34.6	19.4	0.00e+00	0	56	0	1775239168	36	4342
2026-01-06 15:06:41.80	220.43	33.69	-32.9	-34.5	19.4	0.00e+00	0	56	0	1804599296	36	4330
2026-01-06 15:06:45.84	221.63	34.26	-32.8	-34.5	19.3	0.00e+00	0	56	0	1833959424	36	4323
2026-01-06 15:06:49.87	222.87	34.83	-32.9	-34.5	19.5	0.00e+00	0	56	0	1863319552	36	4297
2026-01-06 15:06:53.91	224.16	35.39	-33.0	-34.6	19.5	0.00e+00	0	56	0	1891631104	36	4349
2026-01-06 15:06:57.95	225.49	35.95	-32.9	-34.5	19.5	0.00e+00	0	56	0	1920991232	36	4340
2026-01-06 15:07:01.99	226.86	36.50	-32.9	-34.6	19.5	0.00e+00	0	56	0	1950351360	36	4362
2026-01-06 15:07:06.03	228.28	37.03	-33.0	-34.7	19.4	0.00e+00	0	56	0	1979711488	36	4405
2026-01-06 15:07:10.06	229.75	37.56	-33.3	-34.9	19.1	0.00e+00	0	56	0	2009071616	36	4544
2026-01-06 15:07:14.10	231.26	38.07	-33.0	-34.6	19.5	0.00e+00	0	57	0	2037383168	36	4370
2026-01-06 15:07:18.14	232.82	38.57	-32.9	-34.4	19.7	0.00e+00	0	56	0	2066743296	36	4270
2026-01-06 15:07:22.18	234.43	39.05	-33.3	-35.0	19.0	0.00e+00	0	56	0	2096103424	36	4582
2026-01-06 15:07:26.22	236.09	39.52	-33.2	-34.9	19.1	0.00e+00	0	57	0	2125463552	36	4519
2026-01-06 15:07:30.26	237.79	39.96	-33.8	-35.5	18.6	0.00e+00	0	56	0	2153775104	37	4569
2026-01-06 15:07:34.30	239.54	40.37	-33.2	-34.8	19.4	0.00e+00	0	56	0	2183135232	37	4202
2026-01-06 15:07:38.34	241.33	40.77	-32.7	-34.3	19.8	0.00e+00	0	57	0	2212495360	36	4204
2026-01-06 15:07:42.37	243.15	41.13	-32.9	-34.6	19.4	0.00e+00	0	56	0	2241855488	36	4345
2026-01-06 15:07:46.42	245.03	41.47	-33.8	-34.9	20.0	0.00e+00	0	57	0	2271215616	37	4255
2026-01-06 15:07:50.46	246.94	41.77	-33.8	-34.8	20.0	0.00e+00	0	56	0	2299527168	37	4239
2026-01-06 15:07:54.50	248.88	42.04	-33.7	-34.7	20.2	0.00e+00	0	56	0	2328887296	37	4156
2026-01-06 15:07:58.54	250.85	42.28	-33.9	-35.0	19.9	0.00e+00	0	57	0	2358247424	37	4311
2026-01-06 15:08:02.58	252.85	42.48	-34.1	-35.1	19.8	0.00e+00	0	57	0	2387607552	38	4118
2026-01-06 15:08:06.62	254.87	42.64	-34.0	-35.0	19.8	0.00e+00	0	56	0	2416967680	38	4082
2026-01-06 15:08:10.66	256.91	42.76	-33.7	-34.7	20.1	0.00e+00	0	56	0	2446327808	38	3951
2026-01-06 15:08:14.71	258.96	42.84	-34.0	-35.0	19.8	0.00e+00	0	56	0	2474639360	38	4075
2026-01-06 15:08:18.75	261.02	42.89	-33.4	-34.4	20.4	0.00e+00	0	56	0	2503999488	37	4041
2026-01-06 15:08:22.79	263.08	42.89	-33.8	-34.8	20.0	0.00e+00	0	56	0	2533359616	37	4229
2026-01-06 15:08:26.83	265.14	42.85	-33.9	-34.9	19.9	0.00e+00	0	57	0	2562719744	37	4272
2026-01-06 15:08:30.88	267.20	42.77	-33.9	-34.9	19.9	0.00e+00	0	57	0	2592079872	37	4285
2026-01-06 15:08:34.92	269.23	42.65	-33.8	-34.9	20.0	0.00e+00	0	57	0	2621440000	37	4244
2026-01-06 15:08:38.96	271.25	42.50	-33.8	-34.9	19.9	0.00e+00	0	57	0	2649751552	37	4253
2026-01-06 15:08:43.00	273.25	42.30	-33.9	-34.9	19.9	0.00e+00	0	56	0	2679111680	37	4291
2026-01-06 15:08:47.04	275.22	42.07	-33.9	-34.9	19.9	0.00e+00	0	57	0	2708471808	37	4280
2026-01-06 15:08:51.08	277.17	41.80	-34.0	-35.0	19.8	0.00e+00	0	57	0	2737831936	37	4318
2026-01-06 15:08:55.12	279.08	41.51	-34.1	-35.2	19.6	0.00e+00	0	57	0	2767192064	37	4421
2026-01-06 15:08:59.16	280.95	41.17	-33.6	-34.7	20.1	0.00e+00	0	57	0	2796552192	37	4146
2026-01-06 15:09:03.20	282.78	40.81	-34.2	-35.2	19.6	0.00e+00	0	57	0	2824863744	37	4433
2026-01-06 15:09:07.24	284.57	40.43	-33.6	-34.7	20.0	0.00e+00	0	57	0	2854223872	38	3915
2026-01-06 15:09:11.28	286.32	40.01	-33.6	-34.6	20.2	0.00e+00	0	57	0	2883584000	37	4135
2026-01-06 15:09:15.31	288.02	39.58	-33.6	-34.6	20.2	0.00e+00	0	57	0	2912944128	37	4127
2026-01-06 15:09:19.35	289.67	39.12	-33.6	-34.6	20.2	0.00e+00	0	56	0	2941255680	37	4103
2026-01-06 15:09:23.39	291.28	38.64	-33.7	-34.7	19.8	0.00e+00	0	57	0	2970615808	37	4183
2026-01-06 15:09:27.43	292.85	38.15	-33.9	-34.9	19.9	0.00e+00	0	57	0	2999975936	37	4280
2026-01-06 15:09:31.47	294.36	37.64	-33.7	-34.7	20.0	0.00e+00	0	57	0	3029336064	37	4177
2026-01-06 15:09:35.51	295.83	37.11	-33.7	-34.7	20.0	0.00e+00	0	57	0	3058696192	37	4182
2026-01-06 15:09:39.56	297.26	36.58	-33.6	-34.5	20.2	0.00e+00	0	57	0	3087007744	37	4097
2026-01-06 15:09:43.59	298.63	36.04	-33.6	-34.6	20.2	0.00e+00	0	57	0	3116367872	37	4116
2026-01-06 15:09:47.63	299.96	35.48	-33.2	-34.1	20.6	0.00e+00	0	57	0	3145728000	37	3911
2026-01-06 15:09:51.67	301.25	34.93	-33.8	-34.8	20.0	0.00e+00	0	57	0	3175088128	37	4213
2026-01-06 15:09:55.71	302.50	34.36	-33.8	-34.9	19.9	0.00e+00	0	57	0	3204448256	37	4257
2026-01-06 15:09:59.76	303.70	33.79	-33.5	-34.5	20.2	0.00e+00	0	57	0	3233808384	37	4095
2026-01-06 15:10:03.80	304.87	33.22	-33.4	-34.4	20.3	0.00e+00	0	56	0	3262119936	37	4036
2026-01-06 15:10:07.84	305.99	32.65	-34.0	-35.0	19.7	0.00e+00	0	57	0	3291480064	37	4326
2026-01-06 15:10:11.88	307.07	32.08	-34.0	-35.1	19.7	0.00e+00	0	57	0	3320840192	37	4351
2026-01-06 15:10:15.92	308.12	31.50	-33.6	-34.6	20.1	0.00e+00	0	57	0	3350200320	37	4117
2026-01-06 15:10:19.97	309.13	30.93	-33.7	-34.7	20.0	0.00e+00	0	57	0	3379560448	37	4186
2026-01-06 15:10:24.00	310.11	30.36	-33.9	-35.0	19.8	0.00e+00	0	57	0	3407872000	37	4309
2026-01-06 15:10:28.04	311.05	29.80	-33.9	-34.9	19.8	0.00e+00	0	57	0	3437232128	37	4264
2026-01-06 15:10:32.08	311.96	29.24	-33.8	-34.9	19.8	0.00e+00	0	57	0	3466592256	37	4249
2026-01-06 15:10:36.11	312.84	28.68	-33.9	-35.0	19.7	0.00e+00	0	57	0	3495952384	37	4292
2026-01-06 15:10:40.15	313.70	28.12	-34.0	-35.0	19.7	0.00e+00	0	57	0	3525312512	37	4329
2026-01-06 15:10:44.19	314.52	27.57	-34.1	-35.1	19.6	0.00e+00	0	57	0	3554672640	37	4375
2026-01-06 15:10:48.22	315.31	27.03	-34.1	-35.1	19.4	0.00e+00	0	57	0	3582984192	37	4378
2026-01-06 15:10:52.26	316.08	26.49	-34.1	-35.2	19.5	0.00e+00	0	57	0	3612344320	37	4412
2026-01-06 15:10:56.31	316.83	25.95	-33.8	-34.9	19.8	0.00e+00	0	57	0	3641704448	37	4259
2026-01-06 15:11:00.35	317.55	25.43	-33.5	-34.5	20.1	0.00e+00	0	57	0	3671064576	37	4065
2026-01-06 15:11:04.38	318.25	24.90	-33.7	-34.7	19.9	0.00e+00	0	57	0	3700424704	37	4185
2026-01-06 15:11:08.42	318.93	24.39	-34.3	-35.3	19.3	0.00e+00	0	57	0	3728736256	38	4226
2026-01-06 15:11:12.46	319.58	23.88	-34.4	-35.5	19.1	0.00e+00	0	57	0	3758096384	38	4310
2026-01-06 15:11:16.50	320.22	23.37	-34.1	-35.2	19.4	0.00e+00	0	57	0	3787456512	38	4162
2026-01-06 15:11:20.54	320.83	22.88	-34.0	-35.1	19.5	0.00e+00	0	57	0	3816816640	38	4121
2026-01-06 15:11:24.57	321.43	22.39	-34.2	-35.3	19.3	0.00e+00	0	57	0	3846176768	38	4206
2026-01-06 15:11:28.61	322.00	21.90	-34.5	-35.6	19.0	0.00e+00	0	57	0	3875536896	38	4354
2026-01-06 15:11:32.65	322.57	21.42	-34.6	-35.7	18.8	0.00e+00	0	57	0	3903848448	38	4438
2026-01-06 15:11:36.69	323.11	20.95	-34.4	-35.5	19.0	0.00e+00	0	57	0	3933208576	38	4319
2026-01-06 15:11:40.73	323.64	20.49	-34.4	-35.5	19.0	0.00e+00	0	57	0	3962568704	38	4303
2026-01-06 15:11:44.77	324.16	20.03	-34.6	-35.7	18.8	0.00e+00	0	57	0	3991928832	38	4439
2026-01-06 15:11:48.81	324.66	19.57	-34.9	-36.0	18.5	0.00e+00	0	57	0	4021288960	39	4334
2026-01-06 15:11:52.84	325.14	19.13	-35.0	-36.1	18.4	0.00e+00	0	57	0	4049600512	39	4386
2026-01-06 15:11:56.88	325.61	18.69	-35.0	-36.1	18.4	0.00e+00	0	57	0	4078960640	39	4382
2026-01-06 15:12:00.91	326.07	18.25	-35.0	-36.2	18.3	0.00e+00	0	57	0	4108320768	39	4422
2026-01-06 15:12:04.95	326.52	17.83	-35.1	-36.3	18.2	0.00e+00	0	57	0	4136632320	39	4471
2026-01-06 15:12:08.99	326.95	17.40	-35.2	-36.4	18.1	0.00e+00	0	57	0	4165992448	39	4497
2026-01-06 15:12:13.02	327.38	16.99	-35.2	-36.4	18.0	0.00e+00	0	57	0	4195352576	40	4255
2026-01-06 15:12:17.06	327.79	16.57	-35.2	-36.4	17.9	0.00e+00	0	57	0	4224712704	40	4259
2026-01-06 15:12:21.10	328.19	16.17	-35.4	-36.7	17.7	0.00e+00	0	57	0	4254072832	40	4393
2026-01-06 15:12:25.14	328.58	15.77	-35.5	-36.8	17.5	0.00e+00	0	57	0	4282384384	40	4456
2026-01-06 15:12:29.18	328.97	15.37	-35.8	-37.1	17.2	0.00e+00	0	57	0	4311744512	41	4357
2026-01-06 15:12:33.22	329.34	14.98	-35.8	-37.1	17.1	0.00e+00	0	57	0	4341104640	41	4384
2026-01-06 15:12:37.26	329.70	14.60	-35.8	-37.0	17.2	0.00e+00	0	57	0	4370464768	41	4336
2026-01-06 15:12:41.30	330.06	14.22	-36.1	-37.5	16.7	0.00e+00	0	57	0	4399824896	41	4561
2026-01-06 15:12:45.33	330.40	13.84	-36.1	-37.5	16.7	0.00e+00	0	57	0	4429185024	41	4551
2026-01-06 15:12:49.37	330.74	13.47	-36.3	-37.7	16.4	0.00e+00	0	57	0	4457496576	42	4406
2026-01-06 15:12:53.41	331.07	13.11	-36.4	-37.8	16.3	0.00e+00	0	57	0	4486856704	42	4469
2026-01-06 15:12:57.45	331.39	12.75	-36.4	-37.8	16.3	0.00e+00	0	57	0	4516216832	42	4472
2026-01-06 15:13:01.49	331.71	12.39	-36.6	-38.0	16.0	0.00e+00	0	57	0	4545576960	42	4579
2026-01-06 15:13:05.53	332.02	12.04	-36.6	-38.0	16.0	0.00e+00	0	57	0	4574937088	42	4575
2026-01-06 15:13:09.57	332.32	11.69	-36.6	-38.1	15.9	0.00e+00	0	57	0	4603248640	42	4605
2026-01-06 15:13:13.60	332.61	11.35	-36.6	-38.1	15.8	0.00e+00	0	57	0	4632608768	42	4623
2026-01-06 15:13:17.64	332.90	11.01	-36.5	-38.0	15.9	0.00e+00	0	57	0	4661968896	42	4551
2026-01-06 15:13:21.68	333.18	10.68	-36.8	-38.3	15.6	0.00e+00	0	57	0	4691329024	43	4459
2026-01-06 15:13:25.71	333.46	10.35	-36.8	-38.4	15.4	0.00e+00	0	57	0	4720689152	43	4508
2026-01-06 15:13:29.75	333.73	10.02	-36.9	-38.4	15.4	0.00e+00	0	57	0	4749000704	43	4526
2026-01-06 15:13:33.79	334.00	9.70	-37.0	-38.6	15.1	0.00e+00	0	57	0	4778360832	43	4630
2026-01-06 15:13:37.83	334.26	9.38	-37.2	-38.9	14.8	0.00e+00	0	57	0	4807720960	43	4767
2026-01-06 15:13:41.87	334.51	9.06	-37.3	-38.9	14.9	0.00e+00	0	57	0	4837081088	44	4531
2026-01-06 15:13:45.91	334.76	8.75	-37.3	-38.9	14.8	0.00e+00	0	57	0	4866441216	44	4535
2026-01-06 15:13:49.96	335.01	8.44	-37.4	-39.1	14.6	0.00e+00	0	57	0	4894752768	44	4622
2026-01-06 15:13:53.99	335.25	8.14	-37.4	-39.1	14.5	0.00e+00	0	57	0	4924112896	44	4606
2026-01-06 15:13:58.04	335.48	7.83	-45.2	-55.9	3.8	8.46e-01	0	57	104	4935647232	59	13454
2026-01-06 15:14:02.07	335.71	7.54	-45.5	-56.6	3.8	8.47e-01	0	57	104	4935647232	60	13814
2026-01-06 15:14:06.11	335.94	7.24	-45.5	-56.5	3.8	8.46e-01	0	57	104	4935647232	60	13720
2026-01-06 15:14:10.16	336.16	6.95	-45.4	-56.5	3.8	8.46e-01	0	57	104	4935647232	60	13633
2026-01-06 15:14:14.20	336.38	6.66	-45.4	-56.5	3.8	8.46e-01	0	57	104	4935647232	60	13603
2026-01-06 15:14:18.24	336.60	6.37	-45.4	-56.4	3.8	8.46e-01	0	57	104	4935647232	60	13555
2026-01-06 15:14:22.28	336.81	6.09	-45.4	-56.4	3.8	8.46e-01	0	57	104	4935647232	60	13553
2026-01-06 15:14:26.32	337.01	5.80	-45.4	-56.4	3.8	8.47e-01	0	57	104	4935647232	60	13544
2026-01-06 15:14:30.37	337.22	5.52	-45.4	-56.4	3.8	8.46e-01	0	57	104	4935647232	60	13524
2026-01-06 15:14:34.41	337.42	5.25	-45.4	-56.5	3.8	8.45e-01	0	57	104	4935647232	60	13574
2026-01-06 15:14:38.45	337.61	4.98	-45.4	-56.4	3.8	8.45e-01	0	57	104	4935647232	60	13538
2026-01-06 15:14:42.50	337.81	4.70	-45.4	-56.4	3.8	8.45e-01	0	57	104	4935647232	60	13534
2026-01-06 15:14:46.54	338.00	4.44	-45.4	-56.4	3.8	8.45e-01	0	57	104	4935647232	60	13492
2026-01-06 15:14:50.58	338.19	4.17	-45.4	-56.4	3.8	8.45e-01	0	57	104	4935647232	60	13496
2026-01-06 15:14:54.62	338.37	3.91	-45.4	-56.4	3.8	8.46e-01	0	57	104	4935647232	60	13475
2026-01-06 15:14:58.67	338.55	3.65	-45.4	-56.4	3.8	8.46e-01	0	57	104	4935647232	60	13548
2026-01-06 15:15:02.71	338.73	3.39	-45.4	-56.4	3.8	8.46e-01	0	57	104	4935647232	60	13500
2026-01-06 15:15:06.76	338.91	3.13	-45.4	-56.4	3.8	8.46e-01	0	57	104	4935647232	60	13520
2026-01-06 15:15:10.80	339.08	2.88	-45.3	-56.4	3.8	8.46e-01	0	57	104	4935647232	60	13492
2026-01-06 15:15:14.85	339.25	2.62	-45.3	-56.4	3.8	8.46e-01	0	58	104	4935647232	60	13473
2026-01-06 15:15:18.89	339.42	2.37	-45.3	-56.4	3.8	8.46e-01	0	57	104	4935647232	60	13509
2026-01-06 15:15:22.93	339.58	2.12	-45.3	-56.4	3.8	8.45e-01	0	57	104	4935647232	60	13454
2026-01-06 15:15:26.98	339.75	1.88	-45.3	-56.4	3.8	8.47e-01	0	57	104	4935647232	60	13497

#Closed at: 2026-01-06 15:15:27
#Recorded file [4935 MB]: D:/lorett/data/31039_260106_180122.dat