passes_logs/2026/01/06/R2.0S_Moscow/R2.0S_Moscow__20260106_105457_NOAA_20_JPSS-1_rec.log

#Pass ID: 20260106_105457_NOAA 20 (JPSS-1)
#Satellite: NOAA 20 (JPSS-1)
#Configuration: NOAA 20
#almurnet v.1.7.20251203
#Start time: 2026-01-06 10:54:57

#Version: 2.2.20231116
#Station: R2.0S_Moscow
#Location: 37.707566 lon 55.798166 lat
#TLE: 1 43013U 17073A   26005.46207808  .00000128  00000+0  81791-4 0  9997
#TLE: 2 43013  98.7627 306.5027 0001826  53.0458 307.0885 14.19533487421381

#Time	Az	El	Level	Level2	SNR	BER	BlckErr	Temp	State	Recorded	gain1	gain2
2026-01-06 10:54:57.92	190.25	2.06	-43.8	-58.4	3.8	1.49e+00	0	47	0	0	59	19126
2026-01-06 10:55:01.96	190.44	2.30	-43.8	-58.4	3.8	1.49e+00	0	48	104	0	59	19038
2026-01-06 10:55:06.00	190.64	2.55	-43.8	-58.4	3.8	1.49e+00	0	48	104	0	59	19056
2026-01-06 10:55:10.04	190.84	2.80	-43.8	-58.4	3.8	1.49e+00	0	48	104	0	59	19041
2026-01-06 10:55:14.09	191.04	3.05	-43.8	-58.4	3.8	1.49e+00	0	49	104	0	59	18979
2026-01-06 10:55:18.13	191.25	3.30	-43.8	-58.4	3.8	1.49e+00	0	49	104	0	59	19016
2026-01-06 10:55:22.17	191.46	3.56	-43.7	-58.4	3.8	1.49e+00	0	49	104	0	59	18987
2026-01-06 10:55:26.21	191.67	3.82	-43.7	-58.4	3.8	1.49e+00	0	49	104	0	59	18955
2026-01-06 10:55:30.25	191.89	4.08	-43.7	-58.4	3.8	1.49e+00	0	50	104	0	59	18990
2026-01-06 10:55:34.29	192.11	4.34	-43.7	-58.4	3.8	1.49e+00	0	50	104	0	59	18960
2026-01-06 10:55:38.34	192.34	4.60	-43.7	-58.3	3.8	1.49e+00	0	50	104	0	59	18818
2026-01-06 10:55:42.38	192.56	4.87	-43.7	-58.1	3.8	1.49e+00	0	50	104	0	59	18318
2026-01-06 10:55:46.41	192.80	5.14	-43.7	-57.5	3.8	1.49e+00	0	50	104	0	59	17223
2026-01-06 10:55:50.45	193.03	5.41	-43.7	-57.4	3.8	1.49e+00	0	50	104	0	59	16912
2026-01-06 10:55:54.49	193.27	5.68	-43.7	-57.8	3.8	1.49e+00	0	51	104	0	59	17759
2026-01-06 10:55:58.53	193.52	5.96	-43.7	-57.9	3.8	1.49e+00	0	51	104	0	59	18046
2026-01-06 10:56:02.57	193.77	6.24	-43.7	-57.7	3.8	1.49e+00	0	51	104	0	59	17502
2026-01-06 10:56:06.62	194.02	6.52	-43.6	-57.2	3.8	1.49e+00	0	51	104	0	59	16574
2026-01-06 10:56:10.66	194.28	6.80	-43.5	-55.1	4.1	1.46e+00	0	51	0	0	59	13016
2026-01-06 10:56:14.70	194.55	7.09	-43.0	-51.2	6.0	4.16e-01	0	52	0	5242880	58	8779
2026-01-06 10:56:18.74	194.82	7.38	-42.2	-47.9	9.1	2.95e-02	0	52	0	12582912	56	6747
2026-01-06 10:56:22.79	195.09	7.67	-41.3	-45.8	11.2	2.67e-03	0	52	0	20971520	54	5963
2026-01-06 10:56:26.83	195.37	7.97	-41.2	-45.6	11.4	1.08e-03	0	52	0	28311552	54	5805
2026-01-06 10:56:30.87	195.65	8.27	-42.7	-50.4	6.9	3.58e-03	0	52	0	35651584	55	9502
2026-01-06 10:56:34.91	195.95	8.57	-41.4	-45.5	11.8	2.98e-04	0	52	0	42991616	54	5761
2026-01-06 10:56:38.95	196.24	8.87	-40.9	-45.1	11.7	6.44e-04	0	52	0	50331648	53	5816
2026-01-06 10:56:42.99	196.54	9.18	-40.3	-44.9	10.8	2.74e-03	0	53	0	57671680	52	6016
2026-01-06 10:56:47.03	196.85	9.49	-39.8	-44.7	10.0	7.24e-03	0	53	0	65011712	51	6244
2026-01-06 10:56:51.06	197.17	9.80	-39.9	-44.5	10.6	3.37e-03	0	53	0	73400320	51	6114
2026-01-06 10:56:55.10	197.49	10.12	-40.4	-44.3	12.3	3.72e-04	0	53	0	80740352	51	5938
2026-01-06 10:56:59.13	197.82	10.44	-40.6	-44.1	13.0	3.96e-05	0	53	0	88080384	51	5854
2026-01-06 10:57:03.17	198.15	10.76	-40.4	-43.9	13.0	5.18e-05	0	53	0	95420416	51	5660
2026-01-06 10:57:07.21	198.49	11.09	-40.4	-43.7	13.2	2.82e-05	0	53	0	103809024	51	5591
2026-01-06 10:57:11.24	198.84	11.42	-40.3	-43.5	13.8	7.60e-06	0	53	0	111149056	51	5432
2026-01-06 10:57:15.28	199.20	11.75	-40.3	-43.5	13.9	3.00e-06	0	53	0	118489088	51	5442
2026-01-06 10:57:19.32	199.57	12.09	-39.9	-43.4	13.6	6.80e-06	0	53	0	125829120	51	5348
2026-01-06 10:57:23.35	199.94	12.43	-39.9	-43.4	13.4	1.44e-05	0	54	0	133169152	51	5394
2026-01-06 10:57:27.38	200.32	12.77	-40.1	-43.3	13.9	5.30e-06	0	54	0	141557760	51	5289
2026-01-06 10:57:31.42	200.71	13.12	-40.3	-43.5	13.8	3.00e-06	0	54	0	148897792	51	5447
2026-01-06 10:57:35.46	201.11	13.47	-40.1	-43.1	14.3	0.00e+00	0	54	0	156237824	51	5174
2026-01-06 10:57:39.50	201.52	13.83	-40.2	-43.1	14.6	0.00e+00	0	54	0	163577856	51	5187
2026-01-06 10:57:43.53	201.94	14.19	-40.2	-42.9	15.0	0.00e+00	0	54	0	171966464	51	5044
2026-01-06 10:57:47.57	202.37	14.55	-40.2	-42.9	15.0	0.00e+00	0	54	0	179306496	51	5095
2026-01-06 10:57:51.61	202.81	14.92	-40.2	-42.8	15.3	0.00e+00	0	54	0	186646528	51	5005
2026-01-06 10:57:55.64	203.25	15.29	-40.1	-42.7	15.5	0.00e+00	0	54	0	193986560	51	4948
2026-01-06 10:57:59.69	203.72	15.67	-40.0	-42.5	15.6	0.00e+00	0	54	0	201326592	51	4865
2026-01-06 10:58:03.72	204.19	16.05	-40.0	-42.4	15.7	0.00e+00	0	54	0	209715200	51	4814
2026-01-06 10:58:07.76	204.67	16.43	-40.1	-42.6	15.6	0.00e+00	0	55	0	217055232	51	4920
2026-01-06 10:58:11.80	205.17	16.82	-40.3	-43.0	15.2	0.00e+00	0	54	0	224395264	51	5107
2026-01-06 10:58:15.84	205.68	17.22	-40.3	-42.9	15.3	0.00e+00	0	54	0	231735296	51	5083
2026-01-06 10:58:19.88	206.20	17.61	-40.4	-43.1	15.2	0.00e+00	0	55	0	240123904	51	5167
2026-01-06 10:58:23.91	206.73	18.02	-40.5	-43.2	15.0	7.00e-07	0	55	0	247463936	51	5278
2026-01-06 10:58:27.95	207.28	18.42	-40.6	-43.3	14.9	0.00e+00	0	55	0	254803968	51	5328
2026-01-06 10:58:31.98	207.85	18.83	-40.6	-43.4	14.9	7.00e-07	0	55	0	262144000	51	5369
2026-01-06 10:58:36.02	208.42	19.24	-40.7	-43.5	14.7	0.00e+00	0	55	0	269484032	52	5122
2026-01-06 10:58:40.06	209.02	19.66	-40.9	-43.8	14.4	0.00e+00	0	55	0	277872640	52	5333
2026-01-06 10:58:44.10	209.63	20.09	-40.9	-43.8	14.4	0.00e+00	0	55	0	285212672	52	5315
2026-01-06 10:58:48.14	210.26	20.51	-40.7	-43.5	14.7	7.00e-07	0	55	0	292552704	52	5156
2026-01-06 10:58:52.18	210.90	20.94	-40.7	-43.4	14.8	7.00e-07	0	55	0	299892736	52	5094
2026-01-06 10:58:56.21	211.56	21.37	-40.8	-43.7	14.6	0.00e+00	0	55	0	307232768	52	5219
2026-01-06 10:59:00.25	212.24	21.81	-40.7	-43.6	14.7	0.00e+00	0	55	0	315621376	52	5173
2026-01-06 10:59:04.29	212.94	22.25	-40.8	-43.7	14.6	0.00e+00	0	55	0	322961408	52	5255
2026-01-06 10:59:08.33	213.66	22.70	-40.8	-43.6	14.7	7.00e-07	0	55	0	330301440	52	5218
2026-01-06 10:59:12.37	214.40	23.14	-40.7	-43.5	14.8	1.50e-06	0	55	0	337641472	52	5141
2026-01-06 10:59:16.40	215.16	23.59	-40.7	-43.4	14.9	0.00e+00	0	55	0	346030080	52	5100
2026-01-06 10:59:20.44	215.94	24.05	-40.6	-43.3	15.0	0.00e+00	0	55	0	353370112	52	5023
2026-01-06 10:59:24.48	216.75	24.50	-40.3	-42.8	15.5	0.00e+00	0	55	0	360710144	52	4746
2026-01-06 10:59:28.52	217.58	24.96	-40.0	-42.4	16.0	0.00e+00	0	55	0	368050176	52	4520
2026-01-06 10:59:32.56	218.43	25.42	-40.0	-42.4	16.0	0.00e+00	0	55	0	375390208	51	4780
2026-01-06 10:59:36.60	219.30	25.88	-40.0	-42.4	16.1	0.00e+00	0	55	0	383778816	51	4762
2026-01-06 10:59:40.63	220.20	26.33	-39.9	-42.3	16.1	0.00e+00	0	55	0	391118848	51	4726
2026-01-06 10:59:44.67	221.13	26.80	-40.1	-42.6	15.9	0.00e+00	0	55	0	398458880	51	4881
2026-01-06 10:59:48.71	222.08	27.26	-40.4	-43.0	15.5	0.00e+00	0	55	0	405798912	51	5134
2026-01-06 10:59:52.75	223.07	27.72	-40.5	-43.1	15.4	0.00e+00	0	55	0	414187520	51	5197
2026-01-06 10:59:56.79	224.08	28.17	-40.6	-43.2	15.3	0.00e+00	0	55	0	421527552	51	5242
2026-01-06 11:00:00.82	225.11	28.63	-40.8	-43.7	14.8	7.00e-07	0	55	0	428867584	52	5222
2026-01-06 11:00:04.86	226.18	29.08	-41.3	-44.4	13.9	1.50e-06	0	55	0	436207616	53	5385
2026-01-06 11:00:08.90	227.27	29.53	-41.5	-44.8	13.6	1.14e-05	0	56	0	443547648	53	5624
2026-01-06 11:00:12.94	228.40	29.98	-41.6	-44.9	13.5	8.30e-06	0	56	0	451936256	53	5668
2026-01-06 11:00:16.98	229.56	30.41	-42.4	-46.5	11.8	2.66e-04	0	55	0	459276288	55	6117
2026-01-06 11:00:21.02	230.75	30.85	-43.2	-48.1	10.3	4.97e-03	0	56	0	466616320	56	6935
2026-01-06 11:00:25.05	231.96	31.27	-43.3	-48.4	10.0	9.44e-03	0	56	0	473956352	57	6796
2026-01-06 11:00:29.09	233.22	31.69	-43.4	-48.7	9.6	1.15e-02	0	55	0	482344960	57	7014
2026-01-06 11:00:33.13	234.50	32.10	-43.0	-47.7	10.7	3.21e-03	0	56	0	489684992	57	6264
2026-01-06 11:00:37.17	235.81	32.50	-43.1	-48.0	10.5	4.55e-03	0	56	0	497025024	57	6437
2026-01-06 11:00:41.21	237.16	32.88	-42.9	-47.3	11.2	1.61e-03	0	56	0	504365056	57	5943
2026-01-06 11:00:45.25	238.54	33.25	-42.5	-46.4	12.1	3.27e-04	0	56	0	511705088	56	5721
2026-01-06 11:00:49.29	239.95	33.61	-42.0	-45.5	13.0	4.88e-05	0	56	0	520093696	56	5127
2026-01-06 11:00:53.33	241.38	33.96	-41.9	-45.4	13.0	3.12e-05	0	56	0	527433728	55	5379
2026-01-06 11:00:57.37	242.85	34.28	-41.1	-44.1	14.3	1.50e-06	0	55	0	534773760	54	4900
2026-01-06 11:01:01.41	244.35	34.59	-41.1	-44.0	14.4	1.50e-06	0	56	0	542113792	54	4840
2026-01-06 11:01:05.45	245.87	34.88	-41.2	-44.2	14.2	7.00e-07	0	56	0	550502400	53	5256
2026-01-06 11:01:09.49	247.42	35.15	-41.7	-45.0	13.4	1.90e-05	0	55	0	557842432	53	5779
2026-01-06 11:01:13.53	248.99	35.40	-41.7	-45.0	13.4	3.28e-05	0	56	0	565182464	54	5449
2026-01-06 11:01:17.56	250.59	35.63	-41.6	-44.8	13.6	5.30e-06	0	56	0	572522496	54	5337
2026-01-06 11:01:21.60	252.20	35.83	-41.1	-44.0	14.4	2.20e-06	0	56	0	579862528	54	4857
2026-01-06 11:01:25.64	253.84	36.01	-40.6	-43.2	15.3	7.00e-07	0	56	0	588251136	53	4679
2026-01-06 11:01:29.68	255.49	36.16	-40.7	-43.4	15.1	0.00e+00	0	56	0	595591168	53	4783
2026-01-06 11:01:33.71	257.15	36.29	-41.7	-45.0	13.4	6.10e-06	0	56	0	602931200	53	5778
2026-01-06 11:01:37.75	258.83	36.39	-41.8	-45.3	13.1	5.87e-05	0	56	0	610271232	55	5289
2026-01-06 11:01:41.79	260.52	36.47	-42.0	-45.7	12.7	7.01e-05	0	56	0	618659840	55	5573
2026-01-06 11:01:45.82	262.21	36.52	-42.2	-45.9	12.5	1.01e-04	0	56	0	625999872	55	5718
2026-01-06 11:01:49.86	263.90	36.54	-41.9	-45.3	13.1	5.03e-05	0	56	0	633339904	55	5335
2026-01-06 11:01:53.90	265.60	36.53	-42.0	-45.6	12.8	7.24e-05	0	56	0	640679936	55	5518
2026-01-06 11:01:57.94	267.29	36.49	-41.4	-44.5	14.0	3.80e-06	0	56	0	648019968	54	5127
2026-01-06 11:02:01.98	268.98	36.43	-41.4	-44.5	13.9	8.30e-06	0	56	0	656408576	54	5159
2026-01-06 11:02:06.01	270.66	36.34	-41.0	-43.9	14.6	2.20e-06	0	56	0	663748608	53	5058
2026-01-06 11:02:10.05	272.32	36.23	-41.5	-44.7	13.8	8.30e-06	0	56	0	671088640	53	5544
2026-01-06 11:02:14.09	273.98	36.08	-41.4	-44.6	13.8	0.00e+00	0	56	0	678428672	53	5504
2026-01-06 11:02:18.12	275.62	35.92	-42.2	-46.1	12.3	1.30e-04	0	56	0	686817280	55	5813
2026-01-06 11:02:22.17	277.24	35.72	-43.0	-47.6	10.9	1.85e-03	0	56	0	694157312	56	6495
2026-01-06 11:02:26.21	278.85	35.51	-42.3	-46.1	12.5	1.11e-04	0	56	0	701497344	56	5467
2026-01-06 11:02:30.24	280.42	35.27	-42.1	-45.7	13.0	6.79e-05	0	56	0	708837376	56	5232
2026-01-06 11:02:34.28	281.98	35.01	-42.3	-46.1	12.5	1.40e-04	0	56	0	716177408	56	5471
2026-01-06 11:02:38.32	283.51	34.73	-41.3	-44.4	14.1	3.00e-06	0	56	0	724566016	54	5072
2026-01-06 11:02:42.36	285.02	34.43	-41.5	-44.7	13.7	1.29e-05	0	56	0	731906048	54	5270
2026-01-06 11:02:46.40	286.49	34.11	-41.1	-44.0	14.5	1.50e-06	0	56	0	739246080	54	4819
2026-01-06 11:02:50.44	287.94	33.78	-41.1	-44.1	14.4	7.00e-07	0	56	0	746586112	53	5174
2026-01-06 11:02:54.48	289.36	33.43	-41.6	-44.9	13.5	1.22e-05	0	56	0	754974720	54	5365
2026-01-06 11:02:58.52	290.75	33.06	-41.4	-44.6	13.8	3.00e-06	0	56	0	762314752	54	5184
2026-01-06 11:03:02.56	292.10	32.68	-41.1	-44.0	14.4	0.00e+00	0	56	0	769654784	54	4864
2026-01-06 11:03:06.60	293.43	32.29	-41.7	-45.2	13.2	2.05e-05	0	56	0	776994816	54	5533
2026-01-06 11:03:10.63	294.72	31.89	-42.1	-45.9	12.5	4.27e-05	0	56	0	784334848	54	5997
2026-01-06 11:03:14.67	295.98	31.48	-42.1	-45.6	12.9	2.10e-04	0	56	0	792723456	56	5214
2026-01-06 11:03:18.71	297.21	31.06	-41.9	-45.4	13.0	2.05e-05	0	56	0	800063488	54	5707
2026-01-06 11:03:22.75	298.41	30.64	-41.3	-44.3	14.0	3.00e-06	0	56	0	807403520	54	5036
2026-01-06 11:03:26.79	299.57	30.20	-42.3	-46.2	12.1	1.88e-04	0	56	0	814743552	55	5888
2026-01-06 11:03:30.83	300.71	29.76	-41.4	-44.7	13.8	3.00e-06	0	56	0	823132160	54	5220
2026-01-06 11:03:34.87	301.82	29.32	-42.1	-45.9	12.3	8.55e-04	0	56	0	830472192	55	5718
2026-01-06 11:03:38.91	302.89	28.87	-41.1	-44.2	14.2	2.20e-06	0	56	0	837812224	53	5223
2026-01-06 11:03:42.94	303.94	28.42	-41.5	-44.7	13.6	1.52e-05	0	56	0	845152256	54	5250
2026-01-06 11:03:46.98	304.96	27.97	-42.0	-45.7	12.6	2.59e-05	0	56	0	852492288	54	5914
2026-01-06 11:03:51.02	305.95	27.51	-41.4	-44.6	13.7	4.57e-05	0	56	0	860880896	54	5211
2026-01-06 11:03:55.06	306.91	27.05	-41.8	-45.4	12.9	3.05e-05	0	56	0	868220928	54	5703
2026-01-06 11:03:59.10	307.84	26.60	-40.8	-43.7	14.6	7.00e-07	0	56	0	875560960	53	4964
2026-01-06 11:04:03.14	308.76	26.14	-41.3	-44.4	13.9	1.50e-06	0	56	0	882900992	53	5402
2026-01-06 11:04:07.18	309.64	25.68	-41.3	-44.4	13.9	5.30e-06	0	56	0	891289600	53	5384
2026-01-06 11:04:11.21	310.50	25.23	-41.1	-44.1	14.2	7.00e-07	0	56	0	898629632	53	5182
2026-01-06 11:04:15.25	311.33	24.77	-40.3	-42.9	15.4	0.00e+00	0	56	0	905969664	52	4769
2026-01-06 11:04:19.29	312.15	24.32	-39.6	-41.8	16.5	0.00e+00	0	56	0	913309696	51	4482
2026-01-06 11:04:23.32	312.94	23.87	-39.8	-42.2	16.2	0.00e+00	0	56	0	920649728	51	4673
2026-01-06 11:04:27.36	313.70	23.43	-39.2	-41.3	17.0	0.00e+00	0	56	0	929038336	50	4475
2026-01-06 11:04:31.40	314.45	22.98	-39.6	-41.9	16.4	0.00e+00	0	56	0	936378368	50	4803
2026-01-06 11:04:35.44	315.18	22.54	-39.0	-41.0	17.3	0.00e+00	0	56	0	943718400	50	4328
2026-01-06 11:04:39.47	315.89	22.10	-38.8	-40.8	17.5	0.00e+00	0	56	0	951058432	49	4470
2026-01-06 11:04:43.51	316.57	21.67	-39.4	-41.6	16.7	0.00e+00	0	56	0	958398464	49	4874
2026-01-06 11:04:47.55	317.24	21.23	-38.9	-41.0	17.3	0.00e+00	0	56	0	966787072	49	4563
2026-01-06 11:04:51.59	317.89	20.80	-39.2	-41.3	17.0	0.00e+00	0	56	0	974127104	49	4711
2026-01-06 11:04:55.63	318.53	20.38	-39.8	-42.2	16.1	0.00e+00	0	56	0	981467136	50	4972
2026-01-06 11:04:59.67	319.15	19.96	-39.8	-42.1	16.2	0.00e+00	0	56	0	988807168	50	4899
2026-01-06 11:05:03.71	319.75	19.54	-39.6	-41.9	16.4	0.00e+00	0	56	0	997195776	50	4769
2026-01-06 11:05:07.75	320.33	19.13	-39.7	-42.1	16.2	0.00e+00	0	56	0	1004535808	50	4871
2026-01-06 11:05:11.79	320.91	18.72	-39.7	-42.0	16.2	0.00e+00	0	56	0	1011875840	50	4868
2026-01-06 11:05:15.83	321.46	18.32	-39.8	-42.2	15.9	0.00e+00	0	56	0	1019215872	50	4974
2026-01-06 11:05:19.86	322.00	17.92	-40.2	-42.8	15.4	0.00e+00	0	56	0	1026555904	51	5014
2026-01-06 11:05:23.90	322.53	17.52	-40.1	-42.7	15.4	0.00e+00	0	56	0	1034944512	51	4956
2026-01-06 11:05:27.94	323.05	17.13	-40.6	-43.6	14.4	0.00e+00	0	56	0	1042284544	52	5176
2026-01-06 11:05:31.97	323.55	16.74	-41.0	-44.2	13.8	7.60e-06	0	56	0	1049624576	52	5576
2026-01-06 11:05:36.01	324.04	16.36	-40.6	-43.5	14.5	7.00e-07	0	56	0	1056964608	52	5132
2026-01-06 11:05:40.05	324.52	15.98	-40.3	-43.0	15.0	0.00e+00	0	56	0	1065353216	52	4835
2026-01-06 11:05:44.09	324.98	15.60	-40.6	-43.6	14.3	7.00e-07	0	56	0	1072693248	52	5195
2026-01-06 11:05:48.12	325.44	15.23	-40.7	-43.8	14.1	2.20e-06	0	56	0	1080033280	52	5300
2026-01-06 11:05:52.15	325.88	14.87	-40.3	-43.1	14.8	0.00e+00	0	56	0	1087373312	52	4907
2026-01-06 11:05:56.19	326.32	14.50	-40.3	-43.1	14.8	0.00e+00	0	56	0	1094713344	52	4907
2026-01-06 11:06:00.23	326.74	14.14	-40.7	-43.7	14.2	7.00e-07	0	56	0	1103101952	52	5261
2026-01-06 11:06:04.26	327.16	13.79	-40.9	-44.1	13.7	9.10e-06	0	56	0	1110441984	52	5521
2026-01-06 11:06:08.30	327.56	13.44	-40.7	-43.8	14.1	7.00e-07	0	56	0	1117782016	52	5281
2026-01-06 11:06:12.34	327.96	13.09	-40.2	-43.0	14.9	0.00e+00	0	56	0	1125122048	52	4828
2026-01-06 11:06:16.38	328.35	12.74	-40.3	-43.2	14.6	0.00e+00	0	56	0	1133510656	52	4946
2026-01-06 11:06:20.41	328.73	12.40	-40.3	-43.2	14.6	0.00e+00	0	56	0	1140850688	52	4965
2026-01-06 11:06:24.45	329.10	12.07	-40.6	-43.7	14.1	1.50e-06	0	56	0	1148190720	52	5235
2026-01-06 11:06:28.49	329.46	11.73	-40.6	-43.8	13.9	3.00e-06	0	56	0	1155530752	52	5308
2026-01-06 11:06:32.52	329.82	11.41	-40.4	-43.3	14.4	7.00e-07	0	56	0	1162870784	52	5034
2026-01-06 11:06:36.56	330.16	11.08	-40.2	-43.1	14.5	7.00e-07	0	56	0	1171259392	52	4922
2026-01-06 11:06:40.59	330.50	10.76	-40.4	-43.4	14.2	7.00e-07	0	56	0	1178599424	52	5084
2026-01-06 11:06:44.63	330.84	10.44	-40.6	-43.7	13.9	5.30e-06	0	56	0	1185939456	52	5275
2026-01-06 11:06:48.66	331.16	10.12	-40.8	-44.2	13.3	1.44e-05	0	56	0	1193279488	52	5565
2026-01-06 11:06:52.70	331.49	9.81	-40.7	-43.9	13.5	1.37e-05	0	56	0	1200619520	52	5401
2026-01-06 11:06:56.74	331.80	9.50	-40.6	-43.8	13.7	8.30e-06	0	56	0	1209008128	52	5291
2026-01-06 11:07:00.77	332.11	9.20	-40.4	-43.6	13.9	1.50e-06	0	56	0	1216348160	52	5169
2026-01-06 11:07:04.81	332.41	8.89	-40.5	-43.8	13.6	8.30e-06	0	56	0	1223688192	52	5335
2026-01-06 11:07:08.85	332.71	8.59	-40.7	-44.1	13.2	1.67e-05	0	56	0	1231028224	52	5498
2026-01-06 11:07:12.89	333.00	8.29	-40.8	-44.4	12.8	4.34e-05	0	57	0	1239416832	52	5713
2026-01-06 11:07:16.92	333.28	8.00	-44.1	-56.7	3.8	8.25e-01	0	56	104	1245708288	58	16618
2026-01-06 11:07:20.97	333.56	7.71	-45.1	-59.8	3.8	1.49e+00	0	56	104	1245708288	60	21246
2026-01-06 11:07:25.01	333.84	7.42	-45.2	-60.0	3.8	1.49e+00	0	56	104	1245708288	61	20446
2026-01-06 11:07:29.05	334.11	7.13	-45.2	-60.0	3.8	1.49e+00	0	56	104	1245708288	60	21651
2026-01-06 11:07:33.09	334.37	6.85	-45.1	-60.0	3.8	1.49e+00	0	56	104	1245708288	60	21543
2026-01-06 11:07:37.12	334.63	6.57	-45.1	-59.9	3.8	1.49e+00	0	56	104	1245708288	60	21496
2026-01-06 11:07:41.16	334.89	6.29	-45.1	-59.9	3.8	1.49e+00	0	57	104	1245708288	60	21427
2026-01-06 11:07:45.21	335.14	6.02	-45.1	-60.0	3.8	1.49e+00	0	56	104	1245708288	60	21509
2026-01-06 11:07:49.25	335.38	5.74	-45.1	-59.9	3.8	1.49e+00	0	57	104	1245708288	60	21383
2026-01-06 11:07:53.29	335.63	5.47	-45.1	-59.9	3.8	1.49e+00	0	56	104	1245708288	60	21439
2026-01-06 11:07:57.33	335.87	5.20	-45.1	-59.9	3.8	1.49e+00	0	57	104	1245708288	60	21428
2026-01-06 11:08:01.37	336.10	4.94	-45.1	-59.9	3.8	1.49e+00	0	56	104	1245708288	60	21440
2026-01-06 11:08:05.41	336.33	4.68	-44.9	-59.9	3.8	1.49e+00	0	56	104	1245708288	60	21405
2026-01-06 11:08:09.45	336.56	4.41	-44.8	-59.9	3.8	1.49e+00	0	56	104	1245708288	60	21454
2026-01-06 11:08:13.49	336.78	4.15	-45.1	-59.9	3.8	1.49e+00	0	57	104	1245708288	60	21315
2026-01-06 11:08:17.54	337.00	3.90	-45.1	-59.9	3.8	1.49e+00	0	57	104	1245708288	60	21406
2026-01-06 11:08:21.58	337.22	3.64	-45.1	-59.9	3.8	1.49e+00	0	57	104	1245708288	60	21455
2026-01-06 11:08:25.61	337.43	3.39	-45.1	-59.9	3.8	1.49e+00	0	57	104	1245708288	60	21379
2026-01-06 11:08:29.66	337.64	3.14	-45.1	-59.9	3.8	1.49e+00	0	57	104	1245708288	60	21306
2026-01-06 11:08:33.70	337.85	2.89	-45.1	-59.9	3.8	1.49e+00	0	56	104	1245708288	60	21351
2026-01-06 11:08:37.74	338.05	2.64	-45.0	-59.9	3.8	1.49e+00	0	57	104	1245708288	60	21351
2026-01-06 11:08:41.78	338.25	2.40	-45.1	-59.9	3.8	1.49e+00	0	57	104	1245708288	60	21290
2026-01-06 11:08:45.83	338.45	2.15	-45.1	-59.9	3.8	1.49e+00	0	57	104	1245708288	60	21361

#Closed at: 2026-01-06 11:08:48
#Recorded file [1245 MB]: D:/lorett/data/31039_260106_135457.dat