passes_logs/2026/01/06/R2.0S_Moscow/R2.0S_Moscow__20260106_085406_SUOMI_NPP_rec.log

#Pass ID: 20260106_085406_SUOMI NPP
#Satellite: SUOMI NPP
#Configuration: NPP
#almurnet v.1.7.20251203
#Start time: 2026-01-06 08:54:08

#Version: 2.2.20231116
#Station: R2.0S_Moscow
#Location: 37.707566 lon 55.798166 lat
#TLE: 1 37849U 11061A   26004.95404768  .00000136  00000+0  85334-4 0  9991
#TLE: 2 37849  98.7801 307.0898 0002575  80.6707 279.4760 14.19522289735281

#Time	Az	El	Level	Level2	SNR	BER	BlckErr	Temp	State	Recorded	gain1	gain2
2026-01-06 08:54:08.44	128.74	2.13	-28.5	-47.8	3.8	1.51e+00	0	46	0	0	29	31653
2026-01-06 08:54:12.47	128.56	2.37	-37.5	-55.1	3.9	1.49e+00	0	47	104	0	51	20713
2026-01-06 08:54:16.51	128.37	2.62	-29.5	-47.5	3.6	1.51e+00	0	47	104	0	31	27367
2026-01-06 08:54:20.56	128.18	2.88	-40.8	-56.6	4.0	1.50e+00	0	48	104	0	51	24565
2026-01-06 08:54:24.60	127.99	3.13	-35.9	-52.3	3.8	1.50e+00	0	48	104	0	47	18776
2026-01-06 08:54:28.64	127.79	3.39	-38.9	-54.6	4.2	1.50e+00	0	48	104	0	46	26116
2026-01-06 08:54:32.69	127.59	3.64	-38.8	-55.1	3.8	1.50e+00	0	48	104	0	51	20753
2026-01-06 08:54:36.73	127.39	3.90	-41.3	-56.9	3.7	1.50e+00	0	49	104	0	50	26907
2026-01-06 08:54:40.77	127.18	4.17	-40.4	-56.4	4.0	1.50e+00	0	49	104	0	52	22691
2026-01-06 08:54:44.81	126.97	4.43	-39.6	-55.4	4.0	1.50e+00	0	49	104	0	49	24039
2026-01-06 08:54:48.85	126.76	4.70	-39.4	-56.0	3.8	1.49e+00	0	49	104	0	51	22851
2026-01-06 08:54:52.90	126.54	4.97	-39.1	-55.8	4.2	1.51e+00	0	49	104	0	45	31780
2026-01-06 08:54:56.94	126.31	5.24	-39.8	-56.1	4.0	1.50e+00	0	50	104	0	50	24421
2026-01-06 08:55:00.98	126.09	5.51	-33.6	-52.3	4.0	1.49e+00	0	50	104	0	41	26722
2026-01-06 08:55:05.02	125.85	5.79	-40.6	-56.1	3.6	1.49e+00	0	50	104	0	50	24596
2026-01-06 08:55:09.06	125.62	6.07	-39.8	-55.5	3.6	1.50e+00	0	50	104	0	49	24276
2026-01-06 08:55:13.10	125.38	6.35	-35.9	-54.4	4.1	1.50e+00	0	51	0	0	42	31885
2026-01-06 08:55:17.14	125.13	6.63	-38.8	-53.8	4.1	1.50e+00	0	51	104	0	47	22356
2026-01-06 08:55:21.18	124.88	6.92	-40.2	-55.8	3.8	1.49e+00	0	51	104	0	51	22383
2026-01-06 08:55:25.23	124.62	7.21	-40.7	-56.0	3.8	1.50e+00	0	51	104	0	51	22897
2026-01-06 08:55:29.27	124.36	7.50	-37.8	-52.1	4.3	1.48e+00	0	51	104	0	49	16363
2026-01-06 08:55:33.31	124.09	7.79	-39.9	-49.4	5.8	5.93e-01	0	51	0	5242880	49	11987
2026-01-06 08:55:37.36	123.81	8.09	-38.5	-52.0	4.6	3.86e-01	0	51	0	12582912	47	18155
2026-01-06 08:55:41.39	123.54	8.39	-36.5	-45.2	7.8	1.01e+00	0	52	0	15728640	46	8822
2026-01-06 08:55:45.43	123.25	8.69	-37.7	-47.0	7.2	1.43e-01	0	52	0	23068672	49	9100
2026-01-06 08:55:49.47	122.96	9.00	-40.2	-45.0	10.9	3.11e-02	0	52	0	30408704	51	6449
2026-01-06 08:55:53.51	122.66	9.31	-38.0	-45.9	9.0	7.34e-02	0	52	0	37748736	51	7146
2026-01-06 08:55:57.55	122.35	9.62	-40.6	-49.6	6.0	3.67e-01	0	52	0	45088768	52	10315
2026-01-06 08:56:01.59	122.04	9.94	-40.3	-50.0	6.1	4.27e-01	0	52	0	52428800	50	12211
2026-01-06 08:56:05.62	121.72	10.26	-37.7	-46.8	7.3	9.47e-02	0	52	0	59768832	46	10632
2026-01-06 08:56:09.66	121.40	10.58	-37.8	-44.0	11.2	7.75e-02	0	53	0	68157440	47	7282
2026-01-06 08:56:13.70	121.07	10.90	-36.3	-43.7	10.1	1.13e-01	0	53	0	75497472	46	7425
2026-01-06 08:56:17.74	120.72	11.23	-38.4	-44.7	10.1	6.33e-02	0	53	0	82837504	47	7869
2026-01-06 08:56:21.78	120.37	11.56	-37.6	-43.7	11.6	2.89e-02	0	53	0	90177536	47	6980
2026-01-06 08:56:25.83	120.02	11.90	-38.0	-43.7	12.4	1.74e-02	0	53	0	97517568	49	6214
2026-01-06 08:56:29.86	119.65	12.24	-38.7	-43.5	12.4	1.65e-02	0	53	0	105906176	47	6854
2026-01-06 08:56:33.90	119.28	12.58	-37.6	-42.8	10.1	1.00e-01	0	53	0	113246208	34	13311
2026-01-06 08:56:37.95	118.89	12.93	-37.1	-43.5	12.8	1.99e-02	0	53	0	120586240	49	6110
2026-01-06 08:56:41.99	118.50	13.28	-39.6	-43.1	14.0	4.29e-03	0	53	0	127926272	50	5523
2026-01-06 08:56:46.03	118.10	13.63	-39.6	-43.3	13.6	4.98e-03	0	53	0	136314880	50	5625
2026-01-06 08:56:50.07	117.68	13.99	-39.3	-42.9	14.5	4.18e-03	0	53	0	143654912	50	5383
2026-01-06 08:56:54.11	117.26	14.35	-40.0	-43.1	14.3	6.30e-03	0	54	0	150994944	51	5216
2026-01-06 08:56:58.15	116.82	14.72	-39.9	-42.6	14.9	3.05e-05	0	54	0	158334976	50	5168
2026-01-06 08:57:02.19	116.38	15.09	-40.3	-44.0	13.3	3.13e-04	0	54	0	165675008	51	5780
2026-01-06 08:57:06.23	115.92	15.46	-40.0	-42.7	15.0	9.68e-05	0	54	0	174063616	50	5224
2026-01-06 08:57:10.26	115.46	15.84	-40.4	-44.0	13.5	1.01e-04	0	54	0	181403648	52	5411
2026-01-06 08:57:14.30	114.98	16.22	-40.0	-42.9	14.9	5.03e-05	0	54	0	188743680	51	5051
2026-01-06 08:57:18.34	114.48	16.60	-40.3	-43.5	14.3	1.75e-05	0	54	0	196083712	51	5439
2026-01-06 08:57:22.38	113.98	16.99	-40.1	-42.7	15.1	2.20e-06	0	54	0	204472320	51	4978
2026-01-06 08:57:26.42	113.46	17.38	-40.3	-43.0	14.9	0.00e+00	0	54	0	211812352	51	5126
2026-01-06 08:57:30.46	112.92	17.78	-40.4	-43.1	14.7	0.00e+00	0	54	0	219152384	51	5213
2026-01-06 08:57:34.50	112.37	18.18	-40.8	-43.8	14.0	3.00e-06	0	54	0	226492416	52	5340
2026-01-06 08:57:38.54	111.81	18.58	-41.1	-44.4	13.4	9.10e-06	0	54	0	233832448	52	5706
2026-01-06 08:57:42.58	111.23	18.99	-40.5	-43.3	14.5	0.00e+00	0	55	0	242221056	52	5035
2026-01-06 08:57:46.62	110.64	19.40	-40.8	-43.9	14.0	3.00e-06	0	54	0	249561088	52	5342
2026-01-06 08:57:50.65	110.03	19.81	-40.1	-42.7	15.3	0.00e+00	0	54	0	256901120	51	4933
2026-01-06 08:57:54.69	109.40	20.23	-40.8	-43.8	14.0	3.00e-06	0	55	0	264241152	52	5312
2026-01-06 08:57:58.73	108.76	20.65	-40.6	-43.6	14.4	0.00e+00	0	55	0	272629760	52	5161
2026-01-06 08:58:02.77	108.09	21.08	-40.3	-43.0	14.9	0.00e+00	0	55	0	279969792	52	4845
2026-01-06 08:58:06.81	107.41	21.50	-40.5	-43.4	14.5	1.50e-06	0	55	0	287309824	52	5057
2026-01-06 08:58:10.85	106.71	21.93	-41.0	-44.1	13.8	4.50e-06	0	55	0	294649856	52	5510
2026-01-06 08:58:14.89	105.99	22.37	-41.1	-44.3	13.6	6.10e-06	0	55	0	301989888	52	5598
2026-01-06 08:58:18.93	105.24	22.80	-41.0	-44.1	13.9	9.10e-06	0	54	0	310378496	53	5185
2026-01-06 08:58:22.96	104.48	23.24	-40.7	-43.5	14.4	0.00e+00	0	55	0	317718528	53	4866
2026-01-06 08:58:27.00	103.70	23.68	-40.3	-43.0	14.9	0.00e+00	0	55	0	325058560	52	4819
2026-01-06 08:58:31.04	102.89	24.12	-40.7	-43.6	14.3	0.00e+00	0	55	0	332398592	52	5211
2026-01-06 08:58:35.08	102.06	24.56	-40.4	-43.1	14.9	0.00e+00	0	55	0	340787200	52	4918
2026-01-06 08:58:39.11	101.20	25.00	-40.6	-43.5	14.6	7.00e-07	0	55	0	348127232	52	5115
2026-01-06 08:58:43.15	100.32	25.44	-40.5	-43.3	14.7	0.00e+00	0	55	0	355467264	52	5010
2026-01-06 08:58:47.19	99.42	25.88	-40.5	-43.2	14.8	0.00e+00	0	55	0	362807296	52	4958
2026-01-06 08:58:51.23	98.49	26.32	-40.4	-43.0	15.0	0.00e+00	0	55	0	370147328	52	4843
2026-01-06 08:58:55.26	97.54	26.76	-41.2	-44.4	13.6	1.50e-06	0	55	0	378535936	53	5394
2026-01-06 08:58:59.30	96.55	27.20	-40.1	-42.7	15.4	0.00e+00	0	55	0	385875968	52	4655
2026-01-06 08:59:03.34	95.54	27.63	-39.6	-41.9	16.3	0.00e+00	0	55	0	393216000	51	4498
2026-01-06 08:59:07.38	94.50	28.07	-40.3	-42.8	15.3	0.00e+00	0	55	0	400556032	51	5040
2026-01-06 08:59:11.42	93.44	28.49	-40.6	-43.3	14.9	0.00e+00	0	55	0	408944640	51	5287
2026-01-06 08:59:15.45	92.34	28.92	-41.8	-45.4	12.6	4.73e-05	0	55	0	416284672	54	5681
2026-01-06 08:59:19.49	91.22	29.33	-41.5	-44.9	13.3	2.67e-05	0	55	0	423624704	54	5393
2026-01-06 08:59:23.53	90.06	29.74	-41.2	-44.3	13.9	3.80e-06	0	55	0	430964736	54	4988
2026-01-06 08:59:27.56	88.88	30.14	-41.9	-46.1	11.9	3.11e-04	0	55	0	438304768	54	6171
2026-01-06 08:59:31.60	87.67	30.54	-42.6	-48.2	9.7	9.99e-03	0	55	0	446693376	55	7383
2026-01-06 08:59:35.64	86.42	30.92	-42.8	-48.3	9.8	8.15e-03	0	55	0	454033408	56	7073
2026-01-06 08:59:39.67	85.15	31.30	-42.0	-46.3	11.6	3.86e-04	0	55	0	461373440	55	5960
2026-01-06 08:59:43.71	83.85	31.66	-41.9	-46.2	11.7	5.89e-04	0	55	0	468713472	55	5915
2026-01-06 08:59:47.75	82.52	32.01	-41.8	-46.1	11.9	4.62e-04	0	55	0	477102080	55	5822
2026-01-06 08:59:51.79	81.16	32.34	-42.4	-47.8	10.0	4.18e-03	0	55	0	484442112	55	7069
2026-01-06 08:59:55.83	79.77	32.66	-41.4	-45.3	12.7	6.79e-05	0	56	0	491782144	54	5598
2026-01-06 08:59:59.86	78.36	32.97	-41.5	-45.3	12.6	8.85e-05	0	55	0	499122176	54	5653
2026-01-06 09:00:03.90	76.92	33.25	-40.3	-43.2	14.8	0.00e+00	0	56	0	506462208	52	4977
2026-01-06 09:00:07.94	75.46	33.52	-40.3	-43.2	14.9	0.00e+00	0	55	0	514850816	51	5277
2026-01-06 09:00:11.98	73.97	33.77	-40.4	-43.4	14.7	0.00e+00	0	56	0	522190848	51	5379
2026-01-06 09:00:16.01	72.46	34.00	-40.9	-44.3	13.8	9.90e-06	0	56	0	529530880	53	5290
2026-01-06 09:00:20.05	70.93	34.21	-39.7	-42.2	16.0	0.00e+00	0	55	0	536870912	51	4684
2026-01-06 09:00:24.09	69.38	34.39	-39.4	-41.8	16.3	0.00e+00	0	56	0	544210944	50	4732
2026-01-06 09:00:28.12	67.82	34.56	-40.8	-44.0	14.1	3.00e-06	0	56	0	552599552	52	5458
2026-01-06 09:00:32.16	66.24	34.69	-40.7	-43.7	14.4	0.00e+00	0	55	0	559939584	52	5254
2026-01-06 09:00:36.20	64.65	34.81	-40.8	-43.9	14.4	0.00e+00	0	56	0	567279616	52	5349
2026-01-06 09:00:40.24	63.04	34.90	-40.4	-43.2	15.0	0.00e+00	0	56	0	574619648	52	4942
2026-01-06 09:00:44.27	61.44	34.96	-40.7	-43.6	14.6	7.00e-07	0	56	0	583008256	52	5217
2026-01-06 09:00:48.31	59.82	35.00	-40.5	-43.3	15.0	0.00e+00	0	56	0	590348288	52	4996
2026-01-06 09:00:52.35	58.21	35.01	-40.7	-43.8	14.6	2.20e-06	0	56	0	597688320	52	5301
2026-01-06 09:00:56.38	56.59	35.00	-41.5	-45.4	12.7	4.73e-05	0	56	0	605028352	53	6048
2026-01-06 09:01:00.43	54.97	34.96	-40.5	-43.5	14.8	7.00e-07	0	56	0	612368384	52	5101
2026-01-06 09:01:04.47	53.37	34.89	-42.0	-46.5	11.6	1.58e-04	0	56	0	620756992	54	6425
2026-01-06 09:01:08.51	51.77	34.80	-40.9	-44.2	13.9	3.00e-06	0	56	0	628097024	53	5261
2026-01-06 09:01:12.55	50.17	34.68	-41.5	-45.2	13.0	1.29e-05	0	56	0	635437056	53	5874
2026-01-06 09:01:16.59	48.60	34.54	-41.3	-44.8	13.3	3.43e-05	0	56	0	642777088	54	5321
2026-01-06 09:01:20.63	47.03	34.38	-40.9	-44.2	14.0	0.00e+00	0	56	0	651165696	53	5229
2026-01-06 09:01:24.67	45.49	34.19	-41.3	-44.9	13.2	1.98e-05	0	56	0	658505728	53	5702
2026-01-06 09:01:28.70	43.97	33.98	-40.3	-43.2	14.9	0.00e+00	0	56	0	665845760	52	4965
2026-01-06 09:01:32.74	42.46	33.75	-41.2	-44.7	13.5	7.00e-07	0	56	0	673185792	52	5915
2026-01-06 09:01:36.78	40.98	33.50	-40.7	-43.8	14.3	3.80e-06	0	56	0	680525824	53	5037
2026-01-06 09:01:40.82	39.52	33.23	-40.7	-43.8	14.6	0.00e+00	0	56	0	688914432	51	5594
2026-01-06 09:01:44.86	38.08	32.95	-42.0	-46.4	11.7	6.95e-04	0	56	0	696254464	54	6408
2026-01-06 09:01:48.89	36.68	32.64	-42.0	-46.5	11.5	5.95e-04	0	56	0	703594496	54	6494
2026-01-06 09:01:52.93	35.29	32.32	-42.0	-46.5	11.5	1.17e-03	0	56	0	710934528	54	6457
2026-01-06 09:01:56.97	33.94	31.99	-41.0	-44.4	13.7	1.67e-05	0	56	0	719323136	54	5082
2026-01-06 09:02:01.01	32.62	31.64	-40.2	-43.0	15.1	0.00e+00	0	56	0	726663168	52	4816
2026-01-06 09:02:05.05	31.32	31.27	-41.4	-45.2	12.9	1.56e-04	0	56	0	734003200	54	5563
2026-01-06 09:02:09.09	30.05	30.90	-40.3	-43.1	15.0	7.00e-07	0	56	0	741343232	52	4885
2026-01-06 09:02:13.13	28.82	30.52	-41.9	-46.0	12.3	1.98e-04	0	56	0	748683264	54	6110
2026-01-06 09:02:17.17	27.61	30.12	-41.3	-44.9	13.3	2.36e-05	0	56	0	757071872	54	5351
2026-01-06 09:02:21.21	26.43	29.72	-41.3	-44.8	13.4	1.83e-05	0	56	0	764411904	54	5305
2026-01-06 09:02:25.24	25.29	29.31	-41.8	-45.8	12.5	1.72e-04	0	56	0	771751936	54	5929
2026-01-06 09:02:29.28	24.17	28.90	-41.2	-44.6	13.7	1.44e-05	0	56	0	779091968	54	5170
2026-01-06 09:02:33.32	23.08	28.48	-41.3	-44.8	13.5	1.06e-05	0	56	0	787480576	54	5285
2026-01-06 09:02:37.36	22.02	28.05	-40.4	-43.2	15.1	7.00e-07	0	56	0	794820608	52	4930
2026-01-06 09:02:41.40	20.99	27.62	-40.2	-42.9	15.4	0.00e+00	0	56	0	802160640	51	5045
2026-01-06 09:02:45.44	19.98	27.19	-40.4	-43.1	15.2	0.00e+00	0	56	0	809500672	51	5162
2026-01-06 09:02:49.48	19.01	26.75	-39.7	-42.0	16.3	0.00e+00	0	56	0	816840704	51	4592
2026-01-06 09:02:53.51	18.06	26.31	-40.6	-43.4	14.9	0.00e+00	0	56	0	825229312	51	5388
2026-01-06 09:02:57.55	17.13	25.87	-39.5	-41.7	16.5	0.00e+00	0	56	0	832569344	51	4437
2026-01-06 09:03:01.59	16.24	25.43	-39.6	-41.9	16.3	0.00e+00	0	56	0	839909376	50	4812
2026-01-06 09:03:05.63	15.36	24.99	-39.8	-42.3	15.9	0.00e+00	0	56	0	847249408	50	4994
2026-01-06 09:03:09.66	14.52	24.55	-39.6	-41.9	16.3	0.00e+00	0	56	0	855638016	50	4807
2026-01-06 09:03:13.71	13.69	24.11	-39.7	-42.1	16.1	0.00e+00	0	56	0	862978048	50	4909
2026-01-06 09:03:17.75	12.89	23.68	-40.0	-42.6	15.7	0.00e+00	0	56	0	870318080	50	5162
2026-01-06 09:03:21.78	12.11	23.24	-40.4	-43.1	15.1	0.00e+00	0	56	0	877658112	51	5186
2026-01-06 09:03:25.82	11.35	22.81	-40.6	-43.5	14.6	0.00e+00	0	56	0	884998144	52	5148
2026-01-06 09:03:29.86	10.62	22.37	-40.6	-43.5	14.7	0.00e+00	0	56	0	893386752	52	5116
2026-01-06 09:03:33.89	9.90	21.94	-40.7	-43.7	14.3	1.50e-06	0	56	0	900726784	52	5276
2026-01-06 09:03:37.93	9.21	21.52	-41.0	-44.3	13.7	4.50e-06	0	56	0	908066816	52	5631
2026-01-06 09:03:41.97	8.53	21.09	-40.9	-44.1	14.0	7.60e-06	0	56	0	915406848	53	5166
2026-01-06 09:03:46.01	7.87	20.67	-39.7	-42.2	15.9	0.00e+00	0	56	0	923795456	51	4657
2026-01-06 09:03:50.05	7.23	20.25	-40.3	-43.1	15.0	0.00e+00	0	56	0	931135488	51	5160
2026-01-06 09:03:54.09	6.61	19.83	-39.9	-42.4	15.6	0.00e+00	0	56	0	938475520	51	4791
2026-01-06 09:03:58.13	6.00	19.42	-39.5	-41.9	16.1	0.00e+00	0	56	0	945815552	50	4793
2026-01-06 09:04:02.17	5.41	19.01	-40.3	-43.2	14.8	0.00e+00	0	56	0	953155584	51	5257
2026-01-06 09:04:06.21	4.84	18.61	-41.5	-45.5	12.3	5.56e-05	0	56	0	961544192	53	6107
2026-01-06 09:04:10.25	4.28	18.21	-41.7	-45.9	11.9	6.99e-04	0	56	0	968884224	54	6032
2026-01-06 09:04:14.29	3.74	17.81	-40.4	-43.5	14.2	7.00e-07	0	56	0	976224256	52	5144
2026-01-06 09:04:18.33	3.21	17.41	-40.4	-43.4	14.3	0.00e+00	0	56	0	983564288	52	5086
2026-01-06 09:04:22.37	2.70	17.02	-41.1	-44.8	12.8	2.89e-05	0	56	0	991952896	52	5981
2026-01-06 09:04:26.41	2.20	16.64	-40.4	-43.5	14.0	7.00e-07	0	56	0	999292928	52	5128
2026-01-06 09:04:30.45	1.71	16.25	-40.0	-42.9	14.7	0.00e+00	0	56	0	1006632960	51	5044
2026-01-06 09:04:34.49	1.23	15.88	-40.3	-43.6	13.8	2.20e-06	0	56	0	1013972992	51	5467
2026-01-06 09:04:38.53	0.77	15.50	-40.4	-43.8	13.4	9.10e-06	0	56	0	1021313024	51	5652
2026-01-06 09:04:42.57	0.32	15.13	-40.4	-43.9	13.1	2.67e-05	0	56	0	1029701632	51	5720
2026-01-06 09:04:46.60	359.88	14.76	-40.1	-43.6	13.2	3.05e-05	0	56	0	1037041664	51	5523
2026-01-06 09:04:50.64	359.45	14.40	-39.9	-43.4	13.2	3.35e-05	0	56	0	1044381696	51	5379
2026-01-06 09:04:54.67	359.03	14.04	-39.6	-43.0	13.4	9.10e-06	0	56	0	1051721728	50	5433
2026-01-06 09:04:58.71	358.62	13.68	-40.2	-44.8	11.2	1.14e-03	0	56	0	1060110336	50	6672
2026-01-06 09:05:02.75	358.22	13.33	-40.8	-47.4	8.0	5.45e-02	0	56	0	1067450368	52	8011
2026-01-06 09:05:06.79	357.84	12.98	-40.7	-47.4	7.8	7.23e-02	0	56	0	1074790400	52	8009
2026-01-06 09:05:10.83	357.46	12.64	-40.3	-47.3	7.7	1.01e-01	0	56	0	1082130432	52	7967
2026-01-06 09:05:14.87	357.09	12.30	-39.6	-46.1	8.6	2.71e-02	0	56	0	1089470464	51	7354
2026-01-06 09:05:18.91	356.73	11.96	-39.8	-50.3	4.8	7.10e-01	0	56	0	1097859072	51	11870
2026-01-06 09:05:22.95	356.37	11.63	-39.9	-53.3	3.8	1.49e+00	0	56	104	1099956224	51	16774
2026-01-06 09:05:26.99	356.03	11.30	-39.9	-54.4	3.8	1.49e+00	0	56	104	1099956224	51	19133
2026-01-06 09:05:31.02	355.69	10.97	-40.1	-54.8	3.8	1.49e+00	0	56	104	1099956224	51	19878
2026-01-06 09:05:35.06	355.36	10.64	-39.9	-54.5	3.8	1.49e+00	0	56	104	1099956224	50	20336
2026-01-06 09:05:39.10	355.04	10.32	-40.0	-54.5	3.8	1.49e+00	0	56	104	1099956224	50	20526
2026-01-06 09:05:43.14	354.73	10.01	-39.9	-54.5	3.8	1.49e+00	0	56	104	1099956224	50	20368
2026-01-06 09:05:47.18	354.42	9.69	-39.9	-54.5	3.8	1.49e+00	0	56	104	1099956224	50	20388
2026-01-06 09:05:51.22	354.12	9.38	-40.1	-54.6	3.8	1.49e+00	0	56	104	1099956224	50	20702
2026-01-06 09:05:55.26	353.83	9.07	-40.0	-54.6	3.8	1.49e+00	0	56	104	1099956224	50	20559
2026-01-06 09:05:59.29	353.54	8.77	-40.3	-54.8	3.8	1.49e+00	0	56	104	1099956224	51	19957
2026-01-06 09:06:03.33	353.26	8.47	-40.3	-54.8	3.8	1.49e+00	0	56	104	1099956224	51	20014
2026-01-06 09:06:07.37	352.98	8.17	-40.5	-55.0	3.8	1.49e+00	0	56	104	1099956224	51	20475
2026-01-06 09:06:11.42	352.71	7.87	-40.4	-55.2	3.8	1.49e+00	0	56	104	1099956224	51	20855
2026-01-06 09:06:15.46	352.45	7.58	-45.0	-59.8	3.8	1.49e+00	0	56	104	1099956224	60	21058
2026-01-06 09:06:19.50	352.19	7.29	-44.9	-59.9	3.8	1.49e+00	0	56	104	1099956224	60	21355
2026-01-06 09:06:23.55	351.94	7.00	-44.7	-59.7	3.8	1.49e+00	0	56	104	1099956224	59	22062
2026-01-06 09:06:27.59	351.69	6.71	-44.9	-59.9	3.8	1.49e+00	0	56	104	1099956224	60	21340
2026-01-06 09:06:31.63	351.45	6.43	-45.1	-59.9	3.8	1.49e+00	0	56	104	1099956224	60	21464
2026-01-06 09:06:35.68	351.21	6.15	-45.1	-59.9	3.8	1.49e+00	0	56	104	1099956224	60	21431
2026-01-06 09:06:39.71	350.98	5.87	-45.0	-59.8	3.8	1.49e+00	0	56	104	1099956224	60	21149
2026-01-06 09:06:43.75	350.75	5.60	-44.9	-59.7	3.8	1.49e+00	0	56	104	1099956224	60	21009
2026-01-06 09:06:47.80	350.53	5.32	-44.7	-59.7	3.9	1.49e+00	0	56	104	1099956224	60	20957
2026-01-06 09:06:51.84	350.31	5.05	-45.1	-59.9	3.8	1.49e+00	0	56	104	1099956224	60	21386
2026-01-06 09:06:55.88	350.10	4.78	-44.9	-59.8	3.8	1.49e+00	0	56	104	1099956224	60	21043
2026-01-06 09:06:59.93	349.89	4.52	-44.6	-59.7	3.9	1.49e+00	0	56	104	1099956224	60	20906
2026-01-06 09:07:03.97	349.68	4.25	-45.0	-59.9	3.8	1.49e+00	0	56	104	1099956224	60	21327
2026-01-06 09:07:08.02	349.48	3.99	-45.0	-59.9	3.8	1.49e+00	0	56	104	1099956224	60	21335
2026-01-06 09:07:12.06	349.28	3.73	-45.0	-59.9	3.8	1.49e+00	0	56	104	1099956224	60	21295
2026-01-06 09:07:16.10	349.09	3.48	-45.0	-59.9	3.8	1.49e+00	0	56	104	1099956224	60	21314
2026-01-06 09:07:20.14	348.89	3.22	-45.0	-59.9	3.8	1.49e+00	0	56	104	1099956224	60	21264
2026-01-06 09:07:24.19	348.71	2.97	-45.0	-59.9	3.8	1.49e+00	0	57	104	1099956224	60	21303
2026-01-06 09:07:28.23	348.52	2.72	-45.0	-59.9	3.8	1.49e+00	0	56	104	1099956224	60	21265
2026-01-06 09:07:32.28	348.34	2.47	-45.0	-59.9	3.8	1.49e+00	0	56	104	1099956224	60	21278
2026-01-06 09:07:36.32	348.17	2.22	-45.0	-59.8	3.8	1.49e+00	0	56	104	1099956224	60	21241
2026-01-06 09:07:40.36	347.99	1.97	-45.0	-59.8	3.8	1.49e+00	0	56	104	1099956224	60	21226

#Closed at: 2026-01-06 09:07:41
#Recorded file [1099 MB]: D:/lorett/data/31039_260106_115408.dat