passes_logs/2026/01/06/R2.0S_Moscow/R2.0S_Moscow__20260106_001334_NOAA_21_JPSS-2_rec.log

#Pass ID: 20260106_001334_NOAA 21 (JPSS-2)
#Satellite: NOAA 21 (JPSS-2)
#Configuration: NOAA-21
#almurnet v.1.7.20251203
#Start time: 2026-01-06 00:16:22

#Version: 2.2.20231116
#Station: R2.0S_Moscow
#Location: 37.707566 lon 55.798166 lat
#TLE: 1 54234U 22150A   26005.21525222  .00000150  00000+0  91957-4 0  9992
#TLE: 2 54234  98.7490 306.2339 0001053 341.6032  18.5106 14.19532220163427

#Time	Az	El	Level	Level2	SNR	BER	BlckErr	Temp	State	Recorded	gain1	gain2
2026-01-06 00:16:22.56	8.08	15.42	-44.9	-56.8	3.8	8.46e-01	0	57	0	0	61	14148
2026-01-06 00:16:25.58	7.91	15.73	-45.3	-57.8	3.8	1.49e+00	0	57	104	0	62	14914
2026-01-06 00:16:28.61	7.73	16.06	-45.1	-57.6	3.8	1.49e+00	0	57	104	0	62	14609
2026-01-06 00:16:31.65	7.55	16.38	-44.8	-57.2	3.8	1.49e+00	0	57	104	0	61	14721
2026-01-06 00:16:34.68	7.36	16.71	-44.7	-57.1	3.8	1.49e+00	0	57	104	0	61	14704
2026-01-06 00:16:37.71	7.17	17.05	-44.7	-56.9	3.8	1.49e+00	0	57	104	0	61	14280
2026-01-06 00:16:40.75	6.98	17.38	-44.6	-56.1	3.8	1.49e+00	0	57	104	0	61	13032
2026-01-06 00:16:43.78	6.78	17.73	-44.5	-54.9	3.9	1.48e+00	0	57	104	0	60	12011
2026-01-06 00:16:46.81	6.57	18.07	-44.4	-53.8	4.2	1.47e+00	0	57	104	0	60	10534
2026-01-06 00:16:49.85	6.36	18.43	-44.5	-54.5	3.9	1.47e+00	0	57	104	0	60	11485
2026-01-06 00:16:52.88	6.15	18.78	-44.5	-55.2	3.8	1.49e+00	0	57	104	0	60	12444
2026-01-06 00:16:55.91	5.93	19.14	-44.4	-53.8	4.2	1.47e+00	0	57	104	0	60	10583
2026-01-06 00:16:58.94	5.70	19.51	-44.1	-52.3	4.1	9.59e-01	0	57	104	0	60	8863
2026-01-06 00:17:01.98	5.47	19.88	-44.1	-52.7	4.0	8.37e-01	2	57	104	6291456	60	9380
2026-01-06 00:17:05.01	5.23	20.26	-44.6	-56.0	3.8	1.49e+00	0	57	104	6291456	60	13715
2026-01-06 00:17:08.04	4.99	20.64	-42.9	-47.6	8.1	9.06e-02	0	57	0	9437184	57	6173
2026-01-06 00:17:11.07	4.74	21.02	-39.1	-41.1	14.8	7.00e-07	0	57	0	18874368	50	4371
2026-01-06 00:17:14.11	4.48	21.42	-37.0	-38.5	17.2	0.00e+00	0	57	0	28311552	46	4097
2026-01-06 00:17:17.14	4.21	21.81	-37.4	-39.0	16.8	0.00e+00	0	57	0	37748736	45	4572
2026-01-06 00:17:20.17	3.94	22.21	-42.8	-47.3	8.6	3.95e-02	0	57	0	47185920	57	5990
2026-01-06 00:17:23.20	3.67	22.62	-36.7	-38.1	17.7	0.00e+00	0	57	0	56623104	45	4126
2026-01-06 00:17:26.23	3.38	23.04	-36.5	-37.9	17.8	0.00e+00	0	57	0	66060288	45	4040
2026-01-06 00:17:29.26	3.09	23.46	-36.5	-37.9	17.9	0.00e+00	0	57	0	75497472	44	4272
2026-01-06 00:17:32.29	2.78	23.88	-36.4	-37.8	18.0	0.00e+00	0	57	0	84934656	44	4216
2026-01-06 00:17:35.32	2.47	24.32	-36.5	-37.9	17.9	0.00e+00	0	57	0	94371840	44	4256
2026-01-06 00:17:38.36	2.15	24.76	-36.7	-38.1	17.7	0.00e+00	0	57	0	103809024	44	4381
2026-01-06 00:17:41.39	1.82	25.20	-36.8	-38.3	17.5	0.00e+00	0	57	0	113246208	44	4457
2026-01-06 00:17:44.42	1.48	25.65	-37.0	-38.6	17.3	0.00e+00	0	57	0	122683392	44	4601
2026-01-06 00:17:47.45	1.13	26.11	-37.3	-38.9	17.0	0.00e+00	0	57	0	132120576	45	4513
2026-01-06 00:17:50.48	0.77	26.58	-37.2	-38.7	17.1	0.00e+00	0	57	0	141557760	45	4439
2026-01-06 00:17:53.51	0.40	27.05	-37.4	-39.0	16.9	0.00e+00	0	57	0	152043520	45	4549
2026-01-06 00:17:56.54	0.02	27.53	-37.5	-39.1	16.8	0.00e+00	0	57	0	160432128	45	4630
2026-01-06 00:17:59.57	359.62	28.01	-37.5	-39.1	16.8	0.00e+00	0	57	0	170917888	45	4628
2026-01-06 00:18:02.60	359.21	28.50	-37.6	-39.2	16.7	0.00e+00	0	57	0	179306496	45	4657
2026-01-06 00:18:05.63	358.79	29.00	-37.5	-39.1	16.9	0.00e+00	0	57	0	189792256	45	4604
2026-01-06 00:18:08.66	358.36	29.51	-37.4	-39.0	17.0	0.00e+00	0	57	0	199229440	45	4566
2026-01-06 00:18:11.69	357.91	30.02	-37.2	-38.7	17.2	0.00e+00	0	57	0	208666624	45	4420
2026-01-06 00:18:14.72	357.45	30.55	-37.4	-39.0	17.0	0.00e+00	0	57	0	218103808	45	4551
2026-01-06 00:18:17.75	356.97	31.08	-37.6	-39.3	16.7	0.00e+00	0	57	0	227540992	45	4707
2026-01-06 00:18:20.78	356.47	31.61	-37.6	-39.2	16.8	0.00e+00	0	57	0	236978176	45	4676
2026-01-06 00:18:23.81	355.96	32.16	-37.5	-39.1	16.9	0.00e+00	0	57	0	246415360	45	4624
2026-01-06 00:18:26.85	355.43	32.71	-37.7	-39.3	16.7	0.00e+00	0	57	0	255852544	46	4485
2026-01-06 00:18:29.88	354.88	33.27	-37.8	-39.5	16.5	0.00e+00	0	57	0	265289728	46	4569
2026-01-06 00:18:32.91	354.31	33.83	-38.1	-39.8	16.3	0.00e+00	0	57	0	274726912	46	4736
2026-01-06 00:18:35.94	353.72	34.40	-38.1	-39.8	16.3	0.00e+00	0	57	0	284164096	47	4449
2026-01-06 00:18:38.97	353.10	34.98	-38.2	-39.9	16.2	0.00e+00	0	57	0	293601280	47	4509
2026-01-06 00:18:42.01	352.47	35.57	-38.4	-40.1	16.0	0.00e+00	0	57	0	303038464	47	4615
2026-01-06 00:18:45.04	351.81	36.17	-38.6	-40.4	15.7	0.00e+00	0	57	0	312475648	47	4785
2026-01-06 00:18:48.07	351.13	36.77	-38.6	-40.4	15.7	0.00e+00	0	57	0	321912832	47	4804
2026-01-06 00:18:51.10	350.42	37.37	-38.6	-40.3	15.8	0.00e+00	0	57	0	331350016	47	4745
2026-01-06 00:18:54.12	349.68	37.98	-38.9	-40.8	15.4	0.00e+00	0	57	0	340787200	48	4725
2026-01-06 00:18:57.16	348.92	38.60	-39.0	-40.9	15.3	0.00e+00	0	57	0	350224384	48	4792
2026-01-06 00:19:00.19	348.12	39.23	-39.4	-41.5	14.8	0.00e+00	0	57	0	359661568	49	4816
2026-01-06 00:19:03.22	347.29	39.86	-39.3	-41.2	15.0	0.00e+00	0	57	0	369098752	49	4699
2026-01-06 00:19:06.25	346.43	40.49	-39.2	-41.2	15.0	7.00e-07	0	57	0	378535936	49	4669
2026-01-06 00:19:09.29	345.54	41.13	-39.1	-41.0	15.2	0.00e+00	0	57	0	387973120	49	4596
2026-01-06 00:19:12.31	344.61	41.76	-39.2	-41.2	15.1	0.00e+00	0	57	0	397410304	49	4660
2026-01-06 00:19:15.34	343.64	42.40	-39.5	-41.5	14.7	7.00e-07	0	57	0	406847488	49	4860
2026-01-06 00:19:18.38	342.63	43.05	-39.8	-41.9	14.4	1.50e-06	0	57	0	416284672	50	4792
2026-01-06 00:19:21.41	341.58	43.69	-39.8	-41.9	14.4	0.00e+00	0	57	0	425721856	50	4785
2026-01-06 00:19:24.44	340.48	44.33	-40.2	-42.4	13.8	2.20e-06	0	57	0	435159040	50	5093
2026-01-06 00:19:27.46	339.35	44.97	-40.2	-42.6	13.6	1.06e-05	0	57	0	445644800	52	4621
2026-01-06 00:19:30.49	338.16	45.61	-40.0	-42.1	14.1	1.50e-06	0	57	0	454033408	51	4648
2026-01-06 00:19:33.52	336.92	46.24	-40.2	-42.5	13.8	6.80e-06	0	57	0	464519168	51	4844
2026-01-06 00:19:36.55	335.63	46.87	-39.7	-41.7	14.6	7.00e-07	0	57	0	472907776	51	4419
2026-01-06 00:19:39.58	334.29	47.49	-39.5	-41.6	14.8	7.00e-07	0	57	0	483393536	51	4341
2026-01-06 00:19:42.61	332.90	48.11	-39.4	-41.4	15.0	0.00e+00	0	57	0	492830720	50	4501
2026-01-06 00:19:45.64	331.45	48.71	-39.4	-41.4	14.9	7.00e-07	0	57	0	502267904	50	4544
2026-01-06 00:19:48.67	329.94	49.30	-39.1	-41.0	15.3	0.00e+00	0	57	0	511705088	50	4294
2026-01-06 00:19:51.71	328.37	49.87	-39.0	-40.8	15.5	0.00e+00	0	57	0	521142272	49	4479
2026-01-06 00:19:54.74	326.74	50.43	-39.2	-41.1	15.2	0.00e+00	0	57	0	530579456	49	4619
2026-01-06 00:19:57.77	325.05	50.97	-38.9	-40.7	15.6	0.00e+00	0	57	0	540016640	49	4421
2026-01-06 00:20:00.80	323.30	51.49	-38.5	-40.2	16.0	0.00e+00	0	57	0	549453824	48	4424
2026-01-06 00:20:03.83	321.49	51.98	-38.4	-40.1	16.2	0.00e+00	0	57	0	558891008	48	4362
2026-01-06 00:20:06.86	319.63	52.45	-38.0	-39.7	16.6	0.00e+00	0	57	0	568328192	48	4148
2026-01-06 00:20:09.88	317.70	52.89	-38.0	-39.6	16.5	0.00e+00	0	57	0	577765376	47	4371
2026-01-06 00:20:12.92	315.71	53.30	-37.4	-38.9	17.2	0.00e+00	0	57	0	587202560	46	4281
2026-01-06 00:20:15.95	313.67	53.67	-37.7	-39.3	16.9	0.00e+00	0	57	0	596639744	46	4454
2026-01-06 00:20:18.97	311.59	54.01	-38.3	-40.0	16.1	0.00e+00	0	57	0	606076928	47	4596
2026-01-06 00:20:22.00	309.45	54.31	-37.8	-39.4	16.7	0.00e+00	0	57	0	615514112	47	4252
2026-01-06 00:20:25.03	307.27	54.58	-37.6	-39.1	17.0	0.00e+00	0	57	0	624951296	47	4138
2026-01-06 00:20:28.06	305.05	54.80	-37.5	-39.0	17.1	0.00e+00	0	57	0	634388480	46	4331
2026-01-06 00:20:31.09	302.79	54.98	-37.3	-38.8	17.4	0.00e+00	0	57	0	643825664	46	4206
2026-01-06 00:20:34.12	300.52	55.12	-37.9	-39.5	16.7	0.00e+00	0	57	0	653262848	46	4571
2026-01-06 00:20:37.15	298.22	55.21	-37.3	-38.8	17.3	0.00e+00	0	57	0	662700032	46	4237
2026-01-06 00:20:40.18	295.92	55.25	-37.6	-39.1	17.0	0.00e+00	0	57	0	672137216	46	4386
2026-01-06 00:20:43.21	293.60	55.25	-37.7	-39.3	16.9	0.00e+00	0	57	0	681574400	46	4455
2026-01-06 00:20:46.24	291.30	55.20	-38.3	-40.0	16.2	0.00e+00	0	57	0	691011584	47	4566
2026-01-06 00:20:49.26	289.01	55.11	-37.8	-39.4	16.8	0.00e+00	0	57	0	700448768	47	4251
2026-01-06 00:20:52.29	286.73	54.97	-38.1	-39.8	16.4	0.00e+00	0	57	0	709885952	47	4456
2026-01-06 00:20:55.32	284.48	54.79	-38.1	-39.8	16.4	0.00e+00	0	56	0	719323136	47	4459
2026-01-06 00:20:58.35	282.26	54.57	-38.2	-39.9	16.3	0.00e+00	0	57	0	728760320	47	4505
2026-01-06 00:21:01.39	280.07	54.30	-37.9	-39.5	16.6	0.00e+00	0	57	0	738197504	47	4312
2026-01-06 00:21:04.41	277.94	54.00	-37.5	-39.0	17.2	0.00e+00	0	57	0	747634688	46	4303
2026-01-06 00:21:07.44	275.85	53.65	-38.0	-39.6	16.5	0.00e+00	0	57	0	757071872	46	4608
2026-01-06 00:21:10.47	273.81	53.27	-37.6	-39.1	17.0	0.00e+00	0	57	0	766509056	46	4358
2026-01-06 00:21:13.50	271.82	52.86	-38.2	-39.8	16.3	0.00e+00	0	57	0	775946240	47	4487
2026-01-06 00:21:16.53	269.89	52.42	-37.5	-39.0	17.1	0.00e+00	0	57	0	785383424	47	4089
2026-01-06 00:21:19.56	268.02	51.95	-38.2	-39.9	16.3	0.00e+00	0	57	0	795869184	47	4496
2026-01-06 00:21:22.59	266.21	51.45	-38.2	-39.9	16.2	0.00e+00	0	56	0	805306368	47	4498
2026-01-06 00:21:25.62	264.47	50.93	-38.2	-39.8	16.3	0.00e+00	0	57	0	814743552	47	4478
2026-01-06 00:21:28.65	262.78	50.39	-39.9	-42.1	14.0	2.20e-06	0	57	0	824180736	50	4909
2026-01-06 00:21:31.68	261.15	49.83	-38.4	-40.1	16.1	0.00e+00	0	57	0	833617920	48	4364
2026-01-06 00:21:34.72	259.58	49.25	-39.7	-41.7	14.5	7.00e-07	0	57	0	843055104	49	4979
2026-01-06 00:21:37.75	258.07	48.66	-38.9	-40.7	15.5	0.00e+00	0	57	0	852492288	49	4420
2026-01-06 00:21:40.78	256.62	48.06	-39.9	-42.1	14.1	0.00e+00	0	57	0	861929472	50	4906
2026-01-06 00:21:43.81	255.22	47.44	-39.9	-42.1	14.0	6.80e-06	0	56	0	871366656	51	4632
2026-01-06 00:21:46.85	253.88	46.82	-38.3	-39.9	16.3	0.00e+00	0	57	0	880803840	48	4286
2026-01-06 00:21:49.88	252.59	46.19	-40.3	-42.7	13.5	6.80e-06	0	57	0	890241024	51	4952
2026-01-06 00:21:52.91	251.35	45.55	-40.0	-42.3	13.4	3.05e-05	0	57	0	899678208	51	4729
2026-01-06 00:21:55.94	250.16	44.91	-38.6	-40.3	15.8	0.00e+00	0	57	0	909115392	49	4221
2026-01-06 00:21:58.97	249.02	44.27	-40.7	-43.3	12.8	5.41e-05	0	56	0	918552576	52	4986
2026-01-06 00:22:02.00	247.93	43.62	-39.9	-42.0	14.1	2.20e-06	0	56	0	927989760	51	4590
2026-01-06 00:22:05.03	246.88	42.98	-38.5	-40.2	16.0	0.00e+00	0	57	0	937426944	49	4178
2026-01-06 00:22:08.06	245.87	42.33	-39.5	-41.5	14.7	7.00e-07	0	57	0	946864128	49	4847
2026-01-06 00:22:11.09	244.90	41.69	-40.0	-42.2	13.9	2.20e-06	0	57	0	956301312	51	4693
2026-01-06 00:22:14.12	243.97	41.05	-39.5	-41.6	14.6	0.00e+00	0	57	0	965738496	51	4345
2026-01-06 00:22:17.15	243.07	40.41	-39.3	-41.2	15.0	0.00e+00	0	57	0	975175680	50	4434
2026-01-06 00:22:20.17	242.21	39.77	-38.8	-40.7	15.5	0.00e+00	0	57	0	984612864	49	4394
2026-01-06 00:22:23.20	241.39	39.14	-38.7	-40.5	15.4	0.00e+00	0	57	0	994050048	49	4308
2026-01-06 00:22:26.23	240.59	38.52	-38.3	-40.0	16.1	0.00e+00	0	57	0	1003487232	48	4321
2026-01-06 00:22:29.26	239.82	37.90	-39.8	-42.0	14.2	7.00e-07	0	57	0	1012924416	50	4856
2026-01-06 00:22:32.29	239.09	37.28	-39.2	-41.1	15.1	0.00e+00	0	57	0	1022361600	50	4348
2026-01-06 00:22:35.32	238.38	36.67	-38.8	-40.6	15.6	0.00e+00	0	57	0	1031798784	49	4387
2026-01-06 00:22:38.36	237.69	36.07	-38.2	-39.8	16.3	0.00e+00	0	57	0	1041235968	48	4224
2026-01-06 00:22:41.39	237.03	35.48	-38.4	-40.1	16.1	0.00e+00	0	57	0	1050673152	48	4361
2026-01-06 00:22:44.42	236.40	34.89	-39.6	-41.7	14.5	7.00e-07	0	57	0	1060110336	49	4951
2026-01-06 00:22:47.45	235.78	34.30	-38.5	-40.3	15.9	0.00e+00	0	57	0	1069547520	49	4194
2026-01-06 00:22:50.48	235.19	33.73	-37.7	-39.2	16.8	0.00e+00	0	57	0	1078984704	47	4184
2026-01-06 00:22:53.51	234.62	33.16	-38.3	-40.1	15.9	0.00e+00	0	57	0	1089470464	47	4627
2026-01-06 00:22:56.54	234.07	32.60	-38.2	-39.9	16.1	0.00e+00	0	57	0	1098907648	47	4536
2026-01-06 00:22:59.57	233.54	32.05	-38.0	-39.7	16.2	0.00e+00	0	57	0	1108344832	47	4423
2026-01-06 00:23:02.60	233.02	31.50	-38.0	-39.7	16.3	0.00e+00	0	57	0	1117782016	47	4427
2026-01-06 00:23:05.63	232.53	30.96	-38.0	-39.7	16.4	0.00e+00	0	57	0	1127219200	47	4405
2026-01-06 00:23:08.66	232.05	30.43	-37.7	-39.3	16.6	0.00e+00	0	56	0	1136656384	47	4226
2026-01-06 00:23:11.69	231.58	29.91	-37.6	-39.1	16.9	0.00e+00	0	57	0	1146093568	47	4128
2026-01-06 00:23:14.72	231.13	29.39	-37.9	-39.6	16.4	0.00e+00	0	57	0	1155530752	47	4377
2026-01-06 00:23:17.75	230.70	28.89	-37.6	-39.1	16.8	0.00e+00	0	57	0	1164967936	47	4133
2026-01-06 00:23:20.78	230.27	28.38	-37.4	-38.9	17.0	0.00e+00	0	57	0	1174405120	46	4272
2026-01-06 00:23:23.81	229.86	27.89	-37.0	-38.4	17.5	0.00e+00	0	57	0	1183842304	46	4043
2026-01-06 00:23:26.85	229.47	27.40	-37.2	-38.7	17.3	0.00e+00	0	57	0	1193279488	46	4147
2026-01-06 00:23:29.88	229.08	26.92	-37.2	-38.7	17.2	0.00e+00	0	57	0	1202716672	46	4161
2026-01-06 00:23:32.90	228.71	26.45	-37.3	-38.9	17.1	0.00e+00	0	57	0	1212153856	46	4248
2026-01-06 00:23:35.93	228.35	25.98	-37.3	-38.8	17.1	0.00e+00	0	57	0	1221591040	46	4212
2026-01-06 00:23:38.97	228.00	25.52	-37.1	-38.6	17.3	0.00e+00	0	57	0	1231028224	46	4139
2026-01-06 00:23:42.00	227.65	25.07	-36.9	-38.4	17.5	0.00e+00	0	57	0	1240465408	45	4255
2026-01-06 00:23:45.02	227.32	24.63	-36.9	-38.4	17.5	0.00e+00	0	57	0	1249902592	45	4265
2026-01-06 00:23:48.05	227.00	24.19	-36.8	-38.3	17.6	0.00e+00	0	57	0	1259339776	45	4195
2026-01-06 00:23:51.09	226.69	23.75	-36.9	-38.4	17.5	0.00e+00	0	57	0	1268776960	45	4262
2026-01-06 00:23:54.12	226.38	23.32	-36.9	-38.3	17.5	0.00e+00	0	57	0	1278214144	45	4237
2026-01-06 00:23:57.15	226.09	22.90	-37.1	-38.6	17.3	0.00e+00	0	57	0	1287651328	45	4356
2026-01-06 00:24:00.18	225.80	22.49	-37.3	-38.9	17.0	0.00e+00	0	57	0	1297088512	45	4505
2026-01-06 00:24:03.21	225.52	22.08	-37.4	-39.0	16.8	0.00e+00	0	57	0	1306525696	45	4595
2026-01-06 00:24:06.23	225.25	21.67	-37.5	-39.1	16.7	0.00e+00	0	57	0	1315962880	45	4646
2026-01-06 00:24:09.26	224.98	21.28	-37.6	-39.2	16.6	0.00e+00	0	57	0	1325400064	45	4693
2026-01-06 00:24:12.29	224.72	20.88	-37.5	-39.1	16.7	0.00e+00	0	57	0	1334837248	45	4604
2026-01-06 00:24:15.32	224.47	20.50	-37.0	-38.5	17.2	0.00e+00	0	57	0	1344274432	45	4332
2026-01-06 00:24:18.35	224.23	20.11	-36.8	-38.3	17.5	0.00e+00	0	57	0	1353711616	45	4197
2026-01-06 00:24:21.38	223.99	19.74	-36.7	-38.1	17.6	0.00e+00	0	57	0	1363148800	45	4145
2026-01-06 00:24:24.41	223.75	19.37	-36.7	-38.1	17.6	0.00e+00	0	57	0	1372585984	45	4124
2026-01-06 00:24:27.43	223.53	19.00	-36.8	-38.2	17.5	0.00e+00	0	57	0	1382023168	45	4167
2026-01-06 00:24:30.47	223.30	18.64	-37.0	-38.5	17.3	0.00e+00	0	57	0	1392508928	45	4292
2026-01-06 00:24:33.50	223.09	18.28	-37.2	-38.7	17.0	0.00e+00	0	57	0	1400897536	45	4438
2026-01-06 00:24:36.52	222.87	17.93	-37.3	-38.9	16.9	0.00e+00	0	57	0	1411383296	45	4495
2026-01-06 00:24:39.55	222.67	17.58	-37.5	-39.1	16.7	0.00e+00	0	57	0	1419771904	45	4615
2026-01-06 00:24:42.58	222.47	17.24	-37.7	-39.3	16.4	0.00e+00	0	57	0	1430257664	45	4742
2026-01-06 00:24:45.61	222.27	16.90	-37.9	-39.6	16.1	0.00e+00	0	57	0	1439694848	46	4630
2026-01-06 00:24:48.64	222.08	16.57	-38.0	-39.7	16.0	0.00e+00	0	57	0	1449132032	46	4703
2026-01-06 00:24:51.67	221.89	16.24	-38.1	-39.8	15.9	0.00e+00	0	57	0	1458569216	46	4748
2026-01-06 00:24:54.70	221.70	15.91	-38.0	-39.8	15.9	0.00e+00	0	56	0	1468006400	46	4727
2026-01-06 00:24:57.74	221.52	15.59	-38.1	-39.9	15.8	0.00e+00	0	57	0	1477443584	46	4761
2026-01-06 00:25:00.77	221.35	15.27	-37.9	-39.6	16.1	0.00e+00	0	57	0	1486880768	46	4628
2026-01-06 00:25:03.80	221.17	14.95	-37.8	-39.5	16.2	0.00e+00	0	57	0	1496317952	46	4565
2026-01-06 00:25:06.83	221.01	14.64	-37.8	-39.5	16.1	0.00e+00	0	57	0	1505755136	46	4583
2026-01-06 00:25:09.86	220.84	14.34	-37.7	-39.4	16.2	0.00e+00	0	57	0	1515192320	46	4511
2026-01-06 00:25:12.89	220.68	14.03	-37.7	-39.4	16.2	0.00e+00	0	57	0	1524629504	46	4538
2026-01-06 00:25:15.92	220.52	13.73	-37.7	-39.4	16.1	0.00e+00	0	57	0	1534066688	46	4545
2026-01-06 00:25:18.95	220.37	13.44	-37.6	-39.3	16.3	0.00e+00	0	57	0	1543503872	46	4464
2026-01-06 00:25:21.98	220.21	13.14	-37.8	-39.5	16.0	0.00e+00	0	57	0	1552941056	46	4597
2026-01-06 00:25:25.01	220.07	12.85	-37.9	-39.7	15.9	0.00e+00	0	57	0	1562378240	46	4665
2026-01-06 00:25:28.04	219.92	12.57	-37.7	-39.4	16.1	0.00e+00	0	57	0	1571815424	46	4523
2026-01-06 00:25:31.07	219.78	12.28	-37.8	-39.5	16.0	0.00e+00	0	57	0	1581252608	46	4575
2026-01-06 00:25:34.10	219.64	12.00	-37.9	-39.7	15.8	0.00e+00	0	57	0	1590689792	46	4665
2026-01-06 00:25:37.13	219.50	11.72	-37.9	-39.7	15.7	0.00e+00	0	57	0	1600126976	46	4695
2026-01-06 00:25:40.16	219.37	11.45	-38.0	-39.8	15.6	0.00e+00	0	57	0	1609564160	46	4751
2026-01-06 00:25:43.19	219.24	11.18	-38.1	-40.0	15.5	0.00e+00	0	57	0	1619001344	46	4824
2026-01-06 00:25:46.22	219.11	10.91	-38.3	-40.2	15.2	0.00e+00	0	57	0	1628438528	47	4682
2026-01-06 00:25:49.25	218.98	10.64	-38.3	-40.3	15.1	0.00e+00	0	57	0	1637875712	47	4706
2026-01-06 00:25:52.28	218.86	10.38	-38.3	-40.2	15.1	0.00e+00	0	57	0	1647312896	47	4698
2026-01-06 00:25:55.32	218.73	10.12	-38.3	-40.2	15.1	0.00e+00	0	57	0	1656750080	47	4687
2026-01-06 00:25:58.35	218.61	9.86	-38.4	-40.4	14.9	0.00e+00	0	57	0	1666187264	47	4798
2026-01-06 00:26:01.38	218.50	9.61	-38.5	-40.5	14.8	0.00e+00	0	56	0	1675624448	47	4839
2026-01-06 00:26:04.41	218.38	9.35	-38.5	-40.6	14.7	7.00e-07	0	57	0	1685061632	47	4879
2026-01-06 00:26:07.44	218.27	9.10	-38.6	-40.6	14.6	1.50e-06	0	57	0	1694498816	47	4923
2026-01-06 00:26:10.47	218.16	8.85	-38.7	-40.7	14.5	7.00e-07	0	57	0	1704984576	48	4699
2026-01-06 00:26:13.50	218.05	8.61	-38.7	-40.9	14.4	7.00e-07	0	57	0	1713373184	48	4778
2026-01-06 00:26:16.53	217.94	8.36	-38.9	-41.0	14.2	3.80e-06	0	56	0	1723858944	48	4853
2026-01-06 00:26:19.56	217.84	8.12	-38.8	-40.9	14.3	1.50e-06	0	57	0	1733296128	48	4801
2026-01-06 00:26:22.59	217.73	7.88	-44.6	-56.9	3.8	1.49e+00	0	56	104	1739587584	59	16107
2026-01-06 00:26:25.63	217.63	7.65	-45.0	-57.6	3.8	1.49e+00	0	57	104	1739587584	60	16347
2026-01-06 00:26:28.66	217.53	7.41	-45.2	-57.7	3.8	1.49e+00	0	57	104	1739587584	61	15756
2026-01-06 00:26:31.69	217.43	7.18	-45.2	-57.7	3.8	1.49e+00	0	57	104	1739587584	61	15720
2026-01-06 00:26:34.72	217.34	6.95	-45.1	-57.7	3.8	1.49e+00	0	57	104	1739587584	61	15645
2026-01-06 00:26:37.75	217.24	6.72	-45.1	-57.7	3.8	1.49e+00	0	57	104	1739587584	61	15686
2026-01-06 00:26:40.79	217.15	6.49	-45.1	-57.7	3.8	1.49e+00	0	57	104	1739587584	61	15679
2026-01-06 00:26:43.82	217.06	6.27	-45.1	-57.7	3.8	1.49e+00	0	57	104	1739587584	61	15593
2026-01-06 00:26:46.85	216.97	6.04	-45.1	-57.6	3.8	1.49e+00	0	57	104	1739587584	61	15572
2026-01-06 00:26:49.89	216.88	5.82	-45.1	-57.7	3.8	1.49e+00	0	57	104	1739587584	61	15584
2026-01-06 00:26:52.92	216.79	5.60	-45.1	-57.7	3.8	1.49e+00	0	57	104	1739587584	61	15602
2026-01-06 00:26:55.95	216.70	5.38	-45.1	-57.7	3.8	1.49e+00	0	57	104	1739587584	61	15593
2026-01-06 00:26:58.98	216.62	5.17	-45.1	-57.7	3.8	1.49e+00	0	57	104	1739587584	61	15625
2026-01-06 00:27:02.02	216.54	4.95	-45.1	-57.7	3.8	1.49e+00	0	57	104	1739587584	61	15617
2026-01-06 00:27:05.05	216.45	4.74	-45.1	-57.6	3.8	1.49e+00	0	57	104	1739587584	61	15546
2026-01-06 00:27:08.08	216.37	4.53	-45.0	-57.7	3.8	1.49e+00	0	57	104	1739587584	61	15592
2026-01-06 00:27:11.12	216.29	4.32	-45.0	-57.6	3.8	1.49e+00	0	57	104	1739587584	61	15542
2026-01-06 00:27:14.15	216.21	4.11	-44.5	-57.6	3.8	1.49e+00	0	57	104	1739587584	61	15515
2026-01-06 00:27:17.18	216.14	3.90	-45.0	-57.6	3.8	1.49e+00	0	57	104	1739587584	61	15536
2026-01-06 00:27:20.21	216.06	3.70	-45.1	-57.6	3.8	1.49e+00	0	57	104	1739587584	61	15554
2026-01-06 00:27:23.25	215.99	3.50	-45.1	-57.7	3.8	1.49e+00	0	57	104	1739587584	61	15598
2026-01-06 00:27:26.28	215.91	3.29	-45.0	-57.6	3.8	1.49e+00	0	57	104	1739587584	61	15533
2026-01-06 00:27:29.31	215.84	3.09	-45.0	-57.6	3.8	1.49e+00	0	57	104	1739587584	61	15537
2026-01-06 00:27:32.34	215.77	2.89	-45.0	-57.6	3.8	1.49e+00	0	57	104	1739587584	61	15521
2026-01-06 00:27:35.38	215.70	2.70	-45.0	-57.6	3.8	1.49e+00	0	57	104	1739587584	61	15512
2026-01-06 00:27:38.41	215.63	2.50	-45.0	-57.6	3.8	1.49e+00	0	57	104	1739587584	61	15517
2026-01-06 00:27:41.44	215.56	2.30	-45.0	-57.6	3.8	1.49e+00	0	57	104	1739587584	61	15529
2026-01-06 00:27:44.48	215.49	2.11	-45.0	-57.6	3.8	1.49e+00	0	57	104	1739587584	61	15488
2026-01-06 00:27:47.51	215.43	1.92	-45.0	-57.6	3.8	1.49e+00	0	57	104	1739587584	61	15470

#Closed at: 2026-01-06 00:27:48
#Recorded file [1739 MB]: D:/lorett/data/31039_260106_031622.dat