passes_logs/2026/01/06/R2.0S_Moscow/R2.0S_Moscow__20260106_042826_FENGYUN_3G_rec.log

#Pass ID: 20260106_042826_FENGYUN 3G
#Satellite: FENGYUN 3G
#Configuration: FENGYUN 3G
#almurnet v.1.7.20251203
#Start time: 2026-01-06 04:28:26

#Version: 2.2.20231116
#Station: R2.0S_Moscow
#Location: 37.707566 lon 55.798166 lat
#TLE: 1 56232U 23055A   26005.27063903  .00035143  00000+0  55802-3 0  9994
#TLE: 2 56232  49.9940 106.1098 0004225 341.8364  18.2452 15.52952562154680

#Time	Az	El	Level	Level2	SNR	BER	BlckErr	Temp	State	Recorded	gain1	gain2
2026-01-06 04:28:26.78	262.69	2.03	-44.1	-62.5	3.8	8.47e-01	0	46	0	0	60	28841
2026-01-06 04:28:29.82	262.45	2.22	-44.1	-62.5	3.8	8.46e-01	0	47	104	0	60	28897
2026-01-06 04:28:32.85	262.21	2.42	-44.1	-62.5	3.8	8.47e-01	0	47	104	0	60	28857
2026-01-06 04:28:35.88	261.97	2.61	-44.1	-62.5	3.8	8.46e-01	0	47	104	0	60	28728
2026-01-06 04:28:38.92	261.72	2.81	-44.1	-62.4	3.8	8.46e-01	0	47	104	0	60	28666
2026-01-06 04:28:41.95	261.46	3.01	-44.1	-62.4	3.8	8.46e-01	0	47	104	0	60	28632
2026-01-06 04:28:44.98	261.20	3.21	-44.1	-62.4	3.8	8.48e-01	0	48	104	0	60	28487
2026-01-06 04:28:48.02	260.94	3.41	-44.1	-62.3	3.8	8.46e-01	0	48	104	0	60	28341
2026-01-06 04:28:51.05	260.67	3.62	-44.1	-62.4	3.8	8.46e-01	0	48	104	0	60	28603
2026-01-06 04:28:54.08	260.39	3.82	-44.1	-62.5	3.8	8.46e-01	0	48	104	0	60	28783
2026-01-06 04:28:57.12	260.11	4.03	-44.1	-62.5	3.8	8.46e-01	0	48	104	0	60	28681
2026-01-06 04:29:00.15	259.82	4.24	-44.1	-62.4	3.8	8.46e-01	0	49	104	0	60	28636
2026-01-06 04:29:03.18	259.53	4.45	-44.1	-62.4	3.8	8.45e-01	0	49	104	0	60	28635
2026-01-06 04:29:06.21	259.22	4.67	-44.1	-62.5	3.8	8.45e-01	0	49	104	0	60	28801
2026-01-06 04:29:09.25	258.92	4.89	-44.1	-62.5	3.8	8.47e-01	0	49	104	0	60	28781
2026-01-06 04:29:12.28	258.60	5.10	-44.1	-62.4	3.8	8.46e-01	0	50	104	0	60	28665
2026-01-06 04:29:15.31	258.28	5.32	-44.1	-62.3	3.8	8.46e-01	0	49	104	0	60	28189
2026-01-06 04:29:18.35	257.96	5.55	-44.1	-61.5	3.8	8.45e-01	0	50	104	0	60	25567
2026-01-06 04:29:21.38	257.62	5.77	-44.0	-60.8	3.8	8.46e-01	0	50	104	0	60	23719
2026-01-06 04:29:24.41	257.28	6.00	-44.0	-60.7	3.8	8.45e-01	0	50	104	0	60	23318
2026-01-06 04:29:27.45	256.93	6.23	-44.0	-59.7	3.8	8.45e-01	0	50	104	0	60	21017
2026-01-06 04:29:30.48	256.57	6.46	-44.0	-57.6	4.7	8.39e-01	0	50	0	0	59	17421
2026-01-06 04:29:33.51	256.21	6.69	-43.8	-54.8	6.5	7.16e-01	0	51	0	1048576	59	12609
2026-01-06 04:29:36.54	255.83	6.93	-43.7	-54.9	6.4	1.84e-01	0	51	0	4718592	59	12765
2026-01-06 04:29:39.57	255.45	7.17	-44.1	-61.3	3.8	5.93e-01	0	51	104	5767168	59	26730
2026-01-06 04:29:42.61	255.06	7.41	-43.0	-50.0	11.2	9.01e-02	0	51	0	7340032	58	7636
2026-01-06 04:29:45.64	254.66	7.65	-40.1	-43.4	17.9	0.00e+00	0	51	0	10485760	52	5044
2026-01-06 04:29:48.67	254.24	7.90	-38.9	-41.5	19.9	0.00e+00	0	51	0	14155776	49	4835
2026-01-06 04:29:51.70	253.82	8.15	-40.1	-43.5	18.0	0.00e+00	0	51	0	17301504	50	5756
2026-01-06 04:29:54.73	253.39	8.40	-41.3	-45.9	16.6	6.80e-06	0	51	0	20971520	53	6393
2026-01-06 04:29:57.76	252.95	8.65	-38.5	-40.9	20.5	0.00e+00	0	51	0	24117248	49	4542
2026-01-06 04:30:00.79	252.50	8.91	-37.9	-40.1	21.3	0.00e+00	0	51	0	27787264	47	4646
2026-01-06 04:30:03.81	252.04	9.16	-38.0	-40.3	21.2	0.00e+00	0	52	0	30932992	47	4732
2026-01-06 04:30:06.84	251.57	9.43	-38.1	-40.4	21.1	0.00e+00	0	51	0	34603008	47	4783
2026-01-06 04:30:09.87	251.08	9.69	-37.8	-40.0	21.4	0.00e+00	0	52	0	37748736	47	4584
2026-01-06 04:30:12.90	250.58	9.96	-37.7	-39.8	21.7	0.00e+00	0	52	0	41418752	47	4471
2026-01-06 04:30:15.93	250.07	10.23	-37.9	-40.1	21.4	0.00e+00	0	52	0	44564480	47	4629
2026-01-06 04:30:18.96	249.55	10.50	-37.7	-39.8	21.7	0.00e+00	0	52	0	48234496	47	4483
2026-01-06 04:30:21.99	249.01	10.77	-37.4	-39.5	22.1	0.00e+00	0	52	0	51380224	46	4560
2026-01-06 04:30:25.01	248.46	11.05	-37.5	-39.6	22.1	0.00e+00	0	52	0	55050240	46	4604
2026-01-06 04:30:28.05	247.90	11.33	-37.6	-39.6	22.0	0.00e+00	0	52	0	58195968	46	4649
2026-01-06 04:30:31.08	247.32	11.61	-37.4	-39.5	22.2	0.00e+00	0	52	0	61865984	46	4567
2026-01-06 04:30:34.11	246.73	11.90	-37.4	-39.4	22.2	0.00e+00	0	52	0	65011712	46	4533
2026-01-06 04:30:37.13	246.12	12.18	-37.6	-39.9	21.8	0.00e+00	0	53	0	68681728	46	4770
2026-01-06 04:30:40.16	245.49	12.47	-36.9	-39.2	22.3	0.00e+00	0	52	0	71827456	45	4702
2026-01-06 04:30:43.19	244.85	12.76	-36.2	-38.8	22.7	0.00e+00	0	52	0	75497472	44	4755
2026-01-06 04:30:46.22	244.19	13.06	-37.0	-39.1	22.5	0.00e+00	0	53	0	78643200	44	4871
2026-01-06 04:30:49.26	243.51	13.36	-36.3	-38.2	23.5	0.00e+00	0	53	0	82313216	44	4404
2026-01-06 04:30:52.29	242.82	13.66	-36.5	-38.4	23.3	0.00e+00	0	53	0	85458944	44	4508
2026-01-06 04:30:55.32	242.10	13.96	-36.7	-38.5	23.3	0.00e+00	0	53	0	89128960	44	4574
2026-01-06 04:30:58.35	241.37	14.26	-36.1	-37.9	23.9	0.00e+00	0	53	0	92274688	44	4254
2026-01-06 04:31:01.38	240.62	14.56	-36.2	-38.0	23.7	0.00e+00	0	53	0	95944704	44	4318
2026-01-06 04:31:04.41	239.85	14.87	-36.4	-38.2	23.6	0.00e+00	0	53	0	99090432	44	4405
2026-01-06 04:31:07.43	239.06	15.17	-36.2	-38.0	23.8	0.00e+00	0	53	0	102760448	44	4309
2026-01-06 04:31:10.46	238.25	15.48	-36.1	-37.8	24.0	0.00e+00	0	53	0	105906176	44	4225
2026-01-06 04:31:13.49	237.41	15.79	-36.3	-38.0	23.8	0.00e+00	0	53	0	109576192	44	4316
2026-01-06 04:31:16.52	236.56	16.10	-36.0	-37.7	24.1	0.00e+00	0	53	0	112721920	44	4159
2026-01-06 04:31:19.55	235.68	16.41	-35.8	-37.5	24.1	0.00e+00	0	53	0	116391936	43	4334
2026-01-06 04:31:22.58	234.78	16.71	-35.5	-37.1	24.5	0.00e+00	0	53	0	119537664	42	4358
2026-01-06 04:31:25.61	233.85	17.02	-35.1	-36.7	25.0	0.00e+00	0	53	0	123207680	41	4414
2026-01-06 04:31:28.64	232.90	17.33	-35.6	-37.2	24.5	0.00e+00	0	53	0	126353408	41	4687
2026-01-06 04:31:31.67	231.93	17.63	-35.4	-37.0	24.7	0.00e+00	0	53	0	130023424	41	4559
2026-01-06 04:31:34.70	230.93	17.94	-35.1	-36.7	25.0	0.00e+00	0	53	0	133169152	41	4409
2026-01-06 04:31:37.72	229.91	18.24	-34.6	-36.1	25.5	0.00e+00	0	53	0	136839168	41	4135
2026-01-06 04:31:40.75	228.86	18.53	-34.7	-36.2	25.4	0.00e+00	0	53	0	139984896	41	4157
2026-01-06 04:31:43.78	227.79	18.83	-34.7	-36.2	25.5	0.00e+00	0	53	0	143654912	41	4168
2026-01-06 04:31:46.81	226.69	19.12	-34.9	-36.4	25.3	0.00e+00	0	54	0	146800640	41	4287
2026-01-06 04:31:49.83	225.57	19.40	-35.1	-36.6	25.0	0.00e+00	0	53	0	150470656	41	4391
2026-01-06 04:31:52.87	224.42	19.68	-34.5	-36.0	25.7	0.00e+00	0	53	0	153616384	41	4085
2026-01-06 04:31:55.89	223.25	19.95	-34.6	-36.1	25.7	0.00e+00	0	53	0	157286400	40	4351
2026-01-06 04:31:58.92	222.05	20.22	-34.4	-35.9	25.8	0.00e+00	0	54	0	160432128	40	4260
2026-01-06 04:32:01.95	220.82	20.48	-34.3	-35.8	25.9	0.00e+00	0	54	0	164102144	40	4197
2026-01-06 04:32:04.98	219.57	20.73	-34.7	-36.2	25.6	0.00e+00	0	54	0	167247872	40	4398
2026-01-06 04:32:08.01	218.30	20.97	-34.3	-35.8	25.9	0.00e+00	0	54	0	170917888	40	4215
2026-01-06 04:32:11.04	217.00	21.20	-34.4	-35.9	25.9	0.00e+00	0	54	0	174063616	40	4253
2026-01-06 04:32:14.07	215.68	21.42	-34.6	-36.1	25.7	0.00e+00	0	54	0	177733632	40	4385
2026-01-06 04:32:17.10	214.34	21.63	-34.4	-35.9	25.9	0.00e+00	0	54	0	180879360	40	4250
2026-01-06 04:32:20.13	212.97	21.83	-34.2	-35.6	26.1	0.00e+00	0	54	0	184549376	40	4133
2026-01-06 04:32:23.16	211.59	22.01	-33.8	-35.2	26.5	0.00e+00	0	54	0	187695104	39	4190
2026-01-06 04:32:26.19	210.19	22.18	-34.3	-35.8	25.9	0.00e+00	0	54	0	191365120	39	4473
2026-01-06 04:32:29.21	208.77	22.33	-34.4	-35.9	25.9	0.00e+00	0	54	0	194510848	40	4253
2026-01-06 04:32:32.24	207.34	22.47	-34.4	-35.9	25.8	0.00e+00	0	54	0	198180864	40	4250
2026-01-06 04:32:35.27	205.89	22.59	-34.4	-35.8	25.9	0.00e+00	0	54	0	201326592	40	4240
2026-01-06 04:32:38.30	204.43	22.70	-34.5	-36.0	25.8	0.00e+00	0	54	0	204996608	40	4298
2026-01-06 04:32:41.33	202.95	22.79	-34.5	-36.1	25.7	0.00e+00	0	54	0	208142336	40	4344
2026-01-06 04:32:44.36	201.47	22.86	-34.1	-35.5	26.2	0.00e+00	0	54	0	211812352	40	4079
2026-01-06 04:32:47.39	199.98	22.92	-33.7	-35.1	26.6	0.00e+00	0	54	0	214958080	39	4142
2026-01-06 04:32:50.42	198.48	22.96	-33.6	-35.0	26.7	0.00e+00	0	54	0	218628096	38	4305
2026-01-06 04:32:53.45	196.99	22.98	-33.5	-34.9	26.9	0.00e+00	0	54	0	221773824	38	4249
2026-01-06 04:32:56.47	195.49	22.98	-33.9	-35.3	26.4	0.00e+00	0	54	0	225443840	38	4486
2026-01-06 04:32:59.51	193.99	22.96	-33.8	-35.2	26.5	0.00e+00	0	54	0	228589568	38	4418
2026-01-06 04:33:02.54	192.49	22.92	-33.9	-35.3	26.4	0.00e+00	0	54	0	232259584	38	4485
2026-01-06 04:33:05.57	191.00	22.87	-33.5	-34.9	26.8	0.00e+00	0	54	0	235405312	38	4267
2026-01-06 04:33:08.60	189.52	22.80	-33.8	-35.2	26.5	0.00e+00	0	54	0	239075328	38	4415
2026-01-06 04:33:11.63	188.04	22.71	-34.0	-35.4	26.3	0.00e+00	0	54	0	242221056	38	4521
2026-01-06 04:33:14.65	186.59	22.60	-34.0	-35.5	26.2	0.00e+00	0	54	0	245891072	38	4563
2026-01-06 04:33:17.68	185.13	22.48	-34.1	-35.5	26.1	0.00e+00	0	54	0	249036800	38	4592
2026-01-06 04:33:20.71	183.70	22.34	-34.1	-35.6	26.1	0.00e+00	0	55	0	252706816	38	4613
2026-01-06 04:33:23.74	182.28	22.19	-34.1	-35.5	26.2	0.00e+00	0	55	0	255852544	38	4582
2026-01-06 04:33:26.77	180.87	22.02	-34.0	-35.4	26.2	0.00e+00	0	55	0	259522560	39	4288
2026-01-06 04:33:29.80	179.49	21.84	-33.8	-35.3	26.4	0.00e+00	0	54	0	262668288	39	4210
2026-01-06 04:33:32.83	178.12	21.65	-33.9	-35.3	26.4	0.00e+00	0	55	0	266338304	39	4216
2026-01-06 04:33:35.86	176.78	21.44	-33.9	-35.4	26.3	0.00e+00	0	54	0	269484032	39	4246
2026-01-06 04:33:38.88	175.46	21.22	-34.3	-35.8	26.0	0.00e+00	0	54	0	273154048	39	4443
2026-01-06 04:33:41.91	174.16	20.99	-34.6	-36.1	25.7	0.00e+00	0	55	0	276299776	39	4631
2026-01-06 04:33:44.94	172.88	20.75	-34.5	-36.0	25.8	0.00e+00	0	55	0	279969792	39	4566
2026-01-06 04:33:47.97	171.63	20.50	-35.1	-36.7	25.1	0.00e+00	0	55	0	283115520	40	4690
2026-01-06 04:33:51.00	170.40	20.24	-34.4	-35.9	25.8	0.00e+00	0	55	0	286785536	40	4282
2026-01-06 04:33:54.03	169.20	19.98	-34.5	-36.1	25.8	0.00e+00	0	55	0	289931264	40	4342
2026-01-06 04:33:57.05	168.02	19.70	-34.6	-36.1	25.7	0.00e+00	0	55	0	293601280	40	4360
2026-01-06 04:34:00.08	166.87	19.42	-35.1	-36.7	25.1	0.00e+00	0	55	0	296747008	40	4705
2026-01-06 04:34:03.11	165.75	19.14	-35.1	-36.7	25.1	0.00e+00	0	55	0	300417024	41	4428
2026-01-06 04:34:06.14	164.64	18.85	-35.2	-36.8	25.0	0.00e+00	0	55	0	303562752	41	4489
2026-01-06 04:34:09.17	163.57	18.56	-35.3	-36.9	24.9	0.00e+00	0	55	0	307232768	41	4507
2026-01-06 04:34:12.20	162.52	18.26	-35.4	-37.1	24.7	0.00e+00	0	55	0	310378496	41	4605
2026-01-06 04:34:15.23	161.49	17.96	-35.1	-36.7	25.0	0.00e+00	0	55	0	314048512	41	4408
2026-01-06 04:34:18.26	160.49	17.65	-35.2	-36.8	24.9	0.00e+00	0	55	0	317194240	41	4486
2026-01-06 04:34:21.29	159.52	17.35	-35.4	-37.0	24.7	0.00e+00	0	55	0	320864256	41	4587
2026-01-06 04:34:24.31	158.57	17.04	-36.0	-37.7	24.1	0.00e+00	0	55	0	324009984	42	4660
2026-01-06 04:34:27.35	157.64	16.74	-35.9	-37.6	24.1	0.00e+00	0	55	0	327680000	43	4362
2026-01-06 04:34:30.37	156.74	16.43	-35.5	-37.2	24.6	0.00e+00	0	55	0	330825728	42	4405
2026-01-06 04:34:33.40	155.86	16.12	-35.6	-37.2	24.5	0.00e+00	0	55	0	334495744	42	4417
2026-01-06 04:34:36.43	155.00	15.81	-35.8	-37.6	24.1	0.00e+00	0	55	0	337641472	42	4600
2026-01-06 04:34:39.46	154.16	15.50	-36.2	-38.0	23.6	0.00e+00	0	55	0	341311488	43	4581
2026-01-06 04:34:42.49	153.34	15.20	-36.1	-37.9	23.6	0.00e+00	0	55	0	344457216	43	4515
2026-01-06 04:34:45.51	152.55	14.89	-36.3	-38.1	23.5	0.00e+00	0	55	0	348127232	43	4623
2026-01-06 04:34:48.54	151.78	14.58	-36.8	-38.6	23.1	0.00e+00	0	55	0	351272960	44	4644
2026-01-06 04:34:51.57	151.03	14.28	-36.4	-38.2	23.4	0.00e+00	0	55	0	354942976	44	4432
2026-01-06 04:34:54.60	150.29	13.98	-36.6	-38.5	23.2	0.00e+00	0	55	0	358088704	44	4554
2026-01-06 04:34:57.63	149.58	13.68	-37.1	-39.1	22.6	0.00e+00	0	55	0	361758720	44	4892
2026-01-06 04:35:00.66	148.88	13.38	-37.1	-39.1	22.5	0.00e+00	0	55	0	364904448	45	4617
2026-01-06 04:35:03.68	148.20	13.08	-37.0	-38.9	22.7	0.00e+00	0	55	0	368574464	45	4508
2026-01-06 04:35:06.72	147.54	12.79	-37.7	-39.8	21.8	0.00e+00	0	55	0	371720192	45	4988
2026-01-06 04:35:09.75	146.90	12.49	-37.5	-39.5	22.0	0.00e+00	0	55	0	375390208	46	4591
2026-01-06 04:35:12.77	146.27	12.20	-37.0	-39.0	22.5	0.00e+00	0	55	0	378535936	46	4317
2026-01-06 04:35:15.80	145.66	11.92	-37.3	-39.3	22.2	0.00e+00	0	55	0	382205952	46	4461
2026-01-06 04:35:18.83	145.06	11.63	-37.7	-39.8	21.6	0.00e+00	0	55	0	385351680	46	4756
2026-01-06 04:35:21.86	144.48	11.35	-37.7	-39.9	21.5	0.00e+00	0	55	0	389021696	46	4792
2026-01-06 04:35:24.89	143.91	11.07	-37.8	-40.0	21.4	0.00e+00	0	55	0	392167424	46	4867
2026-01-06 04:35:27.92	143.36	10.79	-37.9	-40.2	21.2	0.00e+00	0	55	0	395837440	46	4935
2026-01-06 04:35:30.94	142.83	10.52	-37.9	-40.2	21.1	0.00e+00	0	55	0	398983168	46	4947
2026-01-06 04:35:33.97	142.30	10.24	-38.1	-40.4	20.8	0.00e+00	0	55	0	402653184	46	5084
2026-01-06 04:35:37.01	141.79	9.97	-38.0	-40.4	20.8	0.00e+00	0	55	0	405798912	46	5043
2026-01-06 04:35:40.03	141.29	9.71	-38.4	-40.9	20.1	0.00e+00	0	55	0	409468928	47	5075
2026-01-06 04:35:43.06	140.80	9.44	-38.7	-41.4	19.5	0.00e+00	0	55	0	412614656	48	5084
2026-01-06 04:35:46.09	140.33	9.18	-38.2	-40.6	20.2	0.00e+00	0	55	0	416284672	48	4644
2026-01-06 04:35:49.12	139.86	8.92	-38.6	-41.4	19.2	0.00e+00	0	55	0	419430400	47	5362
2026-01-06 04:35:52.15	139.41	8.67	-39.3	-42.8	17.4	0.00e+00	0	55	0	423100416	49	5621
2026-01-06 04:35:55.17	138.97	8.41	-42.0	-53.0	6.4	4.86e-04	0	55	0	426246144	54	13712
2026-01-06 04:35:58.20	138.54	8.16	-42.2	-59.4	3.8	7.89e-01	0	55	104	426770432	54	28417
2026-01-06 04:36:01.23	138.11	7.91	-40.8	-60.5	3.9	8.45e-01	0	55	104	426770432	52	36379
2026-01-06 04:36:04.26	137.70	7.67	-45.2	-63.4	3.8	8.47e-01	0	55	104	426770432	60	31986
2026-01-06 04:36:07.29	137.30	7.42	-45.4	-63.7	3.8	8.46e-01	0	55	104	426770432	61	31400
2026-01-06 04:36:10.32	136.91	7.18	-45.6	-63.8	3.8	8.46e-01	0	55	104	426770432	61	31810
2026-01-06 04:36:13.36	136.52	6.94	-45.4	-63.8	3.8	8.45e-01	0	55	104	426770432	61	31538
2026-01-06 04:36:16.39	136.14	6.71	-45.3	-63.7	3.8	8.45e-01	0	56	104	426770432	61	31313
2026-01-06 04:36:19.43	135.78	6.47	-45.2	-63.7	3.8	8.46e-01	0	55	104	426770432	61	31273
2026-01-06 04:36:22.46	135.42	6.24	-45.2	-63.7	3.8	8.46e-01	0	55	104	426770432	61	31220
2026-01-06 04:36:25.49	135.07	6.01	-45.2	-63.7	3.8	8.46e-01	0	55	104	426770432	61	31214
2026-01-06 04:36:28.52	134.72	5.79	-45.2	-63.7	3.8	8.46e-01	0	55	104	426770432	61	31144
2026-01-06 04:36:31.56	134.39	5.56	-45.2	-63.7	3.8	8.46e-01	0	55	104	426770432	61	31107
2026-01-06 04:36:34.59	134.06	5.34	-45.2	-63.7	3.8	8.46e-01	0	55	104	426770432	61	31106
2026-01-06 04:36:37.62	133.74	5.12	-45.2	-63.7	3.8	8.46e-01	0	55	104	426770432	61	31097
2026-01-06 04:36:40.65	133.42	4.90	-45.2	-63.7	3.8	8.46e-01	0	55	104	426770432	61	31128
2026-01-06 04:36:43.68	133.11	4.68	-45.2	-63.6	3.8	8.45e-01	0	55	104	426770432	61	30984
2026-01-06 04:36:46.71	132.81	4.47	-45.2	-63.6	3.8	8.46e-01	0	56	104	426770432	61	30939
2026-01-06 04:36:49.75	132.52	4.25	-45.2	-63.6	3.8	8.46e-01	0	56	104	426770432	61	30984
2026-01-06 04:36:52.78	132.23	4.04	-45.1	-63.6	3.8	8.45e-01	0	56	104	426770432	61	30894
2026-01-06 04:36:55.81	131.94	3.84	-45.2	-63.6	3.8	8.47e-01	0	56	104	426770432	61	30861
2026-01-06 04:36:58.85	131.67	3.63	-45.1	-63.6	3.8	8.46e-01	0	56	104	426770432	61	30935
2026-01-06 04:37:01.88	131.39	3.42	-45.1	-63.6	3.8	8.46e-01	0	55	104	426770432	61	30837
2026-01-06 04:37:04.91	131.13	3.22	-45.2	-63.6	3.8	8.46e-01	0	55	104	426770432	61	30881
2026-01-06 04:37:07.94	130.87	3.02	-45.2	-63.6	3.8	8.47e-01	0	55	104	426770432	61	30904
2026-01-06 04:37:10.98	130.61	2.82	-45.1	-63.6	3.8	8.46e-01	0	55	104	426770432	61	30866
2026-01-06 04:37:14.01	130.36	2.62	-45.1	-63.6	3.8	8.46e-01	0	55	104	426770432	61	30831
2026-01-06 04:37:17.04	130.11	2.43	-45.1	-63.6	3.8	8.46e-01	0	55	104	426770432	61	30895
2026-01-06 04:37:20.08	129.87	2.23	-45.1	-63.6	3.8	8.47e-01	0	55	104	426770432	61	30795
2026-01-06 04:37:23.11	129.63	2.04	-45.1	-63.6	3.8	8.46e-01	0	55	104	426770432	61	30739

#Closed at: 2026-01-06 04:37:25
#Recorded file [426 MB]: D:/lorett/data/31039_260106_072826.dat