passes_logs/2026/01/06/R2.0S_Moscow/R2.0S_Moscow__20260106_124458_AQUA_rec.log

#Pass ID: 20260106_124458_AQUA
#Satellite: AQUA
#Configuration: AQUA
#almurnet v.1.7.20251203
#Start time: 2026-01-06 12:44:59

#Version: 2.2.20231116
#Station: R2.0S_Moscow
#Location: 37.707566 lon 55.798166 lat
#TLE: 1 27424U 02022A   26004.96787593  .00001598  00000+0  32997-3 0  9996
#TLE: 2 27424  98.4069 331.2279 0002002  90.2377   0.6092 14.61798176259425

#Time	Az	El	Level	Level2	SNR	BER	BlckErr	Temp	State	Recorded	gain1	gain2
2026-01-06 12:44:59.10	196.34	2.03	-44.5	-63.5	3.8	7.43e-01	0	46	0	0	61	30551
2026-01-06 12:45:02.12	196.53	2.22	-44.6	-63.5	3.8	7.43e-01	0	47	104	0	60	32411
2026-01-06 12:45:05.15	196.73	2.40	-44.5	-63.5	3.8	7.44e-01	0	47	104	0	60	32352
2026-01-06 12:45:08.18	196.92	2.59	-44.5	-63.5	3.8	7.45e-01	0	47	104	0	60	32369
2026-01-06 12:45:11.22	197.12	2.78	-44.5	-63.5	3.8	7.48e-01	0	47	104	0	60	32378
2026-01-06 12:45:14.25	197.33	2.97	-44.5	-63.5	3.8	7.44e-01	0	48	104	0	60	32438
2026-01-06 12:45:17.28	197.53	3.16	-44.5	-63.5	3.8	7.45e-01	0	48	104	0	60	32368
2026-01-06 12:45:20.32	197.74	3.36	-44.5	-63.5	3.8	7.44e-01	0	48	104	0	60	32324
2026-01-06 12:45:23.35	197.95	3.55	-44.5	-63.5	3.8	7.45e-01	0	48	104	0	60	32354
2026-01-06 12:45:26.38	198.16	3.75	-44.5	-63.5	3.8	7.46e-01	0	48	104	0	60	32344
2026-01-06 12:45:29.41	198.38	3.94	-44.5	-63.4	3.8	7.46e-01	0	49	104	0	60	31984
2026-01-06 12:45:32.45	198.60	4.14	-44.5	-63.3	3.8	7.46e-01	0	49	104	0	60	31682
2026-01-06 12:45:35.48	198.82	4.34	-44.5	-63.3	3.8	7.45e-01	0	49	104	0	60	31547
2026-01-06 12:45:38.51	199.05	4.54	-44.5	-63.4	3.8	7.46e-01	0	49	104	0	60	31912
2026-01-06 12:45:41.54	199.28	4.74	-44.5	-63.5	3.8	7.46e-01	0	49	104	0	60	32232
2026-01-06 12:45:44.58	199.51	4.94	-44.5	-63.4	3.8	7.47e-01	0	49	104	0	60	32073
2026-01-06 12:45:47.61	199.75	5.15	-44.5	-63.4	3.8	7.44e-01	0	50	104	0	60	31829
2026-01-06 12:45:50.64	199.99	5.35	-44.5	-62.6	3.8	7.43e-01	0	50	104	0	60	29224
2026-01-06 12:45:53.67	200.23	5.56	-44.5	-60.9	4.0	7.40e-01	0	50	104	0	60	23983
2026-01-06 12:45:56.70	200.48	5.77	-44.4	-59.9	3.8	7.41e-01	0	50	104	0	60	21281
2026-01-06 12:45:59.73	200.73	5.98	-44.4	-59.4	3.9	7.38e-01	0	50	104	0	60	20174
2026-01-06 12:46:02.76	200.98	6.19	-44.5	-60.8	4.0	7.40e-01	0	50	104	0	60	23734
2026-01-06 12:46:05.80	201.24	6.40	-44.5	-62.4	3.8	7.46e-01	0	51	104	0	60	28502
2026-01-06 12:46:08.83	201.50	6.62	-44.4	-59.5	4.3	7.28e-01	0	51	104	0	60	20492
2026-01-06 12:46:11.86	201.77	6.83	-44.3	-57.3	5.3	7.01e-01	0	51	0	0	60	15869
2026-01-06 12:46:14.89	202.04	7.05	-44.1	-53.3	9.2	6.31e-01	0	51	0	4718592	59	10575
2026-01-06 12:46:17.93	202.32	7.27	-43.1	-48.9	13.9	6.08e-01	0	51	0	10485760	58	6729
2026-01-06 12:46:20.96	202.60	7.49	-41.8	-45.8	16.9	6.05e-01	0	51	0	16252928	55	5637
2026-01-06 12:46:23.99	202.88	7.71	-40.6	-43.8	18.9	6.07e-01	0	51	0	21495808	53	5013
2026-01-06 12:46:27.02	203.17	7.94	-40.7	-43.8	18.9	6.08e-01	0	51	0	27262976	53	5033
2026-01-06 12:46:30.05	203.46	8.16	-44.4	-60.3	4.0	7.46e-01	0	51	104	33030144	59	23772
2026-01-06 12:46:33.08	203.76	8.39	-43.4	-49.4	13.7	6.06e-01	0	52	0	37748736	57	7565
2026-01-06 12:46:36.11	204.06	8.62	-40.7	-43.7	19.3	6.05e-01	0	52	0	42991616	53	4980
2026-01-06 12:46:39.14	204.37	8.85	-40.5	-43.4	19.7	6.06e-01	0	52	0	48758784	53	4778
2026-01-06 12:46:42.17	204.68	9.08	-40.5	-43.3	19.8	6.05e-01	0	52	0	54525952	52	5038
2026-01-06 12:46:45.20	205.00	9.31	-40.3	-42.9	20.2	6.07e-01	0	52	0	60293120	52	4811
2026-01-06 12:46:48.22	205.32	9.55	-40.2	-42.8	20.4	6.07e-01	0	52	0	66060288	52	4733
2026-01-06 12:46:51.25	205.65	9.79	-40.2	-42.8	20.4	6.06e-01	0	52	0	71827456	52	4726
2026-01-06 12:46:54.28	205.99	10.03	-40.0	-42.5	20.7	6.07e-01	0	52	0	77070336	52	4596
2026-01-06 12:46:57.31	206.33	10.27	-40.1	-42.6	20.7	6.08e-01	0	52	0	82837504	51	4914
2026-01-06 12:47:00.34	206.67	10.51	-40.1	-42.6	20.8	6.06e-01	0	52	0	88604672	51	4900
2026-01-06 12:47:03.37	207.03	10.75	-40.0	-42.4	21.0	6.07e-01	0	53	0	94371840	51	4800
2026-01-06 12:47:06.40	207.39	11.00	-40.0	-42.4	21.0	6.06e-01	0	53	0	100139008	51	4804
2026-01-06 12:47:09.43	207.75	11.25	-39.9	-42.4	21.1	6.09e-01	0	52	0	105906176	51	4771
2026-01-06 12:47:12.46	208.12	11.50	-40.0	-42.4	21.0	6.08e-01	0	53	0	111149056	51	4814
2026-01-06 12:47:15.50	208.50	11.75	-39.9	-42.3	21.2	6.06e-01	0	53	0	116916224	51	4713
2026-01-06 12:47:18.53	208.89	12.01	-39.9	-42.2	21.3	6.05e-01	0	53	0	122683392	51	4688
2026-01-06 12:47:21.56	209.28	12.26	-39.7	-42.1	21.5	6.07e-01	0	53	0	128450560	51	4600
2026-01-06 12:47:24.58	209.68	12.52	-39.6	-41.9	21.7	6.06e-01	0	53	0	134217728	51	4497
2026-01-06 12:47:27.61	210.08	12.78	-39.8	-42.2	21.5	6.06e-01	0	53	0	139984896	51	4654
2026-01-06 12:47:30.65	210.50	13.04	-39.8	-42.1	21.5	6.08e-01	0	53	0	145227776	51	4642
2026-01-06 12:47:33.68	210.92	13.30	-39.8	-42.1	21.5	6.07e-01	0	53	0	150994944	51	4620
2026-01-06 12:47:36.71	211.35	13.57	-39.7	-42.0	21.6	6.06e-01	0	53	0	156762112	51	4565
2026-01-06 12:47:39.74	211.79	13.83	-39.7	-41.9	21.7	6.04e-01	0	53	0	162529280	51	4544
2026-01-06 12:47:42.77	212.24	14.10	-39.8	-42.1	21.6	6.06e-01	0	53	0	168296448	51	4609
2026-01-06 12:47:45.79	212.69	14.37	-39.6	-41.8	21.9	6.09e-01	0	53	0	174063616	51	4443
2026-01-06 12:47:48.82	213.15	14.64	-39.6	-41.8	21.9	6.08e-01	0	53	0	179306496	51	4476
2026-01-06 12:47:51.85	213.63	14.92	-39.7	-41.9	21.8	6.08e-01	0	53	0	185073664	51	4540
2026-01-06 12:47:54.88	214.11	15.19	-39.7	-42.0	21.8	6.05e-01	0	54	0	190840832	51	4551
2026-01-06 12:47:57.91	214.60	15.47	-39.6	-41.7	22.0	6.05e-01	0	54	0	196608000	51	4430
2026-01-06 12:48:00.94	215.10	15.75	-39.5	-41.7	22.1	6.05e-01	0	54	0	202375168	51	4399
2026-01-06 12:48:03.97	215.61	16.03	-39.7	-41.9	21.8	6.07e-01	0	54	0	208142336	50	4814
2026-01-06 12:48:07.00	216.13	16.31	-39.4	-41.5	22.2	6.05e-01	0	54	0	213909504	50	4591
2026-01-06 12:48:10.03	216.66	16.59	-39.5	-41.6	22.2	6.06e-01	0	54	0	219152384	50	4634
2026-01-06 12:48:13.06	217.20	16.87	-39.5	-41.6	22.2	6.07e-01	0	54	0	224919552	50	4614
2026-01-06 12:48:16.09	217.75	17.16	-39.6	-41.8	22.0	6.07e-01	0	54	0	230686720	50	4715
2026-01-06 12:48:19.12	218.32	17.45	-39.4	-41.4	22.4	6.07e-01	0	54	0	236453888	50	4535
2026-01-06 12:48:22.15	218.89	17.73	-39.4	-41.5	22.3	6.06e-01	0	54	0	242221056	50	4565
2026-01-06 12:48:25.17	219.47	18.02	-39.4	-41.4	22.4	6.06e-01	0	54	0	247463936	50	4544
2026-01-06 12:48:28.20	220.07	18.31	-39.4	-41.5	22.3	6.05e-01	0	54	0	253231104	50	4595
2026-01-06 12:48:31.23	220.68	18.60	-39.3	-41.4	22.5	6.08e-01	0	54	0	258998272	50	4523
2026-01-06 12:48:34.25	221.30	18.89	-39.4	-41.4	22.5	6.08e-01	0	54	0	264765440	50	4539
2026-01-06 12:48:37.28	221.93	19.18	-39.4	-41.5	22.3	6.07e-01	0	54	0	270532608	50	4581
2026-01-06 12:48:40.31	222.58	19.48	-39.4	-41.5	22.3	6.08e-01	0	54	0	276299776	50	4584
2026-01-06 12:48:43.34	223.23	19.77	-39.5	-41.6	22.3	6.07e-01	0	54	0	281542656	50	4627
2026-01-06 12:48:46.37	223.91	20.06	-39.6	-41.7	22.2	6.07e-01	0	54	0	287309824	50	4664
2026-01-06 12:48:49.40	224.59	20.35	-39.5	-41.6	22.3	6.05e-01	0	54	0	293076992	50	4617
2026-01-06 12:48:52.43	225.29	20.65	-39.6	-41.7	22.2	6.07e-01	0	54	0	298844160	50	4662
2026-01-06 12:48:55.46	226.00	20.94	-39.5	-41.6	22.3	6.06e-01	0	54	0	304611328	50	4646
2026-01-06 12:48:58.49	226.73	21.23	-39.6	-41.7	22.2	6.06e-01	0	54	0	310378496	50	4683
2026-01-06 12:49:01.52	227.47	21.52	-39.5	-41.5	22.4	6.06e-01	0	54	0	315621376	50	4588
2026-01-06 12:49:04.54	228.22	21.81	-39.7	-41.9	22.1	6.06e-01	0	54	0	321388544	50	4760
2026-01-06 12:49:07.57	228.99	22.10	-39.7	-41.8	22.1	6.05e-01	0	54	0	327155712	50	4746
2026-01-06 12:49:10.60	229.78	22.38	-39.7	-41.8	22.1	6.05e-01	0	54	0	332922880	50	4743
2026-01-06 12:49:13.63	230.58	22.67	-39.6	-41.8	22.1	6.05e-01	0	54	0	338690048	50	4739
2026-01-06 12:49:16.66	231.39	22.95	-39.7	-41.8	22.1	6.06e-01	0	54	0	344457216	50	4731
2026-01-06 12:49:19.69	232.22	23.23	-39.8	-41.9	22.0	6.06e-01	0	54	0	349700096	50	4807
2026-01-06 12:49:22.72	233.06	23.51	-39.8	-42.0	22.0	6.07e-01	0	54	0	355467264	50	4833
2026-01-06 12:49:25.75	233.92	23.78	-39.9	-42.0	21.9	6.04e-01	0	54	0	361234432	50	4868
2026-01-06 12:49:28.79	234.80	24.05	-39.9	-42.1	21.9	6.06e-01	0	55	0	367001600	50	4895
2026-01-06 12:49:31.81	235.69	24.32	-39.8	-42.0	21.9	6.09e-01	0	55	0	372768768	50	4852
2026-01-06 12:49:34.84	236.60	24.58	-39.8	-42.0	22.0	6.06e-01	0	54	0	378535936	50	4853
2026-01-06 12:49:37.87	237.52	24.84	-39.8	-42.0	22.0	6.06e-01	0	55	0	383778816	50	4836
2026-01-06 12:49:40.90	238.46	25.09	-39.8	-42.0	22.0	6.06e-01	0	55	0	389545984	50	4836
2026-01-06 12:49:43.93	239.41	25.34	-39.9	-42.0	22.0	6.07e-01	0	54	0	395313152	50	4867
2026-01-06 12:49:46.96	240.38	25.58	-39.9	-42.1	21.9	6.06e-01	0	55	0	401080320	50	4874
2026-01-06 12:49:49.98	241.35	25.81	-39.8	-41.9	22.1	6.07e-01	0	55	0	406847488	50	4808
2026-01-06 12:49:53.01	242.35	26.04	-39.8	-41.9	22.0	6.08e-01	0	54	0	412614656	50	4800
2026-01-06 12:49:56.04	243.36	26.27	-39.7	-41.9	22.1	6.06e-01	0	55	0	417857536	50	4776
2026-01-06 12:49:59.07	244.39	26.48	-39.8	-42.0	22.0	6.04e-01	0	55	0	423624704	50	4829
2026-01-06 12:50:02.10	245.43	26.69	-39.9	-42.0	21.9	6.08e-01	0	55	0	429391872	50	4861
2026-01-06 12:50:05.13	246.48	26.89	-39.8	-42.0	22.1	6.08e-01	0	55	0	435159040	50	4818
2026-01-06 12:50:08.16	247.55	27.08	-39.8	-42.0	22.0	6.06e-01	0	55	0	440926208	50	4843
2026-01-06 12:50:11.19	248.63	27.26	-39.7	-41.9	22.1	6.05e-01	0	55	0	446693376	50	4781
2026-01-06 12:50:14.22	249.72	27.43	-39.8	-41.9	22.1	6.05e-01	0	55	0	451936256	50	4804
2026-01-06 12:50:17.25	250.83	27.60	-39.8	-41.9	22.1	6.07e-01	0	55	0	457703424	50	4788
2026-01-06 12:50:20.28	251.94	27.75	-39.7	-41.8	22.2	6.06e-01	0	55	0	463470592	50	4714
2026-01-06 12:50:23.31	253.07	27.89	-39.7	-41.8	22.2	6.08e-01	0	55	0	469237760	50	4745
2026-01-06 12:50:26.33	254.20	28.02	-39.6	-41.7	22.3	6.06e-01	0	55	0	475004928	50	4699
2026-01-06 12:50:29.36	255.34	28.14	-39.6	-41.7	22.3	6.06e-01	0	55	0	480772096	50	4681
2026-01-06 12:50:32.39	256.49	28.25	-39.5	-41.6	22.4	6.06e-01	0	55	0	486014976	50	4603
2026-01-06 12:50:35.42	257.65	28.35	-39.5	-41.6	22.4	6.06e-01	0	55	0	491782144	50	4617
2026-01-06 12:50:38.45	258.82	28.43	-39.6	-41.6	22.4	6.06e-01	0	55	0	497549312	50	4648
2026-01-06 12:50:41.48	259.99	28.51	-39.4	-41.5	22.5	6.05e-01	0	55	0	503316480	50	4550
2026-01-06 12:50:44.51	261.17	28.57	-39.4	-41.4	22.6	6.06e-01	0	55	0	509083648	50	4518
2026-01-06 12:50:47.53	262.35	28.61	-39.5	-41.6	22.5	6.07e-01	0	55	0	514850816	50	4606
2026-01-06 12:50:50.56	263.53	28.65	-39.4	-41.4	22.6	6.07e-01	0	55	0	520093696	50	4537
2026-01-06 12:50:53.60	264.72	28.67	-39.5	-41.5	22.5	6.06e-01	0	55	0	525860864	50	4587
2026-01-06 12:50:56.62	265.90	28.68	-39.6	-41.7	22.4	6.07e-01	0	55	0	531628032	50	4678
2026-01-06 12:50:59.65	267.09	28.68	-39.4	-41.4	22.6	6.06e-01	0	55	0	537395200	50	4514
2026-01-06 12:51:02.68	268.28	28.66	-39.4	-41.4	22.6	6.08e-01	0	55	0	543162368	50	4537
2026-01-06 12:51:05.71	269.46	28.63	-39.2	-41.2	22.8	6.06e-01	0	55	0	548929536	50	4420
2026-01-06 12:51:08.74	270.65	28.59	-39.2	-41.2	22.9	6.09e-01	0	55	0	554172416	50	4400
2026-01-06 12:51:11.77	271.82	28.54	-39.3	-41.3	22.7	6.07e-01	0	55	0	559939584	50	4480
2026-01-06 12:51:14.79	272.99	28.47	-39.3	-41.3	22.7	6.05e-01	0	55	0	565706752	50	4445
2026-01-06 12:51:17.82	274.16	28.40	-39.2	-41.2	22.8	6.05e-01	0	55	0	571473920	50	4426
2026-01-06 12:51:20.85	275.32	28.31	-39.3	-41.3	22.7	6.04e-01	0	55	0	577241088	50	4465
2026-01-06 12:51:23.88	276.48	28.20	-39.2	-41.2	22.8	6.05e-01	0	55	0	583008256	50	4415
2026-01-06 12:51:26.91	277.62	28.09	-39.3	-41.3	22.7	6.06e-01	0	55	0	588251136	50	4467
2026-01-06 12:51:29.94	278.76	27.96	-39.2	-41.1	22.8	6.06e-01	0	55	0	594018304	50	4390
2026-01-06 12:51:32.97	279.89	27.83	-39.3	-41.3	22.6	6.06e-01	0	55	0	599785472	50	4491
2026-01-06 12:51:36.01	281.01	27.68	-39.3	-41.3	22.7	6.05e-01	0	55	0	605552640	50	4447
2026-01-06 12:51:39.03	282.12	27.53	-39.2	-41.2	22.7	6.06e-01	0	55	0	611319808	50	4432
2026-01-06 12:51:42.06	283.21	27.36	-39.1	-41.1	22.8	6.06e-01	0	55	0	617086976	50	4362
2026-01-06 12:51:45.09	284.29	27.18	-39.3	-41.3	22.6	6.05e-01	0	55	0	622329856	50	4480
2026-01-06 12:51:48.12	285.37	27.00	-39.3	-41.3	22.6	6.05e-01	0	55	0	628097024	50	4472
2026-01-06 12:51:51.15	286.42	26.80	-39.4	-41.4	22.5	6.06e-01	0	55	0	633864192	50	4529
2026-01-06 12:51:54.18	287.47	26.60	-39.5	-41.6	22.4	6.05e-01	0	55	0	639631360	50	4603
2026-01-06 12:51:57.20	288.49	26.39	-39.2	-41.2	22.7	6.08e-01	0	55	0	645398528	50	4422
2026-01-06 12:52:00.23	289.51	26.18	-39.4	-41.5	22.5	6.08e-01	0	55	0	651165696	50	4546
2026-01-06 12:52:03.26	290.51	25.95	-39.3	-41.4	22.5	6.05e-01	0	55	0	656408576	50	4505
2026-01-06 12:52:06.30	291.50	25.72	-39.3	-41.4	22.5	6.07e-01	0	55	0	662175744	50	4507
2026-01-06 12:52:09.32	292.47	25.48	-39.4	-41.5	22.4	6.05e-01	0	55	0	667942912	50	4585
2026-01-06 12:52:12.35	293.43	25.24	-39.5	-41.6	22.3	6.09e-01	0	55	0	673710080	50	4634
2026-01-06 12:52:15.39	294.37	24.99	-39.4	-41.5	22.4	6.07e-01	0	55	0	679477248	50	4549
2026-01-06 12:52:18.41	295.30	24.74	-39.5	-41.6	22.3	6.09e-01	0	55	0	685244416	50	4631
2026-01-06 12:52:21.44	296.21	24.48	-39.4	-41.5	22.4	6.06e-01	0	55	0	690487296	50	4580
2026-01-06 12:52:24.47	297.10	24.22	-39.5	-41.6	22.3	6.05e-01	0	55	0	696254464	50	4624
2026-01-06 12:52:27.49	297.98	23.95	-39.4	-41.4	22.4	6.08e-01	0	55	0	702021632	50	4530
2026-01-06 12:52:30.53	298.85	23.68	-39.6	-41.7	22.2	6.06e-01	0	55	0	707788800	50	4657
2026-01-06 12:52:33.56	299.70	23.41	-39.5	-41.6	22.2	6.07e-01	0	55	0	713555968	50	4648
2026-01-06 12:52:36.59	300.53	23.13	-39.4	-41.5	22.3	6.05e-01	0	55	0	719323136	50	4577
2026-01-06 12:52:39.62	301.35	22.85	-39.5	-41.6	22.2	6.05e-01	0	55	0	724566016	50	4626
2026-01-06 12:52:42.64	302.15	22.57	-39.7	-41.9	21.9	6.06e-01	0	55	0	730333184	50	4794
2026-01-06 12:52:45.67	302.94	22.29	-39.4	-41.5	22.3	6.06e-01	0	55	0	736100352	50	4559
2026-01-06 12:52:48.70	303.72	22.00	-39.6	-41.8	22.0	6.07e-01	0	55	0	741867520	50	4740
2026-01-06 12:52:51.73	304.48	21.72	-39.3	-41.4	22.4	6.04e-01	0	55	0	747634688	50	4522
2026-01-06 12:52:54.76	305.22	21.43	-39.6	-41.8	22.0	6.05e-01	0	55	0	753401856	50	4712
2026-01-06 12:52:57.79	305.95	21.14	-39.3	-41.3	22.4	6.07e-01	0	55	0	758644736	50	4478
2026-01-06 12:53:00.82	306.67	20.85	-39.5	-41.6	22.2	6.06e-01	0	55	0	764411904	50	4608
2026-01-06 12:53:03.84	307.37	20.56	-39.4	-41.5	22.2	6.07e-01	0	56	0	770179072	50	4579
2026-01-06 12:53:06.88	308.06	20.27	-39.3	-41.3	22.4	6.07e-01	0	55	0	775946240	50	4479
2026-01-06 12:53:09.91	308.74	19.98	-39.3	-41.4	22.3	6.07e-01	0	55	0	781713408	50	4526
2026-01-06 12:53:12.94	309.40	19.69	-39.3	-41.4	22.3	6.05e-01	0	56	0	787480576	50	4507
2026-01-06 12:53:15.97	310.05	19.40	-39.3	-41.4	22.3	6.05e-01	0	56	0	792723456	50	4520
2026-01-06 12:53:19.00	310.69	19.11	-39.3	-41.4	22.3	6.07e-01	0	55	0	798490624	50	4494
2026-01-06 12:53:22.03	311.32	18.82	-39.2	-41.2	22.5	6.07e-01	0	56	0	804257792	50	4441
2026-01-06 12:53:25.06	311.93	18.53	-39.4	-41.5	22.2	6.06e-01	0	55	0	810024960	50	4572
2026-01-06 12:53:28.09	312.53	18.25	-39.4	-41.5	22.2	6.06e-01	0	56	0	815792128	50	4560
2026-01-06 12:53:31.12	313.12	17.96	-39.2	-41.2	22.4	6.07e-01	0	55	0	821559296	50	4431
2026-01-06 12:53:34.15	313.70	17.67	-39.2	-41.2	22.4	6.06e-01	0	56	0	826802176	50	4441
2026-01-06 12:53:37.18	314.27	17.39	-39.2	-41.3	22.3	6.08e-01	0	56	0	832569344	50	4466
2026-01-06 12:53:40.20	314.82	17.11	-39.2	-41.4	22.3	6.06e-01	0	56	0	838336512	50	4496
2026-01-06 12:53:43.23	315.36	16.82	-39.2	-41.3	22.3	6.06e-01	0	55	0	844103680	50	4442
2026-01-06 12:53:46.26	315.90	16.54	-39.2	-41.3	22.3	6.05e-01	0	56	0	849870848	50	4458
2026-01-06 12:53:49.28	316.42	16.26	-39.3	-41.5	22.1	6.07e-01	0	56	0	855638016	50	4555
2026-01-06 12:53:52.32	316.94	15.98	-39.5	-41.7	21.9	6.04e-01	0	56	0	860880896	50	4685
2026-01-06 12:53:55.35	317.44	15.71	-39.3	-41.4	22.2	6.05e-01	0	55	0	866648064	50	4519
2026-01-06 12:53:58.38	317.94	15.43	-39.4	-41.6	22.0	6.05e-01	0	56	0	872415232	50	4602
2026-01-06 12:54:01.41	318.42	15.16	-39.5	-41.6	21.9	6.05e-01	0	56	0	878182400	50	4644
2026-01-06 12:54:04.44	318.90	14.89	-39.2	-41.2	22.3	6.07e-01	0	55	0	883949568	50	4435
2026-01-06 12:54:07.46	319.37	14.62	-39.3	-41.5	22.0	6.06e-01	0	55	0	889716736	50	4572
2026-01-06 12:54:10.49	319.83	14.35	-39.4	-41.6	21.9	6.07e-01	0	55	0	894959616	50	4630
2026-01-06 12:54:13.52	320.28	14.08	-39.4	-41.6	21.9	6.03e-01	0	55	0	900726784	50	4634
2026-01-06 12:54:16.55	320.72	13.82	-39.3	-41.5	22.0	6.03e-01	0	55	0	906493952	50	4552
2026-01-06 12:54:19.58	321.15	13.55	-39.4	-41.5	21.9	6.02e-01	0	56	0	912261120	50	4596
2026-01-06 12:54:22.61	321.58	13.29	-39.4	-41.6	21.9	5.99e-01	0	55	0	918028288	50	4609
2026-01-06 12:54:25.64	322.00	13.03	-39.5	-41.7	21.8	6.03e-01	0	56	0	923795456	50	4686
2026-01-06 12:54:28.67	322.41	12.77	-39.6	-41.9	21.6	6.02e-01	0	55	0	929038336	50	4777
2026-01-06 12:54:31.69	322.81	12.52	-39.8	-42.1	21.3	6.02e-01	0	56	0	934805504	50	4905
2026-01-06 12:54:34.72	323.21	12.26	-39.8	-42.1	21.3	6.01e-01	0	56	0	940572672	50	4900
2026-01-06 12:54:37.75	323.60	12.01	-39.9	-42.2	21.2	6.01e-01	0	56	0	946339840	50	4977
2026-01-06 12:54:40.78	323.98	11.76	-39.8	-42.1	21.3	6.02e-01	0	55	0	952107008	50	4906
2026-01-06 12:54:43.82	324.36	11.51	-39.7	-42.0	21.4	6.01e-01	0	56	0	957874176	50	4825
2026-01-06 12:54:46.84	324.72	11.26	-39.6	-41.9	21.4	6.00e-01	0	56	0	963117056	50	4813
2026-01-06 12:54:49.87	325.09	11.02	-39.9	-42.2	21.1	6.01e-01	0	56	0	968884224	50	4983
2026-01-06 12:54:52.90	325.44	10.77	-39.9	-42.4	21.0	5.99e-01	0	56	0	974651392	50	5060
2026-01-06 12:54:55.93	325.79	10.53	-39.8	-42.2	21.2	6.02e-01	0	56	0	980418560	50	4938
2026-01-06 12:54:58.96	326.14	10.29	-40.0	-42.5	20.8	6.01e-01	0	56	0	986185728	50	5117
2026-01-06 12:55:01.99	326.48	10.05	-40.0	-42.4	20.9	6.04e-01	0	56	0	991952896	50	5089
2026-01-06 12:55:05.02	326.81	9.82	-40.2	-42.8	20.5	6.00e-01	0	56	0	997195776	51	5003
2026-01-06 12:55:08.05	327.14	9.58	-40.2	-42.9	20.4	5.99e-01	0	56	0	1002962944	51	5044
2026-01-06 12:55:11.07	327.46	9.35	-40.2	-42.8	20.4	6.01e-01	0	56	0	1008730112	51	5009
2026-01-06 12:55:14.11	327.78	9.12	-40.3	-42.9	20.3	6.04e-01	0	56	0	1014497280	51	5093
2026-01-06 12:55:17.14	328.09	8.89	-40.2	-42.9	20.3	6.03e-01	0	56	0	1020264448	51	5066
2026-01-06 12:55:20.16	328.39	8.66	-40.3	-43.0	20.1	6.00e-01	0	56	0	1026031616	51	5155
2026-01-06 12:55:23.19	328.69	8.43	-40.2	-42.8	20.3	6.01e-01	0	56	0	1031274496	51	5034
2026-01-06 12:55:26.22	328.99	8.21	-40.4	-43.2	19.8	6.00e-01	0	56	0	1037041664	51	5258
2026-01-06 12:55:29.25	329.28	7.99	-40.2	-42.9	20.1	6.01e-01	0	56	0	1042808832	51	5059
2026-01-06 12:55:32.27	329.57	7.77	-45.7	-64.5	3.8	7.44e-01	0	56	104	1043857408	61	34213
2026-01-06 12:55:35.31	329.85	7.55	-46.1	-65.0	3.8	7.47e-01	0	56	104	1043857408	62	34130
2026-01-06 12:55:38.34	330.13	7.33	-46.1	-65.0	3.8	7.45e-01	0	56	104	1043857408	62	34407
2026-01-06 12:55:41.37	330.41	7.11	-46.1	-65.0	3.8	7.42e-01	0	56	104	1043857408	62	34258
2026-01-06 12:55:44.39	330.68	6.90	-46.1	-65.0	3.8	7.47e-01	0	56	104	1043857408	62	34149
2026-01-06 12:55:47.43	330.94	6.68	-46.1	-65.0	3.8	7.46e-01	0	56	104	1043857408	62	34176
2026-01-06 12:55:50.46	331.21	6.47	-46.0	-65.0	3.8	7.46e-01	0	56	104	1043857408	62	34104
2026-01-06 12:55:53.49	331.47	6.26	-46.0	-64.9	3.8	7.46e-01	0	56	104	1043857408	62	34070
2026-01-06 12:55:56.52	331.72	6.05	-46.0	-64.9	3.8	7.45e-01	0	56	104	1043857408	62	33978
2026-01-06 12:55:59.55	331.97	5.84	-46.0	-65.0	3.8	7.42e-01	0	56	104	1043857408	62	34090
2026-01-06 12:56:02.58	332.22	5.64	-46.0	-64.9	3.8	7.46e-01	0	56	104	1043857408	62	34048
2026-01-06 12:56:05.61	332.46	5.43	-46.0	-65.0	3.8	7.46e-01	0	56	104	1043857408	62	34098
2026-01-06 12:56:08.65	332.70	5.23	-46.0	-64.9	3.8	7.47e-01	0	56	104	1043857408	62	33949
2026-01-06 12:56:11.68	332.94	5.03	-46.0	-64.9	3.8	7.47e-01	0	56	104	1043857408	62	34007
2026-01-06 12:56:14.71	333.17	4.83	-46.0	-64.9	3.8	7.48e-01	0	56	104	1043857408	62	33971
2026-01-06 12:56:17.74	333.40	4.63	-46.0	-64.9	3.8	7.44e-01	0	56	104	1043857408	62	33962
2026-01-06 12:56:20.78	333.63	4.43	-46.0	-64.9	3.8	7.45e-01	0	56	104	1043857408	62	33986
2026-01-06 12:56:23.81	333.85	4.23	-46.0	-64.9	3.8	7.47e-01	0	56	104	1043857408	62	33981
2026-01-06 12:56:26.84	334.08	4.03	-46.0	-64.9	3.8	7.48e-01	0	56	104	1043857408	62	33916
2026-01-06 12:56:29.87	334.29	3.84	-46.0	-64.9	3.8	7.45e-01	0	56	104	1043857408	62	33928
2026-01-06 12:56:32.90	334.51	3.65	-46.0	-64.9	3.8	7.45e-01	0	56	104	1043857408	62	33860
2026-01-06 12:56:35.93	334.72	3.46	-46.0	-64.9	3.8	7.44e-01	0	56	104	1043857408	62	33858
2026-01-06 12:56:38.96	334.93	3.27	-46.0	-64.9	3.8	7.43e-01	0	56	104	1043857408	62	33932
2026-01-06 12:56:41.99	335.14	3.08	-46.0	-64.9	3.8	7.47e-01	0	56	104	1043857408	62	33862
2026-01-06 12:56:45.02	335.34	2.89	-46.0	-64.9	3.8	7.45e-01	0	56	104	1043857408	62	33885
2026-01-06 12:56:48.06	335.54	2.70	-46.0	-64.9	3.8	7.43e-01	0	56	104	1043857408	62	33900
2026-01-06 12:56:51.09	335.74	2.51	-46.0	-64.9	3.8	7.42e-01	0	56	104	1043857408	62	33938
2026-01-06 12:56:54.12	335.94	2.33	-46.0	-64.9	3.8	7.46e-01	0	56	104	1043857408	62	33888
2026-01-06 12:56:57.15	336.13	2.15	-46.0	-64.9	3.8	7.45e-01	0	56	104	1043857408	62	33887
2026-01-06 12:57:00.18	336.32	1.96	-46.0	-64.9	3.8	7.47e-01	0	56	104	1043857408	62	33862

#Closed at: 2026-01-06 12:57:01
#Recorded file [1043 MB]: D:/lorett/data/31039_260106_154458.dat