passes_logs/2026/01/06/R2.0S_Moscow/R2.0S_Moscow__20260106_103349_SUOMI_NPP_rec.log

#Pass ID: 20260106_103349_SUOMI NPP
#Satellite: SUOMI NPP
#Configuration: NPP
#almurnet v.1.7.20251203
#Start time: 2026-01-06 10:33:49

#Version: 2.2.20231116
#Station: R2.0S_Moscow
#Location: 37.707566 lon 55.798166 lat
#TLE: 1 37849U 11061A   26004.95404768  .00000136  00000+0  85334-4 0  9991
#TLE: 2 37849  98.7801 307.0898 0002575  80.6707 279.4760 14.19522289735281

#Time	Az	El	Level	Level2	SNR	BER	BlckErr	Temp	State	Recorded	gain1	gain2
2026-01-06 10:33:49.38	177.41	1.98	-44.0	-58.6	3.8	1.49e+00	0	47	0	0	59	19413
2026-01-06 10:33:53.41	177.53	2.24	-44.0	-58.5	3.8	1.49e+00	0	47	104	0	59	19376
2026-01-06 10:33:57.45	177.64	2.50	-44.0	-58.5	3.8	1.49e+00	0	47	104	0	59	19356
2026-01-06 10:34:01.50	177.76	2.76	-44.0	-58.5	3.8	1.49e+00	0	48	104	0	59	19332
2026-01-06 10:34:05.54	177.88	3.02	-44.0	-58.6	3.8	1.49e+00	0	48	104	0	59	19394
2026-01-06 10:34:09.58	178.01	3.29	-44.0	-58.5	3.8	1.49e+00	0	48	104	0	59	19376
2026-01-06 10:34:13.63	178.13	3.55	-44.0	-58.6	3.8	1.49e+00	0	48	104	0	59	19407
2026-01-06 10:34:17.66	178.26	3.82	-44.0	-58.5	3.8	1.49e+00	0	48	104	0	59	19298
2026-01-06 10:34:21.71	178.39	4.10	-44.0	-58.5	3.8	1.49e+00	0	49	104	0	59	19341
2026-01-06 10:34:25.75	178.52	4.37	-44.0	-58.5	3.8	1.49e+00	0	49	104	0	59	19297
2026-01-06 10:34:29.79	178.65	4.65	-44.0	-58.5	3.8	1.49e+00	0	49	104	0	59	19324
2026-01-06 10:34:33.83	178.79	4.93	-44.0	-58.5	3.8	1.49e+00	0	50	104	0	59	19179
2026-01-06 10:34:37.87	178.93	5.21	-44.0	-58.1	3.8	1.49e+00	0	50	104	0	59	18491
2026-01-06 10:34:41.92	179.07	5.50	-44.0	-57.7	3.8	1.49e+00	0	50	104	0	59	17552
2026-01-06 10:34:45.96	179.21	5.79	-44.0	-57.9	3.8	1.49e+00	0	50	104	0	59	17969
2026-01-06 10:34:50.00	179.36	6.08	-44.0	-57.5	3.8	1.49e+00	0	50	104	0	59	17227
2026-01-06 10:34:54.04	179.51	6.38	-43.9	-56.6	3.8	1.49e+00	0	50	104	0	59	15412
2026-01-06 10:34:58.09	179.66	6.68	-43.6	-53.2	4.9	1.11e+00	0	51	0	2097152	59	10491
2026-01-06 10:35:02.13	179.81	6.98	-43.0	-49.9	7.3	1.41e-01	0	51	0	9437184	58	7613
2026-01-06 10:35:06.17	179.97	7.29	-42.1	-47.0	10.3	6.78e-03	0	51	0	16777216	56	6097
2026-01-06 10:35:10.22	180.13	7.60	-41.0	-44.7	12.5	1.75e-04	0	51	0	25165824	54	5277
2026-01-06 10:35:14.26	180.30	7.91	-40.7	-44.2	12.9	4.88e-05	0	51	0	32505856	53	5277
2026-01-06 10:35:18.30	180.47	8.23	-41.2	-45.0	12.1	2.79e-03	0	52	0	39845888	54	5404
2026-01-06 10:35:22.34	180.64	8.55	-40.8	-44.2	13.1	2.05e-05	0	52	0	47185920	53	5240
2026-01-06 10:35:26.39	180.81	8.87	-40.5	-43.8	13.6	6.80e-06	0	52	0	55574528	53	4989
2026-01-06 10:35:30.43	180.99	9.20	-40.5	-43.7	13.8	3.00e-06	0	52	0	62914560	52	5222
2026-01-06 10:35:34.46	181.17	9.54	-40.3	-43.4	14.1	1.50e-06	0	52	0	70254592	52	5048
2026-01-06 10:35:38.50	181.36	9.87	-40.4	-43.4	14.2	1.50e-06	0	52	0	77594624	52	5048
2026-01-06 10:35:42.54	181.55	10.22	-40.3	-43.2	14.3	7.00e-07	0	52	0	84934656	52	4967
2026-01-06 10:35:46.58	181.74	10.56	-40.3	-43.2	14.3	2.20e-06	0	52	0	93323264	52	4981
2026-01-06 10:35:50.62	181.94	10.91	-40.1	-43.0	14.6	0.00e+00	0	53	0	100663296	52	4841
2026-01-06 10:35:54.66	182.14	11.27	-40.1	-42.8	14.9	7.00e-07	0	53	0	108003328	51	5021
2026-01-06 10:35:58.69	182.35	11.63	-40.0	-42.6	15.1	0.00e+00	0	53	0	115343360	51	4926
2026-01-06 10:36:02.73	182.56	11.99	-39.7	-42.2	15.5	0.00e+00	0	53	0	123731968	51	4698
2026-01-06 10:36:06.77	182.78	12.37	-40.0	-42.6	15.3	0.00e+00	0	53	0	131072000	51	4871
2026-01-06 10:36:10.81	183.01	12.74	-39.8	-42.4	15.5	0.00e+00	0	53	0	138412032	51	4764
2026-01-06 10:36:14.85	183.23	13.12	-39.7	-42.2	15.6	0.00e+00	0	53	0	145752064	51	4700
2026-01-06 10:36:18.89	183.47	13.51	-39.9	-42.4	15.5	0.00e+00	0	53	0	153092096	51	4767
2026-01-06 10:36:22.92	183.71	13.90	-39.7	-42.2	15.7	0.00e+00	0	53	0	161480704	51	4679
2026-01-06 10:36:26.96	183.95	14.30	-39.9	-42.4	15.5	0.00e+00	0	53	0	168820736	51	4809
2026-01-06 10:36:31.00	184.21	14.71	-39.9	-42.4	15.5	0.00e+00	0	53	0	176160768	51	4806
2026-01-06 10:36:35.04	184.47	15.12	-40.2	-42.8	15.2	0.00e+00	0	54	0	183500800	51	5006
2026-01-06 10:36:39.07	184.73	15.54	-40.3	-43.0	15.0	7.00e-07	0	54	0	190840832	51	5127
2026-01-06 10:36:43.11	185.01	15.97	-40.0	-42.6	15.4	0.00e+00	0	54	0	199229440	51	4895
2026-01-06 10:36:47.15	185.29	16.40	-40.2	-42.8	15.3	0.00e+00	0	54	0	206569472	51	4988
2026-01-06 10:36:51.18	185.58	16.84	-40.0	-42.6	15.5	0.00e+00	0	54	0	213909504	51	4875
2026-01-06 10:36:55.22	185.87	17.29	-40.2	-42.8	15.3	0.00e+00	0	54	0	221249536	51	5025
2026-01-06 10:36:59.26	186.18	17.74	-40.3	-42.9	15.1	0.00e+00	0	54	0	229638144	51	5094
2026-01-06 10:37:03.30	186.50	18.20	-40.1	-42.6	15.5	0.00e+00	0	54	0	236978176	51	4901
2026-01-06 10:37:07.34	186.82	18.67	-39.8	-42.2	15.8	0.00e+00	0	54	0	244318208	51	4682
2026-01-06 10:37:11.38	187.16	19.15	-39.7	-42.0	16.1	0.00e+00	0	54	0	251658240	51	4568
2026-01-06 10:37:15.42	187.50	19.64	-39.4	-41.6	16.5	0.00e+00	0	54	0	260046848	50	4651
2026-01-06 10:37:19.46	187.86	20.14	-38.9	-40.9	17.1	0.00e+00	0	54	0	267386880	49	4524
2026-01-06 10:37:23.50	188.22	20.64	-38.6	-40.5	17.6	0.00e+00	0	54	0	274726912	48	4568
2026-01-06 10:37:27.54	188.60	21.16	-38.7	-40.7	17.5	0.00e+00	0	54	0	282066944	48	4654
2026-01-06 10:37:31.58	188.99	21.68	-38.8	-40.8	17.3	0.00e+00	0	54	0	289406976	48	4755
2026-01-06 10:37:35.62	189.40	22.21	-39.0	-41.0	17.1	0.00e+00	0	55	0	297795584	48	4842
2026-01-06 10:37:39.66	189.81	22.76	-39.1	-41.2	17.0	0.00e+00	0	54	0	305135616	48	4957
2026-01-06 10:37:43.69	190.25	23.31	-39.0	-41.0	17.1	0.00e+00	0	54	0	312475648	48	4863
2026-01-06 10:37:47.73	190.69	23.87	-39.0	-41.1	17.1	0.00e+00	0	55	0	319815680	48	4878
2026-01-06 10:37:51.77	191.16	24.45	-38.9	-40.9	17.3	0.00e+00	0	55	0	328204288	48	4772
2026-01-06 10:37:55.81	191.64	25.03	-38.5	-40.3	17.8	0.00e+00	0	55	0	335544320	48	4482
2026-01-06 10:37:59.85	192.13	25.63	-38.5	-40.4	17.9	0.00e+00	0	55	0	342884352	48	4496
2026-01-06 10:38:03.89	192.65	26.24	-38.7	-40.6	17.6	0.00e+00	0	55	0	350224384	48	4621
2026-01-06 10:38:07.93	193.19	26.86	-38.5	-40.3	17.9	0.00e+00	0	55	0	357564416	48	4482
2026-01-06 10:38:11.97	193.74	27.49	-39.0	-41.0	17.2	0.00e+00	0	55	0	365953024	48	4848
2026-01-06 10:38:16.01	194.32	28.13	-39.5	-41.7	16.5	0.00e+00	0	55	0	373293056	49	4972
2026-01-06 10:38:20.05	194.93	28.79	-39.7	-42.0	16.3	0.00e+00	0	55	0	380633088	50	4828
2026-01-06 10:38:24.09	195.55	29.45	-40.1	-42.6	15.7	0.00e+00	0	55	0	387973120	51	4889
2026-01-06 10:38:28.13	196.21	30.13	-40.8	-43.6	14.6	7.00e-07	0	55	0	396361728	52	5199
2026-01-06 10:38:32.17	196.89	30.83	-41.5	-44.8	13.5	1.22e-05	0	55	0	403701760	53	5640
2026-01-06 10:38:36.20	197.60	31.53	-41.5	-44.8	13.5	9.90e-06	0	55	0	411041792	53	5617
2026-01-06 10:38:40.24	198.34	32.25	-41.2	-44.3	13.9	9.90e-06	0	55	0	418381824	54	5036
2026-01-06 10:38:44.28	199.11	32.97	-41.3	-44.4	14.0	7.00e-07	0	55	0	425721856	53	5365
2026-01-06 10:38:48.32	199.92	33.72	-41.0	-43.9	14.3	0.00e+00	0	55	0	434110464	53	5077
2026-01-06 10:38:52.35	200.77	34.47	-40.5	-43.1	15.2	0.00e+00	0	55	0	441450496	52	4877
2026-01-06 10:38:56.39	201.65	35.23	-41.0	-43.9	14.4	0.00e+00	0	55	0	448790528	53	5079
2026-01-06 10:39:00.43	202.58	36.00	-40.8	-43.6	14.7	0.00e+00	0	55	0	456130560	53	4923
2026-01-06 10:39:04.47	203.55	36.79	-40.3	-42.8	15.6	0.00e+00	0	55	0	464519168	52	4736
2026-01-06 10:39:08.51	204.57	37.58	-41.1	-44.1	14.4	0.00e+00	0	55	0	471859200	52	5471
2026-01-06 10:39:12.55	205.64	38.39	-41.0	-44.0	14.4	2.20e-06	0	55	0	479199232	53	5103
2026-01-06 10:39:16.59	206.77	39.20	-40.6	-43.2	15.1	0.00e+00	0	55	0	486539264	53	4704
2026-01-06 10:39:20.63	207.95	40.02	-39.7	-41.9	16.5	0.00e+00	0	55	0	493879296	51	4498
2026-01-06 10:39:24.67	209.19	40.84	-40.7	-43.5	14.9	7.00e-07	0	55	0	502267904	52	5146
2026-01-06 10:39:28.71	210.49	41.66	-40.1	-42.5	16.0	0.00e+00	0	55	0	509607936	51	4831
2026-01-06 10:39:32.75	211.86	42.49	-41.1	-44.0	14.4	7.00e-07	0	55	0	516947968	52	5435
2026-01-06 10:39:36.79	213.31	43.32	-41.5	-44.7	13.7	3.00e-06	0	55	0	524288000	53	5584
2026-01-06 10:39:40.83	214.83	44.14	-42.0	-45.6	12.7	1.11e-04	0	55	0	532676608	54	5829
2026-01-06 10:39:44.87	216.42	44.96	-41.5	-44.7	13.7	4.50e-06	0	55	0	540016640	54	5233
2026-01-06 10:39:48.91	218.11	45.77	-42.4	-46.4	12.0	9.67e-04	0	55	0	547356672	55	6012
2026-01-06 10:39:52.95	219.87	46.57	-42.2	-46.1	12.2	1.42e-04	0	55	0	554696704	55	5836
2026-01-06 10:39:56.99	221.73	47.35	-42.1	-45.9	12.5	1.23e-04	0	56	0	562036736	55	5661
2026-01-06 10:40:01.02	223.68	48.11	-41.3	-44.4	14.0	5.30e-06	0	56	0	570425344	54	5058
2026-01-06 10:40:05.06	225.72	48.85	-40.9	-43.8	14.7	0.00e+00	0	55	0	577765376	53	4988
2026-01-06 10:40:09.09	227.86	49.56	-41.1	-44.1	14.3	7.00e-07	0	56	0	585105408	53	5193
2026-01-06 10:40:13.13	230.11	50.24	-40.4	-42.9	15.7	0.00e+00	0	55	0	592445440	51	5083
2026-01-06 10:40:17.17	232.45	50.88	-39.4	-41.5	16.9	0.00e+00	0	56	0	600834048	50	4588
2026-01-06 10:40:21.21	234.89	51.47	-39.7	-41.9	16.6	0.00e+00	0	56	0	608174080	50	4774
2026-01-06 10:40:25.25	237.42	52.02	-39.7	-42.0	16.5	0.00e+00	0	56	0	615514112	50	4819
2026-01-06 10:40:29.29	240.04	52.51	-39.2	-41.2	17.1	0.00e+00	0	56	0	622854144	49	4702
2026-01-06 10:40:33.33	242.75	52.95	-39.9	-42.2	16.3	0.00e+00	0	55	0	630194176	51	4652
2026-01-06 10:40:37.37	245.53	53.32	-40.3	-42.7	15.8	0.00e+00	0	56	0	638582784	51	4951
2026-01-06 10:40:41.41	248.37	53.62	-41.1	-44.1	14.4	0.00e+00	0	56	0	645922816	52	5482
2026-01-06 10:40:45.45	251.27	53.86	-40.7	-43.4	15.0	0.00e+00	0	56	0	653262848	52	5069
2026-01-06 10:40:49.48	254.20	54.02	-40.1	-42.4	16.1	0.00e+00	0	56	0	660602880	51	4809
2026-01-06 10:40:53.52	257.16	54.11	-41.0	-43.9	14.5	2.20e-06	0	56	0	668991488	52	5399
2026-01-06 10:40:57.56	260.13	54.12	-40.8	-43.6	14.9	0.00e+00	0	56	0	676331520	53	4917
2026-01-06 10:41:01.60	263.10	54.05	-40.0	-42.3	16.3	0.00e+00	0	56	0	683671552	51	4709
2026-01-06 10:41:05.64	266.05	53.91	-40.3	-42.8	15.7	0.00e+00	0	56	0	691011584	51	4985
2026-01-06 10:41:09.68	268.96	53.70	-39.2	-41.2	17.2	0.00e+00	0	56	0	698351616	50	4431
2026-01-06 10:41:13.72	271.81	53.42	-39.6	-41.8	16.7	0.00e+00	0	56	0	706740224	50	4739
2026-01-06 10:41:17.77	274.62	53.06	-39.8	-42.0	16.5	0.00e+00	0	56	0	714080256	50	4848
2026-01-06 10:41:21.81	277.34	52.64	-40.9	-43.7	14.7	0.00e+00	0	56	0	721420288	52	5245
2026-01-06 10:41:25.85	279.99	52.17	-40.5	-43.2	15.2	0.00e+00	0	56	0	728760320	52	4935
2026-01-06 10:41:29.89	282.54	51.64	-39.5	-41.6	16.8	0.00e+00	0	56	0	737148928	51	4355
2026-01-06 10:41:33.93	285.00	51.06	-40.2	-42.6	16.0	0.00e+00	0	56	0	744488960	50	5193
2026-01-06 10:41:37.97	287.37	50.43	-39.6	-41.8	16.6	0.00e+00	0	56	0	751828992	50	4716
2026-01-06 10:41:42.01	289.63	49.77	-39.5	-41.7	16.8	0.00e+00	0	56	0	759169024	50	4671
2026-01-06 10:41:46.05	291.80	49.07	-39.7	-41.9	16.6	0.00e+00	0	56	0	766509056	51	4510
2026-01-06 10:41:50.09	293.87	48.34	-41.3	-44.5	14.0	0.00e+00	0	56	0	774897664	53	5418
2026-01-06 10:41:54.12	295.84	47.59	-41.6	-44.8	13.6	3.00e-06	0	56	0	782237696	53	5647
2026-01-06 10:41:58.16	297.72	46.82	-43.3	-48.4	10.3	7.66e-03	0	56	0	789577728	57	6766
2026-01-06 10:42:02.20	299.51	46.03	-42.8	-47.1	11.5	6.58e-04	0	56	0	796917760	56	6196
2026-01-06 10:42:06.24	301.21	45.22	-43.5	-49.0	9.3	2.58e-03	0	56	0	805306368	57	7275
2026-01-06 10:42:10.28	302.83	44.41	-43.6	-49.3	9.2	1.85e-02	0	56	0	812646400	58	7048
2026-01-06 10:42:14.32	304.37	43.59	-43.2	-48.1	10.3	6.63e-03	0	56	0	819986432	58	6156
2026-01-06 10:42:18.35	305.83	42.77	-42.7	-46.8	11.7	2.94e-04	0	56	0	827326464	56	5989
2026-01-06 10:42:22.39	307.22	41.95	-42.2	-45.9	12.6	3.39e-04	0	56	0	834666496	56	5402
2026-01-06 10:42:26.43	308.54	41.13	-42.7	-47.1	11.3	6.32e-04	0	56	0	843055104	55	6518
2026-01-06 10:42:30.47	309.79	40.31	-39.5	-41.6	16.9	0.00e+00	0	56	0	850395136	50	4606
2026-01-06 10:42:34.51	310.99	39.49	-42.8	-47.2	11.3	1.56e-03	0	56	0	857735168	56	6207
2026-01-06 10:42:38.55	312.13	38.68	-41.1	-44.0	14.5	0.00e+00	0	56	0	865075200	52	5436
2026-01-06 10:42:42.59	313.21	37.88	-42.6	-46.8	11.5	3.11e-03	0	56	0	873463808	57	5655
2026-01-06 10:42:46.63	314.24	37.09	-40.7	-43.4	14.9	0.00e+00	0	56	0	880803840	52	5093
2026-01-06 10:42:50.67	315.23	36.30	-42.7	-47.1	11.3	7.33e-03	0	56	0	888143872	57	5832
2026-01-06 10:42:54.71	316.17	35.53	-39.4	-41.5	16.9	0.00e+00	0	56	0	895483904	50	4595
2026-01-06 10:42:58.75	317.07	34.77	-43.1	-48.0	10.4	2.72e-03	0	56	0	902823936	56	6846
2026-01-06 10:43:02.79	317.92	34.02	-42.0	-45.5	12.9	1.09e-04	0	56	0	911212544	56	5139
2026-01-06 10:43:06.82	318.74	33.28	-42.2	-46.1	12.1	4.58e-04	0	56	0	918552576	55	5845
2026-01-06 10:43:10.86	319.53	32.55	-42.3	-46.3	12.0	5.74e-04	0	56	0	925892608	55	5943
2026-01-06 10:43:14.90	320.28	31.83	-40.8	-43.5	14.7	7.00e-07	0	56	0	933232640	53	4869
2026-01-06 10:43:18.94	321.00	31.13	-41.7	-45.2	13.1	3.89e-05	0	56	0	941621248	54	5576
2026-01-06 10:43:22.98	321.69	30.44	-43.0	-47.8	10.6	2.01e-03	0	56	0	948961280	56	6684
2026-01-06 10:43:27.02	322.35	29.76	-41.5	-44.8	13.5	4.50e-05	0	56	0	956301312	55	5010
2026-01-06 10:43:31.05	322.98	29.09	-42.1	-46.0	12.2	3.89e-04	0	56	0	963641344	55	5777
2026-01-06 10:43:35.09	323.59	28.44	-42.3	-46.5	11.7	7.67e-04	0	56	0	970981376	55	6076
2026-01-06 10:43:39.13	324.18	27.79	-41.0	-43.9	14.3	3.00e-06	0	56	0	979369984	54	4811
2026-01-06 10:43:43.17	324.74	27.16	-39.7	-41.9	16.4	0.00e+00	0	56	0	986710016	51	4545
2026-01-06 10:43:47.21	325.29	26.54	-39.9	-42.2	16.1	0.00e+00	0	56	0	994050048	51	4670
2026-01-06 10:43:51.25	325.81	25.93	-40.8	-43.7	14.5	7.00e-07	0	56	0	1001390080	52	5269
2026-01-06 10:43:55.29	326.31	25.34	-41.2	-44.4	13.8	2.20e-06	0	56	0	1009778688	53	5365
2026-01-06 10:43:59.33	326.80	24.75	-40.2	-42.8	15.4	0.00e+00	0	56	0	1017118720	52	4715
2026-01-06 10:44:03.37	327.27	24.18	-40.0	-42.3	15.9	0.00e+00	0	56	0	1024458752	51	4754
2026-01-06 10:44:07.42	327.73	23.61	-40.5	-43.1	15.1	0.00e+00	0	56	0	1031798784	51	5198
2026-01-06 10:44:11.45	328.16	23.06	-40.9	-43.9	14.3	7.00e-07	0	56	0	1039138816	52	5351
2026-01-06 10:44:15.50	328.59	22.51	-40.6	-43.4	14.8	0.00e+00	0	56	0	1047527424	52	5084
2026-01-06 10:44:19.54	329.00	21.98	-40.0	-42.5	15.7	0.00e+00	0	56	0	1054867456	51	4835
2026-01-06 10:44:23.58	329.39	21.45	-39.7	-42.0	16.1	0.00e+00	0	56	0	1062207488	51	4587
2026-01-06 10:44:27.61	329.78	20.94	-40.6	-43.4	14.7	0.00e+00	0	56	0	1069547520	51	5385
2026-01-06 10:44:31.66	330.15	20.43	-41.0	-44.2	13.8	6.10e-06	0	56	0	1077936128	52	5559
2026-01-06 10:44:35.70	330.51	19.94	-41.2	-44.5	13.6	3.00e-06	0	56	0	1085276160	53	5403
2026-01-06 10:44:39.74	330.86	19.45	-40.1	-42.7	15.3	0.00e+00	0	56	0	1092616192	52	4698
2026-01-06 10:44:43.78	331.20	18.97	-39.9	-42.4	15.7	0.00e+00	0	56	0	1099956224	51	4777
2026-01-06 10:44:47.82	331.53	18.50	-40.1	-42.7	15.3	0.00e+00	0	56	0	1107296256	51	4935
2026-01-06 10:44:51.85	331.85	18.04	-40.5	-43.3	14.7	0.00e+00	0	56	0	1115684864	51	5292
2026-01-06 10:44:55.89	332.16	17.58	-40.5	-43.4	14.6	7.00e-07	0	56	0	1123024896	51	5346
2026-01-06 10:44:59.93	332.46	17.14	-40.3	-43.0	14.9	0.00e+00	0	56	0	1130364928	51	5155
2026-01-06 10:45:03.97	332.76	16.70	-39.7	-42.2	15.7	0.00e+00	0	56	0	1137704960	51	4667
2026-01-06 10:45:08.01	333.05	16.26	-39.4	-41.8	16.1	0.00e+00	0	56	0	1146093568	50	4708
2026-01-06 10:45:12.05	333.32	15.84	-39.4	-41.7	16.1	0.00e+00	0	56	0	1153433600	50	4700
2026-01-06 10:45:16.09	333.60	15.42	-39.5	-41.8	15.9	0.00e+00	0	56	0	1160773632	50	4742
2026-01-06 10:45:20.13	333.86	15.01	-39.8	-42.4	15.4	0.00e+00	0	56	0	1168113664	50	5064
2026-01-06 10:45:24.17	334.12	14.60	-40.3	-43.2	14.6	1.50e-06	0	56	0	1176502272	51	5220
2026-01-06 10:45:28.21	334.37	14.20	-40.7	-44.0	13.7	7.60e-06	0	56	0	1183842304	52	5422
2026-01-06 10:45:32.24	334.61	13.81	-41.1	-44.7	12.9	4.34e-05	0	56	0	1191182336	52	5871
2026-01-06 10:45:36.28	334.85	13.42	-41.4	-45.3	12.2	1.90e-04	0	56	0	1198522368	53	5979
2026-01-06 10:45:40.32	335.09	13.04	-41.2	-45.0	12.5	1.43e-04	0	56	0	1205862400	53	5735
2026-01-06 10:45:44.36	335.32	12.66	-40.9	-44.4	13.0	3.05e-05	0	56	0	1214251008	53	5397
2026-01-06 10:45:48.39	335.54	12.29	-40.6	-43.9	13.5	8.30e-06	0	56	0	1221591040	53	5084
2026-01-06 10:45:52.43	335.76	11.93	-40.1	-43.0	14.4	1.50e-06	0	56	0	1228931072	52	4839
2026-01-06 10:45:56.47	335.97	11.56	-40.1	-43.0	14.4	7.00e-07	0	56	0	1236271104	51	5135
2026-01-06 10:46:00.52	336.18	11.21	-39.9	-42.7	14.7	0.00e+00	0	56	0	1244659712	51	4951
2026-01-06 10:46:04.55	336.38	10.86	-39.8	-42.6	14.7	0.00e+00	0	56	0	1251999744	51	4913
2026-01-06 10:46:08.60	336.58	10.51	-39.8	-42.6	14.7	0.00e+00	0	56	0	1259339776	51	4922
2026-01-06 10:46:12.63	336.78	10.17	-39.8	-42.7	14.4	7.00e-07	0	56	0	1266679808	51	4970
2026-01-06 10:46:16.67	336.97	9.83	-39.9	-42.9	14.2	7.00e-07	0	56	0	1274019840	51	5045
2026-01-06 10:46:20.71	337.15	9.50	-39.8	-43.0	13.9	2.20e-06	0	56	0	1282408448	51	5105
2026-01-06 10:46:24.75	337.34	9.17	-40.0	-43.4	13.2	8.30e-06	0	56	0	1289748480	51	5401
2026-01-06 10:46:28.79	337.52	8.85	-40.3	-44.0	12.6	8.01e-05	0	56	0	1297088512	51	5770
2026-01-06 10:46:32.82	337.69	8.53	-40.3	-44.2	12.3	2.38e-04	0	56	0	1304428544	51	5871
2026-01-06 10:46:36.86	337.87	8.21	-40.4	-44.4	11.8	3.42e-04	0	56	0	1311768576	51	6042
2026-01-06 10:46:40.90	338.04	7.90	-44.4	-59.0	3.8	1.49e+00	0	56	104	1317011456	59	20326
2026-01-06 10:46:44.94	338.20	7.59	-45.1	-59.9	3.8	1.49e+00	0	56	104	1317011456	60	21317
2026-01-06 10:46:48.99	338.36	7.28	-45.2	-60.0	3.8	1.49e+00	0	56	104	1317011456	61	20516
2026-01-06 10:46:53.03	338.53	6.98	-45.1	-60.0	3.8	1.49e+00	0	56	104	1317011456	61	20346
2026-01-06 10:46:57.07	338.68	6.68	-45.1	-60.0	3.8	1.49e+00	0	56	104	1317011456	61	20338
2026-01-06 10:47:01.11	338.84	6.38	-45.1	-59.9	3.8	1.49e+00	0	56	104	1317011456	61	20274
2026-01-06 10:47:05.15	338.99	6.09	-45.1	-59.9	3.8	1.49e+00	0	56	104	1317011456	61	20230
2026-01-06 10:47:09.20	339.14	5.80	-45.1	-59.9	3.8	1.49e+00	0	56	104	1317011456	61	20247
2026-01-06 10:47:13.24	339.28	5.51	-45.1	-59.9	3.8	1.49e+00	0	56	104	1317011456	61	20151
2026-01-06 10:47:17.28	339.43	5.23	-45.1	-59.9	3.8	1.49e+00	0	56	104	1317011456	60	21371
2026-01-06 10:47:21.33	339.57	4.95	-45.0	-59.9	3.8	1.49e+00	0	56	104	1317011456	60	21312
2026-01-06 10:47:25.37	339.71	4.67	-45.0	-59.8	3.8	1.49e+00	0	56	104	1317011456	60	21250
2026-01-06 10:47:29.41	339.85	4.40	-45.0	-59.9	3.8	1.49e+00	0	56	104	1317011456	60	21329
2026-01-06 10:47:33.46	339.98	4.12	-45.0	-59.9	3.8	1.49e+00	0	56	104	1317011456	60	21322
2026-01-06 10:47:37.50	340.11	3.85	-45.0	-59.9	3.8	1.49e+00	0	56	104	1317011456	60	21319
2026-01-06 10:47:41.55	340.25	3.59	-45.0	-59.9	3.8	1.49e+00	0	56	104	1317011456	60	21288
2026-01-06 10:47:45.58	340.37	3.32	-45.0	-59.9	3.8	1.49e+00	0	56	104	1317011456	60	21280
2026-01-06 10:47:49.63	340.50	3.06	-45.0	-59.9	3.8	1.49e+00	0	56	104	1317011456	60	21271
2026-01-06 10:47:53.67	340.63	2.80	-45.0	-59.8	3.8	1.49e+00	0	56	104	1317011456	60	21206
2026-01-06 10:47:57.72	340.75	2.54	-45.0	-59.9	3.8	1.49e+00	0	56	104	1317011456	60	21286
2026-01-06 10:48:01.76	340.87	2.29	-45.0	-59.8	3.8	1.49e+00	0	56	104	1317011456	60	21192
2026-01-06 10:48:05.80	340.99	2.03	-45.0	-59.9	3.8	1.49e+00	0	57	104	1317011456	60	21275

#Closed at: 2026-01-06 10:48:07
#Recorded file [1317 MB]: D:/lorett/data/31039_260106_133349.dat