passes_logs/2026/01/06/R2.0S_Moscow/R2.0S_Moscow__20260106_221437_NOAA_21_JPSS-2_rec.log

#Pass ID: 20260106_221437_NOAA 21 (JPSS-2)
#Satellite: NOAA 21 (JPSS-2)
#Configuration: NOAA-21
#almurnet v.1.7.20251203
#Start time: 2026-01-06 22:14:39

#Version: 2.2.20231116
#Station: R2.0S_Moscow
#Location: 37.707566 lon 55.798166 lat
#TLE: 1 54234U 22150A   26005.56767909  .00000152  00000+0  92756-4 0  9990
#TLE: 2 54234  98.7490 306.5820 0001036 340.2747  19.8389 14.19532370163472

#Time	Az	El	Level	Level2	SNR	BER	BlckErr	Temp	State	Recorded	gain1	gain2
2026-01-06 22:14:39.86	24.70	2.12	-41.6	-54.9	3.8	1.49e+00	0	47	0	0	55	15994
2026-01-06 22:14:43.89	24.97	2.35	-41.6	-54.8	3.8	1.49e+00	0	48	104	0	53	17882
2026-01-06 22:14:47.93	25.25	2.57	-41.6	-54.9	3.8	1.49e+00	0	48	104	0	53	17905
2026-01-06 22:14:51.97	25.54	2.80	-41.6	-54.8	3.8	1.49e+00	0	48	104	0	53	17862
2026-01-06 22:14:56.01	25.83	3.03	-41.6	-54.8	3.8	1.49e+00	0	48	104	0	53	17885
2026-01-06 22:15:00.05	26.12	3.26	-41.6	-54.9	3.8	1.49e+00	0	49	104	0	53	17900
2026-01-06 22:15:04.10	26.42	3.49	-41.6	-54.8	3.8	1.49e+00	0	49	104	0	53	17870
2026-01-06 22:15:08.14	26.72	3.73	-41.6	-54.8	3.8	1.49e+00	0	49	104	0	53	17883
2026-01-06 22:15:12.19	27.03	3.96	-41.6	-54.8	3.8	1.49e+00	0	50	104	0	53	17846
2026-01-06 22:15:16.23	27.34	4.20	-41.6	-54.9	3.8	1.49e+00	0	50	104	0	53	17916
2026-01-06 22:15:20.27	27.65	4.43	-41.6	-54.8	3.8	1.49e+00	0	50	104	0	53	17855
2026-01-06 22:15:24.31	27.97	4.67	-41.6	-54.8	3.8	1.49e+00	0	50	104	0	53	17859
2026-01-06 22:15:28.35	28.30	4.91	-41.5	-54.9	3.8	1.49e+00	0	50	104	0	53	17901
2026-01-06 22:15:32.40	28.63	5.15	-41.6	-54.9	3.8	1.49e+00	0	51	104	0	53	17905
2026-01-06 22:15:36.44	28.97	5.40	-41.6	-54.8	3.8	1.49e+00	0	51	104	0	53	17888
2026-01-06 22:15:40.48	29.31	5.64	-41.6	-54.8	3.8	1.49e+00	0	51	104	0	53	17872
2026-01-06 22:15:44.52	29.65	5.89	-41.6	-54.8	3.8	1.49e+00	0	51	104	0	53	17828
2026-01-06 22:15:48.56	30.01	6.13	-41.6	-54.8	3.8	1.49e+00	0	51	104	0	53	17828
2026-01-06 22:15:52.60	30.36	6.38	-41.6	-54.8	3.8	1.49e+00	0	52	104	0	53	17719
2026-01-06 22:15:56.64	30.73	6.63	-41.5	-54.4	3.8	1.49e+00	0	52	104	0	53	17048
2026-01-06 22:16:00.69	31.10	6.88	-41.5	-54.0	3.8	1.49e+00	0	52	104	0	53	16256
2026-01-06 22:16:04.73	31.47	7.14	-41.6	-54.4	3.8	1.49e+00	0	52	104	0	53	17055
2026-01-06 22:16:08.77	31.86	7.39	-41.4	-51.7	4.1	1.48e+00	0	52	104	0	53	12483
2026-01-06 22:16:12.81	32.24	7.65	-39.9	-44.8	8.8	3.90e-02	0	53	0	8388608	51	6325
2026-01-06 22:16:16.86	32.64	7.91	-38.2	-41.3	12.4	1.32e-04	0	53	0	20971520	48	5032
2026-01-06 22:16:20.89	33.04	8.17	-40.6	-50.8	3.9	4.83e-01	2	53	104	33554432	51	12559
2026-01-06 22:16:24.94	33.45	8.43	-39.0	-42.0	12.3	3.96e-04	0	53	0	44040192	50	4848
2026-01-06 22:16:28.98	33.87	8.69	-38.6	-41.3	13.1	2.59e-05	0	53	0	56623104	49	4709
2026-01-06 22:16:33.02	34.29	8.95	-38.5	-40.9	13.6	6.80e-06	0	53	0	69206016	49	4516
2026-01-06 22:16:37.06	34.72	9.22	-38.5	-40.9	13.6	1.06e-05	0	53	0	81788928	48	4805
2026-01-06 22:16:41.10	35.16	9.49	-38.4	-40.7	13.9	6.10e-06	0	53	0	94371840	48	4697
2026-01-06 22:16:45.14	35.60	9.75	-38.3	-40.5	14.2	3.80e-06	0	53	0	106954752	48	4592
2026-01-06 22:16:49.18	36.06	10.02	-38.2	-40.3	14.5	0.00e+00	0	53	0	119537664	48	4485
2026-01-06 22:16:53.22	36.52	10.30	-38.2	-40.3	14.6	1.50e-06	0	53	0	132120576	48	4451
2026-01-06 22:16:57.26	36.99	10.57	-38.2	-40.2	14.7	0.00e+00	0	54	0	144703488	48	4413
2026-01-06 22:17:01.30	37.47	10.84	-38.1	-40.2	14.8	0.00e+00	0	54	0	157286400	48	4392
2026-01-06 22:17:05.33	37.95	11.12	-38.0	-40.0	15.1	0.00e+00	0	54	0	169869312	48	4294
2026-01-06 22:17:09.38	38.45	11.39	-37.9	-39.8	15.2	0.00e+00	0	54	0	182452224	47	4483
2026-01-06 22:17:13.41	38.96	11.67	-37.9	-39.8	15.2	0.00e+00	0	54	0	195035136	47	4467
2026-01-06 22:17:17.45	39.47	11.95	-37.9	-39.8	15.3	0.00e+00	0	54	0	207618048	47	4451
2026-01-06 22:17:21.49	40.00	12.23	-37.6	-39.4	15.7	0.00e+00	0	54	0	220200960	47	4273
2026-01-06 22:17:25.53	40.53	12.51	-37.4	-39.2	16.0	0.00e+00	0	54	0	233832448	46	4410
2026-01-06 22:17:29.57	41.07	12.79	-37.6	-39.3	15.8	0.00e+00	0	54	0	246415360	46	4472
2026-01-06 22:17:33.61	41.63	13.08	-37.7	-39.5	15.7	0.00e+00	0	54	0	258998272	46	4582
2026-01-06 22:17:37.65	42.19	13.36	-37.7	-39.5	15.8	0.00e+00	0	54	0	271581184	46	4554
2026-01-06 22:17:41.69	42.77	13.64	-37.6	-39.4	15.8	0.00e+00	0	54	0	284164096	46	4512
2026-01-06 22:17:45.74	43.35	13.93	-37.7	-39.5	15.7	0.00e+00	0	54	0	296747008	46	4593
2026-01-06 22:17:49.78	43.95	14.22	-37.7	-39.5	15.7	0.00e+00	0	55	0	309329920	46	4598
2026-01-06 22:17:53.82	44.56	14.50	-37.6	-39.4	15.9	0.00e+00	0	55	0	321912832	46	4509
2026-01-06 22:17:57.86	45.18	14.79	-37.5	-39.2	16.1	0.00e+00	0	55	0	334495744	46	4411
2026-01-06 22:18:01.90	45.81	15.08	-37.6	-39.3	16.0	0.00e+00	0	55	0	347078656	46	4452
2026-01-06 22:18:05.94	46.45	15.37	-37.6	-39.3	16.0	0.00e+00	0	55	0	359661568	46	4484
2026-01-06 22:18:09.98	47.11	15.65	-37.6	-39.3	16.1	0.00e+00	0	55	0	372244480	46	4453
2026-01-06 22:18:14.02	47.78	15.94	-37.6	-39.3	16.1	0.00e+00	0	55	0	384827392	46	4450
2026-01-06 22:18:18.06	48.46	16.23	-37.4	-39.1	16.3	0.00e+00	0	55	0	397410304	46	4349
2026-01-06 22:18:22.10	49.15	16.51	-37.3	-39.0	16.4	0.00e+00	0	55	0	409993216	46	4304
2026-01-06 22:18:26.15	49.86	16.80	-37.3	-39.0	16.4	0.00e+00	0	55	0	422576128	46	4303
2026-01-06 22:18:30.18	50.58	17.09	-37.3	-38.9	16.4	0.00e+00	0	55	0	435159040	46	4290
2026-01-06 22:18:34.22	51.31	17.37	-37.3	-39.0	16.5	0.00e+00	0	55	0	447741952	46	4301
2026-01-06 22:18:38.26	52.06	17.65	-37.3	-39.0	16.5	0.00e+00	0	55	0	460324864	46	4297
2026-01-06 22:18:42.30	52.82	17.93	-37.4	-39.0	16.4	0.00e+00	0	55	0	472907776	46	4320
2026-01-06 22:18:46.34	53.59	18.21	-37.4	-39.1	16.3	0.00e+00	0	55	0	485490688	46	4375
2026-01-06 22:18:50.38	54.38	18.49	-37.4	-39.0	16.5	0.00e+00	0	55	0	498073600	46	4315
2026-01-06 22:18:54.42	55.18	18.77	-37.3	-38.9	16.6	0.00e+00	0	55	0	510656512	46	4279
2026-01-06 22:18:58.46	56.00	19.04	-37.5	-39.2	16.3	0.00e+00	0	55	0	524288000	46	4407
2026-01-06 22:19:02.50	56.83	19.31	-37.6	-39.3	16.2	0.00e+00	0	55	0	535822336	46	4470
2026-01-06 22:19:06.54	57.67	19.58	-37.5	-39.2	16.4	0.00e+00	0	55	0	549453824	46	4405
2026-01-06 22:19:10.58	58.53	19.84	-37.5	-39.2	16.3	0.00e+00	0	55	0	562036736	46	4417
2026-01-06 22:19:14.63	59.41	20.10	-37.6	-39.3	16.2	0.00e+00	0	55	0	574619648	46	4482
2026-01-06 22:19:18.67	60.30	20.36	-37.3	-39.0	16.5	0.00e+00	0	55	0	587202560	46	4304
2026-01-06 22:19:22.71	61.20	20.61	-37.3	-38.9	16.6	0.00e+00	0	55	0	599785472	46	4258
2026-01-06 22:19:26.75	62.12	20.86	-37.5	-39.1	16.3	0.00e+00	0	55	0	612368384	46	4389
2026-01-06 22:19:30.79	63.05	21.10	-37.2	-38.8	16.7	0.00e+00	0	55	0	624951296	46	4206
2026-01-06 22:19:34.84	64.00	21.34	-37.1	-38.7	16.8	0.00e+00	0	56	0	637534208	46	4179
2026-01-06 22:19:38.87	64.96	21.57	-37.1	-38.7	16.8	0.00e+00	0	56	0	650117120	46	4149
2026-01-06 22:19:42.92	65.94	21.80	-36.9	-38.5	17.0	0.00e+00	0	55	0	662700032	45	4298
2026-01-06 22:19:46.96	66.93	22.02	-37.1	-38.6	16.8	0.00e+00	0	56	0	675282944	45	4384
2026-01-06 22:19:51.00	67.93	22.23	-36.9	-38.4	17.0	0.00e+00	0	56	0	687865856	45	4264
2026-01-06 22:19:55.03	68.95	22.43	-37.1	-38.7	16.7	0.00e+00	0	56	0	700448768	45	4421
2026-01-06 22:19:59.07	69.98	22.63	-37.0	-38.6	16.7	0.00e+00	0	56	0	713031680	45	4383
2026-01-06 22:20:03.11	71.02	22.82	-37.1	-38.7	16.6	0.00e+00	0	56	0	725614592	45	4417
2026-01-06 22:20:07.15	72.07	23.00	-37.1	-38.8	16.4	0.00e+00	0	56	0	738197504	45	4465
2026-01-06 22:20:11.20	73.14	23.17	-36.9	-38.5	16.8	0.00e+00	0	56	0	750780416	45	4305
2026-01-06 22:20:15.24	74.22	23.34	-37.1	-38.7	16.6	0.00e+00	0	56	0	763363328	45	4408
2026-01-06 22:20:19.28	75.31	23.49	-36.9	-38.5	16.8	0.00e+00	0	56	0	775946240	45	4322
2026-01-06 22:20:23.32	76.41	23.63	-36.7	-38.2	17.0	0.00e+00	0	56	0	788529152	45	4190
2026-01-06 22:20:27.36	77.51	23.77	-36.8	-38.3	17.0	0.00e+00	0	56	0	801112064	45	4242
2026-01-06 22:20:31.40	78.63	23.89	-36.8	-38.3	17.1	0.00e+00	0	56	0	813694976	45	4208
2026-01-06 22:20:35.43	79.76	24.00	-36.6	-38.1	17.3	0.00e+00	0	56	0	826277888	45	4125
2026-01-06 22:20:39.47	80.89	24.10	-36.6	-38.0	17.4	0.00e+00	0	56	0	839909376	45	4095
2026-01-06 22:20:43.51	82.03	24.19	-36.7	-38.2	17.2	0.00e+00	0	56	0	852492288	45	4184
2026-01-06 22:20:47.55	83.18	24.27	-36.8	-38.3	17.1	0.00e+00	0	56	0	865075200	45	4207
2026-01-06 22:20:51.59	84.33	24.34	-37.0	-38.6	16.8	0.00e+00	0	56	0	877658112	45	4362
2026-01-06 22:20:55.63	85.48	24.39	-37.2	-38.8	16.6	0.00e+00	0	56	0	890241024	45	4454
2026-01-06 22:20:59.67	86.64	24.44	-36.8	-38.3	17.2	0.00e+00	0	56	0	902823936	45	4199
2026-01-06 22:21:03.71	87.81	24.47	-36.9	-38.5	17.0	0.00e+00	0	56	0	915406848	45	4295
2026-01-06 22:21:07.76	88.98	24.49	-36.9	-38.4	17.1	0.00e+00	0	56	0	927989760	45	4260
2026-01-06 22:21:11.79	90.14	24.49	-36.9	-38.5	17.0	0.00e+00	0	56	0	940572672	45	4300
2026-01-06 22:21:15.84	91.31	24.49	-36.8	-38.3	17.2	0.00e+00	0	56	0	953155584	45	4241
2026-01-06 22:21:19.88	92.47	24.47	-36.8	-38.3	17.3	0.00e+00	0	56	0	965738496	45	4204
2026-01-06 22:21:23.92	93.64	24.44	-36.6	-38.1	17.4	0.00e+00	0	56	0	978321408	45	4126
2026-01-06 22:21:27.96	94.80	24.40	-36.7	-38.1	17.4	0.00e+00	0	56	0	990904320	45	4144
2026-01-06 22:21:32.01	95.96	24.34	-36.5	-38.0	17.6	0.00e+00	0	56	0	1003487232	45	4063
2026-01-06 22:21:36.05	97.11	24.28	-36.5	-37.9	17.6	0.00e+00	0	56	0	1016070144	44	4281
2026-01-06 22:21:40.09	98.26	24.20	-36.5	-38.0	17.6	0.00e+00	0	56	0	1028653056	44	4306
2026-01-06 22:21:44.13	99.41	24.11	-36.8	-38.3	17.3	0.00e+00	0	56	0	1041235968	44	4469
2026-01-06 22:21:48.17	100.54	24.01	-36.7	-38.2	17.4	0.00e+00	0	56	0	1053818880	44	4402
2026-01-06 22:21:52.21	101.67	23.90	-36.9	-38.4	17.2	0.00e+00	0	56	0	1066401792	44	4519
2026-01-06 22:21:56.25	102.79	23.78	-36.8	-38.3	17.3	0.00e+00	0	56	0	1078984704	44	4455
2026-01-06 22:22:00.29	103.90	23.64	-36.6	-38.1	17.5	0.00e+00	0	56	0	1091567616	44	4372
2026-01-06 22:22:04.32	105.00	23.50	-36.9	-38.4	17.1	0.00e+00	0	56	0	1104150528	44	4538
2026-01-06 22:22:08.36	106.10	23.35	-36.8	-38.3	17.3	0.00e+00	0	56	0	1116733440	44	4486
2026-01-06 22:22:12.40	107.18	23.18	-36.9	-38.5	17.1	0.00e+00	0	56	0	1129316352	44	4549
2026-01-06 22:22:16.44	108.25	23.01	-37.0	-38.5	17.0	0.00e+00	0	56	0	1141899264	44	4598
2026-01-06 22:22:20.48	109.31	22.83	-37.1	-38.6	16.9	0.00e+00	0	56	0	1155530752	44	4650
2026-01-06 22:22:24.52	110.35	22.64	-37.3	-38.9	16.7	0.00e+00	0	56	0	1168113664	45	4497
2026-01-06 22:22:28.56	111.39	22.44	-37.1	-38.7	16.9	0.00e+00	0	56	0	1180696576	45	4396
2026-01-06 22:22:32.60	112.41	22.24	-37.1	-38.7	16.9	0.00e+00	0	56	0	1193279488	45	4393
2026-01-06 22:22:36.64	113.42	22.02	-37.0	-38.6	17.0	0.00e+00	0	56	0	1205862400	45	4355
2026-01-06 22:22:40.69	114.41	21.80	-37.0	-38.5	17.0	0.00e+00	0	56	0	1218445312	45	4339
2026-01-06 22:22:44.73	115.39	21.58	-37.1	-38.6	16.9	0.00e+00	0	56	0	1231028224	45	4368
2026-01-06 22:22:48.77	116.36	21.35	-37.1	-38.6	16.9	0.00e+00	0	56	0	1243611136	45	4370
2026-01-06 22:22:52.81	117.31	21.11	-36.9	-38.3	17.2	0.00e+00	0	56	0	1256194048	45	4236
2026-01-06 22:22:56.85	118.25	20.86	-37.0	-38.5	17.0	0.00e+00	0	56	0	1268776960	45	4338
2026-01-06 22:23:00.89	119.17	20.61	-37.3	-38.9	16.7	0.00e+00	0	56	0	1281359872	45	4494
2026-01-06 22:23:04.93	120.08	20.36	-36.9	-38.4	17.1	0.00e+00	0	57	0	1293942784	45	4276
2026-01-06 22:23:08.97	120.97	20.10	-36.9	-38.4	17.1	0.00e+00	0	56	0	1306525696	44	4525
2026-01-06 22:23:13.01	121.85	19.84	-37.1	-38.6	16.9	0.00e+00	0	57	0	1319108608	44	4639
2026-01-06 22:23:17.05	122.72	19.57	-37.0	-38.6	16.9	0.00e+00	0	56	0	1331691520	44	4626
2026-01-06 22:23:21.09	123.57	19.30	-37.0	-38.6	16.9	0.00e+00	0	57	0	1344274432	44	4634
2026-01-06 22:23:25.13	124.40	19.03	-37.0	-38.6	16.9	0.00e+00	0	57	0	1356857344	44	4601
2026-01-06 22:23:29.17	125.23	18.76	-37.1	-38.6	16.8	0.00e+00	0	57	0	1369440256	44	4637
2026-01-06 22:23:33.21	126.03	18.48	-37.2	-38.8	16.6	0.00e+00	0	57	0	1382023168	45	4492
2026-01-06 22:23:37.25	126.82	18.20	-37.2	-38.8	16.7	0.00e+00	0	57	0	1394606080	45	4450
2026-01-06 22:23:41.29	127.60	17.91	-37.1	-38.8	16.6	0.00e+00	0	57	0	1407188992	45	4476
2026-01-06 22:23:45.33	128.37	17.63	-37.2	-38.8	16.5	0.00e+00	0	56	0	1419771904	45	4481
2026-01-06 22:23:49.38	129.12	17.34	-37.3	-39.0	16.4	2.05e-04	0	57	0	1432354816	45	4553
2026-01-06 22:23:53.41	129.85	17.06	-37.3	-38.9	16.4	3.00e-06	0	56	0	1445986304	45	4536
2026-01-06 22:23:57.45	130.58	16.77	-37.5	-39.2	16.1	1.30e-03	0	57	0	1457520640	45	4655
2026-01-06 22:24:01.50	131.29	16.48	-37.4	-39.4	15.5	1.83e-03	0	57	0	1471152128	45	4766
2026-01-06 22:24:05.54	131.98	16.19	-37.4	-39.5	15.5	9.12e-04	0	57	0	1483735040	45	4826
2026-01-06 22:24:09.58	132.67	15.90	-37.5	-39.5	15.0	4.20e-03	0	57	0	1496317952	45	4841
2026-01-06 22:24:13.62	133.34	15.61	-37.6	-39.6	15.5	7.78e-03	0	56	0	1508900864	45	4900
2026-01-06 22:24:17.66	134.00	15.32	-34.4	-39.4	13.9	9.87e-02	0	57	0	1521483776	44	5049
2026-01-06 22:24:21.70	134.64	15.03	-31.9	-38.5	11.0	5.64e-02	0	57	0	1534066688	41	5462
2026-01-06 22:24:25.74	135.28	14.74	-35.9	-39.7	13.3	1.40e-01	0	57	0	1546649600	40	6613
2026-01-06 22:24:29.78	135.90	14.45	-37.0	-40.1	13.2	2.69e-02	0	57	0	1559232512	44	5513
2026-01-06 22:24:33.82	136.51	14.16	-38.0	-40.0	13.9	2.97e-02	0	57	0	1571815424	46	4856
2026-01-06 22:24:37.86	137.11	13.87	-35.8	-39.6	12.1	1.68e-01	6	56	0	1584398336	42	5804
2026-01-06 22:24:41.90	137.70	13.58	-36.8	-39.7	14.0	2.09e-02	0	57	0	1596981248	45	4934
2026-01-06 22:24:45.95	138.28	13.30	-38.1	-40.4	14.4	4.43e-02	0	57	0	1609564160	47	4782
2026-01-06 22:24:49.99	138.84	13.01	-38.2	-40.3	13.2	5.84e-03	0	57	0	1622147072	46	4995
2026-01-06 22:24:54.02	139.40	12.72	-38.1	-40.3	14.2	6.50e-03	0	57	0	1634729984	46	4998
2026-01-06 22:24:58.06	139.94	12.44	-38.2	-40.2	14.6	2.17e-04	0	57	0	1647312896	46	4983
2026-01-06 22:25:02.10	140.48	12.15	-38.2	-40.4	14.5	2.97e-05	0	57	0	1659895808	47	4799
2026-01-06 22:25:06.15	141.00	11.87	-38.4	-40.5	14.4	0.00e+00	0	57	0	1672478720	47	4848
2026-01-06 22:25:10.18	141.52	11.59	-38.3	-40.4	14.6	0.00e+00	0	57	0	1685061632	47	4778
2026-01-06 22:25:14.22	142.02	11.31	-38.4	-40.5	14.4	1.50e-06	0	57	0	1697644544	47	4856
2026-01-06 22:25:18.26	142.52	11.03	-38.5	-40.6	14.3	0.00e+00	0	57	0	1710227456	47	4899
2026-01-06 22:25:22.30	143.01	10.75	-38.3	-40.4	14.5	1.50e-06	0	57	0	1722810368	47	4795
2026-01-06 22:25:26.34	143.49	10.48	-38.5	-40.6	14.2	1.50e-06	0	57	0	1735393280	47	4899
2026-01-06 22:25:30.38	143.96	10.20	-38.7	-40.9	13.9	6.10e-06	0	57	0	1747976192	47	5073
2026-01-06 22:25:34.42	144.42	9.93	-39.0	-41.3	13.5	1.29e-05	0	57	0	1760559104	48	5029
2026-01-06 22:25:38.46	144.87	9.65	-38.9	-41.1	13.7	9.10e-06	0	57	0	1773142016	48	4922
2026-01-06 22:25:42.50	145.32	9.38	-38.9	-41.2	13.6	9.90e-06	0	57	0	1785724928	48	4936
2026-01-06 22:25:46.54	145.76	9.11	-38.8	-41.2	13.5	8.30e-06	0	57	0	1798307840	48	4936
2026-01-06 22:25:50.59	146.19	8.84	-39.0	-41.4	13.2	1.98e-05	0	57	0	1810890752	48	5073
2026-01-06 22:25:54.63	146.61	8.58	-39.2	-41.7	12.8	6.71e-05	0	57	0	1824522240	49	4965
2026-01-06 22:25:58.66	147.02	8.31	-39.2	-41.8	12.7	9.38e-05	0	57	0	1837105152	49	5011
2026-01-06 22:26:02.70	147.43	8.05	-39.1	-41.8	12.7	7.47e-05	0	57	0	1848639488	49	4988
2026-01-06 22:26:06.74	147.83	7.79	-44.9	-57.2	3.8	1.49e+00	0	57	104	1851785216	60	15754
2026-01-06 22:26:10.79	148.23	7.53	-45.2	-57.7	3.8	1.49e+00	0	57	104	1851785216	61	15607
2026-01-06 22:26:14.82	148.61	7.27	-45.1	-57.7	3.8	1.49e+00	0	57	104	1851785216	61	15584
2026-01-06 22:26:18.87	149.00	7.01	-45.0	-57.6	3.8	1.49e+00	0	57	104	1851785216	61	15536
2026-01-06 22:26:22.90	149.37	6.76	-45.0	-57.6	3.8	1.49e+00	0	57	104	1851785216	61	15510
2026-01-06 22:26:26.94	149.74	6.50	-45.0	-57.6	3.8	1.49e+00	0	57	104	1851785216	61	15485
2026-01-06 22:26:30.99	150.10	6.25	-45.0	-57.6	3.8	1.49e+00	0	57	104	1851785216	61	15503
2026-01-06 22:26:35.03	150.46	6.00	-45.0	-57.6	3.8	1.49e+00	0	57	104	1851785216	61	15499
2026-01-06 22:26:39.08	150.81	5.75	-45.0	-57.6	3.8	1.49e+00	0	57	104	1851785216	61	15461
2026-01-06 22:26:43.12	151.15	5.50	-45.0	-57.6	3.8	1.49e+00	0	57	104	1851785216	61	15468
2026-01-06 22:26:47.16	151.49	5.25	-45.0	-57.6	3.8	1.49e+00	0	57	104	1851785216	61	15470
2026-01-06 22:26:51.21	151.83	5.01	-45.0	-57.6	3.8	1.49e+00	0	57	104	1851785216	61	15465
2026-01-06 22:26:55.25	152.15	4.76	-45.0	-57.6	3.8	1.49e+00	0	57	104	1851785216	61	15472
2026-01-06 22:26:59.29	152.48	4.52	-45.0	-57.6	3.8	1.49e+00	0	57	104	1851785216	61	15490
2026-01-06 22:27:03.34	152.80	4.28	-45.0	-57.6	3.8	1.49e+00	0	57	104	1851785216	61	15425
2026-01-06 22:27:07.38	153.11	4.04	-44.9	-57.6	3.8	1.49e+00	0	57	104	1851785216	61	15407
2026-01-06 22:27:11.42	153.42	3.80	-45.0	-57.6	3.8	1.49e+00	0	57	104	1851785216	61	15419
2026-01-06 22:27:15.46	153.72	3.56	-45.0	-57.5	3.8	1.49e+00	0	57	104	1851785216	61	15399
2026-01-06 22:27:19.50	154.02	3.33	-45.0	-57.6	3.8	1.49e+00	0	57	104	1851785216	61	15415
2026-01-06 22:27:23.55	154.31	3.09	-45.0	-57.6	3.8	1.49e+00	0	57	104	1851785216	60	16344
2026-01-06 22:27:27.59	154.60	2.86	-45.0	-57.6	3.8	1.49e+00	0	57	104	1851785216	60	16367
2026-01-06 22:27:31.63	154.89	2.63	-45.0	-57.6	3.8	1.49e+00	0	57	104	1851785216	60	16335
2026-01-06 22:27:35.67	155.17	2.40	-45.0	-57.6	3.8	1.49e+00	0	57	104	1851785216	60	16367
2026-01-06 22:27:39.71	155.45	2.17	-45.0	-57.5	3.8	1.49e+00	0	57	104	1851785216	60	16293
2026-01-06 22:27:43.75	155.72	1.95	-45.0	-57.6	3.8	1.49e+00	0	57	104	1851785216	60	16327

#Closed at: 2026-01-06 22:27:44
#Recorded file [1851 MB]: D:/lorett/data/31039_260107_011439.dat