passes_logs/2026/01/06/R2.0S_Moscow/R2.0S_Moscow__20260106_015413_NOAA_21_JPSS-2_rec.log

#Pass ID: 20260106_015413_NOAA 21 (JPSS-2)
#Satellite: NOAA 21 (JPSS-2)
#Configuration: NOAA-21
#almurnet v.1.7.20251203
#Start time: 2026-01-06 01:58:18

#Version: 2.2.20231116
#Station: R2.0S_Moscow
#Location: 37.707566 lon 55.798166 lat
#TLE: 1 54234U 22150A   26005.21525222  .00000150  00000+0  91957-4 0  9992
#TLE: 2 54234  98.7490 306.2339 0001053 341.6032  18.5106 14.19532220163427

#Time	Az	El	Level	Level2	SNR	BER	BlckErr	Temp	State	Recorded	gain1	gain2
2026-01-06 01:58:18.35	336.22	13.83	-45.0	-56.9	3.8	8.47e-01	0	56	0	0	60	15110
2026-01-06 01:58:20.36	335.83	13.90	-45.2	-57.8	3.8	1.49e+00	0	57	104	0	62	14887
2026-01-06 01:58:22.38	335.44	13.97	-45.1	-57.7	3.8	1.49e+00	0	57	104	0	62	14745
2026-01-06 01:58:24.41	335.05	14.03	-44.9	-57.4	3.8	1.49e+00	0	57	104	0	61	15150
2026-01-06 01:58:26.43	334.66	14.10	-44.6	-57.2	3.8	1.49e+00	0	57	104	0	61	14722
2026-01-06 01:58:28.45	334.26	14.16	-44.6	-57.0	3.8	1.49e+00	0	57	104	0	61	14520
2026-01-06 01:58:30.47	333.86	14.22	-44.6	-57.0	3.8	1.49e+00	0	57	104	0	61	14464
2026-01-06 01:58:32.49	333.47	14.29	-44.6	-57.0	3.8	1.49e+00	0	57	104	0	61	14458
2026-01-06 01:58:34.52	333.07	14.35	-44.6	-57.0	3.8	1.49e+00	0	57	104	0	61	14535
2026-01-06 01:58:36.54	332.66	14.40	-44.6	-57.1	3.8	1.49e+00	0	57	104	0	61	14634
2026-01-06 01:58:38.56	332.26	14.46	-44.6	-57.0	3.8	1.49e+00	0	57	104	0	61	14489
2026-01-06 01:58:40.58	331.86	14.52	-44.6	-56.8	3.8	1.49e+00	0	57	104	0	61	14203
2026-01-06 01:58:42.60	331.45	14.57	-44.5	-56.7	3.8	1.49e+00	0	57	104	0	61	13981
2026-01-06 01:58:44.63	331.04	14.63	-44.6	-56.9	3.8	1.49e+00	0	57	104	0	61	14349
2026-01-06 01:58:46.65	330.63	14.68	-44.6	-57.0	3.8	1.49e+00	0	57	104	0	61	14477
2026-01-06 01:58:48.67	330.22	14.73	-44.5	-56.0	3.8	1.49e+00	0	57	104	0	60	13640
2026-01-06 01:58:50.69	329.81	14.78	-44.4	-55.3	3.8	1.49e+00	0	57	104	0	60	12572
2026-01-06 01:58:52.71	329.40	14.83	-44.5	-56.2	3.8	1.49e+00	0	57	104	0	60	13905
2026-01-06 01:58:54.74	328.98	14.88	-44.6	-56.9	3.8	1.49e+00	0	57	104	0	60	15212
2026-01-06 01:58:56.76	328.56	14.92	-44.5	-56.0	3.8	1.49e+00	0	57	104	0	60	13655
2026-01-06 01:58:58.78	328.15	14.97	-44.1	-52.6	4.5	1.45e+00	0	57	104	0	60	9200
2026-01-06 01:59:00.80	327.73	15.01	-43.6	-50.0	5.9	4.02e-01	0	57	0	2097152	59	7282
2026-01-06 01:59:02.82	327.31	15.05	-43.9	-51.1	5.2	5.40e-01	0	57	0	8388608	59	8249
2026-01-06 01:59:04.84	326.89	15.09	-44.4	-54.9	3.8	1.48e+00	0	57	104	9437184	59	12682
2026-01-06 01:59:06.86	326.47	15.13	-42.5	-46.7	8.9	9.18e-02	0	57	0	12582912	57	5584
2026-01-06 01:59:08.89	326.04	15.17	-39.5	-41.7	14.0	6.10e-06	0	56	0	18874368	51	4414
2026-01-06 01:59:10.91	325.62	15.20	-37.8	-39.6	16.1	0.00e+00	0	57	0	25165824	47	4353
2026-01-06 01:59:12.93	325.19	15.23	-39.5	-41.7	14.0	0.00e+00	0	57	0	31457280	49	4983
2026-01-06 01:59:14.95	324.77	15.27	-42.4	-46.7	8.9	5.79e-05	0	57	0	37748736	55	6249
2026-01-06 01:59:16.97	324.34	15.30	-40.1	-42.5	13.4	0.00e+00	0	57	0	44040192	50	5126
2026-01-06 01:59:18.99	323.91	15.33	-37.6	-39.2	16.4	0.00e+00	0	57	0	50331648	47	4192
2026-01-06 01:59:21.00	323.49	15.35	-37.8	-39.5	16.2	0.00e+00	0	57	0	56623104	47	4294
2026-01-06 01:59:23.02	323.06	15.38	-37.8	-39.6	16.1	0.00e+00	0	57	0	62914560	47	4351
2026-01-06 01:59:25.04	322.63	15.40	-37.8	-39.5	16.1	0.00e+00	0	57	0	69206016	47	4320
2026-01-06 01:59:27.06	322.20	15.43	-37.6	-39.2	16.4	0.00e+00	0	56	0	75497472	47	4184
2026-01-06 01:59:29.08	321.76	15.45	-37.5	-39.1	16.5	0.00e+00	0	57	0	81788928	46	4390
2026-01-06 01:59:31.10	321.33	15.47	-37.5	-39.2	16.5	0.00e+00	0	57	0	88080384	46	4403
2026-01-06 01:59:33.12	320.90	15.49	-37.6	-39.2	16.5	0.00e+00	0	57	0	94371840	46	4418
2026-01-06 01:59:35.14	320.47	15.50	-37.7	-39.4	16.2	0.00e+00	0	57	0	100663296	46	4539
2026-01-06 01:59:37.17	320.03	15.52	-37.9	-39.6	16.1	0.00e+00	0	57	0	106954752	46	4643
2026-01-06 01:59:39.19	319.60	15.53	-38.0	-39.8	15.9	0.00e+00	0	57	0	113246208	46	4745
2026-01-06 01:59:41.21	319.16	15.54	-38.1	-39.9	15.8	0.00e+00	0	57	0	119537664	46	4785
2026-01-06 01:59:43.23	318.73	15.55	-38.0	-39.7	15.9	0.00e+00	0	57	0	125829120	46	4696
2026-01-06 01:59:45.25	318.29	15.56	-37.8	-39.5	16.2	0.00e+00	0	57	0	132120576	46	4556
2026-01-06 01:59:47.27	317.86	15.56	-38.0	-39.7	15.9	0.00e+00	0	56	0	138412032	46	4697
2026-01-06 01:59:49.29	317.42	15.57	-37.9	-39.6	16.1	0.00e+00	0	57	0	144703488	46	4638
2026-01-06 01:59:51.31	316.99	15.57	-38.0	-39.7	16.0	0.00e+00	0	57	0	150994944	46	4684
2026-01-06 01:59:53.33	316.55	15.57	-38.0	-39.7	16.0	0.00e+00	0	57	0	157286400	46	4676
2026-01-06 01:59:55.35	316.11	15.57	-37.8	-39.5	16.2	0.00e+00	0	57	0	163577856	46	4578
2026-01-06 01:59:57.37	315.68	15.57	-37.9	-39.6	16.1	0.00e+00	0	57	0	169869312	46	4625
2026-01-06 01:59:59.40	315.24	15.57	-37.9	-39.6	16.0	0.00e+00	0	57	0	176160768	46	4643
2026-01-06 02:00:01.42	314.81	15.56	-37.8	-39.5	16.1	0.00e+00	0	57	0	182452224	46	4579
2026-01-06 02:00:03.44	314.37	15.55	-37.8	-39.6	16.1	0.00e+00	0	57	0	188743680	46	4605
2026-01-06 02:00:05.46	313.94	15.54	-38.0	-39.7	16.0	0.00e+00	0	57	0	196083712	46	4679
2026-01-06 02:00:07.48	313.50	15.53	-38.0	-39.7	15.9	0.00e+00	0	57	0	202375168	46	4694
2026-01-06 02:00:09.49	313.07	15.52	-38.0	-39.8	15.9	0.00e+00	0	57	0	207618048	46	4741
2026-01-06 02:00:11.52	312.63	15.51	-38.1	-39.9	15.8	0.00e+00	0	57	0	214958080	46	4766
2026-01-06 02:00:13.54	312.20	15.49	-38.2	-40.0	15.7	0.00e+00	0	57	0	221249536	47	4556
2026-01-06 02:00:15.56	311.77	15.48	-38.1	-39.9	15.7	0.00e+00	0	56	0	227540992	47	4539
2026-01-06 02:00:17.58	311.33	15.46	-37.9	-39.6	16.0	0.00e+00	0	57	0	233832448	47	4386
2026-01-06 02:00:19.60	310.90	15.44	-37.9	-39.6	16.0	0.00e+00	0	56	0	240123904	47	4373
2026-01-06 02:00:21.61	310.47	15.42	-38.0	-39.8	15.9	0.00e+00	0	57	0	246415360	47	4450
2026-01-06 02:00:23.64	310.04	15.39	-38.1	-39.9	15.7	0.00e+00	0	57	0	252706816	47	4532
2026-01-06 02:00:25.66	309.61	15.37	-38.0	-39.7	15.9	0.00e+00	0	56	0	258998272	47	4440
2026-01-06 02:00:27.68	309.18	15.34	-37.9	-39.7	16.0	0.00e+00	0	57	0	265289728	47	4410
2026-01-06 02:00:29.70	308.75	15.31	-37.8	-39.5	16.1	0.00e+00	0	57	0	271581184	47	4339
2026-01-06 02:00:31.72	308.32	15.28	-37.8	-39.5	16.1	0.00e+00	0	56	0	277872640	47	4306
2026-01-06 02:00:33.74	307.89	15.25	-37.9	-39.7	15.9	0.00e+00	0	57	0	284164096	47	4399
2026-01-06 02:00:35.76	307.47	15.22	-37.6	-39.3	16.3	0.00e+00	0	57	0	290455552	47	4228
2026-01-06 02:00:37.78	307.04	15.18	-37.6	-39.3	16.3	0.00e+00	0	56	0	296747008	47	4230
2026-01-06 02:00:39.80	306.62	15.15	-37.7	-39.4	16.2	0.00e+00	0	56	0	303038464	47	4269
2026-01-06 02:00:41.82	306.20	15.11	-37.9	-39.7	15.9	0.00e+00	0	56	0	309329920	47	4408
2026-01-06 02:00:43.84	305.77	15.07	-38.0	-39.8	15.8	0.00e+00	0	56	0	315621376	47	4483
2026-01-06 02:00:45.86	305.35	15.03	-38.0	-39.8	15.7	0.00e+00	0	56	0	321912832	47	4492
2026-01-06 02:00:47.88	304.93	14.99	-38.1	-39.9	15.7	0.00e+00	0	57	0	328204288	47	4511
2026-01-06 02:00:49.90	304.52	14.94	-37.7	-39.4	16.1	0.00e+00	0	57	0	334495744	47	4291
2026-01-06 02:00:51.92	304.10	14.90	-37.7	-39.4	16.1	0.00e+00	0	56	0	340787200	47	4280
2026-01-06 02:00:53.94	303.68	14.85	-37.7	-39.4	16.2	0.00e+00	0	56	0	347078656	47	4273
2026-01-06 02:00:55.96	303.27	14.81	-37.7	-39.3	16.2	0.00e+00	0	57	0	353370112	47	4241
2026-01-06 02:00:57.98	302.85	14.76	-37.7	-39.4	16.2	0.00e+00	0	57	0	359661568	47	4246
2026-01-06 02:01:00.00	302.44	14.71	-37.5	-39.2	16.4	0.00e+00	0	57	0	365953024	47	4157
2026-01-06 02:01:02.02	302.03	14.65	-37.7	-39.4	16.1	0.00e+00	0	56	0	372244480	47	4267
2026-01-06 02:01:04.04	301.62	14.60	-37.8	-39.5	16.1	0.00e+00	0	57	0	378535936	47	4306
2026-01-06 02:01:06.06	301.21	14.55	-37.6	-39.3	16.3	0.00e+00	0	57	0	384827392	47	4209
2026-01-06 02:01:08.08	300.81	14.49	-37.7	-39.4	16.1	0.00e+00	0	57	0	391118848	47	4272
2026-01-06 02:01:10.10	300.40	14.43	-37.8	-39.6	15.9	0.00e+00	0	56	0	397410304	47	4362
2026-01-06 02:01:12.12	300.00	14.37	-37.8	-39.6	15.9	0.00e+00	0	57	0	403701760	47	4355
2026-01-06 02:01:14.14	299.60	14.31	-37.7	-39.4	16.1	0.00e+00	0	57	0	409993216	47	4268
2026-01-06 02:01:16.16	299.20	14.25	-37.7	-39.4	16.1	0.00e+00	0	57	0	416284672	47	4267
2026-01-06 02:01:18.19	298.80	14.19	-37.7	-39.5	15.9	0.00e+00	0	57	0	422576128	47	4314
2026-01-06 02:01:20.21	298.40	14.13	-37.9	-39.8	15.7	0.00e+00	0	56	0	428867584	47	4445
2026-01-06 02:01:22.23	298.01	14.06	-38.2	-40.1	15.3	0.00e+00	0	57	0	435159040	47	4627
2026-01-06 02:01:24.25	297.62	14.00	-38.1	-40.0	15.4	0.00e+00	0	57	0	441450496	47	4577
2026-01-06 02:01:26.27	297.22	13.93	-38.1	-39.9	15.4	0.00e+00	0	56	0	447741952	47	4527
2026-01-06 02:01:28.29	296.83	13.86	-37.5	-39.3	16.0	0.00e+00	0	56	0	454033408	47	4200
2026-01-06 02:01:30.31	296.45	13.79	-37.5	-39.3	16.0	0.00e+00	0	56	0	460324864	47	4201
2026-01-06 02:01:32.33	296.06	13.72	-37.5	-39.3	15.9	0.00e+00	0	57	0	466616320	47	4208
2026-01-06 02:01:34.35	295.68	13.65	-37.7	-39.5	15.6	0.00e+00	0	57	0	472907776	47	4326
2026-01-06 02:01:36.38	295.29	13.58	-37.6	-39.5	15.6	0.00e+00	0	56	0	479199232	47	4295
2026-01-06 02:01:38.40	294.91	13.51	-37.7	-39.5	15.5	0.00e+00	0	56	0	485490688	47	4340
2026-01-06 02:01:40.42	294.54	13.43	-37.7	-39.6	15.4	0.00e+00	0	56	0	492830720	47	4347
2026-01-06 02:01:42.44	294.16	13.36	-37.9	-39.8	15.1	0.00e+00	0	56	0	498073600	47	4470
2026-01-06 02:01:44.46	293.78	13.28	-38.1	-40.1	14.7	7.00e-07	0	57	0	505413632	47	4643
2026-01-06 02:01:46.48	293.41	13.20	-38.2	-40.3	14.4	7.00e-07	0	56	0	511705088	47	4753
2026-01-06 02:01:48.50	293.04	13.12	-38.2	-40.4	14.3	2.20e-06	0	57	0	517996544	47	4776
2026-01-06 02:01:50.52	292.67	13.04	-38.2	-40.3	14.4	0.00e+00	0	57	0	524288000	47	4730
2026-01-06 02:01:52.54	292.31	12.96	-38.1	-40.2	14.2	7.00e-07	0	56	0	530579456	47	4694
2026-01-06 02:01:54.56	291.94	12.88	-38.0	-40.1	14.3	7.00e-07	0	56	0	536870912	47	4627
2026-01-06 02:01:56.58	291.58	12.80	-37.9	-40.0	14.5	7.00e-07	0	57	0	543162368	47	4574
2026-01-06 02:01:58.60	291.22	12.72	-38.1	-40.2	14.3	0.00e+00	0	56	0	549453824	47	4683
2026-01-06 02:02:00.62	290.86	12.63	-38.1	-40.3	14.3	0.00e+00	0	56	0	555745280	47	4712
2026-01-06 02:02:02.64	290.50	12.55	-38.1	-40.4	14.1	3.80e-06	0	57	0	562036736	47	4770
2026-01-06 02:02:04.66	290.15	12.46	-38.1	-40.5	13.7	8.30e-06	0	56	0	568328192	47	4816
2026-01-06 02:02:06.67	289.80	12.38	-38.4	-40.8	13.2	1.83e-05	0	57	0	574619648	47	5034
2026-01-06 02:02:08.69	289.45	12.29	-38.8	-41.5	12.5	1.10e-04	0	57	0	580911104	48	5154
2026-01-06 02:02:10.72	289.10	12.20	-39.1	-42.1	11.7	4.87e-04	0	57	0	587202560	48	5497
2026-01-06 02:02:12.74	288.75	12.12	-39.5	-43.0	10.6	2.39e-03	0	57	0	593494016	49	5729
2026-01-06 02:02:14.76	288.41	12.03	-39.8	-43.6	9.8	8.80e-03	0	56	0	599785472	50	5814
2026-01-06 02:02:16.78	288.07	11.94	-39.9	-44.0	9.1	2.12e-02	0	57	0	606076928	50	6091
2026-01-06 02:02:18.79	287.73	11.85	-40.0	-44.5	8.4	4.42e-02	0	57	0	612368384	50	6494
2026-01-06 02:02:20.81	287.39	11.76	-40.2	-45.5	7.3	1.15e-01	0	56	0	618659840	50	7238
2026-01-06 02:02:22.83	287.06	11.67	-40.4	-46.3	6.5	2.29e-01	0	56	0	624951296	51	7469
2026-01-06 02:02:24.85	286.72	11.57	-40.5	-46.9	5.9	3.54e-01	0	56	0	631242752	51	8018
2026-01-06 02:02:26.88	286.39	11.48	-40.5	-46.8	6.0	3.57e-01	0	56	0	637534208	51	7925
2026-01-06 02:02:28.90	286.06	11.39	-40.7	-46.4	6.5	2.34e-01	0	57	0	643825664	51	7622
2026-01-06 02:02:30.92	285.73	11.29	-40.8	-46.1	7.1	1.50e-01	0	56	0	650117120	52	6947
2026-01-06 02:02:32.94	285.41	11.20	-40.7	-46.2	6.9	1.53e-01	0	57	0	656408576	52	7032
2026-01-06 02:02:34.96	285.09	11.11	-40.7	-46.1	7.1	1.39e-01	0	57	0	662700032	52	6896
2026-01-06 02:02:36.98	284.77	11.01	-40.7	-45.9	7.4	1.21e-01	0	56	0	668991488	52	6742
2026-01-06 02:02:39.00	284.45	10.91	-40.5	-45.0	8.4	4.80e-02	0	57	0	675282944	52	6114
2026-01-06 02:02:41.02	284.13	10.82	-40.4	-44.4	9.4	1.62e-02	0	57	0	681574400	52	5702
2026-01-06 02:02:43.04	283.82	10.72	-40.2	-43.9	10.3	5.98e-03	0	57	0	687865856	52	5344
2026-01-06 02:02:45.06	283.50	10.62	-40.0	-43.4	10.8	3.00e-03	0	57	0	694157312	52	5054
2026-01-06 02:02:47.08	283.19	10.53	-39.7	-42.9	11.4	1.07e-03	0	57	0	700448768	51	5044
2026-01-06 02:02:49.11	282.88	10.43	-39.4	-42.2	12.1	3.94e-04	0	56	0	706740224	50	4969
2026-01-06 02:02:51.13	282.58	10.33	-38.9	-41.5	12.8	7.78e-05	0	57	0	713031680	49	4849
2026-01-06 02:02:53.15	282.27	10.23	-38.8	-41.4	12.9	4.73e-05	0	57	0	719323136	49	4794
2026-01-06 02:02:55.17	281.97	10.13	-39.0	-41.7	12.6	7.70e-05	0	57	0	725614592	49	4934
2026-01-06 02:02:57.19	281.67	10.03	-39.2	-42.0	12.3	1.65e-04	0	57	0	731906048	49	5110
2026-01-06 02:02:59.21	281.38	9.93	-39.7	-42.8	11.5	7.18e-04	0	57	0	738197504	49	5631
2026-01-06 02:03:01.23	281.08	9.83	-40.1	-43.5	10.7	2.41e-03	0	57	0	744488960	50	5763
2026-01-06 02:03:03.25	280.79	9.73	-40.1	-43.7	10.4	4.40e-03	0	57	0	750780416	50	5864
2026-01-06 02:03:05.27	280.49	9.63	-40.1	-43.9	10.1	6.93e-03	0	57	0	757071872	50	5995
2026-01-06 02:03:07.29	280.20	9.53	-40.3	-44.3	9.4	1.39e-02	0	57	0	763363328	51	5969
2026-01-06 02:03:09.31	279.92	9.43	-40.4	-44.7	8.9	2.56e-02	0	57	0	769654784	51	6217
2026-01-06 02:03:11.33	279.63	9.33	-40.3	-44.7	8.7	3.50e-02	0	57	0	775946240	51	6249
2026-01-06 02:03:13.35	279.35	9.22	-40.4	-45.2	8.0	6.33e-02	0	57	0	783286272	51	6607
2026-01-06 02:03:15.37	279.07	9.12	-40.5	-45.8	7.3	1.14e-01	0	56	0	788529152	51	7042
2026-01-06 02:03:17.39	278.79	9.02	-40.5	-46.3	6.6	1.91e-01	0	57	0	794820608	51	7488
2026-01-06 02:03:19.41	278.51	8.92	-40.6	-47.1	5.9	3.55e-01	0	57	0	802160640	51	8203
2026-01-06 02:03:21.43	278.23	8.81	-40.7	-48.0	5.1	5.93e-01	0	56	0	808452096	51	9153
2026-01-06 02:03:23.45	277.96	8.71	-40.7	-49.4	4.0	9.77e-01	0	57	104	810549248	51	10765
2026-01-06 02:03:25.47	277.69	8.61	-40.6	-50.1	3.9	1.46e+00	0	57	104	810549248	51	11623
2026-01-06 02:03:27.49	277.42	8.50	-40.4	-51.3	3.8	1.49e+00	0	57	104	810549248	52	12618
2026-01-06 02:03:29.51	277.15	8.40	-40.4	-51.5	3.8	1.46e+00	0	57	104	810549248	52	12954
2026-01-06 02:03:31.53	276.89	8.30	-40.8	-51.1	4.0	1.48e+00	0	57	104	810549248	52	12253
2026-01-06 02:03:33.55	276.62	8.19	-40.4	-52.1	3.8	1.49e+00	0	57	104	810549248	52	13787
2026-01-06 02:03:35.57	276.36	8.09	-40.3	-52.2	3.8	1.49e+00	0	57	104	810549248	52	14005
2026-01-06 02:03:37.59	276.10	7.98	-42.1	-54.3	3.8	1.49e+00	0	57	104	810549248	54	15769
2026-01-06 02:03:39.61	275.84	7.88	-44.8	-57.3	3.8	1.49e+00	0	57	104	810549248	60	15871
2026-01-06 02:03:41.64	275.58	7.77	-45.0	-57.6	3.8	1.49e+00	0	57	104	810549248	60	16322
2026-01-06 02:03:43.66	275.33	7.67	-45.2	-57.7	3.8	1.49e+00	0	57	104	810549248	60	16626
2026-01-06 02:03:45.68	275.08	7.57	-45.2	-57.7	3.8	1.49e+00	0	57	104	810549248	61	15736
2026-01-06 02:03:47.70	274.83	7.46	-45.2	-57.8	3.8	1.49e+00	0	57	104	810549248	61	15766
2026-01-06 02:03:49.72	274.58	7.36	-45.1	-57.7	3.8	1.49e+00	0	57	104	810549248	61	15702
2026-01-06 02:03:51.75	274.33	7.25	-45.1	-57.7	3.8	1.49e+00	0	57	104	810549248	61	15621
2026-01-06 02:03:53.77	274.08	7.15	-45.2	-57.7	3.8	1.49e+00	0	57	104	810549248	61	15721
2026-01-06 02:03:55.79	273.84	7.04	-45.1	-57.7	3.8	1.49e+00	0	57	104	810549248	61	15642
2026-01-06 02:03:57.81	273.60	6.93	-45.1	-57.7	3.8	1.49e+00	0	57	104	810549248	61	15619
2026-01-06 02:03:59.83	273.36	6.83	-45.1	-57.7	3.8	1.49e+00	0	57	104	810549248	61	15602
2026-01-06 02:04:01.86	273.12	6.72	-45.1	-57.7	3.8	1.49e+00	0	57	104	810549248	61	15607
2026-01-06 02:04:03.88	272.88	6.62	-45.1	-57.6	3.8	1.49e+00	0	57	104	810549248	61	15580
2026-01-06 02:04:05.90	272.65	6.51	-45.1	-57.7	3.8	1.49e+00	0	57	104	810549248	61	15640
2026-01-06 02:04:07.92	272.41	6.41	-45.1	-57.7	3.8	1.49e+00	0	57	104	810549248	61	15619
2026-01-06 02:04:09.94	272.18	6.30	-45.1	-57.7	3.8	1.49e+00	0	57	104	810549248	61	15623
2026-01-06 02:04:11.97	271.95	6.20	-45.1	-57.7	3.8	1.49e+00	0	57	104	810549248	61	15594
2026-01-06 02:04:13.99	271.72	6.09	-45.1	-57.7	3.8	1.49e+00	0	57	104	810549248	61	15607
2026-01-06 02:04:16.01	271.50	5.99	-45.1	-57.6	3.8	1.49e+00	0	57	104	810549248	61	15570
2026-01-06 02:04:18.03	271.27	5.88	-45.1	-57.7	3.8	1.49e+00	0	57	104	810549248	61	15595
2026-01-06 02:04:20.05	271.05	5.78	-45.1	-57.6	3.8	1.49e+00	0	57	104	810549248	61	15563
2026-01-06 02:04:22.08	270.83	5.67	-45.1	-57.7	3.8	1.49e+00	0	57	104	810549248	61	15600
2026-01-06 02:04:24.10	270.61	5.57	-45.1	-57.6	3.8	1.49e+00	0	57	104	810549248	61	15580
2026-01-06 02:04:26.12	270.39	5.46	-45.1	-57.6	3.8	1.49e+00	0	57	104	810549248	61	15513
2026-01-06 02:04:28.14	270.17	5.35	-45.1	-57.6	3.8	1.49e+00	0	57	104	810549248	61	15572
2026-01-06 02:04:30.16	269.96	5.25	-45.1	-57.6	3.8	1.49e+00	0	57	104	810549248	61	15576
2026-01-06 02:04:32.19	269.74	5.14	-45.1	-57.6	3.8	1.49e+00	0	57	104	810549248	61	15518
2026-01-06 02:04:34.20	269.53	5.04	-45.1	-57.6	3.8	1.49e+00	0	57	104	810549248	61	15550
2026-01-06 02:04:36.23	269.32	4.93	-45.1	-57.7	3.8	1.49e+00	0	57	104	810549248	61	15596
2026-01-06 02:04:38.25	269.11	4.83	-45.1	-57.6	3.8	1.49e+00	0	57	104	810549248	61	15534
2026-01-06 02:04:40.27	268.91	4.72	-45.1	-57.6	3.8	1.49e+00	0	57	104	810549248	61	15482
2026-01-06 02:04:42.29	268.70	4.62	-45.1	-57.6	3.8	1.49e+00	0	57	104	810549248	61	15571
2026-01-06 02:04:44.31	268.50	4.52	-45.1	-57.7	3.8	1.49e+00	0	57	104	810549248	61	15591
2026-01-06 02:04:46.34	268.29	4.41	-45.1	-57.6	3.8	1.49e+00	0	57	104	810549248	61	15537
2026-01-06 02:04:48.36	268.09	4.31	-45.0	-57.6	3.8	1.49e+00	0	57	104	810549248	61	15540
2026-01-06 02:04:50.38	267.89	4.20	-45.1	-57.7	3.8	1.49e+00	0	57	104	810549248	61	15582
2026-01-06 02:04:52.40	267.69	4.10	-45.0	-57.6	3.8	1.49e+00	0	57	104	810549248	61	15522
2026-01-06 02:04:54.42	267.50	3.99	-45.1	-57.6	3.8	1.49e+00	0	57	104	810549248	61	15508
2026-01-06 02:04:56.45	267.30	3.89	-45.0	-57.6	3.8	1.49e+00	0	57	104	810549248	61	15477
2026-01-06 02:04:58.47	267.11	3.78	-45.1	-57.6	3.8	1.49e+00	0	57	104	810549248	61	15516
2026-01-06 02:05:00.49	266.91	3.68	-45.1	-57.6	3.8	1.49e+00	0	57	104	810549248	61	15529
2026-01-06 02:05:02.51	266.72	3.58	-45.1	-57.6	3.8	1.49e+00	0	57	104	810549248	61	15534
2026-01-06 02:05:04.53	266.53	3.47	-45.0	-57.6	3.8	1.49e+00	0	57	104	810549248	61	15496
2026-01-06 02:05:06.56	266.34	3.37	-45.0	-57.6	3.8	1.49e+00	0	57	104	810549248	61	15562
2026-01-06 02:05:08.58	266.16	3.26	-45.0	-57.6	3.8	1.49e+00	0	57	104	810549248	61	15541
2026-01-06 02:05:10.60	265.97	3.16	-45.0	-57.6	3.8	1.49e+00	0	57	104	810549248	61	15457
2026-01-06 02:05:12.62	265.79	3.06	-45.0	-57.6	3.8	1.49e+00	0	57	104	810549248	61	15506
2026-01-06 02:05:14.65	265.60	2.95	-45.0	-57.6	3.8	1.49e+00	0	57	104	810549248	61	15486
2026-01-06 02:05:16.67	265.42	2.85	-45.0	-57.6	3.8	1.49e+00	0	57	104	810549248	61	15449
2026-01-06 02:05:18.69	265.24	2.75	-45.0	-57.6	3.8	1.49e+00	0	57	104	810549248	61	15472
2026-01-06 02:05:20.71	265.06	2.64	-45.0	-57.6	3.8	1.49e+00	0	57	104	810549248	61	15480
2026-01-06 02:05:22.73	264.88	2.54	-45.0	-57.6	3.8	1.49e+00	0	57	104	810549248	61	15488
2026-01-06 02:05:24.76	264.70	2.44	-45.0	-57.6	3.8	1.49e+00	0	57	104	810549248	61	15538
2026-01-06 02:05:26.77	264.53	2.34	-45.0	-57.6	3.8	1.49e+00	0	57	104	810549248	61	15575
2026-01-06 02:05:28.80	264.36	2.23	-45.0	-57.6	3.8	1.49e+00	0	57	104	810549248	61	15497
2026-01-06 02:05:30.82	264.18	2.13	-45.0	-57.6	3.8	1.49e+00	0	57	104	810549248	61	15510
2026-01-06 02:05:32.84	264.01	2.03	-45.0	-57.6	3.8	1.49e+00	0	57	104	810549248	61	15465

#Closed at: 2026-01-06 02:05:34
#Recorded file [810 MB]: D:/lorett/data/31039_260106_045818.dat