passes_logs/2026/01/06/R2.0S_Moscow/R2.0S_Moscow__20260106_010403_NOAA_20_JPSS-1_rec.log

#Pass ID: 20260106_010403_NOAA 20 (JPSS-1)
#Satellite: NOAA 20 (JPSS-1)
#Configuration: NOAA 20
#almurnet v.1.7.20251203
#Start time: 2026-01-06 01:04:03

#Version: 2.2.20231116
#Station: R2.0S_Moscow
#Location: 37.707566 lon 55.798166 lat
#TLE: 1 43013U 17073A   26005.46207808  .00000128  00000+0  81791-4 0  9997
#TLE: 2 43013  98.7627 306.5027 0001826  53.0458 307.0885 14.19533487421381

#Time	Az	El	Level	Level2	SNR	BER	BlckErr	Temp	State	Recorded	gain1	gain2
2026-01-06 01:04:03.03	11.05	1.99	-39.8	-54.3	3.8	1.49e+00	0	47	0	0	51	18914
2026-01-06 01:04:07.07	10.83	2.22	-39.8	-54.3	3.8	1.49e+00	0	48	104	0	51	18808
2026-01-06 01:04:11.11	10.61	2.46	-39.8	-54.3	3.8	1.49e+00	0	48	104	0	51	18883
2026-01-06 01:04:15.16	10.38	2.70	-39.8	-54.3	3.8	1.49e+00	0	48	104	0	51	18828
2026-01-06 01:04:19.20	10.15	2.95	-39.8	-54.3	3.8	1.49e+00	0	49	104	0	51	18825
2026-01-06 01:04:23.25	9.91	3.19	-39.8	-54.3	3.8	1.49e+00	0	49	104	0	51	18849
2026-01-06 01:04:27.29	9.67	3.44	-39.8	-54.3	3.8	1.49e+00	0	49	104	0	51	18780
2026-01-06 01:04:31.33	9.43	3.68	-39.8	-54.3	3.8	1.49e+00	0	49	104	0	51	18844
2026-01-06 01:04:35.38	9.18	3.93	-39.8	-54.3	3.8	1.49e+00	0	49	104	0	51	18860
2026-01-06 01:04:39.42	8.93	4.18	-39.8	-54.3	3.8	1.49e+00	0	50	104	0	51	18835
2026-01-06 01:04:43.47	8.67	4.44	-39.8	-54.3	3.8	1.49e+00	0	50	104	0	51	18838
2026-01-06 01:04:47.51	8.40	4.69	-39.8	-54.3	3.8	1.49e+00	0	50	104	0	51	18839
2026-01-06 01:04:51.55	8.14	4.95	-39.8	-54.3	3.8	1.49e+00	0	50	104	0	51	18806
2026-01-06 01:04:55.59	7.86	5.20	-39.8	-54.3	3.8	1.49e+00	0	51	104	0	51	18802
2026-01-06 01:04:59.64	7.58	5.46	-39.8	-54.3	3.8	1.49e+00	0	51	104	0	51	18828
2026-01-06 01:05:03.68	7.30	5.73	-39.8	-54.3	3.8	1.49e+00	0	51	104	0	51	18787
2026-01-06 01:05:07.72	7.01	5.99	-39.8	-54.3	3.8	1.49e+00	0	51	104	0	51	18782
2026-01-06 01:05:11.77	6.72	6.25	-39.8	-54.3	3.8	1.49e+00	0	51	104	0	51	18846
2026-01-06 01:05:15.81	6.42	6.52	-39.8	-54.3	3.8	1.49e+00	0	52	104	0	51	18817
2026-01-06 01:05:19.86	6.11	6.79	-39.8	-54.3	3.8	1.49e+00	0	52	104	0	51	18813
2026-01-06 01:05:23.90	5.80	7.06	-39.8	-54.3	3.8	1.49e+00	0	52	104	0	51	18839
2026-01-06 01:05:27.94	5.48	7.34	-39.8	-54.3	3.8	1.49e+00	0	52	104	0	51	18821
2026-01-06 01:05:31.99	5.15	7.61	-39.8	-54.3	3.8	1.49e+00	0	52	104	0	51	18843
2026-01-06 01:05:36.03	4.82	7.89	-39.8	-54.3	3.8	1.49e+00	0	52	104	0	51	18800
2026-01-06 01:05:40.08	4.48	8.17	-39.9	-54.4	3.8	1.49e+00	0	52	104	0	51	19009
2026-01-06 01:05:44.12	4.14	8.45	-39.9	-54.4	3.8	1.49e+00	0	53	104	0	51	18961
2026-01-06 01:05:48.16	3.79	8.74	-39.9	-54.4	3.8	1.49e+00	0	53	104	0	51	19021
2026-01-06 01:05:52.20	3.43	9.02	-40.0	-54.5	3.8	1.49e+00	0	53	104	0	51	19235
2026-01-06 01:05:56.23	3.06	9.31	-39.9	-54.4	3.8	1.49e+00	0	53	104	0	51	19067
2026-01-06 01:06:00.27	2.69	9.60	-40.0	-54.5	3.8	1.49e+00	0	53	104	0	51	19189
2026-01-06 01:06:04.31	2.30	9.89	-39.9	-54.4	3.8	1.49e+00	0	53	104	0	51	19033
2026-01-06 01:06:08.35	1.91	10.19	-39.9	-54.4	3.8	1.49e+00	0	54	104	0	51	19060
2026-01-06 01:06:12.40	1.51	10.49	-39.9	-54.4	3.8	1.49e+00	0	53	104	0	51	19104
2026-01-06 01:06:16.44	1.11	10.79	-39.9	-54.5	3.8	1.49e+00	0	53	104	0	51	19173
2026-01-06 01:06:20.48	0.69	11.09	-40.0	-54.5	3.8	1.49e+00	0	54	104	0	51	19329
2026-01-06 01:06:24.52	0.27	11.39	-40.0	-54.6	3.8	1.49e+00	0	53	104	0	51	19447
2026-01-06 01:06:28.56	359.83	11.70	-40.0	-54.6	3.8	1.49e+00	0	54	104	0	51	19484
2026-01-06 01:06:32.59	359.39	12.00	-39.8	-54.5	3.8	1.49e+00	0	54	104	0	51	19289
2026-01-06 01:06:36.63	358.94	12.31	-40.0	-54.5	3.8	1.49e+00	0	54	104	0	51	19350
2026-01-06 01:06:40.67	358.48	12.63	-40.0	-54.2	3.8	1.49e+00	0	54	104	0	51	18654
2026-01-06 01:06:44.71	358.00	12.94	-40.5	-47.8	7.0	3.24e-01	0	54	0	1048576	52	8460
2026-01-06 01:06:48.75	357.52	13.26	-40.2	-44.8	10.9	3.18e-03	0	54	0	8388608	52	5964
2026-01-06 01:06:52.79	357.02	13.58	-40.0	-44.2	11.7	5.42e-04	0	54	0	15728640	51	5880
2026-01-06 01:06:56.83	356.52	13.90	-40.0	-44.7	10.7	1.69e-03	0	55	0	23068672	51	6237
2026-01-06 01:07:00.87	356.00	14.22	-40.6	-49.0	5.8	2.42e-01	0	54	0	31457280	51	10216
2026-01-06 01:07:04.91	355.47	14.54	-40.5	-53.5	3.8	1.48e+00	0	54	104	34603008	51	17192
2026-01-06 01:07:08.95	354.93	14.87	-40.4	-54.7	3.8	1.49e+00	0	54	104	34603008	51	19817
2026-01-06 01:07:12.99	354.38	15.20	-40.4	-54.9	3.8	1.49e+00	0	55	104	34603008	51	20270
2026-01-06 01:07:17.03	353.81	15.53	-40.5	-55.0	3.8	1.49e+00	0	55	104	34603008	51	20362
2026-01-06 01:07:21.06	353.23	15.86	-39.8	-55.2	3.8	1.49e+00	0	55	104	34603008	51	20808
2026-01-06 01:07:25.10	352.64	16.19	-40.1	-55.1	3.8	1.49e+00	0	55	104	34603008	51	20748
2026-01-06 01:07:29.14	352.04	16.53	-39.9	-55.2	3.8	1.49e+00	0	55	104	34603008	51	20848
2026-01-06 01:07:33.19	351.42	16.86	-40.4	-55.2	3.8	1.49e+00	0	55	104	34603008	51	20910
2026-01-06 01:07:37.23	350.78	17.20	-40.7	-55.5	3.8	1.49e+00	0	55	104	34603008	52	20406
2026-01-06 01:07:41.26	350.14	17.53	-40.6	-55.2	3.8	1.49e+00	0	55	104	34603008	52	19770
2026-01-06 01:07:45.30	349.47	17.87	-40.7	-55.3	3.8	1.49e+00	0	55	104	34603008	52	20046
2026-01-06 01:07:49.34	348.79	18.21	-40.5	-55.1	3.8	1.49e+00	0	55	104	34603008	52	19458
2026-01-06 01:07:53.38	348.10	18.55	-40.6	-55.2	3.8	1.49e+00	0	55	104	34603008	53	18562
2026-01-06 01:07:57.42	347.39	18.89	-40.5	-55.0	3.8	1.49e+00	0	55	104	34603008	52	19353
2026-01-06 01:08:01.46	346.66	19.23	-40.5	-55.0	3.8	1.49e+00	0	55	104	34603008	52	19183
2026-01-06 01:08:05.50	345.92	19.57	-40.5	-55.1	3.8	1.49e+00	0	55	104	34603008	52	19443
2026-01-06 01:08:09.55	345.16	19.91	-40.4	-55.0	3.8	1.49e+00	0	55	104	34603008	52	19190
2026-01-06 01:08:13.58	344.38	20.24	-40.4	-54.7	3.8	1.49e+00	0	56	104	34603008	52	18614
2026-01-06 01:08:17.62	343.59	20.58	-40.9	-51.7	4.4	1.36e+00	89	55	0	34603008	52	13124
2026-01-06 01:08:21.66	342.77	20.91	-41.6	-48.7	7.1	1.86e-01	0	55	0	41943040	53	8793
2026-01-06 01:08:25.70	341.94	21.25	-41.4	-46.3	10.4	7.05e-03	0	55	0	49283072	53	6688
2026-01-06 01:08:29.74	341.09	21.58	-40.1	-43.4	13.7	5.30e-06	0	56	0	57671680	52	5047
2026-01-06 01:08:33.78	340.23	21.90	-40.5	-43.7	13.7	6.80e-06	0	55	0	65011712	51	5583
2026-01-06 01:08:37.82	339.34	22.23	-40.1	-42.9	14.8	7.00e-07	0	55	0	72351744	52	4806
2026-01-06 01:08:41.86	338.43	22.55	-39.7	-42.1	15.9	0.00e+00	0	55	0	79691776	51	4635
2026-01-06 01:08:45.90	337.51	22.87	-39.9	-42.4	15.7	0.00e+00	0	55	0	87031808	51	4780
2026-01-06 01:08:49.94	336.57	23.18	-39.5	-41.8	16.3	0.00e+00	0	56	0	95420416	51	4467
2026-01-06 01:08:53.98	335.60	23.49	-39.6	-41.9	16.3	0.00e+00	0	56	0	102760448	50	4794
2026-01-06 01:08:58.02	334.62	23.79	-39.6	-41.9	16.2	0.00e+00	0	56	0	110100480	50	4810
2026-01-06 01:09:02.05	333.62	24.09	-39.8	-42.1	16.1	0.00e+00	0	56	0	117440512	50	4926
2026-01-06 01:09:06.10	332.60	24.38	-39.8	-42.1	16.1	0.00e+00	0	56	0	125829120	50	4908
2026-01-06 01:09:10.14	331.56	24.67	-39.7	-42.0	16.2	0.00e+00	0	56	0	133169152	50	4848
2026-01-06 01:09:14.18	330.50	24.94	-39.9	-42.2	16.1	0.00e+00	0	56	0	140509184	50	4975
2026-01-06 01:09:18.21	329.43	25.21	-40.0	-42.4	15.9	0.00e+00	0	56	0	147849216	50	5073
2026-01-06 01:09:22.26	328.33	25.47	-39.9	-42.3	16.0	0.00e+00	0	56	0	155189248	50	5013
2026-01-06 01:09:26.29	327.22	25.72	-39.7	-41.9	16.4	0.00e+00	0	56	0	163577856	50	4797
2026-01-06 01:09:30.33	326.09	25.97	-39.6	-41.8	16.5	0.00e+00	0	56	0	170917888	50	4758
2026-01-06 01:09:34.37	324.94	26.20	-39.8	-42.2	16.1	0.00e+00	0	56	0	178257920	50	4960
2026-01-06 01:09:38.41	323.77	26.42	-39.5	-41.8	16.6	0.00e+00	0	56	0	185597952	50	4706
2026-01-06 01:09:42.45	322.59	26.62	-39.5	-41.6	16.7	0.00e+00	0	56	0	193986560	50	4648
2026-01-06 01:09:46.49	321.39	26.82	-39.6	-41.8	16.5	0.00e+00	0	56	0	201326592	50	4747
2026-01-06 01:09:50.52	320.19	27.00	-39.8	-42.2	16.1	0.00e+00	0	56	0	208666624	50	4951
2026-01-06 01:09:54.56	318.96	27.18	-40.4	-43.0	15.3	0.00e+00	0	56	0	216006656	51	5149
2026-01-06 01:09:58.60	317.72	27.33	-40.3	-42.9	15.3	0.00e+00	0	56	0	223346688	51	5100
2026-01-06 01:10:02.64	316.47	27.47	-40.6	-43.3	15.1	7.00e-07	0	56	0	231735296	51	5299
2026-01-06 01:10:06.67	315.22	27.60	-40.3	-42.9	15.4	0.00e+00	0	56	0	239075328	51	5076
2026-01-06 01:10:10.71	313.95	27.72	-40.6	-43.4	15.0	7.00e-07	0	56	0	246415360	51	5365
2026-01-06 01:10:14.75	312.67	27.81	-40.8	-43.7	14.6	7.00e-07	0	56	0	253755392	52	5228
2026-01-06 01:10:18.78	311.38	27.90	-40.8	-43.7	14.5	1.50e-06	0	56	0	262144000	52	5273
2026-01-06 01:10:22.82	310.09	27.96	-41.1	-44.3	13.9	3.80e-06	0	56	0	269484032	52	5594
2026-01-06 01:10:26.86	308.79	28.01	-41.0	-44.0	14.2	7.00e-07	0	56	0	276824064	52	5433
2026-01-06 01:10:30.89	307.50	28.05	-40.7	-43.6	14.7	0.00e+00	0	56	0	284164096	52	5162
2026-01-06 01:10:34.93	306.19	28.07	-41.1	-44.2	14.0	1.50e-06	0	56	0	291504128	52	5577
2026-01-06 01:10:38.97	304.89	28.07	-40.9	-43.8	14.4	1.50e-06	0	56	0	299892736	52	5331
2026-01-06 01:10:43.01	303.59	28.05	-40.7	-43.5	14.7	0.00e+00	0	56	0	307232768	52	5150
2026-01-06 01:10:47.05	302.29	28.02	-40.4	-43.1	15.1	0.00e+00	0	56	0	314572800	52	4916
2026-01-06 01:10:51.09	300.99	27.97	-40.4	-43.1	15.1	7.00e-07	0	56	0	321912832	52	4903
2026-01-06 01:10:55.13	299.69	27.91	-40.5	-43.2	15.0	0.00e+00	0	56	0	330301440	52	4979
2026-01-06 01:10:59.16	298.41	27.83	-40.1	-42.5	15.7	0.00e+00	0	56	0	337641472	52	4595
2026-01-06 01:11:03.20	297.13	27.73	-39.9	-42.3	16.0	0.00e+00	0	56	0	344981504	51	4756
2026-01-06 01:11:07.24	295.85	27.62	-39.7	-42.0	16.3	0.00e+00	0	56	0	352321536	51	4593
2026-01-06 01:11:11.29	294.59	27.50	-39.5	-41.8	16.6	0.00e+00	0	56	0	359661568	50	4706
2026-01-06 01:11:15.33	293.33	27.36	-39.7	-42.0	16.3	0.00e+00	0	56	0	368050176	50	4828
2026-01-06 01:11:19.36	292.09	27.20	-39.6	-41.9	16.5	0.00e+00	0	56	0	375390208	50	4767
2026-01-06 01:11:23.40	290.86	27.03	-39.5	-41.7	16.7	0.00e+00	0	56	0	382730240	50	4656
2026-01-06 01:11:27.44	289.65	26.85	-39.8	-42.1	16.2	0.00e+00	0	56	0	390070272	50	4907
2026-01-06 01:11:31.48	288.45	26.66	-40.0	-42.4	15.8	0.00e+00	0	56	0	398458880	50	5097
2026-01-06 01:11:35.52	287.26	26.45	-40.0	-42.4	15.9	0.00e+00	0	56	0	405798912	50	5087
2026-01-06 01:11:39.56	286.09	26.23	-40.4	-43.0	15.3	0.00e+00	0	56	0	413138944	51	5104
2026-01-06 01:11:43.59	284.94	26.00	-40.7	-43.5	14.7	0.00e+00	0	56	0	420478976	52	5119
2026-01-06 01:11:47.63	283.80	25.76	-40.6	-43.4	14.8	0.00e+00	0	56	0	427819008	52	5063
2026-01-06 01:11:51.67	282.68	25.51	-40.8	-43.8	14.4	0.00e+00	0	56	0	436207616	52	5298
2026-01-06 01:11:55.71	281.58	25.25	-41.0	-44.0	14.1	2.20e-06	0	56	0	443547648	52	5420
2026-01-06 01:11:59.75	280.49	24.98	-40.6	-43.4	14.7	7.00e-07	0	56	0	450887680	52	5089
2026-01-06 01:12:03.76	279.44	24.71	-40.7	-43.6	14.5	7.00e-07	0	56	0	458227712	52	5202
2026-01-06 01:12:07.80	278.39	24.43	-40.8	-43.7	14.5	0.00e+00	0	56	0	465567744	52	5226
2026-01-06 01:12:11.84	277.36	24.13	-40.3	-42.9	15.2	0.00e+00	0	56	0	473956352	52	4811
2026-01-06 01:12:15.88	276.35	23.84	-40.5	-43.2	14.8	0.00e+00	0	56	0	481296384	52	4982
2026-01-06 01:12:19.92	275.37	23.53	-40.0	-42.6	15.5	0.00e+00	0	56	0	488636416	52	4616
2026-01-06 01:12:23.96	274.40	23.22	-40.0	-42.5	15.6	0.00e+00	0	56	0	495976448	51	4852
2026-01-06 01:12:28.00	273.45	22.91	-39.7	-42.1	16.1	0.00e+00	0	56	0	504365056	51	4616
2026-01-06 01:12:32.04	272.51	22.59	-39.6	-41.9	16.3	0.00e+00	0	56	0	511705088	51	4505
2026-01-06 01:12:36.08	271.60	22.27	-39.5	-41.8	16.3	0.00e+00	0	56	0	519045120	51	4486
2026-01-06 01:12:40.12	270.71	21.94	-39.6	-41.9	16.3	0.00e+00	0	56	0	526385152	51	4511
2026-01-06 01:12:44.16	269.83	21.62	-39.6	-41.9	16.2	0.00e+00	0	56	0	533725184	51	4544
2026-01-06 01:12:48.20	268.98	21.28	-39.4	-41.7	16.4	0.00e+00	0	56	0	542113792	50	4687
2026-01-06 01:12:52.24	268.14	20.95	-39.2	-41.4	16.8	0.00e+00	0	56	0	549453824	50	4496
2026-01-06 01:12:56.27	267.32	20.62	-39.0	-41.0	17.1	0.00e+00	0	56	0	556793856	49	4594
2026-01-06 01:13:00.31	266.52	20.28	-38.9	-41.0	17.1	0.00e+00	0	56	0	564133888	49	4551
2026-01-06 01:13:04.35	265.74	19.94	-38.7	-40.8	17.3	0.00e+00	0	56	0	572522496	49	4450
2026-01-06 01:13:08.39	264.97	19.60	-38.4	-40.3	17.8	0.00e+00	0	56	0	579862528	48	4462
2026-01-06 01:13:12.42	264.22	19.26	-38.6	-40.5	17.5	0.00e+00	0	56	0	587202560	48	4593
2026-01-06 01:13:16.46	263.49	18.92	-38.5	-40.4	17.6	0.00e+00	0	56	0	594542592	48	4525
2026-01-06 01:13:20.50	262.77	18.58	-38.5	-40.4	17.6	0.00e+00	0	56	0	601882624	48	4545
2026-01-06 01:13:24.54	262.07	18.24	-38.9	-41.0	17.0	0.00e+00	0	56	0	610271232	48	4829
2026-01-06 01:13:28.58	261.38	17.90	-38.8	-40.8	17.2	0.00e+00	0	56	0	617611264	48	4741
2026-01-06 01:13:32.62	260.71	17.56	-38.9	-41.0	17.0	0.00e+00	0	56	0	624951296	48	4825
2026-01-06 01:13:36.66	260.06	17.22	-39.0	-41.1	16.9	0.00e+00	0	56	0	632291328	48	4922
2026-01-06 01:13:40.70	259.42	16.88	-39.1	-41.3	16.7	0.00e+00	0	56	0	640679936	48	5019
2026-01-06 01:13:44.73	258.79	16.55	-39.4	-41.7	16.2	0.00e+00	0	56	0	648019968	49	4967
2026-01-06 01:13:48.77	258.18	16.21	-39.7	-42.1	15.8	0.00e+00	0	56	0	655360000	49	5187
2026-01-06 01:13:52.81	257.58	15.88	-39.7	-42.1	15.9	0.00e+00	0	56	0	662700032	50	4891
2026-01-06 01:13:56.85	257.00	15.55	-39.6	-41.9	16.0	0.00e+00	0	56	0	670040064	50	4802
2026-01-06 01:14:00.88	256.43	15.22	-39.7	-42.1	15.8	0.00e+00	0	56	0	678428672	50	4922
2026-01-06 01:14:04.92	255.87	14.89	-39.8	-42.3	15.5	0.00e+00	0	56	0	685768704	50	5040
2026-01-06 01:14:08.96	255.32	14.56	-39.8	-42.3	15.6	0.00e+00	0	56	0	693108736	50	4990
2026-01-06 01:14:12.99	254.79	14.23	-40.1	-42.8	15.1	0.00e+00	0	56	0	700448768	50	5287
2026-01-06 01:14:17.03	254.27	13.91	-40.4	-43.2	14.6	2.20e-06	0	56	0	708837376	51	5269
2026-01-06 01:14:21.07	253.75	13.59	-40.2	-42.9	14.9	0.00e+00	0	56	0	716177408	51	5091
2026-01-06 01:14:25.11	253.25	13.27	-40.2	-42.9	14.9	0.00e+00	0	56	0	723517440	51	5088
2026-01-06 01:14:29.14	252.76	12.95	-40.3	-43.2	14.6	1.50e-06	0	56	0	730857472	51	5232
2026-01-06 01:14:33.18	252.29	12.63	-40.4	-43.3	14.5	2.20e-06	0	56	0	738197504	51	5283
2026-01-06 01:14:37.22	251.82	12.32	-40.4	-43.4	14.3	0.00e+00	0	56	0	746586112	51	5374
2026-01-06 01:14:41.26	251.36	12.01	-40.4	-43.4	14.3	0.00e+00	0	56	0	753926144	51	5371
2026-01-06 01:14:45.30	250.91	11.70	-40.7	-43.9	13.7	5.30e-06	0	56	0	761266176	52	5391
2026-01-06 01:14:49.34	250.47	11.39	-40.9	-44.2	13.3	2.44e-05	0	56	0	768606208	52	5592
2026-01-06 01:14:53.37	250.04	11.09	-40.7	-44.0	13.6	1.14e-05	0	56	0	776994816	52	5427
2026-01-06 01:14:57.41	249.62	10.78	-40.8	-44.1	13.4	9.90e-06	0	56	0	784334848	52	5521
2026-01-06 01:15:01.45	249.21	10.48	-41.0	-44.5	13.0	2.44e-05	0	56	0	791674880	52	5741
2026-01-06 01:15:05.49	248.80	10.18	-41.1	-44.7	12.8	6.86e-05	0	56	0	799014912	52	5917
2026-01-06 01:15:09.53	248.41	9.89	-41.2	-44.8	12.6	8.77e-05	0	56	0	806354944	53	5650
2026-01-06 01:15:13.57	248.02	9.59	-40.9	-44.4	13.1	2.51e-05	0	56	0	814743552	53	5348
2026-01-06 01:15:17.61	247.64	9.30	-41.0	-44.6	12.9	4.27e-05	0	56	0	822083584	53	5481
2026-01-06 01:15:21.65	247.27	9.01	-41.2	-44.9	12.5	1.06e-04	0	56	0	829423616	53	5708
2026-01-06 01:15:25.69	246.90	8.73	-41.2	-44.9	12.5	1.54e-04	0	56	0	836763648	53	5697
2026-01-06 01:15:29.73	246.55	8.44	-41.3	-45.1	12.2	2.20e-04	0	56	0	845152256	53	5849
2026-01-06 01:15:33.77	246.19	8.16	-41.4	-45.4	11.9	4.32e-04	0	56	0	852492288	53	6034
2026-01-06 01:15:37.80	245.85	7.88	-44.6	-59.1	3.8	1.49e+00	0	56	104	857735168	59	20542
2026-01-06 01:15:41.85	245.51	7.60	-45.0	-59.7	3.8	1.49e+00	0	56	104	857735168	60	20984
2026-01-06 01:15:45.89	245.18	7.32	-45.1	-59.9	3.8	1.49e+00	0	56	104	857735168	60	21361
2026-01-06 01:15:49.93	244.86	7.05	-45.0	-59.8	3.8	1.49e+00	0	56	104	857735168	60	21221
2026-01-06 01:15:53.97	244.54	6.77	-45.0	-59.9	3.8	1.49e+00	0	56	104	857735168	60	21290
2026-01-06 01:15:58.02	244.23	6.50	-45.0	-59.8	3.8	1.49e+00	0	56	104	857735168	60	21210
2026-01-06 01:16:02.06	243.93	6.23	-45.0	-59.8	3.8	1.49e+00	0	56	104	857735168	60	21180
2026-01-06 01:16:06.11	243.62	5.97	-45.0	-59.8	3.8	1.49e+00	0	57	104	857735168	60	21169
2026-01-06 01:16:10.15	243.33	5.70	-45.0	-59.8	3.8	1.49e+00	0	56	104	857735168	60	21170
2026-01-06 01:16:14.20	243.04	5.44	-45.0	-59.8	3.8	1.49e+00	0	56	104	857735168	60	21207
2026-01-06 01:16:18.24	242.76	5.18	-45.0	-59.8	3.8	1.49e+00	0	56	104	857735168	60	21126
2026-01-06 01:16:22.28	242.48	4.92	-45.0	-59.8	3.8	1.49e+00	0	56	104	857735168	60	21112
2026-01-06 01:16:26.33	242.20	4.66	-45.0	-59.8	3.8	1.49e+00	0	56	104	857735168	60	21088
2026-01-06 01:16:30.37	241.94	4.41	-45.0	-59.8	3.8	1.49e+00	0	57	104	857735168	60	21124
2026-01-06 01:16:34.42	241.67	4.15	-45.0	-59.8	3.8	1.49e+00	0	56	104	857735168	60	21176
2026-01-06 01:16:38.46	241.41	3.90	-45.0	-59.8	3.8	1.49e+00	0	57	104	857735168	60	21066
2026-01-06 01:16:42.50	241.16	3.65	-45.0	-59.8	3.8	1.49e+00	0	57	104	857735168	60	21094
2026-01-06 01:16:46.55	240.91	3.41	-45.0	-59.8	3.8	1.49e+00	0	57	104	857735168	60	21088
2026-01-06 01:16:50.59	240.66	3.16	-45.0	-59.8	3.8	1.49e+00	0	56	104	857735168	60	21078
2026-01-06 01:16:54.64	240.42	2.91	-45.0	-59.8	3.8	1.49e+00	0	57	104	857735168	60	21069
2026-01-06 01:16:58.68	240.18	2.67	-45.0	-59.8	3.8	1.49e+00	0	56	104	857735168	60	21090
2026-01-06 01:17:02.73	239.95	2.43	-44.9	-59.8	3.8	1.49e+00	0	57	104	857735168	60	21101
2026-01-06 01:17:06.77	239.72	2.19	-45.0	-59.8	3.8	1.49e+00	0	56	104	857735168	60	21061
2026-01-06 01:17:10.81	239.49	1.95	-45.0	-59.7	3.8	1.49e+00	0	57	104	857735168	60	20989

#Closed at: 2026-01-06 01:17:11
#Recorded file [857 MB]: D:/lorett/data/31039_260106_040402.dat