passes_logs/2025/01/18/XPeterburg/XPeterburg__20250118_191448_FENGYUN_3F_rec.log

#Pass ID: 20250118_191448_FENGYUN 3F
#Satellite: FENGYUN 3F
#Configuration: FENGYUN 3F
#Start time: 2025-01-18 19:14:44

#Version: 1.5.20200625
#Station: XPeterburg
#Location: 30.318091 lon 59.932769 lat
#TLE: 1 57490U 23111A   25017.16985188  .00000174  00000+0  10253-3 0  9999
#TLE: 2 57490  98.7460  90.0838 0001258 138.4389 221.6883 14.19977223 75637

#Time	Az	El	Level	Level2	SNR	BER	Gain	Gain2
2025-01-18 19:14:44.07	174.82	68.44	-40.2	-42.8	3.3	8391540	98	6636
2025-01-18 19:14:44.47	174.95	68.62	-39.7	-55.1	3.5	8199302	73	28699
2025-01-18 19:14:44.88	175.08	68.80	-40.3	-43.4	3.3	8411670	97	6987
2025-01-18 19:14:45.28	175.21	68.98	-40.3	-44.4	3.6	8419178	97	7823
2025-01-18 19:14:45.68	175.34	69.16	-40.3	-43.2	3.3	8409942	97	6882
2025-01-18 19:14:46.08	175.47	69.34	-40.3	-44.6	3.6	8440967	97	8112
2025-01-18 19:14:46.48	175.61	69.52	-40.4	-42.7	3.3	8381092	98	6454
2025-01-18 19:14:46.89	175.75	69.70	-40.5	-44.0	3.6	8399345	99	7341
2025-01-18 19:14:47.29	175.90	69.88	-40.5	-42.6	3.3	8433357	99	6261
2025-01-18 19:14:47.69	176.04	70.06	-40.5	-43.8	3.6	8392169	99	7264
2025-01-18 19:14:48.09	176.19	70.25	-40.4	-42.6	3.4	8390808	99	6368
2025-01-18 19:14:48.49	176.34	70.43	-40.5	-43.8	3.6	8393428	99	7226
2025-01-18 19:14:48.89	176.49	70.61	-40.6	-43.1	3.4	8442649	99	6621
2025-01-18 19:14:49.30	176.65	70.79	-40.5	-42.6	3.3	8396484	99	6258
2025-01-18 19:14:49.70	176.81	70.97	-40.5	-43.1	3.4	8451175	99	6691
2025-01-18 19:14:50.10	176.98	71.16	-40.5	-42.4	3.3	8406887	99	6157
2025-01-18 19:14:50.50	177.14	71.34	-40.4	-43.3	3.5	8443336	99	6847
2025-01-18 19:14:50.90	177.31	71.52	-40.4	-42.4	3.3	8388336	99	6158
2025-01-18 19:14:51.31	177.49	71.71	-40.4	-43.7	3.6	8434226	99	7165
2025-01-18 19:14:51.71	177.67	71.89	-40.4	-42.4	3.3	8427692	99	6199
2025-01-18 19:14:52.11	177.85	72.07	-40.4	-43.9	3.6	8414039	99	7320
2025-01-18 19:14:52.51	178.03	72.25	-40.4	-42.5	3.3	8415206	99	6281
2025-01-18 19:14:52.92	178.23	72.44	-40.4	-44.0	3.6	8427097	99	7433
2025-01-18 19:14:53.32	178.42	72.62	-40.4	-42.5	3.3	8442352	99	6291
2025-01-18 19:14:53.72	178.62	72.81	-40.4	-44.1	3.6	8389984	99	7519
2025-01-18 19:14:54.12	178.82	72.99	-40.4	-42.7	3.3	8430679	99	6388
2025-01-18 19:14:54.52	179.03	73.17	-40.4	-44.1	3.6	8399723	99	7558
2025-01-18 19:14:54.93	179.24	73.36	-40.4	-42.7	3.3	8419990	99	6449
2025-01-18 19:14:55.33	179.46	73.54	-40.4	-44.1	3.6	8398796	99	7559
2025-01-18 19:14:55.73	179.68	73.73	-40.4	-42.8	3.4	8440017	99	6504
2025-01-18 19:14:56.13	179.91	73.91	-40.4	-43.9	3.6	8379890	99	7445
2025-01-18 19:14:56.53	180.14	74.09	-40.3	-42.8	3.4	8439147	99	6564
2025-01-18 19:14:56.94	180.38	74.28	-40.3	-42.5	3.3	8394618	99	6327
2025-01-18 19:14:57.34	180.62	74.46	-40.4	-43.1	3.4	8445304	99	6762
2025-01-18 19:14:57.74	180.87	74.65	-40.4	-42.5	3.3	8391094	99	6314
2025-01-18 19:14:58.14	181.13	74.83	-40.4	-43.3	3.5	8456451	99	6924
2025-01-18 19:14:58.54	181.39	75.01	-40.4	-42.4	3.3	8388198	99	6216
2025-01-18 19:14:58.94	181.66	75.20	-40.4	-43.8	3.6	8417701	99	7245
2025-01-18 19:14:59.35	181.94	75.39	-40.5	-42.7	3.3	8400295	99	6313
2025-01-18 19:14:59.75	182.23	75.57	-40.5	-44.1	3.6	8432212	99	7467
2025-01-18 19:15:00.15	182.52	75.75	-40.4	-42.5	3.3	8392204	99	6238
2025-01-18 19:15:00.55	182.82	75.94	-40.4	-44.0	3.6	8386676	99	7395
2025-01-18 19:15:00.95	183.12	76.12	-40.4	-42.6	3.3	8413959	99	6301
2025-01-18 19:15:01.35	183.44	76.30	-40.4	-43.9	3.6	8402996	99	7360
2025-01-18 19:15:01.76	183.77	76.49	-40.4	-42.5	3.3	8431652	99	6262
2025-01-18 19:15:02.16	184.10	76.67	-40.4	-43.8	3.6	8400981	99	7310
2025-01-18 19:15:02.56	184.45	76.85	-40.4	-42.5	3.4	8438987	99	6302
2025-01-18 19:15:02.96	184.80	77.03	-40.4	-43.8	3.6	8400375	99	7244
2025-01-18 19:15:03.36	185.16	77.22	-40.4	-42.7	3.4	8433895	99	6408
2025-01-18 19:15:03.76	185.53	77.40	-40.4	-42.2	3.3	8382041	99	6068
2025-01-18 19:15:04.17	185.93	77.58	-40.5	-42.9	3.4	8432785	99	6547
2025-01-18 19:15:04.57	186.32	77.76	-40.4	-42.3	3.3	8392204	99	6110
2025-01-18 19:15:04.97	186.73	77.94	-40.4	-43.3	3.5	8430541	99	6851
2025-01-18 19:15:05.37	187.15	78.12	-40.4	-42.5	3.3	8409610	99	6224
2025-01-18 19:15:05.77	187.59	78.30	-40.4	-43.4	3.5	8429420	99	6933
2025-01-18 19:15:06.18	188.05	78.48	-40.4	-42.4	3.3	8397972	99	6179
2025-01-18 19:15:06.58	188.51	78.66	-40.4	-43.6	3.6	8424053	99	7159
2025-01-18 19:15:06.98	188.99	78.84	-40.4	-42.3	3.3	8412586	99	6137
2025-01-18 19:15:07.38	189.48	79.02	-40.5	-43.9	3.6	8408752	99	7288
2025-01-18 19:15:07.78	189.99	79.19	-40.5	-42.5	3.3	8438610	99	6221
2025-01-18 19:15:08.18	190.52	79.37	-40.5	-44.0	3.6	8397548	99	7368
2025-01-18 19:15:08.59	191.08	79.55	-40.4	-42.5	3.3	8424613	99	6253
2025-01-18 19:15:08.99	191.64	79.72	-40.4	-43.9	3.6	8425621	99	7374
2025-01-18 19:15:09.39	192.23	79.90	-40.4	-42.5	3.3	8422966	99	6255
2025-01-18 19:15:09.79	192.83	80.07	-40.4	-43.8	3.6	8391334	99	7263
2025-01-18 19:15:10.19	193.46	80.24	-40.3	-42.4	3.4	8433597	99	6202
2025-01-18 19:15:10.60	194.13	80.42	-40.4	-43.7	3.6	8398189	99	7235
2025-01-18 19:15:11.00	194.80	80.58	-40.4	-42.6	3.4	8448314	99	6369
2025-01-18 19:15:11.40	195.50	80.75	-40.4	-42.3	3.3	8400924	99	6131
2025-01-18 19:15:11.80	196.22	80.92	-40.4	-43.0	3.4	8436950	99	6625
2025-01-18 19:15:12.20	196.97	81.09	-40.4	-42.3	3.3	8384593	99	6176
2025-01-18 19:15:12.61	197.77	81.25	-40.4	-43.2	3.5	8416374	99	6788
2025-01-18 19:15:13.01	198.59	81.42	-40.4	-42.2	3.3	8405845	99	6101
2025-01-18 19:15:13.41	199.43	81.58	-40.4	-43.5	3.6	8424785	99	7037
2025-01-18 19:15:13.81	200.30	81.74	-40.3	-42.3	3.3	8393600	99	6149
2025-01-18 19:15:14.21	201.21	81.89	-40.3	-43.6	3.6	8394973	99	7171
2025-01-18 19:15:14.61	202.16	82.05	-40.3	-42.2	3.3	8413444	99	6101
2025-01-18 19:15:15.02	203.17	82.20	-40.3	-43.7	3.6	8405605	99	7286
2025-01-18 19:15:15.42	204.19	82.36	-40.3	-42.2	3.3	8411018	99	6117
2025-01-18 19:15:15.82	205.26	82.50	-40.3	-43.6	3.6	8412014	99	7186
2025-01-18 19:15:16.22	206.37	82.65	-40.3	-42.0	3.3	8387546	99	6017
2025-01-18 19:15:16.62	207.52	82.79	-40.0	-43.5	3.6	8397720	98	7319
2025-01-18 19:15:17.03	208.75	82.94	-40.1	-42.4	3.3	8435405	98	6457
2025-01-18 19:15:17.43	210.00	83.07	-40.1	-43.7	3.6	8392971	98	7438
2025-01-18 19:15:17.83	211.30	83.21	-40.0	-42.5	3.4	8430244	98	6543
2025-01-18 19:15:18.23	212.65	83.34	-40.0	-42.1	3.3	8390052	98	6257
2025-01-18 19:15:18.63	214.06	83.46	-40.0	-42.5	3.4	8455638	98	6605
2025-01-18 19:15:19.03	215.52	83.58	-39.9	-41.9	3.3	8390396	98	6166
2025-01-18 19:15:19.44	217.07	83.71	-40.0	-43.0	3.5	8445362	98	6966
2025-01-18 19:15:19.84	218.64	83.82	-40.0	-42.0	3.3	8402584	98	6229
2025-01-18 19:15:20.24	220.28	83.93	-39.9	-43.2	3.6	8417793	98	7138
2025-01-18 19:15:20.64	221.97	84.03	-39.9	-42.0	3.3	8405788	98	6219
2025-01-18 19:15:21.04	223.71	84.13	-39.9	-43.3	3.6	8441265	98	7252
2025-01-18 19:15:21.45	225.57	84.22	-39.9	-42.0	3.3	8433586	98	6234
2025-01-18 19:15:21.85	227.43	84.31	-39.9	-43.2	3.6	8409507	98	7246
2025-01-18 19:15:22.25	229.35	84.39	-39.9	-41.9	3.3	8415950	98	6213
2025-01-18 19:15:22.65	231.33	84.47	-39.9	-43.3	3.6	8410526	98	7259
2025-01-18 19:15:23.05	233.35	84.53	-39.9	-42.1	3.3	8440704	98	6295
2025-01-18 19:15:23.46	235.48	84.59	-40.0	-43.6	3.6	8402240	98	7465
2025-01-18 19:15:23.86	237.60	84.65	-39.9	-42.2	3.4	8436595	98	6389
2025-01-18 19:15:24.26	239.76	84.69	-39.9	-43.4	3.6	8395053	98	7314
2025-01-18 19:15:24.66	241.95	84.73	-39.9	-42.3	3.4	8433757	98	6449
2025-01-18 19:15:25.06	244.18	84.76	-39.9	-41.8	3.3	8395133	98	6159
2025-01-18 19:15:25.47	246.48	84.78	-39.9	-42.4	3.4	8446941	98	6605
2025-01-18 19:15:25.87	248.74	84.80	-39.9	-41.8	3.3	8389858	98	6164
2025-01-18 19:15:26.27	251.01	84.81	-39.9	-42.8	3.5	8442398	98	6904
2025-01-18 19:15:26.67	253.28	84.80	-39.9	-41.9	3.3	8408466	98	6213
2025-01-18 19:15:27.07	255.55	84.79	-39.9	-42.7	3.5	8427360	98	6798
2025-01-18 19:15:27.48	257.86	84.77	-39.9	-41.8	3.3	8408271	98	6173
2025-01-18 19:15:27.88	260.09	84.75	-39.9	-43.3	3.6	8447742	98	7257
2025-01-18 19:15:28.28	262.30	84.71	-39.9	-41.9	3.3	8415172	98	6197
2025-01-18 19:15:28.68	264.48	84.67	-39.8	-43.1	3.6	8351097	98	7164
2025-01-18 19:15:29.08	266.61	84.62	-39.8	-41.5	3.3	8419097	98	5998
2025-01-18 19:15:29.48	268.71	84.57	-39.8	-43.0	3.6	8429019	98	7076
2025-01-18 19:15:29.89	270.81	84.50	-39.8	-41.5	3.3	8401451	98	5958
2025-01-18 19:15:30.29	272.81	84.43	-39.8	-42.7	3.6	8384788	98	6894
2025-01-18 19:15:30.69	274.76	84.35	-39.8	-41.5	3.3	8438518	98	5981
2025-01-18 19:15:31.09	276.65	84.27	-39.8	-42.9	3.6	8387329	98	7011
2025-01-18 19:15:31.49	278.49	84.18	-39.8	-41.6	3.3	8430873	98	6044
2025-01-18 19:15:31.90	280.31	84.08	-39.8	-42.8	3.6	8388954	98	6944
2025-01-18 19:15:32.30	282.03	83.98	-39.8	-41.8	3.4	8450168	98	6186
2025-01-18 19:15:32.70	283.69	83.87	-39.8	-41.4	3.3	8402412	98	5904
2025-01-18 19:15:33.10	285.29	83.76	-39.8	-42.5	3.4	8438529	97	6674
2025-01-18 19:15:33.50	286.84	83.65	-39.8	-41.9	3.3	8406269	97	6259
2025-01-18 19:15:33.91	288.36	83.52	-39.8	-42.7	3.5	8435382	97	6853
2025-01-18 19:15:34.31	289.79	83.40	-39.8	-41.9	3.3	8404232	97	6280
2025-01-18 19:15:34.71	291.17	83.27	-39.8	-43.3	3.6	8438770	97	7425
2025-01-18 19:15:35.11	292.49	83.14	-39.8	-42.0	3.3	8395385	97	6378
2025-01-18 19:15:35.51	293.77	83.01	-39.8	-43.5	3.6	8405754	97	7528
2025-01-18 19:15:35.91	294.99	82.87	-39.8	-42.0	3.3	8429637	97	6376
2025-01-18 19:15:36.32	296.20	82.72	-39.7	-43.4	3.6	8415035	97	7515
2025-01-18 19:15:36.72	297.33	82.58	-39.7	-41.9	3.3	8403293	97	6337
2025-01-18 19:15:37.12	298.41	82.43	-39.7	-43.3	3.6	8429546	97	7476
2025-01-18 19:15:37.52	299.46	82.28	-39.7	-41.9	3.3	8439010	97	6332
2025-01-18 19:15:37.93	300.49	82.13	-39.7	-43.3	3.6	8394344	97	7506
2025-01-18 19:15:38.33	301.45	81.97	-39.6	-42.0	3.3	8430221	97	6473
2025-01-18 19:15:38.73	302.38	81.82	-39.6	-43.2	3.6	8395797	97	7448
2025-01-18 19:15:39.13	303.27	81.66	-39.6	-42.1	3.4	8438060	97	6535
2025-01-18 19:15:39.53	304.13	81.50	-39.6	-43.3	3.6	8395385	97	7519
2025-01-18 19:15:39.94	304.98	81.33	-39.6	-42.2	3.4	8428596	97	6630
2025-01-18 19:15:40.34	305.77	81.17	-39.6	-41.7	3.3	8393474	97	6314
2025-01-18 19:15:40.74	306.54	81.00	-39.6	-42.3	3.4	8427349	97	6740
2025-01-18 19:15:41.14	307.28	80.84	-39.6	-41.7	3.3	8395179	97	6280
2025-01-18 19:15:41.54	307.99	80.67	-39.6	-42.5	3.5	8441551	97	6913
2025-01-18 19:15:41.95	308.69	80.50	-39.5	-41.5	3.3	8392284	97	6165
2025-01-18 19:15:42.35	309.35	80.33	-39.5	-42.7	3.6	8407070	97	7121
2025-01-18 19:15:42.75	309.99	80.16	-39.5	-41.4	3.3	8413501	97	6130
2025-01-18 19:15:43.15	310.60	79.99	-39.5	-42.8	3.6	8419029	97	7178
2025-01-18 19:15:43.55	311.20	79.81	-39.5	-41.3	3.3	8409736	97	6044
2025-01-18 19:15:43.96	311.79	79.64	-39.5	-42.6	3.6	8434181	97	7094
2025-01-18 19:15:44.36	312.34	79.46	-39.5	-41.2	3.3	8432109	97	6036
2025-01-18 19:15:44.76	312.88	79.29	-39.5	-42.6	3.6	8404735	97	7067
2025-01-18 19:15:45.16	313.39	79.11	-39.4	-41.3	3.3	8418136	97	6103
2025-01-18 19:15:45.56	313.90	78.93	-39.4	-42.8	3.6	8412117	97	7223
2025-01-18 19:15:45.97	314.39	78.75	-39.4	-41.5	3.4	8439273	97	6228
2025-01-18 19:15:46.37	314.86	78.57	-39.4	-42.8	3.6	8380805	97	7273
2025-01-18 19:15:46.77	315.32	78.40	-39.4	-41.7	3.4	8430335	97	6458
2025-01-18 19:15:47.17	315.76	78.22	-39.3	-42.8	3.6	8402549	97	7372
2025-01-18 19:15:47.57	316.19	78.04	-39.3	-41.8	3.4	8432109	97	6567
2025-01-18 19:15:47.98	316.61	77.85	-39.3	-41.4	3.3	8387031	97	6255
2025-01-18 19:15:48.38	317.01	77.67	-39.3	-42.2	3.4	8438690	97	6867
2025-01-18 19:15:48.78	317.40	77.49	-39.5	-41.6	3.3	8398750	97	6284
2025-01-18 19:15:49.18	317.78	77.31	-39.5	-42.6	3.5	8446815	97	7003
2025-01-18 19:15:49.58	318.15	77.13	-39.6	-41.9	3.3	8421066	97	6444
2025-01-18 19:15:49.99	318.52	76.94	-39.7	-43.2	3.6	8417919	97	7363
2025-01-18 19:15:50.39	318.86	76.76	-39.7	-41.8	3.3	8409622	97	6287
2025-01-18 19:15:50.79	319.20	76.58	-39.8	-43.7	3.6	8437030	97	7636
2025-01-18 19:15:51.19	319.53	76.40	-39.6	-41.4	3.3	8388416	97	6017
2025-01-18 19:15:51.59	319.85	76.22	-40.0	-44.0	3.6	8333003	97	7816
2025-01-18 19:15:52.00	320.17	76.03	-40.0	-42.8	3.3	8415950	97	6770
2025-01-18 19:15:52.40	320.47	75.85	-40.0	-44.2	3.6	8404129	97	8002
2025-01-18 19:15:52.80	320.76	75.66	-40.0	-42.9	3.3	8417907	97	6819
2025-01-18 19:15:53.20	321.05	75.48	-40.1	-44.1	3.6	8380325	97	7787
2025-01-18 19:15:53.60	321.33	75.30	-40.2	-43.1	3.4	8450901	97	6878
2025-01-18 19:15:54.01	321.61	75.11	-40.3	-44.5	3.6	8396198	97	8017
2025-01-18 19:15:54.41	321.87	74.93	-40.3	-43.5	3.4	8432716	97	7175
2025-01-18 19:15:54.81	322.13	74.74	-40.3	-43.0	3.3	8392009	97	6703
2025-01-18 19:15:55.21	322.39	74.56	-40.4	-43.5	3.5	8448314	98	7019
2025-01-18 19:15:55.61	322.63	74.38	-40.4	-42.8	3.3	8388404	98	6470
2025-01-18 19:15:56.02	322.88	74.19	-40.3	-43.6	3.5	8441242	98	7236
2025-01-18 19:15:56.42	323.11	74.01	-40.3	-42.8	3.3	8416786	98	6534
2025-01-18 19:15:56.82	323.34	73.82	-40.3	-44.1	3.6	8412380	98	7614
2025-01-18 19:15:57.22	323.56	73.64	-40.3	-42.9	3.3	8401050	98	6648
2025-01-18 19:15:57.62	323.78	73.46	-40.3	-44.2	3.6	8437339	98	7718
2025-01-18 19:15:58.02	324.00	73.28	-40.3	-43.0	3.3	8407447	98	6744
2025-01-18 19:15:58.43	324.21	73.09	-40.2	-44.4	3.6	8407367	98	7969
2025-01-18 19:15:58.83	324.41	72.91	-40.2	-42.9	3.3	8409255	98	6656
2025-01-18 19:15:59.23	324.61	72.72	-40.2	-44.3	3.6	8408214	98	7875
2025-01-18 19:15:59.63	324.81	72.54	-40.2	-42.9	3.3	8412712	98	6704
2025-01-18 19:16:00.04	325.00	72.35	-40.2	-44.2	3.6	8389137	98	7749
2025-01-18 19:16:00.44	325.19	72.17	-40.3	-43.0	3.3	8443931	98	6733
2025-01-18 19:16:00.84	325.37	71.99	-40.2	-44.3	3.6	8392501	98	7812
2025-01-18 19:16:01.24	325.55	71.81	-40.2	-43.0	3.4	8423240	98	6796
2025-01-18 19:16:01.64	325.73	71.62	-40.3	-44.2	3.6	8394001	98	7776
2025-01-18 19:16:02.05	325.90	71.44	-40.3	-43.2	3.4	8441265	98	6874
2025-01-18 19:16:02.45	326.07	71.26	-40.2	-42.8	3.3	8385955	98	6565
2025-01-18 19:16:02.85	326.24	71.08	-40.2	-43.5	3.4	8442123	98	7135
2025-01-18 19:16:03.25	326.40	70.89	-40.2	-42.8	3.3	8394001	98	6610
2025-01-18 19:16:03.66	326.56	70.71	-40.3	-43.7	3.5	8428333	98	7270
2025-01-18 19:16:04.06	326.72	70.53	-40.3	-42.8	3.3	8392284	98	6612
2025-01-18 19:16:04.46	326.87	70.35	-40.2	-44.0	3.6	8435440	98	7569

#Closed at: 2025-01-18 19:16:04