passes_logs/2025/01/18/XPeterburg/XPeterburg__20250118_092219_FENGYUN_3F_rec.log

#Pass ID: 20250118_092219_FENGYUN 3F
#Satellite: FENGYUN 3F
#Configuration: FENGYUN 3F
#Start time: 2025-01-18 09:22:13

#Version: 1.5.20200625
#Station: XPeterburg
#Location: 30.318091 lon 59.932769 lat
#TLE: 1 57490U 23111A   25017.16985188  .00000174  00000+0  10253-3 0  9999
#TLE: 2 57490  98.7460  90.0838 0001258 138.4389 221.6883 14.19977223 75637

#Time	Az	El	Level	Level2	SNR	BER	Gain	Gain2
2025-01-18 09:22:13.83	355.68	67.69	-42.9	-45.7	3.3	8382808	103	6797
2025-01-18 09:22:14.23	355.46	67.85	-42.0	-59.7	3.5	7941329	73	37891
2025-01-18 09:22:14.63	355.24	68.01	-42.6	-45.6	3.3	8418525	102	6933
2025-01-18 09:22:15.04	355.00	68.18	-42.6	-46.8	3.6	8427074	102	7943
2025-01-18 09:22:15.44	354.77	68.34	-42.6	-45.4	3.3	8398029	102	6815
2025-01-18 09:22:15.84	354.53	68.51	-42.6	-47.0	3.6	8440555	102	8188
2025-01-18 09:22:16.24	354.29	68.67	-42.6	-45.6	3.3	8391082	102	6951
2025-01-18 09:22:16.65	354.04	68.84	-42.8	-46.9	3.6	8338233	103	7873
2025-01-18 09:22:17.05	353.79	69.00	-42.7	-45.4	3.3	8426456	103	6663
2025-01-18 09:22:17.45	353.54	69.17	-42.8	-46.9	3.6	8408409	103	7955
2025-01-18 09:22:17.85	353.28	69.33	-42.7	-45.4	3.3	8405593	103	6729
2025-01-18 09:22:18.25	353.02	69.49	-42.7	-46.8	3.6	8379261	103	7863
2025-01-18 09:22:18.66	352.74	69.66	-42.7	-45.5	3.4	8437236	103	6776
2025-01-18 09:22:19.06	352.47	69.82	-42.7	-46.6	3.6	8385429	103	7775
2025-01-18 09:22:19.46	352.20	69.98	-42.7	-45.6	3.4	8437019	103	6920
2025-01-18 09:22:19.86	351.92	70.15	-42.7	-45.3	3.3	8391426	103	6651
2025-01-18 09:22:20.27	351.62	70.31	-42.7	-45.8	3.4	8453292	103	7063
2025-01-18 09:22:20.67	351.33	70.48	-42.7	-45.3	3.3	8390819	103	6633
2025-01-18 09:22:21.07	351.04	70.64	-42.7	-46.2	3.5	8376846	103	7389
2025-01-18 09:22:21.47	350.73	70.80	-42.7	-45.1	3.3	8412677	103	6527
2025-01-18 09:22:21.87	350.43	70.96	-42.6	-46.1	3.5	8364807	103	7357
2025-01-18 09:22:22.28	350.11	71.13	-42.7	-45.3	3.3	8404472	103	6634
2025-01-18 09:22:22.68	349.79	71.29	-42.8	-46.8	3.6	8435211	103	7803
2025-01-18 09:22:23.08	349.46	71.45	-42.8	-45.5	3.3	8381893	103	6710
2025-01-18 09:22:23.48	349.13	71.61	-42.7	-46.7	3.6	8327671	103	7765
2025-01-18 09:22:23.89	348.79	71.77	-42.8	-45.3	3.3	8425838	103	6610
2025-01-18 09:22:24.29	348.44	71.93	-42.7	-46.7	3.6	8415824	103	7797
2025-01-18 09:22:24.69	348.09	72.09	-42.7	-45.4	3.3	8405342	103	6650
2025-01-18 09:22:25.09	347.74	72.25	-42.8	-46.9	3.6	8389217	103	7839
2025-01-18 09:22:25.49	347.37	72.41	-42.8	-45.5	3.3	8429271	103	6718
2025-01-18 09:22:25.90	346.99	72.57	-42.7	-46.7	3.6	8383941	103	7808
2025-01-18 09:22:26.30	346.62	72.73	-42.7	-45.4	3.3	8440166	103	6708
2025-01-18 09:22:26.70	346.23	72.88	-42.7	-46.7	3.6	8411430	103	7795
2025-01-18 09:22:27.10	345.84	73.04	-42.7	-45.5	3.4	8442672	103	6855
2025-01-18 09:22:27.50	345.44	73.19	-42.7	-45.2	3.3	8387432	103	6567
2025-01-18 09:22:27.91	345.02	73.35	-42.6	-45.7	3.4	8441356	103	7005
2025-01-18 09:22:28.31	344.60	73.51	-42.7	-45.2	3.3	8401508	103	6570
2025-01-18 09:22:28.71	344.18	73.66	-42.8	-45.9	3.5	8419612	104	7018
2025-01-18 09:22:29.11	343.75	73.81	-42.8	-44.9	3.3	8412311	104	6264
2025-01-18 09:22:29.51	343.30	73.97	-42.8	-46.3	3.6	8374408	104	7373
2025-01-18 09:22:29.92	342.84	74.12	-42.8	-45.5	3.3	8390785	103	6659
2025-01-18 09:22:30.32	342.38	74.27	-42.8	-46.9	3.6	8401599	103	7873
2025-01-18 09:22:30.72	341.91	74.42	-42.9	-45.6	3.3	8418022	103	6701
2025-01-18 09:22:31.12	341.43	74.57	-42.8	-46.8	3.6	8359474	103	7772
2025-01-18 09:22:31.52	340.95	74.72	-42.8	-45.4	3.3	8404518	103	6639
2025-01-18 09:22:31.93	340.43	74.87	-42.8	-46.9	3.6	8423435	103	7853
2025-01-18 09:22:32.33	339.93	75.02	-42.7	-45.4	3.3	8440967	103	6682
2025-01-18 09:22:32.73	339.41	75.16	-42.7	-46.7	3.6	8392124	103	7774
2025-01-18 09:22:33.13	338.88	75.31	-42.7	-45.3	3.3	8437946	103	6667
2025-01-18 09:22:33.53	338.34	75.45	-42.7	-46.8	3.6	8387729	103	7853
2025-01-18 09:22:33.94	337.77	75.60	-42.7	-45.5	3.4	8448154	103	6763
2025-01-18 09:22:34.34	337.21	75.74	-42.7	-46.7	3.6	8380599	103	7820
2025-01-18 09:22:34.74	336.63	75.88	-42.7	-45.7	3.4	8439502	103	6926
2025-01-18 09:22:35.14	336.04	76.02	-42.7	-45.2	3.3	8398097	103	6543
2025-01-18 09:22:35.54	335.45	76.15	-42.7	-45.9	3.4	8424636	103	7113
2025-01-18 09:22:35.95	334.82	76.29	-42.7	-45.3	3.3	8398155	103	6627
2025-01-18 09:22:36.35	334.19	76.43	-42.7	-46.1	3.5	8443199	103	7256
2025-01-18 09:22:36.75	333.56	76.56	-42.8	-45.4	3.3	8399185	103	6674
2025-01-18 09:22:37.15	332.91	76.69	-42.8	-46.7	3.6	8459644	103	7646
2025-01-18 09:22:37.55	332.24	76.82	-42.9	-45.5	3.3	8418045	103	6623
2025-01-18 09:22:37.96	331.55	76.95	-42.9	-47.1	3.6	8423297	103	7957
2025-01-18 09:22:38.36	330.86	77.08	-43.1	-45.8	3.3	8398406	103	6729
2025-01-18 09:22:38.76	330.15	77.20	-43.1	-47.4	3.6	8439022	103	8080
2025-01-18 09:22:39.16	329.43	77.32	-43.1	-46.0	3.3	8430999	103	6828
2025-01-18 09:22:39.56	328.70	77.44	-43.0	-47.3	3.6	8397994	103	8043
2025-01-18 09:22:39.97	327.93	77.57	-43.0	-45.9	3.3	8420928	103	6882
2025-01-18 09:22:40.37	327.17	77.68	-43.1	-47.3	3.6	8393474	103	8057
2025-01-18 09:22:40.77	326.39	77.80	-42.9	-45.9	3.4	8448154	103	6937
2025-01-18 09:22:41.17	325.60	77.91	-42.9	-47.1	3.6	8401073	103	7945
2025-01-18 09:22:41.57	324.79	78.02	-43.0	-45.9	3.4	8437351	103	6900
2025-01-18 09:22:41.98	323.94	78.13	-42.9	-47.1	3.6	8398429	103	7993
2025-01-18 09:22:42.38	323.10	78.24	-43.1	-46.2	3.4	8424510	103	7105
2025-01-18 09:22:42.78	322.25	78.34	-43.0	-45.7	3.3	8412986	103	6726
2025-01-18 09:22:43.18	321.38	78.44	-42.9	-46.4	3.4	8453372	103	7360
2025-01-18 09:22:43.58	320.49	78.54	-43.0	-45.9	3.3	8394378	103	6860
2025-01-18 09:22:43.99	319.57	78.64	-43.0	-46.7	3.5	8450809	103	7583
2025-01-18 09:22:44.39	318.65	78.73	-43.0	-45.7	3.3	8414554	103	6787
2025-01-18 09:22:44.79	317.72	78.82	-43.0	-47.0	3.6	8414623	103	7821
2025-01-18 09:22:45.19	316.77	78.90	-42.9	-45.6	3.3	8410022	103	6754
2025-01-18 09:22:45.60	315.78	78.99	-42.9	-47.1	3.6	8450763	103	7938
2025-01-18 09:22:46.00	314.80	79.07	-42.9	-45.6	3.3	8398761	103	6704
2025-01-18 09:22:46.40	313.81	79.15	-42.8	-46.9	3.6	8385154	103	7849
2025-01-18 09:22:46.80	312.81	79.22	-42.8	-45.3	3.3	8435932	103	6593
2025-01-18 09:22:47.21	311.76	79.30	-42.8	-46.8	3.6	8400638	103	7855
2025-01-18 09:22:47.61	310.72	79.36	-42.7	-45.4	3.3	8406429	103	6714
2025-01-18 09:22:48.01	309.68	79.43	-42.7	-46.7	3.6	8376800	103	7806
2025-01-18 09:22:48.41	308.62	79.49	-42.8	-45.6	3.3	8442924	103	6836
2025-01-18 09:22:48.81	307.54	79.54	-42.8	-46.8	3.6	8388862	103	7800
2025-01-18 09:22:49.22	306.43	79.60	-42.8	-45.7	3.4	8371330	103	6919
2025-01-18 09:22:49.62	305.34	79.65	-42.7	-45.1	3.3	8395843	103	6516
2025-01-18 09:22:50.02	304.23	79.69	-43.0	-46.3	3.5	8444423	103	7275
2025-01-18 09:22:50.42	303.12	79.74	-42.9	-45.3	3.3	8387248	103	6540
2025-01-18 09:22:50.82	301.99	79.77	-42.9	-46.2	3.4	8443222	103	7198
2025-01-18 09:22:51.23	300.83	79.81	-42.9	-45.4	3.3	8401599	103	6585
2025-01-18 09:22:51.63	299.69	79.84	-42.9	-46.4	3.5	8419841	103	7367
2025-01-18 09:22:52.03	298.54	79.87	-42.9	-45.6	3.3	8404369	103	6733
2025-01-18 09:22:52.43	297.39	79.89	-43.1	-47.2	3.6	8433116	103	7911
2025-01-18 09:22:52.84	296.21	79.91	-43.1	-46.0	3.3	8403213	103	6872
2025-01-18 09:22:53.24	295.04	79.92	-43.2	-47.5	3.6	8387100	103	8121
2025-01-18 09:22:53.64	293.88	79.93	-43.0	-45.4	3.3	8365264	104	6449
2025-01-18 09:22:54.04	292.72	79.94	-42.9	-46.7	3.6	8366203	104	7604
2025-01-18 09:22:54.44	291.55	79.94	-42.9	-45.2	3.3	8413318	104	6391
2025-01-18 09:22:54.85	290.35	79.94	-42.9	-46.5	3.6	8381046	104	7521
2025-01-18 09:22:55.25	289.19	79.93	-42.9	-45.6	3.3	8379638	103	6779
2025-01-18 09:22:55.65	288.02	79.92	-42.9	-47.1	3.6	8397148	103	7936
2025-01-18 09:22:56.05	286.86	79.90	-42.9	-46.0	3.4	8435337	103	6996
2025-01-18 09:22:56.46	285.68	79.88	-43.0	-47.2	3.6	8400089	103	7997
2025-01-18 09:22:56.86	284.53	79.86	-43.2	-46.4	3.4	8436058	103	7171
2025-01-18 09:22:57.26	283.38	79.84	-43.4	-46.3	3.3	8390178	103	6938
2025-01-18 09:22:57.66	282.24	79.80	-43.4	-47.1	3.4	8441207	103	7543
2025-01-18 09:22:58.06	281.11	79.77	-43.4	-46.4	3.3	8390510	103	6974
2025-01-18 09:22:58.47	279.96	79.73	-43.3	-46.6	3.5	8420654	104	7224
2025-01-18 09:22:58.87	278.85	79.69	-43.3	-45.6	3.3	8406246	104	6447
2025-01-18 09:22:59.27	277.74	79.64	-43.3	-47.0	3.6	8437740	104	7584
2025-01-18 09:22:59.67	276.65	79.59	-43.2	-45.7	3.3	8397205	104	6543
2025-01-18 09:23:00.07	275.57	79.54	-43.3	-47.0	3.6	8443542	104	7548
2025-01-18 09:23:00.48	274.47	79.48	-43.3	-45.8	3.3	8423824	104	6588
2025-01-18 09:23:00.88	273.41	79.42	-43.4	-47.5	3.6	8421215	104	7860
2025-01-18 09:23:01.28	272.36	79.35	-43.3	-45.8	3.3	8411888	104	6585
2025-01-18 09:23:01.68	271.33	79.28	-43.4	-47.4	3.6	8424156	104	7809
2025-01-18 09:23:02.09	270.29	79.21	-43.4	-46.0	3.3	8381275	104	6689
2025-01-18 09:23:02.49	269.28	79.13	-43.4	-47.1	3.6	8392433	105	7523
2025-01-18 09:23:02.89	268.29	79.06	-43.4	-45.7	3.3	8432006	105	6377
2025-01-18 09:23:03.29	267.32	78.98	-43.3	-46.9	3.6	8391403	105	7415
2025-01-18 09:23:03.69	266.36	78.89	-43.5	-46.4	3.4	8432636	104	6923
2025-01-18 09:23:04.10	265.39	78.80	-43.3	-47.5	3.6	8385166	104	7939
2025-01-18 09:23:04.50	264.46	78.71	-43.7	-46.5	3.4	8386539	105	6835
2025-01-18 09:23:04.90	263.54	78.62	-43.5	-45.7	3.3	8390213	105	6353
2025-01-18 09:23:05.30	262.64	78.52	-43.4	-46.3	3.5	8435199	105	6874
2025-01-18 09:23:05.70	261.76	78.42	-43.5	-45.8	3.3	8411453	105	6390
2025-01-18 09:23:06.11	260.87	78.32	-43.4	-46.9	3.6	8427852	105	7352
2025-01-18 09:23:06.51	260.01	78.22	-43.5	-45.7	3.3	8394870	105	6313
2025-01-18 09:23:06.91	259.18	78.11	-43.5	-47.4	3.6	8441104	105	7638
2025-01-18 09:23:07.31	258.35	78.00	-43.5	-45.8	3.3	8425815	105	6381
2025-01-18 09:23:07.72	257.53	77.89	-43.4	-47.1	3.6	8401725	105	7533
2025-01-18 09:23:08.12	256.74	77.78	-43.5	-45.8	3.3	8411190	105	6416
2025-01-18 09:23:08.52	255.96	77.66	-43.5	-47.1	3.6	8415023	105	7525
2025-01-18 09:23:08.92	255.20	77.54	-43.3	-45.4	3.3	8410011	105	6275
2025-01-18 09:23:09.33	254.43	77.42	-43.3	-47.0	3.6	8395431	105	7498
2025-01-18 09:23:09.73	253.70	77.30	-43.3	-45.6	3.3	8439113	105	6418
2025-01-18 09:23:10.13	252.98	77.18	-43.3	-47.3	3.6	8376583	104	7823
2025-01-18 09:23:10.53	252.28	77.05	-43.2	-45.9	3.4	8421352	104	6727
2025-01-18 09:23:10.93	251.59	76.93	-43.1	-47.1	3.6	8408626	104	7776
2025-01-18 09:23:11.34	250.90	76.79	-43.1	-45.9	3.4	8436412	104	6821
2025-01-18 09:23:11.74	250.24	76.66	-43.0	-45.4	3.3	8386024	104	6512
2025-01-18 09:23:12.14	249.59	76.53	-43.0	-46.0	3.4	8431926	104	6915
2025-01-18 09:23:12.54	248.95	76.40	-43.0	-45.4	3.3	8410503	104	6505
2025-01-18 09:23:12.94	248.33	76.26	-43.0	-46.4	3.5	8436012	104	7264
2025-01-18 09:23:13.34	247.72	76.13	-43.0	-45.2	3.3	8408157	104	6386
2025-01-18 09:23:13.75	247.11	75.99	-42.9	-46.6	3.6	8381229	104	7494
2025-01-18 09:23:14.15	246.52	75.85	-43.0	-45.4	3.3	8387866	104	6489
2025-01-18 09:23:14.55	245.95	75.71	-43.0	-46.8	3.6	8406532	104	7635
2025-01-18 09:23:14.95	245.39	75.57	-42.9	-45.3	3.3	8417861	104	6438
2025-01-18 09:23:15.36	244.82	75.42	-42.9	-46.7	3.6	8422966	104	7550
2025-01-18 09:23:15.76	244.29	75.28	-43.0	-45.3	3.3	8410034	104	6416
2025-01-18 09:23:16.16	243.76	75.13	-43.2	-47.1	3.6	8392959	104	7720
2025-01-18 09:23:16.56	243.24	74.99	-43.1	-45.6	3.3	8436859	104	6552
2025-01-18 09:23:16.96	242.73	74.84	-43.0	-46.8	3.6	8386093	104	7608
2025-01-18 09:23:17.37	242.22	74.69	-43.0	-45.6	3.4	8374523	104	6665
2025-01-18 09:23:17.77	241.74	74.54	-43.1	-46.9	3.6	8397102	104	7626
2025-01-18 09:23:18.17	241.26	74.39	-43.1	-45.9	3.4	8437431	104	6798
2025-01-18 09:23:18.57	240.79	74.24	-43.1	-45.5	3.3	8385372	104	6471
2025-01-18 09:23:18.97	240.33	74.09	-43.1	-46.4	3.5	8446140	104	7215
2025-01-18 09:23:19.37	239.88	73.94	-43.1	-45.5	3.3	8394046	104	6495
2025-01-18 09:23:19.78	239.43	73.78	-43.1	-46.6	3.5	8424247	104	7326
2025-01-18 09:23:20.18	239.00	73.63	-43.0	-45.4	3.3	8406314	104	6445
2025-01-18 09:23:20.58	238.58	73.47	-43.1	-46.8	3.6	8431423	104	7519
2025-01-18 09:23:20.98	238.16	73.32	-43.1	-45.4	3.3	8396381	104	6463
2025-01-18 09:23:21.38	237.75	73.16	-43.0	-46.8	3.6	8395751	104	7587
2025-01-18 09:23:21.79	237.34	73.00	-42.9	-45.2	3.3	8425357	104	6360
2025-01-18 09:23:22.19	236.95	72.85	-42.9	-46.6	3.6	8406040	104	7497
2025-01-18 09:23:22.59	236.57	72.69	-42.9	-45.2	3.3	8416591	104	6381
2025-01-18 09:23:22.99	236.19	72.53	-42.9	-46.7	3.6	8428436	104	7558
2025-01-18 09:23:23.39	235.82	72.37	-43.0	-45.6	3.3	8380817	104	6629
2025-01-18 09:23:23.80	235.45	72.21	-42.9	-46.7	3.6	8390510	104	7603
2025-01-18 09:23:24.20	235.10	72.05	-42.8	-45.5	3.4	8443107	104	6684
2025-01-18 09:23:24.60	234.75	71.89	-42.8	-45.0	3.3	8380840	104	6318
2025-01-18 09:23:25.00	234.40	71.73	-42.8	-45.6	3.4	8433322	104	6795
2025-01-18 09:23:25.40	234.07	71.57	-42.8	-45.0	3.3	8394847	104	6321
2025-01-18 09:23:25.81	233.73	71.41	-42.8	-45.9	3.5	8448886	104	7016
2025-01-18 09:23:26.21	233.41	71.25	-42.8	-45.5	3.3	8408489	103	6700
2025-01-18 09:23:26.61	233.09	71.09	-43.0	-47.1	3.6	8411567	103	7966
2025-01-18 09:23:27.01	232.78	70.92	-43.1	-45.9	3.3	8412780	103	6853
2025-01-18 09:23:27.41	232.47	70.76	-42.9	-47.1	3.6	8371742	103	7956
2025-01-18 09:23:27.82	232.16	70.60	-43.0	-45.8	3.3	8406051	103	6826
2025-01-18 09:23:28.22	231.87	70.43	-43.0	-47.2	3.6	8393108	103	7981
2025-01-18 09:23:28.62	231.57	70.27	-42.9	-45.7	3.3	8433620	103	6764

#Closed at: 2025-01-18 09:23:29