passes_logs/2025/01/25/LEX_Murmansk/LEX_Murmansk__20250125_202045_NOAA_19_rec.log

#Pass ID: 20250125_202045_NOAA 19
#Satellite: NOAA 19
#Configuration: NOAA 19
#Start time: 2025-01-25 20:20:40.417951

#LorettStation: 1.0.0 05.05.2024
#Station: LEX_Murmansk
#Location: 33.156738 lon 68.926811 lat
#TLE: 1 33591U 09005A   25024.84494910  .00000392  00000+0  23341-3 0  9996
#TLE: 2 33591  99.0180  88.6826 0014105  30.8618 329.3380 14.13268098822670

#Time	Az	El	Level	SNR
2025-01-25 20:20:52.696747	245.6	15.7	-91.6	5.1
2025-01-25 20:20:53.862452	245.8	15.8	-91.8	5.2
2025-01-25 20:20:55.028440	246.0	15.8	-91.9	8.2
2025-01-25 20:20:56.193627	246.3	15.9	-92.1	9.8
2025-01-25 20:20:57.358438	246.5	16.0	-91.8	11.3
2025-01-25 20:20:58.521185	246.7	16.0	-92.0	11.4
2025-01-25 20:20:59.689246	246.9	16.1	-91.8	7.6
2025-01-25 20:21:00.844542	247.1	16.2	-91.9	4.6
2025-01-25 20:21:02.007429	247.4	16.2	-92.0	5.8
2025-01-25 20:21:03.166655	247.6	16.3	-91.7	6.9
2025-01-25 20:21:04.333726	247.8	16.4	-91.6	5.1
2025-01-25 20:21:05.491238	248.0	16.4	-91.8	6.9
2025-01-25 20:21:06.657432	248.2	16.5	-91.8	9.5
2025-01-25 20:21:07.824648	248.5	16.6	-92.0	8.8
2025-01-25 20:21:08.987739	248.7	16.6	-92.1	10.0
2025-01-25 20:21:10.146763	248.9	16.7	-91.9	8.5
2025-01-25 20:21:11.321473	249.1	16.7	-91.6	5.5
2025-01-25 20:21:12.487043	249.4	16.8	-91.8	6.1
2025-01-25 20:21:13.647111	249.6	16.9	-92.2	7.7
2025-01-25 20:21:14.819944	249.8	16.9	-92.1	4.4
2025-01-25 20:21:15.976819	250.1	17.0	-92.1	2.6
2025-01-25 20:21:17.140866	250.3	17.1	-91.8	6.0
2025-01-25 20:21:18.277635	250.5	17.1	-91.5	2.1
2025-01-25 20:21:19.399178	250.8	17.2	-91.7	4.1
2025-01-25 20:21:20.520552	251.0	17.2	-91.9	4.3
2025-01-25 20:21:21.642963	251.2	17.3	-92.0	4.4
2025-01-25 20:21:22.764300	251.4	17.3	-91.9	4.4
2025-01-25 20:21:23.885264	251.7	17.4	-92.1	6.0
2025-01-25 20:21:25.006301	251.9	17.5	-91.9	6.8
2025-01-25 20:21:26.126884	252.1	17.5	-92.0	10.3
2025-01-25 20:21:27.254173	252.4	17.6	-92.0	5.0
2025-01-25 20:21:28.375665	252.6	17.6	-92.0	3.1
2025-01-25 20:21:29.535380	252.8	17.7	-91.8	7.4
2025-01-25 20:21:30.697652	253.1	17.7	-92.1	5.2
2025-01-25 20:21:31.859047	253.3	17.8	-92.2	5.7
2025-01-25 20:21:33.020499	253.6	17.9	-92.2	7.3
2025-01-25 20:21:34.171034	253.8	17.9	-91.7	7.6
2025-01-25 20:21:35.333966	254.0	18.0	-91.9	8.5
2025-01-25 20:21:36.498048	254.3	18.0	-92.0	10.7
2025-01-25 20:21:37.661564	254.5	18.1	-92.2	8.1
2025-01-25 20:21:38.817471	254.8	18.1	-92.2	6.1
2025-01-25 20:21:39.980086	255.0	18.2	-91.6	2.3
2025-01-25 20:21:41.145027	255.3	18.2	-91.3	3.7
2025-01-25 20:21:42.307147	255.5	18.3	-91.7	3.7
2025-01-25 20:21:43.473226	255.8	18.3	-91.8	2.2
2025-01-25 20:21:44.636875	256.0	18.4	-92.0	2.0
2025-01-25 20:21:45.797614	256.3	18.5	-92.3	3.0
2025-01-25 20:21:46.963189	256.6	18.5	-92.4	0.3
2025-01-25 20:21:48.129257	256.8	18.6	-92.2	3.4
2025-01-25 20:21:49.287728	257.1	18.6	-92.3	3.2
2025-01-25 20:21:50.454269	257.3	18.7	-92.4	1.7
2025-01-25 20:21:51.618201	257.6	18.7	-91.7	0.3
2025-01-25 20:21:52.785533	257.8	18.8	-92.4	3.3
2025-01-25 20:21:53.944463	258.1	18.8	-92.1	2.2
2025-01-25 20:21:55.108555	258.4	18.9	-91.7	2.5
2025-01-25 20:21:56.283469	258.6	18.9	-92.1	3.4
2025-01-25 20:21:57.442570	258.9	19.0	-92.0	1.2
2025-01-25 20:21:58.611424	259.1	19.0	-92.2	4.3
2025-01-25 20:21:59.771180	259.4	19.0	-92.2	3.4
2025-01-25 20:22:00.926598	259.7	19.1	-92.2	1.8
2025-01-25 20:22:02.093389	259.9	19.1	-91.8	4.4
2025-01-25 20:22:03.255687	260.2	19.2	-92.2	3.2
2025-01-25 20:22:04.419991	260.5	19.2	-92.3	3.3
2025-01-25 20:22:05.583452	260.7	19.3	-92.3	6.2
2025-01-25 20:22:06.748614	261.0	19.3	-92.3	3.1
2025-01-25 20:22:07.911746	261.3	19.4	-92.4	3.7
2025-01-25 20:22:09.068403	261.5	19.4	-92.3	0.6
2025-01-25 20:22:10.234954	261.8	19.4	-92.3	4.7
2025-01-25 20:22:11.399632	262.1	19.5	-91.7	4.8
2025-01-25 20:22:12.566386	262.4	19.5	-91.8	1.4
2025-01-25 20:22:13.726501	262.6	19.6	-91.8	4.2
2025-01-25 20:22:14.885193	262.9	19.6	-92.0	4.7
2025-01-25 20:22:16.014431	263.2	19.6	-92.0	4.4
2025-01-25 20:22:17.135151	263.4	19.7	-92.3	4.5
2025-01-25 20:22:18.256005	263.7	19.7	-91.7	2.3
2025-01-25 20:22:19.376834	264.0	19.7	-92.1	2.0
2025-01-25 20:22:20.498198	264.2	19.8	-92.1	4.0
2025-01-25 20:22:21.619372	264.5	19.8	-91.9	3.8
2025-01-25 20:22:22.740712	264.8	19.9	-92.3	3.7
2025-01-25 20:22:23.861975	265.0	19.9	-92.0	2.2
2025-01-25 20:22:24.987204	265.3	19.9	-92.2	3.0
2025-01-25 20:22:26.116025	265.6	20.0	-92.2	3.4
2025-01-25 20:22:27.276029	265.8	20.0	-92.2	4.2
2025-01-25 20:22:28.437175	266.1	20.0	-92.3	5.1
2025-01-25 20:22:29.596765	266.4	20.1	-92.2	7.5
2025-01-25 20:22:30.750454	266.7	20.1	-92.0	6.7
2025-01-25 20:22:31.913868	267.0	20.1	-92.1	6.6
2025-01-25 20:22:33.076037	267.2	20.1	-92.0	5.5
2025-01-25 20:22:34.234558	267.5	20.2	-92.2	7.2
2025-01-25 20:22:35.399533	267.8	20.2	-92.1	3.1
2025-01-25 20:22:36.554434	268.1	20.2	-92.2	2.4
2025-01-25 20:22:37.714306	268.4	20.3	-92.0	2.9
2025-01-25 20:22:38.869469	268.7	20.3	-92.2	3.0
2025-01-25 20:22:40.035942	268.9	20.3	-92.2	4.7
2025-01-25 20:22:41.197440	269.2	20.3	-92.1	3.8
2025-01-25 20:22:42.357729	269.5	20.4	-92.0	4.2
2025-01-25 20:22:43.520562	269.8	20.4	-92.0	3.0
2025-01-25 20:22:44.685647	270.1	20.4	-91.9	2.3
2025-01-25 20:22:45.846064	270.4	20.4	-91.8	2.5
2025-01-25 20:22:47.004620	270.7	20.4	-92.2	1.3
2025-01-25 20:22:48.167837	271.0	20.5	-92.2	4.5
2025-01-25 20:22:49.320870	271.2	20.5	-91.9	4.5
2025-01-25 20:22:50.483691	271.5	20.5	-91.8	3.1
2025-01-25 20:22:51.644969	271.8	20.5	-92.2	1.8
2025-01-25 20:22:52.811119	272.1	20.5	-92.4	3.5
2025-01-25 20:22:53.969616	272.4	20.6	-92.3	1.4
2025-01-25 20:22:55.129469	272.7	20.6	-92.2	3.6
2025-01-25 20:22:56.288583	273.0	20.6	-92.1	2.7
2025-01-25 20:22:57.457602	273.3	20.6	-92.3	2.4
2025-01-25 20:22:58.622362	273.6	20.6	-92.2	1.6
2025-01-25 20:22:59.787165	273.8	20.6	-91.9	1.8
2025-01-25 20:23:00.938450	274.1	20.7	-92.4	1.9
2025-01-25 20:23:02.102762	274.4	20.7	-92.2	0.1
2025-01-25 20:23:03.267937	274.7	20.7	-91.9	2.6
2025-01-25 20:23:04.432159	275.0	20.7	-92.0	3.0
2025-01-25 20:23:05.596411	275.3	20.7	-92.1	3.3
2025-01-25 20:23:06.760821	275.6	20.7	-92.2	1.2
2025-01-25 20:23:07.922676	275.9	20.7	-92.4	2.3
2025-01-25 20:23:09.083819	276.2	20.7	-92.3	1.7
2025-01-25 20:23:10.250927	276.5	20.7	-91.9	2.6
2025-01-25 20:23:11.413851	276.8	20.7	-91.9	2.0
2025-01-25 20:23:12.578416	277.1	20.7	-92.1	3.9
2025-01-25 20:23:13.745945	277.4	20.8	-92.4	4.9
2025-01-25 20:23:14.905648	277.7	20.8	-92.4	3.6
2025-01-25 20:23:16.070308	277.9	20.8	-92.2	4.0
2025-01-25 20:23:17.211483	278.2	20.8	-91.9	2.1
2025-01-25 20:23:18.374655	278.5	20.8	-91.9	4.4
2025-01-25 20:23:19.531096	278.8	20.8	-92.3	4.9
2025-01-25 20:23:20.691622	279.1	20.8	-92.0	7.1
2025-01-25 20:23:21.850656	279.4	20.8	-92.2	5.4
2025-01-25 20:23:23.018930	279.7	20.8	-92.2	7.5
2025-01-25 20:23:24.178431	280.0	20.8	-92.3	8.5
2025-01-25 20:23:25.343012	280.3	20.8	-92.4	4.9
2025-01-25 20:23:26.502376	280.6	20.8	-92.1	8.8
2025-01-25 20:23:27.667556	280.9	20.8	-92.1	8.8
2025-01-25 20:23:28.837280	281.2	20.8	-92.1	9.4
2025-01-25 20:23:29.995900	281.5	20.7	-92.3	7.9
2025-01-25 20:23:31.160902	281.7	20.7	-91.9	9.1
2025-01-25 20:23:32.325662	282.0	20.7	-91.9	9.3
2025-01-25 20:23:33.491242	282.3	20.7	-91.9	9.2
2025-01-25 20:23:34.656732	282.6	20.7	-92.2	10.5
2025-01-25 20:23:35.820876	282.9	20.7	-92.4	11.3
2025-01-25 20:23:36.991846	283.2	20.7	-92.4	8.4
2025-01-25 20:23:38.152831	283.5	20.7	-91.9	7.7
2025-01-25 20:23:39.313933	283.8	20.7	-92.1	7.3
2025-01-25 20:23:40.476925	284.1	20.7	-92.2	6.5
2025-01-25 20:23:41.640855	284.4	20.7	-92.1	8.7
2025-01-25 20:23:42.806944	284.7	20.6	-92.6	7.7
2025-01-25 20:23:43.971097	285.0	20.6	-92.2	6.3
2025-01-25 20:23:45.135866	285.3	20.6	-92.4	8.2
2025-01-25 20:23:46.295327	285.5	20.6	-92.1	5.4
2025-01-25 20:23:47.460337	285.8	20.6	-92.4	8.4
2025-01-25 20:23:48.619726	286.1	20.6	-92.2	4.2
2025-01-25 20:23:49.781217	286.4	20.5	-92.3	4.3
2025-01-25 20:23:50.945424	286.7	20.5	-92.2	5.0
2025-01-25 20:23:52.109857	287.0	20.5	-92.2	4.1
2025-01-25 20:23:53.271613	287.3	20.5	-91.9	3.3
2025-01-25 20:23:54.433960	287.6	20.5	-91.9	3.8
2025-01-25 20:23:55.592490	287.9	20.4	-92.0	5.9
2025-01-25 20:23:56.754095	288.1	20.4	-92.1	5.1
2025-01-25 20:23:57.919078	288.4	20.4	-92.4	4.4
2025-01-25 20:23:59.091040	288.7	20.4	-92.2	8.2
2025-01-25 20:24:00.240837	289.0	20.4	-92.3	6.1
2025-01-25 20:24:01.407174	289.3	20.3	-92.3	5.2
2025-01-25 20:24:02.573397	289.6	20.3	-92.4	2.5
2025-01-25 20:24:03.723269	289.8	20.3	-92.2	3.3
2025-01-25 20:24:04.846243	290.1	20.3	-92.5	3.8
2025-01-25 20:24:05.966967	290.4	20.2	-92.3	4.5
2025-01-25 20:24:07.088726	290.7	20.2	-92.0	8.1
2025-01-25 20:24:08.211924	290.9	20.2	-92.3	4.6
2025-01-25 20:24:09.434113	291.2	20.1	-92.4	5.2
2025-01-25 20:24:10.554345	291.5	20.1	-92.2	4.9
2025-01-25 20:24:11.674094	291.8	20.1	-92.3	6.1
2025-01-25 20:24:12.794865	292.0	20.1	-92.4	4.9
2025-01-25 20:24:13.920698	292.3	20.0	-92.4	3.5
2025-01-25 20:24:15.070553	292.6	20.0	-92.2	6.7
2025-01-25 20:24:16.237088	292.9	20.0	-92.2	3.5
2025-01-25 20:24:17.393948	293.2	19.9	-92.3	6.3
2025-01-25 20:24:18.556951	293.4	19.9	-92.4	5.3
2025-01-25 20:24:19.704809	293.7	19.9	-92.1	4.5
2025-01-25 20:24:20.869439	294.0	19.8	-92.3	0.6
2025-01-25 20:24:22.029480	294.3	19.8	-92.5	1.8
2025-01-25 20:24:23.197110	294.5	19.7	-92.4	2.6
2025-01-25 20:24:24.359163	294.8	19.7	-92.2	3.6
2025-01-25 20:24:25.531171	295.1	19.7	-92.3	4.6
2025-01-25 20:24:26.691048	295.4	19.6	-92.3	3.2
2025-01-25 20:24:27.850942	295.6	19.6	-92.3	4.2
2025-01-25 20:24:29.013455	295.9	19.6	-92.2	6.0
2025-01-25 20:24:30.170443	296.2	19.5	-92.3	6.1
2025-01-25 20:24:31.338394	296.4	19.5	-92.2	3.3
2025-01-25 20:24:32.502705	296.7	19.4	-92.5	4.9
2025-01-25 20:24:33.665556	297.0	19.4	-92.4	1.1
2025-01-25 20:24:34.829801	297.2	19.3	-92.5	2.4
2025-01-25 20:24:35.989851	297.5	19.3	-92.3	2.5
2025-01-25 20:24:37.155032	297.8	19.3	-92.3	5.1
2025-01-25 20:24:38.318711	298.0	19.2	-92.1	2.6
2025-01-25 20:24:39.474365	298.3	19.2	-92.6	2.0
2025-01-25 20:24:40.633152	298.6	19.1	-92.5	3.2
2025-01-25 20:24:41.802074	298.8	19.1	-92.2	3.2
2025-01-25 20:24:42.959018	299.1	19.0	-92.2	3.2
2025-01-25 20:24:44.123488	299.4	19.0	-92.2	3.6
2025-01-25 20:24:45.280871	299.6	18.9	-92.0	1.5
2025-01-25 20:24:46.448923	299.9	18.9	-92.3	4.3
2025-01-25 20:24:47.613718	300.1	18.8	-92.5	1.6
2025-01-25 20:24:48.780264	300.4	18.8	-92.3	1.4
2025-01-25 20:24:49.933389	300.7	18.8	-92.2	2.7
2025-01-25 20:24:51.099819	300.9	18.7	-92.1	1.9
2025-01-25 20:24:52.262081	301.2	18.7	-92.2	2.4
2025-01-25 20:24:53.429921	301.4	18.6	-92.0	1.7
2025-01-25 20:24:54.594477	301.7	18.5	-92.1	3.6
2025-01-25 20:24:55.753960	301.9	18.5	-92.0	1.3
2025-01-25 20:24:56.915535	302.2	18.4	-92.1	2.3
2025-01-25 20:24:58.079727	302.4	18.4	-92.3	4.2
2025-01-25 20:24:59.247859	302.7	18.3	-92.3	2.4
2025-01-25 20:25:00.400875	302.9	18.3	-92.2	4.6
2025-01-25 20:25:01.559871	303.2	18.2	-92.2	1.6
2025-01-25 20:25:02.721319	303.4	18.2	-92.2	2.4
2025-01-25 20:25:03.886736	303.7	18.1	-92.4	4.0
2025-01-25 20:25:05.044791	303.9	18.1	-92.4	2.2
2025-01-25 20:25:06.202857	304.2	18.0	-92.2	2.2
2025-01-25 20:25:07.365718	304.4	18.0	-92.2	2.2
2025-01-25 20:25:08.533291	304.7	17.9	-92.3	6.4
2025-01-25 20:25:09.690012	304.9	17.9	-92.2	2.6
2025-01-25 20:25:10.858160	305.1	17.8	-92.0	1.0
2025-01-25 20:25:12.021705	305.4	17.7	-91.9	3.9
2025-01-25 20:25:13.178487	305.6	17.7	-91.9	3.8
2025-01-25 20:25:14.301955	305.9	17.6	-91.9	2.8
2025-01-25 20:25:15.422839	306.1	17.6	-92.1	3.3
2025-01-25 20:25:16.543344	306.3	17.5	-92.2	3.9
2025-01-25 20:25:17.664026	306.5	17.5	-92.0	3.7
2025-01-25 20:25:18.784240	306.8	17.4	-92.2	4.4
2025-01-25 20:25:19.904841	307.0	17.3	-92.0	3.6
2025-01-25 20:25:21.024958	307.2	17.3	-92.3	5.3
2025-01-25 20:25:22.145413	307.5	17.2	-91.7	4.4
2025-01-25 20:25:23.277794	307.7	17.2	-92.3	8.1
2025-01-25 20:25:24.424052	307.9	17.1	-92.2	2.9
2025-01-25 20:25:25.587359	308.1	17.1	-92.0	8.2
2025-01-25 20:25:26.738848	308.4	17.0	-92.4	4.1
2025-01-25 20:25:27.907336	308.6	16.9	-92.1	3.6
2025-01-25 20:25:29.065183	308.8	16.9	-92.2	0.3
2025-01-25 20:25:30.221929	309.1	16.8	-91.9	1.5
2025-01-25 20:25:31.379357	309.3	16.7	-92.0	4.9
2025-01-25 20:25:32.552370	309.5	16.7	-92.5	4.9
2025-01-25 20:25:33.713543	309.7	16.6	-92.4	4.9
2025-01-25 20:25:34.884387	310.0	16.6	-92.5	5.4
2025-01-25 20:25:36.045812	310.2	16.5	-92.2	8.3
2025-01-25 20:25:37.212832	310.4	16.4	-92.1	3.3
2025-01-25 20:25:38.371770	310.6	16.4	-92.2	4.0
2025-01-25 20:25:39.530819	310.8	16.3	-92.1	2.2
2025-01-25 20:25:40.691695	311.1	16.2	-92.1	6.5
2025-01-25 20:25:41.855549	311.3	16.2	-92.1	2.5
2025-01-25 20:25:43.020335	311.5	16.1	-92.2	4.4
2025-01-25 20:25:44.180824	311.7	16.1	-92.4	3.6
2025-01-25 20:25:45.344742	311.9	16.0	-92.4	3.5
2025-01-25 20:25:46.509230	312.1	15.9	-92.7	3.0
2025-01-25 20:25:47.668838	312.4	15.9	-92.4	4.2
2025-01-25 20:25:48.837004	312.6	15.8	-92.4	2.7
2025-01-25 20:25:49.993288	312.8	15.7	-92.4	4.7
2025-01-25 20:25:51.154282	313.0	15.7	-92.3	1.4
2025-01-25 20:25:52.308468	313.2	15.6	-92.2	1.7
2025-01-25 20:25:53.433680	313.4	15.5	-92.3	1.0
2025-01-25 20:25:54.587908	313.6	15.5	-92.5	4.0
2025-01-25 20:25:55.734647	313.8	15.4	-92.4	5.9
2025-01-25 20:25:56.889292	314.0	15.3	-92.3	4.6
2025-01-25 20:25:58.044711	314.2	15.3	-91.9	3.8
2025-01-25 20:25:59.200041	314.4	15.2	-92.1	4.6
2025-01-25 20:26:00.346682	314.6	15.1	-92.2	1.9
2025-01-25 20:26:01.494707	314.8	15.1	-92.2	7.4
2025-01-25 20:26:02.653873	315.0	15.0	-92.4	4.6
2025-01-25 20:26:03.825485	315.2	14.9	-92.6	3.8
2025-01-25 20:26:04.982098	315.4	14.9	-92.4	10.6
2025-01-25 20:26:06.145016	315.6	14.8	-92.5	3.6
2025-01-25 20:26:07.305847	315.8	14.7	-92.4	9.3
2025-01-25 20:26:08.458021	316.0	14.7	-92.3	7.3
#Closed at: 2025-01-25 20:20:45.485559