passes_logs/2025/01/25/LEX_Murmansk/LEX_Murmansk__20250125_151700_NOAA_19_rec.log

#Pass ID: 20250125_151700_NOAA 19
#Satellite: NOAA 19
#Configuration: NOAA 19
#Start time: 2025-01-25 15:16:55.330201

#LorettStation: 1.0.0 05.05.2024
#Station: LEX_Murmansk
#Location: 33.156738 lon 68.926811 lat
#TLE: 1 33591U 09005A   25024.84494910  .00000392  00000+0  23341-3 0  9996
#TLE: 2 33591  99.0180  88.6826 0014105  30.8618 329.3380 14.13268098822670

#Time	Az	El	Level	SNR
2025-01-25 15:17:07.592990	81.6	16.1	-92.0	11.9
2025-01-25 15:17:08.739804	81.4	16.2	-91.8	12.6
2025-01-25 15:17:09.891373	81.3	16.3	-91.6	10.9
2025-01-25 15:17:11.034930	81.2	16.4	-91.6	7.7
2025-01-25 15:17:12.181793	81.0	16.5	-91.9	6.5
2025-01-25 15:17:13.330190	80.9	16.6	-91.5	6.0
2025-01-25 15:17:14.476746	80.7	16.7	-91.8	10.9
2025-01-25 15:17:15.630548	80.5	16.8	-91.9	12.8
2025-01-25 15:17:16.752304	80.4	16.9	-91.9	11.6
2025-01-25 15:17:17.872860	80.2	17.0	-92.1	9.2
2025-01-25 15:17:19.001218	80.1	17.1	-91.9	5.2
2025-01-25 15:17:20.122717	79.9	17.2	-91.6	4.4
2025-01-25 15:17:21.243329	79.8	17.3	-91.7	1.1
2025-01-25 15:17:22.364737	79.6	17.4	-91.9	2.1
2025-01-25 15:17:23.485763	79.5	17.5	-91.5	3.7
2025-01-25 15:17:24.606686	79.3	17.6	-91.6	8.8
2025-01-25 15:17:25.728115	79.1	17.7	-91.8	13.8
2025-01-25 15:17:26.866545	79.0	17.8	-92.2	14.2
2025-01-25 15:17:28.014840	78.8	17.9	-91.7	12.4
2025-01-25 15:17:29.156979	78.7	18.1	-91.8	10.1
2025-01-25 15:17:30.307832	78.5	18.2	-92.3	7.2
2025-01-25 15:17:31.451843	78.3	18.3	-91.7	9.4
2025-01-25 15:17:32.599832	78.1	18.4	-92.0	9.8
2025-01-25 15:17:33.745786	78.0	18.5	-92.1	11.5
2025-01-25 15:17:34.902524	77.8	18.6	-92.3	14.1
2025-01-25 15:17:36.051214	77.6	18.7	-91.9	10.5
2025-01-25 15:17:37.199643	77.4	18.8	-91.8	4.8
2025-01-25 15:17:38.353318	77.3	18.9	-91.9	3.8
2025-01-25 15:17:39.501615	77.1	19.0	-92.0	4.1
2025-01-25 15:17:40.650470	76.9	19.1	-92.0	1.4
2025-01-25 15:17:41.797075	76.7	19.2	-92.0	2.5
2025-01-25 15:17:42.945271	76.6	19.4	-91.8	3.5
2025-01-25 15:17:44.089035	76.4	19.5	-91.7	6.0
2025-01-25 15:17:45.247736	76.2	19.6	-91.6	9.9
2025-01-25 15:17:46.392224	76.0	19.7	-91.8	9.8
2025-01-25 15:17:47.547196	75.8	19.8	-92.2	11.8
2025-01-25 15:17:48.689939	75.6	19.9	-91.6	7.0
2025-01-25 15:17:49.834871	75.4	20.0	-91.9	6.4
2025-01-25 15:17:50.980809	75.2	20.1	-92.1	6.1
2025-01-25 15:17:52.131830	75.0	20.2	-91.8	9.9
2025-01-25 15:17:53.283463	74.9	20.3	-92.1	9.8
2025-01-25 15:17:54.430994	74.7	20.5	-92.0	11.5
2025-01-25 15:17:55.578513	74.5	20.6	-92.1	10.7
2025-01-25 15:17:56.727008	74.3	20.7	-92.3	8.1
2025-01-25 15:17:57.876970	74.1	20.8	-91.9	7.8
2025-01-25 15:17:59.021781	73.9	20.9	-91.8	3.3
2025-01-25 15:18:00.168493	73.7	21.0	-91.9	3.2
2025-01-25 15:18:01.332375	73.5	21.1	-91.9	1.6
2025-01-25 15:18:02.476369	73.2	21.2	-91.9	4.9
2025-01-25 15:18:03.624098	73.0	21.3	-91.9	8.1
2025-01-25 15:18:04.767360	72.8	21.5	-91.9	9.8
2025-01-25 15:18:05.920492	72.6	21.6	-91.8	12.2
2025-01-25 15:18:07.068006	72.4	21.7	-91.6	12.3
2025-01-25 15:18:08.219399	72.2	21.8	-92.0	9.8
2025-01-25 15:18:09.365804	72.0	21.9	-91.8	6.2
2025-01-25 15:18:10.516297	71.8	22.0	-91.9	8.1
2025-01-25 15:18:11.664498	71.5	22.1	-92.0	6.7
2025-01-25 15:18:12.819568	71.3	22.2	-91.8	6.7
2025-01-25 15:18:13.965711	71.1	22.3	-92.0	10.8
2025-01-25 15:18:15.140153	70.9	22.5	-92.0	14.3
2025-01-25 15:18:16.291586	70.6	22.6	-91.8	12.8
2025-01-25 15:18:17.441033	70.4	22.7	-92.1	10.2
2025-01-25 15:18:18.593606	70.2	22.8	-91.8	6.1
2025-01-25 15:18:19.745900	70.0	22.9	-91.6	4.3
2025-01-25 15:18:20.895410	69.7	23.0	-91.2	3.8
2025-01-25 15:18:22.048137	69.5	23.1	-91.6	3.2
2025-01-25 15:18:23.203510	69.3	23.2	-92.1	3.6
2025-01-25 15:18:24.353668	69.0	23.4	-91.6	3.3
2025-01-25 15:18:25.496316	68.8	23.5	-91.7	7.7
2025-01-25 15:18:26.648459	68.5	23.6	-91.9	10.3
2025-01-25 15:18:27.802172	68.3	23.7	-92.2	11.5
2025-01-25 15:18:28.947611	68.1	23.8	-92.1	10.2
2025-01-25 15:18:30.092196	67.8	23.9	-92.2	9.2
2025-01-25 15:18:31.245302	67.6	24.0	-91.8	5.4
2025-01-25 15:18:32.394177	67.3	24.1	-91.9	7.0
2025-01-25 15:18:33.539741	67.1	24.2	-92.1	7.3
2025-01-25 15:18:34.695453	66.8	24.4	-92.0	6.9
2025-01-25 15:18:35.852692	66.6	24.5	-92.0	7.6
2025-01-25 15:18:36.998111	66.3	24.6	-92.1	10.8
2025-01-25 15:18:38.147655	66.1	24.7	-91.8	10.5
2025-01-25 15:18:39.292951	65.8	24.8	-91.9	7.3
2025-01-25 15:18:40.437294	65.5	24.9	-91.6	6.9
2025-01-25 15:18:41.584756	65.3	25.0	-91.9	6.2
2025-01-25 15:18:42.735237	65.0	25.1	-91.8	4.4
2025-01-25 15:18:43.887504	64.7	25.2	-92.1	2.9
2025-01-25 15:18:45.035133	64.5	25.4	-92.0	3.4
2025-01-25 15:18:46.185713	64.2	25.5	-91.7	3.1
2025-01-25 15:18:47.333018	63.9	25.6	-91.9	2.5
2025-01-25 15:18:48.479367	63.7	25.7	-92.2	6.4
2025-01-25 15:18:49.628036	63.4	25.8	-91.8	5.5
2025-01-25 15:18:50.773411	63.1	25.9	-91.7	5.6
2025-01-25 15:18:51.924138	62.8	26.0	-91.8	5.4
2025-01-25 15:18:53.071763	62.5	26.1	-92.0	6.1
2025-01-25 15:18:54.221025	62.3	26.2	-91.6	3.6
2025-01-25 15:18:55.368115	62.0	26.3	-92.0	4.0
2025-01-25 15:18:56.517435	61.7	26.4	-92.4	2.8
2025-01-25 15:18:57.665571	61.4	26.5	-91.9	2.4
2025-01-25 15:18:58.812275	61.1	26.6	-92.1	1.8
2025-01-25 15:18:59.957821	60.8	26.7	-92.1	2.7
2025-01-25 15:19:01.089353	60.5	26.8	-91.9	3.5
2025-01-25 15:19:02.210066	60.2	26.9	-92.2	3.6
2025-01-25 15:19:03.331069	59.9	27.0	-92.1	4.1
2025-01-25 15:19:04.450419	59.7	27.1	-91.7	5.6
2025-01-25 15:19:05.570095	59.4	27.2	-92.1	6.4
2025-01-25 15:19:06.694834	59.1	27.3	-91.9	3.0
2025-01-25 15:19:07.815204	58.8	27.4	-92.3	2.7
2025-01-25 15:19:08.936532	58.5	27.5	-92.0	1.9
2025-01-25 15:19:10.062609	58.2	27.6	-92.2	3.3
2025-01-25 15:19:11.185374	57.9	27.7	-91.9	2.7
2025-01-25 15:19:12.318384	57.5	27.8	-91.8	1.1
2025-01-25 15:19:13.454615	57.2	27.9	-91.9	3.1
2025-01-25 15:19:14.594351	56.9	28.0	-91.9	4.7
2025-01-25 15:19:15.739136	56.6	28.1	-91.9	4.6
2025-01-25 15:19:16.876262	56.3	28.2	-91.8	5.4
2025-01-25 15:19:18.023414	56.0	28.3	-91.8	6.6
2025-01-25 15:19:19.174514	55.6	28.4	-91.9	3.1
2025-01-25 15:19:20.324613	55.3	28.5	-91.5	3.2
2025-01-25 15:19:21.472423	55.0	28.6	-91.1	4.3
2025-01-25 15:19:22.623149	54.6	28.7	-91.5	4.5
2025-01-25 15:19:23.778517	54.3	28.8	-91.6	1.9
2025-01-25 15:19:24.921926	54.0	28.9	-92.2	4.9
2025-01-25 15:19:26.079375	53.6	29.0	-92.0	5.4
2025-01-25 15:19:27.232660	53.3	29.1	-91.9	4.0
2025-01-25 15:19:28.378590	53.0	29.1	-92.0	7.0
2025-01-25 15:19:29.524347	52.6	29.2	-92.1	4.6
2025-01-25 15:19:30.683383	52.3	29.3	-91.4	9.5
2025-01-25 15:19:31.825232	51.9	29.4	-91.8	7.7
2025-01-25 15:19:32.972216	51.6	29.5	-91.6	5.8
2025-01-25 15:19:34.117949	51.2	29.6	-91.6	5.0
2025-01-25 15:19:35.263969	50.9	29.7	-91.7	4.7
2025-01-25 15:19:36.408711	50.5	29.7	-91.3	2.7
2025-01-25 15:19:37.557209	50.2	29.8	-91.1	4.7
2025-01-25 15:19:38.709961	49.8	29.9	-91.0	2.5
2025-01-25 15:19:39.855547	49.4	30.0	-90.9	1.7
2025-01-25 15:19:41.008397	49.1	30.1	-91.1	2.9
2025-01-25 15:19:42.158530	48.7	30.1	-90.9	2.1
2025-01-25 15:19:43.302382	48.4	30.2	-90.9	4.4
2025-01-25 15:19:44.453373	48.0	30.3	-90.5	3.6
2025-01-25 15:19:45.594847	47.6	30.4	-91.7	7.7
2025-01-25 15:19:46.757880	47.3	30.4	-91.6	8.7
2025-01-25 15:19:47.900127	46.9	30.5	-91.0	8.5
2025-01-25 15:19:49.057351	46.5	30.6	-91.2	9.7
2025-01-25 15:19:50.213171	46.1	30.7	-90.8	8.3
2025-01-25 15:19:51.362548	45.8	30.7	-91.0	8.9
2025-01-25 15:19:52.514520	45.4	30.8	-91.8	8.2
2025-01-25 15:19:53.663161	45.0	30.9	-91.9	5.7
2025-01-25 15:19:54.815174	44.6	30.9	-91.6	6.7
2025-01-25 15:19:55.959509	44.2	31.0	-91.7	7.1
2025-01-25 15:19:57.113629	43.9	31.0	-91.8	8.3
2025-01-25 15:19:58.268422	43.5	31.1	-91.9	4.0
2025-01-25 15:19:59.424354	43.1	31.2	-91.8	6.2
2025-01-25 15:20:00.564439	42.7	31.2	-91.8	7.3
2025-01-25 15:20:01.714596	42.3	31.3	-92.1	8.1
2025-01-25 15:20:02.862883	41.9	31.3	-92.1	7.5
2025-01-25 15:20:04.011073	41.5	31.4	-92.0	11.4
2025-01-25 15:20:05.164103	41.1	31.4	-91.7	12.9
2025-01-25 15:20:06.318568	40.7	31.5	-91.7	14.4
2025-01-25 15:20:07.475042	40.3	31.5	-91.3	15.3
2025-01-25 15:20:08.627057	39.9	31.6	-91.4	13.6
2025-01-25 15:20:09.773614	39.5	31.6	-91.6	13.9
2025-01-25 15:20:10.927489	39.1	31.7	-91.9	10.0
2025-01-25 15:20:12.086819	38.7	31.7	-91.6	8.3
2025-01-25 15:20:13.232875	38.3	31.8	-91.9	5.7
2025-01-25 15:20:14.383881	37.9	31.8	-91.6	7.7
2025-01-25 15:20:15.531281	37.5	31.8	-91.6	5.6
2025-01-25 15:20:16.680988	37.1	31.9	-91.5	5.6
2025-01-25 15:20:17.829671	36.7	31.9	-91.8	4.4
2025-01-25 15:20:18.977667	36.3	31.9	-91.9	6.3
2025-01-25 15:20:20.133161	35.9	32.0	-91.7	5.7
2025-01-25 15:20:21.280090	35.5	32.0	-91.8	2.4
2025-01-25 15:20:22.434468	35.1	32.0	-91.7	4.2
2025-01-25 15:20:23.596161	34.7	32.1	-91.8	3.8
2025-01-25 15:20:24.742779	34.3	32.1	-91.9	3.3
2025-01-25 15:20:25.891102	33.9	32.1	-92.1	7.1
2025-01-25 15:20:27.034817	33.5	32.1	-91.8	7.7
2025-01-25 15:20:28.177425	33.1	32.1	-92.0	7.7
2025-01-25 15:20:29.324442	32.6	32.2	-91.8	8.9
2025-01-25 15:20:30.474918	32.2	32.2	-91.8	10.3
2025-01-25 15:20:31.620268	31.8	32.2	-92.1	12.2
2025-01-25 15:20:32.764656	31.4	32.2	-91.7	14.1
2025-01-25 15:20:33.912536	31.0	32.2	-91.8	11.2
2025-01-25 15:20:35.064769	30.6	32.2	-91.8	12.4
2025-01-25 15:20:36.211176	30.2	32.2	-92.0	13.4
2025-01-25 15:20:37.359016	29.8	32.2	-92.0	11.7
2025-01-25 15:20:38.505751	29.3	32.3	-92.1	11.8
2025-01-25 15:20:39.647647	28.9	32.3	-92.0	9.8
2025-01-25 15:20:40.790494	28.5	32.3	-92.2	8.0
2025-01-25 15:20:41.929274	28.1	32.3	-92.3	7.4
2025-01-25 15:20:43.050116	27.7	32.3	-92.3	9.6
2025-01-25 15:20:44.172473	27.3	32.3	-92.3	6.5
2025-01-25 15:20:45.293071	26.9	32.2	-92.4	6.2
2025-01-25 15:20:46.414647	26.5	32.2	-92.1	6.2
2025-01-25 15:20:47.535966	26.1	32.2	-92.3	7.4
2025-01-25 15:20:48.656414	25.7	32.2	-92.3	4.4
2025-01-25 15:20:49.777290	25.3	32.2	-92.3	4.5
2025-01-25 15:20:50.900684	24.9	32.2	-92.2	4.3
2025-01-25 15:20:52.022209	24.5	32.2	-92.1	6.7
2025-01-25 15:20:53.161450	24.1	32.2	-92.0	4.2
2025-01-25 15:20:54.304116	23.7	32.2	-92.2	2.8
2025-01-25 15:20:55.450524	23.3	32.1	-92.4	3.7
2025-01-25 15:20:56.596763	22.8	32.1	-92.1	7.3
2025-01-25 15:20:57.742903	22.4	32.1	-92.2	4.1
2025-01-25 15:20:58.884802	22.0	32.1	-92.3	5.4
2025-01-25 15:21:00.028653	21.6	32.0	-92.2	4.9
2025-01-25 15:21:01.169460	21.2	32.0	-92.2	3.4
2025-01-25 15:21:02.319083	20.8	32.0	-92.0	4.0
2025-01-25 15:21:03.462415	20.4	32.0	-91.8	5.7
2025-01-25 15:21:04.612729	20.0	31.9	-92.2	8.2
2025-01-25 15:21:05.763603	19.6	31.9	-91.7	6.4
2025-01-25 15:21:06.913980	19.2	31.8	-91.8	5.7
2025-01-25 15:21:08.062710	18.8	31.8	-91.8	7.9
2025-01-25 15:21:09.209309	18.4	31.8	-92.3	8.2
2025-01-25 15:21:10.354838	18.0	31.7	-92.1	6.5
2025-01-25 15:21:11.502812	17.6	31.7	-92.0	7.7
2025-01-25 15:21:12.643746	17.2	31.6	-91.6	8.4
2025-01-25 15:21:13.792206	16.8	31.6	-92.1	7.3
2025-01-25 15:21:14.942651	16.4	31.6	-92.3	9.7
2025-01-25 15:21:16.092254	16.0	31.5	-92.1	10.0
2025-01-25 15:21:17.238655	15.6	31.5	-92.2	7.8
2025-01-25 15:21:18.386321	15.2	31.4	-91.9	8.3
2025-01-25 15:21:19.530504	14.8	31.4	-92.2	9.1
2025-01-25 15:21:20.682048	14.4	31.3	-92.0	6.4
2025-01-25 15:21:21.829975	14.1	31.2	-91.9	6.2
2025-01-25 15:21:22.975741	13.7	31.2	-92.1	9.0
2025-01-25 15:21:24.125281	13.3	31.1	-91.9	8.8
2025-01-25 15:21:25.270732	12.9	31.1	-91.8	6.6
2025-01-25 15:21:26.421885	12.5	31.0	-91.9	8.5
2025-01-25 15:21:27.565765	12.1	31.0	-92.1	9.2
2025-01-25 15:21:28.716299	11.8	30.9	-91.8	9.6
2025-01-25 15:21:29.866707	11.4	30.8	-91.7	10.4
2025-01-25 15:21:31.014061	11.0	30.8	-91.9	9.5
2025-01-25 15:21:32.163492	10.6	30.7	-92.0	6.6
2025-01-25 15:21:33.314492	10.2	30.6	-91.8	6.5
2025-01-25 15:21:34.472943	9.9	30.6	-91.9	6.5
2025-01-25 15:21:35.614528	9.5	30.5	-91.5	6.9
2025-01-25 15:21:36.762450	9.1	30.4	-91.7	5.9
2025-01-25 15:21:37.905358	8.8	30.3	-91.6	6.3
2025-01-25 15:21:39.032362	8.4	30.3	-91.7	4.2
2025-01-25 15:21:40.152833	8.1	30.2	-91.7	3.7
2025-01-25 15:21:41.272842	7.7	30.1	-91.9	5.1
2025-01-25 15:21:42.393120	7.3	30.0	-91.4	5.2
2025-01-25 15:21:43.514241	7.0	30.0	-92.3	3.4
2025-01-25 15:21:44.636095	6.7	29.9	-91.7	3.9
2025-01-25 15:21:45.756517	6.3	29.8	-92.0	2.8
2025-01-25 15:21:46.877963	6.0	29.7	-92.0	4.6
2025-01-25 15:21:48.001402	5.6	29.7	-91.6	5.2
2025-01-25 15:21:49.137342	5.3	29.6	-91.4	2.9
2025-01-25 15:21:50.285681	4.9	29.5	-91.8	3.9
2025-01-25 15:21:51.429365	4.6	29.4	-91.5	4.8
2025-01-25 15:21:52.584364	4.2	29.3	-91.9	4.9
2025-01-25 15:21:53.726428	3.9	29.2	-92.0	1.7
2025-01-25 15:21:54.879543	3.5	29.1	-91.6	2.4
2025-01-25 15:21:56.022392	3.2	29.1	-92.0	3.9
2025-01-25 15:21:57.174435	2.9	29.0	-91.6	3.3
2025-01-25 15:21:58.321735	2.5	28.9	-91.5	1.5
2025-01-25 15:21:59.468704	2.2	28.8	-91.6	2.2
2025-01-25 15:22:00.615029	1.9	28.7	-92.2	5.4
2025-01-25 15:22:01.763657	1.5	28.6	-91.9	1.5
2025-01-25 15:22:02.913054	1.2	28.5	-91.9	3.1
2025-01-25 15:22:04.062677	0.9	28.4	-91.7	4.2
2025-01-25 15:22:05.211150	0.6	28.3	-92.0	2.7
2025-01-25 15:22:06.366069	0.2	28.2	-92.1	4.0
2025-01-25 15:22:07.511375	359.9	28.1	-91.6	3.1
2025-01-25 15:22:08.658878	359.6	28.0	-91.7	6.0
2025-01-25 15:22:09.815733	359.3	27.9	-91.9	3.6
2025-01-25 15:22:10.966766	359.0	27.8	-92.1	3.7
2025-01-25 15:22:12.125366	358.7	27.7	-91.9	3.5
2025-01-25 15:22:13.277383	358.3	27.6	-91.9	4.5
2025-01-25 15:22:14.421680	358.0	27.5	-91.8	6.0
2025-01-25 15:22:15.567388	357.7	27.4	-92.2	7.3
2025-01-25 15:22:16.707087	357.4	27.3	-92.1	5.2
2025-01-25 15:22:17.856676	357.1	27.2	-92.1	8.1
2025-01-25 15:22:19.008227	356.8	27.1	-92.2	9.3
2025-01-25 15:22:20.157192	356.5	27.0	-92.2	10.5
2025-01-25 15:22:21.304994	356.2	26.9	-91.8	8.1
2025-01-25 15:22:22.454574	355.9	26.8	-92.1	10.4
2025-01-25 15:22:23.594618	355.6	26.7	-92.1	12.0
2025-01-25 15:22:24.746939	355.4	26.6	-92.0	10.0
2025-01-25 15:22:25.896869	355.1	26.5	-92.2	13.2
2025-01-25 15:22:27.043853	354.8	26.4	-92.2	11.9
2025-01-25 15:22:28.193451	354.5	26.3	-92.0	11.4
2025-01-25 15:22:29.340070	354.2	26.2	-91.8	10.3
2025-01-25 15:22:30.487648	353.9	26.1	-92.0	10.8
2025-01-25 15:22:31.632308	353.6	26.0	-91.9	11.0
2025-01-25 15:22:32.781420	353.4	25.9	-92.0	8.9
2025-01-25 15:22:33.932573	353.1	25.8	-91.8	10.7
2025-01-25 15:22:35.081304	352.8	25.7	-92.0	8.9
2025-01-25 15:22:36.231147	352.5	25.5	-92.2	6.9
2025-01-25 15:22:37.374185	352.3	25.4	-91.8	6.2
2025-01-25 15:22:38.519645	352.0	25.3	-92.0	4.7
2025-01-25 15:22:39.662638	351.7	25.2	-91.9	6.2
2025-01-25 15:22:40.795094	351.5	25.1	-92.2	5.5
2025-01-25 15:22:41.916004	351.2	25.0	-92.1	6.5
2025-01-25 15:22:43.036259	351.0	24.9	-92.2	5.4
2025-01-25 15:22:44.156455	350.7	24.8	-92.1	5.1
2025-01-25 15:22:45.278442	350.5	24.7	-91.9	4.5
2025-01-25 15:22:46.399920	350.2	24.6	-91.8	6.0
2025-01-25 15:22:47.521982	350.0	24.5	-92.0	8.7
2025-01-25 15:22:48.642175	349.7	24.4	-91.9	7.0
2025-01-25 15:22:49.766322	349.5	24.3	-92.0	6.6
2025-01-25 15:22:50.897419	349.2	24.2	-91.9	10.4
2025-01-25 15:22:52.043900	349.0	24.0	-92.2	10.2
2025-01-25 15:22:53.190215	348.7	23.9	-91.8	9.7
2025-01-25 15:22:54.337491	348.5	23.8	-91.9	13.8
2025-01-25 15:22:55.473205	348.3	23.7	-92.0	11.2
2025-01-25 15:22:56.600607	348.0	23.6	-92.2	13.1
2025-01-25 15:22:57.752594	347.8	23.5	-92.1	14.4
2025-01-25 15:22:58.886415	347.6	23.4	-92.0	12.0
2025-01-25 15:23:00.029794	347.3	23.3	-92.1	11.7
2025-01-25 15:23:01.165688	347.1	23.2	-91.7	3.8
2025-01-25 15:23:02.309238	346.9	23.1	-92.1	8.1
2025-01-25 15:23:03.456646	346.6	22.9	-91.8	7.4
2025-01-25 15:23:04.608644	346.4	22.8	-91.8	5.0
2025-01-25 15:23:05.751498	346.2	22.7	-92.1	4.4
2025-01-25 15:23:06.900766	346.0	22.6	-91.9	3.6
2025-01-25 15:23:08.051280	345.7	22.5	-92.0	4.4
2025-01-25 15:23:09.204899	345.5	22.4	-91.8	1.9
2025-01-25 15:23:10.343518	345.3	22.3	-91.6	2.9
2025-01-25 15:23:11.490364	345.1	22.2	-91.9	3.8
2025-01-25 15:23:12.639871	344.9	22.1	-92.1	5.5
2025-01-25 15:23:13.793590	344.6	21.9	-92.1	5.6
2025-01-25 15:23:14.942801	344.4	21.8	-92.0	7.6
2025-01-25 15:23:16.086362	344.2	21.7	-91.9	9.5
2025-01-25 15:23:17.240583	344.0	21.6	-91.8	7.9
2025-01-25 15:23:18.386106	343.8	21.5	-92.0	12.7
2025-01-25 15:23:19.531003	343.6	21.4	-91.9	9.5
2025-01-25 15:23:20.654489	343.4	21.3	-92.0	11.8
2025-01-25 15:23:21.797996	343.2	21.2	-92.3	8.1
2025-01-25 15:23:22.942947	343.0	21.1	-91.6	12.8
2025-01-25 15:23:24.082139	342.8	20.9	-92.0	7.2
2025-01-25 15:23:25.225774	342.6	20.8	-91.7	8.4
2025-01-25 15:23:26.370674	342.4	20.7	-91.9	5.5
2025-01-25 15:23:27.517906	342.2	20.6	-92.3	4.4
2025-01-25 15:23:28.662989	342.0	20.5	-92.0	3.2
2025-01-25 15:23:29.819257	341.8	20.4	-92.0	3.6
2025-01-25 15:23:30.966642	341.6	20.3	-91.8	3.0
2025-01-25 15:23:32.120910	341.4	20.2	-91.7	2.5
2025-01-25 15:23:33.263108	341.2	20.1	-92.0	0.5
2025-01-25 15:23:34.386669	341.0	20.0	-92.1	1.8
2025-01-25 15:23:35.533898	340.8	19.9	-92.0	4.4
2025-01-25 15:23:36.668528	340.7	19.7	-92.1	1.4
2025-01-25 15:23:37.818546	340.5	19.6	-91.7	2.5
2025-01-25 15:23:38.960967	340.3	19.5	-92.0	3.3
2025-01-25 15:23:40.106721	340.1	19.4	-92.0	4.7
2025-01-25 15:23:41.247087	339.9	19.3	-91.9	3.3
2025-01-25 15:23:42.401469	339.8	19.2	-91.8	6.1
2025-01-25 15:23:43.552404	339.6	19.1	-92.2	4.2
2025-01-25 15:23:44.706527	339.4	19.0	-91.9	3.6
2025-01-25 15:23:45.854458	339.2	18.9	-91.9	3.8
2025-01-25 15:23:47.010531	339.0	18.8	-91.9	2.5
2025-01-25 15:23:48.168110	338.9	18.7	-91.6	2.1
2025-01-25 15:23:49.316607	338.7	18.6	-91.9	3.3
2025-01-25 15:23:50.458854	338.5	18.4	-91.8	1.8
2025-01-25 15:23:51.607686	338.4	18.3	-91.9	2.2
2025-01-25 15:23:52.756928	338.2	18.2	-92.1	2.3
2025-01-25 15:23:53.917161	338.0	18.1	-92.1	1.9
2025-01-25 15:23:55.063135	337.9	18.0	-92.1	2.1
2025-01-25 15:23:56.213875	337.7	17.9	-91.8	4.7
2025-01-25 15:23:57.355751	337.5	17.8	-92.0	1.6
2025-01-25 15:23:58.496824	337.4	17.7	-91.8	3.2
2025-01-25 15:23:59.622793	337.2	17.6	-92.1	5.6
2025-01-25 15:24:00.752087	337.0	17.5	-91.9	1.6
2025-01-25 15:24:01.897882	336.9	17.4	-92.2	2.6
2025-01-25 15:24:03.033472	336.7	17.3	-92.1	3.8
2025-01-25 15:24:04.176028	336.6	17.2	-92.1	0.6
2025-01-25 15:24:05.330639	336.4	17.1	-91.8	2.4
2025-01-25 15:24:06.471557	336.3	17.0	-92.2	2.7
2025-01-25 15:24:07.619621	336.1	16.9	-92.2	4.3
2025-01-25 15:24:08.764115	336.0	16.8	-91.3	2.9
2025-01-25 15:24:09.917552	335.8	16.7	-92.1	3.8
2025-01-25 15:24:11.065735	335.7	16.6	-92.1	0.7
2025-01-25 15:24:12.213567	335.5	16.5	-91.6	1.3
2025-01-25 15:24:13.360443	335.4	16.4	-91.2	1.5
2025-01-25 15:24:14.512914	335.2	16.3	-91.4	1.0
2025-01-25 15:24:15.662000	335.1	16.2	-92.1	2.1
2025-01-25 15:24:16.807596	334.9	16.0	-92.0	1.9
2025-01-25 15:24:17.942755	334.8	15.9	-92.2	4.0
2025-01-25 15:24:19.071011	334.6	15.8	-91.8	4.2
2025-01-25 15:24:20.215797	334.5	15.7	-91.4	4.7
2025-01-25 15:24:21.354024	334.4	15.6	-91.9	1.6
2025-01-25 15:24:22.495850	334.2	15.5	-92.1	4.2
2025-01-25 15:24:23.637042	334.1	15.4	-91.7	3.2
2025-01-25 15:24:24.778663	333.9	15.3	-92.0	0.6
2025-01-25 15:24:25.924928	333.8	15.2	-90.8	3.2
2025-01-25 15:24:27.070961	333.7	15.1	-91.2	1.8
2025-01-25 15:24:28.216729	333.5	15.0	-91.4	1.8
2025-01-25 15:24:29.367115	333.4	14.9	-91.6	1.9
2025-01-25 15:24:30.512921	333.3	14.8	-92.1	3.3
2025-01-25 15:24:31.659299	333.1	14.8	-92.2	3.4
2025-01-25 15:24:32.812352	333.0	14.7	-91.9	1.6
2025-01-25 15:24:33.977286	332.9	14.6	-91.8	4.6
#Closed at: 2025-01-25 15:17:00.380017