passes_logs/2025/01/25/LEX_Murmansk/LEX_Murmansk__20250125_101740_NOAA_19_rec.log

#Pass ID: 20250125_101740_NOAA 19
#Satellite: NOAA 19
#Configuration: NOAA 19
#Start time: 2025-01-25 10:17:35.709810

#LorettStation: 1.0.0 05.05.2024
#Station: LEX_Murmansk
#Location: 33.156738 lon 68.926811 lat
#TLE: 1 33591U 09005A   25024.13697735  .00000399  00000+0  23694-3 0  9996
#TLE: 2 33591  99.0181  87.9693 0014137  32.7659 327.4387 14.13267470822833

#Time	Az	El	Level	SNR
2025-01-25 10:17:47.829350	23.5	16.2	-89.8	5.9
2025-01-25 10:17:48.983816	23.4	16.3	-89.5	5.1
2025-01-25 10:17:50.130034	23.4	16.5	-89.4	4.4
2025-01-25 10:17:51.282224	23.3	16.6	-89.5	3.8
2025-01-25 10:17:52.436346	23.2	16.7	-89.7	4.9
2025-01-25 10:17:53.592613	23.1	16.8	-89.6	3.0
2025-01-25 10:17:54.747927	23.0	17.0	-89.4	4.7
2025-01-25 10:17:55.902576	22.9	17.1	-89.5	5.2
2025-01-25 10:17:57.058332	22.8	17.2	-89.8	4.6
2025-01-25 10:17:58.210180	22.7	17.3	-89.2	3.3
2025-01-25 10:17:59.362321	22.6	17.4	-89.7	1.6
2025-01-25 10:18:00.509598	22.5	17.6	-90.0	4.7
2025-01-25 10:18:01.659854	22.4	17.7	-89.5	4.6
2025-01-25 10:18:02.814657	22.3	17.8	-88.9	4.2
2025-01-25 10:18:03.968740	22.2	17.9	-89.1	6.1
2025-01-25 10:18:05.126237	22.1	18.1	-89.2	8.7
2025-01-25 10:18:06.272447	22.0	18.2	-88.7	7.4
2025-01-25 10:18:07.425789	21.9	18.3	-89.4	7.0
2025-01-25 10:18:08.583076	21.8	18.5	-89.3	5.0
2025-01-25 10:18:09.739517	21.7	18.6	-89.5	4.1
2025-01-25 10:18:10.886276	21.6	18.7	-89.3	5.7
2025-01-25 10:18:12.037249	21.5	18.8	-89.7	10.1
2025-01-25 10:18:13.195313	21.4	19.0	-90.2	7.7
2025-01-25 10:18:14.348236	21.3	19.1	-90.1	5.0
2025-01-25 10:18:15.498503	21.2	19.2	-89.6	2.7
2025-01-25 10:18:16.651055	21.0	19.4	-89.6	3.1
2025-01-25 10:18:17.806966	20.9	19.5	-90.0	2.6
2025-01-25 10:18:18.959147	20.8	19.6	-89.2	4.0
2025-01-25 10:18:20.110227	20.7	19.8	-89.6	3.5
2025-01-25 10:18:21.257222	20.6	19.9	-89.5	5.7
2025-01-25 10:18:22.407121	20.5	20.0	-89.4	6.7
2025-01-25 10:18:23.565577	20.4	20.2	-89.8	3.8
2025-01-25 10:18:24.721057	20.2	20.3	-89.5	7.4
2025-01-25 10:18:25.886595	20.1	20.5	-89.7	4.1
2025-01-25 10:18:27.046167	20.0	20.6	-90.2	5.5
2025-01-25 10:18:28.195757	19.9	20.7	-89.8	3.6
2025-01-25 10:18:29.350709	19.8	20.9	-89.8	6.4
2025-01-25 10:18:30.500411	19.6	21.0	-89.8	6.8
2025-01-25 10:18:31.652512	19.5	21.2	-89.6	5.5
2025-01-25 10:18:32.803445	19.4	21.3	-89.6	2.7
2025-01-25 10:18:33.967057	19.3	21.4	-89.2	2.6
2025-01-25 10:18:35.117269	19.1	21.6	-88.9	2.9
2025-01-25 10:18:36.267631	19.0	21.7	-89.8	2.5
2025-01-25 10:18:37.422900	18.9	21.9	-90.1	5.4
2025-01-25 10:18:38.574481	18.7	22.0	-90.0	8.1
2025-01-25 10:18:39.725684	18.6	22.2	-89.9	9.2
2025-01-25 10:18:40.875012	18.5	22.3	-89.8	8.1
2025-01-25 10:18:42.028519	18.3	22.4	-89.7	8.7
2025-01-25 10:18:43.176373	18.2	22.6	-89.6	6.4
2025-01-25 10:18:44.335707	18.1	22.7	-89.8	4.9
2025-01-25 10:18:45.484567	17.9	22.9	-89.8	8.6
2025-01-25 10:18:46.641977	17.8	23.0	-89.8	10.0
2025-01-25 10:18:47.788020	17.6	23.2	-89.7	11.1
2025-01-25 10:18:48.932057	17.5	23.3	-89.9	7.5
2025-01-25 10:18:50.085037	17.4	23.5	-90.1	4.2
2025-01-25 10:18:51.238245	17.2	23.6	-89.7	3.1
2025-01-25 10:18:52.400182	17.1	23.8	-90.2	4.4
2025-01-25 10:18:53.552657	16.9	23.9	-89.9	5.4
2025-01-25 10:18:54.707560	16.8	24.1	-89.8	7.1
2025-01-25 10:18:55.854289	16.6	24.3	-89.6	8.2
2025-01-25 10:18:57.007349	16.5	24.4	-89.3	11.3
2025-01-25 10:18:58.158647	16.3	24.6	-89.4	9.9
2025-01-25 10:18:59.313048	16.1	24.7	-89.5	6.2
2025-01-25 10:19:00.460214	16.0	24.9	-89.4	5.8
2025-01-25 10:19:01.607400	15.8	25.0	-89.6	6.9
2025-01-25 10:19:02.757601	15.7	25.2	-89.9	7.2
2025-01-25 10:19:03.904730	15.5	25.3	-89.8	8.0
2025-01-25 10:19:05.041321	15.3	25.5	-90.0	8.7
2025-01-25 10:19:06.187707	15.2	25.7	-89.7	7.5
2025-01-25 10:19:07.340991	15.0	25.8	-90.0	6.4
2025-01-25 10:19:08.489723	14.8	26.0	-89.8	4.4
2025-01-25 10:19:09.638353	14.7	26.1	-90.2	6.0
2025-01-25 10:19:10.790199	14.5	26.3	-89.9	1.5
2025-01-25 10:19:11.937420	14.3	26.5	-89.7	3.1
2025-01-25 10:19:13.096616	14.1	26.6	-89.8	3.9
2025-01-25 10:19:14.249962	14.0	26.8	-89.8	7.3
2025-01-25 10:19:15.401246	13.8	27.0	-89.9	7.6
2025-01-25 10:19:16.558196	13.6	27.1	-90.1	7.7
2025-01-25 10:19:17.713853	13.4	27.3	-90.3	7.5
2025-01-25 10:19:18.873376	13.2	27.5	-90.2	4.6
2025-01-25 10:19:20.018612	13.0	27.6	-90.0	2.0
2025-01-25 10:19:21.171218	12.8	27.8	-89.7	2.9
2025-01-25 10:19:22.321431	12.6	28.0	-89.9	1.6
2025-01-25 10:19:23.477774	12.5	28.1	-90.2	4.0
2025-01-25 10:19:24.628980	12.3	28.3	-89.7	5.5
2025-01-25 10:19:25.787655	12.1	28.5	-90.1	2.7
2025-01-25 10:19:26.938033	11.9	28.7	-89.5	4.7
2025-01-25 10:19:28.091761	11.7	28.8	-89.6	3.2
2025-01-25 10:19:29.240045	11.4	29.0	-89.9	2.7
2025-01-25 10:19:30.395349	11.2	29.2	-89.5	2.8
2025-01-25 10:19:31.552625	11.0	29.4	-89.7	3.8
2025-01-25 10:19:32.701850	10.8	29.5	-89.7	2.2
2025-01-25 10:19:33.855699	10.6	29.7	-89.9	8.2
2025-01-25 10:19:35.008088	10.4	29.9	-89.7	10.1
2025-01-25 10:19:36.159765	10.2	30.1	-89.8	8.0
2025-01-25 10:19:37.314305	9.9	30.2	-89.4	4.4
2025-01-25 10:19:38.473022	9.7	30.4	-89.6	4.1
2025-01-25 10:19:39.625142	9.5	30.6	-89.9	5.5
2025-01-25 10:19:40.784382	9.3	30.8	-89.5	5.8
2025-01-25 10:19:41.934216	9.0	31.0	-89.6	8.4
2025-01-25 10:19:43.087322	8.8	31.1	-89.5	12.0
2025-01-25 10:19:44.243847	8.5	31.3	-89.4	10.6
2025-01-25 10:19:45.394997	8.3	31.5	-89.4	10.1
2025-01-25 10:19:46.540882	8.1	31.7	-89.7	8.0
2025-01-25 10:19:47.699198	7.8	31.9	-89.6	5.7
2025-01-25 10:19:48.845280	7.6	32.1	-89.2	0.6
2025-01-25 10:19:49.993634	7.3	32.2	-89.4	3.7
2025-01-25 10:19:51.144706	7.1	32.4	-89.9	5.2
2025-01-25 10:19:52.296448	6.8	32.6	-89.5	3.9
2025-01-25 10:19:53.446147	6.5	32.8	-89.6	8.8
2025-01-25 10:19:54.593771	6.3	33.0	-89.5	9.6
2025-01-25 10:19:55.742269	6.0	33.2	-89.4	12.4
2025-01-25 10:19:56.894281	5.7	33.3	-89.6	10.9
2025-01-25 10:19:58.045056	5.5	33.5	-89.2	10.0
2025-01-25 10:19:59.203489	5.2	33.7	-89.4	7.1
2025-01-25 10:20:00.350404	4.9	33.9	-89.4	4.8
2025-01-25 10:20:01.499176	4.6	34.1	-89.7	10.6
2025-01-25 10:20:02.649484	4.3	34.3	-89.5	9.9
2025-01-25 10:20:03.804041	4.1	34.5	-89.5	10.9
2025-01-25 10:20:04.957170	3.8	34.7	-89.2	10.3
2025-01-25 10:20:06.111439	3.5	34.8	-89.6	11.3
2025-01-25 10:20:07.260843	3.2	35.0	-89.4	7.4
2025-01-25 10:20:08.421580	2.9	35.2	-89.3	3.2
2025-01-25 10:20:09.575446	2.6	35.4	-89.8	3.8
2025-01-25 10:20:10.728321	2.2	35.6	-90.0	2.8
2025-01-25 10:20:11.879930	1.9	35.8	-90.3	4.4
2025-01-25 10:20:13.030317	1.6	36.0	-89.9	6.8
2025-01-25 10:20:14.185993	1.3	36.2	-89.6	8.4
2025-01-25 10:20:15.338915	1.0	36.4	-89.4	7.2
2025-01-25 10:20:16.492353	0.6	36.6	-89.5	13.7
2025-01-25 10:20:17.652447	0.3	36.8	-89.7	11.8
2025-01-25 10:20:18.803437	360.0	36.9	-89.8	7.0
2025-01-25 10:20:19.963847	359.6	37.1	-90.1	7.5
2025-01-25 10:20:21.113311	359.3	37.3	-89.6	6.6
2025-01-25 10:20:22.260140	358.9	37.5	-89.1	5.1
2025-01-25 10:20:23.405663	358.6	37.7	-89.5	6.9
2025-01-25 10:20:24.562748	358.2	37.9	-89.9	8.4
2025-01-25 10:20:25.714201	357.9	38.1	-89.7	9.8
2025-01-25 10:20:26.866836	357.5	38.3	-89.9	10.1
2025-01-25 10:20:28.028342	357.1	38.5	-89.5	12.2
2025-01-25 10:20:29.175451	356.7	38.6	-89.6	11.0
2025-01-25 10:20:30.335586	356.4	38.8	-90.0	11.3
2025-01-25 10:20:31.488281	356.0	39.0	-90.4	8.3
2025-01-25 10:20:32.641220	355.6	39.2	-90.0	8.6
2025-01-25 10:20:33.794896	355.2	39.4	-89.7	2.4
2025-01-25 10:20:34.949516	354.8	39.6	-90.3	4.1
2025-01-25 10:20:36.100675	354.4	39.8	-89.5	7.2
2025-01-25 10:20:37.255491	354.0	40.0	-89.3	6.3
2025-01-25 10:20:38.407487	353.6	40.1	-89.2	6.9
2025-01-25 10:20:39.563993	353.2	40.3	-89.8	13.5
2025-01-25 10:20:40.720595	352.7	40.5	-89.6	14.1
2025-01-25 10:20:41.867190	352.3	40.7	-89.6	18.1
2025-01-25 10:20:43.021304	351.9	40.9	-89.4	15.5
2025-01-25 10:20:44.177401	351.5	41.0	-89.3	14.6
2025-01-25 10:20:45.324290	351.0	41.2	-88.9	9.1
2025-01-25 10:20:46.471869	350.6	41.4	-89.2	10.9
2025-01-25 10:20:47.626460	350.1	41.6	-89.7	9.9
2025-01-25 10:20:48.783004	349.7	41.8	-90.1	6.7
2025-01-25 10:20:49.949920	349.2	41.9	-90.2	8.7
2025-01-25 10:20:51.097550	348.7	42.1	-89.5	12.3
2025-01-25 10:20:52.257090	348.3	42.3	-89.2	12.3
2025-01-25 10:20:53.404347	347.8	42.4	-89.7	15.8
2025-01-25 10:20:54.552108	347.3	42.6	-89.6	17.3
2025-01-25 10:20:55.701929	346.8	42.8	-89.5	16.3
2025-01-25 10:20:56.859444	346.3	42.9	-90.0	13.5
2025-01-25 10:20:58.016989	345.8	43.1	-90.4	12.6
2025-01-25 10:20:59.184624	345.3	43.3	-90.4	8.0
2025-01-25 10:21:00.336739	344.8	43.4	-89.1	4.5
2025-01-25 10:21:01.488201	344.3	43.6	-89.6	5.6
2025-01-25 10:21:02.644102	343.8	43.7	-89.8	7.6
2025-01-25 10:21:03.797376	343.3	43.9	-89.8	3.3
2025-01-25 10:21:04.945953	342.8	44.1	-89.6	6.9
2025-01-25 10:21:06.113996	342.2	44.2	-88.9	7.6
2025-01-25 10:21:07.272530	341.7	44.4	-89.4	7.8
2025-01-25 10:21:08.428263	341.1	44.5	-89.7	10.1
2025-01-25 10:21:09.586304	340.6	44.6	-89.4	11.1
2025-01-25 10:21:10.730977	340.1	44.8	-89.2	15.0
2025-01-25 10:21:11.887556	339.5	44.9	-89.1	16.0
2025-01-25 10:21:13.050270	338.9	45.1	-89.4	14.3
2025-01-25 10:21:14.211530	338.4	45.2	-89.3	13.9
2025-01-25 10:21:15.364508	337.8	45.3	-88.9	9.5
2025-01-25 10:21:16.517086	337.2	45.4	-88.5	11.0
2025-01-25 10:21:17.665672	336.6	45.6	-89.4	8.8
2025-01-25 10:21:18.825410	336.1	45.7	-89.5	7.2
2025-01-25 10:21:19.986299	335.5	45.8	-89.5	8.9
2025-01-25 10:21:21.137802	334.9	45.9	-89.2	9.2
2025-01-25 10:21:22.285955	334.3	46.0	-89.4	6.7
2025-01-25 10:21:23.439832	333.7	46.2	-89.1	7.4
2025-01-25 10:21:24.595625	333.1	46.3	-89.3	9.1
2025-01-25 10:21:25.748296	332.5	46.4	-89.3	9.6
2025-01-25 10:21:26.905831	331.8	46.5	-89.4	10.7
2025-01-25 10:21:28.060700	331.2	46.6	-89.2	10.8
2025-01-25 10:21:29.217110	330.6	46.7	-89.4	13.7
2025-01-25 10:21:30.369827	330.0	46.7	-89.3	15.1
2025-01-25 10:21:31.526291	329.4	46.8	-88.4	13.8
2025-01-25 10:21:32.683814	328.7	46.9	-88.5	11.3
2025-01-25 10:21:33.840086	328.1	47.0	-89.3	12.4
2025-01-25 10:21:34.987998	327.5	47.1	-89.1	10.1
2025-01-25 10:21:36.144254	326.8	47.1	-89.0	9.8
2025-01-25 10:21:37.296030	326.2	47.2	-89.7	6.8
2025-01-25 10:21:38.448869	325.5	47.3	-89.9	4.0
2025-01-25 10:21:39.603864	324.9	47.3	-89.7	5.3
2025-01-25 10:21:40.758062	324.2	47.4	-89.6	3.6
2025-01-25 10:21:41.906207	323.6	47.4	-89.7	4.0
2025-01-25 10:21:43.057684	322.9	47.5	-89.6	3.9
2025-01-25 10:21:44.205698	322.3	47.5	-89.6	3.3
2025-01-25 10:21:45.362110	321.6	47.6	-89.3	3.8
2025-01-25 10:21:46.511708	320.9	47.6	-88.8	6.9
2025-01-25 10:21:47.671070	320.3	47.6	-89.2	3.4
2025-01-25 10:21:48.830105	319.6	47.6	-89.2	2.9
2025-01-25 10:21:49.982633	319.0	47.7	-89.5	6.2
2025-01-25 10:21:51.135742	318.3	47.7	-89.5	7.1
2025-01-25 10:21:52.281226	317.6	47.7	-90.1	3.2
2025-01-25 10:21:53.438335	317.0	47.7	-90.1	6.9
2025-01-25 10:21:54.588413	316.3	47.7	-89.5	4.8
2025-01-25 10:21:55.735290	315.6	47.7	-89.4	6.7
2025-01-25 10:21:56.886043	315.0	47.7	-89.2	5.9
2025-01-25 10:21:58.037710	314.3	47.7	-90.0	9.1
2025-01-25 10:21:59.192799	313.6	47.7	-91.7	12.5
2025-01-25 10:22:00.344542	313.0	47.7	-91.9	12.6
2025-01-25 10:22:01.501808	312.3	47.7	-92.1	14.4
2025-01-25 10:22:02.654445	311.6	47.6	-91.9	15.8
2025-01-25 10:22:03.814100	311.0	47.6	-91.8	14.5
2025-01-25 10:22:04.957801	310.3	47.6	-92.4	16.4
2025-01-25 10:22:06.124300	309.7	47.5	-92.4	9.2
2025-01-25 10:22:07.274551	309.0	47.5	-91.9	11.4
2025-01-25 10:22:08.428315	308.3	47.5	-92.1	13.2
2025-01-25 10:22:09.577030	307.7	47.4	-92.0	13.3
2025-01-25 10:22:10.734925	307.0	47.4	-91.8	10.8
2025-01-25 10:22:11.890956	306.4	47.3	-91.9	10.3
2025-01-25 10:22:13.048791	305.7	47.2	-91.8	11.2
2025-01-25 10:22:14.199029	305.1	47.2	-92.1	7.5
2025-01-25 10:22:15.350545	304.5	47.1	-92.3	4.6
2025-01-25 10:22:16.504742	303.8	47.0	-92.4	10.8
2025-01-25 10:22:17.653392	303.2	47.0	-92.2	8.1
2025-01-25 10:22:18.814604	302.5	46.9	-92.0	9.6
2025-01-25 10:22:19.974168	301.9	46.8	-92.0	12.5
2025-01-25 10:22:21.126463	301.3	46.7	-92.6	8.6
2025-01-25 10:22:22.282827	300.7	46.6	-92.4	7.3
2025-01-25 10:22:23.434725	300.0	46.5	-92.6	10.2
2025-01-25 10:22:24.582871	299.4	46.4	-91.8	7.0
2025-01-25 10:22:25.737767	298.8	46.3	-91.8	5.0
2025-01-25 10:22:26.891459	298.2	46.2	-91.6	9.6
2025-01-25 10:22:28.046616	297.6	46.1	-91.9	10.7
2025-01-25 10:22:29.209182	297.0	46.0	-91.8	9.0
2025-01-25 10:22:30.363636	296.4	45.9	-92.0	6.0
2025-01-25 10:22:31.522284	295.8	45.8	-91.7	7.6
2025-01-25 10:22:32.682522	295.2	45.6	-91.9	7.2
2025-01-25 10:22:33.834999	294.6	45.5	-92.3	7.1
2025-01-25 10:22:34.985992	294.1	45.4	-92.2	10.3
2025-01-25 10:22:36.139462	293.5	45.3	-92.2	10.8
2025-01-25 10:22:37.295744	292.9	45.1	-92.2	10.2
2025-01-25 10:22:38.445361	292.4	45.0	-91.9	12.6
2025-01-25 10:22:39.601271	291.8	44.9	-91.7	12.2
2025-01-25 10:22:40.754937	291.3	44.7	-92.0	11.2
2025-01-25 10:22:41.905813	290.7	44.6	-91.8	10.9
2025-01-25 10:22:43.060667	290.2	44.4	-91.8	10.7
2025-01-25 10:22:44.220697	289.6	44.3	-91.8	10.9
2025-01-25 10:22:45.376078	289.1	44.1	-92.1	11.1
2025-01-25 10:22:46.535782	288.6	44.0	-92.3	15.1
2025-01-25 10:22:47.690811	288.0	43.8	-92.1	17.4
2025-01-25 10:22:48.845215	287.5	43.7	-92.2	17.7
2025-01-25 10:22:50.006103	287.0	43.5	-92.2	15.3
2025-01-25 10:22:51.163287	286.5	43.4	-91.4	14.1
2025-01-25 10:22:52.314955	286.0	43.2	-91.6	16.7
2025-01-25 10:22:53.471051	285.5	43.0	-92.0	15.9
2025-01-25 10:22:54.626624	285.0	42.9	-91.7	16.0
2025-01-25 10:22:55.786634	284.5	42.7	-91.7	16.7
2025-01-25 10:22:56.939414	284.0	42.5	-91.8	16.7
2025-01-25 10:22:58.091729	283.6	42.4	-92.1	18.7
2025-01-25 10:22:59.244040	283.1	42.2	-91.8	18.0
2025-01-25 10:23:00.387130	282.6	42.0	-90.2	15.1
2025-01-25 10:23:01.521192	282.2	41.9	-91.5	19.1
2025-01-25 10:23:02.674606	281.7	41.7	-91.6	17.5
2025-01-25 10:23:03.824768	281.3	41.5	-91.6	16.2
2025-01-25 10:23:04.982418	280.8	41.3	-91.4	15.3
2025-01-25 10:23:06.136781	280.4	41.2	-91.3	16.6
2025-01-25 10:23:07.292474	279.9	41.0	-91.7	14.7
2025-01-25 10:23:08.449644	279.5	40.8	-92.0	16.3
2025-01-25 10:23:09.607033	279.1	40.6	-92.2	14.8
2025-01-25 10:23:10.753850	278.6	40.4	-91.9	16.4
2025-01-25 10:23:11.907892	278.2	40.3	-92.1	14.2
2025-01-25 10:23:13.060720	277.8	40.1	-91.2	12.4
2025-01-25 10:23:14.215851	277.4	39.9	-91.5	15.1
2025-01-25 10:23:15.369744	277.0	39.7	-91.9	14.4
2025-01-25 10:23:16.522790	276.6	39.5	-92.0	10.5
2025-01-25 10:23:17.678785	276.2	39.3	-92.3	11.9
2025-01-25 10:23:18.837221	275.8	39.1	-92.5	14.8
2025-01-25 10:23:19.988707	275.4	39.0	-92.1	9.0
2025-01-25 10:23:21.143801	275.0	38.8	-92.4	12.0
2025-01-25 10:23:22.294859	274.7	38.6	-92.1	16.3
2025-01-25 10:23:23.446982	274.3	38.4	-92.6	8.8
2025-01-25 10:23:24.596744	273.9	38.2	-92.2	6.9
2025-01-25 10:23:25.744241	273.6	38.0	-91.9	14.0
2025-01-25 10:23:26.893511	273.2	37.8	-91.7	12.0
2025-01-25 10:23:28.040548	272.8	37.6	-92.2	8.4
2025-01-25 10:23:29.195375	272.5	37.4	-91.9	12.9
2025-01-25 10:23:30.347028	272.1	37.3	-92.1	10.8
2025-01-25 10:23:31.499984	271.8	37.1	-91.8	8.9
2025-01-25 10:23:32.647563	271.5	36.9	-92.2	9.6
2025-01-25 10:23:33.797097	271.1	36.7	-92.0	10.6
2025-01-25 10:23:34.954870	270.8	36.5	-92.3	11.4
2025-01-25 10:23:36.106364	270.5	36.3	-92.5	11.4
2025-01-25 10:23:37.258041	270.1	36.1	-92.1	9.7
2025-01-25 10:23:38.417838	269.8	35.9	-92.9	8.6
2025-01-25 10:23:39.573830	269.5	35.7	-92.0	10.7
2025-01-25 10:23:40.725368	269.2	35.5	-92.2	12.5
2025-01-25 10:23:41.875012	268.9	35.4	-92.2	13.5
2025-01-25 10:23:43.033041	268.6	35.2	-92.2	11.6
2025-01-25 10:23:44.192271	268.3	35.0	-92.0	12.7
2025-01-25 10:23:45.358864	268.0	34.8	-92.8	13.6
2025-01-25 10:23:46.506661	267.7	34.6	-92.5	9.7
2025-01-25 10:23:47.652160	267.4	34.4	-92.7	9.2
2025-01-25 10:23:48.805098	267.1	34.2	-92.3	13.5
2025-01-25 10:23:49.959968	266.8	34.0	-91.9	5.9
2025-01-25 10:23:51.116229	266.5	33.8	-91.9	5.4
2025-01-25 10:23:52.266371	266.3	33.7	-91.9	14.1
2025-01-25 10:23:53.421457	266.0	33.5	-92.1	8.5
2025-01-25 10:23:54.572688	265.7	33.3	-91.9	7.6
2025-01-25 10:23:55.723938	265.4	33.1	-91.9	13.8
2025-01-25 10:23:56.877221	265.2	32.9	-91.8	13.9
2025-01-25 10:23:58.034769	264.9	32.7	-92.3	9.3
2025-01-25 10:23:59.189495	264.6	32.5	-92.1	14.1
2025-01-25 10:24:00.336273	264.4	32.4	-91.9	13.4
2025-01-25 10:24:01.495007	264.1	32.2	-92.2	13.9
2025-01-25 10:24:02.649883	263.9	32.0	-92.4	14.7
2025-01-25 10:24:03.795281	263.6	31.8	-91.7	13.9
2025-01-25 10:24:04.952989	263.4	31.6	-92.1	15.9
2025-01-25 10:24:06.110183	263.2	31.4	-91.8	11.7
2025-01-25 10:24:07.271443	262.9	31.3	-91.9	15.3
2025-01-25 10:24:08.433017	262.7	31.1	-91.9	7.3
2025-01-25 10:24:09.584551	262.4	30.9	-92.1	8.9
2025-01-25 10:24:10.736853	262.2	30.7	-92.3	13.1
2025-01-25 10:24:11.884075	262.0	30.5	-91.9	11.3
2025-01-25 10:24:13.028297	261.8	30.4	-92.0	7.9
2025-01-25 10:24:14.178530	261.5	30.2	-92.0	11.1
2025-01-25 10:24:15.333056	261.3	30.0	-92.0	12.5
2025-01-25 10:24:16.494411	261.1	29.8	-92.1	9.8
2025-01-25 10:24:17.659152	260.9	29.7	-92.1	9.2
2025-01-25 10:24:18.812659	260.7	29.5	-92.1	12.0
2025-01-25 10:24:19.958262	260.4	29.3	-91.5	10.1
2025-01-25 10:24:21.108105	260.2	29.1	-92.7	12.0
2025-01-25 10:24:22.257223	260.0	29.0	-92.9	14.0
2025-01-25 10:24:23.408917	259.8	28.8	-92.8	12.0
2025-01-25 10:24:24.566966	259.6	28.6	-92.8	10.7
2025-01-25 10:24:25.715772	259.4	28.4	-92.6	10.3
2025-01-25 10:24:26.860783	259.2	28.3	-92.8	11.7
2025-01-25 10:24:28.015418	259.0	28.1	-92.8	8.5
2025-01-25 10:24:29.168967	258.8	27.9	-92.7	7.8
2025-01-25 10:24:30.320161	258.6	27.8	-92.1	7.9
2025-01-25 10:24:31.464711	258.4	27.6	-92.0	4.5
2025-01-25 10:24:32.613390	258.3	27.4	-92.4	4.0
2025-01-25 10:24:33.767496	258.1	27.3	-92.5	4.4
2025-01-25 10:24:34.923109	257.9	27.1	-92.1	3.1
2025-01-25 10:24:36.071306	257.7	26.9	-92.1	2.1
2025-01-25 10:24:37.230293	257.5	26.8	-91.6	2.3
2025-01-25 10:24:38.388716	257.3	26.6	-91.9	4.9
2025-01-25 10:24:39.541096	257.2	26.4	-92.3	3.3
2025-01-25 10:24:40.696645	257.0	26.3	-92.0	3.5
2025-01-25 10:24:41.848038	256.8	26.1	-92.2	3.8
2025-01-25 10:24:42.992910	256.7	25.9	-92.4	4.8
2025-01-25 10:24:44.146777	256.5	25.8	-92.0	5.1
2025-01-25 10:24:45.317155	256.3	25.6	-92.2	3.1
2025-01-25 10:24:46.470343	256.1	25.5	-92.7	1.3
2025-01-25 10:24:47.624878	256.0	25.3	-92.9	2.4
2025-01-25 10:24:48.777881	255.8	25.1	-92.4	3.3
2025-01-25 10:24:49.936322	255.7	25.0	-91.9	1.2
2025-01-25 10:24:51.091075	255.5	24.8	-92.1	2.3
2025-01-25 10:24:52.247872	255.3	24.7	-91.9	3.6
2025-01-25 10:24:53.401382	255.2	24.5	-91.9	3.1
2025-01-25 10:24:54.554641	255.0	24.4	-92.3	2.0
2025-01-25 10:24:55.703456	254.9	24.2	-92.9	3.6
2025-01-25 10:24:56.854797	254.7	24.1	-92.8	7.2
2025-01-25 10:24:58.015114	254.6	23.9	-92.5	4.7
2025-01-25 10:24:59.162156	254.4	23.7	-92.1	3.2
2025-01-25 10:25:00.312325	254.3	23.6	-92.2	7.0
2025-01-25 10:25:01.466067	254.1	23.4	-92.0	2.7
2025-01-25 10:25:02.623843	254.0	23.3	-92.1	2.5
2025-01-25 10:25:03.775136	253.8	23.1	-92.2	2.7
2025-01-25 10:25:04.928031	253.7	23.0	-92.2	1.9
2025-01-25 10:25:06.081960	253.6	22.8	-92.5	2.5
2025-01-25 10:25:07.232400	253.4	22.7	-92.3	4.3
2025-01-25 10:25:08.389018	253.3	22.6	-92.4	2.8
2025-01-25 10:25:09.545764	253.1	22.4	-91.8	4.1
2025-01-25 10:25:10.699581	253.0	22.3	-92.1	3.3
2025-01-25 10:25:11.849422	252.9	22.1	-92.2	1.8
2025-01-25 10:25:12.998494	252.7	22.0	-92.1	3.9
2025-01-25 10:25:14.145969	252.6	21.8	-92.3	3.6
2025-01-25 10:25:15.294485	252.5	21.7	-91.7	4.6
2025-01-25 10:25:16.446363	252.4	21.5	-92.1	3.1
2025-01-25 10:25:17.608842	252.2	21.4	-92.1	2.8
2025-01-25 10:25:18.768785	252.1	21.3	-92.1	2.8
2025-01-25 10:25:19.923374	252.0	21.1	-92.1	1.8
2025-01-25 10:25:21.073628	251.9	21.0	-92.2	2.8
2025-01-25 10:25:22.235109	251.7	20.8	-92.2	1.3
2025-01-25 10:25:23.490065	251.6	20.7	-92.3	0.8
2025-01-25 10:25:24.745494	251.5	20.5	-92.3	1.1
2025-01-25 10:25:25.896396	251.3	20.4	-92.1	2.1
2025-01-25 10:25:27.049100	251.2	20.3	-92.5	3.2
2025-01-25 10:25:28.210730	251.1	20.1	-92.5	5.6
2025-01-25 10:25:29.364065	251.0	20.0	-92.4	3.8
2025-01-25 10:25:30.514141	250.9	19.9	-91.7	3.3
2025-01-25 10:25:31.660063	250.8	19.7	-92.0	0.9
2025-01-25 10:25:32.817031	250.7	19.6	-92.1	3.9
2025-01-25 10:25:33.975984	250.5	19.5	-92.1	3.7
2025-01-25 10:25:35.131720	250.4	19.3	-92.0	5.1
2025-01-25 10:25:36.281273	250.3	19.2	-92.1	2.0
2025-01-25 10:25:37.434805	250.2	19.1	-92.9	3.7
2025-01-25 10:25:38.583965	250.1	18.9	-92.7	2.8
2025-01-25 10:25:39.739556	250.0	18.8	-92.9	11.4
2025-01-25 10:25:40.886977	249.9	18.7	-92.8	5.8
2025-01-25 10:25:42.039295	249.8	18.5	-92.9	7.7
2025-01-25 10:25:43.191317	249.7	18.4	-92.3	11.3
2025-01-25 10:25:44.344797	249.6	18.3	-92.0	8.1
2025-01-25 10:25:45.500306	249.5	18.2	-92.5	10.7
2025-01-25 10:25:46.656967	249.4	18.0	-92.7	11.1
2025-01-25 10:25:47.813223	249.3	17.9	-92.6	10.7
2025-01-25 10:25:48.969128	249.2	17.8	-92.8	7.1
2025-01-25 10:25:50.127504	249.1	17.6	-92.5	9.8
2025-01-25 10:25:51.278508	249.0	17.5	-92.8	11.2
2025-01-25 10:25:52.435243	248.9	17.4	-92.3	6.2
2025-01-25 10:25:53.587357	248.8	17.3	-91.8	5.4
2025-01-25 10:25:54.744821	248.7	17.2	-92.5	12.8
2025-01-25 10:25:55.894527	248.6	17.0	-92.9	10.4
2025-01-25 10:25:57.054048	248.5	16.9	-92.8	5.7
2025-01-25 10:25:58.204352	248.4	16.8	-92.8	6.8
2025-01-25 10:25:59.363192	248.3	16.7	-92.1	4.7
2025-01-25 10:26:00.513731	248.2	16.5	-92.0	10.2
2025-01-25 10:26:01.663323	248.1	16.4	-92.2	10.5
2025-01-25 10:26:02.824125	248.0	16.3	-92.0	10.4
2025-01-25 10:26:03.976508	247.9	16.2	-92.0	7.0
2025-01-25 10:26:05.131886	247.9	16.1	-91.8	4.9
2025-01-25 10:26:06.286450	247.8	15.9	-91.8	8.2
2025-01-25 10:26:07.447845	247.7	15.8	-92.2	4.5
2025-01-25 10:26:08.590775	247.6	15.7	-92.3	4.4
2025-01-25 10:26:09.746642	247.5	15.6	-92.1	11.6
2025-01-25 10:26:10.903117	247.4	15.5	-91.6	6.8
2025-01-25 10:26:12.056544	247.3	15.4	-91.7	9.6
2025-01-25 10:26:13.207124	247.2	15.2	-91.9	9.9
2025-01-25 10:26:14.361706	247.2	15.1	-91.6	10.5
2025-01-25 10:26:15.531146	247.1	15.0	-91.9	13.7
2025-01-25 10:26:16.686862	247.0	14.9	-92.2	9.6
2025-01-25 10:26:17.839157	246.9	14.8	-92.0	9.1
2025-01-25 10:26:18.991477	246.8	14.7	-92.1	7.2
2025-01-25 10:26:20.143432	246.8	14.6	-91.7	5.7
2025-01-25 10:26:21.291755	246.7	14.5	-91.8	4.2
#Closed at: 2025-01-25 10:17:40.634003