passes_logs/2025/01/25/LEX_Murmansk/LEX_Murmansk__20250125_122120_NOAA_18_rec.log

#Pass ID: 20250125_122120_NOAA 18
#Satellite: NOAA 18
#Configuration: NOAA 18
#Start time: 2025-01-25 12:21:15.830572

#LorettStation: 1.0.0 05.05.2024
#Station: LEX_Murmansk
#Location: 33.156738 lon 68.926811 lat
#TLE: 1 28654U 05018A   25024.15265828  .00000479  00000+0  27770-3 0  9994
#TLE: 2 28654  98.8553 105.1156 0014763 153.8328 206.3593 14.13495781 14472

#Time	Az	El	Level	SNR
2025-01-25 12:21:28.052139	23.7	16.1	-92.1	3.6
2025-01-25 12:21:29.213437	23.6	16.2	-91.9	5.7
2025-01-25 12:21:30.372135	23.5	16.3	-92.0	3.0
2025-01-25 12:21:31.528750	23.3	16.4	-92.3	4.5
2025-01-25 12:21:32.680811	23.2	16.5	-92.3	3.3
2025-01-25 12:21:33.831488	23.0	16.6	-92.4	4.5
2025-01-25 12:21:34.991145	22.9	16.7	-92.3	4.4
2025-01-25 12:21:36.149603	22.7	16.8	-91.7	6.4
2025-01-25 12:21:37.299425	22.6	16.9	-92.0	2.6
2025-01-25 12:21:38.448877	22.4	17.0	-91.8	4.1
2025-01-25 12:21:39.605629	22.3	17.2	-92.1	4.8
2025-01-25 12:21:40.763481	22.1	17.3	-92.3	4.5
2025-01-25 12:21:41.912494	22.0	17.4	-92.5	4.1
2025-01-25 12:21:43.066942	21.8	17.5	-89.3	3.9
2025-01-25 12:21:44.225994	21.7	17.6	-89.2	5.3
2025-01-25 12:21:45.372616	21.5	17.7	-89.2	2.5
2025-01-25 12:21:46.524296	21.4	17.8	-89.0	5.8
2025-01-25 12:21:47.677534	21.2	17.9	-89.3	8.7
2025-01-25 12:21:48.835167	21.1	18.0	-89.3	12.1
2025-01-25 12:21:49.983979	20.9	18.1	-89.2	8.8
2025-01-25 12:21:51.141967	20.7	18.2	-89.1	4.8
2025-01-25 12:21:52.298869	20.6	18.4	-89.1	9.6
2025-01-25 12:21:53.453585	20.4	18.5	-88.8	7.2
2025-01-25 12:21:54.603012	20.2	18.6	-88.8	9.2
2025-01-25 12:21:55.760058	20.1	18.7	-89.0	10.3
2025-01-25 12:21:56.911206	19.9	18.8	-89.0	9.0
2025-01-25 12:21:58.061134	19.7	18.9	-89.2	9.2
2025-01-25 12:21:59.212996	19.6	19.0	-89.0	8.7
2025-01-25 12:22:00.363903	19.4	19.1	-88.7	7.0
2025-01-25 12:22:01.518313	19.2	19.2	-88.3	5.0
2025-01-25 12:22:02.668316	19.0	19.4	-88.8	9.1
2025-01-25 12:22:03.821165	18.9	19.5	-89.1	10.2
2025-01-25 12:22:04.974698	18.7	19.6	-89.0	8.0
2025-01-25 12:22:06.130129	18.5	19.7	-88.8	9.3
2025-01-25 12:22:07.280816	18.3	19.8	-89.0	7.4
2025-01-25 12:22:08.436178	18.2	19.9	-88.8	5.3
2025-01-25 12:22:09.577852	18.0	20.0	-89.1	7.4
2025-01-25 12:22:10.733839	17.8	20.1	-88.9	6.8
2025-01-25 12:22:11.888233	17.6	20.3	-89.1	6.7
2025-01-25 12:22:13.045961	17.4	20.4	-88.2	5.6
2025-01-25 12:22:14.197759	17.2	20.5	-88.3	9.0
2025-01-25 12:22:15.349575	17.0	20.6	-89.1	7.8
2025-01-25 12:22:16.508699	16.9	20.7	-89.0	5.5
2025-01-25 12:22:17.654984	16.7	20.8	-89.5	8.1
2025-01-25 12:22:18.815122	16.5	20.9	-89.3	5.7
2025-01-25 12:22:19.975451	16.3	21.1	-89.5	5.8
2025-01-25 12:22:21.135195	16.1	21.2	-88.9	6.5
2025-01-25 12:22:22.284501	15.9	21.3	-88.9	6.5
2025-01-25 12:22:23.444035	15.7	21.4	-88.8	5.6
2025-01-25 12:22:24.600593	15.5	21.5	-89.0	5.7
2025-01-25 12:22:25.761349	15.3	21.6	-88.5	4.2
2025-01-25 12:22:26.911148	15.1	21.8	-88.7	6.5
2025-01-25 12:22:28.070906	14.9	21.9	-88.4	6.1
2025-01-25 12:22:29.221034	14.7	22.0	-88.7	7.1
2025-01-25 12:22:30.388562	14.4	22.1	-88.7	5.5
2025-01-25 12:22:31.548051	14.2	22.2	-89.0	6.8
2025-01-25 12:22:32.710030	14.0	22.3	-89.1	10.8
2025-01-25 12:22:33.857176	13.8	22.5	-89.4	7.3
2025-01-25 12:22:35.011956	13.6	22.6	-89.5	8.2
2025-01-25 12:22:36.166277	13.4	22.7	-89.2	5.0
2025-01-25 12:22:37.319500	13.2	22.8	-88.9	8.0
2025-01-25 12:22:38.466755	12.9	22.9	-89.0	8.7
2025-01-25 12:22:39.620656	12.7	23.0	-89.4	10.3
2025-01-25 12:22:40.778321	12.5	23.2	-88.2	8.2
2025-01-25 12:22:41.935162	12.3	23.3	-88.3	6.3
2025-01-25 12:22:43.093020	12.0	23.4	-88.5	7.7
2025-01-25 12:22:44.244789	11.8	23.5	-88.1	8.4
2025-01-25 12:22:45.395623	11.6	23.6	-88.6	6.5
2025-01-25 12:22:46.547547	11.4	23.7	-88.4	7.1
2025-01-25 12:22:47.704590	11.1	23.9	-88.5	5.9
2025-01-25 12:22:48.863812	10.9	24.0	-88.3	6.4
2025-01-25 12:22:50.019389	10.6	24.1	-88.7	2.6
2025-01-25 12:22:51.171810	10.4	24.2	-88.8	3.2
2025-01-25 12:22:52.318523	10.2	24.3	-89.1	4.6
2025-01-25 12:22:53.469737	9.9	24.4	-89.2	5.5
2025-01-25 12:22:54.626142	9.7	24.6	-88.9	3.9
2025-01-25 12:22:55.782904	9.4	24.7	-89.1	6.2
2025-01-25 12:22:56.940205	9.2	24.8	-88.9	5.9
2025-01-25 12:22:58.108786	8.9	24.9	-88.9	8.8
2025-01-25 12:22:59.264013	8.7	25.0	-88.7	4.3
2025-01-25 12:23:00.408386	8.4	25.1	-89.3	8.4
2025-01-25 12:23:01.559332	8.2	25.3	-89.0	7.4
2025-01-25 12:23:02.720130	7.9	25.4	-89.1	7.1
2025-01-25 12:23:03.879567	7.6	25.5	-89.4	6.4
2025-01-25 12:23:05.015261	7.4	25.6	-89.2	4.6
2025-01-25 12:23:06.177355	7.1	25.7	-88.9	8.1
2025-01-25 12:23:07.334537	6.9	25.8	-88.8	6.4
2025-01-25 12:23:08.488389	6.6	26.0	-88.7	5.1
2025-01-25 12:23:09.644803	6.3	26.1	-88.6	9.1
2025-01-25 12:23:10.803383	6.0	26.2	-88.6	9.2
2025-01-25 12:23:11.950982	5.8	26.3	-88.5	8.4
2025-01-25 12:23:13.103029	5.5	26.4	-88.5	9.2
2025-01-25 12:23:14.252974	5.2	26.5	-88.1	9.8
2025-01-25 12:23:15.411766	4.9	26.6	-88.0	7.9
2025-01-25 12:23:16.566390	4.7	26.8	-87.5	8.2
2025-01-25 12:23:17.713844	4.4	26.9	-88.2	8.8
2025-01-25 12:23:18.869021	4.1	27.0	-88.1	7.3
2025-01-25 12:23:20.023255	3.8	27.1	-88.5	9.6
2025-01-25 12:23:21.186827	3.5	27.2	-88.4	9.5
2025-01-25 12:23:22.339617	3.2	27.3	-88.4	6.1
2025-01-25 12:23:23.497546	2.9	27.4	-88.5	5.5
2025-01-25 12:23:24.649300	2.6	27.5	-88.3	4.1
2025-01-25 12:23:25.806510	2.3	27.7	-88.2	7.5
2025-01-25 12:23:26.961311	2.0	27.8	-88.3	4.8
2025-01-25 12:23:28.106165	1.7	27.9	-87.7	7.1
2025-01-25 12:23:29.263097	1.4	28.0	-88.1	7.5
2025-01-25 12:23:30.418107	1.1	28.1	-88.2	4.2
2025-01-25 12:23:31.574123	0.8	28.2	-88.2	7.9
2025-01-25 12:23:32.722011	0.5	28.3	-88.2	7.8
2025-01-25 12:23:33.885863	0.2	28.4	-88.1	7.5
2025-01-25 12:23:35.041272	359.9	28.5	-87.9	8.1
2025-01-25 12:23:36.198482	359.5	28.6	-87.5	5.9
2025-01-25 12:23:37.355263	359.2	28.7	-87.7	9.4
2025-01-25 12:23:38.512798	358.9	28.8	-87.6	4.6
2025-01-25 12:23:39.671707	358.6	29.0	-88.4	8.6
2025-01-25 12:23:40.831073	358.3	29.1	-88.3	9.9
2025-01-25 12:23:41.985542	357.9	29.2	-88.0	4.8
2025-01-25 12:23:43.140182	357.6	29.3	-87.4	6.5
2025-01-25 12:23:44.289156	357.3	29.4	-87.9	7.7
2025-01-25 12:23:45.439370	356.9	29.5	-87.6	9.2
2025-01-25 12:23:46.589440	356.6	29.6	-88.4	10.2
2025-01-25 12:23:47.748680	356.3	29.7	-88.3	9.9
2025-01-25 12:23:48.899738	355.9	29.8	-88.0	10.4
2025-01-25 12:23:50.057833	355.6	29.9	-87.8	10.3
2025-01-25 12:23:51.218842	355.2	30.0	-87.9	7.8
2025-01-25 12:23:52.365453	354.9	30.1	-88.2	5.2
2025-01-25 12:23:53.516627	354.5	30.2	-87.8	6.8
2025-01-25 12:23:54.672007	354.2	30.2	-87.7	9.7
2025-01-25 12:23:55.826309	353.8	30.3	-87.9	7.3
2025-01-25 12:23:56.974637	353.5	30.4	-88.1	6.1
2025-01-25 12:23:58.129471	353.1	30.5	-88.5	11.1
2025-01-25 12:23:59.282084	352.8	30.6	-87.4	10.2
2025-01-25 12:24:00.432689	352.4	30.7	-88.5	9.3
2025-01-25 12:24:01.589865	352.0	30.8	-88.4	10.4
2025-01-25 12:24:02.743468	351.7	30.9	-88.2	9.1
2025-01-25 12:24:03.898770	351.3	31.0	-87.9	8.8
2025-01-25 12:24:05.045100	350.9	31.1	-88.2	9.7
2025-01-25 12:24:06.196810	350.6	31.1	-88.3	7.9
2025-01-25 12:24:07.340980	350.2	31.2	-88.3	10.4
2025-01-25 12:24:08.492914	349.8	31.3	-88.0	9.7
2025-01-25 12:24:09.648157	349.4	31.4	-87.7	8.6
2025-01-25 12:24:10.796778	349.1	31.5	-88.2	10.2
2025-01-25 12:24:11.953949	348.7	31.5	-88.5	7.2
2025-01-25 12:24:13.108058	348.3	31.6	-88.3	9.0
2025-01-25 12:24:14.262134	347.9	31.7	-88.5	8.4
2025-01-25 12:24:15.416854	347.5	31.8	-88.3	8.6
2025-01-25 12:24:16.577618	347.1	31.8	-87.7	7.7
2025-01-25 12:24:17.730401	346.7	31.9	-87.8	10.5
2025-01-25 12:24:18.887690	346.3	32.0	-87.7	10.2
2025-01-25 12:24:20.039665	346.0	32.1	-88.1	9.6
2025-01-25 12:24:21.192416	345.6	32.1	-88.2	10.9
2025-01-25 12:24:22.345268	345.2	32.2	-88.6	10.1
2025-01-25 12:24:23.500586	344.8	32.3	-87.9	9.3
2025-01-25 12:24:24.655266	344.4	32.3	-88.3	11.9
2025-01-25 12:24:25.808808	344.0	32.4	-88.2	11.8
2025-01-25 12:24:26.962547	343.6	32.4	-87.7	7.3
2025-01-25 12:24:28.117822	343.2	32.5	-88.0	8.3
2025-01-25 12:24:29.268693	342.7	32.6	-88.4	9.2
2025-01-25 12:24:30.420291	342.3	32.6	-88.2	6.1
2025-01-25 12:24:31.572100	341.9	32.7	-88.3	7.5
2025-01-25 12:24:32.722454	341.5	32.7	-88.6	11.9
2025-01-25 12:24:33.883260	341.1	32.8	-88.5	7.8
2025-01-25 12:24:35.034214	340.7	32.8	-88.4	7.0
2025-01-25 12:24:36.189802	340.3	32.9	-88.2	9.6
2025-01-25 12:24:37.346035	339.9	32.9	-88.4	7.7
2025-01-25 12:24:38.506429	339.4	33.0	-88.3	8.0
2025-01-25 12:24:39.658477	339.0	33.0	-88.0	10.4
2025-01-25 12:24:40.812433	338.6	33.1	-87.1	10.5
2025-01-25 12:24:41.965290	338.2	33.1	-87.5	11.1
2025-01-25 12:24:43.121245	337.8	33.1	-87.4	10.5
2025-01-25 12:24:44.271495	337.3	33.2	-87.8	10.5
2025-01-25 12:24:45.420118	336.9	33.2	-88.2	8.2
2025-01-25 12:24:46.571556	336.5	33.2	-87.9	9.6
2025-01-25 12:24:47.725090	336.1	33.3	-87.9	7.6
2025-01-25 12:24:48.876269	335.7	33.3	-88.2	6.5
2025-01-25 12:24:50.031730	335.2	33.3	-88.2	5.9
2025-01-25 12:24:51.188086	334.8	33.4	-87.8	6.3
2025-01-25 12:24:52.336701	334.4	33.4	-88.2	8.3
2025-01-25 12:24:53.488485	333.9	33.4	-88.3	6.6
2025-01-25 12:24:54.642909	333.5	33.4	-88.0	9.7
2025-01-25 12:24:55.794514	333.1	33.4	-87.8	10.2
2025-01-25 12:24:56.950723	332.7	33.5	-88.0	7.6
2025-01-25 12:24:58.105505	332.2	33.5	-88.0	11.0
2025-01-25 12:24:59.261537	331.8	33.5	-88.2	12.2
2025-01-25 12:25:00.411131	331.4	33.5	-86.8	5.4
2025-01-25 12:25:01.569703	330.9	33.5	-87.7	6.3
2025-01-25 12:25:02.722242	330.5	33.5	-87.6	10.2
2025-01-25 12:25:03.882144	330.1	33.5	-87.4	6.6
2025-01-25 12:25:05.027776	329.6	33.5	-88.0	8.2
2025-01-25 12:25:06.177397	329.2	33.5	-88.3	11.5
2025-01-25 12:25:07.330168	328.8	33.5	-88.3	10.5
2025-01-25 12:25:08.487424	328.3	33.5	-88.3	12.9
2025-01-25 12:25:09.641512	327.9	33.5	-88.2	13.1
2025-01-25 12:25:10.797218	327.5	33.5	-88.3	9.6
2025-01-25 12:25:11.956953	327.0	33.5	-88.1	12.3
2025-01-25 12:25:13.118108	326.6	33.5	-88.0	3.6
2025-01-25 12:25:14.266139	326.2	33.5	-87.8	9.3
2025-01-25 12:25:15.416496	325.7	33.5	-88.3	8.9
2025-01-25 12:25:16.571833	325.3	33.5	-88.0	11.4
2025-01-25 12:25:17.728019	324.9	33.4	-88.2	12.2
2025-01-25 12:25:18.886198	324.4	33.4	-88.3	11.3
2025-01-25 12:25:20.043989	324.0	33.4	-87.5	9.5
2025-01-25 12:25:21.198728	323.6	33.4	-87.8	13.2
2025-01-25 12:25:22.349787	323.2	33.4	-87.8	10.1
2025-01-25 12:25:23.505888	322.7	33.3	-87.9	7.6
2025-01-25 12:25:24.663025	322.3	33.3	-88.0	12.6
2025-01-25 12:25:25.819346	321.9	33.3	-88.1	6.5
2025-01-25 12:25:26.970554	321.5	33.3	-88.2	9.8
2025-01-25 12:25:28.123028	321.0	33.2	-88.3	11.4
2025-01-25 12:25:29.280262	320.6	33.2	-88.0	12.0
2025-01-25 12:25:30.432013	320.2	33.1	-88.2	11.5
2025-01-25 12:25:31.589859	319.8	33.1	-88.0	10.8
2025-01-25 12:25:32.747871	319.3	33.1	-88.2	15.1
2025-01-25 12:25:33.899154	318.9	33.0	-87.9	8.6
2025-01-25 12:25:35.054687	318.5	33.0	-87.8	8.7
2025-01-25 12:25:36.206781	318.1	32.9	-88.0	10.7
2025-01-25 12:25:37.363855	317.7	32.9	-87.9	7.3
2025-01-25 12:25:38.518786	317.2	32.8	-88.2	6.6
2025-01-25 12:25:39.674726	316.8	32.8	-87.8	12.7
2025-01-25 12:25:40.834040	316.4	32.7	-87.8	9.6
2025-01-25 12:25:41.982570	316.0	32.7	-88.0	9.7
2025-01-25 12:25:43.140026	315.6	32.6	-87.7	13.0
2025-01-25 12:25:44.291381	315.2	32.6	-87.5	12.5
2025-01-25 12:25:45.442522	314.8	32.5	-88.0	9.0
2025-01-25 12:25:46.593424	314.4	32.5	-88.0	10.7
2025-01-25 12:25:47.746087	314.0	32.4	-88.4	9.5
2025-01-25 12:25:48.906053	313.6	32.3	-88.8	7.8
2025-01-25 12:25:50.057871	313.2	32.3	-88.4	7.6
2025-01-25 12:25:51.209560	312.8	32.2	-88.6	11.5
2025-01-25 12:25:52.347684	312.4	32.2	-88.7	8.7
2025-01-25 12:25:53.508017	312.0	32.1	-88.6	7.8
2025-01-25 12:25:54.662901	311.6	32.0	-88.3	12.4
2025-01-25 12:25:55.823853	311.2	31.9	-88.0	10.4
2025-01-25 12:25:56.978070	310.8	31.9	-88.2	7.1
2025-01-25 12:25:58.132631	310.4	31.8	-87.6	8.8
2025-01-25 12:25:59.280695	310.0	31.7	-87.9	7.7
2025-01-25 12:26:00.430920	309.6	31.6	-87.8	7.0
2025-01-25 12:26:01.584215	309.2	31.6	-88.1	8.4
2025-01-25 12:26:02.736818	308.9	31.5	-87.7	11.0
2025-01-25 12:26:03.892373	308.5	31.4	-87.8	5.8
2025-01-25 12:26:05.049462	308.1	31.3	-87.4	6.0
2025-01-25 12:26:06.205151	307.7	31.2	-87.7	9.8
2025-01-25 12:26:07.350505	307.3	31.2	-87.9	7.8
2025-01-25 12:26:08.504009	307.0	31.1	-87.9	6.2
2025-01-25 12:26:09.645598	306.6	31.0	-87.7	9.5
2025-01-25 12:26:10.802724	306.2	30.9	-87.5	7.5
2025-01-25 12:26:11.956846	305.9	30.8	-87.5	8.0
2025-01-25 12:26:13.109725	305.5	30.7	-88.2	8.7
2025-01-25 12:26:14.263065	305.1	30.6	-88.2	10.7
2025-01-25 12:26:15.418103	304.8	30.6	-88.4	8.7
2025-01-25 12:26:16.571360	304.4	30.5	-88.3	8.3
2025-01-25 12:26:17.747606	304.0	30.4	-88.1	10.1
2025-01-25 12:26:18.905799	303.7	30.3	-88.2	7.5
2025-01-25 12:26:20.055357	303.3	30.2	-87.8	9.3
2025-01-25 12:26:21.207799	303.0	30.1	-88.0	12.3
2025-01-25 12:26:22.361109	302.6	30.0	-87.5	7.6
2025-01-25 12:26:23.511649	302.3	29.9	-87.7	9.3
2025-01-25 12:26:24.668250	301.9	29.8	-87.2	9.6
2025-01-25 12:26:25.817201	301.6	29.7	-87.8	10.7
2025-01-25 12:26:26.968166	301.3	29.6	-87.3	8.7
2025-01-25 12:26:28.119936	300.9	29.5	-87.9	8.4
2025-01-25 12:26:29.275441	300.6	29.4	-87.3	6.5
2025-01-25 12:26:30.431621	300.3	29.3	-87.3	6.9
2025-01-25 12:26:31.584349	299.9	29.2	-88.2	4.3
2025-01-25 12:26:32.734505	299.6	29.1	-88.2	6.0
2025-01-25 12:26:33.889440	299.3	29.0	-88.2	7.7
2025-01-25 12:26:35.050808	298.9	28.9	-88.2	5.7
2025-01-25 12:26:36.204187	298.6	28.8	-88.3	5.6
2025-01-25 12:26:37.356464	298.3	28.7	-88.0	6.1
2025-01-25 12:26:38.511178	298.0	28.6	-87.4	5.6
2025-01-25 12:26:39.666499	297.7	28.4	-87.3	9.0
2025-01-25 12:26:40.823769	297.3	28.3	-87.8	7.5
2025-01-25 12:26:41.985527	297.0	28.2	-87.8	8.2
2025-01-25 12:26:43.135832	296.7	28.1	-88.2	10.0
2025-01-25 12:26:44.289554	296.4	28.0	-88.0	7.2
2025-01-25 12:26:45.440546	296.1	27.9	-88.0	6.7
2025-01-25 12:26:46.595503	295.8	27.8	-88.1	7.0
2025-01-25 12:26:47.750484	295.5	27.7	-88.3	6.7
2025-01-25 12:26:48.904205	295.2	27.6	-88.4	3.9
2025-01-25 12:26:50.054059	294.9	27.5	-88.4	7.6
2025-01-25 12:26:51.206777	294.6	27.3	-88.4	6.1
2025-01-25 12:26:52.362617	294.3	27.2	-88.7	5.9
2025-01-25 12:26:53.521672	294.0	27.1	-88.6	6.4
2025-01-25 12:26:54.673542	293.7	27.0	-88.4	7.4
2025-01-25 12:26:55.831710	293.4	26.9	-88.9	6.8
2025-01-25 12:26:56.981318	293.1	26.8	-88.4	4.7
2025-01-25 12:26:58.137074	292.9	26.7	-88.3	8.7
2025-01-25 12:26:59.294319	292.6	26.5	-87.8	9.1
2025-01-25 12:27:00.442886	292.3	26.4	-88.0	5.9
2025-01-25 12:27:01.598180	292.0	26.3	-87.5	8.0
2025-01-25 12:27:02.748033	291.8	26.2	-87.4	6.8
2025-01-25 12:27:03.912740	291.5	26.1	-87.7	8.7
2025-01-25 12:27:05.062543	291.2	26.0	-87.8	9.3
2025-01-25 12:27:06.221923	290.9	25.9	-88.2	9.7
2025-01-25 12:27:07.379026	290.7	25.7	-87.9	6.7
2025-01-25 12:27:08.535483	290.4	25.6	-88.0	9.9
2025-01-25 12:27:09.690465	290.1	25.5	-88.1	8.3
2025-01-25 12:27:10.851980	289.9	25.4	-88.0	9.6
2025-01-25 12:27:12.003735	289.6	25.3	-87.6	8.7
2025-01-25 12:27:13.157911	289.4	25.2	-87.9	7.2
2025-01-25 12:27:14.310333	289.1	25.0	-87.9	6.8
2025-01-25 12:27:15.466921	288.8	24.9	-88.1	8.2
2025-01-25 12:27:16.630855	288.6	24.8	-87.8	7.6
2025-01-25 12:27:17.787584	288.3	24.7	-87.7	9.2
2025-01-25 12:27:18.939461	288.1	24.6	-87.9	7.3
2025-01-25 12:27:20.087361	287.8	24.4	-87.7	7.5
2025-01-25 12:27:21.237106	287.6	24.3	-87.6	7.5
2025-01-25 12:27:22.388304	287.4	24.2	-87.9	6.2
2025-01-25 12:27:23.538780	287.1	24.1	-87.7	7.3
2025-01-25 12:27:24.687037	286.9	24.0	-87.7	8.8
2025-01-25 12:27:25.840267	286.6	23.9	-87.1	7.8
2025-01-25 12:27:26.992653	286.4	23.7	-87.7	5.7
2025-01-25 12:27:28.146272	286.2	23.6	-87.8	7.1
2025-01-25 12:27:29.297523	285.9	23.5	-88.2	6.4
2025-01-25 12:27:30.458678	285.7	23.4	-88.1	4.5
2025-01-25 12:27:31.612876	285.5	23.3	-88.0	7.0
2025-01-25 12:27:32.761096	285.3	23.1	-87.8	5.3
2025-01-25 12:27:33.917413	285.0	23.0	-88.0	5.0
2025-01-25 12:27:35.069675	284.8	22.9	-88.0	7.0
2025-01-25 12:27:36.221502	284.6	22.8	-88.0	6.1
2025-01-25 12:27:37.377072	284.4	22.7	-87.7	4.8
2025-01-25 12:27:38.529902	284.1	22.6	-87.8	5.9
2025-01-25 12:27:39.681834	283.9	22.4	-87.6	7.7
2025-01-25 12:27:40.837085	283.7	22.3	-87.2	7.0
2025-01-25 12:27:41.997604	283.5	22.2	-87.7	7.0
2025-01-25 12:27:43.156650	283.3	22.1	-88.3	6.1
2025-01-25 12:27:44.306071	283.1	22.0	-88.3	8.8
2025-01-25 12:27:45.458414	282.9	21.9	-88.4	5.8
2025-01-25 12:27:46.610188	282.7	21.7	-88.1	7.4
2025-01-25 12:27:47.769284	282.5	21.6	-88.0	7.7
2025-01-25 12:27:48.924669	282.2	21.5	-87.6	4.3
2025-01-25 12:27:50.076502	282.0	21.4	-87.9	6.0
2025-01-25 12:27:51.221280	281.8	21.3	-87.5	7.1
2025-01-25 12:27:52.374771	281.6	21.2	-87.6	7.8
2025-01-25 12:27:53.533857	281.4	21.0	-87.1	7.3
2025-01-25 12:27:54.688264	281.3	20.9	-87.0	7.7
2025-01-25 12:27:55.840557	281.1	20.8	-86.4	5.9
2025-01-25 12:27:56.994203	280.9	20.7	-86.6	7.2
2025-01-25 12:27:58.145035	280.7	20.6	-87.1	7.6
2025-01-25 12:27:59.296771	280.5	20.5	-86.9	7.3
2025-01-25 12:28:00.448760	280.3	20.4	-87.2	7.5
2025-01-25 12:28:01.588911	280.1	20.2	-86.5	7.0
2025-01-25 12:28:02.742166	279.9	20.1	-87.0	8.3
2025-01-25 12:28:03.891716	279.7	20.0	-87.1	6.6
2025-01-25 12:28:05.052171	279.6	19.9	-87.1	6.9
2025-01-25 12:28:06.211999	279.4	19.8	-86.7	8.4
2025-01-25 12:28:07.370573	279.2	19.7	-87.1	7.3
2025-01-25 12:28:08.526754	279.0	19.6	-87.3	7.7
2025-01-25 12:28:09.678711	278.8	19.4	-86.9	7.1
2025-01-25 12:28:10.839608	278.7	19.3	-87.4	4.5
2025-01-25 12:28:11.994213	278.5	19.2	-86.8	6.3
2025-01-25 12:28:13.149727	278.3	19.1	-86.5	6.3
2025-01-25 12:28:14.298118	278.1	19.0	-86.6	6.6
2025-01-25 12:28:15.449744	278.0	18.9	-86.1	6.5
2025-01-25 12:28:16.598249	277.8	18.8	-86.1	5.9
2025-01-25 12:28:17.761614	277.6	18.7	-86.0	5.5
2025-01-25 12:28:18.915653	277.4	18.5	-85.9	8.2
2025-01-25 12:28:20.065644	277.3	18.4	-85.2	7.6
2025-01-25 12:28:21.212602	277.1	18.3	-86.2	4.7
2025-01-25 12:28:22.360662	277.0	18.2	-87.0	6.7
2025-01-25 12:28:23.509985	276.8	18.1	-86.3	5.0
2025-01-25 12:28:24.658240	276.6	18.0	-87.4	6.0
2025-01-25 12:28:25.803633	276.5	17.9	-86.8	7.0
2025-01-25 12:28:26.965331	276.3	17.8	-87.1	3.9
2025-01-25 12:28:28.122501	276.2	17.7	-86.6	8.1
2025-01-25 12:28:29.277523	276.0	17.6	-86.4	5.2
2025-01-25 12:28:30.428473	275.8	17.4	-86.8	7.0
2025-01-25 12:28:31.587281	275.7	17.3	-86.6	6.6
2025-01-25 12:28:32.737137	275.5	17.2	-87.0	6.9
2025-01-25 12:28:33.887623	275.4	17.1	-86.9	6.2
2025-01-25 12:28:35.039292	275.2	17.0	-87.2	5.8
2025-01-25 12:28:36.198611	275.1	16.9	-86.9	5.5
2025-01-25 12:28:37.355094	274.9	16.8	-87.4	7.1
2025-01-25 12:28:38.508674	274.8	16.7	-87.5	8.2
2025-01-25 12:28:39.659449	274.6	16.6	-86.7	6.4
2025-01-25 12:28:40.809404	274.5	16.5	-87.2	8.9
2025-01-25 12:28:41.964138	274.3	16.4	-86.9	5.8
2025-01-25 12:28:43.113640	274.2	16.3	-87.2	8.1
2025-01-25 12:28:44.274644	274.1	16.2	-87.6	7.3
2025-01-25 12:28:45.431133	273.9	16.0	-87.3	7.1
2025-01-25 12:28:46.585630	273.8	15.9	-87.1	7.1
2025-01-25 12:28:47.742665	273.6	15.8	-87.5	7.4
2025-01-25 12:28:48.893476	273.5	15.7	-87.4	7.7
2025-01-25 12:28:50.043145	273.4	15.6	-86.4	5.0
2025-01-25 12:28:51.197193	273.2	15.5	-86.4	7.4
2025-01-25 12:28:52.358413	273.1	15.4	-86.8	7.0
2025-01-25 12:28:53.507508	272.9	15.3	-87.5	5.7
2025-01-25 12:28:54.658374	272.8	15.2	-86.9	6.5
2025-01-25 12:28:55.809906	272.7	15.1	-87.2	7.2
2025-01-25 12:28:56.956456	272.5	15.0	-87.1	4.6
2025-01-25 12:28:58.112831	272.4	14.9	-87.0	7.6
2025-01-25 12:28:59.278569	272.3	14.8	-86.8	8.2
2025-01-25 12:29:00.426976	272.2	14.7	-87.1	5.7
2025-01-25 12:29:01.589682	272.0	14.6	-86.4	5.3
2025-01-25 12:29:02.765493	271.9	14.5	-86.7	7.5
#Closed at: 2025-01-25 12:21:20.851218