passes_logs/2025/01/25/LEX_Murmansk/LEX_Murmansk__20250125_204142_NOAA_18_rec.log

#Pass ID: 20250125_204142_NOAA 18
#Satellite: NOAA 18
#Configuration: NOAA 18
#Start time: 2025-01-25 20:41:37.927954

#LorettStation: 1.0.0 05.05.2024
#Station: LEX_Murmansk
#Location: 33.156738 lon 68.926811 lat
#TLE: 1 28654U 05018A   25024.86051977  .00000457  00000+0  26618-3 0  9996
#TLE: 2 28654  98.8552 105.8163 0014791 151.8936 208.3038 14.13496337 14496

#Time	Az	El	Level	SNR
2025-01-25 20:41:50.144746	212.4	16.1	-91.8	4.8
2025-01-25 20:41:51.302011	212.6	16.2	-91.8	6.8
2025-01-25 20:41:52.468013	212.7	16.3	-92.1	6.3
2025-01-25 20:41:53.623331	212.9	16.4	-91.9	6.1
2025-01-25 20:41:54.787023	213.0	16.5	-92.0	5.1
2025-01-25 20:41:55.956572	213.2	16.6	-92.6	6.7
2025-01-25 20:41:57.123380	213.3	16.7	-92.4	6.4
2025-01-25 20:41:58.278927	213.5	16.8	-92.4	5.6
2025-01-25 20:41:59.438389	213.7	16.9	-92.4	5.9
2025-01-25 20:42:00.592542	213.8	17.0	-92.3	4.9
2025-01-25 20:42:01.758507	214.0	17.1	-92.5	6.5
2025-01-25 20:42:02.921174	214.1	17.2	-92.5	6.8
2025-01-25 20:42:04.081725	214.3	17.3	-92.5	5.7
2025-01-25 20:42:05.243213	214.5	17.4	-92.2	5.3
2025-01-25 20:42:06.407045	214.6	17.5	-92.2	5.2
2025-01-25 20:42:07.573326	214.8	17.6	-92.2	5.4
2025-01-25 20:42:08.729662	215.0	17.7	-92.2	8.3
2025-01-25 20:42:09.895595	215.1	17.8	-92.1	6.7
2025-01-25 20:42:11.061273	215.3	17.9	-92.4	9.3
2025-01-25 20:42:12.225374	215.5	18.0	-92.5	11.5
2025-01-25 20:42:13.390472	215.6	18.2	-92.1	12.5
2025-01-25 20:42:14.560188	215.8	18.3	-92.2	11.8
2025-01-25 20:42:15.724421	216.0	18.4	-92.1	11.7
2025-01-25 20:42:16.891285	216.2	18.5	-92.4	9.9
2025-01-25 20:42:18.053224	216.3	18.6	-92.6	8.9
2025-01-25 20:42:19.223325	216.5	18.7	-92.1	11.6
2025-01-25 20:42:20.383364	216.7	18.8	-92.2	10.1
2025-01-25 20:42:21.546030	216.9	18.9	-92.2	12.7
2025-01-25 20:42:22.712000	217.0	19.0	-92.4	11.3
2025-01-25 20:42:23.870550	217.2	19.1	-92.3	10.6
2025-01-25 20:42:25.037204	217.4	19.2	-92.1	5.7
2025-01-25 20:42:26.201882	217.6	19.3	-91.9	10.8
2025-01-25 20:42:27.351365	217.8	19.5	-92.0	7.1
2025-01-25 20:42:28.507052	218.0	19.6	-92.3	6.4
2025-01-25 20:42:29.668515	218.2	19.7	-92.3	10.2
2025-01-25 20:42:30.834482	218.3	19.8	-92.4	11.5
2025-01-25 20:42:32.007210	218.5	19.9	-92.1	12.2
2025-01-25 20:42:33.166636	218.7	20.0	-92.5	11.9
2025-01-25 20:42:34.333875	218.9	20.1	-92.2	12.3
2025-01-25 20:42:35.494773	219.1	20.2	-92.4	11.3
2025-01-25 20:42:36.656115	219.3	20.3	-92.2	11.9
2025-01-25 20:42:37.823766	219.5	20.4	-92.3	11.4
2025-01-25 20:42:38.988146	219.7	20.6	-92.3	10.3
2025-01-25 20:42:40.148199	219.9	20.7	-92.4	13.7
2025-01-25 20:42:41.312908	220.1	20.8	-92.5	15.6
2025-01-25 20:42:42.477706	220.3	20.9	-92.6	14.7
2025-01-25 20:42:43.647944	220.5	21.0	-92.5	13.3
2025-01-25 20:42:44.805701	220.7	21.1	-92.6	13.8
2025-01-25 20:42:45.969330	220.9	21.2	-92.1	7.4
2025-01-25 20:42:47.135217	221.1	21.3	-92.3	11.3
2025-01-25 20:42:48.301238	221.4	21.4	-91.9	13.2
2025-01-25 20:42:49.455244	221.6	21.6	-92.1	8.9
2025-01-25 20:42:50.612816	221.8	21.7	-92.4	11.2
2025-01-25 20:42:51.738686	222.0	21.8	-92.2	13.9
2025-01-25 20:42:52.858510	222.2	21.9	-92.5	13.2
2025-01-25 20:42:53.980661	222.4	22.0	-92.2	13.5
2025-01-25 20:42:55.102054	222.6	22.1	-92.4	13.0
2025-01-25 20:42:56.223603	222.8	22.2	-92.4	12.6
2025-01-25 20:42:57.343831	223.0	22.3	-92.1	14.3
2025-01-25 20:42:58.465372	223.3	22.4	-92.4	12.9
2025-01-25 20:42:59.585922	223.5	22.5	-92.5	11.2
2025-01-25 20:43:00.706904	223.7	22.6	-92.6	15.1
2025-01-25 20:43:01.837810	223.9	22.8	-92.3	15.2
2025-01-25 20:43:03.000033	224.2	22.9	-92.5	15.2
2025-01-25 20:43:04.156004	224.4	23.0	-92.7	13.5
2025-01-25 20:43:05.319764	224.6	23.1	-92.5	13.9
2025-01-25 20:43:06.473371	224.8	23.2	-92.4	8.6
2025-01-25 20:43:07.629614	225.1	23.3	-92.6	10.7
2025-01-25 20:43:08.793547	225.3	23.4	-92.5	13.4
2025-01-25 20:43:09.957742	225.6	23.5	-92.6	6.9
2025-01-25 20:43:11.128545	225.8	23.7	-92.1	12.2
2025-01-25 20:43:12.294978	226.1	23.8	-92.1	13.2
2025-01-25 20:43:13.447077	226.3	23.9	-92.2	12.4
2025-01-25 20:43:14.607967	226.5	24.0	-92.3	14.0
2025-01-25 20:43:15.767959	226.8	24.1	-92.3	14.6
2025-01-25 20:43:16.933888	227.0	24.2	-92.2	12.1
2025-01-25 20:43:18.090308	227.3	24.3	-92.3	10.8
2025-01-25 20:43:19.258046	227.5	24.4	-92.5	10.2
2025-01-25 20:43:20.424063	227.8	24.6	-92.4	7.0
2025-01-25 20:43:21.586873	228.1	24.7	-92.7	8.9
2025-01-25 20:43:22.747998	228.3	24.8	-92.6	11.9
2025-01-25 20:43:23.914761	228.6	24.9	-92.5	6.7
2025-01-25 20:43:25.072827	228.8	25.0	-92.3	3.1
2025-01-25 20:43:26.233872	229.1	25.1	-92.5	7.6
2025-01-25 20:43:27.393942	229.4	25.2	-92.3	5.9
2025-01-25 20:43:28.559376	229.6	25.3	-92.6	4.6
2025-01-25 20:43:29.722881	229.9	25.4	-92.4	3.1
2025-01-25 20:43:30.879226	230.2	25.6	-92.4	3.1
2025-01-25 20:43:32.049411	230.5	25.7	-92.4	4.4
2025-01-25 20:43:33.211355	230.7	25.8	-92.6	5.9
2025-01-25 20:43:34.373616	231.0	25.9	-92.8	3.0
2025-01-25 20:43:35.532979	231.3	26.0	-92.8	5.0
2025-01-25 20:43:36.693636	231.6	26.1	-92.8	6.1
2025-01-25 20:43:37.851168	231.8	26.2	-92.9	6.9
2025-01-25 20:43:39.011142	232.1	26.3	-92.9	9.0
2025-01-25 20:43:40.176665	232.4	26.4	-92.7	11.5
2025-01-25 20:43:41.346944	232.7	26.5	-92.4	9.4
2025-01-25 20:43:42.513416	233.0	26.6	-92.5	7.5
2025-01-25 20:43:43.678875	233.3	26.8	-92.3	9.8
2025-01-25 20:43:44.854549	233.6	26.9	-92.7	9.9
2025-01-25 20:43:46.021182	233.9	27.0	-92.8	8.8
2025-01-25 20:43:47.183355	234.2	27.1	-92.5	12.2
2025-01-25 20:43:48.352807	234.5	27.2	-92.3	11.0
2025-01-25 20:43:49.512332	234.8	27.3	-92.4	14.6
2025-01-25 20:43:50.675906	235.1	27.4	-92.4	14.0
2025-01-25 20:43:51.844392	235.4	27.5	-92.6	15.9
2025-01-25 20:43:53.013364	235.7	27.6	-92.6	10.6
2025-01-25 20:43:54.175095	236.0	27.7	-92.3	14.6
2025-01-25 20:43:55.341279	236.3	27.8	-92.4	15.3
2025-01-25 20:43:56.511032	236.6	27.9	-92.3	6.1
2025-01-25 20:43:57.675831	237.0	28.0	-92.6	11.3
2025-01-25 20:43:58.843041	237.3	28.1	-92.5	12.5
2025-01-25 20:44:00.002654	237.6	28.2	-92.5	9.6
2025-01-25 20:44:01.160114	237.9	28.3	-92.5	15.6
2025-01-25 20:44:02.321784	238.2	28.4	-92.5	17.1
2025-01-25 20:44:03.480655	238.6	28.5	-92.5	16.2
2025-01-25 20:44:04.623564	238.9	28.6	-92.7	15.5
2025-01-25 20:44:05.745015	239.2	28.7	-92.6	16.4
2025-01-25 20:44:06.865964	239.5	28.8	-92.6	15.6
2025-01-25 20:44:07.989831	239.9	28.9	-92.8	14.4
2025-01-25 20:44:09.111689	240.2	29.0	-92.4	15.0
2025-01-25 20:44:10.232073	240.5	29.1	-92.7	15.0
2025-01-25 20:44:11.353018	240.8	29.2	-92.5	13.3
2025-01-25 20:44:12.474539	241.2	29.3	-92.8	10.5
2025-01-25 20:44:13.595104	241.5	29.4	-92.7	11.3
2025-01-25 20:44:14.721933	241.8	29.4	-92.6	14.7
2025-01-25 20:44:15.873495	242.2	29.5	-92.9	15.9
2025-01-25 20:44:17.033639	242.5	29.6	-92.9	17.9
2025-01-25 20:44:18.187240	242.9	29.7	-92.5	18.4
2025-01-25 20:44:19.350645	243.2	29.8	-92.5	17.4
2025-01-25 20:44:20.503302	243.6	29.9	-92.7	15.5
2025-01-25 20:44:21.660348	243.9	30.0	-92.5	17.5
2025-01-25 20:44:22.804463	244.3	30.1	-92.7	17.9
2025-01-25 20:44:23.938245	244.6	30.1	-92.4	12.3
2025-01-25 20:44:25.088576	245.0	30.2	-92.4	8.4
2025-01-25 20:44:26.236272	245.3	30.3	-92.7	18.9
2025-01-25 20:44:27.398251	245.7	30.4	-92.3	11.7
2025-01-25 20:44:28.553839	246.1	30.5	-92.7	13.0
2025-01-25 20:44:29.711461	246.4	30.6	-92.9	21.6
2025-01-25 20:44:30.873482	246.8	30.6	-92.8	18.3
2025-01-25 20:44:32.036171	247.2	30.7	-92.5	21.4
2025-01-25 20:44:33.194053	247.6	30.8	-92.5	24.2
2025-01-25 20:44:34.364030	247.9	30.9	-92.1	23.1
2025-01-25 20:44:35.523846	248.3	30.9	-92.1	24.1
2025-01-25 20:44:36.693176	248.7	31.0	-92.4	23.5
2025-01-25 20:44:37.857857	249.1	31.1	-92.6	22.8
2025-01-25 20:44:39.020660	249.5	31.2	-92.8	20.1
2025-01-25 20:44:40.195196	249.8	31.2	-92.4	22.6
2025-01-25 20:44:41.354104	250.2	31.3	-92.6	19.8
2025-01-25 20:44:42.520198	250.6	31.4	-92.3	15.4
2025-01-25 20:44:43.678316	251.0	31.4	-92.5	21.9
2025-01-25 20:44:44.837529	251.4	31.5	-92.5	20.0
2025-01-25 20:44:46.000978	251.8	31.6	-92.2	14.3
2025-01-25 20:44:47.164609	252.2	31.6	-92.2	20.9
2025-01-25 20:44:48.329333	252.6	31.7	-92.6	22.6
2025-01-25 20:44:49.489642	253.0	31.7	-92.5	21.1
2025-01-25 20:44:50.658555	253.4	31.8	-92.6	24.0
2025-01-25 20:44:51.821850	253.8	31.9	-92.4	23.4
2025-01-25 20:44:52.985723	254.2	31.9	-92.5	23.6
2025-01-25 20:44:54.150195	254.6	32.0	-92.2	21.0
2025-01-25 20:44:55.310284	255.0	32.0	-92.3	21.7
2025-01-25 20:44:56.468033	255.4	32.1	-92.3	20.7
2025-01-25 20:44:57.628252	255.8	32.1	-92.4	21.1
2025-01-25 20:44:58.795934	256.2	32.2	-92.5	22.4
2025-01-25 20:44:59.959026	256.6	32.2	-92.8	13.9
2025-01-25 20:45:01.113528	257.0	32.3	-92.2	13.7
2025-01-25 20:45:02.277054	257.4	32.3	-92.6	22.5
2025-01-25 20:45:03.436247	257.8	32.3	-92.3	12.9
2025-01-25 20:45:04.591268	258.2	32.4	-93.0	15.7
2025-01-25 20:45:05.755652	258.6	32.4	-92.9	19.4
2025-01-25 20:45:06.914324	259.1	32.5	-92.4	10.9
2025-01-25 20:45:08.075611	259.5	32.5	-92.5	13.7
2025-01-25 20:45:09.237199	259.9	32.5	-92.5	22.6
2025-01-25 20:45:10.400019	260.3	32.6	-92.5	13.6
2025-01-25 20:45:11.565013	260.7	32.6	-92.8	15.5
2025-01-25 20:45:12.721354	261.1	32.6	-92.6	19.3
2025-01-25 20:45:13.883550	261.6	32.6	-92.7	17.8
2025-01-25 20:45:15.049221	262.0	32.7	-92.6	18.2
2025-01-25 20:45:16.211718	262.4	32.7	-92.1	19.0
2025-01-25 20:45:17.376666	262.8	32.7	-92.1	19.6
2025-01-25 20:45:18.538793	263.2	32.7	-92.2	15.6
2025-01-25 20:45:19.690871	263.7	32.8	-92.4	19.4
2025-01-25 20:45:20.854981	264.1	32.8	-92.5	17.8
2025-01-25 20:45:22.012162	264.5	32.8	-92.4	16.9
2025-01-25 20:45:23.179299	264.9	32.8	-92.1	17.5
2025-01-25 20:45:24.338030	265.4	32.8	-92.4	18.7
2025-01-25 20:45:25.497365	265.8	32.8	-92.6	15.9
2025-01-25 20:45:26.659724	266.2	32.8	-92.7	17.1
2025-01-25 20:45:27.825912	266.6	32.8	-92.8	20.2
2025-01-25 20:45:28.986238	267.1	32.8	-92.8	15.3
2025-01-25 20:45:30.147567	267.5	32.9	-92.5	18.6
2025-01-25 20:45:31.306643	267.9	32.9	-91.9	19.2
2025-01-25 20:45:32.470312	268.3	32.9	-92.8	11.5
2025-01-25 20:45:33.628972	268.8	32.9	-92.7	15.6
2025-01-25 20:45:34.797083	269.2	32.8	-92.7	18.3
2025-01-25 20:45:35.960535	269.6	32.8	-92.6	10.2
2025-01-25 20:45:37.122846	270.0	32.8	-92.4	15.5
2025-01-25 20:45:38.286311	270.5	32.8	-92.4	17.5
2025-01-25 20:45:39.448439	270.9	32.8	-92.3	12.1
2025-01-25 20:45:40.609683	271.3	32.8	-92.5	11.8
2025-01-25 20:45:41.769196	271.7	32.8	-92.7	13.7
2025-01-25 20:45:42.932654	272.1	32.8	-92.8	10.6
2025-01-25 20:45:44.099853	272.6	32.8	-92.8	11.6
2025-01-25 20:45:45.258180	273.0	32.7	-92.7	11.0
2025-01-25 20:45:46.418155	273.4	32.7	-92.6	9.3
2025-01-25 20:45:47.581656	273.8	32.7	-92.7	9.0
2025-01-25 20:45:48.744690	274.3	32.7	-92.4	7.4
2025-01-25 20:45:49.910014	274.7	32.7	-92.4	9.3
2025-01-25 20:45:51.075552	275.1	32.6	-92.4	12.9
2025-01-25 20:45:52.241532	275.5	32.6	-92.6	14.6
2025-01-25 20:45:53.408928	275.9	32.6	-92.8	7.3
2025-01-25 20:45:54.571274	276.4	32.5	-92.9	13.5
2025-01-25 20:45:55.729692	276.8	32.5	-92.9	9.8
2025-01-25 20:45:57.166952	277.3	32.5	-92.6	13.9
2025-01-25 20:45:58.332925	277.7	32.4	-92.4	13.2
2025-01-25 20:45:59.496999	278.1	32.4	-92.5	13.2
2025-01-25 20:46:00.647354	278.5	32.3	-92.7	11.2
2025-01-25 20:46:01.811224	278.9	32.3	-92.8	14.9
2025-01-25 20:46:02.972315	279.3	32.3	-92.7	14.0
2025-01-25 20:46:04.136949	279.8	32.2	-92.5	14.5
2025-01-25 20:46:05.292002	280.2	32.2	-92.5	14.8
2025-01-25 20:46:06.462983	280.6	32.1	-93.0	11.0
2025-01-25 20:46:07.632912	281.0	32.1	-93.2	10.8
2025-01-25 20:46:08.802176	281.4	32.0	-92.7	9.9
2025-01-25 20:46:09.948555	281.8	32.0	-93.0	8.1
2025-01-25 20:46:11.093131	282.2	31.9	-92.8	8.6
2025-01-25 20:46:12.215902	282.6	31.9	-92.6	11.2
2025-01-25 20:46:13.336512	283.0	31.8	-92.8	17.0
2025-01-25 20:46:14.457111	283.3	31.8	-92.3	10.5
2025-01-25 20:46:15.577670	283.7	31.7	-92.7	9.0
2025-01-25 20:46:16.698138	284.1	31.6	-93.2	7.7
2025-01-25 20:46:17.817632	284.5	31.6	-92.7	10.6
2025-01-25 20:46:18.937265	284.9	31.5	-92.7	9.7
2025-01-25 20:46:20.059088	285.2	31.5	-92.6	12.1
2025-01-25 20:46:21.186714	285.6	31.4	-92.6	10.7
2025-01-25 20:46:22.322102	286.0	31.3	-92.5	11.5
2025-01-25 20:46:23.485142	286.4	31.3	-92.6	9.3
2025-01-25 20:46:24.641010	286.8	31.2	-92.8	7.5
2025-01-25 20:46:25.802586	287.1	31.1	-92.8	12.5
2025-01-25 20:46:26.955865	287.5	31.1	-92.9	14.4
2025-01-25 20:46:28.118466	287.9	31.0	-92.8	11.2
2025-01-25 20:46:29.278195	288.3	30.9	-92.6	13.2
2025-01-25 20:46:30.444149	288.7	30.8	-92.6	12.2
2025-01-25 20:46:31.608672	289.0	30.8	-92.4	11.8
2025-01-25 20:46:32.768764	289.4	30.7	-92.6	14.7
2025-01-25 20:46:33.928489	289.8	30.6	-92.8	10.9
2025-01-25 20:46:35.082411	290.1	30.5	-92.6	10.3
2025-01-25 20:46:36.251724	290.5	30.4	-92.4	10.3
2025-01-25 20:46:37.411967	290.9	30.4	-92.6	16.7
2025-01-25 20:46:38.580463	291.3	30.3	-93.0	14.9
2025-01-25 20:46:39.741764	291.6	30.2	-92.9	19.5
2025-01-25 20:46:40.906819	292.0	30.1	-92.8	15.7
2025-01-25 20:46:42.070789	292.3	30.0	-92.9	15.1
2025-01-25 20:46:43.232034	292.7	29.9	-92.5	14.3
2025-01-25 20:46:44.399472	293.0	29.9	-92.7	15.9
2025-01-25 20:46:45.554340	293.4	29.8	-92.6	17.7
2025-01-25 20:46:46.720273	293.8	29.7	-92.6	15.8
2025-01-25 20:46:47.883181	294.1	29.6	-92.7	19.4
2025-01-25 20:46:49.044135	294.4	29.5	-92.6	15.3
2025-01-25 20:46:50.208590	294.8	29.4	-92.9	16.9
2025-01-25 20:46:51.369360	295.1	29.3	-92.9	12.4
2025-01-25 20:46:52.528238	295.5	29.2	-92.8	11.0
2025-01-25 20:46:53.691055	295.8	29.1	-92.8	10.7
2025-01-25 20:46:54.848759	296.2	29.0	-92.9	14.3
2025-01-25 20:46:56.009302	296.5	28.9	-92.9	9.1
2025-01-25 20:46:57.167073	296.8	28.8	-92.8	15.3
2025-01-25 20:46:58.330266	297.2	28.7	-92.7	11.2
2025-01-25 20:46:59.481205	297.5	28.6	-93.0	12.2
2025-01-25 20:47:00.622882	297.8	28.5	-92.7	6.8
2025-01-25 20:47:01.743546	298.1	28.4	-92.6	17.1
2025-01-25 20:47:02.865805	298.4	28.4	-92.6	9.0
2025-01-25 20:47:03.986933	298.7	28.3	-92.9	8.9
2025-01-25 20:47:05.107137	299.1	28.2	-92.7	7.6
2025-01-25 20:47:06.229313	299.4	28.1	-92.3	10.0
2025-01-25 20:47:07.349852	299.7	28.0	-92.7	12.2
2025-01-25 20:47:08.471303	300.0	27.9	-92.6	9.0
2025-01-25 20:47:09.595596	300.3	27.8	-92.7	7.4
2025-01-25 20:47:10.715707	300.6	27.7	-92.9	10.5
2025-01-25 20:47:11.878625	300.9	27.6	-92.9	8.9
2025-01-25 20:47:13.038121	301.2	27.5	-92.6	7.3
2025-01-25 20:47:14.194541	301.5	27.4	-92.4	12.2
2025-01-25 20:47:15.345781	301.8	27.2	-93.0	7.9
2025-01-25 20:47:16.507813	302.1	27.1	-92.8	12.9
2025-01-25 20:47:17.673264	302.4	27.0	-92.7	13.5
2025-01-25 20:47:18.839694	302.7	26.9	-92.9	16.6
2025-01-25 20:47:20.005738	303.0	26.8	-93.0	5.5
2025-01-25 20:47:21.165268	303.3	26.7	-92.7	10.4
2025-01-25 20:47:22.325483	303.6	26.6	-92.7	9.8
2025-01-25 20:47:23.487286	303.9	26.5	-92.9	14.8
2025-01-25 20:47:24.656018	304.2	26.4	-92.9	15.7
2025-01-25 20:47:25.815504	304.4	26.3	-92.8	19.1
2025-01-25 20:47:26.981542	304.7	26.2	-92.6	17.0
2025-01-25 20:47:28.146790	305.0	26.1	-92.8	12.2
2025-01-25 20:47:29.308835	305.3	26.0	-92.3	10.3
2025-01-25 20:47:30.469007	305.6	25.8	-92.7	14.3
2025-01-25 20:47:31.628013	305.8	25.7	-92.9	14.0
2025-01-25 20:47:32.788948	306.1	25.6	-93.1	10.1
2025-01-25 20:47:33.946607	306.4	25.5	-92.8	12.7
2025-01-25 20:47:35.106304	306.7	25.4	-92.5	12.3
2025-01-25 20:47:36.278073	306.9	25.3	-92.9	16.7
2025-01-25 20:47:37.436077	307.2	25.2	-92.9	11.7
2025-01-25 20:47:38.597451	307.5	25.1	-93.0	15.4
2025-01-25 20:47:39.761472	307.7	25.0	-93.1	16.7
2025-01-25 20:47:40.921101	308.0	24.8	-92.9	7.1
2025-01-25 20:47:42.089532	308.2	24.7	-92.7	7.9
2025-01-25 20:47:43.258993	308.5	24.6	-92.7	10.3
2025-01-25 20:47:44.415955	308.8	24.5	-92.9	10.7
2025-01-25 20:47:45.578361	309.0	24.4	-92.6	9.9
2025-01-25 20:47:46.736752	309.3	24.3	-92.7	9.1
2025-01-25 20:47:47.898232	309.5	24.2	-92.9	9.8
2025-01-25 20:47:49.058058	309.8	24.1	-93.0	9.6
2025-01-25 20:47:50.225639	310.0	24.0	-92.8	16.4
2025-01-25 20:47:51.385973	310.3	23.8	-92.9	9.8
2025-01-25 20:47:52.550824	310.5	23.7	-92.8	9.3
2025-01-25 20:47:53.714867	310.8	23.6	-92.8	9.1
2025-01-25 20:47:54.882757	311.0	23.5	-92.7	9.2
2025-01-25 20:47:56.048397	311.2	23.4	-92.8	14.5
2025-01-25 20:47:57.215630	311.5	23.3	-92.9	8.5
2025-01-25 20:47:58.372979	311.7	23.2	-92.9	13.1
2025-01-25 20:47:59.527248	311.9	23.1	-93.2	7.7
2025-01-25 20:48:00.686587	312.2	22.9	-93.2	9.6
2025-01-25 20:48:01.820006	312.4	22.8	-92.8	11.1
2025-01-25 20:48:02.940247	312.6	22.7	-93.1	6.0
2025-01-25 20:48:04.061008	312.8	22.6	-92.9	7.5
2025-01-25 20:48:05.183323	313.1	22.5	-92.9	6.1
2025-01-25 20:48:06.303833	313.3	22.4	-92.7	6.6
2025-01-25 20:48:07.425351	313.5	22.3	-93.0	7.6
2025-01-25 20:48:08.545948	313.7	22.2	-93.1	6.2
2025-01-25 20:48:09.666555	313.9	22.1	-92.7	9.5
2025-01-25 20:48:10.791215	314.1	22.0	-93.0	5.5
2025-01-25 20:48:11.929623	314.3	21.9	-92.9	8.6
2025-01-25 20:48:13.085448	314.6	21.7	-92.5	4.1
2025-01-25 20:48:14.239058	314.8	21.6	-92.5	14.1
2025-01-25 20:48:15.400490	315.0	21.5	-92.3	6.0
2025-01-25 20:48:16.556147	315.2	21.4	-92.7	5.7
2025-01-25 20:48:17.717841	315.4	21.3	-92.9	11.1
2025-01-25 20:48:18.877206	315.6	21.2	-92.7	7.9
2025-01-25 20:48:20.004447	315.8	21.1	-93.1	6.0
2025-01-25 20:48:21.156104	316.0	21.0	-92.4	8.7
2025-01-25 20:48:22.303899	316.2	20.9	-92.8	6.3
2025-01-25 20:48:23.452455	316.4	20.7	-93.0	9.5
2025-01-25 20:48:24.612255	316.6	20.6	-93.1	5.9
2025-01-25 20:48:25.766589	316.8	20.5	-92.8	5.8
2025-01-25 20:48:26.921296	317.0	20.4	-93.0	3.6
2025-01-25 20:48:28.083600	317.2	20.3	-93.1	5.3
2025-01-25 20:48:29.242157	317.4	20.2	-92.9	2.7
2025-01-25 20:48:30.420995	317.6	20.1	-92.9	5.1
2025-01-25 20:48:31.585821	317.8	20.0	-92.8	3.5
2025-01-25 20:48:32.744432	318.0	19.9	-93.1	5.6
2025-01-25 20:48:33.905072	318.2	19.8	-92.9	4.2
2025-01-25 20:48:35.067740	318.4	19.6	-92.6	4.4
2025-01-25 20:48:36.232743	318.6	19.5	-92.4	4.3
2025-01-25 20:48:37.396088	318.8	19.4	-92.5	8.0
2025-01-25 20:48:38.561592	318.9	19.3	-92.9	5.6
2025-01-25 20:48:39.723939	319.1	19.2	-92.9	7.2
2025-01-25 20:48:40.883614	319.3	19.1	-93.3	8.4
2025-01-25 20:48:42.047730	319.5	19.0	-93.1	5.4
2025-01-25 20:48:43.209665	319.7	18.9	-92.8	3.4
2025-01-25 20:48:44.378245	319.9	18.8	-92.8	5.7
2025-01-25 20:48:45.533641	320.0	18.7	-92.9	3.7
2025-01-25 20:48:46.697966	320.2	18.6	-92.7	9.4
2025-01-25 20:48:47.847806	320.4	18.5	-92.9	5.1
2025-01-25 20:48:49.003245	320.6	18.3	-92.8	3.8
2025-01-25 20:48:50.157133	320.7	18.2	-92.8	6.8
2025-01-25 20:48:51.322149	320.9	18.1	-92.9	7.0
2025-01-25 20:48:52.480580	321.1	18.0	-93.1	3.2
2025-01-25 20:48:53.645155	321.2	17.9	-93.0	6.1
2025-01-25 20:48:54.810788	321.4	17.8	-92.8	6.2
2025-01-25 20:48:55.970304	321.6	17.7	-93.0	4.0
2025-01-25 20:48:57.132598	321.7	17.6	-92.7	6.8
2025-01-25 20:48:58.264691	321.9	17.5	-92.9	6.0
2025-01-25 20:48:59.385208	322.1	17.4	-92.7	3.1
2025-01-25 20:49:00.506856	322.2	17.3	-93.1	5.6
2025-01-25 20:49:01.627529	322.4	17.2	-93.2	5.3
2025-01-25 20:49:02.748795	322.5	17.1	-93.2	6.1
2025-01-25 20:49:03.869613	322.7	17.0	-93.0	9.8
2025-01-25 20:49:04.990307	322.8	16.9	-92.9	5.2
2025-01-25 20:49:06.111488	323.0	16.8	-92.8	10.6
2025-01-25 20:49:07.235933	323.1	16.7	-92.5	8.2
2025-01-25 20:49:08.367516	323.3	16.6	-92.8	6.5
2025-01-25 20:49:09.523607	323.5	16.5	-92.9	9.9
2025-01-25 20:49:10.683628	323.6	16.4	-93.0	5.8
2025-01-25 20:49:11.851785	323.8	16.3	-92.6	6.4
2025-01-25 20:49:12.997196	323.9	16.2	-92.9	5.4
2025-01-25 20:49:14.158281	324.1	16.1	-92.5	9.2
2025-01-25 20:49:15.318345	324.2	16.0	-92.6	5.6
2025-01-25 20:49:16.475139	324.4	15.9	-92.9	4.0
2025-01-25 20:49:17.639813	324.5	15.8	-92.9	11.1
2025-01-25 20:49:18.798763	324.7	15.7	-92.8	6.4
2025-01-25 20:49:19.961429	324.8	15.6	-92.7	11.7
2025-01-25 20:49:21.119394	324.9	15.5	-92.8	4.7
2025-01-25 20:49:22.282091	325.1	15.4	-92.6	4.7
2025-01-25 20:49:23.443307	325.2	15.3	-92.7	5.3
2025-01-25 20:49:24.604874	325.4	15.2	-92.4	6.1
2025-01-25 20:49:25.764231	325.5	15.1	-92.8	4.9
2025-01-25 20:49:26.926780	325.7	15.0	-92.7	4.9
2025-01-25 20:49:28.082134	325.8	14.9	-92.4	6.2
2025-01-25 20:49:29.251826	325.9	14.8	-92.3	4.7
2025-01-25 20:49:30.410585	326.1	14.7	-92.8	5.7
2025-01-25 20:49:31.558556	326.2	14.6	-92.7	5.1
#Closed at: 2025-01-25 20:41:42.931515