passes_logs/2025/01/25/LEX_Murmansk/LEX_Murmansk__20250125_065621_NOAA_19_rec.log

#Pass ID: 20250125_065621_NOAA 19
#Satellite: NOAA 19
#Configuration: NOAA 19
#Start time: 2025-01-25 06:56:16.889868

#LorettStation: 1.0.0 05.05.2024
#Station: LEX_Murmansk
#Location: 33.156738 lon 68.926811 lat
#TLE: 1 33591U 09005A   25024.13697735  .00000399  00000+0  23694-3 0  9996
#TLE: 2 33591  99.0181  87.9693 0014137  32.7659 327.4387 14.13267470822833

#Time	Az	El	Level	SNR
2025-01-25 06:56:39.198108	40.2	16.8	-91.0	0.6
2025-01-25 06:56:40.360124	40.3	16.9	-91.5	3.3
2025-01-25 06:56:41.523734	40.5	17.0	-91.5	3.1
2025-01-25 06:56:42.683646	40.7	17.1	-91.7	3.6
2025-01-25 06:56:43.833331	40.9	17.2	-91.4	2.5
2025-01-25 06:56:44.994573	41.0	17.3	-91.6	3.0
2025-01-25 06:56:46.156946	41.2	17.4	-91.5	4.4
2025-01-25 06:56:47.318033	41.4	17.5	-91.1	2.7
2025-01-25 06:56:48.482634	41.6	17.6	-90.1	2.4
2025-01-25 06:56:49.645751	41.8	17.7	-91.3	3.9
2025-01-25 06:56:50.809528	42.0	17.8	-91.4	2.7
2025-01-25 06:56:51.972433	42.2	17.9	-91.4	1.6
2025-01-25 06:56:53.133085	42.4	17.9	-91.4	2.3
2025-01-25 06:56:54.297969	42.5	18.0	-91.1	3.4
2025-01-25 06:56:55.459978	42.7	18.1	-91.2	1.8
2025-01-25 06:56:56.622085	42.9	18.2	-91.4	4.1
2025-01-25 06:56:57.786529	43.1	18.3	-91.0	3.7
2025-01-25 06:56:58.948150	43.3	18.4	-90.6	2.9
2025-01-25 06:57:00.113354	43.5	18.5	-90.9	1.8
2025-01-25 06:57:01.267265	43.7	18.6	-90.9	2.8
2025-01-25 06:57:02.433732	43.9	18.7	-90.4	7.8
2025-01-25 06:57:03.601324	44.1	18.8	-90.4	5.8
2025-01-25 06:57:04.767121	44.3	18.9	-90.6	3.3
2025-01-25 06:57:05.932514	44.5	19.0	-90.6	5.4
2025-01-25 06:57:07.101823	44.7	19.1	-90.6	4.3
2025-01-25 06:57:08.268983	44.9	19.2	-90.9	3.9
2025-01-25 06:57:09.425637	45.1	19.3	-91.0	6.7
2025-01-25 06:57:10.582368	45.4	19.4	-90.9	5.2
2025-01-25 06:57:11.744747	45.6	19.5	-90.9	5.4
2025-01-25 06:57:12.905965	45.8	19.6	-90.7	7.5
2025-01-25 06:57:14.067555	46.0	19.7	-90.5	7.4
2025-01-25 06:57:15.236678	46.2	19.8	-90.6	4.7
2025-01-25 06:57:16.401586	46.4	19.9	-90.4	1.9
2025-01-25 06:57:17.567683	46.6	20.0	-90.9	2.3
2025-01-25 06:57:18.728175	46.9	20.1	-90.5	0.8
2025-01-25 06:57:19.887778	47.1	20.2	-90.5	1.8
2025-01-25 06:57:21.050684	47.3	20.3	-90.7	4.5
2025-01-25 06:57:22.210896	47.5	20.4	-90.6	5.1
2025-01-25 06:57:23.377030	47.7	20.5	-90.5	5.8
2025-01-25 06:57:24.536866	48.0	20.6	-90.5	9.7
2025-01-25 06:57:25.703091	48.2	20.7	-90.5	9.1
2025-01-25 06:57:26.857471	48.4	20.8	-91.6	5.3
2025-01-25 06:57:28.019071	48.6	20.8	-91.0	5.6
2025-01-25 06:57:29.187244	48.9	20.9	-90.7	3.9
2025-01-25 06:57:30.351405	49.1	21.0	-90.7	4.0
2025-01-25 06:57:31.515388	49.3	21.1	-90.7	8.2
2025-01-25 06:57:32.679365	49.6	21.2	-90.9	8.2
2025-01-25 06:57:33.843891	49.8	21.3	-91.8	8.9
2025-01-25 06:57:35.000200	50.0	21.4	-91.8	10.3
2025-01-25 06:57:36.165348	50.3	21.5	-91.4	9.1
2025-01-25 06:57:37.329314	50.5	21.6	-90.2	7.0
2025-01-25 06:57:38.492665	50.8	21.7	-90.5	5.7
2025-01-25 06:57:39.660110	51.0	21.8	-90.6	2.1
2025-01-25 06:57:40.836642	51.2	21.9	-90.8	2.3
2025-01-25 06:57:41.993288	51.5	22.0	-90.9	1.3
2025-01-25 06:57:43.152581	51.7	22.1	-90.2	3.1
2025-01-25 06:57:44.314750	52.0	22.2	-90.7	3.1
2025-01-25 06:57:45.477591	52.2	22.3	-90.7	8.7
2025-01-25 06:57:46.644977	52.5	22.4	-90.6	8.9
2025-01-25 06:57:47.811641	52.7	22.5	-90.5	10.7
2025-01-25 06:57:48.975265	53.0	22.6	-90.6	12.1
2025-01-25 06:57:50.137789	53.2	22.7	-90.2	13.1
2025-01-25 06:57:51.303163	53.5	22.7	-90.4	8.0
2025-01-25 06:57:52.466850	53.8	22.8	-90.6	6.9
2025-01-25 06:57:53.631147	54.0	22.9	-90.7	7.5
2025-01-25 06:57:54.796607	54.3	23.0	-90.6	3.9
2025-01-25 06:57:55.963297	54.6	23.1	-90.7	7.8
2025-01-25 06:57:57.123031	54.8	23.2	-90.6	3.4
2025-01-25 06:57:58.289249	55.1	23.3	-91.0	8.6
2025-01-25 06:57:59.457180	55.4	23.4	-91.2	10.6
2025-01-25 06:58:00.615099	55.6	23.5	-90.8	10.1
2025-01-25 06:58:01.777486	55.9	23.6	-91.1	6.5
2025-01-25 06:58:02.938170	56.2	23.7	-91.0	5.2
2025-01-25 06:58:04.106410	56.4	23.8	-90.5	3.8
2025-01-25 06:58:05.269251	56.7	23.8	-90.3	2.2
2025-01-25 06:58:06.434063	57.0	23.9	-91.6	3.8
2025-01-25 06:58:07.597785	57.3	24.0	-91.6	2.5
2025-01-25 06:58:08.764388	57.5	24.1	-91.8	3.8
2025-01-25 06:58:09.929448	57.8	24.2	-92.0	5.5
2025-01-25 06:58:11.091421	58.1	24.3	-91.8	4.9
2025-01-25 06:58:12.249643	58.4	24.4	-91.7	7.3
2025-01-25 06:58:13.411704	58.7	24.5	-92.0	12.0
2025-01-25 06:58:14.577984	59.0	24.5	-92.0	11.8
2025-01-25 06:58:15.742068	59.3	24.6	-91.8	8.8
2025-01-25 06:58:16.906268	59.5	24.7	-91.6	5.2
2025-01-25 06:58:18.069135	59.8	24.8	-91.6	5.8
2025-01-25 06:58:19.234377	60.1	24.9	-91.4	5.9
2025-01-25 06:58:20.401907	60.4	25.0	-91.6	4.2
2025-01-25 06:58:21.564749	60.7	25.0	-91.7	7.7
2025-01-25 06:58:22.726676	61.0	25.1	-92.0	5.0
2025-01-25 06:58:23.885674	61.3	25.2	-91.8	7.9
2025-01-25 06:58:25.051865	61.6	25.3	-92.0	7.3
2025-01-25 06:58:26.216834	61.9	25.4	-91.9	9.1
2025-01-25 06:58:27.386384	62.2	25.5	-91.7	11.5
2025-01-25 06:58:28.550115	62.5	25.5	-91.9	8.8
2025-01-25 06:58:29.723030	62.9	25.6	-92.1	6.4
2025-01-25 06:58:30.889966	63.2	25.7	-91.6	3.9
2025-01-25 06:58:32.043856	63.5	25.8	-92.0	2.9
2025-01-25 06:58:33.210854	63.8	25.8	-91.6	0.7
2025-01-25 06:58:34.384483	64.1	25.9	-91.7	5.0
2025-01-25 06:58:35.547925	64.4	26.0	-92.0	1.9
2025-01-25 06:58:36.712518	64.7	26.1	-92.1	3.5
2025-01-25 06:58:37.881702	65.0	26.2	-91.6	3.5
2025-01-25 06:58:39.049127	65.4	26.2	-91.4	4.7
2025-01-25 06:58:40.212803	65.7	26.3	-91.7	2.9
2025-01-25 06:58:41.377601	66.0	26.4	-91.7	5.1
2025-01-25 06:58:42.539551	66.3	26.4	-92.0	2.0
2025-01-25 06:58:43.705455	66.7	26.5	-92.0	4.4
2025-01-25 06:58:44.869609	67.0	26.6	-91.6	5.7
2025-01-25 06:58:46.029442	67.3	26.7	-91.7	6.5
2025-01-25 06:58:47.197132	67.6	26.7	-91.7	1.9
2025-01-25 06:58:48.368583	68.0	26.8	-91.4	3.2
2025-01-25 06:58:49.531408	68.3	26.9	-91.6	2.2
2025-01-25 06:58:50.697190	68.6	26.9	-91.8	1.3
2025-01-25 06:58:51.856779	69.0	27.0	-91.9	3.2
2025-01-25 06:58:53.021318	69.3	27.0	-91.9	1.5
2025-01-25 06:58:54.186185	69.6	27.1	-91.7	3.0
2025-01-25 06:58:55.350129	70.0	27.2	-91.2	3.5
2025-01-25 06:58:56.514090	70.3	27.2	-91.7	5.2
2025-01-25 06:58:57.682786	70.7	27.3	-91.5	5.8
2025-01-25 06:58:58.847118	71.0	27.4	-91.8	0.7
2025-01-25 06:59:00.010460	71.3	27.4	-92.1	3.2
2025-01-25 06:59:01.168695	71.7	27.5	-91.8	1.9
2025-01-25 06:59:02.333487	72.0	27.5	-91.6	2.5
2025-01-25 06:59:03.495815	72.4	27.6	-91.3	5.3
2025-01-25 06:59:04.659505	72.7	27.6	-91.9	3.8
2025-01-25 06:59:05.829470	73.1	27.7	-91.8	2.3
2025-01-25 06:59:06.993965	73.4	27.7	-91.7	2.7
2025-01-25 06:59:08.158836	73.8	27.8	-91.5	5.2
2025-01-25 06:59:09.318974	74.1	27.8	-91.9	4.1
2025-01-25 06:59:10.487016	74.5	27.9	-92.0	1.3
2025-01-25 06:59:11.647425	74.8	27.9	-91.9	5.5
2025-01-25 06:59:12.807159	75.2	28.0	-91.8	7.8
2025-01-25 06:59:13.974367	75.6	28.0	-91.7	5.4
2025-01-25 06:59:15.135863	75.9	28.1	-91.5	6.3
2025-01-25 06:59:16.302332	76.3	28.1	-91.5	10.5
2025-01-25 06:59:17.467618	76.6	28.2	-91.5	9.2
2025-01-25 06:59:18.626939	77.0	28.2	-91.6	6.5
2025-01-25 06:59:19.793984	77.4	28.2	-91.8	10.0
2025-01-25 06:59:20.958354	77.7	28.3	-91.8	11.2
2025-01-25 06:59:22.120132	78.1	28.3	-91.9	10.7
2025-01-25 06:59:23.280419	78.4	28.4	-91.7	9.0
2025-01-25 06:59:24.445029	78.8	28.4	-90.8	8.8
2025-01-25 06:59:25.608678	79.2	28.4	-91.0	7.4
2025-01-25 06:59:26.770585	79.5	28.5	-90.9	8.8
2025-01-25 06:59:27.934459	79.9	28.5	-91.0	8.4
2025-01-25 06:59:29.102020	80.3	28.5	-91.2	8.1
2025-01-25 06:59:30.264033	80.6	28.6	-90.4	12.7
2025-01-25 06:59:31.430772	81.0	28.6	-91.7	8.6
2025-01-25 06:59:32.593678	81.4	28.6	-91.8	7.6
2025-01-25 06:59:33.751410	81.8	28.6	-91.9	13.6
2025-01-25 06:59:34.914018	82.1	28.7	-91.9	8.5
2025-01-25 06:59:36.074650	82.5	28.7	-91.8	8.0
2025-01-25 06:59:37.232301	82.9	28.7	-91.5	12.7
2025-01-25 06:59:38.396528	83.2	28.7	-91.5	11.0
2025-01-25 06:59:39.561072	83.6	28.7	-91.6	8.8
2025-01-25 06:59:40.724780	84.0	28.8	-91.7	13.1
2025-01-25 06:59:41.887961	84.4	28.8	-92.0	13.7
2025-01-25 06:59:43.047281	84.7	28.8	-92.0	12.7
2025-01-25 06:59:44.216110	85.1	28.8	-91.8	15.0
2025-01-25 06:59:45.381238	85.5	28.8	-91.8	13.5
2025-01-25 06:59:46.541185	85.9	28.8	-91.8	13.7
2025-01-25 06:59:47.702073	86.2	28.8	-91.8	12.7
2025-01-25 06:59:48.862282	86.6	28.9	-91.7	11.8
2025-01-25 06:59:50.030433	87.0	28.9	-91.6	12.9
2025-01-25 06:59:51.196039	87.4	28.9	-91.5	11.6
2025-01-25 06:59:52.358583	87.7	28.9	-91.5	12.9
2025-01-25 06:59:53.524586	88.1	28.9	-91.7	10.6
2025-01-25 06:59:54.703409	88.5	28.9	-91.9	10.9
2025-01-25 06:59:55.860329	88.9	28.9	-91.8	12.3
2025-01-25 06:59:57.026071	89.2	28.9	-91.8	8.2
2025-01-25 06:59:58.197504	89.6	28.9	-91.5	10.3
2025-01-25 06:59:59.367971	90.0	28.9	-91.7	11.1
2025-01-25 07:00:00.522672	90.4	28.9	-91.8	7.6
2025-01-25 07:00:01.687308	90.7	28.9	-91.8	12.7
2025-01-25 07:00:02.845280	91.1	28.9	-91.4	9.9
2025-01-25 07:00:04.014536	91.5	28.9	-91.1	2.5
2025-01-25 07:00:05.176985	91.9	28.8	-91.8	8.4
2025-01-25 07:00:06.342155	92.2	28.8	-91.8	8.0
2025-01-25 07:00:07.505075	92.6	28.8	-91.7	3.1
2025-01-25 07:00:08.668640	93.0	28.8	-91.8	8.6
2025-01-25 07:00:09.824892	93.4	28.8	-91.7	9.0
2025-01-25 07:00:10.984221	93.7	28.8	-91.8	4.2
2025-01-25 07:00:12.152332	94.1	28.8	-91.7	8.1
2025-01-25 07:00:13.309723	94.5	28.7	-91.9	7.7
2025-01-25 07:00:14.470061	94.9	28.7	-91.9	4.1
2025-01-25 07:00:15.634384	95.2	28.7	-92.0	4.0
2025-01-25 07:00:16.799799	95.6	28.7	-91.8	7.6
2025-01-25 07:00:17.966093	96.0	28.7	-91.8	4.6
2025-01-25 07:00:19.128321	96.3	28.6	-91.6	5.1
2025-01-25 07:00:20.293034	96.7	28.6	-91.6	7.9
2025-01-25 07:00:21.458895	97.1	28.6	-91.7	3.7
2025-01-25 07:00:22.622883	97.5	28.6	-92.1	1.8
2025-01-25 07:00:23.786198	97.8	28.5	-92.1	6.1
2025-01-25 07:00:24.947930	98.2	28.5	-92.0	4.7
2025-01-25 07:00:26.103500	98.6	28.5	-91.8	4.7
2025-01-25 07:00:27.269612	98.9	28.4	-91.6	8.2
2025-01-25 07:00:28.434881	99.3	28.4	-91.6	5.4
2025-01-25 07:00:29.604732	99.7	28.4	-91.9	6.3
2025-01-25 07:00:30.771469	100.0	28.3	-92.2	7.6
2025-01-25 07:00:31.940250	100.4	28.3	-92.1	5.6
2025-01-25 07:00:33.099357	100.7	28.2	-92.0	5.8
2025-01-25 07:00:34.263319	101.1	28.2	-91.9	7.0
2025-01-25 07:00:35.425411	101.5	28.2	-91.7	4.8
2025-01-25 07:00:36.589143	101.8	28.1	-91.9	3.7
2025-01-25 07:00:37.751924	102.2	28.1	-91.6	3.3
2025-01-25 07:00:38.913609	102.5	28.0	-91.9	2.2
2025-01-25 07:00:40.079156	102.9	28.0	-92.0	3.1
2025-01-25 07:00:41.242796	103.3	27.9	-92.0	7.5
2025-01-25 07:00:42.405417	103.6	27.9	-92.0	3.3
2025-01-25 07:00:43.567490	104.0	27.8	-91.8	2.3
2025-01-25 07:00:44.726281	104.3	27.8	-91.9	5.8
2025-01-25 07:00:45.891557	104.7	27.7	-92.3	7.4
2025-01-25 07:00:47.052807	105.0	27.7	-92.2	5.4
2025-01-25 07:00:48.213086	105.4	27.6	-92.2	4.9
2025-01-25 07:00:49.374651	105.7	27.6	-91.9	2.8
2025-01-25 07:00:50.543455	106.1	27.5	-92.0	4.5
2025-01-25 07:00:51.707025	106.4	27.5	-92.0	6.6
2025-01-25 07:00:52.867568	106.7	27.4	-91.8	5.8
2025-01-25 07:00:54.034557	107.1	27.3	-91.8	2.9
2025-01-25 07:00:55.196043	107.4	27.3	-91.6	4.6
2025-01-25 07:00:56.354820	107.8	27.2	-91.8	7.4
2025-01-25 07:00:57.516844	108.1	27.2	-91.8	5.8
2025-01-25 07:00:58.679385	108.4	27.1	-91.9	5.3
2025-01-25 07:00:59.843643	108.8	27.0	-91.8	3.4
2025-01-25 07:01:00.999125	109.1	27.0	-91.8	4.9
2025-01-25 07:01:02.160446	109.5	26.9	-91.7	4.2
2025-01-25 07:01:03.319267	109.8	26.8	-91.8	4.6
2025-01-25 07:01:04.482208	110.1	26.8	-91.6	3.9
2025-01-25 07:01:05.649546	110.4	26.7	-91.5	1.8
2025-01-25 07:01:06.810934	110.8	26.6	-91.6	1.7
2025-01-25 07:01:07.973823	111.1	26.6	-91.1	4.3
2025-01-25 07:01:09.136002	111.4	26.5	-91.3	0.8
2025-01-25 07:01:10.298341	111.7	26.4	-91.2	3.1
2025-01-25 07:01:11.463463	112.1	26.4	-91.6	3.7
2025-01-25 07:01:12.622700	112.4	26.3	-91.6	3.3
2025-01-25 07:01:13.785988	112.7	26.2	-91.5	2.5
2025-01-25 07:01:14.954227	113.0	26.1	-91.8	1.0
2025-01-25 07:01:16.221448	113.4	26.1	-91.6	4.3
2025-01-25 07:01:17.381270	113.7	26.0	-91.5	3.1
2025-01-25 07:01:18.544756	114.0	25.9	-91.5	2.7
2025-01-25 07:01:19.709450	114.3	25.8	-91.6	7.1
2025-01-25 07:01:20.871943	114.6	25.8	-91.6	5.7
2025-01-25 07:01:22.035053	114.9	25.7	-91.5	4.1
2025-01-25 07:01:23.194042	115.3	25.6	-91.3	7.0
2025-01-25 07:01:24.361217	115.6	25.5	-91.4	8.1
2025-01-25 07:01:25.517335	115.9	25.4	-91.4	5.2
2025-01-25 07:01:26.683624	116.2	25.4	-91.3	8.6
2025-01-25 07:01:27.849527	116.5	25.3	-91.4	9.3
2025-01-25 07:01:29.014420	116.8	25.2	-91.6	4.5
2025-01-25 07:01:30.178050	117.1	25.1	-91.7	7.1
2025-01-25 07:01:31.343983	117.4	25.0	-91.3	5.2
2025-01-25 07:01:32.503464	117.7	24.9	-91.6	4.6
2025-01-25 07:01:33.664765	118.0	24.9	-91.6	6.5
2025-01-25 07:01:34.842265	118.3	24.8	-91.5	4.4
2025-01-25 07:01:36.010280	118.5	24.7	-91.8	2.3
2025-01-25 07:01:37.169257	118.8	24.6	-91.5	3.8
2025-01-25 07:01:38.332292	119.1	24.5	-91.4	3.4
2025-01-25 07:01:39.499883	119.4	24.4	-91.6	3.0
2025-01-25 07:01:40.661854	119.7	24.4	-91.5	1.9
2025-01-25 07:01:41.827349	120.0	24.3	-91.5	6.3
2025-01-25 07:01:42.986365	120.3	24.2	-91.3	6.9
2025-01-25 07:01:44.150844	120.5	24.1	-91.1	6.6
2025-01-25 07:01:45.317032	120.8	24.0	-91.4	11.4
2025-01-25 07:01:46.482512	121.1	23.9	-91.4	7.2
2025-01-25 07:01:47.649168	121.4	23.8	-91.6	6.0
2025-01-25 07:01:48.817091	121.7	23.7	-90.7	8.3
2025-01-25 07:01:49.981526	121.9	23.6	-90.6	9.0
2025-01-25 07:01:51.149630	122.2	23.6	-90.4	10.1
2025-01-25 07:01:52.313447	122.5	23.5	-90.4	11.1
2025-01-25 07:01:53.475303	122.7	23.4	-91.1	8.6
2025-01-25 07:01:54.636267	123.0	23.3	-91.1	9.6
2025-01-25 07:01:55.803710	123.3	23.2	-92.0	9.2
2025-01-25 07:01:56.961287	123.5	23.1	-91.9	6.2
2025-01-25 07:01:58.105148	123.8	23.0	-92.1	6.4
2025-01-25 07:01:59.265383	124.1	22.9	-91.8	10.1
2025-01-25 07:02:00.434008	124.3	22.8	-92.0	8.3
2025-01-25 07:02:01.593829	124.6	22.7	-92.0	6.6
2025-01-25 07:02:02.753390	124.8	22.6	-92.0	12.1
2025-01-25 07:02:03.917365	125.1	22.5	-91.9	7.9
2025-01-25 07:02:05.074944	125.3	22.4	-92.0	8.3
2025-01-25 07:02:06.242871	125.6	22.4	-91.5	11.8
2025-01-25 07:02:07.394273	125.8	22.3	-91.9	6.8
2025-01-25 07:02:08.562003	126.1	22.2	-92.0	7.5
2025-01-25 07:02:09.719105	126.3	22.1	-91.8	10.2
2025-01-25 07:02:10.884391	126.6	22.0	-91.8	9.1
2025-01-25 07:02:12.049306	126.8	21.9	-91.7	7.9
2025-01-25 07:02:13.204285	127.1	21.8	-91.8	12.0
2025-01-25 07:02:14.372548	127.3	21.7	-91.9	9.7
2025-01-25 07:02:15.527504	127.6	21.6	-91.5	6.2
2025-01-25 07:02:16.693174	127.8	21.5	-91.9	10.9
2025-01-25 07:02:17.852248	128.0	21.4	-91.9	9.3
2025-01-25 07:02:19.022077	128.3	21.3	-91.9	8.0
2025-01-25 07:02:20.182338	128.5	21.2	-92.1	11.3
2025-01-25 07:02:21.350584	128.7	21.1	-92.0	12.8
2025-01-25 07:02:22.510938	129.0	21.0	-91.8	13.6
2025-01-25 07:02:23.669459	129.2	20.9	-92.0	14.6
2025-01-25 07:02:24.831052	129.4	20.8	-92.0	13.4
2025-01-25 07:02:25.993745	129.7	20.7	-92.0	12.7
2025-01-25 07:02:27.161409	129.9	20.6	-91.8	11.5
2025-01-25 07:02:28.320737	130.1	20.5	-91.9	12.0
2025-01-25 07:02:29.482511	130.3	20.4	-92.2	10.1
2025-01-25 07:02:30.643862	130.6	20.3	-92.1	7.6
2025-01-25 07:02:31.805484	130.8	20.3	-92.2	12.3
2025-01-25 07:02:32.957994	131.0	20.2	-91.9	6.9
2025-01-25 07:02:34.128377	131.2	20.1	-91.9	6.9
2025-01-25 07:02:35.288257	131.4	20.0	-92.1	10.4
2025-01-25 07:02:36.449017	131.6	19.9	-92.2	6.6
2025-01-25 07:02:37.607406	131.9	19.8	-92.2	7.2
2025-01-25 07:02:38.767482	132.1	19.7	-92.1	10.6
2025-01-25 07:02:39.928903	132.3	19.6	-92.0	3.6
2025-01-25 07:02:41.093048	132.5	19.5	-91.8	6.6
2025-01-25 07:02:42.260861	132.7	19.4	-91.8	12.0
2025-01-25 07:02:43.418736	132.9	19.3	-91.5	9.0
2025-01-25 07:02:44.576793	133.1	19.2	-91.8	9.8
2025-01-25 07:02:45.743993	133.3	19.1	-92.2	11.2
2025-01-25 07:02:46.909178	133.5	19.0	-92.2	10.0
2025-01-25 07:02:48.074031	133.7	18.9	-92.2	10.1
2025-01-25 07:02:49.236643	133.9	18.8	-91.9	9.4
2025-01-25 07:02:50.397482	134.1	18.7	-92.0	9.9
2025-01-25 07:02:51.565036	134.3	18.6	-92.0	10.5
2025-01-25 07:02:52.725625	134.5	18.5	-92.0	9.9
2025-01-25 07:02:53.885254	134.7	18.4	-92.3	9.8
2025-01-25 07:02:55.046352	134.9	18.3	-92.1	6.8
2025-01-25 07:02:56.211006	135.1	18.2	-92.1	8.4
2025-01-25 07:02:57.375587	135.3	18.1	-92.0	8.1
2025-01-25 07:02:58.536581	135.5	18.0	-91.9	3.6
2025-01-25 07:02:59.704462	135.7	17.9	-92.1	8.6
2025-01-25 07:03:00.859509	135.9	17.8	-92.5	4.8
2025-01-25 07:03:02.021815	136.1	17.7	-92.3	3.9
2025-01-25 07:03:03.172345	136.3	17.6	-91.8	6.2
2025-01-25 07:03:04.335971	136.4	17.5	-91.6	7.1
2025-01-25 07:03:05.497333	136.6	17.5	-92.2	5.8
2025-01-25 07:03:06.662019	136.8	17.4	-92.4	5.8
2025-01-25 07:03:07.824312	137.0	17.3	-92.1	7.5
2025-01-25 07:03:08.987210	137.2	17.2	-91.9	6.3
2025-01-25 07:03:10.151231	137.4	17.1	-91.7	7.6
2025-01-25 07:03:11.311849	137.5	17.0	-91.8	5.3
2025-01-25 07:03:12.475503	137.7	16.9	-92.0	4.5
2025-01-25 07:03:13.633459	137.9	16.8	-91.8	4.4
2025-01-25 07:03:14.797358	138.1	16.7	-91.7	4.2
2025-01-25 07:03:15.958659	138.2	16.6	-91.7	3.7
2025-01-25 07:03:17.120984	138.4	16.5	-92.0	3.8
2025-01-25 07:03:18.283892	138.6	16.4	-92.0	0.7
2025-01-25 07:03:19.443237	138.8	16.3	-91.6	3.4
2025-01-25 07:03:20.601463	138.9	16.2	-92.1	2.4
2025-01-25 07:03:21.762927	139.1	16.1	-92.1	3.3
2025-01-25 07:03:22.923166	139.3	16.0	-92.1	5.1
2025-01-25 07:03:24.084657	139.4	15.9	-92.1	1.8
2025-01-25 07:03:25.248661	139.6	15.8	-91.9	1.6
2025-01-25 07:03:26.410444	139.8	15.7	-91.9	2.5
2025-01-25 07:03:27.573778	139.9	15.6	-91.9	0.6
2025-01-25 07:03:28.738258	140.1	15.6	-91.9	2.1
2025-01-25 07:03:29.903740	140.3	15.5	-91.9	2.2
2025-01-25 07:03:31.066827	140.4	15.4	-91.7	0.8
2025-01-25 07:03:32.334816	140.6	15.3	-91.7	1.8
2025-01-25 07:03:33.495562	140.8	15.2	-92.0	2.6
2025-01-25 07:03:34.653231	140.9	15.1	-91.9	2.3
2025-01-25 07:03:35.816715	141.1	15.0	-91.7	1.7
2025-01-25 07:03:36.980229	141.2	14.9	-92.1	2.6
2025-01-25 07:03:38.144476	141.4	14.8	-92.2	3.3
2025-01-25 07:03:39.312381	141.5	14.7	-92.2	3.1
2025-01-25 07:03:40.467022	141.7	14.6	-92.0	1.8
#Closed at: 2025-01-25 06:56:21.970752