passes_logs/2025/01/25/LEX_Murmansk/LEX_Murmansk__20250125_154045_NOAA_18_rec.log

#Pass ID: 20250125_154045_NOAA 18
#Satellite: NOAA 18
#Configuration: NOAA 18
#Start time: 2025-01-25 15:40:40.387292

#LorettStation: 1.0.0 05.05.2024
#Station: LEX_Murmansk
#Location: 33.156738 lon 68.926811 lat
#TLE: 1 28654U 05018A   25024.86051977  .00000457  00000+0  26618-3 0  9996
#TLE: 2 28654  98.8552 105.8163 0014791 151.8936 208.3038 14.13496337 14496

#Time	Az	El	Level	SNR
2025-01-25 15:40:52.500908	62.9	15.9	-91.9	11.0
2025-01-25 15:40:53.668049	62.7	16.0	-91.5	14.5
2025-01-25 15:40:54.832386	62.5	16.1	-91.9	10.5
2025-01-25 15:40:56.003242	62.4	16.2	-90.7	11.1
2025-01-25 15:40:57.165075	62.2	16.3	-90.1	11.4
2025-01-25 15:40:58.327834	62.0	16.4	-90.0	11.0
2025-01-25 15:40:59.497536	61.8	16.5	-90.7	6.0
2025-01-25 15:41:00.646165	61.7	16.6	-91.8	9.6
2025-01-25 15:41:01.812830	61.5	16.7	-91.8	11.6
2025-01-25 15:41:02.978669	61.3	16.8	-91.6	5.5
2025-01-25 15:41:04.134586	61.1	16.9	-91.2	8.9
2025-01-25 15:41:05.301101	60.9	17.0	-91.2	9.7
2025-01-25 15:41:06.462589	60.7	17.0	-91.3	12.2
2025-01-25 15:41:07.621707	60.5	17.1	-91.2	8.1
2025-01-25 15:41:08.775477	60.4	17.2	-91.3	12.7
2025-01-25 15:41:09.929404	60.2	17.3	-91.4	9.4
2025-01-25 15:41:11.054181	60.0	17.4	-91.4	11.4
2025-01-25 15:41:12.176243	59.8	17.5	-91.5	12.6
2025-01-25 15:41:13.298341	59.6	17.6	-91.3	16.1
2025-01-25 15:41:14.418921	59.4	17.7	-91.7	9.6
2025-01-25 15:41:15.538489	59.2	17.8	-91.4	9.5
2025-01-25 15:41:16.659938	59.0	17.8	-91.3	10.6
2025-01-25 15:41:17.779844	58.9	17.9	-91.7	13.0
2025-01-25 15:41:18.900653	58.7	18.0	-91.5	8.8
2025-01-25 15:41:20.026044	58.5	18.1	-91.7	8.2
2025-01-25 15:41:21.167547	58.3	18.2	-91.6	13.7
2025-01-25 15:41:22.324077	58.1	18.3	-91.6	15.8
2025-01-25 15:41:23.481632	57.9	18.4	-91.9	5.2
2025-01-25 15:41:24.650237	57.7	18.5	-91.9	12.6
2025-01-25 15:41:25.802839	57.5	18.6	-91.7	11.9
2025-01-25 15:41:26.966830	57.3	18.7	-92.0	12.1
2025-01-25 15:41:28.129219	57.0	18.8	-91.4	14.4
2025-01-25 15:41:29.290608	56.8	18.8	-91.7	12.6
2025-01-25 15:41:30.448402	56.6	18.9	-92.0	15.4
2025-01-25 15:41:31.614479	56.4	19.0	-91.6	14.6
2025-01-25 15:41:32.773373	56.2	19.1	-91.6	7.3
2025-01-25 15:41:33.944354	56.0	19.2	-92.0	9.9
2025-01-25 15:41:35.102562	55.8	19.3	-91.6	9.5
2025-01-25 15:41:36.261421	55.5	19.4	-91.2	13.1
2025-01-25 15:41:37.384019	55.3	19.5	-92.0	13.4
2025-01-25 15:41:38.549573	55.1	19.6	-91.8	17.1
2025-01-25 15:41:39.697152	54.9	19.7	-91.7	13.1
2025-01-25 15:41:40.856407	54.7	19.7	-91.7	11.4
2025-01-25 15:41:42.014559	54.4	19.8	-91.5	7.4
2025-01-25 15:41:43.171474	54.2	19.9	-91.4	11.8
2025-01-25 15:41:44.331983	54.0	20.0	-91.5	8.3
2025-01-25 15:41:45.484836	53.8	20.1	-91.6	7.6
2025-01-25 15:41:46.647437	53.5	20.2	-91.8	11.7
2025-01-25 15:41:47.823266	53.3	20.3	-91.8	9.4
2025-01-25 15:41:48.991130	53.1	20.4	-91.7	8.2
2025-01-25 15:41:50.143671	52.8	20.5	-91.5	11.7
2025-01-25 15:41:51.306216	52.6	20.5	-91.7	17.4
2025-01-25 15:41:52.461208	52.4	20.6	-91.7	15.2
2025-01-25 15:41:53.625434	52.1	20.7	-92.1	15.5
2025-01-25 15:41:54.792035	51.9	20.8	-91.9	14.2
2025-01-25 15:41:55.960078	51.7	20.9	-91.6	11.3
2025-01-25 15:41:57.127451	51.4	21.0	-91.8	15.1
2025-01-25 15:41:58.294220	51.2	21.1	-90.7	10.0
2025-01-25 15:41:59.453175	50.9	21.2	-90.0	7.5
2025-01-25 15:42:00.589932	50.7	21.2	-90.8	12.3
2025-01-25 15:42:01.750016	50.4	21.3	-91.0	14.0
2025-01-25 15:42:02.915140	50.2	21.4	-91.4	16.3
2025-01-25 15:42:04.084416	49.9	21.5	-92.0	14.2
2025-01-25 15:42:05.242550	49.7	21.6	-91.4	14.1
2025-01-25 15:42:06.414449	49.4	21.7	-91.9	10.1
2025-01-25 15:42:07.575287	49.2	21.8	-91.9	8.0
2025-01-25 15:42:08.745742	48.9	21.8	-92.0	14.3
2025-01-25 15:42:09.895163	48.7	21.9	-91.8	8.0
2025-01-25 15:42:11.052146	48.4	22.0	-91.4	8.1
2025-01-25 15:42:12.208378	48.1	22.1	-91.7	11.4
2025-01-25 15:42:13.363613	47.9	22.2	-91.2	9.9
2025-01-25 15:42:14.510551	47.6	22.3	-91.7	14.0
2025-01-25 15:42:15.631683	47.4	22.3	-91.7	16.2
2025-01-25 15:42:16.752005	47.1	22.4	-89.8	12.4
2025-01-25 15:42:17.872116	46.9	22.5	-88.4	12.5
2025-01-25 15:42:18.992382	46.6	22.6	-91.4	12.5
2025-01-25 15:42:20.114674	46.3	22.7	-91.1	12.7
2025-01-25 15:42:21.235282	46.1	22.7	-91.8	13.1
2025-01-25 15:42:22.355838	45.8	22.8	-91.5	9.5
2025-01-25 15:42:23.475096	45.5	22.9	-91.1	9.1
2025-01-25 15:42:24.601355	45.3	23.0	-90.4	11.5
2025-01-25 15:42:25.753383	45.0	23.0	-91.0	15.7
2025-01-25 15:42:26.909124	44.7	23.1	-90.3	15.4
2025-01-25 15:42:28.066149	44.4	23.2	-91.2	15.9
2025-01-25 15:42:29.231529	44.2	23.3	-91.5	14.8
2025-01-25 15:42:30.379545	43.9	23.4	-91.2	14.3
2025-01-25 15:42:31.542755	43.6	23.4	-91.8	15.8
2025-01-25 15:42:32.702828	43.3	23.5	-91.8	13.8
2025-01-25 15:42:33.868933	43.0	23.6	-92.2	9.8
2025-01-25 15:42:35.031856	42.7	23.7	-92.3	6.9
2025-01-25 15:42:36.199298	42.5	23.7	-92.2	11.5
2025-01-25 15:42:37.358237	42.2	23.8	-92.3	5.1
2025-01-25 15:42:38.521056	41.9	23.9	-92.4	5.4
2025-01-25 15:42:39.681406	41.6	23.9	-88.2	8.3
2025-01-25 15:42:40.840739	41.3	24.0	-92.3	13.0
2025-01-25 15:42:42.006181	41.0	24.1	-92.4	12.9
2025-01-25 15:42:43.168936	40.7	24.2	-92.1	12.0
2025-01-25 15:42:44.333257	40.4	24.2	-92.1	13.6
2025-01-25 15:42:45.515090	40.1	24.3	-92.4	17.1
2025-01-25 15:42:46.681017	39.8	24.4	-91.9	16.1
2025-01-25 15:42:47.838296	39.5	24.4	-92.3	16.2
2025-01-25 15:42:48.997192	39.2	24.5	-92.4	11.2
2025-01-25 15:42:50.159163	38.9	24.6	-91.9	17.4
2025-01-25 15:42:51.326472	38.6	24.6	-92.1	17.4
2025-01-25 15:42:52.490745	38.3	24.7	-92.1	9.4
2025-01-25 15:42:53.660561	37.9	24.8	-92.5	15.1
2025-01-25 15:42:54.819817	37.6	24.8	-92.2	13.6
2025-01-25 15:42:55.979512	37.3	24.9	-92.4	11.8
2025-01-25 15:42:57.144860	37.0	24.9	-92.3	16.3
2025-01-25 15:42:58.305406	36.7	25.0	-92.1	15.5
2025-01-25 15:42:59.470179	36.4	25.1	-92.3	15.5
2025-01-25 15:43:00.625035	36.1	25.1	-92.1	14.3
2025-01-25 15:43:01.789547	35.8	25.2	-92.2	14.1
2025-01-25 15:43:02.951510	35.4	25.2	-92.2	12.4
2025-01-25 15:43:04.114729	35.1	25.3	-92.0	13.8
2025-01-25 15:43:05.280806	34.8	25.3	-91.9	13.6
2025-01-25 15:43:06.446480	34.5	25.4	-92.2	8.9
2025-01-25 15:43:07.608325	34.1	25.5	-92.4	11.4
2025-01-25 15:43:08.776691	33.8	25.5	-92.3	13.7
2025-01-25 15:43:09.944643	33.5	25.6	-92.2	6.5
2025-01-25 15:43:11.100845	33.2	25.6	-92.1	7.6
2025-01-25 15:43:12.276330	32.8	25.7	-92.0	6.9
2025-01-25 15:43:13.437365	32.5	25.7	-92.0	7.3
2025-01-25 15:43:14.604684	32.2	25.8	-92.4	9.8
2025-01-25 15:43:15.765922	31.8	25.8	-92.3	12.9
2025-01-25 15:43:16.922016	31.5	25.9	-92.0	12.8
2025-01-25 15:43:18.087821	31.2	25.9	-92.2	13.0
2025-01-25 15:43:19.250562	30.8	25.9	-92.5	16.0
2025-01-25 15:43:20.410526	30.5	26.0	-92.7	13.7
2025-01-25 15:43:21.576652	30.2	26.0	-92.3	11.0
2025-01-25 15:43:22.742366	29.8	26.1	-91.7	11.0
2025-01-25 15:43:23.904927	29.5	26.1	-92.1	8.6
2025-01-25 15:43:25.068116	29.2	26.2	-92.2	11.5
2025-01-25 15:43:26.236041	28.8	26.2	-92.5	13.8
2025-01-25 15:43:27.400399	28.5	26.2	-92.8	10.9
2025-01-25 15:43:28.566174	28.1	26.3	-92.6	9.0
2025-01-25 15:43:29.727284	27.8	26.3	-92.5	14.6
2025-01-25 15:43:30.892619	27.5	26.3	-92.4	8.5
2025-01-25 15:43:32.051014	27.1	26.4	-92.3	8.2
2025-01-25 15:43:33.208903	26.8	26.4	-92.4	12.4
2025-01-25 15:43:34.370945	26.4	26.4	-92.2	9.7
2025-01-25 15:43:35.532334	26.1	26.5	-87.6	3.9
2025-01-25 15:43:36.697214	25.7	26.5	-87.0	6.9
2025-01-25 15:43:37.867818	25.4	26.5	-87.6	11.2
2025-01-25 15:43:39.029107	25.0	26.5	-88.9	9.8
2025-01-25 15:43:40.190114	24.7	26.6	-88.0	9.1
2025-01-25 15:43:41.350285	24.3	26.6	-92.5	15.5
2025-01-25 15:43:42.510360	24.0	26.6	-92.7	14.3
2025-01-25 15:43:43.678426	23.7	26.6	-92.6	12.3
2025-01-25 15:43:44.837729	23.3	26.6	-92.5	12.0
2025-01-25 15:43:46.003790	23.0	26.7	-92.2	10.7
2025-01-25 15:43:47.168679	22.6	26.7	-92.1	16.1
2025-01-25 15:43:48.331765	22.3	26.7	-92.0	15.7
2025-01-25 15:43:49.494493	21.9	26.7	-92.1	11.1
2025-01-25 15:43:50.648810	21.6	26.7	-92.4	14.2
2025-01-25 15:43:51.811093	21.2	26.7	-92.5	14.6
2025-01-25 15:43:52.973492	20.8	26.8	-92.6	8.6
2025-01-25 15:43:54.138614	20.5	26.8	-92.3	12.3
2025-01-25 15:43:55.309420	20.1	26.8	-92.4	11.1
2025-01-25 15:43:56.476013	19.8	26.8	-92.2	5.7
2025-01-25 15:43:57.631488	19.4	26.8	-92.6	13.1
2025-01-25 15:43:58.761235	19.1	26.8	-92.3	10.6
2025-01-25 15:43:59.884473	18.8	26.8	-92.6	6.0
2025-01-25 15:44:01.005657	18.4	26.8	-92.2	5.7
2025-01-25 15:44:02.126920	18.1	26.8	-91.9	9.8
2025-01-25 15:44:03.248020	17.7	26.8	-92.1	11.4
2025-01-25 15:44:04.368733	17.4	26.8	-92.2	9.3
2025-01-25 15:44:05.491131	17.0	26.8	-92.4	10.0
2025-01-25 15:44:06.612226	16.7	26.8	-92.0	10.8
2025-01-25 15:44:07.737186	16.4	26.8	-92.5	12.7
2025-01-25 15:44:08.869385	16.0	26.8	-92.4	12.9
2025-01-25 15:44:09.994350	15.7	26.8	-92.4	10.9
2025-01-25 15:44:11.149560	15.3	26.8	-92.3	14.0
2025-01-25 15:44:12.299682	15.0	26.8	-92.5	12.9
2025-01-25 15:44:13.451687	14.6	26.8	-92.4	11.8
2025-01-25 15:44:14.605296	14.3	26.8	-92.0	8.0
2025-01-25 15:44:15.762697	13.9	26.7	-92.0	11.6
2025-01-25 15:44:16.923037	13.6	26.7	-90.5	9.2
2025-01-25 15:44:18.086506	13.2	26.7	-89.3	9.7
2025-01-25 15:44:19.246523	12.9	26.7	-90.3	11.6
2025-01-25 15:44:20.408444	12.5	26.7	-92.4	10.6
2025-01-25 15:44:21.567179	12.2	26.7	-92.4	11.3
2025-01-25 15:44:22.723348	11.8	26.7	-92.0	10.1
2025-01-25 15:44:23.888553	11.5	26.6	-92.4	8.3
2025-01-25 15:44:25.055273	11.1	26.6	-92.4	9.0
2025-01-25 15:44:26.216294	10.8	26.6	-92.5	11.2
2025-01-25 15:44:27.393938	10.4	26.6	-92.5	9.7
2025-01-25 15:44:28.557048	10.1	26.5	-92.4	10.4
2025-01-25 15:44:29.718064	9.7	26.5	-92.1	14.5
2025-01-25 15:44:30.876434	9.4	26.5	-92.1	10.4
2025-01-25 15:44:32.047992	9.0	26.5	-92.4	10.0
2025-01-25 15:44:33.223519	8.7	26.4	-92.3	12.5
2025-01-25 15:44:34.389933	8.3	26.4	-91.7	7.5
2025-01-25 15:44:35.552017	8.0	26.4	-92.1	8.7
2025-01-25 15:44:36.722538	7.7	26.3	-92.5	9.5
2025-01-25 15:44:37.875643	7.3	26.3	-92.3	9.0
2025-01-25 15:44:39.043358	7.0	26.3	-91.1	4.9
2025-01-25 15:44:40.202612	6.6	26.2	-91.2	8.4
2025-01-25 15:44:41.362814	6.3	26.2	-90.4	7.9
2025-01-25 15:44:42.520810	6.0	26.2	-90.6	7.5
2025-01-25 15:44:43.685936	5.6	26.1	-90.4	10.3
2025-01-25 15:44:44.853280	5.3	26.1	-91.1	6.9
2025-01-25 15:44:46.010220	4.9	26.0	-92.5	6.4
2025-01-25 15:44:47.172266	4.6	26.0	-92.3	13.1
2025-01-25 15:44:48.334965	4.3	26.0	-92.0	11.0
2025-01-25 15:44:49.503342	3.9	25.9	-92.2	7.7
2025-01-25 15:44:50.658782	3.6	25.9	-92.5	14.2
2025-01-25 15:44:51.827261	3.3	25.8	-92.4	12.1
2025-01-25 15:44:52.990330	2.9	25.8	-92.4	7.8
2025-01-25 15:44:54.152026	2.6	25.7	-92.3	8.8
2025-01-25 15:44:55.321659	2.3	25.7	-92.2	12.2
2025-01-25 15:44:56.483872	1.9	25.6	-92.2	8.6
2025-01-25 15:44:57.650280	1.6	25.6	-92.5	13.0
2025-01-25 15:44:58.808244	1.3	25.5	-92.2	14.9
2025-01-25 15:44:59.975392	1.0	25.5	-92.0	8.5
2025-01-25 15:45:01.124547	0.6	25.4	-92.1	11.1
2025-01-25 15:45:02.287622	0.3	25.4	-92.0	14.3
2025-01-25 15:45:03.450380	0.0	25.3	-91.7	6.8
2025-01-25 15:45:04.619209	359.7	25.2	-92.0	14.8
2025-01-25 15:45:05.780295	359.4	25.2	-92.2	15.4
2025-01-25 15:45:06.941358	359.0	25.1	-92.3	9.3
2025-01-25 15:45:08.103180	358.7	25.1	-92.4	11.6
2025-01-25 15:45:09.263144	358.4	25.0	-92.3	16.8
2025-01-25 15:45:10.429334	358.1	25.0	-92.2	8.1
2025-01-25 15:45:11.595248	357.8	24.9	-91.9	9.6
2025-01-25 15:45:12.755015	357.5	24.8	-91.6	16.6
2025-01-25 15:45:13.919417	357.2	24.8	-91.5	9.4
2025-01-25 15:45:15.089250	356.8	24.7	-92.2	13.0
2025-01-25 15:45:16.248370	356.5	24.6	-92.1	18.1
2025-01-25 15:45:17.409250	356.2	24.6	-92.3	11.2
2025-01-25 15:45:18.562357	355.9	24.5	-92.5	12.2
2025-01-25 15:45:19.728459	355.6	24.4	-92.3	16.0
2025-01-25 15:45:20.884006	355.3	24.4	-92.0	11.4
2025-01-25 15:45:22.047827	355.0	24.3	-92.4	9.4
2025-01-25 15:45:23.218566	354.7	24.2	-92.1	13.0
2025-01-25 15:45:24.379471	354.4	24.2	-92.1	11.3
2025-01-25 15:45:25.544308	354.1	24.1	-92.3	12.1
2025-01-25 15:45:26.704480	353.8	24.0	-92.2	18.3
2025-01-25 15:45:27.865517	353.5	24.0	-92.3	12.7
2025-01-25 15:45:29.026840	353.2	23.9	-92.4	16.2
2025-01-25 15:45:30.185053	352.9	23.8	-92.0	16.2
2025-01-25 15:45:31.347660	352.6	23.7	-92.1	14.1
2025-01-25 15:45:32.515456	352.4	23.7	-92.2	14.9
2025-01-25 15:45:33.676153	352.1	23.6	-92.4	16.6
2025-01-25 15:45:34.845075	351.8	23.5	-92.3	15.0
2025-01-25 15:45:36.008344	351.5	23.4	-92.2	13.7
2025-01-25 15:45:37.168791	351.2	23.4	-92.2	15.4
2025-01-25 15:45:38.335498	350.9	23.3	-92.3	14.1
2025-01-25 15:45:39.495160	350.6	23.2	-92.3	16.4
2025-01-25 15:45:40.660014	350.4	23.1	-92.2	19.1
2025-01-25 15:45:41.817069	350.1	23.1	-92.1	17.2
2025-01-25 15:45:42.980938	349.8	23.0	-92.0	17.0
2025-01-25 15:45:44.142810	349.5	22.9	-92.0	15.1
2025-01-25 15:45:45.304936	349.3	22.8	-92.4	16.1
2025-01-25 15:45:46.464368	349.0	22.7	-92.6	12.2
2025-01-25 15:45:47.631059	348.7	22.7	-92.6	12.7
2025-01-25 15:45:48.791251	348.4	22.6	-92.6	12.6
2025-01-25 15:45:49.960417	348.2	22.5	-92.3	11.4
2025-01-25 15:45:51.119230	347.9	22.4	-92.3	10.6
2025-01-25 15:45:52.283277	347.6	22.3	-92.3	10.8
2025-01-25 15:45:53.450465	347.4	22.2	-92.3	10.1
2025-01-25 15:45:54.614557	347.1	22.2	-92.2	10.7
2025-01-25 15:45:55.779054	346.8	22.1	-92.6	7.1
2025-01-25 15:45:56.936828	346.6	22.0	-92.5	6.3
2025-01-25 15:45:58.099373	346.3	21.9	-92.5	8.7
2025-01-25 15:45:59.261834	346.1	21.8	-92.5	14.2
2025-01-25 15:46:00.414571	345.8	21.7	-92.3	8.4
2025-01-25 15:46:01.575608	345.6	21.7	-92.3	11.8
2025-01-25 15:46:02.742811	345.3	21.6	-92.6	15.8
2025-01-25 15:46:03.904890	345.0	21.5	-92.5	9.4
2025-01-25 15:46:05.069906	344.8	21.4	-92.1	10.3
2025-01-25 15:46:06.228541	344.5	21.3	-92.0	10.5
2025-01-25 15:46:07.387360	344.3	21.2	-92.4	6.3
2025-01-25 15:46:08.555400	344.1	21.1	-92.5	10.1
2025-01-25 15:46:09.717223	343.8	21.0	-92.1	11.0
2025-01-25 15:46:10.883112	343.6	21.0	-92.4	5.0
2025-01-25 15:46:12.036796	343.3	20.9	-92.3	12.7
2025-01-25 15:46:13.199300	343.1	20.8	-92.0	12.9
2025-01-25 15:46:14.354689	342.8	20.7	-92.2	6.6
2025-01-25 15:46:15.510017	342.6	20.6	-92.5	4.0
2025-01-25 15:46:16.631446	342.4	20.5	-92.4	6.5
2025-01-25 15:46:17.752088	342.2	20.4	-92.4	4.9
2025-01-25 15:46:18.872746	341.9	20.4	-92.1	2.5
2025-01-25 15:46:19.993163	341.7	20.3	-92.2	7.3
2025-01-25 15:46:21.117631	341.5	20.2	-92.3	5.5
2025-01-25 15:46:22.237724	341.3	20.1	-92.0	3.4
2025-01-25 15:46:23.358552	341.0	20.0	-92.4	8.4
2025-01-25 15:46:24.480066	340.8	19.9	-92.2	5.8
2025-01-25 15:46:25.605476	340.6	19.8	-92.6	4.8
2025-01-25 15:46:26.744138	340.4	19.7	-92.1	6.3
2025-01-25 15:46:27.904178	340.2	19.7	-92.4	4.0
2025-01-25 15:46:29.066857	339.9	19.6	-92.4	4.2
2025-01-25 15:46:30.230987	339.7	19.5	-92.0	4.2
2025-01-25 15:46:31.379063	339.5	19.4	-92.1	4.8
2025-01-25 15:46:32.535643	339.3	19.3	-92.5	2.8
2025-01-25 15:46:33.697676	339.1	19.2	-92.8	5.0
2025-01-25 15:46:34.863146	338.8	19.1	-92.5	2.6
2025-01-25 15:46:36.028533	338.6	19.0	-92.2	4.2
2025-01-25 15:46:37.183468	338.4	18.9	-92.5	3.8
2025-01-25 15:46:38.334697	338.2	18.8	-92.2	3.6
2025-01-25 15:46:39.462548	338.0	18.7	-92.5	6.0
2025-01-25 15:46:40.618782	337.8	18.7	-92.5	8.1
2025-01-25 15:46:41.755664	337.6	18.6	-92.3	7.5
2025-01-25 15:46:42.905349	337.4	18.5	-92.6	5.3
2025-01-25 15:46:44.062343	337.2	18.4	-92.4	7.8
2025-01-25 15:46:45.222639	337.0	18.3	-92.2	5.4
2025-01-25 15:46:46.381994	336.8	18.2	-92.3	4.3
2025-01-25 15:46:47.549345	336.6	18.1	-92.2	8.7
2025-01-25 15:46:48.707283	336.4	18.0	-91.9	5.0
2025-01-25 15:46:49.875137	336.2	17.9	-92.4	7.7
2025-01-25 15:46:51.035288	336.0	17.8	-92.7	4.7
2025-01-25 15:46:52.190215	335.8	17.7	-92.1	3.4
2025-01-25 15:46:53.352101	335.6	17.6	-92.4	4.8
2025-01-25 15:46:54.511960	335.4	17.6	-92.5	3.6
2025-01-25 15:46:55.677336	335.2	17.5	-92.7	4.4
2025-01-25 15:46:56.847802	335.0	17.4	-92.9	3.8
2025-01-25 15:46:58.008676	334.8	17.3	-92.4	5.2
2025-01-25 15:46:59.176705	334.6	17.2	-92.3	5.0
2025-01-25 15:47:00.331587	334.4	17.1	-92.4	5.0
2025-01-25 15:47:01.485592	334.2	17.0	-92.7	4.5
2025-01-25 15:47:02.659532	334.0	16.9	-92.3	4.7
2025-01-25 15:47:03.818247	333.9	16.8	-92.2	3.8
2025-01-25 15:47:04.985547	333.7	16.7	-92.8	4.2
2025-01-25 15:47:06.142555	333.5	16.6	-92.7	2.5
2025-01-25 15:47:07.306112	333.3	16.5	-92.6	3.4
2025-01-25 15:47:08.471312	333.1	16.5	-92.4	7.6
2025-01-25 15:47:09.634341	333.0	16.4	-92.6	4.7
2025-01-25 15:47:10.796942	332.8	16.3	-91.6	4.8
2025-01-25 15:47:11.950367	332.6	16.2	-92.5	4.7
2025-01-25 15:47:13.115964	332.4	16.1	-92.6	4.9
2025-01-25 15:47:14.279848	332.2	16.0	-92.1	4.1
2025-01-25 15:47:15.445111	332.1	15.9	-92.3	6.1
2025-01-25 15:47:16.610342	331.9	15.8	-92.6	5.7
2025-01-25 15:47:17.775439	331.7	15.7	-92.8	3.9
2025-01-25 15:47:18.934717	331.6	15.6	-92.3	5.4
2025-01-25 15:47:20.099768	331.4	15.5	-92.7	5.8
2025-01-25 15:47:21.260435	331.2	15.4	-92.7	5.6
2025-01-25 15:47:22.421199	331.0	15.4	-92.9	3.8
2025-01-25 15:47:23.587913	330.9	15.3	-92.8	5.2
2025-01-25 15:47:24.746734	330.7	15.2	-92.9	5.6
2025-01-25 15:47:25.909015	330.5	15.1	-92.7	3.8
2025-01-25 15:47:27.066940	330.4	15.0	-92.4	6.5
2025-01-25 15:47:28.226905	330.2	14.9	-92.2	10.3
2025-01-25 15:47:29.390033	330.1	14.8	-92.5	7.9
2025-01-25 15:47:30.552570	329.9	14.7	-92.4	10.5
2025-01-25 15:47:31.725506	329.7	14.6	-92.4	7.9
#Closed at: 2025-01-25 15:40:45.294393