passes_logs/2025/01/25/LEX_Murmansk/LEX_Murmansk__20250125_171939_NOAA_18_rec.log

#Pass ID: 20250125_171939_NOAA 18
#Satellite: NOAA 18
#Configuration: NOAA 18
#Start time: 2025-01-25 17:19:34.143243

#LorettStation: 1.0.0 05.05.2024
#Station: LEX_Murmansk
#Location: 33.156738 lon 68.926811 lat
#TLE: 1 28654U 05018A   25024.86051977  .00000457  00000+0  26618-3 0  9996
#TLE: 2 28654  98.8552 105.8163 0014791 151.8936 208.3038 14.13496337 14496

#Time	Az	El	Level	SNR
2025-01-25 17:19:46.270190	105.9	16.2	-92.0	7.5
2025-01-25 17:19:47.431718	105.8	16.3	-92.0	5.0
2025-01-25 17:19:48.592713	105.7	16.4	-92.0	6.4
2025-01-25 17:19:49.754949	105.6	16.5	-92.0	8.8
2025-01-25 17:19:50.925646	105.4	16.7	-92.1	10.6
2025-01-25 17:19:52.089133	105.3	16.8	-91.7	9.3
2025-01-25 17:19:53.246945	105.2	16.9	-91.7	8.8
2025-01-25 17:19:54.406276	105.1	17.0	-90.6	7.2
2025-01-25 17:19:55.572619	105.0	17.1	-90.5	8.6
2025-01-25 17:19:56.737694	104.9	17.3	-91.0	9.0
2025-01-25 17:19:57.901130	104.8	17.4	-90.9	8.3
2025-01-25 17:19:59.060707	104.7	17.5	-90.8	10.8
2025-01-25 17:20:00.220355	104.6	17.6	-90.4	8.5
2025-01-25 17:20:01.381737	104.4	17.8	-92.1	8.1
2025-01-25 17:20:02.544847	104.3	17.9	-92.3	5.2
2025-01-25 17:20:03.712683	104.2	18.0	-92.0	7.6
2025-01-25 17:20:04.869264	104.1	18.1	-92.0	6.0
2025-01-25 17:20:06.027933	104.0	18.2	-92.2	6.7
2025-01-25 17:20:07.207693	103.8	18.4	-91.9	8.8
2025-01-25 17:20:08.372090	103.7	18.5	-92.2	10.8
2025-01-25 17:20:09.537771	103.6	18.6	-92.0	10.0
2025-01-25 17:20:10.705371	103.5	18.8	-92.1	10.1
2025-01-25 17:20:11.870685	103.3	18.9	-92.2	8.6
2025-01-25 17:20:13.038874	103.2	19.0	-91.8	8.2
2025-01-25 17:20:14.197250	103.1	19.1	-91.9	12.3
2025-01-25 17:20:15.358918	103.0	19.3	-91.7	13.5
2025-01-25 17:20:16.524472	102.8	19.4	-91.7	12.5
2025-01-25 17:20:17.690556	102.7	19.5	-92.3	11.7
2025-01-25 17:20:18.855187	102.6	19.7	-92.0	7.3
2025-01-25 17:20:20.017300	102.4	19.8	-92.2	4.8
2025-01-25 17:20:21.180071	102.3	19.9	-91.8	11.2
2025-01-25 17:20:22.339013	102.2	20.0	-91.9	11.5
2025-01-25 17:20:23.484008	102.0	20.2	-92.0	10.6
2025-01-25 17:20:24.607008	101.9	20.3	-92.2	14.7
2025-01-25 17:20:25.726597	101.8	20.4	-92.2	12.6
2025-01-25 17:20:26.846890	101.6	20.6	-92.4	15.1
2025-01-25 17:20:27.967999	101.5	20.7	-92.3	12.0
2025-01-25 17:20:29.087848	101.4	20.8	-91.8	11.0
2025-01-25 17:20:30.208962	101.2	21.0	-92.2	15.7
2025-01-25 17:20:31.334518	101.1	21.1	-92.4	14.3
2025-01-25 17:20:32.460541	100.9	21.2	-92.2	13.8
2025-01-25 17:20:33.582995	100.8	21.3	-91.7	14.6
2025-01-25 17:20:34.744703	100.7	21.5	-92.2	14.6
2025-01-25 17:20:35.900005	100.5	21.6	-92.1	10.5
2025-01-25 17:20:37.056959	100.4	21.8	-92.2	7.5
2025-01-25 17:20:38.203795	100.2	21.9	-92.2	11.3
2025-01-25 17:20:39.374137	100.1	22.0	-92.2	6.3
2025-01-25 17:20:40.538882	99.9	22.2	-92.2	6.3
2025-01-25 17:20:41.706499	99.7	22.3	-92.3	11.8
2025-01-25 17:20:42.867169	99.6	22.5	-92.2	10.1
2025-01-25 17:20:44.020166	99.4	22.6	-91.9	12.9
2025-01-25 17:20:45.159157	99.3	22.7	-91.8	10.9
2025-01-25 17:20:46.289465	99.1	22.9	-92.2	12.4
2025-01-25 17:20:47.442906	98.9	23.0	-92.3	7.9
2025-01-25 17:20:48.589194	98.8	23.2	-92.1	8.6
2025-01-25 17:20:49.741935	98.6	23.3	-92.2	6.0
2025-01-25 17:20:50.897940	98.4	23.4	-92.4	5.0
2025-01-25 17:20:52.055174	98.3	23.6	-92.3	7.6
2025-01-25 17:20:53.216196	98.1	23.7	-92.0	5.7
2025-01-25 17:20:54.374322	97.9	23.9	-91.8	6.7
2025-01-25 17:20:55.535591	97.8	24.0	-92.2	4.8
2025-01-25 17:20:56.703552	97.6	24.2	-91.9	5.9
2025-01-25 17:20:57.864040	97.4	24.3	-92.0	4.4
2025-01-25 17:20:59.031238	97.2	24.5	-92.4	5.2
2025-01-25 17:21:00.187587	97.0	24.6	-92.3	5.5
2025-01-25 17:21:01.344091	96.9	24.8	-91.9	3.5
2025-01-25 17:21:02.510789	96.7	24.9	-92.3	4.6
2025-01-25 17:21:03.666749	96.5	25.1	-92.4	4.0
2025-01-25 17:21:04.820099	96.3	25.2	-92.0	4.6
2025-01-25 17:21:05.990642	96.1	25.4	-92.5	5.2
2025-01-25 17:21:07.156098	95.9	25.5	-92.2	5.8
2025-01-25 17:21:08.328300	95.7	25.7	-92.0	7.2
2025-01-25 17:21:09.481406	95.5	25.8	-92.2	6.1
2025-01-25 17:21:10.645652	95.3	26.0	-92.0	9.2
2025-01-25 17:21:11.808014	95.1	26.1	-92.0	9.1
2025-01-25 17:21:12.963571	94.9	26.3	-92.2	5.5
2025-01-25 17:21:14.126748	94.7	26.4	-92.2	8.0
2025-01-25 17:21:15.288290	94.5	26.6	-92.1	4.6
2025-01-25 17:21:16.451347	94.3	26.7	-92.1	4.6
2025-01-25 17:21:17.626200	94.1	26.9	-92.0	6.6
2025-01-25 17:21:18.779548	93.9	27.1	-92.4	7.1
2025-01-25 17:21:19.944118	93.7	27.2	-92.3	9.1
2025-01-25 17:21:21.106105	93.4	27.4	-90.9	10.4
2025-01-25 17:21:22.271643	93.2	27.5	-91.0	11.4
2025-01-25 17:21:23.434894	93.0	27.7	-90.8	7.9
2025-01-25 17:21:24.602210	92.8	27.9	-90.8	8.7
2025-01-25 17:21:25.764585	92.6	28.0	-91.0	9.5
2025-01-25 17:21:26.929851	92.3	28.2	-91.2	6.4
2025-01-25 17:21:28.089586	92.1	28.3	-90.8	9.9
2025-01-25 17:21:29.255040	91.9	28.5	-92.2	11.6
2025-01-25 17:21:30.411921	91.6	28.7	-92.1	11.9
2025-01-25 17:21:31.571601	91.4	28.8	-92.5	12.2
2025-01-25 17:21:32.738189	91.2	29.0	-92.4	12.7
2025-01-25 17:21:33.901106	90.9	29.1	-92.5	8.0
2025-01-25 17:21:35.067546	90.7	29.3	-92.2	5.0
2025-01-25 17:21:36.232357	90.4	29.5	-92.1	14.8
2025-01-25 17:21:37.396235	90.2	29.6	-92.0	8.6
2025-01-25 17:21:38.562519	89.9	29.8	-92.2	11.5
2025-01-25 17:21:39.721552	89.7	29.9	-91.9	16.6
2025-01-25 17:21:40.887851	89.4	30.1	-92.3	15.1
2025-01-25 17:21:42.049475	89.1	30.3	-92.4	18.1
2025-01-25 17:21:43.208561	88.9	30.4	-92.3	19.0
2025-01-25 17:21:44.365027	88.6	30.6	-92.4	16.7
2025-01-25 17:21:45.532112	88.3	30.8	-92.4	13.5
2025-01-25 17:21:46.692831	88.1	30.9	-92.4	18.2
2025-01-25 17:21:47.861493	87.8	31.1	-92.3	16.2
2025-01-25 17:21:49.025007	87.5	31.3	-92.5	13.2
2025-01-25 17:21:50.194175	87.2	31.4	-92.2	18.0
2025-01-25 17:21:51.359673	87.0	31.6	-92.2	13.6
2025-01-25 17:21:52.526024	86.7	31.8	-92.1	12.4
2025-01-25 17:21:53.689389	86.4	31.9	-92.3	17.2
2025-01-25 17:21:54.842405	86.1	32.1	-92.4	16.2
2025-01-25 17:21:56.008476	85.8	32.3	-92.3	17.1
2025-01-25 17:21:57.169246	85.5	32.4	-92.2	17.1
2025-01-25 17:21:58.331835	85.2	32.6	-92.2	19.4
2025-01-25 17:21:59.489136	84.9	32.8	-92.1	10.6
2025-01-25 17:22:00.647845	84.6	32.9	-92.3	14.0
2025-01-25 17:22:01.808508	84.3	33.1	-92.4	18.8
2025-01-25 17:22:02.984778	84.0	33.3	-92.2	6.8
2025-01-25 17:22:04.145060	83.6	33.4	-91.9	13.6
2025-01-25 17:22:05.304134	83.3	33.6	-92.2	14.5
2025-01-25 17:22:06.472228	83.0	33.7	-92.5	11.0
2025-01-25 17:22:07.627751	82.7	33.9	-92.6	17.4
2025-01-25 17:22:08.789794	82.4	34.1	-92.0	16.7
2025-01-25 17:22:09.953566	82.0	34.2	-92.4	18.2
2025-01-25 17:22:11.120927	81.7	34.4	-92.2	19.5
2025-01-25 17:22:12.283631	81.3	34.6	-91.9	13.6
2025-01-25 17:22:13.452486	81.0	34.7	-92.0	9.2
2025-01-25 17:22:14.611953	80.7	34.9	-92.0	12.2
2025-01-25 17:22:15.780982	80.3	35.1	-92.0	15.3
2025-01-25 17:22:16.944846	79.9	35.2	-92.4	10.1
2025-01-25 17:22:18.104806	79.6	35.4	-92.4	18.8
2025-01-25 17:22:19.271382	79.2	35.5	-92.2	21.2
2025-01-25 17:22:20.418391	78.9	35.7	-91.8	17.0
2025-01-25 17:22:21.576264	78.5	35.9	-92.2	13.4
2025-01-25 17:22:22.713597	78.1	36.0	-92.4	19.0
2025-01-25 17:22:23.835013	77.8	36.2	-92.3	17.8
2025-01-25 17:22:24.957108	77.4	36.3	-92.2	10.5
2025-01-25 17:22:26.077466	77.0	36.5	-92.3	10.3
2025-01-25 17:22:27.197832	76.7	36.6	-92.1	16.3
2025-01-25 17:22:28.319216	76.3	36.8	-92.1	16.9
2025-01-25 17:22:29.439618	75.9	36.9	-92.1	8.9
2025-01-25 17:22:30.560219	75.5	37.1	-92.3	9.8
2025-01-25 17:22:31.683598	75.1	37.2	-92.5	13.6
2025-01-25 17:22:32.818837	74.7	37.4	-92.1	16.8
2025-01-25 17:22:33.970827	74.3	37.5	-92.1	16.7
2025-01-25 17:22:35.123673	73.9	37.7	-92.0	19.4
2025-01-25 17:22:36.284739	73.5	37.8	-91.6	18.7
2025-01-25 17:22:37.442329	73.1	38.0	-92.0	20.0
2025-01-25 17:22:38.599766	72.7	38.1	-92.0	19.3
2025-01-25 17:22:39.764474	72.3	38.3	-92.1	13.7
2025-01-25 17:22:40.930219	71.8	38.4	-92.1	10.4
2025-01-25 17:22:42.092429	71.4	38.6	-91.7	13.7
2025-01-25 17:22:43.255646	70.9	38.7	-91.5	16.3
2025-01-25 17:22:44.425344	70.5	38.9	-92.0	12.8
2025-01-25 17:22:45.581126	70.1	39.0	-92.1	17.2
2025-01-25 17:22:46.745683	69.6	39.1	-92.1	20.8
2025-01-25 17:22:47.900025	69.2	39.3	-92.1	18.2
2025-01-25 17:22:49.034604	68.7	39.4	-91.9	20.1
2025-01-25 17:22:50.183350	68.2	39.5	-92.1	14.9
2025-01-25 17:22:51.338311	67.8	39.7	-92.0	15.9
2025-01-25 17:22:52.487542	67.3	39.8	-92.2	15.2
2025-01-25 17:22:53.642867	66.9	39.9	-91.9	18.4
2025-01-25 17:22:54.803022	66.4	40.1	-92.0	14.1
2025-01-25 17:22:55.963798	65.9	40.2	-92.1	10.0
2025-01-25 17:22:57.123162	65.4	40.3	-92.4	17.9
2025-01-25 17:22:58.284225	64.9	40.4	-91.9	13.9
2025-01-25 17:22:59.443661	64.4	40.5	-91.7	8.4
2025-01-25 17:23:00.598220	63.9	40.7	-92.0	11.9
2025-01-25 17:23:01.752022	63.4	40.8	-91.9	19.9
2025-01-25 17:23:02.918868	62.9	40.9	-92.0	14.2
2025-01-25 17:23:04.089208	62.4	41.0	-92.1	15.3
2025-01-25 17:23:05.260219	61.9	41.1	-92.1	20.0
2025-01-25 17:23:06.424460	61.4	41.2	-92.1	18.8
2025-01-25 17:23:07.589321	60.9	41.3	-92.2	18.5
2025-01-25 17:23:08.765949	60.4	41.4	-92.2	20.7
2025-01-25 17:23:09.926514	59.8	41.5	-91.2	17.1
2025-01-25 17:23:11.091300	59.3	41.6	-91.1	13.4
2025-01-25 17:23:12.260213	58.8	41.7	-90.5	17.3
2025-01-25 17:23:13.405385	58.2	41.8	-91.8	13.7
2025-01-25 17:23:14.567622	57.7	41.9	-92.0	12.9
2025-01-25 17:23:15.733130	57.2	42.0	-92.0	20.7
2025-01-25 17:23:16.888495	56.6	42.1	-91.9	11.6
2025-01-25 17:23:18.036024	56.1	42.2	-92.0	13.4
2025-01-25 17:23:19.165651	55.6	42.2	-91.6	14.1
2025-01-25 17:23:20.315620	55.0	42.3	-91.1	15.5
2025-01-25 17:23:21.452464	54.5	42.4	-91.3	13.7
2025-01-25 17:23:22.613302	53.9	42.5	-91.1	19.5
2025-01-25 17:23:23.774125	53.4	42.5	-90.4	13.7
2025-01-25 17:23:24.931563	52.8	42.6	-91.1	18.1
2025-01-25 17:23:26.093729	52.3	42.7	-91.8	15.3
2025-01-25 17:23:27.257109	51.7	42.7	-91.8	16.2
2025-01-25 17:23:28.419015	51.1	42.8	-91.4	16.6
2025-01-25 17:23:29.585798	50.6	42.8	-91.6	18.5
2025-01-25 17:23:30.708765	50.0	42.9	-92.1	17.7
2025-01-25 17:23:31.834186	49.4	42.9	-92.4	16.9
2025-01-25 17:23:32.998996	48.9	43.0	-92.3	15.9
2025-01-25 17:23:34.166094	48.3	43.0	-92.2	18.1
2025-01-25 17:23:35.323945	47.7	43.0	-92.2	17.4
2025-01-25 17:23:36.477070	47.1	43.1	-92.0	12.8
2025-01-25 17:23:37.640681	46.6	43.1	-92.1	20.0
2025-01-25 17:23:38.804419	46.0	43.1	-92.1	19.3
2025-01-25 17:23:39.968785	45.4	43.2	-92.0	10.0
2025-01-25 17:23:41.128449	44.8	43.2	-92.2	15.7
2025-01-25 17:23:42.295014	44.2	43.2	-92.1	18.8
2025-01-25 17:23:43.452757	43.7	43.2	-92.0	9.9
2025-01-25 17:23:44.622363	43.1	43.2	-92.3	17.1
2025-01-25 17:23:45.784902	42.5	43.2	-92.4	19.9
2025-01-25 17:23:46.955475	41.9	43.2	-92.5	12.5
2025-01-25 17:23:48.122180	41.3	43.2	-92.1	13.1
2025-01-25 17:23:49.286874	40.7	43.2	-92.3	19.0
2025-01-25 17:23:50.456043	40.1	43.2	-92.2	14.4
2025-01-25 17:23:51.620216	39.6	43.2	-92.5	18.3
2025-01-25 17:23:52.786789	39.0	43.2	-92.3	19.7
2025-01-25 17:23:53.947778	38.4	43.2	-92.2	18.2
2025-01-25 17:23:55.110007	37.8	43.2	-92.0	16.8
2025-01-25 17:23:56.275019	37.2	43.1	-92.1	17.1
2025-01-25 17:23:57.435398	36.7	43.1	-92.1	18.2
2025-01-25 17:23:58.599180	36.1	43.1	-92.2	20.9
2025-01-25 17:23:59.760952	35.5	43.1	-92.2	18.8
2025-01-25 17:24:00.917217	34.9	43.0	-92.2	22.2
2025-01-25 17:24:02.078087	34.3	43.0	-92.0	17.8
2025-01-25 17:24:03.239724	33.8	42.9	-92.0	18.9
2025-01-25 17:24:04.400396	33.2	42.9	-92.0	17.9
2025-01-25 17:24:05.559849	32.6	42.8	-92.8	18.2
2025-01-25 17:24:06.725769	32.1	42.8	-92.6	15.7
2025-01-25 17:24:07.888794	31.5	42.7	-92.5	20.2
2025-01-25 17:24:09.039316	30.9	42.7	-92.3	20.4
2025-01-25 17:24:10.201316	30.4	42.6	-92.5	23.0
2025-01-25 17:24:11.366613	29.8	42.6	-92.5	21.8
2025-01-25 17:24:12.531957	29.3	42.5	-92.7	18.0
2025-01-25 17:24:13.694400	28.7	42.4	-92.5	21.2
2025-01-25 17:24:14.845054	28.1	42.3	-92.6	19.3
2025-01-25 17:24:16.004384	27.6	42.3	-92.5	17.7
2025-01-25 17:24:17.165633	27.1	42.2	-92.2	22.3
2025-01-25 17:24:18.328014	26.5	42.1	-92.2	19.5
2025-01-25 17:24:19.492756	26.0	42.0	-92.5	16.6
2025-01-25 17:24:20.653471	25.4	41.9	-92.3	19.8
2025-01-25 17:24:21.805639	24.9	41.8	-90.6	19.6
2025-01-25 17:24:22.971269	24.4	41.8	-91.3	17.2
2025-01-25 17:24:24.132049	23.8	41.7	-90.8	20.0
2025-01-25 17:24:25.296646	23.3	41.6	-91.0	22.9
2025-01-25 17:24:26.459663	22.8	41.5	-91.2	15.7
2025-01-25 17:24:27.622898	22.2	41.4	-90.9	16.6
2025-01-25 17:24:28.776111	21.7	41.3	-92.4	19.9
2025-01-25 17:24:29.941405	21.2	41.2	-92.4	14.5
2025-01-25 17:24:31.108963	20.7	41.0	-92.4	15.7
2025-01-25 17:24:32.271448	20.2	40.9	-92.4	19.7
2025-01-25 17:24:33.436765	19.7	40.8	-92.4	13.0
2025-01-25 17:24:34.601082	19.2	40.7	-92.5	18.5
2025-01-25 17:24:35.757562	18.7	40.6	-92.4	22.2
2025-01-25 17:24:36.923895	18.2	40.5	-92.2	14.3
2025-01-25 17:24:38.082733	17.7	40.3	-92.0	15.6
2025-01-25 17:24:39.243641	17.2	40.2	-92.2	23.1
2025-01-25 17:24:40.411477	16.7	40.1	-92.2	18.3
2025-01-25 17:24:41.581048	16.3	40.0	-92.6	17.9
2025-01-25 17:24:42.737866	15.8	39.8	-92.4	18.1
2025-01-25 17:24:43.898502	15.3	39.7	-92.4	17.6
2025-01-25 17:24:45.060563	14.8	39.6	-92.3	18.3
2025-01-25 17:24:46.217966	14.4	39.4	-92.6	19.4
2025-01-25 17:24:47.395360	13.9	39.3	-92.3	11.8
2025-01-25 17:24:48.564399	13.5	39.2	-92.3	13.4
2025-01-25 17:24:49.727106	13.0	39.0	-91.9	15.1
2025-01-25 17:24:50.884918	12.6	38.9	-92.2	14.8
2025-01-25 17:24:52.054073	12.1	38.7	-92.2	17.8
2025-01-25 17:24:53.218501	11.7	38.6	-92.5	17.8
2025-01-25 17:24:54.380447	11.2	38.5	-92.3	20.3
2025-01-25 17:24:55.541570	10.8	38.3	-92.4	16.6
2025-01-25 17:24:56.708278	10.4	38.2	-92.4	17.1
2025-01-25 17:24:57.874102	10.0	38.0	-92.3	13.4
2025-01-25 17:24:59.034418	9.5	37.9	-92.2	17.5
2025-01-25 17:25:00.193094	9.1	37.7	-92.2	16.3
2025-01-25 17:25:01.353289	8.7	37.6	-92.1	18.3
2025-01-25 17:25:02.520407	8.3	37.4	-92.4	15.4
2025-01-25 17:25:03.690564	7.9	37.3	-92.4	14.5
2025-01-25 17:25:04.857844	7.5	37.1	-92.2	13.7
2025-01-25 17:25:06.013642	7.1	36.9	-92.5	11.3
2025-01-25 17:25:07.175205	6.7	36.8	-92.3	12.3
2025-01-25 17:25:08.334813	6.3	36.6	-92.4	11.1
2025-01-25 17:25:09.496569	5.9	36.5	-92.4	11.1
2025-01-25 17:25:10.656506	5.5	36.3	-92.4	14.6
2025-01-25 17:25:11.821478	5.2	36.2	-92.2	15.7
2025-01-25 17:25:12.982579	4.8	36.0	-91.9	10.2
2025-01-25 17:25:14.146449	4.4	35.8	-92.2	10.8
2025-01-25 17:25:15.312018	4.0	35.7	-92.2	15.8
2025-01-25 17:25:16.464358	3.7	35.5	-92.3	8.6
2025-01-25 17:25:17.627856	3.3	35.4	-92.1	13.5
2025-01-25 17:25:18.759792	3.0	35.2	-92.5	19.6
2025-01-25 17:25:19.880906	2.6	35.0	-92.4	13.4
2025-01-25 17:25:21.001503	2.3	34.9	-92.6	8.3
2025-01-25 17:25:22.122000	2.0	34.7	-92.3	16.9
2025-01-25 17:25:23.242012	1.6	34.6	-92.3	14.5
2025-01-25 17:25:24.362242	1.3	34.4	-92.4	10.6
2025-01-25 17:25:25.483713	1.0	34.2	-92.6	7.9
2025-01-25 17:25:26.604654	0.7	34.1	-92.6	4.1
2025-01-25 17:25:27.729001	0.3	33.9	-92.4	15.3
2025-01-25 17:25:28.865575	0.0	33.8	-91.0	13.1
2025-01-25 17:25:30.025926	359.7	33.6	-90.8	12.9
2025-01-25 17:25:31.190394	359.4	33.4	-90.8	11.5
2025-01-25 17:25:32.348211	359.1	33.3	-91.1	8.0
2025-01-25 17:25:33.507445	358.7	33.1	-90.8	12.4
2025-01-25 17:25:34.663552	358.4	32.9	-91.0	14.5
2025-01-25 17:25:35.823305	358.1	32.8	-92.4	12.7
2025-01-25 17:25:36.991440	357.8	32.6	-92.7	11.2
2025-01-25 17:25:38.156601	357.5	32.4	-92.3	10.1
2025-01-25 17:25:39.314712	357.2	32.3	-92.3	8.8
2025-01-25 17:25:40.480731	356.9	32.1	-92.4	5.7
2025-01-25 17:25:41.646741	356.6	31.9	-92.6	8.9
2025-01-25 17:25:42.810920	356.3	31.8	-92.2	9.3
2025-01-25 17:25:43.976210	356.1	31.6	-92.3	4.4
2025-01-25 17:25:45.137290	355.8	31.4	-92.1	8.3
2025-01-25 17:25:46.293683	355.5	31.3	-92.2	4.5
2025-01-25 17:25:47.463462	355.2	31.1	-92.3	3.9
2025-01-25 17:25:48.618416	354.9	31.0	-92.5	5.0
2025-01-25 17:25:49.782641	354.7	30.8	-92.5	9.0
2025-01-25 17:25:50.942966	354.4	30.6	-92.7	5.1
2025-01-25 17:25:52.105462	354.1	30.5	-92.2	8.4
2025-01-25 17:25:53.268984	353.9	30.3	-92.4	9.8
2025-01-25 17:25:54.433767	353.6	30.1	-92.2	7.3
2025-01-25 17:25:55.590034	353.4	30.0	-92.4	11.4
2025-01-25 17:25:56.756786	353.1	29.8	-92.4	11.1
2025-01-25 17:25:57.914645	352.8	29.6	-92.5	6.9
2025-01-25 17:25:59.079136	352.6	29.5	-92.3	7.1
2025-01-25 17:26:00.234746	352.3	29.3	-92.0	9.5
2025-01-25 17:26:01.397673	352.1	29.2	-92.1	7.8
2025-01-25 17:26:02.558235	351.9	29.0	-92.1	10.1
2025-01-25 17:26:03.713899	351.6	28.8	-92.3	7.9
2025-01-25 17:26:04.872725	351.4	28.7	-92.4	7.2
2025-01-25 17:26:06.036551	351.1	28.5	-92.3	8.3
2025-01-25 17:26:07.201002	350.9	28.3	-92.2	13.6
2025-01-25 17:26:08.357715	350.7	28.2	-92.3	6.8
2025-01-25 17:26:09.524958	350.5	28.0	-92.5	7.2
2025-01-25 17:26:10.686371	350.2	27.9	-92.6	8.3
2025-01-25 17:26:11.847058	350.0	27.7	-92.3	10.9
2025-01-25 17:26:13.013890	349.8	27.6	-92.5	6.4
2025-01-25 17:26:14.181697	349.6	27.4	-92.2	4.6
2025-01-25 17:26:15.346233	349.3	27.2	-92.1	5.8
2025-01-25 17:26:16.502095	349.1	27.1	-92.1	10.0
2025-01-25 17:26:17.665978	348.9	26.9	-92.2	11.0
2025-01-25 17:26:18.835260	348.7	26.8	-92.2	9.8
2025-01-25 17:26:19.997566	348.5	26.6	-92.3	14.7
2025-01-25 17:26:21.165589	348.3	26.5	-92.4	10.3
2025-01-25 17:26:22.332287	348.1	26.3	-92.2	13.1
2025-01-25 17:26:23.496942	347.9	26.1	-92.2	9.9
2025-01-25 17:26:24.661916	347.7	26.0	-92.2	12.4
2025-01-25 17:26:25.818511	347.5	25.8	-92.7	9.0
2025-01-25 17:26:26.982238	347.3	25.7	-92.4	4.9
2025-01-25 17:26:28.146180	347.1	25.5	-92.1	9.0
2025-01-25 17:26:29.309406	346.9	25.4	-92.3	5.9
2025-01-25 17:26:30.468690	346.7	25.2	-92.2	4.3
2025-01-25 17:26:31.629015	346.5	25.1	-92.6	9.8
2025-01-25 17:26:32.770522	346.3	24.9	-92.3	13.5
2025-01-25 17:26:33.891810	346.1	24.8	-92.1	6.5
2025-01-25 17:26:35.012690	346.0	24.6	-92.3	5.9
2025-01-25 17:26:36.134186	345.8	24.5	-92.0	11.2
2025-01-25 17:26:37.254165	345.6	24.3	-92.0	8.4
2025-01-25 17:26:38.374329	345.4	24.2	-92.0	12.1
2025-01-25 17:26:39.494279	345.3	24.1	-92.2	11.4
2025-01-25 17:26:40.614422	345.1	23.9	-92.4	9.8
2025-01-25 17:26:41.735299	344.9	23.8	-92.1	11.5
2025-01-25 17:26:42.860243	344.8	23.6	-92.4	11.4
2025-01-25 17:26:44.024080	344.6	23.5	-92.1	6.1
2025-01-25 17:26:45.186840	344.4	23.3	-91.9	5.3
2025-01-25 17:26:46.341389	344.3	23.2	-91.8	8.7
2025-01-25 17:26:47.492564	344.1	23.1	-92.2	6.7
2025-01-25 17:26:48.657715	343.9	22.9	-92.4	9.2
2025-01-25 17:26:49.827186	343.8	22.8	-92.3	8.8
2025-01-25 17:26:50.986104	343.6	22.6	-92.2	6.0
2025-01-25 17:26:52.153377	343.4	22.5	-92.4	9.1
2025-01-25 17:26:53.311791	343.3	22.3	-92.2	18.3
2025-01-25 17:26:54.437887	343.1	22.2	-92.3	10.8
2025-01-25 17:26:55.587233	343.0	22.1	-92.2	13.3
2025-01-25 17:26:56.726462	342.8	21.9	-92.2	10.2
2025-01-25 17:26:57.884920	342.7	21.8	-92.6	11.3
2025-01-25 17:26:59.028142	342.5	21.7	-92.3	10.2
2025-01-25 17:27:00.166965	342.4	21.5	-91.9	13.7
2025-01-25 17:27:01.319320	342.2	21.4	-92.2	14.9
2025-01-25 17:27:02.482464	342.1	21.3	-92.5	8.0
2025-01-25 17:27:03.638442	341.9	21.1	-92.4	8.9
2025-01-25 17:27:04.796971	341.8	21.0	-92.5	11.0
2025-01-25 17:27:05.952683	341.7	20.8	-92.7	4.4
2025-01-25 17:27:07.081562	341.5	20.7	-92.2	6.0
2025-01-25 17:27:08.223252	341.4	20.6	-92.3	8.0
2025-01-25 17:27:09.374843	341.2	20.4	-92.4	5.5
2025-01-25 17:27:10.522522	341.1	20.3	-92.9	5.4
2025-01-25 17:27:11.668585	341.0	20.2	-92.7	5.3
2025-01-25 17:27:12.825209	340.8	20.1	-92.9	6.2
2025-01-25 17:27:13.968288	340.7	19.9	-92.6	7.5
2025-01-25 17:27:15.099021	340.6	19.8	-92.5	7.9
2025-01-25 17:27:16.249597	340.4	19.7	-92.3	12.6
2025-01-25 17:27:17.396743	340.3	19.5	-92.7	6.7
2025-01-25 17:27:18.552449	340.2	19.4	-92.9	7.0
2025-01-25 17:27:19.703062	340.0	19.3	-92.8	11.3
2025-01-25 17:27:20.853846	339.9	19.2	-92.6	8.1
2025-01-25 17:27:22.009428	339.8	19.0	-92.4	4.8
2025-01-25 17:27:23.170035	339.7	18.9	-92.4	5.6
2025-01-25 17:27:24.333095	339.5	18.8	-92.6	11.0
2025-01-25 17:27:25.491486	339.4	18.6	-92.5	9.9
2025-01-25 17:27:26.646298	339.3	18.5	-92.2	4.8
2025-01-25 17:27:27.799764	339.2	18.4	-92.5	11.0
2025-01-25 17:27:28.967513	339.1	18.3	-92.4	10.8
2025-01-25 17:27:30.129008	338.9	18.1	-92.4	7.5
2025-01-25 17:27:31.266463	338.8	18.0	-92.5	8.1
2025-01-25 17:27:32.409770	338.7	17.9	-92.8	6.7
2025-01-25 17:27:33.573516	338.6	17.8	-93.0	5.7
2025-01-25 17:27:34.725583	338.5	17.7	-92.5	7.4
2025-01-25 17:27:35.881990	338.4	17.5	-92.8	6.2
2025-01-25 17:27:37.033254	338.2	17.4	-92.4	4.3
2025-01-25 17:27:38.196308	338.1	17.3	-92.5	4.2
2025-01-25 17:27:39.351522	338.0	17.2	-92.5	4.0
2025-01-25 17:27:40.512000	337.9	17.0	-92.5	6.8
2025-01-25 17:27:41.662626	337.8	16.9	-93.0	4.4
2025-01-25 17:27:42.816292	337.7	16.8	-92.8	3.4
2025-01-25 17:27:43.975264	337.6	16.7	-92.5	5.7
2025-01-25 17:27:45.112905	337.5	16.6	-92.3	7.3
2025-01-25 17:27:46.246675	337.4	16.5	-92.6	11.8
2025-01-25 17:27:47.391285	337.3	16.3	-92.4	6.1
2025-01-25 17:27:48.534561	337.2	16.2	-92.7	7.6
2025-01-25 17:27:49.688212	337.1	16.1	-92.6	3.7
2025-01-25 17:27:50.839601	337.0	16.0	-92.4	8.9
2025-01-25 17:27:51.990093	336.9	15.9	-92.5	8.2
2025-01-25 17:27:53.117516	336.8	15.8	-92.6	5.1
2025-01-25 17:27:54.263913	336.7	15.7	-92.4	11.2
2025-01-25 17:27:55.412004	336.6	15.5	-92.6	7.1
2025-01-25 17:27:56.561247	336.5	15.4	-92.6	10.1
2025-01-25 17:27:57.716440	336.4	15.3	-92.3	9.1
2025-01-25 17:27:58.885018	336.3	15.2	-92.5	5.6
2025-01-25 17:28:00.056408	336.2	15.1	-92.7	8.0
2025-01-25 17:28:01.212581	336.1	15.0	-92.4	7.7
2025-01-25 17:28:02.373685	336.0	14.9	-92.5	8.5
2025-01-25 17:28:03.530667	335.9	14.8	-92.5	11.4
2025-01-25 17:28:04.713900	335.8	14.6	-92.4	5.9
2025-01-25 17:28:05.914283	335.7	14.5	-92.2	5.1
#Closed at: 2025-01-25 17:19:39.085649