passes_logs/2025/01/25/LEX_Murmansk/LEX_Murmansk__20250125_140135_NOAA_18_rec.log

#Pass ID: 20250125_140135_NOAA 18
#Satellite: NOAA 18
#Configuration: NOAA 18
#Start time: 2025-01-25 14:01:30.087016

#LorettStation: 1.0.0 05.05.2024
#Station: LEX_Murmansk
#Location: 33.156738 lon 68.926811 lat
#TLE: 1 28654U 05018A   25024.86051977  .00000457  00000+0  26618-3 0  9996
#TLE: 2 28654  98.8552 105.8163 0014791 151.8936 208.3038 14.13496337 14496

#Time	Az	El	Level	SNR
2025-01-25 14:01:42.324419	34.3	15.9	-92.0	3.2
2025-01-25 14:01:43.486792	34.1	16.0	-92.1	4.6
2025-01-25 14:01:44.645304	33.9	16.1	-91.9	5.5
2025-01-25 14:01:45.808805	33.7	16.1	-92.0	7.3
2025-01-25 14:01:46.964886	33.5	16.2	-92.3	4.8
2025-01-25 14:01:48.132215	33.3	16.3	-92.4	5.3
2025-01-25 14:01:49.288493	33.1	16.4	-92.0	6.3
2025-01-25 14:01:50.455203	32.9	16.5	-92.5	4.6
2025-01-25 14:01:51.620628	32.8	16.6	-92.3	6.4
2025-01-25 14:01:52.788037	32.6	16.6	-92.1	6.5
2025-01-25 14:01:53.944166	32.4	16.7	-92.5	5.9
2025-01-25 14:01:55.109336	32.2	16.8	-92.1	5.5
2025-01-25 14:01:56.271521	32.0	16.9	-92.1	6.1
2025-01-25 14:01:57.435911	31.8	17.0	-92.0	4.7
2025-01-25 14:01:58.599573	31.6	17.1	-92.5	6.6
2025-01-25 14:01:59.760388	31.4	17.1	-92.2	8.3
2025-01-25 14:02:00.916288	31.2	17.2	-91.9	6.9
2025-01-25 14:02:02.081225	31.0	17.3	-92.0	5.3
2025-01-25 14:02:03.244750	30.7	17.4	-92.1	8.0
2025-01-25 14:02:04.408751	30.5	17.5	-92.3	7.2
2025-01-25 14:02:05.573017	30.3	17.6	-92.5	7.8
2025-01-25 14:02:06.730613	30.1	17.6	-92.6	8.2
2025-01-25 14:02:07.892133	29.9	17.7	-92.4	7.7
2025-01-25 14:02:09.058495	29.7	17.8	-92.4	8.6
2025-01-25 14:02:10.222380	29.5	17.9	-92.0	9.4
2025-01-25 14:02:11.387858	29.3	18.0	-92.0	7.2
2025-01-25 14:02:12.545495	29.1	18.0	-92.1	5.1
2025-01-25 14:02:13.700181	28.8	18.1	-92.4	10.7
2025-01-25 14:02:14.864973	28.6	18.2	-92.2	10.1
2025-01-25 14:02:16.028319	28.4	18.3	-92.3	9.0
2025-01-25 14:02:17.190509	28.2	18.4	-92.0	10.4
2025-01-25 14:02:18.358816	28.0	18.5	-92.0	9.5
2025-01-25 14:02:19.524409	27.7	18.5	-92.4	8.9
2025-01-25 14:02:20.687649	27.5	18.6	-92.5	9.6
2025-01-25 14:02:21.854090	27.3	18.7	-92.4	9.5
2025-01-25 14:02:23.012449	27.1	18.8	-92.2	8.4
2025-01-25 14:02:24.179988	26.8	18.9	-92.1	11.9
2025-01-25 14:02:25.341221	26.6	18.9	-92.0	12.6
2025-01-25 14:02:26.505358	26.4	19.0	-92.3	10.1
2025-01-25 14:02:27.661991	26.2	19.1	-92.2	12.3
2025-01-25 14:02:28.824167	25.9	19.2	-92.2	12.5
2025-01-25 14:02:29.989910	25.7	19.3	-92.1	12.6
2025-01-25 14:02:31.155882	25.5	19.3	-92.3	12.0
2025-01-25 14:02:32.322593	25.2	19.4	-92.2	10.2
2025-01-25 14:02:33.481101	25.0	19.5	-92.1	4.4
2025-01-25 14:02:34.646739	24.8	19.6	-92.0	8.4
2025-01-25 14:02:35.810875	24.5	19.6	-92.1	7.9
2025-01-25 14:02:36.966401	24.3	19.7	-92.4	5.0
2025-01-25 14:02:38.127011	24.0	19.8	-92.1	9.9
2025-01-25 14:02:39.290761	23.8	19.9	-91.9	11.4
2025-01-25 14:02:40.455443	23.5	20.0	-92.1	10.6
2025-01-25 14:02:41.617743	23.3	20.0	-92.1	12.7
2025-01-25 14:02:42.778518	23.1	20.1	-92.1	13.4
2025-01-25 14:02:43.941651	22.8	20.2	-92.4	12.8
2025-01-25 14:02:45.107409	22.6	20.3	-92.2	10.6
2025-01-25 14:02:46.267918	22.3	20.3	-92.2	14.5
2025-01-25 14:02:47.435172	22.1	20.4	-92.1	8.7
2025-01-25 14:02:48.594331	21.8	20.5	-92.2	8.8
2025-01-25 14:02:49.756321	21.6	20.5	-91.7	12.0
2025-01-25 14:02:50.888869	21.3	20.6	-91.6	8.7
2025-01-25 14:02:52.009300	21.1	20.7	-91.9	9.0
2025-01-25 14:02:53.129755	20.8	20.8	-92.0	11.0
2025-01-25 14:02:54.250394	20.6	20.8	-91.8	11.3
2025-01-25 14:02:55.371652	20.3	20.9	-92.4	11.0
2025-01-25 14:02:56.492136	20.1	21.0	-92.0	11.2
2025-01-25 14:02:57.612755	19.8	21.0	-92.0	9.2
2025-01-25 14:02:58.733730	19.6	21.1	-92.3	13.0
2025-01-25 14:02:59.857564	19.3	21.2	-92.2	11.6
2025-01-25 14:03:00.990312	19.0	21.2	-92.4	7.5
2025-01-25 14:03:02.143549	18.8	21.3	-92.2	10.5
2025-01-25 14:03:03.309045	18.5	21.4	-92.1	11.5
2025-01-25 14:03:04.465824	18.2	21.4	-92.3	5.2
2025-01-25 14:03:05.618500	18.0	21.5	-92.2	8.3
2025-01-25 14:03:06.784740	17.7	21.6	-92.4	11.8
2025-01-25 14:03:07.960953	17.4	21.6	-92.1	7.4
2025-01-25 14:03:09.116624	17.1	21.7	-91.9	12.2
2025-01-25 14:03:10.279264	16.9	21.8	-92.2	11.2
2025-01-25 14:03:11.439740	16.6	21.8	-91.8	10.9
2025-01-25 14:03:12.603915	16.3	21.9	-92.0	12.2
2025-01-25 14:03:13.753067	16.0	22.0	-92.0	10.8
2025-01-25 14:03:14.919369	15.8	22.0	-91.9	10.5
2025-01-25 14:03:16.081974	15.5	22.1	-91.9	8.5
2025-01-25 14:03:17.232955	15.2	22.2	-91.6	9.8
2025-01-25 14:03:18.395051	14.9	22.2	-91.8	7.4
2025-01-25 14:03:19.558146	14.6	22.3	-92.3	9.2
2025-01-25 14:03:20.725945	14.4	22.3	-92.6	13.5
2025-01-25 14:03:21.891050	14.1	22.4	-92.3	10.1
2025-01-25 14:03:23.054205	13.8	22.5	-92.2	10.2
2025-01-25 14:03:24.215044	13.5	22.5	-92.3	12.3
2025-01-25 14:03:25.383890	13.2	22.6	-92.0	14.8
2025-01-25 14:03:26.547137	12.9	22.6	-91.8	15.4
2025-01-25 14:03:27.714895	12.6	22.7	-92.2	15.9
2025-01-25 14:03:28.876467	12.3	22.7	-92.4	12.0
2025-01-25 14:03:30.042245	12.0	22.8	-92.3	9.9
2025-01-25 14:03:31.216950	11.7	22.9	-91.9	13.2
2025-01-25 14:03:32.379938	11.4	22.9	-91.9	10.4
2025-01-25 14:03:33.544940	11.1	23.0	-92.0	8.1
2025-01-25 14:03:34.706727	10.8	23.0	-91.9	13.1
2025-01-25 14:03:35.865080	10.5	23.1	-92.0	13.2
2025-01-25 14:03:37.029268	10.2	23.1	-92.0	9.6
2025-01-25 14:03:38.185535	9.9	23.2	-92.0	15.0
2025-01-25 14:03:39.349039	9.6	23.2	-92.4	14.2
2025-01-25 14:03:40.514740	9.3	23.3	-92.5	12.0
2025-01-25 14:03:41.678245	9.0	23.3	-92.2	16.5
2025-01-25 14:03:42.839715	8.7	23.4	-92.4	15.4
2025-01-25 14:03:44.008144	8.4	23.4	-92.2	16.7
2025-01-25 14:03:45.168697	8.1	23.4	-92.0	18.2
2025-01-25 14:03:46.327479	7.8	23.5	-91.9	16.8
2025-01-25 14:03:47.493078	7.5	23.5	-91.8	14.5
2025-01-25 14:03:48.657893	7.2	23.6	-92.2	17.6
2025-01-25 14:03:49.823128	6.9	23.6	-92.0	15.8
2025-01-25 14:03:50.987018	6.6	23.7	-92.4	10.4
2025-01-25 14:03:52.149619	6.3	23.7	-92.2	14.5
2025-01-25 14:03:53.309465	5.9	23.7	-92.5	16.9
2025-01-25 14:03:54.472238	5.6	23.8	-92.3	9.9
2025-01-25 14:03:55.637085	5.3	23.8	-92.3	14.0
2025-01-25 14:03:56.797988	5.0	23.8	-92.4	16.2
2025-01-25 14:03:57.961991	4.7	23.9	-92.3	13.2
2025-01-25 14:03:59.138927	4.4	23.9	-92.2	15.5
2025-01-25 14:04:00.307398	4.0	24.0	-92.2	16.0
2025-01-25 14:04:01.466617	3.7	24.0	-92.3	15.7
2025-01-25 14:04:02.633567	3.4	24.0	-92.3	16.8
2025-01-25 14:04:03.799768	3.1	24.0	-92.2	16.5
2025-01-25 14:04:04.965158	2.8	24.1	-91.9	15.5
2025-01-25 14:04:06.131083	2.4	24.1	-92.0	14.4
2025-01-25 14:04:07.295098	2.1	24.1	-92.1	15.1
2025-01-25 14:04:08.459259	1.8	24.2	-92.2	11.3
2025-01-25 14:04:09.624155	1.5	24.2	-91.9	12.0
2025-01-25 14:04:10.776298	1.2	24.2	-92.3	13.6
2025-01-25 14:04:11.936470	0.8	24.2	-92.5	7.5
2025-01-25 14:04:13.100491	0.5	24.3	-92.2	9.2
2025-01-25 14:04:14.259090	0.2	24.3	-92.4	15.3
2025-01-25 14:04:15.417703	359.9	24.3	-92.3	7.4
2025-01-25 14:04:16.573959	359.5	24.3	-92.3	6.4
2025-01-25 14:04:17.738006	359.2	24.3	-92.4	14.0
2025-01-25 14:04:18.895391	358.9	24.4	-92.6	8.7
2025-01-25 14:04:20.048522	358.6	24.4	-92.3	8.5
2025-01-25 14:04:21.210955	358.3	24.4	-92.2	15.7
2025-01-25 14:04:22.377209	357.9	24.4	-92.0	10.5
2025-01-25 14:04:23.544195	357.6	24.4	-92.3	11.0
2025-01-25 14:04:24.708492	357.3	24.4	-92.1	16.5
2025-01-25 14:04:25.872470	356.9	24.5	-92.0	15.3
2025-01-25 14:04:27.031216	356.6	24.5	-92.3	17.1
2025-01-25 14:04:28.198574	356.3	24.5	-92.6	18.3
2025-01-25 14:04:29.363056	356.0	24.5	-92.2	17.2
2025-01-25 14:04:30.524340	355.6	24.5	-92.7	16.3
2025-01-25 14:04:31.684897	355.3	24.5	-92.5	16.3
2025-01-25 14:04:32.844127	355.0	24.5	-92.3	15.7
2025-01-25 14:04:34.006081	354.6	24.5	-92.2	14.2
2025-01-25 14:04:35.169325	354.3	24.5	-91.9	15.6
2025-01-25 14:04:36.333266	354.0	24.5	-92.0	14.7
2025-01-25 14:04:37.488031	353.7	24.5	-92.3	12.0
2025-01-25 14:04:38.663731	353.3	24.5	-92.3	15.5
2025-01-25 14:04:39.830248	353.0	24.5	-92.5	16.9
2025-01-25 14:04:40.992464	352.7	24.5	-92.4	12.9
2025-01-25 14:04:42.162917	352.3	24.5	-92.4	15.6
2025-01-25 14:04:43.321885	352.0	24.5	-92.3	16.5
2025-01-25 14:04:44.489579	351.7	24.5	-92.2	10.4
2025-01-25 14:04:45.651830	351.3	24.5	-92.5	13.6
2025-01-25 14:04:46.812914	351.0	24.5	-92.3	15.3
2025-01-25 14:04:47.970211	350.7	24.5	-92.1	8.1
2025-01-25 14:04:49.132792	350.4	24.5	-92.2	12.9
2025-01-25 14:04:50.293049	350.0	24.5	-92.2	15.2
2025-01-25 14:04:51.460615	349.7	24.5	-92.1	7.6
2025-01-25 14:04:52.619669	349.4	24.5	-92.3	10.9
2025-01-25 14:04:53.782006	349.0	24.4	-92.3	12.4
2025-01-25 14:04:54.953848	348.7	24.4	-92.4	6.5
2025-01-25 14:04:56.107449	348.4	24.4	-92.3	10.5
2025-01-25 14:04:57.267413	348.1	24.4	-92.0	13.7
2025-01-25 14:04:58.428969	347.7	24.4	-91.8	7.0
2025-01-25 14:04:59.590222	347.4	24.4	-92.4	9.1
2025-01-25 14:05:00.745942	347.1	24.3	-92.3	13.9
2025-01-25 14:05:01.906418	346.8	24.3	-92.2	11.1
2025-01-25 14:05:03.050480	346.4	24.3	-92.3	10.6
2025-01-25 14:05:04.172184	346.1	24.3	-92.3	13.6
2025-01-25 14:05:05.326531	345.8	24.3	-92.0	13.6
2025-01-25 14:05:06.488489	345.5	24.2	-92.4	12.7
2025-01-25 14:05:07.645924	345.2	24.2	-92.6	14.6
2025-01-25 14:05:08.801036	344.8	24.2	-92.1	13.0
2025-01-25 14:05:09.957257	344.5	24.2	-92.4	12.2
2025-01-25 14:05:11.116863	344.2	24.1	-92.1	12.1
2025-01-25 14:05:12.283322	343.9	24.1	-92.3	11.7
2025-01-25 14:05:13.441355	343.6	24.1	-92.3	12.8
2025-01-25 14:05:14.608870	343.2	24.1	-92.0	10.5
2025-01-25 14:05:15.767845	342.9	24.0	-91.9	12.5
2025-01-25 14:05:16.924731	342.6	24.0	-92.1	12.3
2025-01-25 14:05:18.091871	342.3	24.0	-92.2	12.2
2025-01-25 14:05:19.254393	342.0	23.9	-92.2	12.8
2025-01-25 14:05:20.422734	341.6	23.9	-92.0	12.0
2025-01-25 14:05:21.580892	341.3	23.9	-92.1	10.5
2025-01-25 14:05:22.743640	341.0	23.8	-92.3	11.5
2025-01-25 14:05:23.907019	340.7	23.8	-92.5	11.2
2025-01-25 14:05:25.065401	340.4	23.7	-92.0	12.6
2025-01-25 14:05:26.221110	340.1	23.7	-91.8	10.3
2025-01-25 14:05:27.381542	339.8	23.7	-92.0	9.9
2025-01-25 14:05:28.546211	339.5	23.6	-92.2	10.1
2025-01-25 14:05:29.709587	339.1	23.6	-92.3	12.1
2025-01-25 14:05:30.876128	338.8	23.5	-92.2	13.2
2025-01-25 14:05:32.038338	338.5	23.5	-92.2	13.0
2025-01-25 14:05:33.206868	338.2	23.5	-92.1	10.2
2025-01-25 14:05:34.365062	337.9	23.4	-91.9	12.2
2025-01-25 14:05:35.533775	337.6	23.4	-92.2	13.0
2025-01-25 14:05:36.687154	337.3	23.3	-91.8	11.0
2025-01-25 14:05:37.844255	337.0	23.3	-92.3	10.7
2025-01-25 14:05:39.008268	336.7	23.2	-92.6	11.3
2025-01-25 14:05:40.168064	336.4	23.2	-92.1	10.8
2025-01-25 14:05:41.331937	336.1	23.1	-91.9	13.1
2025-01-25 14:05:42.514307	335.8	23.1	-92.5	13.0
2025-01-25 14:05:43.678444	335.5	23.0	-91.7	11.3
2025-01-25 14:05:44.843588	335.2	23.0	-92.0	10.7
2025-01-25 14:05:46.009253	334.9	22.9	-92.4	12.8
2025-01-25 14:05:47.168954	334.6	22.9	-91.8	10.5
2025-01-25 14:05:48.340369	334.3	22.8	-92.0	12.9
2025-01-25 14:05:49.498154	334.0	22.8	-91.9	12.7
2025-01-25 14:05:50.661357	333.7	22.7	-92.3	11.8
2025-01-25 14:05:51.829833	333.4	22.6	-92.3	12.1
2025-01-25 14:05:52.993761	333.1	22.6	-91.9	12.3
2025-01-25 14:05:54.150992	332.8	22.5	-92.3	12.7
2025-01-25 14:05:55.308048	332.5	22.5	-91.9	12.8
2025-01-25 14:05:56.469783	332.2	22.4	-92.1	11.2
2025-01-25 14:05:57.626437	332.0	22.3	-92.4	13.7
2025-01-25 14:05:58.786540	331.7	22.3	-92.3	12.1
2025-01-25 14:05:59.951028	331.4	22.2	-92.4	10.6
2025-01-25 14:06:01.110655	331.1	22.2	-92.1	9.8
2025-01-25 14:06:02.267949	330.8	22.1	-92.1	11.3
2025-01-25 14:06:03.438055	330.5	22.0	-91.0	7.9
2025-01-25 14:06:04.599530	330.3	22.0	-91.0	10.9
2025-01-25 14:06:05.758552	330.0	21.9	-91.4	10.9
2025-01-25 14:06:06.889686	329.7	21.9	-91.4	9.5
2025-01-25 14:06:08.009566	329.4	21.8	-91.4	8.1
2025-01-25 14:06:09.129598	329.2	21.7	-91.1	9.3
2025-01-25 14:06:10.252139	328.9	21.7	-92.2	9.9
2025-01-25 14:06:11.372740	328.6	21.6	-92.3	7.6
2025-01-25 14:06:12.494800	328.4	21.5	-92.3	9.3
2025-01-25 14:06:13.615969	328.1	21.5	-92.5	11.3
2025-01-25 14:06:14.737033	327.9	21.4	-92.5	9.0
2025-01-25 14:06:15.858145	327.6	21.3	-92.5	9.2
2025-01-25 14:06:16.991651	327.3	21.3	-92.4	7.4
2025-01-25 14:06:18.156505	327.1	21.2	-92.3	8.9
2025-01-25 14:06:19.312727	326.8	21.1	-91.8	11.9
2025-01-25 14:06:20.484428	326.5	21.1	-91.9	7.6
2025-01-25 14:06:21.632200	326.3	21.0	-92.1	9.3
2025-01-25 14:06:22.799989	326.0	20.9	-92.2	10.4
2025-01-25 14:06:23.963891	325.8	20.8	-92.2	5.3
2025-01-25 14:06:25.126028	325.5	20.8	-92.3	7.0
2025-01-25 14:06:26.290155	325.2	20.7	-92.1	9.3
2025-01-25 14:06:27.453609	325.0	20.6	-92.0	5.7
2025-01-25 14:06:28.612954	324.7	20.6	-91.0	6.4
2025-01-25 14:06:29.777052	324.5	20.5	-90.2	3.5
2025-01-25 14:06:30.939581	324.2	20.4	-90.3	4.7
2025-01-25 14:06:32.103887	324.0	20.3	-90.8	5.2
2025-01-25 14:06:33.268483	323.7	20.3	-91.4	7.4
2025-01-25 14:06:34.428234	323.5	20.2	-91.9	6.5
2025-01-25 14:06:35.593692	323.2	20.1	-92.4	6.0
2025-01-25 14:06:36.758259	323.0	20.0	-92.2	8.1
2025-01-25 14:06:37.911619	322.7	20.0	-92.0	3.9
2025-01-25 14:06:39.074879	322.5	19.9	-91.9	5.2
2025-01-25 14:06:40.244358	322.2	19.8	-91.9	5.4
2025-01-25 14:06:41.398201	322.0	19.7	-91.5	5.4
2025-01-25 14:06:42.559512	321.7	19.6	-91.8	5.0
2025-01-25 14:06:43.724647	321.5	19.6	-92.3	5.3
2025-01-25 14:06:44.884121	321.3	19.5	-92.3	6.3
2025-01-25 14:06:46.044273	321.0	19.4	-92.3	6.8
2025-01-25 14:06:47.203550	320.8	19.3	-92.1	8.6
2025-01-25 14:06:48.368809	320.6	19.3	-92.1	6.8
2025-01-25 14:06:49.531878	320.3	19.2	-91.8	6.0
2025-01-25 14:06:50.696884	320.1	19.1	-92.5	8.6
2025-01-25 14:06:51.857958	319.9	19.0	-92.0	4.7
2025-01-25 14:06:53.023987	319.6	18.9	-92.3	5.5
2025-01-25 14:06:54.187188	319.4	18.9	-91.9	6.7
2025-01-25 14:06:55.352448	319.2	18.8	-92.0	8.6
2025-01-25 14:06:56.517483	318.9	18.7	-92.2	8.5
2025-01-25 14:06:57.676879	318.7	18.6	-92.0	7.6
2025-01-25 14:06:58.843208	318.5	18.5	-92.1	8.2
2025-01-25 14:07:00.001187	318.3	18.5	-92.3	5.5
2025-01-25 14:07:01.159466	318.1	18.4	-92.1	8.7
2025-01-25 14:07:02.327345	317.8	18.3	-92.2	9.4
2025-01-25 14:07:03.494937	317.6	18.2	-92.6	6.8
2025-01-25 14:07:04.654236	317.4	18.1	-92.1	5.1
2025-01-25 14:07:05.819591	317.2	18.0	-92.0	8.2
2025-01-25 14:07:06.980669	317.0	18.0	-92.3	5.1
2025-01-25 14:07:08.141387	316.7	17.9	-92.3	6.2
2025-01-25 14:07:09.300306	316.5	17.8	-92.3	9.1
2025-01-25 14:07:10.463823	316.3	17.7	-92.1	5.9
2025-01-25 14:07:11.628588	316.1	17.6	-92.0	10.2
2025-01-25 14:07:12.793060	315.9	17.5	-92.0	11.6
2025-01-25 14:07:13.961909	315.7	17.5	-92.1	10.9
2025-01-25 14:07:15.127566	315.5	17.4	-92.3	10.2
2025-01-25 14:07:16.292962	315.3	17.3	-92.0	7.0
2025-01-25 14:07:17.452618	315.1	17.2	-92.4	6.3
2025-01-25 14:07:18.619096	314.9	17.1	-92.2	3.6
2025-01-25 14:07:19.783278	314.7	17.0	-92.2	9.9
2025-01-25 14:07:20.942122	314.5	17.0	-92.0	9.0
2025-01-25 14:07:22.109078	314.3	16.9	-92.0	9.1
2025-01-25 14:07:23.270956	314.1	16.8	-92.0	8.2
2025-01-25 14:07:24.433748	313.9	16.7	-92.2	6.2
2025-01-25 14:07:25.596228	313.7	16.6	-92.4	9.1
2025-01-25 14:07:26.756713	313.5	16.5	-92.3	8.5
2025-01-25 14:07:27.918670	313.3	16.5	-92.0	6.6
2025-01-25 14:07:29.077750	313.1	16.4	-92.3	8.2
2025-01-25 14:07:30.244073	312.9	16.3	-92.0	9.2
2025-01-25 14:07:31.400346	312.7	16.2	-92.4	5.0
2025-01-25 14:07:32.566094	312.5	16.1	-92.3	6.7
2025-01-25 14:07:33.727362	312.3	16.0	-92.5	6.9
2025-01-25 14:07:34.890195	312.1	16.0	-92.2	6.3
2025-01-25 14:07:36.026298	311.9	15.9	-92.0	5.8
2025-01-25 14:07:37.147344	311.8	15.8	-92.4	7.6
2025-01-25 14:07:38.267507	311.6	15.7	-91.8	8.1
2025-01-25 14:07:39.387952	311.4	15.6	-92.5	10.3
2025-01-25 14:07:40.509277	311.2	15.5	-92.1	10.6
2025-01-25 14:07:41.630947	311.0	15.5	-92.1	10.3
2025-01-25 14:07:42.751327	310.9	15.4	-92.4	8.1
2025-01-25 14:07:43.871695	310.7	15.3	-92.1	12.0
2025-01-25 14:07:44.995753	310.5	15.2	-92.4	6.9
2025-01-25 14:07:46.131621	310.3	15.1	-92.1	10.0
2025-01-25 14:07:47.288289	310.2	15.1	-92.1	8.6
2025-01-25 14:07:48.452702	310.0	15.0	-92.3	6.2
2025-01-25 14:07:49.612996	309.8	14.9	-92.1	7.4
2025-01-25 14:07:50.768680	309.6	14.8	-92.5	5.4
2025-01-25 14:07:51.936404	309.5	14.7	-92.2	5.5
2025-01-25 14:07:53.102798	309.3	14.6	-92.0	4.3
#Closed at: 2025-01-25 14:01:35.140863