passes_logs/2025/01/25/LEX_Murmansk/LEX_Murmansk__20250125_115818_NOAA_19_rec.log

#Pass ID: 20250125_115818_NOAA 19
#Satellite: NOAA 19
#Configuration: NOAA 19
#Start time: 2025-01-25 11:58:13.090252

#LorettStation: 1.0.0 05.05.2024
#Station: LEX_Murmansk
#Location: 33.156738 lon 68.926811 lat
#TLE: 1 33591U 09005A   25024.13697735  .00000399  00000+0  23694-3 0  9996
#TLE: 2 33591  99.0181  87.9693 0014137  32.7659 327.4387 14.13267470822833

#Time	Az	El	Level	SNR
2025-01-25 11:58:27.303520	27.2	16.2	-92.2	1.3
2025-01-25 11:58:28.453670	27.0	16.3	-91.9	0.9
2025-01-25 11:58:29.604021	26.8	16.3	-92.0	4.1
2025-01-25 11:58:30.757639	26.7	16.4	-92.0	1.7
2025-01-25 11:58:31.907629	26.5	16.5	-92.1	2.5
2025-01-25 11:58:33.061957	26.3	16.6	-91.9	5.9
2025-01-25 11:58:34.224200	26.1	16.7	-91.9	2.4
2025-01-25 11:58:35.380507	26.0	16.8	-91.7	4.4
2025-01-25 11:58:36.531007	25.8	16.9	-91.7	5.0
2025-01-25 11:58:37.682014	25.6	17.0	-91.9	3.4
2025-01-25 11:58:38.837326	25.4	17.1	-92.1	1.5
2025-01-25 11:58:39.990607	25.3	17.2	-92.3	2.0
2025-01-25 11:58:41.139750	25.1	17.3	-92.2	2.9
2025-01-25 11:58:42.294768	24.9	17.4	-92.3	3.0
2025-01-25 11:58:43.453686	24.7	17.5	-92.3	7.0
2025-01-25 11:58:44.613811	24.5	17.6	-92.2	5.1
2025-01-25 11:58:45.768431	24.3	17.7	-92.3	6.8
2025-01-25 11:58:46.920514	24.2	17.8	-91.8	4.5
2025-01-25 11:58:48.075893	24.0	17.9	-92.1	2.8
2025-01-25 11:58:49.226909	23.8	18.0	-92.1	1.5
2025-01-25 11:58:50.384854	23.6	18.1	-92.1	2.6
2025-01-25 11:58:51.537787	23.4	18.2	-92.2	6.2
2025-01-25 11:58:52.690501	23.2	18.3	-92.2	8.7
2025-01-25 11:58:53.834107	23.0	18.4	-92.1	10.7
2025-01-25 11:58:54.990820	22.8	18.5	-92.1	9.5
2025-01-25 11:58:56.141500	22.6	18.6	-92.2	8.3
2025-01-25 11:58:57.292260	22.4	18.7	-92.2	2.1
2025-01-25 11:58:58.455314	22.2	18.8	-92.4	3.8
2025-01-25 11:58:59.603299	22.0	18.8	-92.1	3.8
2025-01-25 11:59:00.754148	21.8	18.9	-92.2	1.5
2025-01-25 11:59:01.902771	21.6	19.0	-92.2	3.2
2025-01-25 11:59:03.056293	21.4	19.1	-92.1	4.3
2025-01-25 11:59:04.211698	21.2	19.2	-92.1	7.6
2025-01-25 11:59:05.367943	21.0	19.3	-92.3	11.3
2025-01-25 11:59:06.521475	20.8	19.4	-92.1	9.8
2025-01-25 11:59:07.674327	20.6	19.5	-92.0	7.8
2025-01-25 11:59:08.829169	20.4	19.6	-92.1	5.1
2025-01-25 11:59:09.981948	20.2	19.7	-92.3	6.5
2025-01-25 11:59:11.139461	20.0	19.8	-91.9	4.7
2025-01-25 11:59:12.287917	19.8	19.9	-91.6	0.7
2025-01-25 11:59:13.443746	19.5	20.0	-91.6	1.1
2025-01-25 11:59:14.599260	19.3	20.1	-91.5	5.6
2025-01-25 11:59:15.750740	19.1	20.2	-91.4	6.1
2025-01-25 11:59:16.896805	18.9	20.3	-91.5	3.4
2025-01-25 11:59:18.047496	18.7	20.4	-91.7	2.6
2025-01-25 11:59:19.205034	18.5	20.5	-92.4	2.4
2025-01-25 11:59:20.361406	18.2	20.6	-92.6	2.3
2025-01-25 11:59:21.512904	18.0	20.7	-92.5	3.3
2025-01-25 11:59:22.665014	17.8	20.8	-92.4	4.0
2025-01-25 11:59:23.816633	17.6	20.9	-92.3	2.5
2025-01-25 11:59:24.971224	17.3	21.0	-92.2	6.9
2025-01-25 11:59:26.121750	17.1	21.1	-92.5	7.2
2025-01-25 11:59:27.277886	16.9	21.2	-92.2	7.0
2025-01-25 11:59:28.431922	16.6	21.3	-92.6	8.6
2025-01-25 11:59:29.589769	16.4	21.3	-92.5	9.3
2025-01-25 11:59:30.746541	16.2	21.4	-91.9	8.1
2025-01-25 11:59:31.900580	15.9	21.5	-91.7	5.6
2025-01-25 11:59:33.054200	15.7	21.6	-91.6	3.7
2025-01-25 11:59:34.202311	15.4	21.7	-91.6	3.3
2025-01-25 11:59:35.351898	15.2	21.8	-91.5	5.3
2025-01-25 11:59:36.501596	15.0	21.9	-91.4	7.2
2025-01-25 11:59:37.654002	14.7	22.0	-91.4	7.7
2025-01-25 11:59:38.807046	14.5	22.1	-91.8	7.8
2025-01-25 11:59:39.966948	14.2	22.2	-92.6	9.0
2025-01-25 11:59:41.126215	14.0	22.3	-92.6	7.9
2025-01-25 11:59:42.279943	13.7	22.4	-92.5	5.9
2025-01-25 11:59:43.433267	13.5	22.5	-92.6	5.0
2025-01-25 11:59:44.585044	13.2	22.6	-93.0	5.8
2025-01-25 11:59:45.733293	13.0	22.6	-92.3	1.6
2025-01-25 11:59:46.892102	12.7	22.7	-92.6	2.9
2025-01-25 11:59:48.035049	12.4	22.8	-92.8	6.6
2025-01-25 11:59:49.185342	12.2	22.9	-92.6	6.5
2025-01-25 11:59:50.342081	11.9	23.0	-92.4	9.9
2025-01-25 11:59:51.496841	11.7	23.1	-92.5	13.2
2025-01-25 11:59:52.645614	11.4	23.2	-92.0	13.9
2025-01-25 11:59:53.801923	11.1	23.3	-92.7	11.6
2025-01-25 11:59:54.957886	10.9	23.4	-92.2	12.4
2025-01-25 11:59:56.113375	10.6	23.5	-92.5	8.1
2025-01-25 11:59:57.266626	10.3	23.5	-92.5	6.1
2025-01-25 11:59:58.428241	10.0	23.6	-92.5	10.5
2025-01-25 11:59:59.584264	9.8	23.7	-92.7	8.8
2025-01-25 12:00:00.741968	9.5	23.8	-92.5	6.7
2025-01-25 12:00:01.892359	9.2	23.9	-92.5	7.8
2025-01-25 12:00:03.052234	8.9	24.0	-92.7	12.1
2025-01-25 12:00:04.202478	8.7	24.1	-92.1	8.5
2025-01-25 12:00:05.353681	8.4	24.2	-92.5	9.1
2025-01-25 12:00:06.511355	8.1	24.2	-92.5	9.3
2025-01-25 12:00:07.663297	7.8	24.3	-92.6	8.6
2025-01-25 12:00:08.819304	7.5	24.4	-92.5	4.3
2025-01-25 12:00:09.971344	7.2	24.5	-92.5	2.0
2025-01-25 12:00:11.121601	6.9	24.6	-92.3	2.8
2025-01-25 12:00:12.269717	6.7	24.7	-92.2	2.7
2025-01-25 12:00:13.422266	6.4	24.7	-92.5	4.1
2025-01-25 12:00:14.573863	6.1	24.8	-92.8	5.2
2025-01-25 12:00:15.718623	5.8	24.9	-92.2	3.5
2025-01-25 12:00:16.874266	5.5	25.0	-92.2	9.2
2025-01-25 12:00:18.027757	5.2	25.1	-92.2	11.3
2025-01-25 12:00:19.178458	4.9	25.1	-92.3	9.5
2025-01-25 12:00:20.325059	4.6	25.2	-92.4	11.8
2025-01-25 12:00:21.479431	4.3	25.3	-92.6	12.2
2025-01-25 12:00:22.628339	4.0	25.4	-92.2	10.0
2025-01-25 12:00:23.784194	3.7	25.4	-92.4	6.7
2025-01-25 12:00:24.935557	3.4	25.5	-92.4	7.2
2025-01-25 12:00:26.085608	3.1	25.6	-92.5	7.9
2025-01-25 12:00:27.237759	2.8	25.7	-91.9	5.2
2025-01-25 12:00:28.387576	2.4	25.7	-92.3	2.9
2025-01-25 12:00:29.535238	2.1	25.8	-92.6	6.1
2025-01-25 12:00:30.686620	1.8	25.9	-92.5	6.5
2025-01-25 12:00:31.841404	1.5	25.9	-92.6	6.3
2025-01-25 12:00:32.997066	1.2	26.0	-92.6	6.8
2025-01-25 12:00:34.146459	0.9	26.1	-92.1	10.4
2025-01-25 12:00:35.302128	0.5	26.2	-92.3	8.2
2025-01-25 12:00:36.452578	0.2	26.2	-92.4	6.7
2025-01-25 12:00:37.607363	359.9	26.3	-92.3	7.1
2025-01-25 12:00:38.751427	359.6	26.3	-92.5	5.8
2025-01-25 12:00:39.904073	359.3	26.4	-92.3	4.6
2025-01-25 12:00:41.059833	358.9	26.5	-92.4	5.2
2025-01-25 12:00:42.214418	358.6	26.5	-92.4	1.8
2025-01-25 12:00:43.365621	358.3	26.6	-92.6	3.9
2025-01-25 12:00:44.520130	357.9	26.7	-92.6	5.4
2025-01-25 12:00:45.675724	357.6	26.7	-92.7	3.7
2025-01-25 12:00:46.830015	357.3	26.8	-92.4	3.3
2025-01-25 12:00:47.982741	356.9	26.8	-92.4	5.9
2025-01-25 12:00:49.140341	356.6	26.9	-92.2	7.2
2025-01-25 12:00:50.293623	356.3	27.0	-92.3	6.7
2025-01-25 12:00:51.444452	355.9	27.0	-92.4	11.3
2025-01-25 12:00:52.593065	355.6	27.1	-92.7	9.0
2025-01-25 12:00:53.742475	355.3	27.1	-92.5	9.8
2025-01-25 12:00:54.895883	354.9	27.2	-92.4	10.9
2025-01-25 12:00:56.047064	354.6	27.2	-92.5	8.5
2025-01-25 12:00:57.205560	354.2	27.3	-92.5	7.2
2025-01-25 12:00:58.356831	353.9	27.3	-92.4	8.8
2025-01-25 12:00:59.507258	353.5	27.4	-92.9	7.7
2025-01-25 12:01:00.659402	353.2	27.4	-92.4	6.5
2025-01-25 12:01:01.811184	352.9	27.5	-92.8	3.7
2025-01-25 12:01:02.968572	352.5	27.5	-92.6	4.6
2025-01-25 12:01:04.115895	352.2	27.6	-92.7	5.0
2025-01-25 12:01:05.277560	351.8	27.6	-92.7	3.0
2025-01-25 12:01:06.427201	351.5	27.6	-93.1	5.2
2025-01-25 12:01:07.573553	351.1	27.7	-92.5	4.9
2025-01-25 12:01:08.723126	350.8	27.7	-92.5	4.9
2025-01-25 12:01:09.884681	350.4	27.8	-92.5	7.7
2025-01-25 12:01:11.033828	350.0	27.8	-92.5	7.8
2025-01-25 12:01:12.182351	349.7	27.8	-92.3	8.3
2025-01-25 12:01:13.343336	349.3	27.9	-92.3	11.5
2025-01-25 12:01:14.508485	349.0	27.9	-92.6	9.8
2025-01-25 12:01:15.663134	348.6	27.9	-92.1	7.7
2025-01-25 12:01:16.824422	348.3	28.0	-91.8	6.6
2025-01-25 12:01:17.980817	347.9	28.0	-91.9	4.8
2025-01-25 12:01:19.144429	347.5	28.0	-91.8	4.1
2025-01-25 12:01:20.301659	347.2	28.0	-91.8	2.9
2025-01-25 12:01:21.451597	346.8	28.1	-91.5	2.8
2025-01-25 12:01:22.604832	346.4	28.1	-92.0	3.0
2025-01-25 12:01:23.759188	346.1	28.1	-92.3	2.7
2025-01-25 12:01:24.916426	345.7	28.1	-92.4	2.7
2025-01-25 12:01:26.069806	345.4	28.2	-92.7	1.7
2025-01-25 12:01:27.219758	345.0	28.2	-92.5	1.1
2025-01-25 12:01:28.372808	344.6	28.2	-92.2	2.1
2025-01-25 12:01:29.532380	344.3	28.2	-92.5	1.0
2025-01-25 12:01:30.685925	343.9	28.2	-92.4	1.4
2025-01-25 12:01:31.841053	343.5	28.2	-92.4	2.4
2025-01-25 12:01:32.995529	343.2	28.3	-92.3	4.2
2025-01-25 12:01:34.150733	342.8	28.3	-92.3	4.5
2025-01-25 12:01:35.302788	342.4	28.3	-92.6	2.6
2025-01-25 12:01:36.455553	342.1	28.3	-92.6	4.8
2025-01-25 12:01:37.610981	341.7	28.3	-92.1	4.9
2025-01-25 12:01:38.767453	341.3	28.3	-92.5	6.8
2025-01-25 12:01:39.921806	341.0	28.3	-92.2	13.1
2025-01-25 12:01:41.080335	340.6	28.3	-91.4	11.8
2025-01-25 12:01:42.228081	340.2	28.3	-92.2	13.0
2025-01-25 12:01:43.381446	339.9	28.3	-92.3	10.6
2025-01-25 12:01:44.540638	339.5	28.3	-92.7	11.8
2025-01-25 12:01:45.695977	339.1	28.3	-92.5	10.4
2025-01-25 12:01:46.853912	338.8	28.3	-92.6	9.1
2025-01-25 12:01:48.013184	338.4	28.3	-92.6	10.0
2025-01-25 12:01:49.169972	338.0	28.3	-92.6	6.9
2025-01-25 12:01:50.323580	337.7	28.3	-92.5	7.0
2025-01-25 12:01:51.472825	337.3	28.3	-92.2	5.7
2025-01-25 12:01:52.626088	336.9	28.3	-92.3	7.2
2025-01-25 12:01:53.772918	336.6	28.3	-92.5	6.2
2025-01-25 12:01:54.925031	336.2	28.3	-92.4	6.1
2025-01-25 12:01:56.079563	335.8	28.3	-92.4	7.3
2025-01-25 12:01:57.227031	335.5	28.2	-92.3	4.8
2025-01-25 12:01:58.381852	335.1	28.2	-92.5	5.6
2025-01-25 12:01:59.532386	334.8	28.2	-92.9	5.9
2025-01-25 12:02:00.682826	334.4	28.2	-92.7	2.9
2025-01-25 12:02:01.833422	334.0	28.2	-92.9	4.2
2025-01-25 12:02:02.993373	333.7	28.1	-92.9	4.6
2025-01-25 12:02:04.148394	333.3	28.1	-92.3	3.6
2025-01-25 12:02:05.301421	332.9	28.1	-92.2	3.0
2025-01-25 12:02:06.454523	332.6	28.1	-92.3	4.4
2025-01-25 12:02:07.608667	332.2	28.1	-92.6	5.4
2025-01-25 12:02:08.745724	331.9	28.0	-92.1	2.7
2025-01-25 12:02:09.893643	331.5	28.0	-92.5	2.7
2025-01-25 12:02:11.050122	331.1	28.0	-92.8	4.1
2025-01-25 12:02:12.194826	330.8	27.9	-92.7	2.4
2025-01-25 12:02:13.343666	330.4	27.9	-92.4	1.7
2025-01-25 12:02:14.496539	330.1	27.9	-92.5	4.4
2025-01-25 12:02:15.639876	329.7	27.8	-92.8	5.1
2025-01-25 12:02:16.787308	329.4	27.8	-93.0	3.8
2025-01-25 12:02:17.942041	329.0	27.8	-92.4	3.6
2025-01-25 12:02:19.104134	328.7	27.7	-92.5	4.3
2025-01-25 12:02:20.250680	328.3	27.7	-92.7	1.5
2025-01-25 12:02:21.400935	328.0	27.7	-92.8	6.4
2025-01-25 12:02:22.553514	327.6	27.6	-92.8	3.0
2025-01-25 12:02:23.703676	327.3	27.6	-93.0	4.9
2025-01-25 12:02:24.862421	326.9	27.5	-92.7	3.8
2025-01-25 12:02:26.007025	326.6	27.5	-92.6	5.4
2025-01-25 12:02:27.158093	326.2	27.4	-92.6	5.8
2025-01-25 12:02:28.315992	325.9	27.4	-92.6	3.6
2025-01-25 12:02:29.470726	325.5	27.3	-92.8	5.4
2025-01-25 12:02:30.630534	325.2	27.3	-92.7	6.9
2025-01-25 12:02:31.785956	324.8	27.2	-92.8	2.8
2025-01-25 12:02:32.941129	324.5	27.2	-92.4	8.8
2025-01-25 12:02:34.098186	324.1	27.1	-92.1	7.8
2025-01-25 12:02:35.250740	323.8	27.1	-92.7	7.6
2025-01-25 12:02:36.408705	323.5	27.0	-92.3	7.9
2025-01-25 12:02:37.556461	323.1	27.0	-92.7	9.6
2025-01-25 12:02:38.707392	322.8	26.9	-92.0	4.1
2025-01-25 12:02:39.864066	322.5	26.9	-91.9	4.6
2025-01-25 12:02:41.011279	322.1	26.8	-91.8	6.8
2025-01-25 12:02:42.167282	321.8	26.7	-92.0	3.0
2025-01-25 12:02:43.325861	321.5	26.7	-91.7	3.8
2025-01-25 12:02:44.489326	321.1	26.6	-91.8	7.2
2025-01-25 12:02:45.645164	320.8	26.6	-91.8	4.7
2025-01-25 12:02:46.790445	320.5	26.5	-91.7	4.7
2025-01-25 12:02:47.946567	320.1	26.4	-91.9	6.5
2025-01-25 12:02:49.104043	319.8	26.4	-92.8	8.5
2025-01-25 12:02:50.260656	319.5	26.3	-92.4	3.2
2025-01-25 12:02:51.419533	319.2	26.2	-92.7	5.3
2025-01-25 12:02:52.570209	318.9	26.2	-92.8	6.1
2025-01-25 12:02:53.723817	318.5	26.1	-92.5	5.8
2025-01-25 12:02:54.874567	318.2	26.0	-92.7	3.9
2025-01-25 12:02:56.034115	317.9	26.0	-92.8	5.2
2025-01-25 12:02:57.185240	317.6	25.9	-92.9	4.7
2025-01-25 12:02:58.340857	317.3	25.8	-92.7	3.3
2025-01-25 12:02:59.491178	317.0	25.8	-92.9	5.8
2025-01-25 12:03:00.652133	316.6	25.7	-92.8	4.2
2025-01-25 12:03:01.808634	316.3	25.6	-92.3	4.1
2025-01-25 12:03:02.955111	316.0	25.5	-92.1	3.8
2025-01-25 12:03:04.097300	315.7	25.5	-93.0	4.2
2025-01-25 12:03:05.244556	315.4	25.4	-92.7	3.8
2025-01-25 12:03:06.394242	315.1	25.3	-92.6	6.3
2025-01-25 12:03:07.544575	314.8	25.2	-92.8	5.3
2025-01-25 12:03:08.698133	314.5	25.2	-92.9	5.0
2025-01-25 12:03:09.858223	314.2	25.1	-92.5	4.8
2025-01-25 12:03:11.009575	313.9	25.0	-93.0	5.4
2025-01-25 12:03:12.163853	313.6	24.9	-92.4	4.5
2025-01-25 12:03:13.311786	313.3	24.8	-92.6	2.9
2025-01-25 12:03:14.459991	313.0	24.8	-92.8	4.8
2025-01-25 12:03:15.612509	312.7	24.7	-92.8	9.6
2025-01-25 12:03:16.765182	312.5	24.6	-92.8	4.7
2025-01-25 12:03:17.914975	312.2	24.5	-92.7	7.4
2025-01-25 12:03:19.073658	311.9	24.4	-92.6	6.5
2025-01-25 12:03:20.226173	311.6	24.4	-92.2	5.6
2025-01-25 12:03:21.383749	311.3	24.3	-92.6	7.0
2025-01-25 12:03:22.538591	311.0	24.2	-92.7	6.3
2025-01-25 12:03:23.697829	310.7	24.1	-92.6	7.8
2025-01-25 12:03:24.852572	310.5	24.0	-92.7	6.3
2025-01-25 12:03:26.000944	310.2	23.9	-92.6	7.3
2025-01-25 12:03:27.158604	309.9	23.8	-92.8	7.7
2025-01-25 12:03:28.310916	309.6	23.8	-92.4	7.7
2025-01-25 12:03:29.469962	309.4	23.7	-92.9	5.2
2025-01-25 12:03:30.621397	309.1	23.6	-92.6	5.7
2025-01-25 12:03:31.777135	308.8	23.5	-92.6	5.3
2025-01-25 12:03:32.925820	308.5	23.4	-92.8	5.4
2025-01-25 12:03:34.080432	308.3	23.3	-92.8	4.6
2025-01-25 12:03:35.234421	308.0	23.2	-92.3	0.4
2025-01-25 12:03:36.384050	307.7	23.1	-93.0	2.4
2025-01-25 12:03:37.539310	307.5	23.1	-92.6	4.7
2025-01-25 12:03:38.687929	307.2	23.0	-92.9	5.7
2025-01-25 12:03:39.836610	307.0	22.9	-92.8	1.7
2025-01-25 12:03:40.989348	306.7	22.8	-93.2	0.5
2025-01-25 12:03:42.140824	306.4	22.7	-92.4	1.8
2025-01-25 12:03:43.300041	306.2	22.6	-92.4	2.4
2025-01-25 12:03:44.461802	305.9	22.5	-92.6	3.6
2025-01-25 12:03:45.612212	305.7	22.4	-92.3	3.1
2025-01-25 12:03:46.762625	305.4	22.3	-92.8	2.4
2025-01-25 12:03:47.920205	305.2	22.2	-92.7	4.0
2025-01-25 12:03:49.069596	304.9	22.1	-92.7	5.6
2025-01-25 12:03:50.228672	304.7	22.0	-92.6	2.5
2025-01-25 12:03:51.388799	304.4	22.0	-92.3	3.5
2025-01-25 12:03:52.539883	304.2	21.9	-92.6	4.0
2025-01-25 12:03:53.688913	304.0	21.8	-92.4	4.3
2025-01-25 12:03:54.840450	303.7	21.7	-92.8	3.3
2025-01-25 12:03:55.996339	303.5	21.6	-92.7	4.7
2025-01-25 12:03:57.138812	303.2	21.5	-92.5	4.9
2025-01-25 12:03:58.287505	303.0	21.4	-92.1	4.3
2025-01-25 12:03:59.442108	302.8	21.3	-92.7	8.5
2025-01-25 12:04:00.582225	302.5	21.2	-92.8	6.2
2025-01-25 12:04:01.736478	302.3	21.1	-92.4	7.4
2025-01-25 12:04:02.892173	302.1	21.0	-92.7	7.4
2025-01-25 12:04:04.048747	301.9	20.9	-92.5	5.8
2025-01-25 12:04:05.199862	301.6	20.8	-92.6	4.2
2025-01-25 12:04:06.359645	301.4	20.7	-92.5	5.5
2025-01-25 12:04:07.503804	301.2	20.6	-92.9	5.9
2025-01-25 12:04:08.657093	301.0	20.5	-91.9	0.7
2025-01-25 12:04:09.809767	300.7	20.4	-91.9	1.1
2025-01-25 12:04:10.966332	300.5	20.3	-91.7	1.3
2025-01-25 12:04:12.130349	300.3	20.2	-92.0	2.8
2025-01-25 12:04:13.282786	300.1	20.2	-91.4	1.3
2025-01-25 12:04:14.440335	299.9	20.1	-91.9	4.0
2025-01-25 12:04:15.599607	299.6	20.0	-92.5	2.6
2025-01-25 12:04:16.749268	299.4	19.9	-92.9	2.2
2025-01-25 12:04:17.897214	299.2	19.8	-92.7	3.6
2025-01-25 12:04:19.053759	299.0	19.7	-92.5	3.6
2025-01-25 12:04:20.205997	298.8	19.6	-92.2	3.3
2025-01-25 12:04:21.357507	298.6	19.5	-92.5	4.0
2025-01-25 12:04:22.513278	298.4	19.4	-92.5	7.0
2025-01-25 12:04:23.662582	298.2	19.3	-92.7	2.4
2025-01-25 12:04:24.818498	298.0	19.2	-92.9	6.3
2025-01-25 12:04:25.969438	297.8	19.1	-92.6	7.5
2025-01-25 12:04:27.122882	297.6	19.0	-92.5	8.3
2025-01-25 12:04:28.280831	297.4	18.9	-92.4	8.5
2025-01-25 12:04:29.438054	297.2	18.8	-92.4	6.6
2025-01-25 12:04:30.591135	297.0	18.7	-92.6	10.4
2025-01-25 12:04:31.738836	296.8	18.6	-92.7	7.9
2025-01-25 12:04:32.895767	296.6	18.5	-92.7	6.5
2025-01-25 12:04:34.053760	296.4	18.4	-92.4	8.0
2025-01-25 12:04:35.205894	296.2	18.3	-92.7	5.4
2025-01-25 12:04:36.361601	296.0	18.2	-92.4	3.8
2025-01-25 12:04:37.517466	295.8	18.1	-92.4	3.1
2025-01-25 12:04:38.666113	295.6	18.0	-92.5	4.1
2025-01-25 12:04:39.819313	295.4	17.9	-92.7	3.3
2025-01-25 12:04:40.973651	295.2	17.8	-92.5	5.0
2025-01-25 12:04:42.128759	295.0	17.7	-92.4	5.7
2025-01-25 12:04:43.281980	294.9	17.7	-92.5	3.1
2025-01-25 12:04:44.438790	294.7	17.6	-92.4	4.4
2025-01-25 12:04:45.595708	294.5	17.5	-92.3	7.5
2025-01-25 12:04:46.754256	294.3	17.4	-92.5	4.8
2025-01-25 12:04:47.900457	294.1	17.3	-92.5	5.8
2025-01-25 12:04:49.052976	294.0	17.2	-92.7	5.4
2025-01-25 12:04:50.210929	293.8	17.1	-92.4	7.0
2025-01-25 12:04:51.368126	293.6	17.0	-92.9	7.6
2025-01-25 12:04:52.520976	293.4	16.9	-92.6	5.5
2025-01-25 12:04:53.677529	293.3	16.8	-92.1	4.0
2025-01-25 12:04:54.830918	293.1	16.7	-92.6	4.8
2025-01-25 12:04:55.979218	292.9	16.6	-92.6	3.3
2025-01-25 12:04:57.128891	292.7	16.5	-92.8	3.0
2025-01-25 12:04:58.285868	292.6	16.4	-92.8	2.4
2025-01-25 12:04:59.436871	292.4	16.3	-92.9	2.7
2025-01-25 12:05:00.580795	292.2	16.2	-92.6	0.5
2025-01-25 12:05:01.733521	292.1	16.1	-92.2	2.0
2025-01-25 12:05:02.882972	291.9	16.0	-92.9	1.9
2025-01-25 12:05:04.028591	291.7	15.9	-92.2	2.8
2025-01-25 12:05:05.182067	291.6	15.8	-92.3	1.6
2025-01-25 12:05:06.334539	291.4	15.8	-92.2	3.0
2025-01-25 12:05:07.485965	291.3	15.7	-92.7	5.3
2025-01-25 12:05:08.639240	291.1	15.6	-92.6	4.5
2025-01-25 12:05:09.794684	290.9	15.5	-92.9	8.4
2025-01-25 12:05:10.951237	290.8	15.4	-92.4	4.2
2025-01-25 12:05:12.100390	290.6	15.3	-92.3	4.4
2025-01-25 12:05:13.259096	290.5	15.2	-92.1	6.8
2025-01-25 12:05:14.406342	290.3	15.1	-91.9	5.7
2025-01-25 12:05:15.560258	290.2	15.0	-92.3	5.1
2025-01-25 12:05:16.719883	290.0	14.9	-92.3	3.1
2025-01-25 12:05:17.869495	289.8	14.8	-92.7	3.6
2025-01-25 12:05:19.021402	289.7	14.7	-92.2	2.9
2025-01-25 12:05:20.169925	289.5	14.6	-92.0	4.6
#Closed at: 2025-01-25 11:58:18.105611