passes_logs/2025/01/25/LEX_Murmansk/LEX_Murmansk__20250125_183708_NOAA_19_rec.log

#Pass ID: 20250125_183708_NOAA 19
#Satellite: NOAA 19
#Configuration: NOAA 19
#Start time: 2025-01-25 18:37:03.721169

#LorettStation: 1.0.0 05.05.2024
#Station: LEX_Murmansk
#Location: 33.156738 lon 68.926811 lat
#TLE: 1 33591U 09005A   25024.84494910  .00000392  00000+0  23341-3 0  9996
#TLE: 2 33591  99.0180  88.6826 0014105  30.8618 329.3380 14.13268098822670

#Time	Az	El	Level	SNR
2025-01-25 18:37:16.005947	180.7	16.3	-91.4	2.7
2025-01-25 18:37:18.323239	180.9	16.5	-91.4	3.2
2025-01-25 18:37:20.635271	181.0	16.8	-91.7	3.4
2025-01-25 18:37:22.940675	181.2	17.0	-91.3	2.2
2025-01-25 18:37:25.259973	181.4	17.3	-91.3	0.4
2025-01-25 18:37:27.580845	181.5	17.5	-91.8	2.1
2025-01-25 18:37:29.896353	181.7	17.8	-92.0	6.0
2025-01-25 18:37:32.211110	181.9	18.1	-91.6	3.9
2025-01-25 18:37:34.525135	182.0	18.3	-91.7	2.5
2025-01-25 18:37:36.844559	182.2	18.6	-91.7	4.5
2025-01-25 18:37:39.162309	182.4	18.9	-91.7	2.6
2025-01-25 18:37:41.476348	182.6	19.1	-91.7	3.9
2025-01-25 18:37:43.785749	182.8	19.4	-91.8	3.9
2025-01-25 18:37:46.109485	183.0	19.7	-91.6	6.7
2025-01-25 18:37:48.415688	183.2	20.0	-91.9	6.0
2025-01-25 18:37:50.731421	183.4	20.3	-91.8	4.0
2025-01-25 18:37:53.046000	183.6	20.6	-91.9	8.8
2025-01-25 18:37:55.362274	183.8	20.8	-91.7	3.0
2025-01-25 18:37:57.664328	184.0	21.1	-91.7	2.1
2025-01-25 18:37:59.972613	184.2	21.4	-92.0	4.2
2025-01-25 18:38:02.276961	184.4	21.7	-91.4	9.2
2025-01-25 18:38:04.584618	184.6	22.0	-91.8	8.3
2025-01-25 18:38:06.897839	184.8	22.3	-91.8	6.3
2025-01-25 18:38:09.211371	185.1	22.6	-91.4	10.3
2025-01-25 18:38:11.525681	185.3	23.0	-91.8	7.5
2025-01-25 18:38:13.826268	185.5	23.3	-91.6	2.9
2025-01-25 18:38:16.137521	185.8	23.6	-91.8	4.2
2025-01-25 18:38:18.452074	186.0	23.9	-91.7	8.4
2025-01-25 18:38:20.754921	186.3	24.2	-92.0	8.9
2025-01-25 18:38:23.007412	186.5	24.6	-91.8	6.9
2025-01-25 18:38:25.248442	186.8	24.9	-92.0	8.8
2025-01-25 18:38:27.489763	187.0	25.2	-92.0	9.2
2025-01-25 18:38:29.731978	187.3	25.5	-92.1	2.4
2025-01-25 18:38:31.986662	187.6	25.9	-92.0	3.4
2025-01-25 18:38:34.296762	187.9	26.2	-91.8	4.2
2025-01-25 18:38:36.602323	188.1	26.6	-92.2	9.9
2025-01-25 18:38:38.909558	188.4	26.9	-92.1	10.0
2025-01-25 18:38:41.226924	188.7	27.3	-92.2	5.5
2025-01-25 18:38:43.545129	189.0	27.6	-92.0	7.8
2025-01-25 18:38:45.860819	189.4	28.0	-92.2	4.4
2025-01-25 18:38:48.171246	189.7	28.4	-92.3	2.1
2025-01-25 18:38:50.475532	190.0	28.8	-92.2	2.1
2025-01-25 18:38:52.798682	190.3	29.1	-92.2	6.5
2025-01-25 18:38:55.105446	190.7	29.5	-92.2	10.7
2025-01-25 18:38:57.416849	191.0	29.9	-92.1	6.1
2025-01-25 18:38:59.724656	191.4	30.3	-91.9	5.2
2025-01-25 18:39:02.025073	191.8	30.7	-92.4	12.1
2025-01-25 18:39:04.341696	192.2	31.1	-92.2	8.5
2025-01-25 18:39:06.655135	192.5	31.5	-92.2	2.7
2025-01-25 18:39:08.966576	192.9	31.9	-92.0	1.0
2025-01-25 18:39:11.262703	193.3	32.3	-92.2	4.8
2025-01-25 18:39:13.578477	193.8	32.7	-92.3	11.1
2025-01-25 18:39:15.891537	194.2	33.1	-91.9	10.1
2025-01-25 18:39:18.207314	194.6	33.6	-92.2	6.6
2025-01-25 18:39:20.530824	195.1	34.0	-92.4	11.5
2025-01-25 18:39:22.849898	195.5	34.4	-92.3	10.0
2025-01-25 18:39:25.166458	196.0	34.9	-92.0	7.0
2025-01-25 18:39:27.467456	196.5	35.3	-92.0	4.1
2025-01-25 18:39:29.785777	197.0	35.7	-92.0	4.2
2025-01-25 18:39:32.109108	197.5	36.2	-92.0	7.0
2025-01-25 18:39:34.421679	198.0	36.6	-92.1	11.3
2025-01-25 18:39:36.734007	198.6	37.1	-92.4	6.6
2025-01-25 18:39:39.044932	199.1	37.5	-92.3	10.0
2025-01-25 18:39:41.354296	199.7	38.0	-91.8	11.4
2025-01-25 18:39:43.671275	200.3	38.5	-92.2	11.0
2025-01-25 18:39:45.982308	200.9	38.9	-91.9	5.6
2025-01-25 18:39:48.302474	201.5	39.4	-92.0	2.3
2025-01-25 18:39:50.610146	202.1	39.9	-92.0	6.7
2025-01-25 18:39:52.920977	202.8	40.3	-92.2	13.0
2025-01-25 18:39:55.227343	203.5	40.8	-92.0	17.9
2025-01-25 18:39:57.546316	204.2	41.3	-92.1	14.4
2025-01-25 18:39:59.856781	204.9	41.8	-91.5	9.5
2025-01-25 18:40:02.156766	205.6	42.2	-92.0	13.4
2025-01-25 18:40:04.464952	206.4	42.7	-92.2	18.8
2025-01-25 18:40:06.781223	207.2	43.2	-92.0	14.4
2025-01-25 18:40:09.091443	208.0	43.7	-91.9	10.4
2025-01-25 18:40:11.398269	208.8	44.2	-92.2	5.7
2025-01-25 18:40:13.704865	209.6	44.6	-92.2	3.7
2025-01-25 18:40:16.008498	210.5	45.1	-92.3	14.3
2025-01-25 18:40:18.326395	211.4	45.6	-92.0	16.0
2025-01-25 18:40:20.635941	212.4	46.1	-92.2	14.3
2025-01-25 18:40:22.952600	213.3	46.6	-92.3	8.0
2025-01-25 18:40:25.268718	214.3	47.0	-92.1	4.0
2025-01-25 18:40:27.577765	215.3	47.5	-92.4	13.6
2025-01-25 18:40:29.897560	216.4	47.9	-92.4	17.0
2025-01-25 18:40:32.220899	217.5	48.4	-91.9	14.9
2025-01-25 18:40:34.533485	218.6	48.8	-92.4	12.1
2025-01-25 18:40:36.842150	219.7	49.3	-92.0	4.3
2025-01-25 18:40:39.153509	220.9	49.7	-91.9	5.4
2025-01-25 18:40:41.461709	222.1	50.1	-92.2	6.2
2025-01-25 18:40:43.781961	223.4	50.6	-92.1	11.9
2025-01-25 18:40:46.100383	224.6	51.0	-92.0	17.3
2025-01-25 18:40:48.413868	226.0	51.3	-91.6	18.6
2025-01-25 18:40:50.718461	227.3	51.7	-91.8	15.9
2025-01-25 18:40:53.036897	228.7	52.1	-92.2	13.4
2025-01-25 18:40:55.344025	230.1	52.4	-92.0	7.9
2025-01-25 18:40:57.654333	231.5	52.8	-92.0	10.0
2025-01-25 18:40:59.962240	233.0	53.1	-92.2	10.9
2025-01-25 18:41:02.276824	234.5	53.4	-91.2	11.3
2025-01-25 18:41:04.590773	236.0	53.7	-92.4	13.3
2025-01-25 18:41:06.917163	237.6	53.9	-92.2	11.6
2025-01-25 18:41:09.227385	239.2	54.2	-92.3	8.7
2025-01-25 18:41:11.537498	240.8	54.4	-91.9	9.9
2025-01-25 18:41:13.849174	242.5	54.6	-92.0	5.0
2025-01-25 18:41:16.169190	244.1	54.8	-91.9	3.3
2025-01-25 18:41:18.474302	245.8	54.9	-92.2	6.6
2025-01-25 18:41:20.794823	247.5	55.0	-92.0	4.5
2025-01-25 18:41:23.112001	249.2	55.1	-92.3	6.4
2025-01-25 18:41:25.519263	251.0	55.2	-92.1	3.1
2025-01-25 18:41:27.844400	252.8	55.3	-91.8	3.4
2025-01-25 18:41:30.150428	254.5	55.3	-91.9	4.1
2025-01-25 18:41:32.457816	256.2	55.3	-92.1	10.3
2025-01-25 18:41:34.773026	258.0	55.3	-92.3	9.9
2025-01-25 18:41:37.091471	259.7	55.2	-91.9	9.2
2025-01-25 18:41:39.412500	261.4	55.2	-92.2	7.6
2025-01-25 18:41:41.718909	263.1	55.1	-91.9	10.4
2025-01-25 18:41:44.029672	264.8	54.9	-91.8	15.8
2025-01-25 18:41:46.346087	266.5	54.8	-92.0	15.5
2025-01-25 18:41:48.660076	268.2	54.6	-91.8	13.8
2025-01-25 18:41:50.964391	269.8	54.4	-92.1	14.9
2025-01-25 18:41:53.269686	271.4	54.2	-91.8	12.5
2025-01-25 18:41:55.579618	273.0	54.0	-92.2	11.5
2025-01-25 18:41:57.891214	274.6	53.7	-92.2	13.8
2025-01-25 18:42:00.185866	276.1	53.4	-91.8	8.0
2025-01-25 18:42:02.500306	277.6	53.1	-92.1	11.3
2025-01-25 18:42:04.811511	279.1	52.8	-92.2	9.6
2025-01-25 18:42:07.124593	280.5	52.5	-91.9	13.0
2025-01-25 18:42:09.426375	281.9	52.1	-92.1	10.3
2025-01-25 18:42:11.741923	283.3	51.8	-92.0	8.2
2025-01-25 18:42:14.053895	284.7	51.4	-92.0	9.1
2025-01-25 18:42:16.365261	286.0	51.0	-92.1	9.0
2025-01-25 18:42:18.676562	287.2	50.6	-92.5	8.5
2025-01-25 18:42:20.982350	288.5	50.2	-92.2	11.4
2025-01-25 18:42:23.288317	289.7	49.8	-92.2	8.2
2025-01-25 18:42:25.602645	290.9	49.4	-92.5	10.7
2025-01-25 18:42:27.916956	292.0	48.9	-92.4	8.8
2025-01-25 18:42:30.229934	293.1	48.5	-92.1	9.9
2025-01-25 18:42:32.535785	294.2	48.0	-92.1	8.9
2025-01-25 18:42:34.868115	295.3	47.6	-92.1	16.1
2025-01-25 18:42:37.193596	296.3	47.1	-92.0	16.7
2025-01-25 18:42:39.494713	297.3	46.6	-92.3	16.1
2025-01-25 18:42:41.810834	298.2	46.2	-92.3	14.2
2025-01-25 18:42:44.126251	299.2	45.7	-91.8	12.9
2025-01-25 18:42:46.442613	300.1	45.2	-91.7	11.4
2025-01-25 18:42:48.751742	301.0	44.8	-91.9	4.3
2025-01-25 18:42:51.067581	301.8	44.3	-91.9	9.7
2025-01-25 18:42:53.383101	302.7	43.8	-92.0	8.9
2025-01-25 18:42:55.692728	303.5	43.3	-92.0	6.3
2025-01-25 18:42:58.012543	304.2	42.8	-91.8	6.6
2025-01-25 18:43:00.326677	305.0	42.4	-91.8	4.8
2025-01-25 18:43:02.647270	305.7	41.9	-92.1	9.2
2025-01-25 18:43:04.956264	306.5	41.4	-91.9	13.0
2025-01-25 18:43:07.271073	307.2	40.9	-92.0	10.9
2025-01-25 18:43:09.595586	307.8	40.5	-91.6	13.8
2025-01-25 18:43:11.909749	308.5	40.0	-92.0	13.2
2025-01-25 18:43:14.224133	309.1	39.5	-91.6	11.9
2025-01-25 18:43:16.542530	309.8	39.1	-91.9	10.3
2025-01-25 18:43:18.850797	310.4	38.6	-92.1	6.5
2025-01-25 18:43:21.153588	310.9	38.1	-92.4	4.5
2025-01-25 18:43:23.464732	311.5	37.7	-92.3	4.4
2025-01-25 18:43:25.775345	312.1	37.2	-92.0	5.2
2025-01-25 18:43:28.085239	312.6	36.8	-92.1	7.4
2025-01-25 18:43:30.400756	313.1	36.3	-92.5	6.6
2025-01-25 18:43:32.713272	313.6	35.9	-92.3	10.2
2025-01-25 18:43:35.052943	314.2	35.4	-91.9	8.7
2025-01-25 18:43:37.368738	314.6	35.0	-92.0	11.4
2025-01-25 18:43:39.679111	315.1	34.6	-91.8	10.3
2025-01-25 18:43:41.993442	315.6	34.1	-92.3	9.4
2025-01-25 18:43:44.300130	316.0	33.7	-92.1	4.7
2025-01-25 18:43:46.612135	316.5	33.3	-92.2	11.9
2025-01-25 18:43:48.917962	316.9	32.9	-91.9	7.8
2025-01-25 18:43:51.237416	317.3	32.5	-92.1	9.5
2025-01-25 18:43:53.546486	317.7	32.1	-92.3	10.4
2025-01-25 18:43:55.859861	318.1	31.7	-92.3	9.1
2025-01-25 18:43:58.174154	318.5	31.3	-92.2	8.5
2025-01-25 18:44:00.478216	318.9	30.9	-92.2	6.6
2025-01-25 18:44:02.786045	319.2	30.5	-92.3	1.5
2025-01-25 18:44:05.087182	319.6	30.1	-92.0	3.9
2025-01-25 18:44:07.401499	320.0	29.7	-92.3	6.4
2025-01-25 18:44:09.718153	320.3	29.3	-91.8	7.6
2025-01-25 18:44:12.018184	320.6	28.9	-92.2	12.8
2025-01-25 18:44:14.330714	321.0	28.6	-91.9	8.6
2025-01-25 18:44:16.640030	321.3	28.2	-92.0	8.1
2025-01-25 18:44:18.963966	321.6	27.8	-92.1	6.5
2025-01-25 18:44:21.272965	321.9	27.5	-91.8	4.4
2025-01-25 18:44:23.597937	322.2	27.1	-92.1	7.5
2025-01-25 18:44:25.912543	322.5	26.8	-91.7	8.4
2025-01-25 18:44:28.211308	322.8	26.4	-92.0	8.0
2025-01-25 18:44:30.518659	323.1	26.1	-92.4	9.2
2025-01-25 18:44:32.836961	323.4	25.7	-92.2	5.7
2025-01-25 18:44:35.146700	323.6	25.4	-91.9	2.0
2025-01-25 18:44:37.467043	323.9	25.1	-92.2	6.2
2025-01-25 18:44:39.784700	324.2	24.7	-92.0	3.8
2025-01-25 18:44:42.104225	324.4	24.4	-92.3	9.6
2025-01-25 18:44:44.409211	324.7	24.1	-92.2	8.7
2025-01-25 18:44:46.725322	324.9	23.8	-92.2	6.9
2025-01-25 18:44:49.046257	325.2	23.4	-92.2	6.4
2025-01-25 18:44:51.365059	325.4	23.1	-91.8	3.7
2025-01-25 18:44:53.675591	325.6	22.8	-92.3	4.2
2025-01-25 18:44:55.985068	325.9	22.5	-92.6	5.0
2025-01-25 18:44:58.304031	326.1	22.2	-92.4	5.2
2025-01-25 18:45:00.619870	326.3	21.9	-92.4	8.2
2025-01-25 18:45:02.931906	326.5	21.6	-92.5	11.8
2025-01-25 18:45:05.236128	326.7	21.3	-92.1	3.8
2025-01-25 18:45:07.548266	326.9	21.0	-92.2	1.0
2025-01-25 18:45:09.869886	327.2	20.7	-92.5	4.4
2025-01-25 18:45:12.186766	327.4	20.4	-92.2	1.0
2025-01-25 18:45:14.498313	327.6	20.2	-92.4	1.8
2025-01-25 18:45:16.804603	327.7	19.9	-92.6	2.6
2025-01-25 18:45:19.125759	327.9	19.6	-92.1	2.5
2025-01-25 18:45:21.428101	328.1	19.3	-91.9	1.4
2025-01-25 18:45:23.738186	328.3	19.1	-92.4	3.0
2025-01-25 18:45:26.055372	328.5	18.8	-92.4	3.2
2025-01-25 18:45:28.368190	328.7	18.5	-92.5	5.4
2025-01-25 18:45:30.696035	328.8	18.3	-92.3	3.2
2025-01-25 18:45:33.016482	329.0	18.0	-92.3	2.1
2025-01-25 18:45:35.326932	329.2	17.7	-92.4	2.5
2025-01-25 18:45:37.642822	329.4	17.5	-92.4	1.8
2025-01-25 18:45:39.948567	329.5	17.2	-92.2	2.0
2025-01-25 18:45:42.265477	329.7	17.0	-92.5	1.5
2025-01-25 18:45:44.586221	329.8	16.7	-92.2	3.4
2025-01-25 18:45:46.896559	330.0	16.5	-92.4	1.7
2025-01-25 18:45:49.207067	330.2	16.2	-92.3	2.2
2025-01-25 18:45:51.520257	330.3	16.0	-92.1	3.4
2025-01-25 18:45:53.829753	330.5	15.8	-92.7	3.2
2025-01-25 18:45:56.143467	330.6	15.5	-92.5	2.0
2025-01-25 18:45:58.471953	330.8	15.3	-92.5	5.5
2025-01-25 18:46:00.779060	330.9	15.1	-92.5	3.3
2025-01-25 18:46:03.097305	331.0	14.8	-92.6	3.2
2025-01-25 18:46:05.510219	331.2	14.6	-92.5	2.1
#Closed at: 2025-01-25 18:37:08.800893