passes_logs/2025/01/25/LEX_Murmansk/LEX_Murmansk__20250125_133805_NOAA_19_rec.log

#Pass ID: 20250125_133805_NOAA 19
#Satellite: NOAA 19
#Configuration: NOAA 19
#Start time: 2025-01-25 13:38:00.414684

#LorettStation: 1.0.0 05.05.2024
#Station: LEX_Murmansk
#Location: 33.156738 lon 68.926811 lat
#TLE: 1 33591U 09005A   25024.84494910  .00000392  00000+0  23341-3 0  9996
#TLE: 2 33591  99.0180  88.6826 0014105  30.8618 329.3380 14.13268098822670

#Time	Az	El	Level	SNR
2025-01-25 13:38:14.668653	45.2	16.0	-91.8	3.0
2025-01-25 13:38:15.811617	45.0	16.1	-92.1	3.3
2025-01-25 13:38:16.958007	44.8	16.2	-92.1	1.6
2025-01-25 13:38:18.101958	44.6	16.3	-91.7	1.6
2025-01-25 13:38:19.354719	44.4	16.4	-92.1	2.1
2025-01-25 13:38:20.498976	44.2	16.5	-91.8	1.8
2025-01-25 13:38:21.647562	44.0	16.6	-92.1	1.2
2025-01-25 13:38:22.796270	43.8	16.6	-92.2	2.6
2025-01-25 13:38:23.942806	43.7	16.7	-91.9	2.3
2025-01-25 13:38:25.083430	43.5	16.8	-91.9	3.0
2025-01-25 13:38:26.229282	43.3	16.9	-91.9	3.4
2025-01-25 13:38:27.372388	43.1	17.0	-91.9	3.4
2025-01-25 13:38:28.516853	42.9	17.1	-92.2	1.4
2025-01-25 13:38:29.660187	42.7	17.1	-91.7	1.9
2025-01-25 13:38:30.807787	42.5	17.2	-92.1	3.8
2025-01-25 13:38:31.956349	42.3	17.3	-92.1	3.7
2025-01-25 13:38:33.099077	42.1	17.4	-91.7	3.9
2025-01-25 13:38:34.243792	41.9	17.5	-91.9	3.8
2025-01-25 13:38:35.385906	41.7	17.5	-92.0	4.1
2025-01-25 13:38:36.534131	41.5	17.6	-91.7	3.1
2025-01-25 13:38:37.683557	41.2	17.7	-92.2	3.1
2025-01-25 13:38:38.824786	41.0	17.8	-92.1	1.7
2025-01-25 13:38:39.968026	40.8	17.9	-92.1	3.6
2025-01-25 13:38:41.113227	40.6	18.0	-92.1	1.7
2025-01-25 13:38:42.258060	40.4	18.0	-91.6	2.0
2025-01-25 13:38:43.400729	40.2	18.1	-92.0	5.9
2025-01-25 13:38:44.549117	40.0	18.2	-92.1	7.5
2025-01-25 13:38:45.700267	39.8	18.3	-91.8	5.3
2025-01-25 13:38:46.844823	39.6	18.4	-91.8	3.7
2025-01-25 13:38:47.989963	39.3	18.4	-92.3	4.2
2025-01-25 13:38:49.138069	39.1	18.5	-91.8	4.7
2025-01-25 13:38:50.282515	38.9	18.6	-91.8	2.8
2025-01-25 13:38:51.434984	38.7	18.7	-92.1	1.1
2025-01-25 13:38:52.575124	38.5	18.8	-92.2	3.9
2025-01-25 13:38:53.720639	38.2	18.9	-92.1	6.7
2025-01-25 13:38:54.870054	38.0	18.9	-92.2	9.1
2025-01-25 13:38:56.014464	37.8	19.0	-92.1	11.3
2025-01-25 13:38:57.161394	37.6	19.1	-92.1	10.7
2025-01-25 13:38:58.310393	37.3	19.2	-92.2	5.0
2025-01-25 13:38:59.457120	37.1	19.3	-92.4	6.2
2025-01-25 13:39:00.606629	36.9	19.3	-91.4	4.6
2025-01-25 13:39:01.752046	36.6	19.4	-91.4	2.3
2025-01-25 13:39:02.899812	36.4	19.5	-91.4	3.1
2025-01-25 13:39:04.043886	36.2	19.6	-91.4	2.9
2025-01-25 13:39:05.192494	35.9	19.6	-91.2	2.2
2025-01-25 13:39:06.340429	35.7	19.7	-92.2	3.1
2025-01-25 13:39:07.487039	35.5	19.8	-91.5	6.1
2025-01-25 13:39:08.630883	35.2	19.9	-92.1	7.5
2025-01-25 13:39:09.777979	35.0	20.0	-92.0	8.0
2025-01-25 13:39:10.918757	34.7	20.0	-92.0	8.7
2025-01-25 13:39:12.066452	34.5	20.1	-92.2	7.0
2025-01-25 13:39:13.214178	34.3	20.2	-91.6	6.4
2025-01-25 13:39:14.358453	34.0	20.3	-91.9	4.3
2025-01-25 13:39:15.507380	33.8	20.3	-92.3	7.5
2025-01-25 13:39:16.650968	33.5	20.4	-91.8	5.9
2025-01-25 13:39:17.795474	33.3	20.5	-92.0	5.7
2025-01-25 13:39:18.945163	33.0	20.6	-92.3	9.1
2025-01-25 13:39:20.093973	32.8	20.6	-92.0	10.2
2025-01-25 13:39:21.245774	32.5	20.7	-92.0	11.9
2025-01-25 13:39:22.383810	32.3	20.8	-92.2	10.7
2025-01-25 13:39:23.504542	32.0	20.8	-92.2	9.0
2025-01-25 13:39:24.624576	31.8	20.9	-92.3	9.4
2025-01-25 13:39:25.746850	31.5	21.0	-92.1	7.7
2025-01-25 13:39:26.868829	31.3	21.1	-92.3	2.8
2025-01-25 13:39:27.991369	31.0	21.1	-92.2	2.9
2025-01-25 13:39:29.111078	30.8	21.2	-92.0	4.4
2025-01-25 13:39:30.231587	30.5	21.3	-92.1	2.2
2025-01-25 13:39:31.356703	30.2	21.3	-92.0	1.6
2025-01-25 13:39:32.478837	30.0	21.4	-92.2	5.3
2025-01-25 13:39:33.622420	29.7	21.5	-92.2	9.0
2025-01-25 13:39:34.762627	29.5	21.5	-91.9	8.5
2025-01-25 13:39:35.908615	29.2	21.6	-92.3	12.4
2025-01-25 13:39:37.045600	28.9	21.7	-92.0	12.8
2025-01-25 13:39:38.191170	28.7	21.7	-92.2	12.9
2025-01-25 13:39:39.336681	28.4	21.8	-92.4	11.7
2025-01-25 13:39:40.478990	28.1	21.9	-92.2	10.9
2025-01-25 13:39:41.628482	27.8	21.9	-92.1	11.0
2025-01-25 13:39:42.770663	27.6	22.0	-92.0	5.2
2025-01-25 13:39:43.918304	27.3	22.1	-92.3	7.0
2025-01-25 13:39:45.074953	27.0	22.1	-92.2	8.3
2025-01-25 13:39:46.216423	26.7	22.2	-92.4	5.8
2025-01-25 13:39:47.373828	26.5	22.3	-91.9	7.4
2025-01-25 13:39:48.516766	26.2	22.3	-91.7	10.8
2025-01-25 13:39:49.662710	25.9	22.4	-92.0	12.5
2025-01-25 13:39:50.810564	25.6	22.4	-92.0	13.0
2025-01-25 13:39:51.958018	25.3	22.5	-91.8	13.6
2025-01-25 13:39:53.107243	25.0	22.6	-91.4	12.6
2025-01-25 13:39:54.251614	24.8	22.6	-91.5	8.7
2025-01-25 13:39:55.397134	24.5	22.7	-91.6	9.0
2025-01-25 13:39:56.540781	24.2	22.7	-92.1	7.4
2025-01-25 13:39:57.687725	23.9	22.8	-91.8	5.1
2025-01-25 13:39:58.832496	23.6	22.8	-92.0	4.7
2025-01-25 13:39:59.983542	23.3	22.9	-91.8	5.2
2025-01-25 13:40:01.125774	23.0	23.0	-91.8	4.7
2025-01-25 13:40:02.268854	22.7	23.0	-91.9	2.8
2025-01-25 13:40:03.413469	22.4	23.1	-91.6	3.7
2025-01-25 13:40:04.563639	22.2	23.1	-91.6	5.3
2025-01-25 13:40:05.704514	21.9	23.2	-91.7	6.7
2025-01-25 13:40:06.852630	21.6	23.2	-91.7	9.4
2025-01-25 13:40:07.999420	21.3	23.3	-91.5	11.4
2025-01-25 13:40:09.143905	21.0	23.3	-92.2	14.3
2025-01-25 13:40:10.293058	20.7	23.4	-92.3	14.0
2025-01-25 13:40:11.438799	20.4	23.4	-92.1	12.9
2025-01-25 13:40:12.583349	20.1	23.5	-92.2	11.5
2025-01-25 13:40:13.729838	19.8	23.5	-92.3	7.8
2025-01-25 13:40:14.877337	19.5	23.6	-92.1	7.0
2025-01-25 13:40:16.023911	19.2	23.6	-92.5	7.5
2025-01-25 13:40:17.170405	18.9	23.6	-92.2	5.0
2025-01-25 13:40:18.318575	18.5	23.7	-91.9	1.5
2025-01-25 13:40:19.463971	18.2	23.7	-92.3	8.3
2025-01-25 13:40:20.609157	17.9	23.8	-92.5	7.2
2025-01-25 13:40:21.754983	17.6	23.8	-92.2	6.7
2025-01-25 13:40:22.899386	17.3	23.9	-92.3	9.4
2025-01-25 13:40:24.051504	17.0	23.9	-92.3	10.7
2025-01-25 13:40:25.195735	16.7	23.9	-92.0	9.4
2025-01-25 13:40:26.348529	16.4	24.0	-91.9	12.0
2025-01-25 13:40:27.497730	16.1	24.0	-92.3	12.7
2025-01-25 13:40:28.640658	15.8	24.0	-92.1	11.0
2025-01-25 13:40:29.784524	15.4	24.1	-92.3	9.5
2025-01-25 13:40:30.933415	15.1	24.1	-92.2	7.9
2025-01-25 13:40:32.079961	14.8	24.2	-92.2	8.1
2025-01-25 13:40:33.235273	14.5	24.2	-92.2	7.2
2025-01-25 13:40:34.381070	14.2	24.2	-92.0	5.5
2025-01-25 13:40:35.526654	13.9	24.2	-92.2	4.8
2025-01-25 13:40:36.669577	13.6	24.3	-92.1	2.5
2025-01-25 13:40:37.818365	13.2	24.3	-92.3	2.3
2025-01-25 13:40:38.964787	12.9	24.3	-92.3	3.1
2025-01-25 13:40:40.109189	12.6	24.4	-92.0	3.7
2025-01-25 13:40:41.252016	12.3	24.4	-92.4	3.5
2025-01-25 13:40:42.395073	12.0	24.4	-92.5	3.5
2025-01-25 13:40:43.540281	11.6	24.4	-92.5	5.4
2025-01-25 13:40:44.692136	11.3	24.5	-92.4	2.3
2025-01-25 13:40:45.837517	11.0	24.5	-92.6	3.6
2025-01-25 13:40:46.984001	10.7	24.5	-91.9	2.9
2025-01-25 13:40:48.129838	10.4	24.5	-92.0	5.0
2025-01-25 13:40:49.279203	10.0	24.5	-92.4	6.2
2025-01-25 13:40:50.422502	9.7	24.6	-92.2	7.7
2025-01-25 13:40:51.568035	9.4	24.6	-92.6	6.8
2025-01-25 13:40:52.720654	9.1	24.6	-92.5	9.3
2025-01-25 13:40:53.863058	8.7	24.6	-92.3	10.2
2025-01-25 13:40:55.009256	8.4	24.6	-92.4	8.3
2025-01-25 13:40:56.155674	8.1	24.6	-91.7	9.3
2025-01-25 13:40:57.301597	7.8	24.6	-92.3	9.9
2025-01-25 13:40:58.447754	7.4	24.7	-92.2	10.5
2025-01-25 13:40:59.589386	7.1	24.7	-92.1	8.8
2025-01-25 13:41:00.731985	6.8	24.7	-92.2	6.8
2025-01-25 13:41:01.878288	6.5	24.7	-92.4	7.7
2025-01-25 13:41:03.025621	6.1	24.7	-92.1	8.3
2025-01-25 13:41:04.170919	5.8	24.7	-92.0	6.7
2025-01-25 13:41:05.318830	5.5	24.7	-92.4	5.1
2025-01-25 13:41:06.465724	5.2	24.7	-92.1	6.1
2025-01-25 13:41:07.612346	4.8	24.7	-92.3	7.5
2025-01-25 13:41:08.757166	4.5	24.7	-92.3	4.8
2025-01-25 13:41:09.899745	4.2	24.7	-92.2	5.1
2025-01-25 13:41:11.046307	3.9	24.7	-92.3	7.8
2025-01-25 13:41:12.193473	3.5	24.7	-92.0	7.3
2025-01-25 13:41:13.341321	3.2	24.7	-92.0	4.4
2025-01-25 13:41:14.488450	2.9	24.7	-92.5	8.4
2025-01-25 13:41:15.634968	2.6	24.7	-92.3	10.3
2025-01-25 13:41:16.785509	2.2	24.7	-92.4	5.7
2025-01-25 13:41:17.933233	1.9	24.7	-92.0	8.9
2025-01-25 13:41:19.086592	1.6	24.7	-92.2	8.4
2025-01-25 13:41:20.228025	1.2	24.7	-92.3	6.9
2025-01-25 13:41:21.372012	0.9	24.7	-91.8	7.6
2025-01-25 13:41:22.519037	0.6	24.7	-92.1	9.2
2025-01-25 13:41:23.666789	0.3	24.6	-92.3	9.4
2025-01-25 13:41:24.817544	359.9	24.6	-92.0	10.5
2025-01-25 13:41:25.964211	359.6	24.6	-91.9	11.0
2025-01-25 13:41:27.112875	359.3	24.6	-91.9	11.7
2025-01-25 13:41:28.263905	359.0	24.6	-91.9	12.1
2025-01-25 13:41:29.410515	358.6	24.6	-92.1	13.8
2025-01-25 13:41:30.554933	358.3	24.6	-92.4	14.8
2025-01-25 13:41:31.701342	358.0	24.5	-92.1	12.2
2025-01-25 13:41:32.847173	357.7	24.5	-92.3	14.9
2025-01-25 13:41:33.991281	357.4	24.5	-92.6	15.0
2025-01-25 13:41:35.139700	357.0	24.5	-92.3	13.5
2025-01-25 13:41:36.283560	356.7	24.5	-92.1	14.3
2025-01-25 13:41:37.425365	356.4	24.4	-92.0	15.8
2025-01-25 13:41:38.576008	356.1	24.4	-92.0	14.1
2025-01-25 13:41:39.719351	355.8	24.4	-91.9	14.7
2025-01-25 13:41:40.865753	355.4	24.4	-91.6	11.4
2025-01-25 13:41:42.010029	355.1	24.3	-91.8	11.8
2025-01-25 13:41:43.158584	354.8	24.3	-91.7	12.9
2025-01-25 13:41:44.306226	354.5	24.3	-91.4	11.6
2025-01-25 13:41:45.452907	354.2	24.3	-92.3	12.5
2025-01-25 13:41:46.600002	353.9	24.2	-92.2	12.8
2025-01-25 13:41:47.743012	353.5	24.2	-92.1	13.2
2025-01-25 13:41:48.886953	353.2	24.2	-91.9	12.6
2025-01-25 13:41:50.031811	352.9	24.1	-92.5	12.7
2025-01-25 13:41:51.183757	352.6	24.1	-92.2	12.2
2025-01-25 13:41:52.331139	352.3	24.1	-92.0	10.4
2025-01-25 13:41:53.481867	352.0	24.0	-92.3	7.3
2025-01-25 13:41:54.633918	351.7	24.0	-92.4	11.2
2025-01-25 13:41:55.783576	351.3	23.9	-92.6	7.2
2025-01-25 13:41:56.928444	351.0	23.9	-92.0	6.6
2025-01-25 13:41:58.074236	350.7	23.9	-92.0	9.1
2025-01-25 13:41:59.196002	350.4	23.8	-92.4	7.0
2025-01-25 13:42:00.318780	350.1	23.8	-92.1	6.6
2025-01-25 13:42:01.450619	349.8	23.7	-92.0	8.0
2025-01-25 13:42:02.589599	349.5	23.7	-92.5	9.9
2025-01-25 13:42:03.726165	349.2	23.7	-92.2	8.8
2025-01-25 13:42:04.869272	348.9	23.6	-92.6	8.3
2025-01-25 13:42:05.997502	348.6	23.6	-92.4	9.4
2025-01-25 13:42:07.131837	348.3	23.5	-92.3	7.2
2025-01-25 13:42:08.275842	348.0	23.5	-92.3	7.7
2025-01-25 13:42:09.426354	347.7	23.4	-92.3	7.4
2025-01-25 13:42:10.572396	347.4	23.4	-92.6	8.8
2025-01-25 13:42:11.720548	347.1	23.3	-92.5	7.1
2025-01-25 13:42:12.853291	346.8	23.3	-92.5	7.0
2025-01-25 13:42:13.998420	346.5	23.2	-92.4	6.1
2025-01-25 13:42:15.141943	346.2	23.2	-92.1	9.3
2025-01-25 13:42:16.285517	345.9	23.1	-92.3	8.2
2025-01-25 13:42:17.430737	345.6	23.1	-92.4	7.4
2025-01-25 13:42:18.581127	345.3	23.0	-92.3	8.2
2025-01-25 13:42:19.721452	345.1	23.0	-92.2	8.2
2025-01-25 13:42:20.864936	344.8	22.9	-92.7	5.4
2025-01-25 13:42:22.016601	344.5	22.9	-92.7	6.7
2025-01-25 13:42:23.159478	344.2	22.8	-92.1	8.7
2025-01-25 13:42:24.307465	343.9	22.8	-92.3	8.0
2025-01-25 13:42:25.455771	343.6	22.7	-92.2	6.3
2025-01-25 13:42:26.599326	343.3	22.6	-92.4	9.4
2025-01-25 13:42:27.749962	343.0	22.6	-92.2	9.2
2025-01-25 13:42:28.892634	342.8	22.5	-92.6	10.2
2025-01-25 13:42:30.040955	342.5	22.5	-92.4	9.2
2025-01-25 13:42:31.180167	342.2	22.4	-92.3	12.3
2025-01-25 13:42:32.323392	341.9	22.3	-91.9	11.3
2025-01-25 13:42:33.468347	341.6	22.3	-92.6	10.9
2025-01-25 13:42:34.610111	341.4	22.2	-92.7	12.8
2025-01-25 13:42:35.749809	341.1	22.2	-92.5	11.7
2025-01-25 13:42:36.896142	340.8	22.1	-92.3	11.2
2025-01-25 13:42:38.041053	340.5	22.0	-92.2	9.0
2025-01-25 13:42:39.186212	340.3	22.0	-92.3	10.8
2025-01-25 13:42:40.332695	340.0	21.9	-92.2	11.0
2025-01-25 13:42:41.477900	339.7	21.8	-92.2	9.5
2025-01-25 13:42:42.624900	339.4	21.8	-92.3	10.5
2025-01-25 13:42:43.771538	339.2	21.7	-92.4	11.6
2025-01-25 13:42:44.920646	338.9	21.6	-92.0	9.4
2025-01-25 13:42:46.069574	338.6	21.6	-92.3	8.7
2025-01-25 13:42:47.214627	338.4	21.5	-92.0	7.8
2025-01-25 13:42:48.359302	338.1	21.4	-91.9	8.9
2025-01-25 13:42:49.504879	337.8	21.4	-92.3	8.7
2025-01-25 13:42:50.651095	337.6	21.3	-92.5	8.0
2025-01-25 13:42:51.800865	337.3	21.2	-91.7	6.6
2025-01-25 13:42:52.949140	337.1	21.2	-91.8	5.0
2025-01-25 13:42:54.098841	336.8	21.1	-92.1	6.3
2025-01-25 13:42:55.251940	336.5	21.0	-92.0	3.4
2025-01-25 13:42:56.397899	336.3	20.9	-92.2	3.8
2025-01-25 13:42:57.548307	336.0	20.9	-92.2	5.4
2025-01-25 13:42:58.693425	335.8	20.8	-92.0	3.7
2025-01-25 13:42:59.839599	335.5	20.7	-92.2	2.8
2025-01-25 13:43:00.981973	335.3	20.6	-92.7	4.1
2025-01-25 13:43:02.124327	335.0	20.6	-92.4	1.7
2025-01-25 13:43:03.270955	334.8	20.5	-92.1	1.7
2025-01-25 13:43:04.417331	334.5	20.4	-92.6	3.0
2025-01-25 13:43:05.566381	334.3	20.4	-92.5	1.6
2025-01-25 13:43:06.713126	334.0	20.3	-92.1	3.8
2025-01-25 13:43:07.862151	333.8	20.2	-92.4	1.3
2025-01-25 13:43:09.006968	333.6	20.1	-92.6	3.7
2025-01-25 13:43:10.150522	333.3	20.1	-91.9	4.6
2025-01-25 13:43:11.291368	333.1	20.0	-92.4	3.1
2025-01-25 13:43:12.437558	332.8	19.9	-92.3	2.2
2025-01-25 13:43:13.580047	332.6	19.8	-92.3	5.1
2025-01-25 13:43:14.722025	332.4	19.7	-91.9	4.1
2025-01-25 13:43:15.874316	332.1	19.7	-92.3	2.3
2025-01-25 13:43:17.018519	331.9	19.6	-92.4	3.4
2025-01-25 13:43:18.177187	331.7	19.5	-92.0	3.1
2025-01-25 13:43:19.324115	331.4	19.4	-92.4	6.9
2025-01-25 13:43:20.473762	331.2	19.4	-92.0	7.1
2025-01-25 13:43:21.618189	331.0	19.3	-92.0	5.6
2025-01-25 13:43:22.769297	330.7	19.2	-92.2	6.2
2025-01-25 13:43:23.914111	330.5	19.1	-91.9	7.6
2025-01-25 13:43:25.061823	330.3	19.0	-92.0	2.9
2025-01-25 13:43:26.212867	330.1	19.0	-92.2	6.4
2025-01-25 13:43:27.355510	329.8	18.9	-92.0	5.7
2025-01-25 13:43:28.501336	329.6	18.8	-91.9	6.3
2025-01-25 13:43:29.643981	329.4	18.7	-92.1	3.0
2025-01-25 13:43:30.791113	329.2	18.6	-92.1	3.2
2025-01-25 13:43:31.937777	329.0	18.6	-92.0	2.7
2025-01-25 13:43:33.078736	328.7	18.5	-91.6	2.2
2025-01-25 13:43:34.221727	328.5	18.4	-92.2	2.3
2025-01-25 13:43:35.366608	328.3	18.3	-92.4	1.6
2025-01-25 13:43:36.512392	328.1	18.2	-92.1	3.3
2025-01-25 13:43:37.658852	327.9	18.2	-92.2	3.1
2025-01-25 13:43:38.807245	327.7	18.1	-92.5	2.2
2025-01-25 13:43:39.954218	327.5	18.0	-92.2	2.8
2025-01-25 13:43:41.100255	327.2	17.9	-91.8	3.0
2025-01-25 13:43:42.241927	327.0	17.8	-91.9	0.9
2025-01-25 13:43:43.387228	326.8	17.7	-91.9	1.6
2025-01-25 13:43:44.534078	326.6	17.7	-92.3	3.9
2025-01-25 13:43:45.681847	326.4	17.6	-92.1	2.5
2025-01-25 13:43:46.826485	326.2	17.5	-92.0	3.4
2025-01-25 13:43:47.974113	326.0	17.4	-92.2	1.8
2025-01-25 13:43:49.120322	325.8	17.3	-91.8	1.1
2025-01-25 13:43:50.263448	325.6	17.3	-91.9	2.3
2025-01-25 13:43:51.405805	325.4	17.2	-92.1	1.0
2025-01-25 13:43:52.550000	325.2	17.1	-92.1	1.1
2025-01-25 13:43:53.698160	325.0	17.0	-92.2	2.7
2025-01-25 13:43:54.846267	324.8	16.9	-92.1	1.6
2025-01-25 13:43:56.001728	324.6	16.8	-92.4	0.5
2025-01-25 13:43:57.146646	324.4	16.8	-91.8	4.5
2025-01-25 13:43:58.286820	324.2	16.7	-91.3	0.1
2025-01-25 13:43:59.430580	324.0	16.6	-91.5	4.4
2025-01-25 13:44:00.570667	323.9	16.5	-91.5	2.6
2025-01-25 13:44:01.715553	323.7	16.4	-91.4	2.5
2025-01-25 13:44:02.861022	323.5	16.3	-91.4	2.8
2025-01-25 13:44:04.006404	323.3	16.3	-91.6	3.1
2025-01-25 13:44:05.152400	323.1	16.2	-92.2	1.5
2025-01-25 13:44:06.298494	322.9	16.1	-91.6	1.2
2025-01-25 13:44:07.444974	322.7	16.0	-92.5	4.3
2025-01-25 13:44:08.590515	322.6	15.9	-92.5	5.0
2025-01-25 13:44:09.740406	322.4	15.8	-92.0	3.0
2025-01-25 13:44:10.883887	322.2	15.8	-92.3	6.0
2025-01-25 13:44:12.028309	322.0	15.7	-92.1	4.4
2025-01-25 13:44:13.178303	321.8	15.6	-91.6	7.1
2025-01-25 13:44:14.320434	321.7	15.5	-92.1	7.7
2025-01-25 13:44:15.469826	321.5	15.4	-92.0	11.5
2025-01-25 13:44:16.615172	321.3	15.3	-92.2	6.1
2025-01-25 13:44:17.764089	321.1	15.3	-92.3	4.9
2025-01-25 13:44:18.913944	321.0	15.2	-92.5	6.2
2025-01-25 13:44:20.054621	320.8	15.1	-92.1	8.5
2025-01-25 13:44:21.199956	320.6	15.0	-92.6	3.4
2025-01-25 13:44:22.341040	320.4	14.9	-92.1	6.7
2025-01-25 13:44:23.495354	320.3	14.8	-92.4	7.3
2025-01-25 13:44:24.644887	320.1	14.8	-92.6	6.2
2025-01-25 13:44:25.788154	319.9	14.7	-92.1	1.5
#Closed at: 2025-01-25 13:38:05.479662