passes_logs/2026/01/21/Regia/Regia__20260121_012134_AQUA_rec.log

#Pass ID: 20260121_012134_AQUA
#Satellite: AQUA
#Configuration: AQUA
#Start time: 2026-01-21 01:21:39.684455

#LorettStation: 1.0.0 05.05.2024
#Station: Regia
#Location: 37.494653 lon 55.929028 lat
#TLE: 1 27424U 02022A   26020.30984080  .00001497  00000+0  30942-3 0  9998
#TLE: 2 27424  98.4092 346.8266 0001984  71.7888  69.0903 14.61835321261661

#Time	Az	El	Level	SNR
2026-01-21 01:21:41.831154	17.4	15.3	-69.4	0.0
2026-01-21 01:21:42.944296	17.4	15.4	-69.3	0.0
2026-01-21 01:21:44.057582	17.4	15.5	-69.5	0.0
2026-01-21 01:21:45.170617	17.4	15.6	-69.5	0.0
2026-01-21 01:21:46.284343	17.5	15.8	-69.5	0.0
2026-01-21 01:21:47.397162	17.5	15.9	-69.5	0.0
2026-01-21 01:21:48.510057	17.5	16.1	-69.7	0.0
2026-01-21 01:21:49.622643	17.5	16.2	-69.7	0.0
2026-01-21 01:21:50.736061	17.5	16.3	-69.6	0.0
2026-01-21 01:21:51.848021	17.5	16.5	-69.6	0.0
2026-01-21 01:21:52.961152	17.5	16.6	-69.5	0.0
2026-01-21 01:21:54.072954	17.6	16.7	-69.7	0.0
2026-01-21 01:21:55.186091	17.6	16.9	-69.6	0.0
2026-01-21 01:21:56.301721	17.6	17.0	-69.7	0.0
2026-01-21 01:21:57.414726	17.6	17.2	-69.7	0.0
2026-01-21 01:21:58.527750	17.6	17.3	-69.6	0.0
2026-01-21 01:21:59.640563	17.6	17.5	-69.5	0.0
2026-01-21 01:22:00.753303	17.6	17.6	-69.5	0.0
2026-01-21 01:22:01.865989	17.7	17.7	-69.6	0.0
2026-01-21 01:22:02.979348	17.7	17.9	-69.6	0.0
2026-01-21 01:22:04.091685	17.7	18.0	-69.7	0.0
2026-01-21 01:22:05.203431	17.7	18.2	-69.6	0.0
2026-01-21 01:22:06.316430	17.7	18.3	-69.6	0.0
2026-01-21 01:22:07.429179	17.7	18.5	-69.5	0.0
2026-01-21 01:22:08.542302	17.7	18.6	-69.6	0.0
2026-01-21 01:22:09.655370	17.8	18.8	-69.1	0.0
2026-01-21 01:22:10.769036	17.8	19.0	-69.6	0.0
2026-01-21 01:22:11.882095	17.8	19.1	-69.7	0.0
2026-01-21 01:22:12.994660	17.8	19.3	-69.5	0.0
2026-01-21 01:22:14.108117	17.8	19.4	-69.5	0.0
2026-01-21 01:22:15.221556	17.8	19.6	-69.5	0.0
2026-01-21 01:22:16.334438	17.9	19.7	-69.6	0.0
2026-01-21 01:22:17.447199	17.9	19.9	-69.3	0.0
2026-01-21 01:22:18.563406	17.9	20.1	-69.8	0.0
2026-01-21 01:22:19.676143	17.9	20.2	-69.6	0.0
2026-01-21 01:22:20.788778	17.9	20.4	-69.6	0.0
2026-01-21 01:22:21.901634	17.9	20.6	-69.4	0.0
2026-01-21 01:22:23.014112	18.0	20.7	-69.7	0.0
2026-01-21 01:22:24.127678	18.0	20.9	-69.7	0.0
2026-01-21 01:22:25.240612	18.0	21.1	-69.8	0.0
2026-01-21 01:22:26.352975	18.0	21.2	-69.7	0.0
2026-01-21 01:22:27.466907	18.0	21.4	-69.7	0.0
2026-01-21 01:22:28.580320	18.0	21.6	-69.7	0.0
2026-01-21 01:22:29.695955	18.1	21.8	-69.6	0.0
2026-01-21 01:22:30.808665	18.1	21.9	-69.7	0.0
2026-01-21 01:22:31.920995	18.1	22.1	-69.6	0.0
2026-01-21 01:22:33.032931	18.1	22.3	-69.8	0.0
2026-01-21 01:22:34.145366	18.1	22.5	-69.6	0.0
2026-01-21 01:22:35.258708	18.2	22.6	-68.9	0.0
2026-01-21 01:22:36.371857	18.2	22.8	-69.6	0.0
2026-01-21 01:22:37.484931	18.2	23.0	-69.5	0.0
2026-01-21 01:22:38.598382	18.2	23.2	-69.6	0.0
2026-01-21 01:22:39.710745	18.2	23.4	-69.6	0.0
2026-01-21 01:22:40.824243	18.2	23.6	-69.7	0.0
2026-01-21 01:22:41.937157	18.3	23.8	-69.5	0.0
2026-01-21 01:22:43.050450	18.3	24.0	-69.3	0.0
2026-01-21 01:22:44.162994	18.3	24.2	-69.7	0.0
2026-01-21 01:22:45.276183	18.3	24.3	-69.8	0.0
2026-01-21 01:22:46.389078	18.3	24.5	-69.7	0.0
2026-01-21 01:22:47.501786	18.4	24.7	-69.6	0.0
2026-01-21 01:22:48.614457	18.4	24.9	-69.7	0.0
2026-01-21 01:22:49.726520	18.4	25.1	-69.7	0.0
2026-01-21 01:22:50.839518	18.4	25.3	-69.7	0.0
2026-01-21 01:22:51.951390	18.5	25.5	-69.7	0.0
2026-01-21 01:22:53.063923	18.5	25.8	-69.6	0.0
2026-01-21 01:22:54.176516	18.5	26.0	-69.6	0.0
2026-01-21 01:22:55.288697	18.5	26.2	-69.7	0.0
2026-01-21 01:22:56.401703	18.5	26.4	-69.7	0.0
2026-01-21 01:22:57.514760	18.6	26.6	-69.7	0.0
2026-01-21 01:22:58.627741	18.6	26.8	-69.8	0.0
2026-01-21 01:22:59.740757	18.6	27.0	-69.6	0.0
2026-01-21 01:23:00.853406	18.6	27.3	-69.8	0.0
2026-01-21 01:23:01.966111	18.7	27.5	-69.6	0.0
2026-01-21 01:23:03.079612	18.7	27.7	-69.6	0.0
2026-01-21 01:23:04.193222	18.7	27.9	-69.7	0.0
2026-01-21 01:23:05.306107	18.7	28.1	-69.8	0.0
2026-01-21 01:23:06.418835	18.8	28.4	-69.7	0.0
2026-01-21 01:23:07.531022	18.8	28.6	-69.6	0.0
2026-01-21 01:23:08.643765	18.8	28.8	-69.7	0.0
2026-01-21 01:23:09.756705	18.8	29.1	-69.5	0.0
2026-01-21 01:23:10.870342	18.9	29.3	-69.6	0.0
2026-01-21 01:23:11.983093	18.9	29.6	-69.7	0.0
2026-01-21 01:23:13.096320	18.9	29.8	-69.7	0.0
2026-01-21 01:23:14.210189	18.9	30.0	-69.5	0.0
2026-01-21 01:23:15.325944	19.0	30.3	-69.3	0.0
2026-01-21 01:23:16.439368	19.0	30.5	-69.7	0.0
2026-01-21 01:23:17.551833	19.0	30.8	-69.7	0.0
2026-01-21 01:23:18.664987	19.1	31.0	-69.6	0.0
2026-01-21 01:23:19.777959	19.1	31.3	-69.5	0.0
2026-01-21 01:23:20.890788	19.1	31.5	-69.7	0.0
2026-01-21 01:23:22.004472	19.1	31.8	-69.7	0.0
2026-01-21 01:23:23.117314	19.2	32.1	-69.7	0.0
2026-01-21 01:23:24.229693	19.2	32.3	-69.5	0.0
2026-01-21 01:23:25.342685	19.2	32.6	-69.6	0.0
2026-01-21 01:23:26.459322	19.3	32.9	-69.8	0.0
2026-01-21 01:23:27.571615	19.3	33.1	-69.5	0.0
2026-01-21 01:23:28.684548	19.3	33.4	-69.6	0.0
2026-01-21 01:23:29.797021	19.4	33.7	-69.6	0.0
2026-01-21 01:23:30.910033	19.4	34.0	-69.4	0.0
2026-01-21 01:23:32.022913	19.4	34.3	-69.7	0.0
2026-01-21 01:23:33.135976	19.5	34.6	-69.5	0.0
2026-01-21 01:23:34.248660	19.5	34.8	-69.5	0.0
2026-01-21 01:23:35.361199	19.5	35.1	-69.4	0.0
2026-01-21 01:23:36.474480	19.6	35.4	-69.5	0.0
2026-01-21 01:23:37.590849	19.6	35.7	-69.4	0.0
2026-01-21 01:23:38.703753	19.7	36.0	-69.6	0.0
2026-01-21 01:23:39.815957	19.7	36.3	-69.6	0.0
2026-01-21 01:23:40.928516	19.7	36.6	-69.6	0.0
2026-01-21 01:23:42.040360	19.8	37.0	-69.6	0.0
2026-01-21 01:23:43.152927	19.8	37.3	-69.2	0.0
2026-01-21 01:23:44.265840	19.9	37.6	-69.2	0.0
2026-01-21 01:23:45.378536	19.9	37.9	-69.5	0.0
2026-01-21 01:23:46.491268	19.9	38.2	-69.8	0.0
2026-01-21 01:23:47.604055	20.0	38.5	-69.6	0.0
2026-01-21 01:23:48.717395	20.0	38.9	-69.5	0.0
2026-01-21 01:23:49.830502	20.1	39.2	-69.2	0.0
2026-01-21 01:23:50.943064	20.1	39.5	-69.5	0.0
2026-01-21 01:23:52.056160	20.2	39.9	-69.4	0.0
2026-01-21 01:23:53.168510	20.2	40.2	-69.4	0.0
2026-01-21 01:23:54.281677	20.3	40.6	-69.6	0.0
2026-01-21 01:23:55.395495	20.3	40.9	-69.4	0.0
2026-01-21 01:23:56.508047	20.4	41.3	-69.6	0.0
2026-01-21 01:23:57.621273	20.4	41.6	-69.3	0.0
2026-01-21 01:23:58.732964	20.5	42.0	-69.8	0.0
2026-01-21 01:23:59.846861	20.5	42.4	-69.6	0.0
2026-01-21 01:24:00.959983	20.6	42.7	-69.6	0.0
2026-01-21 01:24:02.072411	20.6	43.1	-69.5	0.0
2026-01-21 01:24:03.185367	20.7	43.5	-69.8	0.0
2026-01-21 01:24:04.297897	20.8	43.9	-69.5	0.0
2026-01-21 01:24:05.410734	20.8	44.3	-69.4	0.0
2026-01-21 01:24:06.523077	20.9	44.6	-69.6	0.0
2026-01-21 01:24:07.636274	20.9	45.0	-69.6	0.0
2026-01-21 01:24:08.749332	21.0	45.4	-69.7	0.0
2026-01-21 01:24:09.862330	21.1	45.8	-69.5	0.0
2026-01-21 01:24:10.977921	21.1	46.2	-69.8	0.0
2026-01-21 01:24:12.090199	21.2	46.6	-69.5	0.0
2026-01-21 01:24:13.202518	21.3	47.1	-69.6	0.0
2026-01-21 01:24:14.314707	21.4	47.5	-69.4	0.0
2026-01-21 01:24:15.426929	21.4	47.9	-69.4	0.0
2026-01-21 01:24:16.539489	21.5	48.3	-69.4	0.0
2026-01-21 01:24:17.652687	21.6	48.8	-69.4	0.0
2026-01-21 01:24:18.765269	21.7	49.2	-69.8	0.0
2026-01-21 01:24:19.877822	21.8	49.6	-69.6	0.0
2026-01-21 01:24:20.990128	21.8	50.1	-69.5	0.0
2026-01-21 01:24:22.103236	21.9	50.5	-69.5	0.0
2026-01-21 01:24:23.215003	22.0	51.0	-69.7	0.0
2026-01-21 01:24:24.327587	22.1	51.4	-69.4	0.0
2026-01-21 01:24:25.440296	22.2	51.9	-69.3	0.0
2026-01-21 01:24:26.553336	22.3	52.4	-69.7	0.0
2026-01-21 01:24:27.665383	22.4	52.8	-69.5	0.0
2026-01-21 01:24:28.778226	22.5	53.3	-69.7	0.0
2026-01-21 01:24:29.891441	22.6	53.8	-69.6	0.0
2026-01-21 01:24:31.004261	22.8	54.3	-69.7	0.0
2026-01-21 01:24:32.117119	22.9	54.8	-69.7	0.0
2026-01-21 01:24:33.230959	23.0	55.3	-69.6	0.0
2026-01-21 01:24:34.344949	23.1	55.8	-69.6	0.0
2026-01-21 01:24:35.458322	23.3	56.3	-69.8	0.0
2026-01-21 01:24:36.571438	23.4	56.8	-69.5	0.0
2026-01-21 01:24:37.684392	23.5	57.3	-69.5	0.0
2026-01-21 01:24:38.796973	23.7	57.8	-69.3	0.0
2026-01-21 01:24:39.909272	23.8	58.3	-69.7	0.0
2026-01-21 01:24:41.022240	24.0	58.9	-69.6	0.0
2026-01-21 01:24:42.134334	24.1	59.4	-69.7	0.0
2026-01-21 01:24:43.247192	24.3	59.9	-69.7	0.0
2026-01-21 01:24:44.360120	24.5	60.5	-69.7	0.0
2026-01-21 01:24:45.476502	24.7	61.0	-69.8	0.0
2026-01-21 01:24:46.589947	24.9	61.6	-69.6	0.0
2026-01-21 01:24:47.702931	25.1	62.1	-69.4	0.0
2026-01-21 01:24:48.816147	25.3	62.7	-69.5	0.0
2026-01-21 01:24:49.928969	25.5	63.3	-69.7	0.0
2026-01-21 01:24:51.041779	25.7	63.8	-69.7	0.0
2026-01-21 01:24:52.155269	26.0	64.4	-69.9	0.0
2026-01-21 01:24:53.267487	26.2	65.0	-69.6	0.0
2026-01-21 01:24:54.380333	26.5	65.6	-69.5	0.0
2026-01-21 01:24:55.493957	26.8	66.1	-69.8	0.0
2026-01-21 01:24:56.608425	27.1	66.7	-69.7	0.0
2026-01-21 01:24:57.721162	27.4	67.3	-69.7	0.0
2026-01-21 01:24:58.833845	27.7	67.9	-69.5	0.0
2026-01-21 01:24:59.947314	28.1	68.5	-69.7	0.0
2026-01-21 01:25:01.060048	28.5	69.1	-69.9	0.0
2026-01-21 01:25:02.173096	28.9	69.7	-69.6	0.0
2026-01-21 01:25:03.286534	29.3	70.4	-69.9	0.0
2026-01-21 01:25:04.399742	29.8	71.0	-69.8	0.0
2026-01-21 01:25:05.512101	30.3	71.6	-69.7	0.0
2026-01-21 01:25:06.623792	30.8	72.2	-69.6	0.0
2026-01-21 01:25:07.736907	31.3	72.8	-69.6	0.0
2026-01-21 01:25:08.849389	32.0	73.4	-69.6	0.0
2026-01-21 01:25:09.962157	32.6	74.1	-69.8	0.0
2026-01-21 01:25:11.075247	33.3	74.7	-69.6	0.0
2026-01-21 01:25:12.188338	34.1	75.3	-69.8	0.0
2026-01-21 01:25:13.301027	35.0	75.9	-69.7	0.0
2026-01-21 01:25:14.414454	35.9	76.6	-69.8	0.0
2026-01-21 01:25:15.526662	36.9	77.2	-69.7	0.0
2026-01-21 01:25:16.638537	38.0	77.8	-69.3	0.0
2026-01-21 01:25:17.751816	39.3	78.4	-69.7	0.0
2026-01-21 01:25:18.864952	40.7	79.1	-69.9	0.0
2026-01-21 01:25:19.977940	42.3	79.7	-69.9	0.0
2026-01-21 01:25:21.090292	44.1	80.3	-69.5	0.0
2026-01-21 01:25:22.203343	46.1	80.9	-69.6	0.0
2026-01-21 01:25:23.315791	48.4	81.5	-69.6	0.0
2026-01-21 01:25:24.428894	51.0	82.0	-69.6	0.0
2026-01-21 01:25:25.541959	54.0	82.6	-69.6	0.0
2026-01-21 01:25:26.655257	57.5	83.1	-69.7	0.0
2026-01-21 01:25:27.767926	61.6	83.6	-69.7	0.0
2026-01-21 01:25:28.880831	66.4	84.1	-69.7	0.0
2026-01-21 01:25:29.996130	72.0	84.5	-69.7	0.0
2026-01-21 01:25:31.109344	78.3	84.9	-69.4	0.0
2026-01-21 01:25:32.221658	85.6	85.1	-69.5	0.0
2026-01-21 01:25:33.334455	93.6	85.3	-69.5	0.0
2026-01-21 01:25:34.446879	102.2	85.4	-69.4	0.0
2026-01-21 01:25:35.559232	110.9	85.4	-69.4	0.0
2026-01-21 01:25:36.671565	119.5	85.3	-69.2	0.0
2026-01-21 01:25:37.784264	127.5	85.1	-69.2	0.0
2026-01-21 01:25:38.897697	134.7	84.9	-69.3	0.0
2026-01-21 01:25:40.009833	141.1	84.5	-69.7	0.0
2026-01-21 01:25:41.126757	146.7	84.1	-69.4	0.0
2026-01-21 01:25:42.239397	151.4	83.6	-69.8	0.0
2026-01-21 01:25:43.352244	155.5	83.1	-69.6	0.0
2026-01-21 01:25:44.464424	159.0	82.6	-69.5	0.0
2026-01-21 01:25:45.577494	162.0	82.0	-69.7	0.0
2026-01-21 01:25:46.690310	164.7	81.4	-69.5	0.0
2026-01-21 01:25:47.803776	167.0	80.9	-69.7	0.0
2026-01-21 01:25:48.916606	169.0	80.3	-69.7	0.0
2026-01-21 01:25:50.029679	170.7	79.7	-69.4	0.0
2026-01-21 01:25:51.142325	172.3	79.0	-69.6	0.0
2026-01-21 01:25:52.259202	173.7	78.4	-69.7	0.0
2026-01-21 01:25:53.372272	175.0	77.8	-69.7	0.0
2026-01-21 01:25:54.485613	176.1	77.2	-69.7	0.0
2026-01-21 01:25:55.598309	177.1	76.5	-69.7	0.0
2026-01-21 01:25:56.711115	178.1	75.9	-69.7	0.0
2026-01-21 01:25:57.823954	178.9	75.3	-69.8	0.0
2026-01-21 01:25:58.936106	179.7	74.7	-69.8	0.0
2026-01-21 01:26:00.049073	180.4	74.0	-69.7	0.0
2026-01-21 01:26:01.161672	181.1	73.4	-69.7	0.0
2026-01-21 01:26:02.274277	181.7	72.8	-69.6	0.0
2026-01-21 01:26:03.387650	182.2	72.2	-69.8	0.0
2026-01-21 01:26:04.500756	182.8	71.6	-69.9	0.0
2026-01-21 01:26:05.613200	183.3	70.9	-69.7	0.0
2026-01-21 01:26:06.726141	183.7	70.3	-69.6	0.0
2026-01-21 01:26:07.838458	184.1	69.7	-69.8	0.0
2026-01-21 01:26:08.952250	184.5	69.1	-69.7	0.0
2026-01-21 01:26:10.064722	184.9	68.5	-69.7	0.0
2026-01-21 01:26:11.177291	185.3	67.9	-69.7	0.0
2026-01-21 01:26:12.290910	185.6	67.3	-69.7	0.0
2026-01-21 01:26:13.403172	185.9	66.7	-69.7	0.0
2026-01-21 01:26:14.516533	186.2	66.1	-69.8	0.0
2026-01-21 01:26:15.629865	186.5	65.5	-69.7	0.0
2026-01-21 01:26:16.742796	186.8	64.9	-69.7	0.0
2026-01-21 01:26:17.855857	187.0	64.4	-69.9	0.0
2026-01-21 01:26:18.968843	187.3	63.8	-69.9	0.0
2026-01-21 01:26:20.081810	187.5	63.2	-69.8	0.0
2026-01-21 01:26:21.194483	187.7	62.7	-69.7	0.0
2026-01-21 01:26:22.307639	187.9	62.1	-69.5	0.0
2026-01-21 01:26:23.419828	188.1	61.5	-69.6	0.0
2026-01-21 01:26:24.532603	188.3	61.0	-69.8	0.0
2026-01-21 01:26:25.645095	188.5	60.4	-69.7	0.0
2026-01-21 01:26:26.757509	188.7	59.9	-69.6	0.0
2026-01-21 01:26:27.869932	188.9	59.3	-69.9	0.0
2026-01-21 01:26:28.982758	189.0	58.8	-69.9	0.0
2026-01-21 01:26:30.095735	189.2	58.3	-69.7	0.0
2026-01-21 01:26:31.209200	189.3	57.8	-69.7	0.0
2026-01-21 01:26:32.322338	189.5	57.2	-69.8	0.0
2026-01-21 01:26:33.435199	189.6	56.7	-69.6	0.0
2026-01-21 01:26:34.548383	189.8	56.2	-69.7	0.0
2026-01-21 01:26:35.660881	189.9	55.7	-69.7	0.0
2026-01-21 01:26:36.773567	190.0	55.2	-69.8	0.0
2026-01-21 01:26:37.888484	190.1	54.7	-69.6	0.0
2026-01-21 01:26:39.001928	190.3	54.2	-69.7	0.0
2026-01-21 01:26:40.114972	190.4	53.7	-69.7	0.0
2026-01-21 01:26:41.227680	190.5	53.2	-69.7	0.0
2026-01-21 01:26:42.340862	190.6	52.8	-69.7	0.0
2026-01-21 01:26:43.453781	190.7	52.3	-69.7	0.0
2026-01-21 01:26:44.566917	190.8	51.8	-69.7	0.0
2026-01-21 01:26:45.680244	190.9	51.4	-69.7	0.0
2026-01-21 01:26:46.792276	191.0	50.9	-69.6	0.0
2026-01-21 01:26:47.904796	191.1	50.4	-69.8	0.0
2026-01-21 01:26:49.019690	191.2	50.0	-69.5	0.0
2026-01-21 01:26:50.132283	191.2	49.6	-69.5	0.0
2026-01-21 01:26:51.245209	191.3	49.1	-69.1	0.0
2026-01-21 01:26:52.358065	191.4	48.7	-69.6	0.0
2026-01-21 01:26:53.470972	191.5	48.2	-69.7	0.0
2026-01-21 01:26:54.583441	191.6	47.8	-69.6	0.0
2026-01-21 01:26:55.696252	191.6	47.4	-69.6	0.0
2026-01-21 01:26:56.808497	191.7	47.0	-70.0	0.0
2026-01-21 01:26:57.921086	191.8	46.6	-69.6	0.0
2026-01-21 01:26:59.034001	191.9	46.1	-69.8	0.0
2026-01-21 01:27:00.146744	191.9	45.7	-69.9	0.0
2026-01-21 01:27:01.260007	192.0	45.3	-69.8	0.0
2026-01-21 01:27:02.372893	192.1	44.9	-69.8	0.0
2026-01-21 01:27:03.485849	192.1	44.5	-69.7	0.0
2026-01-21 01:27:04.598387	192.2	44.2	-69.7	0.0
2026-01-21 01:27:05.711071	192.2	43.8	-69.8	0.0
2026-01-21 01:27:06.824282	192.3	43.4	-69.6	0.0
2026-01-21 01:27:07.936982	192.4	43.0	-69.8	0.0
2026-01-21 01:27:09.050303	192.4	42.6	-69.8	0.0
2026-01-21 01:27:10.163552	192.5	42.3	-69.7	0.0
2026-01-21 01:27:11.276299	192.5	41.9	-69.7	0.0
2026-01-21 01:27:12.388963	192.6	41.5	-69.7	0.0
2026-01-21 01:27:13.501792	192.6	41.2	-69.8	0.0
2026-01-21 01:27:14.614239	192.7	40.8	-69.4	0.0
2026-01-21 01:27:15.727272	192.7	40.5	-69.7	0.0
2026-01-21 01:27:16.838321	192.8	40.1	-69.8	0.0
2026-01-21 01:27:17.950404	192.8	39.8	-69.7	0.0
2026-01-21 01:27:19.063824	192.9	39.4	-69.8	0.0
2026-01-21 01:27:20.176624	192.9	39.1	-69.6	0.0
2026-01-21 01:27:21.290194	193.0	38.8	-69.8	0.0
2026-01-21 01:27:22.402578	193.0	38.4	-69.6	0.0
2026-01-21 01:27:23.515655	193.1	38.1	-69.4	0.0
2026-01-21 01:27:24.628150	193.1	37.8	-69.7	0.0
2026-01-21 01:27:25.741558	193.1	37.5	-69.8	0.0
2026-01-21 01:27:26.854224	193.2	37.1	-69.8	0.0
2026-01-21 01:27:27.966877	193.2	36.8	-69.6	0.0
2026-01-21 01:27:29.080055	193.3	36.5	-69.7	0.0
2026-01-21 01:27:30.192755	193.3	36.2	-69.8	0.0
2026-01-21 01:27:31.306150	193.3	35.9	-69.7	0.0
2026-01-21 01:27:32.418955	193.4	35.6	-69.5	0.0
2026-01-21 01:27:33.532468	193.4	35.3	-69.6	0.0
2026-01-21 01:27:34.645341	193.5	35.0	-69.8	0.0
2026-01-21 01:27:35.758129	193.5	34.7	-69.7	0.0
2026-01-21 01:27:36.870692	193.5	34.4	-69.7	0.0
2026-01-21 01:27:37.984039	193.6	34.1	-69.7	0.0
2026-01-21 01:27:39.096735	193.6	33.9	-69.6	0.0
2026-01-21 01:27:40.209796	193.6	33.6	-69.6	0.0
2026-01-21 01:27:41.321978	193.7	33.3	-69.5	0.0
2026-01-21 01:27:42.434658	193.7	33.0	-69.6	0.0
2026-01-21 01:27:43.547903	193.7	32.7	-69.8	0.0
2026-01-21 01:27:44.660573	193.8	32.5	-69.8	0.0
2026-01-21 01:27:45.777067	193.8	32.2	-69.8	0.0
2026-01-21 01:27:46.889721	193.8	31.9	-69.7	0.0
2026-01-21 01:27:48.002386	193.8	31.7	-69.7	0.0
2026-01-21 01:27:49.115350	193.9	31.4	-69.5	0.0
2026-01-21 01:27:50.228543	193.9	31.2	-69.6	0.0
2026-01-21 01:27:51.340883	193.9	30.9	-69.7	0.0
2026-01-21 01:27:52.454305	194.0	30.6	-69.7	0.0
2026-01-21 01:27:53.567674	194.0	30.4	-69.7	0.0
2026-01-21 01:27:54.680354	194.0	30.1	-69.7	0.0
2026-01-21 01:27:55.794185	194.0	29.9	-69.6	0.0
2026-01-21 01:27:56.907073	194.1	29.6	-69.8	0.0
2026-01-21 01:27:58.020057	194.1	29.4	-69.8	0.0
2026-01-21 01:27:59.132616	194.1	29.2	-69.7	0.0
2026-01-21 01:28:00.245677	194.2	28.9	-69.8	0.0
2026-01-21 01:28:01.358797	194.2	28.7	-69.8	0.0
2026-01-21 01:28:02.471069	194.2	28.5	-69.5	0.0
2026-01-21 01:28:03.584881	194.2	28.2	-69.8	0.0
2026-01-21 01:28:04.697841	194.3	28.0	-69.9	0.0
2026-01-21 01:28:05.810068	194.3	27.8	-69.6	0.0
2026-01-21 01:28:06.923350	194.3	27.5	-69.8	0.0
2026-01-21 01:28:08.039956	194.3	27.3	-69.7	0.0
2026-01-21 01:28:09.153024	194.3	27.1	-69.8	0.0
2026-01-21 01:28:10.265913	194.4	26.9	-69.8	0.0
2026-01-21 01:28:11.378717	194.4	26.7	-69.8	0.0
2026-01-21 01:28:12.491149	194.4	26.4	-69.8	0.0
2026-01-21 01:28:13.603618	194.4	26.2	-70.0	0.0
2026-01-21 01:28:14.715800	194.5	26.0	-69.7	0.0
2026-01-21 01:28:15.828736	194.5	25.8	-69.7	0.0
2026-01-21 01:28:16.940818	194.5	25.6	-69.7	0.0
2026-01-21 01:28:18.053264	194.5	25.4	-69.7	0.0
2026-01-21 01:28:19.166411	194.5	25.2	-69.8	0.0
2026-01-21 01:28:20.279532	194.6	25.0	-69.8	0.0
2026-01-21 01:28:21.392148	194.6	24.8	-69.8	0.0
2026-01-21 01:28:22.505326	194.6	24.6	-69.7	0.0
2026-01-21 01:28:23.617760	194.6	24.4	-69.7	0.0
2026-01-21 01:28:24.730689	194.6	24.2	-69.1	0.0
2026-01-21 01:28:25.846146	194.7	24.0	-69.7	0.0
2026-01-21 01:28:26.958894	194.7	23.8	-69.8	0.0
2026-01-21 01:28:28.071653	194.7	23.6	-69.5	0.0
2026-01-21 01:28:29.184673	194.7	23.4	-69.8	0.0
2026-01-21 01:28:30.298315	194.7	23.2	-69.6	0.0
2026-01-21 01:28:31.411201	194.8	23.0	-69.7	0.0
2026-01-21 01:28:32.523841	194.8	22.9	-69.7	0.0
2026-01-21 01:28:33.636399	194.8	22.7	-69.8	0.0
2026-01-21 01:28:34.748850	194.8	22.5	-69.4	0.0
2026-01-21 01:28:35.862219	194.8	22.3	-69.7	0.0
2026-01-21 01:28:36.975182	194.9	22.1	-69.8	0.0
2026-01-21 01:28:38.088157	194.9	21.9	-69.7	0.0
2026-01-21 01:28:39.199813	194.9	21.8	-69.7	0.0
2026-01-21 01:28:40.312693	194.9	21.6	-69.6	0.0
2026-01-21 01:28:41.428437	194.9	21.4	-69.8	0.0
2026-01-21 01:28:42.540940	194.9	21.2	-69.7	0.0
2026-01-21 01:28:43.654161	195.0	21.1	-69.5	0.0
2026-01-21 01:28:44.766354	195.0	20.9	-69.5	0.0
2026-01-21 01:28:45.879045	195.0	20.7	-69.8	0.0
2026-01-21 01:28:46.992380	195.0	20.6	-69.7	0.0
2026-01-21 01:28:48.105165	195.0	20.4	-69.8	0.0
2026-01-21 01:28:49.218004	195.0	20.2	-69.7	0.0
2026-01-21 01:28:50.330929	195.1	20.1	-69.5	0.0
2026-01-21 01:28:51.443456	195.1	19.9	-69.7	0.0
2026-01-21 01:28:52.559814	195.1	19.7	-69.7	0.0
2026-01-21 01:28:53.672823	195.1	19.6	-69.8	0.0
2026-01-21 01:28:54.785638	195.1	19.4	-69.5	0.0
2026-01-21 01:28:55.898354	195.1	19.3	-69.4	0.0
2026-01-21 01:28:57.010950	195.1	19.1	-69.4	0.0
2026-01-21 01:28:58.123961	195.2	18.9	-69.7	0.0
2026-01-21 01:28:59.236975	195.2	18.8	-69.6	0.0
2026-01-21 01:29:00.350168	195.2	18.6	-69.4	0.0
2026-01-21 01:29:01.463390	195.2	18.5	-69.7	0.0
2026-01-21 01:29:02.576142	195.2	18.3	-69.7	0.0
2026-01-21 01:29:03.691361	195.2	18.2	-69.7	0.0
2026-01-21 01:29:04.803577	195.2	18.0	-69.6	0.0
2026-01-21 01:29:05.917128	195.3	17.9	-69.7	0.0
2026-01-21 01:29:07.029549	195.3	17.7	-69.7	0.0
2026-01-21 01:29:08.142386	195.3	17.6	-69.7	0.0
2026-01-21 01:29:09.254308	195.3	17.4	-69.7	0.0
2026-01-21 01:29:10.366868	195.3	17.3	-69.0	0.0
2026-01-21 01:29:11.479317	195.3	17.1	-69.7	0.0
2026-01-21 01:29:12.591426	195.3	17.0	-69.6	0.0
2026-01-21 01:29:13.704087	195.4	16.8	-69.7	0.0
2026-01-21 01:29:14.816243	195.4	16.7	-69.5	0.0
2026-01-21 01:29:15.929411	195.4	16.6	-69.5	0.0
2026-01-21 01:29:17.042601	195.4	16.4	-69.8	0.0
2026-01-21 01:29:18.155034	195.4	16.3	-69.7	0.0
2026-01-21 01:29:19.267975	195.4	16.1	-69.6	0.0
2026-01-21 01:29:20.380972	195.4	16.0	-69.5	0.0
2026-01-21 01:29:21.493607	195.4	15.9	-69.6	0.0
2026-01-21 01:29:22.607108	195.5	15.7	-69.6	0.0
2026-01-21 01:29:23.720177	195.5	15.6	-69.7	0.0
2026-01-21 01:29:24.833772	195.5	15.5	-69.7	0.0
2026-01-21 01:29:25.946820	195.5	15.3	-69.7	0.0
2026-01-21 01:29:27.059195	195.5	15.2	-69.8	0.0
2026-01-21 01:29:28.171150	195.5	15.1	-69.5	0.0
2026-01-21 01:29:29.283962	195.5	14.9	-69.6	0.0
#Closed at: 2026-01-21 01:21:34.684415