passes_logs/2026/01/21/Regia/Regia__20260121_030009_AQUA_rec.log

#Pass ID: 20260121_030009_AQUA
#Satellite: AQUA
#Configuration: AQUA
#Start time: 2026-01-21 03:00:14.955814

#LorettStation: 1.0.0 05.05.2024
#Station: Regia
#Location: 37.494653 lon 55.929028 lat
#TLE: 1 27424U 02022A   26020.30984080  .00001497  00000+0  30942-3 0  9998
#TLE: 2 27424  98.4092 346.8266 0001984  71.7888  69.0903 14.61835321261661

#Time	Az	El	Level	SNR
2026-01-21 03:00:17.103411	341.5	15.1	-69.3	0.0
2026-01-21 03:00:18.216174	341.3	15.2	-69.4	0.0
2026-01-21 03:00:19.329809	341.1	15.3	-69.5	0.0
2026-01-21 03:00:20.442822	340.8	15.4	-69.6	0.0
2026-01-21 03:00:21.555498	340.6	15.4	-69.4	0.0
2026-01-21 03:00:22.668579	340.4	15.5	-69.4	0.0
2026-01-21 03:00:23.781443	340.2	15.6	-69.0	0.0
2026-01-21 03:00:24.894868	339.9	15.7	-69.5	0.0
2026-01-21 03:00:26.007548	339.7	15.7	-69.5	0.0
2026-01-21 03:00:27.120187	339.4	15.8	-69.4	0.0
2026-01-21 03:00:28.233111	339.2	15.9	-69.2	0.0
2026-01-21 03:00:29.346270	339.0	16.0	-69.3	0.0
2026-01-21 03:00:30.459488	338.7	16.0	-69.6	0.0
2026-01-21 03:00:31.572693	338.5	16.1	-69.7	0.0
2026-01-21 03:00:32.685862	338.2	16.2	-69.6	0.0
2026-01-21 03:00:33.799223	338.0	16.2	-69.4	0.0
2026-01-21 03:00:34.911375	337.8	16.3	-69.7	0.0
2026-01-21 03:00:36.024220	337.5	16.4	-69.8	0.0
2026-01-21 03:00:37.137326	337.3	16.4	-69.5	0.0
2026-01-21 03:00:38.250713	337.0	16.5	-69.8	0.0
2026-01-21 03:00:39.363457	336.8	16.6	-69.6	0.0
2026-01-21 03:00:40.476603	336.5	16.7	-69.5	0.0
2026-01-21 03:00:41.591459	336.3	16.7	-69.7	0.0
2026-01-21 03:00:42.704349	336.0	16.8	-69.4	0.0
2026-01-21 03:00:43.817729	335.7	16.9	-69.2	0.0
2026-01-21 03:00:44.930714	335.5	16.9	-69.6	0.0
2026-01-21 03:00:46.043772	335.2	17.0	-69.6	0.0
2026-01-21 03:00:47.156362	335.0	17.1	-69.7	0.0
2026-01-21 03:00:48.269833	334.7	17.1	-69.5	0.0
2026-01-21 03:00:49.382645	334.5	17.2	-69.7	0.0
2026-01-21 03:00:50.495994	334.2	17.3	-69.7	0.0
2026-01-21 03:00:51.608884	333.9	17.3	-69.5	0.0
2026-01-21 03:00:52.722248	333.7	17.4	-69.6	0.0
2026-01-21 03:00:53.834740	333.4	17.5	-69.7	0.0
2026-01-21 03:00:54.947838	333.1	17.5	-69.7	0.0
2026-01-21 03:00:56.060998	332.9	17.6	-69.5	0.0
2026-01-21 03:00:57.174872	332.6	17.7	-69.7	0.0
2026-01-21 03:00:58.287818	332.3	17.7	-68.8	0.0
2026-01-21 03:00:59.401179	332.0	17.8	-69.6	0.0
2026-01-21 03:01:00.513857	331.8	17.8	-69.4	0.0
2026-01-21 03:01:01.626595	331.5	17.9	-69.5	0.0
2026-01-21 03:01:02.740008	331.2	18.0	-69.4	0.0
2026-01-21 03:01:03.852472	330.9	18.0	-69.6	0.0
2026-01-21 03:01:04.964849	330.7	18.1	-69.8	0.0
2026-01-21 03:01:06.077880	330.4	18.1	-69.3	0.0
2026-01-21 03:01:07.190267	330.1	18.2	-69.5	0.0
2026-01-21 03:01:08.302544	329.8	18.3	-69.5	0.0
2026-01-21 03:01:09.414927	329.5	18.3	-69.6	0.0
2026-01-21 03:01:10.528068	329.2	18.4	-69.3	0.0
2026-01-21 03:01:11.640923	329.0	18.4	-69.5	0.0
2026-01-21 03:01:12.754400	328.7	18.5	-69.7	0.0
2026-01-21 03:01:13.867495	328.4	18.6	-69.6	0.0
2026-01-21 03:01:14.980139	328.1	18.6	-69.5	0.0
2026-01-21 03:01:16.093636	327.8	18.7	-69.5	0.0
2026-01-21 03:01:17.206261	327.5	18.7	-69.5	0.0
2026-01-21 03:01:18.319457	327.2	18.8	-69.6	0.0
2026-01-21 03:01:19.431922	326.9	18.8	-69.3	0.0
2026-01-21 03:01:20.545068	326.6	18.9	-69.5	0.0
2026-01-21 03:01:21.658043	326.3	18.9	-69.6	0.0
2026-01-21 03:01:22.770919	326.0	19.0	-69.5	0.0
2026-01-21 03:01:23.884525	325.7	19.0	-69.5	0.0
2026-01-21 03:01:24.997392	325.4	19.1	-69.7	0.0
2026-01-21 03:01:26.110039	325.1	19.1	-69.6	0.0
2026-01-21 03:01:27.223369	324.8	19.2	-69.4	0.0
2026-01-21 03:01:28.335986	324.5	19.2	-69.5	0.0
2026-01-21 03:01:29.449631	324.2	19.3	-69.5	0.0
2026-01-21 03:01:30.562896	323.9	19.3	-69.5	0.0
2026-01-21 03:01:31.679091	323.6	19.4	-69.3	0.0
2026-01-21 03:01:32.792942	323.3	19.4	-69.6	0.0
2026-01-21 03:01:33.905756	323.0	19.5	-69.5	0.0
2026-01-21 03:01:35.018491	322.7	19.5	-69.4	0.0
2026-01-21 03:01:36.131311	322.4	19.5	-69.7	0.0
2026-01-21 03:01:37.244399	322.1	19.6	-69.6	0.0
2026-01-21 03:01:38.357743	321.8	19.6	-69.3	0.0
2026-01-21 03:01:39.470837	321.5	19.7	-69.7	0.0
2026-01-21 03:01:40.584225	321.2	19.7	-69.5	0.0
2026-01-21 03:01:41.697096	320.8	19.7	-69.5	0.0
2026-01-21 03:01:42.809871	320.5	19.8	-69.7	0.0
2026-01-21 03:01:43.923264	320.2	19.8	-69.8	0.0
2026-01-21 03:01:45.036806	319.9	19.9	-69.6	0.0
2026-01-21 03:01:46.149182	319.6	19.9	-69.5	0.0
2026-01-21 03:01:47.262412	319.3	19.9	-69.6	0.0
2026-01-21 03:01:48.375357	318.9	20.0	-69.5	0.0
2026-01-21 03:01:49.487926	318.6	20.0	-69.3	0.0
2026-01-21 03:01:50.600852	318.3	20.0	-69.6	0.0
2026-01-21 03:01:51.713917	318.0	20.1	-69.6	0.0
2026-01-21 03:01:52.827522	317.7	20.1	-69.5	0.0
2026-01-21 03:01:53.940173	317.3	20.1	-69.6	0.0
2026-01-21 03:01:55.052974	317.0	20.2	-69.5	0.0
2026-01-21 03:01:56.165962	316.7	20.2	-69.6	0.0
2026-01-21 03:01:57.278952	316.4	20.2	-69.4	0.0
2026-01-21 03:01:58.391831	316.0	20.2	-69.5	0.0
2026-01-21 03:01:59.505476	315.7	20.3	-69.4	0.0
2026-01-21 03:02:00.618831	315.4	20.3	-69.7	0.0
2026-01-21 03:02:01.731410	315.1	20.3	-69.7	0.0
2026-01-21 03:02:02.844362	314.7	20.3	-69.5	0.0
2026-01-21 03:02:03.956310	314.4	20.3	-69.5	0.0
2026-01-21 03:02:05.069305	314.1	20.4	-69.3	0.0
2026-01-21 03:02:06.181895	313.8	20.4	-69.5	0.0
2026-01-21 03:02:07.294635	313.4	20.4	-69.6	0.0
2026-01-21 03:02:08.407781	313.1	20.4	-69.6	0.0
2026-01-21 03:02:09.520869	312.8	20.4	-69.3	0.0
2026-01-21 03:02:10.633883	312.4	20.5	-69.7	0.0
2026-01-21 03:02:11.746816	312.1	20.5	-69.6	0.0
2026-01-21 03:02:12.859526	311.8	20.5	-69.7	0.0
2026-01-21 03:02:13.972380	311.4	20.5	-69.6	0.0
2026-01-21 03:02:15.085102	311.1	20.5	-69.6	0.0
2026-01-21 03:02:16.199092	310.8	20.5	-69.8	0.0
2026-01-21 03:02:17.311761	310.5	20.5	-69.7	0.0
2026-01-21 03:02:18.423914	310.1	20.5	-69.7	0.0
2026-01-21 03:02:19.539499	309.8	20.6	-69.7	0.0
2026-01-21 03:02:20.652709	309.5	20.6	-69.6	0.0
2026-01-21 03:02:21.765949	309.1	20.6	-69.6	0.0
2026-01-21 03:02:22.879075	308.8	20.6	-69.6	0.0
2026-01-21 03:02:23.991895	308.5	20.6	-69.5	0.0
2026-01-21 03:02:25.104771	308.1	20.6	-69.8	0.0
2026-01-21 03:02:26.217913	307.8	20.6	-69.7	0.0
2026-01-21 03:02:27.331102	307.5	20.6	-69.7	0.0
2026-01-21 03:02:28.444227	307.1	20.6	-69.6	0.0
2026-01-21 03:02:29.556797	306.8	20.6	-69.6	0.0
2026-01-21 03:02:30.669331	306.5	20.6	-69.5	0.0
2026-01-21 03:02:31.781244	306.1	20.6	-69.6	0.0
2026-01-21 03:02:32.893452	305.8	20.6	-69.3	0.0
2026-01-21 03:02:34.006944	305.5	20.6	-69.7	0.0
2026-01-21 03:02:35.120300	305.1	20.6	-69.7	0.0
2026-01-21 03:02:36.233006	304.8	20.6	-69.5	0.0
2026-01-21 03:02:37.346001	304.5	20.6	-69.4	0.0
2026-01-21 03:02:38.458338	304.1	20.6	-69.1	0.0
2026-01-21 03:02:39.570733	303.8	20.5	-69.6	0.0
2026-01-21 03:02:40.683524	303.5	20.5	-69.8	0.0
2026-01-21 03:02:41.796409	303.1	20.5	-69.6	0.0
2026-01-21 03:02:42.909917	302.8	20.5	-69.4	0.0
2026-01-21 03:02:44.022499	302.5	20.5	-69.7	0.0
2026-01-21 03:02:45.135357	302.1	20.5	-69.5	0.0
2026-01-21 03:02:46.248400	301.8	20.5	-69.7	0.0
2026-01-21 03:02:47.361395	301.5	20.5	-69.6	0.0
2026-01-21 03:02:48.474747	301.2	20.4	-69.6	0.0
2026-01-21 03:02:49.587685	300.8	20.4	-69.7	0.0
2026-01-21 03:02:50.700061	300.5	20.4	-69.5	0.0
2026-01-21 03:02:51.813218	300.2	20.4	-69.5	0.0
2026-01-21 03:02:52.926023	299.8	20.4	-69.6	0.0
2026-01-21 03:02:54.039032	299.5	20.3	-69.6	0.0
2026-01-21 03:02:55.152118	299.2	20.3	-69.5	0.0
2026-01-21 03:02:56.265531	298.9	20.3	-69.4	0.0
2026-01-21 03:02:57.378506	298.5	20.3	-69.7	0.0
2026-01-21 03:02:58.491369	298.2	20.2	-69.8	0.0
2026-01-21 03:02:59.604632	297.9	20.2	-69.5	0.0
2026-01-21 03:03:00.718117	297.6	20.2	-69.6	0.0
2026-01-21 03:03:01.831595	297.2	20.2	-69.8	0.0
2026-01-21 03:03:02.943863	296.9	20.1	-69.6	0.0
2026-01-21 03:03:04.059250	296.6	20.1	-69.5	0.0
2026-01-21 03:03:05.171525	296.3	20.1	-69.5	0.0
2026-01-21 03:03:06.284492	295.9	20.0	-69.4	0.0
2026-01-21 03:03:07.397969	295.6	20.0	-69.4	0.0
2026-01-21 03:03:08.511197	295.3	20.0	-69.4	0.0
2026-01-21 03:03:09.623669	295.0	19.9	-69.7	0.0
2026-01-21 03:03:10.736778	294.7	19.9	-69.6	0.0
2026-01-21 03:03:11.849838	294.3	19.9	-69.5	0.0
2026-01-21 03:03:12.962939	294.0	19.8	-69.7	0.0
2026-01-21 03:03:14.076485	293.7	19.8	-69.6	0.0
2026-01-21 03:03:15.190887	293.4	19.8	-69.4	0.0
2026-01-21 03:03:16.304281	293.1	19.7	-69.5	0.0
2026-01-21 03:03:17.417137	292.8	19.7	-69.6	0.0
2026-01-21 03:03:18.529708	292.4	19.6	-69.4	0.0
2026-01-21 03:03:19.642937	292.1	19.6	-69.6	0.0
2026-01-21 03:03:20.756019	291.8	19.6	-69.4	0.0
2026-01-21 03:03:21.869265	291.5	19.5	-69.6	0.0
2026-01-21 03:03:22.982349	291.2	19.5	-69.7	0.0
2026-01-21 03:03:24.095166	290.9	19.4	-69.7	0.0
2026-01-21 03:03:25.208244	290.6	19.4	-69.6	0.0
2026-01-21 03:03:26.321845	290.3	19.3	-69.7	0.0
2026-01-21 03:03:27.434255	290.0	19.3	-69.4	0.0
2026-01-21 03:03:28.547466	289.7	19.3	-69.5	0.0
2026-01-21 03:03:29.660715	289.4	19.2	-69.6	0.0
2026-01-21 03:03:30.773691	289.1	19.2	-69.6	0.0
2026-01-21 03:03:31.886578	288.8	19.1	-69.6	0.0
2026-01-21 03:03:32.999528	288.5	19.1	-69.7	0.0
2026-01-21 03:03:34.112245	288.2	19.0	-69.4	0.0
2026-01-21 03:03:35.225258	287.9	19.0	-69.7	0.0
2026-01-21 03:03:36.338526	287.6	18.9	-69.5	0.0
2026-01-21 03:03:37.451301	287.3	18.9	-69.5	0.0
2026-01-21 03:03:38.564308	287.0	18.8	-69.5	0.0
2026-01-21 03:03:39.677166	286.7	18.7	-69.1	0.0
2026-01-21 03:03:40.791021	286.4	18.7	-69.6	0.0
2026-01-21 03:03:41.903269	286.1	18.6	-69.5	0.0
2026-01-21 03:03:43.016786	285.8	18.6	-69.6	0.0
2026-01-21 03:03:44.129707	285.5	18.5	-69.5	0.0
2026-01-21 03:03:45.243143	285.2	18.5	-69.3	0.0
2026-01-21 03:03:46.355769	284.9	18.4	-69.7	0.0
2026-01-21 03:03:47.469183	284.7	18.4	-69.5	0.0
2026-01-21 03:03:48.582327	284.4	18.3	-69.7	0.0
2026-01-21 03:03:49.694984	284.1	18.2	-69.2	0.0
2026-01-21 03:03:50.807839	283.8	18.2	-69.6	0.0
2026-01-21 03:03:51.920808	283.5	18.1	-69.3	0.0
2026-01-21 03:03:53.035414	283.2	18.1	-69.5	0.0
2026-01-21 03:03:54.148152	283.0	18.0	-69.4	0.0
2026-01-21 03:03:55.262029	282.7	17.9	-69.9	0.0
2026-01-21 03:03:56.375142	282.4	17.9	-69.6	0.0
2026-01-21 03:03:57.488591	282.1	17.8	-69.4	0.0
2026-01-21 03:03:58.601154	281.9	17.7	-69.3	0.0
2026-01-21 03:03:59.713914	281.6	17.7	-69.5	0.0
2026-01-21 03:04:00.827457	281.3	17.6	-69.6	0.0
2026-01-21 03:04:01.940237	281.0	17.6	-69.6	0.0
2026-01-21 03:04:03.052841	280.8	17.5	-69.3	0.0
2026-01-21 03:04:04.165554	280.5	17.4	-69.5	0.0
2026-01-21 03:04:05.278995	280.2	17.4	-69.5	0.0
2026-01-21 03:04:06.391916	280.0	17.3	-69.4	0.0
2026-01-21 03:04:07.505040	279.7	17.2	-69.6	0.0
2026-01-21 03:04:08.618643	279.4	17.2	-69.7	0.0
2026-01-21 03:04:09.731815	279.2	17.1	-69.5	0.0
2026-01-21 03:04:10.844224	278.9	17.0	-69.4	0.0
2026-01-21 03:04:11.956419	278.7	17.0	-69.6	0.0
2026-01-21 03:04:13.070220	278.4	16.9	-69.1	0.0
2026-01-21 03:04:14.183338	278.1	16.8	-69.0	0.0
2026-01-21 03:04:15.296344	277.9	16.8	-69.7	0.0
2026-01-21 03:04:16.409459	277.6	16.7	-69.3	0.0
2026-01-21 03:04:17.522123	277.4	16.6	-69.5	0.0
2026-01-21 03:04:18.635248	277.1	16.5	-69.5	0.0
2026-01-21 03:04:19.747181	276.9	16.5	-69.6	0.0
2026-01-21 03:04:20.859944	276.6	16.4	-69.6	0.0
2026-01-21 03:04:21.972840	276.4	16.3	-69.5	0.0
2026-01-21 03:04:23.085607	276.1	16.3	-69.7	0.0
2026-01-21 03:04:24.198627	275.9	16.2	-69.5	0.0
2026-01-21 03:04:25.311721	275.6	16.1	-69.6	0.0
2026-01-21 03:04:26.424229	275.4	16.1	-69.7	0.0
2026-01-21 03:04:27.536812	275.2	16.0	-69.5	0.0
2026-01-21 03:04:28.650051	274.9	15.9	-69.5	0.0
2026-01-21 03:04:29.762681	274.7	15.8	-69.5	0.0
2026-01-21 03:04:30.875551	274.4	15.8	-69.6	0.0
2026-01-21 03:04:31.989105	274.2	15.7	-69.6	0.0
2026-01-21 03:04:33.102525	274.0	15.6	-69.4	0.0
2026-01-21 03:04:34.217140	273.7	15.5	-69.6	0.0
2026-01-21 03:04:35.329650	273.5	15.5	-69.5	0.0
2026-01-21 03:04:36.442891	273.3	15.4	-69.6	0.0
2026-01-21 03:04:37.555253	273.0	15.3	-69.7	0.0
2026-01-21 03:04:38.668319	272.8	15.2	-69.5	0.0
2026-01-21 03:04:39.781184	272.6	15.2	-69.5	0.0
2026-01-21 03:04:40.894635	272.3	15.1	-69.8	0.0
2026-01-21 03:04:42.006918	272.1	15.0	-69.7	0.0
#Closed at: 2026-01-21 03:00:09.957060