passes_logs/2026/01/25/R3.2S_Murmansk_2ch/R3.2S_Murmansk_2ch__20260125_142917_JL1KF02B02_rec2.log

#Pass ID: 20260125_142917_JL1KF02B02
#Satellite: JL1KF02B02
#Configuration: 01B_900M
#almurnet v.1.7.20251203
#Start time: 2026-01-25 14:35:55

#Version: 2.2.20231116
#Station: R3.2S_Murmansk_2ch
#Location: 33.079688 lon 68.888172 lat
#TLE: 1 61193U 24169E   26024.52893868  .00009249  00000+0  57481-3 0  9996
#TLE: 2 61193  97.5621 116.2803 0013684 104.2578 256.0172 15.09798233 74160

#Time	Az	El	Level	Level2	SNR	BER	BlckErr	Temp	State	Recorded	gain1	gain2
2026-01-25 14:35:55.35	313.99	7.91	-53.3	-55.6	6.2	2.90e-04	0	37	0	0	78	18395
2026-01-25 14:35:56.35	313.80	7.85	-53.0	-55.1	6.2	0.00e+00	0	39	104	0	77	18564
2026-01-25 14:35:57.34	313.62	7.80	-53.0	-55.1	6.2	0.00e+00	0	39	104	0	77	18586
2026-01-25 14:35:58.34	313.43	7.75	-52.9	-55.0	6.2	0.00e+00	0	40	104	0	77	18372
2026-01-25 14:35:59.35	313.25	7.69	-52.9	-55.0	6.2	0.00e+00	0	40	104	0	77	18278
2026-01-25 14:36:00.34	313.07	7.64	-52.9	-55.0	6.2	0.00e+00	0	39	104	0	77	18331
2026-01-25 14:36:01.34	312.89	7.59	-53.0	-55.1	6.2	0.00e+00	0	40	104	0	77	18487
2026-01-25 14:36:02.34	312.70	7.53	-52.9	-55.0	6.2	0.00e+00	0	40	104	0	77	18289
2026-01-25 14:36:03.33	312.53	7.48	-52.9	-55.0	6.2	0.00e+00	0	40	104	0	77	18300
2026-01-25 14:36:04.33	312.35	7.43	-52.9	-55.0	6.2	0.00e+00	0	40	104	0	77	18313
2026-01-25 14:36:05.33	312.17	7.37	-53.0	-55.1	6.2	0.00e+00	0	40	104	0	77	18428
2026-01-25 14:36:06.32	311.99	7.32	-52.9	-55.0	6.2	0.00e+00	0	40	104	0	77	18252
2026-01-25 14:36:07.33	311.81	7.26	-52.9	-55.0	6.2	0.00e+00	0	41	104	0	77	18289
2026-01-25 14:36:08.33	311.64	7.21	-52.9	-55.0	6.2	0.00e+00	0	41	104	0	77	18284
2026-01-25 14:36:09.33	311.46	7.15	-52.9	-55.0	6.2	0.00e+00	0	41	104	0	77	18345
2026-01-25 14:36:10.33	311.29	7.10	-52.9	-54.9	6.2	0.00e+00	0	41	104	0	77	18166
2026-01-25 14:36:11.33	311.11	7.05	-52.9	-55.0	6.2	0.00e+00	0	41	104	0	77	18214
2026-01-25 14:36:12.32	310.94	6.99	-52.9	-55.0	6.2	0.00e+00	0	41	104	0	77	18216
2026-01-25 14:36:13.32	310.77	6.94	-52.9	-55.0	6.2	0.00e+00	0	41	104	0	77	18308
2026-01-25 14:36:14.32	310.60	6.88	-52.8	-54.9	6.2	0.00e+00	0	41	104	0	77	18111
2026-01-25 14:36:15.32	310.43	6.83	-52.8	-54.9	6.2	0.00e+00	0	41	104	0	77	18163
2026-01-25 14:36:16.32	310.26	6.77	-52.9	-54.9	6.2	0.00e+00	0	41	104	0	77	18128
2026-01-25 14:36:17.32	310.09	6.72	-52.9	-55.0	6.2	0.00e+00	0	41	104	0	77	18291
2026-01-25 14:36:18.32	309.92	6.66	-52.8	-54.9	6.2	0.00e+00	0	41	104	0	77	18167
2026-01-25 14:36:19.32	309.75	6.61	-52.8	-54.9	6.2	0.00e+00	0	41	104	0	77	18091
2026-01-25 14:36:20.31	309.59	6.55	-52.8	-54.9	6.2	0.00e+00	0	41	104	0	77	18171
2026-01-25 14:36:21.31	309.42	6.50	-52.9	-55.0	6.2	0.00e+00	0	42	104	0	77	18301
2026-01-25 14:36:22.32	309.26	6.44	-52.8	-54.9	6.2	0.00e+00	0	42	104	0	77	18010
2026-01-25 14:36:23.31	309.10	6.39	-52.8	-54.9	6.2	0.00e+00	0	42	104	0	77	18051
2026-01-25 14:36:24.31	308.93	6.33	-52.8	-54.9	6.2	0.00e+00	0	42	104	0	77	18130
2026-01-25 14:36:25.31	308.77	6.28	-52.9	-55.0	6.2	0.00e+00	0	42	104	0	77	18181
2026-01-25 14:36:26.31	308.61	6.22	-52.8	-54.8	6.2	0.00e+00	0	42	104	0	77	17928
2026-01-25 14:36:27.31	308.45	6.17	-52.8	-54.9	6.2	0.00e+00	0	42	104	0	77	17997
2026-01-25 14:36:28.31	308.29	6.11	-52.8	-54.9	6.2	0.00e+00	0	42	104	0	77	18053
2026-01-25 14:36:29.31	308.13	6.06	-52.8	-54.9	6.2	0.00e+00	0	42	104	0	77	18107
2026-01-25 14:36:30.31	307.97	6.00	-52.7	-54.8	6.2	0.00e+00	0	42	104	0	77	17851
2026-01-25 14:36:31.31	307.81	5.95	-52.7	-54.9	6.2	0.00e+00	0	42	104	0	77	18000
2026-01-25 14:36:32.31	307.65	5.89	-52.8	-54.9	6.2	0.00e+00	0	43	104	0	77	18026
2026-01-25 14:36:33.32	307.49	5.84	-52.8	-54.9	6.2	0.00e+00	0	42	104	0	77	18065
2026-01-25 14:36:34.31	307.34	5.78	-52.7	-54.8	6.2	0.00e+00	0	43	104	0	77	17783
2026-01-25 14:36:35.32	307.18	5.72	-52.7	-54.8	6.2	0.00e+00	0	42	104	0	77	17872
2026-01-25 14:36:36.32	307.03	5.67	-52.8	-54.9	6.2	0.00e+00	0	43	104	0	77	18004
2026-01-25 14:36:37.32	306.87	5.61	-52.8	-54.9	6.2	0.00e+00	0	43	104	0	77	18024
2026-01-25 14:36:38.33	306.72	5.56	-52.6	-54.7	6.2	0.00e+00	0	43	104	0	77	17727
2026-01-25 14:36:39.33	306.57	5.50	-52.7	-54.7	6.2	0.00e+00	0	43	104	0	77	17761
2026-01-25 14:36:40.33	306.42	5.45	-52.7	-54.8	6.2	0.00e+00	0	43	104	0	77	17955
2026-01-25 14:36:41.33	306.27	5.39	-52.8	-54.8	6.2	0.00e+00	0	43	104	0	77	17950
2026-01-25 14:36:42.33	306.12	5.34	-52.6	-54.7	6.2	0.00e+00	0	43	104	0	77	17626
2026-01-25 14:36:43.33	305.97	5.28	-52.7	-54.7	6.2	0.00e+00	0	43	104	0	77	17763
2026-01-25 14:36:44.33	305.82	5.22	-52.7	-54.8	6.2	0.00e+00	0	43	104	0	77	17850
2026-01-25 14:36:45.34	305.67	5.17	-52.7	-54.8	6.2	0.00e+00	0	43	104	0	77	17873
2026-01-25 14:36:46.34	305.52	5.11	-52.6	-54.6	6.2	0.00e+00	0	43	104	0	77	17548
2026-01-25 14:36:47.35	305.37	5.06	-52.6	-54.7	6.2	0.00e+00	0	43	104	0	77	17704
2026-01-25 14:36:48.35	305.23	5.00	-52.6	-54.7	6.2	0.00e+00	0	43	104	0	77	17698
2026-01-25 14:36:49.35	305.08	4.95	-52.7	-54.8	6.2	0.00e+00	0	43	104	0	77	17902
2026-01-25 14:36:50.35	304.94	4.89	-52.8	-54.9	6.2	0.00e+00	0	43	104	0	77	18038
2026-01-25 14:36:51.36	304.79	4.83	-52.9	-55.0	6.2	0.00e+00	0	43	104	0	77	18270
2026-01-25 14:36:52.36	304.65	4.78	-53.1	-55.1	6.2	0.00e+00	0	44	104	0	77	18580
2026-01-25 14:36:53.36	304.51	4.72	-53.2	-55.3	6.2	0.00e+00	0	44	104	0	77	18880
2026-01-25 14:36:54.37	304.37	4.67	-53.3	-55.4	6.2	0.00e+00	0	43	104	0	77	19048
2026-01-25 14:36:55.38	304.22	4.61	-53.4	-55.5	6.2	0.00e+00	0	44	104	0	77	19307
2026-01-25 14:36:56.38	304.08	4.56	-53.4	-55.5	6.2	0.00e+00	0	44	104	0	77	19445
2026-01-25 14:36:57.38	303.94	4.50	-53.5	-55.6	6.2	0.00e+00	0	44	104	0	77	19522
2026-01-25 14:36:58.37	303.81	4.45	-53.5	-55.6	6.2	0.00e+00	0	44	104	0	77	19595
2026-01-25 14:36:59.38	303.67	4.39	-53.6	-55.6	6.2	0.00e+00	0	44	104	0	77	19661
2026-01-25 14:37:00.39	303.53	4.33	-53.6	-55.7	6.2	0.00e+00	0	44	104	0	77	19724
2026-01-25 14:37:01.39	303.39	4.28	-53.6	-55.6	6.2	0.00e+00	0	44	104	0	77	19700
2026-01-25 14:37:02.40	303.25	4.22	-53.6	-55.7	6.2	0.00e+00	0	44	104	0	77	19824
2026-01-25 14:37:03.40	303.12	4.17	-53.6	-55.7	6.2	0.00e+00	0	44	104	0	77	19735
2026-01-25 14:37:04.40	302.98	4.11	-53.6	-55.7	6.2	0.00e+00	0	44	104	0	77	19735
2026-01-25 14:37:05.40	302.85	4.06	-53.5	-55.6	6.2	0.00e+00	0	44	104	0	77	19658
2026-01-25 14:37:06.39	302.72	4.00	-53.5	-55.6	6.2	0.00e+00	0	44	104	0	77	19571
2026-01-25 14:37:07.40	302.58	3.95	-53.5	-55.5	6.2	0.00e+00	0	44	104	0	77	19476
2026-01-25 14:37:08.40	302.45	3.89	-53.4	-55.5	6.2	0.00e+00	0	44	104	0	77	19364
2026-01-25 14:37:09.40	302.32	3.84	-53.4	-55.5	6.2	0.00e+00	0	44	104	0	77	19349
2026-01-25 14:37:10.40	302.19	3.78	-53.4	-55.5	6.2	0.00e+00	0	44	104	0	77	19385
2026-01-25 14:37:11.39	302.06	3.73	-53.4	-55.5	6.2	0.00e+00	0	44	104	0	77	19259
2026-01-25 14:37:12.40	301.93	3.67	-53.4	-55.5	6.2	0.00e+00	0	44	104	0	77	19273
2026-01-25 14:37:13.40	301.80	3.62	-53.4	-55.4	6.2	0.00e+00	0	44	104	0	77	19222
2026-01-25 14:37:14.41	301.67	3.56	-53.3	-55.4	6.2	0.00e+00	0	44	104	0	77	19211
2026-01-25 14:37:15.41	301.54	3.51	-53.3	-55.4	6.2	0.00e+00	0	44	104	0	77	19221
2026-01-25 14:37:16.41	301.41	3.45	-53.3	-55.4	6.2	0.00e+00	0	44	104	0	77	19190
2026-01-25 14:37:17.41	301.28	3.40	-53.3	-55.4	6.2	0.00e+00	0	44	104	0	77	19231
2026-01-25 14:37:18.41	301.16	3.34	-53.3	-55.4	6.2	0.00e+00	0	44	104	0	77	19143
2026-01-25 14:37:19.41	301.03	3.29	-53.3	-55.4	6.2	0.00e+00	0	45	104	0	77	19144
2026-01-25 14:37:20.41	300.91	3.23	-53.3	-55.4	6.2	0.00e+00	0	44	104	0	77	19156
2026-01-25 14:37:21.41	300.78	3.18	-53.3	-55.4	6.2	0.00e+00	0	44	104	0	77	19145
2026-01-25 14:37:22.41	300.66	3.12	-53.3	-55.4	6.2	0.00e+00	0	45	104	0	77	19151
2026-01-25 14:37:23.41	300.54	3.07	-53.3	-55.4	6.2	0.00e+00	0	45	104	0	77	19141
2026-01-25 14:37:24.40	300.41	3.01	-53.3	-55.4	6.2	0.00e+00	0	44	104	0	77	19081
2026-01-25 14:37:25.40	300.29	2.96	-53.3	-55.4	6.2	0.00e+00	0	45	104	0	77	19072
2026-01-25 14:37:26.39	300.17	2.90	-53.3	-55.4	6.2	0.00e+00	0	45	104	0	77	19082
2026-01-25 14:37:27.39	300.05	2.85	-53.3	-55.4	6.2	0.00e+00	0	45	104	0	77	19045
2026-01-25 14:37:28.38	299.93	2.80	-53.3	-55.4	6.2	0.00e+00	0	45	104	0	77	19075
2026-01-25 14:37:29.38	299.81	2.74	-53.3	-55.4	6.2	0.00e+00	0	44	104	0	77	19090
2026-01-25 14:37:30.38	299.69	2.69	-53.3	-55.3	6.2	0.00e+00	0	45	104	0	77	19031
2026-01-25 14:37:31.38	299.57	2.63	-53.3	-55.4	6.2	0.00e+00	0	45	104	0	77	19089
2026-01-25 14:37:32.39	299.45	2.58	-53.3	-55.4	6.2	0.00e+00	0	45	104	0	77	19102
2026-01-25 14:37:33.39	299.34	2.52	-53.3	-55.4	6.2	0.00e+00	0	45	104	0	77	19094
2026-01-25 14:37:34.40	299.22	2.47	-53.3	-55.4	6.2	0.00e+00	0	45	104	0	77	19049
2026-01-25 14:37:35.40	299.10	2.41	-53.2	-55.4	6.2	0.00e+00	0	45	104	0	77	19070
2026-01-25 14:37:36.40	298.99	2.36	-53.3	-55.3	6.2	0.00e+00	0	45	104	0	77	18992
2026-01-25 14:37:37.39	298.87	2.31	-53.3	-55.3	6.2	0.00e+00	0	45	104	0	77	19033
2026-01-25 14:37:38.40	298.76	2.25	-53.3	-55.4	6.2	0.00e+00	0	45	104	0	77	19075
2026-01-25 14:37:39.40	298.64	2.20	-53.3	-55.3	6.2	0.00e+00	0	45	104	0	77	18999
2026-01-25 14:37:40.40	298.53	2.14	-53.3	-55.4	6.2	0.00e+00	0	45	104	0	77	19072
2026-01-25 14:37:41.40	298.42	2.09	-53.3	-55.3	6.2	0.00e+00	0	45	104	0	77	19033
2026-01-25 14:37:42.40	298.30	2.04	-53.3	-55.3	6.2	0.00e+00	0	45	104	0	77	19029
2026-01-25 14:37:43.40	298.19	1.98	-53.2	-55.3	6.2	0.00e+00	0	45	104	0	77	19011
2026-01-25 14:37:44.41	298.08	1.93	-53.2	-55.3	6.2	0.00e+00	0	45	104	0	77	19007

#Closed at: 2026-01-25 14:37:45
#Recorded file [0 MB]: D:/lorett/data/31041_260125_173555.dat