passes_logs/2026/01/25/R3.2S_Murmansk_2ch/R3.2S_Murmansk_2ch__20260125_215826_JL1KF02B01_rec.log

#Pass ID: 20260125_215826_JL1KF02B01
#Satellite: JL1KF02B01
#Configuration: 01B_900M
#almurnet v.1.7.20251203
#Start time: 2026-01-25 21:58:28

#Version: 2.2.20260125
#Station: R3.2S_Murmansk_2ch
#Location: 33.079688 lon 68.888172 lat
#TLE: 1 61191U 24169C   26025.11087501  .00008286  00000+0  51710-3 0  9998
#TLE: 2 61191  97.5612 116.5381 0014803  91.9188 268.3737 15.09667233 74242

#Time	Az	El	Level	Level2	SNR	BER	BlckErr	Temp	State	Recorded	gain1	gain2
2026-01-25 21:58:28.70	217.60	2.13	-47.8	-50.3	6.3	0.00e+00	0	46	0	0	66	20063
2026-01-25 21:58:31.60	217.90	2.29	-47.7	-50.3	6.2	0.00e+00	0	46	104	0	67	18868
2026-01-25 21:58:34.49	218.20	2.46	-47.7	-50.3	6.2	0.00e+00	0	46	104	0	67	18887
2026-01-25 21:58:37.39	218.51	2.63	-48.1	-50.6	6.2	0.00e+00	0	46	104	0	67	19619
2026-01-25 21:58:40.29	218.82	2.80	-48.1	-50.7	6.2	0.00e+00	0	46	104	0	67	19819
2026-01-25 21:58:43.19	219.13	2.97	-48.1	-50.6	6.2	0.00e+00	0	46	104	0	67	19696
2026-01-25 21:58:46.08	219.45	3.14	-48.0	-50.5	6.2	0.00e+00	0	47	104	0	67	19469
2026-01-25 21:58:48.98	219.77	3.31	-47.9	-50.4	6.2	0.00e+00	0	47	104	0	67	19168
2026-01-25 21:58:51.88	220.10	3.48	-47.7	-50.2	6.2	0.00e+00	0	47	104	0	67	18780
2026-01-25 21:58:54.77	220.43	3.66	-47.4	-49.9	6.2	0.00e+00	0	47	104	0	66	19171
2026-01-25 21:58:57.67	220.77	3.83	-46.6	-49.2	6.2	0.00e+00	0	47	104	0	65	18671
2026-01-25 21:59:00.57	221.11	4.01	-46.4	-48.9	6.2	0.00e+00	0	47	104	0	64	19216
2026-01-25 21:59:03.47	221.45	4.18	-46.4	-48.9	6.2	0.00e+00	0	47	104	0	64	19208
2026-01-25 21:59:06.37	221.81	4.36	-46.4	-48.9	6.2	0.00e+00	0	47	104	0	64	19161
2026-01-25 21:59:09.26	222.16	4.54	-46.4	-48.9	6.2	0.00e+00	0	47	104	0	64	19187
2026-01-25 21:59:12.16	222.52	4.71	-46.4	-48.9	6.2	0.00e+00	0	47	104	0	64	19154
2026-01-25 21:59:15.06	222.89	4.89	-46.3	-48.9	6.2	0.00e+00	0	47	104	0	64	19104
2026-01-25 21:59:17.95	223.26	5.07	-46.5	-49.0	6.2	0.00e+00	0	47	104	0	64	19345
2026-01-25 21:59:20.85	223.64	5.25	-46.3	-48.9	6.2	0.00e+00	0	48	104	0	64	19120
2026-01-25 21:59:23.75	224.02	5.43	-46.4	-49.0	6.2	0.00e+00	0	47	104	0	64	19307
2026-01-25 21:59:26.65	224.41	5.61	-46.3	-48.8	6.2	0.00e+00	0	48	104	0	64	18929
2026-01-25 21:59:29.55	224.81	5.79	-46.3	-48.8	6.2	0.00e+00	0	47	104	0	64	19026
2026-01-25 21:59:32.46	225.21	5.98	-46.4	-48.9	6.2	0.00e+00	0	48	104	0	64	19237
2026-01-25 21:59:35.35	225.62	6.16	-46.3	-48.9	6.2	0.00e+00	0	48	104	0	64	19084
2026-01-25 21:59:38.24	226.03	6.34	-46.3	-48.9	6.2	0.00e+00	0	48	104	0	64	19149
2026-01-25 21:59:41.14	226.45	6.53	-46.4	-48.9	6.2	0.00e+00	0	48	104	0	64	19234
2026-01-25 21:59:44.04	226.87	6.71	-46.5	-49.0	6.2	0.00e+00	0	48	104	0	64	19435
2026-01-25 21:59:46.93	227.31	6.90	-46.3	-48.9	6.2	0.00e+00	0	48	104	0	64	19157
2026-01-25 21:59:49.83	227.74	7.09	-46.4	-48.9	6.2	0.00e+00	0	48	104	0	64	19253
2026-01-25 21:59:52.73	228.19	7.27	-46.5	-49.0	6.2	0.00e+00	0	48	104	0	64	19387
2026-01-25 21:59:55.63	228.64	7.46	-46.5	-49.0	6.2	0.00e+00	0	48	104	0	64	19444
2026-01-25 21:59:58.53	229.10	7.65	-46.4	-49.0	6.2	0.00e+00	0	48	104	0	64	19333
2026-01-25 22:00:01.43	229.57	7.84	-46.4	-49.0	6.2	0.00e+00	0	48	104	0	64	19451
2026-01-25 22:00:04.33	230.04	8.02	-46.5	-49.1	6.2	0.00e+00	0	48	104	0	64	19575
2026-01-25 22:00:07.23	230.52	8.21	-46.5	-49.1	6.2	0.00e+00	0	48	104	0	64	19483
2026-01-25 22:00:10.13	231.01	8.40	-46.5	-49.1	6.2	0.00e+00	0	48	104	0	64	19501
2026-01-25 22:00:13.03	231.51	8.59	-46.5	-49.1	6.2	0.00e+00	0	48	104	0	64	19526
2026-01-25 22:00:15.93	232.01	8.78	-46.6	-49.2	6.2	0.00e+00	0	48	104	0	64	19733
2026-01-25 22:00:18.84	232.53	8.97	-44.7	-46.4	6.3	0.00e+00	0	48	104	0	61	17105
2026-01-25 22:00:21.74	233.04	9.16	-44.1	-45.7	6.4	0.00e+00	0	48	104	0	60	16636
2026-01-25 22:00:24.64	233.57	9.35	-45.6	-47.7	6.3	0.00e+00	0	48	104	0	61	19749
2026-01-25 22:00:27.54	234.11	9.54	-42.7	-43.8	6.6	0.00e+00	0	48	104	0	57	15856
2026-01-25 22:00:30.43	234.65	9.73	-43.4	-44.6	6.7	0.00e+00	0	48	104	0	57	17451
2026-01-25 22:00:33.34	235.20	9.92	-21.6	-21.7	15.5	7.60e-06	0	48	0	41943040	15	13970
2026-01-25 22:00:36.24	235.76	10.11	-20.8	-20.9	13.7	1.70e-04	0	48	0	369098752	13	14298
2026-01-25 22:00:39.14	236.33	10.30	-20.7	-20.8	13.7	1.60e-04	0	49	0	687865856	13	14125
2026-01-25 22:00:42.03	236.91	10.49	-20.5	-20.5	13.7	1.37e-04	0	49	0	1015021568	12	14595
2026-01-25 22:00:44.93	237.50	10.68	-20.3	-20.3	13.7	1.12e-04	0	49	0	1342177280	12	14235
2026-01-25 22:00:47.83	238.09	10.87	-20.2	-20.3	13.8	1.52e-04	0	49	0	1669332992	12	14207
2026-01-25 22:00:50.73	238.70	11.06	-20.1	-20.2	13.7	1.28e-04	0	49	0	1996488704	12	14051
2026-01-25 22:00:53.63	239.31	11.24	-20.2	-20.3	13.7	1.49e-04	0	49	0	2323644416	12	14136
2026-01-25 22:00:56.52	239.93	11.43	-20.1	-20.2	13.7	1.07e-04	0	49	0	2650800128	11	14830
2026-01-25 22:00:59.42	240.56	11.61	-20.4	-20.5	13.7	1.35e-04	0	49	0	2977955840	11	15339
2026-01-25 22:01:02.32	241.20	11.80	-20.3	-20.3	13.7	9.91e-05	0	49	0	3305111552	11	15117
2026-01-25 22:01:05.21	241.85	11.98	-20.3	-20.4	13.8	1.07e-04	0	49	0	3632267264	11	15137
2026-01-25 22:01:08.11	242.51	12.16	-19.9	-20.0	13.8	8.39e-05	0	49	0	3951034368	11	14516
2026-01-25 22:01:11.02	243.18	12.34	-19.9	-20.0	13.8	9.72e-05	0	49	0	4278190080	11	14507
2026-01-25 22:01:13.91	243.86	12.52	-19.7	-19.8	13.8	7.24e-05	0	49	0	4605345792	11	14191
2026-01-25 22:01:16.81	244.55	12.70	-19.9	-20.0	13.8	8.01e-05	0	49	0	4932501504	11	14554
2026-01-25 22:01:19.71	245.24	12.88	-19.9	-19.9	13.8	1.20e-04	0	49	0	5259657216	11	14389
2026-01-25 22:01:22.61	245.95	13.05	-19.6	-19.7	13.9	1.37e-04	0	49	0	5586812928	11	14019
2026-01-25 22:01:25.51	246.67	13.22	-19.5	-19.6	13.8	1.47e-04	0	49	0	5913968640	11	13835
2026-01-25 22:01:28.41	247.40	13.39	-19.4	-19.5	13.8	1.33e-04	0	49	0	6241124352	10	14454
2026-01-25 22:01:31.31	248.13	13.56	-19.3	-19.4	13.9	1.73e-04	0	49	0	6568280064	10	14358
2026-01-25 22:01:34.21	248.88	13.72	-19.3	-19.4	13.9	1.60e-04	0	49	0	6887047168	10	14281
2026-01-25 22:01:37.12	249.64	13.89	-19.3	-19.3	14.1	1.12e-04	0	49	0	7214202880	10	14247
2026-01-25 22:01:40.01	250.40	14.05	-19.1	-19.2	14.1	6.67e-05	0	49	0	7541358592	10	14006
2026-01-25 22:01:42.91	251.17	14.20	-19.2	-19.3	14.2	2.86e-05	0	49	0	7868514304	10	14169
2026-01-25 22:01:45.81	251.96	14.36	-19.1	-19.2	14.3	2.28e-05	0	49	0	8195670016	10	13957
2026-01-25 22:01:48.71	252.75	14.51	-19.1	-19.2	14.4	1.71e-05	0	49	0	8522825728	10	14039
2026-01-25 22:01:51.61	253.55	14.65	-19.0	-19.1	14.3	5.70e-06	0	49	0	8849981440	10	13873
2026-01-25 22:01:54.51	254.36	14.80	-18.9	-19.0	14.4	9.50e-06	0	49	0	9177137152	9	14487
2026-01-25 22:01:57.41	255.18	14.94	-18.9	-19.0	14.3	3.80e-06	0	49	0	9504292864	9	14441
2026-01-25 22:02:00.31	256.01	15.07	-18.9	-18.9	14.4	5.70e-06	0	49	0	9823059968	9	14391
2026-01-25 22:02:03.21	256.85	15.20	-18.7	-18.8	14.7	1.90e-06	0	49	0	10150215680	9	14194
2026-01-25 22:02:06.10	257.69	15.33	-18.7	-18.7	14.5	5.70e-06	0	49	0	10477371392	9	14108
2026-01-25 22:02:09.00	258.54	15.45	-18.7	-18.7	14.5	2.86e-05	0	49	0	10796138496	9	14095
2026-01-25 22:02:11.89	259.40	15.57	-18.7	-18.8	14.4	1.54e-04	0	49	0	11123294208	9	14135
2026-01-25 22:02:14.79	260.27	15.68	-18.8	-18.9	14.4	1.30e-04	0	49	0	11450449920	9	14275
2026-01-25 22:02:17.69	261.14	15.79	-18.7	-18.7	14.4	1.56e-04	0	50	0	11777605632	9	14080
2026-01-25 22:02:20.59	262.03	15.89	-18.7	-18.8	14.3	1.47e-04	0	49	0	12104761344	9	14156
2026-01-25 22:02:23.49	262.92	15.99	-18.7	-18.8	14.2	1.64e-04	0	49	0	12431917056	9	14179
2026-01-25 22:02:26.39	263.81	16.08	-18.6	-18.7	14.3	2.54e-04	0	49	0	12759072768	9	13995
2026-01-25 22:02:29.28	264.71	16.17	-18.6	-18.7	14.0	1.60e-04	0	49	0	13086228480	9	13989
2026-01-25 22:02:32.18	265.62	16.25	-18.7	-18.8	14.0	1.72e-04	0	50	0	13413384192	9	14146
2026-01-25 22:02:35.07	266.53	16.32	-18.6	-18.7	14.2	1.52e-04	0	49	0	13740539904	9	14017
2026-01-25 22:02:37.97	267.44	16.39	-18.6	-18.7	14.1	1.77e-04	0	49	0	14059307008	9	14042
2026-01-25 22:02:40.87	268.37	16.46	-18.7	-18.8	14.2	2.48e-04	0	50	0	14386462720	9	14224
2026-01-25 22:02:43.77	269.29	16.51	-18.6	-18.7	14.2	1.56e-04	0	49	0	14713618432	9	14003
2026-01-25 22:02:46.66	270.22	16.56	-18.4	-18.4	14.1	2.21e-04	0	49	0	15040774144	8	14434
2026-01-25 22:02:49.56	271.15	16.61	-18.4	-18.5	14.0	2.25e-04	0	49	0	15367929856	8	14476
2026-01-25 22:02:52.46	272.09	16.65	-18.4	-18.5	14.0	2.31e-04	0	49	0	15695085568	8	14453
2026-01-25 22:02:55.36	273.03	16.68	-18.5	-18.6	14.0	1.89e-04	0	49	0	16022241280	8	14702
2026-01-25 22:02:58.26	273.97	16.70	-18.6	-18.7	13.9	2.35e-04	0	50	0	16349396992	8	14859
2026-01-25 22:03:01.16	274.91	16.72	-18.7	-18.7	14.0	1.28e-04	0	49	0	16676552704	8	14938
2026-01-25 22:03:04.07	275.86	16.73	-18.7	-18.8	13.9	1.35e-04	0	50	0	16995319808	8	14979
2026-01-25 22:03:06.97	276.80	16.73	-18.8	-18.8	13.9	6.29e-05	0	49	0	17322475520	8	15099
2026-01-25 22:03:09.87	277.74	16.73	-18.8	-18.8	13.8	8.20e-05	0	50	0	17649631232	8	15071
2026-01-25 22:03:12.78	278.69	16.72	-18.8	-18.8	13.8	1.14e-04	0	49	0	17976786944	8	15064
2026-01-25 22:03:15.69	279.63	16.71	-18.8	-18.8	13.8	8.20e-05	0	49	0	18303942656	8	15103
2026-01-25 22:03:18.60	280.58	16.69	-18.8	-18.9	13.8	1.26e-04	0	50	0	18631098368	8	15190
2026-01-25 22:03:21.50	281.52	16.66	-18.9	-19.0	13.8	5.34e-05	0	50	0	18958254080	8	15320
2026-01-25 22:03:24.41	282.46	16.62	-19.0	-19.1	13.8	7.43e-05	0	49	0	19285409792	8	15515
2026-01-25 22:03:27.32	283.39	16.58	-18.9	-19.0	13.8	7.62e-05	0	49	0	19612565504	8	15324
2026-01-25 22:03:30.24	284.33	16.53	-19.0	-19.1	13.8	8.01e-05	0	50	0	19939721216	8	15478
2026-01-25 22:03:33.16	285.26	16.48	-18.9	-19.0	13.8	8.96e-05	0	50	0	20275265536	8	15368
2026-01-25 22:03:36.10	286.20	16.41	-19.3	-19.4	14.0	6.48e-05	0	50	0	20602421248	9	15139
2026-01-25 22:03:39.05	287.13	16.35	-19.4	-19.4	13.9	8.77e-05	0	50	0	20937965568	9	15256
2026-01-25 22:03:42.00	288.06	16.27	-19.3	-19.3	13.8	7.62e-05	0	50	0	21265121280	9	15094
2026-01-25 22:03:45.01	289.00	16.19	-19.3	-19.4	13.9	7.05e-05	0	50	0	21609054208	9	15206
2026-01-25 22:03:48.04	289.94	16.10	-19.5	-19.5	13.8	8.96e-05	0	50	0	21944598528	9	15428
2026-01-25 22:03:51.07	290.88	16.01	-19.6	-19.6	14.0	8.58e-05	0	50	0	22288531456	9	15644
2026-01-25 22:03:54.10	291.81	15.90	-19.5	-19.5	13.9	1.16e-04	0	50	0	22624075776	9	15435
2026-01-25 22:03:57.13	292.73	15.80	-19.6	-19.7	13.9	1.41e-04	0	49	0	22968008704	10	14888
2026-01-25 22:04:00.15	293.64	15.69	-19.7	-19.8	14.0	1.43e-04	0	50	0	23311941632	10	15007
2026-01-25 22:04:03.18	294.55	15.57	-19.7	-19.8	14.0	1.09e-04	0	50	0	23647485952	10	14949
2026-01-25 22:04:06.22	295.45	15.44	-19.8	-19.9	14.0	1.51e-04	0	50	0	23991418880	10	15152
2026-01-25 22:04:09.25	296.33	15.32	-19.9	-19.9	13.9	1.56e-04	0	50	0	24326963200	10	15255
2026-01-25 22:04:12.28	297.21	15.18	-20.0	-20.0	13.9	1.51e-04	0	50	0	24670896128	10	15434
2026-01-25 22:04:15.30	298.08	15.05	-20.0	-20.0	14.0	1.85e-04	0	50	0	25014829056	10	15453
2026-01-25 22:04:18.33	298.94	14.90	-20.0	-20.0	14.1	1.37e-04	0	50	0	25350373376	10	15467
2026-01-25 22:04:21.36	299.79	14.76	-19.9	-20.0	14.0	1.49e-04	0	50	0	25694306304	10	15416
2026-01-25 22:04:24.39	300.64	14.61	-20.0	-20.0	14.1	1.09e-04	0	50	0	26029850624	10	15448
2026-01-25 22:04:27.42	301.47	14.45	-19.9	-20.0	13.9	1.45e-04	0	49	0	26373783552	10	15321
2026-01-25 22:04:30.45	302.29	14.30	-20.0	-20.1	13.9	1.85e-04	0	50	0	26709327872	10	15577
2026-01-25 22:04:33.48	303.10	14.13	-20.1	-20.2	13.9	1.73e-04	0	50	0	27053260800	10	15657
2026-01-25 22:04:36.51	303.90	13.97	-20.1	-20.2	13.9	1.03e-04	0	50	0	27397193728	10	15747
2026-01-25 22:04:39.53	304.69	13.80	-20.4	-20.4	13.9	1.37e-04	0	49	0	27741126656	11	15242
2026-01-25 22:04:42.56	305.47	13.63	-20.1	-20.2	13.9	1.26e-04	0	50	0	28076670976	11	14829
2026-01-25 22:04:45.59	306.25	13.46	-20.1	-20.1	13.9	9.15e-05	0	50	0	28420603904	11	14756
2026-01-25 22:04:48.62	307.01	13.28	-20.1	-20.2	13.8	1.01e-04	0	50	0	28764536832	11	14847
2026-01-25 22:04:51.65	307.76	13.10	-20.2	-20.2	13.8	8.01e-05	0	50	0	29100081152	11	14904
2026-01-25 22:04:54.68	308.50	12.92	-20.1	-20.2	13.9	8.58e-05	0	50	0	29444014080	11	14872
2026-01-25 22:04:57.71	309.22	12.74	-20.3	-20.4	13.8	9.53e-05	0	50	0	29787947008	11	15221
2026-01-25 22:05:00.74	309.94	12.56	-20.2	-20.3	13.8	7.82e-05	0	50	0	30123491328	11	15016
2026-01-25 22:05:03.77	310.65	12.37	-20.3	-20.4	13.8	9.34e-05	0	50	0	30467424256	11	15228
2026-01-25 22:05:06.80	311.35	12.18	-20.6	-20.7	13.8	9.34e-05	0	50	0	30802968576	11	15654
2026-01-25 22:05:09.83	312.04	11.99	-20.5	-20.6	13.8	9.72e-05	0	50	0	31146901504	11	15557
2026-01-25 22:05:12.86	312.71	11.80	-20.6	-20.6	13.9	1.30e-04	0	50	0	31490834432	11	15630
2026-01-25 22:05:15.89	313.38	11.61	-20.5	-20.6	13.8	1.14e-04	0	50	0	31826378752	12	14612
2026-01-25 22:05:18.92	314.04	11.42	-46.8	-49.4	6.2	0.00e+00	0	49	104	32086425600	64	20304
2026-01-25 22:05:21.95	314.69	11.23	-46.9	-49.4	6.2	0.00e+00	0	49	104	32086425600	64	20283
2026-01-25 22:05:24.98	315.32	11.03	-46.8	-49.4	6.2	0.00e+00	0	49	104	32086425600	64	20210
2026-01-25 22:05:28.01	315.95	10.84	-46.8	-49.3	6.2	0.00e+00	0	50	104	32086425600	64	20136
2026-01-25 22:05:31.04	316.57	10.64	-46.8	-49.3	6.2	0.00e+00	0	49	104	32086425600	64	20085
2026-01-25 22:05:34.07	317.18	10.44	-46.8	-49.4	6.2	0.00e+00	0	49	104	32086425600	64	20171
2026-01-25 22:05:37.10	317.77	10.25	-46.7	-49.3	6.2	0.00e+00	0	49	104	32086425600	64	20015
2026-01-25 22:05:40.12	318.36	10.05	-46.7	-49.2	6.2	0.00e+00	0	49	104	32086425600	64	19924
2026-01-25 22:05:43.15	318.94	9.85	-46.7	-49.2	6.2	0.00e+00	0	49	104	32086425600	64	19914
2026-01-25 22:05:46.19	319.51	9.66	-46.7	-49.3	6.2	0.00e+00	0	49	104	32086425600	64	19990
2026-01-25 22:05:49.21	320.07	9.46	-46.6	-49.2	6.2	0.00e+00	0	49	104	32086425600	64	19769
2026-01-25 22:05:52.25	320.63	9.26	-46.6	-49.2	6.2	0.00e+00	0	49	104	32086425600	64	19706
2026-01-25 22:05:55.28	321.17	9.06	-46.6	-49.1	6.2	0.00e+00	0	49	104	32086425600	64	19673
2026-01-25 22:05:58.30	321.71	8.87	-46.6	-49.1	6.2	0.00e+00	0	49	104	32086425600	64	19697
2026-01-25 22:06:01.32	322.23	8.67	-46.5	-49.1	6.2	0.00e+00	0	49	104	32086425600	64	19560
2026-01-25 22:06:04.35	322.75	8.47	-46.5	-49.1	6.2	0.00e+00	0	49	104	32086425600	64	19492
2026-01-25 22:06:07.38	323.26	8.28	-46.5	-49.1	6.2	0.00e+00	0	49	104	32086425600	64	19559
2026-01-25 22:06:10.41	323.76	8.08	-46.4	-49.0	6.2	0.00e+00	0	49	104	32086425600	64	19424
2026-01-25 22:06:13.45	324.26	7.88	-46.4	-49.0	6.2	0.00e+00	0	49	104	32086425600	64	19373
2026-01-25 22:06:16.48	324.75	7.69	-46.4	-48.9	6.2	0.00e+00	0	49	104	32086425600	64	19247
2026-01-25 22:06:19.50	325.23	7.49	-46.4	-49.0	6.2	0.00e+00	0	49	104	32086425600	64	19281
2026-01-25 22:06:22.53	325.70	7.30	-46.3	-48.9	6.2	0.00e+00	0	49	104	32086425600	64	19189
2026-01-25 22:06:25.56	326.16	7.10	-46.3	-48.9	6.2	0.00e+00	0	49	104	32086425600	64	19228
2026-01-25 22:06:28.59	326.62	6.91	-46.3	-48.9	6.2	0.00e+00	0	49	104	32086425600	64	19058
2026-01-25 22:06:31.63	327.07	6.72	-46.3	-48.9	6.2	0.00e+00	0	49	104	32086425600	64	19105
2026-01-25 22:06:34.66	327.51	6.52	-46.3	-48.8	6.2	0.00e+00	0	49	104	32086425600	64	18988
2026-01-25 22:06:37.69	327.95	6.33	-46.3	-48.9	6.2	0.00e+00	0	49	104	32086425600	64	19073
2026-01-25 22:06:40.71	328.38	6.14	-46.2	-48.7	6.2	0.00e+00	0	49	104	32086425600	64	18657
2026-01-25 22:06:43.74	328.80	5.95	-46.2	-48.7	6.2	0.00e+00	0	49	104	32086425600	64	18818
2026-01-25 22:06:46.77	329.22	5.76	-46.1	-48.7	6.2	0.00e+00	0	49	104	32086425600	64	18669
2026-01-25 22:06:49.80	329.63	5.57	-46.2	-48.8	6.2	0.00e+00	0	49	104	32086425600	64	18933
2026-01-25 22:06:52.83	330.03	5.39	-46.0	-48.5	6.2	0.00e+00	0	49	104	32086425600	64	18378
2026-01-25 22:06:55.85	330.43	5.20	-46.1	-48.6	6.2	0.00e+00	0	49	104	32086425600	64	18560
2026-01-25 22:06:58.89	330.82	5.01	-46.1	-48.6	6.2	0.00e+00	0	49	104	32086425600	63	19650
2026-01-25 22:07:01.91	331.20	4.83	-46.8	-49.3	6.2	0.00e+00	0	49	104	32086425600	64	20157
2026-01-25 22:07:04.94	331.58	4.64	-47.1	-49.6	6.2	0.00e+00	0	49	104	32086425600	64	20870
2026-01-25 22:07:07.98	331.96	4.46	-47.2	-49.8	6.2	0.00e+00	0	49	104	32086425600	65	19992
2026-01-25 22:07:11.01	332.33	4.27	-47.0	-49.6	6.2	0.00e+00	0	49	104	32086425600	65	19502
2026-01-25 22:07:14.04	332.69	4.09	-47.1	-49.7	6.2	0.00e+00	0	49	104	32086425600	65	19748
2026-01-25 22:07:17.07	333.05	3.91	-47.2	-49.7	6.2	0.00e+00	0	49	104	32086425600	65	19897
2026-01-25 22:07:20.10	333.40	3.73	-47.2	-49.7	6.2	0.00e+00	0	49	104	32086425600	65	19857
2026-01-25 22:07:23.13	333.75	3.55	-47.1	-49.7	6.2	0.00e+00	0	49	104	32086425600	65	19714
2026-01-25 22:07:26.15	334.09	3.37	-47.1	-49.6	6.2	0.00e+00	0	49	104	32086425600	65	19668
2026-01-25 22:07:29.19	334.43	3.19	-47.0	-49.5	6.2	0.00e+00	0	49	104	32086425600	65	19450
2026-01-25 22:07:32.21	334.76	3.01	-47.0	-49.5	6.2	0.00e+00	0	49	104	32086425600	65	19455
2026-01-25 22:07:35.21	335.08	2.84	-47.0	-49.6	6.2	0.00e+00	0	49	104	32086425600	65	19482
2026-01-25 22:07:38.17	335.40	2.66	-47.0	-49.6	6.2	0.00e+00	0	49	104	32086425600	65	19488
2026-01-25 22:07:41.10	335.71	2.49	-47.0	-49.5	6.2	0.00e+00	0	49	104	32086425600	65	19299
2026-01-25 22:07:44.01	336.01	2.33	-47.0	-49.5	6.2	0.00e+00	0	49	104	32086425600	65	19423
2026-01-25 22:07:46.93	336.31	2.16	-47.0	-49.5	6.2	0.00e+00	0	49	104	32086425600	65	19293
2026-01-25 22:07:49.84	336.60	1.99	-46.9	-49.5	6.2	0.00e+00	0	49	104	32086425600	65	19298

#Closed at: 2026-01-25 22:07:51
#Recorded file [32086 MB]: D:/lorett/data/31045_260126_005828.dat