passes_logs/2026/01/25/R3.2S_Murmansk_2ch/R3.2S_Murmansk_2ch__20260125_214247_JL1KF02B03_rec.log

#Pass ID: 20260125_214247_JL1KF02B03
#Satellite: JL1KF02B03
#Configuration: 01B_900M
#almurnet v.1.7.20251203
#Start time: 2026-01-25 21:42:48

#Version: 2.2.20260125
#Station: R3.2S_Murmansk_2ch
#Location: 33.079688 lon 68.888172 lat
#TLE: 1 61190U 24169B   26025.16637787  .00008066  00000+0  50525-3 0  9998
#TLE: 2 61190  97.5618 116.1527 0014955 147.5929 212.6222 15.09536568 74252

#Time	Az	El	Level	Level2	SNR	BER	BlckErr	Temp	State	Recorded	gain1	gain2
2026-01-25 21:42:48.33	210.12	2.08	-47.7	-50.3	6.3	0.00e+00	0	45	0	0	66	19947
2026-01-25 21:42:51.36	210.39	2.26	-48.1	-50.6	6.2	0.00e+00	0	45	104	0	66	20710
2026-01-25 21:42:54.39	210.67	2.44	-48.1	-50.6	6.2	0.00e+00	0	46	104	0	66	20769
2026-01-25 21:42:57.42	210.95	2.63	-48.0	-50.6	6.2	0.00e+00	0	46	104	0	66	20704
2026-01-25 21:43:00.45	211.24	2.81	-47.9	-50.5	6.2	0.00e+00	0	46	104	0	66	20438
2026-01-25 21:43:03.48	211.53	3.00	-47.8	-50.3	6.2	0.00e+00	0	46	104	0	66	20088
2026-01-25 21:43:06.50	211.82	3.18	-47.5	-50.0	6.2	0.00e+00	0	46	104	0	66	19470
2026-01-25 21:43:09.53	212.12	3.37	-47.1	-49.6	6.2	0.00e+00	0	46	104	0	66	18516
2026-01-25 21:43:12.56	212.42	3.56	-46.4	-49.0	6.2	0.00e+00	0	46	104	0	64	19314
2026-01-25 21:43:15.59	212.73	3.75	-46.4	-48.9	6.2	0.00e+00	0	46	104	0	64	19203
2026-01-25 21:43:18.62	213.04	3.95	-46.4	-48.9	6.2	0.00e+00	0	47	104	0	64	19211
2026-01-25 21:43:21.65	213.36	4.14	-46.4	-48.9	6.2	0.00e+00	0	47	104	0	64	19238
2026-01-25 21:43:24.68	213.68	4.33	-46.4	-48.9	6.2	0.00e+00	0	47	104	0	64	19217
2026-01-25 21:43:27.71	214.01	4.53	-46.4	-48.9	6.2	0.00e+00	0	47	104	0	64	19105
2026-01-25 21:43:30.74	214.34	4.73	-46.3	-48.9	6.2	0.00e+00	0	47	104	0	64	19127
2026-01-25 21:43:33.77	214.68	4.92	-46.3	-48.9	6.2	0.00e+00	0	47	104	0	64	19120
2026-01-25 21:43:36.80	215.02	5.12	-46.4	-49.0	6.2	0.00e+00	0	47	104	0	64	19301
2026-01-25 21:43:39.83	215.37	5.32	-46.5	-49.1	6.2	0.00e+00	0	47	104	0	64	19491
2026-01-25 21:43:42.86	215.72	5.52	-46.3	-48.9	6.2	0.00e+00	0	47	104	0	64	19048
2026-01-25 21:43:45.89	216.08	5.73	-46.3	-48.9	6.2	0.00e+00	0	47	104	0	64	19064
2026-01-25 21:43:48.92	216.45	5.93	-46.4	-49.0	6.2	0.00e+00	0	47	104	0	64	19325
2026-01-25 21:43:51.95	216.82	6.14	-46.5	-49.0	6.2	0.00e+00	0	47	104	0	64	19406
2026-01-25 21:43:54.97	217.20	6.34	-46.3	-48.8	6.2	0.00e+00	0	47	104	0	64	19034
2026-01-25 21:43:58.00	217.58	6.55	-46.4	-48.9	6.2	0.00e+00	0	47	104	0	64	19195
2026-01-25 21:44:01.03	217.98	6.76	-46.5	-49.0	6.2	0.00e+00	0	47	104	0	64	19357
2026-01-25 21:44:04.06	218.37	6.97	-46.5	-49.0	6.2	0.00e+00	0	47	104	0	64	19468
2026-01-25 21:44:07.09	218.78	7.18	-46.4	-48.9	6.2	0.00e+00	0	48	104	0	64	19233
2026-01-25 21:44:10.12	219.19	7.39	-46.4	-49.0	6.2	0.00e+00	0	47	104	0	64	19269
2026-01-25 21:44:13.15	219.61	7.60	-46.5	-49.0	6.2	0.00e+00	0	48	104	0	64	19430
2026-01-25 21:44:16.18	220.04	7.82	-46.6	-49.1	6.2	0.00e+00	0	47	104	0	64	19614
2026-01-25 21:44:19.21	220.47	8.03	-46.5	-49.0	6.2	0.00e+00	0	48	104	0	64	19422
2026-01-25 21:44:22.24	220.91	8.25	-46.5	-49.0	6.2	0.00e+00	0	48	104	0	64	19473
2026-01-25 21:44:25.27	221.36	8.47	-46.6	-49.1	6.2	0.00e+00	0	48	104	0	64	19634
2026-01-25 21:44:28.30	221.82	8.69	-46.6	-49.2	6.2	0.00e+00	0	48	104	0	64	19732
2026-01-25 21:44:31.33	222.29	8.91	-46.6	-49.1	6.2	0.00e+00	0	48	104	0	64	19566
2026-01-25 21:44:34.35	222.76	9.13	-46.5	-49.1	6.2	0.00e+00	0	48	104	0	64	19560
2026-01-25 21:44:37.39	223.24	9.35	-45.7	-48.5	6.2	0.00e+00	0	48	104	0	63	19318
2026-01-25 21:44:40.42	223.73	9.58	-26.0	-26.1	14.7	2.46e-04	0	48	0	109051904	24	13848
2026-01-25 21:44:43.45	224.23	9.80	-24.8	-24.9	14.3	3.89e-04	0	48	0	452984832	21	14363
2026-01-25 21:44:46.48	224.74	10.02	-24.8	-24.9	14.3	3.80e-04	0	48	0	796917760	21	14281
2026-01-25 21:44:49.51	225.26	10.25	-24.7	-24.8	14.4	2.48e-04	0	48	0	1132462080	21	14175
2026-01-25 21:44:52.54	225.79	10.48	-24.4	-24.5	14.3	2.38e-04	0	48	0	1476395008	20	14501
2026-01-25 21:44:55.56	226.32	10.70	-24.6	-24.6	14.2	2.04e-04	0	48	0	1811939328	20	14735
2026-01-25 21:44:58.57	226.87	10.93	-24.7	-24.8	14.3	2.00e-04	0	48	0	2147483648	20	14989
2026-01-25 21:45:01.59	227.42	11.16	-24.4	-24.4	14.3	1.94e-04	0	48	0	2491416576	20	14397
2026-01-25 21:45:04.61	227.99	11.39	-24.3	-24.3	14.4	1.43e-04	0	49	0	2826960896	20	14254
2026-01-25 21:45:07.61	228.56	11.62	-24.3	-24.3	14.3	1.45e-04	0	49	0	3170893824	20	14238
2026-01-25 21:45:10.64	229.15	11.85	-24.2	-24.2	14.3	1.66e-04	0	48	0	3506438144	20	14057
2026-01-25 21:45:13.67	229.75	12.08	-24.1	-24.2	14.2	1.60e-04	0	48	0	3850371072	20	13986
2026-01-25 21:45:16.70	230.35	12.31	-24.1	-24.1	14.3	1.24e-04	0	48	0	4194304000	19	14722
2026-01-25 21:45:19.73	230.98	12.54	-24.1	-24.2	14.3	1.47e-04	0	49	0	4529848320	19	14818
2026-01-25 21:45:22.75	231.60	12.77	-23.9	-24.0	14.3	1.35e-04	0	49	0	4873781248	19	14462
2026-01-25 21:45:25.78	232.25	13.00	-23.9	-24.0	14.3	9.72e-05	0	49	0	5209325568	19	14474
2026-01-25 21:45:28.80	232.90	13.23	-23.9	-24.0	14.3	1.62e-04	0	49	0	5553258496	19	14517
2026-01-25 21:45:31.84	233.57	13.46	-24.0	-24.0	14.4	1.37e-04	0	48	0	5897191424	19	14585
2026-01-25 21:45:34.87	234.25	13.69	-23.8	-23.8	14.2	1.39e-04	0	48	0	6232735744	19	14207
2026-01-25 21:45:37.89	234.94	13.92	-23.7	-23.7	14.3	1.22e-04	0	49	0	6576668672	19	14040
2026-01-25 21:45:40.92	235.64	14.15	-23.6	-23.7	14.3	1.28e-04	0	49	0	6912212992	19	13967
2026-01-25 21:45:43.95	236.36	14.38	-23.6	-23.7	14.3	1.30e-04	0	49	0	7256145920	19	13956
2026-01-25 21:45:46.98	237.08	14.61	-23.6	-23.6	14.2	1.52e-04	0	49	0	7591690240	19	13948
2026-01-25 21:45:49.99	237.82	14.83	-23.4	-23.4	14.3	1.51e-04	0	49	0	7935623168	18	14393
2026-01-25 21:45:53.00	238.57	15.05	-23.3	-23.3	14.3	1.12e-04	0	49	0	8271167488	18	14241
2026-01-25 21:45:56.01	239.33	15.27	-23.1	-23.2	14.3	9.15e-05	0	49	0	8615100416	18	14025
2026-01-25 21:45:59.02	240.10	15.49	-23.2	-23.2	14.3	9.34e-05	0	49	0	8950644736	18	14068
2026-01-25 21:46:02.03	240.89	15.71	-23.1	-23.2	14.3	1.16e-04	0	49	0	9294577664	18	13989
2026-01-25 21:46:05.05	241.69	15.93	-23.2	-23.2	14.3	1.07e-04	0	49	0	9630121984	17	14933
2026-01-25 21:46:08.07	242.51	16.14	-23.0	-23.0	14.3	1.52e-04	0	49	0	9965666304	17	14581
2026-01-25 21:46:11.08	243.34	16.35	-23.1	-23.2	14.4	1.32e-04	0	49	0	10309599232	17	14855
2026-01-25 21:46:14.09	244.17	16.56	-22.9	-22.9	14.2	1.24e-04	0	49	0	10645143552	17	14414
2026-01-25 21:46:17.11	245.03	16.76	-22.8	-22.9	14.3	1.33e-04	0	49	0	10989076480	17	14360
2026-01-25 21:46:20.13	245.90	16.96	-22.8	-22.9	14.3	8.96e-05	0	49	0	11324620800	17	14293
2026-01-25 21:46:23.14	246.78	17.16	-22.7	-22.8	14.3	1.20e-04	0	49	0	11668553728	17	14122
2026-01-25 21:46:26.16	247.67	17.35	-22.8	-22.8	14.3	2.35e-04	0	49	0	12004098048	17	14194
2026-01-25 21:46:29.18	248.58	17.54	-22.6	-22.6	14.3	2.27e-04	0	49	0	12339642368	17	13884
2026-01-25 21:46:32.20	249.50	17.72	-22.6	-22.7	14.3	2.84e-04	0	49	0	12683575296	17	13966
2026-01-25 21:46:35.23	250.43	17.90	-22.6	-22.7	14.4	2.31e-04	0	49	0	13019119616	17	13971
2026-01-25 21:46:38.25	251.37	18.08	-22.5	-22.6	14.3	1.43e-04	0	49	0	13363052544	17	13831
2026-01-25 21:46:41.28	252.33	18.25	-22.5	-22.6	14.4	9.91e-05	0	49	0	13706985472	17	13846
2026-01-25 21:46:44.29	253.30	18.41	-22.5	-22.5	14.4	1.09e-04	0	49	0	14042529792	16	14585
2026-01-25 21:46:47.25	254.26	18.56	-22.4	-22.4	14.3	1.41e-04	0	49	0	14378074112	16	14368
2026-01-25 21:46:50.18	255.22	18.71	-22.4	-22.5	14.3	1.07e-04	0	49	0	14705229824	16	14499
2026-01-25 21:46:53.11	256.19	18.85	-22.3	-22.4	14.3	1.39e-04	0	49	0	15032385536	16	14291
2026-01-25 21:46:56.03	257.17	18.98	-22.2	-22.3	14.4	1.01e-04	0	49	0	15367929856	16	14145
2026-01-25 21:46:58.95	258.15	19.11	-22.3	-22.4	14.2	9.91e-05	0	49	0	15695085568	16	14335
2026-01-25 21:47:01.88	259.15	19.23	-22.2	-22.2	14.4	9.72e-05	0	49	0	16022241280	16	14061
2026-01-25 21:47:04.79	260.15	19.34	-22.2	-22.2	14.3	9.72e-05	0	49	0	16349396992	16	14075
2026-01-25 21:47:07.70	261.16	19.44	-22.3	-22.3	14.2	1.24e-04	0	49	0	16676552704	16	14251
2026-01-25 21:47:10.62	262.18	19.54	-22.1	-22.2	14.4	7.82e-05	0	49	0	17003708416	16	13957
2026-01-25 21:47:13.53	263.20	19.63	-22.1	-22.2	14.3	9.91e-05	0	49	0	17339252736	16	14024
2026-01-25 21:47:16.45	264.23	19.71	-22.1	-22.2	14.3	1.20e-04	0	49	0	17666408448	16	13990
2026-01-25 21:47:19.36	265.27	19.78	-22.1	-22.1	14.4	9.34e-05	0	49	0	17985175552	16	13878
2026-01-25 21:47:22.29	266.31	19.85	-22.1	-22.1	14.4	9.91e-05	0	49	0	18320719872	16	13869
2026-01-25 21:47:25.21	267.36	19.91	-22.1	-22.1	14.4	1.05e-04	0	49	0	18647875584	16	13911
2026-01-25 21:47:28.13	268.41	19.95	-22.2	-22.2	14.3	8.39e-05	0	49	0	18975031296	16	14093
2026-01-25 21:47:31.04	269.46	19.99	-22.2	-22.3	14.2	9.15e-05	0	49	0	19302187008	16	14171
2026-01-25 21:47:33.94	270.52	20.02	-22.1	-22.2	14.3	9.91e-05	0	49	0	19629342720	16	13998
2026-01-25 21:47:36.85	271.57	20.05	-22.0	-22.1	14.3	9.15e-05	0	49	0	19956498432	15	14622
2026-01-25 21:47:39.77	272.63	20.06	-22.2	-22.2	14.3	9.72e-05	0	50	0	20283654144	15	14867
2026-01-25 21:47:42.68	273.69	20.06	-22.0	-22.1	14.2	9.91e-05	0	49	0	20619198464	15	14650
2026-01-25 21:47:45.59	274.75	20.06	-22.1	-22.1	14.3	1.24e-04	0	49	0	20937965568	15	14743
2026-01-25 21:47:48.50	275.81	20.04	-22.1	-22.1	14.3	8.20e-05	0	49	0	21265121280	15	14765
2026-01-25 21:47:51.41	276.86	20.02	-22.1	-22.1	14.3	8.20e-05	0	49	0	21592276992	15	14747
2026-01-25 21:47:54.32	277.92	19.99	-22.1	-22.2	14.2	1.11e-04	0	49	0	21919432704	15	14789
2026-01-25 21:47:57.22	278.96	19.95	-22.2	-22.3	14.2	9.53e-05	0	49	0	22246588416	15	15001
2026-01-25 21:48:00.13	280.01	19.90	-22.2	-22.2	14.2	1.01e-04	0	49	0	22582132736	15	14865
2026-01-25 21:48:03.04	281.06	19.85	-22.2	-22.3	14.1	1.16e-04	0	49	0	22909288448	15	15017
2026-01-25 21:48:05.96	282.10	19.78	-22.2	-22.2	14.1	9.15e-05	0	49	0	23228055552	15	14895
2026-01-25 21:48:08.88	283.14	19.71	-22.2	-22.3	14.0	1.28e-04	0	49	0	23563599872	15	14981
2026-01-25 21:48:11.80	284.17	19.62	-22.4	-22.4	14.0	1.37e-04	0	49	0	23890755584	15	15251
2026-01-25 21:48:14.70	285.19	19.53	-22.2	-22.3	14.0	1.28e-04	0	49	0	24217911296	15	14979
2026-01-25 21:48:17.61	286.20	19.44	-22.2	-22.2	14.0	1.14e-04	0	49	0	24545067008	15	14905
2026-01-25 21:48:20.51	287.21	19.33	-22.3	-22.4	13.9	1.35e-04	0	49	0	24872222720	15	15124
2026-01-25 21:48:23.43	288.21	19.22	-22.3	-22.4	13.9	1.41e-04	0	49	0	25190989824	15	15151
2026-01-25 21:48:26.33	289.20	19.10	-22.4	-22.4	13.9	1.62e-04	0	49	0	25526534144	15	15288
2026-01-25 21:48:29.23	290.18	18.97	-22.4	-22.5	13.8	1.39e-04	0	49	0	25853689856	15	15322
2026-01-25 21:48:32.14	291.15	18.84	-22.6	-22.7	13.8	2.12e-04	0	49	0	26180845568	15	15721
2026-01-25 21:48:35.04	292.11	18.70	-22.8	-22.8	13.8	1.39e-04	0	49	0	26508001280	16	15039
2026-01-25 21:48:37.95	293.07	18.56	-22.7	-22.7	13.7	1.85e-04	0	50	0	26835156992	16	14884
2026-01-25 21:48:40.86	294.01	18.41	-22.8	-22.8	13.7	1.43e-04	0	49	0	27153924096	16	15062
2026-01-25 21:48:43.77	294.94	18.25	-22.8	-22.8	13.7	1.66e-04	0	49	0	27481079808	16	15109
2026-01-25 21:48:46.67	295.86	18.09	-22.8	-22.8	13.7	1.28e-04	0	50	0	27808235520	16	15081
2026-01-25 21:48:49.58	296.77	17.92	-22.8	-22.8	13.7	1.56e-04	0	49	0	28143779840	16	15110
2026-01-25 21:48:52.48	297.67	17.75	-22.8	-22.9	13.6	2.12e-04	0	49	0	28470935552	16	15203
2026-01-25 21:48:55.39	298.56	17.57	-23.0	-23.1	13.6	2.08e-04	0	49	0	28798091264	16	15557
2026-01-25 21:48:58.30	299.43	17.39	-22.9	-22.9	13.6	1.70e-04	0	49	0	29116858368	16	15230
2026-01-25 21:49:01.20	300.29	17.21	-23.1	-23.1	13.6	1.72e-04	0	49	0	29444014080	16	15586
2026-01-25 21:49:04.11	301.15	17.02	-23.2	-23.2	13.6	1.37e-04	0	49	0	29771169792	17	14935
2026-01-25 21:49:07.02	301.99	16.83	-23.2	-23.3	13.7	1.62e-04	0	49	0	30098325504	17	15021
2026-01-25 21:49:09.93	302.82	16.63	-23.3	-23.4	13.7	1.73e-04	0	49	0	30425481216	17	15172
2026-01-25 21:49:12.83	303.63	16.43	-23.2	-23.2	13.6	1.68e-04	0	49	0	30761025536	17	14879
2026-01-25 21:49:15.74	304.43	16.23	-23.3	-23.3	13.6	1.28e-04	0	50	0	31079792640	17	15045
2026-01-25 21:49:18.64	305.22	16.03	-23.3	-23.4	13.6	1.51e-04	0	49	0	31406948352	17	15204
2026-01-25 21:49:21.54	306.00	15.82	-23.3	-23.3	13.6	1.54e-04	0	50	0	31734104064	17	15085
2026-01-25 21:49:24.45	306.77	15.61	-23.4	-23.4	13.6	1.72e-04	0	50	0	32061259776	17	15266
2026-01-25 21:49:27.36	307.53	15.40	-23.5	-23.6	13.6	1.93e-04	0	50	0	32388415488	17	15493
2026-01-25 21:49:30.26	308.27	15.19	-23.5	-23.5	13.6	1.52e-04	0	49	0	32715571200	17	15380
2026-01-25 21:49:33.17	309.00	14.98	-23.7	-23.7	13.6	1.45e-04	0	49	0	33042726912	17	15806
2026-01-25 21:49:36.07	309.72	14.76	-23.8	-23.8	13.6	1.45e-04	0	49	0	33369882624	18	15064
2026-01-25 21:49:38.98	310.42	14.55	-23.8	-23.8	13.6	1.85e-04	0	50	0	33697038336	18	15115
2026-01-25 21:49:41.89	311.12	14.33	-23.7	-23.8	13.6	1.68e-04	0	49	0	34024194048	18	14969
2026-01-25 21:49:44.79	311.80	14.11	-23.9	-24.0	13.6	2.29e-04	0	49	0	34351349760	18	15360
2026-01-25 21:49:47.70	312.48	13.89	-24.0	-24.0	13.9	1.77e-04	0	49	0	34678505472	18	15397
2026-01-25 21:49:50.61	313.14	13.67	-23.9	-24.0	13.9	2.00e-04	0	49	0	35005661184	18	15385
2026-01-25 21:49:53.53	313.79	13.45	-24.2	-24.3	13.9	1.94e-04	0	49	0	35332816896	19	15039
2026-01-25 21:49:56.48	314.44	13.22	-24.2	-24.3	13.9	2.65e-04	0	49	0	35668361216	19	15014
2026-01-25 21:49:59.44	315.08	13.00	-24.1	-24.2	13.9	2.14e-04	0	49	0	36003905536	19	14850
2026-01-25 21:50:02.38	315.71	12.77	-24.3	-24.3	13.9	2.25e-04	0	49	0	36331061248	19	15098
2026-01-25 21:50:05.33	316.32	12.55	-24.4	-24.4	13.9	2.75e-04	0	49	0	36666605568	19	15277
2026-01-25 21:50:08.27	316.93	12.33	-24.4	-24.4	13.9	2.19e-04	0	49	0	36993761280	19	15292
2026-01-25 21:50:11.22	317.52	12.10	-24.5	-24.6	13.9	1.94e-04	0	49	0	37320916992	19	15533
2026-01-25 21:50:14.16	318.10	11.88	-24.4	-24.4	13.9	3.09e-04	0	49	0	37656461312	20	14354
2026-01-25 21:50:17.11	318.68	11.65	-24.5	-24.5	13.9	2.84e-04	0	49	0	37983617024	20	14553
2026-01-25 21:50:20.07	319.24	11.43	-46.8	-49.4	6.2	0.00e+00	0	49	104	38218498048	64	20277
2026-01-25 21:50:23.02	319.80	11.20	-46.8	-49.4	6.2	0.00e+00	0	49	104	38218498048	64	20258
2026-01-25 21:50:25.96	320.34	10.98	-46.8	-49.4	6.2	0.00e+00	0	49	104	38218498048	64	20199
2026-01-25 21:50:28.90	320.88	10.76	-46.8	-49.4	6.2	0.00e+00	0	49	104	38218498048	64	20225
2026-01-25 21:50:31.85	321.40	10.54	-46.8	-49.3	6.2	0.00e+00	0	49	104	38218498048	64	20059
2026-01-25 21:50:34.79	321.92	10.32	-46.8	-49.4	6.2	0.00e+00	0	49	104	38218498048	64	20249
2026-01-25 21:50:37.73	322.42	10.10	-46.7	-49.2	6.2	0.00e+00	0	49	104	38218498048	64	19907
2026-01-25 21:50:40.66	322.92	9.88	-46.7	-49.2	6.2	0.00e+00	0	49	104	38218498048	64	19877
2026-01-25 21:50:43.60	323.41	9.66	-46.7	-49.2	6.2	0.00e+00	0	49	104	38218498048	64	19839
2026-01-25 21:50:46.54	323.89	9.45	-46.7	-49.2	6.2	0.00e+00	0	49	104	38218498048	64	19882
2026-01-25 21:50:49.49	324.36	9.23	-46.6	-49.2	6.2	0.00e+00	0	49	104	38218498048	64	19729
2026-01-25 21:50:52.45	324.83	9.01	-46.6	-49.1	6.2	0.00e+00	0	49	104	38218498048	64	19679
2026-01-25 21:50:55.39	325.29	8.80	-46.6	-49.2	6.2	0.00e+00	0	49	104	38218498048	64	19725
2026-01-25 21:50:58.34	325.74	8.59	-46.6	-49.1	6.2	0.00e+00	0	49	104	38218498048	64	19622
2026-01-25 21:51:01.28	326.18	8.37	-46.5	-49.1	6.2	0.00e+00	0	49	104	38218498048	64	19542
2026-01-25 21:51:04.23	326.62	8.16	-46.5	-49.0	6.2	0.00e+00	0	49	104	38218498048	64	19441
2026-01-25 21:51:07.17	327.04	7.95	-46.5	-49.1	6.2	0.00e+00	0	49	104	38218498048	64	19542
2026-01-25 21:51:10.13	327.46	7.74	-46.4	-49.0	6.2	0.00e+00	0	49	104	38218498048	64	19281
2026-01-25 21:51:13.08	327.88	7.54	-46.4	-49.0	6.2	0.00e+00	0	49	104	38218498048	64	19314
2026-01-25 21:51:16.02	328.28	7.33	-46.4	-48.9	6.2	0.00e+00	0	49	104	38218498048	64	19190
2026-01-25 21:51:18.96	328.68	7.12	-46.4	-49.0	6.2	0.00e+00	0	49	104	38218498048	64	19351
2026-01-25 21:51:21.91	329.08	6.92	-46.3	-48.9	6.2	0.00e+00	0	49	104	38218498048	64	19041
2026-01-25 21:51:24.86	329.46	6.71	-46.4	-48.9	6.2	0.00e+00	0	49	104	38218498048	64	19146
2026-01-25 21:51:27.76	329.84	6.52	-46.3	-48.8	6.2	0.00e+00	0	49	104	38218498048	64	18971
2026-01-25 21:51:30.66	330.21	6.32	-46.3	-48.9	6.2	0.00e+00	0	49	104	38218498048	64	19112
2026-01-25 21:51:33.57	330.57	6.12	-46.2	-48.7	6.2	0.00e+00	0	49	104	38218498048	64	18817
2026-01-25 21:51:36.47	330.93	5.92	-46.2	-48.8	6.2	0.00e+00	0	49	104	38218498048	64	18851
2026-01-25 21:51:39.37	331.28	5.73	-46.2	-48.8	6.2	0.00e+00	0	49	104	38218498048	64	18862
2026-01-25 21:51:42.28	331.63	5.53	-46.1	-48.7	6.2	0.00e+00	0	49	104	38218498048	64	18690
2026-01-25 21:51:45.18	331.97	5.34	-46.1	-48.6	6.2	0.00e+00	0	49	104	38218498048	64	18561
2026-01-25 21:51:48.09	332.31	5.15	-46.0	-48.6	6.2	0.00e+00	0	49	104	38218498048	64	18438
2026-01-25 21:51:51.00	332.64	4.96	-46.3	-48.8	6.2	0.00e+00	0	49	104	38218498048	63	20057
2026-01-25 21:51:53.91	332.97	4.77	-47.0	-49.5	6.2	0.00e+00	0	49	104	38218498048	64	20577
2026-01-25 21:51:56.81	333.29	4.58	-47.2	-49.7	6.2	0.00e+00	0	49	104	38218498048	64	21075
2026-01-25 21:51:59.72	333.60	4.39	-47.3	-49.8	6.2	0.00e+00	0	49	104	38218498048	65	20026
2026-01-25 21:52:02.62	333.91	4.21	-47.0	-49.6	6.2	0.00e+00	0	49	104	38218498048	65	19526
2026-01-25 21:52:05.53	334.22	4.02	-47.1	-49.7	6.2	0.00e+00	0	49	104	38218498048	65	19836
2026-01-25 21:52:08.43	334.52	3.84	-47.2	-49.7	6.2	0.00e+00	0	49	104	38218498048	65	19877
2026-01-25 21:52:11.33	334.82	3.65	-47.2	-49.8	6.2	0.00e+00	0	49	104	38218498048	65	19934
2026-01-25 21:52:14.24	335.12	3.47	-47.1	-49.6	6.2	0.00e+00	0	49	104	38218498048	65	19646
2026-01-25 21:52:17.15	335.41	3.29	-47.1	-49.6	6.2	0.00e+00	0	49	104	38218498048	65	19668
2026-01-25 21:52:20.06	335.69	3.11	-47.1	-49.6	6.2	0.00e+00	0	49	104	38218498048	65	19610
2026-01-25 21:52:22.96	335.97	2.93	-47.0	-49.6	6.2	0.00e+00	0	49	104	38218498048	65	19524
2026-01-25 21:52:25.87	336.25	2.75	-47.0	-49.5	6.2	0.00e+00	0	49	104	38218498048	65	19467
2026-01-25 21:52:28.77	336.52	2.58	-47.0	-49.5	6.2	0.00e+00	0	49	104	38218498048	65	19438
2026-01-25 21:52:31.67	336.79	2.40	-47.0	-49.5	6.2	0.00e+00	0	49	104	38218498048	65	19414
2026-01-25 21:52:34.57	337.06	2.22	-47.0	-49.5	6.2	0.00e+00	0	49	104	38218498048	65	19374
2026-01-25 21:52:37.48	337.32	2.05	-47.0	-49.5	6.2	0.00e+00	0	49	104	38218498048	65	19315
2026-01-25 21:52:40.39	337.58	1.88	-46.9	-49.5	6.2	0.00e+00	0	49	104	38218498048	65	19339

#Closed at: 2026-01-25 21:52:41
#Recorded file [38218 MB]: D:/lorett/data/31045_260126_004248.dat