passes_logs/2026/01/25/R3.2S_Murmansk_2ch/R3.2S_Murmansk_2ch__20260125_195826_TY-39_rec.log

#Pass ID: 20260125_195826_TY-39
#Satellite: TY-39
#Configuration: TY-39
#almurnet v.1.7.20251203
#Start time: 2026-01-25 19:58:27

#Version: 2.2.20260125
#Station: R3.2S_Murmansk_2ch
#Location: 33.079688 lon 68.888172 lat
#TLE: 1 51832U 22019J   26024.96711751  .00003048  00000-0  14574-3 0  9993
#TLE: 2 51832  97.3626  91.4130 0009162  21.3948 338.7669 15.19714183216042

#Time	Az	El	Level	Level2	SNR	BER	BlckErr	Temp	State	Recorded	gain1	gain2
2026-01-25 19:58:27.27	207.54	2.04	-47.9	-50.0	3.7	0.00e+00	0	47	0	0	66	19441
2026-01-25 19:58:30.27	207.81	2.22	-47.9	-50.1	3.7	0.00e+00	0	48	104	0	67	18413
2026-01-25 19:58:33.29	208.09	2.41	-47.9	-50.0	3.7	0.00e+00	0	48	104	0	67	18385
2026-01-25 19:58:36.31	208.37	2.60	-48.2	-50.3	3.7	0.00e+00	0	48	104	0	67	18984
2026-01-25 19:58:39.34	208.65	2.79	-48.2	-50.3	3.7	0.00e+00	0	48	104	0	67	18997
2026-01-25 19:58:42.37	208.94	2.98	-48.2	-50.3	3.7	0.00e+00	0	48	104	0	67	18979
2026-01-25 19:58:45.40	209.23	3.18	-48.1	-50.3	3.7	0.00e+00	0	48	104	0	67	18869
2026-01-25 19:58:48.43	209.53	3.37	-48.0	-50.1	3.7	0.00e+00	0	49	104	0	67	18582
2026-01-25 19:58:51.45	209.84	3.57	-47.9	-50.0	3.7	0.00e+00	0	49	104	0	67	18306
2026-01-25 19:58:54.48	210.15	3.77	-47.5	-49.6	3.7	0.00e+00	0	49	104	0	66	18580
2026-01-25 19:58:57.51	210.46	3.97	-46.6	-48.8	3.7	0.00e+00	0	49	104	0	65	17813
2026-01-25 19:59:00.54	210.78	4.17	-46.6	-48.7	3.7	0.00e+00	0	49	104	0	65	17650
2026-01-25 19:59:03.57	211.10	4.37	-46.6	-48.7	3.7	0.00e+00	0	49	104	0	65	17667
2026-01-25 19:59:06.60	211.43	4.57	-46.6	-48.7	3.7	0.00e+00	0	49	104	0	65	17682
2026-01-25 19:59:09.63	211.77	4.78	-46.5	-48.6	3.7	0.00e+00	0	49	104	0	65	17559
2026-01-25 19:59:12.66	212.11	4.98	-46.5	-48.6	3.7	0.00e+00	0	49	104	0	65	17546
2026-01-25 19:59:15.68	212.46	5.19	-46.5	-48.7	3.7	0.00e+00	0	49	104	0	65	17602
2026-01-25 19:59:18.71	212.81	5.40	-46.6	-48.7	3.7	0.00e+00	0	49	104	0	65	17755
2026-01-25 19:59:21.74	213.17	5.61	-46.5	-48.6	3.7	0.00e+00	0	49	104	0	65	17539
2026-01-25 19:59:24.77	213.54	5.82	-46.5	-48.6	3.7	0.00e+00	0	49	104	0	64	18506
2026-01-25 19:59:27.79	213.91	6.03	-46.5	-48.6	3.7	0.00e+00	0	50	104	0	64	18557
2026-01-25 19:59:30.82	214.29	6.25	-46.5	-48.7	3.7	0.00e+00	0	50	104	0	64	18618
2026-01-25 19:59:33.84	214.68	6.46	-46.5	-48.7	3.7	0.00e+00	0	50	104	0	64	18641
2026-01-25 19:59:36.88	215.07	6.68	-44.2	-45.0	4.1	0.00e+00	336	50	104	0	58	17289
2026-01-25 19:59:39.91	215.47	6.90	-30.0	-29.7	13.1	6.90e-06	0	51	0	167772160	30	14855
2026-01-25 19:59:42.93	215.88	7.12	-29.6	-29.3	13.4	0.00e+00	0	50	0	394264576	30	14215
2026-01-25 19:59:45.97	216.29	7.35	-29.7	-29.4	13.4	0.00e+00	0	51	0	629145600	30	14392
2026-01-25 19:59:49.00	216.72	7.57	-29.7	-29.5	13.4	6.90e-06	0	51	0	847249408	30	14450
2026-01-25 19:59:52.03	217.15	7.80	-29.2	-28.9	13.8	0.00e+00	0	51	0	1082130432	30	13561
2026-01-25 19:59:55.06	217.59	8.02	-29.2	-28.9	13.8	0.00e+00	0	51	0	1300234240	29	14360
2026-01-25 19:59:58.08	218.03	8.25	-28.9	-28.6	14.0	0.00e+00	0	51	0	1535115264	29	13931
2026-01-25 20:00:01.11	218.49	8.48	-29.0	-28.7	14.0	0.00e+00	0	51	0	1761607680	29	14007
2026-01-25 20:00:04.14	218.95	8.71	-29.0	-28.7	14.0	0.00e+00	0	51	0	1988100096	29	14003
2026-01-25 20:00:07.17	219.43	8.94	-28.7	-28.4	14.1	0.00e+00	0	51	0	2214592512	29	13590
2026-01-25 20:00:10.20	219.91	9.18	-28.6	-28.3	14.2	0.00e+00	0	52	0	2441084928	29	13432
2026-01-25 20:00:13.23	220.40	9.41	-28.6	-28.3	14.2	0.00e+00	0	52	0	2667577344	29	13423
2026-01-25 20:00:16.26	220.91	9.65	-28.6	-28.3	14.2	0.00e+00	0	52	0	2894069760	29	13369
2026-01-25 20:00:19.28	221.41	9.89	-28.5	-28.2	14.2	0.00e+00	0	52	0	3120562176	28	14056
2026-01-25 20:00:22.31	221.94	10.13	-28.3	-28.0	14.4	0.00e+00	0	52	0	3347054592	28	13716
2026-01-25 20:00:25.34	222.47	10.37	-28.3	-28.0	14.4	0.00e+00	0	52	0	3573547008	28	13668
2026-01-25 20:00:28.37	223.01	10.61	-28.5	-28.2	14.4	0.00e+00	0	52	0	3808428032	28	13963
2026-01-25 20:00:31.41	223.57	10.85	-28.0	-27.7	14.5	0.00e+00	0	52	0	4026531840	27	14062
2026-01-25 20:00:34.44	224.13	11.10	-28.1	-27.8	14.6	0.00e+00	0	52	0	4261412864	27	14188
2026-01-25 20:00:37.47	224.71	11.34	-27.9	-27.6	14.6	0.00e+00	0	52	0	4487905280	27	13911
2026-01-25 20:00:40.50	225.29	11.59	-27.9	-27.6	14.7	0.00e+00	0	52	0	4714397696	27	13835
2026-01-25 20:00:43.52	225.89	11.84	-27.7	-27.4	14.7	0.00e+00	0	52	0	4940890112	27	13608
2026-01-25 20:00:46.54	226.50	12.08	-27.8	-27.5	14.7	0.00e+00	0	52	0	5167382528	27	13685
2026-01-25 20:00:49.57	227.12	12.33	-27.7	-27.3	14.8	0.00e+00	0	52	0	5393874944	27	13470
2026-01-25 20:00:52.60	227.76	12.58	-27.4	-27.1	14.9	0.00e+00	0	53	0	5620367360	26	13892
2026-01-25 20:00:55.63	228.40	12.83	-27.5	-27.2	14.9	0.00e+00	0	53	0	5846859776	26	13974
2026-01-25 20:00:58.66	229.06	13.08	-27.2	-26.9	15.0	0.00e+00	0	52	0	6073352192	26	13606
2026-01-25 20:01:01.69	229.74	13.33	-27.2	-26.9	15.1	0.00e+00	0	53	0	6299844608	26	13571
2026-01-25 20:01:04.72	230.43	13.58	-27.4	-27.1	14.9	0.00e+00	0	52	0	6526337024	26	13829
2026-01-25 20:01:07.75	231.13	13.83	-27.3	-27.0	15.0	0.00e+00	0	52	0	6752829440	26	13759
2026-01-25 20:01:10.77	231.84	14.08	-27.2	-26.9	15.0	0.00e+00	0	53	0	6987710464	26	13587
2026-01-25 20:01:13.80	232.57	14.34	-26.9	-26.6	15.2	0.00e+00	0	53	0	7214202880	25	13902
2026-01-25 20:01:16.83	233.31	14.58	-26.8	-26.5	15.2	0.00e+00	0	53	0	7440695296	25	13749
2026-01-25 20:01:19.86	234.07	14.83	-26.7	-26.4	15.3	0.00e+00	0	53	0	7667187712	25	13577
2026-01-25 20:01:22.89	234.84	15.08	-26.7	-26.4	15.3	0.00e+00	0	53	0	7893680128	25	13560
2026-01-25 20:01:25.92	235.63	15.33	-26.6	-26.3	15.3	0.00e+00	0	53	0	8120172544	25	13426
2026-01-25 20:01:28.94	236.43	15.57	-26.5	-26.2	15.3	0.00e+00	0	53	0	8346664960	24	14052
2026-01-25 20:01:31.98	237.25	15.82	-26.5	-26.2	15.4	0.00e+00	0	53	0	8573157376	24	14092
2026-01-25 20:01:35.01	238.08	16.06	-26.5	-26.2	15.3	0.00e+00	0	53	0	8799649792	24	13959
2026-01-25 20:01:38.03	238.93	16.30	-26.4	-26.1	15.4	0.00e+00	0	53	0	9026142208	24	13804
2026-01-25 20:01:41.07	239.80	16.54	-26.3	-26.0	15.4	0.00e+00	0	53	0	9252634624	24	13662
2026-01-25 20:01:44.10	240.68	16.77	-26.2	-25.9	15.5	0.00e+00	0	53	0	9479127040	24	13598
2026-01-25 20:01:47.13	241.57	17.01	-26.3	-26.0	15.3	0.00e+00	0	53	0	9714008064	24	13662
2026-01-25 20:01:50.16	242.48	17.23	-26.1	-25.8	15.5	0.00e+00	0	53	0	9940500480	23	14229
2026-01-25 20:01:53.19	243.41	17.46	-26.1	-25.8	15.5	0.00e+00	0	53	0	10166992896	23	14189
2026-01-25 20:01:56.22	244.35	17.68	-26.0	-25.6	15.6	0.00e+00	0	53	0	10393485312	23	13935
2026-01-25 20:01:59.25	245.31	17.90	-25.9	-25.6	15.6	0.00e+00	0	53	0	10619977728	23	13818
2026-01-25 20:02:02.28	246.29	18.11	-25.9	-25.6	15.5	0.00e+00	0	53	0	10846470144	23	13811
2026-01-25 20:02:05.31	247.28	18.32	-25.9	-25.6	15.6	0.00e+00	0	53	0	11072962560	23	13856
2026-01-25 20:02:08.34	248.28	18.52	-25.8	-25.5	15.7	0.00e+00	0	53	0	11299454976	23	13737
2026-01-25 20:02:11.36	249.29	18.71	-25.7	-25.4	15.7	0.00e+00	0	53	0	11525947392	23	13532
2026-01-25 20:02:14.40	250.33	18.90	-25.7	-25.4	15.7	0.00e+00	0	53	0	11752439808	23	13504
2026-01-25 20:02:17.42	251.38	19.09	-25.6	-25.3	15.8	0.00e+00	0	53	0	11987320832	23	13385
2026-01-25 20:02:20.45	252.44	19.26	-25.6	-25.3	15.8	0.00e+00	0	53	0	12205424640	23	13326
2026-01-25 20:02:23.48	253.51	19.43	-25.4	-25.1	15.8	0.00e+00	0	53	0	12440305664	22	13915
2026-01-25 20:02:26.52	254.60	19.59	-25.4	-25.1	15.8	0.00e+00	0	53	0	12666798080	22	13884
2026-01-25 20:02:29.55	255.70	19.74	-25.4	-25.1	15.7	0.00e+00	0	53	0	12893290496	22	13871
2026-01-25 20:02:32.57	256.81	19.89	-25.4	-25.1	15.8	0.00e+00	0	53	0	13119782912	22	13837
2026-01-25 20:02:35.60	257.94	20.02	-25.4	-25.1	15.6	0.00e+00	0	53	0	13346275328	22	13818
2026-01-25 20:02:38.63	259.07	20.15	-25.3	-25.0	15.8	0.00e+00	0	53	0	13572767744	22	13741
2026-01-25 20:02:41.66	260.22	20.27	-25.3	-25.0	15.8	0.00e+00	0	53	0	13799260160	22	13651
2026-01-25 20:02:44.70	261.37	20.38	-25.3	-25.0	15.9	0.00e+00	0	53	0	14025752576	22	13651
2026-01-25 20:02:47.73	262.54	20.47	-25.2	-24.9	15.9	0.00e+00	0	53	0	14260633600	22	13493
2026-01-25 20:02:50.76	263.71	20.56	-25.3	-25.0	15.9	0.00e+00	0	53	0	14478737408	22	13644
2026-01-25 20:02:53.79	264.88	20.64	-25.2	-24.9	15.8	0.00e+00	0	53	0	14713618432	22	13526
2026-01-25 20:02:56.82	266.07	20.70	-25.1	-24.8	15.9	0.00e+00	0	53	0	14940110848	22	13384
2026-01-25 20:02:59.84	267.25	20.76	-25.3	-24.9	15.9	0.00e+00	0	53	0	15166603264	22	13612
2026-01-25 20:03:02.87	268.44	20.80	-25.2	-24.9	15.9	0.00e+00	0	53	0	15393095680	22	13571
2026-01-25 20:03:05.91	269.64	20.83	-25.3	-25.0	15.9	0.00e+00	0	53	0	15619588096	22	13728
2026-01-25 20:03:08.93	270.83	20.86	-25.0	-24.7	15.9	0.00e+00	0	53	0	15846080512	22	13274
2026-01-25 20:03:11.96	272.03	20.87	-25.2	-24.8	15.9	0.00e+00	0	53	0	16072572928	22	13469
2026-01-25 20:03:14.99	273.23	20.86	-25.1	-24.8	15.9	0.00e+00	0	53	0	16299065344	22	13438
2026-01-25 20:03:18.01	274.42	20.85	-25.2	-24.9	15.9	0.00e+00	0	53	0	16525557760	22	13582
2026-01-25 20:03:21.04	275.62	20.83	-25.2	-24.9	15.9	0.00e+00	0	53	0	16752050176	22	13557
2026-01-25 20:03:24.07	276.81	20.79	-25.3	-24.9	15.7	0.00e+00	0	53	0	16978542592	22	13603
2026-01-25 20:03:27.10	278.00	20.75	-25.2	-24.9	15.7	0.00e+00	0	53	0	17205035008	22	13540
2026-01-25 20:03:30.13	279.19	20.69	-25.3	-25.0	15.7	0.00e+00	0	53	0	17439916032	22	13702
2026-01-25 20:03:33.16	280.36	20.62	-25.3	-25.0	15.7	0.00e+00	0	53	0	17658019840	22	13712
2026-01-25 20:03:36.20	281.54	20.54	-25.3	-25.0	15.7	0.00e+00	0	53	0	17892900864	22	13702
2026-01-25 20:03:39.22	282.70	20.45	-25.3	-24.9	15.7	0.00e+00	0	53	0	18119393280	22	13615
2026-01-25 20:03:42.25	283.86	20.35	-25.4	-25.1	15.6	0.00e+00	0	53	0	18345885696	22	13845
2026-01-25 20:03:45.29	285.01	20.24	-25.4	-25.1	15.7	0.00e+00	0	53	0	18572378112	22	13913
2026-01-25 20:03:48.32	286.15	20.12	-25.3	-25.0	15.7	0.00e+00	0	53	0	18798870528	22	13752
2026-01-25 20:03:51.34	287.27	19.99	-25.4	-25.1	15.7	0.00e+00	0	53	0	19025362944	22	13845
2026-01-25 20:03:54.38	288.39	19.86	-25.5	-25.2	15.7	0.00e+00	0	53	0	19251855360	22	13982
2026-01-25 20:03:57.41	289.50	19.71	-25.5	-25.2	15.7	0.00e+00	0	53	0	19478347776	22	13971
2026-01-25 20:04:00.43	290.59	19.56	-25.6	-25.2	15.7	0.00e+00	0	53	0	19704840192	22	14105
2026-01-25 20:04:03.46	291.67	19.40	-25.6	-25.3	15.6	0.00e+00	0	53	0	19931332608	22	14146
2026-01-25 20:04:06.49	292.73	19.23	-25.7	-25.3	15.6	0.00e+00	0	53	0	20166213632	22	14274
2026-01-25 20:04:09.52	293.79	19.05	-25.7	-25.4	15.6	0.00e+00	0	53	0	20392706048	22	14294
2026-01-25 20:04:12.55	294.83	18.87	-25.9	-25.6	15.5	0.00e+00	0	53	0	20619198464	22	14634
2026-01-25 20:04:15.58	295.85	18.68	-25.8	-25.5	15.6	0.00e+00	0	53	0	20845690880	22	14543
2026-01-25 20:04:18.61	296.86	18.48	-25.8	-25.5	15.6	0.00e+00	0	53	0	21072183296	22	14548
2026-01-25 20:04:21.63	297.85	18.28	-25.8	-25.5	15.6	0.00e+00	0	53	0	21298675712	22	14517
2026-01-25 20:04:24.66	298.83	18.07	-26.0	-25.7	15.5	0.00e+00	0	53	0	21525168128	22	14877
2026-01-25 20:04:27.69	299.79	17.86	-26.0	-25.7	15.5	0.00e+00	0	53	0	21751660544	22	14814
2026-01-25 20:04:30.72	300.74	17.65	-26.0	-25.7	15.4	0.00e+00	0	54	0	21978152960	22	14909
2026-01-25 20:04:33.75	301.67	17.43	-26.1	-25.8	15.5	0.00e+00	0	53	0	22204645376	23	14125
2026-01-25 20:04:36.78	302.59	17.20	-26.1	-25.8	15.4	0.00e+00	0	53	0	22431137792	23	14196
2026-01-25 20:04:39.81	303.49	16.98	-26.3	-25.9	15.4	0.00e+00	0	53	0	22657630208	23	14416
2026-01-25 20:04:42.84	304.38	16.74	-26.3	-26.0	15.4	0.00e+00	0	54	0	22892511232	23	14506
2026-01-25 20:04:45.87	305.25	16.51	-26.4	-26.0	15.3	0.00e+00	0	53	0	23119003648	23	14591
2026-01-25 20:04:48.90	306.10	16.28	-26.5	-26.1	15.3	0.00e+00	0	53	0	23345496064	23	14753
2026-01-25 20:04:51.93	306.94	16.04	-26.5	-26.2	15.3	0.00e+00	0	54	0	23571988480	23	14843
2026-01-25 20:04:54.96	307.77	15.80	-26.6	-26.3	15.2	0.00e+00	0	54	0	23798480896	24	14238
2026-01-25 20:04:57.99	308.58	15.55	-26.7	-26.4	15.2	0.00e+00	0	54	0	24024973312	24	14401
2026-01-25 20:05:01.02	309.37	15.31	-26.9	-26.5	15.1	0.00e+00	0	54	0	24251465728	24	14602
2026-01-25 20:05:04.04	310.15	15.07	-26.8	-26.5	15.2	0.00e+00	0	53	0	24477958144	24	14484
2026-01-25 20:05:07.07	310.91	14.82	-27.1	-26.8	15.0	0.00e+00	0	53	0	24704450560	24	14962
2026-01-25 20:05:10.10	311.66	14.58	-27.3	-27.0	15.0	0.00e+00	0	53	0	24930942976	25	14507
2026-01-25 20:05:13.13	312.39	14.33	-27.1	-26.8	15.0	0.00e+00	0	54	0	25157435392	25	14205
2026-01-25 20:05:16.16	313.11	14.08	-27.2	-26.9	15.0	0.00e+00	0	54	0	25383927808	25	14400
2026-01-25 20:05:19.19	313.82	13.83	-27.2	-26.9	15.0	0.00e+00	0	54	0	25618808832	25	14382
2026-01-25 20:05:22.22	314.51	13.58	-27.2	-26.9	15.0	0.00e+00	0	54	0	25845301248	25	14370
2026-01-25 20:05:25.25	315.19	13.34	-27.4	-27.1	14.9	0.00e+00	0	54	0	26071793664	25	14642
2026-01-25 20:05:28.28	315.86	13.09	-27.6	-27.2	14.8	0.00e+00	0	53	0	26298286080	25	14940
2026-01-25 20:05:31.30	316.51	12.84	-27.4	-27.1	14.8	0.00e+00	0	54	0	26524778496	25	14764
2026-01-25 20:05:34.33	317.15	12.59	-27.7	-27.4	14.7	0.00e+00	0	54	0	26751270912	26	14338
2026-01-25 20:05:37.36	317.78	12.35	-27.7	-27.4	14.7	0.00e+00	0	54	0	26977763328	26	14389
2026-01-25 20:05:40.40	318.40	12.10	-27.7	-27.4	14.7	0.00e+00	0	54	0	27204255744	26	14336
2026-01-25 20:05:43.43	319.00	11.86	-27.9	-27.6	14.6	0.00e+00	0	54	0	27430748160	26	14643
2026-01-25 20:05:46.46	319.59	11.61	-27.9	-27.6	14.6	0.00e+00	0	53	0	27657240576	26	14670
2026-01-25 20:05:49.48	320.17	11.37	-28.2	-27.9	14.5	0.00e+00	0	54	0	27883732992	27	14389
2026-01-25 20:05:52.52	320.74	11.12	-28.1	-27.8	14.5	0.00e+00	0	54	0	28110225408	27	14219
2026-01-25 20:05:55.55	321.30	10.88	-28.2	-27.9	14.4	0.00e+00	0	54	0	28336717824	27	14335
2026-01-25 20:05:58.58	321.85	10.64	-28.2	-27.9	14.4	0.00e+00	0	54	0	28571598848	27	14423
2026-01-25 20:06:01.61	322.38	10.40	-28.3	-28.0	14.3	0.00e+00	0	54	0	28798091264	27	14533
2026-01-25 20:06:04.64	322.91	10.17	-28.6	-28.3	14.2	0.00e+00	0	54	0	29024583680	27	14969
2026-01-25 20:06:07.67	323.42	9.93	-28.5	-28.2	14.2	0.00e+00	0	54	0	29251076096	28	14019
2026-01-25 20:06:10.70	323.93	9.69	-28.5	-28.2	14.2	0.00e+00	0	54	0	29477568512	28	13991
2026-01-25 20:06:13.73	324.43	9.46	-28.6	-28.3	14.1	0.00e+00	0	54	0	29704060928	28	14255
2026-01-25 20:06:16.75	324.91	9.23	-28.8	-28.5	14.0	0.00e+00	0	54	0	29930553344	28	14496
2026-01-25 20:06:19.79	325.39	9.00	-46.9	-49.1	3.7	0.00e+00	0	54	104	30131879936	64	19565
2026-01-25 20:06:22.82	325.86	8.77	-46.9	-49.0	3.7	0.00e+00	0	53	104	30131879936	64	19378
2026-01-25 20:06:25.85	326.32	8.54	-46.9	-49.1	3.7	0.00e+00	0	53	104	30131879936	64	19576
2026-01-25 20:06:28.88	326.77	8.31	-46.8	-49.0	3.6	0.00e+00	0	53	104	30131879936	64	19263
2026-01-25 20:06:31.91	327.22	8.08	-46.8	-49.0	3.7	0.00e+00	0	53	104	30131879936	64	19306
2026-01-25 20:06:34.93	327.65	7.86	-46.8	-48.9	3.7	0.00e+00	0	53	104	30131879936	64	19197
2026-01-25 20:06:37.96	328.08	7.64	-46.8	-49.0	3.7	0.00e+00	0	53	104	30131879936	64	19282
2026-01-25 20:06:41.00	328.50	7.42	-46.7	-48.8	3.7	0.00e+00	0	53	104	30131879936	64	18928
2026-01-25 20:06:44.03	328.91	7.20	-46.7	-48.8	3.7	0.00e+00	0	53	104	30131879936	64	18979
2026-01-25 20:06:47.06	329.31	6.98	-46.7	-48.8	3.7	0.00e+00	0	53	104	30131879936	64	18867
2026-01-25 20:06:50.09	329.71	6.76	-46.7	-48.8	3.7	0.00e+00	0	53	104	30131879936	64	19035
2026-01-25 20:06:53.12	330.10	6.55	-46.6	-48.7	3.7	0.00e+00	0	53	104	30131879936	64	18659
2026-01-25 20:06:56.15	330.49	6.33	-46.6	-48.7	3.7	0.00e+00	0	53	104	30131879936	64	18737
2026-01-25 20:06:59.18	330.86	6.12	-46.6	-48.7	3.7	0.00e+00	0	53	104	30131879936	64	18657
2026-01-25 20:07:02.21	331.23	5.91	-46.6	-48.7	3.7	0.00e+00	0	52	104	30131879936	64	18702
2026-01-25 20:07:05.23	331.59	5.70	-46.5	-48.7	3.7	0.00e+00	0	52	104	30131879936	64	18604
2026-01-25 20:07:08.26	331.95	5.49	-46.5	-48.7	3.7	0.00e+00	0	52	104	30131879936	64	18613
2026-01-25 20:07:11.29	332.30	5.28	-46.5	-48.6	3.7	0.00e+00	0	52	104	30131879936	64	18529
2026-01-25 20:07:14.32	332.65	5.08	-46.5	-48.7	3.7	0.00e+00	0	52	104	30131879936	64	18610
2026-01-25 20:07:17.34	332.99	4.88	-47.0	-49.1	3.7	0.00e+00	0	52	104	30131879936	64	19563
2026-01-25 20:07:20.37	333.32	4.67	-47.4	-49.6	3.7	0.00e+00	0	52	104	30131879936	65	19509
2026-01-25 20:07:23.40	333.65	4.47	-47.5	-49.6	3.7	0.00e+00	0	52	104	30131879936	65	19575
2026-01-25 20:07:26.43	333.97	4.27	-47.5	-49.6	3.7	0.00e+00	0	52	104	30131879936	65	19581
2026-01-25 20:07:29.46	334.29	4.07	-47.3	-49.5	3.7	0.00e+00	0	52	104	30131879936	65	19317
2026-01-25 20:07:32.49	334.60	3.88	-47.4	-49.6	3.7	0.00e+00	0	52	104	30131879936	65	19505
2026-01-25 20:07:35.51	334.91	3.68	-47.4	-49.5	3.7	0.00e+00	0	52	104	30131879936	65	19374
2026-01-25 20:07:38.54	335.21	3.49	-47.3	-49.4	3.7	0.00e+00	0	52	104	30131879936	65	19141
2026-01-25 20:07:41.57	335.51	3.29	-47.2	-49.3	3.7	0.00e+00	0	52	104	30131879936	65	19001
2026-01-25 20:07:44.60	335.80	3.10	-47.2	-49.3	3.7	0.00e+00	0	52	104	30131879936	65	18878
2026-01-25 20:07:47.63	336.09	2.91	-47.1	-49.3	3.7	0.00e+00	0	52	104	30131879936	65	18860
2026-01-25 20:07:50.66	336.37	2.72	-47.1	-49.3	3.7	0.00e+00	0	52	104	30131879936	65	18843
2026-01-25 20:07:53.68	336.65	2.53	-47.1	-49.2	3.7	0.00e+00	0	52	104	30131879936	65	18798
2026-01-25 20:07:56.71	336.93	2.35	-47.1	-49.3	3.7	0.00e+00	0	52	104	30131879936	65	18849
2026-01-25 20:07:59.74	337.20	2.16	-47.1	-49.3	3.7	0.00e+00	0	52	104	30131879936	65	18832
2026-01-25 20:08:02.77	337.47	1.98	-47.1	-49.3	3.7	0.00e+00	0	52	104	30131879936	65	18849

#Closed at: 2026-01-25 20:08:03
#Recorded file [30131 MB]: D:/lorett/data/31045_260125_225827.dat