passes_logs/2026/01/26/R4.6S_Anadyr/R4.6S_Anadyr__20260126_011329_NOAA_20_JPSS-1_rec.log

#Pass ID: 20260126_011329_NOAA 20 (JPSS-1)
#Satellite: NOAA 20 (JPSS-1)
#Configuration: NOAA 20
#almurnet v.1.7.20251203
#Start time: 2026-01-26 01:13:32

#Version: 2.2.20231116
#Station: R4.6S_Anadyr
#Location: 177.4865 lon 64.73178 lat
#TLE: 1 43013U 17073A   26025.47986292  .00000161  00000+0  97249-4 0  9993
#TLE: 2 43013  98.7646 326.3091 0001052  24.2709 335.8516 14.19540188424225

#Time	Az	El	Level	Level2	SNR	BER	BlckErr	Temp	State	Recorded	gain1	gain2
2026-01-26 01:13:32.06	181.73	0.16	-50.6	-65.6	3.5	1.51e+00	0	29	0	0	60	68562
2026-01-26 01:13:36.08	181.87	0.39	-51.8	-67.2	3.6	1.51e+00	0	30	104	0	60	82577
2026-01-26 01:13:40.12	182.01	0.63	-50.9	-66.2	3.6	1.51e+00	0	30	104	0	60	73482
2026-01-26 01:13:44.16	182.15	0.87	-50.0	-65.2	3.6	1.51e+00	0	31	104	0	60	66037
2026-01-26 01:13:48.20	182.29	1.11	-49.6	-64.8	3.6	1.51e+00	0	30	104	0	60	62941
2026-01-26 01:13:52.24	182.43	1.36	-49.3	-64.5	3.6	1.51e+00	0	31	104	0	60	60589
2026-01-26 01:13:56.27	182.58	1.60	-48.4	-63.6	3.6	1.51e+00	0	30	104	0	60	54584
2026-01-26 01:14:00.31	182.73	1.85	-48.3	-63.5	3.6	1.51e+00	0	31	104	0	60	53947
2026-01-26 01:14:04.35	182.88	2.10	-48.4	-63.5	3.6	1.51e+00	0	31	104	0	60	53950
2026-01-26 01:14:08.39	183.04	2.35	-48.4	-63.4	3.6	1.51e+00	0	31	104	0	60	53573
2026-01-26 01:14:12.43	183.19	2.60	-48.4	-63.4	3.6	1.51e+00	0	31	104	0	60	53182
2026-01-26 01:14:16.47	183.35	2.86	-48.3	-62.2	3.6	1.51e+00	0	31	104	0	60	46583
2026-01-26 01:14:20.51	183.51	3.12	-48.1	-58.4	4.8	1.49e+00	56	31	104	0	60	30227
2026-01-26 01:14:24.55	183.68	3.38	-45.2	-48.2	14.8	3.00e-06	92	31	0	6291456	60	9293
2026-01-26 01:14:28.59	183.84	3.64	-43.4	-45.5	17.4	0.00e+00	92	31	0	13631488	60	6787
2026-01-26 01:14:32.62	184.01	3.91	-47.7	-54.5	5.5	1.51e+00	0	31	104	19922944	60	19183
2026-01-26 01:14:36.66	184.18	4.18	-45.2	-48.0	15.0	1.50e-06	68	31	0	24117248	60	9126
2026-01-26 01:14:40.70	184.36	4.45	-43.8	-45.9	17.2	0.00e+00	92	31	0	32505856	60	7093
2026-01-26 01:14:44.74	184.54	4.72	-43.5	-45.5	17.3	0.00e+00	90	31	0	39845888	60	6820
2026-01-26 01:14:48.77	184.72	4.99	-43.0	-44.8	17.9	0.00e+00	91	31	0	47185920	60	6314
2026-01-26 01:14:52.81	184.90	5.27	-43.3	-45.1	18.1	0.00e+00	26	31	0	54525952	60	6525
2026-01-26 01:14:56.85	185.09	5.55	-43.5	-45.4	17.6	0.00e+00	92	31	0	62914560	60	6735
2026-01-26 01:15:00.89	185.28	5.83	-41.7	-43.1	19.7	0.00e+00	92	31	0	70254592	58	5796
2026-01-26 01:15:04.92	185.47	6.12	-41.5	-42.8	20.5	0.00e+00	92	31	0	77594624	56	6283
2026-01-26 01:15:08.96	185.67	6.41	-41.5	-42.8	20.3	0.00e+00	8	31	0	84934656	56	6273
2026-01-26 01:15:13.00	185.87	6.70	-41.4	-42.7	20.4	0.00e+00	90	31	0	92274688	56	6206
2026-01-26 01:15:17.03	186.08	7.00	-41.2	-42.4	20.8	0.00e+00	92	31	0	100663296	56	6008
2026-01-26 01:15:21.08	186.29	7.30	-41.1	-42.4	20.6	0.00e+00	90	31	0	108003328	54	6729
2026-01-26 01:15:25.12	186.50	7.60	-41.0	-42.3	20.7	0.00e+00	60	31	0	115343360	54	6631
2026-01-26 01:15:29.15	186.72	7.90	-41.1	-42.3	20.9	0.00e+00	92	31	0	122683392	54	6653
2026-01-26 01:15:33.19	186.94	8.21	-40.7	-41.9	21.1	0.00e+00	92	31	0	131072000	54	6343
2026-01-26 01:15:37.23	187.17	8.52	-41.0	-42.2	20.9	0.00e+00	90	31	0	138412032	54	6607
2026-01-26 01:15:41.27	187.40	8.84	-40.6	-41.7	21.5	0.00e+00	81	31	0	145752064	54	6216
2026-01-26 01:15:45.31	187.64	9.16	-41.0	-42.2	21.2	0.00e+00	90	31	0	153092096	54	6572
2026-01-26 01:15:49.35	187.88	9.48	-40.2	-41.3	21.7	0.00e+00	90	31	0	160432128	54	5951
2026-01-26 01:15:53.38	188.12	9.81	-40.5	-41.6	21.7	0.00e+00	79	31	0	168820736	54	6104
2026-01-26 01:15:57.42	188.37	10.14	-40.5	-41.6	21.7	0.00e+00	90	31	0	176160768	54	6131
2026-01-26 01:16:01.45	188.63	10.47	-40.0	-41.1	22.2	0.00e+00	90	31	0	183500800	54	5772
2026-01-26 01:16:05.50	188.89	10.81	-39.8	-40.8	22.3	0.00e+00	91	31	0	190840832	52	6310
2026-01-26 01:16:09.54	189.16	11.15	-39.4	-40.4	22.6	0.00e+00	0	31	0	199229440	52	6018
2026-01-26 01:16:13.58	189.44	11.50	-39.0	-39.9	23.1	0.00e+00	92	31	0	206569472	52	5695
2026-01-26 01:16:17.61	189.72	11.85	-39.2	-40.1	23.2	0.00e+00	92	31	0	213909504	52	5822
2026-01-26 01:16:21.65	190.00	12.21	-39.1	-40.0	23.1	0.00e+00	92	31	0	221249536	52	5737
2026-01-26 01:16:25.69	190.30	12.57	-39.0	-40.0	23.3	0.00e+00	55	31	0	228589568	52	5718
2026-01-26 01:16:29.72	190.60	12.93	-38.9	-39.8	23.3	0.00e+00	92	31	0	236978176	52	5599
2026-01-26 01:16:33.76	190.90	13.30	-38.9	-39.8	23.3	0.00e+00	91	31	0	244318208	52	5623
2026-01-26 01:16:37.80	191.22	13.68	-38.6	-39.5	23.6	0.00e+00	92	31	0	251658240	50	6088
2026-01-26 01:16:41.84	191.54	14.06	-38.6	-39.5	23.6	0.00e+00	11	31	0	258998272	50	6087
2026-01-26 01:16:45.88	191.87	14.45	-38.7	-39.6	23.6	0.00e+00	92	31	0	267386880	50	6166
2026-01-26 01:16:49.92	192.21	14.84	-38.6	-39.5	23.8	0.00e+00	92	31	0	274726912	50	6043
2026-01-26 01:16:53.96	192.56	15.23	-38.5	-39.3	23.8	0.00e+00	92	31	0	282066944	50	5952
2026-01-26 01:16:58.00	192.92	15.64	-38.2	-39.1	24.0	0.00e+00	0	31	0	289406976	50	5795
2026-01-26 01:17:02.03	193.28	16.04	-38.1	-39.0	24.1	0.00e+00	91	31	0	296747008	50	5715
2026-01-26 01:17:06.07	193.66	16.46	-38.1	-39.0	24.1	0.00e+00	91	31	0	305135616	50	5712
2026-01-26 01:17:10.10	194.04	16.88	-38.3	-39.2	23.9	0.00e+00	92	31	0	312475648	50	5837
2026-01-26 01:17:14.14	194.44	17.30	-38.5	-39.4	23.8	0.00e+00	7	31	0	319815680	50	5992
2026-01-26 01:17:18.18	194.85	17.73	-38.3	-39.2	23.9	0.00e+00	92	31	0	327155712	50	5872
2026-01-26 01:17:22.22	195.27	18.17	-38.4	-39.3	23.7	0.00e+00	92	31	0	334495744	50	5954
2026-01-26 01:17:26.25	195.70	18.61	-38.6	-39.5	23.6	0.00e+00	47	31	0	342884352	50	6069
2026-01-26 01:17:30.29	196.14	19.07	-38.7	-39.6	23.5	0.00e+00	92	31	0	350224384	50	6166
2026-01-26 01:17:34.34	196.60	19.53	-38.6	-39.5	23.6	0.00e+00	90	31	0	357564416	50	6091
2026-01-26 01:17:38.37	197.07	19.99	-38.8	-39.7	23.5	0.00e+00	92	31	0	364904448	50	6239
2026-01-26 01:17:42.41	197.55	20.46	-39.0	-40.0	23.4	0.00e+00	32	31	0	373293056	50	6391
2026-01-26 01:17:46.45	198.05	20.94	-39.1	-40.0	23.3	0.00e+00	86	31	0	380633088	50	6444
2026-01-26 01:17:50.49	198.56	21.43	-38.8	-39.7	23.7	0.00e+00	92	31	0	387973120	50	6200
2026-01-26 01:17:54.52	199.09	21.92	-39.0	-40.0	23.4	0.00e+00	92	31	0	395313152	50	6404
2026-01-26 01:17:58.56	199.63	22.42	-38.7	-39.6	23.7	0.00e+00	7	31	0	402653184	50	6163
2026-01-26 01:18:02.60	200.20	22.92	-38.7	-39.6	23.7	0.00e+00	92	31	0	411041792	50	6129
2026-01-26 01:18:06.64	200.78	23.44	-38.8	-39.7	23.6	0.00e+00	91	31	0	418381824	50	6208
2026-01-26 01:18:10.67	201.38	23.96	-38.7	-39.6	23.6	0.00e+00	92	31	0	425721856	50	6157
2026-01-26 01:18:14.72	202.00	24.49	-38.7	-39.6	23.8	0.00e+00	58	31	0	433061888	50	6121
2026-01-26 01:18:18.75	202.64	25.03	-38.5	-39.4	23.8	0.00e+00	92	31	0	441450496	50	6003
2026-01-26 01:18:22.79	203.30	25.57	-38.9	-39.8	23.6	0.00e+00	92	31	0	448790528	50	6263
2026-01-26 01:18:26.83	203.99	26.12	-39.0	-39.9	23.6	0.00e+00	54	31	0	456130560	50	6347
2026-01-26 01:18:30.87	204.69	26.68	-39.2	-40.1	23.5	0.00e+00	0	31	0	463470592	50	6500
2026-01-26 01:18:34.91	205.43	27.24	-39.7	-40.7	22.8	0.00e+00	92	31	0	470810624	50	6940
2026-01-26 01:18:38.95	206.19	27.82	-40.2	-41.2	22.5	0.00e+00	92	31	0	479199232	52	6566
2026-01-26 01:18:42.98	206.97	28.39	-40.7	-41.7	22.1	0.00e+00	31	31	0	486539264	54	6233
2026-01-26 01:18:47.02	207.79	28.98	-40.7	-41.7	21.9	0.00e+00	0	31	0	493879296	54	6232
2026-01-26 01:18:51.06	208.63	29.57	-41.1	-42.2	21.5	0.00e+00	92	31	0	501219328	54	6596
2026-01-26 01:18:55.10	209.50	30.16	-41.2	-42.4	21.5	0.00e+00	90	31	0	509607936	54	6727
2026-01-26 01:18:59.14	210.41	30.77	-40.3	-41.3	22.3	0.00e+00	7	31	0	516947968	54	5925
2026-01-26 01:19:03.17	211.35	31.37	-40.3	-41.4	22.3	0.00e+00	2	31	0	524288000	54	5978
2026-01-26 01:19:07.21	212.33	31.98	-40.2	-41.3	22.3	0.00e+00	90	31	0	531628032	54	5903
2026-01-26 01:19:11.25	213.34	32.59	-40.2	-41.2	22.5	0.00e+00	92	31	0	538968064	54	5861
2026-01-26 01:19:15.29	214.39	33.21	-40.2	-41.2	22.5	0.00e+00	0	31	0	547356672	52	6584
2026-01-26 01:19:19.32	215.48	33.83	-40.1	-41.0	22.5	0.00e+00	91	31	0	554696704	52	6455
2026-01-26 01:19:23.36	216.61	34.44	-40.8	-41.9	22.2	0.00e+00	92	31	0	562036736	52	7090
2026-01-26 01:19:27.40	217.79	35.06	-40.5	-41.5	22.2	0.00e+00	91	31	0	569376768	54	6081
2026-01-26 01:19:31.44	219.01	35.68	-40.1	-41.1	22.5	0.00e+00	7	31	0	577765376	52	6503
2026-01-26 01:19:35.48	220.27	36.29	-38.7	-39.6	23.8	0.00e+00	92	31	0	585105408	50	6143
2026-01-26 01:19:39.52	221.58	36.90	-39.9	-40.9	23.0	0.00e+00	92	31	0	592445440	52	6325
2026-01-26 01:19:43.56	222.95	37.50	-39.4	-40.4	23.4	0.00e+00	90	31	0	599785472	52	5984
2026-01-26 01:19:47.60	224.36	38.10	-39.8	-40.7	23.1	0.00e+00	0	31	0	607125504	52	6240
2026-01-26 01:19:51.64	225.82	38.68	-40.5	-41.6	22.2	0.00e+00	92	31	0	615514112	54	6131
2026-01-26 01:19:55.68	227.34	39.26	-40.6	-41.7	21.8	0.00e+00	92	31	0	622854144	54	6189
2026-01-26 01:19:59.71	228.90	39.82	-41.6	-42.8	21.3	0.00e+00	92	31	0	630194176	54	7055
2026-01-26 01:20:03.75	230.52	40.36	-40.1	-41.2	22.6	0.00e+00	10	31	0	637534208	54	5859
2026-01-26 01:20:07.78	232.19	40.89	-40.7	-41.9	21.8	0.00e+00	90	31	0	645922816	54	6321
2026-01-26 01:20:11.82	233.92	41.39	-40.0	-41.1	22.5	0.00e+00	92	31	0	653262848	54	5763
2026-01-26 01:20:15.86	235.70	41.88	-41.8	-43.1	20.7	0.00e+00	92	31	0	660602880	56	6512
2026-01-26 01:20:19.90	237.54	42.34	-42.3	-43.7	20.3	0.00e+00	52	31	0	667942912	56	6930
2026-01-26 01:20:23.94	239.42	42.77	-44.0	-45.6	19.3	0.00e+00	92	31	0	675282944	60	6869
2026-01-26 01:20:27.97	241.35	43.17	-42.1	-43.3	21.2	0.00e+00	90	31	0	683671552	58	5914
2026-01-26 01:20:32.01	243.33	43.54	-42.2	-43.5	21.0	0.00e+00	29	31	0	691011584	58	6045
2026-01-26 01:20:36.05	245.35	43.87	-40.8	-41.9	21.8	0.00e+00	25	31	0	698351616	54	6385
2026-01-26 01:20:40.09	247.41	44.17	-40.6	-41.7	22.5	0.00e+00	90	31	0	705691648	54	6185
2026-01-26 01:20:44.13	249.51	44.43	-40.6	-41.6	22.1	0.00e+00	90	31	0	714080256	54	6164
2026-01-26 01:20:48.16	251.63	44.64	-42.1	-43.3	21.5	0.00e+00	0	31	0	721420288	56	6634
2026-01-26 01:20:52.20	253.79	44.82	-41.1	-42.2	21.8	0.00e+00	80	31	0	728760320	56	5879
2026-01-26 01:20:56.24	255.96	44.95	-40.9	-41.9	22.3	0.00e+00	92	31	0	736100352	56	5680
2026-01-26 01:21:00.27	258.15	45.03	-40.5	-41.5	22.6	0.00e+00	92	31	0	743440384	54	6042
2026-01-26 01:21:04.31	260.34	45.07	-41.0	-42.1	22.6	0.00e+00	6	31	0	751828992	54	6474
2026-01-26 01:21:08.34	262.54	45.07	-40.1	-41.1	23.1	0.00e+00	92	31	0	759169024	54	5796
2026-01-26 01:21:12.38	264.73	45.02	-40.2	-41.2	23.0	0.00e+00	92	31	0	766509056	52	6543
2026-01-26 01:21:16.41	266.91	44.92	-40.1	-41.0	23.0	0.00e+00	92	31	0	773849088	52	6462
2026-01-26 01:21:20.45	269.08	44.78	-40.5	-41.5	22.4	0.00e+00	34	31	0	781189120	54	6083
2026-01-26 01:21:24.49	271.23	44.60	-40.1	-41.0	22.7	0.00e+00	92	31	0	789577728	52	6462
2026-01-26 01:21:28.53	273.35	44.37	-40.8	-41.9	21.7	0.00e+00	92	31	0	796917760	54	6333
2026-01-26 01:21:32.57	275.44	44.11	-41.2	-42.4	21.5	0.00e+00	58	31	0	804257792	56	5996
2026-01-26 01:21:36.60	277.48	43.80	-40.8	-41.9	22.0	0.00e+00	27	31	0	811597824	56	5658
2026-01-26 01:21:40.64	279.49	43.46	-40.1	-41.1	22.4	0.00e+00	92	31	0	819986432	52	6536
2026-01-26 01:21:44.68	281.46	43.09	-40.3	-41.3	22.6	0.00e+00	92	31	0	827326464	52	6674
2026-01-26 01:21:48.72	283.38	42.68	-40.0	-40.9	23.1	0.00e+00	0	31	0	834666496	54	5680
2026-01-26 01:21:52.76	285.25	42.25	-40.0	-40.9	23.2	0.00e+00	5	31	0	842006528	52	6388
2026-01-26 01:21:56.79	287.06	41.79	-37.7	-38.5	24.9	0.00e+00	92	31	0	849346560	48	6078
2026-01-26 01:22:00.83	288.83	41.30	-37.7	-38.5	24.9	0.00e+00	92	31	0	857735168	48	6063
2026-01-26 01:22:04.87	290.54	40.79	-38.5	-39.4	24.2	0.00e+00	7	31	0	865075200	50	5967
2026-01-26 01:22:08.91	292.20	40.26	-38.3	-39.1	25.0	0.00e+00	0	31	0	872415232	48	6473
2026-01-26 01:22:12.95	293.81	39.71	-38.8	-39.6	24.7	0.00e+00	92	31	0	879755264	50	6145
2026-01-26 01:22:16.99	295.36	39.15	-40.6	-41.5	23.4	0.00e+00	92	31	0	888143872	52	6787
2026-01-26 01:22:21.02	296.86	38.58	-39.8	-40.7	23.5	0.00e+00	61	31	0	895483904	52	6217
2026-01-26 01:22:25.05	298.30	38.00	-40.6	-41.5	23.9	0.00e+00	15	31	0	902823936	52	6820
2026-01-26 01:22:29.09	299.70	37.40	-40.1	-41.0	23.4	0.00e+00	90	31	0	910163968	52	6396
2026-01-26 01:22:33.13	301.05	36.80	-40.1	-40.9	24.3	0.00e+00	92	31	0	917504000	52	6389
2026-01-26 01:22:37.17	302.35	36.19	-40.6	-41.5	23.6	0.00e+00	0	31	0	925892608	52	6809
2026-01-26 01:22:41.20	303.60	35.59	-39.4	-40.2	24.6	0.00e+00	13	31	0	933232640	52	5843
2026-01-26 01:22:45.24	304.80	34.97	-41.9	-43.0	22.5	0.00e+00	90	31	0	940572672	56	6429
2026-01-26 01:22:49.28	305.97	34.36	-39.8	-40.7	24.1	0.00e+00	92	31	0	947912704	52	6190
2026-01-26 01:22:53.32	307.09	33.74	-41.7	-42.8	21.7	0.00e+00	0	31	0	956301312	56	6270
2026-01-26 01:22:57.36	308.17	33.13	-38.0	-38.8	24.9	0.00e+00	92	31	0	963641344	50	5606
2026-01-26 01:23:01.39	309.20	32.52	-43.1	-44.4	20.7	0.00e+00	92	31	0	970981376	56	7581
2026-01-26 01:23:05.43	310.21	31.91	-39.5	-40.3	24.2	0.00e+00	48	31	0	978321408	52	5906
2026-01-26 01:23:09.47	311.17	31.31	-42.3	-43.5	21.2	0.00e+00	2	31	0	985661440	56	6829
2026-01-26 01:23:13.51	312.11	30.70	-39.2	-40.1	24.1	0.00e+00	92	31	0	994050048	52	5764
2026-01-26 01:23:17.54	313.00	30.11	-41.4	-42.4	22.5	0.00e+00	90	31	0	1001390080	54	6739
2026-01-26 01:23:21.58	313.87	29.52	-40.0	-40.8	24.1	0.00e+00	0	31	0	1008730112	54	5616
2026-01-26 01:23:25.63	314.71	28.93	-39.0	-39.8	24.5	0.00e+00	51	31	0	1016070144	50	6279
2026-01-26 01:23:29.66	315.51	28.35	-41.9	-43.0	22.2	0.00e+00	92	31	0	1023410176	56	6425
2026-01-26 01:23:33.70	316.29	27.78	-39.0	-39.8	24.5	0.00e+00	92	31	0	1031798784	50	6255
2026-01-26 01:23:37.74	317.05	27.21	-39.8	-40.7	23.1	0.00e+00	0	31	0	1039138816	52	6229
2026-01-26 01:23:41.78	317.77	26.65	-40.0	-41.0	23.2	0.00e+00	0	31	0	1046478848	54	5707
2026-01-26 01:23:45.82	318.48	26.10	-38.7	-39.5	24.8	0.00e+00	92	31	0	1053818880	50	6061
2026-01-26 01:23:49.86	319.16	25.55	-39.2	-40.0	24.0	0.00e+00	92	31	0	1062207488	50	6448
2026-01-26 01:23:53.90	319.81	25.01	-40.6	-41.5	23.2	0.00e+00	0	31	0	1069547520	54	6091
2026-01-26 01:23:57.94	320.45	24.48	-39.1	-40.0	24.0	0.00e+00	0	31	0	1076887552	52	5716
2026-01-26 01:24:01.97	321.06	23.95	-39.1	-39.9	24.1	0.00e+00	92	31	0	1084227584	50	6390
2026-01-26 01:24:06.01	321.66	23.44	-39.1	-39.9	24.0	0.00e+00	30	31	0	1091567616	52	5683
2026-01-26 01:24:10.05	322.24	22.93	-39.8	-40.7	23.8	0.00e+00	29	31	0	1099956224	52	6221
2026-01-26 01:24:14.09	322.80	22.42	-39.4	-40.3	23.8	0.00e+00	75	31	0	1107296256	52	5929
2026-01-26 01:24:18.13	323.34	21.93	-39.2	-40.1	23.7	0.00e+00	91	31	0	1114636288	52	5809
2026-01-26 01:24:22.16	323.87	21.44	-40.1	-41.0	23.0	0.00e+00	0	31	0	1121976320	52	6464
2026-01-26 01:24:26.21	324.38	20.96	-40.4	-41.4	22.6	0.00e+00	0	31	0	1130364928	54	5966
2026-01-26 01:24:30.24	324.87	20.48	-40.9	-41.9	22.4	0.00e+00	90	31	0	1137704960	54	6378
2026-01-26 01:24:34.28	325.35	20.02	-40.8	-41.8	22.8	0.00e+00	92	31	0	1145044992	54	6262
2026-01-26 01:24:38.32	325.82	19.56	-40.0	-41.0	23.2	0.00e+00	0	31	0	1152385024	54	5704
2026-01-26 01:24:42.36	326.27	19.10	-40.4	-41.3	22.9	0.00e+00	2	31	0	1159725056	54	5956
2026-01-26 01:24:46.39	326.71	18.65	-39.8	-40.7	23.1	0.00e+00	92	31	0	1168113664	54	5535
2026-01-26 01:24:50.42	327.14	18.21	-39.4	-40.3	23.4	0.00e+00	92	31	0	1175453696	52	5930
2026-01-26 01:24:54.46	327.56	17.78	-39.0	-39.9	23.5	0.00e+00	28	31	0	1182793728	52	5674
2026-01-26 01:24:58.50	327.97	17.35	-39.9	-40.9	23.0	0.00e+00	0	31	0	1190133760	52	6338
2026-01-26 01:25:02.53	328.36	16.93	-40.7	-41.7	22.2	0.00e+00	92	31	0	1198522368	54	6227
2026-01-26 01:25:06.57	328.75	16.51	-40.8	-41.8	22.1	0.00e+00	38	31	0	1205862400	54	6292
2026-01-26 01:25:10.61	329.12	16.10	-40.8	-41.9	22.2	0.00e+00	0	31	0	1213202432	54	6336
2026-01-26 01:25:14.65	329.49	15.70	-40.4	-41.5	22.8	0.00e+00	0	31	0	1220542464	54	6041
2026-01-26 01:25:18.69	329.85	15.30	-40.3	-41.3	22.8	0.00e+00	93	31	0	1227882496	52	6638
2026-01-26 01:25:22.72	330.19	14.91	-40.2	-41.2	23.0	0.00e+00	7	31	0	1236271104	52	6566
2026-01-26 01:25:26.76	330.53	14.52	-40.1	-41.1	22.7	0.00e+00	6	31	0	1243611136	52	6468
2026-01-26 01:25:30.80	330.86	14.14	-41.6	-42.7	22.3	0.00e+00	4	31	0	1250951168	56	6208
2026-01-26 01:25:34.84	331.19	13.76	-40.5	-41.6	22.2	0.00e+00	91	31	0	1258291200	54	6126
2026-01-26 01:25:38.87	331.50	13.39	-40.6	-41.6	22.2	0.00e+00	63	31	0	1266679808	54	6147
2026-01-26 01:25:42.91	331.81	13.02	-40.2	-41.2	22.1	0.00e+00	6	31	0	1274019840	54	5894
2026-01-26 01:25:46.94	332.11	12.66	-40.2	-41.3	21.8	0.00e+00	77	31	0	1281359872	54	5938
2026-01-26 01:25:50.98	332.40	12.30	-41.2	-42.3	21.5	0.00e+00	57	31	0	1288699904	54	6660
2026-01-26 01:25:55.02	332.69	11.94	-41.2	-42.3	21.3	0.00e+00	22	31	0	1296039936	54	6679
2026-01-26 01:25:59.06	332.97	11.60	-41.8	-43.0	21.0	0.00e+00	58	31	0	1304428544	56	6440
2026-01-26 01:26:03.10	333.25	11.25	-41.3	-42.5	21.0	0.00e+00	92	31	0	1311768576	56	6071
2026-01-26 01:26:07.13	333.52	10.91	-40.3	-41.4	21.6	0.00e+00	0	31	0	1319108608	54	6006
2026-01-26 01:26:11.17	333.78	10.57	-40.5	-41.6	21.8	0.00e+00	0	31	0	1326448640	54	6113
2026-01-26 01:26:15.21	334.04	10.24	-41.4	-42.4	21.9	7.00e-07	0	31	0	1333788672	54	6769
2026-01-26 01:26:19.24	334.29	9.92	-40.7	-41.7	21.7	0.00e+00	90	31	0	1342177280	54	6245
2026-01-26 01:26:23.28	334.54	9.59	-40.8	-41.9	21.2	0.00e+00	2	31	0	1349517312	54	6355
2026-01-26 01:26:27.32	334.78	9.27	-41.2	-42.5	20.7	0.00e+00	0	31	0	1356857344	54	6770
2026-01-26 01:26:31.36	335.02	8.95	-41.8	-43.2	20.0	0.00e+00	0	31	0	1364197376	56	6554
2026-01-26 01:26:35.39	335.25	8.64	-42.4	-43.8	19.8	0.00e+00	92	31	0	1372585984	56	7044
2026-01-26 01:26:39.42	335.48	8.33	-42.7	-44.2	19.2	0.00e+00	59	31	0	1379926016	58	6575
2026-01-26 01:26:43.45	335.71	8.03	-42.4	-43.9	19.5	0.00e+00	0	31	0	1387266048	58	6328
2026-01-26 01:26:47.49	335.93	7.72	-42.2	-43.7	19.3	0.00e+00	0	31	0	1394606080	58	6232
2026-01-26 01:26:51.53	336.14	7.42	-42.1	-43.6	19.4	0.00e+00	92	31	0	1401946112	58	6157
2026-01-26 01:26:55.56	336.35	7.13	-42.2	-43.6	19.6	0.00e+00	0	31	0	1410334720	58	6169
2026-01-26 01:26:59.60	336.56	6.83	-42.2	-43.6	19.7	0.00e+00	2	31	0	1417674752	56	6878
2026-01-26 01:27:03.63	336.77	6.54	-41.8	-43.2	19.9	0.00e+00	76	31	0	1425014784	56	6592
2026-01-26 01:27:07.67	336.97	6.26	-41.7	-43.2	19.7	0.00e+00	3	31	0	1432354816	56	6559
2026-01-26 01:27:11.71	337.16	5.97	-41.9	-43.4	19.5	0.00e+00	2	31	0	1440743424	56	6762
2026-01-26 01:27:15.75	337.36	5.69	-42.2	-44.0	18.4	0.00e+00	2	31	0	1448083456	56	7182
2026-01-26 01:27:19.78	337.55	5.41	-43.1	-45.2	16.8	0.00e+00	6	31	0	1455423488	58	7418
2026-01-26 01:27:23.82	337.73	5.14	-43.7	-46.5	15.2	0.00e+00	12	31	0	1462763520	58	8590
2026-01-26 01:27:27.86	337.92	4.86	-44.1	-48.0	12.5	4.19e-05	13	31	0	1470103552	60	9089
2026-01-26 01:27:31.90	338.10	4.59	-44.8	-50.1	10.0	5.08e-03	73	31	0	1478492160	60	11561
2026-01-26 01:27:35.93	338.28	4.32	-44.7	-52.4	6.2	1.69e-01	88	31	0	1485832192	60	15062
2026-01-26 01:27:39.96	338.45	4.06	-44.6	-54.9	3.9	1.19e+00	91	31	0	1493172224	60	20042
2026-01-26 01:27:44.00	338.63	3.79	-44.5	-58.5	3.6	1.51e+00	0	31	104	1493172224	60	30512
2026-01-26 01:27:48.03	338.79	3.53	-44.6	-59.8	3.6	1.51e+00	0	31	104	1493172224	60	35453
2026-01-26 01:27:52.07	338.96	3.27	-44.5	-59.7	3.6	1.51e+00	0	31	104	1493172224	60	34919
2026-01-26 01:27:56.11	339.13	3.02	-44.7	-59.9	3.6	1.51e+00	0	31	104	1493172224	60	35876
2026-01-26 01:28:00.15	339.29	2.76	-49.3	-64.4	3.6	1.51e+00	0	31	104	1493172224	60	59813
2026-01-26 01:28:04.18	339.45	2.51	-49.6	-64.8	3.6	1.51e+00	0	31	104	1493172224	60	62499
2026-01-26 01:28:08.22	339.60	2.26	-50.0	-65.2	3.6	1.51e+00	0	31	104	1493172224	60	65677
2026-01-26 01:28:12.26	339.76	2.01	-49.8	-65.1	3.6	1.51e+00	0	31	104	1493172224	60	65116
2026-01-26 01:28:16.30	339.91	1.77	-50.1	-65.3	3.6	1.51e+00	0	31	104	1493172224	60	66446
2026-01-26 01:28:20.34	340.06	1.52	-50.8	-65.9	3.6	1.51e+00	0	31	104	1493172224	60	71601
2026-01-26 01:28:24.38	340.21	1.28	-50.7	-66.0	3.6	1.51e+00	0	31	104	1493172224	60	72019
2026-01-26 01:28:28.42	340.36	1.04	-50.4	-65.7	3.6	1.51e+00	0	31	104	1493172224	60	69645
2026-01-26 01:28:32.46	340.50	0.80	-50.8	-66.1	3.6	1.51e+00	0	31	104	1493172224	60	72974
2026-01-26 01:28:36.49	340.64	0.56	-50.5	-65.8	3.6	1.51e+00	0	31	104	1493172224	60	70102
2026-01-26 01:28:40.53	340.78	0.33	-50.7	-65.9	3.6	1.51e+00	0	31	104	1493172224	60	71391
2026-01-26 01:28:44.57	340.92	0.09	-51.8	-67.0	3.6	1.51e+00	0	31	104	1493172224	60	81351

#Closed at: 2026-01-26 01:28:46
#Recorded file [1493 MB]: D:/lorett/data/35029_260126_131332.dat