passes_logs/2026/01/26/R4.6S_Anadyr/R4.6S_Anadyr__20260126_153529_FENGYUN_3D_rec.log

#Pass ID: 20260126_153529_FENGYUN 3D
#Satellite: FENGYUN 3D
#Configuration: FENGYUN 3D
#almurnet v.1.7.20251203
#Start time: 2026-01-26 15:35:30

#Version: 2.2.20231116
#Station: R4.6S_Anadyr
#Location: 177.4865 lon 64.73178 lat
#TLE: 1 43010U 17072A   26025.99795741 -.00000136  00000+0 -42313-4 0  9999
#TLE: 2 43010  98.9962 357.9855 0002515  89.6991 270.4472 14.19699257424818

#Time	Az	El	Level	Level2	SNR	BER	BlckErr	Temp	State	Recorded	gain1	gain2
2026-01-26 15:35:30.73	19.46	0.09	-49.9	-64.8	3.5	1.51e+00	0	25	0	0	60	62702
2026-01-26 15:35:34.76	19.63	0.32	-49.8	-61.9	3.5	8.45e-01	0	26	104	0	60	44921
2026-01-26 15:35:38.80	19.80	0.55	-49.8	-61.9	3.6	8.46e-01	0	26	104	0	60	44731
2026-01-26 15:35:42.84	19.98	0.78	-49.6	-61.8	3.6	8.47e-01	0	27	104	0	60	44369
2026-01-26 15:35:46.88	20.15	1.01	-49.4	-61.5	3.6	8.44e-01	0	27	104	0	60	42955
2026-01-26 15:35:50.91	20.33	1.25	-49.0	-61.2	3.6	8.45e-01	0	27	104	0	60	41382
2026-01-26 15:35:54.95	20.51	1.49	-48.2	-60.3	3.6	8.45e-01	0	27	104	0	60	37325
2026-01-26 15:35:58.99	20.69	1.73	-48.2	-60.0	3.6	8.46e-01	0	27	104	0	60	36265
2026-01-26 15:36:03.03	20.88	1.97	-48.2	-60.3	3.6	8.44e-01	0	27	104	0	60	37229
2026-01-26 15:36:07.07	21.07	2.21	-48.2	-60.3	3.6	8.45e-01	0	27	104	0	60	37531
2026-01-26 15:36:11.11	21.26	2.45	-48.0	-58.4	3.6	8.45e-01	0	27	104	0	60	30068
2026-01-26 15:36:15.15	21.46	2.70	-47.7	-56.2	3.9	8.44e-01	0	27	104	0	60	23330
2026-01-26 15:36:19.19	21.65	2.95	-40.3	-41.5	17.8	0.00e+00	0	27	0	16777216	54	6041
2026-01-26 15:36:23.23	21.85	3.20	-36.9	-37.8	21.5	0.00e+00	0	27	0	39845888	48	5580
2026-01-26 15:36:27.27	22.06	3.45	-39.0	-40.0	19.0	0.00e+00	0	27	0	61865984	50	6419
2026-01-26 15:36:31.31	22.26	3.71	-48.1	-58.8	3.7	8.46e-01	0	27	104	81788928	60	31551
2026-01-26 15:36:35.35	22.48	3.96	-37.8	-38.7	20.8	0.00e+00	0	27	0	96468992	48	6216
2026-01-26 15:36:39.39	22.69	4.22	-38.1	-39.1	20.4	0.00e+00	0	27	0	119537664	48	6489
2026-01-26 15:36:43.43	22.91	4.49	-37.4	-38.3	21.3	0.00e+00	0	27	0	141557760	48	5936
2026-01-26 15:36:47.46	23.13	4.75	-37.5	-38.3	21.3	0.00e+00	0	27	0	164626432	48	5935
2026-01-26 15:36:51.50	23.35	5.01	-36.5	-37.3	22.3	0.00e+00	0	27	0	187695104	46	5916
2026-01-26 15:36:55.52	23.58	5.28	-36.7	-37.5	22.1	0.00e+00	0	27	0	209715200	46	6096
2026-01-26 15:36:59.56	23.81	5.55	-36.0	-36.8	22.7	0.00e+00	0	27	0	232783872	44	6268
2026-01-26 15:37:03.60	24.05	5.83	-35.4	-36.1	23.4	0.00e+00	0	27	0	254803968	44	5823
2026-01-26 15:37:07.64	24.29	6.10	-35.7	-36.5	23.3	0.00e+00	0	27	0	277872640	44	6055
2026-01-26 15:37:11.68	24.53	6.38	-35.5	-36.3	23.4	0.00e+00	0	27	0	300941312	44	5910
2026-01-26 15:37:15.72	24.78	6.66	-35.5	-36.2	23.4	0.00e+00	0	27	0	322961408	44	5882
2026-01-26 15:37:19.76	25.03	6.94	-35.5	-36.3	23.4	0.00e+00	0	27	0	346030080	44	5908
2026-01-26 15:37:23.79	25.29	7.23	-35.9	-36.7	23.1	0.00e+00	0	27	0	369098752	44	6213
2026-01-26 15:37:27.83	25.55	7.52	-35.5	-36.3	23.5	0.00e+00	0	28	0	392167424	44	5916
2026-01-26 15:37:31.87	25.82	7.81	-35.4	-36.2	23.5	0.00e+00	0	28	0	414187520	44	5845
2026-01-26 15:37:35.91	26.09	8.10	-35.4	-36.2	23.8	0.00e+00	0	27	0	437256192	44	5833
2026-01-26 15:37:39.95	26.37	8.40	-35.1	-35.8	24.0	0.00e+00	0	28	0	459276288	44	5626
2026-01-26 15:37:43.98	26.65	8.70	-34.8	-35.5	24.2	0.00e+00	0	27	0	482344960	44	5407
2026-01-26 15:37:48.02	26.94	9.01	-34.9	-35.6	24.2	0.00e+00	0	27	0	505413632	42	6143
2026-01-26 15:37:52.06	27.24	9.31	-34.5	-35.2	24.6	0.00e+00	0	28	0	527433728	42	5855
2026-01-26 15:37:56.10	27.54	9.62	-34.3	-35.0	24.9	0.00e+00	0	27	0	550502400	42	5761
2026-01-26 15:38:00.14	27.84	9.94	-34.5	-35.1	24.7	0.00e+00	0	28	0	573571072	42	5821
2026-01-26 15:38:04.17	28.15	10.25	-34.3	-35.0	24.9	0.00e+00	0	28	0	595591168	42	5725
2026-01-26 15:38:08.21	28.47	10.57	-34.2	-34.9	24.9	0.00e+00	0	28	0	618659840	42	5638
2026-01-26 15:38:12.25	28.80	10.90	-34.2	-34.9	25.0	0.00e+00	0	28	0	641728512	42	5685
2026-01-26 15:38:16.28	29.13	11.22	-34.3	-35.0	25.0	0.00e+00	0	28	0	663748608	42	5731
2026-01-26 15:38:20.32	29.47	11.55	-33.8	-34.5	25.4	0.00e+00	0	28	0	686817280	40	6049
2026-01-26 15:38:24.36	29.82	11.89	-33.7	-34.3	25.5	0.00e+00	0	28	0	709885952	40	5936
2026-01-26 15:38:28.40	30.17	12.23	-33.7	-34.3	25.3	0.00e+00	0	28	0	731906048	40	5951
2026-01-26 15:38:32.44	30.53	12.57	-33.6	-34.3	25.6	0.00e+00	0	28	0	754974720	40	5925
2026-01-26 15:38:36.48	30.91	12.92	-33.3	-34.0	25.8	0.00e+00	0	28	0	778043392	40	5705
2026-01-26 15:38:40.51	31.28	13.26	-33.5	-34.1	25.7	0.00e+00	0	28	0	800063488	40	5799
2026-01-26 15:38:44.55	31.67	13.62	-33.5	-34.2	25.6	0.00e+00	0	28	0	823132160	40	5854
2026-01-26 15:38:48.59	32.07	13.98	-33.3	-33.9	25.9	0.00e+00	0	28	0	846200832	40	5688
2026-01-26 15:38:52.63	32.47	14.34	-33.0	-33.6	26.1	0.00e+00	0	28	0	868220928	40	5493
2026-01-26 15:38:56.67	32.89	14.71	-33.0	-33.7	26.2	0.00e+00	0	28	0	891289600	40	5507
2026-01-26 15:39:00.70	33.31	15.08	-33.1	-33.8	26.1	0.00e+00	0	28	0	914358272	40	5575
2026-01-26 15:39:04.74	33.75	15.45	-33.1	-33.7	26.1	0.00e+00	0	28	0	936378368	40	5555
2026-01-26 15:39:08.78	34.20	15.83	-32.8	-33.4	26.5	0.00e+00	0	28	0	959447040	40	5348
2026-01-26 15:39:12.81	34.65	16.21	-32.6	-33.3	26.6	0.00e+00	0	28	0	982515712	38	5912
2026-01-26 15:39:16.85	35.12	16.60	-32.6	-33.3	26.5	0.00e+00	0	28	0	1004535808	38	5904
2026-01-26 15:39:20.89	35.60	16.99	-32.9	-33.5	26.4	0.00e+00	0	28	0	1027604480	38	6091
2026-01-26 15:39:24.93	36.09	17.39	-32.7	-33.4	26.4	0.00e+00	0	28	0	1050673152	38	5993
2026-01-26 15:39:28.96	36.60	17.79	-32.6	-33.2	26.6	0.00e+00	0	28	0	1072693248	38	5879
2026-01-26 15:39:33.00	37.12	18.20	-32.5	-33.1	26.6	0.00e+00	0	28	0	1095761920	38	5806
2026-01-26 15:39:37.04	37.65	18.61	-32.4	-33.0	26.7	0.00e+00	0	28	0	1118830592	38	5737
2026-01-26 15:39:41.08	38.20	19.02	-32.2	-32.8	27.0	0.00e+00	0	28	0	1140850688	38	5602
2026-01-26 15:39:45.11	38.76	19.44	-32.1	-32.8	27.0	0.00e+00	0	28	0	1163919360	38	5598
2026-01-26 15:39:49.15	39.33	19.86	-32.1	-32.7	27.1	0.00e+00	0	28	0	1186988032	38	5533
2026-01-26 15:39:53.18	39.92	20.29	-32.0	-32.6	27.1	0.00e+00	0	28	0	1209008128	38	5446
2026-01-26 15:39:57.22	40.53	20.72	-32.1	-32.8	27.0	0.00e+00	0	28	0	1232076800	38	5581
2026-01-26 15:40:01.26	41.16	21.16	-32.0	-32.7	27.1	0.00e+00	0	28	0	1254096896	38	5516
2026-01-26 15:40:05.30	41.80	21.60	-31.7	-32.3	27.3	0.00e+00	0	28	0	1277165568	36	5933
2026-01-26 15:40:09.34	42.46	22.05	-31.2	-31.8	27.7	0.00e+00	0	28	0	1300234240	36	5621
2026-01-26 15:40:13.38	43.14	22.50	-31.5	-32.1	27.6	0.00e+00	0	28	0	1323302912	36	5826
2026-01-26 15:40:17.42	43.84	22.95	-31.5	-32.1	27.7	0.00e+00	0	28	0	1345323008	36	5798
2026-01-26 15:40:21.47	44.56	23.41	-31.2	-31.8	27.7	0.00e+00	0	28	0	1368391680	36	5627
2026-01-26 15:40:25.50	45.30	23.87	-31.2	-31.8	27.8	0.00e+00	0	28	0	1391460352	36	5626
2026-01-26 15:40:29.54	46.06	24.34	-31.2	-31.8	27.8	0.00e+00	0	28	0	1413480448	36	5630
2026-01-26 15:40:33.58	46.84	24.80	-31.0	-31.6	27.9	0.00e+00	0	28	0	1436549120	36	5480
2026-01-26 15:40:37.62	47.65	25.27	-30.8	-31.4	28.1	0.00e+00	0	28	0	1458569216	36	5337
2026-01-26 15:40:41.65	48.48	25.75	-30.8	-31.4	28.0	0.00e+00	0	28	0	1481637888	36	5360
2026-01-26 15:40:45.69	49.34	26.22	-30.8	-31.4	28.1	0.00e+00	0	28	0	1504706560	36	5338
2026-01-26 15:40:49.73	50.22	26.70	-31.2	-31.8	27.8	0.00e+00	0	28	0	1527775232	34	6289
2026-01-26 15:40:53.77	51.12	27.18	-31.1	-31.7	26.5	0.00e+00	0	28	0	1549795328	34	6231
2026-01-26 15:40:57.80	52.06	27.65	-30.8	-31.5	28.1	0.00e+00	0	28	0	1572864000	34	6045
2026-01-26 15:41:01.84	53.02	28.13	-30.6	-31.2	28.3	0.00e+00	0	28	0	1595932672	34	5843
2026-01-26 15:41:05.87	54.01	28.61	-30.5	-31.2	28.2	0.00e+00	0	28	0	1617952768	34	5836
2026-01-26 15:41:09.91	55.03	29.09	-30.4	-31.0	28.3	0.00e+00	0	28	0	1641021440	34	5747
2026-01-26 15:41:13.95	56.08	29.56	-30.3	-31.0	28.5	0.00e+00	0	28	0	1663041536	34	5710
2026-01-26 15:41:17.99	57.16	30.03	-30.3	-30.9	28.6	0.00e+00	0	28	0	1686110208	34	5657
2026-01-26 15:41:22.03	58.27	30.50	-30.3	-30.9	28.4	0.00e+00	0	28	0	1709178880	34	5692
2026-01-26 15:41:26.06	59.41	30.97	-30.2	-30.8	28.5	0.00e+00	0	28	0	1731198976	34	5574
2026-01-26 15:41:30.10	60.59	31.43	-30.4	-31.1	28.4	0.00e+00	0	28	0	1754267648	34	5766
2026-01-26 15:41:34.14	61.80	31.88	-30.3	-30.9	28.4	0.00e+00	0	28	0	1777336320	34	5643
2026-01-26 15:41:38.18	63.05	32.33	-30.2	-30.9	28.4	0.00e+00	0	28	0	1800404992	34	5640
2026-01-26 15:41:42.21	64.32	32.76	-30.3	-30.9	28.5	0.00e+00	0	28	0	1822425088	34	5687
2026-01-26 15:41:46.25	65.63	33.19	-30.4	-31.0	28.3	0.00e+00	0	28	0	1845493760	34	5747
2026-01-26 15:41:50.29	66.98	33.61	-30.3	-30.9	28.5	0.00e+00	0	28	0	1867513856	34	5676
2026-01-26 15:41:54.32	68.36	34.01	-30.3	-30.9	28.6	0.00e+00	0	28	0	1890582528	34	5668
2026-01-26 15:41:58.36	69.77	34.41	-30.2	-30.8	28.6	0.00e+00	0	28	0	1913651200	34	5568
2026-01-26 15:42:02.41	71.22	34.79	-30.1	-30.7	28.6	0.00e+00	0	28	0	1935671296	34	5565
2026-01-26 15:42:06.44	72.70	35.15	-30.0	-30.7	28.8	0.00e+00	0	28	0	1958739968	34	5504
2026-01-26 15:42:10.48	74.21	35.49	-30.1	-30.7	28.6	0.00e+00	0	28	0	1981808640	34	5541
2026-01-26 15:42:14.52	75.75	35.82	-30.0	-30.7	28.7	0.00e+00	0	28	0	2003828736	34	5524
2026-01-26 15:42:18.56	77.33	36.12	-29.8	-30.4	28.9	0.00e+00	0	28	0	2026897408	32	5990
2026-01-26 15:42:22.60	78.93	36.40	-30.1	-30.7	28.6	0.00e+00	0	28	0	2049966080	32	6192
2026-01-26 15:42:26.64	80.56	36.67	-29.8	-30.4	28.7	0.00e+00	0	28	0	2071986176	32	6022
2026-01-26 15:42:30.67	82.21	36.90	-30.1	-30.7	28.7	0.00e+00	0	28	0	2095054848	32	6243
2026-01-26 15:42:34.71	83.88	37.11	-29.9	-30.5	28.7	0.00e+00	0	28	0	2118123520	32	6052
2026-01-26 15:42:38.75	85.58	37.30	-30.8	-31.4	28.3	0.00e+00	0	28	0	2140143616	36	5364
2026-01-26 15:42:42.79	87.29	37.46	-30.6	-31.1	28.4	0.00e+00	0	28	0	2163212288	34	5820
2026-01-26 15:42:46.83	89.02	37.59	-29.8	-30.3	28.8	0.00e+00	0	28	0	2186280960	32	5960
2026-01-26 15:42:50.86	90.76	37.69	-30.3	-30.9	28.6	0.00e+00	0	28	0	2208301056	32	6342
2026-01-26 15:42:54.90	92.51	37.77	-29.6	-30.2	29.0	0.00e+00	0	28	0	2231369728	32	5888
2026-01-26 15:42:58.94	94.27	37.81	-29.9	-30.5	28.8	0.00e+00	0	28	0	2254438400	32	6045
2026-01-26 15:43:02.98	96.03	37.83	-30.0	-30.7	28.7	0.00e+00	0	28	0	2276458496	32	6174
2026-01-26 15:43:07.01	97.79	37.81	-30.0	-30.6	28.7	0.00e+00	0	28	0	2299527168	32	6173
2026-01-26 15:43:11.05	99.55	37.77	-29.7	-30.2	28.7	0.00e+00	0	28	0	2322595840	32	5889
2026-01-26 15:43:15.09	101.30	37.69	-29.9	-30.6	28.7	0.00e+00	0	28	0	2344615936	32	6106
2026-01-26 15:43:19.13	103.05	37.59	-29.9	-30.5	28.7	0.00e+00	0	28	0	2367684608	32	6047
2026-01-26 15:43:23.18	104.78	37.46	-30.0	-30.7	28.7	0.00e+00	0	28	0	2390753280	32	6187
2026-01-26 15:43:27.21	106.49	37.30	-30.4	-31.1	28.5	0.00e+00	0	28	0	2412773376	32	6465
2026-01-26 15:43:31.26	108.20	37.11	-30.2	-30.8	28.6	0.00e+00	0	28	0	2435842048	32	6291
2026-01-26 15:43:35.30	109.87	36.89	-30.3	-30.9	28.5	0.00e+00	0	28	0	2458910720	32	6320
2026-01-26 15:43:39.34	111.53	36.66	-30.2	-30.8	28.6	0.00e+00	0	28	0	2480930816	32	6269
2026-01-26 15:43:43.38	113.16	36.39	-29.9	-30.6	28.7	0.00e+00	0	28	0	2503999488	32	6133
2026-01-26 15:43:47.42	114.76	36.11	-29.8	-30.5	28.8	0.00e+00	0	28	0	2527068160	32	6042
2026-01-26 15:43:51.46	116.34	35.80	-30.0	-30.6	28.7	0.00e+00	0	28	0	2549088256	32	6119
2026-01-26 15:43:55.50	117.88	35.47	-30.4	-30.9	28.5	0.00e+00	0	28	0	2572156928	32	6384
2026-01-26 15:43:59.54	119.40	35.13	-30.4	-31.0	28.3	0.00e+00	0	28	0	2595225600	32	6462
2026-01-26 15:44:03.58	120.88	34.77	-30.2	-30.8	28.4	0.00e+00	0	28	0	2617245696	32	6315
2026-01-26 15:44:07.62	122.33	34.39	-30.5	-31.0	28.3	0.00e+00	0	28	0	2640314368	32	6448
2026-01-26 15:44:11.66	123.75	33.99	-30.3	-30.8	28.5	0.00e+00	0	28	0	2663383040	32	6277
2026-01-26 15:44:15.70	125.13	33.58	-30.6	-31.2	28.3	0.00e+00	0	28	0	2685403136	34	5861
2026-01-26 15:44:19.74	126.48	33.16	-30.3	-30.8	28.5	0.00e+00	0	28	0	2708471808	34	5596
2026-01-26 15:44:23.78	127.79	32.73	-30.5	-31.1	28.3	0.00e+00	0	28	0	2731540480	34	5765
2026-01-26 15:44:27.82	129.07	32.29	-30.5	-31.1	28.3	0.00e+00	0	28	0	2753560576	34	5784
2026-01-26 15:44:31.86	130.32	31.84	-30.5	-31.2	28.3	0.00e+00	0	28	0	2776629248	34	5872
2026-01-26 15:44:35.90	131.53	31.39	-30.3	-31.0	28.4	0.00e+00	0	28	0	2799697920	34	5704
2026-01-26 15:44:39.93	132.71	30.93	-30.7	-31.3	28.2	0.00e+00	0	28	0	2821718016	34	5943
2026-01-26 15:44:43.97	133.86	30.46	-30.8	-31.4	28.1	0.00e+00	0	28	0	2844786688	34	5978
2026-01-26 15:44:48.01	134.97	29.99	-30.6	-31.3	28.1	0.00e+00	0	28	0	2867855360	34	5899
2026-01-26 15:44:52.05	136.05	29.51	-30.9	-31.5	27.8	0.00e+00	0	28	0	2889875456	34	6079
2026-01-26 15:44:56.08	137.10	29.03	-30.7	-31.3	27.8	0.00e+00	0	28	0	2912944128	34	5911
2026-01-26 15:45:00.12	138.12	28.55	-31.3	-32.0	27.4	0.00e+00	0	28	0	2936012800	34	6455
2026-01-26 15:45:04.16	139.12	28.07	-30.8	-31.5	28.0	0.00e+00	0	28	0	2958032896	34	6067
2026-01-26 15:45:08.19	140.08	27.59	-30.8	-31.3	28.1	0.00e+00	0	28	0	2981101568	34	5940
2026-01-26 15:45:12.23	141.01	27.11	-31.1	-31.7	27.7	0.00e+00	0	28	0	3004170240	34	6175
2026-01-26 15:45:16.27	141.92	26.63	-30.6	-31.2	28.1	0.00e+00	0	28	0	3026190336	34	5859
2026-01-26 15:45:20.31	142.80	26.15	-30.8	-31.5	27.9	0.00e+00	0	28	0	3049259008	34	6068
2026-01-26 15:45:24.35	143.66	25.67	-30.7	-31.3	28.1	0.00e+00	0	28	0	3072327680	34	5960
2026-01-26 15:45:28.39	144.49	25.20	-30.9	-31.4	27.9	0.00e+00	0	28	0	3094347776	34	6008
2026-01-26 15:45:32.43	145.30	24.72	-31.0	-31.8	27.8	0.00e+00	0	28	0	3117416448	34	6251
2026-01-26 15:45:36.47	146.08	24.25	-31.0	-31.5	27.9	0.00e+00	0	28	0	3140485120	34	6080
2026-01-26 15:45:40.51	146.85	23.79	-31.1	-31.6	27.8	0.00e+00	0	28	0	3162505216	34	6158
2026-01-26 15:45:44.55	147.59	23.32	-31.4	-32.0	27.5	0.00e+00	0	28	0	3185573888	34	6428
2026-01-26 15:45:48.58	148.30	22.86	-31.2	-31.8	27.7	0.00e+00	0	28	0	3208642560	34	6265
2026-01-26 15:45:52.62	149.00	22.41	-31.4	-32.1	27.5	0.00e+00	0	28	0	3230662656	34	6497
2026-01-26 15:45:56.65	149.68	21.96	-31.5	-32.2	27.4	0.00e+00	0	28	0	3253731328	34	6581
2026-01-26 15:46:00.70	150.34	21.51	-31.9	-32.5	27.1	0.00e+00	0	28	0	3276800000	36	6056
2026-01-26 15:46:04.73	150.98	21.06	-31.9	-32.5	27.1	0.00e+00	0	28	0	3298820096	36	6050
2026-01-26 15:46:08.77	151.61	20.62	-32.1	-32.8	27.0	0.00e+00	0	28	0	3321888768	36	6288
2026-01-26 15:46:12.81	152.22	20.19	-32.1	-32.8	26.9	0.00e+00	0	28	0	3344957440	36	6305
2026-01-26 15:46:16.84	152.81	19.76	-32.0	-32.6	27.0	0.00e+00	0	28	0	3366977536	36	6107
2026-01-26 15:46:20.88	153.38	19.33	-32.4	-33.2	26.6	0.00e+00	0	28	0	3390046208	36	6542
2026-01-26 15:46:24.91	153.94	18.91	-33.3	-34.0	25.7	0.00e+00	0	28	0	3412066304	38	6445
2026-01-26 15:46:28.94	154.49	18.50	-35.0	-35.7	23.6	0.00e+00	0	28	0	3435134976	42	6202
2026-01-26 15:46:32.98	155.02	18.08	-36.5	-37.4	21.5	0.00e+00	0	28	0	3458203648	44	6759
2026-01-26 15:46:37.03	155.54	17.67	-35.9	-36.6	22.5	0.00e+00	0	28	0	3480223744	44	6148
2026-01-26 15:46:41.06	156.04	17.27	-34.6	-35.2	24.3	0.00e+00	0	28	0	3503292416	42	5863
2026-01-26 15:46:45.10	156.53	16.87	-33.4	-34.0	25.5	0.00e+00	0	28	0	3526361088	40	5736
2026-01-26 15:46:49.14	157.01	16.48	-33.0	-33.6	26.0	0.00e+00	0	28	0	3549429760	40	5468
2026-01-26 15:46:53.17	157.48	16.09	-32.9	-33.5	26.1	0.00e+00	0	28	0	3571449856	40	5404
2026-01-26 15:46:57.21	157.93	15.70	-33.1	-33.8	26.0	0.00e+00	0	28	0	3594518528	40	5598
2026-01-26 15:47:01.25	158.38	15.32	-33.3	-33.9	25.8	0.00e+00	0	28	0	3616538624	40	5663
2026-01-26 15:47:05.29	158.81	14.94	-33.5	-34.2	25.6	0.00e+00	0	28	0	3639607296	40	5880
2026-01-26 15:47:09.33	159.24	14.57	-33.6	-34.3	25.5	0.00e+00	0	28	0	3662675968	40	5904
2026-01-26 15:47:13.36	159.65	14.20	-33.8	-34.4	25.3	0.00e+00	0	28	0	3684696064	40	6014
2026-01-26 15:47:17.41	160.05	13.84	-33.7	-34.3	25.4	0.00e+00	0	28	0	3707764736	40	5918
2026-01-26 15:47:21.45	160.45	13.48	-33.8	-34.4	25.4	0.00e+00	0	28	0	3730833408	40	6006
2026-01-26 15:47:25.49	160.84	13.12	-33.8	-34.4	25.3	0.00e+00	0	28	0	3753902080	40	6020
2026-01-26 15:47:29.53	161.21	12.77	-33.9	-34.5	25.2	0.00e+00	0	28	0	3775922176	40	6056
2026-01-26 15:47:33.57	161.58	12.42	-34.0	-34.8	25.0	0.00e+00	0	28	0	3798990848	40	6293
2026-01-26 15:47:37.60	161.94	12.08	-34.1	-34.7	25.0	0.00e+00	0	28	0	3821010944	40	6245
2026-01-26 15:47:41.64	162.29	11.74	-34.0	-34.6	25.0	0.00e+00	0	28	0	3844079616	40	6159
2026-01-26 15:47:45.68	162.64	11.41	-34.3	-34.9	24.8	0.00e+00	0	28	0	3867148288	40	6352
2026-01-26 15:47:49.71	162.97	11.07	-34.4	-35.2	24.7	0.00e+00	0	28	0	3889168384	40	6544
2026-01-26 15:47:53.75	163.30	10.74	-34.6	-35.4	24.5	0.00e+00	0	28	0	3912237056	40	6711
2026-01-26 15:47:57.79	163.63	10.42	-34.7	-35.5	24.3	0.00e+00	0	28	0	3935305728	42	6076
2026-01-26 15:48:01.83	163.94	10.10	-34.7	-35.4	24.4	0.00e+00	0	28	0	3957325824	42	6030
2026-01-26 15:48:05.87	164.25	9.78	-34.7	-35.4	24.3	0.00e+00	0	28	0	3980394496	42	6030
2026-01-26 15:48:09.91	164.56	9.46	-34.8	-35.5	24.2	0.00e+00	0	28	0	4003463168	42	6035
2026-01-26 15:48:13.95	164.86	9.15	-35.0	-35.7	24.0	0.00e+00	0	28	0	4025483264	42	6201
2026-01-26 15:48:17.99	165.15	8.84	-35.0	-35.7	24.0	0.00e+00	0	28	0	4048551936	42	6185
2026-01-26 15:48:22.03	165.43	8.54	-35.1	-35.8	23.8	0.00e+00	0	28	0	4071620608	42	6258
2026-01-26 15:48:26.06	165.71	8.24	-35.1	-35.8	23.8	0.00e+00	0	28	0	4093640704	44	5572
2026-01-26 15:48:30.10	165.99	7.94	-35.0	-35.6	24.0	0.00e+00	0	28	0	4116709376	42	6143
2026-01-26 15:48:34.14	166.26	7.64	-35.3	-36.1	23.7	0.00e+00	0	28	0	4139778048	42	6492
2026-01-26 15:48:38.17	166.52	7.35	-35.8	-36.5	23.3	0.00e+00	0	28	0	4161798144	42	6803
2026-01-26 15:48:42.21	166.78	7.06	-35.8	-36.6	23.1	0.00e+00	0	28	0	4184866816	44	6135
2026-01-26 15:48:46.25	167.04	6.77	-35.6	-36.4	23.2	0.00e+00	0	28	0	4207935488	44	6018
2026-01-26 15:48:50.29	167.29	6.49	-35.9	-36.6	22.9	0.00e+00	0	28	0	4229955584	44	6155
2026-01-26 15:48:54.33	167.53	6.20	-35.9	-36.8	22.9	0.00e+00	0	28	0	4253024256	44	6287
2026-01-26 15:48:58.38	167.77	5.92	-36.0	-36.7	22.8	0.00e+00	0	28	0	4276092928	44	6183
2026-01-26 15:49:02.41	168.01	5.65	-36.1	-36.8	22.7	0.00e+00	0	28	0	4298113024	44	6281
2026-01-26 15:49:06.46	168.24	5.37	-35.7	-36.4	22.9	0.00e+00	0	28	0	4321181696	44	5999
2026-01-26 15:49:10.49	168.47	5.10	-35.9	-36.7	22.8	0.00e+00	0	28	0	4344250368	44	6213
2026-01-26 15:49:14.53	168.70	4.83	-36.1	-36.8	22.5	0.00e+00	0	28	0	4367319040	44	6296
2026-01-26 15:49:18.57	168.92	4.57	-36.0	-36.8	22.6	0.00e+00	0	28	0	4389339136	44	6283
2026-01-26 15:49:22.61	169.14	4.30	-36.1	-36.8	22.6	0.00e+00	0	28	0	4412407808	44	6265
2026-01-26 15:49:26.64	169.35	4.04	-36.3	-37.0	22.2	0.00e+00	0	28	0	4434427904	44	6448
2026-01-26 15:49:30.68	169.56	3.78	-36.2	-37.0	22.1	0.00e+00	0	28	0	4457496576	46	5752
2026-01-26 15:49:34.72	169.76	3.52	-36.6	-37.5	21.8	0.00e+00	0	28	0	4480565248	46	6038
2026-01-26 15:49:38.76	169.97	3.26	-36.4	-37.3	21.8	0.00e+00	0	28	0	4502585344	46	5945
2026-01-26 15:49:42.80	170.17	3.01	-48.4	-60.2	3.6	3.53e-01	0	28	104	4523556864	60	36830
2026-01-26 15:49:46.84	170.36	2.76	-49.3	-61.4	3.6	8.47e-01	0	28	104	4523556864	60	42536
2026-01-26 15:49:50.89	170.56	2.51	-49.6	-61.7	3.6	8.45e-01	0	28	104	4523556864	60	43897
2026-01-26 15:49:54.92	170.75	2.26	-49.7	-61.8	3.6	8.45e-01	0	28	104	4523556864	60	44366
2026-01-26 15:49:58.96	170.94	2.02	-49.6	-61.8	3.6	8.46e-01	0	28	104	4523556864	60	44266
2026-01-26 15:50:03.00	171.12	1.77	-49.5	-61.7	3.6	8.45e-01	0	28	104	4523556864	60	43991
2026-01-26 15:50:07.05	171.30	1.53	-49.6	-61.7	3.6	8.45e-01	0	28	104	4523556864	60	43912
2026-01-26 15:50:11.09	171.48	1.29	-49.6	-61.7	3.6	8.45e-01	0	28	104	4523556864	60	43976
2026-01-26 15:50:15.12	171.66	1.05	-49.6	-61.7	3.6	8.46e-01	0	28	104	4523556864	60	43988
2026-01-26 15:50:19.16	171.83	0.81	-49.6	-61.8	3.6	8.46e-01	0	28	104	4523556864	60	44252
2026-01-26 15:50:23.20	172.01	0.58	-49.6	-61.7	3.6	8.45e-01	0	28	104	4523556864	60	44109
2026-01-26 15:50:27.24	172.18	0.34	-49.6	-61.7	3.6	8.45e-01	0	28	104	4523556864	60	44047
2026-01-26 15:50:31.27	172.34	0.11	-49.6	-61.7	3.6	8.46e-01	0	28	104	4523556864	60	44089

#Closed at: 2026-01-26 15:50:34
#Recorded file [4523 MB]: D:/lorett/data/35029_260127_033530.dat