passes_logs/2026/01/26/R4.6S_Anadyr/R4.6S_Anadyr__20260126_122816_NOAA_21_JPSS-2_rec.log

#Pass ID: 20260126_122816_NOAA 21 (JPSS-2)
#Satellite: NOAA 21 (JPSS-2)
#Configuration: NOAA-21
#almurnet v.1.7.20251203
#Start time: 2026-01-26 12:28:18

#Version: 2.2.20231116
#Station: R4.6S_Anadyr
#Location: 177.4865 lon 64.73178 lat
#TLE: 1 54234U 22150A   26025.93791214  .00000195  00000+0  11336-3 0  9990
#TLE: 2 54234  98.7509 326.7059 0000782 212.3040 147.8088 14.19539484166365

#Time	Az	El	Level	Level2	SNR	BER	BlckErr	Temp	State	Recorded	gain1	gain2
2026-01-26 12:28:18.69	18.99	0.09	-50.8	-65.7	3.5	1.51e+00	0	26	0	0	60	70011
2026-01-26 12:28:22.73	19.28	0.29	-49.2	-62.0	3.5	1.52e+00	0	27	104	0	60	44248
2026-01-26 12:28:26.77	19.57	0.49	-49.0	-62.0	3.5	1.52e+00	0	28	104	0	60	44074
2026-01-26 12:28:30.80	19.86	0.69	-49.1	-61.9	3.5	1.52e+00	0	28	104	0	60	43838
2026-01-26 12:28:34.84	20.16	0.90	-48.9	-61.8	3.5	1.52e+00	0	28	104	0	60	43074
2026-01-26 12:28:38.88	20.46	1.10	-48.6	-61.5	3.5	1.52e+00	0	28	104	0	60	41566
2026-01-26 12:28:42.92	20.77	1.30	-47.8	-60.6	3.5	1.52e+00	0	28	104	0	60	37496
2026-01-26 12:28:46.96	21.08	1.51	-47.5	-60.4	3.5	1.52e+00	0	28	104	0	60	36799
2026-01-26 12:28:51.00	21.40	1.72	-47.5	-60.3	3.5	1.52e+00	0	28	104	0	60	36300
2026-01-26 12:28:55.03	21.72	1.92	-47.5	-60.3	3.5	1.52e+00	0	28	104	0	60	36372
2026-01-26 12:28:59.07	22.04	2.13	-47.5	-60.4	3.5	1.52e+00	0	28	104	0	60	36576
2026-01-26 12:29:03.11	22.37	2.34	-47.4	-59.4	3.5	1.51e+00	0	28	104	0	60	32811
2026-01-26 12:29:07.15	22.70	2.55	-45.5	-49.7	9.4	4.53e-02	0	28	0	1048576	60	10777
2026-01-26 12:29:11.19	23.03	2.76	-41.1	-42.8	17.0	0.00e+00	0	28	0	13631488	54	6860
2026-01-26 12:29:15.23	23.38	2.97	-44.3	-47.3	11.7	7.93e-05	0	29	0	26214400	60	8177
2026-01-26 12:29:19.26	23.72	3.19	-43.8	-46.9	13.8	7.85e-05	0	28	104	33554432	60	7748
2026-01-26 12:29:23.29	24.07	3.40	-41.6	-43.3	16.6	0.00e+00	0	29	0	38797312	56	6459
2026-01-26 12:29:27.32	24.42	3.61	-40.3	-41.8	18.1	0.00e+00	0	29	0	51380224	54	6065
2026-01-26 12:29:31.36	24.78	3.83	-40.7	-42.2	17.6	0.00e+00	0	29	0	65011712	54	6384
2026-01-26 12:29:35.39	25.15	4.04	-38.6	-39.9	19.9	0.00e+00	0	29	0	76546048	50	6145
2026-01-26 12:29:39.43	25.52	4.26	-38.8	-40.0	19.9	0.00e+00	0	29	0	90177536	50	6245
2026-01-26 12:29:43.46	25.89	4.48	-38.9	-40.2	19.8	0.00e+00	0	29	0	102760448	50	6356
2026-01-26 12:29:47.50	26.27	4.70	-38.4	-39.6	20.3	0.00e+00	0	29	0	114294784	50	5981
2026-01-26 12:29:51.53	26.66	4.91	-38.3	-39.4	20.5	0.00e+00	0	29	0	127926272	50	5832
2026-01-26 12:29:55.57	27.05	5.13	-38.5	-39.7	20.2	0.00e+00	0	29	0	140509184	50	6048
2026-01-26 12:29:59.61	27.45	5.35	-37.9	-39.1	20.8	0.00e+00	0	29	0	153092096	50	5619
2026-01-26 12:30:03.64	27.85	5.58	-38.2	-39.4	20.6	0.00e+00	0	29	0	165675008	50	5825
2026-01-26 12:30:07.68	28.26	5.80	-38.3	-39.5	20.5	0.00e+00	0	29	0	178257920	50	5897
2026-01-26 12:30:11.72	28.67	6.02	-37.9	-39.0	21.0	0.00e+00	0	29	0	190840832	50	5581
2026-01-26 12:30:15.75	29.09	6.24	-37.7	-38.8	21.2	0.00e+00	0	29	0	203423744	48	6081
2026-01-26 12:30:19.79	29.52	6.47	-37.9	-39.1	21.0	0.00e+00	0	29	0	216006656	48	6281
2026-01-26 12:30:23.83	29.96	6.69	-37.7	-38.8	21.2	0.00e+00	0	29	0	228589568	48	6128
2026-01-26 12:30:27.87	30.40	6.92	-37.4	-38.5	21.5	0.00e+00	0	29	0	241172480	48	5884
2026-01-26 12:30:31.90	30.84	7.14	-37.2	-38.3	21.8	0.00e+00	0	29	0	253755392	48	5747
2026-01-26 12:30:35.94	31.29	7.37	-36.9	-37.9	22.0	0.00e+00	0	29	0	266338304	48	5527
2026-01-26 12:30:39.98	31.75	7.60	-37.1	-38.2	21.9	0.00e+00	0	29	0	278921216	48	5693
2026-01-26 12:30:44.02	32.22	7.82	-37.1	-38.1	21.9	0.00e+00	0	29	0	291504128	48	5649
2026-01-26 12:30:48.06	32.69	8.05	-37.1	-38.2	21.8	0.00e+00	0	29	0	304087040	48	5683
2026-01-26 12:30:52.09	33.17	8.28	-36.9	-37.9	22.1	0.00e+00	0	29	0	316669952	48	5527
2026-01-26 12:30:56.13	33.66	8.51	-36.7	-37.7	22.4	0.00e+00	0	29	0	329252864	46	6026
2026-01-26 12:31:00.17	34.16	8.74	-36.9	-38.0	22.0	0.00e+00	0	29	0	341835776	46	6215
2026-01-26 12:31:04.20	34.66	8.97	-36.6	-37.7	22.3	0.00e+00	0	29	0	354418688	46	6001
2026-01-26 12:31:08.24	35.17	9.20	-36.5	-37.5	22.6	0.00e+00	0	29	0	367001600	46	5893
2026-01-26 12:31:12.28	35.69	9.42	-36.3	-37.3	22.7	0.00e+00	0	29	0	379584512	46	5765
2026-01-26 12:31:16.31	36.21	9.65	-36.1	-37.1	22.9	0.00e+00	0	29	0	392167424	46	5620
2026-01-26 12:31:20.36	36.75	9.88	-36.6	-37.5	22.6	0.00e+00	0	29	0	404750336	46	5926
2026-01-26 12:31:24.39	37.29	10.11	-36.3	-37.2	22.8	0.00e+00	0	29	0	417333248	46	5715
2026-01-26 12:31:28.42	37.84	10.34	-36.2	-37.2	22.9	0.00e+00	0	29	0	429916160	46	5663
2026-01-26 12:31:32.46	38.40	10.57	-36.2	-37.2	22.9	0.00e+00	0	29	0	442499072	46	5707
2026-01-26 12:31:36.50	38.97	10.80	-36.1	-37.0	22.9	0.00e+00	0	29	0	455081984	46	5589
2026-01-26 12:31:40.53	39.54	11.03	-36.0	-37.0	23.1	0.00e+00	0	29	0	467664896	46	5537
2026-01-26 12:31:44.57	40.13	11.26	-35.8	-36.8	23.2	0.00e+00	0	29	0	480247808	46	5437
2026-01-26 12:31:48.61	40.72	11.49	-35.8	-36.8	23.2	0.00e+00	0	29	0	493879296	44	6085
2026-01-26 12:31:52.64	41.33	11.71	-35.7	-36.7	23.3	0.00e+00	0	29	0	505413632	44	6011
2026-01-26 12:31:56.68	41.94	11.94	-36.0	-37.0	23.1	0.00e+00	0	29	0	519045120	44	6206
2026-01-26 12:32:00.71	42.56	12.16	-35.6	-36.5	23.4	0.00e+00	0	29	0	531628032	44	5917
2026-01-26 12:32:04.75	43.19	12.39	-35.7	-36.6	23.5	0.00e+00	0	29	0	544210944	44	5964
2026-01-26 12:32:08.79	43.83	12.61	-35.6	-36.5	23.5	0.00e+00	0	29	0	556793856	44	5919
2026-01-26 12:32:12.83	44.48	12.84	-35.4	-36.3	23.7	0.00e+00	0	29	0	569376768	44	5765
2026-01-26 12:32:16.87	45.14	13.06	-35.4	-36.3	23.6	0.00e+00	0	29	0	581959680	44	5791
2026-01-26 12:32:20.90	45.80	13.28	-35.5	-36.5	23.6	0.00e+00	0	29	0	594542592	44	5876
2026-01-26 12:32:24.94	46.48	13.49	-35.5	-36.4	23.6	0.00e+00	0	29	0	607125504	44	5853
2026-01-26 12:32:28.98	47.17	13.71	-35.7	-36.7	23.4	0.00e+00	0	29	0	619708416	44	6036
2026-01-26 12:32:33.01	47.87	13.92	-35.6	-36.5	23.6	0.00e+00	0	29	0	632291328	44	5918
2026-01-26 12:32:37.05	48.57	14.14	-35.5	-36.4	23.6	0.00e+00	0	29	0	644874240	44	5833
2026-01-26 12:32:41.09	49.29	14.35	-36.2	-37.2	23.0	0.00e+00	0	29	0	657457152	44	6382
2026-01-26 12:32:45.13	50.02	14.56	-36.0	-37.0	23.2	0.00e+00	0	29	0	670040064	44	6223
2026-01-26 12:32:49.16	50.76	14.76	-35.4	-36.3	23.7	0.00e+00	0	29	0	682622976	44	5754
2026-01-26 12:32:53.20	51.50	14.96	-35.4	-36.4	23.6	0.00e+00	0	29	0	695205888	44	5804
2026-01-26 12:32:57.24	52.26	15.16	-35.9	-36.8	23.3	0.00e+00	0	29	0	707788800	44	6110
2026-01-26 12:33:01.27	53.03	15.36	-35.5	-36.4	23.7	0.00e+00	0	29	0	720371712	44	5819
2026-01-26 12:33:05.31	53.80	15.55	-35.1	-36.0	24.0	0.00e+00	0	29	0	732954624	44	5568
2026-01-26 12:33:09.35	54.59	15.74	-35.3	-36.3	23.6	0.00e+00	0	29	0	745537536	44	5741
2026-01-26 12:33:13.38	55.38	15.93	-35.3	-36.3	23.6	0.00e+00	0	29	0	758120448	44	5744
2026-01-26 12:33:17.42	56.19	16.11	-35.2	-36.1	23.9	0.00e+00	0	29	0	770703360	44	5632
2026-01-26 12:33:21.45	57.00	16.29	-35.2	-36.2	23.9	0.00e+00	0	29	0	783286272	44	5669
2026-01-26 12:33:25.49	57.83	16.46	-35.2	-36.2	23.7	0.00e+00	0	29	0	795869184	44	5689
2026-01-26 12:33:29.53	58.66	16.63	-34.8	-35.7	24.1	0.00e+00	0	29	0	808452096	44	5384
2026-01-26 12:33:33.56	59.51	16.80	-34.8	-35.7	24.1	0.00e+00	0	29	0	821035008	42	6001
2026-01-26 12:33:37.60	60.36	16.96	-34.9	-35.8	24.1	0.00e+00	0	29	0	833617920	42	6120
2026-01-26 12:33:41.64	61.22	17.12	-34.8	-35.7	24.1	0.00e+00	0	29	0	846200832	42	6052
2026-01-26 12:33:45.68	62.09	17.27	-34.6	-35.5	24.3	0.00e+00	0	29	0	858783744	42	5904
2026-01-26 12:33:49.71	62.97	17.41	-34.5	-35.4	24.4	0.00e+00	0	29	0	871366656	42	5805
2026-01-26 12:33:53.75	63.85	17.55	-34.6	-35.5	24.4	0.00e+00	0	29	0	883949568	42	5900
2026-01-26 12:33:57.79	64.75	17.68	-34.6	-35.5	24.4	0.00e+00	0	29	0	896532480	42	5885
2026-01-26 12:34:01.83	65.65	17.81	-34.4	-35.3	24.4	0.00e+00	0	29	0	909115392	42	5775
2026-01-26 12:34:05.87	66.56	17.93	-34.5	-35.4	24.4	0.00e+00	0	29	0	922746880	42	5858
2026-01-26 12:34:09.91	67.48	18.04	-34.3	-35.2	24.6	0.00e+00	0	29	0	935329792	42	5700
2026-01-26 12:34:13.94	68.40	18.15	-34.4	-35.3	24.5	0.00e+00	0	30	0	947912704	42	5782
2026-01-26 12:34:17.98	69.33	18.25	-34.3	-35.2	24.6	0.00e+00	0	29	0	960495616	42	5712
2026-01-26 12:34:22.02	70.26	18.35	-34.6	-35.5	24.3	0.00e+00	0	29	0	973078528	42	5867
2026-01-26 12:34:26.06	71.20	18.43	-34.7	-35.6	24.3	0.00e+00	0	29	0	985661440	42	5979
2026-01-26 12:34:30.10	72.15	18.51	-34.8	-35.7	24.2	0.00e+00	0	29	0	998244352	42	6023
2026-01-26 12:34:34.14	73.10	18.59	-34.9	-35.8	24.2	0.00e+00	0	29	0	1010827264	42	6112
2026-01-26 12:34:38.17	74.05	18.65	-34.6	-35.5	24.5	0.00e+00	0	30	0	1023410176	42	5886
2026-01-26 12:34:42.21	75.01	18.71	-34.7	-35.6	24.3	0.00e+00	0	30	0	1035993088	42	5968
2026-01-26 12:34:46.24	75.97	18.76	-34.8	-35.8	24.3	0.00e+00	0	30	0	1048576000	42	6066
2026-01-26 12:34:50.28	76.94	18.80	-34.9	-35.8	24.2	0.00e+00	0	30	0	1061158912	42	6100
2026-01-26 12:34:54.32	77.90	18.83	-35.0	-35.9	24.2	0.00e+00	0	30	0	1073741824	42	6159
2026-01-26 12:34:58.35	78.87	18.86	-34.6	-35.5	24.5	0.00e+00	0	29	0	1086324736	42	5887
2026-01-26 12:35:02.39	79.84	18.88	-34.6	-35.5	24.4	0.00e+00	0	29	0	1098907648	42	5893
2026-01-26 12:35:06.42	80.81	18.89	-34.6	-35.5	24.4	0.00e+00	0	29	0	1111490560	42	5902
2026-01-26 12:35:10.46	81.78	18.89	-34.7	-35.7	24.3	0.00e+00	0	30	0	1124073472	42	6025
2026-01-26 12:35:14.50	82.76	18.89	-34.7	-35.7	24.3	0.00e+00	0	30	0	1136656384	42	5998
2026-01-26 12:35:18.53	83.73	18.87	-35.0	-35.9	24.1	0.00e+00	0	30	0	1149239296	42	6174
2026-01-26 12:35:22.57	84.70	18.85	-34.7	-35.6	24.3	0.00e+00	0	30	0	1161822208	42	5982
2026-01-26 12:35:26.61	85.67	18.82	-34.8	-35.7	24.2	0.00e+00	0	30	0	1174405120	42	6018
2026-01-26 12:35:30.65	86.64	18.78	-34.5	-35.4	24.5	0.00e+00	0	30	0	1186988032	42	5796
2026-01-26 12:35:34.68	87.60	18.74	-34.9	-35.9	24.2	0.00e+00	0	29	0	1199570944	42	6143
2026-01-26 12:35:38.71	88.56	18.68	-34.5	-35.3	24.5	0.00e+00	0	29	0	1212153856	42	5784
2026-01-26 12:35:42.74	89.51	18.62	-34.5	-35.4	24.4	0.00e+00	0	30	0	1224736768	42	5794
2026-01-26 12:35:46.78	90.47	18.55	-34.3	-35.1	24.6	0.00e+00	0	29	0	1237319680	42	5651
2026-01-26 12:35:50.81	91.42	18.48	-34.3	-35.2	24.5	0.00e+00	0	30	0	1249902592	42	5674
2026-01-26 12:35:54.85	92.36	18.39	-34.4	-35.3	24.5	0.00e+00	0	30	0	1262485504	42	5747
2026-01-26 12:35:58.88	93.30	18.30	-34.5	-35.4	24.4	0.00e+00	0	30	0	1275068416	42	5820
2026-01-26 12:36:02.91	94.23	18.21	-34.5	-35.3	24.4	0.00e+00	0	29	0	1287651328	42	5787
2026-01-26 12:36:06.95	95.16	18.10	-34.6	-35.5	24.5	0.00e+00	0	29	0	1300234240	42	5860
2026-01-26 12:36:10.99	96.08	17.99	-34.4	-35.3	24.6	0.00e+00	0	30	0	1312817152	42	5739
2026-01-26 12:36:15.02	97.00	17.87	-34.2	-35.1	24.7	0.00e+00	0	30	0	1325400064	42	5644
2026-01-26 12:36:19.06	97.91	17.75	-34.4	-35.3	24.5	0.00e+00	0	30	0	1339031552	42	5762
2026-01-26 12:36:23.10	98.81	17.62	-34.7	-35.6	24.3	0.00e+00	0	30	0	1350565888	42	5987
2026-01-26 12:36:27.14	99.70	17.48	-34.4	-35.2	24.6	0.00e+00	0	29	0	1364197376	42	5723
2026-01-26 12:36:31.17	100.59	17.34	-34.7	-35.6	24.3	0.00e+00	0	30	0	1376780288	42	5930
2026-01-26 12:36:35.21	101.46	17.19	-34.7	-35.6	24.3	0.00e+00	0	30	0	1389363200	42	5988
2026-01-26 12:36:39.25	102.33	17.04	-34.5	-35.4	24.5	0.00e+00	0	30	0	1401946112	42	5822
2026-01-26 12:36:43.29	103.19	16.88	-34.7	-35.6	24.3	0.00e+00	0	30	0	1414529024	42	5992
2026-01-26 12:36:47.33	104.04	16.72	-35.0	-36.0	23.9	0.00e+00	0	30	0	1427111936	42	6207
2026-01-26 12:36:51.36	104.89	16.55	-34.9	-35.9	24.1	0.00e+00	0	30	0	1439694848	42	6137
2026-01-26 12:36:55.35	105.71	16.38	-34.9	-35.8	24.2	0.00e+00	0	30	0	1452277760	42	6107
2026-01-26 12:36:59.38	106.53	16.20	-35.3	-36.3	23.8	0.00e+00	0	30	0	1464860672	42	6460
2026-01-26 12:37:03.42	107.35	16.02	-35.1	-36.1	24.0	0.00e+00	0	30	0	1477443584	42	6286
2026-01-26 12:37:07.46	108.15	15.83	-34.9	-35.9	24.1	0.00e+00	0	30	0	1490026496	42	6162
2026-01-26 12:37:11.50	108.95	15.64	-35.3	-36.2	23.8	0.00e+00	0	30	0	1502609408	42	6389
2026-01-26 12:37:15.53	109.73	15.45	-35.4	-36.4	23.6	0.00e+00	0	30	0	1515192320	42	6522
2026-01-26 12:37:19.57	110.51	15.25	-35.4	-36.3	23.7	0.00e+00	0	30	0	1527775232	42	6452
2026-01-26 12:37:23.60	111.27	15.05	-34.9	-35.8	24.2	0.00e+00	0	30	0	1540358144	42	6082
2026-01-26 12:37:27.64	112.03	14.85	-35.2	-36.1	23.9	0.00e+00	0	30	0	1552941056	42	6330
2026-01-26 12:37:31.67	112.77	14.65	-35.4	-36.4	23.6	0.00e+00	0	30	0	1565523968	42	6515
2026-01-26 12:37:35.71	113.51	14.44	-35.3	-36.2	23.6	0.00e+00	0	30	0	1578106880	42	6410
2026-01-26 12:37:39.75	114.23	14.23	-35.2	-36.1	23.9	0.00e+00	0	30	0	1590689792	42	6339
2026-01-26 12:37:43.79	114.95	14.01	-35.2	-36.2	23.8	0.00e+00	0	30	0	1603272704	42	6389
2026-01-26 12:37:47.82	115.65	13.80	-35.4	-36.3	23.7	0.00e+00	0	30	0	1615855616	42	6497
2026-01-26 12:37:51.86	116.35	13.58	-35.1	-36.1	23.7	0.00e+00	0	30	0	1628438528	42	6346
2026-01-26 12:37:55.89	117.03	13.36	-35.2	-36.2	23.9	0.00e+00	0	30	0	1641021440	42	6373
2026-01-26 12:37:59.93	117.71	13.14	-35.5	-36.4	23.6	0.00e+00	0	30	0	1653604352	42	6553
2026-01-26 12:38:03.97	118.38	12.92	-35.5	-36.4	23.6	0.00e+00	0	30	0	1666187264	44	5830
2026-01-26 12:38:08.02	119.04	12.70	-35.3	-36.2	23.6	0.00e+00	0	30	0	1678770176	44	5709
2026-01-26 12:38:12.05	119.68	12.47	-35.1	-36.1	23.8	0.00e+00	0	30	0	1691353088	44	5615
2026-01-26 12:38:16.09	120.32	12.24	-35.0	-36.0	23.9	0.00e+00	0	30	0	1703936000	44	5532
2026-01-26 12:38:20.13	120.95	12.02	-35.1	-36.0	23.9	0.00e+00	0	30	0	1716518912	44	5578
2026-01-26 12:38:24.17	121.57	11.79	-35.2	-36.1	23.9	0.00e+00	0	30	0	1730150400	44	5652
2026-01-26 12:38:28.21	122.18	11.56	-35.4	-36.3	23.5	0.00e+00	0	30	0	1742733312	44	5782
2026-01-26 12:38:32.24	122.78	11.33	-35.7	-36.7	23.3	0.00e+00	0	30	0	1755316224	44	5998
2026-01-26 12:38:36.28	123.37	11.10	-35.7	-36.7	23.3	0.00e+00	0	30	0	1767899136	44	6006
2026-01-26 12:38:40.32	123.96	10.87	-35.9	-36.9	23.0	0.00e+00	0	30	0	1780482048	44	6167
2026-01-26 12:38:44.36	124.53	10.64	-36.0	-37.0	22.8	0.00e+00	0	30	0	1793064960	44	6269
2026-01-26 12:38:48.40	125.10	10.41	-36.2	-37.2	22.8	0.00e+00	0	30	0	1805647872	44	6377
2026-01-26 12:38:52.43	125.65	10.18	-36.0	-36.9	23.1	0.00e+00	0	30	0	1818230784	44	6177
2026-01-26 12:38:56.47	126.20	9.94	-36.2	-37.2	22.7	0.00e+00	0	30	0	1830813696	44	6414
2026-01-26 12:39:00.51	126.74	9.71	-36.1	-37.1	22.8	0.00e+00	0	30	0	1843396608	44	6289
2026-01-26 12:39:04.55	127.27	9.48	-36.4	-37.4	22.5	0.00e+00	0	30	0	1855979520	44	6571
2026-01-26 12:39:08.59	127.80	9.25	-36.4	-37.4	22.6	0.00e+00	0	30	0	1868562432	44	6546
2026-01-26 12:39:12.63	128.31	9.02	-36.2	-37.2	22.7	0.00e+00	0	30	0	1881145344	44	6382
2026-01-26 12:39:16.67	128.82	8.78	-36.3	-37.2	22.5	0.00e+00	0	30	0	1893728256	44	6422
2026-01-26 12:39:20.70	129.32	8.55	-36.6	-37.6	22.3	0.00e+00	0	30	0	1906311168	44	6690
2026-01-26 12:39:24.74	129.81	8.32	-36.6	-37.6	22.3	0.00e+00	0	30	0	1918894080	46	5991
2026-01-26 12:39:28.77	130.30	8.09	-36.7	-37.7	22.3	0.00e+00	0	30	0	1931476992	46	6050
2026-01-26 12:39:32.81	130.78	7.86	-36.7	-37.7	22.3	0.00e+00	0	30	0	1944059904	46	6062
2026-01-26 12:39:36.85	131.25	7.63	-37.0	-38.1	21.8	0.00e+00	0	30	0	1956642816	46	6318
2026-01-26 12:39:40.88	131.71	7.40	-37.0	-38.1	21.9	0.00e+00	0	30	0	1969225728	46	6324
2026-01-26 12:39:44.92	132.17	7.17	-37.3	-38.5	21.5	0.00e+00	0	30	0	1981808640	46	6584
2026-01-26 12:39:48.96	132.62	6.95	-37.3	-38.3	21.7	0.00e+00	0	30	0	1994391552	46	6497
2026-01-26 12:39:52.99	133.06	6.72	-37.0	-38.0	22.0	0.00e+00	0	30	0	2006974464	46	6254
2026-01-26 12:39:57.03	133.50	6.49	-37.3	-38.3	21.6	0.00e+00	0	30	0	2019557376	46	6486
2026-01-26 12:40:01.07	133.93	6.26	-37.6	-38.7	21.3	0.00e+00	0	30	0	2032140288	46	6756
2026-01-26 12:40:05.11	134.35	6.04	-37.2	-38.3	21.6	0.00e+00	0	30	0	2044723200	46	6476
2026-01-26 12:40:09.15	134.77	5.81	-37.5	-38.6	21.2	0.00e+00	0	30	0	2057306112	46	6711
2026-01-26 12:40:13.18	135.18	5.59	-37.9	-39.0	21.0	0.00e+00	0	30	0	2069889024	48	6265
2026-01-26 12:40:17.22	135.59	5.37	-37.4	-38.5	21.3	0.00e+00	0	30	0	2082471936	48	5891
2026-01-26 12:40:21.26	135.99	5.14	-37.4	-38.5	21.3	0.00e+00	0	30	0	2096103424	48	5883
2026-01-26 12:40:25.30	136.38	4.92	-37.5	-38.6	21.2	0.00e+00	0	30	0	2108686336	48	5985
2026-01-26 12:40:29.34	136.77	4.70	-37.6	-38.7	21.1	0.00e+00	0	30	0	2121269248	48	6016
2026-01-26 12:40:33.38	137.15	4.48	-37.6	-38.7	21.0	0.00e+00	0	30	0	2133852160	48	6010
2026-01-26 12:40:37.41	137.53	4.26	-38.0	-39.1	20.5	0.00e+00	0	30	0	2146435072	48	6332
2026-01-26 12:40:41.45	137.90	4.04	-38.5	-39.8	19.9	0.00e+00	0	30	0	2159017984	48	6840
2026-01-26 12:40:45.49	138.27	3.82	-38.8	-40.1	19.5	0.00e+00	0	30	0	2171600896	50	6345
2026-01-26 12:40:49.53	138.63	3.60	-39.0	-40.4	18.9	0.00e+00	0	30	0	2184183808	50	6521
2026-01-26 12:40:53.56	138.99	3.39	-39.5	-41.1	18.2	0.00e+00	0	30	0	2196766720	52	6300
2026-01-26 12:40:57.60	139.34	3.17	-41.1	-43.2	15.5	0.00e+00	0	30	0	2209349632	54	7173
2026-01-26 12:41:01.64	139.69	2.96	-48.3	-61.1	3.5	1.51e+00	0	30	104	2217738240	60	39989
2026-01-26 12:41:05.68	140.03	2.74	-48.9	-61.8	3.5	1.52e+00	0	30	104	2217738240	60	43110
2026-01-26 12:41:09.72	140.36	2.53	-49.1	-62.0	3.5	1.52e+00	0	30	104	2217738240	60	44210
2026-01-26 12:41:13.76	140.70	2.32	-49.1	-62.0	3.5	1.52e+00	0	30	104	2217738240	60	44233
2026-01-26 12:41:17.80	141.03	2.10	-49.2	-62.0	3.5	1.52e+00	0	30	104	2217738240	60	44392
2026-01-26 12:41:21.84	141.35	1.89	-49.2	-62.1	3.5	1.52e+00	0	30	104	2217738240	60	44455
2026-01-26 12:41:25.87	141.67	1.68	-49.2	-62.1	3.5	1.52e+00	0	30	104	2217738240	60	44494
2026-01-26 12:41:29.91	141.98	1.47	-49.2	-62.1	3.6	1.52e+00	0	30	104	2217738240	60	44710
2026-01-26 12:41:33.95	142.29	1.27	-49.4	-62.2	3.5	1.52e+00	0	30	104	2217738240	60	45472
2026-01-26 12:41:37.99	142.60	1.06	-49.3	-62.1	3.5	1.51e+00	0	30	104	2217738240	60	44923
2026-01-26 12:41:42.03	142.90	0.85	-49.5	-62.3	3.5	1.52e+00	0	30	104	2217738240	60	45688
2026-01-26 12:41:46.07	143.20	0.65	-49.5	-62.4	3.5	1.52e+00	0	30	104	2217738240	60	46136
2026-01-26 12:41:50.10	143.50	0.44	-49.6	-62.4	3.5	1.52e+00	0	30	104	2217738240	60	46479
2026-01-26 12:41:54.14	143.79	0.24	-49.3	-62.2	3.5	1.52e+00	0	30	104	2217738240	60	45100
2026-01-26 12:41:58.19	144.08	0.03	-49.3	-62.2	3.5	1.52e+00	0	30	104	2217738240	60	45320

#Closed at: 2026-01-26 12:42:00
#Recorded file [2217 MB]: D:/lorett/data/35029_260127_002818.dat