passes_logs/2026/01/26/R4.6S_Anadyr/R4.6S_Anadyr__20260126_155830_AQUA_rec.log

#Pass ID: 20260126_155830_AQUA
#Satellite: AQUA
#Configuration: AQUA
#almurnet v.1.7.20251203
#Start time: 2026-01-26 15:58:33

#Version: 2.2.20231116
#Station: R4.6S_Anadyr
#Location: 177.4865 lon 64.73178 lat
#TLE: 1 27424U 02022A   26025.91340420  .00001969  00000+0  40368-3 0  9991
#TLE: 2 27424  98.4100 352.5253 0001880  65.2649  27.8322 14.61861165262482

#Time	Az	El	Level	Level2	SNR	BER	BlckErr	Temp	State	Recorded	gain1	gain2
2026-01-26 15:58:33.35	19.63	0.20	-50.1	-66.5	3.2	3.02e+01	0	27	0	0	60	81736
2026-01-26 15:58:37.38	19.71	0.45	-50.1	-67.9	3.5	3.02e+01	0	27	104	0	60	95664
2026-01-26 15:58:41.42	19.79	0.70	-50.1	-67.9	3.5	3.02e+01	0	27	104	0	60	95570
2026-01-26 15:58:45.46	19.88	0.95	-49.8	-67.7	3.5	3.02e+01	0	27	104	0	60	93585
2026-01-26 15:58:49.50	19.96	1.21	-49.3	-67.3	3.5	3.02e+01	0	27	104	0	60	89030
2026-01-26 15:58:53.55	20.05	1.47	-48.8	-66.1	3.5	3.02e+01	0	27	104	0	60	77559
2026-01-26 15:58:57.59	20.13	1.73	-48.7	-65.8	3.5	3.02e+01	0	27	104	0	60	74986
2026-01-26 15:59:01.63	20.22	1.99	-48.7	-66.1	3.5	3.02e+01	0	27	104	0	60	77771
2026-01-26 15:59:05.67	20.31	2.26	-48.7	-66.3	3.5	3.02e+01	0	27	104	0	60	79463
2026-01-26 15:59:09.71	20.40	2.52	-48.6	-63.2	4.1	3.02e+01	0	27	104	0	60	55546
2026-01-26 15:59:13.76	20.50	2.80	-48.5	-61.4	4.5	3.02e+01	0	27	104	0	60	45314
2026-01-26 15:59:17.80	20.59	3.07	-45.9	-49.8	13.1	3.02e+01	61	27	0	4718592	60	11877
2026-01-26 15:59:21.83	20.69	3.35	-41.1	-42.8	19.0	3.02e+01	58	27	0	12058624	58	5982
2026-01-26 15:59:25.87	20.78	3.63	-40.9	-42.7	19.1	3.02e+01	59	27	0	19922944	56	6595
2026-01-26 15:59:29.91	20.88	3.91	-42.9	-45.2	20.9	3.02e+01	60	27	0	27262976	58	7818
2026-01-26 15:59:33.95	20.98	4.19	-42.4	-44.8	21.2	3.02e+01	60	28	104	30408704	60	6704
2026-01-26 15:59:37.98	21.08	4.48	-42.5	-44.6	21.1	3.02e+01	54	28	0	37748736	58	7315
2026-01-26 15:59:42.02	21.19	4.78	-39.4	-41.0	24.9	3.02e+01	61	27	0	45088768	54	6071
2026-01-26 15:59:46.06	21.30	5.07	-39.1	-40.6	25.3	3.02e+01	59	28	0	52953088	52	6517
2026-01-26 15:59:50.10	21.40	5.37	-39.2	-40.7	25.3	3.02e+01	60	28	0	60293120	52	6610
2026-01-26 15:59:54.14	21.51	5.68	-38.3	-39.7	26.3	3.02e+01	59	28	0	68157440	52	5903
2026-01-26 15:59:58.17	21.63	5.99	-37.8	-39.2	26.9	3.02e+01	44	28	0	75497472	50	6244
2026-01-26 16:00:02.21	21.74	6.30	-37.8	-39.1	27.0	3.02e+01	60	28	0	83361792	50	6191
2026-01-26 16:00:06.25	21.86	6.61	-37.4	-38.7	27.5	3.02e+01	59	28	0	90701824	50	5887
2026-01-26 16:00:10.29	21.98	6.94	-37.6	-38.9	27.4	3.02e+01	58	28	0	98041856	50	6039
2026-01-26 16:00:14.32	22.10	7.26	-37.5	-38.8	27.5	3.02e+01	47	28	0	105906176	50	5959
2026-01-26 16:00:18.36	22.22	7.59	-37.4	-38.7	27.6	3.02e+01	61	28	0	113246208	50	5875
2026-01-26 16:00:22.40	22.35	7.92	-37.1	-38.4	27.8	3.02e+01	48	28	0	121110528	50	5666
2026-01-26 16:00:26.44	22.48	8.26	-37.0	-38.3	27.9	3.02e+01	61	28	0	128450560	48	6284
2026-01-26 16:00:30.48	22.61	8.61	-36.9	-38.1	27.7	3.02e+01	47	28	0	136314880	48	6198
2026-01-26 16:00:34.52	22.75	8.96	-36.9	-38.1	28.1	3.02e+01	62	28	0	143654912	48	6178
2026-01-26 16:00:38.56	22.89	9.31	-37.1	-38.4	28.0	3.02e+01	48	28	0	150994944	48	6394
2026-01-26 16:00:42.59	23.03	9.67	-36.9	-38.2	28.1	3.02e+01	60	28	0	158859264	48	6249
2026-01-26 16:00:46.63	23.18	10.04	-37.0	-38.2	28.2	3.02e+01	51	28	0	166199296	48	6258
2026-01-26 16:00:50.67	23.32	10.41	-36.9	-38.2	28.1	3.02e+01	59	28	0	174063616	48	6252
2026-01-26 16:00:54.71	23.48	10.79	-36.7	-38.0	28.3	3.02e+01	47	28	0	181403648	48	6111
2026-01-26 16:00:58.74	23.63	11.18	-36.6	-37.8	28.4	3.02e+01	60	28	0	189267968	48	5989
2026-01-26 16:01:02.78	23.79	11.57	-36.3	-37.5	28.8	3.02e+01	46	28	0	196608000	48	5790
2026-01-26 16:01:06.82	23.96	11.97	-36.2	-37.4	28.9	3.02e+01	60	28	0	204472320	48	5706
2026-01-26 16:01:10.85	24.13	12.37	-36.3	-37.6	28.9	3.02e+01	61	28	0	211812352	48	5796
2026-01-26 16:01:14.89	24.30	12.79	-36.5	-37.7	28.7	3.02e+01	59	28	0	219152384	48	5906
2026-01-26 16:01:18.93	24.48	13.21	-36.4	-37.6	28.9	3.02e+01	56	28	0	227016704	48	5830
2026-01-26 16:01:22.97	24.66	13.64	-36.3	-37.6	28.9	3.02e+01	60	28	0	234356736	48	5811
2026-01-26 16:01:27.00	24.85	14.07	-35.9	-37.2	29.3	3.02e+01	59	28	0	242221056	48	5538
2026-01-26 16:01:31.04	25.05	14.52	-36.3	-37.6	29.0	3.02e+01	59	28	0	249561088	46	6507
2026-01-26 16:01:35.08	25.25	14.98	-36.2	-37.4	29.1	3.02e+01	56	28	0	257425408	46	6372
2026-01-26 16:01:39.12	25.45	15.44	-36.1	-37.3	29.2	3.02e+01	57	28	0	264765440	46	6332
2026-01-26 16:01:43.15	25.66	15.91	-35.8	-36.9	29.5	3.02e+01	57	28	0	272105472	46	6061
2026-01-26 16:01:47.19	25.88	16.40	-35.6	-36.8	29.6	3.02e+01	57	28	0	279969792	46	5979
2026-01-26 16:01:51.23	26.11	16.89	-35.7	-36.9	29.6	3.02e+01	60	28	0	287309824	46	6047
2026-01-26 16:01:55.27	26.34	17.40	-36.2	-37.4	29.3	3.02e+01	59	28	0	295174144	46	6371
2026-01-26 16:01:59.30	26.59	17.92	-35.9	-37.1	29.4	3.02e+01	58	28	0	302514176	46	6189
2026-01-26 16:02:03.34	26.84	18.45	-36.0	-37.2	29.4	3.02e+01	59	28	0	310378496	46	6253
2026-01-26 16:02:07.38	27.10	18.99	-35.8	-37.0	29.6	3.02e+01	58	28	0	317718528	46	6085
2026-01-26 16:02:11.43	27.36	19.55	-36.1	-37.3	29.2	3.02e+01	51	28	0	325582848	46	6334
2026-01-26 16:02:15.46	27.64	20.11	-35.8	-37.0	29.5	3.02e+01	58	28	0	332922880	46	6128
2026-01-26 16:02:19.50	27.93	20.69	-35.8	-37.0	29.7	3.02e+01	44	28	0	340262912	46	6116
2026-01-26 16:02:23.54	28.23	21.29	-36.0	-37.2	29.4	3.02e+01	60	28	0	348127232	46	6270
2026-01-26 16:02:27.58	28.54	21.90	-36.1	-37.3	29.4	3.02e+01	49	28	0	355467264	46	6317
2026-01-26 16:02:31.62	28.87	22.53	-36.0	-37.2	29.4	3.02e+01	60	28	0	363331584	46	6261
2026-01-26 16:02:35.65	29.21	23.17	-36.2	-37.4	29.3	3.02e+01	59	28	0	370671616	46	6377
2026-01-26 16:02:39.69	29.56	23.83	-36.3	-37.5	29.3	3.02e+01	60	28	0	378535936	46	6446
2026-01-26 16:02:43.73	29.93	24.51	-36.1	-37.3	29.3	3.02e+01	58	28	0	385875968	46	6324
2026-01-26 16:02:47.76	30.31	25.21	-36.5	-37.7	28.8	3.02e+01	59	28	0	393740288	46	6637
2026-01-26 16:02:51.80	30.71	25.92	-36.1	-37.3	29.3	3.02e+01	52	28	0	401080320	46	6300
2026-01-26 16:02:55.84	31.13	26.66	-36.6	-37.8	28.9	3.02e+01	60	28	0	408420352	46	6691
2026-01-26 16:02:59.87	31.57	27.41	-35.9	-37.0	29.5	3.02e+01	46	28	0	416284672	46	6133
2026-01-26 16:03:03.92	32.03	28.19	-36.1	-37.3	29.4	3.02e+01	61	28	0	423624704	46	6331
2026-01-26 16:03:07.95	32.52	28.99	-36.0	-37.2	29.5	3.02e+01	45	28	0	431489024	46	6225
2026-01-26 16:03:11.99	33.03	29.82	-36.2	-37.4	29.2	3.02e+01	60	28	0	438829056	46	6421
2026-01-26 16:03:16.03	33.56	30.66	-36.1	-37.3	29.5	3.02e+01	46	28	0	446693376	46	6285
2026-01-26 16:03:20.07	34.13	31.54	-36.1	-37.3	29.4	3.02e+01	60	28	0	454033408	46	6348
2026-01-26 16:03:24.11	34.73	32.43	-36.2	-37.4	29.2	3.02e+01	54	28	0	461897728	46	6410
2026-01-26 16:03:28.14	35.36	33.36	-36.4	-37.6	29.0	3.02e+01	59	28	0	469237760	46	6551
2026-01-26 16:03:32.18	36.03	34.31	-36.6	-37.8	28.9	3.02e+01	59	28	0	476577792	46	6713
2026-01-26 16:03:36.22	36.74	35.29	-37.1	-38.3	28.6	3.02e+01	58	28	0	484442112	48	6340
2026-01-26 16:03:40.26	37.50	36.29	-37.7	-39.0	28.0	3.02e+01	55	28	0	491782144	48	6829
2026-01-26 16:03:44.30	38.30	37.33	-37.9	-39.2	27.9	3.02e+01	61	28	0	499646464	50	6236
2026-01-26 16:03:48.34	39.16	38.39	-37.9	-39.2	27.8	3.02e+01	58	28	0	506986496	50	6244
2026-01-26 16:03:52.37	40.07	39.48	-37.7	-39.0	28.0	3.02e+01	59	28	0	514850816	50	6126
2026-01-26 16:03:56.41	41.05	40.61	-37.4	-38.7	28.3	3.02e+01	59	28	0	522190848	50	5866
2026-01-26 16:04:00.44	42.10	41.75	-36.7	-37.9	28.9	3.02e+01	59	28	0	530055168	48	6049
2026-01-26 16:04:04.48	43.24	42.93	-36.0	-37.2	29.5	3.02e+01	60	28	0	537395200	48	5550
2026-01-26 16:04:08.52	44.46	44.14	-35.7	-36.9	29.8	3.02e+01	60	28	0	544735232	46	6041
2026-01-26 16:04:12.56	45.77	45.37	-35.6	-36.8	29.9	3.02e+01	58	28	0	552599552	46	5960
2026-01-26 16:04:16.59	47.19	46.62	-35.4	-36.5	30.2	3.02e+01	61	28	0	559939584	46	5783
2026-01-26 16:04:20.63	48.74	47.90	-35.3	-36.5	30.2	3.02e+01	60	28	0	567803904	46	5757
2026-01-26 16:04:24.67	50.41	49.19	-35.3	-36.4	30.3	3.02e+01	62	28	0	575143936	46	5702
2026-01-26 16:04:28.70	52.23	50.49	-35.6	-36.7	30.0	3.02e+01	57	28	0	583008256	46	5914
2026-01-26 16:04:32.74	54.23	51.80	-35.6	-36.8	29.8	3.02e+01	61	28	0	590348288	46	5970
2026-01-26 16:04:36.78	56.40	53.11	-35.6	-36.7	30.1	3.02e+01	59	28	0	598212608	46	5920
2026-01-26 16:04:40.81	58.77	54.40	-35.3	-36.5	30.3	3.02e+01	45	28	0	605552640	46	5738
2026-01-26 16:04:44.85	61.37	55.68	-36.0	-37.2	29.6	3.02e+01	60	28	0	612892672	46	6240
2026-01-26 16:04:48.88	64.21	56.93	-36.8	-38.1	28.9	3.02e+01	54	28	0	620756992	46	6894
2026-01-26 16:04:52.92	67.33	58.14	-37.4	-38.7	28.3	3.02e+01	58	28	0	628097024	48	6607
2026-01-26 16:04:56.95	70.72	59.28	-37.7	-39.0	28.1	3.02e+01	61	28	0	635961344	50	6081
2026-01-26 16:05:00.99	74.42	60.34	-38.5	-39.8	27.5	3.02e+01	60	28	0	643301376	50	6686
2026-01-26 16:05:05.03	78.43	61.31	-39.1	-40.4	26.8	3.02e+01	49	28	0	651165696	52	6415
2026-01-26 16:05:09.07	82.75	62.17	-39.2	-40.6	26.8	3.02e+01	60	28	0	658505728	52	6532
2026-01-26 16:05:13.10	87.34	62.88	-39.9	-41.4	25.8	3.02e+01	49	28	0	665845760	52	7141
2026-01-26 16:05:17.13	92.18	63.44	-39.6	-41.0	26.2	3.02e+01	58	28	0	673710080	54	6127
2026-01-26 16:05:21.17	97.24	63.83	-39.8	-41.2	26.1	3.02e+01	44	28	0	681050112	54	6256
2026-01-26 16:05:25.21	102.43	64.04	-39.3	-40.7	26.6	3.02e+01	57	28	0	688914432	52	6601
2026-01-26 16:05:29.25	107.67	64.06	-39.0	-40.4	26.9	3.02e+01	45	28	0	696254464	52	6369
2026-01-26 16:05:33.28	112.86	63.89	-39.0	-40.3	26.9	3.02e+01	61	28	0	704118784	52	6317
2026-01-26 16:05:37.32	117.95	63.53	-38.4	-39.7	27.5	3.02e+01	46	28	0	711458816	52	5866
2026-01-26 16:05:41.36	122.85	63.00	-38.2	-39.4	27.6	3.02e+01	54	28	0	718798848	52	5717
2026-01-26 16:05:45.40	127.51	62.31	-38.0	-39.3	27.8	3.02e+01	46	28	0	726663168	50	6315
2026-01-26 16:05:49.44	131.89	61.48	-37.6	-38.8	28.1	3.02e+01	57	28	0	734003200	50	5989
2026-01-26 16:05:53.47	135.95	60.54	-37.2	-38.5	28.5	3.02e+01	56	28	0	741867520	50	5739
2026-01-26 16:05:57.51	139.71	59.48	-37.7	-39.0	28.2	3.02e+01	58	28	0	749207552	50	6068
2026-01-26 16:06:01.54	143.17	58.35	-37.0	-38.3	28.6	3.02e+01	61	28	0	757071872	50	5619
2026-01-26 16:06:05.58	146.34	57.16	-36.5	-37.8	29.1	3.02e+01	58	28	0	764411904	48	5927
2026-01-26 16:06:09.62	149.24	55.91	-36.4	-37.6	29.4	3.02e+01	60	28	0	772276224	48	5854
2026-01-26 16:06:13.66	151.89	54.63	-35.8	-37.1	29.7	3.02e+01	59	28	0	779616256	46	6139
2026-01-26 16:06:17.70	154.32	53.33	-35.3	-36.5	30.3	3.02e+01	55	28	0	786956288	46	5726
2026-01-26 16:06:21.73	156.52	52.02	-36.0	-37.2	29.5	3.02e+01	55	28	0	794820608	46	6227
2026-01-26 16:06:25.77	158.55	50.71	-36.6	-37.8	29.1	3.02e+01	59	28	0	802160640	46	6704
2026-01-26 16:06:29.81	160.41	49.40	-36.3	-37.5	29.4	3.02e+01	55	28	0	810024960	46	6450
2026-01-26 16:06:33.84	162.11	48.10	-36.6	-37.8	29.1	3.02e+01	63	28	0	817364992	48	5975
2026-01-26 16:06:37.88	163.68	46.82	-36.9	-38.1	28.9	3.02e+01	63	28	0	825229312	48	6166
2026-01-26 16:06:41.92	165.13	45.56	-36.8	-38.0	29.1	3.02e+01	58	28	0	832569344	48	6099
2026-01-26 16:06:45.96	166.46	44.32	-36.3	-37.5	29.4	3.02e+01	60	28	0	840433664	48	5778
2026-01-26 16:06:50.00	167.70	43.10	-36.4	-37.6	29.2	3.02e+01	58	28	0	847773696	48	5848
2026-01-26 16:06:54.04	168.85	41.91	-36.7	-37.9	29.0	3.02e+01	56	28	0	855113728	48	6042
2026-01-26 16:06:58.08	169.92	40.75	-36.9	-38.1	28.8	3.02e+01	59	28	0	862978048	48	6200
2026-01-26 16:07:02.11	170.91	39.62	-36.9	-38.1	28.9	3.02e+01	57	28	0	870318080	48	6175
2026-01-26 16:07:06.15	171.84	38.52	-37.4	-38.7	28.4	3.02e+01	58	28	0	878182400	48	6591
2026-01-26 16:07:10.19	172.71	37.45	-36.6	-37.8	29.1	3.02e+01	44	28	0	885522432	48	5983
2026-01-26 16:07:14.23	173.52	36.40	-36.4	-37.6	29.3	3.02e+01	58	28	0	893386752	48	5838
2026-01-26 16:07:18.27	174.28	35.38	-36.6	-37.8	29.2	3.02e+01	58	28	0	900726784	48	5950
2026-01-26 16:07:22.30	175.00	34.40	-35.4	-36.6	30.3	3.02e+01	59	28	0	908066816	46	5829
2026-01-26 16:07:26.33	175.68	33.44	-35.6	-36.8	30.0	3.02e+01	58	28	0	915931136	46	5971
2026-01-26 16:07:30.37	176.32	32.51	-34.9	-36.1	30.5	3.02e+01	58	28	0	923271168	46	5490
2026-01-26 16:07:34.40	176.92	31.61	-34.9	-36.1	30.3	3.02e+01	45	28	0	931135488	44	6177
2026-01-26 16:07:38.44	177.49	30.73	-34.7	-35.9	30.6	3.02e+01	61	28	0	938475520	44	6005
2026-01-26 16:07:42.48	178.03	29.87	-35.1	-36.2	30.4	3.02e+01	44	28	0	946339840	44	6270
2026-01-26 16:07:46.52	178.54	29.04	-35.3	-36.5	30.0	3.02e+01	59	28	0	953679872	44	6446
2026-01-26 16:07:50.56	179.03	28.23	-35.4	-36.6	29.9	3.02e+01	48	28	0	961544192	44	6528
2026-01-26 16:07:54.59	179.50	27.45	-35.3	-36.5	30.1	3.02e+01	57	28	0	968884224	44	6436
2026-01-26 16:07:58.63	179.94	26.69	-35.6	-36.8	29.8	3.02e+01	48	28	0	976224256	44	6682
2026-01-26 16:08:02.67	180.36	25.94	-35.9	-37.1	29.6	3.02e+01	59	28	0	984088576	44	6884
2026-01-26 16:08:06.70	180.77	25.22	-36.1	-37.3	29.3	3.02e+01	45	28	0	991428608	46	6306
2026-01-26 16:08:10.74	181.15	24.52	-36.1	-37.3	29.3	3.02e+01	58	28	0	999292928	46	6333
2026-01-26 16:08:14.77	181.52	23.84	-36.6	-37.9	29.0	3.02e+01	47	28	0	1006632960	46	6739
2026-01-26 16:08:18.81	181.87	23.17	-36.5	-37.7	28.9	3.02e+01	59	28	0	1014497280	46	6649
2026-01-26 16:08:22.85	182.21	22.52	-36.0	-37.1	29.5	3.02e+01	59	28	0	1021837312	46	6200
2026-01-26 16:08:26.89	182.54	21.89	-35.9	-37.0	29.6	3.02e+01	59	28	0	1029177344	46	6126
2026-01-26 16:08:30.92	182.85	21.28	-36.0	-37.2	29.6	3.02e+01	61	28	0	1037041664	46	6253
2026-01-26 16:08:34.96	183.15	20.68	-36.0	-37.2	29.5	3.02e+01	61	28	0	1044381696	46	6256
2026-01-26 16:08:38.99	183.44	20.09	-36.0	-37.2	29.4	3.02e+01	60	28	0	1052246016	46	6249
2026-01-26 16:08:43.03	183.72	19.52	-36.0	-37.2	29.5	3.02e+01	50	28	0	1059586048	46	6238
2026-01-26 16:08:47.07	183.99	18.96	-36.0	-37.2	29.5	3.02e+01	55	28	0	1067450368	46	6221
2026-01-26 16:08:51.10	184.25	18.41	-35.7	-36.9	29.7	3.02e+01	57	28	0	1074790400	46	6018
2026-01-26 16:08:55.14	184.50	17.88	-35.5	-36.7	29.8	3.02e+01	60	28	0	1082130432	46	5900
2026-01-26 16:08:59.18	184.74	17.36	-35.8	-37.0	29.5	3.02e+01	59	28	0	1089994752	46	6116
2026-01-26 16:09:03.21	184.97	16.85	-35.7	-36.9	29.6	3.02e+01	61	28	0	1097334784	46	6042
2026-01-26 16:09:07.25	185.20	16.35	-35.7	-36.9	29.6	3.02e+01	58	28	0	1105199104	46	6033
2026-01-26 16:09:11.29	185.41	15.86	-35.8	-37.0	29.5	3.02e+01	61	28	0	1112539136	46	6104
2026-01-26 16:09:15.33	185.63	15.39	-35.8	-37.0	29.6	3.02e+01	61	28	0	1120403456	46	6101
2026-01-26 16:09:19.36	185.83	14.92	-35.8	-37.0	29.5	3.02e+01	61	28	0	1127743488	46	6118
2026-01-26 16:09:23.41	186.03	14.46	-35.8	-37.0	29.4	3.02e+01	61	28	0	1135083520	46	6131
2026-01-26 16:09:27.44	186.22	14.01	-35.9	-37.1	29.5	3.02e+01	58	28	0	1142947840	46	6169
2026-01-26 16:09:31.48	186.41	13.57	-35.9	-37.1	29.3	3.02e+01	45	28	0	1150287872	46	6191
2026-01-26 16:09:35.52	186.59	13.14	-35.8	-37.0	29.4	3.02e+01	60	28	0	1158152192	46	6100
2026-01-26 16:09:39.56	186.77	12.71	-36.0	-37.2	29.3	3.02e+01	49	28	0	1165492224	46	6237
2026-01-26 16:09:43.59	186.94	12.30	-36.1	-37.3	29.2	3.02e+01	59	28	0	1173356544	46	6350
2026-01-26 16:09:47.63	187.11	11.89	-36.2	-37.5	29.0	3.02e+01	52	28	0	1180696576	46	6433
2026-01-26 16:09:51.67	187.27	11.49	-36.3	-37.6	28.9	3.02e+01	59	28	0	1188560896	46	6504
2026-01-26 16:09:55.71	187.43	11.09	-36.2	-37.4	29.0	3.02e+01	46	28	0	1195900928	46	6405
2026-01-26 16:09:59.75	187.59	10.71	-36.3	-37.6	28.9	3.02e+01	61	28	0	1203240960	46	6507
2026-01-26 16:10:03.78	187.74	10.33	-36.5	-37.8	28.7	3.02e+01	55	28	0	1211105280	46	6674
2026-01-26 16:10:07.82	187.88	9.95	-36.5	-37.7	28.6	3.02e+01	60	28	0	1218445312	46	6639
2026-01-26 16:10:11.86	188.03	9.58	-36.3	-37.6	28.8	3.02e+01	52	28	0	1226309632	46	6502
2026-01-26 16:10:15.90	188.17	9.22	-36.6	-37.9	28.6	3.02e+01	64	28	0	1233649664	46	6744
2026-01-26 16:10:19.94	188.30	8.86	-36.7	-38.0	28.5	3.02e+01	51	28	0	1241513984	46	6811
2026-01-26 16:10:23.97	188.44	8.51	-36.9	-38.2	28.2	3.02e+01	58	28	0	1248854016	48	6261
2026-01-26 16:10:28.00	188.57	8.17	-37.0	-38.3	28.1	3.02e+01	51	28	0	1256194048	48	6322
2026-01-26 16:10:32.04	188.69	7.83	-37.2	-38.5	28.0	3.02e+01	59	28	0	1264058368	48	6464
2026-01-26 16:10:36.08	188.82	7.49	-37.2	-38.6	27.9	3.02e+01	45	28	0	1271398400	48	6501
2026-01-26 16:10:40.12	188.94	7.16	-37.5	-38.8	27.6	3.02e+01	59	28	0	1279262720	48	6680
2026-01-26 16:10:44.15	189.06	6.83	-37.1	-38.4	28.0	3.02e+01	53	28	0	1286602752	48	6423
2026-01-26 16:10:48.19	189.18	6.51	-37.3	-38.6	27.7	3.02e+01	58	28	0	1294467072	48	6535
2026-01-26 16:10:52.23	189.29	6.19	-37.6	-38.9	27.5	3.02e+01	62	28	0	1301807104	48	6787
2026-01-26 16:10:56.26	189.40	5.88	-38.1	-39.4	26.9	3.02e+01	59	28	0	1309671424	50	6420
2026-01-26 16:11:00.30	189.51	5.57	-37.4	-38.7	27.6	3.02e+01	59	28	0	1317011456	50	5904
2026-01-26 16:11:04.34	189.62	5.26	-38.0	-39.3	27.0	3.02e+01	59	28	0	1324351488	50	6343
2026-01-26 16:11:08.38	189.73	4.96	-38.1	-39.5	26.8	3.02e+01	59	28	0	1332215808	50	6450
2026-01-26 16:11:12.41	189.83	4.66	-38.1	-39.5	26.8	3.02e+01	58	28	0	1339555840	50	6424
2026-01-26 16:11:16.45	189.93	4.37	-38.1	-39.5	26.8	3.02e+01	58	28	0	1347420160	50	6463
2026-01-26 16:11:20.49	190.03	4.08	-38.7	-40.1	26.1	3.02e+01	59	28	0	1354760192	50	6909
2026-01-26 16:11:24.53	190.13	3.79	-38.5	-39.9	26.3	3.02e+01	61	28	0	1362624512	52	6040
2026-01-26 16:11:28.57	190.22	3.51	-38.8	-40.3	25.7	3.02e+01	59	28	0	1369964544	52	6302
2026-01-26 16:11:32.60	190.32	3.23	-38.6	-40.1	25.9	3.02e+01	62	28	0	1377828864	52	6167
2026-01-26 16:11:36.64	190.41	2.95	-49.4	-67.1	3.5	3.02e+01	0	28	104	1383071744	60	86822
2026-01-26 16:11:40.68	190.50	2.67	-49.9	-67.7	3.5	3.02e+01	0	28	104	1383071744	60	93729
2026-01-26 16:11:44.72	190.59	2.40	-50.0	-67.9	3.5	3.02e+01	0	28	104	1383071744	60	95254
2026-01-26 16:11:48.76	190.68	2.13	-50.0	-67.9	3.5	3.02e+01	0	28	104	1383071744	60	95402
2026-01-26 16:11:52.80	190.76	1.86	-49.8	-67.9	3.5	3.02e+01	0	28	104	1383071744	60	95661
2026-01-26 16:11:56.84	190.85	1.60	-49.8	-67.8	3.5	3.02e+01	0	28	104	1383071744	60	94933
2026-01-26 16:12:00.88	190.93	1.34	-50.1	-67.9	3.5	3.02e+01	0	28	104	1383071744	60	95518
2026-01-26 16:12:04.92	191.01	1.08	-50.1	-67.9	3.5	3.02e+01	0	28	104	1383071744	60	95342
2026-01-26 16:12:08.96	191.09	0.82	-50.1	-67.9	3.5	3.02e+01	0	28	104	1383071744	60	95799
2026-01-26 16:12:13.00	191.17	0.57	-50.1	-67.9	3.5	3.02e+01	0	28	104	1383071744	60	95617
2026-01-26 16:12:17.04	191.25	0.32	-50.1	-67.9	3.5	3.02e+01	0	28	104	1383071744	60	95395
2026-01-26 16:12:21.08	191.33	0.07	-50.1	-67.9	3.5	3.02e+01	0	28	104	1383071744	60	95641

#Closed at: 2026-01-26 16:12:24
#Recorded file [1383 MB]: D:/lorett/data/35029_260127_035833.dat