passes_logs/2026/01/26/R4.6S_Anadyr/R4.6S_Anadyr__20260126_193737_SUOMI_NPP_rec.log

#Pass ID: 20260126_193737_SUOMI NPP
#Satellite: SUOMI NPP
#Configuration: NPP
#almurnet v.1.7.20251203
#Start time: 2026-01-26 19:37:41

#Version: 2.2.20231116
#Station: R4.6S_Anadyr
#Location: 177.4865 lon 64.73178 lat
#TLE: 1 37849U 11061A   26025.95877665  .00000192  00000+0  11229-3 0  9997
#TLE: 2 37849  98.7822 327.9136 0002155  44.9234 315.2116 14.19530109738267

#Time	Az	El	Level	Level2	SNR	BER	BlckErr	Temp	State	Recorded	gain1	gain2
2026-01-26 19:37:41.08	54.77	0.16	-50.6	-64.4	3.3	1.54e+00	0	28	0	0	60	59668
2026-01-26 19:37:44.11	54.54	0.31	-49.4	-64.6	3.6	1.51e+00	0	28	104	0	60	61585
2026-01-26 19:37:47.13	54.31	0.45	-49.4	-64.5	3.6	1.51e+00	0	28	104	0	60	60942
2026-01-26 19:37:50.16	54.07	0.60	-49.2	-64.4	3.6	1.51e+00	0	28	104	0	60	59831
2026-01-26 19:37:53.19	53.83	0.75	-49.1	-64.3	3.6	1.51e+00	0	28	104	0	60	59416
2026-01-26 19:37:56.22	53.59	0.90	-49.0	-64.2	3.6	1.51e+00	0	28	104	0	60	58601
2026-01-26 19:37:59.25	53.35	1.05	-48.8	-64.0	3.6	1.51e+00	0	28	104	0	60	57370
2026-01-26 19:38:02.28	53.10	1.19	-48.5	-63.6	3.6	1.51e+00	0	28	104	0	60	54952
2026-01-26 19:38:05.31	52.85	1.34	-47.6	-62.8	3.6	1.51e+00	0	28	104	0	60	49828
2026-01-26 19:38:08.34	52.60	1.49	-47.6	-62.8	3.6	1.51e+00	0	28	104	0	60	49967
2026-01-26 19:38:11.37	52.35	1.64	-47.6	-62.8	3.6	1.51e+00	0	28	104	0	60	50064
2026-01-26 19:38:14.40	52.09	1.79	-47.6	-62.8	3.6	1.51e+00	0	28	104	0	60	49863
2026-01-26 19:38:17.43	51.83	1.94	-47.6	-62.7	3.6	1.51e+00	0	28	104	0	60	49580
2026-01-26 19:38:20.46	51.57	2.09	-47.6	-62.7	3.6	1.51e+00	0	28	104	0	60	49287
2026-01-26 19:38:23.49	51.31	2.24	-47.6	-62.7	3.6	1.51e+00	0	28	104	0	60	49389
2026-01-26 19:38:26.52	51.04	2.39	-47.6	-62.7	3.6	1.51e+00	0	28	104	0	60	49316
2026-01-26 19:38:29.55	50.77	2.54	-47.6	-62.8	3.6	1.51e+00	0	28	104	0	60	49797
2026-01-26 19:38:32.59	50.49	2.70	-47.6	-61.9	3.6	1.51e+00	0	28	104	0	60	44852
2026-01-26 19:38:35.62	50.22	2.85	-47.4	-58.5	3.9	1.50e+00	0	28	104	0	60	30441
2026-01-26 19:38:38.65	49.94	3.00	-44.4	-47.5	14.1	2.15e-04	0	28	0	3145728	60	8573
2026-01-26 19:38:41.68	49.66	3.15	-46.8	-54.4	5.4	3.23e-04	91	29	104	5242880	60	19058
2026-01-26 19:38:44.70	49.37	3.30	-46.1	-51.3	10.2	1.94e-02	90	29	0	6291456	60	13256
2026-01-26 19:38:47.73	49.08	3.45	-45.8	-50.3	11.4	1.81e-03	0	29	0	12582912	60	11893
2026-01-26 19:38:50.76	48.79	3.61	-45.7	-50.1	11.3	9.96e-04	91	29	0	17825792	60	11562
2026-01-26 19:38:53.79	48.50	3.76	-46.6	-52.5	9.8	8.75e-03	60	29	0	24117248	60	15203
2026-01-26 19:38:56.82	48.20	3.91	-44.7	-47.8	14.2	2.63e-03	0	29	0	29360128	60	8854
2026-01-26 19:38:59.85	47.90	4.06	-45.1	-48.6	14.1	3.57e-04	0	29	0	34603008	60	9714
2026-01-26 19:39:02.87	47.60	4.21	-43.4	-45.7	16.2	0.00e+00	90	29	0	40894464	60	6957
2026-01-26 19:39:05.90	47.29	4.37	-43.1	-45.3	16.8	7.00e-07	0	29	0	46137344	60	6668
2026-01-26 19:39:08.93	46.98	4.52	-42.4	-44.3	17.7	0.00e+00	0	29	0	52428800	58	6642
2026-01-26 19:39:11.96	46.67	4.67	-43.1	-45.3	16.8	0.00e+00	92	29	0	57671680	58	7495
2026-01-26 19:39:14.99	46.35	4.83	-42.1	-43.9	18.1	0.00e+00	85	29	0	62914560	58	6378
2026-01-26 19:39:18.01	46.03	4.98	-42.1	-43.9	18.1	0.00e+00	0	29	0	69206016	58	6324
2026-01-26 19:39:21.04	45.70	5.13	-42.5	-44.4	17.6	0.00e+00	0	29	0	74448896	58	6709
2026-01-26 19:39:24.07	45.38	5.28	-42.3	-44.1	18.0	0.00e+00	0	29	0	80740352	58	6524
2026-01-26 19:39:27.10	45.05	5.44	-41.6	-43.2	18.9	0.00e+00	0	29	0	85983232	56	6588
2026-01-26 19:39:30.13	44.71	5.59	-41.5	-43.1	19.0	0.00e+00	0	29	0	92274688	56	6518
2026-01-26 19:39:33.16	44.37	5.74	-41.1	-42.6	19.5	0.00e+00	92	29	0	97517568	56	6110
2026-01-26 19:39:36.19	44.03	5.90	-41.1	-42.6	19.5	0.00e+00	0	29	0	102760448	56	6116
2026-01-26 19:39:39.22	43.68	6.05	-41.3	-42.8	19.2	0.00e+00	0	29	0	109051904	56	6268
2026-01-26 19:39:42.24	43.34	6.20	-41.2	-42.6	19.5	0.00e+00	92	29	0	114294784	56	6171
2026-01-26 19:39:45.27	42.98	6.35	-41.1	-42.6	19.5	0.00e+00	92	29	0	120586240	56	6135
2026-01-26 19:39:48.30	42.62	6.51	-40.7	-42.0	19.9	0.00e+00	0	29	0	125829120	54	6444
2026-01-26 19:39:51.33	42.26	6.66	-40.9	-42.3	19.9	0.00e+00	0	29	0	131072000	54	6633
2026-01-26 19:39:54.36	41.90	6.81	-41.2	-42.6	19.5	0.00e+00	50	29	0	137363456	54	6922
2026-01-26 19:39:57.39	41.53	6.96	-41.1	-42.5	19.7	0.00e+00	0	29	0	142606336	54	6808
2026-01-26 19:40:00.41	41.16	7.11	-41.2	-42.6	19.4	0.00e+00	0	29	0	148897792	54	6924
2026-01-26 19:40:03.45	40.78	7.27	-41.3	-42.8	19.4	0.00e+00	92	29	0	154140672	54	7066
2026-01-26 19:40:06.47	40.40	7.42	-41.3	-42.8	19.4	0.00e+00	0	29	0	160432128	54	7047
2026-01-26 19:40:09.50	40.02	7.57	-41.2	-42.7	19.6	0.00e+00	0	29	0	165675008	54	6968
2026-01-26 19:40:12.53	39.63	7.72	-40.6	-41.9	20.2	0.00e+00	72	29	0	170917888	54	6384
2026-01-26 19:40:15.55	39.23	7.87	-40.9	-42.2	19.8	0.00e+00	75	29	0	177209344	54	6598
2026-01-26 19:40:18.59	38.84	8.02	-40.6	-41.9	20.3	0.00e+00	0	29	0	182452224	54	6334
2026-01-26 19:40:21.61	38.44	8.17	-40.7	-42.0	20.2	0.00e+00	0	29	0	188743680	54	6442
2026-01-26 19:40:24.64	38.03	8.32	-40.8	-42.2	20.1	0.00e+00	89	29	0	193986560	54	6543
2026-01-26 19:40:27.66	37.62	8.46	-41.1	-42.6	19.7	0.00e+00	0	29	0	199229440	54	6888
2026-01-26 19:40:30.69	37.21	8.61	-41.2	-42.7	19.6	0.00e+00	0	29	0	205520896	54	6999
2026-01-26 19:40:33.72	36.79	8.76	-41.0	-42.4	19.8	0.00e+00	86	29	0	210763776	54	6766
2026-01-26 19:40:36.75	36.37	8.90	-40.8	-42.1	20.2	0.00e+00	58	29	0	217055232	54	6502
2026-01-26 19:40:39.78	35.94	9.05	-40.7	-42.0	20.3	0.00e+00	0	29	0	222298112	54	6424
2026-01-26 19:40:42.80	35.51	9.19	-40.3	-41.6	20.6	0.00e+00	14	29	0	228589568	54	6167
2026-01-26 19:40:45.83	35.07	9.34	-39.8	-41.0	21.3	0.00e+00	3	29	0	233832448	54	5716
2026-01-26 19:40:48.86	34.63	9.48	-39.9	-41.1	21.1	0.00e+00	0	29	0	239075328	52	6475
2026-01-26 19:40:51.89	34.19	9.63	-39.6	-40.8	21.4	0.00e+00	0	29	0	245366784	52	6256
2026-01-26 19:40:54.92	33.74	9.77	-39.1	-40.2	21.9	0.00e+00	92	29	0	250609664	52	5845
2026-01-26 19:40:57.95	33.28	9.91	-38.9	-40.0	22.1	0.00e+00	79	29	0	256901120	52	5711
2026-01-26 19:41:00.97	32.83	10.05	-38.9	-40.0	22.1	0.00e+00	0	29	0	262144000	50	6419
2026-01-26 19:41:04.00	32.36	10.19	-39.6	-40.7	21.4	0.00e+00	0	29	0	267386880	50	6977
2026-01-26 19:41:07.03	31.90	10.32	-39.9	-41.1	21.2	0.00e+00	33	29	0	273678336	52	6521
2026-01-26 19:41:10.06	31.43	10.46	-39.3	-40.4	21.7	0.00e+00	0	29	0	278921216	52	6016
2026-01-26 19:41:13.08	30.95	10.60	-39.0	-40.0	22.0	0.00e+00	0	29	0	285212672	52	5744
2026-01-26 19:41:16.11	30.47	10.73	-38.4	-39.3	22.6	0.00e+00	58	29	0	290455552	50	5954
2026-01-26 19:41:19.14	29.99	10.86	-38.2	-39.2	22.8	0.00e+00	0	29	0	295698432	50	5830
2026-01-26 19:41:22.16	29.50	11.00	-38.1	-39.1	22.9	0.00e+00	0	29	0	301989888	50	5772
2026-01-26 19:41:25.19	29.00	11.13	-38.4	-39.3	22.6	0.00e+00	33	29	0	307232768	50	5961
2026-01-26 19:41:28.22	28.51	11.26	-38.7	-39.7	22.3	0.00e+00	0	29	0	313524224	50	6201
2026-01-26 19:41:31.25	28.00	11.38	-37.9	-38.8	23.1	0.00e+00	0	29	0	318767104	50	5590
2026-01-26 19:41:34.27	27.50	11.51	-37.9	-38.8	23.0	0.00e+00	0	29	0	325058560	48	6298
2026-01-26 19:41:37.30	26.99	11.63	-38.0	-38.9	23.0	0.00e+00	77	29	0	330301440	48	6371
2026-01-26 19:41:40.33	26.47	11.76	-38.4	-39.4	22.7	0.00e+00	0	30	0	335544320	48	6707
2026-01-26 19:41:43.36	25.95	11.88	-38.5	-39.5	22.5	0.00e+00	0	29	0	341835776	48	6808
2026-01-26 19:41:46.39	25.43	12.00	-38.8	-39.8	22.3	0.00e+00	50	29	0	347078656	50	6274
2026-01-26 19:41:49.42	24.90	12.12	-38.5	-39.5	22.6	0.00e+00	0	29	0	353370112	50	6082
2026-01-26 19:41:52.44	24.36	12.23	-38.8	-39.8	22.4	0.00e+00	0	29	0	358612992	50	6307
2026-01-26 19:41:55.47	23.83	12.34	-39.0	-40.1	22.2	0.00e+00	0	29	0	363855872	50	6501
2026-01-26 19:41:58.50	23.28	12.46	-38.7	-39.7	22.4	0.00e+00	65	29	0	370147328	50	6212
2026-01-26 19:42:01.53	22.74	12.57	-38.5	-39.5	22.4	0.00e+00	0	29	0	375390208	50	6095
2026-01-26 19:42:04.56	22.19	12.67	-38.3	-39.3	22.7	0.00e+00	0	30	0	381681664	50	5911
2026-01-26 19:42:07.59	21.63	12.78	-38.5	-39.5	22.5	0.00e+00	72	29	0	386924544	50	6067
2026-01-26 19:42:10.62	21.08	12.88	-38.4	-39.4	22.7	0.00e+00	0	30	0	393216000	50	6017
2026-01-26 19:42:13.65	20.51	12.98	-38.1	-39.0	22.8	0.00e+00	0	30	0	398458880	50	5760
2026-01-26 19:42:16.67	19.95	13.08	-38.4	-39.4	22.7	0.00e+00	80	30	0	403701760	50	5966
2026-01-26 19:42:19.70	19.38	13.18	-39.4	-40.5	21.9	0.00e+00	0	30	0	409993216	50	6805
2026-01-26 19:42:22.73	18.81	13.27	-39.3	-40.4	21.7	0.00e+00	0	30	0	415236096	50	6763
2026-01-26 19:42:25.75	18.23	13.37	-38.5	-39.4	22.7	0.00e+00	0	30	0	421527552	50	6033
2026-01-26 19:42:28.78	17.65	13.45	-37.7	-38.6	23.0	0.00e+00	73	30	0	426770432	48	6112
2026-01-26 19:42:31.81	17.07	13.54	-37.5	-38.4	23.4	0.00e+00	0	30	0	432013312	48	5966
2026-01-26 19:42:34.84	16.48	13.62	-37.9	-38.8	23.2	0.00e+00	0	29	0	438304768	48	6284
2026-01-26 19:42:37.86	15.89	13.71	-37.6	-38.5	23.3	0.00e+00	92	30	0	443547648	48	6042
2026-01-26 19:42:40.90	15.30	13.78	-37.9	-38.8	23.0	0.00e+00	0	30	0	449839104	48	6267
2026-01-26 19:42:43.92	14.70	13.86	-38.6	-39.6	22.7	0.00e+00	0	30	0	455081984	48	6859
2026-01-26 19:42:46.95	14.10	13.93	-38.8	-39.8	22.4	0.00e+00	39	30	0	461373440	50	6253
2026-01-26 19:42:49.98	13.50	14.00	-39.0	-40.0	22.3	0.00e+00	0	30	0	466616320	50	6443
2026-01-26 19:42:53.01	12.89	14.07	-38.8	-39.8	22.5	0.00e+00	0	30	0	471859200	50	6275
2026-01-26 19:42:56.04	12.28	14.13	-39.0	-40.1	22.3	0.00e+00	0	30	0	478150656	50	6472
2026-01-26 19:42:59.07	11.67	14.19	-39.0	-40.1	22.2	0.00e+00	53	30	0	483393536	50	6471
2026-01-26 19:43:02.10	11.06	14.25	-38.9	-39.9	22.3	0.00e+00	0	30	0	489684992	50	6347
2026-01-26 19:43:05.13	10.44	14.30	-38.4	-39.3	22.9	0.00e+00	0	30	0	494927872	50	5949
2026-01-26 19:43:08.15	9.82	14.35	-37.9	-38.9	23.0	0.00e+00	92	30	0	500170752	50	5635
2026-01-26 19:43:11.18	9.20	14.40	-38.1	-39.0	23.0	0.00e+00	0	30	0	506462208	50	5747
2026-01-26 19:43:14.21	8.58	14.45	-38.4	-39.3	22.7	0.00e+00	0	29	0	511705088	50	5956
2026-01-26 19:43:17.24	7.96	14.49	-38.4	-39.3	22.9	0.00e+00	46	30	0	517996544	50	5960
2026-01-26 19:43:20.27	7.33	14.52	-38.1	-39.0	23.0	0.00e+00	0	30	0	523239424	50	5729
2026-01-26 19:43:23.30	6.71	14.56	-38.3	-39.2	22.9	0.00e+00	0	30	0	529530880	50	5883
2026-01-26 19:43:26.33	6.08	14.59	-38.5	-39.5	22.6	0.00e+00	0	30	0	534773760	50	6062
2026-01-26 19:43:29.35	5.45	14.62	-38.7	-39.7	22.5	0.00e+00	13	30	0	540016640	50	6209
2026-01-26 19:43:32.38	4.82	14.64	-38.5	-39.5	22.7	0.00e+00	0	29	0	546308096	50	6101
2026-01-26 19:43:35.41	4.19	14.66	-38.5	-39.5	22.8	0.00e+00	0	29	0	551550976	50	6036
2026-01-26 19:43:38.44	3.55	14.68	-38.6	-39.6	22.5	0.00e+00	58	30	0	557842432	50	6113
2026-01-26 19:43:41.47	2.92	14.69	-38.2	-39.1	22.9	0.00e+00	0	30	0	563085312	50	5823
2026-01-26 19:43:44.50	2.29	14.70	-38.4	-39.3	22.8	0.00e+00	0	30	0	568328192	50	5952
2026-01-26 19:43:47.52	1.65	14.71	-38.8	-39.8	22.6	0.00e+00	38	30	0	574619648	50	6296
2026-01-26 19:43:50.55	1.02	14.71	-38.4	-39.4	22.8	0.00e+00	72	30	0	579862528	50	5967
2026-01-26 19:43:53.57	0.39	14.71	-37.9	-38.9	23.3	0.00e+00	0	30	0	586153984	50	5635
2026-01-26 19:43:56.60	359.75	14.71	-37.7	-38.7	23.3	0.00e+00	0	30	0	591396864	48	6187
2026-01-26 19:43:59.63	359.12	14.70	-38.1	-39.0	22.9	0.00e+00	38	30	0	596639744	48	6444
2026-01-26 19:44:02.66	358.49	14.69	-38.5	-39.5	22.6	0.00e+00	0	30	0	602931200	48	6827
2026-01-26 19:44:05.68	357.85	14.67	-38.7	-39.7	22.4	0.00e+00	0	30	0	608174080	50	6225
2026-01-26 19:44:08.71	357.22	14.66	-39.1	-40.1	22.0	0.00e+00	90	30	0	614465536	50	6533
2026-01-26 19:44:11.74	356.59	14.64	-39.4	-40.5	21.9	0.00e+00	0	30	0	619708416	50	6801
2026-01-26 19:44:14.77	355.96	14.61	-38.5	-39.5	22.7	0.00e+00	0	30	0	624951296	50	6061
2026-01-26 19:44:17.80	355.33	14.58	-38.3	-39.3	22.8	0.00e+00	0	30	0	631242752	50	5912
2026-01-26 19:44:20.83	354.70	14.55	-38.4	-39.4	22.7	0.00e+00	41	30	0	636485632	50	5996
2026-01-26 19:44:23.85	354.08	14.52	-38.6	-39.6	22.5	0.00e+00	0	30	0	642777088	50	6130
2026-01-26 19:44:26.88	353.45	14.48	-38.5	-39.5	22.8	0.00e+00	0	30	0	648019968	50	6060
2026-01-26 19:44:29.91	352.83	14.44	-37.7	-38.6	23.4	0.00e+00	75	30	0	654311424	48	6133
2026-01-26 19:44:32.94	352.21	14.39	-37.9	-38.9	23.1	0.00e+00	0	30	0	659554304	48	6330
2026-01-26 19:44:35.97	351.59	14.34	-38.2	-39.2	22.8	0.00e+00	0	30	0	664797184	48	6546
2026-01-26 19:44:39.00	350.97	14.29	-38.4	-39.5	22.5	0.00e+00	92	30	0	671088640	48	6774
2026-01-26 19:44:42.03	350.35	14.24	-38.5	-39.5	22.6	0.00e+00	0	30	0	676331520	48	6840
2026-01-26 19:44:45.05	349.74	14.18	-38.9	-39.9	22.2	0.00e+00	0	30	0	682622976	50	6369
2026-01-26 19:44:48.08	349.13	14.12	-39.3	-40.4	21.8	0.00e+00	0	30	0	687865856	50	6699
2026-01-26 19:44:51.11	348.53	14.05	-38.2	-39.1	22.9	0.00e+00	20	30	0	694157312	50	5828
2026-01-26 19:44:54.14	347.92	13.98	-38.2	-39.2	22.8	0.00e+00	0	30	0	699400192	50	5881
2026-01-26 19:44:57.17	347.32	13.91	-38.4	-39.4	22.6	0.00e+00	0	30	0	704643072	50	5968
2026-01-26 19:45:00.19	346.72	13.84	-37.9	-38.8	23.1	0.00e+00	72	30	0	710934528	50	5620
2026-01-26 19:45:03.22	346.12	13.77	-37.8	-38.7	23.3	0.00e+00	33	30	0	716177408	48	6187
2026-01-26 19:45:06.25	345.53	13.69	-38.2	-39.2	22.9	0.00e+00	0	30	0	722468864	48	6544
2026-01-26 19:45:09.28	344.94	13.61	-38.8	-39.9	22.3	0.00e+00	92	30	0	727711744	50	6321
2026-01-26 19:45:12.31	344.35	13.52	-38.7	-39.8	22.4	0.00e+00	0	30	0	732954624	50	6247
2026-01-26 19:45:15.34	343.77	13.43	-38.8	-39.8	22.3	0.00e+00	0	30	0	739246080	50	6306
2026-01-26 19:45:18.37	343.19	13.34	-38.9	-40.0	22.2	0.00e+00	0	30	0	744488960	50	6410
2026-01-26 19:45:21.40	342.62	13.25	-38.6	-39.7	22.6	0.00e+00	77	30	0	750780416	50	6188
2026-01-26 19:45:24.42	342.05	13.16	-38.1	-39.1	23.0	0.00e+00	0	30	0	756023296	50	5775
2026-01-26 19:45:27.45	341.48	13.06	-38.1	-39.1	22.9	0.00e+00	0	30	0	762314752	50	5783
2026-01-26 19:45:30.48	340.91	12.96	-38.1	-39.0	23.0	0.00e+00	72	30	0	767557632	50	5740
2026-01-26 19:45:33.51	340.35	12.86	-37.8	-38.7	23.1	0.00e+00	0	30	0	772800512	48	6230
2026-01-26 19:45:36.54	339.79	12.76	-37.4	-38.3	23.5	0.00e+00	0	30	0	779091968	48	5921
2026-01-26 19:45:39.57	339.24	12.65	-38.1	-39.0	23.0	0.00e+00	30	30	0	784334848	48	6420
2026-01-26 19:45:42.59	338.69	12.54	-38.5	-39.5	22.6	0.00e+00	0	29	0	790626304	48	6842
2026-01-26 19:45:45.62	338.15	12.43	-38.6	-39.7	22.4	0.00e+00	0	30	0	795869184	48	6936
2026-01-26 19:45:48.65	337.61	12.32	-39.1	-40.2	22.0	0.00e+00	0	30	0	801112064	50	6589
2026-01-26 19:45:51.68	337.07	12.21	-38.8	-39.9	22.2	0.00e+00	9	30	0	807403520	50	6333
2026-01-26 19:45:54.70	336.54	12.09	-39.0	-40.0	22.1	0.00e+00	0	30	0	812646400	50	6449
2026-01-26 19:45:57.73	336.01	11.97	-38.9	-39.9	22.1	0.00e+00	0	30	0	818937856	50	6349
2026-01-26 19:46:00.76	335.49	11.85	-38.8	-39.8	22.3	0.00e+00	83	30	0	824180736	50	6311
2026-01-26 19:46:03.78	334.97	11.73	-39.0	-40.0	22.1	0.00e+00	0	29	0	829423616	50	6444
2026-01-26 19:46:06.81	334.46	11.61	-39.0	-40.1	22.0	0.00e+00	0	29	0	835715072	50	6509
2026-01-26 19:46:09.84	333.95	11.48	-39.5	-40.6	21.7	0.00e+00	92	29	0	840957952	50	6900
2026-01-26 19:46:12.87	333.44	11.36	-39.2	-40.2	21.9	0.00e+00	65	30	0	847249408	50	6601
2026-01-26 19:46:15.90	332.94	11.23	-38.8	-39.7	22.3	0.00e+00	0	30	0	852492288	50	6241
2026-01-26 19:46:18.93	332.44	11.10	-39.1	-40.1	22.0	0.00e+00	0	29	0	858783744	50	6513
2026-01-26 19:46:21.96	331.95	10.97	-40.2	-41.4	20.9	0.00e+00	15	29	0	864026624	52	6739
2026-01-26 19:46:24.99	331.46	10.83	-40.7	-42.0	20.3	0.00e+00	0	29	0	869269504	54	6448
2026-01-26 19:46:28.02	330.98	10.70	-40.4	-41.6	20.6	0.00e+00	0	30	0	875560960	54	6148
2026-01-26 19:46:31.04	330.50	10.57	-39.9	-41.0	21.3	0.00e+00	46	29	0	880803840	54	5737
2026-01-26 19:46:34.07	330.03	10.43	-40.3	-41.5	20.7	0.00e+00	0	29	0	887095296	54	6099
2026-01-26 19:46:37.09	329.56	10.29	-42.0	-43.6	18.9	0.00e+00	0	29	0	892338176	56	6905
2026-01-26 19:46:40.12	329.09	10.16	-42.8	-44.6	18.0	0.00e+00	0	29	0	897581056	58	6903
2026-01-26 19:46:43.15	328.63	10.02	-42.0	-43.6	18.9	0.00e+00	0	29	0	903872512	58	6151
2026-01-26 19:46:46.17	328.18	9.88	-41.7	-43.2	19.3	0.00e+00	0	29	0	909115392	56	6559
2026-01-26 19:46:49.20	327.72	9.74	-41.7	-43.2	19.4	0.00e+00	0	29	0	915406848	56	6551
2026-01-26 19:46:52.23	327.28	9.59	-41.3	-42.7	19.9	0.00e+00	73	29	0	920649728	56	6208
2026-01-26 19:46:55.26	326.83	9.45	-40.9	-42.2	20.2	0.00e+00	0	29	0	926941184	56	5880
2026-01-26 19:46:58.29	326.39	9.31	-40.9	-42.2	20.3	0.00e+00	0	29	0	932184064	56	5848
2026-01-26 19:47:01.32	325.96	9.16	-40.7	-42.0	20.4	0.00e+00	84	29	0	937426944	54	6403
2026-01-26 19:47:04.34	325.53	9.02	-40.1	-41.3	21.1	0.00e+00	0	29	0	943718400	54	5906
2026-01-26 19:47:07.37	325.10	8.87	-39.9	-41.0	21.2	0.00e+00	0	29	0	948961280	52	6427
2026-01-26 19:47:10.40	324.68	8.73	-39.9	-41.1	21.2	0.00e+00	0	29	0	955252736	52	6478
2026-01-26 19:47:13.43	324.27	8.58	-40.0	-41.1	21.1	0.00e+00	65	29	0	960495616	52	6535
2026-01-26 19:47:16.46	323.85	8.43	-40.3	-41.5	20.7	0.00e+00	0	29	0	965738496	52	6838
2026-01-26 19:47:19.48	323.45	8.28	-41.0	-42.4	20.0	0.00e+00	0	29	0	972029952	54	6703
2026-01-26 19:47:22.51	323.04	8.14	-40.8	-42.1	20.2	0.00e+00	92	29	0	977272832	54	6505
2026-01-26 19:47:25.54	322.64	7.99	-40.5	-41.7	20.4	0.00e+00	0	29	0	983564288	54	6229
2026-01-26 19:47:28.56	322.25	7.84	-40.5	-41.7	20.5	0.00e+00	0	29	0	988807168	54	6245
2026-01-26 19:47:31.59	321.85	7.69	-40.1	-41.3	20.9	0.00e+00	70	29	0	994050048	54	5948
2026-01-26 19:47:34.62	321.47	7.54	-39.6	-40.7	21.4	0.00e+00	0	29	0	1000341504	52	6229
2026-01-26 19:47:37.65	321.08	7.39	-39.2	-40.2	21.9	0.00e+00	0	29	0	1005584384	52	5878
2026-01-26 19:47:40.68	320.70	7.24	-38.7	-39.7	22.3	0.00e+00	0	29	0	1011875840	50	6235
2026-01-26 19:47:43.70	320.33	7.08	-38.9	-39.9	22.0	0.00e+00	70	29	0	1017118720	50	6374
2026-01-26 19:47:46.73	319.96	6.93	-39.3	-40.4	21.6	0.00e+00	0	29	0	1023410176	50	6728
2026-01-26 19:47:49.76	319.59	6.78	-39.2	-40.3	21.7	0.00e+00	0	29	0	1028653056	50	6659
2026-01-26 19:47:52.79	319.22	6.63	-39.0	-40.1	21.8	0.00e+00	68	29	0	1033895936	50	6509
2026-01-26 19:47:55.82	318.86	6.48	-39.2	-40.3	21.7	0.00e+00	0	29	0	1040187392	50	6631
2026-01-26 19:47:58.85	318.51	6.32	-39.3	-40.4	21.6	0.00e+00	0	29	0	1045430272	50	6728
2026-01-26 19:48:01.87	318.16	6.17	-39.7	-40.9	21.2	0.00e+00	72	29	0	1051721728	52	6329
2026-01-26 19:48:04.90	317.81	6.02	-40.1	-41.3	20.9	0.00e+00	0	29	0	1056964608	52	6686
2026-01-26 19:48:07.93	317.46	5.87	-39.9	-41.1	21.0	0.00e+00	0	29	0	1062207488	52	6516
2026-01-26 19:48:10.96	317.12	5.71	-39.8	-41.0	21.0	0.00e+00	0	29	0	1068498944	52	6448
2026-01-26 19:48:13.99	316.79	5.56	-39.8	-41.0	20.9	0.00e+00	0	29	0	1073741824	52	6446
2026-01-26 19:48:17.01	316.45	5.41	-40.0	-41.2	20.8	0.00e+00	0	29	0	1080033280	52	6544
2026-01-26 19:48:20.04	316.12	5.26	-39.9	-41.1	20.8	0.00e+00	0	29	0	1085276160	52	6515
2026-01-26 19:48:23.07	315.80	5.10	-39.5	-40.6	21.4	0.00e+00	92	29	0	1091567616	52	6156
2026-01-26 19:48:26.10	315.47	4.95	-39.3	-40.4	21.3	0.00e+00	0	29	0	1096810496	52	6020
2026-01-26 19:48:29.12	315.15	4.80	-39.6	-40.7	21.1	0.00e+00	0	29	0	1102053376	52	6243
2026-01-26 19:48:32.15	314.84	4.64	-39.7	-40.9	20.9	0.00e+00	90	29	0	1108344832	52	6369
2026-01-26 19:48:35.17	314.52	4.49	-40.2	-41.5	20.4	0.00e+00	17	29	0	1113587712	52	6834
2026-01-26 19:48:38.20	314.22	4.34	-40.8	-42.2	19.7	0.00e+00	0	29	0	1119879168	54	6553
2026-01-26 19:48:41.23	313.91	4.19	-41.1	-42.6	19.3	0.00e+00	0	29	0	1125122048	54	6863
2026-01-26 19:48:44.26	313.61	4.03	-39.9	-41.1	20.6	0.00e+00	21	29	0	1130364928	54	5784
2026-01-26 19:48:47.29	313.31	3.88	-39.7	-40.9	20.8	0.00e+00	0	29	0	1136656384	52	6354
2026-01-26 19:48:50.32	313.01	3.73	-39.8	-41.0	20.8	0.00e+00	0	29	0	1141899264	52	6449
2026-01-26 19:48:53.35	312.72	3.58	-39.8	-41.0	20.8	0.00e+00	68	29	0	1148190720	52	6415
2026-01-26 19:48:56.38	312.43	3.43	-40.3	-41.6	20.2	0.00e+00	0	29	0	1153433600	52	6851
2026-01-26 19:48:59.40	312.14	3.27	-40.3	-41.7	20.1	0.00e+00	0	29	0	1159725056	52	6937
2026-01-26 19:49:02.43	311.86	3.12	-41.0	-42.5	19.2	0.00e+00	71	29	0	1164967936	54	6833
2026-01-26 19:49:05.46	311.57	2.97	-48.4	-63.5	3.6	1.51e+00	0	29	104	1169162240	60	54308
2026-01-26 19:49:08.49	311.30	2.82	-49.0	-64.2	3.6	1.51e+00	0	29	104	1169162240	60	58414
2026-01-26 19:49:11.53	311.02	2.67	-49.2	-64.4	3.6	1.51e+00	0	29	104	1169162240	60	59833
2026-01-26 19:49:14.55	310.75	2.52	-49.2	-64.4	3.6	1.51e+00	0	29	104	1169162240	60	59899
2026-01-26 19:49:17.58	310.48	2.37	-49.2	-64.4	3.6	1.51e+00	0	29	104	1169162240	60	59922
2026-01-26 19:49:20.61	310.21	2.22	-49.1	-64.3	3.6	1.51e+00	0	29	104	1169162240	60	59250
2026-01-26 19:49:23.64	309.95	2.07	-48.9	-64.2	3.6	1.51e+00	0	29	104	1169162240	60	58882
2026-01-26 19:49:26.67	309.69	1.92	-48.9	-64.2	3.6	1.51e+00	0	29	104	1169162240	60	58568
2026-01-26 19:49:29.70	309.43	1.77	-49.0	-64.3	3.6	1.51e+00	0	29	104	1169162240	60	58970
2026-01-26 19:49:32.73	309.17	1.62	-49.0	-64.3	3.6	1.51e+00	0	29	104	1169162240	60	58974
2026-01-26 19:49:35.76	308.92	1.47	-49.1	-64.3	3.6	1.51e+00	0	29	104	1169162240	60	59336
2026-01-26 19:49:38.79	308.67	1.32	-49.2	-64.4	3.6	1.51e+00	0	29	104	1169162240	60	59838
2026-01-26 19:49:41.81	308.42	1.17	-49.1	-64.4	3.5	1.51e+00	0	29	104	1169162240	60	59656
2026-01-26 19:49:44.84	308.18	1.02	-49.3	-64.5	3.6	1.51e+00	0	29	104	1169162240	60	60974
2026-01-26 19:49:47.87	307.94	0.87	-49.0	-64.3	3.6	1.51e+00	0	29	104	1169162240	60	59001
2026-01-26 19:49:50.90	307.70	0.73	-49.7	-65.0	3.6	1.51e+00	0	29	104	1169162240	60	64119
2026-01-26 19:49:53.93	307.46	0.58	-49.3	-64.6	3.6	1.51e+00	0	29	104	1169162240	60	61335
2026-01-26 19:49:56.96	307.22	0.43	-49.3	-64.6	3.6	1.51e+00	0	29	104	1169162240	60	61334
2026-01-26 19:49:59.99	306.99	0.28	-49.3	-64.7	3.6	1.51e+00	0	28	104	1169162240	60	61788
2026-01-26 19:50:03.02	306.76	0.14	-49.3	-64.6	3.6	1.51e+00	0	29	104	1169162240	60	61299
2026-01-26 19:50:06.05	306.53	-0.01	-49.2	-64.4	3.6	1.51e+00	0	29	104	1169162240	60	60173

#Closed at: 2026-01-26 19:50:06
#Recorded file [1169 MB]: D:/lorett/data/35029_260127_073741.dat