passes_logs/2026/01/26/R4.6S_Anadyr/R4.6S_Anadyr__20260126_175840_SUOMI_NPP_rec.log

#Pass ID: 20260126_175840_SUOMI NPP
#Satellite: SUOMI NPP
#Configuration: NPP
#almurnet v.1.7.20251203
#Start time: 2026-01-26 17:58:43

#Version: 2.2.20231116
#Station: R4.6S_Anadyr
#Location: 177.4865 lon 64.73178 lat
#TLE: 1 37849U 11061A   26025.95877665  .00000192  00000+0  11229-3 0  9997
#TLE: 2 37849  98.7822 327.9136 0002155  44.9234 315.2116 14.19530109738267

#Time	Az	El	Level	Level2	SNR	BER	BlckErr	Temp	State	Recorded	gain1	gain2
2026-01-26 17:58:43.63	35.45	0.14	-49.8	-67.5	3.5	3.03e+01	0	27	0	0	60	91187
2026-01-26 17:58:47.66	35.19	0.35	-50.1	-65.3	3.6	1.51e+00	0	28	104	0	60	66526
2026-01-26 17:58:51.70	34.92	0.56	-49.3	-64.5	3.6	1.51e+00	0	28	104	0	60	60688
2026-01-26 17:58:55.74	34.64	0.77	-49.2	-64.4	3.5	1.51e+00	0	28	104	0	60	60072
2026-01-26 17:58:59.78	34.36	0.98	-49.0	-64.2	3.6	1.51e+00	0	28	104	0	60	58468
2026-01-26 17:59:03.82	34.08	1.20	-48.8	-63.9	3.6	1.51e+00	0	28	104	0	60	56754
2026-01-26 17:59:07.86	33.80	1.41	-48.0	-63.2	3.6	1.51e+00	0	28	104	0	60	52299
2026-01-26 17:59:11.90	33.51	1.62	-47.7	-62.8	3.6	1.51e+00	0	29	104	0	60	49974
2026-01-26 17:59:15.94	33.21	1.84	-47.7	-62.8	3.6	1.51e+00	0	29	104	0	60	49983
2026-01-26 17:59:19.98	32.91	2.05	-47.7	-62.8	3.6	1.51e+00	0	29	104	0	60	49828
2026-01-26 17:59:24.01	32.61	2.27	-47.7	-62.8	3.6	1.51e+00	0	29	104	0	60	49964
2026-01-26 17:59:28.05	32.30	2.49	-47.7	-62.8	3.6	1.51e+00	0	29	104	0	60	49696
2026-01-26 17:59:32.09	31.98	2.71	-47.7	-62.4	3.6	1.51e+00	0	29	104	0	60	47903
2026-01-26 17:59:36.13	31.66	2.93	-47.6	-60.7	3.6	1.51e+00	0	29	104	0	60	39190
2026-01-26 17:59:40.17	31.34	3.15	-45.3	-49.1	12.5	1.11e-04	63	29	0	5242880	60	10351
2026-01-26 17:59:44.21	31.01	3.37	-45.1	-48.7	13.3	7.24e-05	0	29	0	9437184	60	9788
2026-01-26 17:59:48.24	30.68	3.59	-42.7	-44.8	17.4	0.00e+00	0	29	0	12582912	58	7049
2026-01-26 17:59:52.28	30.34	3.81	-42.2	-44.1	17.7	0.00e+00	0	29	0	19922944	56	7260
2026-01-26 17:59:56.32	29.99	4.04	-41.8	-43.5	18.4	0.00e+00	91	29	0	27262976	56	6775
2026-01-26 18:00:00.36	29.64	4.26	-42.0	-43.8	18.3	0.00e+00	0	29	0	34603008	56	7026
2026-01-26 18:00:04.39	29.29	4.48	-41.5	-43.1	18.8	0.00e+00	0	29	0	41943040	56	6481
2026-01-26 18:00:08.43	28.93	4.71	-41.1	-42.6	19.2	0.00e+00	0	29	0	50331648	56	6138
2026-01-26 18:00:12.47	28.56	4.94	-40.9	-42.3	19.7	0.00e+00	90	29	0	57671680	56	5949
2026-01-26 18:00:16.51	28.18	5.17	-40.6	-42.0	20.0	0.00e+00	0	29	0	65011712	54	6407
2026-01-26 18:00:20.54	27.81	5.39	-40.9	-42.3	19.8	0.00e+00	0	29	0	72351744	54	6676
2026-01-26 18:00:24.58	27.42	5.62	-41.1	-42.5	19.5	0.00e+00	29	29	0	79691776	54	6801
2026-01-26 18:00:28.62	27.03	5.85	-41.5	-43.0	19.1	0.00e+00	0	29	0	88080384	56	6435
2026-01-26 18:00:32.65	26.63	6.08	-41.8	-43.4	18.9	0.00e+00	0	29	0	95420416	56	6745
2026-01-26 18:00:36.68	26.22	6.32	-42.1	-43.7	18.7	0.00e+00	0	29	0	102760448	56	6989
2026-01-26 18:00:40.72	25.81	6.55	-41.7	-43.3	19.0	0.00e+00	90	29	0	110100480	56	6625
2026-01-26 18:00:44.76	25.39	6.78	-41.1	-42.5	19.6	0.00e+00	0	29	0	118489088	56	6065
2026-01-26 18:00:48.80	24.97	7.01	-40.8	-42.1	19.9	0.00e+00	0	29	0	125829120	56	5815
2026-01-26 18:00:52.84	24.53	7.25	-41.0	-42.3	19.9	0.00e+00	0	29	0	133169152	56	5945
2026-01-26 18:00:56.87	24.09	7.48	-41.5	-43.0	19.3	0.00e+00	89	29	0	140509184	56	6410
2026-01-26 18:01:00.91	23.65	7.72	-41.3	-42.8	19.4	0.00e+00	0	29	0	147849216	56	6246
2026-01-26 18:01:04.95	23.19	7.95	-41.3	-42.8	19.5	0.00e+00	0	29	0	156237824	56	6252
2026-01-26 18:01:08.99	22.73	8.19	-41.3	-42.8	19.5	0.00e+00	22	29	0	163577856	56	6274
2026-01-26 18:01:13.03	22.26	8.43	-40.8	-42.1	20.2	0.00e+00	0	29	0	170917888	54	6521
2026-01-26 18:01:17.06	21.78	8.66	-40.8	-42.2	20.0	0.00e+00	0	29	0	178257920	54	6579
2026-01-26 18:01:21.10	21.29	8.90	-40.0	-41.2	20.9	0.00e+00	0	29	0	186646528	54	5892
2026-01-26 18:01:25.14	20.80	9.14	-40.2	-41.4	20.7	0.00e+00	87	29	0	193986560	54	6025
2026-01-26 18:01:29.17	20.30	9.37	-40.7	-42.1	20.3	0.00e+00	0	29	0	201326592	54	6472
2026-01-26 18:01:33.21	19.78	9.61	-40.6	-42.0	20.4	0.00e+00	0	30	0	208666624	54	6397
2026-01-26 18:01:37.25	19.26	9.85	-41.0	-42.4	20.1	0.00e+00	0	30	0	216006656	54	6702
2026-01-26 18:01:41.29	18.73	10.09	-40.2	-41.4	20.7	0.00e+00	91	30	0	224395264	54	5995
2026-01-26 18:01:45.33	18.20	10.32	-40.0	-41.2	21.1	0.00e+00	0	30	0	231735296	54	5848
2026-01-26 18:01:49.36	17.65	10.56	-40.0	-41.2	21.1	0.00e+00	0	30	0	239075328	54	5887
2026-01-26 18:01:53.40	17.09	10.80	-40.2	-41.4	20.9	0.00e+00	0	30	0	246415360	54	5991
2026-01-26 18:01:57.44	16.53	11.03	-40.3	-41.5	20.8	0.00e+00	85	30	0	253755392	54	6079
2026-01-26 18:02:01.47	15.96	11.27	-40.1	-41.3	21.1	0.00e+00	0	30	0	262144000	54	5937
2026-01-26 18:02:05.50	15.37	11.50	-39.8	-40.9	21.4	0.00e+00	0	30	0	269484032	54	5660
2026-01-26 18:02:09.53	14.78	11.74	-40.1	-41.3	21.1	0.00e+00	54	30	0	276824064	52	6617
2026-01-26 18:02:13.57	14.18	11.97	-40.1	-41.3	21.1	0.00e+00	0	30	0	284164096	54	5940
2026-01-26 18:02:17.61	13.56	12.20	-40.1	-41.2	21.1	0.00e+00	0	30	0	292552704	54	5893
2026-01-26 18:02:21.64	12.94	12.43	-40.5	-41.7	20.8	0.00e+00	0	30	0	299892736	54	6238
2026-01-26 18:02:25.68	12.31	12.66	-40.3	-41.5	20.9	0.00e+00	60	30	0	307232768	54	6090
2026-01-26 18:02:29.71	11.67	12.89	-40.5	-41.7	20.7	0.00e+00	0	30	0	314572800	54	6243
2026-01-26 18:02:33.75	11.01	13.12	-40.0	-41.2	21.2	0.00e+00	0	30	0	321912832	54	5864
2026-01-26 18:02:37.79	10.35	13.35	-40.6	-41.9	20.6	0.00e+00	0	30	0	330301440	54	6362
2026-01-26 18:02:41.82	9.68	13.57	-39.7	-40.9	21.4	0.00e+00	92	30	0	337641472	52	6336
2026-01-26 18:02:45.86	8.99	13.79	-39.4	-40.5	21.9	0.00e+00	0	30	0	344981504	52	6039
2026-01-26 18:02:49.90	8.30	14.01	-38.4	-39.3	22.8	0.00e+00	0	30	0	352321536	50	5945
2026-01-26 18:02:53.94	7.59	14.23	-38.5	-39.5	22.7	0.00e+00	60	30	0	360710144	50	6086
2026-01-26 18:02:57.98	6.87	14.44	-38.3	-39.3	22.6	0.00e+00	92	30	0	368050176	50	5938
2026-01-26 18:03:02.01	6.15	14.66	-38.2	-39.2	22.9	0.00e+00	0	30	0	375390208	50	5854
2026-01-26 18:03:06.04	5.41	14.86	-38.1	-39.1	23.0	0.00e+00	0	30	0	382730240	50	5780
2026-01-26 18:03:10.08	4.66	15.07	-38.7	-39.7	22.5	0.00e+00	34	30	0	390070272	50	6226
2026-01-26 18:03:14.12	3.91	15.27	-38.6	-39.7	22.5	0.00e+00	0	30	0	398458880	50	6189
2026-01-26 18:03:18.16	3.14	15.47	-38.3	-39.3	22.9	0.00e+00	0	30	0	405798912	50	5915
2026-01-26 18:03:22.19	2.36	15.67	-37.3	-38.2	23.8	0.00e+00	0	30	0	413138944	48	5868
2026-01-26 18:03:26.23	1.57	15.86	-37.6	-38.5	23.5	0.00e+00	92	30	0	420478976	48	6046
2026-01-26 18:03:30.26	0.77	16.05	-37.8	-38.7	23.4	0.00e+00	0	30	0	428867584	48	6193
2026-01-26 18:03:34.30	359.96	16.23	-37.7	-38.7	23.5	0.00e+00	0	30	0	436207616	48	6177
2026-01-26 18:03:38.33	359.14	16.41	-37.5	-38.4	23.5	0.00e+00	0	30	0	443547648	48	6024
2026-01-26 18:03:42.38	358.31	16.58	-37.1	-38.0	23.8	0.00e+00	62	30	0	450887680	48	5731
2026-01-26 18:03:46.41	357.48	16.75	-37.6	-38.5	23.5	0.00e+00	0	30	0	458227712	48	6063
2026-01-26 18:03:50.44	356.63	16.92	-37.6	-38.5	23.6	0.00e+00	0	30	0	466616320	48	6101
2026-01-26 18:03:54.47	355.77	17.08	-38.1	-39.0	23.1	0.00e+00	0	30	0	473956352	48	6458
2026-01-26 18:03:58.51	354.91	17.23	-37.9	-38.9	23.2	0.00e+00	0	30	0	481296384	48	6363
2026-01-26 18:04:02.55	354.03	17.38	-37.0	-37.8	24.0	0.00e+00	0	30	0	488636416	48	5619
2026-01-26 18:04:06.59	353.15	17.52	-36.8	-37.6	24.1	0.00e+00	0	30	0	495976448	46	6128
2026-01-26 18:04:10.63	352.25	17.65	-36.6	-37.4	24.4	0.00e+00	72	30	0	504365056	46	5983
2026-01-26 18:04:14.66	351.35	17.78	-37.4	-38.3	23.7	0.00e+00	0	30	0	511705088	46	6687
2026-01-26 18:04:18.70	350.45	17.90	-37.4	-38.3	23.7	0.00e+00	0	30	0	519045120	48	5950
2026-01-26 18:04:22.73	349.53	18.01	-38.2	-39.2	23.1	0.00e+00	0	30	0	526385152	48	6552
2026-01-26 18:04:26.77	348.61	18.12	-37.7	-38.6	23.4	0.00e+00	92	30	0	534773760	48	6140
2026-01-26 18:04:30.80	347.69	18.22	-38.4	-39.4	22.9	0.00e+00	0	30	0	542113792	48	6696
2026-01-26 18:04:34.84	346.75	18.31	-38.1	-39.0	23.2	0.00e+00	0	30	0	549453824	48	6448
2026-01-26 18:04:38.88	345.81	18.40	-37.8	-38.7	23.4	0.00e+00	0	30	0	556793856	48	6232
2026-01-26 18:04:42.91	344.87	18.47	-38.1	-39.1	23.2	0.00e+00	72	30	0	564133888	48	6478
2026-01-26 18:04:46.95	343.92	18.54	-38.5	-39.5	22.9	0.00e+00	0	30	0	572522496	48	6822
2026-01-26 18:04:50.99	342.96	18.61	-39.0	-40.1	22.2	0.00e+00	0	30	0	579862528	50	6488
2026-01-26 18:04:55.03	342.01	18.66	-40.2	-41.4	21.2	0.00e+00	61	30	0	587202560	52	6765
2026-01-26 18:04:59.07	341.05	18.70	-39.3	-40.4	22.1	0.00e+00	0	30	0	594542592	52	5999
2026-01-26 18:05:03.10	340.09	18.74	-39.0	-40.0	22.4	0.00e+00	0	30	0	602931200	50	6461
2026-01-26 18:05:07.14	339.12	18.77	-38.3	-39.3	22.9	0.00e+00	0	30	0	610271232	50	5924
2026-01-26 18:05:11.17	338.16	18.79	-37.9	-38.9	23.1	0.00e+00	90	30	0	617611264	50	5648
2026-01-26 18:05:15.22	337.19	18.80	-38.3	-39.3	22.9	0.00e+00	0	30	0	624951296	50	5921
2026-01-26 18:05:19.26	336.22	18.80	-38.3	-39.3	22.9	0.00e+00	0	30	0	632291328	50	5944
2026-01-26 18:05:23.29	335.25	18.79	-38.2	-39.2	23.1	0.00e+00	0	30	0	640679936	50	5839
2026-01-26 18:05:27.33	334.28	18.78	-37.8	-38.7	23.4	0.00e+00	92	30	0	648019968	48	6204
2026-01-26 18:05:31.36	333.32	18.76	-38.6	-39.6	22.6	0.00e+00	0	30	0	655360000	48	6876
2026-01-26 18:05:35.40	332.36	18.73	-39.2	-40.3	22.1	0.00e+00	0	30	0	662700032	50	6638
2026-01-26 18:05:39.44	331.39	18.69	-38.1	-39.0	23.2	0.00e+00	54	30	0	671088640	50	5727
2026-01-26 18:05:43.48	330.43	18.64	-37.7	-38.6	23.4	0.00e+00	82	30	0	678428672	48	6130
2026-01-26 18:05:47.51	329.48	18.58	-37.7	-38.6	23.3	0.00e+00	0	30	0	685768704	48	6166
2026-01-26 18:05:51.55	328.53	18.52	-38.0	-38.9	23.3	0.00e+00	0	29	0	693108736	48	6363
2026-01-26 18:05:55.59	327.58	18.45	-37.2	-38.1	23.9	0.00e+00	52	29	0	700448768	48	5788
2026-01-26 18:05:59.63	326.63	18.37	-36.8	-37.6	24.2	0.00e+00	0	30	0	708837376	48	5500
2026-01-26 18:06:03.66	325.70	18.28	-36.9	-37.7	24.1	0.00e+00	0	30	0	716177408	48	5556
2026-01-26 18:06:07.69	324.77	18.18	-37.3	-38.2	23.8	0.00e+00	0	29	0	723517440	48	5848
2026-01-26 18:06:11.73	323.84	18.08	-37.7	-38.6	23.5	0.00e+00	92	29	0	730857472	48	6130
2026-01-26 18:06:15.77	322.92	17.97	-37.9	-38.8	23.4	0.00e+00	0	29	0	738197504	48	6291
2026-01-26 18:06:19.81	322.01	17.85	-38.9	-39.9	22.6	0.00e+00	0	29	0	746586112	50	6364
2026-01-26 18:06:23.84	321.10	17.73	-38.8	-39.8	22.7	0.00e+00	0	30	0	753926144	50	6268
2026-01-26 18:06:27.88	320.21	17.60	-38.8	-39.8	22.6	0.00e+00	92	29	0	761266176	50	6282
2026-01-26 18:06:31.92	319.32	17.46	-38.7	-39.7	22.7	0.00e+00	0	29	0	768606208	50	6184
2026-01-26 18:06:35.96	318.43	17.32	-39.2	-40.3	22.0	0.00e+00	0	29	0	776994816	50	6640
2026-01-26 18:06:40.00	317.56	17.17	-39.1	-40.1	22.3	0.00e+00	5	29	0	784334848	50	6501
2026-01-26 18:06:44.03	316.70	17.02	-38.6	-39.6	22.8	0.00e+00	0	29	0	791674880	50	6144
2026-01-26 18:06:48.08	315.84	16.85	-38.5	-39.5	22.9	0.00e+00	0	29	0	799014912	50	6052
2026-01-26 18:06:52.11	315.00	16.69	-38.3	-39.2	23.0	0.00e+00	0	29	0	806354944	50	5861
2026-01-26 18:06:56.15	314.16	16.52	-37.5	-38.4	23.7	0.00e+00	92	29	0	814743552	48	6001
2026-01-26 18:07:00.18	313.33	16.34	-37.7	-38.6	23.6	0.00e+00	0	29	0	822083584	48	6122
2026-01-26 18:07:04.22	312.52	16.16	-38.6	-39.6	22.8	0.00e+00	0	29	0	829423616	48	6869
2026-01-26 18:07:08.26	311.71	15.98	-40.0	-41.1	21.6	0.00e+00	0	29	0	836763648	52	6492
2026-01-26 18:07:12.30	310.91	15.79	-39.4	-40.5	22.0	0.00e+00	54	29	0	845152256	52	6059
2026-01-26 18:07:16.33	310.13	15.59	-39.5	-40.6	22.0	0.00e+00	0	29	0	852492288	52	6121
2026-01-26 18:07:20.38	309.35	15.40	-39.1	-40.1	22.4	0.00e+00	0	29	0	859832320	52	5763
2026-01-26 18:07:24.41	308.58	15.19	-38.2	-39.1	23.2	0.00e+00	57	29	0	867172352	50	5815
2026-01-26 18:07:28.45	307.83	14.99	-38.0	-38.9	23.3	0.00e+00	23	29	0	874512384	50	5657
2026-01-26 18:07:32.49	307.08	14.78	-38.6	-39.5	22.8	0.00e+00	0	29	0	882900992	50	6068
2026-01-26 18:07:36.53	306.35	14.57	-38.9	-39.9	22.5	0.00e+00	0	29	0	890241024	50	6327
2026-01-26 18:07:40.56	305.63	14.36	-38.3	-39.2	23.1	0.00e+00	51	29	0	897581056	50	5891
2026-01-26 18:07:44.60	304.91	14.14	-38.9	-39.8	22.5	0.00e+00	0	29	0	904921088	50	6306
2026-01-26 18:07:48.64	304.21	13.92	-40.8	-42.1	20.8	0.00e+00	0	29	0	912261120	52	7261
2026-01-26 18:07:52.67	303.52	13.70	-41.5	-42.8	20.2	0.00e+00	0	29	0	920649728	54	7075
2026-01-26 18:07:56.71	302.84	13.48	-40.6	-41.9	20.8	0.00e+00	75	29	0	927989760	54	6326
2026-01-26 18:08:00.75	302.17	13.26	-40.3	-41.5	21.2	0.00e+00	0	29	0	935329792	54	6050
2026-01-26 18:08:04.79	301.50	13.03	-39.7	-40.7	22.0	0.00e+00	0	29	0	942669824	52	6225
2026-01-26 18:08:08.83	300.85	12.80	-40.3	-41.5	21.2	0.00e+00	0	29	0	951058432	52	6771
2026-01-26 18:08:12.86	300.21	12.57	-40.1	-41.2	21.5	0.00e+00	90	29	0	958398464	52	6565
2026-01-26 18:08:16.90	299.58	12.34	-39.3	-40.4	22.2	0.00e+00	0	29	0	965738496	52	5967
2026-01-26 18:08:20.93	298.96	12.11	-39.4	-40.4	22.1	0.00e+00	33	29	0	973078528	52	6029
2026-01-26 18:08:24.97	298.35	11.88	-40.0	-41.1	21.5	0.00e+00	56	29	0	980418560	52	6520
2026-01-26 18:08:29.01	297.75	11.64	-40.2	-41.4	21.4	0.00e+00	0	29	0	988807168	52	6693
2026-01-26 18:08:33.05	297.16	11.41	-39.9	-41.0	21.7	0.00e+00	0	29	0	996147200	52	6437
2026-01-26 18:08:37.08	296.58	11.17	-39.3	-40.4	22.2	0.00e+00	0	29	0	1003487232	52	5973
2026-01-26 18:08:41.12	296.01	10.93	-38.4	-39.3	23.0	0.00e+00	25	29	0	1010827264	50	5936
2026-01-26 18:08:45.16	295.44	10.70	-38.2	-39.1	23.1	0.00e+00	0	29	0	1019215872	50	5780
2026-01-26 18:08:49.19	294.89	10.46	-38.6	-39.6	22.7	0.00e+00	0	29	0	1026555904	50	6106
2026-01-26 18:08:53.23	294.35	10.22	-38.5	-39.5	22.7	0.00e+00	33	29	0	1033895936	50	6070
2026-01-26 18:08:57.26	293.81	9.99	-38.2	-39.1	23.0	0.00e+00	55	29	0	1041235968	50	5807
2026-01-26 18:09:01.30	293.28	9.75	-38.3	-39.2	23.0	0.00e+00	0	29	0	1048576000	50	5862
2026-01-26 18:09:05.33	292.77	9.51	-38.5	-39.5	22.8	0.00e+00	0	29	0	1056964608	50	6052
2026-01-26 18:09:09.37	292.26	9.27	-38.7	-39.7	22.6	0.00e+00	0	29	0	1064304640	50	6216
2026-01-26 18:09:13.40	291.76	9.04	-39.1	-40.1	22.0	0.00e+00	88	29	0	1071644672	50	6536
2026-01-26 18:09:17.44	291.26	8.80	-39.7	-40.9	21.0	0.00e+00	0	29	0	1078984704	50	7094
2026-01-26 18:09:21.47	290.78	8.56	-39.0	-40.1	22.1	0.00e+00	0	29	0	1086324736	52	5762
2026-01-26 18:09:25.51	290.30	8.33	-38.4	-39.3	22.7	0.00e+00	44	29	0	1094713344	50	5955
2026-01-26 18:09:29.54	289.83	8.09	-38.7	-39.7	22.5	0.00e+00	0	29	0	1102053376	50	6205
2026-01-26 18:09:33.58	289.37	7.85	-39.5	-40.5	21.8	0.00e+00	0	29	0	1109393408	50	6845
2026-01-26 18:09:37.62	288.92	7.62	-40.3	-41.5	20.9	0.00e+00	0	29	0	1116733440	52	6848
2026-01-26 18:09:41.65	288.47	7.38	-39.6	-40.7	21.6	0.00e+00	92	29	0	1125122048	52	6190
2026-01-26 18:09:45.69	288.03	7.15	-39.1	-40.2	22.0	0.00e+00	0	29	0	1132462080	52	5843
2026-01-26 18:09:49.73	287.60	6.91	-39.2	-40.3	21.8	0.00e+00	0	29	0	1139802112	52	5918
2026-01-26 18:09:53.77	287.18	6.68	-39.6	-40.7	21.4	0.00e+00	0	29	0	1147142144	52	6203
2026-01-26 18:09:57.80	286.76	6.45	-40.2	-41.4	20.8	0.00e+00	92	29	0	1154482176	52	6737
2026-01-26 18:10:01.84	286.35	6.22	-40.6	-41.9	20.3	0.00e+00	0	29	0	1162870784	52	7111
2026-01-26 18:10:05.87	285.94	5.99	-40.3	-41.6	20.5	0.00e+00	0	29	0	1170210816	54	6139
2026-01-26 18:10:09.91	285.55	5.75	-40.2	-41.4	20.6	0.00e+00	52	28	0	1177550848	54	5990
2026-01-26 18:10:13.95	285.15	5.52	-40.4	-41.6	20.4	0.00e+00	0	29	0	1184890880	54	6164
2026-01-26 18:10:17.99	284.77	5.30	-41.3	-42.8	19.3	0.00e+00	0	29	0	1193279488	54	7029
2026-01-26 18:10:22.03	284.39	5.07	-41.9	-43.5	18.6	0.00e+00	0	29	0	1200619520	56	6833
2026-01-26 18:10:26.07	284.02	4.84	-41.5	-43.1	19.0	0.00e+00	25	29	0	1207959552	56	6478
2026-01-26 18:10:30.11	283.65	4.61	-41.2	-42.6	19.6	0.00e+00	0	29	0	1215299584	56	6148
2026-01-26 18:10:34.15	283.29	4.39	-40.6	-42.0	19.8	0.00e+00	0	28	0	1222639616	54	6406
2026-01-26 18:10:38.19	282.93	4.16	-40.7	-42.0	19.8	0.00e+00	0	28	0	1231028224	54	6452
2026-01-26 18:10:42.22	282.58	3.94	-41.2	-42.8	19.1	0.00e+00	91	28	0	1238368256	54	7015
2026-01-26 18:10:46.26	282.24	3.71	-41.6	-43.2	18.6	0.00e+00	0	28	0	1245708288	56	6571
2026-01-26 18:10:50.30	281.90	3.49	-41.4	-43.0	18.9	0.00e+00	0	28	0	1253048320	54	7173
2026-01-26 18:10:54.34	281.57	3.27	-40.7	-42.1	19.4	0.00e+00	0	28	0	1261436928	54	6532
2026-01-26 18:10:58.38	281.24	3.05	-41.0	-42.6	19.1	0.00e+00	92	29	0	1268776960	54	6867
2026-01-26 18:11:02.42	280.91	2.83	-48.9	-64.1	3.6	1.51e+00	0	28	104	1270874112	60	58105
2026-01-26 18:11:06.46	280.59	2.61	-49.2	-64.3	3.6	1.51e+00	0	28	104	1270874112	60	59468
2026-01-26 18:11:10.50	280.28	2.39	-49.3	-64.4	3.6	1.51e+00	0	29	104	1270874112	60	60068
2026-01-26 18:11:14.54	279.97	2.17	-49.1	-64.4	3.6	1.51e+00	0	28	104	1270874112	60	59731
2026-01-26 18:11:18.58	279.67	1.96	-49.0	-64.3	3.6	1.51e+00	0	28	104	1270874112	60	59109
2026-01-26 18:11:22.62	279.37	1.74	-48.8	-64.2	3.6	1.51e+00	0	29	104	1270874112	60	58932
2026-01-26 18:11:26.66	279.07	1.53	-49.4	-64.6	3.6	1.51e+00	0	28	104	1270874112	60	61257
2026-01-26 18:11:30.70	278.78	1.31	-49.5	-64.7	3.6	1.51e+00	0	29	104	1270874112	60	62257
2026-01-26 18:11:34.74	278.50	1.10	-49.4	-64.5	3.6	1.51e+00	0	28	104	1270874112	60	60865
2026-01-26 18:11:38.78	278.21	0.89	-49.2	-64.5	3.6	1.51e+00	0	28	104	1270874112	60	60514
2026-01-26 18:11:42.82	277.94	0.67	-49.4	-64.6	3.6	1.51e+00	0	28	104	1270874112	60	61720
2026-01-26 18:11:46.86	277.66	0.46	-49.3	-64.5	3.5	1.51e+00	0	29	104	1270874112	60	60835
2026-01-26 18:11:50.90	277.39	0.26	-49.4	-64.6	3.6	1.51e+00	0	29	104	1270874112	60	61326
2026-01-26 18:11:54.94	277.13	0.05	-49.7	-64.9	3.6	1.51e+00	0	28	104	1270874112	60	63505

#Closed at: 2026-01-26 18:11:57
#Recorded file [1270 MB]: D:/lorett/data/35029_260127_055843.dat