passes_logs/2026/01/26/R4.6S_Anadyr/R4.6S_Anadyr__20260126_041547_AQUA_rec.log

#Pass ID: 20260126_041547_AQUA
#Satellite: AQUA
#Configuration: AQUA
#almurnet v.1.7.20251203
#Start time: 2026-01-26 04:15:49

#Version: 2.2.20231116
#Station: R4.6S_Anadyr
#Location: 177.4865 lon 64.73178 lat
#TLE: 1 27424U 02022A   26025.50647354  .00001868  00000+0  38363-3 0  9992
#TLE: 2 27424  98.4099 352.1114 0001896  65.7986  47.0097 14.61858879262422

#Time	Az	El	Level	Level2	SNR	BER	BlckErr	Temp	State	Recorded	gain1	gain2
2026-01-26 04:15:49.25	219.72	0.08	-50.7	-62.3	3.5	8.46e-01	0	26	0	0	60	47099
2026-01-26 04:15:52.27	219.98	0.23	-50.4	-68.4	3.5	3.02e+01	0	28	104	0	60	100757
2026-01-26 04:15:55.30	220.24	0.39	-51.0	-69.0	3.5	3.02e+01	0	28	104	0	60	108706
2026-01-26 04:15:58.33	220.50	0.54	-50.4	-68.6	3.5	3.02e+01	0	27	104	0	60	103071
2026-01-26 04:16:01.36	220.76	0.69	-51.0	-69.0	3.5	3.02e+01	0	28	104	0	60	107900
2026-01-26 04:16:04.39	221.03	0.85	-50.8	-68.8	3.5	3.02e+01	0	28	104	0	60	105681
2026-01-26 04:16:07.42	221.30	1.00	-50.4	-68.3	3.5	3.02e+01	0	28	104	0	60	99569
2026-01-26 04:16:10.45	221.57	1.16	-49.7	-67.5	3.5	3.02e+01	0	28	104	0	60	91735
2026-01-26 04:16:13.48	221.85	1.31	-48.1	-66.6	3.5	3.02e+01	0	28	104	0	60	82494
2026-01-26 04:16:16.51	222.13	1.47	-47.3	-65.3	3.5	3.02e+01	0	28	104	0	60	70549
2026-01-26 04:16:19.53	222.41	1.63	-47.4	-65.4	3.5	3.02e+01	0	28	104	0	60	71430
2026-01-26 04:16:22.56	222.69	1.78	-47.3	-65.3	3.5	3.02e+01	0	28	104	0	60	70898
2026-01-26 04:16:25.59	222.98	1.94	-47.5	-65.5	3.5	3.02e+01	0	28	104	0	60	72540
2026-01-26 04:16:28.62	223.27	2.10	-47.4	-65.2	3.5	3.02e+01	0	28	104	0	60	69841
2026-01-26 04:16:31.65	223.57	2.26	-47.3	-64.9	3.5	3.02e+01	0	28	104	0	60	67994
2026-01-26 04:16:34.68	223.87	2.41	-47.3	-65.1	3.5	3.02e+01	0	28	104	0	60	68939
2026-01-26 04:16:37.71	224.17	2.57	-47.3	-64.0	3.5	3.02e+01	0	28	104	0	60	60777
2026-01-26 04:16:40.74	224.47	2.73	-46.8	-55.9	7.6	3.02e+01	92	28	0	1572864	60	23868
2026-01-26 04:16:43.76	224.78	2.89	-43.8	-47.2	17.9	3.02e+01	92	28	0	7340032	60	8774
2026-01-26 04:16:46.79	225.09	3.05	-43.8	-47.0	18.0	3.02e+01	92	28	0	12582912	60	8616
2026-01-26 04:16:49.83	225.41	3.21	-46.9	-54.9	9.5	3.02e+01	90	29	0	18350080	60	21446
2026-01-26 04:16:52.85	225.73	3.37	-43.2	-48.0	17.1	3.02e+01	92	28	0	21495808	60	9722
2026-01-26 04:16:55.88	226.05	3.53	-42.6	-47.3	18.2	3.02e+01	90	28	0	27262976	60	8893
2026-01-26 04:16:58.91	226.38	3.69	-42.4	-47.0	18.6	3.02e+01	90	28	0	33030144	60	8600
2026-01-26 04:17:01.94	226.71	3.86	-43.4	-48.0	17.3	3.02e+01	90	28	0	38797312	60	9693
2026-01-26 04:17:04.97	227.04	4.02	-44.1	-47.9	18.0	3.02e+01	90	28	0	44564480	60	9608
2026-01-26 04:17:07.99	227.38	4.18	-44.4	-48.8	16.7	3.02e+01	90	28	0	50331648	60	10596
2026-01-26 04:17:11.02	227.72	4.34	-43.5	-47.8	17.8	3.02e+01	92	28	0	56098816	60	9486
2026-01-26 04:17:14.05	228.07	4.51	-43.2	-49.1	17.0	3.02e+01	91	29	0	61341696	60	10983
2026-01-26 04:17:17.08	228.42	4.67	-44.1	-48.8	16.6	3.02e+01	90	29	0	67108864	60	10628
2026-01-26 04:17:20.11	228.77	4.83	-44.8	-48.6	16.7	3.02e+01	91	29	0	72876032	60	10381
2026-01-26 04:17:23.13	229.13	5.00	-45.5	-49.6	16.4	3.02e+01	92	29	0	78643200	60	11668
2026-01-26 04:17:26.16	229.49	5.16	-45.0	-50.5	15.2	3.02e+01	92	29	0	84410368	60	12839
2026-01-26 04:17:29.19	229.86	5.33	-46.1	-51.4	14.9	3.02e+01	91	29	0	89653248	60	14274
2026-01-26 04:17:32.22	230.23	5.49	-45.6	-50.9	15.0	3.02e+01	86	29	0	95420416	60	13536
2026-01-26 04:17:35.25	230.61	5.66	-45.5	-51.5	14.5	3.02e+01	92	29	0	101187584	60	14422
2026-01-26 04:17:38.27	230.99	5.82	-45.8	-50.7	15.6	3.02e+01	90	29	0	106954752	60	13239
2026-01-26 04:17:41.30	231.37	5.99	-46.3	-50.6	15.7	3.02e+01	92	29	0	112721920	60	12979
2026-01-26 04:17:44.33	231.76	6.15	-46.0	-50.5	15.8	3.02e+01	92	29	0	118489088	60	12835
2026-01-26 04:17:47.36	232.16	6.32	-46.0	-50.8	15.5	3.02e+01	92	29	0	123731968	60	13388
2026-01-26 04:17:50.39	232.56	6.48	-45.8	-50.2	15.9	3.02e+01	91	29	0	129499136	60	12394
2026-01-26 04:17:53.42	232.96	6.65	-45.3	-50.4	15.4	3.02e+01	90	29	0	135266304	60	12803
2026-01-26 04:17:56.45	233.37	6.81	-45.5	-50.0	15.5	3.02e+01	91	29	0	141033472	60	12119
2026-01-26 04:17:59.47	233.78	6.98	-45.9	-50.2	15.7	3.02e+01	92	29	0	146800640	60	12511
2026-01-26 04:18:02.50	234.20	7.14	-45.9	-50.1	16.0	3.02e+01	92	29	0	152567808	60	12327
2026-01-26 04:18:05.53	234.63	7.31	-45.8	-50.0	16.5	3.02e+01	91	29	0	157810688	60	12160
2026-01-26 04:18:08.55	235.05	7.48	-46.0	-50.1	16.4	3.02e+01	91	29	0	163577856	60	12299
2026-01-26 04:18:11.58	235.49	7.64	-45.9	-49.7	17.2	3.02e+01	92	29	0	169345024	60	11824
2026-01-26 04:18:14.61	235.93	7.81	-45.5	-48.9	17.7	3.02e+01	92	29	0	175112192	60	10696
2026-01-26 04:18:17.64	236.37	7.97	-45.3	-48.5	18.5	3.02e+01	92	29	0	180879360	60	10213
2026-01-26 04:18:20.67	236.82	8.14	-44.6	-47.5	19.3	3.02e+01	91	29	0	186646528	60	9125
2026-01-26 04:18:23.69	237.27	8.30	-44.2	-46.9	19.4	3.02e+01	92	29	0	191889408	60	8537
2026-01-26 04:18:26.72	237.74	8.46	-44.0	-46.5	19.8	3.02e+01	92	29	0	197656576	60	8135
2026-01-26 04:18:29.75	238.20	8.63	-44.2	-46.7	19.7	3.02e+01	92	29	0	203423744	60	8349
2026-01-26 04:18:32.78	238.67	8.79	-43.2	-45.5	21.0	3.02e+01	92	29	0	209190912	60	7268
2026-01-26 04:18:35.81	239.15	8.96	-42.9	-45.2	21.2	3.02e+01	92	29	0	214958080	60	6983
2026-01-26 04:18:38.84	239.63	9.12	-42.4	-44.5	21.8	3.02e+01	92	29	0	220725248	60	6472
2026-01-26 04:18:41.87	240.12	9.28	-41.6	-43.5	22.8	3.02e+01	89	29	0	225968128	58	6485
2026-01-26 04:18:44.89	240.61	9.44	-41.6	-43.4	23.3	3.02e+01	92	29	0	231735296	58	6419
2026-01-26 04:18:47.92	241.11	9.60	-41.0	-42.7	23.9	3.02e+01	91	29	0	237502464	56	6617
2026-01-26 04:18:50.94	241.62	9.76	-40.3	-41.9	24.7	3.02e+01	92	29	0	243269632	56	5996
2026-01-26 04:18:53.98	242.13	9.92	-39.3	-40.8	25.4	3.02e+01	92	29	0	249036800	54	5983
2026-01-26 04:18:57.01	242.65	10.08	-39.2	-40.7	25.8	3.02e+01	92	29	0	254279680	52	6637
2026-01-26 04:19:00.03	243.17	10.24	-39.0	-40.4	25.9	3.02e+01	92	29	0	260046848	52	6407
2026-01-26 04:19:03.06	243.70	10.40	-38.9	-40.3	25.8	3.02e+01	92	29	0	265814016	52	6333
2026-01-26 04:19:06.09	244.24	10.56	-38.1	-39.5	26.9	3.02e+01	92	29	0	271581184	50	6451
2026-01-26 04:19:09.12	244.78	10.71	-40.0	-41.4	25.8	3.02e+01	91	29	0	277348352	50	8065
2026-01-26 04:19:12.15	245.32	10.87	-37.6	-38.9	27.6	3.02e+01	90	29	0	283115520	50	5999
2026-01-26 04:19:15.18	245.88	11.02	-37.6	-39.0	27.7	3.02e+01	92	29	0	288882688	50	6067
2026-01-26 04:19:18.21	246.44	11.17	-37.0	-38.2	28.0	3.02e+01	90	29	0	294125568	48	6272
2026-01-26 04:19:21.24	247.00	11.32	-37.8	-39.1	27.9	3.02e+01	92	29	0	299892736	48	6935
2026-01-26 04:19:24.26	247.57	11.47	-37.0	-38.2	28.3	3.02e+01	92	28	0	305659904	50	5582
2026-01-26 04:19:27.29	248.15	11.62	-36.7	-38.0	28.3	3.02e+01	92	29	0	311427072	48	6112
2026-01-26 04:19:30.31	248.73	11.76	-36.3	-37.6	28.6	3.02e+01	92	29	0	317194240	48	5804
2026-01-26 04:19:33.34	249.32	11.91	-36.5	-37.8	28.5	3.02e+01	87	29	0	322437120	48	5933
2026-01-26 04:19:36.36	249.91	12.05	-37.2	-38.5	28.1	3.02e+01	90	29	0	328204288	48	6488
2026-01-26 04:19:39.39	250.52	12.19	-37.1	-38.4	28.4	3.02e+01	95	29	0	333971456	48	6377
2026-01-26 04:19:42.42	251.12	12.33	-37.2	-38.4	28.6	3.02e+01	91	29	0	339738624	48	6378
2026-01-26 04:19:45.45	251.74	12.47	-36.6	-37.8	28.7	3.02e+01	92	29	0	345505792	48	5966
2026-01-26 04:19:48.48	252.36	12.61	-36.8	-38.1	28.4	3.02e+01	92	29	0	351272960	48	6156
2026-01-26 04:19:51.50	252.98	12.74	-37.0	-38.3	28.1	3.02e+01	92	29	0	356515840	48	6297
2026-01-26 04:19:54.53	253.61	12.87	-37.2	-38.5	28.6	3.02e+01	92	29	0	362283008	48	6472
2026-01-26 04:19:57.56	254.25	13.00	-36.5	-37.7	28.8	3.02e+01	88	29	0	368050176	48	5899
2026-01-26 04:20:00.60	254.89	13.13	-36.3	-37.6	28.6	3.02e+01	91	29	0	373817344	48	5803
2026-01-26 04:20:03.62	255.54	13.25	-36.2	-37.4	28.7	3.02e+01	92	29	0	379584512	48	5722
2026-01-26 04:20:06.65	256.20	13.37	-36.4	-37.6	28.6	3.02e+01	91	29	0	385351680	48	5846
2026-01-26 04:20:09.68	256.86	13.49	-36.8	-38.1	28.2	3.02e+01	92	29	0	390594560	48	6154
2026-01-26 04:20:12.71	257.52	13.61	-36.6	-37.9	28.9	3.02e+01	92	29	0	396361728	48	6000
2026-01-26 04:20:15.74	258.19	13.72	-37.4	-38.6	28.6	3.02e+01	91	29	0	402128896	50	5854
2026-01-26 04:20:18.77	258.87	13.83	-36.6	-37.9	28.7	3.02e+01	92	29	0	407896064	48	6001
2026-01-26 04:20:21.80	259.55	13.94	-36.7	-37.9	28.5	3.02e+01	91	29	0	413663232	48	6039
2026-01-26 04:20:24.82	260.23	14.04	-36.3	-37.5	28.9	3.02e+01	91	29	0	419430400	48	5747
2026-01-26 04:20:27.85	260.92	14.14	-36.0	-37.2	29.0	3.02e+01	92	29	0	424673280	46	6239
2026-01-26 04:20:30.88	261.62	14.24	-36.2	-37.4	29.0	3.02e+01	90	29	0	430440448	46	6411
2026-01-26 04:20:33.91	262.32	14.34	-35.8	-37.0	29.3	3.02e+01	92	29	0	436207616	46	6113
2026-01-26 04:20:36.94	263.03	14.43	-36.1	-37.3	28.9	3.02e+01	92	29	0	441974784	46	6327
2026-01-26 04:20:39.96	263.73	14.52	-36.6	-37.8	28.8	3.02e+01	92	29	0	447741952	46	6707
2026-01-26 04:20:42.99	264.45	14.60	-37.4	-38.6	28.9	3.02e+01	92	29	0	453509120	48	6567
2026-01-26 04:20:46.02	265.17	14.68	-37.1	-38.3	28.4	3.02e+01	92	29	0	458752000	48	6345
2026-01-26 04:20:49.05	265.89	14.76	-36.0	-37.2	28.7	3.02e+01	90	29	0	464519168	48	5591
2026-01-26 04:20:52.08	266.61	14.83	-36.3	-37.5	28.8	3.02e+01	92	29	0	470286336	46	6481
2026-01-26 04:20:55.11	267.34	14.90	-35.8	-37.0	29.2	3.02e+01	92	29	0	476053504	46	6090
2026-01-26 04:20:58.13	268.07	14.97	-35.8	-37.1	29.1	3.02e+01	90	29	0	481820672	46	6140
2026-01-26 04:21:01.16	268.81	15.03	-36.0	-37.2	29.1	3.02e+01	92	29	0	487587840	46	6248
2026-01-26 04:21:04.19	269.55	15.08	-36.2	-37.4	28.5	3.02e+01	92	29	0	492830720	46	6414
2026-01-26 04:21:07.22	270.29	15.14	-36.1	-37.3	29.1	3.02e+01	92	29	0	498597888	48	5650
2026-01-26 04:21:10.25	271.03	15.19	-37.0	-38.3	28.4	3.02e+01	90	29	0	504365056	48	6302
2026-01-26 04:21:13.28	271.78	15.23	-36.1	-37.3	29.2	3.02e+01	92	29	0	510132224	48	5615
2026-01-26 04:21:16.30	272.53	15.27	-36.7	-38.0	28.4	3.02e+01	92	29	0	515899392	46	6843
2026-01-26 04:21:19.33	273.28	15.31	-36.0	-37.2	28.9	3.02e+01	92	29	0	521666560	46	6252
2026-01-26 04:21:22.36	274.03	15.34	-36.0	-37.2	29.2	3.02e+01	92	29	0	526909440	46	6253
2026-01-26 04:21:25.39	274.78	15.37	-35.9	-37.1	29.1	3.02e+01	92	29	0	532676608	46	6198
2026-01-26 04:21:28.41	275.54	15.39	-35.7	-36.9	29.4	3.02e+01	92	29	0	538443776	46	6059
2026-01-26 04:21:31.44	276.29	15.41	-35.9	-37.1	29.3	3.02e+01	89	29	0	544210944	46	6202
2026-01-26 04:21:34.47	277.05	15.42	-36.3	-37.5	28.9	3.02e+01	92	29	0	549978112	46	6482
2026-01-26 04:21:37.50	277.81	15.43	-35.9	-37.2	29.1	3.02e+01	85	29	0	555220992	46	6215
2026-01-26 04:21:40.52	278.56	15.44	-35.8	-37.0	29.0	3.02e+01	92	29	0	560988160	46	6094
2026-01-26 04:21:43.55	279.32	15.44	-36.1	-37.4	28.8	3.02e+01	91	29	0	566755328	46	6363
2026-01-26 04:21:46.58	280.08	15.43	-36.0	-37.2	29.0	3.02e+01	91	29	0	572522496	46	6230
2026-01-26 04:21:49.61	280.84	15.42	-35.8	-37.0	29.3	3.02e+01	91	29	0	578289664	46	6108
2026-01-26 04:21:52.63	281.59	15.41	-35.8	-37.0	29.2	3.02e+01	92	29	0	584056832	46	6085
2026-01-26 04:21:55.66	282.35	15.39	-36.0	-37.2	28.8	3.02e+01	92	29	0	589824000	46	6249
2026-01-26 04:21:58.69	283.10	15.37	-35.8	-37.0	28.9	3.02e+01	92	29	0	595066880	46	6117
2026-01-26 04:22:01.72	283.86	15.35	-35.9	-37.1	29.2	3.02e+01	92	29	0	600834048	46	6176
2026-01-26 04:22:04.74	284.60	15.32	-36.1	-37.3	29.0	3.02e+01	92	29	0	606601216	46	6339
2026-01-26 04:22:07.77	285.36	15.28	-36.0	-37.2	29.3	3.02e+01	90	29	0	612368384	46	6225
2026-01-26 04:22:10.80	286.10	15.24	-36.2	-37.4	29.2	3.02e+01	92	29	0	618135552	46	6419
2026-01-26 04:22:13.83	286.85	15.20	-37.0	-38.2	28.7	3.02e+01	92	29	0	623378432	46	7010
2026-01-26 04:22:16.86	287.59	15.15	-36.2	-37.5	28.9	3.02e+01	91	29	0	629145600	48	5728
2026-01-26 04:22:19.89	288.33	15.10	-36.1	-37.3	29.0	3.02e+01	90	29	0	634912768	46	6295
2026-01-26 04:22:22.92	289.07	15.04	-36.3	-37.6	28.9	3.02e+01	91	29	0	640679936	46	6503
2026-01-26 04:22:25.95	289.81	14.98	-36.9	-38.1	28.5	3.02e+01	92	29	0	646447104	48	6156
2026-01-26 04:22:28.97	290.54	14.92	-37.2	-38.4	27.9	3.02e+01	92	29	0	652214272	48	6406
2026-01-26 04:22:32.00	291.26	14.85	-37.4	-38.7	27.8	3.02e+01	90	29	0	657457152	50	5875
2026-01-26 04:22:35.03	291.99	14.78	-36.7	-38.0	28.7	3.02e+01	88	29	0	663224320	48	6075
2026-01-26 04:22:38.06	292.71	14.70	-37.1	-38.3	28.7	3.02e+01	89	29	0	668991488	48	6332
2026-01-26 04:22:41.09	293.43	14.62	-37.6	-38.9	28.0	3.02e+01	89	29	0	674758656	50	6055
2026-01-26 04:22:44.12	294.14	14.54	-37.2	-38.5	27.8	3.02e+01	92	29	0	680525824	50	5739
2026-01-26 04:22:47.15	294.85	14.45	-38.6	-39.9	27.5	3.02e+01	92	29	0	686292992	50	6768
2026-01-26 04:22:50.18	295.55	14.36	-37.8	-39.1	27.0	3.02e+01	92	29	0	691535872	50	6195
2026-01-26 04:22:53.21	296.25	14.27	-38.1	-39.4	27.8	3.02e+01	92	29	0	697303040	50	6411
2026-01-26 04:22:56.23	296.95	14.17	-38.7	-40.1	26.8	3.02e+01	91	29	0	703070208	50	6909
2026-01-26 04:22:59.26	297.64	14.07	-38.3	-39.6	27.4	3.02e+01	90	29	0	708837376	52	5813
2026-01-26 04:23:02.29	298.32	13.97	-38.6	-39.9	27.6	3.02e+01	92	29	0	714604544	52	6019
2026-01-26 04:23:05.32	299.00	13.86	-40.2	-41.6	26.5	3.02e+01	92	29	0	720371712	54	6538
2026-01-26 04:23:08.35	299.68	13.75	-39.1	-40.4	26.3	3.02e+01	90	29	0	725614592	54	5721
2026-01-26 04:23:11.38	300.34	13.64	-40.1	-41.7	26.0	3.02e+01	92	29	0	731381760	52	7395
2026-01-26 04:23:14.41	301.01	13.53	-39.9	-41.3	26.2	3.02e+01	92	29	0	737148928	56	5635
2026-01-26 04:23:17.44	301.67	13.41	-39.7	-41.2	25.8	3.02e+01	91	29	0	742916096	52	7005
2026-01-26 04:23:20.47	302.32	13.29	-39.5	-40.9	26.8	3.02e+01	92	29	0	748683264	52	6797
2026-01-26 04:23:23.50	302.97	13.17	-38.6	-40.0	27.2	3.02e+01	92	29	0	754450432	52	6093
2026-01-26 04:23:26.53	303.61	13.04	-38.7	-40.1	27.4	3.02e+01	92	29	0	759693312	50	6904
2026-01-26 04:23:29.56	304.25	12.91	-37.4	-38.7	27.9	3.02e+01	92	29	0	765460480	50	5912
2026-01-26 04:23:32.59	304.88	12.78	-37.9	-39.2	27.7	3.02e+01	90	29	0	771227648	50	6227
2026-01-26 04:23:35.62	305.50	12.65	-37.5	-38.8	27.9	3.02e+01	88	29	0	776994816	50	5956
2026-01-26 04:23:38.64	306.12	12.52	-38.5	-39.8	27.8	3.02e+01	92	29	0	782761984	52	5963
2026-01-26 04:23:41.67	306.73	12.38	-38.0	-39.3	28.4	3.02e+01	90	29	0	788529152	50	6289
2026-01-26 04:23:44.70	307.34	12.24	-37.4	-38.7	28.4	3.02e+01	92	29	0	793772032	50	5892
2026-01-26 04:23:47.73	307.94	12.10	-37.8	-39.0	28.5	3.02e+01	92	29	0	799539200	50	6110
2026-01-26 04:23:50.75	308.53	11.96	-38.0	-39.2	27.9	3.02e+01	92	29	0	805306368	50	6270
2026-01-26 04:23:53.78	309.12	11.82	-38.8	-40.1	27.0	3.02e+01	63	29	0	811073536	50	6922
2026-01-26 04:23:56.81	309.70	11.67	-37.3	-38.5	27.2	3.02e+01	59	29	0	816840704	52	5122
2026-01-26 04:23:59.84	310.28	11.53	-38.1	-39.3	28.3	3.02e+01	59	29	0	822607872	48	7113
2026-01-26 04:24:02.86	310.84	11.38	-38.4	-39.7	28.0	3.02e+01	61	29	0	827850752	50	6614
2026-01-26 04:24:05.89	311.41	11.23	-38.4	-39.8	28.1	3.02e+01	59	29	0	833617920	50	6660
2026-01-26 04:24:08.92	311.97	11.08	-37.6	-38.9	28.0	3.02e+01	46	29	0	839385088	50	6026
2026-01-26 04:24:11.95	312.52	10.93	-38.0	-39.3	28.1	3.02e+01	46	29	0	845152256	52	5622
2026-01-26 04:24:14.98	313.07	10.78	-37.6	-38.9	27.8	3.02e+01	56	29	0	850919424	50	6033
2026-01-26 04:24:18.01	313.61	10.62	-37.3	-38.5	28.5	3.02e+01	62	29	0	856686592	50	5757
2026-01-26 04:24:21.04	314.14	10.47	-37.4	-38.6	27.8	3.02e+01	58	29	0	861929472	50	5853
2026-01-26 04:24:24.07	314.67	10.31	-38.4	-39.7	28.3	3.02e+01	60	29	0	867696640	50	6604
2026-01-26 04:24:27.09	315.19	10.16	-37.0	-38.2	28.6	3.02e+01	58	29	0	873463808	50	5569
2026-01-26 04:24:30.12	315.71	10.00	-38.1	-39.3	27.8	3.02e+01	57	29	0	879230976	52	5652
2026-01-26 04:24:33.15	316.22	9.84	-38.8	-40.2	27.2	3.02e+01	51	29	0	884998144	52	6228
2026-01-26 04:24:36.18	316.72	9.68	-39.4	-40.8	26.6	3.02e+01	59	29	0	890765312	54	5960
2026-01-26 04:24:39.21	317.22	9.52	-39.5	-40.9	26.5	3.02e+01	60	29	0	896008192	54	6023
2026-01-26 04:24:42.23	317.71	9.36	-40.2	-41.6	26.3	3.02e+01	58	29	0	901775360	54	6525
2026-01-26 04:24:45.26	318.20	9.20	-37.9	-39.2	27.3	3.02e+01	58	29	0	907542528	50	6232
2026-01-26 04:24:48.29	318.68	9.04	-37.9	-39.2	27.3	3.02e+01	57	29	0	913309696	50	6261
2026-01-26 04:24:51.32	319.16	8.88	-37.9	-39.2	27.2	3.02e+01	61	29	0	919076864	50	6242
2026-01-26 04:24:54.34	319.63	8.72	-38.2	-39.4	27.6	3.02e+01	57	29	0	924319744	50	6418
2026-01-26 04:24:57.37	320.09	8.55	-37.4	-38.6	27.7	3.02e+01	55	29	0	930086912	50	5853
2026-01-26 04:25:00.39	320.55	8.39	-37.4	-38.7	27.9	3.02e+01	61	29	0	935854080	50	5875
2026-01-26 04:25:03.42	321.01	8.23	-37.5	-38.8	27.9	3.02e+01	59	29	0	941621248	50	5953
2026-01-26 04:25:06.45	321.46	8.07	-38.1	-39.4	27.8	3.02e+01	59	29	0	947388416	50	6359
2026-01-26 04:25:09.48	321.90	7.90	-37.0	-38.3	27.9	3.02e+01	59	29	0	953155584	50	5604
2026-01-26 04:25:12.51	322.34	7.74	-37.8	-39.1	27.5	3.02e+01	58	29	0	958398464	48	6912
2026-01-26 04:25:15.53	322.77	7.57	-37.7	-39.0	27.5	3.02e+01	44	29	0	964165632	48	6851
2026-01-26 04:25:18.56	323.20	7.41	-37.9	-39.2	27.6	3.02e+01	46	29	0	969932800	50	6217
2026-01-26 04:25:21.59	323.63	7.25	-37.6	-38.9	27.5	3.02e+01	61	29	0	975699968	50	6046
2026-01-26 04:25:24.62	324.04	7.08	-38.2	-39.6	27.4	3.02e+01	62	29	0	981467136	50	6499
2026-01-26 04:25:27.65	324.46	6.92	-37.8	-39.1	27.5	3.02e+01	58	29	0	987234304	50	6166
2026-01-26 04:25:30.67	324.87	6.75	-37.8	-39.1	27.2	3.02e+01	57	29	0	992477184	50	6194
2026-01-26 04:25:33.70	325.27	6.59	-38.8	-40.2	27.0	3.02e+01	59	29	0	998244352	50	6990
2026-01-26 04:25:36.73	325.67	6.43	-38.8	-40.2	27.2	3.02e+01	52	29	0	1004011520	50	6975
2026-01-26 04:25:39.76	326.06	6.26	-38.5	-39.9	27.3	3.02e+01	46	29	0	1009778688	52	6030
2026-01-26 04:25:42.79	326.45	6.10	-38.4	-39.7	26.9	3.02e+01	48	29	0	1015545856	52	5924
2026-01-26 04:25:45.82	326.84	5.93	-38.0	-39.4	26.8	3.02e+01	58	29	0	1021313024	52	5667
2026-01-26 04:25:48.84	327.22	5.77	-38.2	-39.6	26.5	3.02e+01	58	29	0	1026555904	50	6523
2026-01-26 04:25:51.87	327.60	5.61	-38.2	-39.6	26.1	3.02e+01	59	29	0	1032323072	50	6549
2026-01-26 04:25:54.90	327.97	5.45	-39.0	-40.4	26.2	3.02e+01	58	29	0	1038090240	50	7189
2026-01-26 04:25:57.93	328.34	5.28	-38.3	-39.7	26.3	3.02e+01	56	29	0	1043857408	52	5872
2026-01-26 04:26:00.96	328.70	5.12	-38.4	-39.8	26.5	3.02e+01	44	29	0	1049624576	50	6676
2026-01-26 04:26:03.98	329.06	4.96	-39.8	-41.3	25.7	3.02e+01	52	29	0	1055391744	52	7047
2026-01-26 04:26:07.01	329.41	4.80	-39.4	-40.9	25.6	3.02e+01	59	29	0	1060634624	52	6749
2026-01-26 04:26:10.04	329.76	4.63	-40.2	-41.7	25.5	3.02e+01	56	29	0	1066401792	54	6602
2026-01-26 04:26:13.07	330.11	4.47	-39.4	-40.9	25.2	3.02e+01	59	29	0	1072168960	54	6035
2026-01-26 04:26:16.10	330.45	4.31	-39.1	-40.6	25.5	3.02e+01	59	29	0	1077936128	52	6519
2026-01-26 04:26:19.12	330.79	4.15	-39.3	-40.8	25.3	3.02e+01	61	29	0	1083703296	52	6699
2026-01-26 04:26:22.15	331.13	3.99	-38.7	-40.2	25.4	3.02e+01	55	29	0	1088946176	52	6272
2026-01-26 04:26:25.19	331.46	3.83	-41.2	-43.0	22.9	3.02e+01	54	29	0	1094713344	56	6864
2026-01-26 04:26:28.21	331.79	3.67	-42.8	-45.4	19.5	3.02e+01	60	29	0	1100480512	58	8072
2026-01-26 04:26:31.24	332.11	3.51	-44.2	-49.5	13.5	3.02e+01	55	29	0	1106247680	60	11490
2026-01-26 04:26:34.27	332.43	3.35	-45.2	-55.2	6.7	3.02e+01	92	29	0	1112014848	60	22234
2026-01-26 04:26:37.30	332.75	3.19	-45.5	-60.9	3.8	3.02e+01	0	29	104	1114636288	60	42518
2026-01-26 04:26:40.33	333.06	3.03	-44.9	-62.5	3.5	3.02e+01	0	29	104	1114636288	60	51498
2026-01-26 04:26:43.36	333.37	2.87	-49.7	-67.6	3.5	3.02e+01	0	29	104	1114636288	60	92695
2026-01-26 04:26:46.39	333.68	2.72	-50.0	-68.1	3.5	3.02e+01	0	29	104	1114636288	60	97479
2026-01-26 04:26:49.42	333.98	2.56	-50.4	-68.4	3.5	3.02e+01	0	29	104	1114636288	60	100994
2026-01-26 04:26:52.45	334.28	2.40	-50.2	-68.1	3.5	3.02e+01	0	29	104	1114636288	60	98321
2026-01-26 04:26:55.48	334.57	2.25	-50.8	-68.7	3.5	3.02e+01	0	29	104	1114636288	60	105038
2026-01-26 04:26:58.50	334.87	2.09	-50.4	-68.3	3.5	3.02e+01	0	29	104	1114636288	60	100360
2026-01-26 04:27:01.53	335.16	1.93	-50.7	-68.6	3.5	3.02e+01	0	29	104	1114636288	60	103210
2026-01-26 04:27:04.56	335.44	1.78	-50.6	-68.4	3.5	3.02e+01	0	29	104	1114636288	60	101655
2026-01-26 04:27:07.59	335.73	1.62	-50.3	-68.1	3.5	3.02e+01	0	29	104	1114636288	60	98032
2026-01-26 04:27:10.62	336.01	1.47	-50.7	-68.5	3.5	3.02e+01	0	29	104	1114636288	60	102263
2026-01-26 04:27:13.65	336.28	1.31	-50.7	-68.5	3.5	3.02e+01	0	29	104	1114636288	60	102825
2026-01-26 04:27:16.67	336.56	1.16	-50.6	-68.4	3.5	3.02e+01	0	29	104	1114636288	60	101721
2026-01-26 04:27:19.70	336.83	1.01	-50.8	-68.6	3.5	3.02e+01	0	29	104	1114636288	60	104045
2026-01-26 04:27:22.73	337.10	0.85	-50.4	-68.2	3.5	3.02e+01	0	29	104	1114636288	60	98945
2026-01-26 04:27:25.76	337.36	0.70	-50.3	-68.2	3.5	3.02e+01	0	29	104	1114636288	60	98636
2026-01-26 04:27:28.79	337.63	0.55	-51.3	-69.1	3.5	3.02e+01	0	29	104	1114636288	60	109660
2026-01-26 04:27:31.82	337.89	0.40	-50.2	-68.0	3.5	3.02e+01	0	29	104	1114636288	60	96962
2026-01-26 04:27:34.85	338.14	0.25	-50.3	-68.2	3.5	3.02e+01	0	29	104	1114636288	60	99067
2026-01-26 04:27:37.88	338.40	0.10	-50.3	-68.2	3.5	3.02e+01	0	29	104	1114636288	60	98518

#Closed at: 2026-01-26 04:27:40
#Recorded file [1114 MB]: D:/lorett/data/35029_260126_161549.dat