passes_logs/2026/01/26/R4.6S_Anadyr/R4.6S_Anadyr__20260126_051352_FENGYUN_3D_rec.log

#Pass ID: 20260126_051352_FENGYUN 3D
#Satellite: FENGYUN 3D
#Configuration: FENGYUN 3D
#almurnet v.1.7.20251203
#Start time: 2026-01-26 05:13:54

#Version: 2.2.20231116
#Station: R4.6S_Anadyr
#Location: 177.4865 lon 64.73178 lat
#TLE: 1 43010U 17072A   26025.50461972  .00000046  00000+0  43592-4 0  9990
#TLE: 2 43010  98.9962 357.4844 0002523  89.7890 270.3575 14.19699798424744

#Time	Az	El	Level	Level2	SNR	BER	BlckErr	Temp	State	Recorded	gain1	gain2
2026-01-26 05:13:54.41	235.53	0.08	-50.9	-68.6	3.4	3.02e+01	0	26	0	0	60	103500
2026-01-26 05:13:57.43	235.80	0.21	-49.8	-62.2	3.6	8.45e-01	0	28	104	0	60	46777
2026-01-26 05:14:00.46	236.08	0.35	-50.1	-62.2	3.6	8.45e-01	0	28	104	0	60	46634
2026-01-26 05:14:03.49	236.35	0.48	-50.1	-62.3	3.6	8.46e-01	0	28	104	0	60	47157
2026-01-26 05:14:06.52	236.63	0.61	-49.3	-61.4	3.6	8.45e-01	0	28	104	0	60	42611
2026-01-26 05:14:09.55	236.92	0.74	-49.2	-61.4	3.6	8.45e-01	0	28	104	0	60	42553
2026-01-26 05:14:12.57	237.20	0.87	-49.1	-61.2	3.6	8.46e-01	0	28	104	0	60	41510
2026-01-26 05:14:15.60	237.49	1.00	-48.9	-61.0	3.6	8.45e-01	0	28	104	0	60	40395
2026-01-26 05:14:18.63	237.78	1.13	-48.0	-60.1	3.6	8.45e-01	0	28	104	0	60	36534
2026-01-26 05:14:21.66	238.07	1.26	-46.8	-58.8	3.6	8.45e-01	0	28	104	0	60	31612
2026-01-26 05:14:24.68	238.36	1.39	-46.8	-58.8	3.5	8.46e-01	0	28	104	0	60	31554
2026-01-26 05:14:27.72	238.66	1.52	-46.8	-58.8	3.6	8.45e-01	0	28	104	0	60	31599
2026-01-26 05:14:30.74	238.96	1.65	-46.9	-58.9	3.6	8.44e-01	0	28	104	0	60	31763
2026-01-26 05:14:33.77	239.26	1.79	-46.9	-58.7	3.6	8.44e-01	0	28	104	0	60	31015
2026-01-26 05:14:36.80	239.57	1.92	-46.9	-58.8	3.6	8.45e-01	0	28	104	0	60	31373
2026-01-26 05:14:39.83	239.88	2.05	-46.9	-58.7	3.6	8.45e-01	0	28	104	0	60	30977
2026-01-26 05:14:42.86	240.19	2.18	-46.9	-58.6	3.6	8.44e-01	0	28	104	0	60	30832
2026-01-26 05:14:45.89	240.50	2.31	-46.8	-57.6	3.6	8.45e-01	0	28	104	0	60	27349
2026-01-26 05:14:48.91	240.81	2.44	-46.7	-56.6	3.6	8.44e-01	0	28	104	0	60	24481
2026-01-26 05:14:51.94	241.13	2.57	-46.4	-52.9	4.4	7.87e-01	0	28	0	0	60	16039
2026-01-26 05:14:54.97	241.45	2.70	-46.1	-51.7	5.2	7.45e-01	0	28	0	3145728	60	13947
2026-01-26 05:14:58.00	241.78	2.83	-45.1	-49.2	8.2	3.54e-02	0	28	0	17825792	60	10369
2026-01-26 05:15:01.03	242.10	2.96	-44.9	-48.8	8.8	5.34e-02	0	28	0	34603008	60	9903
2026-01-26 05:15:04.06	242.43	3.09	-46.6	-57.8	3.6	8.99e-01	0	28	104	42991616	60	27922
2026-01-26 05:15:07.08	242.76	3.22	-45.5	-50.0	7.6	4.17e-02	0	28	0	51380224	60	11481
2026-01-26 05:15:10.11	243.10	3.35	-44.6	-47.8	9.4	1.77e-02	0	28	0	68157440	60	8841
2026-01-26 05:15:13.14	243.43	3.48	-43.2	-45.6	12.7	3.44e-04	0	28	0	85983232	60	6865
2026-01-26 05:15:16.17	243.77	3.61	-42.5	-44.4	14.0	6.98e-05	0	29	0	102760448	58	6750
2026-01-26 05:15:19.20	244.12	3.74	-41.2	-42.7	16.0	0.00e+00	0	28	0	119537664	56	6238
2026-01-26 05:15:22.23	244.46	3.87	-41.0	-42.4	15.9	1.10e-06	0	28	0	137363456	56	6011
2026-01-26 05:15:25.25	244.81	4.00	-40.1	-41.4	17.2	0.00e+00	0	29	0	154140672	54	5998
2026-01-26 05:15:28.28	245.16	4.13	-40.1	-41.4	17.5	0.00e+00	0	29	0	170917888	52	6701
2026-01-26 05:15:31.30	245.52	4.25	-39.1	-40.2	18.6	0.00e+00	0	29	0	187695104	52	5837
2026-01-26 05:15:34.33	245.88	4.38	-39.3	-40.4	18.5	0.00e+00	0	29	0	204472320	50	6751
2026-01-26 05:15:37.36	246.24	4.51	-38.4	-39.4	19.4	0.00e+00	0	28	0	222298112	50	6019
2026-01-26 05:15:40.38	246.60	4.64	-38.1	-39.0	20.0	0.00e+00	0	29	0	239075328	50	5744
2026-01-26 05:15:43.41	246.97	4.76	-38.6	-39.6	19.9	0.00e+00	0	29	0	255852544	50	6132
2026-01-26 05:15:46.44	247.34	4.89	-36.8	-37.6	21.4	0.00e+00	0	29	0	272629760	46	6165
2026-01-26 05:15:49.47	247.71	5.02	-36.3	-37.1	21.9	0.00e+00	0	29	0	289406976	46	5808
2026-01-26 05:15:52.50	248.09	5.14	-36.1	-36.8	22.3	0.00e+00	0	29	0	307232768	44	6302
2026-01-26 05:15:55.53	248.47	5.27	-35.8	-36.6	22.4	0.00e+00	0	29	0	324009984	44	6133
2026-01-26 05:15:58.55	248.85	5.39	-36.3	-37.0	22.5	0.00e+00	0	29	0	340787200	44	6446
2026-01-26 05:16:01.58	249.23	5.52	-36.7	-37.6	22.1	0.00e+00	0	29	0	358612992	44	6853
2026-01-26 05:16:04.61	249.62	5.64	-35.6	-36.4	22.8	0.00e+00	0	29	0	375390208	44	5988
2026-01-26 05:16:07.63	250.01	5.77	-35.6	-36.4	22.8	0.00e+00	0	29	0	392167424	44	5999
2026-01-26 05:16:10.66	250.41	5.89	-35.7	-36.4	22.7	0.00e+00	0	29	0	408944640	44	6032
2026-01-26 05:16:13.69	250.81	6.01	-35.4	-36.1	23.1	0.00e+00	0	29	0	426770432	44	5826
2026-01-26 05:16:16.71	251.21	6.13	-35.5	-36.3	23.1	0.00e+00	0	29	0	443547648	44	5904
2026-01-26 05:16:19.74	251.61	6.25	-35.0	-35.7	23.6	0.00e+00	0	29	0	460324864	44	5545
2026-01-26 05:16:22.76	252.02	6.37	-35.2	-36.0	23.2	0.00e+00	0	29	0	477102080	44	5711
2026-01-26 05:16:25.79	252.43	6.49	-35.3	-36.0	23.2	0.00e+00	0	29	0	493879296	44	5752
2026-01-26 05:16:28.82	252.85	6.61	-35.5	-36.2	23.2	0.00e+00	0	29	0	511705088	44	5865
2026-01-26 05:16:31.85	253.26	6.73	-36.2	-37.0	22.7	0.00e+00	0	29	0	528482304	44	6422
2026-01-26 05:16:34.87	253.68	6.85	-36.3	-37.1	22.6	0.00e+00	0	29	0	545259520	44	6501
2026-01-26 05:16:37.90	254.11	6.97	-35.6	-36.4	23.3	0.00e+00	0	29	0	562036736	44	5985
2026-01-26 05:16:40.93	254.54	7.08	-35.5	-36.2	23.2	0.00e+00	0	29	0	579862528	44	5860
2026-01-26 05:16:43.96	254.97	7.20	-35.4	-36.1	23.7	0.00e+00	0	29	0	596639744	44	5807
2026-01-26 05:16:46.98	255.40	7.31	-35.6	-36.4	23.2	0.00e+00	0	29	0	613416960	44	5975
2026-01-26 05:16:50.01	255.84	7.43	-35.7	-36.4	23.4	0.00e+00	0	29	0	630194176	44	5981
2026-01-26 05:16:53.04	256.28	7.54	-35.3	-36.0	23.6	0.00e+00	0	29	0	648019968	44	5753
2026-01-26 05:16:56.07	256.72	7.65	-35.0	-35.7	24.1	0.00e+00	0	29	0	664797184	42	6226
2026-01-26 05:16:59.09	257.17	7.76	-34.7	-35.4	23.8	0.00e+00	0	29	0	681574400	42	6024
2026-01-26 05:17:02.12	257.62	7.87	-34.7	-35.4	24.0	0.00e+00	0	29	0	698351616	42	5985
2026-01-26 05:17:05.15	258.08	7.98	-34.6	-35.3	24.2	0.00e+00	0	29	0	716177408	42	5951
2026-01-26 05:17:08.17	258.53	8.09	-34.5	-35.3	24.1	0.00e+00	0	29	0	732954624	42	5898
2026-01-26 05:17:11.20	258.99	8.19	-34.6	-35.3	24.2	0.00e+00	0	29	0	749731840	42	5919
2026-01-26 05:17:14.23	259.46	8.30	-34.8	-35.6	23.7	0.00e+00	0	29	0	766509056	42	6107
2026-01-26 05:17:17.26	259.92	8.40	-35.9	-36.7	23.1	0.00e+00	0	29	0	783286272	44	6221
2026-01-26 05:17:20.29	260.39	8.51	-35.3	-36.0	23.6	0.00e+00	0	29	0	801112064	44	5714
2026-01-26 05:17:23.32	260.87	8.61	-35.4	-36.2	23.6	0.00e+00	0	29	0	817889280	42	6548
2026-01-26 05:17:26.34	261.34	8.71	-34.8	-35.5	24.1	0.00e+00	0	29	0	834666496	44	5413
2026-01-26 05:17:29.37	261.82	8.81	-34.7	-35.5	24.2	0.00e+00	0	29	0	851443712	42	6042
2026-01-26 05:17:32.40	262.30	8.91	-35.1	-35.8	23.9	0.00e+00	0	29	0	869269504	42	6297
2026-01-26 05:17:35.42	262.79	9.00	-34.8	-35.5	24.3	0.00e+00	0	29	0	886046720	42	6076
2026-01-26 05:17:38.44	263.28	9.10	-34.7	-35.4	24.6	0.00e+00	0	29	0	902823936	42	6015
2026-01-26 05:17:41.47	263.77	9.19	-34.1	-34.8	24.8	0.00e+00	0	29	0	920649728	42	5610
2026-01-26 05:17:44.50	264.26	9.28	-34.5	-35.2	24.6	0.00e+00	0	29	0	937426944	42	5864
2026-01-26 05:17:47.52	264.76	9.37	-34.4	-35.1	24.3	0.00e+00	0	29	0	954204160	42	5818
2026-01-26 05:17:50.55	265.26	9.46	-34.7	-35.5	24.3	0.00e+00	0	29	0	970981376	42	6035
2026-01-26 05:17:53.57	265.76	9.55	-34.5	-35.2	24.5	0.00e+00	0	29	0	987758592	42	5837
2026-01-26 05:17:56.60	266.27	9.63	-34.4	-35.1	24.5	0.00e+00	0	29	0	1005584384	42	5821
2026-01-26 05:17:59.63	266.78	9.72	-34.1	-34.8	24.6	0.00e+00	0	29	0	1022361600	42	5603
2026-01-26 05:18:02.66	267.29	9.80	-34.5	-35.2	24.5	0.00e+00	0	29	0	1039138816	42	5838
2026-01-26 05:18:05.69	267.81	9.88	-34.3	-35.0	24.6	0.00e+00	0	29	0	1055916032	42	5728
2026-01-26 05:18:08.72	268.33	9.96	-34.1	-34.9	24.8	0.00e+00	0	29	0	1072693248	42	5631
2026-01-26 05:18:11.74	268.84	10.04	-34.3	-35.0	24.5	0.00e+00	0	29	0	1090519040	42	5756
2026-01-26 05:18:14.77	269.37	10.11	-34.5	-35.3	24.5	0.00e+00	0	29	0	1107296256	42	5912
2026-01-26 05:18:17.80	269.89	10.19	-34.5	-35.2	24.7	0.00e+00	0	29	0	1124073472	42	5842
2026-01-26 05:18:20.83	270.42	10.26	-34.0	-34.7	24.7	0.00e+00	0	29	0	1141899264	42	5503
2026-01-26 05:18:23.85	270.95	10.33	-34.4	-35.2	24.4	0.00e+00	0	29	0	1158676480	42	5849
2026-01-26 05:18:26.88	271.48	10.39	-34.5	-35.3	24.4	0.00e+00	0	29	0	1175453696	42	5910
2026-01-26 05:18:29.90	272.02	10.46	-34.6	-35.3	24.3	0.00e+00	0	29	0	1192230912	42	5947
2026-01-26 05:18:32.93	272.56	10.52	-34.0	-34.7	24.7	0.00e+00	0	29	0	1210056704	42	5538
2026-01-26 05:18:35.95	273.09	10.58	-33.9	-34.6	24.9	0.00e+00	0	29	0	1226833920	40	6122
2026-01-26 05:18:38.98	273.64	10.64	-34.1	-34.8	24.8	0.00e+00	0	29	0	1243611136	40	6266
2026-01-26 05:18:42.01	274.18	10.70	-34.1	-34.8	24.8	0.00e+00	0	29	0	1260388352	40	6300
2026-01-26 05:18:45.04	274.73	10.75	-34.2	-34.9	24.8	0.00e+00	0	28	0	1277165568	40	6339
2026-01-26 05:18:48.06	275.27	10.81	-33.9	-34.7	24.8	0.00e+00	0	29	0	1294991360	40	6204
2026-01-26 05:18:51.09	275.82	10.86	-33.6	-34.3	25.1	0.00e+00	0	29	0	1311768576	40	5928
2026-01-26 05:18:54.12	276.37	10.91	-33.4	-34.0	25.3	0.00e+00	0	29	0	1328545792	40	5760
2026-01-26 05:18:57.14	276.93	10.95	-33.9	-34.6	24.8	0.00e+00	0	29	0	1345323008	40	6139
2026-01-26 05:19:00.17	277.48	11.00	-33.8	-34.5	25.1	0.00e+00	0	29	0	1363148800	40	6055
2026-01-26 05:19:03.21	278.04	11.04	-33.8	-34.5	25.2	0.00e+00	0	29	0	1379926016	40	6060
2026-01-26 05:19:06.24	278.60	11.08	-33.7	-34.4	24.9	0.00e+00	0	29	0	1396703232	40	5985
2026-01-26 05:19:09.26	279.15	11.11	-33.7	-34.4	25.0	0.00e+00	0	29	0	1413480448	40	5995
2026-01-26 05:19:12.29	279.72	11.15	-33.7	-34.4	25.0	0.00e+00	0	29	0	1431306240	40	5983
2026-01-26 05:19:15.32	280.28	11.18	-34.0	-34.7	24.7	0.00e+00	0	29	0	1448083456	40	6218
2026-01-26 05:19:18.34	280.84	11.21	-34.3	-35.1	24.7	0.00e+00	0	29	0	1464860672	40	6498
2026-01-26 05:19:21.36	281.40	11.24	-34.4	-35.1	24.7	0.00e+00	0	29	0	1481637888	42	5772
2026-01-26 05:19:24.39	281.97	11.26	-34.4	-35.1	24.6	0.00e+00	0	29	0	1499463680	42	5794
2026-01-26 05:19:27.41	282.53	11.28	-34.5	-35.2	24.2	0.00e+00	0	29	0	1516240896	42	5846
2026-01-26 05:19:30.45	283.10	11.30	-35.0	-35.7	24.0	0.00e+00	0	29	0	1533018112	42	6233
2026-01-26 05:19:33.47	283.66	11.32	-34.1	-34.8	24.7	0.00e+00	0	29	0	1549795328	42	5593
2026-01-26 05:19:36.50	284.23	11.34	-35.0	-35.7	23.4	0.00e+00	0	28	0	1566572544	42	6215
2026-01-26 05:19:39.53	284.80	11.35	-34.9	-35.6	24.6	0.00e+00	0	29	0	1584398336	42	6122
2026-01-26 05:19:42.56	285.37	11.36	-34.3	-35.1	24.9	0.00e+00	0	29	0	1601175552	42	5775
2026-01-26 05:19:45.59	285.94	11.37	-34.0	-34.7	25.1	0.00e+00	0	29	0	1617952768	42	5545
2026-01-26 05:19:48.61	286.50	11.37	-34.2	-34.9	24.9	0.00e+00	0	29	0	1634729984	40	6387
2026-01-26 05:19:51.64	287.07	11.37	-34.0	-34.7	24.8	0.00e+00	0	29	0	1652555776	40	6192
2026-01-26 05:19:54.67	287.64	11.37	-34.3	-34.9	24.9	0.00e+00	0	29	0	1669332992	40	6383
2026-01-26 05:19:57.70	288.21	11.37	-34.6	-35.3	24.5	0.00e+00	0	29	0	1686110208	42	5920
2026-01-26 05:20:00.73	288.78	11.36	-34.2	-34.9	24.9	0.00e+00	0	29	0	1703936000	42	5636
2026-01-26 05:20:03.76	289.35	11.36	-34.2	-34.9	25.0	0.00e+00	0	29	0	1720713216	42	5652
2026-01-26 05:20:06.78	289.92	11.35	-34.5	-35.2	24.8	0.00e+00	0	29	0	1737490432	42	5862
2026-01-26 05:20:09.81	290.48	11.33	-34.8	-35.5	23.8	0.00e+00	0	29	0	1754267648	42	6085
2026-01-26 05:20:12.84	291.05	11.32	-34.2	-34.9	24.9	0.00e+00	0	29	0	1771044864	42	5662
2026-01-26 05:20:15.87	291.62	11.30	-34.2	-34.9	24.9	0.00e+00	0	29	0	1788870656	42	5667
2026-01-26 05:20:18.89	292.18	11.28	-34.1	-34.8	24.9	0.00e+00	0	29	0	1805647872	42	5571
2026-01-26 05:20:21.92	292.75	11.26	-34.2	-34.9	25.0	0.00e+00	0	29	0	1822425088	42	5637
2026-01-26 05:20:24.95	293.31	11.23	-34.8	-35.4	24.7	0.00e+00	0	29	0	1839202304	42	6020
2026-01-26 05:20:27.97	293.87	11.21	-34.6	-35.3	24.4	0.00e+00	0	29	0	1857028096	42	5960
2026-01-26 05:20:31.00	294.44	11.18	-34.9	-35.7	23.9	0.00e+00	0	28	0	1873805312	42	6203
2026-01-26 05:20:34.02	294.99	11.14	-34.4	-35.1	24.7	0.00e+00	0	29	0	1890582528	42	5790
2026-01-26 05:20:37.05	295.55	11.11	-34.8	-35.5	24.7	0.00e+00	0	29	0	1907359744	42	6101
2026-01-26 05:20:40.08	296.11	11.07	-34.4	-35.1	24.8	0.00e+00	0	29	0	1925185536	42	5803
2026-01-26 05:20:43.11	296.67	11.03	-34.1	-34.7	25.0	0.00e+00	0	29	0	1941962752	42	5553
2026-01-26 05:20:46.13	297.22	10.99	-33.8	-34.6	25.0	0.00e+00	0	28	0	1958739968	40	6120
2026-01-26 05:20:49.17	297.78	10.95	-33.9	-34.6	24.9	0.00e+00	0	28	0	1975517184	40	6128
2026-01-26 05:20:52.19	298.33	10.90	-35.4	-36.2	24.0	0.00e+00	0	28	0	1993342976	42	6541
2026-01-26 05:20:55.22	298.88	10.85	-34.8	-35.5	24.6	0.00e+00	0	29	0	2010120192	44	5423
2026-01-26 05:20:58.24	299.43	10.80	-34.5	-35.1	24.6	0.00e+00	0	29	0	2026897408	42	5789
2026-01-26 05:21:01.27	299.97	10.75	-34.8	-35.5	24.4	0.00e+00	0	28	0	2043674624	42	6088
2026-01-26 05:21:04.30	300.52	10.69	-34.8	-35.5	24.3	0.00e+00	0	28	0	2060451840	42	6052
2026-01-26 05:21:07.33	301.06	10.64	-35.9	-36.7	23.9	0.00e+00	0	29	0	2078277632	44	6192
2026-01-26 05:21:10.36	301.60	10.58	-35.0	-35.7	24.6	0.00e+00	0	28	0	2095054848	42	6194
2026-01-26 05:21:13.39	302.14	10.52	-34.6	-35.3	24.5	0.00e+00	0	29	0	2111832064	42	5926
2026-01-26 05:21:16.42	302.67	10.45	-35.8	-36.6	24.0	0.00e+00	0	29	0	2128609280	44	6111
2026-01-26 05:21:19.44	303.21	10.39	-34.8	-35.5	24.6	0.00e+00	0	29	0	2146435072	44	5381
2026-01-26 05:21:22.47	303.74	10.32	-35.3	-36.0	24.8	0.00e+00	0	29	0	2163212288	42	6423
2026-01-26 05:21:25.50	304.27	10.25	-35.2	-35.8	24.5	0.00e+00	0	29	0	2179989504	42	6309
2026-01-26 05:21:28.53	304.79	10.18	-36.0	-36.8	24.0	0.00e+00	0	29	0	2196766720	42	7074
2026-01-26 05:21:31.56	305.32	10.11	-35.3	-36.0	24.5	0.00e+00	0	29	0	2214592512	44	5724
2026-01-26 05:21:34.58	305.84	10.03	-35.7	-36.3	24.3	0.00e+00	0	29	0	2231369728	44	5963
2026-01-26 05:21:37.60	306.35	9.96	-35.6	-36.3	24.3	0.00e+00	0	29	0	2248146944	44	5956
2026-01-26 05:21:40.63	306.87	9.88	-35.7	-36.4	23.5	0.00e+00	0	29	0	2264924160	44	5979
2026-01-26 05:21:43.65	307.38	9.80	-35.2	-35.9	24.1	0.00e+00	0	29	0	2282749952	44	5652
2026-01-26 05:21:46.68	307.89	9.71	-36.0	-36.7	23.9	0.00e+00	0	29	0	2299527168	44	6240
2026-01-26 05:21:49.71	308.40	9.63	-35.1	-35.8	24.4	0.00e+00	0	28	0	2316304384	44	5603
2026-01-26 05:21:52.73	308.90	9.55	-35.5	-36.3	24.3	0.00e+00	0	29	0	2333081600	44	5960
2026-01-26 05:21:55.76	309.41	9.46	-35.5	-36.2	24.4	0.00e+00	0	29	0	2349858816	44	5851
2026-01-26 05:21:58.79	309.90	9.37	-35.8	-36.6	24.5	0.00e+00	0	29	0	2367684608	44	6122
2026-01-26 05:22:01.82	310.40	9.28	-35.2	-35.9	24.6	0.00e+00	0	29	0	2384461824	44	5659
2026-01-26 05:22:04.85	310.89	9.19	-35.7	-36.4	24.2	0.00e+00	0	29	0	2401239040	44	6028
2026-01-26 05:22:07.88	311.38	9.10	-35.6	-36.3	24.2	0.00e+00	0	29	0	2419064832	44	5908
2026-01-26 05:22:10.90	311.87	9.00	-35.6	-36.2	24.2	0.00e+00	0	29	0	2435842048	44	5895
2026-01-26 05:22:13.93	312.35	8.91	-35.6	-36.3	24.2	0.00e+00	0	29	0	2452619264	44	5947
2026-01-26 05:22:16.96	312.83	8.81	-36.4	-37.2	24.0	0.00e+00	0	29	0	2469396480	44	6555
2026-01-26 05:22:19.99	313.31	8.71	-35.6	-36.4	23.8	0.00e+00	0	29	0	2486173696	44	5968
2026-01-26 05:22:23.02	313.79	8.61	-35.9	-36.6	24.0	0.00e+00	0	29	0	2503999488	46	5485
2026-01-26 05:22:26.05	314.26	8.51	-35.8	-36.5	24.1	0.00e+00	0	29	0	2520776704	44	6085
2026-01-26 05:22:29.07	314.72	8.41	-36.3	-37.1	23.7	0.00e+00	0	29	0	2537553920	46	5792
2026-01-26 05:22:32.10	315.19	8.30	-36.8	-37.6	24.0	0.00e+00	0	29	0	2554331136	44	6865
2026-01-26 05:22:35.13	315.65	8.20	-36.5	-37.2	23.8	0.00e+00	0	29	0	2572156928	46	5878
2026-01-26 05:22:38.16	316.11	8.09	-35.6	-36.3	24.1	0.00e+00	0	28	0	2588934144	44	5903
2026-01-26 05:22:41.19	316.56	7.98	-35.8	-36.5	23.9	0.00e+00	0	29	0	2605711360	46	5408
2026-01-26 05:22:44.22	317.02	7.88	-36.0	-36.6	23.7	0.00e+00	0	29	0	2623537152	46	5499
2026-01-26 05:22:47.25	317.46	7.77	-36.2	-36.9	23.5	0.00e+00	0	29	0	2640314368	46	5667
2026-01-26 05:22:50.27	317.91	7.66	-35.8	-36.6	23.2	0.00e+00	0	28	0	2657091584	44	6138
2026-01-26 05:22:53.30	318.35	7.55	-35.8	-36.6	23.6	0.00e+00	0	29	0	2673868800	44	6140
2026-01-26 05:22:56.33	318.79	7.44	-35.6	-36.4	23.3	0.00e+00	0	29	0	2690646016	46	5329
2026-01-26 05:22:59.35	319.22	7.32	-36.1	-36.8	22.9	0.00e+00	0	29	0	2708471808	44	6257
2026-01-26 05:23:02.37	319.66	7.21	-35.9	-36.6	23.3	0.00e+00	0	28	0	2725249024	44	6163
2026-01-26 05:23:05.40	320.08	7.10	-36.0	-36.8	23.1	0.00e+00	0	28	0	2742026240	44	6255
2026-01-26 05:23:08.43	320.51	6.98	-37.3	-38.1	22.8	0.00e+00	0	28	0	2758803456	48	5766
2026-01-26 05:23:11.46	320.93	6.86	-35.9	-36.7	23.1	0.00e+00	0	29	0	2775580672	46	5518
2026-01-26 05:23:14.48	321.35	6.75	-37.6	-38.4	23.2	0.00e+00	0	29	0	2793406464	46	6746
2026-01-26 05:23:17.51	321.77	6.63	-36.4	-37.1	22.9	0.00e+00	0	29	0	2810183680	46	5770
2026-01-26 05:23:20.54	322.18	6.51	-36.5	-37.2	23.0	0.00e+00	0	29	0	2826960896	46	5862
2026-01-26 05:23:23.57	322.59	6.39	-36.7	-37.5	23.1	0.00e+00	0	29	0	2843738112	46	6046
2026-01-26 05:23:26.60	323.00	6.27	-37.3	-38.2	22.9	0.00e+00	0	28	0	2861563904	48	5856
2026-01-26 05:23:29.62	323.40	6.15	-35.7	-36.4	23.2	0.00e+00	0	28	0	2878341120	44	5971
2026-01-26 05:23:32.65	323.80	6.03	-36.0	-36.7	23.3	0.00e+00	0	29	0	2895118336	46	5523
2026-01-26 05:23:35.68	324.20	5.91	-35.7	-36.3	22.8	0.00e+00	0	28	0	2912944128	44	5957
2026-01-26 05:23:38.71	324.59	5.79	-36.3	-37.0	23.1	0.00e+00	0	29	0	2929721344	44	6396
2026-01-26 05:23:41.74	324.98	5.67	-36.0	-36.8	22.8	0.00e+00	0	28	0	2946498560	44	6278
2026-01-26 05:23:44.76	325.37	5.54	-36.0	-36.8	22.7	0.00e+00	0	28	0	2963275776	46	5587
2026-01-26 05:23:47.79	325.75	5.42	-36.7	-37.5	22.2	0.00e+00	0	28	0	2980052992	46	6101
2026-01-26 05:23:50.81	326.13	5.30	-37.4	-38.2	22.1	0.00e+00	0	29	0	2997878784	46	6548
2026-01-26 05:23:53.83	326.51	5.17	-36.5	-37.2	22.4	0.00e+00	0	29	0	3014656000	46	5895
2026-01-26 05:23:56.86	326.88	5.05	-36.8	-37.5	22.1	0.00e+00	0	28	0	3031433216	46	6040
2026-01-26 05:23:59.89	327.25	4.92	-36.5	-37.3	21.9	0.00e+00	0	28	0	3048210432	46	5940
2026-01-26 05:24:02.91	327.62	4.80	-37.6	-38.5	21.9	0.00e+00	0	28	0	3064987648	48	6101
2026-01-26 05:24:05.93	327.99	4.67	-37.2	-38.0	21.7	0.00e+00	0	28	0	3082813440	48	5713
2026-01-26 05:24:08.96	328.35	4.55	-37.7	-38.6	21.8	0.00e+00	0	29	0	3099590656	48	6144
2026-01-26 05:24:11.98	328.71	4.42	-37.2	-38.1	22.0	0.00e+00	0	29	0	3116367872	48	5793
2026-01-26 05:24:15.01	329.07	4.29	-37.1	-38.0	21.6	0.00e+00	0	29	0	3133145088	46	6425
2026-01-26 05:24:18.04	329.42	4.17	-36.2	-37.1	22.3	0.00e+00	0	29	0	3150970880	44	6466
2026-01-26 05:24:21.07	329.77	4.04	-36.5	-37.4	22.1	0.00e+00	0	29	0	3167748096	44	6728
2026-01-26 05:24:24.10	330.12	3.91	-36.7	-37.6	21.6	0.00e+00	0	29	0	3184525312	46	6135
2026-01-26 05:24:27.13	330.46	3.78	-36.7	-37.6	21.5	0.00e+00	0	29	0	3202351104	46	6143
2026-01-26 05:24:30.16	330.81	3.66	-37.8	-38.7	20.4	0.00e+00	0	29	0	3219128320	48	6219
2026-01-26 05:24:33.18	331.14	3.53	-39.2	-40.3	18.0	0.00e+00	0	29	0	3235905536	50	6630
2026-01-26 05:24:36.21	331.48	3.40	-41.3	-43.1	14.5	0.00e+00	0	28	0	3252682752	54	7279
2026-01-26 05:24:39.24	331.82	3.27	-43.0	-46.5	9.3	3.20e-03	0	29	0	3269459968	58	8567
2026-01-26 05:24:42.27	332.15	3.14	-43.8	-48.8	6.3	2.51e-01	0	29	0	3287285760	60	9921
2026-01-26 05:24:45.29	332.47	3.01	-44.9	-54.2	3.9	8.42e-01	0	29	104	3289382912	60	18492
2026-01-26 05:24:48.32	332.80	2.88	-49.5	-61.6	3.5	8.46e-01	0	29	104	3289382912	60	43310
2026-01-26 05:24:51.35	333.12	2.76	-50.0	-62.1	3.6	8.46e-01	0	29	104	3289382912	60	46136
2026-01-26 05:24:54.38	333.44	2.63	-50.3	-62.5	3.6	8.45e-01	0	29	104	3289382912	60	47963
2026-01-26 05:24:57.41	333.76	2.50	-49.7	-61.7	3.6	8.46e-01	0	29	104	3289382912	60	44141
2026-01-26 05:25:00.44	334.08	2.37	-50.2	-62.6	3.6	8.45e-01	0	29	104	3289382912	60	48562
2026-01-26 05:25:03.47	334.39	2.24	-50.2	-62.5	3.6	8.45e-01	0	29	104	3289382912	60	47955
2026-01-26 05:25:06.50	334.70	2.11	-50.2	-62.4	3.6	8.46e-01	0	29	104	3289382912	60	47424
2026-01-26 05:25:09.53	335.00	1.98	-49.5	-61.6	3.6	8.46e-01	0	29	104	3289382912	60	43534
2026-01-26 05:25:12.56	335.31	1.85	-49.9	-62.0	3.6	8.46e-01	0	29	104	3289382912	60	45618
2026-01-26 05:25:15.59	335.61	1.72	-50.6	-62.8	3.6	8.45e-01	0	29	104	3289382912	60	49723
2026-01-26 05:25:18.62	335.91	1.59	-51.0	-63.1	3.6	8.44e-01	0	29	104	3289382912	60	51622
2026-01-26 05:25:21.65	336.21	1.46	-50.7	-62.8	3.6	8.45e-01	0	29	104	3289382912	60	49987
2026-01-26 05:25:24.68	336.50	1.33	-51.7	-63.8	3.6	8.44e-01	0	29	104	3289382912	60	56169
2026-01-26 05:25:27.70	336.79	1.20	-50.8	-62.9	3.6	8.46e-01	0	29	104	3289382912	60	50665
2026-01-26 05:25:30.73	337.08	1.07	-52.0	-64.2	3.6	8.45e-01	0	29	104	3289382912	60	58456
2026-01-26 05:25:33.75	337.37	0.94	-50.6	-62.7	3.6	8.44e-01	0	29	104	3289382912	60	49523
2026-01-26 05:25:36.78	337.66	0.81	-51.7	-63.8	3.6	8.45e-01	0	29	104	3289382912	60	56088
2026-01-26 05:25:39.81	337.94	0.68	-50.6	-62.7	3.6	8.45e-01	0	29	104	3289382912	60	49144
2026-01-26 05:25:42.84	338.22	0.55	-50.8	-62.9	3.6	8.47e-01	0	29	104	3289382912	60	50352
2026-01-26 05:25:45.87	338.50	0.42	-51.8	-63.9	3.5	8.45e-01	0	29	104	3289382912	60	56492
2026-01-26 05:25:48.89	338.77	0.29	-50.5	-62.6	3.6	8.45e-01	0	29	104	3289382912	60	48673
2026-01-26 05:25:51.92	339.05	0.17	-50.8	-62.8	3.6	8.46e-01	0	29	104	3289382912	60	50170
2026-01-26 05:25:54.95	339.32	0.04	-50.7	-62.8	3.6	8.45e-01	0	29	104	3289382912	60	49684

#Closed at: 2026-01-26 05:25:57
#Recorded file [3289 MB]: D:/lorett/data/35029_260126_171354.dat