passes_logs/2026/01/26/R4.6S_Anadyr/R4.6S_Anadyr__20260126_131837_NOAA_20_JPSS-1_rec.log

#Pass ID: 20260126_131837_NOAA 20 (JPSS-1)
#Satellite: NOAA 20 (JPSS-1)
#Configuration: NOAA 20
#almurnet v.1.7.20251203
#Start time: 2026-01-26 13:18:38

#Version: 2.2.20231116
#Station: R4.6S_Anadyr
#Location: 177.4865 lon 64.73178 lat
#TLE: 1 43013U 17073A   26025.90277267  .00000170  00000+0  10165-3 0  9997
#TLE: 2 43013  98.7646 326.7276 0001032  23.5492 336.5731 14.19540457424285

#Time	Az	El	Level	Level2	SNR	BER	BlckErr	Temp	State	Recorded	gain1	gain2
2026-01-26 13:18:38.64	18.80	0.06	-49.2	-64.2	3.5	1.51e+00	0	26	0	0	60	58706
2026-01-26 13:18:42.68	18.99	0.28	-49.2	-64.5	3.6	1.51e+00	0	28	104	0	60	60803
2026-01-26 13:18:46.72	19.18	0.51	-49.3	-64.5	3.6	1.51e+00	0	28	104	0	60	60930
2026-01-26 13:18:50.76	19.37	0.74	-49.2	-64.4	3.6	1.51e+00	0	28	104	0	60	60288
2026-01-26 13:18:54.80	19.57	0.97	-49.1	-64.3	3.6	1.51e+00	0	28	104	0	60	59173
2026-01-26 13:18:58.84	19.77	1.20	-48.7	-63.9	3.6	1.51e+00	0	28	104	0	60	56810
2026-01-26 13:19:02.88	19.97	1.43	-47.9	-63.2	3.6	1.51e+00	0	28	104	0	60	51971
2026-01-26 13:19:06.92	20.17	1.67	-47.9	-63.0	3.6	1.51e+00	0	28	104	0	60	50843
2026-01-26 13:19:10.96	20.38	1.90	-47.9	-63.0	3.6	1.51e+00	0	28	104	0	60	51221
2026-01-26 13:19:15.00	20.59	2.14	-47.9	-63.0	3.6	1.51e+00	0	28	104	0	60	51348
2026-01-26 13:19:19.03	20.81	2.38	-47.9	-62.5	3.6	1.51e+00	0	28	104	0	60	47971
2026-01-26 13:19:23.07	21.02	2.62	-47.9	-62.5	3.6	1.51e+00	0	28	104	0	60	48480
2026-01-26 13:19:27.10	21.24	2.86	-45.7	-49.7	12.2	4.05e-03	0	28	0	5242880	60	11009
2026-01-26 13:19:31.14	21.47	3.11	-42.7	-44.7	17.5	0.00e+00	0	28	0	12582912	60	6209
2026-01-26 13:19:35.18	21.70	3.36	-44.3	-47.1	14.8	0.00e+00	49	29	0	19922944	60	8146
2026-01-26 13:19:39.22	21.93	3.61	-47.5	-55.5	6.6	6.29e-02	0	29	0	25165824	60	21523
2026-01-26 13:19:43.26	22.16	3.86	-43.8	-46.3	15.7	0.00e+00	0	29	0	29360128	60	7443
2026-01-26 13:19:47.30	22.40	4.11	-43.0	-45.1	17.3	0.00e+00	80	29	0	36700160	60	6467
2026-01-26 13:19:51.33	22.64	4.36	-42.9	-44.8	17.6	0.00e+00	0	29	0	44040192	58	7065
2026-01-26 13:19:55.37	22.89	4.62	-42.3	-44.0	18.4	0.00e+00	0	29	0	51380224	58	6413
2026-01-26 13:19:59.41	23.14	4.88	-41.8	-43.4	19.0	0.00e+00	7	29	0	58720256	58	6012
2026-01-26 13:20:03.45	23.39	5.14	-42.0	-43.7	18.7	0.00e+00	92	29	0	67108864	56	6938
2026-01-26 13:20:07.48	23.65	5.40	-41.9	-43.5	19.0	0.00e+00	0	29	0	74448896	56	6802
2026-01-26 13:20:11.52	23.91	5.67	-41.3	-42.8	19.8	0.00e+00	76	29	0	81788928	56	6262
2026-01-26 13:20:15.56	24.18	5.94	-41.3	-42.7	19.9	0.00e+00	78	29	0	89128960	56	6175
2026-01-26 13:20:19.60	24.45	6.21	-41.2	-42.6	19.9	0.00e+00	92	29	0	96468992	56	6154
2026-01-26 13:20:23.63	24.72	6.48	-41.2	-42.5	20.2	0.00e+00	8	29	0	104857600	56	6082
2026-01-26 13:20:27.66	25.00	6.75	-41.0	-42.3	20.3	0.00e+00	0	29	0	112197632	56	5961
2026-01-26 13:20:31.70	25.29	7.03	-40.7	-42.0	20.6	0.00e+00	5	29	0	119537664	54	6402
2026-01-26 13:20:35.74	25.58	7.31	-40.5	-41.7	20.9	0.00e+00	92	29	0	126877696	54	6193
2026-01-26 13:20:39.77	25.88	7.59	-40.2	-41.4	21.2	0.00e+00	79	29	0	135266304	54	5976
2026-01-26 13:20:43.81	26.18	7.87	-39.9	-41.1	21.5	0.00e+00	4	29	0	142606336	54	5768
2026-01-26 13:20:47.85	26.49	8.16	-39.9	-41.0	21.7	0.00e+00	1	29	0	149946368	52	6454
2026-01-26 13:20:51.89	26.80	8.45	-39.7	-40.7	21.9	0.00e+00	90	29	0	157286400	52	6232
2026-01-26 13:20:55.92	27.12	8.74	-39.5	-40.6	21.9	0.00e+00	79	29	0	164626432	52	6140
2026-01-26 13:20:59.96	27.45	9.04	-39.2	-40.2	22.3	0.00e+00	80	29	0	173015040	52	5865
2026-01-26 13:21:04.00	27.78	9.34	-39.2	-40.2	22.5	0.00e+00	61	29	0	180355072	52	5835
2026-01-26 13:21:08.03	28.11	9.64	-39.0	-40.0	22.7	0.00e+00	92	29	0	187695104	52	5713
2026-01-26 13:21:12.07	28.46	9.94	-39.0	-40.0	22.6	0.00e+00	0	29	0	195035136	52	5729
2026-01-26 13:21:16.11	28.81	10.25	-39.1	-40.1	22.7	0.00e+00	0	29	0	203423744	52	5780
2026-01-26 13:21:20.14	29.17	10.55	-38.9	-39.8	22.9	0.00e+00	0	29	0	210763776	52	5612
2026-01-26 13:21:24.18	29.53	10.87	-38.6	-39.6	23.1	0.00e+00	91	29	0	218103808	50	6121
2026-01-26 13:21:28.22	29.91	11.18	-38.5	-39.4	23.2	0.00e+00	0	29	0	225443840	50	6005
2026-01-26 13:21:32.26	30.29	11.50	-38.6	-39.5	23.3	0.00e+00	0	29	0	232783872	50	6055
2026-01-26 13:21:36.29	30.68	11.82	-38.6	-39.6	23.2	0.00e+00	87	29	0	241172480	50	6121
2026-01-26 13:21:40.33	31.07	12.15	-38.6	-39.5	23.3	0.00e+00	80	29	0	248512512	50	6100
2026-01-26 13:21:44.37	31.48	12.47	-38.4	-39.3	23.3	0.00e+00	0	29	0	255852544	50	5930
2026-01-26 13:21:48.40	31.89	12.80	-38.2	-39.1	23.6	0.00e+00	0	29	0	263192576	50	5804
2026-01-26 13:21:52.44	32.32	13.14	-38.3	-39.2	23.6	0.00e+00	92	29	0	270532608	50	5857
2026-01-26 13:21:56.48	32.75	13.48	-38.4	-39.3	23.5	0.00e+00	6	29	0	278921216	50	5914
2026-01-26 13:22:00.51	33.19	13.82	-38.5	-39.5	23.3	0.00e+00	0	29	0	286261248	50	6053
2026-01-26 13:22:04.55	33.64	14.16	-38.6	-39.6	23.2	0.00e+00	0	29	0	293601280	50	6123
2026-01-26 13:22:08.59	34.11	14.51	-39.0	-39.9	22.9	0.00e+00	92	29	0	300941312	50	6388
2026-01-26 13:22:12.62	34.58	14.86	-38.9	-39.8	23.0	0.00e+00	5	29	0	309329920	50	6305
2026-01-26 13:22:16.66	35.06	15.21	-39.0	-39.9	22.9	0.00e+00	0	29	0	316669952	50	6372
2026-01-26 13:22:20.70	35.56	15.57	-39.0	-39.9	22.5	0.00e+00	0	29	0	324009984	50	6373
2026-01-26 13:22:24.74	36.06	15.93	-39.1	-40.1	22.8	0.00e+00	92	29	0	331350016	50	6487
2026-01-26 13:22:28.77	36.58	16.29	-39.2	-40.1	22.8	0.00e+00	0	29	0	338690048	50	6536
2026-01-26 13:22:32.81	37.11	16.66	-39.3	-40.3	22.7	0.00e+00	0	29	0	347078656	50	6624
2026-01-26 13:22:36.85	37.66	17.03	-39.4	-40.4	22.6	0.00e+00	0	29	0	354418688	50	6735
2026-01-26 13:22:40.88	38.21	17.40	-39.3	-40.3	22.6	0.00e+00	92	29	0	361758720	50	6684
2026-01-26 13:22:44.92	38.78	17.78	-38.9	-39.8	23.1	0.00e+00	0	29	0	369098752	50	6291
2026-01-26 13:22:48.96	39.36	18.16	-38.7	-39.6	23.3	0.00e+00	81	29	0	377487360	50	6118
2026-01-26 13:22:53.00	39.96	18.54	-38.8	-39.7	23.2	0.00e+00	79	29	0	384827392	50	6215
2026-01-26 13:22:57.04	40.58	18.93	-38.8	-39.8	23.2	0.00e+00	85	29	0	392167424	50	6252
2026-01-26 13:23:01.06	41.20	19.31	-38.6	-39.5	23.4	0.00e+00	0	29	0	399507456	50	6068
2026-01-26 13:23:05.10	41.85	19.71	-38.7	-39.6	23.3	0.00e+00	2	30	0	406847488	50	6170
2026-01-26 13:23:09.14	42.51	20.10	-38.4	-39.3	23.7	0.00e+00	84	30	0	415236096	50	5910
2026-01-26 13:23:13.18	43.18	20.50	-38.1	-39.0	23.9	0.00e+00	32	29	0	422576128	50	5743
2026-01-26 13:23:17.22	43.88	20.90	-38.2	-39.0	23.9	0.00e+00	2	30	0	429916160	50	5758
2026-01-26 13:23:21.25	44.59	21.30	-37.9	-38.8	24.1	0.00e+00	0	30	0	437256192	50	5604
2026-01-26 13:23:25.29	45.32	21.70	-37.4	-38.3	24.5	0.00e+00	92	30	0	445644800	48	5901
2026-01-26 13:23:29.33	46.07	22.11	-37.5	-38.3	24.5	0.00e+00	0	29	0	452984832	48	5948
2026-01-26 13:23:33.37	46.84	22.51	-36.7	-37.4	25.2	0.00e+00	0	29	0	460324864	46	6016
2026-01-26 13:23:37.41	47.62	22.92	-36.5	-37.2	25.4	0.00e+00	6	30	0	467664896	46	5875
2026-01-26 13:23:41.44	48.43	23.33	-36.9	-37.7	25.0	0.00e+00	92	29	0	475004928	46	6180
2026-01-26 13:23:45.48	49.26	23.74	-36.7	-37.5	25.2	0.00e+00	0	29	0	483393536	46	6072
2026-01-26 13:23:49.52	50.11	24.15	-37.0	-37.8	25.0	0.00e+00	84	30	0	490733568	46	6283
2026-01-26 13:23:53.56	50.99	24.56	-37.1	-37.9	24.9	0.00e+00	5	30	0	498073600	46	6386
2026-01-26 13:23:57.59	51.88	24.96	-37.3	-38.1	24.7	0.00e+00	90	30	0	505413632	46	6518
2026-01-26 13:24:01.63	52.80	25.37	-37.5	-38.4	24.4	0.00e+00	0	30	0	513802240	46	6749
2026-01-26 13:24:05.66	53.74	25.78	-37.5	-38.3	24.6	0.00e+00	0	30	0	521142272	46	6635
2026-01-26 13:24:09.70	54.70	26.18	-38.3	-39.2	23.7	0.00e+00	0	30	0	528482304	48	6575
2026-01-26 13:24:13.74	55.69	26.58	-38.5	-39.4	23.6	0.00e+00	92	30	0	535822336	48	6731
2026-01-26 13:24:17.78	56.71	26.98	-38.6	-39.5	23.6	0.00e+00	81	29	0	543162368	48	6774
2026-01-26 13:24:21.81	57.75	27.38	-38.7	-39.6	23.4	0.00e+00	0	30	0	551550976	48	6926
2026-01-26 13:24:25.84	58.81	27.77	-39.7	-40.7	22.5	0.00e+00	1	29	0	558891008	50	6975
2026-01-26 13:24:29.88	59.90	28.15	-40.3	-41.4	21.7	0.00e+00	92	30	0	566231040	52	6763
2026-01-26 13:24:33.92	61.02	28.53	-41.3	-42.5	20.7	0.00e+00	0	30	0	573571072	54	6845
2026-01-26 13:24:37.96	62.16	28.90	-41.9	-43.2	20.3	0.00e+00	81	29	0	581959680	56	6586
2026-01-26 13:24:41.99	63.33	29.27	-41.3	-42.5	20.9	0.00e+00	69	29	0	589299712	56	6075
2026-01-26 13:24:46.03	64.52	29.62	-42.1	-43.5	19.9	0.00e+00	92	29	0	596639744	56	6825
2026-01-26 13:24:50.07	65.74	29.97	-41.1	-42.3	21.1	0.00e+00	0	29	0	603979776	56	5934
2026-01-26 13:24:54.10	66.99	30.31	-40.4	-41.6	21.7	0.00e+00	0	29	0	611319808	54	6106
2026-01-26 13:24:58.14	68.26	30.63	-40.7	-41.9	21.5	0.00e+00	0	29	0	619708416	54	6356
2026-01-26 13:25:02.18	69.56	30.95	-40.3	-41.3	21.9	0.00e+00	71	29	0	627048448	54	5963
2026-01-26 13:25:06.21	70.88	31.25	-40.4	-41.5	21.8	0.00e+00	2	29	0	634388480	54	6076
2026-01-26 13:25:10.25	72.22	31.54	-42.0	-43.4	20.1	0.00e+00	0	29	0	641728512	56	6702
2026-01-26 13:25:14.29	73.59	31.81	-40.2	-41.2	22.0	0.00e+00	84	29	0	649068544	54	5868
2026-01-26 13:25:18.33	74.99	32.07	-40.5	-41.6	21.7	0.00e+00	81	29	0	657457152	54	6123
2026-01-26 13:25:22.37	76.40	32.31	-40.9	-42.1	21.0	0.00e+00	2	29	0	664797184	54	6519
2026-01-26 13:25:26.40	77.83	32.53	-40.6	-41.7	21.6	0.00e+00	5	29	0	672137216	54	6187
2026-01-26 13:25:30.44	79.28	32.74	-41.0	-42.2	21.1	0.00e+00	90	29	0	679477248	54	6599
2026-01-26 13:25:34.48	80.75	32.93	-40.6	-41.7	21.5	0.00e+00	7	29	0	687865856	54	6231
2026-01-26 13:25:38.52	82.24	33.09	-40.3	-41.4	21.8	0.00e+00	0	29	0	695205888	54	5999
2026-01-26 13:25:42.55	83.74	33.24	-41.1	-42.4	20.9	0.00e+00	83	29	0	702545920	54	6696
2026-01-26 13:25:46.59	85.25	33.37	-41.3	-42.5	20.9	0.00e+00	92	29	0	709885952	54	6798
2026-01-26 13:25:50.63	86.77	33.47	-41.3	-42.6	20.7	0.00e+00	3	29	0	717225984	54	6863
2026-01-26 13:25:54.67	88.30	33.55	-40.2	-41.3	21.9	0.00e+00	0	29	0	725614592	54	5938
2026-01-26 13:25:58.70	89.84	33.61	-41.1	-42.3	21.0	0.00e+00	0	29	0	732954624	54	6677
2026-01-26 13:26:02.73	91.38	33.65	-40.6	-41.7	21.5	0.00e+00	92	29	0	740294656	54	6243
2026-01-26 13:26:06.77	92.93	33.67	-40.9	-42.1	21.1	0.00e+00	81	29	0	747634688	54	6539
2026-01-26 13:26:10.81	94.47	33.66	-40.0	-41.1	21.5	0.00e+00	0	29	0	756023296	54	5788
2026-01-26 13:26:14.85	96.02	33.63	-39.7	-40.7	22.6	0.00e+00	0	29	0	763363328	52	6176
2026-01-26 13:26:18.88	97.56	33.57	-41.2	-42.4	21.0	0.00e+00	92	29	0	770703360	54	6715
2026-01-26 13:26:22.92	99.09	33.50	-41.4	-42.6	20.8	0.00e+00	0	29	0	778043392	54	6919
2026-01-26 13:26:26.96	100.62	33.40	-41.2	-42.5	20.9	0.00e+00	0	29	0	785383424	54	6800
2026-01-26 13:26:30.99	102.14	33.28	-41.1	-42.4	20.9	0.00e+00	62	29	0	793772032	54	6715
2026-01-26 13:26:35.03	103.64	33.14	-41.6	-42.8	20.6	0.00e+00	39	29	0	801112064	54	7075
2026-01-26 13:26:39.06	105.13	32.98	-42.1	-43.5	19.9	0.00e+00	0	29	0	808452096	56	6828
2026-01-26 13:26:43.10	106.61	32.80	-40.7	-41.8	21.5	0.00e+00	0	29	0	815792128	54	6290
2026-01-26 13:26:47.14	108.07	32.60	-41.0	-42.3	21.0	0.00e+00	42	29	0	823132160	54	6677
2026-01-26 13:26:51.18	109.51	32.38	-40.7	-41.8	21.4	0.00e+00	0	29	0	831520768	54	6266
2026-01-26 13:26:55.22	110.94	32.14	-41.1	-42.3	21.0	0.00e+00	0	29	0	838860800	54	6681
2026-01-26 13:26:59.25	112.33	31.89	-40.4	-41.5	21.9	0.00e+00	0	29	0	846200832	54	6076
2026-01-26 13:27:03.29	113.71	31.62	-40.4	-41.4	21.8	0.00e+00	90	29	0	853540864	54	6033
2026-01-26 13:27:07.33	115.07	31.33	-41.2	-42.4	21.0	0.00e+00	0	29	0	861929472	54	6733
2026-01-26 13:27:11.36	116.40	31.04	-41.0	-42.2	21.1	0.00e+00	0	29	0	869269504	54	6544
2026-01-26 13:27:15.41	117.71	30.72	-40.3	-41.3	22.0	0.00e+00	0	29	0	876609536	54	5960
2026-01-26 13:27:19.44	118.99	30.40	-40.8	-42.0	21.4	0.00e+00	92	29	0	883949568	54	6414
2026-01-26 13:27:23.48	120.25	30.06	-41.0	-42.2	21.2	0.00e+00	0	28	0	891289600	54	6572
2026-01-26 13:27:27.51	121.48	29.72	-40.0	-41.0	22.2	0.00e+00	76	28	0	899678208	54	5732
2026-01-26 13:27:31.55	122.69	29.36	-40.3	-41.4	22.0	0.00e+00	76	28	0	907018240	52	6749
2026-01-26 13:27:35.59	123.87	29.00	-40.2	-41.3	22.0	0.00e+00	92	29	0	914358272	52	6661
2026-01-26 13:27:39.63	125.02	28.63	-40.7	-41.9	21.5	0.00e+00	8	28	0	921698304	54	6327
2026-01-26 13:27:43.67	126.15	28.25	-39.8	-40.9	22.4	0.00e+00	0	28	0	930086912	52	6340
2026-01-26 13:27:47.70	127.25	27.86	-40.0	-41.0	22.5	0.00e+00	0	29	0	937426944	52	6435
2026-01-26 13:27:51.74	128.33	27.47	-40.1	-41.1	22.1	0.00e+00	92	28	0	944766976	52	6509
2026-01-26 13:27:55.78	129.38	27.07	-39.9	-40.9	22.3	0.00e+00	76	28	0	952107008	54	5671
2026-01-26 13:27:59.82	130.40	26.67	-40.7	-42.0	20.3	0.00e+00	4	28	0	959447040	52	7173
2026-01-26 13:28:03.85	131.40	26.27	-39.7	-40.7	22.7	0.00e+00	5	28	0	967835648	52	6194
2026-01-26 13:28:07.89	132.38	25.87	-41.0	-42.3	21.1	0.00e+00	90	28	0	975175680	54	6656
2026-01-26 13:28:11.93	133.33	25.46	-38.6	-39.5	23.7	0.00e+00	81	28	0	982515712	50	6085
2026-01-26 13:28:15.97	134.26	25.05	-39.4	-40.4	22.6	0.00e+00	1	28	0	989855744	50	6751
2026-01-26 13:28:20.01	135.16	24.64	-38.2	-39.1	23.9	0.00e+00	91	28	0	998244352	50	5780
2026-01-26 13:28:24.04	136.04	24.22	-39.1	-40.1	23.0	0.00e+00	92	28	0	1005584384	50	6497
2026-01-26 13:28:28.08	136.90	23.81	-37.6	-38.4	24.5	0.00e+00	2	28	0	1012924416	48	5987
2026-01-26 13:28:32.12	137.74	23.40	-37.7	-38.6	24.4	0.00e+00	78	28	0	1020264448	48	6121
2026-01-26 13:28:36.16	138.56	22.99	-37.0	-37.8	25.0	0.00e+00	92	28	0	1027604480	48	5585
2026-01-26 13:28:40.19	139.35	22.58	-37.3	-38.1	24.8	0.00e+00	81	28	0	1035993088	48	5828
2026-01-26 13:28:44.23	140.13	22.17	-37.2	-37.9	24.8	0.00e+00	0	28	0	1043333120	48	5694
2026-01-26 13:28:48.27	140.88	21.76	-36.7	-37.5	25.2	0.00e+00	0	28	0	1050673152	46	6065
2026-01-26 13:28:52.30	141.62	21.36	-37.2	-38.0	24.8	0.00e+00	92	28	0	1058013184	46	6453
2026-01-26 13:28:56.34	142.34	20.95	-36.6	-37.4	25.4	0.00e+00	0	28	0	1065353216	46	6003
2026-01-26 13:29:00.38	143.04	20.55	-36.9	-37.6	25.0	0.00e+00	72	28	0	1073741824	46	6159
2026-01-26 13:29:04.42	143.72	20.15	-37.6	-38.5	24.4	0.00e+00	6	28	0	1081081856	46	6792
2026-01-26 13:29:08.46	144.39	19.75	-37.2	-38.0	24.7	0.00e+00	92	28	0	1088421888	48	5744
2026-01-26 13:29:12.49	145.04	19.36	-37.2	-38.1	24.7	0.00e+00	0	28	0	1095761920	48	5764
2026-01-26 13:29:16.53	145.67	18.96	-37.5	-38.3	24.5	0.00e+00	77	28	0	1104150528	48	5944
2026-01-26 13:29:20.57	146.29	18.57	-37.5	-38.3	24.4	0.00e+00	7	28	0	1111490560	48	5940
2026-01-26 13:29:24.61	146.89	18.19	-37.9	-38.7	24.0	0.00e+00	92	28	0	1118830592	48	6240
2026-01-26 13:29:28.64	147.48	17.81	-37.9	-38.8	24.0	0.00e+00	6	28	0	1126170624	48	6278
2026-01-26 13:29:32.68	148.05	17.43	-38.7	-39.6	23.3	0.00e+00	0	28	0	1133510656	48	6887
2026-01-26 13:29:36.72	148.61	17.05	-39.5	-40.6	22.5	0.00e+00	0	28	0	1141899264	50	6862
2026-01-26 13:29:40.75	149.16	16.68	-38.8	-39.7	23.2	0.00e+00	92	28	0	1149239296	50	6244
2026-01-26 13:29:44.79	149.69	16.30	-38.6	-39.5	23.4	0.00e+00	77	28	0	1156579328	50	6058
2026-01-26 13:29:48.82	150.21	15.94	-39.3	-40.4	22.7	0.00e+00	5	28	0	1163919360	50	6694
2026-01-26 13:29:52.86	150.72	15.57	-39.2	-40.2	22.6	0.00e+00	23	28	0	1172307968	50	6605
2026-01-26 13:29:56.90	151.22	15.21	-38.5	-39.4	23.4	0.00e+00	92	28	0	1179648000	50	6029
2026-01-26 13:30:00.93	151.71	14.86	-38.9	-39.8	23.2	0.00e+00	72	28	0	1186988032	50	6287
2026-01-26 13:30:04.97	152.18	14.50	-39.4	-40.5	22.5	0.00e+00	5	28	0	1194328064	50	6787
2026-01-26 13:30:09.01	152.65	14.15	-39.1	-40.1	22.9	0.00e+00	39	28	0	1201668096	50	6465
2026-01-26 13:30:13.04	153.10	13.81	-38.7	-39.7	23.1	0.00e+00	67	28	0	1210056704	50	6199
2026-01-26 13:30:17.08	153.54	13.46	-39.6	-40.6	21.8	0.00e+00	0	28	0	1217396736	50	6922
2026-01-26 13:30:21.12	153.98	13.12	-41.4	-43.0	19.2	0.00e+00	77	28	0	1224736768	54	7180
2026-01-26 13:30:25.16	154.40	12.79	-42.7	-44.7	17.3	0.00e+00	91	28	0	1232076800	58	7003
2026-01-26 13:30:29.20	154.82	12.45	-42.9	-45.0	17.2	0.00e+00	11	28	0	1240465408	58	7208
2026-01-26 13:30:33.23	155.23	12.12	-42.3	-44.2	18.1	0.00e+00	13	28	0	1247805440	58	6556
2026-01-26 13:30:37.27	155.63	11.79	-41.2	-42.6	20.1	0.00e+00	0	28	0	1255145472	56	6114
2026-01-26 13:30:41.30	156.01	11.47	-40.4	-41.6	21.0	0.00e+00	92	28	0	1262485504	54	6147
2026-01-26 13:30:45.34	156.40	11.15	-40.0	-41.1	21.7	0.00e+00	0	28	0	1269825536	54	5787
2026-01-26 13:30:49.38	156.77	10.83	-39.3	-40.3	22.5	0.00e+00	74	28	0	1278214144	52	5919
2026-01-26 13:30:53.41	157.14	10.52	-39.1	-40.1	22.7	0.00e+00	5	28	0	1285554176	52	5774
2026-01-26 13:30:57.45	157.50	10.20	-39.1	-40.1	22.6	0.00e+00	92	28	0	1292894208	52	5803
2026-01-26 13:31:01.49	157.85	9.90	-39.2	-40.2	22.6	0.00e+00	0	28	0	1300234240	52	5894
2026-01-26 13:31:05.53	158.19	9.59	-39.4	-40.4	22.3	0.00e+00	0	28	0	1308622848	52	6029
2026-01-26 13:31:09.56	158.53	9.29	-39.8	-40.8	22.0	0.00e+00	11	28	0	1315962880	52	6295
2026-01-26 13:31:13.60	158.86	8.99	-39.9	-41.0	21.9	0.00e+00	91	28	0	1323302912	52	6425
2026-01-26 13:31:17.64	159.19	8.69	-40.1	-41.3	21.6	0.00e+00	13	28	0	1330642944	52	6617
2026-01-26 13:31:21.68	159.51	8.39	-40.3	-41.5	21.4	0.00e+00	7	28	0	1337982976	52	6795
2026-01-26 13:31:25.71	159.82	8.10	-40.5	-41.6	21.1	0.00e+00	0	28	0	1346371584	52	6921
2026-01-26 13:31:29.75	160.13	7.81	-40.6	-41.8	21.0	0.00e+00	92	28	0	1353711616	52	7027
2026-01-26 13:31:33.79	160.43	7.53	-41.0	-42.3	20.4	0.00e+00	68	28	0	1361051648	54	6632
2026-01-26 13:31:37.82	160.72	7.24	-41.1	-42.4	20.5	0.00e+00	9	28	0	1368391680	54	6704
2026-01-26 13:31:41.86	161.01	6.96	-41.1	-42.4	20.4	0.00e+00	0	28	0	1376780288	54	6697
2026-01-26 13:31:45.89	161.30	6.68	-41.2	-42.5	20.2	0.00e+00	26	28	0	1384120320	54	6808
2026-01-26 13:31:49.92	161.58	6.40	-41.3	-42.7	20.0	0.00e+00	0	28	0	1391460352	54	6948
2026-01-26 13:31:53.96	161.85	6.13	-41.3	-42.7	19.9	0.00e+00	10	28	0	1398800384	54	6966
2026-01-26 13:31:57.99	162.12	5.86	-41.4	-42.7	19.9	0.00e+00	0	28	0	1406140416	54	6996
2026-01-26 13:32:02.03	162.39	5.59	-41.5	-42.9	19.6	0.00e+00	92	27	0	1414529024	54	7149
2026-01-26 13:32:06.07	162.65	5.32	-41.9	-43.5	19.2	0.00e+00	0	28	0	1421869056	56	6771
2026-01-26 13:32:10.10	162.90	5.06	-41.9	-43.4	19.2	0.00e+00	0	28	0	1429209088	56	6756
2026-01-26 13:32:14.14	163.16	4.79	-42.1	-43.6	18.9	0.00e+00	92	27	0	1436549120	56	6922
2026-01-26 13:32:18.17	163.40	4.53	-42.3	-44.0	18.6	0.00e+00	36	28	0	1443889152	56	7171
2026-01-26 13:32:22.21	163.65	4.27	-42.5	-44.3	18.2	0.00e+00	9	28	0	1452277760	58	6636
2026-01-26 13:32:26.25	163.89	4.02	-42.8	-44.6	17.9	0.00e+00	0	28	0	1459617792	58	6906
2026-01-26 13:32:30.28	164.12	3.76	-43.3	-45.4	17.2	0.00e+00	92	27	0	1466957824	58	7586
2026-01-26 13:32:34.32	164.35	3.51	-43.8	-46.2	16.7	0.00e+00	0	28	0	1474297856	60	7373
2026-01-26 13:32:38.35	164.58	3.26	-43.5	-45.8	16.6	0.00e+00	69	28	0	1481637888	60	7048
2026-01-26 13:32:42.39	164.81	3.01	-44.6	-47.5	6.8	0.00e+00	0	27	0	1490026496	60	8583
2026-01-26 13:32:46.43	165.03	2.76	-48.2	-63.4	3.6	1.51e+00	0	28	104	1490026496	60	53349
2026-01-26 13:32:50.47	165.25	2.52	-49.4	-64.6	3.6	1.51e+00	0	27	104	1490026496	60	61706
2026-01-26 13:32:54.51	165.46	2.28	-49.5	-64.7	3.6	1.51e+00	0	28	104	1490026496	60	62451
2026-01-26 13:32:58.55	165.67	2.03	-49.6	-64.8	3.6	1.51e+00	0	28	104	1490026496	60	62605
2026-01-26 13:33:02.59	165.88	1.79	-49.5	-64.7	3.6	1.51e+00	0	28	104	1490026496	60	61798
2026-01-26 13:33:06.63	166.09	1.56	-49.6	-64.8	3.6	1.51e+00	0	28	104	1490026496	60	62860
2026-01-26 13:33:10.66	166.29	1.32	-49.5	-64.7	3.6	1.51e+00	0	28	104	1490026496	60	62282
2026-01-26 13:33:14.71	166.49	1.08	-49.6	-64.9	3.6	1.51e+00	0	28	104	1490026496	60	63316
2026-01-26 13:33:18.75	166.68	0.85	-49.5	-64.8	3.6	1.51e+00	0	28	104	1490026496	60	62855
2026-01-26 13:33:22.79	166.88	0.62	-49.6	-64.9	3.6	1.51e+00	0	28	104	1490026496	60	63393
2026-01-26 13:33:26.83	167.07	0.39	-49.7	-64.9	3.6	1.51e+00	0	28	104	1490026496	60	63667
2026-01-26 13:33:30.87	167.25	0.16	-49.8	-65.0	3.6	1.51e+00	0	28	104	1490026496	60	64291

#Closed at: 2026-01-26 13:33:34
#Recorded file [1490 MB]: D:/lorett/data/35029_260127_011838.dat