passes_logs/2026/01/26/R4.6S_Anadyr/R4.6S_Anadyr__20260126_234321_KOSAR1-5_rec.log

#Pass ID: 20260126_234321_KOSAR1-5
#Satellite: KOSAR1-5
#Configuration: KOSAR1-5
#almurnet v.1.7.20251203
#Start time: 2026-01-26 23:43:23

#Version: 2.2.20231116
#Station: R4.6S_Anadyr
#Location: 177.4865 lon 64.73178 lat
#TLE: 1 67264U 25313S   26026.51088181  .00010179  00000+0  46997-3 0  9992
#TLE: 2 67264  97.4174 103.4904 0016447 142.6904 217.5477 15.20282047  4400

#Time	Az	El	Level	Level2	SNR	BER	BlckErr	Temp	State	Recorded	gain1	gain2
2026-01-26 23:43:23.31	17.54	0.15	-49.3	-64.2	3.5	1.51e+00	0	28	0	0	60	58386
2026-01-26 23:43:26.33	17.55	0.34	-47.9	-62.7	3.6	1.51e+00	0	29	104	0	60	55030
2026-01-26 23:43:29.36	17.55	0.54	-46.2	-60.8	3.6	1.51e+00	0	29	104	0	60	44685
2026-01-26 23:43:32.39	17.55	0.74	-45.9	-60.6	3.6	1.51e+00	0	29	104	0	60	43458
2026-01-26 23:43:35.42	17.55	0.94	-45.7	-60.5	3.6	1.51e+00	0	30	104	0	60	42918
2026-01-26 23:43:38.45	17.55	1.14	-45.7	-60.4	3.6	1.51e+00	0	30	104	0	60	42638
2026-01-26 23:43:41.47	17.55	1.34	-45.4	-60.1	3.6	1.51e+00	0	30	104	0	60	41102
2026-01-26 23:43:44.49	17.55	1.54	-45.1	-59.8	3.6	1.51e+00	0	30	104	0	60	39669
2026-01-26 23:43:47.51	17.55	1.75	-44.7	-59.5	3.6	1.51e+00	0	30	104	0	60	38185
2026-01-26 23:43:50.54	17.55	1.96	-44.7	-59.4	3.6	1.51e+00	0	30	104	0	60	37890
2026-01-26 23:43:53.57	17.55	2.17	-44.7	-59.4	3.6	1.51e+00	0	30	104	0	60	37809
2026-01-26 23:43:56.60	17.55	2.38	-44.7	-59.4	3.6	1.51e+00	0	30	104	0	60	37760
2026-01-26 23:43:59.63	17.54	2.60	-44.7	-59.3	3.6	1.51e+00	0	30	104	0	60	37586
2026-01-26 23:44:02.66	17.54	2.82	-44.7	-59.4	3.6	1.51e+00	0	30	104	0	60	37750
2026-01-26 23:44:05.68	17.54	3.04	-44.7	-59.4	3.6	1.51e+00	0	30	104	0	60	37751
2026-01-26 23:44:08.71	17.54	3.26	-44.7	-59.4	3.6	1.51e+00	0	30	104	0	60	37748
2026-01-26 23:44:11.74	17.54	3.48	-44.7	-59.4	3.6	1.51e+00	0	30	104	0	60	37756
2026-01-26 23:44:14.77	17.53	3.71	-44.7	-59.4	3.6	1.51e+00	0	30	104	0	60	37725
2026-01-26 23:44:17.80	17.53	3.94	-44.7	-59.3	3.6	1.51e+00	0	30	104	0	60	37611
2026-01-26 23:44:20.83	17.53	4.17	-44.7	-59.3	3.6	1.51e+00	0	30	104	0	60	37605
2026-01-26 23:44:23.86	17.52	4.41	-44.7	-59.4	3.6	1.51e+00	0	30	104	0	60	38027
2026-01-26 23:44:26.89	17.52	4.64	-44.8	-59.5	3.6	1.51e+00	0	30	104	0	60	38278
2026-01-26 23:44:29.91	17.51	4.88	-44.8	-59.5	3.6	1.51e+00	0	30	104	0	60	38322
2026-01-26 23:44:32.94	17.51	5.13	-45.0	-59.6	3.6	1.51e+00	0	30	104	0	60	38829
2026-01-26 23:44:35.96	17.50	5.37	-44.9	-59.6	3.6	1.51e+00	0	30	104	0	60	38731
2026-01-26 23:44:38.99	17.50	5.62	-45.0	-59.6	3.6	1.51e+00	0	30	104	0	60	38921
2026-01-26 23:44:42.01	17.49	5.88	-45.0	-59.7	3.6	1.51e+00	0	30	104	0	60	38969
2026-01-26 23:44:45.04	17.49	6.13	-45.0	-59.8	3.6	1.51e+00	0	30	104	0	60	39592
2026-01-26 23:44:48.07	17.48	6.39	-45.0	-59.7	3.6	1.51e+00	0	30	104	0	60	39210
2026-01-26 23:44:51.10	17.47	6.65	-45.0	-59.8	3.6	1.51e+00	0	30	104	0	60	39569
2026-01-26 23:44:54.12	17.46	6.92	-45.0	-59.8	3.6	1.51e+00	0	30	104	0	60	39590
2026-01-26 23:44:57.16	17.46	7.19	-44.9	-59.8	3.6	1.51e+00	0	30	104	0	60	39704
2026-01-26 23:45:00.18	17.45	7.47	-45.1	-59.8	3.6	1.51e+00	0	30	104	0	60	39776
2026-01-26 23:45:03.21	17.44	7.74	-45.1	-59.9	3.6	1.51e+00	0	30	104	0	60	40111
2026-01-26 23:45:06.23	17.43	8.03	-45.1	-59.9	3.6	1.51e+00	0	30	104	0	60	39876
2026-01-26 23:45:09.26	17.42	8.31	-45.1	-59.9	3.6	1.51e+00	0	30	104	0	60	40262
2026-01-26 23:45:12.29	17.41	8.60	-45.2	-59.9	3.6	1.51e+00	0	30	104	0	60	40134
2026-01-26 23:45:15.31	17.40	8.90	-45.2	-59.9	3.6	1.51e+00	0	30	104	0	60	40248
2026-01-26 23:45:18.34	17.38	9.20	-45.2	-59.9	3.6	1.51e+00	0	30	104	0	60	40213
2026-01-26 23:45:21.37	17.37	9.51	-45.3	-60.0	3.6	1.51e+00	0	30	104	0	60	40506
2026-01-26 23:45:24.40	17.36	9.82	-44.9	-60.0	3.6	1.51e+00	0	30	104	0	60	40594
2026-01-26 23:45:27.43	17.34	10.13	-45.0	-60.0	3.6	1.51e+00	0	30	104	0	60	40447
2026-01-26 23:45:30.45	17.33	10.46	-44.9	-60.0	3.6	1.51e+00	0	30	104	0	60	40689
2026-01-26 23:45:33.49	17.31	10.78	-45.4	-60.1	3.6	1.51e+00	0	30	104	0	60	40944
2026-01-26 23:45:36.52	17.30	11.12	-45.3	-60.1	3.6	1.51e+00	0	30	104	0	60	40915
2026-01-26 23:45:39.55	17.28	11.46	-45.3	-60.1	3.6	1.51e+00	0	30	104	0	60	41019
2026-01-26 23:45:42.58	17.26	11.80	-45.4	-60.1	3.6	1.51e+00	0	30	104	0	60	40973
2026-01-26 23:45:45.61	17.24	12.16	-45.4	-60.1	3.6	1.51e+00	0	30	104	0	60	41111
2026-01-26 23:45:48.64	17.22	12.52	-45.4	-60.1	3.6	1.51e+00	0	30	104	0	60	41053
2026-01-26 23:45:51.67	17.20	12.88	-45.5	-60.2	3.6	1.51e+00	0	30	104	0	60	41321
2026-01-26 23:45:54.70	17.18	13.26	-45.4	-60.1	3.6	1.51e+00	0	30	104	0	60	41207
2026-01-26 23:45:57.73	17.15	13.64	-45.3	-60.2	3.6	1.51e+00	0	30	104	0	60	41406
2026-01-26 23:46:00.76	17.13	14.03	-45.5	-60.2	3.6	1.51e+00	0	30	104	0	60	41310
2026-01-26 23:46:03.79	17.10	14.43	-45.5	-60.2	3.6	1.51e+00	0	30	104	0	60	41544
2026-01-26 23:46:06.82	17.08	14.84	-45.5	-60.2	3.6	1.51e+00	0	30	104	0	60	41559
2026-01-26 23:46:09.84	17.05	15.25	-45.4	-60.2	3.6	1.51e+00	0	30	104	0	60	41584
2026-01-26 23:46:12.87	17.02	15.68	-45.4	-60.2	3.6	1.51e+00	0	30	104	0	60	41735
2026-01-26 23:46:15.90	16.99	16.11	-45.4	-60.2	3.6	1.51e+00	0	30	104	0	60	41708
2026-01-26 23:46:18.93	16.96	16.56	-45.5	-60.2	3.6	1.51e+00	0	30	104	0	60	41608
2026-01-26 23:46:21.95	16.92	17.02	-45.5	-60.3	3.6	1.51e+00	0	30	104	0	60	41953
2026-01-26 23:46:24.99	16.89	17.49	-45.4	-60.3	3.6	1.51e+00	0	30	104	0	60	41859
2026-01-26 23:46:28.02	16.85	17.97	-45.5	-60.3	3.6	1.51e+00	0	30	104	0	60	42016
2026-01-26 23:46:31.05	16.81	18.46	-45.6	-60.3	3.6	1.51e+00	0	30	104	0	60	41895
2026-01-26 23:46:34.08	16.77	18.96	-45.6	-60.3	3.6	1.51e+00	0	30	104	0	60	42012
2026-01-26 23:46:37.10	16.72	19.48	-45.6	-60.3	3.6	1.51e+00	0	29	104	0	60	42218
2026-01-26 23:46:40.07	16.68	20.00	-45.6	-60.3	3.6	1.51e+00	0	30	104	0	60	42018
2026-01-26 23:46:43.01	16.63	20.54	-45.6	-60.3	3.6	1.51e+00	0	30	104	0	60	42116
2026-01-26 23:46:45.95	16.58	21.08	-45.6	-60.4	3.6	1.51e+00	0	30	104	0	60	42350
2026-01-26 23:46:48.89	16.53	21.64	-45.5	-60.3	3.6	1.51e+00	0	29	104	0	60	42146
2026-01-26 23:46:51.82	16.48	22.22	-45.6	-60.3	3.6	1.51e+00	0	29	104	0	60	42168
2026-01-26 23:46:54.75	16.42	22.81	-45.6	-60.4	3.6	1.51e+00	0	30	104	0	60	42301
2026-01-26 23:46:57.68	16.36	23.42	-45.7	-60.4	3.6	1.51e+00	0	30	104	0	60	42325
2026-01-26 23:47:00.62	16.30	24.05	-45.7	-60.3	3.6	1.51e+00	0	29	104	0	60	42040
2026-01-26 23:47:03.56	16.23	24.70	-45.7	-60.4	3.6	1.51e+00	0	29	104	0	60	42465
2026-01-26 23:47:06.50	16.16	25.37	-45.7	-60.4	3.6	1.51e+00	0	29	104	0	60	42397
2026-01-26 23:47:09.43	16.08	26.06	-45.7	-60.4	3.6	1.51e+00	0	30	104	0	60	42506
2026-01-26 23:47:12.37	16.01	26.77	-45.7	-60.4	3.6	1.51e+00	0	30	104	0	60	42337
2026-01-26 23:47:15.30	15.92	27.51	-45.7	-60.4	3.6	1.51e+00	0	29	104	0	60	42621
2026-01-26 23:47:18.24	15.83	28.27	-45.6	-60.4	3.6	1.51e+00	0	29	104	0	60	42352
2026-01-26 23:47:21.18	15.74	29.06	-45.7	-60.4	3.6	1.51e+00	0	29	104	0	60	42575
2026-01-26 23:47:24.11	15.64	29.87	-45.6	-60.4	3.6	1.51e+00	0	30	104	0	60	42622
2026-01-26 23:47:27.05	15.53	30.71	-45.7	-60.5	3.6	1.51e+00	0	30	104	0	60	42782
2026-01-26 23:47:29.99	15.42	31.59	-45.7	-60.5	3.6	1.51e+00	0	29	104	0	60	42715
2026-01-26 23:47:32.92	15.30	32.49	-45.7	-60.5	3.6	1.51e+00	0	29	104	0	60	42727
2026-01-26 23:47:35.86	15.17	33.43	-45.8	-60.5	3.6	1.51e+00	0	29	104	0	60	43004
2026-01-26 23:47:38.80	15.03	34.40	-45.8	-60.5	3.5	1.51e+00	0	29	104	0	60	43069
2026-01-26 23:47:41.75	14.88	35.42	-45.8	-60.5	3.6	1.51e+00	0	29	104	0	60	42965
2026-01-26 23:47:44.69	14.72	36.47	-45.8	-60.5	3.6	1.51e+00	0	29	104	0	60	42992
2026-01-26 23:47:47.63	14.55	37.56	-45.8	-60.5	3.6	1.51e+00	0	29	104	0	60	42972
2026-01-26 23:47:50.57	14.36	38.69	-45.8	-60.5	3.6	1.51e+00	0	29	104	0	60	43022
2026-01-26 23:47:53.50	14.16	39.87	-45.8	-60.5	3.6	1.51e+00	0	29	104	0	60	42933
2026-01-26 23:47:56.44	13.94	41.09	-45.8	-60.6	3.6	1.51e+00	0	29	104	0	60	43322
2026-01-26 23:47:59.38	13.70	42.36	-45.8	-60.5	3.6	1.51e+00	0	29	104	0	60	42882
2026-01-26 23:48:02.32	13.44	43.69	-45.8	-60.5	3.6	1.51e+00	0	29	104	0	60	42982
2026-01-26 23:48:05.25	13.16	45.06	-45.9	-60.5	3.6	1.51e+00	0	29	104	0	60	43136
2026-01-26 23:48:08.19	12.84	46.49	-45.8	-60.5	3.6	1.51e+00	0	29	104	0	60	43067
2026-01-26 23:48:11.12	12.50	47.97	-45.8	-60.5	3.5	1.51e+00	0	29	104	0	60	43018
2026-01-26 23:48:14.05	12.12	49.51	-45.8	-60.5	3.5	1.51e+00	0	29	104	0	60	42946
2026-01-26 23:48:16.99	11.69	51.12	-45.8	-60.5	3.6	1.51e+00	0	29	104	0	60	43099
2026-01-26 23:48:19.92	11.21	52.78	-45.8	-60.5	3.6	1.51e+00	0	29	104	0	60	43080
2026-01-26 23:48:22.86	10.67	54.51	-45.8	-60.5	3.6	1.51e+00	0	29	104	0	60	42899
2026-01-26 23:48:25.80	10.05	56.31	-45.9	-60.5	3.6	1.51e+00	0	29	104	0	60	43067
2026-01-26 23:48:28.74	9.34	58.16	-45.8	-60.5	3.6	1.51e+00	0	29	104	0	60	42893
2026-01-26 23:48:31.69	8.52	60.09	-45.8	-60.5	3.6	1.51e+00	0	29	104	0	60	42776
2026-01-26 23:48:34.63	7.57	62.06	-45.8	-60.5	3.6	1.51e+00	0	29	104	0	60	42865
2026-01-26 23:48:37.57	6.44	64.10	-45.7	-60.4	3.6	1.51e+00	0	29	104	0	60	42641
2026-01-26 23:48:40.51	5.08	66.18	-45.9	-60.5	3.6	1.51e+00	0	29	104	0	60	43205
2026-01-26 23:48:43.44	3.43	68.31	-45.7	-60.4	3.6	1.51e+00	0	29	104	0	60	42386
2026-01-26 23:48:46.38	1.38	70.48	-45.7	-60.4	3.6	1.51e+00	0	29	104	0	60	42263
2026-01-26 23:48:49.32	358.76	72.67	-45.7	-60.4	3.6	1.51e+00	0	29	104	0	60	42688
2026-01-26 23:48:52.25	355.34	74.85	-45.7	-60.4	3.6	1.51e+00	0	29	104	0	60	42548
2026-01-26 23:48:55.20	350.68	77.02	-45.8	-60.6	3.6	1.51e+00	0	29	104	0	60	43401
2026-01-26 23:48:58.13	344.18	79.09	-45.8	-60.6	3.6	1.51e+00	0	29	104	0	60	43257
2026-01-26 23:49:01.07	334.69	80.98	-45.9	-60.7	3.6	1.51e+00	0	29	104	0	60	43724
2026-01-26 23:49:04.01	320.66	82.53	-46.1	-60.8	3.6	1.51e+00	0	29	104	0	60	44493
2026-01-26 23:49:06.95	301.12	83.44	-45.9	-60.6	3.6	1.51e+00	0	29	104	0	60	43674
2026-01-26 23:49:09.89	278.73	83.43	-46.3	-61.2	3.6	1.51e+00	0	29	104	0	60	46538
2026-01-26 23:49:12.83	259.27	82.50	-46.3	-61.0	3.6	1.51e+00	0	29	104	0	60	45703
2026-01-26 23:49:15.77	245.32	80.95	-46.3	-61.0	3.6	1.51e+00	0	29	104	0	60	45266
2026-01-26 23:49:18.71	235.88	79.05	-46.2	-60.9	3.6	1.51e+00	0	29	104	0	60	45096
2026-01-26 23:49:21.65	229.40	76.97	-46.4	-61.1	3.6	1.51e+00	0	29	104	0	60	46079
2026-01-26 23:49:24.58	224.80	74.81	-46.3	-61.3	3.6	1.51e+00	0	29	104	0	60	46988
2026-01-26 23:49:27.53	221.37	72.60	-46.0	-60.9	3.6	1.51e+00	0	29	104	0	60	45163
2026-01-26 23:49:30.46	218.77	70.42	-46.2	-60.8	3.6	1.51e+00	0	29	104	0	60	44544
2026-01-26 23:49:33.40	216.72	68.24	-45.7	-60.7	3.6	1.51e+00	0	29	104	0	60	43916
2026-01-26 23:49:36.33	215.08	66.11	-45.8	-60.6	3.6	1.51e+00	0	29	104	0	60	43406
2026-01-26 23:49:39.27	213.73	64.02	-45.8	-60.5	3.6	1.51e+00	0	29	104	0	60	43016
2026-01-26 23:49:42.22	212.60	61.97	-45.7	-60.5	3.6	1.51e+00	0	29	104	0	60	43033
2026-01-26 23:49:45.16	211.64	59.99	-45.7	-60.5	3.6	1.51e+00	0	29	104	0	60	43120
2026-01-26 23:49:48.10	210.83	58.06	-45.6	-60.6	3.6	1.51e+00	0	29	104	0	60	43281
2026-01-26 23:49:51.04	210.12	56.20	-45.8	-60.6	3.6	1.51e+00	0	29	104	0	60	43213
2026-01-26 23:49:53.97	209.51	54.41	-45.8	-60.6	3.6	1.51e+00	0	29	104	0	60	43258
2026-01-26 23:49:56.91	208.97	52.67	-45.8	-60.6	3.6	1.51e+00	0	29	104	0	60	43477
2026-01-26 23:49:59.85	208.49	51.00	-45.7	-60.6	3.6	1.51e+00	0	29	104	0	60	43455
2026-01-26 23:50:02.79	208.06	49.38	-45.7	-60.5	3.6	1.51e+00	0	29	104	0	60	43168
2026-01-26 23:50:05.73	207.68	47.83	-45.7	-60.6	3.6	1.51e+00	0	29	104	0	60	43302
2026-01-26 23:50:08.66	207.33	46.34	-45.8	-60.6	3.6	1.51e+00	0	29	104	0	60	43301
2026-01-26 23:50:11.60	207.02	44.91	-45.7	-60.6	3.6	1.51e+00	0	29	104	0	60	43678
2026-01-26 23:50:14.54	206.73	43.52	-45.7	-60.6	3.6	1.51e+00	0	29	104	0	60	43504
2026-01-26 23:50:17.48	206.47	42.20	-45.9	-60.6	3.6	1.51e+00	0	29	104	0	60	43657
2026-01-26 23:50:20.42	206.23	40.92	-45.9	-60.6	3.6	1.51e+00	0	29	104	0	60	43335
2026-01-26 23:50:23.36	206.02	39.69	-45.8	-60.6	3.6	1.51e+00	0	29	104	0	60	43336
2026-01-26 23:50:26.30	205.81	38.51	-45.9	-60.6	3.6	1.51e+00	0	29	104	0	60	43380
2026-01-26 23:50:29.24	205.63	37.37	-45.8	-60.6	3.6	1.51e+00	0	29	104	0	60	43304
2026-01-26 23:50:32.17	205.45	36.28	-45.9	-60.7	3.6	1.51e+00	0	29	104	0	60	43879
2026-01-26 23:50:35.10	205.29	35.23	-45.9	-60.6	3.6	1.51e+00	0	29	104	0	60	43593
2026-01-26 23:50:38.04	205.15	34.22	-45.9	-60.6	3.6	1.51e+00	0	29	104	0	60	43589
2026-01-26 23:50:40.97	205.01	33.24	-45.9	-60.5	3.6	1.51e+00	0	29	104	0	60	43206
2026-01-26 23:50:43.91	204.88	32.30	-45.9	-60.6	3.6	1.51e+00	0	29	104	0	60	43538
2026-01-26 23:50:46.84	204.75	31.39	-45.9	-60.6	3.6	1.51e+00	0	29	104	0	60	43330
2026-01-26 23:50:49.78	204.64	30.51	-45.8	-60.6	3.6	1.51e+00	0	29	104	0	60	43357
2026-01-26 23:50:52.72	204.53	29.67	-45.9	-60.6	3.6	1.51e+00	0	29	104	0	60	43274
2026-01-26 23:50:55.66	204.43	28.85	-45.9	-60.6	3.6	1.51e+00	0	29	104	0	60	43440
2026-01-26 23:50:58.59	204.34	28.06	-45.8	-60.6	3.6	1.51e+00	0	29	104	0	60	43272
2026-01-26 23:51:01.52	204.25	27.30	-45.8	-60.5	3.5	1.51e+00	0	29	104	0	60	43182
2026-01-26 23:51:04.47	204.16	26.56	-45.8	-60.5	3.6	1.51e+00	0	29	104	0	60	43030
2026-01-26 23:51:07.41	204.08	25.84	-45.9	-60.6	3.6	1.51e+00	0	29	104	0	60	43330
2026-01-26 23:51:10.34	204.01	25.15	-45.9	-60.6	3.6	1.51e+00	0	29	104	0	60	43264
2026-01-26 23:51:13.28	203.93	24.48	-45.7	-60.4	3.6	1.51e+00	0	29	104	0	60	42612
2026-01-26 23:51:16.22	203.87	23.83	-45.7	-60.5	3.6	1.51e+00	0	29	104	0	60	42968
2026-01-26 23:51:19.15	203.80	23.20	-45.8	-60.4	3.6	1.51e+00	0	29	104	0	60	42585
2026-01-26 23:51:22.08	203.74	22.58	-45.8	-60.5	3.6	1.51e+00	0	29	104	0	60	43033
2026-01-26 23:51:25.02	203.68	21.99	-45.8	-60.4	3.6	1.51e+00	0	29	104	0	60	42666
2026-01-26 23:51:27.96	203.63	21.41	-45.8	-60.5	3.6	1.51e+00	0	29	104	0	60	43004
2026-01-26 23:51:30.90	203.58	20.85	-45.7	-60.4	3.6	1.51e+00	0	29	104	0	60	42530
2026-01-26 23:51:33.84	203.53	20.30	-45.8	-60.5	3.6	1.51e+00	0	29	104	0	60	42715
2026-01-26 23:51:36.78	203.48	19.77	-45.8	-60.4	3.5	1.51e+00	0	29	104	0	60	42560
2026-01-26 23:51:39.72	203.43	19.25	-45.8	-60.5	3.6	1.51e+00	0	29	104	0	60	42983
2026-01-26 23:51:42.66	203.39	18.74	-45.7	-60.4	3.6	1.51e+00	0	29	104	0	60	42675
2026-01-26 23:51:45.59	203.35	18.25	-45.7	-60.4	3.6	1.51e+00	0	29	104	0	60	42332
2026-01-26 23:51:48.54	203.31	17.77	-45.6	-60.4	3.6	1.51e+00	0	29	104	0	60	42413
2026-01-26 23:51:51.48	203.27	17.30	-45.7	-60.3	3.6	1.51e+00	0	29	104	0	60	42173
2026-01-26 23:51:54.42	203.23	16.84	-45.7	-60.4	3.6	1.51e+00	0	29	104	0	60	42542
2026-01-26 23:51:57.36	203.20	16.40	-45.6	-60.3	3.6	1.51e+00	0	29	104	0	60	42014
2026-01-26 23:52:00.29	203.17	15.96	-45.5	-60.4	3.6	1.51e+00	0	29	104	0	60	42256
2026-01-26 23:52:03.23	203.13	15.53	-45.6	-60.3	3.6	1.51e+00	0	29	104	0	60	41962
2026-01-26 23:52:06.17	203.10	15.12	-45.6	-60.4	3.6	1.51e+00	0	29	104	0	60	42321
2026-01-26 23:52:09.10	203.08	14.71	-45.6	-60.3	3.6	1.51e+00	0	29	104	0	60	41745
2026-01-26 23:52:12.04	203.05	14.31	-45.6	-60.3	3.6	1.51e+00	0	29	104	0	60	41826
2026-01-26 23:52:14.97	203.02	13.92	-45.6	-60.3	3.6	1.51e+00	0	29	104	0	60	42188
2026-01-26 23:52:17.90	203.00	13.54	-45.7	-60.3	3.6	1.51e+00	0	29	104	0	60	42152
2026-01-26 23:52:20.83	202.97	13.17	-45.4	-60.3	3.6	1.51e+00	0	29	104	0	60	41820
2026-01-26 23:52:23.77	202.95	12.80	-45.6	-60.3	3.6	1.51e+00	0	29	104	0	60	41830
2026-01-26 23:52:26.71	202.93	12.44	-45.6	-60.3	3.6	1.51e+00	0	29	104	0	60	41808
2026-01-26 23:52:29.65	202.90	12.09	-45.5	-60.3	3.6	1.51e+00	0	29	104	0	60	41747
2026-01-26 23:52:32.58	202.88	11.74	-45.5	-60.2	3.6	1.51e+00	0	29	104	0	60	41407
2026-01-26 23:52:35.52	202.86	11.40	-45.5	-60.2	3.6	1.51e+00	0	29	104	0	60	41717
2026-01-26 23:52:38.45	202.85	11.07	-45.5	-60.2	3.6	1.51e+00	0	29	104	0	60	41659
2026-01-26 23:52:41.39	202.83	10.74	-45.4	-60.1	3.6	1.51e+00	0	29	104	0	60	40832
2026-01-26 23:52:44.32	202.81	10.42	-45.4	-60.2	3.6	1.51e+00	0	29	104	0	60	41280
2026-01-26 23:52:47.26	202.79	10.10	-45.4	-60.1	3.6	1.51e+00	0	29	104	0	60	40973
2026-01-26 23:52:50.21	202.78	9.79	-45.5	-60.2	3.6	1.51e+00	0	29	104	0	60	41388
2026-01-26 23:52:53.15	202.76	9.48	-45.4	-60.0	3.6	1.51e+00	0	29	104	0	60	40568
2026-01-26 23:52:56.09	202.75	9.18	-45.4	-60.0	3.6	1.51e+00	0	29	104	0	60	40778
2026-01-26 23:52:59.03	202.73	8.89	-45.4	-60.1	3.6	1.51e+00	0	29	104	0	60	41071
2026-01-26 23:53:01.97	202.72	8.59	-45.4	-60.1	3.6	1.51e+00	0	29	104	0	60	41023
2026-01-26 23:53:04.91	202.71	8.31	-45.3	-60.0	3.6	1.51e+00	0	29	104	0	60	40426
2026-01-26 23:53:07.85	202.69	8.02	-45.3	-60.0	3.6	1.51e+00	0	29	104	0	60	40463
2026-01-26 23:53:10.77	202.68	7.75	-45.2	-60.0	3.6	1.51e+00	0	29	104	0	60	40365
2026-01-26 23:53:13.71	202.67	7.47	-45.2	-59.9	3.6	1.51e+00	0	29	104	0	60	40308
2026-01-26 23:53:16.65	202.66	7.20	-45.2	-59.9	3.6	1.51e+00	0	28	104	0	60	40088
2026-01-26 23:53:19.58	202.65	6.93	-45.2	-59.9	3.6	1.51e+00	0	29	104	0	60	40259
2026-01-26 23:53:22.53	202.64	6.67	-45.2	-59.9	3.6	1.51e+00	0	29	104	0	60	40172
2026-01-26 23:53:25.47	202.63	6.41	-45.1	-59.7	3.6	1.51e+00	0	29	104	0	60	39283
2026-01-26 23:53:28.40	202.62	6.16	-45.1	-59.8	3.6	1.51e+00	0	29	104	0	60	39570
2026-01-26 23:53:31.33	202.61	5.90	-45.1	-59.8	3.6	1.51e+00	0	29	104	0	60	39485
2026-01-26 23:53:34.26	202.61	5.65	-45.2	-59.8	3.6	1.51e+00	0	29	104	0	60	39780
2026-01-26 23:53:37.21	202.60	5.41	-44.9	-59.6	3.6	1.51e+00	0	29	104	0	60	38672
2026-01-26 23:53:40.16	202.59	5.16	-45.0	-59.7	3.6	1.51e+00	0	28	104	0	60	39040
2026-01-26 23:53:43.10	202.58	4.92	-45.0	-59.7	3.6	1.51e+00	0	29	104	0	60	39009
2026-01-26 23:53:46.04	202.58	4.69	-45.0	-59.7	3.6	1.51e+00	0	29	104	0	60	39156
2026-01-26 23:53:48.98	202.57	4.45	-44.7	-59.4	3.6	1.51e+00	0	29	104	0	60	37951
2026-01-26 23:53:51.92	202.56	4.22	-44.8	-59.5	3.6	1.51e+00	0	28	104	0	60	38284
2026-01-26 23:53:54.85	202.56	3.99	-44.8	-59.5	3.6	1.51e+00	0	29	104	0	60	38223
2026-01-26 23:53:57.79	202.55	3.76	-44.7	-59.3	3.6	1.51e+00	0	29	104	0	60	37505
2026-01-26 23:54:00.72	202.55	3.54	-44.6	-59.3	3.6	1.51e+00	0	29	104	0	60	37251
2026-01-26 23:54:03.66	202.54	3.32	-44.6	-59.3	3.6	1.51e+00	0	29	104	0	60	37230
2026-01-26 23:54:06.59	202.54	3.10	-44.7	-59.4	3.6	1.51e+00	0	28	104	0	60	37651
2026-01-26 23:54:09.53	202.53	2.88	-45.2	-59.9	3.6	1.51e+00	0	29	104	0	60	40158
2026-01-26 23:54:12.46	202.53	2.67	-45.7	-60.4	3.6	1.51e+00	0	29	104	0	60	42293
2026-01-26 23:54:15.40	202.52	2.46	-45.8	-60.6	3.6	1.51e+00	0	29	104	0	60	43404
2026-01-26 23:54:18.33	202.52	2.25	-45.9	-60.7	3.6	1.51e+00	0	29	104	0	60	43843
2026-01-26 23:54:21.27	202.52	2.04	-45.9	-60.6	3.6	1.51e+00	0	29	104	0	60	43698
2026-01-26 23:54:24.19	202.51	1.83	-45.8	-60.6	3.6	1.51e+00	0	29	104	0	60	43211
2026-01-26 23:54:27.13	202.51	1.63	-45.9	-60.6	3.6	1.51e+00	0	29	104	0	60	43419
2026-01-26 23:54:30.07	202.51	1.42	-45.8	-60.6	3.6	1.51e+00	0	28	104	0	60	43288
2026-01-26 23:54:33.01	202.51	1.22	-45.8	-60.5	3.6	1.51e+00	0	29	104	0	60	43110
2026-01-26 23:54:35.95	202.50	1.02	-45.8	-60.5	3.6	1.51e+00	0	29	104	0	60	42910
2026-01-26 23:54:38.90	202.50	0.83	-45.8	-60.5	3.6	1.51e+00	0	28	104	0	60	43130
2026-01-26 23:54:41.84	202.50	0.63	-45.9	-60.6	3.6	1.51e+00	0	28	104	0	60	43428
2026-01-26 23:54:44.78	202.50	0.44	-45.7	-60.4	3.6	1.51e+00	0	28	104	0	60	42654
2026-01-26 23:54:47.72	202.50	0.24	-45.9	-60.6	3.6	1.51e+00	0	28	104	0	60	43548
2026-01-26 23:54:50.66	202.49	0.05	-45.9	-60.6	3.6	1.51e+00	0	28	104	0	60	43682

#Closed at: 2026-01-26 23:54:53
#Recorded file [0 MB]: D:/lorett/data/35029_260127_114323.dat