passes_logs/2026/01/26/R4.6S_Anadyr/R4.6S_Anadyr__20260126_185604_FENGYUN_3D_rec.log

#Pass ID: 20260126_185604_FENGYUN 3D
#Satellite: FENGYUN 3D
#Configuration: FENGYUN 3D
#almurnet v.1.7.20251203
#Start time: 2026-01-26 18:56:07

#Version: 2.2.20231116
#Station: R4.6S_Anadyr
#Location: 177.4865 lon 64.73178 lat
#TLE: 1 43010U 17072A   26025.99795741 -.00000136  00000+0 -42313-4 0  9999
#TLE: 2 43010  98.9962 357.9855 0002515  89.6991 270.4472 14.19699257424818

#Time	Az	El	Level	Level2	SNR	BER	BlckErr	Temp	State	Recorded	gain1	gain2
2026-01-26 18:56:07.32	28.61	0.19	-49.9	-60.6	3.3	8.40e-01	0	28	0	0	60	38622
2026-01-26 18:56:11.35	28.42	0.41	-49.2	-61.4	3.6	8.45e-01	0	28	104	0	60	42302
2026-01-26 18:56:15.39	28.22	0.64	-49.2	-61.3	3.6	8.45e-01	0	29	104	0	60	41947
2026-01-26 18:56:19.43	28.02	0.87	-49.0	-61.2	3.6	8.45e-01	0	29	104	0	60	41344
2026-01-26 18:56:23.47	27.82	1.10	-48.6	-60.9	3.6	8.47e-01	0	29	104	0	60	39998
2026-01-26 18:56:27.51	27.61	1.33	-48.2	-60.3	3.6	8.45e-01	0	29	104	0	60	37374
2026-01-26 18:56:31.54	27.40	1.56	-47.7	-59.8	3.6	8.47e-01	0	29	104	0	60	35228
2026-01-26 18:56:35.58	27.19	1.80	-47.7	-59.8	3.6	8.46e-01	0	29	104	0	60	35154
2026-01-26 18:56:39.62	26.97	2.03	-47.6	-59.5	3.6	8.45e-01	0	29	104	0	60	34138
2026-01-26 18:56:43.66	26.75	2.27	-47.6	-59.7	3.6	8.44e-01	0	29	104	0	60	34859
2026-01-26 18:56:47.70	26.53	2.51	-47.6	-59.7	3.6	8.46e-01	0	29	104	0	60	34770
2026-01-26 18:56:51.74	26.30	2.75	-47.4	-57.7	3.6	8.43e-01	0	29	104	0	60	27678
2026-01-26 18:56:55.78	26.06	2.99	-46.8	-53.6	4.0	8.41e-01	0	29	104	0	60	17384
2026-01-26 18:56:59.82	25.83	3.24	-41.6	-43.1	16.0	0.00e+00	0	29	0	15728640	56	6502
2026-01-26 18:57:03.86	25.58	3.48	-45.7	-49.5	8.6	2.02e-04	0	29	0	38797312	60	10745
2026-01-26 18:57:07.90	25.34	3.73	-37.9	-38.8	6.1	8.27e-01	0	29	104	54525952	52	4995
2026-01-26 18:57:11.93	25.09	3.98	-37.0	-37.9	20.7	0.00e+00	0	29	0	72351744	48	5633
2026-01-26 18:57:15.97	24.83	4.23	-36.5	-37.4	21.6	0.00e+00	0	29	0	94371840	46	5971
2026-01-26 18:57:20.00	24.57	4.48	-35.9	-36.7	22.2	0.00e+00	0	29	0	117440512	46	5540
2026-01-26 18:57:24.05	24.31	4.74	-35.7	-36.4	22.5	0.00e+00	0	29	0	140509184	44	6029
2026-01-26 18:57:28.08	24.04	5.00	-35.8	-36.6	22.4	0.00e+00	0	29	0	162529280	44	6111
2026-01-26 18:57:32.12	23.77	5.25	-35.3	-36.0	22.9	0.00e+00	0	29	0	185597952	44	5752
2026-01-26 18:57:36.16	23.49	5.51	-35.7	-36.5	23.0	0.00e+00	0	29	0	208666624	44	6039
2026-01-26 18:57:40.20	23.20	5.78	-35.4	-36.2	22.9	0.00e+00	0	29	0	230686720	44	5850
2026-01-26 18:57:44.24	22.91	6.04	-35.1	-35.8	23.3	0.00e+00	0	29	0	253755392	42	6287
2026-01-26 18:57:48.28	22.61	6.31	-35.3	-36.1	23.0	0.00e+00	0	29	0	276824064	42	6478
2026-01-26 18:57:52.31	22.31	6.57	-34.8	-35.5	23.5	0.00e+00	0	29	0	298844160	42	6047
2026-01-26 18:57:56.35	22.01	6.84	-35.3	-36.1	23.1	0.00e+00	0	29	0	321912832	42	6467
2026-01-26 18:58:00.39	21.69	7.12	-34.7	-35.5	23.7	0.00e+00	0	29	0	344981504	42	6034
2026-01-26 18:58:04.43	21.37	7.39	-34.8	-35.5	23.7	0.00e+00	0	29	0	367001600	42	6083
2026-01-26 18:58:08.46	21.05	7.67	-34.7	-35.5	23.7	0.00e+00	0	29	0	390070272	42	6045
2026-01-26 18:58:12.50	20.71	7.94	-34.9	-35.7	23.6	0.00e+00	0	29	0	413138944	42	6198
2026-01-26 18:58:16.54	20.37	8.22	-35.0	-35.7	23.4	0.00e+00	0	29	0	435159040	42	6244
2026-01-26 18:58:20.58	20.03	8.51	-35.0	-35.7	23.6	0.00e+00	0	29	0	458227712	42	6229
2026-01-26 18:58:24.61	19.67	8.79	-34.7	-35.4	23.8	0.00e+00	0	29	0	481296384	42	5999
2026-01-26 18:58:28.65	19.31	9.08	-34.7	-35.4	23.8	0.00e+00	0	29	0	503316480	42	5986
2026-01-26 18:58:32.69	18.94	9.37	-34.2	-34.9	24.5	0.00e+00	0	29	0	526385152	42	5639
2026-01-26 18:58:36.73	18.57	9.66	-34.3	-35.1	24.3	0.00e+00	0	29	0	548405248	42	5768
2026-01-26 18:58:40.76	18.18	9.95	-34.0	-34.7	24.6	0.00e+00	0	29	0	571473920	42	5522
2026-01-26 18:58:44.80	17.79	10.25	-33.9	-34.6	24.8	0.00e+00	0	29	0	594542592	42	5487
2026-01-26 18:58:48.83	17.39	10.54	-33.9	-34.6	24.7	0.00e+00	0	29	0	617611264	42	5443
2026-01-26 18:58:52.87	16.98	10.84	-33.7	-34.4	24.8	0.00e+00	0	29	0	639631360	40	6005
2026-01-26 18:58:56.91	16.56	11.15	-33.7	-34.3	24.9	0.00e+00	0	29	0	662700032	40	5955
2026-01-26 18:59:00.95	16.13	11.45	-33.4	-34.1	25.2	0.00e+00	0	29	0	685768704	40	5806
2026-01-26 18:59:04.99	15.70	11.76	-33.4	-34.1	25.2	0.00e+00	0	29	0	707788800	40	5773
2026-01-26 18:59:09.03	15.25	12.06	-33.4	-34.1	25.1	0.00e+00	0	29	0	730857472	40	5792
2026-01-26 18:59:13.07	14.80	12.38	-33.5	-34.2	25.1	0.00e+00	0	29	0	752877568	40	5829
2026-01-26 18:59:17.11	14.33	12.69	-33.5	-34.2	25.0	0.00e+00	0	28	0	775946240	40	5877
2026-01-26 18:59:21.14	13.86	13.00	-33.3	-34.0	25.4	0.00e+00	0	29	0	799014912	40	5703
2026-01-26 18:59:25.18	13.37	13.32	-33.3	-33.9	25.4	0.00e+00	0	28	0	822083584	40	5693
2026-01-26 18:59:29.22	12.87	13.64	-32.9	-33.6	25.7	0.00e+00	0	29	0	844103680	40	5462
2026-01-26 18:59:33.26	12.36	13.96	-33.0	-33.7	25.7	0.00e+00	0	28	0	867172352	40	5512
2026-01-26 18:59:37.29	11.84	14.28	-32.9	-33.5	25.7	0.00e+00	0	28	0	890241024	40	5425
2026-01-26 18:59:41.33	11.31	14.61	-32.7	-33.3	25.9	0.00e+00	0	28	0	912261120	40	5311
2026-01-26 18:59:45.37	10.77	14.93	-32.5	-33.2	26.1	0.00e+00	0	28	0	935329792	38	5865
2026-01-26 18:59:49.41	10.21	15.26	-32.6	-33.3	26.1	0.00e+00	0	28	0	957349888	38	5921
2026-01-26 18:59:53.45	9.64	15.59	-32.3	-32.9	26.3	0.00e+00	0	28	0	980418560	38	5667
2026-01-26 18:59:57.49	9.06	15.92	-32.4	-33.1	26.2	0.00e+00	0	28	0	1003487232	38	5780
2026-01-26 19:00:01.53	8.46	16.26	-32.2	-32.9	26.4	0.00e+00	0	28	0	1025507328	38	5656
2026-01-26 19:00:05.57	7.85	16.59	-32.0	-32.6	26.6	0.00e+00	0	28	0	1048576000	38	5481
2026-01-26 19:00:09.61	7.23	16.93	-32.0	-32.7	26.6	0.00e+00	0	28	0	1071644672	38	5528
2026-01-26 19:00:13.65	6.59	17.26	-32.1	-32.8	26.5	0.00e+00	0	28	0	1094713344	38	5579
2026-01-26 19:00:17.68	5.94	17.60	-31.9	-32.5	26.7	0.00e+00	0	28	0	1116733440	38	5436
2026-01-26 19:00:21.72	5.27	17.94	-32.1	-32.8	26.7	0.00e+00	0	28	0	1139802112	36	6285
2026-01-26 19:00:25.75	4.59	18.28	-31.9	-32.5	26.9	0.00e+00	0	28	0	1161822208	36	6065
2026-01-26 19:00:29.79	3.89	18.61	-32.0	-32.7	26.8	0.00e+00	0	28	0	1184890880	36	6209
2026-01-26 19:00:33.83	3.18	18.95	-31.5	-32.1	27.1	0.00e+00	0	28	0	1207959552	36	5795
2026-01-26 19:00:37.87	2.45	19.29	-31.6	-32.2	27.0	0.00e+00	0	28	0	1229979648	36	5870
2026-01-26 19:00:41.90	1.70	19.63	-31.9	-32.5	26.8	0.00e+00	0	28	0	1253048320	36	6067
2026-01-26 19:00:45.94	0.93	19.97	-31.7	-32.3	26.9	0.00e+00	0	28	0	1276116992	36	5946
2026-01-26 19:00:49.97	0.15	20.30	-31.6	-32.2	27.0	0.00e+00	0	28	0	1298137088	36	5871
2026-01-26 19:00:54.01	359.35	20.64	-31.3	-32.0	27.3	0.00e+00	0	28	0	1321205760	36	5697
2026-01-26 19:00:58.05	358.54	20.97	-31.5	-32.2	27.1	0.00e+00	0	28	0	1344274432	36	5838
2026-01-26 19:01:02.09	357.70	21.30	-31.0	-31.7	27.4	0.00e+00	0	28	0	1366294528	36	5519
2026-01-26 19:01:06.13	356.85	21.63	-31.1	-31.7	27.4	0.00e+00	0	28	0	1389363200	36	5541
2026-01-26 19:01:10.17	355.98	21.96	-31.1	-31.8	27.4	0.00e+00	0	28	0	1412431872	36	5575
2026-01-26 19:01:14.20	355.09	22.28	-31.0	-31.6	27.5	0.00e+00	0	28	0	1434451968	36	5474
2026-01-26 19:01:18.24	354.18	22.60	-31.2	-31.8	27.3	0.00e+00	0	28	0	1457520640	36	5589
2026-01-26 19:01:22.28	353.25	22.92	-31.2	-31.9	27.5	0.00e+00	0	28	0	1480589312	36	5661
2026-01-26 19:01:26.32	352.30	23.23	-30.8	-31.4	27.7	0.00e+00	0	28	0	1502609408	36	5375
2026-01-26 19:01:30.35	351.33	23.54	-30.9	-31.6	27.6	0.00e+00	0	28	0	1525678080	34	6124
2026-01-26 19:01:34.39	350.35	23.84	-31.0	-31.6	27.5	0.00e+00	0	28	0	1548746752	34	6151
2026-01-26 19:01:38.43	349.34	24.13	-30.8	-31.5	27.7	0.00e+00	0	28	0	1570766848	34	6059
2026-01-26 19:01:42.47	348.31	24.42	-30.7	-31.3	27.7	0.00e+00	0	28	0	1593835520	34	5921
2026-01-26 19:01:46.50	347.27	24.70	-30.6	-31.3	27.8	0.00e+00	0	28	0	1616904192	34	5897
2026-01-26 19:01:50.54	346.21	24.98	-31.1	-31.7	27.5	0.00e+00	0	28	0	1638924288	34	6195
2026-01-26 19:01:54.58	345.13	25.24	-30.5	-31.1	28.0	0.00e+00	0	28	0	1661992960	34	5779
2026-01-26 19:01:58.62	344.03	25.50	-30.4	-31.0	28.1	0.00e+00	0	28	0	1685061632	34	5713
2026-01-26 19:02:02.66	342.91	25.75	-30.5	-31.1	27.9	0.00e+00	0	28	0	1707081728	34	5820
2026-01-26 19:02:06.70	341.78	25.99	-30.6	-31.2	27.8	0.00e+00	0	28	0	1730150400	34	5880
2026-01-26 19:02:10.74	340.62	26.21	-30.4	-31.0	28.0	0.00e+00	0	28	0	1753219072	34	5726
2026-01-26 19:02:14.78	339.45	26.43	-30.6	-31.2	27.9	0.00e+00	0	28	0	1775239168	34	5860
2026-01-26 19:02:18.82	338.27	26.63	-30.4	-31.0	28.0	0.00e+00	0	28	0	1798307840	34	5752
2026-01-26 19:02:22.86	337.07	26.83	-30.5	-31.1	27.9	0.00e+00	0	28	0	1821376512	34	5814
2026-01-26 19:02:26.90	335.86	27.01	-30.4	-31.0	28.0	0.00e+00	0	28	0	1843396608	34	5751
2026-01-26 19:02:30.94	334.63	27.17	-30.6	-31.2	27.9	0.00e+00	0	28	0	1866465280	34	5881
2026-01-26 19:02:34.98	333.39	27.32	-31.0	-31.6	27.8	0.00e+00	0	28	0	1889533952	34	6154
2026-01-26 19:02:39.02	332.14	27.46	-30.9	-31.5	27.9	0.00e+00	0	28	0	1911554048	34	6055
2026-01-26 19:02:43.05	330.88	27.59	-31.1	-31.8	27.3	0.00e+00	0	28	0	1934622720	34	6278
2026-01-26 19:02:47.09	329.61	27.69	-30.7	-31.4	27.8	0.00e+00	0	28	0	1957691392	34	5969
2026-01-26 19:02:51.13	328.33	27.79	-30.4	-31.0	28.1	0.00e+00	0	28	0	1979711488	34	5756
2026-01-26 19:02:55.17	327.05	27.86	-30.2	-30.7	28.3	0.00e+00	0	28	0	2002780160	34	5564
2026-01-26 19:02:59.21	325.75	27.93	-29.9	-30.5	28.5	0.00e+00	0	28	0	2025848832	34	5423
2026-01-26 19:03:03.25	324.46	27.97	-30.0	-30.6	28.4	0.00e+00	0	28	0	2047868928	32	6116
2026-01-26 19:03:07.28	323.16	28.00	-30.1	-30.7	28.4	0.00e+00	0	28	0	2070937600	32	6219
2026-01-26 19:03:11.32	321.86	28.01	-30.3	-30.9	28.1	0.00e+00	0	28	0	2094006272	32	6343
2026-01-26 19:03:15.36	320.56	28.01	-30.6	-31.3	27.9	0.00e+00	0	28	0	2116026368	34	5913
2026-01-26 19:03:19.40	319.26	27.99	-30.2	-30.9	28.3	0.00e+00	0	28	0	2139095040	34	5636
2026-01-26 19:03:23.44	317.96	27.95	-30.2	-30.8	28.0	0.00e+00	0	28	0	2162163712	34	5585
2026-01-26 19:03:27.48	316.67	27.90	-30.0	-30.6	28.4	0.00e+00	0	27	0	2184183808	34	5480
2026-01-26 19:03:31.52	315.38	27.83	-30.3	-30.9	28.3	0.00e+00	0	28	0	2207252480	34	5656
2026-01-26 19:03:35.56	314.09	27.75	-30.4	-31.0	28.2	0.00e+00	0	28	0	2230321152	34	5739
2026-01-26 19:03:39.59	312.82	27.65	-30.2	-30.9	28.2	0.00e+00	0	28	0	2252341248	34	5659
2026-01-26 19:03:43.63	311.55	27.53	-30.4	-31.0	28.3	0.00e+00	0	28	0	2275409920	34	5730
2026-01-26 19:03:47.67	310.29	27.40	-30.5	-31.1	28.2	0.00e+00	0	28	0	2298478592	34	5820
2026-01-26 19:03:51.71	309.05	27.26	-30.2	-30.8	28.4	0.00e+00	0	28	0	2320498688	34	5613
2026-01-26 19:03:55.75	307.81	27.10	-31.0	-31.6	28.1	0.00e+00	0	28	0	2343567360	34	6116
2026-01-26 19:03:59.79	306.59	26.92	-31.0	-31.6	28.1	0.00e+00	0	28	0	2366636032	34	6164
2026-01-26 19:04:03.83	305.38	26.74	-30.5	-31.0	28.2	0.00e+00	0	28	0	2388656128	34	5758
2026-01-26 19:04:07.87	304.18	26.54	-31.0	-31.5	28.1	0.00e+00	0	27	0	2411724800	36	5412
2026-01-26 19:04:11.91	303.01	26.33	-31.4	-32.0	27.6	0.00e+00	0	28	0	2434793472	34	6403
2026-01-26 19:04:15.95	301.84	26.11	-30.5	-31.1	28.2	0.00e+00	0	27	0	2456813568	34	5828
2026-01-26 19:04:19.99	300.70	25.88	-30.3	-30.9	28.1	0.00e+00	0	27	0	2479882240	34	5645
2026-01-26 19:04:24.03	299.57	25.63	-30.3	-31.0	28.1	0.00e+00	0	28	0	2502950912	34	5715
2026-01-26 19:04:28.06	298.46	25.38	-30.3	-30.8	28.2	0.00e+00	0	27	0	2524971008	34	5630
2026-01-26 19:04:32.10	297.36	25.12	-30.2	-30.8	28.1	0.00e+00	0	27	0	2548039680	34	5595
2026-01-26 19:04:36.14	296.29	24.85	-30.3	-30.9	28.1	0.00e+00	0	27	0	2571108352	34	5633
2026-01-26 19:04:40.17	295.23	24.57	-30.8	-31.5	27.6	0.00e+00	0	27	0	2593128448	34	6038
2026-01-26 19:04:44.22	294.19	24.29	-30.4	-31.1	28.0	0.00e+00	0	27	0	2616197120	34	5817
2026-01-26 19:04:48.26	293.18	23.99	-30.4	-31.0	28.0	0.00e+00	0	27	0	2639265792	34	5760
2026-01-26 19:04:52.29	292.18	23.69	-30.3	-31.0	28.1	0.00e+00	0	27	0	2661285888	34	5720
2026-01-26 19:04:56.33	291.20	23.39	-30.2	-30.8	28.2	0.00e+00	0	27	0	2684354560	34	5598
2026-01-26 19:05:00.36	290.24	23.08	-30.6	-31.1	27.7	0.00e+00	0	27	0	2707423232	34	5821
2026-01-26 19:05:04.41	289.29	22.77	-31.0	-31.7	27.3	0.00e+00	0	27	0	2729443328	34	6216
2026-01-26 19:05:08.44	288.37	22.45	-30.5	-31.2	27.7	0.00e+00	0	27	0	2752512000	34	5873
2026-01-26 19:05:12.48	287.47	22.12	-30.9	-31.6	27.6	0.00e+00	0	27	0	2774532096	34	6124
2026-01-26 19:05:16.52	286.58	21.80	-31.2	-31.8	27.4	0.00e+00	0	27	0	2797600768	34	6250
2026-01-26 19:05:20.55	285.72	21.47	-31.3	-31.8	27.2	0.00e+00	0	27	0	2820669440	34	6282
2026-01-26 19:05:24.59	284.87	21.14	-31.4	-32.0	26.8	0.00e+00	0	27	0	2843738112	34	6420
2026-01-26 19:05:28.62	284.04	20.81	-31.4	-31.9	26.9	0.00e+00	0	27	0	2865758208	34	6368
2026-01-26 19:05:32.66	283.23	20.47	-31.8	-32.3	26.8	0.00e+00	0	28	0	2888826880	36	5951
2026-01-26 19:05:36.69	282.44	20.13	-31.4	-32.1	27.0	0.00e+00	0	28	0	2911895552	36	5773
2026-01-26 19:05:40.73	281.66	19.80	-31.4	-31.9	27.1	0.00e+00	0	28	0	2933915648	36	5687
2026-01-26 19:05:44.77	280.90	19.46	-31.5	-32.1	26.9	0.00e+00	0	28	0	2956984320	36	5793
2026-01-26 19:05:48.81	280.16	19.12	-31.7	-32.4	26.9	0.00e+00	0	28	0	2979004416	36	6012
2026-01-26 19:05:52.84	279.44	18.78	-31.8	-32.3	27.1	0.00e+00	0	28	0	3002073088	36	5948
2026-01-26 19:05:56.88	278.73	18.44	-31.3	-32.0	27.1	0.00e+00	0	28	0	3025141760	36	5758
2026-01-26 19:06:00.92	278.03	18.10	-31.8	-32.5	26.9	0.00e+00	0	28	0	3047161856	36	6052
2026-01-26 19:06:04.96	277.35	17.76	-32.0	-32.5	26.7	0.00e+00	0	28	0	3070230528	36	6086
2026-01-26 19:06:08.99	276.69	17.42	-32.0	-32.6	26.6	0.00e+00	0	28	0	3093299200	36	6148
2026-01-26 19:06:13.03	276.04	17.08	-32.3	-32.8	26.4	0.00e+00	0	28	0	3116367872	36	6310
2026-01-26 19:06:17.07	275.41	16.75	-32.6	-33.2	26.2	0.00e+00	0	28	0	3138387968	38	5835
2026-01-26 19:06:21.11	274.79	16.41	-32.2	-32.9	26.4	0.00e+00	0	28	0	3161456640	38	5654
2026-01-26 19:06:25.15	274.18	16.08	-32.5	-33.2	26.3	0.00e+00	0	28	0	3183476736	38	5842
2026-01-26 19:06:29.19	273.59	15.74	-33.0	-33.5	26.0	0.00e+00	0	28	0	3206545408	38	6095
2026-01-26 19:06:33.23	273.01	15.41	-32.8	-33.6	25.8	0.00e+00	0	28	0	3229614080	38	6116
2026-01-26 19:06:37.26	272.45	15.08	-32.7	-33.3	25.9	0.00e+00	0	28	0	3251634176	38	5936
2026-01-26 19:06:41.30	271.90	14.75	-32.8	-33.6	25.9	0.00e+00	0	28	0	3274702848	38	6106
2026-01-26 19:06:45.34	271.35	14.43	-32.8	-33.6	25.9	0.00e+00	0	28	0	3297771520	38	6104
2026-01-26 19:06:49.38	270.82	14.10	-33.0	-33.6	25.6	0.00e+00	0	28	0	3320840192	38	6138
2026-01-26 19:06:53.42	270.31	13.78	-33.2	-34.0	25.4	0.00e+00	0	28	0	3342860288	38	6419
2026-01-26 19:06:57.46	269.80	13.46	-33.1	-33.7	25.6	0.00e+00	0	28	0	3365928960	38	6215
2026-01-26 19:07:01.49	269.31	13.14	-33.1	-33.8	25.7	0.00e+00	0	28	0	3387949056	38	6292
2026-01-26 19:07:05.53	268.82	12.82	-33.4	-34.0	25.3	0.00e+00	0	28	0	3411017728	38	6409
2026-01-26 19:07:09.57	268.35	12.51	-34.3	-34.9	25.0	0.00e+00	0	28	0	3434086400	40	6357
2026-01-26 19:07:13.61	267.88	12.20	-34.5	-35.2	24.4	0.00e+00	0	28	0	3456106496	40	6591
2026-01-26 19:07:17.64	267.43	11.89	-34.6	-35.3	24.4	0.00e+00	0	28	0	3479175168	42	5902
2026-01-26 19:07:21.68	266.99	11.58	-34.1	-34.8	24.7	0.00e+00	0	28	0	3502243840	42	5594
2026-01-26 19:07:25.72	266.55	11.27	-34.0	-34.7	24.9	0.00e+00	0	28	0	3524263936	42	5561
2026-01-26 19:07:29.76	266.13	10.97	-34.0	-34.7	24.8	0.00e+00	0	28	0	3547332608	42	5540
2026-01-26 19:07:33.80	265.71	10.67	-34.1	-34.7	24.6	0.00e+00	0	28	0	3570401280	42	5546
2026-01-26 19:07:37.84	265.30	10.37	-34.1	-34.7	24.7	0.00e+00	0	28	0	3592421376	42	5544
2026-01-26 19:07:41.87	264.90	10.07	-34.5	-35.1	24.3	0.00e+00	0	28	0	3615490048	42	5801
2026-01-26 19:07:45.91	264.51	9.77	-34.3	-35.1	24.4	0.00e+00	0	28	0	3638558720	42	5805
2026-01-26 19:07:49.95	264.13	9.48	-34.6	-35.2	24.2	0.00e+00	0	28	0	3660578816	42	5892
2026-01-26 19:07:53.98	263.76	9.19	-34.5	-35.1	24.2	0.00e+00	0	28	0	3683647488	42	5814
2026-01-26 19:07:58.02	263.39	8.90	-34.4	-35.1	24.3	0.00e+00	0	28	0	3706716160	42	5827
2026-01-26 19:08:02.06	263.03	8.62	-35.0	-35.8	23.8	0.00e+00	0	28	0	3728736256	42	6246
2026-01-26 19:08:06.09	262.68	8.33	-34.8	-35.5	23.9	0.00e+00	0	28	0	3751804928	42	6049
2026-01-26 19:08:10.12	262.33	8.05	-34.8	-35.6	23.9	0.00e+00	0	28	0	3773825024	42	6118
2026-01-26 19:08:14.16	261.99	7.77	-34.7	-35.4	23.9	0.00e+00	0	28	0	3796893696	42	5971
2026-01-26 19:08:18.20	261.66	7.49	-34.8	-35.6	23.8	0.00e+00	0	28	0	3819962368	42	6131
2026-01-26 19:08:22.24	261.33	7.22	-35.0	-35.6	23.7	0.00e+00	0	28	0	3843031040	42	6167
2026-01-26 19:08:26.28	261.01	6.94	-35.1	-35.8	23.6	0.00e+00	0	28	0	3865051136	42	6278
2026-01-26 19:08:30.32	260.70	6.67	-34.9	-35.5	23.7	0.00e+00	1	28	0	3888119808	42	6096
2026-01-26 19:08:34.36	260.39	6.40	-35.2	-35.9	23.3	0.00e+00	0	28	0	3911188480	44	5646
2026-01-26 19:08:38.40	260.09	6.13	-35.2	-35.9	23.3	0.00e+00	0	28	0	3933208576	44	5645
2026-01-26 19:08:42.43	259.79	5.87	-35.4	-36.0	23.1	0.00e+00	0	29	0	3956277248	44	5752
2026-01-26 19:08:46.47	259.50	5.61	-35.3	-36.1	23.1	0.00e+00	0	28	0	3978297344	44	5818
2026-01-26 19:08:50.50	259.22	5.34	-35.6	-36.3	22.8	0.00e+00	0	28	0	4001366016	44	5912
2026-01-26 19:08:54.54	258.94	5.08	-35.7	-36.4	22.6	0.00e+00	0	28	0	4024434688	44	6004
2026-01-26 19:08:58.58	258.66	4.83	-35.8	-36.7	22.4	0.00e+00	0	28	0	4046454784	44	6179
2026-01-26 19:09:02.61	258.39	4.57	-36.1	-36.9	22.2	0.00e+00	0	28	0	4069523456	44	6338
2026-01-26 19:09:06.65	258.13	4.32	-35.8	-36.6	22.3	0.00e+00	0	28	0	4092592128	44	6147
2026-01-26 19:09:10.69	257.87	4.06	-36.1	-36.8	22.0	0.00e+00	0	29	0	4114612224	44	6311
2026-01-26 19:09:14.72	257.61	3.81	-36.1	-36.9	21.9	0.00e+00	0	29	0	4137680896	44	6338
2026-01-26 19:09:18.76	257.36	3.57	-36.1	-37.0	22.1	0.00e+00	0	28	0	4160749568	44	6393
2026-01-26 19:09:22.80	257.11	3.32	-36.9	-37.8	21.2	0.00e+00	0	28	0	4182769664	46	6283
2026-01-26 19:09:26.84	256.87	3.07	-37.4	-38.3	20.7	0.00e+00	0	29	0	4205838336	46	6617
2026-01-26 19:09:30.88	256.63	2.83	-48.8	-60.9	3.6	8.46e-01	0	29	104	4215275520	60	40164
2026-01-26 19:09:34.92	256.40	2.59	-49.1	-61.3	3.6	8.46e-01	0	29	104	4215275520	60	41814
2026-01-26 19:09:38.96	256.17	2.35	-49.2	-61.3	3.6	8.45e-01	0	29	104	4215275520	60	41997
2026-01-26 19:09:43.00	255.94	2.11	-49.1	-61.3	3.6	8.45e-01	0	29	104	4215275520	60	41793
2026-01-26 19:09:47.04	255.72	1.87	-49.3	-61.4	3.6	8.46e-01	0	29	104	4215275520	60	42668
2026-01-26 19:09:51.08	255.50	1.63	-49.2	-61.4	3.6	8.44e-01	0	29	104	4215275520	60	42342
2026-01-26 19:09:55.12	255.29	1.40	-49.5	-61.6	3.6	8.46e-01	0	29	104	4215275520	60	43664
2026-01-26 19:09:59.16	255.08	1.17	-49.4	-61.5	3.6	8.46e-01	0	29	104	4215275520	60	43186
2026-01-26 19:10:03.20	254.87	0.94	-49.3	-61.5	3.6	8.44e-01	0	29	104	4215275520	60	42850
2026-01-26 19:10:07.24	254.66	0.71	-49.3	-61.4	3.6	8.46e-01	0	29	104	4215275520	60	42562
2026-01-26 19:10:11.28	254.46	0.48	-49.8	-61.9	3.6	8.45e-01	0	29	104	4215275520	60	45080
2026-01-26 19:10:15.32	254.26	0.25	-49.5	-61.6	3.6	8.46e-01	0	29	104	4215275520	60	43393
2026-01-26 19:10:19.35	254.07	0.02	-49.9	-62.0	3.6	8.45e-01	0	29	104	4215275520	60	45582

#Closed at: 2026-01-26 19:10:19
#Recorded file [4215 MB]: D:/lorett/data/35029_260127_065607.dat