passes_logs/2026/01/26/R4.6S_Anadyr/R4.6S_Anadyr__20260126_033034_FENGYUN_3D_rec.log

#Pass ID: 20260126_033034_FENGYUN 3D
#Satellite: FENGYUN 3D
#Configuration: FENGYUN 3D
#almurnet v.1.7.20251203
#Start time: 2026-01-26 03:30:37

#Version: 2.2.20231116
#Station: R4.6S_Anadyr
#Location: 177.4865 lon 64.73178 lat
#TLE: 1 43010U 17072A   26025.50461972  .00000046  00000+0  43592-4 0  9990
#TLE: 2 43010  98.9962 357.4844 0002523  89.7890 270.3575 14.19699798424744

#Time	Az	El	Level	Level2	SNR	BER	BlckErr	Temp	State	Recorded	gain1	gain2
2026-01-26 03:30:37.62	187.46	0.18	-50.8	-61.5	3.3	8.41e-01	0	28	0	0	60	42865
2026-01-26 03:30:41.66	187.63	0.41	-50.4	-62.5	3.6	8.44e-01	0	28	104	0	60	48471
2026-01-26 03:30:45.69	187.80	0.65	-50.0	-62.1	3.6	8.46e-01	0	28	104	0	60	46164
2026-01-26 03:30:49.73	187.97	0.88	-49.6	-61.7	3.6	8.45e-01	0	28	104	0	60	43862
2026-01-26 03:30:53.77	188.14	1.12	-49.1	-61.2	3.6	8.46e-01	0	28	104	0	60	41566
2026-01-26 03:30:57.81	188.32	1.36	-48.4	-60.5	3.6	8.45e-01	0	28	104	0	60	38119
2026-01-26 03:31:01.85	188.50	1.60	-48.7	-60.7	3.6	8.45e-01	0	28	104	0	60	39386
2026-01-26 03:31:05.89	188.68	1.84	-48.5	-60.4	3.6	8.45e-01	0	28	104	0	60	37670
2026-01-26 03:31:09.93	188.86	2.09	-48.3	-60.2	3.6	8.44e-01	0	28	104	0	60	37115
2026-01-26 03:31:13.97	189.05	2.34	-48.8	-60.8	3.6	8.46e-01	0	28	104	0	60	39414
2026-01-26 03:31:18.01	189.24	2.58	-49.0	-60.5	3.6	8.46e-01	0	28	104	0	60	38149
2026-01-26 03:31:22.05	189.44	2.84	-48.0	-57.9	3.6	8.44e-01	0	28	104	0	60	28353
2026-01-26 03:31:26.09	189.63	3.09	-44.3	-46.6	14.1	7.64e-04	0	28	0	13631488	60	7706
2026-01-26 03:31:30.13	189.83	3.34	-39.1	-40.1	19.5	0.00e+00	0	28	0	35651584	52	5790
2026-01-26 03:31:34.17	190.03	3.60	-48.3	-59.3	3.6	6.05e-01	0	28	104	56623104	60	33246
2026-01-26 03:31:38.21	190.24	3.86	-38.0	-38.9	20.8	0.00e+00	0	28	0	70254592	50	5681
2026-01-26 03:31:42.25	190.45	4.12	-37.8	-38.7	21.2	0.00e+00	0	28	0	92274688	48	6212
2026-01-26 03:31:46.29	190.66	4.38	-37.4	-38.2	21.8	0.00e+00	0	28	0	115343360	48	5892
2026-01-26 03:31:50.33	190.88	4.65	-37.8	-38.6	21.3	0.00e+00	0	29	0	137363456	48	6164
2026-01-26 03:31:54.37	191.10	4.92	-38.7	-39.7	20.5	0.00e+00	0	29	0	160432128	52	5505
2026-01-26 03:31:58.41	191.33	5.19	-38.6	-39.5	20.0	0.00e+00	0	29	0	183500800	48	6837
2026-01-26 03:32:02.45	191.55	5.46	-37.8	-38.7	21.2	0.00e+00	0	29	0	206569472	50	5523
2026-01-26 03:32:06.49	191.79	5.74	-38.8	-39.7	19.7	0.00e+00	0	29	0	228589568	50	6241
2026-01-26 03:32:10.53	192.02	6.01	-37.9	-38.8	21.2	0.00e+00	0	29	0	251658240	50	5618
2026-01-26 03:32:14.57	192.26	6.30	-36.4	-37.2	22.6	0.00e+00	0	29	0	274726912	46	5876
2026-01-26 03:32:18.61	192.51	6.58	-35.7	-36.4	23.2	0.00e+00	0	29	0	296747008	46	5366
2026-01-26 03:32:22.65	192.76	6.86	-35.7	-36.5	23.4	0.00e+00	0	29	0	319815680	44	6049
2026-01-26 03:32:26.69	193.01	7.15	-35.8	-36.6	23.1	0.00e+00	0	29	0	342884352	44	6129
2026-01-26 03:32:30.73	193.27	7.45	-35.2	-35.9	24.1	0.00e+00	0	29	0	364904448	44	5658
2026-01-26 03:32:34.77	193.54	7.74	-34.9	-35.6	24.4	0.00e+00	0	29	0	387973120	44	5479
2026-01-26 03:32:38.82	193.81	8.04	-35.5	-36.2	23.8	0.00e+00	0	29	0	411041792	42	6570
2026-01-26 03:32:42.85	194.08	8.34	-34.6	-35.3	24.5	0.00e+00	0	29	0	433061888	42	5950
2026-01-26 03:32:46.89	194.36	8.64	-34.5	-35.1	24.5	0.00e+00	0	29	0	456130560	42	5816
2026-01-26 03:32:50.93	194.65	8.95	-34.7	-35.4	24.6	0.00e+00	0	29	0	479199232	42	5976
2026-01-26 03:32:54.97	194.94	9.26	-35.2	-35.9	24.4	0.00e+00	0	29	0	501219328	42	6353
2026-01-26 03:32:59.01	195.24	9.57	-34.6	-35.3	24.7	0.00e+00	0	29	0	524288000	42	5909
2026-01-26 03:33:03.05	195.54	9.89	-34.9	-35.6	24.7	0.00e+00	0	29	0	547356672	42	6147
2026-01-26 03:33:07.08	195.85	10.21	-34.6	-35.3	24.8	0.00e+00	0	29	0	569376768	42	5902
2026-01-26 03:33:11.12	196.17	10.53	-34.5	-35.2	25.0	0.00e+00	0	29	0	592445440	42	5876
2026-01-26 03:33:15.16	196.49	10.86	-35.5	-36.2	25.0	0.00e+00	0	29	0	615514112	42	6572
2026-01-26 03:33:19.20	196.82	11.19	-35.6	-36.3	24.9	0.00e+00	0	29	0	637534208	44	5908
2026-01-26 03:33:23.24	197.16	11.52	-34.7	-35.4	25.2	0.00e+00	0	29	0	660602880	42	6000
2026-01-26 03:33:27.28	197.50	11.86	-35.1	-35.7	25.2	0.00e+00	0	29	0	683671552	42	6231
2026-01-26 03:33:31.32	197.86	12.20	-34.3	-34.9	25.1	0.00e+00	0	29	0	705691648	42	5690
2026-01-26 03:33:35.36	198.22	12.55	-33.7	-34.4	25.6	0.00e+00	0	29	0	728760320	42	5343
2026-01-26 03:33:39.40	198.59	12.90	-33.8	-34.5	25.5	0.00e+00	0	29	0	751828992	40	6044
2026-01-26 03:33:43.44	198.96	13.25	-34.5	-35.2	25.0	0.00e+00	0	29	0	773849088	42	5832
2026-01-26 03:33:47.48	199.35	13.61	-34.1	-34.8	25.1	0.00e+00	0	29	0	796917760	42	5583
2026-01-26 03:33:51.52	199.75	13.97	-33.7	-34.4	25.7	0.00e+00	0	29	0	819986432	40	6027
2026-01-26 03:33:55.55	200.15	14.34	-33.5	-34.1	25.8	0.00e+00	0	29	0	842006528	40	5827
2026-01-26 03:33:59.59	200.56	14.71	-33.4	-34.1	25.8	0.00e+00	0	29	0	865075200	40	5782
2026-01-26 03:34:03.63	200.99	15.08	-33.9	-34.5	25.6	0.00e+00	0	29	0	888143872	40	6098
2026-01-26 03:34:07.67	201.42	15.46	-33.9	-34.6	25.8	0.00e+00	0	29	0	910163968	40	6127
2026-01-26 03:34:11.71	201.87	15.85	-33.8	-34.4	25.9	0.00e+00	0	29	0	933232640	40	6002
2026-01-26 03:34:15.75	202.33	16.24	-33.6	-34.3	26.2	0.00e+00	0	29	0	956301312	42	5259
2026-01-26 03:34:19.79	202.80	16.63	-33.8	-34.5	25.9	0.00e+00	0	29	0	978321408	40	6036
2026-01-26 03:34:23.83	203.28	17.03	-34.2	-34.9	25.7	0.00e+00	0	29	0	1001390080	42	5654
2026-01-26 03:34:27.87	203.77	17.43	-33.9	-34.5	25.8	0.00e+00	0	29	0	1024458752	40	6092
2026-01-26 03:34:31.91	204.28	17.83	-34.7	-35.3	25.1	0.00e+00	0	29	0	1046478848	44	5304
2026-01-26 03:34:35.94	204.79	18.25	-35.4	-36.1	24.6	0.00e+00	0	29	0	1069547520	44	5793
2026-01-26 03:34:39.98	205.33	18.66	-34.7	-35.4	25.5	0.00e+00	0	29	0	1092616192	42	6009
2026-01-26 03:34:44.03	205.88	19.08	-33.3	-33.9	26.6	0.00e+00	0	29	0	1114636288	40	5679
2026-01-26 03:34:48.06	206.44	19.51	-34.3	-35.0	26.1	0.00e+00	0	29	0	1137704960	40	6430
2026-01-26 03:34:52.10	207.02	19.94	-33.7	-34.4	26.2	0.00e+00	0	29	0	1160773632	40	5971
2026-01-26 03:34:56.14	207.61	20.37	-33.9	-34.6	26.6	0.00e+00	0	29	0	1182793728	40	6115
2026-01-26 03:35:00.18	208.22	20.81	-33.5	-34.2	26.8	0.00e+00	0	29	0	1205862400	38	6567
2026-01-26 03:35:04.22	208.85	21.25	-32.1	-32.7	27.5	0.00e+00	0	29	0	1228931072	38	5525
2026-01-26 03:35:08.26	209.49	21.70	-31.7	-32.3	27.6	0.00e+00	0	29	0	1250951168	36	5921
2026-01-26 03:35:12.30	210.16	22.15	-33.0	-33.6	27.5	0.00e+00	0	29	0	1274019840	38	6138
2026-01-26 03:35:16.34	210.84	22.61	-34.2	-34.8	27.1	0.00e+00	0	29	0	1297088512	40	6300
2026-01-26 03:35:20.38	211.55	23.07	-33.9	-34.5	27.0	0.00e+00	0	29	0	1319108608	40	6080
2026-01-26 03:35:24.41	212.27	23.53	-32.5	-33.1	27.9	0.00e+00	0	29	0	1342177280	38	5788
2026-01-26 03:35:28.45	213.01	24.00	-32.8	-33.4	27.3	0.00e+00	0	29	0	1365245952	38	6019
2026-01-26 03:35:32.49	213.78	24.47	-32.1	-32.7	27.9	0.00e+00	0	29	0	1387266048	36	6223
2026-01-26 03:35:36.53	214.57	24.95	-32.4	-33.0	27.8	0.00e+00	0	29	0	1410334720	38	5736
2026-01-26 03:35:40.57	215.38	25.43	-31.7	-32.3	28.2	0.00e+00	0	29	0	1433403392	36	5919
2026-01-26 03:35:44.61	216.22	25.91	-31.5	-32.1	28.2	0.00e+00	0	29	0	1455423488	36	5777
2026-01-26 03:35:48.64	217.08	26.39	-31.5	-32.1	27.9	0.00e+00	0	29	0	1478492160	34	6513
2026-01-26 03:35:52.69	217.97	26.87	-31.3	-31.9	28.2	0.00e+00	0	29	0	1501560832	36	5664
2026-01-26 03:35:56.73	218.89	27.36	-31.2	-31.8	28.2	0.00e+00	0	29	0	1523580928	36	5628
2026-01-26 03:36:00.77	219.83	27.84	-30.8	-31.5	28.4	0.00e+00	0	29	0	1546649600	34	6048
2026-01-26 03:36:04.81	220.80	28.33	-31.2	-31.8	28.2	0.00e+00	0	29	0	1569718272	34	6272
2026-01-26 03:36:08.85	221.80	28.81	-31.7	-32.3	28.4	0.00e+00	0	29	0	1591738368	36	5930
2026-01-26 03:36:12.89	222.83	29.30	-31.0	-31.6	28.3	0.00e+00	0	29	0	1614807040	34	6141
2026-01-26 03:36:16.93	223.89	29.78	-32.0	-32.7	27.4	0.00e+00	0	30	0	1637875712	34	6951
2026-01-26 03:36:20.97	224.99	30.26	-30.6	-31.2	28.6	0.00e+00	0	30	0	1659895808	34	5888
2026-01-26 03:36:25.01	226.11	30.73	-30.1	-30.7	28.7	0.00e+00	0	29	0	1682964480	34	5550
2026-01-26 03:36:29.05	227.27	31.21	-30.5	-31.1	28.5	0.00e+00	0	29	0	1706033152	34	5802
2026-01-26 03:36:33.09	228.46	31.67	-31.1	-31.8	28.0	0.00e+00	0	29	0	1729101824	34	6280
2026-01-26 03:36:37.13	229.69	32.13	-31.0	-31.6	28.4	0.00e+00	0	29	0	1751121920	34	6124
2026-01-26 03:36:41.17	230.94	32.58	-30.8	-31.4	28.2	0.00e+00	0	29	0	1774190592	34	6000
2026-01-26 03:36:45.22	232.24	33.03	-31.0	-31.6	28.5	0.00e+00	0	29	0	1796210688	34	6152
2026-01-26 03:36:49.25	233.57	33.46	-31.5	-32.1	28.6	0.00e+00	0	29	0	1819279360	38	5174
2026-01-26 03:36:53.24	234.91	33.88	-32.4	-33.0	27.9	0.00e+00	0	29	0	1842348032	36	6416
2026-01-26 03:36:57.28	236.31	34.29	-31.4	-32.0	28.5	0.00e+00	0	29	0	1865416704	36	5715
2026-01-26 03:37:01.32	237.74	34.68	-31.8	-32.4	28.6	0.00e+00	0	29	0	1887436800	34	6704
2026-01-26 03:37:05.35	239.20	35.06	-31.0	-31.6	28.3	0.00e+00	0	29	0	1910505472	36	5463
2026-01-26 03:37:09.39	240.70	35.42	-30.7	-31.4	28.5	0.00e+00	0	29	0	1933574144	34	5989
2026-01-26 03:37:13.43	242.23	35.77	-31.2	-31.9	28.7	0.00e+00	0	29	0	1955594240	34	6335
2026-01-26 03:37:17.47	243.79	36.10	-30.4	-31.0	28.7	0.00e+00	0	29	0	1978662912	34	5760
2026-01-26 03:37:21.51	245.39	36.40	-30.0	-30.7	28.9	0.00e+00	0	29	0	2000683008	34	5508
2026-01-26 03:37:25.54	247.00	36.69	-30.8	-31.4	28.6	0.00e+00	0	29	0	2023751680	34	6020
2026-01-26 03:37:29.58	248.65	36.95	-31.2	-31.8	28.8	0.00e+00	0	29	0	2046820352	34	6265
2026-01-26 03:37:33.62	250.32	37.18	-30.2	-30.9	28.8	0.00e+00	0	29	0	2068840448	34	5639
2026-01-26 03:37:37.66	252.02	37.39	-30.3	-31.0	28.9	0.00e+00	0	29	0	2091909120	34	5710
2026-01-26 03:37:41.70	253.73	37.57	-30.7	-31.3	28.9	0.00e+00	0	29	0	2114977792	34	5951
2026-01-26 03:37:45.74	255.46	37.73	-32.3	-32.9	28.3	0.00e+00	0	29	0	2138046464	36	6379
2026-01-26 03:37:49.78	257.21	37.86	-32.7	-33.3	27.8	0.00e+00	0	29	0	2160066560	38	5936
2026-01-26 03:37:53.82	258.97	37.96	-32.1	-32.7	28.5	0.00e+00	0	29	0	2183135232	36	6233
2026-01-26 03:37:57.86	260.74	38.02	-30.9	-31.5	28.8	0.00e+00	0	29	0	2205155328	36	5421
2026-01-26 03:38:01.90	262.51	38.06	-31.8	-32.4	28.6	0.00e+00	0	29	0	2228224000	36	6024
2026-01-26 03:38:05.94	264.29	38.07	-30.6	-31.2	28.9	0.00e+00	0	29	0	2251292672	34	5831
2026-01-26 03:38:09.97	266.06	38.05	-30.6	-31.2	28.7	0.00e+00	0	29	0	2273312768	34	5888
2026-01-26 03:38:14.01	267.83	37.99	-30.1	-30.8	28.6	0.00e+00	0	29	0	2296381440	34	5579
2026-01-26 03:38:18.05	269.59	37.91	-30.2	-30.8	28.9	0.00e+00	0	29	0	2319450112	34	5577
2026-01-26 03:38:22.09	271.34	37.80	-30.2	-30.7	28.7	0.00e+00	0	29	0	2342518784	34	5544
2026-01-26 03:38:26.13	273.08	37.66	-30.8	-31.4	28.9	0.00e+00	0	30	0	2364538880	34	6005
2026-01-26 03:38:30.17	274.80	37.49	-31.3	-31.8	28.7	0.00e+00	0	29	0	2387607552	36	5611
2026-01-26 03:38:34.20	276.50	37.30	-32.1	-32.6	28.3	0.00e+00	0	29	0	2409627648	36	6135
2026-01-26 03:38:38.24	278.19	37.07	-31.3	-31.9	28.7	0.00e+00	0	29	0	2432696320	36	5637
2026-01-26 03:38:42.28	279.84	36.83	-31.8	-32.4	28.7	0.00e+00	0	29	0	2455764992	36	6013
2026-01-26 03:38:46.32	281.48	36.56	-32.3	-32.8	28.6	0.00e+00	0	30	0	2477785088	36	6267
2026-01-26 03:38:50.36	283.08	36.26	-30.4	-31.1	28.3	0.00e+00	0	29	0	2500853760	34	5776
2026-01-26 03:38:54.40	284.66	35.95	-31.1	-31.7	28.6	0.00e+00	0	29	0	2523922432	34	6239
2026-01-26 03:38:58.44	286.20	35.61	-31.0	-31.5	28.8	0.00e+00	0	30	0	2546991104	34	6076
2026-01-26 03:39:02.47	287.71	35.26	-31.7	-32.3	28.0	0.00e+00	0	29	0	2569011200	36	5939
2026-01-26 03:39:06.51	289.19	34.89	-32.8	-33.5	27.9	0.00e+00	0	29	0	2592079872	36	6774
2026-01-26 03:39:10.55	290.63	34.51	-32.1	-32.7	28.1	0.00e+00	0	30	0	2614099968	36	6191
2026-01-26 03:39:14.59	292.05	34.10	-31.8	-32.3	28.4	0.00e+00	0	29	0	2637168640	36	5955
2026-01-26 03:39:18.62	293.42	33.69	-33.1	-33.7	27.9	0.00e+00	0	29	0	2660237312	38	6212
2026-01-26 03:39:22.65	294.76	33.27	-32.6	-33.2	28.0	0.00e+00	0	29	0	2682257408	38	5896
2026-01-26 03:39:26.69	296.07	32.83	-32.6	-33.2	27.6	0.00e+00	0	29	0	2705326080	38	5844
2026-01-26 03:39:30.73	297.34	32.39	-32.0	-32.7	28.4	0.00e+00	0	29	0	2728394752	38	5512
2026-01-26 03:39:34.77	298.58	31.93	-33.2	-33.8	27.7	0.00e+00	0	29	0	2750414848	40	5575
2026-01-26 03:39:38.80	299.78	31.47	-32.5	-33.0	27.9	0.00e+00	0	29	0	2773483520	38	5757
2026-01-26 03:39:42.84	300.96	31.01	-32.5	-33.2	27.3	0.00e+00	0	30	0	2796552192	38	5872
2026-01-26 03:39:46.88	302.09	30.54	-32.5	-33.3	27.8	0.00e+00	0	29	0	2818572288	36	6618
2026-01-26 03:39:50.92	303.20	30.06	-31.9	-32.5	28.0	0.00e+00	0	29	0	2841640960	38	5383
2026-01-26 03:39:54.96	304.28	29.58	-32.6	-33.2	26.5	0.00e+00	0	30	0	2864709632	42	4657
2026-01-26 03:39:59.01	305.32	29.10	-31.8	-32.3	27.5	0.00e+00	0	30	0	2886729728	40	4692
2026-01-26 03:40:03.05	306.34	28.62	-31.9	-32.5	27.2	0.00e+00	0	30	0	2909798400	38	5419
2026-01-26 03:40:07.09	307.32	28.14	-33.8	-34.6	26.8	0.00e+00	0	30	0	2932867072	38	6853
2026-01-26 03:40:11.12	308.27	27.66	-33.2	-33.7	27.2	0.00e+00	0	30	0	2954887168	40	5546
2026-01-26 03:40:15.16	309.20	27.17	-33.2	-33.9	27.1	0.00e+00	0	30	0	2977955840	40	5668
2026-01-26 03:40:19.20	310.10	26.69	-32.2	-32.9	26.9	0.00e+00	0	30	0	3001024512	38	5693
2026-01-26 03:40:23.24	310.98	26.21	-33.0	-33.5	27.0	0.00e+00	0	30	0	3023044608	38	6039
2026-01-26 03:40:27.28	311.83	25.73	-33.1	-33.7	26.9	0.00e+00	0	30	0	3046113280	40	5522
2026-01-26 03:40:31.32	312.65	25.26	-33.1	-33.7	26.8	0.00e+00	0	30	0	3069181952	38	6218
2026-01-26 03:40:35.36	313.45	24.78	-33.1	-33.9	27.5	0.00e+00	0	30	0	3091202048	40	5651
2026-01-26 03:40:39.39	314.23	24.32	-33.9	-34.6	26.2	0.00e+00	0	30	0	3114270720	40	6165
2026-01-26 03:40:43.43	314.98	23.85	-33.3	-33.9	27.3	0.00e+00	0	29	0	3137339392	40	5654
2026-01-26 03:40:47.47	315.71	23.39	-33.8	-34.2	27.5	0.00e+00	0	30	0	3159359488	40	5881
2026-01-26 03:40:51.51	316.43	22.93	-33.6	-34.2	27.2	0.00e+00	0	30	0	3182428160	40	5832
2026-01-26 03:40:55.55	317.12	22.47	-33.9	-34.5	26.6	0.00e+00	0	30	0	3205496832	40	6058
2026-01-26 03:40:59.59	317.79	22.02	-33.6	-34.1	27.1	0.00e+00	0	30	0	3227516928	40	5816
2026-01-26 03:41:03.63	318.45	21.57	-33.8	-34.5	27.1	0.00e+00	0	30	0	3250585600	40	6069
2026-01-26 03:41:07.67	319.09	21.13	-33.5	-34.0	27.1	0.00e+00	0	30	0	3273654272	40	5759
2026-01-26 03:41:11.71	319.70	20.69	-33.3	-33.9	27.2	0.00e+00	0	29	0	3295674368	40	5678
2026-01-26 03:41:15.74	320.31	20.25	-34.9	-35.5	26.6	0.00e+00	0	30	0	3318743040	40	6848
2026-01-26 03:41:19.78	320.89	19.83	-33.9	-34.5	26.5	0.00e+00	0	30	0	3340763136	40	6091
2026-01-26 03:41:23.82	321.46	19.40	-33.9	-34.5	26.6	0.00e+00	0	30	0	3363831808	40	6043
2026-01-26 03:41:27.86	322.02	18.98	-34.6	-35.2	26.0	0.00e+00	0	30	0	3386900480	40	6579
2026-01-26 03:41:31.90	322.56	18.56	-34.5	-35.1	26.2	0.00e+00	0	30	0	3409969152	42	5779
2026-01-26 03:41:35.94	323.09	18.15	-34.1	-34.9	26.1	0.00e+00	0	30	0	3431989248	42	5640
2026-01-26 03:41:39.98	323.60	17.75	-34.4	-35.0	26.3	0.00e+00	0	30	0	3455057920	42	5741
2026-01-26 03:41:44.02	324.10	17.34	-35.1	-35.7	25.9	0.00e+00	0	30	0	3478126592	42	6242
2026-01-26 03:41:48.06	324.59	16.95	-34.5	-35.0	26.3	0.00e+00	0	29	0	3500146688	40	6449
2026-01-26 03:41:52.10	325.06	16.55	-34.4	-35.1	26.1	0.00e+00	0	30	0	3523215360	42	5814
2026-01-26 03:41:56.13	325.53	16.16	-34.1	-34.9	26.0	0.00e+00	0	30	0	3546284032	42	5651
2026-01-26 03:42:00.17	325.98	15.78	-33.8	-34.4	26.0	0.00e+00	0	30	0	3568304128	40	5975
2026-01-26 03:42:04.21	326.42	15.40	-34.5	-35.3	25.7	0.00e+00	0	30	0	3591372800	42	5912
2026-01-26 03:42:08.25	326.85	15.03	-35.1	-35.8	25.7	0.00e+00	0	29	0	3614441472	42	6254
2026-01-26 03:42:12.29	327.27	14.66	-35.8	-36.5	25.1	0.00e+00	0	30	0	3636461568	44	6068
2026-01-26 03:42:16.33	327.69	14.29	-36.6	-37.3	25.4	0.00e+00	0	30	0	3659530240	44	6690
2026-01-26 03:42:20.36	328.09	13.93	-35.2	-35.9	24.7	0.00e+00	0	29	0	3682598912	44	5654
2026-01-26 03:42:24.40	328.48	13.57	-36.0	-36.6	25.5	0.00e+00	0	30	0	3704619008	44	6156
2026-01-26 03:42:28.44	328.86	13.21	-34.7	-35.4	24.7	0.00e+00	0	30	0	3727687680	42	6015
2026-01-26 03:42:32.48	329.24	12.86	-35.6	-36.4	24.8	0.00e+00	0	30	0	3750756352	44	6029
2026-01-26 03:42:36.53	329.61	12.52	-35.2	-36.0	25.0	0.00e+00	0	30	0	3772776448	44	5737
2026-01-26 03:42:40.57	329.96	12.18	-35.7	-36.3	24.7	0.00e+00	0	30	0	3795845120	44	5944
2026-01-26 03:42:44.61	330.32	11.84	-35.1	-35.8	24.3	0.00e+00	0	30	0	3818913792	44	5578
2026-01-26 03:42:48.65	330.66	11.50	-35.2	-35.8	24.5	0.00e+00	0	30	0	3840933888	42	6276
2026-01-26 03:42:52.69	330.99	11.17	-35.3	-36.0	24.6	0.00e+00	0	30	0	3864002560	44	5703
2026-01-26 03:42:56.73	331.32	10.84	-35.4	-36.1	24.5	0.00e+00	0	30	0	3887071232	44	5779
2026-01-26 03:43:00.77	331.65	10.52	-35.6	-36.3	24.3	0.00e+00	0	30	0	3909091328	44	5915
2026-01-26 03:43:04.81	331.96	10.20	-35.5	-36.1	24.4	0.00e+00	0	30	0	3932160000	44	5808
2026-01-26 03:43:08.85	332.27	9.88	-35.6	-36.2	24.4	0.00e+00	0	30	0	3955228672	44	5877
2026-01-26 03:43:12.89	332.57	9.57	-36.1	-36.8	24.0	0.00e+00	0	30	0	3977248768	44	6257
2026-01-26 03:43:16.93	332.87	9.26	-35.6	-36.4	24.2	0.00e+00	0	30	0	4000317440	44	6016
2026-01-26 03:43:20.97	333.16	8.95	-36.2	-36.9	23.9	0.00e+00	0	30	0	4023386112	46	5663
2026-01-26 03:43:25.01	333.45	8.65	-36.3	-37.1	24.0	0.00e+00	0	30	0	4045406208	44	6507
2026-01-26 03:43:29.05	333.73	8.35	-35.5	-36.2	23.6	0.00e+00	0	30	0	4068474880	44	5887
2026-01-26 03:43:33.09	334.00	8.05	-35.3	-36.0	23.6	0.00e+00	0	30	0	4091543552	44	5716
2026-01-26 03:43:37.12	334.27	7.76	-35.5	-36.3	23.6	0.00e+00	0	30	0	4113563648	44	5960
2026-01-26 03:43:41.16	334.54	7.47	-36.6	-37.2	23.0	0.00e+00	0	30	0	4136632320	44	6613
2026-01-26 03:43:45.20	334.80	7.18	-36.4	-37.2	23.2	0.00e+00	0	30	0	4159700992	44	6612
2026-01-26 03:43:49.24	335.05	6.89	-36.6	-37.3	22.9	0.00e+00	0	30	0	4181721088	46	5948
2026-01-26 03:43:53.28	335.30	6.61	-36.8	-37.6	23.1	0.00e+00	0	30	0	4204789760	46	6140
2026-01-26 03:43:57.32	335.55	6.33	-36.5	-37.2	22.8	0.00e+00	0	30	0	4227858432	46	5862
2026-01-26 03:44:01.36	335.79	6.05	-37.1	-37.9	22.0	0.00e+00	0	30	0	4249878528	46	6331
2026-01-26 03:44:05.40	336.03	5.77	-38.0	-38.9	20.7	0.00e+00	0	30	0	4272947200	48	6362
2026-01-26 03:44:09.44	336.26	5.50	-39.3	-40.3	18.5	0.00e+00	0	30	0	4296015872	50	6672
2026-01-26 03:44:13.48	336.49	5.23	-40.9	-42.3	16.6	0.00e+00	0	30	0	4319084544	52	7438
2026-01-26 03:44:17.52	336.72	4.96	-42.2	-44.3	13.6	2.20e-06	0	30	0	4341104640	56	7450
2026-01-26 03:44:21.56	336.94	4.70	-43.0	-45.7	11.6	4.38e-04	0	30	0	4364173312	58	7853
2026-01-26 03:44:25.60	337.16	4.43	-44.2	-48.8	7.0	1.85e-01	0	30	0	4386193408	60	9951
2026-01-26 03:44:29.64	337.37	4.17	-44.8	-51.2	4.5	8.17e-01	0	30	0	4406116352	60	13150
2026-01-26 03:44:33.68	337.59	3.91	-44.6	-51.4	4.3	8.20e-01	0	30	0	4408213504	60	13432
2026-01-26 03:44:37.71	337.79	3.66	-45.0	-55.6	3.6	8.45e-01	0	30	104	4408213504	60	21798
2026-01-26 03:44:41.76	338.00	3.40	-45.0	-57.1	3.6	8.45e-01	0	30	104	4408213504	60	25904
2026-01-26 03:44:45.79	338.20	3.15	-45.2	-57.2	3.6	8.45e-01	0	30	104	4408213504	60	26205
2026-01-26 03:44:49.83	338.40	2.90	-48.9	-61.0	3.6	8.45e-01	0	30	104	4408213504	60	40715
2026-01-26 03:44:53.87	338.59	2.65	-50.7	-62.7	3.6	8.46e-01	0	30	104	4408213504	60	49549
2026-01-26 03:44:57.91	338.79	2.40	-50.9	-63.0	3.6	8.45e-01	0	30	104	4408213504	60	50998
2026-01-26 03:45:01.95	338.98	2.16	-50.6	-62.8	3.6	8.45e-01	0	30	104	4408213504	60	49844
2026-01-26 03:45:05.99	339.16	1.92	-50.0	-62.4	3.6	8.45e-01	0	30	104	4408213504	60	47504
2026-01-26 03:45:10.03	339.35	1.67	-50.8	-62.9	3.6	8.46e-01	0	30	104	4408213504	60	50396
2026-01-26 03:45:14.06	339.53	1.44	-50.7	-62.8	3.6	8.44e-01	0	30	104	4408213504	60	50126
2026-01-26 03:45:18.10	339.71	1.20	-50.8	-62.9	3.6	8.46e-01	0	30	104	4408213504	60	50644
2026-01-26 03:45:22.14	339.89	0.96	-50.6	-62.7	3.6	8.46e-01	0	30	104	4408213504	60	49222
2026-01-26 03:45:26.18	340.06	0.73	-50.8	-63.0	3.6	8.45e-01	0	30	104	4408213504	60	50987
2026-01-26 03:45:30.22	340.23	0.50	-52.2	-64.3	3.6	8.45e-01	0	30	104	4408213504	60	59329
2026-01-26 03:45:34.26	340.40	0.27	-50.1	-62.2	3.6	8.45e-01	0	30	104	4408213504	60	46712
2026-01-26 03:45:38.29	340.57	0.04	-51.3	-63.5	3.6	8.47e-01	0	30	104	4408213504	60	54322

#Closed at: 2026-01-26 03:45:39
#Recorded file [4408 MB]: D:/lorett/data/35029_260126_153037.dat