passes_logs/2026/01/26/R4.6S_Anadyr/R4.6S_Anadyr__20260126_225407_SUOMI_NPP_rec.log

#Pass ID: 20260126_225407_SUOMI NPP
#Satellite: SUOMI NPP
#Configuration: NPP
#almurnet v.1.7.20251203
#Start time: 2026-01-26 22:54:10

#Version: 2.2.20231116
#Station: R4.6S_Anadyr
#Location: 177.4865 lon 64.73178 lat
#TLE: 1 37849U 11061A   26026.52266023  .00000173  00000+0  10323-3 0  9994
#TLE: 2 37849  98.7822 328.4727 0002140  43.9411 316.1934 14.19530258738341

#Time	Az	El	Level	Level2	SNR	BER	BlckErr	Temp	State	Recorded	gain1	gain2
2026-01-26 22:54:10.79	122.20	0.19	-49.7	-63.5	3.3	1.54e+00	0	27	0	0	60	53803
2026-01-26 22:54:14.82	122.06	0.43	-49.3	-64.5	3.6	1.51e+00	0	27	104	0	60	60817
2026-01-26 22:54:18.86	121.92	0.67	-49.3	-64.5	3.6	1.51e+00	0	28	104	0	60	60648
2026-01-26 22:54:22.90	121.78	0.91	-49.3	-64.5	3.6	1.51e+00	0	28	104	0	60	60431
2026-01-26 22:54:26.93	121.63	1.15	-49.0	-64.2	3.6	1.51e+00	0	28	104	0	60	58824
2026-01-26 22:54:30.97	121.49	1.39	-48.6	-63.9	3.6	1.51e+00	0	28	104	0	60	56686
2026-01-26 22:54:35.01	121.34	1.64	-47.3	-62.9	3.6	1.51e+00	0	28	104	0	60	50742
2026-01-26 22:54:39.05	121.18	1.88	-47.2	-62.9	3.6	1.51e+00	0	28	104	0	60	50583
2026-01-26 22:54:43.09	121.03	2.13	-47.3	-62.9	3.6	1.51e+00	0	28	104	0	60	50590
2026-01-26 22:54:47.13	120.87	2.39	-47.1	-62.9	3.6	1.51e+00	0	28	104	0	60	50392
2026-01-26 22:54:51.17	120.71	2.64	-47.1	-62.9	3.6	1.51e+00	0	28	104	0	60	50607
2026-01-26 22:54:55.20	120.54	2.89	-47.2	-62.8	3.6	1.51e+00	0	28	104	0	60	49855
2026-01-26 22:54:59.24	120.37	3.15	-47.1	-62.1	3.6	1.51e+00	0	28	104	0	60	45962
2026-01-26 22:55:03.28	120.20	3.41	-45.2	-49.6	12.2	4.81e-03	0	28	0	3145728	60	10922
2026-01-26 22:55:07.32	120.03	3.67	-47.8	-62.7	3.6	1.51e+00	0	28	104	9437184	60	49187
2026-01-26 22:55:11.37	119.85	3.94	-47.4	-58.6	4.3	1.03e+00	0	28	104	11534336	60	30716
2026-01-26 22:55:15.41	119.67	4.20	-41.5	-43.3	18.6	0.00e+00	0	28	0	15728640	56	6633
2026-01-26 22:55:19.45	119.49	4.47	-41.4	-42.9	19.2	0.00e+00	0	28	0	24117248	56	6363
2026-01-26 22:55:23.49	119.30	4.74	-41.6	-43.2	18.8	0.00e+00	0	28	0	31457280	56	6594
2026-01-26 22:55:27.53	119.11	5.02	-41.3	-42.8	19.2	0.00e+00	0	28	0	38797312	56	6280
2026-01-26 22:55:31.56	118.91	5.29	-40.9	-42.4	19.6	0.00e+00	0	28	0	46137344	56	5979
2026-01-26 22:55:35.60	118.71	5.57	-41.4	-43.1	18.9	0.00e+00	0	28	0	53477376	54	7276
2026-01-26 22:55:39.64	118.51	5.85	-41.9	-43.5	18.6	0.00e+00	0	28	0	61865984	56	6835
2026-01-26 22:55:43.68	118.30	6.14	-41.0	-42.4	19.7	0.00e+00	0	28	0	69206016	56	6024
2026-01-26 22:55:47.72	118.09	6.42	-41.1	-42.6	19.6	0.00e+00	0	28	0	76546048	56	6157
2026-01-26 22:55:51.76	117.87	6.71	-41.3	-42.9	19.3	0.00e+00	0	28	0	83886080	56	6363
2026-01-26 22:55:55.80	117.65	7.00	-40.7	-42.1	20.0	0.00e+00	0	28	0	92274688	54	6488
2026-01-26 22:55:59.84	117.42	7.30	-40.2	-41.4	20.7	0.00e+00	0	28	0	99614720	54	6030
2026-01-26 22:56:03.88	117.19	7.60	-40.8	-42.3	20.0	0.00e+00	0	28	0	106954752	54	6630
2026-01-26 22:56:07.92	116.96	7.90	-40.4	-41.7	20.3	0.00e+00	0	28	0	114294784	54	6240
2026-01-26 22:56:11.95	116.71	8.20	-39.7	-40.8	21.2	0.00e+00	0	28	0	122683392	52	6316
2026-01-26 22:56:15.99	116.47	8.51	-39.9	-41.2	21.0	0.00e+00	0	28	0	130023424	52	6550
2026-01-26 22:56:20.03	116.22	8.82	-40.0	-41.4	20.7	0.00e+00	0	28	0	137363456	52	6731
2026-01-26 22:56:24.07	115.96	9.14	-39.5	-40.6	21.5	0.00e+00	0	28	0	144703488	52	6163
2026-01-26 22:56:28.10	115.69	9.45	-39.7	-40.8	21.4	0.00e+00	0	28	0	152043520	52	6289
2026-01-26 22:56:32.14	115.42	9.78	-39.6	-40.7	21.4	0.00e+00	0	28	0	160432128	52	6231
2026-01-26 22:56:36.18	115.15	10.10	-39.3	-40.4	21.8	0.00e+00	0	28	0	167772160	52	5992
2026-01-26 22:56:40.22	114.87	10.43	-39.7	-40.9	21.3	0.00e+00	0	28	0	175112192	52	6380
2026-01-26 22:56:44.26	114.58	10.76	-39.9	-41.2	21.1	0.00e+00	0	28	0	182452224	52	6571
2026-01-26 22:56:48.31	114.28	11.10	-39.4	-40.5	21.7	0.00e+00	0	28	0	189792256	52	6082
2026-01-26 22:56:52.35	113.97	11.44	-39.5	-40.7	21.5	0.00e+00	0	28	0	198180864	52	6194
2026-01-26 22:56:56.38	113.66	11.78	-39.5	-40.7	21.5	0.00e+00	0	28	0	205520896	52	6186
2026-01-26 22:57:00.42	113.35	12.13	-39.0	-40.1	22.1	0.00e+00	0	28	0	212860928	50	6488
2026-01-26 22:57:04.46	113.02	12.48	-39.0	-40.2	22.0	0.00e+00	0	28	0	220200960	50	6561
2026-01-26 22:57:08.49	112.69	12.84	-38.6	-39.6	22.5	0.00e+00	0	28	0	228589568	50	6153
2026-01-26 22:57:12.52	112.34	13.19	-38.7	-39.8	22.4	0.00e+00	0	28	0	235929600	50	6251
2026-01-26 22:57:16.56	111.99	13.56	-38.5	-39.6	22.5	0.00e+00	0	28	0	243269632	50	6119
2026-01-26 22:57:20.60	111.63	13.93	-38.2	-39.1	22.9	0.00e+00	0	28	0	250609664	50	5805
2026-01-26 22:57:24.64	111.26	14.30	-38.6	-39.6	22.4	0.00e+00	0	28	0	257949696	50	6150
2026-01-26 22:57:28.68	110.88	14.68	-39.0	-40.0	22.3	0.00e+00	0	28	0	266338304	50	6425
2026-01-26 22:57:32.72	110.49	15.06	-39.1	-40.1	22.1	0.00e+00	0	28	0	273678336	50	6500
2026-01-26 22:57:36.76	110.09	15.45	-39.4	-40.6	21.7	0.00e+00	0	28	0	281018368	52	6109
2026-01-26 22:57:40.79	109.68	15.84	-39.1	-40.1	22.4	0.00e+00	0	28	0	288358400	52	5798
2026-01-26 22:57:44.83	109.25	16.24	-39.1	-40.2	22.2	0.00e+00	0	28	0	296747008	52	5865
2026-01-26 22:57:48.87	108.82	16.64	-38.1	-39.0	22.9	0.00e+00	0	28	0	304087040	50	5758
2026-01-26 22:57:52.91	108.37	17.05	-38.4	-39.3	22.8	0.00e+00	0	28	0	311427072	50	5937
2026-01-26 22:57:56.94	107.91	17.46	-38.0	-38.9	23.1	0.00e+00	0	28	0	318767104	50	5670
2026-01-26 22:58:00.98	107.44	17.87	-38.0	-38.9	23.2	0.00e+00	0	28	0	326107136	50	5684
2026-01-26 22:58:05.02	106.95	18.29	-39.0	-40.0	22.3	0.00e+00	0	28	0	334495744	50	6424
2026-01-26 22:58:09.05	106.45	18.72	-38.4	-39.4	22.7	0.00e+00	0	28	0	341835776	50	6004
2026-01-26 22:58:13.09	105.94	19.15	-38.8	-39.8	22.3	0.00e+00	0	28	0	349175808	50	6304
2026-01-26 22:58:17.13	105.41	19.59	-38.5	-39.5	22.8	0.00e+00	0	28	0	356515840	50	6065
2026-01-26 22:58:21.17	104.86	20.03	-39.5	-40.6	22.0	0.00e+00	0	28	0	364904448	50	6918
2026-01-26 22:58:25.21	104.30	20.48	-39.4	-40.5	22.0	0.00e+00	0	28	0	372244480	52	6045
2026-01-26 22:58:29.25	103.72	20.93	-40.0	-41.2	21.7	0.00e+00	0	28	0	379584512	52	6582
2026-01-26 22:58:33.28	103.13	21.39	-39.7	-40.8	21.9	0.00e+00	0	28	0	386924544	52	6287
2026-01-26 22:58:37.32	102.51	21.85	-39.5	-40.5	22.0	0.00e+00	0	28	0	394264576	52	6103
2026-01-26 22:58:41.36	101.88	22.31	-38.9	-39.8	22.4	0.00e+00	0	28	0	402653184	52	5624
2026-01-26 22:58:45.40	101.23	22.78	-38.1	-39.0	23.2	0.00e+00	0	28	0	409993216	50	5743
2026-01-26 22:58:49.44	100.55	23.26	-38.3	-39.2	22.9	0.00e+00	0	28	0	417333248	50	5843
2026-01-26 22:58:53.46	99.86	23.74	-38.1	-39.0	23.2	0.00e+00	0	28	0	424673280	50	5703
2026-01-26 22:58:57.49	99.15	24.22	-38.2	-39.1	23.1	0.00e+00	0	28	0	432013312	48	6490
2026-01-26 22:59:01.53	98.41	24.71	-38.7	-39.7	22.7	0.00e+00	0	28	0	440401920	48	6942
2026-01-26 22:59:05.57	97.64	25.20	-39.9	-41.0	21.7	0.00e+00	0	27	0	447741952	52	6431
2026-01-26 22:59:09.61	96.86	25.70	-40.2	-41.3	21.3	0.00e+00	0	28	0	455081984	52	6688
2026-01-26 22:59:13.64	96.04	26.19	-40.8	-42.1	20.3	0.00e+00	0	28	0	462422016	52	7297
2026-01-26 22:59:17.68	95.21	26.69	-41.0	-42.4	20.4	0.00e+00	0	28	0	470810624	54	6742
2026-01-26 22:59:21.72	94.34	27.20	-40.4	-41.7	21.2	0.00e+00	0	28	0	478150656	54	6191
2026-01-26 22:59:25.76	93.44	27.70	-39.8	-40.9	21.7	0.00e+00	0	28	0	485490688	52	6373
2026-01-26 22:59:29.80	92.52	28.21	-39.4	-40.5	22.1	0.00e+00	0	28	0	492830720	52	6061
2026-01-26 22:59:33.84	91.57	28.72	-39.6	-40.7	21.8	0.00e+00	0	28	0	500170752	52	6245
2026-01-26 22:59:37.88	90.58	29.22	-39.4	-40.5	22.1	0.00e+00	0	28	0	508559360	52	6062
2026-01-26 22:59:41.92	89.57	29.73	-40.6	-41.8	21.1	0.00e+00	0	28	0	515899392	52	7039
2026-01-26 22:59:45.96	88.52	30.23	-40.1	-41.2	21.4	0.00e+00	0	28	0	523239424	54	5887
2026-01-26 22:59:49.99	87.44	30.73	-40.5	-41.7	21.1	0.00e+00	0	27	0	530579456	54	6209
2026-01-26 22:59:54.03	86.32	31.23	-40.4	-41.6	21.1	0.00e+00	0	28	0	538968064	54	6172
2026-01-26 22:59:58.06	85.17	31.73	-40.9	-42.3	20.5	0.00e+00	0	28	0	546308096	54	6620
2026-01-26 23:00:02.10	83.99	32.22	-41.2	-42.6	20.0	0.00e+00	0	28	0	553648128	54	6867
2026-01-26 23:00:06.14	82.76	32.70	-42.0	-43.5	19.5	0.00e+00	0	28	0	560988160	56	6798
2026-01-26 23:00:10.17	81.51	33.17	-41.8	-43.3	19.5	0.00e+00	0	28	0	568328192	56	6665
2026-01-26 23:00:14.21	80.21	33.64	-43.3	-45.2	17.8	0.00e+00	0	28	0	576716800	58	7418
2026-01-26 23:00:18.25	78.88	34.09	-43.4	-45.4	17.7	0.00e+00	0	28	0	584056832	60	6716
2026-01-26 23:00:22.29	77.50	34.54	-40.8	-42.0	20.8	0.00e+00	0	28	0	591396864	54	6448
2026-01-26 23:00:26.33	76.10	34.97	-42.2	-43.8	19.2	0.00e+00	0	28	0	598736896	56	7045
2026-01-26 23:00:30.37	74.65	35.38	-41.7	-43.2	19.9	0.00e+00	0	28	0	607125504	56	6613
2026-01-26 23:00:34.41	73.17	35.78	-41.4	-42.9	20.1	0.00e+00	0	28	0	614465536	56	6331
2026-01-26 23:00:38.44	71.65	36.17	-40.0	-41.1	21.6	0.00e+00	0	28	0	621805568	52	6521
2026-01-26 23:00:42.48	70.10	36.53	-39.5	-40.6	22.0	0.00e+00	0	28	0	629145600	52	6134
2026-01-26 23:00:46.52	68.51	36.87	-38.9	-40.0	22.4	0.00e+00	0	28	0	636485632	52	5702
2026-01-26 23:00:50.55	66.89	37.19	-37.9	-38.8	23.5	0.00e+00	0	28	0	644874240	50	5629
2026-01-26 23:00:54.59	65.24	37.49	-38.6	-39.6	22.9	0.00e+00	0	28	0	652214272	50	6146
2026-01-26 23:00:58.63	63.56	37.76	-38.7	-39.7	22.8	0.00e+00	0	28	0	659554304	50	6226
2026-01-26 23:01:02.67	61.85	38.00	-35.9	-36.6	25.1	0.00e+00	0	28	0	666894336	46	5489
2026-01-26 23:01:06.70	60.12	38.22	-36.7	-37.5	24.4	0.00e+00	0	28	0	675282944	44	6832
2026-01-26 23:01:10.74	58.37	38.41	-38.4	-39.4	23.0	0.00e+00	0	28	0	682622976	48	6726
2026-01-26 23:01:14.78	56.59	38.56	-37.8	-38.7	23.5	0.00e+00	0	27	0	689963008	48	6198
2026-01-26 23:01:18.81	54.81	38.69	-37.6	-38.4	23.7	0.00e+00	0	28	0	697303040	48	6032
2026-01-26 23:01:22.85	53.01	38.78	-37.3	-38.1	23.8	0.00e+00	0	28	0	704643072	48	5794
2026-01-26 23:01:26.89	51.20	38.85	-38.3	-39.3	23.1	0.00e+00	0	28	0	713031680	48	6631
2026-01-26 23:01:30.93	49.39	38.88	-39.5	-40.7	21.9	0.00e+00	0	28	0	720371712	50	6969
2026-01-26 23:01:34.96	47.58	38.87	-39.4	-40.5	22.2	0.00e+00	0	28	0	727711744	52	6063
2026-01-26 23:01:39.01	45.76	38.84	-39.7	-40.9	21.8	0.00e+00	0	27	0	735051776	52	6327
2026-01-26 23:01:43.04	43.96	38.77	-40.6	-41.9	20.7	0.00e+00	0	27	0	742391808	52	7150
2026-01-26 23:01:47.08	42.16	38.67	-41.9	-43.3	19.8	0.00e+00	0	28	0	750780416	56	6682
2026-01-26 23:01:51.12	40.38	38.54	-42.1	-43.7	19.4	0.00e+00	0	28	0	758120448	56	6951
2026-01-26 23:01:55.16	38.61	38.38	-41.6	-43.0	20.0	0.00e+00	0	28	0	765460480	56	6424
2026-01-26 23:01:59.20	36.86	38.19	-40.6	-41.9	21.0	0.00e+00	0	28	0	772800512	54	6318
2026-01-26 23:02:03.23	35.14	37.97	-44.0	-46.4	16.7	0.00e+00	0	27	0	781189120	60	7576
2026-01-26 23:02:07.27	33.44	37.72	-39.4	-40.5	22.2	0.00e+00	0	27	0	788529152	52	6069
2026-01-26 23:02:11.31	31.76	37.44	-39.8	-40.9	21.7	0.00e+00	0	28	0	795869184	52	6376
2026-01-26 23:02:15.35	30.12	37.14	-37.2	-38.0	24.2	0.00e+00	0	27	0	803209216	48	5721
2026-01-26 23:02:19.39	28.50	36.82	-36.8	-37.7	24.2	0.00e+00	0	28	0	810549248	46	6183
2026-01-26 23:02:23.43	26.92	36.47	-38.0	-38.9	23.4	0.00e+00	0	28	0	818937856	48	6354
2026-01-26 23:02:27.46	25.38	36.11	-38.0	-39.0	23.3	0.00e+00	0	27	0	826277888	48	6418
2026-01-26 23:02:31.50	23.87	35.73	-39.5	-40.6	22.3	0.00e+00	0	28	0	833617920	52	6133
2026-01-26 23:02:35.54	22.40	35.32	-38.3	-39.2	23.2	0.00e+00	0	27	0	840957952	50	5872
2026-01-26 23:02:39.58	20.96	34.91	-38.2	-39.2	23.2	0.00e+00	0	27	0	849346560	50	5832
2026-01-26 23:02:43.62	19.56	34.47	-38.1	-39.0	23.2	0.00e+00	0	27	0	856686592	50	5743
2026-01-26 23:02:47.65	18.20	34.03	-39.7	-40.8	21.9	0.00e+00	0	27	0	864026624	52	6285
2026-01-26 23:02:51.69	16.88	33.58	-39.1	-40.1	22.5	0.00e+00	0	28	0	871366656	52	5806
2026-01-26 23:02:55.73	15.59	33.11	-40.0	-41.1	21.6	0.00e+00	0	27	0	878706688	52	6515
2026-01-26 23:02:59.77	14.34	32.63	-40.5	-41.7	21.3	0.00e+00	0	27	0	887095296	52	6943
2026-01-26 23:03:03.80	13.13	32.15	-40.3	-41.5	21.4	0.00e+00	0	28	0	894435328	54	6052
2026-01-26 23:03:07.83	11.95	31.67	-40.5	-41.7	21.2	0.00e+00	0	28	0	901775360	54	6174
2026-01-26 23:03:11.87	10.81	31.17	-39.0	-39.9	22.6	0.00e+00	0	27	0	909115392	50	6369
2026-01-26 23:03:15.91	9.71	30.68	-38.2	-39.1	23.4	0.00e+00	0	28	0	917504000	50	5767
2026-01-26 23:03:19.94	8.64	30.18	-40.2	-41.3	21.4	0.00e+00	0	27	0	924844032	52	6682
2026-01-26 23:03:23.98	7.60	29.67	-41.9	-43.5	19.7	0.00e+00	0	27	0	932184064	58	6071
2026-01-26 23:03:28.01	6.59	29.17	-40.5	-41.7	21.0	0.00e+00	0	27	0	939524096	54	6222
2026-01-26 23:03:32.04	5.62	28.67	-39.9	-41.0	21.5	0.00e+00	0	27	0	946864128	52	6444
2026-01-26 23:03:36.07	4.67	28.16	-39.2	-40.2	22.4	0.00e+00	0	27	0	955252736	52	5843
2026-01-26 23:03:40.11	3.76	27.66	-38.3	-39.3	23.1	0.00e+00	0	27	0	962592768	50	5909
2026-01-26 23:03:44.14	2.87	27.16	-39.6	-40.6	22.2	0.00e+00	0	27	0	969932800	52	6167
2026-01-26 23:03:48.17	2.02	26.66	-38.9	-39.9	22.7	0.00e+00	0	27	0	977272832	52	5680
2026-01-26 23:03:52.21	1.18	26.16	-38.3	-39.2	23.2	0.00e+00	0	27	0	984612864	50	5891
2026-01-26 23:03:56.25	0.38	25.66	-38.6	-39.5	22.9	0.00e+00	0	27	0	993001472	50	6091
2026-01-26 23:04:00.28	359.60	25.17	-39.1	-40.2	22.1	0.00e+00	0	27	0	1000341504	50	6586
2026-01-26 23:04:04.32	358.84	24.68	-40.0	-41.2	21.5	0.00e+00	0	27	0	1007681536	52	6540
2026-01-26 23:04:08.36	358.11	24.20	-40.2	-41.4	21.3	0.00e+00	0	27	0	1015021568	54	5984
2026-01-26 23:04:12.40	357.40	23.71	-39.5	-40.7	21.9	0.00e+00	0	27	0	1023410176	52	6179
2026-01-26 23:04:16.44	356.71	23.24	-38.3	-39.2	23.1	0.00e+00	0	28	0	1030750208	50	5872
2026-01-26 23:04:20.48	356.04	22.76	-38.8	-39.8	22.6	0.00e+00	0	27	0	1038090240	50	6286
2026-01-26 23:04:24.52	355.39	22.30	-38.9	-39.9	22.7	0.00e+00	0	27	0	1045430272	50	6356
2026-01-26 23:04:28.55	354.77	21.83	-37.9	-38.8	23.4	0.00e+00	0	27	0	1052770304	50	5628
2026-01-26 23:04:32.59	354.16	21.37	-39.8	-41.0	21.6	0.00e+00	0	27	0	1061158912	52	6426
2026-01-26 23:04:36.63	353.57	20.92	-40.4	-41.6	21.1	0.00e+00	0	27	0	1068498944	54	6150
2026-01-26 23:04:40.67	352.99	20.47	-39.5	-40.5	22.0	0.00e+00	0	27	0	1075838976	52	6089
2026-01-26 23:04:44.71	352.44	20.02	-39.0	-40.0	22.4	0.00e+00	0	27	0	1083179008	52	5761
2026-01-26 23:04:48.75	351.90	19.59	-39.7	-40.8	21.8	0.00e+00	0	27	0	1091567616	52	6261
2026-01-26 23:04:52.79	351.37	19.15	-39.2	-40.3	22.1	0.00e+00	0	27	0	1098907648	52	5915
2026-01-26 23:04:56.83	350.86	18.72	-38.2	-39.2	23.1	0.00e+00	0	27	0	1106247680	50	5844
2026-01-26 23:05:00.87	350.37	18.30	-38.5	-39.5	22.7	0.00e+00	0	27	0	1113587712	50	6055
2026-01-26 23:05:04.90	349.89	17.88	-39.5	-40.6	21.9	0.00e+00	0	27	0	1120927744	50	6869
2026-01-26 23:05:08.94	349.42	17.46	-39.5	-40.5	21.8	0.00e+00	0	27	0	1129316352	52	6072
2026-01-26 23:05:12.98	348.96	17.06	-39.4	-40.4	22.0	0.00e+00	0	27	0	1136656384	52	6032
2026-01-26 23:05:17.01	348.52	16.65	-39.7	-40.8	21.8	0.00e+00	0	27	0	1143996416	52	6306
2026-01-26 23:05:21.05	348.09	16.25	-40.2	-41.4	21.2	0.00e+00	0	27	0	1151336448	52	6723
2026-01-26 23:05:25.09	347.67	15.86	-40.5	-41.8	20.7	0.00e+00	0	27	0	1159725056	54	6262
2026-01-26 23:05:29.13	347.27	15.47	-40.8	-42.1	20.5	0.00e+00	0	27	0	1167065088	54	6489
2026-01-26 23:05:33.16	346.87	15.08	-39.5	-40.6	21.7	0.00e+00	0	27	0	1174405120	52	6128
2026-01-26 23:05:37.20	346.48	14.70	-38.8	-39.8	22.6	0.00e+00	0	27	0	1181745152	52	5602
2026-01-26 23:05:41.24	346.11	14.33	-38.4	-39.4	22.8	0.00e+00	0	27	0	1189085184	50	5986
2026-01-26 23:05:45.27	345.74	13.96	-38.7	-39.7	22.5	0.00e+00	0	27	0	1197473792	50	6196
2026-01-26 23:05:49.31	345.38	13.59	-39.0	-40.0	22.3	0.00e+00	0	27	0	1204813824	50	6407
2026-01-26 23:05:53.35	345.04	13.23	-38.9	-39.9	22.3	0.00e+00	0	27	0	1212153856	50	6372
2026-01-26 23:05:57.39	344.70	12.87	-39.6	-40.7	21.6	0.00e+00	0	27	0	1219493888	50	6996
2026-01-26 23:06:01.44	344.37	12.51	-40.1	-41.2	21.2	0.00e+00	0	27	0	1227882496	52	6603
2026-01-26 23:06:05.48	344.04	12.16	-40.4	-41.6	20.8	0.00e+00	0	27	0	1235222528	52	6891
2026-01-26 23:06:09.51	343.73	11.82	-40.7	-42.0	20.5	0.00e+00	0	27	0	1242562560	54	6440
2026-01-26 23:06:13.55	343.42	11.47	-41.1	-42.5	20.1	0.00e+00	0	27	0	1249902592	54	6796
2026-01-26 23:06:17.59	343.12	11.14	-41.6	-43.1	19.5	0.00e+00	0	27	0	1257242624	54	7303
2026-01-26 23:06:21.63	342.83	10.80	-41.5	-43.0	19.5	0.00e+00	0	27	0	1265631232	54	7205
2026-01-26 23:06:25.67	342.54	10.47	-41.3	-42.7	19.8	0.00e+00	0	27	0	1272971264	54	6937
2026-01-26 23:06:29.71	342.27	10.14	-41.0	-42.4	20.1	0.00e+00	0	27	0	1280311296	54	6697
2026-01-26 23:06:33.75	341.99	9.82	-40.4	-41.6	20.8	0.00e+00	0	27	0	1287651328	54	6141
2026-01-26 23:06:37.79	341.73	9.50	-40.4	-41.7	20.7	0.00e+00	0	27	0	1296039936	54	6199
2026-01-26 23:06:41.82	341.47	9.18	-40.6	-41.9	20.4	0.00e+00	0	27	0	1303379968	54	6329
2026-01-26 23:06:45.86	341.21	8.87	-41.0	-42.3	20.0	0.00e+00	0	27	0	1310720000	54	6678
2026-01-26 23:06:49.89	340.96	8.56	-41.3	-42.8	19.6	0.00e+00	0	27	0	1318060032	54	7009
2026-01-26 23:06:53.93	340.72	8.26	-41.4	-42.9	19.5	0.00e+00	0	27	0	1325400064	54	7147
2026-01-26 23:06:57.97	340.48	7.95	-41.5	-43.0	19.4	0.00e+00	0	27	0	1333788672	54	7189
2026-01-26 23:07:02.01	340.25	7.65	-41.7	-43.2	19.3	0.00e+00	0	27	0	1341128704	56	6582
2026-01-26 23:07:06.05	340.02	7.36	-42.0	-43.6	18.7	0.00e+00	0	27	0	1348468736	56	6906
2026-01-26 23:07:10.09	339.80	7.06	-42.6	-44.4	18.1	0.00e+00	0	27	0	1355808768	56	7586
2026-01-26 23:07:14.13	339.58	6.77	-42.2	-44.0	18.5	0.00e+00	0	27	0	1364197376	58	6404
2026-01-26 23:07:18.17	339.37	6.48	-42.5	-44.3	18.2	0.00e+00	0	27	0	1371537408	58	6625
2026-01-26 23:07:22.21	339.16	6.20	-42.1	-43.8	18.7	0.00e+00	0	27	0	1378877440	58	6253
2026-01-26 23:07:26.25	338.96	5.91	-41.8	-43.5	18.6	0.00e+00	0	27	0	1386217472	56	6773
2026-01-26 23:07:30.28	338.76	5.63	-41.8	-43.4	18.5	7.00e-07	0	27	0	1393557504	56	6758
2026-01-26 23:07:34.32	338.56	5.36	-42.2	-44.1	17.4	0.00e+00	0	27	0	1401946112	56	7330
2026-01-26 23:07:38.36	338.37	5.08	-42.8	-45.4	15.5	0.00e+00	0	27	0	1409286144	58	7510
2026-01-26 23:07:42.39	338.18	4.81	-43.9	-48.0	12.0	1.88e-04	0	27	0	1416626176	60	9059
2026-01-26 23:07:46.43	338.00	4.54	-44.4	-51.1	7.6	6.10e-02	0	28	0	1423966208	60	12908
2026-01-26 23:07:50.46	337.82	4.27	-44.4	-54.2	4.1	9.19e-01	8	28	0	1432354816	60	18564
2026-01-26 23:07:54.50	337.64	4.01	-44.3	-58.1	3.6	1.51e+00	0	28	104	1432354816	60	29010
2026-01-26 23:07:58.54	337.47	3.74	-44.2	-59.2	3.6	1.51e+00	0	28	104	1432354816	60	33015
2026-01-26 23:08:02.59	337.30	3.48	-44.2	-59.2	3.6	1.51e+00	0	28	104	1432354816	60	32934
2026-01-26 23:08:06.63	337.13	3.22	-44.2	-59.3	3.6	1.51e+00	0	28	104	1432354816	60	33319
2026-01-26 23:08:10.67	336.96	2.97	-44.3	-59.4	3.6	1.51e+00	0	28	104	1432354816	60	33869
2026-01-26 23:08:14.70	336.80	2.71	-49.0	-64.2	3.6	1.51e+00	0	28	104	1432354816	60	58426
2026-01-26 23:08:18.73	336.65	2.46	-49.3	-64.5	3.6	1.51e+00	0	28	104	1432354816	60	60416
2026-01-26 23:08:22.77	336.49	2.21	-49.3	-64.5	3.6	1.51e+00	0	28	104	1432354816	60	61006
2026-01-26 23:08:26.81	336.34	1.96	-49.1	-64.4	3.6	1.51e+00	0	27	104	1432354816	60	60032
2026-01-26 23:08:30.85	336.19	1.71	-49.1	-64.4	3.6	1.51e+00	0	28	104	1432354816	60	59767
2026-01-26 23:08:34.88	336.05	1.47	-49.2	-64.4	3.6	1.51e+00	0	27	104	1432354816	60	59760
2026-01-26 23:08:38.93	335.90	1.23	-49.2	-64.4	3.6	1.51e+00	0	28	104	1432354816	60	59688
2026-01-26 23:08:42.97	335.76	0.99	-49.2	-64.4	3.6	1.51e+00	0	28	104	1432354816	60	59930
2026-01-26 23:08:47.00	335.62	0.75	-49.2	-64.4	3.6	1.51e+00	0	28	104	1432354816	60	59969
2026-01-26 23:08:51.04	335.49	0.51	-49.2	-64.4	3.6	1.51e+00	0	28	104	1432354816	60	59811
2026-01-26 23:08:55.08	335.35	0.27	-49.2	-64.3	3.6	1.51e+00	0	28	104	1432354816	60	59587
2026-01-26 23:08:59.12	335.22	0.04	-49.2	-64.3	3.6	1.51e+00	0	28	104	1432354816	60	59271

#Closed at: 2026-01-26 23:09:02
#Recorded file [1432 MB]: D:/lorett/data/35029_260127_105410.dat