passes_logs/2026/01/26/R4.6S_Anadyr/R4.6S_Anadyr__20260126_214529_TY-42_rec.log

#Pass ID: 20260126_214529_TY-42
#Satellite: TY-42
#Configuration: TY-42_900M
#almurnet v.1.7.20251203
#Start time: 2026-01-26 21:46:01

#Version: 2.2.20231116
#Station: R4.6S_Anadyr
#Location: 177.4865 lon 64.73178 lat
#TLE: 1 64048U 25103A   26026.63109954  .00008012  00000-0  38191-3 0 09992
#TLE: 2 64048 097.4117 101.8302 0001725 091.3579 298.9652 15.19176186 38587

#Time	Az	El	Level	Level2	SNR	BER	BlckErr	Temp	State	Recorded	gain1	gain2
2026-01-26 21:46:01.97	25.69	1.72	-49.2	-64.1	3.5	1.51e+00	0	26	0	0	60	58245
2026-01-26 21:46:05.00	26.00	1.89	-47.7	-50.2	6.1	0.00e+00	0	27	104	0	60	39699
2026-01-26 21:46:08.03	26.32	2.06	-47.7	-50.2	6.1	0.00e+00	0	27	104	0	60	39484
2026-01-26 21:46:11.06	26.64	2.23	-47.7	-50.2	6.1	0.00e+00	0	28	104	0	60	39790
2026-01-26 21:46:14.09	26.96	2.41	-47.7	-50.2	6.1	0.00e+00	0	28	104	0	60	39647
2026-01-26 21:46:17.12	27.29	2.58	-47.7	-50.2	6.1	0.00e+00	0	28	104	0	60	39491
2026-01-26 21:46:20.15	27.63	2.76	-47.7	-50.2	6.1	0.00e+00	0	28	104	0	60	39620
2026-01-26 21:46:23.18	27.97	2.93	-47.7	-50.2	6.1	0.00e+00	0	28	104	0	60	39512
2026-01-26 21:46:26.21	28.31	3.11	-47.7	-50.2	6.1	0.00e+00	0	28	104	0	60	39510
2026-01-26 21:46:29.25	28.66	3.29	-47.7	-50.2	6.1	0.00e+00	0	28	104	0	60	39741
2026-01-26 21:46:32.27	29.01	3.46	-47.6	-50.1	6.1	0.00e+00	0	28	104	0	60	39321
2026-01-26 21:46:35.29	29.37	3.64	-47.9	-50.3	6.1	0.00e+00	0	28	104	0	60	40317
2026-01-26 21:46:38.32	29.74	3.82	-47.9	-50.4	6.1	0.00e+00	0	28	104	0	60	40409
2026-01-26 21:46:41.35	30.11	4.00	-47.9	-50.3	6.0	0.00e+00	0	28	104	0	60	40236
2026-01-26 21:46:44.38	30.49	4.18	-47.9	-50.4	6.1	0.00e+00	0	28	104	0	60	40364
2026-01-26 21:46:47.40	30.87	4.37	-47.8	-50.3	6.0	0.00e+00	0	28	104	0	60	40122
2026-01-26 21:46:50.43	31.25	4.55	-48.1	-50.5	6.1	0.00e+00	0	28	104	0	60	41138
2026-01-26 21:46:53.46	31.65	4.73	-48.1	-50.5	6.1	0.00e+00	0	28	104	0	60	41198
2026-01-26 21:46:56.49	32.05	4.92	-48.1	-50.6	6.1	0.00e+00	0	28	104	0	60	41379
2026-01-26 21:46:59.51	32.45	5.10	-48.3	-50.7	6.1	0.00e+00	0	29	104	0	60	42102
2026-01-26 21:47:02.54	32.87	5.29	-48.3	-50.8	6.1	0.00e+00	0	29	104	0	60	42370
2026-01-26 21:47:05.55	33.28	5.47	-48.3	-50.8	6.1	0.00e+00	0	28	104	0	60	42651
2026-01-26 21:47:08.57	33.71	5.66	-43.5	-44.4	7.5	0.00e+00	0	29	104	0	60	20354
2026-01-26 21:47:11.61	34.14	5.85	-30.4	-30.7	15.2	0.00e+00	1014	29	0	41943040	36	16648
2026-01-26 21:47:14.64	34.58	6.03	-29.2	-29.7	15.9	5.50e-03	0	29	0	385875968	34	16705
2026-01-26 21:47:17.67	35.02	6.22	-28.6	-29.1	16.0	1.53e-03	0	29	0	721420288	32	17513
2026-01-26 21:47:20.69	35.48	6.41	-28.0	-28.5	16.3	7.74e-04	0	29	0	1065353216	32	16247
2026-01-26 21:47:23.72	35.94	6.60	-27.5	-28.0	16.5	3.11e-04	0	29	0	1400897536	30	17252
2026-01-26 21:47:26.75	36.40	6.79	-27.3	-27.8	16.5	1.47e-04	0	29	0	1744830464	30	16857
2026-01-26 21:47:29.78	36.88	6.98	-27.4	-27.9	16.4	1.47e-04	0	29	0	2080374784	30	17116
2026-01-26 21:47:32.81	37.36	7.18	-27.1	-27.5	16.6	1.14e-04	0	29	0	2424307712	30	16368
2026-01-26 21:47:35.84	37.85	7.37	-26.6	-27.0	16.7	4.35e-05	0	29	0	2768240640	28	17378
2026-01-26 21:47:38.87	38.35	7.56	-26.6	-27.1	16.7	5.99e-05	0	29	0	3103784960	28	17405
2026-01-26 21:47:41.89	38.85	7.75	-26.5	-27.0	16.5	3.26e-05	0	29	0	3447717888	28	17392
2026-01-26 21:47:44.92	39.37	7.95	-26.2	-26.7	16.5	7.62e-05	0	29	0	3783262208	28	16630
2026-01-26 21:47:47.95	39.89	8.14	-25.9	-26.4	16.7	5.44e-05	0	29	0	4127195136	28	16144
2026-01-26 21:47:50.97	40.42	8.33	-26.2	-26.6	16.8	2.17e-05	0	29	0	4471128064	28	16592
2026-01-26 21:47:54.00	40.96	8.53	-25.8	-26.3	16.9	2.17e-05	0	29	0	4815060992	26	17930
2026-01-26 21:47:57.02	41.51	8.72	-26.0	-26.5	16.7	5.40e-06	0	30	0	5150605312	26	18323
2026-01-26 21:48:00.05	42.06	8.91	-25.8	-26.3	17.0	1.08e-05	0	30	0	5494538240	26	17820
2026-01-26 21:48:03.08	42.63	9.11	-25.6	-26.1	17.0	0.00e+00	0	30	0	5830082560	26	17451
2026-01-26 21:48:06.10	43.20	9.30	-25.6	-26.1	17.0	1.08e-05	0	29	0	6174015488	26	17456
2026-01-26 21:48:09.13	43.79	9.49	-25.2	-25.8	17.0	1.63e-05	0	30	0	6509559808	26	16831
2026-01-26 21:48:12.16	44.38	9.69	-25.7	-26.2	16.9	5.40e-06	0	29	0	6853492736	26	17800
2026-01-26 21:48:15.19	44.98	9.88	-25.4	-25.9	17.1	0.00e+00	0	29	0	7197425664	26	17147
2026-01-26 21:48:18.21	45.59	10.07	-25.4	-25.9	16.9	0.00e+00	0	30	0	7532969984	26	17067
2026-01-26 21:48:21.24	46.22	10.26	-25.2	-25.7	16.9	0.00e+00	0	30	0	7876902912	26	16748
2026-01-26 21:48:24.27	46.85	10.45	-25.0	-25.5	16.9	1.63e-05	0	30	0	8212447232	26	16393
2026-01-26 21:48:27.30	47.49	10.64	-25.2	-25.7	16.8	5.40e-06	0	30	0	8556380160	26	16782
2026-01-26 21:48:30.33	48.14	10.83	-25.0	-25.5	17.0	1.63e-05	0	30	0	8891924480	26	16364
2026-01-26 21:48:33.35	48.80	11.02	-24.9	-25.4	17.1	0.00e+00	0	30	0	9235857408	26	16127
2026-01-26 21:48:36.37	49.47	11.21	-24.9	-25.4	17.1	0.00e+00	0	30	0	9571401728	26	16098
2026-01-26 21:48:39.40	50.16	11.39	-25.1	-25.6	16.8	0.00e+00	0	30	0	9915334656	26	16483
2026-01-26 21:48:42.43	50.85	11.58	-24.9	-25.4	16.9	5.40e-06	0	30	0	10259267584	24	18032
2026-01-26 21:48:45.46	51.55	11.76	-47.9	-50.5	6.1	0.00e+00	0	30	104	10561257472	60	41060
2026-01-26 21:48:48.48	52.26	11.94	-48.5	-51.0	6.1	0.00e+00	0	29	104	10561257472	60	43651
2026-01-26 21:48:51.51	52.99	12.12	-48.6	-51.1	6.1	0.00e+00	0	29	104	10561257472	60	44079
2026-01-26 21:48:54.54	53.72	12.30	-48.2	-50.8	6.1	0.00e+00	0	30	104	10561257472	60	42353
2026-01-26 21:48:57.57	54.47	12.48	-48.8	-51.3	6.1	0.00e+00	0	29	104	10561257472	60	44958
2026-01-26 21:49:00.60	55.22	12.65	-48.6	-51.2	6.1	0.00e+00	0	29	104	10561257472	60	44275
2026-01-26 21:49:03.62	55.99	12.82	-48.4	-51.0	6.1	0.00e+00	0	29	104	10561257472	60	43283
2026-01-26 21:49:06.65	56.76	12.99	-48.9	-51.4	6.1	0.00e+00	0	29	104	10561257472	60	45703
2026-01-26 21:49:09.68	57.55	13.16	-48.5	-51.1	6.1	0.00e+00	0	29	104	10561257472	60	43915
2026-01-26 21:49:12.71	58.35	13.32	-48.8	-51.3	6.1	0.00e+00	0	30	104	10561257472	60	45156
2026-01-26 21:49:15.74	59.16	13.48	-48.7	-51.2	6.1	0.00e+00	0	29	104	10561257472	60	44285
2026-01-26 21:49:18.76	59.97	13.63	-48.2	-50.8	6.1	0.00e+00	0	29	104	10561257472	60	42567
2026-01-26 21:49:21.79	60.80	13.79	-46.4	-49.2	6.2	0.00e+00	0	29	104	10561257472	60	35132
2026-01-26 21:49:24.82	61.64	13.94	-46.4	-49.1	6.2	0.00e+00	0	29	104	10561257472	60	35069
2026-01-26 21:49:27.85	62.49	14.08	-45.5	-48.3	6.4	0.00e+00	0	29	104	10561257472	60	32013
2026-01-26 21:49:30.88	63.34	14.22	-48.2	-50.8	6.1	0.00e+00	0	29	104	10561257472	60	42253
2026-01-26 21:49:33.91	64.21	14.36	-48.6	-51.1	6.1	0.00e+00	0	29	104	10561257472	60	43894
2026-01-26 21:49:36.93	65.09	14.49	-48.4	-51.0	6.1	0.00e+00	0	29	104	10561257472	60	43265
2026-01-26 21:49:39.96	65.97	14.62	-48.7	-51.3	6.1	0.00e+00	0	29	104	10561257472	60	44731
2026-01-26 21:49:42.99	66.87	14.74	-48.0	-50.7	6.1	0.00e+00	0	29	104	10561257472	60	41757
2026-01-26 21:49:46.02	67.77	14.86	-47.0	-49.8	6.1	0.00e+00	0	29	104	10561257472	60	37890
2026-01-26 21:49:49.04	68.68	14.98	-48.9	-51.4	6.1	0.00e+00	0	29	104	10561257472	60	45648
2026-01-26 21:49:52.07	69.60	15.08	-47.6	-50.3	6.1	0.00e+00	0	29	104	10561257472	60	40222
2026-01-26 21:49:55.09	70.52	15.18	-48.7	-51.2	6.1	0.00e+00	0	29	104	10561257472	60	44643
2026-01-26 21:49:58.12	71.45	15.28	-48.3	-51.0	6.1	0.00e+00	0	29	104	10561257472	60	43371
2026-01-26 21:50:01.15	72.40	15.37	-48.7	-51.3	6.1	0.00e+00	0	29	104	10561257472	60	44901
2026-01-26 21:50:04.18	73.34	15.46	-48.8	-51.3	6.1	0.00e+00	0	29	104	10561257472	60	44888
2026-01-26 21:50:07.21	74.30	15.53	-48.8	-51.3	6.1	0.00e+00	0	29	104	10561257472	60	44859
2026-01-26 21:50:10.24	75.25	15.61	-48.9	-51.4	6.1	0.00e+00	0	29	104	10561257472	60	45579
2026-01-26 21:50:13.27	76.22	15.67	-48.6	-51.1	6.1	0.00e+00	0	29	104	10561257472	60	44117
2026-01-26 21:50:16.29	77.18	15.73	-48.1	-50.7	6.1	0.00e+00	0	29	104	10561257472	60	42109
2026-01-26 21:50:19.32	78.16	15.78	-48.3	-50.9	6.1	0.00e+00	0	29	104	10561257472	60	42824
2026-01-26 21:50:22.35	79.14	15.83	-48.8	-51.3	6.1	0.00e+00	0	29	104	10561257472	60	45066
2026-01-26 21:50:25.38	80.12	15.86	-48.0	-50.6	6.1	0.00e+00	0	29	104	10561257472	60	41588
2026-01-26 21:50:28.40	81.09	15.90	-47.3	-50.0	6.1	0.00e+00	0	29	104	10561257472	60	38811
2026-01-26 21:50:31.43	82.08	15.92	-48.9	-51.4	6.1	0.00e+00	0	29	104	10561257472	60	45449
2026-01-26 21:50:34.46	83.07	15.94	-48.8	-51.3	6.0	0.00e+00	0	29	104	10561257472	60	44846
2026-01-26 21:50:37.49	84.05	15.95	-48.6	-51.2	6.1	0.00e+00	0	29	104	10561257472	60	44373
2026-01-26 21:50:40.52	85.04	15.95	-49.0	-51.5	6.1	0.00e+00	0	29	104	10561257472	60	45924
2026-01-26 21:50:43.54	86.03	15.94	-48.9	-51.4	6.1	0.00e+00	0	29	104	10561257472	60	45608
2026-01-26 21:50:46.57	87.02	15.93	-48.9	-51.4	6.1	0.00e+00	0	29	104	10561257472	60	45454
2026-01-26 21:50:49.60	88.00	15.91	-48.8	-51.3	6.1	0.00e+00	0	29	104	10561257472	60	45112
2026-01-26 21:50:52.62	88.99	15.89	-48.7	-51.2	6.1	0.00e+00	0	29	104	10561257472	60	44633
2026-01-26 21:50:55.65	89.97	15.85	-48.9	-51.4	6.1	0.00e+00	0	29	104	10561257472	60	45304
2026-01-26 21:50:58.68	90.95	15.81	-48.8	-51.3	6.1	0.00e+00	0	29	104	10561257472	60	45169
2026-01-26 21:51:01.71	91.93	15.77	-48.4	-51.0	6.1	0.00e+00	0	29	104	10561257472	60	43327
2026-01-26 21:51:04.74	92.90	15.71	-48.8	-51.3	6.1	0.00e+00	0	30	104	10561257472	60	44943
2026-01-26 21:51:07.77	93.87	15.65	-48.7	-51.2	6.1	0.00e+00	0	30	104	10561257472	60	44715
2026-01-26 21:51:10.80	94.83	15.58	-48.5	-51.1	6.1	0.00e+00	0	30	104	10561257472	60	43936
2026-01-26 21:51:13.82	95.79	15.51	-48.9	-51.4	6.1	0.00e+00	0	30	104	10561257472	60	45333
2026-01-26 21:51:16.85	96.74	15.43	-48.8	-51.3	6.1	0.00e+00	0	30	104	10561257472	60	45242
2026-01-26 21:51:19.87	97.69	15.35	-48.8	-51.3	6.1	0.00e+00	0	30	104	10561257472	60	45100
2026-01-26 21:51:22.90	98.63	15.25	-48.8	-51.3	6.1	0.00e+00	0	29	104	10561257472	60	45000
2026-01-26 21:51:25.93	99.57	15.15	-48.6	-51.1	6.1	0.00e+00	0	30	104	10561257472	60	44007
2026-01-26 21:51:28.96	100.49	15.05	-48.8	-51.3	6.1	0.00e+00	0	30	104	10561257472	60	45111
2026-01-26 21:51:31.99	101.41	14.94	-48.8	-51.3	6.1	0.00e+00	0	30	104	10561257472	60	45180
2026-01-26 21:51:35.01	102.32	14.83	-48.7	-51.3	6.1	0.00e+00	0	30	104	10561257472	60	44743
2026-01-26 21:51:38.04	103.23	14.71	-48.6	-51.2	6.1	0.00e+00	0	30	104	10561257472	60	44294
2026-01-26 21:51:41.07	104.12	14.58	-48.7	-51.2	6.1	0.00e+00	0	30	104	10561257472	60	44643
2026-01-26 21:51:44.10	105.01	14.45	-48.9	-51.4	6.1	0.00e+00	0	30	104	10561257472	60	45412
2026-01-26 21:51:47.13	105.89	14.31	-48.8	-51.3	6.0	0.00e+00	0	30	104	10561257472	60	45018
2026-01-26 21:51:50.16	106.75	14.18	-48.8	-51.3	6.1	0.00e+00	0	30	104	10561257472	60	45079
2026-01-26 21:51:53.18	107.61	14.03	-48.6	-51.1	6.1	0.00e+00	0	30	104	10561257472	60	44087
2026-01-26 21:51:56.21	108.46	13.88	-48.7	-51.3	6.1	0.00e+00	0	30	104	10561257472	60	44840
2026-01-26 21:51:59.24	109.30	13.73	-48.8	-51.3	6.1	0.00e+00	0	30	104	10561257472	60	44746
2026-01-26 21:52:02.27	110.13	13.58	-48.7	-51.2	6.1	0.00e+00	0	30	104	10561257472	60	44613
2026-01-26 21:52:05.30	110.95	13.42	-48.7	-51.2	6.1	0.00e+00	0	30	104	10561257472	60	44450
2026-01-26 21:52:08.33	111.75	13.26	-48.8	-51.3	6.1	0.00e+00	0	30	104	10561257472	60	45027
2026-01-26 21:52:11.35	112.55	13.09	-48.8	-51.3	6.1	0.00e+00	0	30	104	10561257472	60	45033
2026-01-26 21:52:14.38	113.34	12.92	-48.8	-51.3	6.1	0.00e+00	0	30	104	10561257472	60	44837
2026-01-26 21:52:17.41	114.12	12.75	-48.8	-51.3	6.1	0.00e+00	0	30	104	10561257472	60	45135
2026-01-26 21:52:20.44	114.88	12.58	-48.8	-51.3	6.1	0.00e+00	0	30	104	10561257472	60	45226
2026-01-26 21:52:23.46	115.64	12.41	-48.7	-51.2	6.1	0.00e+00	0	30	104	10561257472	60	44531
2026-01-26 21:52:26.49	116.38	12.23	-48.8	-51.3	6.1	0.00e+00	0	30	104	10561257472	60	44771
2026-01-26 21:52:29.52	117.12	12.05	-48.8	-51.3	6.1	0.00e+00	0	30	104	10561257472	60	44748
2026-01-26 21:52:32.55	117.84	11.87	-48.8	-51.2	6.1	0.00e+00	0	30	104	10561257472	60	44716
2026-01-26 21:52:35.58	118.56	11.68	-48.8	-51.2	6.1	0.00e+00	0	30	104	10561257472	60	44638
2026-01-26 21:52:38.60	119.26	11.50	-48.8	-51.3	6.1	0.00e+00	0	30	104	10561257472	60	44730
2026-01-26 21:52:41.63	119.95	11.31	-48.8	-51.3	6.1	0.00e+00	0	30	104	10561257472	60	44747
2026-01-26 21:52:44.66	120.64	11.12	-48.8	-51.2	6.1	0.00e+00	0	30	104	10561257472	60	44536
2026-01-26 21:52:47.69	121.31	10.93	-48.7	-51.3	6.1	0.00e+00	0	30	104	10561257472	60	44762
2026-01-26 21:52:50.72	121.97	10.74	-48.8	-51.3	6.1	0.00e+00	0	30	104	10561257472	60	44790
2026-01-26 21:52:53.75	122.62	10.55	-48.8	-51.2	6.1	0.00e+00	0	30	104	10561257472	60	44651
2026-01-26 21:52:56.78	123.27	10.36	-48.8	-51.3	6.1	0.00e+00	0	30	104	10561257472	60	44783
2026-01-26 21:52:59.81	123.90	10.17	-48.7	-51.1	6.1	0.00e+00	0	30	104	10561257472	60	44193
2026-01-26 21:53:02.80	124.51	9.98	-48.7	-51.1	6.1	0.00e+00	0	30	104	10561257472	60	44077
2026-01-26 21:53:05.82	125.12	9.78	-48.7	-51.1	6.1	0.00e+00	0	30	104	10561257472	60	44085
2026-01-26 21:53:08.85	125.73	9.59	-48.6	-51.1	6.1	0.00e+00	0	30	104	10561257472	60	43893
2026-01-26 21:53:11.88	126.32	9.39	-48.7	-51.2	6.1	0.00e+00	0	30	104	10561257472	60	44301
2026-01-26 21:53:14.91	126.91	9.20	-48.6	-51.1	6.1	0.00e+00	0	31	104	10561257472	60	44038
2026-01-26 21:53:17.93	127.48	9.00	-48.1	-50.7	6.1	0.00e+00	0	30	104	10561257472	60	41957
2026-01-26 21:53:20.96	128.05	8.81	-48.6	-51.1	6.1	0.00e+00	0	30	104	10561257472	60	44131
2026-01-26 21:53:23.99	128.60	8.61	-48.5	-51.0	6.1	0.00e+00	0	30	104	10561257472	60	43425
2026-01-26 21:53:27.02	129.15	8.42	-48.5	-51.0	6.1	0.00e+00	0	31	104	10561257472	60	43386
2026-01-26 21:53:30.05	129.69	8.22	-48.6	-51.1	6.1	0.00e+00	0	31	104	10561257472	60	43737
2026-01-26 21:53:33.08	130.22	8.03	-48.5	-51.0	6.1	0.00e+00	0	31	104	10561257472	60	43605
2026-01-26 21:53:36.11	130.75	7.83	-48.5	-51.0	6.1	0.00e+00	0	30	104	10561257472	60	43569
2026-01-26 21:53:39.14	131.26	7.64	-48.5	-50.9	6.1	0.00e+00	0	30	104	10561257472	60	43199
2026-01-26 21:53:42.16	131.76	7.44	-48.4	-51.0	6.1	0.00e+00	0	30	104	10561257472	60	43307
2026-01-26 21:53:45.19	132.26	7.25	-48.4	-50.8	6.0	0.00e+00	0	30	104	10561257472	60	42549
2026-01-26 21:53:48.22	132.75	7.05	-48.4	-50.9	6.1	0.00e+00	0	31	104	10561257472	60	43131
2026-01-26 21:53:51.25	133.23	6.86	-48.4	-50.8	6.1	0.00e+00	0	30	104	10561257472	60	42528
2026-01-26 21:53:54.27	133.71	6.67	-48.4	-50.9	6.1	0.00e+00	0	30	104	10561257472	60	43059
2026-01-26 21:53:57.30	134.17	6.48	-48.3	-50.9	6.1	0.00e+00	0	31	104	10561257472	60	42779
2026-01-26 21:54:00.33	134.63	6.29	-48.4	-50.9	6.1	0.00e+00	0	30	104	10561257472	60	43117
2026-01-26 21:54:03.35	135.08	6.10	-48.4	-50.8	6.1	0.00e+00	0	31	104	10561257472	60	42585
2026-01-26 21:54:06.38	135.53	5.90	-48.3	-50.8	6.1	0.00e+00	0	31	104	10561257472	60	42553
2026-01-26 21:54:09.41	135.97	5.72	-48.4	-50.8	6.1	0.00e+00	0	31	104	10561257472	60	42706
2026-01-26 21:54:12.43	136.40	5.53	-48.3	-50.8	6.1	0.00e+00	0	31	104	10561257472	60	42305
2026-01-26 21:54:15.46	136.82	5.34	-48.3	-50.8	6.1	0.00e+00	0	31	104	10561257472	60	42694
2026-01-26 21:54:18.48	137.24	5.15	-48.2	-50.7	6.1	0.00e+00	0	31	104	10561257472	60	41858
2026-01-26 21:54:21.51	137.65	4.96	-48.2	-50.6	6.1	0.00e+00	0	31	104	10561257472	60	41710
2026-01-26 21:54:24.53	138.06	4.78	-47.9	-50.4	6.1	0.00e+00	0	31	104	10561257472	60	40693
2026-01-26 21:54:27.56	138.46	4.59	-48.1	-50.5	6.1	0.00e+00	0	31	104	10561257472	60	41202
2026-01-26 21:54:30.59	138.85	4.41	-47.7	-50.2	6.1	0.00e+00	0	31	104	10561257472	60	39722
2026-01-26 21:54:33.61	139.23	4.22	-46.8	-49.3	6.1	0.00e+00	0	31	104	10561257472	60	35835
2026-01-26 21:54:36.64	139.62	4.04	-46.3	-48.9	6.1	0.00e+00	0	31	104	10561257472	60	34113
2026-01-26 21:54:39.67	139.99	3.86	-46.8	-49.3	6.1	0.00e+00	0	31	104	10561257472	60	35610
2026-01-26 21:54:42.70	140.36	3.68	-46.1	-48.6	6.1	0.00e+00	0	31	104	10561257472	60	33043
2026-01-26 21:54:45.73	140.72	3.49	-45.3	-48.3	6.1	0.00e+00	0	31	104	10561257472	60	31880
2026-01-26 21:54:48.76	141.08	3.31	-46.0	-48.5	6.1	0.00e+00	0	31	104	10561257472	60	32451
2026-01-26 21:54:51.78	141.44	3.14	-46.2	-48.7	6.1	0.00e+00	0	31	104	10561257472	60	33395
2026-01-26 21:54:54.81	141.78	2.96	-46.8	-49.3	6.1	0.00e+00	0	31	104	10561257472	60	35674
2026-01-26 21:54:57.84	142.13	2.78	-48.8	-51.3	6.1	0.00e+00	0	31	104	10561257472	60	45076
2026-01-26 21:55:00.87	142.46	2.60	-49.1	-51.6	6.1	0.00e+00	0	31	104	10561257472	60	46307
2026-01-26 21:55:03.90	142.80	2.43	-49.3	-51.7	6.1	0.00e+00	0	31	104	10561257472	60	47354
2026-01-26 21:55:06.93	143.13	2.25	-49.3	-51.8	6.1	0.00e+00	0	31	104	10561257472	60	47385
2026-01-26 21:55:09.96	143.45	2.08	-49.3	-51.7	6.1	0.00e+00	0	31	104	10561257472	60	47279
2026-01-26 21:55:12.99	143.77	1.90	-49.3	-51.8	6.1	0.00e+00	0	31	104	10561257472	60	47558
2026-01-26 21:55:16.02	144.08	1.73	-49.3	-51.8	6.1	0.00e+00	0	31	104	10561257472	60	47708
2026-01-26 21:55:19.05	144.39	1.56	-49.4	-51.9	6.1	0.00e+00	0	31	104	10561257472	60	48114
2026-01-26 21:55:22.07	144.70	1.39	-49.4	-51.9	6.0	0.00e+00	0	31	104	10561257472	60	47987
2026-01-26 21:55:25.10	145.00	1.21	-49.5	-51.9	6.1	0.00e+00	0	31	104	10561257472	60	48425
2026-01-26 21:55:28.14	145.30	1.04	-49.7	-52.2	6.1	0.00e+00	0	31	104	10561257472	60	49835
2026-01-26 21:55:31.17	145.59	0.87	-50.0	-52.4	6.1	0.00e+00	0	31	104	10561257472	60	51246
2026-01-26 21:55:34.20	145.88	0.71	-49.7	-52.1	6.1	0.00e+00	0	31	104	10561257472	60	49285
2026-01-26 21:55:37.22	146.16	0.54	-49.5	-51.9	6.1	0.00e+00	0	31	104	10561257472	60	48327
2026-01-26 21:55:40.25	146.44	0.37	-49.9	-52.3	6.1	0.00e+00	0	31	104	10561257472	60	50712
2026-01-26 21:55:43.28	146.72	0.21	-49.9	-52.3	6.1	0.00e+00	0	31	104	10561257472	60	50711
2026-01-26 21:55:46.31	146.99	0.04	-50.2	-52.7	6.1	0.00e+00	0	31	104	10561257472	60	52907

#Closed at: 2026-01-26 21:55:47
#Recorded file [10561 MB]: D:/lorett/data/35029_260127_094601.dat