passes_logs/2026/01/26/R4.6S_Anadyr/R4.6S_Anadyr__20260126_085317_TY-42_rec.log

#Pass ID: 20260126_085317_TY-42
#Satellite: TY-42
#Configuration: TY-42_900M
#almurnet v.1.7.20251203
#Start time: 2026-01-26 08:53:47

#Version: 2.2.20231116
#Station: R4.6S_Anadyr
#Location: 177.4865 lon 64.73178 lat
#TLE: 1 64048U 25103A   26025.90722222  .00008016  00000-0  38191-3 0 09994
#TLE: 2 64048 097.4113 101.1198 0001664 095.7251 298.2114 15.19193032 38479

#Time	Az	El	Level	Level2	SNR	BER	BlckErr	Temp	State	Recorded	gain1	gain2
2026-01-26 08:53:47.38	144.46	2.01	-49.8	-51.3	5.7	0.00e+00	0	25	0	0	60	45008
2026-01-26 08:53:50.40	144.39	2.23	-47.5	-50.0	6.1	0.00e+00	0	27	104	0	60	38551
2026-01-26 08:53:53.43	144.31	2.44	-47.5	-50.0	6.1	0.00e+00	0	27	104	0	60	38584
2026-01-26 08:53:56.46	144.23	2.65	-47.3	-49.8	6.1	0.00e+00	0	27	104	0	60	37894
2026-01-26 08:53:59.49	144.15	2.87	-47.6	-50.1	6.1	0.00e+00	0	28	104	0	60	39086
2026-01-26 08:54:02.51	144.06	3.09	-47.7	-50.1	6.1	0.00e+00	0	28	104	0	60	39370
2026-01-26 08:54:05.54	143.98	3.31	-47.8	-50.3	6.1	0.00e+00	0	28	104	0	60	40075
2026-01-26 08:54:08.57	143.89	3.54	-47.5	-49.9	6.1	0.00e+00	0	28	104	0	60	38472
2026-01-26 08:54:11.60	143.80	3.76	-47.4	-49.9	6.1	0.00e+00	0	28	104	0	60	38414
2026-01-26 08:54:14.62	143.71	3.99	-47.4	-49.9	6.1	0.00e+00	0	28	104	0	60	38236
2026-01-26 08:54:17.65	143.62	4.22	-47.4	-50.0	6.1	0.00e+00	0	28	104	0	60	38611
2026-01-26 08:54:20.69	143.52	4.46	-47.3	-49.8	6.1	0.00e+00	0	28	104	0	60	38023
2026-01-26 08:54:23.71	143.43	4.70	-47.5	-50.0	6.1	0.00e+00	0	28	104	0	60	38722
2026-01-26 08:54:26.74	143.33	4.94	-47.1	-49.6	6.1	0.00e+00	0	28	104	0	60	37121
2026-01-26 08:54:29.77	143.22	5.18	-47.5	-50.0	6.1	0.00e+00	0	28	104	0	60	38664
2026-01-26 08:54:32.80	143.12	5.42	-47.6	-50.2	6.1	0.00e+00	0	28	104	0	60	39457
2026-01-26 08:54:35.82	143.01	5.67	-34.4	-34.8	10.7	0.00e+00	0	28	104	0	46	15024
2026-01-26 08:54:38.85	142.91	5.92	-35.6	-36.0	11.7	2.08e-01	116	29	0	109051904	46	17383
2026-01-26 08:54:41.89	142.79	6.18	-33.6	-34.1	13.1	1.26e-01	0	29	0	452984832	42	17415
2026-01-26 08:54:44.91	142.68	6.44	-34.0	-34.5	13.0	6.43e-02	0	29	0	788529152	42	18315
2026-01-26 08:54:47.94	142.56	6.70	-32.9	-33.4	13.4	6.91e-02	0	29	0	1132462080	40	18163
2026-01-26 08:54:50.97	142.44	6.96	-32.1	-32.6	13.8	4.65e-02	0	29	0	1476395008	40	16509
2026-01-26 08:54:54.00	142.32	7.23	-31.7	-32.2	14.0	3.58e-02	0	29	0	1811939328	40	15832
2026-01-26 08:54:57.02	142.19	7.50	-31.5	-32.0	14.3	2.75e-02	0	29	0	2155872256	38	17268
2026-01-26 08:55:00.05	142.06	7.78	-31.3	-31.8	14.4	1.83e-02	0	29	0	2499805184	38	16938
2026-01-26 08:55:03.07	141.93	8.06	-31.2	-31.7	14.6	1.21e-02	0	29	0	2835349504	38	16635
2026-01-26 08:55:06.11	141.79	8.34	-30.6	-31.1	14.9	9.08e-03	0	29	0	3179282432	36	17472
2026-01-26 08:55:09.13	141.66	8.63	-30.5	-31.0	14.8	8.10e-03	0	29	0	3514826752	36	17314
2026-01-26 08:55:12.16	141.51	8.92	-30.1	-30.7	15.0	6.69e-03	0	30	0	3858759680	36	16622
2026-01-26 08:55:15.19	141.36	9.22	-30.3	-30.9	15.0	6.62e-03	0	30	0	4194304000	36	17006
2026-01-26 08:55:18.21	141.21	9.52	-30.4	-30.9	15.1	6.74e-03	0	30	0	4538236928	36	17164
2026-01-26 08:55:21.24	141.06	9.82	-30.1	-30.6	15.1	5.51e-03	0	30	0	4873781248	36	16588
2026-01-26 08:55:24.26	140.90	10.13	-29.7	-30.3	15.2	5.04e-03	0	30	0	5217714176	34	17833
2026-01-26 08:55:27.29	140.74	10.45	-29.6	-30.1	15.4	3.90e-03	0	30	0	5561647104	34	17516
2026-01-26 08:55:30.32	140.57	10.77	-29.1	-29.7	15.5	3.06e-03	0	30	0	5897191424	34	16673
2026-01-26 08:55:33.35	140.39	11.10	-28.5	-29.1	15.6	2.51e-03	0	30	0	6241124352	32	17410
2026-01-26 08:55:36.37	140.21	11.43	-28.2	-28.7	15.7	1.62e-03	0	30	0	6576668672	32	16743
2026-01-26 08:55:39.40	140.03	11.77	-27.5	-28.1	16.0	9.86e-04	0	30	0	6920601600	30	17411
2026-01-26 08:55:42.43	139.84	12.11	-27.2	-27.7	16.3	6.76e-04	0	30	0	7264534528	30	16693
2026-01-26 08:55:45.46	139.65	12.46	-26.3	-26.8	16.5	1.91e-04	0	30	0	7600078848	28	16984
2026-01-26 08:55:48.48	139.45	12.82	-26.0	-26.5	16.6	4.35e-05	0	30	0	7944011776	26	18421
2026-01-26 08:55:51.51	139.24	13.18	-25.4	-25.9	16.7	2.72e-05	0	30	0	8287944704	26	17135
2026-01-26 08:55:54.54	139.03	13.55	-25.3	-25.8	16.7	3.81e-05	0	30	0	8631877632	26	16951
2026-01-26 08:55:57.57	138.80	13.93	-24.7	-25.2	16.8	1.08e-05	0	30	0	8967421952	24	17697
2026-01-26 08:56:00.60	138.58	14.31	-24.4	-25.0	16.9	0.00e+00	0	30	0	9311354880	24	17222
2026-01-26 08:56:03.63	138.34	14.70	-24.1	-24.7	16.9	5.40e-06	0	30	0	9646899200	24	16695
2026-01-26 08:56:06.66	138.10	15.10	-24.1	-24.7	16.9	0.00e+00	0	30	0	9990832128	24	16648
2026-01-26 08:56:09.68	137.85	15.51	-23.7	-24.3	16.8	0.00e+00	0	30	0	10326376448	22	17851
2026-01-26 08:56:12.71	137.59	15.93	-23.7	-24.2	16.7	1.08e-05	0	30	0	10670309376	22	17705
2026-01-26 08:56:15.74	137.32	16.35	-23.6	-24.1	16.8	5.40e-06	0	30	0	11005853696	22	17520
2026-01-26 08:56:18.76	137.04	16.78	-23.5	-24.1	16.9	0.00e+00	0	30	0	11349786624	22	17435
2026-01-26 08:56:21.79	136.76	17.23	-23.3	-23.9	16.9	0.00e+00	0	30	0	11693719552	22	17043
2026-01-26 08:56:24.82	136.46	17.68	-22.9	-23.4	16.9	0.00e+00	0	30	0	12029263872	22	16224
2026-01-26 08:56:27.84	136.15	18.14	-22.8	-23.3	17.1	0.00e+00	0	31	0	12373196800	22	16026
2026-01-26 08:56:30.87	135.83	18.62	-22.5	-23.0	17.3	0.00e+00	0	30	0	12708741120	20	17349
2026-01-26 08:56:33.90	135.50	19.10	-23.1	-23.6	17.3	0.00e+00	0	30	0	13052674048	20	18597
2026-01-26 08:56:36.93	135.15	19.60	-22.4	-23.0	17.2	0.00e+00	0	30	0	13388218368	20	17216
2026-01-26 08:56:39.95	134.79	20.10	-21.7	-22.3	17.3	0.00e+00	0	31	0	13732151296	18	17870
2026-01-26 08:56:42.98	134.42	20.62	-21.3	-21.9	17.3	0.00e+00	0	31	0	14076084224	18	17105
2026-01-26 08:56:46.01	134.03	21.15	-21.1	-21.6	17.3	0.00e+00	0	31	0	14420017152	18	16539
2026-01-26 08:56:49.04	133.63	21.70	-20.8	-21.4	17.4	0.00e+00	0	31	0	14755561472	18	16082
2026-01-26 08:56:52.06	133.21	22.26	-20.9	-21.4	17.4	0.00e+00	0	31	0	15099494400	18	16185
2026-01-26 08:56:55.09	132.77	22.83	-20.7	-21.2	17.5	0.00e+00	0	31	0	15443427328	16	17774
2026-01-26 08:56:58.12	132.31	23.41	-20.8	-21.3	17.6	0.00e+00	0	31	0	15778971648	16	17850
2026-01-26 08:57:01.14	131.83	24.01	-20.4	-20.9	17.5	0.00e+00	0	31	0	16122904576	16	17118
2026-01-26 08:57:04.17	131.33	24.63	-20.2	-20.8	17.3	0.00e+00	0	31	0	16458448896	16	16830
2026-01-26 08:57:07.20	130.81	25.26	-19.8	-20.4	17.4	0.00e+00	0	31	0	16802381824	14	18026
2026-01-26 08:57:10.23	130.26	25.91	-19.7	-20.2	17.6	0.00e+00	0	31	0	17137926144	14	17716
2026-01-26 08:57:13.25	129.69	26.57	-19.6	-20.1	17.6	0.00e+00	0	31	0	17481859072	14	17560
2026-01-26 08:57:16.28	129.09	27.25	-18.9	-19.5	17.6	0.00e+00	0	31	0	17817403392	14	16276
2026-01-26 08:57:19.30	128.46	27.95	-18.5	-19.1	17.7	0.00e+00	0	31	0	18161336320	12	17448
2026-01-26 08:57:22.33	127.80	28.67	-18.2	-18.7	17.6	0.00e+00	0	31	0	18496880640	12	16752
2026-01-26 08:57:25.36	127.11	29.40	-18.0	-18.5	17.6	0.00e+00	0	31	0	18840813568	12	16330
2026-01-26 08:57:28.38	126.38	30.16	-17.5	-18.0	17.6	0.00e+00	0	31	0	19176357888	10	17316
2026-01-26 08:57:31.41	125.61	30.93	-17.4	-17.9	17.7	0.00e+00	0	31	0	19520290816	10	17012
2026-01-26 08:57:34.44	124.80	31.72	-17.2	-17.7	17.7	0.00e+00	0	31	0	19864223744	10	16679
2026-01-26 08:57:37.46	123.94	32.53	-17.0	-17.4	17.7	0.00e+00	0	31	0	20208156672	10	16183
2026-01-26 08:57:40.48	123.04	33.35	-16.9	-17.4	17.8	0.00e+00	0	31	0	20543700992	8	18097
2026-01-26 08:57:43.51	122.09	34.20	-16.5	-17.0	17.8	0.00e+00	0	31	0	20887633920	8	17264
2026-01-26 08:57:46.53	121.08	35.07	-16.5	-16.9	17.8	0.00e+00	0	31	0	21223178240	8	17195
2026-01-26 08:57:49.56	120.01	35.95	-16.1	-16.6	17.9	0.00e+00	0	31	0	21567111168	8	16449
2026-01-26 08:57:52.59	118.88	36.85	-16.2	-16.6	17.9	0.00e+00	0	31	0	21911044096	8	16565
2026-01-26 08:57:55.62	117.67	37.77	-16.3	-16.7	17.9	0.00e+00	0	31	0	22246588416	8	16722
2026-01-26 08:57:58.65	116.40	38.70	-16.0	-16.4	17.8	0.00e+00	0	31	0	22590521344	8	16235
2026-01-26 08:58:01.68	115.04	39.64	-16.0	-16.4	17.8	0.00e+00	0	31	0	22926065664	6	18100
2026-01-26 08:58:04.71	113.60	40.60	-17.9	-18.3	17.7	0.00e+00	0	31	0	23269998592	8	20123
2026-01-26 08:58:07.74	112.06	41.56	-17.2	-17.7	17.7	0.00e+00	0	31	0	23605542912	10	16689
2026-01-26 08:58:10.76	110.43	42.52	-15.2	-15.6	17.7	0.00e+00	0	31	0	23949475840	6	16601
2026-01-26 08:58:13.79	108.69	43.49	-14.7	-15.1	17.7	0.00e+00	0	31	0	24285020160	6	15582
2026-01-26 08:58:16.82	106.84	44.45	-14.2	-14.7	17.7	0.00e+00	0	31	0	24628953088	4	16684
2026-01-26 08:58:19.85	104.86	45.41	-13.9	-14.3	17.7	0.00e+00	0	31	0	24972886016	4	16012
2026-01-26 08:58:22.87	102.77	46.35	-13.8	-14.2	17.7	0.00e+00	0	31	0	25308430336	4	15741
2026-01-26 08:58:25.90	100.54	47.27	-13.8	-14.2	17.7	0.00e+00	0	31	0	25652363264	2	17639
2026-01-26 08:58:28.92	98.18	48.16	-13.5	-13.9	17.6	0.00e+00	0	31	0	25996296192	2	17180
2026-01-26 08:58:31.94	95.67	49.02	-13.3	-13.6	17.6	0.00e+00	0	31	0	26331840512	2	16610
2026-01-26 08:58:34.97	93.02	49.83	-13.2	-13.6	17.6	0.00e+00	0	31	0	26675773440	2	16484
2026-01-26 08:58:38.00	90.22	50.60	-13.3	-13.7	17.6	0.00e+00	0	31	0	27019706368	2	16642
2026-01-26 08:58:41.02	87.28	51.30	-13.1	-13.5	17.6	0.00e+00	0	31	0	27355250688	2	16361
2026-01-26 08:58:44.04	84.21	51.93	-12.9	-13.3	17.6	0.00e+00	0	31	0	27699183616	2	15889
2026-01-26 08:58:47.07	81.00	52.48	-12.1	-12.5	17.6	0.00e+00	0	31	0	28034727936	46	17412
2026-01-26 08:58:50.09	77.69	52.94	-12.1	-12.5	17.7	0.00e+00	0	31	0	28378660864	46	17516
2026-01-26 08:58:53.12	74.27	53.30	-12.4	-12.8	17.7	0.00e+00	0	31	0	28714205184	46	18164
2026-01-26 08:58:56.15	70.77	53.57	-12.0	-12.3	17.8	0.00e+00	0	31	0	29058138112	46	17113
2026-01-26 08:58:59.18	67.22	53.72	-11.9	-12.2	17.9	0.00e+00	0	31	0	29393682432	46	16983
2026-01-26 08:59:02.20	63.66	53.77	-11.7	-12.1	18.0	0.00e+00	0	31	0	29737615360	46	16646
2026-01-26 08:59:05.23	60.09	53.71	-11.8	-12.1	18.1	0.00e+00	0	31	0	30073159680	46	16747
2026-01-26 08:59:08.26	56.55	53.53	-12.3	-12.6	18.1	0.00e+00	0	31	0	30417092608	46	17716
2026-01-26 08:59:11.29	53.06	53.25	-12.0	-12.3	18.2	0.00e+00	0	31	0	30752636928	46	17180
2026-01-26 08:59:14.32	49.66	52.87	-12.0	-12.4	18.2	0.00e+00	0	31	0	31096569856	46	17284
2026-01-26 08:59:17.35	46.36	52.39	-11.9	-12.3	18.1	0.00e+00	0	31	0	31440502784	46	17039
2026-01-26 08:59:20.37	43.18	51.83	-12.2	-12.6	18.1	0.00e+00	0	31	0	31784435712	46	17612
2026-01-26 08:59:23.40	40.13	51.19	-13.2	-13.6	18.0	0.00e+00	0	31	0	32119980032	46	19870
2026-01-26 08:59:26.43	37.21	50.48	-12.2	-12.6	17.9	0.00e+00	0	31	0	32463912960	48	15697
2026-01-26 08:59:29.46	34.44	49.71	-12.7	-13.0	17.9	0.00e+00	0	31	0	32807845888	48	16577
2026-01-26 08:59:32.48	31.82	48.89	-12.7	-13.0	17.9	0.00e+00	0	31	0	33143390208	48	16575
2026-01-26 08:59:35.50	29.34	48.03	-12.9	-13.2	17.9	0.00e+00	0	31	0	33487323136	48	16965
2026-01-26 08:59:38.53	27.00	47.14	-13.1	-13.4	18.0	0.00e+00	0	31	0	33822867456	48	17364
2026-01-26 08:59:41.56	24.79	46.21	-13.2	-13.6	17.9	0.00e+00	0	31	0	34166800384	48	17651
2026-01-26 08:59:44.59	22.72	45.27	-13.3	-13.7	18.0	0.00e+00	0	31	0	34502344704	48	17806
2026-01-26 08:59:47.61	20.78	44.32	-13.8	-14.2	18.0	0.00e+00	0	31	0	34846277632	48	18940
2026-01-26 08:59:50.64	18.95	43.36	-14.4	-14.7	18.0	0.00e+00	0	31	0	35181821952	50	17926
2026-01-26 08:59:53.67	17.23	42.39	-14.4	-14.8	18.1	0.00e+00	0	31	0	35525754880	50	18118
2026-01-26 08:59:56.70	15.61	41.43	-48.2	-50.3	6.1	0.00e+00	0	31	104	35861299200	52	964717
2026-01-26 08:59:59.73	14.10	40.47	-48.9	-51.4	6.1	0.00e+00	0	31	104	35861299200	60	45406
2026-01-26 09:00:02.76	12.67	39.52	-49.0	-51.6	6.1	0.00e+00	0	31	104	35861299200	60	46305
2026-01-26 09:00:05.78	11.34	38.59	-49.0	-51.5	6.1	0.00e+00	0	31	104	35861299200	60	46196
2026-01-26 09:00:08.81	10.07	37.66	-49.1	-51.6	6.1	0.00e+00	0	31	104	35861299200	60	46499
2026-01-26 09:00:11.84	8.89	36.75	-49.2	-51.6	6.1	0.00e+00	0	31	104	35861299200	60	46688
2026-01-26 09:00:14.86	7.77	35.86	-49.2	-51.6	6.1	0.00e+00	0	31	104	35861299200	60	46813
2026-01-26 09:00:17.89	6.71	34.98	-49.1	-51.5	6.1	0.00e+00	0	31	104	35861299200	60	46147
2026-01-26 09:00:20.92	5.71	34.12	-49.2	-51.7	6.1	0.00e+00	0	31	104	35861299200	60	46984
2026-01-26 09:00:23.95	4.77	33.28	-49.3	-51.7	6.1	0.00e+00	0	31	104	35861299200	60	47219
2026-01-26 09:00:26.97	3.88	32.46	-49.2	-51.7	6.1	0.00e+00	0	31	104	35861299200	60	47160
2026-01-26 09:00:30.00	3.03	31.66	-48.9	-51.5	6.1	0.00e+00	0	31	104	35861299200	60	45862
2026-01-26 09:00:33.04	2.23	30.87	-48.9	-51.5	6.1	0.00e+00	0	31	104	35861299200	60	45912
2026-01-26 09:00:36.07	1.47	30.10	-49.1	-51.6	6.1	0.00e+00	0	31	104	35861299200	60	46383
2026-01-26 09:00:39.09	0.74	29.36	-49.1	-51.6	6.1	0.00e+00	0	31	104	35861299200	60	46494
2026-01-26 09:00:42.12	0.06	28.63	-49.2	-51.7	6.1	0.00e+00	0	31	104	35861299200	60	47146
2026-01-26 09:00:45.15	359.40	27.92	-49.1	-51.6	6.1	0.00e+00	0	31	104	35861299200	60	46568
2026-01-26 09:00:48.17	358.78	27.22	-49.3	-51.7	6.1	0.00e+00	0	31	104	35861299200	60	47270
2026-01-26 09:00:51.20	358.19	26.55	-49.3	-51.7	6.1	0.00e+00	0	31	104	35861299200	60	47079
2026-01-26 09:00:54.23	357.62	25.89	-49.2	-51.6	6.1	0.00e+00	0	31	104	35861299200	60	46725
2026-01-26 09:00:57.26	357.08	25.25	-49.2	-51.6	6.1	0.00e+00	0	31	104	35861299200	60	46766
2026-01-26 09:01:00.29	356.56	24.62	-49.0	-51.5	6.1	0.00e+00	0	31	104	35861299200	60	46199
2026-01-26 09:01:03.32	356.07	24.01	-49.1	-51.5	6.1	0.00e+00	0	31	104	35861299200	60	46280
2026-01-26 09:01:06.35	355.60	23.41	-49.0	-51.5	6.1	0.00e+00	0	31	104	35861299200	60	46114
2026-01-26 09:01:09.38	355.14	22.83	-49.0	-51.5	6.1	0.00e+00	0	31	104	35861299200	60	45905
2026-01-26 09:01:12.40	354.71	22.26	-49.1	-51.5	6.1	0.00e+00	0	31	104	35861299200	60	46251
2026-01-26 09:01:15.43	354.29	21.71	-49.0	-51.5	6.1	0.00e+00	0	31	104	35861299200	60	46266
2026-01-26 09:01:18.46	353.89	21.17	-49.0	-51.5	6.1	0.00e+00	0	31	104	35861299200	60	46133
2026-01-26 09:01:21.48	353.51	20.64	-49.0	-51.5	6.1	0.00e+00	0	31	104	35861299200	60	46131
2026-01-26 09:01:24.51	353.14	20.12	-49.1	-51.5	6.1	0.00e+00	0	31	104	35861299200	60	46192
2026-01-26 09:01:27.54	352.79	19.62	-49.0	-51.4	6.1	0.00e+00	0	31	104	35861299200	60	45726
2026-01-26 09:01:30.57	352.44	19.13	-49.1	-51.6	6.1	0.00e+00	0	30	104	35861299200	60	46348
2026-01-26 09:01:33.59	352.12	18.65	-49.0	-51.5	6.1	0.00e+00	0	31	104	35861299200	60	45885
2026-01-26 09:01:36.62	351.80	18.18	-49.0	-51.4	6.1	0.00e+00	0	31	104	35861299200	60	45722
2026-01-26 09:01:39.65	351.49	17.72	-49.0	-51.5	6.1	0.00e+00	0	31	104	35861299200	60	45890
2026-01-26 09:01:42.68	351.20	17.27	-48.9	-51.4	6.1	0.00e+00	0	30	104	35861299200	60	45748
2026-01-26 09:01:45.71	350.91	16.83	-49.1	-51.5	6.0	0.00e+00	0	31	104	35861299200	60	46059
2026-01-26 09:01:48.74	350.64	16.39	-49.1	-51.6	6.1	0.00e+00	0	31	104	35861299200	60	46485
2026-01-26 09:01:51.76	350.37	15.97	-49.0	-51.5	6.1	0.00e+00	0	31	104	35861299200	60	46234
2026-01-26 09:01:54.79	350.12	15.56	-49.1	-51.5	6.1	0.00e+00	0	31	104	35861299200	60	46122
2026-01-26 09:01:57.81	349.87	15.16	-48.9	-51.5	6.1	0.00e+00	0	30	104	35861299200	60	45888
2026-01-26 09:02:00.84	349.63	14.76	-48.8	-51.4	6.1	0.00e+00	0	31	104	35861299200	60	45267
2026-01-26 09:02:03.87	349.40	14.37	-49.0	-51.5	6.1	0.00e+00	0	30	104	35861299200	60	46168
2026-01-26 09:02:06.90	349.17	13.99	-48.9	-51.3	6.1	0.00e+00	0	31	104	35861299200	60	45152
2026-01-26 09:02:09.93	348.96	13.61	-48.9	-51.4	6.1	0.00e+00	0	31	104	35861299200	60	45322
2026-01-26 09:02:12.96	348.74	13.24	-48.9	-51.3	6.1	0.00e+00	0	31	104	35861299200	60	45175
2026-01-26 09:02:15.99	348.54	12.88	-48.8	-51.3	6.1	0.00e+00	0	31	104	35861299200	60	45161
2026-01-26 09:02:19.02	348.34	12.53	-48.9	-51.4	6.1	0.00e+00	0	30	104	35861299200	60	45617
2026-01-26 09:02:22.04	348.15	12.18	-48.8	-51.4	6.1	0.00e+00	0	31	104	35861299200	60	45252
2026-01-26 09:02:25.06	347.96	11.84	-48.9	-51.4	6.1	0.00e+00	0	30	104	35861299200	60	45437
2026-01-26 09:02:28.09	347.78	11.51	-48.7	-51.2	6.0	0.00e+00	0	31	104	35861299200	60	44634
2026-01-26 09:02:31.11	347.61	11.18	-48.8	-51.3	6.1	0.00e+00	0	31	104	35861299200	60	44895
2026-01-26 09:02:34.14	347.44	10.85	-48.9	-51.3	6.1	0.00e+00	0	31	104	35861299200	60	45163
2026-01-26 09:02:37.17	347.27	10.53	-48.9	-51.3	6.1	0.00e+00	0	30	104	35861299200	60	45133
2026-01-26 09:02:40.20	347.11	10.22	-48.8	-51.3	6.1	0.00e+00	0	31	104	35861299200	60	45083
2026-01-26 09:02:43.22	346.95	9.91	-48.7	-51.1	6.1	0.00e+00	0	30	104	35861299200	60	44211
2026-01-26 09:02:46.25	346.80	9.60	-48.7	-51.2	6.1	0.00e+00	0	31	104	35861299200	60	44636
2026-01-26 09:02:49.28	346.65	9.30	-48.7	-51.2	6.1	0.00e+00	0	31	104	35861299200	60	44362
2026-01-26 09:02:52.31	346.50	9.01	-48.7	-51.1	6.1	0.00e+00	0	30	104	35861299200	60	44072
2026-01-26 09:02:55.33	346.36	8.72	-48.5	-51.0	6.1	0.00e+00	0	31	104	35861299200	60	43221
2026-01-26 09:02:58.36	346.23	8.43	-48.7	-51.2	6.1	0.00e+00	0	31	104	35861299200	60	44503
2026-01-26 09:03:01.38	346.09	8.15	-48.7	-51.2	6.1	0.00e+00	0	31	104	35861299200	60	44436
2026-01-26 09:03:04.40	345.96	7.87	-48.5	-51.1	6.1	0.00e+00	0	31	104	35861299200	60	43718
2026-01-26 09:03:07.43	345.84	7.60	-48.4	-50.9	6.1	0.00e+00	0	31	104	35861299200	60	43102
2026-01-26 09:03:10.46	345.71	7.33	-48.6	-51.1	6.1	0.00e+00	0	31	104	35861299200	60	43816
2026-01-26 09:03:13.49	345.59	7.06	-48.6	-51.1	6.1	0.00e+00	0	31	104	35861299200	60	43887
2026-01-26 09:03:16.52	345.47	6.80	-48.3	-50.8	6.1	0.00e+00	0	30	104	35861299200	60	42458
2026-01-26 09:03:19.54	345.36	6.54	-48.2	-50.7	6.1	0.00e+00	0	30	104	35861299200	60	42211
2026-01-26 09:03:22.57	345.25	6.28	-48.5	-50.9	6.1	0.00e+00	0	31	104	35861299200	60	43095
2026-01-26 09:03:25.60	345.14	6.03	-48.4	-50.9	6.1	0.00e+00	0	31	104	35861299200	60	42901
2026-01-26 09:03:28.63	345.03	5.77	-46.6	-49.1	6.1	0.00e+00	0	31	104	35861299200	60	35061
2026-01-26 09:03:31.66	344.93	5.53	-45.8	-48.3	6.1	0.00e+00	0	31	104	35861299200	60	31699
2026-01-26 09:03:34.68	344.83	5.28	-46.2	-48.7	6.1	0.00e+00	0	31	104	35861299200	60	33332
2026-01-26 09:03:37.71	344.73	5.04	-45.5	-48.0	6.1	0.00e+00	0	30	104	35861299200	60	30776
2026-01-26 09:03:40.74	344.63	4.80	-46.0	-48.4	6.1	0.00e+00	0	30	104	35861299200	60	32326
2026-01-26 09:03:43.77	344.54	4.57	-45.9	-48.3	6.1	0.00e+00	0	31	104	35861299200	60	31857
2026-01-26 09:03:46.80	344.44	4.33	-44.3	-46.8	6.1	0.00e+00	0	30	104	35861299200	60	26935
2026-01-26 09:03:49.82	344.35	4.10	-45.4	-47.8	6.1	0.00e+00	0	31	104	35861299200	60	30192
2026-01-26 09:03:52.85	344.26	3.87	-44.2	-46.7	6.1	0.00e+00	0	31	104	35861299200	60	26417
2026-01-26 09:03:55.87	344.18	3.65	-44.1	-46.6	6.1	0.00e+00	0	31	104	35861299200	60	26239
2026-01-26 09:03:58.90	344.09	3.43	-44.1	-46.7	6.1	0.00e+00	0	31	104	35861299200	60	26339
2026-01-26 09:04:01.92	344.01	3.20	-44.0	-46.6	6.1	0.00e+00	0	31	104	35861299200	60	26047
2026-01-26 09:04:04.95	343.93	2.99	-44.1	-46.5	6.1	0.00e+00	0	30	104	35861299200	60	26025
2026-01-26 09:04:07.98	343.85	2.77	-48.6	-51.2	6.1	0.00e+00	0	31	104	35861299200	60	44368
2026-01-26 09:04:11.01	343.77	2.55	-49.1	-51.5	6.1	0.00e+00	0	30	104	35861299200	60	46265
2026-01-26 09:04:14.04	343.70	2.34	-49.3	-51.7	6.1	0.00e+00	0	30	104	35861299200	60	47216
2026-01-26 09:04:17.07	343.62	2.13	-49.8	-52.3	6.1	0.00e+00	0	30	104	35861299200	60	50335
2026-01-26 09:04:20.10	343.55	1.92	-48.7	-51.3	6.0	0.00e+00	0	30	104	35861299200	60	45137
2026-01-26 09:04:23.13	343.48	1.71	-49.6	-52.1	6.1	0.00e+00	0	31	104	35861299200	60	49581
2026-01-26 09:04:26.16	343.41	1.51	-49.6	-52.1	6.1	0.00e+00	0	31	104	35861299200	60	49457
2026-01-26 09:04:29.19	343.34	1.31	-50.0	-52.4	6.1	0.00e+00	0	31	104	35861299200	60	50898
2026-01-26 09:04:32.21	343.27	1.11	-49.7	-52.1	6.1	0.00e+00	0	30	104	35861299200	60	49504
2026-01-26 09:04:35.24	343.21	0.91	-49.8	-52.2	6.1	0.00e+00	0	30	104	35861299200	60	50180
2026-01-26 09:04:38.27	343.14	0.71	-50.1	-52.6	6.1	0.00e+00	0	31	104	35861299200	60	52223
2026-01-26 09:04:41.29	343.08	0.51	-50.5	-52.9	6.1	0.00e+00	0	31	104	35861299200	60	54347
2026-01-26 09:04:44.32	343.02	0.32	-50.3	-52.8	6.1	0.00e+00	0	31	104	35861299200	60	53344
2026-01-26 09:04:47.36	342.96	0.12	-49.7	-52.2	6.1	0.00e+00	0	31	104	35861299200	60	49733
2026-01-26 09:04:50.38	342.90	-0.07	-49.9	-52.4	6.1	0.00e+00	0	31	104	35861299200	60	51159

#Closed at: 2026-01-26 09:04:51
#Recorded file [35861 MB]: D:/lorett/data/35029_260126_205347.dat