passes_logs/2026/01/26/R4.6S_Anadyr/R4.6S_Anadyr__20260126_072043_TY-42_rec.log

#Pass ID: 20260126_072043_TY-42
#Satellite: TY-42
#Configuration: TY-42_900M
#almurnet v.1.7.20251203
#Start time: 2026-01-26 07:21:15

#Version: 2.2.20231116
#Station: R4.6S_Anadyr
#Location: 177.4865 lon 64.73178 lat
#TLE: 1 64048U 25103A   26025.90722222  .00008016  00000-0  38191-3 0 09994
#TLE: 2 64048 097.4113 101.1198 0001664 095.7251 298.2114 15.19193032 38479

#Time	Az	El	Level	Level2	SNR	BER	BlckErr	Temp	State	Recorded	gain1	gain2
2026-01-26 07:21:15.07	99.70	1.80	-49.9	-61.6	3.5	8.46e-01	0	27	0	0	60	43329
2026-01-26 07:21:18.10	99.40	1.98	-46.4	-49.0	6.1	0.00e+00	0	28	104	0	60	34685
2026-01-26 07:21:21.13	99.10	2.15	-46.4	-49.1	6.1	0.00e+00	0	29	104	0	60	34879
2026-01-26 07:21:24.16	98.79	2.33	-46.5	-49.2	6.1	0.00e+00	0	29	104	0	60	35234
2026-01-26 07:21:27.19	98.48	2.51	-46.5	-49.2	6.1	0.00e+00	0	29	104	0	60	35362
2026-01-26 07:21:30.22	98.16	2.70	-46.6	-49.3	6.1	0.00e+00	0	29	104	0	60	35756
2026-01-26 07:21:33.25	97.84	2.88	-46.7	-49.4	6.1	0.00e+00	0	29	104	0	60	35954
2026-01-26 07:21:36.29	97.51	3.06	-46.6	-49.3	6.1	0.00e+00	0	29	104	0	60	35567
2026-01-26 07:21:39.32	97.18	3.24	-46.5	-49.2	6.1	0.00e+00	0	29	104	0	60	35283
2026-01-26 07:21:42.35	96.84	3.43	-46.8	-49.5	6.1	0.00e+00	0	29	104	0	60	36518
2026-01-26 07:21:45.37	96.50	3.61	-46.6	-49.3	6.1	0.00e+00	0	29	104	0	60	35675
2026-01-26 07:21:48.39	96.15	3.80	-47.5	-50.1	6.1	0.00e+00	0	29	104	0	60	38988
2026-01-26 07:21:51.42	95.80	3.99	-47.1	-49.8	6.1	0.00e+00	0	29	104	0	60	38022
2026-01-26 07:21:54.45	95.44	4.17	-47.3	-49.9	6.1	0.00e+00	0	29	104	0	60	38359
2026-01-26 07:21:57.47	95.07	4.36	-47.2	-49.7	6.1	0.00e+00	0	30	104	0	60	37521
2026-01-26 07:22:00.50	94.70	4.55	-47.2	-49.8	6.1	0.00e+00	0	30	104	0	60	38052
2026-01-26 07:22:03.53	94.32	4.74	-47.8	-50.3	6.1	0.00e+00	0	30	104	0	60	40151
2026-01-26 07:22:06.56	93.93	4.93	-47.8	-50.3	6.1	0.00e+00	0	30	104	0	60	40309
2026-01-26 07:22:09.59	93.54	5.13	-47.8	-50.4	6.1	0.00e+00	0	30	104	0	60	40401
2026-01-26 07:22:12.61	93.15	5.32	-47.2	-49.7	6.1	0.00e+00	0	30	104	0	60	37620
2026-01-26 07:22:15.64	92.74	5.51	-47.5	-50.1	6.1	0.00e+00	0	30	104	0	60	39252
2026-01-26 07:22:18.67	92.33	5.71	-35.3	-35.6	10.7	0.00e+00	692	30	104	0	48	14758
2026-01-26 07:22:21.70	91.91	5.90	-34.7	-35.1	13.5	1.06e-01	0	30	0	192937984	42	19595
2026-01-26 07:22:24.72	91.48	6.10	-32.4	-32.9	14.3	2.91e-02	0	30	0	528482304	40	17020
2026-01-26 07:22:27.75	91.05	6.29	-33.9	-34.3	13.8	2.45e-02	0	30	0	872415232	42	17849
2026-01-26 07:22:30.78	90.61	6.49	-31.9	-32.4	14.7	2.65e-02	0	30	0	1207959552	38	18136
2026-01-26 07:22:33.81	90.16	6.69	-29.7	-30.2	15.8	3.35e-03	0	30	0	1551892480	34	17621
2026-01-26 07:22:36.83	89.70	6.88	-30.1	-30.6	15.3	3.05e-03	0	30	0	1887436800	34	18460
2026-01-26 07:22:39.86	89.24	7.08	-28.5	-29.0	15.8	1.80e-03	0	31	0	2231369728	32	17312
2026-01-26 07:22:42.89	88.76	7.28	-29.1	-29.5	15.4	1.20e-03	0	31	0	2575302656	34	16417
2026-01-26 07:22:45.91	88.28	7.48	-29.5	-29.9	15.5	2.29e-03	0	31	0	2910846976	34	17083
2026-01-26 07:22:48.94	87.79	7.68	-29.2	-29.6	16.1	3.50e-03	0	31	0	3254779904	32	18642
2026-01-26 07:22:51.97	87.29	7.88	-29.0	-29.5	16.1	6.97e-04	0	31	0	3590324224	32	18222
2026-01-26 07:22:55.00	86.79	8.08	-28.2	-28.7	16.3	3.71e-04	0	31	0	3934257152	30	18846
2026-01-26 07:22:58.02	86.27	8.28	-28.9	-29.3	16.1	3.87e-04	0	31	0	4278190080	30	20153
2026-01-26 07:23:01.05	85.75	8.49	-28.3	-28.7	16.1	4.41e-04	0	31	0	4613734400	30	18836
2026-01-26 07:23:04.08	85.21	8.69	-27.3	-27.8	16.5	1.69e-04	0	31	0	4957667328	28	18967
2026-01-26 07:23:07.10	84.67	8.89	-27.2	-27.7	16.6	9.26e-05	0	31	0	5301600256	28	18783
2026-01-26 07:23:10.13	84.12	9.09	-27.0	-27.4	16.5	5.44e-05	0	31	0	5637144576	28	18179
2026-01-26 07:23:13.16	83.56	9.29	-27.1	-27.6	16.6	1.31e-04	0	31	0	5981077504	30	16525
2026-01-26 07:23:16.18	82.99	9.49	-26.1	-26.6	16.8	7.08e-05	0	31	0	6316621824	28	16526
2026-01-26 07:23:19.21	82.40	9.70	-25.9	-26.3	16.8	5.40e-06	0	31	0	6660554752	28	16018
2026-01-26 07:23:22.23	81.81	9.90	-25.9	-26.3	16.9	2.72e-05	0	31	0	6996099072	26	17988
2026-01-26 07:23:25.26	81.21	10.10	-25.7	-26.2	16.9	1.08e-05	0	31	0	7340032000	26	17698
2026-01-26 07:23:28.28	80.60	10.30	-25.6	-26.0	17.0	0.00e+00	0	31	0	7675576320	26	17312
2026-01-26 07:23:31.32	79.98	10.50	-25.7	-26.2	16.9	5.40e-06	0	31	0	8019509248	26	17680
2026-01-26 07:23:34.34	79.34	10.70	-25.6	-26.0	16.8	5.40e-06	0	31	0	8363442176	26	17330
2026-01-26 07:23:37.37	78.70	10.89	-25.8	-26.3	16.9	5.40e-06	0	31	0	8698986496	26	17820
2026-01-26 07:23:40.40	78.05	11.09	-25.3	-25.8	17.0	0.00e+00	0	31	0	9042919424	26	16841
2026-01-26 07:23:43.43	77.38	11.29	-25.3	-25.8	17.0	1.63e-05	0	31	0	9378463744	26	16828
2026-01-26 07:23:46.45	76.71	11.48	-25.6	-26.1	16.3	0.00e+00	0	31	0	9722396672	26	17419
2026-01-26 07:23:49.48	76.02	11.68	-25.1	-25.5	16.5	5.44e-05	0	31	0	10057940992	26	16356
2026-01-26 07:23:52.51	75.32	11.87	-25.1	-25.5	17.0	0.00e+00	0	31	0	10401873920	26	16404
2026-01-26 07:23:55.54	74.61	12.06	-25.2	-25.7	16.4	2.17e-05	0	31	0	10745806848	26	16660
2026-01-26 07:23:58.56	73.89	12.25	-25.0	-25.4	16.9	2.72e-05	0	31	0	11089739776	26	16171
2026-01-26 07:24:01.60	73.16	12.43	-25.0	-25.5	17.0	0.00e+00	0	31	0	11425284096	26	16296
2026-01-26 07:24:04.62	72.42	12.62	-24.8	-25.2	17.1	0.00e+00	0	31	0	11769217024	26	15837
2026-01-26 07:24:07.65	71.66	12.80	-24.8	-25.2	17.1	0.00e+00	0	31	0	12113149952	24	17780
2026-01-26 07:24:10.68	70.90	12.98	-25.1	-25.6	17.0	0.00e+00	0	31	0	12448694272	24	18460
2026-01-26 07:24:13.71	70.12	13.16	-24.6	-25.0	16.5	5.40e-06	0	31	0	12792627200	24	17385
2026-01-26 07:24:16.74	69.33	13.33	-24.7	-25.1	16.4	4.90e-05	0	32	0	13136560128	24	17458
2026-01-26 07:24:19.76	68.54	13.50	-47.6	-50.4	6.1	4.35e-05	0	31	104	13195280384	60	40360
2026-01-26 07:24:22.79	67.73	13.67	-46.7	-49.4	6.2	4.35e-05	0	31	104	13195280384	60	36208
2026-01-26 07:24:25.82	66.91	13.83	-47.8	-50.5	6.1	4.35e-05	0	31	104	13195280384	60	40815
2026-01-26 07:24:28.84	66.08	13.99	-48.6	-51.2	6.1	4.35e-05	0	31	104	13195280384	60	44255
2026-01-26 07:24:31.87	65.24	14.15	-48.3	-50.9	6.1	0.00e+00	0	31	104	13195280384	60	42811
2026-01-26 07:24:34.89	64.39	14.30	-48.5	-51.0	6.1	0.00e+00	0	31	104	13195280384	60	43498
2026-01-26 07:24:37.92	63.52	14.45	-46.9	-49.6	6.2	0.00e+00	0	31	104	13195280384	60	37082
2026-01-26 07:24:40.95	62.65	14.59	-45.8	-48.6	6.2	0.00e+00	0	31	104	13195280384	60	32833
2026-01-26 07:24:43.97	61.77	14.73	-48.0	-50.6	6.1	0.00e+00	0	31	104	13195280384	60	41418
2026-01-26 07:24:47.00	60.88	14.86	-48.5	-51.0	6.0	0.00e+00	0	31	104	13195280384	60	43645
2026-01-26 07:24:50.03	59.98	14.99	-48.8	-51.3	6.1	0.00e+00	0	31	104	13195280384	60	44846
2026-01-26 07:24:53.06	59.07	15.11	-47.9	-50.5	6.1	0.00e+00	0	31	104	13195280384	60	41056
2026-01-26 07:24:56.08	58.15	15.23	-48.6	-51.2	6.1	0.00e+00	0	31	104	13195280384	60	44293
2026-01-26 07:24:59.11	57.22	15.34	-48.4	-51.0	6.0	0.00e+00	0	31	104	13195280384	60	43467
2026-01-26 07:25:02.14	56.29	15.45	-48.8	-51.2	6.1	0.00e+00	0	31	104	13195280384	60	44714
2026-01-26 07:25:05.16	55.35	15.55	-48.9	-51.4	6.1	0.00e+00	0	31	104	13195280384	60	45552
2026-01-26 07:25:08.19	54.40	15.64	-48.4	-51.0	6.1	0.00e+00	0	31	104	13195280384	60	43280
2026-01-26 07:25:11.22	53.44	15.72	-48.8	-51.3	6.1	0.00e+00	0	31	104	13195280384	60	44778
2026-01-26 07:25:14.24	52.48	15.80	-48.6	-51.2	6.1	0.00e+00	0	31	104	13195280384	60	44292
2026-01-26 07:25:17.27	51.51	15.88	-48.9	-51.4	6.1	0.00e+00	0	31	104	13195280384	60	45391
2026-01-26 07:25:20.30	50.54	15.94	-48.6	-51.1	6.1	0.00e+00	0	31	104	13195280384	60	44139
2026-01-26 07:25:23.32	49.56	16.00	-48.5	-51.1	6.1	0.00e+00	0	31	104	13195280384	60	43786
2026-01-26 07:25:26.35	48.58	16.05	-48.5	-51.0	6.1	0.00e+00	0	31	104	13195280384	60	43595
2026-01-26 07:25:29.37	47.60	16.10	-48.9	-51.4	6.1	0.00e+00	0	31	104	13195280384	60	45321
2026-01-26 07:25:32.40	46.61	16.13	-48.5	-51.1	6.1	0.00e+00	0	31	104	13195280384	60	43957
2026-01-26 07:25:35.43	45.61	16.16	-48.2	-50.8	6.1	0.00e+00	0	31	104	13195280384	60	42609
2026-01-26 07:25:38.46	44.62	16.18	-48.9	-51.4	6.1	0.00e+00	0	31	104	13195280384	60	45431
2026-01-26 07:25:41.49	43.62	16.20	-48.8	-51.3	6.1	0.00e+00	0	31	104	13195280384	60	44832
2026-01-26 07:25:44.51	42.63	16.20	-47.4	-50.0	6.1	0.00e+00	0	31	104	13195280384	60	38918
2026-01-26 07:25:47.54	41.64	16.20	-48.1	-50.7	6.1	0.00e+00	0	31	104	13195280384	60	41804
2026-01-26 07:25:50.57	40.64	16.19	-48.4	-51.0	6.1	0.00e+00	0	31	104	13195280384	60	43228
2026-01-26 07:25:53.59	39.65	16.17	-47.7	-50.4	6.1	0.00e+00	0	31	104	13195280384	60	40677
2026-01-26 07:25:56.62	38.66	16.15	-48.5	-51.1	6.1	0.00e+00	0	31	104	13195280384	60	43728
2026-01-26 07:25:59.65	37.67	16.12	-48.9	-51.4	6.1	0.00e+00	0	31	104	13195280384	60	45409
2026-01-26 07:26:02.68	36.68	16.08	-48.9	-51.4	6.1	0.00e+00	0	31	104	13195280384	60	45544
2026-01-26 07:26:05.70	35.70	16.03	-48.8	-51.3	6.1	0.00e+00	0	31	104	13195280384	60	44871
2026-01-26 07:26:08.74	34.71	15.97	-48.5	-51.1	6.1	0.00e+00	0	31	104	13195280384	60	43791
2026-01-26 07:26:11.77	33.74	15.91	-48.7	-51.3	6.1	0.00e+00	0	31	104	13195280384	60	44800
2026-01-26 07:26:14.80	32.77	15.84	-48.8	-51.3	6.1	0.00e+00	0	31	104	13195280384	60	45092
2026-01-26 07:26:17.83	31.80	15.77	-48.8	-51.3	6.1	0.00e+00	0	31	104	13195280384	60	44920
2026-01-26 07:26:20.85	30.85	15.69	-48.6	-51.1	6.1	0.00e+00	0	31	104	13195280384	60	44042
2026-01-26 07:26:23.87	29.90	15.60	-48.8	-51.2	6.1	0.00e+00	0	31	104	13195280384	60	44598
2026-01-26 07:26:26.90	28.95	15.50	-48.8	-51.3	6.1	0.00e+00	0	31	104	13195280384	60	44964
2026-01-26 07:26:29.93	28.02	15.40	-48.7	-51.2	6.1	0.00e+00	0	31	104	13195280384	60	44614
2026-01-26 07:26:32.96	27.09	15.29	-48.7	-51.2	6.1	0.00e+00	0	31	104	13195280384	60	44505
2026-01-26 07:26:35.98	26.17	15.18	-48.4	-51.0	6.1	0.00e+00	0	31	104	13195280384	60	43411
2026-01-26 07:26:39.01	25.25	15.06	-48.5	-51.1	6.1	0.00e+00	0	31	104	13195280384	60	43805
2026-01-26 07:26:42.04	24.35	14.93	-48.7	-51.1	6.1	0.00e+00	0	31	104	13195280384	60	44180
2026-01-26 07:26:45.07	23.46	14.80	-48.6	-51.2	6.1	0.00e+00	0	31	104	13195280384	60	44232
2026-01-26 07:26:48.10	22.57	14.67	-48.8	-51.2	6.1	0.00e+00	0	31	104	13195280384	60	44603
2026-01-26 07:26:51.13	21.69	14.53	-48.8	-51.3	6.1	0.00e+00	0	31	104	13195280384	60	44993
2026-01-26 07:26:54.15	20.83	14.38	-48.8	-51.3	6.1	0.00e+00	0	31	104	13195280384	60	45073
2026-01-26 07:26:57.18	19.98	14.23	-48.8	-51.3	6.1	0.00e+00	0	31	104	13195280384	60	44915
2026-01-26 07:27:00.20	19.13	14.08	-48.7	-51.2	6.1	0.00e+00	0	31	104	13195280384	60	44396
2026-01-26 07:27:03.23	18.30	13.92	-48.8	-51.3	6.1	0.00e+00	0	32	104	13195280384	60	44832
2026-01-26 07:27:06.25	17.48	13.76	-48.8	-51.3	6.1	0.00e+00	0	31	104	13195280384	60	44840
2026-01-26 07:27:09.28	16.67	13.60	-48.8	-51.3	6.1	0.00e+00	0	31	104	13195280384	60	44778
2026-01-26 07:27:12.31	15.86	13.43	-48.8	-51.2	6.0	0.00e+00	0	31	104	13195280384	60	44681
2026-01-26 07:27:15.33	15.08	13.26	-48.8	-51.3	6.1	0.00e+00	0	31	104	13195280384	60	44761
2026-01-26 07:27:18.36	14.30	13.08	-48.7	-51.2	6.1	0.00e+00	0	31	104	13195280384	60	44383
2026-01-26 07:27:21.39	13.53	12.90	-48.9	-51.3	6.1	0.00e+00	0	31	104	13195280384	60	45068
2026-01-26 07:27:24.41	12.77	12.72	-48.9	-51.3	6.1	0.00e+00	0	31	104	13195280384	60	45226
2026-01-26 07:27:27.44	12.03	12.54	-48.8	-51.3	6.1	0.00e+00	0	31	104	13195280384	60	44839
2026-01-26 07:27:30.47	11.29	12.36	-48.8	-51.2	6.1	0.00e+00	0	31	104	13195280384	60	44487
2026-01-26 07:27:33.49	10.57	12.17	-48.8	-51.3	6.1	0.00e+00	0	31	104	13195280384	60	44767
2026-01-26 07:27:36.53	9.86	11.98	-48.7	-51.2	6.1	0.00e+00	0	31	104	13195280384	60	44547
2026-01-26 07:27:39.56	9.15	11.79	-48.8	-51.2	6.1	0.00e+00	0	31	104	13195280384	60	44563
2026-01-26 07:27:42.58	8.47	11.60	-48.7	-51.2	6.1	0.00e+00	0	31	104	13195280384	60	44692
2026-01-26 07:27:45.61	7.79	11.41	-48.8	-51.2	6.1	0.00e+00	0	31	104	13195280384	60	44686
2026-01-26 07:27:48.63	7.12	11.21	-48.7	-51.2	6.1	0.00e+00	0	31	104	13195280384	60	44418
2026-01-26 07:27:51.65	6.47	11.02	-48.7	-51.2	6.1	0.00e+00	0	31	104	13195280384	60	44663
2026-01-26 07:27:54.68	5.82	10.82	-48.6	-51.1	6.1	0.00e+00	0	31	104	13195280384	60	43965
2026-01-26 07:27:57.71	5.18	10.62	-48.6	-51.1	6.1	0.00e+00	0	31	104	13195280384	60	44105
2026-01-26 07:28:00.74	4.56	10.42	-48.7	-51.2	6.1	0.00e+00	0	31	104	13195280384	60	44616
2026-01-26 07:28:03.77	3.94	10.22	-48.6	-51.1	6.1	0.00e+00	0	31	104	13195280384	60	43822
2026-01-26 07:28:06.80	3.34	10.02	-48.6	-51.1	6.1	0.00e+00	0	31	104	13195280384	60	44040
2026-01-26 07:28:09.83	2.74	9.82	-48.6	-51.1	6.1	0.00e+00	0	31	104	13195280384	60	43840
2026-01-26 07:28:12.85	2.16	9.62	-48.7	-51.2	6.1	0.00e+00	0	31	104	13195280384	60	44514
2026-01-26 07:28:15.88	1.59	9.42	-48.7	-51.2	6.0	0.00e+00	0	31	104	13195280384	60	44348
2026-01-26 07:28:18.90	1.02	9.22	-48.6	-51.1	6.1	0.00e+00	0	31	104	13195280384	60	43904
2026-01-26 07:28:21.92	0.47	9.02	-48.6	-51.0	6.1	0.00e+00	0	31	104	13195280384	60	43658
2026-01-26 07:28:24.95	359.93	8.82	-48.7	-51.2	6.1	0.00e+00	0	31	104	13195280384	60	44482
2026-01-26 07:28:27.98	359.39	8.62	-48.6	-51.1	6.1	0.00e+00	0	31	104	13195280384	60	43872
2026-01-26 07:28:31.01	358.86	8.42	-48.6	-51.1	6.1	0.00e+00	0	31	104	13195280384	60	43837
2026-01-26 07:28:34.04	358.34	8.22	-48.6	-51.1	6.1	0.00e+00	0	31	104	13195280384	60	43822
2026-01-26 07:28:37.06	357.84	8.02	-48.7	-51.2	6.1	0.00e+00	0	31	104	13195280384	60	44640
2026-01-26 07:28:40.09	357.34	7.82	-48.3	-50.9	6.1	0.00e+00	0	31	104	13195280384	60	42902
2026-01-26 07:28:43.12	356.85	7.62	-48.6	-51.0	6.0	0.00e+00	0	31	104	13195280384	60	43667
2026-01-26 07:28:46.14	356.36	7.42	-48.4	-50.9	6.1	0.00e+00	0	31	104	13195280384	60	42905
2026-01-26 07:28:49.17	355.89	7.22	-48.6	-51.1	6.1	0.00e+00	0	31	104	13195280384	60	43976
2026-01-26 07:28:52.19	355.42	7.02	-48.5	-51.0	6.1	0.00e+00	0	31	104	13195280384	60	43381
2026-01-26 07:28:55.21	354.97	6.83	-48.4	-50.9	6.1	0.00e+00	0	31	104	13195280384	60	43046
2026-01-26 07:28:58.24	354.52	6.63	-48.5	-51.0	6.1	0.00e+00	0	31	104	13195280384	60	43501
2026-01-26 07:29:01.26	354.07	6.43	-48.5	-51.0	6.1	0.00e+00	0	31	104	13195280384	60	43560
2026-01-26 07:29:04.28	353.64	6.24	-48.4	-50.9	6.1	0.00e+00	0	31	104	13195280384	60	42766
2026-01-26 07:29:07.31	353.21	6.04	-48.5	-51.0	6.1	0.00e+00	0	31	104	13195280384	60	43212
2026-01-26 07:29:10.34	352.79	5.85	-48.2	-50.7	6.1	0.00e+00	0	31	104	13195280384	60	42008
2026-01-26 07:29:13.37	352.38	5.65	-48.5	-51.0	6.1	0.00e+00	0	31	104	13195280384	60	43439
2026-01-26 07:29:16.39	351.97	5.46	-48.3	-50.8	6.1	0.00e+00	0	31	104	13195280384	60	42312
2026-01-26 07:29:19.41	351.57	5.27	-48.2	-50.7	6.1	0.00e+00	0	31	104	13195280384	60	41991
2026-01-26 07:29:22.44	351.18	5.08	-48.1	-50.7	6.1	0.00e+00	0	31	104	13195280384	60	41831
2026-01-26 07:29:25.46	350.79	4.89	-48.2	-50.7	6.1	0.00e+00	0	31	104	13195280384	60	42045
2026-01-26 07:29:28.49	350.41	4.70	-48.3	-50.7	6.1	0.00e+00	0	31	104	13195280384	60	42035
2026-01-26 07:29:31.52	350.04	4.51	-48.2	-50.7	6.1	0.00e+00	0	31	104	13195280384	60	41908
2026-01-26 07:29:34.55	349.67	4.32	-48.0	-50.5	6.1	0.00e+00	0	31	104	13195280384	60	41038
2026-01-26 07:29:37.58	349.31	4.13	-48.1	-50.6	6.1	0.00e+00	0	31	104	13195280384	60	41329
2026-01-26 07:29:40.61	348.96	3.94	-48.1	-50.5	6.1	0.00e+00	0	31	104	13195280384	60	41248
2026-01-26 07:29:43.63	348.61	3.76	-47.7	-50.1	6.1	0.00e+00	0	31	104	13195280384	60	39399
2026-01-26 07:29:46.66	348.26	3.57	-46.0	-48.5	6.1	0.00e+00	0	31	104	13195280384	60	32656
2026-01-26 07:29:49.68	347.93	3.39	-46.5	-49.0	6.1	0.00e+00	0	31	104	13195280384	60	34675
2026-01-26 07:29:52.72	347.59	3.21	-44.7	-47.2	6.1	0.00e+00	0	31	104	13195280384	60	28146
2026-01-26 07:29:55.74	347.27	3.02	-44.2	-46.6	6.1	0.00e+00	0	31	104	13195280384	60	26315
2026-01-26 07:29:58.77	346.94	2.84	-48.0	-50.5	6.1	0.00e+00	0	31	104	13195280384	60	40956
2026-01-26 07:30:01.80	346.63	2.66	-49.0	-51.4	6.1	0.00e+00	0	31	104	13195280384	60	45736
2026-01-26 07:30:04.83	346.32	2.48	-49.5	-51.9	6.1	0.00e+00	0	31	104	13195280384	60	48389
2026-01-26 07:30:07.86	346.01	2.30	-49.3	-51.8	6.1	0.00e+00	0	31	104	13195280384	60	47899
2026-01-26 07:30:10.89	345.71	2.12	-49.4	-51.8	6.1	0.00e+00	0	31	104	13195280384	60	47908
2026-01-26 07:30:13.92	345.41	1.94	-49.2	-51.7	6.1	0.00e+00	0	31	104	13195280384	60	47113
2026-01-26 07:30:16.96	345.12	1.77	-48.8	-51.4	6.1	0.00e+00	0	31	104	13195280384	60	45465
2026-01-26 07:30:19.99	344.83	1.59	-49.3	-51.8	6.1	0.00e+00	0	31	104	13195280384	60	47616
2026-01-26 07:30:23.02	344.55	1.42	-49.7	-52.2	6.1	0.00e+00	0	31	104	13195280384	60	49733
2026-01-26 07:30:26.05	344.27	1.24	-49.6	-52.1	6.1	0.00e+00	0	31	104	13195280384	60	49468
2026-01-26 07:30:29.07	343.99	1.07	-49.8	-52.2	6.1	0.00e+00	0	31	104	13195280384	60	50051
2026-01-26 07:30:32.10	343.72	0.90	-49.7	-52.1	6.1	0.00e+00	0	31	104	13195280384	60	49532
2026-01-26 07:30:35.13	343.46	0.72	-49.9	-52.3	6.1	0.00e+00	0	31	104	13195280384	60	50515
2026-01-26 07:30:38.16	343.19	0.55	-49.9	-52.4	6.1	0.00e+00	0	31	104	13195280384	60	50942
2026-01-26 07:30:41.19	342.94	0.38	-49.6	-52.1	6.1	0.00e+00	0	31	104	13195280384	60	49205
2026-01-26 07:30:44.22	342.68	0.21	-49.7	-52.2	6.1	0.00e+00	0	31	104	13195280384	60	50083
2026-01-26 07:30:47.26	342.43	0.04	-50.0	-52.5	6.1	0.00e+00	0	31	104	13195280384	60	51563

#Closed at: 2026-01-26 07:30:48
#Recorded file [13195 MB]: D:/lorett/data/35029_260126_192115.dat