passes_logs/2026/01/26/R4.6S_Anadyr/R4.6S_Anadyr__20260126_181859_NOAA_20_JPSS-1_rec.log

#Pass ID: 20260126_181859_NOAA 20 (JPSS-1)
#Satellite: NOAA 20 (JPSS-1)
#Configuration: NOAA 20
#almurnet v.1.7.20251203
#Start time: 2026-01-26 18:19:02

#Version: 2.2.20231116
#Station: R4.6S_Anadyr
#Location: 177.4865 lon 64.73178 lat
#TLE: 1 43013U 17073A   26025.90277267  .00000170  00000+0  10165-3 0  9997
#TLE: 2 43013  98.7646 326.7276 0001032  23.5492 336.5731 14.19540457424285

#Time	Az	El	Level	Level2	SNR	BER	BlckErr	Temp	State	Recorded	gain1	gain2
2026-01-26 18:19:02.62	39.22	0.17	-50.3	-64.0	3.3	1.54e+00	0	26	0	0	60	57476
2026-01-26 18:19:06.65	38.94	0.37	-49.2	-64.4	3.6	1.51e+00	0	26	104	0	60	60169
2026-01-26 18:19:10.68	38.65	0.57	-49.1	-64.3	3.6	1.51e+00	0	26	104	0	60	59276
2026-01-26 18:19:14.71	38.36	0.78	-48.9	-64.1	3.6	1.51e+00	0	26	104	0	60	58042
2026-01-26 18:19:18.75	38.06	0.98	-48.8	-64.0	3.6	1.51e+00	0	26	104	0	60	57328
2026-01-26 18:19:22.79	37.76	1.19	-48.3	-63.5	3.6	1.51e+00	0	26	104	0	60	54268
2026-01-26 18:19:26.83	37.45	1.40	-47.6	-62.7	3.6	1.51e+00	0	27	104	0	60	49496
2026-01-26 18:19:30.88	37.14	1.61	-47.6	-62.7	3.6	1.51e+00	0	27	104	0	60	49347
2026-01-26 18:19:34.92	36.83	1.81	-47.5	-62.7	3.6	1.51e+00	0	27	104	0	60	49475
2026-01-26 18:19:38.96	36.51	2.02	-47.5	-62.6	3.6	1.51e+00	0	27	104	0	60	48982
2026-01-26 18:19:43.00	36.18	2.23	-47.6	-62.7	3.6	1.51e+00	0	27	104	0	60	49534
2026-01-26 18:19:47.03	35.85	2.44	-47.6	-62.7	3.6	1.51e+00	0	27	104	0	60	49326
2026-01-26 18:19:51.07	35.52	2.65	-47.5	-61.9	3.6	1.51e+00	0	27	104	0	60	45076
2026-01-26 18:19:55.11	35.18	2.86	-46.8	-54.3	7.3	4.89e-01	0	27	0	0	60	18699
2026-01-26 18:19:59.15	34.83	3.08	-47.6	-60.1	3.7	6.13e-02	0	27	104	6291456	60	36547
2026-01-26 18:20:03.18	34.48	3.29	-47.4	-61.6	3.6	1.49e+00	0	27	104	9437184	60	43581
2026-01-26 18:20:07.22	34.13	3.50	-43.8	-46.3	15.6	7.00e-07	92	27	0	13631488	60	7501
2026-01-26 18:20:11.25	33.77	3.72	-42.6	-44.6	17.6	0.00e+00	0	27	0	20971520	58	6885
2026-01-26 18:20:15.29	33.40	3.93	-43.4	-45.7	16.0	0.00e+00	0	27	0	29360128	58	7828
2026-01-26 18:20:19.32	33.03	4.15	-43.1	-45.2	16.7	0.00e+00	0	27	0	36700160	60	6570
2026-01-26 18:20:23.36	32.65	4.36	-43.0	-45.1	16.9	0.00e+00	50	27	0	44040192	58	7289
2026-01-26 18:20:27.40	32.27	4.58	-42.5	-44.4	17.7	0.00e+00	2	27	0	51380224	58	6743
2026-01-26 18:20:31.44	31.88	4.80	-42.4	-44.2	17.9	0.00e+00	5	27	0	58720256	58	6592
2026-01-26 18:20:35.47	31.49	5.01	-42.6	-44.4	17.6	0.00e+00	92	27	0	67108864	58	6762
2026-01-26 18:20:39.51	31.08	5.23	-42.8	-44.7	17.6	0.00e+00	0	28	0	74448896	58	6964
2026-01-26 18:20:43.54	30.68	5.45	-43.2	-45.2	17.2	0.00e+00	50	27	0	81788928	58	7412
2026-01-26 18:20:47.58	30.26	5.67	-42.9	-44.8	17.5	0.00e+00	51	27	0	89128960	58	7079
2026-01-26 18:20:51.62	29.84	5.89	-42.7	-44.6	17.7	0.00e+00	92	28	0	96468992	58	6894
2026-01-26 18:20:55.66	29.41	6.11	-41.9	-43.5	18.8	0.00e+00	36	28	0	104857600	58	6073
2026-01-26 18:20:59.70	28.98	6.33	-41.8	-43.4	18.9	0.00e+00	7	28	0	112197632	56	6739
2026-01-26 18:21:03.73	28.54	6.55	-42.0	-43.6	18.9	0.00e+00	52	28	0	119537664	56	6860
2026-01-26 18:21:07.77	28.09	6.77	-41.5	-43.0	19.4	0.00e+00	92	28	0	126877696	56	6419
2026-01-26 18:21:11.81	27.64	6.99	-41.4	-42.8	19.6	0.00e+00	28	28	0	135266304	56	6261
2026-01-26 18:21:15.84	27.18	7.21	-40.9	-42.3	20.1	0.00e+00	29	28	0	142606336	56	5923
2026-01-26 18:21:19.88	26.71	7.43	-41.1	-42.4	20.0	0.00e+00	0	28	0	149946368	56	6024
2026-01-26 18:21:23.91	26.23	7.65	-41.1	-42.5	20.1	0.00e+00	92	28	0	157286400	56	6081
2026-01-26 18:21:27.95	25.75	7.87	-40.7	-42.0	20.6	0.00e+00	0	28	0	164626432	56	5758
2026-01-26 18:21:31.98	25.26	8.09	-40.6	-41.9	20.6	0.00e+00	52	28	0	173015040	54	6329
2026-01-26 18:21:36.02	24.76	8.31	-40.5	-41.8	20.7	0.00e+00	51	28	0	180355072	54	6271
2026-01-26 18:21:40.06	24.25	8.53	-40.6	-41.9	20.6	0.00e+00	90	28	0	187695104	54	6362
2026-01-26 18:21:44.09	23.74	8.75	-40.7	-41.9	20.6	0.00e+00	0	28	0	195035136	54	6371
2026-01-26 18:21:48.13	23.22	8.97	-40.7	-42.0	20.5	0.00e+00	54	28	0	203423744	54	6406
2026-01-26 18:21:52.17	22.69	9.19	-40.5	-41.7	20.8	0.00e+00	0	28	0	210763776	54	6223
2026-01-26 18:21:56.21	22.15	9.41	-40.3	-41.5	21.0	0.00e+00	88	28	0	218103808	54	6100
2026-01-26 18:22:00.25	21.60	9.63	-40.3	-41.5	21.0	0.00e+00	27	28	0	225443840	54	6037
2026-01-26 18:22:04.29	21.04	9.84	-40.4	-41.6	20.8	0.00e+00	0	28	0	232783872	54	6154
2026-01-26 18:22:08.33	20.48	10.06	-40.4	-41.6	20.9	0.00e+00	0	28	0	241172480	54	6150
2026-01-26 18:22:12.36	19.91	10.28	-40.3	-41.5	21.1	0.00e+00	11	28	0	248512512	54	6054
2026-01-26 18:22:16.40	19.33	10.49	-40.3	-41.5	21.1	0.00e+00	27	28	0	255852544	54	6077
2026-01-26 18:22:20.44	18.73	10.70	-40.2	-41.4	21.2	0.00e+00	7	28	0	263192576	54	5980
2026-01-26 18:22:24.47	18.14	10.92	-40.2	-41.4	21.3	0.00e+00	92	28	0	270532608	54	6017
2026-01-26 18:22:28.51	17.53	11.13	-40.3	-41.5	21.1	0.00e+00	0	28	0	278921216	54	6038
2026-01-26 18:22:32.54	16.91	11.34	-40.3	-41.4	21.2	0.00e+00	0	28	0	286261248	54	6033
2026-01-26 18:22:36.58	16.29	11.55	-40.1	-41.3	21.4	0.00e+00	53	28	0	293601280	54	5912
2026-01-26 18:22:40.62	15.65	11.75	-39.8	-41.0	21.7	0.00e+00	92	28	0	300941312	52	6394
2026-01-26 18:22:44.66	15.01	11.96	-39.7	-40.7	21.9	0.00e+00	32	28	0	309329920	52	6232
2026-01-26 18:22:48.69	14.35	12.16	-39.2	-40.3	22.4	0.00e+00	7	29	0	316669952	52	5911
2026-01-26 18:22:52.73	13.69	12.36	-39.0	-40.0	22.5	0.00e+00	54	29	0	324009984	52	5745
2026-01-26 18:22:56.77	13.02	12.56	-38.7	-39.7	22.9	0.00e+00	92	29	0	331350016	50	6198
2026-01-26 18:23:00.81	12.34	12.76	-38.7	-39.7	22.9	0.00e+00	33	29	0	338690048	50	6228
2026-01-26 18:23:04.84	11.65	12.95	-38.6	-39.6	23.0	0.00e+00	25	28	0	347078656	50	6148
2026-01-26 18:23:08.88	10.95	13.14	-38.5	-39.4	23.1	0.00e+00	26	29	0	354418688	50	6030
2026-01-26 18:23:12.92	10.24	13.33	-38.4	-39.3	23.2	0.00e+00	91	28	0	361758720	50	5957
2026-01-26 18:23:16.95	9.52	13.52	-38.4	-39.4	23.2	0.00e+00	0	28	0	369098752	50	5986
2026-01-26 18:23:20.99	8.80	13.70	-37.7	-38.6	23.9	0.00e+00	54	29	0	377487360	48	6143
2026-01-26 18:23:25.03	8.06	13.88	-38.0	-38.9	23.6	0.00e+00	40	29	0	384827392	48	6381
2026-01-26 18:23:29.07	7.31	14.06	-38.1	-39.1	23.5	0.00e+00	92	28	0	392167424	48	6472
2026-01-26 18:23:33.10	6.56	14.23	-38.3	-39.3	23.3	0.00e+00	0	29	0	399507456	48	6623
2026-01-26 18:23:37.14	5.80	14.40	-38.4	-39.3	23.2	0.00e+00	0	29	0	406847488	48	6643
2026-01-26 18:23:41.18	5.03	14.56	-38.2	-39.1	23.5	0.00e+00	56	29	0	415236096	48	6507
2026-01-26 18:23:45.22	4.25	14.72	-38.4	-39.4	23.2	0.00e+00	79	29	0	422576128	48	6709
2026-01-26 18:23:49.25	3.46	14.87	-38.1	-39.0	23.6	0.00e+00	2	29	0	429916160	48	6420
2026-01-26 18:23:53.29	2.66	15.03	-38.0	-38.9	23.6	0.00e+00	2	29	0	437256192	48	6375
2026-01-26 18:23:57.33	1.86	15.17	-37.7	-38.5	24.0	0.00e+00	79	29	0	444596224	48	6091
2026-01-26 18:24:01.37	1.04	15.31	-37.9	-38.8	23.7	0.00e+00	20	29	0	452984832	48	6260
2026-01-26 18:24:05.41	0.22	15.45	-37.7	-38.5	24.0	0.00e+00	27	29	0	460324864	48	6080
2026-01-26 18:24:09.44	359.40	15.58	-37.7	-38.6	23.9	0.00e+00	7	29	0	467664896	48	6119
2026-01-26 18:24:13.48	358.56	15.71	-37.9	-38.8	23.8	0.00e+00	92	29	0	475004928	48	6303
2026-01-26 18:24:17.52	357.72	15.83	-37.9	-38.8	23.8	0.00e+00	5	29	0	483393536	48	6246
2026-01-26 18:24:21.55	356.87	15.94	-38.0	-38.9	23.7	0.00e+00	0	29	0	490733568	48	6351
2026-01-26 18:24:25.59	356.02	16.05	-37.8	-38.7	23.8	0.00e+00	6	29	0	498073600	48	6201
2026-01-26 18:24:29.63	355.15	16.15	-37.9	-38.8	23.8	0.00e+00	92	29	0	505413632	48	6289
2026-01-26 18:24:33.67	354.29	16.25	-38.4	-39.3	23.2	0.00e+00	0	29	0	512753664	48	6684
2026-01-26 18:24:37.71	353.41	16.34	-38.6	-39.6	23.2	0.00e+00	0	29	0	521142272	50	6112
2026-01-26 18:24:41.74	352.54	16.42	-39.1	-40.1	22.7	0.00e+00	52	29	0	528482304	50	6531
2026-01-26 18:24:45.78	351.65	16.50	-38.7	-39.7	23.0	0.00e+00	90	29	0	535822336	50	6199
2026-01-26 18:24:49.81	350.77	16.57	-38.2	-39.1	23.6	0.00e+00	28	29	0	543162368	50	5791
2026-01-26 18:24:53.85	349.88	16.63	-38.3	-39.2	23.4	0.00e+00	0	29	0	551550976	50	5853
2026-01-26 18:24:57.88	348.98	16.68	-38.5	-39.4	22.9	0.00e+00	0	29	0	558891008	50	6013
2026-01-26 18:25:01.92	348.09	16.73	-38.5	-39.5	23.2	0.00e+00	91	29	0	566231040	50	6037
2026-01-26 18:25:05.96	347.18	16.78	-38.7	-39.7	23.0	0.00e+00	0	29	0	573571072	50	6191
2026-01-26 18:25:10.00	346.28	16.81	-38.6	-39.5	23.2	0.00e+00	56	29	0	580911104	50	6093
2026-01-26 18:25:14.03	345.38	16.84	-38.8	-39.8	22.9	0.00e+00	82	29	0	589299712	50	6285
2026-01-26 18:25:18.07	344.47	16.86	-38.5	-39.4	23.2	0.00e+00	92	29	0	596639744	50	5996
2026-01-26 18:25:22.11	343.56	16.87	-38.6	-39.6	23.1	0.00e+00	2	29	0	603979776	50	6108
2026-01-26 18:25:26.15	342.66	16.88	-38.3	-39.3	23.3	0.00e+00	55	29	0	611319808	50	5910
2026-01-26 18:25:30.18	341.75	16.87	-38.8	-39.8	22.9	0.00e+00	92	29	0	619708416	50	6255
2026-01-26 18:25:34.22	340.84	16.86	-38.3	-39.3	23.2	0.00e+00	92	29	0	627048448	50	5941
2026-01-26 18:25:38.26	339.94	16.85	-38.1	-39.2	23.5	0.00e+00	0	29	0	634388480	50	5840
2026-01-26 18:25:42.30	339.03	16.82	-38.6	-39.7	23.0	0.00e+00	0	29	0	641728512	50	6184
2026-01-26 18:25:46.34	338.13	16.79	-38.5	-39.5	23.1	0.00e+00	92	29	0	649068544	50	6103
2026-01-26 18:25:50.38	337.22	16.75	-38.3	-39.3	23.4	0.00e+00	26	29	0	657457152	50	5907
2026-01-26 18:25:54.42	336.32	16.71	-38.3	-39.2	23.2	0.00e+00	2	29	0	664797184	50	5892
2026-01-26 18:25:58.46	335.43	16.66	-38.6	-39.5	23.1	0.00e+00	29	29	0	672137216	50	6099
2026-01-26 18:26:02.50	334.53	16.60	-38.0	-38.9	23.7	0.00e+00	92	29	0	679477248	50	5641
2026-01-26 18:26:06.53	333.65	16.53	-38.0	-38.9	23.6	0.00e+00	53	29	0	687865856	50	5693
2026-01-26 18:26:10.57	332.76	16.46	-37.9	-38.8	23.7	0.00e+00	0	29	0	695205888	50	5619
2026-01-26 18:26:14.61	331.88	16.38	-37.6	-38.4	24.2	0.00e+00	35	29	0	702545920	48	6023
2026-01-26 18:26:18.65	331.00	16.29	-37.7	-38.6	23.9	0.00e+00	92	29	0	709885952	48	6112
2026-01-26 18:26:22.69	330.13	16.20	-37.9	-38.8	23.8	0.00e+00	6	29	0	717225984	48	6284
2026-01-26 18:26:26.72	329.27	16.10	-38.5	-39.4	23.3	0.00e+00	0	29	0	725614592	48	6748
2026-01-26 18:26:30.76	328.41	15.99	-38.2	-39.1	23.5	0.00e+00	0	29	0	732954624	48	6532
2026-01-26 18:26:34.80	327.56	15.88	-38.5	-39.4	23.3	0.00e+00	90	29	0	740294656	48	6737
2026-01-26 18:26:38.84	326.71	15.76	-38.7	-39.7	23.1	0.00e+00	28	29	0	747634688	50	6183
2026-01-26 18:26:42.88	325.87	15.64	-39.0	-39.9	23.0	0.00e+00	0	29	0	756023296	50	6379
2026-01-26 18:26:46.92	325.04	15.51	-39.0	-40.0	22.9	0.00e+00	0	29	0	763363328	50	6402
2026-01-26 18:26:50.96	324.21	15.38	-38.6	-39.6	23.2	0.00e+00	90	29	0	770703360	50	6115
2026-01-26 18:26:55.00	323.40	15.24	-38.5	-39.5	23.0	0.00e+00	53	29	0	778043392	50	6036
2026-01-26 18:26:59.04	322.59	15.09	-38.4	-39.3	23.3	0.00e+00	3	29	0	785383424	50	5918
2026-01-26 18:27:03.07	321.79	14.94	-38.4	-39.3	23.4	0.00e+00	40	29	0	793772032	50	5927
2026-01-26 18:27:07.11	320.99	14.79	-38.4	-39.4	23.3	0.00e+00	53	29	0	801112064	50	5969
2026-01-26 18:27:11.15	320.21	14.63	-38.4	-39.3	23.5	0.00e+00	0	29	0	808452096	50	5904
2026-01-26 18:27:15.19	319.43	14.47	-38.5	-39.5	23.3	0.00e+00	0	30	0	815792128	50	6035
2026-01-26 18:27:19.22	318.67	14.30	-39.1	-40.1	22.8	0.00e+00	92	29	0	824180736	50	6488
2026-01-26 18:27:23.26	317.91	14.13	-38.8	-39.8	22.9	0.00e+00	0	29	0	831520768	50	6278
2026-01-26 18:27:27.30	317.16	13.96	-38.8	-39.7	23.2	0.00e+00	2	29	0	838860800	50	6233
2026-01-26 18:27:31.34	316.41	13.78	-39.4	-40.4	22.6	0.00e+00	0	29	0	846200832	50	6702
2026-01-26 18:27:35.38	315.68	13.60	-39.3	-40.3	22.6	0.00e+00	92	30	0	853540864	50	6685
2026-01-26 18:27:39.42	314.96	13.41	-39.3	-40.3	22.6	0.00e+00	0	29	0	861929472	50	6691
2026-01-26 18:27:43.45	314.25	13.23	-39.5	-40.6	22.3	0.00e+00	6	29	0	869269504	50	6868
2026-01-26 18:27:47.50	313.54	13.04	-40.0	-41.1	22.0	0.00e+00	0	30	0	876609536	52	6476
2026-01-26 18:27:51.54	312.84	12.84	-40.3	-41.5	21.6	0.00e+00	92	30	0	883949568	52	6776
2026-01-26 18:27:55.58	312.16	12.65	-40.5	-41.6	21.4	0.00e+00	0	30	0	892338176	52	6892
2026-01-26 18:27:59.61	311.48	12.45	-40.2	-41.3	21.6	0.00e+00	37	30	0	899678208	52	6632
2026-01-26 18:28:03.65	310.81	12.25	-40.7	-41.9	21.0	0.00e+00	6	29	0	907018240	52	7145
2026-01-26 18:28:07.69	310.16	12.05	-40.7	-42.0	20.9	0.00e+00	92	30	0	914358272	54	6403
2026-01-26 18:28:11.73	309.51	11.84	-40.7	-42.0	21.0	0.00e+00	8	30	0	921698304	54	6391
2026-01-26 18:28:15.77	308.87	11.64	-40.8	-42.1	20.9	0.00e+00	0	29	0	930086912	54	6477
2026-01-26 18:28:19.80	308.24	11.43	-41.0	-42.2	20.8	0.00e+00	31	29	0	937426944	54	6590
2026-01-26 18:28:23.85	307.61	11.22	-41.3	-42.6	20.5	0.00e+00	92	29	0	944766976	56	6118
2026-01-26 18:28:27.88	307.00	11.01	-41.7	-43.0	20.5	0.00e+00	0	29	0	952107008	56	6421
2026-01-26 18:28:31.92	306.39	10.79	-41.1	-42.4	20.8	0.00e+00	2	29	0	960495616	56	5974
2026-01-26 18:28:35.95	305.80	10.58	-41.0	-42.2	21.1	0.00e+00	2	30	0	967835648	56	5840
2026-01-26 18:28:39.99	305.21	10.37	-40.9	-42.1	21.2	0.00e+00	92	29	0	975175680	54	6488
2026-01-26 18:28:44.03	304.64	10.15	-40.4	-41.6	21.4	0.00e+00	48	30	0	982515712	54	6112
2026-01-26 18:28:48.06	304.07	9.94	-40.4	-41.6	21.5	0.00e+00	30	30	0	989855744	54	6115
2026-01-26 18:28:52.09	303.51	9.72	-40.3	-41.4	21.5	0.00e+00	92	30	0	998244352	54	5991
2026-01-26 18:28:56.13	302.96	9.50	-40.0	-41.1	22.1	0.00e+00	42	30	0	1005584384	54	5804
2026-01-26 18:29:00.16	302.41	9.28	-40.2	-41.3	21.8	0.00e+00	0	30	0	1012924416	54	5943
2026-01-26 18:29:04.20	301.88	9.06	-39.6	-40.7	22.4	0.00e+00	50	30	0	1020264448	52	6185
2026-01-26 18:29:08.24	301.35	8.84	-39.2	-40.2	22.5	0.00e+00	92	30	0	1028653056	52	5834
2026-01-26 18:29:12.27	300.83	8.62	-38.9	-39.9	22.7	0.00e+00	0	30	0	1035993088	52	5651
2026-01-26 18:29:16.31	300.32	8.40	-39.0	-40.0	22.0	0.00e+00	0	30	0	1043333120	52	5755
2026-01-26 18:29:20.35	299.82	8.18	-39.0	-40.0	22.6	0.00e+00	0	30	0	1050673152	52	5756
2026-01-26 18:29:24.39	299.32	7.96	-39.3	-40.3	22.4	0.00e+00	92	30	0	1058013184	52	5951
2026-01-26 18:29:28.42	298.83	7.74	-39.6	-40.6	22.5	0.00e+00	42	30	0	1066401792	52	6136
2026-01-26 18:29:32.46	298.35	7.52	-39.5	-40.5	22.3	0.00e+00	40	30	0	1073741824	52	6098
2026-01-26 18:29:36.50	297.88	7.30	-40.0	-41.1	21.9	0.00e+00	6	30	0	1081081856	52	6480
2026-01-26 18:29:40.53	297.41	7.08	-40.2	-41.4	21.8	0.00e+00	92	30	0	1088421888	52	6700
2026-01-26 18:29:44.58	296.95	6.86	-40.1	-41.2	21.4	0.00e+00	47	30	0	1095761920	52	6609
2026-01-26 18:29:48.61	296.50	6.64	-40.0	-41.2	21.8	0.00e+00	47	30	0	1104150528	52	6542
2026-01-26 18:29:52.65	296.06	6.42	-40.3	-41.3	21.9	0.00e+00	38	30	0	1111490560	52	6679
2026-01-26 18:29:56.68	295.62	6.20	-39.9	-41.0	21.9	0.00e+00	92	30	0	1118830592	52	6397
2026-01-26 18:30:00.72	295.19	5.98	-40.1	-41.2	21.4	0.00e+00	0	30	0	1126170624	52	6612
2026-01-26 18:30:04.76	294.76	5.76	-40.6	-41.8	21.1	0.00e+00	46	30	0	1134559232	54	6269
2026-01-26 18:30:08.80	294.35	5.54	-40.7	-41.9	21.1	0.00e+00	43	30	0	1141899264	54	6350
2026-01-26 18:30:12.83	293.93	5.32	-40.7	-41.9	20.9	0.00e+00	92	30	0	1149239296	54	6369
2026-01-26 18:30:16.87	293.53	5.10	-40.9	-42.2	20.4	0.00e+00	35	30	0	1156579328	54	6603
2026-01-26 18:30:20.91	293.13	4.88	-41.2	-42.5	20.3	0.00e+00	0	30	0	1163919360	54	6840
2026-01-26 18:30:24.95	292.74	4.67	-41.3	-42.7	19.8	0.00e+00	0	30	0	1172307968	54	6955
2026-01-26 18:30:28.98	292.35	4.45	-41.3	-42.8	19.5	0.00e+00	92	30	0	1179648000	54	7016
2026-01-26 18:30:33.02	291.97	4.23	-41.5	-43.0	19.2	0.00e+00	40	30	0	1186988032	54	7199
2026-01-26 18:30:37.06	291.59	4.02	-41.6	-43.1	19.0	0.00e+00	37	30	0	1194328064	54	7332
2026-01-26 18:30:41.09	291.22	3.80	-41.6	-43.1	18.9	0.00e+00	92	30	0	1202716672	56	6536
2026-01-26 18:30:45.13	290.86	3.59	-41.6	-43.1	19.0	0.00e+00	90	30	0	1210056704	56	6515
2026-01-26 18:30:49.17	290.50	3.38	-41.8	-43.4	18.7	0.00e+00	0	30	0	1217396736	56	6750
2026-01-26 18:30:53.20	290.15	3.16	-41.9	-43.6	18.4	0.00e+00	36	30	0	1224736768	56	6919
2026-01-26 18:30:57.24	289.80	2.95	-48.5	-63.6	3.6	1.51e+00	0	30	104	1231028224	60	54897
2026-01-26 18:31:01.28	289.45	2.74	-49.1	-64.2	3.6	1.51e+00	0	30	104	1231028224	60	58755
2026-01-26 18:31:05.32	289.12	2.53	-49.2	-64.4	3.6	1.51e+00	0	30	104	1231028224	60	59787
2026-01-26 18:31:09.36	288.78	2.32	-49.2	-64.4	3.6	1.51e+00	0	30	104	1231028224	60	60161
2026-01-26 18:31:13.40	288.45	2.11	-49.1	-64.3	3.6	1.51e+00	0	30	104	1231028224	60	59474
2026-01-26 18:31:17.43	288.13	1.90	-49.2	-64.4	3.6	1.51e+00	0	30	104	1231028224	60	59825
2026-01-26 18:31:21.47	287.81	1.69	-49.1	-64.3	3.6	1.51e+00	0	30	104	1231028224	60	59631
2026-01-26 18:31:25.51	287.50	1.48	-49.3	-64.5	3.6	1.51e+00	0	30	104	1231028224	60	60490
2026-01-26 18:31:29.56	287.19	1.27	-49.3	-64.6	3.6	1.51e+00	0	30	104	1231028224	60	61093
2026-01-26 18:31:33.59	286.88	1.07	-49.6	-64.9	3.6	1.51e+00	0	30	104	1231028224	60	63249
2026-01-26 18:31:37.63	286.58	0.86	-49.9	-65.1	3.6	1.51e+00	0	30	104	1231028224	60	65130
2026-01-26 18:31:41.67	286.29	0.65	-49.8	-64.9	3.6	1.51e+00	0	30	104	1231028224	60	63729
2026-01-26 18:31:45.71	285.99	0.45	-50.0	-65.2	3.6	1.51e+00	0	30	104	1231028224	60	65648
2026-01-26 18:31:49.75	285.70	0.25	-49.5	-64.8	3.6	1.51e+00	0	30	104	1231028224	60	62573
2026-01-26 18:31:53.79	285.42	0.04	-49.8	-65.1	3.6	1.51e+00	0	30	104	1231028224	60	64745

#Closed at: 2026-01-26 18:31:55
#Recorded file [1231 MB]: D:/lorett/data/35029_260127_061902.dat