passes_logs/2026/01/26/R4.6S_Anadyr/R4.6S_Anadyr__20260126_161850_SUOMI_NPP_rec.log

#Pass ID: 20260126_161850_SUOMI NPP
#Satellite: SUOMI NPP
#Configuration: NPP
#almurnet v.1.7.20251203
#Start time: 2026-01-26 16:18:52

#Version: 2.2.20231116
#Station: R4.6S_Anadyr
#Location: 177.4865 lon 64.73178 lat
#TLE: 1 37849U 11061A   26025.95877665  .00000192  00000+0  11229-3 0  9997
#TLE: 2 37849  98.7822 327.9136 0002155  44.9234 315.2116 14.19530109738267

#Time	Az	El	Level	Level2	SNR	BER	BlckErr	Temp	State	Recorded	gain1	gain2
2026-01-26 16:18:52.02	25.19	0.11	-50.1	-67.8	3.5	3.02e+01	0	26	0	0	60	94696
2026-01-26 16:18:56.06	25.05	0.34	-49.7	-64.8	3.6	1.51e+00	0	27	104	0	60	62886
2026-01-26 16:19:00.10	24.90	0.58	-49.7	-64.9	3.6	1.51e+00	0	27	104	0	60	63567
2026-01-26 16:19:04.14	24.76	0.81	-49.6	-64.8	3.6	1.51e+00	0	27	104	0	60	62663
2026-01-26 16:19:08.17	24.61	1.05	-49.4	-64.6	3.6	1.51e+00	0	27	104	0	60	61544
2026-01-26 16:19:12.21	24.45	1.29	-49.0	-64.2	3.6	1.51e+00	0	27	104	0	60	58838
2026-01-26 16:19:16.25	24.30	1.53	-48.3	-63.5	3.6	1.51e+00	0	27	104	0	60	54128
2026-01-26 16:19:20.29	24.14	1.78	-48.3	-63.5	3.6	1.51e+00	0	28	104	0	60	53948
2026-01-26 16:19:24.33	23.98	2.02	-48.3	-63.3	3.6	1.51e+00	0	28	104	0	60	53062
2026-01-26 16:19:28.36	23.81	2.27	-48.3	-63.4	3.6	1.51e+00	0	28	104	0	60	53591
2026-01-26 16:19:32.40	23.65	2.52	-48.3	-63.4	3.6	1.51e+00	0	28	104	0	60	53186
2026-01-26 16:19:36.44	23.48	2.77	-48.3	-62.9	3.6	1.51e+00	0	28	104	0	60	50449
2026-01-26 16:19:40.49	23.30	3.02	-48.3	-62.9	3.5	1.51e+00	0	28	104	0	60	50607
2026-01-26 16:19:44.53	23.12	3.28	-47.7	-55.8	6.4	4.69e-01	0	28	0	0	60	22217
2026-01-26 16:19:48.57	22.94	3.54	-45.1	-48.2	14.1	5.72e-05	0	28	0	6291456	60	9323
2026-01-26 16:19:52.61	22.76	3.79	-45.5	-48.8	12.4	1.13e+00	0	28	0	13631488	60	9947
2026-01-26 16:19:56.65	22.57	4.06	-42.4	-44.2	18.1	0.00e+00	90	28	0	17825792	58	6551
2026-01-26 16:20:00.69	22.38	4.32	-42.2	-43.9	18.5	0.00e+00	0	28	0	25165824	58	6342
2026-01-26 16:20:04.73	22.19	4.59	-41.8	-43.4	19.1	0.00e+00	0	28	0	32505856	56	6701
2026-01-26 16:20:08.76	21.99	4.86	-41.6	-43.0	19.4	0.00e+00	25	28	0	39845888	56	6455
2026-01-26 16:20:12.80	21.78	5.13	-42.1	-43.7	18.7	0.00e+00	18	28	0	48234496	56	6935
2026-01-26 16:20:16.84	21.58	5.40	-41.7	-43.2	19.4	0.00e+00	0	28	0	55574528	56	6606
2026-01-26 16:20:20.88	21.37	5.68	-41.5	-42.9	19.8	0.00e+00	0	28	0	62914560	56	6318
2026-01-26 16:20:24.92	21.15	5.95	-41.2	-42.6	20.0	0.00e+00	87	28	0	70254592	56	6105
2026-01-26 16:20:28.95	20.93	6.23	-40.8	-42.1	20.4	0.00e+00	0	28	0	77594624	56	5764
2026-01-26 16:20:32.99	20.71	6.52	-41.2	-42.6	20.0	0.00e+00	0	28	0	85983232	56	6148
2026-01-26 16:20:37.03	20.48	6.80	-41.2	-42.5	20.0	0.00e+00	0	28	0	93323264	56	6100
2026-01-26 16:20:41.07	20.24	7.09	-41.3	-42.6	20.0	0.00e+00	46	28	0	100663296	56	6146
2026-01-26 16:20:45.11	20.00	7.38	-41.6	-43.0	19.7	0.00e+00	0	28	0	108003328	56	6459
2026-01-26 16:20:49.14	19.76	7.68	-40.8	-42.1	20.4	0.00e+00	8	28	0	116391936	56	5815
2026-01-26 16:20:53.18	19.51	7.98	-40.9	-42.2	20.5	0.00e+00	0	28	0	123731968	54	6605
2026-01-26 16:20:57.22	19.25	8.28	-40.8	-42.0	20.6	0.00e+00	84	28	0	131072000	54	6458
2026-01-26 16:21:01.26	18.99	8.58	-40.9	-42.2	20.6	0.00e+00	0	28	0	138412032	54	6544
2026-01-26 16:21:05.30	18.73	8.89	-40.4	-41.6	21.1	0.00e+00	0	28	0	145752064	54	6155
2026-01-26 16:21:09.33	18.45	9.20	-40.5	-41.7	21.0	0.00e+00	22	28	0	154140672	54	6212
2026-01-26 16:21:13.36	18.17	9.51	-39.9	-41.0	21.6	0.00e+00	0	28	0	161480704	54	5729
2026-01-26 16:21:17.40	17.89	9.82	-39.8	-40.9	21.7	0.00e+00	0	28	0	168820736	54	5655
2026-01-26 16:21:21.44	17.60	10.14	-39.9	-41.1	21.6	0.00e+00	0	28	0	176160768	52	6478
2026-01-26 16:21:25.48	17.30	10.47	-40.0	-41.2	21.5	0.00e+00	12	28	0	183500800	52	6553
2026-01-26 16:21:29.51	16.99	10.79	-40.3	-41.4	21.4	0.00e+00	0	28	0	191889408	52	6747
2026-01-26 16:21:33.55	16.68	11.12	-40.1	-41.2	21.4	0.00e+00	0	28	0	199229440	52	6607
2026-01-26 16:21:37.59	16.36	11.46	-40.2	-41.4	21.4	0.00e+00	26	28	0	206569472	52	6729
2026-01-26 16:21:41.63	16.03	11.79	-40.0	-41.2	21.6	0.00e+00	92	28	0	213909504	52	6558
2026-01-26 16:21:45.66	15.69	12.13	-40.3	-41.5	21.3	0.00e+00	0	28	0	222298112	52	6780
2026-01-26 16:21:49.70	15.35	12.48	-40.0	-41.1	21.7	0.00e+00	0	28	0	229638144	52	6476
2026-01-26 16:21:53.73	15.00	12.83	-39.7	-40.7	22.1	0.00e+00	26	28	0	236978176	52	6226
2026-01-26 16:21:57.77	14.63	13.18	-39.4	-40.5	22.2	0.00e+00	0	28	0	244318208	52	6051
2026-01-26 16:22:01.81	14.26	13.53	-39.3	-40.4	22.4	0.00e+00	0	28	0	251658240	52	5973
2026-01-26 16:22:05.85	13.88	13.89	-39.6	-40.6	22.2	0.00e+00	0	28	0	260046848	52	6168
2026-01-26 16:22:09.88	13.49	14.26	-38.8	-39.8	22.8	0.00e+00	92	28	0	267386880	50	6266
2026-01-26 16:22:13.91	13.09	14.63	-39.0	-40.0	22.7	0.00e+00	0	28	0	274726912	50	6404
2026-01-26 16:22:17.95	12.68	15.00	-39.1	-40.1	22.6	0.00e+00	0	28	0	282066944	50	6522
2026-01-26 16:22:21.99	12.26	15.37	-39.7	-40.7	22.1	0.00e+00	0	28	0	290455552	50	6999
2026-01-26 16:22:26.02	11.82	15.76	-39.5	-40.5	22.3	0.00e+00	90	28	0	297795584	52	6101
2026-01-26 16:22:30.06	11.38	16.14	-39.8	-40.9	21.9	0.00e+00	0	28	0	305135616	52	6380
2026-01-26 16:22:34.09	10.92	16.53	-39.4	-40.5	22.5	0.00e+00	0	28	0	312475648	52	6043
2026-01-26 16:22:38.13	10.45	16.92	-39.4	-40.4	22.4	0.00e+00	28	28	0	319815680	52	5982
2026-01-26 16:22:42.17	9.97	17.32	-38.9	-39.8	22.9	0.00e+00	92	28	0	328204288	52	5610
2026-01-26 16:22:46.21	9.48	17.72	-39.0	-40.0	22.8	0.00e+00	0	28	0	335544320	52	5707
2026-01-26 16:22:50.24	8.97	18.13	-38.6	-39.5	23.2	0.00e+00	0	28	0	342884352	50	6040
2026-01-26 16:22:54.28	8.44	18.54	-38.9	-39.9	22.8	0.00e+00	59	28	0	350224384	50	6348
2026-01-26 16:22:58.32	7.91	18.96	-39.4	-40.4	22.3	0.00e+00	0	28	0	357564416	50	6723
2026-01-26 16:23:02.36	7.35	19.38	-38.6	-39.5	23.1	0.00e+00	0	28	0	365953024	50	6102
2026-01-26 16:23:06.40	6.78	19.80	-39.5	-40.5	22.4	0.00e+00	0	28	0	373293056	50	6823
2026-01-26 16:23:10.44	6.20	20.23	-39.8	-40.9	22.1	0.00e+00	45	28	0	380633088	52	6345
2026-01-26 16:23:14.48	5.59	20.66	-39.8	-40.9	21.8	0.00e+00	0	28	0	387973120	52	6337
2026-01-26 16:23:18.52	4.97	21.10	-39.8	-40.9	22.1	0.00e+00	0	28	0	396361728	52	6352
2026-01-26 16:23:22.56	4.33	21.54	-40.3	-41.5	21.7	0.00e+00	0	29	0	403701760	52	6786
2026-01-26 16:23:26.60	3.67	21.98	-39.8	-40.8	22.2	0.00e+00	81	28	0	411041792	52	6305
2026-01-26 16:23:30.63	3.00	22.43	-39.5	-40.5	22.6	0.00e+00	0	28	0	418381824	52	6035
2026-01-26 16:23:34.67	2.30	22.88	-39.2	-40.2	22.9	0.00e+00	0	28	0	425721856	52	5841
2026-01-26 16:23:38.71	1.58	23.33	-38.5	-39.5	23.2	0.00e+00	24	28	0	434110464	50	6035
2026-01-26 16:23:42.74	0.84	23.79	-38.9	-39.8	23.0	0.00e+00	4	29	0	441450496	50	6305
2026-01-26 16:23:46.78	0.08	24.25	-38.6	-39.5	23.2	0.00e+00	0	29	0	448790528	50	6049
2026-01-26 16:23:50.82	359.29	24.71	-40.0	-41.1	21.5	0.00e+00	0	28	0	456130560	52	6491
2026-01-26 16:23:54.86	358.48	25.18	-40.5	-41.7	21.3	0.00e+00	31	28	0	464519168	52	6934
2026-01-26 16:23:58.90	357.65	25.64	-40.7	-41.9	21.2	0.00e+00	0	29	0	471859200	52	7147
2026-01-26 16:24:02.93	356.79	26.11	-41.1	-42.4	20.9	0.00e+00	0	28	0	479199232	54	6714
2026-01-26 16:24:06.97	355.91	26.58	-40.8	-42.0	21.1	0.00e+00	0	28	0	486539264	54	6415
2026-01-26 16:24:11.00	355.00	27.04	-40.2	-41.3	21.6	0.00e+00	92	28	0	493879296	54	5934
2026-01-26 16:24:15.04	354.06	27.51	-39.5	-40.5	22.4	0.00e+00	0	28	0	502267904	52	6055
2026-01-26 16:24:19.08	353.09	27.98	-40.3	-41.5	21.6	0.00e+00	0	29	0	509607936	52	6794
2026-01-26 16:24:23.12	352.09	28.44	-39.9	-40.9	22.1	0.00e+00	29	28	0	516947968	52	6368
2026-01-26 16:24:27.15	351.07	28.91	-40.6	-41.7	21.4	0.00e+00	92	29	0	524288000	54	6231
2026-01-26 16:24:31.19	350.01	29.37	-40.5	-41.7	21.4	0.00e+00	0	28	0	532676608	54	6208
2026-01-26 16:24:35.22	348.92	29.82	-41.2	-42.5	20.8	0.00e+00	0	29	0	540016640	54	6813
2026-01-26 16:24:39.26	347.80	30.27	-40.2	-41.4	21.8	0.00e+00	35	29	0	547356672	54	5968
2026-01-26 16:24:43.30	346.65	30.72	-41.1	-42.4	20.8	0.00e+00	0	29	0	554696704	54	6708
2026-01-26 16:24:47.33	345.47	31.16	-41.9	-43.2	20.2	0.00e+00	0	29	0	562036736	56	6603
2026-01-26 16:24:51.38	344.25	31.59	-43.2	-45.0	18.4	0.00e+00	0	29	0	570425344	58	7185
2026-01-26 16:24:55.41	343.01	32.01	-41.2	-42.5	20.9	0.00e+00	92	29	0	577765376	56	6055
2026-01-26 16:24:59.45	341.72	32.42	-43.8	-45.8	17.6	0.00e+00	0	28	0	585105408	60	7085
2026-01-26 16:25:03.49	340.41	32.83	-43.5	-45.3	18.3	0.00e+00	0	29	0	592445440	60	6692
2026-01-26 16:25:07.52	339.07	33.21	-42.0	-43.4	20.1	0.00e+00	0	29	0	599785472	58	6026
2026-01-26 16:25:11.56	337.69	33.59	-42.8	-44.5	19.2	0.00e+00	65	29	0	608174080	56	7630
2026-01-26 16:25:15.60	336.27	33.95	-42.4	-44.1	19.5	0.00e+00	4	29	0	615514112	58	6465
2026-01-26 16:25:19.64	334.83	34.29	-42.7	-44.5	18.9	0.00e+00	0	28	0	622854144	58	6797
2026-01-26 16:25:23.67	333.36	34.62	-40.5	-41.7	21.5	0.00e+00	30	29	0	630194176	54	6215
2026-01-26 16:25:27.71	331.86	34.93	-41.6	-43.0	20.2	0.00e+00	0	29	0	638582784	54	7192
2026-01-26 16:25:31.74	330.33	35.22	-40.2	-41.4	21.7	0.00e+00	0	28	0	645922816	54	5965
2026-01-26 16:25:35.78	328.77	35.48	-40.9	-42.3	21.1	0.00e+00	0	29	0	653262848	54	6648
2026-01-26 16:25:39.81	327.20	35.73	-37.6	-38.4	24.1	0.00e+00	29	29	0	660602880	50	5358
2026-01-26 16:25:43.85	325.59	35.95	-38.0	-38.9	23.7	0.00e+00	0	29	0	667942912	48	6330
2026-01-26 16:25:47.88	323.97	36.14	-37.8	-38.6	23.9	0.00e+00	0	29	0	676331520	48	6147
2026-01-26 16:25:51.92	322.33	36.31	-37.2	-38.1	24.3	0.00e+00	0	28	0	683671552	48	5787
2026-01-26 16:25:55.96	320.67	36.46	-39.2	-40.2	22.6	0.00e+00	92	28	0	691011584	50	6556
2026-01-26 16:25:59.99	319.00	36.57	-37.8	-38.7	23.5	0.00e+00	0	29	0	698351616	50	5516
2026-01-26 16:26:04.03	317.31	36.66	-37.5	-38.3	24.1	0.00e+00	0	29	0	706740224	48	5922
2026-01-26 16:26:08.06	315.62	36.72	-38.3	-39.2	23.5	0.00e+00	0	29	0	714080256	48	6570
2026-01-26 16:26:12.10	313.93	36.76	-39.6	-40.7	22.3	0.00e+00	92	29	0	721420288	50	6966
2026-01-26 16:26:16.14	312.23	36.76	-39.6	-40.6	22.5	0.00e+00	0	29	0	728760320	52	6167
2026-01-26 16:26:20.18	310.53	36.74	-39.5	-40.5	22.6	0.00e+00	30	29	0	736100352	52	6065
2026-01-26 16:26:24.23	308.83	36.68	-39.1	-40.1	22.9	0.00e+00	59	29	0	744488960	52	5767
2026-01-26 16:26:28.26	307.15	36.60	-40.3	-41.5	21.8	0.00e+00	0	29	0	751828992	52	6773
2026-01-26 16:26:32.29	305.47	36.49	-40.9	-42.1	21.1	0.00e+00	0	29	0	759169024	54	6535
2026-01-26 16:26:36.33	303.81	36.36	-40.7	-41.8	21.5	0.00e+00	0	29	0	766509056	54	6296
2026-01-26 16:26:40.36	302.16	36.19	-39.9	-41.0	22.1	0.00e+00	90	29	0	774897664	52	6412
2026-01-26 16:26:44.40	300.53	36.00	-40.6	-41.7	21.5	0.00e+00	0	29	0	782237696	54	6239
2026-01-26 16:26:48.44	298.92	35.79	-40.6	-41.8	21.5	0.00e+00	0	29	0	789577728	54	6257
2026-01-26 16:26:52.47	297.33	35.55	-40.1	-41.2	21.9	0.00e+00	0	29	0	796917760	52	6612
2026-01-26 16:26:56.51	295.76	35.29	-41.0	-42.3	21.1	0.00e+00	46	29	0	804257792	54	6647
2026-01-26 16:27:00.55	294.22	35.01	-39.5	-40.5	22.5	0.00e+00	0	29	0	812646400	52	6057
2026-01-26 16:27:04.58	292.72	34.70	-40.4	-41.6	21.6	0.00e+00	0	29	0	819986432	54	6129
2026-01-26 16:27:08.62	291.23	34.38	-38.9	-39.9	23.0	0.00e+00	34	29	0	827326464	52	5633
2026-01-26 16:27:12.65	289.78	34.04	-40.8	-42.0	21.2	0.00e+00	54	29	0	834666496	52	7212
2026-01-26 16:27:16.68	288.36	33.69	-40.7	-41.9	21.4	0.00e+00	0	28	0	842006528	56	5679
2026-01-26 16:27:20.72	286.97	33.31	-40.9	-42.2	21.0	0.00e+00	0	29	0	850395136	54	6580
2026-01-26 16:27:24.76	285.61	32.93	-41.6	-42.9	20.4	0.00e+00	67	29	0	857735168	56	6349
2026-01-26 16:27:28.80	284.29	32.53	-39.9	-41.0	22.1	0.00e+00	0	29	0	865075200	54	5699
2026-01-26 16:27:32.83	283.00	32.12	-40.1	-41.2	21.8	0.00e+00	0	29	0	872415232	52	6584
2026-01-26 16:27:36.87	281.74	31.70	-40.4	-41.5	21.7	0.00e+00	0	29	0	880803840	54	6038
2026-01-26 16:27:40.90	280.51	31.27	-39.6	-40.6	22.6	0.00e+00	92	29	0	888143872	52	6108
2026-01-26 16:27:44.94	279.31	30.83	-41.0	-42.2	21.2	0.00e+00	0	28	0	895483904	54	6588
2026-01-26 16:27:48.98	278.15	30.38	-40.7	-41.9	21.4	0.00e+00	0	29	0	902823936	54	6354
2026-01-26 16:27:53.01	277.02	29.93	-42.0	-43.4	19.9	0.00e+00	12	29	0	910163968	56	6744
2026-01-26 16:27:57.05	275.92	29.48	-41.1	-42.2	21.1	0.00e+00	90	29	0	918552576	56	5884
2026-01-26 16:28:01.08	274.86	29.02	-40.9	-42.1	21.2	0.00e+00	0	29	0	925892608	54	6502
2026-01-26 16:28:05.12	273.82	28.55	-40.4	-41.5	21.7	0.00e+00	0	29	0	933232640	54	6067
2026-01-26 16:28:09.15	272.81	28.09	-38.4	-39.3	23.4	0.00e+00	30	29	0	940572672	50	5899
2026-01-26 16:28:13.19	271.84	27.62	-38.9	-39.8	22.9	0.00e+00	43	29	0	948961280	50	6275
2026-01-26 16:28:17.23	270.89	27.15	-38.5	-39.4	23.4	0.00e+00	1	29	0	956301312	50	5994
2026-01-26 16:28:21.27	269.96	26.68	-38.3	-39.2	23.4	0.00e+00	0	29	0	963641344	50	5890
2026-01-26 16:28:25.31	269.07	26.21	-39.2	-40.2	22.6	0.00e+00	29	29	0	970981376	50	6612
2026-01-26 16:28:29.34	268.20	25.75	-38.1	-39.0	23.8	0.00e+00	0	29	0	978321408	50	5704
2026-01-26 16:28:33.38	267.36	25.28	-37.8	-38.7	23.8	0.00e+00	0	29	0	986710016	48	6195
2026-01-26 16:28:37.42	266.54	24.81	-37.9	-38.8	23.8	0.00e+00	0	29	0	994050048	48	6252
2026-01-26 16:28:41.46	265.74	24.35	-37.6	-38.4	24.1	0.00e+00	92	29	0	1001390080	48	5989
2026-01-26 16:28:45.50	264.97	23.89	-37.9	-38.8	23.7	0.00e+00	0	29	0	1008730112	48	6268
2026-01-26 16:28:49.53	264.22	23.43	-38.1	-39.0	23.6	0.00e+00	0	29	0	1016070144	48	6398
2026-01-26 16:28:53.57	263.50	22.97	-38.9	-39.9	23.0	0.00e+00	0	29	0	1024458752	50	6358
2026-01-26 16:28:57.61	262.79	22.52	-39.5	-40.6	22.5	0.00e+00	92	29	0	1031798784	50	6880
2026-01-26 16:29:01.65	262.10	22.07	-39.2	-40.1	22.7	0.00e+00	0	29	0	1039138816	50	6528
2026-01-26 16:29:05.69	261.44	21.62	-40.0	-41.1	22.0	0.00e+00	0	29	0	1046478848	52	6522
2026-01-26 16:29:09.73	260.79	21.18	-40.2	-41.3	21.8	0.00e+00	37	29	0	1054867456	52	6669
2026-01-26 16:29:13.77	260.16	20.74	-40.4	-41.5	21.6	0.00e+00	0	29	0	1062207488	52	6843
2026-01-26 16:29:17.81	259.55	20.31	-38.9	-39.9	23.0	0.00e+00	0	29	0	1069547520	52	5655
2026-01-26 16:29:21.84	258.96	19.88	-38.6	-39.6	23.1	0.00e+00	0	29	0	1076887552	50	6106
2026-01-26 16:29:25.88	258.38	19.45	-38.8	-39.7	23.0	0.00e+00	25	29	0	1084227584	50	6182
2026-01-26 16:29:29.91	257.83	19.03	-38.1	-38.9	23.7	0.00e+00	0	29	0	1092616192	50	5666
2026-01-26 16:29:33.95	257.28	18.61	-38.5	-39.4	23.3	0.00e+00	0	29	0	1099956224	48	6715
2026-01-26 16:29:37.99	256.75	18.20	-39.2	-40.2	22.6	0.00e+00	0	29	0	1107296256	50	6548
2026-01-26 16:29:42.03	256.23	17.79	-41.5	-42.8	20.3	0.00e+00	47	29	0	1114636288	54	7025
2026-01-26 16:29:46.07	255.73	17.38	-41.4	-42.7	20.6	0.00e+00	0	29	0	1123024896	56	6175
2026-01-26 16:29:50.11	255.24	16.98	-39.4	-40.4	22.5	0.00e+00	0	29	0	1130364928	52	5983
2026-01-26 16:29:54.14	254.77	16.59	-39.1	-40.1	22.5	0.00e+00	23	29	0	1137704960	52	5825
2026-01-26 16:29:58.18	254.31	16.20	-40.7	-41.9	21.1	0.00e+00	63	29	0	1145044992	52	7123
2026-01-26 16:30:02.22	253.86	15.81	-40.1	-41.2	21.8	0.00e+00	0	29	0	1152385024	54	5867
2026-01-26 16:30:06.25	253.42	15.43	-39.6	-40.6	22.3	0.00e+00	0	29	0	1160773632	52	6152
2026-01-26 16:30:10.29	252.99	15.05	-39.7	-40.7	22.0	0.00e+00	92	29	0	1168113664	52	6222
2026-01-26 16:30:14.33	252.57	14.67	-40.2	-41.3	21.6	0.00e+00	0	29	0	1175453696	52	6653
2026-01-26 16:30:18.36	252.17	14.30	-40.5	-41.7	21.3	0.00e+00	0	29	0	1182793728	52	6931
2026-01-26 16:30:22.40	251.77	13.94	-40.6	-41.7	21.3	0.00e+00	0	29	0	1191182336	54	6234
2026-01-26 16:30:26.44	251.39	13.58	-40.0	-41.1	21.8	0.00e+00	91	29	0	1198522368	54	5766
2026-01-26 16:30:30.48	251.01	13.22	-39.4	-40.4	22.4	0.00e+00	0	29	0	1205862400	52	5988
2026-01-26 16:30:34.51	250.64	12.86	-39.8	-40.9	21.8	0.00e+00	0	29	0	1213202432	52	6337
2026-01-26 16:30:38.55	250.29	12.51	-41.2	-42.5	20.4	0.00e+00	17	29	0	1220542464	54	6827
2026-01-26 16:30:42.59	249.94	12.17	-42.2	-43.8	19.4	0.00e+00	92	29	0	1228931072	56	7022
2026-01-26 16:30:46.62	249.59	11.83	-42.1	-43.6	19.5	0.00e+00	0	29	0	1236271104	56	6922
2026-01-26 16:30:50.66	249.26	11.49	-41.2	-42.5	20.6	0.00e+00	0	29	0	1243611136	56	6040
2026-01-26 16:30:54.70	248.94	11.15	-40.5	-41.7	21.1	0.00e+00	62	29	0	1250951168	54	6223
2026-01-26 16:30:58.74	248.62	10.82	-40.2	-41.3	21.5	0.00e+00	0	29	0	1259339776	54	5919
2026-01-26 16:31:02.78	248.31	10.49	-40.1	-41.2	21.5	0.00e+00	0	29	0	1266679808	54	5883
2026-01-26 16:31:06.82	248.00	10.17	-40.1	-41.2	21.5	0.00e+00	0	29	0	1274019840	54	5858
2026-01-26 16:31:10.86	247.71	9.85	-40.1	-41.2	21.4	0.00e+00	38	29	0	1281359872	54	5878
2026-01-26 16:31:14.90	247.42	9.53	-40.7	-41.9	20.8	0.00e+00	0	29	0	1288699904	54	6324
2026-01-26 16:31:18.94	247.13	9.21	-41.2	-42.5	20.4	0.00e+00	0	29	0	1297088512	54	6781
2026-01-26 16:31:22.98	246.86	8.90	-41.8	-43.2	19.7	0.00e+00	0	29	0	1304428544	56	6572
2026-01-26 16:31:27.02	246.58	8.59	-42.3	-43.8	19.0	0.00e+00	58	29	0	1311768576	56	7079
2026-01-26 16:31:31.06	246.32	8.29	-42.5	-44.0	18.8	0.00e+00	0	29	0	1319108608	56	7249
2026-01-26 16:31:35.10	246.06	7.99	-42.5	-44.1	18.7	0.00e+00	0	29	0	1327497216	56	7288
2026-01-26 16:31:39.14	245.81	7.69	-43.1	-44.9	17.9	0.00e+00	18	29	0	1334837248	58	7116
2026-01-26 16:31:43.18	245.56	7.39	-43.3	-45.2	17.3	0.00e+00	0	29	0	1342177280	58	7406
2026-01-26 16:31:47.22	245.31	7.10	-43.6	-45.7	16.9	0.00e+00	0	29	0	1349517312	58	7788
2026-01-26 16:31:51.26	245.07	6.81	-43.5	-45.5	17.0	0.00e+00	0	29	0	1356857344	58	7656
2026-01-26 16:31:55.29	244.84	6.52	-43.2	-45.1	17.3	0.00e+00	70	29	0	1365245952	58	7327
2026-01-26 16:31:59.33	244.61	6.24	-43.2	-45.2	17.3	0.00e+00	0	29	0	1372585984	58	7347
2026-01-26 16:32:03.37	244.39	5.96	-43.3	-45.4	17.0	0.00e+00	0	29	0	1379926016	58	7520
2026-01-26 16:32:07.40	244.17	5.68	-43.6	-45.7	16.7	0.00e+00	0	29	0	1387266048	58	7830
2026-01-26 16:32:11.43	243.95	5.40	-44.0	-46.4	15.9	0.00e+00	92	29	0	1394606080	60	7577
2026-01-26 16:32:15.47	243.74	5.13	-44.7	-47.5	14.7	0.00e+00	0	29	0	1402994688	60	8595
2026-01-26 16:32:19.51	243.54	4.85	-45.4	-48.9	13.2	2.21e-05	0	29	0	1410334720	60	10041
2026-01-26 16:32:23.54	243.33	4.59	-45.9	-50.0	12.0	1.43e-04	13	29	0	1417674752	60	11414
2026-01-26 16:32:27.58	243.13	4.32	-46.1	-50.8	10.9	1.53e-03	92	29	0	1425014784	60	12568
2026-01-26 16:32:31.61	242.94	4.05	-46.2	-51.0	10.5	5.95e-03	0	29	0	1433403392	60	12872
2026-01-26 16:32:35.65	242.75	3.79	-46.5	-52.3	9.0	1.44e-02	0	29	0	1440743424	60	14941
2026-01-26 16:32:39.68	242.56	3.53	-46.5	-52.5	8.6	4.29e-02	58	29	0	1448083456	60	15188
2026-01-26 16:32:43.72	242.38	3.27	-46.9	-54.2	6.5	1.49e-01	0	29	0	1455423488	60	18590
2026-01-26 16:32:47.76	242.20	3.02	-46.9	-54.6	5.9	2.82e-01	0	29	0	1462763520	60	19484
2026-01-26 16:32:51.80	242.02	2.76	-49.3	-64.5	3.6	1.51e+00	0	29	104	1464860672	60	60505
2026-01-26 16:32:55.84	241.84	2.51	-49.5	-64.7	3.6	1.51e+00	0	29	104	1464860672	60	62118
2026-01-26 16:32:59.88	241.67	2.26	-49.6	-64.8	3.6	1.51e+00	0	29	104	1464860672	60	62792
2026-01-26 16:33:03.92	241.50	2.01	-49.2	-64.8	3.6	1.51e+00	0	29	104	1464860672	60	62525
2026-01-26 16:33:07.96	241.34	1.76	-49.4	-64.7	3.6	1.51e+00	0	29	104	1464860672	60	62055
2026-01-26 16:33:12.00	241.18	1.52	-49.3	-64.6	3.6	1.51e+00	0	29	104	1464860672	60	61673
2026-01-26 16:33:16.04	241.02	1.28	-49.6	-64.9	3.6	1.51e+00	0	29	104	1464860672	60	63274
2026-01-26 16:33:20.08	240.86	1.04	-49.6	-64.7	3.6	1.51e+00	0	29	104	1464860672	60	62330
2026-01-26 16:33:24.12	240.70	0.80	-49.6	-64.8	3.6	1.51e+00	0	29	104	1464860672	60	62800
2026-01-26 16:33:28.16	240.55	0.56	-49.6	-64.8	3.6	1.51e+00	0	29	104	1464860672	60	62475
2026-01-26 16:33:32.20	240.40	0.32	-49.7	-64.9	3.6	1.51e+00	0	29	104	1464860672	60	63287
2026-01-26 16:33:36.23	240.26	0.09	-49.8	-65.0	3.6	1.51e+00	0	29	104	1464860672	60	63971

#Closed at: 2026-01-26 16:33:39
#Recorded file [1464 MB]: D:/lorett/data/35029_260127_041852.dat