passes_logs/2026/01/26/R4.6S_Anadyr/R4.6S_Anadyr__20260126_140843_NOAA_21_JPSS-2_rec.log

#Pass ID: 20260126_140843_NOAA 21 (JPSS-2)
#Satellite: NOAA 21 (JPSS-2)
#Configuration: NOAA-21
#almurnet v.1.7.20251203
#Start time: 2026-01-26 14:08:46

#Version: 2.2.20231116
#Station: R4.6S_Anadyr
#Location: 177.4865 lon 64.73178 lat
#TLE: 1 54234U 22150A   26025.93791214  .00000195  00000+0  11336-3 0  9990
#TLE: 2 54234  98.7509 326.7059 0000782 212.3040 147.8088 14.19539484166365

#Time	Az	El	Level	Level2	SNR	BER	BlckErr	Temp	State	Recorded	gain1	gain2
2026-01-26 14:08:46.61	19.55	0.21	-50.8	-62.1	3.2	1.54e+00	0	29	0	0	60	44695
2026-01-26 14:08:50.65	19.64	0.45	-49.6	-62.5	3.5	1.52e+00	0	29	104	0	60	46951
2026-01-26 14:08:54.69	19.73	0.69	-49.6	-62.5	3.5	1.52e+00	0	29	104	0	60	46659
2026-01-26 14:08:58.73	19.82	0.93	-49.4	-62.3	3.5	1.52e+00	0	29	104	0	60	45708
2026-01-26 14:09:02.77	19.91	1.18	-49.0	-61.9	3.5	1.52e+00	0	29	104	0	60	43714
2026-01-26 14:09:06.82	20.00	1.43	-48.5	-61.3	3.5	1.52e+00	0	30	104	0	60	40777
2026-01-26 14:09:10.86	20.09	1.68	-48.2	-60.9	3.5	1.52e+00	0	30	104	0	60	39121
2026-01-26 14:09:14.90	20.19	1.93	-48.2	-61.0	3.5	1.52e+00	0	30	104	0	60	39506
2026-01-26 14:09:18.94	20.28	2.18	-48.2	-60.8	3.5	1.52e+00	0	30	104	0	60	38537
2026-01-26 14:09:22.98	20.38	2.44	-48.0	-59.1	3.7	1.51e+00	0	30	104	0	60	31523
2026-01-26 14:09:27.02	20.48	2.70	-47.9	-58.0	3.6	1.51e+00	0	30	104	0	60	27741
2026-01-26 14:09:31.07	20.58	2.96	-44.2	-46.8	13.5	2.44e-05	122	30	0	6291456	60	7684
2026-01-26 14:09:35.10	20.68	3.22	-40.6	-42.0	17.8	0.00e+00	123	30	0	18874368	54	6274
2026-01-26 14:09:39.15	20.78	3.49	-40.6	-42.1	18.1	0.00e+00	120	30	0	31457280	52	7054
2026-01-26 14:09:43.18	20.89	3.76	-44.2	-46.7	14.0	5.11e-05	123	30	0	44040192	60	7619
2026-01-26 14:09:47.22	20.99	4.03	-42.6	-44.8	15.6	3.21e-01	121	30	104	49283072	58	6869
2026-01-26 14:09:51.26	21.10	4.30	-41.0	-42.5	17.3	0.00e+00	122	30	0	59768832	56	5889
2026-01-26 14:09:55.30	21.21	4.58	-40.9	-42.3	18.0	0.00e+00	122	30	0	72351744	54	6496
2026-01-26 14:09:59.34	21.32	4.86	-40.2	-41.6	18.8	0.00e+00	122	30	0	84934656	52	6661
2026-01-26 14:10:03.38	21.43	5.14	-40.2	-41.5	19.5	0.00e+00	122	30	0	98566144	52	6625
2026-01-26 14:10:07.42	21.55	5.42	-38.7	-39.9	20.5	0.00e+00	123	30	0	110100480	52	5493
2026-01-26 14:10:11.45	21.66	5.71	-38.2	-39.3	21.1	0.00e+00	123	30	0	123731968	50	5733
2026-01-26 14:10:15.49	21.78	6.00	-37.8	-38.9	21.4	0.00e+00	123	30	0	136314880	50	5512
2026-01-26 14:10:19.54	21.90	6.30	-37.9	-38.9	21.4	0.00e+00	123	30	0	148897792	48	6202
2026-01-26 14:10:23.58	22.03	6.59	-37.6	-38.6	21.7	0.00e+00	123	30	0	161480704	48	5993
2026-01-26 14:10:27.61	22.15	6.89	-37.6	-38.7	21.6	0.00e+00	123	30	0	174063616	48	6040
2026-01-26 14:10:31.65	22.28	7.20	-37.6	-38.7	21.7	0.00e+00	122	30	0	186646528	48	6014
2026-01-26 14:10:35.69	22.41	7.51	-37.2	-38.3	22.1	0.00e+00	123	30	0	199229440	48	5743
2026-01-26 14:10:39.73	22.54	7.82	-37.2	-38.2	22.1	0.00e+00	123	30	0	211812352	48	5720
2026-01-26 14:10:43.76	22.67	8.13	-37.1	-38.1	22.4	0.00e+00	123	30	0	224395264	48	5608
2026-01-26 14:10:47.79	22.81	8.45	-37.1	-38.1	22.3	0.00e+00	122	30	0	236978176	48	5651
2026-01-26 14:10:51.84	22.95	8.78	-37.2	-38.2	22.2	0.00e+00	123	30	0	249561088	48	5686
2026-01-26 14:10:55.88	23.09	9.10	-36.8	-37.8	22.7	0.00e+00	120	30	0	262144000	46	6088
2026-01-26 14:10:59.92	23.23	9.44	-36.8	-37.7	22.7	0.00e+00	123	30	0	274726912	46	6062
2026-01-26 14:11:03.95	23.38	9.77	-36.4	-37.4	23.0	0.00e+00	123	30	0	287309824	46	5835
2026-01-26 14:11:07.99	23.53	10.11	-36.6	-37.5	23.0	0.00e+00	122	30	0	299892736	46	5905
2026-01-26 14:11:12.03	23.69	10.46	-36.3	-37.3	23.1	0.00e+00	122	30	0	312475648	46	5762
2026-01-26 14:11:16.07	23.84	10.81	-36.6	-37.6	22.9	0.00e+00	122	30	0	325058560	46	5929
2026-01-26 14:11:20.11	24.00	11.16	-36.1	-37.0	23.3	0.00e+00	123	30	0	337641472	46	5585
2026-01-26 14:11:24.15	24.17	11.52	-36.0	-36.9	23.4	0.00e+00	122	30	0	350224384	46	5521
2026-01-26 14:11:28.18	24.34	11.89	-35.8	-36.8	23.6	0.00e+00	122	30	0	362807296	46	5417
2026-01-26 14:11:32.22	24.51	12.26	-36.0	-36.9	23.5	0.00e+00	122	30	0	375390208	46	5519
2026-01-26 14:11:36.26	24.68	12.63	-35.8	-36.7	23.7	0.00e+00	123	30	0	387973120	44	6052
2026-01-26 14:11:40.30	24.86	13.01	-35.6	-36.5	23.8	0.00e+00	122	30	0	400556032	44	5884
2026-01-26 14:11:44.34	25.05	13.40	-35.6	-36.6	23.7	0.00e+00	122	30	0	413138944	44	5938
2026-01-26 14:11:48.38	25.23	13.80	-35.6	-36.5	23.8	0.00e+00	119	30	0	425721856	44	5902
2026-01-26 14:11:52.42	25.43	14.20	-35.4	-36.3	23.9	0.00e+00	122	30	0	438304768	44	5771
2026-01-26 14:11:56.46	25.63	14.60	-35.5	-36.4	23.9	0.00e+00	122	30	0	450887680	44	5818
2026-01-26 14:12:00.49	25.83	15.01	-35.5	-36.4	23.9	0.00e+00	122	30	0	464519168	44	5846
2026-01-26 14:12:04.54	26.04	15.44	-35.3	-36.2	24.1	0.00e+00	123	30	0	477102080	44	5673
2026-01-26 14:12:08.58	26.25	15.86	-35.2	-36.1	24.2	0.00e+00	123	30	0	489684992	44	5605
2026-01-26 14:12:12.61	26.47	16.30	-35.3	-36.2	24.1	0.00e+00	120	30	0	502267904	44	5683
2026-01-26 14:12:16.65	26.69	16.74	-35.2	-36.1	24.2	0.00e+00	123	30	0	514850816	44	5648
2026-01-26 14:12:20.69	26.92	17.19	-35.1	-36.0	24.2	0.00e+00	123	30	0	527433728	44	5584
2026-01-26 14:12:24.73	27.16	17.64	-35.4	-36.2	24.1	0.00e+00	120	30	0	540016640	44	5719
2026-01-26 14:12:28.77	27.41	18.11	-35.5	-36.4	24.1	0.00e+00	123	30	0	552599552	44	5822
2026-01-26 14:12:32.81	27.66	18.58	-35.4	-36.3	24.1	0.00e+00	123	30	0	565182464	44	5766
2026-01-26 14:12:36.84	27.92	19.07	-35.6	-36.5	24.0	0.00e+00	122	30	0	577765376	44	5905
2026-01-26 14:12:40.88	28.18	19.56	-35.6	-36.5	23.9	0.00e+00	122	30	0	590348288	44	5921
2026-01-26 14:12:44.92	28.46	20.06	-35.7	-36.6	23.8	0.00e+00	123	30	0	602931200	44	5964
2026-01-26 14:12:48.96	28.74	20.57	-35.6	-36.5	23.9	0.00e+00	121	30	0	615514112	44	5904
2026-01-26 14:12:53.00	29.03	21.09	-34.9	-35.8	24.4	0.00e+00	122	30	0	628097024	44	5410
2026-01-26 14:12:57.04	29.34	21.62	-34.5	-35.4	24.7	0.00e+00	122	30	0	640679936	42	5829
2026-01-26 14:13:01.08	29.65	22.17	-34.2	-35.1	25.0	0.00e+00	121	30	0	653262848	42	5614
2026-01-26 14:13:05.11	29.97	22.72	-34.0	-34.9	25.1	0.00e+00	123	30	0	665845760	42	5486
2026-01-26 14:13:09.15	30.30	23.28	-33.9	-34.8	25.1	0.00e+00	123	30	0	678428672	42	5413
2026-01-26 14:13:13.20	30.65	23.86	-34.0	-34.8	25.2	0.00e+00	122	30	0	691011584	42	5454
2026-01-26 14:13:17.23	31.01	24.45	-34.0	-34.9	25.1	0.00e+00	122	30	0	703594496	42	5493
2026-01-26 14:13:21.27	31.38	25.05	-34.3	-35.1	24.9	0.00e+00	123	30	0	716177408	42	5658
2026-01-26 14:13:25.31	31.76	25.66	-34.4	-35.3	24.7	0.00e+00	123	30	0	728760320	42	5767
2026-01-26 14:13:29.35	32.16	26.29	-34.8	-35.7	24.4	0.00e+00	123	30	0	741343232	42	6012
2026-01-26 14:13:33.39	32.58	26.93	-35.1	-36.0	24.3	0.00e+00	123	30	0	753926144	42	6268
2026-01-26 14:13:37.43	33.01	27.58	-35.6	-36.5	23.8	0.00e+00	123	30	0	766509056	42	6631
2026-01-26 14:13:41.46	33.46	28.25	-35.7	-36.6	23.8	0.00e+00	122	30	0	779091968	44	5982
2026-01-26 14:13:45.50	33.93	28.93	-35.7	-36.6	23.6	0.00e+00	120	30	0	791674880	44	5974
2026-01-26 14:13:49.54	34.41	29.63	-35.4	-36.4	23.6	0.00e+00	122	30	0	805306368	44	5794
2026-01-26 14:13:53.58	34.92	30.34	-35.5	-36.4	23.7	0.00e+00	120	30	0	816840704	44	5833
2026-01-26 14:13:57.61	35.45	31.07	-35.3	-36.2	24.0	0.00e+00	122	30	0	830472192	44	5721
2026-01-26 14:14:01.65	36.01	31.81	-34.8	-35.7	24.4	0.00e+00	122	30	0	843055104	44	5387
2026-01-26 14:14:05.69	36.59	32.57	-35.1	-36.0	24.4	0.00e+00	123	30	0	855638016	44	5592
2026-01-26 14:14:09.73	37.19	33.35	-35.5	-36.4	24.1	0.00e+00	122	30	0	868220928	44	5810
2026-01-26 14:14:13.77	37.83	34.15	-35.7	-36.7	24.0	0.00e+00	121	30	0	880803840	44	6015
2026-01-26 14:14:17.80	38.50	34.96	-36.2	-37.1	23.6	0.00e+00	123	30	0	893386752	44	6350
2026-01-26 14:14:21.85	39.20	35.79	-36.3	-37.3	23.4	0.00e+00	122	30	0	905969664	44	6430
2026-01-26 14:14:25.89	39.94	36.63	-36.7	-37.6	23.3	0.00e+00	123	30	0	918552576	44	6692
2026-01-26 14:14:29.92	40.71	37.49	-36.6	-37.5	23.3	0.00e+00	123	30	0	931135488	44	6608
2026-01-26 14:14:33.96	41.53	38.37	-37.0	-37.9	23.1	0.00e+00	122	30	0	943718400	46	6187
2026-01-26 14:14:38.00	42.39	39.27	-37.3	-38.3	22.7	0.00e+00	123	29	0	956301312	46	6444
2026-01-26 14:14:42.04	43.30	40.18	-37.5	-38.5	22.6	0.00e+00	123	29	0	968884224	46	6606
2026-01-26 14:14:46.08	44.27	41.11	-37.7	-38.7	22.5	0.00e+00	123	29	0	981467136	48	6029
2026-01-26 14:14:50.12	45.28	42.06	-37.7	-38.7	22.4	0.00e+00	122	30	0	994050048	48	6026
2026-01-26 14:14:54.16	46.37	43.01	-37.9	-39.0	22.1	0.00e+00	122	29	0	1006632960	48	6214
2026-01-26 14:14:58.20	47.51	43.99	-38.1	-39.2	21.8	0.00e+00	123	29	0	1019215872	48	6380
2026-01-26 14:15:02.24	48.73	44.97	-37.8	-38.8	22.3	0.00e+00	120	29	0	1031798784	48	6104
2026-01-26 14:15:06.28	50.02	45.96	-37.7	-38.7	22.3	0.00e+00	122	29	0	1044381696	48	6035
2026-01-26 14:15:10.32	51.40	46.96	-37.0	-38.0	22.9	0.00e+00	123	29	0	1056964608	48	5551
2026-01-26 14:15:14.36	52.87	47.97	-38.0	-39.1	22.0	0.00e+00	123	29	0	1069547520	48	6285
2026-01-26 14:15:18.40	54.44	48.98	-36.9	-37.8	23.0	0.00e+00	122	29	0	1082130432	48	5465
2026-01-26 14:15:22.44	56.11	49.98	-36.6	-37.6	23.1	0.00e+00	122	29	0	1094713344	46	5961
2026-01-26 14:15:26.48	57.89	50.99	-37.0	-38.0	22.7	0.00e+00	123	29	0	1107296256	46	6240
2026-01-26 14:15:30.52	59.80	51.98	-36.7	-37.6	23.3	0.00e+00	122	29	0	1119879168	46	5966
2026-01-26 14:15:34.56	61.83	52.96	-36.9	-37.8	23.0	0.00e+00	123	29	0	1132462080	46	6129
2026-01-26 14:15:38.60	64.01	53.92	-35.3	-36.2	24.3	0.00e+00	123	29	0	1146093568	44	5679
2026-01-26 14:15:42.64	66.33	54.86	-36.1	-37.0	23.7	0.00e+00	123	29	0	1158676480	44	6241
2026-01-26 14:15:46.68	68.80	55.76	-35.4	-36.3	24.1	0.00e+00	122	29	0	1171259392	44	5791
2026-01-26 14:15:50.72	71.44	56.62	-35.2	-36.1	24.5	0.00e+00	122	29	0	1183842304	44	5597
2026-01-26 14:15:54.76	74.24	57.43	-35.1	-36.0	24.2	0.00e+00	124	29	0	1196425216	42	6219
2026-01-26 14:15:58.80	77.20	58.19	-35.0	-35.9	23.8	0.00e+00	122	29	0	1209008128	42	6164
2026-01-26 14:16:02.83	80.32	58.88	-34.9	-35.7	24.5	0.00e+00	123	29	0	1221591040	42	6049
2026-01-26 14:16:06.87	83.61	59.49	-35.0	-35.9	24.5	0.00e+00	123	29	0	1234173952	42	6136
2026-01-26 14:16:10.91	87.05	60.03	-34.8	-35.7	24.5	0.00e+00	122	29	0	1246756864	42	6038
2026-01-26 14:16:14.95	90.61	60.47	-34.3	-35.2	24.9	0.00e+00	123	29	0	1259339776	42	5698
2026-01-26 14:16:18.98	94.28	60.81	-34.6	-35.5	24.3	0.00e+00	122	29	0	1271922688	42	5891
2026-01-26 14:16:23.02	98.05	61.05	-34.7	-35.6	24.2	0.00e+00	122	29	0	1284505600	42	5958
2026-01-26 14:16:27.06	101.87	61.18	-35.1	-36.0	24.6	0.00e+00	120	29	0	1297088512	42	6218
2026-01-26 14:16:31.10	105.72	61.20	-34.8	-35.7	24.5	0.00e+00	123	29	0	1309671424	42	6004
2026-01-26 14:16:35.14	109.55	61.11	-34.3	-35.2	25.0	0.00e+00	123	29	0	1322254336	42	5677
2026-01-26 14:16:39.17	113.33	60.92	-34.4	-35.3	24.8	0.00e+00	123	29	0	1334837248	40	6481
2026-01-26 14:16:43.21	117.05	60.61	-34.5	-35.3	25.1	0.00e+00	122	29	0	1347420160	42	5759
2026-01-26 14:16:47.25	120.66	60.20	-34.7	-35.6	24.6	0.00e+00	122	29	0	1360003072	42	5953
2026-01-26 14:16:51.29	124.15	59.70	-34.5	-35.4	25.0	0.00e+00	120	29	0	1372585984	42	5806
2026-01-26 14:16:55.33	127.50	59.11	-34.1	-35.0	24.9	0.00e+00	122	29	0	1385168896	42	5539
2026-01-26 14:16:59.37	130.69	58.45	-34.3	-35.2	25.2	0.00e+00	122	29	0	1397751808	42	5664
2026-01-26 14:17:03.41	133.72	57.71	-35.6	-36.5	24.2	0.00e+00	123	29	0	1410334720	42	6624
2026-01-26 14:17:07.45	136.59	56.92	-35.1	-36.0	24.6	0.00e+00	122	29	0	1422917632	42	6222
2026-01-26 14:17:11.48	139.28	56.07	-35.4	-36.3	24.3	0.00e+00	122	29	0	1435500544	42	6445
2026-01-26 14:17:15.52	141.82	55.18	-35.6	-36.5	24.1	0.00e+00	123	29	0	1448083456	42	6645
2026-01-26 14:17:19.56	144.20	54.26	-36.1	-37.0	23.5	0.00e+00	122	29	0	1460666368	44	6265
2026-01-26 14:17:23.60	146.43	53.30	-35.6	-36.5	24.1	0.00e+00	123	29	0	1473249280	44	5881
2026-01-26 14:17:27.63	148.52	52.33	-35.9	-36.8	23.6	0.00e+00	121	29	0	1486880768	44	6131
2026-01-26 14:17:31.67	150.48	51.34	-36.3	-37.2	23.6	0.00e+00	123	29	0	1498415104	44	6409
2026-01-26 14:17:35.71	152.31	50.33	-37.8	-38.8	21.6	0.00e+00	123	29	0	1512046592	48	6128
2026-01-26 14:17:39.74	154.02	49.32	-36.7	-37.6	23.3	0.00e+00	120	29	0	1524629504	46	5976
2026-01-26 14:17:43.78	155.63	48.31	-38.3	-39.4	22.1	0.00e+00	120	29	0	1537212416	50	5810
2026-01-26 14:17:47.82	157.13	47.30	-37.2	-38.1	22.8	0.00e+00	123	29	0	1549795328	48	5650
2026-01-26 14:17:51.86	158.54	46.29	-39.0	-40.2	21.0	0.00e+00	123	29	0	1562378240	50	6351
2026-01-26 14:17:55.90	159.87	45.29	-38.6	-39.7	21.6	0.00e+00	123	29	0	1574961152	50	6033
2026-01-26 14:17:59.94	161.12	44.30	-37.6	-38.6	22.5	0.00e+00	122	29	0	1587544064	48	5988
2026-01-26 14:18:03.98	162.29	43.32	-37.9	-38.9	22.3	0.00e+00	123	29	0	1600126976	48	6203
2026-01-26 14:18:08.01	163.40	42.36	-36.6	-37.5	23.5	0.00e+00	123	29	0	1612709888	46	5863
2026-01-26 14:18:12.05	164.44	41.40	-37.4	-38.4	22.7	0.00e+00	123	29	0	1625292800	46	6543
2026-01-26 14:18:16.10	165.43	40.46	-36.9	-37.9	22.7	0.00e+00	123	29	0	1637875712	46	6146
2026-01-26 14:18:20.13	166.35	39.54	-37.4	-38.4	22.9	0.00e+00	120	29	0	1650458624	48	5798
2026-01-26 14:18:24.17	167.23	38.63	-37.2	-38.2	22.7	0.00e+00	123	29	0	1663041536	48	5667
2026-01-26 14:18:28.21	168.07	37.74	-37.9	-39.0	22.3	0.00e+00	120	29	0	1675624448	48	6241
2026-01-26 14:18:32.25	168.86	36.87	-36.3	-37.3	23.5	0.00e+00	120	29	0	1688207360	46	5732
2026-01-26 14:18:36.29	169.61	36.01	-36.3	-37.2	23.7	0.00e+00	120	29	0	1700790272	46	5687
2026-01-26 14:18:40.32	170.33	35.18	-36.8	-37.8	23.2	0.00e+00	122	29	0	1713373184	46	6079
2026-01-26 14:18:44.36	171.01	34.36	-37.0	-37.9	23.1	0.00e+00	123	29	0	1725956096	46	6205
2026-01-26 14:18:48.40	171.65	33.55	-35.9	-36.8	24.0	0.00e+00	123	29	0	1738539008	46	5430
2026-01-26 14:18:52.44	172.27	32.76	-35.2	-36.1	24.5	0.00e+00	123	29	0	1751121920	44	5630
2026-01-26 14:18:56.47	172.86	31.99	-34.7	-35.6	24.9	0.00e+00	120	29	0	1763704832	42	5930
2026-01-26 14:19:00.51	173.42	31.24	-34.9	-35.7	24.6	0.00e+00	122	28	0	1776287744	42	6063
2026-01-26 14:19:04.55	173.96	30.50	-35.3	-36.2	24.2	0.00e+00	122	29	0	1788870656	42	6370
2026-01-26 14:19:08.59	174.48	29.78	-34.9	-35.8	24.4	0.00e+00	123	29	0	1801453568	42	6072
2026-01-26 14:19:12.63	174.97	29.07	-34.3	-35.1	24.6	0.00e+00	123	29	0	1814036480	42	5645
2026-01-26 14:19:16.66	175.44	28.38	-34.6	-35.5	24.6	0.00e+00	123	29	0	1826619392	42	5879
2026-01-26 14:19:20.70	175.90	27.71	-34.6	-35.5	24.8	0.00e+00	120	29	0	1839202304	42	5869
2026-01-26 14:19:24.74	176.34	27.05	-34.5	-35.4	24.9	0.00e+00	120	29	0	1851785216	42	5802
2026-01-26 14:19:28.78	176.76	26.40	-34.9	-35.8	24.5	0.00e+00	121	29	0	1865416704	42	6103
2026-01-26 14:19:32.82	177.16	25.76	-34.9	-35.8	24.4	0.00e+00	120	29	0	1876951040	42	6108
2026-01-26 14:19:36.85	177.55	25.14	-34.8	-35.7	24.4	0.00e+00	123	28	0	1890582528	42	6061
2026-01-26 14:19:40.90	177.92	24.53	-34.8	-35.7	24.3	0.00e+00	122	29	0	1903165440	42	6024
2026-01-26 14:19:44.93	178.28	23.94	-34.6	-35.4	24.4	0.00e+00	123	28	0	1915748352	42	5849
2026-01-26 14:19:48.97	178.63	23.36	-34.4	-35.2	24.6	0.00e+00	123	28	0	1928331264	42	5720
2026-01-26 14:19:53.00	178.97	22.79	-34.4	-35.3	24.7	0.00e+00	122	29	0	1940914176	42	5727
2026-01-26 14:19:57.04	179.29	22.23	-34.7	-35.6	24.6	0.00e+00	122	28	0	1953497088	42	5946
2026-01-26 14:20:01.08	179.61	21.68	-35.0	-35.8	24.4	0.00e+00	122	28	0	1966080000	42	6132
2026-01-26 14:20:05.12	179.91	21.14	-35.0	-35.9	24.3	0.00e+00	122	29	0	1978662912	42	6190
2026-01-26 14:20:09.15	180.21	20.62	-34.9	-35.8	24.4	0.00e+00	122	28	0	1991245824	42	6089
2026-01-26 14:20:13.19	180.49	20.10	-34.8	-35.7	24.4	0.00e+00	122	29	0	2003828736	42	6014
2026-01-26 14:20:17.23	180.77	19.59	-34.8	-35.7	24.3	0.00e+00	122	28	0	2016411648	42	6004
2026-01-26 14:20:21.27	181.04	19.10	-34.9	-35.8	24.2	0.00e+00	123	28	0	2028994560	42	6124
2026-01-26 14:20:25.31	181.30	18.61	-35.3	-36.2	24.0	0.00e+00	123	28	0	2041577472	42	6385
2026-01-26 14:20:29.34	181.55	18.13	-35.3	-36.3	24.0	0.00e+00	122	28	0	2054160384	42	6426
2026-01-26 14:20:33.38	181.79	17.66	-35.3	-36.2	24.1	0.00e+00	123	28	0	2066743296	42	6376
2026-01-26 14:20:37.42	182.03	17.20	-35.3	-36.2	24.1	0.00e+00	123	28	0	2079326208	42	6410
2026-01-26 14:20:41.46	182.26	16.74	-35.4	-36.3	23.9	0.00e+00	120	28	0	2091909120	42	6460
2026-01-26 14:20:45.51	182.49	16.29	-35.4	-36.3	23.9	0.00e+00	123	28	0	2104492032	42	6490
2026-01-26 14:20:49.55	182.71	15.86	-35.5	-36.4	23.8	0.00e+00	122	28	0	2117074944	42	6522
2026-01-26 14:20:53.59	182.92	15.43	-35.5	-36.4	23.7	0.00e+00	122	28	0	2129657856	42	6567
2026-01-26 14:20:57.62	183.13	15.00	-35.6	-36.5	23.7	0.00e+00	122	28	0	2142240768	42	6612
2026-01-26 14:21:01.66	183.33	14.59	-35.6	-36.6	23.7	0.00e+00	121	28	0	2154823680	44	5937
2026-01-26 14:21:05.70	183.53	14.18	-35.8	-36.7	23.6	0.00e+00	122	28	0	2167406592	44	6049
2026-01-26 14:21:09.74	183.72	13.77	-35.8	-36.8	23.5	0.00e+00	122	28	0	2179989504	44	6085
2026-01-26 14:21:13.78	183.91	13.37	-35.7	-36.6	23.7	0.00e+00	120	28	0	2192572416	44	5964
2026-01-26 14:21:17.81	184.09	12.98	-35.8	-36.7	23.7	0.00e+00	123	28	0	2205155328	44	6011
2026-01-26 14:21:21.85	184.27	12.60	-35.8	-36.7	23.6	0.00e+00	122	28	0	2217738240	44	6028
2026-01-26 14:21:25.89	184.44	12.22	-35.8	-36.7	23.6	0.00e+00	123	28	0	2231369728	44	6049
2026-01-26 14:21:29.93	184.61	11.85	-35.8	-36.7	23.5	0.00e+00	122	28	0	2243952640	44	6057
2026-01-26 14:21:33.96	184.78	11.48	-35.9	-36.9	23.5	0.00e+00	123	28	0	2256535552	44	6158
2026-01-26 14:21:38.00	184.94	11.12	-36.2	-37.2	23.2	0.00e+00	123	28	0	2269118464	44	6354
2026-01-26 14:21:42.04	185.10	10.76	-36.2	-37.2	23.2	0.00e+00	122	28	0	2281701376	44	6384
2026-01-26 14:21:46.08	185.25	10.40	-36.5	-37.5	22.8	0.00e+00	123	28	0	2294284288	44	6611
2026-01-26 14:21:50.11	185.41	10.06	-36.9	-37.9	22.5	0.00e+00	122	28	0	2306867200	46	6175
2026-01-26 14:21:54.15	185.55	9.71	-37.3	-38.4	22.3	0.00e+00	120	28	0	2319450112	46	6524
2026-01-26 14:21:58.19	185.70	9.37	-37.0	-38.0	22.4	0.00e+00	122	28	0	2332033024	46	6271
2026-01-26 14:22:02.22	185.84	9.04	-37.2	-38.2	22.3	0.00e+00	123	28	0	2344615936	46	6384
2026-01-26 14:22:06.26	185.98	8.71	-37.1	-38.2	22.3	0.00e+00	122	28	0	2357198848	46	6356
2026-01-26 14:22:10.30	186.12	8.38	-37.1	-38.1	22.3	0.00e+00	123	28	0	2369781760	46	6347
2026-01-26 14:22:14.34	186.25	8.06	-37.3	-38.3	22.1	0.00e+00	123	28	0	2382364672	46	6496
2026-01-26 14:22:18.38	186.39	7.74	-37.2	-38.3	22.3	0.00e+00	122	28	0	2394947584	46	6427
2026-01-26 14:22:22.41	186.52	7.43	-37.3	-38.3	22.1	0.00e+00	122	28	0	2407530496	46	6471
2026-01-26 14:22:26.45	186.64	7.12	-37.6	-38.7	21.7	0.00e+00	123	28	0	2420113408	48	6036
2026-01-26 14:22:30.49	186.77	6.81	-37.8	-38.9	21.5	0.00e+00	120	28	0	2432696320	48	6171
2026-01-26 14:22:34.52	186.89	6.51	-37.8	-38.9	21.5	0.00e+00	123	28	0	2445279232	48	6136
2026-01-26 14:22:38.56	187.01	6.21	-38.4	-39.5	21.1	0.00e+00	123	28	0	2457862144	48	6588
2026-01-26 14:22:42.59	187.13	5.92	-38.1	-39.2	21.2	0.00e+00	123	28	0	2470445056	48	6387
2026-01-26 14:22:46.63	187.24	5.62	-38.3	-39.4	21.0	0.00e+00	123	28	0	2483027968	48	6568
2026-01-26 14:22:50.67	187.35	5.33	-38.6	-39.7	20.6	0.00e+00	120	28	0	2495610880	48	6763
2026-01-26 14:22:54.71	187.47	5.04	-38.4	-39.6	20.8	0.00e+00	122	28	0	2508193792	48	6665
2026-01-26 14:22:58.75	187.58	4.76	-38.8	-39.9	20.5	0.00e+00	122	28	0	2520776704	50	6179
2026-01-26 14:23:02.79	187.68	4.48	-38.9	-40.1	20.3	0.00e+00	122	28	0	2533359616	50	6306
2026-01-26 14:23:06.83	187.79	4.20	-38.5	-39.7	20.5	0.00e+00	123	28	0	2545942528	50	6034
2026-01-26 14:23:10.87	187.89	3.93	-38.5	-39.6	20.6	0.00e+00	123	28	0	2558525440	50	5956
2026-01-26 14:23:14.90	188.00	3.65	-39.4	-40.6	19.6	0.00e+00	123	28	0	2571108352	50	6689
2026-01-26 14:23:18.94	188.10	3.38	-39.3	-40.6	19.5	0.00e+00	123	28	0	2583691264	50	6665
2026-01-26 14:23:22.98	188.20	3.12	-39.9	-41.3	18.7	0.00e+00	123	28	0	2596274176	50	7210
2026-01-26 14:23:27.02	188.30	2.85	-49.0	-61.8	3.5	1.52e+00	0	28	104	2601517056	60	43276
2026-01-26 14:23:31.06	188.39	2.59	-49.4	-62.3	3.5	1.51e+00	0	28	104	2601517056	60	45512
2026-01-26 14:23:35.10	188.49	2.33	-49.4	-62.4	3.5	1.52e+00	0	28	104	2601517056	60	46140
2026-01-26 14:23:39.14	188.58	2.07	-49.2	-62.3	3.5	1.52e+00	0	28	104	2601517056	60	45998
2026-01-26 14:23:43.18	188.67	1.81	-49.5	-62.3	3.5	1.51e+00	0	28	104	2601517056	60	45954
2026-01-26 14:23:47.22	188.76	1.56	-49.5	-62.4	3.5	1.52e+00	0	28	104	2601517056	60	46059
2026-01-26 14:23:51.26	188.85	1.31	-49.5	-62.4	3.5	1.52e+00	0	28	104	2601517056	60	46330
2026-01-26 14:23:55.30	188.94	1.06	-49.6	-62.5	3.5	1.52e+00	0	28	104	2601517056	60	47057
2026-01-26 14:23:59.34	189.03	0.81	-49.5	-62.4	3.5	1.52e+00	0	28	104	2601517056	60	46174
2026-01-26 14:24:03.37	189.11	0.57	-49.5	-62.4	3.5	1.52e+00	0	28	104	2601517056	60	46317
2026-01-26 14:24:07.41	189.20	0.33	-49.7	-62.5	3.5	1.52e+00	0	28	104	2601517056	60	46664
2026-01-26 14:24:11.44	189.28	0.08	-49.7	-62.5	3.5	1.52e+00	0	28	104	2601517056	60	47048

#Closed at: 2026-01-26 14:24:14
#Recorded file [2601 MB]: D:/lorett/data/35029_260127_020846.dat