passes_logs/2026/01/26/R4.6S_Anadyr/R4.6S_Anadyr__20260126_002249_NOAA_21_JPSS-2_rec.log

#Pass ID: 20260126_002249_NOAA 21 (JPSS-2)
#Satellite: NOAA 21 (JPSS-2)
#Configuration: NOAA-21
#almurnet v.1.7.20251203
#Start time: 2026-01-26 00:22:50

#Version: 2.2.20231116
#Station: R4.6S_Anadyr
#Location: 177.4865 lon 64.73178 lat
#TLE: 1 54234U 22150A   26025.44451686  .00000186  00000+0  10896-3 0  9992
#TLE: 2 54234  98.7509 326.2184 0000763 215.1852 144.9274 14.19539183166293

#Time	Az	El	Level	Level2	SNR	BER	BlckErr	Temp	State	Recorded	gain1	gain2
2026-01-26 00:22:50.45	160.30	0.05	-50.5	-65.4	3.4	1.51e+00	0	31	0	0	60	66955
2026-01-26 00:22:54.49	160.33	0.29	-51.3	-64.2	3.5	1.52e+00	0	33	104	0	60	56870
2026-01-26 00:22:58.52	160.37	0.53	-32.6	-63.2	3.9	1.52e+00	0	33	104	0	42	142994
2026-01-26 00:23:02.56	160.40	0.78	-39.0	-62.7	4.0	1.52e+00	0	33	104	0	48	95387
2026-01-26 00:23:06.60	160.44	1.03	-38.5	-62.0	3.8	1.52e+00	0	33	104	0	50	78618
2026-01-26 00:23:10.64	160.47	1.28	-38.8	-60.3	3.9	1.52e+00	0	33	104	0	50	64372
2026-01-26 00:23:14.68	160.51	1.54	-48.7	-61.4	3.5	1.52e+00	0	33	104	0	60	41020
2026-01-26 00:23:18.72	160.54	1.79	-49.0	-61.5	3.5	1.52e+00	0	33	104	0	60	41636
2026-01-26 00:23:22.76	160.58	2.05	-48.7	-61.5	3.5	1.52e+00	0	33	104	0	60	41632
2026-01-26 00:23:26.80	160.61	2.31	-48.8	-61.4	3.5	1.52e+00	0	33	104	0	60	41186
2026-01-26 00:23:30.84	160.65	2.57	-48.3	-59.1	3.5	1.51e+00	0	34	104	0	60	31814
2026-01-26 00:23:34.88	160.69	2.84	-48.7	-60.1	3.5	1.51e+00	0	34	104	0	60	35475
2026-01-26 00:23:38.92	160.73	3.11	-45.9	-49.4	11.1	4.20e-03	122	33	0	3145728	60	10327
2026-01-26 00:23:42.96	160.76	3.38	-41.5	-43.1	17.7	0.00e+00	121	34	0	15728640	56	6316
2026-01-26 00:23:47.00	160.80	3.65	-39.6	-40.9	19.6	0.00e+00	120	34	0	28311552	52	6155
2026-01-26 00:23:51.03	160.84	3.93	-45.5	-50.3	9.9	2.23e-04	123	34	0	34603008	60	11508
2026-01-26 00:23:55.07	160.88	4.21	-43.7	-46.6	13.2	3.46e-02	123	34	0	40894464	60	7546
2026-01-26 00:23:59.11	160.92	4.49	-44.4	-48.1	12.4	3.18e-02	123	34	0	53477376	60	8869
2026-01-26 00:24:03.15	160.96	4.77	-45.3	-48.0	13.3	6.01e-04	120	34	0	66060288	60	8802
2026-01-26 00:24:07.18	161.01	5.06	-44.6	-46.9	14.7	7.00e-07	123	34	0	78643200	60	7752
2026-01-26 00:24:11.22	161.05	5.35	-43.6	-45.5	15.7	0.00e+00	120	34	0	91226112	60	6639
2026-01-26 00:24:15.27	161.09	5.65	-42.4	-44.0	17.5	0.00e+00	123	34	0	103809024	58	6234
2026-01-26 00:24:19.31	161.13	5.95	-42.4	-43.9	17.6	0.00e+00	122	34	0	116391936	58	6204
2026-01-26 00:24:23.34	161.18	6.25	-42.0	-43.5	18.0	0.00e+00	123	34	0	128974848	56	6584
2026-01-26 00:24:27.38	161.22	6.55	-39.9	-41.1	20.1	0.00e+00	122	34	0	141557760	52	6301
2026-01-26 00:24:31.42	161.27	6.86	-40.6	-41.9	20.1	0.00e+00	120	34	0	154140672	54	6172
2026-01-26 00:24:35.46	161.31	7.17	-39.5	-40.6	20.7	0.00e+00	123	34	0	166723584	52	5987
2026-01-26 00:24:39.51	161.36	7.49	-38.6	-39.7	21.4	0.00e+00	123	34	0	179306496	50	6044
2026-01-26 00:24:43.55	161.41	7.81	-38.6	-39.6	22.0	0.00e+00	123	34	0	191889408	50	5980
2026-01-26 00:24:47.58	161.46	8.13	-38.0	-39.1	21.9	0.00e+00	123	34	0	204472320	50	5597
2026-01-26 00:24:51.63	161.50	8.46	-37.7	-38.7	22.3	0.00e+00	123	34	0	217055232	48	6028
2026-01-26 00:24:55.67	161.55	8.79	-37.6	-38.6	22.4	0.00e+00	122	34	0	229638144	48	5956
2026-01-26 00:24:59.71	161.61	9.13	-37.2	-38.2	22.7	0.00e+00	121	34	0	242221056	48	5679
2026-01-26 00:25:03.75	161.66	9.47	-38.0	-38.9	22.8	0.00e+00	122	34	0	254803968	48	6191
2026-01-26 00:25:07.79	161.71	9.82	-37.6	-38.6	22.7	0.00e+00	122	34	0	267386880	48	5932
2026-01-26 00:25:11.82	161.76	10.17	-37.6	-38.6	22.8	0.00e+00	123	34	0	279969792	48	5936
2026-01-26 00:25:15.86	161.82	10.53	-36.9	-37.8	23.2	0.00e+00	123	34	0	292552704	48	5434
2026-01-26 00:25:19.90	161.87	10.89	-37.2	-38.1	23.3	0.00e+00	122	34	0	305135616	46	6343
2026-01-26 00:25:23.95	161.93	11.26	-37.1	-38.0	23.3	0.00e+00	123	34	0	317718528	46	6250
2026-01-26 00:25:27.99	161.99	11.63	-36.4	-37.4	23.5	0.00e+00	120	34	0	330301440	46	5813
2026-01-26 00:25:32.03	162.05	12.01	-36.3	-37.2	23.5	0.00e+00	120	34	0	343932928	46	5713
2026-01-26 00:25:36.07	162.11	12.39	-37.3	-38.3	23.2	0.00e+00	123	34	0	356515840	46	6469
2026-01-26 00:25:40.11	162.17	12.78	-37.2	-38.1	23.6	0.00e+00	123	34	0	369098752	46	6335
2026-01-26 00:25:44.15	162.23	13.18	-37.1	-38.0	23.7	0.00e+00	123	34	0	381681664	46	6220
2026-01-26 00:25:48.19	162.29	13.58	-36.9	-37.9	23.5	0.00e+00	123	34	0	394264576	46	6154
2026-01-26 00:25:52.23	162.36	13.99	-36.2	-37.1	23.7	0.00e+00	120	34	0	406847488	46	5632
2026-01-26 00:25:56.27	162.42	14.41	-36.3	-37.2	23.6	0.00e+00	122	34	0	419430400	46	5710
2026-01-26 00:26:00.31	162.49	14.83	-37.0	-38.0	23.7	0.00e+00	123	34	0	432013312	46	6208
2026-01-26 00:26:04.35	162.56	15.26	-36.1	-37.1	23.8	0.00e+00	120	34	0	444596224	46	5596
2026-01-26 00:26:08.39	162.63	15.70	-36.2	-37.2	23.9	0.00e+00	120	34	0	457179136	46	5677
2026-01-26 00:26:12.42	162.71	16.15	-36.5	-37.5	23.5	0.00e+00	120	34	0	469762048	46	5889
2026-01-26 00:26:16.47	162.78	16.61	-36.2	-37.1	23.6	0.00e+00	122	34	0	482344960	46	5631
2026-01-26 00:26:20.51	162.86	17.07	-36.8	-37.8	23.7	0.00e+00	122	34	0	494927872	46	6089
2026-01-26 00:26:24.55	162.94	17.55	-37.1	-38.1	23.6	0.00e+00	123	34	0	507510784	46	6295
2026-01-26 00:26:28.59	163.02	18.03	-36.0	-36.9	23.8	0.00e+00	122	34	0	520093696	46	5486
2026-01-26 00:26:32.63	163.10	18.52	-36.3	-37.3	24.0	0.00e+00	123	34	0	532676608	46	5731
2026-01-26 00:26:36.67	163.19	19.02	-36.0	-36.9	24.0	0.00e+00	122	34	0	545259520	46	5528
2026-01-26 00:26:40.71	163.28	19.54	-35.6	-36.5	24.1	0.00e+00	123	34	0	557842432	44	5914
2026-01-26 00:26:44.75	163.37	20.06	-35.3	-36.2	24.4	0.00e+00	120	34	0	570425344	44	5700
2026-01-26 00:26:48.79	163.46	20.60	-35.1	-36.0	24.6	0.00e+00	120	34	0	583008256	44	5581
2026-01-26 00:26:52.82	163.55	21.14	-34.9	-35.8	24.7	0.00e+00	123	34	0	595591168	44	5433
2026-01-26 00:26:56.86	163.65	21.70	-34.5	-35.3	25.0	0.00e+00	122	34	0	608174080	42	5762
2026-01-26 00:27:00.90	163.75	22.27	-34.4	-35.3	25.1	0.00e+00	124	34	0	620756992	42	5738
2026-01-26 00:27:04.94	163.86	22.85	-35.1	-35.9	25.2	0.00e+00	122	34	0	633339904	42	6205
2026-01-26 00:27:08.98	163.97	23.45	-34.4	-35.2	25.2	0.00e+00	120	34	0	646971392	42	5721
2026-01-26 00:27:13.02	164.08	24.06	-34.1	-34.9	25.4	0.00e+00	122	34	0	659554304	42	5525
2026-01-26 00:27:17.06	164.20	24.69	-34.8	-35.7	25.3	0.00e+00	120	34	0	672137216	42	6012
2026-01-26 00:27:21.10	164.32	25.33	-35.4	-36.2	25.1	0.00e+00	120	34	0	684720128	42	6421
2026-01-26 00:27:25.13	164.44	25.99	-35.5	-36.4	24.8	0.00e+00	122	34	0	697303040	42	6513
2026-01-26 00:27:29.17	164.57	26.66	-36.1	-37.0	24.5	0.00e+00	123	34	0	709885952	44	6208
2026-01-26 00:27:33.21	164.71	27.35	-36.6	-37.5	24.0	0.00e+00	122	34	0	722468864	44	6608
2026-01-26 00:27:37.26	164.85	28.06	-37.2	-38.2	23.7	0.00e+00	122	34	0	735051776	46	6385
2026-01-26 00:27:41.30	164.99	28.79	-37.6	-38.6	23.6	0.00e+00	122	34	0	747634688	48	5955
2026-01-26 00:27:45.34	165.15	29.53	-37.2	-38.1	23.9	0.00e+00	122	34	0	760217600	46	6306
2026-01-26 00:27:49.38	165.30	30.30	-37.6	-38.5	24.3	0.00e+00	123	34	0	772800512	46	6645
2026-01-26 00:27:53.41	165.47	31.08	-36.4	-37.3	24.4	0.00e+00	123	34	0	785383424	46	5745
2026-01-26 00:27:57.45	165.64	31.89	-36.3	-37.2	24.7	0.00e+00	120	34	0	797966336	46	5683
2026-01-26 00:28:01.48	165.82	32.72	-36.2	-37.0	24.7	0.00e+00	122	34	0	810549248	46	5594
2026-01-26 00:28:05.52	166.01	33.57	-37.1	-38.0	24.4	0.00e+00	120	34	0	823132160	46	6226
2026-01-26 00:28:09.56	166.21	34.45	-37.0	-37.9	24.1	0.00e+00	122	34	0	835715072	48	5495
2026-01-26 00:28:13.60	166.42	35.35	-37.2	-38.1	23.8	0.00e+00	123	34	0	848297984	46	6342
2026-01-26 00:28:17.64	166.65	36.28	-37.2	-38.1	23.4	0.00e+00	122	34	0	860880896	48	5659
2026-01-26 00:28:21.67	166.88	37.23	-37.7	-38.6	23.2	0.00e+00	122	34	0	873463808	48	5991
2026-01-26 00:28:25.71	167.13	38.21	-37.5	-38.5	23.2	0.00e+00	123	34	0	886046720	48	5887
2026-01-26 00:28:29.75	167.39	39.23	-36.8	-37.8	23.5	0.00e+00	123	34	0	898629632	46	6083
2026-01-26 00:28:33.79	167.67	40.27	-36.9	-37.9	23.4	0.00e+00	121	34	0	911212544	46	6138
2026-01-26 00:28:37.83	167.96	41.34	-37.9	-38.9	22.5	0.00e+00	122	34	0	923795456	48	6204
2026-01-26 00:28:41.87	168.28	42.45	-38.7	-39.8	21.6	0.00e+00	122	34	0	936378368	48	6861
2026-01-26 00:28:45.91	168.61	43.58	-40.5	-41.6	20.9	0.00e+00	123	34	0	948961280	52	6724
2026-01-26 00:28:49.95	168.97	44.75	-40.9	-42.1	20.7	0.00e+00	121	34	0	961544192	54	6328
2026-01-26 00:28:53.99	169.36	45.96	-40.1	-41.2	21.0	0.00e+00	122	34	0	974127104	54	5719
2026-01-26 00:28:58.02	169.78	47.19	-39.6	-40.7	21.5	0.00e+00	122	34	0	987758592	54	5367
2026-01-26 00:29:02.06	170.23	48.47	-39.6	-40.7	22.4	0.00e+00	122	34	0	1000341504	52	6035
2026-01-26 00:29:06.10	170.71	49.78	-38.4	-39.3	23.4	0.00e+00	123	34	0	1011875840	50	5765
2026-01-26 00:29:10.14	171.25	51.13	-38.2	-39.1	23.4	0.00e+00	122	34	0	1025507328	50	5650
2026-01-26 00:29:14.18	171.83	52.52	-38.5	-39.5	23.3	0.00e+00	123	34	0	1038090240	50	5885
2026-01-26 00:29:18.22	172.47	53.94	-37.5	-38.4	24.0	0.00e+00	123	34	0	1050673152	48	5803
2026-01-26 00:29:22.25	173.17	55.39	-36.5	-37.4	24.2	0.00e+00	123	34	0	1063256064	46	5809
2026-01-26 00:29:26.29	173.95	56.89	-37.4	-38.3	23.5	0.00e+00	122	34	0	1075838976	46	6498
2026-01-26 00:29:30.33	174.81	58.42	-35.4	-36.3	24.8	0.00e+00	120	34	0	1088421888	44	5773
2026-01-26 00:29:34.37	175.79	59.98	-34.9	-35.8	25.0	0.00e+00	123	34	0	1101004800	42	6083
2026-01-26 00:29:38.41	176.88	61.58	-35.1	-35.9	25.2	0.00e+00	122	34	0	1113587712	44	5522
2026-01-26 00:29:42.45	178.13	63.20	-35.0	-35.8	25.5	0.00e+00	121	34	0	1126170624	42	6089
2026-01-26 00:29:46.50	179.56	64.86	-34.7	-35.6	25.5	0.00e+00	123	34	0	1138753536	44	5286
2026-01-26 00:29:50.54	181.22	66.52	-35.7	-36.6	24.9	0.00e+00	120	34	0	1151336448	46	5309
2026-01-26 00:29:54.58	183.15	68.21	-35.7	-36.6	24.8	0.00e+00	123	34	0	1163919360	44	5930
2026-01-26 00:29:58.62	185.44	69.90	-34.8	-35.7	25.1	0.00e+00	122	34	0	1176502272	42	6023
2026-01-26 00:30:02.66	188.17	71.58	-36.3	-37.2	24.3	0.00e+00	122	34	0	1189085184	44	6407
2026-01-26 00:30:06.70	191.48	73.24	-35.2	-36.2	22.3	8.01e-03	122	34	0	1201668096	44	5684
2026-01-26 00:30:10.73	195.53	74.86	-35.0	-36.0	23.2	1.66e-03	120	34	0	1214251008	44	5560
2026-01-26 00:30:14.77	200.58	76.40	-35.0	-35.8	25.7	0.00e+00	121	34	0	1226833920	42	6123
2026-01-26 00:30:18.81	206.90	77.84	-34.6	-35.4	25.8	0.00e+00	123	34	0	1239416832	42	5800
2026-01-26 00:30:22.85	214.85	79.11	-35.0	-35.8	25.6	0.00e+00	122	34	0	1251999744	42	6133
2026-01-26 00:30:26.89	224.69	80.12	-35.0	-35.9	25.2	0.00e+00	123	34	0	1264582656	42	6163
2026-01-26 00:30:30.93	236.39	80.80	-35.1	-36.0	25.3	0.00e+00	123	34	0	1277165568	42	6248
2026-01-26 00:30:34.97	249.34	81.05	-35.2	-36.1	25.2	0.00e+00	122	34	0	1289748480	44	5641
2026-01-26 00:30:39.01	262.35	80.84	-34.9	-35.7	25.5	0.00e+00	123	34	0	1302331392	42	6035
2026-01-26 00:30:43.05	274.20	80.20	-34.9	-35.7	25.3	0.00e+00	120	34	0	1314914304	42	6036
2026-01-26 00:30:47.09	284.21	79.21	-35.7	-36.5	25.2	0.00e+00	123	34	0	1328545792	42	6615
2026-01-26 00:30:51.13	292.32	77.97	-34.6	-35.4	25.9	0.00e+00	122	34	0	1341128704	42	5846
2026-01-26 00:30:55.16	298.76	76.55	-35.1	-36.0	25.5	0.00e+00	122	34	0	1353711616	42	6215
2026-01-26 00:30:59.21	303.92	75.01	-34.2	-35.0	25.5	0.00e+00	122	34	0	1366294528	44	4965
2026-01-26 00:31:03.25	308.06	73.39	-35.3	-36.2	25.4	0.00e+00	123	34	0	1378877440	42	6382
2026-01-26 00:31:07.28	311.42	71.74	-34.6	-35.4	25.9	0.00e+00	123	34	0	1391460352	42	5825
2026-01-26 00:31:11.32	314.20	70.06	-34.8	-35.7	24.7	0.00e+00	123	34	0	1404043264	42	6006
2026-01-26 00:31:15.36	316.52	68.38	-34.8	-35.6	25.6	0.00e+00	122	34	0	1416626176	42	5985
2026-01-26 00:31:19.40	318.48	66.70	-35.0	-35.9	24.3	0.00e+00	122	34	0	1429209088	44	5496
2026-01-26 00:31:23.44	320.16	65.03	-33.6	-34.4	25.8	0.00e+00	123	34	0	1441792000	40	5847
2026-01-26 00:31:27.48	321.61	63.38	-36.2	-37.2	24.8	0.00e+00	123	34	0	1454374912	46	5680
2026-01-26 00:31:31.52	322.87	61.76	-35.2	-36.0	25.0	0.00e+00	122	34	0	1466957824	40	7042
2026-01-26 00:31:35.56	323.98	60.17	-35.9	-36.9	23.6	0.00e+00	120	34	0	1479540736	46	5505
2026-01-26 00:31:39.60	324.97	58.61	-35.1	-36.0	25.5	0.00e+00	120	34	0	1492123648	42	6219
2026-01-26 00:31:43.64	325.84	57.08	-38.6	-39.8	22.1	0.00e+00	122	34	0	1504706560	48	6823
2026-01-26 00:31:47.68	326.63	55.58	-35.3	-36.2	24.4	0.00e+00	123	34	0	1517289472	44	5702
2026-01-26 00:31:51.73	327.34	54.12	-35.8	-36.8	24.0	0.00e+00	123	34	0	1529872384	44	6085
2026-01-26 00:31:55.76	327.98	52.70	-38.3	-39.4	22.5	0.00e+00	120	34	0	1542455296	50	5856
2026-01-26 00:31:59.79	328.57	51.32	-37.4	-38.3	23.7	0.00e+00	123	34	0	1555038208	46	6474
2026-01-26 00:32:03.84	329.11	49.97	-38.8	-39.8	22.3	0.00e+00	123	34	0	1567621120	48	6858
2026-01-26 00:32:07.88	329.60	48.66	-39.2	-40.3	22.2	0.00e+00	122	34	0	1580204032	50	6437
2026-01-26 00:32:11.92	330.06	47.38	-37.9	-38.9	22.7	0.00e+00	122	34	0	1592786944	48	6156
2026-01-26 00:32:15.96	330.48	46.14	-37.9	-39.0	22.7	0.00e+00	123	34	0	1605369856	48	6212
2026-01-26 00:32:20.00	330.87	44.94	-39.7	-41.0	20.4	0.00e+00	123	34	0	1617952768	52	6229
2026-01-26 00:32:24.04	331.23	43.77	-38.1	-39.1	22.4	0.00e+00	120	34	0	1630535680	50	5619
2026-01-26 00:32:28.08	331.57	42.63	-37.8	-38.8	22.8	0.00e+00	122	34	0	1644167168	50	5426
2026-01-26 00:32:32.12	331.89	41.53	-37.2	-38.1	22.7	0.00e+00	123	34	0	1656750080	48	5647
2026-01-26 00:32:36.16	332.19	40.46	-39.4	-40.4	21.7	0.00e+00	120	34	0	1668284416	50	6563
2026-01-26 00:32:40.20	332.47	39.42	-39.1	-40.2	21.6	0.00e+00	120	34	0	1681915904	50	6383
2026-01-26 00:32:44.24	332.73	38.40	-37.8	-38.8	22.9	0.00e+00	122	34	0	1694498816	48	6080
2026-01-26 00:32:48.28	332.98	37.42	-37.0	-37.9	23.3	0.00e+00	123	34	0	1707081728	46	6194
2026-01-26 00:32:52.32	333.22	36.47	-37.0	-37.9	23.2	0.00e+00	123	34	0	1719664640	48	5520
2026-01-26 00:32:56.36	333.44	35.54	-36.4	-37.4	23.2	0.00e+00	123	34	0	1732247552	46	5811
2026-01-26 00:33:00.41	333.65	34.63	-36.7	-37.7	23.2	0.00e+00	122	34	0	1744830464	46	6033
2026-01-26 00:33:04.44	333.85	33.76	-37.4	-38.4	22.8	0.00e+00	123	34	0	1757413376	46	6545
2026-01-26 00:33:08.48	334.05	32.91	-36.4	-37.4	23.4	0.00e+00	123	34	0	1769996288	46	5795
2026-01-26 00:33:12.52	334.23	32.08	-35.6	-36.5	24.2	0.00e+00	123	34	0	1782579200	44	5871
2026-01-26 00:33:16.56	334.40	31.27	-34.8	-35.7	24.6	0.00e+00	123	34	0	1795162112	42	6004
2026-01-26 00:33:20.60	334.57	30.48	-34.8	-35.7	24.6	0.00e+00	122	34	0	1807745024	42	6036
2026-01-26 00:33:24.64	334.73	29.72	-35.2	-36.2	24.4	0.00e+00	122	34	0	1820327936	42	6352
2026-01-26 00:33:28.68	334.89	28.97	-35.9	-36.9	24.1	0.00e+00	123	34	0	1832910848	44	6141
2026-01-26 00:33:32.72	335.04	28.25	-36.2	-37.2	24.0	0.00e+00	122	34	0	1845493760	44	6367
2026-01-26 00:33:36.76	335.18	27.54	-36.1	-37.0	24.3	0.00e+00	122	34	0	1858076672	44	6258
2026-01-26 00:33:40.81	335.32	26.85	-35.9	-36.8	24.1	0.00e+00	123	34	0	1870659584	44	6089
2026-01-26 00:33:44.84	335.45	26.18	-35.4	-36.3	24.2	0.00e+00	122	34	0	1883242496	44	5762
2026-01-26 00:33:48.89	335.57	25.52	-35.5	-36.4	24.3	0.00e+00	123	34	0	1895825408	44	5814
2026-01-26 00:33:52.93	335.70	24.88	-35.6	-36.5	24.0	0.00e+00	123	34	0	1908408320	44	5920
2026-01-26 00:33:56.97	335.82	24.25	-35.1	-36.0	24.4	0.00e+00	122	34	0	1920991232	44	5548
2026-01-26 00:34:01.01	335.93	23.64	-34.9	-35.8	24.6	0.00e+00	122	34	0	1933574144	42	6096
2026-01-26 00:34:05.05	336.04	23.04	-35.0	-35.9	24.4	0.00e+00	120	34	0	1946157056	42	6198
2026-01-26 00:34:09.09	336.15	22.46	-35.1	-36.0	24.7	0.00e+00	121	34	0	1959788544	42	6250
2026-01-26 00:34:13.13	336.25	21.89	-35.1	-36.0	24.7	0.00e+00	120	34	0	1972371456	42	6241
2026-01-26 00:34:17.17	336.35	21.33	-34.9	-35.8	24.8	0.00e+00	123	34	0	1984954368	42	6121
2026-01-26 00:34:21.21	336.45	20.79	-35.3	-36.2	24.7	0.00e+00	122	34	0	1997537280	42	6382
2026-01-26 00:34:25.25	336.55	20.25	-35.3	-36.2	24.5	0.00e+00	122	34	0	2010120192	42	6380
2026-01-26 00:34:29.30	336.64	19.73	-35.3	-36.3	24.2	0.00e+00	120	34	0	2022703104	42	6448
2026-01-26 00:34:33.33	336.73	19.22	-35.5	-36.5	24.0	0.00e+00	123	34	0	2035286016	42	6620
2026-01-26 00:34:37.38	336.82	18.71	-35.6	-36.6	23.9	0.00e+00	123	34	0	2047868928	44	5939
2026-01-26 00:34:41.42	336.90	18.22	-35.9	-36.9	23.8	0.00e+00	120	34	0	2060451840	44	6179
2026-01-26 00:34:45.46	336.99	17.74	-36.1	-37.1	23.7	0.00e+00	122	34	0	2073034752	44	6278
2026-01-26 00:34:49.49	337.07	17.27	-36.3	-37.3	23.6	0.00e+00	120	34	0	2085617664	44	6449
2026-01-26 00:34:53.54	337.15	16.80	-36.4	-37.3	23.3	0.00e+00	120	34	0	2098200576	44	6480
2026-01-26 00:34:57.58	337.23	16.34	-36.5	-37.5	23.0	0.00e+00	120	34	0	2110783488	46	5917
2026-01-26 00:35:01.62	337.30	15.90	-36.6	-37.6	22.9	0.00e+00	120	34	0	2123366400	46	5985
2026-01-26 00:35:05.66	337.38	15.46	-36.0	-37.0	23.4	0.00e+00	120	34	0	2135949312	46	5566
2026-01-26 00:35:09.70	337.45	15.03	-36.3	-37.3	23.1	0.00e+00	120	34	0	2148532224	46	5772
2026-01-26 00:35:13.74	337.52	14.60	-36.4	-37.3	23.2	0.00e+00	120	34	0	2161115136	46	5789
2026-01-26 00:35:17.78	337.59	14.19	-36.8	-37.8	22.9	0.00e+00	123	34	0	2173698048	46	6096
2026-01-26 00:35:21.82	337.66	13.78	-36.7	-37.6	22.9	0.00e+00	122	34	0	2186280960	46	5994
2026-01-26 00:35:25.86	337.72	13.37	-36.6	-37.6	23.0	0.00e+00	122	34	0	2198863872	46	5981
2026-01-26 00:35:29.90	337.79	12.98	-36.6	-37.6	22.9	0.00e+00	122	34	0	2211446784	46	5967
2026-01-26 00:35:33.94	337.85	12.59	-36.6	-37.6	22.9	0.00e+00	123	34	0	2224029696	46	5984
2026-01-26 00:35:37.98	337.92	12.20	-36.4	-37.4	23.0	0.00e+00	122	34	0	2236612608	46	5832
2026-01-26 00:35:42.02	337.98	11.82	-36.7	-37.7	22.7	0.00e+00	123	34	0	2250244096	46	6058
2026-01-26 00:35:46.06	338.04	11.45	-36.6	-37.6	22.9	0.00e+00	123	34	0	2261778432	46	5974
2026-01-26 00:35:50.10	338.10	11.09	-36.9	-37.9	22.8	0.00e+00	123	34	0	2275409920	46	6180
2026-01-26 00:35:54.14	338.16	10.72	-37.2	-38.3	22.5	0.00e+00	122	34	0	2287992832	46	6471
2026-01-26 00:35:58.18	338.21	10.37	-37.3	-38.3	22.5	0.00e+00	122	34	0	2300575744	46	6481
2026-01-26 00:36:02.22	338.27	10.02	-36.8	-37.9	22.7	0.00e+00	123	34	0	2313158656	46	6157
2026-01-26 00:36:06.26	338.33	9.67	-37.0	-38.0	22.6	0.00e+00	123	34	0	2325741568	46	6268
2026-01-26 00:36:10.30	338.38	9.33	-37.2	-38.3	22.4	0.00e+00	123	34	0	2338324480	46	6439
2026-01-26 00:36:14.34	338.43	8.99	-37.2	-38.2	22.3	0.00e+00	123	34	0	2350907392	46	6391
2026-01-26 00:36:18.37	338.49	8.66	-37.5	-38.6	22.1	0.00e+00	123	34	0	2363490304	46	6665
2026-01-26 00:36:22.41	338.54	8.33	-37.4	-38.5	22.0	0.00e+00	123	34	0	2376073216	46	6590
2026-01-26 00:36:26.45	338.59	8.01	-37.5	-38.5	22.0	0.00e+00	120	34	0	2388656128	46	6647
2026-01-26 00:36:30.49	338.64	7.69	-37.5	-38.6	21.8	0.00e+00	122	34	0	2401239040	48	5960
2026-01-26 00:36:34.53	338.69	7.37	-37.7	-38.8	21.8	0.00e+00	122	34	0	2413821952	48	6079
2026-01-26 00:36:38.57	338.74	7.06	-38.0	-39.2	21.5	0.00e+00	122	34	0	2426404864	48	6357
2026-01-26 00:36:42.61	338.79	6.75	-38.4	-39.6	20.9	0.00e+00	120	34	0	2438987776	48	6690
2026-01-26 00:36:46.65	338.84	6.45	-38.2	-39.4	21.2	0.00e+00	120	34	0	2451570688	48	6530
2026-01-26 00:36:50.97	338.89	6.13	-38.3	-39.5	20.7	0.00e+00	123	34	0	2464153600	50	5859
2026-01-26 00:36:55.00	338.94	5.83	-39.0	-40.2	20.0	0.00e+00	123	34	0	2476736512	52	5703
2026-01-26 00:36:59.05	338.98	5.54	-39.0	-40.3	19.7	0.00e+00	122	34	0	2489319424	52	5777
2026-01-26 00:37:03.09	339.03	5.25	-40.0	-41.5	18.2	0.00e+00	122	34	0	2501902336	52	6605
2026-01-26 00:37:07.13	339.07	4.96	-41.3	-43.4	15.5	0.00e+00	120	35	0	2514485248	54	7296
2026-01-26 00:37:11.18	339.12	4.67	-42.7	-45.6	12.5	3.05e-05	120	34	0	2527068160	56	8457
2026-01-26 00:37:15.22	339.16	4.39	-44.0	-49.1	7.9	2.99e-02	123	34	0	2539651072	60	9958
2026-01-26 00:37:19.26	339.21	4.11	-44.6	-53.4	4.7	1.24e+00	115	35	104	2548039680	60	16464
2026-01-26 00:37:23.30	339.25	3.84	-44.8	-57.5	3.5	1.52e+00	0	34	104	2548039680	60	26296
2026-01-26 00:37:27.34	339.29	3.57	-44.6	-57.0	3.5	1.52e+00	0	35	104	2548039680	60	24729
2026-01-26 00:37:31.38	339.33	3.30	-44.8	-57.6	3.5	1.52e+00	0	34	104	2548039680	60	26615
2026-01-26 00:37:35.42	339.38	3.03	-44.7	-57.5	3.5	1.52e+00	0	35	104	2548039680	60	26411
2026-01-26 00:37:39.46	339.42	2.76	-49.2	-62.0	3.5	1.52e+00	0	34	104	2548039680	60	44108
2026-01-26 00:37:43.50	339.46	2.50	-49.6	-62.5	3.5	1.52e+00	0	34	104	2548039680	60	46683
2026-01-26 00:37:47.53	339.50	2.24	-49.9	-62.7	3.5	1.51e+00	0	35	104	2548039680	60	48065
2026-01-26 00:37:51.58	339.54	1.98	-49.4	-62.7	3.5	1.52e+00	0	34	104	2548039680	60	48115
2026-01-26 00:37:55.62	339.58	1.73	-49.7	-62.5	3.5	1.52e+00	0	34	104	2548039680	60	47064
2026-01-26 00:37:59.66	339.62	1.47	-49.9	-62.8	3.5	1.52e+00	0	35	104	2548039680	60	48359
2026-01-26 00:38:03.70	339.66	1.22	-49.7	-62.5	3.5	1.52e+00	0	34	104	2548039680	60	46974
2026-01-26 00:38:07.74	339.70	0.97	-49.7	-62.6	3.5	1.51e+00	0	34	104	2548039680	60	47430
2026-01-26 00:38:11.78	339.74	0.73	-49.7	-62.5	3.5	1.52e+00	0	35	104	2548039680	60	47007
2026-01-26 00:38:15.82	339.77	0.48	-49.7	-62.6	3.5	1.52e+00	0	35	104	2548039680	60	47235
2026-01-26 00:38:19.86	339.81	0.24	-50.1	-63.0	3.5	1.51e+00	0	35	104	2548039680	60	49371
2026-01-26 00:38:23.90	339.85	-0.00	-50.3	-63.1	3.5	1.52e+00	0	35	104	2548039680	60	50290

#Closed at: 2026-01-26 00:38:26
#Recorded file [2548 MB]: D:/lorett/data/35029_260126_122250.dat