passes_logs/2026/01/26/R4.6S_Anadyr/R4.6S_Anadyr__20260126_113820_NOAA_20_JPSS-1_rec.log

#Pass ID: 20260126_113820_NOAA 20 (JPSS-1)
#Satellite: NOAA 20 (JPSS-1)
#Configuration: NOAA 20
#almurnet v.1.7.20251203
#Start time: 2026-01-26 11:38:21

#Version: 2.2.20231116
#Station: R4.6S_Anadyr
#Location: 177.4865 lon 64.73178 lat
#TLE: 1 43013U 17073A   26025.90277267  .00000170  00000+0  10165-3 0  9997
#TLE: 2 43013  98.7646 326.7276 0001032  23.5492 336.5731 14.19540457424285

#Time	Az	El	Level	Level2	SNR	BER	BlckErr	Temp	State	Recorded	gain1	gain2
2026-01-26 11:38:21.85	20.50	0.04	-41.7	-54.9	3.3	1.54e+00	0	24	0	0	58	25422
2026-01-26 11:38:24.88	20.78	0.16	-50.1	-65.4	3.6	1.51e+00	0	25	104	0	60	67191
2026-01-26 11:38:27.91	21.07	0.28	-49.5	-64.7	3.6	1.51e+00	0	25	104	0	60	61798
2026-01-26 11:38:30.94	21.36	0.41	-49.4	-64.5	3.6	1.51e+00	0	25	104	0	60	60942
2026-01-26 11:38:33.97	21.65	0.53	-49.4	-64.7	3.6	1.51e+00	0	25	104	0	60	61931
2026-01-26 11:38:37.00	21.95	0.65	-49.1	-64.2	3.6	1.51e+00	0	25	104	0	60	58699
2026-01-26 11:38:40.03	22.24	0.77	-48.7	-64.0	3.6	1.51e+00	0	25	104	0	60	57278
2026-01-26 11:38:43.06	22.54	0.90	-48.6	-63.8	3.6	1.51e+00	0	26	104	0	60	55835
2026-01-26 11:38:46.09	22.84	1.02	-48.1	-63.3	3.6	1.51e+00	0	25	104	0	60	52671
2026-01-26 11:38:49.12	23.14	1.14	-47.5	-62.6	3.6	1.51e+00	0	26	104	0	60	48953
2026-01-26 11:38:52.15	23.45	1.26	-47.5	-62.7	3.6	1.51e+00	0	26	104	0	60	49082
2026-01-26 11:38:55.18	23.76	1.38	-47.5	-62.6	3.6	1.51e+00	0	26	104	0	60	48956
2026-01-26 11:38:58.21	24.07	1.51	-47.5	-62.7	3.6	1.51e+00	0	26	104	0	60	49073
2026-01-26 11:39:01.24	24.38	1.63	-47.5	-62.7	3.6	1.51e+00	0	26	104	0	60	49304
2026-01-26 11:39:04.26	24.70	1.75	-47.5	-62.6	3.6	1.51e+00	0	26	104	0	60	48707
2026-01-26 11:39:07.29	25.01	1.87	-47.5	-62.6	3.6	1.51e+00	0	26	104	0	60	48732
2026-01-26 11:39:10.32	25.33	1.99	-47.5	-62.6	3.6	1.51e+00	0	26	104	0	60	48898
2026-01-26 11:39:13.35	25.66	2.11	-47.5	-62.6	3.6	1.51e+00	0	26	104	0	60	48973
2026-01-26 11:39:16.38	25.98	2.23	-47.5	-62.6	3.6	1.51e+00	0	26	104	0	60	48668
2026-01-26 11:39:19.41	26.31	2.35	-47.5	-62.6	3.6	1.51e+00	0	26	104	0	60	48532
2026-01-26 11:39:22.44	26.64	2.47	-47.5	-62.6	3.5	1.51e+00	0	26	104	0	60	48800
2026-01-26 11:39:25.47	26.97	2.59	-47.4	-60.9	3.6	1.51e+00	0	26	104	0	60	40043
2026-01-26 11:39:28.50	27.31	2.71	-47.4	-60.9	3.7	1.51e+00	0	26	104	0	60	40045
2026-01-26 11:39:31.53	27.64	2.83	-45.0	-48.7	13.0	9.15e-05	0	26	0	3145728	60	9800
2026-01-26 11:39:34.56	27.98	2.95	-43.6	-46.1	15.9	0.00e+00	0	26	0	9437184	60	7322
2026-01-26 11:39:37.58	28.33	3.07	-41.5	-43.1	18.3	1.50e+00	0	26	104	13631488	60	5182
2026-01-26 11:39:40.61	28.67	3.19	-42.3	-44.2	5.9	1.51e+00	45	26	104	14680064	60	5874
2026-01-26 11:39:43.64	29.02	3.30	-42.1	-43.9	17.7	0.00e+00	0	26	0	17825792	56	7105
2026-01-26 11:39:46.67	29.37	3.42	-42.3	-44.1	18.4	0.00e+00	0	26	0	24117248	56	7316
2026-01-26 11:39:49.70	29.73	3.54	-42.0	-43.7	17.6	0.00e+00	0	26	0	29360128	56	7004
2026-01-26 11:39:52.73	30.08	3.66	-41.9	-43.6	18.6	0.00e+00	0	26	0	35651584	56	6860
2026-01-26 11:39:55.76	30.44	3.77	-40.8	-42.2	19.6	0.00e+00	0	26	0	40894464	54	6595
2026-01-26 11:39:58.78	30.80	3.89	-40.9	-42.4	19.6	0.00e+00	0	26	0	46137344	54	6725
2026-01-26 11:40:01.81	31.17	4.01	-40.1	-41.4	20.6	0.00e+00	0	26	0	52428800	54	5975
2026-01-26 11:40:04.84	31.53	4.12	-40.2	-41.5	20.2	0.00e+00	0	26	0	57671680	54	6094
2026-01-26 11:40:07.87	31.90	4.24	-40.3	-41.7	20.2	0.00e+00	0	26	0	63963136	54	6195
2026-01-26 11:40:10.89	32.28	4.35	-39.8	-41.0	20.9	0.00e+00	0	26	0	69206016	52	6433
2026-01-26 11:40:13.92	32.65	4.46	-40.7	-42.1	20.0	0.00e+00	0	26	0	74448896	52	7270
2026-01-26 11:40:16.95	33.03	4.58	-39.6	-40.8	21.0	0.00e+00	0	26	0	80740352	52	6298
2026-01-26 11:40:19.98	33.41	4.69	-40.6	-41.9	19.9	0.00e+00	0	26	0	85983232	52	7144
2026-01-26 11:40:23.00	33.80	4.80	-40.5	-41.9	20.1	0.00e+00	0	26	0	92274688	54	6328
2026-01-26 11:40:26.03	34.18	4.92	-40.5	-41.9	19.9	0.00e+00	0	26	0	97517568	54	6346
2026-01-26 11:40:29.06	34.57	5.03	-40.6	-41.9	20.2	0.00e+00	0	26	0	102760448	54	6364
2026-01-26 11:40:32.09	34.97	5.14	-40.5	-41.8	20.2	0.00e+00	0	26	0	109051904	54	6302
2026-01-26 11:40:35.11	35.36	5.25	-40.5	-41.8	20.2	0.00e+00	0	26	0	114294784	54	6288
2026-01-26 11:40:38.13	35.76	5.36	-40.8	-42.2	19.8	0.00e+00	0	26	0	120586240	54	6595
2026-01-26 11:40:41.16	36.16	5.46	-40.5	-41.8	20.3	0.00e+00	0	26	0	125829120	54	6277
2026-01-26 11:40:44.19	36.56	5.57	-41.0	-42.4	19.9	0.00e+00	0	26	0	132120576	54	6723
2026-01-26 11:40:47.22	36.97	5.68	-40.1	-41.3	20.9	0.00e+00	0	26	0	137363456	54	5942
2026-01-26 11:40:50.25	37.38	5.79	-39.9	-41.1	21.0	0.00e+00	0	26	0	142606336	54	5827
2026-01-26 11:40:53.28	37.79	5.89	-40.5	-41.8	20.4	0.00e+00	0	26	0	148897792	54	6310
2026-01-26 11:40:56.30	38.21	6.00	-40.1	-41.4	20.8	0.00e+00	0	26	0	154140672	54	5988
2026-01-26 11:40:59.33	38.63	6.10	-40.1	-41.4	20.8	0.00e+00	0	26	0	160432128	54	5996
2026-01-26 11:41:02.36	39.05	6.20	-40.1	-41.3	20.7	0.00e+00	0	26	0	165675008	54	5954
2026-01-26 11:41:05.39	39.47	6.31	-39.8	-41.0	20.8	0.00e+00	0	26	0	170917888	54	5699
2026-01-26 11:41:08.42	39.90	6.41	-40.2	-41.5	20.8	0.00e+00	0	26	0	177209344	54	6047
2026-01-26 11:41:11.44	40.33	6.51	-40.0	-41.2	21.0	0.00e+00	0	26	0	182452224	52	6613
2026-01-26 11:41:14.47	40.76	6.61	-40.4	-41.7	20.5	0.00e+00	0	26	0	188743680	52	7000
2026-01-26 11:41:17.50	41.20	6.71	-40.6	-41.9	20.3	0.00e+00	0	26	0	193986560	52	7153
2026-01-26 11:41:20.53	41.64	6.80	-40.7	-42.1	20.1	0.00e+00	0	26	0	200278016	52	7276
2026-01-26 11:41:23.56	42.08	6.90	-40.2	-41.5	20.7	0.00e+00	0	26	0	205520896	54	6072
2026-01-26 11:41:26.58	42.52	7.00	-40.5	-41.8	20.4	0.00e+00	0	26	0	210763776	54	6248
2026-01-26 11:41:29.62	42.97	7.09	-40.3	-41.6	20.7	0.00e+00	0	26	0	217055232	54	6147
2026-01-26 11:41:32.64	43.42	7.18	-40.6	-41.9	20.5	0.00e+00	0	26	0	222298112	54	6326
2026-01-26 11:41:35.67	43.87	7.27	-40.8	-42.2	20.1	0.00e+00	0	26	0	228589568	54	6540
2026-01-26 11:41:38.70	44.33	7.37	-40.7	-42.0	20.3	0.00e+00	0	26	0	233832448	54	6458
2026-01-26 11:41:41.73	44.79	7.46	-40.5	-41.8	20.5	0.00e+00	0	26	0	239075328	54	6291
2026-01-26 11:41:44.76	45.25	7.54	-40.6	-41.9	20.4	0.00e+00	0	26	0	245366784	54	6364
2026-01-26 11:41:47.79	45.71	7.63	-40.5	-41.8	20.5	0.00e+00	0	26	0	250609664	54	6258
2026-01-26 11:41:50.82	46.18	7.72	-40.2	-41.5	20.8	0.00e+00	0	26	0	256901120	54	6050
2026-01-26 11:41:53.85	46.65	7.80	-40.5	-41.7	20.7	0.00e+00	0	26	0	262144000	54	6242
2026-01-26 11:41:56.88	47.12	7.88	-41.0	-42.3	20.2	0.00e+00	0	26	0	268435456	54	6681
2026-01-26 11:41:59.90	47.59	7.97	-40.7	-41.9	20.5	0.00e+00	0	26	0	273678336	54	6388
2026-01-26 11:42:02.93	48.07	8.05	-40.9	-42.2	20.2	0.00e+00	0	26	0	278921216	54	6597
2026-01-26 11:42:05.97	48.55	8.13	-40.5	-41.7	20.4	0.00e+00	0	26	0	285212672	54	6245
2026-01-26 11:42:09.00	49.03	8.20	-40.3	-41.6	20.8	0.00e+00	0	26	0	290455552	54	6107
2026-01-26 11:42:12.02	49.52	8.28	-40.6	-41.9	20.5	0.00e+00	0	26	0	296747008	54	6332
2026-01-26 11:42:15.05	50.00	8.35	-40.5	-41.8	20.6	0.00e+00	0	26	0	301989888	54	6280
2026-01-26 11:42:18.08	50.49	8.43	-40.6	-41.9	20.7	0.00e+00	0	26	0	307232768	54	6363
2026-01-26 11:42:21.10	50.98	8.50	-40.4	-41.6	20.8	0.00e+00	0	26	0	313524224	54	6162
2026-01-26 11:42:24.13	51.48	8.57	-40.4	-41.6	20.9	0.00e+00	0	26	0	318767104	54	6143
2026-01-26 11:42:27.15	51.97	8.63	-40.4	-41.6	20.9	0.00e+00	0	26	0	325058560	54	6128
2026-01-26 11:42:30.18	52.47	8.70	-40.2	-41.5	21.0	0.00e+00	0	26	0	330301440	54	6036
2026-01-26 11:42:33.21	52.97	8.77	-40.2	-41.4	21.0	0.00e+00	0	26	0	335544320	54	6033
2026-01-26 11:42:36.24	53.47	8.83	-40.2	-41.4	21.1	0.00e+00	0	26	0	341835776	54	5982
2026-01-26 11:42:39.27	53.98	8.89	-40.1	-41.3	21.0	0.00e+00	0	26	0	347078656	54	5950
2026-01-26 11:42:42.29	54.48	8.95	-40.2	-41.4	21.0	0.00e+00	0	26	0	353370112	54	6007
2026-01-26 11:42:45.32	54.99	9.01	-40.1	-41.3	21.1	0.00e+00	0	26	0	358612992	54	5941
2026-01-26 11:42:48.35	55.50	9.06	-40.1	-41.3	21.1	0.00e+00	0	26	0	364904448	54	5939
2026-01-26 11:42:51.38	56.01	9.12	-40.8	-42.1	20.4	0.00e+00	0	26	0	370147328	54	6483
2026-01-26 11:42:54.41	56.53	9.17	-40.3	-41.6	20.8	0.00e+00	0	26	0	375390208	54	6128
2026-01-26 11:42:57.43	57.04	9.22	-40.5	-41.8	20.7	0.00e+00	0	26	0	381681664	54	6269
2026-01-26 11:43:00.46	57.56	9.27	-40.6	-41.9	20.7	0.00e+00	0	26	0	386924544	54	6328
2026-01-26 11:43:03.49	58.08	9.31	-40.7	-42.0	20.4	0.00e+00	0	26	0	393216000	54	6434
2026-01-26 11:43:06.52	58.60	9.36	-40.6	-41.8	20.7	0.00e+00	0	26	0	398458880	54	6295
2026-01-26 11:43:09.54	59.12	9.40	-40.9	-42.3	20.2	0.00e+00	0	26	0	403701760	54	6629
2026-01-26 11:43:12.57	59.65	9.44	-41.4	-42.8	19.8	0.00e+00	0	26	0	409993216	54	7039
2026-01-26 11:43:15.59	60.17	9.48	-41.5	-43.0	19.5	0.00e+00	0	26	0	415236096	54	7213
2026-01-26 11:43:18.62	60.70	9.51	-41.5	-43.0	19.7	0.00e+00	0	26	0	421527552	56	6410
2026-01-26 11:43:21.65	61.23	9.55	-41.1	-42.5	20.2	0.00e+00	0	26	0	426770432	56	6036
2026-01-26 11:43:24.68	61.76	9.58	-40.9	-42.2	20.3	0.00e+00	0	26	0	433061888	56	5888
2026-01-26 11:43:27.70	62.29	9.61	-41.1	-42.5	20.1	0.00e+00	0	26	0	438304768	56	6048
2026-01-26 11:43:30.73	62.82	9.64	-41.6	-43.1	19.5	0.00e+00	0	26	0	443547648	56	6512
2026-01-26 11:43:33.76	63.35	9.67	-41.1	-42.4	20.1	0.00e+00	0	26	0	449839104	56	6033
2026-01-26 11:43:36.79	63.88	9.69	-40.5	-41.8	20.7	0.00e+00	0	26	0	455081984	54	6264
2026-01-26 11:43:39.82	64.42	9.71	-40.8	-42.2	20.3	0.00e+00	0	26	0	461373440	54	6571
2026-01-26 11:43:42.84	64.95	9.73	-40.7	-42.0	20.5	0.00e+00	0	26	0	466616320	54	6453
2026-01-26 11:43:45.87	65.49	9.75	-40.7	-42.0	20.5	0.00e+00	0	26	0	471859200	54	6436
2026-01-26 11:43:48.90	66.02	9.76	-40.5	-41.7	20.8	0.00e+00	0	26	0	478150656	54	6238
2026-01-26 11:43:51.93	66.56	9.78	-40.5	-41.7	20.7	0.00e+00	0	26	0	483393536	54	6237
2026-01-26 11:43:54.95	67.10	9.79	-40.7	-42.0	20.7	0.00e+00	0	26	0	489684992	54	6398
2026-01-26 11:43:57.98	67.63	9.79	-40.0	-41.2	21.4	0.00e+00	0	26	0	494927872	54	5833
2026-01-26 11:44:01.01	68.17	9.80	-39.8	-40.9	21.5	0.00e+00	0	26	0	500170752	52	6388
2026-01-26 11:44:04.04	68.71	9.81	-39.7	-40.9	21.6	0.00e+00	0	26	0	506462208	52	6326
2026-01-26 11:44:07.06	69.25	9.81	-40.0	-41.2	21.2	0.00e+00	0	26	0	511705088	52	6561
2026-01-26 11:44:10.09	69.79	9.81	-39.8	-40.9	21.5	0.00e+00	0	26	0	517996544	52	6354
2026-01-26 11:44:13.11	70.32	9.80	-39.3	-40.4	22.0	0.00e+00	0	26	0	523239424	52	5992
2026-01-26 11:44:16.14	70.86	9.80	-39.1	-40.2	22.2	0.00e+00	0	26	0	529530880	52	5836
2026-01-26 11:44:19.17	71.40	9.79	-39.1	-40.2	22.0	0.00e+00	0	26	0	534773760	52	5838
2026-01-26 11:44:22.20	71.94	9.78	-39.3	-40.3	22.0	0.00e+00	0	26	0	540016640	52	5940
2026-01-26 11:44:25.23	72.47	9.77	-39.2	-40.3	22.1	0.00e+00	0	27	0	546308096	52	5907
2026-01-26 11:44:28.25	73.01	9.76	-39.1	-40.2	22.2	0.00e+00	0	26	0	551550976	52	5863
2026-01-26 11:44:31.28	73.55	9.74	-39.0	-40.0	22.3	0.00e+00	0	26	0	557842432	52	5736
2026-01-26 11:44:34.31	74.08	9.73	-39.0	-40.2	22.3	0.00e+00	0	26	0	563085312	52	5832
2026-01-26 11:44:37.34	74.62	9.71	-39.4	-40.6	21.5	0.00e+00	0	26	0	568328192	52	6167
2026-01-26 11:44:40.37	75.15	9.68	-39.3	-40.6	21.7	0.00e+00	0	26	0	574619648	52	6159
2026-01-26 11:44:43.40	75.69	9.66	-39.1	-40.4	22.1	0.00e+00	0	26	0	579862528	52	5972
2026-01-26 11:44:46.43	76.22	9.63	-38.8	-40.1	22.3	0.00e+00	0	26	0	586153984	52	5811
2026-01-26 11:44:49.45	76.75	9.61	-39.0	-40.2	22.1	0.00e+00	0	26	0	591396864	52	5884
2026-01-26 11:44:52.48	77.28	9.57	-39.2	-40.5	22.0	0.00e+00	0	26	0	597688320	52	6038
2026-01-26 11:44:55.51	77.81	9.54	-39.2	-40.5	21.9	0.00e+00	0	26	0	602931200	52	6036
2026-01-26 11:44:58.53	78.34	9.51	-39.5	-40.9	21.5	0.00e+00	0	26	0	608174080	52	6347
2026-01-26 11:45:01.56	78.87	9.47	-39.5	-40.8	21.6	0.00e+00	0	26	0	614465536	52	6302
2026-01-26 11:45:04.59	79.39	9.43	-39.2	-40.4	22.0	0.00e+00	0	26	0	619708416	52	6010
2026-01-26 11:45:07.62	79.92	9.39	-39.1	-40.2	22.2	0.00e+00	0	26	0	625999872	52	5875
2026-01-26 11:45:10.65	80.44	9.35	-39.4	-40.5	21.9	0.00e+00	0	26	0	631242752	52	6072
2026-01-26 11:45:13.68	80.96	9.30	-39.5	-40.6	21.9	0.00e+00	0	26	0	636485632	52	6123
2026-01-26 11:45:16.71	81.48	9.26	-39.5	-40.6	21.7	0.00e+00	0	26	0	642777088	52	6130
2026-01-26 11:45:19.74	82.00	9.21	-39.3	-40.4	21.9	0.00e+00	0	26	0	648019968	52	6012
2026-01-26 11:45:22.76	82.52	9.16	-38.9	-40.0	22.3	0.00e+00	0	26	0	654311424	52	5727
2026-01-26 11:45:25.79	83.03	9.10	-38.9	-39.9	22.3	0.00e+00	0	26	0	659554304	52	5662
2026-01-26 11:45:28.82	83.55	9.05	-38.8	-39.8	22.5	0.00e+00	0	26	0	665845760	52	5582
2026-01-26 11:45:31.85	84.06	8.99	-38.8	-39.8	22.5	0.00e+00	0	26	0	671088640	50	6304
2026-01-26 11:45:34.88	84.57	8.93	-38.7	-39.7	22.4	0.00e+00	0	26	0	676331520	50	6239
2026-01-26 11:45:37.91	85.08	8.87	-39.1	-40.2	22.1	0.00e+00	0	26	0	682622976	50	6547
2026-01-26 11:45:40.94	85.58	8.81	-39.1	-40.1	22.0	0.00e+00	0	26	0	687865856	50	6537
2026-01-26 11:45:43.96	86.08	8.75	-39.2	-40.3	22.0	0.00e+00	0	26	0	694157312	50	6674
2026-01-26 11:45:46.99	86.59	8.68	-39.1	-40.2	22.1	0.00e+00	0	26	0	699400192	50	6606
2026-01-26 11:45:50.02	87.09	8.62	-39.0	-40.0	22.3	0.00e+00	0	26	0	704643072	50	6460
2026-01-26 11:45:53.05	87.58	8.55	-38.9	-39.9	22.3	0.00e+00	0	26	0	710934528	50	6347
2026-01-26 11:45:56.08	88.08	8.48	-38.9	-40.0	22.3	0.00e+00	0	26	0	716177408	50	6398
2026-01-26 11:45:59.11	88.57	8.40	-39.5	-40.6	21.7	0.00e+00	0	26	0	722468864	50	6879
2026-01-26 11:46:02.14	89.06	8.33	-39.5	-40.7	21.6	0.00e+00	0	26	0	727711744	50	6947
2026-01-26 11:46:05.17	89.55	8.26	-39.4	-40.5	21.8	0.00e+00	0	26	0	734003200	52	6053
2026-01-26 11:46:08.19	90.03	8.18	-39.3	-40.5	21.9	0.00e+00	0	26	0	739246080	52	6088
2026-01-26 11:46:11.22	90.52	8.10	-39.4	-40.6	21.7	0.00e+00	0	26	0	744488960	52	6132
2026-01-26 11:46:14.24	90.99	8.02	-39.6	-40.8	21.5	0.00e+00	0	26	0	750780416	52	6248
2026-01-26 11:46:17.27	91.47	7.94	-39.7	-41.0	21.3	0.00e+00	0	27	0	756023296	52	6461
2026-01-26 11:46:20.30	91.95	7.86	-39.8	-41.7	20.7	0.00e+00	0	26	0	762314752	52	6952
2026-01-26 11:46:23.33	92.42	7.77	-40.7	-42.4	20.0	0.00e+00	0	26	0	767557632	54	6743
2026-01-26 11:46:26.36	92.89	7.69	-41.1	-42.9	19.4	0.00e+00	0	26	0	772800512	54	7155
2026-01-26 11:46:29.38	93.36	7.60	-40.9	-42.6	19.8	0.00e+00	0	27	0	779091968	54	6866
2026-01-26 11:46:32.41	93.82	7.51	-40.9	-42.3	20.0	0.00e+00	0	26	0	784334848	54	6655
2026-01-26 11:46:35.44	94.28	7.42	-40.9	-42.4	20.0	0.00e+00	0	26	0	790626304	54	6715
2026-01-26 11:46:38.47	94.74	7.33	-40.7	-42.2	20.1	0.00e+00	0	26	0	795869184	54	6559
2026-01-26 11:46:41.49	95.20	7.24	-40.9	-42.6	19.8	0.00e+00	0	26	0	801112064	54	6888
2026-01-26 11:46:44.52	95.65	7.15	-41.2	-43.4	19.0	0.00e+00	0	26	0	807403520	54	7530
2026-01-26 11:46:47.55	96.10	7.05	-41.2	-44.1	18.3	0.00e+00	0	26	0	812646400	54	8173
2026-01-26 11:46:50.58	96.55	6.96	-42.2	-44.6	17.9	0.00e+00	0	26	0	818937856	56	7752
2026-01-26 11:46:53.61	97.00	6.86	-42.7	-44.6	17.8	0.00e+00	0	26	0	824180736	56	7716
2026-01-26 11:46:56.64	97.44	6.77	-42.4	-44.2	18.0	0.00e+00	0	26	0	830472192	58	6560
2026-01-26 11:46:59.66	97.88	6.67	-42.1	-43.9	18.3	0.00e+00	0	26	0	835715072	58	6318
2026-01-26 11:47:02.69	98.32	6.57	-42.0	-43.9	18.5	0.00e+00	0	26	0	840957952	58	6368
2026-01-26 11:47:05.72	98.75	6.47	-41.8	-44.1	18.4	0.00e+00	0	26	0	847249408	56	7259
2026-01-26 11:47:08.75	99.18	6.37	-41.8	-44.4	18.0	0.00e+00	0	26	0	852492288	56	7551
2026-01-26 11:47:11.77	99.61	6.26	-41.9	-43.9	18.4	0.00e+00	0	26	0	858783744	56	7159
2026-01-26 11:47:14.80	100.03	6.16	-41.4	-43.0	19.4	0.00e+00	0	26	0	864026624	56	6459
2026-01-26 11:47:17.83	100.46	6.06	-41.6	-43.2	19.0	0.00e+00	0	26	0	869269504	56	6561
2026-01-26 11:47:20.86	100.88	5.95	-41.7	-43.6	18.6	0.00e+00	0	26	0	875560960	56	6853
2026-01-26 11:47:23.88	101.29	5.85	-41.8	-43.7	18.6	0.00e+00	0	27	0	880803840	56	6996
2026-01-26 11:47:26.91	101.70	5.74	-41.6	-43.3	18.7	0.00e+00	0	26	0	887095296	56	6639
2026-01-26 11:47:29.94	102.12	5.63	-40.8	-42.5	19.5	0.00e+00	0	26	0	892338176	56	6045
2026-01-26 11:47:32.97	102.52	5.52	-41.3	-43.1	19.0	0.00e+00	0	26	0	898629632	56	6508
2026-01-26 11:47:36.00	102.93	5.41	-40.7	-43.1	18.9	0.00e+00	0	26	0	903872512	54	7288
2026-01-26 11:47:39.03	103.33	5.30	-40.8	-42.7	19.3	0.00e+00	0	26	0	909115392	54	6943
2026-01-26 11:47:42.06	103.73	5.19	-40.6	-42.3	19.7	0.00e+00	0	26	0	915406848	54	6673
2026-01-26 11:47:45.08	104.13	5.08	-40.8	-42.6	19.4	0.00e+00	0	26	0	920649728	54	6897
2026-01-26 11:47:48.11	104.52	4.97	-39.7	-42.9	19.1	0.00e+00	0	26	0	926941184	52	7985
2026-01-26 11:47:51.14	104.91	4.86	-41.2	-43.0	18.9	0.00e+00	0	26	0	932184064	54	7234
2026-01-26 11:47:54.17	105.30	4.74	-40.7	-42.9	19.1	0.00e+00	0	26	0	937426944	54	7098
2026-01-26 11:47:57.20	105.68	4.63	-40.3	-41.9	20.0	0.00e+00	0	26	0	943718400	54	6355
2026-01-26 11:48:00.23	106.06	4.52	-40.4	-42.0	19.7	0.00e+00	0	26	0	948961280	54	6416
2026-01-26 11:48:03.26	106.44	4.40	-40.2	-42.0	19.7	0.00e+00	0	26	0	955252736	54	6392
2026-01-26 11:48:06.29	106.82	4.29	-40.0	-42.0	19.7	0.00e+00	0	26	0	960495616	54	6423
2026-01-26 11:48:09.31	107.19	4.17	-39.1	-42.2	19.4	0.00e+00	0	26	0	965738496	52	7372
2026-01-26 11:48:12.34	107.56	4.05	-39.8	-42.5	19.3	0.00e+00	0	27	0	972029952	52	7614
2026-01-26 11:48:15.38	107.93	3.94	-40.5	-43.0	18.5	0.00e+00	0	26	0	977272832	52	8074
2026-01-26 11:48:18.40	108.30	3.82	-41.1	-43.3	18.0	0.00e+00	0	26	0	983564288	54	7450
2026-01-26 11:48:21.43	108.66	3.70	-41.4	-43.2	18.2	0.00e+00	0	27	0	988807168	54	7350
2026-01-26 11:48:24.46	109.02	3.59	-40.8	-43.3	17.9	0.00e+00	0	26	0	995098624	54	7472
2026-01-26 11:48:27.49	109.37	3.47	-40.9	-42.6	18.5	0.00e+00	0	27	0	1000341504	54	6902
2026-01-26 11:48:30.51	109.73	3.35	-40.5	-43.0	18.0	0.00e+00	0	26	0	1005584384	54	7217
2026-01-26 11:48:33.54	110.08	3.23	-41.5	-43.5	17.5	0.00e+00	0	27	0	1011875840	54	7643
2026-01-26 11:48:36.57	110.43	3.11	-40.0	-43.6	17.0	0.00e+00	0	27	0	1017118720	54	7689
2026-01-26 11:48:39.60	110.77	2.99	-47.1	-62.2	3.6	0.00e+00	0	26	104	1022361600	60	46597
2026-01-26 11:48:42.63	111.12	2.87	-48.5	-63.9	3.6	1.51e+00	0	26	104	1022361600	60	56328
2026-01-26 11:48:45.66	111.46	2.75	-48.5	-64.1	3.6	1.51e+00	0	27	104	1022361600	60	58104
2026-01-26 11:48:48.69	111.79	2.63	-48.5	-64.2	3.6	1.51e+00	0	27	104	1022361600	60	58316
2026-01-26 11:48:51.72	112.13	2.51	-48.9	-64.2	3.6	1.51e+00	0	27	104	1022361600	60	58744
2026-01-26 11:48:54.75	112.46	2.39	-49.0	-64.2	3.6	1.51e+00	0	27	104	1022361600	60	58787
2026-01-26 11:48:57.78	112.79	2.26	-49.0	-64.3	3.5	1.51e+00	0	27	104	1022361600	60	59030
2026-01-26 11:49:00.81	113.12	2.14	-49.1	-64.4	3.6	1.51e+00	0	27	104	1022361600	60	59670
2026-01-26 11:49:03.84	113.44	2.02	-49.1	-64.3	3.6	1.51e+00	0	26	104	1022361600	60	59524
2026-01-26 11:49:06.87	113.77	1.90	-49.1	-64.3	3.6	1.51e+00	0	27	104	1022361600	60	59540
2026-01-26 11:49:09.90	114.09	1.78	-49.3	-64.5	3.6	1.51e+00	0	27	104	1022361600	60	60689
2026-01-26 11:49:12.93	114.40	1.65	-49.5	-64.7	3.6	1.51e+00	0	27	104	1022361600	60	62232
2026-01-26 11:49:15.96	114.72	1.53	-49.8	-64.9	3.6	1.51e+00	0	27	104	1022361600	60	63855
2026-01-26 11:49:19.00	115.03	1.41	-50.0	-65.1	3.6	1.51e+00	0	27	104	1022361600	60	65026
2026-01-26 11:49:22.03	115.34	1.29	-50.2	-65.4	3.6	1.51e+00	0	27	104	1022361600	60	67444
2026-01-26 11:49:25.06	115.65	1.16	-50.9	-66.0	3.6	1.51e+00	0	27	104	1022361600	60	72351
2026-01-26 11:49:28.09	115.95	1.04	-50.4	-65.6	3.6	1.51e+00	0	27	104	1022361600	60	68819
2026-01-26 11:49:31.12	116.26	0.92	-50.2	-65.4	3.6	1.51e+00	0	27	104	1022361600	60	66923
2026-01-26 11:49:34.15	116.56	0.79	-50.9	-66.0	3.6	1.51e+00	0	27	104	1022361600	60	72504
2026-01-26 11:49:37.18	116.85	0.67	-49.4	-64.6	3.6	1.51e+00	0	27	104	1022361600	60	61598
2026-01-26 11:49:40.21	117.15	0.55	-49.6	-64.8	3.6	1.51e+00	0	27	104	1022361600	60	62687
2026-01-26 11:49:43.24	117.44	0.42	-49.7	-64.9	3.6	1.51e+00	0	27	104	1022361600	60	63562
2026-01-26 11:49:46.27	117.73	0.30	-49.4	-64.6	3.6	1.51e+00	0	27	104	1022361600	60	61456
2026-01-26 11:49:49.30	118.02	0.17	-50.2	-65.4	3.6	1.51e+00	0	27	104	1022361600	60	67121
2026-01-26 11:49:52.33	118.31	0.05	-50.5	-65.6	3.6	1.51e+00	0	27	104	1022361600	60	69232
2026-01-26 11:49:55.36	118.59	-0.07	-50.5	-65.7	3.6	1.51e+00	0	27	104	1022361600	60	69651

#Closed at: 2026-01-26 11:49:55
#Recorded file [1022 MB]: D:/lorett/data/35029_260126_233821.dat