passes_logs/2026/01/26/R4.6S_Anadyr/R4.6S_Anadyr__20260126_163920_NOAA_20_JPSS-1_rec.log

#Pass ID: 20260126_163920_NOAA 20 (JPSS-1)
#Satellite: NOAA 20 (JPSS-1)
#Configuration: NOAA 20
#almurnet v.1.7.20251203
#Start time: 2026-01-26 16:39:21

#Version: 2.2.20231116
#Station: R4.6S_Anadyr
#Location: 177.4865 lon 64.73178 lat
#TLE: 1 43013U 17073A   26025.90277267  .00000170  00000+0  10165-3 0  9997
#TLE: 2 43013  98.7646 326.7276 0001032  23.5492 336.5731 14.19540457424285

#Time	Az	El	Level	Level2	SNR	BER	BlckErr	Temp	State	Recorded	gain1	gain2
2026-01-26 16:39:21.88	27.11	0.11	-49.6	-64.6	3.4	1.51e+00	0	26	0	0	60	61212
2026-01-26 16:39:25.92	26.93	0.33	-49.6	-64.8	3.6	1.51e+00	0	28	104	0	60	62835
2026-01-26 16:39:29.96	26.75	0.56	-49.5	-64.7	3.6	1.51e+00	0	28	104	0	60	62333
2026-01-26 16:39:33.99	26.56	0.79	-49.4	-64.6	3.6	1.51e+00	0	28	104	0	60	61151
2026-01-26 16:39:38.03	26.38	1.02	-49.2	-64.4	3.6	1.51e+00	0	28	104	0	60	59919
2026-01-26 16:39:42.07	26.18	1.26	-48.9	-64.1	3.6	1.51e+00	0	28	104	0	60	57850
2026-01-26 16:39:46.12	25.99	1.49	-48.1	-63.3	3.6	1.51e+00	0	28	104	0	60	52732
2026-01-26 16:39:50.16	25.79	1.73	-48.0	-63.2	3.6	1.51e+00	0	28	104	0	60	52372
2026-01-26 16:39:54.19	25.59	1.97	-48.1	-63.2	3.6	1.51e+00	0	28	104	0	60	52472
2026-01-26 16:39:58.24	25.38	2.21	-48.0	-63.1	3.6	1.51e+00	0	28	104	0	60	51837
2026-01-26 16:40:02.28	25.17	2.45	-48.0	-63.2	3.6	1.51e+00	0	28	104	0	60	52094
2026-01-26 16:40:06.31	24.96	2.69	-48.0	-63.2	3.6	1.51e+00	0	28	104	0	60	51956
2026-01-26 16:40:10.35	24.74	2.94	-48.0	-62.2	3.6	1.51e+00	0	28	104	0	60	46617
2026-01-26 16:40:14.39	24.52	3.18	-47.9	-60.8	3.7	1.51e+00	0	28	104	0	60	39757
2026-01-26 16:40:18.43	24.30	3.43	-45.6	-49.3	12.9	1.79e-04	65	28	0	4194304	60	10564
2026-01-26 16:40:22.46	24.07	3.68	-43.5	-45.7	17.3	1.11e-03	92	28	0	9437184	60	6948
2026-01-26 16:40:26.50	23.83	3.93	-44.9	-48.0	14.4	0.00e+00	0	28	0	12582912	60	9085
2026-01-26 16:40:30.54	23.60	4.19	-43.1	-45.0	17.3	0.00e+00	17	28	0	19922944	60	6458
2026-01-26 16:40:34.57	23.35	4.44	-43.3	-45.4	17.6	0.00e+00	64	28	0	28311552	60	6749
2026-01-26 16:40:38.61	23.11	4.70	-41.8	-43.3	19.2	0.00e+00	3	29	0	35651584	56	6677
2026-01-26 16:40:42.64	22.86	4.96	-41.4	-42.9	19.7	0.00e+00	0	28	0	42991616	56	6329
2026-01-26 16:40:46.68	22.60	5.22	-41.7	-43.2	19.4	0.00e+00	62	28	0	50331648	56	6566
2026-01-26 16:40:50.72	22.34	5.49	-41.6	-43.0	19.7	0.00e+00	90	28	0	58720256	56	6446
2026-01-26 16:40:54.75	22.07	5.75	-41.2	-42.6	20.0	0.00e+00	6	28	0	66060288	56	6147
2026-01-26 16:40:58.79	21.80	6.02	-41.4	-42.7	20.0	0.00e+00	5	29	0	73400320	56	6237
2026-01-26 16:41:02.83	21.53	6.29	-41.2	-42.5	20.2	0.00e+00	0	29	0	80740352	56	6096
2026-01-26 16:41:06.86	21.24	6.56	-41.7	-43.1	19.6	0.00e+00	92	28	0	88080384	56	6498
2026-01-26 16:41:10.90	20.96	6.84	-41.5	-42.9	19.9	0.00e+00	23	28	0	96468992	56	6337
2026-01-26 16:41:14.94	20.66	7.11	-41.4	-42.8	19.9	0.00e+00	22	28	0	103809024	56	6247
2026-01-26 16:41:18.97	20.36	7.39	-41.3	-42.7	20.1	0.00e+00	0	28	0	111149056	56	6200
2026-01-26 16:41:23.00	20.06	7.67	-41.1	-42.4	20.4	0.00e+00	92	28	0	118489088	56	5984
2026-01-26 16:41:27.04	19.75	7.96	-41.0	-42.3	20.5	0.00e+00	59	29	0	126877696	56	5921
2026-01-26 16:41:31.08	19.43	8.24	-40.7	-41.9	20.7	0.00e+00	20	28	0	134217728	54	6390
2026-01-26 16:41:35.11	19.10	8.53	-40.6	-41.8	20.9	0.00e+00	2	28	0	141557760	54	6310
2026-01-26 16:41:39.15	18.77	8.82	-40.5	-41.7	21.1	0.00e+00	90	29	0	148897792	54	6209
2026-01-26 16:41:43.19	18.43	9.11	-40.5	-41.7	21.1	0.00e+00	0	29	0	156237824	54	6236
2026-01-26 16:41:47.22	18.09	9.41	-40.3	-41.5	21.3	0.00e+00	3	29	0	164626432	54	6080
2026-01-26 16:41:51.26	17.73	9.70	-40.2	-41.4	21.5	0.00e+00	0	29	0	171966464	54	5969
2026-01-26 16:41:55.30	17.37	10.01	-40.2	-41.3	21.6	0.00e+00	11	29	0	179306496	54	5939
2026-01-26 16:41:59.33	17.00	10.31	-40.2	-41.3	21.6	0.00e+00	2	29	0	186646528	54	5911
2026-01-26 16:42:03.37	16.63	10.61	-40.3	-41.4	21.4	0.00e+00	0	29	0	195035136	54	6023
2026-01-26 16:42:07.41	16.24	10.92	-40.1	-41.2	21.7	0.00e+00	66	29	0	202375168	54	5843
2026-01-26 16:42:11.45	15.85	11.23	-40.0	-41.1	21.8	0.00e+00	0	29	0	209715200	54	5769
2026-01-26 16:42:15.49	15.45	11.54	-39.9	-40.9	21.9	0.00e+00	16	29	0	217055232	54	5693
2026-01-26 16:42:19.52	15.04	11.86	-39.9	-40.9	22.0	0.00e+00	2	29	0	224395264	54	5691
2026-01-26 16:42:23.56	14.61	12.18	-40.2	-41.4	21.7	0.00e+00	90	29	0	232783872	54	5967
2026-01-26 16:42:27.60	14.18	12.50	-39.9	-41.0	22.0	0.00e+00	0	29	0	240123904	54	5728
2026-01-26 16:42:31.63	13.75	12.82	-39.8	-40.9	22.1	0.00e+00	58	29	0	247463936	54	5645
2026-01-26 16:42:35.67	13.29	13.15	-39.8	-40.9	22.1	0.00e+00	0	29	0	254803968	52	6340
2026-01-26 16:42:39.71	12.83	13.48	-40.0	-41.0	21.9	0.00e+00	92	29	0	263192576	52	6455
2026-01-26 16:42:43.74	12.36	13.81	-40.0	-41.1	21.8	0.00e+00	5	29	0	270532608	52	6516
2026-01-26 16:42:47.78	11.88	14.14	-40.1	-41.2	21.8	0.00e+00	0	29	0	277872640	52	6543
2026-01-26 16:42:51.82	11.39	14.48	-40.1	-41.2	21.9	0.00e+00	64	29	0	285212672	52	6593
2026-01-26 16:42:55.85	10.88	14.81	-39.9	-41.0	22.1	0.00e+00	90	29	0	292552704	52	6436
2026-01-26 16:42:59.89	10.37	15.15	-39.8	-40.8	22.3	0.00e+00	26	29	0	300941312	52	6277
2026-01-26 16:43:03.93	9.84	15.50	-39.8	-40.8	22.3	0.00e+00	6	29	0	308281344	52	6301
2026-01-26 16:43:07.97	9.29	15.84	-39.7	-40.7	22.3	0.00e+00	0	29	0	315621376	52	6218
2026-01-26 16:43:12.00	8.74	16.19	-39.8	-40.8	22.3	0.00e+00	92	29	0	322961408	52	6284
2026-01-26 16:43:16.04	8.17	16.54	-39.7	-40.7	22.4	0.00e+00	66	29	0	330301440	52	6234
2026-01-26 16:43:20.07	7.59	16.89	-39.3	-40.3	22.8	0.00e+00	15	29	0	338690048	52	5900
2026-01-26 16:43:24.11	6.99	17.24	-39.1	-40.1	23.0	0.00e+00	0	29	0	346030080	52	5790
2026-01-26 16:43:28.14	6.38	17.60	-39.1	-40.1	22.9	0.00e+00	90	29	0	353370112	52	5812
2026-01-26 16:43:32.17	5.76	17.96	-39.3	-40.3	22.0	0.00e+00	0	29	0	360710144	52	5899
2026-01-26 16:43:36.21	5.12	18.31	-39.3	-40.2	22.8	0.00e+00	67	29	0	369098752	52	5889
2026-01-26 16:43:40.24	4.46	18.67	-39.0	-39.9	23.2	0.00e+00	0	29	0	376438784	52	5683
2026-01-26 16:43:44.28	3.79	19.04	-38.9	-39.9	23.2	0.00e+00	92	29	0	383778816	52	5634
2026-01-26 16:43:48.32	3.10	19.40	-38.7	-39.6	23.5	0.00e+00	0	29	0	391118848	50	6120
2026-01-26 16:43:52.36	2.40	19.76	-39.1	-40.1	23.0	0.00e+00	0	29	0	398458880	50	6491
2026-01-26 16:43:56.39	1.67	20.12	-39.2	-40.2	22.8	0.00e+00	0	29	0	406847488	50	6583
2026-01-26 16:44:00.43	0.93	20.49	-39.4	-40.4	22.6	0.00e+00	91	29	0	414187520	50	6753
2026-01-26 16:44:04.47	0.17	20.85	-39.7	-40.8	22.4	0.00e+00	69	29	0	421527552	52	6252
2026-01-26 16:44:08.51	359.40	21.22	-39.3	-40.3	22.9	0.00e+00	12	29	0	428867584	52	5906
2026-01-26 16:44:12.55	358.60	21.58	-39.0	-40.0	23.2	0.00e+00	92	29	0	437256192	52	5706
2026-01-26 16:44:16.59	357.79	21.94	-38.7	-39.7	23.4	0.00e+00	2	29	0	444596224	50	6179
2026-01-26 16:44:20.63	356.95	22.30	-38.5	-39.3	23.6	0.00e+00	0	29	0	451936256	50	5961
2026-01-26 16:44:24.66	356.10	22.66	-38.6	-39.5	23.5	0.00e+00	12	29	0	459276288	50	6080
2026-01-26 16:44:28.70	355.22	23.02	-38.3	-39.2	23.7	0.00e+00	92	29	0	466616320	50	5893
2026-01-26 16:44:32.74	354.33	23.38	-38.2	-39.1	23.8	0.00e+00	6	29	0	475004928	50	5799
2026-01-26 16:44:36.78	353.41	23.73	-38.2	-39.1	24.0	0.00e+00	6	29	0	482344960	50	5783
2026-01-26 16:44:40.81	352.47	24.08	-37.7	-38.6	24.3	0.00e+00	67	29	0	489684992	48	6119
2026-01-26 16:44:44.84	351.52	24.42	-37.7	-38.6	24.3	0.00e+00	91	29	0	497025024	48	6105
2026-01-26 16:44:48.88	350.54	24.76	-37.7	-38.6	24.3	0.00e+00	19	29	0	504365056	48	6142
2026-01-26 16:44:52.93	349.53	25.10	-37.8	-38.6	24.3	0.00e+00	6	29	0	512753664	48	6139
2026-01-26 16:44:56.97	348.51	25.43	-38.3	-39.2	23.8	0.00e+00	0	29	0	520093696	48	6588
2026-01-26 16:45:01.00	347.47	25.75	-38.4	-39.3	23.8	0.00e+00	92	29	0	527433728	48	6646
2026-01-26 16:45:05.04	346.40	26.07	-38.6	-39.5	23.6	0.00e+00	0	29	0	534773760	48	6817
2026-01-26 16:45:09.08	345.31	26.38	-38.7	-39.6	23.3	0.00e+00	11	29	0	543162368	50	6111
2026-01-26 16:45:13.12	344.21	26.68	-39.1	-40.0	23.2	0.00e+00	0	29	0	550502400	50	6437
2026-01-26 16:45:17.15	343.08	26.97	-39.2	-40.2	23.0	0.00e+00	91	29	0	557842432	50	6576
2026-01-26 16:45:21.19	341.93	27.25	-39.5	-40.5	22.6	0.00e+00	0	29	0	565182464	50	6836
2026-01-26 16:45:25.23	340.76	27.52	-38.9	-39.9	23.3	0.00e+00	69	29	0	572522496	50	6334
2026-01-26 16:45:29.26	339.57	27.78	-38.9	-39.9	23.3	0.00e+00	0	29	0	580911104	50	6338
2026-01-26 16:45:33.30	338.36	28.03	-38.8	-39.7	23.4	0.00e+00	90	29	0	588251136	50	6228
2026-01-26 16:45:37.33	337.13	28.27	-38.8	-39.7	23.5	0.00e+00	2	29	0	595591168	50	6201
2026-01-26 16:45:41.37	335.88	28.50	-39.1	-40.1	23.2	0.00e+00	0	29	0	602931200	50	6507
2026-01-26 16:45:45.41	334.62	28.71	-39.0	-40.0	23.1	0.00e+00	34	29	0	611319808	50	6421
2026-01-26 16:45:49.44	333.34	28.90	-39.6	-40.6	22.6	0.00e+00	12	29	0	618659840	50	6862
2026-01-26 16:45:53.48	332.04	29.08	-39.6	-40.6	22.7	0.00e+00	68	29	0	625999872	52	6150
2026-01-26 16:45:57.52	330.73	29.25	-39.7	-40.7	22.6	0.00e+00	13	29	0	633339904	52	6196
2026-01-26 16:46:01.55	329.41	29.40	-39.7	-40.7	22.5	0.00e+00	92	29	0	640679936	52	6214
2026-01-26 16:46:05.59	328.07	29.53	-39.9	-40.9	22.6	0.00e+00	0	29	0	649068544	52	6364
2026-01-26 16:46:09.63	326.73	29.65	-39.5	-40.4	22.9	0.00e+00	0	29	0	656408576	52	6002
2026-01-26 16:46:13.67	325.37	29.75	-39.7	-40.6	22.7	0.00e+00	69	29	0	663748608	52	6171
2026-01-26 16:46:17.71	324.01	29.83	-40.5	-41.6	21.9	0.00e+00	91	29	0	671088640	52	6885
2026-01-26 16:46:21.75	322.64	29.89	-40.2	-41.2	22.3	0.00e+00	0	29	0	679477248	52	6596
2026-01-26 16:46:25.78	321.27	29.94	-40.7	-41.8	21.7	0.00e+00	0	29	0	686817280	54	6317
2026-01-26 16:46:29.81	319.90	29.96	-40.8	-41.9	21.6	0.00e+00	67	29	0	694157312	54	6361
2026-01-26 16:46:33.84	318.52	29.97	-41.0	-42.1	21.3	0.00e+00	91	29	0	701497344	54	6532
2026-01-26 16:46:37.88	317.14	29.96	-41.1	-42.3	21.6	0.00e+00	67	29	0	708837376	54	6624
2026-01-26 16:46:41.92	315.76	29.93	-40.6	-41.7	21.8	0.00e+00	0	29	0	717225984	54	6221
2026-01-26 16:46:45.96	314.39	29.88	-40.2	-41.3	22.3	0.00e+00	5	29	0	724566016	54	5924
2026-01-26 16:46:49.99	313.02	29.82	-40.0	-41.1	22.3	0.00e+00	91	29	0	731906048	54	5771
2026-01-26 16:46:54.02	311.67	29.73	-39.8	-40.8	22.5	0.00e+00	0	29	0	739246080	52	6314
2026-01-26 16:46:58.06	310.31	29.63	-39.6	-40.5	23.0	0.00e+00	19	29	0	746586112	52	6087
2026-01-26 16:47:02.09	308.97	29.51	-39.4	-40.4	22.9	0.00e+00	19	29	0	754974720	52	5979
2026-01-26 16:47:06.13	307.63	29.38	-39.2	-40.1	23.1	0.00e+00	92	29	0	762314752	52	5826
2026-01-26 16:47:10.17	306.31	29.22	-39.6	-40.6	22.7	0.00e+00	0	29	0	769654784	52	6125
2026-01-26 16:47:14.21	305.00	29.05	-39.1	-40.0	23.4	0.00e+00	66	29	0	776994816	52	5743
2026-01-26 16:47:18.25	303.70	28.87	-39.8	-40.8	22.7	0.00e+00	0	29	0	785383424	52	6274
2026-01-26 16:47:22.29	302.42	28.67	-39.8	-40.8	22.6	0.00e+00	92	29	0	792723456	52	6272
2026-01-26 16:47:26.32	301.16	28.46	-39.9	-40.9	22.4	0.00e+00	19	29	0	800063488	52	6383
2026-01-26 16:47:30.36	299.92	28.23	-40.0	-41.0	22.4	0.00e+00	0	29	0	807403520	52	6401
2026-01-26 16:47:34.40	298.69	27.99	-40.3	-41.3	22.0	0.00e+00	92	29	0	814743552	52	6690
2026-01-26 16:47:38.43	297.48	27.74	-40.1	-41.1	22.3	0.00e+00	0	28	0	823132160	52	6490
2026-01-26 16:47:42.47	296.29	27.47	-40.4	-41.4	22.0	0.00e+00	68	29	0	830472192	52	6745
2026-01-26 16:47:46.51	295.12	27.20	-40.2	-41.2	21.9	0.00e+00	3	29	0	837812224	52	6582
2026-01-26 16:47:50.55	293.97	26.91	-40.0	-41.0	22.3	0.00e+00	92	29	0	845152256	52	6432
2026-01-26 16:47:54.59	292.84	26.62	-40.0	-41.0	22.4	0.00e+00	0	29	0	853540864	52	6428
2026-01-26 16:47:58.63	291.74	26.32	-39.8	-40.8	22.5	0.00e+00	59	29	0	860880896	52	6251
2026-01-26 16:48:02.66	290.65	26.00	-39.3	-40.2	23.1	0.00e+00	0	29	0	868220928	52	5863
2026-01-26 16:48:06.70	289.59	25.69	-39.4	-40.3	22.9	0.00e+00	91	29	0	875560960	52	5945
2026-01-26 16:48:10.74	288.54	25.36	-39.3	-40.2	23.0	0.00e+00	0	29	0	882900992	52	5891
2026-01-26 16:48:14.77	287.52	25.03	-38.6	-39.5	23.7	0.00e+00	7	29	0	891289600	50	6044
2026-01-26 16:48:18.81	286.52	24.69	-38.8	-39.7	23.4	0.00e+00	64	29	0	898629632	50	6186
2026-01-26 16:48:22.84	285.55	24.35	-38.2	-39.0	24.1	0.00e+00	93	29	0	905969664	50	5755
2026-01-26 16:48:26.88	284.59	24.00	-37.9	-38.7	24.3	0.00e+00	26	29	0	913309696	50	5547
2026-01-26 16:48:30.92	283.65	23.65	-38.0	-38.9	24.3	0.00e+00	29	29	0	921698304	48	6338
2026-01-26 16:48:34.96	282.74	23.30	-37.4	-38.2	24.8	0.00e+00	0	29	0	929038336	48	5860
2026-01-26 16:48:39.00	281.84	22.94	-37.4	-38.2	24.7	0.00e+00	91	29	0	936378368	48	5835
2026-01-26 16:48:43.03	280.97	22.58	-37.1	-37.9	24.9	0.00e+00	0	29	0	943718400	48	5675
2026-01-26 16:48:47.07	280.12	22.22	-36.9	-37.7	25.2	0.00e+00	17	29	0	951058432	48	5508
2026-01-26 16:48:51.11	279.28	21.86	-36.7	-37.4	25.4	0.00e+00	26	29	0	959447040	46	6031
2026-01-26 16:48:55.14	278.47	21.50	-36.4	-37.2	25.6	0.00e+00	92	29	0	966787072	46	5832
2026-01-26 16:48:59.18	277.67	21.13	-36.5	-37.2	25.5	0.00e+00	0	29	0	974127104	46	5887
2026-01-26 16:49:03.22	276.90	20.77	-36.5	-37.2	25.4	0.00e+00	59	29	0	981467136	46	5889
2026-01-26 16:49:07.25	276.14	20.40	-36.8	-37.6	25.2	0.00e+00	59	29	0	989855744	46	6151
2026-01-26 16:49:11.30	275.40	20.04	-36.8	-37.6	25.2	0.00e+00	0	29	0	997195776	46	6135
2026-01-26 16:49:15.34	274.68	19.67	-36.9	-37.7	25.0	0.00e+00	0	29	0	1004535808	46	6223
2026-01-26 16:49:19.37	273.97	19.31	-37.2	-38.0	24.8	0.00e+00	3	29	0	1011875840	46	6401
2026-01-26 16:49:23.41	273.28	18.95	-37.2	-38.0	24.9	0.00e+00	92	29	0	1019215872	46	6402
2026-01-26 16:49:27.44	272.61	18.58	-37.5	-38.3	24.6	0.00e+00	24	29	0	1027604480	46	6648
2026-01-26 16:49:31.48	271.95	18.22	-38.0	-38.8	24.1	0.00e+00	0	29	0	1034944512	48	6305
2026-01-26 16:49:35.52	271.31	17.86	-38.1	-39.0	24.0	0.00e+00	19	29	0	1042284544	48	6423
2026-01-26 16:49:39.56	270.69	17.51	-38.1	-38.9	24.1	0.00e+00	92	29	0	1049624576	48	6367
2026-01-26 16:49:43.59	270.08	17.15	-38.0	-38.8	24.1	0.00e+00	0	29	0	1056964608	48	6296
2026-01-26 16:49:47.63	269.48	16.80	-38.1	-38.9	24.0	0.00e+00	2	29	0	1065353216	48	6376
2026-01-26 16:49:51.67	268.90	16.44	-38.3	-39.2	23.6	0.00e+00	63	29	0	1072693248	48	6570
2026-01-26 16:49:55.70	268.33	16.09	-38.7	-39.6	23.3	0.00e+00	92	29	0	1080033280	48	6881
2026-01-26 16:49:59.74	267.78	15.75	-38.4	-39.3	23.7	0.00e+00	6	29	0	1087373312	48	6662
2026-01-26 16:50:03.78	267.23	15.40	-38.5	-39.4	23.5	0.00e+00	6	29	0	1095761920	48	6739
2026-01-26 16:50:07.81	266.71	15.06	-38.8	-39.8	23.2	0.00e+00	0	29	0	1103101952	50	6248
2026-01-26 16:50:11.85	266.19	14.72	-39.1	-40.1	23.0	0.00e+00	90	29	0	1110441984	50	6507
2026-01-26 16:50:15.89	265.68	14.38	-39.1	-40.0	23.0	0.00e+00	25	29	0	1117782016	50	6445
2026-01-26 16:50:19.92	265.19	14.04	-39.1	-40.1	22.8	0.00e+00	26	29	0	1125122048	50	6490
2026-01-26 16:50:23.96	264.71	13.71	-39.5	-40.5	22.5	0.00e+00	6	29	0	1133510656	50	6813
2026-01-26 16:50:28.00	264.23	13.38	-39.8	-40.9	22.0	0.00e+00	91	29	0	1140850688	52	6335
2026-01-26 16:50:32.04	263.77	13.05	-39.8	-40.8	22.2	0.00e+00	0	28	0	1148190720	52	6306
2026-01-26 16:50:36.07	263.32	12.72	-39.7	-40.7	22.4	0.00e+00	61	29	0	1155530752	52	6217
2026-01-26 16:50:40.10	262.88	12.40	-39.8	-40.8	22.2	0.00e+00	51	29	0	1163919360	52	6278
2026-01-26 16:50:44.13	262.45	12.08	-39.9	-41.0	21.9	0.00e+00	92	29	0	1171259392	52	6426
2026-01-26 16:50:48.17	262.03	11.76	-40.0	-41.1	21.8	0.00e+00	0	29	0	1178599424	52	6495
2026-01-26 16:50:52.21	261.62	11.44	-40.1	-41.2	21.8	0.00e+00	0	29	0	1185939456	52	6564
2026-01-26 16:50:56.25	261.22	11.13	-40.2	-41.3	21.6	0.00e+00	92	29	0	1193279488	52	6677
2026-01-26 16:51:00.28	260.82	10.82	-40.3	-41.4	21.7	0.00e+00	92	29	0	1201668096	52	6713
2026-01-26 16:51:04.32	260.44	10.51	-40.4	-41.6	21.5	0.00e+00	3	29	0	1209008128	52	6864
2026-01-26 16:51:08.36	260.06	10.21	-40.5	-41.7	21.2	0.00e+00	0	29	0	1216348160	54	6215
2026-01-26 16:51:12.39	259.69	9.90	-40.8	-42.0	20.8	0.00e+00	92	29	0	1223688192	54	6445
2026-01-26 16:51:16.43	259.33	9.60	-40.9	-42.1	20.8	0.00e+00	55	29	0	1231028224	54	6515
2026-01-26 16:51:20.47	258.97	9.30	-40.9	-42.2	20.7	0.00e+00	21	29	0	1239416832	54	6576
2026-01-26 16:51:24.50	258.63	9.01	-40.8	-42.1	20.9	0.00e+00	21	29	0	1246756864	54	6465
2026-01-26 16:51:28.54	258.28	8.72	-41.1	-42.4	20.6	0.00e+00	92	29	0	1254096896	54	6702
2026-01-26 16:51:32.58	257.95	8.43	-40.7	-41.9	20.9	0.00e+00	0	29	0	1261436928	54	6373
2026-01-26 16:51:36.62	257.62	8.14	-41.1	-42.3	20.5	0.00e+00	58	29	0	1269825536	54	6687
2026-01-26 16:51:40.65	257.31	7.85	-41.1	-42.3	20.4	0.00e+00	57	29	0	1277165568	54	6684
2026-01-26 16:51:44.69	256.99	7.57	-41.1	-42.4	20.3	0.00e+00	92	29	0	1284505600	54	6736
2026-01-26 16:51:48.73	256.69	7.29	-41.5	-42.9	19.8	0.00e+00	5	29	0	1291845632	54	7129
2026-01-26 16:51:52.77	256.38	7.01	-41.7	-43.1	19.6	0.00e+00	0	29	0	1299185664	54	7332
2026-01-26 16:51:56.80	256.09	6.73	-41.8	-43.2	19.5	0.00e+00	42	29	0	1307574272	56	6596
2026-01-26 16:52:00.82	255.80	6.46	-42.2	-43.8	19.0	0.00e+00	92	29	0	1314914304	56	7009
2026-01-26 16:52:04.85	255.52	6.19	-42.0	-43.5	19.2	0.00e+00	55	29	0	1322254336	56	6813
2026-01-26 16:52:08.89	255.24	5.92	-42.0	-43.5	19.2	0.00e+00	29	29	0	1329594368	56	6835
2026-01-26 16:52:12.93	254.97	5.65	-41.9	-43.4	19.2	0.00e+00	5	29	0	1336934400	56	6721
2026-01-26 16:52:16.97	254.70	5.38	-41.8	-43.4	19.2	0.00e+00	92	29	0	1345323008	56	6695
2026-01-26 16:52:21.01	254.43	5.12	-42.1	-43.7	18.9	0.00e+00	56	29	0	1352663040	56	6932
2026-01-26 16:52:25.04	254.18	4.86	-42.3	-43.9	18.6	0.00e+00	57	29	0	1360003072	56	7153
2026-01-26 16:52:29.08	253.92	4.60	-42.0	-43.6	18.9	0.00e+00	0	29	0	1367343104	56	6892
2026-01-26 16:52:33.12	253.68	4.34	-42.4	-44.1	18.3	0.00e+00	92	29	0	1375731712	58	6527
2026-01-26 16:52:37.16	253.43	4.08	-42.8	-44.6	17.8	0.00e+00	0	29	0	1383071744	58	6910
2026-01-26 16:52:41.19	253.19	3.83	-43.0	-45.0	17.3	0.00e+00	0	29	0	1390411776	58	7209
2026-01-26 16:52:45.22	252.96	3.58	-43.7	-46.1	16.3	0.00e+00	54	29	0	1397751808	60	7254
2026-01-26 16:52:49.26	252.73	3.33	-43.2	-45.3	16.8	0.00e+00	92	29	0	1405091840	58	7444
2026-01-26 16:52:53.30	252.50	3.08	-43.0	-45.1	17.0	0.00e+00	26	29	0	1413480448	58	7272
2026-01-26 16:52:57.34	252.27	2.83	-49.1	-64.3	3.6	1.51e+00	0	29	104	1415577600	60	58988
2026-01-26 16:53:01.38	252.06	2.59	-49.4	-64.5	3.6	1.51e+00	0	29	104	1415577600	60	61013
2026-01-26 16:53:05.42	251.84	2.34	-49.4	-64.7	3.6	1.51e+00	0	29	104	1415577600	60	61804
2026-01-26 16:53:09.46	251.63	2.10	-49.3	-64.6	3.6	1.51e+00	0	29	104	1415577600	60	61309
2026-01-26 16:53:13.50	251.42	1.86	-49.1	-64.5	3.6	1.51e+00	0	29	104	1415577600	60	60593
2026-01-26 16:53:17.54	251.22	1.62	-49.3	-64.5	3.6	1.51e+00	0	29	104	1415577600	60	60825
2026-01-26 16:53:21.58	251.01	1.39	-49.4	-64.6	3.6	1.51e+00	0	29	104	1415577600	60	61110
2026-01-26 16:53:25.62	250.82	1.15	-49.4	-64.6	3.6	1.51e+00	0	29	104	1415577600	60	61449
2026-01-26 16:53:29.66	250.62	0.92	-49.5	-64.6	3.6	1.51e+00	0	29	104	1415577600	60	61704
2026-01-26 16:53:33.70	250.43	0.69	-49.3	-64.5	3.6	1.51e+00	0	29	104	1415577600	60	60565
2026-01-26 16:53:37.73	250.24	0.46	-49.4	-64.6	3.6	1.51e+00	0	29	104	1415577600	60	61061
2026-01-26 16:53:41.78	250.06	0.23	-49.4	-64.6	3.6	1.51e+00	0	29	104	1415577600	60	61572
2026-01-26 16:53:45.82	249.87	0.00	-49.4	-64.5	3.6	1.51e+00	0	29	104	1415577600	60	60817

#Closed at: 2026-01-26 16:53:48
#Recorded file [1415 MB]: D:/lorett/data/35029_260127_043921.dat