passes_logs/2026/01/26/R4.6S_Anadyr/R4.6S_Anadyr__20260126_191318_AQUA_rec.log

#Pass ID: 20260126_191318_AQUA
#Satellite: AQUA
#Configuration: AQUA
#almurnet v.1.7.20251203
#Start time: 2026-01-26 19:13:21

#Version: 2.2.20231116
#Station: R4.6S_Anadyr
#Location: 177.4865 lon 64.73178 lat
#TLE: 1 27424U 02022A   26025.91340420  .00001969  00000+0  40368-3 0  9991
#TLE: 2 27424  98.4100 352.5253 0001880  65.2649  27.8322 14.61861165262482

#Time	Az	El	Level	Level2	SNR	BER	BlckErr	Temp	State	Recorded	gain1	gain2
2026-01-26 19:13:21.71	28.44	0.16	-50.1	-66.5	3.2	3.02e+01	0	28	0	0	60	81570
2026-01-26 19:13:24.73	28.21	0.32	-49.6	-67.4	3.5	3.02e+01	0	28	104	0	60	90297
2026-01-26 19:13:27.76	27.98	0.48	-49.7	-67.5	3.5	3.02e+01	0	28	104	0	60	90969
2026-01-26 19:13:30.79	27.75	0.64	-49.4	-67.3	3.5	3.02e+01	0	29	104	0	60	89077
2026-01-26 19:13:33.81	27.52	0.80	-49.4	-67.2	3.5	3.02e+01	0	28	104	0	60	88215
2026-01-26 19:13:36.84	27.28	0.96	-49.0	-66.9	3.5	3.02e+01	0	28	104	0	60	85073
2026-01-26 19:13:39.87	27.04	1.12	-48.8	-66.6	3.5	3.02e+01	0	29	104	0	60	82562
2026-01-26 19:13:42.90	26.79	1.29	-48.2	-66.1	3.5	3.02e+01	0	29	104	0	60	77509
2026-01-26 19:13:45.93	26.55	1.45	-48.0	-65.8	3.5	3.02e+01	0	29	104	0	60	74619
2026-01-26 19:13:48.96	26.30	1.61	-47.9	-65.8	3.5	3.02e+01	0	29	104	0	60	74915
2026-01-26 19:13:51.99	26.04	1.78	-47.9	-65.7	3.5	3.02e+01	0	29	104	0	60	74569
2026-01-26 19:13:55.01	25.79	1.94	-48.0	-65.8	3.5	3.02e+01	0	29	104	0	60	74639
2026-01-26 19:13:58.04	25.52	2.11	-47.9	-65.7	3.5	3.02e+01	0	29	104	0	60	74584
2026-01-26 19:14:01.07	25.26	2.28	-47.9	-65.7	3.5	3.02e+01	0	29	104	0	60	73907
2026-01-26 19:14:04.10	24.99	2.44	-48.0	-65.7	3.5	3.02e+01	0	29	104	0	60	74429
2026-01-26 19:14:07.13	24.72	2.61	-48.0	-65.4	3.5	3.02e+01	0	29	104	0	60	72024
2026-01-26 19:14:10.16	24.45	2.78	-47.9	-65.0	3.5	3.02e+01	0	29	104	0	60	68470
2026-01-26 19:14:13.19	24.17	2.95	-46.6	-60.7	3.5	3.02e+01	0	29	104	0	60	41850
2026-01-26 19:14:16.22	23.89	3.12	-42.7	-53.9	3.5	3.02e+01	0	29	104	0	60	19090
2026-01-26 19:14:19.24	23.61	3.28	-44.1	-55.9	3.5	3.02e+01	0	29	104	0	60	24106
2026-01-26 19:14:22.27	23.32	3.45	-38.8	-49.3	3.5	3.02e+01	0	29	104	0	54	15899
2026-01-26 19:14:25.29	23.03	3.62	-44.0	-55.5	3.5	3.02e+01	0	29	104	0	60	22986
2026-01-26 19:14:28.32	22.73	3.80	-40.4	-51.1	3.6	3.02e+01	0	29	104	0	60	13753
2026-01-26 19:14:31.35	22.43	3.97	-39.2	-49.7	3.5	3.02e+01	0	29	104	0	52	18557
2026-01-26 19:14:34.37	22.13	4.14	-40.2	-50.8	3.6	3.02e+01	0	29	104	0	58	14918
2026-01-26 19:14:37.40	21.82	4.31	-42.4	-53.5	3.5	3.02e+01	0	29	104	0	60	18181
2026-01-26 19:14:40.42	21.51	4.48	-40.7	-51.4	3.5	3.02e+01	0	29	104	0	56	17912
2026-01-26 19:14:43.45	21.19	4.66	-45.4	-57.8	3.6	3.02e+01	0	29	104	0	60	29824
2026-01-26 19:14:46.48	20.87	4.83	-40.3	-50.9	3.5	3.02e+01	0	29	104	0	54	19123
2026-01-26 19:14:49.51	20.54	5.01	-39.4	-50.0	3.5	3.02e+01	0	29	104	0	60	12162
2026-01-26 19:14:52.54	20.21	5.18	-38.6	-49.0	3.5	3.02e+01	0	29	104	0	54	15338
2026-01-26 19:14:55.57	19.88	5.36	-38.7	-49.2	3.5	3.02e+01	0	29	104	0	52	17566
2026-01-26 19:14:58.60	19.54	5.53	-39.1	-49.6	3.4	3.02e+01	0	29	104	0	52	18377
2026-01-26 19:15:01.63	19.19	5.71	-44.7	-56.6	3.5	3.02e+01	0	29	104	0	60	25986
2026-01-26 19:15:04.65	18.85	5.88	-44.2	-55.7	3.5	3.02e+01	0	29	104	0	60	23555
2026-01-26 19:15:07.68	18.49	6.06	-42.9	-54.0	3.5	3.02e+01	0	29	104	0	60	19344
2026-01-26 19:15:10.70	18.14	6.24	-40.0	-50.4	3.5	3.02e+01	0	29	104	0	54	18056
2026-01-26 19:15:13.73	17.77	6.42	-44.0	-55.4	3.6	3.02e+01	0	29	104	0	60	22778
2026-01-26 19:15:16.77	17.40	6.60	-45.0	-56.8	3.5	3.02e+01	0	29	104	0	56	33573
2026-01-26 19:15:19.80	17.03	6.77	-38.5	-48.8	3.5	3.02e+01	0	29	104	0	52	16845
2026-01-26 19:15:22.83	16.65	6.95	-48.4	-64.7	3.5	3.02e+01	0	29	104	0	60	65901
2026-01-26 19:15:25.86	16.27	7.13	-38.7	-49.1	3.6	3.02e+01	0	29	104	0	54	15496
2026-01-26 19:15:28.89	15.88	7.31	-44.7	-56.3	3.5	3.02e+01	0	29	104	0	60	25233
2026-01-26 19:15:31.92	15.49	7.49	-42.7	-53.7	3.5	3.02e+01	0	29	104	0	60	18692
2026-01-26 19:15:34.95	15.09	7.67	-39.1	-49.5	3.5	3.02e+01	0	29	104	0	54	16231
2026-01-26 19:15:37.98	14.68	7.85	-43.4	-54.6	3.5	3.02e+01	0	29	104	0	60	20666
2026-01-26 19:15:41.01	14.27	8.03	-39.5	-49.9	3.5	3.02e+01	0	29	104	0	52	19078
2026-01-26 19:15:44.03	13.86	8.21	-38.3	-48.6	3.5	3.02e+01	0	29	104	0	52	16505
2026-01-26 19:15:47.06	13.43	8.39	-48.6	-64.4	3.5	3.02e+01	0	29	104	0	60	64015
2026-01-26 19:15:50.09	13.01	8.57	-40.1	-50.6	3.5	3.02e+01	0	29	104	0	56	16372
2026-01-26 19:15:53.12	12.57	8.75	-45.5	-57.6	3.5	3.02e+01	0	29	104	0	60	29046
2026-01-26 19:15:56.15	12.13	8.93	-48.8	-65.3	3.5	3.02e+01	0	29	104	0	60	71012
2026-01-26 19:15:59.17	11.69	9.11	-38.7	-49.0	3.5	3.02e+01	0	29	104	0	52	17133
2026-01-26 19:16:02.20	11.24	9.29	-41.0	-51.7	3.5	3.02e+01	0	29	104	0	56	18597
2026-01-26 19:16:05.23	10.78	9.46	-48.7	-64.7	3.5	3.02e+01	0	29	104	0	60	65820
2026-01-26 19:16:08.26	10.31	9.64	-37.4	-47.5	3.5	3.02e+01	0	29	104	0	50	16266
2026-01-26 19:16:11.29	9.84	9.82	-47.5	-61.2	3.5	3.02e+01	0	29	104	0	60	44340
2026-01-26 19:16:14.31	9.37	10.00	-37.8	-47.8	3.5	3.02e+01	0	29	104	0	50	16746
2026-01-26 19:16:17.34	8.88	10.18	-46.7	-59.6	3.5	3.02e+01	0	29	104	0	60	36584
2026-01-26 19:16:20.37	8.39	10.36	-45.3	-57.0	3.5	3.02e+01	0	29	104	0	60	27250
2026-01-26 19:16:23.40	7.90	10.53	-39.0	-43.6	9.0	3.02e+01	92	29	0	2097152	52	9263
2026-01-26 19:16:26.42	7.40	10.71	-39.5	-43.2	9.3	3.02e+01	0	29	0	7340032	52	8803
2026-01-26 19:16:29.45	6.89	10.88	-40.0	-43.4	9.2	3.02e+01	0	29	0	13107200	54	8070
2026-01-26 19:16:32.48	6.37	11.06	-40.1	-42.6	13.9	3.02e+01	0	29	0	18874368	56	6562
2026-01-26 19:16:35.50	5.85	11.23	-41.0	-43.4	14.1	3.02e+01	0	29	0	24641536	56	7206
2026-01-26 19:16:38.53	5.32	11.41	-39.8	-41.4	20.2	3.02e+01	0	30	0	30408704	54	6422
2026-01-26 19:16:41.56	4.78	11.58	-38.7	-40.2	25.2	3.02e+01	0	29	0	35651584	52	6232
2026-01-26 19:16:44.58	4.24	11.75	-36.5	-37.8	26.6	3.02e+01	0	29	0	41418752	48	5973
2026-01-26 19:16:47.61	3.69	11.92	-35.9	-37.2	27.6	3.02e+01	0	29	0	47185920	46	6206
2026-01-26 19:16:50.64	3.13	12.09	-35.3	-36.5	28.4	3.02e+01	2	29	0	52953088	46	5782
2026-01-26 19:16:53.66	2.56	12.26	-36.4	-37.7	27.7	3.02e+01	0	29	0	58720256	46	6633
2026-01-26 19:16:56.69	1.99	12.42	-36.9	-38.2	27.3	3.02e+01	0	29	0	64487424	48	6239
2026-01-26 19:16:59.72	1.41	12.59	-40.2	-41.8	23.6	3.02e+01	0	29	0	69730304	52	7501
2026-01-26 19:17:02.74	0.83	12.75	-40.5	-42.2	22.9	3.02e+01	0	29	0	75497472	56	6248
2026-01-26 19:17:05.77	0.23	12.91	-42.2	-44.2	22.1	3.02e+01	0	29	0	81264640	58	7023
2026-01-26 19:17:08.80	359.63	13.07	-42.4	-44.5	21.5	3.02e+01	0	29	0	87031808	58	7267
2026-01-26 19:17:11.83	359.03	13.23	-42.2	-44.2	21.6	3.02e+01	0	29	0	92798976	58	7042
2026-01-26 19:17:14.85	358.41	13.39	-43.2	-45.5	19.4	3.02e+01	0	29	0	98566144	60	7244
2026-01-26 19:17:17.88	357.79	13.54	-45.2	-48.3	17.0	3.02e+01	0	29	0	103809024	60	10016
2026-01-26 19:17:20.91	357.16	13.69	-46.4	-50.6	16.2	3.02e+01	0	29	0	109576192	60	13092
2026-01-26 19:17:23.94	356.53	13.84	-47.4	-53.3	12.9	3.02e+01	0	29	0	115343360	60	17695
2026-01-26 19:17:26.97	355.88	13.99	-48.9	-62.5	4.8	3.02e+01	0	29	104	119537664	60	51116
2026-01-26 19:17:29.99	355.24	14.14	-48.9	-63.0	4.7	3.02e+01	0	29	104	120061952	60	54074
2026-01-26 19:17:33.02	354.58	14.28	-48.7	-59.9	6.0	3.02e+01	92	30	0	120586240	60	38137
2026-01-26 19:17:36.05	353.92	14.42	-48.7	-60.0	4.1	3.02e+01	0	30	104	125304832	60	38277
2026-01-26 19:17:39.08	353.25	14.56	-48.6	-57.9	7.5	3.02e+01	90	30	0	128974848	60	30231
2026-01-26 19:17:42.11	352.57	14.69	-48.7	-58.6	6.7	3.02e+01	92	30	0	134742016	60	32711
2026-01-26 19:17:45.13	351.89	14.82	-48.9	-61.0	5.6	3.02e+01	0	30	104	135266304	60	43307
2026-01-26 19:17:48.15	351.20	14.95	-48.9	-61.5	5.3	3.02e+01	0	30	104	135266304	60	45943
2026-01-26 19:17:51.18	350.50	15.07	-49.0	-62.9	4.7	3.02e+01	0	30	104	135266304	60	53493
2026-01-26 19:17:54.21	349.80	15.19	-48.9	-62.0	5.0	3.02e+01	0	30	104	135266304	60	48407
2026-01-26 19:17:57.23	349.10	15.31	-49.0	-62.6	4.2	3.02e+01	0	30	104	135266304	60	52197
2026-01-26 19:18:00.26	348.38	15.43	-48.9	-62.7	4.3	3.02e+01	0	30	104	135266304	60	52307
2026-01-26 19:18:03.29	347.66	15.54	-42.0	-52.7	3.6	3.02e+01	0	30	104	135266304	60	16678
2026-01-26 19:18:06.32	346.93	15.64	-37.3	-47.6	3.5	3.02e+01	0	30	104	135266304	48	18522
2026-01-26 19:18:09.35	346.20	15.75	-37.6	-47.9	3.5	3.02e+01	0	30	104	135266304	52	15073
2026-01-26 19:18:12.38	345.47	15.84	-45.3	-48.8	5.2	3.02e+01	0	30	104	135266304	60	10620
2026-01-26 19:18:15.41	344.72	15.94	-36.9	-38.2	27.9	3.02e+01	60	30	0	138936320	48	6259
2026-01-26 19:18:18.43	343.98	16.03	-36.8	-38.0	27.9	3.02e+01	58	29	0	144179200	48	6116
2026-01-26 19:18:21.46	343.23	16.11	-36.6	-37.9	28.1	3.02e+01	58	30	0	149946368	48	6000
2026-01-26 19:18:24.49	342.47	16.19	-35.8	-37.0	28.9	3.02e+01	57	30	0	155713536	46	6113
2026-01-26 19:18:27.52	341.71	16.27	-36.0	-37.3	28.8	3.02e+01	45	30	0	161480704	46	6291
2026-01-26 19:18:30.54	340.95	16.34	-36.0	-37.2	28.8	3.02e+01	50	29	0	167247872	46	6236
2026-01-26 19:18:33.57	340.18	16.41	-35.8	-37.1	28.9	3.02e+01	60	30	0	173015040	46	6147
2026-01-26 19:18:36.60	339.41	16.47	-36.2	-37.5	28.2	3.02e+01	61	30	0	178257920	46	6444
2026-01-26 19:18:39.63	338.63	16.53	-36.0	-37.2	28.6	3.02e+01	59	30	0	184025088	46	6270
2026-01-26 19:18:42.66	337.85	16.58	-36.2	-37.5	28.5	3.02e+01	60	30	0	189792256	46	6428
2026-01-26 19:18:45.68	337.08	16.63	-36.4	-37.6	28.1	3.02e+01	60	30	0	195559424	46	6539
2026-01-26 19:18:48.71	336.29	16.67	-36.3	-37.6	28.4	3.02e+01	61	30	0	201326592	46	6516
2026-01-26 19:18:51.74	335.51	16.71	-36.2	-37.4	28.6	3.02e+01	45	30	0	207093760	46	6418
2026-01-26 19:18:54.77	334.72	16.74	-36.1	-37.3	28.9	3.02e+01	50	29	0	212336640	46	6318
2026-01-26 19:18:57.80	333.93	16.77	-36.3	-37.6	28.2	3.02e+01	60	30	0	218103808	46	6534
2026-01-26 19:19:00.82	333.14	16.79	-36.2	-37.5	28.2	3.02e+01	59	30	0	223870976	46	6456
2026-01-26 19:19:03.85	332.35	16.81	-36.2	-37.4	28.6	3.02e+01	58	30	0	229638144	46	6387
2026-01-26 19:19:06.88	331.55	16.82	-36.2	-37.4	28.3	3.02e+01	60	30	0	235405312	46	6415
2026-01-26 19:19:09.91	330.76	16.83	-35.9	-37.1	28.7	3.02e+01	59	30	0	240648192	46	6178
2026-01-26 19:19:12.94	329.97	16.83	-36.4	-37.6	28.4	3.02e+01	48	30	0	246415360	46	6556
2026-01-26 19:19:15.96	329.17	16.82	-35.9	-37.1	28.9	3.02e+01	44	30	0	252182528	46	6175
2026-01-26 19:19:18.99	328.38	16.81	-36.4	-37.7	28.5	3.02e+01	60	30	0	257949696	46	6586
2026-01-26 19:19:22.01	327.59	16.80	-36.0	-37.3	28.7	3.02e+01	56	30	0	263716864	46	6286
2026-01-26 19:19:25.04	326.80	16.77	-36.1	-37.3	28.6	3.02e+01	58	30	0	269484032	46	6312
2026-01-26 19:19:28.07	326.01	16.75	-36.2	-37.4	28.3	3.02e+01	60	30	0	274726912	46	6383
2026-01-26 19:19:31.10	325.22	16.72	-36.1	-37.3	28.5	3.02e+01	61	30	0	280494080	46	6317
2026-01-26 19:19:34.12	324.44	16.68	-36.1	-37.3	28.6	3.02e+01	56	30	0	286261248	46	6311
2026-01-26 19:19:37.15	323.65	16.64	-35.9	-37.1	28.9	3.02e+01	57	30	0	292028416	46	6157
2026-01-26 19:19:40.18	322.87	16.59	-36.2	-37.4	28.7	3.02e+01	44	29	0	297795584	46	6411
2026-01-26 19:19:43.20	322.09	16.54	-36.5	-37.8	28.5	3.02e+01	59	30	0	303562752	46	6655
2026-01-26 19:19:46.23	321.32	16.48	-36.5	-37.7	28.5	3.02e+01	59	29	0	308805632	46	6634
2026-01-26 19:19:49.26	320.54	16.42	-36.3	-37.5	28.7	3.02e+01	64	30	0	314572800	46	6466
2026-01-26 19:19:52.29	319.77	16.36	-36.4	-37.6	28.7	3.02e+01	58	30	0	320339968	46	6536
2026-01-26 19:19:55.32	319.01	16.28	-36.2	-37.4	28.9	3.02e+01	59	30	0	326107136	46	6370
2026-01-26 19:19:58.35	318.24	16.21	-36.5	-37.7	28.8	3.02e+01	54	30	0	331874304	46	6613
2026-01-26 19:20:01.38	317.49	16.13	-36.3	-37.6	28.6	3.02e+01	47	30	0	337641472	46	6511
2026-01-26 19:20:04.40	316.74	16.04	-36.2	-37.5	28.7	3.02e+01	61	30	0	342884352	46	6424
2026-01-26 19:20:07.43	315.99	15.95	-36.3	-37.6	28.7	3.02e+01	60	30	0	348651520	46	6503
2026-01-26 19:20:10.46	315.24	15.86	-36.8	-38.1	28.1	3.02e+01	61	30	0	354418688	46	6889
2026-01-26 19:20:13.49	314.50	15.76	-37.0	-38.3	28.0	3.02e+01	59	30	0	360185856	48	6335
2026-01-26 19:20:16.52	313.77	15.66	-36.4	-37.7	28.5	3.02e+01	62	30	0	365953024	46	6579
2026-01-26 19:20:19.55	313.04	15.55	-36.5	-37.8	28.4	3.02e+01	53	30	0	371720192	46	6664
2026-01-26 19:20:22.58	312.32	15.44	-36.8	-38.1	28.1	3.02e+01	47	30	0	376963072	46	6901
2026-01-26 19:20:25.60	311.61	15.33	-36.4	-37.7	28.7	3.02e+01	63	30	0	382730240	46	6582
2026-01-26 19:20:28.63	310.89	15.21	-37.7	-39.1	26.9	3.02e+01	57	30	0	388497408	50	6197
2026-01-26 19:20:31.66	310.19	15.09	-36.1	-37.4	28.7	3.02e+01	60	30	0	394264576	46	6369
2026-01-26 19:20:34.69	309.49	14.97	-36.7	-38.0	28.2	3.02e+01	58	30	0	400031744	46	6824
2026-01-26 19:20:37.72	308.80	14.84	-36.2	-37.4	28.6	3.02e+01	59	30	0	405274624	46	6403
2026-01-26 19:20:40.74	308.12	14.71	-36.8	-38.0	28.5	3.02e+01	58	30	0	411041792	46	6870
2026-01-26 19:20:43.77	307.44	14.58	-36.0	-37.2	28.8	3.02e+01	57	30	0	416808960	46	6222
2026-01-26 19:20:46.80	306.76	14.44	-36.4	-37.6	28.7	3.02e+01	44	30	0	422576128	48	5837
2026-01-26 19:20:49.83	306.10	14.30	-36.1	-37.4	28.8	3.02e+01	59	30	0	428343296	48	5667
2026-01-26 19:20:52.85	305.44	14.16	-36.6	-37.9	28.6	3.02e+01	61	30	0	434110464	48	5997
2026-01-26 19:20:55.88	304.79	14.01	-36.5	-37.7	28.6	3.02e+01	62	30	0	439877632	48	5914
2026-01-26 19:20:58.91	304.14	13.87	-36.4	-37.6	28.9	3.02e+01	59	30	0	445120512	48	5833
2026-01-26 19:21:01.94	303.50	13.72	-36.1	-37.4	28.9	3.02e+01	59	30	0	450887680	48	5662
2026-01-26 19:21:04.96	302.88	13.56	-36.5	-37.7	28.6	3.02e+01	47	30	0	456654848	46	6619
2026-01-26 19:21:07.99	302.25	13.41	-36.5	-37.7	28.6	3.02e+01	45	30	0	462422016	46	6629
2026-01-26 19:21:11.02	301.63	13.25	-36.2	-37.4	28.7	3.02e+01	59	30	0	468189184	46	6383
2026-01-26 19:21:14.04	301.02	13.10	-36.4	-37.7	28.4	3.02e+01	64	30	0	473432064	46	6579
2026-01-26 19:21:17.06	300.42	12.94	-36.2	-37.4	28.6	3.02e+01	57	30	0	479199232	46	6400
2026-01-26 19:21:20.09	299.83	12.77	-36.0	-37.2	28.5	3.02e+01	54	30	0	484966400	48	5549
2026-01-26 19:21:23.12	299.24	12.61	-37.8	-39.1	27.3	3.02e+01	60	30	0	490733568	48	6949
2026-01-26 19:21:26.15	298.66	12.45	-38.0	-39.4	26.8	3.02e+01	60	30	0	496500736	50	6360
2026-01-26 19:21:29.18	298.08	12.28	-37.2	-38.5	27.7	3.02e+01	59	30	0	502267904	50	5754
2026-01-26 19:21:32.21	297.51	12.11	-37.0	-38.2	27.9	3.02e+01	45	30	0	507510784	48	6243
2026-01-26 19:21:35.23	296.95	11.94	-37.6	-39.0	27.3	3.02e+01	59	30	0	513277952	48	6838
2026-01-26 19:21:38.26	296.40	11.77	-37.6	-39.0	27.3	3.02e+01	61	30	0	519045120	48	6810
2026-01-26 19:21:41.29	295.85	11.60	-37.3	-38.6	27.6	3.02e+01	59	30	0	524812288	48	6558
2026-01-26 19:21:44.32	295.31	11.43	-36.5	-37.8	28.1	3.02e+01	58	30	0	530579456	48	5957
2026-01-26 19:21:47.35	294.78	11.25	-37.1	-38.5	27.6	3.02e+01	58	30	0	536346624	48	6434
2026-01-26 19:21:50.38	294.25	11.08	-36.7	-38.0	27.9	3.02e+01	54	30	0	541589504	48	6105
2026-01-26 19:21:53.41	293.73	10.90	-36.8	-38.1	27.9	3.02e+01	47	30	0	547356672	48	6179
2026-01-26 19:21:56.44	293.22	10.73	-36.9	-38.2	27.9	3.02e+01	57	30	0	553123840	48	6253
2026-01-26 19:21:59.47	292.71	10.55	-36.7	-38.0	28.0	3.02e+01	65	30	0	558891008	48	6121
2026-01-26 19:22:02.50	292.22	10.37	-36.7	-38.0	28.0	3.02e+01	61	30	0	564658176	48	6076
2026-01-26 19:22:05.53	291.72	10.20	-37.0	-38.3	27.7	3.02e+01	58	30	0	570425344	48	6308
2026-01-26 19:22:08.55	291.24	10.02	-36.5	-37.8	28.2	3.02e+01	61	30	0	575668224	48	5954
2026-01-26 19:22:11.58	290.76	9.84	-37.1	-38.4	27.6	3.02e+01	47	30	0	581435392	48	6394
2026-01-26 19:22:14.60	290.29	9.66	-36.7	-38.0	27.9	3.02e+01	48	30	0	587202560	48	6097
2026-01-26 19:22:17.63	289.82	9.48	-37.1	-38.4	27.6	3.02e+01	51	30	0	592969728	48	6374
2026-01-26 19:22:20.66	289.36	9.30	-37.2	-38.5	27.5	3.02e+01	55	30	0	598736896	48	6462
2026-01-26 19:22:23.69	288.90	9.12	-36.9	-38.1	27.7	3.02e+01	58	30	0	604504064	48	6192
2026-01-26 19:22:26.72	288.46	8.94	-37.4	-38.7	27.2	3.02e+01	59	30	0	609746944	48	6635
2026-01-26 19:22:29.74	288.01	8.76	-37.2	-38.5	27.4	3.02e+01	61	30	0	615514112	48	6468
2026-01-26 19:22:32.77	287.58	8.58	-37.3	-38.6	27.4	3.02e+01	62	30	0	621281280	48	6529
2026-01-26 19:22:35.80	287.15	8.40	-37.1	-38.4	27.5	3.02e+01	45	30	0	627048448	48	6374
2026-01-26 19:22:38.83	286.72	8.22	-37.2	-38.5	27.3	3.02e+01	48	30	0	632815616	48	6493
2026-01-26 19:22:41.85	286.30	8.04	-37.2	-38.5	27.3	3.02e+01	61	30	0	638058496	48	6493
2026-01-26 19:22:44.88	285.89	7.86	-37.4	-38.7	27.1	3.02e+01	61	30	0	643825664	48	6635
2026-01-26 19:22:47.91	285.48	7.68	-37.1	-38.4	27.4	3.02e+01	62	30	0	649592832	48	6401
2026-01-26 19:22:50.93	285.08	7.50	-38.0	-39.4	26.5	3.02e+01	59	30	0	655360000	50	6411
2026-01-26 19:22:53.96	284.69	7.32	-37.3	-38.6	27.1	3.02e+01	59	30	0	661127168	50	5836
2026-01-26 19:22:56.98	284.30	7.15	-37.5	-38.9	27.0	3.02e+01	59	30	0	666894336	50	6015
2026-01-26 19:23:00.01	283.91	6.97	-38.0	-39.5	26.4	3.02e+01	47	30	0	672137216	50	6426
2026-01-26 19:23:03.04	283.53	6.79	-37.5	-38.8	27.0	3.02e+01	60	30	0	677904384	50	5954
2026-01-26 19:23:06.07	283.15	6.61	-38.1	-39.5	26.5	3.02e+01	56	30	0	683671552	50	6436
2026-01-26 19:23:09.09	282.78	6.43	-37.9	-39.3	26.4	3.02e+01	62	30	0	689438720	50	6348
2026-01-26 19:23:12.12	282.42	6.25	-37.7	-39.1	26.6	3.02e+01	61	30	0	695205888	50	6173
2026-01-26 19:23:15.15	282.06	6.07	-37.9	-39.3	26.6	3.02e+01	60	30	0	700973056	50	6290
2026-01-26 19:23:18.18	281.70	5.90	-37.9	-39.3	26.4	3.02e+01	42	30	0	706215936	50	6310
2026-01-26 19:23:21.21	281.35	5.72	-38.0	-39.4	26.5	3.02e+01	54	29	0	711983104	50	6379
2026-01-26 19:23:24.23	281.01	5.54	-38.0	-39.4	26.3	3.02e+01	58	29	0	717750272	50	6422
2026-01-26 19:23:27.26	280.67	5.37	-38.0	-39.4	26.2	3.02e+01	55	30	0	723517440	50	6405
2026-01-26 19:23:30.29	280.33	5.19	-38.2	-39.7	26.0	3.02e+01	59	30	0	729284608	50	6585
2026-01-26 19:23:33.32	280.00	5.02	-38.3	-39.8	25.9	3.02e+01	60	30	0	735051776	50	6661
2026-01-26 19:23:36.35	279.67	4.84	-38.4	-39.8	25.8	3.02e+01	60	29	0	740294656	50	6720
2026-01-26 19:23:39.37	279.35	4.67	-38.3	-39.7	25.8	3.02e+01	60	29	0	746061824	50	6630
2026-01-26 19:23:42.40	279.03	4.49	-38.9	-40.4	25.1	3.02e+01	56	29	0	751828992	50	7194
2026-01-26 19:23:45.43	278.71	4.32	-38.7	-40.2	25.4	3.02e+01	46	29	0	757596160	52	6228
2026-01-26 19:23:48.45	278.40	4.15	-38.3	-39.8	25.7	3.02e+01	59	29	0	763363328	50	6698
2026-01-26 19:23:51.48	278.09	3.98	-38.2	-39.6	25.8	3.02e+01	57	29	0	769130496	50	6556
2026-01-26 19:23:54.51	277.79	3.80	-38.8	-40.3	25.3	3.02e+01	59	29	0	774373376	50	7082
2026-01-26 19:23:57.54	277.49	3.63	-38.9	-40.4	25.0	3.02e+01	60	29	0	780140544	52	6395
2026-01-26 19:24:00.57	277.20	3.46	-38.9	-40.4	25.1	3.02e+01	59	29	0	785907712	52	6408
2026-01-26 19:24:03.60	276.91	3.29	-38.6	-40.1	25.3	3.02e+01	47	29	0	791674880	52	6194
2026-01-26 19:24:06.62	276.62	3.12	-39.2	-40.8	24.6	3.02e+01	44	29	0	797442048	52	6679
2026-01-26 19:24:09.65	276.34	2.95	-48.9	-66.7	3.5	3.02e+01	0	29	104	800587776	60	83361
2026-01-26 19:24:12.69	276.05	2.78	-49.4	-67.1	3.5	3.02e+01	0	29	104	800587776	60	87529
2026-01-26 19:24:15.71	275.78	2.61	-49.5	-67.3	3.5	3.02e+01	0	29	104	800587776	60	89199
2026-01-26 19:24:18.75	275.51	2.45	-49.5	-67.4	3.5	3.02e+01	0	29	104	800587776	60	89989
2026-01-26 19:24:21.77	275.24	2.28	-49.5	-67.4	3.5	3.02e+01	0	29	104	800587776	60	90095
2026-01-26 19:24:24.81	274.97	2.11	-49.2	-67.3	3.5	3.02e+01	0	29	104	800587776	60	89604
2026-01-26 19:24:27.84	274.71	1.95	-49.5	-67.4	3.5	3.02e+01	0	29	104	800587776	60	89906
2026-01-26 19:24:30.86	274.45	1.78	-49.4	-67.3	3.5	3.02e+01	0	29	104	800587776	60	89333
2026-01-26 19:24:33.90	274.19	1.62	-49.6	-67.4	3.5	3.02e+01	0	29	104	800587776	60	90702
2026-01-26 19:24:36.93	273.94	1.45	-49.6	-67.5	3.5	3.02e+01	0	29	104	800587776	60	91056
2026-01-26 19:24:39.96	273.69	1.29	-49.6	-67.4	3.5	3.02e+01	0	29	104	800587776	60	90540
2026-01-26 19:24:42.99	273.44	1.12	-49.8	-67.7	3.5	3.02e+01	0	29	104	800587776	60	93300
2026-01-26 19:24:46.01	273.20	0.96	-49.5	-67.4	3.5	3.02e+01	0	29	104	800587776	60	89940
2026-01-26 19:24:49.04	272.96	0.80	-49.9	-67.7	3.5	3.02e+01	0	29	104	800587776	60	93250
2026-01-26 19:24:52.07	272.72	0.64	-49.7	-67.5	3.5	3.02e+01	0	29	104	800587776	60	91590
2026-01-26 19:24:55.10	272.49	0.48	-49.7	-67.6	3.5	3.02e+01	0	29	104	800587776	60	92096
2026-01-26 19:24:58.13	272.26	0.32	-49.7	-67.6	3.5	3.02e+01	0	29	104	800587776	60	92271
2026-01-26 19:25:01.16	272.03	0.16	-49.9	-67.8	3.5	3.02e+01	0	29	104	800587776	60	93986
2026-01-26 19:25:04.19	271.80	-0.00	-49.6	-67.4	3.5	3.02e+01	0	29	104	800587776	60	90546

#Closed at: 2026-01-26 19:25:04
#Recorded file [800 MB]: D:/lorett/data/35029_260127_071321.dat