passes_logs/2026/01/26/R4.6S_Anadyr/R4.6S_Anadyr__20260126_143830_SUOMI_NPP_rec.log

#Pass ID: 20260126_143830_SUOMI NPP
#Satellite: SUOMI NPP
#Configuration: NPP
#almurnet v.1.7.20251203
#Start time: 2026-01-26 14:38:31

#Version: 2.2.20231116
#Station: R4.6S_Anadyr
#Location: 177.4865 lon 64.73178 lat
#TLE: 1 37849U 11061A   26025.95877665  .00000192  00000+0  11229-3 0  9997
#TLE: 2 37849  98.7822 327.9136 0002155  44.9234 315.2116 14.19530109738267

#Time	Az	El	Level	Level2	SNR	BER	BlckErr	Temp	State	Recorded	gain1	gain2
2026-01-26 14:38:31.13	20.24	0.05	-49.7	-62.1	3.4	1.52e+00	0	27	0	0	60	44889
2026-01-26 14:38:35.17	20.28	0.29	-49.8	-65.0	3.6	1.51e+00	0	28	104	0	60	64620
2026-01-26 14:38:39.20	20.31	0.54	-49.6	-64.9	3.6	1.51e+00	0	28	104	0	60	63292
2026-01-26 14:38:43.24	20.35	0.78	-49.6	-64.8	3.6	1.51e+00	0	28	104	0	60	62590
2026-01-26 14:38:47.29	20.39	1.03	-49.3	-64.5	3.6	1.51e+00	0	29	104	0	60	60723
2026-01-26 14:38:51.33	20.43	1.28	-48.9	-64.1	3.6	1.51e+00	0	29	104	0	60	58024
2026-01-26 14:38:55.37	20.47	1.53	-48.2	-63.2	3.6	1.51e+00	0	29	104	0	60	52355
2026-01-26 14:38:59.41	20.51	1.79	-48.2	-63.3	3.6	1.51e+00	0	29	104	0	60	53119
2026-01-26 14:39:03.45	20.55	2.04	-48.2	-63.4	3.6	1.51e+00	0	29	104	0	60	53412
2026-01-26 14:39:07.49	20.59	2.30	-48.2	-62.6	3.6	1.51e+00	0	29	104	0	60	48687
2026-01-26 14:39:11.53	20.63	2.56	-48.1	-61.3	3.6	1.50e+00	0	29	104	0	60	42002
2026-01-26 14:39:15.57	20.67	2.82	-48.1	-60.1	4.0	1.50e+00	0	29	104	0	60	36591
2026-01-26 14:39:19.60	20.71	3.09	-46.2	-50.5	11.2	1.27e-03	86	29	0	6291456	60	12122
2026-01-26 14:39:23.64	20.75	3.36	-43.8	-46.1	16.2	0.00e+00	0	29	0	14680064	60	7333
2026-01-26 14:39:27.68	20.80	3.63	-44.0	-46.5	15.9	0.00e+00	0	29	0	22020096	60	7618
2026-01-26 14:39:31.72	20.84	3.90	-47.5	-54.9	5.8	0.00e+00	0	29	0	29360128	60	20020
2026-01-26 14:39:35.75	20.88	4.18	-45.9	-50.0	12.2	1.18e-04	0	29	0	30408704	60	11366
2026-01-26 14:39:39.80	20.93	4.46	-43.8	-46.0	16.5	0.00e+00	0	29	0	37748736	60	7248
2026-01-26 14:39:43.83	20.97	4.74	-44.5	-47.1	15.5	0.00e+00	0	29	0	45088768	60	8193
2026-01-26 14:39:47.87	21.02	5.03	-43.0	-45.0	17.6	0.00e+00	86	29	0	52428800	58	7180
2026-01-26 14:39:51.91	21.06	5.31	-41.5	-43.0	19.6	0.00e+00	0	29	0	60817408	56	6407
2026-01-26 14:39:55.95	21.11	5.61	-41.4	-42.8	19.6	0.00e+00	0	29	0	68157440	56	6313
2026-01-26 14:39:59.99	21.15	5.90	-41.2	-42.6	20.0	0.00e+00	0	29	0	75497472	56	6109
2026-01-26 14:40:04.03	21.20	6.20	-41.2	-42.6	20.0	0.00e+00	46	29	0	82837504	56	6149
2026-01-26 14:40:08.06	21.25	6.50	-40.9	-42.2	20.3	0.00e+00	0	29	0	90177536	54	6547
2026-01-26 14:40:12.10	21.30	6.81	-40.7	-42.0	20.5	0.00e+00	0	29	0	98566144	54	6429
2026-01-26 14:40:16.13	21.34	7.11	-40.5	-41.7	20.9	0.00e+00	0	29	0	105906176	54	6220
2026-01-26 14:40:20.17	21.39	7.43	-40.3	-41.5	21.1	0.00e+00	38	29	0	113246208	54	6035
2026-01-26 14:40:24.21	21.44	7.74	-40.3	-41.4	21.0	0.00e+00	0	29	0	120586240	54	6030
2026-01-26 14:40:28.25	21.50	8.06	-39.9	-41.1	21.4	0.00e+00	0	29	0	128974848	54	5766
2026-01-26 14:40:32.29	21.55	8.39	-40.1	-41.2	21.3	0.00e+00	62	29	0	136314880	54	5869
2026-01-26 14:40:36.33	21.60	8.72	-40.0	-41.1	21.5	0.00e+00	0	29	0	143654912	54	5823
2026-01-26 14:40:40.36	21.65	9.05	-39.9	-41.0	21.6	0.00e+00	0	29	0	150994944	52	6433
2026-01-26 14:40:44.39	21.71	9.39	-39.6	-40.6	21.8	0.00e+00	0	29	0	158334976	52	6165
2026-01-26 14:40:48.43	21.76	9.73	-39.5	-40.6	22.0	0.00e+00	71	29	0	166723584	52	6128
2026-01-26 14:40:52.47	21.82	10.08	-39.8	-40.8	21.7	0.00e+00	0	29	0	174063616	52	6317
2026-01-26 14:40:56.51	21.87	10.43	-39.2	-40.2	22.3	0.00e+00	0	30	0	181403648	52	5882
2026-01-26 14:41:00.55	21.93	10.79	-39.0	-40.0	22.5	0.00e+00	0	30	0	188743680	52	5743
2026-01-26 14:41:04.59	21.99	11.15	-38.8	-39.7	22.7	0.00e+00	67	30	0	197132288	50	6239
2026-01-26 14:41:08.62	22.05	11.52	-38.7	-39.7	22.7	0.00e+00	0	30	0	204472320	50	6181
2026-01-26 14:41:12.66	22.11	11.89	-38.7	-39.6	22.8	0.00e+00	0	30	0	211812352	50	6159
2026-01-26 14:41:16.69	22.17	12.27	-38.4	-39.4	23.0	0.00e+00	0	29	0	219152384	50	5967
2026-01-26 14:41:20.73	22.24	12.65	-38.2	-39.1	23.2	0.00e+00	0	30	0	226492416	50	5790
2026-01-26 14:41:24.77	22.30	13.04	-38.3	-39.3	23.1	0.00e+00	0	30	0	234881024	50	5902
2026-01-26 14:41:28.81	22.37	13.44	-38.0	-38.9	23.3	0.00e+00	0	30	0	242221056	50	5667
2026-01-26 14:41:32.84	22.43	13.85	-38.0	-38.9	23.4	0.00e+00	71	30	0	249561088	48	6319
2026-01-26 14:41:36.88	22.50	14.26	-37.9	-38.8	23.5	0.00e+00	0	30	0	256901120	48	6257
2026-01-26 14:41:40.92	22.57	14.68	-37.9	-38.8	23.4	0.00e+00	0	30	0	265289728	48	6271
2026-01-26 14:41:44.95	22.64	15.10	-37.7	-38.5	23.3	0.00e+00	0	29	0	272629760	48	6079
2026-01-26 14:41:48.99	22.71	15.53	-37.5	-38.4	23.6	0.00e+00	65	29	0	279969792	48	5997
2026-01-26 14:41:53.02	22.79	15.97	-37.5	-38.4	23.8	0.00e+00	0	30	0	287309824	48	5990
2026-01-26 14:41:57.06	22.86	16.42	-37.6	-38.4	23.9	0.00e+00	0	30	0	294649856	48	6030
2026-01-26 14:42:01.09	22.94	16.88	-37.8	-38.7	23.6	0.00e+00	71	29	0	303038464	48	6207
2026-01-26 14:42:05.13	23.02	17.35	-37.9	-38.8	23.6	0.00e+00	81	29	0	310378496	48	6297
2026-01-26 14:42:09.17	23.10	17.82	-38.2	-39.1	23.4	0.00e+00	0	29	0	317718528	48	6481
2026-01-26 14:42:13.21	23.19	18.31	-38.3	-39.2	23.4	0.00e+00	0	29	0	325058560	48	6564
2026-01-26 14:42:17.25	23.27	18.80	-38.8	-39.8	23.0	0.00e+00	73	29	0	333447168	48	7035
2026-01-26 14:42:21.29	23.36	19.30	-39.0	-40.0	22.8	0.00e+00	0	29	0	340787200	50	6419
2026-01-26 14:42:25.32	23.45	19.82	-39.5	-40.5	22.4	0.00e+00	0	29	0	348127232	52	6076
2026-01-26 14:42:29.36	23.55	20.34	-39.7	-40.7	22.2	0.00e+00	0	29	0	355467264	52	6245
2026-01-26 14:42:33.40	23.64	20.88	-39.7	-40.7	22.2	0.00e+00	90	29	0	362807296	52	6202
2026-01-26 14:42:37.44	23.74	21.43	-39.5	-40.5	22.5	0.00e+00	0	29	0	371195904	52	6092
2026-01-26 14:42:41.48	23.84	21.99	-39.3	-40.3	22.5	0.00e+00	0	29	0	378535936	52	5928
2026-01-26 14:42:45.52	23.95	22.56	-39.7	-40.8	22.2	0.00e+00	9	29	0	385875968	52	6247
2026-01-26 14:42:49.55	24.05	23.15	-39.8	-40.8	22.3	0.00e+00	74	29	0	393216000	52	6264
2026-01-26 14:42:53.59	24.17	23.75	-39.7	-40.7	22.3	0.00e+00	0	29	0	401604608	52	6217
2026-01-26 14:42:57.63	24.28	24.36	-39.1	-40.1	22.7	0.00e+00	0	29	0	408944640	52	5785
2026-01-26 14:43:01.66	24.40	24.99	-39.1	-40.0	22.8	0.00e+00	71	29	0	416284672	52	5748
2026-01-26 14:43:05.70	24.52	25.64	-39.1	-40.1	22.8	0.00e+00	0	29	0	423624704	52	5793
2026-01-26 14:43:09.73	24.65	26.29	-39.1	-40.1	22.9	0.00e+00	0	29	0	430964736	50	6519
2026-01-26 14:43:13.77	24.78	26.97	-39.4	-40.4	22.5	0.00e+00	0	29	0	439353344	50	6746
2026-01-26 14:43:17.81	24.92	27.67	-39.4	-40.4	22.8	0.00e+00	72	29	0	446693376	50	6704
2026-01-26 14:43:21.84	25.07	28.38	-38.8	-39.8	23.0	0.00e+00	0	29	0	454033408	50	6284
2026-01-26 14:43:25.88	25.21	29.11	-39.6	-40.7	22.3	0.00e+00	0	29	0	461373440	52	6212
2026-01-26 14:43:29.92	25.37	29.86	-40.3	-41.5	21.8	0.00e+00	0	29	0	468713472	52	6796
2026-01-26 14:43:33.96	25.53	30.63	-41.2	-42.5	20.9	0.00e+00	87	29	0	477102080	54	6821
2026-01-26 14:43:37.99	25.70	31.41	-42.3	-43.8	19.7	0.00e+00	0	29	0	484442112	56	7074
2026-01-26 14:43:42.02	25.88	32.22	-42.6	-44.2	19.3	0.00e+00	0	29	0	491782144	58	6569
2026-01-26 14:43:46.06	26.06	33.06	-42.1	-43.6	20.0	0.00e+00	25	29	0	499122176	58	6166
2026-01-26 14:43:50.09	26.26	33.92	-40.7	-41.9	21.6	0.00e+00	91	29	0	507510784	54	6342
2026-01-26 14:43:54.13	26.46	34.80	-39.2	-40.2	22.9	0.00e+00	0	29	0	514850816	50	6560
2026-01-26 14:43:58.17	26.68	35.71	-38.2	-39.0	23.6	0.00e+00	0	29	0	522190848	50	5751
2026-01-26 14:44:02.21	26.90	36.64	-38.1	-39.0	23.5	0.00e+00	4	29	0	529530880	50	5724
2026-01-26 14:44:06.24	27.14	37.60	-38.9	-39.8	23.1	0.00e+00	0	29	0	536870912	50	6295
2026-01-26 14:44:10.27	27.39	38.59	-39.1	-40.1	22.8	0.00e+00	0	29	0	545259520	50	6473
2026-01-26 14:44:14.31	27.66	39.60	-39.9	-41.0	22.1	0.00e+00	0	29	0	552599552	52	6446
2026-01-26 14:44:18.35	27.94	40.65	-40.3	-41.4	21.8	0.00e+00	63	29	0	559939584	52	6750
2026-01-26 14:44:22.39	28.24	41.73	-39.6	-40.7	22.4	0.00e+00	0	29	0	567279616	54	5509
2026-01-26 14:44:26.43	28.56	42.84	-38.3	-39.2	23.3	0.00e+00	0	29	0	574619648	50	5848
2026-01-26 14:44:30.46	28.91	43.99	-38.9	-39.9	23.0	0.00e+00	0	29	0	583008256	50	6375
2026-01-26 14:44:34.49	29.28	45.16	-40.3	-41.5	21.6	0.00e+00	82	29	0	590348288	54	6075
2026-01-26 14:44:38.53	29.67	46.37	-42.3	-43.8	19.7	0.00e+00	0	29	0	597688320	56	7055
2026-01-26 14:44:42.57	30.10	47.62	-41.6	-43.0	20.3	0.00e+00	0	29	0	605028352	56	6438
2026-01-26 14:44:46.61	30.56	48.90	-38.6	-39.5	23.2	0.00e+00	0	29	0	613416960	50	6072
2026-01-26 14:44:50.64	31.06	50.22	-37.2	-38.1	24.3	0.00e+00	12	29	0	620756992	48	5799
2026-01-26 14:44:54.68	31.61	51.58	-36.8	-37.7	24.6	0.00e+00	0	29	0	628097024	48	5518
2026-01-26 14:44:58.71	32.20	52.97	-36.3	-37.1	25.0	0.00e+00	0	29	0	635437056	46	5826
2026-01-26 14:45:02.75	32.86	54.40	-35.8	-36.6	25.3	0.00e+00	76	29	0	642777088	44	6135
2026-01-26 14:45:06.79	33.58	55.87	-35.7	-36.5	25.3	0.00e+00	0	29	0	651165696	44	6099
2026-01-26 14:45:10.83	34.39	57.37	-35.1	-35.9	25.9	0.00e+00	0	29	0	658505728	42	6322
2026-01-26 14:45:14.87	35.28	58.91	-35.4	-36.1	25.5	0.00e+00	0	29	0	665845760	44	5799
2026-01-26 14:45:18.90	36.29	60.48	-37.3	-38.1	24.4	0.00e+00	79	29	0	673185792	46	6517
2026-01-26 14:45:22.93	37.42	62.07	-36.1	-36.9	25.1	0.00e+00	0	29	0	680525824	46	5654
2026-01-26 14:45:26.97	38.72	63.70	-36.4	-37.2	24.8	0.00e+00	0	29	0	688914432	46	5852
2026-01-26 14:45:31.00	40.21	65.35	-36.3	-37.1	25.0	0.00e+00	0	29	0	696254464	46	5793
2026-01-26 14:45:35.04	41.94	67.03	-37.8	-38.7	23.9	0.00e+00	62	29	0	703594496	46	6930
2026-01-26 14:45:39.08	43.97	68.71	-38.3	-39.3	23.5	0.00e+00	0	29	0	710934528	48	6642
2026-01-26 14:45:43.11	46.36	70.39	-41.0	-42.1	21.1	0.00e+00	0	29	0	719323136	54	6527
2026-01-26 14:45:47.15	49.25	72.07	-41.2	-42.4	21.2	0.00e+00	79	29	0	726663168	54	6757
2026-01-26 14:45:51.19	52.75	73.72	-42.8	-44.4	19.5	0.00e+00	0	29	0	734003200	58	6699
2026-01-26 14:45:55.23	57.08	75.33	-39.1	-40.1	22.8	0.00e+00	0	29	0	741343232	50	6488
2026-01-26 14:45:59.27	62.47	76.85	-39.0	-39.9	23.0	0.00e+00	0	29	0	748683264	52	5695
2026-01-26 14:46:03.31	69.24	78.24	-38.6	-39.5	23.5	0.00e+00	73	29	0	757071872	50	6049
2026-01-26 14:46:07.35	77.74	79.45	-39.7	-40.7	22.2	0.00e+00	0	28	0	764411904	52	6240
2026-01-26 14:46:11.39	88.17	80.37	-41.3	-42.6	20.8	0.00e+00	33	29	0	771751936	54	6880
2026-01-26 14:46:15.43	100.36	80.93	-39.9	-41.0	22.0	0.00e+00	0	28	0	779091968	54	5713
2026-01-26 14:46:19.46	113.47	81.04	-40.8	-42.0	21.3	0.00e+00	77	29	0	787480576	54	6397
2026-01-26 14:46:23.50	126.27	80.70	-43.6	-45.5	18.4	0.00e+00	0	29	0	794820608	58	7648
2026-01-26 14:46:27.54	137.63	79.94	-42.5	-44.0	19.9	0.00e+00	0	29	0	802160640	56	7186
2026-01-26 14:46:31.58	147.08	78.86	-39.9	-40.9	22.4	0.00e+00	0	29	0	809500672	54	5667
2026-01-26 14:46:35.62	154.67	77.55	-40.3	-41.4	21.4	0.00e+00	0	29	0	816840704	52	6723
2026-01-26 14:46:39.65	160.69	76.09	-38.8	-39.7	23.4	0.00e+00	0	29	0	825229312	48	6985
2026-01-26 14:46:43.69	165.51	74.52	-39.8	-40.8	22.3	0.00e+00	0	29	0	832569344	54	5610
2026-01-26 14:46:47.73	169.39	72.89	-38.1	-39.0	23.7	0.00e+00	0	28	0	839909376	48	6391
2026-01-26 14:46:51.76	172.56	71.22	-44.5	-46.6	17.6	0.00e+00	0	28	0	847249408	60	7695
2026-01-26 14:46:55.80	175.19	69.54	-45.1	-47.6	16.0	0.00e+00	0	28	0	855638016	60	8637
2026-01-26 14:46:59.84	177.39	67.85	-38.4	-39.2	23.7	0.00e+00	0	28	0	862978048	50	5876
2026-01-26 14:47:03.88	179.26	66.16	-38.1	-39.0	23.8	0.00e+00	75	29	0	870318080	50	5730
2026-01-26 14:47:07.92	180.86	64.50	-40.3	-41.5	21.6	0.00e+00	0	29	0	877658112	54	6079
2026-01-26 14:47:11.96	182.25	62.85	-38.0	-38.9	23.9	0.00e+00	0	29	0	884998144	48	6318
2026-01-26 14:47:15.99	183.46	61.23	-36.4	-37.1	24.9	0.00e+00	0	29	0	893386752	46	5810
2026-01-26 14:47:20.03	184.53	59.64	-38.9	-39.8	23.0	0.00e+00	76	28	0	900726784	50	6309
2026-01-26 14:47:24.07	185.48	58.09	-39.2	-40.3	22.7	0.00e+00	0	28	0	908066816	50	6647
2026-01-26 14:47:28.11	186.33	56.56	-37.8	-38.7	23.8	0.00e+00	0	28	0	915406848	48	6203
2026-01-26 14:47:32.14	187.09	55.08	-39.4	-40.4	22.7	0.00e+00	71	28	0	923795456	52	6003
2026-01-26 14:47:36.18	187.77	53.62	-40.5	-41.7	20.0	0.00e+00	0	28	0	931135488	52	6972
2026-01-26 14:47:40.22	188.40	52.21	-38.8	-39.7	23.3	0.00e+00	0	28	0	938475520	50	6232
2026-01-26 14:47:44.26	188.97	50.83	-40.6	-41.8	21.5	0.00e+00	0	28	0	945815552	52	7037
2026-01-26 14:47:48.30	189.49	49.49	-38.2	-39.0	23.5	0.00e+00	92	28	0	953155584	50	5753
2026-01-26 14:47:52.33	189.97	48.18	-43.3	-45.2	17.9	0.00e+00	0	28	0	961544192	56	8267
2026-01-26 14:47:56.37	190.41	46.92	-42.1	-43.6	20.0	0.00e+00	0	28	0	968884224	58	6119
2026-01-26 14:48:00.41	190.82	45.68	-40.6	-41.7	21.0	0.00e+00	0	28	0	976224256	54	6236
2026-01-26 14:48:04.44	191.20	44.49	-40.5	-41.8	21.4	0.00e+00	92	28	0	983564288	54	6267
2026-01-26 14:48:08.48	191.56	43.32	-37.4	-38.3	24.2	0.00e+00	0	28	0	991952896	48	5917
2026-01-26 14:48:12.52	191.89	42.19	-38.9	-40.0	22.8	0.00e+00	0	28	0	999292928	50	6401
2026-01-26 14:48:16.56	192.20	41.10	-40.4	-41.6	21.5	0.00e+00	0	28	0	1006632960	52	6901
2026-01-26 14:48:20.60	192.49	40.03	-37.5	-38.3	24.3	0.00e+00	28	28	0	1013972992	48	5956
2026-01-26 14:48:24.64	192.76	38.99	-38.4	-39.4	23.2	0.00e+00	0	28	0	1021313024	48	6700
2026-01-26 14:48:28.67	193.02	37.99	-45.4	-48.6	14.8	0.00e+00	0	28	0	1029701632	60	9759
2026-01-26 14:48:32.71	193.26	37.01	-43.8	-46.0	18.0	0.00e+00	65	28	0	1037041664	60	7222
2026-01-26 14:48:36.75	193.49	36.06	-38.8	-39.8	22.9	0.00e+00	0	28	0	1044381696	52	5576
2026-01-26 14:48:40.78	193.71	35.14	-40.9	-42.2	21.1	0.00e+00	0	28	0	1051721728	54	6600
2026-01-26 14:48:44.81	193.92	34.25	-45.2	-48.2	15.8	0.00e+00	0	28	0	1060110336	60	9341
2026-01-26 14:48:48.85	194.12	33.37	-46.8	-52.0	11.2	6.84e-04	82	28	0	1067450368	60	14322
2026-01-26 14:48:52.89	194.30	32.53	-44.2	-46.6	17.1	0.00e+00	0	28	0	1074790400	60	7689
2026-01-26 14:48:56.93	194.48	31.70	-41.1	-42.4	20.9	0.00e+00	0	28	0	1082130432	56	6007
2026-01-26 14:49:00.96	194.66	30.90	-41.6	-43.0	20.5	0.00e+00	0	28	0	1089470464	56	6392
2026-01-26 14:49:05.00	194.82	30.12	-42.5	-44.1	19.3	0.00e+00	92	28	0	1097859072	56	7269
2026-01-26 14:49:09.04	194.98	29.36	-40.7	-41.9	21.3	0.00e+00	0	28	0	1105199104	56	5672
2026-01-26 14:49:13.08	195.13	28.61	-40.1	-41.2	21.8	0.00e+00	0	28	0	1112539136	54	5871
2026-01-26 14:49:17.12	195.27	27.89	-39.5	-40.5	22.6	0.00e+00	68	28	0	1119879168	52	6087
2026-01-26 14:49:21.16	195.41	27.19	-38.4	-39.3	23.4	0.00e+00	0	28	0	1128267776	50	5900
2026-01-26 14:49:25.20	195.54	26.50	-37.6	-38.5	24.0	0.00e+00	0	28	0	1135607808	48	6058
2026-01-26 14:49:29.24	195.67	25.83	-37.3	-38.2	24.2	0.00e+00	0	28	0	1142947840	48	5835
2026-01-26 14:49:33.28	195.80	25.18	-37.8	-38.7	23.8	0.00e+00	69	28	0	1150287872	48	6218
2026-01-26 14:49:37.31	195.92	24.54	-38.3	-39.3	23.4	0.00e+00	0	28	0	1157627904	48	6629
2026-01-26 14:49:41.35	196.03	23.92	-37.8	-38.7	23.9	0.00e+00	0	28	0	1166016512	48	6175
2026-01-26 14:49:45.39	196.14	23.31	-36.7	-37.5	24.7	0.00e+00	0	28	0	1173356544	46	6094
2026-01-26 14:49:49.42	196.25	22.72	-36.6	-37.5	24.7	0.00e+00	86	28	0	1180696576	46	6037
2026-01-26 14:49:53.46	196.35	22.14	-36.9	-37.7	24.5	0.00e+00	0	28	0	1188036608	46	6244
2026-01-26 14:49:57.50	196.46	21.57	-37.1	-37.9	24.4	0.00e+00	0	28	0	1196425216	46	6363
2026-01-26 14:50:01.54	196.55	21.01	-37.8	-38.7	23.7	0.00e+00	0	28	0	1203765248	48	6235
2026-01-26 14:50:05.57	196.65	20.47	-38.4	-39.3	23.4	0.00e+00	3	28	0	1211105280	48	6645
2026-01-26 14:50:09.61	196.74	19.94	-38.1	-39.0	23.5	0.00e+00	0	28	0	1218445312	48	6423
2026-01-26 14:50:13.64	196.83	19.42	-37.7	-38.6	23.7	0.00e+00	0	28	0	1225785344	48	6128
2026-01-26 14:50:17.68	196.92	18.91	-37.5	-38.4	23.8	0.00e+00	41	28	0	1234173952	48	5998
2026-01-26 14:50:21.72	197.00	18.41	-37.7	-38.6	23.8	0.00e+00	0	28	0	1241513984	48	6142
2026-01-26 14:50:25.76	197.08	17.92	-37.9	-38.8	23.6	0.00e+00	0	28	0	1248854016	48	6259
2026-01-26 14:50:29.79	197.16	17.44	-38.3	-39.2	23.1	0.00e+00	0	28	0	1256194048	48	6566
2026-01-26 14:50:33.83	197.24	16.96	-38.5	-39.4	23.2	0.00e+00	91	28	0	1263534080	48	6713
2026-01-26 14:50:37.87	197.32	16.50	-38.5	-39.5	23.1	0.00e+00	0	28	0	1271922688	48	6798
2026-01-26 14:50:41.91	197.39	16.05	-38.1	-39.7	22.7	0.00e+00	0	28	0	1279262720	48	6997
2026-01-26 14:50:45.95	197.47	15.60	-39.1	-40.3	22.4	0.00e+00	17	28	0	1286602752	50	6689
2026-01-26 14:50:49.99	197.54	15.16	-38.7	-39.7	22.9	0.00e+00	92	28	0	1293942784	50	6191
2026-01-26 14:50:54.03	197.61	14.73	-39.3	-40.2	22.5	0.00e+00	0	28	0	1302331392	50	6610
2026-01-26 14:50:58.07	197.67	14.31	-39.2	-40.2	22.5	0.00e+00	0	28	0	1309671424	50	6581
2026-01-26 14:51:02.10	197.74	13.90	-39.4	-40.5	22.3	0.00e+00	63	28	0	1317011456	50	6779
2026-01-26 14:51:06.13	197.81	13.49	-39.5	-40.5	22.4	0.00e+00	33	28	0	1324351488	50	6793
2026-01-26 14:51:10.17	197.87	13.09	-39.3	-40.4	22.3	0.00e+00	0	28	0	1331691520	50	6699
2026-01-26 14:51:14.21	197.93	12.69	-39.5	-40.6	22.1	0.00e+00	0	28	0	1340080128	50	6852
2026-01-26 14:51:18.25	197.99	12.30	-39.7	-40.7	22.0	0.00e+00	92	28	0	1347420160	52	6231
2026-01-26 14:51:22.29	198.05	11.92	-39.4	-40.4	22.4	0.00e+00	0	28	0	1354760192	52	5995
2026-01-26 14:51:26.33	198.11	11.54	-39.7	-40.8	22.0	0.00e+00	0	28	0	1362100224	52	6247
2026-01-26 14:51:30.36	198.17	11.17	-39.7	-40.8	21.9	0.00e+00	0	28	0	1370488832	52	6286
2026-01-26 14:51:34.40	198.22	10.81	-39.6	-40.7	22.0	0.00e+00	58	28	0	1377828864	52	6196
2026-01-26 14:51:38.44	198.28	10.45	-39.6	-40.7	21.9	0.00e+00	0	28	0	1385168896	52	6229
2026-01-26 14:51:42.48	198.33	10.09	-39.9	-41.0	21.6	0.00e+00	0	28	0	1392508928	52	6435
2026-01-26 14:51:46.51	198.39	9.74	-39.9	-41.0	21.7	0.00e+00	60	28	0	1399848960	52	6461
2026-01-26 14:51:50.55	198.44	9.40	-40.0	-41.2	21.5	0.00e+00	43	28	0	1408237568	52	6540
2026-01-26 14:51:54.58	198.49	9.06	-39.9	-41.0	21.7	0.00e+00	0	28	0	1415577600	52	6434
2026-01-26 14:51:58.62	198.54	8.72	-40.0	-41.1	21.7	0.00e+00	0	28	0	1422917632	52	6502
2026-01-26 14:52:02.66	198.59	8.39	-39.8	-40.9	21.7	0.00e+00	57	28	0	1430257664	52	6379
2026-01-26 14:52:06.70	198.64	8.06	-40.0	-41.1	21.6	0.00e+00	0	28	0	1438646272	52	6480
2026-01-26 14:52:10.74	198.69	7.74	-40.0	-41.1	21.5	0.00e+00	0	28	0	1445986304	52	6539
2026-01-26 14:52:14.78	198.73	7.42	-40.0	-41.2	21.4	0.00e+00	0	28	0	1453326336	52	6574
2026-01-26 14:52:18.82	198.78	7.10	-40.3	-41.4	21.2	0.00e+00	92	28	0	1460666368	52	6754
2026-01-26 14:52:22.85	198.83	6.79	-40.4	-41.6	21.1	0.00e+00	0	28	0	1468006400	52	6913
2026-01-26 14:52:26.89	198.87	6.49	-40.9	-42.2	20.5	0.00e+00	0	28	0	1476395008	54	6557
2026-01-26 14:52:30.93	198.91	6.18	-40.8	-42.1	20.5	0.00e+00	0	28	0	1483735040	54	6491
2026-01-26 14:52:34.97	198.96	5.88	-40.9	-42.1	20.4	0.00e+00	92	28	0	1491075072	54	6537
2026-01-26 14:52:39.01	199.00	5.58	-40.5	-41.7	20.7	0.00e+00	0	28	0	1498415104	54	6243
2026-01-26 14:52:43.05	199.04	5.29	-40.9	-42.2	20.2	0.00e+00	0	28	0	1506803712	54	6583
2026-01-26 14:52:47.09	199.09	5.00	-41.0	-42.3	20.2	0.00e+00	47	28	0	1514143744	54	6648
2026-01-26 14:52:51.12	199.13	4.71	-40.8	-42.1	20.3	0.00e+00	0	28	0	1521483776	54	6533
2026-01-26 14:52:55.16	199.17	4.43	-41.1	-42.5	20.0	0.00e+00	0	28	0	1528823808	54	6771
2026-01-26 14:52:59.20	199.21	4.15	-41.4	-42.8	19.5	0.00e+00	0	28	0	1536163840	54	7039
2026-01-26 14:53:03.23	199.25	3.87	-41.9	-43.4	18.9	0.00e+00	92	28	0	1544552448	56	6750
2026-01-26 14:53:07.26	199.29	3.60	-41.6	-43.0	19.4	0.00e+00	0	28	0	1551892480	56	6456
2026-01-26 14:53:11.30	199.33	3.32	-41.7	-43.2	19.2	0.00e+00	0	28	0	1559232512	56	6583
2026-01-26 14:53:15.34	199.36	3.05	-41.7	-43.3	19.0	0.00e+00	0	28	0	1566572544	56	6641
2026-01-26 14:53:19.38	199.40	2.78	-49.2	-64.3	3.6	1.51e+00	0	28	104	1568669696	60	59501
2026-01-26 14:53:23.42	199.44	2.52	-49.2	-64.6	3.6	1.51e+00	0	28	104	1568669696	60	61708
2026-01-26 14:53:27.46	199.48	2.26	-49.1	-64.8	3.6	1.51e+00	0	28	104	1568669696	60	62554
2026-01-26 14:53:31.49	199.51	2.00	-49.5	-64.8	3.6	1.51e+00	0	28	104	1568669696	60	62948
2026-01-26 14:53:35.53	199.55	1.74	-49.6	-64.7	3.6	1.51e+00	0	28	104	1568669696	60	62234
2026-01-26 14:53:39.57	199.58	1.48	-49.4	-64.8	3.6	1.51e+00	0	28	104	1568669696	60	62684
2026-01-26 14:53:43.61	199.62	1.23	-49.6	-64.8	3.6	1.51e+00	0	28	104	1568669696	60	63081
2026-01-26 14:53:47.66	199.65	0.98	-49.8	-65.0	3.6	1.51e+00	0	28	104	1568669696	60	63923
2026-01-26 14:53:51.69	199.69	0.73	-49.6	-64.8	3.6	1.51e+00	0	28	104	1568669696	60	62964
2026-01-26 14:53:55.73	199.72	0.48	-49.7	-64.9	3.6	1.51e+00	0	28	104	1568669696	60	63202
2026-01-26 14:53:59.77	199.76	0.24	-49.7	-64.8	3.6	1.51e+00	0	28	104	1568669696	60	62927
2026-01-26 14:54:03.81	199.79	-0.00	-49.7	-64.9	3.6	1.51e+00	0	28	104	1568669696	60	63617

#Closed at: 2026-01-26 14:54:06
#Recorded file [1568 MB]: D:/lorett/data/35029_260127_023831.dat