passes_logs/2026/01/26/R4.6S_Anadyr/R4.6S_Anadyr__20260126_222446_NOAA_21_JPSS-2_rec.log

#Pass ID: 20260126_222446_NOAA 21 (JPSS-2)
#Satellite: NOAA 21 (JPSS-2)
#Configuration: NOAA-21
#almurnet v.1.7.20251203
#Start time: 2026-01-26 22:24:51

#Version: 2.2.20231116
#Station: R4.6S_Anadyr
#Location: 177.4865 lon 64.73178 lat
#TLE: 1 54234U 22150A   26026.43130734  .00000179  00000+0  10559-3 0  9998
#TLE: 2 54234  98.7509 327.1934 0000805 209.8356 150.2774 14.19539635166435

#Time	Az	El	Level	Level2	SNR	BER	BlckErr	Temp	State	Recorded	gain1	gain2
2026-01-26 22:24:51.13	112.39	0.29	-49.9	-51.4	5.7	0.00e+00	0	26	0	0	60	45662
2026-01-26 22:24:55.16	112.22	0.52	-49.4	-62.3	3.5	1.52e+00	0	28	104	0	60	45552
2026-01-26 22:24:59.20	112.04	0.75	-49.3	-62.1	3.5	1.51e+00	0	28	104	0	60	44828
2026-01-26 22:25:03.24	111.86	0.99	-49.1	-62.1	3.5	1.52e+00	0	28	104	0	60	44498
2026-01-26 22:25:07.28	111.67	1.22	-48.9	-61.8	3.5	1.52e+00	0	28	104	0	60	43354
2026-01-26 22:25:11.32	111.48	1.46	-48.1	-61.4	3.5	1.52e+00	0	28	104	0	60	41158
2026-01-26 22:25:15.36	111.29	1.70	-47.0	-60.1	3.5	1.52e+00	0	28	104	0	60	35399
2026-01-26 22:25:19.40	111.09	1.94	-46.9	-60.1	3.5	1.52e+00	0	28	104	0	60	35554
2026-01-26 22:25:23.44	110.89	2.18	-46.9	-60.1	3.5	1.52e+00	0	28	104	0	60	35627
2026-01-26 22:25:27.48	110.69	2.43	-46.9	-60.1	3.5	1.52e+00	0	28	104	0	60	35348
2026-01-26 22:25:31.52	110.48	2.67	-47.0	-60.0	3.5	1.52e+00	0	29	104	0	60	35254
2026-01-26 22:25:35.56	110.27	2.92	-46.9	-59.7	3.5	1.52e+00	0	29	104	0	60	33783
2026-01-26 22:25:39.60	110.06	3.17	-46.9	-59.1	3.5	1.52e+00	0	29	104	0	60	31784
2026-01-26 22:25:43.64	109.84	3.42	-43.9	-47.1	12.3	6.55e-04	0	29	0	6291456	60	7992
2026-01-26 22:25:47.68	109.62	3.67	-43.6	-47.4	11.8	1.10e+00	0	29	104	11534336	56	10312
2026-01-26 22:25:51.72	109.40	3.93	-41.7	-44.0	15.3	0.00e+00	0	29	0	18874368	56	6964
2026-01-26 22:25:55.76	109.17	4.19	-39.6	-41.3	18.1	0.00e+00	0	29	0	31457280	52	6480
2026-01-26 22:25:59.79	108.93	4.45	-38.8	-40.5	19.2	0.00e+00	0	29	0	44040192	52	5885
2026-01-26 22:26:03.83	108.69	4.71	-38.2	-39.6	20.1	0.00e+00	0	29	0	56623104	50	5956
2026-01-26 22:26:07.87	108.45	4.97	-38.2	-39.5	20.3	0.00e+00	0	29	0	69206016	50	5859
2026-01-26 22:26:11.91	108.20	5.24	-37.3	-38.5	21.1	0.00e+00	0	29	0	81788928	48	5920
2026-01-26 22:26:15.95	107.95	5.50	-37.6	-38.9	20.9	0.00e+00	0	29	0	94371840	48	6181
2026-01-26 22:26:19.99	107.69	5.77	-37.5	-38.6	21.2	0.00e+00	0	29	0	106954752	48	5979
2026-01-26 22:26:24.03	107.43	6.05	-37.3	-38.4	21.5	0.00e+00	0	29	0	119537664	48	5842
2026-01-26 22:26:28.07	107.16	6.32	-37.3	-38.5	21.4	0.00e+00	0	29	0	132120576	48	5876
2026-01-26 22:26:32.12	106.89	6.60	-37.3	-38.4	21.6	0.00e+00	0	29	0	144703488	48	5799
2026-01-26 22:26:36.15	106.61	6.88	-37.0	-38.1	21.7	0.00e+00	0	29	0	157286400	48	5655
2026-01-26 22:26:40.20	106.33	7.16	-37.0	-38.1	21.8	0.00e+00	0	29	0	169869312	48	5613
2026-01-26 22:26:44.24	106.04	7.44	-36.8	-37.8	22.1	0.00e+00	0	29	0	182452224	46	6129
2026-01-26 22:26:48.28	105.74	7.73	-36.7	-37.7	22.1	0.00e+00	0	29	0	195035136	46	6025
2026-01-26 22:26:52.33	105.44	8.02	-36.4	-37.4	22.5	0.00e+00	0	29	0	207618048	46	5833
2026-01-26 22:26:56.37	105.13	8.31	-36.5	-37.6	22.4	0.00e+00	0	29	0	220200960	46	5933
2026-01-26 22:27:00.41	104.82	8.60	-36.4	-37.4	22.5	0.00e+00	0	29	0	232783872	46	5843
2026-01-26 22:27:04.45	104.50	8.90	-36.3	-37.3	22.6	0.00e+00	0	29	0	245366784	46	5745
2026-01-26 22:27:08.49	104.17	9.20	-36.2	-37.3	22.6	0.00e+00	0	29	0	257949696	46	5728
2026-01-26 22:27:12.53	103.83	9.50	-35.9	-37.0	22.9	0.00e+00	0	29	0	270532608	46	5532
2026-01-26 22:27:16.57	103.49	9.80	-35.8	-36.8	23.1	0.00e+00	0	29	0	283115520	46	5442
2026-01-26 22:27:20.61	103.14	10.11	-35.8	-36.8	23.1	0.00e+00	0	29	0	296747008	44	6127
2026-01-26 22:27:24.65	102.78	10.42	-35.5	-36.4	23.4	0.00e+00	0	29	0	309329920	44	5856
2026-01-26 22:27:28.69	102.42	10.73	-35.8	-36.8	23.2	0.00e+00	0	29	0	321912832	44	6105
2026-01-26 22:27:32.73	102.04	11.05	-35.5	-36.5	23.4	0.00e+00	0	29	0	334495744	44	5872
2026-01-26 22:27:36.77	101.66	11.37	-35.6	-36.5	23.4	0.00e+00	0	29	0	347078656	44	5911
2026-01-26 22:27:40.81	101.27	11.69	-35.3	-36.2	23.6	0.00e+00	0	29	0	359661568	44	5709
2026-01-26 22:27:44.85	100.87	12.01	-35.4	-36.4	23.4	0.00e+00	0	29	0	372244480	44	5823
2026-01-26 22:27:48.89	100.46	12.34	-35.3	-36.3	23.5	0.00e+00	0	29	0	384827392	44	5747
2026-01-26 22:27:52.93	100.04	12.67	-35.4	-36.3	23.6	0.00e+00	0	29	0	397410304	44	5756
2026-01-26 22:27:56.97	99.62	13.00	-35.1	-36.0	23.9	0.00e+00	0	29	0	409993216	44	5563
2026-01-26 22:28:01.01	99.18	13.34	-35.1	-36.1	23.8	0.00e+00	0	29	0	422576128	44	5596
2026-01-26 22:28:05.05	98.73	13.68	-35.3	-36.2	23.5	0.00e+00	0	29	0	435159040	44	5721
2026-01-26 22:28:09.09	98.27	14.02	-35.0	-35.9	24.0	0.00e+00	0	29	0	447741952	44	5514
2026-01-26 22:28:13.13	97.80	14.37	-35.0	-35.9	24.0	0.00e+00	0	30	0	460324864	44	5495
2026-01-26 22:28:17.18	97.32	14.71	-35.0	-35.9	24.0	0.00e+00	0	30	0	472907776	44	5490
2026-01-26 22:28:21.22	96.82	15.06	-34.9	-35.8	24.2	0.00e+00	0	29	0	485490688	44	5427
2026-01-26 22:28:25.26	96.32	15.42	-35.1	-36.0	24.0	0.00e+00	0	30	0	498073600	44	5549
2026-01-26 22:28:29.30	95.80	15.77	-35.0	-35.9	24.0	0.00e+00	0	30	0	510656512	44	5501
2026-01-26 22:28:33.34	95.27	16.13	-35.2	-36.1	23.9	0.00e+00	0	30	0	523239424	44	5638
2026-01-26 22:28:37.38	94.73	16.49	-35.2	-36.1	23.9	0.00e+00	0	30	0	535822336	44	5623
2026-01-26 22:28:41.42	94.17	16.86	-35.2	-36.1	23.9	0.00e+00	0	30	0	548405248	44	5634
2026-01-26 22:28:45.46	93.60	17.23	-35.0	-35.9	24.1	0.00e+00	0	30	0	560988160	44	5487
2026-01-26 22:28:49.50	93.02	17.60	-35.1	-36.0	24.0	0.00e+00	0	30	0	573571072	44	5560
2026-01-26 22:28:53.54	92.42	17.97	-35.0	-35.9	24.0	0.00e+00	0	30	0	587202560	44	5528
2026-01-26 22:28:57.59	91.80	18.34	-34.8	-35.7	24.2	0.00e+00	0	30	0	598736896	42	6063
2026-01-26 22:29:01.63	91.17	18.72	-34.8	-35.7	24.2	0.00e+00	0	30	0	612368384	42	6042
2026-01-26 22:29:05.66	90.52	19.10	-34.7	-35.7	24.2	0.00e+00	0	30	0	624951296	42	6009
2026-01-26 22:29:09.71	89.86	19.48	-34.6	-35.4	24.4	0.00e+00	0	30	0	637534208	42	5854
2026-01-26 22:29:13.75	89.18	19.86	-34.5	-35.4	24.4	0.00e+00	0	30	0	650117120	42	5827
2026-01-26 22:29:17.79	88.48	20.24	-34.6	-35.5	24.4	0.00e+00	0	30	0	662700032	42	5869
2026-01-26 22:29:21.83	87.77	20.63	-34.2	-35.1	24.7	0.00e+00	0	30	0	675282944	42	5645
2026-01-26 22:29:25.88	87.03	21.01	-34.2	-35.1	24.8	0.00e+00	0	30	0	687865856	42	5615
2026-01-26 22:29:29.92	86.28	21.40	-34.1	-34.9	24.8	0.00e+00	0	30	0	700448768	42	5527
2026-01-26 22:29:33.96	85.51	21.79	-34.3	-35.2	24.7	0.00e+00	0	30	0	713031680	42	5663
2026-01-26 22:29:38.00	84.72	22.17	-34.1	-35.0	24.8	0.00e+00	0	30	0	725614592	42	5540
2026-01-26 22:29:42.04	83.90	22.56	-34.1	-35.0	24.7	0.00e+00	0	30	0	738197504	42	5575
2026-01-26 22:29:46.08	83.07	22.95	-34.4	-35.3	24.5	0.00e+00	0	30	0	750780416	42	5781
2026-01-26 22:29:50.12	82.22	23.33	-34.2	-35.0	24.8	0.00e+00	0	30	0	763363328	42	5588
2026-01-26 22:29:54.16	81.34	23.72	-33.9	-34.8	25.0	0.00e+00	0	30	0	775946240	42	5426
2026-01-26 22:29:58.20	80.45	24.10	-33.8	-34.6	25.1	0.00e+00	0	30	0	788529152	42	5339
2026-01-26 22:30:02.24	79.53	24.48	-34.1	-35.0	24.7	0.00e+00	0	30	0	801112064	42	5573
2026-01-26 22:30:06.28	78.59	24.85	-34.4	-35.3	24.6	0.00e+00	0	30	0	813694976	42	5760
2026-01-26 22:30:10.32	77.62	25.23	-34.4	-35.3	24.7	0.00e+00	0	30	0	826277888	42	5737
2026-01-26 22:30:14.36	76.64	25.60	-34.4	-35.3	24.7	0.00e+00	0	30	0	838860800	42	5752
2026-01-26 22:30:18.40	75.63	25.96	-34.4	-35.3	24.6	0.00e+00	0	30	0	851443712	42	5774
2026-01-26 22:30:22.45	74.59	26.32	-34.5	-35.4	24.5	0.00e+00	0	30	0	864026624	42	5798
2026-01-26 22:30:26.49	73.53	26.68	-34.5	-35.4	24.6	0.00e+00	0	30	0	876609536	42	5806
2026-01-26 22:30:30.53	72.45	27.03	-34.6	-35.5	24.4	0.00e+00	0	30	0	889192448	42	5896
2026-01-26 22:30:34.57	71.35	27.37	-34.5	-35.4	24.5	0.00e+00	0	30	0	902823936	42	5857
2026-01-26 22:30:38.61	70.22	27.70	-34.6	-35.5	24.5	0.00e+00	0	30	0	915406848	42	5899
2026-01-26 22:30:42.66	69.06	28.02	-34.6	-35.5	24.5	0.00e+00	0	30	0	927989760	42	5890
2026-01-26 22:30:46.70	67.89	28.34	-34.9	-35.8	24.4	0.00e+00	0	30	0	940572672	42	6108
2026-01-26 22:30:50.74	66.69	28.64	-34.8	-35.7	24.2	0.00e+00	0	30	0	953155584	42	6046
2026-01-26 22:30:54.78	65.47	28.93	-34.5	-35.4	24.5	0.00e+00	0	30	0	965738496	42	5821
2026-01-26 22:30:58.82	64.22	29.21	-34.6	-35.5	24.5	0.00e+00	0	30	0	978321408	42	5898
2026-01-26 22:31:02.86	62.96	29.48	-34.8	-35.7	24.3	0.00e+00	0	30	0	990904320	42	6037
2026-01-26 22:31:06.90	61.67	29.74	-35.0	-35.9	24.2	0.00e+00	0	30	0	1003487232	42	6178
2026-01-26 22:31:10.94	60.37	29.98	-35.1	-36.0	24.2	0.00e+00	0	30	0	1016070144	42	6253
2026-01-26 22:31:14.98	59.04	30.20	-35.3	-36.2	24.0	0.00e+00	0	30	0	1028653056	42	6403
2026-01-26 22:31:19.02	57.70	30.41	-35.1	-36.0	24.2	0.00e+00	0	30	0	1041235968	42	6240
2026-01-26 22:31:23.06	56.34	30.60	-35.3	-36.2	24.0	0.00e+00	0	30	0	1053818880	42	6379
2026-01-26 22:31:27.10	54.97	30.78	-35.5	-36.4	23.8	0.00e+00	0	30	0	1066401792	42	6569
2026-01-26 22:31:31.14	53.58	30.94	-35.1	-36.0	24.2	0.00e+00	0	30	0	1078984704	42	6221
2026-01-26 22:31:35.18	52.18	31.08	-35.0	-35.9	24.3	0.00e+00	0	30	0	1091567616	42	6137
2026-01-26 22:31:39.22	50.76	31.20	-35.1	-36.1	24.1	0.00e+00	0	30	0	1104150528	42	6279
2026-01-26 22:31:43.26	49.34	31.30	-35.3	-36.2	24.1	0.00e+00	0	30	0	1116733440	42	6377
2026-01-26 22:31:47.30	47.91	31.38	-35.2	-36.1	24.1	0.00e+00	0	30	0	1129316352	42	6328
2026-01-26 22:31:51.34	46.47	31.44	-35.4	-36.3	23.9	0.00e+00	0	30	0	1141899264	42	6489
2026-01-26 22:31:55.38	45.03	31.48	-35.5	-36.4	23.9	0.00e+00	0	30	0	1154482176	42	6565
2026-01-26 22:31:59.42	43.59	31.50	-35.2	-36.1	24.2	0.00e+00	0	30	0	1167065088	42	6349
2026-01-26 22:32:03.46	42.14	31.50	-35.5	-36.5	23.8	0.00e+00	0	29	0	1179648000	42	6585
2026-01-26 22:32:07.50	40.70	31.48	-35.2	-36.1	24.1	0.00e+00	0	30	0	1193279488	42	6323
2026-01-26 22:32:11.54	39.26	31.44	-34.6	-35.5	24.6	0.00e+00	0	29	0	1204813824	42	5885
2026-01-26 22:32:15.58	37.82	31.38	-34.8	-35.7	24.3	0.00e+00	0	29	0	1218445312	42	6035
2026-01-26 22:32:19.62	36.39	31.30	-34.9	-35.8	24.2	0.00e+00	0	29	0	1231028224	42	6067
2026-01-26 22:32:23.66	34.97	31.19	-35.1	-36.0	24.1	0.00e+00	0	30	0	1243611136	42	6222
2026-01-26 22:32:27.70	33.56	31.07	-34.9	-35.8	24.3	0.00e+00	0	29	0	1256194048	42	6075
2026-01-26 22:32:31.74	32.16	30.93	-35.1	-36.0	24.1	0.00e+00	0	29	0	1268776960	42	6262
2026-01-26 22:32:35.78	30.77	30.78	-35.6	-36.6	23.7	0.00e+00	0	29	0	1281359872	42	6679
2026-01-26 22:32:39.82	29.40	30.60	-35.2	-36.1	24.0	0.00e+00	0	29	0	1293942784	44	5658
2026-01-26 22:32:43.86	28.04	30.41	-34.6	-35.5	24.7	0.00e+00	0	29	0	1306525696	42	5860
2026-01-26 22:32:47.90	26.70	30.20	-34.8	-35.7	24.4	0.00e+00	0	29	0	1319108608	42	6013
2026-01-26 22:32:51.94	25.38	29.97	-34.6	-35.5	24.3	0.00e+00	0	29	0	1331691520	42	5916
2026-01-26 22:32:55.98	24.08	29.73	-34.7	-35.6	24.5	0.00e+00	0	29	0	1344274432	42	5950
2026-01-26 22:33:00.03	22.79	29.48	-35.1	-36.0	24.2	0.00e+00	0	29	0	1356857344	42	6232
2026-01-26 22:33:04.07	21.53	29.21	-34.8	-35.7	24.3	0.00e+00	0	29	0	1369440256	42	6049
2026-01-26 22:33:08.11	20.29	28.93	-34.7	-35.6	24.4	0.00e+00	0	29	0	1382023168	42	5945
2026-01-26 22:33:12.15	19.07	28.64	-33.7	-34.6	25.2	0.00e+00	0	29	0	1394606080	42	5311
2026-01-26 22:33:16.19	17.88	28.33	-34.4	-35.3	24.5	0.00e+00	0	29	0	1407188992	40	6442
2026-01-26 22:33:20.23	16.70	28.02	-34.3	-35.2	24.6	0.00e+00	0	29	0	1419771904	40	6392
2026-01-26 22:33:24.27	15.56	27.69	-35.2	-36.1	24.1	0.00e+00	0	29	0	1432354816	42	6331
2026-01-26 22:33:28.31	14.43	27.36	-34.6	-35.5	24.4	0.00e+00	0	29	0	1444937728	42	5866
2026-01-26 22:33:32.35	13.33	27.02	-33.9	-34.7	25.1	0.00e+00	0	29	0	1457520640	42	5383
2026-01-26 22:33:36.39	12.25	26.68	-33.9	-34.8	24.9	0.00e+00	0	29	0	1471152128	42	5417
2026-01-26 22:33:40.44	11.19	26.32	-33.9	-34.7	25.0	0.00e+00	0	29	0	1482686464	40	6055
2026-01-26 22:33:44.48	10.16	25.96	-34.6	-35.5	24.4	0.00e+00	0	29	0	1496317952	40	6605
2026-01-26 22:33:48.52	9.16	25.60	-34.3	-35.2	24.4	0.00e+00	0	29	0	1508900864	40	6409
2026-01-26 22:33:52.56	8.17	25.23	-34.6	-35.6	24.2	0.00e+00	0	29	0	1521483776	40	6656
2026-01-26 22:33:56.60	7.21	24.86	-34.7	-35.6	24.3	0.00e+00	0	29	0	1534066688	40	6697
2026-01-26 22:34:00.64	6.27	24.48	-34.6	-35.5	24.4	0.00e+00	0	29	0	1546649600	42	5920
2026-01-26 22:34:04.68	5.36	24.10	-34.4	-35.3	24.5	0.00e+00	0	29	0	1559232512	42	5750
2026-01-26 22:34:08.73	4.46	23.72	-34.3	-35.2	24.8	0.00e+00	0	29	0	1571815424	42	5671
2026-01-26 22:34:12.77	3.59	23.34	-34.6	-35.6	24.4	0.00e+00	0	29	0	1584398336	42	5927
2026-01-26 22:34:16.81	2.74	22.95	-34.5	-35.4	24.4	0.00e+00	0	29	0	1596981248	42	5857
2026-01-26 22:34:20.85	1.91	22.57	-34.7	-35.6	24.4	0.00e+00	0	29	0	1609564160	42	5976
2026-01-26 22:34:24.89	1.11	22.18	-34.3	-35.2	24.8	0.00e+00	0	29	0	1622147072	42	5661
2026-01-26 22:34:28.93	0.32	21.80	-34.3	-35.1	24.8	0.00e+00	0	29	0	1634729984	42	5650
2026-01-26 22:34:32.98	359.55	21.41	-34.0	-34.9	24.9	0.00e+00	0	29	0	1647312896	42	5470
2026-01-26 22:34:37.02	358.80	21.03	-33.8	-34.7	25.0	0.00e+00	0	29	0	1659895808	42	5376
2026-01-26 22:34:41.06	358.07	20.64	-34.4	-35.3	24.6	0.00e+00	0	29	0	1672478720	42	5739
2026-01-26 22:34:45.10	357.36	20.26	-34.7	-35.6	24.3	0.00e+00	0	29	0	1685061632	42	5941
2026-01-26 22:34:49.14	356.66	19.88	-34.2	-35.1	24.7	0.00e+00	0	29	0	1697644544	42	5631
2026-01-26 22:34:53.18	355.99	19.50	-34.0	-34.9	24.9	0.00e+00	0	29	0	1710227456	42	5495
2026-01-26 22:34:57.22	355.33	19.12	-34.6	-35.5	24.3	0.00e+00	0	29	0	1722810368	42	5897
2026-01-26 22:35:01.26	354.68	18.74	-34.4	-35.3	24.2	0.00e+00	0	29	0	1735393280	42	5788
2026-01-26 22:35:05.30	354.05	18.36	-34.5	-35.4	24.2	0.00e+00	0	28	0	1747976192	42	5850
2026-01-26 22:35:09.34	353.44	17.99	-34.7	-35.6	24.2	0.00e+00	0	28	0	1760559104	42	5986
2026-01-26 22:35:13.38	352.85	17.62	-34.9	-35.8	23.9	0.00e+00	0	28	0	1773142016	42	6098
2026-01-26 22:35:17.42	352.26	17.25	-34.6	-35.6	24.1	0.00e+00	0	28	0	1785724928	42	5939
2026-01-26 22:35:21.46	351.70	16.89	-34.4	-35.3	24.5	0.00e+00	0	28	0	1799356416	42	5736
2026-01-26 22:35:25.50	351.14	16.52	-34.8	-35.7	24.3	0.00e+00	0	28	0	1811939328	42	6014
2026-01-26 22:35:29.54	350.60	16.16	-35.0	-36.0	24.0	0.00e+00	0	28	0	1824522240	42	6223
2026-01-26 22:35:33.58	350.08	15.81	-34.7	-35.6	24.1	0.00e+00	0	28	0	1837105152	42	5980
2026-01-26 22:35:37.62	349.56	15.45	-34.7	-35.6	24.2	0.00e+00	0	28	0	1849688064	42	5989
2026-01-26 22:35:41.66	349.06	15.10	-34.9	-35.8	24.1	0.00e+00	0	28	0	1862270976	42	6077
2026-01-26 22:35:45.70	348.57	14.75	-35.2	-36.1	23.9	0.00e+00	0	28	0	1874853888	42	6294
2026-01-26 22:35:49.74	348.09	14.40	-35.3	-36.2	23.8	0.00e+00	0	28	0	1887436800	42	6405
2026-01-26 22:35:53.78	347.62	14.06	-35.2	-36.1	23.8	0.00e+00	0	28	0	1900019712	42	6332
2026-01-26 22:35:57.82	347.17	13.72	-35.3	-36.3	23.7	0.00e+00	0	28	0	1912602624	42	6449
2026-01-26 22:36:01.86	346.72	13.38	-35.5	-36.4	23.6	0.00e+00	0	28	0	1925185536	42	6542
2026-01-26 22:36:05.90	346.29	13.04	-36.0	-36.9	23.2	0.00e+00	0	28	0	1937768448	44	6199
2026-01-26 22:36:09.94	345.86	12.71	-36.2	-37.2	22.8	0.00e+00	0	28	0	1950351360	44	6397
2026-01-26 22:36:13.97	345.45	12.38	-36.4	-37.4	22.5	0.00e+00	0	28	0	1962934272	44	6561
2026-01-26 22:36:18.02	345.04	12.06	-36.4	-37.5	22.7	0.00e+00	0	28	0	1975517184	44	6581
2026-01-26 22:36:22.05	344.64	11.73	-35.9	-36.9	23.0	0.00e+00	0	28	0	1988100096	44	6205
2026-01-26 22:36:26.09	344.26	11.41	-36.0	-37.0	22.9	0.00e+00	0	28	0	2000683008	44	6237
2026-01-26 22:36:30.14	343.88	11.10	-36.4	-37.4	22.7	0.00e+00	0	28	0	2013265920	44	6547
2026-01-26 22:36:34.18	343.51	10.78	-36.9	-38.0	22.2	0.00e+00	0	28	0	2025848832	46	6213
2026-01-26 22:36:38.22	343.14	10.47	-37.2	-38.2	22.0	0.00e+00	0	28	0	2038431744	46	6415
2026-01-26 22:36:42.25	342.79	10.16	-36.8	-37.8	22.2	0.00e+00	0	28	0	2051014656	46	6111
2026-01-26 22:36:46.29	342.44	9.85	-36.6	-37.6	22.4	0.00e+00	0	28	0	2063597568	46	5950
2026-01-26 22:36:50.33	342.10	9.55	-36.3	-37.3	22.7	0.00e+00	0	28	0	2076180480	46	5777
2026-01-26 22:36:54.35	341.77	9.25	-36.3	-37.3	22.7	0.00e+00	0	28	0	2088763392	46	5763
2026-01-26 22:36:58.39	341.45	8.95	-36.4	-37.4	22.5	0.00e+00	0	28	0	2102394880	46	5844
2026-01-26 22:37:02.43	341.13	8.66	-37.2	-38.4	21.7	0.00e+00	0	28	0	2114977792	46	6502
2026-01-26 22:37:06.47	340.82	8.36	-36.9	-37.9	22.2	0.00e+00	0	28	0	2127560704	46	6198
2026-01-26 22:37:10.52	340.51	8.07	-37.2	-38.3	21.7	0.00e+00	0	28	0	2140143616	46	6433
2026-01-26 22:37:14.56	340.21	7.78	-36.8	-37.9	22.0	0.00e+00	0	28	0	2152726528	46	6137
2026-01-26 22:37:18.60	339.92	7.50	-36.9	-38.0	22.0	0.00e+00	0	28	0	2165309440	46	6229
2026-01-26 22:37:22.64	339.63	7.22	-37.1	-38.2	21.8	0.00e+00	0	28	0	2177892352	46	6354
2026-01-26 22:37:26.68	339.35	6.93	-37.2	-38.3	21.6	0.00e+00	0	28	0	2190475264	46	6454
2026-01-26 22:37:30.72	339.07	6.66	-37.2	-38.3	21.6	0.00e+00	0	28	0	2203058176	46	6461
2026-01-26 22:37:34.76	338.80	6.38	-37.5	-38.6	21.3	0.00e+00	0	28	0	2215641088	46	6685
2026-01-26 22:37:38.80	338.54	6.11	-37.4	-38.5	21.3	0.00e+00	0	28	0	2228224000	46	6599
2026-01-26 22:37:42.84	338.28	5.83	-37.8	-38.9	20.8	0.00e+00	0	28	0	2240806912	46	6928
2026-01-26 22:37:46.88	338.03	5.57	-38.1	-39.4	20.1	0.00e+00	0	28	0	2253389824	48	6520
2026-01-26 22:37:50.92	337.78	5.30	-39.2	-40.6	18.6	0.00e+00	0	28	0	2265972736	50	6675
2026-01-26 22:37:54.96	337.53	5.03	-41.0	-43.0	15.6	0.00e+00	0	28	0	2278555648	54	6977
2026-01-26 22:37:59.01	337.29	4.77	-42.6	-45.9	11.3	6.56e-04	0	28	0	2291138560	56	8759
2026-01-26 22:38:03.05	337.06	4.51	-43.6	-49.1	6.7	1.63e-01	0	28	0	2303721472	58	11264
2026-01-26 22:38:07.09	336.82	4.25	-44.0	-53.3	4.3	1.33e+00	3	28	104	2308964352	60	16299
2026-01-26 22:38:11.13	336.60	3.99	-44.2	-55.7	3.5	1.51e+00	0	28	104	2308964352	60	21440
2026-01-26 22:38:15.17	336.37	3.74	-44.1	-56.5	3.5	1.52e+00	0	28	104	2308964352	60	23422
2026-01-26 22:38:19.20	336.16	3.49	-44.0	-56.7	3.5	1.52e+00	0	28	104	2308964352	60	24123
2026-01-26 22:38:23.24	335.94	3.24	-44.0	-56.7	3.5	1.52e+00	0	28	104	2308964352	60	24136
2026-01-26 22:38:27.28	335.73	2.99	-43.9	-56.7	3.5	1.52e+00	0	28	104	2308964352	60	24052
2026-01-26 22:38:31.33	335.52	2.74	-48.7	-61.6	3.5	1.52e+00	0	28	104	2308964352	60	42165
2026-01-26 22:38:35.37	335.32	2.49	-49.2	-62.0	3.5	1.52e+00	0	28	104	2308964352	60	44150
2026-01-26 22:38:39.41	335.12	2.25	-49.3	-62.1	3.5	1.52e+00	0	28	104	2308964352	60	44875
2026-01-26 22:38:43.45	334.93	2.01	-48.9	-62.0	3.5	1.52e+00	0	28	104	2308964352	60	44279
2026-01-26 22:38:47.49	334.73	1.77	-49.2	-62.0	3.5	1.52e+00	0	28	104	2308964352	60	44117
2026-01-26 22:38:51.52	334.54	1.53	-49.2	-62.0	3.5	1.52e+00	0	28	104	2308964352	60	44341
2026-01-26 22:38:55.56	334.36	1.29	-49.1	-62.0	3.5	1.51e+00	0	28	104	2308964352	60	44089
2026-01-26 22:38:59.60	334.18	1.06	-49.2	-62.0	3.5	1.52e+00	0	28	104	2308964352	60	44212
2026-01-26 22:39:03.64	334.00	0.82	-49.1	-62.0	3.5	1.52e+00	0	28	104	2308964352	60	44179
2026-01-26 22:39:07.69	333.82	0.59	-49.3	-62.2	3.5	1.51e+00	0	28	104	2308964352	60	45028
2026-01-26 22:39:11.72	333.65	0.36	-49.2	-62.0	3.5	1.52e+00	0	28	104	2308964352	60	44234
2026-01-26 22:39:15.77	333.48	0.13	-49.2	-62.1	3.5	1.51e+00	0	28	104	2308964352	60	44476
2026-01-26 22:39:19.80	333.31	-0.10	-49.1	-62.0	3.5	1.52e+00	0	28	104	2308964352	60	44021

#Closed at: 2026-01-26 22:39:21
#Recorded file [2308 MB]: D:/lorett/data/35029_260127_102451.dat