passes_logs/2026/01/26/R4.6S_Anadyr/R4.6S_Anadyr__20260126_173603_AQUA_rec.log

#Pass ID: 20260126_173603_AQUA
#Satellite: AQUA
#Configuration: AQUA
#almurnet v.1.7.20251203
#Start time: 2026-01-26 17:36:06

#Version: 2.2.20231116
#Station: R4.6S_Anadyr
#Location: 177.4865 lon 64.73178 lat
#TLE: 1 27424U 02022A   26025.91340420  .00001969  00000+0  40368-3 0  9991
#TLE: 2 27424  98.4100 352.5253 0001880  65.2649  27.8322 14.61861165262482

#Time	Az	El	Level	Level2	SNR	BER	BlckErr	Temp	State	Recorded	gain1	gain2
2026-01-26 17:36:06.21	21.73	0.16	-49.4	-61.2	3.5	8.45e-01	0	27	0	0	60	41479
2026-01-26 17:36:10.24	21.59	0.40	-50.5	-68.4	3.5	3.03e+01	0	28	104	0	60	101676
2026-01-26 17:36:14.28	21.45	0.65	-49.6	-67.5	3.5	3.03e+01	0	28	104	0	60	91551
2026-01-26 17:36:18.32	21.31	0.89	-49.6	-67.5	3.5	3.03e+01	0	28	104	0	60	90776
2026-01-26 17:36:22.36	21.16	1.14	-49.5	-67.4	3.5	3.03e+01	0	28	104	0	60	89977
2026-01-26 17:36:26.40	21.01	1.39	-49.1	-67.0	3.5	3.03e+01	0	28	104	0	60	86220
2026-01-26 17:36:30.43	20.85	1.65	-48.7	-66.6	3.5	3.03e+01	0	29	104	0	60	82345
2026-01-26 17:36:34.46	20.69	1.90	-48.3	-66.1	3.5	3.03e+01	0	29	104	0	60	77576
2026-01-26 17:36:38.50	20.53	2.16	-48.3	-65.8	3.5	3.03e+01	0	29	104	0	60	75339
2026-01-26 17:36:42.54	20.37	2.42	-48.3	-65.4	3.5	3.03e+01	0	29	104	0	60	71507
2026-01-26 17:36:46.58	20.20	2.68	-48.3	-66.0	3.5	3.03e+01	0	29	104	0	60	76603
2026-01-26 17:36:50.61	20.03	2.95	-48.2	-65.2	3.5	3.03e+01	0	29	104	0	60	69688
2026-01-26 17:36:54.36	19.86	3.20	-48.2	-64.9	3.5	3.03e+01	0	29	104	0	60	67788
2026-01-26 17:36:58.40	19.68	3.47	-47.2	-61.2	3.5	3.03e+01	0	29	104	0	60	44145
2026-01-26 17:37:02.44	19.50	3.74	-42.9	-53.9	3.5	3.03e+01	0	29	104	0	60	19083
2026-01-26 17:37:06.48	19.31	4.02	-43.9	-55.1	3.5	3.03e+01	0	29	104	0	60	21889
2026-01-26 17:37:10.52	19.12	4.30	-36.9	-42.1	6.3	3.03e+01	92	29	0	0	48	9774
2026-01-26 17:37:14.55	18.92	4.58	-37.4	-40.3	10.2	3.03e+01	0	29	0	7340032	48	7907
2026-01-26 17:37:18.59	18.72	4.86	-37.8	-40.5	11.6	3.03e+01	0	29	0	15204352	50	7238
2026-01-26 17:37:22.63	18.52	5.15	-36.4	-39.1	11.0	3.03e+01	0	29	0	22544384	48	6893
2026-01-26 17:37:26.66	18.31	5.44	-36.8	-39.9	9.7	3.03e+01	0	29	0	29884416	48	7553
2026-01-26 17:37:30.70	18.09	5.73	-36.2	-39.8	7.7	3.03e+01	55	29	0	37748736	48	7506
2026-01-26 17:37:34.74	17.87	6.03	-38.2	-44.9	3.7	3.03e+01	0	29	104	42991616	50	11968
2026-01-26 17:37:38.77	17.64	6.33	-38.6	-48.5	3.5	3.03e+01	0	29	104	42991616	50	18224
2026-01-26 17:37:42.81	17.41	6.63	-38.5	-40.1	22.0	3.03e+01	0	29	0	46661632	54	5473
2026-01-26 17:37:46.84	17.18	6.94	-36.9	-38.3	24.5	3.03e+01	0	29	0	54525952	50	5619
2026-01-26 17:37:50.88	16.93	7.25	-38.8	-40.4	22.7	3.03e+01	0	29	0	61865984	50	7148
2026-01-26 17:37:54.92	16.68	7.57	-40.1	-41.8	22.0	3.03e+01	0	29	0	69206016	54	6686
2026-01-26 17:37:58.95	16.43	7.89	-41.0	-42.8	21.7	3.03e+01	0	29	0	77070336	56	6705
2026-01-26 17:38:02.99	16.17	8.21	-45.8	-49.9	14.6	3.03e+01	0	29	0	84410368	60	11975
2026-01-26 17:38:07.03	15.90	8.54	-48.0	-59.1	3.9	3.03e+01	0	29	104	91750400	60	34719
2026-01-26 17:38:11.07	15.62	8.87	-48.3	-61.1	3.7	3.03e+01	0	29	104	91750400	60	43647
2026-01-26 17:38:15.10	15.34	9.20	-39.1	-49.5	3.5	3.03e+01	0	29	104	91750400	50	20333
2026-01-26 17:38:19.14	15.05	9.54	-39.9	-50.3	3.6	3.03e+01	0	29	104	91750400	54	17888
2026-01-26 17:38:23.17	14.75	9.89	-40.3	-50.9	3.5	3.03e+01	0	29	104	91750400	56	16960
2026-01-26 17:38:27.20	14.44	10.24	-37.6	-47.9	3.5	3.03e+01	0	29	104	91750400	50	16926
2026-01-26 17:38:31.24	14.12	10.59	-48.4	-65.4	3.5	3.03e+01	0	29	104	91750400	60	71429
2026-01-26 17:38:35.28	13.80	10.95	-45.6	-57.7	3.5	3.03e+01	0	29	104	91750400	60	29657
2026-01-26 17:38:39.32	13.47	11.31	-48.7	-65.4	3.5	3.03e+01	0	29	104	91750400	60	71508
2026-01-26 17:38:43.36	13.12	11.68	-44.3	-55.8	3.6	3.03e+01	0	29	104	91750400	60	23792
2026-01-26 17:38:47.39	12.77	12.06	-39.5	-49.9	3.6	3.03e+01	0	29	104	91750400	56	15168
2026-01-26 17:38:51.42	12.41	12.43	-36.4	-46.6	3.5	3.03e+01	0	29	104	91750400	46	18520
2026-01-26 17:38:55.46	12.03	12.82	-48.9	-65.4	3.5	3.03e+01	0	29	104	91750400	60	71285
2026-01-26 17:38:59.50	11.65	13.21	-43.7	-55.0	3.5	3.03e+01	0	29	104	91750400	58	24174
2026-01-26 17:39:03.54	11.25	13.61	-46.3	-58.6	3.6	3.03e+01	0	29	104	91750400	60	32768
2026-01-26 17:39:07.58	10.84	14.01	-36.4	-46.6	3.5	3.03e+01	0	30	104	91750400	50	14666
2026-01-26 17:39:11.61	10.42	14.42	-44.7	-56.2	3.5	3.03e+01	0	29	104	91750400	60	24789
2026-01-26 17:39:15.64	9.99	14.83	-40.3	-50.8	3.3	3.03e+01	0	30	104	91750400	60	13406
2026-01-26 17:39:19.67	9.54	15.25	-37.6	-47.9	3.6	3.03e+01	0	30	104	91750400	50	16961
2026-01-26 17:39:23.71	9.08	15.68	-38.5	-48.8	3.5	3.03e+01	0	30	104	91750400	48	21238
2026-01-26 17:39:27.74	8.60	16.11	-39.9	-50.3	3.6	3.03e+01	0	30	104	91750400	56	15880
2026-01-26 17:39:31.77	8.11	16.55	-41.3	-51.9	3.6	3.03e+01	0	30	104	91750400	54	21465
2026-01-26 17:39:35.81	7.60	17.00	-41.3	-51.9	3.5	3.03e+01	0	30	104	91750400	60	15150
2026-01-26 17:39:39.84	7.08	17.45	-48.0	-62.5	3.5	3.03e+01	0	30	104	91750400	60	51170
2026-01-26 17:39:43.87	6.54	17.91	-36.2	-46.4	3.5	3.03e+01	0	30	104	91750400	48	16093
2026-01-26 17:39:47.90	5.98	18.38	-37.6	-47.8	3.5	3.03e+01	0	30	104	91750400	48	18953
2026-01-26 17:39:51.93	5.40	18.85	-40.1	-50.5	3.5	3.03e+01	0	30	104	91750400	56	16276
2026-01-26 17:39:55.97	4.80	19.33	-45.4	-57.2	3.5	3.03e+01	0	30	104	91750400	60	27899
2026-01-26 17:40:00.01	4.17	19.82	-39.9	-50.3	3.4	3.03e+01	0	30	104	91750400	56	15938
2026-01-26 17:40:04.05	3.53	20.32	-48.2	-62.6	3.5	3.03e+01	0	30	104	91750400	60	52202
2026-01-26 17:40:08.09	2.86	20.82	-36.0	-46.2	3.5	3.03e+01	0	30	104	91750400	48	15709
2026-01-26 17:40:12.12	2.17	21.33	-38.4	-48.8	3.6	3.03e+01	0	30	104	91750400	54	14902
2026-01-26 17:40:16.16	1.46	21.85	-35.8	-46.0	3.5	3.03e+01	0	30	104	91750400	46	17150
2026-01-26 17:40:20.20	0.72	22.37	-37.1	-47.3	3.5	3.03e+01	0	30	104	91750400	52	14156
2026-01-26 17:40:24.24	359.95	22.90	-40.7	-51.2	3.6	3.03e+01	0	30	104	91750400	56	17616
2026-01-26 17:40:28.27	359.15	23.44	-44.7	-56.2	3.6	3.03e+01	0	30	104	91750400	60	24885
2026-01-26 17:40:32.30	358.33	23.98	-38.0	-48.3	3.5	3.03e+01	0	30	104	91750400	50	17794
2026-01-26 17:40:36.33	357.47	24.53	-36.8	-47.0	3.5	3.03e+01	0	30	104	91750400	52	13611
2026-01-26 17:40:40.36	356.58	25.08	-35.9	-46.1	3.5	3.03e+01	0	30	104	91750400	46	17388
2026-01-26 17:40:44.40	355.66	25.64	-35.9	-46.1	3.5	3.03e+01	0	30	104	91750400	46	17483
2026-01-26 17:40:48.43	354.70	26.20	-40.8	-51.4	3.5	3.03e+01	0	30	104	91750400	56	17962
2026-01-26 17:40:52.47	353.70	26.77	-40.3	-50.9	3.5	3.03e+01	0	30	104	91750400	60	13457
2026-01-26 17:40:56.51	352.67	27.34	-38.8	-49.1	3.5	3.03e+01	0	30	104	91750400	52	17447
2026-01-26 17:41:00.54	351.60	27.91	-39.1	-49.5	3.5	3.03e+01	0	30	104	91750400	52	18185
2026-01-26 17:41:04.58	350.48	28.49	-35.4	-45.5	3.6	3.03e+01	0	30	104	91750400	46	16230
2026-01-26 17:41:08.62	349.32	29.07	-40.3	-50.7	3.5	3.03e+01	0	30	104	91750400	46	29414
2026-01-26 17:41:12.65	348.12	29.64	-36.5	-46.6	3.5	3.03e+01	0	30	104	91750400	48	16482
2026-01-26 17:41:16.69	346.87	30.21	-42.7	-53.6	3.5	3.03e+01	0	30	104	91750400	54	26122
2026-01-26 17:41:20.73	345.58	30.78	-36.4	-46.6	3.6	3.03e+01	0	30	104	91750400	48	16470
2026-01-26 17:41:24.76	344.24	31.35	-48.7	-63.9	3.5	3.03e+01	0	30	104	91750400	60	60089
2026-01-26 17:41:28.80	342.85	31.91	-35.7	-45.9	3.6	3.03e+01	0	30	104	91750400	46	16939
2026-01-26 17:41:32.83	341.41	32.45	-46.2	-58.5	3.5	3.03e+01	0	30	104	91750400	60	32457
2026-01-26 17:41:36.87	339.91	33.00	-37.3	-47.5	3.5	3.03e+01	0	30	104	91750400	48	18107
2026-01-26 17:41:40.90	338.37	33.52	-49.0	-64.8	3.5	3.03e+01	0	30	104	91750400	60	66723
2026-01-26 17:41:44.94	336.77	34.04	-39.4	-49.7	3.5	3.03e+01	0	30	104	91750400	54	16688
2026-01-26 17:41:48.97	335.13	34.53	-48.2	-62.3	3.5	3.03e+01	0	30	104	91750400	60	50092
2026-01-26 17:41:53.00	333.43	35.01	-36.9	-47.1	3.5	3.03e+01	0	30	104	91750400	48	17470
2026-01-26 17:41:57.03	331.68	35.46	-49.0	-64.7	3.5	3.03e+01	0	30	104	91750400	60	65781
2026-01-26 17:42:01.07	329.88	35.89	-37.3	-47.6	3.5	3.03e+01	0	30	104	91750400	48	18396
2026-01-26 17:42:05.10	328.03	36.30	-49.4	-66.0	3.5	3.03e+01	0	30	104	91750400	60	76534
2026-01-26 17:42:09.13	326.14	36.67	-43.0	-53.9	3.5	3.03e+01	0	30	104	91750400	58	21488
2026-01-26 17:42:13.17	324.19	37.02	-44.5	-55.9	3.5	3.03e+01	0	30	104	91750400	60	23882
2026-01-26 17:42:17.19	322.22	37.33	-37.2	-47.4	3.5	3.03e+01	0	30	104	91750400	50	15959
2026-01-26 17:42:21.23	320.20	37.60	-49.3	-66.1	3.5	3.03e+01	0	30	104	91750400	60	77755
2026-01-26 17:42:25.27	318.15	37.84	-37.8	-48.1	3.5	3.03e+01	0	30	104	91750400	50	17478
2026-01-26 17:42:29.31	316.07	38.03	-49.1	-64.7	3.5	3.03e+01	0	30	104	91750400	60	65820
2026-01-26 17:42:33.34	313.97	38.19	-37.2	-38.5	28.0	3.03e+01	52	30	0	92798976	50	5744
2026-01-26 17:42:37.38	311.85	38.30	-36.5	-37.7	29.0	3.03e+01	60	30	0	100139008	48	5898
2026-01-26 17:42:41.42	309.72	38.36	-36.4	-37.6	29.0	3.03e+01	44	30	0	108003328	48	5846
2026-01-26 17:42:45.45	307.59	38.39	-36.7	-38.0	28.7	3.03e+01	59	30	0	115343360	48	6066
2026-01-26 17:42:49.49	305.45	38.36	-36.2	-37.4	29.2	3.03e+01	55	30	0	123207680	48	5707
2026-01-26 17:42:53.53	303.31	38.30	-36.6	-37.8	28.9	3.03e+01	60	30	0	130547712	48	5975
2026-01-26 17:42:57.57	301.19	38.19	-36.4	-37.6	29.2	3.03e+01	61	30	0	137887744	48	5839
2026-01-26 17:43:01.60	299.09	38.03	-37.3	-38.6	28.4	3.03e+01	60	30	0	145752064	48	6548
2026-01-26 17:43:05.64	297.01	37.84	-36.6	-37.8	28.9	3.03e+01	57	30	0	153092096	48	5977
2026-01-26 17:43:09.66	294.97	37.60	-37.3	-38.6	27.8	3.03e+01	60	30	0	160956416	50	5829
2026-01-26 17:43:13.70	292.94	37.33	-36.9	-38.1	26.4	3.03e+01	51	30	0	168296448	48	6184
2026-01-26 17:43:17.73	290.96	37.02	-38.7	-40.3	26.2	3.03e+01	58	30	0	176160768	50	7050
2026-01-26 17:43:21.77	289.02	36.68	-37.5	-38.8	28.0	3.03e+01	61	30	0	183500800	48	6699
2026-01-26 17:43:25.81	287.12	36.30	-35.9	-37.0	29.3	3.03e+01	61	29	0	190840832	46	6110
2026-01-26 17:43:29.84	285.27	35.89	-35.7	-36.8	29.3	3.03e+01	58	30	0	198705152	46	5985
2026-01-26 17:43:33.88	283.46	35.46	-36.4	-37.6	28.9	3.03e+01	60	30	0	206045184	48	5823
2026-01-26 17:43:37.92	281.70	35.00	-36.7	-37.9	28.9	3.03e+01	59	30	0	213909504	48	6009
2026-01-26 17:43:41.95	280.00	34.53	-37.6	-38.8	28.1	3.03e+01	56	29	0	221249536	48	6724
2026-01-26 17:43:45.99	278.35	34.03	-36.2	-37.3	29.1	3.03e+01	60	30	0	229113856	48	5650
2026-01-26 17:43:50.02	276.75	33.52	-36.7	-37.9	28.5	3.03e+01	62	30	0	236453888	48	6059
2026-01-26 17:43:54.06	275.20	32.99	-36.5	-37.7	28.7	3.03e+01	61	30	0	243793920	48	5908
2026-01-26 17:43:58.09	273.70	32.44	-35.0	-36.1	29.4	3.03e+01	58	30	0	251658240	44	6188
2026-01-26 17:44:02.13	272.26	31.89	-36.9	-38.1	27.8	3.03e+01	54	30	0	258998272	48	6191
2026-01-26 17:44:06.17	270.86	31.33	-35.9	-37.1	28.4	3.03e+01	46	29	0	266862592	46	6137
2026-01-26 17:44:10.21	269.51	30.76	-35.2	-36.3	29.6	3.03e+01	59	30	0	274202624	46	5606
2026-01-26 17:44:14.25	268.21	30.19	-36.0	-37.2	28.3	3.03e+01	51	30	0	282066944	48	5552
2026-01-26 17:44:18.28	266.97	29.62	-35.9	-37.2	29.1	3.03e+01	60	30	0	289406976	46	6212
2026-01-26 17:44:22.32	265.76	29.04	-36.2	-37.4	28.8	3.03e+01	62	30	0	296747008	46	6401
2026-01-26 17:44:26.35	264.60	28.46	-36.0	-37.2	29.1	3.03e+01	61	30	0	304611328	46	6219
2026-01-26 17:44:30.39	263.48	27.89	-35.7	-36.9	29.4	3.03e+01	56	30	0	311951360	46	6017
2026-01-26 17:44:34.43	262.40	27.31	-35.9	-37.2	29.1	3.03e+01	59	30	0	319815680	46	6233
2026-01-26 17:44:38.47	261.36	26.74	-36.2	-37.4	28.8	3.03e+01	53	30	0	327155712	46	6394
2026-01-26 17:44:42.50	260.37	26.17	-35.7	-36.9	29.4	3.03e+01	58	30	0	335020032	46	5996
2026-01-26 17:44:46.53	259.41	25.60	-35.6	-36.8	29.4	3.03e+01	51	30	0	342360064	46	5944
2026-01-26 17:44:50.56	258.48	25.04	-36.1	-37.4	28.9	3.03e+01	59	30	0	349700096	46	6367
2026-01-26 17:44:54.60	257.59	24.49	-35.9	-37.1	29.2	3.03e+01	46	30	0	357564416	46	6151
2026-01-26 17:44:58.64	256.73	23.94	-36.1	-37.3	29.1	3.03e+01	58	30	0	364904448	46	6303
2026-01-26 17:45:02.67	255.90	23.39	-35.9	-37.1	29.1	3.03e+01	46	30	0	372768768	46	6164
2026-01-26 17:45:06.71	255.10	22.85	-36.0	-37.2	29.1	3.03e+01	58	30	0	380108800	46	6260
2026-01-26 17:45:10.75	254.33	22.32	-35.9	-37.1	29.1	3.03e+01	45	30	0	387973120	46	6170
2026-01-26 17:45:14.79	253.58	21.80	-35.9	-37.1	29.1	3.03e+01	53	30	0	395313152	46	6205
2026-01-26 17:45:18.82	252.86	21.28	-36.1	-37.3	28.8	3.03e+01	46	30	0	402653184	46	6342
2026-01-26 17:45:22.86	252.17	20.77	-36.1	-37.3	29.0	3.03e+01	58	30	0	410517504	46	6309
2026-01-26 17:45:26.90	251.50	20.26	-35.7	-36.9	29.3	3.03e+01	64	30	0	417857536	46	5998
2026-01-26 17:45:30.93	250.86	19.76	-35.9	-37.1	29.0	3.03e+01	57	30	0	425721856	46	6191
2026-01-26 17:45:34.97	250.23	19.27	-35.6	-36.8	29.3	3.03e+01	61	30	0	433061888	46	5964
2026-01-26 17:45:39.01	249.63	18.79	-35.7	-37.0	29.2	3.03e+01	59	30	0	440926208	46	6068
2026-01-26 17:45:43.04	249.05	18.32	-36.0	-37.2	29.0	3.03e+01	57	30	0	448266240	46	6260
2026-01-26 17:45:47.08	248.48	17.85	-35.8	-37.0	29.1	3.03e+01	59	30	0	455606272	46	6084
2026-01-26 17:45:51.12	247.94	17.38	-35.6	-36.8	29.3	3.03e+01	59	30	0	463470592	46	5969
2026-01-26 17:45:55.15	247.41	16.93	-35.9	-37.1	29.0	3.03e+01	58	30	0	470810624	46	6169
2026-01-26 17:45:59.19	246.90	16.48	-35.8	-37.1	29.0	3.03e+01	57	30	0	478674944	46	6138
2026-01-26 17:46:03.23	246.40	16.04	-35.9	-37.1	29.0	3.03e+01	60	30	0	486014976	46	6164
2026-01-26 17:46:07.26	245.92	15.61	-35.5	-36.7	29.2	3.03e+01	59	30	0	493879296	46	5913
2026-01-26 17:46:11.30	245.46	15.18	-35.9	-37.2	28.8	3.03e+01	60	30	0	501219328	46	6217
2026-01-26 17:46:15.33	245.01	14.76	-35.9	-37.1	28.9	3.03e+01	58	30	0	508559360	46	6184
2026-01-26 17:46:19.37	244.57	14.34	-35.9	-37.2	28.9	3.03e+01	59	30	0	516423680	46	6208
2026-01-26 17:46:23.40	244.15	13.93	-36.1	-37.3	28.7	3.03e+01	60	30	0	523763712	46	6311
2026-01-26 17:46:27.44	243.74	13.53	-36.0	-37.2	28.8	3.03e+01	61	30	0	531628032	46	6234
2026-01-26 17:46:31.48	243.34	13.13	-36.2	-37.4	28.6	3.03e+01	61	30	0	538968064	46	6405
2026-01-26 17:46:35.52	242.95	12.74	-36.5	-37.7	28.3	3.03e+01	46	30	0	546832384	46	6626
2026-01-26 17:46:39.56	242.57	12.35	-37.0	-38.4	27.6	3.03e+01	59	29	0	554172416	48	6353
2026-01-26 17:46:43.59	242.21	11.97	-37.0	-38.4	27.6	3.03e+01	57	30	0	562036736	48	6362
2026-01-26 17:46:47.63	241.85	11.60	-37.4	-38.7	27.2	3.03e+01	60	30	0	569376768	48	6634
2026-01-26 17:46:51.66	241.51	11.23	-37.9	-39.2	26.7	3.03e+01	56	30	0	576716800	48	7043
2026-01-26 17:46:55.69	241.17	10.86	-38.3	-39.8	26.2	3.03e+01	56	30	0	584581120	50	6652
2026-01-26 17:46:59.73	240.85	10.50	-38.6	-40.1	25.8	3.03e+01	36	30	0	591921152	50	6905
2026-01-26 17:47:03.77	240.53	10.15	-39.3	-40.9	25.1	3.03e+01	58	30	0	599785472	52	6744
2026-01-26 17:47:07.80	240.22	9.80	-40.0	-41.6	24.4	3.03e+01	58	30	0	607125504	52	7324
2026-01-26 17:47:11.83	239.92	9.46	-40.5	-42.3	23.7	3.03e+01	61	30	0	614989824	54	7061
2026-01-26 17:47:15.87	239.62	9.11	-41.0	-42.9	23.2	3.03e+01	51	30	0	622329856	56	6732
2026-01-26 17:47:19.91	239.34	8.78	-41.7	-43.6	22.3	3.03e+01	57	30	0	630194176	56	7365
2026-01-26 17:47:23.95	239.06	8.45	-42.2	-44.4	21.5	3.03e+01	47	30	0	637534208	58	7161
2026-01-26 17:47:27.99	238.79	8.12	-42.9	-45.2	20.7	3.03e+01	59	29	0	644874240	58	7872
2026-01-26 17:47:32.03	238.52	7.79	-43.4	-46.2	19.7	3.03e+01	50	30	0	652738560	60	7900
2026-01-26 17:47:36.06	238.26	7.47	-44.3	-47.3	18.5	3.03e+01	60	29	0	660078592	60	8951
2026-01-26 17:47:40.09	238.01	7.16	-44.9	-48.4	17.5	3.03e+01	48	29	0	667942912	60	10103
2026-01-26 17:47:44.13	237.77	6.85	-45.6	-49.9	15.9	3.03e+01	60	29	0	675282944	60	12014
2026-01-26 17:47:48.16	237.53	6.54	-45.8	-51.5	14.1	3.03e+01	60	29	0	683147264	60	14463
2026-01-26 17:47:52.20	237.29	6.23	-45.9	-52.1	13.2	3.03e+01	59	29	0	690487296	60	15583
2026-01-26 17:47:56.23	237.06	5.93	-45.4	-53.2	12.1	3.03e+01	58	29	0	697827328	60	17675
2026-01-26 17:48:00.27	236.84	5.64	-44.9	-54.2	10.9	3.03e+01	58	29	0	705691648	60	19777
2026-01-26 17:48:04.30	236.62	5.34	-46.2	-55.5	9.5	3.03e+01	60	29	0	713031680	60	22887
2026-01-26 17:48:08.33	236.41	5.05	-46.9	-57.0	7.7	3.03e+01	83	29	0	720896000	60	27141
2026-01-26 17:48:12.38	236.20	4.76	-47.2	-57.4	6.7	3.03e+01	92	29	0	728236032	60	28686
2026-01-26 17:48:16.41	236.00	4.48	-47.5	-60.2	3.9	3.03e+01	0	29	104	732430336	60	39497
2026-01-26 17:48:20.44	235.80	4.20	-47.7	-61.0	3.8	3.03e+01	0	29	104	732430336	60	43084
2026-01-26 17:48:24.48	235.60	3.92	-47.2	-63.3	3.7	3.03e+01	0	29	104	732430336	60	56483
2026-01-26 17:48:28.52	235.41	3.64	-47.0	-63.4	3.7	3.03e+01	0	29	104	732430336	60	56988
2026-01-26 17:48:32.56	235.22	3.37	-46.6	-64.6	3.5	3.03e+01	0	29	104	732430336	60	65161
2026-01-26 17:48:36.59	235.04	3.10	-46.5	-64.7	3.5	3.03e+01	0	29	104	732430336	60	65995
2026-01-26 17:48:40.63	234.86	2.83	-48.7	-66.7	3.6	3.03e+01	0	29	104	732430336	60	83506
2026-01-26 17:48:44.67	234.69	2.56	-49.5	-67.4	3.5	3.03e+01	0	29	104	732430336	60	89950
2026-01-26 17:48:48.71	234.52	2.30	-49.6	-67.4	3.5	3.03e+01	0	29	104	732430336	60	90407
2026-01-26 17:48:52.75	234.35	2.04	-49.5	-67.4	3.5	3.03e+01	0	29	104	732430336	60	90485
2026-01-26 17:48:56.79	234.18	1.78	-49.3	-67.3	3.5	3.03e+01	0	29	104	732430336	60	88884
2026-01-26 17:49:00.83	234.02	1.53	-49.4	-67.3	3.5	3.03e+01	0	29	104	732430336	60	89565
2026-01-26 17:49:04.87	233.86	1.27	-49.6	-67.5	3.5	3.03e+01	0	29	104	732430336	60	90754
2026-01-26 17:49:08.91	233.71	1.02	-49.7	-67.5	3.5	3.03e+01	0	29	104	732430336	60	91526
2026-01-26 17:49:12.95	233.56	0.77	-49.9	-67.8	3.5	3.03e+01	0	29	104	732430336	60	94104
2026-01-26 17:49:16.99	233.41	0.52	-49.9	-67.7	3.5	3.03e+01	0	29	104	732430336	60	93458
2026-01-26 17:49:21.03	233.26	0.28	-50.6	-68.4	3.5	3.03e+01	0	29	104	732430336	60	101332
2026-01-26 17:49:25.07	233.12	0.04	-50.0	-67.8	3.5	3.03e+01	0	29	104	732430336	60	94986

#Closed at: 2026-01-26 17:49:28
#Recorded file [732 MB]: D:/lorett/data/35029_260127_053606.dat