passes_logs/2026/01/26/R4.6S_Anadyr/R4.6S_Anadyr__20260126_171553_FENGYUN_3D_rec.log

#Pass ID: 20260126_171553_FENGYUN 3D
#Satellite: FENGYUN 3D
#Configuration: FENGYUN 3D
#almurnet v.1.7.20251203
#Start time: 2026-01-26 17:15:56

#Version: 2.2.20231116
#Station: R4.6S_Anadyr
#Location: 177.4865 lon 64.73178 lat
#TLE: 1 43010U 17072A   26025.99795741 -.00000136  00000+0 -42313-4 0  9999
#TLE: 2 43010  98.9962 357.9855 0002515  89.6991 270.4472 14.19699257424818

#Time	Az	El	Level	Level2	SNR	BER	BlckErr	Temp	State	Recorded	gain1	gain2
2026-01-26 17:15:56.50	22.06	0.15	-49.4	-64.3	3.5	1.51e+00	0	26	0	0	60	59428
2026-01-26 17:16:00.54	22.03	0.39	-49.2	-61.3	3.6	8.47e-01	0	27	104	0	60	42101
2026-01-26 17:16:04.58	22.00	0.64	-49.2	-61.4	3.6	8.45e-01	0	27	104	0	60	42446
2026-01-26 17:16:08.62	21.97	0.89	-49.2	-61.3	3.6	8.44e-01	0	27	104	0	60	42185
2026-01-26 17:16:12.66	21.94	1.13	-49.1	-61.2	3.6	8.45e-01	0	27	104	0	60	41376
2026-01-26 17:16:16.70	21.91	1.39	-48.7	-60.8	3.6	8.45e-01	0	27	104	0	60	39588
2026-01-26 17:16:20.74	21.87	1.64	-48.0	-60.1	3.6	8.44e-01	0	27	104	0	60	36629
2026-01-26 17:16:24.77	21.84	1.89	-47.9	-59.6	3.6	8.46e-01	0	27	104	0	60	34566
2026-01-26 17:16:28.81	21.80	2.15	-47.9	-60.0	3.6	8.46e-01	0	28	104	0	60	36111
2026-01-26 17:16:32.85	21.76	2.41	-47.9	-59.5	3.6	8.46e-01	0	28	104	0	60	34092
2026-01-26 17:16:36.89	21.73	2.67	-47.6	-55.9	3.7	8.40e-01	0	28	0	0	60	22531
2026-01-26 17:16:40.92	21.69	2.94	-47.8	-58.2	3.6	8.44e-01	0	28	104	0	60	29389
2026-01-26 17:16:44.96	21.65	3.20	-45.6	-49.0	9.7	3.27e-02	0	28	0	8388608	60	10179
2026-01-26 17:16:48.99	21.61	3.47	-41.4	-42.8	16.3	0.00e+00	0	28	0	30408704	56	6288
2026-01-26 17:16:53.04	21.56	3.75	-39.5	-40.6	18.5	0.00e+00	0	28	0	53477376	52	6155
2026-01-26 17:16:57.08	21.52	4.02	-47.4	-55.2	3.6	0.00e+00	0	28	0	76546048	60	20773
2026-01-26 17:17:01.11	21.48	4.30	-36.8	-37.7	21.5	0.00e+00	0	28	0	76546048	48	5515
2026-01-26 17:17:05.15	21.43	4.58	-36.3	-37.2	21.6	0.00e+00	0	28	0	99614720	46	5831
2026-01-26 17:17:09.19	21.38	4.86	-35.7	-36.5	22.6	0.00e+00	0	28	0	122683392	44	6083
2026-01-26 17:17:13.22	21.34	5.15	-35.4	-36.2	22.9	0.00e+00	0	28	0	144703488	44	5848
2026-01-26 17:17:17.26	21.29	5.44	-35.7	-36.5	22.7	0.00e+00	0	28	0	167772160	44	6072
2026-01-26 17:17:21.30	21.24	5.73	-35.5	-36.2	22.9	0.00e+00	0	28	0	190840832	44	5854
2026-01-26 17:17:25.33	21.18	6.03	-35.1	-35.8	23.2	0.00e+00	0	28	0	212860928	44	5614
2026-01-26 17:17:29.36	21.13	6.33	-34.9	-35.6	23.5	0.00e+00	0	28	0	235929600	44	5500
2026-01-26 17:17:33.40	21.08	6.63	-34.9	-35.7	23.6	0.00e+00	0	28	0	257949696	42	6186
2026-01-26 17:17:37.44	21.02	6.94	-35.3	-36.0	23.4	0.00e+00	0	28	0	281018368	42	6431
2026-01-26 17:17:41.47	20.96	7.25	-34.6	-35.3	24.0	0.00e+00	0	28	0	304087040	42	5940
2026-01-26 17:17:45.51	20.90	7.56	-35.1	-35.8	23.5	0.00e+00	0	28	0	326107136	42	6283
2026-01-26 17:17:49.55	20.84	7.88	-34.5	-35.2	24.1	0.00e+00	0	28	0	349175808	42	5853
2026-01-26 17:17:53.59	20.78	8.20	-34.7	-35.4	24.1	0.00e+00	0	28	0	372244480	42	6006
2026-01-26 17:17:57.62	20.71	8.53	-34.1	-34.8	24.5	0.00e+00	0	28	0	395313152	42	5595
2026-01-26 17:18:01.66	20.64	8.86	-34.3	-34.9	24.3	0.00e+00	0	28	0	417333248	42	5686
2026-01-26 17:18:05.70	20.58	9.19	-34.4	-35.1	24.2	0.00e+00	0	28	0	440401920	42	5765
2026-01-26 17:18:09.74	20.51	9.53	-34.3	-35.0	24.4	0.00e+00	0	28	0	462422016	42	5722
2026-01-26 17:18:13.77	20.43	9.87	-34.0	-34.7	24.7	0.00e+00	0	28	0	485490688	40	6227
2026-01-26 17:18:17.81	20.36	10.22	-34.0	-34.6	24.8	0.00e+00	0	28	0	508559360	40	6152
2026-01-26 17:18:21.85	20.28	10.58	-34.0	-34.6	24.6	0.00e+00	0	28	0	530579456	40	6159
2026-01-26 17:18:25.89	20.20	10.93	-34.0	-34.7	24.7	0.00e+00	0	28	0	553648128	40	6175
2026-01-26 17:18:29.92	20.12	11.30	-33.5	-34.2	25.2	0.00e+00	0	28	0	576716800	40	5877
2026-01-26 17:18:33.96	20.03	11.67	-33.5	-34.1	25.1	0.00e+00	0	28	0	598736896	40	5827
2026-01-26 17:18:37.99	19.95	12.04	-33.6	-34.3	25.1	0.00e+00	0	28	0	621805568	40	5900
2026-01-26 17:18:42.02	19.86	12.42	-33.6	-34.3	25.1	0.00e+00	0	28	0	644874240	40	5947
2026-01-26 17:18:46.06	19.76	12.81	-33.6	-34.3	25.0	0.00e+00	0	28	0	666894336	40	5910
2026-01-26 17:18:50.10	19.67	13.20	-33.5	-34.1	25.2	0.00e+00	0	28	0	689963008	40	5821
2026-01-26 17:18:54.14	19.57	13.60	-33.6	-34.2	25.1	0.00e+00	0	28	0	713031680	40	5889
2026-01-26 17:18:58.17	19.47	14.00	-33.5	-34.1	25.3	0.00e+00	0	28	0	735051776	40	5820
2026-01-26 17:19:02.21	19.36	14.42	-33.4	-34.1	25.4	0.00e+00	0	28	0	758120448	40	5809
2026-01-26 17:19:06.24	19.25	14.83	-33.2	-33.9	25.7	0.00e+00	0	28	0	781189120	40	5634
2026-01-26 17:19:10.28	19.14	15.26	-33.0	-33.7	25.7	0.00e+00	0	28	0	803209216	40	5536
2026-01-26 17:19:14.32	19.03	15.70	-32.5	-33.2	26.1	0.00e+00	0	28	0	826277888	38	5872
2026-01-26 17:19:18.36	18.91	16.14	-32.6	-33.2	26.3	0.00e+00	0	28	0	848297984	38	5882
2026-01-26 17:19:22.40	18.78	16.59	-32.7	-33.4	26.0	0.00e+00	0	28	0	871366656	38	5979
2026-01-26 17:19:26.43	18.65	17.05	-32.2	-32.9	26.5	0.00e+00	0	28	0	894435328	38	5639
2026-01-26 17:19:30.47	18.52	17.51	-31.9	-32.5	26.8	0.00e+00	0	28	0	917504000	38	5424
2026-01-26 17:19:34.50	18.38	17.99	-31.6	-32.2	27.1	0.00e+00	0	28	0	939524096	36	5865
2026-01-26 17:19:38.53	18.24	18.47	-31.3	-32.0	27.3	0.00e+00	0	28	0	962592768	36	5697
2026-01-26 17:19:42.57	18.09	18.97	-31.2	-31.8	27.3	0.00e+00	0	28	0	985661440	36	5584
2026-01-26 17:19:46.61	17.94	19.47	-31.3	-31.9	27.3	0.00e+00	0	28	0	1007681536	36	5665
2026-01-26 17:19:50.65	17.78	19.98	-31.5	-32.1	27.2	0.00e+00	0	28	0	1030750208	36	5790
2026-01-26 17:19:54.69	17.62	20.51	-31.6	-32.3	27.0	0.00e+00	0	28	0	1052770304	36	5910
2026-01-26 17:19:58.72	17.45	21.04	-31.5	-32.1	27.1	0.00e+00	0	28	0	1075838976	36	5815
2026-01-26 17:20:02.76	17.27	21.59	-31.4	-32.1	27.2	0.00e+00	0	28	0	1098907648	36	5783
2026-01-26 17:20:06.80	17.08	22.15	-31.1	-31.7	27.4	0.00e+00	0	28	0	1120927744	36	5518
2026-01-26 17:20:10.83	16.89	22.72	-30.7	-31.3	27.8	0.00e+00	0	28	0	1143996416	34	5938
2026-01-26 17:20:14.87	16.69	23.31	-30.4	-31.0	28.1	0.00e+00	0	28	0	1167065088	34	5745
2026-01-26 17:20:18.91	16.48	23.90	-30.5	-31.1	27.9	0.00e+00	0	28	0	1189085184	34	5783
2026-01-26 17:20:22.94	16.26	24.51	-30.7	-31.3	27.8	0.00e+00	0	29	0	1212153856	34	5958
2026-01-26 17:20:26.98	16.04	25.14	-30.7	-31.3	27.9	0.00e+00	0	29	0	1235222528	34	5946
2026-01-26 17:20:31.01	15.80	25.78	-30.4	-31.0	28.1	0.00e+00	0	28	0	1257242624	34	5759
2026-01-26 17:20:35.05	15.55	26.43	-30.2	-30.8	28.2	0.00e+00	0	28	0	1280311296	34	5597
2026-01-26 17:20:39.09	15.30	27.10	-30.2	-30.8	28.1	0.00e+00	0	28	0	1303379968	34	5622
2026-01-26 17:20:43.12	15.03	27.79	-30.4	-31.0	28.1	0.00e+00	0	28	0	1325400064	34	5753
2026-01-26 17:20:47.16	14.74	28.49	-30.4	-31.0	28.0	0.00e+00	0	28	0	1348468736	34	5751
2026-01-26 17:20:51.20	14.45	29.21	-30.3	-31.0	28.1	0.00e+00	0	28	0	1371537408	34	5710
2026-01-26 17:20:55.24	14.14	29.95	-30.5	-31.1	28.1	0.00e+00	0	28	0	1393557504	34	5797
2026-01-26 17:20:59.28	13.81	30.70	-30.4	-31.0	28.1	0.00e+00	0	28	0	1416626176	34	5752
2026-01-26 17:21:03.31	13.47	31.48	-30.1	-30.7	28.4	0.00e+00	0	28	0	1438646272	34	5521
2026-01-26 17:21:07.34	13.11	32.27	-30.0	-30.7	28.4	0.00e+00	0	28	0	1461714944	34	5524
2026-01-26 17:21:11.38	12.73	33.09	-29.6	-30.2	28.8	0.00e+00	0	28	0	1484783616	32	5832
2026-01-26 17:21:15.41	12.33	33.93	-29.6	-30.2	28.8	0.00e+00	0	28	0	1506803712	32	5845
2026-01-26 17:21:19.45	11.91	34.78	-29.6	-30.2	28.7	0.00e+00	0	28	0	1529872384	32	5858
2026-01-26 17:21:23.49	11.46	35.67	-29.4	-30.0	29.0	0.00e+00	0	29	0	1552941056	32	5698
2026-01-26 17:21:27.52	10.99	36.57	-29.4	-30.0	28.9	0.00e+00	0	29	0	1576009728	32	5739
2026-01-26 17:21:31.56	10.49	37.50	-29.8	-30.5	28.5	0.00e+00	0	28	0	1598029824	32	6034
2026-01-26 17:21:35.60	9.96	38.45	-29.7	-30.2	28.7	0.00e+00	0	28	0	1621098496	32	5895
2026-01-26 17:21:39.63	9.39	39.42	-30.0	-30.6	28.5	0.00e+00	0	28	0	1643118592	32	6136
2026-01-26 17:21:43.67	8.79	40.42	-30.3	-30.9	28.3	0.00e+00	0	28	0	1666187264	32	6383
2026-01-26 17:21:47.71	8.15	41.45	-30.5	-31.0	28.1	0.00e+00	0	28	0	1689255936	32	6458
2026-01-26 17:21:51.75	7.47	42.50	-29.8	-30.4	28.5	0.00e+00	0	28	0	1711276032	32	6013
2026-01-26 17:21:55.79	6.73	43.57	-30.0	-30.6	28.5	0.00e+00	0	29	0	1734344704	32	6121
2026-01-26 17:21:59.82	5.95	44.67	-30.5	-31.1	28.2	0.00e+00	0	28	0	1757413376	32	6484
2026-01-26 17:22:03.85	5.11	45.80	-30.1	-30.7	28.4	0.00e+00	0	28	0	1779433472	34	5540
2026-01-26 17:22:07.89	4.20	46.95	-30.2	-30.8	28.3	0.00e+00	0	29	0	1802502144	34	5583
2026-01-26 17:22:11.93	3.23	48.12	-30.6	-31.2	28.0	0.00e+00	0	28	0	1825570816	34	5881
2026-01-26 17:22:15.96	2.17	49.31	-30.8	-31.4	27.9	0.00e+00	0	28	0	1847590912	34	5992
2026-01-26 17:22:20.00	1.03	50.53	-31.0	-31.6	27.6	0.00e+00	0	29	0	1870659584	34	6147
2026-01-26 17:22:24.04	359.79	51.77	-32.0	-32.6	27.1	0.00e+00	0	28	0	1893728256	36	6157
2026-01-26 17:22:28.08	358.43	53.02	-31.2	-31.8	27.7	0.00e+00	0	29	0	1915748352	36	5572
2026-01-26 17:22:32.11	356.96	54.29	-31.1	-31.7	27.6	0.00e+00	0	29	0	1938817024	36	5511
2026-01-26 17:22:36.15	355.35	55.57	-30.9	-31.5	27.8	0.00e+00	0	28	0	1961885696	36	5409
2026-01-26 17:22:40.18	353.58	56.85	-30.7	-31.2	27.9	0.00e+00	0	29	0	1983905792	34	5887
2026-01-26 17:22:44.22	351.64	58.14	-30.6	-31.1	27.9	0.00e+00	0	29	0	2006974464	34	5805
2026-01-26 17:22:48.25	349.50	59.41	-30.8	-31.4	27.8	0.00e+00	0	29	0	2028994560	34	5975
2026-01-26 17:22:52.29	347.14	60.68	-30.5	-31.2	28.0	0.00e+00	0	29	0	2052063232	34	5864
2026-01-26 17:22:56.33	344.53	61.92	-30.3	-30.9	28.2	0.00e+00	0	29	0	2075131904	34	5663
2026-01-26 17:23:00.36	341.65	63.12	-30.2	-30.8	28.3	0.00e+00	0	29	0	2097152000	34	5589
2026-01-26 17:23:04.40	338.46	64.28	-30.0	-30.7	28.6	0.00e+00	0	29	0	2120220672	34	5519
2026-01-26 17:23:08.44	334.94	65.38	-29.6	-30.1	28.7	0.00e+00	0	28	0	2143289344	32	5825
2026-01-26 17:23:12.47	331.08	66.39	-28.5	-29.1	29.5	0.00e+00	0	28	0	2166358016	30	5807
2026-01-26 17:23:16.51	326.84	67.32	-29.0	-29.6	29.3	0.00e+00	0	28	0	2188378112	30	6124
2026-01-26 17:23:20.55	322.23	68.12	-29.5	-30.1	29.0	0.00e+00	0	28	0	2211446784	30	6506
2026-01-26 17:23:24.59	317.27	68.80	-29.6	-30.2	28.8	0.00e+00	0	28	0	2233466880	32	5856
2026-01-26 17:23:28.62	312.01	69.31	-29.9	-30.5	28.9	0.00e+00	0	28	0	2256535552	32	6082
2026-01-26 17:23:32.65	306.50	69.66	-29.9	-30.6	28.5	0.00e+00	0	28	0	2279604224	32	6104
2026-01-26 17:23:36.69	300.83	69.83	-29.7	-30.2	28.8	0.00e+00	0	29	0	2301624320	32	5869
2026-01-26 17:23:40.73	295.12	69.81	-30.3	-30.9	28.6	0.00e+00	0	28	0	2324692992	32	6343
2026-01-26 17:23:44.76	289.48	69.60	-30.0	-30.5	27.4	0.00e+00	0	29	0	2347761664	32	6100
2026-01-26 17:23:48.80	284.01	69.22	-30.6	-31.2	28.1	0.00e+00	0	28	0	2369781760	34	5879
2026-01-26 17:23:52.84	278.79	68.67	-31.5	-32.1	28.1	0.00e+00	0	28	0	2392850432	34	6538
2026-01-26 17:23:56.88	273.90	67.96	-31.1	-31.7	28.7	0.00e+00	0	28	0	2415919104	34	6230
2026-01-26 17:24:00.91	269.37	67.13	-29.5	-30.2	29.0	0.00e+00	0	29	0	2437939200	32	5837
2026-01-26 17:24:04.95	265.20	66.19	-29.4	-30.0	29.0	0.00e+00	0	28	0	2461007872	32	5709
2026-01-26 17:24:08.99	261.40	65.15	-29.5	-30.2	28.7	0.00e+00	0	28	0	2484076544	32	5868
2026-01-26 17:24:13.03	257.95	64.03	-29.5	-30.0	28.8	0.00e+00	0	28	0	2506096640	32	5728
2026-01-26 17:24:17.06	254.83	62.86	-30.1	-30.7	28.4	0.00e+00	0	28	0	2529165312	32	6176
2026-01-26 17:24:21.10	252.01	61.65	-30.9	-31.5	28.2	0.00e+00	0	28	0	2552233984	32	6790
2026-01-26 17:24:25.14	249.45	60.40	-30.7	-31.3	28.2	0.00e+00	0	29	0	2574254080	34	5943
2026-01-26 17:24:29.17	247.14	59.13	-30.3	-30.9	28.3	0.00e+00	0	29	0	2597322752	34	5660
2026-01-26 17:24:33.20	245.04	57.85	-30.1	-30.8	28.5	0.00e+00	0	28	0	2619342848	34	5593
2026-01-26 17:24:37.24	243.13	56.56	-31.3	-31.8	28.1	0.00e+00	0	29	0	2642411520	36	5603
2026-01-26 17:24:41.28	241.39	55.27	-30.6	-31.2	28.0	0.00e+00	0	29	0	2665480192	34	5856
2026-01-26 17:24:45.32	239.81	53.99	-31.1	-31.6	27.6	0.00e+00	0	29	0	2687500288	34	6154
2026-01-26 17:24:49.35	238.36	52.73	-30.3	-30.9	28.2	0.00e+00	0	28	0	2710568960	34	5689
2026-01-26 17:24:53.39	237.03	51.47	-30.7	-31.3	27.7	0.00e+00	0	28	0	2733637632	34	5915
2026-01-26 17:24:57.42	235.81	50.24	-30.5	-31.2	27.6	0.00e+00	0	28	0	2756706304	34	5871
2026-01-26 17:25:01.46	234.68	49.02	-30.2	-30.9	28.1	0.00e+00	0	29	0	2778726400	34	5663
2026-01-26 17:25:05.50	233.64	47.83	-29.9	-30.6	28.5	0.00e+00	0	28	0	2801795072	32	6120
2026-01-26 17:25:09.54	232.68	46.65	-30.2	-30.7	28.3	0.00e+00	0	28	0	2823815168	32	6240
2026-01-26 17:25:13.57	231.79	45.51	-30.0	-30.6	28.3	0.00e+00	0	29	0	2846883840	32	6165
2026-01-26 17:25:17.61	230.96	44.38	-29.7	-30.3	28.6	0.00e+00	0	29	0	2869952512	32	5923
2026-01-26 17:25:21.64	230.18	43.29	-29.5	-30.0	28.8	0.00e+00	0	29	0	2891972608	32	5756
2026-01-26 17:25:25.68	229.46	42.21	-29.6	-30.2	28.8	0.00e+00	0	28	0	2915041280	32	5883
2026-01-26 17:25:29.71	228.79	41.17	-30.1	-30.6	28.3	0.00e+00	0	28	0	2938109952	32	6162
2026-01-26 17:25:33.75	228.15	40.14	-29.4	-29.9	28.7	0.00e+00	0	28	0	2960130048	32	5639
2026-01-26 17:25:37.79	227.56	39.15	-29.1	-29.8	28.9	0.00e+00	0	28	0	2983198720	32	5600
2026-01-26 17:25:41.82	227.00	38.17	-29.6	-30.1	28.8	0.00e+00	0	28	0	3006267392	32	5797
2026-01-26 17:25:45.86	226.48	37.23	-29.5	-30.1	28.7	0.00e+00	0	29	0	3028287488	32	5826
2026-01-26 17:25:49.90	225.98	36.30	-29.8	-30.3	28.5	0.00e+00	0	28	0	3051356160	32	5943
2026-01-26 17:25:53.93	225.51	35.40	-29.9	-30.5	28.4	0.00e+00	0	28	0	3074424832	32	6087
2026-01-26 17:25:57.96	225.07	34.52	-30.2	-30.8	28.3	0.00e+00	0	28	0	3096444928	32	6252
2026-01-26 17:26:02.00	224.65	33.67	-30.0	-30.6	28.4	0.00e+00	0	29	0	3119513600	32	6172
2026-01-26 17:26:06.04	224.25	32.83	-29.7	-30.4	28.5	0.00e+00	0	28	0	3142582272	32	5993
2026-01-26 17:26:10.07	223.88	32.02	-29.6	-30.2	28.6	0.00e+00	0	28	0	3164602368	32	5838
2026-01-26 17:26:14.11	223.52	31.22	-29.8	-30.4	28.5	0.00e+00	0	28	0	3187671040	32	5969
2026-01-26 17:26:18.15	223.18	30.45	-29.8	-30.3	28.5	0.00e+00	0	28	0	3209691136	32	5959
2026-01-26 17:26:22.19	222.85	29.69	-30.0	-30.5	28.4	0.00e+00	0	29	0	3232759808	32	6066
2026-01-26 17:26:26.22	222.54	28.96	-30.2	-30.9	28.2	0.00e+00	0	28	0	3255828480	32	6324
2026-01-26 17:26:30.25	222.25	28.24	-29.8	-30.3	28.5	0.00e+00	0	28	0	3277848576	32	5963
2026-01-26 17:26:34.29	221.97	27.54	-29.9	-30.5	28.5	0.00e+00	0	29	0	3300917248	32	6080
2026-01-26 17:26:38.33	221.70	26.86	-30.1	-30.8	28.2	0.00e+00	0	28	0	3323985920	32	6271
2026-01-26 17:26:42.37	221.44	26.19	-30.2	-30.8	28.0	0.00e+00	0	28	0	3347054592	32	6264
2026-01-26 17:26:46.41	221.19	25.53	-30.2	-30.9	28.1	0.00e+00	0	28	0	3369074688	32	6359
2026-01-26 17:26:50.45	220.96	24.90	-30.4	-31.0	28.0	0.00e+00	0	28	0	3392143360	32	6454
2026-01-26 17:26:54.48	220.73	24.27	-30.4	-31.1	28.0	0.00e+00	0	28	0	3414163456	32	6506
2026-01-26 17:26:58.51	220.51	23.67	-30.8	-31.5	27.6	0.00e+00	0	28	0	3437232128	34	6060
2026-01-26 17:27:02.55	220.30	23.07	-30.9	-31.7	27.5	0.00e+00	0	28	0	3460300800	34	6177
2026-01-26 17:27:06.59	220.10	22.49	-30.9	-31.6	27.6	0.00e+00	0	28	0	3482320896	34	6107
2026-01-26 17:27:10.63	219.91	21.92	-30.8	-31.3	27.7	0.00e+00	0	28	0	3505389568	34	5928
2026-01-26 17:27:14.67	219.73	21.36	-30.8	-31.3	27.7	0.00e+00	0	28	0	3528458240	34	5962
2026-01-26 17:27:18.70	219.55	20.81	-30.9	-31.4	27.6	0.00e+00	0	29	0	3550478336	34	6030
2026-01-26 17:27:22.74	219.38	20.28	-31.2	-31.7	27.4	0.00e+00	0	28	0	3573547008	34	6205
2026-01-26 17:27:26.77	219.21	19.76	-31.5	-32.0	27.2	0.00e+00	0	28	0	3596615680	34	6457
2026-01-26 17:27:30.81	219.05	19.24	-31.5	-32.1	27.2	0.00e+00	0	28	0	3618635776	34	6469
2026-01-26 17:27:34.85	218.90	18.74	-31.5	-32.1	27.1	0.00e+00	0	28	0	3641704448	34	6482
2026-01-26 17:27:38.88	218.75	18.25	-31.7	-32.3	26.9	0.00e+00	0	29	0	3664773120	34	6638
2026-01-26 17:27:42.92	218.60	17.76	-31.7	-32.3	26.9	0.00e+00	0	28	0	3686793216	34	6625
2026-01-26 17:27:46.95	218.47	17.29	-31.9	-32.4	26.8	0.00e+00	0	28	0	3709861888	36	6007
2026-01-26 17:27:50.99	218.33	16.82	-32.0	-32.6	26.7	0.00e+00	0	28	0	3732930560	36	6123
2026-01-26 17:27:55.03	218.20	16.37	-32.2	-32.9	26.6	0.00e+00	0	28	0	3754950656	36	6362
2026-01-26 17:27:59.07	218.08	15.92	-32.3	-33.0	26.4	0.00e+00	0	28	0	3778019328	36	6464
2026-01-26 17:28:03.10	217.96	15.48	-32.6	-33.3	26.2	0.00e+00	0	28	0	3800039424	36	6669
2026-01-26 17:28:07.14	217.84	15.04	-32.6	-33.4	26.1	0.00e+00	0	28	0	3823108096	36	6718
2026-01-26 17:28:11.17	217.72	14.62	-32.8	-33.4	25.9	0.00e+00	0	28	0	3846176768	38	5998
2026-01-26 17:28:15.21	217.61	14.20	-33.0	-33.5	25.8	0.00e+00	0	28	0	3868196864	38	6100
2026-01-26 17:28:19.25	217.51	13.79	-33.0	-33.5	25.8	0.00e+00	0	28	0	3891265536	38	6102
2026-01-26 17:28:23.28	217.40	13.38	-33.2	-33.9	25.7	0.00e+00	0	28	0	3914334208	38	6385
2026-01-26 17:28:27.32	217.30	12.98	-33.0	-33.8	25.7	0.00e+00	0	28	0	3937402880	38	6273
2026-01-26 17:28:31.36	217.20	12.59	-33.2	-33.8	25.6	0.00e+00	0	28	0	3959422976	38	6292
2026-01-26 17:28:35.40	217.11	12.21	-33.3	-33.9	25.4	0.00e+00	0	29	0	3982491648	38	6374
2026-01-26 17:28:39.44	217.02	11.83	-33.2	-33.8	25.6	0.00e+00	0	28	0	4004511744	38	6308
2026-01-26 17:28:43.47	216.93	11.45	-33.5	-34.1	25.4	0.00e+00	0	28	0	4027580416	38	6479
2026-01-26 17:28:47.51	216.84	11.08	-33.3	-33.9	25.4	0.00e+00	0	28	0	4050649088	40	5681
2026-01-26 17:28:51.55	216.76	10.72	-33.4	-34.0	25.3	0.00e+00	0	28	0	4072669184	40	5739
2026-01-26 17:28:55.59	216.68	10.36	-33.3	-33.8	25.4	0.00e+00	0	28	0	4095737856	40	5628
2026-01-26 17:28:59.62	216.60	10.01	-33.5	-34.1	25.2	0.00e+00	0	28	0	4118806528	40	5781
2026-01-26 17:29:03.65	216.52	9.66	-34.0	-34.6	24.7	0.00e+00	0	28	0	4140826624	40	6138
2026-01-26 17:29:07.68	216.44	9.32	-34.0	-34.7	24.8	0.00e+00	0	28	0	4163895296	40	6213
2026-01-26 17:29:11.72	216.37	8.98	-34.4	-35.0	24.5	0.00e+00	0	28	0	4186963968	40	6417
2026-01-26 17:29:15.76	216.30	8.65	-33.9	-34.5	24.8	0.00e+00	0	28	0	4208984064	40	6056
2026-01-26 17:29:19.80	216.23	8.32	-34.0	-34.8	24.6	0.00e+00	0	28	0	4232052736	40	6273
2026-01-26 17:29:23.83	216.16	7.99	-34.4	-35.2	24.2	0.00e+00	0	28	0	4255121408	40	6554
2026-01-26 17:29:27.87	216.10	7.67	-34.5	-35.1	24.2	0.00e+00	0	28	0	4277141504	40	6473
2026-01-26 17:29:31.91	216.03	7.35	-34.5	-35.2	24.2	0.00e+00	0	28	0	4300210176	40	6612
2026-01-26 17:29:35.94	215.97	7.04	-34.7	-35.4	23.9	0.00e+00	0	28	0	4322230272	42	6033
2026-01-26 17:29:39.98	215.91	6.73	-34.9	-35.5	23.8	0.00e+00	0	28	0	4345298944	42	6071
2026-01-26 17:29:44.02	215.85	6.42	-35.1	-35.9	23.5	0.00e+00	0	28	0	4368367616	42	6322
2026-01-26 17:29:48.05	215.79	6.12	-35.1	-35.9	23.4	0.00e+00	0	28	0	4390387712	42	6369
2026-01-26 17:29:52.09	215.73	5.82	-35.2	-35.8	23.4	0.00e+00	0	28	0	4413456384	42	6305
2026-01-26 17:29:56.12	215.68	5.52	-35.2	-36.1	23.2	0.00e+00	0	28	0	4436525056	42	6475
2026-01-26 17:30:00.15	215.62	5.23	-35.1	-35.9	23.3	0.00e+00	0	28	0	4458545152	44	5677
2026-01-26 17:30:04.19	215.57	4.94	-35.4	-36.1	23.0	0.00e+00	0	28	0	4481613824	44	5797
2026-01-26 17:30:08.23	215.52	4.66	-35.5	-36.3	22.8	0.00e+00	0	28	0	4504682496	44	5960
2026-01-26 17:30:12.26	215.47	4.37	-35.6	-36.3	22.7	0.00e+00	0	28	0	4526702592	44	5949
2026-01-26 17:30:16.30	215.42	4.09	-36.0	-36.9	22.3	0.00e+00	0	28	0	4549771264	44	6327
2026-01-26 17:30:20.34	215.37	3.81	-35.9	-36.7	22.4	0.00e+00	0	28	0	4572839936	44	6203
2026-01-26 17:30:24.37	215.33	3.54	-35.7	-36.4	22.5	0.00e+00	0	28	0	4594860032	44	5982
2026-01-26 17:30:28.41	215.28	3.27	-36.6	-37.5	21.5	0.00e+00	0	28	0	4617928704	44	6806
2026-01-26 17:30:32.45	215.24	3.00	-36.7	-37.7	20.9	0.00e+00	0	28	0	4640997376	44	6947
2026-01-26 17:30:36.49	215.19	2.73	-48.9	-61.0	3.6	8.46e-01	0	28	104	4642045952	60	40708
2026-01-26 17:30:40.53	215.15	2.47	-49.2	-61.3	3.6	8.45e-01	0	28	104	4642045952	60	42205
2026-01-26 17:30:44.57	215.11	2.20	-49.2	-61.3	3.6	8.45e-01	0	28	104	4642045952	60	42042
2026-01-26 17:30:48.61	215.07	1.94	-48.9	-61.2	3.6	8.44e-01	0	28	104	4642045952	60	41729
2026-01-26 17:30:52.64	215.03	1.69	-49.3	-61.4	3.6	8.46e-01	0	29	104	4642045952	60	42425
2026-01-26 17:30:56.69	214.99	1.43	-49.4	-61.6	3.6	8.45e-01	0	29	104	4642045952	60	43308
2026-01-26 17:31:00.73	214.95	1.18	-49.3	-61.5	3.6	8.45e-01	0	28	104	4642045952	60	43029
2026-01-26 17:31:04.77	214.92	0.93	-49.2	-61.4	3.6	8.46e-01	0	29	104	4642045952	60	42599
2026-01-26 17:31:08.80	214.88	0.68	-49.2	-61.5	3.6	8.46e-01	0	28	104	4642045952	60	42818
2026-01-26 17:31:12.84	214.84	0.43	-49.3	-61.5	3.6	8.45e-01	0	28	104	4642045952	60	43117
2026-01-26 17:31:16.87	214.81	0.19	-49.1	-61.4	3.6	8.45e-01	0	28	104	4642045952	60	42338
2026-01-26 17:31:20.91	214.78	-0.05	-49.3	-61.6	3.6	8.45e-01	0	28	104	4642045952	60	43263

#Closed at: 2026-01-26 17:31:21
#Recorded file [4642 MB]: D:/lorett/data/35029_260127_051556.dat