passes_logs/2026/01/26/R4.6S_Anadyr/R4.6S_Anadyr__20260126_135512_FENGYUN_3D_rec.log

#Pass ID: 20260126_135512_FENGYUN 3D
#Satellite: FENGYUN 3D
#Configuration: FENGYUN 3D
#almurnet v.1.7.20251203
#Start time: 2026-01-26 13:55:15

#Version: 2.2.20231116
#Station: R4.6S_Anadyr
#Location: 177.4865 lon 64.73178 lat
#TLE: 1 43010U 17072A   26025.99795741 -.00000136  00000+0 -42313-4 0  9999
#TLE: 2 43010  98.9962 357.9855 0002515  89.6991 270.4472 14.19699257424818

#Time	Az	El	Level	Level2	SNR	BER	BlckErr	Temp	State	Recorded	gain1	gain2
2026-01-26 13:55:15.23	20.88	0.12	-49.7	-64.7	3.6	1.51e+00	0	25	0	0	60	61803
2026-01-26 13:55:18.26	21.15	0.25	-50.1	-62.2	3.6	8.45e-01	0	26	104	0	60	46418
2026-01-26 13:55:21.29	21.43	0.38	-49.9	-62.0	3.6	8.45e-01	0	26	104	0	60	45387
2026-01-26 13:55:24.31	21.70	0.50	-49.6	-61.7	3.6	8.45e-01	0	26	104	0	60	43870
2026-01-26 13:55:27.34	21.98	0.63	-49.5	-61.6	3.6	8.45e-01	0	26	104	0	60	43664
2026-01-26 13:55:30.37	22.27	0.76	-49.4	-61.5	3.6	8.46e-01	0	27	104	0	60	43015
2026-01-26 13:55:33.40	22.55	0.89	-49.1	-61.3	3.6	8.44e-01	0	27	104	0	60	42089
2026-01-26 13:55:36.43	22.84	1.02	-48.9	-61.1	3.6	8.45e-01	0	27	104	0	60	40893
2026-01-26 13:55:39.46	23.13	1.15	-48.4	-60.4	3.6	8.45e-01	0	27	104	0	60	37712
2026-01-26 13:55:42.49	23.42	1.28	-48.0	-60.0	3.6	8.46e-01	0	27	104	0	60	36327
2026-01-26 13:55:45.51	23.71	1.41	-47.9	-60.0	3.6	8.45e-01	0	27	104	0	60	36267
2026-01-26 13:55:48.55	24.01	1.54	-47.9	-60.0	3.6	8.44e-01	0	27	104	0	60	36352
2026-01-26 13:55:51.57	24.31	1.67	-47.9	-60.0	3.6	8.45e-01	0	27	104	0	60	36226
2026-01-26 13:55:54.60	24.61	1.80	-47.9	-60.0	3.6	8.45e-01	0	27	104	0	60	36154
2026-01-26 13:55:57.63	24.92	1.93	-47.9	-60.0	3.6	8.45e-01	0	27	104	0	60	36250
2026-01-26 13:56:00.66	25.22	2.05	-47.9	-60.0	3.6	8.44e-01	0	27	104	0	60	36079
2026-01-26 13:56:03.69	25.53	2.18	-47.9	-59.8	3.6	8.45e-01	0	27	104	0	60	35439
2026-01-26 13:56:06.72	25.85	2.31	-47.9	-60.0	3.6	8.45e-01	0	27	104	0	60	36211
2026-01-26 13:56:09.75	26.16	2.44	-48.0	-60.0	3.6	8.46e-01	0	27	104	0	60	35962
2026-01-26 13:56:12.78	26.48	2.57	-47.8	-58.1	3.6	8.44e-01	0	27	104	0	60	29114
2026-01-26 13:56:15.81	26.80	2.70	-45.3	-48.8	10.3	1.39e-02	0	27	104	0	60	9936
2026-01-26 13:56:18.84	27.12	2.83	-37.5	-38.5	20.6	0.00e+00	0	27	0	15728640	48	6037
2026-01-26 13:56:21.88	27.45	2.96	-37.7	-38.6	20.2	0.00e+00	0	27	0	33554432	48	6145
2026-01-26 13:56:24.90	27.77	3.09	-37.7	-38.6	20.4	0.00e+00	0	27	0	50331648	48	6165
2026-01-26 13:56:27.93	28.10	3.21	-42.7	-44.5	12.1	0.00e+00	0	27	0	54525952	54	8547
2026-01-26 13:56:30.96	28.44	3.34	-39.2	-40.2	18.8	0.00e+00	0	27	0	72351744	52	5889
2026-01-26 13:56:33.99	28.77	3.47	-39.3	-40.4	19.2	0.00e+00	0	27	0	89128960	52	6006
2026-01-26 13:56:37.02	29.11	3.60	-38.4	-39.4	20.1	0.00e+00	0	27	0	105906176	50	5996
2026-01-26 13:56:40.05	29.46	3.72	-38.0	-38.9	20.2	0.00e+00	0	27	0	123731968	48	6326
2026-01-26 13:56:43.08	29.80	3.85	-38.0	-38.9	20.5	0.00e+00	0	27	0	140509184	48	6375
2026-01-26 13:56:46.11	30.15	3.98	-37.0	-37.8	21.6	0.00e+00	0	27	0	157286400	48	5590
2026-01-26 13:56:49.14	30.50	4.11	-37.8	-38.7	20.6	0.00e+00	0	27	0	174063616	48	6239
2026-01-26 13:56:52.17	30.85	4.23	-36.7	-37.5	21.8	0.00e+00	0	27	0	191889408	46	6069
2026-01-26 13:56:55.20	31.21	4.36	-37.1	-38.0	21.3	0.00e+00	0	27	0	208666624	46	6408
2026-01-26 13:56:58.22	31.57	4.48	-36.2	-37.0	22.3	0.00e+00	0	27	0	225443840	46	5742
2026-01-26 13:57:01.25	31.93	4.61	-36.3	-37.1	22.2	0.00e+00	0	27	0	242221056	46	5803
2026-01-26 13:57:04.28	32.29	4.74	-36.5	-37.3	22.0	0.00e+00	0	27	0	258998272	46	5958
2026-01-26 13:57:07.31	32.66	4.86	-36.1	-36.9	22.4	0.00e+00	0	27	0	276824064	46	5667
2026-01-26 13:57:10.34	33.03	4.99	-35.9	-36.7	22.7	0.00e+00	0	27	0	293601280	46	5551
2026-01-26 13:57:13.37	33.41	5.11	-35.7	-36.5	22.9	0.00e+00	0	27	0	310378496	44	6044
2026-01-26 13:57:16.40	33.79	5.23	-36.1	-36.8	22.5	0.00e+00	0	27	0	328204288	44	6314
2026-01-26 13:57:19.42	34.17	5.36	-35.6	-36.4	23.0	0.00e+00	0	27	0	344981504	44	5978
2026-01-26 13:57:22.45	34.55	5.48	-35.4	-36.2	23.1	0.00e+00	0	27	0	361758720	44	5849
2026-01-26 13:57:25.48	34.94	5.60	-35.9	-36.7	22.7	0.00e+00	0	27	0	378535936	44	6191
2026-01-26 13:57:28.51	35.33	5.72	-36.1	-36.9	22.7	0.00e+00	0	27	0	396361728	44	6321
2026-01-26 13:57:31.54	35.72	5.85	-36.1	-36.9	22.6	0.00e+00	0	27	0	413138944	44	6334
2026-01-26 13:57:34.57	36.12	5.97	-35.6	-36.4	23.2	0.00e+00	0	27	0	429916160	44	5975
2026-01-26 13:57:37.60	36.52	6.09	-35.9	-36.7	22.8	0.00e+00	0	27	0	446693376	44	6205
2026-01-26 13:57:40.63	36.92	6.21	-35.6	-36.4	23.1	0.00e+00	0	27	0	463470592	44	5972
2026-01-26 13:57:43.66	37.32	6.33	-35.4	-36.1	23.4	0.00e+00	0	27	0	481296384	44	5794
2026-01-26 13:57:46.69	37.73	6.44	-35.2	-36.0	23.5	0.00e+00	0	27	0	498073600	44	5710
2026-01-26 13:57:49.72	38.15	6.56	-35.4	-36.2	23.3	0.00e+00	0	27	0	514850816	44	5859
2026-01-26 13:57:52.75	38.56	6.68	-35.3	-36.0	23.5	0.00e+00	0	27	0	532676608	44	5718
2026-01-26 13:57:55.77	38.98	6.79	-35.0	-35.7	23.8	0.00e+00	0	27	0	549453824	44	5532
2026-01-26 13:57:58.80	39.40	6.91	-34.8	-35.5	24.0	0.00e+00	0	27	0	566231040	44	5394
2026-01-26 13:58:01.83	39.83	7.03	-35.1	-35.8	23.7	0.00e+00	0	27	0	583008256	42	6256
2026-01-26 13:58:04.85	40.25	7.14	-35.0	-35.7	23.8	0.00e+00	0	27	0	600834048	42	6215
2026-01-26 13:58:07.88	40.68	7.25	-35.0	-35.7	23.7	0.00e+00	0	27	0	617611264	42	6241
2026-01-26 13:58:10.92	41.12	7.36	-34.8	-35.5	24.0	0.00e+00	0	27	0	634388480	42	6064
2026-01-26 13:58:13.95	41.56	7.48	-35.1	-35.8	23.7	0.00e+00	0	27	0	651165696	42	6247
2026-01-26 13:58:16.98	42.00	7.59	-35.0	-35.7	23.8	0.00e+00	0	27	0	667942912	42	6208
2026-01-26 13:58:20.00	42.44	7.70	-35.0	-35.7	23.8	0.00e+00	0	27	0	685768704	42	6235
2026-01-26 13:58:23.03	42.89	7.80	-35.1	-35.8	23.8	0.00e+00	0	27	0	702545920	42	6302
2026-01-26 13:58:26.06	43.34	7.91	-34.9	-35.6	24.0	0.00e+00	0	27	0	719323136	42	6148
2026-01-26 13:58:29.09	43.80	8.02	-35.0	-35.7	23.9	0.00e+00	0	27	0	736100352	42	6207
2026-01-26 13:58:32.12	44.25	8.12	-34.9	-35.6	24.0	0.00e+00	0	27	0	753926144	42	6132
2026-01-26 13:58:35.14	44.71	8.23	-34.9	-35.7	23.9	0.00e+00	0	27	0	770703360	42	6192
2026-01-26 13:58:38.17	45.18	8.33	-34.8	-35.5	24.2	0.00e+00	0	27	0	787480576	42	6087
2026-01-26 13:58:41.20	45.64	8.43	-34.7	-35.4	24.1	0.00e+00	0	27	0	805306368	42	5997
2026-01-26 13:58:44.23	46.11	8.53	-34.7	-35.4	24.3	0.00e+00	0	27	0	822083584	42	5977
2026-01-26 13:58:47.26	46.59	8.63	-34.5	-35.2	24.5	0.00e+00	0	27	0	838860800	42	5835
2026-01-26 13:58:50.29	47.06	8.73	-34.7	-35.4	24.4	0.00e+00	0	27	0	855638016	42	5978
2026-01-26 13:58:53.32	47.54	8.83	-34.4	-35.1	24.5	0.00e+00	0	27	0	872415232	42	5804
2026-01-26 13:58:56.35	48.03	8.92	-34.3	-35.0	24.6	0.00e+00	0	27	0	890241024	42	5731
2026-01-26 13:58:59.38	48.51	9.02	-34.6	-35.3	24.3	0.00e+00	0	27	0	907018240	42	5929
2026-01-26 13:59:02.42	49.00	9.11	-34.5	-35.2	24.4	0.00e+00	0	27	0	923795456	42	5880
2026-01-26 13:59:05.44	49.49	9.20	-34.6	-35.3	24.3	0.00e+00	0	27	0	941621248	42	5926
2026-01-26 13:59:08.47	49.99	9.29	-34.4	-35.1	24.4	0.00e+00	0	27	0	958398464	42	5798
2026-01-26 13:59:11.50	50.49	9.38	-34.4	-35.1	24.6	0.00e+00	0	27	0	975175680	42	5800
2026-01-26 13:59:14.53	50.99	9.47	-34.3	-35.0	24.5	0.00e+00	0	27	0	991952896	42	5757
2026-01-26 13:59:17.56	51.49	9.55	-34.5	-35.3	24.4	0.00e+00	0	27	0	1009778688	42	5906
2026-01-26 13:59:20.59	52.00	9.63	-34.8	-35.5	24.2	0.00e+00	0	27	0	1026555904	42	6087
2026-01-26 13:59:23.62	52.51	9.72	-34.8	-35.5	24.3	0.00e+00	0	27	0	1043333120	42	6064
2026-01-26 13:59:26.65	53.02	9.80	-34.7	-35.4	24.3	0.00e+00	0	27	0	1060110336	42	5987
2026-01-26 13:59:29.68	53.53	9.87	-34.5	-35.2	24.4	0.00e+00	0	27	0	1076887552	42	5887
2026-01-26 13:59:32.70	54.05	9.95	-34.2	-35.0	24.6	0.00e+00	0	27	0	1094713344	42	5704
2026-01-26 13:59:35.73	54.57	10.02	-34.3	-35.0	24.7	0.00e+00	0	27	0	1111490560	42	5735
2026-01-26 13:59:38.76	55.09	10.10	-34.3	-35.0	24.7	0.00e+00	0	27	0	1128267776	42	5754
2026-01-26 13:59:41.79	55.62	10.17	-33.8	-34.5	25.0	0.00e+00	0	27	0	1146093568	42	5409
2026-01-26 13:59:44.82	56.14	10.24	-33.8	-34.5	25.1	0.00e+00	0	27	0	1162870784	40	6048
2026-01-26 13:59:47.85	56.67	10.30	-34.0	-34.7	24.9	0.00e+00	0	27	0	1179648000	40	6191
2026-01-26 13:59:50.88	57.20	10.37	-33.8	-34.5	25.1	0.00e+00	0	27	0	1196425216	40	6066
2026-01-26 13:59:53.91	57.74	10.43	-33.6	-34.3	25.3	0.00e+00	0	27	0	1214251008	40	5906
2026-01-26 13:59:56.94	58.28	10.49	-33.6	-34.2	25.3	0.00e+00	0	27	0	1231028224	40	5880
2026-01-26 13:59:59.96	58.81	10.55	-33.9	-34.5	25.1	0.00e+00	0	27	0	1247805440	40	6090
2026-01-26 14:00:02.99	59.35	10.61	-34.1	-34.8	24.9	0.00e+00	0	27	0	1264582656	40	6276
2026-01-26 14:00:06.02	59.90	10.66	-33.9	-34.6	25.0	0.00e+00	0	28	0	1281359872	40	6156
2026-01-26 14:00:09.05	60.44	10.72	-33.9	-34.5	25.1	0.00e+00	0	28	0	1299185664	40	6102
2026-01-26 14:00:12.08	60.99	10.77	-33.9	-34.6	25.0	0.00e+00	0	28	0	1315962880	40	6172
2026-01-26 14:00:15.10	61.54	10.82	-33.8	-34.5	25.1	0.00e+00	0	28	0	1332740096	40	6050
2026-01-26 14:00:18.14	62.09	10.86	-33.8	-34.5	25.0	0.00e+00	0	28	0	1349517312	40	6078
2026-01-26 14:00:21.16	62.64	10.91	-33.9	-34.6	24.8	0.00e+00	0	28	0	1367343104	40	6116
2026-01-26 14:00:24.19	63.19	10.95	-33.9	-34.5	25.0	0.00e+00	0	28	0	1384120320	40	6089
2026-01-26 14:00:27.21	63.75	10.99	-34.0	-34.6	25.0	0.00e+00	0	28	0	1400897536	40	6169
2026-01-26 14:00:30.25	64.30	11.02	-34.1	-34.8	24.9	0.00e+00	0	28	0	1418723328	40	6284
2026-01-26 14:00:33.28	64.86	11.06	-33.7	-34.4	25.2	0.00e+00	0	28	0	1435500544	40	6001
2026-01-26 14:00:36.30	65.42	11.09	-33.7	-34.4	25.1	0.00e+00	0	28	0	1452277760	40	6023
2026-01-26 14:00:39.33	65.98	11.12	-33.9	-34.6	25.1	0.00e+00	0	28	0	1469054976	40	6153
2026-01-26 14:00:42.36	66.54	11.15	-34.1	-34.8	25.0	0.00e+00	0	28	0	1485832192	40	6255
2026-01-26 14:00:45.39	67.10	11.17	-34.0	-34.7	24.9	0.00e+00	0	28	0	1503657984	40	6195
2026-01-26 14:00:48.41	67.67	11.19	-33.7	-34.4	25.1	0.00e+00	0	28	0	1520435200	40	5980
2026-01-26 14:00:51.44	68.23	11.21	-33.7	-34.3	25.2	0.00e+00	0	28	0	1537212416	40	5961
2026-01-26 14:00:54.47	68.80	11.23	-33.7	-34.5	25.0	0.00e+00	0	28	0	1553989632	40	6039
2026-01-26 14:00:57.50	69.36	11.25	-34.0	-34.7	24.8	0.00e+00	0	28	0	1571815424	40	6190
2026-01-26 14:01:00.53	69.93	11.26	-33.8	-34.4	25.1	0.00e+00	0	28	0	1588592640	40	6015
2026-01-26 14:01:03.56	70.49	11.27	-33.8	-34.5	25.2	0.00e+00	0	28	0	1605369856	40	6076
2026-01-26 14:01:06.58	71.06	11.28	-33.6	-34.4	25.2	0.00e+00	0	28	0	1622147072	40	5974
2026-01-26 14:01:09.61	71.63	11.28	-33.9	-34.6	25.0	0.00e+00	0	28	0	1639972864	40	6170
2026-01-26 14:01:12.64	72.19	11.29	-33.8	-34.5	25.1	0.00e+00	0	28	0	1656750080	40	6089
2026-01-26 14:01:15.66	72.76	11.29	-33.8	-34.4	25.2	0.00e+00	0	28	0	1673527296	40	6006
2026-01-26 14:01:18.70	73.33	11.28	-33.5	-34.2	25.3	0.00e+00	0	28	0	1690304512	40	5875
2026-01-26 14:01:21.73	73.90	11.28	-33.9	-34.5	24.9	0.00e+00	0	28	0	1708130304	40	6094
2026-01-26 14:01:24.75	74.46	11.27	-33.8	-34.5	25.0	0.00e+00	0	28	0	1724907520	40	6068
2026-01-26 14:01:27.78	75.03	11.26	-34.0	-34.7	24.8	0.00e+00	0	28	0	1741684736	40	6221
2026-01-26 14:01:30.81	75.60	11.25	-33.8	-34.5	24.9	0.00e+00	0	28	0	1758461952	40	6089
2026-01-26 14:01:33.84	76.16	11.24	-34.1	-34.8	24.5	0.00e+00	0	28	0	1776287744	40	6287
2026-01-26 14:01:36.87	76.73	11.22	-34.0	-34.7	24.8	0.00e+00	0	28	0	1793064960	40	6243
2026-01-26 14:01:39.90	77.29	11.20	-34.1	-34.7	24.8	0.00e+00	0	28	0	1809842176	40	6244
2026-01-26 14:01:42.94	77.86	11.18	-34.3	-35.0	24.7	0.00e+00	0	28	0	1826619392	40	6400
2026-01-26 14:01:45.96	78.42	11.15	-34.2	-34.9	24.7	0.00e+00	0	28	0	1844445184	40	6369
2026-01-26 14:01:48.99	78.98	11.13	-33.7	-34.3	25.2	0.00e+00	0	28	0	1861222400	40	5962
2026-01-26 14:01:52.02	79.54	11.10	-33.7	-34.4	25.1	0.00e+00	0	28	0	1877999616	40	5993
2026-01-26 14:01:55.05	80.10	11.06	-33.8	-34.5	25.0	0.00e+00	0	28	0	1894776832	40	6048
2026-01-26 14:01:58.08	80.66	11.03	-33.7	-34.4	25.1	0.00e+00	0	28	0	1912602624	40	6004
2026-01-26 14:02:01.10	81.22	10.99	-33.7	-34.3	25.3	0.00e+00	0	28	0	1929379840	40	5928
2026-01-26 14:02:04.13	81.78	10.96	-33.7	-34.4	25.1	0.00e+00	0	28	0	1946157056	40	5974
2026-01-26 14:02:07.16	82.33	10.91	-33.8	-34.4	25.2	0.00e+00	0	28	0	1962934272	40	6004
2026-01-26 14:02:10.19	82.88	10.87	-33.8	-34.5	25.0	0.00e+00	0	28	0	1979711488	40	6098
2026-01-26 14:02:13.22	83.44	10.83	-34.2	-34.9	24.7	0.00e+00	0	28	0	1997537280	40	6321
2026-01-26 14:02:16.25	83.99	10.78	-34.1	-34.8	24.8	0.00e+00	0	28	0	2014314496	40	6254
2026-01-26 14:02:19.28	84.54	10.73	-34.1	-34.8	24.9	0.00e+00	0	28	0	2031091712	42	5600
2026-01-26 14:02:22.31	85.08	10.67	-34.0	-34.7	24.9	0.00e+00	0	28	0	2048917504	42	5565
2026-01-26 14:02:25.34	85.63	10.62	-34.0	-34.8	25.0	0.00e+00	0	28	0	2065694720	42	5585
2026-01-26 14:02:28.37	86.17	10.56	-34.1	-34.8	24.9	0.00e+00	0	28	0	2082471936	42	5597
2026-01-26 14:02:31.40	86.71	10.50	-34.1	-34.9	24.8	0.00e+00	0	28	0	2099249152	42	5635
2026-01-26 14:02:34.43	87.25	10.44	-34.0	-34.6	24.9	0.00e+00	0	28	0	2117074944	42	5500
2026-01-26 14:02:37.44	87.78	10.38	-34.3	-35.0	24.6	0.00e+00	0	28	0	2133852160	42	5744
2026-01-26 14:02:40.47	88.32	10.32	-34.2	-34.9	24.7	0.00e+00	0	29	0	2150629376	42	5682
2026-01-26 14:02:43.50	88.85	10.25	-34.5	-35.2	24.3	0.00e+00	0	28	0	2167406592	42	5866
2026-01-26 14:02:46.53	89.38	10.18	-34.7	-35.4	24.2	0.00e+00	0	29	0	2184183808	42	6029
2026-01-26 14:02:49.55	89.90	10.11	-34.5	-35.2	24.3	0.00e+00	0	28	0	2202009600	42	5864
2026-01-26 14:02:52.58	90.43	10.04	-34.5	-35.3	24.4	0.00e+00	0	29	0	2218786816	42	5920
2026-01-26 14:02:55.61	90.95	9.96	-34.6	-35.3	24.5	0.00e+00	0	29	0	2235564032	42	5950
2026-01-26 14:02:58.64	91.47	9.89	-34.5	-35.2	24.5	0.00e+00	0	28	0	2252341248	42	5859
2026-01-26 14:03:01.66	91.98	9.81	-34.2	-34.9	24.7	0.00e+00	0	28	0	2270167040	42	5692
2026-01-26 14:03:04.69	92.50	9.73	-34.2	-34.9	24.7	0.00e+00	0	28	0	2286944256	42	5657
2026-01-26 14:03:07.72	93.01	9.65	-34.3	-35.0	24.6	0.00e+00	0	29	0	2303721472	42	5730
2026-01-26 14:03:10.74	93.52	9.56	-34.4	-35.1	24.5	0.00e+00	0	29	0	2321547264	42	5811
2026-01-26 14:03:13.77	94.02	9.48	-34.4	-35.1	24.5	0.00e+00	0	29	0	2338324480	42	5813
2026-01-26 14:03:16.80	94.53	9.39	-34.8	-35.6	24.0	0.00e+00	0	29	0	2355101696	42	6115
2026-01-26 14:03:19.82	95.02	9.30	-34.9	-35.6	24.1	0.00e+00	0	29	0	2371878912	42	6127
2026-01-26 14:03:22.85	95.52	9.21	-34.6	-35.3	24.2	0.00e+00	0	29	0	2388656128	42	5959
2026-01-26 14:03:25.88	96.02	9.12	-34.4	-35.0	24.5	0.00e+00	0	29	0	2406481920	42	5751
2026-01-26 14:03:28.91	96.51	9.03	-34.7	-35.4	24.2	0.00e+00	0	29	0	2423259136	42	5998
2026-01-26 14:03:31.93	96.99	8.93	-34.8	-35.5	24.1	0.00e+00	0	29	0	2440036352	42	6081
2026-01-26 14:03:34.96	97.48	8.84	-34.9	-35.6	23.9	0.00e+00	0	29	0	2456813568	42	6170
2026-01-26 14:03:37.99	97.96	8.74	-34.8	-35.6	24.0	0.00e+00	0	29	0	2473590784	42	6108
2026-01-26 14:03:41.02	98.44	8.64	-34.9	-35.7	23.9	0.00e+00	0	29	0	2491416576	42	6209
2026-01-26 14:03:44.05	98.92	8.54	-35.0	-35.7	23.9	0.00e+00	0	29	0	2508193792	42	6183
2026-01-26 14:03:47.07	99.39	8.44	-34.9	-35.6	24.1	0.00e+00	0	29	0	2524971008	42	6136
2026-01-26 14:03:50.10	99.86	8.34	-34.8	-35.5	24.1	0.00e+00	0	29	0	2542796800	42	6075
2026-01-26 14:03:53.13	100.32	8.24	-34.8	-35.5	24.0	0.00e+00	0	29	0	2559574016	42	6095
2026-01-26 14:03:56.16	100.79	8.13	-34.8	-35.6	24.1	0.00e+00	0	29	0	2576351232	42	6120
2026-01-26 14:03:59.19	101.25	8.03	-35.0	-35.7	24.0	0.00e+00	0	29	0	2593128448	42	6226
2026-01-26 14:04:02.22	101.70	7.92	-35.1	-35.8	23.7	0.00e+00	0	29	0	2610954240	42	6293
2026-01-26 14:04:05.24	102.15	7.81	-35.3	-36.0	23.5	0.00e+00	0	29	0	2627731456	42	6432
2026-01-26 14:04:08.27	102.60	7.70	-35.2	-36.0	23.5	0.00e+00	0	29	0	2644508672	42	6464
2026-01-26 14:04:11.29	103.05	7.59	-35.1	-35.8	23.5	0.00e+00	0	29	0	2661285888	42	6304
2026-01-26 14:04:14.32	103.49	7.48	-35.5	-36.3	23.3	0.00e+00	0	29	0	2678063104	42	6633
2026-01-26 14:04:17.35	103.93	7.37	-35.4	-36.1	23.4	0.00e+00	0	29	0	2695888896	42	6531
2026-01-26 14:04:20.37	104.37	7.26	-35.4	-36.2	23.3	0.00e+00	0	29	0	2712666112	42	6560
2026-01-26 14:04:23.40	104.80	7.14	-35.4	-36.1	23.4	0.00e+00	0	29	0	2729443328	42	6515
2026-01-26 14:04:26.44	105.24	7.03	-35.6	-36.4	23.2	0.00e+00	0	29	0	2746220544	42	6714
2026-01-26 14:04:29.46	105.66	6.91	-35.5	-36.3	23.3	0.00e+00	0	29	0	2764046336	42	6668
2026-01-26 14:04:32.50	106.09	6.79	-35.4	-36.3	23.4	0.00e+00	0	29	0	2780823552	42	6644
2026-01-26 14:04:35.53	106.51	6.68	-35.2	-36.0	23.6	0.00e+00	0	29	0	2797600768	42	6420
2026-01-26 14:04:38.56	106.93	6.56	-35.6	-36.4	23.1	0.00e+00	0	29	0	2815426560	42	6734
2026-01-26 14:04:41.58	107.34	6.44	-35.7	-36.6	22.8	0.00e+00	0	29	0	2832203776	44	6165
2026-01-26 14:04:44.61	107.75	6.32	-35.8	-36.7	22.9	0.00e+00	0	29	0	2848980992	44	6184
2026-01-26 14:04:47.64	108.16	6.20	-35.8	-36.6	22.9	0.00e+00	0	29	0	2865758208	44	6158
2026-01-26 14:04:50.67	108.56	6.08	-36.0	-36.8	22.5	0.00e+00	0	29	0	2882535424	44	6290
2026-01-26 14:04:53.69	108.96	5.96	-35.8	-36.5	22.8	0.00e+00	0	29	0	2900361216	44	6066
2026-01-26 14:04:56.72	109.36	5.84	-36.0	-36.8	22.5	0.00e+00	0	29	0	2917138432	44	6309
2026-01-26 14:04:59.75	109.76	5.72	-36.1	-36.9	22.5	0.00e+00	0	29	0	2933915648	44	6342
2026-01-26 14:05:02.77	110.15	5.59	-36.0	-36.7	22.4	0.00e+00	0	29	0	2950692864	44	6244
2026-01-26 14:05:05.80	110.54	5.47	-35.9	-36.7	22.6	0.00e+00	0	29	0	2968518656	44	6242
2026-01-26 14:05:08.83	110.92	5.35	-35.9	-36.7	22.5	0.00e+00	0	29	0	2985295872	44	6197
2026-01-26 14:05:11.86	111.30	5.22	-35.7	-36.6	22.7	0.00e+00	0	29	0	3002073088	44	6142
2026-01-26 14:05:14.89	111.68	5.10	-35.8	-36.6	22.7	0.00e+00	0	29	0	3019898880	44	6144
2026-01-26 14:05:17.92	112.06	4.97	-36.0	-36.8	22.4	0.00e+00	0	29	0	3036676096	44	6280
2026-01-26 14:05:20.94	112.43	4.84	-35.9	-36.8	22.5	0.00e+00	0	29	0	3053453312	44	6316
2026-01-26 14:05:23.97	112.80	4.72	-35.9	-36.8	22.5	0.00e+00	0	29	0	3070230528	44	6256
2026-01-26 14:05:27.00	113.17	4.59	-36.1	-36.9	22.1	0.00e+00	0	29	0	3087007744	44	6375
2026-01-26 14:05:30.02	113.53	4.47	-36.3	-37.2	21.7	0.00e+00	0	29	0	3104833536	44	6608
2026-01-26 14:05:33.06	113.89	4.34	-36.6	-37.4	21.6	0.00e+00	0	29	0	3121610752	44	6769
2026-01-26 14:05:36.09	114.25	4.21	-36.7	-37.6	21.4	0.00e+00	0	29	0	3138387968	44	6878
2026-01-26 14:05:39.12	114.61	4.08	-36.8	-37.6	21.4	0.00e+00	0	29	0	3155165184	46	6148
2026-01-26 14:05:42.14	114.96	3.95	-36.9	-37.9	21.3	0.00e+00	0	29	0	3172990976	46	6340
2026-01-26 14:05:45.18	115.31	3.83	-36.6	-37.3	21.6	0.00e+00	0	29	0	3189768192	46	5950
2026-01-26 14:05:48.20	115.65	3.70	-36.7	-37.6	21.4	0.00e+00	0	29	0	3206545408	46	6137
2026-01-26 14:05:51.23	116.00	3.57	-37.3	-38.3	20.7	0.00e+00	0	29	0	3223322624	46	6674
2026-01-26 14:05:54.26	116.34	3.44	-36.7	-37.6	21.4	0.00e+00	0	29	0	3241148416	46	6169
2026-01-26 14:05:57.29	116.67	3.31	-37.0	-38.0	21.0	0.00e+00	0	29	0	3257925632	46	6417
2026-01-26 14:06:00.32	117.01	3.18	-37.3	-38.4	20.5	0.00e+00	0	29	0	3274702848	48	5993
2026-01-26 14:06:03.34	117.34	3.05	-37.0	-37.9	20.7	0.00e+00	0	29	0	3291480064	48	5691
2026-01-26 14:06:06.37	117.67	2.92	-48.8	-60.9	3.6	8.45e-01	0	29	104	3297771520	60	40247
2026-01-26 14:06:09.40	117.99	2.79	-49.2	-61.4	3.6	8.45e-01	0	29	104	3297771520	60	42411
2026-01-26 14:06:12.44	118.32	2.66	-49.3	-61.5	3.6	8.45e-01	0	29	104	3297771520	60	42809
2026-01-26 14:06:15.46	118.64	2.53	-49.5	-61.6	3.6	8.45e-01	0	29	104	3297771520	60	43433
2026-01-26 14:06:18.50	118.96	2.40	-49.5	-61.6	3.6	8.45e-01	0	29	104	3297771520	60	43598
2026-01-26 14:06:21.52	119.27	2.27	-49.5	-61.6	3.5	8.46e-01	0	29	104	3297771520	60	43692
2026-01-26 14:06:24.55	119.59	2.14	-49.5	-61.7	3.6	8.45e-01	0	29	104	3297771520	60	43828
2026-01-26 14:06:27.59	119.90	2.01	-49.6	-61.7	3.6	8.45e-01	0	29	104	3297771520	60	43885
2026-01-26 14:06:30.62	120.20	1.88	-49.6	-61.7	3.6	8.46e-01	0	29	104	3297771520	60	44076
2026-01-26 14:06:33.65	120.51	1.75	-50.0	-62.2	3.6	8.46e-01	0	29	104	3297771520	60	46324
2026-01-26 14:06:36.67	120.81	1.62	-49.8	-62.0	3.6	8.46e-01	0	29	104	3297771520	60	45554
2026-01-26 14:06:39.70	121.11	1.49	-50.0	-62.1	3.6	8.45e-01	0	29	104	3297771520	60	46131
2026-01-26 14:06:42.73	121.41	1.36	-49.8	-62.0	3.6	8.44e-01	0	29	104	3297771520	60	45607
2026-01-26 14:06:45.76	121.70	1.23	-49.8	-62.0	3.6	8.45e-01	0	29	104	3297771520	60	45370
2026-01-26 14:06:48.79	122.00	1.10	-49.8	-61.9	3.6	8.45e-01	0	30	104	3297771520	60	44897
2026-01-26 14:06:51.82	122.29	0.97	-49.7	-61.8	3.6	8.45e-01	0	29	104	3297771520	60	44657
2026-01-26 14:06:54.85	122.57	0.83	-49.8	-61.9	3.6	8.45e-01	0	30	104	3297771520	60	45098
2026-01-26 14:06:57.88	122.86	0.70	-50.3	-62.5	3.6	8.45e-01	0	29	104	3297771520	60	47946
2026-01-26 14:07:00.91	123.14	0.57	-49.6	-61.7	3.6	8.45e-01	0	29	104	3297771520	60	44168
2026-01-26 14:07:03.94	123.42	0.44	-49.7	-61.8	3.6	8.45e-01	0	30	104	3297771520	60	44471
2026-01-26 14:07:06.97	123.70	0.31	-50.0	-62.1	3.6	8.46e-01	0	30	104	3297771520	60	46219
2026-01-26 14:07:10.00	123.98	0.18	-49.6	-61.8	3.6	8.45e-01	0	29	104	3297771520	60	44357
2026-01-26 14:07:13.03	124.25	0.05	-50.2	-62.3	3.6	8.45e-01	0	29	104	3297771520	60	47355
2026-01-26 14:07:16.06	124.52	-0.08	-50.2	-62.3	3.6	8.45e-01	0	29	104	3297771520	60	47226

#Closed at: 2026-01-26 14:07:16
#Recorded file [3297 MB]: D:/lorett/data/35029_260127_015515.dat