passes_logs/2026/01/26/R4.6S_Anadyr/R4.6S_Anadyr__20260126_005241_SUOMI_NPP_rec.log

#Pass ID: 20260126_005241_SUOMI NPP
#Satellite: SUOMI NPP
#Configuration: NPP
#almurnet v.1.7.20251203
#Start time: 2026-01-26 00:52:42

#Version: 2.2.20231116
#Station: R4.6S_Anadyr
#Location: 177.4865 lon 64.73178 lat
#TLE: 1 37849U 11061A   26025.53586395  .00000179  00000+0  10601-3 0  9996
#TLE: 2 37849  98.7821 327.4943 0002169  45.6246 314.5108 14.19529815738202

#Time	Az	El	Level	Level2	SNR	BER	BlckErr	Temp	State	Recorded	gain1	gain2
2026-01-26 00:52:42.37	170.89	0.06	-50.1	-62.6	3.6	1.52e+00	0	31	0	0	60	47558
2026-01-26 00:52:46.40	170.98	0.30	-51.2	-66.5	3.5	1.51e+00	0	32	104	0	60	76156
2026-01-26 00:52:50.44	171.06	0.54	-50.3	-65.5	3.6	1.51e+00	0	33	104	0	60	68236
2026-01-26 00:52:54.48	171.15	0.79	-49.7	-64.9	3.6	1.51e+00	0	33	104	0	60	63596
2026-01-26 00:52:58.52	171.24	1.03	-50.0	-65.2	3.6	1.51e+00	0	33	104	0	60	65822
2026-01-26 00:53:02.56	171.33	1.28	-50.0	-65.2	3.6	1.51e+00	0	33	104	0	60	65801
2026-01-26 00:53:06.60	171.42	1.53	-49.1	-64.3	3.6	1.51e+00	0	33	104	0	60	59472
2026-01-26 00:53:10.64	171.51	1.79	-48.4	-63.4	3.6	1.51e+00	0	33	104	0	60	53524
2026-01-26 00:53:14.67	171.60	2.04	-48.2	-63.4	3.6	1.51e+00	0	33	104	0	60	53270
2026-01-26 00:53:18.71	171.70	2.30	-48.6	-63.7	3.6	1.51e+00	0	33	104	0	60	55167
2026-01-26 00:53:22.76	171.79	2.56	-48.5	-62.4	3.6	1.51e+00	0	33	104	0	60	47899
2026-01-26 00:53:26.80	171.89	2.82	-48.2	-63.2	3.6	1.51e+00	0	33	104	0	60	52492
2026-01-26 00:53:30.84	171.99	3.09	-46.9	-52.3	9.8	4.54e-02	92	33	0	4194304	60	14962
2026-01-26 00:53:34.88	172.09	3.35	-43.1	-45.1	17.3	0.00e+00	92	33	0	11534336	60	6485
2026-01-26 00:53:38.92	172.19	3.62	-41.9	-43.5	18.7	0.00e+00	0	33	0	18874368	56	6806
2026-01-26 00:53:42.96	172.30	3.90	-47.1	-52.1	8.4	7.00e-07	92	33	0	26214400	60	14599
2026-01-26 00:53:47.00	172.40	4.17	-43.1	-45.0	17.6	0.00e+00	82	33	0	29360128	60	6460
2026-01-26 00:53:51.04	172.51	4.45	-42.3	-44.0	18.5	0.00e+00	92	33	0	36700160	58	6434
2026-01-26 00:53:55.08	172.62	4.73	-42.2	-43.8	18.5	0.00e+00	0	33	0	44040192	58	6298
2026-01-26 00:53:59.11	172.73	5.01	-42.0	-43.5	19.0	0.00e+00	92	33	0	52428800	56	6829
2026-01-26 00:54:03.15	172.84	5.30	-42.5	-44.1	19.5	0.00e+00	92	33	0	59768832	56	7291
2026-01-26 00:54:07.19	172.96	5.59	-41.2	-42.5	20.3	0.00e+00	0	33	0	67108864	56	6071
2026-01-26 00:54:11.22	173.08	5.88	-40.8	-42.0	20.7	0.00e+00	0	33	0	74448896	54	6414
2026-01-26 00:54:15.26	173.20	6.18	-41.3	-42.6	20.3	0.00e+00	92	33	0	81788928	56	6170
2026-01-26 00:54:19.30	173.32	6.48	-41.3	-42.6	20.2	0.00e+00	92	33	0	90177536	56	6155
2026-01-26 00:54:23.34	173.44	6.78	-40.4	-41.6	21.0	0.00e+00	0	33	0	97517568	54	6167
2026-01-26 00:54:27.37	173.57	7.09	-40.0	-41.1	21.4	0.00e+00	12	33	0	104857600	54	5782
2026-01-26 00:54:31.41	173.70	7.40	-39.9	-41.0	21.4	0.00e+00	90	33	0	112197632	52	6454
2026-01-26 00:54:35.45	173.83	7.71	-39.8	-40.9	21.5	0.00e+00	92	33	0	120586240	52	6345
2026-01-26 00:54:39.49	173.96	8.03	-39.9	-41.0	21.4	0.00e+00	0	33	0	127926272	52	6462
2026-01-26 00:54:43.52	174.10	8.35	-39.9	-41.0	21.7	0.00e+00	92	33	0	135266304	52	6399
2026-01-26 00:54:47.56	174.24	8.67	-40.0	-41.1	22.0	0.00e+00	92	33	0	142606336	54	5767
2026-01-26 00:54:51.60	174.38	9.00	-39.7	-40.8	21.9	0.00e+00	25	33	0	149946368	52	6268
2026-01-26 00:54:55.64	174.52	9.34	-39.2	-40.2	22.6	0.00e+00	0	33	0	158334976	52	5844
2026-01-26 00:54:59.68	174.67	9.68	-39.6	-40.5	22.4	0.00e+00	92	32	0	165675008	52	6096
2026-01-26 00:55:03.72	174.82	10.02	-39.7	-40.7	22.2	0.00e+00	90	32	0	173015040	52	6238
2026-01-26 00:55:07.75	174.98	10.37	-39.3	-40.3	22.3	0.00e+00	0	32	0	180355072	52	5920
2026-01-26 00:55:11.79	175.14	10.72	-38.9	-39.8	22.6	0.00e+00	0	32	0	188743680	52	5613
2026-01-26 00:55:15.83	175.30	11.08	-39.0	-39.9	23.0	0.00e+00	67	33	0	196083712	52	5674
2026-01-26 00:55:19.87	175.46	11.44	-39.0	-39.9	22.6	0.00e+00	92	32	0	203423744	50	6371
2026-01-26 00:55:23.90	175.63	11.81	-39.2	-40.2	22.4	0.00e+00	0	32	0	210763776	50	6555
2026-01-26 00:55:27.94	175.80	12.18	-38.4	-39.3	23.2	0.00e+00	92	32	0	218103808	50	5964
2026-01-26 00:55:31.98	175.98	12.56	-38.6	-39.5	23.2	0.00e+00	92	33	0	226492416	50	6102
2026-01-26 00:55:36.01	176.16	12.94	-38.0	-38.9	23.4	0.00e+00	92	32	0	233832448	50	5656
2026-01-26 00:55:40.05	176.35	13.33	-38.2	-39.0	23.6	0.00e+00	0	32	0	241172480	50	5740
2026-01-26 00:55:44.09	176.54	13.73	-38.2	-39.1	23.5	0.00e+00	92	32	0	248512512	50	5800
2026-01-26 00:55:48.13	176.73	14.13	-38.2	-39.1	23.4	0.00e+00	92	32	0	256901120	50	5810
2026-01-26 00:55:52.17	176.93	14.54	-38.6	-39.5	23.4	0.00e+00	0	32	0	264241152	50	6053
2026-01-26 00:55:56.21	177.14	14.96	-38.3	-39.2	23.3	0.00e+00	0	32	0	271581184	50	5845
2026-01-26 00:56:00.24	177.35	15.38	-38.3	-39.2	23.3	0.00e+00	92	32	0	278921216	50	5892
2026-01-26 00:56:04.28	177.56	15.81	-38.2	-39.2	23.2	0.00e+00	92	32	0	286261248	50	5837
2026-01-26 00:56:08.32	177.79	16.25	-38.6	-39.5	23.1	0.00e+00	0	32	0	294649856	50	6062
2026-01-26 00:56:12.35	178.01	16.69	-38.8	-39.8	22.9	0.00e+00	47	32	0	301989888	50	6296
2026-01-26 00:56:16.39	178.25	17.14	-38.9	-39.8	22.8	0.00e+00	92	32	0	309329920	50	6316
2026-01-26 00:56:20.43	178.49	17.61	-38.9	-39.9	22.7	0.00e+00	92	32	0	316669952	50	6333
2026-01-26 00:56:24.47	178.74	18.08	-38.8	-39.7	23.2	0.00e+00	0	32	0	324009984	50	6245
2026-01-26 00:56:28.51	178.99	18.55	-38.7	-39.6	23.0	0.00e+00	91	32	0	332398592	50	6131
2026-01-26 00:56:32.54	179.26	19.04	-39.3	-40.2	22.7	0.00e+00	92	32	0	339738624	50	6612
2026-01-26 00:56:36.58	179.53	19.54	-40.0	-41.0	22.5	0.00e+00	0	32	0	347078656	52	6439
2026-01-26 00:56:40.62	179.81	20.04	-39.6	-40.5	23.1	0.00e+00	0	32	0	354418688	52	6052
2026-01-26 00:56:44.65	180.10	20.56	-39.7	-40.6	23.0	0.00e+00	92	32	0	362807296	52	6153
2026-01-26 00:56:48.69	180.40	21.08	-39.6	-40.6	22.5	0.00e+00	92	32	0	370147328	52	6161
2026-01-26 00:56:52.72	180.71	21.62	-39.6	-40.7	22.5	0.00e+00	0	32	0	377487360	52	6201
2026-01-26 00:56:56.76	181.03	22.16	-39.0	-39.9	23.2	0.00e+00	0	32	0	384827392	52	5687
2026-01-26 00:57:00.80	181.36	22.72	-38.7	-39.6	23.7	0.00e+00	90	32	0	392167424	50	6115
2026-01-26 00:57:04.84	181.70	23.29	-37.6	-38.4	24.1	0.00e+00	92	32	0	400556032	48	6015
2026-01-26 00:57:08.88	182.05	23.87	-36.9	-37.7	24.6	0.00e+00	0	32	0	407896064	46	6193
2026-01-26 00:57:12.91	182.42	24.46	-37.1	-37.8	24.7	0.00e+00	4	32	0	415236096	46	6294
2026-01-26 00:57:16.95	182.80	25.07	-36.8	-37.5	24.8	0.00e+00	70	32	0	422576128	46	6089
2026-01-26 00:57:20.99	183.19	25.69	-37.1	-37.9	24.8	0.00e+00	0	32	0	430964736	46	6355
2026-01-26 00:57:25.03	183.60	26.32	-37.1	-38.0	24.5	0.00e+00	0	32	0	438304768	46	6397
2026-01-26 00:57:29.06	184.03	26.97	-38.0	-38.8	24.1	0.00e+00	92	32	0	445644800	48	6295
2026-01-26 00:57:33.10	184.47	27.62	-37.3	-38.1	24.4	0.00e+00	75	32	0	452984832	48	5815
2026-01-26 00:57:37.14	184.93	28.30	-37.2	-38.0	24.4	0.00e+00	0	32	0	460324864	48	5720
2026-01-26 00:57:41.18	185.41	28.99	-37.7	-38.5	24.2	0.00e+00	0	32	0	468713472	48	6079
2026-01-26 00:57:45.22	185.91	29.69	-38.7	-39.6	23.4	0.00e+00	92	32	0	476053504	48	6874
2026-01-26 00:57:49.25	186.44	30.41	-39.3	-40.2	23.0	0.00e+00	92	32	0	483393536	50	6601
2026-01-26 00:57:53.29	186.98	31.14	-40.5	-41.5	22.2	0.00e+00	0	32	0	490733568	52	6835
2026-01-26 00:57:57.33	187.55	31.90	-42.1	-43.5	20.1	0.00e+00	21	32	0	499122176	56	6772
2026-01-26 00:58:01.37	188.15	32.66	-42.2	-43.6	20.2	0.00e+00	92	32	0	506462208	58	6138
2026-01-26 00:58:05.41	188.78	33.45	-40.9	-42.0	21.5	0.00e+00	92	32	0	513802240	56	5761
2026-01-26 00:58:09.44	189.43	34.24	-39.9	-40.9	22.2	0.00e+00	0	32	0	521142272	54	5644
2026-01-26 00:58:13.48	190.12	35.06	-39.8	-40.8	22.4	0.00e+00	92	32	0	528482304	52	6266
2026-01-26 00:58:17.52	190.84	35.90	-41.0	-42.2	21.6	0.00e+00	92	32	0	536870912	54	6540
2026-01-26 00:58:21.56	191.60	36.75	-40.9	-42.0	21.7	0.00e+00	33	32	0	544210944	54	6416
2026-01-26 00:58:25.59	192.40	37.61	-41.0	-42.2	21.5	0.00e+00	0	32	0	551550976	54	6569
2026-01-26 00:58:29.63	193.25	38.50	-41.5	-42.7	21.1	0.00e+00	90	32	0	558891008	56	6239
2026-01-26 00:58:33.66	194.14	39.40	-40.8	-41.9	21.6	0.00e+00	91	32	0	567279616	54	6339
2026-01-26 00:58:37.69	195.07	40.31	-41.2	-42.4	21.2	0.00e+00	0	32	0	574619648	54	6719
2026-01-26 00:58:41.73	196.07	41.24	-39.8	-40.8	22.7	0.00e+00	0	32	0	581959680	54	5627
2026-01-26 00:58:45.77	197.12	42.19	-39.4	-40.4	22.7	0.00e+00	92	32	0	589299712	52	5986
2026-01-26 00:58:49.81	198.24	43.15	-40.4	-41.5	21.7	0.00e+00	92	32	0	596639744	54	6103
2026-01-26 00:58:53.85	199.42	44.12	-39.8	-40.7	22.5	0.00e+00	0	32	0	605028352	52	6241
2026-01-26 00:58:57.89	200.68	45.10	-40.3	-41.4	21.9	0.00e+00	90	32	0	612368384	52	6740
2026-01-26 00:59:01.93	202.02	46.09	-39.3	-40.3	22.6	0.00e+00	92	32	0	619708416	52	5923
2026-01-26 00:59:05.97	203.44	47.09	-40.1	-41.1	21.9	0.00e+00	92	32	0	627048448	52	6513
2026-01-26 00:59:10.00	204.95	48.09	-41.4	-42.6	21.8	0.00e+00	0	32	0	635437056	54	6873
2026-01-26 00:59:14.04	206.57	49.09	-39.0	-39.9	23.0	0.00e+00	92	32	0	642777088	50	6375
2026-01-26 00:59:18.08	208.29	50.09	-43.0	-44.5	19.5	0.00e+00	90	32	0	650117120	58	6821
2026-01-26 00:59:22.12	210.13	51.08	-40.1	-41.1	22.8	0.00e+00	0	32	0	657457152	52	6465
2026-01-26 00:59:26.16	212.09	52.06	-39.4	-40.3	23.3	0.00e+00	0	32	0	664797184	52	5943
2026-01-26 00:59:30.20	214.18	53.02	-39.9	-40.9	22.5	0.00e+00	92	32	0	673185792	54	5694
2026-01-26 00:59:34.24	216.42	53.96	-40.0	-41.0	22.7	0.00e+00	90	32	0	680525824	52	6429
2026-01-26 00:59:38.27	218.79	54.87	-38.7	-39.6	23.6	0.00e+00	0	32	0	687865856	50	6110
2026-01-26 00:59:42.31	221.32	55.75	-40.3	-41.3	23.0	0.00e+00	23	32	0	695205888	52	6632
2026-01-26 00:59:46.34	224.00	56.58	-38.9	-39.8	23.5	0.00e+00	92	32	0	703594496	52	5611
2026-01-26 00:59:50.38	226.85	57.36	-38.3	-39.2	23.5	0.00e+00	92	32	0	710934528	50	5895
2026-01-26 00:59:54.42	229.86	58.08	-37.2	-38.0	24.5	0.00e+00	0	32	0	718274560	48	5699
2026-01-26 00:59:58.45	233.02	58.72	-38.8	-39.7	22.9	0.00e+00	92	32	0	725614592	50	6237
2026-01-26 01:00:02.49	236.33	59.30	-37.6	-38.4	24.2	0.00e+00	92	32	0	732954624	48	6017
2026-01-26 01:00:06.53	239.78	59.78	-38.1	-39.0	23.8	0.00e+00	0	32	0	741343232	48	6403
2026-01-26 01:00:10.57	243.35	60.18	-40.1	-41.2	22.2	0.00e+00	0	32	0	748683264	52	6560
2026-01-26 01:00:14.61	247.01	60.47	-40.5	-41.6	22.0	0.00e+00	92	32	0	756023296	52	6878
2026-01-26 01:00:18.64	250.74	60.66	-39.8	-40.8	22.8	0.00e+00	92	32	0	763363328	52	6274
2026-01-26 01:00:22.68	254.51	60.75	-39.9	-40.8	22.7	0.00e+00	0	32	0	770703360	54	5613
2026-01-26 01:00:26.71	258.29	60.72	-38.4	-39.2	24.0	0.00e+00	9	32	0	779091968	50	5858
2026-01-26 01:00:30.76	262.06	60.59	-39.1	-40.0	24.1	0.00e+00	45	32	0	786432000	52	5731
2026-01-26 01:00:34.79	265.75	60.35	-39.7	-40.6	23.7	0.00e+00	91	32	0	793772032	50	6904
2026-01-26 01:00:38.83	269.37	60.01	-41.8	-43.0	21.9	0.00e+00	0	32	0	801112064	56	6429
2026-01-26 01:00:42.87	272.89	59.57	-42.6	-43.8	21.1	0.00e+00	38	32	0	809500672	56	7058
2026-01-26 01:00:46.91	276.27	59.05	-43.7	-45.5	19.1	0.00e+00	78	32	0	816840704	60	6776
2026-01-26 01:00:50.95	279.52	58.44	-41.7	-42.9	21.7	0.00e+00	0	32	0	824180736	56	6341
2026-01-26 01:00:54.99	282.61	57.76	-39.4	-40.3	23.7	0.00e+00	0	32	0	831520768	54	5255
2026-01-26 01:00:59.02	285.53	57.02	-37.5	-38.3	24.7	0.00e+00	91	32	0	838860800	48	5936
2026-01-26 01:01:03.06	288.30	56.21	-37.0	-37.7	25.2	0.00e+00	86	32	0	847249408	46	6238
2026-01-26 01:01:07.10	290.92	55.36	-37.5	-38.3	24.6	0.00e+00	33	32	0	854589440	46	6662
2026-01-26 01:01:11.14	293.37	54.48	-37.0	-37.8	24.9	0.00e+00	0	32	0	861929472	46	6273
2026-01-26 01:01:15.17	295.67	53.56	-39.4	-40.2	23.9	0.00e+00	50	32	0	869269504	50	6604
2026-01-26 01:01:19.21	297.84	52.61	-37.9	-38.7	24.8	0.00e+00	92	32	0	877658112	48	6191
2026-01-26 01:01:23.25	299.87	51.64	-39.2	-40.1	24.0	0.00e+00	0	32	0	884998144	50	6483
2026-01-26 01:01:27.29	301.77	50.66	-42.7	-44.0	21.7	0.00e+00	19	32	0	892338176	56	7197
2026-01-26 01:01:31.33	303.55	49.67	-42.2	-43.4	21.1	0.00e+00	39	32	0	899678208	56	6700
2026-01-26 01:01:35.36	305.22	48.67	-44.9	-46.7	18.9	0.00e+00	0	32	0	907018240	60	7797
2026-01-26 01:01:39.40	306.79	47.67	-43.5	-44.9	19.9	0.00e+00	32	32	0	915406848	58	7149
2026-01-26 01:01:43.44	308.26	46.68	-43.5	-44.8	20.6	0.00e+00	90	32	0	922746880	58	7038
2026-01-26 01:01:47.48	309.64	45.69	-39.9	-40.7	23.6	0.00e+00	92	32	0	930086912	52	6222
2026-01-26 01:01:51.52	310.94	44.71	-40.3	-41.2	23.0	0.00e+00	0	32	0	937426944	52	6615
2026-01-26 01:01:55.56	312.16	43.73	-41.2	-42.2	23.0	0.00e+00	0	32	0	945815552	56	5830
2026-01-26 01:01:59.60	313.31	42.77	-41.6	-42.6	22.4	0.00e+00	92	32	0	953155584	56	6151
2026-01-26 01:02:03.64	314.40	41.82	-39.4	-40.2	23.4	0.00e+00	92	32	0	960495616	52	5872
2026-01-26 01:02:07.67	315.42	40.89	-42.0	-43.1	21.2	0.00e+00	0	32	0	967835648	54	7325
2026-01-26 01:02:11.71	316.39	39.97	-40.4	-41.3	23.4	0.00e+00	30	32	0	975175680	54	5908
2026-01-26 01:02:15.75	317.30	39.06	-42.6	-43.8	21.1	0.00e+00	36	32	0	983564288	58	6249
2026-01-26 01:02:19.79	318.17	38.17	-41.0	-42.0	22.7	0.00e+00	0	32	0	990904320	56	5717
2026-01-26 01:02:23.82	318.99	37.30	-40.8	-41.7	22.9	0.00e+00	0	32	0	998244352	54	6174
2026-01-26 01:02:27.86	319.78	36.44	-40.9	-41.9	22.2	0.00e+00	36	32	0	1005584384	56	5687
2026-01-26 01:02:31.90	320.52	35.60	-39.2	-40.0	23.6	0.00e+00	90	32	0	1013972992	50	6461
2026-01-26 01:02:35.94	321.23	34.78	-42.9	-44.0	20.9	0.00e+00	0	32	0	1021313024	58	6452
2026-01-26 01:02:39.97	321.90	33.98	-43.6	-45.0	20.2	0.00e+00	0	32	0	1028653056	60	6401
2026-01-26 01:02:44.01	322.54	33.19	-40.3	-41.3	22.7	0.00e+00	92	32	0	1035993088	54	5905
2026-01-26 01:02:48.05	323.16	32.41	-41.3	-42.3	22.2	0.00e+00	92	32	0	1043333120	54	6685
2026-01-26 01:02:52.09	323.74	31.66	-40.8	-41.8	22.3	0.00e+00	0	32	0	1051721728	54	6308
2026-01-26 01:02:56.12	324.30	30.92	-41.7	-42.8	21.6	0.00e+00	0	32	0	1059061760	56	6267
2026-01-26 01:03:00.16	324.84	30.19	-42.8	-44.0	21.0	0.00e+00	41	32	0	1066401792	58	6442
2026-01-26 01:03:04.19	325.35	29.49	-40.2	-41.2	22.9	0.00e+00	0	32	0	1073741824	54	5843
2026-01-26 01:03:08.23	325.84	28.79	-39.5	-40.4	22.9	0.00e+00	0	32	0	1082130432	50	6755
2026-01-26 01:03:12.27	326.32	28.11	-40.5	-41.5	22.1	0.00e+00	39	32	0	1089470464	54	6085
2026-01-26 01:03:16.31	326.77	27.45	-42.3	-43.7	20.4	0.00e+00	39	32	0	1096810496	58	6178
2026-01-26 01:03:20.34	327.20	26.80	-41.5	-42.6	21.9	0.00e+00	0	32	0	1104150528	56	6154
2026-01-26 01:03:24.38	327.62	26.16	-40.9	-41.9	22.3	0.00e+00	0	32	0	1111490560	54	6351
2026-01-26 01:03:28.42	328.03	25.54	-42.4	-43.6	21.2	0.00e+00	92	32	0	1119879168	56	6862
2026-01-26 01:03:32.45	328.42	24.93	-39.9	-40.9	22.5	0.00e+00	92	32	0	1127219200	52	6352
2026-01-26 01:03:36.50	328.79	24.33	-39.5	-40.5	23.1	0.00e+00	0	32	0	1134559232	52	6048
2026-01-26 01:03:40.53	329.16	23.75	-39.2	-40.0	23.7	0.00e+00	0	32	0	1141899264	52	5757
2026-01-26 01:03:44.57	329.51	23.17	-38.7	-39.5	23.7	0.00e+00	73	32	0	1149239296	50	6073
2026-01-26 01:03:48.61	329.84	22.61	-39.5	-40.4	23.5	0.00e+00	57	32	0	1157627904	52	5973
2026-01-26 01:03:52.64	330.17	22.06	-40.7	-41.7	22.5	0.00e+00	0	32	0	1164967936	54	6187
2026-01-26 01:03:56.68	330.49	21.52	-41.0	-42.1	21.6	0.00e+00	0	32	0	1172307968	54	6519
2026-01-26 01:04:00.71	330.79	20.99	-40.4	-41.4	22.4	0.00e+00	88	32	0	1179648000	54	6030
2026-01-26 01:04:04.75	331.09	20.47	-38.7	-39.5	23.6	0.00e+00	0	32	0	1188036608	52	5435
2026-01-26 01:04:08.78	331.37	19.97	-36.8	-37.6	24.8	0.00e+00	0	32	0	1195376640	46	6122
2026-01-26 01:04:12.83	331.65	19.47	-36.6	-37.4	24.9	0.00e+00	33	32	0	1202716672	46	6000
2026-01-26 01:04:16.86	331.92	18.98	-37.8	-38.6	24.2	0.00e+00	92	32	0	1210056704	48	6136
2026-01-26 01:04:20.90	332.18	18.50	-38.6	-39.5	23.5	0.00e+00	0	32	0	1217396736	50	6062
2026-01-26 01:04:24.94	332.44	18.02	-39.9	-41.0	22.7	0.00e+00	0	32	0	1225785344	52	6391
2026-01-26 01:04:28.98	332.69	17.56	-40.3	-41.4	21.9	0.00e+00	90	32	0	1233125376	52	6703
2026-01-26 01:04:33.01	332.93	17.10	-39.5	-40.5	22.8	0.00e+00	0	32	0	1240465408	52	6044
2026-01-26 01:04:37.05	333.16	16.66	-39.4	-40.3	23.1	0.00e+00	0	32	0	1247805440	52	5928
2026-01-26 01:04:41.09	333.39	16.22	-39.8	-40.7	23.3	0.00e+00	0	32	0	1256194048	52	6184
2026-01-26 01:04:45.13	333.61	15.78	-39.4	-40.3	23.3	0.00e+00	78	32	0	1263534080	52	5900
2026-01-26 01:04:49.17	333.83	15.36	-38.9	-39.8	23.2	0.00e+00	0	32	0	1270874112	52	5605
2026-01-26 01:04:53.21	334.04	14.94	-39.1	-40.1	23.3	0.00e+00	0	32	0	1278214144	52	5782
2026-01-26 01:04:57.25	334.24	14.53	-38.8	-39.7	23.2	0.00e+00	77	32	0	1285554176	50	6206
2026-01-26 01:05:01.28	334.44	14.12	-39.4	-40.4	22.4	0.00e+00	0	32	0	1293942784	50	6739
2026-01-26 01:05:05.32	334.64	13.72	-39.4	-40.3	22.9	0.00e+00	0	32	0	1301282816	52	5941
2026-01-26 01:05:09.36	334.83	13.33	-40.0	-41.1	22.2	0.00e+00	0	32	0	1308622848	52	6491
2026-01-26 01:05:13.40	335.02	12.95	-39.3	-40.3	22.9	0.00e+00	92	32	0	1315962880	52	5928
2026-01-26 01:05:17.43	335.20	12.57	-39.6	-40.6	22.6	0.00e+00	0	32	0	1324351488	52	6123
2026-01-26 01:05:21.47	335.37	12.19	-39.1	-40.0	22.5	0.00e+00	0	32	0	1331691520	52	5751
2026-01-26 01:05:25.51	335.55	11.82	-38.6	-39.5	22.9	0.00e+00	0	32	0	1339031552	50	6087
2026-01-26 01:05:29.55	335.72	11.46	-39.5	-40.5	22.5	0.00e+00	55	32	0	1346371584	50	6797
2026-01-26 01:05:33.59	335.88	11.10	-39.1	-40.1	22.6	0.00e+00	0	32	0	1353711616	52	5792
2026-01-26 01:05:37.63	336.05	10.74	-39.4	-40.5	22.4	0.00e+00	0	32	0	1362100224	52	6043
2026-01-26 01:05:41.67	336.21	10.39	-39.8	-40.8	22.0	0.00e+00	34	32	0	1369440256	52	6316
2026-01-26 01:05:45.70	336.36	10.05	-40.3	-41.5	21.5	0.00e+00	88	32	0	1376780288	52	6780
2026-01-26 01:05:49.75	336.52	9.71	-40.5	-41.7	21.4	0.00e+00	0	32	0	1384120320	52	6963
2026-01-26 01:05:53.78	336.66	9.38	-40.9	-42.1	21.2	0.00e+00	0	32	0	1392508928	54	6529
2026-01-26 01:05:57.82	336.81	9.04	-41.0	-42.2	21.0	0.00e+00	24	32	0	1399848960	54	6569
2026-01-26 01:06:01.86	336.96	8.72	-40.9	-42.1	21.0	0.00e+00	0	32	0	1407188992	54	6535
2026-01-26 01:06:05.90	337.10	8.40	-41.0	-42.2	20.9	0.00e+00	0	32	0	1414529024	54	6572
2026-01-26 01:06:09.94	337.23	8.08	-41.4	-42.8	20.6	0.00e+00	0	32	0	1421869056	56	6250
2026-01-26 01:06:13.97	337.37	7.76	-41.2	-42.5	20.6	0.00e+00	48	32	0	1430257664	56	6067
2026-01-26 01:06:18.01	337.50	7.45	-41.9	-43.3	20.0	0.00e+00	0	32	0	1437597696	56	6653
2026-01-26 01:06:22.05	337.63	7.14	-41.9	-43.3	19.9	0.00e+00	0	32	0	1444937728	56	6688
2026-01-26 01:06:26.09	337.76	6.84	-41.7	-43.1	19.9	0.00e+00	32	32	0	1452277760	56	6528
2026-01-26 01:06:30.12	337.89	6.54	-41.3	-42.7	20.2	0.00e+00	92	32	0	1459617792	56	6201
2026-01-26 01:06:34.16	338.01	6.24	-41.7	-43.1	19.9	0.00e+00	0	32	0	1468006400	56	6475
2026-01-26 01:06:38.19	338.14	5.95	-41.4	-42.8	20.0	0.00e+00	0	32	0	1475346432	56	6278
2026-01-26 01:06:42.24	338.26	5.66	-42.0	-43.5	19.0	0.00e+00	57	32	0	1482686464	56	6790
2026-01-26 01:06:46.28	338.37	5.37	-42.3	-44.0	18.5	0.00e+00	0	32	0	1490026496	56	7204
2026-01-26 01:06:50.32	338.49	5.09	-43.2	-45.5	16.1	0.00e+00	0	32	0	1498415104	58	7668
2026-01-26 01:06:54.35	338.60	4.81	-43.7	-47.1	13.5	2.20e-06	0	32	0	1505755136	60	8178
2026-01-26 01:06:58.39	338.72	4.53	-44.8	-50.4	9.2	1.06e-02	85	32	0	1513095168	60	12003
2026-01-26 01:07:02.43	338.83	4.25	-44.8	-53.2	5.3	3.64e-01	0	32	0	1520435200	60	16515
2026-01-26 01:07:06.47	338.94	3.98	-44.6	-56.8	3.9	1.48e+00	0	32	104	1525678080	60	25141
2026-01-26 01:07:10.51	339.04	3.71	-44.6	-58.9	3.6	1.51e+00	0	32	104	1525678080	60	31773
2026-01-26 01:07:14.55	339.15	3.44	-45.0	-59.7	3.6	1.51e+00	0	32	104	1525678080	60	34888
2026-01-26 01:07:18.58	339.25	3.18	-44.5	-59.7	3.6	1.51e+00	0	32	104	1525678080	60	34868
2026-01-26 01:07:22.62	339.36	2.91	-45.1	-60.2	3.6	1.51e+00	0	32	104	1525678080	60	37047
2026-01-26 01:07:26.66	339.46	2.65	-50.1	-65.3	3.6	1.51e+00	0	32	104	1525678080	60	66201
2026-01-26 01:07:30.69	339.56	2.39	-50.1	-65.3	3.6	1.51e+00	0	32	104	1525678080	60	66886
2026-01-26 01:07:34.73	339.65	2.14	-50.4	-65.6	3.6	1.51e+00	0	32	104	1525678080	60	68845
2026-01-26 01:07:38.78	339.75	1.88	-50.3	-65.8	3.6	1.51e+00	0	32	104	1525678080	60	70554
2026-01-26 01:07:42.81	339.85	1.63	-50.1	-65.5	3.5	1.51e+00	0	32	104	1525678080	60	68021
2026-01-26 01:07:46.85	339.94	1.38	-50.7	-65.9	3.6	1.51e+00	0	32	104	1525678080	60	71487
2026-01-26 01:07:50.89	340.04	1.14	-50.9	-66.1	3.6	1.51e+00	0	32	104	1525678080	60	72706
2026-01-26 01:07:54.93	340.13	0.89	-51.2	-66.4	3.6	1.51e+00	0	32	104	1525678080	60	75642
2026-01-26 01:07:58.97	340.22	0.65	-51.4	-66.6	3.6	1.51e+00	0	32	104	1525678080	60	76891
2026-01-26 01:08:03.00	340.31	0.41	-51.2	-66.3	3.6	1.51e+00	0	32	104	1525678080	60	74965
2026-01-26 01:08:07.04	340.40	0.17	-51.7	-66.9	3.6	1.51e+00	0	32	104	1525678080	60	79759
2026-01-26 01:08:11.08	340.48	-0.07	-51.7	-66.9	3.6	1.51e+00	0	32	104	1525678080	60	80187

#Closed at: 2026-01-26 01:08:12
#Recorded file [1525 MB]: D:/lorett/data/35029_260126_125242.dat