passes_logs/2026/01/26/R4.6S_Anadyr/R4.6S_Anadyr__20260126_025624_NOAA_20_JPSS-1_rec.log

#Pass ID: 20260126_025624_NOAA 20 (JPSS-1)
#Satellite: NOAA 20 (JPSS-1)
#Configuration: NOAA 20
#almurnet v.1.7.20251203
#Start time: 2026-01-26 02:56:27

#Version: 2.2.20231116
#Station: R4.6S_Anadyr
#Location: 177.4865 lon 64.73178 lat
#TLE: 1 43013U 17073A   26025.47986292  .00000161  00000+0  97249-4 0  9993
#TLE: 2 43013  98.7646 326.3091 0001052  24.2709 335.8516 14.19540188424225

#Time	Az	El	Level	Level2	SNR	BER	BlckErr	Temp	State	Recorded	gain1	gain2
2026-01-26 02:56:27.18	228.72	0.11	-51.9	-69.6	3.5	3.02e+01	0	27	0	0	60	116857
2026-01-26 02:56:30.20	228.97	0.25	-51.4	-66.6	3.6	1.51e+00	0	28	104	0	60	77722
2026-01-26 02:56:33.23	229.23	0.39	-50.3	-65.4	3.6	1.51e+00	0	28	104	0	60	67518
2026-01-26 02:56:36.26	229.48	0.53	-50.6	-65.8	3.6	1.51e+00	0	28	104	0	60	70642
2026-01-26 02:56:39.29	229.75	0.67	-50.3	-65.7	3.6	1.51e+00	0	28	104	0	60	69490
2026-01-26 02:56:42.32	230.01	0.81	-51.5	-66.7	3.6	1.51e+00	0	28	104	0	60	78179
2026-01-26 02:56:45.35	230.27	0.95	-50.3	-65.5	3.6	1.51e+00	0	28	104	0	60	68105
2026-01-26 02:56:48.38	230.54	1.09	-49.4	-64.6	3.6	1.51e+00	0	28	104	0	60	61502
2026-01-26 02:56:51.41	230.81	1.23	-48.6	-63.8	3.6	1.51e+00	0	29	104	0	60	56009
2026-01-26 02:56:54.44	231.08	1.37	-47.4	-62.6	3.6	1.51e+00	0	28	104	0	60	48487
2026-01-26 02:56:57.47	231.36	1.51	-47.4	-62.6	3.6	1.51e+00	0	29	104	0	60	48735
2026-01-26 02:57:00.50	231.63	1.65	-47.1	-62.2	3.6	1.51e+00	0	29	104	0	60	46834
2026-01-26 02:57:03.53	231.91	1.79	-47.1	-62.2	3.6	1.51e+00	0	29	104	0	60	46683
2026-01-26 02:57:06.56	232.20	1.94	-47.2	-62.3	3.6	1.51e+00	0	29	104	0	60	47180
2026-01-26 02:57:09.59	232.48	2.08	-47.3	-62.4	3.6	1.51e+00	0	29	104	0	60	47874
2026-01-26 02:57:12.62	232.77	2.22	-47.1	-62.3	3.6	1.51e+00	0	29	104	0	60	47000
2026-01-26 02:57:15.64	233.06	2.36	-47.3	-62.5	3.6	1.51e+00	0	29	104	0	60	48033
2026-01-26 02:57:18.68	233.35	2.50	-47.8	-63.1	3.6	1.51e+00	0	29	104	0	60	51537
2026-01-26 02:57:21.70	233.65	2.65	-47.7	-62.8	3.6	1.51e+00	0	29	104	0	60	50173
2026-01-26 02:57:24.74	233.95	2.79	-47.3	-62.5	3.6	1.51e+00	0	29	104	0	60	48110
2026-01-26 02:57:27.77	234.25	2.93	-47.5	-62.6	3.6	1.51e+00	0	29	104	0	60	48984
2026-01-26 02:57:30.79	234.55	3.07	-48.3	-63.3	3.6	1.51e+00	0	29	104	0	60	53123
2026-01-26 02:57:33.82	234.86	3.22	-47.4	-62.5	3.6	1.51e+00	0	29	104	0	60	48158
2026-01-26 02:57:36.85	235.17	3.36	-47.5	-62.7	3.6	1.51e+00	0	29	104	0	60	49213
2026-01-26 02:57:39.88	235.48	3.50	-47.8	-63.0	3.6	1.51e+00	0	29	104	0	60	50894
2026-01-26 02:57:42.92	235.80	3.65	-48.0	-62.8	3.6	1.51e+00	0	29	104	0	60	49788
2026-01-26 02:57:45.95	236.11	3.79	-47.8	-62.8	3.6	1.51e+00	0	29	104	0	60	50040
2026-01-26 02:57:48.98	236.44	3.93	-47.7	-62.9	3.6	1.51e+00	0	29	104	0	60	50311
2026-01-26 02:57:52.00	236.76	4.08	-47.9	-62.6	3.6	1.51e+00	0	29	104	0	60	48660
2026-01-26 02:57:55.03	237.09	4.22	-47.5	-62.3	3.6	1.51e+00	0	29	104	0	60	47251
2026-01-26 02:57:58.06	237.42	4.36	-47.6	-62.5	3.6	1.51e+00	0	29	104	0	60	47976
2026-01-26 02:58:01.08	237.75	4.50	-48.5	-60.5	4.0	1.46e+00	0	29	104	0	60	38231
2026-01-26 02:58:04.11	238.09	4.65	-48.2	-59.6	4.0	1.36e+00	92	29	0	0	60	34577
2026-01-26 02:58:07.14	238.43	4.79	-48.4	-58.5	4.2	1.30e+00	91	29	0	3145728	60	30473
2026-01-26 02:58:10.17	238.77	4.93	-48.1	-57.1	4.7	8.64e-01	93	29	0	9437184	60	25746
2026-01-26 02:58:13.20	239.12	5.08	-47.8	-56.9	4.6	9.37e-01	92	29	0	14680064	60	25190
2026-01-26 02:58:16.22	239.46	5.22	-47.9	-56.2	5.5	3.21e-01	92	29	0	19922944	60	23275
2026-01-26 02:58:19.25	239.82	5.36	-47.3	-54.3	7.1	1.74e-01	6	29	0	26214400	60	18649
2026-01-26 02:58:22.28	240.17	5.50	-47.5	-53.4	9.0	1.08e-01	92	29	0	31457280	60	16856
2026-01-26 02:58:25.31	240.53	5.65	-47.0	-52.3	10.2	1.26e-02	92	29	0	37748736	60	14817
2026-01-26 02:58:28.34	240.90	5.79	-46.7	-51.8	10.0	4.96e-03	9	29	0	42991616	60	14056
2026-01-26 02:58:31.36	241.26	5.93	-45.5	-49.1	13.0	9.38e-05	92	29	0	48234496	60	10362
2026-01-26 02:58:34.39	241.63	6.07	-45.6	-49.1	13.3	2.13e-05	92	29	0	54525952	60	10255
2026-01-26 02:58:37.42	242.01	6.21	-45.4	-48.5	14.4	7.00e-07	77	29	0	59768832	60	9607
2026-01-26 02:58:40.45	242.38	6.35	-44.6	-47.3	15.3	0.00e+00	90	29	0	66060288	60	8378
2026-01-26 02:58:43.48	242.76	6.50	-44.5	-47.1	15.5	0.00e+00	91	29	0	71303168	60	8179
2026-01-26 02:58:46.51	243.15	6.64	-44.3	-46.8	16.0	0.00e+00	92	29	0	77594624	60	7905
2026-01-26 02:58:49.54	243.53	6.78	-43.8	-45.9	16.9	0.00e+00	92	29	0	82837504	60	7107
2026-01-26 02:58:52.56	243.92	6.92	-43.4	-45.2	17.8	0.00e+00	90	29	0	88080384	60	6614
2026-01-26 02:58:55.59	244.32	7.06	-42.7	-44.4	18.6	0.00e+00	92	29	0	94371840	60	5966
2026-01-26 02:58:58.62	244.72	7.20	-43.0	-44.7	18.5	0.00e+00	86	29	0	99614720	58	6952
2026-01-26 02:59:01.65	245.12	7.33	-41.9	-43.3	19.6	0.00e+00	92	29	0	105906176	58	5932
2026-01-26 02:59:04.68	245.52	7.47	-41.7	-43.0	20.1	0.00e+00	92	29	0	111149056	56	6464
2026-01-26 02:59:07.71	245.93	7.61	-41.5	-42.7	21.0	0.00e+00	92	29	0	116391936	56	6207
2026-01-26 02:59:10.74	246.35	7.75	-41.3	-42.5	20.7	0.00e+00	92	29	0	122683392	56	6075
2026-01-26 02:59:13.77	246.76	7.89	-41.3	-42.5	20.8	0.00e+00	92	29	0	127926272	56	6084
2026-01-26 02:59:16.80	247.18	8.02	-41.3	-42.4	20.8	0.00e+00	92	29	0	134217728	56	6022
2026-01-26 02:59:19.82	247.61	8.16	-40.6	-41.7	22.0	0.00e+00	92	29	0	139460608	54	6228
2026-01-26 02:59:22.85	248.04	8.29	-40.6	-41.7	21.5	0.00e+00	92	29	0	145752064	54	6238
2026-01-26 02:59:25.88	248.47	8.43	-40.3	-41.4	22.0	0.00e+00	90	29	0	150994944	54	5989
2026-01-26 02:59:28.90	248.90	8.56	-40.7	-41.8	21.6	0.00e+00	7	29	0	156237824	54	6306
2026-01-26 02:59:31.93	249.34	8.69	-40.5	-41.5	21.8	0.00e+00	92	29	0	162529280	54	6095
2026-01-26 02:59:34.96	249.78	8.83	-40.3	-41.3	21.9	0.00e+00	92	29	0	167772160	54	5923
2026-01-26 02:59:37.99	250.23	8.96	-39.7	-40.7	22.4	0.00e+00	0	29	0	174063616	52	6230
2026-01-26 02:59:41.02	250.68	9.09	-39.8	-40.8	22.3	0.00e+00	92	29	0	179306496	52	6288
2026-01-26 02:59:44.05	251.14	9.22	-39.6	-40.6	22.4	0.00e+00	92	29	0	184549376	52	6137
2026-01-26 02:59:47.07	251.60	9.35	-39.3	-40.3	22.5	0.00e+00	92	29	0	190840832	52	5920
2026-01-26 02:59:50.10	252.06	9.47	-39.6	-40.7	22.4	0.00e+00	92	29	0	196083712	52	6185
2026-01-26 02:59:53.13	252.53	9.60	-39.7	-40.7	22.4	0.00e+00	92	29	0	202375168	52	6199
2026-01-26 02:59:56.16	253.00	9.73	-40.0	-41.1	22.1	0.00e+00	92	29	0	207618048	52	6499
2026-01-26 02:59:59.19	253.47	9.85	-40.6	-41.7	22.0	0.00e+00	74	29	0	213909504	54	6193
2026-01-26 03:00:02.21	253.95	9.98	-40.5	-41.6	22.1	0.00e+00	92	29	0	219152384	54	6106
2026-01-26 03:00:05.24	254.43	10.10	-40.7	-41.7	22.0	0.00e+00	92	29	0	224395264	54	6234
2026-01-26 03:00:08.27	254.92	10.22	-40.9	-42.0	21.8	0.00e+00	74	29	0	230686720	54	6427
2026-01-26 03:00:11.30	255.41	10.34	-40.8	-41.9	21.7	0.00e+00	92	29	0	235929600	54	6325
2026-01-26 03:00:14.33	255.90	10.46	-40.4	-41.5	21.5	0.00e+00	92	29	0	242221056	54	6088
2026-01-26 03:00:17.36	256.40	10.58	-41.3	-42.6	20.8	0.00e+00	11	29	0	247463936	56	6115
2026-01-26 03:00:20.39	256.90	10.69	-42.9	-44.3	19.6	0.00e+00	90	29	0	252706816	56	7466
2026-01-26 03:00:23.42	257.41	10.81	-42.3	-43.6	20.5	0.00e+00	92	29	0	258998272	56	6902
2026-01-26 03:00:26.44	257.92	10.92	-41.6	-42.8	20.2	0.00e+00	90	29	0	264241152	56	6286
2026-01-26 03:00:29.47	258.43	11.03	-42.0	-43.2	20.9	0.00e+00	92	29	0	270532608	56	6586
2026-01-26 03:00:32.50	258.95	11.14	-41.2	-42.3	21.4	0.00e+00	90	29	0	275775488	56	5950
2026-01-26 03:00:35.53	259.47	11.25	-41.6	-42.8	21.1	0.00e+00	92	29	0	281018368	56	6276
2026-01-26 03:00:38.56	259.99	11.36	-41.9	-43.0	21.7	0.00e+00	11	29	0	287309824	56	6430
2026-01-26 03:00:41.58	260.52	11.47	-41.8	-42.9	21.4	0.00e+00	90	29	0	292552704	56	6387
2026-01-26 03:00:44.61	261.05	11.57	-41.1	-42.2	22.0	0.00e+00	92	29	0	298844160	56	5844
2026-01-26 03:00:47.64	261.59	11.67	-41.1	-42.3	21.5	0.00e+00	84	29	0	304087040	56	5900
2026-01-26 03:00:50.67	262.13	11.77	-41.6	-42.8	21.2	0.00e+00	90	29	0	310378496	56	6281
2026-01-26 03:00:53.69	262.67	11.87	-41.7	-42.9	21.1	0.00e+00	92	29	0	315621376	56	6332
2026-01-26 03:00:56.72	263.21	11.97	-41.6	-42.8	21.0	0.00e+00	86	29	0	320864256	56	6298
2026-01-26 03:00:59.75	263.76	12.06	-41.9	-43.1	21.4	0.00e+00	6	29	0	327155712	56	6479
2026-01-26 03:01:02.77	264.31	12.15	-41.5	-42.7	21.4	0.00e+00	92	29	0	332398592	56	6196
2026-01-26 03:01:05.80	264.87	12.24	-41.8	-43.0	21.1	0.00e+00	92	29	0	338690048	58	5720
2026-01-26 03:01:08.83	265.43	12.33	-42.6	-43.7	20.7	0.00e+00	76	29	0	343932928	58	6243
2026-01-26 03:01:11.85	265.99	12.42	-41.8	-43.0	20.8	0.00e+00	92	29	0	349175808	56	6435
2026-01-26 03:01:14.88	266.56	12.50	-41.5	-42.7	21.4	0.00e+00	92	29	0	355467264	56	6187
2026-01-26 03:01:17.91	267.13	12.58	-41.6	-42.7	21.5	0.00e+00	0	29	0	360710144	56	6214
2026-01-26 03:01:20.94	267.70	12.66	-41.7	-42.8	22.0	0.00e+00	91	29	0	367001600	56	6248
2026-01-26 03:01:23.97	268.27	12.74	-40.9	-41.9	22.4	0.00e+00	90	29	0	372244480	54	6357
2026-01-26 03:01:27.00	268.85	12.81	-40.9	-42.0	21.3	0.00e+00	0	29	0	378535936	54	6410
2026-01-26 03:01:30.02	269.43	12.88	-41.0	-42.1	21.8	0.00e+00	92	29	0	383778816	54	6526
2026-01-26 03:01:33.05	270.01	12.95	-41.0	-42.1	22.3	0.00e+00	92	29	0	389021696	54	6484
2026-01-26 03:01:36.08	270.60	13.02	-41.4	-42.5	22.0	0.00e+00	90	29	0	395313152	54	6825
2026-01-26 03:01:39.11	271.18	13.08	-42.6	-43.8	21.4	0.00e+00	0	29	0	400556032	56	7075
2026-01-26 03:01:42.14	271.78	13.15	-41.1	-42.1	21.7	0.00e+00	92	29	0	406847488	54	6509
2026-01-26 03:01:45.16	272.37	13.21	-40.9	-42.0	21.5	0.00e+00	91	29	0	412090368	56	5719
2026-01-26 03:01:48.19	272.96	13.26	-42.7	-44.0	21.1	0.00e+00	12	29	0	417333248	56	7182
2026-01-26 03:01:51.21	273.56	13.32	-41.1	-42.2	21.5	0.00e+00	92	29	0	423624704	56	5865
2026-01-26 03:01:54.25	274.16	13.37	-41.4	-42.5	21.8	0.00e+00	92	29	0	428867584	56	6051
2026-01-26 03:01:57.27	274.76	13.42	-41.4	-42.5	21.6	0.00e+00	0	29	0	435159040	56	6093
2026-01-26 03:02:00.30	275.36	13.46	-41.6	-42.7	21.4	0.00e+00	90	29	0	440401920	56	6240
2026-01-26 03:02:03.33	275.96	13.50	-41.7	-42.8	21.2	0.00e+00	92	29	0	445644800	56	6303
2026-01-26 03:02:06.36	276.57	13.54	-41.4	-42.5	21.7	0.00e+00	0	29	0	451936256	56	6096
2026-01-26 03:02:09.38	277.18	13.58	-41.1	-42.1	21.7	0.00e+00	92	29	0	457179136	56	5820
2026-01-26 03:02:12.41	277.79	13.62	-40.8	-41.9	21.7	0.00e+00	92	29	0	463470592	54	6359
2026-01-26 03:02:15.44	278.40	13.65	-41.4	-42.6	21.0	0.00e+00	92	29	0	468713472	54	6868
2026-01-26 03:02:18.47	279.01	13.68	-42.0	-43.3	21.1	0.00e+00	0	29	0	475004928	56	6616
2026-01-26 03:02:21.50	279.62	13.70	-42.0	-43.2	21.5	0.00e+00	92	29	0	480247808	56	6544
2026-01-26 03:02:24.52	280.23	13.72	-41.3	-42.4	21.8	0.00e+00	92	29	0	485490688	56	6011
2026-01-26 03:02:27.55	280.85	13.74	-41.0	-42.1	21.8	0.00e+00	15	29	0	491782144	54	6476
2026-01-26 03:02:30.57	281.46	13.76	-41.4	-42.6	21.6	0.00e+00	92	29	0	497025024	54	6870
2026-01-26 03:02:33.60	282.07	13.77	-40.6	-41.7	21.7	0.00e+00	92	29	0	503316480	54	6179
2026-01-26 03:02:36.63	282.69	13.78	-41.5	-42.8	21.0	0.00e+00	0	29	0	508559360	54	7011
2026-01-26 03:02:39.66	283.31	13.79	-42.0	-43.3	21.7	0.00e+00	92	29	0	513802240	56	6632
2026-01-26 03:02:42.69	283.92	13.79	-40.5	-41.6	22.0	0.00e+00	92	29	0	520093696	54	6151
2026-01-26 03:02:45.71	284.54	13.79	-40.5	-41.5	22.2	0.00e+00	89	29	0	525336576	54	6080
2026-01-26 03:02:48.74	285.15	13.79	-40.4	-41.4	22.6	0.00e+00	92	29	0	531628032	54	5966
2026-01-26 03:02:51.77	285.77	13.79	-40.2	-41.2	22.7	0.00e+00	92	29	0	536870912	54	5871
2026-01-26 03:02:54.80	286.39	13.78	-39.6	-40.6	23.0	0.00e+00	92	29	0	543162368	52	6115
2026-01-26 03:02:57.83	287.00	13.77	-39.7	-40.6	23.2	0.00e+00	12	29	0	548405248	52	6126
2026-01-26 03:03:00.85	287.62	13.76	-39.5	-40.5	22.8	0.00e+00	92	29	0	553648128	52	6065
2026-01-26 03:03:03.88	288.23	13.74	-39.9	-40.8	23.1	0.00e+00	92	29	0	559939584	52	6301
2026-01-26 03:03:06.91	288.84	13.72	-39.7	-40.7	23.0	0.00e+00	3	29	0	565182464	52	6191
2026-01-26 03:03:09.94	289.46	13.70	-39.4	-40.3	23.3	0.00e+00	92	29	0	571473920	52	5944
2026-01-26 03:03:12.96	290.07	13.67	-39.9	-40.9	23.0	0.00e+00	92	29	0	576716800	52	6323
2026-01-26 03:03:15.99	290.68	13.64	-40.0	-40.9	23.2	0.00e+00	0	29	0	581959680	52	6384
2026-01-26 03:03:19.02	291.29	13.61	-40.3	-41.2	23.2	0.00e+00	92	29	0	588251136	52	6593
2026-01-26 03:03:22.05	291.89	13.57	-41.1	-42.2	22.1	0.00e+00	92	29	0	593494016	54	6554
2026-01-26 03:03:25.08	292.50	13.54	-40.1	-41.0	22.9	0.00e+00	92	29	0	599785472	54	5741
2026-01-26 03:03:28.11	293.11	13.50	-40.8	-41.8	22.8	0.00e+00	7	29	0	605028352	54	6251
2026-01-26 03:03:31.14	293.71	13.45	-41.1	-42.1	23.0	0.00e+00	92	29	0	611319808	54	6504
2026-01-26 03:03:34.17	294.31	13.41	-40.8	-41.8	22.8	0.00e+00	92	29	0	616562688	54	6291
2026-01-26 03:03:37.20	294.91	13.36	-40.0	-40.9	23.5	0.00e+00	65	29	0	621805568	54	5652
2026-01-26 03:03:40.23	295.51	13.31	-39.5	-40.4	23.5	0.00e+00	92	29	0	628097024	52	6032
2026-01-26 03:03:43.26	296.10	13.25	-40.4	-41.3	23.0	0.00e+00	92	29	0	633339904	52	6668
2026-01-26 03:03:46.29	296.70	13.20	-40.3	-41.3	22.6	0.00e+00	9	29	0	639631360	54	5926
2026-01-26 03:03:49.32	297.29	13.14	-40.4	-41.3	23.3	0.00e+00	92	29	0	644874240	54	5962
2026-01-26 03:03:52.35	297.88	13.07	-40.5	-41.5	23.0	0.00e+00	92	29	0	650117120	54	6051
2026-01-26 03:03:55.38	298.46	13.01	-40.8	-41.8	22.5	0.00e+00	9	29	0	656408576	54	6301
2026-01-26 03:03:58.40	299.04	12.94	-40.8	-41.8	22.5	0.00e+00	79	29	0	661651456	54	6287
2026-01-26 03:04:01.43	299.62	12.87	-40.9	-41.8	22.9	0.00e+00	92	29	0	667942912	54	6307
2026-01-26 03:04:04.45	300.20	12.80	-39.9	-40.8	23.4	0.00e+00	92	29	0	673185792	54	5600
2026-01-26 03:04:07.48	300.78	12.73	-40.8	-41.9	22.7	0.00e+00	66	29	0	678428672	54	6343
2026-01-26 03:04:10.51	301.35	12.65	-40.8	-41.8	22.9	0.00e+00	92	29	0	684720128	54	6284
2026-01-26 03:04:13.54	301.92	12.57	-40.5	-41.5	23.3	0.00e+00	92	29	0	689963008	54	6035
2026-01-26 03:04:16.57	302.48	12.49	-39.7	-40.6	23.9	0.00e+00	8	29	0	696254464	52	6149
2026-01-26 03:04:19.59	303.04	12.41	-40.6	-41.5	23.7	0.00e+00	16	29	0	701497344	52	6792
2026-01-26 03:04:22.62	303.60	12.32	-39.9	-40.8	23.2	0.00e+00	92	29	0	707788800	54	5587
2026-01-26 03:04:25.65	304.16	12.23	-40.9	-41.9	23.2	0.00e+00	8	29	0	713031680	54	6333
2026-01-26 03:04:28.68	304.72	12.14	-40.7	-41.6	23.2	0.00e+00	82	29	0	718274560	54	6143
2026-01-26 03:04:31.71	305.27	12.05	-39.7	-40.6	23.6	0.00e+00	92	29	0	724566016	54	5489
2026-01-26 03:04:34.73	305.81	11.96	-40.4	-41.4	22.9	0.00e+00	74	29	0	729808896	54	5985
2026-01-26 03:04:37.76	306.35	11.86	-40.8	-41.8	22.5	0.00e+00	10	29	0	736100352	54	6297
2026-01-26 03:04:40.79	306.89	11.76	-40.3	-41.2	23.3	0.00e+00	92	29	0	741343232	54	5882
2026-01-26 03:04:43.82	307.43	11.66	-40.4	-41.3	23.3	0.00e+00	91	29	0	746586112	54	5929
2026-01-26 03:04:46.85	307.96	11.56	-40.4	-41.4	22.9	0.00e+00	0	29	0	752877568	52	6735
2026-01-26 03:04:49.88	308.49	11.46	-40.8	-41.8	22.7	0.00e+00	92	29	0	758120448	54	6287
2026-01-26 03:04:52.91	309.02	11.35	-40.9	-41.9	22.7	0.00e+00	92	29	0	764411904	56	5685
2026-01-26 03:04:55.94	309.54	11.25	-42.1	-43.1	22.0	0.00e+00	0	29	0	769654784	56	6532
2026-01-26 03:04:58.97	310.06	11.14	-42.5	-43.8	21.1	0.00e+00	2	29	0	775946240	56	7018
2026-01-26 03:05:01.99	310.57	11.03	-42.0	-43.2	21.3	0.00e+00	92	29	0	781189120	56	6556
2026-01-26 03:05:05.02	311.08	10.92	-41.4	-42.5	21.8	0.00e+00	15	29	0	786432000	56	6068
2026-01-26 03:05:08.05	311.59	10.80	-41.7	-42.8	21.2	0.00e+00	0	29	0	792723456	56	6306
2026-01-26 03:05:11.08	312.09	10.69	-41.8	-43.0	20.9	0.00e+00	91	29	0	797966336	56	6423
2026-01-26 03:05:14.11	312.59	10.57	-42.5	-43.8	20.7	0.00e+00	92	29	0	804257792	58	6265
2026-01-26 03:05:17.13	313.08	10.46	-43.2	-44.5	20.4	0.00e+00	0	29	0	809500672	58	6820
2026-01-26 03:05:20.16	313.58	10.34	-44.1	-45.6	19.6	0.00e+00	55	29	0	814743552	60	6878
2026-01-26 03:05:23.19	314.06	10.22	-43.8	-45.3	19.3	0.00e+00	92	29	0	821035008	60	6672
2026-01-26 03:05:26.22	314.55	10.10	-42.9	-44.3	20.1	0.00e+00	16	29	0	826277888	58	6662
2026-01-26 03:05:29.25	315.03	9.98	-43.0	-44.3	20.3	0.00e+00	67	29	0	832569344	60	5962
2026-01-26 03:05:32.28	315.50	9.85	-43.2	-44.5	20.3	0.00e+00	92	29	0	837812224	60	6077
2026-01-26 03:05:35.30	315.97	9.73	-42.1	-43.4	20.5	0.00e+00	0	29	0	844103680	58	6017
2026-01-26 03:05:38.33	316.44	9.60	-42.7	-44.2	19.3	0.00e+00	0	29	0	849346560	58	6579
2026-01-26 03:05:41.36	316.91	9.48	-43.3	-44.8	19.5	0.00e+00	92	29	0	854589440	58	7031
2026-01-26 03:05:44.39	317.37	9.35	-43.0	-44.4	19.6	0.00e+00	92	29	0	860880896	58	6733
2026-01-26 03:05:47.41	317.82	9.22	-42.0	-43.3	20.3	0.00e+00	0	29	0	866123776	58	5933
2026-01-26 03:05:50.44	318.27	9.10	-41.9	-43.2	20.4	0.00e+00	92	29	0	872415232	58	5879
2026-01-26 03:05:53.47	318.72	8.97	-43.0	-44.3	20.0	0.00e+00	92	29	0	877658112	58	6681
2026-01-26 03:05:56.50	319.17	8.83	-42.9	-44.3	20.3	0.00e+00	0	29	0	882900992	58	6636
2026-01-26 03:05:59.53	319.61	8.70	-42.7	-43.9	20.8	0.00e+00	6	29	0	889192448	58	6346
2026-01-26 03:06:02.55	320.04	8.57	-42.6	-43.8	20.6	0.00e+00	90	29	0	894435328	58	6304
2026-01-26 03:06:05.59	320.48	8.44	-43.3	-44.6	20.6	0.00e+00	0	29	0	900726784	58	6866
2026-01-26 03:06:08.62	320.91	8.31	-42.8	-44.2	20.6	0.00e+00	75	29	0	905969664	58	6549
2026-01-26 03:06:11.65	321.34	8.17	-41.3	-42.5	20.8	0.00e+00	92	28	0	912261120	56	6067
2026-01-26 03:06:14.68	321.76	8.04	-43.5	-44.9	19.9	0.00e+00	0	29	0	917504000	58	7096
2026-01-26 03:06:17.71	322.18	7.90	-43.5	-44.9	20.2	0.00e+00	0	29	0	922746880	60	6369
2026-01-26 03:06:20.74	322.59	7.77	-42.0	-43.3	20.5	0.00e+00	92	29	0	929038336	58	5904
2026-01-26 03:06:23.77	323.00	7.63	-42.4	-43.6	21.2	0.00e+00	90	29	0	934281216	58	6120
2026-01-26 03:06:26.80	323.41	7.49	-41.5	-42.6	21.7	0.00e+00	12	29	0	940572672	56	6137
2026-01-26 03:06:29.83	323.81	7.36	-42.7	-43.9	20.8	0.00e+00	91	29	0	945815552	58	6384
2026-01-26 03:06:32.86	324.21	7.22	-42.6	-43.9	20.2	0.00e+00	92	29	0	951058432	58	6359
2026-01-26 03:06:35.89	324.61	7.08	-42.0	-43.3	20.2	0.00e+00	0	29	0	957349888	56	6680
2026-01-26 03:06:38.92	325.00	6.94	-41.1	-42.3	21.3	0.00e+00	0	29	0	962592768	56	5902
2026-01-26 03:06:41.94	325.39	6.80	-41.5	-42.9	20.4	0.00e+00	12	29	0	968884224	56	6319
2026-01-26 03:06:44.97	325.77	6.66	-41.7	-43.0	20.8	0.00e+00	0	29	0	974127104	56	6393
2026-01-26 03:06:48.00	326.16	6.53	-41.5	-42.7	20.7	0.00e+00	69	29	0	980418560	56	6219
2026-01-26 03:06:51.03	326.53	6.39	-42.0	-43.2	21.0	0.00e+00	3	29	0	985661440	56	6562
2026-01-26 03:06:54.06	326.91	6.25	-42.3	-43.6	20.7	0.00e+00	91	28	0	990904320	56	6877
2026-01-26 03:06:57.09	327.28	6.11	-42.7	-44.1	20.8	0.00e+00	0	28	0	997195776	58	6538
2026-01-26 03:07:00.12	327.65	5.96	-41.5	-42.8	20.6	0.00e+00	0	29	0	1002438656	56	6253
2026-01-26 03:07:03.15	328.01	5.82	-41.6	-43.0	20.3	0.00e+00	92	28	0	1008730112	56	6400
2026-01-26 03:07:06.17	328.37	5.68	-40.4	-41.5	21.1	0.00e+00	0	29	0	1013972992	54	6089
2026-01-26 03:07:09.20	328.73	5.54	-41.3	-42.6	21.0	0.00e+00	70	29	0	1019215872	54	6868
2026-01-26 03:07:12.23	329.09	5.40	-41.5	-42.6	20.7	0.00e+00	92	28	0	1025507328	56	6170
2026-01-26 03:07:15.26	329.44	5.26	-42.2	-43.6	20.0	0.00e+00	0	28	0	1030750208	56	6868
2026-01-26 03:07:18.29	329.79	5.12	-41.4	-42.7	20.3	0.00e+00	0	29	0	1037041664	58	5521
2026-01-26 03:07:21.31	330.13	4.98	-41.8	-43.1	19.7	0.00e+00	0	29	0	1042284544	58	5810
2026-01-26 03:07:24.34	330.47	4.84	-41.8	-43.3	19.5	0.00e+00	79	29	0	1048576000	56	6625
2026-01-26 03:07:27.38	330.81	4.70	-40.5	-41.7	20.7	0.00e+00	9	28	0	1053818880	56	5544
2026-01-26 03:07:30.41	331.15	4.55	-41.6	-43.0	19.9	0.00e+00	0	29	0	1059061760	56	6420
2026-01-26 03:07:33.43	331.48	4.41	-42.6	-44.2	18.7	0.00e+00	92	29	0	1065353216	58	6541
2026-01-26 03:07:36.46	331.81	4.27	-43.5	-46.0	16.1	0.00e+00	73	29	0	1070596096	58	8097
2026-01-26 03:07:39.49	332.14	4.13	-44.0	-47.1	14.0	1.50e-06	5	29	0	1076887552	60	8151
2026-01-26 03:07:42.51	332.46	3.99	-45.5	-51.4	8.6	6.71e-02	92	29	0	1082130432	60	13446
2026-01-26 03:07:45.53	332.78	3.85	-46.3	-56.4	4.0	8.27e-01	67	29	0	1087373312	60	23813
2026-01-26 03:07:48.56	333.10	3.71	-45.5	-60.0	3.6	1.51e+00	0	29	104	1088421888	60	36221
2026-01-26 03:07:51.59	333.41	3.56	-45.4	-60.2	3.6	1.51e+00	0	29	104	1088421888	60	36903
2026-01-26 03:07:54.62	333.72	3.42	-45.4	-60.5	3.6	1.51e+00	0	29	104	1088421888	60	38302
2026-01-26 03:07:57.65	334.03	3.28	-45.0	-60.2	3.6	1.51e+00	0	29	104	1088421888	60	36820
2026-01-26 03:08:00.68	334.34	3.14	-45.3	-60.4	3.6	1.51e+00	0	29	104	1088421888	60	37927
2026-01-26 03:08:03.71	334.64	3.00	-45.0	-60.2	3.6	1.51e+00	0	29	104	1088421888	60	36845
2026-01-26 03:08:06.74	334.94	2.86	-50.4	-65.6	3.6	1.51e+00	0	29	104	1088421888	60	68714
2026-01-26 03:08:09.77	335.24	2.72	-50.9	-66.0	3.6	1.51e+00	0	29	104	1088421888	60	72359
2026-01-26 03:08:12.80	335.54	2.58	-50.4	-65.6	3.6	1.51e+00	0	29	104	1088421888	60	68847
2026-01-26 03:08:15.83	335.83	2.44	-50.7	-65.9	3.6	1.51e+00	0	29	104	1088421888	60	71183
2026-01-26 03:08:18.86	336.12	2.29	-50.1	-65.3	3.6	1.51e+00	0	29	104	1088421888	60	66684
2026-01-26 03:08:21.89	336.41	2.15	-50.4	-65.8	3.6	1.51e+00	0	29	104	1088421888	60	70343
2026-01-26 03:08:24.92	336.69	2.01	-50.6	-65.9	3.6	1.51e+00	0	29	104	1088421888	60	71409
2026-01-26 03:08:27.95	336.97	1.87	-50.7	-65.9	3.6	1.51e+00	0	29	104	1088421888	60	71507
2026-01-26 03:08:30.98	337.25	1.73	-50.9	-66.1	3.6	1.51e+00	0	29	104	1088421888	60	72955
2026-01-26 03:08:34.01	337.53	1.59	-50.8	-66.0	3.6	1.51e+00	0	29	104	1088421888	60	72524
2026-01-26 03:08:37.04	337.80	1.45	-50.3	-65.5	3.6	1.51e+00	0	29	104	1088421888	60	68471
2026-01-26 03:08:40.07	338.08	1.32	-50.9	-66.1	3.6	1.51e+00	0	29	104	1088421888	60	73052
2026-01-26 03:08:43.10	338.35	1.18	-50.7	-66.0	3.6	1.51e+00	0	29	104	1088421888	60	71793
2026-01-26 03:08:46.13	338.62	1.04	-50.0	-65.3	3.6	1.51e+00	0	29	104	1088421888	60	66369
2026-01-26 03:08:49.16	338.88	0.90	-51.1	-66.4	3.6	1.51e+00	0	29	104	1088421888	60	75127
2026-01-26 03:08:52.19	339.14	0.76	-51.0	-66.3	3.6	1.51e+00	0	29	104	1088421888	60	74501
2026-01-26 03:08:55.22	339.40	0.62	-51.1	-66.3	3.6	1.51e+00	0	29	104	1088421888	60	74914
2026-01-26 03:08:58.25	339.66	0.48	-50.9	-66.2	3.6	1.51e+00	0	29	104	1088421888	60	73618
2026-01-26 03:09:01.27	339.92	0.34	-51.8	-67.1	3.6	1.51e+00	0	29	104	1088421888	60	81622
2026-01-26 03:09:04.30	340.17	0.21	-50.9	-66.2	3.6	1.51e+00	0	29	104	1088421888	60	73660
2026-01-26 03:09:07.33	340.42	0.07	-51.0	-66.3	3.6	1.51e+00	0	29	104	1088421888	60	74577

#Closed at: 2026-01-26 03:09:09
#Recorded file [1088 MB]: D:/lorett/data/35029_260126_145627.dat