passes_logs/2026/01/26/R4.6S_Anadyr/R4.6S_Anadyr__20260126_211546_SUOMI_NPP_rec.log

#Pass ID: 20260126_211546_SUOMI NPP
#Satellite: SUOMI NPP
#Configuration: NPP
#almurnet v.1.7.20251203
#Start time: 2026-01-26 21:15:50

#Version: 2.2.20231116
#Station: R4.6S_Anadyr
#Location: 177.4865 lon 64.73178 lat
#TLE: 1 37849U 11061A   26025.95877665  .00000192  00000+0  11229-3 0  9997
#TLE: 2 37849  98.7822 327.9136 0002155  44.9234 315.2116 14.19530109738267

#Time	Az	El	Level	Level2	SNR	BER	BlckErr	Temp	State	Recorded	gain1	gain2
2026-01-26 21:15:50.70	84.83	0.23	-50.3	-63.9	5.5	0.00e+00	0	27	0	0	60	63565
2026-01-26 21:15:54.74	84.57	0.45	-49.3	-64.6	3.6	1.51e+00	0	28	104	0	60	61427
2026-01-26 21:15:58.78	84.30	0.66	-49.0	-64.4	3.6	1.51e+00	0	28	104	0	60	59969
2026-01-26 21:16:02.82	84.03	0.87	-49.2	-64.4	3.6	1.51e+00	0	28	104	0	60	59796
2026-01-26 21:16:06.86	83.75	1.08	-49.0	-64.2	3.5	1.51e+00	0	29	104	0	60	58365
2026-01-26 21:16:10.90	83.47	1.30	-48.6	-63.7	3.6	1.51e+00	0	29	104	0	60	55029
2026-01-26 21:16:14.94	83.18	1.51	-47.4	-62.8	3.6	1.51e+00	0	29	104	0	60	49895
2026-01-26 21:16:18.98	82.89	1.73	-47.4	-62.8	3.6	1.51e+00	0	29	104	0	60	49933
2026-01-26 21:16:23.02	82.60	1.95	-47.4	-62.8	3.5	1.51e+00	0	29	104	0	60	49815
2026-01-26 21:16:27.06	82.30	2.17	-47.4	-62.7	3.6	1.51e+00	0	29	104	0	60	49509
2026-01-26 21:16:31.10	82.00	2.39	-47.4	-62.8	3.6	1.51e+00	0	29	104	0	60	49810
2026-01-26 21:16:35.14	81.69	2.61	-47.4	-62.8	3.6	1.51e+00	0	29	104	0	60	49885
2026-01-26 21:16:39.18	81.38	2.83	-47.4	-62.6	3.6	1.51e+00	0	29	104	0	60	48819
2026-01-26 21:16:43.23	81.06	3.05	-45.9	-51.0	10.5	2.74e-02	0	29	0	2097152	60	12870
2026-01-26 21:16:47.27	80.74	3.28	-45.4	-49.2	13.5	2.79e-01	0	29	0	6291456	60	10399
2026-01-26 21:16:51.31	80.41	3.50	-45.1	-49.1	12.4	1.43e-04	0	29	0	8388608	60	10294
2026-01-26 21:16:55.35	80.08	3.73	-44.2	-47.2	14.0	4.50e-06	0	29	0	15728640	60	8262
2026-01-26 21:16:59.38	79.74	3.95	-43.7	-46.4	15.4	0.00e+00	0	29	0	23068672	60	7524
2026-01-26 21:17:03.42	79.40	4.18	-43.0	-45.2	16.9	0.00e+00	0	29	0	30408704	58	7398
2026-01-26 21:17:07.46	79.05	4.41	-42.3	-44.2	17.9	0.00e+00	0	29	0	38797312	58	6546
2026-01-26 21:17:11.50	78.69	4.64	-42.1	-43.9	18.4	0.00e+00	0	29	0	46137344	56	7114
2026-01-26 21:17:15.54	78.33	4.87	-41.0	-42.5	19.5	0.00e+00	0	29	0	53477376	56	6038
2026-01-26 21:17:19.58	77.96	5.10	-41.9	-43.6	18.4	0.00e+00	0	29	0	60817408	56	6899
2026-01-26 21:17:23.62	77.59	5.33	-42.5	-44.3	17.7	0.00e+00	0	29	0	69206016	56	7467
2026-01-26 21:17:27.66	77.21	5.56	-43.3	-45.5	16.7	0.00e+00	0	29	0	76546048	58	7635
2026-01-26 21:17:31.70	76.83	5.79	-43.2	-45.3	16.6	0.00e+00	0	29	0	83886080	58	7497
2026-01-26 21:17:35.74	76.43	6.03	-42.8	-44.7	17.4	0.00e+00	0	29	0	91226112	58	6999
2026-01-26 21:17:39.78	76.04	6.26	-41.5	-42.9	19.1	0.00e+00	0	29	0	98566144	56	6386
2026-01-26 21:17:43.82	75.63	6.50	-41.1	-42.6	19.6	0.00e+00	0	29	0	106954752	54	6852
2026-01-26 21:17:47.86	75.22	6.74	-41.1	-42.5	19.4	0.00e+00	0	29	0	114294784	54	6822
2026-01-26 21:17:51.90	74.80	6.97	-40.8	-42.2	19.9	0.00e+00	0	29	0	121634816	54	6565
2026-01-26 21:17:55.94	74.37	7.21	-41.4	-42.9	19.3	0.00e+00	0	29	0	128974848	54	7153
2026-01-26 21:17:59.98	73.94	7.45	-41.7	-43.2	19.1	0.00e+00	0	29	0	137363456	56	6609
2026-01-26 21:18:04.02	73.50	7.69	-41.2	-42.7	19.6	0.00e+00	0	29	0	144703488	56	6187
2026-01-26 21:18:08.05	73.05	7.93	-40.9	-42.3	19.9	0.00e+00	0	29	0	152043520	56	5939
2026-01-26 21:18:12.09	72.60	8.17	-40.9	-42.2	20.0	0.00e+00	0	29	0	159383552	54	6605
2026-01-26 21:18:16.14	72.13	8.41	-40.9	-42.2	20.1	0.00e+00	0	29	0	166723584	54	6590
2026-01-26 21:18:20.18	71.66	8.65	-40.9	-42.3	20.0	0.00e+00	0	29	0	175112192	54	6638
2026-01-26 21:18:24.22	71.18	8.90	-40.7	-42.0	20.4	0.00e+00	0	29	0	182452224	54	6449
2026-01-26 21:18:28.25	70.70	9.14	-40.5	-41.8	20.4	0.00e+00	0	29	0	189792256	54	6258
2026-01-26 21:18:32.29	70.20	9.38	-41.0	-42.5	20.0	0.00e+00	0	29	0	197132288	54	6783
2026-01-26 21:18:36.33	69.70	9.62	-41.0	-42.4	20.3	0.00e+00	0	29	0	205520896	54	6693
2026-01-26 21:18:40.36	69.19	9.87	-40.3	-41.6	20.6	0.00e+00	0	29	0	212860928	54	6142
2026-01-26 21:18:44.40	68.66	10.11	-40.3	-41.5	20.8	0.00e+00	0	30	0	220200960	54	6063
2026-01-26 21:18:48.44	68.13	10.35	-40.1	-41.3	21.0	0.00e+00	0	29	0	227540992	54	5920
2026-01-26 21:18:52.48	67.59	10.60	-40.3	-41.6	20.2	0.00e+00	0	29	0	234881024	54	6112
2026-01-26 21:18:56.52	67.05	10.84	-40.2	-41.4	21.0	0.00e+00	0	29	0	243269632	54	6003
2026-01-26 21:19:00.56	66.49	11.08	-40.0	-41.2	21.0	0.00e+00	0	30	0	250609664	54	5873
2026-01-26 21:19:04.60	65.92	11.33	-39.9	-41.1	21.3	0.00e+00	0	29	0	257949696	52	6504
2026-01-26 21:19:08.64	65.34	11.57	-39.8	-40.9	21.4	0.00e+00	0	29	0	265289728	52	6385
2026-01-26 21:19:12.68	64.75	11.81	-39.8	-41.0	21.3	0.00e+00	0	29	0	273678336	52	6395
2026-01-26 21:19:16.72	64.16	12.05	-40.4	-41.6	20.7	0.00e+00	0	29	0	281018368	52	6872
2026-01-26 21:19:20.76	63.55	12.29	-40.6	-41.9	20.6	0.00e+00	0	29	0	288358400	52	7117
2026-01-26 21:19:24.79	62.93	12.53	-40.8	-42.1	20.4	0.00e+00	0	29	0	295698432	54	6498
2026-01-26 21:19:28.83	62.31	12.77	-40.2	-41.5	20.8	0.00e+00	0	29	0	303038464	54	6049
2026-01-26 21:19:32.87	61.67	13.01	-40.0	-41.1	21.3	0.00e+00	0	29	0	311427072	54	5826
2026-01-26 21:19:36.90	61.02	13.24	-39.9	-41.1	21.3	0.00e+00	0	30	0	318767104	54	5766
2026-01-26 21:19:40.94	60.36	13.48	-39.7	-40.8	21.6	0.00e+00	0	29	0	326107136	52	6294
2026-01-26 21:19:44.98	59.69	13.71	-39.6	-40.7	21.7	0.00e+00	0	29	0	333447168	52	6224
2026-01-26 21:19:49.02	59.01	13.94	-38.9	-39.9	22.3	0.00e+00	0	30	0	341835776	52	5693
2026-01-26 21:19:53.07	58.32	14.17	-38.5	-39.5	22.5	0.00e+00	0	29	0	349175808	50	6068
2026-01-26 21:19:57.10	57.62	14.40	-38.5	-39.5	22.7	0.00e+00	0	29	0	356515840	50	6081
2026-01-26 21:20:01.14	56.91	14.63	-38.1	-39.1	23.0	0.00e+00	0	29	0	363855872	50	5795
2026-01-26 21:20:05.18	56.18	14.85	-37.9	-38.8	23.2	0.00e+00	0	30	0	371195904	50	5585
2026-01-26 21:20:09.22	55.45	15.07	-38.2	-39.2	23.0	0.00e+00	0	30	0	379584512	50	5836
2026-01-26 21:20:13.26	54.70	15.29	-38.5	-39.5	22.6	0.00e+00	0	29	0	386924544	50	6098
2026-01-26 21:20:17.31	53.95	15.50	-38.9	-39.9	22.3	0.00e+00	0	30	0	394264576	50	6382
2026-01-26 21:20:21.35	53.18	15.71	-38.1	-39.0	22.9	0.00e+00	0	30	0	401604608	50	5730
2026-01-26 21:20:25.39	52.40	15.92	-37.5	-38.4	23.5	0.00e+00	0	30	0	409993216	48	6028
2026-01-26 21:20:29.43	51.61	16.12	-37.8	-38.8	23.2	0.00e+00	0	30	0	417333248	48	6276
2026-01-26 21:20:33.47	50.81	16.32	-37.7	-38.6	23.4	0.00e+00	0	29	0	424673280	48	6132
2026-01-26 21:20:37.51	50.00	16.52	-37.8	-38.8	23.5	0.00e+00	0	29	0	432013312	48	6263
2026-01-26 21:20:41.54	49.18	16.71	-36.9	-37.8	24.1	0.00e+00	0	30	0	439353344	48	5570
2026-01-26 21:20:45.58	48.35	16.89	-37.0	-37.8	24.0	0.00e+00	0	29	0	447741952	48	5605
2026-01-26 21:20:49.62	47.51	17.08	-37.3	-38.2	23.7	0.00e+00	0	30	0	455081984	48	5851
2026-01-26 21:20:53.66	46.65	17.25	-37.4	-38.3	23.5	0.00e+00	0	30	0	462422016	48	5949
2026-01-26 21:20:57.69	45.79	17.42	-38.1	-39.0	23.1	0.00e+00	0	29	0	469762048	48	6446
2026-01-26 21:21:01.73	44.92	17.59	-37.5	-38.4	23.5	0.00e+00	0	29	0	478150656	48	5993
2026-01-26 21:21:05.77	44.04	17.75	-36.8	-37.6	24.2	0.00e+00	0	29	0	485490688	48	5491
2026-01-26 21:21:09.81	43.15	17.90	-36.8	-37.6	24.2	0.00e+00	0	29	0	492830720	46	6123
2026-01-26 21:21:13.85	42.25	18.05	-36.7	-37.5	24.2	0.00e+00	0	29	0	500170752	46	6090
2026-01-26 21:21:17.89	41.34	18.19	-37.2	-38.1	23.9	0.00e+00	0	29	0	507510784	46	6495
2026-01-26 21:21:21.93	40.43	18.32	-37.9	-38.8	23.3	0.00e+00	0	29	0	515899392	48	6302
2026-01-26 21:21:25.98	39.50	18.45	-37.8	-38.7	23.3	0.00e+00	0	29	0	523239424	48	6204
2026-01-26 21:21:30.01	38.57	18.57	-38.2	-39.1	23.0	0.00e+00	0	29	0	530579456	48	6510
2026-01-26 21:21:34.05	37.63	18.68	-38.5	-39.5	22.8	0.00e+00	0	29	0	537919488	48	6774
2026-01-26 21:21:38.09	36.68	18.79	-37.9	-38.8	23.4	0.00e+00	0	29	0	546308096	48	6293
2026-01-26 21:21:42.12	35.73	18.88	-38.4	-39.4	22.8	0.00e+00	0	29	0	553648128	48	6715
2026-01-26 21:21:46.16	34.78	18.97	-38.6	-39.6	22.5	0.00e+00	0	29	0	560988160	48	6908
2026-01-26 21:21:50.20	33.81	19.05	-38.5	-39.5	22.7	0.00e+00	0	29	0	568328192	48	6820
2026-01-26 21:21:54.24	32.84	19.13	-39.6	-40.8	21.8	0.00e+00	0	29	0	575668224	50	7023
2026-01-26 21:21:58.28	31.87	19.19	-38.7	-39.7	22.6	0.00e+00	0	29	0	584056832	50	6195
2026-01-26 21:22:02.32	30.89	19.25	-38.3	-39.3	22.9	0.00e+00	0	29	0	591396864	50	5910
2026-01-26 21:22:06.35	29.92	19.29	-38.5	-39.5	22.7	0.00e+00	0	29	0	598736896	50	6061
2026-01-26 21:22:10.38	28.94	19.33	-38.3	-39.2	22.9	0.00e+00	0	29	0	606076928	50	5888
2026-01-26 21:22:14.42	27.95	19.36	-38.1	-39.0	23.1	0.00e+00	0	29	0	614465536	50	5723
2026-01-26 21:22:18.46	26.97	19.38	-38.7	-39.7	22.7	0.00e+00	0	29	0	621805568	50	6181
2026-01-26 21:22:22.50	25.98	19.40	-38.3	-39.2	23.0	0.00e+00	0	29	0	629145600	50	5892
2026-01-26 21:22:26.54	24.99	19.40	-38.2	-39.2	23.0	0.00e+00	0	29	0	636485632	50	5833
2026-01-26 21:22:30.58	24.00	19.39	-38.5	-39.5	22.6	0.00e+00	0	29	0	643825664	50	6096
2026-01-26 21:22:34.62	23.02	19.38	-39.3	-40.4	22.0	0.00e+00	0	29	0	652214272	50	6748
2026-01-26 21:22:38.66	22.03	19.36	-38.0	-38.9	23.1	0.00e+00	0	29	0	659554304	50	5695
2026-01-26 21:22:42.70	21.05	19.32	-36.9	-37.7	24.1	0.00e+00	0	29	0	666894336	48	5539
2026-01-26 21:22:46.74	20.06	19.28	-37.1	-38.0	23.9	0.00e+00	0	29	0	674234368	48	5712
2026-01-26 21:22:50.77	19.09	19.23	-37.1	-38.0	23.9	0.00e+00	0	29	0	682622976	48	5728
2026-01-26 21:22:54.81	18.11	19.17	-37.2	-38.1	23.9	0.00e+00	0	29	0	689963008	48	5763
2026-01-26 21:22:58.85	17.14	19.11	-36.6	-37.4	24.2	0.00e+00	0	29	0	697303040	46	6028
2026-01-26 21:23:02.89	16.18	19.03	-36.6	-37.4	24.3	0.00e+00	0	29	0	704643072	46	5985
2026-01-26 21:23:06.94	15.21	18.95	-37.1	-37.9	24.0	0.00e+00	0	29	0	711983104	46	6378
2026-01-26 21:23:10.97	14.26	18.86	-37.3	-38.2	23.7	0.00e+00	0	29	0	720371712	46	6555
2026-01-26 21:23:15.01	13.31	18.76	-37.0	-37.9	23.9	0.00e+00	0	29	0	727711744	46	6331
2026-01-26 21:23:19.05	12.37	18.65	-38.2	-39.2	22.9	0.00e+00	0	29	0	735051776	48	6568
2026-01-26 21:23:23.09	11.43	18.54	-39.2	-40.3	22.1	0.00e+00	0	29	0	742391808	50	6619
2026-01-26 21:23:27.13	10.50	18.42	-38.9	-39.9	22.5	0.00e+00	0	28	0	750780416	50	6371
2026-01-26 21:23:31.17	9.58	18.29	-39.4	-40.5	21.9	0.00e+00	0	28	0	758120448	52	6062
2026-01-26 21:23:35.20	8.67	18.15	-39.4	-40.6	21.8	0.00e+00	0	28	0	765460480	52	6105
2026-01-26 21:23:39.24	7.76	18.01	-38.4	-39.4	22.9	0.00e+00	0	28	0	772800512	50	5970
2026-01-26 21:23:43.28	6.87	17.86	-38.4	-39.3	22.9	0.00e+00	0	28	0	780140544	50	5955
2026-01-26 21:23:47.31	5.98	17.71	-38.4	-39.4	22.8	0.00e+00	0	28	0	788529152	50	5977
2026-01-26 21:23:51.36	5.11	17.55	-38.0	-38.9	23.1	0.00e+00	0	28	0	795869184	50	5694
2026-01-26 21:23:55.40	4.24	17.38	-37.1	-37.9	23.8	0.00e+00	0	28	0	803209216	48	5681
2026-01-26 21:23:59.44	3.38	17.21	-37.1	-37.9	23.9	0.00e+00	0	28	0	810549248	48	5681
2026-01-26 21:24:03.47	2.53	17.03	-38.6	-39.6	22.6	0.00e+00	0	28	0	818937856	48	6896
2026-01-26 21:24:07.51	1.70	16.85	-39.2	-40.2	22.2	0.00e+00	0	28	0	826277888	50	6611
2026-01-26 21:24:11.55	0.87	16.66	-39.9	-41.1	21.2	0.00e+00	0	28	0	833617920	52	6527
2026-01-26 21:24:15.59	0.05	16.47	-39.6	-40.7	21.7	0.00e+00	0	28	0	840957952	52	6193
2026-01-26 21:24:19.63	359.25	16.27	-38.9	-39.9	22.4	0.00e+00	0	28	0	848297984	50	6352
2026-01-26 21:24:23.67	358.45	16.07	-38.1	-39.0	23.0	0.00e+00	0	28	0	856686592	50	5753
2026-01-26 21:24:27.70	357.67	15.87	-37.9	-38.8	23.2	0.00e+00	0	28	0	864026624	48	6276
2026-01-26 21:24:31.74	356.90	15.66	-38.7	-39.7	22.5	0.00e+00	0	28	0	871366656	50	6230
2026-01-26 21:24:35.77	356.13	15.45	-38.5	-39.4	22.8	0.00e+00	0	28	0	878706688	50	6007
2026-01-26 21:24:39.81	355.38	15.23	-38.2	-39.1	22.9	0.00e+00	0	28	0	886046720	48	6516
2026-01-26 21:24:43.85	354.64	15.02	-39.8	-41.0	21.4	0.00e+00	0	28	0	894435328	50	7174
2026-01-26 21:24:47.89	353.91	14.80	-40.7	-42.1	20.3	0.00e+00	0	28	0	901775360	54	6496
2026-01-26 21:24:51.93	353.19	14.57	-39.9	-41.1	21.3	0.00e+00	0	28	0	909115392	54	5797
2026-01-26 21:24:55.97	352.49	14.35	-39.5	-40.6	21.7	0.00e+00	0	28	0	916455424	52	6169
2026-01-26 21:25:00.01	351.79	14.12	-38.9	-39.9	22.3	0.00e+00	0	28	0	924844032	52	5691
2026-01-26 21:25:04.05	351.10	13.89	-39.7	-40.9	21.5	0.00e+00	0	28	0	932184064	52	6357
2026-01-26 21:25:08.09	350.43	13.66	-39.5	-40.6	21.7	0.00e+00	0	28	0	939524096	52	6142
2026-01-26 21:25:12.13	349.76	13.43	-38.5	-39.5	22.5	0.00e+00	0	28	0	946864128	50	6046
2026-01-26 21:25:16.17	349.11	13.19	-38.7	-39.7	22.4	0.00e+00	0	28	0	955252736	50	6207
2026-01-26 21:25:20.20	348.47	12.96	-39.3	-40.4	21.8	0.00e+00	0	28	0	962592768	50	6756
2026-01-26 21:25:24.24	347.83	12.72	-39.1	-40.2	22.1	0.00e+00	0	28	0	969932800	50	6540
2026-01-26 21:25:28.28	347.21	12.48	-38.8	-39.8	22.3	0.00e+00	0	28	0	977272832	50	6278
2026-01-26 21:25:32.31	346.60	12.24	-38.1	-39.0	22.8	0.00e+00	0	28	0	984612864	50	5730
2026-01-26 21:25:36.36	346.00	12.00	-37.4	-38.3	23.5	0.00e+00	0	28	0	993001472	48	5938
2026-01-26 21:25:40.39	345.41	11.76	-37.2	-38.1	23.6	0.00e+00	0	28	0	1000341504	48	5782
2026-01-26 21:25:44.43	344.82	11.52	-38.1	-39.1	22.8	0.00e+00	0	28	0	1007681536	48	6478
2026-01-26 21:25:48.47	344.25	11.28	-38.2	-39.2	22.7	0.00e+00	0	28	0	1015021568	48	6595
2026-01-26 21:25:52.51	343.69	11.04	-37.8	-38.7	23.1	0.00e+00	0	28	0	1022361600	48	6224
2026-01-26 21:25:56.54	343.14	10.79	-37.7	-38.7	23.2	0.00e+00	0	28	0	1030750208	48	6181
2026-01-26 21:26:00.58	342.59	10.55	-38.1	-39.1	22.8	0.00e+00	0	28	0	1038090240	48	6487
2026-01-26 21:26:04.62	342.06	10.31	-38.6	-39.6	22.4	0.00e+00	0	28	0	1045430272	48	6897
2026-01-26 21:26:08.67	341.53	10.06	-38.9	-40.0	22.1	0.00e+00	0	28	0	1052770304	50	6450
2026-01-26 21:26:12.70	341.01	9.82	-38.5	-39.6	22.2	0.00e+00	0	27	0	1061158912	50	6104
2026-01-26 21:26:16.74	340.50	9.58	-37.9	-38.9	22.8	0.00e+00	0	27	0	1068498944	50	5656
2026-01-26 21:26:20.78	340.00	9.34	-37.9	-38.9	22.4	0.00e+00	0	28	0	1075838976	48	6372
2026-01-26 21:26:24.82	339.51	9.09	-39.0	-40.1	21.8	0.00e+00	0	28	0	1083179008	50	6525
2026-01-26 21:26:28.86	339.03	8.85	-39.4	-40.5	21.3	0.00e+00	0	28	0	1090519040	50	6830
2026-01-26 21:26:32.90	338.55	8.61	-39.2	-40.3	21.9	0.00e+00	0	27	0	1098907648	50	6645
2026-01-26 21:26:36.94	338.09	8.37	-38.8	-39.8	22.1	0.00e+00	0	27	0	1106247680	50	6309
2026-01-26 21:26:40.98	337.63	8.13	-39.1	-40.2	21.7	0.00e+00	0	27	0	1113587712	50	6572
2026-01-26 21:26:45.01	337.18	7.89	-39.4	-40.5	21.4	0.00e+00	0	27	0	1120927744	50	6814
2026-01-26 21:26:49.05	336.73	7.65	-39.9	-41.1	20.9	0.00e+00	0	27	0	1129316352	52	6489
2026-01-26 21:26:53.09	336.30	7.41	-40.3	-41.6	20.5	0.00e+00	0	27	0	1136656384	52	6875
2026-01-26 21:26:57.12	335.87	7.17	-40.0	-41.2	20.8	0.00e+00	0	27	0	1143996416	52	6579
2026-01-26 21:27:01.16	335.45	6.94	-39.6	-40.8	21.2	0.00e+00	0	27	0	1151336448	52	6246
2026-01-26 21:27:05.20	335.03	6.70	-40.6	-41.9	20.1	0.00e+00	0	27	0	1158676480	52	7156
2026-01-26 21:27:09.24	334.63	6.46	-41.0	-42.5	19.4	0.00e+00	0	27	0	1167065088	54	6777
2026-01-26 21:27:13.29	334.22	6.23	-41.0	-42.4	19.1	0.00e+00	0	27	0	1174405120	54	6760
2026-01-26 21:27:17.32	333.83	5.99	-40.8	-42.3	19.2	0.00e+00	0	27	0	1181745152	54	6666
2026-01-26 21:27:21.35	333.44	5.76	-41.0	-42.6	18.6	0.00e+00	0	27	0	1189085184	54	6908
2026-01-26 21:27:25.39	333.06	5.53	-41.2	-43.1	17.7	0.00e+00	0	27	0	1197473792	54	7261
2026-01-26 21:27:29.43	332.69	5.30	-41.6	-43.4	17.6	0.00e+00	0	27	0	1204813824	54	7564
2026-01-26 21:27:33.47	332.32	5.07	-41.1	-42.8	18.6	0.00e+00	0	27	0	1212153856	54	7026
2026-01-26 21:27:37.51	331.95	4.84	-41.7	-43.4	18.2	0.00e+00	0	27	0	1219493888	54	7588
2026-01-26 21:27:41.55	331.60	4.61	-40.8	-42.2	19.4	0.00e+00	0	27	0	1226833920	54	6611
2026-01-26 21:27:45.59	331.25	4.38	-40.8	-42.3	19.3	0.00e+00	0	27	0	1235222528	54	6622
2026-01-26 21:27:49.62	330.90	4.15	-41.4	-43.0	18.6	0.00e+00	0	27	0	1242562560	54	7248
2026-01-26 21:27:53.66	330.56	3.92	-41.6	-43.3	18.2	0.00e+00	0	27	0	1249902592	54	7457
2026-01-26 21:27:57.70	330.23	3.70	-42.7	-44.8	16.9	0.00e+00	0	27	0	1257242624	56	7907
2026-01-26 21:28:01.74	329.90	3.47	-43.4	-45.9	15.5	0.00e+00	0	27	0	1265631232	58	8022
2026-01-26 21:28:05.77	329.57	3.25	-43.2	-45.8	15.4	0.00e+00	0	27	0	1272971264	58	7868
2026-01-26 21:28:09.81	329.25	3.03	-43.6	-46.8	14.2	3.80e-06	0	27	0	1280311296	60	7890
2026-01-26 21:28:13.85	328.94	2.81	-48.8	-64.0	3.6	1.51e+00	0	27	104	1281359872	60	57012
2026-01-26 21:28:17.89	328.63	2.59	-49.1	-64.3	3.6	1.51e+00	0	27	104	1281359872	60	59388
2026-01-26 21:28:21.93	328.33	2.37	-49.3	-64.5	3.6	1.51e+00	0	27	104	1281359872	60	60695
2026-01-26 21:28:25.98	328.03	2.15	-49.2	-64.3	3.6	1.51e+00	0	27	104	1281359872	60	59544
2026-01-26 21:28:30.02	327.73	1.93	-49.1	-64.4	3.6	1.51e+00	0	27	104	1281359872	60	59988
2026-01-26 21:28:34.06	327.44	1.71	-49.2	-64.5	3.6	1.51e+00	0	27	104	1281359872	60	60426
2026-01-26 21:28:38.09	327.15	1.50	-49.1	-64.4	3.6	1.51e+00	0	27	104	1281359872	60	59991
2026-01-26 21:28:42.13	326.87	1.28	-49.1	-64.3	3.6	1.51e+00	0	27	104	1281359872	60	59329
2026-01-26 21:28:46.17	326.60	1.07	-49.2	-64.4	3.6	1.51e+00	0	28	104	1281359872	60	59993
2026-01-26 21:28:50.21	326.32	0.85	-49.3	-64.5	3.6	1.51e+00	0	28	104	1281359872	60	60951
2026-01-26 21:28:54.25	326.05	0.64	-49.3	-64.5	3.5	1.51e+00	0	28	104	1281359872	60	60670
2026-01-26 21:28:58.29	325.79	0.43	-49.5	-64.7	3.6	1.51e+00	0	28	104	1281359872	60	62318
2026-01-26 21:29:02.33	325.53	0.22	-49.3	-64.6	3.6	1.51e+00	0	27	104	1281359872	60	61340
2026-01-26 21:29:06.37	325.27	0.01	-49.4	-64.6	3.6	1.51e+00	0	28	104	1281359872	60	61717

#Closed at: 2026-01-26 21:29:07
#Recorded file [1281 MB]: D:/lorett/data/35029_260127_091550.dat