passes_logs/2026/01/26/R4.6S_Anadyr/R4.6S_Anadyr__20260126_231421_NOAA_20_JPSS-1_rec.log

#Pass ID: 20260126_231421_NOAA 20 (JPSS-1)
#Satellite: NOAA 20 (JPSS-1)
#Configuration: NOAA 20
#almurnet v.1.7.20251203
#Start time: 2026-01-26 23:14:23

#Version: 2.2.20231116
#Station: R4.6S_Anadyr
#Location: 177.4865 lon 64.73178 lat
#TLE: 1 43013U 17073A   26026.46665230  .00000148  00000+0  91302-4 0  9998
#TLE: 2 43013  98.7646 327.2856 0001008  22.9532 337.1688 14.19540616424360

#Time	Az	El	Level	Level2	SNR	BER	BlckErr	Temp	State	Recorded	gain1	gain2
2026-01-26 23:14:23.47	132.13	0.14	-49.2	-64.0	3.5	1.51e+00	0	25	0	0	60	57549
2026-01-26 23:14:27.50	132.04	0.37	-49.3	-64.4	3.6	1.51e+00	0	26	104	0	60	60293
2026-01-26 23:14:31.54	131.94	0.62	-49.3	-64.5	3.6	1.51e+00	0	26	104	0	60	60499
2026-01-26 23:14:35.58	131.84	0.86	-49.3	-64.5	3.6	1.51e+00	0	26	104	0	60	60404
2026-01-26 23:14:39.62	131.74	1.11	-48.9	-64.3	3.6	1.51e+00	0	26	104	0	60	59246
2026-01-26 23:14:43.66	131.63	1.36	-48.6	-64.1	3.6	1.51e+00	0	27	104	0	60	57789
2026-01-26 23:14:47.69	131.53	1.61	-48.1	-63.4	3.6	1.51e+00	0	27	104	0	60	53624
2026-01-26 23:14:51.73	131.42	1.86	-47.4	-63.0	3.6	1.51e+00	0	27	104	0	60	51182
2026-01-26 23:14:55.77	131.31	2.11	-47.4	-62.9	3.6	1.51e+00	0	27	104	0	60	50490
2026-01-26 23:14:59.81	131.20	2.37	-47.4	-63.0	3.6	1.51e+00	0	27	104	0	60	51160
2026-01-26 23:15:03.85	131.09	2.63	-47.3	-62.9	3.6	1.51e+00	0	27	104	0	60	50324
2026-01-26 23:15:07.89	130.98	2.89	-47.3	-61.6	3.6	1.51e+00	0	27	104	0	60	43343
2026-01-26 23:15:11.93	130.86	3.15	-47.3	-62.4	3.6	1.51e+00	0	27	104	0	60	47585
2026-01-26 23:15:15.97	130.74	3.42	-46.4	-52.7	9.0	1.40e-01	0	27	0	1048576	60	15607
2026-01-26 23:15:20.00	130.62	3.69	-42.3	-44.3	17.7	0.00e+00	0	27	0	8388608	58	6677
2026-01-26 23:15:24.04	130.49	3.96	-45.5	-49.9	12.1	5.07e-04	0	27	0	12582912	60	11343
2026-01-26 23:15:28.08	130.36	4.23	-40.5	-41.9	20.1	0.00e+00	0	27	0	15728640	54	6363
2026-01-26 23:15:32.12	130.23	4.51	-40.2	-41.5	20.6	0.00e+00	0	27	0	23068672	52	6786
2026-01-26 23:15:36.15	130.10	4.78	-40.2	-41.5	20.7	0.00e+00	0	27	0	30408704	52	6776
2026-01-26 23:15:40.19	129.96	5.07	-39.9	-41.1	21.1	0.00e+00	0	27	0	38797312	52	6504
2026-01-26 23:15:44.23	129.83	5.35	-40.0	-41.3	20.9	0.00e+00	0	27	0	46137344	52	6633
2026-01-26 23:15:48.27	129.68	5.64	-39.7	-40.9	21.3	0.00e+00	0	27	0	53477376	52	6355
2026-01-26 23:15:52.31	129.54	5.93	-39.8	-41.1	21.1	0.00e+00	0	27	0	60817408	52	6470
2026-01-26 23:15:56.34	129.39	6.22	-39.6	-40.8	21.6	0.00e+00	0	27	0	69206016	52	6246
2026-01-26 23:16:00.38	129.24	6.52	-40.2	-41.5	20.8	0.00e+00	0	27	0	76546048	52	6792
2026-01-26 23:16:04.42	129.09	6.82	-40.0	-41.2	21.1	0.00e+00	0	27	0	83886080	54	5857
2026-01-26 23:16:08.46	128.93	7.12	-40.0	-41.3	21.1	0.00e+00	0	27	0	91226112	52	6657
2026-01-26 23:16:12.50	128.77	7.43	-39.6	-40.8	21.6	0.00e+00	0	27	0	98566144	52	6276
2026-01-26 23:16:16.54	128.60	7.74	-39.6	-40.7	21.7	0.00e+00	0	27	0	106954752	52	6218
2026-01-26 23:16:20.58	128.43	8.05	-39.4	-40.5	22.0	0.00e+00	0	27	0	114294784	52	6053
2026-01-26 23:16:24.62	128.26	8.37	-39.5	-40.6	21.9	0.00e+00	0	27	0	121634816	52	6123
2026-01-26 23:16:28.66	128.09	8.69	-39.5	-40.7	21.9	0.00e+00	0	27	0	128974848	52	6178
2026-01-26 23:16:32.70	127.90	9.01	-39.1	-40.1	22.4	0.00e+00	0	27	0	137363456	52	5796
2026-01-26 23:16:36.74	127.72	9.34	-39.2	-40.3	22.2	0.00e+00	0	27	0	144703488	52	5926
2026-01-26 23:16:40.77	127.53	9.67	-39.3	-40.4	22.2	0.00e+00	0	27	0	152043520	52	5973
2026-01-26 23:16:44.80	127.33	10.01	-38.8	-39.7	22.7	0.00e+00	0	27	0	159383552	50	6229
2026-01-26 23:16:48.84	127.14	10.35	-38.7	-39.7	22.8	0.00e+00	0	27	0	166723584	50	6211
2026-01-26 23:16:52.88	126.93	10.70	-38.8	-39.8	22.6	0.00e+00	0	27	0	175112192	50	6297
2026-01-26 23:16:56.91	126.72	11.05	-38.5	-39.5	23.0	0.00e+00	0	27	0	182452224	50	6045
2026-01-26 23:17:00.95	126.51	11.40	-38.4	-39.3	23.2	0.00e+00	0	27	0	189792256	50	5959
2026-01-26 23:17:04.99	126.29	11.76	-38.6	-39.6	23.0	0.00e+00	0	27	0	197132288	50	6140
2026-01-26 23:17:09.03	126.06	12.13	-38.5	-39.4	23.1	0.00e+00	0	27	0	205520896	50	6016
2026-01-26 23:17:13.07	125.83	12.50	-38.2	-39.1	23.5	0.00e+00	0	27	0	212860928	50	5765
2026-01-26 23:17:17.11	125.59	12.87	-38.4	-39.4	23.1	0.00e+00	0	27	0	220200960	50	6016
2026-01-26 23:17:21.15	125.34	13.25	-38.2	-39.1	23.4	0.00e+00	0	27	0	227540992	50	5799
2026-01-26 23:17:25.19	125.09	13.64	-38.1	-39.0	23.6	0.00e+00	0	27	0	234881024	50	5708
2026-01-26 23:17:29.22	124.83	14.03	-38.2	-39.1	23.4	0.00e+00	0	27	0	243269632	50	5806
2026-01-26 23:17:33.26	124.57	14.42	-38.4	-39.3	23.2	0.00e+00	0	27	0	250609664	50	5964
2026-01-26 23:17:37.30	124.29	14.83	-38.1	-39.0	23.6	0.00e+00	0	27	0	257949696	50	5748
2026-01-26 23:17:41.33	124.01	15.23	-38.1	-39.1	23.5	0.00e+00	0	27	0	265289728	50	5771
2026-01-26 23:17:45.36	123.72	15.65	-38.0	-38.9	23.7	0.00e+00	0	27	0	273678336	50	5668
2026-01-26 23:17:49.40	123.42	16.07	-37.9	-38.8	23.7	0.00e+00	0	27	0	281018368	50	5614
2026-01-26 23:17:53.44	123.12	16.50	-37.9	-38.8	23.8	0.00e+00	0	27	0	288358400	50	5626
2026-01-26 23:17:57.48	122.80	16.93	-37.8	-38.7	23.9	0.00e+00	0	27	0	295698432	48	6184
2026-01-26 23:18:01.52	122.47	17.37	-37.9	-38.8	23.8	0.00e+00	0	27	0	303038464	48	6272
2026-01-26 23:18:05.56	122.14	17.82	-38.2	-39.1	23.4	0.00e+00	0	27	0	311427072	48	6518
2026-01-26 23:18:09.60	121.79	18.28	-38.2	-39.1	23.6	0.00e+00	0	27	0	318767104	48	6474
2026-01-26 23:18:13.64	121.43	18.74	-38.4	-39.3	23.4	0.00e+00	0	27	0	326107136	48	6691
2026-01-26 23:18:17.68	121.06	19.21	-38.4	-39.3	23.4	0.00e+00	0	27	0	333447168	48	6687
2026-01-26 23:18:21.71	120.68	19.69	-38.7	-39.7	23.1	0.00e+00	0	27	0	341835776	48	6949
2026-01-26 23:18:25.75	120.29	20.18	-38.9	-39.9	22.9	0.00e+00	0	27	0	349175808	50	6368
2026-01-26 23:18:29.78	119.88	20.67	-39.0	-40.0	22.8	0.00e+00	0	27	0	356515840	50	6424
2026-01-26 23:18:33.82	119.46	21.17	-39.0	-40.0	22.8	0.00e+00	0	27	0	363855872	50	6428
2026-01-26 23:18:37.86	119.03	21.69	-39.0	-39.9	22.8	0.00e+00	0	27	0	371195904	50	6390
2026-01-26 23:18:41.90	118.58	22.21	-39.3	-40.3	22.6	0.00e+00	0	27	0	379584512	50	6623
2026-01-26 23:18:45.93	118.11	22.73	-39.2	-40.2	22.7	0.00e+00	0	27	0	386924544	50	6564
2026-01-26 23:18:49.97	117.63	23.27	-39.2	-40.2	22.6	0.00e+00	0	27	0	394264576	50	6571
2026-01-26 23:18:54.01	117.13	23.82	-39.1	-40.1	22.8	0.00e+00	0	27	0	401604608	50	6493
2026-01-26 23:18:58.05	116.61	24.37	-39.3	-40.3	22.5	0.00e+00	0	27	0	409993216	50	6676
2026-01-26 23:19:02.08	116.07	24.94	-39.1	-40.1	22.8	0.00e+00	0	27	0	417333248	50	6506
2026-01-26 23:19:06.12	115.52	25.51	-39.0	-40.0	22.9	0.00e+00	0	27	0	424673280	50	6426
2026-01-26 23:19:10.16	114.94	26.10	-39.0	-40.0	23.0	0.00e+00	0	27	0	432013312	50	6425
2026-01-26 23:19:14.19	114.34	26.69	-39.7	-40.8	22.2	0.00e+00	0	27	0	439353344	50	7044
2026-01-26 23:19:18.23	113.71	27.29	-39.1	-40.0	22.9	0.00e+00	0	27	0	447741952	50	6461
2026-01-26 23:19:22.27	113.06	27.90	-38.8	-39.8	23.1	0.00e+00	0	27	0	455081984	50	6261
2026-01-26 23:19:26.31	112.39	28.53	-39.2	-40.1	22.9	0.00e+00	0	27	0	462422016	50	6521
2026-01-26 23:19:30.35	111.69	29.16	-39.2	-40.2	22.7	0.00e+00	0	27	0	469762048	50	6609
2026-01-26 23:19:34.39	110.96	29.80	-39.3	-40.3	22.6	0.00e+00	0	27	0	478150656	50	6657
2026-01-26 23:19:38.43	110.20	30.45	-39.6	-40.6	22.4	0.00e+00	0	27	0	485490688	52	6150
2026-01-26 23:19:42.46	109.40	31.11	-40.0	-41.1	22.0	0.00e+00	0	27	0	492830720	52	6465
2026-01-26 23:19:46.50	108.58	31.77	-40.4	-41.5	21.6	0.00e+00	0	27	0	500170752	52	6814
2026-01-26 23:19:50.54	107.72	32.45	-40.4	-41.7	21.4	0.00e+00	0	27	0	507510784	54	6223
2026-01-26 23:19:54.58	106.82	33.13	-40.3	-41.5	21.6	0.00e+00	0	27	0	515899392	54	6073
2026-01-26 23:19:58.61	105.88	33.82	-40.5	-41.6	21.6	0.00e+00	0	27	0	523239424	54	6133
2026-01-26 23:20:02.65	104.90	34.51	-40.7	-41.9	21.2	0.00e+00	0	27	0	530579456	54	6364
2026-01-26 23:20:06.68	103.88	35.21	-40.4	-41.5	21.6	0.00e+00	0	27	0	537919488	54	6068
2026-01-26 23:20:10.72	102.82	35.92	-40.3	-41.4	21.7	0.00e+00	0	27	0	545259520	54	6031
2026-01-26 23:20:14.76	101.70	36.63	-40.6	-41.8	21.4	0.00e+00	0	27	0	553648128	54	6251
2026-01-26 23:20:18.81	100.53	37.34	-40.1	-41.2	21.7	0.00e+00	0	27	0	560988160	54	5881
2026-01-26 23:20:22.85	99.31	38.06	-40.1	-41.2	22.0	0.00e+00	0	27	0	568328192	54	5846
2026-01-26 23:20:26.88	98.04	38.77	-39.5	-40.5	22.5	0.00e+00	0	27	0	575668224	52	6075
2026-01-26 23:20:30.92	96.71	39.48	-39.9	-41.0	22.1	0.00e+00	0	27	0	584056832	52	6395
2026-01-26 23:20:34.95	95.33	40.18	-40.4	-41.5	21.5	0.00e+00	0	27	0	591396864	52	6829
2026-01-26 23:20:38.99	93.88	40.89	-40.6	-41.8	21.4	0.00e+00	0	27	0	598736896	52	7011
2026-01-26 23:20:43.03	92.36	41.58	-41.0	-42.3	20.9	0.00e+00	0	27	0	606076928	54	6625
2026-01-26 23:20:47.07	90.78	42.26	-40.6	-41.8	21.3	0.00e+00	0	27	0	613416960	54	6273
2026-01-26 23:20:51.11	89.13	42.93	-39.8	-40.8	22.4	0.00e+00	0	27	0	621805568	54	5613
2026-01-26 23:20:55.14	87.41	43.58	-38.6	-39.5	23.5	0.00e+00	0	27	0	629145600	50	6079
2026-01-26 23:20:59.18	85.63	44.21	-37.8	-38.6	24.2	0.00e+00	0	27	0	636485632	48	6130
2026-01-26 23:21:03.22	83.76	44.82	-38.1	-39.0	23.9	0.00e+00	0	27	0	643825664	48	6417
2026-01-26 23:21:07.25	81.84	45.40	-37.9	-38.7	23.7	0.00e+00	0	27	0	652214272	48	6238
2026-01-26 23:21:11.29	79.83	45.95	-39.1	-40.1	23.0	0.00e+00	0	27	0	659554304	50	6476
2026-01-26 23:21:15.33	77.76	46.47	-40.0	-41.1	22.1	0.00e+00	0	27	0	666894336	52	6508
2026-01-26 23:21:19.37	75.62	46.96	-40.0	-41.0	22.1	0.00e+00	0	27	0	674234368	52	6460
2026-01-26 23:21:23.40	73.42	47.40	-41.0	-42.2	21.1	0.00e+00	0	27	0	681574400	54	6595
2026-01-26 23:21:27.45	71.15	47.80	-41.5	-42.9	20.4	0.00e+00	0	27	0	689963008	54	7090
2026-01-26 23:21:31.48	68.84	48.15	-41.9	-43.2	20.2	0.00e+00	0	27	0	697303040	56	6581
2026-01-26 23:21:35.52	66.47	48.46	-40.5	-41.6	21.5	0.00e+00	0	27	0	704643072	54	6162
2026-01-26 23:21:39.56	64.05	48.71	-40.3	-41.4	21.7	0.00e+00	0	27	0	711983104	54	6019
2026-01-26 23:21:43.59	61.61	48.90	-39.9	-40.9	22.2	0.00e+00	0	27	0	720371712	54	5674
2026-01-26 23:21:47.64	59.13	49.05	-39.5	-40.5	22.5	0.00e+00	0	27	0	727711744	52	6092
2026-01-26 23:21:51.68	56.63	49.13	-40.1	-41.2	21.9	0.00e+00	0	27	0	735051776	52	6587
2026-01-26 23:21:55.72	54.13	49.15	-39.7	-40.7	22.4	0.00e+00	0	27	0	742391808	52	6206
2026-01-26 23:21:59.75	51.64	49.12	-39.9	-41.0	22.2	0.00e+00	0	27	0	749731840	52	6425
2026-01-26 23:22:03.79	49.15	49.02	-39.7	-40.7	22.5	0.00e+00	0	27	0	758120448	52	6207
2026-01-26 23:22:07.83	46.68	48.87	-39.7	-40.7	22.4	0.00e+00	0	27	0	765460480	52	6228
2026-01-26 23:22:11.87	44.24	48.67	-39.9	-40.9	22.2	0.00e+00	0	27	0	772800512	52	6362
2026-01-26 23:22:15.90	41.84	48.41	-39.8	-40.8	22.4	0.00e+00	0	27	0	780140544	52	6286
2026-01-26 23:22:19.94	39.48	48.09	-40.1	-41.2	22.0	0.00e+00	0	27	0	788529152	52	6542
2026-01-26 23:22:23.98	37.17	47.73	-40.9	-42.1	21.1	0.00e+00	0	27	0	795869184	54	6508
2026-01-26 23:22:28.03	34.91	47.32	-40.3	-41.4	21.7	0.00e+00	0	27	0	803209216	54	6025
2026-01-26 23:22:32.07	32.72	46.87	-40.5	-41.6	21.6	0.00e+00	0	27	0	810549248	54	6154
2026-01-26 23:22:36.11	30.60	46.38	-39.9	-41.0	22.2	0.00e+00	0	27	0	817889280	54	5721
2026-01-26 23:22:40.14	28.55	45.86	-39.1	-40.1	23.1	0.00e+00	0	27	0	826277888	52	5796
2026-01-26 23:22:44.18	26.56	45.30	-39.2	-40.2	22.9	0.00e+00	0	27	0	833617920	52	5831
2026-01-26 23:22:48.23	24.64	44.71	-38.5	-39.4	23.6	0.00e+00	0	27	0	840957952	50	6000
2026-01-26 23:22:52.26	22.80	44.10	-38.5	-39.3	23.7	0.00e+00	0	27	0	848297984	50	5955
2026-01-26 23:22:56.30	21.03	43.47	-38.2	-39.1	23.9	0.00e+00	0	27	0	856686592	50	5768
2026-01-26 23:23:00.34	19.32	42.82	-39.0	-40.0	23.1	0.00e+00	0	27	0	864026624	50	6417
2026-01-26 23:23:04.38	17.69	42.15	-38.8	-39.7	23.3	0.00e+00	0	27	0	871366656	50	6224
2026-01-26 23:23:08.41	16.13	41.47	-38.4	-39.3	23.5	0.00e+00	0	27	0	878706688	50	5946
2026-01-26 23:23:12.44	14.63	40.78	-38.6	-39.5	23.4	0.00e+00	0	27	0	886046720	50	6082
2026-01-26 23:23:16.48	13.20	40.08	-38.9	-39.9	23.1	0.00e+00	0	27	0	894435328	50	6344
2026-01-26 23:23:20.52	11.82	39.38	-39.9	-41.0	22.2	0.00e+00	0	27	0	901775360	52	6428
2026-01-26 23:23:24.56	10.50	38.67	-40.2	-41.3	21.9	0.00e+00	0	27	0	909115392	52	6665
2026-01-26 23:23:28.60	9.24	37.96	-40.8	-42.0	21.1	0.00e+00	0	27	0	916455424	54	6397
2026-01-26 23:23:32.63	8.04	37.25	-41.0	-42.2	21.0	0.00e+00	0	27	0	923795456	54	6595
2026-01-26 23:23:36.67	6.89	36.54	-41.7	-43.0	20.3	0.00e+00	0	27	0	932184064	56	6447
2026-01-26 23:23:40.71	5.79	35.83	-40.8	-42.0	21.2	0.00e+00	0	27	0	939524096	56	5719
2026-01-26 23:23:44.75	4.73	35.13	-41.0	-42.2	21.0	0.00e+00	0	27	0	946864128	54	6573
2026-01-26 23:23:48.79	3.72	34.43	-41.2	-42.4	20.8	0.00e+00	0	27	0	954204160	54	6725
2026-01-26 23:23:52.83	2.75	33.74	-40.8	-42.0	21.1	0.00e+00	0	27	0	962592768	54	6426
2026-01-26 23:23:56.88	1.82	33.05	-40.3	-41.3	21.7	0.00e+00	0	27	0	969932800	54	5952
2026-01-26 23:24:00.90	0.94	32.37	-40.6	-41.7	21.3	0.00e+00	0	28	0	977272832	54	6208
2026-01-26 23:24:04.89	0.09	31.71	-40.8	-42.0	21.0	0.00e+00	0	27	0	984612864	54	6457
2026-01-26 23:24:08.93	359.28	31.05	-40.8	-42.0	21.1	0.00e+00	0	27	0	991952896	54	6452
2026-01-26 23:24:12.97	358.49	30.39	-40.9	-42.1	21.1	0.00e+00	0	27	0	1000341504	54	6533
2026-01-26 23:24:17.01	357.74	29.75	-40.5	-41.7	21.5	0.00e+00	0	27	0	1007681536	54	6175
2026-01-26 23:24:21.05	357.01	29.11	-40.4	-41.6	21.4	0.00e+00	0	27	0	1015021568	54	6144
2026-01-26 23:24:25.09	356.32	28.48	-40.0	-41.0	22.0	0.00e+00	0	27	0	1022361600	54	5749
2026-01-26 23:24:29.13	355.65	27.87	-39.5	-40.5	22.6	0.00e+00	0	27	0	1029701632	52	6082
2026-01-26 23:24:33.17	355.01	27.26	-39.3	-40.3	22.7	0.00e+00	0	28	0	1038090240	52	5928
2026-01-26 23:24:37.21	354.39	26.66	-39.2	-40.3	22.7	0.00e+00	0	27	0	1045430272	52	5914
2026-01-26 23:24:41.24	353.80	26.07	-39.1	-40.1	22.8	0.00e+00	0	27	0	1052770304	52	5785
2026-01-26 23:24:45.28	353.23	25.49	-39.2	-40.1	22.9	0.00e+00	0	28	0	1060110336	52	5820
2026-01-26 23:24:49.32	352.67	24.92	-38.4	-39.4	23.4	0.00e+00	0	27	0	1068498944	50	5969
2026-01-26 23:24:53.36	352.14	24.36	-38.7	-39.6	23.2	0.00e+00	0	27	0	1075838976	50	6168
2026-01-26 23:24:57.40	351.63	23.81	-39.1	-40.1	22.7	0.00e+00	0	27	0	1083179008	50	6521
2026-01-26 23:25:01.43	351.14	23.26	-39.0	-40.0	22.9	0.00e+00	0	28	0	1090519040	50	6446
2026-01-26 23:25:05.47	350.66	22.73	-38.5	-39.5	23.4	0.00e+00	0	27	0	1097859072	50	6045
2026-01-26 23:25:09.51	350.20	22.20	-38.8	-39.7	23.1	0.00e+00	0	27	0	1106247680	50	6228
2026-01-26 23:25:13.55	349.75	21.69	-38.7	-39.7	23.2	0.00e+00	0	27	0	1113587712	50	6201
2026-01-26 23:25:17.58	349.32	21.18	-38.6	-39.6	23.3	0.00e+00	0	27	0	1120927744	50	6117
2026-01-26 23:25:21.62	348.91	20.68	-38.6	-39.6	23.3	0.00e+00	0	28	0	1128267776	50	6120
2026-01-26 23:25:25.65	348.51	20.19	-38.8	-39.8	23.0	0.00e+00	0	27	0	1136656384	50	6275
2026-01-26 23:25:29.68	348.12	19.71	-39.1	-40.1	22.8	0.00e+00	0	27	0	1143996416	50	6521
2026-01-26 23:25:33.72	347.74	19.23	-39.2	-40.3	22.5	0.00e+00	0	27	0	1151336448	50	6637
2026-01-26 23:25:37.76	347.38	18.76	-39.3	-40.3	22.6	0.00e+00	0	27	0	1158676480	50	6651
2026-01-26 23:25:41.80	347.02	18.30	-39.1	-40.1	22.8	0.00e+00	0	27	0	1166016512	50	6474
2026-01-26 23:25:45.83	346.68	17.85	-38.8	-39.7	23.1	0.00e+00	0	27	0	1174405120	50	6229
2026-01-26 23:25:49.86	346.35	17.40	-38.8	-39.8	22.9	0.00e+00	0	27	0	1181745152	50	6269
2026-01-26 23:25:53.90	346.03	16.96	-39.0	-40.0	22.7	0.00e+00	0	27	0	1189085184	50	6431
2026-01-26 23:25:57.94	345.71	16.53	-39.5	-40.5	22.3	0.00e+00	0	27	0	1196425216	50	6829
2026-01-26 23:26:01.97	345.41	16.11	-39.7	-40.8	22.0	0.00e+00	0	27	0	1204813824	52	6250
2026-01-26 23:26:06.01	345.12	15.69	-39.9	-41.0	21.9	0.00e+00	0	28	0	1212153856	52	6409
2026-01-26 23:26:10.04	344.83	15.28	-40.1	-41.2	21.6	0.00e+00	0	28	0	1219493888	52	6608
2026-01-26 23:26:14.08	344.55	14.87	-40.2	-41.3	21.3	0.00e+00	0	27	0	1226833920	52	6654
2026-01-26 23:26:18.12	344.28	14.47	-40.1	-41.2	21.6	0.00e+00	0	27	0	1234173952	52	6582
2026-01-26 23:26:22.16	344.02	14.07	-40.2	-41.4	21.4	0.00e+00	0	27	0	1242562560	52	6714
2026-01-26 23:26:26.19	343.77	13.68	-40.3	-41.4	21.4	0.00e+00	0	28	0	1249902592	52	6736
2026-01-26 23:26:30.23	343.52	13.30	-40.3	-41.5	21.4	0.00e+00	0	27	0	1257242624	52	6789
2026-01-26 23:26:34.27	343.28	12.92	-40.0	-41.1	21.7	0.00e+00	0	27	0	1264582656	52	6532
2026-01-26 23:26:38.31	343.04	12.55	-40.0	-41.1	21.7	0.00e+00	0	27	0	1272971264	52	6503
2026-01-26 23:26:42.35	342.81	12.18	-40.0	-41.2	21.6	0.00e+00	0	27	0	1280311296	52	6541
2026-01-26 23:26:46.38	342.59	11.82	-40.4	-41.5	21.3	0.00e+00	0	28	0	1287651328	52	6833
2026-01-26 23:26:50.42	342.37	11.46	-40.4	-41.5	21.2	0.00e+00	0	27	0	1294991360	52	6842
2026-01-26 23:26:54.46	342.16	11.11	-40.4	-41.6	21.2	0.00e+00	0	27	0	1302331392	52	6918
2026-01-26 23:26:58.49	341.96	10.76	-40.6	-41.8	21.0	0.00e+00	0	27	0	1310720000	52	7066
2026-01-26 23:27:02.53	341.75	10.42	-40.5	-41.8	20.8	0.00e+00	0	27	0	1318060032	54	6259
2026-01-26 23:27:06.57	341.56	10.08	-40.6	-41.9	20.7	0.00e+00	0	27	0	1325400064	54	6339
2026-01-26 23:27:10.61	341.37	9.74	-40.7	-42.0	20.7	0.00e+00	0	27	0	1332740096	54	6395
2026-01-26 23:27:14.64	341.18	9.41	-40.7	-42.1	20.6	0.00e+00	0	27	0	1341128704	54	6472
2026-01-26 23:27:18.68	341.00	9.08	-40.4	-41.7	20.8	0.00e+00	0	27	0	1348468736	54	6235
2026-01-26 23:27:22.72	340.82	8.76	-40.7	-42.1	20.5	0.00e+00	0	27	0	1355808768	54	6475
2026-01-26 23:27:26.75	340.65	8.44	-40.8	-42.1	20.3	0.00e+00	0	27	0	1363148800	54	6520
2026-01-26 23:27:30.79	340.48	8.12	-41.0	-42.5	20.1	0.00e+00	0	27	0	1370488832	54	6773
2026-01-26 23:27:34.83	340.31	7.81	-41.2	-42.7	19.8	0.00e+00	0	27	0	1378877440	54	6956
2026-01-26 23:27:38.87	340.15	7.50	-41.6	-43.2	19.4	0.00e+00	0	27	0	1386217472	54	7385
2026-01-26 23:27:42.91	339.99	7.20	-41.9	-43.5	19.1	0.00e+00	0	27	0	1393557504	56	6783
2026-01-26 23:27:46.95	339.84	6.90	-41.9	-43.6	19.0	0.00e+00	0	27	0	1400897536	56	6854
2026-01-26 23:27:50.99	339.69	6.60	-41.9	-43.6	18.8	0.00e+00	0	27	0	1409286144	56	6865
2026-01-26 23:27:55.03	339.54	6.30	-42.0	-43.8	18.6	0.00e+00	0	27	0	1416626176	56	7029
2026-01-26 23:27:59.07	339.40	6.01	-41.8	-43.5	18.9	0.00e+00	0	27	0	1423966208	56	6773
2026-01-26 23:28:03.10	339.26	5.72	-41.8	-43.6	18.5	0.00e+00	0	27	0	1431306240	56	6875
2026-01-26 23:28:07.14	339.12	5.43	-42.3	-44.4	17.3	0.00e+00	0	27	0	1438646272	56	7520
2026-01-26 23:28:11.17	338.99	5.15	-43.1	-45.9	15.1	0.00e+00	0	27	0	1447034880	58	8024
2026-01-26 23:28:15.21	338.85	4.87	-43.7	-47.8	12.1	1.72e-04	0	28	0	1454374912	58	9951
2026-01-26 23:28:19.25	338.73	4.59	-44.2	-50.1	9.2	1.78e-02	0	28	0	1461714944	60	11501
2026-01-26 23:28:23.28	338.60	4.32	-44.4	-52.4	5.7	3.40e-01	0	27	0	1469054976	60	15103
2026-01-26 23:28:27.31	338.48	4.05	-44.3	-56.6	3.7	1.40e+00	0	28	104	1474297856	60	24401
2026-01-26 23:28:31.35	338.35	3.78	-44.2	-58.4	3.6	1.51e+00	0	28	104	1474297856	60	30220
2026-01-26 23:28:35.39	338.24	3.51	-44.1	-59.2	3.6	1.51e+00	0	28	104	1474297856	60	32945
2026-01-26 23:28:39.42	338.12	3.25	-44.1	-59.3	3.6	1.51e+00	0	28	104	1474297856	60	33255
2026-01-26 23:28:43.45	338.01	2.98	-44.1	-59.3	3.6	1.51e+00	0	28	104	1474297856	60	33170
2026-01-26 23:28:47.49	337.90	2.72	-48.9	-64.1	3.6	1.51e+00	0	28	104	1474297856	60	57952
2026-01-26 23:28:51.52	337.79	2.47	-49.2	-64.4	3.6	1.51e+00	0	28	104	1474297856	60	60310
2026-01-26 23:28:55.55	337.68	2.21	-49.3	-64.5	3.6	1.51e+00	0	28	104	1474297856	60	60385
2026-01-26 23:28:59.58	337.57	1.96	-49.0	-64.4	3.6	1.51e+00	0	28	104	1474297856	60	59860
2026-01-26 23:29:03.61	337.47	1.71	-49.1	-64.3	3.6	1.51e+00	0	28	104	1474297856	60	59543
2026-01-26 23:29:07.64	337.37	1.46	-49.1	-64.3	3.6	1.51e+00	0	28	104	1474297856	60	59540
2026-01-26 23:29:11.67	337.27	1.21	-49.1	-64.4	3.6	1.51e+00	0	28	104	1474297856	60	59656
2026-01-26 23:29:15.70	337.18	0.97	-49.1	-64.3	3.6	1.51e+00	0	28	104	1474297856	60	59560
2026-01-26 23:29:19.74	337.08	0.72	-49.1	-64.4	3.6	1.51e+00	0	28	104	1474297856	60	59756
2026-01-26 23:29:23.77	336.99	0.48	-49.1	-64.3	3.6	1.51e+00	0	28	104	1474297856	60	59630
2026-01-26 23:29:27.81	336.90	0.24	-49.2	-64.4	3.6	1.51e+00	0	28	104	1474297856	60	60006
2026-01-26 23:29:31.85	336.81	0.00	-49.2	-64.4	3.6	1.51e+00	0	28	104	1474297856	60	60090

#Closed at: 2026-01-26 23:29:34
#Recorded file [1474 MB]: D:/lorett/data/35029_260127_111423.dat