passes_logs/2026/01/26/R4.6S_Anadyr/R4.6S_Anadyr__20260126_125802_SUOMI_NPP_rec.log

#Pass ID: 20260126_125802_SUOMI NPP
#Satellite: SUOMI NPP
#Configuration: NPP
#almurnet v.1.7.20251203
#Start time: 2026-01-26 12:58:05

#Version: 2.2.20231116
#Station: R4.6S_Anadyr
#Location: 177.4865 lon 64.73178 lat
#TLE: 1 37849U 11061A   26025.95877665  .00000192  00000+0  11229-3 0  9997
#TLE: 2 37849  98.7822 327.9136 0002155  44.9234 315.2116 14.19530109738267

#Time	Az	El	Level	Level2	SNR	BER	BlckErr	Temp	State	Recorded	gain1	gain2
2026-01-26 12:58:05.61	18.92	0.15	-49.4	-62.0	3.4	1.52e+00	0	26	0	0	60	44127
2026-01-26 12:58:09.65	19.16	0.36	-49.4	-64.6	3.6	1.51e+00	0	28	104	0	60	61177
2026-01-26 12:58:13.68	19.40	0.58	-49.3	-64.5	3.6	1.51e+00	0	28	104	0	60	60743
2026-01-26 12:58:17.72	19.65	0.79	-49.2	-64.4	3.6	1.51e+00	0	28	104	0	60	59660
2026-01-26 12:58:21.76	19.90	1.01	-49.0	-64.2	3.6	1.51e+00	0	28	104	0	60	58521
2026-01-26 12:58:25.80	20.16	1.23	-48.7	-63.8	3.6	1.51e+00	0	28	104	0	60	56297
2026-01-26 12:58:29.84	20.41	1.45	-47.9	-63.0	3.6	1.51e+00	0	28	104	0	60	51135
2026-01-26 12:58:33.88	20.67	1.68	-47.7	-62.8	3.6	1.51e+00	0	28	104	0	60	50052
2026-01-26 12:58:37.92	20.94	1.90	-47.7	-62.7	3.6	1.51e+00	0	28	104	0	60	49144
2026-01-26 12:58:41.96	21.21	2.12	-47.7	-62.8	3.6	1.51e+00	0	28	104	0	60	50003
2026-01-26 12:58:46.00	21.48	2.35	-47.7	-62.0	3.6	1.51e+00	0	28	104	0	60	45646
2026-01-26 12:58:50.03	21.75	2.58	-47.7	-62.0	3.6	1.51e+00	0	29	104	0	60	45687
2026-01-26 12:58:54.08	22.03	2.81	-44.4	-47.4	14.6	1.90e-05	0	29	0	4194304	60	8488
2026-01-26 12:58:58.11	22.32	3.04	-41.6	-43.2	18.6	0.00e+00	0	29	0	11534336	56	6599
2026-01-26 12:59:02.16	22.61	3.27	-44.8	-48.1	13.6	0.00e+00	92	29	0	18874368	60	9201
2026-01-26 12:59:06.19	22.90	3.50	-45.7	-50.1	12.0	6.74e-01	0	29	104	23068672	60	11520
2026-01-26 12:59:10.24	23.20	3.74	-43.1	-45.2	17.2	0.00e+00	0	29	0	26214400	60	6582
2026-01-26 12:59:14.27	23.50	3.97	-42.4	-44.3	17.3	0.00e+00	57	28	0	33554432	58	6662
2026-01-26 12:59:18.31	23.80	4.21	-42.1	-43.9	18.2	0.00e+00	0	29	0	40894464	58	6325
2026-01-26 12:59:22.34	24.11	4.45	-41.6	-43.2	19.0	0.00e+00	0	29	0	48234496	56	6546
2026-01-26 12:59:26.38	24.43	4.69	-40.8	-42.1	19.9	0.00e+00	0	29	0	55574528	54	6524
2026-01-26 12:59:30.41	24.75	4.93	-40.4	-41.7	20.2	0.00e+00	59	29	0	63963136	54	6221
2026-01-26 12:59:34.44	25.07	5.17	-40.0	-41.2	20.8	0.00e+00	0	29	0	71303168	54	5879
2026-01-26 12:59:38.48	25.40	5.42	-39.9	-41.1	20.9	0.00e+00	0	29	0	78643200	52	6487
2026-01-26 12:59:42.51	25.74	5.66	-40.0	-41.2	20.7	0.00e+00	0	29	0	85983232	52	6609
2026-01-26 12:59:46.55	26.08	5.91	-40.0	-41.3	20.7	0.00e+00	92	29	0	93323264	52	6640
2026-01-26 12:59:50.58	26.43	6.16	-40.7	-42.1	20.0	0.00e+00	0	29	0	101711872	52	7261
2026-01-26 12:59:54.62	26.78	6.41	-39.8	-41.0	21.0	0.00e+00	0	29	0	109051904	54	5710
2026-01-26 12:59:58.66	27.14	6.67	-39.8	-41.0	21.1	0.00e+00	13	29	0	116391936	54	5723
2026-01-26 13:00:02.70	27.50	6.92	-40.2	-41.4	20.7	0.00e+00	0	29	0	123731968	54	6031
2026-01-26 13:00:06.73	27.87	7.18	-40.4	-41.6	20.6	0.00e+00	0	29	0	132120576	54	6151
2026-01-26 13:00:10.77	28.25	7.43	-40.0	-41.2	21.0	0.00e+00	0	29	0	139460608	52	6575
2026-01-26 13:00:14.81	28.63	7.69	-39.5	-40.6	21.4	0.00e+00	15	29	0	146800640	52	6154
2026-01-26 13:00:18.84	29.02	7.95	-39.2	-40.2	21.8	0.00e+00	0	29	0	154140672	52	5879
2026-01-26 13:00:22.88	29.41	8.21	-39.0	-40.0	22.0	0.00e+00	0	29	0	161480704	52	5758
2026-01-26 13:00:26.91	29.81	8.48	-38.9	-40.0	22.1	0.00e+00	0	29	0	169869312	52	5719
2026-01-26 13:00:30.95	30.22	8.74	-39.1	-40.1	22.0	0.00e+00	80	29	0	177209344	52	5800
2026-01-26 13:00:34.98	30.64	9.01	-39.6	-40.7	21.6	0.00e+00	0	29	0	184549376	52	6211
2026-01-26 13:00:39.02	31.07	9.28	-39.8	-40.9	21.3	0.00e+00	0	29	0	191889408	52	6361
2026-01-26 13:00:43.06	31.50	9.55	-39.8	-41.0	21.3	0.00e+00	0	29	0	199229440	52	6420
2026-01-26 13:00:47.10	31.94	9.82	-40.3	-41.5	20.9	0.00e+00	92	29	0	207618048	52	6778
2026-01-26 13:00:51.13	32.38	10.09	-39.9	-41.1	21.3	0.00e+00	0	29	0	214958080	52	6505
2026-01-26 13:00:55.17	32.84	10.37	-39.8	-40.9	21.5	0.00e+00	0	29	0	222298112	52	6379
2026-01-26 13:00:59.21	33.30	10.65	-39.4	-40.5	21.8	0.00e+00	17	29	0	229638144	52	6084
2026-01-26 13:01:03.24	33.77	10.92	-39.1	-40.2	22.0	0.00e+00	0	29	0	238026752	52	5847
2026-01-26 13:01:07.27	34.25	11.20	-38.6	-39.6	22.1	0.00e+00	18	29	0	245366784	50	6156
2026-01-26 13:01:11.31	34.74	11.48	-38.3	-39.3	22.8	0.00e+00	0	29	0	252706816	50	5928
2026-01-26 13:01:15.34	35.24	11.76	-38.2	-39.2	22.8	0.00e+00	90	29	0	260046848	50	5852
2026-01-26 13:01:19.38	35.75	12.05	-38.3	-39.2	22.8	0.00e+00	0	29	0	267386880	50	5873
2026-01-26 13:01:23.41	36.27	12.33	-38.5	-39.5	22.7	0.00e+00	0	29	0	275775488	50	6064
2026-01-26 13:01:27.46	36.79	12.62	-38.7	-39.7	22.6	0.00e+00	0	29	0	283115520	50	6196
2026-01-26 13:01:31.49	37.33	12.91	-38.5	-39.5	22.6	0.00e+00	92	29	0	290455552	50	6081
2026-01-26 13:01:35.53	37.88	13.19	-38.8	-39.8	22.4	0.00e+00	0	29	0	297795584	50	6301
2026-01-26 13:01:39.56	38.44	13.48	-38.8	-39.8	22.4	0.00e+00	0	29	0	306184192	50	6317
2026-01-26 13:01:43.60	39.00	13.77	-38.4	-39.4	22.9	0.00e+00	0	29	0	313524224	50	6007
2026-01-26 13:01:47.64	39.58	14.07	-37.9	-38.8	23.3	0.00e+00	90	29	0	320864256	50	5624
2026-01-26 13:01:51.68	40.18	14.36	-37.6	-38.5	23.5	0.00e+00	0	29	0	328204288	48	6097
2026-01-26 13:01:55.72	40.78	14.65	-37.6	-38.5	23.5	0.00e+00	0	29	0	335544320	48	6034
2026-01-26 13:01:59.75	41.39	14.94	-37.6	-38.5	22.5	0.00e+00	18	29	0	343932928	48	6066
2026-01-26 13:02:03.79	42.02	15.24	-37.7	-38.6	23.5	0.00e+00	0	29	0	351272960	48	6142
2026-01-26 13:02:07.82	42.65	15.53	-38.3	-39.2	23.0	0.00e+00	0	29	0	358612992	48	6608
2026-01-26 13:02:11.86	43.30	15.83	-38.4	-39.4	22.9	0.00e+00	0	29	0	365953024	48	6712
2026-01-26 13:02:15.90	43.96	16.12	-38.1	-39.0	23.2	0.00e+00	81	29	0	374341632	48	6413
2026-01-26 13:02:19.93	44.64	16.42	-38.1	-39.0	23.2	0.00e+00	0	29	0	381681664	48	6429
2026-01-26 13:02:23.96	45.32	16.71	-37.4	-38.3	23.8	0.00e+00	0	29	0	389021696	48	5911
2026-01-26 13:02:28.00	46.03	17.01	-37.2	-38.1	23.9	0.00e+00	0	30	0	396361728	48	5801
2026-01-26 13:02:32.04	46.74	17.30	-37.2	-38.1	23.8	0.00e+00	79	29	0	403701760	48	5801
2026-01-26 13:02:36.07	47.47	17.59	-37.3	-38.2	23.8	0.00e+00	0	29	0	412090368	48	5860
2026-01-26 13:02:40.11	48.21	17.88	-37.3	-38.2	23.8	0.00e+00	0	30	0	419430400	48	5857
2026-01-26 13:02:44.14	48.96	18.17	-37.1	-37.9	24.1	0.00e+00	16	29	0	426770432	48	5676
2026-01-26 13:02:48.18	49.73	18.46	-37.6	-38.5	23.6	0.00e+00	0	29	0	434110464	48	6083
2026-01-26 13:02:52.22	50.52	18.75	-37.5	-38.4	23.6	0.00e+00	0	29	0	441450496	48	5996
2026-01-26 13:02:56.25	51.32	19.04	-37.9	-38.9	23.2	0.00e+00	0	29	0	449839104	48	6334
2026-01-26 13:03:00.29	52.13	19.32	-37.5	-38.4	23.6	0.00e+00	92	29	0	457179136	48	5973
2026-01-26 13:03:04.32	52.96	19.60	-37.3	-38.2	23.8	0.00e+00	0	29	0	464519168	48	5879
2026-01-26 13:03:08.36	53.80	19.88	-38.1	-39.1	23.1	0.00e+00	0	29	0	471859200	48	6471
2026-01-26 13:03:12.40	54.66	20.15	-38.0	-38.9	23.2	0.00e+00	0	29	0	480247808	48	6358
2026-01-26 13:03:16.44	55.54	20.43	-38.5	-39.4	22.8	0.00e+00	90	29	0	487587840	48	6763
2026-01-26 13:03:20.48	56.43	20.69	-37.6	-38.5	23.6	0.00e+00	0	29	0	494927872	48	6084
2026-01-26 13:03:24.52	57.33	20.96	-39.1	-40.2	22.3	0.00e+00	0	29	0	502267904	50	6611
2026-01-26 13:03:28.55	58.25	21.22	-38.3	-39.3	23.1	0.00e+00	8	29	0	509607936	50	5903
2026-01-26 13:03:32.59	59.18	21.47	-37.9	-38.9	23.4	0.00e+00	92	29	0	517996544	48	6334
2026-01-26 13:03:36.63	60.13	21.72	-37.4	-38.3	23.6	0.00e+00	0	29	0	525336576	48	5919
2026-01-26 13:03:40.66	61.10	21.97	-38.3	-39.3	23.1	0.00e+00	0	29	0	532676608	48	6622
2026-01-26 13:03:44.70	62.07	22.20	-37.2	-38.1	24.0	0.00e+00	19	29	0	540016640	48	5763
2026-01-26 13:03:48.74	63.07	22.44	-37.6	-38.5	23.6	0.00e+00	0	29	0	548405248	48	6054
2026-01-26 13:03:52.77	64.08	22.66	-39.3	-40.3	22.3	0.00e+00	0	29	0	555745280	50	6676
2026-01-26 13:03:56.80	65.10	22.88	-38.5	-39.5	23.0	0.00e+00	0	29	0	563085312	50	6063
2026-01-26 13:04:00.84	66.13	23.09	-38.3	-39.3	23.1	0.00e+00	92	29	0	570425344	50	5919
2026-01-26 13:04:04.88	67.18	23.29	-39.2	-40.2	22.2	0.00e+00	0	29	0	577765376	50	6612
2026-01-26 13:04:08.92	68.25	23.48	-39.1	-40.1	22.5	0.00e+00	0	29	0	586153984	50	6515
2026-01-26 13:04:12.96	69.32	23.67	-38.8	-39.8	22.5	0.00e+00	0	29	0	593494016	50	6288
2026-01-26 13:04:17.00	70.41	23.85	-41.8	-43.4	19.5	0.00e+00	91	29	0	600834048	54	7540
2026-01-26 13:04:21.03	71.51	24.01	-40.5	-41.7	20.9	0.00e+00	0	29	0	608174080	54	6191
2026-01-26 13:04:25.07	72.62	24.17	-40.8	-42.0	20.8	0.00e+00	0	29	0	615514112	54	6445
2026-01-26 13:04:29.10	73.74	24.31	-40.1	-41.2	21.6	0.00e+00	22	29	0	623902720	54	5867
2026-01-26 13:04:33.14	74.87	24.45	-40.5	-41.8	20.9	0.00e+00	92	29	0	631242752	54	6290
2026-01-26 13:04:37.18	76.02	24.57	-40.1	-41.4	21.3	0.00e+00	0	29	0	638582784	54	6033
2026-01-26 13:04:41.21	77.16	24.69	-38.8	-39.7	22.6	0.00e+00	0	29	0	645922816	50	6233
2026-01-26 13:04:45.25	78.32	24.79	-37.7	-38.5	23.5	0.00e+00	20	29	0	654311424	48	6085
2026-01-26 13:04:49.29	79.49	24.88	-39.4	-40.4	22.2	0.00e+00	0	29	0	661651456	50	6764
2026-01-26 13:04:53.33	80.66	24.96	-38.6	-39.5	22.9	0.00e+00	0	29	0	668991488	50	6086
2026-01-26 13:04:57.37	81.83	25.02	-39.1	-40.1	22.5	0.00e+00	0	29	0	676331520	50	6471
2026-01-26 13:05:01.40	83.01	25.08	-38.8	-39.9	22.6	0.00e+00	92	29	0	683671552	50	6319
2026-01-26 13:05:05.44	84.20	25.12	-37.1	-37.9	24.0	0.00e+00	0	29	0	692060160	48	5662
2026-01-26 13:05:09.48	85.38	25.15	-37.8	-38.7	23.5	0.00e+00	0	29	0	699400192	48	6204
2026-01-26 13:05:13.51	86.57	25.16	-37.5	-38.3	23.8	0.00e+00	16	29	0	706740224	48	5946
2026-01-26 13:05:17.55	87.76	25.17	-38.0	-38.9	23.3	0.00e+00	74	29	0	714080256	48	6343
2026-01-26 13:05:21.58	88.95	25.16	-38.8	-39.8	22.6	0.00e+00	0	29	0	722468864	50	6296
2026-01-26 13:05:25.62	90.14	25.13	-38.6	-39.6	22.8	0.00e+00	0	28	0	729808896	50	6151
2026-01-26 13:05:29.65	91.32	25.10	-38.1	-39.1	22.8	0.00e+00	20	29	0	737148928	50	5766
2026-01-26 13:05:33.69	92.50	25.05	-37.9	-38.8	23.4	0.00e+00	0	28	0	744488960	48	6256
2026-01-26 13:05:37.72	93.68	24.99	-37.4	-38.3	23.7	0.00e+00	0	28	0	751828992	48	5935
2026-01-26 13:05:41.76	94.86	24.92	-37.1	-38.0	24.0	0.00e+00	0	28	0	760217600	48	5717
2026-01-26 13:05:45.79	96.02	24.83	-37.0	-37.9	24.0	0.00e+00	45	28	0	767557632	46	6339
2026-01-26 13:05:49.83	97.18	24.73	-37.4	-38.3	23.8	0.00e+00	0	28	0	774897664	46	6649
2026-01-26 13:05:53.86	98.34	24.63	-37.0	-37.9	24.1	0.00e+00	0	28	0	782237696	46	6349
2026-01-26 13:05:57.90	99.48	24.51	-36.7	-37.5	24.3	0.00e+00	0	28	0	789577728	46	6093
2026-01-26 13:06:01.93	100.62	24.37	-36.6	-37.4	24.5	0.00e+00	92	28	0	797966336	46	5988
2026-01-26 13:06:05.97	101.75	24.23	-36.5	-37.3	24.5	0.00e+00	0	28	0	805306368	46	5945
2026-01-26 13:06:10.01	102.87	24.08	-35.8	-36.6	24.9	0.00e+00	0	28	0	812646400	44	6116
2026-01-26 13:06:14.04	103.97	23.92	-36.0	-36.8	24.8	0.00e+00	0	28	0	819986432	44	6278
2026-01-26 13:06:18.08	105.07	23.74	-35.4	-36.2	25.2	0.00e+00	63	28	0	828375040	44	5891
2026-01-26 13:06:22.12	106.15	23.56	-35.6	-36.4	25.2	0.00e+00	0	28	0	835715072	44	5988
2026-01-26 13:06:26.15	107.22	23.37	-35.2	-36.0	25.4	0.00e+00	0	28	0	843055104	44	5696
2026-01-26 13:06:30.18	108.28	23.17	-36.0	-36.8	24.8	0.00e+00	15	28	0	850395136	44	6265
2026-01-26 13:06:34.21	109.32	22.97	-35.7	-36.4	25.1	0.00e+00	0	28	0	857735168	44	6020
2026-01-26 13:06:38.25	110.36	22.75	-35.7	-36.5	24.9	0.00e+00	0	28	0	866123776	44	6088
2026-01-26 13:06:42.29	111.37	22.53	-36.2	-37.0	24.6	0.00e+00	0	28	0	873463808	44	6447
2026-01-26 13:06:46.33	112.38	22.30	-36.5	-37.3	24.4	0.00e+00	92	28	0	880803840	44	6676
2026-01-26 13:06:50.36	113.36	22.06	-36.8	-37.6	24.2	0.00e+00	0	28	0	888143872	46	6157
2026-01-26 13:06:54.40	114.34	21.82	-37.0	-37.9	24.1	0.00e+00	0	28	0	896532480	46	6339
2026-01-26 13:06:58.43	115.29	21.57	-36.7	-37.6	24.2	0.00e+00	0	28	0	903872512	46	6108
2026-01-26 13:07:02.47	116.24	21.32	-38.0	-38.9	23.2	0.00e+00	79	28	0	911212544	48	6382
2026-01-26 13:07:06.50	117.17	21.06	-36.4	-37.2	24.4	0.00e+00	0	28	0	918552576	46	5844
2026-01-26 13:07:10.54	118.08	20.79	-36.6	-37.5	24.3	0.00e+00	0	28	0	925892608	46	6045
2026-01-26 13:07:14.57	118.98	20.53	-37.8	-38.8	23.4	0.00e+00	51	28	0	934281216	48	6253
2026-01-26 13:07:18.61	119.86	20.25	-37.9	-38.8	23.3	0.00e+00	92	28	0	941621248	48	6282
2026-01-26 13:07:22.64	120.73	19.98	-37.5	-38.5	23.5	0.00e+00	0	28	0	948961280	48	6076
2026-01-26 13:07:26.68	121.58	19.70	-38.2	-39.2	23.0	0.00e+00	0	28	0	956301312	48	6563
2026-01-26 13:07:30.72	122.42	19.42	-38.5	-39.5	22.7	0.00e+00	75	28	0	963641344	50	6046
2026-01-26 13:07:34.75	123.24	19.13	-36.8	-37.6	24.2	0.00e+00	0	28	0	972029952	46	6140
2026-01-26 13:07:38.78	124.05	18.85	-38.3	-39.3	23.0	0.00e+00	0	28	0	979369984	48	6654
2026-01-26 13:07:42.82	124.84	18.56	-37.4	-38.2	23.6	0.00e+00	0	28	0	986710016	48	5894
2026-01-26 13:07:46.86	125.62	18.27	-38.5	-39.5	22.6	0.00e+00	68	28	0	994050048	48	6781
2026-01-26 13:07:50.89	126.38	17.98	-37.4	-38.3	23.7	0.00e+00	0	28	0	1002438656	48	5959
2026-01-26 13:07:54.93	127.13	17.68	-37.6	-38.5	23.4	0.00e+00	0	28	0	1009778688	48	6097
2026-01-26 13:07:58.96	127.87	17.39	-37.4	-38.3	23.7	0.00e+00	0	28	0	1017118720	48	5922
2026-01-26 13:08:03.00	128.59	17.09	-37.0	-37.9	23.9	0.00e+00	92	28	0	1024458752	46	6339
2026-01-26 13:08:07.03	129.30	16.80	-38.5	-39.5	22.7	0.00e+00	0	28	0	1031798784	48	6824
2026-01-26 13:08:11.06	129.99	16.50	-37.6	-38.5	23.4	0.00e+00	0	28	0	1040187392	48	6035
2026-01-26 13:08:15.10	130.68	16.21	-37.2	-38.1	23.8	0.00e+00	48	28	0	1047527424	48	5785
2026-01-26 13:08:19.14	131.35	15.91	-37.1	-38.0	23.9	0.00e+00	83	28	0	1054867456	48	5731
2026-01-26 13:08:23.18	132.00	15.61	-37.2	-38.1	23.8	0.00e+00	19	28	0	1062207488	48	5775
2026-01-26 13:08:27.21	132.65	15.31	-39.2	-40.3	22.1	0.00e+00	20	28	0	1069547520	50	6685
2026-01-26 13:08:31.25	133.28	15.02	-38.9	-40.0	22.4	0.00e+00	90	28	0	1077936128	50	6417
2026-01-26 13:08:35.29	133.90	14.72	-37.8	-38.7	23.4	0.00e+00	0	28	0	1085276160	50	5539
2026-01-26 13:08:39.32	134.50	14.43	-37.2	-38.0	23.8	0.00e+00	0	28	0	1092616192	48	5752
2026-01-26 13:08:43.36	135.10	14.13	-36.8	-37.6	24.1	0.00e+00	0	28	0	1099956224	46	6155
2026-01-26 13:08:47.39	135.69	13.84	-37.6	-38.5	23.4	0.00e+00	70	28	0	1108344832	46	6839
2026-01-26 13:08:51.43	136.26	13.55	-38.6	-39.6	22.4	0.00e+00	0	28	0	1115684864	48	6912
2026-01-26 13:08:55.47	136.82	13.25	-38.9	-40.0	22.2	0.00e+00	0	27	0	1123024896	50	6427
2026-01-26 13:08:59.51	137.38	12.96	-38.5	-39.5	22.7	0.00e+00	9	28	0	1130364928	50	6075
2026-01-26 13:09:03.54	137.92	12.67	-38.2	-39.2	22.9	0.00e+00	91	28	0	1137704960	50	5876
2026-01-26 13:09:07.58	138.45	12.38	-38.3	-39.3	22.8	0.00e+00	0	28	0	1146093568	50	5931
2026-01-26 13:09:11.62	138.97	12.10	-38.2	-39.1	22.9	0.00e+00	0	27	0	1153433600	50	5803
2026-01-26 13:09:15.66	139.48	11.81	-39.0	-40.1	22.0	0.00e+00	10	27	0	1160773632	50	6469
2026-01-26 13:09:19.70	139.99	11.52	-40.5	-41.8	20.2	0.00e+00	0	27	0	1168113664	52	7029
2026-01-26 13:09:23.73	140.48	11.24	-42.0	-43.9	18.0	0.00e+00	0	27	0	1176502272	56	7122
2026-01-26 13:09:27.77	140.96	10.96	-42.2	-44.2	17.4	0.00e+00	0	27	0	1183842304	56	7366
2026-01-26 13:09:31.80	141.44	10.68	-41.4	-43.0	18.6	0.00e+00	79	27	0	1191182336	56	6462
2026-01-26 13:09:35.84	141.91	10.40	-40.5	-41.9	19.9	0.00e+00	0	28	0	1198522368	54	6365
2026-01-26 13:09:39.88	142.37	10.12	-40.2	-41.5	20.4	0.00e+00	0	27	0	1205862400	54	6042
2026-01-26 13:09:43.92	142.82	9.85	-39.5	-40.7	21.3	0.00e+00	0	27	0	1214251008	52	6185
2026-01-26 13:09:47.96	143.26	9.57	-39.5	-40.7	21.1	0.00e+00	92	27	0	1221591040	52	6211
2026-01-26 13:09:51.99	143.69	9.30	-39.7	-40.9	21.0	0.00e+00	0	27	0	1228931072	52	6352
2026-01-26 13:09:56.03	144.12	9.03	-40.4	-41.7	20.3	0.00e+00	0	27	0	1236271104	52	6986
2026-01-26 13:10:00.06	144.54	8.76	-39.9	-41.1	21.0	0.00e+00	0	27	0	1243611136	52	6495
2026-01-26 13:10:04.10	144.95	8.49	-39.9	-41.1	20.9	0.00e+00	90	27	0	1251999744	52	6515
2026-01-26 13:10:08.14	145.35	8.22	-40.0	-41.1	21.0	0.00e+00	0	27	0	1259339776	52	6533
2026-01-26 13:10:12.18	145.75	7.96	-40.3	-41.6	20.4	0.00e+00	0	27	0	1266679808	52	6912
2026-01-26 13:10:16.21	146.14	7.70	-40.9	-42.3	19.9	0.00e+00	90	27	0	1274019840	54	6675
2026-01-26 13:10:20.25	146.53	7.43	-41.0	-42.4	19.8	0.00e+00	0	27	0	1282408448	54	6748
2026-01-26 13:10:24.29	146.90	7.17	-40.4	-41.7	20.4	0.00e+00	0	27	0	1289748480	54	6223
2026-01-26 13:10:28.33	147.27	6.92	-39.9	-41.1	20.9	0.00e+00	0	27	0	1297088512	54	5818
2026-01-26 13:10:32.36	147.64	6.66	-39.4	-40.6	21.4	0.00e+00	92	27	0	1304428544	52	6112
2026-01-26 13:10:36.40	148.00	6.40	-39.4	-40.5	21.3	0.00e+00	0	27	0	1311768576	52	6070
2026-01-26 13:10:40.44	148.35	6.15	-39.9	-41.1	20.8	0.00e+00	0	27	0	1320157184	52	6512
2026-01-26 13:10:44.48	148.70	5.90	-39.5	-40.6	21.3	0.00e+00	0	27	0	1327497216	52	6122
2026-01-26 13:10:48.51	149.04	5.65	-39.6	-40.8	21.1	0.00e+00	92	27	0	1334837248	52	6252
2026-01-26 13:10:52.55	149.38	5.40	-39.9	-41.2	20.7	0.00e+00	0	27	0	1342177280	52	6553
2026-01-26 13:10:56.59	149.71	5.15	-39.9	-41.2	20.7	0.00e+00	0	27	0	1350565888	52	6563
2026-01-26 13:11:00.63	150.03	4.91	-40.3	-41.5	20.4	0.00e+00	92	27	0	1357905920	52	6841
2026-01-26 13:11:04.66	150.35	4.66	-40.6	-42.0	19.9	0.00e+00	0	27	0	1365245952	54	6438
2026-01-26 13:11:08.70	150.67	4.42	-41.0	-42.5	19.4	0.00e+00	0	27	0	1372585984	54	6790
2026-01-26 13:11:12.74	150.98	4.18	-40.8	-42.3	19.5	0.00e+00	0	27	0	1379926016	54	6671
2026-01-26 13:11:16.78	151.28	3.94	-40.7	-42.2	19.6	0.00e+00	90	27	0	1388314624	54	6550
2026-01-26 13:11:20.82	151.58	3.70	-40.9	-42.3	19.2	0.00e+00	0	27	0	1395654656	54	6687
2026-01-26 13:11:24.85	151.88	3.46	-40.6	-42.1	19.4	0.00e+00	2	27	0	1402994688	54	6479
2026-01-26 13:11:28.88	152.17	3.23	-40.8	-42.3	19.3	0.00e+00	0	27	0	1410334720	54	6622
2026-01-26 13:11:32.92	152.46	3.00	-47.8	-62.8	3.6	1.03e+00	0	27	104	1417674752	60	49984
2026-01-26 13:11:36.96	152.74	2.76	-48.6	-64.0	3.6	1.51e+00	0	27	104	1417674752	60	57440
2026-01-26 13:11:41.00	153.02	2.53	-49.1	-64.4	3.6	1.51e+00	0	27	104	1417674752	60	59791
2026-01-26 13:11:45.04	153.30	2.30	-49.3	-64.4	3.6	1.51e+00	0	27	104	1417674752	60	60141
2026-01-26 13:11:49.08	153.57	2.07	-49.2	-64.4	3.6	1.51e+00	0	27	104	1417674752	60	59909
2026-01-26 13:11:53.12	153.83	1.85	-49.2	-64.4	3.5	1.51e+00	0	27	104	1417674752	60	60168
2026-01-26 13:11:57.16	154.10	1.62	-49.2	-64.4	3.6	1.51e+00	0	27	104	1417674752	60	60063
2026-01-26 13:12:01.20	154.36	1.40	-49.2	-64.4	3.6	1.51e+00	0	27	104	1417674752	60	60250
2026-01-26 13:12:05.24	154.61	1.17	-49.2	-64.4	3.6	1.51e+00	0	27	104	1417674752	60	60271
2026-01-26 13:12:09.28	154.86	0.95	-49.3	-64.6	3.6	1.51e+00	0	27	104	1417674752	60	61539
2026-01-26 13:12:13.32	155.11	0.73	-49.3	-64.5	3.6	1.51e+00	0	27	104	1417674752	60	60867
2026-01-26 13:12:17.36	155.36	0.51	-49.3	-64.5	3.6	1.51e+00	0	27	104	1417674752	60	60860
2026-01-26 13:12:21.40	155.60	0.29	-49.4	-64.6	3.6	1.51e+00	0	27	104	1417674752	60	61080
2026-01-26 13:12:25.43	155.84	0.08	-49.2	-64.4	3.6	1.51e+00	0	27	104	1417674752	60	60325

#Closed at: 2026-01-26 13:12:29
#Recorded file [1417 MB]: D:/lorett/data/35029_260127_005805.dat