passes_logs/2026/01/26/R4.6S_Anadyr/R4.6S_Anadyr__20260126_145905_NOAA_20_JPSS-1_rec.log

#Pass ID: 20260126_145905_NOAA 20 (JPSS-1)
#Satellite: NOAA 20 (JPSS-1)
#Configuration: NOAA 20
#almurnet v.1.7.20251203
#Start time: 2026-01-26 14:59:07

#Version: 2.2.20231116
#Station: R4.6S_Anadyr
#Location: 177.4865 lon 64.73178 lat
#TLE: 1 43013U 17073A   26025.90277267  .00000170  00000+0  10165-3 0  9997
#TLE: 2 43013  98.7646 326.7276 0001032  23.5492 336.5731 14.19540457424285

#Time	Az	El	Level	Level2	SNR	BER	BlckErr	Temp	State	Recorded	gain1	gain2
2026-01-26 14:59:07.29	21.08	0.13	-49.6	-64.6	3.5	1.51e+00	0	25	0	0	60	61192
2026-01-26 14:59:11.33	21.07	0.37	-49.9	-65.1	3.6	1.51e+00	0	26	104	0	60	64999
2026-01-26 14:59:15.37	21.06	0.62	-49.7	-64.9	3.6	1.51e+00	0	27	104	0	60	63771
2026-01-26 14:59:19.41	21.04	0.86	-49.4	-64.8	3.6	1.51e+00	0	27	104	0	60	63064
2026-01-26 14:59:23.45	21.03	1.11	-49.4	-64.6	3.6	1.51e+00	0	27	104	0	60	61263
2026-01-26 14:59:27.49	21.02	1.36	-48.9	-64.1	3.6	1.51e+00	0	27	104	0	60	57899
2026-01-26 14:59:31.53	21.00	1.62	-48.3	-63.3	3.6	1.51e+00	0	27	104	0	60	52828
2026-01-26 14:59:35.57	20.99	1.87	-48.3	-63.3	3.6	1.51e+00	0	27	104	0	60	52794
2026-01-26 14:59:39.61	20.98	2.13	-48.3	-63.4	3.6	1.51e+00	0	27	104	0	60	53460
2026-01-26 14:59:43.65	20.96	2.39	-48.2	-63.2	3.6	1.51e+00	0	27	104	0	60	52248
2026-01-26 14:59:47.69	20.94	2.65	-48.2	-61.9	3.6	1.51e+00	0	27	104	0	60	44853
2026-01-26 14:59:51.73	20.93	2.92	-48.2	-62.4	3.6	1.51e+00	0	27	104	0	60	47871
2026-01-26 14:59:55.76	20.91	3.18	-47.5	-54.1	7.8	2.71e-01	92	27	0	3145728	60	18369
2026-01-26 14:59:59.80	20.89	3.45	-45.1	-48.2	14.2	5.79e-05	2	27	0	10485760	60	9247
2026-01-26 15:00:03.84	20.87	3.73	-44.7	-47.5	14.9	0.00e+00	0	27	0	18874368	60	8599
2026-01-26 15:00:07.88	20.85	4.00	-48.2	-61.0	3.6	9.03e-03	0	27	104	26214400	60	40773
2026-01-26 15:00:11.92	20.83	4.28	-44.9	-47.8	14.7	7.00e-07	91	27	0	27262976	60	8837
2026-01-26 15:00:15.96	20.81	4.56	-42.7	-44.4	18.3	0.00e+00	0	27	0	34603008	60	6001
2026-01-26 15:00:19.99	20.79	4.84	-42.7	-44.5	18.2	0.00e+00	78	27	0	41943040	58	6806
2026-01-26 15:00:24.02	20.77	5.13	-42.3	-43.9	18.8	0.00e+00	0	27	0	49283072	58	6372
2026-01-26 15:00:28.05	20.75	5.42	-42.3	-44.0	18.8	0.00e+00	90	27	0	57671680	58	6417
2026-01-26 15:00:32.09	20.72	5.71	-42.4	-44.0	18.9	0.00e+00	0	27	0	65011712	58	6398
2026-01-26 15:00:36.13	20.70	6.01	-42.6	-44.3	18.6	0.00e+00	4	27	0	72351744	58	6640
2026-01-26 15:00:40.16	20.67	6.31	-42.4	-44.0	19.0	0.00e+00	0	27	0	79691776	58	6403
2026-01-26 15:00:44.20	20.65	6.61	-42.3	-43.9	19.1	0.00e+00	92	27	0	87031808	58	6326
2026-01-26 15:00:48.23	20.62	6.92	-41.8	-43.2	19.7	0.00e+00	0	27	0	95420416	58	5888
2026-01-26 15:00:52.26	20.59	7.23	-42.0	-43.4	19.6	0.00e+00	3	27	0	102760448	56	6765
2026-01-26 15:00:56.30	20.56	7.54	-41.8	-43.2	19.8	0.00e+00	0	27	0	110100480	56	6552
2026-01-26 15:01:00.34	20.53	7.86	-41.7	-43.1	20.0	0.00e+00	64	27	0	117440512	56	6513
2026-01-26 15:01:04.37	20.50	8.18	-41.8	-43.2	20.0	0.00e+00	0	27	0	125829120	56	6572
2026-01-26 15:01:08.41	20.47	8.51	-41.5	-42.8	20.3	0.00e+00	6	27	0	133169152	56	6267
2026-01-26 15:01:12.44	20.43	8.84	-41.4	-42.7	20.4	0.00e+00	92	27	0	140509184	56	6182
2026-01-26 15:01:16.48	20.40	9.17	-41.3	-42.5	20.5	0.00e+00	4	27	0	147849216	56	6096
2026-01-26 15:01:20.51	20.36	9.51	-41.4	-42.7	20.4	0.00e+00	82	27	0	155189248	56	6214
2026-01-26 15:01:24.55	20.32	9.86	-41.1	-42.4	20.7	0.00e+00	3	27	0	163577856	56	5992
2026-01-26 15:01:28.58	20.28	10.21	-41.3	-42.5	20.6	0.00e+00	91	27	0	170917888	56	6084
2026-01-26 15:01:32.61	20.24	10.56	-41.0	-42.2	20.9	0.00e+00	6	27	0	178257920	56	5881
2026-01-26 15:01:36.65	20.20	10.92	-41.2	-42.5	20.8	0.00e+00	0	27	0	185597952	56	6036
2026-01-26 15:01:40.69	20.16	11.29	-41.2	-42.4	20.8	0.00e+00	5	27	0	192937984	56	6009
2026-01-26 15:01:44.73	20.12	11.66	-40.9	-42.1	21.1	0.00e+00	90	27	0	201326592	56	5779
2026-01-26 15:01:48.76	20.07	12.03	-40.8	-41.9	21.2	0.00e+00	76	27	0	208666624	56	5675
2026-01-26 15:01:52.80	20.02	12.41	-40.7	-41.8	21.4	0.00e+00	0	27	0	216006656	54	6303
2026-01-26 15:01:56.84	19.97	12.80	-40.4	-41.5	21.7	0.00e+00	0	27	0	223346688	54	6095
2026-01-26 15:02:00.87	19.92	13.19	-40.4	-41.5	21.6	0.00e+00	92	27	0	231735296	54	6087
2026-01-26 15:02:04.91	19.87	13.59	-40.2	-41.3	21.9	0.00e+00	1	28	0	239075328	54	5931
2026-01-26 15:02:08.95	19.81	14.00	-40.1	-41.2	22.0	0.00e+00	76	27	0	246415360	54	5830
2026-01-26 15:02:12.98	19.76	14.41	-39.9	-41.0	22.2	0.00e+00	0	27	0	253755392	54	5716
2026-01-26 15:02:17.02	19.70	14.84	-39.9	-41.0	22.2	0.00e+00	92	27	0	261095424	54	5701
2026-01-26 15:02:21.05	19.64	15.26	-39.6	-40.6	22.5	0.00e+00	2	27	0	269484032	52	6157
2026-01-26 15:02:25.09	19.57	15.70	-39.5	-40.5	22.6	0.00e+00	0	27	0	276824064	52	6057
2026-01-26 15:02:29.12	19.51	16.14	-39.4	-40.3	22.9	0.00e+00	0	27	0	284164096	52	5938
2026-01-26 15:02:33.16	19.44	16.60	-39.4	-40.3	22.9	0.00e+00	92	27	0	291504128	52	5954
2026-01-26 15:02:37.19	19.37	17.06	-39.1	-40.1	23.2	0.00e+00	0	27	0	298844160	52	5762
2026-01-26 15:02:41.23	19.29	17.53	-39.1	-40.0	23.3	0.00e+00	0	27	0	307232768	52	5751
2026-01-26 15:02:45.27	19.22	18.00	-38.8	-39.7	23.5	0.00e+00	0	27	0	314572800	52	5512
2026-01-26 15:02:49.30	19.14	18.49	-38.6	-39.5	23.5	0.00e+00	7	27	0	321912832	50	6095
2026-01-26 15:02:53.34	19.05	18.99	-38.5	-39.4	23.7	0.00e+00	80	27	0	329252864	50	5985
2026-01-26 15:02:57.38	18.97	19.50	-38.5	-39.4	23.8	0.00e+00	5	27	0	337641472	50	5976
2026-01-26 15:03:01.41	18.88	20.02	-38.6	-39.5	23.6	0.00e+00	92	27	0	344981504	50	6089
2026-01-26 15:03:05.44	18.78	20.54	-38.6	-39.5	23.9	0.00e+00	0	27	0	352321536	50	6044
2026-01-26 15:03:09.48	18.69	21.09	-38.9	-39.9	23.3	0.00e+00	6	27	0	359661568	50	6329
2026-01-26 15:03:13.52	18.58	21.64	-38.6	-39.5	23.8	0.00e+00	0	27	0	367001600	50	6072
2026-01-26 15:03:17.56	18.48	22.20	-38.3	-39.2	24.0	0.00e+00	91	27	0	375390208	50	5830
2026-01-26 15:03:21.59	18.37	22.78	-38.3	-39.1	24.0	0.00e+00	0	27	0	382730240	50	5821
2026-01-26 15:03:25.62	18.25	23.37	-38.0	-38.8	24.3	0.00e+00	0	27	0	390070272	50	5624
2026-01-26 15:03:29.66	18.13	23.97	-38.2	-39.0	24.2	0.00e+00	10	27	0	397410304	50	5746
2026-01-26 15:03:33.70	18.01	24.59	-38.3	-39.2	23.8	0.00e+00	92	27	0	404750336	50	5863
2026-01-26 15:03:37.73	17.88	25.22	-38.8	-39.7	23.7	0.00e+00	74	27	0	413138944	50	6174
2026-01-26 15:03:41.77	17.74	25.87	-38.6	-39.5	23.7	0.00e+00	77	27	0	420478976	50	6055
2026-01-26 15:03:45.80	17.60	26.54	-38.8	-39.7	23.6	0.00e+00	0	27	0	427819008	50	6224
2026-01-26 15:03:49.84	17.44	27.22	-39.1	-40.0	23.2	0.00e+00	92	27	0	435159040	50	6441
2026-01-26 15:03:53.88	17.29	27.92	-39.5	-40.5	22.9	0.00e+00	9	28	0	443547648	50	6805
2026-01-26 15:03:57.91	17.12	28.63	-40.5	-41.5	21.9	0.00e+00	5	27	0	450887680	52	6828
2026-01-26 15:04:01.94	16.95	29.36	-40.7	-41.9	21.7	0.00e+00	80	27	0	458227712	54	6323
2026-01-26 15:04:05.98	16.76	30.12	-41.0	-42.2	21.3	0.00e+00	92	27	0	465567744	54	6564
2026-01-26 15:04:10.02	16.57	30.89	-41.3	-42.5	21.1	0.00e+00	0	27	0	472907776	54	6788
2026-01-26 15:04:14.05	16.37	31.68	-41.4	-42.6	21.0	0.00e+00	0	27	0	481296384	54	6925
2026-01-26 15:04:18.09	16.15	32.50	-41.8	-43.1	20.6	0.00e+00	2	28	0	488636416	56	6486
2026-01-26 15:04:22.13	15.93	33.34	-41.4	-42.5	21.2	0.00e+00	92	27	0	495976448	56	6097
2026-01-26 15:04:26.16	15.69	34.20	-40.9	-42.0	21.7	0.00e+00	0	27	0	503316480	56	5760
2026-01-26 15:04:30.20	15.43	35.09	-40.2	-41.3	22.4	0.00e+00	0	27	0	511705088	54	5923
2026-01-26 15:04:34.23	15.16	36.00	-39.4	-40.3	23.1	0.00e+00	11	27	0	519045120	52	5933
2026-01-26 15:04:38.27	14.88	36.93	-38.7	-39.5	23.9	0.00e+00	8	27	0	526385152	50	6094
2026-01-26 15:04:42.30	14.58	37.89	-39.1	-40.0	23.5	0.00e+00	0	27	0	533725184	50	6423
2026-01-26 15:04:46.34	14.25	38.88	-38.7	-39.6	23.6	0.00e+00	8	27	0	541065216	50	6138
2026-01-26 15:04:50.37	13.91	39.90	-39.2	-40.1	23.4	0.00e+00	92	27	0	549453824	50	6471
2026-01-26 15:04:54.40	13.54	40.95	-39.9	-40.8	22.7	0.00e+00	53	27	0	556793856	52	6316
2026-01-26 15:04:58.44	13.15	42.02	-39.9	-40.9	22.6	0.00e+00	0	27	0	564133888	52	6384
2026-01-26 15:05:02.48	12.72	43.13	-40.5	-41.5	22.1	0.00e+00	10	27	0	571473920	54	6076
2026-01-26 15:05:06.52	12.27	44.27	-41.0	-42.1	21.6	0.00e+00	90	27	0	579862528	54	6531
2026-01-26 15:05:10.56	11.78	45.45	-40.6	-41.7	22.0	0.00e+00	76	27	0	587202560	54	6194
2026-01-26 15:05:14.59	11.25	46.65	-40.9	-42.1	21.6	0.00e+00	76	27	0	594542592	54	6466
2026-01-26 15:05:18.63	10.67	47.88	-42.5	-43.9	19.9	0.00e+00	6	27	0	601882624	56	7148
2026-01-26 15:05:22.66	10.05	49.15	-41.4	-42.6	21.2	0.00e+00	92	27	0	609222656	56	6138
2026-01-26 15:05:26.70	9.37	50.46	-39.4	-40.4	23.2	0.00e+00	5	27	0	617611264	52	5996
2026-01-26 15:05:30.74	8.63	51.79	-37.8	-38.6	23.8	0.00e+00	7	27	0	624951296	50	5463
2026-01-26 15:05:34.77	7.82	53.16	-37.6	-38.4	24.8	0.00e+00	69	27	0	632291328	48	6017
2026-01-26 15:05:38.81	6.92	54.56	-37.4	-38.2	25.0	0.00e+00	92	27	0	639631360	48	5829
2026-01-26 15:05:42.85	5.93	55.99	-38.3	-39.2	24.1	0.00e+00	0	27	0	646971392	48	6553
2026-01-26 15:05:46.88	4.82	57.45	-40.5	-41.6	22.1	0.00e+00	0	27	0	655360000	52	6850
2026-01-26 15:05:50.92	3.59	58.94	-41.6	-42.8	21.0	0.00e+00	0	27	0	662700032	56	6267
2026-01-26 15:05:54.96	2.21	60.45	-38.6	-39.5	23.7	0.00e+00	90	28	0	670040064	50	6058
2026-01-26 15:05:59.00	0.65	61.98	-37.3	-38.0	25.1	0.00e+00	76	27	0	677380096	48	5754
2026-01-26 15:06:03.04	358.88	63.52	-37.8	-38.7	24.5	0.00e+00	0	27	0	685768704	48	6177
2026-01-26 15:06:07.07	356.87	65.07	-38.0	-38.8	24.4	0.00e+00	12	27	0	693108736	48	6277
2026-01-26 15:06:11.11	354.54	66.62	-39.6	-40.6	22.9	0.00e+00	90	28	0	700448768	50	6876
2026-01-26 15:06:15.15	351.85	68.16	-39.8	-40.8	22.8	0.00e+00	69	27	0	707788800	52	6298
2026-01-26 15:06:19.19	348.72	69.67	-38.9	-39.8	23.7	0.00e+00	0	27	0	715128832	52	5611
2026-01-26 15:06:23.23	345.05	71.14	-37.7	-38.4	24.8	0.00e+00	80	27	0	723517440	50	5369
2026-01-26 15:06:27.26	340.74	72.54	-38.7	-39.6	23.8	0.00e+00	0	28	0	730857472	48	6855
2026-01-26 15:06:31.30	335.65	73.85	-39.8	-40.7	23.0	0.00e+00	5	27	0	738197504	52	6236
2026-01-26 15:06:35.34	329.67	75.03	-40.5	-41.5	22.1	0.00e+00	0	27	0	745537536	54	6065
2026-01-26 15:06:39.37	322.72	76.03	-41.1	-42.2	21.7	0.00e+00	92	28	0	753926144	54	6565
2026-01-26 15:06:43.41	314.78	76.80	-42.2	-43.5	20.5	0.00e+00	5	27	0	761266176	56	6823
2026-01-26 15:06:47.45	306.00	77.31	-43.2	-44.6	19.7	0.00e+00	0	27	0	768606208	58	6915
2026-01-26 15:06:51.49	296.71	77.51	-41.6	-42.8	21.0	0.00e+00	10	27	0	775946240	56	6285
2026-01-26 15:06:55.52	287.39	77.38	-41.4	-42.6	21.2	0.00e+00	92	27	0	783286272	56	6105
2026-01-26 15:06:59.56	278.47	76.93	-40.9	-42.0	21.6	0.00e+00	81	27	0	791674880	54	6406
2026-01-26 15:07:03.59	270.36	76.21	-42.8	-44.2	19.7	0.00e+00	0	27	0	799014912	58	6609
2026-01-26 15:07:07.63	263.19	75.25	-41.9	-43.1	20.7	0.00e+00	0	27	0	806354944	58	5806
2026-01-26 15:07:11.67	257.01	74.10	-41.7	-42.9	21.1	0.00e+00	92	28	0	813694976	56	6345
2026-01-26 15:07:15.70	251.76	72.82	-41.0	-42.0	22.2	0.00e+00	10	28	0	822083584	56	5747
2026-01-26 15:07:19.74	247.29	71.43	-40.9	-41.9	22.9	0.00e+00	71	27	0	829423616	54	6356
2026-01-26 15:07:23.78	243.49	69.97	-41.6	-42.7	21.5	0.00e+00	73	27	0	836763648	56	6210
2026-01-26 15:07:27.82	240.25	68.46	-41.7	-42.9	21.5	0.00e+00	92	28	0	844103680	56	6332
2026-01-26 15:07:31.85	237.49	66.92	-41.0	-42.0	22.1	0.00e+00	4	27	0	851443712	54	6461
2026-01-26 15:07:35.89	235.09	65.37	-39.8	-40.7	23.8	0.00e+00	0	27	0	859832320	52	6242
2026-01-26 15:07:39.93	233.01	63.82	-36.8	-37.5	25.5	0.00e+00	0	27	0	867172352	48	5416
2026-01-26 15:07:43.97	231.19	62.27	-37.7	-38.5	24.9	0.00e+00	90	27	0	874512384	46	6833
2026-01-26 15:07:48.00	229.59	60.74	-39.1	-40.1	23.2	0.00e+00	0	28	0	881852416	50	6473
2026-01-26 15:07:52.04	228.18	59.22	-42.9	-44.5	19.3	0.00e+00	0	27	0	889192448	58	6792
2026-01-26 15:07:56.08	226.92	57.72	-42.9	-44.4	19.2	0.00e+00	9	28	0	897581056	58	6759
2026-01-26 15:08:00.11	225.79	56.25	-41.0	-42.2	21.5	0.00e+00	92	27	0	904921088	56	5831
2026-01-26 15:08:04.14	224.78	54.82	-39.6	-40.6	22.8	0.00e+00	11	27	0	912261120	52	6123
2026-01-26 15:08:08.18	223.86	53.40	-38.8	-39.7	23.9	0.00e+00	70	27	0	919601152	50	6238
2026-01-26 15:08:12.22	223.03	52.03	-38.9	-39.9	23.5	0.00e+00	92	27	0	927989760	50	6320
2026-01-26 15:08:16.26	222.27	50.68	-39.9	-40.9	22.6	0.00e+00	10	27	0	935329792	52	6365
2026-01-26 15:08:20.30	221.57	49.36	-41.2	-42.4	21.2	0.00e+00	8	27	0	942669824	54	6717
2026-01-26 15:08:24.33	220.94	48.09	-41.4	-42.6	21.0	0.00e+00	72	27	0	950009856	54	6889
2026-01-26 15:08:28.37	220.36	46.84	-40.8	-41.9	21.8	0.00e+00	92	27	0	957349888	54	6350
2026-01-26 15:08:32.40	219.82	45.63	-41.1	-42.3	21.3	0.00e+00	0	27	0	965738496	54	6644
2026-01-26 15:08:36.44	219.32	44.44	-41.3	-42.5	21.2	0.00e+00	7	27	0	973078528	54	6792
2026-01-26 15:08:40.48	218.85	43.29	-42.3	-43.7	20.1	0.00e+00	5	27	0	980418560	56	6950
2026-01-26 15:08:44.52	218.42	42.18	-41.8	-43.0	20.7	0.00e+00	92	27	0	987758592	56	6453
2026-01-26 15:08:48.56	218.02	41.09	-41.4	-42.6	21.1	0.00e+00	0	28	0	996147200	56	6170
2026-01-26 15:08:52.59	217.65	40.03	-41.9	-43.3	20.5	0.00e+00	0	27	0	1003487232	56	6623
2026-01-26 15:08:56.62	217.30	39.01	-41.9	-43.2	20.5	0.00e+00	8	27	0	1010827264	56	6548
2026-01-26 15:09:00.66	216.97	38.01	-41.0	-42.1	21.7	0.00e+00	92	27	0	1018167296	56	5790
2026-01-26 15:09:04.70	216.66	37.04	-40.7	-41.7	21.8	0.00e+00	6	27	0	1025507328	54	6243
2026-01-26 15:09:08.73	216.37	36.09	-40.3	-41.3	22.3	0.00e+00	75	27	0	1033895936	54	5912
2026-01-26 15:09:12.77	216.10	35.18	-40.3	-41.3	22.2	0.00e+00	73	28	0	1041235968	54	5954
2026-01-26 15:09:16.80	215.84	34.28	-40.6	-41.7	21.8	0.00e+00	91	28	0	1048576000	54	6207
2026-01-26 15:09:20.84	215.60	33.42	-41.0	-42.1	21.5	0.00e+00	0	27	0	1055916032	54	6527
2026-01-26 15:09:24.87	215.37	32.57	-41.5	-42.7	20.9	0.00e+00	6	28	0	1063256064	54	6984
2026-01-26 15:09:28.91	215.15	31.75	-42.1	-43.5	20.3	0.00e+00	1	28	0	1071644672	56	6807
2026-01-26 15:09:32.94	214.94	30.95	-42.3	-43.7	20.1	0.00e+00	92	28	0	1078984704	56	6943
2026-01-26 15:09:36.98	214.74	30.17	-42.0	-43.3	20.5	0.00e+00	76	28	0	1086324736	56	6639
2026-01-26 15:09:41.02	214.56	29.41	-41.7	-42.9	20.9	0.00e+00	0	28	0	1093664768	56	6366
2026-01-26 15:09:45.05	214.38	28.67	-41.5	-42.7	21.1	0.00e+00	8	28	0	1102053376	56	6228
2026-01-26 15:09:49.09	214.21	27.95	-41.1	-42.2	21.5	0.00e+00	92	28	0	1109393408	56	5873
2026-01-26 15:09:53.13	214.05	27.24	-40.4	-41.4	22.2	0.00e+00	77	28	0	1116733440	54	6013
2026-01-26 15:09:57.17	213.89	26.56	-40.4	-41.5	22.1	0.00e+00	80	28	0	1124073472	54	6047
2026-01-26 15:10:01.21	213.75	25.89	-40.6	-41.7	21.9	0.00e+00	69	28	0	1131413504	54	6200
2026-01-26 15:10:05.24	213.61	25.24	-40.4	-41.5	22.1	0.00e+00	92	28	0	1139802112	54	6050
2026-01-26 15:10:09.28	213.47	24.60	-39.9	-40.9	22.5	0.00e+00	2	28	0	1147142144	54	5682
2026-01-26 15:10:13.32	213.34	23.97	-39.7	-40.7	22.8	0.00e+00	5	28	0	1154482176	52	6223
2026-01-26 15:10:17.35	213.22	23.37	-39.3	-40.2	23.2	0.00e+00	91	28	0	1161822208	52	5856
2026-01-26 15:10:21.39	213.10	22.77	-39.3	-40.3	23.2	0.00e+00	77	28	0	1170210816	52	5916
2026-01-26 15:10:25.42	212.99	22.19	-39.7	-40.6	22.9	0.00e+00	5	28	0	1177550848	52	6170
2026-01-26 15:10:29.46	212.88	21.62	-39.7	-40.7	22.7	0.00e+00	0	28	0	1184890880	52	6177
2026-01-26 15:10:33.50	212.78	21.07	-39.8	-40.8	22.6	0.00e+00	92	28	0	1192230912	52	6277
2026-01-26 15:10:37.54	212.68	20.52	-40.1	-41.2	22.4	0.00e+00	3	28	0	1199570944	52	6556
2026-01-26 15:10:41.58	212.58	19.99	-40.2	-41.2	22.3	0.00e+00	0	28	0	1207959552	52	6599
2026-01-26 15:10:45.61	212.49	19.47	-40.2	-41.3	22.3	0.00e+00	5	28	0	1215299584	52	6635
2026-01-26 15:10:49.65	212.40	18.96	-40.2	-41.3	22.3	0.00e+00	90	28	0	1222639616	52	6637
2026-01-26 15:10:53.68	212.31	18.46	-40.3	-41.3	22.1	0.00e+00	1	28	0	1229979648	52	6670
2026-01-26 15:10:57.72	212.23	17.97	-40.3	-41.3	22.2	0.00e+00	81	28	0	1238368256	52	6669
2026-01-26 15:11:01.76	212.15	17.48	-40.5	-41.6	21.9	0.00e+00	80	28	0	1245708288	52	6898
2026-01-26 15:11:05.80	212.07	17.01	-40.6	-41.7	21.8	0.00e+00	92	28	0	1253048320	52	6931
2026-01-26 15:11:09.83	212.00	16.55	-40.7	-41.7	21.6	0.00e+00	0	28	0	1260388352	52	7002
2026-01-26 15:11:13.87	211.93	16.09	-40.9	-42.0	21.5	0.00e+00	2	28	0	1267728384	54	6448
2026-01-26 15:11:17.91	211.86	15.65	-41.0	-42.1	21.3	0.00e+00	0	28	0	1276116992	54	6524
2026-01-26 15:11:21.95	211.79	15.21	-41.2	-42.4	21.1	0.00e+00	92	28	0	1283457024	54	6753
2026-01-26 15:11:25.99	211.73	14.78	-41.5	-42.7	20.8	0.00e+00	0	28	0	1290797056	54	6995
2026-01-26 15:11:30.03	211.67	14.35	-41.5	-42.7	20.8	0.00e+00	0	28	0	1298137088	54	6996
2026-01-26 15:11:34.06	211.61	13.94	-41.1	-42.3	21.2	0.00e+00	39	29	0	1306525696	54	6664
2026-01-26 15:11:38.10	211.55	13.53	-41.1	-42.2	21.2	0.00e+00	17	28	0	1313865728	54	6613
2026-01-26 15:11:42.14	211.49	13.13	-40.9	-42.1	21.4	0.00e+00	0	29	0	1321205760	54	6467
2026-01-26 15:11:46.18	211.44	12.73	-40.9	-42.0	21.4	0.00e+00	0	29	0	1328545792	54	6418
2026-01-26 15:11:50.21	211.39	12.34	-40.8	-41.9	21.5	0.00e+00	92	29	0	1335885824	54	6344
2026-01-26 15:11:54.25	211.34	11.96	-40.7	-41.8	21.5	0.00e+00	0	29	0	1344274432	54	6316
2026-01-26 15:11:58.29	211.29	11.58	-40.8	-41.9	21.4	0.00e+00	0	29	0	1351614464	54	6351
2026-01-26 15:12:02.33	211.24	11.21	-40.9	-42.1	21.2	0.00e+00	0	28	0	1358954496	54	6509
2026-01-26 15:12:06.37	211.19	10.84	-41.1	-42.2	21.1	0.00e+00	92	29	0	1366294528	54	6615
2026-01-26 15:12:10.40	211.15	10.48	-41.2	-42.4	21.0	0.00e+00	6	29	0	1374683136	54	6697
2026-01-26 15:12:14.44	211.10	10.13	-41.4	-42.6	20.7	0.00e+00	7	29	0	1382023168	54	6912
2026-01-26 15:12:18.48	211.06	9.77	-41.5	-42.7	20.6	0.00e+00	5	29	0	1389363200	54	6983
2026-01-26 15:12:22.52	211.02	9.43	-41.7	-43.0	20.3	0.00e+00	92	29	0	1396703232	56	6450
2026-01-26 15:12:26.56	210.98	9.09	-41.7	-43.1	20.1	0.00e+00	2	29	0	1404043264	56	6479
2026-01-26 15:12:30.60	210.94	8.75	-41.8	-43.1	20.0	0.00e+00	83	29	0	1412431872	56	6537
2026-01-26 15:12:34.63	210.91	8.42	-42.0	-43.4	19.8	0.00e+00	5	29	0	1419771904	56	6737
2026-01-26 15:12:38.66	210.87	8.09	-42.1	-43.6	19.8	0.00e+00	90	29	0	1427111936	56	6860
2026-01-26 15:12:42.70	210.84	7.77	-42.2	-43.6	19.5	0.00e+00	81	29	0	1434451968	56	6926
2026-01-26 15:12:46.74	210.80	7.45	-42.3	-43.8	19.5	0.00e+00	82	29	0	1441792000	56	7034
2026-01-26 15:12:50.78	210.77	7.13	-42.1	-43.5	19.7	0.00e+00	81	29	0	1450180608	58	6087
2026-01-26 15:12:54.82	210.74	6.82	-42.1	-43.6	19.7	0.00e+00	92	29	0	1457520640	58	6108
2026-01-26 15:12:58.85	210.71	6.51	-42.3	-43.8	19.4	0.00e+00	3	29	0	1464860672	58	6291
2026-01-26 15:13:02.89	210.68	6.21	-42.1	-43.6	19.5	0.00e+00	0	29	0	1472200704	58	6117
2026-01-26 15:13:06.93	210.65	5.91	-42.1	-43.6	19.3	0.00e+00	0	29	0	1480589312	58	6147
2026-01-26 15:13:10.97	210.62	5.61	-42.7	-44.3	18.7	0.00e+00	90	29	0	1487929344	58	6657
2026-01-26 15:13:15.00	210.59	5.32	-42.8	-44.5	18.5	0.00e+00	0	29	0	1495269376	58	6812
2026-01-26 15:13:19.04	210.56	5.02	-42.6	-44.2	18.6	0.00e+00	0	29	0	1502609408	58	6593
2026-01-26 15:13:23.08	210.54	4.74	-42.3	-43.8	19.0	0.00e+00	54	29	0	1509949440	58	6295
2026-01-26 15:13:27.11	210.51	4.45	-42.7	-44.4	18.4	0.00e+00	92	29	0	1518338048	58	6695
2026-01-26 15:13:31.15	210.49	4.17	-42.1	-43.6	19.1	0.00e+00	0	29	0	1525678080	58	6173
2026-01-26 15:13:35.19	210.47	3.89	-42.8	-44.6	18.1	0.00e+00	82	29	0	1533018112	58	6909
2026-01-26 15:13:39.23	210.44	3.62	-42.9	-44.7	17.6	0.00e+00	56	29	0	1540358144	58	6969
2026-01-26 15:13:43.26	210.42	3.34	-43.1	-45.1	17.5	0.00e+00	32	29	0	1548746752	58	7267
2026-01-26 15:13:47.30	210.40	3.07	-43.3	-45.3	17.3	0.00e+00	0	29	0	1556086784	58	7438
2026-01-26 15:13:51.34	210.38	2.80	-49.3	-64.5	3.6	1.51e+00	0	29	104	1558183936	60	60792
2026-01-26 15:13:55.38	210.36	2.54	-49.6	-64.9	3.6	1.51e+00	0	29	104	1558183936	60	63337
2026-01-26 15:13:59.42	210.34	2.27	-49.7	-65.0	3.6	1.51e+00	0	29	104	1558183936	60	64066
2026-01-26 15:14:03.46	210.32	2.01	-49.5	-65.0	3.6	1.51e+00	0	29	104	1558183936	60	63922
2026-01-26 15:14:07.50	210.30	1.76	-49.6	-64.9	3.6	1.51e+00	0	29	104	1558183936	60	63512
2026-01-26 15:14:11.54	210.28	1.50	-49.6	-64.9	3.6	1.51e+00	0	29	104	1558183936	60	63268
2026-01-26 15:14:15.57	210.26	1.25	-49.7	-64.9	3.6	1.51e+00	0	29	104	1558183936	60	63571
2026-01-26 15:14:19.62	210.24	0.99	-49.7	-64.9	3.6	1.51e+00	0	29	104	1558183936	60	63419
2026-01-26 15:14:23.66	210.23	0.74	-50.0	-65.2	3.6	1.51e+00	0	29	104	1558183936	60	65467
2026-01-26 15:14:27.70	210.21	0.50	-49.8	-65.0	3.6	1.51e+00	0	29	104	1558183936	60	64417
2026-01-26 15:14:31.74	210.19	0.25	-49.8	-65.1	3.6	1.51e+00	0	29	104	1558183936	60	64758
2026-01-26 15:14:35.78	210.18	0.01	-50.1	-65.3	3.6	1.51e+00	0	29	104	1558183936	60	66712

#Closed at: 2026-01-26 15:14:36
#Recorded file [1558 MB]: D:/lorett/data/35029_260127_025907.dat