passes_logs/2026/01/26/R4.6S_Anadyr/R4.6S_Anadyr__20260126_023622_AQUA_rec.log

#Pass ID: 20260126_023622_AQUA
#Satellite: AQUA
#Configuration: AQUA
#almurnet v.1.7.20251203
#Start time: 2026-01-26 02:36:25

#Version: 2.2.20231116
#Station: R4.6S_Anadyr
#Location: 177.4865 lon 64.73178 lat
#TLE: 1 27424U 02022A   26025.50647354  .00001868  00000+0  38363-3 0  9992
#TLE: 2 27424  98.4099 352.1114 0001896  65.7986  47.0097 14.61858879262422

#Time	Az	El	Level	Level2	SNR	BER	BlckErr	Temp	State	Recorded	gain1	gain2
2026-01-26 02:36:25.71	173.19	0.21	-51.4	-68.1	3.2	3.02e+01	0	29	0	0	60	97688
2026-01-26 02:36:29.75	173.29	0.46	-51.6	-69.8	3.5	3.02e+01	0	29	104	0	60	118404
2026-01-26 02:36:33.79	173.40	0.71	-51.8	-69.7	3.5	3.02e+01	0	29	104	0	60	117730
2026-01-26 02:36:37.83	173.50	0.96	-51.5	-69.7	3.5	3.02e+01	0	29	104	0	60	117986
2026-01-26 02:36:41.86	173.61	1.22	-51.9	-69.7	3.5	3.02e+01	0	29	104	0	60	117927
2026-01-26 02:36:45.90	173.72	1.48	-51.0	-68.9	3.5	3.02e+01	0	29	104	0	60	106803
2026-01-26 02:36:49.94	173.83	1.74	-48.7	-66.0	3.5	3.02e+01	0	29	104	0	60	76814
2026-01-26 02:36:53.96	173.94	2.00	-48.4	-66.0	3.5	3.02e+01	0	29	104	0	60	76879
2026-01-26 02:36:58.00	174.06	2.27	-49.0	-66.7	3.5	3.02e+01	0	29	104	0	60	83338
2026-01-26 02:37:02.04	174.18	2.54	-48.6	-66.0	3.5	3.02e+01	0	29	104	0	60	77037
2026-01-26 02:37:06.08	174.30	2.81	-48.7	-64.4	3.5	3.02e+01	0	29	104	0	60	63763
2026-01-26 02:37:10.11	174.42	3.08	-47.9	-54.7	11.3	3.02e+01	92	30	0	1048576	60	20816
2026-01-26 02:37:14.16	174.54	3.36	-41.9	-43.9	22.2	3.02e+01	92	29	0	8912896	58	6784
2026-01-26 02:37:18.19	174.67	3.64	-38.9	-40.4	25.5	3.02e+01	90	30	0	16252928	52	6401
2026-01-26 02:37:22.23	174.80	3.92	-43.3	-45.5	21.6	3.02e+01	92	29	0	24117248	60	7272
2026-01-26 02:37:26.27	174.93	4.21	-39.4	-40.8	25.9	3.02e+01	89	29	0	29360128	54	5961
2026-01-26 02:37:30.31	175.06	4.50	-39.2	-40.7	25.7	3.02e+01	92	30	0	36700160	52	6588
2026-01-26 02:37:34.35	175.20	4.79	-38.3	-39.7	26.5	3.02e+01	92	30	0	44040192	52	5893
2026-01-26 02:37:38.39	175.34	5.09	-38.1	-39.5	26.6	3.02e+01	92	29	0	51904512	50	6480
2026-01-26 02:37:42.42	175.48	5.39	-38.2	-39.6	26.7	3.02e+01	92	30	0	59244544	50	6520
2026-01-26 02:37:46.46	175.62	5.70	-39.0	-40.4	26.2	3.02e+01	89	30	0	67108864	52	6379
2026-01-26 02:37:50.50	175.77	6.00	-38.4	-39.8	26.8	3.02e+01	90	30	0	74448896	50	6663
2026-01-26 02:37:54.54	175.92	6.32	-38.1	-39.5	26.9	3.02e+01	90	30	0	82313216	50	6462
2026-01-26 02:37:58.58	176.08	6.63	-37.8	-39.1	27.5	3.02e+01	89	30	0	89653248	50	6178
2026-01-26 02:38:02.62	176.23	6.96	-37.9	-39.2	27.6	3.02e+01	90	30	0	97517568	50	6234
2026-01-26 02:38:06.66	176.40	7.28	-37.7	-39.0	27.3	3.02e+01	92	30	0	104857600	50	6108
2026-01-26 02:38:10.70	176.56	7.61	-37.4	-38.7	27.6	3.02e+01	90	29	0	112197632	50	5880
2026-01-26 02:38:14.74	176.73	7.94	-37.0	-38.3	27.9	3.02e+01	92	30	0	120061952	48	6307
2026-01-26 02:38:18.78	176.90	8.28	-37.4	-38.7	27.7	3.02e+01	91	30	0	127401984	48	6643
2026-01-26 02:38:22.82	177.08	8.63	-37.3	-38.6	27.9	3.02e+01	92	30	0	135266304	50	5801
2026-01-26 02:38:26.85	177.26	8.98	-37.1	-38.3	28.1	3.02e+01	92	30	0	142606336	48	6339
2026-01-26 02:38:30.89	177.44	9.33	-37.2	-38.5	27.9	3.02e+01	90	30	0	150470656	48	6473
2026-01-26 02:38:34.93	177.63	9.69	-37.0	-38.3	28.1	3.02e+01	92	30	0	157810688	48	6298
2026-01-26 02:38:38.97	177.83	10.06	-36.7	-38.0	28.2	3.02e+01	89	30	0	165675008	48	6073
2026-01-26 02:38:43.01	178.03	10.43	-36.7	-38.0	28.4	3.02e+01	92	30	0	173015040	48	6091
2026-01-26 02:38:47.04	178.23	10.81	-36.6	-37.9	28.6	3.02e+01	92	30	0	180355072	48	6028
2026-01-26 02:38:51.08	178.44	11.19	-36.8	-38.1	28.7	3.02e+01	91	30	0	188219392	48	6149
2026-01-26 02:38:55.12	178.66	11.58	-36.9	-38.1	28.5	3.02e+01	91	30	0	195559424	48	6180
2026-01-26 02:38:59.16	178.88	11.98	-36.5	-37.7	28.5	3.02e+01	92	30	0	203423744	48	5919
2026-01-26 02:39:03.20	179.11	12.38	-36.2	-37.5	28.7	3.02e+01	92	30	0	210763776	48	5745
2026-01-26 02:39:07.23	179.34	12.79	-36.3	-37.5	28.9	3.02e+01	92	30	0	218628096	48	5788
2026-01-26 02:39:11.27	179.58	13.21	-36.6	-37.9	28.9	3.02e+01	90	30	0	225968128	48	6016
2026-01-26 02:39:15.31	179.83	13.64	-36.2	-37.4	29.0	3.02e+01	92	30	0	233308160	48	5710
2026-01-26 02:39:19.35	180.09	14.08	-36.2	-37.5	29.0	3.02e+01	92	30	0	241172480	48	5728
2026-01-26 02:39:23.39	180.35	14.52	-36.0	-37.2	29.2	3.02e+01	92	30	0	248512512	48	5571
2026-01-26 02:39:27.43	180.62	14.97	-36.2	-37.4	28.9	3.02e+01	87	30	0	256376832	48	5690
2026-01-26 02:39:31.46	180.90	15.43	-35.9	-37.1	29.3	3.02e+01	91	30	0	263716864	46	6169
2026-01-26 02:39:35.50	181.19	15.90	-35.8	-37.0	29.3	3.02e+01	92	30	0	271581184	46	6091
2026-01-26 02:39:39.54	181.49	16.38	-36.0	-37.2	29.4	3.02e+01	92	30	0	278921216	46	6272
2026-01-26 02:39:43.58	181.80	16.87	-35.7	-36.9	29.5	3.02e+01	91	30	0	286785536	46	6045
2026-01-26 02:39:47.61	182.12	17.37	-35.9	-37.1	29.4	3.02e+01	92	30	0	294125568	46	6152
2026-01-26 02:39:51.65	182.45	17.88	-35.8	-37.0	29.5	3.02e+01	92	30	0	301465600	46	6072
2026-01-26 02:39:55.69	182.79	18.40	-35.7	-36.9	29.6	3.02e+01	92	30	0	309329920	46	6062
2026-01-26 02:39:59.72	183.14	18.93	-35.6	-36.8	29.5	3.02e+01	90	30	0	316669952	46	5985
2026-01-26 02:40:03.77	183.51	19.48	-35.6	-36.8	29.6	3.02e+01	92	30	0	324534272	46	5985
2026-01-26 02:40:07.80	183.88	20.03	-35.4	-36.6	29.6	3.02e+01	92	30	0	331874304	46	5822
2026-01-26 02:40:11.84	184.28	20.60	-35.7	-36.9	29.4	3.02e+01	92	30	0	339738624	46	6054
2026-01-26 02:40:15.88	184.69	21.19	-35.9	-37.1	29.3	3.02e+01	92	30	0	347078656	46	6170
2026-01-26 02:40:19.92	185.11	21.78	-36.0	-37.2	29.4	3.02e+01	88	30	0	354942976	46	6211
2026-01-26 02:40:23.96	185.55	22.39	-36.1	-37.3	29.3	3.02e+01	92	30	0	362283008	46	6336
2026-01-26 02:40:28.00	186.01	23.02	-36.4	-37.6	29.1	3.02e+01	91	30	0	369623040	46	6555
2026-01-26 02:40:32.04	186.49	23.66	-36.3	-37.5	29.3	3.02e+01	92	30	0	377487360	48	5766
2026-01-26 02:40:36.08	186.99	24.32	-36.1	-37.4	29.3	3.02e+01	92	30	0	384827392	46	6373
2026-01-26 02:40:40.12	187.51	24.99	-36.0	-37.2	29.2	3.02e+01	92	30	0	392691712	46	6271
2026-01-26 02:40:44.16	188.06	25.68	-36.2	-37.5	29.1	3.02e+01	92	30	0	400031744	46	6451
2026-01-26 02:40:48.20	188.63	26.38	-36.5	-37.8	29.1	3.02e+01	92	30	0	407896064	48	5940
2026-01-26 02:40:52.23	189.22	27.11	-36.0	-37.2	29.5	3.02e+01	90	30	0	415236096	46	6234
2026-01-26 02:40:56.27	189.85	27.85	-35.7	-36.9	29.6	3.02e+01	92	30	0	423100416	46	6060
2026-01-26 02:41:00.31	190.50	28.61	-35.7	-37.0	29.7	3.02e+01	92	30	0	430440448	46	6070
2026-01-26 02:41:04.34	191.19	29.38	-36.0	-37.2	29.6	3.02e+01	92	30	0	437780480	46	6265
2026-01-26 02:41:08.38	191.91	30.18	-36.0	-37.3	29.8	3.02e+01	92	30	0	445644800	46	6297
2026-01-26 02:41:12.42	192.66	31.00	-36.3	-37.6	29.4	3.02e+01	90	30	0	452984832	46	6513
2026-01-26 02:41:16.45	193.46	31.83	-36.9	-38.1	29.2	3.02e+01	92	30	0	460849152	46	6942
2026-01-26 02:41:20.49	194.30	32.69	-36.1	-37.3	29.4	3.02e+01	92	30	0	468189184	46	6330
2026-01-26 02:41:24.53	195.19	33.56	-36.3	-37.6	29.2	3.02e+01	91	30	0	476053504	46	6501
2026-01-26 02:41:28.57	196.13	34.46	-37.0	-38.3	28.8	3.02e+01	91	30	0	483393536	48	6313
2026-01-26 02:41:32.60	197.12	35.37	-37.1	-38.4	28.8	3.02e+01	92	30	0	491257856	48	6362
2026-01-26 02:41:36.64	198.16	36.30	-37.5	-38.8	28.3	3.02e+01	91	30	0	498597888	50	5943
2026-01-26 02:41:40.68	199.28	37.26	-37.4	-38.7	28.2	3.02e+01	92	30	0	505937920	50	5916
2026-01-26 02:41:44.72	200.46	38.23	-37.6	-38.9	28.0	3.02e+01	92	30	0	513802240	50	6048
2026-01-26 02:41:48.76	201.71	39.21	-37.7	-39.1	28.1	3.02e+01	92	30	0	521142272	50	6135
2026-01-26 02:41:52.80	203.04	40.21	-36.7	-37.9	29.0	3.02e+01	90	30	0	529006592	48	6054
2026-01-26 02:41:56.84	204.46	41.22	-36.3	-37.6	29.3	3.02e+01	92	30	0	536346624	48	5807
2026-01-26 02:42:00.88	205.97	42.24	-36.7	-37.9	28.9	3.02e+01	93	30	0	544210944	48	6049
2026-01-26 02:42:04.92	207.58	43.27	-35.5	-36.7	30.0	3.02e+01	89	30	0	551550976	46	5887
2026-01-26 02:42:08.96	209.29	44.30	-35.4	-36.6	30.1	3.02e+01	92	30	0	559415296	46	5792
2026-01-26 02:42:13.00	211.13	45.33	-35.3	-36.5	30.2	3.02e+01	92	30	0	566755328	46	5730
2026-01-26 02:42:17.04	213.08	46.35	-35.4	-36.6	30.1	3.02e+01	92	30	0	574095360	46	5828
2026-01-26 02:42:21.08	215.17	47.37	-35.0	-36.1	30.2	3.02e+01	92	30	0	581959680	44	6190
2026-01-26 02:42:25.11	217.38	48.36	-34.9	-36.1	30.0	3.02e+01	92	30	0	589299712	44	6202
2026-01-26 02:42:29.15	219.76	49.33	-34.9	-36.1	30.1	3.02e+01	88	30	0	597164032	44	6170
2026-01-26 02:42:33.19	222.28	50.27	-35.9	-37.1	29.6	3.02e+01	92	30	0	604504064	44	6942
2026-01-26 02:42:37.23	224.96	51.16	-35.8	-36.9	29.9	3.02e+01	92	30	0	612368384	46	6050
2026-01-26 02:42:41.27	227.80	52.01	-35.9	-37.1	30.0	3.02e+01	92	30	0	619708416	46	6178
2026-01-26 02:42:45.31	230.80	52.79	-36.1	-37.2	30.0	3.02e+01	92	30	0	627572736	46	6270
2026-01-26 02:42:49.34	233.95	53.50	-36.0	-37.2	29.8	3.02e+01	92	30	0	634912768	46	6258
2026-01-26 02:42:53.38	237.26	54.13	-36.1	-37.3	29.5	3.02e+01	92	30	0	642252800	46	6317
2026-01-26 02:42:57.42	240.71	54.67	-36.4	-37.6	29.1	3.02e+01	91	30	0	650117120	46	6537
2026-01-26 02:43:01.46	244.27	55.11	-36.3	-37.6	29.1	3.02e+01	91	30	0	657457152	46	6500
2026-01-26 02:43:05.50	247.93	55.44	-36.2	-37.5	29.2	3.02e+01	91	30	0	665321472	46	6424
2026-01-26 02:43:09.54	251.67	55.66	-36.6	-37.8	29.0	3.02e+01	92	30	0	672661504	46	6698
2026-01-26 02:43:13.57	255.44	55.76	-37.6	-38.8	28.6	3.02e+01	90	30	0	680525824	50	5984
2026-01-26 02:43:17.61	259.22	55.74	-38.1	-39.4	28.5	3.02e+01	89	30	0	687865856	50	6361
2026-01-26 02:43:21.65	262.99	55.60	-36.4	-37.6	29.1	3.02e+01	92	30	0	695205888	48	5842
2026-01-26 02:43:25.69	266.70	55.34	-38.0	-39.3	28.8	3.02e+01	92	30	0	703070208	50	6289
2026-01-26 02:43:29.72	270.32	54.97	-36.9	-38.1	29.4	3.02e+01	88	30	0	710410240	48	6191
2026-01-26 02:43:33.76	273.85	54.50	-36.8	-38.0	29.4	3.02e+01	92	30	0	718274560	48	6117
2026-01-26 02:43:37.80	277.24	53.93	-37.2	-38.4	29.7	3.02e+01	92	30	0	725614592	48	6387
2026-01-26 02:43:41.84	280.50	53.27	-36.7	-37.9	29.4	3.02e+01	91	30	0	733478912	48	6054
2026-01-26 02:43:45.88	283.60	52.54	-36.4	-37.6	29.6	3.02e+01	92	30	0	740818944	48	5817
2026-01-26 02:43:49.92	286.54	51.74	-37.4	-38.7	29.1	3.02e+01	92	30	0	748683264	48	6596
2026-01-26 02:43:53.96	289.32	50.88	-37.8	-39.1	29.1	3.02e+01	89	30	0	756023296	50	6135
2026-01-26 02:43:58.00	291.95	49.97	-38.3	-39.6	28.9	3.02e+01	92	30	0	763363328	50	6550
2026-01-26 02:44:02.04	294.41	49.02	-37.4	-38.7	29.2	3.02e+01	92	30	0	771227648	50	5872
2026-01-26 02:44:06.08	296.73	48.05	-37.6	-38.9	29.1	3.02e+01	92	30	0	778567680	50	6015
2026-01-26 02:44:10.11	298.90	47.05	-37.4	-38.6	28.9	3.02e+01	91	30	0	786432000	50	5853
2026-01-26 02:44:14.15	300.93	46.04	-37.3	-38.5	29.2	3.02e+01	91	30	0	793772032	48	6461
2026-01-26 02:44:18.19	302.84	45.02	-38.0	-39.3	27.9	3.02e+01	92	30	0	801636352	48	7086
2026-01-26 02:44:22.23	304.63	43.99	-37.5	-38.7	29.2	3.02e+01	92	30	0	808976384	50	5894
2026-01-26 02:44:26.27	306.31	42.96	-37.7	-38.9	29.0	3.02e+01	92	30	0	816840704	50	6018
2026-01-26 02:44:30.30	307.88	41.94	-38.0	-39.2	29.2	3.02e+01	92	30	0	824180736	50	6258
2026-01-26 02:44:34.34	309.35	40.93	-38.1	-39.3	28.7	3.02e+01	90	30	0	831520768	50	6289
2026-01-26 02:44:38.38	310.74	39.93	-38.7	-39.9	28.5	3.02e+01	90	30	0	839385088	52	6063
2026-01-26 02:44:42.42	312.04	38.94	-37.2	-38.4	28.6	3.02e+01	92	30	0	846725120	50	5708
2026-01-26 02:44:46.45	313.26	37.97	-36.9	-38.1	29.0	3.02e+01	90	30	0	854589440	50	5510
2026-01-26 02:44:50.49	314.42	37.01	-36.5	-37.7	29.4	3.02e+01	89	30	0	861929472	48	5884
2026-01-26 02:44:54.53	315.51	36.07	-36.5	-37.7	29.6	3.02e+01	90	30	0	869793792	48	5874
2026-01-26 02:44:58.57	316.54	35.14	-37.2	-38.4	29.9	3.02e+01	90	30	0	877133824	48	6384
2026-01-26 02:45:02.60	317.51	34.24	-36.7	-37.8	30.2	3.02e+01	90	30	0	884998144	48	5986
2026-01-26 02:45:06.64	318.43	33.36	-36.2	-37.3	30.4	3.02e+01	92	30	0	892338176	46	6334
2026-01-26 02:45:10.68	319.30	32.49	-36.2	-37.3	30.5	3.02e+01	91	30	0	899678208	46	6340
2026-01-26 02:45:14.72	320.12	31.64	-35.5	-36.7	30.6	3.02e+01	91	30	0	907542528	46	5870
2026-01-26 02:45:18.76	320.91	30.82	-36.5	-37.6	30.4	3.02e+01	52	30	0	914882560	46	6569
2026-01-26 02:45:22.80	321.65	30.01	-36.6	-37.7	29.6	3.02e+01	57	30	0	922746880	48	5913
2026-01-26 02:45:26.84	322.36	29.22	-36.5	-37.6	30.2	3.02e+01	56	30	0	930086912	48	5852
2026-01-26 02:45:30.88	323.04	28.46	-35.9	-37.0	30.0	3.02e+01	62	30	0	937951232	46	6121
2026-01-26 02:45:34.92	323.68	27.71	-36.7	-37.9	29.7	3.02e+01	64	30	0	945291264	46	6767
2026-01-26 02:45:38.96	324.30	26.97	-35.8	-37.0	29.9	3.02e+01	60	30	0	953155584	46	6133
2026-01-26 02:45:43.00	324.88	26.26	-36.3	-37.5	29.7	3.02e+01	57	30	0	960495616	46	6466
2026-01-26 02:45:47.03	325.44	25.56	-36.3	-37.5	29.7	3.02e+01	59	30	0	967835648	48	5769
2026-01-26 02:45:51.07	325.98	24.88	-36.5	-37.7	29.8	3.02e+01	59	30	0	975699968	48	5871
2026-01-26 02:45:55.11	326.50	24.22	-36.1	-37.3	29.6	3.02e+01	59	30	0	983040000	46	6318
2026-01-26 02:45:59.15	326.99	23.57	-36.4	-37.5	29.4	3.02e+01	57	30	0	990904320	48	5785
2026-01-26 02:46:03.19	327.46	22.94	-36.5	-37.7	29.6	3.02e+01	57	30	0	998244352	48	5859
2026-01-26 02:46:07.23	327.92	22.32	-37.0	-38.2	29.3	3.02e+01	61	30	0	1006108672	48	6260
2026-01-26 02:46:11.27	328.36	21.72	-37.0	-38.1	29.5	3.02e+01	60	30	0	1013448704	48	6200
2026-01-26 02:46:15.30	328.78	21.13	-36.3	-37.5	29.8	3.02e+01	58	30	0	1021313024	48	5738
2026-01-26 02:46:19.34	329.18	20.55	-36.5	-37.6	29.7	3.02e+01	59	30	0	1028653056	48	5841
2026-01-26 02:46:23.38	329.57	19.99	-36.4	-37.6	29.7	3.02e+01	61	30	0	1035993088	46	6522
2026-01-26 02:46:27.41	329.95	19.44	-36.9	-38.1	29.4	3.02e+01	58	30	0	1043857408	48	6159
2026-01-26 02:46:31.45	330.31	18.90	-36.4	-37.6	29.6	3.02e+01	60	30	0	1051197440	48	5831
2026-01-26 02:46:35.49	330.66	18.37	-35.8	-37.0	29.3	3.02e+01	57	30	0	1059061760	46	6116
2026-01-26 02:46:39.53	331.00	17.86	-36.3	-37.5	29.3	3.02e+01	59	30	0	1066401792	46	6434
2026-01-26 02:46:43.57	331.33	17.35	-36.7	-37.9	29.4	3.02e+01	44	30	0	1074266112	48	6038
2026-01-26 02:46:47.60	331.64	16.86	-36.8	-38.0	29.5	3.02e+01	55	30	0	1081606144	46	6831
2026-01-26 02:46:51.64	331.95	16.37	-35.8	-37.0	29.3	3.02e+01	45	30	0	1089470464	46	6105
2026-01-26 02:46:55.68	332.25	15.90	-35.1	-36.3	29.8	3.02e+01	60	30	0	1096810496	46	5608
2026-01-26 02:46:59.72	332.53	15.43	-36.2	-37.4	29.5	3.02e+01	45	30	0	1104150528	46	6354
2026-01-26 02:47:03.76	332.81	14.98	-36.2	-37.4	29.5	3.02e+01	59	30	0	1112014848	46	6392
2026-01-26 02:47:07.80	333.08	14.53	-35.9	-37.1	29.3	3.02e+01	45	30	0	1119354880	46	6147
2026-01-26 02:47:11.84	333.35	14.09	-36.6	-37.8	29.2	3.02e+01	59	30	0	1127219200	48	5991
2026-01-26 02:47:15.87	333.60	13.66	-37.4	-38.7	28.6	3.02e+01	44	30	0	1134559232	48	6576
2026-01-26 02:47:19.91	333.85	13.24	-36.3	-37.5	28.6	3.02e+01	57	30	0	1142423552	48	5778
2026-01-26 02:47:23.95	334.09	12.82	-36.5	-37.7	28.7	3.02e+01	44	30	0	1149763584	48	5924
2026-01-26 02:47:27.99	334.33	12.41	-36.1	-37.4	28.9	3.02e+01	62	30	0	1157103616	46	6356
2026-01-26 02:47:32.03	334.55	12.01	-36.5	-37.7	28.7	3.02e+01	50	30	0	1164967936	46	6584
2026-01-26 02:47:36.06	334.78	11.62	-35.9	-37.1	28.8	3.02e+01	60	30	0	1172307968	48	5505
2026-01-26 02:47:40.10	334.99	11.23	-39.9	-50.2	3.4	3.02e+01	0	30	104	1174929408	54	17690
2026-01-26 02:47:44.14	335.20	10.85	-43.5	-54.5	3.6	3.02e+01	0	30	104	1174929408	60	20444
2026-01-26 02:47:48.18	335.41	10.48	-38.1	-48.2	3.6	3.02e+01	0	30	104	1174929408	50	17639
2026-01-26 02:47:52.22	335.61	10.11	-39.5	-49.7	4.1	3.02e+01	0	30	104	1174929408	52	18623
2026-01-26 02:47:56.26	335.81	9.75	-37.3	-47.3	3.5	3.02e+01	0	30	104	1174929408	48	17863
2026-01-26 02:48:00.27	336.00	9.39	-42.3	-53.0	3.6	3.02e+01	0	30	104	1174929408	60	17268
2026-01-26 02:48:04.30	336.18	9.04	-42.3	-53.0	3.6	3.02e+01	0	30	104	1174929408	60	17245
2026-01-26 02:48:08.33	336.36	8.69	-44.0	-55.0	3.5	3.02e+01	0	30	104	1174929408	60	21564
2026-01-26 02:48:12.37	336.54	8.35	-37.8	-48.0	3.5	3.02e+01	0	30	104	1174929408	52	15362
2026-01-26 02:48:16.41	336.72	8.02	-40.0	-50.5	3.5	3.02e+01	0	30	104	1174929408	54	18126
2026-01-26 02:48:20.45	336.89	7.68	-39.9	-50.3	3.5	3.02e+01	0	30	104	1174929408	58	14080
2026-01-26 02:48:24.48	337.05	7.36	-42.5	-53.3	3.5	3.02e+01	0	30	104	1174929408	60	17698
2026-01-26 02:48:28.52	337.22	7.03	-39.0	-49.2	3.5	3.02e+01	0	30	104	1174929408	52	17673
2026-01-26 02:48:32.56	337.38	6.72	-41.3	-51.9	3.5	3.02e+01	0	30	104	1174929408	58	17030
2026-01-26 02:48:36.60	337.53	6.40	-42.0	-52.7	3.5	3.02e+01	0	30	104	1174929408	58	18660
2026-01-26 02:48:40.64	337.69	6.09	-40.7	-51.3	3.6	3.02e+01	0	30	104	1174929408	58	15792
2026-01-26 02:48:44.67	337.83	5.79	-46.2	-58.3	3.5	3.02e+01	0	30	104	1174929408	60	31666
2026-01-26 02:48:48.71	337.98	5.48	-40.2	-50.7	3.5	3.02e+01	0	30	104	1174929408	56	16600
2026-01-26 02:48:52.75	338.13	5.18	-42.6	-53.6	3.5	3.02e+01	0	30	104	1174929408	58	20665
2026-01-26 02:48:56.79	338.27	4.89	-42.9	-54.0	3.6	3.02e+01	0	30	104	1174929408	60	19349
2026-01-26 02:49:00.82	338.41	4.60	-45.8	-59.6	3.5	3.02e+01	0	30	104	1174929408	60	36815
2026-01-26 02:49:04.86	338.54	4.31	-45.0	-60.0	3.5	3.02e+01	0	30	104	1174929408	60	38492
2026-01-26 02:49:08.90	338.68	4.02	-45.9	-62.5	3.5	3.02e+01	0	30	104	1174929408	60	51251
2026-01-26 02:49:12.94	338.81	3.74	-45.5	-63.1	3.5	3.02e+01	0	30	104	1174929408	60	54987
2026-01-26 02:49:16.98	338.94	3.46	-45.6	-63.5	3.5	3.02e+01	0	30	104	1174929408	60	57718
2026-01-26 02:49:21.01	339.06	3.19	-45.7	-63.6	3.5	3.02e+01	0	30	104	1174929408	60	58320
2026-01-26 02:49:25.05	339.19	2.92	-46.2	-64.1	3.5	3.02e+01	0	30	104	1174929408	60	61697
2026-01-26 02:49:29.09	339.31	2.65	-50.1	-68.0	3.5	3.02e+01	0	30	104	1174929408	60	96733
2026-01-26 02:49:33.13	339.43	2.38	-51.1	-69.1	3.5	3.02e+01	0	30	104	1174929408	60	109347
2026-01-26 02:49:37.16	339.55	2.11	-50.6	-68.6	3.5	3.02e+01	0	30	104	1174929408	60	104141
2026-01-26 02:49:41.20	339.67	1.85	-50.9	-69.4	3.5	3.02e+01	0	30	104	1174929408	60	113972
2026-01-26 02:49:45.24	339.78	1.59	-51.3	-69.3	3.5	3.02e+01	0	30	104	1174929408	60	112425
2026-01-26 02:49:49.27	339.89	1.34	-50.8	-68.6	3.5	3.02e+01	0	30	104	1174929408	60	103882
2026-01-26 02:49:53.32	340.00	1.08	-51.5	-69.3	3.5	3.02e+01	0	30	104	1174929408	60	112606
2026-01-26 02:49:57.36	340.11	0.83	-51.1	-69.0	3.5	3.02e+01	0	30	104	1174929408	60	108143
2026-01-26 02:50:01.39	340.22	0.58	-51.8	-69.6	3.5	3.02e+01	0	30	104	1174929408	60	116747
2026-01-26 02:50:05.43	340.33	0.33	-51.6	-69.5	3.5	3.02e+01	0	30	104	1174929408	60	114678
2026-01-26 02:50:09.46	340.43	0.09	-51.8	-69.6	3.5	3.02e+01	0	30	104	1174929408	60	116597

#Closed at: 2026-01-26 02:50:12
#Recorded file [1174 MB]: D:/lorett/data/35029_260126_143625.dat