passes_logs/2026/01/26/R4.6S_Anadyr/R4.6S_Anadyr__20260126_014948_FENGYUN_3D_rec.log

#Pass ID: 20260126_014948_FENGYUN 3D
#Satellite: FENGYUN 3D
#Configuration: FENGYUN 3D
#almurnet v.1.7.20251203
#Start time: 2026-01-26 01:49:51

#Version: 2.2.20231116
#Station: R4.6S_Anadyr
#Location: 177.4865 lon 64.73178 lat
#TLE: 1 43010U 17072A   26025.50461972  .00000046  00000+0  43592-4 0  9990
#TLE: 2 43010  98.9962 357.4844 0002523  89.7890 270.3575 14.19699798424744

#Time	Az	El	Level	Level2	SNR	BER	BlckErr	Temp	State	Recorded	gain1	gain2
2026-01-26 01:49:51.16	144.97	0.17	-51.1	-66.0	3.5	1.51e+00	0	28	0	0	60	72426
2026-01-26 01:49:55.20	144.93	0.41	-50.9	-63.0	3.6	8.46e-01	0	29	104	0	60	51038
2026-01-26 01:49:59.24	144.90	0.66	-50.0	-62.2	3.6	8.45e-01	0	29	104	0	60	46389
2026-01-26 01:50:03.28	144.86	0.91	-49.9	-62.0	3.6	8.46e-01	0	29	104	0	60	45737
2026-01-26 01:50:07.32	144.82	1.16	-49.8	-62.0	3.6	8.44e-01	0	29	104	0	60	45700
2026-01-26 01:50:11.36	144.78	1.41	-49.6	-61.8	3.5	8.46e-01	0	29	104	0	60	44252
2026-01-26 01:50:15.40	144.74	1.66	-47.7	-60.3	3.6	8.46e-01	0	29	104	0	60	37281
2026-01-26 01:50:19.44	144.70	1.92	-48.0	-60.1	3.6	8.45e-01	0	29	104	0	60	36727
2026-01-26 01:50:23.48	144.66	2.18	-47.9	-59.9	3.6	8.45e-01	0	30	104	0	60	35851
2026-01-26 01:50:27.52	144.62	2.44	-47.9	-60.0	3.6	8.45e-01	0	30	104	0	60	36165
2026-01-26 01:50:31.56	144.57	2.71	-48.0	-60.0	3.6	8.45e-01	0	30	104	0	60	35954
2026-01-26 01:50:35.60	144.53	2.97	-48.7	-60.7	3.5	8.46e-01	0	30	104	0	60	39271
2026-01-26 01:50:39.64	144.48	3.24	-47.7	-55.3	3.8	8.41e-01	0	30	104	0	60	21133
2026-01-26 01:50:43.67	144.44	3.51	-44.4	-46.6	13.3	7.77e-04	0	30	0	17825792	60	7722
2026-01-26 01:50:47.71	144.39	3.79	-41.0	-42.3	16.9	0.00e+00	0	30	0	39845888	54	6681
2026-01-26 01:50:51.74	144.34	4.07	-43.5	-45.6	11.0	0.00e+00	0	30	0	55574528	56	8642
2026-01-26 01:50:55.78	144.29	4.35	-39.9	-41.0	19.2	0.00e+00	0	30	0	71303168	52	6450
2026-01-26 01:50:59.83	144.24	4.63	-39.3	-40.4	19.6	0.00e+00	0	30	0	94371840	52	5971
2026-01-26 01:51:03.86	144.19	4.92	-39.1	-40.1	20.2	0.00e+00	0	30	0	116391936	50	6480
2026-01-26 01:51:07.90	144.13	5.21	-38.4	-39.4	20.1	0.00e+00	0	30	0	139460608	50	5970
2026-01-26 01:51:11.94	144.08	5.50	-38.5	-39.5	20.3	0.00e+00	0	30	0	162529280	50	6050
2026-01-26 01:51:15.98	144.02	5.79	-38.4	-39.3	20.6	0.00e+00	0	30	0	184549376	50	5964
2026-01-26 01:51:20.03	143.96	6.09	-38.1	-39.0	20.8	0.00e+00	0	30	0	207618048	48	6456
2026-01-26 01:51:24.07	143.90	6.40	-37.9	-38.8	21.2	0.00e+00	0	30	0	229638144	48	6273
2026-01-26 01:51:28.11	143.84	6.70	-37.8	-38.7	21.4	0.00e+00	0	30	0	252706816	48	6204
2026-01-26 01:51:32.14	143.78	7.01	-37.4	-38.3	21.7	0.00e+00	0	30	0	275775488	48	5932
2026-01-26 01:51:36.18	143.71	7.32	-36.7	-37.5	22.1	0.00e+00	0	30	0	298844160	46	6043
2026-01-26 01:51:40.22	143.65	7.64	-36.7	-37.5	22.0	0.00e+00	0	30	0	320864256	46	6088
2026-01-26 01:51:44.26	143.58	7.96	-36.2	-37.0	22.5	0.00e+00	0	30	0	343932928	46	5751
2026-01-26 01:51:48.29	143.51	8.29	-36.6	-37.4	22.3	0.00e+00	0	30	0	367001600	46	5974
2026-01-26 01:51:52.33	143.44	8.62	-36.3	-37.0	23.0	0.00e+00	0	30	0	389021696	46	5748
2026-01-26 01:51:56.37	143.37	8.95	-36.4	-37.1	23.0	0.00e+00	0	30	0	412090368	46	5821
2026-01-26 01:52:00.41	143.29	9.29	-36.4	-37.2	23.0	0.00e+00	0	30	0	434110464	46	5852
2026-01-26 01:52:04.45	143.22	9.63	-35.9	-36.7	23.1	0.00e+00	0	30	0	457179136	46	5507
2026-01-26 01:52:08.49	143.14	9.98	-35.8	-36.6	22.9	0.00e+00	0	30	0	480247808	44	6123
2026-01-26 01:52:12.53	143.05	10.33	-35.9	-36.7	22.7	0.00e+00	0	30	0	503316480	46	5524
2026-01-26 01:52:16.57	142.97	10.69	-35.9	-36.7	21.4	0.00e+00	0	30	0	525336576	44	6188
2026-01-26 01:52:20.61	142.88	11.05	-35.5	-36.2	23.3	0.00e+00	0	30	0	548405248	44	5891
2026-01-26 01:52:24.65	142.80	11.42	-35.3	-36.0	23.1	0.00e+00	0	30	0	571473920	44	5752
2026-01-26 01:52:28.69	142.70	11.80	-35.7	-36.4	21.7	0.00e+00	0	30	0	593494016	44	5992
2026-01-26 01:52:32.72	142.61	12.18	-35.2	-35.9	23.3	0.00e+00	0	30	0	616562688	44	5668
2026-01-26 01:52:36.76	142.51	12.56	-35.1	-35.8	23.7	0.00e+00	0	30	0	638582784	44	5624
2026-01-26 01:52:40.80	142.41	12.95	-34.8	-35.5	24.2	0.00e+00	0	30	0	661651456	42	6075
2026-01-26 01:52:44.84	142.31	13.35	-34.8	-35.5	24.3	0.00e+00	0	30	0	684720128	42	6059
2026-01-26 01:52:48.88	142.20	13.76	-34.6	-35.3	24.8	0.00e+00	0	30	0	707788800	42	5941
2026-01-26 01:52:52.92	142.09	14.17	-34.4	-35.0	25.2	0.00e+00	0	30	0	729808896	42	5740
2026-01-26 01:52:56.96	141.98	14.59	-34.7	-35.4	25.5	0.00e+00	0	30	0	752877568	42	5981
2026-01-26 01:53:01.00	141.87	15.01	-34.1	-34.7	25.6	0.00e+00	0	30	0	775946240	42	5544
2026-01-26 01:53:05.03	141.75	15.44	-33.8	-34.5	25.8	0.00e+00	0	30	0	797966336	42	5410
2026-01-26 01:53:09.07	141.62	15.88	-33.2	-33.9	26.2	0.00e+00	0	30	0	821035008	40	5660
2026-01-26 01:53:13.12	141.49	16.33	-33.4	-34.1	26.2	0.00e+00	0	30	0	843055104	40	5765
2026-01-26 01:53:17.15	141.36	16.79	-33.5	-34.1	26.3	0.00e+00	0	30	0	866123776	40	5803
2026-01-26 01:53:21.20	141.22	17.25	-33.4	-34.1	26.4	0.00e+00	0	30	0	889192448	40	5762
2026-01-26 01:53:25.23	141.08	17.73	-33.2	-33.8	26.5	0.00e+00	0	30	0	912261120	40	5590
2026-01-26 01:53:29.27	140.93	18.21	-32.8	-33.5	26.8	0.00e+00	0	30	0	934281216	40	5378
2026-01-26 01:53:33.31	140.78	18.70	-32.7	-33.3	26.9	0.00e+00	0	30	0	957349888	38	5938
2026-01-26 01:53:37.35	140.63	19.21	-32.6	-33.2	26.9	0.00e+00	0	30	0	980418560	38	5855
2026-01-26 01:53:41.39	140.46	19.72	-32.8	-33.4	27.0	0.00e+00	0	30	0	1002438656	38	5983
2026-01-26 01:53:45.43	140.29	20.24	-32.9	-33.5	26.6	0.00e+00	0	30	0	1025507328	38	6103
2026-01-26 01:53:49.47	140.12	20.77	-32.9	-33.5	26.9	0.00e+00	0	30	0	1047527424	38	6084
2026-01-26 01:53:53.51	139.93	21.32	-32.7	-33.3	26.9	0.00e+00	0	30	0	1070596096	38	5929
2026-01-26 01:53:57.55	139.75	21.88	-33.3	-33.9	26.6	0.00e+00	0	30	0	1093664768	38	6384
2026-01-26 01:54:01.59	139.55	22.45	-32.4	-33.0	27.4	0.00e+00	0	30	0	1116733440	38	5716
2026-01-26 01:54:05.63	139.34	23.03	-31.5	-32.1	27.7	0.00e+00	0	30	0	1138753536	36	5804
2026-01-26 01:54:09.67	139.13	23.62	-32.5	-33.1	27.1	0.00e+00	0	30	0	1161822208	36	6528
2026-01-26 01:54:13.71	138.91	24.23	-31.7	-32.3	27.6	0.00e+00	0	30	0	1184890880	36	5924
2026-01-26 01:54:17.76	138.68	24.85	-31.9	-32.5	27.8	0.00e+00	0	30	0	1206910976	36	6066
2026-01-26 01:54:21.79	138.44	25.49	-31.5	-32.1	27.6	0.00e+00	0	30	0	1229979648	36	5797
2026-01-26 01:54:25.83	138.19	26.14	-31.3	-31.9	27.7	0.00e+00	0	30	0	1253048320	36	5659
2026-01-26 01:54:29.87	137.92	26.81	-31.5	-32.1	27.9	0.00e+00	0	30	0	1275068416	36	5819
2026-01-26 01:54:33.91	137.65	27.49	-31.5	-32.1	27.8	0.00e+00	0	30	0	1298137088	36	5815
2026-01-26 01:54:37.95	137.36	28.19	-31.3	-31.9	28.0	0.00e+00	0	30	0	1321205760	36	5671
2026-01-26 01:54:42.00	137.06	28.91	-30.9	-31.6	28.2	0.00e+00	0	30	0	1343225856	36	5448
2026-01-26 01:54:46.03	136.74	29.64	-31.0	-31.6	28.2	0.00e+00	0	30	0	1366294528	36	5492
2026-01-26 01:54:50.08	136.41	30.39	-31.3	-31.9	27.9	0.00e+00	0	30	0	1389363200	36	5661
2026-01-26 01:54:54.12	136.06	31.17	-30.7	-31.4	28.5	0.00e+00	0	30	0	1411383296	34	5971
2026-01-26 01:54:58.16	135.70	31.96	-30.5	-31.1	28.3	0.00e+00	0	30	0	1434451968	34	5820
2026-01-26 01:55:02.20	135.31	32.77	-31.3	-31.8	28.2	0.00e+00	0	30	0	1457520640	34	6315
2026-01-26 01:55:06.24	134.91	33.60	-30.9	-31.4	28.4	0.00e+00	0	30	0	1479540736	34	6027
2026-01-26 01:55:10.28	134.48	34.46	-31.0	-31.7	28.2	0.00e+00	0	30	0	1502609408	34	6181
2026-01-26 01:55:14.32	134.03	35.33	-30.9	-31.5	28.5	0.00e+00	0	30	0	1525678080	34	6076
2026-01-26 01:55:18.36	133.55	36.23	-30.9	-31.5	28.6	0.00e+00	0	30	0	1547698176	34	6074
2026-01-26 01:55:22.40	133.05	37.15	-31.1	-31.7	28.2	0.00e+00	0	30	0	1570766848	34	6218
2026-01-26 01:55:26.45	132.51	38.10	-31.0	-31.6	28.5	0.00e+00	0	30	0	1593835520	36	5462
2026-01-26 01:55:30.49	131.94	39.07	-31.5	-32.1	28.0	0.00e+00	0	30	0	1616904192	36	5808
2026-01-26 01:55:34.53	131.34	40.06	-31.5	-32.1	27.6	0.00e+00	0	30	0	1638924288	36	5784
2026-01-26 01:55:38.57	130.69	41.08	-32.2	-32.9	27.2	0.00e+00	0	30	0	1661992960	38	5652
2026-01-26 01:55:42.61	130.01	42.13	-31.2	-31.8	28.0	0.00e+00	0	30	0	1684013056	36	5590
2026-01-26 01:55:46.65	129.27	43.19	-31.9	-32.5	27.6	0.00e+00	0	30	0	1707081728	36	6096
2026-01-26 01:55:50.69	128.48	44.29	-32.4	-33.0	27.1	0.00e+00	0	30	0	1730150400	38	5706
2026-01-26 01:55:54.73	127.64	45.40	-32.8	-33.4	27.6	0.00e+00	0	30	0	1753219072	38	5991
2026-01-26 01:55:58.77	126.73	46.55	-31.7	-32.3	27.8	0.00e+00	0	30	0	1775239168	36	5919
2026-01-26 01:56:02.81	125.75	47.71	-31.4	-32.0	27.8	0.00e+00	0	30	0	1798307840	34	6438
2026-01-26 01:56:06.85	124.70	48.90	-32.1	-32.7	27.3	0.00e+00	0	30	0	1821376512	36	6190
2026-01-26 01:56:10.89	123.56	50.11	-32.3	-33.0	27.2	0.00e+00	0	30	0	1843396608	38	5708
2026-01-26 01:56:14.93	122.32	51.34	-32.4	-33.1	27.0	0.00e+00	0	30	0	1866465280	38	5763
2026-01-26 01:56:18.97	120.97	52.58	-31.9	-32.5	27.5	0.00e+00	0	30	0	1888485376	36	6083
2026-01-26 01:56:23.01	119.50	53.84	-31.9	-32.5	27.5	0.00e+00	0	30	0	1911554048	36	6098
2026-01-26 01:56:27.05	117.90	55.11	-31.9	-32.5	27.5	0.00e+00	0	30	0	1934622720	36	6080
2026-01-26 01:56:31.09	116.15	56.38	-31.6	-32.2	27.4	0.00e+00	0	30	0	1957691392	36	5875
2026-01-26 01:56:35.13	114.22	57.66	-31.5	-32.1	27.8	0.00e+00	0	30	0	1979711488	36	5772
2026-01-26 01:56:39.16	112.11	58.92	-31.7	-32.3	27.5	0.00e+00	0	30	0	2002780160	36	5926
2026-01-26 01:56:43.21	109.78	60.18	-31.9	-32.5	27.5	0.00e+00	0	30	0	2025848832	36	6056
2026-01-26 01:56:47.24	107.22	61.41	-31.0	-31.6	28.2	0.00e+00	0	30	0	2047868928	36	5474
2026-01-26 01:56:51.28	104.38	62.61	-30.8	-31.4	28.4	0.00e+00	0	30	0	2070937600	34	5983
2026-01-26 01:56:55.32	101.26	63.76	-29.8	-30.4	28.8	0.00e+00	0	30	0	2092957696	32	5996
2026-01-26 01:56:59.36	97.82	64.86	-29.9	-30.4	28.9	0.00e+00	0	30	0	2116026368	32	6033
2026-01-26 01:57:03.39	94.05	65.87	-30.3	-30.9	28.8	0.00e+00	0	30	0	2139095040	32	6372
2026-01-26 01:57:07.43	89.92	66.80	-29.8	-30.4	29.1	0.00e+00	0	30	0	2162163712	34	5324
2026-01-26 01:57:11.47	85.43	67.61	-29.8	-30.4	29.1	0.00e+00	0	30	0	2184183808	32	5988
2026-01-26 01:57:15.51	80.61	68.30	-30.1	-30.8	28.8	0.00e+00	0	30	0	2207252480	32	6256
2026-01-26 01:57:19.55	75.48	68.83	-30.2	-30.8	29.1	0.00e+00	0	30	0	2230321152	32	6300
2026-01-26 01:57:23.59	70.10	69.21	-29.8	-30.4	29.0	0.00e+00	0	30	0	2252341248	32	5985
2026-01-26 01:57:27.63	64.57	69.40	-30.1	-30.7	28.9	0.00e+00	0	30	0	2275409920	32	6194
2026-01-26 01:57:31.68	58.96	69.42	-29.9	-30.5	28.9	0.00e+00	0	30	0	2298478592	32	6076
2026-01-26 01:57:35.71	53.43	69.25	-29.7	-30.3	28.8	0.00e+00	0	30	0	2320498688	32	5945
2026-01-26 01:57:39.75	48.02	68.91	-29.8	-30.4	29.1	0.00e+00	0	30	0	2343567360	32	5992
2026-01-26 01:57:43.80	42.84	68.40	-30.4	-31.1	28.9	0.00e+00	0	30	0	2366636032	32	6467
2026-01-26 01:57:47.83	37.97	67.74	-29.6	-30.2	29.1	0.00e+00	0	30	0	2388656128	32	5848
2026-01-26 01:57:51.87	33.43	66.94	-29.9	-30.5	28.7	0.00e+00	0	30	0	2411724800	32	6060
2026-01-26 01:57:55.91	29.25	66.04	-32.3	-33.0	27.4	0.00e+00	0	30	0	2433744896	34	7208
2026-01-26 01:57:59.95	25.41	65.03	-30.9	-31.5	28.6	0.00e+00	0	30	0	2456813568	32	6821
2026-01-26 01:58:03.99	21.92	63.95	-30.7	-31.3	28.8	0.00e+00	0	30	0	2479882240	34	5916
2026-01-26 01:58:08.04	18.74	62.81	-31.3	-32.0	27.9	0.00e+00	0	30	0	2502950912	34	6447
2026-01-26 01:58:12.07	15.87	61.62	-30.4	-31.0	28.6	0.00e+00	0	30	0	2524971008	34	5727
2026-01-26 01:58:16.11	13.27	60.40	-30.7	-31.3	28.4	0.00e+00	0	30	0	2548039680	34	5956
2026-01-26 01:58:20.15	10.91	59.15	-31.8	-32.3	27.9	0.00e+00	0	30	0	2571108352	36	5956
2026-01-26 01:58:24.19	8.76	57.88	-31.3	-31.9	28.1	0.00e+00	0	30	0	2593128448	36	5686
2026-01-26 01:58:28.23	6.81	56.61	-31.5	-32.2	27.9	0.00e+00	0	30	0	2616197120	36	5876
2026-01-26 01:58:32.27	5.03	55.34	-32.5	-33.1	27.7	0.00e+00	0	30	0	2638217216	38	5790
2026-01-26 01:58:36.31	3.41	54.07	-31.8	-32.3	28.0	0.00e+00	0	30	0	2661285888	36	5939
2026-01-26 01:58:40.35	1.92	52.82	-32.2	-32.7	27.6	0.00e+00	0	30	0	2684354560	36	6240
2026-01-26 01:58:44.39	0.56	51.57	-32.0	-32.5	27.4	0.00e+00	0	30	0	2707423232	36	6073
2026-01-26 01:58:48.43	359.30	50.34	-31.7	-32.4	27.8	0.00e+00	0	30	0	2729443328	36	5981
2026-01-26 01:58:52.47	358.15	49.14	-30.8	-31.5	28.2	0.00e+00	0	30	0	2752512000	36	5415
2026-01-26 01:58:56.51	357.08	47.95	-30.6	-31.2	28.4	0.00e+00	0	30	0	2775580672	34	5873
2026-01-26 01:59:00.55	356.09	46.78	-30.8	-31.4	28.3	0.00e+00	0	30	0	2797600768	34	6026
2026-01-26 01:59:04.60	355.17	45.64	-30.3	-30.8	28.5	0.00e+00	0	30	0	2820669440	34	5618
2026-01-26 01:59:08.63	354.32	44.52	-30.4	-31.1	28.2	0.00e+00	0	30	0	2843738112	34	5814
2026-01-26 01:59:12.67	353.53	43.43	-30.0	-30.5	28.7	0.00e+00	0	30	0	2865758208	34	5397
2026-01-26 01:59:16.71	352.79	42.36	-30.3	-30.9	28.5	0.00e+00	0	30	0	2888826880	34	5646
2026-01-26 01:59:20.75	352.09	41.31	-30.0	-30.7	28.6	0.00e+00	0	30	0	2911895552	34	5529
2026-01-26 01:59:24.79	351.44	40.29	-30.4	-30.9	28.8	0.00e+00	0	30	0	2933915648	32	6334
2026-01-26 01:59:28.83	350.83	39.30	-29.8	-30.5	28.9	0.00e+00	0	30	0	2956984320	32	6044
2026-01-26 01:59:32.87	350.26	38.33	-29.7	-30.3	29.0	0.00e+00	0	30	0	2980052992	32	5943
2026-01-26 01:59:36.91	349.72	37.38	-29.8	-30.5	29.0	0.00e+00	0	30	0	3002073088	32	6050
2026-01-26 01:59:40.95	349.21	36.46	-30.1	-30.7	28.6	0.00e+00	0	30	0	3025141760	32	6184
2026-01-26 01:59:44.98	348.73	35.56	-30.2	-30.7	28.7	0.00e+00	0	30	0	3048210432	32	6225
2026-01-26 01:59:49.03	348.28	34.68	-30.5	-31.1	28.4	0.00e+00	0	30	0	3070230528	34	5820
2026-01-26 01:59:53.07	347.85	33.83	-30.2	-30.7	28.5	0.00e+00	0	30	0	3093299200	34	5559
2026-01-26 01:59:57.11	347.44	32.99	-30.7	-31.2	28.1	0.00e+00	0	30	0	3116367872	34	5878
2026-01-26 02:00:01.15	347.05	32.18	-30.2	-30.7	28.4	0.00e+00	0	30	0	3138387968	34	5537
2026-01-26 02:00:05.19	346.69	31.39	-30.4	-30.9	28.3	0.00e+00	0	30	0	3161456640	34	5665
2026-01-26 02:00:09.23	346.34	30.62	-30.3	-30.8	28.5	0.00e+00	0	30	0	3184525312	34	5615
2026-01-26 02:00:13.27	346.01	29.86	-30.4	-31.0	28.3	0.00e+00	0	30	0	3206545408	34	5700
2026-01-26 02:00:17.31	345.69	29.13	-30.4	-31.1	28.3	0.00e+00	0	30	0	3229614080	34	5808
2026-01-26 02:00:21.36	345.39	28.41	-30.5	-31.2	28.3	0.00e+00	0	30	0	3252682752	34	5850
2026-01-26 02:00:25.39	345.10	27.71	-30.4	-30.9	28.4	0.00e+00	0	30	0	3274702848	34	5668
2026-01-26 02:00:29.43	344.83	27.02	-30.7	-31.2	28.2	0.00e+00	0	30	0	3297771520	34	5873
2026-01-26 02:00:33.47	344.56	26.36	-30.7	-31.2	28.2	0.00e+00	0	30	0	3320840192	34	5893
2026-01-26 02:00:37.51	344.31	25.70	-30.9	-31.5	28.1	0.00e+00	0	30	0	3342860288	34	6063
2026-01-26 02:00:41.55	344.07	25.07	-31.1	-31.6	28.0	0.00e+00	0	30	0	3365928960	34	6156
2026-01-26 02:00:45.59	343.84	24.44	-31.2	-31.7	28.1	0.00e+00	0	30	0	3388997632	34	6207
2026-01-26 02:00:49.63	343.62	23.83	-31.0	-31.5	27.9	0.00e+00	0	30	0	3412066304	34	6075
2026-01-26 02:00:53.68	343.40	23.24	-31.0	-31.7	28.0	0.00e+00	0	30	0	3434086400	34	6207
2026-01-26 02:00:57.72	343.20	22.66	-31.5	-32.2	27.6	0.00e+00	0	30	0	3457155072	34	6557
2026-01-26 02:01:01.76	343.00	22.09	-31.6	-32.2	27.4	0.00e+00	0	30	0	3479175168	36	5858
2026-01-26 02:01:05.79	342.82	21.53	-31.8	-32.3	27.4	0.00e+00	0	30	0	3502243840	36	5936
2026-01-26 02:01:09.83	342.63	20.98	-32.0	-32.7	27.1	0.00e+00	0	30	0	3525312512	36	6210
2026-01-26 02:01:13.87	342.46	20.45	-32.3	-33.0	27.1	0.00e+00	0	30	0	3547332608	36	6462
2026-01-26 02:01:17.91	342.29	19.93	-32.1	-32.7	27.1	0.00e+00	0	30	0	3570401280	38	5503
2026-01-26 02:01:21.95	342.13	19.41	-32.4	-32.9	26.8	0.00e+00	0	30	0	3593469952	38	5666
2026-01-26 02:01:25.99	341.97	18.91	-31.9	-32.4	27.1	0.00e+00	0	30	0	3616538624	38	5377
2026-01-26 02:01:30.03	341.82	18.42	-32.3	-32.8	26.7	0.00e+00	0	30	0	3638558720	38	5616
2026-01-26 02:01:34.07	341.68	17.93	-32.2	-32.8	26.7	0.00e+00	0	30	0	3661627392	38	5586
2026-01-26 02:01:38.11	341.54	17.46	-32.1	-32.7	26.8	0.00e+00	0	30	0	3683647488	38	5545
2026-01-26 02:01:42.15	341.40	16.99	-32.3	-32.9	26.6	0.00e+00	0	30	0	3706716160	38	5666
2026-01-26 02:01:46.18	341.27	16.54	-32.4	-33.0	26.6	0.00e+00	0	30	0	3729784832	38	5722
2026-01-26 02:01:50.22	341.14	16.09	-32.6	-33.3	26.4	0.00e+00	0	30	0	3752853504	38	5955
2026-01-26 02:01:54.27	341.02	15.65	-32.6	-33.2	26.4	0.00e+00	0	30	0	3774873600	38	5845
2026-01-26 02:01:58.31	340.90	15.21	-32.8	-33.4	26.1	0.00e+00	0	30	0	3797942272	38	6016
2026-01-26 02:02:02.35	340.79	14.79	-33.2	-33.8	25.9	0.00e+00	0	30	0	3821010944	38	6278
2026-01-26 02:02:06.39	340.68	14.37	-33.4	-34.2	25.6	0.00e+00	0	30	0	3843031040	38	6540
2026-01-26 02:02:10.43	340.57	13.96	-33.6	-34.3	25.5	0.00e+00	0	30	0	3866099712	40	5899
2026-01-26 02:02:14.47	340.47	13.55	-34.0	-34.8	25.3	0.00e+00	0	30	0	3888119808	40	6273
2026-01-26 02:02:18.50	340.37	13.15	-33.9	-34.5	25.4	0.00e+00	0	30	0	3911188480	40	6079
2026-01-26 02:02:22.54	340.27	12.76	-33.7	-34.3	25.4	0.00e+00	0	30	0	3934257152	40	5946
2026-01-26 02:02:26.58	340.17	12.38	-34.2	-34.8	25.1	0.00e+00	0	30	0	3957325824	40	6262
2026-01-26 02:02:30.62	340.08	12.00	-35.1	-35.9	24.1	0.00e+00	0	30	0	3979345920	42	6378
2026-01-26 02:02:34.66	339.99	11.62	-35.6	-36.4	24.4	0.00e+00	0	30	0	4002414592	44	5992
2026-01-26 02:02:38.70	339.90	11.25	-34.9	-35.7	24.5	0.00e+00	0	30	0	4025483264	42	6178
2026-01-26 02:02:42.74	339.82	10.89	-34.4	-35.0	24.8	0.00e+00	0	30	0	4047503360	42	5724
2026-01-26 02:02:46.77	339.74	10.53	-34.7	-35.5	24.5	0.00e+00	0	30	0	4070572032	42	6048
2026-01-26 02:02:50.81	339.66	10.18	-35.2	-36.0	24.0	0.00e+00	0	30	0	4092592128	42	6429
2026-01-26 02:02:54.85	339.58	9.83	-35.5	-36.1	23.9	0.00e+00	0	30	0	4115660800	44	5826
2026-01-26 02:02:58.89	339.51	9.49	-35.0	-35.6	24.2	0.00e+00	0	30	0	4138729472	42	6145
2026-01-26 02:03:02.93	339.44	9.15	-35.6	-36.4	23.1	0.00e+00	0	30	0	4161798144	42	6719
2026-01-26 02:03:06.96	339.37	8.82	-35.6	-36.3	23.5	0.00e+00	0	30	0	4183818240	44	5901
2026-01-26 02:03:11.01	339.30	8.49	-35.0	-35.8	23.9	0.00e+00	0	30	0	4206886912	44	5618
2026-01-26 02:03:15.04	339.23	8.16	-35.2	-36.0	23.8	0.00e+00	0	30	0	4229955584	44	5748
2026-01-26 02:03:19.08	339.17	7.84	-35.7	-36.5	23.4	0.00e+00	0	30	0	4251975680	44	6096
2026-01-26 02:03:23.13	339.10	7.52	-35.8	-36.7	23.2	0.00e+00	0	30	0	4275044352	44	6180
2026-01-26 02:03:27.16	339.04	7.21	-35.9	-36.7	23.1	0.00e+00	0	30	0	4297064448	44	6207
2026-01-26 02:03:31.20	338.98	6.90	-35.9	-36.7	22.9	0.00e+00	0	30	0	4320133120	44	6240
2026-01-26 02:03:35.24	338.92	6.59	-36.4	-37.1	22.4	0.00e+00	0	30	0	4343201792	44	6532
2026-01-26 02:03:39.28	338.87	6.29	-35.7	-36.4	23.1	0.00e+00	0	30	0	4366270464	44	5997
2026-01-26 02:03:43.32	338.81	5.99	-35.6	-36.4	23.1	0.00e+00	0	30	0	4388290560	44	6012
2026-01-26 02:03:47.36	338.76	5.69	-35.9	-36.6	22.5	0.00e+00	0	30	0	4411359232	44	6144
2026-01-26 02:03:51.41	338.71	5.40	-36.8	-37.6	21.3	0.00e+00	0	30	0	4434427904	46	6138
2026-01-26 02:03:55.44	338.66	5.11	-38.3	-39.4	18.8	0.00e+00	0	30	0	4456448000	48	6709
2026-01-26 02:03:59.49	338.61	4.83	-39.5	-41.0	16.1	0.00e+00	0	30	0	4479516672	50	7200
2026-01-26 02:04:03.53	338.56	4.54	-41.9	-44.5	11.9	1.91e-04	0	30	0	4502585344	56	7679
2026-01-26 02:04:07.57	338.51	4.26	-43.3	-47.9	7.4	8.06e-02	0	30	0	4524605440	58	10112
2026-01-26 02:04:11.61	338.47	3.98	-44.2	-51.5	4.1	8.18e-01	0	30	0	4537188352	60	13516
2026-01-26 02:04:15.65	338.42	3.71	-44.4	-55.4	3.6	8.45e-01	0	30	104	4537188352	60	21212
2026-01-26 02:04:19.69	338.38	3.44	-44.6	-56.7	3.6	8.45e-01	0	30	104	4537188352	60	24671
2026-01-26 02:04:23.73	338.34	3.17	-44.4	-56.7	3.6	8.44e-01	0	30	104	4537188352	60	24620
2026-01-26 02:04:27.76	338.30	2.90	-47.7	-59.9	3.6	8.45e-01	0	31	104	4537188352	60	35859
2026-01-26 02:04:31.80	338.26	2.64	-49.7	-61.9	3.6	8.45e-01	0	31	104	4537188352	60	44832
2026-01-26 02:04:35.85	338.22	2.38	-50.0	-62.1	3.6	8.45e-01	0	31	104	4537188352	60	46160
2026-01-26 02:04:39.89	338.18	2.12	-49.9	-62.1	3.6	8.46e-01	0	31	104	4537188352	60	46027
2026-01-26 02:04:43.92	338.14	1.86	-49.6	-61.9	3.6	8.45e-01	0	31	104	4537188352	60	44809
2026-01-26 02:04:47.96	338.11	1.60	-50.5	-62.5	3.6	8.45e-01	0	30	104	4537188352	60	48407
2026-01-26 02:04:52.00	338.07	1.35	-50.3	-62.5	3.6	8.44e-01	0	30	104	4537188352	60	48384
2026-01-26 02:04:56.04	338.04	1.10	-50.5	-62.7	3.6	8.47e-01	0	31	104	4537188352	60	49448
2026-01-26 02:05:00.08	338.00	0.85	-50.1	-62.3	3.6	8.45e-01	0	30	104	4537188352	60	47030
2026-01-26 02:05:04.12	337.97	0.61	-50.6	-62.8	3.6	8.45e-01	0	30	104	4537188352	60	49803
2026-01-26 02:05:08.16	337.94	0.36	-49.9	-62.2	3.6	8.46e-01	0	30	104	4537188352	60	46331
2026-01-26 02:05:12.19	337.91	0.12	-50.5	-62.7	3.6	8.46e-01	0	30	104	4537188352	60	49243
2026-01-26 02:05:16.23	337.88	-0.12	-50.4	-62.6	3.6	8.46e-01	0	30	104	4537188352	60	48917

#Closed at: 2026-01-26 02:05:16
#Recorded file [4537 MB]: D:/lorett/data/35029_260126_134951.dat