passes_logs/2026/01/26/R4.6S_Anadyr/R4.6S_Anadyr__20260126_195741_NOAA_20_JPSS-1_rec.log

#Pass ID: 20260126_195741_NOAA 20 (JPSS-1)
#Satellite: NOAA 20 (JPSS-1)
#Configuration: NOAA 20
#almurnet v.1.7.20251203
#Start time: 2026-01-26 19:57:42

#Version: 2.2.20231116
#Station: R4.6S_Anadyr
#Location: 177.4865 lon 64.73178 lat
#TLE: 1 43013U 17073A   26025.90277267  .00000170  00000+0  10165-3 0  9997
#TLE: 2 43013  98.7646 326.7276 0001032  23.5492 336.5731 14.19540457424285

#Time	Az	El	Level	Level2	SNR	BER	BlckErr	Temp	State	Recorded	gain1	gain2
2026-01-26 19:57:42.84	61.46	0.08	-49.2	-64.3	3.5	1.51e+00	0	26	0	0	60	59047
2026-01-26 19:57:45.87	61.23	0.23	-49.7	-65.0	3.6	1.51e+00	0	27	104	0	60	64099
2026-01-26 19:57:48.90	61.00	0.38	-49.2	-64.4	3.6	1.51e+00	0	27	104	0	60	60054
2026-01-26 19:57:51.93	60.77	0.53	-49.1	-64.3	3.6	1.51e+00	0	27	104	0	60	59300
2026-01-26 19:57:54.96	60.53	0.68	-49.0	-64.4	3.6	1.51e+00	0	27	104	0	60	59655
2026-01-26 19:57:57.99	60.30	0.83	-49.1	-64.3	3.6	1.51e+00	0	27	104	0	60	59399
2026-01-26 19:58:01.02	60.06	0.98	-48.7	-64.2	3.6	1.51e+00	0	27	104	0	60	58447
2026-01-26 19:58:04.05	59.81	1.12	-48.8	-64.0	3.6	1.51e+00	0	27	104	0	60	57163
2026-01-26 19:58:07.08	59.57	1.27	-48.2	-63.4	3.6	1.51e+00	0	27	104	0	60	53571
2026-01-26 19:58:10.11	59.32	1.42	-47.6	-62.8	3.6	1.51e+00	0	27	104	0	60	49862
2026-01-26 19:58:13.14	59.07	1.57	-47.6	-62.8	3.6	1.51e+00	0	27	104	0	60	49871
2026-01-26 19:58:16.17	58.82	1.73	-47.6	-62.8	3.6	1.51e+00	0	28	104	0	60	49785
2026-01-26 19:58:19.20	58.56	1.88	-47.6	-62.8	3.6	1.51e+00	0	28	104	0	60	49650
2026-01-26 19:58:22.23	58.31	2.03	-47.6	-62.7	3.6	1.51e+00	0	28	104	0	60	49593
2026-01-26 19:58:25.26	58.05	2.18	-47.6	-62.7	3.6	1.51e+00	0	28	104	0	60	49213
2026-01-26 19:58:28.29	57.78	2.33	-47.6	-62.8	3.6	1.51e+00	0	28	104	0	60	49798
2026-01-26 19:58:31.32	57.52	2.48	-47.6	-62.7	3.5	1.51e+00	0	28	104	0	60	49409
2026-01-26 19:58:34.35	57.25	2.63	-47.6	-62.4	3.6	1.51e+00	0	28	104	0	60	47556
2026-01-26 19:58:37.38	56.98	2.79	-47.6	-62.7	3.6	1.51e+00	0	28	104	0	60	49213
2026-01-26 19:58:40.41	56.70	2.94	-46.3	-51.6	9.7	5.30e-02	0	28	0	2097152	60	13679
2026-01-26 19:58:43.44	56.42	3.09	-46.7	-52.9	7.9	8.84e-03	0	28	0	7340032	60	15990
2026-01-26 19:58:46.47	56.14	3.24	-43.1	-45.3	16.4	2.27e-04	92	28	0	8388608	60	6627
2026-01-26 19:58:49.50	55.86	3.40	-43.8	-46.4	16.0	0.00e+00	90	28	0	10485760	60	7552
2026-01-26 19:58:52.52	55.57	3.55	-44.0	-46.7	15.2	0.00e+00	1	28	0	15728640	60	7812
2026-01-26 19:58:55.55	55.28	3.70	-44.2	-47.1	15.1	0.00e+00	90	28	0	22020096	60	8147
2026-01-26 19:58:58.57	54.99	3.86	-44.0	-46.6	15.3	0.00e+00	91	28	0	27262976	60	7772
2026-01-26 19:59:01.60	54.69	4.01	-43.2	-45.4	16.5	0.00e+00	0	28	0	33554432	58	7539
2026-01-26 19:59:04.63	54.39	4.17	-43.2	-45.4	16.6	0.00e+00	92	28	0	38797312	58	7558
2026-01-26 19:59:07.66	54.09	4.32	-42.6	-44.5	17.7	0.00e+00	92	28	0	44040192	58	6814
2026-01-26 19:59:10.69	53.78	4.47	-42.7	-44.6	17.3	0.00e+00	11	28	0	50331648	58	6884
2026-01-26 19:59:13.72	53.47	4.63	-41.7	-43.3	18.8	0.00e+00	92	28	0	55574528	58	5954
2026-01-26 19:59:16.74	53.16	4.78	-42.3	-44.0	18.2	0.00e+00	90	28	0	61865984	56	7245
2026-01-26 19:59:19.77	52.85	4.94	-41.9	-43.6	18.7	0.00e+00	36	28	0	67108864	56	6861
2026-01-26 19:59:22.80	52.53	5.09	-42.1	-43.8	18.5	0.00e+00	84	28	0	72351744	56	7012
2026-01-26 19:59:25.83	52.20	5.25	-41.7	-43.3	18.9	0.00e+00	92	28	0	78643200	56	6660
2026-01-26 19:59:28.85	51.88	5.40	-41.5	-43.1	19.2	0.00e+00	92	28	0	83886080	56	6465
2026-01-26 19:59:31.88	51.55	5.56	-41.8	-43.4	19.0	0.00e+00	0	28	0	90177536	56	6717
2026-01-26 19:59:34.91	51.21	5.71	-41.2	-42.7	19.6	0.00e+00	90	28	0	95420416	56	6202
2026-01-26 19:59:37.94	50.87	5.86	-41.6	-43.1	19.3	0.00e+00	90	28	0	100663296	56	6504
2026-01-26 19:59:40.97	50.53	6.02	-41.0	-42.4	19.9	0.00e+00	10	28	0	106954752	56	5998
2026-01-26 19:59:44.00	50.19	6.17	-41.2	-42.6	19.8	0.00e+00	74	28	0	112197632	56	6119
2026-01-26 19:59:47.03	49.84	6.33	-41.3	-42.8	19.7	0.00e+00	91	28	0	118489088	56	6260
2026-01-26 19:59:50.06	49.49	6.48	-41.6	-43.1	19.3	0.00e+00	0	28	0	123731968	56	6513
2026-01-26 19:59:53.09	49.13	6.64	-41.4	-42.9	19.6	0.00e+00	0	28	0	130023424	56	6358
2026-01-26 19:59:56.12	48.77	6.79	-41.4	-42.9	19.6	0.00e+00	90	28	0	135266304	56	6335
2026-01-26 19:59:59.15	48.40	6.95	-41.5	-43.0	19.5	0.00e+00	92	28	0	140509184	56	6420
2026-01-26 20:00:02.18	48.04	7.10	-41.3	-42.7	19.9	0.00e+00	0	28	0	146800640	56	6236
2026-01-26 20:00:05.20	47.66	7.25	-41.3	-42.7	19.9	0.00e+00	90	28	0	152043520	56	6179
2026-01-26 20:00:08.23	47.29	7.41	-41.2	-42.5	20.0	0.00e+00	92	28	0	158334976	56	6099
2026-01-26 20:00:11.25	46.91	7.56	-41.2	-42.5	20.0	0.00e+00	0	28	0	163577856	56	6080
2026-01-26 20:00:14.28	46.52	7.71	-40.9	-42.2	20.3	0.00e+00	50	28	0	168820736	56	5870
2026-01-26 20:00:17.31	46.14	7.86	-41.2	-42.6	19.8	0.00e+00	91	29	0	175112192	56	6130
2026-01-26 20:00:20.34	45.74	8.02	-40.7	-42.0	20.5	0.00e+00	0	29	0	180355072	54	6431
2026-01-26 20:00:23.37	45.35	8.17	-40.8	-42.1	20.4	0.00e+00	8	28	0	186646528	54	6512
2026-01-26 20:00:26.39	44.95	8.32	-40.6	-41.9	20.6	0.00e+00	92	29	0	191889408	54	6367
2026-01-26 20:00:29.42	44.54	8.47	-40.6	-41.9	20.7	0.00e+00	58	29	0	198180864	54	6320
2026-01-26 20:00:32.45	44.13	8.62	-40.7	-42.0	20.5	0.00e+00	0	29	0	203423744	54	6410
2026-01-26 20:00:35.48	43.72	8.77	-40.5	-41.8	20.8	0.00e+00	92	29	0	208666624	54	6255
2026-01-26 20:00:38.51	43.30	8.92	-40.6	-41.8	20.7	0.00e+00	92	29	0	214958080	54	6315
2026-01-26 20:00:41.54	42.87	9.07	-40.6	-41.8	20.6	0.00e+00	0	29	0	220200960	54	6315
2026-01-26 20:00:44.56	42.45	9.22	-40.5	-41.8	20.8	0.00e+00	92	29	0	226492416	54	6250
2026-01-26 20:00:47.60	42.01	9.36	-40.5	-41.8	20.7	0.00e+00	92	29	0	231735296	54	6259
2026-01-26 20:00:50.63	41.58	9.51	-40.6	-41.9	20.7	0.00e+00	77	29	0	236978176	54	6335
2026-01-26 20:00:53.65	41.14	9.66	-40.2	-41.4	21.3	0.00e+00	0	29	0	243269632	54	5997
2026-01-26 20:00:56.68	40.69	9.80	-40.1	-41.3	21.3	0.00e+00	92	29	0	248512512	54	5935
2026-01-26 20:00:59.71	40.24	9.95	-39.9	-41.0	21.6	0.00e+00	0	29	0	254803968	54	5739
2026-01-26 20:01:02.74	39.79	10.09	-39.9	-41.0	21.6	0.00e+00	10	29	0	260046848	52	6420
2026-01-26 20:01:05.76	39.33	10.23	-39.6	-40.7	21.9	0.00e+00	92	29	0	266338304	52	6196
2026-01-26 20:01:08.80	38.87	10.37	-39.3	-40.4	22.2	0.00e+00	92	29	0	271581184	52	5967
2026-01-26 20:01:11.83	38.40	10.51	-39.2	-40.2	22.4	0.00e+00	0	29	0	276824064	52	5860
2026-01-26 20:01:14.85	37.93	10.65	-39.1	-40.2	22.4	0.00e+00	0	29	0	283115520	52	5844
2026-01-26 20:01:17.88	37.45	10.79	-39.4	-40.4	22.1	0.00e+00	92	29	0	288358400	52	6015
2026-01-26 20:01:20.91	36.97	10.93	-38.7	-39.7	22.7	0.00e+00	9	29	0	294649856	50	6191
2026-01-26 20:01:23.94	36.48	11.06	-38.8	-39.8	22.8	0.00e+00	11	29	0	299892736	50	6255
2026-01-26 20:01:26.97	35.99	11.20	-38.5	-39.5	23.0	0.00e+00	90	29	0	305135616	50	6043
2026-01-26 20:01:29.99	35.50	11.33	-38.5	-39.5	23.0	0.00e+00	9	29	0	311427072	50	6071
2026-01-26 20:01:33.02	35.00	11.46	-38.6	-39.6	23.0	0.00e+00	0	29	0	316669952	50	6127
2026-01-26 20:01:36.05	34.50	11.59	-38.1	-39.0	23.4	0.00e+00	92	29	0	322961408	50	5738
2026-01-26 20:01:39.07	33.99	11.72	-38.3	-39.2	23.3	0.00e+00	90	29	0	328204288	50	5875
2026-01-26 20:01:42.10	33.47	11.85	-38.1	-39.1	23.3	0.00e+00	0	29	0	334495744	50	5767
2026-01-26 20:01:45.13	32.96	11.97	-38.3	-39.2	23.3	0.00e+00	12	29	0	339738624	50	5863
2026-01-26 20:01:48.15	32.44	12.10	-38.4	-39.4	23.2	0.00e+00	90	29	0	344981504	50	5987
2026-01-26 20:01:51.18	31.91	12.22	-38.5	-39.5	23.1	0.00e+00	11	29	0	351272960	50	6034
2026-01-26 20:01:54.22	31.38	12.34	-38.5	-39.4	23.0	0.00e+00	0	29	0	356515840	50	6027
2026-01-26 20:01:57.24	30.84	12.46	-38.6	-39.6	22.9	0.00e+00	90	29	0	362807296	50	6146
2026-01-26 20:02:00.27	30.30	12.57	-38.9	-39.9	22.8	0.00e+00	0	29	0	368050176	50	6350
2026-01-26 20:02:03.30	29.76	12.69	-38.6	-39.6	23.0	0.00e+00	0	29	0	373293056	50	6108
2026-01-26 20:02:06.33	29.21	12.80	-38.5	-39.5	23.0	0.00e+00	73	29	0	379584512	50	6065
2026-01-26 20:02:09.36	28.66	12.91	-38.8	-39.8	22.7	0.00e+00	2	29	0	384827392	50	6251
2026-01-26 20:02:12.39	28.10	13.02	-38.9	-39.9	22.8	0.00e+00	10	29	0	391118848	50	6326
2026-01-26 20:02:15.41	27.54	13.13	-38.5	-39.4	23.2	0.00e+00	0	29	0	396361728	50	5996
2026-01-26 20:02:18.44	26.97	13.23	-38.3	-39.2	23.4	0.00e+00	90	29	0	401604608	50	5844
2026-01-26 20:02:21.47	26.41	13.33	-38.2	-39.1	22.8	0.00e+00	0	29	0	407896064	50	5828
2026-01-26 20:02:24.50	25.83	13.43	-38.5	-39.4	23.2	0.00e+00	11	29	0	413138944	50	6010
2026-01-26 20:02:27.53	25.26	13.53	-38.1	-39.1	23.5	0.00e+00	90	29	0	419430400	50	5764
2026-01-26 20:02:30.56	24.67	13.62	-38.3	-39.2	23.3	0.00e+00	9	29	0	424673280	50	5881
2026-01-26 20:02:33.59	24.09	13.71	-38.0	-38.9	23.7	0.00e+00	0	29	0	430964736	50	5660
2026-01-26 20:02:36.62	23.50	13.80	-38.3	-39.2	23.3	0.00e+00	92	29	0	436207616	50	5849
2026-01-26 20:02:39.65	22.91	13.89	-38.0	-38.9	23.6	0.00e+00	0	29	0	441450496	50	5668
2026-01-26 20:02:42.67	22.32	13.97	-38.2	-39.1	23.5	0.00e+00	0	29	0	447741952	50	5782
2026-01-26 20:02:45.70	21.72	14.05	-38.1	-39.0	23.6	0.00e+00	10	29	0	452984832	50	5722
2026-01-26 20:02:48.73	21.12	14.13	-38.4	-39.3	23.3	0.00e+00	0	29	0	459276288	50	5939
2026-01-26 20:02:51.76	20.51	14.20	-38.5	-39.5	23.2	0.00e+00	70	29	0	464519168	50	6034
2026-01-26 20:02:54.79	19.91	14.28	-38.5	-39.4	23.2	0.00e+00	10	29	0	469762048	50	5985
2026-01-26 20:02:57.82	19.30	14.34	-38.9	-39.8	22.8	0.00e+00	92	29	0	476053504	50	6305
2026-01-26 20:03:00.85	18.68	14.41	-38.8	-39.7	22.9	0.00e+00	0	29	0	481296384	50	6223
2026-01-26 20:03:03.87	18.07	14.47	-39.1	-40.1	22.6	0.00e+00	2	29	0	487587840	50	6496
2026-01-26 20:03:06.91	17.45	14.53	-39.2	-40.2	22.5	0.00e+00	92	29	0	492830720	50	6573
2026-01-26 20:03:09.93	16.83	14.59	-38.9	-39.9	22.8	0.00e+00	0	29	0	499122176	50	6336
2026-01-26 20:03:12.96	16.20	14.64	-38.7	-39.6	23.0	0.00e+00	70	29	0	504365056	50	6146
2026-01-26 20:03:15.99	15.58	14.69	-38.3	-39.2	23.4	0.00e+00	92	29	0	509607936	50	5874
2026-01-26 20:03:19.02	14.95	14.74	-38.7	-39.6	23.1	0.00e+00	81	29	0	515899392	50	6155
2026-01-26 20:03:22.05	14.32	14.78	-38.5	-39.4	23.2	0.00e+00	72	29	0	521142272	50	6008
2026-01-26 20:03:25.07	13.69	14.82	-38.8	-39.8	22.7	0.00e+00	0	29	0	527433728	50	6292
2026-01-26 20:03:28.11	13.06	14.86	-39.2	-40.2	22.6	0.00e+00	92	29	0	532676608	52	5868
2026-01-26 20:03:31.14	12.42	14.89	-38.5	-39.4	23.3	0.00e+00	2	29	0	537919488	50	6029
2026-01-26 20:03:34.16	11.79	14.92	-38.8	-39.8	23.1	0.00e+00	71	29	0	544210944	50	6275
2026-01-26 20:03:37.19	11.15	14.94	-38.6	-39.5	23.1	0.00e+00	92	29	0	549453824	50	6068
2026-01-26 20:03:40.22	10.52	14.96	-38.7	-39.6	23.1	0.00e+00	0	29	0	555745280	50	6153
2026-01-26 20:03:43.25	9.88	14.98	-38.7	-39.6	23.1	0.00e+00	72	29	0	560988160	50	6145
2026-01-26 20:03:46.28	9.24	15.00	-38.5	-39.4	23.2	0.00e+00	92	29	0	567279616	50	6031
2026-01-26 20:03:49.31	8.60	15.01	-38.5	-39.5	23.2	0.00e+00	0	29	0	572522496	50	6048
2026-01-26 20:03:52.33	7.96	15.02	-38.7	-39.7	23.0	0.00e+00	10	29	0	577765376	50	6180
2026-01-26 20:03:55.36	7.32	15.02	-38.7	-39.6	23.1	0.00e+00	0	29	0	584056832	50	6142
2026-01-26 20:03:58.39	6.68	15.02	-38.6	-39.5	23.2	0.00e+00	2	29	0	589299712	50	6087
2026-01-26 20:04:01.42	6.04	15.02	-38.4	-39.3	22.8	0.00e+00	78	29	0	595591168	50	5938
2026-01-26 20:04:04.45	5.40	15.01	-38.3	-39.2	23.3	0.00e+00	71	29	0	600834048	50	5867
2026-01-26 20:04:07.48	4.76	15.00	-38.5	-39.5	23.2	0.00e+00	90	29	0	606076928	50	6044
2026-01-26 20:04:10.51	4.12	14.99	-38.9	-39.9	22.8	0.00e+00	6	29	0	612368384	50	6352
2026-01-26 20:04:13.54	3.48	14.97	-39.0	-39.9	22.7	0.00e+00	6	29	0	617611264	50	6381
2026-01-26 20:04:16.56	2.85	14.95	-38.9	-39.9	22.8	0.00e+00	90	29	0	623902720	50	6373
2026-01-26 20:04:19.58	2.21	14.92	-38.9	-39.9	22.9	0.00e+00	77	29	0	629145600	50	6343
2026-01-26 20:04:22.61	1.58	14.90	-39.2	-40.3	22.5	0.00e+00	0	29	0	635437056	50	6633
2026-01-26 20:04:25.64	0.94	14.86	-39.1	-40.2	22.6	0.00e+00	92	29	0	640679936	50	6542
2026-01-26 20:04:28.67	0.31	14.83	-39.7	-40.7	22.0	0.00e+00	0	29	0	645922816	52	6227
2026-01-26 20:04:31.69	359.68	14.79	-39.4	-40.5	22.3	0.00e+00	0	29	0	652214272	52	6039
2026-01-26 20:04:34.72	359.05	14.75	-38.7	-39.6	23.0	0.00e+00	6	29	0	657457152	50	6169
2026-01-26 20:04:37.75	358.42	14.70	-38.6	-39.5	23.1	0.00e+00	0	29	0	663748608	50	6084
2026-01-26 20:04:40.77	357.80	14.66	-38.5	-39.5	23.2	0.00e+00	11	29	0	668991488	50	6049
2026-01-26 20:04:43.81	357.17	14.60	-38.4	-39.3	23.4	0.00e+00	0	29	0	674234368	50	5930
2026-01-26 20:04:46.84	356.55	14.55	-38.2	-39.1	23.4	0.00e+00	92	29	0	680525824	50	5814
2026-01-26 20:04:49.87	355.93	14.49	-38.3	-39.1	23.3	0.00e+00	0	29	0	685768704	50	5828
2026-01-26 20:04:52.90	355.31	14.43	-38.3	-39.2	23.4	0.00e+00	0	30	0	692060160	50	5839
2026-01-26 20:04:55.92	354.70	14.36	-38.5	-39.4	23.2	0.00e+00	90	30	0	697303040	50	5997
2026-01-26 20:04:58.95	354.09	14.30	-38.7	-39.6	23.1	0.00e+00	3	29	0	703594496	50	6127
2026-01-26 20:05:01.98	353.48	14.22	-38.6	-39.5	23.2	0.00e+00	4	30	0	708837376	50	6084
2026-01-26 20:05:05.01	352.88	14.15	-38.7	-39.6	23.1	0.00e+00	91	29	0	714080256	50	6163
2026-01-26 20:05:08.04	352.28	14.07	-38.6	-39.5	23.2	0.00e+00	81	29	0	720371712	50	6090
2026-01-26 20:05:11.06	351.68	13.99	-38.7	-39.7	23.1	0.00e+00	0	30	0	725614592	50	6186
2026-01-26 20:05:14.09	351.08	13.91	-39.2	-40.2	22.7	0.00e+00	0	30	0	731906048	50	6559
2026-01-26 20:05:17.12	350.49	13.83	-38.8	-39.8	22.9	0.00e+00	91	30	0	737148928	50	6246
2026-01-26 20:05:20.15	349.90	13.74	-38.7	-39.7	23.0	0.00e+00	0	29	0	742391808	50	6217
2026-01-26 20:05:23.17	349.32	13.65	-38.6	-39.6	23.1	0.00e+00	0	30	0	748683264	50	6123
2026-01-26 20:05:26.20	348.74	13.55	-38.4	-39.3	23.3	0.00e+00	90	30	0	753926144	50	5963
2026-01-26 20:05:29.23	348.16	13.46	-38.4	-39.3	23.1	0.00e+00	0	30	0	760217600	50	5936
2026-01-26 20:05:32.26	347.59	13.36	-38.5	-39.4	23.0	0.00e+00	0	30	0	765460480	50	6016
2026-01-26 20:05:35.29	347.02	13.26	-38.3	-39.2	23.3	0.00e+00	92	30	0	770703360	50	5876
2026-01-26 20:05:38.32	346.45	13.16	-38.4	-39.4	23.3	0.00e+00	0	30	0	776994816	50	5968
2026-01-26 20:05:41.35	345.89	13.05	-38.6	-39.5	23.0	0.00e+00	8	29	0	782237696	50	6090
2026-01-26 20:05:44.37	345.33	12.94	-38.5	-39.5	23.1	0.00e+00	8	30	0	788529152	50	6038
2026-01-26 20:05:47.40	344.78	12.83	-38.4	-39.3	23.2	0.00e+00	0	30	0	793772032	50	5935
2026-01-26 20:05:50.43	344.23	12.72	-38.4	-39.3	23.3	0.00e+00	0	30	0	800063488	50	5940
2026-01-26 20:05:53.46	343.69	12.61	-38.5	-39.4	23.2	0.00e+00	0	30	0	805306368	50	6011
2026-01-26 20:05:56.49	343.15	12.49	-38.3	-39.3	23.3	0.00e+00	92	30	0	810549248	50	5899
2026-01-26 20:05:59.51	342.61	12.37	-38.4	-39.3	23.3	0.00e+00	0	30	0	816840704	50	5903
2026-01-26 20:06:02.54	342.08	12.25	-38.6	-39.6	23.1	0.00e+00	2	30	0	822083584	50	6111
2026-01-26 20:06:05.57	341.55	12.13	-39.1	-40.1	22.5	0.00e+00	90	30	0	828375040	50	6492
2026-01-26 20:06:08.60	341.03	12.01	-39.4	-40.5	22.2	0.00e+00	78	30	0	833617920	50	6779
2026-01-26 20:06:11.63	340.51	11.88	-39.4	-40.4	22.2	0.00e+00	0	30	0	838860800	50	6769
2026-01-26 20:06:14.66	339.99	11.76	-39.6	-40.6	22.1	0.00e+00	92	30	0	845152256	50	6927
2026-01-26 20:06:17.69	339.49	11.63	-39.7	-40.8	21.9	0.00e+00	0	30	0	850395136	52	6278
2026-01-26 20:06:20.72	338.98	11.50	-40.2	-41.3	21.4	0.00e+00	7	30	0	856686592	52	6676
2026-01-26 20:06:23.74	338.48	11.37	-40.5	-41.7	21.0	0.00e+00	7	30	0	861929472	52	6987
2026-01-26 20:06:26.77	337.98	11.24	-40.6	-41.8	21.0	0.00e+00	92	30	0	868220928	52	7083
2026-01-26 20:06:29.80	337.49	11.10	-40.6	-41.9	20.8	0.00e+00	73	30	0	873463808	52	7124
2026-01-26 20:06:32.83	337.01	10.97	-40.6	-41.8	21.0	0.00e+00	0	30	0	878706688	54	6276
2026-01-26 20:06:35.86	336.52	10.83	-40.7	-41.9	20.8	0.00e+00	92	30	0	884998144	54	6369
2026-01-26 20:06:38.88	336.05	10.69	-41.1	-42.4	20.3	0.00e+00	2	30	0	890241024	54	6765
2026-01-26 20:06:41.91	335.57	10.55	-41.3	-42.7	20.1	0.00e+00	1	30	0	896532480	54	6938
2026-01-26 20:06:44.94	335.11	10.41	-41.2	-42.5	20.3	0.00e+00	92	30	0	901775360	54	6816
2026-01-26 20:06:47.97	334.64	10.27	-41.3	-42.7	19.9	0.00e+00	6	30	0	907018240	54	6970
2026-01-26 20:06:51.00	334.18	10.13	-41.3	-42.7	20.0	0.00e+00	0	30	0	913309696	54	6976
2026-01-26 20:06:54.03	333.73	9.99	-41.6	-43.0	19.8	0.00e+00	0	30	0	918552576	54	7235
2026-01-26 20:06:57.05	333.28	9.84	-41.5	-42.9	19.9	0.00e+00	87	30	0	924844032	54	7110
2026-01-26 20:07:00.08	332.83	9.70	-41.7	-43.1	19.8	0.00e+00	0	30	0	930086912	54	7268
2026-01-26 20:07:03.11	332.39	9.55	-41.8	-43.2	19.7	0.00e+00	6	30	0	936378368	56	6564
2026-01-26 20:07:06.14	331.95	9.41	-41.7	-43.1	19.8	0.00e+00	91	30	0	941621248	56	6511
2026-01-26 20:07:09.17	331.52	9.26	-41.6	-43.0	19.9	0.00e+00	4	30	0	946864128	56	6397
2026-01-26 20:07:12.19	331.09	9.11	-41.2	-42.5	20.3	0.00e+00	74	30	0	953155584	56	6074
2026-01-26 20:07:15.22	330.67	8.96	-41.2	-42.5	20.3	0.00e+00	92	30	0	958398464	56	6102
2026-01-26 20:07:18.25	330.25	8.82	-41.3	-42.7	20.2	0.00e+00	76	30	0	964689920	56	6175
2026-01-26 20:07:21.28	329.84	8.67	-41.0	-42.3	20.4	0.00e+00	0	30	0	969932800	56	5949
2026-01-26 20:07:24.31	329.43	8.52	-40.9	-42.1	20.6	0.00e+00	83	30	0	975175680	56	5825
2026-01-26 20:07:27.33	329.02	8.37	-40.8	-42.1	20.7	0.00e+00	2	30	0	981467136	56	5789
2026-01-26 20:07:30.36	328.62	8.21	-40.5	-41.7	21.0	0.00e+00	2	30	0	986710016	54	6204
2026-01-26 20:07:33.39	328.22	8.06	-40.9	-42.1	20.8	0.00e+00	75	30	0	993001472	54	6517
2026-01-26 20:07:36.42	327.83	7.91	-41.2	-42.5	20.3	0.00e+00	0	30	0	998244352	54	6845
2026-01-26 20:07:39.44	327.44	7.76	-41.1	-42.4	20.6	0.00e+00	0	30	0	1003487232	54	6717
2026-01-26 20:07:42.47	327.05	7.61	-40.0	-41.2	21.3	0.00e+00	6	30	0	1009778688	54	5845
2026-01-26 20:07:45.50	326.67	7.45	-40.0	-41.1	21.5	0.00e+00	90	30	0	1015021568	54	5798
2026-01-26 20:07:48.53	326.30	7.30	-39.4	-40.5	22.1	0.00e+00	2	30	0	1021313024	52	6066
2026-01-26 20:07:51.56	325.92	7.15	-39.4	-40.4	22.0	0.00e+00	84	30	0	1026555904	52	6011
2026-01-26 20:07:54.59	325.55	6.99	-39.4	-40.5	22.2	0.00e+00	91	30	0	1032847360	52	6048
2026-01-26 20:07:57.62	325.19	6.84	-39.6	-40.7	21.9	0.00e+00	0	30	0	1038090240	52	6211
2026-01-26 20:08:00.65	324.83	6.69	-39.5	-40.5	21.9	0.00e+00	0	30	0	1043333120	52	6079
2026-01-26 20:08:03.68	324.47	6.53	-39.6	-40.7	22.0	0.00e+00	0	30	0	1049624576	52	6190
2026-01-26 20:08:06.71	324.12	6.38	-39.4	-40.4	22.0	0.00e+00	11	30	0	1054867456	52	6032
2026-01-26 20:08:09.74	323.77	6.22	-39.6	-40.7	21.9	0.00e+00	0	30	0	1061158912	52	6220
2026-01-26 20:08:12.77	323.42	6.07	-40.1	-41.2	21.5	0.00e+00	78	30	0	1066401792	52	6563
2026-01-26 20:08:15.80	323.08	5.91	-40.0	-41.1	21.4	0.00e+00	92	30	0	1072693248	52	6507
2026-01-26 20:08:18.83	322.74	5.76	-39.9	-41.0	21.5	0.00e+00	0	30	0	1077936128	52	6444
2026-01-26 20:08:21.86	322.41	5.60	-39.8	-40.9	21.5	0.00e+00	0	30	0	1083179008	52	6382
2026-01-26 20:08:24.89	322.08	5.45	-40.0	-41.2	21.2	0.00e+00	92	30	0	1089470464	52	6551
2026-01-26 20:08:27.92	321.75	5.30	-39.9	-41.0	21.4	0.00e+00	0	30	0	1094713344	52	6431
2026-01-26 20:08:30.94	321.43	5.14	-39.7	-40.8	21.6	0.00e+00	2	30	0	1101004800	52	6302
2026-01-26 20:08:33.97	321.11	4.99	-40.1	-41.2	21.2	0.00e+00	92	30	0	1106247680	52	6603
2026-01-26 20:08:37.00	320.79	4.83	-40.2	-41.4	21.0	0.00e+00	0	30	0	1111490560	52	6701
2026-01-26 20:08:40.03	320.48	4.68	-40.4	-41.7	20.6	0.00e+00	80	30	0	1117782016	52	6936
2026-01-26 20:08:43.06	320.17	4.52	-40.6	-41.9	20.3	0.00e+00	0	30	0	1123024896	52	7127
2026-01-26 20:08:46.09	319.86	4.37	-40.6	-41.9	20.4	0.00e+00	87	30	0	1129316352	54	6372
2026-01-26 20:08:49.12	319.56	4.22	-40.7	-42.0	20.3	0.00e+00	2	30	0	1134559232	54	6391
2026-01-26 20:08:52.15	319.26	4.06	-40.8	-42.1	20.1	0.00e+00	2	30	0	1139802112	54	6530
2026-01-26 20:08:55.17	318.96	3.91	-41.0	-42.4	19.8	0.00e+00	90	29	0	1146093568	54	6695
2026-01-26 20:08:58.20	318.67	3.75	-41.3	-42.7	19.6	0.00e+00	0	29	0	1151336448	54	6973
2026-01-26 20:09:01.23	318.38	3.60	-41.9	-43.5	18.9	0.00e+00	0	29	0	1157627904	56	6845
2026-01-26 20:09:04.26	318.09	3.45	-42.0	-43.7	18.8	0.00e+00	92	29	0	1162870784	56	6934
2026-01-26 20:09:07.29	317.80	3.29	-41.8	-43.4	19.2	0.00e+00	0	29	0	1169162240	56	6720
2026-01-26 20:09:10.32	317.52	3.14	-41.8	-43.4	19.0	0.00e+00	1	29	0	1174405120	56	6731
2026-01-26 20:09:13.35	317.25	2.99	-42.8	-44.8	16.9	0.00e+00	74	30	0	1179648000	56	7916
2026-01-26 20:09:16.38	316.97	2.84	-49.2	-64.4	3.6	1.51e+00	0	29	104	1180696576	60	59948
2026-01-26 20:09:19.41	316.70	2.68	-49.3	-64.5	3.6	1.51e+00	0	30	104	1180696576	60	60810
2026-01-26 20:09:22.43	316.43	2.53	-49.4	-64.6	3.6	1.51e+00	0	29	104	1180696576	60	61241
2026-01-26 20:09:25.46	316.16	2.38	-49.4	-64.6	3.6	1.51e+00	0	29	104	1180696576	60	61235
2026-01-26 20:09:28.49	315.90	2.23	-49.2	-64.5	3.6	1.51e+00	0	29	104	1180696576	60	60789
2026-01-26 20:09:31.52	315.64	2.08	-49.5	-64.7	3.6	1.51e+00	0	29	104	1180696576	60	62109
2026-01-26 20:09:34.55	315.38	1.93	-49.4	-64.7	3.6	1.51e+00	0	29	104	1180696576	60	62085
2026-01-26 20:09:37.58	315.13	1.78	-49.6	-64.8	3.6	1.51e+00	0	29	104	1180696576	60	62478
2026-01-26 20:09:40.61	314.87	1.62	-49.8	-65.0	3.6	1.51e+00	0	29	104	1180696576	60	64416
2026-01-26 20:09:43.64	314.62	1.47	-49.6	-64.9	3.6	1.51e+00	0	29	104	1180696576	60	63286
2026-01-26 20:09:46.67	314.37	1.32	-49.7	-64.8	3.6	1.51e+00	0	29	104	1180696576	60	63110
2026-01-26 20:09:49.70	314.13	1.17	-49.6	-64.9	3.6	1.51e+00	0	29	104	1180696576	60	63183
2026-01-26 20:09:52.73	313.89	1.03	-49.9	-65.2	3.6	1.51e+00	0	29	104	1180696576	60	65618
2026-01-26 20:09:55.76	313.65	0.88	-49.6	-64.8	3.6	1.51e+00	0	29	104	1180696576	60	62858
2026-01-26 20:09:58.79	313.41	0.73	-49.4	-64.7	3.6	1.51e+00	0	29	104	1180696576	60	61967
2026-01-26 20:10:01.82	313.18	0.58	-49.2	-64.4	3.6	1.51e+00	0	29	104	1180696576	60	60313
2026-01-26 20:10:04.85	312.94	0.43	-49.5	-64.6	3.6	1.51e+00	0	29	104	1180696576	60	61516
2026-01-26 20:10:07.88	312.71	0.28	-49.3	-64.5	3.6	1.51e+00	0	29	104	1180696576	60	60901
2026-01-26 20:10:10.91	312.49	0.13	-49.3	-64.5	3.6	1.51e+00	0	29	104	1180696576	60	61013
2026-01-26 20:10:13.94	312.26	-0.01	-49.6	-64.9	3.6	1.51e+00	0	29	104	1180696576	60	63329

#Closed at: 2026-01-26 20:10:15
#Recorded file [1180 MB]: D:/lorett/data/35029_260127_075742.dat