passes_logs/2025/01/18/LEX_Murmansk/LEX_Murmansk__20250118_170839_NOAA_18_rec.log

#Pass ID: 20250118_170839_NOAA 18
#Satellite: NOAA 18
#Configuration: NOAA 18
#Start time: 2025-01-18 17:08:34.619204

#LorettStation: 1.0.0 05.05.2024
#Station: LEX_Murmansk
#Location: 33.156738 lon 68.926811 lat
#TLE: 1 28654U 05018A   25018.13582066  .00000389  00000+0  23006-3 0  9999
#TLE: 2 28654  98.8561  99.1591 0014505 170.4027 189.7425 14.13489305 13620

#Time	Az	El	Level	SNR
2025-01-18 17:08:50.823339	100.4	16.6	-90.7	9.5
2025-01-18 17:08:51.976890	100.3	16.7	-89.8	9.2
2025-01-18 17:08:53.132507	100.2	16.8	-90.4	12.9
2025-01-18 17:08:54.283689	100.1	16.9	-89.6	11.7
2025-01-18 17:08:55.439787	100.0	17.0	-89.5	8.0
2025-01-18 17:08:56.583608	99.9	17.1	-89.9	7.5
2025-01-18 17:08:57.732942	99.7	17.3	-89.9	10.9
2025-01-18 17:08:58.860060	99.6	17.4	-89.6	7.8
2025-01-18 17:08:59.998825	99.5	17.5	-89.3	9.1
2025-01-18 17:09:01.133315	99.4	17.6	-89.3	11.1
2025-01-18 17:09:02.268236	99.2	17.7	-89.4	11.0
2025-01-18 17:09:03.415142	99.1	17.8	-90.3	8.1
2025-01-18 17:09:04.559262	99.0	18.0	-90.3	5.6
2025-01-18 17:09:05.703767	98.9	18.1	-90.1	7.7
2025-01-18 17:09:06.862109	98.7	18.2	-90.0	5.5
2025-01-18 17:09:08.004759	98.6	18.3	-90.7	5.2
2025-01-18 17:09:09.134566	98.5	18.4	-90.8	6.7
2025-01-18 17:09:10.279272	98.3	18.6	-90.6	6.6
2025-01-18 17:09:11.421779	98.2	18.7	-90.0	7.9
2025-01-18 17:09:12.565123	98.1	18.8	-89.9	6.4
2025-01-18 17:09:13.709323	97.9	18.9	-89.9	5.3
2025-01-18 17:09:14.846537	97.8	19.0	-90.2	4.3
2025-01-18 17:09:15.993827	97.7	19.2	-90.7	6.0
2025-01-18 17:09:17.143055	97.5	19.3	-90.0	7.9
2025-01-18 17:09:18.289964	97.4	19.4	-90.1	6.3
2025-01-18 17:09:19.447313	97.3	19.5	-90.1	6.5
2025-01-18 17:09:20.590476	97.1	19.7	-90.8	6.7
2025-01-18 17:09:21.736296	97.0	19.8	-90.9	2.9
2025-01-18 17:09:22.890993	96.8	19.9	-89.8	6.4
2025-01-18 17:09:24.045040	96.7	20.0	-91.0	4.9
2025-01-18 17:09:25.196505	96.5	20.2	-90.0	4.0
2025-01-18 17:09:26.330043	96.4	20.3	-90.0	6.9
2025-01-18 17:09:27.465636	96.2	20.4	-90.0	5.7
2025-01-18 17:09:28.612331	96.1	20.5	-90.2	4.9
2025-01-18 17:09:29.747866	95.9	20.7	-90.2	7.4
2025-01-18 17:09:30.897368	95.8	20.8	-90.5	8.1
2025-01-18 17:09:32.048251	95.6	20.9	-90.5	6.7
2025-01-18 17:09:33.199461	95.5	21.1	-90.3	5.9
2025-01-18 17:09:34.347880	95.3	21.2	-89.8	7.1
2025-01-18 17:09:35.492927	95.2	21.3	-90.1	7.3
2025-01-18 17:09:36.629839	95.0	21.4	-90.5	7.9
2025-01-18 17:09:37.772635	94.8	21.6	-90.2	6.4
2025-01-18 17:09:38.898148	94.7	21.7	-90.3	5.6
2025-01-18 17:09:40.040201	94.5	21.8	-90.4	4.8
2025-01-18 17:09:41.183810	94.4	22.0	-90.2	7.4
2025-01-18 17:09:42.328253	94.2	22.1	-90.6	6.8
2025-01-18 17:09:43.474567	94.0	22.2	-90.1	5.5
2025-01-18 17:09:44.627271	93.9	22.4	-90.1	5.4
2025-01-18 17:09:45.775678	93.7	22.5	-90.5	4.8
2025-01-18 17:09:46.918315	93.5	22.6	-90.4	6.0
2025-01-18 17:09:48.062811	93.3	22.8	-90.9	5.2
2025-01-18 17:09:49.209321	93.2	22.9	-90.2	5.3
2025-01-18 17:09:50.364528	93.0	23.0	-90.2	4.3
2025-01-18 17:09:51.535078	92.8	23.2	-90.1	3.7
2025-01-18 17:09:52.684711	92.6	23.3	-90.7	5.1
2025-01-18 17:09:53.839367	92.4	23.5	-90.6	5.1
2025-01-18 17:09:54.992221	92.3	23.6	-90.5	3.9
2025-01-18 17:09:56.145589	92.1	23.7	-90.3	3.7
2025-01-18 17:09:57.294081	91.9	23.9	-90.4	3.4
2025-01-18 17:09:58.437274	91.7	24.0	-90.5	4.8
2025-01-18 17:09:59.562162	91.5	24.1	-90.1	4.9
2025-01-18 17:10:00.712604	91.3	24.3	-90.2	6.4
2025-01-18 17:10:01.855608	91.1	24.4	-90.6	6.5
2025-01-18 17:10:03.007690	90.9	24.6	-90.6	3.2
2025-01-18 17:10:04.138719	90.7	24.7	-90.4	4.6
2025-01-18 17:10:05.276962	90.5	24.8	-90.6	5.9
2025-01-18 17:10:06.423519	90.3	25.0	-90.2	7.1
2025-01-18 17:10:07.571586	90.1	25.1	-90.4	7.8
2025-01-18 17:10:08.717596	89.9	25.3	-90.5	8.1
2025-01-18 17:10:09.875111	89.7	25.4	-90.9	6.9
2025-01-18 17:10:11.030796	89.5	25.5	-90.8	8.9
2025-01-18 17:10:12.178531	89.3	25.7	-90.2	9.9
2025-01-18 17:10:13.326780	89.1	25.8	-90.5	8.2
2025-01-18 17:10:14.475837	88.9	26.0	-90.4	7.0
2025-01-18 17:10:15.623882	88.7	26.1	-90.3	7.3
2025-01-18 17:10:16.775728	88.4	26.3	-90.5	9.4
2025-01-18 17:10:17.924310	88.2	26.4	-90.6	7.6
2025-01-18 17:10:19.068042	88.0	26.5	-90.5	5.6
2025-01-18 17:10:20.197409	87.8	26.7	-90.4	7.1
2025-01-18 17:10:21.318189	87.6	26.8	-90.0	6.1
2025-01-18 17:10:22.456007	87.3	27.0	-90.8	6.6
2025-01-18 17:10:23.588398	87.1	27.1	-90.3	4.9
2025-01-18 17:10:24.726498	86.9	27.3	-90.7	7.5
2025-01-18 17:10:25.875876	86.7	27.4	-90.3	7.9
2025-01-18 17:10:27.020906	86.4	27.6	-90.9	7.4
2025-01-18 17:10:28.166553	86.2	27.7	-90.3	9.6
2025-01-18 17:10:29.311436	85.9	27.8	-90.9	11.1
2025-01-18 17:10:30.461707	85.7	28.0	-90.5	9.0
2025-01-18 17:10:31.608988	85.5	28.1	-90.3	9.5
2025-01-18 17:10:32.759198	85.2	28.3	-90.2	11.4
2025-01-18 17:10:33.915508	85.0	28.4	-90.8	12.9
2025-01-18 17:10:35.061437	84.7	28.6	-90.2	15.5
2025-01-18 17:10:36.195733	84.5	28.7	-89.7	14.0
2025-01-18 17:10:37.329975	84.2	28.9	-89.9	13.9
2025-01-18 17:10:38.479244	83.9	29.0	-89.9	9.1
2025-01-18 17:10:39.620067	83.7	29.2	-89.4	9.1
2025-01-18 17:10:40.760555	83.4	29.3	-89.1	14.0
2025-01-18 17:10:41.906807	83.2	29.5	-89.2	6.9
2025-01-18 17:10:43.057262	82.9	29.6	-89.5	6.2
2025-01-18 17:10:44.202286	82.6	29.8	-90.1	14.3
2025-01-18 17:10:45.354466	82.3	29.9	-90.4	11.0
2025-01-18 17:10:46.498741	82.1	30.1	-89.9	13.3
2025-01-18 17:10:47.655984	81.8	30.2	-89.9	13.4
2025-01-18 17:10:48.807956	81.5	30.4	-90.2	15.6
2025-01-18 17:10:49.958113	81.2	30.5	-90.4	13.6
2025-01-18 17:10:51.097266	80.9	30.6	-89.5	11.2
2025-01-18 17:10:52.245305	80.6	30.8	-89.3	14.5
2025-01-18 17:10:53.371646	80.4	30.9	-89.7	15.3
2025-01-18 17:10:54.511047	80.1	31.1	-89.4	11.6
2025-01-18 17:10:55.654115	79.8	31.2	-89.8	15.8
2025-01-18 17:10:56.798467	79.5	31.4	-89.3	14.1
2025-01-18 17:10:57.940962	79.2	31.5	-89.8	18.3
2025-01-18 17:10:59.087082	78.9	31.7	-89.7	14.7
2025-01-18 17:11:00.239831	78.6	31.8	-89.7	16.0
2025-01-18 17:11:01.384968	78.2	32.0	-89.9	11.3
2025-01-18 17:11:02.535640	77.9	32.1	-90.1	8.3
2025-01-18 17:11:03.684709	77.6	32.3	-89.7	15.9
2025-01-18 17:11:04.848244	77.3	32.4	-90.3	12.9
2025-01-18 17:11:06.004515	77.0	32.6	-90.1	8.0
2025-01-18 17:11:07.151575	76.6	32.7	-89.6	15.9
2025-01-18 17:11:08.283150	76.3	32.8	-89.8	16.1
2025-01-18 17:11:09.418145	76.0	33.0	-89.6	13.0
2025-01-18 17:11:10.557784	75.7	33.1	-89.4	13.0
2025-01-18 17:11:11.700797	75.3	33.3	-89.5	18.2
2025-01-18 17:11:12.847610	75.0	33.4	-89.4	18.6
2025-01-18 17:11:13.990034	74.6	33.6	-89.3	15.3
2025-01-18 17:11:15.140743	74.3	33.7	-89.9	14.7
2025-01-18 17:11:16.288098	73.9	33.8	-89.9	16.8
2025-01-18 17:11:17.444204	73.6	34.0	-90.7	10.9
2025-01-18 17:11:18.590315	73.2	34.1	-90.2	12.2
2025-01-18 17:11:19.737000	72.9	34.3	-90.7	15.5
2025-01-18 17:11:20.886254	72.5	34.4	-90.2	15.3
2025-01-18 17:11:22.032815	72.1	34.5	-89.9	18.8
2025-01-18 17:11:23.189427	71.8	34.7	-89.9	16.6
2025-01-18 17:11:24.348347	71.4	34.8	-89.5	19.5
2025-01-18 17:11:25.493911	71.0	34.9	-90.2	14.0
2025-01-18 17:11:26.639092	70.7	35.1	-89.7	12.0
2025-01-18 17:11:27.785716	70.3	35.2	-90.2	17.9
2025-01-18 17:11:28.934425	69.9	35.4	-90.6	9.0
2025-01-18 17:11:30.082222	69.5	35.5	-90.4	9.6
2025-01-18 17:11:31.234175	69.1	35.6	-89.9	14.1
2025-01-18 17:11:32.387849	68.7	35.7	-89.8	10.8
2025-01-18 17:11:33.536385	68.3	35.9	-90.1	12.0
2025-01-18 17:11:34.690011	67.9	36.0	-90.2	17.3
2025-01-18 17:11:35.834295	67.5	36.1	-89.7	16.8
2025-01-18 17:11:36.997710	67.1	36.3	-89.9	16.1
2025-01-18 17:11:38.147788	66.7	36.4	-90.0	19.9
2025-01-18 17:11:39.293714	66.3	36.5	-90.3	18.1
2025-01-18 17:11:40.439338	65.9	36.6	-90.5	18.2
2025-01-18 17:11:41.590185	65.5	36.8	-90.5	13.2
2025-01-18 17:11:42.728986	65.0	36.9	-89.9	16.2
2025-01-18 17:11:43.871610	64.6	37.0	-89.7	12.6
2025-01-18 17:11:44.991788	64.2	37.1	-89.8	10.1
2025-01-18 17:11:46.112941	63.8	37.2	-89.8	15.2
2025-01-18 17:11:47.234198	63.3	37.3	-89.3	16.4
2025-01-18 17:11:48.355137	62.9	37.4	-89.9	16.5
2025-01-18 17:11:49.476816	62.5	37.5	-90.0	17.1
2025-01-18 17:11:50.598039	62.1	37.7	-90.1	17.2
2025-01-18 17:11:51.719322	61.6	37.8	-89.9	18.9
2025-01-18 17:11:52.845076	61.2	37.9	-90.2	17.6
2025-01-18 17:11:53.988371	60.7	38.0	-90.3	17.5
2025-01-18 17:11:55.140604	60.3	38.1	-89.2	16.6
2025-01-18 17:11:56.294807	59.8	38.2	-89.7	18.0
2025-01-18 17:11:57.443512	59.4	38.3	-89.9	11.8
2025-01-18 17:11:58.585334	58.9	38.4	-89.8	10.0
2025-01-18 17:11:59.735103	58.4	38.5	-89.9	16.8
2025-01-18 17:12:00.879428	58.0	38.6	-89.7	10.2
2025-01-18 17:12:02.029237	57.5	38.7	-89.0	8.4
2025-01-18 17:12:03.183766	57.0	38.7	-88.8	15.0
2025-01-18 17:12:04.336362	56.5	38.8	-88.9	17.0
2025-01-18 17:12:05.487674	56.1	38.9	-89.2	9.9
2025-01-18 17:12:06.639254	55.6	39.0	-89.3	16.2
2025-01-18 17:12:07.795429	55.1	39.1	-89.7	16.0
2025-01-18 17:12:08.941429	54.6	39.2	-89.6	11.7
2025-01-18 17:12:10.095869	54.1	39.2	-88.9	14.1
2025-01-18 17:12:11.241487	53.6	39.3	-89.2	16.6
2025-01-18 17:12:12.369570	53.1	39.4	-89.5	17.2
2025-01-18 17:12:13.509133	52.7	39.5	-89.2	16.4
2025-01-18 17:12:14.654443	52.2	39.5	-89.3	18.7
2025-01-18 17:12:15.797534	51.7	39.6	-89.3	16.3
2025-01-18 17:12:16.947807	51.2	39.7	-89.4	14.6
2025-01-18 17:12:18.089968	50.7	39.7	-89.0	12.8
2025-01-18 17:12:19.237214	50.2	39.8	-90.0	16.3
2025-01-18 17:12:20.386506	49.7	39.8	-90.3	10.3
2025-01-18 17:12:21.529730	49.1	39.9	-90.7	12.9
2025-01-18 17:12:22.684746	48.6	39.9	-90.3	16.4
2025-01-18 17:12:23.831298	48.1	40.0	-90.6	18.1
2025-01-18 17:12:24.987117	47.6	40.0	-89.9	12.9
2025-01-18 17:12:26.139625	47.1	40.1	-90.1	17.3
2025-01-18 17:12:27.295266	46.6	40.1	-90.3	16.6
2025-01-18 17:12:28.442004	46.1	40.2	-90.3	13.0
2025-01-18 17:12:29.593038	45.5	40.2	-90.2	12.9
2025-01-18 17:12:30.745082	45.0	40.2	-90.2	17.1
2025-01-18 17:12:31.895747	44.5	40.3	-90.1	16.4
2025-01-18 17:12:33.041618	44.0	40.3	-89.8	15.7
2025-01-18 17:12:34.185909	43.4	40.3	-90.5	18.3
2025-01-18 17:12:35.338915	42.9	40.3	-89.9	17.0
2025-01-18 17:12:36.497510	42.4	40.3	-90.5	13.8
2025-01-18 17:12:37.653714	41.9	40.4	-90.1	14.7
2025-01-18 17:12:38.799978	41.3	40.4	-90.2	14.5
2025-01-18 17:12:39.945573	40.8	40.4	-90.0	15.0
2025-01-18 17:12:41.118250	40.3	40.4	-90.4	15.4
2025-01-18 17:12:42.266748	39.8	40.4	-90.5	15.3
2025-01-18 17:12:43.426268	39.2	40.4	-90.6	13.4
2025-01-18 17:12:44.580997	38.7	40.4	-89.9	12.7
2025-01-18 17:12:45.729678	38.2	40.4	-90.4	16.1
2025-01-18 17:12:46.874342	37.6	40.4	-90.3	16.0
2025-01-18 17:12:48.023720	37.1	40.4	-90.1	9.8
2025-01-18 17:12:49.170847	36.6	40.4	-90.9	16.8
2025-01-18 17:12:50.327740	36.1	40.4	-90.4	15.2
2025-01-18 17:12:51.473705	35.5	40.4	-90.8	8.6
2025-01-18 17:12:52.619532	35.0	40.3	-90.9	15.4
2025-01-18 17:12:53.761024	34.5	40.3	-90.8	18.5
2025-01-18 17:12:54.884521	34.0	40.3	-90.8	13.1
2025-01-18 17:12:56.005600	33.5	40.3	-90.9	9.8
2025-01-18 17:12:57.126107	33.0	40.2	-90.9	14.0
2025-01-18 17:12:58.246603	32.5	40.2	-90.9	18.2
2025-01-18 17:12:59.368013	31.9	40.2	-90.9	12.1
2025-01-18 17:13:00.489003	31.4	40.1	-91.1	9.3
2025-01-18 17:13:01.610027	30.9	40.1	-89.9	11.4
2025-01-18 17:13:02.730734	30.4	40.0	-90.8	17.2
2025-01-18 17:13:03.868309	29.9	40.0	-90.3	14.9
2025-01-18 17:13:05.027656	29.4	40.0	-91.2	10.1
2025-01-18 17:13:06.182078	28.9	39.9	-90.3	18.8
2025-01-18 17:13:07.326639	28.4	39.9	-90.8	18.6
2025-01-18 17:13:08.465850	27.9	39.8	-90.3	11.6
2025-01-18 17:13:09.612552	27.4	39.7	-90.2	9.6
2025-01-18 17:13:10.762144	26.9	39.7	-90.5	13.0
2025-01-18 17:13:11.911173	26.4	39.6	-90.7	10.3
2025-01-18 17:13:13.060522	25.9	39.6	-90.7	10.6
2025-01-18 17:13:14.211744	25.4	39.5	-90.5	16.7
2025-01-18 17:13:15.353456	24.9	39.4	-90.7	17.1
2025-01-18 17:13:16.508820	24.4	39.3	-90.3	12.6
2025-01-18 17:13:17.655222	23.9	39.3	-90.1	15.7
2025-01-18 17:13:18.813176	23.4	39.2	-90.4	18.1
2025-01-18 17:13:19.963032	22.9	39.1	-89.8	14.2
2025-01-18 17:13:21.117011	22.4	39.0	-90.4	15.7
2025-01-18 17:13:22.261733	21.9	39.0	-90.6	19.4
2025-01-18 17:13:23.398220	21.5	38.9	-89.9	14.2
2025-01-18 17:13:24.536282	21.0	38.8	-90.6	13.4
2025-01-18 17:13:25.676146	20.5	38.7	-90.8	18.4
2025-01-18 17:13:26.817617	20.0	38.6	-90.2	16.1
2025-01-18 17:13:27.965445	19.6	38.5	-90.1	13.7
2025-01-18 17:13:29.114145	19.1	38.4	-90.3	12.3
2025-01-18 17:13:30.258958	18.7	38.3	-90.4	17.3
2025-01-18 17:13:31.403003	18.2	38.2	-89.9	11.7
2025-01-18 17:13:32.553861	17.7	38.1	-91.0	13.8
2025-01-18 17:13:33.697720	17.3	38.0	-90.9	17.8
2025-01-18 17:13:34.843924	16.8	37.9	-90.5	19.2
2025-01-18 17:13:35.989239	16.4	37.8	-91.0	12.7
2025-01-18 17:13:37.141952	15.9	37.7	-90.6	16.5
2025-01-18 17:13:38.288226	15.5	37.6	-90.6	18.2
2025-01-18 17:13:39.435173	15.0	37.5	-90.9	13.6
2025-01-18 17:13:40.586087	14.6	37.4	-90.6	13.6
2025-01-18 17:13:41.735656	14.2	37.3	-91.1	18.1
2025-01-18 17:13:42.895278	13.7	37.1	-90.5	11.7
2025-01-18 17:13:44.019702	13.3	37.0	-90.7	11.6
2025-01-18 17:13:45.158929	12.9	36.9	-90.1	14.5
2025-01-18 17:13:46.298240	12.5	36.8	-90.1	16.8
2025-01-18 17:13:47.442675	12.1	36.7	-90.2	11.2
2025-01-18 17:13:48.585991	11.6	36.5	-90.6	10.0
2025-01-18 17:13:49.729829	11.2	36.4	-90.2	16.7
2025-01-18 17:13:50.882952	10.8	36.3	-89.6	13.4
2025-01-18 17:13:52.020760	10.4	36.2	-90.0	11.6
2025-01-18 17:13:53.154569	10.0	36.0	-90.1	16.1
2025-01-18 17:13:54.300810	9.6	35.9	-89.9	17.2
2025-01-18 17:13:55.438637	9.2	35.8	-90.5	8.3
2025-01-18 17:13:56.577552	8.8	35.7	-90.3	9.9
2025-01-18 17:13:57.722252	8.4	35.5	-90.6	16.4
2025-01-18 17:13:58.874537	8.0	35.4	-90.8	11.9
2025-01-18 17:14:00.023228	7.7	35.3	-90.3	10.1
2025-01-18 17:14:01.162765	7.3	35.1	-90.8	14.5
2025-01-18 17:14:02.310390	6.9	35.0	-90.3	17.0
2025-01-18 17:14:03.458144	6.5	34.9	-90.5	10.3
2025-01-18 17:14:04.609824	6.2	34.7	-90.5	12.9
2025-01-18 17:14:05.759600	5.8	34.6	-90.3	16.6
2025-01-18 17:14:06.907111	5.4	34.4	-90.4	11.9
2025-01-18 17:14:08.062539	5.1	34.3	-90.4	11.0
2025-01-18 17:14:09.208937	4.7	34.2	-90.7	16.6
2025-01-18 17:14:10.360471	4.3	34.0	-90.7	13.8
2025-01-18 17:14:11.510330	4.0	33.9	-90.7	11.9
2025-01-18 17:14:12.661764	3.6	33.7	-91.2	16.0
2025-01-18 17:14:13.800841	3.3	33.6	-91.1	15.8
2025-01-18 17:14:14.926715	2.9	33.5	-91.3	13.1
2025-01-18 17:14:16.072208	2.6	33.3	-91.0	13.9
2025-01-18 17:14:17.214691	2.3	33.2	-90.9	13.1
2025-01-18 17:14:18.363107	1.9	33.0	-90.6	11.5
2025-01-18 17:14:19.511169	1.6	32.9	-90.5	11.7
2025-01-18 17:14:20.662129	1.3	32.7	-90.1	12.8
2025-01-18 17:14:21.830946	0.9	32.6	-90.4	11.7
2025-01-18 17:14:22.986297	0.6	32.5	-90.5	10.0
2025-01-18 17:14:24.135301	0.3	32.3	-90.2	10.2
2025-01-18 17:14:25.293346	360.0	32.2	-90.6	5.4
2025-01-18 17:14:26.452814	359.6	32.0	-90.8	6.5
2025-01-18 17:14:27.603236	359.3	31.9	-90.5	7.7
2025-01-18 17:14:28.748292	359.0	31.7	-90.6	9.4
2025-01-18 17:14:29.879656	358.7	31.6	-90.4	7.8
2025-01-18 17:14:31.014061	358.4	31.4	-90.6	8.0
2025-01-18 17:14:32.159398	358.1	31.3	-90.0	12.2
2025-01-18 17:14:33.298775	357.8	31.1	-90.4	12.1
2025-01-18 17:14:34.450307	357.5	31.0	-90.3	8.9
2025-01-18 17:14:35.595532	357.2	30.8	-90.0	6.9
2025-01-18 17:14:36.745974	356.9	30.7	-90.4	9.4
2025-01-18 17:14:37.899019	356.7	30.5	-90.7	6.1
2025-01-18 17:14:39.047387	356.4	30.4	-90.8	7.2
2025-01-18 17:14:40.198645	356.1	30.2	-90.5	11.9
2025-01-18 17:14:41.353869	355.8	30.1	-90.3	10.4
2025-01-18 17:14:42.508488	355.5	29.9	-90.4	8.5
2025-01-18 17:14:43.655742	355.3	29.8	-90.6	12.2
2025-01-18 17:14:44.801886	355.0	29.6	-90.7	13.8
2025-01-18 17:14:45.948519	354.7	29.5	-90.2	11.4
2025-01-18 17:14:47.101317	354.4	29.3	-90.5	12.9
2025-01-18 17:14:48.250209	354.2	29.2	-90.8	13.3
2025-01-18 17:14:49.400682	353.9	29.0	-90.5	9.3
2025-01-18 17:14:50.549312	353.7	28.9	-90.9	9.4
2025-01-18 17:14:51.698902	353.4	28.8	-90.4	5.6
2025-01-18 17:14:52.857594	353.1	28.6	-90.6	7.8
2025-01-18 17:14:54.009169	352.9	28.5	-90.5	7.0
2025-01-18 17:14:55.160295	352.6	28.3	-91.0	12.5
2025-01-18 17:14:56.308758	352.4	28.2	-90.6	10.2
2025-01-18 17:14:57.456588	352.1	28.0	-90.7	7.1
2025-01-18 17:14:58.606884	351.9	27.9	-90.8	10.8
2025-01-18 17:14:59.750812	351.7	27.7	-90.6	11.6
2025-01-18 17:15:00.900922	351.4	27.6	-90.9	8.1
2025-01-18 17:15:02.040555	351.2	27.4	-90.5	9.1
2025-01-18 17:15:03.166079	351.0	27.3	-90.9	12.5
2025-01-18 17:15:04.319517	350.7	27.1	-90.8	14.3
2025-01-18 17:15:05.469880	350.5	27.0	-90.7	10.4
2025-01-18 17:15:06.619771	350.3	26.8	-90.5	8.6
2025-01-18 17:15:07.781447	350.0	26.7	-90.6	13.6
2025-01-18 17:15:08.948240	349.8	26.6	-90.4	9.4
2025-01-18 17:15:10.090828	349.6	26.4	-90.4	13.6
2025-01-18 17:15:11.238433	349.4	26.3	-91.0	14.9
2025-01-18 17:15:12.394565	349.1	26.1	-90.9	13.6
2025-01-18 17:15:13.544590	348.9	26.0	-90.3	15.7
2025-01-18 17:15:14.699912	348.7	25.8	-91.1	14.0
2025-01-18 17:15:15.856256	348.5	25.7	-90.3	11.8
2025-01-18 17:15:17.008111	348.3	25.5	-90.8	9.9
2025-01-18 17:15:18.157994	348.1	25.4	-90.2	14.0
2025-01-18 17:15:19.294126	347.9	25.3	-90.7	14.2
2025-01-18 17:15:20.415007	347.7	25.1	-91.0	7.5
2025-01-18 17:15:21.535755	347.5	25.0	-90.5	5.4
2025-01-18 17:15:22.656735	347.3	24.8	-90.9	8.2
2025-01-18 17:15:23.777114	347.1	24.7	-90.5	11.4
2025-01-18 17:15:24.897507	346.9	24.6	-90.9	5.4
2025-01-18 17:15:26.024503	346.7	24.4	-90.8	8.3
2025-01-18 17:15:27.145510	346.5	24.3	-90.4	12.6
2025-01-18 17:15:28.271030	346.3	24.2	-90.8	12.3
2025-01-18 17:15:29.409578	346.1	24.0	-90.2	12.3
2025-01-18 17:15:30.554030	345.9	23.9	-91.4	9.8
2025-01-18 17:15:31.703422	345.8	23.7	-91.5	15.3
2025-01-18 17:15:32.851095	345.6	23.6	-90.6	11.4
2025-01-18 17:15:33.991501	345.4	23.5	-90.7	15.9
2025-01-18 17:15:35.137963	345.2	23.3	-90.0	16.3
2025-01-18 17:15:36.295137	345.0	23.2	-90.6	9.6
2025-01-18 17:15:37.443857	344.8	23.1	-90.4	11.6
2025-01-18 17:15:38.593840	344.7	22.9	-91.4	11.8
2025-01-18 17:15:39.744865	344.5	22.8	-90.7	13.5
2025-01-18 17:15:40.894862	344.3	22.7	-90.4	7.3
2025-01-18 17:15:42.045811	344.1	22.5	-90.7	7.2
2025-01-18 17:15:43.194545	344.0	22.4	-91.1	10.7
2025-01-18 17:15:44.344958	343.8	22.2	-90.8	11.4
2025-01-18 17:15:45.493670	343.6	22.1	-91.1	9.7
2025-01-18 17:15:46.640882	343.5	22.0	-90.9	10.3
2025-01-18 17:15:47.802683	343.3	21.8	-90.5	16.1
2025-01-18 17:15:48.955003	343.1	21.7	-90.2	10.5
2025-01-18 17:15:50.100585	343.0	21.6	-89.6	11.6
2025-01-18 17:15:51.240842	342.8	21.5	-89.4	15.1
2025-01-18 17:15:52.368984	342.7	21.3	-89.7	12.8
2025-01-18 17:15:53.516263	342.5	21.2	-89.7	9.9
2025-01-18 17:15:54.636481	342.3	21.1	-90.2	12.8
2025-01-18 17:15:55.783553	342.2	20.9	-89.9	10.5
2025-01-18 17:15:56.928356	342.0	20.8	-90.3	7.5
2025-01-18 17:15:58.082494	341.9	20.7	-89.9	5.4
2025-01-18 17:15:59.214104	341.7	20.6	-90.0	6.6
2025-01-18 17:16:00.354045	341.6	20.4	-90.1	8.9
2025-01-18 17:16:01.498017	341.4	20.3	-89.9	4.4
2025-01-18 17:16:02.647536	341.3	20.2	-90.0	6.4
2025-01-18 17:16:03.795505	341.1	20.0	-90.2	7.1
2025-01-18 17:16:04.941271	341.0	19.9	-90.0	4.7
2025-01-18 17:16:06.087282	340.8	19.8	-89.6	5.2
2025-01-18 17:16:07.231952	340.7	19.7	-90.0	6.8
2025-01-18 17:16:08.366780	340.6	19.5	-89.9	8.1
2025-01-18 17:16:09.498252	340.4	19.4	-89.9	6.8
2025-01-18 17:16:10.631156	340.3	19.3	-89.7	5.1
2025-01-18 17:16:11.756295	340.2	19.2	-90.1	7.0
2025-01-18 17:16:12.907085	340.0	19.1	-91.0	6.1
2025-01-18 17:16:14.048548	339.9	18.9	-90.8	5.9
2025-01-18 17:16:15.190474	339.7	18.8	-90.8	6.8
2025-01-18 17:16:16.329279	339.6	18.7	-90.7	5.4
2025-01-18 17:16:17.471729	339.5	18.6	-90.7	4.8
2025-01-18 17:16:18.625931	339.3	18.4	-90.8	6.6
2025-01-18 17:16:19.780254	339.2	18.3	-91.0	10.2
2025-01-18 17:16:20.928902	339.1	18.2	-90.5	4.0
2025-01-18 17:16:22.076417	339.0	18.1	-90.9	4.1
2025-01-18 17:16:23.223972	338.8	18.0	-91.1	7.1
2025-01-18 17:16:24.347027	338.7	17.9	-91.0	15.2
2025-01-18 17:16:25.486170	338.6	17.7	-90.6	8.1
2025-01-18 17:16:26.627536	338.5	17.6	-90.8	8.8
2025-01-18 17:16:27.765570	338.3	17.5	-90.4	8.8
2025-01-18 17:16:28.911801	338.2	17.4	-90.8	3.3
2025-01-18 17:16:30.054829	338.1	17.3	-90.9	4.8
2025-01-18 17:16:31.201155	338.0	17.1	-90.7	8.2
2025-01-18 17:16:32.349106	337.8	17.0	-90.3	6.5
2025-01-18 17:16:33.498246	337.7	16.9	-90.7	2.0
2025-01-18 17:16:34.646917	337.6	16.8	-89.8	7.1
2025-01-18 17:16:35.796012	337.5	16.7	-90.9	5.9
2025-01-18 17:16:36.942380	337.4	16.6	-91.1	4.1
2025-01-18 17:16:38.079264	337.3	16.5	-90.5	4.5
2025-01-18 17:16:39.206223	337.2	16.3	-90.5	5.2
2025-01-18 17:16:40.351116	337.0	16.2	-90.8	7.7
2025-01-18 17:16:41.496266	336.9	16.1	-90.1	8.3
2025-01-18 17:16:42.643269	336.8	16.0	-90.5	6.7
2025-01-18 17:16:43.780970	336.7	15.9	-90.2	7.1
2025-01-18 17:16:44.926777	336.6	15.8	-90.4	7.8
2025-01-18 17:16:46.074016	336.5	15.7	-90.1	5.8
2025-01-18 17:16:47.228115	336.4	15.6	-90.4	10.0
2025-01-18 17:16:48.375175	336.3	15.5	-90.6	8.1
2025-01-18 17:16:49.516212	336.2	15.3	-90.0	6.0
2025-01-18 17:16:50.640321	336.1	15.2	-90.6	7.4
2025-01-18 17:16:51.786360	336.0	15.1	-90.6	7.1
2025-01-18 17:16:52.927061	335.8	15.0	-90.2	7.0
2025-01-18 17:16:54.072218	335.7	14.9	-90.2	6.7
2025-01-18 17:16:55.217583	335.6	14.8	-90.6	9.4
2025-01-18 17:16:56.366342	335.5	14.7	-89.7	5.5
2025-01-18 17:16:57.519663	335.4	14.6	-89.9	5.1
#Closed at: 2025-01-18 17:08:39.622621