passes_logs/2025/01/18/LEX_Murmansk/LEX_Murmansk__20250118_135031_NOAA_18_rec.log

#Pass ID: 20250118_135031_NOAA 18
#Satellite: NOAA 18
#Configuration: NOAA 18
#Start time: 2025-01-18 13:50:26.635609

#LorettStation: 1.0.0 05.05.2024
#Station: LEX_Murmansk
#Location: 33.156738 lon 68.926811 lat
#TLE: 1 28654U 05018A   25018.13582066  .00000389  00000+0  23006-3 0  9999
#TLE: 2 28654  98.8561  99.1591 0014505 170.4027 189.7425 14.13489305 13620

#Time	Az	El	Level	SNR
2025-01-18 13:50:38.801571	32.5	15.9	-92.0	3.7
2025-01-18 13:50:39.958179	32.3	16.0	-91.9	2.8
2025-01-18 13:50:41.119299	32.2	16.1	-92.3	5.5
2025-01-18 13:50:42.280121	32.0	16.1	-92.2	5.9
2025-01-18 13:50:43.438695	31.8	16.2	-92.0	4.0
2025-01-18 13:50:44.603309	31.6	16.3	-91.9	5.1
2025-01-18 13:50:45.765387	31.4	16.4	-92.1	7.1
2025-01-18 13:50:46.934010	31.2	16.5	-91.8	3.0
2025-01-18 13:50:48.098568	31.0	16.6	-91.7	5.1
2025-01-18 13:50:49.263477	30.8	16.7	-91.6	8.5
2025-01-18 13:50:50.413520	30.6	16.7	-91.9	5.4
2025-01-18 13:50:51.575467	30.5	16.8	-91.9	5.1
2025-01-18 13:50:52.740559	30.3	16.9	-92.2	8.1
2025-01-18 13:50:53.906452	30.1	17.0	-91.8	3.9
2025-01-18 13:50:55.065016	29.9	17.1	-92.0	6.1
2025-01-18 13:50:56.240559	29.7	17.2	-92.1	4.0
2025-01-18 13:50:57.404952	29.5	17.3	-92.0	5.0
2025-01-18 13:50:58.570000	29.3	17.3	-92.3	7.1
2025-01-18 13:50:59.732358	29.1	17.4	-92.1	6.3
2025-01-18 13:51:00.888675	28.9	17.5	-91.9	8.1
2025-01-18 13:51:02.067754	28.6	17.6	-92.3	3.8
2025-01-18 13:51:03.232689	28.4	17.7	-92.0	6.4
2025-01-18 13:51:04.388657	28.2	17.8	-92.4	9.4
2025-01-18 13:51:05.560741	28.0	17.8	-92.2	5.7
2025-01-18 13:51:06.696604	27.8	17.9	-92.2	13.8
2025-01-18 13:51:07.816970	27.6	18.0	-92.3	14.0
2025-01-18 13:51:08.937518	27.4	18.1	-92.5	7.2
2025-01-18 13:51:10.057542	27.2	18.2	-92.4	7.2
2025-01-18 13:51:11.178333	27.0	18.3	-92.2	6.5
2025-01-18 13:51:12.298406	26.8	18.3	-92.4	7.6
2025-01-18 13:51:13.418936	26.6	18.4	-92.3	16.8
2025-01-18 13:51:14.539559	26.4	18.5	-92.7	13.9
2025-01-18 13:51:15.665940	26.2	18.6	-92.7	10.8
2025-01-18 13:51:16.822165	26.0	18.7	-92.4	13.0
2025-01-18 13:51:17.988585	25.7	18.7	-92.4	6.6
2025-01-18 13:51:19.152397	25.5	18.8	-92.4	12.9
2025-01-18 13:51:20.312644	25.3	18.9	-92.0	7.4
2025-01-18 13:51:21.465385	25.1	19.0	-92.3	4.7
2025-01-18 13:51:22.627340	24.8	19.1	-92.1	4.9
2025-01-18 13:51:23.781124	24.6	19.1	-92.1	8.1
2025-01-18 13:51:24.932795	24.4	19.2	-92.3	10.9
2025-01-18 13:51:26.065521	24.2	19.3	-92.6	9.9
2025-01-18 13:51:27.220879	23.9	19.4	-92.2	13.7
2025-01-18 13:51:28.360237	23.7	19.5	-92.2	15.1
2025-01-18 13:51:29.511845	23.5	19.5	-92.4	8.2
2025-01-18 13:51:30.659941	23.2	19.6	-92.4	13.5
2025-01-18 13:51:31.816369	23.0	19.7	-92.4	11.5
2025-01-18 13:51:32.974140	22.8	19.8	-92.8	9.4
2025-01-18 13:51:34.134188	22.5	19.9	-91.9	12.6
2025-01-18 13:51:35.290950	22.3	19.9	-92.1	11.2
2025-01-18 13:51:36.455861	22.1	20.0	-92.3	9.4
2025-01-18 13:51:37.615476	21.8	20.1	-92.7	11.5
2025-01-18 13:51:38.776304	21.6	20.2	-92.5	9.8
2025-01-18 13:51:39.944191	21.3	20.3	-92.5	7.0
2025-01-18 13:51:41.097809	21.1	20.3	-91.8	4.8
2025-01-18 13:51:42.262808	20.8	20.4	-92.3	9.5
2025-01-18 13:51:43.426735	20.6	20.5	-92.7	5.0
2025-01-18 13:51:44.599619	20.3	20.6	-92.6	5.4
2025-01-18 13:51:45.758551	20.1	20.6	-91.4	6.5
2025-01-18 13:51:46.925839	19.8	20.7	-92.3	7.6
2025-01-18 13:51:48.084636	19.6	20.8	-92.3	11.9
2025-01-18 13:51:49.253163	19.3	20.9	-92.2	13.3
2025-01-18 13:51:50.413408	19.1	20.9	-92.4	10.8
2025-01-18 13:51:51.581241	18.8	21.0	-92.2	12.7
2025-01-18 13:51:52.744307	18.6	21.1	-92.2	10.6
2025-01-18 13:51:53.903433	18.3	21.2	-92.1	8.7
2025-01-18 13:51:55.067354	18.0	21.2	-92.3	11.2
2025-01-18 13:51:56.233168	17.8	21.3	-92.4	8.7
2025-01-18 13:51:57.399223	17.5	21.4	-92.2	12.3
2025-01-18 13:51:58.562818	17.3	21.5	-92.5	9.6
2025-01-18 13:51:59.722009	17.0	21.5	-92.5	9.9
2025-01-18 13:52:00.880883	16.7	21.6	-92.1	14.0
2025-01-18 13:52:02.043519	16.5	21.7	-92.4	12.4
2025-01-18 13:52:03.211498	16.2	21.7	-92.4	12.2
2025-01-18 13:52:04.370421	15.9	21.8	-92.3	8.9
2025-01-18 13:52:05.535279	15.6	21.9	-92.2	8.9
2025-01-18 13:52:06.702005	15.4	22.0	-92.5	9.9
2025-01-18 13:52:07.869958	15.1	22.0	-92.1	9.7
2025-01-18 13:52:09.035828	14.8	22.1	-92.7	5.9
2025-01-18 13:52:10.200308	14.5	22.2	-92.3	12.0
2025-01-18 13:52:11.362721	14.3	22.2	-92.6	11.1
2025-01-18 13:52:12.522998	14.0	22.3	-92.2	7.5
2025-01-18 13:52:13.676296	13.7	22.4	-92.3	6.4
2025-01-18 13:52:14.819826	13.4	22.4	-92.1	10.7
2025-01-18 13:52:15.939999	13.2	22.5	-92.4	10.9
2025-01-18 13:52:17.059617	12.9	22.5	-92.3	13.4
2025-01-18 13:52:18.180790	12.6	22.6	-92.0	15.7
2025-01-18 13:52:19.301586	12.3	22.7	-92.6	17.4
2025-01-18 13:52:20.423516	12.1	22.7	-92.5	12.1
2025-01-18 13:52:21.542919	11.8	22.8	-92.5	16.6
2025-01-18 13:52:22.662933	11.5	22.8	-92.6	15.5
2025-01-18 13:52:23.787132	11.2	22.9	-92.4	15.2
2025-01-18 13:52:24.931928	10.9	23.0	-92.0	11.4
2025-01-18 13:52:26.097217	10.6	23.0	-92.2	9.3
2025-01-18 13:52:27.261054	10.3	23.1	-91.6	16.1
2025-01-18 13:52:28.419383	10.1	23.1	-92.0	9.1
2025-01-18 13:52:29.568718	9.8	23.2	-92.3	8.2
2025-01-18 13:52:30.727917	9.5	23.2	-92.0	15.7
2025-01-18 13:52:31.893856	9.2	23.3	-92.3	11.2
2025-01-18 13:52:33.057578	8.9	23.3	-91.7	14.6
2025-01-18 13:52:34.219953	8.6	23.4	-92.0	18.4
2025-01-18 13:52:35.379413	8.3	23.5	-92.9	19.4
2025-01-18 13:52:36.544621	8.0	23.5	-92.5	15.1
2025-01-18 13:52:37.699631	7.7	23.6	-92.5	16.4
2025-01-18 13:52:38.867184	7.4	23.6	-91.6	13.8
2025-01-18 13:52:40.030915	7.1	23.7	-92.3	11.8
2025-01-18 13:52:41.190109	6.8	23.7	-92.3	13.9
2025-01-18 13:52:42.359155	6.4	23.8	-92.1	9.5
2025-01-18 13:52:43.523087	6.1	23.8	-92.0	7.2
2025-01-18 13:52:44.688381	5.8	23.9	-91.9	13.4
2025-01-18 13:52:45.849458	5.5	23.9	-92.6	12.3
2025-01-18 13:52:47.013116	5.2	23.9	-92.4	9.4
2025-01-18 13:52:48.182208	4.9	24.0	-92.2	16.5
2025-01-18 13:52:49.341513	4.6	24.0	-92.2	17.5
2025-01-18 13:52:50.509085	4.3	24.1	-92.1	13.2
2025-01-18 13:52:51.670050	4.0	24.1	-92.0	10.2
2025-01-18 13:52:52.837171	3.6	24.2	-92.0	13.8
2025-01-18 13:52:53.998758	3.3	24.2	-92.1	13.0
2025-01-18 13:52:55.163929	3.0	24.2	-92.2	17.6
2025-01-18 13:52:56.333934	2.7	24.3	-91.6	18.3
2025-01-18 13:52:57.490083	2.4	24.3	-92.6	16.9
2025-01-18 13:52:58.653956	2.0	24.3	-92.2	17.9
2025-01-18 13:52:59.811597	1.7	24.4	-91.5	13.4
2025-01-18 13:53:00.966681	1.4	24.4	-92.3	11.0
2025-01-18 13:53:02.131672	1.1	24.4	-92.3	12.4
2025-01-18 13:53:03.300271	0.8	24.5	-92.0	15.1
2025-01-18 13:53:04.464879	0.4	24.5	-91.7	9.6
2025-01-18 13:53:05.632610	0.1	24.5	-91.6	11.9
2025-01-18 13:53:06.794561	359.8	24.6	-92.0	14.1
2025-01-18 13:53:07.959742	359.5	24.6	-91.5	7.1
2025-01-18 13:53:09.124869	359.1	24.6	-91.9	11.8
2025-01-18 13:53:10.286555	358.8	24.7	-91.9	13.2
2025-01-18 13:53:11.446905	358.5	24.7	-92.0	11.0
2025-01-18 13:53:12.607105	358.2	24.7	-91.7	14.6
2025-01-18 13:53:13.768517	357.8	24.7	-92.0	13.9
2025-01-18 13:53:14.930514	357.5	24.8	-91.9	15.0
2025-01-18 13:53:16.090436	357.2	24.8	-91.7	13.9
2025-01-18 13:53:17.253053	356.9	24.8	-91.6	18.0
2025-01-18 13:53:18.418702	356.5	24.8	-91.6	15.1
2025-01-18 13:53:19.579824	356.2	24.8	-91.8	15.4
2025-01-18 13:53:20.739546	355.9	24.9	-92.2	15.1
2025-01-18 13:53:21.897349	355.5	24.9	-91.6	14.0
2025-01-18 13:53:23.017591	355.2	24.9	-88.6	10.4
2025-01-18 13:53:24.153915	354.9	24.9	-91.9	12.6
2025-01-18 13:53:25.312033	354.6	24.9	-92.0	15.6
2025-01-18 13:53:26.475322	354.2	24.9	-91.8	8.3
2025-01-18 13:53:27.642056	353.9	24.9	-91.8	10.5
2025-01-18 13:53:28.808037	353.6	24.9	-91.5	14.2
2025-01-18 13:53:29.968808	353.2	25.0	-91.3	7.0
2025-01-18 13:53:31.120856	352.9	25.0	-91.8	11.0
2025-01-18 13:53:32.285758	352.6	25.0	-91.7	13.9
2025-01-18 13:53:33.450385	352.2	25.0	-92.1	6.0
2025-01-18 13:53:34.617780	351.9	25.0	-92.5	13.5
2025-01-18 13:53:35.780759	351.6	25.0	-92.5	15.4
2025-01-18 13:53:36.955729	351.2	25.0	-92.7	7.1
2025-01-18 13:53:38.121244	350.9	25.0	-92.3	9.1
2025-01-18 13:53:39.291723	350.6	25.0	-92.7	16.8
2025-01-18 13:53:40.446791	350.2	25.0	-92.2	11.1
2025-01-18 13:53:41.606875	349.9	25.0	-92.4	12.1
2025-01-18 13:53:42.772667	349.6	25.0	-92.4	16.5
2025-01-18 13:53:43.936993	349.2	25.0	-92.6	13.6
2025-01-18 13:53:45.104370	348.9	25.0	-92.1	11.3
2025-01-18 13:53:46.271887	348.6	25.0	-92.3	13.2
2025-01-18 13:53:47.442500	348.2	25.0	-92.1	12.2
2025-01-18 13:53:48.612709	347.9	25.0	-92.7	14.8
2025-01-18 13:53:49.785808	347.6	25.0	-92.3	9.6
2025-01-18 13:53:50.942160	347.2	24.9	-92.0	11.2
2025-01-18 13:53:52.103239	346.9	24.9	-92.3	6.9
2025-01-18 13:53:53.266175	346.6	24.9	-92.3	12.7
2025-01-18 13:53:54.435942	346.2	24.9	-92.4	10.7
2025-01-18 13:53:55.594745	345.9	24.9	-92.4	14.6
2025-01-18 13:53:56.769312	345.6	24.9	-92.4	13.7
2025-01-18 13:53:57.937245	345.2	24.9	-92.2	14.8
2025-01-18 13:53:59.095970	344.9	24.8	-92.1	14.8
2025-01-18 13:54:00.253402	344.6	24.8	-92.3	15.8
2025-01-18 13:54:01.410545	344.3	24.8	-92.2	12.7
2025-01-18 13:54:02.575676	343.9	24.8	-92.2	11.1
2025-01-18 13:54:03.741934	343.6	24.8	-91.8	11.7
2025-01-18 13:54:04.906161	343.3	24.7	-92.2	11.5
2025-01-18 13:54:06.071750	342.9	24.7	-92.5	10.3
2025-01-18 13:54:07.239260	342.6	24.7	-92.4	15.0
2025-01-18 13:54:08.401663	342.3	24.7	-92.3	9.1
2025-01-18 13:54:09.565209	342.0	24.6	-92.3	5.7
2025-01-18 13:54:10.733523	341.6	24.6	-91.7	7.7
2025-01-18 13:54:11.892962	341.3	24.6	-92.2	5.9
2025-01-18 13:54:13.061158	341.0	24.6	-92.1	6.2
2025-01-18 13:54:14.218116	340.7	24.5	-92.6	9.6
2025-01-18 13:54:15.381040	340.3	24.5	-92.9	8.3
2025-01-18 13:54:16.546038	340.0	24.5	-92.6	7.9
2025-01-18 13:54:17.710845	339.7	24.4	-92.2	11.6
2025-01-18 13:54:18.870041	339.4	24.4	-92.7	13.5
2025-01-18 13:54:20.037821	339.1	24.4	-92.2	7.7
2025-01-18 13:54:21.197292	338.7	24.3	-92.4	9.0
2025-01-18 13:54:22.358799	338.4	24.3	-92.4	16.0
2025-01-18 13:54:23.524354	338.1	24.3	-92.5	8.5
2025-01-18 13:54:24.684625	337.8	24.2	-92.3	12.0
2025-01-18 13:54:25.853018	337.5	24.2	-92.9	13.3
2025-01-18 13:54:27.010671	337.1	24.1	-92.3	6.7
2025-01-18 13:54:28.176815	336.8	24.1	-92.4	11.7
2025-01-18 13:54:29.341019	336.5	24.1	-92.3	10.6
2025-01-18 13:54:30.504888	336.2	24.0	-92.3	7.0
2025-01-18 13:54:31.660839	335.9	24.0	-92.7	10.1
2025-01-18 13:54:32.822519	335.6	23.9	-92.5	9.0
2025-01-18 13:54:33.983027	335.3	23.9	-92.3	5.3
2025-01-18 13:54:35.147526	335.0	23.8	-92.0	10.2
2025-01-18 13:54:36.309793	334.6	23.8	-92.4	10.2
2025-01-18 13:54:37.471770	334.3	23.7	-92.2	6.1
2025-01-18 13:54:38.633779	334.0	23.7	-92.4	10.4
2025-01-18 13:54:39.794787	333.7	23.6	-92.3	9.7
2025-01-18 13:54:40.962805	333.4	23.6	-92.6	5.4
2025-01-18 13:54:42.122213	333.1	23.5	-92.6	8.9
2025-01-18 13:54:43.302541	332.8	23.5	-91.8	12.5
2025-01-18 13:54:44.468021	332.5	23.4	-91.1	5.3
2025-01-18 13:54:45.629744	332.2	23.4	-92.0	11.4
2025-01-18 13:54:46.799287	331.9	23.3	-92.7	14.0
2025-01-18 13:54:47.958647	331.6	23.3	-92.6	8.7
2025-01-18 13:54:49.126383	331.3	23.2	-92.0	11.3
2025-01-18 13:54:50.293701	331.0	23.1	-92.4	12.2
2025-01-18 13:54:51.450339	330.7	23.1	-92.3	6.3
2025-01-18 13:54:52.609081	330.4	23.0	-92.3	8.3
2025-01-18 13:54:53.774588	330.1	23.0	-92.2	9.3
2025-01-18 13:54:54.931290	329.8	22.9	-92.4	4.4
2025-01-18 13:54:56.090732	329.5	22.9	-92.5	6.8
2025-01-18 13:54:57.244680	329.3	22.8	-92.4	11.6
2025-01-18 13:54:58.405798	329.0	22.7	-91.5	7.9
2025-01-18 13:54:59.565801	328.7	22.7	-92.6	7.0
2025-01-18 13:55:00.708607	328.4	22.6	-92.5	12.0
2025-01-18 13:55:01.851404	328.1	22.6	-92.2	12.3
2025-01-18 13:55:03.015162	327.8	22.5	-92.3	8.5
2025-01-18 13:55:04.175725	327.5	22.4	-92.0	9.6
2025-01-18 13:55:05.343289	327.3	22.4	-92.5	7.4
2025-01-18 13:55:06.507870	327.0	22.3	-92.2	4.8
2025-01-18 13:55:07.676019	326.7	22.2	-92.4	5.4
2025-01-18 13:55:08.838872	326.4	22.2	-92.4	11.4
2025-01-18 13:55:10.001880	326.1	22.1	-92.6	7.5
2025-01-18 13:55:11.166355	325.9	22.0	-92.4	10.4
2025-01-18 13:55:12.323110	325.6	22.0	-92.4	13.2
2025-01-18 13:55:13.486987	325.3	21.9	-92.5	10.1
2025-01-18 13:55:14.651210	325.0	21.8	-92.1	12.4
2025-01-18 13:55:15.814366	324.8	21.7	-92.3	11.2
2025-01-18 13:55:16.978229	324.5	21.7	-92.6	8.2
2025-01-18 13:55:18.137879	324.2	21.6	-92.5	8.8
2025-01-18 13:55:19.303197	324.0	21.5	-92.6	10.5
2025-01-18 13:55:20.465035	323.7	21.5	-92.3	10.3
2025-01-18 13:55:21.619060	323.4	21.4	-92.5	6.9
2025-01-18 13:55:22.788282	323.2	21.3	-92.1	11.1
2025-01-18 13:55:23.956516	322.9	21.2	-92.6	9.8
2025-01-18 13:55:25.121500	322.6	21.2	-92.1	8.6
2025-01-18 13:55:26.288784	322.4	21.1	-92.0	9.8
2025-01-18 13:55:27.448868	322.1	21.0	-92.4	6.6
2025-01-18 13:55:28.616943	321.9	20.9	-92.6	7.2
2025-01-18 13:55:29.780705	321.6	20.9	-92.8	7.0
2025-01-18 13:55:30.948545	321.4	20.8	-92.6	5.1
2025-01-18 13:55:32.114312	321.1	20.7	-92.6	4.5
2025-01-18 13:55:33.267475	320.8	20.6	-92.3	9.3
2025-01-18 13:55:34.433091	320.6	20.6	-92.3	6.9
2025-01-18 13:55:35.597367	320.3	20.5	-92.8	9.6
2025-01-18 13:55:36.759009	320.1	20.4	-92.5	7.3
2025-01-18 13:55:37.923435	319.8	20.3	-92.2	3.3
2025-01-18 13:55:39.090077	319.6	20.3	-92.6	2.9
2025-01-18 13:55:40.242339	319.4	20.2	-92.1	2.8
2025-01-18 13:55:41.401628	319.1	20.1	-92.5	4.0
2025-01-18 13:55:42.561668	318.9	20.0	-92.4	3.5
2025-01-18 13:55:43.724766	318.6	19.9	-92.6	7.3
2025-01-18 13:55:44.884651	318.4	19.9	-92.9	6.1
2025-01-18 13:55:46.052098	318.1	19.8	-92.3	4.5
2025-01-18 13:55:47.218639	317.9	19.7	-92.5	2.5
2025-01-18 13:55:48.381328	317.7	19.6	-92.3	3.9
2025-01-18 13:55:49.549679	317.4	19.5	-92.0	3.6
2025-01-18 13:55:50.708835	317.2	19.5	-92.6	6.4
2025-01-18 13:55:51.871804	317.0	19.4	-92.8	5.7
2025-01-18 13:55:53.031837	316.7	19.3	-92.4	4.7
2025-01-18 13:55:54.194906	316.5	19.2	-92.7	5.3
2025-01-18 13:55:55.355868	316.3	19.1	-92.3	1.6
2025-01-18 13:55:56.520263	316.0	19.0	-92.5	3.5
2025-01-18 13:55:57.688978	315.8	19.0	-92.4	3.9
2025-01-18 13:55:58.849112	315.6	18.9	-92.4	3.7
2025-01-18 13:56:00.014041	315.4	18.8	-92.1	5.4
2025-01-18 13:56:01.174825	315.1	18.7	-92.7	4.8
2025-01-18 13:56:02.339182	314.9	18.6	-92.6	6.5
2025-01-18 13:56:03.492053	314.7	18.6	-92.2	4.1
2025-01-18 13:56:04.658551	314.5	18.5	-92.4	7.4
2025-01-18 13:56:05.816142	314.3	18.4	-92.4	6.5
2025-01-18 13:56:06.979801	314.1	18.3	-92.6	2.2
2025-01-18 13:56:08.142565	313.8	18.2	-92.6	6.2
2025-01-18 13:56:09.307251	313.6	18.1	-92.1	4.1
2025-01-18 13:56:10.467690	313.4	18.0	-92.5	4.9
2025-01-18 13:56:11.620324	313.2	18.0	-92.9	6.1
2025-01-18 13:56:12.784407	313.0	17.9	-92.3	5.4
2025-01-18 13:56:13.943416	312.8	17.8	-92.4	4.2
2025-01-18 13:56:15.107178	312.6	17.7	-92.4	5.5
2025-01-18 13:56:16.279228	312.4	17.6	-92.1	7.8
2025-01-18 13:56:17.441331	312.2	17.5	-92.4	4.8
2025-01-18 13:56:18.605652	311.9	17.5	-92.6	6.6
2025-01-18 13:56:19.775960	311.7	17.4	-92.3	8.3
2025-01-18 13:56:20.945255	311.5	17.3	-92.3	4.3
2025-01-18 13:56:22.103958	311.3	17.2	-92.4	6.5
2025-01-18 13:56:23.260708	311.1	17.1	-91.9	6.4
2025-01-18 13:56:24.423776	310.9	17.0	-92.3	6.0
2025-01-18 13:56:25.584294	310.7	16.9	-92.9	7.0
2025-01-18 13:56:26.745400	310.5	16.9	-92.6	6.4
2025-01-18 13:56:27.908428	310.3	16.8	-92.7	9.2
2025-01-18 13:56:29.070891	310.2	16.7	-92.1	5.3
2025-01-18 13:56:30.238247	310.0	16.6	-92.6	6.9
2025-01-18 13:56:31.401721	309.8	16.5	-92.8	8.0
2025-01-18 13:56:32.560911	309.6	16.4	-92.7	12.1
2025-01-18 13:56:33.729602	309.4	16.3	-92.6	8.7
2025-01-18 13:56:34.890468	309.2	16.3	-92.4	8.7
2025-01-18 13:56:36.057935	309.0	16.2	-92.0	7.5
2025-01-18 13:56:37.219566	308.8	16.1	-91.7	11.5
2025-01-18 13:56:38.386042	308.6	16.0	-92.0	4.6
2025-01-18 13:56:39.549414	308.4	15.9	-92.4	7.1
2025-01-18 13:56:40.714097	308.3	15.8	-91.8	6.8
2025-01-18 13:56:41.873898	308.1	15.7	-92.6	6.1
2025-01-18 13:56:43.035517	307.9	15.7	-92.5	7.1
2025-01-18 13:56:44.202596	307.7	15.6	-92.3	8.0
2025-01-18 13:56:45.364494	307.5	15.5	-92.3	8.8
2025-01-18 13:56:46.529315	307.4	15.4	-92.3	7.3
2025-01-18 13:56:47.691882	307.2	15.3	-92.1	6.3
2025-01-18 13:56:48.859083	307.0	15.2	-92.1	8.5
2025-01-18 13:56:50.023792	306.8	15.1	-92.6	8.4
2025-01-18 13:56:51.186019	306.6	15.1	-92.3	6.8
2025-01-18 13:56:52.349172	306.5	15.0	-92.7	9.6
2025-01-18 13:56:53.505087	306.3	14.9	-92.8	10.0
2025-01-18 13:56:54.672509	306.1	14.8	-92.7	8.0
2025-01-18 13:56:55.837186	306.0	14.7	-92.8	9.5
2025-01-18 13:56:57.003763	305.8	14.6	-92.6	6.4
#Closed at: 2025-01-18 13:50:31.609800