passes_logs/2025/01/18/LEX_Murmansk/LEX_Murmansk__20250118_150431_NOAA_19_rec.log

#Pass ID: 20250118_150431_NOAA 19
#Satellite: NOAA 19
#Configuration: NOAA 19
#Start time: 2025-01-18 15:04:26.506087

#LorettStation: 1.0.0 05.05.2024
#Station: LEX_Murmansk
#Location: 33.156738 lon 68.926811 lat
#TLE: 1 33591U 09005A   25018.04840605  .00000325  00000+0  19728-3 0  9997
#TLE: 2 33591  99.0190  81.8343 0014373  49.4310 310.8111 14.13261983821977

#Time	Az	El	Level	SNR
2025-01-18 15:04:38.649780	76.5	16.0	-91.8	11.2
2025-01-18 15:04:39.815506	76.3	16.1	-91.5	7.0
2025-01-18 15:04:40.973111	76.2	16.2	-91.6	4.7
2025-01-18 15:04:42.133718	76.0	16.3	-91.6	5.3
2025-01-18 15:04:43.296435	75.9	16.4	-91.4	2.0
2025-01-18 15:04:44.470616	75.7	16.6	-91.6	3.0
2025-01-18 15:04:45.630805	75.5	16.7	-91.8	6.9
2025-01-18 15:04:46.795114	75.4	16.8	-91.8	8.2
2025-01-18 15:04:47.952728	75.2	16.9	-91.6	8.8
2025-01-18 15:04:49.116118	75.0	17.0	-92.1	13.0
2025-01-18 15:04:50.283850	74.9	17.1	-91.7	8.3
2025-01-18 15:04:51.441418	74.7	17.2	-91.9	6.4
2025-01-18 15:04:52.602935	74.5	17.3	-91.6	8.2
2025-01-18 15:04:53.763587	74.4	17.4	-91.4	7.4
2025-01-18 15:04:54.927014	74.2	17.5	-91.5	11.2
2025-01-18 15:04:56.092865	74.0	17.6	-91.4	11.9
2025-01-18 15:04:57.253206	73.8	17.7	-90.9	12.0
2025-01-18 15:04:58.412355	73.7	17.8	-91.3	7.8
2025-01-18 15:04:59.574500	73.5	17.9	-91.6	5.5
2025-01-18 15:05:00.730018	73.3	18.0	-91.8	1.9
2025-01-18 15:05:01.860952	73.1	18.1	-91.6	3.7
2025-01-18 15:05:02.981929	73.0	18.2	-92.4	3.6
2025-01-18 15:05:04.103072	72.8	18.3	-91.6	6.3
2025-01-18 15:05:05.223978	72.6	18.4	-91.4	4.5
2025-01-18 15:05:06.344647	72.4	18.5	-92.0	11.3
2025-01-18 15:05:07.465703	72.3	18.6	-91.4	9.5
2025-01-18 15:05:08.586150	72.1	18.7	-92.2	11.3
2025-01-18 15:05:09.712568	71.9	18.8	-91.6	8.1
2025-01-18 15:05:10.832776	71.7	18.9	-92.0	6.5
2025-01-18 15:05:11.998918	71.5	19.0	-91.9	7.9
2025-01-18 15:05:13.155563	71.3	19.1	-91.0	5.0
2025-01-18 15:05:14.314316	71.1	19.2	-91.4	8.7
2025-01-18 15:05:15.466802	70.9	19.3	-91.0	9.0
2025-01-18 15:05:16.634646	70.8	19.4	-91.5	11.0
2025-01-18 15:05:17.790501	70.6	19.5	-91.1	7.7
2025-01-18 15:05:18.956584	70.4	19.6	-91.0	5.3
2025-01-18 15:05:20.117184	70.2	19.7	-91.3	5.5
2025-01-18 15:05:21.279829	70.0	19.8	-91.2	2.9
2025-01-18 15:05:22.440941	69.8	20.0	-91.5	3.3
2025-01-18 15:05:23.612684	69.5	20.1	-91.2	3.9
2025-01-18 15:05:24.783042	69.3	20.2	-91.8	7.4
2025-01-18 15:05:25.944119	69.1	20.3	-92.2	9.0
2025-01-18 15:05:27.110068	68.9	20.4	-92.3	13.6
2025-01-18 15:05:28.269852	68.7	20.5	-91.8	14.4
2025-01-18 15:05:29.430672	68.5	20.6	-91.7	11.6
2025-01-18 15:05:30.593058	68.3	20.7	-91.9	8.9
2025-01-18 15:05:31.762695	68.1	20.8	-91.8	5.7
2025-01-18 15:05:32.927162	67.9	20.9	-91.9	6.8
2025-01-18 15:05:34.091014	67.6	21.0	-91.4	9.4
2025-01-18 15:05:35.256046	67.4	21.1	-91.1	10.0
2025-01-18 15:05:36.414401	67.2	21.2	-92.1	13.1
2025-01-18 15:05:37.579206	67.0	21.3	-91.9	12.1
2025-01-18 15:05:38.737138	66.8	21.4	-92.1	11.7
2025-01-18 15:05:39.901718	66.5	21.6	-91.6	7.3
2025-01-18 15:05:41.066311	66.3	21.7	-91.8	6.0
2025-01-18 15:05:42.225932	66.1	21.8	-91.9	3.0
2025-01-18 15:05:43.364981	65.9	21.9	-91.6	2.0
2025-01-18 15:05:44.492598	65.6	22.0	-92.3	4.1
2025-01-18 15:05:45.654048	65.4	22.1	-92.3	8.2
2025-01-18 15:05:46.801236	65.2	22.2	-91.6	7.3
2025-01-18 15:05:47.947966	64.9	22.3	-92.0	12.3
2025-01-18 15:05:49.105955	64.7	22.4	-91.8	13.4
2025-01-18 15:05:50.273123	64.5	22.5	-91.7	13.4
2025-01-18 15:05:51.433406	64.2	22.6	-92.1	11.6
2025-01-18 15:05:52.594499	64.0	22.7	-92.0	9.8
2025-01-18 15:05:53.757174	63.7	22.8	-92.1	6.1
2025-01-18 15:05:54.921127	63.5	22.9	-92.5	8.9
2025-01-18 15:05:56.081945	63.2	23.0	-92.3	9.1
2025-01-18 15:05:57.257820	63.0	23.1	-92.2	9.4
2025-01-18 15:05:58.419914	62.7	23.2	-92.1	11.9
2025-01-18 15:05:59.575884	62.5	23.3	-91.9	13.8
2025-01-18 15:06:00.738351	62.2	23.4	-92.0	12.0
2025-01-18 15:06:01.891724	62.0	23.5	-92.2	8.2
2025-01-18 15:06:03.048046	61.7	23.6	-92.1	5.8
2025-01-18 15:06:04.209986	61.5	23.8	-91.9	3.1
2025-01-18 15:06:05.359365	61.2	23.9	-91.9	4.9
2025-01-18 15:06:06.516429	60.9	24.0	-92.0	2.3
2025-01-18 15:06:07.676742	60.7	24.1	-92.6	4.8
2025-01-18 15:06:08.830876	60.4	24.2	-92.4	3.6
2025-01-18 15:06:09.971565	60.2	24.3	-92.0	6.3
2025-01-18 15:06:11.116539	59.9	24.4	-92.2	9.8
2025-01-18 15:06:12.258728	59.6	24.5	-91.1	11.4
2025-01-18 15:06:13.408105	59.3	24.6	-91.0	11.8
2025-01-18 15:06:14.555414	59.1	24.7	-91.1	10.2
2025-01-18 15:06:15.709516	58.8	24.8	-91.4	8.0
2025-01-18 15:06:16.870971	58.5	24.9	-91.3	6.1
2025-01-18 15:06:18.037574	58.2	25.0	-91.7	7.2
2025-01-18 15:06:19.190901	58.0	25.1	-91.2	4.6
2025-01-18 15:06:20.352627	57.7	25.2	-91.2	5.8
2025-01-18 15:06:21.518734	57.4	25.3	-91.2	9.6
2025-01-18 15:06:22.675989	57.1	25.4	-91.0	10.4
2025-01-18 15:06:23.840574	56.8	25.5	-91.0	9.7
2025-01-18 15:06:25.009229	56.5	25.6	-91.4	9.5
2025-01-18 15:06:26.174161	56.2	25.7	-91.4	8.6
2025-01-18 15:06:27.339650	55.9	25.8	-91.1	4.9
2025-01-18 15:06:28.497679	55.6	25.8	-91.7	3.3
2025-01-18 15:06:29.665465	55.3	25.9	-91.3	3.5
2025-01-18 15:06:30.829373	55.0	26.0	-92.1	3.4
2025-01-18 15:06:31.986641	54.7	26.1	-92.4	2.9
2025-01-18 15:06:33.151088	54.4	26.2	-92.1	2.5
2025-01-18 15:06:34.314469	54.1	26.3	-91.7	2.2
2025-01-18 15:06:35.483397	53.8	26.4	-91.6	5.0
2025-01-18 15:06:36.643666	53.5	26.5	-91.6	6.9
2025-01-18 15:06:37.804425	53.2	26.6	-91.3	5.0
2025-01-18 15:06:38.966729	52.9	26.7	-91.6	4.3
2025-01-18 15:06:40.128832	52.6	26.8	-91.4	3.3
2025-01-18 15:06:41.291215	52.3	26.9	-91.8	4.8
2025-01-18 15:06:42.456012	51.9	27.0	-91.5	4.1
2025-01-18 15:06:43.622412	51.6	27.0	-91.9	4.8
2025-01-18 15:06:44.786942	51.3	27.1	-91.8	3.5
2025-01-18 15:06:45.950393	51.0	27.2	-91.9	3.3
2025-01-18 15:06:47.110989	50.7	27.3	-91.7	5.8
2025-01-18 15:06:48.270383	50.3	27.4	-91.6	3.2
2025-01-18 15:06:49.435391	50.0	27.5	-91.5	3.3
2025-01-18 15:06:50.600444	49.7	27.6	-91.8	4.3
2025-01-18 15:06:51.761657	49.3	27.6	-91.6	4.1
2025-01-18 15:06:52.922136	49.0	27.7	-92.1	3.9
2025-01-18 15:06:54.086723	48.7	27.8	-91.8	3.6
2025-01-18 15:06:55.253629	48.3	27.9	-91.7	4.1
2025-01-18 15:06:56.417065	48.0	28.0	-91.6	3.9
2025-01-18 15:06:57.582793	47.7	28.0	-92.0	4.4
2025-01-18 15:06:58.746975	47.3	28.1	-91.8	2.8
2025-01-18 15:06:59.911052	47.0	28.2	-91.4	3.8
2025-01-18 15:07:01.070357	46.6	28.3	-91.6	2.6
2025-01-18 15:07:02.238266	46.3	28.4	-92.0	2.3
2025-01-18 15:07:03.402499	45.9	28.4	-92.0	3.8
2025-01-18 15:07:04.569110	45.6	28.5	-91.9	3.3
2025-01-18 15:07:05.733415	45.2	28.6	-91.9	5.2
2025-01-18 15:07:06.901387	44.9	28.6	-91.8	5.6
2025-01-18 15:07:08.063173	44.5	28.7	-91.4	6.4
2025-01-18 15:07:09.223460	44.2	28.8	-91.3	8.2
2025-01-18 15:07:10.392178	43.8	28.8	-91.6	11.1
2025-01-18 15:07:11.557976	43.4	28.9	-92.2	10.8
2025-01-18 15:07:12.725655	43.1	29.0	-91.7	9.6
2025-01-18 15:07:13.881952	42.7	29.0	-91.8	8.1
2025-01-18 15:07:15.045283	42.3	29.1	-91.9	4.5
2025-01-18 15:07:16.212181	42.0	29.2	-91.8	3.3
2025-01-18 15:07:17.371146	41.6	29.2	-91.8	3.1
2025-01-18 15:07:18.532521	41.2	29.3	-91.7	3.5
2025-01-18 15:07:19.698417	40.9	29.3	-92.2	3.7
2025-01-18 15:07:20.862639	40.5	29.4	-92.1	1.6
2025-01-18 15:07:22.025720	40.1	29.5	-92.1	6.5
2025-01-18 15:07:23.185169	39.8	29.5	-92.0	7.3
2025-01-18 15:07:24.349089	39.4	29.6	-92.0	10.8
2025-01-18 15:07:25.513656	39.0	29.6	-92.0	10.7
2025-01-18 15:07:26.676608	38.6	29.7	-92.2	11.0
2025-01-18 15:07:27.840860	38.3	29.7	-92.1	7.7
2025-01-18 15:07:29.001984	37.9	29.8	-91.4	8.4
2025-01-18 15:07:30.166808	37.5	29.8	-92.1	8.6
2025-01-18 15:07:31.326920	37.1	29.9	-92.0	9.4
2025-01-18 15:07:32.487136	36.7	29.9	-92.4	10.0
2025-01-18 15:07:33.651659	36.3	29.9	-92.2	8.1
2025-01-18 15:07:34.816615	36.0	30.0	-92.4	6.8
2025-01-18 15:07:35.984741	35.6	30.0	-92.1	5.5
2025-01-18 15:07:37.148691	35.2	30.1	-92.2	7.6
2025-01-18 15:07:38.311247	34.8	30.1	-92.2	1.9
2025-01-18 15:07:39.466672	34.4	30.1	-92.0	6.2
2025-01-18 15:07:40.622896	34.0	30.2	-92.3	7.2
2025-01-18 15:07:41.784754	33.6	30.2	-92.2	1.5
2025-01-18 15:07:42.948790	33.2	30.2	-92.2	3.9
2025-01-18 15:07:44.115710	32.9	30.3	-92.1	4.6
2025-01-18 15:07:45.278163	32.5	30.3	-92.1	1.5
2025-01-18 15:07:46.443293	32.1	30.3	-91.9	5.3
2025-01-18 15:07:47.605798	31.7	30.3	-92.1	5.4
2025-01-18 15:07:48.769458	31.3	30.4	-92.4	7.1
2025-01-18 15:07:49.933217	30.9	30.4	-92.4	9.0
2025-01-18 15:07:51.100984	30.5	30.4	-92.0	8.6
2025-01-18 15:07:52.266197	30.1	30.4	-91.8	7.7
2025-01-18 15:07:53.431210	29.7	30.4	-92.5	8.6
2025-01-18 15:07:54.592839	29.3	30.5	-92.0	11.1
2025-01-18 15:07:55.744499	28.9	30.5	-91.9	14.0
2025-01-18 15:07:56.909491	28.5	30.5	-92.1	9.1
2025-01-18 15:07:58.072980	28.1	30.5	-92.1	4.1
2025-01-18 15:07:59.229802	27.7	30.5	-92.2	6.4
2025-01-18 15:08:00.393278	27.3	30.5	-92.3	7.8
2025-01-18 15:08:01.568798	26.9	30.5	-92.2	8.5
2025-01-18 15:08:02.732224	26.5	30.5	-92.2	6.1
2025-01-18 15:08:03.901583	26.1	30.5	-92.1	4.0
2025-01-18 15:08:05.069162	25.7	30.5	-92.3	6.5
2025-01-18 15:08:06.232468	25.3	30.5	-92.3	4.9
2025-01-18 15:08:07.399254	24.9	30.5	-92.2	3.6
2025-01-18 15:08:08.558712	24.5	30.5	-92.3	2.1
2025-01-18 15:08:09.727440	24.1	30.5	-91.8	2.6
2025-01-18 15:08:10.893247	23.7	30.5	-92.0	2.0
2025-01-18 15:08:12.060449	23.3	30.5	-92.2	5.7
2025-01-18 15:08:13.224773	22.9	30.5	-91.8	2.6
2025-01-18 15:08:14.398273	22.5	30.5	-91.8	5.1
2025-01-18 15:08:15.563310	22.1	30.5	-92.1	5.2
2025-01-18 15:08:16.728099	21.7	30.5	-91.9	4.1
2025-01-18 15:08:17.897172	21.3	30.5	-91.6	4.2
2025-01-18 15:08:19.062968	20.9	30.4	-91.4	4.5
2025-01-18 15:08:20.230538	20.5	30.4	-91.5	3.9
2025-01-18 15:08:21.395208	20.1	30.4	-91.6	6.0
2025-01-18 15:08:22.553854	19.8	30.4	-91.7	5.6
2025-01-18 15:08:23.723108	19.4	30.4	-91.6	4.8
2025-01-18 15:08:24.897723	19.0	30.3	-91.6	7.3
2025-01-18 15:08:26.055686	18.6	30.3	-92.3	7.9
2025-01-18 15:08:27.217418	18.2	30.3	-91.6	7.5
2025-01-18 15:08:28.384326	17.8	30.3	-91.2	7.6
2025-01-18 15:08:29.552454	17.4	30.2	-91.5	5.1
2025-01-18 15:08:30.719776	17.0	30.2	-92.3	8.3
2025-01-18 15:08:31.884910	16.6	30.2	-92.3	9.5
2025-01-18 15:08:33.055598	16.2	30.1	-91.9	10.0
2025-01-18 15:08:34.215949	15.8	30.1	-92.3	11.7
2025-01-18 15:08:35.369072	15.4	30.1	-92.3	11.9
2025-01-18 15:08:36.547611	15.1	30.0	-92.5	13.2
2025-01-18 15:08:37.710576	14.7	30.0	-91.8	9.1
2025-01-18 15:08:38.869566	14.3	29.9	-92.1	9.3
2025-01-18 15:08:40.033784	13.9	29.9	-90.9	10.1
2025-01-18 15:08:41.193760	13.5	29.8	-91.3	9.3
2025-01-18 15:08:42.365339	13.1	29.8	-92.0	8.0
2025-01-18 15:08:43.531236	12.8	29.8	-92.0	10.9
2025-01-18 15:08:44.704072	12.4	29.7	-91.9	8.0
2025-01-18 15:08:45.869186	12.0	29.7	-92.0	10.8
2025-01-18 15:08:47.036062	11.6	29.6	-92.4	10.9
2025-01-18 15:08:48.200486	11.3	29.5	-92.3	8.9
2025-01-18 15:08:49.357448	10.9	29.5	-92.5	10.0
2025-01-18 15:08:50.534014	10.5	29.4	-90.9	5.6
2025-01-18 15:08:51.698769	10.1	29.4	-92.1	6.5
2025-01-18 15:08:52.860271	9.8	29.3	-92.1	8.1
2025-01-18 15:08:54.017230	9.4	29.3	-92.3	5.7
2025-01-18 15:08:55.179035	9.0	29.2	-92.3	4.6
2025-01-18 15:08:56.343089	8.7	29.1	-92.3	3.5
2025-01-18 15:08:57.505003	8.3	29.1	-92.3	5.2
2025-01-18 15:08:58.669945	7.9	29.0	-91.9	1.2
2025-01-18 15:08:59.833753	7.6	29.0	-92.2	3.1
2025-01-18 15:09:00.995156	7.2	28.9	-92.1	5.4
2025-01-18 15:09:02.162953	6.9	28.8	-92.1	8.7
2025-01-18 15:09:03.324852	6.5	28.8	-91.7	7.7
2025-01-18 15:09:04.489794	6.1	28.7	-92.0	9.1
2025-01-18 15:09:05.654262	5.8	28.6	-92.1	4.8
2025-01-18 15:09:06.817328	5.4	28.5	-92.4	8.1
2025-01-18 15:09:07.988778	5.1	28.5	-92.3	9.0
2025-01-18 15:09:09.143788	4.7	28.4	-92.0	9.2
2025-01-18 15:09:10.308520	4.4	28.3	-92.0	6.8
2025-01-18 15:09:11.465954	4.0	28.3	-91.8	8.5
2025-01-18 15:09:12.631957	3.7	28.2	-92.2	9.5
2025-01-18 15:09:13.795829	3.4	28.1	-92.1	10.1
2025-01-18 15:09:14.974116	3.0	28.0	-92.3	7.7
2025-01-18 15:09:16.133833	2.7	27.9	-92.0	7.4
2025-01-18 15:09:17.297628	2.3	27.9	-92.1	5.9
2025-01-18 15:09:18.467780	2.0	27.8	-92.0	6.6
2025-01-18 15:09:19.630768	1.7	27.7	-91.7	9.6
2025-01-18 15:09:20.790423	1.3	27.6	-91.5	7.0
2025-01-18 15:09:21.952295	1.0	27.5	-91.9	8.9
2025-01-18 15:09:23.120514	0.7	27.5	-91.1	7.4
2025-01-18 15:09:24.285212	0.4	27.4	-91.5	5.4
2025-01-18 15:09:25.447671	0.0	27.3	-91.4	1.1
2025-01-18 15:09:26.614067	359.7	27.2	-91.6	4.4
2025-01-18 15:09:27.782945	359.4	27.1	-91.0	4.2
2025-01-18 15:09:28.943503	359.1	27.0	-91.6	6.4
2025-01-18 15:09:30.104745	358.7	26.9	-91.6	7.1
2025-01-18 15:09:31.272812	358.4	26.8	-91.5	5.5
2025-01-18 15:09:32.435824	358.1	26.8	-91.3	4.6
2025-01-18 15:09:33.600251	357.8	26.7	-91.5	4.0
2025-01-18 15:09:34.764383	357.5	26.6	-91.5	4.9
2025-01-18 15:09:35.929317	357.2	26.5	-91.7	3.3
2025-01-18 15:09:37.093497	356.9	26.4	-91.4	5.1
2025-01-18 15:09:38.245542	356.6	26.3	-90.8	3.8
2025-01-18 15:09:39.382109	356.3	26.2	-91.2	5.0
2025-01-18 15:09:40.544810	356.0	26.1	-92.7	7.4
2025-01-18 15:09:41.708256	355.7	26.0	-92.2	5.0
2025-01-18 15:09:42.874667	355.4	25.9	-92.5	6.7
2025-01-18 15:09:44.034428	355.1	25.8	-92.5	6.7
2025-01-18 15:09:45.196157	354.8	25.7	-92.3	4.9
2025-01-18 15:09:46.361423	354.5	25.6	-92.1	5.4
2025-01-18 15:09:47.526970	354.2	25.5	-92.1	6.9
2025-01-18 15:09:48.689142	353.9	25.4	-92.1	6.6
2025-01-18 15:09:49.860548	353.6	25.3	-92.1	8.2
2025-01-18 15:09:51.025732	353.3	25.2	-92.1	10.7
2025-01-18 15:09:52.177902	353.0	25.1	-92.3	7.4
2025-01-18 15:09:53.354483	352.8	25.0	-92.2	10.8
2025-01-18 15:09:54.519997	352.5	24.9	-91.9	10.3
2025-01-18 15:09:55.684478	352.2	24.8	-91.7	12.4
2025-01-18 15:09:56.851468	351.9	24.7	-92.1	11.2
2025-01-18 15:09:58.016553	351.6	24.6	-92.0	13.4
2025-01-18 15:09:59.187058	351.4	24.5	-91.8	13.6
2025-01-18 15:10:00.347699	351.1	24.4	-91.8	11.4
2025-01-18 15:10:01.513810	350.8	24.3	-92.2	13.5
2025-01-18 15:10:02.681320	350.6	24.2	-92.0	11.6
2025-01-18 15:10:03.845997	350.3	24.1	-92.1	11.7
2025-01-18 15:10:05.011521	350.0	24.0	-91.6	11.9
2025-01-18 15:10:06.178930	349.8	23.9	-92.1	11.0
2025-01-18 15:10:07.334483	349.5	23.8	-91.8	6.6
2025-01-18 15:10:08.498041	349.2	23.7	-92.2	9.8
2025-01-18 15:10:09.649838	349.0	23.6	-91.6	7.2
2025-01-18 15:10:10.806803	348.7	23.5	-91.8	4.6
2025-01-18 15:10:11.973812	348.5	23.4	-92.2	6.0
2025-01-18 15:10:13.136552	348.2	23.3	-92.6	5.0
2025-01-18 15:10:14.299323	348.0	23.2	-92.5	4.0
2025-01-18 15:10:15.466296	347.7	23.1	-92.2	5.2
2025-01-18 15:10:16.631204	347.5	23.0	-92.5	6.8
2025-01-18 15:10:17.798842	347.2	22.9	-92.1	2.1
2025-01-18 15:10:18.962338	347.0	22.8	-92.0	4.8
2025-01-18 15:10:20.117869	346.8	22.7	-92.2	5.2
2025-01-18 15:10:21.284977	346.5	22.6	-91.9	5.0
2025-01-18 15:10:22.445330	346.3	22.5	-91.6	10.0
2025-01-18 15:10:23.607779	346.0	22.4	-91.4	7.9
2025-01-18 15:10:24.774401	345.8	22.3	-92.5	8.9
2025-01-18 15:10:25.938722	345.6	22.2	-92.5	12.7
2025-01-18 15:10:27.103530	345.3	22.0	-92.3	10.6
2025-01-18 15:10:28.271704	345.1	21.9	-91.9	10.4
2025-01-18 15:10:29.429210	344.9	21.8	-92.1	9.5
2025-01-18 15:10:30.593754	344.6	21.7	-92.3	12.7
2025-01-18 15:10:31.752140	344.4	21.6	-92.2	10.2
2025-01-18 15:10:32.920430	344.2	21.5	-92.1	11.8
2025-01-18 15:10:34.086890	344.0	21.4	-91.9	10.5
2025-01-18 15:10:35.251656	343.7	21.3	-92.3	2.1
2025-01-18 15:10:36.412858	343.5	21.2	-92.2	5.2
2025-01-18 15:10:37.574609	343.3	21.1	-92.3	6.8
2025-01-18 15:10:38.742905	343.1	21.0	-92.5	2.4
2025-01-18 15:10:39.897348	342.9	20.9	-92.4	3.4
2025-01-18 15:10:41.054135	342.7	20.8	-91.2	4.0
2025-01-18 15:10:42.219889	342.4	20.7	-92.3	2.4
2025-01-18 15:10:43.385665	342.2	20.6	-92.5	2.4
2025-01-18 15:10:44.550379	342.0	20.5	-92.0	5.1
2025-01-18 15:10:45.715412	341.8	20.4	-92.3	3.7
2025-01-18 15:10:46.878002	341.6	20.2	-92.3	4.9
2025-01-18 15:10:48.045576	341.4	20.1	-92.4	4.2
2025-01-18 15:10:49.206269	341.2	20.0	-92.4	2.2
2025-01-18 15:10:50.372483	341.0	19.9	-92.2	2.0
2025-01-18 15:10:51.537135	340.8	19.8	-91.8	2.0
2025-01-18 15:10:52.698346	340.6	19.7	-92.3	3.1
2025-01-18 15:10:53.860406	340.4	19.6	-92.4	2.5
2025-01-18 15:10:55.025374	340.2	19.5	-92.6	3.6
2025-01-18 15:10:56.191915	340.0	19.4	-92.5	2.6
2025-01-18 15:10:57.355951	339.8	19.3	-92.3	2.8
2025-01-18 15:10:58.524064	339.6	19.2	-92.4	2.7
2025-01-18 15:10:59.676244	339.4	19.1	-92.5	1.3
2025-01-18 15:11:00.834271	339.2	19.0	-92.7	2.7
2025-01-18 15:11:01.989318	339.1	18.9	-92.4	2.3
2025-01-18 15:11:03.152957	338.9	18.8	-92.3	1.4
2025-01-18 15:11:04.319163	338.7	18.7	-92.5	0.8
2025-01-18 15:11:05.485756	338.5	18.6	-92.3	3.2
2025-01-18 15:11:06.657528	338.3	18.5	-92.0	3.4
2025-01-18 15:11:07.824427	338.1	18.4	-92.4	4.2
2025-01-18 15:11:08.987389	337.9	18.3	-92.5	5.3
2025-01-18 15:11:10.143812	337.8	18.1	-92.6	5.6
2025-01-18 15:11:11.314466	337.6	18.0	-91.8	4.6
2025-01-18 15:11:12.477875	337.4	17.9	-92.2	8.4
2025-01-18 15:11:13.648897	337.2	17.8	-92.0	2.0
2025-01-18 15:11:14.823944	337.1	17.7	-92.4	2.8
2025-01-18 15:11:15.987863	336.9	17.6	-92.3	5.2
2025-01-18 15:11:17.146787	336.7	17.5	-92.2	4.1
2025-01-18 15:11:18.316607	336.5	17.4	-92.0	0.2
2025-01-18 15:11:19.473459	336.4	17.3	-92.1	2.2
2025-01-18 15:11:20.637419	336.2	17.2	-92.0	1.6
2025-01-18 15:11:21.802324	336.0	17.1	-92.4	2.0
2025-01-18 15:11:22.969784	335.9	17.0	-92.5	1.2
2025-01-18 15:11:24.128816	335.7	16.9	-92.3	2.5
2025-01-18 15:11:25.283560	335.5	16.8	-91.9	1.9
2025-01-18 15:11:26.441333	335.4	16.7	-92.4	3.1
2025-01-18 15:11:27.608918	335.2	16.6	-92.4	2.2
2025-01-18 15:11:28.878695	335.0	16.5	-92.4	3.5
2025-01-18 15:11:30.037257	334.9	16.4	-92.0	3.3
2025-01-18 15:11:31.200433	334.7	16.3	-92.2	2.0
2025-01-18 15:11:32.359908	334.6	16.2	-92.2	3.4
2025-01-18 15:11:33.526821	334.4	16.1	-92.3	5.6
2025-01-18 15:11:34.693974	334.3	16.0	-92.1	3.7
2025-01-18 15:11:35.857563	334.1	15.9	-92.0	3.3
2025-01-18 15:11:37.018579	333.9	15.8	-91.1	3.0
2025-01-18 15:11:38.179502	333.8	15.7	-92.4	4.6
2025-01-18 15:11:39.343290	333.6	15.6	-92.7	2.7
2025-01-18 15:11:40.501313	333.5	15.5	-92.2	4.0
2025-01-18 15:11:41.665042	333.3	15.4	-92.5	4.2
2025-01-18 15:11:42.827708	333.2	15.3	-92.7	2.7
2025-01-18 15:11:43.992085	333.0	15.2	-92.9	3.2
2025-01-18 15:11:45.161368	332.9	15.1	-92.6	0.9
2025-01-18 15:11:46.325355	332.8	15.0	-92.3	2.0
2025-01-18 15:11:47.490084	332.6	14.9	-92.1	4.2
2025-01-18 15:11:48.657229	332.5	14.8	-92.2	5.0
2025-01-18 15:11:49.818027	332.3	14.7	-92.4	2.3
2025-01-18 15:11:50.982618	332.2	14.6	-92.4	5.8
#Closed at: 2025-01-18 15:04:31.458659