passes_logs/2025/01/18/LEX_Murmansk/LEX_Murmansk__20250118_182418_NOAA_19_rec.log

#Pass ID: 20250118_182418_NOAA 19
#Satellite: NOAA 19
#Configuration: NOAA 19
#Start time: 2025-01-18 18:24:13.535929

#LorettStation: 1.0.0 05.05.2024
#Station: LEX_Murmansk
#Location: 33.156738 lon 68.926811 lat
#TLE: 1 33591U 09005A   25018.04840605  .00000325  00000+0  19728-3 0  9997
#TLE: 2 33591  99.0190  81.8343 0014373  49.4310 310.8111 14.13261983821977

#Time	Az	El	Level	SNR
2025-01-18 18:24:25.745444	174.0	16.3	-89.8	3.4
2025-01-18 18:24:28.076857	174.2	16.6	-90.2	2.2
2025-01-18 18:24:30.408286	174.3	16.8	-90.3	2.5
2025-01-18 18:24:32.735693	174.4	17.1	-90.0	2.9
2025-01-18 18:24:35.062872	174.6	17.3	-90.3	4.5
2025-01-18 18:24:37.381065	174.7	17.6	-90.4	1.8
2025-01-18 18:24:39.706538	174.8	17.9	-90.2	3.3
2025-01-18 18:24:41.981221	175.0	18.1	-90.3	5.7
2025-01-18 18:24:44.224055	175.1	18.4	-90.0	8.5
2025-01-18 18:24:46.466114	175.2	18.7	-90.3	4.2
2025-01-18 18:24:48.707061	175.4	18.9	-90.0	7.1
2025-01-18 18:24:50.958344	175.5	19.2	-90.3	4.5
2025-01-18 18:24:53.277775	175.6	19.5	-90.2	4.1
2025-01-18 18:24:55.589239	175.8	19.8	-90.4	2.9
2025-01-18 18:24:57.907248	175.9	20.1	-90.5	3.5
2025-01-18 18:25:00.231052	176.1	20.4	-90.8	7.8
2025-01-18 18:25:02.548746	176.3	20.7	-90.2	4.4
2025-01-18 18:25:04.869573	176.4	21.0	-90.6	6.8
2025-01-18 18:25:07.192240	176.6	21.3	-91.1	6.7
2025-01-18 18:25:09.513508	176.7	21.6	-91.1	2.7
2025-01-18 18:25:11.835231	176.9	21.9	-91.2	3.1
2025-01-18 18:25:14.159568	177.1	22.2	-90.9	8.6
2025-01-18 18:25:16.513318	177.3	22.5	-90.7	10.1
2025-01-18 18:25:18.834073	177.5	22.8	-91.0	11.3
2025-01-18 18:25:21.164192	177.6	23.2	-91.1	10.8
2025-01-18 18:25:23.494914	177.8	23.5	-91.0	10.3
2025-01-18 18:25:25.820470	178.0	23.8	-91.0	4.8
2025-01-18 18:25:28.141168	178.2	24.2	-91.0	4.0
2025-01-18 18:25:30.472943	178.4	24.5	-90.3	7.3
2025-01-18 18:25:32.802427	178.6	24.8	-90.7	12.0
2025-01-18 18:25:35.113120	178.8	25.2	-90.6	8.3
2025-01-18 18:25:37.433600	179.0	25.6	-90.7	7.8
2025-01-18 18:25:39.758094	179.3	25.9	-91.3	10.1
2025-01-18 18:25:42.061558	179.5	26.3	-91.0	3.2
2025-01-18 18:25:44.309685	179.7	26.6	-91.0	3.4
2025-01-18 18:25:46.552295	179.9	27.0	-91.2	6.1
2025-01-18 18:25:48.793857	180.1	27.3	-90.8	10.7
2025-01-18 18:25:51.039104	180.4	27.7	-90.7	7.8
2025-01-18 18:25:53.331993	180.6	28.1	-91.3	7.3
2025-01-18 18:25:55.652925	180.9	28.5	-91.0	10.8
2025-01-18 18:25:57.966655	181.1	28.9	-91.3	9.1
2025-01-18 18:26:00.290142	181.4	29.3	-91.0	3.2
2025-01-18 18:26:02.615810	181.7	29.7	-90.6	3.6
2025-01-18 18:26:04.938603	181.9	30.1	-90.9	6.3
2025-01-18 18:26:07.269834	182.2	30.5	-90.7	9.2
2025-01-18 18:26:09.600569	182.5	30.9	-89.9	4.4
2025-01-18 18:26:11.891437	182.8	31.4	-90.8	6.8
2025-01-18 18:26:14.170023	183.1	31.8	-90.7	10.0
2025-01-18 18:26:16.468126	183.4	32.2	-90.6	6.1
2025-01-18 18:26:18.788695	183.8	32.6	-91.2	5.5
2025-01-18 18:26:21.102520	184.1	33.1	-90.6	2.0
2025-01-18 18:26:23.432450	184.4	33.6	-90.9	8.4
2025-01-18 18:26:25.756015	184.8	34.0	-90.6	11.8
2025-01-18 18:26:28.076810	185.1	34.5	-90.2	6.3
2025-01-18 18:26:30.406833	185.5	34.9	-90.4	7.5
2025-01-18 18:26:32.737155	185.9	35.4	-90.8	10.4
2025-01-18 18:26:35.064908	186.3	35.9	-90.8	4.4
2025-01-18 18:26:37.377728	186.7	36.4	-90.5	3.7
2025-01-18 18:26:39.704989	187.1	36.9	-90.9	3.9
2025-01-18 18:26:42.028558	187.5	37.4	-90.7	7.0
2025-01-18 18:26:44.356272	188.0	37.9	-90.8	9.2
2025-01-18 18:26:46.677239	188.4	38.4	-90.2	7.0
2025-01-18 18:26:49.001294	188.9	38.9	-90.2	5.8
2025-01-18 18:26:51.331797	189.4	39.4	-91.0	11.7
2025-01-18 18:26:53.655828	189.9	40.0	-90.5	7.0
2025-01-18 18:26:55.979740	190.4	40.5	-90.5	5.1
2025-01-18 18:26:58.300418	190.9	41.0	-89.9	4.1
2025-01-18 18:27:00.618119	191.5	41.6	-90.8	6.2
2025-01-18 18:27:02.946437	192.0	42.1	-90.8	12.1
2025-01-18 18:27:05.272941	192.6	42.7	-90.4	16.7
2025-01-18 18:27:07.595174	193.2	43.2	-90.6	8.7
2025-01-18 18:27:09.929606	193.9	43.8	-89.9	8.7
2025-01-18 18:27:12.255315	194.5	44.4	-89.6	12.7
2025-01-18 18:27:14.569690	195.2	45.0	-90.1	14.4
2025-01-18 18:27:16.903532	195.9	45.5	-89.7	7.3
2025-01-18 18:27:19.230223	196.6	46.1	-89.9	5.7
2025-01-18 18:27:21.555735	197.4	46.7	-90.2	2.8
2025-01-18 18:27:23.880716	198.2	47.3	-90.5	11.2
2025-01-18 18:27:26.206895	199.0	47.9	-90.6	16.2
2025-01-18 18:27:28.528549	199.8	48.5	-90.4	11.4
2025-01-18 18:27:30.849377	200.7	49.0	-89.6	8.1
2025-01-18 18:27:33.176017	201.6	49.6	-89.9	3.4
2025-01-18 18:27:35.505855	202.5	50.2	-90.2	10.9
2025-01-18 18:27:37.827350	203.5	50.8	-90.6	12.7
2025-01-18 18:27:40.160690	204.5	51.4	-90.7	10.0
2025-01-18 18:27:42.487627	205.6	52.0	-90.4	5.2
2025-01-18 18:27:44.803697	206.7	52.6	-90.6	4.2
2025-01-18 18:27:47.128170	207.8	53.2	-90.6	4.9
2025-01-18 18:27:49.450017	209.0	53.7	-91.4	8.7
2025-01-18 18:27:51.778736	210.2	54.3	-90.8	14.8
2025-01-18 18:27:54.110288	211.5	54.9	-90.0	15.2
2025-01-18 18:27:56.445913	212.9	55.4	-90.6	11.9
2025-01-18 18:27:58.772996	214.3	56.0	-90.1	12.4
2025-01-18 18:28:01.093708	215.7	56.5	-90.4	7.0
2025-01-18 18:28:03.424775	217.2	57.0	-90.5	14.8
2025-01-18 18:28:05.750557	218.8	57.5	-90.3	19.7
2025-01-18 18:28:08.079966	220.4	58.0	-90.8	19.8
2025-01-18 18:28:10.408553	222.1	58.5	-90.7	17.9
2025-01-18 18:28:12.736833	223.8	58.9	-90.9	14.4
2025-01-18 18:28:15.067750	225.6	59.3	-90.8	4.9
2025-01-18 18:28:17.386541	227.4	59.8	-91.1	9.2
2025-01-18 18:28:19.721976	229.3	60.1	-90.6	8.6
2025-01-18 18:28:22.047966	231.3	60.5	-90.5	7.0
2025-01-18 18:28:24.379527	233.3	60.8	-90.5	13.7
2025-01-18 18:28:26.706812	235.3	61.1	-90.7	18.1
2025-01-18 18:28:29.027577	237.4	61.4	-90.5	17.1
2025-01-18 18:28:31.355865	239.6	61.6	-90.6	13.4
2025-01-18 18:28:33.680245	241.8	61.8	-91.1	15.8
2025-01-18 18:28:36.010533	244.0	62.0	-91.5	13.0
2025-01-18 18:28:38.331392	246.2	62.1	-90.5	12.8
2025-01-18 18:28:40.656390	248.5	62.2	-91.0	10.5
2025-01-18 18:28:42.974676	250.7	62.2	-90.6	6.5
2025-01-18 18:28:45.300164	253.0	62.2	-90.7	11.4
2025-01-18 18:28:47.624761	255.3	62.2	-90.5	11.3
2025-01-18 18:28:49.951729	257.5	62.1	-91.0	10.9
2025-01-18 18:28:52.263629	259.8	62.0	-90.6	12.3
2025-01-18 18:28:54.582525	262.0	61.9	-90.3	12.6
2025-01-18 18:28:56.900575	264.2	61.7	-91.1	13.9
2025-01-18 18:28:59.221757	266.4	61.5	-91.1	15.4
2025-01-18 18:29:01.547369	268.5	61.3	-91.1	14.5
2025-01-18 18:29:03.871304	270.6	61.0	-91.1	15.0
2025-01-18 18:29:06.197771	272.6	60.7	-90.9	15.6
2025-01-18 18:29:08.515612	274.6	60.4	-91.3	17.7
2025-01-18 18:29:10.844606	276.5	60.0	-91.0	17.1
2025-01-18 18:29:13.180382	278.4	59.6	-91.2	11.4
2025-01-18 18:29:15.507161	280.2	59.2	-90.6	15.0
2025-01-18 18:29:17.834647	282.0	58.8	-91.4	15.6
2025-01-18 18:29:20.170267	283.7	58.3	-91.0	11.1
2025-01-18 18:29:22.485628	285.3	57.8	-91.0	11.7
2025-01-18 18:29:24.811423	286.9	57.3	-90.9	16.5
2025-01-18 18:29:27.141913	288.5	56.8	-91.5	14.3
2025-01-18 18:29:29.469421	289.9	56.3	-90.5	14.1
2025-01-18 18:29:31.798457	291.4	55.8	-90.7	13.1
2025-01-18 18:29:34.120293	292.7	55.2	-90.8	12.8
2025-01-18 18:29:36.440954	294.0	54.7	-89.6	10.9
2025-01-18 18:29:38.771615	295.3	54.1	-91.0	12.6
2025-01-18 18:29:41.096183	296.5	53.6	-90.6	8.5
2025-01-18 18:29:43.420004	297.7	53.0	-90.2	6.7
2025-01-18 18:29:45.744923	298.8	52.4	-90.4	7.8
2025-01-18 18:29:48.066516	299.9	51.8	-90.6	4.7
2025-01-18 18:29:50.399313	301.0	51.2	-90.7	7.0
2025-01-18 18:29:52.716768	302.0	50.7	-90.8	5.4
2025-01-18 18:29:55.042258	302.9	50.1	-90.7	4.0
2025-01-18 18:29:57.374371	303.8	49.5	-90.6	5.6
2025-01-18 18:29:59.706258	304.7	48.9	-90.6	5.5
2025-01-18 18:30:02.024373	305.6	48.3	-91.2	5.5
2025-01-18 18:30:04.355256	306.4	47.7	-91.0	8.1
2025-01-18 18:30:06.680115	307.2	47.1	-90.9	10.2
2025-01-18 18:30:09.002056	308.0	46.5	-91.1	10.9
2025-01-18 18:30:11.331687	308.7	46.0	-91.1	13.7
2025-01-18 18:30:13.654467	309.5	45.4	-91.0	13.5
2025-01-18 18:30:15.979854	310.1	44.8	-91.0	10.3
2025-01-18 18:30:18.297840	310.8	44.2	-91.1	11.1
2025-01-18 18:30:20.626188	311.5	43.7	-91.1	8.7
2025-01-18 18:30:22.949815	312.1	43.1	-90.6	5.9
2025-01-18 18:30:25.274910	312.7	42.6	-90.7	6.5
2025-01-18 18:30:27.606511	313.3	42.0	-90.7	6.6
2025-01-18 18:30:29.933534	313.8	41.5	-91.5	8.6
2025-01-18 18:30:32.261905	314.4	40.9	-90.5	13.6
2025-01-18 18:30:34.597706	314.9	40.4	-90.3	14.2
2025-01-18 18:30:36.920609	315.4	39.9	-89.9	12.9
2025-01-18 18:30:39.237039	315.9	39.3	-91.2	8.5
2025-01-18 18:30:41.567441	316.4	38.8	-91.3	4.9
2025-01-18 18:30:43.903715	316.8	38.3	-90.9	5.6
2025-01-18 18:30:46.228274	317.3	37.8	-91.2	6.0
2025-01-18 18:30:48.561740	317.7	37.3	-91.0	3.1
2025-01-18 18:30:50.894257	318.1	36.8	-90.9	5.9
2025-01-18 18:30:53.226363	318.6	36.3	-91.0	9.6
2025-01-18 18:30:55.552401	319.0	35.8	-90.7	12.8
2025-01-18 18:30:57.878619	319.3	35.3	-90.7	10.0
2025-01-18 18:31:00.197197	319.7	34.9	-91.1	8.5
2025-01-18 18:31:02.522869	320.1	34.4	-91.0	6.1
2025-01-18 18:31:04.848911	320.4	34.0	-90.5	7.8
2025-01-18 18:31:07.171296	320.8	33.5	-91.0	9.3
2025-01-18 18:31:09.494554	321.1	33.0	-91.2	8.5
2025-01-18 18:31:11.819217	321.5	32.6	-90.7	11.7
2025-01-18 18:31:14.144191	321.8	32.2	-91.1	13.0
2025-01-18 18:31:16.470771	322.1	31.7	-91.1	12.8
2025-01-18 18:31:18.803943	322.4	31.3	-90.8	6.7
2025-01-18 18:31:21.124795	322.7	30.9	-90.9	7.2
2025-01-18 18:31:23.453441	323.0	30.5	-91.0	4.0
2025-01-18 18:31:25.782001	323.3	30.1	-90.8	2.8
2025-01-18 18:31:28.106618	323.5	29.6	-90.9	4.8
2025-01-18 18:31:30.430549	323.8	29.2	-90.8	6.7
2025-01-18 18:31:32.761163	324.1	28.8	-91.0	7.1
2025-01-18 18:31:35.091221	324.3	28.5	-90.9	5.6
2025-01-18 18:31:37.414227	324.6	28.1	-90.6	5.3
2025-01-18 18:31:39.728872	324.8	27.7	-91.2	5.7
2025-01-18 18:31:42.062279	325.1	27.3	-90.9	5.2
2025-01-18 18:31:44.381016	325.3	26.9	-90.5	6.7
2025-01-18 18:31:46.706140	325.5	26.6	-91.3	5.8
2025-01-18 18:31:49.029266	325.8	26.2	-90.2	5.3
2025-01-18 18:31:51.352408	326.0	25.9	-89.7	4.1
2025-01-18 18:31:53.678379	326.2	25.5	-90.1	3.3
2025-01-18 18:31:56.008561	326.4	25.1	-89.8	4.0
2025-01-18 18:31:58.334688	326.6	24.8	-89.5	6.8
2025-01-18 18:32:00.653222	326.8	24.5	-89.5	4.3
2025-01-18 18:32:02.973740	327.0	24.1	-90.9	10.3
2025-01-18 18:32:05.299118	327.2	23.8	-90.7	6.8
2025-01-18 18:32:07.625810	327.4	23.5	-90.5	6.5
2025-01-18 18:32:09.944956	327.6	23.1	-91.0	2.2
2025-01-18 18:32:12.269409	327.8	22.8	-90.8	6.6
2025-01-18 18:32:14.590717	327.9	22.5	-90.7	5.7
2025-01-18 18:32:16.918446	328.1	22.2	-90.7	2.6
2025-01-18 18:32:19.241742	328.3	21.9	-91.2	8.3
2025-01-18 18:32:21.559770	328.5	21.6	-90.4	2.5
2025-01-18 18:32:23.891181	328.6	21.3	-89.6	2.7
2025-01-18 18:32:26.217789	328.8	21.0	-90.8	3.0
2025-01-18 18:32:28.536614	328.9	20.7	-90.5	2.3
2025-01-18 18:32:30.866050	329.1	20.4	-90.7	1.0
2025-01-18 18:32:33.192023	329.3	20.1	-90.6	3.2
2025-01-18 18:32:35.515684	329.4	19.8	-90.7	2.1
2025-01-18 18:32:37.833805	329.6	19.5	-89.8	1.9
2025-01-18 18:32:40.153743	329.7	19.2	-91.0	4.2
2025-01-18 18:32:42.491617	329.9	18.9	-89.9	2.7
2025-01-18 18:32:44.809311	330.0	18.7	-90.9	3.7
2025-01-18 18:32:47.109284	330.1	18.4	-90.7	3.1
2025-01-18 18:32:49.350772	330.3	18.1	-89.8	2.1
2025-01-18 18:32:51.797417	330.4	17.8	-90.5	1.6
2025-01-18 18:32:54.036887	330.5	17.6	-91.1	2.3
2025-01-18 18:32:56.280670	330.7	17.3	-91.0	2.7
2025-01-18 18:32:58.585054	330.8	17.1	-91.0	3.4
2025-01-18 18:33:00.913038	330.9	16.8	-90.7	4.1
2025-01-18 18:33:03.250618	331.0	16.6	-90.1	5.1
2025-01-18 18:33:05.575391	331.2	16.3	-90.9	2.6
2025-01-18 18:33:07.897084	331.3	16.1	-90.0	2.6
2025-01-18 18:33:10.223643	331.4	15.8	-91.0	2.5
2025-01-18 18:33:12.547882	331.5	15.6	-91.1	2.8
2025-01-18 18:33:14.872758	331.6	15.3	-91.1	2.3
2025-01-18 18:33:17.197690	331.8	15.1	-91.0	2.5
2025-01-18 18:33:19.618131	331.9	14.8	-90.3	0.9
2025-01-18 18:33:21.952019	332.0	14.6	-91.0	3.2
#Closed at: 2025-01-18 18:24:18.531817