passes_logs/2025/01/18/LEX_Murmansk/LEX_Murmansk__20250118_102923_NOAA_18_rec.log

#Pass ID: 20250118_102923_NOAA 18
#Satellite: NOAA 18
#Configuration: NOAA 18
#Start time: 2025-01-18 10:29:18.555060

#LorettStation: 1.0.0 05.05.2024
#Station: LEX_Murmansk
#Location: 33.156738 lon 68.926811 lat
#TLE: 1 28654U 05018A   25017.14480960  .00000361  00000+0  21486-3 0  9999
#TLE: 2 28654  98.8562  98.1779 0014463 173.1209 187.0164 14.13488310 13483

#Time	Az	El	Level	SNR
2025-01-18 10:29:30.759328	24.2	16.3	-89.9	6.1
2025-01-18 10:29:33.081143	24.2	16.6	-89.9	5.1
2025-01-18 10:29:35.406114	24.1	16.8	-90.0	7.4
2025-01-18 10:29:37.735714	24.0	17.1	-90.0	9.2
2025-01-18 10:29:40.064077	24.0	17.3	-89.6	7.5
2025-01-18 10:29:42.388404	23.9	17.6	-89.7	9.6
2025-01-18 10:29:44.712315	23.9	17.9	-89.3	8.9
2025-01-18 10:29:47.041307	23.8	18.2	-89.3	4.5
2025-01-18 10:29:49.362032	23.7	18.4	-89.0	8.4
2025-01-18 10:29:51.685729	23.7	18.7	-90.0	12.9
2025-01-18 10:29:54.010917	23.6	19.0	-89.2	12.1
2025-01-18 10:29:56.341031	23.5	19.3	-89.7	12.8
2025-01-18 10:29:58.664906	23.4	19.6	-89.4	10.6
2025-01-18 10:30:00.987594	23.4	19.9	-89.5	6.5
2025-01-18 10:30:03.304962	23.3	20.2	-89.9	15.7
2025-01-18 10:30:05.634962	23.2	20.5	-89.4	12.7
2025-01-18 10:30:07.964819	23.1	20.8	-89.7	8.9
2025-01-18 10:30:10.282407	23.1	21.1	-89.2	15.5
2025-01-18 10:30:12.607370	23.0	21.4	-89.4	11.7
2025-01-18 10:30:14.934565	22.9	21.7	-89.9	6.6
2025-01-18 10:30:17.257994	22.8	22.0	-89.9	11.0
2025-01-18 10:30:19.586470	22.7	22.3	-90.7	9.9
2025-01-18 10:30:21.908959	22.6	22.7	-90.1	15.1
2025-01-18 10:30:24.242712	22.5	23.0	-90.7	14.0
2025-01-18 10:30:26.576441	22.4	23.3	-89.7	13.9
2025-01-18 10:30:28.909260	22.3	23.7	-90.4	11.6
2025-01-18 10:30:31.236338	22.2	24.0	-90.0	12.0
2025-01-18 10:30:33.558807	22.1	24.4	-90.5	8.3
2025-01-18 10:30:35.892349	22.0	24.7	-90.2	14.1
2025-01-18 10:30:38.217975	21.9	25.1	-90.1	14.0
2025-01-18 10:30:40.567926	21.8	25.4	-90.0	10.2
2025-01-18 10:30:42.892228	21.7	25.8	-90.7	12.6
2025-01-18 10:30:45.236719	21.6	26.2	-90.1	9.7
2025-01-18 10:30:47.565135	21.5	26.5	-89.7	3.5
2025-01-18 10:30:49.888859	21.4	26.9	-90.3	6.7
2025-01-18 10:30:52.210997	21.2	27.3	-89.8	8.0
2025-01-18 10:30:54.538792	21.1	27.7	-90.1	7.5
2025-01-18 10:30:56.871061	21.0	28.1	-90.5	6.8
2025-01-18 10:30:59.199750	20.8	28.5	-90.1	10.9
2025-01-18 10:31:01.516695	20.7	28.9	-90.5	9.9
2025-01-18 10:31:03.835381	20.6	29.3	-90.1	7.6
2025-01-18 10:31:06.167544	20.4	29.7	-89.7	9.0
2025-01-18 10:31:08.494766	20.3	30.2	-89.6	5.9
2025-01-18 10:31:10.823100	20.1	30.6	-90.7	11.1
2025-01-18 10:31:13.148214	20.0	31.0	-89.6	10.5
2025-01-18 10:31:15.474657	19.8	31.5	-89.6	6.7
2025-01-18 10:31:17.801076	19.6	31.9	-90.0	13.0
2025-01-18 10:31:20.130688	19.5	32.4	-89.9	7.8
2025-01-18 10:31:22.453843	19.3	32.9	-89.7	6.1
2025-01-18 10:31:24.785895	19.1	33.3	-90.7	16.7
2025-01-18 10:31:27.113664	18.9	33.8	-89.8	11.9
2025-01-18 10:31:29.443977	18.7	34.3	-90.0	13.6
2025-01-18 10:31:31.765929	18.5	34.8	-90.0	12.0
2025-01-18 10:31:34.098994	18.3	35.3	-90.0	12.8
2025-01-18 10:31:36.424854	18.1	35.8	-90.5	14.8
2025-01-18 10:31:38.750007	17.9	36.3	-90.8	13.5
2025-01-18 10:31:41.073976	17.6	36.8	-90.2	8.4
2025-01-18 10:31:43.396610	17.4	37.4	-89.7	11.2
2025-01-18 10:31:45.730926	17.2	37.9	-90.8	18.0
2025-01-18 10:31:48.054281	16.9	38.4	-90.5	13.9
2025-01-18 10:31:50.379630	16.6	39.0	-90.8	9.9
2025-01-18 10:31:52.696659	16.4	39.6	-90.4	16.9
2025-01-18 10:31:55.023126	16.1	40.1	-90.6	18.0
2025-01-18 10:31:57.287395	15.8	40.7	-90.3	19.8
2025-01-18 10:31:59.595332	15.5	41.3	-89.4	8.3
2025-01-18 10:32:01.916228	15.2	41.9	-90.4	12.5
2025-01-18 10:32:04.238884	14.9	42.5	-89.9	18.6
2025-01-18 10:32:06.573298	14.5	43.1	-90.3	15.1
2025-01-18 10:32:08.895671	14.2	43.7	-89.7	17.5
2025-01-18 10:32:11.222331	13.8	44.4	-90.2	17.7
2025-01-18 10:32:13.547788	13.4	45.0	-89.9	17.1
2025-01-18 10:32:15.854549	13.0	45.6	-90.2	21.3
2025-01-18 10:32:18.098851	12.6	46.3	-90.4	12.6
2025-01-18 10:32:20.339902	12.2	46.9	-90.1	16.7
2025-01-18 10:32:22.581101	11.8	47.6	-90.2	10.8
2025-01-18 10:32:24.826747	11.3	48.2	-89.9	15.1
2025-01-18 10:32:27.110376	10.8	48.9	-90.7	17.9
2025-01-18 10:32:29.431208	10.3	49.6	-90.7	13.6
2025-01-18 10:32:31.745881	9.8	50.3	-90.4	16.8
2025-01-18 10:32:34.069560	9.2	51.1	-89.8	8.7
2025-01-18 10:32:36.401159	8.6	51.8	-90.1	10.8
2025-01-18 10:32:38.726179	8.0	52.5	-90.3	13.3
2025-01-18 10:32:41.046769	7.3	53.3	-89.6	5.4
2025-01-18 10:32:43.372423	6.6	54.0	-89.5	12.7
2025-01-18 10:32:45.691316	5.9	54.8	-89.8	12.3
2025-01-18 10:32:48.017975	5.1	55.5	-90.4	7.3
2025-01-18 10:32:50.340397	4.3	56.3	-90.2	14.8
2025-01-18 10:32:52.661846	3.4	57.1	-90.1	17.7
2025-01-18 10:32:54.979977	2.5	57.8	-90.2	12.0
2025-01-18 10:32:57.306700	1.5	58.6	-90.1	7.1
2025-01-18 10:32:59.625581	0.5	59.4	-90.6	9.9
2025-01-18 10:33:01.940305	359.4	60.2	-91.2	18.1
2025-01-18 10:33:04.254495	358.3	60.9	-90.6	18.5
2025-01-18 10:33:06.587347	357.0	61.7	-90.5	11.6
2025-01-18 10:33:08.910935	355.7	62.5	-90.5	7.3
2025-01-18 10:33:11.235974	354.3	63.3	-91.0	8.5
2025-01-18 10:33:13.561676	352.8	64.0	-90.4	15.6
2025-01-18 10:33:15.887708	351.2	64.8	-91.0	20.9
2025-01-18 10:33:18.218450	349.5	65.5	-91.2	21.8
2025-01-18 10:33:20.539362	347.6	66.2	-90.8	18.9
2025-01-18 10:33:22.855502	345.7	67.0	-90.8	15.3
2025-01-18 10:33:25.181039	343.6	67.6	-90.4	13.9
2025-01-18 10:33:27.505771	341.4	68.3	-90.5	13.3
2025-01-18 10:33:29.844406	339.0	69.0	-90.9	19.0
2025-01-18 10:33:32.170890	336.4	69.6	-90.9	17.7
2025-01-18 10:33:34.497123	333.7	70.1	-91.0	11.4
2025-01-18 10:33:36.822285	330.8	70.7	-91.1	11.3
2025-01-18 10:33:39.126317	327.8	71.1	-90.7	13.4
2025-01-18 10:33:41.369412	324.7	71.5	-90.7	16.2
2025-01-18 10:33:43.613028	321.5	71.9	-91.2	11.1
2025-01-18 10:33:45.854495	318.2	72.2	-90.9	16.3
2025-01-18 10:33:48.097396	314.7	72.5	-90.8	9.7
2025-01-18 10:33:50.381460	311.1	72.7	-90.8	16.7
2025-01-18 10:33:52.709082	307.3	72.8	-90.8	15.6
2025-01-18 10:33:55.027094	303.5	72.8	-90.7	18.5
2025-01-18 10:33:57.354530	299.7	72.8	-91.0	24.0
2025-01-18 10:33:59.684180	295.9	72.7	-90.7	22.8
2025-01-18 10:34:01.995422	292.2	72.6	-90.5	26.0
2025-01-18 10:34:04.318891	288.5	72.3	-90.7	24.4
2025-01-18 10:34:06.647167	285.0	72.0	-91.0	20.9
2025-01-18 10:34:08.954711	281.6	71.7	-90.5	24.2
2025-01-18 10:34:11.278358	278.4	71.3	-90.7	24.1
2025-01-18 10:34:13.600359	275.3	70.8	-90.6	14.4
2025-01-18 10:34:15.921822	272.4	70.3	-90.9	16.2
2025-01-18 10:34:18.235393	269.6	69.7	-90.5	20.6
2025-01-18 10:34:20.508682	267.1	69.1	-91.4	15.1
2025-01-18 10:34:22.793889	264.7	68.5	-90.5	23.1
2025-01-18 10:34:25.101314	262.4	67.9	-91.3	19.9
2025-01-18 10:34:27.421154	260.3	67.2	-91.2	16.0
2025-01-18 10:34:29.738086	258.3	66.5	-91.2	24.0
2025-01-18 10:34:32.058807	256.4	65.8	-90.9	21.3
2025-01-18 10:34:34.377180	254.6	65.0	-91.2	27.5
2025-01-18 10:34:36.707040	253.0	64.3	-91.0	22.7
2025-01-18 10:34:39.033928	251.4	63.5	-91.0	17.2
2025-01-18 10:34:41.359657	250.0	62.7	-90.6	24.7
2025-01-18 10:34:43.676447	248.7	62.0	-90.9	19.6
2025-01-18 10:34:46.003303	247.4	61.2	-91.1	21.8
2025-01-18 10:34:48.325648	246.2	60.4	-90.6	16.8
2025-01-18 10:34:50.650035	245.1	59.6	-90.4	19.6
2025-01-18 10:34:52.974701	244.0	58.8	-90.5	18.7
2025-01-18 10:34:55.297021	243.0	58.1	-90.3	19.5
2025-01-18 10:34:57.622581	242.1	57.3	-90.9	19.7
2025-01-18 10:34:59.951316	241.2	56.5	-90.8	12.6
2025-01-18 10:35:02.272368	240.4	55.7	-90.9	14.9
2025-01-18 10:35:04.596787	239.6	55.0	-90.6	16.0
2025-01-18 10:35:06.928915	238.8	54.2	-90.6	8.3
2025-01-18 10:35:09.259646	238.1	53.4	-90.5	17.0
2025-01-18 10:35:11.589280	237.4	52.7	-91.0	10.2
2025-01-18 10:35:13.912963	236.8	52.0	-90.9	8.6
2025-01-18 10:35:16.239183	236.2	51.2	-90.9	19.4
2025-01-18 10:35:18.571542	235.6	50.5	-90.7	12.6
2025-01-18 10:35:20.893941	235.1	49.8	-91.3	14.5
2025-01-18 10:35:23.217215	234.5	49.1	-91.1	12.7
2025-01-18 10:35:25.535090	234.0	48.4	-90.8	14.1
2025-01-18 10:35:27.851823	233.6	47.7	-91.0	8.9
2025-01-18 10:35:30.175932	233.1	47.0	-90.9	7.4
2025-01-18 10:35:32.498936	232.7	46.3	-90.4	7.4
2025-01-18 10:35:34.813830	232.2	45.7	-91.6	4.5
2025-01-18 10:35:37.133524	231.8	45.0	-91.1	7.3
2025-01-18 10:35:39.457917	231.5	44.4	-90.8	4.9
2025-01-18 10:35:41.728429	231.1	43.7	-90.8	5.0
2025-01-18 10:35:43.971864	230.7	43.1	-90.5	4.8
2025-01-18 10:35:46.213237	230.4	42.5	-91.1	10.2
2025-01-18 10:35:48.454069	230.1	41.9	-90.1	4.1
2025-01-18 10:35:50.724383	229.8	41.4	-91.1	7.8
2025-01-18 10:35:53.040506	229.5	40.8	-91.2	4.9
2025-01-18 10:35:55.348074	229.2	40.2	-91.3	13.8
2025-01-18 10:35:57.671329	228.9	39.6	-90.9	12.3
2025-01-18 10:35:59.989647	228.6	39.0	-91.0	10.5
2025-01-18 10:36:02.302049	228.4	38.5	-90.7	18.7
2025-01-18 10:36:04.623765	228.1	37.9	-90.7	14.8
2025-01-18 10:36:06.948791	227.9	37.4	-91.0	17.5
2025-01-18 10:36:09.275640	227.6	36.8	-91.2	17.2
2025-01-18 10:36:11.599647	227.4	36.3	-91.0	14.9
2025-01-18 10:36:13.914194	227.2	35.8	-91.2	14.4
2025-01-18 10:36:16.216320	226.9	35.3	-91.1	16.9
2025-01-18 10:36:18.505376	226.7	34.8	-91.2	13.6
2025-01-18 10:36:20.811747	226.5	34.3	-91.2	19.1
2025-01-18 10:36:23.114908	226.3	33.8	-91.7	19.5
2025-01-18 10:36:25.434445	226.1	33.3	-91.3	16.7
2025-01-18 10:36:27.723651	226.0	32.9	-91.2	18.4
2025-01-18 10:36:30.013458	225.8	32.4	-90.8	11.0
2025-01-18 10:36:32.321523	225.6	31.9	-90.9	15.9
2025-01-18 10:36:34.633401	225.4	31.5	-91.0	12.4
2025-01-18 10:36:36.948909	225.3	31.0	-90.9	12.2
2025-01-18 10:36:39.268078	225.1	30.6	-90.8	13.4
2025-01-18 10:36:41.589909	225.0	30.2	-90.6	12.5
2025-01-18 10:36:43.910309	224.8	29.7	-91.1	15.1
2025-01-18 10:36:46.233759	224.7	29.3	-90.9	13.8
2025-01-18 10:36:48.563269	224.5	28.9	-91.0	8.0
2025-01-18 10:36:50.888025	224.4	28.5	-90.9	4.3
2025-01-18 10:36:53.208007	224.2	28.1	-91.1	7.5
2025-01-18 10:36:55.528772	224.1	27.7	-90.9	6.7
2025-01-18 10:36:57.855987	224.0	27.3	-90.9	5.6
2025-01-18 10:37:00.182961	223.8	26.9	-91.0	6.7
2025-01-18 10:37:02.507551	223.7	26.5	-90.6	4.5
2025-01-18 10:37:04.835111	223.6	26.1	-90.4	6.0
2025-01-18 10:37:07.158547	223.5	25.7	-90.9	5.5
2025-01-18 10:37:09.489046	223.4	25.4	-90.9	9.3
2025-01-18 10:37:11.815786	223.3	25.0	-91.1	10.5
2025-01-18 10:37:14.134835	223.2	24.7	-90.4	9.2
2025-01-18 10:37:16.464567	223.0	24.3	-91.0	9.4
2025-01-18 10:37:18.791872	222.9	23.9	-91.1	13.5
2025-01-18 10:37:21.124174	222.8	23.6	-91.0	10.9
2025-01-18 10:37:23.446136	222.7	23.3	-90.7	15.3
2025-01-18 10:37:25.766055	222.6	22.9	-90.9	13.0
2025-01-18 10:37:28.092372	222.6	22.6	-90.9	8.3
2025-01-18 10:37:30.418987	222.5	22.3	-90.8	5.2
2025-01-18 10:37:32.736036	222.4	21.9	-90.7	10.6
2025-01-18 10:37:35.026177	222.3	21.6	-90.6	7.4
2025-01-18 10:37:37.268961	222.2	21.3	-91.0	11.8
2025-01-18 10:37:39.511477	222.1	21.0	-91.0	12.9
2025-01-18 10:37:41.752347	222.0	20.7	-90.9	13.0
2025-01-18 10:37:43.999260	222.0	20.4	-91.0	11.6
2025-01-18 10:37:46.306784	221.9	20.1	-90.7	12.0
2025-01-18 10:37:48.619745	221.8	19.8	-91.1	11.6
2025-01-18 10:37:50.929875	221.7	19.5	-91.1	10.5
2025-01-18 10:37:53.260917	221.7	19.2	-90.4	10.6
2025-01-18 10:37:55.587934	221.6	18.9	-90.7	7.6
2025-01-18 10:37:57.909671	221.5	18.7	-90.9	4.4
2025-01-18 10:38:00.234135	221.4	18.4	-90.7	8.3
2025-01-18 10:38:02.561154	221.4	18.1	-91.2	7.4
2025-01-18 10:38:04.882650	221.3	17.8	-91.1	11.9
2025-01-18 10:38:07.206717	221.2	17.5	-91.5	11.2
2025-01-18 10:38:09.540292	221.2	17.3	-91.0	9.3
2025-01-18 10:38:11.868059	221.1	17.0	-90.9	9.0
2025-01-18 10:38:14.196438	221.1	16.7	-91.1	8.7
2025-01-18 10:38:16.526079	221.0	16.5	-91.0	9.9
2025-01-18 10:38:18.859992	220.9	16.2	-91.7	8.9
2025-01-18 10:38:21.179682	220.9	16.0	-91.2	7.7
2025-01-18 10:38:23.494317	220.8	15.7	-91.4	4.6
2025-01-18 10:38:25.809892	220.8	15.5	-91.2	5.5
2025-01-18 10:38:28.145295	220.7	15.2	-91.3	3.4
2025-01-18 10:38:30.470348	220.7	15.0	-91.5	6.0
2025-01-18 10:38:32.814261	220.6	14.7	-91.1	5.7
2025-01-18 10:38:35.145129	220.5	14.5	-90.7	6.4
#Closed at: 2025-01-18 10:29:23.547648