passes_logs/2025/01/18/LEX_Murmansk/LEX_Murmansk__20250118_152948_NOAA_18_rec.log

#Pass ID: 20250118_152948_NOAA 18
#Satellite: NOAA 18
#Configuration: NOAA 18
#Start time: 2025-01-18 15:29:43.315857

#LorettStation: 1.0.0 05.05.2024
#Station: LEX_Murmansk
#Location: 33.156738 lon 68.926811 lat
#TLE: 1 28654U 05018A   25018.13582066  .00000389  00000+0  23006-3 0  9999
#TLE: 2 28654  98.8561  99.1591 0014505 170.4027 189.7425 14.13489305 13620

#Time	Az	El	Level	SNR
2025-01-18 15:29:55.602016	59.0	15.9	-88.9	5.3
2025-01-18 15:29:56.755974	58.9	16.0	-89.2	8.7
2025-01-18 15:29:57.903276	58.7	16.1	-89.2	7.0
2025-01-18 15:29:59.050916	58.5	16.2	-89.1	5.5
2025-01-18 15:30:00.199803	58.3	16.3	-90.3	4.6
2025-01-18 15:30:01.346380	58.1	16.4	-90.3	5.1
2025-01-18 15:30:02.496374	58.0	16.5	-90.4	5.5
2025-01-18 15:30:03.638892	57.8	16.6	-90.3	7.9
2025-01-18 15:30:04.787596	57.6	16.6	-90.3	10.1
2025-01-18 15:30:05.941268	57.4	16.7	-90.5	5.2
2025-01-18 15:30:07.090349	57.2	16.8	-90.0	8.5
2025-01-18 15:30:08.244658	57.0	16.9	-90.1	6.7
2025-01-18 15:30:09.391729	56.9	17.0	-89.9	7.5
2025-01-18 15:30:10.540687	56.7	17.1	-89.7	6.5
2025-01-18 15:30:11.682586	56.5	17.2	-90.0	7.8
2025-01-18 15:30:12.832652	56.3	17.3	-89.9	7.1
2025-01-18 15:30:13.980620	56.1	17.3	-90.3	6.4
2025-01-18 15:30:15.122876	55.9	17.4	-90.0	6.0
2025-01-18 15:30:16.273245	55.7	17.5	-90.6	8.8
2025-01-18 15:30:17.419652	55.5	17.6	-90.4	7.9
2025-01-18 15:30:18.566798	55.3	17.7	-90.4	7.3
2025-01-18 15:30:19.714102	55.1	17.8	-89.9	8.8
2025-01-18 15:30:20.861710	54.9	17.9	-90.7	11.2
2025-01-18 15:30:22.010895	54.7	18.0	-90.6	8.8
2025-01-18 15:30:23.156219	54.5	18.0	-89.9	8.1
2025-01-18 15:30:24.301724	54.3	18.1	-90.7	10.8
2025-01-18 15:30:25.447728	54.1	18.2	-90.5	7.5
2025-01-18 15:30:26.586526	53.9	18.3	-90.7	11.4
2025-01-18 15:30:27.716015	53.7	18.4	-90.6	11.2
2025-01-18 15:30:28.836718	53.5	18.5	-90.2	9.7
2025-01-18 15:30:29.957637	53.3	18.6	-89.8	8.1
2025-01-18 15:30:31.079168	53.1	18.7	-90.5	9.5
2025-01-18 15:30:32.198920	52.9	18.7	-90.0	13.0
2025-01-18 15:30:33.319413	52.7	18.8	-90.2	10.7
2025-01-18 15:30:34.438901	52.5	18.9	-90.7	4.3
2025-01-18 15:30:35.559344	52.3	19.0	-90.2	6.0
2025-01-18 15:30:36.679348	52.1	19.1	-90.7	11.6
2025-01-18 15:30:37.818586	51.9	19.2	-90.7	11.6
2025-01-18 15:30:38.974883	51.6	19.2	-90.7	11.0
2025-01-18 15:30:40.119194	51.4	19.3	-90.4	11.5
2025-01-18 15:30:41.265042	51.2	19.4	-90.2	12.0
2025-01-18 15:30:42.407768	51.0	19.5	-91.0	11.0
2025-01-18 15:30:43.554870	50.8	19.6	-90.7	9.0
2025-01-18 15:30:44.699949	50.5	19.7	-91.1	11.0
2025-01-18 15:30:45.846886	50.3	19.8	-90.7	11.6
2025-01-18 15:30:47.000651	50.1	19.8	-90.5	8.4
2025-01-18 15:30:48.147898	49.9	19.9	-90.6	8.4
2025-01-18 15:30:49.292778	49.6	20.0	-90.4	11.6
2025-01-18 15:30:50.428231	49.4	20.1	-90.6	14.5
2025-01-18 15:30:51.556959	49.2	20.2	-90.2	10.8
2025-01-18 15:30:52.702083	48.9	20.3	-90.6	6.5
2025-01-18 15:30:53.839934	48.7	20.3	-90.6	9.4
2025-01-18 15:30:54.986120	48.5	20.4	-90.5	6.3
2025-01-18 15:30:56.128343	48.2	20.5	-90.1	5.7
2025-01-18 15:30:57.276420	48.0	20.6	-90.3	13.6
2025-01-18 15:30:58.419381	47.8	20.7	-90.3	6.9
2025-01-18 15:30:59.564808	47.5	20.8	-90.3	6.3
2025-01-18 15:31:00.710426	47.3	20.8	-90.4	11.4
2025-01-18 15:31:01.868311	47.0	20.9	-90.7	9.8
2025-01-18 15:31:03.016135	46.8	21.0	-90.4	9.0
2025-01-18 15:31:04.157723	46.6	21.1	-90.0	8.5
2025-01-18 15:31:05.279827	46.3	21.2	-89.8	10.1
2025-01-18 15:31:06.421199	46.1	21.3	-90.9	8.3
2025-01-18 15:31:07.559774	45.8	21.3	-90.8	7.8
2025-01-18 15:31:08.703960	45.6	21.4	-90.9	9.2
2025-01-18 15:31:09.846312	45.3	21.5	-90.6	13.9
2025-01-18 15:31:10.991092	45.1	21.6	-90.4	11.4
2025-01-18 15:31:12.139821	44.8	21.7	-91.0	12.2
2025-01-18 15:31:13.294951	44.6	21.7	-90.6	15.6
2025-01-18 15:31:14.437968	44.3	21.8	-90.5	13.4
2025-01-18 15:31:15.590120	44.0	21.9	-90.9	14.2
2025-01-18 15:31:16.738140	43.8	22.0	-90.8	9.3
2025-01-18 15:31:17.890583	43.5	22.0	-90.5	13.8
2025-01-18 15:31:19.036193	43.3	22.1	-90.2	8.6
2025-01-18 15:31:20.186286	43.0	22.2	-90.8	8.4
2025-01-18 15:31:21.336671	42.7	22.3	-90.1	9.4
2025-01-18 15:31:22.486159	42.5	22.3	-90.3	5.9
2025-01-18 15:31:23.636298	42.2	22.4	-90.4	8.2
2025-01-18 15:31:24.769628	41.9	22.5	-90.8	14.4
2025-01-18 15:31:25.902597	41.7	22.6	-88.5	8.8
2025-01-18 15:31:27.041777	41.4	22.6	-90.6	10.1
2025-01-18 15:31:28.175337	41.1	22.7	-90.4	16.5
2025-01-18 15:31:29.321346	40.9	22.8	-90.0	16.6
2025-01-18 15:31:30.467840	40.6	22.9	-90.3	13.2
2025-01-18 15:31:31.612961	40.3	22.9	-90.3	11.0
2025-01-18 15:31:32.759394	40.0	23.0	-90.0	12.0
2025-01-18 15:31:33.907210	39.8	23.1	-90.0	11.9
2025-01-18 15:31:35.055784	39.5	23.1	-90.7	10.4
2025-01-18 15:31:36.195772	39.2	23.2	-90.8	12.6
2025-01-18 15:31:37.333714	38.9	23.3	-90.8	14.6
2025-01-18 15:31:38.460836	38.6	23.3	-90.1	10.2
2025-01-18 15:31:39.604544	38.3	23.4	-90.9	9.8
2025-01-18 15:31:40.749138	38.1	23.5	-90.6	13.6
2025-01-18 15:31:41.897449	37.8	23.6	-91.0	14.6
2025-01-18 15:31:43.047647	37.5	23.6	-90.7	13.7
2025-01-18 15:31:44.188413	37.2	23.7	-90.2	9.9
2025-01-18 15:31:45.332084	36.9	23.7	-90.4	13.0
2025-01-18 15:31:46.463890	36.6	23.8	-90.4	10.8
2025-01-18 15:31:47.601377	36.3	23.9	-90.7	7.7
2025-01-18 15:31:48.746202	36.0	23.9	-91.0	13.6
2025-01-18 15:31:49.887098	35.7	24.0	-90.9	13.1
2025-01-18 15:31:51.033802	35.4	24.1	-90.4	7.5
2025-01-18 15:31:52.180162	35.1	24.1	-90.5	13.9
2025-01-18 15:31:53.330075	34.8	24.2	-90.6	16.2
2025-01-18 15:31:54.472557	34.5	24.2	-90.2	7.4
2025-01-18 15:31:55.627587	34.2	24.3	-90.0	9.9
2025-01-18 15:31:56.776033	33.9	24.4	-90.4	14.8
2025-01-18 15:31:57.925628	33.6	24.4	-90.4	8.6
2025-01-18 15:31:59.079840	33.3	24.5	-89.9	9.3
2025-01-18 15:32:00.230087	33.0	24.5	-90.5	13.6
2025-01-18 15:32:01.373557	32.7	24.6	-90.7	8.8
2025-01-18 15:32:02.520588	32.4	24.6	-90.8	11.0
2025-01-18 15:32:03.670393	32.1	24.7	-90.3	13.7
2025-01-18 15:32:04.818509	31.8	24.7	-90.9	16.7
2025-01-18 15:32:05.972328	31.5	24.8	-91.0	12.8
2025-01-18 15:32:07.120679	31.2	24.8	-90.9	11.5
2025-01-18 15:32:08.268829	30.8	24.9	-90.3	11.6
2025-01-18 15:32:09.416045	30.5	24.9	-90.3	12.1
2025-01-18 15:32:10.564896	30.2	25.0	-91.3	8.6
2025-01-18 15:32:11.713271	29.9	25.0	-90.2	12.8
2025-01-18 15:32:12.860394	29.6	25.1	-90.5	14.7
2025-01-18 15:32:14.007230	29.3	25.1	-90.6	10.9
2025-01-18 15:32:15.154723	28.9	25.2	-89.8	11.1
2025-01-18 15:32:16.303355	28.6	25.2	-91.0	14.9
2025-01-18 15:32:17.449965	28.3	25.3	-90.7	16.1
2025-01-18 15:32:18.596557	28.0	25.3	-88.1	8.4
2025-01-18 15:32:19.744434	27.7	25.3	-90.6	20.1
2025-01-18 15:32:20.896250	27.3	25.4	-90.3	12.5
2025-01-18 15:32:22.040819	27.0	25.4	-90.1	14.7
2025-01-18 15:32:23.185693	26.7	25.5	-89.9	13.6
2025-01-18 15:32:24.332381	26.4	25.5	-90.9	15.7
2025-01-18 15:32:25.480099	26.0	25.5	-91.1	10.6
2025-01-18 15:32:26.627317	25.7	25.6	-91.5	10.7
2025-01-18 15:32:27.776089	25.4	25.6	-90.6	12.2
2025-01-18 15:32:28.928288	25.1	25.6	-90.4	9.2
2025-01-18 15:32:30.073403	24.7	25.7	-90.6	7.0
2025-01-18 15:32:31.215431	24.4	25.7	-89.7	12.7
2025-01-18 15:32:32.364735	24.1	25.7	-90.7	11.6
2025-01-18 15:32:33.510201	23.7	25.8	-90.5	7.8
2025-01-18 15:32:34.655430	23.4	25.8	-90.6	7.7
2025-01-18 15:32:35.797475	23.1	25.8	-91.5	9.3
2025-01-18 15:32:36.925524	22.7	25.8	-91.0	8.0
2025-01-18 15:32:38.046722	22.4	25.9	-91.2	7.1
2025-01-18 15:32:39.168727	22.1	25.9	-90.9	12.7
2025-01-18 15:32:40.289490	21.8	25.9	-90.7	10.8
2025-01-18 15:32:41.408829	21.4	25.9	-91.2	12.6
2025-01-18 15:32:42.528886	21.1	25.9	-91.3	12.9
2025-01-18 15:32:43.648325	20.8	26.0	-90.5	12.8
2025-01-18 15:32:44.773662	20.4	26.0	-91.2	13.8
2025-01-18 15:32:45.900432	20.1	26.0	-90.8	12.6
2025-01-18 15:32:47.046557	19.8	26.0	-91.1	10.0
2025-01-18 15:32:48.194556	19.4	26.0	-90.8	11.3
2025-01-18 15:32:49.341763	19.1	26.0	-90.1	13.3
2025-01-18 15:32:50.481504	18.8	26.1	-90.3	10.8
2025-01-18 15:32:51.629166	18.4	26.1	-90.5	10.2
2025-01-18 15:32:52.777484	18.1	26.1	-90.4	9.4
2025-01-18 15:32:53.929518	17.8	26.1	-90.6	9.9
2025-01-18 15:32:55.075081	17.4	26.1	-91.3	8.0
2025-01-18 15:32:56.221181	17.1	26.1	-90.8	10.6
2025-01-18 15:32:57.371671	16.7	26.1	-91.0	9.0
2025-01-18 15:32:58.518979	16.4	26.1	-90.9	8.1
2025-01-18 15:32:59.665765	16.1	26.1	-90.7	7.3
2025-01-18 15:33:00.812835	15.7	26.1	-90.6	10.8
2025-01-18 15:33:01.960153	15.4	26.1	-90.7	7.3
2025-01-18 15:33:03.111023	15.0	26.1	-90.2	8.5
2025-01-18 15:33:04.259719	14.7	26.1	-90.6	9.8
2025-01-18 15:33:05.407617	14.4	26.1	-91.0	7.7
2025-01-18 15:33:06.567973	14.0	26.1	-91.1	8.1
2025-01-18 15:33:07.716065	13.7	26.1	-90.9	10.8
2025-01-18 15:33:08.863872	13.3	26.1	-90.9	13.9
2025-01-18 15:33:10.013180	13.0	26.1	-90.8	7.7
2025-01-18 15:33:11.164542	12.6	26.1	-91.1	7.0
2025-01-18 15:33:12.314410	12.3	26.1	-90.9	10.2
2025-01-18 15:33:13.464637	12.0	26.1	-90.8	6.5
2025-01-18 15:33:14.608909	11.6	26.1	-90.5	9.8
2025-01-18 15:33:15.754003	11.3	26.1	-90.7	9.5
2025-01-18 15:33:16.891314	11.0	26.1	-90.2	10.0
2025-01-18 15:33:18.023281	10.6	26.0	-90.6	12.1
2025-01-18 15:33:19.166299	10.3	26.0	-90.6	10.1
2025-01-18 15:33:20.310508	9.9	26.0	-90.7	13.8
2025-01-18 15:33:21.453179	9.6	26.0	-90.2	10.9
2025-01-18 15:33:22.596925	9.3	26.0	-91.0	9.8
2025-01-18 15:33:23.741945	8.9	26.0	-90.9	10.3
2025-01-18 15:33:24.884125	8.6	25.9	-90.8	8.4
2025-01-18 15:33:26.038210	8.3	25.9	-90.7	12.1
2025-01-18 15:33:27.185138	7.9	25.9	-90.4	9.4
2025-01-18 15:33:28.334169	7.6	25.9	-90.4	9.8
2025-01-18 15:33:29.487126	7.3	25.9	-90.3	9.8
2025-01-18 15:33:30.633927	6.9	25.8	-91.0	8.7
2025-01-18 15:33:31.783625	6.6	25.8	-90.9	9.4
2025-01-18 15:33:32.934975	6.3	25.8	-90.9	8.7
2025-01-18 15:33:34.085858	5.9	25.7	-91.1	9.7
2025-01-18 15:33:35.231965	5.6	25.7	-90.8	8.6
2025-01-18 15:33:36.378349	5.3	25.7	-90.7	5.9
2025-01-18 15:33:37.517657	4.9	25.7	-90.5	8.8
2025-01-18 15:33:38.649640	4.6	25.6	-90.7	11.0
2025-01-18 15:33:39.798473	4.3	25.6	-90.5	12.0
2025-01-18 15:33:40.939006	4.0	25.6	-90.1	10.7
2025-01-18 15:33:42.086105	3.6	25.5	-90.5	10.7
2025-01-18 15:33:43.233100	3.3	25.5	-90.7	10.7
2025-01-18 15:33:44.378806	3.0	25.4	-91.0	12.2
2025-01-18 15:33:45.524216	2.7	25.4	-90.7	7.4
2025-01-18 15:33:46.673812	2.3	25.4	-90.5	13.0
2025-01-18 15:33:47.825332	2.0	25.3	-90.4	9.6
2025-01-18 15:33:48.973286	1.7	25.3	-90.9	8.9
2025-01-18 15:33:50.119925	1.4	25.2	-90.8	11.2
2025-01-18 15:33:51.267248	1.0	25.2	-91.0	15.0
2025-01-18 15:33:52.419860	0.7	25.2	-90.9	11.1
2025-01-18 15:33:53.567230	0.4	25.1	-90.7	9.3
2025-01-18 15:33:54.715485	0.1	25.1	-90.7	12.6
2025-01-18 15:33:55.853691	359.8	25.0	-90.8	8.9
2025-01-18 15:33:56.998238	359.4	25.0	-91.1	10.4
2025-01-18 15:33:58.129769	359.1	24.9	-90.8	11.2
2025-01-18 15:33:59.261050	358.8	24.9	-90.9	12.0
2025-01-18 15:34:00.404009	358.5	24.8	-90.7	9.5
2025-01-18 15:34:01.542749	358.2	24.8	-91.2	9.2
2025-01-18 15:34:02.686759	357.9	24.7	-90.8	9.6
2025-01-18 15:34:03.833328	357.6	24.7	-91.1	16.2
2025-01-18 15:34:04.972666	357.3	24.6	-91.0	9.1
2025-01-18 15:34:06.096232	357.0	24.6	-91.2	11.9
2025-01-18 15:34:07.241616	356.7	24.5	-90.9	12.3
2025-01-18 15:34:08.384052	356.4	24.5	-90.6	14.8
2025-01-18 15:34:09.530959	356.1	24.4	-90.9	9.7
2025-01-18 15:34:10.675027	355.7	24.3	-91.2	14.8
2025-01-18 15:34:11.827060	355.4	24.3	-91.1	14.4
2025-01-18 15:34:12.973632	355.1	24.2	-90.3	10.3
2025-01-18 15:34:14.128133	354.8	24.2	-90.5	9.6
2025-01-18 15:34:15.263004	354.5	24.1	-91.2	15.1
2025-01-18 15:34:16.417224	354.2	24.0	-91.1	11.3
2025-01-18 15:34:17.562813	353.9	24.0	-90.6	11.7
2025-01-18 15:34:18.710298	353.6	23.9	-90.7	16.2
2025-01-18 15:34:19.855955	353.4	23.9	-91.0	14.7
2025-01-18 15:34:21.001288	353.1	23.8	-90.8	12.5
2025-01-18 15:34:22.150177	352.8	23.7	-90.6	13.2
2025-01-18 15:34:23.299726	352.5	23.7	-91.2	16.8
2025-01-18 15:34:24.451542	352.2	23.6	-91.3	11.6
2025-01-18 15:34:25.602732	351.9	23.5	-90.8	8.9
2025-01-18 15:34:26.748926	351.6	23.5	-91.3	13.6
2025-01-18 15:34:27.899307	351.3	23.4	-90.9	12.1
2025-01-18 15:34:29.051228	351.0	23.3	-91.1	11.7
2025-01-18 15:34:30.201465	350.7	23.3	-90.8	10.9
2025-01-18 15:34:31.346545	350.5	23.2	-90.6	14.0
2025-01-18 15:34:32.494610	350.2	23.1	-91.0	8.8
2025-01-18 15:34:33.642835	349.9	23.0	-90.1	15.3
2025-01-18 15:34:34.794697	349.6	23.0	-90.8	13.8
2025-01-18 15:34:35.945424	349.3	22.9	-90.5	14.6
2025-01-18 15:34:37.093304	349.1	22.8	-91.1	14.4
2025-01-18 15:34:38.238197	348.8	22.8	-90.4	12.0
2025-01-18 15:34:39.391477	348.5	22.7	-90.9	12.7
2025-01-18 15:34:40.540260	348.2	22.6	-91.4	12.1
2025-01-18 15:34:41.695827	348.0	22.5	-90.8	7.8
2025-01-18 15:34:42.845251	347.7	22.5	-91.1	10.8
2025-01-18 15:34:44.000957	347.4	22.4	-90.8	8.6
2025-01-18 15:34:45.144203	347.2	22.3	-90.5	11.0
2025-01-18 15:34:46.294049	346.9	22.2	-91.0	11.7
2025-01-18 15:34:47.443055	346.6	22.2	-90.6	9.6
2025-01-18 15:34:48.591368	346.4	22.1	-90.7	7.6
2025-01-18 15:34:49.743318	346.1	22.0	-90.8	13.7
2025-01-18 15:34:50.895987	345.8	21.9	-91.2	10.7
2025-01-18 15:34:52.040600	345.6	21.8	-91.2	9.9
2025-01-18 15:34:53.183934	345.3	21.8	-90.8	12.1
2025-01-18 15:34:54.334270	345.1	21.7	-90.4	8.4
2025-01-18 15:34:55.475885	344.8	21.6	-91.0	6.5
2025-01-18 15:34:56.625468	344.6	21.5	-90.0	8.3
2025-01-18 15:34:57.777229	344.3	21.5	-90.9	11.7
2025-01-18 15:34:58.925501	344.1	21.4	-91.0	8.4
2025-01-18 15:35:00.078536	343.8	21.3	-90.6	5.8
2025-01-18 15:35:01.223789	343.6	21.2	-90.5	7.2
2025-01-18 15:35:02.367005	343.3	21.1	-91.2	10.2
2025-01-18 15:35:03.518489	343.1	21.0	-90.4	8.1
2025-01-18 15:35:04.663603	342.8	21.0	-90.7	9.7
2025-01-18 15:35:05.814232	342.6	20.9	-90.6	11.1
2025-01-18 15:35:06.965781	342.3	20.8	-91.2	7.6
2025-01-18 15:35:08.110179	342.1	20.7	-91.2	6.0
2025-01-18 15:35:09.263652	341.8	20.6	-90.4	7.7
2025-01-18 15:35:10.406087	341.6	20.6	-90.9	6.3
2025-01-18 15:35:11.556678	341.4	20.5	-91.3	7.6
2025-01-18 15:35:12.703325	341.1	20.4	-90.7	10.2
2025-01-18 15:35:13.854136	340.9	20.3	-90.9	8.4
2025-01-18 15:35:15.002820	340.7	20.2	-91.1	8.0
2025-01-18 15:35:16.148587	340.4	20.1	-91.2	6.6
2025-01-18 15:35:17.298937	340.2	20.0	-90.8	7.4
2025-01-18 15:35:18.445534	340.0	20.0	-91.0	8.4
2025-01-18 15:35:19.593753	339.7	19.9	-91.5	8.4
2025-01-18 15:35:20.745748	339.5	19.8	-91.3	5.5
2025-01-18 15:35:21.896069	339.3	19.7	-91.1	8.5
2025-01-18 15:35:23.044673	339.1	19.6	-91.1	4.5
2025-01-18 15:35:24.195560	338.8	19.5	-91.2	6.4
2025-01-18 15:35:25.340435	338.6	19.4	-90.9	5.3
2025-01-18 15:35:26.485753	338.4	19.4	-91.4	5.8
2025-01-18 15:35:27.637704	338.2	19.3	-91.1	5.3
2025-01-18 15:35:28.784017	338.0	19.2	-90.9	5.9
2025-01-18 15:35:29.931006	337.7	19.1	-90.3	3.3
2025-01-18 15:35:31.084572	337.5	19.0	-90.6	5.6
2025-01-18 15:35:32.235309	337.3	18.9	-90.9	4.1
2025-01-18 15:35:33.383954	337.1	18.8	-90.5	5.3
2025-01-18 15:35:34.529729	336.9	18.8	-91.0	6.6
2025-01-18 15:35:35.682011	336.7	18.7	-90.8	6.5
2025-01-18 15:35:36.829479	336.5	18.6	-90.5	8.4
2025-01-18 15:35:37.973511	336.3	18.5	-90.9	3.9
2025-01-18 15:35:39.098768	336.1	18.4	-90.6	5.3
2025-01-18 15:35:40.220851	335.8	18.3	-91.3	5.9
2025-01-18 15:35:41.340764	335.6	18.2	-90.6	5.7
2025-01-18 15:35:42.461822	335.5	18.1	-90.6	6.6
2025-01-18 15:35:43.582939	335.3	18.1	-90.7	6.2
2025-01-18 15:35:44.703517	335.1	18.0	-90.8	4.4
2025-01-18 15:35:45.823272	334.9	17.9	-91.3	4.0
2025-01-18 15:35:46.946930	334.7	17.8	-91.1	5.2
2025-01-18 15:35:48.069978	334.5	17.7	-90.7	6.9
2025-01-18 15:35:49.213340	334.3	17.6	-90.6	6.1
2025-01-18 15:35:50.365262	334.1	17.5	-90.5	6.5
2025-01-18 15:35:51.511645	333.9	17.5	-91.0	3.8
2025-01-18 15:35:52.657533	333.7	17.4	-90.8	3.5
2025-01-18 15:35:53.803310	333.5	17.3	-91.1	5.2
2025-01-18 15:35:54.952455	333.3	17.2	-91.3	5.1
2025-01-18 15:35:57.116857	332.9	17.0	-91.4	4.2
2025-01-18 15:35:58.263905	332.8	16.9	-90.5	3.5
2025-01-18 15:35:59.410225	332.6	16.8	-90.3	5.3
2025-01-18 15:36:00.555230	332.4	16.8	-90.9	4.6
2025-01-18 15:36:01.702437	332.2	16.7	-90.6	5.8
2025-01-18 15:36:02.852910	332.0	16.6	-90.7	5.3
2025-01-18 15:36:04.002451	331.8	16.5	-90.3	5.5
2025-01-18 15:36:05.148777	331.7	16.4	-90.8	5.5
2025-01-18 15:36:06.286358	331.5	16.3	-90.5	4.0
2025-01-18 15:36:07.425323	331.3	16.2	-90.7	3.6
2025-01-18 15:36:08.575863	331.1	16.1	-90.5	3.9
2025-01-18 15:36:09.718725	330.9	16.0	-91.0	6.9
2025-01-18 15:36:10.868859	330.8	16.0	-90.9	4.7
2025-01-18 15:36:12.020136	330.6	15.9	-90.7	5.3
2025-01-18 15:36:13.168355	330.4	15.8	-90.9	6.3
2025-01-18 15:36:14.317363	330.2	15.7	-90.7	9.4
2025-01-18 15:36:15.466982	330.1	15.6	-90.8	5.2
2025-01-18 15:36:16.615076	329.9	15.5	-90.4	5.5
2025-01-18 15:36:17.756861	329.7	15.4	-90.5	6.1
2025-01-18 15:36:18.903387	329.6	15.3	-91.1	4.7
2025-01-18 15:36:20.053046	329.4	15.3	-90.1	3.7
2025-01-18 15:36:21.202948	329.2	15.2	-90.5	6.7
2025-01-18 15:36:22.349727	329.1	15.1	-90.9	5.1
2025-01-18 15:36:23.493042	328.9	15.0	-90.0	4.3
2025-01-18 15:36:24.645603	328.7	14.9	-90.5	5.1
2025-01-18 15:36:25.786435	328.6	14.8	-90.5	8.1
2025-01-18 15:36:26.933854	328.4	14.7	-90.5	5.8
2025-01-18 15:36:28.087969	328.2	14.6	-90.6	6.8
2025-01-18 15:36:29.229072	328.1	14.6	-91.3	5.7
#Closed at: 2025-01-18 15:29:48.404592