passes_logs/2025/01/18/LEX_Murmansk/LEX_Murmansk__20250118_114538_NOAA_19_rec.log

#Pass ID: 20250118_114538_NOAA 19
#Satellite: NOAA 19
#Configuration: NOAA 19
#Start time: 2025-01-18 11:45:33.268439

#LorettStation: 1.0.0 05.05.2024
#Station: LEX_Murmansk
#Location: 33.156738 lon 68.926811 lat
#TLE: 1 33591U 09005A   25017.12803845  .00000314  00000+0  19161-3 0  9999
#TLE: 2 33591  99.0192  80.9069 0014403  51.8715 308.3753 14.13261185821848

#Time	Az	El	Level	SNR
2025-01-18 11:45:47.431669	26.0	16.2	-90.5	5.6
2025-01-18 11:45:48.552143	25.9	16.3	-90.5	5.0
2025-01-18 11:45:49.672731	25.7	16.4	-90.5	3.8
2025-01-18 11:45:50.794594	25.6	16.5	-90.4	3.0
2025-01-18 11:45:51.915036	25.4	16.6	-90.6	3.1
2025-01-18 11:45:53.035870	25.2	16.7	-90.3	2.0
2025-01-18 11:45:54.160532	25.1	16.8	-90.3	1.7
2025-01-18 11:45:55.281162	24.9	16.9	-90.7	2.5
2025-01-18 11:45:56.439578	24.7	17.0	-90.2	3.2
2025-01-18 11:45:57.596550	24.6	17.1	-90.8	5.2
2025-01-18 11:45:58.753819	24.4	17.2	-90.2	2.6
2025-01-18 11:45:59.904255	24.2	17.3	-90.6	2.4
2025-01-18 11:46:01.050226	24.1	17.4	-91.0	2.2
2025-01-18 11:46:02.218145	23.9	17.5	-90.7	2.9
2025-01-18 11:46:03.383292	23.7	17.6	-90.5	4.3
2025-01-18 11:46:04.547428	23.5	17.7	-90.4	3.9
2025-01-18 11:46:05.709707	23.3	17.8	-90.8	9.8
2025-01-18 11:46:06.875842	23.2	17.9	-90.8	7.5
2025-01-18 11:46:08.039731	23.0	18.0	-90.8	6.7
2025-01-18 11:46:09.200612	22.8	18.1	-90.8	4.2
2025-01-18 11:46:10.355442	22.6	18.2	-90.5	0.5
2025-01-18 11:46:11.521530	22.4	18.3	-90.8	4.4
2025-01-18 11:46:12.682910	22.2	18.4	-90.9	2.3
2025-01-18 11:46:13.845801	22.0	18.5	-91.0	3.7
2025-01-18 11:46:15.010133	21.9	18.6	-90.9	6.2
2025-01-18 11:46:16.172153	21.7	18.7	-90.9	8.9
2025-01-18 11:46:17.333431	21.5	18.8	-90.6	8.1
2025-01-18 11:46:18.492556	21.3	18.9	-90.6	9.6
2025-01-18 11:46:19.657969	21.1	19.0	-90.7	8.0
2025-01-18 11:46:20.810525	20.9	19.1	-90.6	3.4
2025-01-18 11:46:21.934749	20.7	19.2	-90.5	4.9
2025-01-18 11:46:23.088641	20.5	19.3	-90.9	6.8
2025-01-18 11:46:24.256091	20.3	19.4	-90.8	7.5
2025-01-18 11:46:25.412762	20.1	19.5	-90.6	8.9
2025-01-18 11:46:26.574420	19.9	19.6	-90.7	9.1
2025-01-18 11:46:27.742989	19.7	19.7	-90.8	7.2
2025-01-18 11:46:28.904123	19.5	19.8	-90.6	4.2
2025-01-18 11:46:30.069017	19.3	19.9	-90.7	3.7
2025-01-18 11:46:31.232861	19.1	20.0	-90.9	2.2
2025-01-18 11:46:32.392562	18.9	20.1	-90.9	3.7
2025-01-18 11:46:33.554014	18.6	20.2	-90.5	4.5
2025-01-18 11:46:34.713738	18.4	20.3	-90.7	4.8
2025-01-18 11:46:35.876456	18.2	20.4	-90.9	5.0
2025-01-18 11:46:37.041349	18.0	20.5	-90.8	6.6
2025-01-18 11:46:38.207366	17.8	20.6	-90.5	7.7
2025-01-18 11:46:39.373095	17.6	20.7	-90.6	9.3
2025-01-18 11:46:40.544543	17.3	20.8	-90.7	9.2
2025-01-18 11:46:41.709572	17.1	20.9	-90.1	6.8
2025-01-18 11:46:42.877777	16.9	21.0	-89.8	5.4
2025-01-18 11:46:44.038298	16.7	21.1	-90.0	7.1
2025-01-18 11:46:45.210727	16.4	21.2	-90.4	6.3
2025-01-18 11:46:46.376052	16.2	21.3	-90.1	7.8
2025-01-18 11:46:47.541548	16.0	21.4	-90.0	10.8
2025-01-18 11:46:48.698469	15.8	21.5	-90.2	10.0
2025-01-18 11:46:49.861761	15.5	21.6	-90.2	5.2
2025-01-18 11:46:51.029179	15.3	21.7	-89.9	5.7
2025-01-18 11:46:52.190514	15.0	21.8	-90.0	3.1
2025-01-18 11:46:53.355938	14.8	21.9	-90.2	4.6
2025-01-18 11:46:54.519449	14.6	22.0	-90.4	2.6
2025-01-18 11:46:55.685459	14.3	22.1	-90.5	2.4
2025-01-18 11:46:56.844214	14.1	22.2	-90.7	3.6
2025-01-18 11:46:58.006211	13.8	22.3	-90.4	6.0
2025-01-18 11:46:59.172150	13.6	22.4	-90.0	3.8
2025-01-18 11:47:00.323575	13.4	22.5	-90.4	7.7
2025-01-18 11:47:01.487984	13.1	22.6	-90.6	10.0
2025-01-18 11:47:02.647875	12.9	22.7	-90.3	8.0
2025-01-18 11:47:03.807739	12.6	22.8	-90.2	7.4
2025-01-18 11:47:04.966204	12.4	22.9	-90.3	7.8
2025-01-18 11:47:06.124750	12.1	23.0	-90.6	11.8
2025-01-18 11:47:07.286999	11.8	23.1	-90.5	4.9
2025-01-18 11:47:08.451688	11.6	23.2	-90.9	11.6
2025-01-18 11:47:09.617303	11.3	23.3	-90.5	10.6
2025-01-18 11:47:10.775796	11.1	23.4	-90.7	11.3
2025-01-18 11:47:11.936622	10.8	23.5	-90.2	12.3
2025-01-18 11:47:13.098349	10.5	23.6	-90.3	8.0
2025-01-18 11:47:14.255882	10.3	23.7	-90.5	5.1
2025-01-18 11:47:15.403846	10.0	23.8	-90.8	4.0
2025-01-18 11:47:16.526717	9.7	23.9	-90.6	3.1
2025-01-18 11:47:17.648286	9.5	24.0	-90.6	4.5
2025-01-18 11:47:18.769190	9.2	24.1	-90.7	3.4
2025-01-18 11:47:19.891521	9.0	24.2	-90.5	3.9
2025-01-18 11:47:21.011789	8.7	24.3	-90.4	5.5
2025-01-18 11:47:22.131962	8.4	24.3	-90.7	6.9
2025-01-18 11:47:23.251980	8.2	24.4	-90.4	7.4
2025-01-18 11:47:24.376242	7.9	24.5	-90.7	8.4
2025-01-18 11:47:25.506040	7.6	24.6	-90.7	8.9
2025-01-18 11:47:26.666226	7.3	24.7	-91.0	8.8
2025-01-18 11:47:27.833648	7.0	24.8	-90.9	7.0
2025-01-18 11:47:28.993537	6.8	24.9	-91.2	6.9
2025-01-18 11:47:30.152722	6.5	25.0	-91.1	7.2
2025-01-18 11:47:31.318758	6.2	25.1	-91.1	2.6
2025-01-18 11:47:32.490040	5.9	25.2	-90.9	6.3
2025-01-18 11:47:33.657667	5.6	25.3	-90.8	6.9
2025-01-18 11:47:34.822115	5.3	25.3	-91.3	9.7
2025-01-18 11:47:35.982820	5.0	25.4	-90.5	9.9
2025-01-18 11:47:37.144475	4.7	25.5	-90.8	10.0
2025-01-18 11:47:38.307614	4.4	25.6	-90.6	8.6
2025-01-18 11:47:39.473265	4.1	25.7	-91.0	7.4
2025-01-18 11:47:40.626225	3.8	25.8	-90.7	7.7
2025-01-18 11:47:41.789686	3.5	25.9	-90.8	3.7
2025-01-18 11:47:42.954830	3.2	26.0	-90.8	4.4
2025-01-18 11:47:44.126337	2.9	26.0	-90.7	6.5
2025-01-18 11:47:45.291512	2.6	26.1	-90.8	2.7
2025-01-18 11:47:46.459790	2.2	26.2	-91.0	2.4
2025-01-18 11:47:47.617016	1.9	26.3	-91.1	3.7
2025-01-18 11:47:48.780429	1.6	26.4	-91.1	2.7
2025-01-18 11:47:49.944666	1.3	26.4	-90.9	4.3
2025-01-18 11:47:51.097757	1.0	26.5	-91.0	4.7
2025-01-18 11:47:52.259968	0.7	26.6	-91.0	7.6
2025-01-18 11:47:53.419838	0.3	26.7	-91.2	7.4
2025-01-18 11:47:54.586278	0.0	26.8	-90.9	5.2
2025-01-18 11:47:55.743157	359.7	26.8	-90.8	4.2
2025-01-18 11:47:56.924125	359.4	26.9	-91.0	5.5
2025-01-18 11:47:58.084415	359.0	27.0	-90.8	7.0
2025-01-18 11:47:59.248597	358.7	27.1	-90.8	4.0
2025-01-18 11:48:00.404934	358.4	27.1	-90.8	4.7
2025-01-18 11:48:01.563611	358.0	27.2	-91.1	3.6
2025-01-18 11:48:02.721326	357.7	27.3	-90.5	2.5
2025-01-18 11:48:03.883487	357.4	27.4	-90.6	6.9
2025-01-18 11:48:05.045428	357.0	27.4	-90.6	7.8
2025-01-18 11:48:06.207664	356.7	27.5	-90.9	7.1
2025-01-18 11:48:07.376676	356.3	27.6	-90.7	8.2
2025-01-18 11:48:08.529492	356.0	27.6	-90.8	12.0
2025-01-18 11:48:09.691865	355.7	27.7	-90.8	7.8
2025-01-18 11:48:10.850811	355.3	27.8	-91.1	5.8
2025-01-18 11:48:12.014772	355.0	27.8	-90.9	4.1
2025-01-18 11:48:13.175759	354.6	27.9	-90.8	4.9
2025-01-18 11:48:14.339749	354.3	28.0	-90.7	3.0
2025-01-18 11:48:15.504956	353.9	28.0	-90.5	3.0
2025-01-18 11:48:16.660565	353.6	28.1	-90.8	4.1
2025-01-18 11:48:17.816689	353.2	28.1	-90.4	3.7
2025-01-18 11:48:18.979188	352.9	28.2	-90.6	4.7
2025-01-18 11:48:20.143640	352.5	28.2	-90.8	4.3
2025-01-18 11:48:21.303512	352.2	28.3	-90.9	3.3
2025-01-18 11:48:22.471516	351.8	28.4	-91.2	3.5
2025-01-18 11:48:23.633261	351.4	28.4	-90.7	7.7
2025-01-18 11:48:24.786527	351.1	28.5	-90.8	6.2
2025-01-18 11:48:25.949123	350.7	28.5	-90.7	8.7
2025-01-18 11:48:27.110076	350.4	28.6	-90.5	9.1
2025-01-18 11:48:28.274485	350.0	28.6	-90.8	11.6
2025-01-18 11:48:29.440309	349.6	28.7	-91.0	8.7
2025-01-18 11:48:30.601483	349.3	28.7	-90.7	7.6
2025-01-18 11:48:31.761319	348.9	28.8	-91.0	7.2
2025-01-18 11:48:32.918412	348.5	28.8	-90.9	6.0
2025-01-18 11:48:34.071231	348.2	28.8	-91.0	4.8
2025-01-18 11:48:35.197628	347.8	28.9	-90.8	5.4
2025-01-18 11:48:36.317835	347.5	28.9	-90.5	6.0
2025-01-18 11:48:37.440517	347.1	29.0	-90.5	5.5
2025-01-18 11:48:38.560825	346.7	29.0	-90.6	5.0
2025-01-18 11:48:39.681738	346.4	29.0	-90.9	5.8
2025-01-18 11:48:40.802165	346.0	29.1	-90.7	3.3
2025-01-18 11:48:41.922250	345.7	29.1	-90.9	7.1
2025-01-18 11:48:43.051665	345.3	29.1	-91.0	7.1
2025-01-18 11:48:44.179590	344.9	29.2	-90.7	5.2
2025-01-18 11:48:45.339255	344.5	29.2	-91.1	7.0
2025-01-18 11:48:46.500454	344.2	29.2	-90.9	10.7
2025-01-18 11:48:47.655362	343.8	29.2	-90.9	8.2
2025-01-18 11:48:48.810226	343.4	29.3	-91.0	10.0
2025-01-18 11:48:49.970210	343.0	29.3	-91.0	7.6
2025-01-18 11:48:51.132508	342.7	29.3	-91.1	7.0
2025-01-18 11:48:52.290400	342.3	29.3	-90.8	2.3
2025-01-18 11:48:53.451338	341.9	29.4	-90.5	7.7
2025-01-18 11:48:54.606430	341.5	29.4	-90.7	3.6
2025-01-18 11:48:55.772275	341.1	29.4	-91.2	7.5
2025-01-18 11:48:56.930985	340.8	29.4	-90.6	4.6
2025-01-18 11:48:58.099911	340.4	29.4	-90.5	6.6
2025-01-18 11:48:59.256276	340.0	29.4	-91.0	2.9
2025-01-18 11:49:00.414591	339.6	29.4	-91.4	2.3
2025-01-18 11:49:01.571136	339.2	29.5	-90.8	3.9
2025-01-18 11:49:02.735691	338.8	29.5	-90.9	3.4
2025-01-18 11:49:03.899363	338.5	29.5	-91.0	2.0
2025-01-18 11:49:05.062550	338.1	29.5	-91.3	3.5
2025-01-18 11:49:06.222451	337.7	29.5	-91.4	2.5
2025-01-18 11:49:07.353519	337.3	29.5	-91.3	1.8
2025-01-18 11:49:08.508143	336.9	29.5	-91.0	5.0
2025-01-18 11:49:09.640550	336.6	29.5	-90.6	3.3
2025-01-18 11:49:10.790393	336.2	29.5	-90.9	2.8
2025-01-18 11:49:11.951314	335.8	29.5	-91.2	3.4
2025-01-18 11:49:13.106365	335.4	29.5	-91.0	7.1
2025-01-18 11:49:14.264466	335.0	29.5	-90.8	3.5
2025-01-18 11:49:15.436368	334.6	29.5	-91.0	2.3
2025-01-18 11:49:16.607712	334.3	29.5	-91.0	5.2
2025-01-18 11:49:17.773874	333.9	29.4	-91.2	4.4
2025-01-18 11:49:18.940214	333.5	29.4	-91.2	9.3
2025-01-18 11:49:20.110233	333.1	29.4	-90.2	9.7
2025-01-18 11:49:21.263431	332.7	29.4	-90.8	9.4
2025-01-18 11:49:22.413281	332.3	29.4	-91.1	6.8
2025-01-18 11:49:23.540402	332.0	29.4	-91.0	9.8
2025-01-18 11:49:24.696159	331.6	29.4	-90.9	9.0
2025-01-18 11:49:25.841396	331.2	29.3	-90.9	11.0
2025-01-18 11:49:26.984622	330.8	29.3	-90.6	7.9
2025-01-18 11:49:28.143430	330.5	29.3	-90.7	9.6
2025-01-18 11:49:29.302352	330.1	29.3	-90.5	10.2
2025-01-18 11:49:30.458069	329.7	29.2	-91.1	8.0
2025-01-18 11:49:31.615686	329.3	29.2	-90.8	6.2
2025-01-18 11:49:32.774351	329.0	29.2	-91.1	7.2
2025-01-18 11:49:33.938054	328.6	29.2	-90.8	7.4
2025-01-18 11:49:35.105959	328.2	29.1	-90.8	7.7
2025-01-18 11:49:36.264100	327.8	29.1	-90.7	14.1
2025-01-18 11:49:37.425937	327.5	29.1	-90.6	12.4
2025-01-18 11:49:38.587180	327.1	29.0	-90.6	10.4
2025-01-18 11:49:39.751189	326.7	29.0	-90.8	11.4
2025-01-18 11:49:40.910144	326.3	28.9	-90.5	6.1
2025-01-18 11:49:42.074202	326.0	28.9	-90.7	8.3
2025-01-18 11:49:43.230857	325.6	28.9	-90.8	12.6
2025-01-18 11:49:44.395267	325.2	28.8	-90.9	12.0
2025-01-18 11:49:45.558505	324.9	28.8	-90.7	14.0
2025-01-18 11:49:46.713314	324.5	28.7	-90.8	7.5
2025-01-18 11:49:47.875881	324.1	28.7	-90.6	8.9
2025-01-18 11:49:49.036185	323.8	28.6	-90.8	7.4
2025-01-18 11:49:50.204896	323.4	28.6	-90.7	11.1
2025-01-18 11:49:51.367048	323.0	28.6	-90.9	9.3
2025-01-18 11:49:52.534266	322.7	28.5	-90.1	5.8
2025-01-18 11:49:53.698767	322.3	28.4	-91.0	4.4
2025-01-18 11:49:54.860378	321.9	28.4	-91.0	10.6
2025-01-18 11:49:56.014138	321.6	28.3	-90.5	9.8
2025-01-18 11:49:57.182626	321.2	28.3	-91.1	7.2
2025-01-18 11:49:58.342686	320.9	28.2	-90.7	8.8
2025-01-18 11:49:59.508086	320.5	28.2	-91.2	10.8
2025-01-18 11:50:00.669212	320.2	28.1	-91.1	8.0
2025-01-18 11:50:01.824360	319.8	28.1	-91.4	10.2
2025-01-18 11:50:02.987934	319.5	28.0	-91.1	8.0
2025-01-18 11:50:04.150440	319.1	27.9	-91.1	9.0
2025-01-18 11:50:05.315124	318.8	27.9	-91.0	8.9
2025-01-18 11:50:06.478250	318.4	27.8	-91.0	10.4
2025-01-18 11:50:07.647079	318.1	27.7	-91.1	4.5
2025-01-18 11:50:08.806821	317.7	27.7	-90.7	9.8
2025-01-18 11:50:09.968168	317.4	27.6	-90.5	12.4
2025-01-18 11:50:11.128312	317.1	27.5	-91.1	10.7
2025-01-18 11:50:12.291425	316.7	27.5	-91.1	9.6
2025-01-18 11:50:13.444729	316.4	27.4	-91.0	12.2
2025-01-18 11:50:14.604423	316.0	27.3	-91.0	9.4
2025-01-18 11:50:15.768049	315.7	27.3	-90.8	13.9
2025-01-18 11:50:16.931802	315.4	27.2	-90.9	12.1
2025-01-18 11:50:18.099916	315.0	27.1	-91.2	8.2
2025-01-18 11:50:19.263345	314.7	27.0	-90.5	13.3
2025-01-18 11:50:20.430686	314.4	27.0	-91.1	10.5
2025-01-18 11:50:21.591030	314.0	26.9	-90.6	11.2
2025-01-18 11:50:22.753603	313.7	26.8	-90.7	8.9
2025-01-18 11:50:23.911586	313.4	26.7	-90.8	9.6
2025-01-18 11:50:25.073608	313.1	26.7	-90.5	7.1
2025-01-18 11:50:26.233826	312.8	26.6	-91.2	11.0
2025-01-18 11:50:27.401850	312.4	26.5	-91.1	10.4
2025-01-18 11:50:28.563308	312.1	26.4	-90.8	9.2
2025-01-18 11:50:29.725512	311.8	26.3	-91.2	9.1
2025-01-18 11:50:30.877292	311.5	26.3	-91.3	9.1
2025-01-18 11:50:31.998713	311.2	26.2	-91.1	6.4
2025-01-18 11:50:33.118670	310.9	26.1	-91.2	10.9
2025-01-18 11:50:34.239961	310.6	26.0	-90.8	5.4
2025-01-18 11:50:35.360501	310.3	25.9	-91.2	7.8
2025-01-18 11:50:36.480991	310.0	25.9	-91.2	4.0
2025-01-18 11:50:37.601732	309.7	25.8	-90.8	4.8
2025-01-18 11:50:38.722305	309.4	25.7	-91.0	8.5
2025-01-18 11:50:39.846684	309.1	25.6	-90.9	5.7
2025-01-18 11:50:40.971233	308.8	25.5	-90.9	5.2
2025-01-18 11:50:42.135849	308.5	25.4	-90.6	3.3
2025-01-18 11:50:43.298016	308.2	25.3	-90.6	3.8
2025-01-18 11:50:44.461891	307.9	25.3	-90.6	6.6
2025-01-18 11:50:45.617876	307.6	25.2	-90.6	4.5
2025-01-18 11:50:46.777292	307.4	25.1	-90.4	3.9
2025-01-18 11:50:47.936970	307.1	25.0	-91.0	4.5
2025-01-18 11:50:49.095677	306.8	24.9	-90.8	4.5
2025-01-18 11:50:50.258912	306.5	24.8	-90.8	4.6
2025-01-18 11:50:51.421612	306.2	24.7	-90.9	3.1
2025-01-18 11:50:52.586341	305.9	24.6	-90.6	5.0
2025-01-18 11:50:53.750990	305.6	24.5	-90.7	4.5
2025-01-18 11:50:54.913186	305.4	24.4	-90.4	4.5
2025-01-18 11:50:56.083189	305.1	24.3	-91.0	3.2
2025-01-18 11:50:57.242739	304.8	24.2	-91.0	1.4
2025-01-18 11:50:58.406036	304.5	24.2	-91.1	4.6
2025-01-18 11:50:59.574411	304.2	24.1	-90.6	4.0
2025-01-18 11:51:00.736755	304.0	24.0	-90.7	5.1
2025-01-18 11:51:01.901754	303.7	23.9	-91.0	4.9
2025-01-18 11:51:03.066038	303.4	23.8	-91.5	3.4
2025-01-18 11:51:04.231982	303.2	23.7	-91.6	13.6
2025-01-18 11:51:05.400814	302.9	23.6	-91.5	8.3
2025-01-18 11:51:06.566156	302.6	23.5	-91.5	5.9
2025-01-18 11:51:07.733011	302.4	23.4	-91.3	7.7
2025-01-18 11:51:08.896503	302.1	23.3	-91.4	5.9
2025-01-18 11:51:10.058357	301.9	23.2	-91.4	4.8
2025-01-18 11:51:11.213208	301.6	23.1	-91.1	5.6
2025-01-18 11:51:12.370220	301.3	23.0	-91.4	5.4
2025-01-18 11:51:13.537742	301.1	22.9	-91.5	4.4
2025-01-18 11:51:14.702104	300.8	22.8	-91.8	4.8
2025-01-18 11:51:15.862980	300.6	22.7	-91.6	3.9
2025-01-18 11:51:17.020949	300.3	22.6	-91.2	4.5
2025-01-18 11:51:18.189298	300.1	22.5	-91.1	4.1
2025-01-18 11:51:19.346578	299.8	22.4	-91.4	3.5
2025-01-18 11:51:20.507406	299.6	22.3	-91.1	1.4
2025-01-18 11:51:21.664949	299.4	22.2	-91.2	0.1
2025-01-18 11:51:22.831470	299.1	22.1	-91.3	1.9
2025-01-18 11:51:23.996310	298.9	22.0	-90.8	3.9
2025-01-18 11:51:25.174417	298.6	21.9	-91.0	5.0
2025-01-18 11:51:26.340638	298.4	21.8	-90.7	3.5
2025-01-18 11:51:27.501562	298.2	21.7	-90.9	2.2
2025-01-18 11:51:28.665819	297.9	21.6	-91.1	3.4
2025-01-18 11:51:29.827536	297.7	21.5	-90.8	1.0
2025-01-18 11:51:30.988179	297.5	21.4	-90.8	3.9
2025-01-18 11:51:32.146425	297.2	21.3	-90.4	3.2
2025-01-18 11:51:33.310010	297.0	21.2	-90.2	5.7
2025-01-18 11:51:34.473641	296.8	21.1	-90.6	2.4
2025-01-18 11:51:35.634193	296.6	21.0	-90.5	3.3
2025-01-18 11:51:36.794698	296.3	20.9	-91.0	5.5
2025-01-18 11:51:37.944179	296.1	20.8	-90.8	2.2
2025-01-18 11:51:39.064249	295.9	20.7	-90.6	4.1
2025-01-18 11:51:40.184337	295.7	20.6	-90.5	6.8
2025-01-18 11:51:41.304789	295.5	20.5	-90.5	2.9
2025-01-18 11:51:42.425132	295.3	20.4	-90.6	4.5
2025-01-18 11:51:43.547056	295.1	20.3	-90.8	1.0
2025-01-18 11:51:44.667606	294.9	20.2	-90.8	2.1
2025-01-18 11:51:45.787616	294.7	20.1	-91.2	1.5
2025-01-18 11:51:46.912189	294.5	20.0	-90.7	3.6
2025-01-18 11:51:48.042847	294.3	19.9	-91.4	1.8
2025-01-18 11:51:49.193304	294.1	19.8	-90.7	1.4
2025-01-18 11:51:50.352807	293.9	19.7	-90.6	2.2
2025-01-18 11:51:51.507119	293.7	19.6	-91.1	4.1
2025-01-18 11:51:52.670012	293.4	19.5	-90.9	1.7
2025-01-18 11:51:53.817370	293.3	19.4	-91.3	2.7
2025-01-18 11:51:54.985230	293.0	19.3	-91.1	3.0
2025-01-18 11:51:56.140143	292.9	19.2	-91.0	5.0
2025-01-18 11:51:57.302608	292.7	19.1	-91.1	3.0
2025-01-18 11:51:58.458994	292.5	19.0	-91.0	4.0
2025-01-18 11:51:59.619835	292.3	18.9	-91.1	6.5
2025-01-18 11:52:00.777672	292.1	18.8	-91.1	1.8
2025-01-18 11:52:01.941461	291.9	18.7	-91.0	9.1
2025-01-18 11:52:03.105323	291.7	18.6	-91.1	4.2
2025-01-18 11:52:04.272345	291.5	18.5	-91.1	3.7
2025-01-18 11:52:05.442408	291.3	18.4	-91.2	3.2
2025-01-18 11:52:06.598576	291.1	18.3	-91.3	6.6
2025-01-18 11:52:07.761915	290.9	18.2	-91.0	5.4
2025-01-18 11:52:08.925571	290.7	18.1	-91.5	1.5
2025-01-18 11:52:10.087211	290.6	18.0	-91.3	5.4
2025-01-18 11:52:11.249782	290.4	17.9	-91.3	3.6
2025-01-18 11:52:12.405474	290.2	17.8	-91.0	1.1
2025-01-18 11:52:13.568519	290.0	17.7	-91.0	4.7
2025-01-18 11:52:14.724940	289.8	17.6	-91.3	3.5
2025-01-18 11:52:15.890480	289.7	17.5	-90.8	2.7
2025-01-18 11:52:17.053487	289.5	17.4	-91.2	2.3
2025-01-18 11:52:18.213959	289.3	17.3	-91.1	2.2
2025-01-18 11:52:19.381667	289.1	17.2	-90.6	6.2
2025-01-18 11:52:20.545979	289.0	17.1	-91.3	5.7
2025-01-18 11:52:21.706734	288.8	17.0	-90.7	6.0
2025-01-18 11:52:22.874495	288.6	16.9	-91.0	8.3
2025-01-18 11:52:24.036591	288.5	16.8	-90.8	7.3
2025-01-18 11:52:25.200977	288.3	16.7	-91.2	7.3
2025-01-18 11:52:26.361149	288.1	16.6	-91.3	4.8
2025-01-18 11:52:27.526396	287.9	16.5	-91.2	6.0
2025-01-18 11:52:28.689703	287.8	16.4	-91.6	3.7
2025-01-18 11:52:29.849352	287.6	16.3	-91.5	8.6
2025-01-18 11:52:31.012724	287.5	16.2	-91.5	4.0
2025-01-18 11:52:32.171459	287.3	16.1	-90.8	5.8
2025-01-18 11:52:33.336887	287.1	16.0	-91.0	8.0
2025-01-18 11:52:34.500391	287.0	15.9	-91.1	4.5
2025-01-18 11:52:35.666402	286.8	15.8	-91.1	9.2
2025-01-18 11:52:36.824807	286.7	15.7	-91.2	7.5
2025-01-18 11:52:37.990744	286.5	15.6	-91.0	4.1
2025-01-18 11:52:39.152680	286.3	15.5	-91.0	7.9
2025-01-18 11:52:40.311305	286.2	15.4	-90.9	8.5
2025-01-18 11:52:41.448787	286.0	15.3	-91.0	7.1
2025-01-18 11:52:42.569237	285.9	15.2	-91.2	7.2
2025-01-18 11:52:43.689822	285.7	15.1	-91.0	5.4
2025-01-18 11:52:44.810439	285.6	15.0	-91.5	3.5
2025-01-18 11:52:45.931319	285.5	14.9	-91.4	4.5
2025-01-18 11:52:47.052232	285.3	14.8	-91.3	1.3
2025-01-18 11:52:48.173721	285.2	14.8	-91.5	6.1
2025-01-18 11:52:49.293309	285.0	14.7	-91.2	5.7
#Closed at: 2025-01-18 11:45:38.259006