passes_logs/2025/01/18/LEX_Murmansk/LEX_Murmansk__20250118_203016_NOAA_18_rec.log

#Pass ID: 20250118_203016_NOAA 18
#Satellite: NOAA 18
#Configuration: NOAA 18
#Start time: 2025-01-18 20:30:10.978123

#LorettStation: 1.0.0 05.05.2024
#Station: LEX_Murmansk
#Location: 33.156738 lon 68.926811 lat
#TLE: 1 28654U 05018A   25018.13582066  .00000389  00000+0  23006-3 0  9999
#TLE: 2 28654  98.8561  99.1591 0014505 170.4027 189.7425 14.13489305 13620

#Time	Az	El	Level	SNR
2025-01-18 20:30:23.237286	205.5	16.1	-90.1	5.4
2025-01-18 20:30:24.399702	205.6	16.2	-90.0	4.2
2025-01-18 20:30:25.563791	205.8	16.3	-90.4	5.5
2025-01-18 20:30:26.721528	205.9	16.4	-90.4	5.0
2025-01-18 20:30:27.881274	206.1	16.6	-90.6	4.1
2025-01-18 20:30:29.046799	206.2	16.7	-90.1	4.7
2025-01-18 20:30:30.206455	206.3	16.8	-90.0	4.0
2025-01-18 20:30:31.370571	206.5	16.9	-90.3	6.1
2025-01-18 20:30:32.535466	206.6	17.0	-90.7	4.7
2025-01-18 20:30:33.691658	206.8	17.1	-90.7	6.9
2025-01-18 20:30:34.855443	206.9	17.2	-90.4	5.9
2025-01-18 20:30:36.018377	207.0	17.3	-90.5	3.4
2025-01-18 20:30:37.174637	207.2	17.4	-90.5	6.2
2025-01-18 20:30:38.340378	207.3	17.5	-90.6	4.3
2025-01-18 20:30:39.499767	207.5	17.7	-90.7	4.6
2025-01-18 20:30:40.663919	207.6	17.8	-90.7	5.3
2025-01-18 20:30:41.839454	207.8	17.9	-90.4	3.4
2025-01-18 20:30:42.999080	207.9	18.0	-90.4	6.1
2025-01-18 20:30:44.160874	208.1	18.1	-90.7	3.5
2025-01-18 20:30:45.324734	208.2	18.2	-91.1	5.2
2025-01-18 20:30:46.485168	208.4	18.3	-90.3	5.4
2025-01-18 20:30:47.643991	208.6	18.5	-90.7	6.9
2025-01-18 20:30:48.805611	208.7	18.6	-91.0	7.0
2025-01-18 20:30:49.969691	208.9	18.7	-90.7	6.6
2025-01-18 20:30:51.126811	209.0	18.8	-90.8	6.1
2025-01-18 20:30:52.279975	209.2	18.9	-90.8	5.2
2025-01-18 20:30:53.401788	209.3	19.0	-90.9	3.7
2025-01-18 20:30:54.522077	209.5	19.1	-90.9	4.7
2025-01-18 20:30:55.642485	209.7	19.3	-90.9	5.5
2025-01-18 20:30:56.762813	209.8	19.4	-91.1	6.3
2025-01-18 20:30:57.882774	210.0	19.5	-90.7	8.0
2025-01-18 20:30:59.007740	210.1	19.6	-91.3	5.5
2025-01-18 20:31:00.128289	210.3	19.7	-90.6	7.5
2025-01-18 20:31:01.253123	210.5	19.8	-90.8	6.3
2025-01-18 20:31:02.384278	210.6	19.9	-90.9	5.6
2025-01-18 20:31:03.546322	210.8	20.1	-90.5	5.5
2025-01-18 20:31:04.701949	211.0	20.2	-91.0	9.4
2025-01-18 20:31:05.864673	211.1	20.3	-90.8	8.0
2025-01-18 20:31:07.014334	211.3	20.4	-90.2	7.4
2025-01-18 20:31:08.173401	211.5	20.5	-90.7	9.8
2025-01-18 20:31:09.332344	211.7	20.6	-90.5	9.1
2025-01-18 20:31:10.490598	211.9	20.8	-90.8	10.2
2025-01-18 20:31:11.648049	212.0	20.9	-91.3	10.7
2025-01-18 20:31:12.811662	212.2	21.0	-91.0	12.6
2025-01-18 20:31:13.971786	212.4	21.1	-90.9	10.1
2025-01-18 20:31:15.130992	212.6	21.3	-91.0	7.9
2025-01-18 20:31:16.287934	212.8	21.4	-90.7	8.5
2025-01-18 20:31:17.450107	213.0	21.5	-90.9	10.3
2025-01-18 20:31:18.607799	213.1	21.6	-90.5	7.6
2025-01-18 20:31:19.767639	213.3	21.7	-90.8	10.5
2025-01-18 20:31:20.936832	213.5	21.9	-90.9	8.7
2025-01-18 20:31:22.098524	213.7	22.0	-91.2	7.5
2025-01-18 20:31:23.265101	213.9	22.1	-90.8	11.0
2025-01-18 20:31:24.429232	214.1	22.2	-91.4	6.7
2025-01-18 20:31:25.585251	214.3	22.4	-91.2	10.1
2025-01-18 20:31:26.750800	214.5	22.5	-90.8	11.6
2025-01-18 20:31:27.911310	214.7	22.6	-91.2	13.2
2025-01-18 20:31:29.075154	214.9	22.7	-91.2	13.1
2025-01-18 20:31:30.236963	215.1	22.9	-90.1	11.3
2025-01-18 20:31:31.392379	215.3	23.0	-90.4	9.4
2025-01-18 20:31:32.566147	215.5	23.1	-90.7	9.4
2025-01-18 20:31:33.728562	215.7	23.2	-90.7	11.8
2025-01-18 20:31:34.893017	216.0	23.4	-90.6	10.2
2025-01-18 20:31:36.065069	216.2	23.5	-90.8	10.6
2025-01-18 20:31:37.222094	216.4	23.6	-90.5	9.3
2025-01-18 20:31:38.386717	216.6	23.7	-90.3	9.4
2025-01-18 20:31:39.551059	216.8	23.9	-90.8	7.2
2025-01-18 20:31:40.718378	217.0	24.0	-91.1	9.7
2025-01-18 20:31:41.887740	217.3	24.1	-90.8	6.2
2025-01-18 20:31:43.048304	217.5	24.3	-90.7	7.5
2025-01-18 20:31:44.209641	217.7	24.4	-90.8	10.5
2025-01-18 20:31:45.369408	217.9	24.5	-90.9	7.8
2025-01-18 20:31:46.510221	218.2	24.6	-90.7	8.1
2025-01-18 20:31:47.632773	218.4	24.8	-90.7	9.6
2025-01-18 20:31:48.752804	218.6	24.9	-91.1	9.7
2025-01-18 20:31:49.873853	218.8	25.0	-90.4	10.0
2025-01-18 20:31:50.994506	219.1	25.1	-90.3	8.9
2025-01-18 20:31:52.115434	219.3	25.3	-91.0	8.2
2025-01-18 20:31:53.235885	219.5	25.4	-90.5	10.2
2025-01-18 20:31:54.356208	219.8	25.5	-90.5	10.3
2025-01-18 20:31:55.480814	220.0	25.6	-90.1	7.3
2025-01-18 20:31:56.627724	220.2	25.8	-90.1	7.3
2025-01-18 20:31:57.788333	220.5	25.9	-90.3	7.1
2025-01-18 20:31:58.938418	220.7	26.0	-90.4	6.1
2025-01-18 20:32:00.100930	221.0	26.1	-90.5	4.0
2025-01-18 20:32:01.245775	221.2	26.3	-90.6	4.7
2025-01-18 20:32:02.407817	221.5	26.4	-90.4	4.3
2025-01-18 20:32:03.569677	221.7	26.5	-90.8	6.4
2025-01-18 20:32:04.733214	222.0	26.7	-91.2	7.5
2025-01-18 20:32:05.894955	222.2	26.8	-91.1	2.5
2025-01-18 20:32:07.060091	222.5	26.9	-90.9	5.6
2025-01-18 20:32:08.218695	222.8	27.0	-90.4	4.6
2025-01-18 20:32:09.380390	223.0	27.2	-91.1	4.4
2025-01-18 20:32:10.539984	223.3	27.3	-90.8	3.6
2025-01-18 20:32:11.701059	223.6	27.4	-90.6	3.0
2025-01-18 20:32:12.866382	223.9	27.6	-90.8	6.7
2025-01-18 20:32:14.028869	224.1	27.7	-90.5	8.2
2025-01-18 20:32:15.186552	224.4	27.8	-90.5	6.0
2025-01-18 20:32:16.343246	224.7	27.9	-90.9	8.3
2025-01-18 20:32:17.500631	225.0	28.1	-90.9	9.2
2025-01-18 20:32:18.657325	225.2	28.2	-90.5	6.2
2025-01-18 20:32:19.791848	225.5	28.3	-91.0	5.4
2025-01-18 20:32:20.934242	225.8	28.4	-90.7	8.3
2025-01-18 20:32:22.086576	226.1	28.6	-90.8	6.2
2025-01-18 20:32:23.232498	226.4	28.7	-91.2	4.3
2025-01-18 20:32:24.384901	226.7	28.8	-90.6	8.0
2025-01-18 20:32:25.538344	227.0	29.0	-91.2	6.4
2025-01-18 20:32:26.698229	227.3	29.1	-90.7	5.1
2025-01-18 20:32:27.860418	227.6	29.2	-91.0	7.7
2025-01-18 20:32:29.023715	227.9	29.3	-90.9	4.7
2025-01-18 20:32:30.183850	228.2	29.5	-90.8	8.2
2025-01-18 20:32:31.323276	228.5	29.6	-90.9	9.6
2025-01-18 20:32:32.450249	228.8	29.7	-90.6	8.4
2025-01-18 20:32:33.598653	229.1	29.8	-91.3	11.4
2025-01-18 20:32:34.746151	229.4	29.9	-91.4	14.4
2025-01-18 20:32:35.904842	229.7	30.1	-90.7	12.9
2025-01-18 20:32:37.058338	230.0	30.2	-91.1	11.0
2025-01-18 20:32:38.180910	230.4	30.3	-90.8	13.6
2025-01-18 20:32:39.336416	230.7	30.4	-91.0	16.1
2025-01-18 20:32:40.483744	231.0	30.6	-91.1	10.0
2025-01-18 20:32:41.640524	231.3	30.7	-91.1	11.9
2025-01-18 20:32:42.804315	231.7	30.8	-90.7	14.0
2025-01-18 20:32:43.941328	232.0	30.9	-91.3	15.3
2025-01-18 20:32:45.073321	232.3	31.0	-91.0	15.7
2025-01-18 20:32:46.223063	232.7	31.2	-90.4	16.0
2025-01-18 20:32:47.368851	233.0	31.3	-91.2	15.1
2025-01-18 20:32:48.528647	233.3	31.4	-91.0	10.5
2025-01-18 20:32:49.681968	233.7	31.5	-90.9	15.4
2025-01-18 20:32:50.842899	234.0	31.6	-91.0	15.5
2025-01-18 20:32:51.975976	234.4	31.7	-91.1	9.3
2025-01-18 20:32:53.125819	234.7	31.8	-91.0	11.8
2025-01-18 20:32:54.274272	235.1	32.0	-90.5	14.9
2025-01-18 20:32:55.420914	235.4	32.1	-91.0	10.7
2025-01-18 20:32:56.546966	235.8	32.2	-91.2	12.5
2025-01-18 20:32:57.693461	236.1	32.3	-90.9	15.7
2025-01-18 20:32:58.839533	236.5	32.4	-91.0	14.5
2025-01-18 20:32:59.994606	236.9	32.5	-90.9	17.5
2025-01-18 20:33:01.148620	237.2	32.6	-91.0	19.5
2025-01-18 20:33:02.308023	237.6	32.7	-91.0	16.8
2025-01-18 20:33:03.467656	238.0	32.8	-91.0	12.6
2025-01-18 20:33:04.628027	238.4	32.9	-90.9	15.1
2025-01-18 20:33:05.795095	238.7	33.1	-90.7	14.0
2025-01-18 20:33:06.955682	239.1	33.2	-90.8	11.0
2025-01-18 20:33:08.120077	239.5	33.3	-89.9	11.0
2025-01-18 20:33:09.279896	239.9	33.4	-90.7	15.3
2025-01-18 20:33:10.436300	240.3	33.5	-90.6	11.5
2025-01-18 20:33:11.590469	240.7	33.6	-90.7	9.6
2025-01-18 20:33:12.715895	241.1	33.7	-90.4	7.2
2025-01-18 20:33:13.856506	241.5	33.8	-91.3	9.4
2025-01-18 20:33:15.006603	241.9	33.9	-91.0	10.8
2025-01-18 20:33:16.148975	242.3	34.0	-90.8	13.3
2025-01-18 20:33:17.304340	242.7	34.0	-91.2	4.6
2025-01-18 20:33:18.456689	243.1	34.1	-90.9	4.8
2025-01-18 20:33:19.606275	243.5	34.2	-91.0	6.8
2025-01-18 20:33:20.737388	243.9	34.3	-91.0	9.0
2025-01-18 20:33:21.883115	244.3	34.4	-91.2	7.3
2025-01-18 20:33:23.036057	244.7	34.5	-91.0	6.5
2025-01-18 20:33:24.178939	245.1	34.6	-91.2	7.9
2025-01-18 20:33:25.331858	245.5	34.7	-91.4	13.1
2025-01-18 20:33:26.480091	245.9	34.7	-90.7	8.7
2025-01-18 20:33:27.634155	246.3	34.8	-90.6	12.5
2025-01-18 20:33:28.760039	246.8	34.9	-90.6	13.7
2025-01-18 20:33:29.919643	247.2	35.0	-90.4	10.5
2025-01-18 20:33:31.068910	247.6	35.1	-90.8	14.8
2025-01-18 20:33:32.190331	248.0	35.1	-90.8	15.4
2025-01-18 20:33:33.332183	248.5	35.2	-91.1	14.9
2025-01-18 20:33:34.485008	248.9	35.3	-91.1	14.9
2025-01-18 20:33:35.633911	249.3	35.4	-90.6	17.0
2025-01-18 20:33:36.781634	249.8	35.4	-91.2	18.5
2025-01-18 20:33:37.924023	250.2	35.5	-91.4	10.9
2025-01-18 20:33:39.045682	250.6	35.6	-90.9	13.7
2025-01-18 20:33:40.189546	251.1	35.6	-90.9	13.5
2025-01-18 20:33:41.325399	251.5	35.7	-90.8	14.3
2025-01-18 20:33:42.469355	251.9	35.7	-90.7	11.1
2025-01-18 20:33:43.597056	252.4	35.8	-90.6	11.0
2025-01-18 20:33:44.743013	252.8	35.9	-91.0	14.1
2025-01-18 20:33:45.900411	253.3	35.9	-91.0	10.3
2025-01-18 20:33:47.039615	253.7	36.0	-91.1	11.6
2025-01-18 20:33:48.189090	254.2	36.0	-90.8	8.9
2025-01-18 20:33:49.332457	254.6	36.1	-90.7	14.8
2025-01-18 20:33:50.495138	255.1	36.1	-91.0	11.6
2025-01-18 20:33:51.656506	255.5	36.2	-91.1	8.2
2025-01-18 20:33:52.817131	256.0	36.2	-91.1	10.6
2025-01-18 20:33:53.990667	256.5	36.2	-91.2	8.2
2025-01-18 20:33:55.152642	256.9	36.3	-90.6	9.0
2025-01-18 20:33:56.314928	257.4	36.3	-90.9	9.7
2025-01-18 20:33:57.476316	257.9	36.4	-91.0	11.9
2025-01-18 20:33:58.635024	258.3	36.4	-90.5	7.1
2025-01-18 20:33:59.797734	258.8	36.4	-91.3	10.9
2025-01-18 20:34:00.950766	259.3	36.5	-90.8	7.7
2025-01-18 20:34:02.108766	259.7	36.5	-91.0	5.9
2025-01-18 20:34:03.274103	260.2	36.5	-91.1	8.3
2025-01-18 20:34:04.437510	260.7	36.5	-90.9	5.5
2025-01-18 20:34:05.600960	261.1	36.6	-91.3	4.8
2025-01-18 20:34:06.761728	261.6	36.6	-91.3	6.5
2025-01-18 20:34:07.917444	262.1	36.6	-91.4	5.1
2025-01-18 20:34:09.075982	262.6	36.6	-91.1	4.1
2025-01-18 20:34:10.213478	263.0	36.6	-91.0	11.8
2025-01-18 20:34:11.354623	263.5	36.6	-91.3	9.4
2025-01-18 20:34:12.508472	264.0	36.6	-91.2	3.7
2025-01-18 20:34:13.660454	264.4	36.6	-90.4	8.7
2025-01-18 20:34:14.784539	264.9	36.6	-91.1	7.6
2025-01-18 20:34:15.926385	265.4	36.7	-91.1	10.0
2025-01-18 20:34:17.085952	265.8	36.7	-91.1	9.4
2025-01-18 20:34:18.226458	266.3	36.6	-91.3	13.8
2025-01-18 20:34:19.369529	266.8	36.6	-91.1	15.3
2025-01-18 20:34:20.520367	267.2	36.6	-91.2	6.6
2025-01-18 20:34:21.672348	267.7	36.6	-91.5	9.1
2025-01-18 20:34:22.827386	268.2	36.6	-91.2	10.8
2025-01-18 20:34:23.979860	268.6	36.6	-91.3	8.0
2025-01-18 20:34:25.132882	269.1	36.6	-91.0	11.0
2025-01-18 20:34:26.279062	269.6	36.6	-91.2	8.1
2025-01-18 20:34:27.408821	270.0	36.6	-91.2	12.2
2025-01-18 20:34:28.562454	270.5	36.5	-91.2	7.2
2025-01-18 20:34:29.708975	271.0	36.5	-91.1	11.2
2025-01-18 20:34:30.860487	271.4	36.5	-90.9	12.2
2025-01-18 20:34:32.011711	271.9	36.5	-90.8	12.6
2025-01-18 20:34:33.163447	272.4	36.4	-90.8	18.0
2025-01-18 20:34:34.325521	272.8	36.4	-91.3	13.2
2025-01-18 20:34:35.486389	273.3	36.4	-91.1	10.1
2025-01-18 20:34:36.648633	273.8	36.3	-91.1	14.8
2025-01-18 20:34:37.803316	274.2	36.3	-91.2	12.4
2025-01-18 20:34:38.963663	274.7	36.3	-91.6	8.3
2025-01-18 20:34:40.128918	275.2	36.2	-90.8	9.2
2025-01-18 20:34:41.290924	275.6	36.2	-90.7	10.3
2025-01-18 20:34:42.451760	276.1	36.1	-90.9	11.3
2025-01-18 20:34:43.626374	276.5	36.1	-91.1	13.8
2025-01-18 20:34:44.787583	277.0	36.0	-90.9	11.4
2025-01-18 20:34:45.945506	277.5	36.0	-91.5	9.1
2025-01-18 20:34:47.099877	277.9	35.9	-91.3	11.7
2025-01-18 20:34:48.255981	278.4	35.9	-91.2	12.6
2025-01-18 20:34:49.423163	278.8	35.8	-91.2	9.7
2025-01-18 20:34:50.586045	279.3	35.8	-90.6	12.1
2025-01-18 20:34:51.752469	279.7	35.7	-90.8	13.9
2025-01-18 20:34:52.911043	280.2	35.6	-91.0	6.3
2025-01-18 20:34:54.072096	280.6	35.6	-91.2	6.3
2025-01-18 20:34:55.233274	281.0	35.5	-91.1	10.1
2025-01-18 20:34:56.394632	281.5	35.4	-91.1	6.4
2025-01-18 20:34:57.554155	281.9	35.4	-91.1	5.3
2025-01-18 20:34:58.712707	282.4	35.3	-91.2	9.1
2025-01-18 20:34:59.867844	282.8	35.2	-91.4	7.3
2025-01-18 20:35:01.025564	283.2	35.1	-91.3	7.8
2025-01-18 20:35:02.185894	283.7	35.1	-91.3	10.2
2025-01-18 20:35:03.345348	284.1	35.0	-91.1	6.6
2025-01-18 20:35:04.500838	284.5	34.9	-91.4	7.6
2025-01-18 20:35:05.660835	284.9	34.8	-91.4	10.6
2025-01-18 20:35:06.816651	285.4	34.7	-91.4	9.5
2025-01-18 20:35:07.980077	285.8	34.7	-91.3	7.6
2025-01-18 20:35:09.138767	286.2	34.6	-91.2	8.8
2025-01-18 20:35:10.301197	286.6	34.5	-90.9	10.1
2025-01-18 20:35:11.450616	287.0	34.4	-91.5	4.1
2025-01-18 20:35:12.604989	287.5	34.3	-91.6	8.9
2025-01-18 20:35:13.763732	287.9	34.2	-91.6	7.8
2025-01-18 20:35:14.922840	288.3	34.1	-91.2	5.5
2025-01-18 20:35:16.083405	288.7	34.0	-91.4	5.5
2025-01-18 20:35:17.237160	289.1	33.9	-91.3	5.6
2025-01-18 20:35:18.396597	289.5	33.8	-91.6	4.6
2025-01-18 20:35:19.557645	289.9	33.7	-91.9	6.3
2025-01-18 20:35:20.718653	290.3	33.7	-91.4	8.6
2025-01-18 20:35:21.875868	290.7	33.6	-91.4	9.0
2025-01-18 20:35:23.041506	291.1	33.4	-91.4	7.0
2025-01-18 20:35:24.204257	291.5	33.3	-91.4	3.8
2025-01-18 20:35:25.368271	291.8	33.2	-91.2	5.4
2025-01-18 20:35:26.530567	292.2	33.1	-91.1	6.0
2025-01-18 20:35:27.698571	292.6	33.0	-91.4	4.4
2025-01-18 20:35:28.847880	293.0	32.9	-90.9	3.9
2025-01-18 20:35:30.008129	293.4	32.8	-90.8	6.1
2025-01-18 20:35:31.163917	293.7	32.7	-91.3	6.7
2025-01-18 20:35:32.288822	294.1	32.6	-90.8	5.1
2025-01-18 20:35:33.414608	294.5	32.5	-91.1	11.1
2025-01-18 20:35:34.536163	294.8	32.4	-91.0	10.1
2025-01-18 20:35:35.657469	295.2	32.3	-91.2	12.9
2025-01-18 20:35:36.778361	295.5	32.2	-91.2	12.6
2025-01-18 20:35:37.898472	295.9	32.1	-91.1	8.7
2025-01-18 20:35:39.019287	296.2	32.0	-91.1	9.7
2025-01-18 20:35:40.144119	296.6	31.8	-90.9	13.0
2025-01-18 20:35:41.273176	296.9	31.7	-90.8	7.3
2025-01-18 20:35:42.425360	297.3	31.6	-93.1	11.4
2025-01-18 20:35:43.578432	297.6	31.5	-92.8	9.1
2025-01-18 20:35:44.737527	297.9	31.4	-93.0	11.5
2025-01-18 20:35:45.879205	298.3	31.3	-92.9	12.5
2025-01-18 20:35:47.013568	298.6	31.2	-92.7	9.7
2025-01-18 20:35:48.170139	299.0	31.0	-92.7	14.8
2025-01-18 20:35:49.316006	299.3	30.9	-93.0	11.5
2025-01-18 20:35:50.467099	299.6	30.8	-93.1	10.7
2025-01-18 20:35:51.603253	299.9	30.7	-92.9	10.8
2025-01-18 20:35:52.731344	300.3	30.6	-92.6	22.0
2025-01-18 20:35:53.887022	300.6	30.4	-93.1	11.8
2025-01-18 20:35:55.035733	300.9	30.3	-93.0	12.6
2025-01-18 20:35:56.192460	301.2	30.2	-93.1	15.3
2025-01-18 20:35:57.351975	301.6	30.1	-92.7	15.2
2025-01-18 20:35:58.504098	301.9	29.9	-93.1	9.6
2025-01-18 20:35:59.661864	302.2	29.8	-93.0	12.4
2025-01-18 20:36:00.810899	302.5	29.7	-92.7	16.5
2025-01-18 20:36:01.971549	302.8	29.6	-92.8	8.9
2025-01-18 20:36:03.108733	303.1	29.5	-93.0	14.0
2025-01-18 20:36:04.247734	303.4	29.3	-92.7	17.0
2025-01-18 20:36:05.405135	303.7	29.2	-92.9	9.5
2025-01-18 20:36:06.548598	304.0	29.1	-92.8	13.4
2025-01-18 20:36:07.707055	304.3	29.0	-93.0	8.3
2025-01-18 20:36:08.862704	304.6	28.8	-93.0	16.9
2025-01-18 20:36:10.019119	304.9	28.7	-93.2	12.7
2025-01-18 20:36:11.175428	305.2	28.6	-92.7	14.0
2025-01-18 20:36:12.341546	305.5	28.4	-92.9	9.3
2025-01-18 20:36:13.504859	305.8	28.3	-93.0	6.1
2025-01-18 20:36:14.666054	306.1	28.2	-93.3	13.9
2025-01-18 20:36:15.822323	306.3	28.1	-93.1	10.0
2025-01-18 20:36:16.978344	306.6	27.9	-92.8	15.5
2025-01-18 20:36:18.131362	306.9	27.8	-93.0	16.4
2025-01-18 20:36:19.290473	307.2	27.7	-92.9	9.7
2025-01-18 20:36:20.445698	307.4	27.6	-92.8	19.7
2025-01-18 20:36:21.595190	307.7	27.4	-93.1	20.2
2025-01-18 20:36:22.721223	308.0	27.3	-93.0	19.3
2025-01-18 20:36:23.874080	308.2	27.2	-93.1	16.9
2025-01-18 20:36:25.023490	308.5	27.0	-93.2	13.8
2025-01-18 20:36:26.174450	308.8	26.9	-93.0	19.7
2025-01-18 20:36:27.327016	309.0	26.8	-92.8	21.5
2025-01-18 20:36:28.483476	309.3	26.7	-93.0	8.1
2025-01-18 20:36:29.635948	309.6	26.5	-93.0	9.5
2025-01-18 20:36:30.792022	309.8	26.4	-92.8	12.2
2025-01-18 20:36:31.954815	310.1	26.3	-92.8	6.6
2025-01-18 20:36:33.112326	310.3	26.1	-92.9	7.0
2025-01-18 20:36:34.273540	310.6	26.0	-92.8	14.8
2025-01-18 20:36:35.432340	310.8	25.9	-92.7	4.9
2025-01-18 20:36:36.570344	311.1	25.8	-93.0	4.4
2025-01-18 20:36:37.703735	311.3	25.6	-92.8	11.8
2025-01-18 20:36:38.857810	311.5	25.5	-92.9	14.7
2025-01-18 20:36:40.003873	311.8	25.4	-93.2	6.1
2025-01-18 20:36:41.150583	312.0	25.3	-92.5	10.3
2025-01-18 20:36:42.300681	312.2	25.1	-92.7	11.8
2025-01-18 20:36:43.459696	312.5	25.0	-92.8	9.3
2025-01-18 20:36:44.617715	312.7	24.9	-92.7	8.2
2025-01-18 20:36:45.780853	312.9	24.7	-92.7	11.7
2025-01-18 20:36:46.944625	313.2	24.6	-92.7	13.7
2025-01-18 20:36:48.105356	313.4	24.5	-93.1	6.2
2025-01-18 20:36:49.254347	313.6	24.4	-92.5	18.9
2025-01-18 20:36:50.410137	313.8	24.2	-92.7	14.1
2025-01-18 20:36:51.570742	314.1	24.1	-92.7	9.8
2025-01-18 20:36:52.733673	314.3	24.0	-92.9	8.0
2025-01-18 20:36:53.897648	314.5	23.9	-92.8	6.4
2025-01-18 20:36:55.061793	314.7	23.7	-92.5	5.8
2025-01-18 20:36:56.225202	314.9	23.6	-92.6	9.0
2025-01-18 20:36:57.381245	315.2	23.5	-92.9	8.0
2025-01-18 20:36:58.542464	315.4	23.3	-93.0	6.3
2025-01-18 20:36:59.702559	315.6	23.2	-92.8	9.2
2025-01-18 20:37:00.858078	315.8	23.1	-92.6	9.6
2025-01-18 20:37:02.017674	316.0	23.0	-93.1	7.7
2025-01-18 20:37:03.180190	316.2	22.8	-92.8	11.8
2025-01-18 20:37:04.338302	316.4	22.7	-92.8	4.9
2025-01-18 20:37:05.501319	316.6	22.6	-92.9	6.4
2025-01-18 20:37:06.639949	316.8	22.5	-93.2	5.7
2025-01-18 20:37:07.766164	317.0	22.4	-92.9	11.4
2025-01-18 20:37:08.915190	317.2	22.2	-92.8	5.4
2025-01-18 20:37:10.055874	317.4	22.1	-92.8	6.8
2025-01-18 20:37:11.208073	317.6	22.0	-92.8	13.2
2025-01-18 20:37:12.365256	317.8	21.9	-92.7	9.5
2025-01-18 20:37:13.513737	318.0	21.7	-93.0	8.3
2025-01-18 20:37:14.677051	318.2	21.6	-92.6	10.2
2025-01-18 20:37:15.844144	318.4	21.5	-92.9	7.2
2025-01-18 20:37:16.990754	318.5	21.4	-93.0	6.1
2025-01-18 20:37:18.152469	318.7	21.3	-92.7	6.7
2025-01-18 20:37:19.308714	318.9	21.1	-93.0	5.9
2025-01-18 20:37:20.467514	319.1	21.0	-93.1	5.9
2025-01-18 20:37:21.634933	319.3	20.9	-92.9	7.2
2025-01-18 20:37:22.800125	319.5	20.8	-92.9	7.6
2025-01-18 20:37:23.956134	319.6	20.7	-92.9	3.1
2025-01-18 20:37:25.118326	319.8	20.5	-92.9	4.5
2025-01-18 20:37:26.276924	320.0	20.4	-93.1	6.6
2025-01-18 20:37:27.435307	320.2	20.3	-93.1	4.3
2025-01-18 20:37:28.591265	320.3	20.2	-93.1	5.4
2025-01-18 20:37:29.751357	320.5	20.1	-93.0	9.3
2025-01-18 20:37:30.910227	320.7	19.9	-93.3	5.4
2025-01-18 20:37:32.070863	320.9	19.8	-93.0	4.6
2025-01-18 20:37:33.256055	321.0	19.7	-92.6	5.0
2025-01-18 20:37:34.414583	321.2	19.6	-92.9	5.0
2025-01-18 20:37:35.573301	321.4	19.5	-93.0	3.7
2025-01-18 20:37:36.731879	321.5	19.3	-93.0	8.7
2025-01-18 20:37:37.889080	321.7	19.2	-93.2	4.7
2025-01-18 20:37:39.016749	321.9	19.1	-93.3	5.2
2025-01-18 20:37:40.158343	322.0	19.0	-93.1	5.7
2025-01-18 20:37:41.314966	322.2	18.9	-92.7	7.7
2025-01-18 20:37:42.465267	322.3	18.8	-93.1	6.5
2025-01-18 20:37:43.620665	322.5	18.7	-93.1	5.0
2025-01-18 20:37:44.762909	322.6	18.5	-92.8	4.8
2025-01-18 20:37:45.927025	322.8	18.4	-93.1	7.4
2025-01-18 20:37:47.090408	323.0	18.3	-93.2	7.3
2025-01-18 20:37:48.245167	323.1	18.2	-92.8	7.1
2025-01-18 20:37:49.400849	323.3	18.1	-93.2	4.8
2025-01-18 20:37:50.569518	323.4	18.0	-93.1	4.0
2025-01-18 20:37:51.728937	323.6	17.9	-93.2	3.8
2025-01-18 20:37:52.892269	323.7	17.8	-93.1	2.8
2025-01-18 20:37:54.053964	323.9	17.6	-92.8	2.4
2025-01-18 20:37:55.208520	324.0	17.5	-93.0	3.5
2025-01-18 20:37:56.367442	324.2	17.4	-92.9	3.4
2025-01-18 20:37:57.524889	324.3	17.3	-93.0	4.3
2025-01-18 20:37:58.688660	324.5	17.2	-92.9	3.8
2025-01-18 20:37:59.847381	324.6	17.1	-93.2	5.7
2025-01-18 20:38:01.002893	324.7	17.0	-93.3	5.1
2025-01-18 20:38:02.167267	324.9	16.9	-93.0	5.0
2025-01-18 20:38:03.325240	325.0	16.8	-92.9	5.9
2025-01-18 20:38:04.485554	325.2	16.6	-92.9	3.2
2025-01-18 20:38:05.640503	325.3	16.5	-93.1	5.1
2025-01-18 20:38:06.798086	325.4	16.4	-93.1	3.2
2025-01-18 20:38:07.946115	325.6	16.3	-93.2	4.3
2025-01-18 20:38:09.083542	325.7	16.2	-93.1	4.1
2025-01-18 20:38:10.211140	325.8	16.1	-92.7	6.3
2025-01-18 20:38:11.351760	326.0	16.0	-92.9	4.6
2025-01-18 20:38:12.506830	326.1	15.9	-93.1	5.7
2025-01-18 20:38:13.653225	326.2	15.8	-93.0	12.4
2025-01-18 20:38:14.802687	326.4	15.7	-92.9	5.9
2025-01-18 20:38:15.955956	326.5	15.6	-93.1	5.9
2025-01-18 20:38:17.112091	326.6	15.5	-93.0	7.5
2025-01-18 20:38:18.273317	326.8	15.4	-93.0	6.0
2025-01-18 20:38:19.423403	326.9	15.3	-92.3	5.5
2025-01-18 20:38:20.580353	327.0	15.2	-92.9	5.1
2025-01-18 20:38:21.741034	327.1	15.1	-92.6	8.1
2025-01-18 20:38:22.914395	327.3	15.0	-92.8	6.6
2025-01-18 20:38:24.074897	327.4	14.9	-92.7	6.1
2025-01-18 20:38:25.243431	327.5	14.7	-92.7	5.6
2025-01-18 20:38:26.403866	327.6	14.6	-92.9	6.8
2025-01-18 20:38:27.554106	327.8	14.5	-92.9	5.3
#Closed at: 2025-01-18 20:30:16.023228