passes_logs/2025/01/18/LEX_Murmansk/LEX_Murmansk__20250118_084839_NOAA_18_rec.log

#Pass ID: 20250118_084839_NOAA 18
#Satellite: NOAA 18
#Configuration: NOAA 18
#Start time: 2025-01-18 08:48:34.374220

#LorettStation: 1.0.0 05.05.2024
#Station: LEX_Murmansk
#Location: 33.156738 lon 68.926811 lat
#TLE: 1 28654U 05018A   25017.14480960  .00000361  00000+0  21486-3 0  9999
#TLE: 2 28654  98.8562  98.1779 0014463 173.1209 187.0164 14.13488310 13483

#Time	Az	El	Level	SNR
2025-01-18 08:48:46.593231	31.5	16.2	-91.3	9.8
2025-01-18 08:48:47.754325	31.6	16.3	-92.0	11.8
2025-01-18 08:48:48.904304	31.8	16.4	-91.8	11.0
2025-01-18 08:48:50.061472	31.9	16.5	-91.6	7.7
2025-01-18 08:48:51.225687	32.0	16.7	-91.4	9.9
2025-01-18 08:48:52.391453	32.1	16.8	-91.9	11.0
2025-01-18 08:48:53.552338	32.2	16.9	-92.2	7.1
2025-01-18 08:48:54.711392	32.3	17.0	-92.0	6.9
2025-01-18 08:48:55.866349	32.4	17.1	-91.7	8.1
2025-01-18 08:48:57.023942	32.5	17.3	-92.0	10.2
2025-01-18 08:48:58.183442	32.6	17.4	-92.2	11.0
2025-01-18 08:48:59.343736	32.8	17.5	-91.5	7.7
2025-01-18 08:49:00.499607	32.9	17.6	-91.7	9.5
2025-01-18 08:49:01.661890	33.0	17.7	-92.1	11.5
2025-01-18 08:49:02.816702	33.1	17.9	-91.9	12.4
2025-01-18 08:49:03.975956	33.2	18.0	-91.7	11.4
2025-01-18 08:49:05.113839	33.3	18.1	-92.1	9.2
2025-01-18 08:49:06.270681	33.5	18.2	-92.2	11.9
2025-01-18 08:49:07.429498	33.6	18.3	-92.1	10.6
2025-01-18 08:49:08.593490	33.7	18.5	-91.2	10.6
2025-01-18 08:49:09.750776	33.8	18.6	-91.1	13.3
2025-01-18 08:49:10.908978	34.0	18.7	-90.7	12.7
2025-01-18 08:49:12.070081	34.1	18.8	-91.1	13.0
2025-01-18 08:49:13.226575	34.2	19.0	-91.0	7.8
2025-01-18 08:49:14.389684	34.3	19.1	-90.8	11.8
2025-01-18 08:49:15.556988	34.5	19.2	-91.7	9.8
2025-01-18 08:49:16.718581	34.6	19.4	-91.8	12.6
2025-01-18 08:49:17.899189	34.7	19.5	-92.1	11.0
2025-01-18 08:49:19.055655	34.8	19.6	-92.0	15.1
2025-01-18 08:49:20.210288	35.0	19.7	-91.9	14.2
2025-01-18 08:49:21.370358	35.1	19.9	-91.9	14.7
2025-01-18 08:49:22.530435	35.2	20.0	-92.1	13.8
2025-01-18 08:49:23.687395	35.4	20.1	-91.8	15.6
2025-01-18 08:49:24.847879	35.5	20.3	-91.9	16.3
2025-01-18 08:49:26.006084	35.7	20.4	-92.1	12.7
2025-01-18 08:49:27.178857	35.8	20.5	-91.8	14.9
2025-01-18 08:49:28.333380	35.9	20.7	-91.8	18.3
2025-01-18 08:49:29.492896	36.1	20.8	-92.1	15.0
2025-01-18 08:49:30.652393	36.2	20.9	-92.1	16.7
2025-01-18 08:49:31.811747	36.4	21.1	-92.3	15.1
2025-01-18 08:49:32.974866	36.5	21.2	-92.2	14.7
2025-01-18 08:49:34.133131	36.7	21.3	-92.0	12.9
2025-01-18 08:49:35.293269	36.8	21.5	-91.8	13.1
2025-01-18 08:49:36.456100	36.9	21.6	-92.3	12.2
2025-01-18 08:49:37.613854	37.1	21.8	-92.2	12.8
2025-01-18 08:49:38.775560	37.2	21.9	-92.0	14.1
2025-01-18 08:49:39.930511	37.4	22.0	-92.0	8.8
2025-01-18 08:49:41.085433	37.6	22.2	-92.1	8.5
2025-01-18 08:49:42.247363	37.7	22.3	-92.1	12.9
2025-01-18 08:49:43.407122	37.9	22.5	-92.1	10.6
2025-01-18 08:49:44.562651	38.0	22.6	-92.2	11.7
2025-01-18 08:49:45.726340	38.2	22.7	-92.2	16.0
2025-01-18 08:49:46.884464	38.3	22.9	-92.2	15.4
2025-01-18 08:49:48.038151	38.5	23.0	-91.8	15.7
2025-01-18 08:49:49.186908	38.7	23.2	-92.1	16.2
2025-01-18 08:49:50.351852	38.8	23.3	-92.1	16.3
2025-01-18 08:49:51.515210	39.0	23.5	-92.4	13.7
2025-01-18 08:49:52.678352	39.2	23.6	-92.4	16.7
2025-01-18 08:49:53.842660	39.3	23.7	-92.3	17.0
2025-01-18 08:49:54.997932	39.5	23.9	-92.3	15.8
2025-01-18 08:49:56.153576	39.7	24.0	-92.2	14.1
2025-01-18 08:49:57.310922	39.8	24.2	-91.8	15.0
2025-01-18 08:49:58.467613	40.0	24.3	-92.4	9.2
2025-01-18 08:49:59.627266	40.2	24.5	-92.4	10.0
2025-01-18 08:50:00.784352	40.4	24.6	-92.1	13.0
2025-01-18 08:50:01.949353	40.6	24.8	-92.1	8.9
2025-01-18 08:50:03.102218	40.7	24.9	-92.2	10.8
2025-01-18 08:50:04.258449	40.9	25.1	-91.7	12.1
2025-01-18 08:50:05.418197	41.1	25.2	-91.9	12.3
2025-01-18 08:50:06.575004	41.3	25.4	-91.8	11.8
2025-01-18 08:50:07.738390	41.5	25.5	-92.2	12.4
2025-01-18 08:50:08.905642	41.7	25.7	-92.2	12.0
2025-01-18 08:50:10.061592	41.9	25.8	-92.2	12.1
2025-01-18 08:50:11.224690	42.1	26.0	-92.3	11.5
2025-01-18 08:50:12.377908	42.3	26.2	-92.3	8.2
2025-01-18 08:50:13.534061	42.5	26.3	-92.6	14.3
2025-01-18 08:50:14.690908	42.7	26.5	-92.1	12.6
2025-01-18 08:50:15.847614	42.9	26.6	-91.8	13.6
2025-01-18 08:50:17.007281	43.1	26.8	-92.1	9.5
2025-01-18 08:50:18.165263	43.3	26.9	-92.0	11.3
2025-01-18 08:50:19.320020	43.5	27.1	-92.1	13.0
2025-01-18 08:50:20.479572	43.7	27.2	-92.1	9.3
2025-01-18 08:50:21.636823	43.9	27.4	-92.2	12.9
2025-01-18 08:50:22.778842	44.1	27.6	-92.5	10.7
2025-01-18 08:50:23.899633	44.3	27.7	-92.2	11.1
2025-01-18 08:50:25.021944	44.5	27.9	-92.2	10.8
2025-01-18 08:50:26.141875	44.7	28.0	-92.4	13.2
2025-01-18 08:50:27.262293	44.9	28.2	-92.1	12.5
2025-01-18 08:50:28.383671	45.2	28.3	-92.3	9.4
2025-01-18 08:50:29.505293	45.4	28.5	-92.5	13.0
2025-01-18 08:50:30.626242	45.6	28.7	-92.4	9.2
2025-01-18 08:50:31.750291	45.8	28.8	-92.6	11.7
2025-01-18 08:50:32.888321	46.0	29.0	-91.9	9.4
2025-01-18 08:50:34.051156	46.3	29.1	-91.9	10.0
2025-01-18 08:50:35.203222	46.5	29.3	-92.1	10.2
2025-01-18 08:50:36.358928	46.8	29.5	-92.0	9.3
2025-01-18 08:50:37.502572	47.0	29.6	-92.3	10.3
2025-01-18 08:50:38.661047	47.2	29.8	-92.6	13.5
2025-01-18 08:50:39.816174	47.5	30.0	-92.5	13.4
2025-01-18 08:50:40.979747	47.7	30.1	-92.3	9.0
2025-01-18 08:50:42.138096	48.0	30.3	-92.4	10.0
2025-01-18 08:50:43.314483	48.2	30.5	-92.1	13.0
2025-01-18 08:50:44.475601	48.5	30.6	-92.3	16.4
2025-01-18 08:50:45.628145	48.8	30.8	-92.3	16.2
2025-01-18 08:50:46.785422	49.0	31.0	-92.2	17.2
2025-01-18 08:50:47.937618	49.3	31.1	-92.5	11.7
2025-01-18 08:50:49.095868	49.6	31.3	-92.5	13.1
2025-01-18 08:50:50.260539	49.8	31.5	-92.3	16.3
2025-01-18 08:50:51.423901	50.1	31.6	-92.3	14.7
2025-01-18 08:50:52.581316	50.4	31.8	-92.2	16.4
2025-01-18 08:50:53.742299	50.7	32.0	-92.2	17.2
2025-01-18 08:50:54.895536	50.9	32.2	-92.3	16.3
2025-01-18 08:50:56.058403	51.2	32.3	-92.3	12.8
2025-01-18 08:50:57.211627	51.5	32.5	-92.2	15.0
2025-01-18 08:50:58.376889	51.8	32.7	-92.0	15.5
2025-01-18 08:50:59.535112	52.1	32.8	-92.7	7.5
2025-01-18 08:51:00.689407	52.4	33.0	-92.3	16.8
2025-01-18 08:51:01.848209	52.7	33.2	-92.5	19.1
2025-01-18 08:51:03.011429	53.0	33.4	-92.8	13.2
2025-01-18 08:51:04.167211	53.3	33.5	-92.2	17.7
2025-01-18 08:51:05.326298	53.6	33.7	-92.1	21.2
2025-01-18 08:51:06.487603	53.9	33.9	-92.4	20.7
2025-01-18 08:51:07.638384	54.2	34.0	-92.4	21.0
2025-01-18 08:51:08.793669	54.6	34.2	-92.2	20.3
2025-01-18 08:51:09.963184	54.9	34.4	-92.2	15.1
2025-01-18 08:51:11.128935	55.2	34.6	-91.9	14.7
2025-01-18 08:51:12.293790	55.5	34.7	-91.8	18.8
2025-01-18 08:51:13.450620	55.9	34.9	-92.0	15.5
2025-01-18 08:51:14.605176	56.2	35.1	-92.5	18.2
2025-01-18 08:51:15.761661	56.5	35.2	-92.4	19.8
2025-01-18 08:51:16.914492	56.9	35.4	-92.4	19.5
2025-01-18 08:51:18.068099	57.2	35.6	-91.9	17.8
2025-01-18 08:51:19.226714	57.6	35.8	-92.1	19.4
2025-01-18 08:51:20.388382	57.9	35.9	-92.1	16.4
2025-01-18 08:51:21.552748	58.3	36.1	-92.5	10.5
2025-01-18 08:51:22.711709	58.6	36.3	-92.2	16.0
2025-01-18 08:51:23.868353	59.0	36.4	-91.7	16.8
2025-01-18 08:51:25.023532	59.4	36.6	-92.2	10.7
2025-01-18 08:51:26.181394	59.8	36.8	-92.4	17.5
2025-01-18 08:51:27.347650	60.1	36.9	-91.8	20.2
2025-01-18 08:51:28.500466	60.5	37.1	-91.8	16.8
2025-01-18 08:51:29.656141	60.9	37.3	-92.2	21.1
2025-01-18 08:51:30.809675	61.3	37.4	-92.1	19.9
2025-01-18 08:51:31.974840	61.7	37.6	-92.1	19.9
2025-01-18 08:51:33.132826	62.1	37.8	-91.8	18.5
2025-01-18 08:51:34.298055	62.5	37.9	-92.2	21.1
2025-01-18 08:51:35.450045	62.9	38.1	-92.2	15.6
2025-01-18 08:51:36.613961	63.3	38.3	-91.8	14.5
2025-01-18 08:51:37.778641	63.7	38.4	-92.2	18.5
2025-01-18 08:51:38.937339	64.1	38.6	-92.2	14.2
2025-01-18 08:51:40.094693	64.5	38.8	-92.2	17.2
2025-01-18 08:51:41.247163	64.9	38.9	-92.1	19.7
2025-01-18 08:51:42.385794	65.4	39.1	-92.3	17.9
2025-01-18 08:51:43.520404	65.8	39.2	-92.2	15.7
2025-01-18 08:51:44.641056	66.2	39.4	-92.4	13.5
2025-01-18 08:51:45.760531	66.6	39.5	-92.1	17.5
2025-01-18 08:51:46.880455	67.1	39.7	-92.2	13.9
2025-01-18 08:51:48.002009	67.5	39.8	-92.2	10.5
2025-01-18 08:51:49.123547	67.9	40.0	-91.9	11.4
2025-01-18 08:51:50.243250	68.4	40.1	-92.0	17.3
2025-01-18 08:51:51.368364	68.8	40.3	-91.9	12.9
2025-01-18 08:51:52.505025	69.3	40.4	-92.3	9.9
2025-01-18 08:51:53.658405	69.7	40.6	-92.4	13.7
2025-01-18 08:51:54.825451	70.2	40.7	-92.4	17.7
2025-01-18 08:51:55.973626	70.7	40.8	-92.0	12.6
2025-01-18 08:51:57.140053	71.2	41.0	-92.3	17.1
2025-01-18 08:51:58.298663	71.7	41.1	-92.3	18.4
2025-01-18 08:51:59.467362	72.2	41.3	-92.3	17.6
2025-01-18 08:52:00.623961	72.6	41.4	-92.5	13.9
2025-01-18 08:52:01.783408	73.1	41.5	-92.7	16.3
2025-01-18 08:52:02.944889	73.6	41.7	-92.7	16.0
2025-01-18 08:52:04.105877	74.2	41.8	-92.4	13.0
2025-01-18 08:52:05.263277	74.7	41.9	-92.3	17.4
2025-01-18 08:52:06.424586	75.2	42.1	-92.4	13.1
2025-01-18 08:52:07.585861	75.7	42.2	-92.3	12.6
2025-01-18 08:52:08.738805	76.2	42.3	-91.6	16.6
2025-01-18 08:52:09.901267	76.7	42.4	-91.7	15.5
2025-01-18 08:52:11.061864	77.3	42.5	-91.0	13.0
2025-01-18 08:52:12.222907	77.8	42.7	-91.6	15.1
2025-01-18 08:52:13.386944	78.4	42.8	-91.3	17.6
2025-01-18 08:52:14.547705	78.9	42.9	-91.2	18.2
2025-01-18 08:52:15.713635	79.4	43.0	-91.7	18.7
2025-01-18 08:52:16.869635	80.0	43.1	-91.4	18.7
2025-01-18 08:52:18.020317	80.5	43.2	-91.4	15.5
2025-01-18 08:52:19.175692	81.1	43.3	-91.4	12.9
2025-01-18 08:52:20.331910	81.6	43.4	-91.1	15.4
2025-01-18 08:52:21.505618	82.2	43.5	-91.3	11.1
2025-01-18 08:52:22.657490	82.8	43.6	-91.6	11.7
2025-01-18 08:52:23.818540	83.3	43.7	-91.4	14.9
2025-01-18 08:52:24.980884	83.9	43.8	-92.3	9.5
2025-01-18 08:52:26.147531	84.5	43.8	-91.9	13.4
2025-01-18 08:52:27.297499	85.1	43.9	-91.9	18.0
2025-01-18 08:52:28.456287	85.7	44.0	-92.1	11.2
2025-01-18 08:52:29.615758	86.2	44.1	-92.0	9.0
2025-01-18 08:52:30.780641	86.8	44.1	-92.2	17.4
2025-01-18 08:52:31.938067	87.4	44.2	-92.1	11.7
2025-01-18 08:52:33.087208	88.0	44.3	-92.3	13.2
2025-01-18 08:52:34.245900	88.6	44.3	-92.4	14.0
2025-01-18 08:52:35.407320	89.2	44.4	-92.4	10.3
2025-01-18 08:52:36.565543	89.8	44.5	-92.3	14.0
2025-01-18 08:52:37.720742	90.4	44.5	-92.3	16.4
2025-01-18 08:52:38.881569	91.0	44.6	-92.2	17.6
2025-01-18 08:52:40.046484	91.6	44.6	-92.2	12.9
2025-01-18 08:52:41.205434	92.2	44.6	-92.0	20.6
2025-01-18 08:52:42.363722	92.8	44.7	-92.4	19.4
2025-01-18 08:52:43.521239	93.4	44.7	-92.2	16.0
2025-01-18 08:52:44.683885	94.0	44.8	-92.0	17.1
2025-01-18 08:52:45.844667	94.6	44.8	-92.1	14.1
2025-01-18 08:52:47.004467	95.3	44.8	-92.3	14.0
2025-01-18 08:52:48.165010	95.9	44.8	-92.0	13.4
2025-01-18 08:52:49.318445	96.5	44.8	-92.0	19.6
2025-01-18 08:52:50.491136	97.1	44.9	-92.0	8.8
2025-01-18 08:52:51.640836	97.7	44.9	-91.9	12.9
2025-01-18 08:52:52.801036	98.3	44.9	-92.3	15.9
2025-01-18 08:52:53.961940	98.9	44.9	-92.3	11.1
2025-01-18 08:52:55.129041	99.6	44.9	-92.0	9.9
2025-01-18 08:52:56.293217	100.2	44.9	-92.6	16.0
2025-01-18 08:52:57.447563	100.8	44.9	-92.1	8.0
2025-01-18 08:52:58.600215	101.4	44.9	-92.3	8.1
2025-01-18 08:52:59.756930	102.0	44.8	-92.1	12.4
2025-01-18 08:53:00.878681	102.6	44.8	-92.4	11.7
2025-01-18 08:53:01.998793	103.2	44.8	-92.2	11.1
2025-01-18 08:53:03.119929	103.8	44.8	-92.1	9.9
2025-01-18 08:53:04.242198	104.4	44.8	-91.9	11.7
2025-01-18 08:53:05.361547	105.0	44.7	-91.9	9.0
2025-01-18 08:53:06.482806	105.6	44.7	-92.1	13.7
2025-01-18 08:53:07.603407	106.2	44.7	-92.4	9.8
2025-01-18 08:53:08.727380	106.7	44.6	-92.1	14.6
2025-01-18 08:53:09.847571	107.3	44.6	-92.0	19.5
2025-01-18 08:53:10.990458	107.9	44.5	-92.5	17.8
2025-01-18 08:53:12.130372	108.5	44.5	-92.1	16.4
2025-01-18 08:53:13.277875	109.1	44.4	-92.3	16.5
2025-01-18 08:53:14.435365	109.7	44.4	-91.4	13.8
2025-01-18 08:53:15.589152	110.3	44.3	-91.5	17.8
2025-01-18 08:53:16.742896	110.9	44.2	-91.5	19.4
2025-01-18 08:53:17.902043	111.5	44.2	-91.6	19.7
2025-01-18 08:53:19.056966	112.1	44.1	-91.7	18.6
2025-01-18 08:53:20.218238	112.6	44.0	-91.2	17.5
2025-01-18 08:53:21.370536	113.2	43.9	-90.8	19.2
2025-01-18 08:53:22.530786	113.8	43.9	-90.9	19.4
2025-01-18 08:53:23.692398	114.4	43.8	-91.1	20.3
2025-01-18 08:53:24.853995	115.0	43.7	-91.6	19.0
2025-01-18 08:53:26.016500	115.5	43.6	-91.3	20.1
2025-01-18 08:53:27.178899	116.1	43.5	-90.9	20.8
2025-01-18 08:53:28.335088	116.7	43.4	-91.5	21.0
2025-01-18 08:53:29.497297	117.2	43.3	-91.6	18.9
2025-01-18 08:53:30.661008	117.8	43.2	-91.6	20.0
2025-01-18 08:53:31.821989	118.3	43.1	-92.5	19.8
2025-01-18 08:53:32.979624	118.9	43.0	-92.4	20.8
2025-01-18 08:53:34.139009	119.4	42.9	-92.4	17.9
2025-01-18 08:53:35.300867	120.0	42.8	-92.6	18.9
2025-01-18 08:53:36.465549	120.5	42.7	-92.5	20.2
2025-01-18 08:53:37.623581	121.1	42.6	-92.4	20.0
2025-01-18 08:53:38.779138	121.6	42.4	-92.4	18.4
2025-01-18 08:53:39.934463	122.1	42.3	-92.6	18.8
2025-01-18 08:53:41.092839	122.6	42.2	-92.3	18.8
2025-01-18 08:53:42.243700	123.2	42.1	-92.1	19.2
2025-01-18 08:53:43.402454	123.7	41.9	-92.4	17.6
2025-01-18 08:53:44.566191	124.2	41.8	-92.3	17.0
2025-01-18 08:53:45.725966	124.7	41.7	-92.3	15.5
2025-01-18 08:53:46.882237	125.2	41.5	-92.2	16.7
2025-01-18 08:53:48.037518	125.7	41.4	-92.1	19.1
2025-01-18 08:53:49.194083	126.2	41.3	-91.9	19.3
2025-01-18 08:53:50.359655	126.7	41.1	-92.0	18.9
2025-01-18 08:53:51.520141	127.2	41.0	-92.4	17.7
2025-01-18 08:53:52.682503	127.7	40.9	-92.7	18.4
2025-01-18 08:53:53.845342	128.1	40.7	-92.4	18.4
2025-01-18 08:53:55.006363	128.6	40.6	-92.4	18.5
2025-01-18 08:53:56.165501	129.1	40.4	-92.3	17.9
2025-01-18 08:53:57.325600	129.6	40.3	-92.1	18.0
2025-01-18 08:53:58.484392	130.0	40.1	-92.3	15.8
2025-01-18 08:53:59.645158	130.5	40.0	-92.4	14.8
2025-01-18 08:54:00.797592	130.9	39.8	-92.3	14.8
2025-01-18 08:54:01.952937	131.4	39.7	-92.5	14.8
2025-01-18 08:54:03.083646	131.8	39.5	-92.2	15.8
2025-01-18 08:54:04.204694	132.2	39.4	-92.1	18.9
2025-01-18 08:54:05.325521	132.7	39.2	-92.1	20.8
2025-01-18 08:54:06.445639	133.1	39.0	-92.5	14.8
2025-01-18 08:54:07.566966	133.5	38.9	-92.1	13.6
2025-01-18 08:54:08.687547	133.9	38.7	-92.2	17.9
2025-01-18 08:54:09.808084	134.3	38.6	-92.3	18.4
2025-01-18 08:54:10.933111	134.7	38.4	-92.4	13.5
2025-01-18 08:54:12.053926	135.1	38.3	-92.4	11.0
2025-01-18 08:54:13.205971	135.5	38.1	-92.2	19.0
2025-01-18 08:54:14.367650	135.9	37.9	-92.2	16.1
2025-01-18 08:54:15.521384	136.3	37.8	-92.2	11.1
2025-01-18 08:54:16.667785	136.7	37.6	-91.9	17.1
2025-01-18 08:54:17.829351	137.1	37.4	-92.2	16.6
2025-01-18 08:54:18.993369	137.5	37.3	-92.4	11.3
2025-01-18 08:54:20.153801	137.9	37.1	-92.3	17.1
2025-01-18 08:54:21.315810	138.3	36.9	-92.3	16.8
2025-01-18 08:54:22.473128	138.7	36.8	-92.3	13.5
2025-01-18 08:54:23.636594	139.0	36.6	-92.3	15.7
2025-01-18 08:54:24.800218	139.4	36.4	-92.2	20.9
2025-01-18 08:54:25.964742	139.8	36.2	-91.8	17.0
2025-01-18 08:54:27.117052	140.1	36.1	-92.3	15.9
2025-01-18 08:54:28.274494	140.5	35.9	-92.3	18.7
2025-01-18 08:54:29.433758	140.9	35.7	-92.6	16.5
2025-01-18 08:54:30.602744	141.2	35.6	-91.9	15.6
2025-01-18 08:54:31.763134	141.6	35.4	-92.2	18.1
2025-01-18 08:54:32.916183	141.9	35.2	-92.3	17.9
2025-01-18 08:54:34.068390	142.3	35.0	-92.6	17.6
2025-01-18 08:54:35.226087	142.6	34.9	-92.6	15.9
2025-01-18 08:54:36.383695	142.9	34.7	-92.3	16.1
2025-01-18 08:54:37.558680	143.3	34.5	-92.6	16.6
2025-01-18 08:54:38.708103	143.6	34.4	-92.7	16.4
2025-01-18 08:54:39.871735	143.9	34.2	-92.5	16.7
2025-01-18 08:54:41.022906	144.2	34.0	-92.4	12.6
2025-01-18 08:54:42.182084	144.5	33.8	-91.9	12.4
2025-01-18 08:54:43.335307	144.9	33.7	-92.2	12.0
2025-01-18 08:54:44.499297	145.2	33.5	-92.6	10.3
2025-01-18 08:54:45.657696	145.5	33.3	-92.3	9.9
2025-01-18 08:54:46.812277	145.8	33.1	-92.4	10.9
2025-01-18 08:54:47.970000	146.1	33.0	-92.7	4.6
2025-01-18 08:54:49.132910	146.4	32.8	-92.2	7.6
2025-01-18 08:54:50.287361	146.7	32.6	-92.1	8.9
2025-01-18 08:54:51.447647	147.0	32.4	-92.6	6.2
2025-01-18 08:54:52.613099	147.3	32.3	-92.6	7.9
2025-01-18 08:54:53.773345	147.5	32.1	-92.5	12.4
2025-01-18 08:54:54.936206	147.8	31.9	-92.5	12.1
2025-01-18 08:54:56.092654	148.1	31.8	-92.3	12.2
2025-01-18 08:54:57.244819	148.4	31.6	-92.5	15.1
2025-01-18 08:54:58.401897	148.7	31.4	-92.3	10.9
2025-01-18 08:54:59.563619	148.9	31.2	-92.0	12.2
2025-01-18 08:55:00.717421	149.2	31.1	-92.3	12.5
2025-01-18 08:55:01.876928	149.5	30.9	-92.4	12.2
2025-01-18 08:55:03.033936	149.7	30.7	-92.0	13.7
2025-01-18 08:55:04.191687	150.0	30.6	-91.9	12.2
2025-01-18 08:55:05.346388	150.2	30.4	-92.1	11.0
2025-01-18 08:55:06.508713	150.5	30.2	-92.2	9.0
2025-01-18 08:55:07.670278	150.8	30.1	-92.3	9.7
2025-01-18 08:55:08.829372	151.0	29.9	-92.2	7.8
2025-01-18 08:55:09.984563	151.3	29.7	-92.3	5.9
2025-01-18 08:55:11.144167	151.5	29.6	-92.0	7.0
2025-01-18 08:55:12.305404	151.7	29.4	-92.0	10.4
2025-01-18 08:55:13.481930	152.0	29.2	-92.3	6.6
2025-01-18 08:55:14.637582	152.2	29.1	-92.2	9.2
2025-01-18 08:55:15.796774	152.5	28.9	-92.3	10.1
2025-01-18 08:55:16.955046	152.7	28.7	-92.5	7.2
2025-01-18 08:55:18.114343	152.9	28.6	-92.4	6.8
2025-01-18 08:55:19.267278	153.2	28.4	-92.0	9.3
2025-01-18 08:55:20.427123	153.4	28.2	-92.4	11.1
2025-01-18 08:55:21.592989	153.6	28.1	-92.6	12.1
2025-01-18 08:55:22.745749	153.8	27.9	-92.3	12.3
2025-01-18 08:55:23.903943	154.0	27.7	-92.3	13.1
2025-01-18 08:55:25.080224	154.3	27.6	-92.4	12.9
2025-01-18 08:55:26.238311	154.5	27.4	-92.4	12.7
2025-01-18 08:55:27.399367	154.7	27.3	-92.5	9.7
2025-01-18 08:55:28.551237	154.9	27.1	-92.5	10.0
2025-01-18 08:55:29.711403	155.1	26.9	-92.7	11.8
2025-01-18 08:55:30.870683	155.3	26.8	-92.3	8.9
2025-01-18 08:55:32.033989	155.5	26.6	-92.5	5.7
2025-01-18 08:55:33.191384	155.7	26.5	-92.5	10.2
2025-01-18 08:55:34.351459	155.9	26.3	-92.2	11.9
2025-01-18 08:55:35.513110	156.1	26.1	-92.5	9.3
2025-01-18 08:55:36.666312	156.3	26.0	-91.5	11.4
2025-01-18 08:55:37.827311	156.5	25.8	-92.4	15.0
2025-01-18 08:55:38.983154	156.7	25.7	-92.5	13.1
2025-01-18 08:55:40.152733	156.9	25.5	-92.2	14.6
2025-01-18 08:55:41.305315	157.1	25.4	-92.3	15.6
2025-01-18 08:55:42.469077	157.3	25.2	-92.2	12.9
2025-01-18 08:55:43.630221	157.5	25.1	-92.3	12.4
2025-01-18 08:55:44.787272	157.7	24.9	-92.4	10.4
2025-01-18 08:55:45.948877	157.9	24.8	-92.5	9.6
2025-01-18 08:55:47.103015	158.0	24.6	-92.2	9.6
2025-01-18 08:55:48.254400	158.2	24.5	-92.2	12.0
2025-01-18 08:55:49.413410	158.4	24.3	-92.4	7.9
2025-01-18 08:55:50.570769	158.6	24.2	-92.2	7.5
2025-01-18 08:55:51.719626	158.7	24.0	-92.1	11.8
2025-01-18 08:55:52.879788	158.9	23.9	-92.4	11.7
2025-01-18 08:55:54.039764	159.1	23.7	-92.3	8.2
2025-01-18 08:55:55.201365	159.3	23.6	-92.0	12.2
2025-01-18 08:55:56.362555	159.4	23.4	-92.1	12.5
2025-01-18 08:55:57.515548	159.6	23.3	-92.4	11.1
2025-01-18 08:55:58.669255	159.8	23.1	-92.4	14.1
2025-01-18 08:55:59.836365	159.9	23.0	-92.2	11.3
2025-01-18 08:56:00.992472	160.1	22.8	-92.0	8.8
2025-01-18 08:56:02.156082	160.3	22.7	-92.5	9.9
2025-01-18 08:56:03.320141	160.4	22.5	-92.6	7.7
2025-01-18 08:56:04.484254	160.6	22.4	-92.7	7.0
2025-01-18 08:56:05.644876	160.7	22.3	-92.5	9.3
2025-01-18 08:56:06.801219	160.9	22.1	-92.4	9.1
2025-01-18 08:56:07.958117	161.0	22.0	-92.4	9.2
2025-01-18 08:56:09.118966	161.2	21.8	-92.4	7.3
2025-01-18 08:56:10.280129	161.3	21.7	-92.1	11.9
2025-01-18 08:56:11.443402	161.5	21.6	-92.2	7.4
2025-01-18 08:56:12.600967	161.6	21.4	-92.9	9.2
2025-01-18 08:56:13.757172	161.8	21.3	-92.6	13.5
2025-01-18 08:56:14.919705	161.9	21.1	-92.6	12.3
2025-01-18 08:56:16.080957	162.1	21.0	-92.4	11.7
2025-01-18 08:56:17.238329	162.2	20.9	-92.5	12.2
2025-01-18 08:56:18.400102	162.4	20.7	-92.5	9.1
2025-01-18 08:56:19.560117	162.5	20.6	-92.8	9.2
2025-01-18 08:56:20.723743	162.7	20.5	-92.7	10.2
2025-01-18 08:56:21.879937	162.8	20.3	-92.9	8.3
2025-01-18 08:56:23.036586	162.9	20.2	-93.0	8.7
2025-01-18 08:56:24.199302	163.1	20.1	-92.7	8.6
2025-01-18 08:56:25.356063	163.2	19.9	-92.5	6.5
2025-01-18 08:56:26.508256	163.3	19.8	-92.7	5.9
2025-01-18 08:56:27.669632	163.5	19.7	-92.6	8.7
2025-01-18 08:56:28.822348	163.6	19.5	-92.3	6.8
2025-01-18 08:56:29.982179	163.7	19.4	-92.7	5.9
2025-01-18 08:56:31.143363	163.9	19.3	-92.5	7.8
2025-01-18 08:56:32.299284	164.0	19.1	-92.2	8.4
2025-01-18 08:56:33.455963	164.1	19.0	-92.1	5.3
2025-01-18 08:56:34.625373	164.3	18.9	-92.3	6.5
2025-01-18 08:56:35.784087	164.4	18.8	-92.6	10.2
2025-01-18 08:56:36.945840	164.5	18.6	-92.5	10.7
2025-01-18 08:56:38.100024	164.6	18.5	-92.2	7.6
2025-01-18 08:56:39.253280	164.8	18.4	-92.2	9.7
2025-01-18 08:56:40.417076	164.9	18.3	-92.3	8.0
2025-01-18 08:56:41.577406	165.0	18.1	-92.4	6.8
2025-01-18 08:56:42.739297	165.1	18.0	-92.6	8.4
2025-01-18 08:56:43.894687	165.2	17.9	-92.5	6.9
2025-01-18 08:56:45.054600	165.4	17.8	-92.7	3.6
2025-01-18 08:56:46.210172	165.5	17.6	-92.2	5.7
2025-01-18 08:56:47.371782	165.6	17.5	-92.2	4.4
2025-01-18 08:56:48.533548	165.7	17.4	-92.5	5.9
2025-01-18 08:56:49.694554	165.8	17.3	-92.9	5.5
2025-01-18 08:56:50.855270	165.9	17.1	-92.8	8.3
2025-01-18 08:56:52.019407	166.1	17.0	-92.6	7.5
2025-01-18 08:56:53.183295	166.2	16.9	-92.6	8.0
2025-01-18 08:56:54.347195	166.3	16.8	-92.3	6.0
2025-01-18 08:56:55.511577	166.4	16.7	-92.5	3.5
2025-01-18 08:56:56.672138	166.5	16.5	-92.8	6.1
2025-01-18 08:56:57.835868	166.6	16.4	-92.3	5.8
2025-01-18 08:56:58.991263	166.7	16.3	-92.5	3.9
2025-01-18 08:57:00.147246	166.8	16.2	-92.6	7.6
2025-01-18 08:57:01.311510	166.9	16.1	-92.4	7.1
2025-01-18 08:57:02.476432	167.0	16.0	-92.7	5.8
2025-01-18 08:57:03.631806	167.1	15.8	-92.0	6.5
2025-01-18 08:57:04.792808	167.3	15.7	-92.2	6.5
2025-01-18 08:57:05.956929	167.4	15.6	-92.5	6.8
2025-01-18 08:57:07.115239	167.5	15.5	-92.4	6.1
2025-01-18 08:57:08.281000	167.6	15.4	-92.6	6.7
2025-01-18 08:57:09.439953	167.7	15.3	-92.4	5.3
2025-01-18 08:57:10.602373	167.8	15.1	-92.7	3.6
2025-01-18 08:57:11.761491	167.9	15.0	-92.6	5.6
2025-01-18 08:57:12.920627	168.0	14.9	-92.9	4.1
2025-01-18 08:57:14.082662	168.1	14.8	-92.8	4.3
2025-01-18 08:57:15.243201	168.2	14.7	-92.4	7.1
2025-01-18 08:57:16.395752	168.3	14.6	-92.3	6.7
#Closed at: 2025-01-18 08:48:39.390163