passes_logs/2025/01/18/LEX_Murmansk/LEX_Murmansk__20250118_164341_NOAA_19_rec.log

#Pass ID: 20250118_164341_NOAA 19
#Satellite: NOAA 19
#Configuration: NOAA 19
#Start time: 2025-01-18 16:43:36.888150

#LorettStation: 1.0.0 05.05.2024
#Station: LEX_Murmansk
#Location: 33.156738 lon 68.926811 lat
#TLE: 1 33591U 09005A   25018.04840605  .00000325  00000+0  19728-3 0  9997
#TLE: 2 33591  99.0190  81.8343 0014373  49.4310 310.8111 14.13261983821977

#Time	Az	El	Level	SNR
2025-01-18 16:43:49.060582	122.2	16.3	-90.8	6.2
2025-01-18 16:43:51.380676	122.1	16.5	-90.7	2.6
2025-01-18 16:43:53.703022	121.9	16.8	-90.5	2.4
2025-01-18 16:43:56.018650	121.8	17.0	-90.3	5.3
2025-01-18 16:43:58.332514	121.6	17.3	-90.2	7.0
2025-01-18 16:44:00.651459	121.5	17.6	-91.1	6.5
2025-01-18 16:44:02.971149	121.3	17.8	-90.4	9.7
2025-01-18 16:44:05.290406	121.2	18.1	-91.0	10.3
2025-01-18 16:44:07.620505	121.0	18.4	-91.0	4.2
2025-01-18 16:44:09.952910	120.9	18.6	-90.7	3.2
2025-01-18 16:44:12.269338	120.7	18.9	-90.4	7.8
2025-01-18 16:44:14.590541	120.5	19.2	-90.9	9.9
2025-01-18 16:44:16.911704	120.4	19.5	-91.2	6.0
2025-01-18 16:44:19.228377	120.2	19.7	-90.7	8.2
2025-01-18 16:44:21.549537	120.0	20.0	-90.6	10.6
2025-01-18 16:44:23.864862	119.8	20.3	-90.7	4.4
2025-01-18 16:44:26.183114	119.7	20.6	-90.5	4.0
2025-01-18 16:44:28.479426	119.5	20.9	-90.7	8.3
2025-01-18 16:44:30.720226	119.3	21.2	-91.1	12.1
2025-01-18 16:44:32.963121	119.1	21.5	-90.4	10.1
2025-01-18 16:44:35.209130	118.9	21.8	-90.5	9.4
2025-01-18 16:44:37.459030	118.7	22.1	-90.9	10.7
2025-01-18 16:44:39.765064	118.5	22.4	-90.9	6.7
2025-01-18 16:44:42.065457	118.3	22.7	-90.6	1.9
2025-01-18 16:44:44.373845	118.1	23.0	-90.6	6.5
2025-01-18 16:44:46.694229	117.9	23.3	-90.4	13.5
2025-01-18 16:44:49.022871	117.6	23.7	-90.1	8.3
2025-01-18 16:44:51.344975	117.4	24.0	-90.4	5.0
2025-01-18 16:44:53.671626	117.2	24.3	-90.6	10.8
2025-01-18 16:44:55.999552	116.9	24.7	-91.1	6.8
2025-01-18 16:44:58.322889	116.7	25.0	-90.5	2.8
2025-01-18 16:45:00.638312	116.4	25.3	-91.1	4.8
2025-01-18 16:45:02.955363	116.2	25.7	-91.1	6.0
2025-01-18 16:45:05.291724	115.9	26.0	-90.9	5.6
2025-01-18 16:45:07.619042	115.6	26.4	-91.0	4.4
2025-01-18 16:45:09.944091	115.4	26.7	-91.0	6.2
2025-01-18 16:45:12.269409	115.1	27.1	-91.0	0.0
2025-01-18 16:45:14.587286	114.8	27.5	-90.0	3.2
2025-01-18 16:45:16.917362	114.5	27.8	-89.9	1.6
2025-01-18 16:45:19.250770	114.2	28.2	-90.5	3.1
2025-01-18 16:45:21.577623	113.9	28.6	-90.5	2.3
2025-01-18 16:45:23.897011	113.6	29.0	-90.4	3.8
2025-01-18 16:45:26.221406	113.3	29.4	-90.5	2.8
2025-01-18 16:45:28.543945	112.9	29.8	-90.3	2.9
2025-01-18 16:45:30.837769	112.6	30.2	-90.5	2.5
2025-01-18 16:45:33.079126	112.3	30.5	-90.7	4.1
2025-01-18 16:45:35.322210	111.9	30.9	-90.9	3.3
2025-01-18 16:45:37.563632	111.6	31.3	-91.1	8.0
2025-01-18 16:45:39.806186	111.2	31.7	-90.9	14.2
2025-01-18 16:45:42.123295	110.8	32.1	-90.8	11.5
2025-01-18 16:45:44.436778	110.4	32.6	-91.1	8.7
2025-01-18 16:45:46.753780	110.0	33.0	-91.2	7.8
2025-01-18 16:45:49.079162	109.6	33.4	-91.4	12.6
2025-01-18 16:45:51.412317	109.2	33.9	-91.2	8.5
2025-01-18 16:45:53.731975	108.7	34.3	-90.9	1.9
2025-01-18 16:45:56.053624	108.3	34.7	-90.2	10.9
2025-01-18 16:45:58.366349	107.8	35.2	-90.5	13.7
2025-01-18 16:46:00.638183	107.4	35.6	-90.8	12.6
2025-01-18 16:46:02.946080	106.9	36.1	-90.7	8.1
2025-01-18 16:46:05.246577	106.4	36.5	-91.2	6.5
2025-01-18 16:46:07.572120	105.8	37.0	-90.8	14.3
2025-01-18 16:46:09.871563	105.3	37.4	-90.6	8.6
2025-01-18 16:46:12.192059	104.8	37.9	-90.9	1.9
2025-01-18 16:46:14.513051	104.2	38.4	-91.2	1.8
2025-01-18 16:46:16.835886	103.6	38.9	-91.1	5.1
2025-01-18 16:46:19.162775	103.0	39.3	-90.9	12.3
2025-01-18 16:46:21.469103	102.4	39.8	-91.3	8.3
2025-01-18 16:46:23.792555	101.8	40.3	-91.2	5.0
2025-01-18 16:46:26.124564	101.1	40.8	-90.9	5.5
2025-01-18 16:46:28.458075	100.4	41.3	-91.2	4.4
2025-01-18 16:46:30.781324	99.7	41.8	-91.3	6.5
2025-01-18 16:46:33.102515	99.0	42.3	-91.3	7.8
2025-01-18 16:46:35.430196	98.3	42.8	-91.2	6.1
2025-01-18 16:46:37.751806	97.5	43.3	-91.0	3.6
2025-01-18 16:46:40.077432	96.7	43.8	-91.2	12.0
2025-01-18 16:46:42.396581	95.9	44.2	-90.7	16.6
2025-01-18 16:46:44.726682	95.1	44.7	-91.0	12.2
2025-01-18 16:46:47.046739	94.2	45.2	-91.2	10.8
2025-01-18 16:46:49.377453	93.3	45.7	-91.0	10.1
2025-01-18 16:46:51.679909	92.4	46.2	-91.3	12.1
2025-01-18 16:46:53.922020	91.5	46.7	-91.3	11.7
2025-01-18 16:46:56.161944	90.5	47.2	-91.0	10.2
2025-01-18 16:46:58.403384	89.6	47.6	-90.8	3.7
2025-01-18 16:47:00.646121	88.5	48.1	-90.2	2.7
2025-01-18 16:47:02.946731	87.5	48.5	-90.4	3.6
2025-01-18 16:47:05.257699	86.4	49.0	-90.3	5.7
2025-01-18 16:47:07.570610	85.3	49.5	-90.5	7.6
2025-01-18 16:47:09.899275	84.1	49.9	-90.5	6.7
2025-01-18 16:47:12.220777	82.9	50.3	-90.4	5.3
2025-01-18 16:47:14.532824	81.6	50.8	-90.5	7.1
2025-01-18 16:47:16.852239	80.4	51.2	-90.8	6.2
2025-01-18 16:47:19.140559	79.1	51.6	-90.9	7.4
2025-01-18 16:47:21.426190	77.7	52.0	-90.7	11.6
2025-01-18 16:47:23.726491	76.4	52.4	-91.1	9.2
2025-01-18 16:47:26.056391	74.9	52.7	-91.0	9.2
2025-01-18 16:47:28.377536	73.5	53.1	-91.1	9.5
2025-01-18 16:47:30.676237	72.0	53.4	-91.0	6.3
2025-01-18 16:47:32.950600	70.5	53.7	-91.2	4.4
2025-01-18 16:47:35.251657	69.0	54.0	-90.3	5.4
2025-01-18 16:47:37.565497	67.4	54.3	-91.2	8.0
2025-01-18 16:47:39.890401	65.8	54.5	-90.8	8.4
2025-01-18 16:47:42.216103	64.2	54.8	-90.6	11.9
2025-01-18 16:47:44.528798	62.5	55.0	-91.1	15.0
2025-01-18 16:47:46.856349	60.8	55.2	-91.3	15.1
2025-01-18 16:47:49.183319	59.1	55.3	-90.9	11.5
2025-01-18 16:47:51.472175	57.4	55.5	-91.3	12.7
2025-01-18 16:47:53.753383	55.7	55.6	-91.1	8.9
2025-01-18 16:47:56.056507	53.9	55.7	-91.0	7.2
2025-01-18 16:47:58.360262	52.2	55.7	-91.1	8.9
2025-01-18 16:48:00.666677	50.4	55.7	-90.7	5.3
2025-01-18 16:48:03.008629	48.6	55.7	-90.5	7.3
2025-01-18 16:48:05.323643	46.9	55.7	-90.8	4.4
2025-01-18 16:48:07.656526	45.1	55.7	-90.2	5.8
2025-01-18 16:48:09.985604	43.3	55.6	-90.2	6.5
2025-01-18 16:48:12.314480	41.6	55.5	-89.7	10.6
2025-01-18 16:48:14.628509	39.8	55.4	-90.7	10.7
2025-01-18 16:48:16.949890	38.1	55.2	-90.4	11.7
2025-01-18 16:48:19.272785	36.4	55.0	-90.8	10.9
2025-01-18 16:48:21.595385	34.8	54.8	-91.0	9.6
2025-01-18 16:48:23.923146	33.1	54.6	-91.0	16.0
2025-01-18 16:48:26.250837	31.5	54.4	-90.6	17.8
2025-01-18 16:48:28.580281	29.9	54.1	-90.5	18.5
2025-01-18 16:48:30.909967	28.3	53.8	-90.8	17.5
2025-01-18 16:48:33.234569	26.8	53.5	-91.2	16.4
2025-01-18 16:48:35.563220	25.3	53.2	-91.1	16.4
2025-01-18 16:48:37.836633	23.9	52.8	-90.8	15.2
2025-01-18 16:48:40.078127	22.5	52.5	-91.1	15.8
2025-01-18 16:48:42.318929	21.1	52.1	-91.0	9.6
2025-01-18 16:48:44.561224	19.8	51.7	-91.3	12.4
2025-01-18 16:48:46.817398	18.5	51.4	-90.9	14.5
2025-01-18 16:48:49.146014	17.2	50.9	-90.8	4.3
2025-01-18 16:48:51.469923	16.0	50.5	-91.1	12.7
2025-01-18 16:48:53.790786	14.8	50.1	-91.0	8.3
2025-01-18 16:48:56.120557	13.6	49.6	-91.1	13.4
2025-01-18 16:48:58.451176	12.4	49.2	-90.6	14.7
2025-01-18 16:49:00.782046	11.3	48.7	-90.8	10.7
2025-01-18 16:49:03.119275	10.2	48.2	-90.0	12.5
2025-01-18 16:49:05.439603	9.2	47.8	-90.3	8.4
2025-01-18 16:49:07.767569	8.2	47.3	-90.2	4.4
2025-01-18 16:49:10.103501	7.2	46.8	-90.7	10.3
2025-01-18 16:49:12.424010	6.2	46.3	-90.7	8.2
2025-01-18 16:49:14.749034	5.3	45.8	-90.5	5.7
2025-01-18 16:49:17.059013	4.4	45.4	-90.6	8.5
2025-01-18 16:49:19.376274	3.5	44.9	-90.9	8.1
2025-01-18 16:49:21.704141	2.7	44.4	-91.0	6.9
2025-01-18 16:49:24.047827	1.9	43.9	-90.9	12.4
2025-01-18 16:49:26.369405	1.1	43.4	-91.1	12.4
2025-01-18 16:49:28.708486	0.3	42.9	-90.9	18.2
2025-01-18 16:49:31.033990	359.6	42.4	-91.1	18.4
2025-01-18 16:49:33.359828	358.8	41.9	-91.0	18.2
2025-01-18 16:49:35.678517	358.1	41.4	-91.4	14.6
2025-01-18 16:49:38.004535	357.5	40.9	-90.8	12.1
2025-01-18 16:49:40.328859	356.8	40.4	-90.9	8.8
2025-01-18 16:49:42.654201	356.2	40.0	-90.2	9.1
2025-01-18 16:49:44.979140	355.6	39.5	-90.4	7.3
2025-01-18 16:49:47.303300	354.9	39.0	-90.7	5.2
2025-01-18 16:49:49.638833	354.4	38.5	-90.6	10.1
2025-01-18 16:49:51.967668	353.8	38.1	-90.4	10.7
2025-01-18 16:49:54.286759	353.2	37.6	-90.4	9.4
2025-01-18 16:49:56.611277	352.7	37.1	-91.1	11.9
2025-01-18 16:49:58.942459	352.2	36.7	-91.2	10.9
2025-01-18 16:50:01.270052	351.7	36.2	-91.0	8.4
2025-01-18 16:50:03.568781	351.2	35.8	-91.5	6.6
2025-01-18 16:50:05.849816	350.7	35.3	-91.1	3.5
2025-01-18 16:50:08.172393	350.3	34.9	-90.7	3.0
2025-01-18 16:50:10.496650	349.8	34.4	-90.5	4.9
2025-01-18 16:50:12.828667	349.4	34.0	-90.4	4.6
2025-01-18 16:50:15.152624	348.9	33.6	-90.3	8.4
2025-01-18 16:50:17.483345	348.5	33.1	-91.3	7.2
2025-01-18 16:50:19.814486	348.1	32.7	-91.2	9.7
2025-01-18 16:50:22.139638	347.7	32.3	-91.1	10.2
2025-01-18 16:50:24.459441	347.3	31.9	-90.9	7.3
2025-01-18 16:50:26.787481	347.0	31.5	-90.8	5.7
2025-01-18 16:50:29.116408	346.6	31.0	-90.9	6.1
2025-01-18 16:50:31.439924	346.2	30.6	-90.4	8.6
2025-01-18 16:50:33.764958	345.9	30.2	-90.7	10.3
2025-01-18 16:50:36.097345	345.6	29.8	-90.5	10.5
2025-01-18 16:50:38.391220	345.2	29.5	-90.2	8.6
2025-01-18 16:50:40.632925	344.9	29.1	-91.1	8.2
2025-01-18 16:50:42.873723	344.6	28.7	-90.7	4.2
2025-01-18 16:50:45.114178	344.3	28.4	-90.4	3.4
2025-01-18 16:50:47.364874	344.0	28.0	-90.4	3.2
2025-01-18 16:50:49.685176	343.7	27.6	-90.8	7.0
2025-01-18 16:50:51.996497	343.4	27.3	-91.0	10.9
2025-01-18 16:50:54.314164	343.2	26.9	-90.9	9.9
2025-01-18 16:50:56.644359	342.9	26.5	-91.2	7.0
2025-01-18 16:50:58.970253	342.6	26.2	-91.1	5.9
2025-01-18 16:51:01.291264	342.4	25.8	-91.1	3.4
2025-01-18 16:51:03.620144	342.1	25.5	-91.1	8.7
2025-01-18 16:51:05.938689	341.9	25.2	-90.5	7.9
2025-01-18 16:51:08.270039	341.6	24.8	-90.7	12.0
2025-01-18 16:51:10.600775	341.4	24.5	-90.6	8.2
2025-01-18 16:51:12.929484	341.1	24.1	-90.9	8.1
2025-01-18 16:51:15.247668	340.9	23.8	-90.8	3.7
2025-01-18 16:51:17.571933	340.7	23.5	-90.6	5.3
2025-01-18 16:51:19.897586	340.5	23.2	-91.1	4.9
2025-01-18 16:51:22.202017	340.3	22.9	-90.1	7.6
2025-01-18 16:51:24.444687	340.1	22.6	-89.7	9.6
2025-01-18 16:51:26.687476	339.9	22.3	-89.9	9.6
2025-01-18 16:51:28.928600	339.7	22.0	-89.7	7.6
2025-01-18 16:51:31.173463	339.5	21.7	-89.9	4.0
2025-01-18 16:51:33.425860	339.3	21.4	-90.6	6.8
2025-01-18 16:51:35.725582	339.1	21.1	-90.5	4.8
2025-01-18 16:51:38.021004	338.9	20.8	-90.5	6.7
2025-01-18 16:51:40.334674	338.7	20.5	-90.3	4.6
2025-01-18 16:51:42.622225	338.5	20.2	-90.6	4.4
2025-01-18 16:51:44.905158	338.4	19.9	-90.0	1.8
2025-01-18 16:51:47.227113	338.2	19.7	-90.0	1.1
2025-01-18 16:51:49.544511	338.0	19.4	-90.2	3.0
2025-01-18 16:51:51.871503	337.9	19.1	-90.0	2.2
2025-01-18 16:51:54.208252	337.7	18.8	-90.4	4.4
2025-01-18 16:51:56.534463	337.5	18.5	-90.4	4.5
2025-01-18 16:51:58.858827	337.4	18.3	-90.5	3.2
2025-01-18 16:52:01.176630	337.2	18.0	-90.4	2.2
2025-01-18 16:52:03.507125	337.1	17.7	-90.5	2.9
2025-01-18 16:52:05.836657	336.9	17.5	-91.3	4.7
2025-01-18 16:52:08.169221	336.8	17.2	-90.5	2.9
2025-01-18 16:52:10.486336	336.6	17.0	-90.7	2.3
2025-01-18 16:52:12.768158	336.5	16.7	-91.0	2.6
2025-01-18 16:52:15.026605	336.4	16.5	-91.1	0.3
2025-01-18 16:52:17.319913	336.2	16.2	-90.5	1.6
2025-01-18 16:52:19.636161	336.1	16.0	-90.9	3.1
2025-01-18 16:52:21.943319	336.0	15.7	-91.3	4.2
2025-01-18 16:52:24.268267	335.8	15.5	-90.4	1.2
2025-01-18 16:52:26.592626	335.7	15.3	-91.0	2.2
2025-01-18 16:52:28.921589	335.6	15.0	-90.1	3.7
2025-01-18 16:52:31.235981	335.5	14.8	-90.9	3.6
2025-01-18 16:52:33.555786	335.3	14.6	-90.9	1.5
#Closed at: 2025-01-18 16:43:41.872760