passes_logs/2025/01/18/LEX_Murmansk/LEX_Murmansk__20250118_121012_NOAA_18_rec.log

#Pass ID: 20250118_121012_NOAA 18
#Satellite: NOAA 18
#Configuration: NOAA 18
#Start time: 2025-01-18 12:10:07.020356

#LorettStation: 1.0.0 05.05.2024
#Station: LEX_Murmansk
#Location: 33.156738 lon 68.926811 lat
#TLE: 1 28654U 05018A   25017.14480960  .00000361  00000+0  21486-3 0  9999
#TLE: 2 28654  98.8562  98.1779 0014463 173.1209 187.0164 14.13488310 13483

#Time	Az	El	Level	SNR
2025-01-18 12:10:19.270510	23.5	16.1	-91.1	5.3
2025-01-18 12:10:20.433415	23.3	16.2	-90.9	6.7
2025-01-18 12:10:21.590633	23.2	16.3	-91.0	6.7
2025-01-18 12:10:22.745097	23.1	16.4	-90.9	4.4
2025-01-18 12:10:23.912029	22.9	16.6	-91.1	3.1
2025-01-18 12:10:25.077551	22.8	16.7	-91.1	3.6
2025-01-18 12:10:26.231926	22.7	16.8	-91.0	6.4
2025-01-18 12:10:27.393472	22.5	16.9	-91.1	4.2
2025-01-18 12:10:28.557152	22.4	17.0	-91.2	6.0
2025-01-18 12:10:29.722416	22.2	17.1	-91.1	5.1
2025-01-18 12:10:30.878641	22.1	17.2	-90.9	5.6
2025-01-18 12:10:32.041488	22.0	17.3	-91.1	4.7
2025-01-18 12:10:33.197085	21.8	17.4	-91.0	6.2
2025-01-18 12:10:34.369090	21.7	17.6	-90.9	5.2
2025-01-18 12:10:35.528520	21.5	17.7	-91.0	4.7
2025-01-18 12:10:36.700132	21.4	17.8	-91.1	8.7
2025-01-18 12:10:37.866578	21.2	17.9	-91.0	10.2
2025-01-18 12:10:39.032570	21.1	18.0	-91.3	10.7
2025-01-18 12:10:40.197360	20.9	18.1	-91.3	11.2
2025-01-18 12:10:41.361047	20.8	18.2	-90.9	12.1
2025-01-18 12:10:42.527560	20.6	18.4	-91.3	4.8
2025-01-18 12:10:43.689870	20.5	18.5	-91.5	9.7
2025-01-18 12:10:44.854134	20.3	18.6	-91.3	12.9
2025-01-18 12:10:46.007888	20.2	18.7	-91.1	8.1
2025-01-18 12:10:47.174047	20.0	18.8	-91.0	13.5
2025-01-18 12:10:48.338414	19.8	18.9	-91.2	14.7
2025-01-18 12:10:49.493827	19.7	19.0	-91.3	10.5
2025-01-18 12:10:50.653670	19.5	19.2	-91.0	14.0
2025-01-18 12:10:51.815868	19.4	19.3	-91.1	13.0
2025-01-18 12:10:52.981558	19.2	19.4	-90.9	9.7
2025-01-18 12:10:54.144021	19.0	19.5	-90.9	12.1
2025-01-18 12:10:55.307725	18.9	19.6	-91.3	12.7
2025-01-18 12:10:56.465488	18.7	19.7	-91.1	13.7
2025-01-18 12:10:57.626699	18.5	19.9	-91.0	12.5
2025-01-18 12:10:58.790728	18.4	20.0	-91.3	12.3
2025-01-18 12:10:59.962453	18.2	20.1	-90.9	7.3
2025-01-18 12:11:01.123971	18.0	20.2	-91.0	6.0
2025-01-18 12:11:02.283946	17.8	20.3	-90.8	8.2
2025-01-18 12:11:03.447523	17.7	20.5	-90.7	6.4
2025-01-18 12:11:04.608130	17.5	20.6	-91.0	8.0
2025-01-18 12:11:05.772379	17.3	20.7	-91.3	9.9
2025-01-18 12:11:06.931458	17.1	20.8	-91.3	11.0
2025-01-18 12:11:08.096665	16.9	20.9	-91.3	9.9
2025-01-18 12:11:09.251396	16.8	21.1	-91.2	11.1
2025-01-18 12:11:10.406168	16.6	21.2	-91.3	8.7
2025-01-18 12:11:11.539144	16.4	21.3	-91.3	7.0
2025-01-18 12:11:12.659207	16.2	21.4	-91.5	9.9
2025-01-18 12:11:13.780045	16.0	21.5	-91.1	11.9
2025-01-18 12:11:14.900010	15.8	21.7	-91.1	11.2
2025-01-18 12:11:16.020490	15.7	21.8	-91.1	10.9
2025-01-18 12:11:17.142421	15.5	21.9	-91.3	9.8
2025-01-18 12:11:18.262725	15.3	22.0	-91.0	7.3
2025-01-18 12:11:19.388164	15.1	22.1	-91.3	6.2
2025-01-18 12:11:20.524622	14.9	22.3	-90.9	5.0
2025-01-18 12:11:21.669921	14.7	22.4	-91.1	7.9
2025-01-18 12:11:22.822418	14.5	22.5	-90.9	9.6
2025-01-18 12:11:23.992088	14.3	22.6	-91.1	5.0
2025-01-18 12:11:25.153849	14.1	22.7	-91.3	11.3
2025-01-18 12:11:26.304861	13.9	22.9	-91.3	11.4
2025-01-18 12:11:27.469307	13.7	23.0	-91.5	13.3
2025-01-18 12:11:28.629379	13.5	23.1	-91.3	12.4
2025-01-18 12:11:29.792249	13.3	23.2	-91.1	11.1
2025-01-18 12:11:30.952863	13.0	23.4	-91.0	8.0
2025-01-18 12:11:32.112990	12.8	23.5	-90.9	11.2
2025-01-18 12:11:33.273494	12.6	23.6	-91.3	15.2
2025-01-18 12:11:34.441339	12.4	23.7	-91.3	13.9
2025-01-18 12:11:35.603103	12.2	23.9	-91.4	12.6
2025-01-18 12:11:36.764868	12.0	24.0	-91.2	12.0
2025-01-18 12:11:37.925924	11.7	24.1	-91.3	8.6
2025-01-18 12:11:39.096199	11.5	24.3	-91.5	6.2
2025-01-18 12:11:40.256402	11.3	24.4	-91.3	11.1
2025-01-18 12:11:41.414926	11.1	24.5	-91.5	5.9
2025-01-18 12:11:42.578675	10.8	24.6	-91.5	7.2
2025-01-18 12:11:43.738132	10.6	24.8	-91.3	10.5
2025-01-18 12:11:44.906641	10.4	24.9	-91.1	9.0
2025-01-18 12:11:46.067663	10.1	25.0	-91.1	11.4
2025-01-18 12:11:47.227444	9.9	25.1	-90.9	12.2
2025-01-18 12:11:48.392484	9.6	25.3	-91.0	12.2
2025-01-18 12:11:49.553220	9.4	25.4	-91.4	8.8
2025-01-18 12:11:50.712375	9.1	25.5	-91.6	9.2
2025-01-18 12:11:51.873160	8.9	25.6	-91.7	10.6
2025-01-18 12:11:53.034850	8.7	25.8	-91.6	8.6
2025-01-18 12:11:54.197937	8.4	25.9	-91.4	12.7
2025-01-18 12:11:55.359155	8.2	26.0	-91.7	9.4
2025-01-18 12:11:56.519493	7.9	26.2	-91.4	10.4
2025-01-18 12:11:57.683362	7.6	26.3	-91.6	8.6
2025-01-18 12:11:58.836721	7.4	26.4	-91.2	8.3
2025-01-18 12:11:59.999033	7.1	26.5	-90.9	5.8
2025-01-18 12:12:01.153641	6.9	26.7	-91.3	8.1
2025-01-18 12:12:02.332462	6.6	26.8	-91.0	9.9
2025-01-18 12:12:03.492723	6.3	26.9	-91.3	4.2
2025-01-18 12:12:04.659962	6.1	27.0	-91.4	7.9
2025-01-18 12:12:05.818169	5.8	27.2	-91.8	8.0
2025-01-18 12:12:06.975063	5.5	27.3	-91.4	7.2
2025-01-18 12:12:08.134153	5.2	27.4	-91.0	8.9
2025-01-18 12:12:09.297331	5.0	27.5	-91.3	8.9
2025-01-18 12:12:10.466522	4.7	27.7	-91.7	11.8
2025-01-18 12:12:11.623425	4.4	27.8	-91.7	9.1
2025-01-18 12:12:12.787032	4.1	27.9	-91.8	11.3
2025-01-18 12:12:13.947667	3.8	28.0	-91.6	7.2
2025-01-18 12:12:15.111419	3.5	28.2	-91.6	4.8
2025-01-18 12:12:16.273493	3.2	28.3	-91.4	10.0
2025-01-18 12:12:17.433823	2.9	28.4	-91.4	8.0
2025-01-18 12:12:18.590047	2.7	28.5	-91.7	10.2
2025-01-18 12:12:19.753331	2.4	28.7	-91.6	10.4
2025-01-18 12:12:20.913628	2.1	28.8	-91.4	9.1
2025-01-18 12:12:22.072832	1.8	28.9	-91.4	8.1
2025-01-18 12:12:23.238104	1.4	29.0	-91.1	10.6
2025-01-18 12:12:24.409194	1.1	29.1	-91.2	9.3
2025-01-18 12:12:25.571533	0.8	29.3	-91.3	7.2
2025-01-18 12:12:26.727583	0.5	29.4	-91.4	8.9
2025-01-18 12:12:27.892818	0.2	29.5	-91.5	8.7
2025-01-18 12:12:29.054851	359.9	29.6	-91.3	6.4
2025-01-18 12:12:30.222458	359.6	29.8	-91.3	7.2
2025-01-18 12:12:31.386689	359.2	29.9	-91.0	6.2
2025-01-18 12:12:32.554988	358.9	30.0	-91.3	11.2
2025-01-18 12:12:33.713706	358.6	30.1	-91.0	11.9
2025-01-18 12:12:34.875678	358.3	30.2	-90.9	10.1
2025-01-18 12:12:36.033728	357.9	30.3	-91.0	11.7
2025-01-18 12:12:37.192949	357.6	30.5	-91.1	9.9
2025-01-18 12:12:38.361311	357.3	30.6	-91.4	8.0
2025-01-18 12:12:39.519707	356.9	30.7	-91.0	7.1
2025-01-18 12:12:40.683004	356.6	30.8	-91.0	7.5
2025-01-18 12:12:41.846736	356.2	30.9	-90.8	7.3
2025-01-18 12:12:43.012962	355.9	31.0	-91.0	5.1
2025-01-18 12:12:44.178956	355.5	31.1	-90.4	8.8
2025-01-18 12:12:45.339397	355.2	31.3	-90.9	7.7
2025-01-18 12:12:46.497548	354.8	31.4	-90.9	10.9
2025-01-18 12:12:47.665510	354.5	31.5	-90.7	8.7
2025-01-18 12:12:48.831665	354.1	31.6	-91.1	10.1
2025-01-18 12:12:49.996486	353.7	31.7	-91.2	5.5
2025-01-18 12:12:51.156973	353.4	31.8	-91.0	8.3
2025-01-18 12:12:52.314128	353.0	31.9	-91.0	11.0
2025-01-18 12:12:53.475049	352.7	32.0	-90.9	6.5
2025-01-18 12:12:54.636827	352.3	32.1	-90.9	6.7
2025-01-18 12:12:55.798514	351.9	32.2	-91.4	9.7
2025-01-18 12:12:56.957962	351.5	32.3	-91.5	5.7
2025-01-18 12:12:58.119189	351.2	32.4	-91.3	4.4
2025-01-18 12:12:59.279615	350.8	32.5	-91.4	10.3
2025-01-18 12:13:00.445862	350.4	32.6	-90.8	6.6
2025-01-18 12:13:01.605847	350.0	32.7	-91.4	12.0
2025-01-18 12:13:02.772972	349.6	32.8	-91.3	10.2
2025-01-18 12:13:03.931451	349.2	32.9	-91.3	12.8
2025-01-18 12:13:05.096920	348.8	33.0	-91.3	11.5
2025-01-18 12:13:06.252928	348.4	33.1	-91.3	8.8
2025-01-18 12:13:07.416585	348.0	33.2	-91.1	6.5
2025-01-18 12:13:08.577796	347.6	33.3	-91.4	6.6
2025-01-18 12:13:09.734095	347.3	33.4	-91.3	9.2
2025-01-18 12:13:10.893785	346.8	33.4	-91.0	10.4
2025-01-18 12:13:12.052341	346.4	33.5	-91.1	8.6
2025-01-18 12:13:13.210181	346.0	33.6	-91.3	12.8
2025-01-18 12:13:14.345061	345.6	33.7	-91.1	11.5
2025-01-18 12:13:15.465408	345.2	33.8	-90.8	9.5
2025-01-18 12:13:16.587428	344.8	33.9	-91.5	10.5
2025-01-18 12:13:17.706685	344.4	33.9	-91.1	14.2
2025-01-18 12:13:18.827598	344.0	34.0	-90.7	11.5
2025-01-18 12:13:19.950148	343.6	34.1	-90.9	9.6
2025-01-18 12:13:21.070481	343.2	34.1	-90.7	13.3
2025-01-18 12:13:22.189428	342.8	34.2	-90.8	12.4
2025-01-18 12:13:23.313073	342.4	34.3	-91.1	11.1
2025-01-18 12:13:24.466299	342.0	34.4	-90.8	7.8
2025-01-18 12:13:25.622922	341.6	34.4	-91.0	7.1
2025-01-18 12:13:26.782358	341.1	34.5	-90.8	13.9
2025-01-18 12:13:27.939967	340.7	34.6	-91.0	7.4
2025-01-18 12:13:29.093501	340.3	34.6	-91.0	5.0
2025-01-18 12:13:30.253484	339.8	34.7	-90.8	12.4
2025-01-18 12:13:31.414585	339.4	34.7	-90.9	6.7
2025-01-18 12:13:32.572607	339.0	34.8	-91.6	7.3
2025-01-18 12:13:33.735266	338.5	34.8	-91.4	11.2
2025-01-18 12:13:34.896419	338.1	34.9	-91.5	10.4
2025-01-18 12:13:36.057098	337.6	35.0	-91.2	14.6
2025-01-18 12:13:37.216801	337.2	35.0	-91.4	14.8
2025-01-18 12:13:38.379244	336.7	35.1	-91.3	12.8
2025-01-18 12:13:39.543761	336.3	35.1	-91.2	17.1
2025-01-18 12:13:40.707725	335.9	35.1	-91.0	17.4
2025-01-18 12:13:41.872905	335.4	35.2	-91.0	15.6
2025-01-18 12:13:43.033091	335.0	35.2	-91.2	16.1
2025-01-18 12:13:44.199001	334.5	35.3	-91.5	14.4
2025-01-18 12:13:45.363532	334.0	35.3	-91.5	9.6
2025-01-18 12:13:46.528139	333.6	35.3	-91.2	12.3
2025-01-18 12:13:47.687351	333.1	35.4	-91.0	12.8
2025-01-18 12:13:48.859161	332.7	35.4	-90.9	13.1
2025-01-18 12:13:50.025595	332.2	35.4	-91.2	10.6
2025-01-18 12:13:51.188025	331.8	35.5	-91.2	17.2
2025-01-18 12:13:52.353451	331.3	35.5	-90.8	16.2
2025-01-18 12:13:53.512125	330.8	35.5	-91.2	11.7
2025-01-18 12:13:54.670249	330.4	35.5	-91.5	15.1
2025-01-18 12:13:55.834903	329.9	35.5	-91.4	15.0
2025-01-18 12:13:56.999891	329.5	35.6	-91.1	9.6
2025-01-18 12:13:58.165473	329.0	35.6	-90.7	14.7
2025-01-18 12:13:59.325717	328.5	35.6	-91.1	10.7
2025-01-18 12:14:00.482646	328.1	35.6	-91.5	7.9
2025-01-18 12:14:01.644335	327.6	35.6	-91.7	15.7
2025-01-18 12:14:02.828209	327.1	35.6	-91.6	12.3
2025-01-18 12:14:03.987810	326.7	35.6	-91.4	11.9
2025-01-18 12:14:05.156187	326.2	35.6	-91.4	13.1
2025-01-18 12:14:06.319964	325.8	35.6	-91.5	12.2
2025-01-18 12:14:07.483989	325.3	35.6	-91.3	13.1
2025-01-18 12:14:08.647258	324.8	35.6	-91.1	14.5
2025-01-18 12:14:09.811329	324.4	35.6	-91.1	14.3
2025-01-18 12:14:10.979833	323.9	35.6	-91.2	13.8
2025-01-18 12:14:12.144137	323.4	35.6	-91.0	13.1
2025-01-18 12:14:13.310403	323.0	35.5	-91.3	11.0
2025-01-18 12:14:14.473140	322.5	35.5	-91.5	9.6
2025-01-18 12:14:15.635272	322.1	35.5	-91.3	6.9
2025-01-18 12:14:16.802767	321.6	35.5	-91.1	8.9
2025-01-18 12:14:17.960239	321.1	35.5	-91.0	10.8
2025-01-18 12:14:19.123737	320.7	35.4	-90.9	11.8
2025-01-18 12:14:20.290261	320.2	35.4	-90.7	9.0
2025-01-18 12:14:21.449945	319.8	35.4	-90.7	8.6
2025-01-18 12:14:22.613069	319.3	35.4	-90.8	11.3
2025-01-18 12:14:23.777692	318.9	35.3	-90.6	7.7
2025-01-18 12:14:24.942072	318.4	35.3	-90.6	7.4
2025-01-18 12:14:26.105902	317.9	35.3	-91.0	8.3
2025-01-18 12:14:27.267847	317.5	35.2	-91.2	10.9
2025-01-18 12:14:28.431811	317.0	35.2	-90.9	5.3
2025-01-18 12:14:29.595418	316.6	35.1	-91.5	5.7
2025-01-18 12:14:30.752629	316.1	35.1	-91.1	11.1
2025-01-18 12:14:31.921153	315.7	35.0	-91.4	8.5
2025-01-18 12:14:33.090877	315.2	35.0	-91.5	9.8
2025-01-18 12:14:34.255668	314.8	34.9	-91.5	11.0
2025-01-18 12:14:35.415893	314.4	34.9	-91.5	8.5
2025-01-18 12:14:36.582216	313.9	34.8	-91.5	5.3
2025-01-18 12:14:37.737959	313.5	34.8	-91.1	14.9
2025-01-18 12:14:38.902766	313.0	34.7	-91.5	8.8
2025-01-18 12:14:40.061260	312.6	34.7	-91.1	10.4
2025-01-18 12:14:41.225978	312.2	34.6	-90.6	11.2
2025-01-18 12:14:42.391675	311.7	34.5	-90.8	10.7
2025-01-18 12:14:43.552568	311.3	34.5	-90.8	6.3
2025-01-18 12:14:44.717946	310.9	34.4	-91.3	14.5
2025-01-18 12:14:45.874200	310.4	34.3	-91.3	12.5
2025-01-18 12:14:47.039013	310.0	34.3	-90.5	7.7
2025-01-18 12:14:48.203834	309.6	34.2	-90.8	13.3
2025-01-18 12:14:49.376144	309.1	34.1	-91.1	9.9
2025-01-18 12:14:50.538399	308.7	34.0	-91.5	8.3
2025-01-18 12:14:51.707047	308.3	34.0	-91.5	11.1
2025-01-18 12:14:52.873483	307.9	33.9	-91.3	9.9
2025-01-18 12:14:54.019091	307.5	33.8	-91.2	6.4
2025-01-18 12:14:55.174319	307.1	33.7	-91.2	16.6
2025-01-18 12:14:56.301297	306.7	33.6	-90.7	14.8
2025-01-18 12:14:57.422657	306.3	33.6	-91.2	8.2
2025-01-18 12:14:58.543613	305.9	33.5	-91.1	7.7
2025-01-18 12:14:59.664390	305.5	33.4	-91.5	11.1
2025-01-18 12:15:00.785041	305.1	33.3	-91.2	12.1
2025-01-18 12:15:01.905339	304.7	33.2	-91.0	6.6
2025-01-18 12:15:03.026822	304.3	33.1	-90.9	4.9
2025-01-18 12:15:04.148275	303.9	33.0	-90.9	7.7
2025-01-18 12:15:05.279939	303.6	33.0	-91.3	14.7
2025-01-18 12:15:06.435518	303.2	32.9	-91.3	7.1
2025-01-18 12:15:07.591429	302.8	32.8	-90.9	10.8
2025-01-18 12:15:08.749913	302.4	32.7	-91.1	12.4
2025-01-18 12:15:09.914553	302.0	32.6	-91.7	10.0
2025-01-18 12:15:11.072495	301.6	32.5	-91.4	9.3
2025-01-18 12:15:12.237112	301.2	32.4	-91.2	14.1
2025-01-18 12:15:13.405193	300.9	32.3	-91.3	11.7
2025-01-18 12:15:14.573526	300.5	32.2	-91.5	8.4
2025-01-18 12:15:15.734728	300.1	32.1	-91.1	11.8
2025-01-18 12:15:16.890498	299.7	32.0	-91.4	6.4
2025-01-18 12:15:18.043651	299.4	31.9	-91.4	6.7
2025-01-18 12:15:19.165865	299.0	31.7	-91.1	6.7
2025-01-18 12:15:20.320994	298.7	31.6	-91.5	7.0
2025-01-18 12:15:21.466898	298.3	31.5	-91.4	5.2
2025-01-18 12:15:22.622075	297.9	31.4	-91.5	11.8
2025-01-18 12:15:23.778739	297.6	31.3	-91.0	9.9
2025-01-18 12:15:24.933072	297.2	31.2	-91.0	10.2
2025-01-18 12:15:26.084598	296.9	31.1	-91.0	11.4
2025-01-18 12:15:27.237606	296.5	31.0	-90.8	12.0
2025-01-18 12:15:28.398558	296.2	30.9	-90.7	9.8
2025-01-18 12:15:29.558973	295.8	30.8	-90.6	11.4
2025-01-18 12:15:30.718693	295.5	30.6	-90.5	13.0
2025-01-18 12:15:31.880434	295.2	30.5	-90.8	12.6
2025-01-18 12:15:33.042180	294.8	30.4	-90.5	15.1
2025-01-18 12:15:34.204400	294.5	30.3	-90.3	14.9
2025-01-18 12:15:35.365738	294.2	30.2	-90.5	14.7
2025-01-18 12:15:36.529062	293.8	30.1	-90.8	14.1
2025-01-18 12:15:37.686266	293.5	29.9	-90.5	12.9
2025-01-18 12:15:38.853276	293.2	29.8	-91.0	13.8
2025-01-18 12:15:40.009734	292.9	29.7	-91.2	11.8
2025-01-18 12:15:41.174987	292.5	29.6	-91.4	16.4
2025-01-18 12:15:42.339388	292.2	29.5	-91.5	15.7
2025-01-18 12:15:43.499076	291.9	29.3	-91.2	10.3
2025-01-18 12:15:44.662038	291.6	29.2	-91.3	15.2
2025-01-18 12:15:45.825438	291.3	29.1	-91.3	16.6
2025-01-18 12:15:46.989880	291.0	29.0	-90.7	8.8
2025-01-18 12:15:48.151727	290.7	28.8	-90.5	9.8
2025-01-18 12:15:49.310821	290.4	28.7	-90.8	12.7
2025-01-18 12:15:50.471837	290.1	28.6	-90.8	7.4
2025-01-18 12:15:51.632626	289.8	28.5	-90.7	9.4
2025-01-18 12:15:52.795675	289.5	28.4	-90.6	13.5
2025-01-18 12:15:53.959225	289.2	28.2	-91.0	6.1
2025-01-18 12:15:55.118716	288.9	28.1	-90.9	8.6
2025-01-18 12:15:56.282875	288.6	28.0	-91.0	11.9
2025-01-18 12:15:57.447785	288.3	27.8	-91.5	5.8
2025-01-18 12:15:58.612723	288.0	27.7	-91.6	8.1
2025-01-18 12:15:59.765446	287.7	27.6	-91.5	10.6
2025-01-18 12:16:00.921959	287.4	27.5	-91.4	6.8
2025-01-18 12:16:02.086606	287.2	27.3	-91.4	7.1
2025-01-18 12:16:03.251567	286.9	27.2	-91.1	10.1
2025-01-18 12:16:04.416865	286.6	27.1	-91.0	7.2
2025-01-18 12:16:05.578678	286.3	27.0	-91.0	9.4
2025-01-18 12:16:06.735089	286.1	26.8	-91.0	8.4
2025-01-18 12:16:07.907105	285.8	26.7	-90.8	12.2
2025-01-18 12:16:09.080560	285.5	26.6	-91.3	10.0
2025-01-18 12:16:10.242839	285.3	26.5	-91.3	10.1
2025-01-18 12:16:11.401757	285.0	26.3	-91.4	7.8
2025-01-18 12:16:12.567956	284.7	26.2	-91.5	7.7
2025-01-18 12:16:13.731776	284.5	26.1	-91.2	7.8
2025-01-18 12:16:14.900308	284.2	25.9	-91.6	10.1
2025-01-18 12:16:16.062605	284.0	25.8	-91.0	6.2
2025-01-18 12:16:17.224736	283.7	25.7	-90.7	2.9
2025-01-18 12:16:18.388035	283.5	25.6	-91.1	7.8
2025-01-18 12:16:19.549864	283.2	25.4	-91.3	4.7
2025-01-18 12:16:20.717946	283.0	25.3	-91.1	9.5
2025-01-18 12:16:21.878271	282.7	25.2	-91.3	7.7
2025-01-18 12:16:23.039209	282.5	25.0	-91.6	6.7
2025-01-18 12:16:24.174735	282.3	24.9	-91.1	7.1
2025-01-18 12:16:25.294707	282.0	24.8	-90.8	8.0
2025-01-18 12:16:26.415459	281.8	24.7	-91.0	8.4
2025-01-18 12:16:27.537278	281.6	24.6	-91.2	7.2
2025-01-18 12:16:28.660586	281.4	24.4	-91.1	5.5
2025-01-18 12:16:29.782183	281.1	24.3	-91.2	7.9
2025-01-18 12:16:30.901972	280.9	24.2	-91.5	11.3
2025-01-18 12:16:32.021997	280.7	24.1	-91.6	8.8
2025-01-18 12:16:33.146324	280.5	23.9	-91.3	6.7
2025-01-18 12:16:34.291359	280.3	23.8	-91.2	9.5
2025-01-18 12:16:35.450925	280.0	23.7	-91.4	8.9
2025-01-18 12:16:36.606604	279.8	23.6	-91.5	8.0
2025-01-18 12:16:37.767821	279.6	23.4	-91.4	8.8
2025-01-18 12:16:38.917516	279.4	23.3	-91.7	4.2
2025-01-18 12:16:40.083141	279.2	23.2	-91.3	5.3
2025-01-18 12:16:41.246064	279.0	23.1	-91.4	8.2
2025-01-18 12:16:42.401425	278.8	22.9	-91.3	4.2
2025-01-18 12:16:43.564285	278.5	22.8	-90.6	7.2
2025-01-18 12:16:44.729786	278.3	22.7	-90.5	10.2
2025-01-18 12:16:45.890481	278.1	22.6	-91.3	7.9
2025-01-18 12:16:47.056650	277.9	22.4	-91.3	8.9
2025-01-18 12:16:48.214602	277.7	22.3	-91.3	9.2
2025-01-18 12:16:49.377986	277.5	22.2	-91.5	7.4
2025-01-18 12:16:50.543124	277.3	22.1	-91.4	10.0
2025-01-18 12:16:51.716715	277.1	21.9	-90.9	9.1
2025-01-18 12:16:52.884217	276.9	21.8	-91.5	11.0
2025-01-18 12:16:54.045156	276.7	21.7	-91.2	12.1
2025-01-18 12:16:55.214245	276.5	21.6	-91.6	6.3
2025-01-18 12:16:56.367892	276.3	21.4	-91.2	11.9
2025-01-18 12:16:57.531032	276.2	21.3	-91.4	9.7
2025-01-18 12:16:58.691969	276.0	21.2	-91.4	8.6
2025-01-18 12:16:59.859109	275.8	21.1	-90.8	9.4
2025-01-18 12:17:01.017686	275.6	20.9	-90.9	3.6
2025-01-18 12:17:02.183641	275.4	20.8	-90.9	5.1
2025-01-18 12:17:03.339195	275.2	20.7	-91.1	7.0
2025-01-18 12:17:04.505940	275.0	20.6	-90.8	6.1
2025-01-18 12:17:05.666049	274.9	20.5	-90.9	6.8
2025-01-18 12:17:06.823651	274.7	20.3	-90.6	8.0
2025-01-18 12:17:07.984958	274.5	20.2	-90.3	5.9
2025-01-18 12:17:09.142757	274.3	20.1	-90.9	6.2
2025-01-18 12:17:10.307242	274.2	20.0	-90.5	5.6
2025-01-18 12:17:11.472205	274.0	19.9	-90.2	6.7
2025-01-18 12:17:12.635162	273.8	19.7	-90.3	4.6
2025-01-18 12:17:13.800270	273.6	19.6	-90.6	7.3
2025-01-18 12:17:14.964033	273.5	19.5	-90.8	5.0
2025-01-18 12:17:16.127149	273.3	19.4	-90.9	7.6
2025-01-18 12:17:17.292519	273.1	19.3	-91.2	6.9
2025-01-18 12:17:18.453747	273.0	19.2	-91.2	6.6
2025-01-18 12:17:19.616182	272.8	19.0	-91.5	3.2
2025-01-18 12:17:20.772888	272.7	18.9	-91.4	4.7
2025-01-18 12:17:21.933909	272.5	18.8	-91.4	5.8
2025-01-18 12:17:23.096209	272.3	18.7	-91.2	3.4
2025-01-18 12:17:24.257888	272.2	18.6	-91.0	4.9
2025-01-18 12:17:25.423046	272.0	18.4	-91.5	4.5
2025-01-18 12:17:26.585770	271.9	18.3	-91.5	6.4
2025-01-18 12:17:27.738407	271.7	18.2	-91.4	5.7
2025-01-18 12:17:28.899988	271.6	18.1	-91.1	3.4
2025-01-18 12:17:30.069431	271.4	18.0	-91.1	4.6
2025-01-18 12:17:31.233694	271.3	17.9	-91.4	4.0
2025-01-18 12:17:32.412215	271.1	17.8	-91.4	6.0
2025-01-18 12:17:33.575911	271.0	17.6	-91.2	4.4
2025-01-18 12:17:34.733481	270.8	17.5	-91.0	5.7
2025-01-18 12:17:35.897649	270.7	17.4	-91.6	3.5
2025-01-18 12:17:37.054245	270.5	17.3	-91.6	5.1
2025-01-18 12:17:38.217587	270.4	17.2	-91.3	8.1
2025-01-18 12:17:39.379687	270.2	17.1	-91.2	4.8
2025-01-18 12:17:40.546373	270.1	17.0	-91.4	3.9
2025-01-18 12:17:41.704501	269.9	16.9	-91.1	8.6
2025-01-18 12:17:42.870014	269.8	16.7	-91.0	5.4
2025-01-18 12:17:44.033003	269.7	16.6	-91.0	4.3
2025-01-18 12:17:45.176044	269.5	16.5	-91.2	11.9
2025-01-18 12:17:46.295934	269.4	16.4	-91.0	6.6
2025-01-18 12:17:47.415426	269.3	16.3	-91.3	7.3
2025-01-18 12:17:48.535994	269.1	16.2	-91.4	7.2
2025-01-18 12:17:49.656503	269.0	16.1	-91.6	4.7
2025-01-18 12:17:50.777320	268.9	16.0	-91.5	6.3
2025-01-18 12:17:51.898375	268.7	15.9	-91.9	5.9
2025-01-18 12:17:53.018531	268.6	15.8	-91.2	4.5
2025-01-18 12:17:54.143000	268.5	15.7	-91.8	6.0
2025-01-18 12:17:55.289652	268.4	15.6	-91.0	7.3
2025-01-18 12:17:56.449236	268.2	15.5	-91.4	4.2
2025-01-18 12:17:57.612301	268.1	15.4	-91.3	4.3
2025-01-18 12:17:58.766517	268.0	15.3	-91.2	8.5
2025-01-18 12:17:59.923219	267.9	15.1	-91.1	4.7
2025-01-18 12:18:01.088493	267.7	15.0	-91.0	6.7
2025-01-18 12:18:02.249231	267.6	14.9	-90.9	6.2
2025-01-18 12:18:03.414306	267.5	14.8	-91.5	6.8
2025-01-18 12:18:04.578699	267.4	14.7	-91.5	6.2
2025-01-18 12:18:05.739010	267.2	14.6	-91.6	8.1
2025-01-18 12:18:06.910077	267.1	14.5	-91.7	5.3
#Closed at: 2025-01-18 12:10:12.099084