passes_logs/2025/01/18/LEX_Murmansk/LEX_Murmansk__20250118_082407_NOAA_19_rec.log

#Pass ID: 20250118_082407_NOAA 19
#Satellite: NOAA 19
#Configuration: NOAA 19
#Start time: 2025-01-18 08:24:02.530997

#LorettStation: 1.0.0 05.05.2024
#Station: LEX_Murmansk
#Location: 33.156738 lon 68.926811 lat
#TLE: 1 33591U 09005A   25017.12803845  .00000314  00000+0  19161-3 0  9999
#TLE: 2 33591  99.0192  80.9069 0014403  51.8715 308.3753 14.13261185821848

#Time	Az	El	Level	SNR
2025-01-18 08:24:14.652789	28.0	16.3	-91.0	3.3
2025-01-18 08:24:16.951940	28.1	16.5	-91.3	2.3
2025-01-18 08:24:19.248093	28.2	16.8	-90.9	6.6
2025-01-18 08:24:21.548412	28.3	17.1	-91.2	1.9
2025-01-18 08:24:23.842693	28.4	17.3	-91.2	3.3
2025-01-18 08:24:26.135218	28.5	17.6	-91.1	9.2
2025-01-18 08:24:28.435840	28.6	17.8	-91.7	9.4
2025-01-18 08:24:30.726946	28.7	18.1	-91.9	6.3
2025-01-18 08:24:33.018315	28.9	18.4	-91.8	6.6
2025-01-18 08:24:35.310156	29.0	18.7	-91.8	6.3
2025-01-18 08:24:37.605947	29.1	18.9	-91.6	1.0
2025-01-18 08:24:39.897766	29.2	19.2	-91.9	1.7
2025-01-18 08:24:42.198787	29.3	19.5	-92.1	7.3
2025-01-18 08:24:44.490504	29.4	19.8	-91.4	9.4
2025-01-18 08:24:46.781747	29.5	20.1	-92.2	6.5
2025-01-18 08:24:49.081972	29.6	20.4	-91.8	6.8
2025-01-18 08:24:51.382002	29.8	20.7	-91.8	5.0
2025-01-18 08:24:53.685669	29.9	21.0	-91.7	2.7
2025-01-18 08:24:55.986864	30.0	21.3	-91.9	3.5
2025-01-18 08:24:58.284261	30.1	21.6	-91.6	8.3
2025-01-18 08:25:00.570246	30.3	21.9	-91.9	12.6
2025-01-18 08:25:02.866123	30.4	22.2	-91.8	9.8
2025-01-18 08:25:05.156007	30.5	22.5	-91.6	10.9
2025-01-18 08:25:07.451007	30.7	22.8	-91.6	10.3
2025-01-18 08:25:09.742107	30.8	23.1	-91.6	5.1
2025-01-18 08:25:12.033357	31.0	23.5	-91.6	3.4
2025-01-18 08:25:14.325146	31.1	23.8	-91.1	10.4
2025-01-18 08:25:16.618515	31.3	24.1	-91.7	11.9
2025-01-18 08:25:18.913076	31.4	24.5	-91.6	8.1
2025-01-18 08:25:21.211463	31.6	24.8	-91.7	9.8
2025-01-18 08:25:23.503552	31.7	25.2	-91.6	11.2
2025-01-18 08:25:25.792487	31.9	25.5	-91.6	5.2
2025-01-18 08:25:28.097420	32.0	25.9	-91.7	3.2
2025-01-18 08:25:30.392600	32.2	26.3	-91.5	2.7
2025-01-18 08:25:32.677781	32.4	26.6	-91.5	9.9
2025-01-18 08:25:34.923532	32.6	27.0	-91.9	6.3
2025-01-18 08:25:37.164321	32.7	27.4	-91.6	7.2
2025-01-18 08:25:39.406005	32.9	27.7	-91.9	9.4
2025-01-18 08:25:41.650463	33.1	28.1	-91.8	5.0
2025-01-18 08:25:43.921115	33.3	28.5	-91.5	2.0
2025-01-18 08:25:46.212221	33.5	28.9	-91.7	3.0
2025-01-18 08:25:48.500665	33.7	29.3	-91.9	11.1
2025-01-18 08:25:50.777498	33.9	29.7	-91.8	11.5
2025-01-18 08:25:53.070928	34.1	30.1	-91.8	7.4
2025-01-18 08:25:55.361259	34.3	30.5	-91.8	11.1
2025-01-18 08:25:57.660100	34.5	30.9	-91.7	10.8
2025-01-18 08:25:59.955614	34.8	31.4	-91.7	4.9
2025-01-18 08:26:02.245233	35.0	31.8	-92.1	4.8
2025-01-18 08:26:04.545177	35.2	32.3	-91.6	4.4
2025-01-18 08:26:06.842767	35.5	32.7	-91.8	11.3
2025-01-18 08:26:09.138965	35.7	33.2	-91.8	10.8
2025-01-18 08:26:11.433704	36.0	33.6	-91.7	7.8
2025-01-18 08:26:13.723165	36.2	34.1	-91.9	13.0
2025-01-18 08:26:16.023658	36.5	34.6	-92.1	13.0
2025-01-18 08:26:18.313877	36.8	35.0	-91.9	7.9
2025-01-18 08:26:20.611087	37.1	35.5	-92.0	3.5
2025-01-18 08:26:22.901460	37.4	36.0	-91.7	9.8
2025-01-18 08:26:25.190747	37.7	36.5	-92.1	15.5
2025-01-18 08:26:27.477560	38.0	37.0	-92.0	12.3
2025-01-18 08:26:29.773954	38.3	37.5	-91.8	10.1
2025-01-18 08:26:32.064155	38.7	38.1	-91.8	13.5
2025-01-18 08:26:34.355312	39.0	38.6	-92.0	15.0
2025-01-18 08:26:36.641490	39.4	39.1	-91.5	6.9
2025-01-18 08:26:38.938604	39.7	39.7	-91.8	1.7
2025-01-18 08:26:41.232595	40.1	40.2	-92.0	8.3
2025-01-18 08:26:43.533638	40.5	40.8	-91.8	12.1
2025-01-18 08:26:45.823009	40.9	41.3	-91.7	17.1
2025-01-18 08:26:48.107664	41.3	41.9	-91.5	9.4
2025-01-18 08:26:50.404163	41.8	42.5	-92.0	12.6
2025-01-18 08:26:52.703003	42.2	43.1	-91.6	18.9
2025-01-18 08:26:54.999252	42.7	43.7	-92.1	16.8
2025-01-18 08:26:57.291123	43.2	44.3	-91.7	8.0
2025-01-18 08:26:59.585168	43.7	44.9	-92.0	2.7
2025-01-18 08:27:01.871766	44.2	45.5	-91.9	7.1
2025-01-18 08:27:04.172751	44.7	46.1	-91.8	14.3
2025-01-18 08:27:06.465798	45.3	46.7	-92.0	15.5
2025-01-18 08:27:08.758133	45.9	47.4	-91.8	11.3
2025-01-18 08:27:11.052702	46.5	48.0	-91.7	4.7
2025-01-18 08:27:13.353635	47.1	48.6	-91.5	7.8
2025-01-18 08:27:15.650716	47.8	49.3	-91.0	7.7
2025-01-18 08:27:17.942384	48.5	49.9	-91.1	5.2
2025-01-18 08:27:20.239070	49.2	50.6	-92.0	4.4
2025-01-18 08:27:22.536047	50.0	51.3	-92.0	1.2
2025-01-18 08:27:24.829645	50.8	51.9	-91.2	4.4
2025-01-18 08:27:27.123759	51.6	52.6	-90.8	8.3
2025-01-18 08:27:29.422536	52.4	53.3	-91.3	14.5
2025-01-18 08:27:31.715894	53.3	54.0	-91.8	9.8
2025-01-18 08:27:34.012303	54.3	54.7	-91.5	5.5
2025-01-18 08:27:36.309031	55.3	55.3	-91.9	8.2
2025-01-18 08:27:38.605767	56.3	56.0	-91.7	11.9
2025-01-18 08:27:40.899704	57.4	56.7	-91.8	15.3
2025-01-18 08:27:43.193303	58.6	57.4	-92.0	13.5
2025-01-18 08:27:45.487624	59.8	58.1	-91.7	8.9
2025-01-18 08:27:47.776621	61.0	58.7	-92.0	6.5
2025-01-18 08:27:50.067302	62.4	59.4	-91.8	3.5
2025-01-18 08:27:52.357876	63.7	60.1	-91.8	9.6
2025-01-18 08:27:54.649293	65.2	60.7	-92.0	15.8
2025-01-18 08:27:56.946756	66.8	61.3	-91.8	18.2
2025-01-18 08:27:59.237363	68.4	62.0	-91.6	18.4
2025-01-18 08:28:01.529549	70.1	62.6	-92.0	13.0
2025-01-18 08:28:03.824002	71.9	63.2	-92.0	10.2
2025-01-18 08:28:06.117356	73.8	63.7	-91.7	8.1
2025-01-18 08:28:08.415131	75.8	64.3	-92.1	9.0
2025-01-18 08:28:10.713489	77.8	64.8	-91.9	10.7
2025-01-18 08:28:13.008794	80.0	65.3	-92.0	12.2
2025-01-18 08:28:15.299015	82.3	65.8	-91.9	15.1
2025-01-18 08:28:17.590214	84.6	66.2	-91.7	15.9
2025-01-18 08:28:19.882401	87.1	66.6	-92.1	9.8
2025-01-18 08:28:22.176681	89.6	67.0	-92.1	9.7
2025-01-18 08:28:24.479238	92.3	67.3	-91.8	3.6
2025-01-18 08:28:26.780350	95.0	67.6	-91.9	8.6
2025-01-18 08:28:29.069496	97.8	67.8	-91.9	4.0
2025-01-18 08:28:31.361749	100.6	68.0	-91.7	6.4
2025-01-18 08:28:33.659285	103.5	68.1	-91.8	8.1
2025-01-18 08:28:35.949888	106.4	68.2	-91.8	8.7
2025-01-18 08:28:38.240927	109.3	68.3	-91.8	13.0
2025-01-18 08:28:40.529679	112.2	68.2	-92.1	14.6
2025-01-18 08:28:42.821091	115.1	68.2	-91.9	14.0
2025-01-18 08:28:45.114028	118.0	68.0	-92.0	19.7
2025-01-18 08:28:47.420097	120.9	67.9	-91.8	18.0
2025-01-18 08:28:49.720415	123.6	67.7	-92.2	20.1
2025-01-18 08:28:52.013888	126.4	67.4	-91.5	16.4
2025-01-18 08:28:54.312153	129.0	67.1	-91.4	22.6
2025-01-18 08:28:56.599128	131.6	66.7	-91.9	19.1
2025-01-18 08:28:58.895558	134.1	66.3	-91.7	17.4
2025-01-18 08:29:01.187135	136.4	65.9	-91.8	7.2
2025-01-18 08:29:03.483443	138.7	65.4	-91.7	15.2
2025-01-18 08:29:05.773122	140.9	64.9	-91.8	6.7
2025-01-18 08:29:08.065275	143.0	64.4	-92.0	15.8
2025-01-18 08:29:10.357218	145.0	63.9	-92.4	15.8
2025-01-18 08:29:12.647884	146.9	63.3	-91.9	14.4
2025-01-18 08:29:14.938354	148.7	62.7	-91.8	17.9
2025-01-18 08:29:17.230989	150.5	62.1	-92.0	14.9
2025-01-18 08:29:19.532511	152.1	61.5	-92.1	15.4
2025-01-18 08:29:21.824721	153.7	60.9	-91.7	17.8
2025-01-18 08:29:24.120517	155.2	60.2	-92.0	18.1
2025-01-18 08:29:26.416672	156.6	59.6	-90.3	16.9
2025-01-18 08:29:28.705238	157.9	58.9	-91.7	15.0
2025-01-18 08:29:31.004070	159.2	58.2	-92.0	16.8
2025-01-18 08:29:33.300103	160.5	57.6	-92.3	15.8
2025-01-18 08:29:35.592151	161.6	56.9	-92.0	11.7
2025-01-18 08:29:37.888901	162.7	56.2	-91.8	11.9
2025-01-18 08:29:40.179188	163.8	55.5	-92.1	14.7
2025-01-18 08:29:42.472513	164.8	54.8	-91.9	11.9
2025-01-18 08:29:44.774463	165.7	54.1	-91.7	10.0
2025-01-18 08:29:47.068705	166.6	53.5	-92.2	15.4
2025-01-18 08:29:49.362543	167.5	52.8	-91.9	8.3
2025-01-18 08:29:51.651629	168.3	52.1	-91.8	7.1
2025-01-18 08:29:53.945932	169.1	51.4	-92.0	11.5
2025-01-18 08:29:56.240122	169.9	50.8	-91.8	4.1
2025-01-18 08:29:58.536777	170.6	50.1	-92.0	11.3
2025-01-18 08:30:00.831640	171.3	49.5	-91.8	8.3
2025-01-18 08:30:03.125690	172.0	48.8	-92.0	13.6
2025-01-18 08:30:05.423093	172.6	48.2	-92.2	15.0
2025-01-18 08:30:07.717514	173.3	47.5	-91.9	16.5
2025-01-18 08:30:10.012083	173.9	46.9	-91.7	16.6
2025-01-18 08:30:12.310161	174.4	46.2	-92.0	10.9
2025-01-18 08:30:14.597233	175.0	45.6	-92.0	15.2
2025-01-18 08:30:16.890645	175.5	45.0	-91.8	11.9
2025-01-18 08:30:19.190736	176.0	44.4	-91.7	8.2
2025-01-18 08:30:21.487759	176.5	43.8	-91.9	12.7
2025-01-18 08:30:23.782112	177.0	43.2	-91.8	8.6
2025-01-18 08:30:26.076187	177.4	42.6	-91.5	12.5
2025-01-18 08:30:28.370667	177.9	42.0	-91.8	12.9
2025-01-18 08:30:30.668859	178.3	41.5	-92.1	15.3
2025-01-18 08:30:32.952809	178.7	40.9	-91.8	8.8
2025-01-18 08:30:35.249020	179.1	40.3	-92.3	11.0
2025-01-18 08:30:37.545361	179.5	39.8	-91.7	5.9
2025-01-18 08:30:39.838140	179.8	39.2	-91.9	6.8
2025-01-18 08:30:42.125817	180.2	38.7	-91.8	11.5
2025-01-18 08:30:44.425770	180.5	38.2	-91.9	7.3
2025-01-18 08:30:46.720128	180.9	37.7	-92.0	9.5
2025-01-18 08:30:49.016454	181.2	37.1	-92.2	15.1
2025-01-18 08:30:51.311057	181.5	36.6	-91.8	9.6
2025-01-18 08:30:53.605364	181.8	36.1	-92.1	12.4
2025-01-18 08:30:55.908417	182.1	35.6	-91.9	11.4
2025-01-18 08:30:58.204971	182.4	35.1	-92.3	5.7
2025-01-18 08:31:00.505854	182.7	34.7	-91.7	11.0
2025-01-18 08:31:02.793626	183.0	34.2	-91.8	8.0
2025-01-18 08:31:05.082145	183.2	33.7	-91.8	10.8
2025-01-18 08:31:07.375146	183.5	33.3	-91.7	8.5
2025-01-18 08:31:09.663212	183.8	32.8	-91.4	13.0
2025-01-18 08:31:11.947753	184.0	32.4	-91.5	11.0
2025-01-18 08:31:14.240200	184.2	31.9	-91.7	7.6
2025-01-18 08:31:16.539606	184.5	31.5	-91.4	8.7
2025-01-18 08:31:18.839527	184.7	31.0	-91.8	5.1
2025-01-18 08:31:21.135633	184.9	30.6	-91.7	9.0
2025-01-18 08:31:23.429655	185.1	30.2	-91.7	8.2
2025-01-18 08:31:25.728702	185.3	29.8	-91.6	8.2
2025-01-18 08:31:28.021884	185.6	29.4	-91.4	7.1
2025-01-18 08:31:30.319641	185.8	29.0	-91.8	6.4
2025-01-18 08:31:32.612684	186.0	28.6	-91.5	5.4
2025-01-18 08:31:34.902960	186.1	28.2	-91.6	7.1
2025-01-18 08:31:37.203876	186.3	27.8	-92.0	4.2
2025-01-18 08:31:39.500135	186.5	27.4	-91.7	11.0
2025-01-18 08:31:41.809131	186.7	27.0	-91.7	11.1
2025-01-18 08:31:44.103576	186.9	26.7	-91.7	8.0
2025-01-18 08:31:46.404246	187.0	26.3	-91.5	7.2
2025-01-18 08:31:48.701153	187.2	25.9	-91.7	5.9
2025-01-18 08:31:50.999638	187.4	25.6	-91.8	9.4
2025-01-18 08:31:53.293932	187.5	25.2	-91.7	10.2
2025-01-18 08:31:55.588895	187.7	24.9	-91.9	8.7
2025-01-18 08:31:57.889020	187.8	24.5	-91.4	6.4
2025-01-18 08:32:00.180387	188.0	24.2	-92.0	7.2
2025-01-18 08:32:02.471187	188.1	23.8	-92.2	8.5
2025-01-18 08:32:04.768006	188.3	23.5	-91.8	7.3
2025-01-18 08:32:07.062394	188.4	23.2	-91.7	10.5
2025-01-18 08:32:09.352957	188.6	22.9	-92.4	12.9
2025-01-18 08:32:11.644064	188.7	22.5	-92.3	11.0
2025-01-18 08:32:13.937651	188.8	22.2	-92.0	10.2
2025-01-18 08:32:16.234134	189.0	21.9	-91.9	7.2
2025-01-18 08:32:18.525749	189.1	21.6	-92.3	7.6
2025-01-18 08:32:20.818656	189.2	21.3	-92.2	4.7
2025-01-18 08:32:23.113404	189.4	21.0	-92.2	8.0
2025-01-18 08:32:25.395842	189.5	20.7	-91.8	8.5
2025-01-18 08:32:27.692392	189.6	20.4	-92.3	8.3
2025-01-18 08:32:29.983269	189.7	20.1	-92.1	9.7
2025-01-18 08:32:32.278273	189.8	19.8	-91.8	4.7
2025-01-18 08:32:34.571626	189.9	19.5	-92.2	10.8
2025-01-18 08:32:36.863568	190.1	19.2	-92.4	8.5
2025-01-18 08:32:39.157877	190.2	19.0	-92.1	10.0
2025-01-18 08:32:41.451877	190.3	18.7	-92.2	7.8
2025-01-18 08:32:43.746484	190.4	18.4	-92.0	5.6
2025-01-18 08:32:46.044006	190.5	18.1	-92.1	4.3
2025-01-18 08:32:48.334254	190.6	17.9	-92.0	3.5
2025-01-18 08:32:50.622482	190.7	17.6	-92.3	4.0
2025-01-18 08:32:52.913712	190.8	17.3	-92.1	4.3
2025-01-18 08:32:55.212848	190.9	17.1	-92.3	5.2
2025-01-18 08:32:57.501386	191.0	16.8	-92.1	5.6
2025-01-18 08:32:59.798220	191.1	16.6	-92.4	2.5
2025-01-18 08:33:02.089591	191.2	16.3	-92.3	5.5
2025-01-18 08:33:04.379460	191.3	16.1	-92.1	6.5
2025-01-18 08:33:06.672756	191.4	15.8	-92.1	5.6
2025-01-18 08:33:08.963355	191.4	15.6	-92.2	6.8
2025-01-18 08:33:11.256990	191.5	15.3	-92.3	3.3
2025-01-18 08:33:13.549499	191.6	15.1	-92.2	5.0
2025-01-18 08:33:15.846480	191.7	14.9	-92.3	2.3
2025-01-18 08:33:18.141911	191.8	14.6	-92.2	3.6
#Closed at: 2025-01-18 08:24:07.454125