passes_logs/2025/01/18/LEX_Murmansk/LEX_Murmansk__20250118_200727_NOAA_19_rec.log

#Pass ID: 20250118_200727_NOAA 19
#Satellite: NOAA 19
#Configuration: NOAA 19
#Start time: 2025-01-18 20:07:22.864657

#LorettStation: 1.0.0 05.05.2024
#Station: LEX_Murmansk
#Location: 33.156738 lon 68.926811 lat
#TLE: 1 33591U 09005A   25018.04840605  .00000325  00000+0  19728-3 0  9997
#TLE: 2 33591  99.0190  81.8343 0014373  49.4310 310.8111 14.13261983821977

#Time	Az	El	Level	SNR
2025-01-18 20:07:35.034128	236.3	15.8	-90.0	5.3
2025-01-18 20:07:36.170941	236.5	15.9	-90.2	4.0
2025-01-18 20:07:37.327850	236.7	16.0	-90.3	5.0
2025-01-18 20:07:38.477922	236.9	16.0	-90.3	8.6
2025-01-18 20:07:39.634413	237.1	16.1	-90.8	8.8
2025-01-18 20:07:40.788571	237.3	16.2	-90.3	7.2
2025-01-18 20:07:41.943603	237.5	16.3	-90.3	8.1
2025-01-18 20:07:43.107326	237.7	16.4	-90.2	5.1
2025-01-18 20:07:44.257526	237.9	16.4	-90.0	3.1
2025-01-18 20:07:45.418495	238.1	16.5	-90.3	2.9
2025-01-18 20:07:46.583605	238.3	16.6	-90.1	2.7
2025-01-18 20:07:47.743234	238.5	16.7	-90.4	3.8
2025-01-18 20:07:48.902943	238.7	16.7	-90.1	4.8
2025-01-18 20:07:50.079261	238.9	16.8	-89.9	3.5
2025-01-18 20:07:51.235097	239.1	16.9	-90.5	4.5
2025-01-18 20:07:52.392974	239.3	17.0	-90.4	5.2
2025-01-18 20:07:53.557412	239.6	17.0	-90.5	6.6
2025-01-18 20:07:54.719427	239.8	17.1	-90.7	5.3
2025-01-18 20:07:55.886817	240.0	17.2	-90.7	4.2
2025-01-18 20:07:57.050519	240.2	17.3	-90.7	7.1
2025-01-18 20:07:58.212523	240.4	17.4	-90.2	2.7
2025-01-18 20:07:59.377220	240.7	17.4	-89.9	4.5
2025-01-18 20:08:00.531306	240.9	17.5	-90.3	5.5
2025-01-18 20:08:01.692271	241.1	17.6	-90.4	3.9
2025-01-18 20:08:02.853642	241.3	17.7	-90.5	6.9
2025-01-18 20:08:04.017791	241.5	17.7	-90.3	9.1
2025-01-18 20:08:05.177899	241.8	17.8	-90.6	8.4
2025-01-18 20:08:06.339608	242.0	17.9	-90.7	7.3
2025-01-18 20:08:07.508068	242.2	17.9	-90.8	5.4
2025-01-18 20:08:08.659714	242.4	18.0	-90.5	4.9
2025-01-18 20:08:09.800123	242.7	18.1	-90.4	3.2
2025-01-18 20:08:10.920328	242.9	18.2	-90.2	2.6
2025-01-18 20:08:12.041316	243.1	18.2	-90.0	3.0
2025-01-18 20:08:13.161978	243.3	18.3	-90.6	3.8
2025-01-18 20:08:14.282871	243.6	18.4	-90.1	5.4
2025-01-18 20:08:15.403679	243.8	18.4	-90.5	6.4
2025-01-18 20:08:16.523690	244.0	18.5	-90.3	7.7
2025-01-18 20:08:17.644873	244.3	18.6	-90.6	10.0
2025-01-18 20:08:18.768728	244.5	18.7	-90.2	12.8
2025-01-18 20:08:19.910477	244.7	18.7	-90.3	11.6
2025-01-18 20:08:21.073054	245.0	18.8	-90.8	10.3
2025-01-18 20:08:22.228487	245.2	18.9	-90.5	5.8
2025-01-18 20:08:23.389692	245.4	18.9	-90.6	6.0
2025-01-18 20:08:24.540809	245.7	19.0	-90.8	9.5
2025-01-18 20:08:25.697612	245.9	19.1	-90.7	5.6
2025-01-18 20:08:26.824051	246.2	19.1	-90.7	6.5
2025-01-18 20:08:27.970136	246.4	19.2	-90.6	7.8
2025-01-18 20:08:29.116933	246.6	19.3	-90.3	11.8
2025-01-18 20:08:30.266529	246.9	19.3	-90.3	10.6
2025-01-18 20:08:31.411735	247.1	19.4	-90.2	9.3
2025-01-18 20:08:32.562627	247.4	19.5	-90.3	6.1
2025-01-18 20:08:33.721754	247.6	19.5	-90.4	3.8
2025-01-18 20:08:34.883230	247.9	19.6	-90.5	2.1
2025-01-18 20:08:36.044072	248.1	19.7	-90.4	3.9
2025-01-18 20:08:37.209757	248.4	19.7	-90.3	0.4
2025-01-18 20:08:38.369287	248.7	19.8	-90.6	3.1
2025-01-18 20:08:39.534514	248.9	19.9	-90.6	2.2
2025-01-18 20:08:40.694780	249.2	19.9	-90.7	2.4
2025-01-18 20:08:41.853894	249.4	20.0	-90.6	3.7
2025-01-18 20:08:43.017038	249.7	20.1	-90.6	5.0
2025-01-18 20:08:44.176300	250.0	20.1	-90.6	4.3
2025-01-18 20:08:45.329835	250.2	20.2	-90.6	2.6
2025-01-18 20:08:46.452182	250.5	20.3	-90.8	3.7
2025-01-18 20:08:47.611608	250.7	20.3	-90.7	1.5
2025-01-18 20:08:48.750618	251.0	20.4	-90.5	2.4
2025-01-18 20:08:49.914237	251.3	20.4	-89.9	3.5
2025-01-18 20:08:51.059826	251.5	20.5	-90.1	4.9
2025-01-18 20:08:52.206905	251.8	20.6	-90.2	1.1
2025-01-18 20:08:53.369348	252.1	20.6	-90.3	3.7
2025-01-18 20:08:54.523994	252.3	20.7	-90.4	2.7
2025-01-18 20:08:55.683745	252.6	20.7	-90.5	3.7
2025-01-18 20:08:56.849548	252.9	20.8	-90.1	5.0
2025-01-18 20:08:58.008400	253.1	20.9	-90.5	0.3
2025-01-18 20:08:59.170861	253.4	20.9	-90.5	3.6
2025-01-18 20:09:00.321294	253.7	21.0	-90.6	3.8
2025-01-18 20:09:01.479771	254.0	21.0	-90.2	3.4
2025-01-18 20:09:02.653364	254.3	21.1	-90.1	2.2
2025-01-18 20:09:03.812054	254.5	21.2	-90.4	2.2
2025-01-18 20:09:04.974663	254.8	21.2	-90.0	2.8
2025-01-18 20:09:06.109001	255.1	21.3	-90.1	2.4
2025-01-18 20:09:07.245210	255.4	21.3	-90.3	1.4
2025-01-18 20:09:08.492093	255.7	21.4	-90.5	2.6
2025-01-18 20:09:09.640121	255.9	21.4	-90.1	3.8
2025-01-18 20:09:10.804981	256.2	21.5	-90.4	1.7
2025-01-18 20:09:11.956119	256.5	21.5	-90.7	4.5
2025-01-18 20:09:13.111783	256.8	21.6	-90.3	3.8
2025-01-18 20:09:14.274814	257.1	21.6	-90.3	3.2
2025-01-18 20:09:15.434760	257.4	21.7	-90.6	6.0
2025-01-18 20:09:16.591686	257.7	21.7	-90.5	7.3
2025-01-18 20:09:17.750992	257.9	21.8	-90.1	5.2
2025-01-18 20:09:18.915525	258.2	21.8	-90.7	10.2
2025-01-18 20:09:20.074787	258.5	21.9	-90.9	8.5
2025-01-18 20:09:21.245071	258.8	21.9	-90.5	6.9
2025-01-18 20:09:22.399740	259.1	22.0	-90.9	8.0
2025-01-18 20:09:23.545488	259.4	22.0	-90.6	10.2
2025-01-18 20:09:24.680868	259.7	22.1	-90.7	7.3
2025-01-18 20:09:25.839429	260.0	22.1	-90.5	5.3
2025-01-18 20:09:26.984630	260.3	22.1	-90.5	7.6
2025-01-18 20:09:28.138853	260.6	22.2	-90.7	8.2
2025-01-18 20:09:29.287746	260.9	22.2	-90.1	5.2
2025-01-18 20:09:30.448698	261.2	22.3	-90.2	8.5
2025-01-18 20:09:31.605368	261.5	22.3	-90.4	10.4
2025-01-18 20:09:32.766156	261.8	22.3	-90.6	11.5
2025-01-18 20:09:33.919929	262.1	22.4	-90.7	13.1
2025-01-18 20:09:35.067541	262.4	22.4	-90.8	13.5
2025-01-18 20:09:36.199030	262.7	22.5	-90.5	15.7
2025-01-18 20:09:37.345522	263.0	22.5	-90.5	13.0
2025-01-18 20:09:38.498857	263.3	22.5	-90.4	8.4
2025-01-18 20:09:39.650686	263.6	22.6	-90.7	11.8
2025-01-18 20:09:40.803152	263.9	22.6	-90.6	8.5
2025-01-18 20:09:41.962743	264.2	22.6	-90.9	9.1
2025-01-18 20:09:43.119859	264.5	22.7	-90.7	8.6
2025-01-18 20:09:44.279637	264.8	22.7	-90.4	4.0
2025-01-18 20:09:45.444997	265.1	22.7	-90.4	5.2
2025-01-18 20:09:46.606513	265.4	22.8	-90.3	4.3
2025-01-18 20:09:47.765790	265.7	22.8	-90.5	2.9
2025-01-18 20:09:48.931567	266.0	22.8	-90.4	3.7
2025-01-18 20:09:50.092173	266.3	22.8	-90.6	4.6
2025-01-18 20:09:51.252200	266.6	22.9	-90.4	5.4
2025-01-18 20:09:52.407120	266.9	22.9	-90.9	5.1
2025-01-18 20:09:53.559082	267.2	22.9	-90.7	7.8
2025-01-18 20:09:54.710505	267.6	22.9	-90.5	7.1
2025-01-18 20:09:55.850469	267.9	23.0	-90.6	8.5
2025-01-18 20:09:56.983409	268.2	23.0	-90.5	10.5
2025-01-18 20:09:58.140457	268.5	23.0	-90.5	10.1
2025-01-18 20:09:59.277826	268.8	23.0	-90.4	9.1
2025-01-18 20:10:00.435958	269.1	23.1	-90.1	8.4
2025-01-18 20:10:01.583669	269.4	23.1	-90.4	11.1
2025-01-18 20:10:02.707415	269.7	23.1	-90.8	12.7
2025-01-18 20:10:03.861453	270.0	23.1	-90.7	8.5
2025-01-18 20:10:05.006135	270.3	23.1	-90.9	8.8
2025-01-18 20:10:06.156832	270.6	23.1	-90.7	6.2
2025-01-18 20:10:07.309622	271.0	23.2	-90.6	6.8
2025-01-18 20:10:08.469398	271.3	23.2	-90.6	7.4
2025-01-18 20:10:09.602006	271.6	23.2	-90.4	7.0
2025-01-18 20:10:10.751388	271.9	23.2	-90.6	4.2
2025-01-18 20:10:11.902995	272.2	23.2	-90.3	3.8
2025-01-18 20:10:13.055846	272.5	23.2	-90.3	5.5
2025-01-18 20:10:14.211059	272.8	23.2	-90.1	3.0
2025-01-18 20:10:15.372402	273.2	23.2	-90.5	4.4
2025-01-18 20:10:16.533370	273.5	23.2	-90.4	4.7
2025-01-18 20:10:17.694459	273.8	23.3	-90.6	4.4
2025-01-18 20:10:18.855848	274.1	23.3	-90.7	4.1
2025-01-18 20:10:20.024533	274.4	23.3	-90.3	6.2
2025-01-18 20:10:21.187572	274.8	23.3	-90.6	5.2
2025-01-18 20:10:22.348997	275.1	23.3	-90.9	3.8
2025-01-18 20:10:23.523251	275.4	23.3	-90.4	4.7
2025-01-18 20:10:24.691981	275.7	23.3	-90.6	9.6
2025-01-18 20:10:25.856795	276.0	23.3	-90.6	6.5
2025-01-18 20:10:27.002856	276.3	23.3	-90.7	6.2
2025-01-18 20:10:28.127461	276.7	23.3	-90.6	13.9
2025-01-18 20:10:29.280055	277.0	23.3	-90.3	7.2
2025-01-18 20:10:30.421197	277.3	23.3	-90.4	9.8
2025-01-18 20:10:31.577923	277.6	23.3	-90.5	10.4
2025-01-18 20:10:32.729360	277.9	23.3	-90.6	12.8
2025-01-18 20:10:33.882258	278.2	23.3	-90.5	12.2
2025-01-18 20:10:35.035272	278.5	23.3	-90.6	9.6
2025-01-18 20:10:36.195179	278.9	23.3	-90.4	6.3
2025-01-18 20:10:37.354468	279.2	23.2	-90.8	1.9
2025-01-18 20:10:38.515448	279.5	23.2	-91.0	5.1
2025-01-18 20:10:39.680739	279.8	23.2	-90.5	5.6
2025-01-18 20:10:40.848177	280.1	23.2	-90.5	8.0
2025-01-18 20:10:41.997665	280.4	23.2	-90.3	1.8
2025-01-18 20:10:43.162085	280.8	23.2	-90.5	1.5
2025-01-18 20:10:44.327470	281.1	23.2	-90.1	4.2
2025-01-18 20:10:45.487396	281.4	23.2	-90.6	2.5
2025-01-18 20:10:46.649235	281.7	23.2	-90.6	3.8
2025-01-18 20:10:47.808764	282.0	23.1	-90.3	3.2
2025-01-18 20:10:48.971214	282.3	23.1	-91.0	3.2
2025-01-18 20:10:50.130332	282.7	23.1	-89.8	4.7
2025-01-18 20:10:51.294845	283.0	23.1	-90.4	3.3
2025-01-18 20:10:52.447925	283.3	23.1	-90.4	2.4
2025-01-18 20:10:53.607666	283.6	23.0	-90.9	5.2
2025-01-18 20:10:54.767623	283.9	23.0	-90.7	1.4
2025-01-18 20:10:55.936714	284.2	23.0	-91.0	4.5
2025-01-18 20:10:57.097625	284.5	23.0	-90.7	2.6
2025-01-18 20:10:58.262732	284.8	23.0	-90.5	1.8
2025-01-18 20:10:59.426425	285.2	22.9	-90.9	2.2
2025-01-18 20:11:00.582277	285.5	22.9	-90.7	4.6
2025-01-18 20:11:01.750974	285.8	22.9	-91.0	3.5
2025-01-18 20:11:02.906306	286.1	22.9	-90.6	3.2
2025-01-18 20:11:04.069710	286.4	22.8	-90.9	6.3
2025-01-18 20:11:05.229298	286.7	22.8	-90.4	3.5
2025-01-18 20:11:06.391434	287.0	22.8	-90.0	4.1
2025-01-18 20:11:07.553615	287.3	22.7	-90.1	3.0
2025-01-18 20:11:08.719094	287.6	22.7	-90.6	3.3
2025-01-18 20:11:09.881065	287.9	22.7	-91.0	4.2
2025-01-18 20:11:11.056109	288.2	22.6	-90.8	5.3
2025-01-18 20:11:12.221129	288.6	22.6	-90.6	5.0
2025-01-18 20:11:13.385040	288.9	22.6	-90.5	5.4
2025-01-18 20:11:14.549020	289.2	22.5	-90.7	3.9
2025-01-18 20:11:15.706663	289.5	22.5	-90.8	4.4
2025-01-18 20:11:16.886509	289.8	22.5	-90.6	4.9
2025-01-18 20:11:18.048329	290.1	22.4	-90.9	4.2
2025-01-18 20:11:19.207241	290.4	22.4	-90.5	3.0
2025-01-18 20:11:20.368264	290.7	22.4	-90.9	4.6
2025-01-18 20:11:21.522795	291.0	22.3	-91.1	4.5
2025-01-18 20:11:22.649142	291.3	22.3	-90.9	4.4
2025-01-18 20:11:23.769786	291.5	22.2	-90.3	3.7
2025-01-18 20:11:24.890039	291.8	22.2	-90.5	3.3
2025-01-18 20:11:26.012100	292.1	22.2	-90.3	3.5
2025-01-18 20:11:27.132398	292.4	22.1	-90.2	7.2
2025-01-18 20:11:28.252693	292.7	22.1	-89.9	4.8
2025-01-18 20:11:29.373745	293.0	22.0	-90.0	4.5
2025-01-18 20:11:30.499157	293.3	22.0	-90.3	4.0
2025-01-18 20:11:31.628274	293.5	21.9	-89.9	5.4
2025-01-18 20:11:32.784932	293.8	21.9	-90.5	5.7
2025-01-18 20:11:33.945611	294.1	21.9	-90.2	7.2
2025-01-18 20:11:35.100374	294.4	21.8	-90.4	5.3
2025-01-18 20:11:36.254604	294.7	21.8	-90.4	2.3
2025-01-18 20:11:37.413346	295.0	21.7	-90.6	5.7
2025-01-18 20:11:38.580567	295.3	21.7	-90.5	3.2
2025-01-18 20:11:39.740121	295.6	21.6	-90.2	3.7
2025-01-18 20:11:40.902395	295.8	21.6	-90.1	3.0
2025-01-18 20:11:42.061476	296.1	21.5	-90.1	2.7
2025-01-18 20:11:43.218988	296.4	21.5	-90.1	1.7
2025-01-18 20:11:44.378271	296.7	21.4	-90.1	5.4
2025-01-18 20:11:45.545360	297.0	21.4	-90.5	4.2
2025-01-18 20:11:46.697577	297.3	21.3	-90.2	3.0
2025-01-18 20:11:47.844841	297.5	21.2	-90.3	3.4
2025-01-18 20:11:48.975945	297.8	21.2	-90.5	5.9
2025-01-18 20:11:50.137638	298.1	21.1	-90.3	5.5
2025-01-18 20:11:51.286011	298.4	21.1	-90.4	3.0
2025-01-18 20:11:52.440092	298.6	21.0	-90.2	4.0
2025-01-18 20:11:53.592657	298.9	21.0	-90.6	2.0
2025-01-18 20:11:54.748983	299.2	20.9	-90.7	3.9
2025-01-18 20:11:55.900208	299.5	20.9	-90.9	2.9
2025-01-18 20:11:57.026105	299.7	20.8	-90.3	3.9
2025-01-18 20:11:58.180120	300.0	20.7	-90.6	2.5
2025-01-18 20:11:59.323666	300.2	20.7	-90.6	0.6
2025-01-18 20:12:00.467635	300.5	20.6	-90.8	3.1
2025-01-18 20:12:01.627947	300.8	20.6	-90.7	2.1
2025-01-18 20:12:02.780055	301.0	20.5	-90.5	2.6
2025-01-18 20:12:03.931441	301.3	20.4	-90.6	3.1
2025-01-18 20:12:05.087730	301.6	20.4	-90.7	2.1
2025-01-18 20:12:06.252764	301.8	20.3	-90.3	2.7
2025-01-18 20:12:07.409632	302.1	20.3	-90.3	2.7
2025-01-18 20:12:08.576425	302.4	20.2	-90.4	3.0
2025-01-18 20:12:09.740714	302.6	20.1	-90.8	2.8
2025-01-18 20:12:10.904186	302.9	20.1	-90.4	3.8
2025-01-18 20:12:12.063231	303.1	20.0	-90.4	4.6
2025-01-18 20:12:13.222781	303.4	19.9	-90.3	4.1
2025-01-18 20:12:14.387004	303.7	19.9	-90.7	4.6
2025-01-18 20:12:15.543226	303.9	19.8	-90.9	2.1
2025-01-18 20:12:16.700813	304.2	19.7	-90.8	1.9
2025-01-18 20:12:17.872134	304.4	19.7	-90.4	2.5
2025-01-18 20:12:19.035369	304.7	19.6	-90.4	2.9
2025-01-18 20:12:20.190047	304.9	19.5	-90.6	3.6
2025-01-18 20:12:21.352275	305.2	19.5	-90.5	1.4
2025-01-18 20:12:22.509369	305.4	19.4	-90.3	2.5
2025-01-18 20:12:23.666434	305.7	19.3	-90.6	3.4
2025-01-18 20:12:24.837422	305.9	19.3	-90.3	4.9
2025-01-18 20:12:26.000851	306.2	19.2	-90.6	6.5
2025-01-18 20:12:27.155415	306.4	19.1	-89.8	5.8
2025-01-18 20:12:28.319305	306.7	19.1	-89.7	5.0
2025-01-18 20:12:29.473376	306.9	19.0	-89.3	5.8
2025-01-18 20:12:30.640787	307.1	18.9	-89.4	4.0
2025-01-18 20:12:31.800633	307.4	18.9	-89.6	3.9
2025-01-18 20:12:32.960863	307.6	18.8	-89.6	3.9
2025-01-18 20:12:34.120277	307.9	18.7	-89.7	1.3
2025-01-18 20:12:35.283815	308.1	18.6	-89.9	4.3
2025-01-18 20:12:36.450180	308.3	18.6	-90.6	5.6
2025-01-18 20:12:37.611934	308.6	18.5	-90.3	5.1
2025-01-18 20:12:38.774904	308.8	18.4	-90.4	4.1
2025-01-18 20:12:39.935321	309.0	18.4	-90.5	4.4
2025-01-18 20:12:41.091760	309.3	18.3	-90.3	5.3
2025-01-18 20:12:42.255505	309.5	18.2	-90.4	1.0
2025-01-18 20:12:43.425267	309.7	18.1	-90.1	1.5
2025-01-18 20:12:44.581346	310.0	18.1	-90.0	2.7
2025-01-18 20:12:45.720281	310.2	18.0	-90.2	2.3
2025-01-18 20:12:46.842487	310.4	17.9	-90.4	3.5
2025-01-18 20:12:47.963578	310.6	17.9	-90.3	2.7
2025-01-18 20:12:49.083499	310.8	17.8	-90.1	3.2
2025-01-18 20:12:50.204370	311.0	17.7	-90.3	5.7
2025-01-18 20:12:51.325476	311.3	17.6	-90.3	3.3
2025-01-18 20:12:52.447984	311.5	17.6	-90.3	2.7
2025-01-18 20:12:53.567160	311.7	17.5	-90.6	3.7
2025-01-18 20:12:54.693235	311.9	17.4	-90.3	4.6
2025-01-18 20:12:55.843498	312.1	17.4	-90.5	4.3
2025-01-18 20:12:57.011430	312.3	17.3	-90.5	4.3
2025-01-18 20:12:58.165414	312.6	17.2	-90.6	3.2
2025-01-18 20:12:59.323085	312.8	17.1	-90.1	10.1
2025-01-18 20:13:00.467979	313.0	17.1	-90.5	9.9
2025-01-18 20:13:01.642473	313.2	17.0	-90.6	5.9
2025-01-18 20:13:02.802614	313.4	16.9	-90.6	4.9
2025-01-18 20:13:03.971341	313.6	16.8	-90.4	3.3
2025-01-18 20:13:05.132189	313.8	16.7	-90.0	4.9
2025-01-18 20:13:06.290839	314.0	16.7	-90.4	3.5
2025-01-18 20:13:07.455274	314.2	16.6	-90.5	7.0
2025-01-18 20:13:08.615276	314.4	16.5	-90.3	4.3
2025-01-18 20:13:09.783112	314.7	16.4	-90.5	2.0
2025-01-18 20:13:10.945684	314.9	16.4	-90.6	4.2
2025-01-18 20:13:12.103288	315.1	16.3	-90.6	3.0
2025-01-18 20:13:13.254863	315.3	16.2	-90.1	3.1
2025-01-18 20:13:14.382270	315.5	16.1	-90.9	3.8
2025-01-18 20:13:15.523460	315.7	16.1	-90.7	3.0
2025-01-18 20:13:16.685312	315.9	16.0	-90.7	2.1
2025-01-18 20:13:17.826490	316.1	15.9	-90.8	1.7
2025-01-18 20:13:18.983342	316.3	15.8	-90.9	4.0
2025-01-18 20:13:20.137500	316.4	15.8	-90.6	3.9
2025-01-18 20:13:21.297652	316.6	15.7	-90.1	2.1
2025-01-18 20:13:22.451253	316.8	15.6	-89.9	2.3
2025-01-18 20:13:23.604778	317.0	15.5	-90.0	1.0
2025-01-18 20:13:24.768249	317.2	15.5	-90.3	2.6
2025-01-18 20:13:25.926995	317.4	15.4	-90.3	4.5
2025-01-18 20:13:27.085846	317.6	15.3	-90.4	5.4
2025-01-18 20:13:28.221570	317.8	15.2	-90.3	5.5
2025-01-18 20:13:29.365729	318.0	15.1	-90.3	4.6
2025-01-18 20:13:30.517186	318.2	15.1	-90.3	3.8
2025-01-18 20:13:31.663806	318.4	15.0	-90.6	4.0
2025-01-18 20:13:32.825208	318.5	14.9	-90.6	9.4
2025-01-18 20:13:33.980027	318.7	14.8	-90.2	3.5
2025-01-18 20:13:35.130441	318.9	14.8	-90.1	6.0
2025-01-18 20:13:36.281687	319.1	14.7	-90.1	3.3
#Closed at: 2025-01-18 20:07:27.879227