passes_logs/2025/01/18/LEX_Murmansk/LEX_Murmansk__20250118_100457_NOAA_19_rec.log

#Pass ID: 20250118_100457_NOAA 19
#Satellite: NOAA 19
#Configuration: NOAA 19
#Start time: 2025-01-18 10:04:52.402253

#LorettStation: 1.0.0 05.05.2024
#Station: LEX_Murmansk
#Location: 33.156738 lon 68.926811 lat
#TLE: 1 33591U 09005A   25017.12803845  .00000314  00000+0  19161-3 0  9999
#TLE: 2 33591  99.0192  80.9069 0014403  51.8715 308.3753 14.13261185821848

#Time	Az	El	Level	SNR
2025-01-18 10:05:04.700434	23.6	16.3	-92.0	3.5
2025-01-18 10:05:07.005968	23.4	16.5	-92.4	3.1
2025-01-18 10:05:09.290715	23.3	16.8	-92.1	1.8
2025-01-18 10:05:11.531314	23.1	17.0	-92.2	3.1
2025-01-18 10:05:13.772816	23.0	17.2	-92.4	9.8
2025-01-18 10:05:16.015502	22.8	17.5	-92.3	8.6
2025-01-18 10:05:18.260873	22.6	17.7	-91.9	6.1
2025-01-18 10:05:20.575016	22.5	18.0	-92.0	8.4
2025-01-18 10:05:22.869930	22.3	18.3	-92.1	8.9
2025-01-18 10:05:25.169234	22.1	18.5	-92.3	4.2
2025-01-18 10:05:27.481426	21.9	18.8	-92.6	4.8
2025-01-18 10:05:29.800811	21.7	19.1	-92.4	11.7
2025-01-18 10:05:32.114030	21.5	19.3	-92.3	9.3
2025-01-18 10:05:34.406862	21.3	19.6	-92.2	5.6
2025-01-18 10:05:36.705256	21.2	19.9	-92.5	7.4
2025-01-18 10:05:39.018209	21.0	20.2	-92.3	3.3
2025-01-18 10:05:41.327609	20.7	20.4	-91.9	0.1
2025-01-18 10:05:43.648621	20.5	20.7	-92.4	0.0
2025-01-18 10:05:45.966184	20.3	21.0	-92.3	6.8
2025-01-18 10:05:48.277377	20.1	21.3	-92.3	7.9
2025-01-18 10:05:50.572204	19.9	21.6	-92.2	5.0
2025-01-18 10:05:52.888690	19.7	21.9	-92.3	5.3
2025-01-18 10:05:55.170524	19.4	22.2	-92.0	9.6
2025-01-18 10:05:57.481032	19.2	22.5	-92.2	4.0
2025-01-18 10:05:59.793537	19.0	22.8	-92.0	2.4
2025-01-18 10:06:02.105846	18.7	23.1	-92.6	8.1
2025-01-18 10:06:04.412021	18.5	23.4	-92.3	12.3
2025-01-18 10:06:06.726416	18.2	23.7	-92.1	6.3
2025-01-18 10:06:09.042706	18.0	24.1	-92.2	6.9
2025-01-18 10:06:11.355452	17.7	24.4	-91.5	6.8
2025-01-18 10:06:13.671167	17.4	24.7	-92.3	7.9
2025-01-18 10:06:15.978175	17.1	25.0	-92.3	1.6
2025-01-18 10:06:18.277704	16.9	25.4	-92.3	4.8
2025-01-18 10:06:20.588821	16.6	25.7	-92.4	9.6
2025-01-18 10:06:22.903956	16.3	26.0	-92.4	13.6
2025-01-18 10:06:25.214268	16.0	26.4	-92.3	3.9
2025-01-18 10:06:27.516241	15.7	26.7	-92.1	9.4
2025-01-18 10:06:29.824505	15.4	27.1	-92.6	10.9
2025-01-18 10:06:32.136796	15.0	27.4	-92.4	3.5
2025-01-18 10:06:34.446546	14.7	27.8	-92.8	2.4
2025-01-18 10:06:36.754096	14.4	28.1	-92.5	2.1
2025-01-18 10:06:39.068617	14.0	28.5	-92.4	5.3
2025-01-18 10:06:41.374292	13.7	28.8	-92.3	8.6
2025-01-18 10:06:43.679113	13.3	29.2	-92.4	5.1
2025-01-18 10:06:45.985138	12.9	29.6	-91.9	8.1
2025-01-18 10:06:48.284533	12.6	30.0	-92.5	12.7
2025-01-18 10:06:50.595048	12.2	30.3	-92.2	7.1
2025-01-18 10:06:52.889682	11.8	30.7	-92.5	6.0
2025-01-18 10:06:55.201778	11.4	31.1	-92.5	3.1
2025-01-18 10:06:57.513724	11.0	31.5	-92.5	13.8
2025-01-18 10:06:59.829093	10.5	31.9	-92.4	13.1
2025-01-18 10:07:02.139111	10.1	32.3	-92.0	12.4
2025-01-18 10:07:04.443910	9.6	32.7	-92.4	9.8
2025-01-18 10:07:06.759607	9.2	33.1	-92.7	12.4
2025-01-18 10:07:09.071880	8.7	33.5	-92.7	11.0
2025-01-18 10:07:11.390602	8.2	33.9	-92.4	5.0
2025-01-18 10:07:13.700132	7.7	34.3	-92.3	2.3
2025-01-18 10:07:16.005892	7.2	34.7	-92.5	10.4
2025-01-18 10:07:18.323993	6.7	35.1	-92.2	18.2
2025-01-18 10:07:20.633355	6.2	35.6	-92.6	14.8
2025-01-18 10:07:22.948763	5.6	36.0	-92.7	11.5
2025-01-18 10:07:25.262796	5.0	36.4	-92.3	13.7
2025-01-18 10:07:27.568675	4.5	36.8	-92.2	17.0
2025-01-18 10:07:29.868824	3.9	37.3	-92.7	13.5
2025-01-18 10:07:32.172101	3.3	37.7	-92.5	8.2
2025-01-18 10:07:34.492002	2.6	38.1	-92.5	5.0
2025-01-18 10:07:36.796961	2.0	38.6	-92.5	8.1
2025-01-18 10:07:39.093970	1.3	39.0	-92.3	18.4
2025-01-18 10:07:41.405135	0.6	39.4	-92.7	17.7
2025-01-18 10:07:43.704917	359.9	39.9	-92.5	10.3
2025-01-18 10:07:46.013031	359.2	40.3	-92.7	9.7
2025-01-18 10:07:48.319497	358.5	40.7	-92.0	15.9
2025-01-18 10:07:50.636981	357.7	41.2	-92.2	18.2
2025-01-18 10:07:52.953228	356.9	41.6	-92.4	16.0
2025-01-18 10:07:55.271271	356.1	42.1	-92.3	5.2
2025-01-18 10:07:57.588427	355.3	42.5	-92.3	5.9
2025-01-18 10:07:59.895311	354.5	42.9	-92.3	9.2
2025-01-18 10:08:02.218139	353.6	43.3	-92.4	15.4
2025-01-18 10:08:04.533100	352.7	43.8	-92.3	20.3
2025-01-18 10:08:06.836610	351.8	44.2	-92.5	14.8
2025-01-18 10:08:09.157353	350.8	44.6	-92.0	13.3
2025-01-18 10:08:11.462786	349.9	45.0	-92.2	13.5
2025-01-18 10:08:13.780272	348.9	45.4	-92.3	15.1
2025-01-18 10:08:16.091520	347.9	45.8	-92.2	16.7
2025-01-18 10:08:18.398736	346.8	46.2	-92.4	16.6
2025-01-18 10:08:20.714095	345.8	46.6	-92.6	9.8
2025-01-18 10:08:23.033303	344.6	47.0	-92.2	8.2
2025-01-18 10:08:25.341658	343.5	47.4	-92.1	3.2
2025-01-18 10:08:27.662445	342.4	47.8	-92.6	5.5
2025-01-18 10:08:29.980792	341.2	48.1	-92.1	7.2
2025-01-18 10:08:32.288063	340.0	48.5	-92.3	7.0
2025-01-18 10:08:34.610639	338.7	48.8	-92.5	9.3
2025-01-18 10:08:36.918755	337.5	49.1	-92.3	11.7
2025-01-18 10:08:39.233182	336.2	49.4	-92.5	10.7
2025-01-18 10:08:41.546960	334.9	49.7	-92.7	8.0
2025-01-18 10:08:43.851382	333.5	50.0	-92.6	6.0
2025-01-18 10:08:46.165379	332.2	50.3	-92.4	7.0
2025-01-18 10:08:48.478343	330.8	50.5	-92.5	13.6
2025-01-18 10:08:50.787451	329.4	50.7	-92.6	11.8
2025-01-18 10:08:53.105359	328.0	50.9	-92.8	10.9
2025-01-18 10:08:55.423595	326.5	51.1	-92.5	5.9
2025-01-18 10:08:57.733311	325.0	51.3	-92.5	4.1
2025-01-18 10:09:00.043671	323.6	51.5	-91.9	10.5
2025-01-18 10:09:02.339998	322.1	51.6	-92.8	4.9
2025-01-18 10:09:04.663126	320.6	51.7	-92.7	3.4
2025-01-18 10:09:06.983924	319.0	51.8	-92.7	3.2
2025-01-18 10:09:09.287964	317.5	51.9	-92.0	2.6
2025-01-18 10:09:11.600391	316.0	51.9	-92.7	4.5
2025-01-18 10:09:13.920181	314.4	52.0	-92.6	3.4
2025-01-18 10:09:16.219703	312.9	52.0	-92.9	3.6
2025-01-18 10:09:18.536523	311.3	52.0	-92.6	7.2
2025-01-18 10:09:20.833508	309.8	51.9	-92.3	1.7
2025-01-18 10:09:23.146562	308.3	51.9	-92.6	1.4
2025-01-18 10:09:25.452498	306.8	51.8	-92.7	6.0
2025-01-18 10:09:27.757441	305.2	51.7	-92.8	9.7
2025-01-18 10:09:30.073110	303.7	51.6	-92.6	15.6
2025-01-18 10:09:32.382305	302.2	51.5	-92.0	13.6
2025-01-18 10:09:34.689310	300.8	51.3	-92.4	13.9
2025-01-18 10:09:36.972655	299.3	51.1	-92.7	12.8
2025-01-18 10:09:39.217284	297.9	50.9	-92.5	10.6
2025-01-18 10:09:41.459285	296.5	50.7	-92.2	14.4
2025-01-18 10:09:43.692861	295.2	50.5	-92.4	10.5
2025-01-18 10:09:45.935930	293.8	50.3	-92.1	10.8
2025-01-18 10:09:48.227162	292.5	50.0	-92.7	10.7
2025-01-18 10:09:50.538274	291.1	49.7	-92.2	10.9
2025-01-18 10:09:52.842436	289.8	49.4	-92.6	7.4
2025-01-18 10:09:55.171202	288.5	49.1	-92.4	11.2
2025-01-18 10:09:57.484390	287.3	48.8	-92.1	8.9
2025-01-18 10:09:59.797133	286.0	48.5	-92.5	14.3
2025-01-18 10:10:02.095411	284.8	48.1	-92.4	16.6
2025-01-18 10:10:04.411759	283.6	47.8	-92.5	13.2
2025-01-18 10:10:06.717819	282.5	47.4	-92.3	8.8
2025-01-18 10:10:09.031574	281.4	47.1	-92.7	7.3
2025-01-18 10:10:11.366147	280.2	46.7	-92.3	14.3
2025-01-18 10:10:13.673028	279.2	46.3	-92.1	15.7
2025-01-18 10:10:15.983013	278.1	45.9	-92.7	15.7
2025-01-18 10:10:18.289157	277.1	45.5	-92.2	13.4
2025-01-18 10:10:20.602956	276.1	45.1	-92.4	17.2
2025-01-18 10:10:22.925640	275.1	44.7	-92.1	9.0
2025-01-18 10:10:25.229999	274.2	44.2	-92.3	13.6
2025-01-18 10:10:27.533168	273.3	43.8	-92.6	15.2
2025-01-18 10:10:29.851699	272.4	43.4	-92.6	8.8
2025-01-18 10:10:32.162629	271.5	43.0	-92.4	6.8
2025-01-18 10:10:34.472926	270.7	42.5	-92.5	4.6
2025-01-18 10:10:36.792264	269.8	42.1	-92.5	6.6
2025-01-18 10:10:39.107464	269.0	41.7	-92.4	10.0
2025-01-18 10:10:41.425304	268.2	41.2	-92.5	4.7
2025-01-18 10:10:43.733655	267.5	40.8	-92.6	7.4
2025-01-18 10:10:46.029734	266.7	40.4	-92.5	12.2
2025-01-18 10:10:48.334085	266.0	39.9	-92.3	9.7
2025-01-18 10:10:50.642223	265.3	39.5	-92.7	10.7
2025-01-18 10:10:52.965118	264.6	39.0	-92.6	6.8
2025-01-18 10:10:55.270950	264.0	38.6	-92.6	3.9
2025-01-18 10:10:57.582400	263.3	38.2	-92.6	3.6
2025-01-18 10:10:59.898373	262.7	37.7	-92.5	1.6
2025-01-18 10:11:02.215839	262.1	37.3	-92.7	2.0
2025-01-18 10:11:04.518233	261.5	36.9	-92.2	2.5
2025-01-18 10:11:06.839193	260.9	36.5	-92.5	10.0
2025-01-18 10:11:09.144829	260.3	36.0	-92.6	10.4
2025-01-18 10:11:11.442842	259.8	35.6	-92.2	10.3
2025-01-18 10:11:13.756520	259.3	35.2	-92.4	10.0
2025-01-18 10:11:16.063893	258.7	34.8	-92.6	12.6
2025-01-18 10:11:18.389456	258.2	34.4	-92.5	12.1
2025-01-18 10:11:20.712573	257.7	33.9	-92.8	13.2
2025-01-18 10:11:23.022627	257.2	33.5	-92.8	8.6
2025-01-18 10:11:25.337050	256.8	33.1	-92.6	21.3
2025-01-18 10:11:27.648964	256.3	32.7	-92.7	14.7
2025-01-18 10:11:29.959696	255.9	32.3	-92.5	9.2
2025-01-18 10:11:32.282117	255.4	31.9	-92.7	18.6
2025-01-18 10:11:34.586648	255.0	31.5	-92.6	18.5
2025-01-18 10:11:36.900694	254.6	31.1	-92.7	21.7
2025-01-18 10:11:39.215092	254.2	30.8	-92.7	18.3
2025-01-18 10:11:41.537635	253.8	30.4	-92.5	13.8
2025-01-18 10:11:43.813339	253.4	30.0	-92.5	11.7
2025-01-18 10:11:46.053788	253.0	29.6	-92.7	5.4
2025-01-18 10:11:48.296180	252.6	29.3	-92.6	13.1
2025-01-18 10:11:50.537709	252.3	28.9	-92.6	9.2
2025-01-18 10:11:52.789528	251.9	28.6	-92.4	14.8
2025-01-18 10:11:55.090886	251.6	28.2	-92.6	14.3
2025-01-18 10:11:57.359583	251.3	27.9	-92.3	17.2
2025-01-18 10:11:59.645975	250.9	27.5	-92.9	19.0
2025-01-18 10:12:01.929261	250.6	27.2	-93.1	14.3
2025-01-18 10:12:04.239264	250.3	26.8	-92.5	17.2
2025-01-18 10:12:06.560434	250.0	26.5	-92.7	9.8
2025-01-18 10:12:08.859701	249.7	26.1	-92.9	7.4
2025-01-18 10:12:11.129278	249.4	25.8	-92.8	10.8
2025-01-18 10:12:13.418693	249.1	25.5	-92.4	12.7
2025-01-18 10:12:15.723893	248.8	25.1	-92.8	11.9
2025-01-18 10:12:18.039246	248.5	24.8	-92.5	5.1
2025-01-18 10:12:20.342896	248.3	24.5	-92.7	6.8
2025-01-18 10:12:22.660304	248.0	24.2	-92.9	3.2
2025-01-18 10:12:24.992374	247.7	23.8	-92.7	5.9
2025-01-18 10:12:27.316827	247.5	23.5	-92.8	6.2
2025-01-18 10:12:29.630322	247.2	23.2	-92.8	2.0
2025-01-18 10:12:31.947371	247.0	22.9	-92.4	1.4
2025-01-18 10:12:34.259775	246.7	22.6	-92.4	4.4
2025-01-18 10:12:36.564311	246.5	22.3	-92.9	5.7
2025-01-18 10:12:38.872136	246.3	22.0	-92.7	6.3
2025-01-18 10:12:41.181849	246.1	21.7	-92.4	8.1
2025-01-18 10:12:43.492526	245.8	21.4	-92.3	6.1
2025-01-18 10:12:45.802386	245.6	21.1	-91.8	5.1
2025-01-18 10:12:48.105087	245.4	20.8	-92.5	6.1
2025-01-18 10:12:50.420341	245.2	20.5	-92.7	3.5
2025-01-18 10:12:52.732448	245.0	20.2	-92.1	6.4
2025-01-18 10:12:55.045226	244.8	20.0	-92.0	2.7
2025-01-18 10:12:57.356756	244.6	19.7	-92.4	5.6
2025-01-18 10:12:59.658942	244.4	19.4	-92.8	10.9
2025-01-18 10:13:01.956577	244.2	19.1	-92.7	11.5
2025-01-18 10:13:04.275495	244.0	18.9	-92.6	14.7
2025-01-18 10:13:06.581470	243.8	18.6	-92.8	9.9
2025-01-18 10:13:08.891313	243.6	18.3	-92.9	8.6
2025-01-18 10:13:11.193983	243.5	18.1	-92.6	12.5
2025-01-18 10:13:13.506770	243.3	17.8	-92.5	10.0
2025-01-18 10:13:15.819927	243.1	17.6	-92.2	8.0
2025-01-18 10:13:18.133455	242.9	17.3	-92.9	1.9
2025-01-18 10:13:20.447097	242.8	17.1	-92.3	1.2
2025-01-18 10:13:22.760313	242.6	16.8	-92.7	5.6
2025-01-18 10:13:25.064141	242.5	16.6	-92.2	5.3
2025-01-18 10:13:27.376741	242.3	16.3	-91.7	8.4
2025-01-18 10:13:29.690921	242.1	16.1	-92.2	8.6
2025-01-18 10:13:32.012401	242.0	15.8	-92.0	6.8
2025-01-18 10:13:34.336225	241.8	15.6	-92.6	11.9
2025-01-18 10:13:36.654414	241.7	15.4	-92.3	8.0
2025-01-18 10:13:38.969841	241.5	15.1	-91.9	8.4
2025-01-18 10:13:41.272571	241.4	14.9	-92.6	12.0
2025-01-18 10:13:43.578884	241.3	14.7	-92.2	9.6
#Closed at: 2025-01-18 10:04:57.484426