passes_logs/2025/01/18/LEX_Murmansk/LEX_Murmansk__20250118_184828_NOAA_18_rec.log

#Pass ID: 20250118_184828_NOAA 18
#Satellite: NOAA 18
#Configuration: NOAA 18
#Start time: 2025-01-18 18:48:23.238442

#LorettStation: 1.0.0 05.05.2024
#Station: LEX_Murmansk
#Location: 33.156738 lon 68.926811 lat
#TLE: 1 28654U 05018A   25018.13582066  .00000389  00000+0  23006-3 0  9999
#TLE: 2 28654  98.8561  99.1591 0014505 170.4027 189.7425 14.13489305 13620

#Time	Az	El	Level	SNR
2025-01-18 18:48:35.390330	149.9	16.3	-90.2	5.6
2025-01-18 18:48:37.713725	149.9	16.6	-90.8	5.7
2025-01-18 18:48:40.026091	149.9	16.8	-90.1	6.2
2025-01-18 18:48:42.314759	149.9	17.1	-91.0	5.6
2025-01-18 18:48:44.625754	149.9	17.4	-91.0	5.0
2025-01-18 18:48:46.920615	149.9	17.6	-90.8	5.2
2025-01-18 18:48:49.238725	149.9	17.9	-90.4	6.3
2025-01-18 18:48:51.562673	149.9	18.2	-91.0	4.0
2025-01-18 18:48:53.852846	149.9	18.4	-90.9	6.4
2025-01-18 18:48:56.151434	149.9	18.7	-90.5	7.8
2025-01-18 18:48:58.448026	149.9	19.0	-90.8	8.7
2025-01-18 18:49:00.750014	149.8	19.3	-90.4	9.1
2025-01-18 18:49:03.034277	149.8	19.6	-91.4	7.6
2025-01-18 18:49:05.341452	149.8	19.9	-91.0	9.2
2025-01-18 18:49:07.651314	149.8	20.2	-90.4	8.9
2025-01-18 18:49:09.946429	149.8	20.5	-90.7	12.7
2025-01-18 18:49:12.228444	149.8	20.8	-90.5	10.0
2025-01-18 18:49:14.531963	149.8	21.1	-90.5	8.6
2025-01-18 18:49:16.839565	149.8	21.4	-90.6	8.4
2025-01-18 18:49:19.161443	149.8	21.7	-91.0	6.3
2025-01-18 18:49:21.473174	149.8	22.0	-90.8	4.7
2025-01-18 18:49:23.792782	149.8	22.4	-90.8	8.0
2025-01-18 18:49:26.119271	149.8	22.7	-90.6	8.1
2025-01-18 18:49:28.405369	149.7	23.0	-90.6	7.5
2025-01-18 18:49:30.709436	149.7	23.3	-91.0	9.5
2025-01-18 18:49:33.003804	149.7	23.7	-90.6	9.8
2025-01-18 18:49:35.316084	149.7	24.0	-90.9	9.9
2025-01-18 18:49:37.642224	149.7	24.4	-90.2	6.6
2025-01-18 18:49:39.967578	149.7	24.7	-90.9	7.4
2025-01-18 18:49:42.296137	149.7	25.1	-91.0	11.0
2025-01-18 18:49:44.614272	149.7	25.5	-90.7	11.3
2025-01-18 18:49:46.946466	149.6	25.8	-90.5	11.1
2025-01-18 18:49:49.274492	149.6	26.2	-90.8	10.9
2025-01-18 18:49:51.607888	149.6	26.6	-91.1	6.7
2025-01-18 18:49:53.933363	149.6	27.0	-91.3	5.4
2025-01-18 18:49:56.263830	149.6	27.4	-90.8	7.2
2025-01-18 18:49:58.594423	149.6	27.8	-91.3	5.9
2025-01-18 18:50:00.914916	149.5	28.2	-91.2	6.9
2025-01-18 18:50:03.238680	149.5	28.6	-90.8	10.0
2025-01-18 18:50:05.558898	149.5	29.0	-91.0	12.3
2025-01-18 18:50:07.878530	149.5	29.4	-90.7	8.7
2025-01-18 18:50:10.139474	149.5	29.8	-88.1	6.5
2025-01-18 18:50:12.379843	149.4	30.3	-90.7	6.5
2025-01-18 18:50:14.620808	149.4	30.7	-90.4	9.7
2025-01-18 18:50:16.866617	149.4	31.1	-88.7	9.7
2025-01-18 18:50:19.114274	149.4	31.6	-90.2	8.2
2025-01-18 18:50:21.405319	149.3	32.0	-90.2	10.1
2025-01-18 18:50:23.704453	149.3	32.5	-90.5	10.0
2025-01-18 18:50:26.001578	149.3	32.9	-90.7	9.1
2025-01-18 18:50:28.286203	149.3	33.4	-91.1	11.3
2025-01-18 18:50:30.563689	149.2	33.9	-90.8	9.8
2025-01-18 18:50:32.863411	149.2	34.4	-89.1	9.9
2025-01-18 18:50:35.152510	149.2	34.9	-88.0	11.8
2025-01-18 18:50:37.464721	149.1	35.4	-88.8	9.0
2025-01-18 18:50:39.766560	149.1	35.9	-91.1	15.5
2025-01-18 18:50:42.089497	149.1	36.5	-90.8	11.5
2025-01-18 18:50:44.412262	149.0	37.0	-90.2	8.7
2025-01-18 18:50:46.741377	149.0	37.5	-91.4	14.2
2025-01-18 18:50:49.067732	149.0	38.1	-91.4	13.1
2025-01-18 18:50:51.395109	148.9	38.7	-91.0	13.3
2025-01-18 18:50:53.717346	148.9	39.2	-90.2	14.5
2025-01-18 18:50:56.043195	148.8	39.8	-90.2	14.0
2025-01-18 18:50:58.362340	148.8	40.4	-90.0	14.3
2025-01-18 18:51:00.689526	148.7	41.0	-90.1	14.6
2025-01-18 18:51:03.009463	148.7	41.6	-90.4	6.5
2025-01-18 18:51:05.336585	148.6	42.3	-90.5	12.7
2025-01-18 18:51:07.664135	148.6	42.9	-90.3	15.6
2025-01-18 18:51:09.976666	148.5	43.6	-90.3	15.0
2025-01-18 18:51:12.243045	148.4	44.2	-90.3	15.7
2025-01-18 18:51:14.484375	148.4	44.8	-90.5	14.2
2025-01-18 18:51:16.725731	148.3	45.5	-90.9	14.4
2025-01-18 18:51:18.965886	148.2	46.2	-91.1	8.2
2025-01-18 18:51:21.226537	148.2	46.9	-90.6	10.0
2025-01-18 18:51:23.548856	148.1	47.6	-90.6	5.2
2025-01-18 18:51:25.846960	148.0	48.3	-90.6	8.0
2025-01-18 18:51:28.133938	147.9	49.0	-90.9	9.4
2025-01-18 18:51:30.445792	147.8	49.8	-90.6	9.3
2025-01-18 18:51:32.750316	147.7	50.5	-90.1	12.0
2025-01-18 18:51:35.066964	147.6	51.3	-90.7	11.0
2025-01-18 18:51:37.389647	147.5	52.1	-90.8	14.6
2025-01-18 18:51:39.713939	147.4	52.9	-90.2	16.4
2025-01-18 18:51:42.049853	147.3	53.7	-90.3	10.9
2025-01-18 18:51:44.346594	147.2	54.5	-90.4	14.5
2025-01-18 18:51:46.632041	147.0	55.3	-90.9	15.3
2025-01-18 18:51:48.926451	146.9	56.2	-90.7	16.6
2025-01-18 18:51:51.239304	146.7	57.0	-90.5	16.1
2025-01-18 18:51:53.546226	146.6	57.9	-90.8	15.6
2025-01-18 18:51:55.866627	146.4	58.8	-90.8	16.8
2025-01-18 18:51:58.184452	146.2	59.7	-90.0	15.0
2025-01-18 18:52:00.504786	146.0	60.6	-90.6	18.9
2025-01-18 18:52:02.829321	145.8	61.6	-90.8	19.7
2025-01-18 18:52:05.144409	145.5	62.5	-90.9	15.5
2025-01-18 18:52:07.420873	145.3	63.4	-90.8	8.0
2025-01-18 18:52:09.720936	145.0	64.4	-90.4	16.8
2025-01-18 18:52:11.994792	144.7	65.4	-90.7	11.0
2025-01-18 18:52:14.282815	144.3	66.3	-90.9	18.1
2025-01-18 18:52:16.582347	144.0	67.3	-90.4	18.2
2025-01-18 18:52:18.865498	143.6	68.3	-90.7	20.5
2025-01-18 18:52:21.169387	143.1	69.3	-90.5	17.6
2025-01-18 18:52:23.473627	142.6	70.4	-91.1	12.6
2025-01-18 18:52:25.783590	142.1	71.4	-90.6	18.8
2025-01-18 18:52:28.111134	141.4	72.5	-90.3	16.3
2025-01-18 18:52:30.431603	140.7	73.5	-90.6	18.3
2025-01-18 18:52:32.762406	139.8	74.6	-90.4	21.7
2025-01-18 18:52:35.081704	138.9	75.7	-90.8	17.6
2025-01-18 18:52:37.409863	137.7	76.7	-90.8	13.8
2025-01-18 18:52:39.733397	136.4	77.8	-90.7	12.6
2025-01-18 18:52:42.060012	134.8	78.9	-90.5	12.0
2025-01-18 18:52:44.371910	132.8	80.0	-90.5	20.9
2025-01-18 18:52:46.700960	130.4	81.0	-90.2	21.0
2025-01-18 18:52:49.023062	127.3	82.1	-90.4	16.5
2025-01-18 18:52:51.340179	123.2	83.1	-90.6	20.3
2025-01-18 18:52:53.661841	117.8	84.1	-90.5	22.4
2025-01-18 18:52:55.992852	110.3	85.0	-91.0	25.0
2025-01-18 18:52:58.324178	99.7	85.8	-90.9	21.0
2025-01-18 18:53:00.645902	85.1	86.4	-90.4	22.3
2025-01-18 18:53:02.974349	66.5	86.6	-90.4	18.9
2025-01-18 18:53:05.281307	47.3	86.5	-90.8	23.8
2025-01-18 18:53:07.531890	31.2	86.1	-90.8	15.8
2025-01-18 18:53:09.774269	19.2	85.4	-90.7	24.5
2025-01-18 18:53:12.015059	10.6	84.6	-90.0	11.8
2025-01-18 18:53:14.261563	4.3	83.7	-90.3	22.7
2025-01-18 18:53:16.535297	359.6	82.7	-90.5	13.6
2025-01-18 18:53:18.855259	356.0	81.6	-90.2	21.9
2025-01-18 18:53:21.159429	353.2	80.6	-91.0	21.4
2025-01-18 18:53:23.440630	351.0	79.6	-90.4	15.7
2025-01-18 18:53:25.734437	349.2	78.5	-91.0	21.6
2025-01-18 18:53:28.048579	347.7	77.4	-91.2	12.9
2025-01-18 18:53:30.345820	346.5	76.4	-90.6	21.2
2025-01-18 18:53:32.638765	345.4	75.3	-91.0	14.6
2025-01-18 18:53:34.926456	344.5	74.2	-90.0	11.0
2025-01-18 18:53:37.241909	343.7	73.2	-91.0	19.1
2025-01-18 18:53:39.566940	343.0	72.1	-90.7	10.1
2025-01-18 18:53:41.889649	342.4	71.1	-90.8	13.1
2025-01-18 18:53:44.196393	341.9	70.0	-90.7	17.5
2025-01-18 18:53:46.511021	341.4	69.0	-90.8	13.0
2025-01-18 18:53:48.833690	340.9	68.0	-90.5	20.2
2025-01-18 18:53:51.159036	340.5	67.0	-90.8	19.3
2025-01-18 18:53:53.476025	340.2	66.0	-90.7	11.5
2025-01-18 18:53:55.775589	339.9	65.0	-89.9	21.5
2025-01-18 18:53:58.064295	339.6	64.0	-89.6	10.4
2025-01-18 18:54:00.360866	339.3	63.1	-89.9	20.9
2025-01-18 18:54:02.661324	339.0	62.1	-90.7	20.4
2025-01-18 18:54:04.971195	338.8	61.2	-90.5	15.4
2025-01-18 18:54:07.295878	338.6	60.3	-90.2	18.8
2025-01-18 18:54:09.610014	338.4	59.4	-90.1	17.3
2025-01-18 18:54:11.937306	338.2	58.5	-90.2	16.7
2025-01-18 18:54:14.252736	338.0	57.6	-90.1	15.1
2025-01-18 18:54:16.579356	337.9	56.7	-90.7	16.3
2025-01-18 18:54:18.911275	337.7	55.8	-90.5	16.1
2025-01-18 18:54:21.235524	337.6	55.0	-90.7	9.6
2025-01-18 18:54:23.549262	337.4	54.2	-90.9	10.8
2025-01-18 18:54:25.866221	337.3	53.3	-91.0	7.0
2025-01-18 18:54:28.191242	337.2	52.5	-90.3	5.3
2025-01-18 18:54:30.493118	337.1	51.7	-90.4	7.9
2025-01-18 18:54:32.734371	337.0	51.0	-90.5	8.7
2025-01-18 18:54:34.975080	336.9	50.2	-89.9	7.4
2025-01-18 18:54:37.216747	336.8	49.5	-89.9	8.2
2025-01-18 18:54:39.462343	336.7	48.8	-90.1	14.6
2025-01-18 18:54:41.766661	336.6	48.1	-89.9	9.4
2025-01-18 18:54:44.084841	336.5	47.3	-90.1	15.7
2025-01-18 18:54:46.394663	336.5	46.6	-90.4	16.8
2025-01-18 18:54:48.719850	336.4	45.9	-90.6	16.0
2025-01-18 18:54:51.047183	336.3	45.2	-91.1	10.6
2025-01-18 18:54:53.366832	336.2	44.6	-91.0	17.3
2025-01-18 18:54:55.694894	336.2	43.9	-90.6	20.0
2025-01-18 18:54:58.017040	336.1	43.2	-90.8	12.6
2025-01-18 18:55:00.345484	336.1	42.6	-90.3	19.9
2025-01-18 18:55:02.671824	336.0	42.0	-90.6	19.3
2025-01-18 18:55:04.987504	336.0	41.3	-91.2	20.7
2025-01-18 18:55:07.314041	335.9	40.7	-90.8	18.6
2025-01-18 18:55:09.623698	335.9	40.1	-91.1	11.9
2025-01-18 18:55:11.896737	335.8	39.6	-90.8	14.6
2025-01-18 18:55:14.199577	335.8	39.0	-90.6	17.0
2025-01-18 18:55:16.503186	335.7	38.4	-90.7	15.0
2025-01-18 18:55:18.828573	335.7	37.9	-91.1	11.1
2025-01-18 18:55:21.153507	335.6	37.3	-90.4	13.9
2025-01-18 18:55:23.471576	335.6	36.8	-90.6	10.1
2025-01-18 18:55:25.798220	335.6	36.2	-91.2	10.1
2025-01-18 18:55:28.127006	335.5	35.7	-90.9	6.8
2025-01-18 18:55:30.449738	335.5	35.2	-91.2	7.8
2025-01-18 18:55:32.766599	335.5	34.7	-90.9	17.3
2025-01-18 18:55:35.086621	335.4	34.2	-91.2	12.6
2025-01-18 18:55:37.426115	335.4	33.7	-91.0	17.0
2025-01-18 18:55:39.751105	335.4	33.2	-91.2	11.2
2025-01-18 18:55:42.079235	335.4	32.7	-91.3	8.3
2025-01-18 18:55:44.393203	335.3	32.2	-90.6	10.1
2025-01-18 18:55:46.726772	335.3	31.8	-91.2	13.0
2025-01-18 18:55:49.051614	335.3	31.3	-91.5	11.9
2025-01-18 18:55:51.381936	335.3	30.8	-91.0	11.2
2025-01-18 18:55:53.707795	335.2	30.4	-90.9	8.7
2025-01-18 18:55:56.030503	335.2	30.0	-90.8	7.5
2025-01-18 18:55:58.351668	335.2	29.5	-90.8	4.2
2025-01-18 18:56:00.685788	335.2	29.1	-91.1	9.1
2025-01-18 18:56:03.002093	335.2	28.7	-91.0	7.2
2025-01-18 18:56:05.285337	335.1	28.3	-91.1	4.1
2025-01-18 18:56:07.525946	335.1	27.9	-90.7	8.6
2025-01-18 18:56:09.768055	335.1	27.5	-90.9	6.7
2025-01-18 18:56:12.010645	335.1	27.1	-90.3	5.5
2025-01-18 18:56:14.254535	335.1	26.8	-90.9	12.0
2025-01-18 18:56:16.565820	335.1	26.4	-90.3	8.4
2025-01-18 18:56:18.879174	335.0	26.0	-90.5	10.8
2025-01-18 18:56:21.200227	335.0	25.6	-90.7	12.4
2025-01-18 18:56:23.528096	335.0	25.3	-90.6	13.5
2025-01-18 18:56:25.851195	335.0	24.9	-90.5	8.1
2025-01-18 18:56:28.174337	335.0	24.5	-90.1	10.9
2025-01-18 18:56:30.454127	335.0	24.2	-91.1	5.2
2025-01-18 18:56:32.751630	335.0	23.8	-90.7	6.0
2025-01-18 18:56:35.043935	335.0	23.5	-91.2	6.7
2025-01-18 18:56:37.361147	335.0	23.2	-90.9	9.9
2025-01-18 18:56:39.682343	334.9	22.8	-91.1	7.6
2025-01-18 18:56:42.003099	334.9	22.5	-91.1	6.6
2025-01-18 18:56:44.319946	334.9	22.2	-90.9	6.5
2025-01-18 18:56:46.643115	334.9	21.8	-91.0	5.4
2025-01-18 18:56:48.975107	334.9	21.5	-91.1	5.6
2025-01-18 18:56:51.310380	334.9	21.2	-90.9	7.1
2025-01-18 18:56:53.633184	334.9	20.9	-90.7	5.1
2025-01-18 18:56:55.955782	334.9	20.6	-90.8	8.2
2025-01-18 18:56:58.281132	334.9	20.3	-91.5	6.4
2025-01-18 18:57:00.603508	334.9	20.0	-91.1	4.1
2025-01-18 18:57:02.879409	334.9	19.7	-91.3	5.7
2025-01-18 18:57:05.169766	334.9	19.4	-91.1	4.7
2025-01-18 18:57:07.481812	334.8	19.1	-91.4	4.6
2025-01-18 18:57:09.787269	334.8	18.8	-91.0	4.6
2025-01-18 18:57:12.117532	334.8	18.5	-91.0	3.4
2025-01-18 18:57:14.424191	334.8	18.3	-91.2	4.8
2025-01-18 18:57:16.699663	334.8	18.0	-91.2	5.0
2025-01-18 18:57:18.993478	334.8	17.7	-91.1	3.3
2025-01-18 18:57:21.297377	334.8	17.5	-91.2	5.7
2025-01-18 18:57:23.610266	334.8	17.2	-91.1	6.3
2025-01-18 18:57:25.926174	334.8	16.9	-91.5	4.4
2025-01-18 18:57:28.207407	334.8	16.7	-90.5	7.3
2025-01-18 18:57:30.503677	334.8	16.4	-90.5	6.5
2025-01-18 18:57:32.811952	334.8	16.1	-91.1	4.5
2025-01-18 18:57:35.127415	334.8	15.9	-91.0	6.4
2025-01-18 18:57:37.444768	334.8	15.6	-91.3	5.1
2025-01-18 18:57:39.768134	334.8	15.4	-91.2	10.1
2025-01-18 18:57:42.091358	334.8	15.1	-91.3	5.3
2025-01-18 18:57:44.412158	334.8	14.9	-90.8	6.7
2025-01-18 18:57:46.736706	334.8	14.7	-90.9	3.7
2025-01-18 18:57:49.084184	334.8	14.4	-91.1	4.3
#Closed at: 2025-01-18 18:48:28.174436