passes_logs/2025/01/18/LEX_Murmansk/LEX_Murmansk__20250118_064346_NOAA_19_rec.log

#Pass ID: 20250118_064346_NOAA 19
#Satellite: NOAA 19
#Configuration: NOAA 19
#Start time: 2025-01-18 06:43:41.404753

#LorettStation: 1.0.0 05.05.2024
#Station: LEX_Murmansk
#Location: 33.156738 lon 68.926811 lat
#TLE: 1 33591U 09005A   25017.12803845  .00000314  00000+0  19161-3 0  9999
#TLE: 2 33591  99.0192  80.9069 0014403  51.8715 308.3753 14.13261185821848

#Time	Az	El	Level	SNR
2025-01-18 06:43:53.609386	41.3	15.9	-90.9	2.6
2025-01-18 06:43:54.769939	41.5	16.0	-91.3	3.4
2025-01-18 06:43:55.922070	41.6	16.1	-91.3	1.9
2025-01-18 06:43:57.073398	41.8	16.2	-90.9	3.6
2025-01-18 06:43:58.227166	42.0	16.2	-91.1	5.9
2025-01-18 06:43:59.388636	42.2	16.3	-91.2	2.8
2025-01-18 06:44:00.532788	42.4	16.4	-91.2	3.0
2025-01-18 06:44:01.679337	42.6	16.5	-91.3	3.0
2025-01-18 06:44:02.843409	42.8	16.6	-92.1	2.5
2025-01-18 06:44:04.000652	43.0	16.7	-92.0	3.8
2025-01-18 06:44:05.159438	43.2	16.7	-91.9	1.4
2025-01-18 06:44:06.313189	43.3	16.8	-91.7	1.9
2025-01-18 06:44:07.467098	43.5	16.9	-92.0	3.3
2025-01-18 06:44:08.616387	43.7	17.0	-91.7	2.5
2025-01-18 06:44:09.775429	43.9	17.1	-91.7	3.7
2025-01-18 06:44:10.935560	44.1	17.2	-91.8	4.0
2025-01-18 06:44:12.100014	44.3	17.3	-91.7	4.6
2025-01-18 06:44:13.254124	44.5	17.3	-91.7	4.6
2025-01-18 06:44:14.405288	44.7	17.4	-92.2	6.3
2025-01-18 06:44:15.559586	44.9	17.5	-92.3	5.8
2025-01-18 06:44:16.716969	45.1	17.6	-92.2	4.3
2025-01-18 06:44:17.868631	45.4	17.7	-91.8	4.9
2025-01-18 06:44:19.022546	45.6	17.8	-92.1	7.9
2025-01-18 06:44:20.180239	45.8	17.8	-91.5	8.5
2025-01-18 06:44:21.334846	46.0	17.9	-91.6	12.3
2025-01-18 06:44:22.493204	46.2	18.0	-91.9	9.9
2025-01-18 06:44:23.648615	46.4	18.1	-92.2	8.4
2025-01-18 06:44:24.800571	46.6	18.2	-92.4	4.5
2025-01-18 06:44:25.958911	46.8	18.3	-92.2	2.7
2025-01-18 06:44:27.114396	47.0	18.4	-92.0	3.0
2025-01-18 06:44:28.269996	47.3	18.4	-91.9	2.1
2025-01-18 06:44:29.419528	47.5	18.5	-91.7	2.0
2025-01-18 06:44:30.581294	47.7	18.6	-92.1	4.6
2025-01-18 06:44:31.733367	47.9	18.7	-92.0	7.6
2025-01-18 06:44:32.889859	48.1	18.8	-91.7	7.2
2025-01-18 06:44:34.039674	48.3	18.9	-91.8	11.4
2025-01-18 06:44:35.193571	48.6	18.9	-91.8	10.9
2025-01-18 06:44:36.340064	48.8	19.0	-91.9	10.0
2025-01-18 06:44:37.494809	49.0	19.1	-91.6	9.2
2025-01-18 06:44:38.648747	49.2	19.2	-92.1	5.5
2025-01-18 06:44:39.799183	49.5	19.3	-91.8	6.4
2025-01-18 06:44:40.953996	49.7	19.3	-92.1	9.6
2025-01-18 06:44:42.105460	49.9	19.4	-91.9	10.0
2025-01-18 06:44:43.266672	50.2	19.5	-92.0	11.7
2025-01-18 06:44:44.428111	50.4	19.6	-92.1	10.4
2025-01-18 06:44:45.574445	50.6	19.7	-91.7	8.7
2025-01-18 06:44:46.731474	50.9	19.8	-91.9	6.6
2025-01-18 06:44:47.889392	51.1	19.8	-92.2	6.7
2025-01-18 06:44:49.040441	51.3	19.9	-91.6	5.3
2025-01-18 06:44:50.202781	51.6	20.0	-91.6	3.1
2025-01-18 06:44:51.352101	51.8	20.1	-91.8	2.7
2025-01-18 06:44:52.505362	52.0	20.2	-91.8	4.4
2025-01-18 06:44:53.654583	52.3	20.2	-91.9	4.9
2025-01-18 06:44:54.807814	52.5	20.3	-91.8	6.1
2025-01-18 06:44:55.961390	52.8	20.4	-92.0	9.0
2025-01-18 06:44:57.109727	53.0	20.5	-92.0	12.0
2025-01-18 06:44:58.264040	53.3	20.6	-91.9	13.5
2025-01-18 06:44:59.419833	53.5	20.6	-92.0	13.8
2025-01-18 06:45:00.575005	53.8	20.7	-92.0	12.3
2025-01-18 06:45:01.728943	54.0	20.8	-91.8	10.2
2025-01-18 06:45:02.881501	54.3	20.9	-91.7	9.5
2025-01-18 06:45:04.033763	54.5	20.9	-91.4	8.4
2025-01-18 06:45:05.183701	54.8	21.0	-91.8	7.7
2025-01-18 06:45:06.336928	55.0	21.1	-91.9	7.9
2025-01-18 06:45:07.488106	55.3	21.2	-92.3	13.6
2025-01-18 06:45:08.636160	55.5	21.3	-92.0	14.3
2025-01-18 06:45:09.784161	55.8	21.3	-91.8	13.6
2025-01-18 06:45:10.941332	56.0	21.4	-91.8	13.4
2025-01-18 06:45:12.098372	56.3	21.5	-92.1	14.2
2025-01-18 06:45:13.258325	56.6	21.6	-91.7	10.9
2025-01-18 06:45:14.413108	56.8	21.6	-92.1	9.3
2025-01-18 06:45:15.570968	57.1	21.7	-91.9	5.0
2025-01-18 06:45:16.720593	57.4	21.8	-91.9	2.7
2025-01-18 06:45:17.878523	57.6	21.8	-92.1	6.3
2025-01-18 06:45:19.031361	57.9	21.9	-91.8	5.0
2025-01-18 06:45:20.187446	58.2	22.0	-91.7	4.3
2025-01-18 06:45:21.342269	58.4	22.1	-91.6	7.0
2025-01-18 06:45:22.505281	58.7	22.1	-91.7	11.8
2025-01-18 06:45:23.665674	59.0	22.2	-92.0	12.2
2025-01-18 06:45:24.823005	59.3	22.3	-92.0	13.9
2025-01-18 06:45:25.975502	59.5	22.3	-92.0	15.2
2025-01-18 06:45:27.136319	59.8	22.4	-91.8	12.2
2025-01-18 06:45:28.289094	60.1	22.5	-92.0	13.3
2025-01-18 06:45:29.444556	60.4	22.6	-91.9	10.6
2025-01-18 06:45:30.598938	60.7	22.6	-91.9	8.9
2025-01-18 06:45:31.756151	60.9	22.7	-92.1	7.3
2025-01-18 06:45:32.911339	61.2	22.8	-92.1	8.8
2025-01-18 06:45:34.073014	61.5	22.8	-91.9	10.5
2025-01-18 06:45:35.221000	61.8	22.9	-92.0	8.6
2025-01-18 06:45:36.374801	62.1	23.0	-91.8	8.8
2025-01-18 06:45:37.537369	62.4	23.0	-91.6	11.9
2025-01-18 06:45:38.690468	62.6	23.1	-91.8	14.6
2025-01-18 06:45:39.849080	62.9	23.1	-91.8	14.5
2025-01-18 06:45:41.012852	63.2	23.2	-91.7	14.7
2025-01-18 06:45:42.167446	63.5	23.3	-91.9	12.6
2025-01-18 06:45:43.320041	63.8	23.3	-92.0	8.5
2025-01-18 06:45:44.476561	64.1	23.4	-91.9	9.9
2025-01-18 06:45:45.632711	64.4	23.5	-91.9	7.1
2025-01-18 06:45:46.787042	64.7	23.5	-91.7	2.4
2025-01-18 06:45:47.925314	65.0	23.6	-91.7	3.5
2025-01-18 06:45:49.074516	65.3	23.6	-92.1	5.0
2025-01-18 06:45:50.225970	65.6	23.7	-92.1	4.7
2025-01-18 06:45:51.382766	65.9	23.8	-92.1	5.3
2025-01-18 06:45:52.529947	66.2	23.8	-91.7	6.5
2025-01-18 06:45:53.684382	66.5	23.9	-92.0	7.7
2025-01-18 06:45:54.838089	66.8	23.9	-92.0	9.5
2025-01-18 06:45:55.980991	67.1	24.0	-92.2	10.6
2025-01-18 06:45:57.133601	67.4	24.0	-92.0	10.3
2025-01-18 06:45:58.292407	67.7	24.1	-92.3	11.7
2025-01-18 06:45:59.448366	68.0	24.1	-92.0	8.6
2025-01-18 06:46:00.597602	68.3	24.2	-92.4	11.7
2025-01-18 06:46:01.751946	68.6	24.2	-92.2	10.3
2025-01-18 06:46:02.904766	69.0	24.3	-92.2	6.2
2025-01-18 06:46:04.051792	69.3	24.3	-91.9	7.8
2025-01-18 06:46:05.205331	69.6	24.4	-92.3	6.4
2025-01-18 06:46:06.356222	69.9	24.4	-92.1	6.3
2025-01-18 06:46:07.510162	70.2	24.5	-92.3	7.6
2025-01-18 06:46:08.663647	70.5	24.5	-92.2	6.2
2025-01-18 06:46:09.829420	70.8	24.6	-92.3	6.3
2025-01-18 06:46:10.979809	71.2	24.6	-92.6	9.1
2025-01-18 06:46:12.134323	71.5	24.7	-91.8	8.3
2025-01-18 06:46:13.291392	71.8	24.7	-92.4	8.8
2025-01-18 06:46:14.450779	72.1	24.7	-92.4	10.5
2025-01-18 06:46:15.606027	72.4	24.8	-92.2	9.7
2025-01-18 06:46:16.760556	72.8	24.8	-92.0	9.3
2025-01-18 06:46:17.913953	73.1	24.9	-92.2	8.0
2025-01-18 06:46:19.067862	73.4	24.9	-92.0	5.3
2025-01-18 06:46:20.232781	73.7	24.9	-92.1	1.0
2025-01-18 06:46:21.369806	74.1	25.0	-92.3	4.1
2025-01-18 06:46:22.490735	74.4	25.0	-92.4	6.2
2025-01-18 06:46:23.611689	74.7	25.0	-92.3	4.5
2025-01-18 06:46:24.732350	75.0	25.1	-92.0	3.7
2025-01-18 06:46:25.853559	75.3	25.1	-92.5	1.0
2025-01-18 06:46:26.973796	75.6	25.1	-92.2	3.8
2025-01-18 06:46:28.094671	76.0	25.2	-92.2	3.7
2025-01-18 06:46:29.219141	76.3	25.2	-92.4	3.3
2025-01-18 06:46:30.355150	76.6	25.2	-91.9	4.1
2025-01-18 06:46:31.509524	76.9	25.3	-92.2	1.7
2025-01-18 06:46:32.659250	77.3	25.3	-92.5	2.0
2025-01-18 06:46:33.815291	77.6	25.3	-92.4	0.9
2025-01-18 06:46:34.974092	77.9	25.3	-92.4	4.0
2025-01-18 06:46:36.129223	78.3	25.4	-92.2	1.8
2025-01-18 06:46:37.288782	78.6	25.4	-92.3	4.0
2025-01-18 06:46:38.448508	78.9	25.4	-92.0	7.1
2025-01-18 06:46:39.597138	79.3	25.4	-92.2	5.1
2025-01-18 06:46:40.753980	79.6	25.4	-92.3	8.7
2025-01-18 06:46:41.912495	79.9	25.5	-92.3	6.9
2025-01-18 06:46:43.066856	80.3	25.5	-92.2	5.8
2025-01-18 06:46:44.222527	80.6	25.5	-92.1	7.9
2025-01-18 06:46:45.374965	80.9	25.5	-92.4	4.1
2025-01-18 06:46:46.533898	81.3	25.5	-92.3	2.9
2025-01-18 06:46:47.682227	81.6	25.5	-92.1	4.0
2025-01-18 06:46:48.841480	81.9	25.6	-92.2	4.6
2025-01-18 06:46:49.993195	82.3	25.6	-92.1	1.1
2025-01-18 06:46:51.141914	82.6	25.6	-92.5	2.8
2025-01-18 06:46:52.299655	83.0	25.6	-92.3	2.5
2025-01-18 06:46:53.459981	83.3	25.6	-92.2	5.5
2025-01-18 06:46:54.610133	83.6	25.6	-92.3	4.5
2025-01-18 06:46:55.761996	84.0	25.6	-91.9	2.0
2025-01-18 06:46:56.917866	84.3	25.6	-92.4	3.7
2025-01-18 06:46:58.178326	84.7	25.6	-92.0	1.4
2025-01-18 06:46:59.334704	85.0	25.6	-92.2	2.2
2025-01-18 06:47:00.482065	85.4	25.6	-92.4	1.1
2025-01-18 06:47:01.640297	85.7	25.6	-92.3	3.4
2025-01-18 06:47:02.796771	86.0	25.6	-92.2	1.8
2025-01-18 06:47:03.952350	86.4	25.6	-92.5	1.8
2025-01-18 06:47:05.103066	86.7	25.6	-92.1	4.5
2025-01-18 06:47:06.251907	87.1	25.6	-92.3	1.0
2025-01-18 06:47:07.412172	87.4	25.6	-92.3	3.0
2025-01-18 06:47:08.586330	87.7	25.6	-92.3	3.0
2025-01-18 06:47:09.741436	88.1	25.6	-92.4	5.9
2025-01-18 06:47:10.913024	88.4	25.6	-92.4	7.5
2025-01-18 06:47:12.065380	88.8	25.6	-92.0	8.4
2025-01-18 06:47:13.224800	89.1	25.6	-92.4	4.7
2025-01-18 06:47:14.382922	89.4	25.6	-92.4	6.9
2025-01-18 06:47:15.532786	89.8	25.6	-92.2	6.4
2025-01-18 06:47:16.675119	90.1	25.6	-92.2	2.4
2025-01-18 06:47:17.826881	90.4	25.6	-92.4	3.0
2025-01-18 06:47:18.985159	90.8	25.5	-92.4	1.6
2025-01-18 06:47:20.143098	91.1	25.5	-91.9	4.8
2025-01-18 06:47:21.298361	91.5	25.5	-92.2	7.0
2025-01-18 06:47:22.447565	91.8	25.5	-92.3	5.8
2025-01-18 06:47:23.603304	92.1	25.5	-92.1	6.7
2025-01-18 06:47:24.758262	92.5	25.5	-92.4	5.3
2025-01-18 06:47:25.917354	92.8	25.4	-92.0	4.8
2025-01-18 06:47:27.074479	93.1	25.4	-92.4	4.7
2025-01-18 06:47:28.233178	93.5	25.4	-92.7	4.4
2025-01-18 06:47:29.385163	93.8	25.4	-92.4	3.2
2025-01-18 06:47:30.537325	94.1	25.3	-92.3	3.5
2025-01-18 06:47:31.688801	94.5	25.3	-92.0	1.2
2025-01-18 06:47:32.837691	94.8	25.3	-92.2	2.7
2025-01-18 06:47:33.996294	95.1	25.3	-92.3	3.9
2025-01-18 06:47:35.154175	95.5	25.2	-92.2	1.9
2025-01-18 06:47:36.302604	95.8	25.2	-92.5	3.9
2025-01-18 06:47:37.461708	96.1	25.2	-92.7	2.6
2025-01-18 06:47:38.611587	96.4	25.2	-92.6	2.3
2025-01-18 06:47:39.764508	96.8	25.1	-92.1	1.0
2025-01-18 06:47:40.921135	97.1	25.1	-92.4	1.8
2025-01-18 06:47:42.074213	97.4	25.1	-92.1	1.1
2025-01-18 06:47:43.224124	97.8	25.0	-92.2	2.4
2025-01-18 06:47:44.384284	98.1	25.0	-92.3	3.5
2025-01-18 06:47:45.544503	98.4	25.0	-92.3	2.4
2025-01-18 06:47:46.696707	98.7	24.9	-92.6	4.3
2025-01-18 06:47:47.846547	99.1	24.9	-92.2	6.9
2025-01-18 06:47:49.007076	99.4	24.8	-92.8	3.9
2025-01-18 06:47:50.157174	99.7	24.8	-92.0	1.0
2025-01-18 06:47:51.310510	100.0	24.8	-91.9	3.8
2025-01-18 06:47:52.464039	100.3	24.7	-92.2	3.7
2025-01-18 06:47:53.621847	100.7	24.7	-92.3	3.4
2025-01-18 06:47:54.771717	101.0	24.6	-92.4	4.7
2025-01-18 06:47:55.926089	101.3	24.6	-92.3	2.5
2025-01-18 06:47:57.080729	101.6	24.5	-92.6	1.6
2025-01-18 06:47:58.233006	101.9	24.5	-92.3	2.1
2025-01-18 06:47:59.388237	102.2	24.4	-92.1	4.7
2025-01-18 06:48:00.541231	102.6	24.4	-92.3	3.5
2025-01-18 06:48:01.700381	102.9	24.4	-92.4	3.3
2025-01-18 06:48:02.852749	103.2	24.3	-92.3	5.7
2025-01-18 06:48:04.006822	103.5	24.3	-92.2	3.6
2025-01-18 06:48:05.170205	103.8	24.2	-92.2	4.1
2025-01-18 06:48:06.320630	104.1	24.2	-92.7	4.7
2025-01-18 06:48:07.481604	104.4	24.1	-92.3	2.7
2025-01-18 06:48:08.630606	104.7	24.0	-92.3	4.6
2025-01-18 06:48:09.785060	105.0	24.0	-92.7	8.5
2025-01-18 06:48:10.934351	105.3	23.9	-92.8	3.7
2025-01-18 06:48:12.089966	105.6	23.9	-92.6	5.7
2025-01-18 06:48:13.240722	105.9	23.8	-92.6	6.2
2025-01-18 06:48:14.398398	106.3	23.8	-92.5	3.5
2025-01-18 06:48:15.547639	106.6	23.7	-92.1	3.6
2025-01-18 06:48:16.699954	106.9	23.7	-92.3	5.4
2025-01-18 06:48:17.853469	107.1	23.6	-92.1	5.3
2025-01-18 06:48:19.007630	107.4	23.5	-92.3	4.3
2025-01-18 06:48:20.163766	107.7	23.5	-92.4	8.4
2025-01-18 06:48:21.316262	108.0	23.4	-92.5	6.5
2025-01-18 06:48:22.479177	108.3	23.4	-92.5	3.5
2025-01-18 06:48:23.643228	108.6	23.3	-92.4	5.1
2025-01-18 06:48:24.798471	108.9	23.2	-92.4	6.6
2025-01-18 06:48:25.948396	109.2	23.2	-92.4	5.1
2025-01-18 06:48:27.098601	109.5	23.1	-92.0	4.3
2025-01-18 06:48:28.252253	109.8	23.0	-92.4	6.6
2025-01-18 06:48:29.405717	110.1	23.0	-92.2	6.3
2025-01-18 06:48:30.560271	110.4	22.9	-92.4	4.6
2025-01-18 06:48:31.718574	110.7	22.9	-92.5	8.1
2025-01-18 06:48:32.876707	110.9	22.8	-92.3	8.2
2025-01-18 06:48:34.029647	111.2	22.7	-92.5	8.5
2025-01-18 06:48:35.184029	111.5	22.7	-92.1	8.7
2025-01-18 06:48:36.338521	111.8	22.6	-92.1	6.7
2025-01-18 06:48:37.492914	112.1	22.5	-92.1	7.0
2025-01-18 06:48:38.646949	112.3	22.4	-92.1	6.9
2025-01-18 06:48:39.792985	112.6	22.4	-92.3	8.3
2025-01-18 06:48:40.953467	112.9	22.3	-92.1	10.2
2025-01-18 06:48:42.100684	113.2	22.2	-92.2	9.2
2025-01-18 06:48:43.254744	113.4	22.2	-92.1	10.4
2025-01-18 06:48:44.407406	113.7	22.1	-92.5	10.9
2025-01-18 06:48:45.562584	114.0	22.0	-92.0	8.5
2025-01-18 06:48:46.720519	114.3	22.0	-92.1	12.2
2025-01-18 06:48:47.875835	114.5	21.9	-92.3	9.8
2025-01-18 06:48:49.030738	114.8	21.8	-92.3	9.9
2025-01-18 06:48:50.187991	115.1	21.7	-92.4	10.9
2025-01-18 06:48:51.350724	115.3	21.7	-92.4	10.5
2025-01-18 06:48:52.500771	115.6	21.6	-92.1	10.3
2025-01-18 06:48:53.658307	115.9	21.5	-92.5	11.4
2025-01-18 06:48:54.815163	116.1	21.4	-92.5	13.3
2025-01-18 06:48:55.967277	116.4	21.4	-92.0	8.3
2025-01-18 06:48:57.112955	116.6	21.3	-92.4	9.2
2025-01-18 06:48:58.268857	116.9	21.2	-92.3	11.2
2025-01-18 06:48:59.419394	117.1	21.1	-92.3	6.6
2025-01-18 06:49:00.574941	117.4	21.1	-92.4	6.8
2025-01-18 06:49:01.721185	117.7	21.0	-92.2	12.0
2025-01-18 06:49:02.870122	117.9	20.9	-92.4	10.6
2025-01-18 06:49:04.029278	118.2	20.8	-92.5	7.6
2025-01-18 06:49:05.180789	118.4	20.7	-92.5	13.4
2025-01-18 06:49:06.334110	118.7	20.7	-92.5	13.8
2025-01-18 06:49:07.487463	118.9	20.6	-92.4	5.8
2025-01-18 06:49:08.647184	119.2	20.5	-92.4	11.4
2025-01-18 06:49:09.807251	119.4	20.4	-92.4	14.4
2025-01-18 06:49:10.968372	119.6	20.3	-92.4	8.1
2025-01-18 06:49:12.122647	119.9	20.3	-92.3	10.4
2025-01-18 06:49:13.278631	120.1	20.2	-92.5	12.4
2025-01-18 06:49:14.432636	120.4	20.1	-92.2	8.7
2025-01-18 06:49:15.597452	120.6	20.0	-92.0	7.2
2025-01-18 06:49:16.745883	120.9	19.9	-92.2	9.4
2025-01-18 06:49:17.903751	121.1	19.9	-92.4	10.0
2025-01-18 06:49:19.061675	121.3	19.8	-92.3	9.8
2025-01-18 06:49:20.210821	121.6	19.7	-92.5	11.7
2025-01-18 06:49:21.376982	121.8	19.6	-92.3	13.0
2025-01-18 06:49:22.533251	122.0	19.5	-92.2	11.7
2025-01-18 06:49:23.685368	122.3	19.5	-92.5	11.9
2025-01-18 06:49:24.837881	122.5	19.4	-92.4	12.0
2025-01-18 06:49:25.993460	122.7	19.3	-92.1	12.7
2025-01-18 06:49:27.145184	122.9	19.2	-91.9	13.7
2025-01-18 06:49:28.303934	123.2	19.1	-92.1	13.0
2025-01-18 06:49:29.458985	123.4	19.0	-92.2	12.8
2025-01-18 06:49:30.613182	123.6	19.0	-92.4	12.2
2025-01-18 06:49:31.771511	123.8	18.9	-92.4	12.4
2025-01-18 06:49:32.928009	124.1	18.8	-92.6	9.1
2025-01-18 06:49:34.081779	124.3	18.7	-92.4	7.6
2025-01-18 06:49:35.238588	124.5	18.6	-92.3	13.3
2025-01-18 06:49:36.407488	124.7	18.5	-92.3	7.2
2025-01-18 06:49:37.558506	124.9	18.5	-92.2	5.0
2025-01-18 06:49:38.712849	125.2	18.4	-92.3	10.3
2025-01-18 06:49:39.860281	125.4	18.3	-92.1	8.1
2025-01-18 06:49:41.017528	125.6	18.2	-92.3	5.0
2025-01-18 06:49:42.179508	125.8	18.1	-92.7	10.0
2025-01-18 06:49:43.336641	126.0	18.0	-91.9	7.0
2025-01-18 06:49:44.500999	126.2	18.0	-92.4	6.6
2025-01-18 06:49:45.657444	126.4	17.9	-92.1	7.3
2025-01-18 06:49:46.805378	126.6	17.8	-92.4	7.5
2025-01-18 06:49:47.963008	126.8	17.7	-91.9	4.6
2025-01-18 06:49:49.120944	127.0	17.6	-92.1	5.9
2025-01-18 06:49:50.282457	127.3	17.5	-92.4	5.2
2025-01-18 06:49:51.429402	127.5	17.4	-92.5	6.9
2025-01-18 06:49:52.592750	127.7	17.4	-92.6	7.0
2025-01-18 06:49:53.742921	127.9	17.3	-92.2	9.4
2025-01-18 06:49:54.903437	128.1	17.2	-92.6	8.5
2025-01-18 06:49:56.052038	128.3	17.1	-92.2	7.1
2025-01-18 06:49:57.203467	128.5	17.0	-92.3	9.0
2025-01-18 06:49:58.366504	128.7	16.9	-92.0	8.1
2025-01-18 06:49:59.526429	128.8	16.9	-92.2	6.0
2025-01-18 06:50:00.678162	129.0	16.8	-92.1	8.8
2025-01-18 06:50:01.832416	129.2	16.7	-92.2	8.1
2025-01-18 06:50:02.986673	129.4	16.6	-92.1	5.8
2025-01-18 06:50:04.144762	129.6	16.5	-92.2	7.4
2025-01-18 06:50:05.294131	129.8	16.4	-92.2	8.1
2025-01-18 06:50:06.451822	130.0	16.3	-92.2	3.4
2025-01-18 06:50:07.601235	130.2	16.3	-92.1	3.7
2025-01-18 06:50:08.767798	130.4	16.2	-92.0	5.5
2025-01-18 06:50:09.928285	130.6	16.1	-92.1	4.0
2025-01-18 06:50:11.088103	130.7	16.0	-92.4	3.8
2025-01-18 06:50:12.241390	130.9	15.9	-92.3	8.3
2025-01-18 06:50:13.399943	131.1	15.8	-91.7	4.6
2025-01-18 06:50:14.554463	131.3	15.7	-91.8	4.7
2025-01-18 06:50:15.725776	131.5	15.7	-92.2	4.7
2025-01-18 06:50:16.873638	131.7	15.6	-92.1	5.7
2025-01-18 06:50:18.026960	131.8	15.5	-92.3	4.8
2025-01-18 06:50:19.186504	132.0	15.4	-92.1	1.7
2025-01-18 06:50:20.346907	132.2	15.3	-92.3	4.0
2025-01-18 06:50:21.499731	132.4	15.2	-92.3	2.7
2025-01-18 06:50:22.651330	132.5	15.1	-92.3	3.1
2025-01-18 06:50:23.814651	132.7	15.1	-92.3	4.9
2025-01-18 06:50:24.977899	132.9	15.0	-92.2	1.2
2025-01-18 06:50:26.132795	133.1	14.9	-92.5	1.5
2025-01-18 06:50:27.288115	133.2	14.8	-92.5	3.6
2025-01-18 06:50:28.440768	133.4	14.7	-92.3	2.8
2025-01-18 06:50:29.599041	133.6	14.6	-92.6	1.0
#Closed at: 2025-01-18 06:43:46.411084