passes_logs/2025/01/18/LEX_Murmansk/LEX_Murmansk__20250118_132533_NOAA_19_rec.log

#Pass ID: 20250118_132533_NOAA 19
#Satellite: NOAA 19
#Configuration: NOAA 19
#Start time: 2025-01-18 13:25:28.513246

#LorettStation: 1.0.0 05.05.2024
#Station: LEX_Murmansk
#Location: 33.156738 lon 68.926811 lat
#TLE: 1 33591U 09005A   25018.04840605  .00000325  00000+0  19728-3 0  9997
#TLE: 2 33591  99.0190  81.8343 0014373  49.4310 310.8111 14.13261983821977

#Time	Az	El	Level	SNR
2025-01-18 13:25:42.716026	41.9	16.0	-91.3	1.6
2025-01-18 13:25:43.865772	41.7	16.1	-91.4	0.8
2025-01-18 13:25:45.014510	41.5	16.2	-91.4	2.4
2025-01-18 13:25:46.159920	41.3	16.3	-91.5	2.9
2025-01-18 13:25:47.312421	41.1	16.4	-91.4	3.2
2025-01-18 13:25:48.456617	40.9	16.4	-91.6	3.0
2025-01-18 13:25:49.610227	40.8	16.5	-91.4	1.1
2025-01-18 13:25:50.758486	40.6	16.6	-91.3	2.9
2025-01-18 13:25:51.906411	40.4	16.7	-91.7	4.3
2025-01-18 13:25:53.049026	40.2	16.8	-91.1	3.3
2025-01-18 13:25:54.190090	40.0	16.9	-91.7	2.0
2025-01-18 13:25:55.330366	39.8	16.9	-91.3	2.0
2025-01-18 13:25:56.450622	39.6	17.0	-91.9	2.4
2025-01-18 13:25:57.571095	39.4	17.1	-91.5	1.6
2025-01-18 13:25:58.691186	39.2	17.2	-91.5	1.2
2025-01-18 13:25:59.811882	39.0	17.3	-91.6	2.3
2025-01-18 13:26:00.932232	38.8	17.3	-91.4	2.0
2025-01-18 13:26:02.052180	38.6	17.4	-91.6	3.8
2025-01-18 13:26:03.186400	38.4	17.5	-91.9	4.5
2025-01-18 13:26:04.308560	38.2	17.6	-91.8	4.5
2025-01-18 13:26:05.445462	38.0	17.7	-91.3	4.1
2025-01-18 13:26:06.598947	37.8	17.8	-91.4	1.4
2025-01-18 13:26:07.743695	37.6	17.8	-91.4	2.8
2025-01-18 13:26:08.889266	37.3	17.9	-91.5	3.1
2025-01-18 13:26:10.031029	37.1	18.0	-91.5	5.3
2025-01-18 13:26:11.180274	36.9	18.1	-91.4	5.8
2025-01-18 13:26:12.330327	36.7	18.2	-91.2	6.3
2025-01-18 13:26:13.475307	36.5	18.2	-91.0	3.2
2025-01-18 13:26:14.624245	36.3	18.3	-91.1	3.6
2025-01-18 13:26:15.769866	36.1	18.4	-90.9	2.6
2025-01-18 13:26:16.903782	35.8	18.5	-91.0	2.2
2025-01-18 13:26:18.030427	35.6	18.6	-91.2	3.5
2025-01-18 13:26:19.179250	35.4	18.6	-91.1	1.7
2025-01-18 13:26:20.318939	35.2	18.7	-91.4	2.1
2025-01-18 13:26:21.469912	35.0	18.8	-92.0	5.7
2025-01-18 13:26:22.614383	34.7	18.9	-92.0	4.7
2025-01-18 13:26:23.761759	34.5	19.0	-91.6	6.0
2025-01-18 13:26:24.901186	34.3	19.0	-91.9	9.3
2025-01-18 13:26:26.050798	34.0	19.1	-91.7	9.0
2025-01-18 13:26:27.198949	33.8	19.2	-92.0	6.8
2025-01-18 13:26:28.349736	33.6	19.3	-91.9	4.6
2025-01-18 13:26:29.493378	33.3	19.3	-91.6	4.7
2025-01-18 13:26:30.637693	33.1	19.4	-91.7	5.6
2025-01-18 13:26:31.784648	32.9	19.5	-91.7	4.2
2025-01-18 13:26:32.937151	32.6	19.6	-91.4	7.0
2025-01-18 13:26:34.083896	32.4	19.7	-92.0	10.0
2025-01-18 13:26:35.229000	32.2	19.7	-91.7	12.0
2025-01-18 13:26:36.382701	31.9	19.8	-92.0	9.4
2025-01-18 13:26:37.529962	31.7	19.9	-91.9	8.3
2025-01-18 13:26:38.688914	31.4	20.0	-91.8	6.2
2025-01-18 13:26:39.839002	31.2	20.0	-91.9	1.7
2025-01-18 13:26:40.984773	31.0	20.1	-91.8	3.5
2025-01-18 13:26:42.124057	30.7	20.2	-91.8	2.9
2025-01-18 13:26:43.280249	30.5	20.3	-91.6	1.5
2025-01-18 13:26:44.426143	30.2	20.3	-91.5	1.9
2025-01-18 13:26:45.571501	30.0	20.4	-91.8	5.3
2025-01-18 13:26:46.717843	29.7	20.5	-91.4	8.2
2025-01-18 13:26:47.864801	29.5	20.6	-91.8	11.4
2025-01-18 13:26:49.009924	29.2	20.6	-92.2	11.4
2025-01-18 13:26:50.152715	29.0	20.7	-92.0	13.2
2025-01-18 13:26:51.299301	28.7	20.8	-91.9	13.4
2025-01-18 13:26:52.447921	28.4	20.8	-91.7	11.0
2025-01-18 13:26:53.597679	28.2	20.9	-91.5	9.4
2025-01-18 13:26:54.744466	27.9	21.0	-91.6	4.3
2025-01-18 13:26:55.892208	27.7	21.1	-91.5	5.2
2025-01-18 13:26:57.038598	27.4	21.1	-92.1	7.3
2025-01-18 13:26:58.187301	27.1	21.2	-91.9	6.4
2025-01-18 13:26:59.332412	26.9	21.3	-91.7	8.1
2025-01-18 13:27:00.474675	26.6	21.3	-92.0	11.2
2025-01-18 13:27:01.624779	26.4	21.4	-91.5	12.0
2025-01-18 13:27:02.778045	26.1	21.5	-91.7	12.6
2025-01-18 13:27:03.921244	25.8	21.5	-91.4	12.4
2025-01-18 13:27:05.066712	25.5	21.6	-91.4	10.5
2025-01-18 13:27:06.212821	25.3	21.7	-91.7	6.7
2025-01-18 13:27:07.359185	25.0	21.7	-91.7	3.8
2025-01-18 13:27:08.492748	24.7	21.8	-92.0	5.7
2025-01-18 13:27:09.642179	24.5	21.9	-91.9	2.8
2025-01-18 13:27:10.790757	24.2	21.9	-91.6	2.1
2025-01-18 13:27:11.934346	23.9	22.0	-91.9	4.5
2025-01-18 13:27:13.076126	23.6	22.0	-91.8	5.8
2025-01-18 13:27:14.203198	23.4	22.1	-91.7	5.7
2025-01-18 13:27:15.324219	23.1	22.2	-91.9	4.9
2025-01-18 13:27:16.444843	22.8	22.2	-91.9	6.3
2025-01-18 13:27:17.565474	22.5	22.3	-92.0	11.1
2025-01-18 13:27:18.686824	22.3	22.3	-91.9	9.5
2025-01-18 13:27:19.807169	22.0	22.4	-91.5	11.0
2025-01-18 13:27:20.927733	21.7	22.5	-91.7	9.9
2025-01-18 13:27:22.052182	21.4	22.5	-91.7	11.0
2025-01-18 13:27:23.173487	21.1	22.6	-91.7	9.8
2025-01-18 13:27:24.316755	20.9	22.6	-91.8	7.6
2025-01-18 13:27:25.463217	20.6	22.7	-91.9	7.0
2025-01-18 13:27:26.606691	20.3	22.7	-91.6	7.2
2025-01-18 13:27:27.751584	20.0	22.8	-92.2	6.3
2025-01-18 13:27:28.902896	19.7	22.8	-92.3	6.8
2025-01-18 13:27:30.048168	19.4	22.9	-91.8	5.6
2025-01-18 13:27:31.193761	19.1	22.9	-91.8	8.3
2025-01-18 13:27:32.339875	18.8	23.0	-92.1	9.7
2025-01-18 13:27:33.485954	18.5	23.0	-91.8	13.5
2025-01-18 13:27:34.633272	18.2	23.1	-91.7	12.4
2025-01-18 13:27:35.780746	17.9	23.1	-92.1	16.1
2025-01-18 13:27:36.927407	17.6	23.2	-92.1	14.6
2025-01-18 13:27:38.076467	17.3	23.2	-91.7	9.7
2025-01-18 13:27:39.222093	17.0	23.3	-92.1	7.3
2025-01-18 13:27:40.363897	16.7	23.3	-92.2	3.9
2025-01-18 13:27:41.511957	16.4	23.4	-92.1	7.4
2025-01-18 13:27:42.656335	16.1	23.4	-92.2	5.0
2025-01-18 13:27:43.801999	15.8	23.5	-92.4	2.5
2025-01-18 13:27:44.953296	15.5	23.5	-91.8	2.8
2025-01-18 13:27:46.101875	15.2	23.6	-91.6	3.4
2025-01-18 13:27:47.250564	14.9	23.6	-92.0	4.9
2025-01-18 13:27:48.399057	14.6	23.6	-91.9	3.1
2025-01-18 13:27:49.552773	14.3	23.7	-91.8	4.0
2025-01-18 13:27:50.702804	14.0	23.7	-92.1	5.4
2025-01-18 13:27:51.852619	13.7	23.8	-92.3	8.4
2025-01-18 13:27:52.999056	13.4	23.8	-91.8	8.3
2025-01-18 13:27:54.152175	13.0	23.8	-91.8	8.9
2025-01-18 13:27:55.300268	12.7	23.9	-91.6	9.7
2025-01-18 13:27:56.445668	12.4	23.9	-92.3	11.3
2025-01-18 13:27:57.592743	12.1	23.9	-92.2	8.7
2025-01-18 13:27:58.740496	11.8	24.0	-91.9	8.8
2025-01-18 13:27:59.892680	11.5	24.0	-92.1	6.3
2025-01-18 13:28:01.035818	11.2	24.0	-92.1	7.1
2025-01-18 13:28:02.177784	10.8	24.1	-91.9	5.5
2025-01-18 13:28:03.305241	10.5	24.1	-92.0	4.3
2025-01-18 13:28:04.425490	10.2	24.1	-91.9	5.1
2025-01-18 13:28:05.545896	9.9	24.1	-91.9	5.4
2025-01-18 13:28:06.667506	9.6	24.2	-92.2	2.0
2025-01-18 13:28:07.788086	9.3	24.2	-91.2	2.8
2025-01-18 13:28:08.909507	9.0	24.2	-92.0	4.9
2025-01-18 13:28:10.030264	8.7	24.2	-91.8	5.2
2025-01-18 13:28:11.152038	8.4	24.3	-91.8	5.8
2025-01-18 13:28:12.272496	8.0	24.3	-92.1	5.9
2025-01-18 13:28:13.408718	7.7	24.3	-92.1	7.5
2025-01-18 13:28:14.551582	7.4	24.3	-91.9	8.6
2025-01-18 13:28:15.702785	7.1	24.3	-91.7	7.2
2025-01-18 13:28:16.841927	6.8	24.4	-91.7	10.9
2025-01-18 13:28:17.965547	6.4	24.4	-92.0	11.7
2025-01-18 13:28:19.100858	6.1	24.4	-92.1	10.9
2025-01-18 13:28:20.227185	5.8	24.4	-91.9	9.6
2025-01-18 13:28:21.362892	5.5	24.4	-91.9	9.3
2025-01-18 13:28:22.498635	5.2	24.4	-92.1	10.8
2025-01-18 13:28:23.647135	4.8	24.4	-92.1	11.7
2025-01-18 13:28:24.792429	4.5	24.5	-91.8	8.5
2025-01-18 13:28:25.946074	4.2	24.5	-92.0	8.4
2025-01-18 13:28:27.096197	3.9	24.5	-92.1	8.5
2025-01-18 13:28:28.248306	3.5	24.5	-91.8	5.7
2025-01-18 13:28:29.393171	3.2	24.5	-91.9	7.4
2025-01-18 13:28:30.540704	2.9	24.5	-91.8	5.5
2025-01-18 13:28:31.691848	2.6	24.5	-92.1	4.7
2025-01-18 13:28:32.837644	2.2	24.5	-92.4	4.9
2025-01-18 13:28:33.995780	1.9	24.5	-91.8	4.8
2025-01-18 13:28:35.144628	1.6	24.5	-91.7	5.5
2025-01-18 13:28:36.292483	1.3	24.5	-91.9	3.2
2025-01-18 13:28:37.447972	0.9	24.5	-92.0	3.9
2025-01-18 13:28:38.593422	0.6	24.5	-91.8	3.7
2025-01-18 13:28:39.745405	0.3	24.5	-92.0	3.1
2025-01-18 13:28:40.895429	360.0	24.5	-92.1	5.4
2025-01-18 13:28:42.041684	359.6	24.5	-91.5	5.7
2025-01-18 13:28:43.193302	359.3	24.5	-92.1	4.1
2025-01-18 13:28:44.340161	359.0	24.5	-91.8	2.9
2025-01-18 13:28:45.486684	358.7	24.5	-91.8	7.4
2025-01-18 13:28:46.637603	358.3	24.5	-91.8	7.9
2025-01-18 13:28:47.781581	358.0	24.5	-91.8	6.6
2025-01-18 13:28:48.938345	357.7	24.5	-92.1	9.1
2025-01-18 13:28:50.081979	357.4	24.4	-91.9	11.0
2025-01-18 13:28:51.227418	357.0	24.4	-91.7	9.3
2025-01-18 13:28:52.375608	356.7	24.4	-92.4	10.2
2025-01-18 13:28:53.523792	356.4	24.4	-92.0	10.5
2025-01-18 13:28:54.669045	356.1	24.4	-91.7	10.7
2025-01-18 13:28:55.824310	355.7	24.4	-91.9	11.4
2025-01-18 13:28:56.971755	355.4	24.4	-92.0	10.4
2025-01-18 13:28:58.123015	355.1	24.3	-92.0	13.4
2025-01-18 13:28:59.267858	354.8	24.3	-91.9	11.3
2025-01-18 13:29:00.416741	354.5	24.3	-92.1	13.6
2025-01-18 13:29:01.563919	354.1	24.3	-92.3	10.0
2025-01-18 13:29:02.707924	353.8	24.3	-92.0	13.7
2025-01-18 13:29:03.856985	353.5	24.2	-91.6	14.6
2025-01-18 13:29:05.003480	353.2	24.2	-91.9	10.7
2025-01-18 13:29:06.150374	352.9	24.2	-92.2	15.4
2025-01-18 13:29:07.297420	352.5	24.2	-91.9	11.8
2025-01-18 13:29:08.443237	352.2	24.1	-92.1	13.8
2025-01-18 13:29:09.591668	351.9	24.1	-92.5	16.5
2025-01-18 13:29:10.745596	351.6	24.1	-91.9	13.8
2025-01-18 13:29:11.896374	351.3	24.1	-91.6	11.7
2025-01-18 13:29:13.042924	350.9	24.0	-92.1	11.1
2025-01-18 13:29:14.192648	350.6	24.0	-91.5	9.1
2025-01-18 13:29:15.340653	350.3	24.0	-91.8	9.8
2025-01-18 13:29:16.483880	350.0	23.9	-91.9	5.4
2025-01-18 13:29:17.631647	349.7	23.9	-92.0	12.5
2025-01-18 13:29:18.779864	349.4	23.9	-91.7	12.1
2025-01-18 13:29:19.925708	349.1	23.8	-91.5	9.5
2025-01-18 13:29:21.076948	348.8	23.8	-92.0	9.5
2025-01-18 13:29:22.223720	348.4	23.7	-92.0	8.9
2025-01-18 13:29:23.373248	348.1	23.7	-91.8	10.0
2025-01-18 13:29:24.519052	347.8	23.7	-92.0	9.0
2025-01-18 13:29:25.664673	347.5	23.6	-92.0	11.3
2025-01-18 13:29:26.810524	347.2	23.6	-91.4	9.3
2025-01-18 13:29:27.936020	346.9	23.6	-92.0	8.8
2025-01-18 13:29:29.057522	346.6	23.5	-91.6	9.0
2025-01-18 13:29:30.178170	346.3	23.5	-92.1	7.0
2025-01-18 13:29:31.299081	346.0	23.4	-92.0	6.6
2025-01-18 13:29:32.420121	345.7	23.4	-91.8	4.5
2025-01-18 13:29:33.542261	345.4	23.3	-92.2	7.1
2025-01-18 13:29:34.662543	345.1	23.3	-92.0	7.4
2025-01-18 13:29:35.786756	344.8	23.2	-92.3	3.2
2025-01-18 13:29:36.911945	344.6	23.2	-92.1	4.7
2025-01-18 13:29:38.054722	344.3	23.1	-92.0	6.5
2025-01-18 13:29:39.200985	344.0	23.1	-91.6	5.2
2025-01-18 13:29:40.352247	343.7	23.1	-92.2	8.8
2025-01-18 13:29:41.489739	343.4	23.0	-91.8	6.7
2025-01-18 13:29:42.639566	343.1	22.9	-92.1	7.2
2025-01-18 13:29:43.789054	342.8	22.9	-92.2	8.8
2025-01-18 13:29:44.927031	342.5	22.8	-91.6	9.9
2025-01-18 13:29:46.076832	342.2	22.8	-91.8	11.2
2025-01-18 13:29:47.223126	341.9	22.7	-92.1	9.7
2025-01-18 13:29:48.370430	341.6	22.7	-91.8	7.0
2025-01-18 13:29:49.522316	341.3	22.6	-92.2	8.6
2025-01-18 13:29:50.673007	341.0	22.6	-92.3	6.6
2025-01-18 13:29:51.820357	340.8	22.5	-91.7	9.0
2025-01-18 13:29:52.968702	340.5	22.5	-91.8	7.9
2025-01-18 13:29:54.115839	340.2	22.4	-91.9	9.0
2025-01-18 13:29:55.260431	339.9	22.3	-91.3	9.5
2025-01-18 13:29:56.411379	339.6	22.3	-91.9	11.7
2025-01-18 13:29:57.561415	339.3	22.2	-92.1	12.5
2025-01-18 13:29:58.708393	339.1	22.2	-92.2	8.5
2025-01-18 13:29:59.861307	338.8	22.1	-91.6	10.3
2025-01-18 13:30:01.010575	338.5	22.0	-91.7	6.5
2025-01-18 13:30:02.156277	338.2	22.0	-91.3	9.1
2025-01-18 13:30:03.305046	337.9	21.9	-91.6	11.5
2025-01-18 13:30:04.450948	337.7	21.8	-91.3	11.5
2025-01-18 13:30:05.604340	337.4	21.8	-91.3	9.8
2025-01-18 13:30:06.749348	337.1	21.7	-91.5	6.0
2025-01-18 13:30:07.896729	336.9	21.7	-91.4	6.8
2025-01-18 13:30:09.044071	336.6	21.6	-91.1	13.9
2025-01-18 13:30:10.188098	336.3	21.5	-92.1	8.0
2025-01-18 13:30:11.346928	336.0	21.5	-92.1	12.8
2025-01-18 13:30:12.489016	335.8	21.4	-91.9	5.7
2025-01-18 13:30:13.636601	335.5	21.3	-91.9	6.6
2025-01-18 13:30:14.786003	335.3	21.3	-91.9	5.1
2025-01-18 13:30:15.930146	335.0	21.2	-92.0	6.6
2025-01-18 13:30:17.085101	334.7	21.1	-91.7	3.6
2025-01-18 13:30:18.232903	334.5	21.0	-92.4	3.6
2025-01-18 13:30:19.366829	334.2	21.0	-92.4	3.4
2025-01-18 13:30:20.487919	334.0	20.9	-92.1	3.2
2025-01-18 13:30:21.610772	333.7	20.8	-92.5	3.1
2025-01-18 13:30:22.731682	333.5	20.8	-91.9	3.6
2025-01-18 13:30:23.851656	333.2	20.7	-92.0	1.8
2025-01-18 13:30:24.972874	333.0	20.6	-92.3	1.6
2025-01-18 13:30:26.094352	332.7	20.6	-91.9	3.8
2025-01-18 13:30:27.214608	332.5	20.5	-92.4	4.0
2025-01-18 13:30:28.339232	332.2	20.4	-91.9	2.7
2025-01-18 13:30:29.468455	332.0	20.3	-92.0	2.8
2025-01-18 13:30:30.614817	331.7	20.3	-92.0	1.4
2025-01-18 13:30:31.759637	331.5	20.2	-92.0	1.9
2025-01-18 13:30:32.906078	331.2	20.1	-92.3	2.1
2025-01-18 13:30:34.058572	331.0	20.0	-92.3	3.6
2025-01-18 13:30:35.196351	330.8	20.0	-92.2	2.0
2025-01-18 13:30:36.339890	330.5	19.9	-92.4	2.7
2025-01-18 13:30:37.489524	330.3	19.8	-92.3	1.2
2025-01-18 13:30:38.643195	330.0	19.7	-92.1	1.5
2025-01-18 13:30:39.793519	329.8	19.7	-92.1	2.4
2025-01-18 13:30:40.941232	329.6	19.6	-91.9	3.7
2025-01-18 13:30:42.089031	329.3	19.5	-92.2	3.2
2025-01-18 13:30:43.248359	329.1	19.4	-92.0	3.5
2025-01-18 13:30:44.397914	328.9	19.4	-92.3	2.1
2025-01-18 13:30:45.541871	328.6	19.3	-92.5	5.0
2025-01-18 13:30:46.691097	328.4	19.2	-91.6	6.0
2025-01-18 13:30:47.840879	328.2	19.1	-92.1	2.3
2025-01-18 13:30:48.985466	327.9	19.0	-92.3	2.7
2025-01-18 13:30:50.137016	327.7	19.0	-92.3	4.3
2025-01-18 13:30:51.287659	327.5	18.9	-92.0	4.6
2025-01-18 13:30:52.435163	327.3	18.8	-91.9	4.7
2025-01-18 13:30:53.578497	327.0	18.7	-92.2	6.1
2025-01-18 13:30:54.725068	326.8	18.7	-92.1	2.5
2025-01-18 13:30:55.870396	326.6	18.6	-91.9	3.9
2025-01-18 13:30:57.014418	326.4	18.5	-92.0	4.2
2025-01-18 13:30:58.162265	326.1	18.4	-91.9	1.0
2025-01-18 13:30:59.307218	325.9	18.3	-92.3	3.1
2025-01-18 13:31:00.448492	325.7	18.3	-92.1	1.0
2025-01-18 13:31:01.593365	325.5	18.2	-92.1	2.1
2025-01-18 13:31:02.738838	325.3	18.1	-92.1	1.4
2025-01-18 13:31:03.992295	325.1	18.0	-92.2	1.9
2025-01-18 13:31:05.137380	324.8	17.9	-92.3	2.1
2025-01-18 13:31:06.282135	324.6	17.8	-91.8	2.3
2025-01-18 13:31:07.429790	324.4	17.8	-92.3	3.4
2025-01-18 13:31:08.685639	324.2	17.7	-92.4	2.9
2025-01-18 13:31:09.833041	324.0	17.6	-92.0	1.3
2025-01-18 13:31:10.983246	323.8	17.5	-92.2	1.9
2025-01-18 13:31:12.128010	323.6	17.4	-92.1	2.4
2025-01-18 13:31:13.275769	323.4	17.3	-91.8	2.8
2025-01-18 13:31:14.434059	323.2	17.3	-92.2	2.0
2025-01-18 13:31:15.580231	323.0	17.2	-91.9	1.7
2025-01-18 13:31:16.725425	322.8	17.1	-91.9	3.0
2025-01-18 13:31:17.879639	322.6	17.0	-92.4	4.3
2025-01-18 13:31:19.031112	322.4	16.9	-92.2	4.8
2025-01-18 13:31:20.183979	322.2	16.9	-91.8	6.0
2025-01-18 13:31:21.334705	322.0	16.8	-92.2	1.6
2025-01-18 13:31:22.480916	321.8	16.7	-92.3	6.9
2025-01-18 13:31:23.625867	321.6	16.6	-91.4	5.9
2025-01-18 13:31:24.773007	321.4	16.5	-92.2	3.7
2025-01-18 13:31:25.918216	321.2	16.4	-92.4	4.4
2025-01-18 13:31:27.079218	321.0	16.4	-92.1	5.1
2025-01-18 13:31:28.233030	320.8	16.3	-92.2	2.5
2025-01-18 13:31:29.369828	320.6	16.2	-92.1	2.9
2025-01-18 13:31:30.518529	320.4	16.1	-92.3	0.8
2025-01-18 13:31:31.662368	320.3	16.0	-92.1	1.4
2025-01-18 13:31:32.812124	320.1	15.9	-92.1	1.0
2025-01-18 13:31:33.963109	319.9	15.9	-91.9	1.6
2025-01-18 13:31:35.111155	319.7	15.8	-92.3	2.7
2025-01-18 13:31:36.252970	319.5	15.7	-92.1	2.7
2025-01-18 13:31:37.397570	319.3	15.6	-92.6	3.3
2025-01-18 13:31:38.547395	319.2	15.5	-92.3	4.4
2025-01-18 13:31:39.693096	319.0	15.4	-92.5	3.6
2025-01-18 13:31:40.851113	318.8	15.4	-92.1	6.6
2025-01-18 13:31:41.996600	318.6	15.3	-93.0	8.1
2025-01-18 13:31:43.150535	318.4	15.2	-91.9	6.1
2025-01-18 13:31:44.295395	318.3	15.1	-92.4	6.0
2025-01-18 13:31:45.439179	318.1	15.0	-92.2	1.9
2025-01-18 13:31:46.597073	317.9	14.9	-92.2	4.3
2025-01-18 13:31:47.746943	317.7	14.9	-92.4	6.4
2025-01-18 13:31:48.894338	317.6	14.8	-92.3	4.9
2025-01-18 13:31:50.041565	317.4	14.7	-92.5	5.4
2025-01-18 13:31:51.193979	317.2	14.6	-92.4	4.3
#Closed at: 2025-01-18 13:25:33.517162