passes_logs/2026/01/17/R3.2S_Murmansk/R3.2S_Murmansk__20260117_045304_FENGYUN_3D_rec.log

#Pass ID: 20260117_045304_FENGYUN 3D
#Satellite: FENGYUN 3D
#Configuration: FENGYUN 3D
#almurnet v.1.7.20251203
#Start time: 2026-01-17 04:53:04

#Version: 2.2.20231116
#Station: R3.2S_Murmansk
#Location: 33.079688 lon 68.888172 lat
#TLE: 1 43010U 17072A   26015.99024095 -.00000189  00000+0 -67463-4 0  9996
#TLE: 2 43010  98.9932 347.8215 0002366 106.5594 253.5841 14.19694691423396

#Time	Az	El	Level	Level2	SNR	BER	BlckErr	Temp	State	Recorded	gain1	gain2
2026-01-17 04:53:04.53	36.79	1.98	-51.4	-63.3	3.8	8.46e-01	0	32	0	0	74	14179
2026-01-17 04:53:08.57	36.62	2.22	-51.4	-63.2	3.8	8.46e-01	0	32	104	0	73	14814
2026-01-17 04:53:12.60	36.44	2.47	-51.4	-63.2	3.8	8.46e-01	0	32	104	0	73	14871
2026-01-17 04:53:16.63	36.26	2.72	-51.4	-63.3	3.8	8.46e-01	0	32	104	0	73	14984
2026-01-17 04:53:20.66	36.08	2.97	-51.4	-63.2	3.8	8.46e-01	0	32	104	0	73	14796
2026-01-17 04:53:24.70	35.89	3.23	-51.4	-63.1	3.8	8.46e-01	0	32	104	0	73	14683
2026-01-17 04:53:28.73	35.70	3.48	-51.3	-62.2	3.8	8.45e-01	0	32	104	0	73	13167
2026-01-17 04:53:32.77	35.51	3.74	-51.2	-61.6	3.8	8.46e-01	0	33	104	0	73	12317
2026-01-17 04:53:36.81	35.31	4.00	-50.7	-58.0	4.8	8.22e-01	0	33	0	0	73	8120
2026-01-17 04:53:40.85	35.11	4.26	-49.2	-53.2	8.9	7.75e-02	0	33	0	16777216	70	5555
2026-01-17 04:53:44.88	34.91	4.52	-48.9	-52.6	9.5	1.39e-02	0	33	0	39845888	69	5506
2026-01-17 04:53:48.91	34.70	4.79	-49.3	-53.4	8.7	2.14e-02	0	33	0	61865984	69	6049
2026-01-17 04:53:52.95	34.48	5.06	-50.3	-56.2	6.1	2.69e-01	0	33	0	84934656	71	7435
2026-01-17 04:53:56.98	34.27	5.33	-45.9	-47.5	14.9	6.92e-01	0	33	104	100663296	63	4308
2026-01-17 04:54:01.02	34.04	5.60	-45.1	-46.6	16.4	0.00e+00	0	33	0	118489088	62	4108
2026-01-17 04:54:05.06	33.82	5.88	-44.3	-45.6	17.5	0.00e+00	0	33	0	141557760	60	4117
2026-01-17 04:54:09.09	33.59	6.16	-43.8	-45.0	18.4	0.00e+00	0	33	0	164626432	59	4075
2026-01-17 04:54:13.13	33.35	6.44	-43.8	-44.9	18.5	0.00e+00	0	34	0	186646528	59	4049
2026-01-17 04:54:17.16	33.11	6.72	-43.4	-44.5	19.0	0.00e+00	0	33	0	209715200	58	4094
2026-01-17 04:54:21.19	32.87	7.00	-44.1	-45.3	18.2	0.00e+00	0	33	0	232783872	58	4456
2026-01-17 04:54:25.23	32.61	7.29	-44.0	-45.2	18.4	0.00e+00	0	33	0	254803968	58	4399
2026-01-17 04:54:29.27	32.36	7.58	-43.7	-44.9	18.8	0.00e+00	0	33	0	277872640	58	4254
2026-01-17 04:54:33.30	32.10	7.88	-43.6	-44.7	19.0	0.00e+00	0	34	0	300941312	58	4171
2026-01-17 04:54:37.34	31.83	8.18	-43.4	-44.4	19.2	0.00e+00	0	34	0	324009984	58	4043
2026-01-17 04:54:41.37	31.56	8.47	-43.1	-44.2	19.5	0.00e+00	0	34	0	346030080	58	3915
2026-01-17 04:54:45.41	31.28	8.78	-43.1	-44.1	19.6	0.00e+00	0	34	0	368050176	58	3884
2026-01-17 04:54:49.45	30.99	9.08	-42.7	-43.6	20.0	0.00e+00	0	34	0	391118848	57	3908
2026-01-17 04:54:53.48	30.70	9.39	-43.0	-44.0	19.7	0.00e+00	0	34	0	414187520	57	4079
2026-01-17 04:54:57.52	30.40	9.70	-42.9	-43.9	19.8	0.00e+00	0	34	0	436207616	57	4033
2026-01-17 04:55:01.55	30.10	10.02	-42.8	-43.8	20.0	0.00e+00	0	34	0	459276288	57	3985
2026-01-17 04:55:05.59	29.78	10.34	-42.8	-43.8	20.0	0.00e+00	0	34	0	482344960	57	3987
2026-01-17 04:55:09.63	29.46	10.66	-42.7	-43.7	20.1	0.00e+00	0	34	0	504365056	57	3932
2026-01-17 04:55:13.66	29.14	10.98	-42.6	-43.6	20.3	0.00e+00	0	34	0	527433728	57	3879
2026-01-17 04:55:17.70	28.80	11.31	-42.4	-43.4	20.5	0.00e+00	0	34	0	550502400	56	4025
2026-01-17 04:55:21.74	28.46	11.64	-42.5	-43.5	20.4	0.00e+00	0	34	0	573571072	56	4080
2026-01-17 04:55:25.77	28.11	11.98	-42.3	-43.2	20.7	0.00e+00	0	34	0	595591168	56	3935
2026-01-17 04:55:29.80	27.75	12.32	-42.2	-43.1	20.8	0.00e+00	0	34	0	618659840	56	3881
2026-01-17 04:55:33.84	27.38	12.66	-42.1	-43.1	20.8	0.00e+00	0	34	0	641728512	56	3871
2026-01-17 04:55:37.87	27.00	13.00	-41.8	-42.7	21.1	0.00e+00	0	34	0	663748608	55	3949
2026-01-17 04:55:41.91	26.62	13.35	-41.7	-42.6	21.2	0.00e+00	0	34	0	686817280	55	3879
2026-01-17 04:55:45.95	26.22	13.71	-41.7	-42.6	21.2	0.00e+00	0	34	0	709885952	55	3879
2026-01-17 04:55:49.98	25.82	14.06	-41.8	-42.7	21.1	0.00e+00	0	34	0	731906048	55	3918
2026-01-17 04:55:54.02	25.40	14.42	-41.8	-42.7	21.2	0.00e+00	0	34	0	753926144	55	3935
2026-01-17 04:55:58.05	24.97	14.79	-41.6	-42.4	21.4	0.00e+00	0	34	0	776994816	55	3821
2026-01-17 04:56:02.09	24.53	15.16	-41.5	-42.4	21.5	0.00e+00	0	34	0	800063488	55	3799
2026-01-17 04:56:06.12	24.09	15.53	-41.4	-42.3	21.6	0.00e+00	0	34	0	822083584	54	3981
2026-01-17 04:56:10.15	23.63	15.90	-41.2	-42.0	21.9	0.00e+00	0	34	0	845152256	54	3850
2026-01-17 04:56:14.18	23.15	16.28	-41.0	-41.8	22.1	0.00e+00	0	34	0	868220928	54	3763
2026-01-17 04:56:18.22	22.67	16.66	-40.9	-41.7	22.2	0.00e+00	0	34	0	890241024	53	3926
2026-01-17 04:56:22.25	22.17	17.05	-40.9	-41.7	22.2	0.00e+00	0	34	0	913309696	53	3942
2026-01-17 04:56:26.29	21.66	17.44	-41.1	-41.9	22.0	0.00e+00	0	34	0	936378368	53	4033
2026-01-17 04:56:30.32	21.13	17.84	-40.9	-41.7	22.2	0.00e+00	0	34	0	958398464	53	3927
2026-01-17 04:56:34.36	20.59	18.24	-40.7	-41.5	22.4	0.00e+00	0	34	0	981467136	53	3860
2026-01-17 04:56:38.39	20.04	18.64	-40.5	-41.3	22.6	0.00e+00	0	34	0	1004535808	53	3772
2026-01-17 04:56:42.43	19.47	19.05	-40.6	-41.4	22.6	0.00e+00	0	34	0	1026555904	53	3803
2026-01-17 04:56:46.46	18.88	19.46	-40.6	-41.3	22.6	0.00e+00	0	34	0	1049624576	53	3778
2026-01-17 04:56:50.50	18.28	19.87	-40.2	-41.0	22.9	0.00e+00	0	34	0	1072693248	52	3855
2026-01-17 04:56:54.53	17.66	20.29	-40.3	-41.1	22.9	0.00e+00	0	34	0	1094713344	52	3870
2026-01-17 04:56:58.56	17.02	20.71	-40.1	-40.9	23.0	0.00e+00	0	34	0	1117782016	52	3806
2026-01-17 04:57:02.60	16.37	21.13	-39.9	-40.7	23.3	0.00e+00	0	34	0	1139802112	51	3942
2026-01-17 04:57:06.63	15.69	21.56	-39.7	-40.5	23.5	0.00e+00	0	34	0	1162870784	51	3849
2026-01-17 04:57:10.67	15.00	21.99	-40.0	-40.8	23.3	0.00e+00	0	34	0	1185939456	51	3975
2026-01-17 04:57:14.70	14.29	22.42	-39.8	-40.6	23.5	0.00e+00	0	34	0	1207959552	51	3870
2026-01-17 04:57:18.74	13.55	22.85	-39.7	-40.5	23.6	0.00e+00	0	34	0	1231028224	51	3844
2026-01-17 04:57:22.77	12.80	23.29	-39.8	-40.6	23.5	0.00e+00	0	34	0	1254096896	51	3885
2026-01-17 04:57:26.81	12.02	23.73	-39.8	-40.5	23.5	0.00e+00	0	34	0	1276116992	51	3867
2026-01-17 04:57:30.84	11.23	24.17	-39.7	-40.4	23.7	0.00e+00	0	34	0	1299185664	51	3819
2026-01-17 04:57:34.87	10.41	24.61	-39.6	-40.3	23.7	0.00e+00	0	34	0	1322254336	51	3766
2026-01-17 04:57:38.91	9.56	25.05	-39.4	-40.2	23.9	0.00e+00	0	34	0	1344274432	50	3924
2026-01-17 04:57:42.94	8.69	25.49	-39.6	-40.4	23.7	0.00e+00	0	34	0	1367343104	50	4017
2026-01-17 04:57:46.98	7.79	25.93	-39.2	-40.0	24.1	0.00e+00	0	34	0	1390411776	50	3836
2026-01-17 04:57:51.02	6.87	26.37	-39.1	-39.8	24.2	0.00e+00	0	34	0	1412431872	50	3772
2026-01-17 04:57:55.05	5.93	26.81	-39.1	-39.9	24.2	0.00e+00	0	34	0	1435500544	50	3782
2026-01-17 04:57:59.09	4.95	27.25	-38.9	-39.6	24.5	0.00e+00	0	34	0	1458569216	49	3885
2026-01-17 04:58:03.13	3.95	27.69	-39.0	-39.7	24.4	0.00e+00	0	34	0	1480589312	49	3924
2026-01-17 04:58:07.16	2.92	28.12	-38.8	-39.5	24.5	0.00e+00	0	34	0	1503657984	49	3853
2026-01-17 04:58:11.20	1.86	28.55	-38.8	-39.6	24.5	0.00e+00	0	34	0	1525678080	49	3876
2026-01-17 04:58:15.23	0.78	28.97	-39.0	-39.8	24.3	0.00e+00	0	34	0	1548746752	49	3966
2026-01-17 04:58:19.27	359.66	29.39	-39.0	-39.7	24.4	0.00e+00	0	34	0	1571815424	49	3933
2026-01-17 04:58:23.30	358.52	29.80	-38.7	-39.4	24.6	0.00e+00	0	34	0	1593835520	49	3821
2026-01-17 04:58:27.33	357.35	30.21	-38.5	-39.2	24.8	0.00e+00	0	34	0	1616904192	49	3728
2026-01-17 04:58:31.37	356.14	30.60	-38.4	-39.2	24.9	0.00e+00	0	34	0	1639972864	48	3914
2026-01-17 04:58:35.40	354.91	30.99	-38.3	-39.0	25.0	0.00e+00	0	34	0	1661992960	48	3848
2026-01-17 04:58:39.44	353.65	31.37	-38.5	-39.2	24.8	0.00e+00	0	34	0	1685061632	48	3939
2026-01-17 04:58:43.48	352.35	31.73	-38.3	-39.0	25.1	0.00e+00	0	34	0	1708130304	48	3832
2026-01-17 04:58:47.51	351.03	32.08	-38.4	-39.1	25.0	0.00e+00	0	34	0	1730150400	48	3890
2026-01-17 04:58:51.55	349.68	32.42	-38.1	-38.8	25.2	0.00e+00	0	34	0	1753219072	48	3755
2026-01-17 04:58:55.58	348.30	32.75	-38.1	-38.8	25.2	0.00e+00	0	34	0	1776287744	48	3780
2026-01-17 04:58:59.62	346.89	33.06	-38.3	-39.0	25.1	0.00e+00	0	34	0	1798307840	48	3836
2026-01-17 04:59:03.65	345.46	33.35	-38.5	-39.2	25.0	0.00e+00	0	34	0	1821376512	48	3918
2026-01-17 04:59:07.69	344.00	33.62	-38.5	-39.2	24.9	0.00e+00	0	34	0	1844445184	48	3956
2026-01-17 04:59:11.72	342.52	33.87	-38.3	-39.0	25.1	0.00e+00	0	34	0	1866465280	48	3843
2026-01-17 04:59:15.76	341.01	34.11	-38.4	-39.1	25.1	0.00e+00	0	34	0	1889533952	48	3870
2026-01-17 04:59:19.79	339.49	34.32	-38.5	-39.2	24.9	0.00e+00	0	34	0	1911554048	48	3936
2026-01-17 04:59:23.82	337.95	34.51	-38.3	-39.0	25.1	0.00e+00	0	34	0	1934622720	48	3856
2026-01-17 04:59:27.86	336.38	34.68	-38.5	-39.3	24.9	0.00e+00	0	34	0	1957691392	48	3965
2026-01-17 04:59:31.89	334.81	34.82	-38.1	-38.8	25.3	0.00e+00	0	34	0	1979711488	48	3761
2026-01-17 04:59:35.93	333.21	34.94	-38.3	-39.0	25.2	0.00e+00	0	34	0	2002780160	48	3852
2026-01-17 04:59:39.96	331.61	35.03	-38.1	-38.8	25.3	0.00e+00	0	34	0	2025848832	48	3771
2026-01-17 04:59:43.99	330.01	35.10	-38.0	-38.7	25.5	0.00e+00	0	34	0	2047868928	48	3702
2026-01-17 04:59:48.02	328.40	35.14	-38.1	-38.8	24.9	0.00e+00	0	34	0	2070937600	47	3988
2026-01-17 04:59:52.06	326.78	35.16	-37.7	-38.4	25.2	0.00e+00	0	34	0	2094006272	47	3806
2026-01-17 04:59:56.10	325.16	35.15	-38.2	-38.9	24.8	0.00e+00	0	34	0	2116026368	47	4026
2026-01-17 05:00:00.13	323.54	35.12	-37.9	-38.6	25.0	0.00e+00	0	34	0	2139095040	47	3913
2026-01-17 05:00:04.17	321.93	35.05	-38.0	-38.7	24.9	0.00e+00	0	34	0	2162163712	47	3941
2026-01-17 05:00:08.20	320.33	34.97	-37.8	-38.5	25.1	0.00e+00	0	34	0	2184183808	47	3867
2026-01-17 05:00:12.23	318.73	34.86	-38.2	-38.9	24.8	0.00e+00	0	34	0	2207252480	47	4032
2026-01-17 05:00:16.26	317.15	34.72	-38.0	-38.7	24.9	0.00e+00	0	34	0	2230321152	47	3958
2026-01-17 05:00:20.30	315.58	34.56	-37.8	-38.5	25.2	0.00e+00	0	34	0	2252341248	47	3844
2026-01-17 05:00:24.33	314.03	34.38	-37.9	-38.6	25.1	0.00e+00	0	34	0	2275409920	47	3883
2026-01-17 05:00:28.37	312.50	34.17	-38.1	-38.9	24.8	0.00e+00	0	34	0	2297430016	47	4013
2026-01-17 05:00:32.40	310.99	33.94	-37.9	-38.6	25.1	0.00e+00	0	34	0	2320498688	47	3890
2026-01-17 05:00:36.43	309.50	33.69	-37.8	-38.5	25.1	0.00e+00	0	34	0	2343567360	47	3856
2026-01-17 05:00:40.46	308.03	33.43	-38.3	-39.0	24.7	0.00e+00	0	34	0	2365587456	47	4065
2026-01-17 05:00:44.50	306.59	33.14	-38.5	-39.2	24.5	0.00e+00	0	34	0	2388656128	47	4183
2026-01-17 05:00:48.53	305.18	32.84	-38.1	-38.8	24.9	0.00e+00	0	34	0	2410676224	47	3982
2026-01-17 05:00:52.57	303.79	32.52	-38.0	-38.7	25.0	0.00e+00	0	34	0	2433744896	47	3940
2026-01-17 05:00:56.60	302.43	32.18	-38.2	-38.9	24.8	0.00e+00	0	34	0	2456813568	47	4048
2026-01-17 05:01:00.64	301.09	31.83	-38.5	-39.2	24.5	0.00e+00	0	34	0	2479882240	47	4175
2026-01-17 05:01:04.67	299.79	31.47	-38.4	-39.1	24.6	0.00e+00	0	34	0	2501902336	47	4115
2026-01-17 05:01:08.71	298.51	31.10	-38.4	-39.2	24.6	0.00e+00	0	34	0	2524971008	47	4151
2026-01-17 05:01:12.74	297.27	30.71	-38.5	-39.2	24.5	0.00e+00	0	34	0	2548039680	47	4171
2026-01-17 05:01:16.78	296.05	30.32	-38.4	-39.2	24.6	0.00e+00	0	34	0	2570059776	47	4158
2026-01-17 05:01:20.81	294.87	29.92	-38.2	-38.9	24.8	0.00e+00	0	34	0	2593128448	47	4047
2026-01-17 05:01:24.84	293.72	29.51	-38.4	-39.1	24.6	0.00e+00	0	34	0	2616197120	47	4119
2026-01-17 05:01:28.88	292.59	29.09	-38.5	-39.2	24.5	0.00e+00	0	34	0	2638217216	47	4188
2026-01-17 05:01:32.91	291.49	28.66	-39.1	-39.8	24.5	0.00e+00	0	34	0	2660237312	48	4215
2026-01-17 05:01:36.95	290.42	28.24	-39.0	-39.7	24.6	0.00e+00	0	34	0	2683305984	49	3932
2026-01-17 05:01:40.98	289.39	27.80	-38.9	-39.6	24.6	0.00e+00	0	34	0	2706374656	49	3911
2026-01-17 05:01:45.02	288.37	27.37	-39.3	-40.0	24.3	0.00e+00	0	34	0	2728394752	49	4075
2026-01-17 05:01:49.06	287.39	26.93	-39.4	-40.1	24.2	0.00e+00	0	34	0	2751463424	49	4120
2026-01-17 05:01:53.09	286.43	26.49	-39.4	-40.1	24.2	0.00e+00	0	34	0	2774532096	49	4134
2026-01-17 05:01:57.13	285.50	26.05	-39.3	-40.0	24.2	0.00e+00	0	34	0	2796552192	49	4075
2026-01-17 05:02:01.16	284.60	25.60	-39.6	-40.3	23.9	0.00e+00	0	34	0	2819620864	49	4227
2026-01-17 05:02:05.19	283.72	25.16	-39.5	-40.2	24.0	0.00e+00	0	34	0	2842689536	49	4186
2026-01-17 05:02:09.23	282.87	24.72	-39.5	-40.3	24.0	0.00e+00	0	34	0	2865758208	49	4196
2026-01-17 05:02:13.27	282.04	24.28	-39.7	-40.4	23.9	0.00e+00	0	34	0	2887778304	50	4035
2026-01-17 05:02:17.30	281.23	23.83	-39.7	-40.5	23.8	0.00e+00	0	34	0	2910846976	50	4066
2026-01-17 05:02:21.34	280.44	23.39	-40.0	-40.8	23.5	0.00e+00	0	34	0	2933915648	50	4206
2026-01-17 05:02:25.37	279.68	22.96	-39.8	-40.5	23.8	0.00e+00	0	34	0	2955935744	50	4072
2026-01-17 05:02:29.41	278.94	22.52	-39.5	-40.3	23.9	0.00e+00	0	34	0	2979004416	50	3973
2026-01-17 05:02:33.44	278.22	22.09	-39.6	-40.4	23.9	0.00e+00	0	34	0	3002073088	50	4006
2026-01-17 05:02:37.48	277.52	21.66	-39.6	-40.3	23.9	0.00e+00	0	34	0	3024093184	50	4000
2026-01-17 05:02:41.51	276.84	21.23	-39.7	-40.4	23.8	0.00e+00	0	34	0	3046113280	50	4028
2026-01-17 05:02:45.54	276.18	20.80	-39.7	-40.5	23.7	0.00e+00	0	34	0	3069181952	50	4068
2026-01-17 05:02:49.58	275.53	20.38	-39.9	-40.7	23.5	0.00e+00	0	34	0	3092250624	50	4156
2026-01-17 05:02:53.61	274.91	19.96	-39.9	-40.7	23.5	0.00e+00	0	34	0	3114270720	50	4156
2026-01-17 05:02:57.64	274.30	19.55	-40.0	-40.8	23.4	0.00e+00	0	34	0	3137339392	50	4212
2026-01-17 05:03:01.68	273.70	19.13	-40.2	-41.0	23.2	0.00e+00	0	34	0	3160408064	50	4315
2026-01-17 05:03:05.72	273.13	18.73	-40.3	-41.1	23.1	0.00e+00	0	34	0	3182428160	51	4125
2026-01-17 05:03:09.75	272.57	18.32	-40.5	-41.3	22.9	0.00e+00	0	34	0	3205496832	51	4238
2026-01-17 05:03:13.79	272.02	17.92	-40.4	-41.2	23.0	0.00e+00	0	34	0	3228565504	51	4161
2026-01-17 05:03:17.83	271.49	17.52	-40.6	-41.4	22.9	0.00e+00	0	34	0	3250585600	51	4247
2026-01-17 05:03:21.86	270.97	17.13	-40.8	-41.7	22.5	0.00e+00	0	34	0	3273654272	52	4146
2026-01-17 05:03:25.89	270.47	16.74	-41.0	-41.8	22.3	0.00e+00	0	34	0	3296722944	52	4218
2026-01-17 05:03:29.92	269.98	16.36	-41.2	-42.0	22.1	0.00e+00	0	34	0	3318743040	52	4305
2026-01-17 05:03:33.96	269.50	15.97	-41.3	-42.1	22.0	0.00e+00	0	34	0	3341811712	53	4139
2026-01-17 05:03:37.99	269.03	15.60	-41.3	-42.1	22.0	0.00e+00	0	34	0	3364880384	53	4120
2026-01-17 05:03:42.02	268.58	15.22	-41.3	-42.2	21.9	0.00e+00	0	34	0	3386900480	53	4159
2026-01-17 05:03:46.06	268.13	14.85	-41.4	-42.3	21.8	0.00e+00	0	34	0	3409969152	53	4196
2026-01-17 05:03:50.09	267.70	14.49	-41.3	-42.2	21.9	0.00e+00	0	34	0	3431989248	53	4151
2026-01-17 05:03:54.13	267.28	14.12	-41.5	-42.4	21.7	0.00e+00	0	34	0	3455057920	53	4249
2026-01-17 05:03:58.16	266.87	13.77	-41.6	-42.5	21.6	0.00e+00	0	34	0	3478126592	53	4300
2026-01-17 05:04:02.20	266.47	13.41	-41.6	-42.5	21.5	0.00e+00	0	34	0	3500146688	53	4328
2026-01-17 05:04:06.23	266.08	13.06	-41.7	-42.6	21.4	0.00e+00	0	34	0	3523215360	54	4127
2026-01-17 05:04:10.26	265.70	12.71	-42.0	-42.9	21.2	0.00e+00	0	34	0	3546284032	54	4252
2026-01-17 05:04:14.30	265.33	12.37	-42.0	-42.9	21.1	0.00e+00	0	34	0	3568304128	54	4280
2026-01-17 05:04:18.33	264.96	12.03	-42.1	-43.0	21.0	0.00e+00	0	34	0	3591372800	54	4298
2026-01-17 05:04:22.37	264.61	11.69	-42.2	-43.1	20.9	0.00e+00	0	34	0	3614441472	54	4370
2026-01-17 05:04:26.40	264.26	11.36	-42.4	-43.3	20.7	0.00e+00	0	34	0	3636461568	55	4210
2026-01-17 05:04:30.43	263.92	11.03	-42.2	-43.1	20.9	0.00e+00	0	34	0	3659530240	55	4114
2026-01-17 05:04:34.46	263.59	10.71	-42.3	-43.2	20.7	0.00e+00	0	34	0	3682598912	55	4175
2026-01-17 05:04:38.50	263.27	10.38	-42.4	-43.3	20.6	0.00e+00	0	34	0	3704619008	55	4242
2026-01-17 05:04:42.54	262.95	10.06	-42.5	-43.4	20.5	0.00e+00	0	34	0	3727687680	55	4278
2026-01-17 05:04:46.57	262.64	9.75	-42.6	-43.6	20.3	0.00e+00	0	34	0	3750756352	55	4349
2026-01-17 05:04:50.61	262.34	9.43	-42.7	-43.7	20.2	0.00e+00	0	34	0	3772776448	56	4176
2026-01-17 05:04:54.64	262.05	9.12	-42.8	-43.8	20.1	0.00e+00	0	34	0	3795845120	56	4235
2026-01-17 05:04:58.68	261.76	8.82	-43.0	-44.0	19.9	0.00e+00	0	34	0	3817865216	56	4309
2026-01-17 05:05:02.71	261.47	8.51	-42.8	-43.8	20.0	0.00e+00	0	34	0	3840933888	56	4223
2026-01-17 05:05:06.75	261.20	8.21	-42.9	-43.9	19.9	0.00e+00	0	34	0	3864002560	56	4279
2026-01-17 05:05:10.78	260.93	7.91	-43.0	-44.1	19.8	0.00e+00	0	34	0	3886022656	56	4342
2026-01-17 05:05:14.82	260.66	7.62	-43.1	-44.1	19.7	0.00e+00	0	34	0	3909091328	56	4359
2026-01-17 05:05:18.86	260.40	7.32	-43.2	-44.2	19.5	0.00e+00	0	34	0	3932160000	57	4183
2026-01-17 05:05:22.89	260.15	7.04	-43.3	-44.4	19.3	0.00e+00	0	34	0	3954180096	57	4251
2026-01-17 05:05:26.93	259.90	6.75	-43.3	-44.3	19.4	0.00e+00	0	34	0	3977248768	57	4230
2026-01-17 05:05:30.96	259.65	6.46	-43.3	-44.4	19.2	0.00e+00	0	34	0	4000317440	57	4268
2026-01-17 05:05:35.00	259.42	6.18	-43.5	-44.6	19.1	0.00e+00	0	34	0	4022337536	57	4348
2026-01-17 05:05:39.03	259.18	5.90	-43.6	-44.7	18.9	0.00e+00	0	34	0	4045406208	57	4431
2026-01-17 05:05:43.06	258.95	5.63	-43.6	-44.7	18.8	0.00e+00	0	34	0	4068474880	58	4184
2026-01-17 05:05:47.10	258.73	5.35	-43.6	-44.8	18.7	0.00e+00	0	34	0	4090494976	58	4201
2026-01-17 05:05:51.14	258.51	5.08	-44.0	-45.3	18.2	0.00e+00	0	34	0	4113563648	58	4449
2026-01-17 05:05:55.17	258.29	4.81	-52.9	-64.9	3.8	8.46e-01	0	34	104	4123000832	76	15178
2026-01-17 05:05:59.20	258.08	4.54	-53.4	-65.4	3.8	8.46e-01	0	34	104	4123000832	77	15134
2026-01-17 05:06:03.24	257.87	4.28	-53.6	-65.6	3.8	8.45e-01	0	34	104	4123000832	77	15458
2026-01-17 05:06:07.27	257.67	4.02	-53.6	-65.6	3.8	8.46e-01	0	34	104	4123000832	77	15576
2026-01-17 05:06:11.31	257.47	3.76	-53.6	-65.6	3.8	8.46e-01	0	35	104	4123000832	77	15527
2026-01-17 05:06:15.34	257.27	3.50	-53.5	-65.5	3.8	8.46e-01	0	34	104	4123000832	77	15383
2026-01-17 05:06:19.37	257.08	3.24	-53.5	-65.5	3.8	8.46e-01	0	34	104	4123000832	77	15305
2026-01-17 05:06:23.41	256.89	2.99	-53.5	-65.5	3.8	8.45e-01	0	34	104	4123000832	77	15264
2026-01-17 05:06:27.45	256.70	2.73	-53.5	-65.5	3.8	8.46e-01	0	34	104	4123000832	77	15262
2026-01-17 05:06:31.48	256.52	2.48	-53.5	-65.5	3.8	8.46e-01	0	35	104	4123000832	77	15276
2026-01-17 05:06:35.52	256.34	2.24	-53.4	-65.4	3.8	8.47e-01	0	34	104	4123000832	77	15194
2026-01-17 05:06:39.55	256.16	1.99	-53.4	-65.5	3.8	8.45e-01	0	34	104	4123000832	77	15237

#Closed at: 2026-01-17 05:06:40
#Recorded file [4123 MB]: D:/lorett/data/31041_260117_075304.dat