passes_logs/2026/01/17/R3.2S_Murmansk/R3.2S_Murmansk__20260117_013230_FENGYUN_3D_rec.log

#Pass ID: 20260117_013230_FENGYUN 3D
#Satellite: FENGYUN 3D
#Configuration: FENGYUN 3D
#almurnet v.1.7.20251203
#Start time: 2026-01-17 01:32:30

#Version: 2.2.20231116
#Station: R3.2S_Murmansk
#Location: 33.079688 lon 68.888172 lat
#TLE: 1 43010U 17072A   26015.99024095 -.00000189  00000+0 -67463-4 0  9996
#TLE: 2 43010  98.9932 347.8215 0002366 106.5594 253.5841 14.19694691423396

#Time	Az	El	Level	Level2	SNR	BER	BlckErr	Temp	State	Recorded	gain1	gain2
2026-01-17 01:32:30.55	21.36	1.99	-51.5	-62.9	3.8	8.47e-01	0	32	0	0	74	13569
2026-01-17 01:32:34.58	21.52	2.24	-51.3	-61.6	3.8	8.46e-01	0	32	104	0	73	12252
2026-01-17 01:32:38.61	21.68	2.49	-51.3	-61.4	3.8	8.46e-01	0	32	104	0	73	11968
2026-01-17 01:32:42.65	21.84	2.74	-51.2	-60.6	4.0	8.43e-01	0	32	104	0	73	10924
2026-01-17 01:32:46.68	22.00	2.99	-50.8	-57.9	5.0	7.49e-01	0	32	0	0	73	8075
2026-01-17 01:32:50.72	22.17	3.25	-50.5	-56.7	5.8	4.66e-01	0	32	0	10485760	72	7396
2026-01-17 01:32:54.76	22.34	3.51	-50.3	-55.7	6.6	1.52e-01	0	32	0	32505856	71	7014
2026-01-17 01:32:58.79	22.51	3.77	-48.4	-51.4	11.0	2.58e-03	0	33	0	55574528	68	5047
2026-01-17 01:33:02.82	22.68	4.03	-46.7	-48.8	13.6	2.20e-06	0	33	0	77594624	64	4716
2026-01-17 01:33:06.86	22.86	4.30	-45.0	-46.6	16.0	0.00e+00	0	33	0	100663296	61	4343
2026-01-17 01:33:10.89	23.04	4.57	-45.9	-47.7	14.8	0.00e+00	0	33	0	123731968	62	4674
2026-01-17 01:33:14.92	23.22	4.84	-47.6	-50.1	12.2	3.89e-05	0	33	0	145752064	65	5197
2026-01-17 01:33:18.96	23.41	5.11	-44.3	-45.5	17.6	0.00e+00	0	33	0	168820736	59	4319
2026-01-17 01:33:23.00	23.60	5.39	-50.1	-55.1	7.4	1.36e-02	0	33	0	190840832	70	6946
2026-01-17 01:33:27.03	23.79	5.66	-44.7	-46.0	17.2	0.00e+00	0	33	0	213909504	59	4580
2026-01-17 01:33:31.07	23.99	5.95	-44.1	-45.3	18.0	0.00e+00	0	33	0	235929600	59	4234
2026-01-17 01:33:35.10	24.19	6.23	-43.4	-44.5	18.8	0.00e+00	0	33	0	258998272	58	4093
2026-01-17 01:33:39.14	24.39	6.52	-43.5	-44.6	18.7	0.00e+00	0	33	0	281018368	58	4125
2026-01-17 01:33:43.17	24.59	6.81	-44.1	-45.4	18.0	0.00e+00	0	33	0	304087040	58	4511
2026-01-17 01:33:47.21	24.81	7.10	-43.7	-44.9	18.5	0.00e+00	0	33	0	327155712	58	4261
2026-01-17 01:33:51.24	25.02	7.39	-42.8	-43.8	19.7	0.00e+00	0	33	0	349175808	57	3974
2026-01-17 01:33:55.27	25.24	7.69	-43.1	-44.2	19.3	0.00e+00	0	34	0	372244480	57	4156
2026-01-17 01:33:59.31	25.46	8.00	-42.9	-43.9	19.6	0.00e+00	0	33	0	395313152	57	4045
2026-01-17 01:34:03.35	25.69	8.30	-42.9	-44.0	19.6	0.00e+00	0	34	0	418381824	57	4061
2026-01-17 01:34:07.38	25.92	8.61	-42.5	-43.5	20.1	0.00e+00	0	33	0	440401920	57	3854
2026-01-17 01:34:11.42	26.15	8.92	-42.4	-43.4	20.2	0.00e+00	0	34	0	463470592	56	4037
2026-01-17 01:34:15.46	26.39	9.24	-42.3	-43.3	20.4	0.00e+00	0	34	0	486539264	56	3963
2026-01-17 01:34:19.49	26.64	9.56	-42.3	-43.3	20.4	0.00e+00	0	34	0	508559360	56	3975
2026-01-17 01:34:23.53	26.89	9.88	-42.3	-43.3	20.4	0.00e+00	0	34	0	531628032	56	3968
2026-01-17 01:34:27.56	27.14	10.21	-42.5	-43.5	20.2	0.00e+00	0	34	0	554696704	56	4063
2026-01-17 01:34:31.60	27.41	10.54	-42.2	-43.1	20.6	0.00e+00	0	34	0	576716800	56	3890
2026-01-17 01:34:35.64	27.67	10.88	-42.4	-43.3	20.4	0.00e+00	0	34	0	599785472	56	3988
2026-01-17 01:34:39.67	27.94	11.22	-42.2	-43.1	20.7	0.00e+00	0	34	0	621805568	56	3890
2026-01-17 01:34:43.70	28.22	11.56	-42.1	-43.1	20.7	0.00e+00	0	34	0	644874240	56	3884
2026-01-17 01:34:47.74	28.51	11.91	-42.0	-43.0	20.7	0.00e+00	0	34	0	666894336	55	4070
2026-01-17 01:34:51.77	28.80	12.26	-41.8	-42.7	20.9	0.00e+00	0	34	0	689963008	55	3949
2026-01-17 01:34:55.81	29.10	12.62	-41.7	-42.6	21.1	0.00e+00	0	34	0	713031680	55	3886
2026-01-17 01:34:59.85	29.40	12.98	-41.8	-42.7	21.0	0.00e+00	0	34	0	735051776	55	3922
2026-01-17 01:35:03.88	29.71	13.35	-41.5	-42.4	21.3	0.00e+00	0	34	0	758120448	55	3797
2026-01-17 01:35:07.92	30.03	13.72	-41.6	-42.5	21.3	0.00e+00	0	34	0	781189120	54	4074
2026-01-17 01:35:11.95	30.36	14.10	-41.7	-42.6	21.2	0.00e+00	0	34	0	804257792	54	4122
2026-01-17 01:35:15.98	30.69	14.48	-41.2	-42.1	21.7	0.00e+00	0	34	0	826277888	54	3887
2026-01-17 01:35:20.02	31.03	14.87	-41.3	-42.1	21.7	0.00e+00	0	34	0	849346560	54	3894
2026-01-17 01:35:24.06	31.39	15.26	-41.2	-42.1	21.8	0.00e+00	0	34	0	872415232	54	3874
2026-01-17 01:35:28.09	31.74	15.66	-41.2	-42.0	21.8	0.00e+00	0	34	0	894435328	54	3859
2026-01-17 01:35:32.12	32.11	16.06	-40.8	-41.6	22.2	0.00e+00	0	34	0	917504000	53	3883
2026-01-17 01:35:36.15	32.49	16.47	-40.5	-41.3	22.5	0.00e+00	0	34	0	940572672	52	3966
2026-01-17 01:35:40.18	32.88	16.88	-40.6	-41.4	22.4	0.00e+00	0	34	0	962592768	52	4050
2026-01-17 01:35:44.22	33.28	17.30	-40.7	-41.5	22.3	0.00e+00	0	34	0	985661440	52	4083
2026-01-17 01:35:48.25	33.69	17.73	-40.5	-41.3	22.5	0.00e+00	0	34	0	1008730112	52	3992
2026-01-17 01:35:52.28	34.11	18.16	-40.3	-41.1	22.7	0.00e+00	0	34	0	1030750208	52	3884
2026-01-17 01:35:56.32	34.54	18.60	-40.0	-40.7	23.1	0.00e+00	0	34	0	1052770304	52	3731
2026-01-17 01:36:00.36	34.99	19.05	-40.1	-40.8	23.1	0.00e+00	0	34	0	1075838976	51	3996
2026-01-17 01:36:04.39	35.45	19.50	-40.0	-40.8	23.2	0.00e+00	0	34	0	1098907648	51	3960
2026-01-17 01:36:08.43	35.92	19.96	-39.8	-40.6	23.3	0.00e+00	0	34	0	1120927744	51	3897
2026-01-17 01:36:12.46	36.41	20.42	-40.0	-40.8	23.2	0.00e+00	0	34	0	1143996416	51	3981
2026-01-17 01:36:16.50	36.91	20.89	-39.9	-40.7	23.3	0.00e+00	0	34	0	1167065088	51	3923
2026-01-17 01:36:20.53	37.42	21.37	-39.9	-40.7	23.3	0.00e+00	0	34	0	1189085184	51	3915
2026-01-17 01:36:24.57	37.95	21.86	-40.0	-40.8	23.2	0.00e+00	0	34	0	1212153856	51	3983
2026-01-17 01:36:28.60	38.50	22.35	-40.0	-40.8	23.2	0.00e+00	0	34	0	1235222528	51	3985
2026-01-17 01:36:32.64	39.06	22.85	-39.9	-40.7	23.3	0.00e+00	0	34	0	1257242624	51	3945
2026-01-17 01:36:36.68	39.64	23.36	-39.6	-40.3	23.7	0.00e+00	0	34	0	1280311296	51	3768
2026-01-17 01:36:40.71	40.24	23.87	-39.2	-40.0	24.0	0.00e+00	0	34	0	1303379968	50	3833
2026-01-17 01:36:44.75	40.87	24.40	-39.0	-39.7	24.2	0.00e+00	0	34	0	1325400064	50	3736
2026-01-17 01:36:48.78	41.51	24.93	-38.8	-39.5	24.4	0.00e+00	0	34	0	1348468736	49	3854
2026-01-17 01:36:52.82	42.17	25.46	-39.0	-39.8	24.2	0.00e+00	0	34	0	1371537408	49	3965
2026-01-17 01:36:56.86	42.85	26.00	-38.9	-39.6	24.3	0.00e+00	0	34	0	1394606080	49	3886
2026-01-17 01:37:00.89	43.56	26.55	-39.0	-39.7	24.2	0.00e+00	0	34	0	1416626176	49	3955
2026-01-17 01:37:04.92	44.29	27.11	-38.7	-39.4	24.5	0.00e+00	0	34	0	1438646272	49	3809
2026-01-17 01:37:08.96	45.05	27.67	-38.5	-39.2	24.7	0.00e+00	0	34	0	1461714944	49	3733
2026-01-17 01:37:12.99	45.83	28.24	-38.4	-39.2	24.8	0.00e+00	0	34	0	1484783616	48	3918
2026-01-17 01:37:17.03	46.65	28.82	-38.7	-39.4	24.5	0.00e+00	0	34	0	1506803712	48	4044
2026-01-17 01:37:21.07	47.49	29.40	-38.5	-39.2	24.8	0.00e+00	0	34	0	1529872384	48	3939
2026-01-17 01:37:25.10	48.36	29.98	-38.7	-39.4	24.5	0.00e+00	0	34	0	1552941056	48	4042
2026-01-17 01:37:29.14	49.26	30.58	-38.4	-39.1	24.9	0.00e+00	0	34	0	1574961152	48	3884
2026-01-17 01:37:33.17	50.20	31.17	-38.3	-39.0	24.9	0.00e+00	0	34	0	1598029824	48	3853
2026-01-17 01:37:37.21	51.17	31.77	-38.5	-39.2	24.7	0.00e+00	0	34	0	1621098496	48	3958
2026-01-17 01:37:41.24	52.17	32.37	-38.5	-39.2	24.8	0.00e+00	0	34	0	1643118592	48	3924
2026-01-17 01:37:45.28	53.22	32.98	-38.5	-39.2	24.8	0.00e+00	0	34	0	1666187264	48	3929
2026-01-17 01:37:49.32	54.30	33.59	-38.6	-39.3	24.7	0.00e+00	0	34	0	1689255936	48	3974
2026-01-17 01:37:53.36	55.43	34.19	-38.6	-39.4	24.7	0.00e+00	0	34	0	1712324608	48	4006
2026-01-17 01:37:57.39	56.59	34.80	-38.5	-39.3	24.8	0.00e+00	0	34	0	1734344704	48	3961
2026-01-17 01:38:01.43	57.80	35.41	-38.5	-39.2	24.9	0.00e+00	0	34	0	1757413376	48	3917
2026-01-17 01:38:05.46	59.05	36.01	-38.4	-39.1	25.0	0.00e+00	0	34	0	1780482048	48	3875
2026-01-17 01:38:09.50	60.35	36.61	-38.3	-39.0	25.0	0.00e+00	0	34	0	1802502144	48	3843
2026-01-17 01:38:13.53	61.70	37.20	-38.4	-39.1	25.0	0.00e+00	0	34	0	1824522240	48	3887
2026-01-17 01:38:17.57	63.10	37.78	-38.3	-38.9	25.1	0.00e+00	0	34	0	1847590912	48	3824
2026-01-17 01:38:21.61	64.55	38.36	-38.2	-38.9	25.1	0.00e+00	0	34	0	1870659584	48	3820
2026-01-17 01:38:25.64	66.04	38.92	-38.5	-39.2	24.9	0.00e+00	0	34	0	1892679680	48	3926
2026-01-17 01:38:29.68	67.59	39.48	-37.7	-38.4	25.1	0.00e+00	0	34	0	1915748352	47	3789
2026-01-17 01:38:33.71	69.19	40.01	-38.1	-38.9	24.7	0.00e+00	0	34	0	1938817024	47	4010
2026-01-17 01:38:37.75	70.85	40.53	-37.9	-38.6	24.9	0.00e+00	0	34	0	1960837120	47	3890
2026-01-17 01:38:41.79	72.56	41.03	-38.2	-38.9	24.6	0.00e+00	0	34	0	1983905792	47	4038
2026-01-17 01:38:45.83	74.32	41.51	-38.2	-39.0	24.6	0.00e+00	0	34	0	2006974464	47	4058
2026-01-17 01:38:49.86	76.12	41.96	-38.1	-38.8	24.7	0.00e+00	0	34	0	2030043136	47	3997
2026-01-17 01:38:53.90	77.98	42.39	-38.0	-38.7	24.8	0.00e+00	0	34	0	2052063232	47	3941
2026-01-17 01:38:57.93	79.89	42.79	-38.4	-39.1	24.5	0.00e+00	0	34	0	2075131904	47	4128
2026-01-17 01:39:01.97	81.84	43.15	-38.0	-38.7	24.8	0.00e+00	0	34	0	2098200576	47	3943
2026-01-17 01:39:06.00	83.83	43.48	-38.4	-39.1	24.4	0.00e+00	0	34	0	2120220672	47	4135
2026-01-17 01:39:10.04	85.87	43.78	-38.3	-39.0	24.6	0.00e+00	0	34	0	2143289344	47	4065
2026-01-17 01:39:14.07	87.94	44.04	-39.2	-39.9	24.2	0.00e+00	0	34	0	2166358016	49	4030
2026-01-17 01:39:18.11	90.04	44.25	-39.1	-39.8	24.3	0.00e+00	0	34	0	2188378112	49	4003
2026-01-17 01:39:22.15	92.17	44.43	-39.1	-39.8	24.3	0.00e+00	0	34	0	2210398208	49	3976
2026-01-17 01:39:26.18	94.31	44.57	-39.0	-39.7	24.4	0.00e+00	0	34	0	2233466880	49	3936
2026-01-17 01:39:30.22	96.48	44.66	-38.6	-39.3	24.7	0.00e+00	0	34	0	2256535552	49	3771
2026-01-17 01:39:34.25	98.64	44.70	-39.1	-39.8	24.3	0.00e+00	0	34	0	2279604224	49	3995
2026-01-17 01:39:38.28	100.82	44.70	-39.1	-39.9	24.2	0.00e+00	0	34	0	2301624320	49	4008
2026-01-17 01:39:42.31	102.99	44.66	-39.0	-39.7	24.4	0.00e+00	0	34	0	2324692992	49	3953
2026-01-17 01:39:46.34	105.15	44.57	-39.2	-40.0	24.1	0.00e+00	0	34	0	2346713088	49	4071
2026-01-17 01:39:50.37	107.29	44.44	-39.2	-39.9	24.2	0.00e+00	0	34	0	2369781760	49	4011
2026-01-17 01:39:54.41	109.43	44.27	-38.9	-39.7	24.4	0.00e+00	0	34	0	2392850432	49	3914
2026-01-17 01:39:58.44	111.53	44.05	-39.2	-39.9	24.2	0.00e+00	0	34	0	2414870528	49	4033
2026-01-17 01:40:02.48	113.60	43.80	-38.9	-39.6	24.5	0.00e+00	0	34	0	2437939200	49	3913
2026-01-17 01:40:06.51	115.64	43.51	-38.9	-39.6	24.5	0.00e+00	0	34	0	2461007872	49	3886
2026-01-17 01:40:10.55	117.64	43.18	-38.6	-39.3	24.7	0.00e+00	0	34	0	2484076544	48	3982
2026-01-17 01:40:14.58	119.60	42.81	-39.1	-39.8	24.3	0.00e+00	0	34	0	2506096640	48	4234
2026-01-17 01:40:18.62	121.51	42.42	-38.9	-39.7	24.4	0.00e+00	0	34	0	2529165312	48	4151
2026-01-17 01:40:22.66	123.38	41.99	-39.0	-39.7	24.3	0.00e+00	0	34	0	2552233984	48	4185
2026-01-17 01:40:26.69	125.19	41.54	-38.6	-39.3	24.7	0.00e+00	0	34	0	2574254080	48	3988
2026-01-17 01:40:30.73	126.96	41.06	-38.5	-39.3	24.8	0.00e+00	0	34	0	2596274176	48	3969
2026-01-17 01:40:34.76	128.67	40.56	-38.5	-39.2	24.8	0.00e+00	0	34	0	2619342848	48	3957
2026-01-17 01:40:38.79	130.33	40.05	-38.8	-39.5	24.5	0.00e+00	0	34	0	2642411520	48	4083
2026-01-17 01:40:42.82	131.94	39.51	-38.0	-38.7	25.3	0.00e+00	0	34	0	2664431616	48	3708
2026-01-17 01:40:46.86	133.50	38.96	-38.3	-39.0	25.0	0.00e+00	0	34	0	2687500288	48	3830
2026-01-17 01:40:50.90	135.00	38.39	-38.3	-39.0	25.0	0.00e+00	0	34	0	2710568960	48	3833
2026-01-17 01:40:54.93	136.46	37.81	-38.4	-39.1	24.9	0.00e+00	0	34	0	2732589056	48	3880
2026-01-17 01:40:58.97	137.86	37.23	-38.1	-38.8	25.1	0.00e+00	0	34	0	2755657728	48	3772
2026-01-17 01:41:03.00	139.21	36.63	-38.6	-39.3	24.7	0.00e+00	0	34	0	2778726400	48	3965
2026-01-17 01:41:07.03	140.52	36.03	-38.8	-39.6	24.4	0.00e+00	0	34	0	2800746496	48	4108
2026-01-17 01:41:11.06	141.78	35.43	-38.7	-39.4	24.6	0.00e+00	0	34	0	2823815168	48	4012
2026-01-17 01:41:15.10	142.99	34.82	-38.3	-39.0	24.5	0.00e+00	0	34	0	2846883840	48	3860
2026-01-17 01:41:19.13	144.16	34.21	-38.3	-39.1	24.5	0.00e+00	0	34	0	2868903936	48	3885
2026-01-17 01:41:23.17	145.29	33.60	-38.5	-39.3	24.3	0.00e+00	0	34	0	2891972608	48	3986
2026-01-17 01:41:27.20	146.38	32.99	-38.3	-39.0	24.5	0.00e+00	0	34	0	2915041280	48	3844
2026-01-17 01:41:31.24	147.43	32.38	-38.6	-39.4	24.2	0.00e+00	0	34	0	2937061376	48	4029
2026-01-17 01:41:35.28	148.44	31.78	-38.4	-39.2	24.3	0.00e+00	0	34	0	2960130048	48	3929
2026-01-17 01:41:39.32	149.42	31.17	-38.7	-39.4	24.1	0.00e+00	0	34	0	2982150144	48	4043
2026-01-17 01:41:43.35	150.36	30.57	-38.7	-39.5	24.0	0.00e+00	0	34	0	3005218816	48	4088
2026-01-17 01:41:47.38	151.27	29.98	-38.6	-39.3	24.2	0.00e+00	0	34	0	3028287488	48	3993
2026-01-17 01:41:51.41	152.14	29.39	-38.6	-39.4	24.2	0.00e+00	0	34	0	3050307584	48	4009
2026-01-17 01:41:55.44	152.98	28.81	-38.5	-39.3	24.2	0.00e+00	0	34	0	3073376256	48	3959
2026-01-17 01:41:59.48	153.80	28.23	-38.7	-39.5	24.1	0.00e+00	0	34	0	3096444928	48	4053
2026-01-17 01:42:03.51	154.59	27.66	-39.0	-39.8	23.7	0.00e+00	0	34	0	3118465024	48	4226
2026-01-17 01:42:07.54	155.34	27.09	-38.9	-39.7	23.9	0.00e+00	0	34	0	3141533696	48	4162
2026-01-17 01:42:11.58	156.08	26.53	-38.7	-39.5	24.0	0.00e+00	0	34	0	3164602368	48	4077
2026-01-17 01:42:15.61	156.79	25.98	-38.9	-39.7	23.8	0.00e+00	0	34	0	3186622464	48	4152
2026-01-17 01:42:19.65	157.48	25.43	-39.1	-39.9	23.6	0.00e+00	0	34	0	3209691136	48	4287
2026-01-17 01:42:23.68	158.14	24.89	-39.1	-39.9	23.6	0.00e+00	0	34	0	3232759808	49	4048
2026-01-17 01:42:27.71	158.78	24.36	-39.1	-39.9	23.6	0.00e+00	0	34	0	3254779904	49	4013
2026-01-17 01:42:31.75	159.41	23.84	-39.1	-39.8	23.7	0.00e+00	0	34	0	3277848576	49	3998
2026-01-17 01:42:35.78	160.01	23.32	-39.1	-39.9	23.6	0.00e+00	0	34	0	3300917248	49	4018
2026-01-17 01:42:39.82	160.59	22.81	-39.5	-40.3	23.3	0.00e+00	0	34	0	3322937344	49	4199
2026-01-17 01:42:43.84	161.15	22.31	-39.9	-40.7	22.8	0.00e+00	0	34	0	3344957440	50	4187
2026-01-17 01:42:47.88	161.70	21.81	-39.8	-40.7	22.9	0.00e+00	0	34	0	3368026112	50	4147
2026-01-17 01:42:51.91	162.23	21.32	-39.7	-40.5	23.1	0.00e+00	0	34	0	3391094784	50	4058
2026-01-17 01:42:55.95	162.75	20.84	-39.8	-40.6	23.0	0.00e+00	0	35	0	3413114880	50	4108
2026-01-17 01:42:59.97	163.25	20.37	-39.9	-40.7	22.8	0.00e+00	0	34	0	3436183552	50	4184
2026-01-17 01:43:04.00	163.74	19.90	-39.9	-40.7	22.8	0.00e+00	0	34	0	3459252224	50	4166
2026-01-17 01:43:08.04	164.21	19.44	-39.9	-40.7	22.8	0.00e+00	0	34	0	3481272320	50	4170
2026-01-17 01:43:12.08	164.67	18.98	-40.3	-41.1	22.4	0.00e+00	0	34	0	3504340992	51	4133
2026-01-17 01:43:16.11	165.11	18.54	-40.5	-41.4	22.2	0.00e+00	0	34	0	3527409664	51	4254
2026-01-17 01:43:20.14	165.55	18.09	-40.6	-41.5	22.0	0.00e+00	0	34	0	3549429760	52	4067
2026-01-17 01:43:24.17	165.97	17.66	-40.4	-41.3	22.2	0.00e+00	0	34	0	3572498432	52	3968
2026-01-17 01:43:28.21	166.38	17.23	-40.4	-41.2	22.2	0.00e+00	0	34	0	3595567104	52	3953
2026-01-17 01:43:32.25	166.78	16.81	-40.6	-41.5	22.0	0.00e+00	0	34	0	3617587200	52	4060
2026-01-17 01:43:36.28	167.17	16.39	-40.9	-41.8	21.7	0.00e+00	0	34	0	3640655872	52	4198
2026-01-17 01:43:40.32	167.54	15.98	-41.1	-42.0	21.5	0.00e+00	0	34	0	3663724544	52	4311
2026-01-17 01:43:44.35	167.91	15.57	-41.1	-42.0	21.4	0.00e+00	0	34	0	3686793216	52	4335
2026-01-17 01:43:48.39	168.27	15.17	-41.2	-42.1	21.4	0.00e+00	0	34	0	3708813312	53	4120
2026-01-17 01:43:52.42	168.62	14.78	-41.3	-42.3	21.2	0.00e+00	0	34	0	3730833408	53	4200
2026-01-17 01:43:56.46	168.97	14.39	-41.5	-42.4	21.1	0.00e+00	0	34	0	3753902080	53	4276
2026-01-17 01:44:00.50	169.30	14.01	-41.5	-42.5	21.0	0.00e+00	0	34	0	3776970752	53	4294
2026-01-17 01:44:04.53	169.62	13.63	-41.7	-42.6	20.8	0.00e+00	0	34	0	3798990848	53	4373
2026-01-17 01:44:08.57	169.94	13.25	-41.7	-42.6	20.8	0.00e+00	0	34	0	3822059520	54	4141
2026-01-17 01:44:12.60	170.25	12.89	-41.8	-42.8	20.7	0.00e+00	0	34	0	3845128192	54	4201
2026-01-17 01:44:16.64	170.56	12.52	-42.1	-43.1	20.4	0.00e+00	0	34	0	3867148288	54	4357
2026-01-17 01:44:20.67	170.85	12.16	-42.0	-43.0	20.4	0.00e+00	0	34	0	3890216960	55	4071
2026-01-17 01:44:24.70	171.14	11.81	-42.2	-43.3	20.2	0.00e+00	0	34	0	3913285632	55	4199
2026-01-17 01:44:28.74	171.42	11.46	-42.3	-43.3	20.1	0.00e+00	0	35	0	3935305728	55	4240
2026-01-17 01:44:32.77	171.70	11.11	-42.4	-43.4	20.0	0.00e+00	0	34	0	3958374400	55	4282
2026-01-17 01:44:36.80	171.97	10.77	-42.1	-43.1	20.2	0.00e+00	0	34	0	3981443072	55	4135
2026-01-17 01:44:40.84	172.24	10.43	-42.4	-43.5	19.9	0.00e+00	0	34	0	4003463168	55	4292
2026-01-17 01:44:44.87	172.50	10.10	-42.5	-43.5	19.9	0.00e+00	0	34	0	4026531840	55	4315
2026-01-17 01:44:48.91	172.75	9.77	-42.5	-43.5	19.8	0.00e+00	0	34	0	4049600512	55	4314
2026-01-17 01:44:52.94	173.00	9.45	-42.6	-43.7	19.7	0.00e+00	0	35	0	4071620608	55	4396
2026-01-17 01:44:56.98	173.24	9.13	-42.4	-43.4	19.9	0.00e+00	0	35	0	4094689280	55	4260
2026-01-17 01:45:00.98	173.48	8.81	-42.8	-43.9	19.5	0.00e+00	0	34	0	4116709376	56	4273
2026-01-17 01:45:05.02	173.71	8.50	-42.6	-43.6	19.7	0.00e+00	0	34	0	4139778048	56	4130
2026-01-17 01:45:09.06	173.94	8.18	-43.1	-44.2	19.2	0.00e+00	0	34	0	4162846720	57	4146
2026-01-17 01:45:13.09	174.17	7.88	-43.1	-44.2	19.1	0.00e+00	0	34	0	4184866816	57	4153
2026-01-17 01:45:17.12	174.39	7.57	-43.0	-44.1	19.2	0.00e+00	0	34	0	4207935488	57	4110
2026-01-17 01:45:21.16	174.60	7.27	-43.4	-44.5	18.7	0.00e+00	0	34	0	4231004160	57	4329
2026-01-17 01:45:25.19	174.81	6.98	-43.6	-44.8	18.4	0.00e+00	0	34	0	4253024256	57	4459
2026-01-17 01:45:29.23	175.02	6.68	-43.3	-44.5	18.7	0.00e+00	0	34	0	4276092928	58	4075
2026-01-17 01:45:33.26	175.23	6.39	-43.4	-44.6	18.5	0.00e+00	0	34	0	4299161600	58	4145
2026-01-17 01:45:37.30	175.43	6.10	-43.4	-44.6	18.4	0.00e+00	0	34	0	4321181696	58	4137
2026-01-17 01:45:41.33	175.62	5.82	-43.5	-44.7	18.3	0.00e+00	0	34	0	4344250368	58	4163
2026-01-17 01:45:45.37	175.82	5.53	-43.7	-44.9	18.0	0.00e+00	0	35	0	4367319040	58	4270
2026-01-17 01:45:49.41	176.01	5.25	-44.4	-45.8	17.2	0.00e+00	0	34	0	4389339136	59	4444
2026-01-17 01:45:53.44	176.19	4.98	-45.4	-47.1	15.7	0.00e+00	0	34	0	4412407808	61	4639
2026-01-17 01:45:57.47	176.38	4.70	-52.9	-64.9	3.8	8.46e-01	0	34	104	4414504960	76	15113
2026-01-17 01:46:01.51	176.56	4.43	-53.3	-65.2	3.8	8.46e-01	0	34	104	4414504960	77	14842
2026-01-17 01:46:05.54	176.73	4.16	-53.4	-65.4	3.8	8.46e-01	0	34	104	4414504960	77	15085
2026-01-17 01:46:09.58	176.91	3.90	-53.5	-65.5	3.8	8.45e-01	0	34	104	4414504960	77	15369
2026-01-17 01:46:13.61	177.08	3.63	-53.5	-65.5	3.8	8.46e-01	0	34	104	4414504960	77	15290
2026-01-17 01:46:17.64	177.25	3.37	-53.5	-65.5	3.8	8.46e-01	0	34	104	4414504960	77	15280
2026-01-17 01:46:21.68	177.41	3.11	-53.4	-65.4	3.8	8.46e-01	0	35	104	4414504960	77	15182
2026-01-17 01:46:25.71	177.58	2.85	-53.4	-65.4	3.8	8.47e-01	0	34	104	4414504960	77	15112
2026-01-17 01:46:29.75	177.74	2.60	-53.4	-65.4	3.8	8.46e-01	0	35	104	4414504960	77	15124
2026-01-17 01:46:33.79	177.90	2.34	-53.4	-65.4	3.8	8.46e-01	0	34	104	4414504960	77	15076
2026-01-17 01:46:37.82	178.05	2.09	-53.4	-65.4	3.8	8.46e-01	0	35	104	4414504960	77	15105

#Closed at: 2026-01-17 01:46:39
#Recorded file [4414 MB]: D:/lorett/data/31041_260117_043230.dat