passes_logs/2026/01/17/R3.2S_Murmansk/R3.2S_Murmansk__20260117_100138_NOAA_21_JPSS-2_rec.log

#Pass ID: 20260117_100138_NOAA 21 (JPSS-2)
#Satellite: NOAA 21 (JPSS-2)
#Configuration: NOAA-21
#almurnet v.1.7.20251203
#Start time: 2026-01-17 10:04:17

#Version: 2.2.20231116
#Station: R3.2S_Murmansk
#Location: 33.079688 lon 68.888172 lat
#TLE: 1 54234U 22150A   26016.56338662  .00000024  00000+0  32257-4 0  9990
#TLE: 2 54234  98.7500 317.4442 0000622 279.9774  80.1332 14.19534942165033

#Time	Az	El	Level	Level2	SNR	BER	BlckErr	Temp	State	Recorded	gain1	gain2
2026-01-17 10:04:17.18	167.65	14.73	-53.6	-65.6	3.8	8.45e-01	0	33	0	0	78	14684
2026-01-17 10:04:20.20	167.75	15.04	-53.6	-66.5	3.8	1.49e+00	0	34	104	0	77	17109
2026-01-17 10:04:23.23	167.86	15.37	-53.6	-66.4	3.8	1.49e+00	0	34	104	0	77	16909
2026-01-17 10:04:26.25	167.97	15.69	-53.5	-66.3	3.8	1.49e+00	0	34	104	0	77	16707
2026-01-17 10:04:29.28	168.09	16.02	-53.3	-66.0	3.8	1.49e+00	0	34	104	0	77	16290
2026-01-17 10:04:32.30	168.20	16.36	-53.1	-65.4	3.8	1.49e+00	0	34	104	0	77	15222
2026-01-17 10:04:35.33	168.32	16.70	-53.1	-65.5	3.8	1.49e+00	0	34	104	0	77	15232
2026-01-17 10:04:38.35	168.44	17.04	-53.1	-65.4	3.8	1.49e+00	0	34	104	0	77	15091
2026-01-17 10:04:41.38	168.56	17.39	-53.2	-65.9	3.8	1.49e+00	0	34	104	0	77	16029
2026-01-17 10:04:44.41	168.68	17.74	-53.1	-65.5	3.8	1.49e+00	0	34	104	0	77	15265
2026-01-17 10:04:47.43	168.81	18.10	-53.2	-65.8	3.8	1.49e+00	0	34	104	0	77	15874
2026-01-17 10:04:50.46	168.94	18.46	-53.1	-65.0	3.8	1.49e+00	0	34	104	0	77	14538
2026-01-17 10:04:53.49	169.08	18.83	-53.0	-64.6	3.8	1.49e+00	0	34	104	0	77	13818
2026-01-17 10:04:56.51	169.21	19.21	-53.0	-64.3	3.8	1.49e+00	0	34	104	0	77	13356
2026-01-17 10:04:59.54	169.35	19.59	-53.0	-64.5	3.8	1.49e+00	0	34	104	0	77	13698
2026-01-17 10:05:02.56	169.49	19.97	-51.2	-55.5	9.2	3.55e-02	0	34	0	5242880	74	5735
2026-01-17 10:05:05.58	169.64	20.37	-48.8	-51.0	13.9	8.30e-06	0	34	0	15728640	69	4566
2026-01-17 10:05:08.61	169.79	20.76	-44.9	-46.1	18.6	0.00e+00	0	34	0	24117248	61	4105
2026-01-17 10:05:11.63	169.94	21.17	-53.2	-65.2	3.8	3.05e-01	0	34	104	33554432	77	14875
2026-01-17 10:05:14.66	170.10	21.58	-44.8	-45.9	18.8	0.00e+00	0	34	0	38797312	61	4036
2026-01-17 10:05:17.68	170.26	22.00	-43.6	-44.6	20.3	0.00e+00	0	34	0	48234496	59	3869
2026-01-17 10:05:20.70	170.42	22.42	-43.5	-44.4	20.5	0.00e+00	0	34	0	57671680	58	4044
2026-01-17 10:05:23.73	170.59	22.85	-42.4	-43.2	21.5	0.00e+00	0	34	0	67108864	56	3937
2026-01-17 10:05:26.75	170.77	23.29	-42.2	-43.0	21.7	0.00e+00	0	34	0	76546048	56	3861
2026-01-17 10:05:29.78	170.94	23.73	-42.1	-43.0	21.8	0.00e+00	0	34	0	85983232	56	3833
2026-01-17 10:05:32.80	171.13	24.19	-42.2	-43.0	21.8	0.00e+00	0	34	0	95420416	56	3859
2026-01-17 10:05:35.82	171.31	24.65	-42.3	-43.1	21.7	0.00e+00	0	34	0	104857600	56	3906
2026-01-17 10:05:38.85	171.51	25.11	-42.5	-43.3	21.5	0.00e+00	0	34	0	114294784	56	4001
2026-01-17 10:05:41.87	171.71	25.59	-42.8	-43.6	21.2	0.00e+00	0	34	0	123731968	56	4139
2026-01-17 10:05:44.90	171.91	26.08	-43.0	-43.9	21.0	0.00e+00	0	34	0	133169152	56	4262
2026-01-17 10:05:47.92	172.12	26.57	-43.3	-44.3	20.7	0.00e+00	0	34	0	142606336	57	4210
2026-01-17 10:05:50.94	172.34	27.07	-43.6	-44.6	20.4	0.00e+00	0	34	0	152043520	57	4358
2026-01-17 10:05:53.97	172.56	27.58	-43.9	-44.9	20.1	0.00e+00	0	34	0	161480704	58	4257
2026-01-17 10:05:56.99	172.79	28.10	-44.0	-45.0	20.0	0.00e+00	0	34	0	170917888	58	4334
2026-01-17 10:06:00.02	173.03	28.63	-43.9	-44.9	20.1	0.00e+00	0	34	0	180355072	58	4271
2026-01-17 10:06:03.05	173.27	29.17	-43.7	-44.6	20.4	0.00e+00	0	34	0	189792256	58	4136
2026-01-17 10:06:06.07	173.53	29.72	-43.6	-44.5	20.5	0.00e+00	0	34	0	199229440	58	4096
2026-01-17 10:06:09.09	173.79	30.28	-43.4	-44.4	20.6	0.00e+00	0	34	0	208666624	58	4012
2026-01-17 10:06:12.12	174.06	30.85	-43.6	-44.5	20.5	0.00e+00	0	34	0	218103808	58	4096
2026-01-17 10:06:15.15	174.34	31.43	-43.5	-44.5	20.5	0.00e+00	0	34	0	227540992	58	4069
2026-01-17 10:06:18.17	174.63	32.02	-43.7	-44.7	20.3	0.00e+00	0	34	0	236978176	58	4151
2026-01-17 10:06:21.19	174.93	32.62	-43.7	-44.6	20.4	0.00e+00	0	34	0	246415360	58	4125
2026-01-17 10:06:24.22	175.24	33.24	-43.6	-44.6	20.4	0.00e+00	0	34	0	255852544	58	4104
2026-01-17 10:06:27.25	175.56	33.87	-43.8	-44.7	20.3	0.00e+00	0	34	0	265289728	58	4172
2026-01-17 10:06:30.27	175.89	34.50	-44.2	-45.2	20.0	0.00e+00	0	34	0	274726912	58	4395
2026-01-17 10:06:33.30	176.24	35.15	-44.4	-45.4	19.4	0.00e+00	0	34	0	285212672	60	4051
2026-01-17 10:06:36.33	176.60	35.82	-44.6	-45.7	19.2	0.00e+00	0	34	0	293601280	60	4178
2026-01-17 10:06:39.35	176.98	36.49	-45.0	-46.1	18.8	0.00e+00	0	34	0	303038464	60	4385
2026-01-17 10:06:42.37	177.37	37.18	-44.9	-46.1	19.0	0.00e+00	0	34	0	312475648	60	4352
2026-01-17 10:06:45.40	177.78	37.88	-44.5	-45.6	19.4	0.00e+00	0	34	0	322961408	60	4108
2026-01-17 10:06:48.42	178.20	38.60	-44.6	-45.7	19.3	0.00e+00	0	34	0	332398592	60	4149
2026-01-17 10:06:51.45	178.65	39.33	-44.5	-45.6	19.4	0.00e+00	0	34	0	340787200	60	4116
2026-01-17 10:06:54.48	179.11	40.07	-44.6	-45.7	19.4	0.00e+00	0	34	0	351272960	60	4146
2026-01-17 10:06:57.50	179.60	40.82	-45.1	-46.3	18.8	0.00e+00	0	34	0	360710144	60	4458
2026-01-17 10:07:00.53	180.11	41.59	-45.3	-46.5	18.6	0.00e+00	0	34	0	370147328	61	4317
2026-01-17 10:07:03.55	180.64	42.38	-45.7	-47.0	18.1	0.00e+00	0	34	0	379584512	62	4292
2026-01-17 10:07:06.58	181.20	43.18	-45.8	-47.1	18.0	0.00e+00	0	34	0	389021696	62	4369
2026-01-17 10:07:09.61	181.79	43.99	-46.2	-47.5	17.6	0.00e+00	0	34	0	398458880	62	4563
2026-01-17 10:07:12.63	182.40	44.81	-46.6	-48.1	16.9	0.00e+00	0	34	0	407896064	64	4388
2026-01-17 10:07:15.66	183.05	45.65	-46.3	-47.7	17.2	0.00e+00	0	34	0	417333248	64	4188
2026-01-17 10:07:18.68	183.74	46.51	-46.1	-47.4	17.6	0.00e+00	0	34	0	426770432	63	4277
2026-01-17 10:07:21.71	184.46	47.37	-45.4	-46.6	18.5	0.00e+00	0	34	0	436207616	62	4107
2026-01-17 10:07:24.74	185.22	48.25	-45.2	-46.4	18.7	0.00e+00	0	34	0	445644800	62	4025
2026-01-17 10:07:27.76	186.03	49.14	-45.1	-46.2	18.8	0.00e+00	0	34	0	455081984	61	4173
2026-01-17 10:07:30.79	186.88	50.05	-45.1	-46.2	18.8	0.00e+00	0	34	0	464519168	61	4172
2026-01-17 10:07:33.82	187.79	50.96	-45.1	-46.2	18.7	0.00e+00	0	34	0	473956352	61	4190
2026-01-17 10:07:36.85	188.76	51.89	-44.7	-45.8	19.2	0.00e+00	0	34	0	483393536	61	3996
2026-01-17 10:07:39.87	189.78	52.82	-44.8	-46.0	19.0	0.00e+00	0	34	0	492830720	61	4053
2026-01-17 10:07:42.90	190.87	53.77	-44.2	-45.2	19.8	0.00e+00	0	34	0	502267904	60	3946
2026-01-17 10:07:45.92	192.03	54.71	-44.6	-45.7	19.4	0.00e+00	0	34	0	511705088	60	4151
2026-01-17 10:07:48.95	193.28	55.67	-44.1	-45.1	20.0	0.00e+00	0	34	0	521142272	60	3882
2026-01-17 10:07:51.98	194.61	56.63	-43.8	-44.8	20.5	0.00e+00	0	34	0	530579456	59	3980
2026-01-17 10:07:55.00	196.03	57.58	-43.8	-44.8	20.5	0.00e+00	0	34	0	540016640	59	3990
2026-01-17 10:07:58.03	197.56	58.54	-43.4	-44.3	21.0	0.00e+00	0	34	0	549453824	58	3986
2026-01-17 10:08:01.05	199.20	59.49	-43.1	-44.0	21.1	0.00e+00	0	34	0	558891008	58	3830
2026-01-17 10:08:04.08	200.97	60.43	-42.6	-43.5	21.4	0.00e+00	0	34	0	568328192	57	3834
2026-01-17 10:08:07.11	202.87	61.36	-42.4	-43.2	21.7	0.00e+00	0	34	0	577765376	56	3956
2026-01-17 10:08:10.13	204.91	62.28	-42.5	-43.3	21.8	0.00e+00	0	34	0	587202560	56	3995
2026-01-17 10:08:13.16	207.11	63.17	-42.5	-43.3	21.9	0.00e+00	0	34	0	596639744	56	3977
2026-01-17 10:08:16.19	209.48	64.04	-42.1	-42.9	22.2	0.00e+00	0	34	0	606076928	56	3799
2026-01-17 10:08:19.21	212.02	64.87	-41.4	-42.2	22.5	0.00e+00	0	34	0	615514112	54	3927
2026-01-17 10:08:22.23	214.75	65.67	-42.2	-43.0	21.8	0.00e+00	0	34	0	624951296	55	4076
2026-01-17 10:08:25.26	217.69	66.42	-42.2	-42.9	22.0	0.00e+00	0	34	0	634388480	55	4050
2026-01-17 10:08:28.28	220.82	67.12	-42.2	-43.0	21.9	0.00e+00	0	34	0	643825664	55	4094
2026-01-17 10:08:31.30	224.15	67.75	-41.8	-42.6	22.4	0.00e+00	0	34	0	653262848	55	3908
2026-01-17 10:08:34.33	227.70	68.32	-41.7	-42.5	22.4	0.00e+00	0	34	0	662700032	55	3850
2026-01-17 10:08:37.35	231.43	68.81	-41.9	-42.8	22.2	0.00e+00	0	34	0	672137216	55	3961
2026-01-17 10:08:40.38	235.35	69.22	-42.1	-42.9	22.0	0.00e+00	0	34	0	681574400	55	4040
2026-01-17 10:08:43.40	239.40	69.53	-41.5	-42.3	22.5	0.00e+00	0	34	0	691011584	55	3750
2026-01-17 10:08:46.43	243.57	69.75	-41.8	-42.6	22.4	0.00e+00	0	34	0	700448768	54	4099
2026-01-17 10:08:49.46	247.82	69.86	-42.0	-42.8	22.1	0.00e+00	0	34	0	709885952	54	4236
2026-01-17 10:08:52.48	252.09	69.88	-42.7	-43.6	21.3	0.00e+00	0	34	0	719323136	55	4352
2026-01-17 10:08:55.51	256.35	69.79	-42.7	-43.5	21.6	0.00e+00	0	34	0	728760320	56	4096
2026-01-17 10:08:58.54	260.55	69.59	-42.8	-43.6	21.6	0.00e+00	0	34	0	738197504	56	4139
2026-01-17 10:09:01.56	264.63	69.30	-42.1	-42.9	22.3	0.00e+00	0	34	0	747634688	56	3784
2026-01-17 10:09:04.58	268.57	68.92	-42.7	-43.6	21.5	0.00e+00	0	34	0	757071872	56	4125
2026-01-17 10:09:07.61	272.35	68.45	-42.5	-43.3	21.9	0.00e+00	0	34	0	766509056	56	3963
2026-01-17 10:09:10.63	275.94	67.90	-42.2	-43.0	22.1	0.00e+00	0	34	0	775946240	56	3857
2026-01-17 10:09:13.66	279.33	67.28	-42.0	-42.8	22.2	0.00e+00	0	34	0	785383424	55	3967
2026-01-17 10:09:16.68	282.51	66.60	-42.0	-42.8	22.3	0.00e+00	0	34	0	795869184	55	3992
2026-01-17 10:09:19.70	285.49	65.87	-42.3	-43.1	21.9	0.00e+00	0	34	0	804257792	55	4112
2026-01-17 10:09:22.73	288.28	65.08	-42.0	-42.8	22.2	0.00e+00	0	34	0	813694976	55	3995
2026-01-17 10:09:25.75	290.86	64.26	-42.3	-43.1	21.9	0.00e+00	0	34	0	823132160	55	4115
2026-01-17 10:09:28.78	293.27	63.40	-42.0	-42.8	22.2	0.00e+00	0	34	0	833617920	55	3988
2026-01-17 10:09:31.80	295.51	62.52	-43.4	-44.3	20.9	0.00e+00	0	34	0	843055104	57	4239
2026-01-17 10:09:34.83	297.59	61.61	-42.6	-43.4	21.7	0.00e+00	0	34	0	851443712	57	3804
2026-01-17 10:09:37.86	299.52	60.68	-43.8	-44.7	20.7	0.00e+00	0	34	0	860880896	58	4169
2026-01-17 10:09:40.88	301.31	59.74	-42.9	-43.8	21.3	0.00e+00	0	34	0	871366656	57	3960
2026-01-17 10:09:43.90	302.98	58.80	-43.9	-44.9	20.6	0.00e+00	0	34	0	880803840	58	4258
2026-01-17 10:09:46.93	304.54	57.85	-44.0	-44.9	20.1	0.00e+00	0	34	0	890241024	59	4040
2026-01-17 10:09:49.96	305.99	56.89	-42.5	-43.3	21.7	0.00e+00	0	34	0	898629632	56	3977
2026-01-17 10:09:52.98	307.34	55.94	-44.3	-45.3	20.2	0.00e+00	0	34	0	909115392	59	4203
2026-01-17 10:09:56.01	308.60	54.99	-44.3	-45.3	18.7	0.00e+00	0	34	0	918552576	60	3987
2026-01-17 10:09:59.03	309.78	54.04	-43.1	-43.9	21.1	0.00e+00	0	34	0	927989760	58	3803
2026-01-17 10:10:02.06	310.89	53.10	-44.4	-45.5	19.7	0.00e+00	0	34	0	937426944	60	4052
2026-01-17 10:10:05.08	311.93	52.17	-45.1	-46.3	18.5	0.00e+00	0	34	0	946864128	61	4200
2026-01-17 10:10:08.11	312.91	51.24	-44.2	-45.2	19.8	0.00e+00	0	34	0	956301312	60	3940
2026-01-17 10:10:11.14	313.83	50.32	-45.0	-46.0	19.3	0.00e+00	0	34	0	965738496	60	4325
2026-01-17 10:10:14.16	314.70	49.42	-47.1	-48.7	16.7	0.00e+00	0	34	0	975175680	64	4656
2026-01-17 10:10:17.19	315.52	48.53	-45.3	-46.4	18.5	0.00e+00	0	34	0	984612864	62	4024
2026-01-17 10:10:20.22	316.30	47.65	-45.4	-46.6	18.6	0.00e+00	0	34	0	994050048	62	4111
2026-01-17 10:10:23.24	317.03	46.78	-45.5	-46.6	18.7	0.00e+00	0	34	0	1003487232	62	4138
2026-01-17 10:10:26.27	317.72	45.93	-46.4	-47.7	17.7	0.00e+00	0	34	0	1012924416	63	4421
2026-01-17 10:10:29.30	318.38	45.09	-46.4	-47.7	17.7	0.00e+00	0	34	0	1022361600	63	4420
2026-01-17 10:10:32.32	319.00	44.26	-45.9	-47.1	18.3	0.00e+00	0	34	0	1031798784	63	4106
2026-01-17 10:10:35.35	319.60	43.45	-46.6	-48.0	17.3	0.00e+00	0	34	0	1041235968	64	4293
2026-01-17 10:10:38.37	320.16	42.65	-45.5	-46.6	18.7	0.00e+00	0	34	0	1050673152	62	4108
2026-01-17 10:10:41.39	320.70	41.87	-45.6	-46.8	18.6	0.00e+00	0	34	0	1060110336	61	4455
2026-01-17 10:10:44.42	321.22	41.09	-45.2	-46.3	19.0	0.00e+00	0	34	0	1069547520	61	4219
2026-01-17 10:10:47.44	321.71	40.34	-45.6	-46.8	18.5	0.00e+00	0	34	0	1078984704	61	4451
2026-01-17 10:10:50.46	322.18	39.60	-45.7	-46.9	18.5	0.00e+00	0	34	0	1088421888	62	4246
2026-01-17 10:10:53.49	322.63	38.87	-45.7	-46.9	18.2	0.00e+00	0	34	0	1097859072	62	4257
2026-01-17 10:10:56.52	323.06	38.15	-45.1	-46.2	19.1	0.00e+00	0	34	0	1107296256	62	3919
2026-01-17 10:10:59.55	323.47	37.44	-44.2	-45.2	20.0	0.00e+00	0	34	0	1116733440	60	3924
2026-01-17 10:11:02.58	323.87	36.75	-44.4	-45.4	19.8	0.00e+00	0	34	0	1126170624	60	4031
2026-01-17 10:11:05.60	324.25	36.08	-44.0	-45.0	20.1	0.00e+00	0	34	0	1135607808	60	3844
2026-01-17 10:11:08.63	324.62	35.41	-44.3	-45.3	19.9	0.00e+00	0	34	0	1145044992	60	3979
2026-01-17 10:11:11.65	324.97	34.76	-45.1	-46.2	19.0	0.00e+00	0	34	0	1154482176	60	4431
2026-01-17 10:11:14.67	325.30	34.12	-45.7	-46.9	18.3	0.00e+00	0	34	0	1163919360	62	4287
2026-01-17 10:11:17.70	325.63	33.50	-45.2	-46.4	18.7	0.00e+00	0	34	0	1173356544	62	4005
2026-01-17 10:11:20.72	325.95	32.88	-43.8	-44.8	20.4	0.00e+00	0	34	0	1182793728	59	3965
2026-01-17 10:11:23.74	326.25	32.28	-43.5	-44.4	20.8	0.00e+00	0	34	0	1192230912	59	3808
2026-01-17 10:11:26.77	326.54	31.69	-43.3	-44.2	21.0	0.00e+00	0	34	0	1201668096	58	3922
2026-01-17 10:11:29.79	326.82	31.10	-43.1	-44.0	21.2	0.00e+00	0	34	0	1211105280	58	3845
2026-01-17 10:11:32.82	327.10	30.53	-43.5	-44.4	20.9	0.00e+00	0	34	0	1220542464	58	4028
2026-01-17 10:11:35.84	327.36	29.97	-44.0	-45.0	20.3	0.00e+00	0	34	0	1229979648	58	4304
2026-01-17 10:11:38.87	327.62	29.42	-44.2	-45.2	20.1	0.00e+00	0	34	0	1239416832	58	4405
2026-01-17 10:11:41.90	327.87	28.88	-44.2	-45.2	20.1	0.00e+00	0	34	0	1248854016	59	4162
2026-01-17 10:11:44.93	328.11	28.35	-44.1	-45.1	20.2	0.00e+00	0	34	0	1258291200	59	4110
2026-01-17 10:11:47.95	328.34	27.83	-44.0	-45.0	20.2	0.00e+00	0	34	0	1267728384	59	4077
2026-01-17 10:11:50.98	328.57	27.32	-43.8	-44.8	20.4	0.00e+00	0	34	0	1277165568	59	3978
2026-01-17 10:11:53.99	328.78	26.82	-43.5	-44.4	20.7	0.00e+00	0	34	0	1286602752	59	3822
2026-01-17 10:11:57.02	329.00	26.32	-43.2	-44.1	21.0	0.00e+00	0	34	0	1296039936	58	3899
2026-01-17 10:12:00.05	329.21	25.83	-42.6	-43.4	21.6	0.00e+00	0	34	0	1305477120	57	3820
2026-01-17 10:12:03.07	329.41	25.36	-42.4	-43.2	21.7	0.00e+00	0	34	0	1314914304	56	3951
2026-01-17 10:12:06.10	329.60	24.89	-42.8	-43.6	21.4	0.00e+00	0	34	0	1324351488	56	4118
2026-01-17 10:12:09.12	329.79	24.43	-42.9	-43.7	21.3	0.00e+00	0	34	0	1333788672	56	4190
2026-01-17 10:12:12.15	329.98	23.97	-43.1	-43.9	21.1	0.00e+00	0	34	0	1343225856	56	4289
2026-01-17 10:12:15.17	330.16	23.53	-43.2	-44.1	21.0	0.00e+00	0	34	0	1352663040	56	4343
2026-01-17 10:12:18.19	330.33	23.09	-43.3	-44.2	20.9	0.00e+00	0	34	0	1362100224	57	4156
2026-01-17 10:12:21.22	330.50	22.66	-43.2	-44.1	20.9	0.00e+00	0	34	0	1371537408	57	4140
2026-01-17 10:12:24.24	330.67	22.24	-43.2	-44.1	20.9	0.00e+00	0	34	0	1380974592	57	4105
2026-01-17 10:12:27.26	330.83	21.82	-43.4	-44.4	20.6	0.00e+00	0	34	0	1390411776	57	4250
2026-01-17 10:12:30.29	330.99	21.41	-43.4	-44.3	20.7	0.00e+00	0	34	0	1399848960	57	4241
2026-01-17 10:12:33.32	331.15	21.00	-43.4	-44.4	20.6	0.00e+00	0	34	0	1409286144	57	4257
2026-01-17 10:12:36.35	331.30	20.60	-43.4	-44.3	20.7	0.00e+00	0	34	0	1418723328	57	4221
2026-01-17 10:12:39.37	331.45	20.21	-43.5	-44.4	20.6	0.00e+00	0	34	0	1428160512	57	4270
2026-01-17 10:12:42.39	331.59	19.82	-43.5	-44.4	20.5	0.00e+00	0	34	0	1438646272	57	4282
2026-01-17 10:12:45.42	331.73	19.44	-43.6	-44.6	20.4	0.00e+00	0	34	0	1447034880	57	4345
2026-01-17 10:12:48.45	331.87	19.07	-43.4	-44.3	20.6	0.00e+00	0	34	0	1456472064	57	4236
2026-01-17 10:12:51.47	332.01	18.70	-43.4	-44.4	20.6	0.00e+00	0	34	0	1465909248	57	4251
2026-01-17 10:12:54.49	332.14	18.33	-43.5	-44.4	20.4	0.00e+00	0	34	0	1476395008	57	4271
2026-01-17 10:12:57.52	332.27	17.97	-43.5	-44.4	20.4	0.00e+00	0	34	0	1485832192	57	4281
2026-01-17 10:13:00.55	332.40	17.62	-43.5	-44.4	20.3	0.00e+00	0	34	0	1494220800	57	4289
2026-01-17 10:13:03.57	332.52	17.27	-43.6	-44.6	20.2	0.00e+00	0	34	0	1503657984	57	4346
2026-01-17 10:13:06.59	332.64	16.93	-43.8	-44.8	20.1	0.00e+00	0	34	0	1514143744	58	4198
2026-01-17 10:13:09.62	332.76	16.59	-43.8	-44.8	20.0	0.00e+00	0	34	0	1523580928	58	4208
2026-01-17 10:13:12.65	332.88	16.25	-43.8	-44.8	20.0	0.00e+00	0	34	0	1533018112	58	4226
2026-01-17 10:13:15.67	332.99	15.92	-43.9	-44.9	20.0	0.00e+00	0	34	0	1541406720	58	4249
2026-01-17 10:13:18.70	333.11	15.59	-43.9	-44.9	20.0	0.00e+00	0	34	0	1551892480	58	4258
2026-01-17 10:13:21.72	333.22	15.27	-44.0	-45.0	19.9	0.00e+00	0	34	0	1561329664	58	4301
2026-01-17 10:13:24.75	333.33	14.96	-43.9	-45.0	19.9	0.00e+00	0	34	0	1570766848	58	4297
2026-01-17 10:13:27.78	333.43	14.64	-44.0	-45.0	19.9	0.00e+00	0	34	0	1580204032	58	4295
2026-01-17 10:13:30.80	333.54	14.33	-43.8	-44.8	20.0	0.00e+00	0	34	0	1589641216	58	4207
2026-01-17 10:13:33.82	333.64	14.03	-43.9	-44.9	19.9	0.00e+00	0	34	0	1599078400	58	4250
2026-01-17 10:13:36.85	333.74	13.72	-44.1	-45.1	19.7	0.00e+00	0	34	0	1608515584	58	4360
2026-01-17 10:13:39.87	333.84	13.42	-44.2	-45.2	19.6	0.00e+00	0	34	0	1617952768	59	4188
2026-01-17 10:13:42.90	333.94	13.13	-44.3	-45.4	19.5	0.00e+00	0	34	0	1627389952	59	4250
2026-01-17 10:13:45.92	334.03	12.84	-44.4	-45.5	19.3	0.00e+00	0	34	0	1636827136	59	4307
2026-01-17 10:13:48.94	334.13	12.55	-44.5	-45.7	19.1	0.00e+00	0	34	0	1646264320	59	4404
2026-01-17 10:13:51.97	334.22	12.26	-44.4	-45.5	19.0	0.00e+00	0	34	0	1655701504	60	4096
2026-01-17 10:13:55.00	334.31	11.98	-44.4	-45.5	19.0	0.00e+00	0	34	0	1665138688	60	4074
2026-01-17 10:13:58.03	334.40	11.70	-44.4	-45.5	18.9	0.00e+00	0	34	0	1674575872	60	4091
2026-01-17 10:14:01.05	334.49	11.43	-44.4	-45.5	19.0	0.00e+00	0	34	0	1684013056	60	4071
2026-01-17 10:14:04.08	334.58	11.16	-44.4	-45.5	18.9	0.00e+00	0	34	0	1693450240	60	4091
2026-01-17 10:14:07.10	334.66	10.89	-44.4	-45.6	18.8	0.00e+00	0	34	0	1702887424	60	4111
2026-01-17 10:14:10.13	334.74	10.62	-44.3	-45.5	18.9	0.00e+00	0	34	0	1712324608	60	4057
2026-01-17 10:14:13.15	334.83	10.36	-44.7	-45.9	18.5	0.00e+00	0	34	0	1721761792	60	4255
2026-01-17 10:14:16.17	334.91	10.10	-44.6	-45.8	18.6	0.00e+00	0	34	0	1731198976	60	4197
2026-01-17 10:14:19.20	334.99	9.84	-44.8	-46.1	18.4	0.00e+00	0	34	0	1740636160	60	4342
2026-01-17 10:14:22.23	335.07	9.58	-44.7	-45.9	18.5	0.00e+00	0	34	0	1750073344	60	4246
2026-01-17 10:14:25.26	335.15	9.33	-44.8	-46.0	18.3	0.00e+00	0	34	0	1759510528	60	4322
2026-01-17 10:14:28.28	335.22	9.08	-44.9	-46.1	18.2	0.00e+00	0	34	0	1768947712	60	4378
2026-01-17 10:14:31.30	335.30	8.83	-45.1	-46.3	18.0	0.00e+00	0	34	0	1778384896	60	4485
2026-01-17 10:14:34.33	335.38	8.58	-45.1	-46.4	17.9	0.00e+00	0	34	0	1787822080	60	4497
2026-01-17 10:14:37.35	335.45	8.34	-45.2	-46.4	17.8	0.00e+00	0	34	0	1797259264	60	4539
2026-01-17 10:14:40.38	335.52	8.10	-45.3	-46.6	17.7	0.00e+00	0	34	0	1806696448	61	4370
2026-01-17 10:14:43.40	335.59	7.86	-45.4	-46.8	17.5	0.00e+00	0	34	0	1816133632	61	4450
2026-01-17 10:14:46.42	335.66	7.62	-45.1	-46.5	17.8	0.00e+00	0	34	0	1825570816	61	4292
2026-01-17 10:14:49.45	335.74	7.39	-45.1	-46.3	17.8	0.00e+00	0	34	0	1835008000	61	4228
2026-01-17 10:14:52.47	335.80	7.16	-45.4	-46.8	17.4	0.00e+00	0	34	0	1844445184	61	4458
2026-01-17 10:14:55.50	335.87	6.93	-45.4	-46.8	17.3	0.00e+00	0	34	0	1853882368	61	4459
2026-01-17 10:14:58.53	335.94	6.70	-45.4	-46.8	17.3	0.00e+00	0	34	0	1863319552	61	4478
2026-01-17 10:15:01.55	336.01	6.47	-45.6	-47.0	17.1	0.00e+00	0	34	0	1872756736	62	4304
2026-01-17 10:15:04.58	336.07	6.25	-45.5	-46.9	17.1	0.00e+00	0	34	0	1882193920	62	4279
2026-01-17 10:15:07.60	336.14	6.03	-45.7	-47.2	16.8	0.00e+00	0	34	0	1891631104	62	4420
2026-01-17 10:15:10.63	336.20	5.81	-45.8	-47.3	16.7	0.00e+00	0	34	0	1901068288	63	4196
2026-01-17 10:15:13.65	336.27	5.59	-46.2	-47.8	16.2	0.00e+00	0	34	0	1910505472	63	4465
2026-01-17 10:15:16.67	336.33	5.37	-46.2	-47.9	16.1	0.00e+00	0	34	0	1919942656	63	4501
2026-01-17 10:15:19.70	336.39	5.15	-46.2	-47.8	16.1	7.00e-07	0	34	0	1929379840	63	4488
2026-01-17 10:15:22.72	336.45	4.94	-52.7	-65.5	3.8	1.49e+00	0	34	104	1936719872	75	17222
2026-01-17 10:15:25.75	336.51	4.73	-53.3	-66.1	3.8	1.49e+00	0	34	104	1936719872	77	16385
2026-01-17 10:15:28.78	336.57	4.52	-53.6	-66.4	3.8	1.49e+00	0	34	104	1936719872	77	16956
2026-01-17 10:15:31.80	336.63	4.31	-53.8	-66.5	3.8	1.49e+00	0	34	104	1936719872	78	16309
2026-01-17 10:15:34.83	336.69	4.10	-53.8	-66.6	3.8	1.49e+00	0	34	104	1936719872	78	16453
2026-01-17 10:15:37.86	336.75	3.90	-53.8	-66.7	3.8	1.49e+00	0	34	104	1936719872	78	16513
2026-01-17 10:15:40.88	336.81	3.69	-53.8	-66.6	3.8	1.49e+00	0	34	104	1936719872	78	16467
2026-01-17 10:15:43.91	336.86	3.49	-53.8	-66.6	3.8	1.49e+00	0	34	104	1936719872	78	16489
2026-01-17 10:15:46.94	336.92	3.29	-53.8	-66.6	3.8	1.49e+00	0	34	104	1936719872	78	16445
2026-01-17 10:15:49.96	336.98	3.09	-53.8	-66.6	3.8	1.49e+00	0	34	104	1936719872	78	16412
2026-01-17 10:15:52.98	337.03	2.89	-53.8	-66.6	3.8	1.49e+00	0	34	104	1936719872	78	16382
2026-01-17 10:15:56.01	337.09	2.70	-53.8	-66.6	3.8	1.49e+00	0	34	104	1936719872	78	16337
2026-01-17 10:15:59.03	337.14	2.50	-53.7	-66.6	3.8	1.49e+00	0	34	104	1936719872	78	16335
2026-01-17 10:16:02.06	337.19	2.31	-53.7	-66.5	3.8	1.49e+00	0	34	104	1936719872	78	16311
2026-01-17 10:16:05.09	337.25	2.11	-53.7	-66.6	3.8	1.49e+00	0	34	104	1936719872	78	16339
2026-01-17 10:16:08.11	337.30	1.92	-53.7	-66.5	3.8	1.49e+00	0	34	104	1936719872	78	16288

#Closed at: 2026-01-17 10:16:08
#Recorded file [1936 MB]: D:/lorett/data/31041_260117_130416.dat