passes_logs/2026/01/17/R3.2S_Murmansk/R3.2S_Murmansk__20260117_081132_FENGYUN_3D_rec.log

#Pass ID: 20260117_081132_FENGYUN 3D
#Satellite: FENGYUN 3D
#Configuration: FENGYUN 3D
#almurnet v.1.7.20251203
#Start time: 2026-01-17 08:11:35

#Version: 2.2.20231116
#Station: R3.2S_Murmansk
#Location: 33.079688 lon 68.888172 lat
#TLE: 1 43010U 17072A   26016.62453405 -.00000112  00000+0 -31355-4 0  9995
#TLE: 2 43010  98.9932 348.4654 0002369 105.3910 254.7528 14.19694900423480

#Time	Az	El	Level	Level2	SNR	BER	BlckErr	Temp	State	Recorded	gain1	gain2
2026-01-17 08:11:35.00	78.52	2.13	-51.8	-63.6	3.8	8.47e-01	0	32	0	0	75	13880
2026-01-17 08:11:39.03	78.28	2.36	-51.8	-63.7	3.8	8.46e-01	0	32	104	0	74	14755
2026-01-17 08:11:43.07	78.03	2.60	-51.8	-63.7	3.8	8.47e-01	0	32	104	0	74	14790
2026-01-17 08:11:47.10	77.78	2.83	-51.8	-63.6	3.8	8.46e-01	0	32	104	0	74	14684
2026-01-17 08:11:51.14	77.52	3.07	-51.8	-63.6	3.8	8.46e-01	0	33	104	0	74	14625
2026-01-17 08:11:55.17	77.27	3.31	-51.7	-63.6	3.8	8.44e-01	0	33	104	0	74	14691
2026-01-17 08:11:59.21	77.00	3.56	-51.8	-63.6	3.8	8.47e-01	0	33	104	0	74	14693
2026-01-17 08:12:03.25	76.73	3.80	-51.7	-63.5	3.8	8.45e-01	0	33	104	0	74	14440
2026-01-17 08:12:07.29	76.46	4.05	-51.5	-61.2	4.0	8.43e-01	0	33	104	0	74	11115
2026-01-17 08:12:11.32	76.18	4.29	-50.6	-56.4	6.2	5.82e-01	0	33	0	1048576	73	6767
2026-01-17 08:12:15.35	75.90	4.54	-48.7	-51.8	10.7	5.37e-03	0	33	0	23068672	69	5040
2026-01-17 08:12:19.39	75.61	4.79	-47.7	-50.3	12.3	2.95e-04	0	33	0	46137344	67	4719
2026-01-17 08:12:23.43	75.32	5.04	-48.7	-51.8	10.7	2.18e-02	0	33	0	69206016	69	5012
2026-01-17 08:12:27.46	75.02	5.30	-44.5	-45.8	17.1	0.00e+00	0	33	0	89128960	60	4232
2026-01-17 08:12:31.50	74.72	5.55	-44.3	-45.6	17.7	0.00e+00	0	33	0	112197632	59	4361
2026-01-17 08:12:35.54	74.41	5.81	-44.3	-45.6	17.7	0.00e+00	0	33	0	135266304	59	4388
2026-01-17 08:12:39.58	74.10	6.07	-43.7	-44.9	18.4	0.00e+00	0	33	0	157286400	59	4048
2026-01-17 08:12:43.61	73.78	6.33	-43.8	-45.0	18.4	0.00e+00	0	33	0	180355072	59	4076
2026-01-17 08:12:47.65	73.45	6.59	-43.7	-44.9	18.5	0.00e+00	0	33	0	203423744	59	4022
2026-01-17 08:12:51.68	73.12	6.86	-43.7	-44.9	18.6	0.00e+00	0	34	0	225443840	59	4005
2026-01-17 08:12:55.72	72.78	7.12	-43.8	-45.0	18.5	0.00e+00	0	34	0	248512512	59	4068
2026-01-17 08:12:59.75	72.43	7.39	-43.6	-44.8	18.8	0.00e+00	0	34	0	271581184	58	4197
2026-01-17 08:13:03.79	72.08	7.66	-43.4	-44.6	19.0	0.00e+00	0	34	0	293601280	58	4100
2026-01-17 08:13:07.83	71.72	7.93	-43.8	-44.9	18.8	0.00e+00	0	33	0	316669952	58	4266
2026-01-17 08:13:11.86	71.35	8.20	-43.5	-44.6	19.1	0.00e+00	0	34	0	339738624	58	4114
2026-01-17 08:13:15.90	70.98	8.48	-43.5	-44.5	19.2	0.00e+00	0	34	0	362807296	58	4098
2026-01-17 08:13:19.93	70.60	8.75	-43.4	-44.5	19.3	0.00e+00	0	34	0	384827392	58	4055
2026-01-17 08:13:23.97	70.21	9.03	-43.0	-44.0	19.8	0.00e+00	0	34	0	406847488	57	4071
2026-01-17 08:13:28.00	69.81	9.31	-43.0	-44.0	19.8	0.00e+00	0	34	0	429916160	57	4062
2026-01-17 08:13:32.04	69.41	9.60	-42.9	-43.9	19.9	0.00e+00	0	34	0	452984832	57	4045
2026-01-17 08:13:36.08	68.99	9.88	-42.8	-43.8	20.0	0.00e+00	0	34	0	475004928	57	3996
2026-01-17 08:13:40.12	68.57	10.17	-43.0	-44.0	19.8	0.00e+00	0	34	0	498073600	57	4069
2026-01-17 08:13:44.15	68.14	10.45	-42.9	-43.9	20.0	0.00e+00	0	34	0	521142272	57	4029
2026-01-17 08:13:48.19	67.71	10.74	-42.8	-43.8	20.1	0.00e+00	0	34	0	543162368	57	3971
2026-01-17 08:13:52.22	67.26	11.03	-42.7	-43.7	20.2	0.00e+00	0	34	0	566231040	57	3945
2026-01-17 08:13:56.25	66.80	11.32	-42.9	-43.9	20.1	0.00e+00	0	34	0	589299712	57	4007
2026-01-17 08:14:00.28	66.34	11.62	-42.6	-43.6	20.4	0.00e+00	0	34	0	611319808	57	3874
2026-01-17 08:14:04.31	65.86	11.91	-42.6	-43.5	20.4	0.00e+00	0	34	0	634388480	57	3852
2026-01-17 08:14:08.35	65.38	12.21	-42.3	-43.2	20.7	0.00e+00	0	34	0	657457152	56	3947
2026-01-17 08:14:12.38	64.88	12.51	-42.2	-43.1	20.9	0.00e+00	0	34	0	679477248	56	3885
2026-01-17 08:14:16.41	64.38	12.81	-42.3	-43.2	20.8	0.00e+00	0	34	0	702545920	56	3941
2026-01-17 08:14:20.44	63.86	13.11	-42.1	-43.0	21.0	0.00e+00	0	34	0	725614592	56	3827
2026-01-17 08:14:24.47	63.33	13.41	-42.0	-42.9	21.1	0.00e+00	0	34	0	747634688	56	3822
2026-01-17 08:14:28.51	62.79	13.72	-41.7	-42.6	21.3	0.00e+00	0	34	0	770703360	55	3885
2026-01-17 08:14:32.55	62.24	14.03	-41.7	-42.6	21.3	0.00e+00	0	34	0	792723456	55	3886
2026-01-17 08:14:36.58	61.68	14.33	-41.7	-42.5	21.4	0.00e+00	0	34	0	815792128	55	3861
2026-01-17 08:14:40.61	61.11	14.64	-41.6	-42.4	21.5	0.00e+00	0	34	0	838860800	55	3815
2026-01-17 08:14:44.64	60.52	14.95	-41.5	-42.4	21.5	0.00e+00	0	34	0	860880896	55	3802
2026-01-17 08:14:48.67	59.92	15.26	-41.6	-42.4	21.5	0.00e+00	0	34	0	883949568	54	4050
2026-01-17 08:14:52.70	59.31	15.57	-41.2	-42.1	21.9	0.00e+00	0	34	0	907018240	54	3878
2026-01-17 08:14:56.74	58.69	15.88	-41.0	-41.9	22.1	0.00e+00	0	34	0	929038336	54	3789
2026-01-17 08:15:00.77	58.05	16.19	-41.1	-41.9	22.0	0.00e+00	0	34	0	952107008	54	3808
2026-01-17 08:15:04.80	57.40	16.50	-41.0	-41.8	22.1	0.00e+00	0	34	0	975175680	53	3996
2026-01-17 08:15:08.84	56.73	16.81	-41.1	-41.9	22.0	0.00e+00	0	34	0	997195776	53	4039
2026-01-17 08:15:12.87	56.05	17.12	-41.1	-41.9	22.1	0.00e+00	0	34	0	1020264448	53	4034
2026-01-17 08:15:16.90	55.36	17.43	-40.9	-41.7	22.2	0.00e+00	0	34	0	1043333120	53	3958
2026-01-17 08:15:20.94	54.65	17.74	-40.8	-41.6	22.4	0.00e+00	0	34	0	1065353216	53	3908
2026-01-17 08:15:24.97	53.93	18.05	-40.6	-41.4	22.6	0.00e+00	0	34	0	1088421888	53	3810
2026-01-17 08:15:29.00	53.19	18.36	-40.6	-41.5	22.5	0.00e+00	0	34	0	1111490560	53	3827
2026-01-17 08:15:33.03	52.44	18.67	-40.6	-41.4	22.6	0.00e+00	0	34	0	1133510656	53	3808
2026-01-17 08:15:37.07	51.67	18.98	-40.5	-41.3	22.7	0.00e+00	0	34	0	1155530752	53	3775
2026-01-17 08:15:41.11	50.88	19.28	-40.6	-41.4	22.6	0.00e+00	0	34	0	1178599424	52	4032
2026-01-17 08:15:45.14	50.08	19.58	-40.3	-41.1	22.9	0.00e+00	0	34	0	1201668096	52	3882
2026-01-17 08:15:49.18	49.26	19.88	-40.0	-40.8	23.3	0.00e+00	0	34	0	1223688192	51	3986
2026-01-17 08:15:53.21	48.43	20.18	-39.7	-40.5	23.5	0.00e+00	0	34	0	1246756864	51	3843
2026-01-17 08:15:57.25	47.58	20.48	-39.8	-40.6	23.5	0.00e+00	0	34	0	1269825536	51	3900
2026-01-17 08:16:01.28	46.71	20.77	-39.9	-40.6	23.4	0.00e+00	0	34	0	1291845632	51	3910
2026-01-17 08:16:05.32	45.83	21.05	-40.1	-40.9	23.2	0.00e+00	0	34	0	1314914304	51	4009
2026-01-17 08:16:09.35	44.93	21.34	-40.0	-40.7	23.4	0.00e+00	0	34	0	1337982976	51	3956
2026-01-17 08:16:13.38	44.01	21.61	-39.6	-40.3	23.8	0.00e+00	0	34	0	1360003072	51	3757
2026-01-17 08:16:17.42	43.08	21.89	-39.9	-40.7	23.5	0.00e+00	0	34	0	1383071744	51	3914
2026-01-17 08:16:21.46	42.13	22.16	-39.7	-40.5	23.6	0.00e+00	0	34	0	1406140416	51	3829
2026-01-17 08:16:25.49	41.16	22.42	-39.6	-40.4	23.7	0.00e+00	0	34	0	1428160512	51	3792
2026-01-17 08:16:29.53	40.18	22.67	-39.7	-40.4	23.7	0.00e+00	0	34	0	1451229184	51	3808
2026-01-17 08:16:33.56	39.18	22.92	-39.6	-40.4	23.7	0.00e+00	0	34	0	1474297856	51	3798
2026-01-17 08:16:37.60	38.17	23.16	-39.5	-40.3	23.8	0.00e+00	0	34	0	1497366528	50	3969
2026-01-17 08:16:41.63	37.14	23.40	-39.5	-40.3	23.9	0.00e+00	0	34	0	1519386624	50	3964
2026-01-17 08:16:45.67	36.09	23.63	-39.6	-40.4	23.8	0.00e+00	0	34	0	1541406720	50	4005
2026-01-17 08:16:49.70	35.03	23.84	-39.2	-39.9	24.1	0.00e+00	0	34	0	1564475392	50	3820
2026-01-17 08:16:53.73	33.96	24.05	-39.3	-40.0	24.1	0.00e+00	0	34	0	1587544064	50	3850
2026-01-17 08:16:57.77	32.86	24.25	-39.4	-40.1	24.0	0.00e+00	0	34	0	1609564160	50	3909
2026-01-17 08:17:01.81	31.76	24.44	-39.1	-39.8	24.3	0.00e+00	0	34	0	1632632832	50	3752
2026-01-17 08:17:05.84	30.64	24.62	-38.9	-39.7	24.4	0.00e+00	0	34	0	1655701504	49	3918
2026-01-17 08:17:09.87	29.52	24.78	-39.4	-40.2	23.9	0.00e+00	0	34	0	1677721600	49	4156
2026-01-17 08:17:13.90	28.38	24.94	-39.4	-40.1	24.0	0.00e+00	0	34	0	1700790272	49	4118
2026-01-17 08:17:17.94	27.22	25.09	-39.2	-39.9	24.2	0.00e+00	0	34	0	1723858944	49	4047
2026-01-17 08:17:21.98	26.06	25.22	-39.2	-39.9	24.2	0.00e+00	0	34	0	1745879040	49	4020
2026-01-17 08:17:26.01	24.89	25.34	-39.2	-39.9	24.2	0.00e+00	0	34	0	1768947712	49	4041
2026-01-17 08:17:30.04	23.71	25.45	-39.0	-39.7	24.3	0.00e+00	0	34	0	1792016384	49	3957
2026-01-17 08:17:34.07	22.53	25.54	-39.2	-39.9	24.2	0.00e+00	0	34	0	1814036480	49	4045
2026-01-17 08:17:38.11	21.33	25.62	-39.5	-40.2	23.9	0.00e+00	0	34	0	1837105152	49	4172
2026-01-17 08:17:42.14	20.13	25.69	-39.3	-40.0	24.1	0.00e+00	0	34	0	1860173824	49	4092
2026-01-17 08:17:46.17	18.93	25.74	-38.8	-39.5	24.5	0.00e+00	0	34	0	1882193920	49	3854
2026-01-17 08:17:50.20	17.72	25.78	-38.8	-39.5	24.6	0.00e+00	0	34	0	1905262592	49	3858
2026-01-17 08:17:54.24	16.51	25.81	-39.1	-39.8	24.3	0.00e+00	0	34	0	1927282688	49	3971
2026-01-17 08:17:58.27	15.30	25.82	-39.2	-39.9	24.2	0.00e+00	0	34	0	1950351360	49	4041
2026-01-17 08:18:02.30	14.09	25.82	-39.0	-39.7	24.4	0.00e+00	0	34	0	1973420032	49	3931
2026-01-17 08:18:06.33	12.88	25.80	-38.8	-39.5	24.6	0.00e+00	0	35	0	1995440128	49	3858
2026-01-17 08:18:10.36	11.67	25.77	-39.2	-39.9	24.2	0.00e+00	0	34	0	2018508800	49	4031
2026-01-17 08:18:14.40	10.46	25.73	-39.1	-39.8	24.3	0.00e+00	0	34	0	2041577472	49	4000
2026-01-17 08:18:18.43	9.26	25.67	-39.1	-39.8	24.3	0.00e+00	0	34	0	2063597568	49	3976
2026-01-17 08:18:22.46	8.07	25.60	-39.1	-39.9	24.3	0.00e+00	0	34	0	2086666240	49	4005
2026-01-17 08:18:26.50	6.87	25.51	-38.5	-39.2	24.8	0.00e+00	0	34	0	2109734912	49	3733
2026-01-17 08:18:30.54	5.69	25.42	-38.9	-39.7	24.4	0.00e+00	0	35	0	2131755008	48	4159
2026-01-17 08:18:34.57	4.51	25.31	-39.1	-39.8	24.3	0.00e+00	0	34	0	2154823680	48	4209
2026-01-17 08:18:38.61	3.34	25.18	-39.0	-39.7	24.4	0.00e+00	0	35	0	2177892352	48	4192
2026-01-17 08:18:42.64	2.18	25.05	-38.8	-39.5	24.6	0.00e+00	0	34	0	2199912448	48	4089
2026-01-17 08:18:46.68	1.03	24.90	-38.8	-39.5	24.6	0.00e+00	0	34	0	2222981120	48	4065
2026-01-17 08:18:50.71	359.90	24.74	-39.2	-39.9	24.2	0.00e+00	0	34	0	2246049792	49	4046
2026-01-17 08:18:54.74	358.78	24.57	-39.2	-39.9	24.2	0.00e+00	0	35	0	2268069888	49	4040
2026-01-17 08:18:58.77	357.66	24.39	-38.8	-39.5	24.5	0.00e+00	0	34	0	2290089984	49	3866
2026-01-17 08:19:02.81	356.56	24.19	-38.8	-39.5	24.6	0.00e+00	0	34	0	2313158656	49	3836
2026-01-17 08:19:06.84	355.48	23.99	-38.9	-39.6	24.5	0.00e+00	0	34	0	2336227328	49	3891
2026-01-17 08:19:10.88	354.41	23.78	-38.9	-39.6	24.5	0.00e+00	0	34	0	2358247424	49	3911
2026-01-17 08:19:14.91	353.35	23.56	-39.0	-39.8	24.3	0.00e+00	0	34	0	2381316096	49	3968
2026-01-17 08:19:18.94	352.31	23.33	-39.2	-39.9	24.2	0.00e+00	0	34	0	2404384768	49	4025
2026-01-17 08:19:22.98	351.29	23.10	-39.1	-39.8	24.3	0.00e+00	0	34	0	2426404864	49	3970
2026-01-17 08:19:27.01	350.28	22.85	-39.1	-39.8	24.3	0.00e+00	0	34	0	2449473536	49	3982
2026-01-17 08:19:31.05	349.28	22.60	-39.2	-39.9	24.2	0.00e+00	0	34	0	2472542208	49	4011
2026-01-17 08:19:35.08	348.31	22.35	-39.4	-40.2	23.9	0.00e+00	0	34	0	2494562304	49	4163
2026-01-17 08:19:39.11	347.35	22.08	-39.3	-40.1	24.1	0.00e+00	0	34	0	2517630976	49	4102
2026-01-17 08:19:43.14	346.40	21.81	-39.1	-39.8	24.2	0.00e+00	0	34	0	2540699648	49	4004
2026-01-17 08:19:47.18	345.47	21.54	-39.5	-40.2	23.9	0.00e+00	0	34	0	2562719744	49	4180
2026-01-17 08:19:51.21	344.56	21.26	-39.5	-40.2	23.9	0.00e+00	0	34	0	2585788416	49	4181
2026-01-17 08:19:55.24	343.67	20.98	-39.5	-40.2	23.9	0.00e+00	0	34	0	2608857088	49	4156
2026-01-17 08:19:59.28	342.79	20.69	-39.9	-40.6	23.5	0.00e+00	0	34	0	2630877184	50	4134
2026-01-17 08:20:03.31	341.93	20.40	-39.8	-40.6	23.5	0.00e+00	0	34	0	2653945856	50	4115
2026-01-17 08:20:07.34	341.09	20.10	-40.0	-40.7	23.4	0.00e+00	0	34	0	2675965952	50	4188
2026-01-17 08:20:11.38	340.26	19.80	-40.1	-40.9	23.3	0.00e+00	0	34	0	2699034624	50	4260
2026-01-17 08:20:15.41	339.45	19.50	-40.0	-40.8	23.3	0.00e+00	0	34	0	2722103296	51	3974
2026-01-17 08:20:19.44	338.65	19.20	-40.1	-40.9	23.3	0.00e+00	0	34	0	2744123392	51	4017
2026-01-17 08:20:23.48	337.87	18.90	-40.0	-40.7	23.4	0.00e+00	0	34	0	2767192064	51	3951
2026-01-17 08:20:27.51	337.11	18.59	-40.0	-40.7	23.4	0.00e+00	0	34	0	2790260736	51	3940
2026-01-17 08:20:31.54	336.36	18.28	-40.1	-40.9	23.2	0.00e+00	0	34	0	2812280832	51	4014
2026-01-17 08:20:35.58	335.62	17.97	-40.3	-41.1	23.0	0.00e+00	0	34	0	2835349504	51	4142
2026-01-17 08:20:39.61	334.91	17.66	-40.4	-41.2	22.9	0.00e+00	0	34	0	2858418176	51	4182
2026-01-17 08:20:43.64	334.20	17.35	-40.4	-41.2	22.9	0.00e+00	0	34	0	2880438272	51	4156
2026-01-17 08:20:47.67	333.52	17.04	-40.4	-41.2	22.9	0.00e+00	0	34	0	2903506944	51	4158
2026-01-17 08:20:51.71	332.84	16.73	-40.6	-41.4	22.7	0.00e+00	0	34	0	2926575616	51	4280
2026-01-17 08:20:55.74	332.18	16.42	-40.8	-41.6	22.4	0.00e+00	0	34	0	2948595712	52	4121
2026-01-17 08:20:59.78	331.53	16.11	-40.8	-41.6	22.4	0.00e+00	0	34	0	2971664384	52	4120
2026-01-17 08:21:03.81	330.90	15.80	-41.0	-41.8	22.2	0.00e+00	0	34	0	2994733056	52	4214
2026-01-17 08:21:07.84	330.28	15.49	-40.9	-41.7	22.3	0.00e+00	0	34	0	3016753152	52	4156
2026-01-17 08:21:11.87	329.67	15.18	-41.1	-41.9	22.1	0.00e+00	0	34	0	3038773248	52	4290
2026-01-17 08:21:15.90	329.08	14.87	-41.0	-41.8	22.2	0.00e+00	0	35	0	3061841920	52	4221
2026-01-17 08:21:19.94	328.50	14.56	-41.0	-41.8	22.1	0.00e+00	0	35	0	3084910592	52	4228
2026-01-17 08:21:23.97	327.93	14.25	-41.2	-42.1	21.9	0.00e+00	0	34	0	3106930688	53	4109
2026-01-17 08:21:28.01	327.37	13.95	-41.3	-42.2	21.8	0.00e+00	0	35	0	3129999360	53	4162
2026-01-17 08:21:32.04	326.82	13.64	-41.4	-42.2	21.7	0.00e+00	0	34	0	3153068032	53	4171
2026-01-17 08:21:36.08	326.29	13.34	-41.6	-42.4	21.5	0.00e+00	0	34	0	3175088128	53	4274
2026-01-17 08:21:40.12	325.76	13.04	-41.6	-42.5	21.4	0.00e+00	0	34	0	3198156800	53	4315
2026-01-17 08:21:44.16	325.25	12.73	-41.9	-42.9	21.1	0.00e+00	0	35	0	3221225472	54	4245
2026-01-17 08:21:48.19	324.75	12.43	-41.9	-42.8	21.1	0.00e+00	0	34	0	3243245568	54	4213
2026-01-17 08:21:52.23	324.26	12.14	-41.9	-42.8	21.1	0.00e+00	0	34	0	3266314240	54	4228
2026-01-17 08:21:56.27	323.77	11.84	-41.9	-42.8	21.1	0.00e+00	0	34	0	3289382912	54	4228
2026-01-17 08:22:00.30	323.30	11.54	-41.9	-42.8	21.1	0.00e+00	0	34	0	3312451584	54	4228
2026-01-17 08:22:04.34	322.84	11.25	-42.2	-43.1	20.7	0.00e+00	0	34	0	3334471680	54	4391
2026-01-17 08:22:08.38	322.39	10.96	-42.3	-43.3	20.6	0.00e+00	0	34	0	3357540352	55	4197
2026-01-17 08:22:12.41	321.94	10.67	-42.2	-43.1	20.7	0.00e+00	0	34	0	3380609024	55	4133
2026-01-17 08:22:16.45	321.51	10.38	-42.5	-43.4	20.4	0.00e+00	0	34	0	3402629120	55	4276
2026-01-17 08:22:20.48	321.08	10.09	-42.6	-43.6	20.2	0.00e+00	0	34	0	3424649216	55	4359
2026-01-17 08:22:24.52	320.66	9.81	-42.5	-43.5	20.4	0.00e+00	0	35	0	3447717888	55	4295
2026-01-17 08:22:28.56	320.25	9.52	-42.7	-43.7	20.2	0.00e+00	0	34	0	3470786560	56	4178
2026-01-17 08:22:32.59	319.85	9.24	-42.8	-43.8	20.0	0.00e+00	0	34	0	3492806656	56	4236
2026-01-17 08:22:36.62	319.46	8.96	-43.0	-44.1	19.8	0.00e+00	0	34	0	3515875328	56	4352
2026-01-17 08:22:40.66	319.07	8.69	-43.1	-44.1	19.7	0.00e+00	0	35	0	3538944000	56	4366
2026-01-17 08:22:44.70	318.70	8.41	-43.0	-44.0	19.8	0.00e+00	0	35	0	3562012672	56	4305
2026-01-17 08:22:48.73	318.33	8.14	-43.0	-44.0	19.8	0.00e+00	0	34	0	3584032768	56	4298
2026-01-17 08:22:52.77	317.96	7.86	-43.1	-44.2	19.6	0.00e+00	0	35	0	3607101440	57	4164
2026-01-17 08:22:56.80	317.61	7.59	-43.2	-44.2	19.5	0.00e+00	0	34	0	3630170112	57	4182
2026-01-17 08:23:00.84	317.26	7.33	-43.1	-44.2	19.6	0.00e+00	0	34	0	3652190208	57	4150
2026-01-17 08:23:04.87	316.91	7.06	-43.4	-44.4	19.3	0.00e+00	0	34	0	3675258880	57	4274
2026-01-17 08:23:08.91	316.58	6.79	-43.4	-44.5	19.2	0.00e+00	0	34	0	3698327552	57	4292
2026-01-17 08:23:12.94	316.25	6.53	-43.6	-44.7	18.9	0.00e+00	0	34	0	3720347648	57	4422
2026-01-17 08:23:16.98	315.92	6.27	-43.5	-44.6	19.0	0.00e+00	0	35	0	3743416320	58	4135
2026-01-17 08:23:21.01	315.60	6.01	-43.8	-45.0	18.6	0.00e+00	0	34	0	3766484992	58	4298
2026-01-17 08:23:25.05	315.29	5.75	-43.8	-44.9	18.6	0.00e+00	0	35	0	3788505088	58	4285
2026-01-17 08:23:29.08	314.98	5.49	-43.6	-44.7	18.7	0.00e+00	0	34	0	3810525184	58	4186
2026-01-17 08:23:33.12	314.68	5.24	-43.9	-45.0	18.5	0.00e+00	0	34	0	3833593856	58	4322
2026-01-17 08:23:37.15	314.39	4.99	-52.1	-61.5	4.1	6.90e-03	0	35	0	3855613952	74	11474
2026-01-17 08:23:41.18	314.10	4.74	-53.2	-65.1	3.8	8.46e-01	0	35	104	3855613952	76	15573
2026-01-17 08:23:45.22	313.81	4.49	-53.5	-65.5	3.8	8.46e-01	0	35	104	3855613952	77	15357
2026-01-17 08:23:49.25	313.53	4.24	-53.7	-65.7	3.8	8.46e-01	0	34	104	3855613952	77	15666
2026-01-17 08:23:53.29	313.26	3.99	-53.8	-65.7	3.8	8.45e-01	0	34	104	3855613952	78	14853
2026-01-17 08:23:57.32	312.99	3.75	-53.7	-65.7	3.8	8.45e-01	0	34	104	3855613952	78	14818
2026-01-17 08:24:01.35	312.72	3.50	-53.7	-65.7	3.8	8.47e-01	0	34	104	3855613952	78	14714
2026-01-17 08:24:05.38	312.46	3.26	-53.6	-65.6	3.8	8.47e-01	0	35	104	3855613952	78	14640
2026-01-17 08:24:09.42	312.20	3.02	-53.6	-65.6	3.8	8.47e-01	0	35	104	3855613952	78	14623
2026-01-17 08:24:13.45	311.95	2.78	-53.6	-65.6	3.8	8.47e-01	0	35	104	3855613952	78	14568
2026-01-17 08:24:17.49	311.71	2.55	-53.6	-65.6	3.8	8.47e-01	0	35	104	3855613952	78	14601
2026-01-17 08:24:21.52	311.46	2.31	-53.6	-65.6	3.8	8.45e-01	0	34	104	3855613952	78	14601
2026-01-17 08:24:25.55	311.22	2.08	-53.6	-65.6	3.8	8.45e-01	0	35	104	3855613952	78	14624

#Closed at: 2026-01-17 08:24:28
#Recorded file [3855 MB]: D:/lorett/data/31041_260117_111134.dat