passes_logs/2026/01/17/R3.2S_Murmansk/R3.2S_Murmansk__20260117_105225_NOAA_20_JPSS-1_rec.log

#Pass ID: 20260117_105225_NOAA 20 (JPSS-1)
#Satellite: NOAA 20 (JPSS-1)
#Configuration: NOAA 20
#almurnet v.1.7.20251203
#Start time: 2026-01-17 10:52:28

#Version: 2.2.20231116
#Station: R3.2S_Murmansk
#Location: 33.079688 lon 68.888172 lat
#TLE: 1 43013U 17073A   26016.52825843  .00000039  00000+0  39346-4 0  9991
#TLE: 2 43013  98.7637 317.4515 0001446  37.2648 322.8628 14.19536276422951

#Time	Az	El	Level	Level2	SNR	BER	BlckErr	Temp	State	Recorded	gain1	gain2
2026-01-17 10:52:28.02	185.02	2.13	-52.2	-67.1	3.8	1.49e+00	0	32	0	0	76	19404
2026-01-17 10:52:32.06	185.18	2.38	-52.1	-67.1	3.8	1.49e+00	0	33	104	0	74	21870
2026-01-17 10:52:36.09	185.35	2.63	-52.1	-67.0	3.8	1.49e+00	0	33	104	0	74	21548
2026-01-17 10:52:40.13	185.53	2.89	-52.1	-66.9	3.8	1.49e+00	0	33	104	0	74	21484
2026-01-17 10:52:44.16	185.70	3.14	-52.1	-66.9	3.8	1.49e+00	0	33	104	0	74	21373
2026-01-17 10:52:48.19	185.88	3.40	-52.1	-67.1	3.8	1.49e+00	0	33	104	0	74	21790
2026-01-17 10:52:52.22	186.06	3.66	-52.1	-66.8	3.8	1.49e+00	0	33	104	0	74	21131
2026-01-17 10:52:56.25	186.24	3.92	-51.8	-62.4	4.6	1.27e+00	2	33	0	0	74	12690
2026-01-17 10:53:00.28	186.43	4.19	-51.4	-59.0	6.9	2.46e-01	0	34	0	7340032	74	8656
2026-01-17 10:53:04.32	186.62	4.45	-50.5	-55.7	10.2	9.05e-03	0	33	0	14680064	73	6227
2026-01-17 10:53:08.35	186.81	4.72	-49.0	-52.1	14.0	1.98e-05	0	33	0	23068672	69	5218
2026-01-17 10:53:12.38	187.01	5.00	-48.9	-52.0	14.2	0.00e+00	0	34	0	30408704	69	5116
2026-01-17 10:53:16.42	187.21	5.27	-50.2	-54.6	11.4	4.67e-03	0	34	0	37748736	72	5812
2026-01-17 10:53:20.45	187.41	5.55	-48.7	-51.6	14.6	0.00e+00	0	34	0	45088768	69	4913
2026-01-17 10:53:24.48	187.62	5.83	-48.7	-51.6	14.7	7.00e-07	0	34	0	53477376	68	5177
2026-01-17 10:53:28.52	187.83	6.11	-48.5	-51.2	15.1	0.00e+00	0	34	0	60817408	68	4978
2026-01-17 10:53:32.55	188.05	6.40	-48.3	-50.8	15.6	0.00e+00	0	34	0	68157440	68	4726
2026-01-17 10:53:36.59	188.27	6.69	-48.4	-51.0	15.5	0.00e+00	0	34	0	75497472	68	4835
2026-01-17 10:53:40.62	188.49	6.98	-48.2	-50.6	15.9	0.00e+00	0	34	0	82837504	68	4641
2026-01-17 10:53:44.66	188.72	7.27	-47.9	-50.2	16.3	0.00e+00	0	34	0	91226112	67	4672
2026-01-17 10:53:48.69	188.95	7.57	-48.0	-50.4	16.1	0.00e+00	0	34	0	98566144	67	4778
2026-01-17 10:53:52.73	189.18	7.87	-48.0	-50.3	16.2	0.00e+00	0	34	0	105906176	67	4723
2026-01-17 10:53:56.76	189.42	8.18	-47.8	-50.0	16.5	0.00e+00	0	34	0	113246208	67	4579
2026-01-17 10:54:00.78	189.67	8.48	-47.6	-49.8	16.8	0.00e+00	0	34	0	121634816	67	4451
2026-01-17 10:54:04.82	189.92	8.79	-47.8	-49.9	16.7	0.00e+00	0	34	0	128974848	67	4527
2026-01-17 10:54:08.85	190.17	9.11	-47.6	-49.7	16.9	0.00e+00	0	34	0	136314880	66	4674
2026-01-17 10:54:12.88	190.43	9.42	-47.4	-49.5	17.2	0.00e+00	0	34	0	143654912	66	4546
2026-01-17 10:54:16.91	190.70	9.75	-47.2	-49.1	17.5	0.00e+00	0	34	0	150994944	66	4385
2026-01-17 10:54:20.94	190.97	10.07	-47.4	-49.3	17.3	0.00e+00	0	34	0	159383552	66	4486
2026-01-17 10:54:24.97	191.25	10.40	-47.1	-49.0	17.7	0.00e+00	0	34	0	166723584	66	4328
2026-01-17 10:54:29.00	191.53	10.73	-47.0	-48.9	17.9	0.00e+00	0	34	0	174063616	66	4247
2026-01-17 10:54:33.04	191.82	11.07	-47.0	-48.9	17.9	0.00e+00	0	34	0	181403648	66	4262
2026-01-17 10:54:37.07	192.12	11.41	-46.8	-48.6	18.2	0.00e+00	0	34	0	188743680	65	4346
2026-01-17 10:54:41.10	192.42	11.75	-46.7	-48.4	18.4	0.00e+00	0	34	0	197132288	65	4274
2026-01-17 10:54:45.13	192.73	12.10	-46.7	-48.4	18.4	0.00e+00	0	34	0	204472320	65	4274
2026-01-17 10:54:49.16	193.05	12.45	-46.7	-48.4	18.4	0.00e+00	0	34	0	211812352	65	4284
2026-01-17 10:54:53.20	193.37	12.81	-46.6	-48.2	18.6	0.00e+00	0	34	0	219152384	65	4175
2026-01-17 10:54:57.23	193.70	13.17	-46.6	-48.2	18.6	0.00e+00	0	34	0	227540992	65	4175
2026-01-17 10:55:01.26	194.04	13.54	-46.4	-48.0	18.8	0.00e+00	0	34	0	234881024	64	4323
2026-01-17 10:55:05.29	194.39	13.91	-46.4	-48.0	18.9	0.00e+00	0	35	0	242221056	64	4295
2026-01-17 10:55:09.33	194.74	14.29	-46.2	-47.8	19.1	0.00e+00	0	34	0	249561088	64	4195
2026-01-17 10:55:13.36	195.11	14.67	-46.1	-47.6	19.2	0.00e+00	0	35	0	256901120	64	4140
2026-01-17 10:55:17.39	195.48	15.06	-46.2	-47.7	19.2	0.00e+00	0	35	0	264241152	64	4163
2026-01-17 10:55:21.42	195.86	15.45	-46.1	-47.5	19.4	0.00e+00	0	34	0	272629760	64	4096
2026-01-17 10:55:25.46	196.26	15.84	-46.2	-47.8	19.2	0.00e+00	0	34	0	279969792	64	4205
2026-01-17 10:55:29.49	196.66	16.25	-46.4	-48.0	19.0	0.00e+00	0	34	0	287309824	64	4305
2026-01-17 10:55:33.52	197.07	16.65	-46.7	-48.3	18.7	0.00e+00	0	34	0	294649856	64	4472
2026-01-17 10:55:37.55	197.50	17.06	-46.7	-48.4	18.6	0.00e+00	0	34	0	303038464	64	4513
2026-01-17 10:55:41.58	197.93	17.48	-46.7	-48.4	18.7	0.00e+00	0	34	0	310378496	64	4494
2026-01-17 10:55:45.62	198.38	17.91	-46.6	-48.3	18.7	0.00e+00	0	34	0	317718528	64	4451
2026-01-17 10:55:49.65	198.84	18.34	-46.4	-48.0	19.0	0.00e+00	0	34	0	325058560	64	4317
2026-01-17 10:55:53.69	199.31	18.77	-46.4	-47.9	19.1	0.00e+00	0	34	0	332398592	64	4274
2026-01-17 10:55:57.72	199.80	19.21	-46.4	-48.0	19.1	0.00e+00	0	34	0	340787200	64	4299
2026-01-17 10:56:01.75	200.29	19.66	-48.0	-50.1	17.0	0.00e+00	0	34	0	348127232	67	4613
2026-01-17 10:56:05.79	200.81	20.11	-47.0	-48.7	18.3	0.00e+00	0	34	0	355467264	65	4441
2026-01-17 10:56:09.82	201.34	20.57	-46.9	-48.5	18.5	0.00e+00	0	34	0	362807296	65	4332
2026-01-17 10:56:13.85	201.88	21.04	-46.7	-48.4	18.7	0.00e+00	0	34	0	371195904	65	4260
2026-01-17 10:56:17.88	202.44	21.51	-46.8	-48.4	18.7	0.00e+00	0	34	0	378535936	65	4280
2026-01-17 10:56:21.91	203.02	21.99	-46.9	-48.6	18.5	0.00e+00	0	35	0	385875968	65	4349
2026-01-17 10:56:25.94	203.61	22.47	-46.9	-48.6	18.5	0.00e+00	0	34	0	393216000	65	4375
2026-01-17 10:56:29.98	204.23	22.96	-46.7	-48.3	18.8	0.00e+00	0	34	0	400556032	65	4233
2026-01-17 10:56:34.01	204.86	23.46	-46.7	-48.3	18.8	0.00e+00	0	34	0	407896064	65	4240
2026-01-17 10:56:38.04	205.51	23.96	-46.8	-48.4	18.7	0.00e+00	0	34	0	416284672	65	4272
2026-01-17 10:56:42.07	206.18	24.47	-46.9	-48.6	18.6	0.00e+00	0	34	0	423624704	65	4372
2026-01-17 10:56:46.10	206.88	24.98	-47.2	-49.0	18.2	0.00e+00	0	34	0	430964736	65	4549
2026-01-17 10:56:50.14	207.59	25.50	-47.3	-49.1	18.1	0.00e+00	0	34	0	438304768	65	4641
2026-01-17 10:56:54.17	208.33	26.02	-47.3	-49.1	18.1	0.00e+00	0	35	0	446693376	65	4613
2026-01-17 10:56:58.20	209.10	26.55	-47.1	-48.8	18.4	0.00e+00	0	34	0	454033408	65	4481
2026-01-17 10:57:02.23	209.88	27.09	-47.0	-48.7	18.5	0.00e+00	0	34	0	461373440	65	4399
2026-01-17 10:57:06.27	210.70	27.63	-47.1	-48.9	18.4	0.00e+00	0	35	0	468713472	65	4496
2026-01-17 10:57:10.30	211.54	28.17	-47.5	-49.3	17.9	0.00e+00	0	34	0	476053504	65	4733
2026-01-17 10:57:14.33	212.42	28.72	-47.6	-49.4	17.9	0.00e+00	0	35	0	484442112	65	4780
2026-01-17 10:57:18.37	213.32	29.27	-47.6	-49.4	17.9	0.00e+00	0	34	0	491782144	65	4814
2026-01-17 10:57:22.40	214.25	29.83	-47.8	-49.6	17.6	0.00e+00	0	35	0	499122176	66	4648
2026-01-17 10:57:26.43	215.21	30.38	-47.8	-49.7	17.6	0.00e+00	0	34	0	506462208	66	4684
2026-01-17 10:57:30.46	216.21	30.94	-48.3	-50.4	16.9	0.00e+00	0	34	0	514850816	67	4794
2026-01-17 10:57:34.49	217.24	31.50	-48.8	-51.1	16.4	0.00e+00	0	34	0	522190848	68	4879
2026-01-17 10:57:38.53	218.31	32.07	-48.8	-51.0	16.4	0.00e+00	0	35	0	529530880	68	4840
2026-01-17 10:57:42.56	219.41	32.63	-48.5	-50.7	16.7	0.00e+00	0	34	0	536870912	68	4663
2026-01-17 10:57:46.60	220.56	33.19	-48.3	-50.3	17.2	0.00e+00	0	34	0	544210944	68	4455
2026-01-17 10:57:50.63	221.74	33.74	-48.1	-50.1	17.3	0.00e+00	0	35	0	552599552	67	4614
2026-01-17 10:57:54.66	222.96	34.29	-48.4	-50.6	16.8	0.00e+00	0	35	0	559939584	67	4890
2026-01-17 10:57:58.70	224.22	34.84	-47.6	-49.4	17.9	0.00e+00	0	34	0	567279616	67	4278
2026-01-17 10:58:02.73	225.52	35.38	-47.8	-49.6	17.7	0.00e+00	0	35	0	574619648	67	4390
2026-01-17 10:58:06.76	226.87	35.92	-48.9	-51.2	16.2	0.00e+00	0	35	0	581959680	68	4980
2026-01-17 10:58:10.79	228.26	36.44	-48.1	-50.0	17.5	0.00e+00	0	35	0	590348288	68	4338
2026-01-17 10:58:14.82	229.69	36.95	-49.0	-51.3	16.2	0.00e+00	0	34	0	597688320	68	5024
2026-01-17 10:58:18.86	231.17	37.46	-48.7	-50.9	16.6	0.00e+00	0	35	0	605028352	69	4529
2026-01-17 10:58:22.89	232.70	37.94	-48.2	-50.2	17.3	0.00e+00	0	35	0	612368384	68	4428
2026-01-17 10:58:26.92	234.26	38.41	-49.0	-51.3	16.2	0.00e+00	0	35	0	619708416	68	5041
2026-01-17 10:58:30.95	235.88	38.87	-47.8	-49.7	17.7	0.00e+00	0	35	0	628097024	67	4411
2026-01-17 10:58:34.98	237.53	39.30	-49.4	-51.9	15.6	0.00e+00	0	35	0	635437056	69	5088
2026-01-17 10:58:39.02	239.23	39.71	-49.5	-52.0	15.5	0.00e+00	0	35	0	642777088	70	4859
2026-01-17 10:58:43.05	240.97	40.10	-49.1	-51.5	16.0	0.00e+00	0	35	0	650117120	70	4593
2026-01-17 10:58:47.08	242.75	40.46	-49.0	-51.4	16.2	0.00e+00	0	35	0	657457152	69	4769
2026-01-17 10:58:51.11	244.57	40.79	-48.0	-49.9	17.6	0.00e+00	0	35	0	665845760	68	4270
2026-01-17 10:58:55.14	246.42	41.10	-47.8	-49.7	17.8	0.00e+00	0	35	0	673185792	67	4402
2026-01-17 10:58:59.18	248.31	41.37	-48.4	-50.4	17.0	0.00e+00	0	35	0	680525824	67	4814
2026-01-17 10:59:03.20	250.23	41.61	-48.8	-51.1	16.5	0.00e+00	0	35	0	687865856	68	4876
2026-01-17 10:59:07.24	252.17	41.81	-49.4	-51.9	15.7	0.00e+00	0	35	0	696254464	69	5044
2026-01-17 10:59:11.27	254.14	41.98	-48.7	-50.8	16.7	0.00e+00	0	35	0	703594496	69	4493
2026-01-17 10:59:15.30	256.12	42.12	-48.8	-51.1	16.5	0.00e+00	0	34	0	710934528	69	4612
2026-01-17 10:59:19.33	258.12	42.21	-47.9	-49.7	17.8	0.00e+00	0	35	0	718274560	67	4437
2026-01-17 10:59:23.37	260.13	42.27	-48.1	-50.0	17.5	0.00e+00	0	35	0	725614592	67	4585
2026-01-17 10:59:27.40	262.14	42.29	-48.5	-50.7	16.8	0.00e+00	0	35	0	734003200	67	4936
2026-01-17 10:59:31.44	264.15	42.27	-47.8	-49.7	17.8	0.00e+00	0	35	0	741343232	67	4408
2026-01-17 10:59:35.47	266.16	42.22	-46.8	-48.4	19.1	0.00e+00	0	35	0	748683264	65	4258
2026-01-17 10:59:39.50	268.15	42.12	-46.9	-48.4	19.0	0.00e+00	0	35	0	756023296	64	4537
2026-01-17 10:59:43.53	270.13	41.99	-47.3	-49.0	18.5	0.00e+00	0	35	0	764411904	65	4555
2026-01-17 10:59:47.57	272.10	41.82	-47.8	-49.7	17.8	0.00e+00	0	35	0	771751936	67	4407
2026-01-17 10:59:51.60	274.04	41.61	-48.3	-50.2	17.3	0.00e+00	0	35	0	779091968	67	4691
2026-01-17 10:59:55.63	275.95	41.37	-48.9	-51.2	16.5	0.00e+00	0	34	0	786432000	68	4930
2026-01-17 10:59:59.66	277.84	41.10	-48.7	-50.8	16.9	0.00e+00	0	35	0	793772032	69	4465
2026-01-17 11:00:03.69	279.69	40.80	-49.4	-51.9	15.7	0.00e+00	0	35	0	801112064	70	4792
2026-01-17 11:00:07.73	281.51	40.46	-48.4	-50.4	17.1	0.00e+00	0	35	0	809500672	67	4812
2026-01-17 11:00:11.76	283.28	40.10	-48.3	-50.2	17.3	0.00e+00	0	35	0	816840704	67	4703
2026-01-17 11:00:15.80	285.03	39.72	-47.7	-49.4	18.1	0.00e+00	0	35	0	824180736	67	4276
2026-01-17 11:00:19.83	286.72	39.31	-46.6	-48.1	19.4	0.00e+00	0	34	0	831520768	65	4114
2026-01-17 11:00:23.86	288.37	38.88	-46.1	-47.5	20.0	0.00e+00	0	34	0	839909376	64	4058
2026-01-17 11:00:27.90	289.99	38.42	-45.6	-46.9	20.7	0.00e+00	0	35	0	847249408	63	4006
2026-01-17 11:00:31.94	291.55	37.95	-46.1	-47.4	20.2	0.00e+00	0	35	0	854589440	63	4290
2026-01-17 11:00:35.97	293.07	37.47	-45.7	-47.0	20.6	0.00e+00	0	35	0	861929472	62	4330
2026-01-17 11:00:40.01	294.55	36.97	-46.0	-47.3	20.3	0.00e+00	0	35	0	869269504	63	4208
2026-01-17 11:00:44.04	295.98	36.46	-45.8	-47.1	20.5	0.00e+00	0	35	0	877658112	63	4123
2026-01-17 11:00:48.07	297.37	35.94	-45.9	-47.2	20.4	0.00e+00	0	35	0	884998144	63	4177
2026-01-17 11:00:52.10	298.71	35.41	-46.7	-48.2	19.2	0.00e+00	0	35	0	892338176	64	4412
2026-01-17 11:00:56.14	300.01	34.87	-47.1	-48.7	18.8	0.00e+00	0	35	0	899678208	65	4392
2026-01-17 11:01:00.17	301.27	34.32	-46.7	-48.2	19.3	0.00e+00	0	35	0	907018240	64	4427
2026-01-17 11:01:04.20	302.49	33.77	-46.9	-48.4	19.1	0.00e+00	0	35	0	915406848	65	4287
2026-01-17 11:01:08.23	303.66	33.22	-48.8	-51.0	16.7	0.00e+00	0	35	0	922746880	68	4848
2026-01-17 11:01:12.26	304.80	32.66	-48.0	-49.9	17.7	0.00e+00	0	35	0	930086912	67	4523
2026-01-17 11:01:16.30	305.91	32.11	-49.6	-52.2	15.5	0.00e+00	0	34	0	937426944	70	4932
2026-01-17 11:01:20.33	306.97	31.55	-47.7	-49.4	18.2	0.00e+00	0	35	0	945815552	67	4264
2026-01-17 11:01:24.36	308.00	30.99	-48.8	-51.0	16.7	0.00e+00	0	35	0	953155584	68	4821
2026-01-17 11:01:28.40	309.00	30.43	-47.4	-49.0	18.6	0.00e+00	0	35	0	960495616	66	4340
2026-01-17 11:01:32.43	309.96	29.88	-48.8	-51.0	16.7	0.00e+00	0	35	0	967835648	69	4571
2026-01-17 11:01:36.46	310.89	29.33	-46.5	-48.0	19.5	0.00e+00	0	35	0	975175680	65	4055
2026-01-17 11:01:40.49	311.79	28.78	-48.0	-50.0	17.6	0.00e+00	0	35	0	983564288	66	4816
2026-01-17 11:01:44.53	312.66	28.23	-45.7	-47.0	20.6	0.00e+00	0	35	0	990904320	63	4059
2026-01-17 11:01:48.56	313.50	27.69	-46.7	-48.2	19.4	0.00e+00	0	35	0	998244352	63	4692
2026-01-17 11:01:52.59	314.31	27.16	-46.3	-47.7	19.8	0.00e+00	0	35	0	1005584384	64	4162
2026-01-17 11:01:56.63	315.10	26.62	-45.3	-46.5	21.0	0.00e+00	0	35	0	1013972992	62	4078
2026-01-17 11:02:00.67	315.87	26.09	-46.5	-48.0	19.6	0.00e+00	0	35	0	1021313024	63	4548
2026-01-17 11:02:04.70	316.60	25.57	-44.9	-46.0	21.4	0.00e+00	0	35	0	1028653056	61	4096
2026-01-17 11:02:08.73	317.32	25.06	-45.3	-46.5	21.0	0.00e+00	0	35	0	1035993088	61	4319
2026-01-17 11:02:12.77	318.01	24.54	-45.7	-47.0	20.5	0.00e+00	0	34	0	1043333120	62	4293
2026-01-17 11:02:16.80	318.69	24.04	-45.2	-46.5	21.0	0.00e+00	0	35	0	1050673152	62	4054
2026-01-17 11:02:20.83	319.34	23.54	-45.6	-46.9	20.6	0.00e+00	0	35	0	1059061760	62	4264
2026-01-17 11:02:24.86	319.97	23.05	-45.4	-46.7	20.7	0.00e+00	0	35	0	1066401792	62	4155
2026-01-17 11:02:28.89	320.58	22.56	-45.8	-47.2	20.3	0.00e+00	0	35	0	1073741824	62	4400
2026-01-17 11:02:32.92	321.17	22.08	-45.9	-47.2	20.2	0.00e+00	0	35	0	1081081856	62	4412
2026-01-17 11:02:36.95	321.75	21.61	-45.6	-46.9	20.4	0.00e+00	0	35	0	1089470464	62	4278
2026-01-17 11:02:40.98	322.31	21.14	-46.4	-47.8	19.6	0.00e+00	0	35	0	1096810496	63	4491
2026-01-17 11:02:45.00	322.85	20.68	-47.1	-48.8	18.5	0.00e+00	0	34	0	1104150528	64	4741
2026-01-17 11:02:49.04	323.38	20.22	-46.6	-48.2	19.1	0.00e+00	0	35	0	1111490560	64	4412
2026-01-17 11:02:53.07	323.90	19.77	-46.3	-47.8	19.5	0.00e+00	0	35	0	1118830592	64	4207
2026-01-17 11:02:57.10	324.40	19.32	-46.7	-48.2	19.0	0.00e+00	0	35	0	1127219200	64	4434
2026-01-17 11:03:01.13	324.88	18.88	-46.7	-48.3	18.9	0.00e+00	0	35	0	1134559232	64	4487
2026-01-17 11:03:05.16	325.36	18.45	-46.4	-47.9	19.4	0.00e+00	0	35	0	1141899264	64	4243
2026-01-17 11:03:09.20	325.82	18.02	-46.1	-47.6	19.6	0.00e+00	0	35	0	1149239296	64	4107
2026-01-17 11:03:13.23	326.26	17.60	-46.3	-47.8	19.4	0.00e+00	0	35	0	1156579328	64	4210
2026-01-17 11:03:17.25	326.70	17.19	-46.4	-47.9	19.2	0.00e+00	0	35	0	1164967936	64	4279
2026-01-17 11:03:21.28	327.12	16.78	-46.7	-48.3	18.9	0.00e+00	0	35	0	1172307968	64	4458
2026-01-17 11:03:25.32	327.54	16.37	-46.6	-48.2	18.9	0.00e+00	0	34	0	1179648000	64	4428
2026-01-17 11:03:29.35	327.94	15.97	-46.6	-48.2	18.9	0.00e+00	0	35	0	1186988032	64	4424
2026-01-17 11:03:33.38	328.34	15.58	-46.9	-48.6	18.5	0.00e+00	0	35	0	1194328064	64	4625
2026-01-17 11:03:37.42	328.72	15.19	-47.1	-48.8	18.2	0.00e+00	0	34	0	1202716672	64	4739
2026-01-17 11:03:41.45	329.10	14.80	-47.2	-49.0	18.1	0.00e+00	0	35	0	1210056704	65	4559
2026-01-17 11:03:45.48	329.46	14.42	-46.8	-48.5	18.5	0.00e+00	0	35	0	1217396736	65	4323
2026-01-17 11:03:49.51	329.82	14.05	-46.8	-48.4	18.6	0.00e+00	0	35	0	1224736768	65	4281
2026-01-17 11:03:53.55	330.17	13.68	-46.7	-48.3	18.7	0.00e+00	0	35	0	1233125376	65	4238
2026-01-17 11:03:57.58	330.51	13.31	-46.9	-48.6	18.4	0.00e+00	0	35	0	1240465408	65	4341
2026-01-17 11:04:01.61	330.84	12.95	-46.9	-48.6	18.3	0.00e+00	0	35	0	1247805440	65	4385
2026-01-17 11:04:05.64	331.17	12.60	-47.2	-49.0	17.9	0.00e+00	0	35	0	1255145472	65	4580
2026-01-17 11:04:09.67	331.48	12.25	-47.3	-49.2	17.8	0.00e+00	0	35	0	1262485504	65	4656
2026-01-17 11:04:13.70	331.79	11.90	-47.3	-49.2	17.7	0.00e+00	0	35	0	1269825536	65	4667
2026-01-17 11:04:17.74	332.10	11.55	-47.3	-49.2	17.7	0.00e+00	0	35	0	1278214144	65	4674
2026-01-17 11:04:21.77	332.40	11.22	-47.3	-49.2	17.7	0.00e+00	0	35	0	1285554176	65	4669
2026-01-17 11:04:25.80	332.69	10.88	-47.4	-49.3	17.5	0.00e+00	0	35	0	1292894208	65	4744
2026-01-17 11:04:29.84	332.97	10.55	-47.7	-49.7	17.1	0.00e+00	0	35	0	1300234240	66	4705
2026-01-17 11:04:33.87	333.25	10.22	-48.0	-50.2	16.6	0.00e+00	0	35	0	1308622848	66	4937
2026-01-17 11:04:37.90	333.53	9.90	-48.1	-50.4	16.4	0.00e+00	0	35	0	1315962880	66	5044
2026-01-17 11:04:41.93	333.79	9.58	-48.1	-50.4	16.3	0.00e+00	0	35	0	1323302912	66	5068
2026-01-17 11:04:45.96	334.06	9.26	-47.9	-50.1	16.6	0.00e+00	0	35	0	1330642944	67	4616
2026-01-17 11:04:49.99	334.31	8.95	-47.8	-50.0	16.7	0.00e+00	0	35	0	1337982976	67	4559
2026-01-17 11:04:54.03	334.57	8.64	-47.8	-50.0	16.7	0.00e+00	0	35	0	1346371584	67	4548
2026-01-17 11:04:58.06	334.81	8.34	-47.9	-50.1	16.6	0.00e+00	0	35	0	1353711616	67	4613
2026-01-17 11:05:02.09	335.06	8.03	-47.9	-50.1	16.6	0.00e+00	0	35	0	1361051648	67	4602
2026-01-17 11:05:06.12	335.30	7.73	-48.5	-51.0	15.6	0.00e+00	0	35	0	1368391680	67	5109
2026-01-17 11:05:10.16	335.53	7.44	-48.8	-51.5	15.2	0.00e+00	0	35	0	1376780288	68	5108
2026-01-17 11:05:14.19	335.76	7.14	-48.8	-51.6	15.0	0.00e+00	0	35	0	1384120320	68	5170
2026-01-17 11:05:18.22	335.99	6.85	-49.1	-52.2	14.4	1.50e-06	0	35	0	1391460352	68	5529
2026-01-17 11:05:22.26	336.21	6.57	-49.1	-52.1	14.4	3.00e-06	0	35	0	1398800384	69	5195
2026-01-17 11:05:26.29	336.42	6.28	-49.2	-52.4	14.1	3.00e-06	0	35	0	1406140416	69	5357
2026-01-17 11:05:30.33	336.64	6.00	-49.2	-52.4	14.0	3.80e-06	0	35	0	1414529024	69	5361
2026-01-17 11:05:34.36	336.85	5.72	-49.1	-52.2	14.2	1.50e-06	0	35	0	1421869056	69	5222
2026-01-17 11:05:38.39	337.05	5.44	-49.3	-52.6	13.7	1.06e-05	0	35	0	1429209088	69	5490
2026-01-17 11:05:42.42	337.26	5.17	-49.1	-52.3	14.0	2.20e-06	0	35	0	1436549120	69	5306
2026-01-17 11:05:46.45	337.46	4.90	-53.0	-68.0	3.8	1.49e+00	0	35	104	1441792000	76	21636
2026-01-17 11:05:50.49	337.65	4.63	-53.5	-68.5	3.8	1.49e+00	0	35	104	1441792000	77	21745
2026-01-17 11:05:54.52	337.85	4.36	-53.8	-68.9	3.8	1.49e+00	0	35	104	1441792000	78	21291
2026-01-17 11:05:58.56	338.04	4.10	-53.9	-68.9	3.8	1.49e+00	0	35	104	1441792000	78	21437
2026-01-17 11:06:02.59	338.22	3.84	-53.9	-68.9	3.8	1.49e+00	0	35	104	1441792000	78	21422
2026-01-17 11:06:06.62	338.41	3.58	-53.9	-68.9	3.8	1.49e+00	0	35	104	1441792000	78	21416
2026-01-17 11:06:10.66	338.59	3.32	-53.8	-68.9	3.8	1.49e+00	0	35	104	1441792000	78	21332
2026-01-17 11:06:14.70	338.77	3.07	-53.8	-68.9	3.8	1.49e+00	0	35	104	1441792000	78	21277
2026-01-17 11:06:18.74	338.94	2.81	-53.8	-68.8	3.8	1.49e+00	0	35	104	1441792000	78	21253
2026-01-17 11:06:22.77	339.12	2.56	-53.8	-68.8	3.8	1.49e+00	0	35	104	1441792000	78	21202
2026-01-17 11:06:26.80	339.29	2.31	-53.8	-68.8	3.8	1.49e+00	0	35	104	1441792000	78	21209
2026-01-17 11:06:30.84	339.45	2.07	-53.8	-68.8	3.8	1.49e+00	0	35	104	1441792000	78	21203

#Closed at: 2026-01-17 11:06:33
#Recorded file [1441 MB]: D:/lorett/data/31041_260117_135227.dat