passes_logs/2026/01/17/R3.2S_Murmansk/R3.2S_Murmansk__20260117_131233_TY-42_rec.log

#Pass ID: 20260117_131233_TY-42
#Satellite: TY-42
#Configuration: TY-42_900M
#almurnet v.1.7.20251203
#Start time: 2026-01-17 13:12:32

#Version: 2.2.20231116
#Station: R3.2S_Murmansk
#Location: 33.079688 lon 68.888172 lat
#TLE: 1 64048U 25103A   26017.16855324  .00008007  00000-0  38191-3 0 09993
#TLE: 2 64048 097.4122 092.5453 0001842 092.3417 060.2488 15.19155566 37145

#Time	Az	El	Level	Level2	SNR	BER	BlckErr	Temp	State	Recorded	gain1	gain2
2026-01-17 13:12:32.57	36.64	1.97	-51.9	-54.1	6.3	0.00e+00	0	41	0	0	75	18455
2026-01-17 13:12:34.59	36.40	2.08	-51.9	-54.1	6.2	0.00e+00	0	40	104	0	75	18521
2026-01-17 13:12:36.61	36.16	2.19	-51.9	-54.1	6.2	0.00e+00	0	41	104	0	75	18466
2026-01-17 13:12:38.62	35.93	2.30	-51.9	-54.1	6.2	0.00e+00	0	41	104	0	75	18453
2026-01-17 13:12:40.64	35.68	2.40	-51.9	-54.1	6.2	0.00e+00	0	41	104	0	75	18419
2026-01-17 13:12:42.66	35.44	2.51	-51.9	-54.1	6.2	0.00e+00	0	41	104	0	75	18392
2026-01-17 13:12:44.68	35.19	2.62	-51.9	-54.1	6.2	0.00e+00	0	42	104	0	75	18403
2026-01-17 13:12:46.69	34.95	2.73	-51.9	-54.0	6.2	0.00e+00	0	42	104	0	75	18389
2026-01-17 13:12:48.71	34.70	2.84	-51.9	-54.0	6.2	0.00e+00	0	42	104	0	75	18374
2026-01-17 13:12:50.73	34.44	2.95	-51.9	-54.0	6.2	0.00e+00	0	42	104	0	75	18377
2026-01-17 13:12:52.75	34.19	3.06	-51.9	-54.1	6.2	0.00e+00	0	42	104	0	75	18424
2026-01-17 13:12:54.76	33.93	3.17	-51.9	-54.1	6.2	0.00e+00	0	42	104	0	75	18420
2026-01-17 13:12:56.78	33.67	3.28	-51.9	-54.1	6.2	0.00e+00	0	42	104	0	75	18419
2026-01-17 13:12:58.80	33.40	3.39	-51.9	-54.1	6.2	0.00e+00	0	42	104	0	75	18410
2026-01-17 13:13:00.81	33.14	3.50	-51.9	-54.1	6.2	0.00e+00	0	42	104	0	75	18401
2026-01-17 13:13:02.83	32.87	3.61	-51.9	-54.1	6.2	0.00e+00	0	42	104	0	75	18401
2026-01-17 13:13:04.85	32.60	3.72	-51.9	-54.1	6.2	0.00e+00	0	42	104	0	75	18422
2026-01-17 13:13:06.87	32.32	3.83	-51.9	-54.1	6.2	0.00e+00	0	43	104	0	75	18427
2026-01-17 13:13:08.89	32.05	3.94	-51.9	-54.0	6.2	0.00e+00	0	43	104	0	75	18381
2026-01-17 13:13:10.90	31.77	4.05	-51.9	-54.0	6.2	0.00e+00	0	43	104	0	75	18379
2026-01-17 13:13:12.92	31.49	4.16	-51.9	-54.0	6.2	0.00e+00	0	43	104	0	75	18362
2026-01-17 13:13:14.94	31.20	4.27	-51.9	-54.1	6.2	0.00e+00	0	43	104	0	75	18443
2026-01-17 13:13:16.95	30.92	4.38	-51.9	-54.1	6.2	0.00e+00	0	43	104	0	75	18404
2026-01-17 13:13:18.97	30.63	4.49	-51.9	-54.1	6.2	0.00e+00	0	43	104	0	75	18401
2026-01-17 13:13:20.99	30.33	4.60	-51.9	-54.1	6.2	0.00e+00	0	43	104	0	75	18410
2026-01-17 13:13:23.00	30.04	4.71	-51.9	-54.1	6.2	0.00e+00	0	43	104	0	75	18403
2026-01-17 13:13:25.02	29.74	4.83	-51.9	-54.0	6.2	0.00e+00	0	43	104	0	75	18382
2026-01-17 13:13:27.04	29.44	4.94	-51.9	-54.1	6.2	0.00e+00	0	43	104	0	75	18405
2026-01-17 13:13:29.06	29.13	5.05	-51.9	-54.0	6.2	0.00e+00	0	43	104	0	75	18352
2026-01-17 13:13:31.07	28.82	5.16	-52.1	-54.2	6.2	0.00e+00	0	43	104	0	75	18764
2026-01-17 13:13:33.09	28.51	5.27	-52.3	-54.5	6.2	0.00e+00	0	43	104	0	75	19273
2026-01-17 13:13:35.11	28.20	5.38	-52.1	-54.3	6.2	0.00e+00	0	43	104	0	75	18890
2026-01-17 13:13:37.12	27.88	5.49	-52.3	-54.5	6.2	0.00e+00	0	43	104	0	75	19325
2026-01-17 13:13:39.14	27.56	5.60	-52.2	-54.3	6.2	0.00e+00	0	43	104	0	75	18887
2026-01-17 13:13:41.16	27.24	5.71	-52.4	-54.5	6.2	0.00e+00	0	44	104	0	75	19365
2026-01-17 13:13:43.17	26.91	5.82	-52.2	-54.4	6.2	0.00e+00	0	44	104	0	75	19137
2026-01-17 13:13:45.19	26.58	5.93	-52.4	-54.5	6.2	0.00e+00	0	44	104	0	75	19470
2026-01-17 13:13:47.20	26.25	6.04	-52.3	-54.5	6.2	0.00e+00	0	44	104	0	75	19353
2026-01-17 13:13:49.22	25.92	6.15	-52.5	-54.6	6.2	0.00e+00	0	44	104	0	75	19586
2026-01-17 13:13:51.23	25.58	6.26	-52.4	-54.5	6.2	0.00e+00	0	44	104	0	75	19449
2026-01-17 13:13:53.25	25.24	6.37	-52.5	-54.7	6.2	0.00e+00	0	44	104	0	75	19729
2026-01-17 13:13:55.27	24.89	6.48	-52.5	-54.6	6.2	0.00e+00	0	44	104	0	75	19602
2026-01-17 13:13:57.28	24.54	6.59	-52.6	-54.7	6.2	0.00e+00	0	44	104	0	75	19743
2026-01-17 13:13:59.30	24.19	6.69	-52.5	-54.6	6.2	0.00e+00	0	44	104	0	75	19665
2026-01-17 13:14:01.32	23.83	6.80	-52.6	-54.7	6.2	0.00e+00	0	44	104	0	75	19797
2026-01-17 13:14:03.34	23.48	6.91	-52.5	-54.7	6.2	0.00e+00	0	44	104	0	75	19798
2026-01-17 13:14:05.35	23.11	7.02	-52.6	-54.8	6.2	0.00e+00	0	44	104	0	75	19976
2026-01-17 13:14:07.37	22.75	7.13	-52.6	-54.7	6.2	0.00e+00	0	44	104	0	75	19765
2026-01-17 13:14:09.38	22.38	7.23	-52.6	-54.7	6.2	0.00e+00	0	44	104	0	75	19916
2026-01-17 13:14:11.40	22.01	7.34	-52.6	-54.7	6.2	0.00e+00	0	44	104	0	75	19925
2026-01-17 13:14:13.42	21.63	7.45	-52.7	-54.8	6.2	0.00e+00	0	44	104	0	75	20008
2026-01-17 13:14:15.43	21.25	7.55	-52.7	-54.8	6.2	0.00e+00	0	44	104	0	75	20020
2026-01-17 13:14:17.45	20.87	7.66	-52.7	-54.8	6.2	0.00e+00	0	44	104	0	76	19019
2026-01-17 13:14:19.46	20.48	7.76	-52.7	-54.8	6.2	0.00e+00	0	44	104	0	76	18994
2026-01-17 13:14:21.48	20.09	7.87	-45.0	-45.1	9.4	0.00e+00	0	44	104	0	61	14629
2026-01-17 13:14:23.50	19.70	7.97	-45.1	-45.2	9.6	0.00e+00	10932	48	0	41943040	62	14067
2026-01-17 13:14:25.51	19.30	8.08	-45.0	-45.2	9.6	4.86e-01	10970	48	0	268435456	61	14833
2026-01-17 13:14:27.53	18.90	8.18	-44.2	-44.3	10.1	4.86e-01	11030	48	0	494927872	60	14234
2026-01-17 13:14:29.54	18.50	8.28	-43.7	-43.8	10.4	5.07e-01	11028	49	0	721420288	59	14178
2026-01-17 13:14:31.56	18.09	8.38	-42.6	-42.7	11.1	4.12e-01	10969	49	0	947912704	57	13987
2026-01-17 13:14:33.58	17.68	8.48	-40.6	-40.6	12.4	2.16e-01	0	48	0	1182793728	53	13871
2026-01-17 13:14:35.59	17.27	8.59	-39.2	-39.1	13.4	2.16e-01	0	48	0	1409286144	50	13888
2026-01-17 13:14:37.61	16.85	8.69	-38.0	-37.9	14.0	5.94e-02	0	47	0	1635778560	48	13567
2026-01-17 13:14:39.63	16.43	8.78	-38.4	-38.3	13.8	2.89e-02	0	48	0	1853882368	48	14170
2026-01-17 13:14:41.64	16.00	8.88	-36.7	-36.6	13.8	2.89e-02	0	48	0	2080374784	45	13903
2026-01-17 13:14:43.66	15.57	8.98	-36.3	-36.2	14.1	3.04e-02	0	48	0	2306867200	44	14075
2026-01-17 13:14:45.68	15.14	9.08	-36.2	-36.1	14.1	3.04e-02	0	48	0	2541748224	44	13895
2026-01-17 13:14:47.69	14.70	9.17	-36.0	-35.9	14.3	2.45e-02	0	48	0	2768240640	43	14320
2026-01-17 13:14:49.71	14.26	9.27	-35.9	-35.8	14.3	2.09e-02	0	48	0	2994733056	43	14258
2026-01-17 13:14:51.72	13.82	9.36	-35.8	-35.7	14.4	1.94e-02	0	48	0	3221225472	43	14079
2026-01-17 13:14:53.74	13.37	9.46	-36.1	-36.0	14.2	1.94e-02	0	48	0	3439329280	43	14465
2026-01-17 13:14:55.76	12.92	9.55	-35.7	-35.6	14.4	1.93e-02	0	48	0	3665821696	43	13873
2026-01-17 13:14:57.78	12.47	9.64	-36.0	-36.0	14.3	1.76e-02	0	48	0	3900702720	43	14442
2026-01-17 13:14:59.79	12.01	9.73	-35.9	-35.8	14.4	1.76e-02	0	48	0	4127195136	43	14142
2026-01-17 13:15:01.80	11.55	9.82	-35.7	-35.6	14.4	1.88e-02	0	48	0	4353687552	43	13886
2026-01-17 13:15:03.82	11.09	9.91	-35.8	-35.8	14.3	1.66e-02	0	48	0	4580179968	43	14130
2026-01-17 13:15:05.84	10.62	9.99	-35.7	-35.7	14.4	1.66e-02	0	48	0	4806672384	43	13967
2026-01-17 13:15:07.85	10.15	10.08	-35.9	-35.8	14.3	1.76e-02	0	48	0	5033164800	43	14219
2026-01-17 13:15:09.87	9.67	10.17	-36.0	-35.9	14.2	1.76e-02	0	48	0	5268045824	43	14388
2026-01-17 13:15:11.88	9.20	10.25	-35.7	-35.6	14.4	1.79e-02	0	48	0	5494538240	43	13928
2026-01-17 13:15:13.90	8.71	10.33	-35.6	-35.5	14.5	1.65e-02	0	48	0	5712642048	43	13714
2026-01-17 13:15:15.91	8.23	10.41	-35.7	-35.6	14.4	1.65e-02	0	48	0	5939134464	43	13832
2026-01-17 13:15:17.93	7.74	10.49	-35.7	-35.6	14.4	1.57e-02	0	48	0	6165626880	43	13850
2026-01-17 13:15:19.94	7.25	10.57	-35.6	-35.5	14.4	1.58e-02	0	48	0	6392119296	42	14512
2026-01-17 13:15:21.96	6.76	10.65	-35.7	-35.6	14.4	1.58e-02	0	49	0	6618611712	42	14770
2026-01-17 13:15:23.98	6.26	10.72	-35.7	-35.6	14.4	1.61e-02	0	48	0	6853492736	42	14687
2026-01-17 13:15:26.00	5.76	10.79	-35.7	-35.6	14.4	1.50e-02	0	48	0	7079985152	42	14710
2026-01-17 13:15:28.01	5.25	10.87	-35.8	-35.7	14.3	1.60e-02	0	48	0	7298088960	42	14854
2026-01-17 13:15:30.03	4.75	10.94	-35.7	-35.5	14.4	1.60e-02	0	49	0	7524581376	42	14599
2026-01-17 13:15:32.05	4.24	11.01	-36.0	-35.9	14.3	1.59e-02	0	49	0	7751073792	42	15182
2026-01-17 13:15:34.06	3.72	11.07	-36.0	-35.9	14.3	1.83e-02	0	49	0	7977566208	42	15164
2026-01-17 13:15:36.08	3.21	11.14	-35.9	-35.8	14.3	1.83e-02	0	49	0	8212447232	42	14961
2026-01-17 13:15:38.10	2.69	11.20	-35.6	-35.5	14.4	1.76e-02	0	49	0	8438939648	42	14473
2026-01-17 13:15:40.11	2.17	11.26	-35.7	-35.6	14.4	1.67e-02	0	49	0	8665432064	42	14625
2026-01-17 13:15:42.13	1.64	11.33	-35.5	-35.4	14.4	1.67e-02	0	49	0	8891924480	42	14376
2026-01-17 13:15:44.14	1.12	11.38	-35.8	-35.7	14.3	1.51e-02	0	49	0	9110028288	42	14804
2026-01-17 13:15:46.16	0.59	11.44	-35.5	-35.4	14.4	1.71e-02	0	49	0	9336520704	42	14370
2026-01-17 13:15:48.18	0.06	11.50	-35.5	-35.4	14.4	1.52e-02	0	49	0	9571401728	42	14324
2026-01-17 13:15:50.19	359.53	11.55	-35.3	-35.2	14.5	1.52e-02	0	49	0	9797894144	42	14088
2026-01-17 13:15:52.21	358.99	11.60	-35.3	-35.2	14.5	1.48e-02	0	49	0	10024386560	42	14022
2026-01-17 13:15:54.23	358.45	11.65	-35.4	-35.3	14.3	1.46e-02	0	49	0	10250878976	42	14163
2026-01-17 13:15:56.24	357.91	11.70	-35.6	-35.5	14.2	1.46e-02	0	49	0	10477371392	42	14516
2026-01-17 13:15:58.26	357.37	11.74	-35.4	-35.3	14.3	2.38e-02	0	49	0	10695475200	42	14218
2026-01-17 13:16:00.28	356.82	11.78	-35.6	-35.5	14.2	2.48e-02	0	49	0	10938744832	42	14458
2026-01-17 13:16:02.29	356.28	11.82	-35.9	-35.9	14.0	2.48e-02	0	49	0	11156848640	42	15129
2026-01-17 13:16:04.31	355.73	11.86	-53.2	-55.4	6.2	2.30e-02	0	48	104	11165237248	76	20208
2026-01-17 13:16:06.33	355.18	11.90	-53.2	-55.3	6.2	2.30e-02	0	48	104	11165237248	76	20055
2026-01-17 13:16:08.34	354.63	11.93	-53.1	-55.3	6.2	2.30e-02	0	48	104	11165237248	76	19954
2026-01-17 13:16:10.36	354.07	11.97	-53.2	-55.3	6.2	2.30e-02	0	47	104	11165237248	76	20066
2026-01-17 13:16:12.37	353.52	12.00	-53.1	-55.3	6.2	2.30e-02	0	48	104	11165237248	76	19960
2026-01-17 13:16:14.39	352.96	12.02	-53.1	-55.3	6.2	2.30e-02	0	48	104	11165237248	76	20032
2026-01-17 13:16:16.41	352.40	12.05	-53.1	-55.2	6.2	0.00e+00	0	47	104	11165237248	76	19867
2026-01-17 13:16:18.42	351.85	12.07	-53.1	-55.3	6.2	0.00e+00	0	47	104	11165237248	76	19951
2026-01-17 13:16:20.44	351.29	12.09	-53.1	-55.2	6.2	0.00e+00	0	47	104	11165237248	76	19919
2026-01-17 13:16:22.46	350.73	12.11	-53.1	-55.3	6.2	0.00e+00	0	47	104	11165237248	76	19981
2026-01-17 13:16:24.47	350.17	12.13	-53.1	-55.2	6.2	0.00e+00	0	47	104	11165237248	76	19925
2026-01-17 13:16:26.49	349.60	12.14	-53.1	-55.3	6.2	0.00e+00	0	47	104	11165237248	76	19994
2026-01-17 13:16:28.50	349.04	12.16	-53.1	-55.2	6.2	0.00e+00	0	47	104	11165237248	76	19876
2026-01-17 13:16:30.52	348.48	12.17	-53.1	-55.2	6.2	0.00e+00	0	47	104	11165237248	76	19929
2026-01-17 13:16:32.53	347.92	12.17	-53.1	-55.2	6.2	0.00e+00	0	47	104	11165237248	76	19891
2026-01-17 13:16:34.56	347.35	12.18	-53.1	-55.3	6.2	0.00e+00	0	47	104	11165237248	76	19937
2026-01-17 13:16:36.57	346.79	12.18	-53.1	-55.3	6.2	0.00e+00	0	47	104	11165237248	76	19936
2026-01-17 13:16:38.58	346.22	12.18	-53.1	-55.3	6.2	0.00e+00	0	47	104	11165237248	76	19944
2026-01-17 13:16:40.60	345.66	12.18	-53.1	-55.2	6.2	0.00e+00	0	47	104	11165237248	76	19877
2026-01-17 13:16:42.62	345.09	12.18	-53.1	-55.2	6.2	0.00e+00	0	46	104	11165237248	76	19889
2026-01-17 13:16:44.64	344.53	12.17	-53.1	-55.2	6.2	0.00e+00	0	47	104	11165237248	76	19917
2026-01-17 13:16:46.66	343.97	12.16	-53.1	-55.2	6.2	0.00e+00	0	47	104	11165237248	76	19926
2026-01-17 13:16:48.67	343.41	12.15	-53.1	-55.3	6.2	0.00e+00	0	47	104	11165237248	76	19952
2026-01-17 13:16:50.69	342.84	12.14	-53.1	-55.3	6.2	0.00e+00	0	46	104	11165237248	76	19968
2026-01-17 13:16:52.71	342.28	12.12	-53.1	-55.3	6.2	0.00e+00	0	46	104	11165237248	76	19936
2026-01-17 13:16:54.73	341.72	12.10	-53.1	-55.3	6.2	0.00e+00	0	46	104	11165237248	76	19937
2026-01-17 13:16:56.74	341.16	12.08	-53.1	-55.3	6.2	0.00e+00	0	46	104	11165237248	76	19978
2026-01-17 13:16:58.75	340.60	12.06	-53.1	-55.3	6.2	0.00e+00	0	47	104	11165237248	76	19947
2026-01-17 13:17:00.77	340.04	12.03	-53.1	-55.2	6.2	0.00e+00	0	46	104	11165237248	76	19920
2026-01-17 13:17:02.79	339.49	12.01	-53.1	-55.2	6.2	0.00e+00	0	46	104	11165237248	76	19922
2026-01-17 13:17:04.80	338.93	11.98	-53.1	-55.2	6.2	0.00e+00	0	46	104	11165237248	76	19889
2026-01-17 13:17:06.82	338.38	11.95	-53.1	-55.2	6.2	0.00e+00	0	46	104	11165237248	76	19907
2026-01-17 13:17:08.84	337.82	11.91	-53.1	-55.3	6.2	0.00e+00	0	46	104	11165237248	76	19965
2026-01-17 13:17:10.86	337.27	11.88	-53.1	-55.2	6.2	0.00e+00	0	46	104	11165237248	76	19922
2026-01-17 13:17:12.87	336.72	11.84	-53.1	-55.3	6.2	0.00e+00	0	46	104	11165237248	76	19971
2026-01-17 13:17:14.89	336.18	11.80	-53.1	-55.2	6.2	0.00e+00	0	46	104	11165237248	76	19845
2026-01-17 13:17:16.90	335.63	11.76	-53.1	-55.3	6.2	0.00e+00	0	46	104	11165237248	76	19962
2026-01-17 13:17:18.92	335.09	11.71	-53.1	-55.2	6.2	0.00e+00	0	46	104	11165237248	76	19911
2026-01-17 13:17:20.94	334.55	11.66	-53.1	-55.3	6.2	0.00e+00	0	46	104	11165237248	76	19939
2026-01-17 13:17:22.95	334.01	11.62	-53.1	-55.2	6.2	0.00e+00	0	46	104	11165237248	76	19879
2026-01-17 13:17:24.97	333.47	11.57	-53.1	-55.3	6.2	0.00e+00	0	46	104	11165237248	76	19938
2026-01-17 13:17:26.98	332.94	11.51	-53.1	-55.2	6.2	0.00e+00	0	46	104	11165237248	76	19805
2026-01-17 13:17:29.00	332.40	11.46	-53.1	-55.2	6.2	0.00e+00	0	46	104	11165237248	76	19888
2026-01-17 13:17:31.02	331.87	11.40	-53.1	-55.2	6.2	0.00e+00	0	46	104	11165237248	76	19809
2026-01-17 13:17:33.04	331.34	11.34	-53.1	-55.2	6.2	0.00e+00	0	46	104	11165237248	76	19883
2026-01-17 13:17:35.05	330.82	11.29	-53.1	-55.2	6.2	0.00e+00	0	46	104	11165237248	76	19758
2026-01-17 13:17:37.07	330.30	11.22	-53.1	-55.2	6.2	0.00e+00	0	46	104	11165237248	76	19870
2026-01-17 13:17:39.09	329.78	11.16	-53.1	-55.2	6.2	0.00e+00	0	46	104	11165237248	76	19806
2026-01-17 13:17:41.10	329.26	11.10	-53.1	-55.2	6.2	0.00e+00	0	46	104	11165237248	76	19824
2026-01-17 13:17:43.12	328.74	11.03	-53.1	-55.2	6.2	0.00e+00	0	46	104	11165237248	76	19762
2026-01-17 13:17:45.13	328.23	10.96	-53.1	-55.2	6.2	0.00e+00	0	46	104	11165237248	76	19879
2026-01-17 13:17:47.15	327.73	10.89	-53.0	-55.2	6.2	0.00e+00	0	46	104	11165237248	76	19743
2026-01-17 13:17:49.17	327.22	10.82	-53.1	-55.2	6.2	0.00e+00	0	46	104	11165237248	76	19828
2026-01-17 13:17:51.18	326.72	10.75	-53.0	-55.2	6.2	0.00e+00	0	46	104	11165237248	76	19712
2026-01-17 13:17:53.20	326.22	10.67	-53.1	-55.2	6.2	0.00e+00	0	46	104	11165237248	76	19797
2026-01-17 13:17:55.22	325.72	10.59	-53.0	-55.1	6.2	0.00e+00	0	46	104	11165237248	76	19670
2026-01-17 13:17:57.24	325.23	10.52	-53.1	-55.2	6.2	0.00e+00	0	46	104	11165237248	76	19764
2026-01-17 13:17:59.25	324.74	10.44	-53.0	-55.1	6.2	0.00e+00	0	46	104	11165237248	76	19666
2026-01-17 13:18:01.27	324.25	10.36	-53.0	-55.2	6.2	0.00e+00	0	46	104	11165237248	76	19727
2026-01-17 13:18:03.28	323.77	10.28	-53.0	-55.1	6.2	0.00e+00	0	46	104	11165237248	76	19677
2026-01-17 13:18:05.30	323.29	10.19	-53.0	-55.2	6.2	0.00e+00	0	46	104	11165237248	76	19747
2026-01-17 13:18:07.31	322.82	10.11	-53.0	-55.1	6.2	0.00e+00	0	46	104	11165237248	76	19605
2026-01-17 13:18:09.33	322.34	10.02	-53.0	-55.1	6.2	0.00e+00	0	46	104	11165237248	76	19647
2026-01-17 13:18:11.35	321.87	9.94	-53.0	-55.1	6.2	0.00e+00	0	46	104	11165237248	76	19612
2026-01-17 13:18:13.36	321.41	9.85	-53.0	-55.1	6.2	0.00e+00	0	46	104	11165237248	76	19617
2026-01-17 13:18:15.38	320.94	9.76	-53.0	-55.1	6.2	0.00e+00	0	46	104	11165237248	76	19564
2026-01-17 13:18:17.39	320.48	9.67	-53.0	-55.2	6.2	0.00e+00	0	46	104	11165237248	76	19718
2026-01-17 13:18:19.41	320.03	9.58	-52.9	-55.1	6.2	0.00e+00	0	46	104	11165237248	76	19536
2026-01-17 13:18:21.42	319.58	9.49	-53.0	-55.1	6.2	0.00e+00	0	46	104	11165237248	76	19625
2026-01-17 13:18:23.44	319.13	9.39	-52.9	-55.1	6.2	0.00e+00	0	46	104	11165237248	76	19494
2026-01-17 13:18:25.45	318.68	9.30	-53.0	-55.1	6.2	0.00e+00	0	46	104	11165237248	76	19633
2026-01-17 13:18:27.47	318.24	9.20	-52.9	-55.1	6.2	0.00e+00	0	46	104	11165237248	76	19515
2026-01-17 13:18:29.49	317.80	9.11	-53.0	-55.1	6.2	0.00e+00	0	46	104	11165237248	76	19575
2026-01-17 13:18:31.50	317.37	9.01	-52.9	-55.0	6.2	0.00e+00	0	46	104	11165237248	76	19450
2026-01-17 13:18:33.52	316.94	8.91	-53.0	-55.1	6.2	0.00e+00	0	46	104	11165237248	76	19532
2026-01-17 13:18:35.54	316.51	8.82	-52.9	-55.0	6.2	0.00e+00	0	46	104	11165237248	76	19454
2026-01-17 13:18:37.55	316.09	8.72	-53.0	-55.1	6.2	0.00e+00	0	46	104	11165237248	76	19584
2026-01-17 13:18:39.57	315.67	8.62	-52.9	-55.0	6.2	0.00e+00	0	46	104	11165237248	76	19393
2026-01-17 13:18:41.58	315.25	8.52	-53.0	-55.1	6.2	0.00e+00	0	46	104	11165237248	76	19530
2026-01-17 13:18:43.60	314.84	8.42	-52.9	-55.0	6.2	0.00e+00	0	45	104	11165237248	76	19353
2026-01-17 13:18:45.61	314.43	8.31	-52.9	-55.1	6.2	0.00e+00	0	46	104	11165237248	76	19481
2026-01-17 13:18:47.63	314.02	8.21	-52.8	-55.0	6.2	0.00e+00	0	46	104	11165237248	76	19333
2026-01-17 13:18:49.65	313.62	8.11	-52.9	-55.0	6.2	0.00e+00	0	46	104	11165237248	76	19442
2026-01-17 13:18:51.66	313.22	8.00	-52.8	-54.9	6.2	0.00e+00	0	46	104	11165237248	76	19218
2026-01-17 13:18:53.68	312.83	7.90	-52.9	-55.0	6.2	0.00e+00	0	46	104	11165237248	76	19385
2026-01-17 13:18:55.69	312.44	7.80	-52.8	-54.9	6.2	0.00e+00	0	46	104	11165237248	76	19233
2026-01-17 13:18:57.71	312.05	7.69	-52.9	-55.0	6.2	0.00e+00	0	46	104	11165237248	76	19347
2026-01-17 13:18:59.73	311.66	7.59	-52.8	-54.9	6.2	0.00e+00	0	46	104	11165237248	76	19182
2026-01-17 13:19:01.74	311.28	7.48	-52.9	-55.0	6.2	0.00e+00	0	46	104	11165237248	76	19265
2026-01-17 13:19:03.76	310.91	7.37	-52.8	-54.9	6.2	0.00e+00	0	46	104	11165237248	76	19166
2026-01-17 13:19:05.77	310.53	7.27	-52.8	-55.0	6.2	0.00e+00	0	46	104	11165237248	76	19310
2026-01-17 13:19:07.79	310.16	7.16	-52.7	-54.9	6.2	0.00e+00	0	46	104	11165237248	76	19090
2026-01-17 13:19:09.80	309.79	7.05	-52.8	-54.9	6.2	0.00e+00	0	46	104	11165237248	76	19204
2026-01-17 13:19:11.82	309.43	6.94	-52.7	-54.9	6.2	0.00e+00	0	46	104	11165237248	76	19036
2026-01-17 13:19:13.84	309.07	6.84	-52.8	-54.9	6.2	0.00e+00	0	46	104	11165237248	76	19201
2026-01-17 13:19:15.85	308.71	6.73	-52.7	-54.8	6.2	0.00e+00	0	46	104	11165237248	76	18948
2026-01-17 13:19:17.87	308.36	6.62	-52.8	-54.9	6.2	0.00e+00	0	46	104	11165237248	76	19236
2026-01-17 13:19:19.89	308.01	6.51	-52.7	-54.8	6.2	0.00e+00	0	46	104	11165237248	76	18930
2026-01-17 13:19:21.90	307.66	6.40	-52.8	-54.9	6.2	0.00e+00	0	46	104	11165237248	76	19072
2026-01-17 13:19:23.92	307.32	6.29	-52.6	-54.8	6.2	0.00e+00	0	46	104	11165237248	76	18876
2026-01-17 13:19:25.93	306.98	6.18	-52.7	-54.8	6.2	0.00e+00	0	46	104	11165237248	76	19034
2026-01-17 13:19:27.95	306.64	6.07	-52.6	-54.7	6.2	0.00e+00	0	46	104	11165237248	76	18766
2026-01-17 13:19:29.96	306.31	5.96	-52.7	-54.8	6.2	0.00e+00	0	46	104	11165237248	76	19031
2026-01-17 13:19:31.98	305.98	5.85	-52.6	-54.7	6.2	0.00e+00	0	46	104	11165237248	76	18636
2026-01-17 13:19:34.00	305.65	5.74	-52.7	-54.8	6.2	0.00e+00	0	46	104	11165237248	76	18982
2026-01-17 13:19:36.01	305.32	5.63	-52.5	-54.6	6.2	0.00e+00	0	46	104	11165237248	76	18602
2026-01-17 13:19:38.03	305.00	5.52	-52.7	-54.8	6.2	0.00e+00	0	46	104	11165237248	76	18865
2026-01-17 13:19:40.04	304.68	5.41	-52.5	-54.6	6.2	0.00e+00	0	46	104	11165237248	76	18561
2026-01-17 13:19:42.06	304.37	5.30	-52.6	-54.7	6.2	0.00e+00	0	46	104	11165237248	76	18807
2026-01-17 13:19:44.08	304.06	5.19	-52.4	-54.6	6.2	0.00e+00	0	46	104	11165237248	76	18447
2026-01-17 13:19:46.09	303.75	5.08	-52.6	-54.7	6.2	0.00e+00	0	46	104	11165237248	76	18723
2026-01-17 13:19:48.11	303.44	4.97	-52.5	-54.6	6.2	0.00e+00	0	46	104	11165237248	76	18555
2026-01-17 13:19:50.12	303.14	4.86	-53.1	-55.2	6.2	0.00e+00	0	46	104	11165237248	76	19781
2026-01-17 13:19:52.14	302.84	4.75	-53.5	-55.6	6.2	0.00e+00	0	46	104	11165237248	77	19565
2026-01-17 13:19:54.16	302.54	4.64	-53.7	-55.9	6.2	0.00e+00	0	46	104	11165237248	77	20185
2026-01-17 13:19:56.18	302.24	4.52	-53.9	-56.1	6.2	0.00e+00	0	46	104	11165237248	78	19518
2026-01-17 13:19:58.20	301.95	4.41	-54.1	-56.2	6.2	0.00e+00	0	46	104	11165237248	78	19781
2026-01-17 13:20:00.21	301.66	4.30	-54.2	-56.3	6.2	0.00e+00	0	46	104	11165237248	78	20009
2026-01-17 13:20:02.23	301.38	4.19	-54.2	-56.4	6.2	0.00e+00	0	46	104	11165237248	79	19037
2026-01-17 13:20:04.24	301.10	4.08	-54.3	-56.4	6.2	0.00e+00	0	46	104	11165237248	79	19138
2026-01-17 13:20:06.26	300.81	3.97	-54.3	-56.5	6.2	0.00e+00	0	46	104	11165237248	79	19299
2026-01-17 13:20:08.28	300.54	3.86	-54.3	-56.5	6.2	0.00e+00	0	46	104	11165237248	79	19317
2026-01-17 13:20:10.30	300.26	3.75	-54.3	-56.4	6.2	0.00e+00	0	46	104	11165237248	79	19213
2026-01-17 13:20:12.31	299.99	3.64	-54.3	-56.4	6.2	0.00e+00	0	46	104	11165237248	79	19187
2026-01-17 13:20:14.33	299.72	3.53	-54.2	-56.4	6.2	0.00e+00	0	46	104	11165237248	79	19121
2026-01-17 13:20:16.34	299.45	3.42	-54.2	-56.4	6.2	0.00e+00	0	46	104	11165237248	79	19056
2026-01-17 13:20:18.36	299.19	3.31	-54.2	-56.3	6.2	0.00e+00	0	46	104	11165237248	79	18970
2026-01-17 13:20:20.37	298.93	3.20	-54.2	-56.3	6.2	0.00e+00	0	46	104	11165237248	79	18949
2026-01-17 13:20:22.39	298.67	3.09	-54.2	-56.3	6.2	0.00e+00	0	46	104	11165237248	79	18957
2026-01-17 13:20:24.41	298.41	2.98	-54.2	-56.3	6.2	0.00e+00	0	46	104	11165237248	79	18921
2026-01-17 13:20:26.42	298.15	2.87	-54.2	-56.3	6.2	0.00e+00	0	46	104	11165237248	79	18879
2026-01-17 13:20:28.44	297.90	2.76	-54.1	-56.3	6.2	0.00e+00	0	46	104	11165237248	79	18853
2026-01-17 13:20:30.45	297.65	2.65	-54.1	-56.3	6.2	0.00e+00	0	46	104	11165237248	79	18881
2026-01-17 13:20:32.47	297.40	2.54	-54.1	-56.3	6.2	0.00e+00	0	46	104	11165237248	79	18878
2026-01-17 13:20:34.49	297.16	2.43	-54.1	-56.3	6.2	0.00e+00	0	46	104	11165237248	79	18903
2026-01-17 13:20:36.50	296.92	2.33	-54.1	-56.3	6.2	0.00e+00	0	46	104	11165237248	79	18893
2026-01-17 13:20:38.52	296.68	2.22	-54.1	-56.3	6.2	0.00e+00	0	46	104	11165237248	79	18832
2026-01-17 13:20:40.54	296.44	2.11	-54.1	-56.2	6.2	0.00e+00	0	46	104	11165237248	79	18815
2026-01-17 13:20:42.55	296.20	2.00	-54.1	-56.2	6.2	0.00e+00	0	46	104	11165237248	79	18815

#Closed at: 2026-01-17 13:20:43
#Recorded file [11165 MB]: D:/lorett/data/31041_260117_161232.dat