passes_logs/2026/01/17/R3.2S_Murmansk/R3.2S_Murmansk__20260117_081952_KANOPUS-V_5_rec.log

#Pass ID: 20260117_081952_KANOPUS-V 5
#Satellite: KANOPUS-V 5
#Configuration: KANOPUS-V_8320
#almurnet v.1.7.20251203
#Start time: 2026-01-17 08:24:35

#Version: 2.2.20231116
#Station: R3.2S_Murmansk
#Location: 33.079688 lon 68.888172 lat
#TLE: 1 43876U 18111A   26016.61566373  .00002373  00000+0  10257-3 0  9994
#TLE: 2 43876  97.3688 285.1004 0001785  87.8669 272.2772 15.23445052391717

#Time	Az	El	Level	Level2	SNR	BER	BlckErr	Temp	State	Recorded	gain1	gain2
2026-01-17 08:24:35.54	228.73	46.81	-53.6	-65.6	3.8	8.46e-01	0	34	0	0	78	14567
2026-01-17 08:24:37.54	230.45	47.28	-54.5	-63.3	3.8	7.45e-01	0	34	104	0	80	9986
2026-01-17 08:24:39.56	232.23	47.73	-54.5	-63.3	3.8	7.46e-01	0	35	104	0	80	10040
2026-01-17 08:24:41.58	234.07	48.15	-54.5	-63.3	3.8	7.43e-01	0	34	104	0	80	10022
2026-01-17 08:24:43.60	235.96	48.55	-54.5	-63.4	3.8	7.46e-01	0	34	104	0	80	10082
2026-01-17 08:24:45.61	237.88	48.91	-54.5	-63.3	3.8	7.45e-01	0	35	104	0	80	10023
2026-01-17 08:24:47.63	239.86	49.25	-54.5	-63.3	3.8	7.45e-01	0	34	104	0	80	10009
2026-01-17 08:24:49.65	241.89	49.55	-54.4	-63.3	3.8	7.45e-01	0	35	104	0	80	9946
2026-01-17 08:24:51.67	243.95	49.82	-54.4	-63.3	3.8	7.45e-01	0	35	104	0	80	9952
2026-01-17 08:24:53.68	246.04	50.04	-54.4	-63.3	3.8	7.45e-01	0	34	104	0	80	9956
2026-01-17 08:24:55.70	248.16	50.23	-54.4	-63.2	3.8	7.46e-01	0	34	104	0	80	9911
2026-01-17 08:24:57.72	250.31	50.38	-54.4	-63.3	3.8	7.45e-01	0	35	104	0	80	9945
2026-01-17 08:24:59.74	252.48	50.49	-54.4	-63.2	3.8	7.44e-01	0	35	104	0	80	9922
2026-01-17 08:25:01.75	254.66	50.56	-54.4	-63.2	3.8	7.46e-01	0	35	104	0	80	9914
2026-01-17 08:25:03.77	256.85	50.59	-54.4	-63.2	3.8	7.47e-01	0	35	104	0	80	9938
2026-01-17 08:25:05.79	259.03	50.57	-54.4	-63.2	3.8	7.44e-01	0	35	104	0	80	9886
2026-01-17 08:25:07.81	261.22	50.51	-54.4	-63.2	3.8	7.47e-01	0	35	104	0	80	9908
2026-01-17 08:25:09.82	263.38	50.41	-54.4	-63.2	3.8	7.44e-01	0	35	104	0	80	9917
2026-01-17 08:25:11.84	265.53	50.27	-54.4	-63.2	3.8	7.45e-01	0	35	104	0	80	9863
2026-01-17 08:25:13.86	267.66	50.08	-54.4	-63.2	3.8	7.47e-01	0	35	104	0	80	9868
2026-01-17 08:25:15.88	269.76	49.86	-54.4	-63.2	3.8	7.46e-01	0	35	104	0	80	9856
2026-01-17 08:25:17.89	271.82	49.60	-54.4	-63.2	3.8	7.44e-01	0	35	104	0	80	9925
2026-01-17 08:25:19.91	273.85	49.31	-54.4	-63.2	3.8	7.44e-01	0	35	104	0	80	9851
2026-01-17 08:25:21.92	275.83	48.98	-54.4	-63.1	3.8	7.46e-01	0	35	104	0	80	9729
2026-01-17 08:25:23.94	277.77	48.62	-54.2	-62.6	3.8	7.46e-01	0	35	104	0	80	9193
2026-01-17 08:25:25.96	279.66	48.23	-54.4	-63.3	3.8	7.45e-01	0	35	104	0	79	10554
2026-01-17 08:25:27.97	281.50	47.81	-54.2	-62.2	3.8	7.44e-01	0	35	104	10485760	78	9935
2026-01-17 08:25:29.99	283.29	47.37	-41.5	-43.6	17.4	5.96e-01	0	35	0	20971520	55	4373
2026-01-17 08:25:32.01	285.03	46.91	-46.6	-49.1	12.9	5.98e-01	0	35	0	52428800	64	4883
2026-01-17 08:25:34.02	286.71	46.42	-42.9	-45.2	16.1	6.00e-01	0	35	0	81788928	56	4977
2026-01-17 08:25:36.05	288.35	45.92	-38.9	-41.0	19.2	5.96e-01	0	35	0	115343360	49	4546
2026-01-17 08:25:38.06	289.92	45.40	-39.0	-41.1	19.1	6.04e-01	0	35	0	144703488	49	4608
2026-01-17 08:25:40.08	291.45	44.86	-39.2	-41.2	19.0	6.05e-01	0	35	0	176160768	49	4691
2026-01-17 08:25:42.10	292.92	44.32	-39.3	-41.3	19.0	6.04e-01	0	35	0	207618048	49	4730
2026-01-17 08:25:44.11	294.33	43.76	-39.4	-41.4	18.9	6.06e-01	0	35	0	236978176	49	4766
2026-01-17 08:25:46.13	295.70	43.19	-39.5	-41.6	18.8	6.06e-01	0	35	0	268435456	49	4891
2026-01-17 08:25:48.14	297.02	42.62	-39.8	-41.9	18.7	6.05e-01	0	35	0	299892736	50	4777
2026-01-17 08:25:50.16	298.29	42.04	-40.4	-42.6	18.2	6.01e-01	0	35	0	331350016	51	4910
2026-01-17 08:25:52.18	299.52	41.46	-40.4	-42.3	18.3	6.04e-01	0	35	0	362807296	51	4737
2026-01-17 08:25:54.19	300.69	40.88	-40.4	-42.3	18.4	6.04e-01	0	35	0	392167424	51	4734
2026-01-17 08:25:56.21	301.83	40.29	-40.4	-42.4	18.3	6.03e-01	0	35	0	423624704	51	4774
2026-01-17 08:25:58.22	302.92	39.71	-40.4	-42.2	18.5	6.05e-01	0	35	0	452984832	51	4661
2026-01-17 08:26:00.24	303.98	39.12	-40.5	-42.3	18.4	6.04e-01	0	35	0	484442112	51	4710
2026-01-17 08:26:02.26	304.99	38.53	-40.5	-42.4	18.3	6.02e-01	0	35	0	515899392	51	4779
2026-01-17 08:26:04.27	305.97	37.95	-40.3	-42.3	18.4	6.02e-01	0	35	0	547356672	51	4709
2026-01-17 08:26:06.29	306.91	37.37	-40.5	-42.5	18.3	6.04e-01	0	35	0	578813952	51	4845
2026-01-17 08:26:08.30	307.82	36.80	-40.5	-42.4	18.3	6.03e-01	0	35	0	608174080	51	4764
2026-01-17 08:26:10.32	308.69	36.23	-40.6	-42.4	18.4	6.01e-01	0	35	0	639631360	51	4763
2026-01-17 08:26:12.34	309.54	35.66	-40.5	-42.3	18.4	6.03e-01	0	35	0	671088640	51	4726
2026-01-17 08:26:14.35	310.35	35.10	-40.5	-42.4	18.3	6.01e-01	0	35	0	702545920	51	4788
2026-01-17 08:26:16.37	311.13	34.55	-40.6	-42.5	18.2	6.01e-01	0	35	0	734003200	52	4575
2026-01-17 08:26:18.39	311.89	34.00	-40.5	-42.4	18.2	6.01e-01	0	35	0	763363328	52	4537
2026-01-17 08:26:20.40	312.62	33.45	-40.4	-42.3	18.4	6.00e-01	0	35	0	794820608	52	4458
2026-01-17 08:26:22.42	313.33	32.92	-40.1	-42.0	18.5	6.01e-01	0	35	0	826277888	52	4318
2026-01-17 08:26:24.43	314.01	32.39	-40.2	-42.1	18.4	6.03e-01	0	35	0	855638016	52	4370
2026-01-17 08:26:26.45	314.67	31.87	-40.3	-42.2	18.4	6.01e-01	0	35	0	889192448	52	4404
2026-01-17 08:26:28.47	315.30	31.35	-40.3	-42.3	18.3	6.05e-01	0	35	0	918552576	52	4459
2026-01-17 08:26:30.48	315.92	30.84	-40.5	-42.5	18.2	6.05e-01	0	35	0	950009856	52	4546
2026-01-17 08:26:32.49	316.51	30.34	-40.4	-42.4	18.3	6.03e-01	0	35	0	981467136	52	4511
2026-01-17 08:26:34.51	317.09	29.85	-40.3	-42.2	18.3	6.02e-01	0	35	0	1010827264	52	4441
2026-01-17 08:26:36.52	317.64	29.36	-40.3	-42.2	18.3	6.01e-01	0	35	0	1042284544	52	4406
2026-01-17 08:26:38.54	318.18	28.88	-40.2	-42.0	18.5	6.03e-01	0	35	0	1073741824	52	4335
2026-01-17 08:26:40.56	318.71	28.41	-40.2	-42.0	18.4	6.05e-01	0	35	0	1105199104	52	4329
2026-01-17 08:26:42.58	319.22	27.95	-40.0	-41.8	18.6	6.00e-01	0	35	0	1136656384	52	4235
2026-01-17 08:26:44.59	319.71	27.49	-40.1	-42.0	18.5	6.02e-01	0	35	0	1166016512	51	4587
2026-01-17 08:26:46.61	320.18	27.04	-40.2	-42.1	18.4	6.03e-01	0	35	0	1197473792	51	4649
2026-01-17 08:26:48.62	320.65	26.60	-40.3	-42.3	18.3	6.02e-01	0	35	0	1228931072	51	4712
2026-01-17 08:26:50.64	321.09	26.16	-40.4	-42.4	18.2	6.01e-01	0	35	0	1260388352	51	4794
2026-01-17 08:26:52.66	321.53	25.73	-40.5	-42.5	18.2	6.01e-01	0	35	0	1291845632	51	4821
2026-01-17 08:26:54.68	321.96	25.31	-40.6	-42.6	18.1	6.00e-01	0	35	0	1321205760	51	4882
2026-01-17 08:26:56.69	322.36	24.89	-40.6	-42.6	18.0	6.05e-01	0	35	0	1352663040	51	4895
2026-01-17 08:26:58.71	322.77	24.48	-40.6	-42.6	18.1	6.04e-01	0	35	0	1384120320	51	4889
2026-01-17 08:27:00.72	323.15	24.08	-40.6	-42.6	18.0	6.02e-01	0	35	0	1413480448	52	4613
2026-01-17 08:27:02.74	323.53	23.68	-40.6	-42.5	18.0	6.01e-01	0	35	0	1444937728	52	4594
2026-01-17 08:27:04.75	323.90	23.29	-40.6	-42.5	18.1	6.04e-01	0	35	0	1476395008	52	4577
2026-01-17 08:27:06.77	324.26	22.91	-40.7	-42.6	18.0	6.03e-01	0	35	0	1507852288	52	4630
2026-01-17 08:27:08.78	324.60	22.53	-40.7	-42.7	17.9	6.05e-01	0	35	0	1539309568	52	4687
2026-01-17 08:27:10.80	324.94	22.16	-40.9	-42.8	17.8	6.04e-01	0	35	0	1568669696	52	4755
2026-01-17 08:27:12.82	325.27	21.79	-41.0	-43.0	17.6	6.05e-01	0	35	0	1600126976	52	4864
2026-01-17 08:27:14.83	325.59	21.43	-41.1	-43.1	17.5	6.04e-01	0	35	0	1629487104	52	4906
2026-01-17 08:27:16.85	325.91	21.08	-41.3	-43.3	17.4	6.03e-01	0	35	0	1663041536	53	4739
2026-01-17 08:27:18.86	326.21	20.73	-41.4	-43.4	17.4	6.03e-01	0	35	0	1694498816	53	4771
2026-01-17 08:27:20.88	326.51	20.38	-41.4	-43.4	17.3	6.04e-01	0	35	0	1723858944	53	4791
2026-01-17 08:27:22.90	326.81	20.04	-41.6	-43.6	17.2	6.02e-01	0	35	0	1755316224	53	4874
2026-01-17 08:27:24.91	327.09	19.71	-41.6	-43.6	17.2	5.98e-01	0	35	0	1784676352	53	4919
2026-01-17 08:27:26.93	327.37	19.38	-41.8	-43.8	17.0	6.02e-01	0	35	0	1816133632	54	4724
2026-01-17 08:27:28.95	327.64	19.06	-41.9	-43.9	16.9	6.01e-01	0	35	0	1847590912	54	4813
2026-01-17 08:27:30.97	327.90	18.74	-42.0	-44.1	16.8	5.99e-01	0	35	0	1879048192	54	4910
2026-01-17 08:27:32.98	328.16	18.42	-42.1	-44.3	16.6	6.04e-01	0	35	0	1910505472	54	4987
2026-01-17 08:27:35.00	328.41	18.11	-42.2	-44.5	16.5	5.75e-01	0	35	0	1939865600	55	4824
2026-01-17 08:27:37.01	328.66	17.81	-42.4	-44.7	16.3	5.74e-01	0	35	0	1971322880	55	4948
2026-01-17 08:27:39.03	328.90	17.51	-42.5	-44.9	16.3	5.75e-01	0	35	0	2002780160	55	5045
2026-01-17 08:27:41.05	329.14	17.21	-42.5	-44.8	16.2	5.74e-01	0	35	0	2034237440	55	5027
2026-01-17 08:27:43.07	329.37	16.92	-42.6	-44.8	16.1	5.75e-01	0	35	0	2065694720	56	4738
2026-01-17 08:27:45.08	329.60	16.63	-44.0	-44.9	16.0	5.76e-01	0	35	0	2095054848	58	4274
2026-01-17 08:27:47.10	329.82	16.34	-53.9	-62.8	3.8	7.46e-01	0	35	104	2107637760	78	10609
2026-01-17 08:27:49.11	330.03	16.06	-53.9	-62.7	3.8	7.45e-01	0	35	104	2107637760	78	10530
2026-01-17 08:27:51.13	330.25	15.79	-53.9	-62.7	3.8	7.45e-01	0	35	104	2107637760	78	10454
2026-01-17 08:27:53.15	330.45	15.51	-53.8	-62.7	3.8	7.47e-01	0	35	104	2107637760	78	10439
2026-01-17 08:27:55.16	330.66	15.25	-53.8	-62.7	3.8	7.43e-01	0	35	104	2107637760	78	10476
2026-01-17 08:27:57.18	330.86	14.98	-53.8	-62.6	3.8	7.46e-01	0	35	104	2107637760	78	10408
2026-01-17 08:27:59.20	331.05	14.72	-53.8	-62.7	3.8	7.44e-01	0	35	104	2107637760	78	10424
2026-01-17 08:28:01.22	331.24	14.46	-53.8	-62.6	3.8	7.45e-01	0	35	104	2107637760	78	10363
2026-01-17 08:28:03.23	331.43	14.20	-53.8	-62.6	3.8	7.45e-01	0	35	104	2107637760	78	10343
2026-01-17 08:28:05.25	331.62	13.95	-53.8	-62.6	3.8	7.45e-01	0	35	104	2107637760	78	10357
2026-01-17 08:28:07.26	331.80	13.70	-53.7	-62.6	3.8	7.46e-01	0	35	104	2107637760	78	10298
2026-01-17 08:28:09.28	331.97	13.46	-53.7	-62.6	3.8	7.45e-01	0	35	104	2107637760	78	10315
2026-01-17 08:28:11.30	332.15	13.21	-53.7	-62.6	3.8	7.44e-01	0	35	104	2107637760	78	10300
2026-01-17 08:28:13.31	332.32	12.97	-53.7	-62.5	3.8	7.48e-01	0	35	104	2107637760	78	10248
2026-01-17 08:28:15.33	332.49	12.74	-53.7	-62.5	3.8	7.44e-01	0	35	104	2107637760	78	10249
2026-01-17 08:28:17.34	332.65	12.50	-53.6	-62.5	3.8	7.46e-01	0	35	104	2107637760	78	10255
2026-01-17 08:28:19.36	332.81	12.27	-53.6	-62.5	3.8	7.43e-01	0	35	104	2107637760	78	10222
2026-01-17 08:28:21.38	332.97	12.04	-53.6	-62.5	3.8	7.45e-01	0	35	104	2107637760	78	10189
2026-01-17 08:28:23.39	333.13	11.82	-53.6	-62.4	3.8	7.46e-01	0	35	104	2107637760	78	10158
2026-01-17 08:28:25.41	333.28	11.59	-53.6	-62.4	3.8	7.45e-01	0	35	104	2107637760	78	10158
2026-01-17 08:28:27.43	333.43	11.37	-53.6	-62.4	3.8	7.47e-01	0	35	104	2107637760	78	10139
2026-01-17 08:28:29.44	333.58	11.15	-53.6	-62.4	3.8	7.46e-01	0	35	104	2107637760	78	10065
2026-01-17 08:28:31.46	333.73	10.94	-53.5	-62.4	3.8	7.45e-01	0	35	104	2107637760	78	10087
2026-01-17 08:28:33.47	333.87	10.72	-53.5	-62.4	3.8	7.45e-01	0	35	104	2107637760	78	10095
2026-01-17 08:28:35.49	334.01	10.51	-53.5	-62.3	3.8	7.44e-01	0	35	104	2107637760	78	10037
2026-01-17 08:28:37.51	334.15	10.30	-53.5	-62.3	3.8	7.44e-01	0	35	104	2107637760	78	10025
2026-01-17 08:28:39.52	334.29	10.10	-53.5	-62.3	3.8	7.43e-01	0	35	104	2107637760	78	9973
2026-01-17 08:28:41.54	334.42	9.89	-53.4	-62.3	3.8	7.45e-01	0	35	104	2107637760	78	10008
2026-01-17 08:28:43.56	334.55	9.69	-53.4	-62.3	3.8	7.47e-01	0	35	104	2107637760	78	9964
2026-01-17 08:28:45.58	334.68	9.49	-53.4	-62.3	3.8	7.46e-01	0	35	104	2107637760	78	9957
2026-01-17 08:28:47.60	334.81	9.29	-53.4	-62.2	3.8	7.45e-01	0	35	104	2107637760	78	9903
2026-01-17 08:28:49.61	334.94	9.10	-53.4	-62.2	3.8	7.46e-01	0	35	104	2107637760	78	9901
2026-01-17 08:28:51.63	335.06	8.90	-53.4	-62.2	3.8	7.46e-01	0	35	104	2107637760	78	9898
2026-01-17 08:28:53.65	335.18	8.71	-53.4	-62.2	3.8	7.46e-01	0	35	104	2107637760	78	9893
2026-01-17 08:28:55.67	335.30	8.52	-53.3	-62.2	3.8	7.45e-01	0	35	104	2107637760	78	9885
2026-01-17 08:28:57.68	335.42	8.33	-53.3	-62.2	3.8	7.45e-01	0	35	104	2107637760	78	9843
2026-01-17 08:28:59.70	335.54	8.14	-53.3	-62.2	3.8	7.45e-01	0	35	104	2107637760	78	9842
2026-01-17 08:29:01.72	335.65	7.96	-53.3	-62.1	3.8	7.46e-01	0	35	104	2107637760	78	9814
2026-01-17 08:29:03.73	335.77	7.77	-53.3	-62.1	3.8	7.45e-01	0	35	104	2107637760	78	9767
2026-01-17 08:29:05.75	335.88	7.59	-53.2	-62.1	3.8	7.45e-01	0	35	104	2107637760	78	9765
2026-01-17 08:29:07.77	335.99	7.41	-53.2	-62.0	3.8	7.44e-01	0	35	104	2107637760	78	9705
2026-01-17 08:29:09.79	336.10	7.23	-53.2	-62.0	3.8	7.45e-01	0	35	104	2107637760	78	9693
2026-01-17 08:29:11.80	336.20	7.06	-53.2	-62.0	3.8	7.44e-01	0	35	104	2107637760	78	9696
2026-01-17 08:29:13.82	336.31	6.88	-53.2	-62.0	3.8	7.45e-01	0	35	104	2107637760	78	9640
2026-01-17 08:29:15.84	336.41	6.71	-53.1	-62.0	3.8	7.45e-01	0	35	104	2107637760	78	9631
2026-01-17 08:29:17.86	336.52	6.53	-53.1	-62.0	3.8	7.47e-01	0	35	104	2107637760	78	9627
2026-01-17 08:29:19.87	336.62	6.36	-53.1	-61.9	3.8	7.45e-01	0	35	104	2107637760	78	9593
2026-01-17 08:29:21.89	336.72	6.20	-53.1	-61.9	3.8	7.44e-01	0	35	104	2107637760	77	10139
2026-01-17 08:29:23.90	336.82	6.03	-53.0	-61.9	3.8	7.45e-01	0	35	104	2107637760	77	10070
2026-01-17 08:29:25.92	336.91	5.86	-53.0	-61.8	3.8	7.45e-01	0	35	104	2107637760	77	10051
2026-01-17 08:29:27.94	337.01	5.70	-53.0	-61.8	3.8	7.45e-01	0	35	104	2107637760	77	10002
2026-01-17 08:29:29.95	337.11	5.53	-53.0	-61.8	3.8	7.45e-01	0	35	104	2107637760	77	9985
2026-01-17 08:29:31.97	337.20	5.37	-52.9	-61.8	3.8	7.46e-01	0	35	104	2107637760	77	9956
2026-01-17 08:29:33.98	337.29	5.21	-52.9	-61.7	3.8	7.46e-01	0	35	104	2107637760	77	9932
2026-01-17 08:29:36.00	337.38	5.05	-52.9	-61.7	3.8	7.45e-01	0	35	104	2107637760	77	9877
2026-01-17 08:29:38.02	337.47	4.89	-53.4	-62.3	3.8	7.47e-01	0	35	104	2107637760	77	10566
2026-01-17 08:29:40.03	337.56	4.73	-53.9	-62.7	3.8	7.45e-01	0	35	104	2107637760	78	10480
2026-01-17 08:29:42.05	337.65	4.58	-54.1	-62.9	3.8	7.45e-01	0	35	104	2107637760	78	10735
2026-01-17 08:29:44.07	337.74	4.42	-54.3	-63.1	3.8	7.44e-01	0	35	104	2107637760	79	10323
2026-01-17 08:29:46.08	337.82	4.27	-54.4	-63.3	3.8	7.44e-01	0	35	104	2107637760	79	10534
2026-01-17 08:29:48.10	337.91	4.12	-54.5	-63.3	3.8	7.46e-01	0	35	104	2107637760	79	10614
2026-01-17 08:29:50.12	337.99	3.96	-54.5	-63.4	3.8	7.45e-01	0	35	104	2107637760	79	10658
2026-01-17 08:29:52.13	338.08	3.81	-54.5	-63.4	3.8	7.47e-01	0	35	104	2107637760	79	10669
2026-01-17 08:29:54.15	338.16	3.66	-54.5	-63.4	3.8	7.45e-01	0	35	104	2107637760	79	10719
2026-01-17 08:29:56.17	338.24	3.52	-54.5	-63.4	3.8	7.48e-01	0	35	104	2107637760	79	10687
2026-01-17 08:29:58.19	338.32	3.37	-54.5	-63.4	3.8	7.45e-01	0	35	104	2107637760	79	10715
2026-01-17 08:30:00.21	338.40	3.22	-54.5	-63.3	3.8	7.46e-01	0	35	104	2107637760	79	10610
2026-01-17 08:30:02.23	338.48	3.08	-54.5	-63.3	3.8	7.47e-01	0	35	104	2107637760	79	10649
2026-01-17 08:30:04.24	338.55	2.93	-54.5	-63.3	3.8	7.45e-01	0	35	104	2107637760	79	10616
2026-01-17 08:30:06.26	338.63	2.79	-54.5	-63.3	3.8	7.45e-01	0	35	104	2107637760	79	10633
2026-01-17 08:30:08.28	338.71	2.64	-54.5	-63.3	3.8	7.44e-01	0	35	104	2107637760	79	10621
2026-01-17 08:30:10.29	338.78	2.50	-54.5	-63.3	3.8	7.46e-01	0	35	104	2107637760	79	10619
2026-01-17 08:30:12.31	338.86	2.36	-54.4	-63.3	3.8	7.44e-01	0	35	104	2107637760	79	10602
2026-01-17 08:30:14.33	338.93	2.22	-54.4	-63.3	3.8	7.47e-01	0	35	104	2107637760	79	10573
2026-01-17 08:30:16.34	339.00	2.08	-54.4	-63.3	3.8	7.46e-01	0	35	104	2107637760	79	10576
2026-01-17 08:30:18.36	339.07	1.95	-54.4	-63.3	3.8	7.44e-01	0	35	104	2107637760	79	10569

#Closed at: 2026-01-17 08:30:19
#Recorded file [2107 MB]: D:/lorett/data/31041_260117_112435.dat