passes_logs/2026/01/17/R3.2S_Murmansk/R3.2S_Murmansk__20260117_193418_KANOPUS-V_5_rec.log

#Pass ID: 20260117_193418_KANOPUS-V 5
#Satellite: KANOPUS-V 5
#Configuration: KANOPUS-V_8320
#almurnet v.1.7.20251203
#Start time: 2026-01-17 19:34:19

#Version: 2.2.20231116
#Station: R3.2S_Murmansk
#Location: 33.079688 lon 68.888172 lat
#TLE: 1 43876U 18111A   26016.61566373  .00002373  00000+0  10257-3 0  9994
#TLE: 2 43876  97.3688 285.1004 0001785  87.8669 272.2772 15.23445052391717

#Time	Az	El	Level	Level2	SNR	BER	BlckErr	Temp	State	Recorded	gain1	gain2
2026-01-17 19:34:19.03	27.48	2.04	-52.8	-61.6	3.8	7.45e-01	0	33	0	0	77	9796
2026-01-17 19:34:21.04	27.76	2.14	-52.8	-61.7	3.8	7.46e-01	0	33	104	0	76	10444
2026-01-17 19:34:23.06	28.04	2.23	-52.8	-61.6	3.8	7.45e-01	0	33	104	0	76	10412
2026-01-17 19:34:25.08	28.32	2.33	-52.8	-61.6	3.8	7.45e-01	0	34	104	0	76	10386
2026-01-17 19:34:27.09	28.60	2.42	-52.8	-61.6	3.8	7.46e-01	0	33	104	0	76	10402
2026-01-17 19:34:29.11	28.88	2.52	-52.8	-61.6	3.8	7.46e-01	0	34	104	0	76	10365
2026-01-17 19:34:31.12	29.17	2.61	-52.8	-61.7	3.8	7.45e-01	0	34	104	0	76	10446
2026-01-17 19:34:33.14	29.46	2.71	-52.8	-61.6	3.8	7.43e-01	0	34	104	0	76	10411
2026-01-17 19:34:35.16	29.75	2.80	-52.8	-61.6	3.8	7.46e-01	0	34	104	0	76	10397
2026-01-17 19:34:37.17	30.04	2.90	-52.8	-61.6	3.8	7.45e-01	0	34	104	0	76	10396
2026-01-17 19:34:39.19	30.34	2.99	-52.8	-61.6	3.8	7.46e-01	0	34	104	0	76	10408
2026-01-17 19:34:41.21	30.64	3.09	-52.8	-61.6	3.8	7.46e-01	0	34	104	0	76	10371
2026-01-17 19:34:43.22	30.94	3.18	-52.8	-61.6	3.8	7.46e-01	0	34	104	0	76	10384
2026-01-17 19:34:45.24	31.24	3.28	-52.8	-61.6	3.8	7.45e-01	0	34	104	0	76	10392
2026-01-17 19:34:47.26	31.55	3.37	-52.8	-61.6	3.8	7.46e-01	0	34	104	0	76	10381
2026-01-17 19:34:49.27	31.86	3.47	-52.8	-61.6	3.8	7.44e-01	0	34	104	0	76	10411
2026-01-17 19:34:51.29	32.17	3.56	-52.8	-61.6	3.8	7.45e-01	0	34	104	0	76	10407
2026-01-17 19:34:53.30	32.48	3.65	-52.8	-61.7	3.8	7.46e-01	0	34	104	0	76	10420
2026-01-17 19:34:55.32	32.80	3.75	-52.8	-61.6	3.8	7.45e-01	0	34	104	0	76	10406
2026-01-17 19:34:57.33	33.12	3.84	-52.8	-61.6	3.8	7.44e-01	0	34	104	0	76	10410
2026-01-17 19:34:59.35	33.44	3.94	-52.8	-61.6	3.8	7.44e-01	0	34	104	0	76	10411
2026-01-17 19:35:01.36	33.76	4.03	-52.8	-61.7	3.8	7.44e-01	0	34	104	0	76	10416
2026-01-17 19:35:03.38	34.09	4.12	-52.8	-61.7	3.8	7.45e-01	0	35	104	0	76	10416
2026-01-17 19:35:05.40	34.41	4.22	-52.8	-61.6	3.8	7.44e-01	0	35	104	0	76	10389
2026-01-17 19:35:07.41	34.74	4.31	-52.8	-61.6	3.8	7.44e-01	0	34	104	0	76	10393
2026-01-17 19:35:09.43	35.08	4.40	-52.8	-61.6	3.8	7.45e-01	0	34	104	0	76	10407
2026-01-17 19:35:11.44	35.41	4.49	-52.8	-61.6	3.8	7.45e-01	0	35	104	0	76	10368
2026-01-17 19:35:13.46	35.75	4.58	-52.8	-61.6	3.8	7.45e-01	0	34	104	0	76	10390
2026-01-17 19:35:15.47	36.09	4.68	-52.8	-61.6	3.8	7.47e-01	0	35	104	0	76	10397
2026-01-17 19:35:17.49	36.44	4.77	-52.8	-61.6	3.8	7.46e-01	0	35	104	0	76	10398
2026-01-17 19:35:19.50	36.78	4.86	-52.8	-61.6	3.8	7.44e-01	0	35	104	0	76	10394
2026-01-17 19:35:21.52	37.13	4.95	-52.8	-61.6	3.8	7.45e-01	0	35	104	0	76	10394
2026-01-17 19:35:23.54	37.49	5.04	-52.9	-61.7	3.8	7.42e-01	0	35	104	0	76	10482
2026-01-17 19:35:25.55	37.84	5.13	-52.8	-61.7	3.8	7.45e-01	0	35	104	0	76	10449
2026-01-17 19:35:27.57	38.20	5.22	-52.9	-61.8	3.8	7.44e-01	0	35	104	0	76	10538
2026-01-17 19:35:29.58	38.56	5.31	-52.9	-61.7	3.8	7.45e-01	0	35	104	0	76	10485
2026-01-17 19:35:31.60	38.92	5.40	-52.9	-61.8	3.8	7.46e-01	0	35	104	0	76	10581
2026-01-17 19:35:33.61	39.29	5.49	-52.9	-61.8	3.8	7.45e-01	0	35	104	0	76	10552
2026-01-17 19:35:35.63	39.66	5.57	-53.0	-61.8	3.8	7.44e-01	0	35	104	0	76	10578
2026-01-17 19:35:37.64	40.03	5.66	-53.0	-61.8	3.8	7.45e-01	0	35	104	0	76	10554
2026-01-17 19:35:39.66	40.40	5.75	-53.1	-61.9	3.8	7.46e-01	0	35	104	0	76	10729
2026-01-17 19:35:41.68	40.78	5.83	-53.0	-61.8	3.8	7.44e-01	0	35	104	0	76	10623
2026-01-17 19:35:43.70	41.16	5.92	-53.1	-62.0	3.8	7.45e-01	0	35	104	0	76	10779
2026-01-17 19:35:45.71	41.54	6.01	-53.0	-61.9	3.8	7.46e-01	0	35	104	0	76	10680
2026-01-17 19:35:47.73	41.93	6.09	-53.1	-62.0	3.8	7.45e-01	0	35	104	0	76	10808
2026-01-17 19:35:49.74	42.31	6.18	-53.1	-61.9	3.8	7.45e-01	0	35	104	0	76	10730
2026-01-17 19:35:51.76	42.71	6.26	-53.2	-62.0	3.8	7.45e-01	0	35	104	0	76	10864
2026-01-17 19:35:53.78	43.10	6.34	-53.1	-62.0	3.8	7.46e-01	0	35	104	0	77	10186
2026-01-17 19:35:55.79	43.50	6.43	-53.2	-62.1	3.8	7.44e-01	0	35	104	0	77	10327
2026-01-17 19:35:57.81	43.90	6.51	-53.1	-62.0	3.8	7.44e-01	0	35	104	0	77	10201
2026-01-17 19:35:59.82	44.30	6.59	-53.3	-62.1	3.8	7.45e-01	0	35	104	0	77	10363
2026-01-17 19:36:01.84	44.70	6.67	-53.2	-62.0	3.8	7.45e-01	0	35	104	0	77	10247
2026-01-17 19:36:03.86	45.11	6.75	-53.3	-62.1	3.8	7.46e-01	0	35	104	0	77	10388
2026-01-17 19:36:05.87	45.52	6.83	-53.2	-62.1	3.8	7.46e-01	0	35	104	0	77	10317
2026-01-17 19:36:07.89	45.93	6.91	-53.3	-62.1	3.8	7.47e-01	0	35	104	0	77	10390
2026-01-17 19:36:09.90	46.35	6.99	-53.2	-62.1	3.8	7.45e-01	0	35	104	0	77	10329
2026-01-17 19:36:11.92	46.77	7.06	-53.3	-62.2	3.8	7.43e-01	0	35	104	0	77	10429
2026-01-17 19:36:13.94	47.19	7.14	-53.3	-62.1	3.8	7.46e-01	0	35	104	0	77	10341
2026-01-17 19:36:15.95	47.61	7.22	-53.4	-62.2	3.8	7.46e-01	0	35	104	0	77	10461
2026-01-17 19:36:17.96	48.04	7.29	-53.3	-62.1	3.8	7.45e-01	0	35	104	0	77	10370
2026-01-17 19:36:19.98	48.47	7.36	-53.4	-62.2	3.8	7.45e-01	0	35	104	0	77	10470
2026-01-17 19:36:22.00	48.90	7.44	-53.3	-62.1	3.8	7.45e-01	0	35	104	0	77	10398
2026-01-17 19:36:24.01	49.33	7.51	-53.4	-62.2	3.8	7.45e-01	0	35	104	0	77	10489
2026-01-17 19:36:26.03	49.77	7.58	-53.3	-62.1	3.8	7.46e-01	0	35	104	0	77	10369
2026-01-17 19:36:28.04	50.21	7.65	-53.4	-62.3	3.8	7.45e-01	0	35	104	0	77	10568
2026-01-17 19:36:30.06	50.65	7.72	-53.3	-62.2	3.8	7.46e-01	0	35	104	0	77	10463
2026-01-17 19:36:32.08	51.10	7.79	-53.4	-62.3	3.8	7.46e-01	0	35	104	0	77	10573
2026-01-17 19:36:34.10	51.55	7.86	-53.4	-62.2	3.8	7.46e-01	0	35	104	0	77	10438
2026-01-17 19:36:36.11	52.00	7.92	-53.4	-62.3	3.8	7.46e-01	0	35	104	0	77	10596
2026-01-17 19:36:38.13	52.45	7.99	-53.4	-62.2	3.8	7.46e-01	0	35	104	0	77	10456
2026-01-17 19:36:40.14	52.91	8.05	-53.4	-62.3	3.8	7.44e-01	0	35	104	0	77	10568
2026-01-17 19:36:42.16	53.36	8.11	-53.4	-62.2	3.8	7.45e-01	0	35	104	0	77	10469
2026-01-17 19:36:44.17	53.82	8.17	-53.4	-62.3	3.8	7.44e-01	0	35	104	0	77	10564
2026-01-17 19:36:46.19	54.29	8.24	-53.4	-62.2	3.8	7.45e-01	0	35	104	0	77	10498
2026-01-17 19:36:48.20	54.75	8.29	-53.5	-62.3	3.8	7.44e-01	0	35	104	0	77	10568
2026-01-17 19:36:50.22	55.22	8.35	-53.4	-62.2	3.8	7.46e-01	0	35	104	0	77	10528
2026-01-17 19:36:52.24	55.69	8.41	-53.4	-62.3	3.8	7.45e-01	0	35	104	0	77	10585
2026-01-17 19:36:54.26	56.16	8.47	-53.4	-62.2	3.8	7.44e-01	0	35	104	0	77	10478
2026-01-17 19:36:56.27	56.63	8.52	-53.5	-62.3	3.8	7.47e-01	0	35	104	0	77	10625
2026-01-17 19:36:58.29	57.11	8.57	-53.4	-62.2	3.8	7.47e-01	0	35	104	0	77	10500
2026-01-17 19:37:00.30	57.59	8.62	-53.5	-62.3	3.8	7.46e-01	0	35	104	0	77	10631
2026-01-17 19:37:02.32	58.07	8.67	-53.4	-62.2	3.8	7.48e-01	0	35	104	0	77	10520
2026-01-17 19:37:04.33	58.55	8.72	-53.5	-62.3	3.8	7.44e-01	0	35	104	0	77	10634
2026-01-17 19:37:06.35	59.03	8.77	-53.4	-62.3	3.8	7.45e-01	0	35	104	0	77	10560
2026-01-17 19:37:08.37	59.52	8.82	-53.5	-62.3	3.8	7.44e-01	0	35	104	0	77	10638
2026-01-17 19:37:10.38	60.01	8.86	-53.5	-62.3	3.8	7.45e-01	0	35	104	0	77	10588
2026-01-17 19:37:12.40	60.50	8.91	-53.5	-62.3	3.8	7.46e-01	0	35	104	0	77	10632
2026-01-17 19:37:14.41	60.99	8.95	-53.4	-62.3	3.8	7.44e-01	0	35	104	0	77	10567
2026-01-17 19:37:16.43	61.48	8.99	-53.5	-62.4	3.8	7.45e-01	0	35	104	0	77	10664
2026-01-17 19:37:18.44	61.97	9.03	-53.5	-62.3	3.8	7.45e-01	0	35	104	0	77	10612
2026-01-17 19:37:20.46	62.47	9.06	-53.5	-62.3	3.8	7.45e-01	0	35	104	0	77	10609
2026-01-17 19:37:22.48	62.97	9.10	-53.5	-62.2	3.8	7.46e-01	0	35	104	0	77	10530
2026-01-17 19:37:24.49	63.47	9.13	-53.5	-62.4	3.8	7.44e-01	0	35	104	0	77	10678
2026-01-17 19:37:26.51	63.97	9.17	-53.5	-62.3	3.8	7.45e-01	0	35	104	0	77	10573
2026-01-17 19:37:28.52	64.47	9.20	-53.5	-62.4	3.8	7.45e-01	0	35	104	0	77	10672
2026-01-17 19:37:30.54	64.98	9.23	-53.4	-62.3	3.8	7.45e-01	0	35	104	0	77	10566
2026-01-17 19:37:32.56	65.48	9.26	-53.5	-62.4	3.8	7.45e-01	0	35	104	0	77	10666
2026-01-17 19:37:34.57	65.99	9.28	-53.5	-62.3	3.8	7.45e-01	0	36	104	0	77	10605
2026-01-17 19:37:36.59	66.49	9.31	-53.5	-62.4	3.8	7.44e-01	0	35	104	0	77	10682
2026-01-17 19:37:38.61	67.00	9.33	-53.5	-62.3	3.8	7.44e-01	0	35	104	0	77	10595
2026-01-17 19:37:40.62	67.51	9.35	-53.5	-62.4	3.8	7.45e-01	0	35	104	0	77	10681
2026-01-17 19:37:42.64	68.02	9.37	-53.4	-62.3	3.8	7.44e-01	0	35	104	0	77	10547
2026-01-17 19:37:44.65	68.53	9.39	-53.5	-62.3	3.8	7.47e-01	0	35	104	0	77	10640
2026-01-17 19:37:46.67	69.04	9.40	-53.4	-62.3	3.8	7.47e-01	0	35	104	0	77	10589
2026-01-17 19:37:48.68	69.55	9.42	-53.5	-62.3	3.8	7.44e-01	0	35	104	0	77	10643
2026-01-17 19:37:50.70	70.07	9.43	-53.5	-62.3	3.8	7.46e-01	0	35	104	0	77	10576
2026-01-17 19:37:52.72	70.58	9.44	-53.5	-62.4	3.8	7.46e-01	0	35	104	0	77	10693
2026-01-17 19:37:54.73	71.09	9.45	-53.5	-62.3	3.8	7.45e-01	0	35	104	0	77	10578
2026-01-17 19:37:56.75	71.61	9.46	-53.5	-62.3	3.8	7.47e-01	0	35	104	0	77	10603
2026-01-17 19:37:58.76	72.12	9.47	-53.4	-62.3	3.8	7.43e-01	0	35	104	0	77	10551
2026-01-17 19:38:00.78	72.64	9.47	-53.5	-62.3	3.8	7.45e-01	0	35	104	0	77	10628
2026-01-17 19:38:02.79	73.15	9.47	-53.4	-62.2	3.8	7.46e-01	0	35	104	0	77	10533
2026-01-17 19:38:04.81	73.67	9.47	-53.5	-62.3	3.8	7.45e-01	0	36	104	0	77	10617
2026-01-17 19:38:06.82	74.18	9.47	-53.4	-62.3	3.8	7.45e-01	0	35	104	0	77	10583
2026-01-17 19:38:08.84	74.70	9.47	-53.5	-62.3	3.8	7.44e-01	0	35	104	0	77	10617
2026-01-17 19:38:10.86	75.21	9.47	-53.4	-62.2	3.8	7.46e-01	0	35	104	0	77	10514
2026-01-17 19:38:12.87	75.73	9.46	-53.5	-62.3	3.8	7.47e-01	0	35	104	0	77	10627
2026-01-17 19:38:14.89	76.24	9.45	-53.4	-62.2	3.8	7.46e-01	0	35	104	0	77	10532
2026-01-17 19:38:16.90	76.75	9.44	-53.5	-62.3	3.8	7.45e-01	0	35	104	0	77	10611
2026-01-17 19:38:18.92	77.27	9.43	-53.4	-62.3	3.8	7.46e-01	0	35	104	0	77	10544
2026-01-17 19:38:20.94	77.78	9.42	-53.5	-62.3	3.8	7.45e-01	0	35	104	0	77	10605
2026-01-17 19:38:22.95	78.29	9.40	-53.4	-62.3	3.8	7.45e-01	0	35	104	0	77	10571
2026-01-17 19:38:24.97	78.81	9.39	-53.5	-62.3	3.8	7.45e-01	0	35	104	0	77	10648
2026-01-17 19:38:26.99	79.32	9.37	-53.4	-62.3	3.8	7.45e-01	0	36	104	0	77	10563
2026-01-17 19:38:29.00	79.83	9.35	-53.5	-62.3	3.8	7.46e-01	0	35	104	0	77	10635
2026-01-17 19:38:31.02	80.34	9.33	-53.4	-62.3	3.8	7.45e-01	0	35	104	0	77	10551
2026-01-17 19:38:33.03	80.85	9.30	-53.5	-62.3	3.8	7.44e-01	0	35	104	0	77	10641
2026-01-17 19:38:35.05	81.35	9.28	-53.4	-62.2	3.8	7.47e-01	0	36	104	0	77	10518
2026-01-17 19:38:37.06	81.86	9.25	-53.5	-62.3	3.8	7.45e-01	0	35	104	0	77	10599
2026-01-17 19:38:39.08	82.37	9.22	-53.4	-62.3	3.8	7.47e-01	0	35	104	0	77	10538
2026-01-17 19:38:41.10	82.87	9.19	-53.5	-62.3	3.8	7.45e-01	0	35	104	0	77	10610
2026-01-17 19:38:43.11	83.37	9.16	-53.4	-62.2	3.8	7.44e-01	0	36	104	0	77	10505
2026-01-17 19:38:45.13	83.88	9.13	-53.5	-62.3	3.8	7.44e-01	0	35	104	0	77	10591
2026-01-17 19:38:47.15	84.38	9.09	-53.4	-62.3	3.8	7.45e-01	0	35	104	0	77	10555
2026-01-17 19:38:49.17	84.88	9.06	-53.5	-62.3	3.8	7.44e-01	0	35	104	0	77	10633
2026-01-17 19:38:51.18	85.37	9.02	-53.4	-62.3	3.8	7.44e-01	0	35	104	0	77	10554
2026-01-17 19:38:53.20	85.87	8.98	-53.5	-62.3	3.8	7.46e-01	0	35	104	0	77	10574
2026-01-17 19:38:55.22	86.36	8.94	-53.4	-62.3	3.8	7.44e-01	0	36	104	0	77	10561
2026-01-17 19:38:57.23	86.86	8.90	-53.5	-62.3	3.8	7.46e-01	0	35	104	0	77	10567
2026-01-17 19:38:59.25	87.35	8.85	-53.4	-62.2	3.8	7.45e-01	0	35	104	0	77	10505
2026-01-17 19:39:01.26	87.83	8.81	-53.4	-62.3	3.8	7.45e-01	0	35	104	0	77	10546
2026-01-17 19:39:03.28	88.32	8.76	-53.4	-62.2	3.8	7.44e-01	0	35	104	0	77	10503
2026-01-17 19:39:05.29	88.81	8.71	-53.4	-62.3	3.8	7.47e-01	0	35	104	0	77	10539
2026-01-17 19:39:07.31	89.29	8.66	-53.4	-62.2	3.8	7.45e-01	0	35	104	0	77	10523
2026-01-17 19:39:09.33	89.77	8.61	-53.4	-62.3	3.8	7.46e-01	0	35	104	0	77	10546
2026-01-17 19:39:11.34	90.25	8.56	-53.4	-62.2	3.8	7.45e-01	0	36	104	0	77	10519
2026-01-17 19:39:13.36	90.73	8.51	-53.4	-62.3	3.8	7.45e-01	0	35	104	0	77	10538
2026-01-17 19:39:15.37	91.20	8.45	-53.4	-62.2	3.8	7.45e-01	0	36	104	0	77	10500
2026-01-17 19:39:17.39	91.68	8.40	-53.4	-62.3	3.8	7.44e-01	0	35	104	0	77	10542
2026-01-17 19:39:19.40	92.15	8.34	-53.4	-62.2	3.8	7.45e-01	0	35	104	0	77	10506
2026-01-17 19:39:21.42	92.61	8.28	-53.4	-62.2	3.8	7.44e-01	0	36	104	0	77	10467
2026-01-17 19:39:23.44	93.08	8.22	-53.4	-62.2	3.8	7.44e-01	0	35	104	0	77	10470
2026-01-17 19:39:25.45	93.54	8.16	-53.4	-62.2	3.8	7.46e-01	0	35	104	0	77	10488
2026-01-17 19:39:27.47	94.01	8.10	-53.4	-62.2	3.8	7.46e-01	0	35	104	0	77	10449
2026-01-17 19:39:29.49	94.47	8.03	-53.4	-62.2	3.8	7.43e-01	0	35	104	0	77	10431
2026-01-17 19:39:31.50	94.92	7.97	-53.4	-62.2	3.8	7.47e-01	0	36	104	0	77	10449
2026-01-17 19:39:33.52	95.38	7.90	-53.4	-62.2	3.8	7.45e-01	0	35	104	0	77	10444
2026-01-17 19:39:35.54	95.83	7.84	-53.4	-62.2	3.8	7.45e-01	0	35	104	0	77	10472
2026-01-17 19:39:37.55	96.28	7.77	-53.4	-62.2	3.8	7.44e-01	0	35	104	0	77	10426
2026-01-17 19:39:39.57	96.72	7.70	-53.4	-62.2	3.8	7.46e-01	0	36	104	0	77	10462
2026-01-17 19:39:41.58	97.17	7.63	-53.4	-62.2	3.8	7.45e-01	0	35	104	0	77	10445
2026-01-17 19:39:43.60	97.61	7.56	-53.4	-62.2	3.8	7.45e-01	0	35	104	0	77	10439
2026-01-17 19:39:45.62	98.05	7.49	-53.4	-62.2	3.8	7.45e-01	0	35	104	0	77	10448
2026-01-17 19:39:47.63	98.48	7.42	-53.4	-62.2	3.8	7.46e-01	0	36	104	0	77	10477
2026-01-17 19:39:49.65	98.92	7.34	-53.3	-62.2	3.8	7.47e-01	0	35	104	0	77	10440
2026-01-17 19:39:51.67	99.35	7.27	-53.4	-62.2	3.8	7.46e-01	0	36	104	0	77	10493
2026-01-17 19:39:53.68	99.78	7.19	-53.3	-62.2	3.8	7.45e-01	0	35	104	0	77	10426
2026-01-17 19:39:55.70	100.20	7.12	-53.4	-62.2	3.8	7.44e-01	0	35	104	0	77	10495
2026-01-17 19:39:57.72	100.63	7.04	-53.3	-62.1	3.8	7.44e-01	0	35	104	0	77	10410
2026-01-17 19:39:59.73	101.04	6.96	-53.4	-62.2	3.8	7.46e-01	0	35	104	0	77	10478
2026-01-17 19:40:01.75	101.46	6.88	-53.3	-62.1	3.8	7.47e-01	0	36	104	0	77	10399
2026-01-17 19:40:03.76	101.88	6.80	-53.4	-62.2	3.8	7.45e-01	0	36	104	0	77	10464
2026-01-17 19:40:05.78	102.29	6.72	-53.3	-62.2	3.8	7.45e-01	0	36	104	0	77	10438
2026-01-17 19:40:07.79	102.70	6.64	-53.4	-62.2	3.8	7.44e-01	0	35	104	0	77	10515
2026-01-17 19:40:09.81	103.10	6.56	-53.3	-62.1	3.8	7.46e-01	0	36	104	0	77	10412
2026-01-17 19:40:11.82	103.50	6.48	-53.4	-62.2	3.8	7.43e-01	0	36	104	0	77	10500
2026-01-17 19:40:13.84	103.91	6.40	-53.3	-62.1	3.8	7.45e-01	0	35	104	0	77	10381
2026-01-17 19:40:15.86	104.30	6.31	-53.4	-62.2	3.8	7.48e-01	0	36	104	0	77	10457
2026-01-17 19:40:17.87	104.70	6.23	-53.3	-62.1	3.8	7.46e-01	0	36	104	0	77	10339
2026-01-17 19:40:19.89	105.09	6.14	-53.3	-62.2	3.8	7.45e-01	0	35	104	0	77	10457
2026-01-17 19:40:21.91	105.48	6.06	-53.3	-62.1	3.8	7.47e-01	0	36	104	0	77	10329
2026-01-17 19:40:23.92	105.87	5.97	-53.3	-62.1	3.8	7.44e-01	0	36	104	0	77	10405
2026-01-17 19:40:25.94	106.25	5.89	-53.2	-62.1	3.8	7.45e-01	0	36	104	0	77	10364
2026-01-17 19:40:27.95	106.63	5.80	-53.3	-62.1	3.8	7.44e-01	0	36	104	0	77	10374
2026-01-17 19:40:29.97	107.01	5.71	-53.2	-62.0	3.8	7.46e-01	0	36	104	0	77	10263
2026-01-17 19:40:31.98	107.38	5.62	-53.3	-62.1	3.8	7.45e-01	0	35	104	0	77	10375
2026-01-17 19:40:34.00	107.76	5.54	-53.2	-62.1	3.8	7.45e-01	0	36	104	0	77	10295
2026-01-17 19:40:36.02	108.13	5.45	-53.3	-62.1	3.8	7.46e-01	0	36	104	0	77	10355
2026-01-17 19:40:38.03	108.50	5.36	-53.2	-62.0	3.8	7.44e-01	0	36	104	0	77	10228
2026-01-17 19:40:40.05	108.86	5.27	-53.3	-62.1	3.8	7.45e-01	0	36	104	0	77	10371
2026-01-17 19:40:42.06	109.22	5.18	-53.2	-62.0	3.8	7.46e-01	0	36	104	0	77	10211
2026-01-17 19:40:44.08	109.58	5.09	-53.3	-62.1	3.8	7.45e-01	0	36	104	0	77	10350
2026-01-17 19:40:46.10	109.94	5.00	-53.2	-62.0	3.8	7.44e-01	0	35	104	0	77	10259
2026-01-17 19:40:48.11	110.29	4.91	-53.7	-62.6	3.8	7.45e-01	0	36	104	0	77	10923
2026-01-17 19:40:50.13	110.64	4.81	-54.1	-62.9	3.8	7.45e-01	0	35	104	0	78	10730
2026-01-17 19:40:52.14	110.99	4.72	-54.3	-63.1	3.8	7.45e-01	0	36	104	0	79	10394
2026-01-17 19:40:54.16	111.33	4.63	-54.4	-63.3	3.8	7.46e-01	0	35	104	0	79	10549
2026-01-17 19:40:56.18	111.68	4.54	-54.5	-63.4	3.8	7.45e-01	0	36	104	0	79	10662
2026-01-17 19:40:58.19	112.02	4.45	-54.6	-63.4	3.8	7.46e-01	0	35	104	0	79	10719
2026-01-17 19:41:00.21	112.35	4.35	-54.6	-63.5	3.8	7.46e-01	0	35	104	0	79	10791
2026-01-17 19:41:02.22	112.69	4.26	-54.7	-63.5	3.8	7.47e-01	0	35	104	0	79	10844
2026-01-17 19:41:04.24	113.02	4.17	-54.7	-63.6	3.8	7.46e-01	0	36	104	0	79	10910
2026-01-17 19:41:06.26	113.35	4.07	-54.7	-63.5	3.8	7.46e-01	0	36	104	0	80	10289
2026-01-17 19:41:08.27	113.68	3.98	-54.7	-63.6	3.8	7.45e-01	0	36	104	0	80	10349
2026-01-17 19:41:10.29	114.00	3.88	-54.7	-63.6	3.8	7.45e-01	0	36	104	0	80	10336
2026-01-17 19:41:12.30	114.32	3.79	-54.8	-63.6	3.8	7.45e-01	0	35	104	0	80	10355
2026-01-17 19:41:14.32	114.64	3.70	-54.8	-63.7	3.8	7.44e-01	0	36	104	0	80	10426
2026-01-17 19:41:16.33	114.96	3.60	-54.8	-63.7	3.8	7.44e-01	0	35	104	0	80	10452
2026-01-17 19:41:18.35	115.27	3.51	-54.8	-63.6	3.8	7.44e-01	0	36	104	0	80	10404
2026-01-17 19:41:20.36	115.58	3.41	-54.8	-63.6	3.8	7.45e-01	0	36	104	0	80	10385
2026-01-17 19:41:22.38	115.89	3.32	-54.8	-63.7	3.8	7.44e-01	0	36	104	0	80	10436
2026-01-17 19:41:24.40	116.20	3.22	-54.8	-63.7	3.8	7.45e-01	0	36	104	0	80	10430
2026-01-17 19:41:26.41	116.50	3.13	-54.8	-63.6	3.8	7.45e-01	0	36	104	0	80	10376
2026-01-17 19:41:28.43	116.81	3.03	-54.8	-63.6	3.8	7.46e-01	0	36	104	0	80	10362
2026-01-17 19:41:30.44	117.10	2.93	-54.8	-63.6	3.8	7.44e-01	0	36	104	0	80	10377
2026-01-17 19:41:32.46	117.40	2.84	-54.8	-63.6	3.8	7.47e-01	0	35	104	0	80	10382
2026-01-17 19:41:34.48	117.70	2.74	-54.8	-63.6	3.8	7.44e-01	0	35	104	0	80	10379
2026-01-17 19:41:36.49	117.99	2.65	-54.8	-63.6	3.8	7.46e-01	0	36	104	0	80	10358
2026-01-17 19:41:38.50	118.28	2.55	-54.8	-63.6	3.8	7.47e-01	0	36	104	0	80	10363
2026-01-17 19:41:40.52	118.56	2.46	-54.7	-63.6	3.8	7.46e-01	0	36	104	0	80	10377
2026-01-17 19:41:42.54	118.85	2.36	-54.8	-63.6	3.8	7.43e-01	0	36	104	0	80	10358
2026-01-17 19:41:44.55	119.13	2.26	-54.7	-63.6	3.8	7.45e-01	0	36	104	0	80	10377
2026-01-17 19:41:46.57	119.41	2.17	-54.7	-63.6	3.8	7.45e-01	0	36	104	0	80	10343
2026-01-17 19:41:48.58	119.69	2.07	-54.7	-63.6	3.8	7.48e-01	0	35	104	0	80	10325

#Closed at: 2026-01-17 19:41:50
#Recorded file [0 MB]: D:/lorett/data/31041_260117_223418.dat