passes_logs/2026/01/17/R3.2S_Murmansk/R3.2S_Murmansk__20260117_033618_AQUA_rec.log

#Pass ID: 20260117_033618_AQUA
#Satellite: AQUA
#Configuration: AQUA
#almurnet v.1.7.20251203
#Start time: 2026-01-17 03:36:18

#Version: 2.2.20231116
#Station: R3.2S_Murmansk
#Location: 33.079688 lon 68.888172 lat
#TLE: 1 27424U 02022A   26015.92015591  .00000664  00000+0  14289-3 0  9993
#TLE: 2 27424  98.4082 342.3630 0002020  77.1389  16.3168 14.61822470261023

#Time	Az	El	Level	Level2	SNR	BER	BlckErr	Temp	State	Recorded	gain1	gain2
2026-01-17 03:36:18.91	28.14	2.02	-52.6	-70.5	3.8	7.46e-01	0	31	0	0	77	27133
2026-01-17 03:36:21.94	28.03	2.22	-52.5	-70.4	3.8	7.45e-01	0	32	104	0	75	30133
2026-01-17 03:36:24.96	27.93	2.41	-52.5	-70.4	3.8	7.44e-01	0	32	104	0	75	30121
2026-01-17 03:36:27.99	27.82	2.61	-52.5	-70.4	3.8	7.42e-01	0	32	104	0	75	30117
2026-01-17 03:36:31.02	27.71	2.81	-52.6	-70.4	3.8	7.45e-01	0	32	104	0	75	30262
2026-01-17 03:36:34.04	27.59	3.01	-52.5	-70.2	3.8	7.46e-01	0	32	104	0	75	29661
2026-01-17 03:36:37.07	27.48	3.22	-52.6	-70.1	3.8	7.42e-01	0	32	104	0	75	29198
2026-01-17 03:36:40.10	27.36	3.42	-52.4	-69.8	3.8	7.42e-01	0	32	104	0	75	28328
2026-01-17 03:36:43.12	27.25	3.63	-52.4	-70.1	3.8	7.44e-01	0	32	104	0	75	29316
2026-01-17 03:36:46.15	27.13	3.84	-52.4	-69.7	3.8	7.43e-01	0	33	104	0	75	27923
2026-01-17 03:36:49.17	27.01	4.05	-51.8	-67.0	3.8	7.49e-01	0	33	104	0	75	20372
2026-01-17 03:36:52.20	26.88	4.26	-50.4	-63.8	3.8	7.45e-01	0	33	104	0	72	16820
2026-01-17 03:36:55.22	26.76	4.47	-49.6	-62.4	3.8	7.45e-01	0	33	104	0	71	15060
2026-01-17 03:36:58.25	26.63	4.69	-50.2	-63.4	3.8	7.40e-01	0	33	104	0	71	17031
2026-01-17 03:37:01.28	26.50	4.90	-50.6	-64.0	3.8	7.43e-01	0	33	104	0	71	18207
2026-01-17 03:37:04.31	26.36	5.12	-47.8	-59.4	3.8	7.47e-01	0	33	104	0	67	13485
2026-01-17 03:37:07.33	26.23	5.34	-48.0	-59.5	3.8	7.49e-01	0	33	104	0	66	14505
2026-01-17 03:37:10.36	26.09	5.56	-47.4	-58.8	3.8	7.43e-01	0	33	104	0	66	13388
2026-01-17 03:37:13.38	25.95	5.79	-50.3	-63.0	3.8	7.41e-01	0	33	104	0	71	16156
2026-01-17 03:37:16.41	25.80	6.01	-51.0	-64.1	3.8	7.43e-01	0	33	104	0	74	15489
2026-01-17 03:37:19.43	25.66	6.24	-47.9	-59.4	3.8	7.43e-01	0	33	104	0	67	13504
2026-01-17 03:37:22.46	25.51	6.47	-51.7	-65.7	3.9	7.42e-01	0	33	104	0	75	17608
2026-01-17 03:37:25.48	25.36	6.70	-46.7	-57.9	3.8	7.45e-01	0	33	104	0	65	12674
2026-01-17 03:37:28.51	25.21	6.94	-47.2	-58.5	3.8	7.44e-01	0	33	104	0	66	12846
2026-01-17 03:37:31.53	25.05	7.17	-49.4	-61.6	3.9	7.40e-01	0	33	104	0	69	15417
2026-01-17 03:37:34.56	24.89	7.41	-46.4	-57.5	3.8	7.45e-01	0	33	104	0	64	12864
2026-01-17 03:37:37.58	24.73	7.65	-51.3	-64.6	3.8	7.44e-01	0	33	104	0	73	17427
2026-01-17 03:37:40.61	24.56	7.90	-49.5	-61.7	3.9	7.44e-01	0	33	104	0	71	13949
2026-01-17 03:37:43.63	24.39	8.14	-48.9	-60.7	3.8	7.44e-01	0	33	104	0	68	14821
2026-01-17 03:37:46.66	24.22	8.39	-47.9	-59.1	3.8	7.42e-01	0	33	104	0	67	13083
2026-01-17 03:37:49.68	24.04	8.64	-46.1	-57.1	3.8	7.45e-01	0	33	104	0	64	12353
2026-01-17 03:37:52.71	23.86	8.89	-46.7	-57.8	3.8	7.43e-01	0	34	104	0	64	13353
2026-01-17 03:37:55.73	23.68	9.15	-52.2	-66.1	3.8	7.48e-01	0	33	104	0	74	19514
2026-01-17 03:37:58.76	23.49	9.41	-46.1	-57.1	3.8	7.47e-01	0	34	104	0	63	13106
2026-01-17 03:38:01.78	23.30	9.67	-52.1	-65.9	3.8	7.45e-01	0	33	104	0	74	18997
2026-01-17 03:38:04.81	23.10	9.93	-46.3	-57.3	3.9	7.43e-01	0	34	104	0	64	12640
2026-01-17 03:38:07.83	22.90	10.20	-49.2	-60.9	3.8	7.45e-01	0	34	104	0	68	15210
2026-01-17 03:38:10.86	22.70	10.47	-46.3	-57.4	3.9	7.44e-01	0	34	104	0	64	12703
2026-01-17 03:38:13.89	22.49	10.74	-45.7	-56.6	3.8	7.42e-01	0	34	104	0	63	12341
2026-01-17 03:38:16.91	22.28	11.02	-47.5	-58.7	3.8	7.41e-01	0	34	104	0	65	13961
2026-01-17 03:38:19.94	22.06	11.30	-53.1	-68.1	3.8	7.47e-01	0	34	104	0	76	21957
2026-01-17 03:38:22.97	21.84	11.58	-45.7	-56.6	3.8	7.44e-01	0	34	104	0	62	13018
2026-01-17 03:38:25.99	21.61	11.87	-52.8	-67.4	3.7	7.45e-01	0	34	104	0	76	20213
2026-01-17 03:38:29.02	21.38	12.15	-45.7	-56.6	3.8	7.45e-01	0	34	104	0	63	12366
2026-01-17 03:38:32.04	21.14	12.45	-50.3	-62.4	3.8	7.44e-01	0	33	104	0	71	15175
2026-01-17 03:38:35.07	20.90	12.74	-45.9	-56.9	3.8	7.44e-01	0	34	104	0	63	12718
2026-01-17 03:38:38.10	20.65	13.04	-45.6	-56.5	3.8	7.44e-01	0	34	104	0	63	12213
2026-01-17 03:38:41.12	20.40	13.34	-47.5	-58.8	3.9	7.42e-01	0	34	104	0	65	14071
2026-01-17 03:38:44.15	20.14	13.65	-53.2	-68.3	3.8	7.44e-01	0	34	104	0	77	21182
2026-01-17 03:38:47.18	19.87	13.96	-45.2	-56.1	3.9	7.43e-01	0	34	104	0	62	12267
2026-01-17 03:38:50.20	19.60	14.27	-52.7	-66.8	3.8	7.43e-01	0	34	104	0	76	18893
2026-01-17 03:38:53.23	19.32	14.59	-45.2	-56.0	3.9	7.43e-01	0	34	104	0	62	12199
2026-01-17 03:38:56.25	19.03	14.91	-50.8	-63.2	3.9	7.42e-01	0	34	104	0	73	14797
2026-01-17 03:38:59.28	18.74	15.24	-45.2	-56.1	3.8	7.44e-01	0	34	104	0	62	12248
2026-01-17 03:39:02.31	18.44	15.57	-45.1	-55.9	3.8	7.41e-01	0	34	104	0	62	12073
2026-01-17 03:39:05.34	18.13	15.90	-48.6	-60.1	3.8	7.44e-01	0	34	104	0	67	14594
2026-01-17 03:39:08.36	17.82	16.24	-51.5	-64.5	3.9	7.43e-01	0	34	104	0	75	15376
2026-01-17 03:39:11.39	17.50	16.58	-45.0	-55.8	3.8	7.44e-01	0	34	104	0	61	12614
2026-01-17 03:39:14.41	17.17	16.93	-49.9	-61.9	3.9	7.46e-01	0	34	104	0	72	13484
2026-01-17 03:39:17.44	16.83	17.28	-45.1	-55.9	3.8	7.45e-01	0	34	104	0	62	12030
2026-01-17 03:39:20.47	16.48	17.64	-45.7	-56.6	3.8	7.45e-01	0	34	104	0	63	12334
2026-01-17 03:39:23.49	16.12	18.00	-45.9	-56.7	3.8	7.43e-01	0	34	104	0	62	13220
2026-01-17 03:39:26.52	15.75	18.36	-45.2	-56.1	3.8	7.47e-01	0	34	104	0	62	12241
2026-01-17 03:39:29.54	15.38	18.73	-50.6	-62.7	3.8	7.52e-01	0	34	104	0	71	15677
2026-01-17 03:39:32.57	14.99	19.11	-47.3	-58.3	3.9	7.46e-01	0	34	104	0	66	12571
2026-01-17 03:39:35.59	14.59	19.49	-46.8	-58.0	3.8	7.45e-01	0	34	104	0	64	13722
2026-01-17 03:39:38.63	14.18	19.87	-46.8	-57.7	3.9	7.42e-01	0	34	104	0	65	12479
2026-01-17 03:39:41.65	13.77	20.26	-45.4	-56.2	3.8	7.43e-01	0	34	104	0	62	12433
2026-01-17 03:39:44.68	13.33	20.66	-45.1	-55.9	3.8	7.43e-01	0	34	104	0	62	12062
2026-01-17 03:39:47.70	12.89	21.06	-49.5	-61.2	3.8	7.45e-01	0	34	104	0	69	14784
2026-01-17 03:39:50.73	12.43	21.46	-45.5	-56.4	3.8	7.48e-01	0	34	104	0	62	12677
2026-01-17 03:39:53.75	11.97	21.87	-51.9	-64.8	3.8	7.43e-01	0	34	104	0	74	16772
2026-01-17 03:39:56.78	11.48	22.29	-46.2	-57.2	3.9	7.45e-01	0	34	104	0	64	12449
2026-01-17 03:39:59.80	10.99	22.71	-50.8	-62.8	3.8	7.47e-01	0	34	104	0	71	15764
2026-01-17 03:40:02.83	10.47	23.14	-46.2	-57.2	3.9	7.43e-01	0	34	104	0	64	12402
2026-01-17 03:40:05.85	9.95	23.57	-45.5	-56.3	3.8	7.42e-01	0	34	104	0	63	11917
2026-01-17 03:40:08.88	9.41	24.01	-45.9	-56.8	3.8	7.43e-01	0	34	104	0	62	13261
2026-01-17 03:40:11.90	8.85	24.45	-53.2	-67.0	3.8	7.47e-01	0	34	104	0	76	19230
2026-01-17 03:40:14.92	8.27	24.90	-45.6	-56.5	3.8	7.42e-01	0	34	104	0	63	12135
2026-01-17 03:40:17.95	7.68	25.35	-52.9	-66.6	3.8	7.46e-01	0	34	104	0	76	18499
2026-01-17 03:40:20.98	7.06	25.81	-45.2	-56.0	3.8	7.45e-01	0	34	104	0	62	12166
2026-01-17 03:40:24.00	6.43	26.27	-53.3	-67.9	3.8	7.44e-01	0	34	104	0	77	20150
2026-01-17 03:40:27.03	5.78	26.74	-46.0	-56.7	3.8	7.48e-01	0	34	104	0	63	12500
2026-01-17 03:40:30.06	5.11	27.21	-44.9	-55.8	3.9	7.46e-01	0	34	104	0	61	12535
2026-01-17 03:40:33.08	4.42	27.69	-46.6	-57.6	3.8	7.44e-01	0	34	104	0	63	13883
2026-01-17 03:40:36.11	3.70	28.17	-53.2	-67.7	3.8	7.44e-01	0	34	104	0	77	19685
2026-01-17 03:40:39.13	2.97	28.65	-44.7	-55.4	3.8	7.44e-01	0	34	104	0	61	12094
2026-01-17 03:40:42.16	2.20	29.14	-52.1	-65.2	3.9	7.43e-01	0	34	104	0	75	16556
2026-01-17 03:40:45.18	1.42	29.63	-44.9	-55.6	3.8	7.45e-01	0	34	104	0	61	12346
2026-01-17 03:40:48.20	0.61	30.13	-53.2	-67.6	3.9	7.46e-01	0	34	104	0	78	18510
2026-01-17 03:40:51.23	359.77	30.63	-44.6	-55.3	3.8	7.44e-01	0	34	104	0	61	11950
2026-01-17 03:40:54.25	358.90	31.12	-44.6	-55.4	3.8	7.45e-01	0	34	104	0	61	11993
2026-01-17 03:40:57.28	358.01	31.63	-46.5	-57.4	3.8	7.44e-01	0	34	104	0	63	13519
2026-01-17 03:41:00.31	357.08	32.13	-52.6	-66.2	3.9	7.43e-01	0	34	104	0	77	16569
2026-01-17 03:41:03.33	356.13	32.63	-45.1	-55.9	3.8	7.41e-01	0	34	104	0	61	12807
2026-01-17 03:41:06.36	355.14	33.14	-50.1	-61.9	3.8	7.46e-01	0	34	104	0	72	13512
2026-01-17 03:41:09.38	354.12	33.64	-45.2	-56.0	3.8	7.44e-01	0	34	104	0	61	12861
2026-01-17 03:41:12.41	353.07	34.14	-46.3	-57.3	3.8	7.42e-01	0	34	104	0	64	12522
2026-01-17 03:41:15.43	351.99	34.64	-45.6	-56.5	3.8	7.46e-01	0	34	104	0	62	12868
2026-01-17 03:41:18.46	350.87	35.13	-45.9	-56.8	3.8	7.43e-01	0	34	104	0	63	12544
2026-01-17 03:41:21.48	349.72	35.62	-48.5	-59.7	3.8	7.45e-01	0	34	104	0	67	13981
2026-01-17 03:41:24.51	348.52	36.11	-48.0	-59.3	3.8	7.44e-01	0	34	104	0	68	12657
2026-01-17 03:41:27.54	347.29	36.59	-49.4	-61.1	3.8	7.47e-01	0	34	104	0	69	14647
2026-01-17 03:41:30.57	346.02	37.06	-48.0	-59.3	3.9	7.44e-01	0	34	104	0	68	12537
2026-01-17 03:41:33.59	344.72	37.52	-46.1	-57.0	3.8	7.42e-01	0	34	104	0	64	12132
2026-01-17 03:41:36.62	343.38	37.97	-46.6	-57.6	3.8	7.46e-01	0	34	104	0	65	12236
2026-01-17 03:41:39.64	342.00	38.41	-50.0	-61.7	3.8	7.42e-01	0	34	104	0	70	14842
2026-01-17 03:41:42.67	340.58	38.84	-46.5	-57.4	3.8	7.43e-01	0	34	104	0	64	12756
2026-01-17 03:41:45.70	339.12	39.25	-51.0	-63.0	3.8	7.44e-01	0	34	104	0	72	15312
2026-01-17 03:41:48.72	337.63	39.64	-46.4	-57.6	3.8	7.46e-01	0	34	104	0	65	12253
2026-01-17 03:41:51.75	336.10	40.02	-53.0	-66.6	3.8	7.45e-01	0	34	104	0	76	18516
2026-01-17 03:41:54.77	334.54	40.37	-47.9	-59.1	3.8	7.44e-01	0	34	104	0	67	13064
2026-01-17 03:41:57.80	332.93	40.71	-46.5	-57.3	3.8	7.43e-01	0	34	104	0	64	12631
2026-01-17 03:42:00.82	331.30	41.02	-47.0	-58.1	3.8	7.46e-01	0	34	104	0	64	13741
2026-01-17 03:42:03.85	329.63	41.32	-52.8	-66.5	3.8	7.46e-01	0	34	104	0	76	18100
2026-01-17 03:42:06.87	327.94	41.58	-46.1	-57.1	3.8	7.47e-01	0	34	104	0	64	12325
2026-01-17 03:42:09.90	326.22	41.82	-51.7	-64.2	3.8	7.45e-01	0	34	104	0	73	16529
2026-01-17 03:42:12.92	324.47	42.03	-46.1	-56.9	3.8	7.45e-01	0	34	104	0	64	11995
2026-01-17 03:42:15.95	322.70	42.21	-54.7	-71.4	3.8	7.48e-01	0	34	104	0	79	26836
2026-01-17 03:42:18.98	320.91	42.36	-47.8	-58.9	3.8	7.45e-01	0	34	104	0	67	12704
2026-01-17 03:42:22.01	319.10	42.48	-46.2	-57.1	3.8	7.43e-01	0	34	104	0	64	12270
2026-01-17 03:42:25.03	317.29	42.57	-48.6	-59.8	3.8	7.45e-01	0	34	104	0	69	12604
2026-01-17 03:42:28.06	315.46	42.63	-51.8	-64.4	3.8	7.47e-01	0	34	104	0	74	16016
2026-01-17 03:42:31.08	313.63	42.66	-45.5	-46.8	24.9	6.00e-01	0	34	0	2097152	62	4219
2026-01-17 03:42:34.11	311.80	42.65	-45.6	-46.9	24.9	6.00e-01	0	34	0	7864320	62	4278
2026-01-17 03:42:37.14	309.97	42.61	-45.9	-47.2	24.7	6.01e-01	0	34	0	13107200	62	4409
2026-01-17 03:42:40.16	308.15	42.54	-45.7	-47.0	24.9	6.03e-01	0	34	0	18874368	62	4327
2026-01-17 03:42:43.19	306.34	42.43	-45.5	-46.7	25.1	6.03e-01	0	34	0	24641536	62	4177
2026-01-17 03:42:46.22	304.53	42.30	-45.4	-46.6	25.2	6.01e-01	0	34	0	30408704	62	4126
2026-01-17 03:42:49.24	302.76	42.13	-45.7	-47.0	24.7	5.99e-01	0	34	0	36175872	62	4340
2026-01-17 03:42:52.27	300.99	41.94	-45.9	-47.3	24.7	6.00e-01	0	34	0	41418752	62	4446
2026-01-17 03:42:55.30	299.25	41.71	-45.8	-47.1	24.6	6.01e-01	0	34	0	47185920	63	4142
2026-01-17 03:42:58.32	297.54	41.46	-45.7	-46.9	24.9	6.03e-01	0	34	0	52953088	62	4286
2026-01-17 03:43:01.35	295.86	41.19	-45.5	-46.8	25.1	6.04e-01	0	34	0	58720256	62	4195
2026-01-17 03:43:04.37	294.21	40.88	-45.8	-47.1	24.7	6.03e-01	0	34	0	64487424	63	4112
2026-01-17 03:43:07.40	292.58	40.56	-46.2	-47.5	24.4	6.02e-01	0	34	0	69730304	64	4088
2026-01-17 03:43:10.42	291.00	40.21	-46.8	-48.2	23.6	6.00e-01	0	34	0	75497472	65	4181
2026-01-17 03:43:13.45	289.44	39.85	-46.4	-47.8	24.0	6.01e-01	0	34	0	81264640	64	4226
2026-01-17 03:43:16.47	287.93	39.46	-46.5	-47.9	23.7	6.01e-01	0	34	0	87031808	63	4537
2026-01-17 03:43:19.49	286.45	39.06	-46.1	-47.4	24.4	5.99e-01	0	34	0	92798976	63	4268
2026-01-17 03:43:22.52	285.01	38.64	-47.0	-48.6	22.7	6.02e-01	0	34	0	98566144	65	4351
2026-01-17 03:43:25.54	283.61	38.21	-45.8	-47.0	24.8	6.00e-01	0	34	0	103809024	63	4078
2026-01-17 03:43:28.57	282.24	37.76	-47.8	-49.6	21.7	6.01e-01	0	34	0	109576192	66	4643
2026-01-17 03:43:31.59	280.92	37.31	-48.1	-50.0	21.9	6.02e-01	0	34	0	115343360	66	4832
2026-01-17 03:43:34.62	279.63	36.84	-47.3	-48.9	22.0	6.01e-01	0	34	0	121110528	66	4244
2026-01-17 03:43:37.65	278.38	36.36	-47.1	-48.6	22.7	6.01e-01	0	34	0	126877696	66	4107
2026-01-17 03:43:40.67	277.16	35.88	-47.0	-48.6	23.1	6.01e-01	0	34	0	132120576	64	4641
2026-01-17 03:43:43.70	275.99	35.39	-46.7	-48.2	23.3	6.02e-01	0	34	0	137887744	64	4403
2026-01-17 03:43:46.73	274.84	34.90	-45.7	-46.9	24.9	6.03e-01	0	34	0	143654912	63	4030
2026-01-17 03:43:49.75	273.74	34.40	-46.6	-48.0	23.8	6.01e-01	0	34	0	149422080	63	4579
2026-01-17 03:43:52.78	272.67	33.90	-46.5	-47.9	23.8	6.02e-01	0	34	0	155189248	64	4275
2026-01-17 03:43:55.81	271.63	33.39	-46.6	-48.0	23.7	6.02e-01	0	34	0	160956416	64	4338
2026-01-17 03:43:58.84	270.62	32.89	-46.4	-47.9	23.7	6.02e-01	0	34	0	166723584	64	4247
2026-01-17 03:44:01.86	269.65	32.38	-46.1	-47.4	24.3	6.02e-01	0	34	0	171966464	63	4280
2026-01-17 03:44:04.89	268.70	31.88	-46.1	-47.5	24.2	6.03e-01	0	34	0	177733632	64	4078
2026-01-17 03:44:07.91	267.79	31.38	-45.6	-46.9	24.8	6.01e-01	0	34	0	183500800	62	4258
2026-01-17 03:44:10.94	266.91	30.87	-45.7	-47.0	24.7	6.02e-01	0	34	0	189267968	62	4312
2026-01-17 03:44:13.96	266.05	30.37	-45.6	-46.9	24.7	6.00e-01	0	34	0	195035136	62	4261
2026-01-17 03:44:16.99	265.22	29.87	-45.3	-46.6	25.0	6.01e-01	0	34	0	200278016	62	4102
2026-01-17 03:44:20.02	264.42	29.38	-45.7	-47.0	24.7	6.00e-01	0	34	0	206045184	62	4333
2026-01-17 03:44:23.04	263.65	28.89	-45.3	-46.6	25.1	6.01e-01	0	34	0	211812352	62	4115
2026-01-17 03:44:26.07	262.89	28.40	-45.7	-47.1	24.5	5.99e-01	0	34	0	217579520	62	4352
2026-01-17 03:44:29.09	262.16	27.91	-45.8	-47.1	24.5	6.02e-01	0	34	0	223346688	62	4364
2026-01-17 03:44:32.12	261.46	27.43	-45.6	-46.9	24.7	6.02e-01	0	34	0	229113856	62	4258
2026-01-17 03:44:35.14	260.77	26.96	-45.6	-46.9	24.6	6.00e-01	0	34	0	234356736	62	4278
2026-01-17 03:44:38.17	260.11	26.49	-45.5	-46.8	24.8	6.00e-01	0	34	0	240123904	62	4221
2026-01-17 03:44:41.19	259.46	26.02	-46.0	-47.3	24.2	6.02e-01	0	34	0	245891072	62	4493
2026-01-17 03:44:44.22	258.84	25.56	-45.7	-47.0	24.6	6.01e-01	0	34	0	251658240	62	4306
2026-01-17 03:44:47.25	258.23	25.10	-45.7	-47.0	24.6	6.02e-01	0	34	0	257425408	62	4308
2026-01-17 03:44:50.27	257.65	24.65	-45.8	-47.1	24.5	6.00e-01	0	34	0	262668288	62	4378
2026-01-17 03:44:53.30	257.08	24.20	-45.9	-47.2	24.3	6.00e-01	0	34	0	268435456	62	4426
2026-01-17 03:44:56.33	256.52	23.76	-45.8	-47.2	24.3	6.03e-01	0	34	0	274202624	62	4412
2026-01-17 03:44:59.35	255.99	23.33	-45.5	-46.8	24.7	6.02e-01	0	34	0	279969792	62	4233
2026-01-17 03:45:02.37	255.47	22.90	-45.6	-46.9	24.6	6.00e-01	0	34	0	285736960	62	4286
2026-01-17 03:45:05.40	254.96	22.47	-45.9	-47.3	24.2	6.01e-01	0	34	0	290979840	62	4453
2026-01-17 03:45:08.42	254.47	22.05	-45.5	-46.8	24.6	6.00e-01	0	34	0	296747008	62	4226
2026-01-17 03:45:11.44	253.99	21.64	-45.6	-47.0	24.4	6.01e-01	0	34	0	302514176	62	4305
2026-01-17 03:45:14.47	253.53	21.23	-45.6	-46.9	24.5	6.03e-01	0	34	0	308281344	62	4259
2026-01-17 03:45:17.50	253.07	20.82	-45.6	-46.9	24.5	6.02e-01	0	34	0	314048512	62	4266
2026-01-17 03:45:20.52	252.64	20.42	-45.6	-47.0	24.5	6.01e-01	0	34	0	319815680	62	4295
2026-01-17 03:45:23.55	252.21	20.03	-45.6	-47.0	24.4	5.99e-01	0	34	0	325058560	62	4309
2026-01-17 03:45:26.57	251.79	19.64	-45.6	-46.9	24.5	6.05e-01	0	34	0	330825728	62	4287
2026-01-17 03:45:29.60	251.39	19.26	-45.5	-46.8	24.6	6.01e-01	0	34	0	336592896	62	4213
2026-01-17 03:45:32.63	250.99	18.88	-45.6	-47.0	24.4	6.03e-01	0	34	0	342360064	62	4307
2026-01-17 03:45:35.65	250.61	18.51	-45.6	-47.0	24.4	5.99e-01	0	34	0	348127232	62	4293
2026-01-17 03:45:38.68	250.24	18.14	-45.5	-46.8	24.5	6.00e-01	0	34	0	353370112	62	4225
2026-01-17 03:45:41.70	249.87	17.77	-45.5	-46.8	24.6	6.00e-01	0	34	0	359137280	62	4220
2026-01-17 03:45:44.73	249.52	17.41	-45.5	-46.8	24.5	6.01e-01	0	34	0	364904448	62	4225
2026-01-17 03:45:47.76	249.17	17.06	-45.3	-46.6	24.7	6.01e-01	0	34	0	370671616	62	4112
2026-01-17 03:45:50.78	248.84	16.71	-45.6	-46.9	24.4	6.00e-01	0	34	0	376438784	62	4271
2026-01-17 03:45:53.80	248.51	16.36	-45.9	-47.3	24.1	6.02e-01	0	34	0	381681664	62	4455
2026-01-17 03:45:56.83	248.19	16.02	-45.6	-46.9	24.4	6.02e-01	0	34	0	387973120	62	4272
2026-01-17 03:45:59.85	247.88	15.69	-45.4	-46.7	24.5	6.01e-01	0	34	0	393216000	62	4177
2026-01-17 03:46:02.88	247.57	15.35	-45.4	-46.7	24.6	6.02e-01	0	34	0	398983168	62	4175
2026-01-17 03:46:05.91	247.27	15.02	-45.6	-47.0	24.3	6.00e-01	0	34	0	404750336	62	4306
2026-01-17 03:46:08.94	246.98	14.70	-45.6	-47.0	24.3	6.01e-01	0	34	0	410517504	62	4312
2026-01-17 03:46:11.96	246.70	14.38	-45.5	-46.8	24.4	6.03e-01	0	34	0	416284672	62	4240
2026-01-17 03:46:14.99	246.42	14.06	-45.5	-46.8	24.4	6.01e-01	0	34	0	421527552	62	4231
2026-01-17 03:46:18.01	246.15	13.75	-45.7	-47.1	24.2	6.01e-01	0	34	0	427294720	62	4348
2026-01-17 03:46:21.04	245.89	13.44	-45.9	-47.3	23.9	6.00e-01	0	34	0	433061888	62	4488
2026-01-17 03:46:24.07	245.63	13.14	-45.9	-47.3	23.9	6.02e-01	0	34	0	438829056	62	4451
2026-01-17 03:46:27.09	245.37	12.83	-45.7	-47.0	24.1	6.01e-01	0	34	0	444596224	62	4337
2026-01-17 03:46:30.12	245.13	12.54	-45.6	-47.0	24.1	6.02e-01	0	34	0	450363392	62	4318
2026-01-17 03:46:33.14	244.89	12.24	-45.7	-47.0	24.1	6.01e-01	0	34	0	455606272	62	4336
2026-01-17 03:46:36.17	244.65	11.95	-45.7	-47.1	24.0	5.99e-01	0	34	0	461373440	62	4377
2026-01-17 03:46:39.19	244.42	11.66	-45.8	-47.3	23.8	6.03e-01	0	34	0	467140608	62	4446
2026-01-17 03:46:42.22	244.19	11.38	-45.9	-47.3	23.7	6.03e-01	0	34	0	472907776	62	4484
2026-01-17 03:46:45.25	243.97	11.10	-45.8	-47.2	23.8	5.99e-01	0	34	0	478674944	62	4419
2026-01-17 03:46:48.27	243.75	10.82	-45.9	-47.3	23.7	6.01e-01	0	34	0	483917824	62	4484
2026-01-17 03:46:51.30	243.54	10.54	-45.9	-47.3	23.7	6.00e-01	0	34	0	489684992	62	4488
2026-01-17 03:46:54.33	243.33	10.27	-46.0	-47.5	23.5	6.00e-01	0	34	0	495452160	62	4574
2026-01-17 03:46:57.36	243.13	10.00	-46.2	-47.6	23.4	6.01e-01	0	34	0	501219328	62	4645
2026-01-17 03:47:00.36	242.93	9.74	-46.2	-47.7	23.4	6.01e-01	0	34	0	506986496	62	4660
2026-01-17 03:47:03.38	242.74	9.48	-46.2	-47.6	23.4	6.00e-01	0	34	0	512229376	62	4641
2026-01-17 03:47:06.41	242.55	9.22	-46.1	-47.6	23.4	6.00e-01	0	34	0	517996544	62	4627
2026-01-17 03:47:09.43	242.36	8.96	-46.2	-47.7	23.3	6.03e-01	0	34	0	523763712	63	4409
2026-01-17 03:47:12.46	242.18	8.70	-46.4	-47.9	23.1	6.00e-01	0	34	0	529530880	63	4542
2026-01-17 03:47:15.48	242.00	8.45	-46.5	-48.1	22.9	6.02e-01	0	34	0	535298048	63	4607
2026-01-17 03:47:18.50	241.82	8.20	-46.4	-48.0	23.0	6.00e-01	0	34	0	540540928	63	4558
2026-01-17 03:47:21.53	241.65	7.95	-46.6	-48.2	22.8	6.02e-01	0	34	0	546308096	63	4652
2026-01-17 03:47:24.55	241.48	7.71	-46.4	-48.0	22.9	6.03e-01	0	34	0	552075264	63	4567
2026-01-17 03:47:27.58	241.31	7.47	-46.6	-48.2	22.7	6.03e-01	0	34	0	557842432	63	4656
2026-01-17 03:47:30.60	241.15	7.23	-46.6	-48.2	22.7	6.00e-01	0	34	0	563609600	63	4668
2026-01-17 03:47:33.62	240.99	6.99	-46.5	-48.1	22.6	6.03e-01	0	34	0	569376768	64	4372
2026-01-17 03:47:36.65	240.83	6.75	-46.5	-48.1	22.6	6.00e-01	0	34	0	574619648	64	4378
2026-01-17 03:47:39.68	240.67	6.52	-46.9	-48.6	22.1	6.02e-01	0	34	0	580386816	64	4651
2026-01-17 03:47:42.70	240.52	6.29	-47.0	-48.7	22.0	6.01e-01	0	34	0	586153984	64	4681
2026-01-17 03:47:45.73	240.37	6.06	-46.6	-48.3	22.3	6.02e-01	0	34	0	591921152	64	4481
2026-01-17 03:47:48.76	240.23	5.83	-46.8	-48.7	21.9	6.02e-01	0	34	0	597688320	64	4664
2026-01-17 03:47:51.78	240.08	5.60	-46.9	-48.6	21.9	6.00e-01	0	34	0	602931200	64	4629
2026-01-17 03:47:54.80	239.94	5.38	-47.0	-48.8	21.7	6.00e-01	0	34	0	608698368	64	4746
2026-01-17 03:47:57.83	239.80	5.16	-46.9	-48.7	21.8	6.01e-01	0	34	0	614465536	64	4684
2026-01-17 03:48:00.86	239.67	4.94	-53.5	-67.2	3.8	7.37e-01	0	34	104	620232704	77	18556
2026-01-17 03:48:03.89	239.53	4.72	-54.5	-72.4	3.8	7.44e-01	0	34	104	620232704	79	30076
2026-01-17 03:48:06.91	239.40	4.50	-54.8	-72.6	3.8	7.46e-01	0	34	104	620232704	80	29055
2026-01-17 03:48:09.94	239.27	4.29	-54.9	-72.8	3.8	7.45e-01	0	34	104	620232704	80	29695
2026-01-17 03:48:12.97	239.15	4.08	-55.0	-72.8	3.8	7.44e-01	0	34	104	620232704	80	29927
2026-01-17 03:48:15.99	239.02	3.87	-55.1	-72.8	3.8	7.47e-01	0	34	104	620232704	80	30016
2026-01-17 03:48:19.02	238.90	3.66	-55.0	-72.8	3.8	7.48e-01	0	34	104	620232704	80	30028
2026-01-17 03:48:22.04	238.78	3.45	-55.0	-72.8	3.8	7.45e-01	0	34	104	620232704	80	30010
2026-01-17 03:48:25.07	238.66	3.24	-55.0	-72.8	3.8	7.42e-01	0	34	104	620232704	80	29852
2026-01-17 03:48:28.09	238.54	3.04	-55.0	-72.8	3.8	7.47e-01	0	34	104	620232704	80	29737
2026-01-17 03:48:31.11	238.43	2.84	-54.9	-72.8	3.8	7.46e-01	0	34	104	620232704	80	29725
2026-01-17 03:48:34.14	238.31	2.64	-54.9	-72.7	3.8	7.47e-01	0	34	104	620232704	80	29626
2026-01-17 03:48:37.17	238.20	2.44	-54.9	-72.7	3.8	7.43e-01	0	34	104	620232704	80	29577
2026-01-17 03:48:40.19	238.09	2.24	-54.9	-72.7	3.8	7.46e-01	0	34	104	620232704	80	29563
2026-01-17 03:48:43.22	237.99	2.04	-54.9	-72.7	3.8	7.42e-01	0	34	104	620232704	80	29575

#Closed at: 2026-01-17 03:48:45
#Recorded file [620 MB]: D:/lorett/data/31041_260117_063618.dat