passes_logs/2026/01/17/R3.2S_Murmansk/R3.2S_Murmansk__20260117_035401_SUOMI_NPP_rec.log

#Pass ID: 20260117_035401_SUOMI NPP
#Satellite: SUOMI NPP
#Configuration: NPP
#almurnet v.1.7.20251203
#Start time: 2026-01-17 03:54:03

#Version: 2.2.20231116
#Station: R3.2S_Murmansk
#Location: 33.079688 lon 68.888172 lat
#TLE: 1 37849U 11061A   26015.94982489  .00000054  00000+0  46705-4 0  9991
#TLE: 2 37849  98.7812 317.9902 0002438  62.0366 298.1057 14.19525452736847

#Time	Az	El	Level	Level2	SNR	BER	BlckErr	Temp	State	Recorded	gain1	gain2
2026-01-17 03:54:03.25	45.18	2.09	-51.5	-66.4	3.8	1.49e+00	0	32	0	0	74	20280
2026-01-17 03:54:07.28	44.95	2.32	-51.4	-66.4	3.8	1.49e+00	0	32	104	0	73	21324
2026-01-17 03:54:11.31	44.71	2.56	-51.4	-66.4	3.8	1.49e+00	0	32	104	0	73	21406
2026-01-17 03:54:15.35	44.47	2.80	-51.4	-66.4	3.8	1.49e+00	0	32	104	0	73	21387
2026-01-17 03:54:19.39	44.22	3.04	-51.4	-66.4	3.8	1.49e+00	0	32	104	0	73	21264
2026-01-17 03:54:23.42	43.97	3.28	-51.4	-66.4	3.8	1.49e+00	0	32	104	0	73	21376
2026-01-17 03:54:27.46	43.72	3.53	-51.4	-66.4	3.8	1.49e+00	0	33	104	0	73	21303
2026-01-17 03:54:31.49	43.46	3.77	-51.4	-66.2	3.8	1.49e+00	0	33	104	0	73	21003
2026-01-17 03:54:35.53	43.19	4.02	-51.4	-65.4	3.8	1.49e+00	0	33	104	0	73	18957
2026-01-17 03:54:39.56	42.93	4.26	-51.2	-63.3	4.1	1.48e+00	0	33	104	0	73	14937
2026-01-17 03:54:43.61	42.65	4.52	-50.7	-58.6	6.6	5.22e-01	0	33	0	5242880	73	8724
2026-01-17 03:54:47.64	42.37	4.77	-50.5	-57.7	7.5	7.46e-02	0	33	0	12582912	72	8298
2026-01-17 03:54:51.67	42.09	5.02	-50.7	-58.9	6.4	1.86e-01	0	33	0	19922944	72	9508
2026-01-17 03:54:55.70	41.80	5.27	-50.0	-55.4	9.7	1.33e+00	0	33	0	26214400	72	6375
2026-01-17 03:54:59.74	41.51	5.53	-48.6	-51.9	13.7	4.65e-05	0	33	0	33554432	68	5401
2026-01-17 03:55:03.77	41.21	5.79	-48.9	-52.4	13.3	9.10e-06	0	33	0	40894464	68	5703
2026-01-17 03:55:07.80	40.90	6.05	-48.7	-52.0	13.8	0.00e+00	0	33	0	48234496	68	5405
2026-01-17 03:55:11.84	40.59	6.31	-48.3	-51.3	14.6	1.50e-06	0	34	0	56623104	68	5004
2026-01-17 03:55:15.87	40.27	6.57	-48.0	-50.8	15.1	0.00e+00	0	33	0	63963136	67	4997
2026-01-17 03:55:19.91	39.95	6.84	-47.6	-50.0	15.9	0.00e+00	0	33	0	71303168	66	4841
2026-01-17 03:55:23.94	39.62	7.11	-47.6	-50.1	15.8	0.00e+00	0	33	0	78643200	66	4887
2026-01-17 03:55:27.97	39.28	7.38	-47.7	-50.2	15.7	0.00e+00	0	34	0	87031808	66	4983
2026-01-17 03:55:32.01	38.94	7.65	-47.7	-50.3	15.7	0.00e+00	0	33	0	94371840	66	4987
2026-01-17 03:55:36.04	38.59	7.92	-48.1	-50.8	15.3	0.00e+00	0	34	0	101711872	66	5280
2026-01-17 03:55:40.08	38.24	8.20	-47.7	-50.2	15.9	0.00e+00	0	34	0	109051904	66	4963
2026-01-17 03:55:44.11	37.87	8.47	-47.8	-50.3	15.9	7.00e-07	0	34	0	116391936	66	4996
2026-01-17 03:55:48.14	37.50	8.75	-47.8	-50.2	16.0	0.00e+00	0	34	0	123731968	66	4981
2026-01-17 03:55:52.18	37.12	9.03	-47.7	-50.1	16.1	0.00e+00	0	34	0	132120576	66	4873
2026-01-17 03:55:56.21	36.74	9.32	-47.6	-49.9	16.4	0.00e+00	0	34	0	139460608	66	4771
2026-01-17 03:56:00.25	36.34	9.60	-47.7	-50.1	16.1	0.00e+00	0	34	0	146800640	66	4904
2026-01-17 03:56:04.28	35.94	9.89	-47.9	-50.4	15.9	0.00e+00	0	34	0	154140672	66	5061
2026-01-17 03:56:08.31	35.53	10.17	-47.8	-50.3	16.0	0.00e+00	0	34	0	162529280	66	5005
2026-01-17 03:56:12.34	35.12	10.46	-47.5	-49.8	16.5	0.00e+00	0	34	0	169869312	66	4730
2026-01-17 03:56:16.38	34.69	10.76	-47.4	-49.6	16.6	0.00e+00	0	34	0	177209344	66	4646
2026-01-17 03:56:20.42	34.25	11.05	-47.4	-49.7	16.7	0.00e+00	0	34	0	184549376	66	4679
2026-01-17 03:56:24.45	33.81	11.35	-47.7	-50.0	16.3	0.00e+00	0	34	0	191889408	66	4846
2026-01-17 03:56:28.48	33.35	11.64	-47.5	-49.7	16.6	0.00e+00	0	34	0	200278016	66	4699
2026-01-17 03:56:32.52	32.89	11.94	-47.4	-49.5	16.9	0.00e+00	0	34	0	207618048	66	4565
2026-01-17 03:56:36.55	32.42	12.25	-47.1	-49.1	17.2	0.00e+00	0	34	0	214958080	66	4383
2026-01-17 03:56:40.59	31.93	12.55	-47.3	-49.3	17.1	0.00e+00	0	34	0	222298112	66	4480
2026-01-17 03:56:44.62	31.44	12.85	-47.5	-49.7	16.7	0.00e+00	0	34	0	229638144	66	4704
2026-01-17 03:56:48.66	30.93	13.16	-47.4	-49.5	16.9	0.00e+00	0	34	0	238026752	66	4592
2026-01-17 03:56:52.70	30.42	13.47	-47.5	-49.6	16.8	0.00e+00	0	34	0	245366784	66	4646
2026-01-17 03:56:56.73	29.89	13.78	-47.0	-49.0	17.4	0.00e+00	0	34	0	252706816	65	4574
2026-01-17 03:57:00.77	29.35	14.09	-46.6	-48.4	18.0	0.00e+00	0	34	0	260046848	65	4260
2026-01-17 03:57:04.80	28.80	14.40	-46.4	-48.1	18.3	0.00e+00	0	34	0	268435456	64	4391
2026-01-17 03:57:08.83	28.24	14.71	-46.4	-48.1	18.3	0.00e+00	0	34	0	275775488	64	4380
2026-01-17 03:57:12.87	27.66	15.03	-46.4	-48.2	18.2	0.00e+00	0	34	0	283115520	64	4399
2026-01-17 03:57:16.91	27.08	15.35	-46.3	-48.1	18.4	0.00e+00	0	34	0	290455552	64	4347
2026-01-17 03:57:20.94	26.48	15.66	-46.5	-48.2	18.2	0.00e+00	0	34	0	297795584	64	4426
2026-01-17 03:57:24.97	25.87	15.98	-46.3	-48.0	18.4	0.00e+00	0	34	0	306184192	64	4296
2026-01-17 03:57:29.01	25.24	16.30	-46.5	-48.3	18.1	0.00e+00	0	34	0	313524224	64	4491
2026-01-17 03:57:33.04	24.60	16.62	-46.4	-48.1	18.2	0.00e+00	0	34	0	320864256	64	4391
2026-01-17 03:57:37.08	23.95	16.94	-47.2	-49.3	17.2	0.00e+00	0	34	0	328204288	65	4742
2026-01-17 03:57:41.11	23.28	17.26	-46.9	-48.9	17.7	0.00e+00	0	34	0	336592896	65	4496
2026-01-17 03:57:45.14	22.60	17.58	-47.3	-49.3	17.3	0.00e+00	0	34	0	343932928	65	4743
2026-01-17 03:57:49.17	21.90	17.89	-47.0	-48.9	17.7	0.00e+00	0	34	0	351272960	65	4541
2026-01-17 03:57:53.21	21.19	18.21	-47.3	-49.3	17.3	0.00e+00	0	34	0	358612992	65	4738
2026-01-17 03:57:57.24	20.46	18.53	-46.8	-48.7	17.9	0.00e+00	0	34	0	365953024	65	4418
2026-01-17 03:58:01.28	19.71	18.85	-46.9	-48.8	17.8	0.00e+00	0	34	0	374341632	65	4461
2026-01-17 03:58:05.31	18.95	19.17	-46.9	-48.8	17.8	0.00e+00	0	34	0	381681664	65	4458
2026-01-17 03:58:09.34	18.18	19.48	-46.4	-48.2	18.4	0.00e+00	0	34	0	389021696	64	4393
2026-01-17 03:58:13.37	17.39	19.79	-46.2	-47.8	18.8	0.00e+00	0	34	0	396361728	64	4206
2026-01-17 03:58:17.41	16.58	20.11	-46.4	-48.2	18.4	0.00e+00	0	34	0	403701760	64	4397
2026-01-17 03:58:21.44	15.75	20.41	-46.9	-48.9	17.8	0.00e+00	0	34	0	412090368	65	4502
2026-01-17 03:58:25.47	14.91	20.72	-46.2	-47.8	18.7	0.00e+00	0	34	0	419430400	64	4236
2026-01-17 03:58:29.50	14.06	21.02	-45.9	-47.6	19.0	0.00e+00	0	34	0	426770432	63	4349
2026-01-17 03:58:33.54	13.18	21.32	-45.5	-47.0	19.6	0.00e+00	0	34	0	434110464	63	4096
2026-01-17 03:58:37.57	12.29	21.62	-45.7	-47.3	19.3	0.00e+00	0	34	0	442499072	62	4463
2026-01-17 03:58:41.60	11.37	21.91	-44.9	-46.3	20.2	0.00e+00	0	34	0	449839104	61	4215
2026-01-17 03:58:45.64	10.45	22.20	-45.3	-46.7	19.9	0.00e+00	0	34	0	457179136	61	4402
2026-01-17 03:58:49.67	9.50	22.48	-45.0	-46.3	20.3	0.00e+00	0	34	0	464519168	61	4232
2026-01-17 03:58:53.70	8.54	22.76	-44.4	-45.7	20.8	0.00e+00	0	34	0	471859200	60	4156
2026-01-17 03:58:57.74	7.56	23.03	-45.2	-46.6	20.0	0.00e+00	0	34	0	479199232	60	4609
2026-01-17 03:59:01.77	6.56	23.29	-44.6	-45.9	20.6	0.00e+00	0	34	0	487587840	61	4018
2026-01-17 03:59:05.80	5.55	23.55	-45.2	-46.5	20.1	0.00e+00	0	34	0	494927872	61	4329
2026-01-17 03:59:09.84	4.51	23.80	-45.3	-46.8	19.9	0.00e+00	0	34	0	502267904	61	4445
2026-01-17 03:59:13.87	3.47	24.04	-45.0	-46.3	20.3	0.00e+00	0	34	0	509607936	61	4239
2026-01-17 03:59:17.90	2.40	24.28	-45.0	-46.4	20.2	0.00e+00	0	34	0	517996544	61	4268
2026-01-17 03:59:21.94	1.32	24.50	-45.0	-46.4	20.2	0.00e+00	0	34	0	525336576	61	4260
2026-01-17 03:59:25.97	0.23	24.72	-44.8	-46.1	20.5	0.00e+00	0	34	0	532676608	61	4133
2026-01-17 03:59:30.00	359.12	24.92	-44.9	-46.2	20.4	0.00e+00	0	34	0	540016640	61	4166
2026-01-17 03:59:34.04	357.99	25.12	-44.6	-45.8	20.8	0.00e+00	0	34	0	547356672	61	3997
2026-01-17 03:59:38.07	356.86	25.30	-44.9	-46.2	20.5	0.00e+00	0	34	0	555745280	61	4158
2026-01-17 03:59:42.10	355.71	25.47	-44.8	-46.1	20.6	0.00e+00	0	34	0	563085312	61	4127
2026-01-17 03:59:46.14	354.54	25.64	-45.9	-47.4	19.4	0.00e+00	0	34	0	570425344	62	4505
2026-01-17 03:59:50.17	353.37	25.78	-47.2	-49.1	17.7	0.00e+00	0	34	0	577765376	65	4632
2026-01-17 03:59:54.20	352.18	25.92	-46.0	-47.6	19.2	0.00e+00	0	34	0	586153984	63	4358
2026-01-17 03:59:58.24	350.99	26.04	-46.5	-48.3	18.6	0.00e+00	0	34	0	593494016	63	4714
2026-01-17 04:00:02.27	349.78	26.15	-46.6	-48.4	18.4	0.00e+00	0	34	0	600834048	64	4522
2026-01-17 04:00:06.31	348.57	26.25	-46.6	-48.4	18.4	0.00e+00	0	34	0	608174080	64	4505
2026-01-17 04:00:10.34	347.35	26.33	-47.3	-49.3	17.5	0.00e+00	0	34	0	615514112	65	4709
2026-01-17 04:00:14.37	346.13	26.40	-46.1	-47.6	19.1	0.00e+00	0	34	0	623902720	63	4380
2026-01-17 04:00:18.41	344.90	26.46	-46.5	-48.2	18.6	0.00e+00	0	34	0	631242752	63	4670
2026-01-17 04:00:22.44	343.66	26.49	-46.8	-48.6	18.2	0.00e+00	0	34	0	638582784	64	4605
2026-01-17 04:00:26.48	342.43	26.52	-47.1	-48.9	17.9	0.00e+00	0	34	0	645922816	64	4812
2026-01-17 04:00:30.51	341.19	26.53	-46.0	-47.5	19.3	0.00e+00	0	34	0	653262848	63	4330
2026-01-17 04:00:34.54	339.95	26.52	-47.5	-49.5	17.3	0.00e+00	0	34	0	661651456	65	4867
2026-01-17 04:00:38.58	338.71	26.51	-46.4	-48.1	18.7	0.00e+00	0	34	0	668991488	64	4342
2026-01-17 04:00:42.61	337.48	26.47	-46.2	-47.9	19.0	0.00e+00	0	34	0	676331520	63	4506
2026-01-17 04:00:46.65	336.25	26.42	-45.5	-46.9	19.9	0.00e+00	0	34	0	683671552	62	4249
2026-01-17 04:00:50.68	335.02	26.36	-45.8	-47.2	19.6	0.00e+00	0	34	0	692060160	62	4436
2026-01-17 04:00:54.72	333.80	26.28	-44.6	-45.8	20.9	0.00e+00	0	34	0	699400192	61	3993
2026-01-17 04:00:58.76	332.58	26.19	-44.7	-45.9	20.8	0.00e+00	0	34	0	706740224	60	4288
2026-01-17 04:01:02.79	331.37	26.08	-44.9	-46.2	20.5	0.00e+00	0	34	0	714080256	60	4433
2026-01-17 04:01:06.82	330.18	25.97	-44.9	-46.2	20.5	0.00e+00	0	34	0	721420288	61	4184
2026-01-17 04:01:10.85	328.99	25.83	-44.9	-46.1	20.6	0.00e+00	0	34	0	729808896	61	4139
2026-01-17 04:01:14.89	327.81	25.69	-45.9	-47.3	19.5	0.00e+00	0	34	0	737148928	62	4478
2026-01-17 04:01:18.92	326.64	25.53	-45.8	-47.3	19.6	0.00e+00	0	34	0	744488960	62	4446
2026-01-17 04:01:22.96	325.48	25.36	-45.3	-46.6	20.2	0.00e+00	0	34	0	751828992	62	4135
2026-01-17 04:01:27.00	324.34	25.18	-46.3	-47.8	19.1	0.00e+00	0	34	0	759169024	63	4483
2026-01-17 04:01:31.03	323.21	24.99	-46.4	-48.0	19.0	0.00e+00	0	34	0	767557632	63	4557
2026-01-17 04:01:35.06	322.09	24.79	-46.9	-48.8	18.1	0.00e+00	0	34	0	774897664	64	4731
2026-01-17 04:01:39.09	320.99	24.58	-47.0	-48.9	18.0	0.00e+00	0	34	0	782237696	65	4494
2026-01-17 04:01:43.12	319.91	24.36	-47.4	-49.5	17.5	0.00e+00	0	34	0	789577728	65	4830
2026-01-17 04:01:47.16	318.84	24.13	-46.8	-48.6	18.2	0.00e+00	0	34	0	797966336	65	4382
2026-01-17 04:01:51.20	317.78	23.89	-46.2	-47.9	18.9	0.00e+00	0	34	0	805306368	64	4248
2026-01-17 04:01:55.23	316.75	23.64	-47.0	-48.9	18.0	0.00e+00	0	34	0	812646400	64	4768
2026-01-17 04:01:59.27	315.72	23.38	-46.5	-48.2	18.5	0.00e+00	0	34	0	819986432	64	4406
2026-01-17 04:02:03.30	314.72	23.12	-46.9	-48.8	18.0	0.00e+00	0	34	0	827326464	64	4713
2026-01-17 04:02:07.33	313.73	22.85	-47.2	-49.3	17.5	0.00e+00	0	34	0	835715072	65	4719
2026-01-17 04:02:11.37	312.76	22.58	-45.6	-47.1	19.7	0.00e+00	0	34	0	843055104	63	4128
2026-01-17 04:02:15.40	311.81	22.30	-46.0	-47.6	19.3	0.00e+00	0	34	0	850395136	62	4599
2026-01-17 04:02:19.43	310.88	22.01	-46.6	-48.4	18.4	0.00e+00	0	34	0	857735168	64	4508
2026-01-17 04:02:23.47	309.96	21.72	-46.0	-47.5	19.2	0.00e+00	0	34	0	865075200	63	4310
2026-01-17 04:02:27.50	309.06	21.43	-45.3	-46.7	19.9	0.00e+00	0	34	0	873463808	62	4180
2026-01-17 04:02:31.53	308.17	21.13	-45.5	-47.0	19.8	0.00e+00	0	34	0	880803840	62	4293
2026-01-17 04:02:35.56	307.31	20.83	-45.6	-47.1	19.6	0.00e+00	0	34	0	888143872	62	4351
2026-01-17 04:02:39.60	306.46	20.52	-45.3	-46.7	20.1	0.00e+00	0	34	0	895483904	62	4167
2026-01-17 04:02:43.63	305.63	20.21	-45.3	-46.8	19.9	0.00e+00	0	34	0	902823936	62	4195
2026-01-17 04:02:47.67	304.81	19.90	-45.8	-47.4	19.4	0.00e+00	0	34	0	911212544	62	4499
2026-01-17 04:02:51.71	304.01	19.59	-45.6	-47.1	19.6	0.00e+00	0	34	0	918552576	62	4387
2026-01-17 04:02:55.74	303.23	19.27	-45.7	-47.2	19.6	0.00e+00	0	34	0	925892608	62	4399
2026-01-17 04:02:59.78	302.46	18.96	-45.5	-47.0	19.7	0.00e+00	0	34	0	933232640	62	4310
2026-01-17 04:03:03.81	301.71	18.64	-44.8	-46.1	20.5	0.00e+00	0	34	0	941621248	61	4110
2026-01-17 04:03:07.83	300.98	18.32	-44.8	-46.1	20.6	0.00e+00	0	34	0	948961280	61	4112
2026-01-17 04:03:11.86	300.26	18.00	-45.5	-47.0	19.8	0.00e+00	0	34	0	956301312	61	4570
2026-01-17 04:03:15.90	299.56	17.68	-45.0	-46.3	20.4	0.00e+00	0	34	0	963641344	61	4220
2026-01-17 04:03:19.93	298.87	17.36	-45.0	-46.3	20.4	0.00e+00	0	34	0	970981376	61	4203
2026-01-17 04:03:23.96	298.20	17.04	-45.4	-46.8	19.9	0.00e+00	0	34	0	979369984	61	4488
2026-01-17 04:03:27.99	297.54	16.72	-45.4	-46.9	19.9	0.00e+00	0	34	0	986710016	62	4244
2026-01-17 04:03:32.03	296.89	16.40	-44.7	-45.9	20.7	0.00e+00	0	34	0	994050048	61	4038
2026-01-17 04:03:36.07	296.26	16.08	-45.4	-46.8	19.9	0.00e+00	0	34	0	1001390080	61	4471
2026-01-17 04:03:40.10	295.64	15.77	-46.1	-47.6	19.2	0.00e+00	0	34	0	1008730112	63	4380
2026-01-17 04:03:44.13	295.04	15.45	-45.6	-47.1	19.7	0.00e+00	0	34	0	1017118720	63	4118
2026-01-17 04:03:48.17	294.44	15.13	-45.5	-47.0	19.7	0.00e+00	0	34	0	1024458752	62	4307
2026-01-17 04:03:52.21	293.86	14.82	-45.9	-47.4	19.4	0.00e+00	0	34	0	1031798784	62	4504
2026-01-17 04:03:56.24	293.30	14.50	-46.7	-48.5	18.2	0.00e+00	0	34	0	1039138816	64	4590
2026-01-17 04:04:00.27	292.74	14.19	-46.5	-48.2	18.5	0.00e+00	0	34	0	1047527424	64	4413
2026-01-17 04:04:04.30	292.20	13.88	-45.6	-47.1	19.6	0.00e+00	0	34	0	1054867456	63	4109
2026-01-17 04:04:08.33	291.67	13.57	-46.0	-47.5	19.2	0.00e+00	0	34	0	1062207488	63	4332
2026-01-17 04:04:12.37	291.15	13.26	-46.0	-47.6	19.1	0.00e+00	0	34	0	1069547520	63	4352
2026-01-17 04:04:16.40	290.64	12.95	-46.1	-47.6	19.1	0.00e+00	0	34	0	1076887552	63	4387
2026-01-17 04:04:20.44	290.14	12.65	-46.5	-48.2	18.5	0.00e+00	0	34	0	1085276160	63	4681
2026-01-17 04:04:24.47	289.65	12.34	-46.6	-48.3	18.4	0.00e+00	0	34	0	1092616192	63	4752
2026-01-17 04:04:28.51	289.17	12.04	-46.8	-48.6	18.0	0.00e+00	0	34	0	1099956224	64	4636
2026-01-17 04:04:32.54	288.70	11.74	-47.4	-49.4	17.2	0.00e+00	0	34	0	1107296256	65	4790
2026-01-17 04:04:36.57	288.25	11.44	-46.9	-48.8	17.8	0.00e+00	0	34	0	1114636288	65	4475
2026-01-17 04:04:40.60	287.80	11.15	-46.6	-48.4	18.2	0.00e+00	0	34	0	1123024896	64	4498
2026-01-17 04:04:44.64	287.36	10.85	-46.7	-48.5	18.1	0.00e+00	0	34	0	1130364928	64	4578
2026-01-17 04:04:48.67	286.93	10.56	-47.3	-49.3	17.3	0.00e+00	0	34	0	1137704960	65	4713
2026-01-17 04:04:52.71	286.50	10.27	-47.1	-49.1	17.5	0.00e+00	0	34	0	1145044992	65	4620
2026-01-17 04:04:56.75	286.09	9.98	-46.7	-48.5	18.0	0.00e+00	0	34	0	1152385024	65	4314
2026-01-17 04:05:00.78	285.68	9.69	-46.5	-48.3	18.2	0.00e+00	0	34	0	1160773632	64	4467
2026-01-17 04:05:04.81	285.29	9.40	-46.9	-48.8	17.6	0.00e+00	0	34	0	1168113664	64	4756
2026-01-17 04:05:08.84	284.90	9.12	-47.6	-49.8	16.8	0.00e+00	0	34	0	1175453696	65	4988
2026-01-17 04:05:12.88	284.52	8.84	-48.2	-50.6	15.9	0.00e+00	0	34	0	1182793728	66	5214
2026-01-17 04:05:16.91	284.14	8.56	-48.6	-51.2	15.2	0.00e+00	0	34	0	1191182336	67	5275
2026-01-17 04:05:20.95	283.78	8.28	-48.3	-50.8	15.6	0.00e+00	0	34	0	1198522368	67	5022
2026-01-17 04:05:24.98	283.42	8.01	-48.3	-50.9	15.6	0.00e+00	0	34	0	1205862400	67	5071
2026-01-17 04:05:29.01	283.06	7.73	-48.2	-50.8	15.6	0.00e+00	0	34	0	1213202432	67	4990
2026-01-17 04:05:33.05	282.72	7.46	-48.6	-51.4	15.2	0.00e+00	0	34	0	1220542464	68	5044
2026-01-17 04:05:37.08	282.38	7.19	-49.1	-52.2	14.2	0.00e+00	0	34	0	1228931072	68	5590
2026-01-17 04:05:41.11	282.05	6.92	-48.8	-51.7	14.7	0.00e+00	0	34	0	1236271104	69	4963
2026-01-17 04:05:45.14	281.72	6.66	-48.2	-50.7	15.6	0.00e+00	0	34	0	1243611136	68	4665
2026-01-17 04:05:49.18	281.40	6.39	-47.6	-49.9	16.3	0.00e+00	0	34	0	1250951168	67	4503
2026-01-17 04:05:53.21	281.08	6.13	-47.1	-49.1	17.0	0.00e+00	0	34	0	1258291200	66	4384
2026-01-17 04:05:57.24	280.78	5.87	-47.8	-50.2	15.9	0.00e+00	0	34	0	1266679808	66	4936
2026-01-17 04:06:01.28	280.47	5.61	-48.2	-51.0	15.1	0.00e+00	0	34	0	1274019840	67	5108
2026-01-17 04:06:05.31	280.18	5.35	-48.2	-50.9	15.0	0.00e+00	0	34	0	1281359872	67	5092
2026-01-17 04:06:09.34	279.88	5.10	-48.8	-51.9	14.1	2.20e-06	0	34	0	1288699904	68	5391
2026-01-17 04:06:13.37	279.60	4.84	-52.9	-67.9	3.8	1.49e+00	0	34	104	1291845632	76	21488
2026-01-17 04:06:17.41	279.31	4.59	-53.3	-68.3	3.8	1.49e+00	0	34	104	1291845632	77	21212
2026-01-17 04:06:21.44	279.04	4.34	-53.5	-68.5	3.8	1.49e+00	0	34	104	1291845632	77	21735
2026-01-17 04:06:25.47	278.77	4.09	-53.7	-68.7	3.8	1.49e+00	0	35	104	1291845632	77	22116
2026-01-17 04:06:29.50	278.50	3.84	-53.7	-68.7	3.8	1.49e+00	0	34	104	1291845632	77	22154
2026-01-17 04:06:33.54	278.24	3.60	-53.7	-68.7	3.8	1.49e+00	0	34	104	1291845632	77	22151
2026-01-17 04:06:37.57	277.98	3.35	-53.6	-68.6	3.8	1.49e+00	0	34	104	1291845632	77	21879
2026-01-17 04:06:41.60	277.73	3.11	-53.5	-68.5	3.8	1.49e+00	0	34	104	1291845632	77	21650
2026-01-17 04:06:45.64	277.48	2.87	-53.5	-68.5	3.8	1.49e+00	0	34	104	1291845632	77	21674
2026-01-17 04:06:49.67	277.23	2.63	-53.5	-68.5	3.8	1.49e+00	0	34	104	1291845632	77	21593
2026-01-17 04:06:53.70	276.99	2.40	-53.4	-68.5	3.8	1.49e+00	0	34	104	1291845632	77	21573
2026-01-17 04:06:57.74	276.76	2.16	-53.5	-68.5	3.8	1.49e+00	0	35	104	1291845632	77	21585
2026-01-17 04:07:01.77	276.52	1.92	-53.4	-68.5	3.8	1.49e+00	0	34	104	1291845632	77	21538

#Closed at: 2026-01-17 04:07:02
#Recorded file [1291 MB]: D:/lorett/data/31041_260117_065403.dat