passes_logs/2026/01/17/R3.2S_Murmansk/R3.2S_Murmansk__20260117_121346_SUOMI_NPP_rec.log

#Pass ID: 20260117_121346_SUOMI NPP
#Satellite: SUOMI NPP
#Configuration: NPP
#almurnet v.1.7.20251203
#Start time: 2026-01-17 12:13:46

#Version: 2.2.20231116
#Station: R3.2S_Murmansk
#Location: 33.079688 lon 68.888172 lat
#TLE: 1 37849U 11061A   26016.58419598  .00000058  00000+0  48257-4 0  9996
#TLE: 2 37849  98.7812 318.6192 0002422  60.8544 299.2874 14.19525580736934

#Time	Az	El	Level	Level2	SNR	BER	BlckErr	Temp	State	Recorded	gain1	gain2
2026-01-17 12:13:46.70	218.72	2.01	-52.3	-67.3	3.8	1.49e+00	0	32	0	0	76	19891
2026-01-17 12:13:49.72	218.95	2.17	-52.3	-67.2	3.8	1.49e+00	0	32	104	0	75	20977
2026-01-17 12:13:52.75	219.19	2.33	-52.3	-67.2	3.8	1.49e+00	0	32	104	0	75	20917
2026-01-17 12:13:55.78	219.43	2.49	-52.3	-67.2	3.8	1.49e+00	0	32	104	0	75	20985
2026-01-17 12:13:58.81	219.67	2.66	-52.3	-67.3	3.8	1.49e+00	0	32	104	0	75	21080
2026-01-17 12:14:01.84	219.92	2.82	-52.3	-67.1	3.8	1.49e+00	0	33	104	0	75	20713
2026-01-17 12:14:04.86	220.16	2.98	-52.3	-67.1	3.8	1.49e+00	0	33	104	0	75	20749
2026-01-17 12:14:07.89	220.41	3.15	-52.3	-67.2	3.8	1.49e+00	0	33	104	0	75	20873
2026-01-17 12:14:10.91	220.66	3.31	-52.3	-67.2	3.8	1.49e+00	0	33	104	0	75	20932
2026-01-17 12:14:13.94	220.92	3.48	-52.2	-67.1	3.8	1.49e+00	0	33	104	0	75	20569
2026-01-17 12:14:16.97	221.18	3.65	-52.2	-67.1	3.8	1.49e+00	0	33	104	0	75	20559
2026-01-17 12:14:19.99	221.44	3.81	-52.2	-67.1	3.8	1.49e+00	0	33	104	0	75	20775
2026-01-17 12:14:23.02	221.70	3.98	-52.2	-67.0	3.8	1.49e+00	0	33	104	0	75	20458
2026-01-17 12:14:26.05	221.97	4.15	-52.2	-67.2	3.8	1.49e+00	0	33	104	0	75	20869
2026-01-17 12:14:29.08	222.24	4.32	-52.1	-64.3	4.1	1.48e+00	0	33	104	0	75	14896
2026-01-17 12:14:32.10	222.51	4.48	-51.7	-60.7	5.6	5.00e-01	0	33	0	4194304	75	9847
2026-01-17 12:14:35.13	222.78	4.65	-51.2	-57.8	8.2	8.60e-02	0	33	0	9437184	74	7467
2026-01-17 12:14:38.15	223.06	4.82	-49.7	-53.4	12.7	1.92e-04	0	33	0	14680064	71	5341
2026-01-17 12:14:41.18	223.34	4.99	-48.5	-51.2	15.0	7.00e-07	0	33	0	20971520	69	4692
2026-01-17 12:14:44.20	223.63	5.17	-49.9	-54.1	11.8	5.08e-04	0	33	0	26214400	71	5806
2026-01-17 12:14:47.23	223.92	5.34	-49.5	-53.1	13.1	2.44e-05	0	33	0	32505856	69	5808
2026-01-17 12:14:50.25	224.21	5.51	-47.9	-50.4	15.7	0.00e+00	0	33	0	37748736	67	4780
2026-01-17 12:14:53.27	224.50	5.68	-47.9	-50.2	15.9	0.00e+00	0	33	0	42991616	67	4705
2026-01-17 12:14:56.30	224.80	5.85	-47.9	-50.2	16.0	0.00e+00	0	34	0	49283072	67	4682
2026-01-17 12:14:59.32	225.10	6.03	-47.8	-50.1	16.1	0.00e+00	0	33	0	54525952	67	4618
2026-01-17 12:15:02.35	225.40	6.20	-47.9	-50.2	16.0	0.00e+00	0	33	0	60817408	67	4677
2026-01-17 12:15:05.37	225.71	6.38	-48.0	-50.5	15.7	0.00e+00	0	33	0	66060288	67	4840
2026-01-17 12:15:08.39	226.02	6.55	-48.1	-50.6	15.7	0.00e+00	0	33	0	71303168	67	4875
2026-01-17 12:15:11.42	226.34	6.73	-48.6	-51.3	15.0	0.00e+00	0	33	0	77594624	67	5337
2026-01-17 12:15:14.45	226.66	6.90	-48.4	-51.0	15.3	0.00e+00	0	34	0	82837504	67	5153
2026-01-17 12:15:17.47	226.98	7.08	-48.2	-50.8	15.6	0.00e+00	0	33	0	89128960	67	4996
2026-01-17 12:15:20.49	227.31	7.26	-48.1	-50.5	15.9	0.00e+00	0	34	0	94371840	67	4816
2026-01-17 12:15:23.52	227.64	7.44	-48.2	-50.6	15.8	0.00e+00	0	34	0	100663296	67	4895
2026-01-17 12:15:26.54	227.97	7.61	-48.0	-50.3	16.1	0.00e+00	0	34	0	105906176	67	4755
2026-01-17 12:15:29.56	228.31	7.79	-48.0	-50.3	16.1	0.00e+00	0	33	0	111149056	67	4721
2026-01-17 12:15:32.59	228.65	7.97	-47.7	-49.9	16.5	0.00e+00	0	34	0	117440512	67	4507
2026-01-17 12:15:35.61	228.99	8.15	-47.3	-49.3	17.1	0.00e+00	0	34	0	122683392	66	4485
2026-01-17 12:15:38.64	229.34	8.33	-47.2	-49.1	17.3	0.00e+00	0	34	0	128974848	66	4372
2026-01-17 12:15:41.66	229.70	8.51	-47.0	-48.9	17.6	0.00e+00	0	34	0	134217728	66	4268
2026-01-17 12:15:44.68	230.06	8.69	-47.3	-49.3	17.2	0.00e+00	0	34	0	139460608	66	4443
2026-01-17 12:15:47.71	230.42	8.87	-47.3	-49.2	17.3	0.00e+00	0	34	0	145752064	66	4436
2026-01-17 12:15:50.73	230.79	9.05	-47.4	-49.4	17.2	0.00e+00	0	34	0	150994944	66	4497
2026-01-17 12:15:53.76	231.16	9.23	-47.5	-49.5	17.0	0.00e+00	0	34	0	157286400	66	4579
2026-01-17 12:15:56.78	231.53	9.41	-47.3	-49.2	17.3	0.00e+00	0	34	0	162529280	66	4435
2026-01-17 12:15:59.81	231.91	9.60	-47.1	-49.0	17.5	0.00e+00	0	34	0	168820736	66	4308
2026-01-17 12:16:02.83	232.30	9.78	-47.1	-49.0	17.5	0.00e+00	0	34	0	174063616	65	4581
2026-01-17 12:16:05.85	232.69	9.96	-47.1	-48.9	17.6	0.00e+00	0	34	0	179306496	65	4545
2026-01-17 12:16:08.88	233.08	10.14	-47.0	-48.9	17.7	0.00e+00	0	34	0	185597952	65	4499
2026-01-17 12:16:11.90	233.48	10.32	-47.0	-48.9	17.7	0.00e+00	0	34	0	190840832	65	4494
2026-01-17 12:16:14.93	233.89	10.51	-46.7	-48.5	18.1	0.00e+00	0	34	0	197132288	65	4311
2026-01-17 12:16:17.95	234.29	10.69	-46.7	-48.5	18.1	0.00e+00	0	34	0	202375168	65	4303
2026-01-17 12:16:20.97	234.71	10.87	-46.7	-48.4	18.2	0.00e+00	0	34	0	207618048	65	4255
2026-01-17 12:16:23.99	235.12	11.05	-46.9	-48.8	17.9	0.00e+00	0	34	0	213909504	65	4456
2026-01-17 12:16:27.02	235.55	11.24	-47.0	-48.8	17.9	0.00e+00	0	34	0	219152384	65	4453
2026-01-17 12:16:30.04	235.98	11.42	-47.0	-48.9	17.8	0.00e+00	0	34	0	225443840	65	4512
2026-01-17 12:16:33.07	236.41	11.60	-47.0	-48.8	17.8	0.00e+00	0	34	0	230686720	65	4475
2026-01-17 12:16:36.09	236.85	11.79	-46.9	-48.6	18.0	0.00e+00	0	34	0	235929600	65	4372
2026-01-17 12:16:39.12	237.30	11.97	-46.9	-48.6	18.0	0.00e+00	0	34	0	242221056	65	4389
2026-01-17 12:16:42.14	237.75	12.15	-47.0	-48.8	17.9	0.00e+00	0	34	0	247463936	65	4489
2026-01-17 12:16:45.16	238.20	12.33	-46.9	-48.7	18.0	0.00e+00	0	34	0	253755392	65	4413
2026-01-17 12:16:48.19	238.66	12.52	-46.7	-48.4	18.3	0.00e+00	0	34	0	258998272	65	4246
2026-01-17 12:16:51.21	239.13	12.70	-46.1	-47.7	18.9	0.00e+00	0	34	0	264241152	64	4151
2026-01-17 12:16:54.23	239.60	12.88	-46.2	-47.8	18.9	0.00e+00	0	34	0	270532608	64	4206
2026-01-17 12:16:57.26	240.08	13.06	-46.3	-47.9	18.7	0.00e+00	0	34	0	275775488	64	4256
2026-01-17 12:17:00.28	240.56	13.24	-46.6	-48.2	18.4	0.00e+00	0	34	0	282066944	64	4422
2026-01-17 12:17:03.31	241.05	13.42	-46.5	-48.1	18.6	0.00e+00	0	34	0	287309824	64	4378
2026-01-17 12:17:06.34	241.54	13.60	-46.5	-48.2	18.5	0.00e+00	0	34	0	292552704	64	4423
2026-01-17 12:17:09.36	242.04	13.78	-46.6	-48.2	18.5	0.00e+00	0	34	0	298844160	64	4434
2026-01-17 12:17:12.39	242.55	13.95	-46.8	-48.5	18.2	0.00e+00	0	34	0	304087040	64	4579
2026-01-17 12:17:15.41	243.06	14.13	-46.9	-48.6	18.2	0.00e+00	0	34	0	310378496	64	4632
2026-01-17 12:17:18.44	243.58	14.31	-46.3	-47.9	18.8	0.00e+00	0	34	0	315621376	64	4257
2026-01-17 12:17:21.47	244.11	14.48	-46.4	-48.0	18.8	0.00e+00	0	34	0	320864256	64	4305
2026-01-17 12:17:24.49	244.64	14.66	-46.6	-48.2	18.5	0.00e+00	0	34	0	327155712	64	4420
2026-01-17 12:17:27.52	245.17	14.83	-46.4	-48.0	18.7	0.00e+00	0	34	0	332398592	64	4310
2026-01-17 12:17:30.55	245.72	15.00	-46.0	-47.6	19.1	0.00e+00	0	34	0	338690048	64	4101
2026-01-17 12:17:33.57	246.26	15.17	-46.0	-47.5	19.3	0.00e+00	0	34	0	343932928	63	4325
2026-01-17 12:17:36.59	246.82	15.34	-45.9	-47.3	19.4	0.00e+00	0	34	0	349175808	63	4242
2026-01-17 12:17:39.62	247.38	15.51	-46.0	-47.5	19.2	0.00e+00	0	34	0	355467264	63	4329
2026-01-17 12:17:42.65	247.95	15.68	-46.2	-47.7	19.1	0.00e+00	0	34	0	360710144	63	4427
2026-01-17 12:17:45.67	248.52	15.84	-46.2	-47.7	19.1	0.00e+00	0	34	0	367001600	63	4411
2026-01-17 12:17:48.70	249.10	16.01	-46.2	-47.7	19.2	0.00e+00	0	34	0	372244480	63	4415
2026-01-17 12:17:51.73	249.68	16.17	-46.2	-47.7	19.1	0.00e+00	0	34	0	378535936	63	4435
2026-01-17 12:17:54.75	250.27	16.33	-46.7	-48.3	18.7	0.00e+00	0	34	0	383778816	63	4721
2026-01-17 12:17:57.78	250.87	16.49	-46.6	-48.2	18.6	0.00e+00	0	34	0	389021696	64	4430
2026-01-17 12:18:00.80	251.48	16.65	-46.5	-48.1	18.8	0.00e+00	0	34	0	395313152	64	4359
2026-01-17 12:18:03.82	252.08	16.80	-46.8	-48.5	18.4	0.00e+00	0	34	0	400556032	64	4581
2026-01-17 12:18:06.85	252.70	16.95	-46.9	-48.7	18.2	0.00e+00	0	34	0	406847488	64	4657
2026-01-17 12:18:09.87	253.32	17.10	-47.0	-48.7	18.2	0.00e+00	0	34	0	412090368	64	4671
2026-01-17 12:18:12.90	253.95	17.25	-47.2	-48.9	17.9	0.00e+00	0	34	0	417333248	65	4541
2026-01-17 12:18:15.92	254.58	17.40	-47.2	-48.9	17.9	0.00e+00	0	34	0	423624704	65	4542
2026-01-17 12:18:18.94	255.22	17.54	-47.4	-49.3	17.6	0.00e+00	0	34	0	428867584	65	4729
2026-01-17 12:18:21.97	255.87	17.68	-47.5	-49.4	17.5	0.00e+00	0	34	0	435159040	65	4781
2026-01-17 12:18:24.99	256.52	17.82	-47.7	-49.7	17.4	0.00e+00	0	34	0	440401920	65	4931
2026-01-17 12:18:28.02	257.17	17.95	-48.0	-50.0	16.9	0.00e+00	0	34	0	446693376	66	4870
2026-01-17 12:18:31.04	257.83	18.08	-47.7	-49.7	17.2	0.00e+00	0	34	0	451936256	66	4685
2026-01-17 12:18:34.07	258.50	18.21	-47.0	-48.7	18.2	0.00e+00	0	34	0	457179136	66	4192
2026-01-17 12:18:37.09	259.18	18.34	-47.3	-49.1	17.8	0.00e+00	0	34	0	463470592	66	4379
2026-01-17 12:18:40.12	259.86	18.46	-46.8	-48.5	18.4	0.00e+00	0	34	0	468713472	65	4319
2026-01-17 12:18:43.14	260.54	18.58	-46.9	-48.6	18.3	0.00e+00	0	34	0	475004928	65	4372
2026-01-17 12:18:46.17	261.23	18.69	-46.9	-48.6	18.3	0.00e+00	0	34	0	480247808	65	4377
2026-01-17 12:18:49.20	261.92	18.81	-46.3	-47.8	19.0	0.00e+00	0	34	0	485490688	64	4229
2026-01-17 12:18:52.23	262.62	18.91	-46.4	-47.9	18.9	0.00e+00	0	34	0	491782144	64	4281
2026-01-17 12:18:55.25	263.33	19.02	-46.3	-47.8	19.0	0.00e+00	0	34	0	497025024	64	4229
2026-01-17 12:18:58.28	264.03	19.12	-45.9	-47.4	19.5	0.00e+00	0	34	0	503316480	63	4246
2026-01-17 12:19:01.30	264.75	19.22	-46.0	-47.4	19.5	0.00e+00	0	34	0	508559360	63	4270
2026-01-17 12:19:04.33	265.46	19.31	-45.4	-46.8	20.0	0.00e+00	0	34	0	513802240	62	4207
2026-01-17 12:19:07.35	266.18	19.40	-45.9	-47.3	19.7	0.00e+00	0	34	0	520093696	62	4444
2026-01-17 12:19:10.38	266.91	19.48	-46.0	-47.4	19.5	0.00e+00	0	34	0	525336576	62	4544
2026-01-17 12:19:13.40	267.64	19.56	-46.0	-47.4	19.5	0.00e+00	0	34	0	531628032	62	4522
2026-01-17 12:19:16.43	268.37	19.64	-46.2	-47.7	19.3	0.00e+00	0	34	0	536870912	63	4392
2026-01-17 12:19:19.45	269.11	19.71	-45.9	-47.3	19.6	0.00e+00	0	34	0	542113792	63	4207
2026-01-17 12:19:22.48	269.85	19.78	-46.2	-47.7	19.2	0.00e+00	0	34	0	548405248	63	4424
2026-01-17 12:19:25.51	270.59	19.84	-45.9	-47.3	19.7	0.00e+00	0	34	0	553648128	63	4214
2026-01-17 12:19:28.53	271.33	19.90	-45.9	-47.3	19.7	0.00e+00	0	34	0	559939584	63	4209
2026-01-17 12:19:31.56	272.08	19.95	-46.7	-48.3	18.7	0.00e+00	0	34	0	565182464	64	4458
2026-01-17 12:19:34.58	272.83	20.00	-46.5	-48.1	18.8	0.00e+00	0	34	0	570425344	64	4381
2026-01-17 12:19:37.60	273.58	20.05	-47.0	-48.7	18.2	0.00e+00	0	34	0	576716800	64	4691
2026-01-17 12:19:40.63	274.34	20.09	-46.4	-48.0	18.9	0.00e+00	0	34	0	581959680	64	4309
2026-01-17 12:19:43.65	275.09	20.12	-46.2	-47.7	19.2	0.00e+00	0	34	0	588251136	64	4183
2026-01-17 12:19:46.68	275.85	20.15	-46.2	-47.7	19.2	0.00e+00	0	34	0	593494016	64	4191
2026-01-17 12:19:49.70	276.61	20.17	-46.1	-47.6	19.5	0.00e+00	0	34	0	598736896	63	4346
2026-01-17 12:19:52.72	277.37	20.19	-46.9	-48.5	18.5	0.00e+00	0	34	0	605028352	64	4590
2026-01-17 12:19:55.74	278.12	20.21	-47.2	-49.0	18.0	0.00e+00	0	34	0	610271232	65	4564
2026-01-17 12:19:58.77	278.89	20.22	-47.0	-48.7	18.3	0.00e+00	0	34	0	616562688	65	4429
2026-01-17 12:20:01.79	279.65	20.22	-47.0	-48.6	18.4	0.00e+00	0	34	0	621805568	65	4385
2026-01-17 12:20:04.82	280.41	20.22	-46.9	-48.5	18.5	0.00e+00	0	34	0	628097024	65	4339
2026-01-17 12:20:07.84	281.17	20.22	-47.1	-48.8	18.2	0.00e+00	0	34	0	633339904	65	4485
2026-01-17 12:20:10.87	281.93	20.21	-46.9	-48.6	18.4	0.00e+00	0	34	0	638582784	65	4364
2026-01-17 12:20:13.89	282.69	20.19	-47.5	-49.4	17.8	0.00e+00	0	34	0	644874240	65	4767
2026-01-17 12:20:16.92	283.45	20.17	-47.4	-49.3	17.8	0.00e+00	0	34	0	650117120	65	4716
2026-01-17 12:20:19.94	284.21	20.15	-47.4	-49.2	17.9	0.00e+00	0	34	0	656408576	65	4669
2026-01-17 12:20:22.97	284.96	20.12	-47.6	-49.4	17.7	0.00e+00	0	34	0	661651456	66	4515
2026-01-17 12:20:25.99	285.72	20.08	-47.0	-48.7	18.4	0.00e+00	0	34	0	666894336	66	4167
2026-01-17 12:20:29.02	286.47	20.04	-46.7	-48.3	18.8	0.00e+00	0	34	0	673185792	65	4211
2026-01-17 12:20:32.04	287.22	20.00	-46.7	-48.2	18.9	0.00e+00	0	34	0	678428672	65	4185
2026-01-17 12:20:35.07	287.97	19.95	-47.0	-48.7	18.4	0.00e+00	0	34	0	684720128	65	4420
2026-01-17 12:20:38.10	288.72	19.89	-47.0	-48.7	18.5	0.00e+00	0	34	0	689963008	65	4392
2026-01-17 12:20:41.12	289.46	19.84	-46.8	-48.4	18.7	0.00e+00	0	34	0	696254464	65	4253
2026-01-17 12:20:44.14	290.20	19.77	-46.8	-48.4	18.7	0.00e+00	0	34	0	701497344	65	4285
2026-01-17 12:20:47.17	290.94	19.71	-47.0	-48.7	18.4	0.00e+00	0	34	0	706740224	65	4406
2026-01-17 12:20:50.19	291.67	19.63	-46.5	-48.0	19.1	0.00e+00	0	34	0	713031680	65	4054
2026-01-17 12:20:53.22	292.41	19.56	-46.6	-48.2	18.9	0.00e+00	0	34	0	718274560	64	4416
2026-01-17 12:20:56.24	293.13	19.48	-46.7	-48.3	18.8	0.00e+00	0	34	0	724566016	64	4453
2026-01-17 12:20:59.26	293.85	19.39	-46.8	-48.4	18.7	0.00e+00	0	34	0	729808896	64	4525
2026-01-17 12:21:02.29	294.57	19.30	-47.7	-49.6	17.6	0.00e+00	0	34	0	735051776	65	4886
2026-01-17 12:21:05.32	295.29	19.21	-47.1	-48.8	18.3	0.00e+00	0	34	0	741343232	66	4224
2026-01-17 12:21:08.35	296.00	19.11	-46.4	-47.9	19.1	0.00e+00	0	34	0	746586112	64	4258
2026-01-17 12:21:11.37	296.71	19.01	-46.8	-48.4	18.7	0.00e+00	0	34	0	752877568	64	4529
2026-01-17 12:21:14.40	297.41	18.91	-46.0	-47.5	19.5	0.00e+00	0	34	0	758120448	64	4057
2026-01-17 12:21:17.43	298.11	18.80	-46.1	-47.5	19.6	0.00e+00	0	34	0	763363328	63	4315
2026-01-17 12:21:20.45	298.80	18.69	-46.6	-48.2	19.0	0.00e+00	0	34	0	769654784	63	4658
2026-01-17 12:21:23.47	299.48	18.57	-46.3	-47.8	19.4	0.00e+00	0	34	0	774897664	63	4456
2026-01-17 12:21:26.50	300.17	18.45	-45.9	-47.3	19.8	0.00e+00	0	34	0	781189120	63	4218
2026-01-17 12:21:29.53	300.84	18.33	-46.3	-47.8	19.4	0.00e+00	0	34	0	786432000	63	4460
2026-01-17 12:21:32.56	301.51	18.21	-46.4	-47.9	19.4	0.00e+00	0	34	0	791674880	63	4502
2026-01-17 12:21:35.59	302.18	18.08	-46.3	-47.8	19.4	0.00e+00	0	34	0	797966336	63	4478
2026-01-17 12:21:38.61	302.84	17.95	-46.6	-48.2	19.0	0.00e+00	0	34	0	803209216	63	4675
2026-01-17 12:21:41.64	303.49	17.81	-46.5	-48.0	19.1	0.00e+00	0	34	0	809500672	64	4339
2026-01-17 12:21:44.66	304.14	17.67	-46.4	-48.0	19.1	0.00e+00	0	34	0	814743552	64	4293
2026-01-17 12:21:47.69	304.78	17.53	-46.5	-48.1	19.0	0.00e+00	0	34	0	819986432	64	4360
2026-01-17 12:21:50.72	305.42	17.39	-47.0	-48.6	18.5	0.00e+00	0	34	0	826277888	64	4644
2026-01-17 12:21:53.74	306.05	17.25	-47.5	-49.3	17.8	0.00e+00	0	34	0	831520768	65	4737
2026-01-17 12:21:56.77	306.68	17.10	-47.1	-48.8	18.4	0.00e+00	0	34	0	837812224	65	4445
2026-01-17 12:21:59.80	307.30	16.95	-47.1	-48.7	18.3	0.00e+00	0	34	0	843055104	65	4438
2026-01-17 12:22:02.82	307.91	16.80	-46.8	-48.5	18.6	0.00e+00	0	34	0	849346560	65	4298
2026-01-17 12:22:05.85	308.52	16.65	-46.5	-48.0	19.0	0.00e+00	0	34	0	854589440	64	4321
2026-01-17 12:22:08.87	309.12	16.49	-46.9	-48.6	18.5	0.00e+00	0	34	0	859832320	64	4625
2026-01-17 12:22:11.90	309.71	16.33	-47.6	-49.4	17.7	0.00e+00	0	34	0	866123776	65	4797
2026-01-17 12:22:14.92	310.30	16.17	-48.1	-50.2	16.9	0.00e+00	0	34	0	871366656	66	4962
2026-01-17 12:22:17.94	310.88	16.01	-47.9	-49.9	17.2	0.00e+00	0	34	0	877658112	66	4792
2026-01-17 12:22:20.97	311.46	15.85	-47.1	-48.9	18.1	0.00e+00	0	34	0	882900992	66	4256
2026-01-17 12:22:24.00	312.03	15.68	-46.8	-48.4	18.6	0.00e+00	0	34	0	888143872	65	4248
2026-01-17 12:22:27.02	312.59	15.52	-47.1	-48.8	18.2	0.00e+00	0	34	0	894435328	65	4472
2026-01-17 12:22:30.05	313.15	15.35	-47.9	-49.9	17.1	0.00e+00	0	34	0	899678208	66	4790
2026-01-17 12:22:33.07	313.70	15.18	-47.8	-49.7	17.3	0.00e+00	0	34	0	905969664	66	4677
2026-01-17 12:22:36.10	314.25	15.01	-47.3	-49.1	17.8	0.00e+00	0	34	0	911212544	66	4387
2026-01-17 12:22:39.12	314.79	14.84	-47.5	-49.4	17.6	0.00e+00	0	34	0	917504000	66	4518
2026-01-17 12:22:42.14	315.32	14.67	-47.1	-48.9	18.0	0.00e+00	0	34	0	922746880	66	4270
2026-01-17 12:22:45.16	315.85	14.50	-46.8	-48.5	18.4	0.00e+00	0	34	0	927989760	65	4293
2026-01-17 12:22:48.19	316.37	14.32	-47.0	-48.7	18.1	0.00e+00	0	34	0	934281216	65	4437
2026-01-17 12:22:51.22	316.89	14.15	-47.2	-49.0	17.9	0.00e+00	0	34	0	939524096	65	4562
2026-01-17 12:22:54.24	317.40	13.97	-47.0	-48.7	18.2	0.00e+00	0	34	0	945815552	65	4439
2026-01-17 12:22:57.26	317.90	13.80	-46.8	-48.5	18.3	0.00e+00	0	34	0	951058432	65	4318
2026-01-17 12:23:00.29	318.40	13.62	-46.9	-48.6	18.2	0.00e+00	0	34	0	956301312	65	4360
2026-01-17 12:23:03.31	318.89	13.44	-47.0	-48.7	18.1	0.00e+00	0	34	0	962592768	65	4413
2026-01-17 12:23:06.34	319.38	13.26	-46.9	-48.6	18.2	0.00e+00	0	34	0	967835648	65	4385
2026-01-17 12:23:09.36	319.86	13.08	-47.1	-48.9	17.9	0.00e+00	0	34	0	974127104	65	4518
2026-01-17 12:23:12.38	320.33	12.90	-47.0	-48.8	18.0	0.00e+00	0	34	0	979369984	65	4452
2026-01-17 12:23:15.41	320.81	12.72	-46.4	-47.9	18.8	0.00e+00	0	34	0	984612864	64	4279
2026-01-17 12:23:18.43	321.27	12.54	-46.0	-47.5	19.3	0.00e+00	0	34	0	990904320	63	4304
2026-01-17 12:23:21.46	321.73	12.36	-46.3	-47.9	18.9	0.00e+00	0	34	0	996147200	63	4512
2026-01-17 12:23:24.48	322.18	12.18	-46.6	-48.3	18.4	0.00e+00	0	34	0	1002438656	64	4466
2026-01-17 12:23:27.51	322.63	12.00	-46.7	-48.4	18.3	0.00e+00	0	34	0	1007681536	64	4521
2026-01-17 12:23:30.54	323.07	11.82	-46.2	-47.8	18.8	0.00e+00	0	34	0	1012924416	64	4224
2026-01-17 12:23:33.56	323.51	11.64	-46.6	-48.2	18.5	0.00e+00	0	34	0	1019215872	64	4428
2026-01-17 12:23:36.58	323.94	11.46	-46.9	-48.7	18.0	0.00e+00	0	34	0	1024458752	64	4678
2026-01-17 12:23:39.61	324.37	11.28	-46.6	-48.3	18.3	0.00e+00	0	34	0	1030750208	64	4473
2026-01-17 12:23:42.64	324.79	11.09	-46.5	-48.2	18.4	0.00e+00	0	34	0	1035993088	64	4401
2026-01-17 12:23:45.66	325.21	10.91	-46.5	-48.2	18.5	0.00e+00	0	34	0	1041235968	64	4399
2026-01-17 12:23:48.68	325.62	10.73	-47.3	-49.2	17.5	0.00e+00	0	34	0	1047527424	65	4674
2026-01-17 12:23:51.71	326.03	10.55	-47.5	-49.6	17.1	0.00e+00	0	34	0	1052770304	65	4878
2026-01-17 12:23:54.73	326.43	10.37	-47.4	-49.4	17.2	0.00e+00	0	34	0	1059061760	65	4799
2026-01-17 12:23:57.76	326.83	10.19	-47.2	-49.1	17.5	0.00e+00	0	34	0	1064304640	65	4630
2026-01-17 12:24:00.78	327.22	10.01	-47.3	-49.3	17.3	0.00e+00	0	34	0	1069547520	65	4719
2026-01-17 12:24:03.81	327.61	9.83	-47.3	-49.2	17.4	0.00e+00	0	34	0	1075838976	65	4686
2026-01-17 12:24:06.83	328.00	9.65	-47.2	-49.1	17.4	0.00e+00	0	34	0	1081081856	65	4650
2026-01-17 12:24:09.86	328.38	9.47	-47.1	-49.0	17.6	0.00e+00	0	34	0	1087373312	65	4569
2026-01-17 12:24:12.88	328.75	9.29	-47.2	-49.1	17.4	0.00e+00	0	34	0	1092616192	65	4647
2026-01-17 12:24:15.90	329.12	9.11	-47.4	-49.5	17.1	0.00e+00	0	34	0	1097859072	65	4823
2026-01-17 12:24:18.93	329.49	8.93	-47.3	-49.2	17.3	0.00e+00	0	34	0	1104150528	65	4690
2026-01-17 12:24:21.96	329.85	8.75	-46.8	-48.5	17.9	0.00e+00	0	34	0	1109393408	65	4336
2026-01-17 12:24:24.98	330.21	8.57	-46.6	-48.3	18.1	0.00e+00	0	34	0	1115684864	65	4235
2026-01-17 12:24:28.00	330.56	8.39	-47.1	-49.0	17.5	0.00e+00	0	34	0	1120927744	65	4576
2026-01-17 12:24:31.03	330.91	8.21	-47.5	-49.7	16.8	0.00e+00	0	34	0	1127219200	65	4928
2026-01-17 12:24:34.05	331.25	8.03	-47.6	-49.8	16.7	0.00e+00	0	34	0	1132462080	66	4708
2026-01-17 12:24:37.08	331.60	7.86	-47.1	-49.0	17.5	0.00e+00	0	34	0	1137704960	66	4306
2026-01-17 12:24:40.10	331.93	7.68	-46.8	-48.6	17.7	0.00e+00	0	34	0	1143996416	65	4381
2026-01-17 12:24:43.13	332.27	7.50	-47.1	-49.0	17.4	0.00e+00	0	34	0	1149239296	65	4575
2026-01-17 12:24:46.15	332.60	7.33	-47.4	-49.5	16.9	0.00e+00	0	34	0	1155530752	65	4838
2026-01-17 12:24:49.17	332.92	7.15	-47.9	-50.3	16.1	0.00e+00	0	34	0	1160773632	66	4991
2026-01-17 12:24:52.20	333.24	6.98	-48.0	-50.3	16.1	0.00e+00	0	34	0	1166016512	66	4997
2026-01-17 12:24:55.22	333.56	6.80	-48.1	-50.6	15.8	0.00e+00	0	34	0	1172307968	66	5168
2026-01-17 12:24:58.25	333.88	6.63	-48.4	-50.9	15.4	0.00e+00	0	34	0	1177550848	67	5091
2026-01-17 12:25:01.27	334.19	6.45	-48.8	-51.6	14.8	7.00e-07	0	34	0	1183842304	68	5205
2026-01-17 12:25:04.30	334.50	6.28	-49.1	-52.2	14.2	3.00e-06	0	34	0	1189085184	69	5233
2026-01-17 12:25:07.32	334.80	6.11	-48.9	-51.8	14.5	0.00e+00	0	34	0	1195376640	69	5024
2026-01-17 12:25:10.34	335.10	5.94	-48.7	-51.6	14.6	7.00e-07	0	34	0	1200619520	69	4886
2026-01-17 12:25:13.37	335.40	5.76	-48.3	-50.9	15.3	0.00e+00	0	34	0	1205862400	68	4770
2026-01-17 12:25:16.39	335.69	5.59	-48.4	-51.0	15.2	0.00e+00	0	34	0	1212153856	68	4866
2026-01-17 12:25:19.42	335.98	5.42	-48.5	-51.3	15.0	7.00e-07	0	34	0	1217396736	68	4993
2026-01-17 12:25:22.44	336.27	5.25	-48.9	-51.9	14.3	1.50e-06	0	34	0	1223688192	68	5388
2026-01-17 12:25:25.46	336.56	5.08	-48.8	-51.8	14.4	7.00e-07	0	34	0	1228931072	68	5324
2026-01-17 12:25:28.49	336.84	4.91	-52.9	-67.9	3.8	1.49e+00	0	34	104	1232076800	76	21487
2026-01-17 12:25:31.51	337.12	4.75	-53.4	-68.4	3.8	1.49e+00	0	34	104	1232076800	77	21419
2026-01-17 12:25:34.54	337.39	4.58	-53.7	-68.7	3.8	1.49e+00	0	34	104	1232076800	77	22126
2026-01-17 12:25:37.56	337.66	4.41	-53.8	-68.8	3.8	1.49e+00	0	34	104	1232076800	78	21255
2026-01-17 12:25:40.59	337.93	4.24	-53.9	-68.9	3.8	1.49e+00	0	34	104	1232076800	78	21381
2026-01-17 12:25:43.62	338.20	4.08	-53.9	-68.9	3.8	1.49e+00	0	34	104	1232076800	78	21412
2026-01-17 12:25:46.65	338.47	3.91	-53.9	-68.9	3.8	1.49e+00	0	34	104	1232076800	78	21348
2026-01-17 12:25:49.67	338.73	3.74	-53.8	-68.9	3.8	1.49e+00	0	34	104	1232076800	78	21317
2026-01-17 12:25:52.69	338.98	3.58	-53.8	-68.8	3.8	1.49e+00	0	34	104	1232076800	78	21205
2026-01-17 12:25:55.72	339.24	3.42	-53.8	-68.8	3.8	1.49e+00	0	34	104	1232076800	78	21182
2026-01-17 12:25:58.74	339.49	3.25	-53.8	-68.8	3.8	1.49e+00	0	34	104	1232076800	78	21186
2026-01-17 12:26:01.76	339.74	3.09	-53.8	-68.8	3.8	1.49e+00	0	35	104	1232076800	78	21109
2026-01-17 12:26:04.79	339.99	2.93	-53.8	-68.8	3.8	1.49e+00	0	35	104	1232076800	78	21153
2026-01-17 12:26:07.81	340.24	2.76	-53.8	-68.8	3.8	1.49e+00	0	34	104	1232076800	78	21081
2026-01-17 12:26:10.84	340.48	2.60	-53.8	-68.8	3.8	1.49e+00	0	35	104	1232076800	78	21065
2026-01-17 12:26:13.87	340.72	2.44	-53.7	-68.8	3.8	1.49e+00	0	35	104	1232076800	78	21042
2026-01-17 12:26:16.89	340.96	2.28	-53.7	-68.8	3.8	1.49e+00	0	34	104	1232076800	78	21046
2026-01-17 12:26:19.92	341.19	2.12	-53.7	-68.8	3.8	1.49e+00	0	34	104	1232076800	78	21051
2026-01-17 12:26:22.95	341.43	1.96	-53.7	-68.8	3.8	1.49e+00	0	34	104	1232076800	78	21026

#Closed at: 2026-01-17 12:26:25
#Recorded file [1232 MB]: D:/lorett/data/31041_260117_151346.dat