passes_logs/2026/01/17/R3.2S_Murmansk/R3.2S_Murmansk__20260117_145411_FENGYUN_3D_rec.log

#Pass ID: 20260117_145411_FENGYUN 3D
#Satellite: FENGYUN 3D
#Configuration: FENGYUN 3D
#almurnet v.1.7.20251203
#Start time: 2026-01-17 14:54:10

#Version: 2.2.20231116
#Station: R3.2S_Murmansk
#Location: 33.079688 lon 68.888172 lat
#TLE: 1 43010U 17072A   26016.62453405 -.00000112  00000+0 -31355-4 0  9995
#TLE: 2 43010  98.9932 348.4654 0002369 105.3910 254.7528 14.19694900423480

#Time	Az	El	Level	Level2	SNR	BER	BlckErr	Temp	State	Recorded	gain1	gain2
2026-01-17 14:54:10.97	238.46	1.97	-52.3	-64.3	3.8	8.47e-01	0	32	0	0	76	14133
2026-01-17 14:54:13.97	238.75	2.11	-52.3	-64.3	3.8	8.47e-01	0	32	104	0	75	14885
2026-01-17 14:54:16.95	239.03	2.24	-52.3	-64.2	3.8	8.47e-01	0	32	104	0	75	14808
2026-01-17 14:54:19.93	239.33	2.38	-52.3	-64.2	3.8	8.45e-01	0	33	104	0	75	14814
2026-01-17 14:54:22.90	239.62	2.52	-52.3	-64.3	3.8	8.46e-01	0	33	104	0	75	14905
2026-01-17 14:54:25.86	239.91	2.65	-52.3	-64.2	3.8	8.46e-01	0	33	104	0	75	14873
2026-01-17 14:54:28.83	240.21	2.79	-52.3	-64.1	3.8	8.47e-01	0	33	104	0	75	14616
2026-01-17 14:54:31.82	240.51	2.93	-52.3	-64.1	3.8	8.46e-01	0	33	104	0	75	14670
2026-01-17 14:54:34.82	240.82	3.07	-52.3	-64.1	3.8	8.46e-01	0	33	104	0	75	14671
2026-01-17 14:54:37.80	241.13	3.20	-52.3	-64.1	3.8	8.45e-01	0	33	104	0	75	14618
2026-01-17 14:54:40.78	241.44	3.34	-52.3	-64.2	3.8	8.45e-01	0	33	104	0	75	14857
2026-01-17 14:54:43.76	241.75	3.48	-52.3	-64.1	3.8	8.46e-01	0	33	104	0	75	14609
2026-01-17 14:54:46.73	242.07	3.62	-52.3	-64.2	3.8	8.46e-01	0	33	104	0	75	14791
2026-01-17 14:54:49.69	242.38	3.75	-52.3	-64.2	3.8	8.45e-01	0	33	104	0	75	14792
2026-01-17 14:54:52.67	242.71	3.89	-52.3	-64.1	3.8	8.44e-01	0	33	104	0	75	14694
2026-01-17 14:54:55.66	243.03	4.03	-52.3	-64.0	3.8	8.46e-01	0	34	104	0	75	14450
2026-01-17 14:54:58.65	243.36	4.16	-52.3	-64.0	3.8	8.46e-01	0	33	104	0	75	14463
2026-01-17 14:55:01.62	243.69	4.30	-52.2	-63.7	3.8	8.46e-01	0	33	104	0	75	13937
2026-01-17 14:55:04.58	244.02	4.44	-52.2	-63.6	3.8	8.45e-01	0	34	104	0	75	13867
2026-01-17 14:55:07.55	244.35	4.57	-51.4	-58.2	5.3	7.73e-01	0	34	0	0	74	7828
2026-01-17 14:55:10.51	244.69	4.71	-50.0	-53.8	9.2	3.37e-02	0	34	0	13631488	71	5635
2026-01-17 14:55:13.48	245.03	4.85	-46.5	-48.2	15.0	1.10e-06	0	34	0	30408704	65	4168
2026-01-17 14:55:16.48	245.38	4.98	-44.3	-45.5	17.8	0.00e+00	0	34	0	47185920	60	4081
2026-01-17 14:55:19.47	245.73	5.12	-44.0	-45.1	18.1	0.00e+00	0	34	0	63963136	60	3897
2026-01-17 14:55:22.47	246.08	5.26	-45.4	-46.9	16.4	0.00e+00	0	34	0	80740352	62	4260
2026-01-17 14:55:25.46	246.44	5.40	-44.4	-45.6	18.1	0.00e+00	0	34	0	97517568	59	4362
2026-01-17 14:55:28.45	246.80	5.53	-44.3	-45.5	18.1	0.00e+00	0	34	0	114294784	59	4319
2026-01-17 14:55:31.43	247.16	5.67	-44.2	-45.4	18.3	0.00e+00	0	34	0	131072000	59	4263
2026-01-17 14:55:34.39	247.52	5.80	-44.2	-45.4	18.0	0.00e+00	0	34	0	147849216	60	4014
2026-01-17 14:55:37.36	247.89	5.94	-44.0	-45.2	18.5	0.00e+00	0	34	0	164626432	59	4166
2026-01-17 14:55:40.35	248.26	6.07	-44.4	-45.6	18.2	0.00e+00	0	34	0	181403648	59	4368
2026-01-17 14:55:43.33	248.64	6.21	-44.3	-45.5	18.3	0.00e+00	0	34	0	198180864	59	4300
2026-01-17 14:55:46.34	249.02	6.34	-44.4	-45.6	18.2	0.00e+00	0	34	0	214958080	59	4384
2026-01-17 14:55:49.35	249.40	6.48	-44.0	-45.1	18.7	0.00e+00	0	34	0	231735296	59	4131
2026-01-17 14:55:52.33	249.79	6.61	-43.8	-44.9	18.9	0.00e+00	0	34	0	248512512	59	4045
2026-01-17 14:55:55.30	250.17	6.74	-43.3	-44.4	19.4	0.00e+00	0	34	0	265289728	58	4027
2026-01-17 14:55:58.28	250.56	6.88	-43.5	-44.6	19.3	0.00e+00	0	34	0	283115520	58	4116
2026-01-17 14:56:01.27	250.96	7.01	-43.9	-45.0	18.8	0.00e+00	0	34	0	298844160	58	4332
2026-01-17 14:56:04.27	251.36	7.14	-43.5	-44.6	19.2	0.00e+00	0	34	0	315621376	58	4125
2026-01-17 14:56:07.27	251.76	7.28	-43.7	-44.8	19.1	0.00e+00	0	34	0	332398592	58	4232
2026-01-17 14:56:10.27	252.17	7.41	-43.8	-44.9	19.0	0.00e+00	0	34	0	349175808	58	4261
2026-01-17 14:56:13.25	252.58	7.54	-43.5	-44.6	19.3	0.00e+00	0	34	0	367001600	58	4113
2026-01-17 14:56:16.23	252.99	7.67	-43.6	-44.7	19.3	0.00e+00	0	34	0	383778816	58	4163
2026-01-17 14:56:19.21	253.41	7.80	-43.3	-44.3	19.6	0.00e+00	0	34	0	400556032	58	4001
2026-01-17 14:56:22.19	253.83	7.92	-43.6	-44.7	19.3	0.00e+00	0	34	0	417333248	58	4153
2026-01-17 14:56:25.18	254.25	8.05	-43.3	-44.3	19.6	0.00e+00	0	34	0	434110464	58	3999
2026-01-17 14:56:28.17	254.68	8.18	-43.2	-44.2	19.7	0.00e+00	0	34	0	449839104	58	3947
2026-01-17 14:56:31.16	255.11	8.31	-43.0	-44.0	19.9	0.00e+00	0	34	0	467664896	58	3867
2026-01-17 14:56:34.13	255.54	8.43	-43.0	-44.1	19.9	0.00e+00	0	34	0	484442112	57	4102
2026-01-17 14:56:37.11	255.98	8.56	-42.8	-43.8	20.2	0.00e+00	0	34	0	501219328	57	3979
2026-01-17 14:56:40.09	256.42	8.68	-43.2	-44.2	19.8	0.00e+00	0	34	0	517996544	57	4180
2026-01-17 14:56:43.06	256.87	8.80	-43.1	-44.1	19.9	0.00e+00	0	34	0	533725184	57	4115
2026-01-17 14:56:46.04	257.31	8.93	-42.9	-43.9	20.1	0.00e+00	0	34	0	550502400	57	4024
2026-01-17 14:56:48.99	257.76	9.05	-43.3	-44.3	19.7	0.00e+00	0	34	0	568328192	57	4208
2026-01-17 14:56:51.96	258.21	9.17	-42.7	-43.6	20.4	0.00e+00	0	34	0	584056832	57	3896
2026-01-17 14:56:54.93	258.67	9.29	-43.0	-44.0	20.0	0.00e+00	0	34	0	600834048	57	4088
2026-01-17 14:56:57.89	259.13	9.40	-42.8	-43.7	20.3	0.00e+00	0	34	0	617611264	57	3946
2026-01-17 14:57:00.85	259.59	9.52	-42.8	-43.8	20.3	0.00e+00	0	34	0	634388480	57	3965
2026-01-17 14:57:03.81	260.06	9.64	-42.8	-43.7	20.3	0.00e+00	0	34	0	651165696	57	3941
2026-01-17 14:57:06.78	260.53	9.75	-42.6	-43.6	20.5	0.00e+00	0	34	0	667942912	57	3882
2026-01-17 14:57:09.74	261.00	9.86	-42.6	-43.5	20.5	0.00e+00	0	34	0	684720128	56	4091
2026-01-17 14:57:12.71	261.48	9.98	-42.5	-43.5	20.6	0.00e+00	0	34	0	701497344	56	4058
2026-01-17 14:57:15.67	261.96	10.09	-42.7	-43.6	20.4	0.00e+00	0	34	0	717225984	56	4129
2026-01-17 14:57:18.63	262.45	10.20	-42.4	-43.3	20.7	0.00e+00	0	34	0	734003200	56	3993
2026-01-17 14:57:21.59	262.94	10.30	-42.5	-43.5	20.6	0.00e+00	0	34	0	750780416	56	4069
2026-01-17 14:57:24.56	263.43	10.41	-42.4	-43.4	20.7	0.00e+00	0	34	0	767557632	56	4020
2026-01-17 14:57:27.51	263.92	10.52	-42.7	-43.6	20.5	0.00e+00	0	34	0	784334848	56	4127
2026-01-17 14:57:30.46	264.42	10.62	-42.6	-43.6	20.5	0.00e+00	0	34	0	801112064	56	4119
2026-01-17 14:57:33.42	264.92	10.72	-42.5	-43.4	20.6	0.00e+00	0	34	0	817889280	56	4049
2026-01-17 14:57:36.38	265.42	10.82	-42.4	-43.3	20.8	0.00e+00	0	34	0	834666496	56	3983
2026-01-17 14:57:39.36	265.93	10.92	-42.3	-43.3	20.8	0.00e+00	0	34	0	850395136	56	3961
2026-01-17 14:57:42.36	266.45	11.02	-42.5	-43.4	20.7	0.00e+00	0	34	0	867172352	56	4045
2026-01-17 14:57:45.35	266.97	11.12	-42.5	-43.5	20.6	0.00e+00	0	34	0	884998144	56	4054
2026-01-17 14:57:48.33	267.49	11.21	-42.5	-43.4	20.6	0.00e+00	0	34	0	901775360	56	4023
2026-01-17 14:57:51.32	268.02	11.31	-42.2	-43.1	20.9	0.00e+00	0	34	0	918552576	56	3909
2026-01-17 14:57:54.30	268.55	11.40	-42.1	-43.0	21.0	0.00e+00	0	34	0	935329792	55	4074
2026-01-17 14:57:57.28	269.08	11.49	-42.5	-43.4	20.6	0.00e+00	0	34	0	952107008	55	4272
2026-01-17 14:58:00.26	269.61	11.58	-42.2	-43.1	20.9	0.00e+00	0	34	0	968884224	55	4127
2026-01-17 14:58:03.22	270.15	11.66	-42.1	-43.0	20.9	0.00e+00	0	34	0	985661440	55	4093
2026-01-17 14:58:06.19	270.69	11.75	-41.9	-42.8	21.2	0.00e+00	0	34	0	1002438656	55	4004
2026-01-17 14:58:09.16	271.23	11.83	-42.2	-43.1	20.9	0.00e+00	0	34	0	1018167296	55	4123
2026-01-17 14:58:12.16	271.78	11.91	-42.1	-43.1	21.0	0.00e+00	0	34	0	1034944512	55	4101
2026-01-17 14:58:15.15	272.33	11.99	-42.1	-43.0	21.0	0.00e+00	0	34	0	1051721728	55	4074
2026-01-17 14:58:18.15	272.88	12.06	-42.2	-43.1	21.0	0.00e+00	0	34	0	1069547520	55	4117
2026-01-17 14:58:21.14	273.44	12.14	-42.3	-43.3	20.8	0.00e+00	0	34	0	1086324736	55	4200
2026-01-17 14:58:24.11	273.99	12.21	-41.9	-42.8	21.2	0.00e+00	0	34	0	1103101952	55	3977
2026-01-17 14:58:27.07	274.55	12.28	-42.0	-42.9	21.2	0.00e+00	0	34	0	1118830592	55	4016
2026-01-17 14:58:30.03	275.11	12.34	-42.0	-42.9	21.2	0.00e+00	0	34	0	1135607808	55	4010
2026-01-17 14:58:32.99	275.67	12.41	-41.7	-42.6	21.5	0.00e+00	0	34	0	1152385024	55	3876
2026-01-17 14:58:35.95	276.23	12.47	-41.6	-42.5	21.6	0.00e+00	0	34	0	1169162240	55	3840
2026-01-17 14:58:38.91	276.80	12.53	-41.7	-42.6	21.5	0.00e+00	0	34	0	1185939456	55	3877
2026-01-17 14:58:41.87	277.36	12.58	-41.8	-42.7	21.4	0.00e+00	0	34	0	1202716672	55	3927
2026-01-17 14:58:44.83	277.93	12.64	-41.7	-42.5	21.5	0.00e+00	0	34	0	1219493888	55	3852
2026-01-17 14:58:47.79	278.50	12.69	-41.6	-42.5	21.6	0.00e+00	0	34	0	1236271104	54	4058
2026-01-17 14:58:50.76	279.08	12.74	-41.9	-42.8	21.3	0.00e+00	0	34	0	1251999744	54	4198
2026-01-17 14:58:53.72	279.65	12.79	-41.8	-42.7	21.4	0.00e+00	0	34	0	1269825536	54	4166
2026-01-17 14:58:56.68	280.23	12.83	-42.1	-43.0	21.1	0.00e+00	0	34	0	1286602752	54	4319
2026-01-17 14:58:59.65	280.81	12.87	-42.1	-43.0	21.1	0.00e+00	0	34	0	1302331392	54	4303
2026-01-17 14:59:02.61	281.39	12.91	-41.9	-42.8	21.3	0.00e+00	0	34	0	1319108608	54	4220
2026-01-17 14:59:05.58	281.97	12.95	-41.9	-42.8	21.3	0.00e+00	0	34	0	1335885824	54	4227
2026-01-17 14:59:08.57	282.56	12.98	-42.1	-43.0	21.2	0.00e+00	0	34	0	1352663040	54	4312
2026-01-17 14:59:11.57	283.15	13.02	-42.1	-43.0	21.2	0.00e+00	0	34	0	1369440256	55	4069
2026-01-17 14:59:14.57	283.75	13.05	-42.0	-42.9	21.3	0.00e+00	0	34	0	1386217472	55	4041
2026-01-17 14:59:17.57	284.34	13.07	-42.0	-42.9	21.3	0.00e+00	0	34	0	1402994688	55	4030
2026-01-17 14:59:20.56	284.93	13.10	-41.7	-42.6	21.6	0.00e+00	0	34	0	1419771904	55	3877
2026-01-17 14:59:23.57	285.53	13.12	-41.8	-42.7	21.5	0.00e+00	0	34	0	1436549120	55	3921
2026-01-17 14:59:26.55	286.12	13.13	-41.9	-42.8	21.4	0.00e+00	0	34	0	1453326336	55	3991
2026-01-17 14:59:29.55	286.72	13.15	-42.0	-42.9	21.4	0.00e+00	0	34	0	1471152128	55	4029
2026-01-17 14:59:32.54	287.32	13.16	-42.0	-42.9	21.4	0.00e+00	0	34	0	1487929344	55	4026
2026-01-17 14:59:35.51	287.91	13.17	-42.1	-43.0	21.3	0.00e+00	0	34	0	1504706560	55	4066
2026-01-17 14:59:38.48	288.50	13.18	-42.1	-43.0	21.3	0.00e+00	0	34	0	1521483776	55	4083
2026-01-17 14:59:41.44	289.09	13.18	-42.2	-43.1	21.2	0.00e+00	0	34	0	1537212416	55	4128
2026-01-17 14:59:44.40	289.68	13.18	-42.3	-43.2	21.1	0.00e+00	0	34	0	1553989632	55	4158
2026-01-17 14:59:47.35	290.27	13.18	-42.1	-43.0	21.3	0.00e+00	0	34	0	1570766848	55	4092
2026-01-17 14:59:50.31	290.86	13.18	-42.1	-43.0	21.3	0.00e+00	0	34	0	1587544064	55	4053
2026-01-17 14:59:53.28	291.45	13.17	-42.3	-43.2	21.2	0.00e+00	0	34	0	1604321280	55	4168
2026-01-17 14:59:56.25	292.04	13.16	-42.4	-43.3	21.0	0.00e+00	0	34	0	1621098496	55	4215
2026-01-17 14:59:59.22	292.64	13.15	-42.3	-43.2	21.1	0.00e+00	0	34	0	1637875712	55	4153
2026-01-17 15:00:02.18	293.22	13.13	-42.3	-43.2	21.1	0.00e+00	0	34	0	1654652928	55	4164
2026-01-17 15:00:05.14	293.81	13.12	-42.5	-43.4	21.0	0.00e+00	0	34	0	1671430144	55	4263
2026-01-17 15:00:08.09	294.40	13.09	-42.3	-43.3	21.1	0.00e+00	0	34	0	1688207360	55	4201
2026-01-17 15:00:11.06	294.99	13.07	-42.2	-43.0	21.3	0.00e+00	0	34	0	1703936000	55	4092
2026-01-17 15:00:14.02	295.57	13.05	-42.5	-43.4	21.0	0.00e+00	0	34	0	1720713216	55	4256
2026-01-17 15:00:16.99	296.16	13.02	-42.5	-43.4	20.9	0.00e+00	0	34	0	1737490432	55	4259
2026-01-17 15:00:19.97	296.75	12.98	-42.5	-43.4	20.9	0.00e+00	0	34	0	1754267648	55	4272
2026-01-17 15:00:22.94	297.33	12.95	-42.5	-43.4	20.9	0.00e+00	0	34	0	1771044864	55	4265
2026-01-17 15:00:25.91	297.91	12.91	-42.4	-43.3	21.0	0.00e+00	0	34	0	1787822080	55	4241
2026-01-17 15:00:28.88	298.49	12.87	-42.5	-43.4	20.9	0.00e+00	0	34	0	1804599296	55	4270
2026-01-17 15:00:31.86	299.07	12.83	-42.3	-43.2	21.2	0.00e+00	0	34	0	1821376512	55	4147
2026-01-17 15:00:34.83	299.65	12.79	-42.4	-43.3	21.0	0.00e+00	0	34	0	1838153728	55	4217
2026-01-17 15:00:37.80	300.23	12.74	-42.5	-43.4	20.9	0.00e+00	0	34	0	1854930944	55	4281
2026-01-17 15:00:40.77	300.80	12.69	-42.3	-43.2	21.2	0.00e+00	0	34	0	1871708160	55	4149
2026-01-17 15:00:43.74	301.37	12.64	-42.3	-43.2	21.1	0.00e+00	0	34	0	1888485376	55	4177
2026-01-17 15:00:46.71	301.94	12.58	-42.4	-43.3	21.1	0.00e+00	0	34	0	1905262592	55	4206
2026-01-17 15:00:49.67	302.51	12.53	-42.4	-43.3	21.0	0.00e+00	0	34	0	1920991232	55	4230
2026-01-17 15:00:52.64	303.08	12.47	-42.6	-43.5	20.8	0.00e+00	0	34	0	1937768448	55	4323
2026-01-17 15:00:55.61	303.64	12.41	-42.7	-43.6	20.7	0.00e+00	0	34	0	1954545664	55	4367
2026-01-17 15:00:58.57	304.20	12.34	-42.7	-43.6	20.7	0.00e+00	0	34	0	1971322880	55	4383
2026-01-17 15:01:01.53	304.76	12.28	-42.9	-43.9	20.5	0.00e+00	0	34	0	1988100096	56	4263
2026-01-17 15:01:04.50	305.31	12.21	-42.7	-43.6	20.8	0.00e+00	0	34	0	2004877312	56	4127
2026-01-17 15:01:07.46	305.86	12.14	-42.7	-43.7	20.7	0.00e+00	0	34	0	2021654528	56	4148
2026-01-17 15:01:10.43	306.41	12.06	-42.8	-43.8	20.6	0.00e+00	0	34	0	2038431744	56	4203
2026-01-17 15:01:13.40	306.96	11.99	-42.7	-43.6	20.7	0.00e+00	0	34	0	2055208960	56	4133
2026-01-17 15:01:16.37	307.51	11.91	-42.7	-43.6	20.7	0.00e+00	0	34	0	2070937600	56	4133
2026-01-17 15:01:19.35	308.05	11.83	-42.6	-43.6	20.8	0.00e+00	0	34	0	2088763392	56	4121
2026-01-17 15:01:22.34	308.60	11.75	-42.8	-43.7	20.6	0.00e+00	0	34	0	2105540608	56	4175
2026-01-17 15:01:25.33	309.14	11.67	-42.9	-43.8	20.5	0.00e+00	0	34	0	2122317824	56	4241
2026-01-17 15:01:28.32	309.67	11.58	-42.8	-43.8	20.6	0.00e+00	0	34	0	2139095040	56	4197
2026-01-17 15:01:31.31	310.21	11.49	-43.1	-44.0	20.3	0.00e+00	0	34	0	2155872256	56	4335
2026-01-17 15:01:34.29	310.74	11.40	-42.9	-43.9	20.4	0.00e+00	0	34	0	2172649472	56	4261
2026-01-17 15:01:37.25	311.26	11.31	-42.9	-43.9	20.4	0.00e+00	0	34	0	2189426688	56	4255
2026-01-17 15:01:40.21	311.78	11.22	-42.8	-43.8	20.5	0.00e+00	0	34	0	2206203904	56	4204
2026-01-17 15:01:43.17	312.30	11.13	-42.7	-43.6	20.7	0.00e+00	0	34	0	2221932544	56	4122
2026-01-17 15:01:46.13	312.81	11.03	-42.9	-43.9	20.4	0.00e+00	0	34	0	2238709760	56	4246
2026-01-17 15:01:49.10	313.32	10.93	-42.8	-43.8	20.4	0.00e+00	0	34	0	2255486976	56	4206
2026-01-17 15:01:52.06	313.83	10.83	-42.8	-43.8	20.4	0.00e+00	0	34	0	2272264192	56	4219
2026-01-17 15:01:55.03	314.33	10.73	-43.0	-43.9	20.3	0.00e+00	0	34	0	2289041408	56	4287
2026-01-17 15:01:58.00	314.83	10.63	-43.0	-44.0	20.2	0.00e+00	0	34	0	2305818624	56	4320
2026-01-17 15:02:00.97	315.33	10.53	-42.9	-43.9	20.3	0.00e+00	0	34	0	2322595840	56	4278
2026-01-17 15:02:03.93	315.83	10.42	-42.9	-43.9	20.3	0.00e+00	0	34	0	2339373056	56	4260
2026-01-17 15:02:06.90	316.32	10.32	-43.3	-44.3	19.9	0.00e+00	0	34	0	2356150272	57	4198
2026-01-17 15:02:09.87	316.80	10.21	-43.0	-44.0	20.2	0.00e+00	0	34	0	2371878912	57	4067
2026-01-17 15:02:12.84	317.29	10.10	-43.2	-44.2	19.9	0.00e+00	0	34	0	2389704704	57	4193
2026-01-17 15:02:15.80	317.77	9.99	-43.1	-44.1	20.0	0.00e+00	0	34	0	2406481920	57	4133
2026-01-17 15:02:18.76	318.24	9.88	-43.2	-44.2	19.9	0.00e+00	0	34	0	2422210560	57	4189
2026-01-17 15:02:21.74	318.72	9.77	-43.2	-44.2	19.9	0.00e+00	0	34	0	2438987776	57	4193
2026-01-17 15:02:24.73	319.19	9.65	-43.2	-44.2	19.9	0.00e+00	0	34	0	2455764992	57	4149
2026-01-17 15:02:27.73	319.66	9.53	-43.1	-44.1	20.0	0.00e+00	0	34	0	2472542208	57	4120
2026-01-17 15:02:30.73	320.13	9.42	-43.1	-44.1	20.0	0.00e+00	0	34	0	2490368000	57	4100
2026-01-17 15:02:33.73	320.60	9.30	-42.9	-43.9	20.2	0.00e+00	0	34	0	2507145216	57	4005
2026-01-17 15:02:36.73	321.06	9.18	-43.4	-44.4	19.7	0.00e+00	0	34	0	2523922432	57	4282
2026-01-17 15:02:39.71	321.51	9.06	-43.6	-44.7	19.4	0.00e+00	0	34	0	2540699648	57	4401
2026-01-17 15:02:42.69	321.96	8.94	-43.7	-44.8	19.3	0.00e+00	0	34	0	2557476864	57	4456
2026-01-17 15:02:45.66	322.40	8.82	-43.7	-44.8	19.2	0.00e+00	0	34	0	2574254080	58	4215
2026-01-17 15:02:48.64	322.85	8.69	-43.5	-44.5	19.5	0.00e+00	0	34	0	2591031296	58	4080
2026-01-17 15:02:51.63	323.29	8.57	-43.7	-44.8	19.2	0.00e+00	0	34	0	2607808512	58	4224
2026-01-17 15:02:54.62	323.72	8.45	-43.6	-44.7	19.3	0.00e+00	0	34	0	2624585728	58	4148
2026-01-17 15:02:57.60	324.16	8.32	-43.6	-44.7	19.3	0.00e+00	0	34	0	2641362944	58	4147
2026-01-17 15:03:00.57	324.58	8.20	-43.6	-44.6	19.3	0.00e+00	0	34	0	2657091584	58	4142
2026-01-17 15:03:03.54	325.01	8.07	-43.5	-44.6	19.4	0.00e+00	0	34	0	2674917376	58	4107
2026-01-17 15:03:06.51	325.43	7.94	-43.6	-44.6	19.3	0.00e+00	0	34	0	2691694592	58	4140
2026-01-17 15:03:09.48	325.84	7.82	-43.5	-44.5	19.4	0.00e+00	0	34	0	2708471808	58	4087
2026-01-17 15:03:12.43	326.25	7.69	-43.3	-44.4	19.5	0.00e+00	0	34	0	2724200448	58	4017
2026-01-17 15:03:15.39	326.66	7.56	-43.6	-44.7	19.2	0.00e+00	0	34	0	2740977664	58	4152
2026-01-17 15:03:18.36	327.07	7.43	-43.8	-44.9	19.0	0.00e+00	0	34	0	2757754880	58	4259
2026-01-17 15:03:21.32	327.47	7.30	-43.8	-45.0	18.9	0.00e+00	0	34	0	2774532096	58	4302
2026-01-17 15:03:24.28	327.87	7.18	-43.8	-44.9	19.0	0.00e+00	0	34	0	2791309312	58	4273
2026-01-17 15:03:27.26	328.26	7.04	-43.9	-45.0	18.8	0.00e+00	0	34	0	2808086528	58	4327
2026-01-17 15:03:30.23	328.66	6.91	-43.7	-44.8	19.0	0.00e+00	0	34	0	2824863744	58	4210
2026-01-17 15:03:33.21	329.05	6.78	-44.1	-45.2	18.6	0.00e+00	0	34	0	2841640960	58	4433
2026-01-17 15:03:36.17	329.43	6.65	-44.3	-45.5	18.3	0.00e+00	0	34	0	2857369600	59	4298
2026-01-17 15:03:39.14	329.81	6.52	-44.0	-45.1	18.7	0.00e+00	0	34	0	2875195392	59	4127
2026-01-17 15:03:42.11	330.19	6.39	-44.2	-45.4	18.3	0.00e+00	0	34	0	2891972608	59	4271
2026-01-17 15:03:45.08	330.57	6.25	-44.2	-45.4	18.4	0.00e+00	0	34	0	2908749824	59	4250
2026-01-17 15:03:48.05	330.94	6.12	-44.1	-45.2	18.5	0.00e+00	0	34	0	2924478464	59	4180
2026-01-17 15:03:51.04	331.31	5.99	-44.3	-45.5	18.2	0.00e+00	0	34	0	2941255680	59	4322
2026-01-17 15:03:54.03	331.68	5.85	-44.4	-45.6	18.1	0.00e+00	0	34	0	2958032896	59	4369
2026-01-17 15:03:57.01	332.04	5.72	-44.6	-45.9	17.8	0.00e+00	0	34	0	2975858688	59	4495
2026-01-17 15:04:00.00	332.41	5.58	-44.4	-45.7	18.0	0.00e+00	0	34	0	2992635904	59	4402
2026-01-17 15:04:02.97	332.76	5.45	-44.2	-45.4	18.2	0.00e+00	0	34	0	3008364544	59	4263
2026-01-17 15:04:05.94	333.12	5.31	-44.6	-45.9	17.7	0.00e+00	0	34	0	3025141760	59	4507
2026-01-17 15:04:08.91	333.47	5.18	-44.7	-46.1	17.2	0.00e+00	0	34	0	3041918976	60	4342
2026-01-17 15:04:11.88	333.81	5.04	-44.5	-45.8	17.6	0.00e+00	0	34	0	3058696192	59	4487
2026-01-17 15:04:14.88	334.16	4.91	-53.0	-65.1	3.8	8.48e-01	0	34	104	3064987648	76	15413
2026-01-17 15:04:17.88	334.50	4.77	-53.5	-65.5	3.8	8.46e-01	0	34	104	3064987648	77	15274
2026-01-17 15:04:20.88	334.85	4.63	-53.8	-65.8	3.8	8.46e-01	0	34	104	3064987648	78	14909
2026-01-17 15:04:23.87	335.18	4.50	-53.9	-65.9	3.8	8.46e-01	0	34	104	3064987648	78	15104
2026-01-17 15:04:26.85	335.52	4.36	-53.9	-65.9	3.8	8.46e-01	0	34	104	3064987648	78	15195
2026-01-17 15:04:29.82	335.85	4.22	-53.9	-66.0	3.8	8.47e-01	0	35	104	3064987648	78	15239
2026-01-17 15:04:32.79	336.17	4.09	-53.9	-65.9	3.8	8.46e-01	0	34	104	3064987648	78	15187
2026-01-17 15:04:35.76	336.49	3.95	-53.9	-65.9	3.8	8.46e-01	0	34	104	3064987648	78	15125
2026-01-17 15:04:38.75	336.82	3.82	-53.8	-65.9	3.8	8.47e-01	0	34	104	3064987648	78	15070
2026-01-17 15:04:41.75	337.14	3.68	-53.8	-65.9	3.8	8.46e-01	0	34	104	3064987648	78	15053
2026-01-17 15:04:44.73	337.45	3.54	-53.8	-65.8	3.8	8.46e-01	0	34	104	3064987648	78	14995
2026-01-17 15:04:47.71	337.77	3.41	-53.8	-65.8	3.8	8.47e-01	0	34	104	3064987648	78	14983
2026-01-17 15:04:50.68	338.08	3.27	-53.8	-65.8	3.8	8.45e-01	0	34	104	3064987648	78	14998
2026-01-17 15:04:53.64	338.38	3.14	-53.8	-65.8	3.8	8.47e-01	0	34	104	3064987648	78	14983
2026-01-17 15:04:56.60	338.68	3.00	-53.8	-65.8	3.8	8.47e-01	0	34	104	3064987648	78	14969
2026-01-17 15:04:59.58	338.99	2.86	-53.8	-65.8	3.8	8.46e-01	0	34	104	3064987648	78	14935
2026-01-17 15:05:02.59	339.29	2.73	-53.8	-65.8	3.8	8.47e-01	0	34	104	3064987648	78	14931
2026-01-17 15:05:05.58	339.59	2.59	-53.8	-65.8	3.8	8.46e-01	0	34	104	3064987648	78	14954
2026-01-17 15:05:08.57	339.88	2.45	-53.8	-65.8	3.8	8.46e-01	0	35	104	3064987648	78	14913
2026-01-17 15:05:11.55	340.17	2.32	-53.8	-65.8	3.8	8.45e-01	0	34	104	3064987648	78	14925
2026-01-17 15:05:14.51	340.46	2.18	-53.8	-65.8	3.8	8.47e-01	0	34	104	3064987648	78	14916
2026-01-17 15:05:17.48	340.75	2.05	-53.8	-65.8	3.8	8.46e-01	0	34	104	3064987648	78	14901

#Closed at: 2026-01-17 15:05:18
#Recorded file [3064 MB]: D:/lorett/data/31041_260117_175410.dat