passes_logs/2026/01/17/R3.2S_Murmansk/R3.2S_Murmansk__20260117_233302_FENGYUN_3D_rec.log

#Pass ID: 20260117_233302_FENGYUN 3D
#Satellite: FENGYUN 3D
#Configuration: FENGYUN 3D
#almurnet v.1.7.20251203
#Start time: 2026-01-17 23:33:04

#Version: 2.2.20231116
#Station: R3.2S_Murmansk
#Location: 33.079688 lon 68.888172 lat
#TLE: 1 43010U 17072A   26017.61121112  .00000213  00000+0  12257-3 0  9991
#TLE: 2 43010  98.9934 349.4672 0002374 103.9362 256.2078 14.19696413423628

#Time	Az	El	Level	Level2	SNR	BER	BlckErr	Temp	State	Recorded	gain1	gain2
2026-01-17 23:33:04.19	19.29	2.08	-51.3	-63.1	3.8	8.45e-01	0	35	0	0	74	13796
2026-01-17 23:33:07.22	19.58	2.22	-51.3	-63.1	3.8	8.46e-01	0	35	104	0	73	14640
2026-01-17 23:33:10.24	19.87	2.36	-51.3	-63.2	3.8	8.45e-01	0	35	104	0	73	14747
2026-01-17 23:33:13.27	20.16	2.50	-51.3	-63.2	3.8	8.46e-01	0	35	104	0	73	14789
2026-01-17 23:33:16.29	20.46	2.64	-51.3	-63.2	3.8	8.46e-01	0	35	104	0	73	14789
2026-01-17 23:33:19.32	20.76	2.78	-51.3	-63.2	3.8	8.45e-01	0	35	104	0	73	14757
2026-01-17 23:33:22.34	21.06	2.92	-51.3	-63.1	3.8	8.45e-01	0	35	104	0	73	14698
2026-01-17 23:33:25.36	21.36	3.06	-51.3	-63.1	3.8	8.46e-01	0	35	104	0	73	14657
2026-01-17 23:33:28.38	21.66	3.20	-51.3	-63.1	3.8	8.45e-01	0	35	104	0	73	14635
2026-01-17 23:33:31.41	21.97	3.34	-51.3	-63.2	3.8	8.46e-01	0	35	104	0	73	14768
2026-01-17 23:33:34.43	22.28	3.48	-51.3	-63.2	3.8	8.48e-01	0	35	104	0	73	14798
2026-01-17 23:33:37.46	22.60	3.62	-51.3	-63.1	3.8	8.46e-01	0	35	104	0	73	14695
2026-01-17 23:33:40.49	22.92	3.77	-51.2	-62.8	3.8	8.46e-01	0	36	104	0	73	14178
2026-01-17 23:33:43.52	23.24	3.91	-51.3	-63.1	3.8	8.45e-01	0	35	104	0	73	14678
2026-01-17 23:33:46.54	23.56	4.05	-51.3	-63.1	3.8	8.47e-01	0	35	104	0	73	14705
2026-01-17 23:33:49.56	23.89	4.19	-51.3	-63.1	3.8	8.46e-01	0	35	104	0	73	14599
2026-01-17 23:33:52.59	24.21	4.33	-51.3	-63.0	3.8	8.46e-01	0	35	104	0	73	14503
2026-01-17 23:33:55.61	24.55	4.47	-51.2	-62.6	3.8	8.46e-01	0	35	104	0	73	13767
2026-01-17 23:33:58.64	24.88	4.61	-51.1	-61.8	3.8	8.46e-01	0	35	104	0	73	12635
2026-01-17 23:34:01.66	25.22	4.75	-51.1	-61.6	3.8	8.46e-01	0	35	104	0	73	12259
2026-01-17 23:34:04.68	25.56	4.89	-50.4	-56.9	5.5	7.46e-01	0	36	0	0	72	7565
2026-01-17 23:34:07.70	25.90	5.03	-50.1	-55.7	6.4	3.83e-01	0	35	0	15728640	71	6990
2026-01-17 23:34:10.73	26.25	5.17	-48.4	-51.1	11.1	4.97e-01	0	35	104	24117248	68	4911
2026-01-17 23:34:13.75	26.60	5.31	-46.4	-48.3	14.5	2.51e-04	0	36	0	39845888	64	4460
2026-01-17 23:34:16.78	26.96	5.45	-46.4	-48.2	14.8	0.00e+00	0	36	0	56623104	63	4655
2026-01-17 23:34:19.80	27.31	5.59	-44.6	-45.9	17.3	0.00e+00	0	36	0	73400320	61	4043
2026-01-17 23:34:22.82	27.68	5.73	-44.0	-45.2	18.0	0.00e+00	0	35	0	91226112	60	3940
2026-01-17 23:34:25.85	28.04	5.87	-43.9	-45.0	18.5	0.00e+00	0	35	0	108003328	59	4094
2026-01-17 23:34:28.87	28.41	6.01	-44.3	-45.5	18.1	0.00e+00	0	35	0	124780544	59	4310
2026-01-17 23:34:31.90	28.78	6.15	-43.5	-44.6	19.1	0.00e+00	0	36	0	141557760	58	4115
2026-01-17 23:34:34.92	29.15	6.29	-43.9	-45.1	18.6	0.00e+00	0	35	0	158334976	58	4352
2026-01-17 23:34:37.94	29.53	6.43	-43.3	-44.3	19.3	0.00e+00	0	36	0	176160768	58	4002
2026-01-17 23:34:40.97	29.91	6.57	-44.0	-45.1	18.6	0.00e+00	0	35	0	192937984	58	4374
2026-01-17 23:34:43.99	30.29	6.71	-44.0	-45.1	18.6	0.00e+00	0	35	0	209715200	58	4384
2026-01-17 23:34:47.02	30.68	6.85	-44.2	-45.4	18.4	0.00e+00	0	36	0	226492416	58	4509
2026-01-17 23:34:50.04	31.07	6.98	-44.1	-45.3	18.5	0.00e+00	0	35	0	243269632	59	4227
2026-01-17 23:34:53.06	31.47	7.12	-44.1	-45.2	18.6	0.00e+00	0	36	0	261095424	59	4180
2026-01-17 23:34:56.09	31.87	7.26	-43.9	-45.0	18.8	0.00e+00	0	36	0	277872640	59	4071
2026-01-17 23:34:59.11	32.27	7.39	-43.5	-44.5	19.3	0.00e+00	0	36	0	294649856	58	4086
2026-01-17 23:35:02.14	32.68	7.53	-43.7	-44.8	19.0	0.00e+00	0	35	0	311427072	58	4236
2026-01-17 23:35:05.15	33.08	7.66	-43.6	-44.7	19.1	0.00e+00	0	36	0	328204288	58	4170
2026-01-17 23:35:08.18	33.50	7.80	-43.4	-44.4	19.5	0.00e+00	0	36	0	346030080	58	4032
2026-01-17 23:35:11.20	33.92	7.93	-43.1	-44.1	19.7	0.00e+00	0	35	0	362807296	58	3902
2026-01-17 23:35:14.23	34.34	8.07	-43.3	-44.3	19.5	0.00e+00	0	36	0	379584512	58	4000
2026-01-17 23:35:17.26	34.76	8.20	-43.1	-44.2	19.7	0.00e+00	0	36	0	396361728	58	3922
2026-01-17 23:35:20.28	35.19	8.33	-43.1	-44.1	19.8	0.00e+00	0	35	0	413138944	58	3903
2026-01-17 23:35:23.30	35.62	8.46	-43.3	-44.3	19.6	0.00e+00	0	35	0	430964736	58	3981
2026-01-17 23:35:26.33	36.06	8.60	-43.0	-44.0	19.9	0.00e+00	0	35	0	447741952	58	3855
2026-01-17 23:35:29.35	36.50	8.73	-43.0	-44.0	19.9	0.00e+00	0	35	0	464519168	57	4059
2026-01-17 23:35:32.38	36.94	8.86	-43.0	-44.0	20.0	0.00e+00	0	36	0	481296384	57	4056
2026-01-17 23:35:35.40	37.39	8.99	-42.9	-43.9	20.0	0.00e+00	0	35	0	499122176	57	4032
2026-01-17 23:35:38.42	37.84	9.11	-42.7	-43.7	20.3	0.00e+00	0	36	0	515899392	57	3919
2026-01-17 23:35:41.45	38.29	9.24	-42.9	-43.9	20.1	0.00e+00	0	35	0	532676608	57	4008
2026-01-17 23:35:44.47	38.75	9.37	-42.8	-43.7	20.2	0.00e+00	0	35	0	549453824	57	3946
2026-01-17 23:35:47.50	39.22	9.49	-42.8	-43.8	20.2	0.00e+00	0	36	0	567279616	57	3973
2026-01-17 23:35:50.52	39.68	9.62	-42.8	-43.7	20.2	0.00e+00	0	35	0	584056832	57	3947
2026-01-17 23:35:53.55	40.15	9.74	-42.7	-43.6	20.3	0.00e+00	0	36	0	600834048	57	3902
2026-01-17 23:35:56.58	40.63	9.86	-42.8	-43.8	20.2	0.00e+00	0	36	0	617611264	57	3962
2026-01-17 23:35:59.60	41.10	9.98	-42.7	-43.6	20.4	0.00e+00	0	35	0	635437056	57	3899
2026-01-17 23:36:02.62	41.59	10.10	-42.7	-43.6	20.4	0.00e+00	0	35	0	652214272	57	3910
2026-01-17 23:36:05.65	42.07	10.22	-42.6	-43.6	20.4	0.00e+00	0	35	0	668991488	57	3877
2026-01-17 23:36:08.67	42.56	10.34	-42.8	-43.8	20.3	0.00e+00	0	36	0	685768704	57	3963
2026-01-17 23:36:11.70	43.06	10.46	-42.7	-43.7	20.4	0.00e+00	0	36	0	703594496	57	3923
2026-01-17 23:36:14.72	43.55	10.57	-42.7	-43.7	20.4	0.00e+00	0	36	0	720371712	57	3919
2026-01-17 23:36:17.74	44.05	10.68	-42.5	-43.5	20.6	0.00e+00	0	35	0	737148928	57	3827
2026-01-17 23:36:20.77	44.56	10.80	-42.3	-43.3	20.8	0.00e+00	0	36	0	753926144	56	3961
2026-01-17 23:36:23.80	45.07	10.91	-42.3	-43.2	20.8	0.00e+00	0	35	0	771751936	56	3937
2026-01-17 23:36:26.82	45.58	11.02	-42.5	-43.5	20.6	0.00e+00	0	35	0	788529152	56	4057
2026-01-17 23:36:29.84	46.09	11.12	-42.5	-43.5	20.6	0.00e+00	0	35	0	805306368	56	4056
2026-01-17 23:36:32.87	46.61	11.23	-42.3	-43.2	20.8	0.00e+00	0	35	0	822083584	56	3949
2026-01-17 23:36:35.89	47.14	11.34	-42.1	-43.0	21.0	0.00e+00	0	36	0	839909376	56	3864
2026-01-17 23:36:38.92	47.66	11.44	-42.3	-43.2	20.8	0.00e+00	0	35	0	856686592	56	3951
2026-01-17 23:36:41.94	48.19	11.54	-42.4	-43.4	20.7	0.00e+00	0	36	0	873463808	56	4014
2026-01-17 23:36:44.97	48.73	11.64	-42.3	-43.2	20.8	0.00e+00	0	36	0	890241024	56	3956
2026-01-17 23:36:48.00	49.27	11.74	-42.2	-43.1	21.0	0.00e+00	0	36	0	907018240	56	3897
2026-01-17 23:36:51.02	49.81	11.83	-42.2	-43.1	21.0	0.00e+00	0	35	0	924844032	56	3890
2026-01-17 23:36:54.04	50.35	11.93	-42.2	-43.2	20.9	0.00e+00	0	35	0	941621248	56	3917
2026-01-17 23:36:57.07	50.90	12.02	-42.1	-43.0	21.0	0.00e+00	0	35	0	958398464	56	3867
2026-01-17 23:37:00.09	51.45	12.11	-42.1	-43.0	21.0	0.00e+00	0	36	0	975175680	56	3868
2026-01-17 23:37:03.12	52.00	12.19	-42.2	-43.2	21.0	0.00e+00	0	36	0	991952896	56	3916
2026-01-17 23:37:06.14	52.56	12.28	-42.3	-43.2	20.9	0.00e+00	0	35	0	1009778688	56	3935
2026-01-17 23:37:09.17	53.12	12.36	-42.1	-43.0	21.1	0.00e+00	0	36	0	1026555904	56	3831
2026-01-17 23:37:12.19	53.68	12.44	-42.1	-43.0	21.1	0.00e+00	0	36	0	1043333120	56	3838
2026-01-17 23:37:15.22	54.25	12.52	-41.8	-42.7	21.3	0.00e+00	0	36	0	1060110336	55	3941
2026-01-17 23:37:18.24	54.82	12.60	-41.7	-42.6	21.4	0.00e+00	0	35	0	1076887552	55	3876
2026-01-17 23:37:21.26	55.39	12.67	-41.6	-42.4	21.6	0.00e+00	0	35	0	1094713344	55	3815
2026-01-17 23:37:24.29	55.97	12.75	-41.8	-42.7	21.4	0.00e+00	0	36	0	1111490560	55	3914
2026-01-17 23:37:27.31	56.55	12.82	-41.5	-42.4	21.6	0.00e+00	0	36	0	1128267776	55	3798
2026-01-17 23:37:30.34	57.13	12.88	-41.3	-42.2	21.8	0.00e+00	0	36	0	1145044992	54	3926
2026-01-17 23:37:33.36	57.71	12.95	-41.6	-42.4	21.6	0.00e+00	0	35	0	1161822208	54	4046
2026-01-17 23:37:36.38	58.29	13.01	-41.8	-42.6	21.3	0.00e+00	0	35	0	1179648000	54	4142
2026-01-17 23:37:39.41	58.88	13.07	-41.8	-42.7	21.4	0.00e+00	0	36	0	1196425216	54	4156
2026-01-17 23:37:42.43	59.47	13.13	-41.9	-42.8	21.2	0.00e+00	0	35	0	1213202432	54	4235
2026-01-17 23:37:45.46	60.07	13.18	-41.7	-42.6	21.4	0.00e+00	0	36	0	1229979648	54	4129
2026-01-17 23:37:48.48	60.66	13.23	-41.6	-42.4	21.6	0.00e+00	0	36	0	1246756864	54	4042
2026-01-17 23:37:51.50	61.26	13.28	-41.8	-42.7	21.4	0.00e+00	0	36	0	1264582656	54	4152
2026-01-17 23:37:54.52	61.85	13.33	-41.8	-42.7	21.4	0.00e+00	0	35	0	1281359872	54	4158
2026-01-17 23:37:57.55	62.45	13.37	-41.8	-42.7	21.4	0.00e+00	0	35	0	1298137088	54	4153
2026-01-17 23:38:00.57	63.06	13.41	-41.7	-42.6	21.4	0.00e+00	0	35	0	1314914304	54	4109
2026-01-17 23:38:03.60	63.66	13.45	-41.6	-42.4	21.6	0.00e+00	0	36	0	1332740096	54	4034
2026-01-17 23:38:06.63	64.27	13.49	-41.4	-42.2	21.8	0.00e+00	0	35	0	1349517312	54	3955
2026-01-17 23:38:09.65	64.87	13.52	-41.4	-42.2	21.7	0.00e+00	0	36	0	1366294528	54	3957
2026-01-17 23:38:12.67	65.48	13.55	-41.6	-42.5	21.6	0.00e+00	0	36	0	1383071744	54	4053
2026-01-17 23:38:15.70	66.09	13.57	-41.6	-42.5	21.5	0.00e+00	0	36	0	1400897536	54	4087
2026-01-17 23:38:18.72	66.70	13.60	-41.6	-42.4	21.6	0.00e+00	0	36	0	1417674752	54	4049
2026-01-17 23:38:21.74	67.31	13.62	-41.6	-42.5	21.5	0.00e+00	0	36	0	1434451968	54	4091
2026-01-17 23:38:24.77	67.92	13.63	-41.6	-42.5	21.5	0.00e+00	0	35	0	1451229184	54	4085
2026-01-17 23:38:27.79	68.53	13.65	-41.6	-42.4	21.6	0.00e+00	0	36	0	1468006400	54	4044
2026-01-17 23:38:30.82	69.14	13.66	-41.6	-42.5	21.6	0.00e+00	0	36	0	1485832192	54	4061
2026-01-17 23:38:33.84	69.76	13.67	-41.6	-42.5	21.6	0.00e+00	0	36	0	1502609408	54	4065
2026-01-17 23:38:36.86	70.37	13.68	-41.6	-42.5	21.5	0.00e+00	0	35	0	1519386624	54	4083
2026-01-17 23:38:39.89	70.98	13.68	-41.7	-42.6	21.5	0.00e+00	0	36	0	1536163840	54	4102
2026-01-17 23:38:42.91	71.60	13.68	-41.7	-42.6	21.4	0.00e+00	0	35	0	1553989632	54	4123
2026-01-17 23:38:45.94	72.21	13.67	-41.8	-42.7	21.3	0.00e+00	0	36	0	1570766848	54	4184
2026-01-17 23:38:48.97	72.83	13.67	-41.9	-42.8	21.3	0.00e+00	0	35	0	1587544064	54	4196
2026-01-17 23:38:51.99	73.44	13.66	-41.7	-42.6	21.4	0.00e+00	0	35	0	1605369856	54	4126
2026-01-17 23:38:55.02	74.05	13.65	-41.4	-42.3	21.7	0.00e+00	0	36	0	1622147072	54	3981
2026-01-17 23:38:58.04	74.66	13.63	-41.7	-42.6	21.5	0.00e+00	0	36	0	1638924288	54	4102
2026-01-17 23:39:01.07	75.28	13.61	-41.8	-42.6	21.4	0.00e+00	0	35	0	1655701504	54	4141
2026-01-17 23:39:04.10	75.89	13.59	-41.8	-42.7	21.3	0.00e+00	0	36	0	1673527296	54	4151
2026-01-17 23:39:07.12	76.50	13.57	-41.7	-42.6	21.4	0.00e+00	0	36	0	1690304512	54	4127
2026-01-17 23:39:10.14	77.11	13.54	-41.8	-42.6	21.4	0.00e+00	0	35	0	1707081728	54	4142
2026-01-17 23:39:13.17	77.71	13.51	-41.7	-42.6	21.4	0.00e+00	0	36	0	1723858944	54	4113
2026-01-17 23:39:16.19	78.32	13.48	-41.7	-42.6	21.4	0.00e+00	0	36	0	1740636160	54	4105
2026-01-17 23:39:19.21	78.92	13.44	-41.8	-42.7	21.3	0.00e+00	0	36	0	1758461952	54	4163
2026-01-17 23:39:22.24	79.53	13.40	-41.7	-42.6	21.4	0.00e+00	0	36	0	1775239168	54	4117
2026-01-17 23:39:25.26	80.13	13.36	-41.7	-42.6	21.4	0.00e+00	0	36	0	1792016384	54	4114
2026-01-17 23:39:28.29	80.73	13.32	-41.8	-42.7	21.3	0.00e+00	0	36	0	1808793600	54	4159
2026-01-17 23:39:31.31	81.33	13.27	-41.8	-42.7	21.3	0.00e+00	0	35	0	1825570816	54	4170
2026-01-17 23:39:34.34	81.93	13.22	-41.9	-42.8	21.2	0.00e+00	0	35	0	1843396608	54	4231
2026-01-17 23:39:37.36	82.52	13.17	-41.9	-42.8	21.2	0.00e+00	0	36	0	1860173824	54	4195
2026-01-17 23:39:40.38	83.12	13.11	-42.0	-42.9	21.1	0.00e+00	0	36	0	1876951040	54	4253
2026-01-17 23:39:43.40	83.71	13.05	-42.0	-42.9	20.9	0.00e+00	0	36	0	1893728256	54	4266
2026-01-17 23:39:46.43	84.29	12.99	-41.8	-42.8	21.1	0.00e+00	0	36	0	1910505472	54	4199
2026-01-17 23:39:49.45	84.88	12.93	-42.0	-42.9	20.9	0.00e+00	0	36	0	1928331264	54	4274
2026-01-17 23:39:52.48	85.46	12.86	-42.1	-43.1	20.7	0.00e+00	0	36	0	1945108480	54	4375
2026-01-17 23:39:55.50	86.04	12.80	-41.9	-42.8	21.0	0.00e+00	0	35	0	1961885696	55	4003
2026-01-17 23:39:58.53	86.62	12.72	-42.0	-42.9	20.9	0.00e+00	0	36	0	1978662912	55	4039
2026-01-17 23:40:01.55	87.20	12.65	-42.0	-43.0	20.9	0.00e+00	0	36	0	1996488704	55	4063
2026-01-17 23:40:04.57	87.77	12.58	-41.9	-42.9	21.0	0.00e+00	0	36	0	2013265920	55	4020
2026-01-17 23:40:07.60	88.34	12.50	-42.1	-43.1	20.7	0.00e+00	0	36	0	2030043136	55	4127
2026-01-17 23:40:10.63	88.91	12.42	-42.2	-43.2	20.7	0.00e+00	0	36	0	2046820352	55	4150
2026-01-17 23:40:13.65	89.47	12.34	-42.1	-43.1	20.7	0.00e+00	0	35	0	2063597568	55	4129
2026-01-17 23:40:16.67	90.03	12.25	-42.2	-43.2	20.6	0.00e+00	0	36	0	2081423360	55	4172
2026-01-17 23:40:19.69	90.59	12.17	-42.1	-43.1	20.7	0.00e+00	0	36	0	2098200576	55	4121
2026-01-17 23:40:22.72	91.15	12.08	-42.2	-43.1	20.7	0.00e+00	0	36	0	2114977792	55	4140
2026-01-17 23:40:25.74	91.70	11.99	-42.3	-43.3	20.5	0.00e+00	0	36	0	2131755008	55	4207
2026-01-17 23:40:28.77	92.25	11.89	-42.3	-43.3	20.5	0.00e+00	0	35	0	2148532224	55	4201
2026-01-17 23:40:31.80	92.79	11.80	-42.4	-43.4	20.4	0.00e+00	0	36	0	2166358016	55	4268
2026-01-17 23:40:34.82	93.33	11.70	-42.5	-43.5	20.3	0.00e+00	0	36	0	2183135232	55	4301
2026-01-17 23:40:37.85	93.87	11.60	-42.3	-43.3	20.5	0.00e+00	0	36	0	2199912448	55	4224
2026-01-17 23:40:40.87	94.41	11.50	-42.4	-43.4	20.4	0.00e+00	0	36	0	2216689664	55	4268
2026-01-17 23:40:43.90	94.94	11.40	-42.5	-43.5	20.3	0.00e+00	0	36	0	2234515456	55	4321
2026-01-17 23:40:46.92	95.47	11.30	-42.5	-43.5	20.3	0.00e+00	0	36	0	2251292672	55	4313
2026-01-17 23:40:49.95	95.99	11.19	-42.4	-43.4	20.3	0.00e+00	0	36	0	2268069888	55	4274
2026-01-17 23:40:52.97	96.51	11.08	-42.5	-43.5	20.2	0.00e+00	0	35	0	2284847104	55	4330
2026-01-17 23:40:56.00	97.03	10.97	-42.6	-43.7	20.1	0.00e+00	0	36	0	2302672896	55	4397
2026-01-17 23:40:59.02	97.54	10.86	-42.8	-43.8	20.1	0.00e+00	0	36	0	2319450112	56	4224
2026-01-17 23:41:02.04	98.05	10.75	-42.7	-43.7	20.1	0.00e+00	0	36	0	2336227328	56	4185
2026-01-17 23:41:05.07	98.55	10.64	-42.6	-43.6	20.2	0.00e+00	0	36	0	2353004544	56	4140
2026-01-17 23:41:08.10	99.06	10.52	-42.7	-43.8	20.1	0.00e+00	0	36	0	2370830336	56	4194
2026-01-17 23:41:11.12	99.55	10.41	-42.7	-43.8	20.1	0.00e+00	0	35	0	2387607552	56	4196
2026-01-17 23:41:14.14	100.05	10.29	-42.9	-43.9	19.9	0.00e+00	0	36	0	2404384768	56	4285
2026-01-17 23:41:17.17	100.54	10.17	-43.0	-44.1	19.8	0.00e+00	0	36	0	2421161984	56	4344
2026-01-17 23:41:20.19	101.02	10.05	-43.1	-44.2	19.6	0.00e+00	0	36	0	2437939200	56	4425
2026-01-17 23:41:23.22	101.51	9.93	-43.1	-44.1	19.7	0.00e+00	0	36	0	2455764992	56	4381
2026-01-17 23:41:26.24	101.98	9.81	-43.0	-44.1	19.7	0.00e+00	0	35	0	2472542208	56	4363
2026-01-17 23:41:29.26	102.46	9.69	-43.2	-44.2	19.6	0.00e+00	0	36	0	2489319424	57	4190
2026-01-17 23:41:32.29	102.93	9.56	-43.2	-44.2	19.6	0.00e+00	0	36	0	2506096640	57	4186
2026-01-17 23:41:35.31	103.40	9.44	-43.2	-44.3	19.5	0.00e+00	0	36	0	2523922432	57	4204
2026-01-17 23:41:38.34	103.86	9.31	-43.2	-44.3	19.5	0.00e+00	0	36	0	2540699648	57	4200
2026-01-17 23:41:41.36	104.32	9.18	-43.0	-44.1	19.7	0.00e+00	0	36	0	2557476864	57	4121
2026-01-17 23:41:44.38	104.77	9.05	-43.1	-44.1	19.7	0.00e+00	0	36	0	2574254080	57	4135
2026-01-17 23:41:47.41	105.23	8.92	-43.3	-44.4	19.4	0.00e+00	0	36	0	2592079872	57	4243
2026-01-17 23:41:50.43	105.67	8.79	-43.2	-44.3	19.4	0.00e+00	0	36	0	2608857088	57	4224
2026-01-17 23:41:53.45	106.12	8.66	-43.4	-44.6	19.2	0.00e+00	0	36	0	2625634304	57	4349
2026-01-17 23:41:56.48	106.56	8.53	-43.6	-44.7	19.1	0.00e+00	0	36	0	2642411520	57	4410
2026-01-17 23:41:59.50	106.99	8.40	-43.5	-44.6	19.1	0.00e+00	0	36	0	2659188736	57	4370
2026-01-17 23:42:02.52	107.42	8.27	-43.4	-44.5	19.2	0.00e+00	0	36	0	2677014528	57	4321
2026-01-17 23:42:05.55	107.85	8.13	-43.7	-44.8	18.9	0.00e+00	0	36	0	2693791744	57	4460
2026-01-17 23:42:08.57	108.28	8.00	-43.8	-44.9	18.8	0.00e+00	0	36	0	2710568960	58	4282
2026-01-17 23:42:11.60	108.70	7.86	-43.9	-45.1	18.7	0.00e+00	0	36	0	2727346176	58	4342
2026-01-17 23:42:14.62	109.12	7.73	-43.9	-45.0	18.7	0.00e+00	0	36	0	2745171968	58	4336
2026-01-17 23:42:17.65	109.53	7.59	-44.0	-45.2	18.6	0.00e+00	0	36	0	2761949184	58	4411
2026-01-17 23:42:20.67	109.94	7.45	-43.9	-45.1	18.6	0.00e+00	0	36	0	2778726400	58	4371
2026-01-17 23:42:23.70	110.35	7.32	-43.9	-45.0	18.6	0.00e+00	0	35	0	2795503616	58	4337
2026-01-17 23:42:26.72	110.75	7.18	-43.9	-45.1	18.6	0.00e+00	0	35	0	2812280832	58	4365
2026-01-17 23:42:29.74	111.15	7.04	-44.2	-45.4	18.3	0.00e+00	0	36	0	2829058048	58	4506
2026-01-17 23:42:32.76	111.54	6.90	-44.2	-45.4	18.3	0.00e+00	0	36	0	2846883840	59	4258
2026-01-17 23:42:35.79	111.93	6.76	-44.3	-45.5	18.2	0.00e+00	0	36	0	2863661056	59	4325
2026-01-17 23:42:38.82	112.32	6.62	-44.2	-45.5	18.2	0.00e+00	0	35	0	2880438272	59	4304
2026-01-17 23:42:41.84	112.71	6.48	-44.3	-45.5	18.1	0.00e+00	0	35	0	2897215488	59	4312
2026-01-17 23:42:44.86	113.09	6.35	-44.3	-45.5	18.1	0.00e+00	0	36	0	2915041280	59	4314
2026-01-17 23:42:47.89	113.46	6.20	-44.4	-45.7	17.9	0.00e+00	0	35	0	2931818496	59	4400
2026-01-17 23:42:50.91	113.84	6.06	-44.3	-45.5	18.0	0.00e+00	0	36	0	2948595712	59	4340
2026-01-17 23:42:53.93	114.21	5.92	-44.6	-45.9	17.5	0.00e+00	0	36	0	2965372928	59	4519
2026-01-17 23:42:56.95	114.57	5.78	-44.5	-45.8	17.6	0.00e+00	0	36	0	2982150144	59	4486
2026-01-17 23:42:59.98	114.94	5.64	-44.7	-46.0	17.3	0.00e+00	0	36	0	2999975936	59	4589
2026-01-17 23:43:03.00	115.30	5.50	-44.4	-45.7	17.3	0.00e+00	0	35	0	3016753152	60	4177
2026-01-17 23:43:06.02	115.65	5.36	-44.6	-45.9	17.0	0.00e+00	0	36	0	3033530368	60	4288
2026-01-17 23:43:09.05	116.01	5.22	-44.4	-45.8	17.1	0.00e+00	0	35	0	3050307584	60	4202
2026-01-17 23:43:12.07	116.36	5.08	-44.5	-45.9	16.9	0.00e+00	0	36	0	3067084800	60	4280
2026-01-17 23:43:15.10	116.71	4.93	-52.5	-64.5	3.8	8.47e-01	0	36	104	3078619136	75	15373
2026-01-17 23:43:18.12	117.05	4.79	-53.1	-65.1	3.8	8.46e-01	0	36	104	3078619136	76	15468
2026-01-17 23:43:21.14	117.39	4.65	-53.5	-65.5	3.8	8.46e-01	0	36	104	3078619136	77	15355
2026-01-17 23:43:24.17	117.73	4.51	-53.6	-65.6	3.8	8.46e-01	0	36	104	3078619136	77	15548
2026-01-17 23:43:27.19	118.06	4.37	-53.7	-65.7	3.8	8.47e-01	0	36	104	3078619136	78	14819
2026-01-17 23:43:30.22	118.40	4.23	-53.8	-65.8	3.8	8.47e-01	0	36	104	3078619136	78	14935
2026-01-17 23:43:33.24	118.72	4.08	-53.8	-65.8	3.8	8.46e-01	0	36	104	3078619136	78	15022
2026-01-17 23:43:36.26	119.05	3.94	-53.9	-65.9	3.8	8.47e-01	0	36	104	3078619136	78	15150
2026-01-17 23:43:39.29	119.37	3.80	-53.9	-65.9	3.8	8.46e-01	0	36	104	3078619136	78	15189
2026-01-17 23:43:42.32	119.69	3.66	-54.0	-66.0	3.8	8.47e-01	0	36	104	3078619136	78	15260
2026-01-17 23:43:45.34	120.01	3.52	-53.9	-65.9	3.8	8.46e-01	0	36	104	3078619136	78	15223
2026-01-17 23:43:48.37	120.32	3.37	-53.9	-65.9	3.8	8.46e-01	0	36	104	3078619136	78	15225
2026-01-17 23:43:51.39	120.63	3.23	-53.9	-65.9	3.8	8.47e-01	0	36	104	3078619136	78	15122
2026-01-17 23:43:54.42	120.94	3.09	-53.9	-65.9	3.8	8.48e-01	0	36	104	3078619136	78	15169
2026-01-17 23:43:57.44	121.25	2.95	-53.9	-65.9	3.8	8.46e-01	0	36	104	3078619136	78	15140
2026-01-17 23:44:00.46	121.55	2.81	-53.9	-65.9	3.8	8.47e-01	0	36	104	3078619136	78	15086
2026-01-17 23:44:03.49	121.85	2.66	-53.9	-65.9	3.8	8.46e-01	0	36	104	3078619136	78	15130
2026-01-17 23:44:06.51	122.14	2.52	-53.9	-65.8	3.8	8.46e-01	0	36	104	3078619136	78	15028
2026-01-17 23:44:09.54	122.44	2.38	-53.9	-65.9	3.8	8.45e-01	0	36	104	3078619136	78	15063
2026-01-17 23:44:12.56	122.73	2.24	-53.9	-65.9	3.8	8.46e-01	0	36	104	3078619136	78	15065
2026-01-17 23:44:15.58	123.02	2.10	-53.9	-65.9	3.8	8.47e-01	0	36	104	3078619136	78	15101

#Closed at: 2026-01-17 23:44:18
#Recorded file [3078 MB]: D:/lorett/data/31041_260118_023304.dat