passes_logs/2026/01/17/R3.2S_Murmansk/R3.2S_Murmansk__20260117_232143_AQUA_rec.log

#Pass ID: 20260117_232143_AQUA
#Satellite: AQUA
#Configuration: AQUA
#almurnet v.1.7.20251203
#Start time: 2026-01-17 23:21:42

#Version: 2.2.20231116
#Station: R3.2S_Murmansk
#Location: 33.079688 lon 68.888172 lat
#TLE: 1 27424U 02022A   26017.62394888  .00000781  00000+0  16630-3 0  9993
#TLE: 2 27424  98.4086 344.0954 0002010  75.0132 339.4723 14.61825944261279

#Time	Az	El	Level	Level2	SNR	BER	BlckErr	Temp	State	Recorded	gain1	gain2
2026-01-17 23:21:42.59	21.94	1.98	-53.1	-70.5	3.8	7.43e-01	0	33	0	0	78	25602
2026-01-17 23:21:45.61	22.25	2.12	-53.1	-70.6	3.8	7.46e-01	0	33	104	0	76	29026
2026-01-17 23:21:48.64	22.58	2.27	-53.1	-70.8	3.8	7.46e-01	0	33	104	0	76	29883
2026-01-17 23:21:51.66	22.90	2.41	-53.1	-70.8	3.8	7.43e-01	0	33	104	0	76	29781
2026-01-17 23:21:54.69	23.23	2.56	-53.1	-70.9	3.8	7.45e-01	0	34	104	0	76	30053
2026-01-17 23:21:57.71	23.56	2.70	-53.1	-70.8	3.8	7.45e-01	0	34	104	0	76	30014
2026-01-17 23:22:00.73	23.90	2.85	-53.1	-70.9	3.8	7.43e-01	0	34	104	0	76	30138
2026-01-17 23:22:03.75	24.23	2.99	-53.1	-70.6	3.8	7.45e-01	0	34	104	0	76	29124
2026-01-17 23:22:06.78	24.58	3.14	-53.1	-70.3	3.8	7.49e-01	0	34	104	0	76	28305
2026-01-17 23:22:09.80	24.92	3.28	-53.1	-70.7	3.8	7.44e-01	0	34	104	0	76	29535
2026-01-17 23:22:12.83	25.27	3.43	-53.1	-70.7	3.8	7.45e-01	0	34	104	0	76	29483
2026-01-17 23:22:15.85	25.63	3.58	-53.1	-70.8	3.8	7.44e-01	0	34	104	0	76	29931
2026-01-17 23:22:18.88	25.98	3.72	-53.1	-70.5	3.8	7.45e-01	0	34	104	0	76	28893
2026-01-17 23:22:21.90	26.34	3.87	-53.1	-70.9	3.8	7.46e-01	0	34	104	0	76	30058
2026-01-17 23:22:24.93	26.71	4.01	-53.1	-70.8	3.8	7.44e-01	0	34	104	0	76	29909
2026-01-17 23:22:27.95	27.08	4.16	-53.1	-70.7	3.8	7.44e-01	0	34	104	0	76	29671
2026-01-17 23:22:30.98	27.45	4.31	-53.1	-70.6	3.8	7.50e-01	0	34	104	0	76	29242
2026-01-17 23:22:34.00	27.82	4.45	-53.1	-70.0	3.8	7.43e-01	0	34	104	0	76	27324
2026-01-17 23:22:37.02	28.20	4.60	-53.0	-68.0	3.8	7.41e-01	0	34	104	0	76	21725
2026-01-17 23:22:40.05	28.59	4.74	-53.0	-67.5	3.8	7.40e-01	0	34	104	0	76	20443
2026-01-17 23:22:43.07	28.98	4.89	-52.7	-63.1	6.5	6.70e-01	184	35	0	1572864	76	12328
2026-01-17 23:22:46.10	29.37	5.04	-52.4	-60.8	8.9	6.31e-01	1	35	0	7340032	76	9391
2026-01-17 23:22:49.12	29.77	5.18	-52.6	-62.5	7.2	6.60e-01	184	35	0	13107200	76	11444
2026-01-17 23:22:52.14	30.16	5.33	-50.8	-54.7	15.7	6.02e-01	0	35	0	15728640	73	5551
2026-01-17 23:22:55.17	30.57	5.47	-50.4	-54.0	16.5	6.02e-01	0	35	0	20971520	72	5415
2026-01-17 23:22:58.19	30.98	5.62	-50.4	-53.8	16.7	6.05e-01	0	35	0	26738688	72	5317
2026-01-17 23:23:01.22	31.39	5.76	-49.7	-52.5	18.1	6.02e-01	0	35	0	32505856	71	4836
2026-01-17 23:23:04.24	31.81	5.90	-48.1	-50.1	20.5	6.04e-01	0	35	0	38273024	68	4370
2026-01-17 23:23:07.26	32.23	6.05	-48.3	-50.4	20.5	6.04e-01	0	35	0	44040192	67	4766
2026-01-17 23:23:10.28	32.66	6.19	-47.8	-49.8	21.0	6.03e-01	0	35	0	49283072	67	4451
2026-01-17 23:23:13.31	33.09	6.33	-47.6	-49.4	21.4	6.03e-01	0	35	0	55050240	66	4533
2026-01-17 23:23:16.33	33.52	6.48	-47.5	-49.3	21.6	6.02e-01	0	35	0	60817408	66	4470
2026-01-17 23:23:19.36	33.96	6.62	-47.1	-48.8	22.1	6.02e-01	0	35	0	66584576	66	4206
2026-01-17 23:23:22.38	34.41	6.76	-47.3	-49.0	21.9	6.03e-01	0	35	0	72351744	66	4317
2026-01-17 23:23:25.40	34.85	6.90	-47.2	-48.9	22.1	6.05e-01	0	35	0	78118912	66	4251
2026-01-17 23:23:28.43	35.31	7.04	-47.1	-48.8	22.1	6.05e-01	0	35	0	83361792	66	4238
2026-01-17 23:23:31.45	35.77	7.18	-47.2	-48.9	22.0	6.01e-01	0	35	0	89128960	66	4288
2026-01-17 23:23:34.48	36.23	7.32	-47.3	-49.0	22.0	6.03e-01	0	35	0	94896128	66	4318
2026-01-17 23:23:37.50	36.70	7.46	-46.8	-48.4	22.6	6.02e-01	0	35	0	100663296	65	4278
2026-01-17 23:23:40.52	37.17	7.60	-47.1	-48.9	22.2	6.02e-01	0	35	0	106430464	65	4497
2026-01-17 23:23:43.54	37.64	7.74	-46.8	-48.4	22.7	6.03e-01	0	35	0	111673344	65	4272
2026-01-17 23:23:46.57	38.13	7.88	-46.9	-48.6	22.5	6.04e-01	0	35	0	117440512	65	4351
2026-01-17 23:23:49.59	38.61	8.01	-46.8	-48.4	22.6	6.04e-01	0	35	0	123207680	65	4286
2026-01-17 23:23:52.62	39.10	8.15	-46.7	-48.3	22.8	6.03e-01	0	35	0	128974848	65	4207
2026-01-17 23:23:55.64	39.60	8.28	-46.6	-48.1	22.9	6.03e-01	0	35	0	134742016	65	4144
2026-01-17 23:23:58.66	40.10	8.42	-46.7	-48.3	22.8	6.02e-01	0	35	0	139984896	65	4212
2026-01-17 23:24:01.68	40.60	8.55	-46.5	-48.1	23.0	6.04e-01	0	35	0	145752064	65	4119
2026-01-17 23:24:04.70	41.11	8.68	-46.5	-48.0	23.0	6.03e-01	0	35	0	151519232	64	4335
2026-01-17 23:24:07.73	41.63	8.81	-46.7	-48.2	22.9	6.02e-01	0	35	0	157286400	64	4434
2026-01-17 23:24:10.75	42.15	8.94	-46.6	-48.2	22.9	6.06e-01	0	35	0	163053568	64	4415
2026-01-17 23:24:13.77	42.67	9.07	-46.7	-48.2	22.8	6.04e-01	0	35	0	168296448	64	4434
2026-01-17 23:24:16.80	43.20	9.19	-46.5	-48.0	23.1	6.04e-01	0	35	0	174587904	64	4322
2026-01-17 23:24:19.82	43.74	9.32	-46.5	-48.0	23.1	6.02e-01	0	35	0	179830784	64	4333
2026-01-17 23:24:22.84	44.28	9.44	-46.5	-48.0	23.2	6.02e-01	0	35	0	185597952	64	4304
2026-01-17 23:24:25.86	44.82	9.56	-46.4	-47.9	23.1	6.03e-01	0	35	0	191365120	64	4290
2026-01-17 23:24:28.89	45.37	9.69	-46.5	-48.0	23.2	6.01e-01	0	35	0	197132288	64	4298
2026-01-17 23:24:31.91	45.92	9.81	-46.1	-47.5	23.6	6.03e-01	0	35	0	202899456	64	4094
2026-01-17 23:24:34.94	46.48	9.92	-46.4	-47.9	23.3	6.05e-01	0	35	0	208142336	64	4264
2026-01-17 23:24:37.96	47.04	10.04	-46.3	-47.8	23.3	6.01e-01	0	35	0	213909504	64	4202
2026-01-17 23:24:40.98	47.61	10.15	-46.2	-47.7	23.5	6.04e-01	0	35	0	219676672	64	4182
2026-01-17 23:24:44.01	48.19	10.27	-46.1	-47.6	23.6	6.03e-01	0	35	0	225443840	64	4125
2026-01-17 23:24:47.03	48.76	10.38	-46.0	-47.5	23.7	6.03e-01	0	35	0	231211008	64	4064
2026-01-17 23:24:50.04	49.34	10.49	-46.0	-47.5	23.7	6.02e-01	0	35	0	236453888	64	4052
2026-01-17 23:24:53.06	49.93	10.59	-46.0	-47.5	23.7	6.03e-01	0	35	0	242221056	64	4056
2026-01-17 23:24:56.08	50.52	10.70	-46.3	-47.7	23.6	6.04e-01	0	35	0	247988224	63	4431
2026-01-17 23:24:59.10	51.11	10.80	-46.0	-47.4	23.8	6.02e-01	0	35	0	253755392	63	4272
2026-01-17 23:25:02.13	51.71	10.90	-46.2	-47.6	23.7	6.02e-01	0	35	0	259522560	63	4367
2026-01-17 23:25:05.15	52.32	11.00	-46.1	-47.6	23.7	6.02e-01	0	35	0	264765440	63	4354
2026-01-17 23:25:08.18	52.93	11.10	-46.1	-47.5	23.8	6.02e-01	0	35	0	270532608	63	4308
2026-01-17 23:25:11.20	53.54	11.19	-46.1	-47.6	23.7	6.01e-01	0	35	0	276299776	63	4359
2026-01-17 23:25:14.23	54.16	11.28	-46.1	-47.5	23.9	6.03e-01	0	35	0	282066944	63	4311
2026-01-17 23:25:17.25	54.78	11.37	-46.0	-47.4	23.9	6.03e-01	0	35	0	287834112	63	4265
2026-01-17 23:25:20.28	55.40	11.46	-46.1	-47.6	23.7	6.02e-01	0	35	0	293076992	63	4347
2026-01-17 23:25:23.30	56.03	11.55	-46.0	-47.5	23.9	6.02e-01	0	35	0	298844160	63	4297
2026-01-17 23:25:26.32	56.66	11.63	-46.0	-47.4	24.0	6.02e-01	0	35	0	304611328	63	4258
2026-01-17 23:25:29.34	57.30	11.71	-45.9	-47.3	24.0	6.00e-01	0	35	0	310378496	63	4230
2026-01-17 23:25:32.37	57.94	11.78	-46.0	-47.5	23.9	6.03e-01	0	35	0	316145664	63	4298
2026-01-17 23:25:35.38	58.58	11.86	-45.9	-47.3	24.0	6.03e-01	0	35	0	321388544	63	4229
2026-01-17 23:25:38.40	59.22	11.93	-45.8	-47.2	24.1	6.02e-01	0	35	0	327155712	63	4164
2026-01-17 23:25:41.43	59.87	11.99	-45.8	-47.2	24.0	6.05e-01	0	35	0	332922880	63	4165
2026-01-17 23:25:44.45	60.52	12.06	-45.9	-47.3	24.1	6.04e-01	0	35	0	338690048	63	4197
2026-01-17 23:25:47.47	61.18	12.12	-45.9	-47.4	23.8	6.06e-01	0	35	0	344457216	63	4251
2026-01-17 23:25:50.49	61.84	12.18	-45.9	-47.3	23.8	6.04e-01	0	35	0	350224384	63	4207
2026-01-17 23:25:53.52	62.50	12.23	-45.9	-47.3	24.0	6.02e-01	0	35	0	355467264	63	4203
2026-01-17 23:25:56.54	63.16	12.29	-45.7	-47.1	23.9	6.04e-01	0	35	0	361234432	63	4136
2026-01-17 23:25:59.56	63.83	12.34	-45.8	-47.2	23.9	6.04e-01	0	35	0	367001600	63	4177
2026-01-17 23:26:02.58	64.49	12.38	-45.8	-47.2	24.1	6.02e-01	0	35	0	372768768	63	4191
2026-01-17 23:26:05.61	65.17	12.42	-45.8	-47.2	24.1	6.04e-01	0	35	0	378535936	63	4157
2026-01-17 23:26:08.63	65.84	12.46	-45.9	-47.3	24.1	6.01e-01	0	35	0	383778816	63	4203
2026-01-17 23:26:11.65	66.51	12.50	-45.8	-47.1	24.2	6.04e-01	0	35	0	389545984	63	4138
2026-01-17 23:26:14.68	67.19	12.53	-45.9	-47.2	24.1	6.02e-01	0	35	0	395313152	63	4189
2026-01-17 23:26:17.70	67.87	12.56	-45.7	-47.1	24.3	6.04e-01	0	35	0	401080320	63	4130
2026-01-17 23:26:20.73	68.55	12.59	-45.9	-47.3	24.0	6.06e-01	0	35	0	406847488	63	4209
2026-01-17 23:26:23.75	69.23	12.61	-45.7	-47.1	24.2	6.05e-01	0	35	0	412090368	63	4122
2026-01-17 23:26:26.77	69.91	12.63	-45.7	-47.1	24.3	6.04e-01	0	35	0	417857536	63	4107
2026-01-17 23:26:29.80	70.59	12.65	-45.9	-47.3	24.1	6.04e-01	0	35	0	423624704	63	4205
2026-01-17 23:26:32.82	71.27	12.66	-45.7	-47.0	24.3	6.03e-01	0	35	0	429391872	63	4080
2026-01-17 23:26:35.84	71.96	12.67	-45.8	-47.2	24.1	6.00e-01	0	35	0	435159040	63	4170
2026-01-17 23:26:38.87	72.64	12.67	-45.7	-47.1	24.2	6.02e-01	0	35	0	440401920	63	4130
2026-01-17 23:26:41.89	73.32	12.67	-45.8	-47.1	24.2	6.04e-01	0	35	0	446169088	63	4140
2026-01-17 23:26:44.91	74.01	12.67	-45.7	-47.0	24.3	6.02e-01	0	35	0	451936256	63	4098
2026-01-17 23:26:47.94	74.69	12.66	-45.8	-47.2	24.1	6.00e-01	0	35	0	457703424	63	4173
2026-01-17 23:26:50.96	75.37	12.66	-45.7	-47.1	24.2	6.01e-01	0	35	0	463470592	63	4116
2026-01-17 23:26:53.99	76.06	12.64	-45.8	-47.2	24.2	6.05e-01	0	35	0	469237760	63	4149
2026-01-17 23:26:57.01	76.74	12.63	-45.7	-47.0	24.3	6.02e-01	0	35	0	474480640	63	4095
2026-01-17 23:27:00.04	77.42	12.61	-45.7	-47.0	24.3	6.02e-01	0	35	0	480247808	63	4088
2026-01-17 23:27:03.06	78.10	12.58	-45.7	-47.1	24.3	6.02e-01	0	35	0	486014976	63	4106
2026-01-17 23:27:06.08	78.78	12.56	-45.6	-47.0	24.3	6.03e-01	0	35	0	491782144	63	4074
2026-01-17 23:27:09.11	79.46	12.53	-45.7	-47.0	24.3	6.03e-01	0	35	0	497549312	63	4083
2026-01-17 23:27:12.13	80.14	12.49	-45.8	-47.1	24.2	6.01e-01	0	35	0	502792192	63	4145
2026-01-17 23:27:15.15	80.81	12.46	-45.7	-47.1	24.3	6.02e-01	0	35	0	508559360	63	4107
2026-01-17 23:27:18.17	81.48	12.42	-45.8	-47.2	24.1	6.03e-01	0	35	0	514326528	63	4163
2026-01-17 23:27:21.20	82.16	12.37	-45.8	-47.1	24.2	6.04e-01	0	35	0	520093696	63	4143
2026-01-17 23:27:24.22	82.82	12.33	-45.8	-47.1	24.2	6.03e-01	0	35	0	525860864	63	4139
2026-01-17 23:27:27.25	83.49	12.28	-45.7	-47.1	24.2	6.02e-01	0	35	0	531103744	63	4111
2026-01-17 23:27:30.27	84.16	12.22	-45.6	-47.0	24.3	6.02e-01	0	35	0	536870912	63	4073
2026-01-17 23:27:33.29	84.82	12.17	-45.8	-47.2	24.1	6.05e-01	0	35	0	542638080	63	4164
2026-01-17 23:27:36.32	85.48	12.11	-45.8	-47.1	24.2	6.01e-01	0	35	0	548405248	63	4145
2026-01-17 23:27:39.34	86.13	12.05	-45.8	-47.2	24.1	6.02e-01	0	35	0	554172416	63	4173
2026-01-17 23:27:42.36	86.79	11.98	-45.8	-47.1	24.2	6.03e-01	0	35	0	559415296	63	4137
2026-01-17 23:27:45.38	87.44	11.91	-45.8	-47.2	24.1	6.02e-01	0	35	0	565706752	63	4173
2026-01-17 23:27:48.41	88.08	11.84	-45.9	-47.3	24.0	6.02e-01	0	35	0	570949632	63	4232
2026-01-17 23:27:51.43	88.73	11.77	-45.9	-47.3	24.0	6.04e-01	0	35	0	576716800	63	4202
2026-01-17 23:27:54.46	89.37	11.69	-45.8	-47.2	24.1	6.03e-01	0	35	0	582483968	63	4151
2026-01-17 23:27:57.48	90.01	11.61	-45.9	-47.3	24.0	6.05e-01	0	35	0	587726848	63	4216
2026-01-17 23:28:00.50	90.64	11.53	-45.9	-47.2	24.1	6.03e-01	0	35	0	594018304	63	4192
2026-01-17 23:28:03.52	91.27	11.44	-45.9	-47.3	23.9	6.04e-01	0	35	0	599261184	63	4226
2026-01-17 23:28:06.55	91.89	11.35	-45.8	-47.2	24.1	6.04e-01	0	35	0	605028352	63	4149
2026-01-17 23:28:09.57	92.51	11.26	-45.9	-47.3	23.9	6.01e-01	0	35	0	610795520	63	4242
2026-01-17 23:28:12.60	93.13	11.17	-45.9	-47.3	24.0	6.02e-01	0	35	0	616562688	63	4214
2026-01-17 23:28:15.62	93.75	11.08	-45.9	-47.3	23.9	6.05e-01	0	35	0	622329856	63	4200
2026-01-17 23:28:18.65	94.36	10.98	-45.8	-47.2	23.9	6.03e-01	0	35	0	627572736	63	4192
2026-01-17 23:28:21.67	94.96	10.88	-45.9	-47.3	23.9	6.04e-01	0	35	0	633339904	63	4221
2026-01-17 23:28:24.69	95.56	10.78	-45.9	-47.3	23.9	6.03e-01	0	35	0	639107072	63	4235
2026-01-17 23:28:27.72	96.16	10.67	-45.9	-47.3	23.9	6.03e-01	0	35	0	644874240	63	4241
2026-01-17 23:28:30.74	96.75	10.57	-46.1	-47.5	23.7	6.03e-01	0	35	0	650641408	63	4321
2026-01-17 23:28:33.76	97.34	10.46	-45.9	-47.3	23.9	6.02e-01	0	35	0	655884288	63	4220
2026-01-17 23:28:36.78	97.92	10.35	-46.1	-47.5	23.7	6.02e-01	0	35	0	661651456	63	4314
2026-01-17 23:28:39.81	98.50	10.24	-46.1	-47.5	23.7	6.04e-01	0	35	0	667418624	63	4322
2026-01-17 23:28:42.83	99.07	10.12	-45.9	-47.3	23.9	6.05e-01	0	35	0	673185792	63	4216
2026-01-17 23:28:45.85	99.64	10.01	-46.1	-47.6	23.6	6.06e-01	0	35	0	678952960	63	4367
2026-01-17 23:28:48.88	100.21	9.89	-46.0	-47.5	23.7	6.03e-01	0	35	0	684195840	63	4309
2026-01-17 23:28:51.90	100.76	9.77	-46.0	-47.5	23.7	6.00e-01	0	35	0	689963008	63	4293
2026-01-17 23:28:54.92	101.32	9.65	-46.1	-47.6	23.6	6.03e-01	0	35	0	695730176	63	4358
2026-01-17 23:28:57.95	101.87	9.53	-46.2	-47.7	23.4	6.05e-01	0	35	0	701497344	63	4426
2026-01-17 23:29:00.97	102.41	9.41	-46.3	-47.8	23.4	6.05e-01	0	35	0	707264512	63	4461
2026-01-17 23:29:03.99	102.95	9.28	-46.2	-47.7	23.5	6.03e-01	0	35	0	713031680	63	4405
2026-01-17 23:29:07.02	103.49	9.15	-46.3	-47.8	23.4	6.03e-01	0	35	0	718274560	63	4460
2026-01-17 23:29:10.04	104.02	9.03	-46.4	-48.0	23.2	6.04e-01	0	35	0	724041728	63	4549
2026-01-17 23:29:13.07	104.55	8.90	-46.5	-48.1	23.1	6.02e-01	0	35	0	729808896	63	4601
2026-01-17 23:29:16.09	105.07	8.77	-46.3	-47.7	23.4	6.03e-01	0	35	0	735576064	63	4439
2026-01-17 23:29:19.12	105.59	8.64	-46.5	-48.0	23.1	6.02e-01	0	35	0	741343232	63	4572
2026-01-17 23:29:22.14	106.10	8.50	-46.5	-48.0	23.1	6.03e-01	0	35	0	746586112	63	4581
2026-01-17 23:29:25.16	106.60	8.37	-46.4	-48.0	23.1	6.04e-01	0	35	0	752353280	63	4562
2026-01-17 23:29:28.19	107.10	8.23	-46.6	-48.1	23.0	6.03e-01	0	35	0	758120448	63	4636
2026-01-17 23:29:31.21	107.60	8.10	-46.5	-48.0	23.1	6.03e-01	0	35	0	763887616	63	4589
2026-01-17 23:29:34.23	108.09	7.96	-46.6	-48.2	22.7	6.04e-01	0	35	0	769654784	64	4436
2026-01-17 23:29:37.25	108.58	7.83	-46.6	-48.2	22.7	6.03e-01	0	35	0	774897664	64	4413
2026-01-17 23:29:40.28	109.06	7.69	-46.4	-48.0	23.0	6.02e-01	0	35	0	780664832	64	4292
2026-01-17 23:29:43.30	109.54	7.55	-46.6	-48.3	22.7	6.03e-01	0	36	0	786432000	64	4445
2026-01-17 23:29:46.33	110.01	7.41	-46.6	-48.2	22.7	6.05e-01	0	35	0	792199168	64	4440
2026-01-17 23:29:49.35	110.48	7.27	-46.5	-48.1	22.8	6.03e-01	0	35	0	797966336	64	4380
2026-01-17 23:29:52.38	110.94	7.13	-46.7	-48.3	22.6	6.04e-01	0	35	0	803209216	64	4461
2026-01-17 23:29:55.40	111.40	6.99	-46.8	-48.4	22.5	6.02e-01	0	35	0	808976384	64	4541
2026-01-17 23:29:58.43	111.86	6.84	-46.9	-48.5	22.3	6.04e-01	0	35	0	814743552	64	4596
2026-01-17 23:30:01.45	112.30	6.70	-46.9	-48.6	22.3	6.05e-01	0	36	0	820510720	64	4620
2026-01-17 23:30:04.48	112.75	6.56	-46.9	-48.6	22.2	6.04e-01	0	35	0	826277888	64	4645
2026-01-17 23:30:07.50	113.19	6.41	-47.0	-48.7	22.1	6.03e-01	0	35	0	832045056	64	4678
2026-01-17 23:30:10.52	113.62	6.27	-46.9	-48.5	22.3	6.03e-01	0	35	0	837287936	64	4596
2026-01-17 23:30:13.55	114.06	6.13	-47.1	-48.9	21.9	6.05e-01	0	35	0	843055104	64	4773
2026-01-17 23:30:16.57	114.48	5.98	-47.1	-48.9	21.8	6.02e-01	0	35	0	848822272	64	4761
2026-01-17 23:30:19.60	114.91	5.84	-47.1	-48.9	21.7	6.04e-01	0	35	0	854589440	65	4525
2026-01-17 23:30:22.62	115.32	5.69	-47.1	-48.9	21.7	6.03e-01	0	35	0	860356608	65	4527
2026-01-17 23:30:25.64	115.74	5.55	-47.2	-49.1	21.5	6.05e-01	0	35	0	865599488	65	4611
2026-01-17 23:30:28.67	116.14	5.40	-47.0	-48.8	21.7	6.02e-01	0	35	0	871366656	65	4486
2026-01-17 23:30:31.69	116.55	5.25	-47.4	-49.4	21.1	6.03e-01	0	35	0	877133824	65	4760
2026-01-17 23:30:34.72	116.95	5.11	-47.3	-49.2	21.2	6.06e-01	0	35	0	882900992	66	4399
2026-01-17 23:30:37.74	117.35	4.96	-54.0	-71.9	3.8	7.43e-01	0	35	104	887095296	78	30093
2026-01-17 23:30:40.77	117.74	4.81	-54.6	-72.2	3.8	7.44e-01	0	36	104	887095296	79	29602
2026-01-17 23:30:43.79	118.13	4.67	-54.9	-72.7	3.8	7.45e-01	0	35	104	887095296	80	29437
2026-01-17 23:30:46.82	118.51	4.52	-55.1	-72.8	3.8	7.42e-01	0	36	104	887095296	80	30009
2026-01-17 23:30:49.84	118.89	4.37	-55.2	-73.0	3.8	7.44e-01	0	36	104	887095296	80	30606
2026-01-17 23:30:52.86	119.27	4.23	-55.3	-73.1	3.8	7.45e-01	0	35	104	887095296	81	29121
2026-01-17 23:30:55.89	119.64	4.08	-55.3	-73.1	3.8	7.42e-01	0	36	104	887095296	81	29339
2026-01-17 23:30:58.91	120.01	3.93	-55.4	-73.2	3.8	7.46e-01	0	35	104	887095296	81	29467
2026-01-17 23:31:01.94	120.37	3.78	-55.4	-73.2	3.8	7.45e-01	0	36	104	887095296	81	29575
2026-01-17 23:31:04.96	120.73	3.64	-55.4	-73.3	3.8	7.47e-01	0	36	104	887095296	81	29738
2026-01-17 23:31:07.98	121.09	3.49	-55.4	-73.2	3.8	7.47e-01	0	36	104	887095296	81	29602
2026-01-17 23:31:11.01	121.44	3.34	-55.4	-73.2	3.8	7.47e-01	0	36	104	887095296	81	29607
2026-01-17 23:31:14.03	121.79	3.20	-55.4	-73.2	3.8	7.45e-01	0	36	104	887095296	81	29492
2026-01-17 23:31:17.06	122.14	3.05	-55.4	-73.2	3.8	7.47e-01	0	35	104	887095296	81	29508
2026-01-17 23:31:20.08	122.48	2.90	-55.4	-73.2	3.8	7.45e-01	0	36	104	887095296	81	29502
2026-01-17 23:31:23.10	122.82	2.75	-55.4	-73.2	3.8	7.45e-01	0	36	104	887095296	81	29467
2026-01-17 23:31:26.13	123.15	2.61	-55.4	-73.2	3.8	7.47e-01	0	36	104	887095296	81	29464
2026-01-17 23:31:29.15	123.48	2.46	-55.4	-73.2	3.8	7.46e-01	0	36	104	887095296	81	29410
2026-01-17 23:31:32.17	123.81	2.32	-55.3	-73.2	3.8	7.44e-01	0	36	104	887095296	81	29427
2026-01-17 23:31:35.20	124.14	2.17	-55.3	-73.1	3.8	7.47e-01	0	36	104	887095296	81	29329
2026-01-17 23:31:38.22	124.46	2.02	-55.3	-73.1	3.8	7.46e-01	0	36	104	887095296	81	29333
2026-01-17 23:31:41.25	124.78	1.88	-55.3	-73.2	3.8	7.47e-01	0	36	104	887095296	81	29351

#Closed at: 2026-01-17 23:31:41
#Recorded file [887 MB]: D:/lorett/data/31041_260118_022142.dat