passes_logs/2026/01/17/R3.2S_Murmansk/R3.2S_Murmansk__20260117_114323_NOAA_21_JPSS-2_rec.log

#Pass ID: 20260117_114323_NOAA 21 (JPSS-2)
#Satellite: NOAA 21 (JPSS-2)
#Configuration: NOAA-21
#almurnet v.1.7.20251203
#Start time: 2026-01-17 11:44:31

#Version: 2.2.20231116
#Station: R3.2S_Murmansk
#Location: 33.079688 lon 68.888172 lat
#TLE: 1 54234U 22150A   26016.56338662  .00000024  00000+0  32257-4 0  9990
#TLE: 2 54234  98.7500 317.4442 0000622 279.9774  80.1332 14.19534942165033

#Time	Az	El	Level	Level2	SNR	BER	BlckErr	Temp	State	Recorded	gain1	gain2
2026-01-17 11:44:31.98	212.08	6.08	-53.7	-65.8	3.8	8.46e-01	0	34	0	0	78	14890
2026-01-17 11:44:35.00	212.34	6.27	-53.9	-66.7	3.8	1.49e+00	0	35	104	0	78	16607
2026-01-17 11:44:38.03	212.60	6.47	-53.8	-66.6	3.8	1.49e+00	0	35	104	0	78	16498
2026-01-17 11:44:41.06	212.86	6.66	-53.8	-66.6	3.8	1.49e+00	0	35	104	0	78	16362
2026-01-17 11:44:44.08	213.13	6.85	-53.6	-66.4	3.8	1.49e+00	0	35	104	0	78	16064
2026-01-17 11:44:47.11	213.40	7.05	-53.3	-66.1	3.8	1.49e+00	0	35	104	0	78	15504
2026-01-17 11:44:50.14	213.68	7.24	-52.9	-65.6	3.8	1.49e+00	0	34	104	0	77	15456
2026-01-17 11:44:53.16	213.95	7.44	-52.9	-65.5	3.8	1.49e+00	0	35	104	0	77	15236
2026-01-17 11:44:56.18	214.23	7.64	-52.9	-65.5	3.8	1.49e+00	0	35	104	0	77	15398
2026-01-17 11:44:59.21	214.52	7.84	-52.9	-65.4	3.8	1.49e+00	0	35	104	0	77	15215
2026-01-17 11:45:02.24	214.81	8.04	-52.9	-65.3	3.8	1.49e+00	0	35	104	0	77	15015
2026-01-17 11:45:05.26	215.10	8.24	-52.9	-65.4	3.8	1.49e+00	0	35	104	0	77	15108
2026-01-17 11:45:08.29	215.39	8.44	-52.8	-65.3	3.8	1.49e+00	0	35	104	0	77	15010
2026-01-17 11:45:11.31	215.69	8.64	-52.9	-65.4	3.8	1.49e+00	0	35	104	0	77	15208
2026-01-17 11:45:14.34	216.00	8.85	-52.6	-62.8	3.9	1.49e+00	0	35	104	0	77	11201
2026-01-17 11:45:17.36	216.31	9.05	-51.3	-56.2	8.1	9.10e-02	0	35	0	6291456	74	6228
2026-01-17 11:45:20.38	216.62	9.25	-49.3	-52.0	12.6	2.14e-04	0	35	0	15728640	70	4820
2026-01-17 11:45:23.41	216.93	9.46	-46.0	-47.4	17.2	0.00e+00	0	35	0	25165824	63	4263
2026-01-17 11:45:26.44	217.26	9.67	-45.3	-46.6	18.0	0.00e+00	0	35	0	34603008	61	4356
2026-01-17 11:45:29.46	217.58	9.88	-45.9	-47.3	17.2	0.00e+00	0	35	0	44040192	63	4234
2026-01-17 11:45:32.49	217.91	10.09	-45.3	-46.6	17.9	0.00e+00	0	35	0	53477376	62	4121
2026-01-17 11:45:35.52	218.24	10.30	-44.3	-45.4	19.1	0.00e+00	0	35	0	62914560	60	4020
2026-01-17 11:45:38.55	218.58	10.51	-44.0	-45.1	19.4	0.00e+00	0	35	0	72351744	60	3878
2026-01-17 11:45:41.57	218.93	10.72	-44.3	-45.3	19.4	0.00e+00	0	35	0	81788928	59	4234
2026-01-17 11:45:44.59	219.27	10.93	-44.3	-45.4	19.4	0.00e+00	0	35	0	91226112	59	4254
2026-01-17 11:45:47.62	219.63	11.15	-44.1	-45.1	19.6	0.00e+00	0	35	0	100663296	59	4133
2026-01-17 11:45:50.64	219.99	11.36	-44.1	-45.2	19.6	0.00e+00	0	35	0	110100480	59	4151
2026-01-17 11:45:53.66	220.35	11.58	-44.1	-45.2	19.6	0.00e+00	0	35	0	119537664	59	4159
2026-01-17 11:45:56.69	220.72	11.80	-44.0	-45.0	19.8	0.00e+00	0	35	0	128974848	59	4086
2026-01-17 11:45:59.71	221.09	12.01	-44.0	-45.1	19.7	0.00e+00	0	35	0	138412032	59	4111
2026-01-17 11:46:02.74	221.47	12.23	-43.9	-44.9	19.9	0.00e+00	0	35	0	147849216	59	4028
2026-01-17 11:46:05.77	221.86	12.45	-44.0	-45.0	19.8	0.00e+00	0	35	0	157286400	59	4068
2026-01-17 11:46:08.79	222.24	12.67	-43.9	-45.0	19.9	0.00e+00	0	35	0	166723584	59	4063
2026-01-17 11:46:11.82	222.64	12.89	-44.0	-45.1	19.8	0.00e+00	0	35	0	176160768	59	4110
2026-01-17 11:46:14.85	223.04	13.11	-44.0	-45.0	19.8	0.00e+00	0	35	0	185597952	59	4092
2026-01-17 11:46:17.87	223.45	13.34	-44.0	-45.0	19.9	0.00e+00	0	35	0	195035136	59	4071
2026-01-17 11:46:20.90	223.86	13.56	-43.9	-44.9	19.9	0.00e+00	0	35	0	204472320	59	4048
2026-01-17 11:46:23.92	224.28	13.78	-44.0	-45.0	19.9	0.00e+00	0	35	0	213909504	59	4065
2026-01-17 11:46:26.95	224.71	14.01	-43.9	-44.9	20.0	0.00e+00	0	35	0	223346688	59	4036
2026-01-17 11:46:29.97	225.14	14.23	-43.9	-44.9	20.0	0.00e+00	0	35	0	232783872	59	4022
2026-01-17 11:46:33.00	225.58	14.46	-44.0	-45.0	19.9	0.00e+00	0	35	0	242221056	59	4083
2026-01-17 11:46:36.02	226.02	14.69	-43.9	-44.9	20.0	0.00e+00	0	35	0	251658240	59	4017
2026-01-17 11:46:39.05	226.47	14.91	-43.9	-44.9	20.0	0.00e+00	0	35	0	261095424	59	4045
2026-01-17 11:46:42.08	226.93	15.14	-44.1	-45.1	19.8	0.00e+00	0	35	0	270532608	59	4138
2026-01-17 11:46:45.11	227.40	15.37	-44.2	-45.3	19.7	0.00e+00	0	35	0	279969792	59	4196
2026-01-17 11:46:48.13	227.87	15.60	-44.2	-45.2	19.8	0.00e+00	0	35	0	289406976	59	4165
2026-01-17 11:46:51.16	228.35	15.82	-44.3	-45.3	19.7	0.00e+00	0	35	0	298844160	59	4215
2026-01-17 11:46:54.18	228.83	16.05	-44.3	-45.4	19.6	0.00e+00	0	35	0	308281344	59	4269
2026-01-17 11:46:57.21	229.33	16.28	-44.3	-45.3	19.7	0.00e+00	0	35	0	317718528	59	4232
2026-01-17 11:47:00.24	229.83	16.51	-44.3	-45.3	19.7	0.00e+00	0	35	0	327155712	59	4223
2026-01-17 11:47:03.26	230.34	16.74	-44.3	-45.3	19.7	0.00e+00	0	35	0	336592896	59	4234
2026-01-17 11:47:06.29	230.85	16.97	-44.3	-45.3	19.7	0.00e+00	0	35	0	346030080	59	4221
2026-01-17 11:47:09.31	231.37	17.20	-44.4	-45.5	19.5	0.00e+00	0	35	0	355467264	59	4294
2026-01-17 11:47:12.34	231.90	17.43	-44.4	-45.4	19.6	0.00e+00	0	35	0	364904448	59	4286
2026-01-17 11:47:15.36	232.44	17.65	-44.3	-45.3	19.6	0.00e+00	0	35	0	374341632	59	4236
2026-01-17 11:47:18.39	232.99	17.88	-44.3	-45.3	19.6	0.00e+00	0	35	0	383778816	59	4242
2026-01-17 11:47:21.41	233.54	18.11	-44.3	-45.4	19.6	0.00e+00	0	35	0	393216000	59	4253
2026-01-17 11:47:24.44	234.11	18.34	-44.3	-45.3	19.6	0.00e+00	0	35	0	402653184	59	4242
2026-01-17 11:47:27.46	234.68	18.56	-44.0	-45.0	20.0	0.00e+00	0	35	0	412090368	59	4075
2026-01-17 11:47:30.49	235.26	18.79	-44.1	-45.1	19.9	0.00e+00	0	35	0	422576128	59	4143
2026-01-17 11:47:33.52	235.84	19.02	-44.1	-45.1	19.9	0.00e+00	0	35	0	430964736	59	4117
2026-01-17 11:47:36.54	236.44	19.24	-44.1	-45.1	19.9	0.00e+00	0	35	0	440401920	59	4120
2026-01-17 11:47:39.57	237.04	19.46	-43.9	-44.9	20.2	0.00e+00	0	35	0	449839104	59	4005
2026-01-17 11:47:42.59	237.66	19.68	-43.7	-44.6	20.3	0.00e+00	0	35	0	460324864	59	3908
2026-01-17 11:47:45.62	238.28	19.91	-43.4	-44.3	20.6	0.00e+00	0	35	0	469762048	58	3982
2026-01-17 11:47:48.65	238.91	20.13	-43.2	-44.1	20.8	0.00e+00	0	35	0	478150656	58	3889
2026-01-17 11:47:51.67	239.55	20.34	-43.1	-44.0	20.9	0.00e+00	0	35	0	487587840	58	3867
2026-01-17 11:47:54.70	240.20	20.56	-43.3	-44.2	20.7	0.00e+00	0	35	0	498073600	58	3952
2026-01-17 11:47:57.72	240.85	20.77	-43.3	-44.3	20.7	0.00e+00	0	35	0	507510784	58	3961
2026-01-17 11:48:00.74	241.52	20.98	-43.3	-44.3	20.7	0.00e+00	0	35	0	516947968	58	3970
2026-01-17 11:48:03.77	242.19	21.19	-43.3	-44.2	20.7	0.00e+00	0	35	0	525336576	58	3957
2026-01-17 11:48:06.80	242.88	21.40	-43.3	-44.2	20.7	0.00e+00	0	35	0	535822336	58	3952
2026-01-17 11:48:09.82	243.57	21.61	-43.2	-44.2	20.8	0.00e+00	0	35	0	545259520	58	3920
2026-01-17 11:48:12.85	244.27	21.81	-42.9	-43.8	21.1	0.00e+00	0	35	0	554696704	57	3984
2026-01-17 11:48:15.87	244.98	22.01	-43.0	-43.9	20.9	0.00e+00	0	35	0	564133888	57	4049
2026-01-17 11:48:18.90	245.70	22.21	-43.0	-43.9	21.0	0.00e+00	0	35	0	573571072	57	4028
2026-01-17 11:48:21.92	246.43	22.40	-43.0	-43.9	21.1	0.00e+00	0	35	0	583008256	57	4009
2026-01-17 11:48:24.95	247.17	22.59	-42.8	-43.6	21.3	0.00e+00	0	35	0	592445440	57	3912
2026-01-17 11:48:27.98	247.91	22.78	-42.7	-43.6	21.2	0.00e+00	0	35	0	601882624	57	3879
2026-01-17 11:48:31.01	248.67	22.96	-42.8	-43.7	21.2	0.00e+00	0	35	0	611319808	57	3952
2026-01-17 11:48:34.03	249.43	23.14	-43.0	-43.9	21.0	0.00e+00	0	35	0	620756992	57	4051
2026-01-17 11:48:37.06	250.20	23.32	-43.2	-44.1	20.8	0.00e+00	0	35	0	630194176	57	4133
2026-01-17 11:48:40.08	250.98	23.49	-43.2	-44.2	20.8	0.00e+00	0	35	0	639631360	57	4154
2026-01-17 11:48:43.11	251.77	23.66	-43.3	-44.2	20.8	0.00e+00	0	35	0	649068544	57	4183
2026-01-17 11:48:46.14	252.57	23.82	-43.3	-44.2	20.8	0.00e+00	0	35	0	658505728	57	4183
2026-01-17 11:48:49.16	253.37	23.98	-43.4	-44.4	20.7	0.00e+00	0	35	0	667942912	57	4243
2026-01-17 11:48:52.19	254.18	24.13	-43.3	-44.2	20.8	0.00e+00	0	35	0	677380096	57	4189
2026-01-17 11:48:55.21	255.00	24.28	-43.4	-44.3	20.7	0.00e+00	0	35	0	686817280	57	4210
2026-01-17 11:48:58.24	255.83	24.42	-43.3	-44.3	20.8	0.00e+00	0	35	0	696254464	57	4197
2026-01-17 11:49:01.27	256.67	24.56	-43.7	-44.7	20.4	0.00e+00	0	35	0	705691648	58	4155
2026-01-17 11:49:04.29	257.50	24.69	-43.3	-44.2	20.8	0.00e+00	0	35	0	715128832	58	3937
2026-01-17 11:49:07.32	258.35	24.82	-43.4	-44.3	20.7	0.00e+00	0	35	0	724566016	58	4002
2026-01-17 11:49:10.34	259.21	24.94	-43.2	-44.1	20.9	0.00e+00	0	35	0	734003200	58	3906
2026-01-17 11:49:13.37	260.07	25.05	-43.1	-44.0	20.9	0.00e+00	0	35	0	743440384	58	3852
2026-01-17 11:49:16.39	260.93	25.16	-43.2	-44.1	20.8	0.00e+00	0	35	0	752877568	58	3901
2026-01-17 11:49:19.41	261.80	25.26	-43.2	-44.1	20.9	0.00e+00	0	35	0	762314752	58	3886
2026-01-17 11:49:22.44	262.68	25.35	-43.3	-44.2	20.8	0.00e+00	0	35	0	771751936	58	3950
2026-01-17 11:49:25.46	263.56	25.44	-43.1	-44.0	21.0	0.00e+00	0	35	0	781189120	58	3863
2026-01-17 11:49:28.49	264.45	25.52	-43.0	-43.9	21.1	0.00e+00	0	35	0	790626304	57	4032
2026-01-17 11:49:31.51	265.34	25.60	-43.1	-44.0	21.0	0.00e+00	0	35	0	800063488	57	4064
2026-01-17 11:49:34.54	266.24	25.66	-42.8	-43.7	21.3	0.00e+00	0	35	0	809500672	57	3936
2026-01-17 11:49:37.56	267.13	25.72	-43.0	-43.8	21.2	0.00e+00	0	35	0	818937856	57	4002
2026-01-17 11:49:40.58	268.03	25.78	-42.8	-43.7	21.3	0.00e+00	0	35	0	828375040	57	3917
2026-01-17 11:49:43.61	268.94	25.82	-42.8	-43.7	21.3	0.00e+00	0	35	0	837812224	57	3932
2026-01-17 11:49:46.63	269.84	25.86	-42.7	-43.6	21.4	0.00e+00	0	35	0	847249408	57	3891
2026-01-17 11:49:49.66	270.75	25.89	-42.9	-43.8	21.1	0.00e+00	0	35	0	856686592	57	3994
2026-01-17 11:49:52.68	271.66	25.91	-43.0	-43.9	21.1	0.00e+00	0	35	0	866123776	57	4046
2026-01-17 11:49:55.70	272.57	25.93	-43.0	-43.9	21.0	0.00e+00	0	35	0	875560960	57	4034
2026-01-17 11:49:58.73	273.48	25.94	-42.9	-43.8	21.2	0.00e+00	0	35	0	884998144	57	3982
2026-01-17 11:50:01.76	274.39	25.94	-42.6	-43.5	21.5	0.00e+00	0	35	0	894435328	57	3839
2026-01-17 11:50:04.78	275.30	25.93	-42.7	-43.5	21.5	0.00e+00	0	35	0	903872512	57	3856
2026-01-17 11:50:07.81	276.21	25.91	-42.9	-43.7	21.3	0.00e+00	0	35	0	913309696	57	3942
2026-01-17 11:50:10.83	277.12	25.89	-42.8	-43.7	21.3	0.00e+00	0	35	0	922746880	57	3921
2026-01-17 11:50:13.86	278.03	25.86	-42.7	-43.5	21.5	0.00e+00	0	35	0	932184064	57	3848
2026-01-17 11:50:16.88	278.93	25.83	-42.8	-43.7	21.3	0.00e+00	0	35	0	941621248	57	3929
2026-01-17 11:50:19.90	279.84	25.78	-42.7	-43.6	21.5	0.00e+00	0	35	0	951058432	57	3872
2026-01-17 11:50:22.93	280.74	25.73	-42.7	-43.5	21.5	0.00e+00	0	35	0	960495616	57	3864
2026-01-17 11:50:25.95	281.63	25.67	-42.9	-43.8	21.3	0.00e+00	0	35	0	969932800	57	3985
2026-01-17 11:50:28.98	282.53	25.60	-43.0	-43.9	21.2	0.00e+00	0	35	0	979369984	57	4021
2026-01-17 11:50:32.00	283.42	25.53	-43.0	-43.9	21.2	0.00e+00	0	35	0	988807168	57	4025
2026-01-17 11:50:35.03	284.30	25.45	-42.9	-43.7	21.3	0.00e+00	0	35	0	998244352	57	3947
2026-01-17 11:50:38.05	285.18	25.36	-42.8	-43.6	21.4	0.00e+00	0	35	0	1007681536	57	3898
2026-01-17 11:50:41.08	286.06	25.27	-42.9	-43.8	21.3	0.00e+00	0	35	0	1018167296	57	3974
2026-01-17 11:50:44.10	286.93	25.17	-43.0	-43.9	21.2	0.00e+00	0	35	0	1027604480	57	4012
2026-01-17 11:50:47.13	287.80	25.06	-42.8	-43.7	21.4	0.00e+00	0	35	0	1035993088	57	3929
2026-01-17 11:50:50.15	288.65	24.95	-43.1	-44.0	21.1	0.00e+00	0	35	0	1045430272	57	4071
2026-01-17 11:50:53.18	289.51	24.83	-43.2	-44.1	21.1	0.00e+00	0	35	0	1055916032	57	4102
2026-01-17 11:50:56.21	290.36	24.71	-43.2	-44.1	21.1	0.00e+00	0	35	0	1065353216	57	4107
2026-01-17 11:50:59.23	291.20	24.58	-43.1	-44.0	21.2	0.00e+00	0	35	0	1074790400	57	4061
2026-01-17 11:51:02.26	292.03	24.44	-43.2	-44.2	21.1	0.00e+00	0	35	0	1083179008	57	4147
2026-01-17 11:51:05.28	292.85	24.30	-43.4	-44.4	20.9	0.00e+00	0	35	0	1093664768	57	4249
2026-01-17 11:51:08.31	293.67	24.15	-43.4	-44.3	21.0	0.00e+00	0	35	0	1103101952	57	4203
2026-01-17 11:51:11.33	294.48	24.00	-43.3	-44.2	21.0	0.00e+00	0	35	0	1112539136	57	4180
2026-01-17 11:51:14.36	295.29	23.84	-43.2	-44.1	21.1	0.00e+00	0	35	0	1121976320	57	4134
2026-01-17 11:51:17.38	296.08	23.68	-43.4	-44.3	21.0	0.00e+00	0	35	0	1131413504	57	4210
2026-01-17 11:51:20.41	296.87	23.52	-43.3	-44.2	21.0	0.00e+00	0	35	0	1140850688	57	4187
2026-01-17 11:51:23.44	297.65	23.35	-43.4	-44.4	20.9	0.00e+00	0	35	0	1150287872	57	4246
2026-01-17 11:51:26.46	298.42	23.17	-43.6	-44.5	20.7	0.00e+00	0	35	0	1159725056	57	4311
2026-01-17 11:51:29.48	299.18	22.99	-43.4	-44.3	20.8	0.00e+00	0	35	0	1169162240	57	4228
2026-01-17 11:51:32.51	299.93	22.81	-43.4	-44.3	20.8	0.00e+00	0	35	0	1178599424	57	4232
2026-01-17 11:51:35.54	300.68	22.62	-43.2	-44.1	21.1	0.00e+00	0	35	0	1188036608	57	4112
2026-01-17 11:51:38.56	301.41	22.44	-43.2	-44.1	21.0	0.00e+00	0	35	0	1197473792	57	4130
2026-01-17 11:51:41.59	302.14	22.24	-43.4	-44.3	20.9	0.00e+00	0	35	0	1206910976	57	4228
2026-01-17 11:51:44.61	302.85	22.05	-43.5	-44.4	20.8	0.00e+00	0	35	0	1216348160	57	4259
2026-01-17 11:51:47.64	303.57	21.85	-43.5	-44.5	20.7	0.00e+00	0	35	0	1225785344	57	4295
2026-01-17 11:51:50.66	304.26	21.65	-43.6	-44.6	20.6	0.00e+00	0	35	0	1235222528	57	4348
2026-01-17 11:51:53.69	304.96	21.44	-43.3	-44.2	21.0	0.00e+00	0	35	0	1244659712	57	4147
2026-01-17 11:51:56.71	305.64	21.24	-43.3	-44.2	20.9	0.00e+00	0	35	0	1254096896	57	4186
2026-01-17 11:51:59.74	306.31	21.03	-43.5	-44.4	20.7	0.00e+00	0	35	0	1263534080	57	4289
2026-01-17 11:52:02.76	306.98	20.82	-43.7	-44.7	20.5	0.00e+00	0	35	0	1272971264	58	4164
2026-01-17 11:52:05.79	307.63	20.60	-43.6	-44.5	20.7	0.00e+00	0	35	0	1282408448	58	4062
2026-01-17 11:52:08.81	308.28	20.39	-43.2	-44.0	21.0	0.00e+00	0	35	0	1291845632	58	3863
2026-01-17 11:52:11.84	308.92	20.17	-43.1	-44.0	21.1	0.00e+00	0	35	0	1301282816	58	3862
2026-01-17 11:52:14.86	309.54	19.96	-43.3	-44.2	20.9	0.00e+00	0	35	0	1310720000	58	3957
2026-01-17 11:52:17.89	310.17	19.74	-43.4	-44.3	20.9	0.00e+00	0	35	0	1320157184	58	3981
2026-01-17 11:52:20.91	310.78	19.52	-43.4	-44.3	20.8	0.00e+00	0	35	0	1329594368	58	3986
2026-01-17 11:52:23.94	311.38	19.30	-43.3	-44.2	21.0	0.00e+00	0	35	0	1339031552	58	3918
2026-01-17 11:52:26.96	311.98	19.07	-43.1	-44.0	21.2	0.00e+00	0	35	0	1348468736	58	3837
2026-01-17 11:52:29.98	312.56	18.85	-43.2	-44.1	21.0	0.00e+00	0	35	0	1357905920	58	3895
2026-01-17 11:52:33.01	313.14	18.63	-43.5	-44.4	20.8	0.00e+00	0	35	0	1367343104	58	4027
2026-01-17 11:52:36.04	313.71	18.40	-43.6	-44.5	20.6	0.00e+00	0	34	0	1376780288	58	4084
2026-01-17 11:52:39.06	314.27	18.18	-43.6	-44.5	20.6	0.00e+00	0	34	0	1386217472	58	4074
2026-01-17 11:52:42.08	314.82	17.95	-43.3	-44.2	20.9	0.00e+00	0	35	0	1395654656	58	3931
2026-01-17 11:52:45.11	315.37	17.72	-43.3	-44.2	20.8	0.00e+00	0	35	0	1405091840	58	3951
2026-01-17 11:52:48.13	315.91	17.50	-43.5	-44.4	20.6	0.00e+00	0	35	0	1414529024	58	4021
2026-01-17 11:52:51.16	316.44	17.27	-43.7	-44.7	20.4	0.00e+00	0	35	0	1423966208	58	4172
2026-01-17 11:52:54.18	316.96	17.04	-44.0	-45.0	20.1	0.00e+00	0	35	0	1433403392	58	4311
2026-01-17 11:52:57.21	317.47	16.81	-43.7	-44.7	20.4	0.00e+00	0	34	0	1442840576	58	4151
2026-01-17 11:53:00.22	317.98	16.59	-43.7	-44.7	20.3	0.00e+00	0	35	0	1452277760	58	4158
2026-01-17 11:53:03.24	318.48	16.36	-43.9	-44.9	20.1	0.00e+00	0	35	0	1461714944	58	4276
2026-01-17 11:53:06.26	318.97	16.13	-44.3	-45.3	19.7	0.00e+00	0	34	0	1471152128	59	4237
2026-01-17 11:53:09.28	319.45	15.91	-44.4	-45.4	19.6	0.00e+00	0	35	0	1480589312	59	4286
2026-01-17 11:53:12.31	319.93	15.68	-44.3	-45.3	19.8	0.00e+00	0	35	0	1490026496	59	4216
2026-01-17 11:53:15.33	320.40	15.45	-44.0	-45.0	20.0	0.00e+00	0	35	0	1499463680	59	4098
2026-01-17 11:53:18.36	320.87	15.23	-44.1	-45.2	19.8	0.00e+00	0	35	0	1508900864	59	4148
2026-01-17 11:53:21.38	321.33	15.00	-44.1	-45.1	19.9	0.00e+00	0	35	0	1518338048	59	4104
2026-01-17 11:53:24.40	321.78	14.78	-44.1	-45.1	19.8	0.00e+00	0	35	0	1527775232	59	4145
2026-01-17 11:53:27.43	322.22	14.55	-44.3	-45.3	19.6	0.00e+00	0	35	0	1537212416	59	4223
2026-01-17 11:53:30.46	322.66	14.33	-44.4	-45.5	19.4	0.00e+00	0	35	0	1546649600	59	4335
2026-01-17 11:53:33.49	323.09	14.10	-44.5	-45.5	19.4	0.00e+00	0	35	0	1556086784	59	4331
2026-01-17 11:53:36.51	323.52	13.88	-44.5	-45.6	19.3	0.00e+00	0	35	0	1565523968	59	4376
2026-01-17 11:53:39.53	323.94	13.66	-44.5	-45.6	19.3	0.00e+00	0	35	0	1574961152	59	4349
2026-01-17 11:53:42.56	324.35	13.44	-44.4	-45.5	19.4	0.00e+00	0	35	0	1584398336	59	4314
2026-01-17 11:53:45.58	324.76	13.22	-44.3	-45.4	19.5	0.00e+00	0	35	0	1593835520	59	4263
2026-01-17 11:53:48.60	325.16	13.00	-44.4	-45.5	19.4	0.00e+00	0	35	0	1603272704	59	4316
2026-01-17 11:53:51.62	325.56	12.78	-44.6	-45.7	19.2	0.00e+00	0	35	0	1612709888	59	4413
2026-01-17 11:53:54.65	325.95	12.56	-44.4	-45.5	19.1	0.00e+00	0	35	0	1622147072	60	4078
2026-01-17 11:53:57.68	326.33	12.34	-44.3	-45.3	19.3	0.00e+00	0	35	0	1631584256	60	3994
2026-01-17 11:54:00.70	326.71	12.12	-44.4	-45.5	19.1	0.00e+00	0	35	0	1641021440	60	4065
2026-01-17 11:54:03.73	327.09	11.91	-44.5	-45.7	18.9	0.00e+00	0	35	0	1650458624	60	4157
2026-01-17 11:54:06.76	327.46	11.69	-44.4	-45.5	19.0	0.00e+00	0	35	0	1659895808	60	4093
2026-01-17 11:54:09.78	327.82	11.48	-44.4	-45.5	19.0	0.00e+00	0	35	0	1670381568	60	4098
2026-01-17 11:54:12.81	328.18	11.26	-44.5	-45.6	18.9	0.00e+00	0	35	0	1678770176	60	4121
2026-01-17 11:54:15.83	328.53	11.05	-44.6	-45.7	18.8	0.00e+00	0	34	0	1688207360	60	4177
2026-01-17 11:54:18.86	328.88	10.84	-44.5	-45.6	18.9	0.00e+00	0	35	0	1697644544	60	4120
2026-01-17 11:54:21.88	329.22	10.63	-44.5	-45.7	18.8	0.00e+00	0	35	0	1708130304	60	4152
2026-01-17 11:54:24.90	329.56	10.42	-44.6	-45.7	18.7	0.00e+00	0	35	0	1717567488	60	4183
2026-01-17 11:54:27.93	329.90	10.21	-44.5	-45.6	18.8	0.00e+00	0	35	0	1727004672	60	4130
2026-01-17 11:54:30.96	330.23	10.00	-44.4	-45.6	18.9	0.00e+00	0	35	0	1735393280	60	4113
2026-01-17 11:54:33.98	330.55	9.79	-44.5	-45.6	18.8	0.00e+00	0	35	0	1745879040	60	4131
2026-01-17 11:54:37.01	330.88	9.59	-44.5	-45.7	18.7	0.00e+00	0	35	0	1755316224	60	4147
2026-01-17 11:54:40.04	331.19	9.38	-44.5	-45.7	18.7	0.00e+00	0	35	0	1764753408	60	4164
2026-01-17 11:54:43.06	331.51	9.18	-45.0	-46.2	18.2	0.00e+00	0	35	0	1773142016	60	4419
2026-01-17 11:54:46.09	331.82	8.98	-44.8	-46.0	18.4	0.00e+00	0	35	0	1783627776	60	4332
2026-01-17 11:54:49.12	332.12	8.77	-44.9	-46.2	18.2	0.00e+00	0	35	0	1793064960	60	4404
2026-01-17 11:54:52.14	332.42	8.57	-44.9	-46.1	18.3	0.00e+00	0	35	0	1802502144	60	4356
2026-01-17 11:54:55.17	332.72	8.37	-45.3	-46.6	17.7	0.00e+00	0	35	0	1811939328	61	4372
2026-01-17 11:54:58.19	333.01	8.17	-45.2	-46.5	17.8	0.00e+00	0	35	0	1821376512	61	4313
2026-01-17 11:55:01.21	333.30	7.97	-45.1	-46.4	17.9	0.00e+00	0	35	0	1830813696	61	4265
2026-01-17 11:55:04.24	333.59	7.78	-45.3	-46.6	17.7	0.00e+00	0	34	0	1840250880	61	4349
2026-01-17 11:55:07.27	333.87	7.58	-45.2	-46.4	17.8	0.00e+00	0	35	0	1849688064	61	4289
2026-01-17 11:55:10.29	334.15	7.38	-45.4	-46.7	17.5	0.00e+00	0	35	0	1859125248	61	4414
2026-01-17 11:55:13.32	334.42	7.19	-45.7	-47.1	17.2	0.00e+00	0	34	0	1868562432	61	4615
2026-01-17 11:55:16.34	334.69	7.00	-45.7	-47.2	17.0	0.00e+00	0	35	0	1877999616	62	4401
2026-01-17 11:55:19.37	334.96	6.80	-45.9	-47.3	16.9	0.00e+00	0	35	0	1887436800	62	4493
2026-01-17 11:55:22.39	335.23	6.61	-46.0	-47.6	16.6	0.00e+00	0	35	0	1896873984	62	4605
2026-01-17 11:55:25.42	335.49	6.42	-46.0	-47.5	16.6	0.00e+00	0	35	0	1906311168	63	4318
2026-01-17 11:55:28.45	335.75	6.23	-46.2	-47.8	16.3	0.00e+00	0	35	0	1915748352	63	4442
2026-01-17 11:55:31.48	336.00	6.04	-45.8	-47.3	16.8	0.00e+00	0	35	0	1925185536	63	4195
2026-01-17 11:55:34.50	336.26	5.85	-45.9	-47.4	16.6	0.00e+00	0	35	0	1934622720	63	4274
2026-01-17 11:55:37.53	336.51	5.67	-45.9	-47.4	16.6	0.00e+00	0	35	0	1944059904	63	4274
2026-01-17 11:55:40.56	336.75	5.48	-46.2	-47.8	16.2	0.00e+00	0	35	0	1953497088	63	4447
2026-01-17 11:55:43.59	337.00	5.29	-45.7	-47.2	16.8	0.00e+00	0	35	0	1962934272	63	4150
2026-01-17 11:55:46.61	337.24	5.11	-45.8	-47.3	16.7	0.00e+00	0	35	0	1972371456	63	4220
2026-01-17 11:55:49.64	337.47	4.93	-52.7	-65.5	3.8	1.49e+00	0	35	104	1979711488	75	17139
2026-01-17 11:55:52.67	337.71	4.74	-53.3	-66.1	3.8	1.49e+00	0	35	104	1979711488	77	16456
2026-01-17 11:55:55.70	337.94	4.56	-53.6	-66.4	3.8	1.49e+00	0	35	104	1979711488	77	16987
2026-01-17 11:55:58.72	338.17	4.38	-53.8	-66.6	3.8	1.49e+00	0	35	104	1979711488	78	16469
2026-01-17 11:56:01.75	338.40	4.20	-53.9	-66.7	3.8	1.49e+00	0	35	104	1979711488	78	16561
2026-01-17 11:56:04.77	338.62	4.02	-53.9	-66.7	3.8	1.49e+00	0	35	104	1979711488	78	16666
2026-01-17 11:56:07.79	338.84	3.84	-53.9	-66.7	3.8	1.49e+00	0	35	104	1979711488	78	16603
2026-01-17 11:56:10.82	339.06	3.66	-53.9	-66.7	3.8	1.49e+00	0	35	104	1979711488	78	16579
2026-01-17 11:56:13.84	339.28	3.49	-53.8	-66.6	3.8	1.49e+00	0	35	104	1979711488	78	16503
2026-01-17 11:56:16.87	339.49	3.31	-53.8	-66.6	3.8	1.49e+00	0	35	104	1979711488	78	16492
2026-01-17 11:56:19.89	339.70	3.14	-53.8	-66.6	3.8	1.49e+00	0	35	104	1979711488	78	16488
2026-01-17 11:56:22.92	339.91	2.96	-53.8	-66.6	3.8	1.49e+00	0	35	104	1979711488	78	16450
2026-01-17 11:56:25.94	340.12	2.79	-53.8	-66.6	3.8	1.49e+00	0	35	104	1979711488	78	16455
2026-01-17 11:56:28.97	340.33	2.62	-53.8	-66.6	3.8	1.49e+00	0	35	104	1979711488	78	16449
2026-01-17 11:56:31.99	340.53	2.45	-53.8	-66.6	3.8	1.49e+00	0	35	104	1979711488	78	16408
2026-01-17 11:56:35.02	340.73	2.27	-53.8	-66.6	3.8	1.49e+00	0	35	104	1979711488	78	16417
2026-01-17 11:56:38.05	340.93	2.10	-53.8	-66.6	3.8	1.49e+00	0	35	104	1979711488	78	16406
2026-01-17 11:56:41.07	341.13	1.93	-53.8	-66.6	3.8	1.49e+00	0	35	104	1979711488	78	16380

#Closed at: 2026-01-17 11:56:41
#Recorded file [1979 MB]: D:/lorett/data/31041_260117_144431.dat