passes_logs/2026/01/17/R3.2S_Murmansk/R3.2S_Murmansk__20260117_031257_FENGYUN_3D_rec.log

#Pass ID: 20260117_031257_FENGYUN 3D
#Satellite: FENGYUN 3D
#Configuration: FENGYUN 3D
#almurnet v.1.7.20251203
#Start time: 2026-01-17 03:12:57

#Version: 2.2.20231116
#Station: R3.2S_Murmansk
#Location: 33.079688 lon 68.888172 lat
#TLE: 1 43010U 17072A   26015.99024095 -.00000189  00000+0 -67463-4 0  9996
#TLE: 2 43010  98.9932 347.8215 0002366 106.5594 253.5841 14.19694691423396

#Time	Az	El	Level	Level2	SNR	BER	BlckErr	Temp	State	Recorded	gain1	gain2
2026-01-17 03:12:57.33	26.94	2.00	-51.0	-62.9	3.8	8.47e-01	0	32	0	0	74	13500
2026-01-17 03:13:01.35	26.91	2.26	-51.0	-62.9	3.8	8.46e-01	0	32	104	0	72	15067
2026-01-17 03:13:05.38	26.88	2.52	-50.9	-62.4	3.8	8.46e-01	0	32	104	0	72	14265
2026-01-17 03:13:09.42	26.85	2.78	-50.9	-61.8	3.8	8.46e-01	0	32	104	0	72	13382
2026-01-17 03:13:13.46	26.81	3.05	-50.9	-61.8	3.8	8.46e-01	0	32	104	0	72	13295
2026-01-17 03:13:17.49	26.78	3.32	-50.8	-61.4	3.8	8.46e-01	0	33	104	0	72	12730
2026-01-17 03:13:21.52	26.75	3.59	-48.8	-52.8	8.9	7.03e-02	0	33	0	9437184	69	5599
2026-01-17 03:13:25.55	26.71	3.86	-45.8	-47.7	14.2	2.17e-05	0	33	0	32505856	63	4437
2026-01-17 03:13:29.59	26.68	4.14	-45.2	-46.9	15.1	0.00e+00	0	33	0	55574528	60	4779
2026-01-17 03:13:33.62	26.64	4.42	-45.3	-47.0	15.0	0.00e+00	0	33	0	77594624	62	4322
2026-01-17 03:13:37.66	26.60	4.70	-47.1	-49.6	12.2	1.76e-04	0	33	0	100663296	64	5206
2026-01-17 03:13:41.69	26.56	4.98	-48.7	-52.6	9.1	1.14e-02	0	33	0	123731968	67	6140
2026-01-17 03:13:45.73	26.52	5.27	-46.5	-48.4	14.0	1.16e-03	0	33	0	146800640	65	4269
2026-01-17 03:13:49.77	26.48	5.56	-45.8	-47.4	15.4	0.00e+00	0	33	0	163577856	62	4522
2026-01-17 03:13:53.80	26.44	5.86	-44.3	-45.6	17.3	0.00e+00	0	33	0	185597952	60	4107
2026-01-17 03:13:57.83	26.40	6.16	-43.9	-45.1	18.3	0.00e+00	0	33	0	208666624	59	4119
2026-01-17 03:14:01.86	26.35	6.46	-44.0	-45.2	18.2	0.00e+00	0	33	0	231735296	59	4173
2026-01-17 03:14:05.90	26.31	6.76	-43.8	-45.0	18.5	0.00e+00	0	34	0	253755392	58	4295
2026-01-17 03:14:09.93	26.26	7.07	-44.2	-45.5	18.0	0.00e+00	0	34	0	276824064	58	4547
2026-01-17 03:14:13.96	26.21	7.38	-43.6	-44.7	18.8	0.00e+00	0	33	0	299892736	59	3915
2026-01-17 03:14:18.00	26.16	7.70	-43.5	-44.6	18.9	0.00e+00	0	33	0	321912832	58	4118
2026-01-17 03:14:22.04	26.11	8.02	-43.1	-44.1	19.4	0.00e+00	0	34	0	344981504	58	3897
2026-01-17 03:14:26.07	26.06	8.34	-43.1	-44.2	19.4	0.00e+00	0	34	0	368050176	57	4150
2026-01-17 03:14:30.11	26.00	8.67	-43.1	-44.2	19.4	0.00e+00	0	34	0	390070272	57	4149
2026-01-17 03:14:34.14	25.95	9.00	-42.8	-43.9	19.8	0.00e+00	0	34	0	413138944	57	4005
2026-01-17 03:14:38.18	25.89	9.34	-42.6	-43.6	20.0	0.00e+00	0	34	0	436207616	56	4141
2026-01-17 03:14:42.22	25.83	9.68	-42.8	-43.9	19.9	0.00e+00	0	34	0	458227712	56	4248
2026-01-17 03:14:46.25	25.77	10.03	-42.5	-43.5	20.2	0.00e+00	0	34	0	481296384	56	4074
2026-01-17 03:14:50.28	25.70	10.38	-42.6	-43.6	20.1	0.00e+00	0	34	0	504365056	56	4114
2026-01-17 03:14:54.32	25.64	10.73	-42.4	-43.4	20.4	0.00e+00	0	34	0	526385152	56	4034
2026-01-17 03:14:58.36	25.57	11.10	-42.3	-43.2	20.6	0.00e+00	0	34	0	549453824	56	3933
2026-01-17 03:15:02.39	25.50	11.46	-42.2	-43.2	20.7	0.00e+00	0	34	0	571473920	56	3914
2026-01-17 03:15:06.43	25.43	11.84	-42.1	-43.1	20.8	0.00e+00	0	34	0	594542592	56	3873
2026-01-17 03:15:10.46	25.35	12.21	-42.1	-43.1	20.8	0.00e+00	0	34	0	617611264	56	3880
2026-01-17 03:15:14.49	25.28	12.60	-41.7	-42.6	21.1	0.00e+00	0	34	0	639631360	55	3904
2026-01-17 03:15:18.53	25.20	12.99	-41.7	-42.6	21.1	0.00e+00	0	34	0	662700032	55	3911
2026-01-17 03:15:22.56	25.12	13.38	-41.7	-42.5	21.2	0.00e+00	0	34	0	685768704	55	3868
2026-01-17 03:15:26.59	25.03	13.78	-41.6	-42.5	21.4	0.00e+00	0	34	0	707788800	55	3826
2026-01-17 03:15:30.63	24.94	14.19	-41.7	-42.6	21.3	0.00e+00	0	34	0	730857472	55	3878
2026-01-17 03:15:34.67	24.85	14.61	-41.8	-42.7	21.2	0.00e+00	0	34	0	753926144	55	3928
2026-01-17 03:15:38.70	24.76	15.03	-41.5	-42.4	21.4	0.00e+00	0	34	0	775946240	55	3806
2026-01-17 03:15:42.74	24.66	15.46	-41.4	-42.3	21.6	0.00e+00	0	34	0	799014912	54	3973
2026-01-17 03:15:46.77	24.56	15.90	-41.3	-42.2	21.7	0.00e+00	0	34	0	822083584	54	3942
2026-01-17 03:15:50.81	24.46	16.35	-40.9	-41.7	22.1	0.00e+00	0	34	0	844103680	53	3956
2026-01-17 03:15:54.84	24.35	16.80	-40.7	-41.6	22.3	0.00e+00	0	34	0	867172352	53	3870
2026-01-17 03:15:58.87	24.24	17.27	-40.7	-41.5	22.4	0.00e+00	0	34	0	890241024	53	3849
2026-01-17 03:16:02.91	24.13	17.74	-40.6	-41.4	22.5	0.00e+00	0	34	0	912261120	53	3792
2026-01-17 03:16:06.95	24.01	18.22	-40.4	-41.2	22.7	0.00e+00	0	34	0	935329792	52	3943
2026-01-17 03:16:10.99	23.89	18.71	-40.2	-41.0	22.9	0.00e+00	0	34	0	957349888	52	3841
2026-01-17 03:16:15.02	23.76	19.21	-40.2	-41.0	22.9	0.00e+00	0	34	0	980418560	52	3844
2026-01-17 03:16:19.05	23.63	19.72	-40.2	-41.0	22.9	0.00e+00	0	34	0	1003487232	52	3858
2026-01-17 03:16:23.08	23.49	20.24	-40.1	-40.9	23.0	0.00e+00	0	34	0	1025507328	52	3794
2026-01-17 03:16:27.12	23.34	20.77	-40.2	-40.9	23.1	0.00e+00	0	34	0	1048576000	51	4042
2026-01-17 03:16:31.15	23.20	21.32	-40.0	-40.8	23.2	0.00e+00	0	34	0	1071644672	51	3959
2026-01-17 03:16:35.19	23.04	21.87	-39.6	-40.4	23.6	0.00e+00	0	34	0	1093664768	51	3799
2026-01-17 03:16:39.23	22.88	22.44	-39.4	-40.1	23.8	0.00e+00	0	34	0	1116733440	50	3910
2026-01-17 03:16:43.27	22.71	23.02	-39.4	-40.1	23.9	0.00e+00	0	34	0	1139802112	50	3890
2026-01-17 03:16:47.30	22.54	23.61	-39.3	-40.1	23.9	0.00e+00	0	34	0	1161822208	50	3873
2026-01-17 03:16:51.33	22.35	24.22	-39.4	-40.2	23.8	0.00e+00	0	34	0	1184890880	50	3928
2026-01-17 03:16:55.37	22.16	24.84	-39.8	-40.5	23.5	0.00e+00	0	34	0	1207959552	50	4078
2026-01-17 03:16:59.40	21.97	25.47	-39.6	-40.3	23.7	0.00e+00	0	34	0	1229979648	50	4002
2026-01-17 03:17:03.43	21.76	26.12	-39.3	-40.0	24.0	0.00e+00	0	34	0	1253048320	50	3864
2026-01-17 03:17:07.47	21.54	26.79	-39.2	-39.9	24.2	0.00e+00	0	34	0	1276116992	50	3799
2026-01-17 03:17:11.50	21.31	27.47	-39.4	-40.1	24.0	0.00e+00	0	34	0	1298137088	50	3891
2026-01-17 03:17:15.53	21.08	28.17	-39.5	-40.3	23.9	0.00e+00	0	34	0	1321205760	50	3967
2026-01-17 03:17:19.56	20.83	28.88	-39.2	-39.9	24.2	0.00e+00	0	34	0	1343225856	50	3821
2026-01-17 03:17:23.60	20.57	29.62	-39.1	-39.8	24.3	0.00e+00	0	34	0	1366294528	50	3769
2026-01-17 03:17:27.63	20.29	30.37	-38.8	-39.5	24.5	0.00e+00	0	34	0	1389363200	49	3858
2026-01-17 03:17:31.67	20.00	31.14	-38.9	-39.6	24.5	0.00e+00	0	34	0	1411383296	49	3885
2026-01-17 03:17:35.70	19.70	31.93	-38.6	-39.3	24.7	0.00e+00	0	34	0	1434451968	49	3774
2026-01-17 03:17:39.74	19.38	32.75	-38.5	-39.2	24.8	0.00e+00	0	34	0	1457520640	48	3953
2026-01-17 03:17:43.77	19.04	33.58	-38.4	-39.1	25.0	0.00e+00	0	34	0	1479540736	48	3876
2026-01-17 03:17:47.81	18.69	34.44	-38.4	-39.1	25.0	0.00e+00	0	34	0	1502609408	48	3882
2026-01-17 03:17:51.85	18.31	35.32	-38.2	-38.9	25.2	0.00e+00	0	34	0	1525678080	48	3788
2026-01-17 03:17:55.88	17.91	36.23	-38.6	-39.3	24.8	0.00e+00	0	34	0	1547698176	48	3967
2026-01-17 03:17:59.92	17.49	37.15	-38.5	-39.2	24.9	0.00e+00	0	34	0	1570766848	48	3952
2026-01-17 03:18:03.96	17.04	38.11	-38.5	-39.2	24.9	0.00e+00	0	34	0	1593835520	48	3937
2026-01-17 03:18:07.99	16.57	39.08	-38.6	-39.3	24.8	0.00e+00	0	34	0	1615855616	48	3991
2026-01-17 03:18:12.02	16.06	40.09	-38.4	-39.1	25.0	0.00e+00	0	34	0	1638924288	48	3904
2026-01-17 03:18:16.05	15.52	41.12	-38.6	-39.3	24.8	0.00e+00	0	34	0	1661992960	48	3978
2026-01-17 03:18:20.09	14.94	42.18	-39.3	-40.1	24.2	0.00e+00	0	34	0	1684013056	49	4118
2026-01-17 03:18:24.12	14.32	43.26	-39.3	-40.0	24.3	0.00e+00	0	34	0	1706033152	49	4080
2026-01-17 03:18:28.15	13.66	44.37	-39.1	-39.8	24.4	0.00e+00	0	34	0	1729101824	49	3994
2026-01-17 03:18:32.19	12.94	45.51	-39.0	-39.7	24.5	0.00e+00	0	34	0	1752170496	49	3958
2026-01-17 03:18:36.22	12.17	46.68	-39.1	-39.8	24.4	0.00e+00	0	34	0	1774190592	49	3982
2026-01-17 03:18:40.26	11.34	47.88	-39.2	-39.9	24.4	0.00e+00	0	34	0	1797259264	49	4016
2026-01-17 03:18:44.29	10.44	49.10	-39.4	-40.1	24.2	0.00e+00	0	34	0	1820327936	49	4125
2026-01-17 03:18:48.33	9.47	50.35	-39.8	-40.5	23.9	0.00e+00	0	34	0	1843396608	50	4088
2026-01-17 03:18:52.36	8.41	51.62	-40.3	-41.0	23.4	0.00e+00	0	34	0	1865416704	51	4089
2026-01-17 03:18:56.40	7.25	52.92	-40.1	-40.9	23.5	0.00e+00	0	34	0	1888485376	51	4028
2026-01-17 03:19:00.43	5.98	54.24	-40.1	-40.9	23.5	0.00e+00	0	34	0	1911554048	51	4017
2026-01-17 03:19:04.47	4.58	55.58	-40.2	-41.0	23.5	0.00e+00	0	34	0	1933574144	51	4054
2026-01-17 03:19:08.50	3.05	56.93	-39.7	-40.4	24.0	0.00e+00	0	34	0	1956642816	50	4031
2026-01-17 03:19:12.54	1.35	58.29	-39.4	-40.1	24.3	0.00e+00	0	34	0	1979711488	50	3887
2026-01-17 03:19:16.58	359.47	59.66	-39.1	-39.7	24.6	0.00e+00	0	34	0	2001731584	50	3736
2026-01-17 03:19:20.61	357.38	61.02	-39.2	-39.9	24.4	0.00e+00	0	34	0	2024800256	49	4051
2026-01-17 03:19:24.64	355.05	62.38	-39.1	-39.8	24.6	0.00e+00	0	34	0	2047868928	49	3963
2026-01-17 03:19:28.68	352.43	63.72	-39.1	-39.8	24.5	0.00e+00	0	34	0	2069889024	49	3997
2026-01-17 03:19:32.71	349.51	65.02	-38.9	-39.6	24.8	0.00e+00	0	34	0	2091909120	49	3895
2026-01-17 03:19:36.74	346.23	66.29	-38.1	-38.7	25.5	0.00e+00	0	34	0	2114977792	48	3718
2026-01-17 03:19:40.77	342.56	67.49	-37.0	-37.7	25.9	0.00e+00	0	34	0	2138046464	46	3716
2026-01-17 03:19:44.80	338.44	68.61	-37.6	-38.2	25.4	0.00e+00	0	34	0	2160066560	46	3956
2026-01-17 03:19:48.84	333.84	69.63	-37.5	-38.2	25.5	0.00e+00	0	34	0	2183135232	46	3922
2026-01-17 03:19:52.87	328.76	70.52	-37.8	-38.5	25.2	0.00e+00	0	34	0	2206203904	46	4098
2026-01-17 03:19:56.90	323.21	71.26	-37.7	-38.4	25.3	0.00e+00	0	34	0	2228224000	46	4028
2026-01-17 03:20:00.94	317.21	71.83	-37.9	-38.6	25.1	0.00e+00	0	34	0	2251292672	47	3908
2026-01-17 03:20:04.97	310.89	72.19	-38.2	-38.9	24.8	0.00e+00	0	34	0	2274361344	47	4026
2026-01-17 03:20:09.01	304.36	72.35	-37.8	-38.5	25.3	0.00e+00	0	34	0	2296381440	47	3848
2026-01-17 03:20:13.05	297.80	72.28	-37.7	-38.4	25.4	0.00e+00	0	34	0	2319450112	47	3795
2026-01-17 03:20:17.08	291.38	72.00	-38.1	-38.9	24.9	0.00e+00	0	34	0	2342518784	47	4009
2026-01-17 03:20:21.12	285.23	71.51	-37.7	-38.4	25.4	0.00e+00	0	34	0	2364538880	47	3799
2026-01-17 03:20:25.15	279.50	70.83	-37.9	-38.6	25.1	0.00e+00	0	34	0	2387607552	47	3886
2026-01-17 03:20:29.19	274.21	70.00	-37.8	-38.5	25.3	0.00e+00	0	34	0	2410676224	47	3844
2026-01-17 03:20:33.22	269.42	69.02	-37.7	-38.4	25.3	0.00e+00	0	34	0	2432696320	47	3821
2026-01-17 03:20:37.26	265.11	67.94	-37.7	-38.4	25.4	0.00e+00	0	34	0	2455764992	47	3792
2026-01-17 03:20:41.29	261.26	66.76	-37.6	-38.3	25.4	0.00e+00	0	34	0	2477785088	47	3755
2026-01-17 03:20:45.33	257.82	65.52	-37.8	-38.5	25.3	0.00e+00	0	34	0	2500853760	47	3838
2026-01-17 03:20:49.36	254.76	64.23	-38.1	-38.8	25.0	0.00e+00	0	34	0	2523922432	47	3978
2026-01-17 03:20:53.40	252.02	62.90	-38.1	-38.8	25.0	0.00e+00	0	34	0	2545942528	47	3995
2026-01-17 03:20:57.44	249.58	61.54	-38.3	-39.0	24.8	0.00e+00	0	34	0	2569011200	47	4070
2026-01-17 03:21:01.47	247.40	60.18	-38.7	-39.4	24.4	0.00e+00	0	34	0	2592079872	47	4263
2026-01-17 03:21:05.51	245.43	58.80	-39.3	-40.0	24.4	0.00e+00	0	34	0	2614099968	49	4096
2026-01-17 03:21:09.54	243.67	57.44	-39.2	-39.9	24.5	0.00e+00	0	34	0	2637168640	49	4016
2026-01-17 03:21:13.58	242.07	56.08	-39.5	-40.2	24.2	0.00e+00	0	34	0	2660237312	49	4149
2026-01-17 03:21:17.61	240.62	54.73	-39.9	-40.7	23.8	0.00e+00	0	34	0	2682257408	50	4168
2026-01-17 03:21:21.65	239.30	53.40	-39.6	-40.4	24.1	0.00e+00	0	34	0	2705326080	50	4015
2026-01-17 03:21:25.69	238.10	52.09	-39.4	-40.2	24.2	0.00e+00	0	34	0	2728394752	50	3922
2026-01-17 03:21:29.72	237.00	50.81	-39.4	-40.1	24.3	0.00e+00	0	34	0	2750414848	50	3885
2026-01-17 03:21:33.76	235.99	49.54	-38.9	-39.6	24.7	0.00e+00	0	34	0	2773483520	49	3891
2026-01-17 03:21:37.80	235.06	48.31	-38.9	-39.6	24.7	0.00e+00	0	34	0	2796552192	49	3884
2026-01-17 03:21:41.83	234.20	47.10	-39.0	-39.7	24.6	0.00e+00	0	34	0	2819620864	49	3931
2026-01-17 03:21:45.87	233.41	45.92	-38.9	-39.6	24.7	0.00e+00	0	34	0	2841640960	49	3900
2026-01-17 03:21:49.90	232.67	44.76	-38.7	-39.4	24.9	0.00e+00	0	34	0	2863661056	49	3787
2026-01-17 03:21:53.93	231.99	43.64	-38.6	-39.3	24.9	0.00e+00	0	34	0	2886729728	49	3776
2026-01-17 03:21:57.97	231.35	42.54	-38.7	-39.4	24.8	0.00e+00	0	34	0	2909798400	49	3817
2026-01-17 03:22:02.01	230.76	41.46	-38.4	-39.1	25.1	0.00e+00	0	34	0	2931818496	48	3909
2026-01-17 03:22:06.05	230.20	40.42	-38.1	-38.8	25.3	0.00e+00	0	34	0	2954887168	48	3742
2026-01-17 03:22:10.08	229.68	39.40	-37.8	-38.5	25.1	0.00e+00	0	34	0	2977955840	47	3863
2026-01-17 03:22:14.12	229.19	38.41	-37.9	-38.6	25.0	0.00e+00	0	34	0	2999975936	47	3903
2026-01-17 03:22:18.15	228.73	37.45	-37.7	-38.4	25.2	0.00e+00	0	34	0	3023044608	47	3798
2026-01-17 03:22:22.19	228.30	36.51	-37.8	-38.5	25.1	0.00e+00	0	34	0	3046113280	47	3861
2026-01-17 03:22:26.22	227.89	35.59	-38.1	-38.8	24.8	0.00e+00	0	34	0	3068133376	47	3965
2026-01-17 03:22:30.26	227.50	34.70	-38.3	-39.0	24.6	0.00e+00	0	34	0	3091202048	47	4075
2026-01-17 03:22:34.30	227.14	33.83	-38.3	-39.0	24.6	0.00e+00	0	34	0	3114270720	47	4087
2026-01-17 03:22:38.33	226.79	32.99	-38.2	-38.9	24.7	0.00e+00	0	34	0	3137339392	47	4035
2026-01-17 03:22:42.37	226.47	32.16	-38.2	-38.9	24.7	0.00e+00	0	34	0	3159359488	47	4014
2026-01-17 03:22:46.40	226.16	31.36	-38.3	-39.0	24.5	0.00e+00	0	34	0	3182428160	47	4092
2026-01-17 03:22:50.44	225.86	30.58	-38.5	-39.3	24.3	0.00e+00	0	34	0	3205496832	47	4214
2026-01-17 03:22:54.47	225.58	29.82	-38.3	-39.0	24.6	0.00e+00	0	34	0	3227516928	47	4061
2026-01-17 03:22:58.50	225.31	29.07	-38.4	-39.2	24.4	0.00e+00	0	34	0	3249537024	47	4153
2026-01-17 03:23:02.54	225.06	28.35	-38.6	-39.3	24.3	0.00e+00	0	34	0	3272605696	47	4229
2026-01-17 03:23:06.57	224.81	27.64	-38.4	-39.2	24.4	0.00e+00	0	34	0	3295674368	47	4162
2026-01-17 03:23:10.61	224.58	26.95	-38.3	-39.0	24.5	0.00e+00	0	34	0	3317694464	47	4098
2026-01-17 03:23:14.64	224.36	26.28	-38.3	-39.0	24.5	0.00e+00	0	34	0	3340763136	47	4084
2026-01-17 03:23:18.68	224.15	25.62	-38.6	-39.4	24.2	0.00e+00	0	34	0	3363831808	47	4244
2026-01-17 03:23:22.72	223.94	24.98	-39.0	-39.8	24.3	0.00e+00	0	34	0	3385851904	48	4202
2026-01-17 03:23:26.75	223.75	24.35	-39.1	-39.8	24.2	0.00e+00	0	34	0	3408920576	48	4234
2026-01-17 03:23:30.79	223.56	23.74	-39.1	-39.8	24.2	0.00e+00	0	34	0	3431989248	48	4230
2026-01-17 03:23:34.82	223.38	23.14	-39.1	-39.9	24.2	0.00e+00	0	34	0	3454009344	48	4249
2026-01-17 03:23:38.86	223.21	22.55	-39.2	-39.9	24.1	0.00e+00	0	34	0	3477078016	49	4026
2026-01-17 03:23:42.89	223.04	21.98	-39.3	-40.0	24.0	0.00e+00	0	34	0	3500146688	49	4098
2026-01-17 03:23:46.93	222.89	21.42	-39.5	-40.2	23.8	0.00e+00	0	34	0	3522166784	49	4167
2026-01-17 03:23:50.96	222.73	20.87	-39.6	-40.3	23.7	0.00e+00	0	34	0	3545235456	49	4223
2026-01-17 03:23:55.00	222.59	20.34	-39.8	-40.5	23.5	0.00e+00	0	34	0	3568304128	50	4073
2026-01-17 03:23:59.03	222.44	19.81	-40.0	-40.7	23.3	0.00e+00	0	34	0	3591372800	50	4184
2026-01-17 03:24:03.06	222.31	19.29	-40.2	-40.9	23.1	0.00e+00	0	34	0	3613392896	50	4278
2026-01-17 03:24:07.10	222.18	18.79	-40.2	-41.0	23.0	0.00e+00	0	34	0	3635412992	50	4318
2026-01-17 03:24:11.14	222.05	18.29	-40.3	-41.1	22.9	0.00e+00	0	34	0	3658481664	51	4134
2026-01-17 03:24:15.17	221.93	17.81	-40.4	-41.2	22.8	0.00e+00	0	34	0	3681550336	51	4172
2026-01-17 03:24:19.21	221.81	17.33	-40.5	-41.3	22.7	0.00e+00	0	34	0	3703570432	51	4230
2026-01-17 03:24:23.24	221.70	16.86	-40.6	-41.5	22.6	0.00e+00	0	34	0	3726639104	51	4292
2026-01-17 03:24:27.28	221.59	16.41	-40.7	-41.5	22.5	0.00e+00	0	34	0	3749707776	52	4068
2026-01-17 03:24:31.32	221.48	15.95	-40.9	-41.7	22.2	0.00e+00	0	34	0	3771727872	52	4179
2026-01-17 03:24:35.35	221.38	15.51	-40.9	-41.8	22.1	0.00e+00	0	34	0	3794796544	52	4204
2026-01-17 03:24:39.38	221.28	15.08	-40.9	-41.7	22.2	0.00e+00	0	34	0	3817865216	52	4191
2026-01-17 03:24:43.42	221.18	14.65	-41.1	-41.9	22.0	0.00e+00	0	34	0	3839885312	52	4272
2026-01-17 03:24:47.45	221.09	14.23	-41.1	-41.9	22.0	0.00e+00	0	34	0	3862953984	52	4271
2026-01-17 03:24:51.49	221.00	13.82	-41.2	-42.0	21.9	0.00e+00	0	34	0	3886022656	53	4072
2026-01-17 03:24:55.53	220.91	13.41	-41.2	-42.0	21.8	0.00e+00	0	34	0	3908042752	53	4079
2026-01-17 03:24:59.57	220.82	13.01	-41.5	-42.3	21.5	0.00e+00	0	34	0	3931111424	53	4220
2026-01-17 03:25:03.60	220.74	12.62	-41.4	-42.3	21.6	0.00e+00	0	34	0	3954180096	53	4195
2026-01-17 03:25:07.63	220.66	12.24	-41.5	-42.4	21.4	0.00e+00	0	34	0	3977248768	53	4255
2026-01-17 03:25:11.67	220.58	11.85	-41.8	-42.7	21.1	0.00e+00	0	34	0	3999268864	54	4166
2026-01-17 03:25:15.71	220.51	11.48	-41.9	-42.8	21.0	0.00e+00	0	34	0	4021288960	54	4196
2026-01-17 03:25:19.74	220.44	11.11	-42.0	-42.9	20.9	0.00e+00	0	34	0	4044357632	54	4282
2026-01-17 03:25:23.78	220.37	10.75	-42.1	-43.1	20.7	0.00e+00	0	34	0	4067426304	54	4342
2026-01-17 03:25:27.81	220.30	10.39	-42.3	-43.3	20.5	0.00e+00	0	34	0	4089446400	55	4199
2026-01-17 03:25:31.85	220.23	10.03	-42.3	-43.3	20.5	0.00e+00	0	34	0	4112515072	55	4202
2026-01-17 03:25:35.88	220.17	9.69	-42.4	-43.3	20.4	0.00e+00	0	34	0	4135583744	55	4224
2026-01-17 03:25:39.91	220.10	9.34	-42.6	-43.5	20.1	0.00e+00	0	34	0	4157603840	55	4329
2026-01-17 03:25:43.95	220.04	9.00	-42.6	-43.6	20.0	0.00e+00	0	34	0	4180672512	55	4355
2026-01-17 03:25:47.99	219.98	8.67	-42.8	-43.7	20.0	0.00e+00	0	34	0	4203741184	56	4193
2026-01-17 03:25:52.02	219.92	8.34	-42.8	-43.8	19.9	0.00e+00	0	34	0	4225761280	56	4241
2026-01-17 03:25:56.06	219.87	8.01	-42.9	-43.9	19.8	0.00e+00	0	34	0	4248829952	56	4254
2026-01-17 03:26:00.09	219.81	7.69	-43.0	-44.0	19.6	0.00e+00	0	34	0	4271898624	56	4333
2026-01-17 03:26:04.12	219.76	7.37	-43.2	-44.2	19.4	0.00e+00	0	34	0	4293918720	57	4183
2026-01-17 03:26:08.16	219.71	7.06	-43.2	-44.2	19.3	0.00e+00	0	34	0	4316987392	57	4190
2026-01-17 03:26:12.19	219.66	6.75	-43.3	-44.4	19.2	0.00e+00	0	34	0	4340056064	57	4251
2026-01-17 03:26:16.23	219.61	6.44	-43.3	-44.4	19.1	0.00e+00	0	34	0	4363124736	57	4280
2026-01-17 03:26:20.26	219.56	6.14	-43.3	-44.4	19.0	0.00e+00	0	34	0	4385144832	57	4275
2026-01-17 03:26:24.30	219.51	5.84	-43.4	-44.5	18.9	0.00e+00	0	34	0	4407164928	57	4304
2026-01-17 03:26:28.33	219.47	5.54	-43.8	-45.0	18.4	0.00e+00	0	34	0	4430233600	58	4319
2026-01-17 03:26:32.37	219.43	5.25	-44.0	-45.2	18.2	0.00e+00	0	34	0	4453302272	58	4401
2026-01-17 03:26:36.40	219.38	4.96	-52.4	-64.4	3.8	8.45e-01	0	34	104	4472176640	75	15198
2026-01-17 03:26:40.44	219.34	4.67	-53.1	-65.1	3.8	8.47e-01	0	34	104	4472176640	76	15530
2026-01-17 03:26:44.48	219.30	4.39	-53.4	-65.4	3.8	8.47e-01	0	34	104	4472176640	77	15054
2026-01-17 03:26:48.51	219.26	4.11	-53.5	-65.5	3.8	8.46e-01	0	34	104	4472176640	77	15274
2026-01-17 03:26:52.55	219.22	3.83	-53.5	-65.5	3.8	8.46e-01	0	34	104	4472176640	77	15394
2026-01-17 03:26:56.58	219.18	3.56	-53.5	-65.5	3.8	8.45e-01	0	34	104	4472176640	77	15358
2026-01-17 03:27:00.62	219.15	3.28	-53.5	-65.5	3.8	8.46e-01	0	34	104	4472176640	77	15329
2026-01-17 03:27:04.65	219.11	3.02	-53.5	-65.5	3.8	8.46e-01	0	34	104	4472176640	77	15243
2026-01-17 03:27:08.69	219.07	2.75	-53.4	-65.4	3.8	8.46e-01	0	35	104	4472176640	77	15215
2026-01-17 03:27:12.73	219.04	2.48	-53.4	-65.4	3.8	8.45e-01	0	35	104	4472176640	77	15191
2026-01-17 03:27:16.76	219.01	2.22	-53.4	-65.4	3.8	8.47e-01	0	35	104	4472176640	77	15151
2026-01-17 03:27:20.79	218.97	1.96	-53.4	-65.4	3.8	8.47e-01	0	35	104	4472176640	77	15147

#Closed at: 2026-01-17 03:27:21
#Recorded file [4472 MB]: D:/lorett/data/31041_260117_061257.dat