passes_logs/2026/01/17/R3.2S_Murmansk/R3.2S_Murmansk__20260117_132730_NOAA_21_JPSS-2_rec.log

#Pass ID: 20260117_132730_NOAA 21 (JPSS-2)
#Satellite: NOAA 21 (JPSS-2)
#Configuration: NOAA-21
#almurnet v.1.7.20251203
#Start time: 2026-01-17 13:27:30

#Version: 2.2.20231116
#Station: R3.2S_Murmansk
#Location: 33.079688 lon 68.888172 lat
#TLE: 1 54234U 22150A   26016.56338662  .00000024  00000+0  32257-4 0  9990
#TLE: 2 54234  98.7500 317.4442 0000622 279.9774  80.1332 14.19534942165033

#Time	Az	El	Level	Level2	SNR	BER	BlckErr	Temp	State	Recorded	gain1	gain2
2026-01-17 13:27:30.98	256.64	2.03	-52.3	-65.1	3.8	1.49e+00	0	33	0	0	76	15417
2026-01-17 13:27:34.00	256.97	2.15	-52.3	-65.0	3.8	1.49e+00	0	33	104	0	75	16281
2026-01-17 13:27:37.03	257.31	2.26	-52.2	-65.0	3.8	1.49e+00	0	33	104	0	75	16255
2026-01-17 13:27:40.06	257.65	2.38	-52.3	-65.0	3.8	1.49e+00	0	33	104	0	75	16250
2026-01-17 13:27:43.08	257.99	2.50	-52.2	-65.0	3.8	1.49e+00	0	33	104	0	75	16232
2026-01-17 13:27:46.10	258.33	2.61	-52.2	-65.0	3.8	1.49e+00	0	33	104	0	75	16232
2026-01-17 13:27:49.12	258.67	2.73	-52.3	-65.0	3.8	1.49e+00	0	33	104	0	75	16209
2026-01-17 13:27:52.12	259.02	2.84	-52.2	-65.0	3.8	1.49e+00	0	33	104	0	75	16249
2026-01-17 13:27:55.11	259.36	2.95	-52.2	-65.0	3.8	1.49e+00	0	33	104	0	75	16214
2026-01-17 13:27:58.10	259.71	3.07	-52.2	-65.0	3.8	1.49e+00	0	33	104	0	75	16133
2026-01-17 13:28:01.08	260.06	3.18	-52.2	-65.0	3.8	1.49e+00	0	34	104	0	75	16163
2026-01-17 13:28:04.07	260.41	3.29	-52.2	-65.0	3.8	1.49e+00	0	33	104	0	75	16211
2026-01-17 13:28:07.07	260.77	3.40	-52.2	-65.0	3.8	1.49e+00	0	34	104	0	75	16200
2026-01-17 13:28:10.06	261.13	3.51	-52.2	-64.9	3.8	1.49e+00	0	34	104	0	75	16008
2026-01-17 13:28:13.03	261.49	3.62	-52.2	-64.9	3.8	1.49e+00	0	34	104	0	75	16078
2026-01-17 13:28:16.00	261.85	3.73	-52.2	-64.9	3.8	1.49e+00	0	34	104	0	75	15982
2026-01-17 13:28:18.97	262.21	3.84	-52.2	-65.0	3.8	1.49e+00	0	34	104	0	75	16172
2026-01-17 13:28:21.95	262.58	3.95	-52.2	-65.0	3.8	1.49e+00	0	34	104	0	75	16129
2026-01-17 13:28:24.95	262.95	4.06	-52.2	-64.9	3.8	1.49e+00	0	34	104	0	75	16085
2026-01-17 13:28:27.94	263.33	4.17	-52.2	-64.9	3.8	1.49e+00	0	34	104	0	75	16112
2026-01-17 13:28:30.93	263.70	4.28	-52.2	-64.9	3.8	1.49e+00	0	34	104	0	75	16016
2026-01-17 13:28:33.91	264.08	4.38	-52.2	-64.9	3.8	1.49e+00	0	34	104	0	75	15947
2026-01-17 13:28:36.88	264.46	4.49	-52.2	-64.7	3.8	1.49e+00	0	34	104	0	75	15643
2026-01-17 13:28:39.83	264.84	4.59	-52.2	-64.9	3.8	1.49e+00	0	34	104	0	75	16099
2026-01-17 13:28:42.79	265.22	4.70	-51.9	-62.2	3.9	1.49e+00	0	34	104	0	75	11775
2026-01-17 13:28:45.77	265.61	4.80	-51.2	-57.4	6.4	3.59e-01	0	34	0	5242880	74	7148
2026-01-17 13:28:48.76	266.00	4.90	-49.2	-52.2	11.6	1.71e-03	0	34	0	14680064	70	4968
2026-01-17 13:28:51.76	266.40	5.01	-46.8	-48.6	15.3	0.00e+00	0	34	0	24117248	65	4370
2026-01-17 13:28:54.74	266.80	5.11	-48.9	-51.8	12.5	4.50e-06	0	34	0	30408704	68	5297
2026-01-17 13:28:57.71	267.20	5.21	-46.5	-48.2	15.6	0.00e+00	0	34	0	39845888	64	4405
2026-01-17 13:29:00.68	267.60	5.31	-46.4	-48.1	15.7	0.00e+00	0	34	0	49283072	64	4359
2026-01-17 13:29:03.63	268.00	5.41	-47.3	-49.5	14.2	0.00e+00	0	34	0	58720256	65	4843
2026-01-17 13:29:06.61	268.40	5.51	-47.7	-50.0	13.6	3.00e-06	0	34	0	68157440	65	5145
2026-01-17 13:29:09.61	268.82	5.61	-47.9	-50.4	13.2	3.20e-05	0	34	0	77594624	67	4789
2026-01-17 13:29:12.61	269.23	5.70	-47.5	-49.7	13.9	3.80e-06	0	34	0	87031808	66	4656
2026-01-17 13:29:15.61	269.65	5.80	-47.6	-49.8	13.8	8.30e-06	0	34	0	95420416	66	4753
2026-01-17 13:29:18.59	270.07	5.90	-46.5	-48.3	15.4	0.00e+00	0	34	0	104857600	65	4227
2026-01-17 13:29:21.56	270.49	5.99	-46.2	-47.8	16.1	0.00e+00	0	34	0	114294784	63	4474
2026-01-17 13:29:24.52	270.91	6.08	-46.0	-47.5	16.4	0.00e+00	0	34	0	123731968	63	4327
2026-01-17 13:29:27.48	271.33	6.18	-46.3	-47.9	16.2	0.00e+00	0	34	0	133169152	63	4510
2026-01-17 13:29:30.46	271.76	6.27	-46.1	-47.6	16.4	0.00e+00	0	34	0	142606336	63	4383
2026-01-17 13:29:33.45	272.19	6.36	-45.8	-47.3	16.8	0.00e+00	0	34	0	152043520	63	4201
2026-01-17 13:29:36.44	272.62	6.45	-45.7	-47.1	17.0	0.00e+00	0	34	0	160432128	63	4144
2026-01-17 13:29:39.42	273.06	6.54	-46.0	-47.5	16.6	0.00e+00	0	34	0	169869312	63	4328
2026-01-17 13:29:42.41	273.50	6.62	-45.6	-47.1	17.1	0.00e+00	0	34	0	179306496	63	4100
2026-01-17 13:29:45.38	273.94	6.71	-45.6	-47.0	17.1	0.00e+00	0	34	0	188743680	63	4084
2026-01-17 13:29:48.34	274.38	6.79	-45.7	-47.2	17.0	0.00e+00	0	34	0	198180864	63	4148
2026-01-17 13:29:51.31	274.82	6.88	-45.5	-46.8	17.3	0.00e+00	0	34	0	207618048	62	4235
2026-01-17 13:29:54.28	275.27	6.96	-45.2	-46.5	17.6	0.00e+00	0	34	0	217055232	62	4078
2026-01-17 13:29:57.27	275.72	7.04	-45.4	-46.7	17.4	0.00e+00	0	34	0	225443840	62	4187
2026-01-17 13:30:00.27	276.18	7.12	-45.6	-47.0	17.2	0.00e+00	0	34	0	234881024	62	4301
2026-01-17 13:30:03.25	276.63	7.20	-45.4	-46.8	17.4	0.00e+00	0	34	0	244318208	62	4208
2026-01-17 13:30:06.23	277.09	7.28	-45.6	-47.0	17.2	0.00e+00	0	34	0	253755392	62	4303
2026-01-17 13:30:09.21	277.55	7.36	-45.4	-46.8	17.4	0.00e+00	0	34	0	263192576	62	4212
2026-01-17 13:30:12.19	278.01	7.43	-45.7	-47.1	17.2	0.00e+00	0	34	0	272629760	62	4365
2026-01-17 13:30:15.15	278.47	7.50	-45.4	-46.8	17.5	0.00e+00	0	34	0	282066944	62	4220
2026-01-17 13:30:18.11	278.94	7.57	-45.2	-46.6	17.7	0.00e+00	0	34	0	291504128	62	4099
2026-01-17 13:30:21.10	279.41	7.65	-45.1	-46.4	17.8	0.00e+00	0	34	0	300941312	62	4023
2026-01-17 13:30:24.10	279.88	7.72	-45.2	-46.6	17.7	0.00e+00	0	34	0	310378496	62	4105
2026-01-17 13:30:27.09	280.36	7.78	-45.1	-46.4	17.8	0.00e+00	0	34	0	319815680	62	4026
2026-01-17 13:30:30.08	280.83	7.85	-45.2	-46.5	17.7	0.00e+00	0	35	0	328204288	62	4092
2026-01-17 13:30:33.06	281.31	7.92	-45.3	-46.6	17.7	0.00e+00	0	35	0	337641472	62	4133
2026-01-17 13:30:36.05	281.79	7.98	-45.3	-46.6	17.8	0.00e+00	0	34	0	347078656	62	4104
2026-01-17 13:30:39.03	282.27	8.04	-45.3	-46.5	17.8	0.00e+00	0	34	0	356515840	62	4097
2026-01-17 13:30:42.00	282.75	8.10	-45.3	-46.6	17.7	0.00e+00	0	34	0	365953024	62	4127
2026-01-17 13:30:44.97	283.24	8.16	-45.5	-46.9	17.5	0.00e+00	0	34	0	375390208	62	4248
2026-01-17 13:30:47.93	283.72	8.22	-45.3	-46.6	17.8	0.00e+00	0	34	0	384827392	62	4128
2026-01-17 13:30:50.91	284.21	8.27	-45.4	-46.7	17.8	0.00e+00	0	34	0	394264576	62	4156
2026-01-17 13:30:53.90	284.70	8.32	-45.5	-46.9	17.6	0.00e+00	0	35	0	402653184	62	4255
2026-01-17 13:30:56.90	285.20	8.38	-45.3	-46.6	17.9	0.00e+00	0	34	0	412090368	62	4099
2026-01-17 13:30:59.91	285.70	8.43	-45.1	-46.4	18.1	0.00e+00	0	35	0	421527552	62	4017
2026-01-17 13:31:02.91	286.20	8.48	-45.3	-46.6	17.9	0.00e+00	0	35	0	430964736	62	4105
2026-01-17 13:31:05.89	286.69	8.52	-45.4	-46.7	17.9	0.00e+00	0	35	0	440401920	62	4149
2026-01-17 13:31:08.86	287.19	8.57	-45.6	-46.9	17.6	0.00e+00	0	35	0	449839104	62	4259
2026-01-17 13:31:11.83	287.69	8.61	-45.6	-46.9	17.6	0.00e+00	0	34	0	459276288	62	4287
2026-01-17 13:31:14.81	288.19	8.65	-45.2	-46.5	18.1	0.00e+00	0	34	0	468713472	62	4069
2026-01-17 13:31:17.80	288.69	8.69	-45.4	-46.6	17.9	0.00e+00	0	35	0	478150656	62	4141
2026-01-17 13:31:20.80	289.20	8.73	-45.1	-46.3	18.3	0.00e+00	0	35	0	487587840	62	3976
2026-01-17 13:31:23.78	289.71	8.77	-45.5	-46.8	17.8	0.00e+00	0	35	0	497025024	62	4237
2026-01-17 13:31:26.76	290.21	8.80	-45.7	-47.0	17.6	0.00e+00	0	34	0	505413632	62	4310
2026-01-17 13:31:29.73	290.72	8.83	-45.8	-47.2	17.5	0.00e+00	0	34	0	514850816	62	4397
2026-01-17 13:31:32.70	291.22	8.86	-45.6	-47.0	17.6	0.00e+00	0	34	0	524288000	62	4296
2026-01-17 13:31:35.68	291.73	8.89	-45.5	-46.8	17.9	0.00e+00	0	35	0	533725184	62	4200
2026-01-17 13:31:38.67	292.25	8.92	-45.2	-46.4	18.2	0.00e+00	0	35	0	543162368	62	4039
2026-01-17 13:31:41.67	292.76	8.94	-45.6	-46.9	17.7	0.00e+00	0	35	0	552599552	62	4276
2026-01-17 13:31:44.66	293.27	8.96	-45.7	-47.0	17.6	0.00e+00	0	34	0	562036736	62	4335
2026-01-17 13:31:47.65	293.79	8.98	-45.5	-46.8	17.9	0.00e+00	0	34	0	570425344	62	4199
2026-01-17 13:31:50.63	294.30	9.00	-45.3	-46.5	18.1	0.00e+00	0	35	0	579862528	62	4087
2026-01-17 13:31:53.60	294.81	9.02	-45.4	-46.6	18.0	0.00e+00	0	35	0	589299712	62	4141
2026-01-17 13:31:56.56	295.32	9.03	-45.4	-46.6	18.0	0.00e+00	0	35	0	598736896	62	4135
2026-01-17 13:31:59.53	295.84	9.05	-45.3	-46.6	18.0	0.00e+00	0	35	0	608174080	62	4119
2026-01-17 13:32:02.52	296.35	9.06	-45.4	-46.6	18.0	0.00e+00	0	35	0	617611264	62	4128
2026-01-17 13:32:05.53	296.87	9.07	-45.0	-46.2	18.3	0.00e+00	0	35	0	627048448	61	4188
2026-01-17 13:32:08.52	297.39	9.07	-45.4	-46.6	18.0	0.00e+00	0	34	0	636485632	61	4379
2026-01-17 13:32:11.52	297.91	9.08	-45.2	-46.5	18.1	0.00e+00	0	35	0	645922816	61	4296
2026-01-17 13:32:14.50	298.43	9.08	-45.2	-46.4	18.2	0.00e+00	0	35	0	655360000	61	4267
2026-01-17 13:32:17.47	298.94	9.08	-45.4	-46.7	17.9	0.00e+00	0	34	0	663748608	61	4392
2026-01-17 13:32:20.44	299.46	9.08	-45.3	-46.5	18.0	0.00e+00	0	35	0	673185792	61	4336
2026-01-17 13:32:23.43	299.97	9.07	-45.3	-46.6	18.0	0.00e+00	0	35	0	682622976	61	4355
2026-01-17 13:32:26.43	300.49	9.07	-45.4	-46.7	17.9	0.00e+00	0	35	0	692060160	61	4403
2026-01-17 13:32:29.42	301.01	9.06	-45.1	-46.3	18.2	0.00e+00	0	34	0	701497344	61	4240
2026-01-17 13:32:32.41	301.53	9.05	-45.4	-46.7	17.8	0.00e+00	0	35	0	710934528	61	4433
2026-01-17 13:32:35.40	302.04	9.04	-45.1	-46.3	18.2	0.00e+00	0	35	0	720371712	61	4230
2026-01-17 13:32:38.37	302.55	9.03	-45.1	-46.4	18.2	0.00e+00	0	35	0	729808896	61	4245
2026-01-17 13:32:41.34	303.07	9.01	-44.9	-46.1	18.4	0.00e+00	0	35	0	739246080	61	4119
2026-01-17 13:32:44.32	303.58	8.99	-44.8	-46.0	18.5	0.00e+00	0	35	0	747634688	61	4080
2026-01-17 13:32:47.31	304.09	8.98	-45.0	-46.2	18.3	0.00e+00	0	35	0	757071872	61	4181
2026-01-17 13:32:50.31	304.61	8.95	-45.0	-46.2	18.3	0.00e+00	0	35	0	766509056	61	4189
2026-01-17 13:32:53.30	305.12	8.93	-44.8	-46.0	18.5	0.00e+00	0	35	0	775946240	61	4086
2026-01-17 13:32:56.29	305.63	8.90	-44.9	-46.1	18.4	0.00e+00	0	35	0	785383424	61	4116
2026-01-17 13:32:59.28	306.14	8.88	-45.2	-46.5	18.0	0.00e+00	0	35	0	794820608	61	4305
2026-01-17 13:33:02.26	306.65	8.85	-45.1	-46.3	18.1	0.00e+00	0	35	0	804257792	61	4236
2026-01-17 13:33:05.24	307.16	8.82	-45.1	-46.3	18.2	0.00e+00	0	35	0	813694976	61	4208
2026-01-17 13:33:08.21	307.66	8.78	-45.2	-46.5	18.0	0.00e+00	0	35	0	823132160	61	4292
2026-01-17 13:33:11.19	308.17	8.75	-45.0	-46.2	18.2	0.00e+00	0	34	0	832569344	61	4191
2026-01-17 13:33:14.18	308.68	8.71	-44.9	-46.1	18.3	0.00e+00	0	35	0	842006528	61	4133
2026-01-17 13:33:17.18	309.18	8.67	-45.0	-46.2	18.2	0.00e+00	0	35	0	851443712	61	4185
2026-01-17 13:33:20.18	309.69	8.63	-45.1	-46.3	18.2	0.00e+00	0	35	0	859832320	61	4227
2026-01-17 13:33:23.17	310.19	8.59	-45.2	-46.5	18.0	0.00e+00	0	35	0	869269504	61	4309
2026-01-17 13:33:26.14	310.68	8.55	-45.3	-46.6	17.9	0.00e+00	0	35	0	878706688	61	4354
2026-01-17 13:33:29.11	311.18	8.50	-45.4	-46.8	17.7	0.00e+00	0	34	0	888143872	61	4444
2026-01-17 13:33:32.09	311.67	8.46	-45.5	-46.8	17.6	0.00e+00	0	35	0	897581056	61	4463
2026-01-17 13:33:35.09	312.17	8.41	-45.5	-46.9	17.6	0.00e+00	0	35	0	907018240	61	4509
2026-01-17 13:33:38.09	312.67	8.35	-45.5	-46.9	17.5	0.00e+00	0	35	0	916455424	61	4499
2026-01-17 13:33:41.08	313.16	8.30	-45.5	-46.9	17.5	0.00e+00	0	35	0	925892608	61	4521
2026-01-17 13:33:44.06	313.65	8.25	-45.3	-46.6	17.8	0.00e+00	0	35	0	934281216	61	4347
2026-01-17 13:33:47.03	314.13	8.19	-45.3	-46.6	17.7	0.00e+00	0	34	0	943718400	61	4365
2026-01-17 13:33:49.99	314.61	8.13	-45.3	-46.6	17.8	0.00e+00	0	35	0	953155584	61	4355
2026-01-17 13:33:52.96	315.10	8.08	-45.4	-46.7	17.7	0.00e+00	0	35	0	962592768	61	4425
2026-01-17 13:33:55.94	315.58	8.02	-45.3	-46.5	17.8	0.00e+00	0	35	0	972029952	61	4337
2026-01-17 13:33:58.92	316.06	7.95	-45.1	-46.4	18.0	0.00e+00	0	35	0	981467136	61	4255
2026-01-17 13:34:01.92	316.54	7.89	-45.4	-46.7	17.6	0.00e+00	0	34	0	990904320	61	4429
2026-01-17 13:34:04.92	317.01	7.82	-45.0	-46.2	18.1	0.00e+00	0	35	0	1000341504	61	4182
2026-01-17 13:34:07.91	317.49	7.76	-44.9	-46.2	18.1	0.00e+00	0	35	0	1009778688	61	4152
2026-01-17 13:34:10.88	317.96	7.69	-45.1	-46.4	17.9	0.00e+00	0	35	0	1019215872	61	4272
2026-01-17 13:34:13.86	318.43	7.62	-45.0	-46.3	18.0	0.00e+00	0	34	0	1027604480	61	4216
2026-01-17 13:34:16.82	318.89	7.55	-45.3	-46.6	17.7	0.00e+00	0	34	0	1037041664	61	4373
2026-01-17 13:34:19.79	319.35	7.48	-45.4	-46.7	17.5	0.00e+00	0	35	0	1046478848	61	4438
2026-01-17 13:34:22.74	319.81	7.40	-45.1	-46.3	17.9	0.00e+00	0	35	0	1055916032	61	4238
2026-01-17 13:34:25.70	320.27	7.33	-45.2	-46.6	17.7	0.00e+00	0	35	0	1065353216	61	4341
2026-01-17 13:34:28.66	320.72	7.25	-45.0	-46.3	17.9	0.00e+00	0	35	0	1073741824	61	4214
2026-01-17 13:34:31.61	321.17	7.17	-45.3	-46.6	17.6	0.00e+00	0	35	0	1083179008	61	4364
2026-01-17 13:34:34.56	321.62	7.10	-45.3	-46.6	17.6	0.00e+00	0	35	0	1092616192	61	4381
2026-01-17 13:34:37.51	322.07	7.02	-45.4	-46.8	17.4	0.00e+00	0	34	0	1102053376	61	4468
2026-01-17 13:34:40.48	322.51	6.94	-45.1	-46.4	17.7	0.00e+00	0	35	0	1111490560	61	4282
2026-01-17 13:34:43.44	322.96	6.85	-45.3	-46.7	17.5	0.00e+00	0	35	0	1119879168	61	4403
2026-01-17 13:34:46.41	323.40	6.77	-45.4	-46.8	17.4	0.00e+00	0	35	0	1129316352	61	4460
2026-01-17 13:34:49.39	323.84	6.69	-45.5	-46.9	17.3	0.00e+00	0	35	0	1138753536	61	4519
2026-01-17 13:34:52.38	324.28	6.60	-45.4	-46.8	17.4	0.00e+00	0	35	0	1148190720	61	4445
2026-01-17 13:34:55.38	324.72	6.51	-45.4	-46.8	17.4	0.00e+00	0	35	0	1157627904	61	4442
2026-01-17 13:34:58.37	325.15	6.42	-45.2	-46.5	17.6	0.00e+00	0	34	0	1167065088	61	4305
2026-01-17 13:35:01.36	325.58	6.33	-45.2	-46.6	17.5	0.00e+00	0	35	0	1176502272	61	4356
2026-01-17 13:35:04.35	326.01	6.24	-45.6	-46.9	17.2	0.00e+00	0	35	0	1185939456	62	4288
2026-01-17 13:35:07.33	326.44	6.15	-45.4	-46.8	17.3	0.00e+00	0	35	0	1195376640	62	4229
2026-01-17 13:35:10.30	326.86	6.06	-45.6	-47.1	17.0	0.00e+00	0	35	0	1204813824	62	4346
2026-01-17 13:35:13.27	327.28	5.97	-46.0	-47.5	16.6	0.00e+00	0	35	0	1213202432	62	4565
2026-01-17 13:35:16.23	327.69	5.87	-45.6	-47.0	17.0	0.00e+00	0	35	0	1222639616	62	4327
2026-01-17 13:35:19.21	328.11	5.78	-45.1	-46.5	17.6	0.00e+00	0	34	0	1232076800	62	4054
2026-01-17 13:35:22.17	328.52	5.68	-45.6	-47.1	16.9	0.00e+00	0	35	0	1241513984	62	4344
2026-01-17 13:35:25.14	328.93	5.59	-45.6	-47.1	16.9	0.00e+00	0	34	0	1250951168	62	4351
2026-01-17 13:35:28.13	329.34	5.49	-45.8	-47.3	16.7	0.00e+00	0	35	0	1260388352	62	4463
2026-01-17 13:35:31.14	329.75	5.39	-45.9	-47.4	16.6	0.00e+00	0	35	0	1269825536	62	4530
2026-01-17 13:35:34.14	330.15	5.29	-46.4	-48.1	15.9	0.00e+00	0	35	0	1279262720	63	4599
2026-01-17 13:35:37.14	330.55	5.19	-45.9	-47.5	16.5	0.00e+00	0	35	0	1287651328	63	4292
2026-01-17 13:35:40.13	330.95	5.09	-45.7	-47.2	16.7	0.00e+00	0	34	0	1297088512	63	4187
2026-01-17 13:35:43.11	331.35	4.99	-52.3	-62.8	4.0	6.52e-01	3	35	0	1306525696	75	12624
2026-01-17 13:35:46.09	331.74	4.88	-53.2	-66.0	3.8	1.49e+00	0	35	104	1306525696	76	17202
2026-01-17 13:35:49.07	332.13	4.78	-53.5	-66.3	3.8	1.49e+00	0	35	104	1306525696	77	16850
2026-01-17 13:35:52.06	332.51	4.68	-53.8	-66.6	3.8	1.49e+00	0	35	104	1306525696	78	16362
2026-01-17 13:35:55.06	332.90	4.57	-53.9	-66.7	3.8	1.49e+00	0	35	104	1306525696	78	16562
2026-01-17 13:35:58.06	333.28	4.47	-53.9	-66.7	3.8	1.49e+00	0	35	104	1306525696	78	16667
2026-01-17 13:36:01.07	333.67	4.36	-53.9	-66.7	3.8	1.49e+00	0	35	104	1306525696	78	16635
2026-01-17 13:36:04.06	334.04	4.25	-53.9	-66.7	3.8	1.49e+00	0	35	104	1306525696	78	16632
2026-01-17 13:36:07.04	334.42	4.15	-53.8	-66.7	3.8	1.49e+00	0	35	104	1306525696	78	16546
2026-01-17 13:36:10.01	334.78	4.04	-53.8	-66.6	3.8	1.49e+00	0	35	104	1306525696	78	16472
2026-01-17 13:36:12.99	335.15	3.93	-53.8	-66.6	3.8	1.49e+00	0	35	104	1306525696	78	16436
2026-01-17 13:36:15.98	335.52	3.82	-53.8	-66.6	3.8	1.49e+00	0	35	104	1306525696	78	16408
2026-01-17 13:36:18.98	335.88	3.72	-53.8	-66.6	3.8	1.49e+00	0	35	104	1306525696	78	16445
2026-01-17 13:36:21.97	336.25	3.61	-53.8	-66.6	3.8	1.49e+00	0	35	104	1306525696	78	16425
2026-01-17 13:36:24.95	336.60	3.50	-53.8	-66.6	3.8	1.49e+00	0	35	104	1306525696	78	16449
2026-01-17 13:36:27.94	336.96	3.39	-53.8	-66.6	3.8	1.49e+00	0	35	104	1306525696	78	16407
2026-01-17 13:36:30.92	337.31	3.28	-53.8	-66.6	3.8	1.49e+00	0	35	104	1306525696	78	16375
2026-01-17 13:36:33.88	337.66	3.17	-53.8	-66.6	3.8	1.49e+00	0	35	104	1306525696	78	16351
2026-01-17 13:36:36.85	338.01	3.05	-53.8	-66.6	3.8	1.49e+00	0	35	104	1306525696	78	16348
2026-01-17 13:36:39.81	338.35	2.94	-53.7	-66.6	3.8	1.49e+00	0	35	104	1306525696	78	16353
2026-01-17 13:36:42.79	338.69	2.83	-53.7	-66.6	3.8	1.49e+00	0	35	104	1306525696	78	16333
2026-01-17 13:36:45.76	339.03	2.72	-53.7	-66.5	3.8	1.49e+00	0	35	104	1306525696	78	16299
2026-01-17 13:36:48.73	339.37	2.61	-53.7	-66.5	3.8	1.49e+00	0	35	104	1306525696	78	16286
2026-01-17 13:36:51.70	339.70	2.50	-53.7	-66.6	3.8	1.49e+00	0	35	104	1306525696	78	16328
2026-01-17 13:36:54.67	340.03	2.38	-53.7	-66.6	3.8	1.49e+00	0	35	104	1306525696	78	16347
2026-01-17 13:36:57.64	340.36	2.27	-53.7	-66.5	3.8	1.49e+00	0	35	104	1306525696	78	16301
2026-01-17 13:37:00.63	340.69	2.16	-53.7	-66.5	3.8	1.49e+00	0	35	104	1306525696	78	16312
2026-01-17 13:37:03.63	341.02	2.04	-53.7	-66.5	3.8	1.49e+00	0	35	104	1306525696	78	16266

#Closed at: 2026-01-17 13:37:05
#Recorded file [1306 MB]: D:/lorett/data/31041_260117_162730.dat