passes_logs/2026/01/17/R3.2S_Murmansk/R3.2S_Murmansk__20260117_073213_NOAA_20_JPSS-1_rec.log

#Pass ID: 20260117_073213_NOAA 20 (JPSS-1)
#Satellite: NOAA 20 (JPSS-1)
#Configuration: NOAA 20
#almurnet v.1.7.20251203
#Start time: 2026-01-17 07:32:13

#Version: 2.2.20231116
#Station: R3.2S_Murmansk
#Location: 33.079688 lon 68.888172 lat
#TLE: 1 43013U 17073A   26016.52825843  .00000039  00000+0  39346-4 0  9991
#TLE: 2 43013  98.7637 317.4515 0001446  37.2648 322.8628 14.19536276422951

#Time	Az	El	Level	Level2	SNR	BER	BlckErr	Temp	State	Recorded	gain1	gain2
2026-01-17 07:32:13.06	106.20	1.99	-51.8	-66.8	3.8	1.49e+00	0	32	0	0	75	19910
2026-01-17 07:32:17.10	106.02	2.24	-51.8	-66.7	3.8	1.49e+00	0	32	104	0	74	20804
2026-01-17 07:32:21.13	105.85	2.49	-51.8	-66.7	3.8	1.49e+00	0	33	104	0	74	20851
2026-01-17 07:32:25.16	105.67	2.74	-51.8	-66.7	3.8	1.49e+00	0	33	104	0	74	20789
2026-01-17 07:32:29.20	105.49	3.00	-51.8	-66.6	3.8	1.49e+00	0	33	104	0	74	20649
2026-01-17 07:32:33.23	105.31	3.25	-51.8	-66.5	3.8	1.49e+00	0	33	104	0	74	20438
2026-01-17 07:32:37.27	105.12	3.51	-51.8	-66.7	3.8	1.49e+00	0	33	104	0	74	20980
2026-01-17 07:32:41.31	104.93	3.77	-51.7	-65.3	3.8	1.49e+00	0	33	104	0	74	17871
2026-01-17 07:32:45.34	104.73	4.03	-51.5	-62.3	4.5	1.17e+00	16	33	0	1048576	74	12524
2026-01-17 07:32:49.38	104.53	4.29	-51.1	-59.0	6.5	3.53e-01	0	33	0	8388608	74	8657
2026-01-17 07:32:53.41	104.33	4.56	-50.6	-57.0	8.4	4.85e-02	0	33	0	15728640	73	7244
2026-01-17 07:32:57.45	104.12	4.83	-50.7	-57.1	8.3	5.23e-02	0	33	0	23068672	73	7371
2026-01-17 07:33:01.49	103.91	5.10	-50.9	-57.9	7.4	3.94e-01	0	34	0	31457280	73	8059
2026-01-17 07:33:05.52	103.70	5.37	-48.9	-52.0	14.1	3.89e-05	0	34	0	36700160	69	5155
2026-01-17 07:33:09.56	103.48	5.64	-48.4	-51.1	15.0	0.00e+00	0	34	0	44040192	68	4898
2026-01-17 07:33:13.59	103.25	5.92	-48.1	-50.7	15.4	0.00e+00	0	33	0	51380224	68	4680
2026-01-17 07:33:17.63	103.02	6.20	-48.0	-50.5	15.6	0.00e+00	0	34	0	58720256	67	4843
2026-01-17 07:33:21.66	102.79	6.49	-47.9	-50.4	15.7	0.00e+00	0	34	0	67108864	67	4787
2026-01-17 07:33:25.69	102.55	6.77	-47.9	-50.3	15.8	0.00e+00	0	34	0	74448896	67	4745
2026-01-17 07:33:29.73	102.31	7.06	-47.8	-50.2	16.0	0.00e+00	0	34	0	81788928	67	4655
2026-01-17 07:33:33.76	102.06	7.35	-47.7	-50.0	16.2	0.00e+00	0	34	0	89128960	67	4559
2026-01-17 07:33:37.80	101.81	7.64	-47.7	-50.1	16.2	0.00e+00	0	34	0	97517568	67	4599
2026-01-17 07:33:41.83	101.55	7.94	-47.6	-49.9	16.3	0.00e+00	0	34	0	104857600	67	4530
2026-01-17 07:33:45.86	101.28	8.24	-47.6	-49.8	16.5	0.00e+00	0	34	0	112197632	67	4466
2026-01-17 07:33:49.89	101.01	8.54	-47.5	-49.7	16.6	0.00e+00	0	34	0	119537664	66	4675
2026-01-17 07:33:53.93	100.74	8.85	-47.6	-49.7	16.6	0.00e+00	0	34	0	126877696	66	4705
2026-01-17 07:33:57.96	100.45	9.16	-47.4	-49.6	16.8	0.00e+00	0	34	0	135266304	66	4603
2026-01-17 07:34:01.99	100.17	9.47	-47.5	-49.7	16.7	0.00e+00	0	34	0	142606336	66	4678
2026-01-17 07:34:06.03	99.87	9.78	-47.4	-49.5	16.9	0.00e+00	0	34	0	149946368	66	4586
2026-01-17 07:34:10.06	99.57	10.10	-47.4	-49.5	16.8	0.00e+00	0	34	0	157286400	66	4587
2026-01-17 07:34:14.09	99.26	10.42	-47.4	-49.5	16.9	0.00e+00	0	34	0	164626432	66	4579
2026-01-17 07:34:18.12	98.94	10.75	-47.4	-49.4	17.0	0.00e+00	0	34	0	173015040	66	4526
2026-01-17 07:34:22.15	98.62	11.07	-47.2	-49.2	17.2	0.00e+00	0	34	0	180355072	66	4431
2026-01-17 07:34:26.19	98.29	11.41	-47.1	-49.0	17.5	0.00e+00	0	34	0	187695104	66	4329
2026-01-17 07:34:30.23	97.95	11.74	-47.0	-48.9	17.6	0.00e+00	0	34	0	195035136	66	4280
2026-01-17 07:34:34.26	97.60	12.08	-46.9	-48.7	17.8	0.00e+00	0	34	0	202375168	65	4441
2026-01-17 07:34:38.29	97.25	12.42	-46.8	-48.6	17.9	0.00e+00	0	34	0	210763776	65	4388
2026-01-17 07:34:42.33	96.88	12.77	-46.8	-48.6	18.0	0.00e+00	0	34	0	218103808	65	4350
2026-01-17 07:34:46.36	96.51	13.12	-46.8	-48.6	18.0	0.00e+00	0	34	0	225443840	65	4343
2026-01-17 07:34:50.40	96.13	13.47	-46.7	-48.5	18.0	0.00e+00	0	34	0	232783872	65	4330
2026-01-17 07:34:54.43	95.73	13.83	-46.7	-48.4	18.1	0.00e+00	0	34	0	241172480	65	4288
2026-01-17 07:34:58.46	95.33	14.19	-46.7	-48.5	18.2	0.00e+00	0	34	0	248512512	65	4292
2026-01-17 07:35:02.49	94.92	14.56	-46.7	-48.4	18.2	0.00e+00	0	34	0	255852544	65	4256
2026-01-17 07:35:06.53	94.50	14.93	-46.4	-48.0	18.6	0.00e+00	0	34	0	263192576	64	4324
2026-01-17 07:35:10.56	94.06	15.30	-46.4	-48.1	18.6	0.00e+00	0	34	0	270532608	64	4359
2026-01-17 07:35:14.59	93.62	15.68	-46.5	-48.2	18.5	0.00e+00	0	34	0	278921216	64	4407
2026-01-17 07:35:18.62	93.16	16.06	-46.6	-48.3	18.4	0.00e+00	0	34	0	286261248	64	4454
2026-01-17 07:35:22.66	92.69	16.44	-46.6	-48.3	18.4	0.00e+00	0	35	0	293601280	64	4471
2026-01-17 07:35:26.69	92.21	16.83	-46.8	-48.5	18.2	0.00e+00	0	35	0	300941312	64	4588
2026-01-17 07:35:30.72	91.72	17.23	-46.9	-48.6	18.1	0.00e+00	0	34	0	308281344	64	4637
2026-01-17 07:35:34.75	91.21	17.63	-46.8	-48.5	18.2	0.00e+00	0	34	0	316669952	64	4562
2026-01-17 07:35:38.79	90.69	18.03	-47.0	-48.8	18.0	0.00e+00	0	34	0	324009984	64	4725
2026-01-17 07:35:42.82	90.15	18.43	-47.0	-48.8	18.0	0.00e+00	0	34	0	331350016	64	4749
2026-01-17 07:35:46.85	89.60	18.84	-47.2	-49.1	17.7	0.00e+00	0	34	0	338690048	64	4898
2026-01-17 07:35:50.88	89.04	19.26	-47.1	-48.9	17.9	0.00e+00	0	35	0	347078656	65	4541
2026-01-17 07:35:54.91	88.45	19.67	-47.0	-48.8	18.1	0.00e+00	0	34	0	354418688	65	4445
2026-01-17 07:35:58.95	87.85	20.10	-46.8	-48.5	18.3	0.00e+00	0	34	0	361758720	65	4311
2026-01-17 07:36:02.98	87.24	20.52	-46.7	-48.4	18.5	0.00e+00	0	34	0	369098752	65	4259
2026-01-17 07:36:07.00	86.61	20.95	-46.6	-48.2	18.6	0.00e+00	0	35	0	376438784	65	4167
2026-01-17 07:36:11.04	85.95	21.38	-46.7	-48.4	18.5	0.00e+00	0	34	0	384827392	65	4259
2026-01-17 07:36:15.07	85.28	21.82	-46.6	-48.2	18.7	0.00e+00	0	34	0	392167424	65	4173
2026-01-17 07:36:19.10	84.59	22.26	-46.6	-48.2	18.7	0.00e+00	0	35	0	399507456	65	4163
2026-01-17 07:36:23.14	83.88	22.70	-46.5	-48.2	18.7	0.00e+00	0	34	0	406847488	64	4395
2026-01-17 07:36:27.17	83.15	23.14	-46.8	-48.5	18.4	0.00e+00	0	34	0	415236096	64	4557
2026-01-17 07:36:31.20	82.40	23.59	-47.1	-48.9	18.1	0.00e+00	0	35	0	422576128	64	4765
2026-01-17 07:36:35.23	81.63	24.04	-47.4	-49.3	17.6	0.00e+00	0	35	0	429916160	65	4737
2026-01-17 07:36:39.26	80.83	24.49	-47.4	-49.2	17.7	0.00e+00	0	34	0	437256192	65	4696
2026-01-17 07:36:43.30	80.01	24.95	-47.6	-49.5	17.4	0.00e+00	0	34	0	444596224	65	4857
2026-01-17 07:36:47.33	79.16	25.40	-47.6	-49.5	17.5	0.00e+00	0	34	0	451936256	65	4855
2026-01-17 07:36:51.36	78.29	25.85	-47.5	-49.4	17.6	0.00e+00	0	34	0	460324864	65	4802
2026-01-17 07:36:55.39	77.40	26.31	-47.5	-49.5	17.5	0.00e+00	0	34	0	467664896	65	4819
2026-01-17 07:36:59.42	76.48	26.76	-47.1	-48.9	18.1	0.00e+00	0	35	0	475004928	65	4529
2026-01-17 07:37:03.46	75.53	27.22	-47.3	-49.1	17.9	0.00e+00	0	34	0	482344960	65	4617
2026-01-17 07:37:07.49	74.55	27.67	-47.5	-49.4	17.6	0.00e+00	0	34	0	490733568	65	4790
2026-01-17 07:37:11.53	73.55	28.12	-47.2	-48.9	18.1	0.00e+00	0	34	0	498073600	65	4528
2026-01-17 07:37:15.56	72.51	28.56	-47.0	-48.8	18.3	0.00e+00	0	34	0	505413632	65	4456
2026-01-17 07:37:19.60	71.45	29.01	-47.4	-49.3	17.8	0.00e+00	0	34	0	512753664	65	4743
2026-01-17 07:37:23.63	70.36	29.45	-47.8	-49.7	17.3	0.00e+00	0	35	0	520093696	66	4697
2026-01-17 07:37:27.66	69.24	29.88	-48.7	-51.1	16.0	0.00e+00	0	35	0	528482304	67	5199
2026-01-17 07:37:31.69	68.09	30.31	-49.3	-51.9	15.3	0.00e+00	0	35	0	535822336	69	5095
2026-01-17 07:37:35.72	66.90	30.73	-49.7	-52.7	14.5	7.00e-07	0	35	0	543162368	70	5236
2026-01-17 07:37:39.76	65.69	31.14	-49.6	-52.6	14.6	0.00e+00	0	35	0	550502400	70	5200
2026-01-17 07:37:43.79	64.44	31.54	-50.3	-53.8	13.3	7.60e-06	0	35	0	557842432	71	5631
2026-01-17 07:37:47.83	63.16	31.93	-50.4	-54.0	13.0	4.27e-05	0	35	0	566231040	71	5773
2026-01-17 07:37:51.87	61.85	32.31	-49.8	-52.8	14.3	4.50e-06	0	35	0	573571072	71	5008
2026-01-17 07:37:55.90	60.52	32.68	-49.4	-52.2	14.9	0.00e+00	0	35	0	580911104	70	4950
2026-01-17 07:37:59.94	59.14	33.04	-49.1	-51.7	15.4	0.00e+00	0	34	0	588251136	70	4666
2026-01-17 07:38:03.97	57.75	33.37	-48.7	-51.0	16.1	0.00e+00	0	35	0	596639744	69	4574
2026-01-17 07:38:08.00	56.32	33.70	-48.6	-50.9	15.9	0.00e+00	0	35	0	603979776	69	4538
2026-01-17 07:38:12.03	54.87	34.00	-47.7	-49.6	17.3	0.00e+00	0	35	0	611319808	66	4641
2026-01-17 07:38:16.06	53.39	34.29	-47.5	-49.3	17.7	0.00e+00	0	34	0	618659840	66	4492
2026-01-17 07:38:20.10	51.88	34.56	-47.3	-49.1	18.1	0.00e+00	0	35	0	625999872	66	4359
2026-01-17 07:38:24.13	50.35	34.80	-46.9	-48.6	18.6	0.00e+00	0	35	0	634388480	65	4352
2026-01-17 07:38:28.16	48.80	35.02	-46.7	-48.3	18.9	0.00e+00	0	35	0	641728512	65	4197
2026-01-17 07:38:32.19	47.22	35.23	-45.9	-47.3	19.9	0.00e+00	0	34	0	649068544	63	4207
2026-01-17 07:38:36.22	45.63	35.40	-46.0	-47.5	19.7	0.00e+00	0	35	0	656408576	63	4293
2026-01-17 07:38:40.26	44.02	35.56	-46.1	-47.5	19.7	0.00e+00	0	35	0	663748608	63	4317
2026-01-17 07:38:44.29	42.40	35.68	-45.6	-47.0	20.2	0.00e+00	0	35	0	672137216	62	4301
2026-01-17 07:38:48.33	40.76	35.78	-46.4	-47.9	19.4	0.00e+00	0	34	0	679477248	63	4506
2026-01-17 07:38:52.36	39.12	35.86	-46.5	-48.0	19.2	0.00e+00	0	35	0	686817280	63	4588
2026-01-17 07:38:56.40	37.47	35.91	-46.6	-48.2	19.1	0.00e+00	0	34	0	694157312	63	4674
2026-01-17 07:39:00.43	35.82	35.93	-46.8	-48.4	18.7	0.00e+00	0	34	0	701497344	64	4537
2026-01-17 07:39:04.46	34.17	35.92	-46.5	-48.0	19.2	0.00e+00	0	35	0	709885952	64	4336
2026-01-17 07:39:08.50	32.52	35.89	-47.4	-49.2	18.1	0.00e+00	0	35	0	717225984	65	4658
2026-01-17 07:39:12.54	30.87	35.83	-47.1	-48.8	18.4	0.00e+00	0	34	0	724566016	65	4456
2026-01-17 07:39:16.57	29.23	35.74	-47.8	-49.7	17.5	0.00e+00	0	34	0	731906048	66	4694
2026-01-17 07:39:20.60	27.61	35.62	-48.3	-50.4	16.8	0.00e+00	0	35	0	740294656	67	4789
2026-01-17 07:39:24.63	25.99	35.49	-47.8	-49.6	17.6	0.00e+00	0	35	0	747634688	67	4388
2026-01-17 07:39:28.67	24.39	35.32	-48.4	-50.5	16.7	0.00e+00	0	35	0	754974720	67	4858
2026-01-17 07:39:32.70	22.81	35.13	-48.1	-50.1	17.1	0.00e+00	0	35	0	762314752	67	4632
2026-01-17 07:39:36.73	21.25	34.92	-48.2	-50.2	17.0	0.00e+00	0	35	0	769654784	67	4704
2026-01-17 07:39:40.77	19.70	34.69	-47.5	-49.3	17.9	0.00e+00	0	35	0	778043392	67	4233
2026-01-17 07:39:44.80	18.19	34.43	-47.2	-49.0	18.2	0.00e+00	0	35	0	785383424	65	4550
2026-01-17 07:39:48.84	16.69	34.15	-47.2	-48.9	18.3	0.00e+00	0	35	0	792723456	65	4526
2026-01-17 07:39:52.87	15.23	33.86	-47.1	-48.7	18.5	0.00e+00	0	34	0	800063488	65	4437
2026-01-17 07:39:56.90	13.79	33.55	-47.8	-49.8	17.4	0.00e+00	0	35	0	807403520	66	4717
2026-01-17 07:40:00.94	12.37	33.22	-47.9	-49.9	17.3	0.00e+00	0	35	0	815792128	66	4806
2026-01-17 07:40:04.97	10.99	32.87	-48.5	-50.8	16.4	0.00e+00	0	35	0	823132160	67	5015
2026-01-17 07:40:09.00	9.64	32.51	-48.5	-50.7	16.5	0.00e+00	0	35	0	830472192	67	4951
2026-01-17 07:40:13.04	8.32	32.14	-48.2	-50.3	16.9	0.00e+00	0	35	0	837812224	67	4738
2026-01-17 07:40:17.07	7.03	31.75	-48.4	-50.6	16.7	0.00e+00	0	34	0	846200832	67	4877
2026-01-17 07:40:21.11	5.77	31.36	-48.3	-50.4	16.8	0.00e+00	0	35	0	853540864	67	4784
2026-01-17 07:40:25.14	4.54	30.95	-48.3	-50.4	16.9	0.00e+00	0	35	0	860880896	67	4780
2026-01-17 07:40:29.18	3.34	30.53	-48.1	-50.2	17.0	0.00e+00	0	35	0	868220928	67	4682
2026-01-17 07:40:33.21	2.17	30.11	-48.2	-50.3	16.9	0.00e+00	0	35	0	875560960	67	4719
2026-01-17 07:40:37.24	1.04	29.68	-48.2	-50.3	16.9	0.00e+00	0	35	0	883949568	67	4734
2026-01-17 07:40:41.28	359.93	29.25	-47.8	-49.8	17.4	0.00e+00	0	35	0	891289600	67	4471
2026-01-17 07:40:45.31	358.86	28.81	-47.4	-49.3	17.9	0.00e+00	0	35	0	898629632	66	4459
2026-01-17 07:40:49.34	357.81	28.37	-47.1	-48.8	18.4	0.00e+00	0	35	0	905969664	66	4210
2026-01-17 07:40:53.37	356.80	27.92	-46.5	-48.1	19.0	0.00e+00	0	35	0	914358272	65	4124
2026-01-17 07:40:57.41	355.81	27.47	-46.1	-47.5	19.6	0.00e+00	0	35	0	921698304	64	4079
2026-01-17 07:41:01.44	354.85	27.02	-45.8	-47.2	20.0	0.00e+00	0	34	0	929038336	63	4156
2026-01-17 07:41:05.48	353.91	26.56	-45.9	-47.3	19.8	0.00e+00	0	35	0	936378368	63	4234
2026-01-17 07:41:09.51	353.01	26.11	-45.4	-46.7	20.4	0.00e+00	0	34	0	943718400	62	4175
2026-01-17 07:41:13.55	352.12	25.66	-45.4	-46.7	20.4	0.00e+00	0	34	0	951058432	62	4192
2026-01-17 07:41:17.59	351.27	25.20	-45.3	-46.6	20.5	0.00e+00	0	35	0	959447040	62	4131
2026-01-17 07:41:21.62	350.44	24.75	-45.6	-47.0	20.1	0.00e+00	0	34	0	966787072	62	4319
2026-01-17 07:41:25.66	349.63	24.30	-45.7	-47.1	20.0	0.00e+00	0	35	0	974127104	62	4376
2026-01-17 07:41:29.69	348.85	23.85	-45.9	-47.4	19.7	0.00e+00	0	35	0	981467136	62	4507
2026-01-17 07:41:33.72	348.08	23.40	-46.1	-47.5	19.6	0.00e+00	0	35	0	989855744	62	4577
2026-01-17 07:41:37.75	347.35	22.96	-46.0	-47.4	19.7	0.00e+00	0	35	0	997195776	62	4517
2026-01-17 07:41:41.78	346.63	22.52	-46.0	-47.4	19.7	0.00e+00	0	34	0	1004535808	62	4512
2026-01-17 07:41:45.82	345.93	22.08	-46.0	-47.5	19.6	0.00e+00	0	35	0	1011875840	62	4561
2026-01-17 07:41:49.85	345.25	21.64	-46.3	-47.7	19.3	0.00e+00	0	35	0	1019215872	63	4441
2026-01-17 07:41:53.89	344.59	21.21	-46.4	-47.9	19.2	0.00e+00	0	35	0	1027604480	63	4526
2026-01-17 07:41:57.92	343.95	20.78	-46.7	-48.3	18.7	0.00e+00	0	35	0	1034944512	63	4745
2026-01-17 07:42:01.95	343.33	20.35	-46.9	-48.6	18.4	0.00e+00	0	35	0	1042284544	64	4632
2026-01-17 07:42:05.98	342.72	19.93	-46.8	-48.5	18.4	0.00e+00	0	34	0	1049624576	64	4579
2026-01-17 07:42:10.02	342.13	19.51	-46.7	-48.4	18.6	0.00e+00	0	35	0	1056964608	64	4501
2026-01-17 07:42:14.05	341.56	19.10	-46.8	-48.4	18.5	0.00e+00	0	35	0	1065353216	64	4532
2026-01-17 07:42:18.08	341.00	18.68	-47.0	-48.7	18.2	0.00e+00	0	34	0	1072693248	64	4697
2026-01-17 07:42:22.11	340.46	18.28	-47.1	-48.9	18.0	0.00e+00	0	35	0	1080033280	64	4783
2026-01-17 07:42:26.14	339.94	17.88	-46.8	-48.5	18.4	0.00e+00	0	35	0	1087373312	64	4586
2026-01-17 07:42:30.18	339.42	17.48	-46.8	-48.5	18.4	0.00e+00	0	35	0	1095761920	64	4576
2026-01-17 07:42:34.21	338.92	17.08	-46.9	-48.6	18.3	0.00e+00	0	35	0	1103101952	64	4610
2026-01-17 07:42:38.24	338.44	16.69	-46.7	-48.4	18.4	0.00e+00	0	35	0	1110441984	64	4520
2026-01-17 07:42:42.28	337.96	16.30	-47.0	-48.7	18.1	0.00e+00	0	34	0	1117782016	64	4680
2026-01-17 07:42:46.31	337.50	15.92	-47.0	-48.8	18.0	0.00e+00	0	35	0	1125122048	64	4756
2026-01-17 07:42:50.34	337.05	15.54	-47.0	-48.8	18.0	0.00e+00	0	34	0	1133510656	65	4489
2026-01-17 07:42:54.38	336.61	15.17	-47.0	-48.8	18.0	0.00e+00	0	35	0	1140850688	65	4491
2026-01-17 07:42:58.41	336.19	14.80	-46.9	-48.6	18.1	0.00e+00	0	35	0	1148190720	65	4385
2026-01-17 07:43:02.45	335.77	14.43	-46.7	-48.4	18.3	0.00e+00	0	35	0	1155530752	65	4288
2026-01-17 07:43:06.49	335.37	14.07	-47.0	-48.7	18.0	0.00e+00	0	35	0	1163919360	65	4439
2026-01-17 07:43:10.52	334.97	13.71	-47.1	-49.0	17.8	0.00e+00	0	35	0	1171259392	65	4552
2026-01-17 07:43:14.56	334.58	13.35	-47.3	-49.2	17.5	0.00e+00	0	35	0	1178599424	65	4681
2026-01-17 07:43:18.59	334.21	13.00	-47.5	-49.5	17.3	0.00e+00	0	35	0	1185939456	65	4823
2026-01-17 07:43:22.63	333.84	12.65	-47.6	-49.6	17.1	0.00e+00	0	35	0	1193279488	65	4902
2026-01-17 07:43:26.66	333.48	12.31	-47.5	-49.6	17.0	0.00e+00	0	34	0	1201668096	65	4898
2026-01-17 07:43:30.70	333.13	11.97	-47.6	-49.7	16.9	0.00e+00	0	35	0	1209008128	66	4692
2026-01-17 07:43:34.73	332.79	11.63	-47.7	-49.8	16.8	0.00e+00	0	35	0	1216348160	66	4750
2026-01-17 07:43:38.76	332.46	11.30	-47.8	-49.9	16.7	0.00e+00	0	35	0	1223688192	66	4814
2026-01-17 07:43:42.80	332.13	10.97	-48.0	-50.3	16.3	0.00e+00	0	35	0	1231028224	66	5017
2026-01-17 07:43:46.83	331.82	10.65	-48.2	-50.6	15.9	0.00e+00	0	34	0	1239416832	67	4926
2026-01-17 07:43:50.86	331.51	10.32	-48.2	-50.6	15.9	0.00e+00	0	35	0	1246756864	67	4902
2026-01-17 07:43:54.89	331.20	10.01	-48.1	-50.5	16.0	0.00e+00	0	35	0	1254096896	67	4845
2026-01-17 07:43:58.92	330.91	9.69	-48.0	-50.4	16.1	0.00e+00	0	35	0	1261436928	67	4778
2026-01-17 07:44:02.96	330.62	9.38	-48.3	-50.9	15.6	0.00e+00	0	34	0	1268776960	67	5049
2026-01-17 07:44:06.99	330.33	9.07	-48.5	-51.1	15.3	0.00e+00	0	34	0	1277165568	67	5201
2026-01-17 07:44:11.02	330.05	8.76	-48.6	-51.2	15.2	0.00e+00	0	35	0	1284505600	67	5268
2026-01-17 07:44:15.06	329.78	8.46	-48.4	-51.0	15.3	0.00e+00	0	35	0	1291845632	67	5145
2026-01-17 07:44:19.09	329.52	8.16	-48.5	-51.2	15.2	0.00e+00	0	35	0	1299185664	67	5226
2026-01-17 07:44:23.12	329.26	7.86	-48.5	-51.2	15.1	0.00e+00	0	34	0	1306525696	67	5252
2026-01-17 07:44:27.15	329.00	7.57	-48.7	-51.5	14.8	0.00e+00	0	35	0	1314914304	67	5425
2026-01-17 07:44:31.19	328.75	7.27	-48.8	-51.6	14.8	0.00e+00	0	35	0	1322254336	68	5194
2026-01-17 07:44:35.22	328.51	6.98	-49.0	-52.1	14.2	0.00e+00	0	35	0	1329594368	68	5479
2026-01-17 07:44:39.25	328.27	6.70	-49.0	-52.0	14.3	2.20e-06	0	34	0	1336934400	68	5447
2026-01-17 07:44:43.28	328.04	6.42	-49.0	-52.1	14.1	3.80e-06	0	35	0	1345323008	68	5497
2026-01-17 07:44:47.31	327.81	6.13	-49.4	-53.0	13.2	1.50e-06	0	35	0	1352663040	69	5726
2026-01-17 07:44:51.34	327.59	5.86	-49.1	-52.3	13.9	7.00e-07	0	35	0	1360003072	69	5297
2026-01-17 07:44:55.38	327.37	5.58	-49.2	-52.5	13.6	8.30e-06	0	35	0	1367343104	69	5421
2026-01-17 07:44:59.41	327.15	5.31	-49.1	-52.4	13.7	4.50e-06	0	34	0	1374683136	69	5361
2026-01-17 07:45:03.44	326.94	5.04	-49.3	-52.8	13.3	6.10e-06	0	35	0	1383071744	69	5639
2026-01-17 07:45:07.48	326.73	4.77	-53.0	-68.0	3.8	1.49e+00	0	35	104	1383071744	76	21714
2026-01-17 07:45:11.51	326.53	4.50	-53.4	-68.5	3.8	1.49e+00	0	35	104	1383071744	77	21547
2026-01-17 07:45:15.55	326.33	4.24	-53.6	-68.6	3.8	1.49e+00	0	34	104	1383071744	77	21988
2026-01-17 07:45:19.58	326.14	3.97	-53.7	-68.7	3.8	1.49e+00	0	35	104	1383071744	77	22011
2026-01-17 07:45:23.62	325.94	3.71	-53.6	-68.7	3.8	1.49e+00	0	35	104	1383071744	77	22008
2026-01-17 07:45:27.65	325.76	3.46	-53.6	-68.6	3.8	1.49e+00	0	35	104	1383071744	77	21867
2026-01-17 07:45:31.68	325.57	3.20	-53.5	-68.6	3.8	1.49e+00	0	35	104	1383071744	77	21878
2026-01-17 07:45:35.71	325.39	2.95	-53.5	-68.6	3.8	1.49e+00	0	35	104	1383071744	77	21828
2026-01-17 07:45:39.74	325.21	2.70	-53.5	-68.6	3.8	1.49e+00	0	35	104	1383071744	77	21763
2026-01-17 07:45:43.78	325.04	2.45	-53.5	-68.6	3.8	1.49e+00	0	35	104	1383071744	77	21764
2026-01-17 07:45:47.81	324.87	2.20	-53.5	-68.5	3.8	1.49e+00	0	35	104	1383071744	77	21678

#Closed at: 2026-01-17 07:45:51
#Recorded file [1383 MB]: D:/lorett/data/31041_260117_103212.dat