passes_logs/2026/01/17/R3.2S_Murmansk/R3.2S_Murmansk__20260117_103129_SUOMI_NPP_rec.log

#Pass ID: 20260117_103129_SUOMI NPP
#Satellite: SUOMI NPP
#Configuration: NPP
#almurnet v.1.7.20251203
#Start time: 2026-01-17 10:31:31

#Version: 2.2.20231116
#Station: R3.2S_Murmansk
#Location: 33.079688 lon 68.888172 lat
#TLE: 1 37849U 11061A   26016.58419598  .00000058  00000+0  48257-4 0  9996
#TLE: 2 37849  98.7812 318.6192 0002422  60.8544 299.2874 14.19525580736934

#Time	Az	El	Level	Level2	SNR	BER	BlckErr	Temp	State	Recorded	gain1	gain2
2026-01-17 10:31:31.29	174.36	2.09	-52.1	-67.0	3.8	1.49e+00	0	32	0	0	76	19345
2026-01-17 10:31:35.31	174.48	2.34	-52.1	-66.8	3.8	1.49e+00	0	32	104	0	74	21047
2026-01-17 10:31:39.34	174.60	2.60	-52.0	-66.7	3.8	1.49e+00	0	33	104	0	74	20805
2026-01-17 10:31:43.38	174.72	2.86	-52.1	-66.6	3.8	1.49e+00	0	33	104	0	74	20761
2026-01-17 10:31:47.41	174.84	3.12	-52.1	-66.6	3.8	1.49e+00	0	33	104	0	74	20646
2026-01-17 10:31:51.44	174.96	3.39	-52.1	-67.0	3.8	1.49e+00	0	33	104	0	74	21708
2026-01-17 10:31:55.47	175.09	3.65	-51.9	-63.9	3.9	1.49e+00	0	33	104	0	74	15140
2026-01-17 10:31:59.51	175.22	3.92	-51.6	-60.4	5.7	4.59e-01	0	33	0	5242880	74	10113
2026-01-17 10:32:03.54	175.35	4.20	-51.0	-57.4	8.4	7.56e-02	0	33	0	12582912	74	7135
2026-01-17 10:32:07.57	175.49	4.47	-49.9	-54.0	11.8	1.60e-03	0	33	0	20971520	71	5779
2026-01-17 10:32:11.60	175.62	4.75	-48.5	-51.4	14.6	7.00e-07	0	33	0	28311552	69	4795
2026-01-17 10:32:15.64	175.76	5.03	-48.3	-51.1	14.9	0.00e+00	0	33	0	35651584	68	4900
2026-01-17 10:32:19.67	175.90	5.31	-49.6	-53.3	12.8	1.32e-03	0	33	0	42991616	71	5327
2026-01-17 10:32:23.70	176.04	5.60	-48.6	-51.5	14.6	7.00e-07	0	33	0	51380224	69	4818
2026-01-17 10:32:27.73	176.19	5.89	-48.1	-50.7	15.4	0.00e+00	0	34	0	58720256	68	4662
2026-01-17 10:32:31.77	176.34	6.18	-47.9	-50.3	15.8	0.00e+00	0	33	0	66060288	67	4734
2026-01-17 10:32:35.80	176.49	6.48	-48.0	-50.5	15.6	0.00e+00	0	34	0	73400320	67	4832
2026-01-17 10:32:39.83	176.64	6.77	-47.9	-50.3	16.0	0.00e+00	0	34	0	80740352	67	4710
2026-01-17 10:32:43.86	176.80	7.08	-48.0	-50.4	15.8	0.00e+00	0	34	0	88080384	67	4799
2026-01-17 10:32:47.90	176.96	7.38	-47.7	-49.9	16.3	0.00e+00	0	34	0	96468992	67	4534
2026-01-17 10:32:51.93	177.12	7.69	-47.5	-49.6	16.6	0.00e+00	0	34	0	103809024	66	4646
2026-01-17 10:32:55.97	177.29	8.01	-47.5	-49.6	16.7	0.00e+00	0	34	0	111149056	66	4622
2026-01-17 10:33:00.00	177.45	8.32	-47.3	-49.3	17.1	0.00e+00	0	34	0	118489088	66	4482
2026-01-17 10:33:04.03	177.63	8.64	-46.9	-48.8	17.6	0.00e+00	0	34	0	126877696	65	4449
2026-01-17 10:33:08.07	177.80	8.97	-47.0	-48.9	17.4	0.00e+00	0	34	0	134217728	65	4527
2026-01-17 10:33:12.10	177.98	9.30	-47.0	-48.8	17.6	0.00e+00	0	34	0	141557760	65	4488
2026-01-17 10:33:16.14	178.17	9.63	-47.0	-48.9	17.6	0.00e+00	0	34	0	148897792	65	4502
2026-01-17 10:33:20.17	178.35	9.97	-46.8	-48.6	17.9	0.00e+00	0	34	0	156237824	65	4381
2026-01-17 10:33:24.20	178.55	10.31	-46.6	-48.3	18.1	0.00e+00	0	34	0	164626432	65	4241
2026-01-17 10:33:28.23	178.74	10.65	-46.3	-47.9	18.5	0.00e+00	0	34	0	171966464	64	4280
2026-01-17 10:33:32.27	178.94	11.00	-46.4	-48.1	18.4	0.00e+00	0	34	0	179306496	64	4364
2026-01-17 10:33:36.30	179.15	11.36	-46.2	-47.8	18.7	0.00e+00	0	34	0	186646528	64	4221
2026-01-17 10:33:40.33	179.36	11.72	-46.3	-48.0	18.6	0.00e+00	0	34	0	195035136	64	4292
2026-01-17 10:33:44.36	179.57	12.08	-46.3	-48.0	18.6	0.00e+00	0	34	0	202375168	64	4294
2026-01-17 10:33:48.40	179.79	12.46	-46.2	-47.8	18.8	0.00e+00	0	34	0	209715200	64	4225
2026-01-17 10:33:52.43	180.01	12.83	-46.4	-48.0	18.5	0.00e+00	0	34	0	217055232	64	4340
2026-01-17 10:33:56.46	180.24	13.21	-46.2	-47.7	18.9	0.00e+00	0	34	0	224395264	64	4193
2026-01-17 10:34:00.50	180.48	13.60	-46.2	-47.8	18.8	0.00e+00	0	34	0	232783872	64	4201
2026-01-17 10:34:04.53	180.72	13.99	-46.2	-47.8	18.8	0.00e+00	0	34	0	240123904	64	4231
2026-01-17 10:34:08.56	180.97	14.39	-46.5	-48.2	18.5	0.00e+00	0	34	0	247463936	64	4417
2026-01-17 10:34:12.59	181.22	14.80	-46.4	-48.0	18.6	0.00e+00	0	34	0	254803968	64	4336
2026-01-17 10:34:16.62	181.48	15.21	-46.3	-47.9	18.8	0.00e+00	0	34	0	262144000	64	4256
2026-01-17 10:34:20.66	181.75	15.63	-46.1	-47.7	19.0	0.00e+00	0	34	0	270532608	64	4159
2026-01-17 10:34:24.69	182.02	16.05	-45.9	-47.3	19.4	0.00e+00	0	34	0	277872640	63	4230
2026-01-17 10:34:28.72	182.30	16.49	-46.0	-47.5	19.3	0.00e+00	0	34	0	285212672	63	4316
2026-01-17 10:34:32.75	182.59	16.92	-46.0	-47.4	19.4	0.00e+00	0	34	0	292552704	63	4274
2026-01-17 10:34:36.78	182.89	17.37	-46.0	-47.5	19.3	0.00e+00	0	34	0	299892736	63	4306
2026-01-17 10:34:40.82	183.20	17.83	-45.9	-47.3	19.5	0.00e+00	0	34	0	308281344	63	4215
2026-01-17 10:34:44.85	183.51	18.29	-45.7	-47.0	19.8	0.00e+00	0	34	0	315621376	63	4093
2026-01-17 10:34:48.88	183.84	18.76	-45.4	-46.8	20.0	0.00e+00	0	34	0	322961408	62	4206
2026-01-17 10:34:52.92	184.17	19.24	-45.1	-46.4	20.4	0.00e+00	0	34	0	330301440	62	4007
2026-01-17 10:34:56.95	184.52	19.72	-44.8	-46.0	20.8	0.00e+00	0	34	0	338690048	61	4052
2026-01-17 10:35:00.98	184.87	20.22	-44.6	-45.8	20.9	0.00e+00	0	34	0	346030080	61	3994
2026-01-17 10:35:05.02	185.24	20.72	-45.1	-46.4	20.4	0.00e+00	0	34	0	353370112	61	4260
2026-01-17 10:35:09.05	185.62	21.23	-45.3	-46.6	20.2	0.00e+00	0	34	0	360710144	61	4358
2026-01-17 10:35:13.08	186.01	21.76	-45.2	-46.5	20.4	0.00e+00	0	34	0	368050176	61	4306
2026-01-17 10:35:17.12	186.41	22.29	-45.1	-46.4	20.5	0.00e+00	0	34	0	376438784	61	4243
2026-01-17 10:35:21.15	186.83	22.83	-45.0	-46.3	20.5	0.00e+00	0	34	0	383778816	61	4220
2026-01-17 10:35:25.18	187.26	23.38	-44.8	-46.1	20.7	0.00e+00	0	34	0	391118848	61	4107
2026-01-17 10:35:29.22	187.70	23.95	-44.4	-45.6	21.2	0.00e+00	0	34	0	398458880	60	4106
2026-01-17 10:35:33.25	188.16	24.52	-44.4	-45.5	21.3	0.00e+00	0	34	0	405798912	60	4075
2026-01-17 10:35:37.29	188.64	25.11	-44.2	-45.3	21.4	0.00e+00	0	34	0	414187520	60	4000
2026-01-17 10:35:41.32	189.14	25.70	-44.2	-45.3	21.4	0.00e+00	0	34	0	421527552	60	3983
2026-01-17 10:35:45.35	189.65	26.31	-44.5	-45.6	21.2	0.00e+00	0	34	0	428867584	60	4144
2026-01-17 10:35:49.38	190.19	26.93	-44.9	-46.1	20.8	0.00e+00	0	34	0	436207616	60	4351
2026-01-17 10:35:53.41	190.74	27.55	-45.5	-46.9	20.1	0.00e+00	0	34	0	444596224	61	4512
2026-01-17 10:35:57.45	191.32	28.20	-45.6	-46.9	20.1	0.00e+00	0	34	0	451936256	62	4273
2026-01-17 10:36:01.48	191.92	28.85	-46.3	-47.8	19.3	0.00e+00	0	34	0	459276288	63	4453
2026-01-17 10:36:05.52	192.54	29.52	-46.8	-48.4	18.6	0.00e+00	0	34	0	466616320	64	4525
2026-01-17 10:36:09.55	193.19	30.20	-47.2	-49.0	18.1	0.00e+00	0	34	0	473956352	65	4557
2026-01-17 10:36:13.59	193.87	30.89	-48.3	-50.5	16.7	0.00e+00	0	34	0	481296384	67	4838
2026-01-17 10:36:17.62	194.58	31.59	-48.4	-50.6	16.7	0.00e+00	0	35	0	489684992	68	4648
2026-01-17 10:36:21.66	195.31	32.31	-47.5	-49.3	17.9	0.00e+00	0	34	0	497025024	66	4447
2026-01-17 10:36:25.69	196.08	33.03	-47.5	-49.2	17.9	0.00e+00	0	34	0	504365056	66	4439
2026-01-17 10:36:29.72	196.88	33.77	-46.8	-48.4	18.7	0.00e+00	0	34	0	511705088	65	4266
2026-01-17 10:36:33.76	197.73	34.52	-47.4	-49.2	17.8	0.00e+00	0	34	0	520093696	65	4665
2026-01-17 10:36:37.79	198.61	35.28	-47.6	-49.5	17.6	0.00e+00	0	34	0	527433728	66	4574
2026-01-17 10:36:41.83	199.53	36.06	-46.5	-48.0	19.1	0.00e+00	0	35	0	534773760	65	4091
2026-01-17 10:36:45.86	200.49	36.84	-46.3	-47.8	19.3	0.00e+00	0	34	0	542113792	64	4199
2026-01-17 10:36:49.90	201.51	37.64	-47.5	-49.3	17.9	0.00e+00	0	34	0	550502400	66	4486
2026-01-17 10:36:53.93	202.57	38.44	-46.9	-48.5	18.6	0.00e+00	0	34	0	557842432	65	4336
2026-01-17 10:36:57.96	203.68	39.25	-45.9	-47.3	19.8	0.00e+00	0	34	0	565182464	63	4209
2026-01-17 10:37:01.99	204.85	40.06	-45.8	-47.1	20.0	0.00e+00	0	34	0	572522496	62	4388
2026-01-17 10:37:06.03	206.08	40.89	-46.5	-48.1	19.0	0.00e+00	0	34	0	579862528	64	4376
2026-01-17 10:37:10.06	207.37	41.71	-46.3	-47.7	19.5	0.00e+00	0	34	0	588251136	63	4407
2026-01-17 10:37:14.09	208.73	42.54	-47.4	-49.2	18.1	0.00e+00	0	34	0	595591168	66	4430
2026-01-17 10:37:18.13	210.16	43.37	-47.7	-49.6	17.6	0.00e+00	0	35	0	602931200	66	4625
2026-01-17 10:37:22.16	211.67	44.19	-47.6	-49.5	17.7	0.00e+00	0	34	0	610271232	67	4292
2026-01-17 10:37:26.19	213.25	45.01	-48.3	-50.4	17.0	0.00e+00	0	34	0	617611264	67	4799
2026-01-17 10:37:30.23	214.92	45.82	-48.6	-50.7	16.8	0.00e+00	0	34	0	625999872	68	4696
2026-01-17 10:37:34.26	216.67	46.62	-48.9	-51.2	16.1	0.00e+00	0	34	0	633339904	69	4694
2026-01-17 10:37:38.29	218.51	47.41	-47.7	-49.4	17.8	0.00e+00	0	34	0	640679936	67	4285
2026-01-17 10:37:42.33	220.45	48.17	-47.4	-49.2	18.1	0.00e+00	0	34	0	648019968	66	4406
2026-01-17 10:37:46.36	222.48	48.92	-47.1	-48.7	18.7	0.00e+00	0	34	0	655360000	65	4418
2026-01-17 10:37:50.39	224.60	49.63	-47.2	-48.9	18.3	0.00e+00	0	34	0	663748608	65	4512
2026-01-17 10:37:54.42	226.83	50.32	-46.6	-48.1	19.2	0.00e+00	0	34	0	671088640	64	4358
2026-01-17 10:37:58.46	229.16	50.96	-45.6	-46.9	20.4	0.00e+00	0	34	0	678428672	63	4012
2026-01-17 10:38:02.49	231.58	51.57	-46.2	-47.6	19.7	0.00e+00	0	35	0	685768704	62	4608
2026-01-17 10:38:06.52	234.10	52.12	-45.9	-47.2	20.1	0.00e+00	0	34	0	694157312	62	4440
2026-01-17 10:38:10.55	236.70	52.62	-45.8	-47.1	20.0	0.00e+00	0	34	0	701497344	62	4387
2026-01-17 10:38:14.58	239.40	53.07	-46.1	-47.5	19.8	0.00e+00	0	34	0	708837376	63	4303
2026-01-17 10:38:18.61	242.16	53.46	-46.5	-47.9	19.5	0.00e+00	0	34	0	716177408	63	4538
2026-01-17 10:38:22.65	245.01	53.77	-47.1	-48.7	18.6	0.00e+00	0	34	0	723517440	64	4682
2026-01-17 10:38:26.68	247.90	54.02	-46.8	-48.3	19.0	0.00e+00	0	34	0	730857472	64	4471
2026-01-17 10:38:30.72	250.84	54.20	-46.2	-47.6	19.7	0.00e+00	0	34	0	739246080	64	4104
2026-01-17 10:38:34.75	253.80	54.30	-47.2	-48.9	18.4	0.00e+00	0	34	0	746586112	65	4494
2026-01-17 10:38:38.78	256.78	54.33	-46.4	-47.8	19.5	0.00e+00	0	34	0	753926144	64	4223
2026-01-17 10:38:42.82	259.75	54.28	-45.7	-46.9	20.3	0.00e+00	0	34	0	761266176	63	4041
2026-01-17 10:38:46.85	262.71	54.15	-46.1	-47.5	19.9	0.00e+00	0	34	0	769654784	63	4305
2026-01-17 10:38:50.89	265.63	53.95	-45.6	-46.9	20.5	0.00e+00	0	34	0	776994816	63	4016
2026-01-17 10:38:54.92	268.51	53.68	-45.9	-47.2	20.2	0.00e+00	0	34	0	784334848	62	4429
2026-01-17 10:38:58.95	271.32	53.34	-46.3	-47.7	19.8	0.00e+00	0	34	0	791674880	63	4424
2026-01-17 10:39:02.98	274.06	52.93	-46.8	-48.4	19.0	0.00e+00	0	35	0	799014912	64	4517
2026-01-17 10:39:07.01	276.72	52.47	-46.7	-48.2	19.1	0.00e+00	0	34	0	807403520	64	4419
2026-01-17 10:39:11.05	279.30	51.95	-46.2	-47.5	19.7	0.00e+00	0	35	0	814743552	64	4090
2026-01-17 10:39:15.08	281.79	51.38	-46.5	-48.0	19.4	0.00e+00	0	35	0	822083584	64	4300
2026-01-17 10:39:19.11	284.17	50.76	-45.5	-46.7	20.6	0.00e+00	0	35	0	829423616	62	4188
2026-01-17 10:39:23.14	286.46	50.10	-45.4	-46.6	20.7	0.00e+00	0	34	0	837812224	61	4379
2026-01-17 10:39:27.18	288.65	49.41	-45.8	-47.1	20.2	0.00e+00	0	34	0	845152256	63	4131
2026-01-17 10:39:31.21	290.74	48.69	-46.9	-48.6	18.9	0.00e+00	0	34	0	852492288	64	4600
2026-01-17 10:39:35.24	292.74	47.94	-48.1	-50.0	17.5	0.00e+00	0	34	0	859832320	66	4830
2026-01-17 10:39:39.27	294.64	47.17	-48.8	-50.9	16.7	0.00e+00	0	34	0	867172352	68	4808
2026-01-17 10:39:43.30	296.45	46.38	-48.4	-50.5	17.1	0.00e+00	0	35	0	875560960	68	4547
2026-01-17 10:39:47.34	298.17	45.58	-50.3	-53.3	14.4	0.00e+00	0	34	0	882900992	71	5314
2026-01-17 10:39:51.37	299.80	44.77	-49.7	-52.3	15.4	0.00e+00	0	34	0	890241024	71	4721
2026-01-17 10:39:55.41	301.36	43.95	-50.4	-53.5	14.0	6.10e-06	0	34	0	897581056	72	5134
2026-01-17 10:39:59.44	302.84	43.13	-52.4	-58.7	8.6	1.78e-02	0	35	0	904921088	75	7832
2026-01-17 10:40:03.47	304.24	42.30	-48.8	-51.0	16.6	0.00e+00	0	35	0	913309696	69	4573
2026-01-17 10:40:07.50	305.58	41.48	-49.7	-52.4	15.2	0.00e+00	0	35	0	920649728	71	4762
2026-01-17 10:40:11.54	306.85	40.66	-47.4	-49.1	18.3	0.00e+00	0	34	0	927989760	65	4623
2026-01-17 10:40:15.57	308.06	39.84	-46.6	-48.1	19.2	0.00e+00	0	35	0	935329792	65	4121
2026-01-17 10:40:19.61	309.21	39.03	-49.1	-51.4	16.3	0.00e+00	0	35	0	943718400	68	5094
2026-01-17 10:40:23.64	310.30	38.23	-47.1	-48.6	18.7	0.00e+00	0	34	0	951058432	66	4134
2026-01-17 10:40:27.67	311.35	37.43	-48.1	-50.1	17.4	0.00e+00	0	35	0	958398464	66	4906
2026-01-17 10:40:31.70	312.34	36.64	-46.6	-48.1	19.3	0.00e+00	0	34	0	965738496	65	4133
2026-01-17 10:40:35.74	313.29	35.87	-46.3	-47.7	19.8	0.00e+00	0	34	0	973078528	63	4407
2026-01-17 10:40:39.77	314.20	35.10	-47.2	-48.9	18.5	0.00e+00	0	35	0	980418560	66	4259
2026-01-17 10:40:43.80	315.06	34.35	-47.4	-49.1	18.3	0.00e+00	0	34	0	988807168	65	4618
2026-01-17 10:40:47.83	315.89	33.60	-49.5	-52.1	15.5	0.00e+00	0	35	0	996147200	69	5173
2026-01-17 10:40:51.86	316.68	32.87	-47.9	-49.8	17.7	0.00e+00	0	35	0	1003487232	67	4443
2026-01-17 10:40:55.90	317.44	32.15	-47.8	-49.7	17.8	0.00e+00	0	35	0	1010827264	66	4652
2026-01-17 10:40:59.93	318.17	31.44	-49.8	-52.5	15.1	0.00e+00	0	35	0	1019215872	70	5109
2026-01-17 10:41:03.96	318.86	30.75	-48.1	-50.1	17.6	0.00e+00	0	35	0	1026555904	68	4344
2026-01-17 10:41:07.99	319.53	30.06	-47.1	-48.7	18.7	0.00e+00	0	34	0	1033895936	66	4157
2026-01-17 10:41:12.02	320.17	29.39	-49.2	-51.6	15.9	0.00e+00	0	34	0	1041235968	68	5185
2026-01-17 10:41:16.06	320.79	28.73	-48.5	-50.7	16.8	0.00e+00	0	35	0	1048576000	69	4399
2026-01-17 10:41:20.09	321.38	28.08	-46.5	-48.0	19.2	0.00e+00	0	34	0	1056964608	65	4066
2026-01-17 10:41:24.13	321.95	27.45	-46.1	-47.4	19.8	0.00e+00	0	34	0	1064304640	63	4267
2026-01-17 10:41:28.16	322.50	26.83	-47.8	-49.7	17.6	0.00e+00	0	35	0	1071644672	66	4676
2026-01-17 10:41:32.19	323.02	26.21	-48.3	-50.5	17.0	0.00e+00	0	34	0	1078984704	68	4549
2026-01-17 10:41:36.22	323.53	25.61	-46.1	-47.4	19.8	0.00e+00	0	34	0	1087373312	63	4278
2026-01-17 10:41:40.26	324.03	25.02	-46.1	-47.4	19.7	0.00e+00	0	35	0	1094713344	63	4290
2026-01-17 10:41:44.29	324.50	24.44	-47.5	-49.2	18.1	0.00e+00	0	34	0	1102053376	65	4678
2026-01-17 10:41:48.32	324.96	23.88	-47.7	-49.6	17.7	0.00e+00	0	34	0	1109393408	66	4621
2026-01-17 10:41:52.35	325.40	23.32	-47.6	-49.4	17.8	0.00e+00	0	34	0	1116733440	66	4513
2026-01-17 10:41:56.38	325.83	22.77	-46.3	-47.7	19.3	0.00e+00	0	34	0	1124073472	64	4192
2026-01-17 10:42:00.42	326.24	22.24	-46.2	-47.6	19.5	0.00e+00	0	34	0	1132462080	64	4131
2026-01-17 10:42:04.45	326.64	21.71	-46.5	-48.1	19.0	0.00e+00	0	34	0	1139802112	64	4363
2026-01-17 10:42:08.48	327.03	21.19	-47.0	-48.7	18.4	0.00e+00	0	34	0	1147142144	64	4697
2026-01-17 10:42:12.52	327.40	20.68	-47.2	-49.0	18.0	0.00e+00	0	34	0	1154482176	65	4560
2026-01-17 10:42:16.55	327.77	20.18	-46.8	-48.4	18.6	0.00e+00	0	34	0	1162870784	65	4250
2026-01-17 10:42:20.58	328.12	19.69	-46.1	-47.5	19.5	0.00e+00	0	34	0	1170210816	64	4069
2026-01-17 10:42:24.61	328.46	19.21	-46.1	-47.5	19.6	0.00e+00	0	35	0	1177550848	63	4315
2026-01-17 10:42:28.65	328.79	18.74	-46.6	-48.2	18.9	0.00e+00	0	34	0	1184890880	63	4680
2026-01-17 10:42:32.68	329.12	18.27	-46.7	-48.3	18.7	0.00e+00	0	34	0	1192230912	64	4483
2026-01-17 10:42:36.71	329.43	17.81	-46.2	-47.7	19.1	0.00e+00	0	35	0	1200619520	64	4168
2026-01-17 10:42:40.74	329.74	17.36	-45.6	-46.9	20.0	0.00e+00	0	34	0	1207959552	62	4260
2026-01-17 10:42:44.78	330.03	16.92	-45.1	-46.3	20.5	0.00e+00	0	34	0	1215299584	61	4209
2026-01-17 10:42:48.81	330.32	16.49	-44.8	-46.0	20.8	0.00e+00	0	34	0	1222639616	61	4076
2026-01-17 10:42:52.85	330.60	16.06	-45.2	-46.5	20.3	0.00e+00	0	34	0	1229979648	61	4314
2026-01-17 10:42:56.89	330.88	15.63	-45.9	-47.3	19.5	0.00e+00	0	35	0	1238368256	62	4485
2026-01-17 10:43:00.92	331.14	15.22	-46.7	-48.3	18.6	0.00e+00	0	35	0	1245708288	64	4476
2026-01-17 10:43:04.95	331.40	14.81	-47.5	-49.5	17.4	0.00e+00	0	34	0	1253048320	65	4843
2026-01-17 10:43:08.97	331.66	14.41	-47.9	-50.0	17.0	0.00e+00	0	34	0	1260388352	66	4839
2026-01-17 10:43:13.01	331.91	14.01	-47.7	-49.8	17.1	0.00e+00	0	35	0	1268776960	66	4718
2026-01-17 10:43:17.04	332.15	13.62	-47.1	-48.9	17.9	0.00e+00	0	34	0	1276116992	66	4281
2026-01-17 10:43:21.08	332.38	13.24	-46.4	-47.9	18.8	0.00e+00	0	35	0	1283457024	64	4277
2026-01-17 10:43:25.11	332.61	12.86	-45.9	-47.3	19.4	0.00e+00	0	34	0	1290797056	63	4214
2026-01-17 10:43:29.14	332.84	12.49	-46.0	-47.4	19.3	0.00e+00	0	35	0	1298137088	63	4278
2026-01-17 10:43:33.18	333.06	12.12	-46.3	-47.9	18.9	0.00e+00	0	35	0	1306525696	63	4510
2026-01-17 10:43:37.21	333.27	11.76	-46.0	-47.5	19.2	0.00e+00	0	34	0	1313865728	63	4331
2026-01-17 10:43:41.24	333.48	11.40	-46.3	-47.9	18.8	0.00e+00	0	34	0	1321205760	63	4519
2026-01-17 10:43:45.28	333.69	11.05	-46.5	-48.1	18.6	0.00e+00	0	34	0	1328545792	63	4621
2026-01-17 10:43:49.32	333.89	10.70	-46.7	-48.5	18.1	0.00e+00	0	34	0	1335885824	64	4546
2026-01-17 10:43:53.35	334.09	10.35	-46.9	-48.7	18.0	0.00e+00	0	34	0	1344274432	64	4661
2026-01-17 10:43:57.39	334.28	10.02	-47.0	-48.9	17.8	0.00e+00	0	34	0	1351614464	64	4766
2026-01-17 10:44:01.43	334.47	9.68	-46.9	-48.8	17.8	0.00e+00	0	35	0	1358954496	65	4460
2026-01-17 10:44:05.46	334.65	9.35	-47.0	-48.9	17.7	0.00e+00	0	34	0	1366294528	65	4514
2026-01-17 10:44:09.49	334.83	9.02	-47.1	-49.1	17.5	0.00e+00	0	35	0	1374683136	65	4606
2026-01-17 10:44:13.52	335.01	8.70	-47.0	-48.8	17.6	0.00e+00	0	34	0	1382023168	65	4491
2026-01-17 10:44:17.56	335.18	8.38	-47.0	-48.9	17.5	0.00e+00	0	34	0	1389363200	65	4535
2026-01-17 10:44:21.59	335.36	8.07	-47.3	-49.2	17.2	0.00e+00	0	35	0	1396703232	65	4699
2026-01-17 10:44:25.63	335.52	7.76	-47.5	-49.6	16.9	0.00e+00	0	34	0	1404043264	65	4889
2026-01-17 10:44:29.66	335.69	7.45	-47.7	-49.8	16.6	0.00e+00	0	35	0	1412431872	66	4747
2026-01-17 10:44:33.69	335.85	7.15	-47.8	-50.1	16.3	0.00e+00	0	35	0	1419771904	66	4875
2026-01-17 10:44:37.73	336.01	6.85	-47.8	-50.2	15.7	1.07e-02	0	35	0	1427111936	66	4980
2026-01-17 10:44:41.76	336.16	6.55	-48.0	-50.6	15.3	6.93e-03	0	34	0	1434451968	66	5171
2026-01-17 10:44:45.79	336.32	6.26	-48.3	-51.1	14.8	3.92e-03	0	34	0	1442840576	67	5210
2026-01-17 10:44:49.83	336.47	5.96	-48.4	-51.0	15.2	0.00e+00	0	34	0	1450180608	68	4851
2026-01-17 10:44:53.86	336.61	5.68	-49.0	-52.1	14.1	2.20e-06	0	35	0	1457520640	68	5516
2026-01-17 10:44:57.89	336.76	5.39	-48.9	-52.0	14.2	1.50e-06	0	35	0	1464860672	68	5428
2026-01-17 10:45:01.92	336.90	5.11	-49.0	-52.1	14.0	2.20e-06	0	35	0	1472200704	68	5500
2026-01-17 10:45:05.95	337.04	4.83	-53.1	-68.1	3.8	1.49e+00	0	35	104	1476395008	76	21843
2026-01-17 10:45:09.99	337.18	4.56	-53.5	-68.6	3.8	1.49e+00	0	35	104	1476395008	77	21790
2026-01-17 10:45:14.02	337.32	4.28	-53.8	-68.8	3.8	1.49e+00	0	35	104	1476395008	78	21217
2026-01-17 10:45:18.06	337.45	4.01	-53.9	-68.9	3.8	1.49e+00	0	35	104	1476395008	78	21352
2026-01-17 10:45:22.09	337.58	3.74	-53.9	-68.9	3.8	1.49e+00	0	35	104	1476395008	78	21447
2026-01-17 10:45:26.13	337.71	3.48	-53.8	-68.9	3.8	1.49e+00	0	35	104	1476395008	78	21315
2026-01-17 10:45:30.16	337.84	3.22	-53.8	-68.9	3.8	1.49e+00	0	35	104	1476395008	78	21264
2026-01-17 10:45:34.20	337.97	2.95	-53.8	-68.8	3.8	1.49e+00	0	35	104	1476395008	78	21238
2026-01-17 10:45:38.23	338.09	2.70	-53.8	-68.8	3.8	1.49e+00	0	35	104	1476395008	78	21235
2026-01-17 10:45:42.26	338.21	2.44	-53.8	-68.8	3.8	1.49e+00	0	35	104	1476395008	78	21141
2026-01-17 10:45:46.29	338.33	2.19	-53.8	-68.8	3.8	1.49e+00	0	35	104	1476395008	78	21065
2026-01-17 10:45:50.32	338.45	1.93	-53.8	-68.8	3.8	1.49e+00	0	35	104	1476395008	78	21140

#Closed at: 2026-01-17 10:45:52
#Recorded file [1476 MB]: D:/lorett/data/31041_260117_133131.dat