passes_logs/2026/01/17/R3.2S_Murmansk/R3.2S_Murmansk__20260117_085105_SUOMI_NPP_rec.log

#Pass ID: 20260117_085105_SUOMI NPP
#Satellite: SUOMI NPP
#Configuration: NPP
#almurnet v.1.7.20251203
#Start time: 2026-01-17 08:51:07

#Version: 2.2.20231116
#Station: R3.2S_Murmansk
#Location: 33.079688 lon 68.888172 lat
#TLE: 1 37849U 11061A   26016.58419598  .00000058  00000+0  48257-4 0  9996
#TLE: 2 37849  98.7812 318.6192 0002422  60.8544 299.2874 14.19525580736934

#Time	Az	El	Level	Level2	SNR	BER	BlckErr	Temp	State	Recorded	gain1	gain2
2026-01-17 08:51:07.10	134.02	2.08	-51.8	-66.8	3.8	1.49e+00	0	32	0	0	75	19842
2026-01-17 08:51:11.12	133.95	2.34	-51.8	-66.8	3.8	1.49e+00	0	32	104	0	74	21023
2026-01-17 08:51:15.16	133.88	2.60	-51.8	-66.7	3.8	1.49e+00	0	32	104	0	74	20973
2026-01-17 08:51:19.19	133.82	2.86	-51.8	-66.7	3.8	1.49e+00	0	32	104	0	74	20920
2026-01-17 08:51:23.23	133.74	3.13	-51.8	-66.7	3.8	1.49e+00	0	33	104	0	74	20858
2026-01-17 08:51:27.26	133.67	3.40	-51.8	-66.5	3.8	1.49e+00	0	33	104	0	74	20519
2026-01-17 08:51:31.30	133.60	3.67	-51.7	-65.6	3.8	1.49e+00	0	33	104	0	74	18344
2026-01-17 08:51:35.32	133.52	3.94	-51.6	-63.9	4.0	1.47e+00	0	33	104	0	74	15116
2026-01-17 08:51:39.36	133.45	4.22	-51.4	-61.4	4.9	8.95e-01	0	33	0	2097152	74	11299
2026-01-17 08:51:43.39	133.37	4.50	-50.5	-56.6	8.7	4.56e-02	0	33	0	9437184	73	6952
2026-01-17 08:51:47.43	133.29	4.78	-48.7	-51.9	13.7	6.10e-06	0	33	0	16777216	69	5089
2026-01-17 08:51:51.47	133.21	5.07	-48.9	-52.3	13.5	0.00e+00	0	33	0	25165824	68	5637
2026-01-17 08:51:55.50	133.12	5.36	-47.1	-49.2	16.4	2.10e-03	0	33	0	32505856	66	4429
2026-01-17 08:51:59.53	133.04	5.65	-47.1	-49.3	16.4	0.00e+00	0	33	0	39845888	65	4728
2026-01-17 08:52:03.56	132.95	5.95	-47.1	-49.3	16.5	0.00e+00	0	33	0	47185920	65	4709
2026-01-17 08:52:07.60	132.86	6.24	-46.7	-48.6	17.2	0.00e+00	0	33	0	54525952	65	4389
2026-01-17 08:52:11.63	132.77	6.55	-46.6	-48.6	17.3	0.00e+00	0	33	0	62914560	64	4606
2026-01-17 08:52:15.66	132.67	6.85	-46.6	-48.6	17.4	0.00e+00	0	33	0	70254592	64	4603
2026-01-17 08:52:19.70	132.57	7.16	-46.4	-48.3	17.7	0.00e+00	0	33	0	77594624	64	4461
2026-01-17 08:52:23.73	132.48	7.47	-46.1	-47.9	18.1	0.00e+00	0	33	0	84934656	64	4249
2026-01-17 08:52:27.76	132.37	7.79	-46.3	-48.1	17.9	0.00e+00	0	33	0	92274688	64	4391
2026-01-17 08:52:31.80	132.27	8.11	-46.2	-47.9	18.2	0.00e+00	0	33	0	100663296	64	4284
2026-01-17 08:52:35.83	132.16	8.43	-46.1	-47.8	18.3	0.00e+00	0	34	0	108003328	64	4236
2026-01-17 08:52:39.86	132.05	8.76	-46.1	-47.8	18.5	0.00e+00	0	33	0	115343360	63	4449
2026-01-17 08:52:43.90	131.94	9.09	-46.0	-47.6	18.7	0.00e+00	0	34	0	122683392	63	4371
2026-01-17 08:52:47.93	131.83	9.43	-45.6	-47.1	19.2	0.00e+00	0	33	0	131072000	63	4125
2026-01-17 08:52:51.96	131.71	9.77	-45.6	-47.2	19.2	0.00e+00	0	34	0	138412032	63	4150
2026-01-17 08:52:56.00	131.59	10.12	-45.4	-46.8	19.5	0.00e+00	0	34	0	145752064	62	4231
2026-01-17 08:53:00.03	131.46	10.47	-45.4	-46.9	19.4	0.00e+00	0	34	0	153092096	62	4244
2026-01-17 08:53:04.05	131.34	10.82	-45.6	-47.1	19.3	0.00e+00	0	33	0	160432128	62	4347
2026-01-17 08:53:08.08	131.20	11.18	-45.3	-46.8	19.6	0.00e+00	0	34	0	167772160	62	4208
2026-01-17 08:53:12.11	131.07	11.55	-45.3	-46.8	19.6	0.00e+00	0	34	0	176160768	62	4196
2026-01-17 08:53:16.15	130.93	11.92	-45.3	-46.7	19.7	0.00e+00	0	34	0	183500800	62	4150
2026-01-17 08:53:20.18	130.79	12.29	-45.2	-46.6	19.8	0.00e+00	0	34	0	190840832	62	4135
2026-01-17 08:53:24.21	130.64	12.68	-45.2	-46.7	19.7	0.00e+00	0	34	0	198180864	62	4151
2026-01-17 08:53:28.24	130.49	13.06	-45.1	-46.5	19.8	0.00e+00	0	34	0	206569472	62	4084
2026-01-17 08:53:32.28	130.34	13.46	-45.3	-46.8	19.6	0.00e+00	0	34	0	213909504	62	4205
2026-01-17 08:53:36.31	130.18	13.86	-45.2	-46.7	19.7	0.00e+00	0	34	0	221249536	62	4158
2026-01-17 08:53:40.34	130.01	14.27	-45.1	-46.6	19.8	0.00e+00	0	34	0	228589568	62	4120
2026-01-17 08:53:44.38	129.84	14.68	-45.1	-46.5	19.9	0.00e+00	0	34	0	235929600	62	4066
2026-01-17 08:53:48.41	129.67	15.10	-45.0	-46.4	20.0	0.00e+00	0	34	0	244318208	61	4276
2026-01-17 08:53:52.44	129.49	15.53	-44.8	-46.1	20.3	0.00e+00	0	34	0	251658240	61	4117
2026-01-17 08:53:56.47	129.30	15.96	-44.9	-46.3	20.2	0.00e+00	0	34	0	258998272	61	4201
2026-01-17 08:54:00.50	129.11	16.41	-45.0	-46.4	20.1	0.00e+00	0	34	0	266338304	61	4248
2026-01-17 08:54:04.54	128.91	16.86	-44.9	-46.2	20.3	0.00e+00	0	34	0	274726912	61	4184
2026-01-17 08:54:08.58	128.71	17.32	-44.9	-46.2	20.3	0.00e+00	0	34	0	282066944	61	4173
2026-01-17 08:54:12.61	128.49	17.78	-45.0	-46.4	20.1	0.00e+00	0	34	0	289406976	61	4259
2026-01-17 08:54:16.64	128.28	18.26	-45.0	-46.4	20.1	0.00e+00	0	34	0	296747008	61	4267
2026-01-17 08:54:20.68	128.05	18.74	-45.1	-46.4	20.1	0.00e+00	0	34	0	304087040	61	4283
2026-01-17 08:54:24.71	127.82	19.23	-45.1	-46.4	20.1	0.00e+00	0	34	0	312475648	61	4286
2026-01-17 08:54:28.74	127.58	19.74	-44.9	-46.2	20.3	0.00e+00	0	34	0	319815680	61	4184
2026-01-17 08:54:32.78	127.33	20.25	-45.0	-46.3	20.3	0.00e+00	0	34	0	327155712	61	4224
2026-01-17 08:54:36.81	127.07	20.77	-45.2	-46.6	20.0	0.00e+00	0	34	0	334495744	61	4377
2026-01-17 08:54:40.84	126.80	21.30	-45.6	-47.1	19.6	0.00e+00	0	34	0	341835776	61	4615
2026-01-17 08:54:44.87	126.52	21.85	-45.9	-47.4	19.2	0.00e+00	0	34	0	350224384	62	4526
2026-01-17 08:54:48.91	126.23	22.40	-45.9	-47.5	19.2	0.00e+00	0	34	0	357564416	62	4566
2026-01-17 08:54:52.94	125.93	22.97	-45.5	-47.0	19.7	0.00e+00	0	34	0	364904448	62	4301
2026-01-17 08:54:56.97	125.62	23.55	-45.6	-47.1	19.7	0.00e+00	0	34	0	372244480	62	4341
2026-01-17 08:55:01.00	125.29	24.14	-46.0	-47.6	19.1	0.00e+00	0	34	0	380633088	62	4641
2026-01-17 08:55:05.04	124.96	24.74	-46.5	-48.2	18.6	0.00e+00	0	34	0	387973120	63	4702
2026-01-17 08:55:09.07	124.61	25.35	-46.6	-48.3	18.5	0.00e+00	0	34	0	395313152	64	4482
2026-01-17 08:55:13.10	124.24	25.98	-46.6	-48.3	18.4	0.00e+00	0	34	0	402653184	64	4492
2026-01-17 08:55:17.13	123.86	26.63	-46.5	-48.2	18.6	0.00e+00	0	34	0	409993216	64	4435
2026-01-17 08:55:21.17	123.46	27.28	-46.8	-48.6	18.2	0.00e+00	0	34	0	417333248	64	4641
2026-01-17 08:55:25.19	123.05	27.95	-46.9	-48.7	18.2	0.00e+00	0	34	0	425721856	65	4412
2026-01-17 08:55:29.23	122.62	28.64	-46.9	-48.7	18.1	0.00e+00	0	34	0	433061888	65	4423
2026-01-17 08:55:33.26	122.16	29.34	-47.8	-50.0	16.9	0.00e+00	0	34	0	440401920	66	4824
2026-01-17 08:55:37.30	121.69	30.06	-47.7	-49.8	17.2	0.00e+00	0	34	0	447741952	66	4714
2026-01-17 08:55:41.33	121.19	30.79	-47.9	-50.1	16.8	0.00e+00	0	34	0	456130560	66	4881
2026-01-17 08:55:45.36	120.67	31.54	-48.4	-50.7	16.3	0.00e+00	0	34	0	463470592	67	4981
2026-01-17 08:55:49.39	120.13	32.30	-47.9	-50.1	16.8	0.00e+00	0	34	0	470810624	67	4623
2026-01-17 08:55:53.43	119.56	33.09	-47.6	-49.7	17.2	0.00e+00	0	34	0	478150656	66	4696
2026-01-17 08:55:57.46	118.95	33.88	-48.0	-50.2	16.7	0.00e+00	0	34	0	485490688	67	4677
2026-01-17 08:56:01.49	118.32	34.70	-47.4	-49.4	17.5	0.00e+00	0	34	0	493879296	66	4525
2026-01-17 08:56:05.52	117.66	35.53	-48.3	-50.8	16.2	0.00e+00	0	34	0	501219328	67	4996
2026-01-17 08:56:09.55	116.95	36.38	-48.7	-51.7	15.4	0.00e+00	0	34	0	508559360	68	5222
2026-01-17 08:56:13.58	116.21	37.25	-49.6	-53.4	13.6	3.80e-06	0	34	0	515899392	70	5704
2026-01-17 08:56:17.62	115.43	38.14	-48.9	-51.9	15.0	7.00e-07	0	34	0	524288000	69	5095
2026-01-17 08:56:21.65	114.60	39.04	-47.4	-49.4	17.5	0.00e+00	0	34	0	531628032	66	4545
2026-01-17 08:56:25.68	113.73	39.96	-47.2	-49.2	17.7	0.00e+00	0	34	0	538968064	65	4678
2026-01-17 08:56:29.72	112.80	40.90	-47.9	-50.1	16.8	0.00e+00	0	34	0	546308096	66	4926
2026-01-17 08:56:33.75	111.82	41.85	-48.1	-50.5	16.5	0.00e+00	0	34	0	553648128	66	5151
2026-01-17 08:56:37.78	110.77	42.82	-48.4	-50.7	16.4	0.00e+00	0	34	0	560988160	68	4700
2026-01-17 08:56:41.82	109.66	43.80	-48.6	-51.0	16.0	0.00e+00	0	34	0	569376768	68	4860
2026-01-17 08:56:45.85	108.48	44.79	-48.3	-50.7	16.3	0.00e+00	0	34	0	576716800	67	4976
2026-01-17 08:56:49.88	107.22	45.80	-48.0	-50.2	16.7	0.00e+00	0	34	0	584056832	67	4705
2026-01-17 08:56:53.91	105.88	46.81	-46.8	-48.6	18.3	0.00e+00	0	34	0	591396864	64	4641
2026-01-17 08:56:57.94	104.44	47.82	-46.6	-48.4	18.4	0.00e+00	0	34	0	599785472	64	4534
2026-01-17 08:57:01.97	102.91	48.84	-47.5	-49.6	17.3	0.00e+00	0	34	0	607125504	65	4924
2026-01-17 08:57:06.01	101.27	49.87	-47.0	-48.9	17.8	0.00e+00	0	34	0	614465536	65	4533
2026-01-17 08:57:10.04	99.52	50.88	-46.3	-48.0	18.9	0.00e+00	0	34	0	621805568	63	4547
2026-01-17 08:57:14.07	97.64	51.89	-44.6	-45.9	20.9	0.00e+00	0	34	0	629145600	60	4251
2026-01-17 08:57:18.10	95.64	52.88	-45.5	-47.0	19.9	0.00e+00	0	34	0	637534208	61	4548
2026-01-17 08:57:22.14	93.49	53.86	-47.4	-49.6	17.3	0.00e+00	0	34	0	644874240	65	4910
2026-01-17 08:57:26.17	91.19	54.81	-45.6	-47.0	19.9	0.00e+00	0	34	0	652214272	62	4333
2026-01-17 08:57:30.20	88.74	55.72	-45.9	-47.5	19.6	0.00e+00	0	34	0	659554304	63	4296
2026-01-17 08:57:34.23	86.13	56.60	-45.9	-47.4	19.6	0.00e+00	0	34	0	666894336	63	4275
2026-01-17 08:57:38.26	83.35	57.43	-46.2	-47.8	19.6	0.00e+00	0	34	0	675282944	63	4465
2026-01-17 08:57:42.29	80.41	58.19	-45.7	-47.2	19.8	0.00e+00	0	34	0	682622976	62	4411
2026-01-17 08:57:46.32	77.29	58.90	-46.7	-48.6	18.4	0.00e+00	0	34	0	689963008	64	4602
2026-01-17 08:57:50.36	74.01	59.53	-45.8	-47.3	19.5	0.00e+00	0	34	0	697303040	63	4229
2026-01-17 08:57:54.39	70.58	60.07	-47.0	-49.0	18.0	0.00e+00	0	34	0	704643072	65	4580
2026-01-17 08:57:58.43	67.00	60.52	-46.7	-48.7	18.3	0.00e+00	0	34	0	713031680	64	4676
2026-01-17 08:58:02.46	63.32	60.87	-46.1	-47.7	19.4	0.00e+00	0	34	0	720371712	63	4415
2026-01-17 08:58:06.49	59.56	61.12	-44.5	-45.7	21.0	0.00e+00	0	34	0	727711744	60	4175
2026-01-17 08:58:10.52	55.73	61.26	-44.0	-45.1	21.8	0.00e+00	0	34	0	735051776	59	4129
2026-01-17 08:58:14.56	51.87	61.28	-45.0	-46.4	20.5	0.00e+00	0	33	0	743440384	60	4507
2026-01-17 08:58:18.59	48.04	61.19	-43.9	-45.0	21.9	0.00e+00	0	34	0	750780416	59	4084
2026-01-17 08:58:22.62	44.24	60.99	-45.4	-46.9	20.0	0.00e+00	0	34	0	758120448	61	4520
2026-01-17 08:58:26.65	40.53	60.68	-45.8	-47.3	19.9	0.00e+00	0	34	0	765460480	62	4480
2026-01-17 08:58:30.69	36.91	60.26	-45.4	-46.8	20.3	0.00e+00	0	34	0	772800512	62	4219
2026-01-17 08:58:34.71	33.43	59.76	-46.3	-48.0	18.9	0.00e+00	0	34	0	781189120	64	4324
2026-01-17 08:58:38.74	30.10	59.16	-45.6	-47.0	20.1	0.00e+00	0	34	0	788529152	61	4580
2026-01-17 08:58:42.78	26.91	58.49	-44.8	-46.0	21.0	0.00e+00	0	34	0	795869184	60	4312
2026-01-17 08:58:46.81	23.90	57.75	-45.7	-47.1	20.1	0.00e+00	0	33	0	803209216	63	4128
2026-01-17 08:58:50.84	21.05	56.94	-48.4	-50.9	16.3	0.00e+00	0	34	0	810549248	67	5090
2026-01-17 08:58:54.87	18.38	56.09	-47.8	-49.9	17.2	0.00e+00	0	33	0	818937856	66	4809
2026-01-17 08:58:58.90	15.87	55.19	-45.7	-47.0	20.0	0.00e+00	0	34	0	826277888	63	4094
2026-01-17 08:59:02.94	13.51	54.25	-45.2	-46.5	20.5	0.00e+00	0	34	0	833617920	61	4306
2026-01-17 08:59:06.97	11.31	53.29	-46.3	-48.0	19.2	0.00e+00	0	34	0	840957952	63	4566
2026-01-17 08:59:11.00	9.25	52.31	-44.5	-45.7	21.2	0.00e+00	0	33	0	849346560	60	4154
2026-01-17 08:59:15.04	7.32	51.30	-47.2	-49.1	17.9	0.00e+00	0	34	0	856686592	66	4390
2026-01-17 08:59:19.07	5.53	50.29	-45.8	-47.3	19.9	0.00e+00	0	34	0	864026624	62	4454
2026-01-17 08:59:23.11	3.84	49.28	-47.9	-50.1	17.0	0.00e+00	0	33	0	871366656	67	4601
2026-01-17 08:59:27.14	2.27	48.26	-46.3	-47.8	19.3	0.00e+00	0	34	0	878706688	63	4469
2026-01-17 08:59:31.17	0.80	47.24	-47.1	-48.8	18.3	0.00e+00	0	34	0	887095296	66	4224
2026-01-17 08:59:35.21	359.42	46.23	-47.1	-48.8	18.2	0.00e+00	0	34	0	894435328	66	4240
2026-01-17 08:59:39.24	358.13	45.23	-47.2	-49.0	18.0	0.00e+00	0	34	0	901775360	66	4314
2026-01-17 08:59:43.27	356.92	44.23	-47.9	-50.1	17.1	0.00e+00	0	34	0	909115392	66	4878
2026-01-17 08:59:47.31	355.78	43.25	-46.9	-49.2	17.7	0.00e+00	0	33	0	916455424	66	4433
2026-01-17 08:59:51.34	354.72	42.28	-47.4	-49.2	17.9	0.00e+00	0	33	0	924844032	65	4693
2026-01-17 08:59:55.37	353.71	41.32	-48.9	-51.3	16.0	0.00e+00	0	34	0	932184064	68	5032
2026-01-17 08:59:59.40	352.76	40.38	-49.2	-51.8	15.6	7.00e-07	0	34	0	939524096	68	5286
2026-01-17 09:00:03.44	351.87	39.46	-51.0	-55.4	11.8	4.28e-04	0	34	0	946864128	72	6410
2026-01-17 09:00:07.47	351.02	38.55	-49.2	-51.8	15.5	0.00e+00	0	33	0	954204160	70	4754
2026-01-17 09:00:11.50	350.23	37.66	-50.3	-53.9	13.4	1.52e-05	0	34	0	962592768	71	5686
2026-01-17 09:00:15.53	349.47	36.79	-49.3	-52.0	15.5	0.00e+00	0	33	0	969932800	70	4821
2026-01-17 09:00:19.56	348.76	35.93	-49.5	-52.3	14.9	0.00e+00	0	34	0	977272832	70	5008
2026-01-17 09:00:23.60	348.08	35.09	-49.5	-52.4	14.6	1.50e-06	0	34	0	984612864	70	5050
2026-01-17 09:00:27.63	347.43	34.27	-49.0	-51.7	15.5	0.00e+00	0	34	0	993001472	69	4973
2026-01-17 09:00:31.66	346.82	33.47	-47.8	-49.8	17.2	0.00e+00	0	34	0	1000341504	67	4482
2026-01-17 09:00:35.69	346.24	32.68	-48.4	-50.7	16.4	0.00e+00	0	34	0	1007681536	67	4980
2026-01-17 09:00:39.73	345.68	31.91	-48.2	-50.5	16.6	0.00e+00	0	34	0	1015021568	67	4858
2026-01-17 09:00:43.76	345.16	31.16	-49.1	-51.8	15.4	0.00e+00	0	34	0	1022361600	69	5039
2026-01-17 09:00:47.79	344.65	30.42	-46.3	-47.8	19.2	0.00e+00	0	34	0	1030750208	64	4222
2026-01-17 09:00:51.82	344.17	29.70	-46.7	-48.4	18.6	0.00e+00	0	33	0	1038090240	64	4529
2026-01-17 09:00:55.86	343.71	28.99	-47.0	-48.8	18.2	0.00e+00	0	34	0	1045430272	65	4479
2026-01-17 09:00:59.89	343.27	28.31	-49.3	-52.2	15.0	0.00e+00	0	34	0	1052770304	69	5241
2026-01-17 09:01:03.92	342.85	27.63	-49.1	-51.7	15.4	0.00e+00	0	34	0	1060110336	69	4981
2026-01-17 09:01:07.95	342.45	26.97	-47.8	-49.9	17.1	0.00e+00	0	34	0	1068498944	67	4503
2026-01-17 09:01:11.99	342.06	26.32	-46.8	-48.5	18.4	0.00e+00	0	34	0	1075838976	65	4340
2026-01-17 09:01:16.02	341.69	25.69	-47.0	-48.8	18.1	0.00e+00	0	34	0	1083179008	65	4489
2026-01-17 09:01:20.05	341.34	25.07	-47.8	-49.9	17.0	0.00e+00	0	34	0	1090519040	66	4797
2026-01-17 09:01:24.09	341.00	24.47	-47.7	-49.9	17.1	1.50e-06	0	34	0	1097859072	66	4768
2026-01-17 09:01:28.12	340.67	23.87	-47.9	-50.1	16.8	0.00e+00	0	34	0	1106247680	66	4910
2026-01-17 09:01:32.15	340.35	23.29	-48.9	-51.6	15.5	0.00e+00	0	34	0	1113587712	68	5168
2026-01-17 09:01:36.18	340.05	22.72	-48.6	-51.0	16.0	0.00e+00	0	34	0	1120927744	68	4868
2026-01-17 09:01:40.22	339.76	22.16	-47.2	-49.0	17.8	0.00e+00	0	34	0	1128267776	66	4331
2026-01-17 09:01:44.25	339.48	21.62	-46.3	-48.0	18.8	0.00e+00	0	34	0	1136656384	64	4293
2026-01-17 09:01:48.28	339.21	21.08	-46.2	-47.7	19.1	0.00e+00	0	34	0	1143996416	64	4179
2026-01-17 09:01:52.32	338.95	20.56	-46.2	-47.8	18.9	0.00e+00	0	34	0	1151336448	64	4236
2026-01-17 09:01:56.36	338.69	20.04	-46.8	-48.6	18.2	0.00e+00	0	34	0	1158676480	64	4612
2026-01-17 09:02:00.39	338.45	19.53	-47.3	-49.3	17.5	0.00e+00	0	34	0	1166016512	65	4743
2026-01-17 09:02:04.42	338.22	19.04	-47.1	-49.0	17.8	0.00e+00	0	34	0	1174405120	65	4596
2026-01-17 09:02:08.45	337.99	18.55	-46.8	-48.6	18.2	0.00e+00	0	33	0	1181745152	65	4367
2026-01-17 09:02:12.48	337.77	18.07	-47.3	-49.3	17.5	0.00e+00	0	34	0	1189085184	65	4725
2026-01-17 09:02:16.51	337.56	17.61	-48.0	-50.2	16.5	0.00e+00	0	34	0	1196425216	66	4981
2026-01-17 09:02:20.55	337.35	17.14	-47.7	-49.8	16.9	3.80e-06	0	34	0	1203765248	66	4728
2026-01-17 09:02:24.58	337.15	16.69	-47.1	-49.0	17.7	0.00e+00	0	34	0	1212153856	66	4317
2026-01-17 09:02:28.61	336.96	16.25	-46.3	-47.9	18.7	0.00e+00	0	34	0	1219493888	64	4286
2026-01-17 09:02:32.64	336.78	15.81	-46.3	-48.0	18.6	3.00e-06	0	34	0	1226833920	64	4295
2026-01-17 09:02:36.67	336.60	15.38	-47.0	-49.0	17.3	0.00e+00	0	33	0	1234173952	64	4841
2026-01-17 09:02:40.70	336.42	14.96	-47.3	-49.4	17.1	0.00e+00	0	34	0	1242562560	65	4783
2026-01-17 09:02:44.74	336.25	14.54	-47.7	-49.9	16.7	0.00e+00	0	34	0	1249902592	66	4786
2026-01-17 09:02:48.77	336.09	14.14	-47.7	-50.0	16.5	0.00e+00	0	34	0	1257242624	66	4858
2026-01-17 09:02:52.81	335.93	13.73	-47.4	-49.5	17.0	0.00e+00	0	34	0	1264582656	66	4584
2026-01-17 09:02:56.84	335.77	13.34	-47.5	-49.7	16.9	0.00e+00	0	33	0	1271922688	66	4665
2026-01-17 09:03:00.87	335.62	12.95	-47.5	-49.6	16.9	0.00e+00	0	34	0	1279262720	66	4644
2026-01-17 09:03:04.90	335.47	12.56	-47.7	-49.9	16.6	0.00e+00	0	34	0	1287651328	66	4804
2026-01-17 09:03:08.93	335.33	12.19	-47.6	-49.8	16.7	0.00e+00	0	34	0	1294991360	66	4731
2026-01-17 09:03:12.97	335.19	11.81	-47.9	-50.2	16.4	0.00e+00	0	34	0	1302331392	66	4954
2026-01-17 09:03:17.00	335.06	11.44	-47.8	-50.0	16.5	0.00e+00	0	34	0	1309671424	66	4843
2026-01-17 09:03:21.03	334.93	11.08	-47.7	-49.9	16.6	0.00e+00	0	34	0	1318060032	66	4760
2026-01-17 09:03:25.06	334.80	10.73	-47.5	-49.7	16.8	0.00e+00	0	34	0	1325400064	66	4653
2026-01-17 09:03:29.09	334.68	10.37	-47.4	-49.4	17.0	0.00e+00	0	33	0	1332740096	66	4531
2026-01-17 09:03:33.12	334.56	10.03	-47.5	-49.6	16.8	0.00e+00	0	34	0	1340080128	66	4633
2026-01-17 09:03:37.15	334.44	9.69	-47.5	-49.7	16.7	3.80e-06	0	33	0	1347420160	66	4677
2026-01-17 09:03:41.19	334.33	9.35	-47.7	-49.9	16.5	0.00e+00	0	34	0	1355808768	66	4789
2026-01-17 09:03:45.22	334.22	9.01	-47.7	-49.9	16.4	0.00e+00	0	34	0	1363148800	66	4795
2026-01-17 09:03:49.25	334.11	8.69	-48.0	-50.4	15.8	0.00e+00	0	34	0	1370488832	66	5097
2026-01-17 09:03:53.29	334.00	8.36	-47.9	-50.4	15.9	0.00e+00	0	33	0	1377828864	66	5061
2026-01-17 09:03:57.32	333.90	8.04	-48.3	-50.9	15.4	0.00e+00	0	34	0	1386217472	67	5087
2026-01-17 09:04:01.35	333.80	7.72	-48.7	-51.6	14.7	0.00e+00	0	34	0	1393557504	67	5490
2026-01-17 09:04:05.39	333.70	7.41	-48.5	-51.3	15.0	0.00e+00	0	34	0	1400897536	68	4995
2026-01-17 09:04:09.42	333.61	7.10	-48.7	-51.7	14.6	0.00e+00	0	34	0	1408237568	68	5248
2026-01-17 09:04:13.46	333.51	6.79	-48.8	-51.8	14.5	0.00e+00	0	34	0	1415577600	68	5295
2026-01-17 09:04:17.49	333.42	6.49	-49.1	-52.4	13.8	1.50e-06	0	34	0	1422917632	68	5670
2026-01-17 09:04:21.52	333.33	6.19	-48.7	-51.8	14.4	7.00e-07	0	34	0	1431306240	68	5307
2026-01-17 09:04:25.55	333.25	5.90	-48.7	-51.8	14.3	7.00e-07	0	34	0	1438646272	68	5301
2026-01-17 09:04:29.58	333.16	5.60	-49.0	-52.3	13.8	7.60e-06	0	34	0	1445986304	68	5598
2026-01-17 09:04:33.62	333.08	5.31	-49.0	-52.4	13.6	4.50e-06	0	34	0	1453326336	68	5705
2026-01-17 09:04:37.65	333.00	5.03	-49.1	-52.6	13.3	1.06e-05	0	34	0	1461714944	68	5827
2026-01-17 09:04:41.68	332.92	4.74	-53.0	-68.0	3.8	1.49e+00	0	34	104	1463812096	76	21639
2026-01-17 09:04:45.71	332.85	4.46	-53.4	-68.5	3.8	1.49e+00	0	34	104	1463812096	77	21560
2026-01-17 09:04:49.74	332.77	4.19	-53.7	-68.7	3.8	1.49e+00	0	34	104	1463812096	77	22066
2026-01-17 09:04:53.78	332.70	3.91	-53.7	-68.7	3.8	1.49e+00	0	34	104	1463812096	77	22167
2026-01-17 09:04:57.81	332.63	3.64	-53.7	-68.7	3.8	1.49e+00	0	34	104	1463812096	77	22193
2026-01-17 09:05:01.84	332.56	3.37	-53.6	-68.7	3.8	1.49e+00	0	34	104	1463812096	77	22079
2026-01-17 09:05:05.88	332.49	3.10	-53.6	-68.7	3.8	1.49e+00	0	34	104	1463812096	77	22018
2026-01-17 09:05:09.91	332.42	2.84	-53.6	-68.6	3.8	1.49e+00	0	34	104	1463812096	77	21973
2026-01-17 09:05:13.95	332.36	2.58	-53.6	-68.6	3.8	1.49e+00	0	34	104	1463812096	77	21919
2026-01-17 09:05:17.98	332.29	2.32	-53.6	-68.6	3.8	1.49e+00	0	34	104	1463812096	77	21911
2026-01-17 09:05:22.02	332.23	2.06	-53.6	-68.6	3.8	1.49e+00	0	34	104	1463812096	77	21840

#Closed at: 2026-01-17 09:05:24
#Recorded file [1463 MB]: D:/lorett/data/31041_260117_115106.dat