passes_logs/2026/01/17/R3.2S_Murmansk/R3.2S_Murmansk__20260117_063237_FENGYUN_3D_rec.log

#Pass ID: 20260117_063237_FENGYUN 3D
#Satellite: FENGYUN 3D
#Configuration: FENGYUN 3D
#almurnet v.1.7.20251203
#Start time: 2026-01-17 06:32:37

#Version: 2.2.20231116
#Station: R3.2S_Murmansk
#Location: 33.079688 lon 68.888172 lat
#TLE: 1 43010U 17072A   26016.62453405 -.00000112  00000+0 -31355-4 0  9995
#TLE: 2 43010  98.9932 348.4654 0002369 105.3910 254.7528 14.19694900423480

#Time	Az	El	Level	Level2	SNR	BER	BlckErr	Temp	State	Recorded	gain1	gain2
2026-01-17 06:32:37.62	53.31	1.99	-51.7	-63.6	3.8	8.46e-01	0	32	0	0	75	13816
2026-01-17 06:32:41.64	53.07	2.22	-51.6	-63.5	3.8	8.46e-01	0	32	104	0	73	15377
2026-01-17 06:32:45.67	52.82	2.45	-51.6	-63.6	3.8	8.46e-01	0	32	104	0	73	15421
2026-01-17 06:32:49.71	52.56	2.68	-51.6	-63.6	3.8	8.46e-01	0	32	104	0	73	15445
2026-01-17 06:32:53.74	52.30	2.92	-51.6	-63.5	3.8	8.46e-01	0	33	104	0	73	15279
2026-01-17 06:32:57.78	52.03	3.16	-51.6	-63.4	3.8	8.46e-01	0	33	104	0	73	15116
2026-01-17 06:33:01.81	51.77	3.40	-51.6	-63.5	3.8	8.46e-01	0	33	104	0	73	15230
2026-01-17 06:33:05.84	51.49	3.64	-51.6	-63.4	3.8	8.46e-01	0	33	104	0	73	15071
2026-01-17 06:33:09.88	51.21	3.88	-51.6	-63.3	3.8	8.48e-01	0	33	104	0	73	15026
2026-01-17 06:33:13.91	50.93	4.12	-51.2	-60.0	4.2	8.39e-01	0	33	0	0	73	10206
2026-01-17 06:33:17.94	50.64	4.36	-50.2	-55.3	7.0	1.84e-01	0	33	0	6291456	72	6293
2026-01-17 06:33:21.98	50.35	4.61	-49.4	-53.4	9.0	3.17e-02	0	33	0	29360128	70	5686
2026-01-17 06:33:26.01	50.05	4.86	-49.6	-53.8	8.6	4.18e-02	0	33	0	51380224	70	5952
2026-01-17 06:33:30.04	49.74	5.11	-49.2	-52.7	9.8	2.50e-02	0	33	0	74448896	70	5242
2026-01-17 06:33:34.08	49.43	5.36	-51.3	-59.5	4.4	4.04e-01	0	33	0	88080384	73	9642
2026-01-17 06:33:38.11	49.12	5.61	-45.5	-47.1	15.9	0.00e+00	0	33	0	109051904	63	4118
2026-01-17 06:33:42.16	48.79	5.86	-44.4	-45.7	17.3	0.00e+00	0	33	0	132120576	60	4168
2026-01-17 06:33:46.19	48.47	6.12	-44.3	-45.6	17.5	0.00e+00	0	34	0	154140672	60	4122
2026-01-17 06:33:50.22	48.13	6.37	-44.4	-45.6	17.5	0.00e+00	0	33	0	177209344	60	4133
2026-01-17 06:33:54.25	47.79	6.63	-44.1	-45.3	18.3	0.00e+00	0	34	0	200278016	59	4198
2026-01-17 06:33:58.29	47.45	6.89	-44.0	-45.2	18.4	0.00e+00	0	33	0	222298112	59	4153
2026-01-17 06:34:02.32	47.10	7.16	-43.5	-44.5	19.0	0.00e+00	0	34	0	245366784	58	4098
2026-01-17 06:34:06.35	46.74	7.42	-43.6	-44.8	18.9	0.00e+00	0	34	0	268435456	58	4198
2026-01-17 06:34:10.38	46.37	7.68	-43.5	-44.5	19.1	0.00e+00	0	34	0	290455552	58	4097
2026-01-17 06:34:14.41	46.00	7.95	-43.7	-44.9	18.8	0.00e+00	0	34	0	313524224	58	4252
2026-01-17 06:34:18.44	45.62	8.22	-43.2	-44.3	19.3	0.00e+00	0	34	0	336592896	58	3984
2026-01-17 06:34:22.48	45.23	8.49	-43.5	-44.6	19.1	0.00e+00	0	34	0	358612992	58	4107
2026-01-17 06:34:26.51	44.84	8.76	-43.2	-44.2	19.5	0.00e+00	0	34	0	381681664	58	3945
2026-01-17 06:34:30.54	44.43	9.03	-43.2	-44.3	19.4	0.00e+00	0	34	0	404750336	57	4212
2026-01-17 06:34:34.58	44.02	9.31	-43.0	-44.0	19.7	0.00e+00	0	34	0	426770432	57	4076
2026-01-17 06:34:38.61	43.61	9.58	-43.3	-44.4	19.4	0.00e+00	0	34	0	448790528	57	4268
2026-01-17 06:34:42.65	43.18	9.86	-43.2	-44.2	19.6	0.00e+00	0	34	0	471859200	57	4174
2026-01-17 06:34:46.68	42.74	10.14	-42.8	-43.8	20.0	0.00e+00	0	34	0	494927872	57	3976
2026-01-17 06:34:50.71	42.30	10.42	-42.9	-43.9	19.9	0.00e+00	0	34	0	516947968	57	4046
2026-01-17 06:34:54.74	41.85	10.70	-43.0	-44.0	19.8	0.00e+00	0	34	0	540016640	57	4079
2026-01-17 06:34:58.78	41.38	10.99	-42.8	-43.8	20.0	0.00e+00	0	34	0	563085312	57	4002
2026-01-17 06:35:02.81	40.91	11.27	-42.5	-43.4	20.4	0.00e+00	0	34	0	585105408	56	4051
2026-01-17 06:35:06.84	40.43	11.56	-42.3	-43.3	20.6	0.00e+00	0	34	0	608174080	56	3974
2026-01-17 06:35:10.88	39.94	11.84	-42.5	-43.4	20.4	0.00e+00	0	34	0	631242752	56	4046
2026-01-17 06:35:14.91	39.44	12.13	-42.1	-43.0	20.9	0.00e+00	0	34	0	653262848	56	3855
2026-01-17 06:35:18.94	38.93	12.42	-42.4	-43.3	20.6	0.00e+00	0	34	0	676331520	56	3972
2026-01-17 06:35:22.97	38.41	12.71	-42.2	-43.2	20.8	0.00e+00	0	34	0	699400192	56	3916
2026-01-17 06:35:27.00	37.88	13.01	-42.2	-43.1	20.8	0.00e+00	0	34	0	721420288	56	3884
2026-01-17 06:35:31.04	37.34	13.30	-42.1	-43.0	20.9	0.00e+00	0	34	0	744488960	56	3850
2026-01-17 06:35:35.07	36.78	13.59	-42.0	-42.9	21.0	0.00e+00	0	34	0	767557632	56	3814
2026-01-17 06:35:39.10	36.22	13.89	-41.8	-42.7	21.1	0.00e+00	0	34	0	789577728	55	3946
2026-01-17 06:35:43.13	35.64	14.18	-41.5	-42.4	21.5	0.00e+00	0	34	0	812646400	54	4012
2026-01-17 06:35:47.16	35.05	14.48	-41.6	-42.4	21.4	0.00e+00	0	34	0	834666496	54	4050
2026-01-17 06:35:51.19	34.45	14.78	-41.4	-42.3	21.6	0.00e+00	0	34	0	857735168	54	3972
2026-01-17 06:35:55.22	33.84	15.07	-41.3	-42.1	21.7	0.00e+00	0	34	0	880803840	54	3902
2026-01-17 06:35:59.26	33.21	15.37	-41.2	-42.0	21.8	0.00e+00	0	34	0	902823936	54	3855
2026-01-17 06:36:03.29	32.57	15.67	-41.0	-41.9	22.0	0.00e+00	0	34	0	925892608	54	3795
2026-01-17 06:36:07.32	31.92	15.97	-41.2	-42.0	21.8	0.00e+00	0	34	0	947912704	53	4077
2026-01-17 06:36:11.35	31.26	16.26	-41.1	-41.9	21.9	0.00e+00	0	34	0	970981376	53	4048
2026-01-17 06:36:15.39	30.58	16.56	-41.1	-42.0	21.9	0.00e+00	0	34	0	994050048	53	4059
2026-01-17 06:36:19.42	29.89	16.86	-41.0	-41.8	22.1	0.00e+00	0	34	0	1016070144	53	3984
2026-01-17 06:36:23.45	29.18	17.15	-40.8	-41.6	22.3	0.00e+00	0	34	0	1039138816	53	3897
2026-01-17 06:36:27.48	28.46	17.45	-40.9	-41.7	22.2	0.00e+00	0	34	0	1062207488	53	3937
2026-01-17 06:36:31.52	27.73	17.74	-40.6	-41.4	22.5	0.00e+00	0	34	0	1084227584	53	3806
2026-01-17 06:36:35.55	26.98	18.03	-40.8	-41.6	22.3	0.00e+00	0	34	0	1107296256	53	3898
2026-01-17 06:36:39.58	26.21	18.32	-40.3	-41.1	22.8	0.00e+00	0	34	0	1130364928	52	3904
2026-01-17 06:36:43.61	25.44	18.61	-40.3	-41.1	22.8	0.00e+00	0	34	0	1152385024	52	3895
2026-01-17 06:36:47.65	24.64	18.89	-40.3	-41.1	22.9	0.00e+00	0	34	0	1175453696	52	3869
2026-01-17 06:36:51.68	23.83	19.18	-40.0	-40.8	23.2	0.00e+00	0	34	0	1198522368	51	3978
2026-01-17 06:36:55.71	23.01	19.45	-39.8	-40.6	23.4	0.00e+00	0	34	0	1220542464	51	3872
2026-01-17 06:36:59.75	22.17	19.73	-40.0	-40.8	23.2	0.00e+00	0	34	0	1243611136	51	3979
2026-01-17 06:37:03.78	21.31	20.00	-40.0	-40.8	23.2	0.00e+00	0	34	0	1265631232	51	3973
2026-01-17 06:37:07.81	20.44	20.27	-40.0	-40.8	23.2	0.00e+00	0	34	0	1288699904	51	3980
2026-01-17 06:37:11.84	19.56	20.54	-40.0	-40.8	23.2	0.00e+00	0	34	0	1311768576	51	3981
2026-01-17 06:37:15.88	18.65	20.80	-39.8	-40.6	23.4	0.00e+00	0	34	0	1333788672	51	3886
2026-01-17 06:37:19.91	17.74	21.05	-39.9	-40.6	23.4	0.00e+00	0	34	0	1356857344	51	3913
2026-01-17 06:37:23.94	16.81	21.30	-40.0	-40.8	23.3	0.00e+00	0	34	0	1379926016	51	3961
2026-01-17 06:37:27.97	15.86	21.55	-39.8	-40.6	23.5	0.00e+00	0	34	0	1401946112	51	3871
2026-01-17 06:37:32.00	14.90	21.78	-39.7	-40.5	23.6	0.00e+00	0	34	0	1425014784	51	3827
2026-01-17 06:37:36.04	13.92	22.02	-39.7	-40.5	23.5	0.00e+00	0	34	0	1448083456	51	3845
2026-01-17 06:37:40.07	12.93	22.24	-39.9	-40.6	23.4	0.00e+00	0	34	0	1470103552	51	3902
2026-01-17 06:37:44.11	11.92	22.46	-39.6	-40.4	23.6	0.00e+00	0	34	0	1493172224	51	3801
2026-01-17 06:37:48.14	10.90	22.67	-39.6	-40.4	23.7	0.00e+00	0	34	0	1516240896	51	3781
2026-01-17 06:37:52.17	9.87	22.87	-39.4	-40.1	23.9	0.00e+00	0	34	0	1538260992	50	3890
2026-01-17 06:37:56.20	8.82	23.06	-39.2	-40.0	24.0	0.00e+00	0	34	0	1561329664	50	3835
2026-01-17 06:38:00.23	7.76	23.24	-39.2	-40.0	24.1	0.00e+00	0	34	0	1584398336	50	3829
2026-01-17 06:38:04.26	6.69	23.41	-39.3	-40.0	24.0	0.00e+00	0	34	0	1606418432	50	3865
2026-01-17 06:38:08.30	5.60	23.58	-39.0	-39.7	24.3	0.00e+00	0	34	0	1628438528	50	3713
2026-01-17 06:38:12.33	4.51	23.73	-39.2	-39.9	24.1	0.00e+00	0	34	0	1651507200	49	4047
2026-01-17 06:38:16.36	3.41	23.87	-39.4	-40.1	23.9	0.00e+00	0	34	0	1674575872	49	4132
2026-01-17 06:38:20.39	2.29	24.00	-39.4	-40.1	23.9	0.00e+00	0	34	0	1696595968	49	4141
2026-01-17 06:38:24.42	1.17	24.12	-39.1	-39.9	24.1	0.00e+00	0	34	0	1719664640	49	4009
2026-01-17 06:38:28.45	0.04	24.23	-39.0	-39.7	24.3	0.00e+00	0	34	0	1742733312	49	3949
2026-01-17 06:38:32.48	358.90	24.33	-38.7	-39.4	24.6	0.00e+00	0	34	0	1764753408	49	3795
2026-01-17 06:38:36.52	357.75	24.41	-39.0	-39.7	24.3	0.00e+00	0	34	0	1787822080	49	3948
2026-01-17 06:38:40.55	356.60	24.49	-39.3	-40.0	24.0	0.00e+00	0	34	0	1810890752	49	4085
2026-01-17 06:38:44.58	355.44	24.55	-39.1	-39.8	24.2	0.00e+00	0	34	0	1832910848	49	3972
2026-01-17 06:38:48.61	354.28	24.59	-39.1	-39.8	24.2	0.00e+00	0	34	0	1855979520	49	3978
2026-01-17 06:38:52.64	353.11	24.63	-38.7	-39.4	24.5	0.00e+00	0	34	0	1879048192	49	3824
2026-01-17 06:38:56.68	351.95	24.65	-38.9	-39.7	24.3	0.00e+00	0	34	0	1901068288	49	3918
2026-01-17 06:39:00.71	350.78	24.66	-39.0	-39.7	24.3	0.00e+00	0	34	0	1924136960	49	3947
2026-01-17 06:39:04.74	349.61	24.65	-38.8	-39.6	24.4	0.00e+00	0	34	0	1947205632	49	3872
2026-01-17 06:39:08.77	348.45	24.64	-38.8	-39.5	24.5	0.00e+00	0	34	0	1969225728	49	3848
2026-01-17 06:39:12.80	347.28	24.61	-38.8	-39.5	24.5	0.00e+00	0	34	0	1991245824	49	3831
2026-01-17 06:39:16.84	346.12	24.56	-38.9	-39.6	24.4	0.00e+00	0	34	0	2014314496	49	3907
2026-01-17 06:39:20.87	344.96	24.51	-38.9	-39.7	24.3	0.00e+00	0	34	0	2037383168	49	3931
2026-01-17 06:39:24.90	343.80	24.44	-39.0	-39.7	24.3	0.00e+00	0	34	0	2059403264	49	3926
2026-01-17 06:39:28.94	342.65	24.36	-38.9	-39.6	24.4	0.00e+00	0	34	0	2082471936	49	3896
2026-01-17 06:39:32.97	341.51	24.27	-38.7	-39.4	24.6	0.00e+00	0	34	0	2105540608	49	3811
2026-01-17 06:39:37.01	340.37	24.16	-38.9	-39.6	24.4	0.00e+00	0	34	0	2127560704	49	3887
2026-01-17 06:39:41.04	339.25	24.04	-38.9	-39.6	24.4	0.00e+00	0	34	0	2150629376	49	3909
2026-01-17 06:39:45.08	338.13	23.92	-39.0	-39.8	24.3	0.00e+00	0	34	0	2173698048	49	3966
2026-01-17 06:39:49.11	337.02	23.78	-39.1	-39.8	24.3	0.00e+00	0	34	0	2195718144	49	3986
2026-01-17 06:39:53.14	335.92	23.63	-39.0	-39.7	24.3	0.00e+00	0	34	0	2218786816	49	3941
2026-01-17 06:39:57.18	334.83	23.47	-39.0	-39.7	24.3	0.00e+00	0	34	0	2241855488	49	3935
2026-01-17 06:40:01.21	333.76	23.30	-39.2	-39.9	24.2	0.00e+00	0	34	0	2263875584	49	4016
2026-01-17 06:40:05.25	332.69	23.12	-38.8	-39.5	24.5	0.00e+00	0	34	0	2286944256	49	3852
2026-01-17 06:40:09.29	331.64	22.93	-38.8	-39.5	24.5	0.00e+00	0	34	0	2310012928	49	3833
2026-01-17 06:40:13.32	330.60	22.73	-39.1	-39.9	24.2	0.00e+00	0	34	0	2332033024	49	4013
2026-01-17 06:40:17.36	329.57	22.52	-39.3	-40.0	24.1	0.00e+00	0	34	0	2355101696	49	4075
2026-01-17 06:40:21.39	328.56	22.31	-39.1	-39.8	24.3	0.00e+00	0	34	0	2377121792	49	3973
2026-01-17 06:40:25.42	327.56	22.09	-39.3	-40.1	24.0	0.00e+00	0	34	0	2400190464	49	4099
2026-01-17 06:40:29.46	326.58	21.86	-39.1	-39.8	24.2	0.00e+00	0	34	0	2423259136	49	3989
2026-01-17 06:40:33.50	325.61	21.62	-38.9	-39.7	24.3	0.00e+00	0	34	0	2445279232	49	3918
2026-01-17 06:40:37.53	324.66	21.38	-39.3	-40.0	24.0	0.00e+00	0	34	0	2468347904	49	4079
2026-01-17 06:40:41.56	323.72	21.13	-39.5	-40.3	23.8	0.00e+00	0	34	0	2491416576	49	4203
2026-01-17 06:40:45.60	322.80	20.88	-39.7	-40.5	23.6	0.00e+00	0	34	0	2513436672	50	4079
2026-01-17 06:40:49.63	321.89	20.62	-39.6	-40.3	23.7	0.00e+00	0	34	0	2536505344	50	4003
2026-01-17 06:40:53.67	321.00	20.35	-39.6	-40.3	23.7	0.00e+00	0	34	0	2559574016	50	3996
2026-01-17 06:40:57.70	320.12	20.09	-40.1	-40.9	23.2	0.00e+00	0	34	0	2581594112	50	4257
2026-01-17 06:41:01.74	319.26	19.81	-40.1	-40.9	23.2	0.00e+00	0	34	0	2604662784	50	4270
2026-01-17 06:41:05.77	318.42	19.54	-40.2	-41.0	23.1	0.00e+00	0	34	0	2627731456	51	4081
2026-01-17 06:41:09.80	317.59	19.26	-40.2	-40.9	23.1	0.00e+00	0	34	0	2649751552	51	4050
2026-01-17 06:41:13.83	316.77	18.98	-40.2	-41.0	23.1	0.00e+00	0	34	0	2672820224	51	4052
2026-01-17 06:41:17.86	315.97	18.69	-40.1	-40.9	23.2	0.00e+00	0	34	0	2695888896	51	4032
2026-01-17 06:41:21.90	315.19	18.41	-40.3	-41.1	23.0	0.00e+00	0	34	0	2717908992	51	4123
2026-01-17 06:41:25.93	314.42	18.12	-40.2	-40.9	23.1	0.00e+00	0	34	0	2740977664	51	4045
2026-01-17 06:41:29.97	313.66	17.82	-40.2	-41.0	23.0	0.00e+00	0	34	0	2762997760	51	4079
2026-01-17 06:41:34.00	312.92	17.53	-40.2	-40.9	23.1	0.00e+00	0	34	0	2786066432	51	4046
2026-01-17 06:41:38.04	312.20	17.24	-40.4	-41.2	22.8	0.00e+00	0	34	0	2809135104	51	4168
2026-01-17 06:41:42.07	311.49	16.94	-40.5	-41.2	22.8	0.00e+00	0	34	0	2831155200	51	4192
2026-01-17 06:41:46.11	310.79	16.65	-40.7	-41.5	22.5	0.00e+00	0	34	0	2854223872	52	4061
2026-01-17 06:41:50.13	310.11	16.35	-40.8	-41.6	22.4	0.00e+00	0	34	0	2877292544	52	4111
2026-01-17 06:41:54.17	309.43	16.05	-40.9	-41.8	22.2	0.00e+00	0	34	0	2899312640	52	4201
2026-01-17 06:41:58.20	308.78	15.75	-40.6	-41.4	22.5	0.00e+00	0	34	0	2922381312	52	4038
2026-01-17 06:42:02.23	308.14	15.46	-40.9	-41.7	22.2	0.00e+00	0	34	0	2945449984	52	4172
2026-01-17 06:42:06.27	307.50	15.16	-40.9	-41.8	22.1	0.00e+00	0	34	0	2967470080	52	4210
2026-01-17 06:42:10.31	306.89	14.86	-41.1	-42.0	21.9	0.00e+00	0	34	0	2990538752	52	4312
2026-01-17 06:42:14.34	306.28	14.56	-41.2	-42.0	21.9	0.00e+00	0	34	0	3013607424	53	4073
2026-01-17 06:42:18.37	305.69	14.27	-41.3	-42.2	21.7	0.00e+00	0	34	0	3035627520	53	4153
2026-01-17 06:42:22.40	305.11	13.97	-41.2	-42.1	21.8	0.00e+00	0	34	0	3058696192	53	4105
2026-01-17 06:42:26.44	304.54	13.68	-41.5	-42.3	21.6	0.00e+00	0	34	0	3081764864	53	4230
2026-01-17 06:42:30.47	303.98	13.38	-41.5	-42.4	21.5	0.00e+00	0	34	0	3103784960	54	4016
2026-01-17 06:42:34.49	303.43	13.09	-41.5	-42.3	21.5	0.00e+00	0	34	0	3125805056	54	4002
2026-01-17 06:42:38.53	302.90	12.79	-41.8	-42.7	21.3	0.00e+00	0	34	0	3148873728	54	4148
2026-01-17 06:42:42.56	302.37	12.50	-41.9	-42.8	21.1	0.00e+00	0	34	0	3171942400	54	4204
2026-01-17 06:42:46.59	301.86	12.21	-41.9	-42.8	21.1	0.00e+00	0	34	0	3193962496	54	4221
2026-01-17 06:42:50.63	301.35	11.92	-41.9	-42.8	21.1	0.00e+00	0	34	0	3217031168	54	4217
2026-01-17 06:42:54.66	300.86	11.63	-41.9	-42.9	21.0	0.00e+00	0	34	0	3240099840	54	4243
2026-01-17 06:42:58.69	300.38	11.35	-42.3	-43.2	20.6	0.00e+00	0	34	0	3262119936	55	4185
2026-01-17 06:43:02.73	299.90	11.06	-42.3	-43.3	20.6	0.00e+00	0	34	0	3285188608	55	4206
2026-01-17 06:43:06.76	299.44	10.78	-42.4	-43.4	20.5	0.00e+00	0	34	0	3308257280	55	4247
2026-01-17 06:43:10.80	298.98	10.49	-42.5	-43.4	20.4	0.00e+00	0	34	0	3330277376	55	4283
2026-01-17 06:43:14.83	298.53	10.21	-42.3	-43.3	20.5	0.00e+00	0	34	0	3353346048	55	4203
2026-01-17 06:43:18.86	298.09	9.93	-42.5	-43.4	20.4	0.00e+00	0	34	0	3376414720	55	4291
2026-01-17 06:43:22.90	297.66	9.65	-42.9	-43.8	20.1	0.00e+00	0	34	0	3398434816	56	4237
2026-01-17 06:43:26.93	297.24	9.38	-42.9	-43.9	20.0	0.00e+00	0	34	0	3421503488	56	4268
2026-01-17 06:43:30.96	296.83	9.10	-43.0	-44.0	19.9	0.00e+00	0	34	0	3444572160	56	4300
2026-01-17 06:43:34.99	296.42	8.83	-43.1	-44.1	19.7	0.00e+00	0	34	0	3466592256	56	4361
2026-01-17 06:43:39.02	296.03	8.56	-43.5	-44.5	19.3	0.00e+00	0	34	0	3489660928	57	4330
2026-01-17 06:43:43.06	295.63	8.29	-43.0	-44.1	19.7	0.00e+00	0	34	0	3511681024	57	4102
2026-01-17 06:43:47.09	295.25	8.02	-42.9	-43.9	19.9	0.00e+00	0	34	0	3534749696	57	4042
2026-01-17 06:43:51.13	294.88	7.75	-43.7	-44.9	19.0	0.00e+00	0	34	0	3557818368	58	4246
2026-01-17 06:43:55.16	294.51	7.49	-43.4	-44.5	19.4	0.00e+00	0	34	0	3579838464	58	4053
2026-01-17 06:43:59.19	294.15	7.22	-43.9	-45.1	18.7	0.00e+00	0	34	0	3602907136	58	4350
2026-01-17 06:44:03.22	293.79	6.96	-43.8	-44.9	18.9	0.00e+00	0	34	0	3624927232	58	4259
2026-01-17 06:44:07.25	293.44	6.70	-43.4	-44.5	19.2	0.00e+00	0	34	0	3647995904	58	4054
2026-01-17 06:44:11.28	293.10	6.44	-43.6	-44.8	18.9	0.00e+00	0	34	0	3671064576	58	4196
2026-01-17 06:44:15.32	292.76	6.18	-43.5	-44.6	19.0	0.00e+00	0	34	0	3693084672	58	4135
2026-01-17 06:44:19.35	292.43	5.93	-43.7	-44.8	18.8	0.00e+00	0	34	0	3716153344	58	4232
2026-01-17 06:44:23.38	292.11	5.67	-44.0	-45.2	18.4	0.00e+00	0	34	0	3739222016	58	4423
2026-01-17 06:44:27.42	291.79	5.42	-44.6	-45.9	17.6	0.00e+00	0	34	0	3761242112	59	4532
2026-01-17 06:44:31.45	291.48	5.17	-44.3	-45.6	17.6	0.00e+00	0	34	0	3784310784	60	4122
2026-01-17 06:44:35.48	291.17	4.92	-52.5	-64.4	3.8	8.45e-01	0	34	104	3804233728	75	15220
2026-01-17 06:44:39.52	290.87	4.67	-53.2	-65.3	3.8	8.46e-01	0	34	104	3804233728	77	14891
2026-01-17 06:44:43.55	290.58	4.42	-53.5	-65.4	3.8	8.46e-01	0	34	104	3804233728	77	15208
2026-01-17 06:44:47.59	290.28	4.18	-53.6	-65.5	3.8	8.47e-01	0	34	104	3804233728	77	15398
2026-01-17 06:44:51.62	290.00	3.94	-53.6	-65.6	3.8	8.46e-01	0	34	104	3804233728	77	15517
2026-01-17 06:44:55.66	289.72	3.69	-53.6	-65.6	3.8	8.45e-01	0	34	104	3804233728	77	15568
2026-01-17 06:44:59.69	289.44	3.45	-53.6	-65.6	3.8	8.46e-01	0	34	104	3804233728	77	15520
2026-01-17 06:45:03.73	289.17	3.21	-53.5	-65.5	3.8	8.46e-01	0	34	104	3804233728	77	15393
2026-01-17 06:45:07.77	288.90	2.98	-53.5	-65.5	3.8	8.45e-01	0	34	104	3804233728	77	15342
2026-01-17 06:45:11.80	288.64	2.74	-53.4	-65.5	3.8	8.46e-01	0	34	104	3804233728	77	15252
2026-01-17 06:45:15.84	288.38	2.51	-53.4	-65.4	3.8	8.46e-01	0	34	104	3804233728	77	15211
2026-01-17 06:45:19.87	288.13	2.27	-53.4	-65.4	3.8	8.46e-01	0	34	104	3804233728	77	15182
2026-01-17 06:45:23.91	287.88	2.04	-53.4	-65.4	3.8	8.46e-01	0	34	104	3804233728	77	15149

#Closed at: 2026-01-17 06:45:25
#Recorded file [3804 MB]: D:/lorett/data/31041_260117_093237.dat