passes_logs/2026/01/17/R3.2S_Murmansk/R3.2S_Murmansk__20260117_225512_NOAA_20_JPSS-1_rec.log

#Pass ID: 20260117_225512_NOAA 20 (JPSS-1)
#Satellite: NOAA 20 (JPSS-1)
#Configuration: NOAA 20
#almurnet v.1.7.20251203
#Start time: 2026-01-17 22:55:14

#Version: 2.2.20231116
#Station: R3.2S_Murmansk
#Location: 33.079688 lon 68.888172 lat
#TLE: 1 43013U 17073A   26017.58553584  .00000066  00000+0  52288-4 0  9998
#TLE: 2 43013  98.7639 318.4977 0001406  35.6039 324.5231 14.19536575423107

#Time	Az	El	Level	Level2	SNR	BER	BlckErr	Temp	State	Recorded	gain1	gain2
2026-01-17 22:55:14.71	19.74	2.11	-52.0	-67.0	3.8	1.49e+00	0	34	0	0	76	19239
2026-01-17 22:55:18.74	19.96	2.35	-52.0	-66.9	3.8	1.49e+00	0	34	104	0	74	21454
2026-01-17 22:55:22.78	20.18	2.59	-52.0	-66.9	3.8	1.49e+00	0	34	104	0	74	21453
2026-01-17 22:55:26.81	20.41	2.83	-52.0	-66.6	3.8	1.49e+00	0	34	104	0	74	20776
2026-01-17 22:55:30.85	20.64	3.07	-51.9	-66.5	3.8	1.49e+00	0	34	104	0	74	20402
2026-01-17 22:55:34.88	20.87	3.32	-51.9	-66.5	3.8	1.49e+00	0	34	104	0	74	20457
2026-01-17 22:55:38.90	21.10	3.56	-51.9	-66.0	3.8	1.49e+00	0	35	104	0	74	19287
2026-01-17 22:55:42.94	21.34	3.81	-51.9	-66.0	3.8	1.49e+00	0	35	104	0	74	19366
2026-01-17 22:55:46.97	21.58	4.06	-51.9	-65.7	3.8	1.49e+00	0	35	104	0	74	18712
2026-01-17 22:55:51.00	21.83	4.32	-51.7	-62.8	4.4	1.34e+00	157	35	0	0	74	13361
2026-01-17 22:55:55.03	22.08	4.57	-51.6	-61.3	5.1	6.26e-01	0	35	0	7340032	74	11217
2026-01-17 22:55:59.06	22.33	4.83	-51.6	-61.4	5.0	6.54e-01	0	35	0	14680064	74	11290
2026-01-17 22:56:03.10	22.59	5.09	-51.9	-63.6	4.1	1.25e+00	0	35	0	22020096	74	14640
2026-01-17 22:56:07.12	22.86	5.35	-51.6	-60.3	5.7	1.03e-01	0	35	0	26214400	73	10622
2026-01-17 22:56:11.16	23.12	5.61	-48.9	-51.8	14.5	7.00e-07	0	35	0	33554432	69	5019
2026-01-17 22:56:15.19	23.39	5.88	-48.6	-51.3	15.1	7.00e-07	0	35	0	40894464	69	4717
2026-01-17 22:56:19.22	23.67	6.14	-48.6	-51.3	15.2	0.00e+00	0	35	0	48234496	69	4709
2026-01-17 22:56:23.25	23.95	6.41	-48.6	-51.3	15.2	0.00e+00	0	35	0	55574528	69	4709
2026-01-17 22:56:27.28	24.24	6.69	-48.5	-51.2	15.4	0.00e+00	0	35	0	63963136	68	4936
2026-01-17 22:56:31.31	24.53	6.96	-48.2	-50.5	16.0	0.00e+00	0	35	0	71303168	68	4586
2026-01-17 22:56:35.34	24.82	7.24	-47.8	-50.0	16.5	0.00e+00	0	35	0	78643200	67	4563
2026-01-17 22:56:39.37	25.13	7.52	-47.6	-49.8	16.7	0.00e+00	0	35	0	85983232	67	4458
2026-01-17 22:56:43.40	25.43	7.80	-47.6	-49.6	16.9	0.00e+00	0	35	0	93323264	67	4386
2026-01-17 22:56:47.43	25.75	8.08	-47.4	-49.3	17.2	0.00e+00	0	35	0	101711872	66	4489
2026-01-17 22:56:51.47	26.06	8.37	-47.2	-49.2	17.4	0.00e+00	0	35	0	109051904	66	4404
2026-01-17 22:56:55.50	26.39	8.66	-47.2	-49.1	17.6	0.00e+00	0	35	0	116391936	66	4346
2026-01-17 22:56:59.53	26.72	8.95	-47.3	-49.2	17.4	0.00e+00	0	35	0	123731968	66	4424
2026-01-17 22:57:03.56	27.06	9.24	-47.0	-48.8	17.9	0.00e+00	0	35	0	132120576	66	4241
2026-01-17 22:57:07.59	27.40	9.54	-47.1	-49.0	17.8	0.00e+00	0	35	0	139460608	66	4297
2026-01-17 22:57:11.62	27.75	9.84	-46.9	-48.7	18.1	0.00e+00	0	35	0	146800640	65	4398
2026-01-17 22:57:15.65	28.11	10.14	-46.8	-48.6	18.2	0.00e+00	0	35	0	154140672	65	4364
2026-01-17 22:57:19.69	28.47	10.45	-46.7	-48.4	18.3	0.00e+00	0	35	0	161480704	65	4277
2026-01-17 22:57:23.72	28.84	10.76	-46.8	-48.6	18.2	0.00e+00	0	35	0	169869312	65	4365
2026-01-17 22:57:27.75	29.22	11.07	-46.8	-48.6	18.2	0.00e+00	0	35	0	177209344	65	4349
2026-01-17 22:57:31.79	29.61	11.38	-46.5	-48.1	18.7	0.00e+00	0	35	0	184549376	65	4130
2026-01-17 22:57:35.82	30.00	11.70	-46.6	-48.2	18.6	0.00e+00	0	35	0	191889408	65	4175
2026-01-17 22:57:39.86	30.41	12.02	-46.3	-47.9	18.9	0.00e+00	0	35	0	199229440	64	4277
2026-01-17 22:57:43.89	30.82	12.35	-46.2	-47.8	19.1	0.00e+00	0	35	0	207618048	64	4214
2026-01-17 22:57:47.92	31.24	12.67	-46.3	-47.9	19.0	0.00e+00	0	35	0	214958080	64	4271
2026-01-17 22:57:51.95	31.66	13.00	-46.4	-48.0	19.0	0.00e+00	0	35	0	222298112	64	4296
2026-01-17 22:57:55.98	32.10	13.33	-46.3	-47.9	19.0	0.00e+00	0	35	0	229638144	64	4266
2026-01-17 22:58:00.02	32.55	13.67	-46.6	-48.2	18.7	0.00e+00	0	35	0	238026752	64	4408
2026-01-17 22:58:04.05	33.01	14.01	-46.6	-48.3	18.7	0.00e+00	0	35	0	245366784	64	4454
2026-01-17 22:58:08.08	33.48	14.35	-46.6	-48.2	18.7	0.00e+00	0	35	0	252706816	64	4427
2026-01-17 22:58:12.11	33.95	14.69	-46.7	-48.3	18.7	0.00e+00	0	35	0	260046848	64	4463
2026-01-17 22:58:16.14	34.44	15.04	-46.6	-48.2	18.8	0.00e+00	0	35	0	267386880	64	4430
2026-01-17 22:58:20.17	34.94	15.39	-46.9	-48.6	18.4	0.00e+00	0	35	0	275775488	64	4601
2026-01-17 22:58:24.20	35.45	15.75	-46.8	-48.5	18.5	0.00e+00	0	35	0	283115520	64	4585
2026-01-17 22:58:28.24	35.98	16.10	-46.9	-48.5	18.5	0.00e+00	0	35	0	290455552	64	4595
2026-01-17 22:58:32.27	36.51	16.46	-46.8	-48.5	18.5	0.00e+00	0	35	0	297795584	64	4560
2026-01-17 22:58:36.30	37.06	16.83	-46.9	-48.6	18.4	0.00e+00	0	35	0	305135616	64	4651
2026-01-17 22:58:40.32	37.62	17.19	-46.6	-48.2	18.9	0.00e+00	0	35	0	313524224	64	4395
2026-01-17 22:58:44.36	38.20	17.56	-46.4	-47.9	19.2	0.00e+00	0	35	0	320864256	64	4277
2026-01-17 22:58:48.39	38.78	17.93	-46.5	-48.1	19.0	0.00e+00	0	35	0	328204288	64	4362
2026-01-17 22:58:52.42	39.39	18.31	-46.5	-48.1	19.0	0.00e+00	0	36	0	335544320	64	4364
2026-01-17 22:58:56.45	40.00	18.68	-46.3	-47.8	19.3	0.00e+00	0	35	0	342884352	64	4197
2026-01-17 22:59:00.48	40.63	19.06	-46.3	-47.9	19.2	0.00e+00	0	35	0	351272960	64	4248
2026-01-17 22:59:04.51	41.28	19.45	-46.6	-48.1	19.0	0.00e+00	0	35	0	358612992	64	4390
2026-01-17 22:59:08.54	41.94	19.83	-46.3	-47.8	19.3	0.00e+00	0	35	0	365953024	64	4227
2026-01-17 22:59:12.58	42.63	20.22	-46.1	-47.5	19.7	0.00e+00	0	35	0	373293056	63	4318
2026-01-17 22:59:16.61	43.32	20.61	-46.2	-47.7	19.5	0.00e+00	0	35	0	381681664	63	4418
2026-01-17 22:59:20.64	44.04	21.00	-46.0	-47.3	19.9	0.00e+00	0	35	0	389021696	63	4242
2026-01-17 22:59:24.67	44.77	21.39	-45.6	-47.0	20.2	0.00e+00	0	35	0	396361728	63	4054
2026-01-17 22:59:28.70	45.52	21.79	-45.6	-46.9	20.3	0.00e+00	0	35	0	403701760	63	4025
2026-01-17 22:59:32.74	46.29	22.18	-45.3	-46.6	20.7	0.00e+00	0	35	0	411041792	62	4110
2026-01-17 22:59:36.77	47.08	22.58	-45.1	-46.4	20.8	0.00e+00	0	35	0	418381824	62	4020
2026-01-17 22:59:40.80	47.88	22.97	-45.4	-46.7	20.6	0.00e+00	0	35	0	426770432	62	4153
2026-01-17 22:59:44.83	48.71	23.37	-45.1	-46.4	20.8	0.00e+00	0	35	0	434110464	62	4015
2026-01-17 22:59:48.86	49.56	23.77	-45.4	-46.7	20.6	0.00e+00	0	35	0	441450496	62	4149
2026-01-17 22:59:52.89	50.43	24.16	-45.7	-47.1	20.2	0.00e+00	0	35	0	448790528	62	4350
2026-01-17 22:59:56.92	51.32	24.56	-45.5	-46.8	20.4	0.00e+00	0	35	0	457179136	62	4236
2026-01-17 23:00:00.91	52.23	24.95	-45.7	-47.0	20.3	0.00e+00	0	35	0	464519168	62	4322
2026-01-17 23:00:04.94	53.16	25.34	-45.6	-47.0	20.3	0.00e+00	0	35	0	471859200	62	4292
2026-01-17 23:00:08.97	54.12	25.73	-46.2	-47.6	19.7	0.00e+00	0	35	0	479199232	62	4627
2026-01-17 23:00:13.00	55.10	26.12	-46.5	-48.0	19.4	0.00e+00	0	35	0	486539264	63	4551
2026-01-17 23:00:17.03	56.11	26.50	-46.4	-47.9	19.4	0.00e+00	0	35	0	494927872	63	4523
2026-01-17 23:00:21.06	57.14	26.88	-46.7	-48.3	19.0	0.00e+00	0	35	0	502267904	64	4454
2026-01-17 23:00:25.10	58.20	27.26	-47.0	-48.6	18.6	0.00e+00	0	35	0	509607936	64	4640
2026-01-17 23:00:29.13	59.28	27.63	-47.5	-49.4	17.9	0.00e+00	0	35	0	516947968	65	4761
2026-01-17 23:00:33.16	60.38	27.99	-48.5	-50.6	16.7	0.00e+00	0	35	0	524288000	67	4918
2026-01-17 23:00:37.19	61.51	28.35	-48.3	-50.3	17.0	0.00e+00	0	35	0	531628032	67	4744
2026-01-17 23:00:41.22	62.66	28.70	-48.2	-50.3	17.1	0.00e+00	0	36	0	540016640	67	4720
2026-01-17 23:00:45.25	63.84	29.04	-48.0	-50.0	17.4	0.00e+00	0	35	0	547356672	67	4561
2026-01-17 23:00:49.28	65.04	29.37	-48.3	-50.4	17.0	0.00e+00	0	35	0	554696704	67	4789
2026-01-17 23:00:53.32	66.27	29.70	-47.5	-49.2	18.1	0.00e+00	0	35	0	562036736	66	4434
2026-01-17 23:00:57.35	67.52	30.01	-48.0	-50.0	17.4	0.00e+00	0	35	0	570425344	66	4834
2026-01-17 23:01:01.38	68.80	30.31	-48.1	-50.1	17.2	0.00e+00	0	36	0	577765376	67	4630
2026-01-17 23:01:05.41	70.09	30.60	-48.3	-50.4	17.1	0.00e+00	0	35	0	585105408	67	4766
2026-01-17 23:01:09.45	71.42	30.87	-50.0	-53.0	14.4	0.00e+00	0	35	0	592445440	70	5453
2026-01-17 23:01:13.48	72.76	31.13	-49.0	-51.3	16.2	0.00e+00	0	36	0	599785472	70	4493
2026-01-17 23:01:17.51	74.12	31.38	-49.1	-51.5	16.0	0.00e+00	0	35	0	608174080	69	4829
2026-01-17 23:01:21.54	75.50	31.61	-49.0	-51.4	16.1	0.00e+00	0	35	0	615514112	69	4782
2026-01-17 23:01:25.57	76.91	31.82	-48.4	-50.4	17.1	0.00e+00	0	35	0	622854144	68	4538
2026-01-17 23:01:29.60	78.32	32.02	-48.9	-51.1	16.4	0.00e+00	0	36	0	630194176	68	4905
2026-01-17 23:01:33.63	79.76	32.19	-48.3	-50.3	17.1	0.00e+00	0	35	0	638582784	68	4491
2026-01-17 23:01:37.66	81.21	32.35	-48.3	-50.3	17.2	0.00e+00	0	35	0	645922816	68	4461
2026-01-17 23:01:41.69	82.67	32.49	-48.5	-50.6	16.9	0.00e+00	0	36	0	653262848	68	4638
2026-01-17 23:01:45.72	84.15	32.61	-48.6	-50.8	16.7	0.00e+00	0	35	0	660602880	68	4732
2026-01-17 23:01:49.75	85.63	32.71	-49.1	-51.5	16.0	0.00e+00	0	36	0	667942912	69	4851
2026-01-17 23:01:53.79	87.13	32.79	-48.5	-50.6	16.9	0.00e+00	0	35	0	675282944	69	4382
2026-01-17 23:01:57.82	88.63	32.85	-48.6	-50.8	16.7	0.00e+00	0	36	0	683671552	68	4712
2026-01-17 23:02:01.84	90.13	32.88	-48.2	-50.1	17.3	0.00e+00	0	36	0	691011584	68	4370
2026-01-17 23:02:05.87	91.63	32.90	-48.5	-50.6	16.8	0.00e+00	0	35	0	698351616	67	4894
2026-01-17 23:02:09.90	93.14	32.89	-48.7	-50.9	16.5	0.00e+00	0	36	0	705691648	68	4773
2026-01-17 23:02:13.94	94.65	32.86	-47.3	-49.0	18.4	0.00e+00	0	35	0	714080256	66	4293
2026-01-17 23:02:17.97	96.15	32.81	-48.4	-50.5	16.8	0.00e+00	0	35	0	721420288	67	4859
2026-01-17 23:02:21.99	97.64	32.74	-49.4	-52.0	15.5	0.00e+00	0	35	0	728760320	69	5131
2026-01-17 23:02:26.03	99.14	32.65	-49.1	-51.6	15.9	0.00e+00	0	35	0	736100352	69	4872
2026-01-17 23:02:30.06	100.62	32.53	-48.8	-51.1	16.4	0.00e+00	0	36	0	743440384	69	4611
2026-01-17 23:02:34.10	102.09	32.40	-49.2	-51.7	15.8	0.00e+00	0	36	0	751828992	69	4936
2026-01-17 23:02:38.13	103.54	32.25	-49.7	-52.5	14.9	0.00e+00	0	35	0	759169024	70	5147
2026-01-17 23:02:42.16	104.99	32.08	-49.4	-51.9	15.6	0.00e+00	0	36	0	766509056	70	4800
2026-01-17 23:02:46.19	106.41	31.89	-48.1	-50.1	17.4	0.00e+00	0	35	0	773849088	68	4341
2026-01-17 23:02:50.22	107.82	31.68	-48.4	-50.5	17.0	0.00e+00	0	36	0	782237696	68	4546
2026-01-17 23:02:54.24	109.21	31.46	-48.8	-51.1	16.4	0.00e+00	0	36	0	789577728	68	4908
2026-01-17 23:02:58.28	110.59	31.21	-48.7	-50.9	16.6	0.00e+00	0	35	0	796917760	68	4769
2026-01-17 23:03:02.31	111.94	30.96	-48.1	-50.1	17.4	0.00e+00	0	36	0	804257792	68	4348
2026-01-17 23:03:06.34	113.27	30.69	-48.9	-51.2	16.3	0.00e+00	0	36	0	811597824	68	4948
2026-01-17 23:03:10.37	114.58	30.40	-48.7	-50.9	16.5	0.00e+00	0	35	0	818937856	68	4812
2026-01-17 23:03:14.40	115.86	30.11	-48.1	-50.0	17.4	0.00e+00	0	35	0	827326464	68	4338
2026-01-17 23:03:18.43	117.12	29.80	-48.3	-50.4	17.0	0.00e+00	0	35	0	834666496	68	4510
2026-01-17 23:03:22.46	118.36	29.48	-49.3	-51.8	15.7	0.00e+00	0	36	0	842006528	69	5004
2026-01-17 23:03:26.49	119.57	29.15	-49.0	-51.4	16.0	0.00e+00	0	36	0	849346560	69	4786
2026-01-17 23:03:30.53	120.77	28.81	-48.1	-50.1	17.3	0.00e+00	0	36	0	857735168	68	4385
2026-01-17 23:03:34.55	121.93	28.46	-48.3	-50.4	16.9	0.00e+00	0	36	0	865075200	67	4802
2026-01-17 23:03:38.58	123.07	28.10	-48.4	-50.5	16.7	0.00e+00	0	36	0	872415232	67	4863
2026-01-17 23:03:42.62	124.18	27.74	-48.4	-50.5	16.9	0.00e+00	0	36	0	879755264	68	4563
2026-01-17 23:03:46.65	125.27	27.37	-47.4	-49.2	18.1	0.00e+00	0	35	0	887095296	66	4433
2026-01-17 23:03:50.68	126.34	26.99	-47.4	-49.1	18.1	0.00e+00	0	36	0	895483904	66	4364
2026-01-17 23:03:54.71	127.38	26.61	-48.1	-50.1	17.2	0.00e+00	0	35	0	902823936	66	4876
2026-01-17 23:03:58.74	128.40	26.23	-48.1	-50.2	17.2	0.00e+00	0	35	0	910163968	68	4395
2026-01-17 23:04:02.77	129.39	25.84	-48.0	-50.0	17.2	0.00e+00	0	36	0	917504000	67	4591
2026-01-17 23:04:06.80	130.36	25.45	-47.4	-49.2	18.0	0.00e+00	0	35	0	924844032	66	4417
2026-01-17 23:04:10.83	131.31	25.05	-48.1	-50.2	17.0	0.00e+00	0	36	0	933232640	66	4968
2026-01-17 23:04:14.86	132.23	24.66	-47.0	-48.7	18.5	0.00e+00	0	35	0	940572672	66	4157
2026-01-17 23:04:18.89	133.13	24.26	-48.2	-50.3	16.8	0.00e+00	0	35	0	947912704	67	4739
2026-01-17 23:04:22.92	134.01	23.86	-46.5	-48.1	19.0	0.00e+00	0	35	0	955252736	65	4133
2026-01-17 23:04:26.96	134.87	23.46	-47.2	-49.0	18.2	0.00e+00	0	35	0	962592768	65	4552
2026-01-17 23:04:30.99	135.71	23.06	-46.5	-48.0	19.0	0.00e+00	0	36	0	970981376	65	4088
2026-01-17 23:04:35.02	136.52	22.67	-46.0	-47.5	19.7	0.00e+00	0	36	0	978321408	63	4301
2026-01-17 23:04:39.06	137.32	22.27	-45.7	-47.1	20.0	0.00e+00	0	35	0	985661440	63	4126
2026-01-17 23:04:43.09	138.10	21.87	-45.3	-46.6	20.5	0.00e+00	0	36	0	993001472	62	4107
2026-01-17 23:04:47.12	138.85	21.47	-45.4	-46.7	20.3	0.00e+00	0	35	0	1001390080	62	4193
2026-01-17 23:04:51.15	139.59	21.08	-45.3	-46.6	20.4	0.00e+00	0	35	0	1008730112	62	4123
2026-01-17 23:04:55.19	140.32	20.68	-45.4	-46.7	20.3	0.00e+00	0	36	0	1016070144	62	4161
2026-01-17 23:04:59.21	141.02	20.29	-45.3	-46.6	20.4	0.00e+00	0	35	0	1023410176	62	4115
2026-01-17 23:05:03.25	141.70	19.90	-45.0	-46.2	20.7	0.00e+00	0	36	0	1030750208	61	4190
2026-01-17 23:05:07.28	142.37	19.51	-45.6	-47.0	19.9	0.00e+00	0	36	0	1038090240	61	4559
2026-01-17 23:05:11.31	143.03	19.13	-46.0	-47.5	19.5	0.00e+00	0	36	0	1046478848	62	4554
2026-01-17 23:05:15.34	143.66	18.75	-45.7	-47.2	19.8	0.00e+00	0	35	0	1053818880	62	4392
2026-01-17 23:05:19.38	144.29	18.36	-45.9	-47.4	19.6	0.00e+00	0	36	0	1061158912	62	4496
2026-01-17 23:05:23.41	144.90	17.99	-46.0	-47.5	19.5	0.00e+00	0	35	0	1068498944	62	4546
2026-01-17 23:05:27.44	145.49	17.61	-45.9	-47.4	19.5	0.00e+00	0	36	0	1076887552	62	4519
2026-01-17 23:05:31.47	146.07	17.24	-46.3	-47.8	19.1	0.00e+00	0	35	0	1084227584	63	4481
2026-01-17 23:05:35.50	146.63	16.87	-46.6	-48.3	18.7	0.00e+00	0	36	0	1091567616	63	4715
2026-01-17 23:05:39.53	147.18	16.50	-47.2	-49.0	17.8	0.00e+00	0	36	0	1098907648	64	4865
2026-01-17 23:05:43.57	147.72	16.14	-47.1	-48.9	18.0	0.00e+00	0	36	0	1106247680	65	4516
2026-01-17 23:05:47.60	148.25	15.78	-46.4	-47.9	18.8	0.00e+00	0	36	0	1114636288	64	4289
2026-01-17 23:05:51.63	148.77	15.42	-46.5	-48.2	18.6	0.00e+00	0	36	0	1121976320	64	4395
2026-01-17 23:05:55.67	149.27	15.07	-47.0	-48.8	17.9	0.00e+00	0	36	0	1129316352	64	4755
2026-01-17 23:05:59.70	149.76	14.72	-46.8	-48.5	18.2	0.00e+00	0	36	0	1136656384	64	4585
2026-01-17 23:06:03.74	150.25	14.37	-46.4	-48.1	18.6	0.00e+00	0	35	0	1145044992	64	4358
2026-01-17 23:06:07.77	150.72	14.03	-46.8	-48.5	18.3	0.00e+00	0	35	0	1152385024	64	4568
2026-01-17 23:06:11.81	151.18	13.68	-47.2	-49.1	17.6	0.00e+00	0	36	0	1159725056	64	4925
2026-01-17 23:06:15.84	151.63	13.35	-47.1	-48.9	17.8	0.00e+00	0	36	0	1167065088	65	4544
2026-01-17 23:06:19.87	152.07	13.01	-46.6	-48.3	18.4	0.00e+00	0	36	0	1174405120	65	4236
2026-01-17 23:06:23.90	152.50	12.68	-46.4	-48.1	18.6	0.00e+00	0	36	0	1181745152	64	4344
2026-01-17 23:06:27.94	152.92	12.35	-46.6	-48.3	18.3	0.00e+00	0	36	0	1190133760	64	4482
2026-01-17 23:06:31.97	153.33	12.02	-46.8	-48.5	18.1	0.00e+00	0	36	0	1197473792	64	4594
2026-01-17 23:06:36.00	153.74	11.70	-46.7	-48.5	18.1	0.00e+00	0	36	0	1204813824	64	4561
2026-01-17 23:06:40.03	154.13	11.38	-46.4	-48.1	18.4	0.00e+00	0	36	0	1212153856	64	4387
2026-01-17 23:06:44.07	154.52	11.06	-46.4	-48.1	18.5	0.00e+00	0	35	0	1220542464	64	4359
2026-01-17 23:06:48.10	154.90	10.75	-46.6	-48.4	18.2	0.00e+00	0	36	0	1227882496	64	4519
2026-01-17 23:06:52.13	155.27	10.44	-46.8	-48.7	17.9	0.00e+00	0	36	0	1235222528	64	4667
2026-01-17 23:06:56.16	155.64	10.13	-46.8	-48.6	17.9	0.00e+00	0	36	0	1242562560	64	4632
2026-01-17 23:07:00.20	156.00	9.83	-46.8	-48.6	17.8	0.00e+00	0	36	0	1249902592	64	4637
2026-01-17 23:07:04.23	156.35	9.52	-46.9	-48.8	17.7	0.00e+00	0	36	0	1258291200	64	4738
2026-01-17 23:07:08.26	156.69	9.22	-47.0	-48.9	17.5	0.00e+00	0	36	0	1265631232	64	4814
2026-01-17 23:07:12.29	157.03	8.93	-47.2	-49.2	17.2	0.00e+00	0	36	0	1272971264	64	4968
2026-01-17 23:07:16.32	157.36	8.63	-47.3	-49.4	17.0	0.00e+00	0	36	0	1280311296	65	4767
2026-01-17 23:07:20.35	157.68	8.34	-47.4	-49.6	16.8	0.00e+00	0	36	0	1287651328	65	4876
2026-01-17 23:07:24.38	158.00	8.05	-47.5	-49.7	16.6	0.00e+00	0	36	0	1296039936	65	4977
2026-01-17 23:07:28.42	158.31	7.76	-47.7	-49.9	16.4	0.00e+00	0	36	0	1303379968	65	5099
2026-01-17 23:07:32.45	158.62	7.48	-47.7	-49.9	16.3	0.00e+00	0	36	0	1310720000	66	4800
2026-01-17 23:07:36.48	158.92	7.20	-47.9	-50.3	15.9	0.00e+00	0	36	0	1318060032	66	4999
2026-01-17 23:07:40.51	159.22	6.92	-48.1	-50.7	15.5	0.00e+00	0	36	0	1326448640	66	5235
2026-01-17 23:07:44.54	159.51	6.64	-48.4	-51.1	15.1	0.00e+00	0	36	0	1333788672	67	5184
2026-01-17 23:07:48.58	159.79	6.37	-48.5	-51.3	14.8	0.00e+00	0	36	0	1341128704	67	5301
2026-01-17 23:07:52.61	160.08	6.10	-48.6	-51.5	14.6	0.00e+00	0	35	0	1348468736	67	5429
2026-01-17 23:07:56.64	160.35	5.83	-48.5	-51.3	14.6	7.00e-07	0	36	0	1355808768	67	5340
2026-01-17 23:08:00.67	160.62	5.56	-48.6	-51.6	14.3	7.00e-07	0	35	0	1364197376	67	5484
2026-01-17 23:08:04.70	160.89	5.30	-48.5	-51.4	14.5	2.20e-06	0	35	0	1371537408	67	5376
2026-01-17 23:08:08.73	161.15	5.03	-48.5	-51.5	14.4	7.00e-07	0	36	0	1378877440	67	5404
2026-01-17 23:08:12.76	161.41	4.77	-53.0	-68.0	3.8	1.49e+00	0	35	104	1380974592	76	21733
2026-01-17 23:08:16.79	161.66	4.51	-53.5	-68.5	3.8	1.49e+00	0	36	104	1380974592	77	21517
2026-01-17 23:08:20.83	161.91	4.26	-53.7	-68.7	3.8	1.49e+00	0	36	104	1380974592	77	22137
2026-01-17 23:08:24.85	162.15	4.00	-53.9	-68.9	3.8	1.49e+00	0	36	104	1380974592	78	21302
2026-01-17 23:08:28.89	162.39	3.75	-54.0	-68.9	3.8	1.49e+00	0	36	104	1380974592	78	21502
2026-01-17 23:08:32.92	162.63	3.50	-53.9	-69.0	3.8	1.49e+00	0	36	104	1380974592	78	21561
2026-01-17 23:08:36.95	162.86	3.25	-53.9	-68.9	3.8	1.49e+00	0	36	104	1380974592	78	21420
2026-01-17 23:08:40.98	163.09	3.00	-53.9	-68.9	3.8	1.49e+00	0	36	104	1380974592	78	21457
2026-01-17 23:08:45.01	163.32	2.76	-53.9	-68.9	3.8	1.49e+00	0	36	104	1380974592	78	21467
2026-01-17 23:08:49.04	163.54	2.51	-53.9	-68.9	3.8	1.49e+00	0	36	104	1380974592	78	21398
2026-01-17 23:08:53.07	163.76	2.27	-53.9	-68.9	3.8	1.49e+00	0	36	104	1380974592	78	21352
2026-01-17 23:08:57.11	163.98	2.03	-53.9	-68.9	3.8	1.49e+00	0	36	104	1380974592	78	21297

#Closed at: 2026-01-17 23:08:59
#Recorded file [1380 MB]: D:/lorett/data/31041_260118_015514.dat