passes_logs/2026/01/17/R3.2S_Murmansk/R3.2S_Murmansk__20260117_095020_FENGYUN_3D_rec.log

#Pass ID: 20260117_095020_FENGYUN 3D
#Satellite: FENGYUN 3D
#Configuration: FENGYUN 3D
#almurnet v.1.7.20251203
#Start time: 2026-01-17 09:50:22

#Version: 2.2.20231116
#Station: R3.2S_Murmansk
#Location: 33.079688 lon 68.888172 lat
#TLE: 1 43010U 17072A   26016.62453405 -.00000112  00000+0 -31355-4 0  9995
#TLE: 2 43010  98.9932 348.4654 0002369 105.3910 254.7528 14.19694900423480

#Time	Az	El	Level	Level2	SNR	BER	BlckErr	Temp	State	Recorded	gain1	gain2
2026-01-17 09:50:22.64	111.75	2.11	-51.9	-63.8	3.8	8.45e-01	0	32	0	0	75	14170
2026-01-17 09:50:26.66	111.61	2.36	-51.9	-63.7	3.8	8.46e-01	0	32	104	0	74	14716
2026-01-17 09:50:30.70	111.45	2.61	-51.9	-63.5	3.8	8.46e-01	0	32	104	0	74	14536
2026-01-17 09:50:34.74	111.30	2.87	-51.9	-63.5	3.8	8.46e-01	0	32	104	0	74	14513
2026-01-17 09:50:38.77	111.14	3.12	-51.9	-63.5	3.8	8.44e-01	0	32	104	0	74	14416
2026-01-17 09:50:42.80	110.97	3.38	-51.9	-63.5	3.8	8.45e-01	0	32	104	0	74	14428
2026-01-17 09:50:46.83	110.81	3.64	-51.9	-63.5	3.8	8.45e-01	0	32	104	0	74	14510
2026-01-17 09:50:50.87	110.64	3.91	-51.3	-58.9	4.7	8.26e-01	0	32	0	0	74	8465
2026-01-17 09:50:54.90	110.47	4.18	-50.3	-55.2	7.3	1.36e-01	0	33	0	13631488	72	6259
2026-01-17 09:50:58.94	110.29	4.44	-49.8	-53.9	8.8	3.90e-02	0	33	0	35651584	71	5659
2026-01-17 09:51:02.97	110.12	4.72	-49.5	-53.1	9.5	1.57e-02	0	33	0	58720256	70	5528
2026-01-17 09:51:07.01	109.93	4.99	-49.6	-53.5	9.1	2.62e-02	0	33	0	81788928	70	5778
2026-01-17 09:51:11.04	109.75	5.27	-51.6	-61.3	4.0	3.63e-01	0	33	0	102760448	73	11924
2026-01-17 09:51:15.07	109.56	5.54	-46.6	-48.4	14.6	0.00e+00	0	33	0	117440512	64	4530
2026-01-17 09:51:19.11	109.36	5.83	-45.1	-46.6	16.5	0.00e+00	0	33	0	139460608	62	4121
2026-01-17 09:51:23.15	109.17	6.11	-44.1	-45.4	17.8	0.00e+00	0	33	0	162529280	60	4020
2026-01-17 09:51:27.18	108.96	6.40	-44.2	-45.5	17.7	0.00e+00	0	33	0	185597952	60	4069
2026-01-17 09:51:31.21	108.76	6.69	-44.4	-45.7	17.9	0.00e+00	0	33	0	207618048	59	4392
2026-01-17 09:51:35.24	108.55	6.98	-44.1	-45.3	18.3	0.00e+00	0	33	0	230686720	59	4220
2026-01-17 09:51:39.28	108.33	7.28	-44.3	-45.5	18.0	0.00e+00	0	33	0	253755392	59	4338
2026-01-17 09:51:43.31	108.11	7.58	-44.0	-45.2	18.4	0.00e+00	0	33	0	275775488	59	4175
2026-01-17 09:51:47.35	107.89	7.88	-43.7	-44.9	18.7	0.00e+00	0	33	0	298844160	59	4042
2026-01-17 09:51:51.38	107.66	8.18	-43.5	-44.6	19.0	0.00e+00	0	33	0	321912832	58	4121
2026-01-17 09:51:55.41	107.42	8.49	-43.4	-44.5	19.1	0.00e+00	0	33	0	343932928	58	4067
2026-01-17 09:51:59.45	107.18	8.81	-43.1	-44.2	19.4	0.00e+00	0	33	0	367001600	58	3942
2026-01-17 09:52:03.46	106.94	9.12	-43.1	-44.1	19.5	0.00e+00	0	33	0	390070272	58	3911
2026-01-17 09:52:07.50	106.68	9.44	-43.1	-44.2	19.4	0.00e+00	0	33	0	412090368	58	3942
2026-01-17 09:52:11.54	106.43	9.76	-43.1	-44.2	19.5	0.00e+00	0	33	0	434110464	58	3930
2026-01-17 09:52:15.57	106.16	10.09	-43.0	-44.0	19.6	0.00e+00	0	33	0	457179136	58	3862
2026-01-17 09:52:19.60	105.89	10.42	-42.9	-44.0	19.7	0.00e+00	0	34	0	480247808	57	4064
2026-01-17 09:52:23.64	105.62	10.75	-42.9	-43.9	19.7	0.00e+00	0	34	0	502267904	57	4047
2026-01-17 09:52:27.67	105.33	11.09	-42.4	-43.4	20.2	0.00e+00	0	33	0	525336576	56	4051
2026-01-17 09:52:31.70	105.05	11.43	-42.5	-43.6	20.1	0.00e+00	0	33	0	548405248	56	4103
2026-01-17 09:52:35.74	104.75	11.78	-42.3	-43.3	20.4	0.00e+00	0	34	0	570425344	56	3994
2026-01-17 09:52:39.77	104.44	12.12	-42.3	-43.3	20.4	0.00e+00	0	34	0	593494016	56	3969
2026-01-17 09:52:43.80	104.13	12.48	-42.3	-43.3	20.4	0.00e+00	0	33	0	616562688	56	3980
2026-01-17 09:52:47.84	103.81	12.84	-42.1	-43.0	20.7	0.00e+00	0	33	0	638582784	56	3862
2026-01-17 09:52:51.87	103.48	13.20	-41.9	-42.8	20.8	0.00e+00	0	34	0	661651456	55	3986
2026-01-17 09:52:55.90	103.15	13.57	-41.9	-42.8	20.8	0.00e+00	0	34	0	684720128	55	3984
2026-01-17 09:52:59.93	102.80	13.94	-41.9	-42.8	20.8	0.00e+00	0	34	0	706740224	55	3989
2026-01-17 09:53:03.97	102.45	14.31	-42.0	-42.9	20.8	0.00e+00	0	34	0	729808896	55	4044
2026-01-17 09:53:08.00	102.08	14.69	-41.9	-42.8	20.8	0.00e+00	0	33	0	752877568	55	4004
2026-01-17 09:53:12.03	101.71	15.08	-41.7	-42.7	21.0	0.00e+00	0	34	0	774897664	55	3924
2026-01-17 09:53:16.06	101.33	15.47	-41.6	-42.5	21.1	0.00e+00	0	34	0	797966336	55	3868
2026-01-17 09:53:20.10	100.93	15.87	-41.5	-42.4	21.3	0.00e+00	0	34	0	819986432	54	4027
2026-01-17 09:53:24.13	100.53	16.27	-41.3	-42.2	21.5	0.00e+00	0	34	0	843055104	54	3927
2026-01-17 09:53:28.16	100.11	16.67	-41.2	-42.1	21.6	0.00e+00	0	34	0	866123776	54	3876
2026-01-17 09:53:32.19	99.68	17.08	-41.0	-41.8	22.1	0.00e+00	0	33	0	888143872	53	3997
2026-01-17 09:53:36.23	99.24	17.50	-41.0	-41.8	22.1	0.00e+00	0	34	0	911212544	53	3992
2026-01-17 09:53:40.26	98.79	17.92	-41.0	-41.9	22.1	0.00e+00	0	34	0	934281216	53	4007
2026-01-17 09:53:44.29	98.32	18.35	-40.7	-41.5	22.4	0.00e+00	0	34	0	956301312	53	3848
2026-01-17 09:53:48.32	97.84	18.78	-40.7	-41.5	22.4	0.00e+00	0	34	0	979369984	53	3857
2026-01-17 09:53:52.35	97.35	19.22	-40.7	-41.5	22.5	0.00e+00	0	34	0	1002438656	53	3844
2026-01-17 09:53:56.39	96.84	19.66	-40.4	-41.2	22.7	0.00e+00	0	33	0	1024458752	52	3950
2026-01-17 09:54:00.42	96.31	20.11	-40.1	-40.9	23.0	0.00e+00	0	34	0	1047527424	52	3814
2026-01-17 09:54:04.45	95.77	20.56	-40.1	-40.9	23.0	0.00e+00	0	33	0	1070596096	52	3808
2026-01-17 09:54:08.48	95.21	21.02	-40.4	-41.2	22.7	0.00e+00	0	34	0	1092616192	52	3946
2026-01-17 09:54:12.51	94.64	21.49	-40.2	-41.0	22.9	0.00e+00	0	34	0	1115684864	52	3857
2026-01-17 09:54:16.54	94.05	21.96	-39.7	-40.5	23.5	0.00e+00	0	34	0	1138753536	51	3829
2026-01-17 09:54:20.58	93.43	22.43	-39.8	-40.6	23.5	0.00e+00	0	34	0	1160773632	51	3881
2026-01-17 09:54:24.61	92.80	22.91	-39.7	-40.5	23.6	0.00e+00	0	34	0	1182793728	51	3834
2026-01-17 09:54:28.64	92.15	23.40	-39.6	-40.3	23.7	0.00e+00	0	34	0	1205862400	51	3766
2026-01-17 09:54:32.67	91.48	23.89	-39.7	-40.5	23.6	0.00e+00	0	34	0	1228931072	51	3846
2026-01-17 09:54:36.70	90.79	24.39	-39.6	-40.4	23.7	0.00e+00	0	34	0	1250951168	51	3787
2026-01-17 09:54:40.74	90.07	24.89	-39.5	-40.2	23.8	0.00e+00	0	34	0	1274019840	50	3942
2026-01-17 09:54:44.77	89.33	25.39	-39.6	-40.3	23.8	0.00e+00	0	34	0	1297088512	50	3977
2026-01-17 09:54:48.81	88.56	25.90	-39.6	-40.3	23.8	0.00e+00	0	34	0	1319108608	50	3975
2026-01-17 09:54:52.84	87.77	26.42	-39.4	-40.2	23.9	0.00e+00	0	34	0	1342177280	50	3927
2026-01-17 09:54:56.87	86.96	26.93	-39.4	-40.2	23.9	0.00e+00	0	34	0	1365245952	50	3917
2026-01-17 09:55:00.90	86.12	27.45	-39.4	-40.2	23.9	0.00e+00	0	34	0	1387266048	50	3924
2026-01-17 09:55:04.94	85.24	27.98	-39.3	-40.0	24.0	0.00e+00	0	34	0	1410334720	50	3867
2026-01-17 09:55:08.97	84.34	28.50	-39.5	-40.3	23.9	0.00e+00	0	34	0	1433403392	50	3962
2026-01-17 09:55:13.00	83.41	29.03	-39.6	-40.3	23.8	0.00e+00	0	34	0	1455423488	50	3988
2026-01-17 09:55:17.03	82.45	29.56	-39.2	-39.9	24.2	0.00e+00	0	34	0	1478492160	50	3815
2026-01-17 09:55:21.07	81.45	30.09	-39.2	-39.9	24.2	0.00e+00	0	34	0	1501560832	50	3815
2026-01-17 09:55:25.10	80.42	30.61	-39.0	-39.7	24.4	0.00e+00	0	34	0	1523580928	50	3726
2026-01-17 09:55:29.14	79.36	31.14	-39.0	-39.8	24.3	0.00e+00	0	34	0	1545601024	49	3968
2026-01-17 09:55:33.17	78.26	31.67	-39.1	-39.8	24.3	0.00e+00	0	34	0	1568669696	49	3974
2026-01-17 09:55:37.20	77.12	32.19	-39.0	-39.7	24.4	0.00e+00	0	34	0	1591738368	49	3957
2026-01-17 09:55:41.23	75.95	32.70	-38.6	-39.3	24.7	0.00e+00	0	34	0	1613758464	49	3775
2026-01-17 09:55:45.26	74.74	33.22	-38.7	-39.4	24.7	0.00e+00	0	34	0	1636827136	49	3811
2026-01-17 09:55:49.30	73.49	33.72	-38.4	-39.1	24.9	0.00e+00	0	34	0	1659895808	48	3902
2026-01-17 09:55:53.33	72.20	34.22	-38.6	-39.3	24.8	0.00e+00	0	34	0	1681915904	48	3973
2026-01-17 09:55:57.36	70.88	34.71	-38.8	-39.5	24.6	0.00e+00	0	34	0	1704984576	48	4066
2026-01-17 09:56:01.39	69.51	35.18	-39.0	-39.7	24.5	0.00e+00	0	34	0	1728053248	48	4169
2026-01-17 09:56:05.42	68.10	35.65	-39.1	-39.8	24.4	0.00e+00	0	34	0	1750073344	48	4218
2026-01-17 09:56:09.46	66.65	36.10	-38.7	-39.4	24.7	0.00e+00	0	34	0	1773142016	48	4040
2026-01-17 09:56:13.49	65.16	36.54	-38.8	-39.5	24.7	0.00e+00	0	34	0	1796210688	48	4064
2026-01-17 09:56:17.52	63.63	36.96	-38.7	-39.4	24.7	0.00e+00	0	34	0	1818230784	48	4025
2026-01-17 09:56:21.56	62.06	37.36	-39.1	-39.9	24.3	0.00e+00	0	34	0	1841299456	48	4258
2026-01-17 09:56:25.59	60.46	37.74	-38.7	-39.4	24.8	0.00e+00	0	34	0	1864368128	48	4025
2026-01-17 09:56:29.62	58.81	38.09	-38.6	-39.3	24.8	0.00e+00	0	34	0	1886388224	48	3979
2026-01-17 09:56:33.66	57.13	38.43	-38.9	-39.6	24.6	0.00e+00	0	34	0	1909456896	48	4119
2026-01-17 09:56:37.69	55.42	38.73	-38.7	-39.4	24.8	0.00e+00	0	34	0	1931476992	48	4029
2026-01-17 09:56:41.73	53.67	39.02	-38.5	-39.2	24.9	0.00e+00	0	34	0	1954545664	48	3944
2026-01-17 09:56:45.76	51.90	39.27	-38.8	-39.5	24.7	0.00e+00	0	34	0	1977614336	48	4066
2026-01-17 09:56:49.79	50.11	39.49	-38.6	-39.3	24.9	0.00e+00	0	34	0	1999634432	48	3970
2026-01-17 09:56:53.82	48.29	39.68	-39.0	-39.7	24.5	0.00e+00	0	34	0	2022703104	48	4166
2026-01-17 09:56:57.86	46.44	39.84	-39.0	-39.7	24.5	0.00e+00	0	34	0	2045771776	48	4173
2026-01-17 09:57:01.89	44.59	39.96	-38.6	-39.3	24.9	0.00e+00	0	34	0	2067791872	48	3993
2026-01-17 09:57:05.92	42.72	40.05	-38.7	-39.4	24.8	0.00e+00	0	34	0	2090860544	48	4037
2026-01-17 09:57:09.96	40.84	40.11	-38.6	-39.3	24.9	0.00e+00	0	34	0	2113929216	48	3983
2026-01-17 09:57:13.99	38.96	40.13	-38.4	-39.1	25.1	0.00e+00	0	34	0	2135949312	48	3884
2026-01-17 09:57:18.02	37.07	40.11	-38.5	-39.2	25.0	0.00e+00	0	34	0	2159017984	48	3929
2026-01-17 09:57:22.06	35.19	40.06	-38.5	-39.2	25.0	0.00e+00	0	34	0	2182086656	48	3932
2026-01-17 09:57:26.09	33.32	39.98	-38.4	-39.1	25.0	0.00e+00	0	34	0	2204106752	48	3900
2026-01-17 09:57:30.12	31.47	39.86	-38.4	-39.1	25.1	0.00e+00	0	34	0	2227175424	48	3890
2026-01-17 09:57:34.16	29.62	39.71	-38.4	-39.1	25.1	0.00e+00	0	34	0	2250244096	48	3873
2026-01-17 09:57:38.19	27.80	39.52	-38.5	-39.2	25.0	0.00e+00	0	34	0	2272264192	48	3948
2026-01-17 09:57:42.23	25.99	39.31	-38.5	-39.2	25.0	0.00e+00	0	34	0	2294284288	48	3929
2026-01-17 09:57:46.26	24.22	39.06	-38.3	-39.0	25.2	0.00e+00	0	34	0	2317352960	48	3847
2026-01-17 09:57:50.30	22.47	38.78	-38.1	-38.8	25.3	0.00e+00	0	34	0	2340421632	48	3768
2026-01-17 09:57:54.33	20.75	38.48	-38.6	-39.3	25.0	0.00e+00	0	34	0	2362441728	48	3973
2026-01-17 09:57:58.37	19.07	38.15	-38.2	-38.9	25.3	0.00e+00	0	34	0	2385510400	48	3792
2026-01-17 09:58:02.40	17.42	37.80	-37.8	-38.5	25.1	0.00e+00	0	34	0	2408579072	47	3866
2026-01-17 09:58:06.43	15.81	37.42	-38.0	-38.7	25.0	0.00e+00	0	34	0	2430599168	47	3940
2026-01-17 09:58:10.47	14.24	37.03	-38.3	-39.0	24.7	0.00e+00	0	34	0	2453667840	47	4062
2026-01-17 09:58:14.50	12.70	36.61	-37.8	-38.5	25.1	0.00e+00	0	34	0	2476736512	47	3861
2026-01-17 09:58:18.53	11.21	36.18	-37.9	-38.6	25.1	0.00e+00	0	34	0	2498756608	47	3873
2026-01-17 09:58:22.57	9.75	35.73	-37.9	-38.6	25.1	0.00e+00	0	34	0	2521825280	47	3885
2026-01-17 09:58:26.60	8.34	35.27	-37.9	-38.6	25.0	0.00e+00	0	34	0	2544893952	47	3905
2026-01-17 09:58:30.63	6.97	34.79	-37.8	-38.5	25.1	0.00e+00	0	34	0	2566914048	47	3845
2026-01-17 09:58:34.67	5.63	34.31	-37.8	-38.6	25.1	0.00e+00	0	34	0	2589982720	47	3869
2026-01-17 09:58:38.70	4.34	33.81	-37.7	-38.5	25.2	0.00e+00	0	34	0	2613051392	47	3826
2026-01-17 09:58:42.74	3.09	33.31	-37.7	-38.4	25.2	0.00e+00	0	34	0	2635071488	47	3801
2026-01-17 09:58:46.78	1.87	32.80	-38.1	-38.9	24.8	0.00e+00	0	34	0	2658140160	47	4014
2026-01-17 09:58:50.81	0.69	32.28	-38.1	-38.8	24.9	0.00e+00	0	34	0	2680160256	47	3969
2026-01-17 09:58:54.85	359.55	31.76	-38.2	-38.9	24.7	0.00e+00	0	34	0	2703228928	47	4032
2026-01-17 09:58:58.88	358.45	31.24	-38.1	-38.8	24.8	0.00e+00	0	34	0	2726297600	47	3973
2026-01-17 09:59:02.91	357.38	30.71	-38.2	-39.0	24.7	0.00e+00	0	34	0	2748317696	47	4061
2026-01-17 09:59:06.94	356.35	30.19	-38.4	-39.1	24.5	0.00e+00	0	34	0	2771386368	47	4142
2026-01-17 09:59:10.98	355.35	29.66	-38.5	-39.2	24.4	0.00e+00	0	34	0	2794455040	47	4182
2026-01-17 09:59:15.01	354.39	29.13	-38.4	-39.2	24.5	0.00e+00	0	34	0	2816475136	47	4149
2026-01-17 09:59:19.04	353.45	28.61	-38.3	-39.0	24.6	0.00e+00	0	34	0	2839543808	47	4098
2026-01-17 09:59:23.07	352.55	28.08	-38.2	-39.0	24.6	0.00e+00	0	34	0	2862612480	47	4054
2026-01-17 09:59:27.10	351.67	27.56	-38.5	-39.2	24.4	0.00e+00	0	34	0	2884632576	47	4191
2026-01-17 09:59:31.14	350.83	27.04	-39.0	-39.7	24.5	0.00e+00	0	34	0	2907701248	48	4167
2026-01-17 09:59:35.17	350.01	26.53	-39.0	-39.7	24.4	0.00e+00	0	34	0	2930769920	48	4189
2026-01-17 09:59:39.20	349.21	26.01	-38.9	-39.7	24.5	0.00e+00	0	34	0	2952790016	48	4148
2026-01-17 09:59:43.24	348.45	25.50	-39.3	-40.0	24.2	0.00e+00	0	34	0	2975858688	49	4069
2026-01-17 09:59:47.27	347.71	25.00	-39.1	-39.8	24.3	0.00e+00	0	34	0	2998927360	49	3996
2026-01-17 09:59:51.31	346.99	24.50	-39.3	-40.0	24.2	0.00e+00	0	34	0	3020947456	49	4070
2026-01-17 09:59:55.34	346.29	24.00	-39.2	-39.9	24.3	0.00e+00	0	34	0	3042967552	49	4020
2026-01-17 09:59:59.37	345.62	23.51	-39.1	-39.8	24.3	0.00e+00	0	34	0	3066036224	49	4000
2026-01-17 10:00:03.41	344.96	23.02	-39.1	-39.9	24.2	0.00e+00	0	34	0	3089104896	49	4011
2026-01-17 10:00:07.44	344.33	22.54	-39.4	-40.1	24.0	0.00e+00	0	34	0	3111124992	49	4118
2026-01-17 10:00:11.47	343.72	22.07	-39.6	-40.3	23.8	0.00e+00	0	34	0	3134193664	49	4220
2026-01-17 10:00:15.51	343.12	21.60	-39.5	-40.2	23.9	0.00e+00	0	34	0	3157262336	50	3953
2026-01-17 10:00:19.54	342.55	21.13	-39.6	-40.4	23.8	0.00e+00	0	34	0	3179282432	50	4022
2026-01-17 10:00:23.58	341.99	20.67	-39.8	-40.5	23.6	0.00e+00	0	34	0	3202351104	50	4083
2026-01-17 10:00:27.61	341.45	20.22	-39.9	-40.7	23.5	0.00e+00	0	34	0	3225419776	50	4165
2026-01-17 10:00:31.65	340.92	19.77	-40.1	-40.9	23.3	0.00e+00	0	34	0	3248488448	50	4248
2026-01-17 10:00:35.68	340.41	19.33	-40.0	-40.7	23.4	0.00e+00	0	34	0	3270508544	51	3955
2026-01-17 10:00:39.72	339.91	18.89	-39.9	-40.7	23.5	0.00e+00	0	34	0	3293577216	51	3916
2026-01-17 10:00:43.75	339.43	18.46	-40.3	-41.1	23.1	0.00e+00	0	34	0	3316645888	51	4122
2026-01-17 10:00:47.78	338.97	18.03	-40.6	-41.4	22.8	0.00e+00	0	34	0	3338665984	51	4252
2026-01-17 10:00:51.81	338.51	17.61	-40.6	-41.4	22.7	0.00e+00	0	34	0	3361734656	52	4024
2026-01-17 10:00:55.85	338.07	17.19	-40.7	-41.5	22.5	0.00e+00	0	34	0	3384803328	52	4088
2026-01-17 10:00:59.88	337.64	16.78	-40.7	-41.4	22.6	0.00e+00	0	34	0	3406823424	52	4042
2026-01-17 10:01:03.91	337.23	16.38	-40.8	-41.6	22.4	0.00e+00	0	34	0	3428843520	52	4106
2026-01-17 10:01:07.94	336.82	15.98	-40.9	-41.8	22.2	0.00e+00	0	34	0	3451912192	52	4198
2026-01-17 10:01:11.98	336.43	15.58	-41.2	-42.1	22.0	0.00e+00	0	34	0	3474980864	53	4105
2026-01-17 10:01:16.01	336.04	15.19	-41.1	-41.9	22.1	0.00e+00	0	34	0	3497000960	53	4048
2026-01-17 10:01:20.05	335.67	14.80	-41.3	-42.1	21.9	0.00e+00	0	34	0	3520069632	53	4135
2026-01-17 10:01:24.08	335.30	14.42	-41.2	-42.0	22.0	0.00e+00	0	34	0	3543138304	53	4081
2026-01-17 10:01:28.12	334.95	14.04	-41.3	-42.2	21.8	0.00e+00	0	34	0	3565158400	53	4161
2026-01-17 10:01:32.15	334.61	13.67	-41.5	-42.4	21.6	0.00e+00	0	34	0	3588227072	53	4249
2026-01-17 10:01:36.19	334.27	13.31	-41.6	-42.5	21.5	0.00e+00	0	34	0	3611295744	53	4317
2026-01-17 10:01:40.22	333.94	12.94	-41.9	-42.8	21.2	0.00e+00	0	34	0	3633315840	54	4205
2026-01-17 10:01:44.25	333.62	12.59	-41.8	-42.7	21.2	0.00e+00	0	34	0	3656384512	54	4168
2026-01-17 10:01:48.29	333.31	12.23	-41.8	-42.6	21.3	0.00e+00	0	34	0	3679453184	54	4134
2026-01-17 10:01:52.32	333.01	11.88	-41.9	-42.8	21.1	0.00e+00	0	34	0	3701473280	54	4209
2026-01-17 10:01:56.35	332.71	11.54	-41.9	-42.8	21.1	0.00e+00	0	34	0	3724541952	54	4221
2026-01-17 10:02:00.38	332.42	11.20	-42.1	-43.1	20.8	0.00e+00	0	34	0	3747610624	54	4343
2026-01-17 10:02:04.42	332.14	10.86	-42.1	-43.0	20.9	0.00e+00	0	34	0	3769630720	55	4088
2026-01-17 10:02:08.45	331.86	10.52	-42.1	-43.0	20.8	0.00e+00	0	34	0	3792699392	55	4074
2026-01-17 10:02:12.48	331.60	10.19	-42.4	-43.3	20.5	0.00e+00	0	34	0	3814719488	55	4221
2026-01-17 10:02:16.51	331.33	9.87	-43.0	-44.0	19.9	0.00e+00	0	34	0	3837788160	56	4333
2026-01-17 10:02:20.54	331.08	9.55	-42.6	-43.5	20.4	0.00e+00	0	34	0	3860856832	56	4096
2026-01-17 10:02:24.58	330.83	9.23	-42.7	-43.7	20.2	0.00e+00	0	34	0	3882876928	56	4150
2026-01-17 10:02:28.61	330.58	8.91	-42.8	-43.8	20.1	0.00e+00	0	34	0	3905945600	56	4203
2026-01-17 10:02:32.64	330.34	8.60	-42.9	-43.9	19.9	0.00e+00	0	34	0	3929014272	56	4272
2026-01-17 10:02:36.68	330.11	8.29	-42.7	-43.6	20.2	0.00e+00	0	34	0	3951034368	56	4130
2026-01-17 10:02:40.71	329.88	7.99	-42.8	-43.8	20.0	0.00e+00	0	34	0	3974103040	56	4214
2026-01-17 10:02:44.74	329.66	7.68	-43.1	-44.1	19.6	0.00e+00	0	34	0	3997171712	56	4373
2026-01-17 10:02:48.78	329.44	7.38	-43.2	-44.2	19.6	0.00e+00	0	34	0	4019191808	57	4181
2026-01-17 10:02:52.81	329.22	7.09	-43.1	-44.1	19.6	0.00e+00	0	34	0	4042260480	57	4139
2026-01-17 10:02:56.84	329.01	6.80	-43.2	-44.2	19.4	0.00e+00	0	34	0	4065329152	57	4191
2026-01-17 10:03:00.88	328.81	6.50	-43.5	-44.6	19.1	0.00e+00	0	34	0	4087349248	57	4369
2026-01-17 10:03:04.91	328.61	6.22	-43.3	-44.3	19.3	0.00e+00	0	34	0	4110417920	57	4242
2026-01-17 10:03:08.95	328.41	5.93	-43.6	-44.7	18.9	0.00e+00	0	34	0	4133486592	57	4423
2026-01-17 10:03:12.98	328.22	5.65	-43.4	-44.5	19.1	0.00e+00	0	34	0	4155506688	58	4075
2026-01-17 10:03:17.01	328.03	5.37	-43.7	-44.8	18.7	0.00e+00	0	34	0	4177526784	58	4211
2026-01-17 10:03:21.04	327.85	5.10	-43.9	-45.0	18.4	0.00e+00	0	34	0	4200595456	58	4327
2026-01-17 10:03:25.08	327.67	4.82	-52.9	-64.9	3.8	8.47e-01	0	34	104	4212129792	76	15118
2026-01-17 10:03:29.11	327.49	4.55	-53.4	-65.4	3.8	8.45e-01	0	34	104	4212129792	77	15117
2026-01-17 10:03:33.15	327.32	4.28	-53.7	-65.7	3.8	8.45e-01	0	34	104	4212129792	77	15582
2026-01-17 10:03:37.19	327.15	4.01	-53.8	-65.8	3.8	8.46e-01	0	34	104	4212129792	78	14892
2026-01-17 10:03:41.22	326.98	3.75	-53.7	-65.8	3.8	8.45e-01	0	34	104	4212129792	78	14919
2026-01-17 10:03:45.25	326.82	3.49	-53.7	-65.7	3.8	8.46e-01	0	34	104	4212129792	78	14798
2026-01-17 10:03:49.28	326.66	3.23	-53.7	-65.7	3.8	8.48e-01	0	34	104	4212129792	78	14809
2026-01-17 10:03:53.32	326.50	2.97	-53.7	-65.7	3.8	8.46e-01	0	34	104	4212129792	78	14778
2026-01-17 10:03:57.35	326.34	2.71	-53.7	-65.7	3.8	8.47e-01	0	34	104	4212129792	78	14785
2026-01-17 10:04:01.38	326.19	2.46	-53.7	-65.7	3.8	8.47e-01	0	34	104	4212129792	78	14731
2026-01-17 10:04:05.42	326.04	2.21	-53.7	-65.7	3.8	8.47e-01	0	34	104	4212129792	78	14711
2026-01-17 10:04:09.45	325.90	1.96	-53.6	-65.6	3.8	8.45e-01	0	34	104	4212129792	78	14661

#Closed at: 2026-01-17 10:04:10
#Recorded file [4212 MB]: D:/lorett/data/31041_260117_125022.dat