passes_logs/2026/01/17/R3.2S_Murmansk/R3.2S_Murmansk__20260117_123516_NOAA_20_JPSS-1_rec.log

#Pass ID: 20260117_123516_NOAA 20 (JPSS-1)
#Satellite: NOAA 20 (JPSS-1)
#Configuration: NOAA 20
#almurnet v.1.7.20251203
#Start time: 2026-01-17 12:35:16

#Version: 2.2.20231116
#Station: R3.2S_Murmansk
#Location: 33.079688 lon 68.888172 lat
#TLE: 1 43013U 17073A   26016.52825843  .00000039  00000+0  39346-4 0  9991
#TLE: 2 43013  98.7637 317.4515 0001446  37.2648 322.8628 14.19536276422951

#Time	Az	El	Level	Level2	SNR	BER	BlckErr	Temp	State	Recorded	gain1	gain2
2026-01-17 12:35:16.52	230.75	2.01	-52.3	-67.2	3.8	1.49e+00	0	33	0	0	76	19827
2026-01-17 12:35:19.55	231.01	2.16	-52.3	-67.3	3.8	1.49e+00	0	32	104	0	75	21064
2026-01-17 12:35:22.57	231.29	2.31	-52.3	-67.3	3.8	1.49e+00	0	32	104	0	75	21041
2026-01-17 12:35:25.59	231.56	2.46	-52.3	-67.2	3.8	1.49e+00	0	33	104	0	75	20914
2026-01-17 12:35:28.62	231.84	2.61	-52.3	-67.2	3.8	1.49e+00	0	33	104	0	75	20952
2026-01-17 12:35:31.64	232.11	2.76	-52.2	-67.2	3.8	1.49e+00	0	33	104	0	75	20863
2026-01-17 12:35:34.66	232.40	2.91	-52.3	-67.2	3.8	1.49e+00	0	33	104	0	75	20897
2026-01-17 12:35:37.69	232.68	3.06	-52.3	-67.2	3.8	1.49e+00	0	33	104	0	75	20963
2026-01-17 12:35:40.72	232.97	3.21	-52.3	-67.2	3.8	1.49e+00	0	33	104	0	75	20915
2026-01-17 12:35:43.74	233.26	3.36	-52.3	-67.2	3.8	1.49e+00	0	33	104	0	75	20898
2026-01-17 12:35:46.77	233.55	3.51	-52.2	-67.2	3.8	1.49e+00	0	33	104	0	75	20934
2026-01-17 12:35:49.80	233.85	3.67	-52.2	-67.2	3.8	1.49e+00	0	33	104	0	75	20874
2026-01-17 12:35:52.82	234.15	3.82	-52.2	-67.1	3.8	1.49e+00	0	33	104	0	75	20754
2026-01-17 12:35:55.84	234.45	3.97	-52.3	-67.1	3.8	1.49e+00	0	34	104	0	75	20752
2026-01-17 12:35:58.87	234.76	4.12	-52.2	-67.0	3.8	1.49e+00	0	33	104	0	75	20517
2026-01-17 12:36:01.89	235.06	4.27	-52.2	-67.2	3.8	1.49e+00	0	34	104	0	75	20841
2026-01-17 12:36:04.92	235.37	4.43	-52.2	-65.9	3.8	1.49e+00	0	34	104	0	75	18056
2026-01-17 12:36:07.95	235.69	4.58	-51.9	-62.0	4.8	9.46e-01	0	34	0	1048576	75	11519
2026-01-17 12:36:10.97	236.01	4.73	-51.4	-58.6	7.4	1.72e-01	0	34	0	6291456	74	8177
2026-01-17 12:36:14.00	236.33	4.88	-49.8	-53.7	12.5	2.32e-04	0	34	0	12582912	71	5547
2026-01-17 12:36:17.02	236.65	5.04	-48.7	-51.5	14.7	0.00e+00	0	34	0	17825792	69	4854
2026-01-17 12:36:20.04	236.98	5.19	-51.4	-58.1	8.1	1.76e-02	0	34	0	24117248	73	8261
2026-01-17 12:36:23.07	237.31	5.34	-48.4	-51.0	15.3	3.80e-06	0	34	0	29360128	68	4848
2026-01-17 12:36:26.09	237.64	5.50	-48.3	-50.8	15.5	0.00e+00	0	34	0	34603008	68	4743
2026-01-17 12:36:29.12	237.98	5.65	-48.1	-50.5	15.8	0.00e+00	0	34	0	40894464	68	4583
2026-01-17 12:36:32.15	238.32	5.80	-47.9	-50.2	16.0	0.00e+00	0	34	0	46137344	67	4704
2026-01-17 12:36:35.17	238.66	5.96	-47.8	-50.1	16.1	0.00e+00	0	34	0	52428800	67	4636
2026-01-17 12:36:38.20	239.01	6.11	-47.8	-50.1	16.2	0.00e+00	0	34	0	57671680	67	4640
2026-01-17 12:36:41.22	239.36	6.27	-47.8	-50.1	16.2	0.00e+00	0	34	0	63963136	67	4627
2026-01-17 12:36:44.25	239.72	6.42	-47.7	-50.0	16.4	0.00e+00	0	34	0	69206016	67	4558
2026-01-17 12:36:47.28	240.08	6.57	-47.6	-49.8	16.6	0.00e+00	0	34	0	74448896	67	4447
2026-01-17 12:36:50.30	240.44	6.73	-47.8	-50.1	16.3	0.00e+00	0	34	0	80740352	67	4631
2026-01-17 12:36:53.33	240.80	6.88	-47.8	-50.1	16.4	0.00e+00	0	34	0	85983232	67	4612
2026-01-17 12:36:56.36	241.17	7.03	-47.7	-50.0	16.5	0.00e+00	0	34	0	92274688	67	4562
2026-01-17 12:36:59.38	241.54	7.19	-47.4	-49.5	16.9	0.00e+00	0	34	0	97517568	66	4581
2026-01-17 12:37:02.41	241.92	7.34	-47.4	-49.5	17.0	0.00e+00	0	34	0	102760448	66	4553
2026-01-17 12:37:05.43	242.30	7.49	-47.3	-49.3	17.1	0.00e+00	0	34	0	109051904	66	4482
2026-01-17 12:37:08.46	242.69	7.65	-47.3	-49.3	17.2	0.00e+00	0	34	0	114294784	66	4481
2026-01-17 12:37:11.49	243.08	7.80	-47.4	-49.5	17.0	0.00e+00	0	34	0	120586240	66	4567
2026-01-17 12:37:14.51	243.47	7.95	-47.3	-49.3	17.1	0.00e+00	0	34	0	125829120	66	4489
2026-01-17 12:37:17.54	243.86	8.11	-47.5	-49.5	17.0	0.00e+00	0	34	0	131072000	66	4595
2026-01-17 12:37:20.56	244.26	8.26	-47.4	-49.5	17.1	0.00e+00	0	34	0	137363456	66	4556
2026-01-17 12:37:23.59	244.67	8.41	-47.6	-49.6	17.0	0.00e+00	0	34	0	142606336	66	4646
2026-01-17 12:37:26.61	245.08	8.56	-47.2	-49.1	17.4	0.00e+00	0	34	0	148897792	66	4390
2026-01-17 12:37:29.63	245.49	8.71	-47.4	-49.4	17.2	0.00e+00	0	34	0	154140672	66	4529
2026-01-17 12:37:32.66	245.91	8.87	-47.1	-49.1	17.6	0.00e+00	0	34	0	159383552	66	4343
2026-01-17 12:37:35.68	246.33	9.02	-47.1	-49.0	17.7	0.00e+00	0	34	0	165675008	66	4315
2026-01-17 12:37:38.70	246.75	9.17	-47.2	-49.1	17.6	0.00e+00	0	34	0	170917888	66	4359
2026-01-17 12:37:41.73	247.18	9.32	-46.8	-48.6	18.0	0.00e+00	0	34	0	177209344	65	4379
2026-01-17 12:37:44.75	247.61	9.46	-46.8	-48.5	18.2	0.00e+00	0	34	0	182452224	65	4323
2026-01-17 12:37:47.78	248.05	9.61	-46.7	-48.5	18.2	0.00e+00	0	34	0	187695104	65	4298
2026-01-17 12:37:50.80	248.49	9.76	-46.5	-48.2	18.5	0.00e+00	0	34	0	193986560	64	4412
2026-01-17 12:37:53.82	248.94	9.91	-46.4	-48.1	18.6	0.00e+00	0	34	0	199229440	64	4349
2026-01-17 12:37:56.85	249.39	10.06	-46.3	-47.9	18.8	0.00e+00	0	34	0	205520896	64	4263
2026-01-17 12:37:59.87	249.84	10.20	-46.2	-47.8	18.8	0.00e+00	0	34	0	210763776	64	4237
2026-01-17 12:38:02.89	250.30	10.35	-46.1	-47.7	19.0	0.00e+00	0	34	0	216006656	64	4154
2026-01-17 12:38:05.92	250.77	10.49	-46.1	-47.7	19.0	0.00e+00	0	34	0	222298112	64	4163
2026-01-17 12:38:08.94	251.23	10.64	-46.3	-47.9	18.9	0.00e+00	0	35	0	227540992	64	4260
2026-01-17 12:38:11.96	251.70	10.78	-46.5	-48.1	18.6	0.00e+00	0	34	0	233832448	64	4390
2026-01-17 12:38:14.99	252.18	10.92	-46.2	-47.8	19.1	0.00e+00	0	34	0	239075328	63	4454
2026-01-17 12:38:18.01	252.66	11.06	-46.3	-47.9	18.9	0.00e+00	0	34	0	244318208	63	4532
2026-01-17 12:38:21.04	253.15	11.20	-46.4	-47.9	18.9	0.00e+00	0	34	0	250609664	63	4544
2026-01-17 12:38:24.06	253.64	11.34	-46.3	-47.9	18.8	0.00e+00	0	34	0	255852544	64	4286
2026-01-17 12:38:27.09	254.13	11.48	-46.3	-47.8	18.9	0.00e+00	0	34	0	262144000	64	4239
2026-01-17 12:38:30.11	254.63	11.62	-46.4	-48.0	18.8	0.00e+00	0	34	0	267386880	64	4308
2026-01-17 12:38:33.13	255.14	11.75	-46.5	-48.2	18.7	0.00e+00	0	34	0	273678336	64	4397
2026-01-17 12:38:36.16	255.65	11.89	-46.4	-48.0	18.8	0.00e+00	0	34	0	278921216	64	4314
2026-01-17 12:38:39.18	256.16	12.02	-46.5	-48.1	18.7	0.00e+00	0	34	0	284164096	64	4367
2026-01-17 12:38:42.21	256.68	12.15	-46.7	-48.3	18.5	0.00e+00	0	34	0	290455552	64	4488
2026-01-17 12:38:45.23	257.20	12.28	-46.8	-48.6	18.2	0.00e+00	0	34	0	295698432	64	4612
2026-01-17 12:38:48.26	257.72	12.41	-46.8	-48.6	18.3	0.00e+00	0	34	0	301989888	64	4607
2026-01-17 12:38:51.28	258.25	12.54	-47.0	-48.8	18.1	0.00e+00	0	34	0	307232768	64	4726
2026-01-17 12:38:54.31	258.79	12.66	-47.2	-49.1	17.8	0.00e+00	0	34	0	312475648	65	4611
2026-01-17 12:38:57.33	259.33	12.79	-47.5	-49.4	17.5	0.00e+00	0	34	0	318767104	65	4809
2026-01-17 12:39:00.36	259.87	12.91	-47.4	-49.3	17.5	0.00e+00	0	34	0	324009984	65	4751
2026-01-17 12:39:03.39	260.42	13.03	-47.5	-49.4	17.4	0.00e+00	0	34	0	330301440	65	4801
2026-01-17 12:39:06.41	260.97	13.15	-47.5	-49.5	17.3	0.00e+00	0	34	0	335544320	65	4847
2026-01-17 12:39:09.43	261.53	13.27	-47.9	-50.0	16.9	0.00e+00	0	34	0	341835776	66	4825
2026-01-17 12:39:12.46	262.09	13.38	-47.9	-50.1	16.8	0.00e+00	0	35	0	347078656	66	4875
2026-01-17 12:39:15.48	262.66	13.49	-48.0	-50.1	16.8	0.00e+00	0	34	0	352321536	66	4894
2026-01-17 12:39:18.51	263.23	13.61	-47.8	-49.9	17.0	0.00e+00	0	35	0	358612992	66	4792
2026-01-17 12:39:21.53	263.80	13.71	-47.9	-50.0	16.9	0.00e+00	0	34	0	363855872	66	4824
2026-01-17 12:39:24.55	264.37	13.82	-48.3	-50.6	16.4	0.00e+00	0	34	0	370147328	67	4884
2026-01-17 12:39:27.58	264.96	13.93	-48.2	-50.4	16.5	0.00e+00	0	35	0	375390208	67	4792
2026-01-17 12:39:30.61	265.54	14.03	-48.0	-50.1	16.8	0.00e+00	0	35	0	380633088	67	4622
2026-01-17 12:39:33.63	266.13	14.13	-47.6	-49.6	17.3	0.00e+00	0	35	0	386924544	67	4382
2026-01-17 12:39:36.66	266.73	14.23	-47.6	-49.6	17.3	0.00e+00	0	35	0	392167424	67	4372
2026-01-17 12:39:39.68	267.32	14.32	-47.7	-49.7	17.3	0.00e+00	0	34	0	398458880	67	4404
2026-01-17 12:39:42.70	267.92	14.41	-47.7	-49.7	17.2	0.00e+00	0	34	0	403701760	67	4432
2026-01-17 12:39:45.73	268.53	14.50	-47.0	-48.7	18.1	0.00e+00	0	35	0	409993216	66	4191
2026-01-17 12:39:48.76	269.13	14.59	-46.6	-48.3	18.6	0.00e+00	0	35	0	415236096	65	4196
2026-01-17 12:39:51.79	269.75	14.68	-46.4	-48.0	18.9	0.00e+00	0	34	0	420478976	64	4329
2026-01-17 12:39:54.81	270.36	14.76	-46.5	-48.1	18.8	0.00e+00	0	34	0	426770432	64	4383
2026-01-17 12:39:57.84	270.98	14.84	-46.6	-48.2	18.6	0.00e+00	0	35	0	432013312	64	4437
2026-01-17 12:40:00.86	271.60	14.91	-46.7	-48.3	18.6	0.00e+00	0	35	0	438304768	64	4467
2026-01-17 12:40:03.89	272.22	14.99	-46.4	-48.0	18.9	0.00e+00	0	34	0	443547648	64	4320
2026-01-17 12:40:06.91	272.85	15.06	-46.5	-48.1	18.8	0.00e+00	0	35	0	448790528	64	4372
2026-01-17 12:40:09.94	273.48	15.12	-46.9	-48.6	18.3	0.00e+00	0	34	0	455081984	64	4651
2026-01-17 12:40:12.96	274.11	15.19	-47.2	-49.0	18.0	0.00e+00	0	35	0	460324864	64	4820
2026-01-17 12:40:15.99	274.74	15.25	-47.2	-49.0	17.9	0.00e+00	0	35	0	466616320	65	4583
2026-01-17 12:40:19.01	275.38	15.31	-47.3	-49.2	17.8	0.00e+00	0	34	0	471859200	65	4666
2026-01-17 12:40:22.03	276.02	15.36	-47.3	-49.1	17.8	0.00e+00	0	34	0	477102080	65	4650
2026-01-17 12:40:25.06	276.66	15.41	-47.5	-49.4	17.6	0.00e+00	0	34	0	483393536	65	4784
2026-01-17 12:40:28.08	277.30	15.46	-47.3	-49.1	17.9	0.00e+00	0	34	0	488636416	65	4602
2026-01-17 12:40:31.11	277.95	15.51	-47.2	-49.0	18.0	0.00e+00	0	35	0	494927872	65	4577
2026-01-17 12:40:34.14	278.60	15.55	-47.5	-49.3	17.7	0.00e+00	0	34	0	500170752	65	4747
2026-01-17 12:40:37.16	279.24	15.59	-47.2	-49.0	18.0	0.00e+00	0	34	0	505413632	65	4550
2026-01-17 12:40:40.19	279.90	15.62	-47.0	-48.8	18.3	0.00e+00	0	34	0	511705088	65	4444
2026-01-17 12:40:43.21	280.55	15.66	-47.0	-48.7	18.4	0.00e+00	0	35	0	516947968	65	4404
2026-01-17 12:40:46.24	281.20	15.68	-47.1	-48.8	18.3	0.00e+00	0	35	0	523239424	65	4462
2026-01-17 12:40:49.26	281.85	15.71	-47.1	-48.9	18.2	0.00e+00	0	34	0	528482304	65	4498
2026-01-17 12:40:52.30	282.51	15.73	-47.3	-49.1	18.1	0.00e+00	0	35	0	533725184	65	4600
2026-01-17 12:40:55.32	283.17	15.75	-47.2	-48.9	18.2	0.00e+00	0	35	0	540016640	65	4530
2026-01-17 12:40:58.35	283.82	15.76	-47.4	-49.2	18.0	0.00e+00	0	35	0	545259520	65	4662
2026-01-17 12:41:01.38	284.48	15.77	-47.0	-48.7	18.3	0.00e+00	0	34	0	551550976	65	4440
2026-01-17 12:41:04.40	285.14	15.78	-46.8	-48.5	18.6	0.00e+00	0	34	0	556793856	65	4309
2026-01-17 12:41:07.42	285.79	15.78	-46.9	-48.6	18.6	0.00e+00	0	35	0	563085312	65	4349
2026-01-17 12:41:10.45	286.45	15.78	-47.1	-48.8	18.3	0.00e+00	0	34	0	568328192	65	4476
2026-01-17 12:41:13.48	287.11	15.78	-47.1	-48.8	18.4	0.00e+00	0	35	0	573571072	65	4452
2026-01-17 12:41:16.50	287.77	15.77	-46.7	-48.3	18.8	0.00e+00	0	34	0	579862528	65	4223
2026-01-17 12:41:19.53	288.42	15.76	-46.6	-48.2	18.9	0.00e+00	0	35	0	585105408	65	4169
2026-01-17 12:41:22.55	289.08	15.75	-46.8	-48.4	18.8	0.00e+00	0	35	0	591396864	65	4268
2026-01-17 12:41:25.57	289.73	15.73	-46.8	-48.4	18.8	0.00e+00	0	34	0	596639744	65	4263
2026-01-17 12:41:28.60	290.39	15.71	-46.7	-48.3	18.9	0.00e+00	0	34	0	601882624	65	4200
2026-01-17 12:41:31.62	291.04	15.69	-46.6	-48.1	19.1	0.00e+00	0	35	0	608174080	65	4142
2026-01-17 12:41:34.64	291.69	15.66	-46.5	-48.1	19.1	0.00e+00	0	34	0	613416960	65	4117
2026-01-17 12:41:37.67	292.35	15.63	-46.7	-48.2	19.0	0.00e+00	0	35	0	619708416	65	4190
2026-01-17 12:41:40.70	293.00	15.59	-46.7	-48.3	18.9	0.00e+00	0	35	0	624951296	65	4199
2026-01-17 12:41:43.72	293.64	15.55	-46.7	-48.4	18.8	0.00e+00	0	34	0	631242752	65	4243
2026-01-17 12:41:46.74	294.29	15.51	-46.6	-48.1	19.0	0.00e+00	0	35	0	636485632	65	4138
2026-01-17 12:41:49.77	294.93	15.47	-46.4	-48.0	19.2	0.00e+00	0	35	0	641728512	64	4292
2026-01-17 12:41:52.79	295.58	15.42	-46.6	-48.2	19.0	0.00e+00	0	34	0	648019968	64	4392
2026-01-17 12:41:55.82	296.22	15.37	-46.6	-48.2	18.9	0.00e+00	0	35	0	653262848	64	4398
2026-01-17 12:41:58.84	296.85	15.31	-46.5	-48.0	19.0	0.00e+00	0	34	0	659554304	64	4329
2026-01-17 12:42:01.86	297.49	15.26	-46.5	-48.0	19.1	0.00e+00	0	35	0	664797184	64	4307
2026-01-17 12:42:04.89	298.12	15.19	-46.6	-48.2	19.0	0.00e+00	0	34	0	670040064	64	4402
2026-01-17 12:42:07.91	298.75	15.13	-46.5	-48.1	19.1	0.00e+00	0	35	0	676331520	64	4348
2026-01-17 12:42:10.94	299.38	15.06	-46.2	-47.7	19.4	0.00e+00	0	35	0	681574400	64	4177
2026-01-17 12:42:13.96	300.01	14.99	-46.0	-47.5	19.5	0.00e+00	0	34	0	687865856	64	4062
2026-01-17 12:42:16.99	300.63	14.92	-46.1	-47.5	19.7	0.00e+00	0	34	0	693108736	63	4298
2026-01-17 12:42:20.01	301.25	14.85	-46.1	-47.6	19.7	0.00e+00	0	35	0	698351616	63	4346
2026-01-17 12:42:23.04	301.86	14.77	-46.4	-47.9	19.4	0.00e+00	0	34	0	704643072	63	4506
2026-01-17 12:42:26.06	302.48	14.69	-46.3	-47.8	19.4	0.00e+00	0	34	0	709885952	63	4483
2026-01-17 12:42:29.08	303.08	14.60	-45.9	-47.3	19.9	0.00e+00	0	34	0	716177408	63	4230
2026-01-17 12:42:32.11	303.69	14.51	-45.6	-47.0	20.2	0.00e+00	0	35	0	721420288	63	4065
2026-01-17 12:42:35.13	304.29	14.43	-45.8	-47.1	20.1	0.00e+00	0	35	0	726663168	63	4134
2026-01-17 12:42:38.15	304.89	14.33	-45.7	-47.0	20.2	0.00e+00	0	34	0	732954624	63	4089
2026-01-17 12:42:41.18	305.49	14.24	-45.9	-47.3	19.9	0.00e+00	0	34	0	738197504	63	4213
2026-01-17 12:42:44.20	306.08	14.14	-46.2	-47.6	19.6	0.00e+00	0	34	0	744488960	63	4386
2026-01-17 12:42:47.22	306.66	14.04	-45.9	-47.3	19.9	0.00e+00	0	34	0	749731840	63	4206
2026-01-17 12:42:50.25	307.25	13.94	-45.8	-47.2	20.0	0.00e+00	0	34	0	754974720	63	4177
2026-01-17 12:42:53.27	307.83	13.84	-46.0	-47.4	19.8	0.00e+00	0	34	0	761266176	63	4282
2026-01-17 12:42:56.30	308.41	13.73	-45.9	-47.3	19.9	0.00e+00	0	34	0	766509056	63	4218
2026-01-17 12:42:59.32	308.98	13.62	-46.3	-47.7	19.4	0.00e+00	0	34	0	772800512	63	4432
2026-01-17 12:43:02.35	309.55	13.51	-46.5	-48.1	19.1	0.00e+00	0	34	0	778043392	63	4619
2026-01-17 12:43:05.37	310.11	13.40	-46.6	-48.1	19.0	0.00e+00	0	34	0	783286272	63	4651
2026-01-17 12:43:08.39	310.67	13.29	-46.7	-48.3	18.7	0.00e+00	0	35	0	789577728	64	4491
2026-01-17 12:43:11.42	311.22	13.17	-46.7	-48.4	18.6	0.00e+00	0	34	0	794820608	64	4537
2026-01-17 12:43:14.44	311.77	13.05	-46.7	-48.4	18.7	0.00e+00	0	34	0	801112064	64	4497
2026-01-17 12:43:17.46	312.32	12.93	-46.8	-48.5	18.6	0.00e+00	0	34	0	806354944	64	4564
2026-01-17 12:43:20.49	312.86	12.81	-47.4	-49.2	17.8	0.00e+00	0	34	0	811597824	65	4689
2026-01-17 12:43:23.51	313.40	12.69	-48.0	-50.1	16.9	0.00e+00	0	34	0	817889280	66	4906
2026-01-17 12:43:26.54	313.93	12.56	-48.3	-50.6	16.5	0.00e+00	0	35	0	823132160	67	4877
2026-01-17 12:43:29.56	314.46	12.44	-48.5	-50.8	16.2	0.00e+00	0	34	0	829423616	67	5041
2026-01-17 12:43:32.58	314.98	12.31	-48.8	-51.2	15.9	0.00e+00	0	34	0	834666496	68	4983
2026-01-17 12:43:35.61	315.51	12.18	-48.5	-50.8	16.3	0.00e+00	0	34	0	839909376	68	4713
2026-01-17 12:43:38.64	316.02	12.05	-47.8	-49.8	17.1	0.00e+00	0	34	0	846200832	67	4483
2026-01-17 12:43:41.66	316.53	11.92	-47.7	-49.7	17.3	0.00e+00	0	34	0	851443712	67	4406
2026-01-17 12:43:44.68	317.04	11.78	-48.1	-50.2	16.7	0.00e+00	0	34	0	857735168	67	4693
2026-01-17 12:43:47.71	317.54	11.65	-48.4	-50.7	16.2	0.00e+00	0	34	0	862978048	67	4970
2026-01-17 12:43:50.73	318.04	11.51	-48.6	-51.1	15.8	0.00e+00	0	35	0	869269504	67	5180
2026-01-17 12:43:53.76	318.53	11.38	-48.5	-50.9	16.0	0.00e+00	0	34	0	874512384	67	5087
2026-01-17 12:43:56.78	319.02	11.24	-48.2	-50.4	16.5	0.00e+00	0	34	0	879755264	67	4797
2026-01-17 12:43:59.80	319.51	11.10	-48.2	-50.5	16.4	0.00e+00	0	34	0	886046720	67	4817
2026-01-17 12:44:02.83	319.99	10.96	-48.0	-50.1	16.7	0.00e+00	0	34	0	891289600	67	4633
2026-01-17 12:44:05.85	320.46	10.82	-47.5	-49.4	17.4	0.00e+00	0	34	0	897581056	67	4285
2026-01-17 12:44:08.88	320.93	10.68	-47.2	-49.1	17.8	0.00e+00	0	35	0	902823936	66	4354
2026-01-17 12:44:11.90	321.40	10.54	-47.3	-49.2	17.7	0.00e+00	0	34	0	908066816	66	4398
2026-01-17 12:44:14.93	321.86	10.39	-47.6	-49.6	17.2	0.00e+00	0	34	0	914358272	66	4616
2026-01-17 12:44:17.95	322.32	10.25	-47.5	-49.6	17.2	0.00e+00	0	34	0	919601152	66	4599
2026-01-17 12:44:20.97	322.77	10.10	-47.7	-49.8	17.0	0.00e+00	0	34	0	925892608	66	4723
2026-01-17 12:44:24.00	323.22	9.96	-47.9	-50.0	16.8	0.00e+00	0	35	0	931135488	66	4842
2026-01-17 12:44:27.02	323.67	9.81	-47.6	-49.6	17.1	0.00e+00	0	34	0	937426944	66	4635
2026-01-17 12:44:30.04	324.11	9.66	-46.7	-48.4	18.3	0.00e+00	0	34	0	942669824	65	4265
2026-01-17 12:44:33.07	324.55	9.52	-46.6	-48.3	18.4	0.00e+00	0	34	0	947912704	65	4225
2026-01-17 12:44:36.09	324.98	9.37	-47.0	-48.8	17.8	0.00e+00	0	34	0	954204160	65	4488
2026-01-17 12:44:39.12	325.41	9.22	-47.1	-49.0	17.7	0.00e+00	0	34	0	959447040	65	4560
2026-01-17 12:44:42.14	325.83	9.07	-47.2	-49.1	17.5	0.00e+00	0	34	0	965738496	65	4639
2026-01-17 12:44:45.17	326.25	8.92	-47.0	-48.8	17.8	0.00e+00	0	34	0	970981376	65	4463
2026-01-17 12:44:48.19	326.66	8.77	-47.3	-49.2	17.4	0.00e+00	0	34	0	976224256	65	4673
2026-01-17 12:44:51.22	327.08	8.62	-47.3	-49.2	17.4	0.00e+00	0	35	0	982515712	65	4698
2026-01-17 12:44:54.24	327.48	8.47	-47.1	-49.0	17.6	0.00e+00	0	34	0	987758592	65	4562
2026-01-17 12:44:57.27	327.89	8.32	-47.0	-48.9	17.6	0.00e+00	0	34	0	994050048	65	4515
2026-01-17 12:45:00.29	328.29	8.17	-47.1	-49.0	17.5	0.00e+00	0	34	0	999292928	65	4590
2026-01-17 12:45:03.32	328.68	8.02	-47.3	-49.3	17.2	0.00e+00	0	35	0	1004535808	65	4742
2026-01-17 12:45:06.35	329.07	7.87	-46.9	-48.8	17.8	0.00e+00	0	35	0	1010827264	65	4454
2026-01-17 12:45:09.37	329.46	7.72	-47.1	-49.0	17.5	0.00e+00	0	34	0	1016070144	65	4559
2026-01-17 12:45:12.40	329.85	7.56	-47.1	-49.0	17.4	0.00e+00	0	34	0	1022361600	65	4593
2026-01-17 12:45:15.43	330.23	7.41	-47.3	-49.4	17.0	0.00e+00	0	34	0	1027604480	65	4789
2026-01-17 12:45:18.45	330.60	7.26	-47.4	-49.5	16.9	0.00e+00	0	34	0	1032847360	65	4857
2026-01-17 12:45:21.47	330.97	7.11	-47.8	-50.0	16.5	0.00e+00	0	34	0	1039138816	66	4829
2026-01-17 12:45:24.50	331.34	6.96	-47.4	-49.4	17.0	0.00e+00	0	34	0	1044381696	66	4527
2026-01-17 12:45:27.52	331.71	6.80	-47.5	-49.7	16.7	0.00e+00	0	35	0	1050673152	66	4653
2026-01-17 12:45:30.55	332.07	6.65	-47.8	-50.0	16.4	0.00e+00	0	35	0	1055916032	66	4847
2026-01-17 12:45:33.57	332.43	6.50	-47.9	-50.2	16.2	0.00e+00	0	34	0	1061158912	66	4972
2026-01-17 12:45:36.60	332.78	6.35	-48.0	-50.3	16.0	0.00e+00	0	34	0	1067450368	66	5029
2026-01-17 12:45:39.63	333.13	6.19	-47.8	-50.1	16.3	0.00e+00	0	35	0	1072693248	66	4892
2026-01-17 12:45:42.65	333.48	6.04	-47.9	-50.2	16.1	0.00e+00	0	35	0	1078984704	66	4967
2026-01-17 12:45:45.68	333.82	5.89	-48.0	-50.5	15.8	0.00e+00	0	34	0	1084227584	66	5134
2026-01-17 12:45:48.70	334.16	5.74	-48.0	-50.4	15.8	0.00e+00	0	35	0	1089470464	66	5099
2026-01-17 12:45:51.73	334.50	5.58	-48.1	-50.7	15.4	0.00e+00	0	34	0	1095761920	67	4967
2026-01-17 12:45:54.75	334.83	5.43	-47.9	-50.5	15.4	0.00e+00	0	35	0	1101004800	67	4855
2026-01-17 12:45:57.78	335.16	5.28	-47.9	-50.4	15.6	0.00e+00	0	35	0	1107296256	67	4786
2026-01-17 12:46:00.80	335.49	5.13	-48.1	-50.6	15.4	0.00e+00	0	34	0	1112539136	67	4911
2026-01-17 12:46:03.82	335.81	4.98	-51.9	-61.0	5.6	3.28e-02	0	35	0	1118830592	74	10837
2026-01-17 12:46:06.85	336.14	4.82	-53.2	-68.2	3.8	1.49e+00	0	35	104	1118830592	76	22137
2026-01-17 12:46:09.88	336.45	4.67	-53.5	-68.5	3.8	1.49e+00	0	35	104	1118830592	77	21730
2026-01-17 12:46:12.90	336.77	4.52	-53.8	-68.8	3.8	1.49e+00	0	35	104	1118830592	78	21113
2026-01-17 12:46:15.93	337.08	4.37	-53.8	-68.9	3.8	1.49e+00	0	35	104	1118830592	78	21309
2026-01-17 12:46:18.96	337.39	4.22	-53.9	-68.9	3.8	1.49e+00	0	35	104	1118830592	78	21405
2026-01-17 12:46:21.98	337.69	4.07	-53.9	-68.9	3.8	1.49e+00	0	35	104	1118830592	78	21419
2026-01-17 12:46:25.01	338.00	3.92	-53.9	-68.9	3.8	1.49e+00	0	35	104	1118830592	78	21377
2026-01-17 12:46:28.03	338.30	3.77	-53.8	-68.9	3.8	1.49e+00	0	35	104	1118830592	78	21261
2026-01-17 12:46:30.97	338.58	3.62	-53.8	-68.8	3.8	1.49e+00	0	34	104	1118830592	78	21217
2026-01-17 12:46:34.00	338.88	3.47	-53.8	-68.8	3.8	1.49e+00	0	35	104	1118830592	78	21198
2026-01-17 12:46:37.02	339.17	3.32	-53.8	-68.8	3.8	1.49e+00	0	34	104	1118830592	78	21112
2026-01-17 12:46:40.05	339.46	3.17	-53.8	-68.8	3.8	1.49e+00	0	35	104	1118830592	78	21118
2026-01-17 12:46:43.08	339.74	3.02	-53.7	-68.8	3.8	1.49e+00	0	35	104	1118830592	78	21102
2026-01-17 12:46:46.10	340.03	2.88	-53.7	-68.8	3.8	1.49e+00	0	35	104	1118830592	78	21082
2026-01-17 12:46:49.13	340.31	2.73	-53.7	-68.8	3.8	1.49e+00	0	35	104	1118830592	78	21138
2026-01-17 12:46:52.15	340.58	2.58	-53.7	-68.7	3.8	1.49e+00	0	35	104	1118830592	78	21016
2026-01-17 12:46:55.18	340.86	2.43	-53.7	-68.7	3.8	1.49e+00	0	35	104	1118830592	78	21002
2026-01-17 12:46:58.20	341.13	2.28	-53.7	-68.8	3.8	1.49e+00	0	35	104	1118830592	78	21066
2026-01-17 12:47:01.23	341.40	2.13	-53.7	-68.8	3.8	1.49e+00	0	35	104	1118830592	78	21029
2026-01-17 12:47:04.26	341.67	1.99	-53.7	-68.7	3.8	1.49e+00	0	35	104	1118830592	78	20961

#Closed at: 2026-01-17 12:47:06
#Recorded file [1118 MB]: D:/lorett/data/31041_260117_153516.dat