passes_logs/2026/01/17/R3.2S_Murmansk/R3.2S_Murmansk__20260117_064616_KANOPUS-V_5_rec.log

#Pass ID: 20260117_064616_KANOPUS-V 5
#Satellite: KANOPUS-V 5
#Configuration: KANOPUS-V_8320
#almurnet v.1.7.20251203
#Start time: 2026-01-17 06:46:17

#Version: 2.2.20231116
#Station: R3.2S_Murmansk
#Location: 33.079688 lon 68.888172 lat
#TLE: 1 43876U 18111A   26016.61566373  .00002373  00000+0  10257-3 0  9994
#TLE: 2 43876  97.3688 285.1004 0001785  87.8669 272.2772 15.23445052391717

#Time	Az	El	Level	Level2	SNR	BER	BlckErr	Temp	State	Recorded	gain1	gain2
2026-01-17 06:46:17.81	132.00	2.11	-52.7	-61.5	3.8	7.46e-01	0	34	0	0	77	9650
2026-01-17 06:46:20.83	131.88	2.32	-52.6	-61.5	3.8	7.46e-01	0	34	104	0	76	10244
2026-01-17 06:46:23.85	131.76	2.53	-52.6	-61.5	3.8	7.46e-01	0	34	104	0	76	10230
2026-01-17 06:46:26.87	131.64	2.74	-52.6	-61.5	3.8	7.46e-01	0	34	104	0	76	10210
2026-01-17 06:46:29.90	131.52	2.96	-52.6	-61.4	3.8	7.45e-01	0	34	104	0	76	10162
2026-01-17 06:46:32.84	131.39	3.17	-52.6	-61.4	3.8	7.45e-01	0	34	104	0	76	10135
2026-01-17 06:46:35.86	131.26	3.39	-52.6	-61.3	3.8	7.45e-01	0	34	104	0	76	10000
2026-01-17 06:46:38.89	131.13	3.61	-52.6	-61.4	3.8	7.47e-01	0	34	104	0	76	10174
2026-01-17 06:46:41.91	131.00	3.84	-52.6	-61.3	3.8	7.47e-01	0	34	104	0	76	10053
2026-01-17 06:46:44.94	130.86	4.07	-52.4	-60.7	3.8	7.45e-01	0	34	104	0	76	9339
2026-01-17 06:46:47.96	130.72	4.29	-52.3	-60.0	3.8	7.45e-01	0	34	104	0	76	8614
2026-01-17 06:46:50.99	130.58	4.53	-52.2	-59.5	3.8	7.43e-01	0	34	104	0	76	8170
2026-01-17 06:46:54.01	130.43	4.76	-50.5	-55.2	5.5	6.80e-01	0	34	0	20971520	73	5879
2026-01-17 06:46:57.04	130.28	5.00	-47.9	-51.0	9.6	6.05e-01	0	34	0	69206016	67	5103
2026-01-17 06:47:00.06	130.13	5.24	-47.7	-50.5	10.1	5.99e-01	0	34	0	102760448	67	4834
2026-01-17 06:47:03.09	129.97	5.48	-47.4	-50.2	10.2	5.98e-01	0	34	0	148897792	65	5257
2026-01-17 06:47:06.11	129.81	5.73	-46.3	-48.8	11.6	5.91e-01	0	34	0	195035136	64	4710
2026-01-17 06:47:09.13	129.65	5.98	-45.9	-48.3	12.2	5.89e-01	0	34	0	243269632	63	4745
2026-01-17 06:47:12.16	129.48	6.23	-45.7	-48.1	12.5	5.87e-01	0	34	0	289406976	63	4617
2026-01-17 06:47:15.18	129.31	6.48	-45.5	-47.8	12.8	5.87e-01	0	34	0	335544320	63	4476
2026-01-17 06:47:18.20	129.13	6.74	-45.4	-47.6	13.0	5.87e-01	0	34	0	381681664	62	4640
2026-01-17 06:47:21.22	128.95	7.00	-45.4	-47.6	12.9	5.87e-01	0	34	0	429916160	62	4650
2026-01-17 06:47:24.25	128.77	7.27	-45.4	-47.6	13.0	5.86e-01	0	34	0	476053504	62	4630
2026-01-17 06:47:27.28	128.58	7.54	-45.2	-47.4	13.3	5.86e-01	0	34	0	522190848	62	4506
2026-01-17 06:47:30.30	128.39	7.81	-45.0	-47.2	13.5	5.85e-01	0	34	0	568328192	62	4428
2026-01-17 06:47:33.33	128.19	8.09	-44.9	-47.1	13.6	5.86e-01	0	34	0	614465536	61	4609
2026-01-17 06:47:36.35	127.99	8.37	-44.7	-46.9	13.8	5.85e-01	0	35	0	660602880	61	4507
2026-01-17 06:47:39.37	127.78	8.65	-44.7	-46.9	13.8	5.84e-01	0	34	0	706740224	61	4515
2026-01-17 06:47:42.40	127.56	8.94	-44.6	-46.8	13.9	6.02e-01	0	34	0	752877568	61	4460
2026-01-17 06:47:45.42	127.35	9.23	-44.6	-46.7	13.9	6.00e-01	0	34	0	801112064	60	4686
2026-01-17 06:47:48.44	127.12	9.52	-44.5	-46.7	14.0	6.00e-01	0	34	0	847249408	60	4653
2026-01-17 06:47:51.47	126.89	9.82	-44.4	-46.5	14.1	5.95e-01	0	35	0	893386752	60	4573
2026-01-17 06:47:54.49	126.65	10.13	-44.4	-46.5	14.2	5.96e-01	0	34	0	939524096	60	4567
2026-01-17 06:47:57.52	126.41	10.44	-44.1	-46.2	14.5	5.96e-01	0	34	0	987758592	60	4410
2026-01-17 06:48:00.54	126.16	10.75	-44.0	-46.1	14.6	5.95e-01	0	34	0	1033895936	60	4368
2026-01-17 06:48:03.57	125.90	11.07	-44.0	-46.1	14.5	5.99e-01	0	34	0	1080033280	59	4641
2026-01-17 06:48:06.59	125.64	11.40	-43.9	-46.0	14.6	5.94e-01	0	34	0	1126170624	59	4595
2026-01-17 06:48:09.61	125.36	11.73	-43.9	-46.0	14.7	5.95e-01	0	34	0	1172307968	59	4576
2026-01-17 06:48:12.64	125.08	12.06	-43.9	-45.9	14.8	6.00e-01	0	34	0	1218445312	59	4536
2026-01-17 06:48:15.66	124.80	12.40	-43.8	-45.9	14.8	5.97e-01	0	34	0	1264582656	59	4521
2026-01-17 06:48:18.69	124.50	12.75	-43.6	-45.7	15.0	5.95e-01	0	34	0	1310720000	59	4396
2026-01-17 06:48:21.71	124.19	13.10	-43.5	-45.6	15.1	5.98e-01	0	34	0	1356857344	58	4626
2026-01-17 06:48:24.73	123.88	13.46	-43.4	-45.5	15.2	5.93e-01	0	34	0	1405091840	58	4588
2026-01-17 06:48:27.76	123.55	13.83	-43.3	-45.4	15.2	5.91e-01	0	34	0	1451229184	58	4532
2026-01-17 06:48:30.78	123.22	14.20	-43.2	-45.3	15.4	5.98e-01	0	34	0	1497366528	58	4470
2026-01-17 06:48:33.80	122.87	14.58	-43.1	-45.2	15.5	5.98e-01	0	34	0	1543503872	58	4415
2026-01-17 06:48:36.83	122.52	14.96	-43.0	-45.1	15.6	5.97e-01	0	34	0	1589641216	57	4620
2026-01-17 06:48:39.86	122.15	15.35	-42.8	-44.9	15.8	5.98e-01	0	34	0	1635778560	57	4525
2026-01-17 06:48:42.88	121.77	15.75	-42.5	-44.6	16.1	5.90e-01	0	34	0	1681915904	57	4347
2026-01-17 06:48:45.91	121.38	16.16	-42.4	-44.4	16.2	5.96e-01	0	34	0	1728053248	56	4531
2026-01-17 06:48:48.93	120.97	16.57	-42.1	-44.1	16.4	5.92e-01	0	34	0	1776287744	56	4377
2026-01-17 06:48:51.96	120.55	17.00	-42.0	-44.0	16.6	5.99e-01	0	34	0	1822425088	56	4294
2026-01-17 06:48:54.98	120.12	17.43	-42.0	-43.9	16.6	5.96e-01	0	34	0	1868562432	56	4289
2026-01-17 06:48:58.00	119.67	17.87	-42.0	-44.0	16.6	5.99e-01	0	34	0	1914699776	56	4301
2026-01-17 06:49:01.01	119.21	18.31	-42.0	-44.0	16.7	5.94e-01	0	34	0	1960837120	55	4586
2026-01-17 06:49:04.04	118.73	18.77	-41.8	-43.8	16.9	5.97e-01	0	34	0	2009071616	55	4469
2026-01-17 06:49:07.06	118.23	19.23	-41.6	-43.5	17.1	5.95e-01	0	34	0	2055208960	55	4332
2026-01-17 06:49:10.09	117.71	19.71	-41.3	-43.1	17.4	6.00e-01	0	34	0	2101346304	54	4379
2026-01-17 06:49:13.11	117.17	20.19	-41.0	-42.9	17.6	5.99e-01	0	34	0	2147483648	54	4245
2026-01-17 06:49:16.14	116.62	20.69	-40.9	-42.8	17.7	6.05e-01	0	34	0	2193620992	53	4442
2026-01-17 06:49:19.16	116.04	21.19	-41.0	-42.8	17.6	6.00e-01	0	34	0	2239758336	53	4482
2026-01-17 06:49:22.18	115.44	21.70	-41.2	-43.0	17.5	6.01e-01	0	34	0	2285895680	53	4577
2026-01-17 06:49:25.21	114.82	22.23	-41.0	-42.9	17.6	6.02e-01	0	34	0	2332033024	53	4515
2026-01-17 06:49:28.23	114.17	22.76	-40.9	-42.8	17.7	6.01e-01	0	34	0	2380267520	53	4468
2026-01-17 06:49:31.26	113.49	23.30	-40.6	-42.4	17.9	6.02e-01	0	34	0	2426404864	53	4270
2026-01-17 06:49:34.28	112.79	23.86	-40.5	-42.3	18.0	6.02e-01	0	34	0	2472542208	53	4219
2026-01-17 06:49:37.31	112.06	24.42	-40.3	-42.1	18.2	6.01e-01	0	34	0	2518679552	52	4345
2026-01-17 06:49:40.33	111.30	25.00	-40.3	-42.0	18.2	6.02e-01	0	34	0	2566914048	52	4306
2026-01-17 06:49:43.36	110.51	25.58	-40.5	-42.2	18.0	6.02e-01	0	34	0	2613051392	52	4425
2026-01-17 06:49:46.38	109.68	26.18	-40.7	-42.6	17.8	5.96e-01	0	34	0	2659188736	52	4615
2026-01-17 06:49:49.40	108.82	26.78	-40.6	-42.5	17.9	5.98e-01	0	34	0	2703228928	52	4579
2026-01-17 06:49:52.43	107.92	27.40	-40.6	-42.6	17.8	6.00e-01	0	34	0	2751463424	52	4609
2026-01-17 06:49:55.45	106.98	28.02	-40.6	-42.4	18.0	6.01e-01	0	34	0	2797600768	52	4508
2026-01-17 06:49:58.48	106.00	28.66	-40.6	-42.4	18.0	6.00e-01	0	34	0	2843738112	52	4494
2026-01-17 06:50:01.50	104.97	29.30	-40.7	-42.5	17.9	6.00e-01	0	34	0	2889875456	52	4566
2026-01-17 06:50:04.52	103.91	29.95	-40.9	-42.8	17.7	6.01e-01	0	34	0	2938109952	52	4737
2026-01-17 06:50:07.55	102.78	30.60	-41.0	-43.0	17.6	6.00e-01	0	34	0	2984247296	52	4839
2026-01-17 06:50:10.57	101.62	31.26	-40.8	-42.5	17.9	6.00e-01	0	34	0	3030384640	52	4597
2026-01-17 06:50:13.59	100.40	31.93	-41.0	-42.9	17.6	6.01e-01	0	34	0	3076521984	52	4786
2026-01-17 06:50:16.62	99.11	32.60	-41.3	-43.2	17.4	5.98e-01	0	34	0	3122659328	53	4683
2026-01-17 06:50:19.64	97.78	33.27	-41.1	-43.1	17.5	6.02e-01	0	34	0	3168796672	53	4621
2026-01-17 06:50:22.66	96.38	33.94	-41.4	-43.6	17.1	6.00e-01	0	34	0	3214934016	53	4875
2026-01-17 06:50:25.69	94.92	34.61	-41.1	-43.2	17.4	6.02e-01	0	34	0	3261071360	53	4674
2026-01-17 06:50:28.71	93.40	35.27	-41.2	-43.3	17.4	5.99e-01	0	34	0	3307208704	53	4722
2026-01-17 06:50:31.74	91.80	35.93	-40.7	-42.7	17.8	5.99e-01	0	34	0	3355443200	53	4430
2026-01-17 06:50:34.76	90.14	36.58	-40.7	-42.9	17.6	5.99e-01	0	35	0	3401580544	53	4535
2026-01-17 06:50:37.79	88.41	37.22	-40.6	-42.6	17.9	6.01e-01	0	34	0	3447717888	53	4355
2026-01-17 06:50:40.82	86.60	37.84	-40.6	-42.7	17.8	6.02e-01	0	34	0	3495952384	53	4422
2026-01-17 06:50:43.84	84.72	38.43	-40.4	-42.5	17.9	6.01e-01	0	35	0	3542089728	52	4569
2026-01-17 06:50:46.86	82.77	39.01	-40.0	-42.2	18.1	6.02e-01	0	34	0	3588227072	52	4416
2026-01-17 06:50:49.89	80.75	39.56	-39.8	-42.0	18.4	6.01e-01	0	34	0	3634364416	51	4552
2026-01-17 06:50:52.92	78.65	40.08	-39.8	-42.0	18.3	6.01e-01	0	34	0	3680501760	51	4566
2026-01-17 06:50:55.94	76.49	40.56	-39.4	-41.5	18.7	6.01e-01	0	34	0	3726639104	50	4561
2026-01-17 06:50:58.96	74.26	41.01	-39.7	-42.1	18.3	6.02e-01	0	35	0	3772776448	50	4901
2026-01-17 06:51:01.99	71.97	41.41	-39.4	-41.7	18.6	6.01e-01	0	34	0	3818913792	50	4652
2026-01-17 06:51:05.01	69.62	41.76	-39.4	-41.7	18.5	6.01e-01	0	34	0	3865051136	50	4660
2026-01-17 06:51:08.04	67.22	42.07	-39.1	-41.4	18.7	6.02e-01	0	35	0	3913285632	50	4541
2026-01-17 06:51:11.06	64.78	42.32	-39.3	-41.7	18.6	6.01e-01	0	35	0	3959422976	50	4652
2026-01-17 06:51:14.09	62.30	42.52	-39.1	-41.5	18.7	6.03e-01	0	34	0	4005560320	50	4562
2026-01-17 06:51:17.11	59.80	42.66	-39.0	-41.3	18.7	6.06e-01	0	34	0	4051697664	50	4465
2026-01-17 06:51:20.14	57.27	42.74	-39.0	-41.4	18.8	6.05e-01	0	35	0	4099932160	49	4766
2026-01-17 06:51:23.17	54.74	42.75	-39.0	-41.4	18.7	6.03e-01	0	34	0	4143972352	49	4794
2026-01-17 06:51:26.20	52.20	42.71	-39.1	-41.6	18.6	6.06e-01	0	34	0	4190109696	49	4888
2026-01-17 06:51:29.22	49.69	42.61	-39.2	-41.5	18.7	6.02e-01	0	34	0	4238344192	49	4837
2026-01-17 06:51:32.25	47.19	42.45	-39.2	-41.4	18.7	6.04e-01	0	34	0	4284481536	49	4805
2026-01-17 06:51:35.28	44.73	42.23	-39.2	-41.5	18.6	6.05e-01	0	35	0	4330618880	49	4826
2026-01-17 06:51:38.30	42.30	41.96	-39.2	-41.5	18.6	6.01e-01	0	35	0	4376756224	49	4839
2026-01-17 06:51:41.33	39.92	41.63	-39.4	-41.7	18.6	6.04e-01	0	34	0	4424990720	49	4931
2026-01-17 06:51:44.35	37.60	41.26	-39.2	-41.5	18.7	5.84e-01	0	35	0	4471128064	49	4818
2026-01-17 06:51:47.38	35.33	40.84	-39.4	-41.8	18.6	5.83e-01	0	35	0	4517265408	49	4988
2026-01-17 06:51:50.41	33.13	40.38	-39.6	-41.9	18.4	5.83e-01	0	34	0	4563402752	49	5090
2026-01-17 06:51:53.44	30.99	39.89	-39.6	-41.8	18.6	5.83e-01	0	35	0	4609540096	50	4738
2026-01-17 06:51:56.46	28.93	39.36	-40.1	-42.3	18.2	5.84e-01	0	34	0	4655677440	50	5025
2026-01-17 06:51:59.49	26.94	38.80	-40.2	-42.3	18.2	5.84e-01	0	34	0	4701814784	51	4752
2026-01-17 06:52:02.52	25.01	38.21	-40.3	-42.4	18.1	5.83e-01	0	34	0	4750049280	51	4806
2026-01-17 06:52:05.54	23.17	37.61	-40.7	-42.9	17.7	5.82e-01	0	34	0	4796186624	52	4772
2026-01-17 06:52:08.56	21.40	36.98	-40.7	-42.8	17.8	5.98e-01	0	35	0	4842323968	52	4718
2026-01-17 06:52:11.59	19.70	36.34	-41.0	-42.9	17.7	6.04e-01	0	34	0	4888461312	52	4761
2026-01-17 06:52:14.62	18.06	35.69	-41.1	-43.1	17.6	5.80e-01	0	34	0	4936695808	52	4898
2026-01-17 06:52:17.65	16.50	35.03	-41.3	-43.2	17.5	5.67e-01	0	34	0	4982833152	53	4683
2026-01-17 06:52:20.68	15.00	34.37	-41.7	-43.5	17.3	5.78e-01	0	34	0	5028970496	53	4869
2026-01-17 06:52:23.71	13.56	33.70	-41.9	-43.8	17.1	5.82e-01	0	34	0	5075107840	54	4729
2026-01-17 06:52:26.73	12.19	33.03	-42.0	-43.9	17.0	6.03e-01	0	34	0	5121245184	54	4783
2026-01-17 06:52:29.76	10.88	32.36	-42.0	-43.9	17.0	5.89e-01	0	35	0	5167382528	54	4801
2026-01-17 06:52:32.79	9.63	31.69	-42.0	-43.8	17.1	5.85e-01	0	35	0	5213519872	54	4747
2026-01-17 06:52:35.81	8.43	31.03	-41.9	-43.7	17.1	5.90e-01	0	35	0	5259657216	54	4653
2026-01-17 06:52:38.83	7.29	30.38	-41.8	-43.5	17.2	5.99e-01	0	34	0	5307891712	54	4593
2026-01-17 06:52:41.86	6.19	29.73	-41.7	-43.6	17.3	5.82e-01	0	34	0	5354029056	54	4612
2026-01-17 06:52:44.89	5.14	29.08	-41.6	-43.5	17.2	6.04e-01	0	34	0	5400166400	54	4556
2026-01-17 06:52:47.91	4.13	28.45	-41.6	-43.4	17.3	6.01e-01	0	34	0	5446303744	54	4494
2026-01-17 06:52:50.93	3.17	27.82	-41.5	-43.2	17.4	6.05e-01	0	34	0	5494538240	54	4428
2026-01-17 06:52:53.96	2.25	27.20	-41.4	-43.3	17.3	6.01e-01	0	34	0	5540675584	54	4458
2026-01-17 06:52:56.99	1.37	26.59	-41.6	-43.5	17.2	6.02e-01	0	34	0	5584715776	54	4593
2026-01-17 06:53:00.01	0.52	25.99	-41.4	-43.4	17.3	5.96e-01	0	34	0	5630853120	54	4535
2026-01-17 06:53:03.03	359.71	25.40	-41.2	-43.1	17.5	6.01e-01	0	34	0	5679087616	54	4346
2026-01-17 06:53:06.06	358.93	24.82	-41.3	-43.2	17.3	6.01e-01	0	34	0	5725224960	54	4424
2026-01-17 06:53:09.09	358.19	24.25	-41.5	-43.5	17.2	5.92e-01	0	34	0	5771362304	54	4596
2026-01-17 06:53:12.11	357.47	23.70	-41.4	-43.4	17.2	6.05e-01	0	34	0	5817499648	54	4537
2026-01-17 06:53:15.14	356.78	23.15	-41.4	-43.5	17.1	6.00e-01	0	35	0	5865734144	54	4546
2026-01-17 06:53:18.16	356.12	22.61	-41.5	-43.5	17.1	6.03e-01	0	34	0	5911871488	54	4569
2026-01-17 06:53:21.19	355.48	22.08	-41.5	-43.6	17.1	6.05e-01	0	34	0	5958008832	54	4621
2026-01-17 06:53:24.21	354.87	21.56	-41.5	-43.6	17.1	5.87e-01	0	34	0	6004146176	54	4604
2026-01-17 06:53:27.24	354.28	21.06	-41.4	-43.4	17.2	6.00e-01	0	34	0	6050283520	54	4514
2026-01-17 06:53:30.26	353.71	20.56	-41.5	-43.6	17.0	6.06e-01	0	34	0	6096420864	54	4608
2026-01-17 06:53:33.29	353.17	20.07	-41.5	-43.6	17.0	6.03e-01	0	34	0	6142558208	54	4624
2026-01-17 06:53:36.31	352.64	19.59	-41.7	-43.8	16.8	6.00e-01	0	34	0	6188695552	54	4758
2026-01-17 06:53:39.34	352.13	19.12	-41.9	-44.2	16.6	6.00e-01	0	34	0	6236930048	54	4928
2026-01-17 06:53:42.36	351.64	18.66	-42.0	-44.2	16.5	6.00e-01	0	34	0	6283067392	54	4966
2026-01-17 06:53:45.39	351.17	18.21	-42.0	-44.2	16.5	5.98e-01	0	35	0	6329204736	54	4951
2026-01-17 06:53:48.41	350.71	17.77	-42.2	-44.3	16.4	6.01e-01	0	34	0	6375342080	55	4737
2026-01-17 06:53:51.44	350.27	17.33	-42.4	-44.5	16.2	6.00e-01	0	34	0	6423576576	55	4866
2026-01-17 06:53:54.46	349.85	16.91	-42.5	-44.6	16.1	6.01e-01	0	34	0	6469713920	55	4919
2026-01-17 06:53:57.49	349.43	16.49	-42.7	-45.0	15.7	6.02e-01	0	34	0	6515851264	56	4830
2026-01-17 06:54:00.51	349.04	16.08	-42.7	-44.9	15.8	6.01e-01	0	34	0	6561988608	56	4790
2026-01-17 06:54:03.54	348.65	15.67	-42.8	-45.1	15.7	5.83e-01	0	35	0	6608125952	56	4871
2026-01-17 06:54:06.56	348.28	15.28	-42.9	-45.3	15.5	5.83e-01	0	34	0	6654263296	56	4993
2026-01-17 06:54:09.58	347.92	14.89	-43.0	-45.4	15.4	5.84e-01	0	35	0	6700400640	56	5054
2026-01-17 06:54:12.61	347.56	14.51	-43.2	-45.5	15.3	5.85e-01	0	34	0	6746537984	56	5102
2026-01-17 06:54:15.63	347.23	14.14	-53.6	-62.5	3.8	7.46e-01	0	35	104	6782189568	77	10806
2026-01-17 06:54:18.65	346.90	13.77	-53.5	-62.3	3.8	7.46e-01	0	34	104	6782189568	77	10619
2026-01-17 06:54:21.68	346.58	13.41	-53.5	-62.3	3.8	7.44e-01	0	34	104	6782189568	77	10610
2026-01-17 06:54:24.71	346.27	13.05	-53.5	-62.3	3.8	7.44e-01	0	34	104	6782189568	77	10591
2026-01-17 06:54:27.73	345.97	12.70	-53.5	-62.3	3.8	7.46e-01	0	34	104	6782189568	77	10587
2026-01-17 06:54:30.75	345.68	12.36	-53.5	-62.3	3.8	7.45e-01	0	34	104	6782189568	77	10575
2026-01-17 06:54:33.78	345.39	12.02	-53.4	-62.2	3.8	7.45e-01	0	34	104	6782189568	77	10484
2026-01-17 06:54:36.80	345.12	11.69	-53.4	-62.2	3.8	7.46e-01	0	34	104	6782189568	77	10477
2026-01-17 06:54:39.83	344.85	11.36	-53.4	-62.2	3.8	7.45e-01	0	34	104	6782189568	77	10474
2026-01-17 06:54:42.85	344.59	11.04	-53.4	-62.2	3.8	7.46e-01	0	34	104	6782189568	77	10493
2026-01-17 06:54:45.87	344.34	10.72	-53.3	-62.2	3.8	7.46e-01	0	34	104	6782189568	77	10417
2026-01-17 06:54:48.90	344.09	10.41	-53.3	-62.1	3.8	7.44e-01	0	34	104	6782189568	77	10386
2026-01-17 06:54:51.93	343.85	10.10	-53.3	-62.2	3.8	7.45e-01	0	34	104	6782189568	77	10429
2026-01-17 06:54:54.95	343.62	9.80	-53.3	-62.1	3.8	7.46e-01	0	34	104	6782189568	77	10390
2026-01-17 06:54:57.98	343.39	9.50	-53.2	-62.0	3.8	7.45e-01	0	34	104	6782189568	77	10256
2026-01-17 06:55:01.00	343.17	9.21	-53.2	-62.0	3.8	7.44e-01	0	35	104	6782189568	77	10248
2026-01-17 06:55:04.03	342.95	8.92	-53.2	-62.0	3.8	7.44e-01	0	34	104	6782189568	77	10243
2026-01-17 06:55:07.05	342.74	8.64	-53.2	-62.0	3.8	7.45e-01	0	34	104	6782189568	77	10266
2026-01-17 06:55:10.07	342.54	8.35	-53.1	-61.9	3.8	7.45e-01	0	34	104	6782189568	77	10083
2026-01-17 06:55:13.10	342.34	8.08	-53.0	-61.8	3.8	7.44e-01	0	34	104	6782189568	77	10049
2026-01-17 06:55:16.13	342.14	7.80	-53.1	-61.9	3.8	7.44e-01	0	34	104	6782189568	77	10118
2026-01-17 06:55:19.15	341.95	7.53	-53.1	-61.9	3.8	7.46e-01	0	34	104	6782189568	77	10099
2026-01-17 06:55:22.18	341.77	7.27	-52.9	-61.8	3.8	7.45e-01	0	34	104	6782189568	77	9949
2026-01-17 06:55:25.20	341.59	7.00	-52.9	-61.7	3.8	7.45e-01	0	34	104	6782189568	77	9913
2026-01-17 06:55:28.23	341.41	6.74	-52.9	-61.7	3.8	7.45e-01	0	34	104	6782189568	77	9932
2026-01-17 06:55:31.25	341.24	6.49	-52.9	-61.7	3.8	7.45e-01	0	34	104	6782189568	77	9917
2026-01-17 06:55:34.28	341.07	6.23	-52.8	-61.6	3.8	7.44e-01	0	34	104	6782189568	77	9772
2026-01-17 06:55:37.31	340.91	5.98	-52.7	-61.5	3.8	7.46e-01	0	34	104	6782189568	77	9691
2026-01-17 06:55:40.33	340.75	5.74	-52.7	-61.5	3.8	7.44e-01	0	34	104	6782189568	77	9702
2026-01-17 06:55:43.36	340.59	5.49	-52.7	-61.6	3.8	7.46e-01	0	34	104	6782189568	77	9745
2026-01-17 06:55:46.38	340.44	5.25	-52.6	-61.4	3.8	7.47e-01	0	34	104	6782189568	77	9562
2026-01-17 06:55:49.41	340.29	5.01	-52.5	-61.3	3.8	7.45e-01	0	34	104	6782189568	76	10001
2026-01-17 06:55:52.43	340.14	4.77	-53.5	-62.4	3.8	7.46e-01	0	34	104	6782189568	77	10677
2026-01-17 06:55:55.46	340.00	4.54	-53.9	-62.7	3.8	7.43e-01	0	34	104	6782189568	78	10528
2026-01-17 06:55:58.48	339.86	4.31	-54.2	-63.0	3.8	7.46e-01	0	34	104	6782189568	78	10835
2026-01-17 06:56:01.51	339.72	4.08	-54.3	-63.1	3.8	7.46e-01	0	34	104	6782189568	79	10370
2026-01-17 06:56:04.53	339.58	3.86	-54.3	-63.2	3.8	7.45e-01	0	34	104	6782189568	79	10438
2026-01-17 06:56:07.55	339.45	3.63	-54.4	-63.2	3.8	7.44e-01	0	34	104	6782189568	79	10501
2026-01-17 06:56:10.58	339.32	3.41	-54.4	-63.2	3.8	7.45e-01	0	34	104	6782189568	79	10467
2026-01-17 06:56:13.60	339.20	3.19	-54.3	-63.2	3.8	7.46e-01	0	34	104	6782189568	79	10432
2026-01-17 06:56:16.62	339.07	2.98	-54.3	-63.1	3.8	7.45e-01	0	34	104	6782189568	79	10410
2026-01-17 06:56:19.65	338.95	2.76	-54.3	-63.2	3.8	7.44e-01	0	34	104	6782189568	79	10426
2026-01-17 06:56:22.67	338.84	2.55	-54.3	-63.1	3.8	7.46e-01	0	34	104	6782189568	79	10404
2026-01-17 06:56:25.70	338.72	2.34	-54.3	-63.1	3.8	7.45e-01	0	34	104	6782189568	79	10366
2026-01-17 06:56:28.72	338.61	2.13	-54.3	-63.1	3.8	7.45e-01	0	35	104	6782189568	79	10406

#Closed at: 2026-01-17 06:56:31
#Recorded file [6782 MB]: D:/lorett/data/31041_260117_094617.dat