passes_logs/2026/01/17/R3.2S_Murmansk/R3.2S_Murmansk__20260117_053311_SUOMI_NPP_rec.log

#Pass ID: 20260117_053311_SUOMI NPP
#Satellite: SUOMI NPP
#Configuration: NPP
#almurnet v.1.7.20251203
#Start time: 2026-01-17 05:33:13

#Version: 2.2.20231116
#Station: R3.2S_Murmansk
#Location: 33.079688 lon 68.888172 lat
#TLE: 1 37849U 11061A   26016.58419598  .00000058  00000+0  48257-4 0  9996
#TLE: 2 37849  98.7812 318.6192 0002422  60.8544 299.2874 14.19525580736934

#Time	Az	El	Level	Level2	SNR	BER	BlckErr	Temp	State	Recorded	gain1	gain2
2026-01-17 05:33:13.21	66.91	2.12	-51.6	-66.5	3.8	1.49e+00	0	32	0	0	75	19326
2026-01-17 05:33:16.24	66.72	2.29	-51.5	-66.5	3.8	1.49e+00	0	32	104	0	73	21634
2026-01-17 05:33:19.26	66.52	2.46	-51.5	-66.5	3.8	1.49e+00	0	32	104	0	73	21574
2026-01-17 05:33:22.28	66.32	2.64	-51.5	-66.5	3.8	1.49e+00	0	32	104	0	73	21642
2026-01-17 05:33:25.31	66.12	2.81	-51.5	-66.5	3.8	1.49e+00	0	32	104	0	73	21649
2026-01-17 05:33:28.33	65.92	2.99	-51.5	-66.5	3.8	1.49e+00	0	33	104	0	73	21631
2026-01-17 05:33:31.35	65.71	3.16	-51.5	-66.5	3.8	1.49e+00	0	32	104	0	73	21604
2026-01-17 05:33:34.38	65.50	3.34	-51.5	-66.5	3.8	1.49e+00	0	33	104	0	73	21612
2026-01-17 05:33:37.40	65.29	3.52	-51.5	-66.4	3.8	1.49e+00	0	33	104	0	73	21388
2026-01-17 05:33:40.43	65.07	3.70	-51.5	-66.5	3.8	1.49e+00	0	33	104	0	73	21524
2026-01-17 05:33:43.45	64.86	3.88	-51.5	-66.5	3.8	1.49e+00	0	33	104	0	73	21605
2026-01-17 05:33:46.48	64.64	4.06	-51.5	-65.6	3.8	1.49e+00	0	33	104	0	73	19447
2026-01-17 05:33:49.51	64.41	4.24	-51.4	-63.7	3.9	1.46e+00	0	33	104	0	73	15676
2026-01-17 05:33:52.54	64.19	4.42	-51.2	-61.5	4.7	1.03e+00	0	33	0	2097152	73	12136
2026-01-17 05:33:55.56	63.96	4.60	-51.0	-59.7	5.8	3.92e-01	0	33	0	8388608	73	9938
2026-01-17 05:33:58.59	63.72	4.78	-50.9	-59.3	6.1	2.88e-01	0	33	0	13631488	73	9400
2026-01-17 05:34:01.61	63.49	4.97	-51.0	-60.0	5.6	4.30e-01	0	33	0	18874368	73	10210
2026-01-17 05:34:04.64	63.25	5.15	-50.3	-56.2	9.0	1.62e-01	0	33	0	25165824	72	6981
2026-01-17 05:34:07.66	63.01	5.34	-50.9	-58.4	7.5	2.22e-03	0	33	0	28311552	72	8969
2026-01-17 05:34:10.68	62.77	5.53	-49.3	-53.1	12.6	3.58e-05	0	33	0	32505856	69	5825
2026-01-17 05:34:13.71	62.52	5.71	-48.8	-52.1	13.7	3.00e-06	0	33	0	38797312	69	5207
2026-01-17 05:34:16.73	62.27	5.90	-48.6	-51.7	14.1	2.20e-06	0	33	0	44040192	68	5240
2026-01-17 05:34:19.76	62.01	6.09	-48.5	-51.5	14.4	7.00e-07	0	33	0	50331648	68	5120
2026-01-17 05:34:22.78	61.75	6.28	-48.3	-51.1	14.9	0.00e+00	0	33	0	55574528	68	4907
2026-01-17 05:34:25.80	61.49	6.47	-48.4	-51.3	14.7	0.00e+00	0	33	0	60817408	68	5001
2026-01-17 05:34:28.82	61.23	6.66	-48.6	-51.7	14.3	0.00e+00	0	33	0	67108864	68	5276
2026-01-17 05:34:31.85	60.96	6.85	-48.6	-51.6	14.5	0.00e+00	0	34	0	72351744	68	5198
2026-01-17 05:34:34.87	60.69	7.05	-48.6	-51.6	14.5	7.00e-07	0	34	0	78643200	68	5174
2026-01-17 05:34:37.90	60.41	7.24	-48.3	-51.1	15.0	0.00e+00	0	34	0	83886080	68	4896
2026-01-17 05:34:40.92	60.13	7.43	-48.4	-51.3	14.9	7.00e-07	0	34	0	90177536	68	5025
2026-01-17 05:34:43.95	59.84	7.63	-48.3	-51.2	15.0	7.00e-07	0	34	0	95420416	68	4932
2026-01-17 05:34:46.97	59.56	7.83	-47.6	-49.9	16.1	0.00e+00	0	34	0	100663296	67	4538
2026-01-17 05:34:50.00	59.26	8.02	-47.5	-49.9	16.2	0.00e+00	0	34	0	106954752	67	4518
2026-01-17 05:34:53.02	58.97	8.22	-47.6	-50.1	16.1	0.00e+00	0	34	0	112197632	67	4600
2026-01-17 05:34:56.05	58.67	8.42	-47.6	-49.9	16.2	0.00e+00	0	34	0	118489088	66	4814
2026-01-17 05:34:59.07	58.36	8.62	-47.3	-49.6	16.6	0.00e+00	0	34	0	123731968	66	4619
2026-01-17 05:35:02.10	58.05	8.82	-47.5	-49.8	16.4	0.00e+00	0	34	0	128974848	66	4730
2026-01-17 05:35:05.12	57.74	9.02	-47.4	-49.7	16.6	0.00e+00	0	34	0	135266304	66	4656
2026-01-17 05:35:08.15	57.42	9.22	-47.4	-49.6	16.6	0.00e+00	0	34	0	140509184	66	4645
2026-01-17 05:35:11.17	57.10	9.43	-47.5	-49.7	16.5	0.00e+00	0	34	0	146800640	66	4703
2026-01-17 05:35:14.19	56.77	9.63	-47.7	-50.0	16.3	0.00e+00	0	34	0	152043520	66	4864
2026-01-17 05:35:17.22	56.44	9.83	-47.9	-50.3	16.0	0.00e+00	0	34	0	158334976	66	5012
2026-01-17 05:35:20.24	56.10	10.04	-47.8	-50.2	16.1	0.00e+00	0	34	0	163577856	66	4968
2026-01-17 05:35:23.26	55.76	10.24	-47.8	-50.1	16.2	0.00e+00	0	34	0	168820736	66	4919
2026-01-17 05:35:26.29	55.42	10.45	-47.7	-50.0	16.3	0.00e+00	0	34	0	175112192	66	4855
2026-01-17 05:35:29.31	55.06	10.66	-47.7	-50.0	16.4	0.00e+00	0	34	0	180355072	66	4828
2026-01-17 05:35:32.34	54.71	10.86	-47.4	-49.5	16.8	0.00e+00	0	34	0	186646528	66	4580
2026-01-17 05:35:35.36	54.35	11.07	-47.4	-49.6	16.8	0.00e+00	0	34	0	191889408	66	4627
2026-01-17 05:35:38.38	53.98	11.28	-47.7	-50.0	16.4	0.00e+00	0	34	0	197132288	66	4828
2026-01-17 05:35:41.41	53.61	11.49	-47.1	-49.2	17.2	0.00e+00	0	34	0	203423744	66	4408
2026-01-17 05:35:44.43	53.23	11.70	-46.8	-48.8	17.6	0.00e+00	0	34	0	208666624	65	4468
2026-01-17 05:35:47.46	52.84	11.91	-46.9	-48.9	17.5	0.00e+00	0	34	0	214958080	65	4520
2026-01-17 05:35:50.48	52.45	12.12	-46.9	-48.9	17.4	0.00e+00	0	34	0	220200960	65	4540
2026-01-17 05:35:53.50	52.06	12.33	-46.8	-48.7	17.7	0.00e+00	0	34	0	225443840	65	4419
2026-01-17 05:35:56.53	51.66	12.55	-46.7	-48.5	17.9	0.00e+00	0	34	0	231735296	65	4328
2026-01-17 05:35:59.56	51.25	12.76	-46.7	-48.6	17.8	0.00e+00	0	34	0	236978176	65	4371
2026-01-17 05:36:02.59	50.84	12.97	-46.8	-48.8	17.6	0.00e+00	0	34	0	243269632	65	4463
2026-01-17 05:36:05.61	50.42	13.18	-46.8	-48.7	17.7	0.00e+00	0	34	0	248512512	65	4423
2026-01-17 05:36:08.63	49.99	13.40	-46.6	-48.6	17.9	0.00e+00	0	34	0	253755392	65	4341
2026-01-17 05:36:11.66	49.56	13.61	-46.9	-48.9	17.5	0.00e+00	0	34	0	260046848	65	4525
2026-01-17 05:36:14.68	49.12	13.83	-46.8	-48.8	17.6	0.00e+00	0	34	0	265289728	65	4465
2026-01-17 05:36:17.71	48.68	14.04	-47.0	-49.1	17.3	0.00e+00	0	34	0	271581184	65	4626
2026-01-17 05:36:20.73	48.23	14.25	-47.0	-49.1	17.4	0.00e+00	0	34	0	276824064	65	4623
2026-01-17 05:36:23.75	47.77	14.47	-46.8	-48.8	17.6	0.00e+00	0	34	0	282066944	65	4487
2026-01-17 05:36:26.78	47.30	14.68	-46.8	-48.7	17.8	0.00e+00	0	34	0	288358400	65	4415
2026-01-17 05:36:29.80	46.83	14.90	-47.0	-49.1	17.4	0.00e+00	0	34	0	293601280	65	4602
2026-01-17 05:36:32.82	46.35	15.11	-47.4	-49.6	16.8	0.00e+00	0	34	0	299892736	65	4915
2026-01-17 05:36:35.84	45.87	15.32	-47.5	-49.7	16.8	0.00e+00	0	34	0	305135616	65	4966
2026-01-17 05:36:38.87	45.38	15.54	-47.3	-49.5	17.0	0.00e+00	0	34	0	310378496	65	4834
2026-01-17 05:36:41.89	44.88	15.75	-47.1	-49.2	17.3	0.00e+00	0	34	0	316669952	65	4684
2026-01-17 05:36:44.92	44.37	15.97	-46.9	-48.8	17.7	0.00e+00	0	34	0	321912832	65	4486
2026-01-17 05:36:47.94	43.85	16.18	-47.2	-49.2	17.3	0.00e+00	0	34	0	328204288	65	4703
2026-01-17 05:36:50.97	43.33	16.39	-47.0	-49.0	17.5	0.00e+00	0	34	0	333447168	65	4574
2026-01-17 05:36:53.99	42.80	16.60	-46.7	-48.5	17.9	0.00e+00	0	34	0	338690048	65	4334
2026-01-17 05:36:57.02	42.26	16.81	-47.0	-49.0	17.5	0.00e+00	0	34	0	344981504	65	4550
2026-01-17 05:37:00.04	41.72	17.02	-47.3	-49.4	17.1	0.00e+00	0	34	0	350224384	65	4770
2026-01-17 05:37:03.06	41.17	17.23	-47.3	-49.4	17.1	0.00e+00	0	34	0	356515840	65	4776
2026-01-17 05:37:06.09	40.61	17.44	-47.0	-48.9	17.6	0.00e+00	0	34	0	361758720	65	4530
2026-01-17 05:37:09.11	40.04	17.64	-46.5	-48.3	18.2	0.00e+00	0	34	0	367001600	64	4474
2026-01-17 05:37:12.14	39.46	17.85	-46.4	-48.2	18.3	0.00e+00	0	34	0	373293056	64	4403
2026-01-17 05:37:15.16	38.88	18.05	-46.6	-48.4	18.1	0.00e+00	0	34	0	378535936	64	4529
2026-01-17 05:37:18.18	38.29	18.26	-46.1	-47.9	18.6	0.00e+00	0	34	0	384827392	64	4250
2026-01-17 05:37:21.21	37.69	18.46	-46.1	-47.8	18.7	0.00e+00	0	34	0	390070272	63	4468
2026-01-17 05:37:24.23	37.08	18.66	-45.6	-47.1	19.4	0.00e+00	0	34	0	396361728	63	4141
2026-01-17 05:37:27.25	36.46	18.85	-45.8	-47.4	19.2	0.00e+00	0	34	0	401604608	63	4262
2026-01-17 05:37:30.28	35.84	19.05	-45.7	-47.3	19.3	0.00e+00	0	34	0	406847488	63	4208
2026-01-17 05:37:33.30	35.21	19.24	-45.7	-47.2	19.3	0.00e+00	0	34	0	413138944	63	4187
2026-01-17 05:37:36.33	34.57	19.44	-45.1	-46.5	20.0	0.00e+00	0	34	0	418381824	62	4097
2026-01-17 05:37:39.35	33.92	19.62	-45.4	-46.9	19.6	0.00e+00	0	34	0	424673280	62	4286
2026-01-17 05:37:42.38	33.26	19.81	-45.5	-47.0	19.5	0.00e+00	0	34	0	429916160	62	4319
2026-01-17 05:37:45.40	32.60	19.99	-45.7	-47.3	19.3	0.00e+00	0	34	0	435159040	62	4452
2026-01-17 05:37:48.42	31.92	20.18	-44.9	-46.3	20.2	0.00e+00	0	34	0	441450496	61	4235
2026-01-17 05:37:51.45	31.24	20.35	-45.1	-46.5	20.0	0.00e+00	0	34	0	446693376	61	4315
2026-01-17 05:37:54.47	30.55	20.53	-45.0	-46.4	20.1	0.00e+00	0	34	0	452984832	61	4251
2026-01-17 05:37:57.49	29.86	20.70	-44.8	-46.1	20.4	0.00e+00	0	34	0	458227712	61	4126
2026-01-17 05:38:00.52	29.15	20.87	-44.6	-45.9	20.6	0.00e+00	0	34	0	464519168	61	4027
2026-01-17 05:38:03.54	28.44	21.03	-44.8	-46.1	20.4	0.00e+00	0	34	0	469762048	61	4144
2026-01-17 05:38:06.56	27.72	21.19	-44.9	-46.2	20.3	0.00e+00	0	34	0	475004928	61	4183
2026-01-17 05:38:09.59	26.99	21.35	-44.7	-46.0	20.5	0.00e+00	0	34	0	481296384	61	4089
2026-01-17 05:38:12.62	26.26	21.51	-45.2	-46.6	20.0	0.00e+00	0	34	0	486539264	61	4356
2026-01-17 05:38:15.64	25.52	21.65	-44.9	-46.2	20.4	0.00e+00	0	34	0	492830720	61	4174
2026-01-17 05:38:18.66	24.77	21.80	-44.9	-46.3	20.3	0.00e+00	0	34	0	498073600	61	4209
2026-01-17 05:38:21.69	24.01	21.94	-45.0	-46.4	20.2	0.00e+00	0	34	0	503316480	61	4272
2026-01-17 05:38:24.71	23.25	22.08	-44.7	-46.0	20.5	0.00e+00	0	34	0	509607936	61	4076
2026-01-17 05:38:27.74	22.48	22.21	-45.0	-46.3	20.3	0.00e+00	0	34	0	514850816	61	4224
2026-01-17 05:38:30.76	21.70	22.33	-44.6	-45.8	20.8	0.00e+00	0	34	0	521142272	61	3983
2026-01-17 05:38:33.78	20.92	22.45	-44.7	-45.9	20.6	0.00e+00	0	34	0	526385152	60	4281
2026-01-17 05:38:36.81	20.13	22.57	-45.0	-46.4	20.3	0.00e+00	0	34	0	531628032	60	4504
2026-01-17 05:38:39.83	19.34	22.68	-45.7	-47.2	19.5	0.00e+00	0	34	0	537919488	62	4411
2026-01-17 05:38:42.85	18.54	22.78	-46.5	-48.2	18.6	0.00e+00	0	34	0	543162368	63	4662
2026-01-17 05:38:45.88	17.74	22.88	-46.6	-48.3	18.4	0.00e+00	0	34	0	549453824	64	4468
2026-01-17 05:38:48.90	16.93	22.98	-46.1	-47.7	19.0	0.00e+00	0	34	0	554696704	64	4171
2026-01-17 05:38:51.93	16.11	23.06	-46.0	-47.5	19.3	0.00e+00	0	34	0	559939584	63	4315
2026-01-17 05:38:54.95	15.29	23.14	-46.1	-47.7	19.1	0.00e+00	0	34	0	566231040	63	4393
2026-01-17 05:38:57.98	14.47	23.22	-46.0	-47.6	19.1	0.00e+00	0	34	0	571473920	63	4369
2026-01-17 05:39:01.00	13.64	23.29	-46.5	-48.2	18.4	0.00e+00	0	34	0	577765376	63	4691
2026-01-17 05:39:04.02	12.81	23.35	-46.4	-48.0	18.7	0.00e+00	0	34	0	583008256	63	4587
2026-01-17 05:39:07.05	11.98	23.41	-46.9	-48.7	18.0	0.00e+00	0	34	0	588251136	64	4684
2026-01-17 05:39:10.07	11.14	23.46	-46.8	-48.6	18.1	0.00e+00	0	34	0	594542592	64	4636
2026-01-17 05:39:13.09	10.30	23.50	-46.6	-48.3	18.3	0.00e+00	0	34	0	599785472	64	4493
2026-01-17 05:39:16.12	9.46	23.54	-46.9	-48.8	17.9	0.00e+00	0	34	0	606076928	64	4752
2026-01-17 05:39:19.14	8.62	23.57	-47.4	-49.5	17.2	0.00e+00	0	34	0	611319808	65	4864
2026-01-17 05:39:22.17	7.77	23.59	-47.1	-49.1	17.7	0.00e+00	0	34	0	616562688	65	4625
2026-01-17 05:39:25.19	6.93	23.61	-46.3	-48.0	18.6	0.00e+00	0	34	0	622854144	64	4324
2026-01-17 05:39:28.21	6.08	23.62	-45.9	-47.4	19.2	0.00e+00	0	34	0	628097024	63	4284
2026-01-17 05:39:31.24	5.23	23.62	-46.4	-48.1	18.6	0.00e+00	0	34	0	634388480	63	4618
2026-01-17 05:39:34.26	4.39	23.62	-46.2	-47.8	18.9	0.00e+00	0	34	0	639631360	63	4466
2026-01-17 05:39:37.28	3.54	23.61	-46.1	-47.7	19.0	0.00e+00	0	34	0	644874240	63	4412
2026-01-17 05:39:40.31	2.70	23.59	-45.9	-47.4	19.3	0.00e+00	0	34	0	651165696	63	4269
2026-01-17 05:39:43.33	1.85	23.57	-45.7	-47.3	19.4	0.00e+00	0	34	0	656408576	63	4204
2026-01-17 05:39:46.36	1.01	23.54	-45.5	-47.0	19.7	0.00e+00	0	34	0	662700032	62	4295
2026-01-17 05:39:49.38	0.17	23.50	-45.8	-47.4	19.4	0.00e+00	0	34	0	667942912	62	4506
2026-01-17 05:39:52.41	359.33	23.46	-45.6	-47.0	19.7	0.00e+00	0	34	0	673185792	62	4331
2026-01-17 05:39:55.43	358.49	23.41	-45.0	-46.4	20.4	0.00e+00	0	34	0	679477248	62	4011
2026-01-17 05:39:58.45	357.66	23.35	-44.6	-45.9	20.7	0.00e+00	0	34	0	684720128	61	4011
2026-01-17 05:40:01.48	356.83	23.29	-44.6	-45.8	20.8	0.00e+00	0	34	0	691011584	60	4230
2026-01-17 05:40:04.50	356.00	23.22	-44.6	-45.9	20.8	0.00e+00	0	34	0	696254464	60	4265
2026-01-17 05:40:07.52	355.18	23.14	-44.9	-46.1	20.5	0.00e+00	0	34	0	702545920	60	4385
2026-01-17 05:40:10.55	354.36	23.06	-45.1	-46.5	20.2	0.00e+00	0	34	0	707788800	61	4300
2026-01-17 05:40:13.58	353.55	22.97	-45.0	-46.4	20.3	0.00e+00	0	34	0	713031680	61	4243
2026-01-17 05:40:16.60	352.74	22.88	-44.7	-45.9	20.7	0.00e+00	0	34	0	719323136	61	4038
2026-01-17 05:40:19.63	351.93	22.78	-45.5	-46.9	19.9	0.00e+00	0	34	0	724566016	61	4507
2026-01-17 05:40:22.65	351.14	22.67	-45.3	-46.7	20.0	0.00e+00	0	34	0	730857472	61	4417
2026-01-17 05:40:25.68	350.34	22.56	-45.3	-46.7	20.0	0.00e+00	0	34	0	736100352	61	4412
2026-01-17 05:40:28.70	349.55	22.45	-45.4	-46.8	19.9	0.00e+00	0	34	0	741343232	61	4473
2026-01-17 05:40:31.73	348.77	22.32	-45.9	-47.5	19.2	0.00e+00	0	34	0	747634688	62	4549
2026-01-17 05:40:34.75	348.00	22.20	-46.6	-48.4	18.3	0.00e+00	0	34	0	752877568	64	4519
2026-01-17 05:40:37.78	347.23	22.07	-46.6	-48.4	18.2	0.00e+00	0	34	0	759169024	64	4524
2026-01-17 05:40:40.80	346.47	21.93	-46.2	-47.8	18.8	0.00e+00	0	34	0	764411904	64	4226
2026-01-17 05:40:43.83	345.71	21.79	-46.2	-47.8	18.9	0.00e+00	0	34	0	770703360	63	4461
2026-01-17 05:40:46.85	344.96	21.65	-46.6	-48.3	18.4	0.00e+00	0	34	0	775946240	63	4729
2026-01-17 05:40:49.88	344.22	21.50	-46.0	-47.6	19.1	0.00e+00	0	34	0	781189120	63	4374
2026-01-17 05:40:52.90	343.49	21.34	-46.2	-47.8	18.9	0.00e+00	0	34	0	787480576	63	4476
2026-01-17 05:40:55.93	342.76	21.19	-45.9	-47.4	19.2	0.00e+00	0	34	0	792723456	63	4285
2026-01-17 05:40:58.96	342.04	21.02	-46.4	-48.1	18.6	0.00e+00	0	34	0	799014912	63	4634
2026-01-17 05:41:01.98	341.33	20.86	-46.9	-48.9	17.8	0.00e+00	0	34	0	804257792	64	4763
2026-01-17 05:41:05.01	340.62	20.69	-46.9	-48.9	17.8	0.00e+00	0	34	0	809500672	64	4764
2026-01-17 05:41:08.03	339.93	20.52	-47.5	-49.8	17.0	0.00e+00	0	34	0	815792128	65	4984
2026-01-17 05:41:11.06	339.24	20.34	-48.4	-51.1	15.6	0.00e+00	0	34	0	821035008	67	5215
2026-01-17 05:41:14.08	338.56	20.16	-47.4	-49.5	17.2	0.00e+00	0	34	0	827326464	66	4594
2026-01-17 05:41:17.10	337.89	19.98	-46.3	-48.1	18.6	0.00e+00	0	34	0	832569344	63	4615
2026-01-17 05:41:20.13	337.22	19.80	-45.6	-47.2	19.5	0.00e+00	0	34	0	837812224	63	4153
2026-01-17 05:41:23.16	336.57	19.61	-45.6	-47.1	19.5	0.00e+00	0	34	0	844103680	63	4141
2026-01-17 05:41:26.19	335.92	19.42	-45.4	-46.9	19.7	0.00e+00	0	34	0	849346560	62	4249
2026-01-17 05:41:29.21	335.28	19.23	-44.8	-46.2	20.3	0.00e+00	0	34	0	855638016	61	4146
2026-01-17 05:41:32.24	334.65	19.04	-44.9	-46.3	20.2	0.00e+00	0	34	0	860880896	61	4221
2026-01-17 05:41:35.26	334.03	18.84	-46.2	-47.9	18.7	0.00e+00	0	34	0	866123776	63	4529
2026-01-17 05:41:38.29	333.41	18.64	-46.9	-48.8	17.8	0.00e+00	0	34	0	872415232	64	4747
2026-01-17 05:41:41.32	332.80	18.45	-46.8	-48.7	17.8	0.00e+00	0	34	0	877658112	64	4691
2026-01-17 05:41:44.34	332.20	18.24	-45.9	-47.6	19.0	0.00e+00	0	34	0	883949568	63	4346
2026-01-17 05:41:47.37	331.61	18.04	-45.6	-47.2	19.4	0.00e+00	0	34	0	889192448	63	4146
2026-01-17 05:41:50.40	331.03	17.84	-45.1	-46.5	20.0	0.00e+00	0	34	0	894435328	62	4087
2026-01-17 05:41:53.42	330.45	17.63	-45.4	-46.9	19.7	0.00e+00	0	34	0	900726784	62	4250
2026-01-17 05:41:56.45	329.88	17.42	-46.2	-47.9	18.7	0.00e+00	0	34	0	905969664	63	4519
2026-01-17 05:41:59.47	329.33	17.22	-46.0	-47.6	19.0	0.00e+00	0	34	0	912261120	63	4370
2026-01-17 05:42:02.50	328.77	17.01	-46.1	-47.8	18.9	0.00e+00	0	34	0	917504000	63	4449
2026-01-17 05:42:05.52	328.23	16.80	-46.5	-48.3	18.4	0.00e+00	0	34	0	923795456	63	4721
2026-01-17 05:42:08.55	327.69	16.59	-46.1	-47.8	18.8	0.00e+00	0	34	0	929038336	63	4462
2026-01-17 05:42:11.57	327.17	16.38	-46.0	-47.6	19.0	0.00e+00	0	34	0	934281216	63	4369
2026-01-17 05:42:14.60	326.64	16.16	-45.7	-47.2	19.4	0.00e+00	0	34	0	940572672	63	4173
2026-01-17 05:42:17.62	326.13	15.95	-45.6	-47.1	19.4	0.00e+00	0	34	0	945815552	62	4357
2026-01-17 05:42:20.65	325.62	15.74	-45.6	-47.1	19.4	0.00e+00	0	34	0	952107008	62	4362
2026-01-17 05:42:23.67	325.13	15.53	-45.1	-46.4	20.0	0.00e+00	0	34	0	957349888	62	4038
2026-01-17 05:42:26.69	324.64	15.31	-44.7	-46.0	20.4	0.00e+00	0	34	0	962592768	61	4085
2026-01-17 05:42:29.72	324.15	15.10	-44.9	-46.3	20.2	0.00e+00	0	34	0	968884224	61	4195
2026-01-17 05:42:32.74	323.67	14.89	-45.3	-46.7	19.8	0.00e+00	0	34	0	974127104	61	4435
2026-01-17 05:42:35.77	323.20	14.67	-45.5	-47.0	19.5	0.00e+00	0	34	0	980418560	61	4560
2026-01-17 05:42:38.79	322.74	14.46	-45.2	-46.5	19.9	0.00e+00	0	34	0	985661440	61	4336
2026-01-17 05:42:41.82	322.28	14.24	-44.9	-46.2	20.2	0.00e+00	0	34	0	991952896	61	4159
2026-01-17 05:42:44.84	321.83	14.03	-45.4	-46.8	19.7	0.00e+00	0	34	0	997195776	61	4468
2026-01-17 05:42:47.86	321.39	13.81	-45.9	-47.4	19.1	0.00e+00	0	34	0	1002438656	62	4536
2026-01-17 05:42:50.88	320.95	13.60	-46.1	-47.8	18.7	0.00e+00	0	34	0	1008730112	62	4712
2026-01-17 05:42:53.91	320.52	13.39	-45.9	-47.5	19.0	0.00e+00	0	34	0	1013972992	62	4556
2026-01-17 05:42:56.93	320.10	13.17	-45.8	-47.3	19.1	0.00e+00	0	34	0	1020264448	62	4490
2026-01-17 05:42:59.96	319.68	12.96	-45.3	-46.8	19.6	0.00e+00	0	34	0	1025507328	62	4195
2026-01-17 05:43:02.98	319.26	12.75	-45.5	-46.9	19.5	0.00e+00	0	34	0	1030750208	62	4278
2026-01-17 05:43:06.01	318.86	12.54	-46.3	-48.0	18.6	0.00e+00	0	34	0	1037041664	63	4547
2026-01-17 05:43:09.03	318.46	12.32	-46.8	-48.8	17.7	0.00e+00	0	34	0	1042284544	64	4707
2026-01-17 05:43:12.06	318.06	12.11	-46.6	-48.5	17.9	0.00e+00	0	34	0	1048576000	64	4565
2026-01-17 05:43:15.08	317.68	11.90	-46.1	-47.7	18.7	0.00e+00	0	34	0	1053818880	63	4410
2026-01-17 05:43:18.11	317.29	11.69	-46.0	-47.6	18.9	0.00e+00	0	34	0	1059061760	63	4354
2026-01-17 05:43:21.13	316.91	11.48	-46.2	-47.9	18.6	0.00e+00	0	34	0	1065353216	63	4514
2026-01-17 05:43:24.15	316.54	11.27	-46.1	-47.7	18.7	0.00e+00	0	34	0	1070596096	63	4410
2026-01-17 05:43:27.18	316.18	11.06	-46.1	-47.7	18.7	0.00e+00	0	34	0	1076887552	63	4405
2026-01-17 05:43:30.20	315.82	10.86	-46.4	-48.1	18.3	0.00e+00	0	34	0	1082130432	63	4641
2026-01-17 05:43:33.22	315.46	10.65	-46.7	-48.6	17.7	0.00e+00	0	34	0	1087373312	64	4640
2026-01-17 05:43:36.25	315.11	10.44	-46.6	-48.5	17.8	0.00e+00	0	34	0	1093664768	64	4579
2026-01-17 05:43:39.27	314.76	10.24	-46.8	-48.8	17.6	0.00e+00	0	34	0	1098907648	64	4729
2026-01-17 05:43:42.30	314.42	10.03	-47.0	-49.1	17.3	0.00e+00	0	34	0	1105199104	64	4885
2026-01-17 05:43:45.32	314.09	9.83	-47.2	-49.4	17.0	0.00e+00	0	34	0	1110441984	65	4776
2026-01-17 05:43:48.35	313.75	9.62	-47.3	-49.4	16.9	0.00e+00	0	34	0	1115684864	65	4803
2026-01-17 05:43:51.37	313.43	9.42	-47.1	-49.1	17.2	0.00e+00	0	34	0	1121976320	65	4611
2026-01-17 05:43:54.40	313.11	9.22	-46.5	-48.3	18.0	0.00e+00	0	34	0	1127219200	65	4219
2026-01-17 05:43:57.42	312.79	9.02	-46.2	-47.9	18.3	0.00e+00	0	34	0	1133510656	64	4263
2026-01-17 05:44:00.45	312.48	8.81	-46.6	-48.5	17.8	0.00e+00	0	34	0	1138753536	64	4567
2026-01-17 05:44:03.48	312.17	8.61	-46.9	-48.9	17.3	0.00e+00	0	34	0	1143996416	64	4786
2026-01-17 05:44:06.50	311.86	8.41	-47.0	-49.0	17.1	0.00e+00	0	34	0	1150287872	64	4865
2026-01-17 05:44:09.53	311.56	8.22	-47.3	-49.4	16.9	0.00e+00	0	34	0	1155530752	65	4763
2026-01-17 05:44:12.55	311.27	8.02	-47.0	-49.0	17.2	0.00e+00	0	34	0	1161822208	65	4591
2026-01-17 05:44:15.57	310.98	7.82	-47.2	-49.3	16.9	0.00e+00	0	34	0	1167065088	65	4717
2026-01-17 05:44:18.60	310.69	7.63	-47.4	-49.6	16.6	0.00e+00	0	34	0	1172307968	65	4902
2026-01-17 05:44:21.62	310.41	7.43	-47.5	-49.7	16.5	0.00e+00	0	34	0	1178599424	66	4675
2026-01-17 05:44:24.65	310.13	7.24	-47.6	-50.0	16.2	0.00e+00	0	34	0	1183842304	66	4815
2026-01-17 05:44:27.68	309.85	7.04	-48.1	-50.7	15.4	0.00e+00	0	34	0	1190133760	66	5254
2026-01-17 05:44:30.70	309.58	6.85	-48.3	-51.0	15.2	0.00e+00	0	34	0	1195376640	67	5103
2026-01-17 05:44:33.72	309.31	6.66	-48.7	-51.6	14.5	0.00e+00	0	34	0	1201668096	67	5523
2026-01-17 05:44:36.75	309.05	6.47	-48.5	-51.4	14.8	0.00e+00	0	34	0	1206910976	68	5054
2026-01-17 05:44:39.77	308.78	6.28	-48.4	-51.2	15.0	1.50e-06	0	34	0	1212153856	68	4928
2026-01-17 05:44:42.80	308.53	6.09	-48.4	-51.2	15.0	0.00e+00	0	34	0	1218445312	68	4952
2026-01-17 05:44:45.82	308.27	5.90	-49.0	-52.2	14.0	0.00e+00	0	34	0	1223688192	68	5544
2026-01-17 05:44:48.84	308.02	5.71	-48.5	-51.4	14.8	7.00e-07	0	34	0	1229979648	68	5048
2026-01-17 05:44:51.87	307.77	5.52	-48.7	-51.8	14.3	7.00e-07	0	34	0	1235222528	68	5293
2026-01-17 05:44:54.89	307.53	5.34	-49.2	-52.6	13.4	7.60e-06	0	34	0	1240465408	69	5512
2026-01-17 05:44:57.92	307.29	5.15	-48.8	-51.9	14.2	0.00e+00	0	34	0	1246756864	69	5061
2026-01-17 05:45:00.94	307.05	4.97	-52.0	-63.0	4.5	1.47e-02	8	35	0	1251999744	74	13585
2026-01-17 05:45:03.97	306.82	4.78	-52.9	-67.9	3.8	1.49e+00	0	34	104	1251999744	76	21473
2026-01-17 05:45:06.99	306.59	4.60	-53.3	-68.3	3.8	1.49e+00	0	34	104	1251999744	77	21159
2026-01-17 05:45:10.01	306.36	4.42	-53.5	-68.6	3.8	1.49e+00	0	34	104	1251999744	77	21764
2026-01-17 05:45:13.04	306.13	4.24	-53.7	-68.7	3.8	1.49e+00	0	34	104	1251999744	77	22145
2026-01-17 05:45:16.06	305.91	4.06	-53.7	-68.8	3.8	1.49e+00	0	35	104	1251999744	78	21055
2026-01-17 05:45:19.08	305.69	3.88	-53.8	-68.8	3.8	1.49e+00	0	34	104	1251999744	78	21166
2026-01-17 05:45:22.11	305.47	3.70	-53.7	-68.8	3.8	1.49e+00	0	34	104	1251999744	78	21102
2026-01-17 05:45:25.14	305.26	3.52	-53.7	-68.7	3.8	1.49e+00	0	34	104	1251999744	78	20877
2026-01-17 05:45:28.16	305.05	3.34	-53.6	-68.7	3.8	1.49e+00	0	35	104	1251999744	78	20822
2026-01-17 05:45:31.19	304.84	3.16	-53.6	-68.6	3.8	1.49e+00	0	35	104	1251999744	78	20663
2026-01-17 05:45:34.22	304.63	2.99	-53.6	-68.6	3.8	1.49e+00	0	35	104	1251999744	78	20664
2026-01-17 05:45:37.24	304.43	2.81	-53.5	-68.6	3.8	1.49e+00	0	35	104	1251999744	78	20644
2026-01-17 05:45:40.27	304.23	2.64	-53.5	-68.6	3.8	1.49e+00	0	34	104	1251999744	78	20582
2026-01-17 05:45:43.29	304.03	2.46	-53.5	-68.5	3.8	1.49e+00	0	35	104	1251999744	78	20511
2026-01-17 05:45:46.32	303.83	2.29	-53.5	-68.6	3.8	1.49e+00	0	34	104	1251999744	78	20578
2026-01-17 05:45:49.34	303.64	2.12	-53.5	-68.5	3.8	1.49e+00	0	35	104	1251999744	78	20467

#Closed at: 2026-01-17 05:45:51
#Recorded file [1251 MB]: D:/lorett/data/31041_260117_083313.dat