passes_logs/2026/01/17/R3.2S_Murmansk/R3.2S_Murmansk__20260117_071156_SUOMI_NPP_rec.log

#Pass ID: 20260117_071156_SUOMI NPP
#Satellite: SUOMI NPP
#Configuration: NPP
#almurnet v.1.7.20251203
#Start time: 2026-01-17 07:11:57

#Version: 2.2.20231116
#Station: R3.2S_Murmansk
#Location: 33.079688 lon 68.888172 lat
#TLE: 1 37849U 11061A   26016.58419598  .00000058  00000+0  48257-4 0  9996
#TLE: 2 37849  98.7812 318.6192 0002422  60.8544 299.2874 14.19525580736934

#Time	Az	El	Level	Level2	SNR	BER	BlckErr	Temp	State	Recorded	gain1	gain2
2026-01-17 07:11:57.88	97.44	2.10	-51.8	-66.8	3.8	1.49e+00	0	31	0	0	74	21047
2026-01-17 07:12:01.92	97.24	2.34	-51.8	-66.8	3.8	1.49e+00	0	32	104	0	74	21112
2026-01-17 07:12:05.96	97.04	2.59	-51.8	-66.8	3.8	1.49e+00	0	32	104	0	74	21039
2026-01-17 07:12:10.00	96.83	2.83	-51.8	-66.8	3.8	1.49e+00	0	32	104	0	74	21023
2026-01-17 07:12:14.03	96.62	3.08	-51.8	-66.7	3.8	1.49e+00	0	32	104	0	74	21001
2026-01-17 07:12:18.06	96.41	3.33	-51.8	-66.7	3.8	1.49e+00	0	32	104	0	74	20870
2026-01-17 07:12:22.10	96.19	3.58	-51.8	-66.8	3.8	1.49e+00	0	32	104	0	74	21051
2026-01-17 07:12:26.13	95.97	3.84	-51.7	-65.7	3.8	1.49e+00	0	33	104	0	74	18644
2026-01-17 07:12:30.16	95.74	4.09	-51.6	-63.8	4.1	1.47e+00	0	32	104	0	74	14890
2026-01-17 07:12:34.20	95.51	4.35	-51.2	-59.7	6.0	4.42e-01	0	33	0	5242880	74	9338
2026-01-17 07:12:38.23	95.27	4.61	-50.6	-56.8	8.7	5.94e-02	0	33	0	12582912	73	7069
2026-01-17 07:12:42.26	95.03	4.88	-50.8	-57.6	7.9	6.27e-02	0	33	0	19922944	73	7776
2026-01-17 07:12:46.30	94.79	5.14	-50.4	-55.9	9.6	2.91e-02	0	33	0	27262976	72	6742
2026-01-17 07:12:50.33	94.54	5.41	-51.1	-58.7	6.7	2.89e-01	0	33	0	34603008	73	8796
2026-01-17 07:12:54.37	94.28	5.68	-48.6	-51.6	14.4	7.00e-07	0	33	0	41943040	68	5173
2026-01-17 07:12:58.40	94.03	5.95	-48.3	-51.0	15.0	0.00e+00	0	33	0	49283072	68	4846
2026-01-17 07:13:02.44	93.76	6.22	-47.9	-50.4	15.6	0.00e+00	0	33	0	56623104	67	4796
2026-01-17 07:13:06.47	93.49	6.50	-48.0	-50.5	15.5	0.00e+00	0	33	0	63963136	67	4824
2026-01-17 07:13:10.51	93.22	6.77	-47.8	-50.2	15.9	0.00e+00	0	33	0	72351744	67	4668
2026-01-17 07:13:14.54	92.94	7.05	-47.8	-50.2	15.9	0.00e+00	0	33	0	79691776	67	4654
2026-01-17 07:13:18.57	92.65	7.34	-48.0	-50.5	15.7	0.00e+00	0	33	0	87031808	67	4819
2026-01-17 07:13:22.61	92.36	7.62	-48.1	-50.6	15.5	0.00e+00	0	33	0	94371840	67	4925
2026-01-17 07:13:26.65	92.06	7.91	-47.8	-50.2	16.0	0.00e+00	0	33	0	102760448	67	4658
2026-01-17 07:13:30.68	91.76	8.20	-47.6	-50.0	16.1	0.00e+00	0	33	0	110100480	66	4827
2026-01-17 07:13:34.71	91.45	8.49	-48.0	-50.6	15.4	0.00e+00	0	33	0	117440512	66	5201
2026-01-17 07:13:38.75	91.13	8.79	-47.7	-50.2	15.9	0.00e+00	0	33	0	124780544	66	4963
2026-01-17 07:13:42.79	90.80	9.09	-47.5	-49.8	16.4	0.00e+00	0	33	0	133169152	66	4717
2026-01-17 07:13:46.83	90.47	9.39	-47.4	-49.6	16.5	0.00e+00	0	33	0	140509184	66	4647
2026-01-17 07:13:50.86	90.13	9.69	-47.4	-49.6	16.5	0.00e+00	0	33	0	147849216	66	4643
2026-01-17 07:13:54.89	89.79	10.00	-47.4	-49.6	16.7	0.00e+00	0	33	0	155189248	66	4609
2026-01-17 07:13:58.93	89.43	10.31	-47.1	-49.2	17.0	0.00e+00	0	33	0	162529280	66	4416
2026-01-17 07:14:02.96	89.07	10.62	-47.1	-49.2	17.0	0.00e+00	0	33	0	170917888	66	4415
2026-01-17 07:14:07.00	88.70	10.93	-47.2	-49.3	17.0	0.00e+00	0	33	0	178257920	66	4471
2026-01-17 07:14:11.03	88.33	11.25	-47.0	-49.0	17.3	0.00e+00	0	33	0	185597952	66	4332
2026-01-17 07:14:15.06	87.94	11.57	-46.8	-48.8	17.5	0.00e+00	0	33	0	192937984	65	4447
2026-01-17 07:14:19.10	87.55	11.89	-46.9	-48.9	17.4	0.00e+00	0	33	0	200278016	65	4508
2026-01-17 07:14:23.13	87.14	12.22	-46.7	-48.6	17.8	0.00e+00	0	33	0	208666624	65	4355
2026-01-17 07:14:27.16	86.73	12.55	-46.6	-48.4	17.9	0.00e+00	0	33	0	216006656	65	4267
2026-01-17 07:14:31.20	86.31	12.88	-46.8	-48.8	17.6	0.00e+00	0	33	0	223346688	65	4447
2026-01-17 07:14:35.23	85.87	13.21	-46.8	-48.7	17.7	0.00e+00	0	33	0	230686720	65	4410
2026-01-17 07:14:39.26	85.43	13.55	-47.0	-49.0	17.3	0.00e+00	0	33	0	238026752	65	4572
2026-01-17 07:14:43.30	84.98	13.89	-46.9	-48.8	17.5	0.00e+00	0	33	0	246415360	65	4485
2026-01-17 07:14:47.32	84.51	14.23	-46.9	-48.9	17.5	0.00e+00	0	33	0	253755392	64	4783
2026-01-17 07:14:51.35	84.04	14.58	-46.8	-48.8	17.6	0.00e+00	0	33	0	261095424	64	4737
2026-01-17 07:14:55.39	83.55	14.93	-46.4	-48.2	18.2	0.00e+00	0	33	0	268435456	64	4409
2026-01-17 07:14:59.43	83.05	15.28	-46.6	-48.4	18.1	0.00e+00	0	33	0	276824064	64	4522
2026-01-17 07:15:03.46	82.54	15.64	-46.5	-48.3	18.1	0.00e+00	0	33	0	284164096	64	4467
2026-01-17 07:15:07.49	82.02	15.99	-46.9	-48.9	17.6	0.00e+00	0	33	0	291504128	64	4763
2026-01-17 07:15:11.52	81.48	16.35	-47.2	-49.2	17.3	0.00e+00	0	34	0	298844160	65	4680
2026-01-17 07:15:15.55	80.93	16.72	-47.3	-49.4	17.1	0.00e+00	0	33	0	306184192	65	4797
2026-01-17 07:15:19.59	80.37	17.08	-46.8	-48.7	17.8	0.00e+00	0	33	0	314572800	65	4395
2026-01-17 07:15:23.63	79.79	17.45	-47.1	-49.1	17.4	0.00e+00	0	34	0	321912832	65	4644
2026-01-17 07:15:27.66	79.20	17.82	-46.5	-48.4	18.1	0.00e+00	0	33	0	329252864	64	4503
2026-01-17 07:15:31.69	78.59	18.19	-46.4	-48.2	18.3	0.00e+00	0	33	0	336592896	64	4419
2026-01-17 07:15:35.73	77.97	18.57	-46.1	-47.7	18.9	0.00e+00	0	34	0	343932928	63	4402
2026-01-17 07:15:39.76	77.33	18.95	-46.3	-47.9	18.7	0.00e+00	0	33	0	352321536	63	4540
2026-01-17 07:15:43.79	76.67	19.33	-46.4	-48.1	18.5	0.00e+00	0	33	0	359661568	63	4645
2026-01-17 07:15:47.82	76.00	19.71	-46.7	-48.6	18.0	0.00e+00	0	33	0	367001600	64	4599
2026-01-17 07:15:51.86	75.31	20.09	-46.5	-48.3	18.3	0.00e+00	0	34	0	374341632	64	4449
2026-01-17 07:15:55.89	74.61	20.47	-46.1	-47.7	18.9	0.00e+00	0	33	0	382730240	63	4419
2026-01-17 07:15:59.92	73.88	20.86	-45.8	-47.4	19.2	0.00e+00	0	33	0	390070272	63	4250
2026-01-17 07:16:03.96	73.14	21.25	-46.4	-48.1	18.6	0.00e+00	0	33	0	397410304	63	4601
2026-01-17 07:16:07.99	72.38	21.63	-46.5	-48.2	18.4	0.00e+00	0	34	0	404750336	64	4432
2026-01-17 07:16:12.02	71.60	22.02	-46.4	-48.1	18.5	0.00e+00	0	34	0	412090368	64	4360
2026-01-17 07:16:16.06	70.79	22.41	-46.4	-48.1	18.6	0.00e+00	0	33	0	420478976	64	4342
2026-01-17 07:16:20.09	69.97	22.79	-46.5	-48.3	18.4	0.00e+00	0	33	0	427819008	64	4450
2026-01-17 07:16:24.12	69.13	23.18	-46.7	-48.5	18.2	0.00e+00	0	34	0	435159040	64	4560
2026-01-17 07:16:28.16	68.26	23.56	-46.5	-48.3	18.4	0.00e+00	0	34	0	442499072	64	4454
2026-01-17 07:16:32.19	67.38	23.95	-47.3	-49.3	17.5	0.00e+00	0	34	0	450887680	65	4714
2026-01-17 07:16:36.23	66.47	24.33	-46.4	-48.1	18.6	0.00e+00	0	34	0	458227712	64	4373
2026-01-17 07:16:40.26	65.54	24.71	-45.7	-47.2	19.5	0.00e+00	0	33	0	465567744	63	4160
2026-01-17 07:16:44.29	64.58	25.08	-44.9	-46.2	20.4	0.00e+00	0	33	0	472907776	61	4184
2026-01-17 07:16:48.33	63.61	25.45	-45.0	-46.4	20.2	0.00e+00	0	33	0	480247808	61	4268
2026-01-17 07:16:52.36	62.61	25.82	-45.6	-47.1	19.6	0.00e+00	0	34	0	487587840	61	4642
2026-01-17 07:16:56.39	61.59	26.18	-46.7	-48.5	18.4	0.00e+00	0	33	0	495976448	63	4831
2026-01-17 07:17:00.43	60.54	26.54	-46.1	-47.6	19.0	0.00e+00	0	33	0	503316480	64	4138
2026-01-17 07:17:04.46	59.47	26.89	-46.3	-48.0	18.8	0.00e+00	0	34	0	510656512	63	4549
2026-01-17 07:17:08.49	58.37	27.23	-46.2	-47.7	19.1	0.00e+00	0	34	0	517996544	63	4419
2026-01-17 07:17:12.53	57.25	27.57	-46.0	-47.5	19.2	0.00e+00	0	34	0	526385152	63	4317
2026-01-17 07:17:16.56	56.11	27.90	-47.5	-49.6	17.3	0.00e+00	0	33	0	533725184	65	4885
2026-01-17 07:17:20.59	54.95	28.22	-47.6	-49.7	17.1	0.00e+00	0	34	0	541065216	66	4671
2026-01-17 07:17:24.63	53.76	28.53	-47.1	-48.9	17.9	0.00e+00	0	33	0	548405248	66	4288
2026-01-17 07:17:28.66	52.55	28.82	-46.2	-47.8	18.8	0.00e+00	0	34	0	555745280	64	4230
2026-01-17 07:17:32.69	51.32	29.11	-46.6	-48.4	18.3	0.00e+00	0	34	0	564133888	64	4541
2026-01-17 07:17:36.72	50.06	29.38	-47.1	-49.1	17.7	0.00e+00	0	34	0	571473920	65	4624
2026-01-17 07:17:40.75	48.79	29.64	-46.8	-48.6	18.1	0.00e+00	0	34	0	578813952	65	4391
2026-01-17 07:17:44.78	47.49	29.89	-46.3	-47.9	18.8	0.00e+00	0	34	0	586153984	64	4274
2026-01-17 07:17:48.82	46.17	30.12	-46.7	-48.5	18.3	0.00e+00	0	33	0	593494016	64	4553
2026-01-17 07:17:52.86	44.84	30.34	-45.8	-47.2	19.5	0.00e+00	0	34	0	601882624	63	4172
2026-01-17 07:17:56.89	43.49	30.54	-46.3	-47.9	18.9	0.00e+00	0	33	0	609222656	63	4540
2026-01-17 07:18:00.93	42.11	30.72	-46.6	-48.4	18.4	0.00e+00	0	34	0	616562688	64	4523
2026-01-17 07:18:04.96	40.73	30.89	-47.7	-50.0	16.9	0.00e+00	0	34	0	623902720	66	4840
2026-01-17 07:18:08.99	39.34	31.04	-47.1	-49.1	17.8	0.00e+00	0	33	0	632291328	66	4343
2026-01-17 07:18:13.02	37.93	31.17	-47.0	-48.9	17.9	0.00e+00	0	33	0	639631360	66	4247
2026-01-17 07:18:17.05	36.51	31.28	-46.5	-48.2	18.5	0.00e+00	0	34	0	646971392	64	4423
2026-01-17 07:18:21.09	35.08	31.37	-47.4	-49.4	17.3	0.00e+00	0	34	0	654311424	65	4795
2026-01-17 07:18:25.12	33.65	31.44	-47.0	-48.9	17.9	0.00e+00	0	34	0	661651456	65	4494
2026-01-17 07:18:29.15	32.21	31.49	-46.9	-48.7	18.0	0.00e+00	0	34	0	670040064	65	4415
2026-01-17 07:18:33.18	30.77	31.52	-47.8	-50.0	16.9	0.00e+00	0	34	0	677380096	66	4828
2026-01-17 07:18:37.22	29.32	31.52	-47.6	-49.7	17.1	0.00e+00	0	34	0	684720128	66	4697
2026-01-17 07:18:41.26	27.87	31.51	-46.4	-48.0	18.7	0.00e+00	0	34	0	692060160	64	4310
2026-01-17 07:18:45.29	26.43	31.48	-46.9	-48.7	18.1	0.00e+00	0	33	0	700448768	64	4687
2026-01-17 07:18:49.32	24.99	31.43	-47.2	-49.1	17.7	0.00e+00	0	33	0	707788800	65	4645
2026-01-17 07:18:53.36	23.56	31.35	-47.1	-48.9	18.0	0.00e+00	0	34	0	715128832	65	4538
2026-01-17 07:18:57.39	22.13	31.26	-47.0	-48.9	18.0	0.00e+00	0	34	0	722468864	65	4504
2026-01-17 07:19:01.42	20.71	31.15	-47.6	-49.7	17.2	0.00e+00	0	33	0	729808896	66	4656
2026-01-17 07:19:05.45	19.31	31.02	-46.6	-48.3	18.4	0.00e+00	0	34	0	737148928	65	4216
2026-01-17 07:19:09.48	17.92	30.87	-46.8	-48.7	18.1	0.00e+00	0	34	0	745537536	64	4665
2026-01-17 07:19:13.52	16.53	30.70	-46.9	-48.7	18.1	0.00e+00	0	34	0	752877568	64	4678
2026-01-17 07:19:17.55	15.17	30.51	-48.0	-50.2	16.7	0.00e+00	0	33	0	760217600	66	4976
2026-01-17 07:19:21.59	13.82	30.31	-46.8	-48.6	18.1	0.00e+00	0	34	0	767557632	65	4380
2026-01-17 07:19:25.62	12.49	30.09	-46.8	-48.6	18.2	0.00e+00	0	34	0	775946240	65	4365
2026-01-17 07:19:29.65	11.18	29.86	-47.0	-48.9	17.9	0.00e+00	0	33	0	783286272	65	4516
2026-01-17 07:19:33.69	9.89	29.61	-47.9	-50.1	16.8	0.00e+00	0	34	0	790626304	66	4892
2026-01-17 07:19:37.71	8.62	29.35	-48.3	-50.7	16.1	0.00e+00	0	33	0	797966336	67	4956
2026-01-17 07:19:41.75	7.37	29.07	-48.1	-50.4	16.4	0.00e+00	0	33	0	805306368	67	4808
2026-01-17 07:19:45.78	6.14	28.78	-48.2	-50.6	16.3	0.00e+00	0	34	0	813694976	67	4896
2026-01-17 07:19:49.81	4.93	28.49	-46.8	-48.6	18.1	0.00e+00	0	34	0	821035008	65	4391
2026-01-17 07:19:53.84	3.75	28.18	-45.8	-47.3	19.5	0.00e+00	0	33	0	828375040	63	4211
2026-01-17 07:19:57.88	2.59	27.86	-45.5	-47.0	19.7	0.00e+00	0	33	0	835715072	62	4293
2026-01-17 07:20:01.91	1.45	27.53	-46.7	-48.4	18.3	0.00e+00	0	34	0	843055104	64	4529
2026-01-17 07:20:05.94	0.34	27.19	-46.6	-48.3	18.5	0.00e+00	0	34	0	851443712	64	4482
2026-01-17 07:20:09.98	359.25	26.85	-48.2	-50.6	16.3	0.00e+00	0	34	0	858783744	67	4893
2026-01-17 07:20:14.01	358.19	26.50	-46.5	-48.2	18.5	0.00e+00	0	33	0	866123776	65	4172
2026-01-17 07:20:18.04	357.15	26.14	-46.3	-47.9	18.9	0.00e+00	0	34	0	873463808	64	4259
2026-01-17 07:20:22.08	356.13	25.78	-45.1	-46.4	20.2	0.00e+00	0	34	0	880803840	62	4048
2026-01-17 07:20:26.11	355.14	25.41	-45.3	-46.7	20.1	0.00e+00	0	33	0	889192448	62	4152
2026-01-17 07:20:30.14	354.17	25.04	-45.7	-47.2	19.6	0.00e+00	0	34	0	896532480	62	4399
2026-01-17 07:20:34.17	353.22	24.66	-46.0	-47.6	19.1	0.00e+00	0	34	0	903872512	62	4626
2026-01-17 07:20:38.20	352.29	24.29	-45.7	-47.1	19.6	0.00e+00	0	34	0	911212544	62	4385
2026-01-17 07:20:42.24	351.39	23.90	-45.1	-46.5	20.1	0.00e+00	0	34	0	919601152	62	4068
2026-01-17 07:20:46.27	350.51	23.52	-44.1	-45.3	21.2	0.00e+00	0	34	0	926941184	60	3961
2026-01-17 07:20:50.30	349.65	23.14	-44.8	-46.1	20.5	0.00e+00	0	34	0	934281216	60	4390
2026-01-17 07:20:54.33	348.81	22.75	-45.3	-46.6	20.0	0.00e+00	0	34	0	941621248	61	4387
2026-01-17 07:20:58.37	347.99	22.37	-44.8	-46.2	20.5	0.00e+00	0	34	0	948961280	61	4147
2026-01-17 07:21:02.40	347.20	21.98	-44.9	-46.2	20.4	0.00e+00	0	33	0	957349888	61	4178
2026-01-17 07:21:06.43	346.42	21.60	-45.3	-46.7	20.0	0.00e+00	0	34	0	964689920	61	4421
2026-01-17 07:21:10.47	345.66	21.21	-44.8	-46.1	20.5	0.00e+00	0	34	0	972029952	61	4141
2026-01-17 07:21:14.51	344.92	20.82	-45.5	-46.9	19.8	0.00e+00	0	34	0	979369984	61	4527
2026-01-17 07:21:18.54	344.20	20.44	-45.8	-47.3	19.4	0.00e+00	0	34	0	986710016	62	4473
2026-01-17 07:21:22.58	343.50	20.06	-44.8	-46.1	20.5	0.00e+00	0	33	0	995098624	61	4129
2026-01-17 07:21:26.61	342.81	19.68	-44.8	-46.0	20.5	0.00e+00	0	34	0	1002438656	61	4097
2026-01-17 07:21:30.64	342.15	19.30	-45.9	-47.4	19.2	0.00e+00	0	34	0	1009778688	62	4543
2026-01-17 07:21:34.67	341.50	18.92	-46.4	-48.1	18.7	0.00e+00	0	33	0	1017118720	63	4599
2026-01-17 07:21:38.71	340.86	18.54	-45.6	-47.0	19.6	0.00e+00	0	34	0	1025507328	63	4084
2026-01-17 07:21:42.75	340.24	18.17	-45.7	-47.2	19.5	0.00e+00	0	34	0	1032847360	62	4417
2026-01-17 07:21:46.78	339.64	17.80	-46.2	-47.8	18.9	0.00e+00	0	34	0	1040187392	63	4475
2026-01-17 07:21:50.82	339.05	17.43	-45.9	-47.4	19.2	0.00e+00	0	34	0	1047527424	63	4281
2026-01-17 07:21:54.85	338.48	17.06	-45.6	-47.1	19.5	0.00e+00	0	34	0	1054867456	62	4372
2026-01-17 07:21:58.88	337.92	16.69	-46.0	-47.5	19.1	0.00e+00	0	34	0	1063256064	62	4588
2026-01-17 07:22:02.92	337.37	16.33	-46.1	-47.7	19.0	0.00e+00	0	34	0	1070596096	63	4413
2026-01-17 07:22:06.95	336.84	15.97	-45.8	-47.3	19.3	0.00e+00	0	33	0	1077936128	63	4222
2026-01-17 07:22:10.98	336.32	15.62	-45.9	-47.4	19.2	0.00e+00	0	34	0	1085276160	63	4265
2026-01-17 07:22:15.02	335.81	15.26	-47.4	-49.4	17.2	0.00e+00	0	34	0	1092616192	65	4805
2026-01-17 07:22:19.05	335.31	14.91	-47.2	-49.2	17.3	0.00e+00	0	34	0	1101004800	66	4399
2026-01-17 07:22:23.09	334.83	14.56	-45.6	-47.1	19.5	0.00e+00	0	34	0	1108344832	63	4107
2026-01-17 07:22:27.12	334.36	14.22	-45.3	-46.7	19.8	0.00e+00	0	34	0	1115684864	62	4178
2026-01-17 07:22:31.15	333.90	13.88	-46.4	-48.1	18.4	0.00e+00	0	34	0	1123024896	63	4646
2026-01-17 07:22:35.19	333.45	13.54	-47.1	-49.0	17.5	0.00e+00	0	34	0	1131413504	64	4855
2026-01-17 07:22:39.22	333.01	13.20	-47.1	-49.1	17.5	0.00e+00	0	34	0	1138753536	65	4602
2026-01-17 07:22:43.25	332.58	12.87	-47.1	-49.0	17.5	0.00e+00	0	33	0	1146093568	65	4597
2026-01-17 07:22:47.29	332.16	12.54	-47.0	-48.9	17.6	0.00e+00	0	34	0	1153433600	65	4536
2026-01-17 07:22:51.33	331.75	12.21	-47.3	-49.3	17.1	0.00e+00	0	33	0	1160773632	65	4759
2026-01-17 07:22:55.37	331.35	11.88	-47.4	-49.6	16.9	0.00e+00	0	34	0	1169162240	65	4881
2026-01-17 07:22:59.40	330.96	11.56	-47.0	-49.0	17.4	0.00e+00	0	34	0	1176502272	65	4584
2026-01-17 07:23:03.43	330.57	11.24	-46.5	-48.3	18.1	0.00e+00	0	34	0	1183842304	65	4198
2026-01-17 07:23:07.47	330.20	10.93	-46.3	-48.0	18.3	0.00e+00	0	34	0	1191182336	64	4340
2026-01-17 07:23:11.50	329.83	10.61	-46.4	-48.1	18.0	0.00e+00	0	34	0	1198522368	64	4390
2026-01-17 07:23:15.54	329.47	10.30	-47.3	-49.4	17.0	0.00e+00	0	34	0	1206910976	65	4765
2026-01-17 07:23:19.57	329.12	10.00	-48.3	-51.0	15.5	0.00e+00	0	34	0	1214251008	67	5129
2026-01-17 07:23:23.60	328.78	9.69	-48.7	-51.5	14.9	0.00e+00	0	34	0	1221591040	68	5150
2026-01-17 07:23:27.63	328.45	9.39	-48.4	-51.1	15.4	0.00e+00	0	34	0	1228931072	68	4878
2026-01-17 07:23:31.67	328.12	9.09	-48.1	-50.7	15.8	0.00e+00	0	34	0	1236271104	68	4657
2026-01-17 07:23:35.70	327.80	8.79	-47.8	-50.1	16.2	0.00e+00	0	34	0	1244659712	67	4633
2026-01-17 07:23:39.74	327.48	8.50	-47.6	-49.8	16.5	0.00e+00	0	34	0	1251999744	66	4743
2026-01-17 07:23:43.77	327.17	8.21	-47.3	-49.4	16.8	0.00e+00	0	33	0	1259339776	66	4528
2026-01-17 07:23:47.80	326.87	7.92	-47.5	-49.7	16.5	0.00e+00	0	33	0	1266679808	66	4663
2026-01-17 07:23:51.83	326.58	7.63	-47.9	-50.3	15.8	0.00e+00	0	34	0	1275068416	66	5006
2026-01-17 07:23:55.86	326.29	7.35	-48.4	-51.1	15.0	0.00e+00	0	33	0	1282408448	67	5209
2026-01-17 07:23:59.90	326.00	7.06	-48.7	-51.7	14.5	7.00e-07	0	34	0	1289748480	68	5271
2026-01-17 07:24:03.93	325.73	6.78	-48.7	-51.6	14.6	1.50e-06	0	34	0	1297088512	68	5195
2026-01-17 07:24:07.97	325.45	6.51	-48.8	-51.8	14.4	7.00e-07	0	34	0	1304428544	68	5316
2026-01-17 07:24:11.99	325.19	6.23	-48.7	-51.8	14.3	0.00e+00	0	34	0	1312817152	68	5292
2026-01-17 07:24:16.03	324.93	5.96	-48.8	-51.9	14.1	3.00e-06	0	34	0	1320157184	68	5393
2026-01-17 07:24:20.06	324.67	5.69	-49.1	-52.5	13.6	3.80e-06	0	34	0	1327497216	68	5725
2026-01-17 07:24:24.10	324.42	5.42	-49.2	-52.8	13.2	2.05e-05	0	34	0	1334837248	69	5609
2026-01-17 07:24:28.13	324.17	5.16	-49.0	-52.3	13.6	1.60e-05	0	34	0	1342177280	69	5339
2026-01-17 07:24:32.16	323.93	4.89	-52.6	-67.6	3.8	1.49e+00	0	34	104	1348468736	75	22000
2026-01-17 07:24:36.20	323.69	4.63	-53.2	-68.2	3.8	1.49e+00	0	34	104	1348468736	76	22238
2026-01-17 07:24:40.23	323.46	4.37	-53.5	-68.5	3.8	1.49e+00	0	34	104	1348468736	77	21698
2026-01-17 07:24:44.26	323.23	4.11	-53.6	-68.7	3.8	1.49e+00	0	34	104	1348468736	77	22031
2026-01-17 07:24:48.29	323.01	3.86	-53.6	-68.7	3.8	1.49e+00	0	34	104	1348468736	77	22030
2026-01-17 07:24:52.32	322.79	3.61	-53.6	-68.6	3.8	1.49e+00	0	34	104	1348468736	77	21896
2026-01-17 07:24:56.36	322.57	3.35	-53.5	-68.6	3.8	1.49e+00	0	34	104	1348468736	77	21850
2026-01-17 07:25:00.39	322.36	3.10	-53.5	-68.6	3.8	1.49e+00	0	34	104	1348468736	77	21812
2026-01-17 07:25:04.43	322.15	2.85	-53.5	-68.6	3.8	1.49e+00	0	34	104	1348468736	77	21825
2026-01-17 07:25:08.47	321.94	2.61	-53.5	-68.5	3.8	1.49e+00	0	34	104	1348468736	77	21729
2026-01-17 07:25:12.50	321.74	2.36	-53.5	-68.5	3.8	1.49e+00	0	34	104	1348468736	77	21688
2026-01-17 07:25:16.53	321.54	2.12	-53.5	-68.5	3.8	1.49e+00	0	34	104	1348468736	77	21659
2026-01-17 07:25:20.56	321.35	1.88	-53.5	-68.5	3.8	1.49e+00	0	34	104	1348468736	77	21702

#Closed at: 2026-01-17 07:25:21
#Recorded file [1348 MB]: D:/lorett/data/31041_260117_101157.dat