passes_logs/2026/01/17/R3.2S_Murmansk/R3.2S_Murmansk__20260117_002108_AQUA_rec.log

#Pass ID: 20260117_002108_AQUA
#Satellite: AQUA
#Configuration: AQUA
#almurnet v.1.7.20251203
#Start time: 2026-01-17 00:21:10

#Version: 2.2.20231116
#Station: R3.2S_Murmansk
#Location: 33.079688 lon 68.888172 lat
#TLE: 1 27424U 02022A   26015.92015591  .00000664  00000+0  14289-3 0  9993
#TLE: 2 27424  98.4082 342.3630 0002020  77.1389  16.3168 14.61822470261023

#Time	Az	El	Level	Level2	SNR	BER	BlckErr	Temp	State	Recorded	gain1	gain2
2026-01-17 00:21:10.80	21.14	2.13	-52.6	-70.4	3.8	7.42e-01	0	32	0	0	77	27042
2026-01-17 00:21:13.82	21.36	2.31	-52.6	-70.1	3.8	7.51e-01	0	32	104	0	75	29232
2026-01-17 00:21:16.85	21.59	2.49	-52.6	-70.1	3.8	7.42e-01	0	32	104	0	75	29061
2026-01-17 00:21:19.87	21.81	2.67	-52.6	-70.2	3.8	7.47e-01	0	33	104	0	75	29518
2026-01-17 00:21:22.90	22.04	2.85	-52.6	-70.3	3.8	7.44e-01	0	33	104	0	75	29859
2026-01-17 00:21:25.93	22.27	3.03	-52.6	-70.3	3.8	7.47e-01	0	33	104	0	75	29984
2026-01-17 00:21:28.95	22.51	3.21	-52.6	-70.0	3.8	7.47e-01	0	33	104	0	75	28782
2026-01-17 00:21:31.97	22.74	3.40	-52.6	-69.3	3.8	7.45e-01	0	33	104	0	75	26540
2026-01-17 00:21:35.00	22.98	3.58	-52.6	-69.6	3.8	7.43e-01	0	33	104	0	75	27510
2026-01-17 00:21:38.03	23.23	3.77	-52.6	-69.7	3.8	7.46e-01	0	33	104	0	75	27717
2026-01-17 00:21:41.05	23.47	3.95	-52.5	-66.6	4.3	7.30e-01	0	33	104	0	75	19495
2026-01-17 00:21:44.08	23.72	4.14	-52.4	-65.1	4.9	7.16e-01	0	33	104	0	75	16319
2026-01-17 00:21:47.10	23.98	4.33	-52.5	-66.7	4.1	7.31e-01	0	33	104	0	75	19622
2026-01-17 00:21:50.13	24.24	4.52	-52.2	-62.6	6.5	6.72e-01	164	33	0	524288	75	12326
2026-01-17 00:21:53.16	24.50	4.71	-51.9	-60.3	8.8	6.36e-01	0	33	0	5767168	75	9419
2026-01-17 00:21:56.18	24.76	4.90	-51.7	-59.4	9.9	6.22e-01	0	33	0	11534336	75	8497
2026-01-17 00:21:59.21	25.03	5.09	-51.7	-59.3	10.0	6.21e-01	0	33	0	17301504	75	8429
2026-01-17 00:22:02.23	25.30	5.29	-47.9	-50.0	20.0	6.03e-01	0	33	0	21495808	67	4598
2026-01-17 00:22:05.25	25.57	5.48	-47.9	-50.2	20.0	6.04e-01	0	33	0	26738688	67	4670
2026-01-17 00:22:08.28	25.85	5.68	-47.1	-49.0	21.2	6.04e-01	0	33	0	32505856	66	4318
2026-01-17 00:22:11.30	26.13	5.87	-47.1	-49.1	21.1	6.03e-01	0	34	0	38273024	66	4344
2026-01-17 00:22:14.33	26.42	6.07	-46.7	-48.5	21.4	6.04e-01	0	33	0	44040192	65	4318
2026-01-17 00:22:17.35	26.71	6.27	-46.9	-48.7	21.5	6.02e-01	0	33	0	49807360	65	4441
2026-01-17 00:22:20.38	27.01	6.47	-46.7	-48.5	21.8	6.04e-01	0	34	0	55050240	65	4329
2026-01-17 00:22:23.41	27.31	6.68	-47.0	-48.8	21.6	6.05e-01	0	33	0	61341696	65	4462
2026-01-17 00:22:26.43	27.61	6.88	-46.9	-48.7	21.7	6.05e-01	0	33	0	66584576	65	4423
2026-01-17 00:22:29.46	27.92	7.08	-46.5	-48.1	22.2	6.04e-01	0	34	0	72351744	64	4389
2026-01-17 00:22:32.48	28.23	7.29	-46.5	-48.2	22.2	6.04e-01	0	33	0	78118912	64	4419
2026-01-17 00:22:35.51	28.55	7.49	-46.6	-48.3	22.1	6.02e-01	0	34	0	83886080	64	4478
2026-01-17 00:22:38.53	28.87	7.70	-46.6	-48.2	22.2	6.05e-01	0	34	0	89653248	64	4437
2026-01-17 00:22:41.56	29.19	7.91	-46.8	-48.5	21.9	6.03e-01	0	33	0	94896128	64	4589
2026-01-17 00:22:44.58	29.53	8.12	-46.3	-48.0	22.5	6.01e-01	0	34	0	100663296	64	4303
2026-01-17 00:22:47.61	29.86	8.33	-46.4	-48.1	22.4	6.04e-01	0	34	0	106430464	64	4367
2026-01-17 00:22:50.64	30.20	8.54	-46.5	-48.2	22.3	6.05e-01	0	34	0	112197632	64	4423
2026-01-17 00:22:53.66	30.55	8.76	-46.2	-47.8	22.7	6.03e-01	0	33	0	117964800	64	4229
2026-01-17 00:22:56.69	30.90	8.97	-46.3	-47.9	22.7	6.05e-01	0	34	0	123207680	64	4247
2026-01-17 00:22:59.72	31.26	9.19	-46.2	-47.8	22.9	6.04e-01	0	34	0	128974848	63	4444
2026-01-17 00:23:02.74	31.62	9.41	-46.3	-47.9	22.8	6.03e-01	0	34	0	134742016	63	4502
2026-01-17 00:23:05.76	31.99	9.63	-46.1	-47.6	23.1	6.02e-01	0	34	0	140509184	63	4367
2026-01-17 00:23:08.79	32.37	9.85	-46.1	-47.6	23.1	6.05e-01	0	34	0	146276352	63	4377
2026-01-17 00:23:11.81	32.75	10.07	-46.1	-47.7	23.0	6.05e-01	0	34	0	152043520	63	4398
2026-01-17 00:23:14.83	33.13	10.29	-46.1	-47.6	23.1	6.03e-01	0	34	0	157286400	63	4373
2026-01-17 00:23:17.86	33.53	10.51	-46.2	-47.7	23.0	6.02e-01	0	34	0	163053568	63	4438
2026-01-17 00:23:20.88	33.92	10.74	-46.1	-47.6	23.2	6.03e-01	0	34	0	168820736	63	4370
2026-01-17 00:23:23.91	34.33	10.96	-45.8	-47.3	23.5	6.03e-01	0	34	0	174587904	63	4222
2026-01-17 00:23:26.93	34.74	11.19	-45.7	-47.2	23.6	6.03e-01	0	34	0	180355072	63	4158
2026-01-17 00:23:29.95	35.16	11.41	-45.7	-47.1	23.6	6.03e-01	0	34	0	185597952	63	4145
2026-01-17 00:23:32.98	35.59	11.64	-45.8	-47.2	23.7	6.05e-01	0	34	0	191365120	63	4170
2026-01-17 00:23:36.00	36.02	11.87	-45.7	-47.1	23.7	6.05e-01	0	34	0	197132288	63	4128
2026-01-17 00:23:39.03	36.46	12.10	-45.6	-47.0	23.8	6.02e-01	0	34	0	202899456	63	4090
2026-01-17 00:23:42.05	36.90	12.34	-45.6	-47.0	23.8	6.02e-01	0	34	0	208666624	63	4070
2026-01-17 00:23:45.08	37.36	12.57	-45.6	-47.1	23.8	6.03e-01	0	34	0	213909504	62	4344
2026-01-17 00:23:48.10	37.82	12.80	-45.4	-46.8	24.1	6.02e-01	0	34	0	219676672	62	4204
2026-01-17 00:23:51.13	38.29	13.04	-45.5	-46.9	23.9	6.02e-01	0	34	0	225443840	62	4268
2026-01-17 00:23:54.15	38.76	13.27	-45.2	-46.6	24.2	6.04e-01	0	34	0	231211008	62	4125
2026-01-17 00:23:57.18	39.25	13.51	-45.3	-46.7	24.2	6.03e-01	0	34	0	236978176	62	4173
2026-01-17 00:24:00.20	39.74	13.75	-45.2	-46.5	24.3	6.05e-01	0	34	0	242745344	62	4097
2026-01-17 00:24:03.23	40.25	13.99	-45.2	-46.6	24.3	6.03e-01	0	34	0	247988224	62	4117
2026-01-17 00:24:06.26	40.76	14.22	-45.2	-46.5	24.4	6.03e-01	0	34	0	253755392	62	4083
2026-01-17 00:24:09.28	41.27	14.46	-45.1	-46.4	24.5	6.02e-01	0	34	0	259522560	62	4041
2026-01-17 00:24:12.31	41.80	14.70	-45.2	-46.5	24.4	6.01e-01	0	34	0	265289728	62	4079
2026-01-17 00:24:15.33	42.34	14.94	-45.2	-46.6	24.4	6.04e-01	0	34	0	271056896	62	4100
2026-01-17 00:24:18.35	42.88	15.18	-45.3	-46.7	24.2	6.04e-01	0	34	0	276299776	62	4159
2026-01-17 00:24:21.38	43.44	15.42	-45.2	-46.5	24.5	6.02e-01	0	34	0	282066944	62	4084
2026-01-17 00:24:24.40	44.00	15.67	-45.2	-46.5	24.5	6.04e-01	0	34	0	287834112	62	4084
2026-01-17 00:24:27.42	44.57	15.91	-45.1	-46.5	24.5	6.00e-01	0	34	0	293601280	62	4061
2026-01-17 00:24:30.45	45.16	16.15	-45.0	-46.3	24.7	6.02e-01	0	34	0	299368448	61	4220
2026-01-17 00:24:33.47	45.75	16.39	-44.9	-46.2	24.7	6.02e-01	0	34	0	304611328	61	4171
2026-01-17 00:24:36.50	46.35	16.63	-44.9	-46.2	24.8	6.01e-01	0	34	0	310902784	61	4161
2026-01-17 00:24:39.53	46.97	16.87	-44.8	-46.1	24.9	6.03e-01	0	34	0	316145664	61	4135
2026-01-17 00:24:42.55	47.59	17.11	-44.9	-46.2	24.8	6.01e-01	0	34	0	321912832	61	4169
2026-01-17 00:24:45.57	48.22	17.35	-44.9	-46.2	24.8	6.04e-01	0	34	0	327680000	61	4169
2026-01-17 00:24:48.60	48.86	17.59	-44.9	-46.2	24.8	6.03e-01	0	34	0	333447168	61	4179
2026-01-17 00:24:51.62	49.52	17.83	-44.9	-46.2	24.8	6.04e-01	0	34	0	339214336	61	4183
2026-01-17 00:24:54.65	50.18	18.07	-44.9	-46.2	24.9	6.03e-01	0	34	0	344457216	61	4155
2026-01-17 00:24:57.68	50.86	18.30	-44.9	-46.2	24.8	6.02e-01	0	34	0	350224384	61	4181
2026-01-17 00:25:00.70	51.55	18.54	-44.9	-46.2	24.8	6.02e-01	0	34	0	355991552	61	4177
2026-01-17 00:25:03.73	52.25	18.77	-45.1	-46.4	24.6	6.03e-01	0	34	0	361758720	61	4267
2026-01-17 00:25:06.76	52.96	19.01	-45.0	-46.3	24.8	6.04e-01	0	34	0	367525888	61	4198
2026-01-17 00:25:09.78	53.68	19.24	-45.0	-46.3	24.7	6.01e-01	0	34	0	372768768	61	4204
2026-01-17 00:25:12.81	54.41	19.46	-45.1	-46.4	24.5	6.04e-01	0	34	0	378535936	61	4286
2026-01-17 00:25:15.83	55.15	19.69	-45.2	-46.5	24.5	6.03e-01	0	34	0	384303104	61	4326
2026-01-17 00:25:18.86	55.91	19.91	-45.0	-46.3	24.8	6.01e-01	0	34	0	390070272	61	4201
2026-01-17 00:25:21.89	56.68	20.14	-45.1	-46.4	24.7	6.03e-01	0	34	0	395837440	61	4287
2026-01-17 00:25:24.91	57.45	20.35	-45.0	-46.3	24.8	6.03e-01	0	34	0	401604608	61	4210
2026-01-17 00:25:27.94	58.24	20.57	-45.0	-46.3	24.8	6.04e-01	0	34	0	406847488	61	4231
2026-01-17 00:25:30.96	59.04	20.78	-45.1	-46.4	24.7	6.02e-01	0	34	0	412614656	61	4290
2026-01-17 00:25:33.98	59.85	20.99	-45.1	-46.4	24.6	6.05e-01	0	34	0	418381824	61	4287
2026-01-17 00:25:37.01	60.68	21.20	-45.1	-46.4	24.8	6.02e-01	0	34	0	424148992	61	4255
2026-01-17 00:25:40.03	61.51	21.40	-45.2	-46.5	24.6	6.04e-01	0	34	0	429916160	61	4314
2026-01-17 00:25:43.06	62.36	21.59	-45.2	-46.5	24.6	6.02e-01	0	34	0	435159040	61	4320
2026-01-17 00:25:46.08	63.21	21.79	-45.1	-46.5	24.6	6.05e-01	0	34	0	440926208	61	4294
2026-01-17 00:25:49.11	64.08	21.97	-45.2	-46.5	24.6	6.03e-01	0	34	0	446693376	61	4325
2026-01-17 00:25:52.13	64.96	22.16	-45.3	-46.6	24.3	6.04e-01	0	34	0	452460544	61	4369
2026-01-17 00:25:55.16	65.85	22.33	-45.4	-46.7	24.4	6.03e-01	0	34	0	458227712	61	4429
2026-01-17 00:25:58.18	66.75	22.51	-45.4	-46.7	24.1	6.02e-01	0	34	0	463470592	61	4424
2026-01-17 00:26:01.20	67.66	22.67	-45.4	-46.7	24.4	6.00e-01	0	34	0	469237760	61	4422
2026-01-17 00:26:04.23	68.58	22.83	-45.3	-46.7	24.5	6.05e-01	0	34	0	475004928	61	4401
2026-01-17 00:26:07.25	69.50	22.99	-45.5	-46.8	24.3	6.02e-01	0	34	0	480772096	61	4492
2026-01-17 00:26:10.28	70.44	23.13	-45.4	-46.8	24.2	6.03e-01	0	34	0	486539264	61	4464
2026-01-17 00:26:13.30	71.39	23.27	-45.5	-46.9	24.3	6.05e-01	0	34	0	492306432	61	4517
2026-01-17 00:26:16.32	72.35	23.41	-45.6	-47.0	23.8	6.02e-01	0	34	0	497549312	61	4580
2026-01-17 00:26:19.35	73.31	23.53	-45.5	-46.9	24.1	6.04e-01	0	34	0	503316480	61	4507
2026-01-17 00:26:22.37	74.28	23.65	-45.4	-46.7	24.5	6.01e-01	0	34	0	509083648	61	4440
2026-01-17 00:26:25.40	75.26	23.76	-45.4	-46.8	24.4	6.03e-01	0	34	0	514850816	61	4453
2026-01-17 00:26:28.42	76.25	23.87	-45.4	-46.7	24.4	6.05e-01	0	34	0	520617984	61	4432
2026-01-17 00:26:31.45	77.24	23.96	-45.6	-46.9	24.2	6.04e-01	0	34	0	525860864	61	4539
2026-01-17 00:26:34.47	78.24	24.05	-45.2	-46.5	24.6	6.01e-01	0	34	0	531628032	61	4324
2026-01-17 00:26:37.50	79.25	24.13	-45.4	-46.8	24.4	6.03e-01	0	34	0	537395200	61	4454
2026-01-17 00:26:40.53	80.26	24.20	-45.3	-46.6	24.6	6.03e-01	0	34	0	543162368	61	4364
2026-01-17 00:26:43.55	81.27	24.26	-45.3	-46.7	24.5	6.03e-01	0	34	0	548929536	61	4402
2026-01-17 00:26:46.58	82.29	24.31	-45.3	-46.6	24.4	6.03e-01	0	34	0	554172416	61	4371
2026-01-17 00:26:49.61	83.31	24.36	-45.3	-46.6	24.5	6.02e-01	0	34	0	560463872	61	4350
2026-01-17 00:26:52.63	84.33	24.39	-45.2	-46.5	24.6	6.02e-01	0	34	0	565706752	61	4333
2026-01-17 00:26:55.66	85.36	24.42	-45.3	-46.7	24.5	6.04e-01	0	34	0	571473920	61	4392
2026-01-17 00:26:58.68	86.39	24.43	-45.2	-46.5	24.6	6.04e-01	0	34	0	577241088	61	4304
2026-01-17 00:27:01.71	87.42	24.44	-45.1	-46.4	24.8	6.05e-01	0	34	0	583008256	61	4278
2026-01-17 00:27:04.74	88.45	24.44	-45.1	-46.3	24.8	6.04e-01	0	34	0	588775424	61	4241
2026-01-17 00:27:07.76	89.47	24.43	-45.3	-46.6	24.6	6.03e-01	0	34	0	594018304	61	4368
2026-01-17 00:27:10.79	90.50	24.40	-45.3	-46.7	24.5	6.02e-01	0	34	0	599785472	61	4393
2026-01-17 00:27:13.81	91.53	24.37	-45.4	-46.7	24.4	6.02e-01	0	34	0	605552640	61	4417
2026-01-17 00:27:16.84	92.55	24.34	-45.2	-46.5	24.7	6.03e-01	0	34	0	611319808	61	4307
2026-01-17 00:27:19.86	93.57	24.29	-45.0	-46.3	24.9	6.03e-01	0	34	0	617086976	61	4227
2026-01-17 00:27:22.89	94.59	24.23	-45.0	-46.2	24.9	6.04e-01	0	34	0	622854144	61	4185
2026-01-17 00:27:25.92	95.60	24.16	-45.0	-46.3	24.8	6.05e-01	0	34	0	628097024	61	4203
2026-01-17 00:27:28.94	96.61	24.09	-45.0	-46.3	24.8	6.04e-01	0	34	0	633864192	61	4231
2026-01-17 00:27:31.97	97.62	24.01	-44.9	-46.2	24.9	6.03e-01	0	34	0	639631360	61	4174
2026-01-17 00:27:34.99	98.61	23.92	-45.1	-46.4	24.8	6.06e-01	0	34	0	645398528	61	4248
2026-01-17 00:27:38.02	99.60	23.82	-45.0	-46.3	24.9	6.03e-01	0	34	0	651165696	61	4212
2026-01-17 00:27:41.04	100.59	23.71	-45.1	-46.3	24.8	6.05e-01	0	34	0	656408576	61	4237
2026-01-17 00:27:44.07	101.57	23.59	-45.0	-46.3	24.8	6.04e-01	0	34	0	662175744	61	4232
2026-01-17 00:27:47.09	102.54	23.47	-45.0	-46.3	24.9	6.02e-01	0	34	0	667942912	61	4217
2026-01-17 00:27:50.12	103.50	23.34	-45.2	-46.5	24.8	6.04e-01	0	34	0	673710080	61	4296
2026-01-17 00:27:53.14	104.45	23.20	-44.7	-46.0	25.1	6.03e-01	0	34	0	679477248	61	4072
2026-01-17 00:27:56.17	105.40	23.06	-44.9	-46.2	24.9	6.02e-01	0	34	0	684720128	61	4180
2026-01-17 00:27:59.20	106.34	22.90	-45.0	-46.3	24.8	6.04e-01	0	34	0	690487296	61	4195
2026-01-17 00:28:02.22	107.26	22.75	-44.7	-45.9	25.2	6.01e-01	0	34	0	696254464	61	4030
2026-01-17 00:28:05.25	108.18	22.58	-44.8	-46.1	25.1	6.02e-01	0	34	0	702021632	61	4113
2026-01-17 00:28:08.27	109.08	22.41	-44.8	-46.1	25.0	6.05e-01	0	34	0	707788800	61	4129
2026-01-17 00:28:11.30	109.98	22.24	-44.7	-46.0	25.1	6.02e-01	0	34	0	713555968	61	4060
2026-01-17 00:28:14.32	110.87	22.06	-44.7	-46.0	25.1	6.02e-01	0	34	0	718798848	61	4070
2026-01-17 00:28:17.35	111.74	21.87	-44.8	-46.1	25.0	6.03e-01	0	34	0	724566016	61	4116
2026-01-17 00:28:20.38	112.61	21.68	-44.6	-45.9	25.2	6.03e-01	0	34	0	730333184	61	4014
2026-01-17 00:28:23.40	113.46	21.48	-44.9	-46.2	24.9	6.04e-01	0	34	0	736100352	61	4160
2026-01-17 00:28:26.43	114.31	21.28	-44.7	-45.9	25.2	6.04e-01	0	34	0	741867520	61	4045
2026-01-17 00:28:29.45	115.14	21.08	-44.6	-45.9	25.2	6.04e-01	0	34	0	747110400	61	4020
2026-01-17 00:28:32.48	115.96	20.87	-44.8	-46.0	25.1	6.02e-01	0	34	0	752877568	61	4091
2026-01-17 00:28:35.50	116.76	20.66	-44.6	-45.8	25.3	6.03e-01	0	34	0	758644736	61	3998
2026-01-17 00:28:38.53	117.56	20.44	-44.8	-46.0	25.1	6.03e-01	0	34	0	764411904	61	4080
2026-01-17 00:28:41.56	118.35	20.23	-44.7	-45.9	25.1	6.05e-01	0	34	0	770179072	61	4031
2026-01-17 00:28:44.58	119.12	20.01	-44.6	-45.9	25.2	6.03e-01	0	34	0	775421952	61	4028
2026-01-17 00:28:47.61	119.89	19.78	-44.6	-45.9	25.2	6.04e-01	0	34	0	781713408	61	4011
2026-01-17 00:28:50.63	120.64	19.56	-44.6	-45.8	25.1	6.04e-01	0	34	0	786956288	61	3999
2026-01-17 00:28:53.66	121.38	19.33	-44.6	-45.9	25.2	6.02e-01	0	34	0	792723456	61	4017
2026-01-17 00:28:56.68	122.11	19.10	-44.7	-45.9	25.1	6.03e-01	0	34	0	798490624	61	4032
2026-01-17 00:28:59.70	122.82	18.86	-44.6	-45.9	25.1	6.03e-01	0	34	0	804257792	61	4027
2026-01-17 00:29:02.73	123.53	18.63	-44.5	-45.8	25.1	6.01e-01	0	34	0	810024960	61	3974
2026-01-17 00:29:05.76	124.22	18.39	-44.6	-45.9	25.1	6.04e-01	0	34	0	815267840	61	4018
2026-01-17 00:29:08.78	124.91	18.15	-44.7	-45.9	25.1	6.04e-01	0	34	0	821035008	61	4037
2026-01-17 00:29:11.80	125.58	17.92	-44.6	-45.8	25.1	6.02e-01	0	34	0	826802176	60	4236
2026-01-17 00:29:14.83	126.24	17.68	-44.5	-45.7	25.1	6.02e-01	0	34	0	832569344	60	4182
2026-01-17 00:29:17.86	126.89	17.44	-44.5	-45.8	25.1	6.02e-01	0	34	0	838336512	60	4208
2026-01-17 00:29:20.88	127.53	17.20	-44.4	-45.6	25.2	6.02e-01	0	34	0	843579392	60	4130
2026-01-17 00:29:23.91	128.16	16.95	-44.6	-45.8	25.0	6.03e-01	0	34	0	849346560	60	4233
2026-01-17 00:29:26.93	128.78	16.71	-44.6	-45.8	25.0	6.04e-01	0	34	0	855113728	60	4240
2026-01-17 00:29:29.96	129.39	16.47	-44.5	-45.8	25.1	6.05e-01	0	34	0	860880896	60	4202
2026-01-17 00:29:32.98	129.99	16.23	-44.6	-45.8	25.0	6.04e-01	0	34	0	866648064	60	4229
2026-01-17 00:29:36.01	130.58	15.98	-44.7	-46.0	24.8	6.04e-01	0	34	0	872415232	60	4298
2026-01-17 00:29:39.04	131.16	15.74	-44.4	-45.7	25.1	6.02e-01	0	34	0	877658112	60	4172
2026-01-17 00:29:42.06	131.73	15.50	-44.5	-45.8	25.0	6.03e-01	0	34	0	883425280	60	4196
2026-01-17 00:29:45.09	132.29	15.25	-44.5	-45.8	24.9	6.02e-01	0	34	0	889192448	60	4224
2026-01-17 00:29:48.12	132.85	15.01	-44.7	-46.0	24.7	6.02e-01	0	34	0	894959616	60	4337
2026-01-17 00:29:51.14	133.39	14.77	-44.6	-45.9	24.8	6.05e-01	0	34	0	900726784	60	4289
2026-01-17 00:29:54.17	133.92	14.53	-44.6	-45.9	24.8	6.06e-01	0	34	0	905969664	60	4276
2026-01-17 00:29:57.20	134.45	14.29	-44.5	-45.7	25.0	6.03e-01	0	34	0	911736832	60	4183
2026-01-17 00:30:00.22	134.96	14.05	-44.5	-45.8	24.8	6.02e-01	0	34	0	917504000	60	4230
2026-01-17 00:30:03.25	135.47	13.81	-44.6	-45.9	24.8	6.02e-01	0	34	0	923271168	60	4269
2026-01-17 00:30:06.28	135.97	13.57	-44.7	-46.0	24.7	6.01e-01	0	34	0	929038336	60	4328
2026-01-17 00:30:09.30	136.46	13.33	-44.7	-46.0	24.7	6.03e-01	0	34	0	934805504	60	4305
2026-01-17 00:30:12.33	136.94	13.09	-44.8	-46.1	24.5	6.06e-01	0	34	0	940048384	60	4372
2026-01-17 00:30:15.35	137.41	12.85	-44.9	-46.2	24.5	6.03e-01	0	34	0	945815552	60	4410
2026-01-17 00:30:18.38	137.88	12.62	-45.0	-46.3	24.4	6.02e-01	0	34	0	951582720	60	4479
2026-01-17 00:30:21.41	138.34	12.38	-45.0	-46.4	24.3	6.05e-01	0	34	0	957349888	60	4500
2026-01-17 00:30:24.43	138.79	12.15	-44.9	-46.2	24.4	6.04e-01	0	34	0	963117056	60	4436
2026-01-17 00:30:27.46	139.23	11.92	-44.9	-46.2	24.4	6.01e-01	0	34	0	968359936	60	4420
2026-01-17 00:30:30.48	139.67	11.68	-44.8	-46.1	24.5	6.04e-01	0	34	0	974127104	60	4391
2026-01-17 00:30:33.50	140.10	11.45	-45.0	-46.4	24.2	6.02e-01	0	34	0	979894272	60	4513
2026-01-17 00:30:36.53	140.52	11.22	-45.1	-46.5	24.1	6.03e-01	0	34	0	985661440	60	4575
2026-01-17 00:30:39.55	140.93	11.00	-45.2	-46.6	24.0	6.04e-01	0	34	0	991428608	61	4370
2026-01-17 00:30:42.58	141.34	10.77	-45.3	-46.8	23.8	6.02e-01	0	34	0	996671488	61	4451
2026-01-17 00:30:45.60	141.74	10.54	-45.1	-46.5	24.1	6.05e-01	0	34	0	1002962944	61	4318
2026-01-17 00:30:48.63	142.14	10.32	-45.2	-46.6	23.9	6.02e-01	0	34	0	1008205824	61	4366
2026-01-17 00:30:51.65	142.53	10.09	-45.3	-46.7	23.8	6.02e-01	0	34	0	1013972992	61	4430
2026-01-17 00:30:54.68	142.91	9.87	-45.3	-46.8	23.8	6.03e-01	0	34	0	1019740160	61	4454
2026-01-17 00:30:57.70	143.29	9.65	-45.5	-47.0	23.6	6.04e-01	0	34	0	1025507328	61	4550
2026-01-17 00:31:00.72	143.66	9.43	-45.3	-46.7	23.8	6.02e-01	0	34	0	1031274496	61	4429
2026-01-17 00:31:03.75	144.03	9.21	-45.3	-46.8	23.7	6.03e-01	0	34	0	1036517376	61	4442
2026-01-17 00:31:06.77	144.39	8.99	-45.6	-47.1	23.4	6.02e-01	0	34	0	1042284544	62	4380
2026-01-17 00:31:09.79	144.74	8.77	-45.6	-47.1	23.4	6.05e-01	0	34	0	1048051712	62	4360
2026-01-17 00:31:12.82	145.09	8.56	-45.7	-47.2	23.3	6.02e-01	0	34	0	1053818880	62	4410
2026-01-17 00:31:15.84	145.43	8.34	-45.8	-47.4	23.1	6.04e-01	0	34	0	1059586048	62	4496
2026-01-17 00:31:18.86	145.77	8.13	-45.9	-47.4	23.1	6.04e-01	0	34	0	1064828928	62	4518
2026-01-17 00:31:21.88	146.11	7.92	-45.9	-47.5	22.9	6.03e-01	0	34	0	1070596096	62	4570
2026-01-17 00:31:24.91	146.43	7.71	-46.3	-47.9	22.4	6.03e-01	0	34	0	1076363264	63	4531
2026-01-17 00:31:27.94	146.76	7.50	-45.9	-47.4	22.9	6.03e-01	0	34	0	1082130432	63	4277
2026-01-17 00:31:30.96	147.08	7.29	-46.0	-47.7	22.6	6.05e-01	0	34	0	1087897600	63	4396
2026-01-17 00:31:33.99	147.39	7.08	-46.2	-47.8	22.6	6.02e-01	0	34	0	1093140480	63	4459
2026-01-17 00:31:37.01	147.70	6.88	-46.2	-47.8	22.5	6.04e-01	0	34	0	1098907648	63	4463
2026-01-17 00:31:40.03	148.00	6.67	-46.0	-47.7	22.6	6.05e-01	0	34	0	1104674816	63	4395
2026-01-17 00:31:43.05	148.30	6.47	-46.2	-47.8	22.4	6.03e-01	0	34	0	1110441984	63	4487
2026-01-17 00:31:46.08	148.60	6.27	-46.1	-47.7	22.4	6.02e-01	0	34	0	1116209152	63	4435
2026-01-17 00:31:49.11	148.89	6.07	-46.1	-47.8	22.4	6.05e-01	0	34	0	1121976320	63	4464
2026-01-17 00:31:52.14	149.18	5.86	-46.4	-48.1	22.1	6.03e-01	0	34	0	1127219200	63	4610
2026-01-17 00:31:55.16	149.47	5.67	-46.2	-47.8	22.2	6.04e-01	0	34	0	1132986368	63	4482
2026-01-17 00:31:58.19	149.75	5.47	-46.2	-48.0	22.0	6.04e-01	0	34	0	1138753536	64	4297
2026-01-17 00:32:01.21	150.02	5.27	-46.3	-48.1	21.8	6.03e-01	0	34	0	1144520704	64	4360
2026-01-17 00:32:04.24	150.29	5.08	-46.5	-48.3	21.5	6.03e-01	0	34	0	1150287872	64	4451
2026-01-17 00:32:07.27	150.56	4.88	-53.8	-71.6	3.8	7.46e-01	0	34	104	1153433600	78	29320
2026-01-17 00:32:10.29	150.83	4.69	-54.3	-72.1	3.8	7.48e-01	0	34	104	1153433600	79	29279
2026-01-17 00:32:13.32	151.09	4.50	-54.6	-72.4	3.8	7.49e-01	0	34	104	1153433600	79	30308
2026-01-17 00:32:16.34	151.34	4.31	-54.8	-72.6	3.8	7.41e-01	0	34	104	1153433600	80	29012
2026-01-17 00:32:19.37	151.60	4.11	-54.9	-72.7	3.8	7.48e-01	0	34	104	1153433600	80	29397
2026-01-17 00:32:22.39	151.85	3.93	-55.0	-72.7	3.8	7.47e-01	0	34	104	1153433600	80	29686
2026-01-17 00:32:25.42	152.10	3.74	-54.9	-72.7	3.8	7.45e-01	0	34	104	1153433600	80	29592
2026-01-17 00:32:28.44	152.34	3.55	-54.9	-72.7	3.8	7.45e-01	0	34	104	1153433600	80	29460
2026-01-17 00:32:31.46	152.58	3.37	-54.9	-72.7	3.8	7.43e-01	0	34	104	1153433600	80	29409
2026-01-17 00:32:34.49	152.82	3.18	-54.8	-72.6	3.8	7.48e-01	0	34	104	1153433600	80	29232
2026-01-17 00:32:37.51	153.05	3.00	-54.8	-72.5	3.8	7.45e-01	0	34	104	1153433600	80	29009
2026-01-17 00:32:40.54	153.28	2.81	-54.8	-72.6	3.8	7.42e-01	0	34	104	1153433600	80	29032
2026-01-17 00:32:43.57	153.51	2.63	-54.8	-72.6	3.8	7.44e-01	0	34	104	1153433600	80	29026
2026-01-17 00:32:46.59	153.74	2.45	-54.8	-72.6	3.8	7.44e-01	0	34	104	1153433600	80	29050
2026-01-17 00:32:49.62	153.96	2.27	-54.8	-72.6	3.8	7.43e-01	0	34	104	1153433600	80	29056
2026-01-17 00:32:52.65	154.18	2.09	-54.7	-72.5	3.8	7.43e-01	0	34	104	1153433600	80	28941

#Closed at: 2026-01-17 00:32:55
#Recorded file [1153 MB]: D:/lorett/data/31041_260117_032110.dat