passes_logs/2026/01/17/R3.2S_Murmansk/R3.2S_Murmansk__20260117_051328_AQUA_rec.log

#Pass ID: 20260117_051328_AQUA
#Satellite: AQUA
#Configuration: AQUA
#almurnet v.1.7.20251203
#Start time: 2026-01-17 05:13:28

#Version: 2.2.20231116
#Station: R3.2S_Murmansk
#Location: 33.079688 lon 68.888172 lat
#TLE: 1 27424U 02022A   26016.59833233  .00000670  00000+0  14410-3 0  9991
#TLE: 2 27424  98.4084 343.0525 0002018  76.3524 343.9424 14.61823666261128

#Time	Az	El	Level	Level2	SNR	BER	BlckErr	Temp	State	Recorded	gain1	gain2
2026-01-17 05:13:28.74	38.72	2.02	-53.0	-70.8	3.8	7.43e-01	0	32	0	0	77	28043
2026-01-17 05:13:31.76	38.51	2.20	-52.9	-70.6	3.8	7.44e-01	0	32	104	0	76	29271
2026-01-17 05:13:34.78	38.30	2.38	-52.9	-70.7	3.8	7.43e-01	0	32	104	0	76	29559
2026-01-17 05:13:37.81	38.08	2.56	-53.0	-70.7	3.8	7.42e-01	0	32	104	0	76	29602
2026-01-17 05:13:40.83	37.86	2.75	-52.9	-70.7	3.8	7.46e-01	0	32	104	0	76	29616
2026-01-17 05:13:43.86	37.64	2.93	-52.9	-70.8	3.8	7.44e-01	0	32	104	0	76	29700
2026-01-17 05:13:46.88	37.42	3.11	-52.9	-70.7	3.8	7.47e-01	0	32	104	0	76	29660
2026-01-17 05:13:49.91	37.19	3.30	-52.9	-70.7	3.8	7.46e-01	0	32	104	0	76	29515
2026-01-17 05:13:52.94	36.96	3.48	-52.9	-70.7	3.8	7.45e-01	0	33	104	0	76	29558
2026-01-17 05:13:55.97	36.72	3.67	-52.9	-70.6	3.8	7.46e-01	0	33	104	0	76	29267
2026-01-17 05:13:58.99	36.49	3.86	-52.9	-70.6	3.8	7.43e-01	0	33	104	0	76	29312
2026-01-17 05:14:02.02	36.25	4.05	-52.9	-70.7	3.8	7.47e-01	0	33	104	0	76	29397
2026-01-17 05:14:05.04	36.00	4.24	-52.6	-69.1	3.8	7.45e-01	0	33	104	0	76	24679
2026-01-17 05:14:08.07	35.75	4.43	-52.2	-67.6	3.8	7.45e-01	0	33	104	0	76	20575
2026-01-17 05:14:11.10	35.50	4.62	-51.6	-65.9	3.8	7.49e-01	0	33	104	0	74	19020
2026-01-17 05:14:14.12	35.24	4.82	-51.4	-65.5	3.8	7.45e-01	0	33	104	0	74	18123
2026-01-17 05:14:17.15	34.98	5.01	-52.0	-67.2	3.8	7.46e-01	0	33	104	0	74	22100
2026-01-17 05:14:20.17	34.72	5.21	-51.0	-64.1	3.8	7.44e-01	0	33	104	0	72	17468
2026-01-17 05:14:23.20	34.45	5.40	-52.8	-69.0	3.8	7.43e-01	0	33	104	0	76	24250
2026-01-17 05:14:26.22	34.18	5.60	-49.3	-61.2	3.8	7.43e-01	0	33	104	0	70	13967
2026-01-17 05:14:29.24	33.90	5.80	-53.1	-70.8	3.8	7.43e-01	0	33	104	0	76	29735
2026-01-17 05:14:32.27	33.62	6.00	-49.3	-61.1	3.8	7.44e-01	0	33	104	0	70	13818
2026-01-17 05:14:35.30	33.34	6.20	-52.1	-66.3	3.9	7.44e-01	0	33	104	0	76	17826
2026-01-17 05:14:38.32	33.05	6.40	-49.1	-60.9	3.8	7.47e-01	0	34	104	0	70	13482
2026-01-17 05:14:41.35	32.75	6.60	-48.5	-60.1	3.8	7.43e-01	0	33	104	0	69	12976
2026-01-17 05:14:44.38	32.45	6.81	-51.9	-65.7	3.8	7.43e-01	0	33	104	0	74	18607
2026-01-17 05:14:47.41	32.15	7.01	-52.2	-66.5	3.8	7.41e-01	0	34	104	0	76	18118
2026-01-17 05:14:50.43	31.84	7.22	-49.0	-60.6	3.8	7.47e-01	0	33	104	0	68	14651
2026-01-17 05:14:53.46	31.53	7.42	-52.5	-67.3	4.0	7.41e-01	0	33	104	0	77	18933
2026-01-17 05:14:56.48	31.21	7.63	-48.8	-60.5	3.8	7.47e-01	0	33	104	0	69	13574
2026-01-17 05:14:59.50	30.89	7.84	-49.2	-61.0	3.8	7.44e-01	0	33	104	0	70	13617
2026-01-17 05:15:02.53	30.56	8.05	-49.7	-61.6	3.8	7.45e-01	0	34	104	0	69	15426
2026-01-17 05:15:05.55	30.23	8.26	-48.3	-59.7	3.8	7.44e-01	0	34	104	0	68	13259
2026-01-17 05:15:08.57	29.89	8.48	-52.9	-68.0	3.8	7.48e-01	0	34	104	0	76	21728
2026-01-17 05:15:11.60	29.54	8.69	-50.0	-62.3	3.9	7.46e-01	0	34	104	0	72	14152
2026-01-17 05:15:14.63	29.19	8.90	-48.9	-60.6	3.8	7.47e-01	0	34	104	0	68	14634
2026-01-17 05:15:17.65	28.83	9.12	-50.3	-62.5	3.9	7.44e-01	0	34	104	0	72	14515
2026-01-17 05:15:20.68	28.47	9.34	-48.6	-60.1	3.8	7.46e-01	0	34	104	0	69	13028
2026-01-17 05:15:23.70	28.10	9.55	-48.3	-59.7	3.8	7.42e-01	0	34	104	0	68	13220
2026-01-17 05:15:26.73	27.73	9.77	-51.7	-64.8	3.8	7.45e-01	0	34	104	0	73	17749
2026-01-17 05:15:29.76	27.34	9.99	-48.1	-59.4	3.8	7.47e-01	0	34	104	0	67	13559
2026-01-17 05:15:32.78	26.96	10.21	-53.8	-71.1	3.7	7.45e-01	0	34	104	0	78	27526
2026-01-17 05:15:35.81	26.56	10.44	-48.6	-60.1	3.8	7.45e-01	0	34	104	0	69	12997
2026-01-17 05:15:38.83	26.16	10.66	-51.8	-64.5	3.8	7.46e-01	0	34	104	0	73	17224
2026-01-17 05:15:41.85	25.75	10.88	-48.6	-60.1	3.8	7.44e-01	0	34	104	0	69	13026
2026-01-17 05:15:44.88	25.34	11.11	-47.7	-58.9	3.8	7.48e-01	0	34	104	0	67	12749
2026-01-17 05:15:47.90	24.92	11.33	-48.5	-59.9	3.8	7.47e-01	0	34	104	0	67	14307
2026-01-17 05:15:50.93	24.49	11.56	-52.9	-67.5	3.8	7.43e-01	0	34	104	0	76	20394
2026-01-17 05:15:53.95	24.05	11.79	-48.1	-59.4	3.8	7.42e-01	0	34	104	0	67	13505
2026-01-17 05:15:56.97	23.61	12.01	-54.0	-71.9	3.8	7.45e-01	0	34	104	0	78	30075
2026-01-17 05:16:00.00	23.16	12.24	-48.0	-58.8	3.8	7.46e-01	0	34	104	0	67	12659
2026-01-17 05:16:03.03	22.70	12.47	-52.1	-65.5	3.8	7.45e-01	0	34	104	0	74	18275
2026-01-17 05:16:06.05	22.23	12.70	-48.1	-59.4	3.8	7.41e-01	0	34	104	0	68	12719
2026-01-17 05:16:09.08	21.75	12.93	-47.5	-58.8	3.8	7.47e-01	0	34	104	0	67	12531
2026-01-17 05:16:12.10	21.27	13.16	-48.8	-60.3	3.8	7.46e-01	0	34	104	0	68	14200
2026-01-17 05:16:15.12	20.78	13.40	-53.2	-68.1	3.8	7.44e-01	0	34	104	0	76	22003
2026-01-17 05:16:18.15	20.28	13.63	-47.6	-58.9	3.8	7.45e-01	0	34	104	0	67	12670
2026-01-17 05:16:21.18	19.77	13.86	-54.1	-71.7	3.8	7.42e-01	0	34	104	0	78	29549
2026-01-17 05:16:24.20	19.25	14.09	-47.8	-59.0	3.8	7.47e-01	0	34	104	0	67	12903
2026-01-17 05:16:27.22	18.73	14.33	-51.3	-64.1	3.8	7.46e-01	0	34	104	0	74	15466
2026-01-17 05:16:30.25	18.19	14.56	-47.9	-59.1	3.8	7.44e-01	0	34	104	0	67	13088
2026-01-17 05:16:33.27	17.65	14.79	-47.6	-58.7	3.8	7.45e-01	0	34	104	0	66	13194
2026-01-17 05:16:36.30	17.09	15.02	-50.1	-61.9	3.8	7.44e-01	0	34	104	0	70	15133
2026-01-17 05:16:39.32	16.53	15.26	-52.2	-65.7	3.9	7.43e-01	0	34	104	0	76	16560
2026-01-17 05:16:42.34	15.96	15.49	-47.1	-58.2	3.8	7.44e-01	0	34	104	0	64	13904
2026-01-17 05:16:45.37	15.37	15.72	-53.2	-68.3	3.9	7.43e-01	0	34	104	0	78	19846
2026-01-17 05:16:48.40	14.78	15.95	-47.6	-58.8	3.8	7.44e-01	0	34	104	0	67	12537
2026-01-17 05:16:51.42	14.18	16.18	-47.7	-58.9	3.9	7.40e-01	0	34	104	0	67	12775
2026-01-17 05:16:54.45	13.56	16.41	-48.1	-59.4	3.8	7.44e-01	0	34	104	0	67	13416
2026-01-17 05:16:57.47	12.94	16.64	-46.6	-57.6	3.8	7.45e-01	0	34	104	0	65	12277
2026-01-17 05:17:00.50	12.31	16.87	-51.6	-64.2	3.8	7.47e-01	0	34	104	0	73	16638
2026-01-17 05:17:03.53	11.66	17.10	-49.7	-61.6	3.8	7.42e-01	0	34	104	0	71	13732
2026-01-17 05:17:06.55	11.01	17.32	-50.2	-62.1	3.8	7.46e-01	0	34	104	0	70	15506
2026-01-17 05:17:09.58	10.34	17.55	-50.4	-62.6	3.9	7.45e-01	0	34	104	0	73	13733
2026-01-17 05:17:12.61	9.66	17.77	-47.7	-58.8	3.8	7.44e-01	0	34	104	0	67	12585
2026-01-17 05:17:15.63	8.98	17.99	-48.0	-58.9	3.8	7.43e-01	0	34	104	0	67	12791
2026-01-17 05:17:18.66	8.28	18.21	-50.2	-62.1	3.8	7.43e-01	0	34	104	0	70	15513
2026-01-17 05:17:21.68	7.57	18.43	-47.0	-58.0	3.8	7.44e-01	0	34	104	0	66	12164
2026-01-17 05:17:24.71	6.85	18.64	-53.5	-68.5	3.8	7.43e-01	0	34	104	0	77	21529
2026-01-17 05:17:27.73	6.13	18.86	-48.0	-59.1	3.8	7.46e-01	0	34	104	0	67	12965
2026-01-17 05:17:30.76	5.38	19.07	-50.1	-62.0	3.8	7.48e-01	0	34	104	0	70	15348
2026-01-17 05:17:33.78	4.63	19.27	-49.0	-60.4	3.8	7.43e-01	0	34	104	0	70	12773
2026-01-17 05:17:36.80	3.87	19.47	-47.7	-58.8	3.8	7.43e-01	0	34	104	0	67	12633
2026-01-17 05:17:39.83	3.10	19.67	-47.1	-58.2	3.8	7.45e-01	0	34	104	0	65	13199
2026-01-17 05:17:42.86	2.31	19.87	-52.1	-65.3	3.8	7.47e-01	0	34	104	0	74	17695
2026-01-17 05:17:45.88	1.52	20.06	-46.6	-57.6	3.8	7.45e-01	0	34	104	0	65	12349
2026-01-17 05:17:48.91	0.71	20.25	-54.3	-71.5	3.7	7.45e-01	0	34	104	0	79	27113
2026-01-17 05:17:51.93	359.90	20.44	-47.8	-59.0	3.8	7.43e-01	0	34	104	0	67	12854
2026-01-17 05:17:54.96	359.07	20.62	-51.3	-63.8	3.9	7.42e-01	0	34	104	0	73	15881
2026-01-17 05:17:57.98	358.24	20.79	-48.5	-59.8	3.9	7.45e-01	0	34	104	0	69	12612
2026-01-17 05:18:01.01	357.39	20.96	-47.3	-58.3	3.8	7.46e-01	0	34	104	0	66	12626
2026-01-17 05:18:04.04	356.53	21.12	-47.3	-58.4	3.8	7.46e-01	0	34	104	0	65	13423
2026-01-17 05:18:07.06	355.67	21.28	-52.7	-66.4	3.8	7.45e-01	0	34	104	0	75	19139
2026-01-17 05:18:10.09	354.79	21.44	-47.3	-58.5	3.8	7.47e-01	0	34	104	0	66	12811
2026-01-17 05:18:13.11	353.91	21.58	-54.3	-71.5	3.8	7.45e-01	0	34	104	0	79	27372
2026-01-17 05:18:16.13	353.02	21.73	-47.6	-58.7	3.8	7.45e-01	0	34	104	0	67	12428
2026-01-17 05:18:19.16	352.12	21.86	-48.0	-59.3	3.8	7.42e-01	0	34	104	0	68	12541
2026-01-17 05:18:22.19	351.21	21.99	-47.7	-58.9	3.8	7.40e-01	0	34	104	0	67	12755
2026-01-17 05:18:25.21	350.29	22.11	-46.9	-57.9	3.8	7.45e-01	0	34	104	0	65	12799
2026-01-17 05:18:28.24	349.37	22.23	-48.9	-60.3	3.8	7.48e-01	0	34	104	0	68	14131
2026-01-17 05:18:31.27	348.43	22.33	-51.7	-64.6	3.8	7.44e-01	0	34	104	0	75	15555
2026-01-17 05:18:34.29	347.50	22.43	-46.9	-57.9	3.8	7.44e-01	0	34	104	0	65	12705
2026-01-17 05:18:37.32	346.55	22.53	-53.4	-67.9	3.9	7.42e-01	0	34	104	0	78	18958
2026-01-17 05:18:40.34	345.60	22.61	-47.3	-58.3	3.8	7.42e-01	0	34	104	0	66	12566
2026-01-17 05:18:43.36	344.65	22.69	-46.9	-57.8	3.9	7.43e-01	0	34	104	0	65	12577
2026-01-17 05:18:46.39	343.69	22.76	-46.8	-57.7	3.8	7.43e-01	0	34	104	0	65	12475
2026-01-17 05:18:49.42	342.72	22.82	-46.8	-57.7	3.8	7.44e-01	0	34	104	0	65	12490
2026-01-17 05:18:52.44	341.75	22.87	-51.1	-63.3	3.8	7.43e-01	0	34	104	0	72	15797
2026-01-17 05:18:55.47	340.78	22.91	-48.8	-60.1	3.8	7.47e-01	0	34	104	0	69	12966
2026-01-17 05:18:58.49	339.81	22.95	-47.1	-58.1	3.8	7.43e-01	0	34	104	0	64	13821
2026-01-17 05:19:01.51	338.83	22.98	-50.9	-63.3	3.8	7.44e-01	0	34	104	0	74	14056
2026-01-17 05:19:04.54	337.86	22.99	-46.9	-57.9	3.8	7.48e-01	0	34	104	0	65	12781
2026-01-17 05:19:07.56	336.88	23.00	-46.3	-57.4	3.8	7.43e-01	0	34	104	0	64	12670
2026-01-17 05:19:10.59	335.90	23.01	-47.5	-58.5	3.8	7.47e-01	0	34	104	0	65	13622
2026-01-17 05:19:13.61	334.92	23.00	-46.2	-57.2	3.8	7.44e-01	0	34	104	0	64	12400
2026-01-17 05:19:16.63	333.95	22.98	-51.8	-64.7	3.8	7.46e-01	0	34	104	0	74	16636
2026-01-17 05:19:19.66	332.97	22.96	-47.0	-58.1	3.8	7.42e-01	0	34	104	0	66	12276
2026-01-17 05:19:22.68	331.99	22.92	-47.9	-59.2	3.8	7.44e-01	0	34	104	0	66	13906
2026-01-17 05:19:25.71	331.02	22.88	-49.1	-60.5	3.8	7.43e-01	0	34	104	0	70	12870
2026-01-17 05:19:28.74	330.05	22.83	-46.4	-57.4	3.8	7.45e-01	0	34	104	0	64	12717
2026-01-17 05:19:31.76	329.09	22.77	-46.2	-57.1	3.8	7.43e-01	0	34	104	0	64	12258
2026-01-17 05:19:34.79	328.12	22.71	-49.7	-61.3	3.8	7.45e-01	0	34	104	0	69	15005
2026-01-17 05:19:37.82	327.16	22.63	-46.1	-57.1	3.8	7.46e-01	0	34	104	0	64	12269
2026-01-17 05:19:40.84	326.21	22.55	-53.5	-68.3	3.8	7.47e-01	0	34	104	0	77	21118
2026-01-17 05:19:43.86	325.27	22.46	-46.4	-57.3	3.8	7.43e-01	0	34	104	0	64	12644
2026-01-17 05:19:46.89	324.33	22.36	-48.2	-59.8	3.8	7.46e-01	0	34	104	0	67	14141
2026-01-17 05:19:49.91	323.39	22.25	-48.6	-59.9	3.8	7.47e-01	0	34	104	0	69	12795
2026-01-17 05:19:52.94	322.47	22.14	-47.3	-58.7	3.8	7.44e-01	0	34	104	0	66	13181
2026-01-17 05:19:55.96	321.55	22.02	-46.4	-57.6	3.8	7.44e-01	0	34	104	0	64	13064
2026-01-17 05:19:58.98	320.64	21.89	-51.4	-63.7	3.8	7.44e-01	0	34	104	0	73	15743
2026-01-17 05:20:02.01	319.73	21.76	-46.5	-56.8	3.8	7.40e-01	0	34	104	0	65	11282
2026-01-17 05:20:05.03	318.84	21.62	-53.4	-67.3	3.8	7.44e-01	0	34	104	0	77	18845
2026-01-17 05:20:08.06	317.95	21.47	-46.3	-56.8	3.8	7.48e-01	0	34	104	0	64	11893
2026-01-17 05:20:11.08	317.07	21.32	-45.3	-46.5	24.9	6.03e-01	0	34	0	2097152	62	4081
2026-01-17 05:20:14.10	316.21	21.16	-45.7	-47.0	24.5	6.03e-01	0	34	0	7864320	63	4071
2026-01-17 05:20:17.13	315.35	21.00	-45.8	-47.0	24.4	6.04e-01	0	34	0	13631488	63	4095
2026-01-17 05:20:20.16	314.49	20.83	-46.6	-48.1	23.4	6.05e-01	0	34	0	19398656	63	4650
2026-01-17 05:20:23.18	313.66	20.66	-45.9	-47.3	24.1	6.01e-01	0	34	0	25165824	62	4461
2026-01-17 05:20:26.21	312.83	20.48	-45.9	-47.3	24.2	6.02e-01	0	34	0	30408704	62	4460
2026-01-17 05:20:29.23	312.01	20.30	-45.6	-46.9	24.6	6.04e-01	0	34	0	36175872	62	4286
2026-01-17 05:20:32.26	311.20	20.11	-45.2	-46.4	25.0	6.02e-01	0	34	0	41943040	62	4043
2026-01-17 05:20:35.29	310.40	19.92	-45.5	-46.8	24.4	6.02e-01	0	34	0	47710208	62	4195
2026-01-17 05:20:38.31	309.61	19.72	-45.7	-47.1	24.4	6.02e-01	0	34	0	53477376	62	4353
2026-01-17 05:20:41.33	308.84	19.52	-45.3	-46.6	24.8	6.04e-01	0	34	0	58720256	62	4128
2026-01-17 05:20:44.36	308.07	19.32	-46.6	-48.2	23.3	6.03e-01	0	34	0	64487424	63	4686
2026-01-17 05:20:47.38	307.32	19.11	-46.3	-47.7	23.7	6.03e-01	0	34	0	70254592	63	4413
2026-01-17 05:20:50.41	306.57	18.90	-45.7	-47.0	24.6	6.03e-01	0	34	0	76021760	63	4073
2026-01-17 05:20:53.44	305.83	18.69	-45.6	-47.0	24.2	6.03e-01	0	34	0	81788928	62	4305
2026-01-17 05:20:56.46	305.11	18.48	-46.0	-47.4	24.1	6.03e-01	0	34	0	87556096	62	4517
2026-01-17 05:20:59.49	304.40	18.26	-45.1	-46.4	25.1	6.04e-01	0	34	0	92798976	62	4007
2026-01-17 05:21:02.52	303.70	18.04	-45.8	-47.2	24.4	6.03e-01	0	34	0	98566144	62	4396
2026-01-17 05:21:05.54	303.01	17.82	-45.4	-46.7	24.7	6.04e-01	0	34	0	104333312	62	4192
2026-01-17 05:21:08.57	302.33	17.60	-45.9	-47.2	24.1	6.02e-01	0	34	0	110100480	62	4427
2026-01-17 05:21:11.59	301.66	17.38	-45.9	-47.2	24.3	6.02e-01	0	34	0	115867648	62	4430
2026-01-17 05:21:14.62	301.00	17.15	-46.0	-47.4	24.1	6.02e-01	0	34	0	121110528	63	4262
2026-01-17 05:21:17.64	300.36	16.92	-45.3	-46.6	24.6	6.05e-01	0	34	0	126877696	62	4120
2026-01-17 05:21:20.66	299.72	16.69	-45.6	-46.9	24.5	6.02e-01	0	34	0	132644864	62	4283
2026-01-17 05:21:23.69	299.09	16.46	-45.4	-46.6	24.8	6.05e-01	0	34	0	138412032	62	4140
2026-01-17 05:21:26.72	298.47	16.23	-45.3	-46.6	24.9	6.04e-01	0	34	0	144179200	62	4116
2026-01-17 05:21:29.74	297.87	16.00	-45.4	-46.7	24.7	6.03e-01	0	34	0	149946368	62	4176
2026-01-17 05:21:32.77	297.27	15.77	-45.6	-46.9	24.5	6.04e-01	0	34	0	155189248	62	4290
2026-01-17 05:21:35.79	296.68	15.54	-45.7	-47.0	24.4	6.06e-01	0	34	0	160956416	62	4307
2026-01-17 05:21:38.82	296.11	15.31	-45.9	-47.2	24.3	6.02e-01	0	34	0	166723584	63	4178
2026-01-17 05:21:41.84	295.54	15.07	-45.2	-46.5	24.9	6.05e-01	0	34	0	172490752	62	4064
2026-01-17 05:21:44.86	294.98	14.84	-45.7	-47.0	24.5	6.01e-01	0	34	0	178257920	62	4294
2026-01-17 05:21:47.89	294.43	14.61	-45.3	-46.5	24.8	6.03e-01	0	34	0	183500800	62	4096
2026-01-17 05:21:50.92	293.89	14.37	-45.8	-47.2	24.1	6.01e-01	0	34	0	189267968	62	4431
2026-01-17 05:21:53.94	293.36	14.14	-46.2	-47.7	23.8	6.04e-01	0	34	0	195035136	63	4421
2026-01-17 05:21:56.97	292.84	13.91	-46.1	-47.6	23.9	6.03e-01	0	34	0	200802304	63	4342
2026-01-17 05:21:59.99	292.33	13.67	-45.6	-46.9	24.5	6.03e-01	0	34	0	206569472	63	4018
2026-01-17 05:22:03.02	291.83	13.44	-46.3	-47.8	23.5	6.03e-01	0	34	0	211812352	63	4456
2026-01-17 05:22:06.04	291.33	13.21	-46.3	-47.8	23.5	6.03e-01	0	34	0	218103808	63	4472
2026-01-17 05:22:09.06	290.85	12.98	-45.8	-47.1	24.3	6.07e-01	0	34	0	223346688	63	4136
2026-01-17 05:22:12.09	290.37	12.75	-46.6	-48.1	23.2	6.02e-01	0	34	0	229113856	64	4368
2026-01-17 05:22:15.12	289.90	12.52	-45.9	-47.3	24.1	6.02e-01	0	34	0	234881024	63	4218
2026-01-17 05:22:18.14	289.43	12.29	-46.2	-47.7	23.6	6.02e-01	0	34	0	240648192	64	4155
2026-01-17 05:22:21.17	288.98	12.06	-46.1	-47.5	23.9	6.03e-01	0	34	0	246415360	63	4308
2026-01-17 05:22:24.19	288.53	11.83	-46.5	-47.9	23.3	6.03e-01	0	34	0	251658240	63	4545
2026-01-17 05:22:27.21	288.09	11.60	-46.0	-47.4	24.0	6.03e-01	0	34	0	257425408	63	4253
2026-01-17 05:22:30.23	287.66	11.38	-46.5	-47.9	23.5	6.03e-01	0	34	0	263192576	63	4540
2026-01-17 05:22:33.25	287.24	11.15	-46.4	-47.9	23.5	6.02e-01	0	34	0	268959744	63	4496
2026-01-17 05:22:36.28	286.82	10.92	-46.4	-47.9	23.5	6.02e-01	0	34	0	274726912	63	4538
2026-01-17 05:22:39.30	286.41	10.70	-46.6	-48.0	23.3	6.04e-01	0	34	0	279969792	63	4597
2026-01-17 05:22:42.33	286.01	10.48	-46.5	-48.0	23.3	6.03e-01	0	34	0	285736960	63	4554
2026-01-17 05:22:45.35	285.61	10.25	-46.8	-48.3	22.9	6.04e-01	0	34	0	291504128	64	4488
2026-01-17 05:22:48.37	285.22	10.03	-46.3	-47.8	23.4	6.03e-01	0	34	0	297271296	64	4201
2026-01-17 05:22:51.40	284.84	9.81	-46.4	-47.9	23.3	6.03e-01	0	34	0	303038464	64	4244
2026-01-17 05:22:54.42	284.46	9.59	-46.7	-48.2	23.0	6.00e-01	0	34	0	308281344	64	4438
2026-01-17 05:22:57.44	284.09	9.38	-46.7	-48.3	22.9	6.02e-01	0	34	0	314048512	64	4455
2026-01-17 05:23:00.47	283.72	9.16	-46.8	-48.3	22.8	6.05e-01	0	34	0	319815680	64	4487
2026-01-17 05:23:03.49	283.36	8.94	-46.7	-48.3	22.8	6.04e-01	0	34	0	325582848	64	4445
2026-01-17 05:23:06.52	283.01	8.73	-46.8	-48.4	22.8	6.02e-01	0	34	0	331350016	64	4511
2026-01-17 05:23:09.54	282.66	8.51	-46.6	-48.2	22.9	6.02e-01	0	34	0	337117184	64	4393
2026-01-17 05:23:12.57	282.32	8.30	-46.8	-48.4	22.7	6.05e-01	0	34	0	342360064	64	4514
2026-01-17 05:23:15.59	281.98	8.09	-47.0	-48.7	22.4	6.04e-01	0	34	0	348127232	64	4655
2026-01-17 05:23:18.62	281.65	7.88	-47.0	-48.6	22.4	6.04e-01	0	34	0	353894400	64	4627
2026-01-17 05:23:21.64	281.33	7.67	-47.1	-48.8	22.3	6.01e-01	0	34	0	359661568	65	4488
2026-01-17 05:23:24.67	281.00	7.46	-47.3	-49.0	22.0	6.05e-01	0	34	0	365428736	65	4594
2026-01-17 05:23:27.70	280.69	7.25	-47.0	-48.7	22.3	6.05e-01	0	34	0	370671616	65	4398
2026-01-17 05:23:30.72	280.38	7.04	-47.0	-48.7	22.2	6.04e-01	0	34	0	376438784	65	4434
2026-01-17 05:23:33.75	280.07	6.84	-47.6	-49.4	21.5	6.06e-01	0	34	0	382205952	65	4797
2026-01-17 05:23:36.77	279.77	6.63	-47.6	-49.4	21.5	6.03e-01	0	34	0	387973120	66	4539
2026-01-17 05:23:39.80	279.47	6.43	-47.4	-49.2	21.7	6.04e-01	0	34	0	393740288	66	4433
2026-01-17 05:23:42.83	279.18	6.23	-47.3	-49.0	21.8	6.01e-01	0	34	0	398983168	66	4329
2026-01-17 05:23:45.85	278.89	6.03	-47.4	-49.2	21.6	6.04e-01	0	34	0	404750336	66	4407
2026-01-17 05:23:48.88	278.61	5.83	-47.8	-49.8	21.0	6.06e-01	0	34	0	410517504	66	4744
2026-01-17 05:23:51.91	278.33	5.63	-47.2	-48.9	21.8	6.04e-01	0	34	0	416284672	66	4277
2026-01-17 05:23:54.93	278.06	5.43	-47.3	-49.2	21.5	6.04e-01	0	34	0	422051840	66	4407
2026-01-17 05:23:57.95	277.79	5.23	-47.8	-49.8	20.7	6.04e-01	0	34	0	427819008	66	4752
2026-01-17 05:24:00.98	277.52	5.04	-47.6	-49.6	20.9	6.01e-01	0	34	0	433061888	66	4633
2026-01-17 05:24:04.00	277.26	4.84	-54.4	-72.2	3.8	7.45e-01	0	34	104	435159040	79	29637
2026-01-17 05:24:07.03	277.00	4.65	-54.7	-72.5	3.8	7.48e-01	0	34	104	435159040	80	28946
2026-01-17 05:24:10.06	276.75	4.45	-54.9	-72.7	3.8	7.43e-01	0	34	104	435159040	80	29610
2026-01-17 05:24:13.08	276.50	4.26	-55.1	-72.9	3.8	7.49e-01	0	34	104	435159040	80	30090
2026-01-17 05:24:16.11	276.25	4.07	-55.1	-72.9	3.8	7.46e-01	0	34	104	435159040	80	30310
2026-01-17 05:24:19.13	276.01	3.88	-55.2	-73.0	3.8	7.45e-01	0	34	104	435159040	80	30544
2026-01-17 05:24:22.16	275.77	3.69	-55.2	-73.0	3.8	7.41e-01	0	34	104	435159040	81	28775
2026-01-17 05:24:25.19	275.53	3.51	-55.1	-72.9	3.8	7.44e-01	0	34	104	435159040	81	28573
2026-01-17 05:24:28.21	275.30	3.32	-55.1	-72.9	3.8	7.44e-01	0	34	104	435159040	81	28382
2026-01-17 05:24:31.24	275.07	3.13	-55.0	-72.8	3.8	7.43e-01	0	34	104	435159040	81	28171
2026-01-17 05:24:34.26	274.84	2.95	-55.0	-72.8	3.8	7.44e-01	0	34	104	435159040	81	28136
2026-01-17 05:24:37.28	274.62	2.77	-54.9	-72.8	3.8	7.44e-01	0	34	104	435159040	81	28096
2026-01-17 05:24:40.31	274.40	2.58	-54.9	-72.7	3.8	7.48e-01	0	34	104	435159040	81	28003
2026-01-17 05:24:43.33	274.18	2.40	-54.9	-72.7	3.8	7.46e-01	0	34	104	435159040	81	27949
2026-01-17 05:24:46.36	273.97	2.22	-54.9	-72.7	3.8	7.45e-01	0	34	104	435159040	81	27987
2026-01-17 05:24:49.38	273.76	2.04	-54.9	-72.7	3.8	7.45e-01	0	34	104	435159040	81	27982

#Closed at: 2026-01-17 05:24:51
#Recorded file [435 MB]: D:/lorett/data/31041_260117_081328.dat