passes_logs/2026/01/17/R3.2S_Murmansk/R3.2S_Murmansk__20260117_234520_NOAA_21_JPSS-2_rec.log

#Pass ID: 20260117_234520_NOAA 21 (JPSS-2)
#Satellite: NOAA 21 (JPSS-2)
#Configuration: NOAA-21
#almurnet v.1.7.20251203
#Start time: 2026-01-17 23:45:19

#Version: 2.2.20231116
#Station: R3.2S_Murmansk
#Location: 33.079688 lon 68.888172 lat
#TLE: 1 54234U 22150A   26017.62066529  .00000042  00000+0  40984-4 0  9994
#TLE: 2 54234  98.7502 318.4887 0000613 271.5460  88.5645 14.19535234165189

#Time	Az	El	Level	Level2	SNR	BER	BlckErr	Temp	State	Recorded	gain1	gain2
2026-01-17 23:45:19.96	21.48	2.00	-51.9	-64.3	3.8	1.49e+00	0	36	0	0	74	15788
2026-01-17 23:45:23.99	21.60	2.25	-51.8	-63.0	3.8	1.49e+00	0	35	104	0	74	13580
2026-01-17 23:45:28.02	21.72	2.50	-51.7	-61.8	4.0	1.49e+00	0	36	104	0	74	11852
2026-01-17 23:45:32.06	21.84	2.76	-51.6	-60.6	4.3	1.46e+00	0	35	104	0	74	10401
2026-01-17 23:45:36.09	21.96	3.02	-51.3	-59.0	5.1	6.10e-01	0	35	0	4194304	74	8633
2026-01-17 23:45:40.12	22.09	3.28	-51.0	-57.3	6.2	3.35e-01	0	36	0	16777216	73	7528
2026-01-17 23:45:44.16	22.22	3.54	-50.7	-56.5	6.9	1.52e-01	0	35	0	29360128	73	6820
2026-01-17 23:45:48.19	22.35	3.81	-49.6	-53.3	10.2	8.72e-03	0	36	0	41943040	71	5327
2026-01-17 23:45:52.22	22.48	4.08	-48.7	-51.7	11.9	3.47e-04	0	35	0	54525952	69	4957
2026-01-17 23:45:56.25	22.61	4.35	-49.3	-52.8	10.8	1.83e-03	0	35	0	67108864	69	5612
2026-01-17 23:46:00.28	22.75	4.62	-50.3	-55.1	8.4	5.48e-02	0	35	0	79691776	71	6525
2026-01-17 23:46:04.31	22.89	4.90	-50.8	-57.0	6.5	2.34e-01	0	36	0	92274688	72	7650
2026-01-17 23:46:08.35	23.03	5.18	-50.5	-55.4	8.2	2.53e-02	0	36	0	100663296	72	6410
2026-01-17 23:46:12.38	23.17	5.46	-46.4	-48.0	15.8	0.00e+00	0	36	0	106954752	64	4323
2026-01-17 23:46:16.41	23.32	5.75	-45.8	-47.3	16.7	0.00e+00	0	36	0	119537664	63	4216
2026-01-17 23:46:20.43	23.46	6.03	-45.6	-47.0	17.1	0.00e+00	0	36	0	132120576	62	4314
2026-01-17 23:46:24.47	23.62	6.33	-45.9	-47.4	16.7	0.00e+00	0	35	0	144703488	62	4523
2026-01-17 23:46:28.50	23.77	6.62	-45.9	-47.4	16.7	0.00e+00	0	36	0	157286400	62	4542
2026-01-17 23:46:32.53	23.92	6.92	-45.9	-47.4	16.8	0.00e+00	0	36	0	169869312	62	4521
2026-01-17 23:46:36.56	24.08	7.22	-46.2	-47.7	16.5	0.00e+00	0	36	0	182452224	63	4411
2026-01-17 23:46:40.59	24.25	7.52	-45.4	-46.7	17.5	0.00e+00	0	35	0	195035136	62	4183
2026-01-17 23:46:44.62	24.41	7.83	-44.9	-46.2	18.0	0.00e+00	0	36	0	207618048	61	4170
2026-01-17 23:46:48.65	24.58	8.14	-44.9	-46.1	18.1	0.00e+00	0	36	0	220200960	61	4139
2026-01-17 23:46:52.68	24.75	8.46	-44.9	-46.1	18.2	0.00e+00	0	35	0	232783872	61	4119
2026-01-17 23:46:56.72	24.92	8.78	-45.0	-46.2	18.1	0.00e+00	0	35	0	245366784	61	4177
2026-01-17 23:47:00.75	25.10	9.10	-44.7	-45.9	18.4	0.00e+00	0	35	0	257949696	60	4263
2026-01-17 23:47:04.78	25.28	9.42	-44.6	-45.8	18.5	0.00e+00	0	35	0	270532608	60	4223
2026-01-17 23:47:08.81	25.47	9.76	-44.4	-45.5	18.8	0.00e+00	0	36	0	283115520	60	4091
2026-01-17 23:47:12.84	25.66	10.09	-44.4	-45.5	18.9	0.00e+00	0	35	0	295698432	60	4065
2026-01-17 23:47:16.87	25.85	10.43	-44.4	-45.5	18.9	0.00e+00	0	36	0	309329920	60	4082
2026-01-17 23:47:20.90	26.05	10.77	-44.4	-45.5	18.8	0.00e+00	0	36	0	320864256	60	4096
2026-01-17 23:47:24.94	26.25	11.12	-44.2	-45.3	19.1	0.00e+00	0	35	0	333447168	60	3979
2026-01-17 23:47:28.97	26.46	11.48	-44.1	-45.2	19.2	0.00e+00	0	35	0	347078656	60	3950
2026-01-17 23:47:33.00	26.67	11.83	-44.3	-45.4	19.3	0.00e+00	0	36	0	358612992	59	4270
2026-01-17 23:47:37.04	26.88	12.20	-44.2	-45.3	19.4	0.00e+00	0	35	0	371195904	59	4230
2026-01-17 23:47:41.07	27.10	12.57	-44.2	-45.3	19.5	0.00e+00	0	35	0	384827392	59	4217
2026-01-17 23:47:45.11	27.33	12.94	-44.1	-45.1	19.7	0.00e+00	0	35	0	397410304	59	4130
2026-01-17 23:47:49.14	27.56	13.32	-44.0	-45.1	19.7	0.00e+00	0	35	0	408944640	59	4103
2026-01-17 23:47:53.17	27.79	13.71	-43.9	-45.0	19.8	0.00e+00	0	35	0	422576128	59	4060
2026-01-17 23:47:57.21	28.04	14.10	-44.2	-45.3	19.6	0.00e+00	0	35	0	435159040	59	4211
2026-01-17 23:48:01.24	28.29	14.49	-44.2	-45.2	19.6	0.00e+00	0	35	0	447741952	59	4177
2026-01-17 23:48:05.28	28.54	14.90	-44.2	-45.3	19.6	0.00e+00	0	35	0	460324864	59	4194
2026-01-17 23:48:09.30	28.80	15.31	-44.2	-45.2	19.6	0.00e+00	0	35	0	472907776	59	4191
2026-01-17 23:48:13.34	29.07	15.72	-44.3	-45.4	19.5	0.00e+00	0	35	0	485490688	59	4252
2026-01-17 23:48:17.37	29.34	16.14	-44.3	-45.4	19.5	0.00e+00	0	35	0	498073600	59	4271
2026-01-17 23:48:21.40	29.62	16.57	-44.3	-45.4	19.5	0.00e+00	0	35	0	510656512	59	4252
2026-01-17 23:48:25.43	29.91	17.01	-44.2	-45.2	19.7	0.00e+00	0	35	0	523239424	59	4167
2026-01-17 23:48:29.46	30.21	17.45	-44.2	-45.3	19.6	0.00e+00	0	35	0	535822336	59	4205
2026-01-17 23:48:33.50	30.52	17.90	-44.1	-45.1	19.8	0.00e+00	0	35	0	548405248	59	4142
2026-01-17 23:48:37.53	30.83	18.36	-44.0	-45.0	19.9	0.00e+00	0	35	0	560988160	59	4059
2026-01-17 23:48:41.56	31.16	18.83	-43.8	-44.7	20.1	0.00e+00	0	35	0	573571072	59	3957
2026-01-17 23:48:45.59	31.49	19.30	-43.8	-44.8	20.2	0.00e+00	0	36	0	586153984	59	3966
2026-01-17 23:48:49.62	31.83	19.78	-43.8	-44.8	20.2	0.00e+00	0	35	0	598736896	59	3960
2026-01-17 23:48:53.66	32.19	20.28	-43.7	-44.7	20.3	0.00e+00	0	35	0	611319808	59	3941
2026-01-17 23:48:57.69	32.55	20.78	-43.6	-44.6	20.4	0.00e+00	0	35	0	623902720	59	3870
2026-01-17 23:49:01.72	32.93	21.29	-43.5	-44.4	20.5	0.00e+00	0	35	0	636485632	59	3823
2026-01-17 23:49:05.76	33.32	21.81	-43.3	-44.2	20.7	0.00e+00	0	35	0	649068544	58	3958
2026-01-17 23:49:09.79	33.72	22.33	-43.1	-44.1	20.9	0.00e+00	0	35	0	661651456	58	3869
2026-01-17 23:49:13.82	34.13	22.87	-43.1	-44.1	20.9	0.00e+00	0	35	0	674234368	58	3871
2026-01-17 23:49:17.86	34.56	23.42	-42.9	-43.8	21.1	0.00e+00	0	35	0	686817280	57	3969
2026-01-17 23:49:21.89	35.01	23.98	-42.6	-43.4	21.4	0.00e+00	0	35	0	699400192	57	3816
2026-01-17 23:49:25.92	35.47	24.55	-42.7	-43.6	21.3	0.00e+00	0	35	0	711983104	57	3893
2026-01-17 23:49:29.96	35.94	25.13	-42.8	-43.7	21.2	0.00e+00	0	35	0	724566016	57	3934
2026-01-17 23:49:33.99	36.44	25.72	-42.8	-43.7	21.3	0.00e+00	0	35	0	737148928	57	3918
2026-01-17 23:49:38.03	36.95	26.32	-42.9	-43.8	21.2	0.00e+00	0	35	0	749731840	57	3985
2026-01-17 23:49:42.06	37.48	26.93	-43.5	-44.4	20.6	0.00e+00	0	35	0	762314752	57	4266
2026-01-17 23:49:46.09	38.03	27.56	-43.6	-44.6	20.5	0.00e+00	0	35	0	774897664	57	4350
2026-01-17 23:49:50.12	38.60	28.19	-43.7	-44.7	20.4	0.00e+00	0	35	0	787480576	58	4146
2026-01-17 23:49:54.16	39.19	28.84	-44.1	-45.1	20.1	0.00e+00	0	35	0	800063488	58	4344
2026-01-17 23:49:58.19	39.81	29.50	-44.2	-45.2	19.9	0.00e+00	0	35	0	812646400	59	4183
2026-01-17 23:50:02.22	40.45	30.17	-44.1	-45.0	20.1	0.00e+00	0	35	0	825229312	59	4097
2026-01-17 23:50:06.25	41.12	30.86	-44.1	-45.2	20.0	0.00e+00	0	36	0	837812224	59	4146
2026-01-17 23:50:10.29	41.82	31.55	-44.1	-45.1	20.0	0.00e+00	0	35	0	850395136	59	4136
2026-01-17 23:50:14.32	42.55	32.26	-43.7	-44.7	20.5	0.00e+00	0	35	0	862978048	59	3925
2026-01-17 23:50:18.35	43.31	32.98	-44.1	-45.1	20.2	0.00e+00	0	35	0	875560960	59	4103
2026-01-17 23:50:22.38	44.11	33.71	-44.3	-45.3	19.9	0.00e+00	0	35	0	888143872	59	4209
2026-01-17 23:50:26.42	44.94	34.46	-44.7	-45.8	19.2	0.00e+00	0	35	0	900726784	60	4214
2026-01-17 23:50:30.45	45.81	35.21	-44.9	-46.0	19.1	0.00e+00	0	35	0	913309696	60	4299
2026-01-17 23:50:34.48	46.72	35.98	-45.2	-46.3	18.7	0.00e+00	0	35	0	925892608	61	4231
2026-01-17 23:50:38.51	47.67	36.76	-45.5	-46.7	18.4	0.00e+00	0	35	0	938475520	62	4182
2026-01-17 23:50:42.55	48.67	37.54	-45.0	-46.1	19.1	0.00e+00	0	35	0	951058432	62	3886
2026-01-17 23:50:46.58	49.72	38.34	-44.9	-46.0	19.2	0.00e+00	0	35	0	963641344	61	4058
2026-01-17 23:50:50.61	50.81	39.14	-45.4	-46.6	18.6	0.00e+00	0	35	0	976224256	61	4345
2026-01-17 23:50:54.64	51.97	39.95	-45.1	-46.3	18.9	0.00e+00	0	35	0	988807168	61	4206
2026-01-17 23:50:58.67	53.18	40.77	-45.5	-46.7	18.4	0.00e+00	0	35	0	1002438656	61	4433
2026-01-17 23:51:02.70	54.45	41.59	-45.4	-46.6	18.5	0.00e+00	0	35	0	1013972992	61	4344
2026-01-17 23:51:06.73	55.79	42.41	-46.1	-47.4	17.8	0.00e+00	0	35	0	1026555904	62	4544
2026-01-17 23:51:10.76	57.20	43.23	-46.1	-47.3	17.9	0.00e+00	0	35	0	1040187392	63	4233
2026-01-17 23:51:14.80	58.68	44.05	-46.4	-47.8	17.5	0.00e+00	0	35	0	1052770304	63	4457
2026-01-17 23:51:18.83	60.24	44.87	-45.6	-46.8	18.4	0.00e+00	0	35	0	1064304640	63	3962
2026-01-17 23:51:22.86	61.88	45.68	-46.0	-47.2	18.0	0.00e+00	0	35	0	1077936128	63	4182
2026-01-17 23:51:26.90	63.61	46.48	-46.2	-47.5	17.8	0.00e+00	0	35	0	1090519040	63	4322
2026-01-17 23:51:30.93	65.42	47.26	-46.0	-47.3	18.0	0.00e+00	0	35	0	1103101952	63	4199
2026-01-17 23:51:34.96	67.32	48.03	-45.8	-47.1	18.2	0.00e+00	0	35	0	1115684864	63	4102
2026-01-17 23:51:39.00	69.33	48.78	-45.9	-47.2	18.1	0.00e+00	0	35	0	1128267776	63	4155
2026-01-17 23:51:43.03	71.42	49.50	-45.7	-46.9	18.3	0.00e+00	0	35	0	1140850688	63	4031
2026-01-17 23:51:47.06	73.62	50.18	-44.6	-45.7	19.5	0.00e+00	0	35	0	1153433600	61	3919
2026-01-17 23:51:51.10	75.91	50.84	-44.4	-45.4	19.7	0.00e+00	0	35	0	1166016512	60	4018
2026-01-17 23:51:55.13	78.30	51.45	-45.4	-46.6	18.6	0.00e+00	0	35	0	1178599424	61	4378
2026-01-17 23:51:59.17	80.79	52.02	-44.7	-45.8	19.3	0.00e+00	0	35	0	1191182336	61	3992
2026-01-17 23:52:03.20	83.37	52.53	-44.6	-45.7	19.5	0.00e+00	0	35	0	1203765248	61	3916
2026-01-17 23:52:07.23	86.03	52.99	-45.2	-46.4	18.8	0.00e+00	0	35	0	1216348160	61	4260
2026-01-17 23:52:11.26	88.77	53.39	-44.5	-45.6	19.5	0.00e+00	0	35	0	1228931072	60	4123
2026-01-17 23:52:15.30	91.59	53.72	-44.6	-45.6	19.7	0.00e+00	0	35	0	1241513984	59	4370
2026-01-17 23:52:19.33	94.46	53.99	-44.5	-45.5	19.4	0.00e+00	0	35	0	1254096896	60	4084
2026-01-17 23:52:23.36	97.38	54.19	-44.5	-45.5	19.9	0.00e+00	0	35	0	1266679808	59	4333
2026-01-17 23:52:27.39	100.33	54.31	-44.4	-45.4	19.7	0.00e+00	0	35	0	1279262720	60	4041
2026-01-17 23:52:31.43	103.30	54.35	-44.4	-45.5	19.6	0.00e+00	0	35	0	1291845632	60	4057
2026-01-17 23:52:35.46	106.27	54.32	-44.4	-45.5	19.4	0.00e+00	0	35	0	1304428544	60	4057
2026-01-17 23:52:39.49	109.23	54.22	-44.0	-44.9	20.4	0.00e+00	0	35	0	1317011456	59	4047
2026-01-17 23:52:43.52	112.15	54.04	-44.7	-45.8	19.7	0.00e+00	0	35	0	1329594368	59	4442
2026-01-17 23:52:47.55	115.04	53.79	-44.2	-45.2	20.1	0.00e+00	0	35	0	1342177280	59	4175
2026-01-17 23:52:51.58	117.86	53.47	-44.4	-45.4	19.7	0.00e+00	0	35	0	1354760192	60	4047
2026-01-17 23:52:55.62	120.63	53.08	-44.2	-45.2	20.0	0.00e+00	0	35	0	1367343104	60	3915
2026-01-17 23:52:59.65	123.31	52.63	-44.1	-45.1	20.2	0.00e+00	0	35	0	1379926016	59	4124
2026-01-17 23:53:03.68	125.91	52.13	-44.7	-45.8	19.3	0.00e+00	0	35	0	1392508928	60	4208
2026-01-17 23:53:07.71	128.42	51.57	-45.5	-46.7	18.4	0.00e+00	0	35	0	1405091840	61	4429
2026-01-17 23:53:11.74	130.83	50.96	-45.0	-46.2	19.0	0.00e+00	0	35	0	1417674752	61	4157
2026-01-17 23:53:15.78	133.16	50.32	-44.3	-45.3	19.7	0.00e+00	0	35	0	1430257664	60	3998
2026-01-17 23:53:19.81	135.37	49.63	-45.3	-46.5	18.7	0.00e+00	0	35	0	1442840576	61	4309
2026-01-17 23:53:23.84	137.49	48.92	-45.0	-46.1	19.1	0.00e+00	0	35	0	1455423488	61	4114
2026-01-17 23:53:27.87	139.51	48.18	-45.7	-46.9	18.2	0.00e+00	0	35	0	1468006400	61	4541
2026-01-17 23:53:31.91	141.44	47.41	-45.8	-47.0	18.2	0.00e+00	0	35	0	1480589312	62	4326
2026-01-17 23:53:35.95	143.28	46.63	-45.8	-47.0	18.2	0.00e+00	0	35	0	1493172224	62	4326
2026-01-17 23:53:39.98	145.03	45.83	-45.4	-46.6	18.5	0.00e+00	0	35	0	1505755136	62	4099
2026-01-17 23:53:44.01	146.69	45.02	-45.5	-46.7	18.4	0.00e+00	0	35	0	1518338048	62	4186
2026-01-17 23:53:48.04	148.27	44.20	-45.9	-47.1	18.1	0.00e+00	0	35	0	1530920960	62	4348
2026-01-17 23:53:52.07	149.77	43.38	-46.1	-47.3	17.7	0.00e+00	0	35	0	1543503872	63	4242
2026-01-17 23:53:56.10	151.19	42.55	-45.3	-46.5	18.6	0.00e+00	0	35	0	1556086784	62	4063
2026-01-17 23:54:00.13	152.55	41.73	-46.3	-47.7	17.4	0.00e+00	0	35	0	1568669696	63	4419
2026-01-17 23:54:04.16	153.84	40.90	-45.7	-46.9	18.3	0.00e+00	0	35	0	1581252608	63	4025
2026-01-17 23:54:08.20	155.06	40.08	-45.2	-46.4	18.8	0.00e+00	0	35	0	1593835520	62	4015
2026-01-17 23:54:12.23	156.23	39.27	-45.6	-46.9	18.1	0.00e+00	0	35	0	1606418432	62	4252
2026-01-17 23:54:16.26	157.34	38.46	-45.2	-46.4	18.7	0.00e+00	0	35	0	1619001344	62	4014
2026-01-17 23:54:20.29	158.40	37.66	-45.4	-46.6	18.5	0.00e+00	0	35	0	1631584256	61	4345
2026-01-17 23:54:24.32	159.41	36.87	-44.5	-45.5	19.5	0.00e+00	0	35	0	1644167168	60	4077
2026-01-17 23:54:28.35	160.37	36.09	-44.2	-45.3	19.7	0.00e+00	0	35	0	1656750080	60	3960
2026-01-17 23:54:32.38	161.29	35.31	-44.3	-45.4	19.6	0.00e+00	0	35	0	1669332992	60	4018
2026-01-17 23:54:36.42	162.17	34.55	-44.3	-45.3	19.8	0.00e+00	0	35	0	1681915904	59	4216
2026-01-17 23:54:40.45	163.01	33.80	-44.2	-45.2	20.0	0.00e+00	0	35	0	1694498816	59	4167
2026-01-17 23:54:44.48	163.81	33.07	-44.5	-45.5	19.7	0.00e+00	0	35	0	1707081728	59	4328
2026-01-17 23:54:48.51	164.58	32.34	-44.3	-45.4	19.5	0.00e+00	0	35	0	1719664640	60	4028
2026-01-17 23:54:52.54	165.31	31.63	-43.5	-44.4	20.6	0.00e+00	0	35	0	1732247552	59	3811
2026-01-17 23:54:56.57	166.02	30.92	-43.1	-44.0	21.1	0.00e+00	0	35	0	1745879040	58	3839
2026-01-17 23:55:00.60	166.69	30.24	-43.3	-44.2	20.8	0.00e+00	0	35	0	1757413376	58	3955
2026-01-17 23:55:04.64	167.34	29.56	-43.9	-44.8	20.3	0.00e+00	0	35	0	1769996288	58	4234
2026-01-17 23:55:08.67	167.97	28.89	-43.8	-44.8	20.2	0.00e+00	0	35	0	1783627776	58	4200
2026-01-17 23:55:12.70	168.56	28.24	-43.7	-44.6	20.3	0.00e+00	0	35	0	1796210688	58	4121
2026-01-17 23:55:16.74	169.14	27.60	-43.6	-44.5	20.4	0.00e+00	0	35	0	1807745024	58	4098
2026-01-17 23:55:20.77	169.70	26.97	-43.6	-44.5	20.4	0.00e+00	0	35	0	1821376512	58	4096
2026-01-17 23:55:24.80	170.23	26.35	-43.4	-44.3	20.7	0.00e+00	0	35	0	1833959424	58	3974
2026-01-17 23:55:28.83	170.74	25.74	-43.1	-44.0	20.9	0.00e+00	0	35	0	1846542336	58	3840
2026-01-17 23:55:32.86	171.24	25.15	-42.9	-43.8	21.1	0.00e+00	0	35	0	1859125248	57	3987
2026-01-17 23:55:36.89	171.72	24.57	-43.1	-44.0	21.0	0.00e+00	0	35	0	1871708160	57	4064
2026-01-17 23:55:40.92	172.18	23.99	-42.9	-43.8	21.1	0.00e+00	0	35	0	1884291072	57	3998
2026-01-17 23:55:44.96	172.62	23.43	-43.1	-44.0	20.9	0.00e+00	0	35	0	1896873984	57	4062
2026-01-17 23:55:48.99	173.06	22.88	-43.2	-44.1	20.8	0.00e+00	0	35	0	1909456896	57	4126
2026-01-17 23:55:53.02	173.47	22.34	-43.2	-44.2	20.7	0.00e+00	0	35	0	1922039808	57	4162
2026-01-17 23:55:57.05	173.87	21.80	-43.2	-44.1	20.8	0.00e+00	0	35	0	1934622720	57	4120
2026-01-17 23:56:01.08	174.26	21.28	-43.2	-44.1	20.8	0.00e+00	0	35	0	1947205632	57	4135
2026-01-17 23:56:05.12	174.64	20.77	-43.3	-44.2	20.7	0.00e+00	0	35	0	1959788544	57	4170
2026-01-17 23:56:09.15	175.01	20.26	-43.2	-44.2	20.7	0.00e+00	0	35	0	1972371456	57	4158
2026-01-17 23:56:13.18	175.36	19.77	-43.3	-44.3	20.5	0.00e+00	0	35	0	1984954368	57	4215
2026-01-17 23:56:17.20	175.71	19.28	-43.4	-44.3	20.4	0.00e+00	0	35	0	1997537280	57	4240
2026-01-17 23:56:21.24	176.04	18.80	-43.4	-44.4	20.3	0.00e+00	0	35	0	2010120192	57	4268
2026-01-17 23:56:25.27	176.37	18.33	-43.7	-44.7	20.1	0.00e+00	0	35	0	2022703104	58	4187
2026-01-17 23:56:29.30	176.68	17.87	-43.8	-44.8	20.0	0.00e+00	0	35	0	2035286016	58	4200
2026-01-17 23:56:33.34	176.99	17.42	-43.6	-44.5	20.3	0.00e+00	0	35	0	2047868928	58	4082
2026-01-17 23:56:37.37	177.29	16.97	-43.9	-44.9	19.9	0.00e+00	0	35	0	2060451840	58	4255
2026-01-17 23:56:41.40	177.58	16.53	-44.0	-45.0	19.7	0.00e+00	0	35	0	2073034752	58	4332
2026-01-17 23:56:45.43	177.86	16.10	-44.1	-45.1	19.7	0.00e+00	0	35	0	2085617664	58	4388
2026-01-17 23:56:49.46	178.13	15.68	-44.2	-45.2	19.6	0.00e+00	0	35	0	2098200576	58	4433
2026-01-17 23:56:53.49	178.40	15.26	-44.3	-45.4	19.5	0.00e+00	0	35	0	2110783488	59	4248
2026-01-17 23:56:57.53	178.66	14.84	-44.3	-45.4	19.4	0.00e+00	0	35	0	2123366400	59	4268
2026-01-17 23:57:01.56	178.91	14.44	-44.3	-45.4	19.4	0.00e+00	0	35	0	2135949312	59	4280
2026-01-17 23:57:05.59	179.16	14.04	-44.5	-45.7	19.1	0.00e+00	0	35	0	2148532224	59	4394
2026-01-17 23:57:09.62	179.40	13.65	-44.3	-45.4	19.4	0.00e+00	0	35	0	2161115136	59	4252
2026-01-17 23:57:13.65	179.64	13.26	-44.3	-45.4	19.3	0.00e+00	0	35	0	2173698048	59	4275
2026-01-17 23:57:17.68	179.87	12.88	-44.5	-45.6	19.1	0.00e+00	0	35	0	2186280960	59	4377
2026-01-17 23:57:21.71	180.09	12.50	-44.6	-45.7	19.0	0.00e+00	0	35	0	2198863872	59	4417
2026-01-17 23:57:25.74	180.31	12.13	-44.6	-45.8	19.0	0.00e+00	0	35	0	2211446784	59	4444
2026-01-17 23:57:29.77	180.53	11.77	-44.6	-45.8	18.9	0.00e+00	0	35	0	2224029696	59	4466
2026-01-17 23:57:33.80	180.73	11.41	-44.4	-45.5	18.8	0.00e+00	0	35	0	2236612608	60	4096
2026-01-17 23:57:37.83	180.94	11.05	-44.4	-45.6	18.8	0.00e+00	0	35	0	2249195520	60	4115
2026-01-17 23:57:41.86	181.14	10.70	-44.5	-45.7	18.7	0.00e+00	0	35	0	2261778432	60	4157
2026-01-17 23:57:45.89	181.33	10.35	-44.6	-45.7	18.6	0.00e+00	0	35	0	2274361344	60	4180
2026-01-17 23:57:49.92	181.53	10.01	-44.7	-45.8	18.5	0.00e+00	0	35	0	2286944256	60	4234
2026-01-17 23:57:53.95	181.71	9.68	-44.7	-45.9	18.4	0.00e+00	0	35	0	2299527168	60	4262
2026-01-17 23:57:57.98	181.90	9.34	-44.8	-46.0	18.3	0.00e+00	0	35	0	2312110080	60	4299
2026-01-17 23:58:02.02	182.08	9.01	-44.9	-46.1	18.1	0.00e+00	0	35	0	2324692992	60	4365
2026-01-17 23:58:06.05	182.25	8.69	-44.9	-46.1	18.1	0.00e+00	0	35	0	2337275904	60	4383
2026-01-17 23:58:10.08	182.43	8.37	-44.9	-46.2	18.0	0.00e+00	0	35	0	2349858816	60	4403
2026-01-17 23:58:14.12	182.60	8.05	-44.9	-46.1	18.0	0.00e+00	0	35	0	2362441728	60	4390
2026-01-17 23:58:18.15	182.76	7.74	-44.9	-46.2	17.9	0.00e+00	0	35	0	2375024640	60	4417
2026-01-17 23:58:22.19	182.93	7.43	-44.9	-46.1	17.9	0.00e+00	0	35	0	2387607552	60	4378
2026-01-17 23:58:26.21	183.08	7.12	-45.1	-46.5	17.6	0.00e+00	0	35	0	2400190464	60	4550
2026-01-17 23:58:30.24	183.24	6.82	-45.2	-46.6	17.5	0.00e+00	0	35	0	2412773376	61	4345
2026-01-17 23:58:34.28	183.40	6.52	-45.4	-46.8	17.2	0.00e+00	0	35	0	2425356288	61	4465
2026-01-17 23:58:38.31	183.55	6.22	-45.5	-47.0	17.0	0.00e+00	0	35	0	2437939200	61	4549
2026-01-17 23:58:42.34	183.69	5.93	-45.7	-47.2	16.7	0.00e+00	0	35	0	2450522112	62	4438
2026-01-17 23:58:46.37	183.84	5.64	-45.8	-47.4	16.5	0.00e+00	0	35	0	2463105024	62	4508
2026-01-17 23:58:50.40	183.98	5.36	-46.0	-47.7	16.2	0.00e+00	0	35	0	2475687936	62	4652
2026-01-17 23:58:54.43	184.12	5.07	-46.3	-48.1	15.7	0.00e+00	0	35	0	2488270848	63	4613
2026-01-17 23:58:58.47	184.26	4.79	-53.1	-65.9	3.8	1.49e+00	0	35	104	2493513728	76	17033
2026-01-17 23:59:02.50	184.40	4.51	-53.5	-66.3	3.8	1.49e+00	0	35	104	2493513728	77	16803
2026-01-17 23:59:06.53	184.53	4.24	-53.7	-66.5	3.8	1.49e+00	0	35	104	2493513728	77	17183
2026-01-17 23:59:10.57	184.66	3.97	-53.8	-66.6	3.8	1.49e+00	0	35	104	2493513728	78	16474
2026-01-17 23:59:14.60	184.79	3.70	-53.9	-66.7	3.8	1.49e+00	0	35	104	2493513728	78	16592
2026-01-17 23:59:18.63	184.92	3.43	-53.9	-66.8	3.8	1.49e+00	0	35	104	2493513728	78	16718
2026-01-17 23:59:22.66	185.04	3.16	-53.9	-66.7	3.8	1.49e+00	0	35	104	2493513728	78	16609
2026-01-17 23:59:26.70	185.17	2.90	-53.9	-66.7	3.8	1.49e+00	0	35	104	2493513728	78	16567
2026-01-17 23:59:30.73	185.29	2.64	-53.9	-66.7	3.8	1.49e+00	0	35	104	2493513728	78	16635
2026-01-17 23:59:34.76	185.41	2.38	-53.9	-66.7	3.8	1.49e+00	0	35	104	2493513728	78	16517
2026-01-17 23:59:38.80	185.53	2.13	-53.9	-66.7	3.8	1.49e+00	0	35	104	2493513728	78	16566
2026-01-17 23:59:42.83	185.64	1.87	-53.9	-66.7	3.8	1.49e+00	0	35	104	2493513728	78	16587

#Closed at: 2026-01-17 23:59:43
#Recorded file [2493 MB]: D:/lorett/data/31041_260118_024519.dat