passes_logs/2026/01/17/R3.2S_Murmansk/R3.2S_Murmansk__20260117_091137_NOAA_20_JPSS-1_rec.log

#Pass ID: 20260117_091137_NOAA 20 (JPSS-1)
#Satellite: NOAA 20 (JPSS-1)
#Configuration: NOAA 20
#almurnet v.1.7.20251203
#Start time: 2026-01-17 09:11:36

#Version: 2.2.20231116
#Station: R3.2S_Murmansk
#Location: 33.079688 lon 68.888172 lat
#TLE: 1 43013U 17073A   26016.52825843  .00000039  00000+0  39346-4 0  9991
#TLE: 2 43013  98.7637 317.4515 0001446  37.2648 322.8628 14.19536276422951

#Time	Az	El	Level	Level2	SNR	BER	BlckErr	Temp	State	Recorded	gain1	gain2
2026-01-17 09:11:36.94	143.77	1.99	-51.8	-66.8	3.8	1.49e+00	0	31	0	0	75	20001
2026-01-17 09:11:40.98	143.75	2.25	-51.8	-66.8	3.8	1.49e+00	0	32	104	0	74	21159
2026-01-17 09:11:45.01	143.72	2.51	-51.8	-66.8	3.8	1.49e+00	0	32	104	0	74	21086
2026-01-17 09:11:49.05	143.70	2.78	-51.8	-66.8	3.8	1.49e+00	0	32	104	0	74	21050
2026-01-17 09:11:53.08	143.67	3.05	-51.8	-66.7	3.8	1.49e+00	0	32	104	0	74	20894
2026-01-17 09:11:57.12	143.65	3.32	-51.8	-66.4	3.8	1.49e+00	0	32	104	0	74	20107
2026-01-17 09:12:01.15	143.62	3.59	-51.7	-64.2	3.8	1.48e+00	0	32	104	0	74	15654
2026-01-17 09:12:05.19	143.59	3.86	-51.6	-63.0	4.3	1.33e+00	138	33	0	0	74	13571
2026-01-17 09:12:09.22	143.56	4.14	-51.5	-61.4	4.9	8.37e-01	0	32	0	5242880	74	11374
2026-01-17 09:12:13.26	143.53	4.42	-50.7	-57.1	8.4	6.70e-02	0	32	0	12582912	73	7316
2026-01-17 09:12:17.29	143.50	4.71	-49.5	-53.5	12.2	3.70e-04	0	33	0	20971520	71	5431
2026-01-17 09:12:21.33	143.47	4.99	-48.7	-52.0	13.8	3.00e-06	0	33	0	28311552	69	5107
2026-01-17 09:12:25.36	143.44	5.28	-49.9	-54.4	11.1	2.22e-02	0	33	0	35651584	71	6005
2026-01-17 09:12:29.40	143.41	5.58	-48.3	-51.1	14.9	0.00e+00	0	33	0	42991616	68	4877
2026-01-17 09:12:33.44	143.37	5.88	-48.3	-51.1	14.9	7.00e-07	0	33	0	50331648	68	4915
2026-01-17 09:12:37.47	143.34	6.18	-48.5	-51.4	14.7	7.00e-07	0	33	0	58720256	68	5077
2026-01-17 09:12:41.50	143.30	6.48	-48.1	-50.7	15.5	0.00e+00	0	33	0	66060288	68	4669
2026-01-17 09:12:45.54	143.26	6.79	-48.1	-50.6	15.6	0.00e+00	0	33	0	73400320	68	4609
2026-01-17 09:12:49.57	143.23	7.10	-48.0	-50.5	15.7	0.00e+00	0	33	0	80740352	67	4844
2026-01-17 09:12:53.61	143.19	7.41	-47.9	-50.3	15.9	0.00e+00	0	33	0	89128960	67	4735
2026-01-17 09:12:57.64	143.15	7.73	-47.8	-50.2	16.0	0.00e+00	0	33	0	96468992	67	4672
2026-01-17 09:13:01.67	143.11	8.05	-47.9	-50.2	16.1	0.00e+00	0	33	0	103809024	67	4697
2026-01-17 09:13:05.70	143.06	8.38	-47.7	-49.9	16.4	0.00e+00	0	33	0	111149056	67	4524
2026-01-17 09:13:09.74	143.02	8.71	-47.5	-49.7	16.6	0.00e+00	0	33	0	118489088	67	4431
2026-01-17 09:13:13.77	142.97	9.05	-47.5	-49.7	16.7	0.00e+00	0	33	0	126877696	66	4664
2026-01-17 09:13:17.81	142.93	9.39	-47.4	-49.5	16.9	0.00e+00	0	33	0	134217728	66	4588
2026-01-17 09:13:21.84	142.88	9.73	-47.3	-49.4	17.1	0.00e+00	0	33	0	141557760	66	4500
2026-01-17 09:13:25.87	142.83	10.08	-47.3	-49.4	17.1	0.00e+00	0	33	0	148897792	66	4498
2026-01-17 09:13:29.90	142.78	10.43	-47.3	-49.4	17.1	0.00e+00	0	33	0	156237824	66	4506
2026-01-17 09:13:33.94	142.72	10.79	-47.2	-49.1	17.4	0.00e+00	0	33	0	164626432	66	4360
2026-01-17 09:13:37.97	142.67	11.16	-47.0	-48.9	17.6	0.00e+00	0	33	0	171966464	65	4534
2026-01-17 09:13:42.00	142.61	11.53	-46.9	-48.8	17.8	0.00e+00	0	33	0	179306496	65	4459
2026-01-17 09:13:46.03	142.56	11.90	-46.9	-48.7	17.9	0.00e+00	0	33	0	186646528	65	4426
2026-01-17 09:13:50.06	142.50	12.29	-46.9	-48.8	17.8	0.00e+00	0	33	0	195035136	65	4445
2026-01-17 09:13:54.09	142.43	12.67	-46.7	-48.5	18.1	0.00e+00	0	33	0	202375168	65	4314
2026-01-17 09:13:58.13	142.37	13.07	-46.5	-48.2	18.4	0.00e+00	0	33	0	209715200	65	4163
2026-01-17 09:14:02.16	142.30	13.47	-46.6	-48.4	18.3	0.00e+00	0	33	0	217055232	65	4251
2026-01-17 09:14:06.19	142.24	13.88	-46.4	-48.1	18.6	0.00e+00	0	33	0	224395264	64	4349
2026-01-17 09:14:10.22	142.17	14.29	-46.3	-48.0	18.7	0.00e+00	0	34	0	232783872	64	4292
2026-01-17 09:14:14.26	142.09	14.71	-46.2	-47.8	18.9	0.00e+00	0	33	0	240123904	64	4208
2026-01-17 09:14:18.29	142.02	15.14	-46.2	-47.7	18.9	0.00e+00	0	33	0	247463936	64	4190
2026-01-17 09:14:22.32	141.94	15.58	-46.0	-47.6	19.2	0.00e+00	0	33	0	254803968	64	4105
2026-01-17 09:14:26.35	141.86	16.02	-46.0	-47.5	19.3	0.00e+00	0	34	0	262144000	63	4293
2026-01-17 09:14:30.38	141.78	16.47	-45.8	-47.3	19.5	0.00e+00	0	33	0	270532608	63	4217
2026-01-17 09:14:34.42	141.69	16.93	-45.7	-47.1	19.7	0.00e+00	0	33	0	277872640	63	4115
2026-01-17 09:14:38.44	141.60	17.40	-45.6	-47.0	19.8	0.00e+00	0	33	0	285212672	63	4090
2026-01-17 09:14:42.47	141.51	17.88	-45.5	-46.8	20.0	0.00e+00	0	33	0	292552704	62	4242
2026-01-17 09:14:46.51	141.41	18.37	-45.4	-46.8	20.1	0.00e+00	0	33	0	299892736	62	4197
2026-01-17 09:14:50.54	141.31	18.86	-45.2	-46.5	20.3	0.00e+00	0	33	0	308281344	62	4080
2026-01-17 09:14:54.58	141.21	19.37	-45.1	-46.4	20.5	0.00e+00	0	34	0	315621376	62	4025
2026-01-17 09:14:58.61	141.10	19.89	-45.1	-46.4	20.5	0.00e+00	0	34	0	322961408	62	4006
2026-01-17 09:15:02.64	140.99	20.42	-45.1	-46.4	20.5	0.00e+00	0	33	0	330301440	62	4033
2026-01-17 09:15:06.67	140.87	20.96	-44.9	-46.2	20.7	0.00e+00	0	33	0	338690048	61	4150
2026-01-17 09:15:10.70	140.75	21.51	-45.0	-46.3	20.6	0.00e+00	0	33	0	346030080	61	4221
2026-01-17 09:15:14.74	140.62	22.08	-44.9	-46.1	20.8	0.00e+00	0	33	0	353370112	61	4130
2026-01-17 09:15:18.77	140.49	22.65	-44.8	-46.0	20.9	0.00e+00	0	33	0	360710144	61	4093
2026-01-17 09:15:22.80	140.36	23.24	-45.0	-46.2	20.7	0.00e+00	0	33	0	368050176	61	4173
2026-01-17 09:15:26.83	140.21	23.84	-45.0	-46.3	20.7	0.00e+00	0	34	0	375390208	61	4207
2026-01-17 09:15:30.86	140.06	24.46	-45.2	-46.4	20.5	0.00e+00	0	33	0	383778816	61	4285
2026-01-17 09:15:34.89	139.91	25.09	-45.4	-46.7	20.3	0.00e+00	0	33	0	391118848	61	4408
2026-01-17 09:15:38.92	139.75	25.74	-45.5	-46.8	20.2	0.00e+00	0	34	0	398458880	61	4485
2026-01-17 09:15:42.96	139.58	26.40	-45.6	-47.0	20.1	0.00e+00	0	34	0	405798912	61	4566
2026-01-17 09:15:46.99	139.40	27.08	-46.0	-47.4	19.7	0.00e+00	0	33	0	414187520	62	4518
2026-01-17 09:15:51.02	139.21	27.78	-46.3	-47.8	19.3	0.00e+00	0	33	0	421527552	63	4464
2026-01-17 09:15:55.05	139.02	28.49	-46.8	-48.4	18.6	0.00e+00	0	33	0	428867584	64	4533
2026-01-17 09:15:59.08	138.81	29.22	-47.5	-49.4	17.7	0.00e+00	0	34	0	436207616	65	4791
2026-01-17 09:16:03.12	138.60	29.98	-47.9	-49.9	17.2	0.00e+00	0	33	0	443547648	66	4783
2026-01-17 09:16:07.15	138.37	30.75	-48.1	-50.2	16.9	0.00e+00	0	33	0	451936256	66	4963
2026-01-17 09:16:11.18	138.13	31.54	-48.2	-50.3	16.8	0.00e+00	0	34	0	459276288	67	4720
2026-01-17 09:16:15.21	137.88	32.35	-48.3	-50.5	16.7	0.00e+00	0	33	0	466616320	67	4822
2026-01-17 09:16:19.25	137.62	33.19	-48.6	-50.9	16.4	0.00e+00	0	34	0	473956352	67	5049
2026-01-17 09:16:23.28	137.34	34.04	-48.5	-50.7	16.5	0.00e+00	0	34	0	482344960	67	4967
2026-01-17 09:16:27.31	137.05	34.92	-48.2	-50.3	16.9	0.00e+00	0	34	0	489684992	67	4717
2026-01-17 09:16:31.35	136.73	35.83	-47.4	-49.1	18.0	0.00e+00	0	34	0	497025024	66	4389
2026-01-17 09:16:35.38	136.40	36.76	-47.0	-48.7	18.5	0.00e+00	0	34	0	504365056	66	4160
2026-01-17 09:16:39.41	136.05	37.71	-47.0	-48.6	18.5	0.00e+00	0	34	0	511705088	65	4391
2026-01-17 09:16:43.44	135.68	38.70	-47.0	-48.6	18.6	0.00e+00	0	34	0	520093696	65	4383
2026-01-17 09:16:47.48	135.28	39.71	-47.6	-49.5	17.7	0.00e+00	0	34	0	527433728	66	4549
2026-01-17 09:16:51.51	134.85	40.75	-48.0	-49.9	17.3	0.00e+00	0	34	0	534773760	66	4811
2026-01-17 09:16:55.54	134.40	41.81	-48.0	-50.0	17.2	0.00e+00	0	34	0	542113792	66	4870
2026-01-17 09:16:59.57	133.91	42.91	-48.3	-50.4	16.8	0.00e+00	0	33	0	549453824	67	4796
2026-01-17 09:17:03.61	133.38	44.04	-47.9	-49.9	17.4	0.00e+00	0	33	0	557842432	67	4502
2026-01-17 09:17:07.65	132.82	45.20	-48.0	-50.0	17.3	0.00e+00	0	34	0	565182464	67	4565
2026-01-17 09:17:11.68	132.21	46.39	-48.1	-50.1	17.2	0.00e+00	0	34	0	572522496	67	4605
2026-01-17 09:17:15.72	131.55	47.61	-48.1	-50.1	17.2	0.00e+00	0	34	0	579862528	67	4635
2026-01-17 09:17:19.75	130.84	48.86	-48.6	-50.8	16.5	0.00e+00	0	33	0	588251136	67	5006
2026-01-17 09:17:23.79	130.07	50.14	-47.4	-49.1	18.1	0.00e+00	0	34	0	595591168	66	4377
2026-01-17 09:17:27.82	129.22	51.45	-45.7	-47.0	20.4	0.00e+00	0	33	0	602931200	63	4062
2026-01-17 09:17:31.85	128.30	52.80	-44.9	-46.0	21.2	0.00e+00	0	34	0	610271232	61	4091
2026-01-17 09:17:35.88	127.28	54.17	-45.4	-46.6	20.6	0.00e+00	0	34	0	617611264	61	4378
2026-01-17 09:17:39.92	126.16	55.57	-46.3	-47.7	19.7	0.00e+00	0	34	0	625999872	63	4408
2026-01-17 09:17:43.95	124.92	56.99	-46.9	-48.5	18.8	0.00e+00	0	34	0	633339904	64	4589
2026-01-17 09:17:47.98	123.54	58.43	-47.8	-49.6	17.7	0.00e+00	0	34	0	640679936	66	4651
2026-01-17 09:17:52.02	122.00	59.89	-46.8	-48.3	18.9	0.00e+00	0	34	0	648019968	65	4236
2026-01-17 09:17:56.05	120.28	61.37	-45.2	-46.4	21.0	0.00e+00	0	34	0	655360000	62	4012
2026-01-17 09:18:00.08	118.33	62.85	-45.2	-46.5	20.9	0.00e+00	0	34	0	663748608	61	4293
2026-01-17 09:18:04.11	116.13	64.33	-45.9	-47.3	20.1	0.00e+00	0	34	0	671088640	62	4451
2026-01-17 09:18:08.14	113.63	65.80	-47.8	-49.7	17.7	0.00e+00	0	33	0	678428672	66	4658
2026-01-17 09:18:12.18	110.75	67.25	-47.8	-49.7	17.6	0.00e+00	0	33	0	685768704	67	4419
2026-01-17 09:18:16.21	107.46	68.66	-47.9	-49.8	17.6	0.00e+00	0	33	0	693108736	67	4490
2026-01-17 09:18:20.24	103.67	70.02	-46.8	-48.4	19.0	0.00e+00	0	33	0	701497344	65	4280
2026-01-17 09:18:24.28	99.30	71.31	-45.8	-47.1	20.3	0.00e+00	0	34	0	708837376	63	4126
2026-01-17 09:18:28.31	94.27	72.48	-46.4	-47.9	19.5	0.00e+00	0	34	0	716177408	63	4504
2026-01-17 09:18:32.35	88.51	73.52	-46.9	-48.5	18.9	0.00e+00	0	34	0	723517440	64	4558
2026-01-17 09:18:36.38	82.03	74.39	-48.0	-50.0	17.5	0.00e+00	0	34	0	731906048	67	4566
2026-01-17 09:18:40.42	74.83	75.05	-50.2	-53.4	14.2	7.00e-07	0	34	0	739246080	71	5346
2026-01-17 09:18:44.45	67.09	75.46	-49.5	-52.1	15.5	0.00e+00	0	34	0	746586112	70	4908
2026-01-17 09:18:48.48	59.04	75.61	-48.6	-50.7	16.9	0.00e+00	0	33	0	753926144	69	4396
2026-01-17 09:18:52.52	50.96	75.48	-48.6	-50.8	16.7	0.00e+00	0	34	0	761266176	68	4730
2026-01-17 09:18:56.55	43.21	75.07	-49.3	-51.8	15.8	0.00e+00	0	34	0	769654784	69	5026
2026-01-17 09:19:00.58	36.00	74.42	-49.0	-51.3	16.2	0.00e+00	0	34	0	776994816	69	4752
2026-01-17 09:19:04.62	29.47	73.56	-48.3	-50.3	17.3	0.00e+00	0	33	0	784334848	68	4460
2026-01-17 09:19:08.65	23.70	72.53	-47.6	-49.4	18.2	0.00e+00	0	33	0	791674880	66	4500
2026-01-17 09:19:12.68	18.65	71.36	-46.6	-48.1	19.4	0.00e+00	0	34	0	799014912	65	4121
2026-01-17 09:19:16.72	14.25	70.08	-48.4	-50.4	17.2	0.00e+00	0	34	0	807403520	67	4796
2026-01-17 09:19:20.75	10.44	68.73	-48.6	-50.7	16.9	0.00e+00	0	33	0	814743552	68	4686
2026-01-17 09:19:24.78	7.14	67.32	-48.3	-50.3	17.3	0.00e+00	0	34	0	822083584	68	4473
2026-01-17 09:19:28.82	4.25	65.87	-46.6	-48.1	19.0	0.00e+00	0	33	0	829423616	65	4106
2026-01-17 09:19:32.85	1.73	64.40	-45.2	-46.4	21.0	0.00e+00	0	34	0	837812224	62	4017
2026-01-17 09:19:36.88	359.52	62.93	-44.4	-45.5	22.2	0.00e+00	0	34	0	845152256	59	4311
2026-01-17 09:19:40.92	357.56	61.45	-45.6	-46.9	20.6	0.00e+00	0	34	0	852492288	61	4513
2026-01-17 09:19:44.95	355.83	59.97	-48.2	-50.2	17.3	0.00e+00	0	34	0	859832320	66	4934
2026-01-17 09:19:48.98	354.29	58.52	-49.6	-52.2	14.8	2.20e-06	0	34	0	867172352	71	4676
2026-01-17 09:19:53.02	352.90	57.07	-49.9	-52.6	14.9	0.00e+00	0	33	0	875560960	70	5188
2026-01-17 09:19:57.06	351.66	55.65	-48.1	-50.0	17.7	0.00e+00	0	34	0	882900992	68	4299
2026-01-17 09:20:01.09	350.53	54.26	-46.9	-48.5	19.0	0.00e+00	0	34	0	890241024	65	4310
2026-01-17 09:20:05.12	349.52	52.89	-46.4	-47.8	19.7	0.00e+00	0	33	0	897581056	64	4213
2026-01-17 09:20:09.15	348.59	51.55	-46.5	-47.9	19.6	0.00e+00	0	34	0	904921088	63	4512
2026-01-17 09:20:13.18	347.74	50.24	-47.8	-49.6	18.0	0.00e+00	0	34	0	913309696	66	4624
2026-01-17 09:20:17.22	346.96	48.96	-48.3	-50.4	17.1	0.00e+00	0	33	0	920649728	67	4762
2026-01-17 09:20:21.25	346.25	47.71	-48.2	-50.2	17.3	0.00e+00	0	33	0	927989760	67	4673
2026-01-17 09:20:25.28	345.59	46.50	-48.4	-50.5	17.0	0.00e+00	0	34	0	935329792	67	4845
2026-01-17 09:20:29.32	344.98	45.31	-48.5	-50.6	17.0	0.00e+00	0	34	0	942669824	68	4642
2026-01-17 09:20:33.35	344.42	44.15	-48.3	-50.3	17.4	0.00e+00	0	33	0	951058432	68	4448
2026-01-17 09:20:37.38	343.90	43.03	-49.0	-51.3	16.3	0.00e+00	0	33	0	958398464	68	4996
2026-01-17 09:20:41.41	343.41	41.93	-49.0	-51.3	16.3	0.00e+00	0	34	0	965738496	68	4998
2026-01-17 09:20:45.44	342.95	40.87	-49.0	-51.4	16.2	0.00e+00	0	34	0	973078528	68	5044
2026-01-17 09:20:49.48	342.53	39.83	-49.0	-51.3	16.2	0.00e+00	0	33	0	981467136	68	5041
2026-01-17 09:20:53.51	342.13	38.82	-48.8	-51.1	16.5	0.00e+00	0	33	0	988807168	68	4872
2026-01-17 09:20:57.54	341.75	37.84	-48.2	-50.1	17.5	0.00e+00	0	34	0	996147200	68	4363
2026-01-17 09:21:01.57	341.40	36.89	-47.7	-49.5	17.9	0.00e+00	0	34	0	1003487232	67	4331
2026-01-17 09:21:05.60	341.07	35.96	-48.0	-49.9	17.5	0.00e+00	0	33	0	1010827264	67	4537
2026-01-17 09:21:09.63	340.76	35.05	-48.5	-50.6	16.8	0.00e+00	0	34	0	1018167296	67	4910
2026-01-17 09:21:13.66	340.46	34.17	-48.0	-49.9	17.5	0.00e+00	0	34	0	1026555904	67	4508
2026-01-17 09:21:17.70	340.18	33.32	-47.8	-49.7	17.7	0.00e+00	0	33	0	1033895936	67	4396
2026-01-17 09:21:21.73	339.92	32.48	-48.1	-50.2	17.2	0.00e+00	0	34	0	1041235968	67	4654
2026-01-17 09:21:25.76	339.67	31.67	-48.3	-50.4	16.9	0.00e+00	0	34	0	1048576000	67	4787
2026-01-17 09:21:29.80	339.43	30.88	-48.7	-51.0	16.4	0.00e+00	0	34	0	1056964608	68	4838
2026-01-17 09:21:33.83	339.21	30.11	-48.8	-51.0	16.4	0.00e+00	0	34	0	1064304640	68	4852
2026-01-17 09:21:37.86	338.99	29.36	-48.7	-50.9	16.5	0.00e+00	0	34	0	1071644672	68	4804
2026-01-17 09:21:41.89	338.79	28.63	-48.3	-50.3	17.1	0.00e+00	0	33	0	1078984704	68	4460
2026-01-17 09:21:45.93	338.60	27.92	-47.8	-49.8	17.5	0.00e+00	0	34	0	1086324736	67	4450
2026-01-17 09:21:49.96	338.41	27.22	-47.6	-49.5	17.8	0.00e+00	0	33	0	1094713344	67	4302
2026-01-17 09:21:54.00	338.23	26.54	-47.6	-49.4	17.8	0.00e+00	0	33	0	1102053376	67	4288
2026-01-17 09:21:58.03	338.07	25.88	-47.4	-49.1	18.1	0.00e+00	0	34	0	1109393408	66	4378
2026-01-17 09:22:02.07	337.90	25.23	-46.9	-48.6	18.6	0.00e+00	0	34	0	1116733440	65	4367
2026-01-17 09:22:06.10	337.75	24.60	-46.8	-48.4	18.7	0.00e+00	0	34	0	1125122048	65	4267
2026-01-17 09:22:10.14	337.60	23.98	-46.9	-48.6	18.6	0.00e+00	0	34	0	1132462080	65	4345
2026-01-17 09:22:14.17	337.46	23.38	-47.1	-48.8	18.4	0.00e+00	0	34	0	1139802112	65	4460
2026-01-17 09:22:18.20	337.33	22.79	-47.2	-48.9	18.2	0.00e+00	0	34	0	1147142144	65	4534
2026-01-17 09:22:22.24	337.20	22.22	-47.0	-48.6	18.4	0.00e+00	0	34	0	1154482176	65	4388
2026-01-17 09:22:26.27	337.07	21.65	-46.9	-48.6	18.5	0.00e+00	0	34	0	1162870784	65	4356
2026-01-17 09:22:30.30	336.95	21.10	-47.0	-48.7	18.4	0.00e+00	0	34	0	1170210816	65	4419
2026-01-17 09:22:34.34	336.84	20.56	-47.1	-48.9	18.2	0.00e+00	0	34	0	1177550848	65	4512
2026-01-17 09:22:38.37	336.73	20.03	-47.6	-49.5	17.5	0.00e+00	0	34	0	1184890880	65	4848
2026-01-17 09:22:42.41	336.62	19.52	-47.5	-49.4	17.6	0.00e+00	0	34	0	1192230912	65	4787
2026-01-17 09:22:46.44	336.52	19.01	-47.5	-49.4	17.6	0.00e+00	0	34	0	1200619520	65	4777
2026-01-17 09:22:50.48	336.42	18.51	-47.5	-49.4	17.7	0.00e+00	0	34	0	1207959552	65	4768
2026-01-17 09:22:54.51	336.32	18.02	-47.6	-49.6	17.5	0.00e+00	0	34	0	1215299584	65	4876
2026-01-17 09:22:58.55	336.23	17.55	-47.8	-49.8	17.2	0.00e+00	0	33	0	1222639616	66	4711
2026-01-17 09:23:02.58	336.14	17.08	-48.0	-50.1	16.9	0.00e+00	0	34	0	1231028224	66	4901
2026-01-17 09:23:06.62	336.06	16.62	-48.2	-50.4	16.6	0.00e+00	0	34	0	1238368256	66	5067
2026-01-17 09:23:10.65	335.98	16.17	-48.4	-50.7	16.2	0.00e+00	0	34	0	1245708288	67	4957
2026-01-17 09:23:14.68	335.90	15.72	-48.3	-50.6	16.3	0.00e+00	0	34	0	1253048320	67	4921
2026-01-17 09:23:18.72	335.82	15.29	-48.4	-50.8	16.1	0.00e+00	0	34	0	1260388352	67	4998
2026-01-17 09:23:22.75	335.75	14.86	-48.3	-50.6	16.3	0.00e+00	0	34	0	1268776960	67	4880
2026-01-17 09:23:26.78	335.68	14.44	-48.2	-50.5	16.4	0.00e+00	0	34	0	1276116992	67	4831
2026-01-17 09:23:30.82	335.61	14.02	-48.1	-50.4	16.5	0.00e+00	0	34	0	1283457024	67	4767
2026-01-17 09:23:34.85	335.54	13.62	-48.1	-50.4	16.5	0.00e+00	0	34	0	1290797056	67	4774
2026-01-17 09:23:38.89	335.48	13.22	-48.1	-50.3	16.5	0.00e+00	0	34	0	1298137088	67	4739
2026-01-17 09:23:42.92	335.42	12.82	-48.1	-50.4	16.4	0.00e+00	0	34	0	1306525696	67	4776
2026-01-17 09:23:46.95	335.36	12.44	-48.1	-50.3	16.4	0.00e+00	0	34	0	1313865728	67	4728
2026-01-17 09:23:50.99	335.30	12.05	-48.1	-50.3	16.5	0.00e+00	0	34	0	1321205760	67	4740
2026-01-17 09:23:55.02	335.25	11.68	-48.2	-50.5	16.2	3.80e-06	0	34	0	1328545792	67	4842
2026-01-17 09:23:59.05	335.19	11.31	-48.1	-50.4	16.3	0.00e+00	0	34	0	1336934400	67	4789
2026-01-17 09:24:03.09	335.14	10.94	-48.3	-50.7	16.0	0.00e+00	0	34	0	1344274432	67	4930
2026-01-17 09:24:07.12	335.09	10.59	-48.3	-50.7	15.9	0.00e+00	0	34	0	1351614464	67	4962
2026-01-17 09:24:11.15	335.04	10.23	-48.4	-50.9	15.7	0.00e+00	0	34	0	1358954496	67	5081
2026-01-17 09:24:15.19	334.99	9.88	-48.5	-51.1	15.5	0.00e+00	0	34	0	1366294528	67	5193
2026-01-17 09:24:19.22	334.95	9.54	-48.4	-51.0	15.6	0.00e+00	0	34	0	1374683136	67	5106
2026-01-17 09:24:23.24	334.90	9.20	-48.3	-50.7	15.8	0.00e+00	0	34	0	1382023168	67	4974
2026-01-17 09:24:27.28	334.86	8.86	-48.4	-51.0	15.5	0.00e+00	0	34	0	1389363200	67	5106
2026-01-17 09:24:31.31	334.82	8.53	-48.3	-50.8	15.7	0.00e+00	0	34	0	1396703232	67	5017
2026-01-17 09:24:35.34	334.78	8.21	-48.5	-51.0	15.5	0.00e+00	0	34	0	1404043264	67	5157
2026-01-17 09:24:39.38	334.74	7.89	-48.6	-51.3	15.1	0.00e+00	0	34	0	1412431872	67	5301
2026-01-17 09:24:43.40	334.70	7.57	-48.3	-50.8	15.5	0.00e+00	0	34	0	1419771904	67	5041
2026-01-17 09:24:47.44	334.66	7.25	-48.5	-51.2	15.2	0.00e+00	0	34	0	1427111936	67	5222
2026-01-17 09:24:51.47	334.63	6.94	-48.3	-50.9	15.4	0.00e+00	0	34	0	1434451968	67	5073
2026-01-17 09:24:55.50	334.59	6.64	-48.4	-51.1	15.2	0.00e+00	0	34	0	1441792000	67	5164
2026-01-17 09:24:59.54	334.56	6.33	-48.3	-50.9	15.3	0.00e+00	0	34	0	1450180608	67	5076
2026-01-17 09:25:03.57	334.53	6.03	-48.3	-51.0	15.1	0.00e+00	0	34	0	1457520640	67	5129
2026-01-17 09:25:07.60	334.50	5.74	-48.2	-50.9	15.2	7.00e-07	0	34	0	1464860672	67	5062
2026-01-17 09:25:11.64	334.47	5.44	-48.6	-51.6	14.4	0.00e+00	0	34	0	1472200704	68	5201
2026-01-17 09:25:15.67	334.44	5.15	-47.7	-50.3	15.4	0.00e+00	0	34	0	1480589312	67	4725
2026-01-17 09:25:19.71	334.41	4.87	-52.9	-67.9	3.8	1.49e+00	0	34	104	1483735040	76	21375
2026-01-17 09:25:23.74	334.38	4.58	-53.4	-68.4	3.8	1.49e+00	0	34	104	1483735040	77	21395
2026-01-17 09:25:27.78	334.35	4.30	-53.7	-68.7	3.8	1.49e+00	0	34	104	1483735040	77	22061
2026-01-17 09:25:31.81	334.33	4.03	-53.7	-68.7	3.8	1.49e+00	0	34	104	1483735040	78	21010
2026-01-17 09:25:35.85	334.30	3.75	-53.7	-68.8	3.8	1.49e+00	0	34	104	1483735040	78	21053
2026-01-17 09:25:39.89	334.28	3.48	-53.7	-68.7	3.8	1.49e+00	0	34	104	1483735040	78	20961
2026-01-17 09:25:43.92	334.26	3.21	-53.7	-68.7	3.8	1.49e+00	0	34	104	1483735040	78	20950
2026-01-17 09:25:47.95	334.23	2.94	-53.7	-68.7	3.8	1.49e+00	0	34	104	1483735040	78	20868
2026-01-17 09:25:51.98	334.21	2.68	-53.6	-68.7	3.8	1.49e+00	0	34	104	1483735040	78	20868
2026-01-17 09:25:56.02	334.19	2.41	-53.6	-68.7	3.8	1.49e+00	0	34	104	1483735040	78	20819
2026-01-17 09:26:00.05	334.17	2.16	-53.6	-68.7	3.8	1.49e+00	0	34	104	1483735040	78	20788

#Closed at: 2026-01-17 09:26:03
#Recorded file [1483 MB]: D:/lorett/data/31041_260117_121136.dat