passes_logs/2026/01/17/R3.2S_Murmansk/R3.2S_Murmansk__20260117_112954_FENGYUN_3D_rec.log

#Pass ID: 20260117_112954_FENGYUN 3D
#Satellite: FENGYUN 3D
#Configuration: FENGYUN 3D
#almurnet v.1.7.20251203
#Start time: 2026-01-17 11:29:55

#Version: 2.2.20231116
#Station: R3.2S_Murmansk
#Location: 33.079688 lon 68.888172 lat
#TLE: 1 43010U 17072A   26016.62453405 -.00000112  00000+0 -31355-4 0  9995
#TLE: 2 43010  98.9932 348.4654 0002369 105.3910 254.7528 14.19694900423480

#Time	Az	El	Level	Level2	SNR	BER	BlckErr	Temp	State	Recorded	gain1	gain2
2026-01-17 11:29:55.15	149.90	2.02	-51.8	-63.8	3.8	8.47e-01	0	33	0	0	75	14067
2026-01-17 11:29:59.19	149.91	2.28	-51.8	-63.8	3.8	8.45e-01	0	33	104	0	74	14884
2026-01-17 11:30:03.23	149.92	2.55	-51.8	-63.7	3.8	8.46e-01	0	33	104	0	74	14785
2026-01-17 11:30:07.26	149.92	2.81	-51.8	-63.7	3.8	8.46e-01	0	33	104	0	74	14751
2026-01-17 11:30:11.29	149.93	3.08	-51.8	-63.7	3.8	8.46e-01	0	33	104	0	74	14752
2026-01-17 11:30:15.33	149.94	3.35	-51.8	-63.1	3.8	8.47e-01	0	33	104	0	74	13843
2026-01-17 11:30:19.36	149.94	3.62	-51.6	-61.6	3.9	8.45e-01	0	33	104	0	74	11589
2026-01-17 11:30:23.40	149.95	3.90	-51.3	-59.2	4.5	8.28e-01	0	33	0	0	74	8828
2026-01-17 11:30:27.43	149.95	4.18	-50.1	-54.9	7.5	1.53e-01	0	33	0	7340032	72	6049
2026-01-17 11:30:31.46	149.96	4.46	-47.6	-50.1	12.5	2.51e-04	0	33	0	30408704	67	4616
2026-01-17 11:30:35.50	149.97	4.75	-45.9	-47.6	15.2	0.00e+00	0	34	0	53477376	63	4358
2026-01-17 11:30:39.53	149.97	5.03	-44.9	-46.3	16.4	0.00e+00	0	34	0	75497472	60	4484
2026-01-17 11:30:43.57	149.98	5.33	-46.2	-48.0	14.9	5.70e-06	0	34	0	98566144	64	4319
2026-01-17 11:30:47.60	149.98	5.62	-44.4	-45.7	17.5	0.00e+00	0	34	0	121634816	59	4421
2026-01-17 11:30:51.63	149.99	5.92	-44.4	-45.8	17.5	0.00e+00	0	34	0	143654912	59	4450
2026-01-17 11:30:55.66	149.99	6.22	-44.4	-45.7	17.7	0.00e+00	0	34	0	166723584	59	4413
2026-01-17 11:30:59.70	150.00	6.52	-44.2	-45.5	17.9	0.00e+00	0	34	0	189792256	59	4315
2026-01-17 11:31:03.73	150.00	6.83	-43.8	-45.0	18.4	0.00e+00	0	34	0	211812352	59	4070
2026-01-17 11:31:07.77	150.00	7.14	-43.8	-45.0	18.5	0.00e+00	0	34	0	234881024	59	4057
2026-01-17 11:31:11.80	150.01	7.46	-43.7	-44.8	18.7	0.00e+00	0	34	0	256901120	59	3993
2026-01-17 11:31:15.84	150.01	7.78	-43.9	-45.1	18.5	0.00e+00	0	34	0	279969792	59	4120
2026-01-17 11:31:19.87	150.02	8.10	-43.2	-44.3	19.3	0.00e+00	0	34	0	303038464	58	3986
2026-01-17 11:31:23.91	150.02	8.43	-43.3	-44.4	19.2	0.00e+00	0	34	0	325058560	58	4047
2026-01-17 11:31:27.94	150.02	8.76	-43.2	-44.3	19.4	0.00e+00	0	34	0	348127232	58	3979
2026-01-17 11:31:31.98	150.03	9.10	-43.0	-44.0	19.7	0.00e+00	0	35	0	371195904	57	4077
2026-01-17 11:31:36.01	150.03	9.44	-42.8	-43.9	19.8	0.00e+00	0	34	0	393216000	57	4011
2026-01-17 11:31:40.05	150.03	9.79	-42.8	-43.9	19.9	0.00e+00	0	34	0	416284672	57	4020
2026-01-17 11:31:44.08	150.03	10.14	-42.6	-43.6	20.2	0.00e+00	0	34	0	439353344	57	3886
2026-01-17 11:31:48.12	150.03	10.50	-42.6	-43.6	20.2	0.00e+00	0	34	0	461373440	57	3898
2026-01-17 11:31:52.16	150.04	10.86	-42.5	-43.5	20.3	0.00e+00	0	35	0	484442112	56	4088
2026-01-17 11:31:56.20	150.04	11.23	-42.7	-43.7	20.1	0.00e+00	0	35	0	507510784	56	4185
2026-01-17 11:32:00.23	150.04	11.60	-42.5	-43.5	20.3	0.00e+00	0	34	0	529530880	56	4076
2026-01-17 11:32:04.26	150.04	11.98	-42.5	-43.4	20.4	0.00e+00	0	34	0	552599552	56	4049
2026-01-17 11:32:08.30	150.04	12.36	-42.4	-43.4	20.5	0.00e+00	0	35	0	575668224	56	4013
2026-01-17 11:32:12.34	150.04	12.75	-42.2	-43.2	20.7	0.00e+00	0	35	0	597688320	56	3927
2026-01-17 11:32:16.37	150.04	13.15	-42.2	-43.1	20.7	0.00e+00	0	34	0	620756992	56	3898
2026-01-17 11:32:20.41	150.04	13.55	-42.1	-43.0	20.9	0.00e+00	0	34	0	642777088	56	3841
2026-01-17 11:32:24.45	150.04	13.97	-41.7	-42.6	21.1	0.00e+00	0	35	0	665845760	55	3903
2026-01-17 11:32:28.48	150.03	14.38	-41.6	-42.5	21.3	0.00e+00	0	35	0	688914432	55	3828
2026-01-17 11:32:32.52	150.03	14.81	-41.5	-42.4	21.3	0.00e+00	0	35	0	710934528	54	4042
2026-01-17 11:32:36.55	150.03	15.24	-41.3	-42.2	21.6	0.00e+00	0	35	0	734003200	54	3929
2026-01-17 11:32:40.58	150.03	15.68	-41.1	-41.9	21.9	0.00e+00	0	34	0	757071872	53	4036
2026-01-17 11:32:44.61	150.02	16.13	-40.9	-41.7	22.0	0.00e+00	0	35	0	779091968	53	3949
2026-01-17 11:32:48.65	150.02	16.59	-40.7	-41.5	22.2	0.00e+00	0	35	0	802160640	53	3855
2026-01-17 11:32:52.68	150.01	17.05	-40.7	-41.6	22.2	0.00e+00	0	35	0	825229312	53	3881
2026-01-17 11:32:56.72	150.01	17.52	-40.6	-41.4	22.4	0.00e+00	0	35	0	847249408	53	3819
2026-01-17 11:33:00.75	150.00	18.01	-40.5	-41.4	22.4	0.00e+00	0	34	0	870318080	52	4013
2026-01-17 11:33:04.78	149.99	18.50	-40.3	-41.2	22.6	0.00e+00	0	35	0	893386752	52	3922
2026-01-17 11:33:08.82	149.99	19.01	-40.3	-41.1	22.7	0.00e+00	0	35	0	915406848	52	3902
2026-01-17 11:33:12.86	149.98	19.52	-40.1	-41.0	22.8	0.00e+00	0	35	0	938475520	52	3830
2026-01-17 11:33:16.90	149.97	20.05	-40.1	-40.9	23.0	0.00e+00	0	35	0	961544192	51	4011
2026-01-17 11:33:20.93	149.96	20.58	-39.9	-40.7	23.2	0.00e+00	0	35	0	983564288	51	3934
2026-01-17 11:33:24.97	149.95	21.13	-39.7	-40.5	23.3	0.00e+00	0	35	0	1006632960	51	3843
2026-01-17 11:33:29.00	149.94	21.69	-39.7	-40.5	23.4	0.00e+00	0	35	0	1028653056	51	3848
2026-01-17 11:33:33.04	149.92	22.26	-39.8	-40.6	23.3	0.00e+00	0	35	0	1051721728	51	3877
2026-01-17 11:33:37.08	149.91	22.85	-39.9	-40.7	23.2	0.00e+00	0	35	0	1074790400	51	3927
2026-01-17 11:33:41.11	149.90	23.45	-39.5	-40.3	23.5	0.00e+00	0	35	0	1096810496	51	3758
2026-01-17 11:33:45.14	149.88	24.06	-39.3	-40.1	23.7	0.00e+00	0	35	0	1119879168	50	3884
2026-01-17 11:33:49.18	149.86	24.69	-39.4	-40.2	23.7	0.00e+00	0	35	0	1142947840	50	3926
2026-01-17 11:33:53.21	149.85	25.34	-39.5	-40.3	23.6	0.00e+00	0	35	0	1164967936	50	3966
2026-01-17 11:33:57.25	149.83	26.00	-39.7	-40.5	23.4	0.00e+00	0	35	0	1188036608	50	4055
2026-01-17 11:34:01.28	149.80	26.67	-39.4	-40.1	23.8	0.00e+00	0	35	0	1211105280	50	3909
2026-01-17 11:34:05.31	149.78	27.37	-39.1	-39.9	24.0	0.00e+00	0	35	0	1233125376	50	3786
2026-01-17 11:34:09.35	149.76	28.08	-39.1	-39.8	24.0	0.00e+00	0	35	0	1256194048	50	3773
2026-01-17 11:34:13.38	149.73	28.81	-39.4	-40.2	23.7	0.00e+00	0	35	0	1279262720	50	3916
2026-01-17 11:34:17.42	149.70	29.56	-39.2	-40.0	23.9	0.00e+00	0	35	0	1301282816	50	3835
2026-01-17 11:34:21.45	149.67	30.33	-38.8	-39.6	24.2	0.00e+00	0	35	0	1324351488	49	3880
2026-01-17 11:34:25.48	149.64	31.12	-38.9	-39.7	24.2	0.00e+00	0	35	0	1347420160	49	3930
2026-01-17 11:34:29.51	149.61	31.94	-39.0	-39.8	24.1	0.00e+00	0	35	0	1369440256	49	3960
2026-01-17 11:34:33.55	149.57	32.77	-38.9	-39.6	24.2	0.00e+00	0	35	0	1392508928	49	3900
2026-01-17 11:34:37.58	149.53	33.64	-38.8	-39.6	24.3	0.00e+00	0	35	0	1414529024	49	3872
2026-01-17 11:34:41.61	149.49	34.52	-38.6	-39.3	24.5	0.00e+00	0	35	0	1437597696	49	3768
2026-01-17 11:34:45.65	149.44	35.43	-38.4	-39.2	24.7	0.00e+00	0	35	0	1460666368	48	3922
2026-01-17 11:34:49.68	149.39	36.37	-38.5	-39.3	24.6	0.00e+00	0	35	0	1482686464	48	3962
2026-01-17 11:34:53.71	149.34	37.34	-38.5	-39.2	24.7	0.00e+00	0	35	0	1505755136	48	3927
2026-01-17 11:34:57.74	149.28	38.33	-38.8	-39.5	24.7	0.00e+00	0	35	0	1527775232	48	4093
2026-01-17 11:35:01.77	149.21	39.36	-38.8	-39.5	24.7	0.00e+00	0	35	0	1550843904	48	4092
2026-01-17 11:35:05.81	149.15	40.41	-39.2	-39.9	24.3	0.00e+00	0	35	0	1573912576	49	4043
2026-01-17 11:35:09.84	149.07	41.50	-39.2	-39.9	24.4	0.00e+00	0	35	0	1595932672	49	4042
2026-01-17 11:35:13.87	148.99	42.62	-39.1	-39.8	24.5	0.00e+00	0	35	0	1619001344	49	3983
2026-01-17 11:35:17.90	148.91	43.78	-39.5	-40.2	24.1	0.00e+00	0	35	0	1642070016	49	4190
2026-01-17 11:35:21.94	148.81	44.97	-39.1	-39.8	24.5	0.00e+00	0	35	0	1664090112	49	4002
2026-01-17 11:35:25.97	148.71	46.20	-39.4	-40.1	24.2	0.00e+00	0	35	0	1687158784	49	4140
2026-01-17 11:35:30.00	148.60	47.47	-38.9	-39.6	24.7	0.00e+00	0	35	0	1710227456	49	3909
2026-01-17 11:35:34.04	148.47	48.78	-39.3	-40.1	24.3	0.00e+00	0	35	0	1732247552	49	4105
2026-01-17 11:35:38.07	148.34	50.12	-39.4	-40.1	24.2	0.00e+00	0	35	0	1755316224	49	4135
2026-01-17 11:35:42.11	148.19	51.51	-39.9	-40.7	23.8	0.00e+00	0	35	0	1778384896	50	4152
2026-01-17 11:35:46.14	148.02	52.93	-40.7	-41.5	23.1	0.00e+00	0	35	0	1800404992	51	4302
2026-01-17 11:35:50.18	147.83	54.41	-40.7	-41.5	23.0	0.00e+00	0	35	0	1823473664	52	4061
2026-01-17 11:35:54.21	147.63	55.92	-40.0	-40.8	23.6	0.00e+00	0	35	0	1845493760	52	3760
2026-01-17 11:35:58.24	147.39	57.47	-40.4	-41.1	23.4	0.00e+00	0	35	0	1868562432	51	4139
2026-01-17 11:36:02.28	147.13	59.07	-39.4	-40.1	24.3	0.00e+00	0	35	0	1891631104	50	3900
2026-01-17 11:36:06.32	146.83	60.71	-39.4	-40.2	24.3	0.00e+00	0	35	0	1913651200	50	3930
2026-01-17 11:36:10.35	146.48	62.39	-39.6	-40.4	24.1	0.00e+00	0	35	0	1936719872	50	4016
2026-01-17 11:36:14.38	146.08	64.11	-38.7	-39.4	24.9	0.00e+00	0	35	0	1959788544	49	3817
2026-01-17 11:36:18.42	145.61	65.87	-38.4	-39.1	25.2	0.00e+00	0	35	0	1981808640	48	3902
2026-01-17 11:36:22.45	145.06	67.67	-38.4	-39.1	25.3	0.00e+00	0	35	0	2004877312	48	3886
2026-01-17 11:36:26.48	144.40	69.50	-37.9	-38.6	25.2	0.00e+00	0	35	0	2027945984	47	3895
2026-01-17 11:36:30.52	143.59	71.37	-37.6	-38.3	25.4	0.00e+00	0	35	0	2049966080	46	3993
2026-01-17 11:36:34.55	142.59	73.27	-37.3	-38.0	25.7	0.00e+00	0	35	0	2073034752	46	3847
2026-01-17 11:36:38.58	141.30	75.19	-37.6	-38.4	25.4	0.00e+00	0	35	0	2096103424	46	4012
2026-01-17 11:36:42.62	139.61	77.13	-37.2	-37.9	25.7	0.00e+00	0	35	0	2118123520	46	3821
2026-01-17 11:36:46.65	137.30	79.08	-36.2	-36.8	26.7	0.00e+00	0	35	0	2141192192	44	3775
2026-01-17 11:36:50.69	133.94	81.03	-36.3	-36.9	26.6	0.00e+00	0	35	0	2164260864	44	3810
2026-01-17 11:36:54.72	128.71	82.94	-35.6	-36.3	27.0	0.00e+00	0	35	0	2186280960	43	3740
2026-01-17 11:36:58.75	119.68	84.76	-36.4	-37.0	26.4	0.00e+00	0	35	0	2209349632	43	4091
2026-01-17 11:37:02.79	101.94	86.34	-37.0	-37.7	25.9	0.00e+00	0	35	0	2231369728	44	4182
2026-01-17 11:37:06.82	67.63	87.17	-37.5	-38.2	25.6	0.00e+00	0	35	0	2254438400	46	3945
2026-01-17 11:37:10.86	29.43	86.65	-37.1	-37.8	25.9	0.00e+00	0	35	0	2277507072	46	3768
2026-01-17 11:37:14.90	8.08	85.20	-36.7	-37.3	26.3	0.00e+00	0	35	0	2299527168	45	3777
2026-01-17 11:37:18.93	357.48	83.42	-35.8	-36.5	26.9	0.00e+00	0	35	0	2322595840	43	3826
2026-01-17 11:37:22.97	351.51	81.52	-35.7	-36.4	27.0	0.00e+00	0	35	0	2345664512	43	3785
2026-01-17 11:37:27.00	347.79	79.58	-36.1	-36.7	26.7	0.00e+00	0	35	0	2367684608	43	3956
2026-01-17 11:37:31.04	345.25	77.63	-36.4	-37.1	26.4	0.00e+00	0	35	0	2390753280	43	4135
2026-01-17 11:37:35.07	343.43	75.69	-36.9	-37.6	26.1	0.00e+00	0	35	0	2413821952	44	4124
2026-01-17 11:37:39.10	342.06	73.77	-37.4	-38.1	25.8	0.00e+00	0	35	0	2435842048	45	4118
2026-01-17 11:37:43.14	340.99	71.86	-37.3	-38.0	25.9	0.00e+00	0	35	0	2458910720	45	4065
2026-01-17 11:37:47.17	340.14	69.99	-38.1	-38.8	25.2	0.00e+00	0	35	0	2481979392	46	4209
2026-01-17 11:37:51.21	339.44	68.15	-38.2	-38.9	25.1	0.00e+00	0	35	0	2503999488	47	4032
2026-01-17 11:37:55.24	338.87	66.34	-38.0	-38.7	25.3	0.00e+00	0	35	0	2527068160	47	3931
2026-01-17 11:37:59.28	338.38	64.57	-38.4	-39.2	24.9	0.00e+00	0	35	0	2550136832	47	4150
2026-01-17 11:38:03.31	337.97	62.85	-38.2	-38.9	25.0	0.00e+00	0	35	0	2572156928	47	4045
2026-01-17 11:38:07.34	337.61	61.16	-38.3	-39.0	25.0	0.00e+00	0	35	0	2594177024	47	4067
2026-01-17 11:38:11.37	337.30	59.51	-39.2	-39.9	24.7	0.00e+00	0	35	0	2617245696	49	4043
2026-01-17 11:38:15.40	337.03	57.91	-39.7	-40.4	24.3	0.00e+00	0	35	0	2640314368	49	4272
2026-01-17 11:38:19.44	336.79	56.35	-39.8	-40.6	24.1	0.00e+00	0	35	0	2662334464	50	4104
2026-01-17 11:38:23.47	336.57	54.83	-40.1	-40.8	23.9	0.00e+00	0	35	0	2685403136	50	4240
2026-01-17 11:38:27.51	336.38	53.35	-39.9	-40.6	24.0	0.00e+00	0	35	0	2708471808	50	4131
2026-01-17 11:38:31.55	336.21	51.91	-40.0	-40.7	24.0	0.00e+00	0	35	0	2731540480	51	3945
2026-01-17 11:38:35.58	336.06	50.52	-39.2	-39.9	24.7	0.00e+00	0	35	0	2753560576	50	3814
2026-01-17 11:38:39.61	335.92	49.17	-39.1	-39.8	24.7	0.00e+00	0	35	0	2776629248	49	3997
2026-01-17 11:38:43.64	335.79	47.86	-38.7	-39.3	25.2	0.00e+00	0	35	0	2798649344	49	3772
2026-01-17 11:38:47.67	335.68	46.59	-39.0	-39.7	24.9	0.00e+00	0	35	0	2821718016	49	3935
2026-01-17 11:38:51.71	335.57	45.35	-39.1	-39.8	24.8	0.00e+00	0	35	0	2844786688	49	3981
2026-01-17 11:38:55.74	335.48	44.15	-38.9	-39.6	24.9	0.00e+00	0	35	0	2866806784	49	3907
2026-01-17 11:38:59.78	335.39	42.98	-39.2	-40.0	24.6	0.00e+00	0	35	0	2889875456	49	4067
2026-01-17 11:39:03.81	335.31	41.86	-38.9	-39.6	24.9	0.00e+00	0	35	0	2912944128	49	3907
2026-01-17 11:39:07.84	335.23	40.76	-38.5	-39.2	25.3	0.00e+00	0	35	0	2934964224	49	3712
2026-01-17 11:39:11.88	335.17	39.70	-38.4	-39.1	25.3	0.00e+00	0	35	0	2958032896	48	3899
2026-01-17 11:39:15.91	335.10	38.67	-38.0	-38.6	25.7	0.00e+00	0	35	0	2980052992	48	3692
2026-01-17 11:39:19.95	335.04	37.67	-37.8	-38.5	25.3	0.00e+00	0	35	0	3003121664	47	3857
2026-01-17 11:39:23.98	334.99	36.69	-38.5	-39.2	24.7	0.00e+00	0	35	0	3026190336	47	4182
2026-01-17 11:39:28.01	334.94	35.75	-38.4	-39.2	24.7	0.00e+00	0	35	0	3048210432	47	4159
2026-01-17 11:39:32.05	334.89	34.83	-38.3	-39.0	24.9	0.00e+00	0	35	0	3071279104	47	4054
2026-01-17 11:39:36.08	334.85	33.94	-38.2	-38.9	24.9	0.00e+00	0	35	0	3094347776	47	4049
2026-01-17 11:39:40.12	334.81	33.08	-38.6	-39.4	24.5	0.00e+00	0	35	0	3116367872	47	4252
2026-01-17 11:39:44.15	334.78	32.24	-39.2	-39.9	24.5	0.00e+00	0	35	0	3139436544	49	4049
2026-01-17 11:39:48.18	334.74	31.42	-39.0	-39.7	24.7	0.00e+00	0	35	0	3162505216	49	3921
2026-01-17 11:39:52.22	334.71	30.62	-38.9	-39.6	24.8	0.00e+00	0	35	0	3184525312	49	3870
2026-01-17 11:39:56.26	334.68	29.85	-38.8	-39.5	24.9	0.00e+00	0	35	0	3207593984	49	3835
2026-01-17 11:40:00.29	334.65	29.09	-38.8	-39.5	24.8	0.00e+00	0	35	0	3230662656	49	3863
2026-01-17 11:40:04.32	334.63	28.36	-38.9	-39.6	24.7	0.00e+00	0	35	0	3252682752	49	3910
2026-01-17 11:40:08.36	334.60	27.64	-38.7	-39.4	24.9	0.00e+00	0	35	0	3275751424	49	3794
2026-01-17 11:40:12.39	334.58	26.95	-38.7	-39.3	24.9	0.00e+00	0	35	0	3298820096	49	3779
2026-01-17 11:40:16.43	334.56	26.27	-39.0	-39.7	24.6	0.00e+00	0	35	0	3320840192	49	3923
2026-01-17 11:40:20.46	334.54	25.60	-39.2	-40.0	24.3	0.00e+00	0	35	0	3343908864	49	4063
2026-01-17 11:40:24.50	334.53	24.96	-39.4	-40.1	24.2	0.00e+00	0	35	0	3365928960	49	4127
2026-01-17 11:40:28.53	334.51	24.33	-39.4	-40.1	24.2	0.00e+00	0	35	0	3388997632	49	4115
2026-01-17 11:40:32.57	334.50	23.71	-39.4	-40.1	24.1	0.00e+00	0	35	0	3412066304	49	4142
2026-01-17 11:40:36.60	334.48	23.11	-39.6	-40.3	24.0	0.00e+00	0	35	0	3434086400	49	4218
2026-01-17 11:40:40.64	334.47	22.52	-39.7	-40.5	23.8	0.00e+00	0	35	0	3457155072	50	4066
2026-01-17 11:40:44.67	334.46	21.94	-39.9	-40.7	23.6	0.00e+00	0	35	0	3480223744	50	4164
2026-01-17 11:40:48.70	334.45	21.38	-39.9	-40.7	23.6	0.00e+00	0	35	0	3502243840	50	4155
2026-01-17 11:40:52.73	334.44	20.83	-39.9	-40.7	23.6	0.00e+00	0	35	0	3525312512	50	4161
2026-01-17 11:40:56.77	334.43	20.29	-40.1	-40.8	23.4	0.00e+00	0	35	0	3548381184	50	4235
2026-01-17 11:41:00.80	334.42	19.77	-40.1	-40.9	23.4	0.00e+00	0	35	0	3570401280	50	4254
2026-01-17 11:41:04.84	334.42	19.25	-40.2	-41.0	23.3	0.00e+00	0	35	0	3593469952	51	4053
2026-01-17 11:41:08.87	334.41	18.74	-40.3	-41.1	23.2	0.00e+00	0	35	0	3616538624	51	4119
2026-01-17 11:41:12.91	334.41	18.25	-40.5	-41.2	23.0	0.00e+00	0	35	0	3638558720	51	4188
2026-01-17 11:41:16.94	334.40	17.76	-40.6	-41.4	22.9	0.00e+00	0	35	0	3661627392	51	4246
2026-01-17 11:41:20.98	334.40	17.29	-40.6	-41.4	22.8	0.00e+00	0	35	0	3683647488	52	4023
2026-01-17 11:41:25.02	334.39	16.82	-40.7	-41.5	22.6	0.00e+00	0	35	0	3706716160	52	4098
2026-01-17 11:41:29.06	334.39	16.36	-40.9	-41.7	22.4	0.00e+00	0	35	0	3729784832	52	4178
2026-01-17 11:41:33.09	334.39	15.91	-41.1	-42.0	22.1	0.00e+00	0	35	0	3751804928	52	4313
2026-01-17 11:41:37.13	334.39	15.47	-41.1	-41.9	22.2	0.00e+00	0	35	0	3774873600	52	4278
2026-01-17 11:41:41.17	334.39	15.04	-41.3	-42.2	21.9	0.00e+00	0	35	0	3797942272	53	4161
2026-01-17 11:41:45.21	334.39	14.61	-41.3	-42.1	21.9	0.00e+00	0	35	0	3819962368	53	4139
2026-01-17 11:41:49.25	334.39	14.19	-41.4	-42.3	21.8	0.00e+00	0	35	0	3843031040	53	4207
2026-01-17 11:41:53.28	334.39	13.78	-41.6	-42.4	21.6	0.00e+00	0	35	0	3866099712	53	4283
2026-01-17 11:41:57.31	334.39	13.37	-41.8	-42.6	21.4	0.00e+00	0	35	0	3888119808	54	4141
2026-01-17 11:42:01.34	334.39	12.98	-41.9	-42.7	21.3	0.00e+00	0	35	0	3911188480	54	4186
2026-01-17 11:42:05.38	334.39	12.59	-41.9	-42.7	21.3	0.00e+00	0	35	0	3934257152	54	4188
2026-01-17 11:42:09.41	334.40	12.20	-42.0	-42.9	21.2	0.00e+00	0	35	0	3956277248	54	4245
2026-01-17 11:42:13.45	334.40	11.82	-42.1	-43.0	21.0	0.00e+00	0	35	0	3979345920	55	4072
2026-01-17 11:42:17.49	334.40	11.45	-42.2	-43.1	20.9	0.00e+00	0	35	0	4002414592	55	4132
2026-01-17 11:42:21.52	334.40	11.08	-42.2	-43.1	20.8	0.00e+00	0	35	0	4024434688	55	4135
2026-01-17 11:42:25.55	334.41	10.72	-42.3	-43.2	20.7	0.00e+00	0	35	0	4047503360	55	4191
2026-01-17 11:42:29.59	334.41	10.36	-42.5	-43.5	20.5	0.00e+00	0	35	0	4069523456	55	4293
2026-01-17 11:42:33.63	334.42	10.01	-42.6	-43.6	20.3	0.00e+00	0	35	0	4092592128	55	4381
2026-01-17 11:42:37.66	334.42	9.66	-42.8	-43.7	20.2	0.00e+00	0	35	0	4115660800	56	4185
2026-01-17 11:42:41.70	334.43	9.32	-43.0	-43.9	20.0	0.00e+00	0	35	0	4137680896	56	4288
2026-01-17 11:42:45.74	334.43	8.98	-42.9	-43.9	20.0	0.00e+00	0	35	0	4160749568	56	4268
2026-01-17 11:42:49.77	334.44	8.65	-43.5	-44.6	19.4	0.00e+00	0	35	0	4183818240	57	4349
2026-01-17 11:42:53.80	334.44	8.32	-43.4	-44.4	19.5	0.00e+00	0	35	0	4205838336	57	4270
2026-01-17 11:42:57.84	334.45	7.99	-43.2	-44.2	19.6	0.00e+00	0	35	0	4228907008	57	4185
2026-01-17 11:43:01.88	334.46	7.67	-43.2	-44.2	19.6	0.00e+00	0	35	0	4251975680	57	4161
2026-01-17 11:43:05.91	334.46	7.35	-43.4	-44.5	19.3	0.00e+00	0	35	0	4273995776	57	4310
2026-01-17 11:43:09.95	334.47	7.04	-43.7	-44.8	19.0	0.00e+00	0	35	0	4297064448	58	4206
2026-01-17 11:43:13.99	334.48	6.73	-43.4	-44.5	19.2	0.00e+00	0	35	0	4320133120	58	4080
2026-01-17 11:43:18.02	334.48	6.43	-43.7	-44.9	18.8	0.00e+00	0	35	0	4342153216	58	4245
2026-01-17 11:43:22.06	334.49	6.13	-43.9	-45.0	18.6	0.00e+00	0	35	0	4365221888	58	4318
2026-01-17 11:43:26.09	334.50	5.83	-44.1	-45.3	18.2	0.00e+00	0	35	0	4388290560	58	4477
2026-01-17 11:43:30.12	334.51	5.53	-44.4	-45.7	17.7	0.00e+00	0	35	0	4410310656	59	4427
2026-01-17 11:43:34.16	334.52	5.24	-43.4	-44.6	18.6	0.00e+00	0	35	0	4433379328	58	4109
2026-01-17 11:43:38.19	334.52	4.95	-51.7	-63.9	3.8	7.98e-01	0	35	104	4453302272	73	15982
2026-01-17 11:43:42.23	334.53	4.67	-52.8	-65.3	3.8	8.46e-01	0	35	104	4453302272	77	14892
2026-01-17 11:43:46.26	334.54	4.39	-53.7	-65.7	3.8	8.46e-01	0	35	104	4453302272	77	15669
2026-01-17 11:43:50.30	334.55	4.11	-53.8	-65.8	3.8	8.47e-01	0	35	104	4453302272	78	14966
2026-01-17 11:43:54.33	334.56	3.83	-53.9	-65.9	3.8	8.46e-01	0	35	104	4453302272	78	15087
2026-01-17 11:43:58.37	334.57	3.56	-53.9	-65.9	3.8	8.47e-01	0	35	104	4453302272	78	15077
2026-01-17 11:44:02.40	334.58	3.29	-53.8	-65.8	3.8	8.46e-01	0	35	104	4453302272	78	14971
2026-01-17 11:44:06.43	334.59	3.02	-53.8	-65.8	3.8	8.47e-01	0	35	104	4453302272	78	14936
2026-01-17 11:44:10.47	334.60	2.75	-53.8	-65.8	3.8	8.46e-01	0	35	104	4453302272	78	14895
2026-01-17 11:44:14.50	334.61	2.49	-53.8	-65.8	3.8	8.47e-01	0	35	104	4453302272	78	14966
2026-01-17 11:44:18.54	334.62	2.23	-53.7	-65.8	3.8	8.47e-01	0	35	104	4453302272	78	14920
2026-01-17 11:44:22.57	334.63	1.97	-53.7	-65.8	3.8	8.46e-01	0	35	104	4453302272	78	14956

#Closed at: 2026-01-17 11:44:25
#Recorded file [4453 MB]: D:/lorett/data/31041_260117_142954.dat