passes_logs/2026/01/17/R3.2S_Murmansk/R3.2S_Murmansk__20260117_003353_SUOMI_NPP_rec.log

#Pass ID: 20260117_003353_SUOMI NPP
#Satellite: SUOMI NPP
#Configuration: NPP
#almurnet v.1.7.20251203
#Start time: 2026-01-17 00:33:53

#Version: 2.2.20231116
#Station: R3.2S_Murmansk
#Location: 33.079688 lon 68.888172 lat
#TLE: 1 37849U 11061A   26015.94982489  .00000054  00000+0  46705-4 0  9991
#TLE: 2 37849  98.7812 317.9902 0002438  62.0366 298.1057 14.19525452736847

#Time	Az	El	Level	Level2	SNR	BER	BlckErr	Temp	State	Recorded	gain1	gain2
2026-01-17 00:33:53.81	23.84	2.05	-51.3	-66.3	3.8	1.49e+00	0	34	0	0	74	19943
2026-01-17 00:33:57.85	23.87	2.31	-51.3	-66.1	3.8	1.49e+00	0	34	104	0	73	20545
2026-01-17 00:34:01.88	23.91	2.57	-51.3	-65.6	3.8	1.49e+00	0	34	104	0	73	19574
2026-01-17 00:34:05.91	23.95	2.83	-51.2	-65.0	3.8	1.49e+00	0	34	104	0	73	18184
2026-01-17 00:34:09.95	23.99	3.10	-51.2	-63.4	4.0	1.49e+00	0	34	104	0	73	15216
2026-01-17 00:34:13.98	24.02	3.37	-50.7	-58.9	6.2	4.47e-01	0	34	0	4194304	73	9004
2026-01-17 00:34:18.01	24.06	3.64	-49.6	-54.6	10.6	4.92e-03	0	34	0	12582912	71	6185
2026-01-17 00:34:22.04	24.10	3.91	-48.9	-52.8	12.4	1.66e-04	0	34	0	19922944	69	5620
2026-01-17 00:34:26.08	24.14	4.19	-48.6	-52.2	13.0	6.86e-05	0	34	0	27262976	68	5583
2026-01-17 00:34:30.11	24.18	4.47	-49.2	-53.6	11.5	4.01e-04	0	34	0	34603008	69	6193
2026-01-17 00:34:34.15	24.22	4.75	-49.9	-55.5	9.6	1.91e-02	0	34	0	41943040	70	7227
2026-01-17 00:34:38.18	24.26	5.04	-50.7	-58.8	6.3	2.21e-01	0	34	0	50331648	71	10029
2026-01-17 00:34:42.22	24.30	5.32	-50.3	-56.0	9.4	1.32e-02	0	34	0	57671680	72	6809
2026-01-17 00:34:46.25	24.35	5.62	-50.1	-55.1	10.5	2.85e-03	0	34	0	62914560	71	6538
2026-01-17 00:34:50.28	24.39	5.91	-49.9	-54.4	11.4	6.35e-04	0	34	0	70254592	71	6011
2026-01-17 00:34:54.32	24.43	6.21	-49.4	-53.3	12.5	1.18e-04	0	34	0	78643200	70	5612
2026-01-17 00:34:58.35	24.47	6.51	-48.8	-51.9	13.9	3.80e-06	0	34	0	85983232	69	5088
2026-01-17 00:35:02.38	24.52	6.82	-48.2	-51.0	14.9	7.00e-07	0	34	0	93323264	68	4850
2026-01-17 00:35:06.42	24.56	7.12	-48.3	-51.0	15.0	0.00e+00	0	34	0	100663296	68	4836
2026-01-17 00:35:10.45	24.61	7.44	-47.4	-49.9	16.0	0.00e+00	0	34	0	108003328	66	4771
2026-01-17 00:35:14.48	24.65	7.75	-45.9	-49.9	15.9	0.00e+00	0	34	0	116391936	63	5709
2026-01-17 00:35:18.51	24.70	8.07	-47.0	-49.5	16.3	0.00e+00	0	34	0	123731968	64	5121
2026-01-17 00:35:22.55	24.75	8.40	-47.2	-49.4	16.5	0.00e+00	0	34	0	131072000	65	4810
2026-01-17 00:35:26.58	24.79	8.73	-47.3	-49.5	16.5	0.00e+00	0	34	0	138412032	65	4857
2026-01-17 00:35:30.61	24.84	9.06	-47.3	-49.5	16.5	0.00e+00	0	34	0	146800640	65	4864
2026-01-17 00:35:34.64	24.89	9.40	-47.0	-48.9	17.1	0.00e+00	0	34	0	154140672	65	4545
2026-01-17 00:35:38.68	24.94	9.74	-46.7	-48.6	17.5	0.00e+00	0	34	0	161480704	65	4366
2026-01-17 00:35:42.71	24.99	10.09	-46.6	-48.6	17.5	0.00e+00	0	34	0	168820736	65	4351
2026-01-17 00:35:46.74	25.04	10.44	-46.4	-48.3	17.8	0.00e+00	0	34	0	176160768	64	4462
2026-01-17 00:35:50.77	25.09	10.80	-46.4	-48.1	18.0	0.00e+00	0	34	0	184549376	64	4391
2026-01-17 00:35:54.81	25.14	11.16	-46.3	-48.0	18.2	0.00e+00	0	34	0	191889408	64	4318
2026-01-17 00:35:58.84	25.20	11.53	-46.1	-47.8	18.4	0.00e+00	0	34	0	199229440	64	4196
2026-01-17 00:36:02.88	25.25	11.90	-46.0	-47.7	18.6	0.00e+00	0	34	0	206569472	63	4418
2026-01-17 00:36:06.91	25.31	12.28	-46.0	-47.6	18.7	0.00e+00	0	34	0	213909504	63	4357
2026-01-17 00:36:10.94	25.36	12.67	-45.9	-47.4	18.9	0.00e+00	0	34	0	222298112	63	4276
2026-01-17 00:36:14.97	25.42	13.06	-45.7	-47.3	19.1	0.00e+00	0	34	0	229638144	63	4196
2026-01-17 00:36:19.01	25.48	13.46	-45.4	-46.8	19.5	0.00e+00	0	34	0	236978176	62	4222
2026-01-17 00:36:23.04	25.54	13.86	-45.5	-46.9	19.5	0.00e+00	0	34	0	244318208	62	4273
2026-01-17 00:36:27.08	25.60	14.27	-45.4	-46.8	19.5	0.00e+00	0	34	0	251658240	62	4232
2026-01-17 00:36:31.11	25.66	14.69	-45.6	-47.1	19.3	0.00e+00	0	34	0	260046848	62	4353
2026-01-17 00:36:35.14	25.72	15.11	-45.6	-47.1	19.3	0.00e+00	0	34	0	267386880	62	4353
2026-01-17 00:36:39.17	25.79	15.55	-45.4	-46.9	19.5	0.00e+00	0	34	0	274726912	62	4246
2026-01-17 00:36:43.21	25.85	15.99	-45.3	-46.7	19.7	0.00e+00	0	34	0	282066944	62	4180
2026-01-17 00:36:47.24	25.92	16.44	-45.3	-46.7	19.7	0.00e+00	0	34	0	290455552	62	4160
2026-01-17 00:36:51.27	25.99	16.90	-45.3	-46.7	19.7	0.00e+00	0	34	0	297795584	62	4187
2026-01-17 00:36:55.30	26.06	17.36	-45.5	-46.9	19.6	0.00e+00	0	34	0	305135616	62	4249
2026-01-17 00:36:59.34	26.13	17.84	-45.8	-47.3	19.3	0.00e+00	0	34	0	312475648	62	4450
2026-01-17 00:37:03.37	26.21	18.32	-46.1	-47.6	19.0	0.00e+00	0	34	0	319815680	62	4624
2026-01-17 00:37:07.41	26.28	18.82	-46.1	-47.6	19.0	0.00e+00	0	34	0	328204288	62	4643
2026-01-17 00:37:11.44	26.36	19.32	-46.2	-47.7	18.9	0.00e+00	0	34	0	335544320	62	4694
2026-01-17 00:37:15.48	26.44	19.84	-46.4	-48.1	18.6	0.00e+00	0	34	0	342884352	63	4604
2026-01-17 00:37:19.51	26.52	20.36	-46.7	-48.5	18.1	0.00e+00	0	34	0	350224384	64	4561
2026-01-17 00:37:23.54	26.61	20.90	-46.9	-48.6	18.0	0.00e+00	0	34	0	358612992	64	4646
2026-01-17 00:37:27.58	26.69	21.45	-47.0	-48.8	17.9	0.00e+00	0	34	0	365953024	65	4484
2026-01-17 00:37:31.61	26.78	22.01	-47.0	-48.9	17.8	0.00e+00	0	34	0	373293056	65	4504
2026-01-17 00:37:35.64	26.88	22.59	-47.3	-49.3	17.4	0.00e+00	0	34	0	380633088	65	4718
2026-01-17 00:37:39.67	26.97	23.17	-47.1	-48.9	17.7	0.00e+00	0	34	0	387973120	65	4540
2026-01-17 00:37:43.70	27.07	23.77	-47.2	-49.1	17.7	0.00e+00	0	34	0	395313152	65	4618
2026-01-17 00:37:47.74	27.17	24.39	-46.8	-48.5	18.2	0.00e+00	0	34	0	403701760	65	4313
2026-01-17 00:37:51.77	27.27	25.02	-46.7	-48.4	18.3	0.00e+00	0	34	0	411041792	65	4253
2026-01-17 00:37:55.80	27.38	25.66	-46.8	-48.5	18.2	0.00e+00	0	34	0	418381824	65	4339
2026-01-17 00:37:59.83	27.49	26.32	-46.3	-47.9	18.8	0.00e+00	0	34	0	425721856	64	4243
2026-01-17 00:38:03.86	27.61	27.00	-46.7	-48.4	18.4	0.00e+00	0	34	0	434110464	64	4516
2026-01-17 00:38:07.90	27.73	27.70	-46.7	-48.4	18.3	0.00e+00	0	34	0	441450496	64	4517
2026-01-17 00:38:11.93	27.85	28.41	-46.6	-48.3	18.5	0.00e+00	0	34	0	448790528	64	4462
2026-01-17 00:38:15.96	27.98	29.14	-46.7	-48.4	18.4	0.00e+00	0	34	0	456130560	64	4504
2026-01-17 00:38:20.00	28.12	29.89	-46.9	-48.7	18.2	0.00e+00	0	34	0	463470592	64	4662
2026-01-17 00:38:24.03	28.26	30.66	-47.5	-49.5	17.4	0.00e+00	0	34	0	471859200	65	4856
2026-01-17 00:38:28.06	28.40	31.45	-48.1	-50.3	16.6	0.00e+00	0	34	0	479199232	67	4728
2026-01-17 00:38:32.10	28.56	32.27	-49.5	-52.4	14.6	0.00e+00	0	34	0	486539264	69	5362
2026-01-17 00:38:36.13	28.72	33.10	-49.3	-52.0	15.1	7.00e-07	0	34	0	493879296	69	5150
2026-01-17 00:38:40.17	28.89	33.97	-48.6	-50.9	16.1	0.00e+00	0	34	0	501219328	69	4544
2026-01-17 00:38:44.20	29.06	34.85	-47.1	-48.9	18.0	0.00e+00	0	34	0	509607936	66	4290
2026-01-17 00:38:48.24	29.25	35.76	-45.9	-47.4	19.5	0.00e+00	0	34	0	516947968	63	4244
2026-01-17 00:38:52.27	29.44	36.70	-45.6	-47.0	19.9	0.00e+00	0	34	0	524288000	62	4293
2026-01-17 00:38:56.31	29.65	37.66	-45.9	-47.3	19.6	0.00e+00	0	34	0	531628032	62	4472
2026-01-17 00:39:00.34	29.87	38.65	-46.3	-47.8	19.1	0.00e+00	0	34	0	540016640	63	4464
2026-01-17 00:39:04.38	30.10	39.68	-46.1	-47.6	19.4	0.00e+00	0	34	0	547356672	63	4352
2026-01-17 00:39:08.41	30.34	40.73	-46.5	-48.0	18.9	0.00e+00	0	34	0	554696704	63	4586
2026-01-17 00:39:12.44	30.60	41.81	-46.6	-48.2	18.7	0.00e+00	0	34	0	562036736	64	4411
2026-01-17 00:39:16.48	30.88	42.93	-45.6	-47.0	19.9	0.00e+00	0	34	0	569376768	63	4060
2026-01-17 00:39:20.51	31.18	44.08	-45.3	-46.5	20.4	0.00e+00	0	34	0	577765376	62	4090
2026-01-17 00:39:24.54	31.49	45.26	-46.5	-48.0	18.9	0.00e+00	0	34	0	585105408	64	4322
2026-01-17 00:39:28.57	31.83	46.48	-48.4	-50.7	16.4	0.00e+00	0	34	0	592445440	67	4942
2026-01-17 00:39:32.60	32.20	47.73	-48.6	-50.9	16.2	0.00e+00	0	34	0	599785472	68	4778
2026-01-17 00:39:36.64	32.60	49.03	-46.8	-48.5	18.5	0.00e+00	0	34	0	608174080	65	4309
2026-01-17 00:39:40.68	33.03	50.36	-45.1	-46.3	20.6	0.00e+00	0	34	0	615514112	62	3973
2026-01-17 00:39:44.71	33.50	51.72	-45.2	-46.5	20.4	0.00e+00	0	34	0	622854144	62	4081
2026-01-17 00:39:48.74	34.02	53.13	-44.3	-45.4	21.4	0.00e+00	0	34	0	630194176	60	4048
2026-01-17 00:39:52.77	34.58	54.57	-44.4	-45.5	21.4	0.00e+00	0	34	0	637534208	60	4082
2026-01-17 00:39:56.81	35.21	56.05	-43.7	-44.8	22.3	0.00e+00	0	34	0	645922816	58	4194
2026-01-17 00:40:00.84	35.90	57.57	-44.3	-45.4	21.4	0.00e+00	0	34	0	653262848	60	4040
2026-01-17 00:40:04.87	36.68	59.12	-44.2	-45.3	21.8	0.00e+00	0	34	0	660602880	59	4221
2026-01-17 00:40:08.91	37.55	60.72	-44.4	-45.5	21.4	0.00e+00	0	34	0	667942912	60	4094
2026-01-17 00:40:12.94	38.54	62.34	-43.6	-44.6	22.5	0.00e+00	0	34	0	675282944	58	4116
2026-01-17 00:40:16.97	39.67	64.00	-44.7	-45.9	21.0	0.00e+00	0	34	0	683671552	60	4270
2026-01-17 00:40:21.00	40.97	65.68	-44.6	-45.8	21.2	0.00e+00	0	34	0	691011584	60	4207
2026-01-17 00:40:25.04	42.49	67.39	-46.5	-48.1	19.1	0.00e+00	0	34	0	698351616	63	4619
2026-01-17 00:40:29.07	44.28	69.12	-46.5	-48.1	18.9	0.00e+00	0	34	0	705691648	64	4355
2026-01-17 00:40:33.11	46.42	70.86	-48.5	-50.7	16.5	0.00e+00	0	34	0	714080256	67	4970
2026-01-17 00:40:37.14	49.01	72.59	-46.9	-48.6	18.4	0.00e+00	0	34	0	721420288	65	4341
2026-01-17 00:40:41.17	52.20	74.31	-48.4	-50.7	16.4	0.00e+00	0	34	0	728760320	67	4931
2026-01-17 00:40:45.20	56.20	76.00	-48.3	-50.5	16.7	0.00e+00	0	34	0	736100352	67	4830
2026-01-17 00:40:49.24	61.32	77.63	-49.7	-52.6	14.7	0.00e+00	0	34	0	743440384	70	5167
2026-01-17 00:40:53.28	67.97	79.15	-50.2	-53.5	13.9	2.20e-06	0	34	0	750780416	71	5418
2026-01-17 00:40:57.31	76.66	80.48	-49.1	-51.7	15.8	0.00e+00	0	34	0	759169024	69	4939
2026-01-17 00:41:01.34	87.88	81.55	-47.9	-50.0	17.1	0.00e+00	0	34	0	766509056	67	4554
2026-01-17 00:41:05.37	101.68	82.22	-47.4	-49.2	17.9	0.00e+00	0	34	0	773849088	66	4409
2026-01-17 00:41:09.41	117.06	82.37	-45.4	-46.7	20.3	0.00e+00	0	34	0	781189120	62	4183
2026-01-17 00:41:13.45	131.99	81.99	-48.8	-51.3	16.0	0.00e+00	0	34	0	789577728	69	4712
2026-01-17 00:41:17.48	144.76	81.14	-47.2	-48.9	18.2	0.00e+00	0	34	0	796917760	65	4515
2026-01-17 00:41:21.51	154.87	79.94	-49.9	-53.1	14.3	0.00e+00	0	34	0	804257792	70	5469
2026-01-17 00:41:25.55	162.64	78.52	-48.0	-50.1	17.2	0.00e+00	0	34	0	811597824	66	4879
2026-01-17 00:41:29.58	168.57	76.95	-48.2	-50.3	16.9	0.00e+00	0	34	0	818937856	67	4757
2026-01-17 00:41:33.61	173.18	75.29	-46.4	-47.9	19.1	0.00e+00	0	34	0	827326464	64	4249
2026-01-17 00:41:37.64	176.81	73.59	-47.1	-48.8	18.2	0.00e+00	0	34	0	834666496	65	4486
2026-01-17 00:41:41.68	179.73	71.85	-48.6	-50.8	16.3	0.00e+00	0	34	0	842006528	67	5024
2026-01-17 00:41:45.72	182.12	70.11	-47.1	-48.7	18.4	0.00e+00	0	34	0	849346560	65	4432
2026-01-17 00:41:49.76	184.10	68.37	-48.1	-50.1	17.0	7.00e-07	0	34	0	857735168	68	4385
2026-01-17 00:41:53.79	185.76	66.65	-45.8	-47.1	20.0	0.00e+00	0	34	0	865075200	63	4125
2026-01-17 00:41:57.83	187.19	64.94	-46.1	-47.6	19.5	0.00e+00	0	34	0	872415232	62	4599
2026-01-17 00:42:01.86	188.41	63.27	-46.4	-47.9	19.2	0.00e+00	0	34	0	879755264	63	4509
2026-01-17 00:42:05.90	189.48	61.62	-46.8	-48.4	18.7	0.00e+00	0	34	0	887095296	64	4504
2026-01-17 00:42:09.93	190.41	60.00	-47.1	-48.8	18.3	0.00e+00	0	34	0	895483904	65	4449
2026-01-17 00:42:13.96	191.24	58.43	-46.3	-47.8	19.1	0.00e+00	0	34	0	902823936	64	4234
2026-01-17 00:42:18.00	191.98	56.88	-44.8	-46.0	21.0	0.00e+00	0	34	0	910163968	60	4298
2026-01-17 00:42:22.04	192.64	55.37	-46.7	-48.3	18.9	0.00e+00	0	34	0	917504000	63	4733
2026-01-17 00:42:26.07	193.24	53.91	-46.9	-48.6	18.5	0.00e+00	0	34	0	924844032	64	4643
2026-01-17 00:42:30.10	193.78	52.48	-47.5	-49.3	17.8	0.00e+00	0	34	0	933232640	66	4469
2026-01-17 00:42:34.13	194.28	51.09	-47.2	-48.9	18.1	0.00e+00	0	34	0	940572672	66	4262
2026-01-17 00:42:38.17	194.73	49.73	-46.5	-48.1	19.0	0.00e+00	0	34	0	947912704	64	4343
2026-01-17 00:42:42.20	195.15	48.42	-48.0	-50.1	17.0	0.00e+00	0	34	0	955252736	66	4878
2026-01-17 00:42:46.24	195.53	47.14	-48.8	-51.4	15.6	0.00e+00	0	34	0	963641344	69	4797
2026-01-17 00:42:50.28	195.89	45.89	-46.4	-47.9	19.2	0.00e+00	0	34	0	970981376	63	4503
2026-01-17 00:42:54.31	196.22	44.69	-48.3	-50.6	16.5	0.00e+00	0	34	0	978321408	67	4903
2026-01-17 00:42:58.34	196.52	43.52	-45.2	-46.5	20.3	0.00e+00	0	34	0	985661440	61	4322
2026-01-17 00:43:02.38	196.81	42.38	-46.3	-47.9	19.2	0.00e+00	0	34	0	993001472	63	4496
2026-01-17 00:43:06.41	197.08	41.27	-47.7	-49.7	17.3	0.00e+00	0	34	0	1001390080	66	4689
2026-01-17 00:43:10.45	197.33	40.20	-45.8	-47.2	19.7	0.00e+00	0	34	0	1008730112	63	4149
2026-01-17 00:43:14.48	197.57	39.16	-46.2	-47.7	19.2	0.00e+00	0	34	0	1016070144	63	4434
2026-01-17 00:43:18.51	197.79	38.15	-51.1	-56.2	10.7	8.42e-04	0	34	0	1023410176	72	6970
2026-01-17 00:43:22.55	198.00	37.16	-51.0	-56.4	10.2	5.32e-02	0	34	0	1030750208	73	6761
2026-01-17 00:43:26.59	198.20	36.21	-47.5	-49.6	17.2	0.00e+00	0	34	0	1039138816	67	4371
2026-01-17 00:43:30.62	198.39	35.28	-48.0	-50.4	16.5	0.00e+00	0	34	0	1046478848	67	4805
2026-01-17 00:43:34.66	198.57	34.38	-50.7	-55.9	11.0	1.77e-03	0	34	0	1053818880	72	6739
2026-01-17 00:43:38.69	198.75	33.50	-50.3	-54.8	11.9	1.45e-03	0	34	0	1061158912	72	5943
2026-01-17 00:43:42.73	198.91	32.65	-49.8	-53.7	13.1	8.31e-05	0	34	0	1069547520	71	5565
2026-01-17 00:43:46.76	199.07	31.82	-47.6	-49.9	16.8	0.00e+00	0	34	0	1076887552	67	4506
2026-01-17 00:43:50.79	199.22	31.02	-47.4	-49.6	17.2	0.00e+00	0	34	0	1084227584	66	4611
2026-01-17 00:43:54.83	199.36	30.23	-49.4	-52.9	14.1	7.00e-07	0	34	0	1091567616	69	5684
2026-01-17 00:43:58.86	199.49	29.47	-49.1	-52.5	14.5	1.50e-06	0	34	0	1098907648	69	5408
2026-01-17 00:44:02.90	199.63	28.72	-47.7	-50.0	16.8	0.00e+00	0	34	0	1107296256	67	4571
2026-01-17 00:44:06.93	199.75	28.00	-46.8	-48.6	18.1	0.00e+00	0	34	0	1114636288	65	4380
2026-01-17 00:44:10.96	199.87	27.29	-45.9	-47.3	19.4	0.00e+00	0	34	0	1121976320	63	4220
2026-01-17 00:44:15.00	199.99	26.60	-45.6	-47.1	19.7	0.00e+00	0	34	0	1129316352	63	4101
2026-01-17 00:44:19.03	200.10	25.93	-45.0	-46.3	20.3	0.00e+00	0	34	0	1136656384	61	4215
2026-01-17 00:44:23.07	200.21	25.28	-44.9	-46.3	20.3	0.00e+00	0	34	0	1145044992	61	4196
2026-01-17 00:44:27.10	200.32	24.64	-45.6	-47.1	19.6	0.00e+00	0	34	0	1152385024	61	4599
2026-01-17 00:44:31.14	200.42	24.01	-45.7	-47.2	19.4	0.00e+00	0	34	0	1159725056	62	4414
2026-01-17 00:44:35.17	200.51	23.40	-45.1	-46.5	20.1	0.00e+00	0	34	0	1167065088	62	4059
2026-01-17 00:44:39.21	200.61	22.81	-44.4	-45.7	20.9	0.00e+00	0	34	0	1174405120	60	4148
2026-01-17 00:44:43.24	200.70	22.22	-44.5	-45.8	20.7	0.00e+00	0	34	0	1182793728	60	4196
2026-01-17 00:44:47.28	200.79	21.65	-44.5	-45.8	20.6	0.00e+00	0	34	0	1190133760	60	4226
2026-01-17 00:44:51.31	200.88	21.10	-44.8	-46.2	20.3	0.00e+00	0	34	0	1197473792	60	4411
2026-01-17 00:44:55.35	200.96	20.55	-45.3	-46.9	19.6	0.00e+00	0	34	0	1204813824	61	4532
2026-01-17 00:44:59.39	201.04	20.02	-45.6	-47.1	19.4	0.00e+00	0	34	0	1213202432	61	4648
2026-01-17 00:45:03.38	201.12	19.50	-45.4	-47.0	19.5	0.00e+00	0	34	0	1220542464	61	4577
2026-01-17 00:45:07.41	201.20	18.99	-45.1	-46.6	19.9	0.00e+00	0	34	0	1227882496	61	4375
2026-01-17 00:45:11.43	201.27	18.49	-45.2	-46.7	19.7	0.00e+00	0	34	0	1235222528	61	4439
2026-01-17 00:45:15.46	201.35	18.00	-45.3	-46.9	19.6	0.00e+00	0	34	0	1242562560	61	4516
2026-01-17 00:45:19.49	201.42	17.52	-45.7	-47.3	19.1	0.00e+00	0	34	0	1249902592	62	4493
2026-01-17 00:45:23.53	201.49	17.05	-45.9	-47.6	18.9	0.00e+00	0	34	0	1258291200	62	4627
2026-01-17 00:45:27.56	201.55	16.58	-45.9	-47.6	18.9	0.00e+00	0	34	0	1265631232	62	4613
2026-01-17 00:45:31.60	201.62	16.13	-45.8	-47.5	18.9	0.00e+00	0	34	0	1272971264	62	4588
2026-01-17 00:45:35.63	201.69	15.68	-46.1	-47.9	18.6	0.00e+00	0	34	0	1280311296	62	4790
2026-01-17 00:45:39.66	201.75	15.24	-46.0	-48.0	18.4	0.00e+00	0	34	0	1288699904	63	4565
2026-01-17 00:45:43.70	201.81	14.81	-45.9	-48.0	18.5	0.00e+00	0	34	0	1296039936	63	4550
2026-01-17 00:45:47.73	201.87	14.39	-46.1	-48.3	18.0	0.00e+00	0	34	0	1303379968	63	4747
2026-01-17 00:45:51.76	201.93	13.97	-46.3	-48.7	17.7	0.00e+00	0	34	0	1310720000	63	4930
2026-01-17 00:45:55.80	201.99	13.56	-46.2	-48.6	17.7	0.00e+00	0	34	0	1318060032	63	4891
2026-01-17 00:45:59.83	202.05	13.16	-46.1	-48.5	17.8	0.00e+00	0	34	0	1326448640	63	4838
2026-01-17 00:46:03.86	202.10	12.76	-46.1	-48.7	17.6	0.00e+00	0	34	0	1333788672	63	4928
2026-01-17 00:46:07.89	202.16	12.38	-46.0	-48.7	17.5	0.00e+00	0	34	0	1341128704	63	4941
2026-01-17 00:46:11.92	202.21	11.99	-46.1	-48.6	17.6	0.00e+00	0	34	0	1348468736	63	4903
2026-01-17 00:46:15.96	202.26	11.61	-46.0	-48.5	17.8	0.00e+00	0	34	0	1355808768	63	4816
2026-01-17 00:46:19.99	202.31	11.24	-46.3	-48.8	17.4	0.00e+00	0	34	0	1364197376	63	5002
2026-01-17 00:46:24.03	202.36	10.88	-46.2	-48.7	17.5	0.00e+00	0	34	0	1371537408	63	4930
2026-01-17 00:46:28.06	202.41	10.52	-46.4	-48.9	17.3	0.00e+00	0	34	0	1378877440	63	5062
2026-01-17 00:46:32.01	202.46	10.17	-46.5	-48.8	17.3	0.00e+00	0	34	0	1386217472	63	5030
2026-01-17 00:46:36.04	202.51	9.82	-46.1	-48.6	17.6	0.00e+00	0	34	0	1394606080	63	4882
2026-01-17 00:46:40.07	202.56	9.47	-45.9	-48.5	17.5	0.00e+00	0	34	0	1401946112	63	4836
2026-01-17 00:46:44.10	202.60	9.13	-46.1	-48.6	17.4	0.00e+00	0	34	0	1409286144	63	4899
2026-01-17 00:46:48.14	202.65	8.79	-46.3	-48.7	17.2	0.00e+00	0	34	0	1416626176	63	4973
2026-01-17 00:46:52.17	202.69	8.46	-46.1	-48.6	17.2	0.00e+00	0	34	0	1423966208	64	4624
2026-01-17 00:46:56.21	202.74	8.13	-46.0	-48.5	17.3	0.00e+00	0	34	0	1432354816	63	4865
2026-01-17 00:47:00.24	202.78	7.81	-46.5	-49.3	16.6	0.00e+00	0	34	0	1439694848	63	5289
2026-01-17 00:47:04.28	202.82	7.49	-46.2	-49.1	16.7	0.00e+00	0	34	0	1447034880	63	5192
2026-01-17 00:47:08.31	202.87	7.18	-46.7	-49.8	15.8	0.00e+00	0	34	0	1454374912	64	5320
2026-01-17 00:47:12.34	202.91	6.86	-46.9	-50.0	15.7	0.00e+00	0	34	0	1462763520	64	5437
2026-01-17 00:47:16.37	202.95	6.56	-47.1	-49.9	15.7	0.00e+00	0	34	0	1470103552	64	5393
2026-01-17 00:47:20.41	202.99	6.25	-47.0	-49.8	15.8	0.00e+00	0	34	0	1477443584	65	5033
2026-01-17 00:47:24.44	203.03	5.95	-46.6	-49.4	16.1	0.00e+00	0	34	0	1484783616	65	4806
2026-01-17 00:47:28.47	203.07	5.65	-46.8	-49.8	15.7	0.00e+00	0	34	0	1492123648	64	5318
2026-01-17 00:47:32.50	203.11	5.36	-46.9	-49.9	15.4	1.50e-06	0	34	0	1499463680	65	5096
2026-01-17 00:47:36.54	203.15	5.07	-47.1	-50.2	15.2	0.00e+00	0	34	0	1507852288	64	5533
2026-01-17 00:47:40.57	203.19	4.78	-52.8	-67.8	3.8	1.49e+00	0	34	104	1509949440	76	21040
2026-01-17 00:47:44.60	203.22	4.50	-53.2	-68.2	3.8	1.49e+00	0	34	104	1509949440	76	22015
2026-01-17 00:47:48.64	203.26	4.22	-53.4	-68.4	3.8	1.49e+00	0	34	104	1509949440	77	21261
2026-01-17 00:47:52.68	203.30	3.94	-53.5	-68.5	3.8	1.49e+00	0	34	104	1509949440	77	21612
2026-01-17 00:47:56.71	203.33	3.66	-53.5	-68.5	3.8	1.49e+00	0	34	104	1509949440	77	21706
2026-01-17 00:48:00.74	203.37	3.39	-53.5	-68.5	3.8	1.49e+00	0	34	104	1509949440	77	21619
2026-01-17 00:48:04.78	203.40	3.12	-53.4	-68.4	3.8	1.49e+00	0	34	104	1509949440	77	21494
2026-01-17 00:48:08.81	203.44	2.85	-53.4	-68.4	3.8	1.49e+00	0	34	104	1509949440	77	21391
2026-01-17 00:48:12.85	203.47	2.58	-53.4	-68.4	3.8	1.49e+00	0	34	104	1509949440	77	21355
2026-01-17 00:48:16.88	203.51	2.32	-53.3	-68.4	3.8	1.49e+00	0	34	104	1509949440	77	21319
2026-01-17 00:48:20.92	203.54	2.06	-53.4	-68.3	3.8	1.49e+00	0	34	104	1509949440	77	21251

#Closed at: 2026-01-17 00:48:23
#Recorded file [1509 MB]: D:/lorett/data/31041_260117_033353.dat