passes_logs/2026/01/17/R3.2S_Murmansk/R3.2S_Murmansk__20260117_220446_NOAA_21_JPSS-2_rec.log

#Pass ID: 20260117_220446_NOAA 21 (JPSS-2)
#Satellite: NOAA 21 (JPSS-2)
#Configuration: NOAA-21
#almurnet v.1.7.20251203
#Start time: 2026-01-17 22:04:47

#Version: 2.2.20231116
#Station: R3.2S_Murmansk
#Location: 33.079688 lon 68.888172 lat
#TLE: 1 54234U 22150A   26017.62066529  .00000042  00000+0  40984-4 0  9994
#TLE: 2 54234  98.7502 318.4887 0000613 271.5460  88.5645 14.19535234165189

#Time	Az	El	Level	Level2	SNR	BER	BlckErr	Temp	State	Recorded	gain1	gain2
2026-01-17 22:04:47.36	18.54	2.03	-52.0	-64.6	3.8	1.49e+00	0	33	0	0	75	15564
2026-01-17 22:04:50.38	18.77	2.19	-52.0	-64.7	3.8	1.49e+00	0	33	104	0	74	16613
2026-01-17 22:04:53.40	19.01	2.35	-52.0	-64.7	3.8	1.49e+00	0	33	104	0	74	16637
2026-01-17 22:04:56.42	19.25	2.51	-51.9	-64.7	3.8	1.49e+00	0	33	104	0	74	16515
2026-01-17 22:04:59.44	19.49	2.67	-51.9	-64.6	3.8	1.49e+00	0	34	104	0	74	16409
2026-01-17 22:05:02.47	19.73	2.83	-51.9	-64.6	3.8	1.49e+00	0	33	104	0	74	16433
2026-01-17 22:05:05.49	19.98	3.00	-52.0	-64.6	3.8	1.49e+00	0	33	104	0	74	16453
2026-01-17 22:05:08.52	20.23	3.16	-51.9	-64.6	3.8	1.49e+00	0	34	104	0	74	16350
2026-01-17 22:05:11.54	20.48	3.32	-51.9	-64.7	3.8	1.49e+00	0	34	104	0	74	16520
2026-01-17 22:05:14.56	20.73	3.49	-51.9	-64.6	3.8	1.49e+00	0	34	104	0	74	16494
2026-01-17 22:05:17.58	20.98	3.65	-51.9	-64.5	3.8	1.49e+00	0	34	104	0	74	16191
2026-01-17 22:05:20.61	21.24	3.82	-51.9	-64.6	3.8	1.49e+00	0	34	104	0	74	16382
2026-01-17 22:05:23.63	21.51	3.98	-51.9	-64.6	3.8	1.49e+00	0	34	104	0	74	16403
2026-01-17 22:05:26.66	21.77	4.15	-51.9	-64.1	3.8	1.49e+00	0	34	104	0	74	15551
2026-01-17 22:05:29.68	22.04	4.31	-51.9	-64.1	3.8	1.49e+00	0	34	104	0	74	15465
2026-01-17 22:05:32.70	22.31	4.48	-51.9	-64.3	3.8	1.49e+00	0	35	104	0	74	15935
2026-01-17 22:05:35.72	22.58	4.65	-51.8	-63.1	3.8	1.49e+00	0	34	104	0	74	13739
2026-01-17 22:05:38.75	22.86	4.82	-51.5	-60.1	4.5	1.26e+00	8	35	104	0	74	9818
2026-01-17 22:05:41.77	23.14	4.98	-51.2	-58.5	5.4	5.31e-01	0	35	0	4194304	74	8145
2026-01-17 22:05:44.80	23.42	5.15	-51.5	-60.6	4.0	6.74e-01	2	35	104	13631488	74	10302
2026-01-17 22:05:47.82	23.70	5.32	-49.5	-52.9	10.5	1.30e+00	2	35	104	14680064	71	5099
2026-01-17 22:05:50.85	23.99	5.49	-47.5	-49.6	14.4	4.50e-06	0	35	0	23068672	67	4356
2026-01-17 22:05:53.87	24.28	5.66	-46.9	-48.7	15.3	0.00e+00	0	35	0	32505856	65	4407
2026-01-17 22:05:56.89	24.58	5.84	-46.6	-48.3	15.7	0.00e+00	0	35	0	41943040	65	4222
2026-01-17 22:05:59.91	24.88	6.01	-46.4	-48.0	16.0	0.00e+00	0	35	0	51380224	64	4313
2026-01-17 22:06:02.94	25.18	6.18	-46.3	-47.8	16.2	0.00e+00	0	35	0	60817408	64	4242
2026-01-17 22:06:05.96	25.48	6.35	-46.2	-47.8	16.4	0.00e+00	0	35	0	70254592	63	4466
2026-01-17 22:06:08.98	25.79	6.53	-46.2	-47.8	16.4	0.00e+00	0	35	0	79691776	63	4453
2026-01-17 22:06:12.01	26.10	6.70	-46.2	-47.7	16.5	0.00e+00	0	35	0	89128960	63	4441
2026-01-17 22:06:15.03	26.42	6.87	-45.9	-47.4	16.8	0.00e+00	0	35	0	98566144	63	4271
2026-01-17 22:06:18.06	26.74	7.05	-46.0	-47.5	16.7	0.00e+00	0	35	0	108003328	63	4333
2026-01-17 22:06:21.08	27.06	7.22	-45.9	-47.4	16.9	0.00e+00	0	35	0	117440512	63	4256
2026-01-17 22:06:24.10	27.39	7.40	-46.0	-47.5	16.7	0.00e+00	0	35	0	126877696	63	4326
2026-01-17 22:06:27.13	27.72	7.58	-45.9	-47.4	16.9	0.00e+00	0	35	0	136314880	63	4254
2026-01-17 22:06:30.15	28.05	7.75	-45.8	-47.3	17.0	0.00e+00	0	35	0	145752064	63	4206
2026-01-17 22:06:33.17	28.39	7.93	-45.5	-46.8	17.5	0.00e+00	0	35	0	155189248	63	3996
2026-01-17 22:06:36.20	28.73	8.11	-45.6	-46.9	17.4	0.00e+00	0	35	0	164626432	62	4269
2026-01-17 22:06:39.22	29.08	8.29	-45.5	-46.8	17.5	0.00e+00	0	35	0	174063616	62	4240
2026-01-17 22:06:42.24	29.43	8.46	-45.4	-46.7	17.7	0.00e+00	0	35	0	183500800	62	4187
2026-01-17 22:06:45.27	29.78	8.64	-45.4	-46.7	17.7	0.00e+00	0	35	0	192937984	62	4164
2026-01-17 22:06:48.29	30.14	8.82	-45.2	-46.5	17.9	0.00e+00	0	35	0	202375168	62	4067
2026-01-17 22:06:51.32	30.50	9.00	-45.2	-46.5	17.9	0.00e+00	0	35	0	211812352	62	4067
2026-01-17 22:06:54.34	30.87	9.18	-45.0	-46.2	18.1	0.00e+00	0	35	0	221249536	61	4188
2026-01-17 22:06:57.37	31.24	9.36	-44.9	-46.1	18.3	0.00e+00	0	35	0	230686720	61	4140
2026-01-17 22:07:00.39	31.62	9.54	-45.0	-46.3	18.2	0.00e+00	0	35	0	240123904	61	4202
2026-01-17 22:07:03.42	32.00	9.72	-45.1	-46.4	18.0	0.00e+00	0	35	0	249561088	61	4256
2026-01-17 22:07:06.44	32.38	9.90	-44.8	-46.0	18.4	0.00e+00	0	35	0	258998272	61	4092
2026-01-17 22:07:09.47	32.77	10.08	-44.8	-45.9	18.5	0.00e+00	0	35	0	268435456	61	4051
2026-01-17 22:07:12.49	33.16	10.26	-44.7	-45.8	18.6	0.00e+00	0	35	0	277872640	61	3994
2026-01-17 22:07:15.51	33.56	10.44	-44.8	-46.0	18.5	0.00e+00	0	35	0	287309824	61	4055
2026-01-17 22:07:18.54	33.97	10.63	-44.9	-46.1	18.4	0.00e+00	0	35	0	296747008	61	4115
2026-01-17 22:07:21.56	34.37	10.81	-44.8	-45.9	18.6	0.00e+00	0	35	0	306184192	61	4051
2026-01-17 22:07:24.58	34.79	10.99	-44.8	-46.0	18.6	0.00e+00	0	35	0	315621376	61	4052
2026-01-17 22:07:27.60	35.20	11.17	-44.6	-45.7	18.8	0.00e+00	0	35	0	325058560	61	3938
2026-01-17 22:07:30.63	35.63	11.35	-44.5	-45.6	18.9	0.00e+00	0	35	0	334495744	60	4131
2026-01-17 22:07:33.65	36.05	11.53	-44.7	-45.8	18.7	0.00e+00	0	35	0	343932928	60	4217
2026-01-17 22:07:36.68	36.49	11.71	-44.7	-45.9	18.6	0.00e+00	0	35	0	353370112	60	4273
2026-01-17 22:07:39.70	36.93	11.89	-44.7	-45.9	18.7	0.00e+00	0	35	0	362807296	60	4252
2026-01-17 22:07:42.72	37.37	12.08	-44.2	-45.3	19.2	0.00e+00	0	35	0	372244480	60	3988
2026-01-17 22:07:45.75	37.82	12.26	-44.2	-45.3	19.3	0.00e+00	0	35	0	381681664	60	3976
2026-01-17 22:07:48.77	38.27	12.44	-44.3	-45.4	19.1	0.00e+00	0	35	0	391118848	60	4039
2026-01-17 22:07:51.80	38.73	12.62	-44.5	-45.6	19.0	0.00e+00	0	35	0	400556032	60	4140
2026-01-17 22:07:54.82	39.20	12.80	-44.4	-45.5	19.0	0.00e+00	0	35	0	409993216	60	4089
2026-01-17 22:07:57.85	39.67	12.98	-44.2	-45.3	19.3	0.00e+00	0	36	0	419430400	60	3975
2026-01-17 22:08:00.87	40.15	13.16	-44.3	-45.4	19.2	0.00e+00	0	35	0	428867584	60	4028
2026-01-17 22:08:03.90	40.63	13.34	-44.5	-45.7	19.0	0.00e+00	0	35	0	438304768	60	4154
2026-01-17 22:08:06.92	41.12	13.51	-44.6	-45.7	18.9	0.00e+00	0	35	0	447741952	60	4183
2026-01-17 22:08:09.95	41.61	13.69	-44.4	-45.5	19.1	0.00e+00	0	35	0	457179136	60	4060
2026-01-17 22:08:12.97	42.11	13.87	-44.3	-45.3	19.3	0.00e+00	0	35	0	466616320	60	3991
2026-01-17 22:08:15.99	42.61	14.05	-44.2	-45.2	19.4	0.00e+00	0	35	0	476053504	60	3944
2026-01-17 22:08:19.02	43.12	14.22	-44.3	-45.4	19.2	0.00e+00	0	35	0	485490688	60	4013
2026-01-17 22:08:22.04	43.64	14.40	-44.4	-45.5	19.2	0.00e+00	0	35	0	494927872	60	4059
2026-01-17 22:08:25.07	44.16	14.57	-44.2	-45.3	19.4	0.00e+00	0	35	0	505413632	60	3971
2026-01-17 22:08:28.09	44.69	14.74	-44.3	-45.3	19.3	0.00e+00	0	36	0	513802240	60	3996
2026-01-17 22:08:31.11	45.22	14.91	-44.3	-45.4	19.3	0.00e+00	0	36	0	523239424	60	4017
2026-01-17 22:08:34.14	45.77	15.09	-44.2	-45.3	19.4	0.00e+00	0	35	0	532676608	60	3961
2026-01-17 22:08:37.16	46.31	15.25	-44.2	-45.2	19.5	0.00e+00	0	35	0	542113792	60	3951
2026-01-17 22:08:40.18	46.86	15.42	-44.2	-45.2	19.4	0.00e+00	0	35	0	552599552	60	3940
2026-01-17 22:08:43.20	47.42	15.59	-44.2	-45.3	19.3	0.00e+00	0	36	0	560988160	60	3988
2026-01-17 22:08:46.23	47.99	15.76	-44.1	-45.2	19.4	0.00e+00	0	35	0	570425344	60	3939
2026-01-17 22:08:49.25	48.56	15.92	-44.1	-45.2	19.5	0.00e+00	0	36	0	579862528	60	3923
2026-01-17 22:08:52.28	49.13	16.08	-44.4	-45.5	19.5	0.00e+00	0	35	0	590348288	59	4301
2026-01-17 22:08:55.30	49.72	16.24	-44.4	-45.4	19.5	0.00e+00	0	35	0	599785472	59	4284
2026-01-17 22:08:58.32	50.31	16.40	-44.2	-45.3	19.6	0.00e+00	0	35	0	608174080	59	4217
2026-01-17 22:09:01.35	50.90	16.56	-44.3	-45.3	19.6	0.00e+00	0	36	0	617611264	59	4240
2026-01-17 22:09:04.37	51.50	16.71	-44.3	-45.4	19.6	0.00e+00	0	35	0	628097024	59	4252
2026-01-17 22:09:07.39	52.11	16.87	-44.1	-45.2	19.8	0.00e+00	0	35	0	637534208	59	4163
2026-01-17 22:09:10.41	52.72	17.02	-44.0	-45.0	19.8	0.00e+00	0	35	0	646971392	59	4096
2026-01-17 22:09:13.43	53.34	17.17	-43.9	-45.0	20.0	0.00e+00	0	35	0	655360000	59	4055
2026-01-17 22:09:16.46	53.97	17.31	-44.1	-45.2	19.8	0.00e+00	0	35	0	664797184	59	4152
2026-01-17 22:09:19.48	54.60	17.46	-44.1	-45.1	19.9	0.00e+00	0	35	0	675282944	59	4127
2026-01-17 22:09:22.50	55.23	17.60	-43.9	-44.9	19.9	0.00e+00	0	36	0	684720128	59	4043
2026-01-17 22:09:25.52	55.87	17.74	-43.8	-44.8	20.0	0.00e+00	0	35	0	694157312	59	3988
2026-01-17 22:09:28.54	56.52	17.87	-43.7	-44.7	20.2	0.00e+00	0	35	0	702545920	59	3924
2026-01-17 22:09:31.56	57.17	18.01	-43.8	-44.8	20.2	0.00e+00	0	35	0	713031680	59	3972
2026-01-17 22:09:34.59	57.84	18.14	-43.8	-44.8	20.1	0.00e+00	0	35	0	722468864	59	3990
2026-01-17 22:09:37.61	58.50	18.27	-43.7	-44.6	20.3	0.00e+00	0	35	0	731906048	59	3901
2026-01-17 22:09:40.63	59.17	18.39	-43.5	-44.4	20.5	0.00e+00	0	35	0	741343232	58	4033
2026-01-17 22:09:43.65	59.84	18.51	-43.6	-44.6	20.4	0.00e+00	0	35	0	749731840	58	4106
2026-01-17 22:09:46.68	60.53	18.63	-43.6	-44.6	20.3	0.00e+00	0	35	0	760217600	58	4121
2026-01-17 22:09:49.71	61.22	18.75	-43.4	-44.3	20.6	0.00e+00	0	35	0	769654784	58	3994
2026-01-17 22:09:52.72	61.90	18.86	-43.3	-44.2	20.6	0.00e+00	0	35	0	779091968	58	3957
2026-01-17 22:09:55.75	62.60	18.96	-43.4	-44.3	20.6	0.00e+00	0	35	0	788529152	58	4002
2026-01-17 22:09:58.77	63.30	19.07	-43.3	-44.2	20.7	0.00e+00	0	35	0	797966336	58	3946
2026-01-17 22:10:01.80	64.01	19.17	-43.2	-44.2	20.7	0.00e+00	0	35	0	807403520	58	3918
2026-01-17 22:10:04.82	64.72	19.26	-43.5	-44.4	20.5	0.00e+00	0	35	0	816840704	58	4036
2026-01-17 22:10:07.85	65.43	19.36	-43.4	-44.3	20.7	0.00e+00	0	35	0	826277888	58	3976
2026-01-17 22:10:10.87	66.15	19.44	-43.2	-44.1	20.8	0.00e+00	0	35	0	835715072	58	3913
2026-01-17 22:10:13.89	66.87	19.53	-43.4	-44.3	20.6	0.00e+00	0	35	0	845152256	58	3991
2026-01-17 22:10:16.92	67.60	19.61	-43.3	-44.2	20.7	0.00e+00	0	35	0	854589440	58	3945
2026-01-17 22:10:19.94	68.33	19.68	-43.3	-44.2	20.8	0.00e+00	0	35	0	864026624	58	3933
2026-01-17 22:10:22.96	69.06	19.76	-43.4	-44.4	20.6	0.00e+00	0	35	0	873463808	58	4015
2026-01-17 22:10:25.98	69.80	19.82	-43.5	-44.5	20.5	0.00e+00	0	35	0	882900992	58	4059
2026-01-17 22:10:29.00	70.54	19.88	-43.5	-44.4	20.5	0.00e+00	0	36	0	892338176	58	4048
2026-01-17 22:10:32.03	71.28	19.94	-43.7	-44.7	20.3	0.00e+00	0	35	0	901775360	58	4176
2026-01-17 22:10:35.05	72.03	20.00	-43.5	-44.5	20.5	0.00e+00	0	35	0	911212544	58	4058
2026-01-17 22:10:38.08	72.78	20.04	-43.5	-44.4	20.6	0.00e+00	0	35	0	920649728	58	4042
2026-01-17 22:10:41.10	73.53	20.09	-43.5	-44.4	20.5	0.00e+00	0	35	0	930086912	58	4050
2026-01-17 22:10:44.13	74.28	20.13	-43.5	-44.5	20.5	0.00e+00	0	35	0	939524096	58	4053
2026-01-17 22:10:47.15	75.03	20.16	-43.5	-44.5	20.5	0.00e+00	0	35	0	948961280	58	4070
2026-01-17 22:10:50.17	75.79	20.19	-43.5	-44.4	20.5	0.00e+00	0	36	0	958398464	58	4044
2026-01-17 22:10:53.19	76.54	20.22	-43.6	-44.6	20.4	0.00e+00	0	35	0	967835648	58	4137
2026-01-17 22:10:56.22	77.30	20.23	-43.6	-44.6	20.4	0.00e+00	0	35	0	977272832	58	4101
2026-01-17 22:10:59.24	78.06	20.25	-43.6	-44.5	20.5	0.00e+00	0	35	0	986710016	58	4077
2026-01-17 22:11:02.27	78.82	20.26	-43.6	-44.5	20.5	0.00e+00	0	35	0	996147200	58	4085
2026-01-17 22:11:05.29	79.58	20.26	-43.7	-44.6	20.3	0.00e+00	0	35	0	1005584384	58	4143
2026-01-17 22:11:08.31	80.34	20.26	-43.6	-44.6	20.3	0.00e+00	0	35	0	1015021568	58	4118
2026-01-17 22:11:11.34	81.10	20.26	-43.5	-44.4	20.6	0.00e+00	0	35	0	1024458752	58	4035
2026-01-17 22:11:14.36	81.86	20.25	-43.5	-44.4	20.6	0.00e+00	0	35	0	1033895936	58	4036
2026-01-17 22:11:17.38	82.62	20.23	-43.6	-44.6	20.4	0.00e+00	0	35	0	1043333120	58	4125
2026-01-17 22:11:20.41	83.38	20.21	-43.4	-44.3	20.7	0.00e+00	0	35	0	1052770304	58	3991
2026-01-17 22:11:23.44	84.14	20.19	-43.4	-44.4	20.6	0.00e+00	0	35	0	1062207488	58	4022
2026-01-17 22:11:26.46	84.89	20.16	-43.7	-44.6	20.4	0.00e+00	0	35	0	1071644672	58	4143
2026-01-17 22:11:29.49	85.65	20.12	-43.5	-44.4	20.5	0.00e+00	0	35	0	1081081856	58	4041
2026-01-17 22:11:32.51	86.40	20.08	-43.6	-44.6	20.4	0.00e+00	0	35	0	1090519040	58	4101
2026-01-17 22:11:35.54	87.15	20.04	-43.2	-44.2	20.7	0.00e+00	0	35	0	1099956224	58	3916
2026-01-17 22:11:38.56	87.90	19.99	-43.2	-44.1	20.8	0.00e+00	0	35	0	1109393408	58	3908
2026-01-17 22:11:41.58	88.65	19.93	-43.3	-44.2	20.7	0.00e+00	0	35	0	1118830592	58	3937
2026-01-17 22:11:44.61	89.39	19.87	-43.3	-44.3	20.6	0.00e+00	0	35	0	1128267776	58	3974
2026-01-17 22:11:47.63	90.13	19.81	-43.2	-44.1	20.8	0.00e+00	0	35	0	1137704960	58	3880
2026-01-17 22:11:50.65	90.87	19.74	-43.3	-44.2	20.7	0.00e+00	0	35	0	1147142144	58	3942
2026-01-17 22:11:53.68	91.60	19.67	-43.3	-44.3	20.7	0.00e+00	0	35	0	1156579328	58	3974
2026-01-17 22:11:56.70	92.33	19.59	-43.3	-44.2	20.7	0.00e+00	0	35	0	1166016512	58	3931
2026-01-17 22:11:59.72	93.06	19.51	-43.5	-44.4	20.5	0.00e+00	0	35	0	1175453696	58	4050
2026-01-17 22:12:02.75	93.79	19.43	-43.6	-44.5	20.4	0.00e+00	0	35	0	1184890880	58	4084
2026-01-17 22:12:05.77	94.50	19.34	-43.5	-44.4	20.5	0.00e+00	0	36	0	1194328064	58	4049
2026-01-17 22:12:08.80	95.22	19.25	-43.4	-44.3	20.6	0.00e+00	0	35	0	1203765248	58	3991
2026-01-17 22:12:11.82	95.93	19.15	-43.3	-44.3	20.6	0.00e+00	0	35	0	1213202432	58	3961
2026-01-17 22:12:14.84	96.64	19.05	-43.4	-44.3	20.6	0.00e+00	0	35	0	1222639616	58	3997
2026-01-17 22:12:17.86	97.34	18.94	-43.3	-44.2	20.7	0.00e+00	0	36	0	1232076800	58	3932
2026-01-17 22:12:20.89	98.04	18.83	-43.4	-44.4	20.5	0.00e+00	0	35	0	1241513984	58	4010
2026-01-17 22:12:23.91	98.73	18.72	-43.4	-44.3	20.6	0.00e+00	0	35	0	1250951168	58	3989
2026-01-17 22:12:26.94	99.42	18.61	-43.3	-44.2	20.7	0.00e+00	0	36	0	1260388352	58	3933
2026-01-17 22:12:29.96	100.10	18.49	-43.5	-44.4	20.5	0.00e+00	0	35	0	1269825536	58	4048
2026-01-17 22:12:32.98	100.78	18.36	-43.3	-44.3	20.5	0.00e+00	0	35	0	1279262720	58	3965
2026-01-17 22:12:36.01	101.45	18.24	-43.5	-44.4	20.4	0.00e+00	0	35	0	1288699904	58	4051
2026-01-17 22:12:39.03	102.11	18.11	-43.5	-44.5	20.3	0.00e+00	0	35	0	1298137088	58	4077
2026-01-17 22:12:42.05	102.77	17.98	-43.7	-44.7	20.1	0.00e+00	0	35	0	1307574272	58	4159
2026-01-17 22:12:45.08	103.43	17.84	-43.7	-44.7	20.2	0.00e+00	0	35	0	1317011456	58	4175
2026-01-17 22:12:48.10	104.08	17.71	-43.8	-44.8	20.1	0.00e+00	0	35	0	1326448640	58	4203
2026-01-17 22:12:51.12	104.72	17.57	-43.9	-44.9	20.0	0.00e+00	0	35	0	1335885824	58	4270
2026-01-17 22:12:54.15	105.36	17.42	-44.0	-45.0	19.8	0.00e+00	0	35	0	1345323008	58	4298
2026-01-17 22:12:57.17	105.99	17.28	-43.9	-44.9	19.9	0.00e+00	0	35	0	1354760192	58	4281
2026-01-17 22:13:00.19	106.62	17.13	-43.5	-44.4	20.4	0.00e+00	0	35	0	1364197376	58	4032
2026-01-17 22:13:03.22	107.24	16.98	-43.8	-44.8	20.1	0.00e+00	0	35	0	1373634560	58	4224
2026-01-17 22:13:06.24	107.85	16.83	-44.1	-45.2	19.7	0.00e+00	0	35	0	1383071744	58	4404
2026-01-17 22:13:09.26	108.46	16.67	-44.2	-45.3	19.6	0.00e+00	0	36	0	1392508928	59	4194
2026-01-17 22:13:12.28	109.06	16.52	-44.2	-45.3	19.7	0.00e+00	0	35	0	1401946112	59	4198
2026-01-17 22:13:15.31	109.66	16.36	-44.0	-45.1	19.9	0.00e+00	0	35	0	1411383296	59	4104
2026-01-17 22:13:18.33	110.25	16.20	-44.0	-45.0	19.9	0.00e+00	0	35	0	1420820480	59	4083
2026-01-17 22:13:21.36	110.83	16.03	-44.4	-45.5	19.5	0.00e+00	0	35	0	1430257664	59	4321
2026-01-17 22:13:24.38	111.41	15.87	-44.4	-45.5	19.5	0.00e+00	0	35	0	1440743424	59	4307
2026-01-17 22:13:27.41	111.98	15.71	-44.2	-45.2	19.7	0.00e+00	0	35	0	1449132032	59	4191
2026-01-17 22:13:30.43	112.55	15.54	-44.2	-45.3	19.6	0.00e+00	0	35	0	1458569216	59	4217
2026-01-17 22:13:33.45	113.11	15.37	-44.3	-45.4	19.6	0.00e+00	0	35	0	1468006400	59	4267
2026-01-17 22:13:36.48	113.66	15.20	-44.5	-45.6	19.4	0.00e+00	0	35	0	1478492160	59	4353
2026-01-17 22:13:39.50	114.21	15.03	-44.5	-45.6	19.4	0.00e+00	0	35	0	1487929344	59	4344
2026-01-17 22:13:42.53	114.75	14.86	-44.4	-45.5	19.4	0.00e+00	0	35	0	1496317952	59	4321
2026-01-17 22:13:45.56	115.29	14.68	-44.6	-45.7	19.2	0.00e+00	0	35	0	1505755136	59	4394
2026-01-17 22:13:48.58	115.81	14.51	-44.4	-45.5	19.4	0.00e+00	0	35	0	1516240896	59	4317
2026-01-17 22:13:51.60	116.34	14.33	-44.3	-45.4	19.5	0.00e+00	0	35	0	1525678080	59	4273
2026-01-17 22:13:54.62	116.85	14.16	-44.4	-45.4	19.4	0.00e+00	0	35	0	1535115264	59	4289
2026-01-17 22:13:57.65	117.37	13.98	-44.5	-45.6	19.3	0.00e+00	0	35	0	1543503872	59	4350
2026-01-17 22:14:00.68	117.87	13.80	-44.3	-45.4	19.5	0.00e+00	0	35	0	1553989632	59	4258
2026-01-17 22:14:03.70	118.37	13.62	-44.3	-45.4	19.5	0.00e+00	0	35	0	1563426816	59	4259
2026-01-17 22:14:06.72	118.86	13.45	-44.3	-45.4	19.5	0.00e+00	0	35	0	1572864000	59	4255
2026-01-17 22:14:09.74	119.35	13.27	-44.0	-45.0	19.8	0.00e+00	0	35	0	1582301184	59	4081
2026-01-17 22:14:12.76	119.83	13.09	-44.0	-45.0	19.7	0.00e+00	0	35	0	1591738368	59	4071
2026-01-17 22:14:15.79	120.31	12.90	-44.0	-45.0	19.7	0.00e+00	0	35	0	1601175552	59	4066
2026-01-17 22:14:18.81	120.78	12.72	-44.2	-45.3	19.4	0.00e+00	0	35	0	1610612736	59	4226
2026-01-17 22:14:21.84	121.25	12.54	-44.5	-45.6	19.1	0.00e+00	0	35	0	1620049920	59	4387
2026-01-17 22:14:24.86	121.71	12.36	-44.5	-45.7	19.0	0.00e+00	0	35	0	1629487104	59	4392
2026-01-17 22:14:27.89	122.16	12.18	-44.7	-45.8	18.9	0.00e+00	0	35	0	1638924288	59	4484
2026-01-17 22:14:30.91	122.61	12.00	-44.4	-45.6	18.8	0.00e+00	0	35	0	1648361472	60	4101
2026-01-17 22:14:33.94	123.06	11.81	-44.5	-45.6	18.7	0.00e+00	0	35	0	1657798656	60	4138
2026-01-17 22:14:36.96	123.49	11.63	-44.6	-45.7	18.6	0.00e+00	0	35	0	1667235840	60	4176
2026-01-17 22:14:39.98	123.93	11.45	-44.6	-45.8	18.6	0.00e+00	0	35	0	1676673024	60	4220
2026-01-17 22:14:43.01	124.36	11.26	-44.4	-45.5	18.8	0.00e+00	0	35	0	1686110208	60	4086
2026-01-17 22:14:46.03	124.78	11.08	-44.3	-45.4	18.9	0.00e+00	0	35	0	1695547392	60	4032
2026-01-17 22:14:49.05	125.20	10.90	-44.5	-45.6	18.7	0.00e+00	0	35	0	1704984576	60	4130
2026-01-17 22:14:52.08	125.61	10.72	-44.4	-45.6	18.8	0.00e+00	0	35	0	1714421760	60	4100
2026-01-17 22:14:55.10	126.02	10.53	-44.7	-45.9	18.5	0.00e+00	0	35	0	1723858944	60	4246
2026-01-17 22:14:58.12	126.42	10.35	-44.8	-46.0	18.3	0.00e+00	0	35	0	1733296128	60	4293
2026-01-17 22:15:01.14	126.82	10.17	-44.7	-45.9	18.4	0.00e+00	0	35	0	1742733312	60	4243
2026-01-17 22:15:04.17	127.21	9.99	-44.8	-46.0	18.2	0.00e+00	0	35	0	1752170496	60	4321
2026-01-17 22:15:07.19	127.60	9.80	-44.6	-45.8	18.4	0.00e+00	0	36	0	1761607680	60	4203
2026-01-17 22:15:10.22	127.99	9.62	-44.8	-46.1	18.1	0.00e+00	0	35	0	1771044864	60	4347
2026-01-17 22:15:13.24	128.37	9.44	-45.0	-46.3	18.0	0.00e+00	0	35	0	1780482048	60	4442
2026-01-17 22:15:16.26	128.74	9.26	-44.9	-46.1	18.1	0.00e+00	0	35	0	1789919232	60	4383
2026-01-17 22:15:19.28	129.11	9.08	-44.9	-46.2	18.0	0.00e+00	0	35	0	1799356416	60	4398
2026-01-17 22:15:22.31	129.48	8.90	-45.0	-46.3	17.9	0.00e+00	0	35	0	1808793600	60	4453
2026-01-17 22:15:25.33	129.84	8.72	-45.3	-46.6	17.6	0.00e+00	0	35	0	1818230784	61	4360
2026-01-17 22:15:28.36	130.20	8.54	-45.2	-46.6	17.6	0.00e+00	0	35	0	1827667968	61	4354
2026-01-17 22:15:31.38	130.55	8.36	-45.2	-46.6	17.5	0.00e+00	0	36	0	1837105152	61	4349
2026-01-17 22:15:34.40	130.90	8.18	-45.2	-46.5	17.6	0.00e+00	0	35	0	1846542336	61	4314
2026-01-17 22:15:37.42	131.25	8.00	-45.0	-46.3	17.8	0.00e+00	0	35	0	1855979520	61	4223
2026-01-17 22:15:40.45	131.59	7.82	-45.0	-46.3	17.7	0.00e+00	0	35	0	1865416704	61	4217
2026-01-17 22:15:43.47	131.93	7.64	-45.1	-46.4	17.6	0.00e+00	0	35	0	1874853888	61	4287
2026-01-17 22:15:46.49	132.26	7.46	-45.2	-46.6	17.4	0.00e+00	0	35	0	1884291072	61	4365
2026-01-17 22:15:49.52	132.59	7.28	-45.4	-46.8	17.2	0.00e+00	0	35	0	1893728256	61	4463
2026-01-17 22:15:52.54	132.91	7.11	-45.4	-46.8	17.2	0.00e+00	0	35	0	1903165440	61	4453
2026-01-17 22:15:55.56	133.24	6.93	-45.3	-46.7	17.2	0.00e+00	0	35	0	1912602624	61	4427
2026-01-17 22:15:58.59	133.56	6.76	-45.1	-46.5	17.4	0.00e+00	0	35	0	1922039808	61	4314
2026-01-17 22:16:01.61	133.87	6.58	-45.3	-46.8	17.1	0.00e+00	0	35	0	1931476992	61	4449
2026-01-17 22:16:04.64	134.18	6.40	-45.3	-46.8	17.0	0.00e+00	0	35	0	1940914176	61	4454
2026-01-17 22:16:07.66	134.49	6.23	-45.5	-47.0	16.8	0.00e+00	0	35	0	1950351360	61	4564
2026-01-17 22:16:10.69	134.79	6.06	-45.2	-46.7	17.1	0.00e+00	0	35	0	1959788544	61	4394
2026-01-17 22:16:13.71	135.09	5.88	-45.5	-47.0	16.7	0.00e+00	0	35	0	1969225728	61	4564
2026-01-17 22:16:16.74	135.39	5.71	-45.6	-47.1	16.6	0.00e+00	0	36	0	1978662912	62	4363
2026-01-17 22:16:19.76	135.68	5.54	-45.6	-47.1	16.6	0.00e+00	0	35	0	1988100096	62	4361
2026-01-17 22:16:22.78	135.97	5.36	-45.9	-47.5	16.0	0.00e+00	0	36	0	1997537280	62	4590
2026-01-17 22:16:25.80	136.26	5.19	-45.9	-47.5	16.1	0.00e+00	0	35	0	2006974464	62	4570
2026-01-17 22:16:28.83	136.55	5.02	-46.2	-47.9	15.6	0.00e+00	0	35	0	2016411648	63	4531
2026-01-17 22:16:31.85	136.83	4.85	-52.8	-65.6	3.8	1.49e+00	0	36	104	2020605952	76	16343
2026-01-17 22:16:34.87	137.10	4.68	-53.2	-66.0	3.8	1.49e+00	0	35	104	2020605952	77	16275
2026-01-17 22:16:37.90	137.38	4.51	-53.5	-66.3	3.8	1.49e+00	0	36	104	2020605952	77	16770
2026-01-17 22:16:40.92	137.65	4.34	-53.7	-66.5	3.8	1.49e+00	0	35	104	2020605952	77	17169
2026-01-17 22:16:43.95	137.92	4.17	-53.8	-66.7	3.8	1.49e+00	0	36	104	2020605952	78	16518
2026-01-17 22:16:46.98	138.19	4.01	-54.0	-66.8	3.8	1.49e+00	0	36	104	2020605952	78	16697
2026-01-17 22:16:50.00	138.45	3.84	-54.0	-66.8	3.8	1.49e+00	0	35	104	2020605952	78	16869
2026-01-17 22:16:53.02	138.71	3.67	-54.1	-66.8	3.8	1.49e+00	0	36	104	2020605952	78	16860
2026-01-17 22:16:56.05	138.97	3.51	-54.0	-66.8	3.8	1.49e+00	0	36	104	2020605952	78	16817
2026-01-17 22:16:59.08	139.22	3.34	-54.0	-66.8	3.8	1.49e+00	0	36	104	2020605952	78	16784
2026-01-17 22:17:02.10	139.48	3.18	-54.0	-66.8	3.8	1.49e+00	0	36	104	2020605952	78	16789
2026-01-17 22:17:05.13	139.73	3.01	-54.0	-66.8	3.8	1.49e+00	0	36	104	2020605952	78	16760
2026-01-17 22:17:08.15	139.97	2.85	-54.0	-66.8	3.8	1.49e+00	0	36	104	2020605952	78	16715
2026-01-17 22:17:11.17	140.22	2.68	-54.0	-66.8	3.8	1.49e+00	0	36	104	2020605952	78	16708
2026-01-17 22:17:14.20	140.46	2.52	-54.0	-66.8	3.8	1.49e+00	0	36	104	2020605952	78	16717
2026-01-17 22:17:17.22	140.70	2.36	-53.9	-66.7	3.8	1.49e+00	0	36	104	2020605952	78	16690
2026-01-17 22:17:20.25	140.93	2.20	-53.9	-66.7	3.8	1.49e+00	0	36	104	2020605952	78	16648
2026-01-17 22:17:23.27	141.17	2.04	-53.9	-66.7	3.8	1.49e+00	0	36	104	2020605952	78	16645

#Closed at: 2026-01-17 22:17:25
#Recorded file [2020 MB]: D:/lorett/data/31041_260118_010447.dat