passes_logs/2026/01/17/R3.2S_Murmansk/R3.2S_Murmansk__20260117_041427_NOAA_20_JPSS-1_rec.log

#Pass ID: 20260117_041427_NOAA 20 (JPSS-1)
#Satellite: NOAA 20 (JPSS-1)
#Configuration: NOAA 20
#almurnet v.1.7.20251203
#Start time: 2026-01-17 04:14:26

#Version: 2.2.20231116
#Station: R3.2S_Murmansk
#Location: 33.079688 lon 68.888172 lat
#TLE: 1 43013U 17073A   26015.89389188  .00000026  00000+0  33113-4 0  9999
#TLE: 2 43013  98.7636 316.8238 0001460  37.8997 322.2282 14.19536128422860

#Time	Az	El	Level	Level2	SNR	BER	BlckErr	Temp	State	Recorded	gain1	gain2
2026-01-17 04:14:26.97	49.84	2.00	-51.4	-66.3	3.8	1.49e+00	0	32	0	0	74	20015
2026-01-17 04:14:31.00	49.59	2.23	-51.3	-66.3	3.8	1.49e+00	0	32	104	0	73	21153
2026-01-17 04:14:35.04	49.34	2.46	-51.4	-66.3	3.8	1.49e+00	0	32	104	0	73	21174
2026-01-17 04:14:39.07	49.09	2.70	-51.3	-66.3	3.8	1.49e+00	0	32	104	0	73	21071
2026-01-17 04:14:43.11	48.83	2.93	-51.3	-66.2	3.8	1.49e+00	0	33	104	0	73	20861
2026-01-17 04:14:47.14	48.56	3.17	-51.3	-66.2	3.8	1.49e+00	0	33	104	0	73	20988
2026-01-17 04:14:51.17	48.30	3.41	-51.3	-66.1	3.8	1.49e+00	0	32	104	0	73	20603
2026-01-17 04:14:55.21	48.02	3.65	-51.3	-66.2	3.8	1.49e+00	0	33	104	0	73	20950
2026-01-17 04:14:59.24	47.75	3.89	-51.3	-65.8	3.8	1.49e+00	0	33	104	0	73	20016
2026-01-17 04:15:03.27	47.46	4.13	-51.2	-65.1	3.8	1.49e+00	0	33	104	0	73	18425
2026-01-17 04:15:07.31	47.18	4.38	-50.3	-60.9	3.9	1.48e+00	0	33	104	0	72	12022
2026-01-17 04:15:11.34	46.88	4.62	-50.3	-61.2	3.8	1.48e+00	0	33	104	0	71	13140
2026-01-17 04:15:15.38	46.59	4.87	-51.2	-65.7	3.8	1.49e+00	0	33	104	0	72	20809
2026-01-17 04:15:19.42	46.28	5.12	-51.4	-66.2	3.8	1.49e+00	0	33	104	0	73	20914
2026-01-17 04:15:23.45	45.97	5.37	-51.2	-64.5	3.8	1.49e+00	0	33	104	0	73	17126
2026-01-17 04:15:27.48	45.66	5.62	-51.0	-58.7	6.7	2.78e-01	0	33	0	6291456	73	8793
2026-01-17 04:15:31.51	45.34	5.88	-51.3	-61.1	5.1	9.71e-02	0	33	0	13631488	73	11635
2026-01-17 04:15:35.55	45.01	6.13	-49.8	-54.1	11.7	5.26e-04	0	33	0	16777216	71	5797
2026-01-17 04:15:39.58	44.68	6.39	-49.9	-54.1	11.9	3.08e-04	0	33	0	25165824	71	5805
2026-01-17 04:15:43.61	44.34	6.65	-49.1	-52.4	13.7	2.13e-05	0	33	0	32505856	70	5052
2026-01-17 04:15:47.65	44.00	6.91	-48.8	-51.8	14.3	1.50e-06	0	33	0	39845888	69	5015
2026-01-17 04:15:51.68	43.65	7.17	-48.4	-51.1	15.2	0.00e+00	0	34	0	47185920	68	4880
2026-01-17 04:15:55.72	43.29	7.43	-48.2	-50.8	15.5	0.00e+00	0	33	0	55574528	68	4724
2026-01-17 04:15:59.75	42.93	7.70	-48.2	-50.7	15.7	0.00e+00	0	33	0	62914560	68	4666
2026-01-17 04:16:03.78	42.55	7.97	-48.3	-50.8	15.5	0.00e+00	0	34	0	70254592	68	4738
2026-01-17 04:16:07.81	42.18	8.23	-48.1	-50.6	15.8	0.00e+00	0	34	0	77594624	68	4621
2026-01-17 04:16:11.85	41.79	8.51	-48.1	-50.5	15.9	0.00e+00	0	34	0	84934656	68	4589
2026-01-17 04:16:15.88	41.40	8.78	-48.2	-50.7	15.8	0.00e+00	0	34	0	93323264	68	4677
2026-01-17 04:16:19.91	41.00	9.05	-48.2	-50.7	15.8	0.00e+00	0	34	0	100663296	68	4694
2026-01-17 04:16:23.95	40.59	9.33	-48.1	-50.4	16.1	0.00e+00	0	34	0	108003328	68	4522
2026-01-17 04:16:27.98	40.17	9.60	-47.8	-50.0	16.4	0.00e+00	0	34	0	115343360	67	4593
2026-01-17 04:16:32.02	39.75	9.88	-47.5	-49.7	16.8	0.00e+00	0	34	0	123731968	67	4392
2026-01-17 04:16:36.06	39.31	10.16	-47.6	-49.8	16.7	0.00e+00	0	34	0	131072000	66	4736
2026-01-17 04:16:40.09	38.87	10.44	-47.5	-49.7	16.8	0.00e+00	0	34	0	138412032	66	4676
2026-01-17 04:16:44.12	38.42	10.72	-47.7	-49.9	16.6	0.00e+00	0	34	0	145752064	66	4798
2026-01-17 04:16:48.16	37.96	11.01	-47.8	-50.0	16.5	0.00e+00	0	34	0	153092096	66	4851
2026-01-17 04:16:52.19	37.49	11.29	-47.8	-50.0	16.6	0.00e+00	0	34	0	161480704	66	4848
2026-01-17 04:16:56.23	37.01	11.58	-47.8	-49.9	16.6	0.00e+00	0	34	0	168820736	66	4807
2026-01-17 04:17:00.26	36.52	11.87	-47.5	-49.6	17.0	0.00e+00	0	34	0	176160768	66	4607
2026-01-17 04:17:04.30	36.02	12.16	-47.5	-49.6	17.0	0.00e+00	0	34	0	183500800	66	4611
2026-01-17 04:17:08.33	35.51	12.45	-47.5	-49.6	17.1	0.00e+00	0	34	0	190840832	66	4611
2026-01-17 04:17:12.36	34.99	12.74	-47.3	-49.2	17.4	0.00e+00	0	34	0	199229440	66	4438
2026-01-17 04:17:16.39	34.46	13.04	-47.2	-49.1	17.5	0.00e+00	0	34	0	206569472	66	4370
2026-01-17 04:17:20.42	33.92	13.33	-47.2	-49.1	17.5	0.00e+00	0	34	0	213909504	66	4369
2026-01-17 04:17:24.46	33.37	13.62	-47.1	-49.0	17.6	0.00e+00	0	34	0	221249536	66	4332
2026-01-17 04:17:28.49	32.81	13.92	-47.1	-49.0	17.6	0.00e+00	0	34	0	229638144	65	4583
2026-01-17 04:17:32.53	32.23	14.22	-46.9	-48.7	17.9	0.00e+00	0	34	0	236978176	65	4431
2026-01-17 04:17:36.56	31.65	14.51	-46.8	-48.6	18.1	0.00e+00	0	34	0	244318208	65	4369
2026-01-17 04:17:40.60	31.05	14.81	-46.6	-48.2	18.4	0.00e+00	0	34	0	251658240	65	4184
2026-01-17 04:17:44.63	30.44	15.11	-46.8	-48.6	18.1	0.00e+00	0	34	0	258998272	65	4373
2026-01-17 04:17:48.66	29.81	15.41	-47.0	-48.8	17.9	0.00e+00	0	34	0	266338304	65	4457
2026-01-17 04:17:52.70	29.18	15.71	-47.1	-48.9	17.8	0.00e+00	0	34	0	274726912	65	4528
2026-01-17 04:17:56.73	28.53	16.01	-47.1	-48.9	17.9	0.00e+00	0	34	0	282066944	65	4507
2026-01-17 04:18:00.77	27.86	16.31	-47.2	-49.1	17.6	0.00e+00	0	34	0	289406976	65	4650
2026-01-17 04:18:04.80	27.19	16.60	-47.2	-49.1	17.7	0.00e+00	0	34	0	296747008	65	4620
2026-01-17 04:18:08.84	26.49	16.90	-47.2	-49.0	17.7	0.00e+00	0	34	0	305135616	65	4597
2026-01-17 04:18:12.87	25.79	17.20	-47.4	-49.4	17.4	0.00e+00	0	34	0	312475648	65	4777
2026-01-17 04:18:16.90	25.07	17.49	-47.3	-49.2	17.5	0.00e+00	0	34	0	319815680	65	4694
2026-01-17 04:18:20.94	24.34	17.79	-47.3	-49.2	17.6	0.00e+00	0	34	0	327155712	65	4680
2026-01-17 04:18:24.97	23.59	18.08	-47.3	-49.2	17.6	0.00e+00	0	34	0	334495744	65	4684
2026-01-17 04:18:29.00	22.83	18.37	-47.2	-49.1	17.7	0.00e+00	0	34	0	342884352	65	4632
2026-01-17 04:18:33.03	22.05	18.66	-47.1	-48.9	17.9	0.00e+00	0	34	0	350224384	65	4531
2026-01-17 04:18:37.06	21.26	18.95	-46.9	-48.7	18.2	0.00e+00	0	34	0	357564416	65	4398
2026-01-17 04:18:41.10	20.45	19.23	-46.4	-48.0	18.9	0.00e+00	0	34	0	364904448	64	4295
2026-01-17 04:18:45.13	19.63	19.51	-46.1	-47.6	19.2	0.00e+00	0	34	0	373293056	64	4121
2026-01-17 04:18:49.16	18.80	19.79	-45.7	-47.1	19.7	0.00e+00	0	34	0	380633088	63	4145
2026-01-17 04:18:53.19	17.94	20.07	-45.6	-47.0	19.9	0.00e+00	0	34	0	387973120	63	4080
2026-01-17 04:18:57.23	17.07	20.34	-45.5	-46.8	20.1	0.00e+00	0	34	0	395313152	62	4221
2026-01-17 04:19:01.26	16.19	20.60	-45.3	-46.6	20.3	0.00e+00	0	34	0	402653184	62	4126
2026-01-17 04:19:05.29	15.29	20.87	-45.2	-46.5	20.4	0.00e+00	0	34	0	411041792	62	4088
2026-01-17 04:19:09.32	14.37	21.12	-45.0	-46.3	20.6	0.00e+00	0	34	0	418381824	61	4216
2026-01-17 04:19:13.36	13.44	21.37	-45.1	-46.4	20.5	0.00e+00	0	34	0	425721856	61	4261
2026-01-17 04:19:17.39	12.50	21.62	-45.2	-46.5	20.5	0.00e+00	0	34	0	433061888	61	4294
2026-01-17 04:19:21.43	11.53	21.86	-45.2	-46.5	20.4	0.00e+00	0	34	0	440401920	61	4327
2026-01-17 04:19:25.46	10.56	22.09	-45.4	-46.7	20.3	0.00e+00	0	34	0	448790528	61	4408
2026-01-17 04:19:29.50	9.57	22.32	-45.3	-46.6	20.3	0.00e+00	0	34	0	456130560	61	4365
2026-01-17 04:19:33.53	8.56	22.54	-44.9	-46.1	20.8	0.00e+00	0	34	0	463470592	61	4133
2026-01-17 04:19:37.56	7.54	22.75	-45.1	-46.4	20.6	0.00e+00	0	34	0	470810624	61	4249
2026-01-17 04:19:41.60	6.51	22.95	-44.9	-46.1	20.9	0.00e+00	0	34	0	479199232	61	4122
2026-01-17 04:19:45.63	5.46	23.15	-44.6	-45.8	21.1	0.00e+00	0	34	0	486539264	61	4000
2026-01-17 04:19:49.66	4.40	23.33	-44.6	-45.8	21.1	0.00e+00	0	34	0	493879296	60	4226
2026-01-17 04:19:53.70	3.33	23.51	-44.8	-46.1	20.9	0.00e+00	0	34	0	501219328	60	4351
2026-01-17 04:19:57.73	2.25	23.67	-45.2	-46.5	20.5	0.00e+00	0	34	0	508559360	61	4327
2026-01-17 04:20:01.76	1.15	23.83	-45.3	-46.6	20.4	0.00e+00	0	34	0	516947968	61	4355
2026-01-17 04:20:05.79	0.05	23.97	-45.6	-47.0	20.0	0.00e+00	0	34	0	524288000	61	4577
2026-01-17 04:20:09.82	358.93	24.11	-46.2	-47.7	19.4	0.00e+00	0	34	0	531628032	62	4678
2026-01-17 04:20:13.85	357.81	24.23	-46.1	-47.5	19.5	0.00e+00	0	34	0	538968064	63	4331
2026-01-17 04:20:17.88	356.68	24.34	-46.6	-48.1	18.9	0.00e+00	0	34	0	546308096	63	4646
2026-01-17 04:20:21.92	355.53	24.44	-46.6	-48.2	18.9	0.00e+00	0	34	0	554696704	63	4674
2026-01-17 04:20:25.95	354.39	24.53	-46.6	-48.2	18.8	0.00e+00	0	34	0	562036736	64	4410
2026-01-17 04:20:29.99	353.23	24.60	-47.0	-48.8	18.3	0.00e+00	0	34	0	569376768	64	4708
2026-01-17 04:20:34.02	352.07	24.67	-46.6	-48.1	18.9	0.00e+00	0	34	0	576716800	64	4389
2026-01-17 04:20:38.06	350.91	24.72	-46.5	-48.1	18.9	0.00e+00	0	34	0	584056832	64	4353
2026-01-17 04:20:42.09	349.74	24.75	-46.8	-48.4	18.6	0.00e+00	0	34	0	592445440	64	4523
2026-01-17 04:20:46.12	348.57	24.78	-46.7	-48.3	18.7	0.00e+00	0	34	0	599785472	64	4466
2026-01-17 04:20:50.16	347.40	24.79	-46.2	-47.7	19.3	0.00e+00	0	34	0	607125504	64	4189
2026-01-17 04:20:54.19	346.23	24.78	-46.3	-47.8	19.2	0.00e+00	0	34	0	614465536	64	4219
2026-01-17 04:20:58.22	345.06	24.77	-45.9	-47.4	19.7	0.00e+00	0	34	0	622854144	63	4254
2026-01-17 04:21:02.25	343.90	24.74	-45.7	-47.1	20.0	0.00e+00	0	34	0	630194176	63	4109
2026-01-17 04:21:06.29	342.73	24.70	-45.2	-46.4	20.6	0.00e+00	0	34	0	637534208	62	4043
2026-01-17 04:21:10.32	341.57	24.65	-44.9	-46.2	20.9	0.00e+00	0	34	0	644874240	61	4152
2026-01-17 04:21:14.36	340.41	24.58	-44.8	-46.0	21.0	0.00e+00	0	34	0	652214272	61	4075
2026-01-17 04:21:18.40	339.25	24.50	-44.6	-45.7	21.3	0.00e+00	0	34	0	660602880	61	3946
2026-01-17 04:21:22.44	338.11	24.41	-44.4	-45.6	21.4	0.00e+00	0	34	0	667942912	60	4103
2026-01-17 04:21:26.47	336.97	24.30	-44.5	-45.6	21.2	0.00e+00	0	34	0	675282944	60	4143
2026-01-17 04:21:30.51	335.84	24.19	-44.7	-45.9	21.2	0.00e+00	0	34	0	682622976	60	4253
2026-01-17 04:21:34.54	334.72	24.06	-44.9	-46.1	20.9	0.00e+00	0	34	0	689963008	60	4376
2026-01-17 04:21:38.57	333.60	23.92	-45.1	-46.4	20.6	0.00e+00	0	34	0	698351616	60	4517
2026-01-17 04:21:42.61	332.50	23.77	-45.3	-46.6	20.4	0.00e+00	0	34	0	705691648	61	4374
2026-01-17 04:21:46.64	331.41	23.61	-45.7	-47.0	20.0	0.00e+00	0	34	0	713031680	61	4591
2026-01-17 04:21:50.68	330.33	23.45	-45.9	-47.3	19.8	0.00e+00	0	34	0	720371712	62	4465
2026-01-17 04:21:54.71	329.26	23.27	-46.1	-47.6	19.5	0.00e+00	0	34	0	728760320	62	4603
2026-01-17 04:21:58.75	328.20	23.08	-46.2	-47.7	19.4	0.00e+00	0	34	0	736100352	63	4392
2026-01-17 04:22:02.78	327.16	22.88	-46.2	-47.7	19.4	0.00e+00	0	34	0	743440384	63	4417
2026-01-17 04:22:06.81	326.13	22.67	-46.7	-48.3	18.8	0.00e+00	0	34	0	750780416	63	4739
2026-01-17 04:22:10.85	325.12	22.46	-46.7	-48.4	18.6	0.00e+00	0	34	0	758120448	64	4505
2026-01-17 04:22:14.88	324.12	22.24	-46.3	-47.8	19.3	0.00e+00	0	34	0	766509056	64	4204
2026-01-17 04:22:18.92	323.13	22.01	-46.7	-48.4	18.6	0.00e+00	0	34	0	773849088	64	4523
2026-01-17 04:22:22.95	322.16	21.77	-46.4	-48.0	19.0	0.00e+00	0	34	0	781189120	64	4300
2026-01-17 04:22:26.98	321.20	21.53	-46.5	-48.0	19.0	0.00e+00	0	34	0	788529152	64	4330
2026-01-17 04:22:31.02	320.26	21.28	-46.3	-47.9	19.1	0.00e+00	0	34	0	795869184	64	4244
2026-01-17 04:22:35.05	319.34	21.03	-46.1	-47.6	19.4	0.00e+00	0	34	0	804257792	64	4137
2026-01-17 04:22:39.09	318.42	20.77	-45.9	-47.3	19.7	0.00e+00	0	34	0	811597824	63	4234
2026-01-17 04:22:43.13	317.53	20.50	-45.9	-47.3	19.8	0.00e+00	0	34	0	818937856	63	4221
2026-01-17 04:22:47.16	316.65	20.24	-46.0	-47.4	19.7	0.00e+00	0	34	0	826277888	63	4260
2026-01-17 04:22:51.19	315.79	19.96	-45.9	-47.3	19.7	0.00e+00	0	34	0	834666496	63	4228
2026-01-17 04:22:55.22	314.94	19.69	-45.9	-47.3	19.7	0.00e+00	0	34	0	842006528	63	4221
2026-01-17 04:22:59.26	314.10	19.41	-46.1	-47.5	19.5	0.00e+00	0	34	0	849346560	63	4329
2026-01-17 04:23:03.29	313.29	19.13	-46.1	-47.6	19.5	0.00e+00	0	34	0	856686592	63	4341
2026-01-17 04:23:07.32	312.49	18.84	-46.1	-47.6	19.5	0.00e+00	0	34	0	864026624	63	4357
2026-01-17 04:23:11.36	311.70	18.55	-45.9	-47.3	19.7	0.00e+00	0	34	0	872415232	63	4203
2026-01-17 04:23:15.39	310.93	18.26	-45.9	-47.3	19.7	0.00e+00	0	34	0	879755264	63	4219
2026-01-17 04:23:19.43	310.17	17.97	-45.7	-47.1	19.9	0.00e+00	0	34	0	887095296	63	4136
2026-01-17 04:23:23.46	309.43	17.68	-45.6	-46.9	20.1	0.00e+00	0	34	0	894435328	63	4038
2026-01-17 04:23:27.50	308.70	17.38	-45.2	-46.5	20.5	0.00e+00	0	34	0	902823936	62	4073
2026-01-17 04:23:31.53	307.98	17.08	-45.3	-46.6	20.3	0.00e+00	0	34	0	910163968	62	4135
2026-01-17 04:23:35.56	307.28	16.79	-45.4	-46.7	20.2	0.00e+00	0	34	0	917504000	62	4186
2026-01-17 04:23:39.59	306.60	16.49	-45.0	-46.3	20.6	0.00e+00	0	34	0	924844032	62	3983
2026-01-17 04:23:43.63	305.93	16.19	-45.2	-46.5	20.4	0.00e+00	0	34	0	932184064	62	4077
2026-01-17 04:23:47.66	305.27	15.89	-45.4	-46.7	20.3	0.00e+00	0	34	0	939524096	62	4156
2026-01-17 04:23:51.70	304.62	15.59	-45.1	-46.4	20.5	0.00e+00	0	34	0	947912704	62	4050
2026-01-17 04:23:55.73	303.99	15.30	-45.2	-46.5	20.4	0.00e+00	0	34	0	955252736	62	4098
2026-01-17 04:23:59.76	303.37	15.00	-45.4	-46.8	20.1	0.00e+00	0	34	0	962592768	62	4200
2026-01-17 04:24:03.80	302.76	14.70	-45.5	-46.9	20.0	0.00e+00	0	34	0	969932800	62	4268
2026-01-17 04:24:07.83	302.17	14.40	-45.9	-47.3	19.6	0.00e+00	0	34	0	978321408	62	4480
2026-01-17 04:24:11.86	301.59	14.10	-46.2	-47.7	19.2	0.00e+00	0	34	0	985661440	63	4422
2026-01-17 04:24:15.90	301.01	13.81	-46.1	-47.6	19.2	0.00e+00	0	34	0	993001472	63	4390
2026-01-17 04:24:19.93	300.45	13.51	-45.9	-47.4	19.5	0.00e+00	0	34	0	1000341504	63	4255
2026-01-17 04:24:23.96	299.91	13.22	-46.3	-47.8	19.1	0.00e+00	0	34	0	1007681536	63	4479
2026-01-17 04:24:27.99	299.37	12.92	-46.4	-48.0	18.9	0.00e+00	0	34	0	1016070144	63	4587
2026-01-17 04:24:32.03	298.84	12.63	-46.4	-47.9	18.9	0.00e+00	0	34	0	1023410176	63	4543
2026-01-17 04:24:36.06	298.33	12.34	-46.4	-48.0	18.8	0.00e+00	0	34	0	1030750208	63	4598
2026-01-17 04:24:40.09	297.82	12.05	-46.7	-48.3	18.5	0.00e+00	0	34	0	1038090240	63	4742
2026-01-17 04:24:44.13	297.32	11.76	-46.6	-48.3	18.4	0.00e+00	0	34	0	1045430272	64	4491
2026-01-17 04:24:48.15	296.84	11.47	-46.7	-48.4	18.3	0.00e+00	0	34	0	1053818880	64	4516
2026-01-17 04:24:52.19	296.36	11.18	-46.9	-48.7	18.1	0.00e+00	0	34	0	1061158912	64	4675
2026-01-17 04:24:56.22	295.90	10.90	-47.0	-48.9	17.9	0.00e+00	0	34	0	1068498944	64	4764
2026-01-17 04:25:00.26	295.44	10.62	-46.9	-48.6	18.1	0.00e+00	0	34	0	1075838976	64	4630
2026-01-17 04:25:04.29	294.99	10.33	-46.9	-48.7	18.0	0.00e+00	0	34	0	1084227584	64	4694
2026-01-17 04:25:08.32	294.55	10.05	-47.4	-49.3	17.3	0.00e+00	0	34	0	1091567616	65	4755
2026-01-17 04:25:12.36	294.12	9.77	-47.6	-49.7	17.0	0.00e+00	0	34	0	1098907648	65	4938
2026-01-17 04:25:16.39	293.70	9.50	-47.5	-49.6	17.1	0.00e+00	0	34	0	1106247680	65	4880
2026-01-17 04:25:20.43	293.28	9.22	-47.7	-49.8	16.8	0.00e+00	0	34	0	1113587712	66	4758
2026-01-17 04:25:24.46	292.88	8.94	-48.1	-50.4	16.2	0.00e+00	0	34	0	1121976320	66	5090
2026-01-17 04:25:28.49	292.48	8.67	-48.0	-50.3	16.3	0.00e+00	0	34	0	1129316352	66	5028
2026-01-17 04:25:32.53	292.09	8.40	-47.9	-50.1	16.5	0.00e+00	0	34	0	1136656384	66	4909
2026-01-17 04:25:36.56	291.70	8.13	-48.0	-50.2	16.4	0.00e+00	0	34	0	1143996416	67	4692
2026-01-17 04:25:40.60	291.33	7.86	-48.2	-50.6	15.9	0.00e+00	0	34	0	1152385024	67	4922
2026-01-17 04:25:44.63	290.96	7.60	-48.2	-50.6	16.0	0.00e+00	0	34	0	1159725056	67	4895
2026-01-17 04:25:48.66	290.59	7.33	-48.4	-50.9	15.6	0.00e+00	0	34	0	1167065088	67	5080
2026-01-17 04:25:52.70	290.24	7.07	-48.2	-50.6	15.9	0.00e+00	0	34	0	1174405120	67	4912
2026-01-17 04:25:56.73	289.89	6.81	-48.4	-51.0	15.4	0.00e+00	0	34	0	1181745152	67	5154
2026-01-17 04:26:00.77	289.55	6.55	-49.1	-52.1	14.4	7.00e-07	0	34	0	1189085184	68	5495
2026-01-17 04:26:04.80	289.21	6.29	-49.1	-52.1	14.4	0.00e+00	0	34	0	1197473792	68	5495
2026-01-17 04:26:08.84	288.88	6.03	-49.0	-51.9	14.6	1.50e-06	0	34	0	1204813824	69	5077
2026-01-17 04:26:12.87	288.55	5.78	-48.9	-51.8	14.6	1.50e-06	0	34	0	1212153856	69	5034
2026-01-17 04:26:16.91	288.23	5.52	-48.9	-51.9	14.5	2.20e-06	0	34	0	1219493888	69	5044
2026-01-17 04:26:20.94	287.92	5.27	-49.0	-52.0	14.3	7.00e-07	0	34	0	1227882496	69	5131
2026-01-17 04:26:24.98	287.61	5.02	-49.4	-52.8	13.4	5.30e-06	0	34	0	1235222528	69	5632
2026-01-17 04:26:29.01	287.31	4.77	-53.2	-68.2	3.8	1.49e+00	0	34	104	1236271104	76	22061
2026-01-17 04:26:33.05	287.02	4.52	-53.4	-68.5	3.8	1.49e+00	0	35	104	1236271104	77	21556
2026-01-17 04:26:37.08	286.72	4.28	-53.6	-68.6	3.8	1.49e+00	0	34	104	1236271104	77	21866
2026-01-17 04:26:41.12	286.44	4.03	-53.6	-68.7	3.8	1.49e+00	0	34	104	1236271104	77	22050
2026-01-17 04:26:45.16	286.16	3.79	-53.7	-68.7	3.8	1.49e+00	0	34	104	1236271104	77	22142
2026-01-17 04:26:49.19	285.88	3.55	-53.7	-68.7	3.8	1.49e+00	0	35	104	1236271104	77	22126
2026-01-17 04:26:53.22	285.61	3.31	-53.6	-68.6	3.8	1.49e+00	0	35	104	1236271104	77	21996
2026-01-17 04:26:57.26	285.34	3.07	-53.5	-68.6	3.8	1.49e+00	0	34	104	1236271104	77	21773
2026-01-17 04:27:01.30	285.08	2.84	-53.5	-68.5	3.8	1.49e+00	0	34	104	1236271104	77	21703
2026-01-17 04:27:05.33	284.82	2.60	-53.5	-68.5	3.8	1.49e+00	0	34	104	1236271104	77	21596
2026-01-17 04:27:09.37	284.56	2.37	-53.5	-68.5	3.8	1.49e+00	0	34	104	1236271104	77	21602
2026-01-17 04:27:13.41	284.31	2.13	-53.4	-68.5	3.8	1.49e+00	0	35	104	1236271104	77	21567
2026-01-17 04:27:17.44	284.07	1.90	-53.4	-68.5	3.8	1.49e+00	0	34	104	1236271104	77	21617

#Closed at: 2026-01-17 04:27:18
#Recorded file [1236 MB]: D:/lorett/data/31041_260117_071426.dat