passes_logs/2026/01/17/R3.2S_Murmansk/R3.2S_Murmansk__20260117_021411_SUOMI_NPP_rec.log

#Pass ID: 20260117_021411_SUOMI NPP
#Satellite: SUOMI NPP
#Configuration: NPP
#almurnet v.1.7.20251203
#Start time: 2026-01-17 02:14:11

#Version: 2.2.20231116
#Station: R3.2S_Murmansk
#Location: 33.079688 lon 68.888172 lat
#TLE: 1 37849U 11061A   26015.94982489  .00000054  00000+0  46705-4 0  9991
#TLE: 2 37849  98.7812 317.9902 0002438  62.0366 298.1057 14.19525452736847

#Time	Az	El	Level	Level2	SNR	BER	BlckErr	Temp	State	Recorded	gain1	gain2
2026-01-17 02:14:11.84	31.75	2.00	-51.3	-66.2	3.8	1.49e+00	0	33	0	0	74	19833
2026-01-17 02:14:15.87	31.62	2.25	-51.3	-66.2	3.8	1.49e+00	0	33	104	0	73	20951
2026-01-17 02:14:19.91	31.49	2.51	-51.3	-66.2	3.8	1.49e+00	0	33	104	0	73	20808
2026-01-17 02:14:23.94	31.36	2.76	-51.3	-66.2	3.8	1.49e+00	0	33	104	0	73	20795
2026-01-17 02:14:27.98	31.22	3.02	-51.2	-65.4	3.8	1.49e+00	0	33	104	0	73	19092
2026-01-17 02:14:32.01	31.09	3.28	-51.2	-65.1	3.8	1.49e+00	0	33	104	0	73	18313
2026-01-17 02:14:36.04	30.95	3.54	-51.2	-65.6	3.8	1.49e+00	0	33	104	0	73	19533
2026-01-17 02:14:40.08	30.80	3.81	-51.2	-64.1	3.8	1.49e+00	0	33	104	0	73	16324
2026-01-17 02:14:44.11	30.66	4.08	-50.4	-57.5	7.4	1.46e-01	0	33	0	4194304	72	8103
2026-01-17 02:14:48.15	30.51	4.35	-49.2	-53.6	11.5	1.70e-03	0	33	0	12582912	70	5849
2026-01-17 02:14:52.18	30.35	4.62	-49.2	-53.7	11.4	2.35e-03	0	33	0	19922944	70	5893
2026-01-17 02:14:56.22	30.20	4.89	-50.3	-57.2	7.9	5.37e-02	0	33	0	27262976	71	8284
2026-01-17 02:15:00.25	30.04	5.17	-50.0	-55.2	10.4	2.39e-04	0	34	0	34603008	70	6973
2026-01-17 02:15:04.29	29.88	5.45	-47.4	-49.9	15.8	0.00e+00	0	33	0	41943040	66	4781
2026-01-17 02:15:08.32	29.71	5.73	-47.3	-49.7	16.0	0.00e+00	0	33	0	49283072	65	4965
2026-01-17 02:15:12.36	29.54	6.02	-47.0	-49.2	16.5	0.00e+00	0	34	0	57671680	65	4681
2026-01-17 02:15:16.39	29.37	6.31	-46.9	-49.1	16.7	0.00e+00	0	34	0	65011712	65	4629
2026-01-17 02:15:20.43	29.19	6.60	-46.9	-49.0	16.8	0.00e+00	0	34	0	72351744	65	4584
2026-01-17 02:15:24.46	29.01	6.90	-46.7	-48.8	17.0	0.00e+00	0	34	0	79691776	65	4472
2026-01-17 02:15:28.49	28.82	7.19	-46.8	-48.8	17.1	0.00e+00	0	34	0	87031808	65	4478
2026-01-17 02:15:32.52	28.63	7.49	-46.7	-48.7	17.2	0.00e+00	0	34	0	94371840	65	4438
2026-01-17 02:15:36.55	28.44	7.80	-46.8	-48.8	17.1	0.00e+00	0	34	0	102760448	65	4487
2026-01-17 02:15:40.59	28.24	8.11	-46.9	-49.0	17.0	0.00e+00	0	34	0	110100480	64	4844
2026-01-17 02:15:44.62	28.04	8.42	-46.8	-48.9	17.1	0.00e+00	0	34	0	117440512	64	4785
2026-01-17 02:15:48.66	27.83	8.73	-46.5	-48.5	17.5	0.00e+00	0	34	0	124780544	64	4576
2026-01-17 02:15:52.70	27.62	9.05	-46.7	-48.7	17.3	0.00e+00	0	34	0	133169152	64	4704
2026-01-17 02:15:56.73	27.40	9.37	-46.6	-48.6	17.5	0.00e+00	0	34	0	140509184	64	4612
2026-01-17 02:16:00.76	27.18	9.70	-46.5	-48.4	17.6	0.00e+00	0	34	0	147849216	64	4543
2026-01-17 02:16:04.80	26.95	10.03	-46.3	-48.2	17.9	0.00e+00	0	34	0	155189248	64	4418
2026-01-17 02:16:08.83	26.72	10.36	-46.5	-48.4	17.7	0.00e+00	0	34	0	162529280	64	4509
2026-01-17 02:16:12.86	26.48	10.70	-46.4	-48.2	17.9	0.00e+00	0	34	0	170917888	64	4420
2026-01-17 02:16:16.90	26.23	11.04	-46.4	-48.3	17.8	0.00e+00	0	34	0	178257920	64	4471
2026-01-17 02:16:20.93	25.98	11.39	-46.1	-47.8	18.3	0.00e+00	0	34	0	185597952	64	4209
2026-01-17 02:16:24.96	25.72	11.74	-46.3	-48.1	18.2	0.00e+00	0	34	0	192937984	63	4607
2026-01-17 02:16:29.00	25.46	12.09	-46.1	-47.8	18.5	0.00e+00	0	34	0	200278016	63	4453
2026-01-17 02:16:33.03	25.19	12.45	-46.2	-47.9	18.4	0.00e+00	0	34	0	208666624	63	4525
2026-01-17 02:16:37.07	24.91	12.81	-46.3	-48.1	18.2	0.00e+00	0	34	0	216006656	63	4637
2026-01-17 02:16:41.10	24.62	13.18	-46.4	-48.2	18.1	0.00e+00	0	34	0	223346688	63	4686
2026-01-17 02:16:45.13	24.33	13.56	-46.3	-48.1	18.3	0.00e+00	0	34	0	230686720	63	4607
2026-01-17 02:16:49.16	24.03	13.93	-46.2	-48.0	18.3	0.00e+00	0	34	0	239075328	63	4560
2026-01-17 02:16:53.20	23.72	14.32	-46.1	-47.7	18.6	0.00e+00	0	34	0	246415360	63	4438
2026-01-17 02:16:57.23	23.40	14.71	-46.0	-47.7	18.8	0.00e+00	0	34	0	253755392	63	4398
2026-01-17 02:17:01.27	23.07	15.10	-46.0	-47.7	18.8	0.00e+00	0	34	0	261095424	63	4415
2026-01-17 02:17:05.30	22.74	15.50	-46.1	-47.8	18.7	0.00e+00	0	34	0	268435456	63	4443
2026-01-17 02:17:09.34	22.39	15.91	-46.2	-47.9	18.6	0.00e+00	0	34	0	276824064	63	4497
2026-01-17 02:17:13.37	22.03	16.32	-46.1	-47.8	18.7	0.00e+00	0	34	0	284164096	63	4472
2026-01-17 02:17:17.41	21.67	16.74	-45.8	-47.3	19.1	0.00e+00	0	34	0	291504128	63	4232
2026-01-17 02:17:21.44	21.29	17.16	-45.7	-47.3	19.1	0.00e+00	0	34	0	298844160	63	4197
2026-01-17 02:17:25.48	20.90	17.59	-45.9	-47.5	19.0	0.00e+00	0	34	0	307232768	63	4302
2026-01-17 02:17:29.51	20.50	18.02	-46.3	-47.9	18.6	0.00e+00	0	34	0	314572800	63	4538
2026-01-17 02:17:33.54	20.09	18.46	-46.3	-48.0	18.5	0.00e+00	0	34	0	321912832	63	4574
2026-01-17 02:17:37.58	19.66	18.91	-46.4	-48.1	18.5	0.00e+00	0	34	0	329252864	63	4627
2026-01-17 02:17:41.61	19.23	19.37	-46.2	-47.8	18.7	0.00e+00	0	34	0	336592896	64	4240
2026-01-17 02:17:45.64	18.77	19.83	-46.6	-48.4	18.2	0.00e+00	0	34	0	343932928	64	4498
2026-01-17 02:17:49.68	18.31	20.29	-46.8	-48.6	18.1	0.00e+00	0	34	0	352321536	64	4616
2026-01-17 02:17:53.71	17.83	20.77	-46.6	-48.3	18.4	0.00e+00	0	34	0	359661568	64	4444
2026-01-17 02:17:57.74	17.33	21.25	-46.1	-47.7	19.0	0.00e+00	0	34	0	367001600	63	4425
2026-01-17 02:18:01.77	16.82	21.73	-46.2	-47.7	19.0	0.00e+00	0	34	0	374341632	63	4440
2026-01-17 02:18:05.81	16.29	22.23	-46.7	-48.5	18.2	0.00e+00	0	34	0	382730240	64	4563
2026-01-17 02:18:09.84	15.74	22.73	-46.5	-48.2	18.4	0.00e+00	0	34	0	390070272	64	4429
2026-01-17 02:18:13.88	15.17	23.24	-46.5	-48.2	18.4	0.00e+00	0	34	0	397410304	64	4432
2026-01-17 02:18:17.91	14.59	23.76	-46.8	-48.7	17.9	0.00e+00	0	34	0	404750336	64	4676
2026-01-17 02:18:21.94	13.98	24.28	-47.4	-49.4	17.3	0.00e+00	0	34	0	412090368	65	4793
2026-01-17 02:18:25.98	13.36	24.81	-46.6	-48.4	18.3	0.00e+00	0	34	0	420478976	65	4260
2026-01-17 02:18:30.01	12.71	25.34	-46.5	-48.3	18.4	0.00e+00	0	34	0	427819008	64	4450
2026-01-17 02:18:34.04	12.04	25.89	-46.8	-48.6	18.0	0.00e+00	0	34	0	435159040	64	4645
2026-01-17 02:18:38.08	11.34	26.44	-46.6	-48.4	18.3	0.00e+00	0	34	0	442499072	64	4531
2026-01-17 02:18:42.11	10.62	26.99	-46.6	-48.3	18.4	0.00e+00	0	34	0	449839104	64	4486
2026-01-17 02:18:46.14	9.87	27.55	-46.9	-48.7	18.1	0.00e+00	0	34	0	458227712	65	4403
2026-01-17 02:18:50.17	9.10	28.12	-47.2	-49.2	17.6	0.00e+00	0	34	0	465567744	65	4680
2026-01-17 02:18:54.20	8.30	28.69	-47.7	-49.9	16.8	0.00e+00	0	34	0	472907776	66	4804
2026-01-17 02:18:58.24	7.46	29.27	-47.3	-49.3	17.5	0.00e+00	0	34	0	480247808	66	4445
2026-01-17 02:19:02.27	6.60	29.86	-47.8	-50.0	16.8	0.00e+00	0	34	0	488636416	66	4864
2026-01-17 02:19:06.31	5.70	30.45	-48.0	-50.2	16.7	0.00e+00	0	34	0	495976448	67	4698
2026-01-17 02:19:10.35	4.77	31.04	-48.0	-50.2	16.7	0.00e+00	0	34	0	503316480	67	4695
2026-01-17 02:19:14.38	3.81	31.64	-49.2	-52.3	14.7	0.00e+00	0	34	0	510656512	69	5281
2026-01-17 02:19:18.41	2.81	32.23	-48.7	-51.4	15.6	0.00e+00	0	34	0	517996544	68	5062
2026-01-17 02:19:22.45	1.76	32.83	-48.5	-50.9	16.0	0.00e+00	0	34	0	526385152	68	4802
2026-01-17 02:19:26.48	0.69	33.43	-48.9	-51.6	15.5	0.00e+00	0	34	0	533725184	68	5184
2026-01-17 02:19:30.52	359.56	34.03	-49.0	-51.7	15.3	7.00e-07	0	34	0	541065216	69	4965
2026-01-17 02:19:34.55	358.40	34.63	-46.6	-48.2	18.6	0.00e+00	0	34	0	548405248	65	4189
2026-01-17 02:19:38.59	357.19	35.23	-46.6	-48.2	18.7	0.00e+00	0	34	0	556793856	64	4437
2026-01-17 02:19:42.62	355.94	35.82	-47.4	-49.4	17.5	0.00e+00	0	34	0	564133888	65	4802
2026-01-17 02:19:46.66	354.64	36.41	-48.4	-51.1	15.9	0.00e+00	0	34	0	571473920	67	5161
2026-01-17 02:19:50.69	353.29	36.99	-47.2	-49.0	17.8	0.00e+00	0	34	0	578813952	66	4334
2026-01-17 02:19:54.72	351.90	37.56	-48.8	-51.5	15.6	0.00e+00	0	34	0	586153984	68	5107
2026-01-17 02:19:58.76	350.45	38.12	-48.9	-51.7	15.4	0.00e+00	0	34	0	594542592	68	5264
2026-01-17 02:20:02.79	348.96	38.66	-48.5	-51.1	16.0	0.00e+00	0	34	0	601882624	68	4882
2026-01-17 02:20:06.82	347.41	39.20	-47.2	-49.1	17.8	0.00e+00	0	34	0	609222656	66	4384
2026-01-17 02:20:10.86	345.81	39.71	-46.4	-48.1	18.8	0.00e+00	0	34	0	616562688	64	4375
2026-01-17 02:20:14.89	344.16	40.21	-47.5	-49.6	17.4	0.00e+00	0	34	0	623902720	65	4889
2026-01-17 02:20:18.92	342.46	40.69	-46.0	-47.5	19.2	0.00e+00	0	34	0	632291328	64	4091
2026-01-17 02:20:22.95	340.72	41.14	-46.1	-47.7	19.1	0.00e+00	0	34	0	639631360	64	4163
2026-01-17 02:20:26.99	338.92	41.57	-46.5	-48.3	18.7	0.00e+00	0	34	0	646971392	63	4706
2026-01-17 02:20:31.02	337.07	41.97	-46.3	-48.1	18.7	0.00e+00	0	34	0	654311424	64	4344
2026-01-17 02:20:35.06	335.18	42.33	-45.7	-47.3	19.6	0.00e+00	0	34	0	662700032	63	4195
2026-01-17 02:20:39.09	333.25	42.67	-45.4	-46.8	20.0	0.00e+00	0	34	0	670040064	62	4238
2026-01-17 02:20:43.12	331.28	42.97	-47.4	-49.5	17.5	0.00e+00	0	34	0	677380096	66	4563
2026-01-17 02:20:47.16	329.27	43.23	-47.3	-49.3	17.8	0.00e+00	0	34	0	684720128	65	4732
2026-01-17 02:20:51.19	327.23	43.46	-46.2	-47.7	19.2	0.00e+00	0	34	0	692060160	63	4440
2026-01-17 02:20:55.23	325.17	43.65	-48.0	-50.3	16.7	0.00e+00	0	34	0	699400192	66	5032
2026-01-17 02:20:59.26	323.08	43.79	-46.1	-47.7	19.2	0.00e+00	0	34	0	707788800	64	4174
2026-01-17 02:21:03.30	320.98	43.89	-47.4	-49.5	17.5	0.00e+00	0	34	0	715128832	66	4571
2026-01-17 02:21:07.33	318.87	43.95	-47.8	-50.0	17.0	0.00e+00	0	34	0	722468864	67	4576
2026-01-17 02:21:11.36	316.75	43.96	-47.4	-49.5	17.5	0.00e+00	0	34	0	729808896	66	4576
2026-01-17 02:21:15.40	314.63	43.93	-47.0	-48.9	18.0	0.00e+00	0	34	0	738197504	66	4284
2026-01-17 02:21:19.43	312.52	43.86	-48.0	-50.3	16.7	0.00e+00	0	34	0	745537536	66	5030
2026-01-17 02:21:23.46	310.43	43.75	-49.0	-52.0	15.2	0.00e+00	0	34	0	752877568	68	5447
2026-01-17 02:21:27.49	308.35	43.59	-48.7	-51.3	15.7	0.00e+00	0	34	0	760217600	68	5025
2026-01-17 02:21:31.53	306.29	43.39	-48.5	-51.2	15.9	0.00e+00	0	34	0	767557632	67	5230
2026-01-17 02:21:35.56	304.26	43.15	-49.0	-51.9	15.3	0.00e+00	0	34	0	775946240	69	5086
2026-01-17 02:21:39.60	302.26	42.87	-48.7	-51.7	15.3	0.00e+00	0	34	0	783286272	68	5219
2026-01-17 02:21:43.63	300.30	42.56	-46.4	-48.2	18.8	0.00e+00	0	34	0	790626304	64	4409
2026-01-17 02:21:47.67	298.38	42.21	-46.1	-47.7	19.2	0.00e+00	0	34	0	797966336	64	4160
2026-01-17 02:21:51.70	296.51	41.83	-45.7	-47.2	19.8	0.00e+00	0	34	0	806354944	61	4688
2026-01-17 02:21:55.73	294.68	41.42	-45.0	-46.3	20.5	0.00e+00	0	34	0	813694976	61	4241
2026-01-17 02:21:59.77	292.89	40.98	-46.0	-47.6	19.4	0.00e+00	0	34	0	821035008	63	4385
2026-01-17 02:22:03.80	291.16	40.52	-44.5	-45.7	21.1	0.00e+00	0	34	0	828375040	60	4156
2026-01-17 02:22:07.83	289.47	40.04	-45.4	-46.8	20.2	0.00e+00	0	34	0	835715072	61	4459
2026-01-17 02:22:11.87	287.84	39.53	-45.1	-46.5	20.4	0.00e+00	0	34	0	844103680	61	4292
2026-01-17 02:22:15.90	286.26	39.01	-46.0	-47.5	19.6	0.00e+00	0	34	0	851443712	62	4593
2026-01-17 02:22:19.93	284.73	38.47	-44.3	-45.4	21.5	0.00e+00	0	34	0	858783744	60	4028
2026-01-17 02:22:23.97	283.24	37.92	-45.5	-46.9	20.0	0.00e+00	0	34	0	866123776	61	4533
2026-01-17 02:22:28.01	281.81	37.35	-45.8	-47.3	19.8	0.00e+00	0	34	0	873463808	63	4208
2026-01-17 02:22:32.04	280.43	36.78	-46.1	-47.6	19.5	0.00e+00	0	34	0	881852416	63	4341
2026-01-17 02:22:36.07	279.10	36.20	-46.5	-48.0	19.0	0.00e+00	0	34	0	889192448	64	4336
2026-01-17 02:22:40.10	277.81	35.61	-47.3	-49.2	17.9	0.00e+00	0	34	0	896532480	65	4664
2026-01-17 02:22:44.14	276.57	35.01	-46.2	-47.7	19.3	0.00e+00	0	34	0	903872512	64	4155
2026-01-17 02:22:48.17	275.38	34.41	-46.4	-47.9	19.2	0.00e+00	0	34	0	912261120	63	4511
2026-01-17 02:22:52.21	274.23	33.81	-46.8	-48.4	18.6	0.00e+00	0	34	0	919601152	65	4273
2026-01-17 02:22:56.24	273.12	33.21	-48.5	-50.8	16.4	0.00e+00	0	34	0	926941184	67	5021
2026-01-17 02:23:00.27	272.05	32.61	-51.1	-55.9	11.2	1.28e-03	0	34	0	934281216	72	6788
2026-01-17 02:23:04.31	271.02	32.01	-49.2	-51.9	15.4	0.00e+00	0	34	0	941621248	69	5078
2026-01-17 02:23:08.34	270.03	31.41	-49.8	-52.9	14.4	2.20e-06	0	34	0	948961280	70	5388
2026-01-17 02:23:12.38	269.07	30.81	-48.2	-50.3	16.8	0.00e+00	0	34	0	957349888	68	4492
2026-01-17 02:23:16.41	268.16	30.22	-49.0	-51.5	15.6	0.00e+00	0	34	0	964689920	68	5156
2026-01-17 02:23:20.44	267.27	29.64	-48.1	-50.2	16.9	0.00e+00	0	34	0	972029952	68	4422
2026-01-17 02:23:24.48	266.41	29.05	-47.6	-49.6	17.5	0.00e+00	0	34	0	979369984	66	4601
2026-01-17 02:23:28.52	265.59	28.47	-46.8	-48.5	18.4	0.00e+00	0	34	0	987758592	65	4318
2026-01-17 02:23:32.55	264.79	27.90	-47.1	-48.9	18.0	0.00e+00	0	34	0	995098624	65	4541
2026-01-17 02:23:36.58	264.03	27.33	-47.3	-49.2	17.8	0.00e+00	0	34	0	1002438656	65	4692
2026-01-17 02:23:40.61	263.29	26.77	-47.2	-49.1	17.9	0.00e+00	0	34	0	1009778688	65	4628
2026-01-17 02:23:44.64	262.57	26.22	-46.9	-48.6	18.3	0.00e+00	0	34	0	1017118720	65	4391
2026-01-17 02:23:48.68	261.88	25.67	-46.7	-48.3	18.6	0.00e+00	0	34	0	1025507328	64	4481
2026-01-17 02:23:52.71	261.22	25.13	-46.7	-48.4	18.5	0.00e+00	0	34	0	1032847360	64	4499
2026-01-17 02:23:56.75	260.58	24.59	-46.7	-48.4	18.5	0.00e+00	0	34	0	1040187392	64	4494
2026-01-17 02:24:00.78	259.96	24.06	-46.0	-47.5	19.4	0.00e+00	0	34	0	1047527424	63	4325
2026-01-17 02:24:04.81	259.36	23.54	-47.4	-49.4	17.5	0.00e+00	0	34	0	1055916032	65	4785
2026-01-17 02:24:08.85	258.77	23.03	-47.9	-50.0	17.0	0.00e+00	0	34	0	1063256064	66	4831
2026-01-17 02:24:12.88	258.21	22.52	-47.4	-49.4	17.4	0.00e+00	0	34	0	1070596096	66	4521
2026-01-17 02:24:16.92	257.67	22.02	-47.5	-49.5	17.4	0.00e+00	0	34	0	1077936128	66	4546
2026-01-17 02:24:20.95	257.14	21.53	-46.9	-48.7	18.1	0.00e+00	0	34	0	1085276160	65	4408
2026-01-17 02:24:24.99	256.63	21.04	-46.5	-48.2	18.6	0.00e+00	0	34	0	1093664768	65	4154
2026-01-17 02:24:29.02	256.14	20.56	-46.1	-47.6	19.2	0.00e+00	0	34	0	1101004800	63	4387
2026-01-17 02:24:33.05	255.66	20.09	-46.6	-48.2	18.6	0.00e+00	0	34	0	1108344832	63	4693
2026-01-17 02:24:37.08	255.20	19.62	-47.0	-48.8	17.9	0.00e+00	0	34	0	1115684864	64	4729
2026-01-17 02:24:41.12	254.75	19.16	-46.7	-48.4	18.3	0.00e+00	0	34	0	1123024896	64	4528
2026-01-17 02:24:45.16	254.32	18.71	-46.3	-47.9	18.8	0.00e+00	0	34	0	1131413504	64	4270
2026-01-17 02:24:49.19	253.90	18.26	-46.9	-48.7	18.0	0.00e+00	0	34	0	1138753536	64	4674
2026-01-17 02:24:53.22	253.49	17.82	-47.4	-49.5	17.3	0.00e+00	0	34	0	1146093568	65	4821
2026-01-17 02:24:57.26	253.09	17.39	-47.6	-49.8	17.0	0.00e+00	0	34	0	1153433600	65	4991
2026-01-17 02:25:01.29	252.70	16.96	-47.4	-49.4	17.3	0.00e+00	0	34	0	1161822208	66	4500
2026-01-17 02:25:05.32	252.33	16.54	-46.6	-48.4	18.3	0.00e+00	0	34	0	1169162240	65	4247
2026-01-17 02:25:09.36	251.96	16.12	-46.0	-47.6	19.0	0.00e+00	0	34	0	1176502272	64	4130
2026-01-17 02:25:13.39	251.61	15.72	-46.5	-48.2	18.4	0.00e+00	0	34	0	1183842304	64	4404
2026-01-17 02:25:17.43	251.26	15.31	-46.9	-48.7	17.9	0.00e+00	0	34	0	1191182336	64	4670
2026-01-17 02:25:21.46	250.93	14.91	-46.8	-48.6	18.0	0.00e+00	0	34	0	1199570944	64	4627
2026-01-17 02:25:25.49	250.60	14.52	-46.6	-48.4	18.2	0.00e+00	0	34	0	1206910976	64	4530
2026-01-17 02:25:29.53	250.28	14.13	-47.0	-48.9	17.7	0.00e+00	0	34	0	1214251008	64	4810
2026-01-17 02:25:33.56	249.98	13.75	-47.8	-50.0	16.6	0.00e+00	0	34	0	1221591040	66	4859
2026-01-17 02:25:37.60	249.68	13.37	-48.0	-50.4	16.2	0.00e+00	0	34	0	1228931072	67	4782
2026-01-17 02:25:41.63	249.38	13.00	-48.1	-50.6	16.0	0.00e+00	0	34	0	1237319680	67	4884
2026-01-17 02:25:45.67	249.10	12.63	-48.0	-50.4	16.1	0.00e+00	0	34	0	1244659712	67	4788
2026-01-17 02:25:49.70	248.82	12.27	-47.6	-49.8	16.7	0.00e+00	0	34	0	1251999744	67	4450
2026-01-17 02:25:53.74	248.55	11.91	-47.9	-50.2	16.3	0.00e+00	0	34	0	1259339776	67	4667
2026-01-17 02:25:57.77	248.28	11.56	-48.1	-50.6	15.9	0.00e+00	0	34	0	1267728384	67	4893
2026-01-17 02:26:01.80	248.03	11.21	-47.8	-50.1	16.3	0.00e+00	0	34	0	1275068416	67	4628
2026-01-17 02:26:05.83	247.78	10.86	-47.7	-50.0	16.5	0.00e+00	0	35	0	1282408448	67	4562
2026-01-17 02:26:09.87	247.53	10.52	-47.7	-50.0	16.5	0.00e+00	0	34	0	1289748480	67	4569
2026-01-17 02:26:13.91	247.29	10.18	-47.8	-50.1	16.3	0.00e+00	0	34	0	1297088512	67	4650
2026-01-17 02:26:17.94	247.06	9.85	-48.0	-50.4	16.0	0.00e+00	0	34	0	1305477120	67	4805
2026-01-17 02:26:21.97	246.83	9.52	-47.9	-50.3	16.1	0.00e+00	0	34	0	1312817152	67	4724
2026-01-17 02:26:26.00	246.61	9.20	-48.0	-50.4	16.0	0.00e+00	0	34	0	1320157184	67	4804
2026-01-17 02:26:30.04	246.39	8.88	-48.0	-50.4	16.0	0.00e+00	0	34	0	1327497216	67	4773
2026-01-17 02:26:34.07	246.18	8.56	-48.1	-50.6	15.8	0.00e+00	0	34	0	1334837248	67	4885
2026-01-17 02:26:38.11	245.97	8.25	-48.5	-51.3	15.0	0.00e+00	0	34	0	1343225856	67	5313
2026-01-17 02:26:42.14	245.77	7.94	-48.6	-51.5	14.7	0.00e+00	0	34	0	1350565888	67	5449
2026-01-17 02:26:46.18	245.57	7.63	-49.0	-52.2	14.1	7.00e-07	0	34	0	1357905920	68	5533
2026-01-17 02:26:50.21	245.37	7.33	-48.9	-52.0	14.3	1.50e-06	0	34	0	1365245952	68	5428
2026-01-17 02:26:54.24	245.18	7.03	-48.8	-51.9	14.3	0.00e+00	0	34	0	1372585984	68	5366
2026-01-17 02:26:58.28	245.00	6.73	-48.6	-51.5	14.6	0.00e+00	0	35	0	1380974592	68	5139
2026-01-17 02:27:02.31	244.81	6.43	-48.6	-51.5	14.6	0.00e+00	0	34	0	1388314624	68	5113
2026-01-17 02:27:06.34	244.64	6.14	-48.3	-51.1	14.9	0.00e+00	0	34	0	1395654656	68	4908
2026-01-17 02:27:10.38	244.46	5.85	-48.5	-51.4	14.6	0.00e+00	0	34	0	1402994688	68	5098
2026-01-17 02:27:14.42	244.29	5.57	-48.5	-51.5	14.5	7.00e-07	0	34	0	1411383296	68	5119
2026-01-17 02:27:18.45	244.12	5.29	-48.8	-52.0	14.0	2.20e-06	0	34	0	1418723328	68	5428
2026-01-17 02:27:22.48	243.96	5.01	-50.0	-54.4	11.8	1.22e-05	0	34	0	1426063360	70	6368
2026-01-17 02:27:26.52	243.80	4.73	-53.1	-68.1	3.8	1.49e+00	0	34	104	1426063360	76	22002
2026-01-17 02:27:30.55	243.64	4.46	-53.5	-68.5	3.8	1.49e+00	0	34	104	1426063360	77	21608
2026-01-17 02:27:34.59	243.49	4.18	-53.6	-68.7	3.8	1.49e+00	0	34	104	1426063360	77	22011
2026-01-17 02:27:38.62	243.34	3.91	-53.6	-68.6	3.8	1.49e+00	0	34	104	1426063360	77	21979
2026-01-17 02:27:42.65	243.19	3.65	-53.6	-68.6	3.8	1.49e+00	0	34	104	1426063360	77	21942
2026-01-17 02:27:46.68	243.05	3.38	-53.6	-68.6	3.8	1.49e+00	0	34	104	1426063360	77	21911
2026-01-17 02:27:50.72	242.90	3.12	-53.6	-68.6	3.8	1.49e+00	0	35	104	1426063360	77	21920
2026-01-17 02:27:54.75	242.76	2.86	-53.6	-68.6	3.8	1.49e+00	0	34	104	1426063360	77	21832
2026-01-17 02:27:58.79	242.63	2.60	-53.5	-68.6	3.8	1.49e+00	0	34	104	1426063360	77	21779
2026-01-17 02:28:02.82	242.49	2.35	-53.5	-68.5	3.8	1.49e+00	0	34	104	1426063360	77	21717
2026-01-17 02:28:06.86	242.36	2.09	-53.5	-68.5	3.8	1.49e+00	0	35	104	1426063360	77	21680

#Closed at: 2026-01-17 02:28:08
#Recorded file [1426 MB]: D:/lorett/data/31041_260117_051411.dat