passes_logs/2026/01/17/R3.2S_Murmansk/R3.2S_Murmansk__20260117_224133_KANOPUS-V_5_rec.log

#Pass ID: 20260117_224133_KANOPUS-V 5
#Satellite: KANOPUS-V 5
#Configuration: KANOPUS-V_8320
#almurnet v.1.7.20251203
#Start time: 2026-01-17 22:41:34

#Version: 2.2.20231116
#Station: R3.2S_Murmansk
#Location: 33.079688 lon 68.888172 lat
#TLE: 1 43876U 18111A   26017.66658644  .00002803  00000+0  12058-3 0  9992
#TLE: 2 43876  97.3688 286.1324 0001777  87.2776 272.8665 15.23451717391876

#Time	Az	El	Level	Level2	SNR	BER	BlckErr	Temp	State	Recorded	gain1	gain2
2026-01-17 22:41:34.59	20.90	2.05	-52.9	-61.7	3.8	7.46e-01	0	33	0	0	77	9923
2026-01-17 22:41:37.60	20.86	2.26	-52.9	-61.7	3.8	7.46e-01	0	33	104	0	76	10508
2026-01-17 22:41:40.62	20.81	2.47	-52.9	-61.7	3.8	7.46e-01	0	34	104	0	76	10483
2026-01-17 22:41:43.65	20.76	2.69	-52.9	-61.7	3.8	7.44e-01	0	33	104	0	76	10479
2026-01-17 22:41:46.68	20.71	2.91	-52.9	-61.7	3.8	7.45e-01	0	34	104	0	76	10501
2026-01-17 22:41:49.70	20.66	3.13	-52.9	-61.7	3.8	7.45e-01	0	34	104	0	76	10481
2026-01-17 22:41:52.73	20.61	3.35	-52.9	-61.7	3.8	7.46e-01	0	34	104	0	76	10502
2026-01-17 22:41:55.75	20.55	3.57	-52.9	-61.7	3.8	7.47e-01	0	34	104	0	76	10504
2026-01-17 22:41:58.78	20.50	3.80	-52.9	-61.7	3.8	7.44e-01	0	34	104	0	76	10456
2026-01-17 22:42:01.80	20.44	4.03	-52.9	-61.7	3.8	7.45e-01	0	34	104	0	76	10467
2026-01-17 22:42:04.82	20.38	4.26	-52.9	-61.7	3.8	7.44e-01	0	34	104	0	76	10498
2026-01-17 22:42:07.85	20.32	4.50	-52.9	-61.7	3.8	7.44e-01	0	34	104	0	76	10458
2026-01-17 22:42:10.88	20.26	4.74	-52.9	-61.7	3.8	7.45e-01	0	34	104	0	76	10474
2026-01-17 22:42:13.90	20.20	4.98	-52.9	-61.7	3.8	7.45e-01	0	34	104	0	76	10462
2026-01-17 22:42:16.92	20.14	5.22	-53.0	-61.9	3.8	7.46e-01	0	34	104	0	76	10689
2026-01-17 22:42:19.94	20.07	5.47	-52.9	-61.7	3.8	7.45e-01	0	34	104	0	76	10528
2026-01-17 22:42:22.97	20.00	5.72	-53.1	-61.9	3.8	7.45e-01	0	34	104	0	76	10716
2026-01-17 22:42:25.99	19.93	5.97	-52.9	-61.8	3.8	7.44e-01	0	34	104	0	76	10606
2026-01-17 22:42:29.02	19.86	6.23	-53.2	-62.0	3.8	7.45e-01	0	35	104	0	76	10872
2026-01-17 22:42:32.04	19.79	6.49	-53.1	-61.9	3.8	7.46e-01	0	35	104	0	76	10762
2026-01-17 22:42:35.07	19.72	6.75	-53.2	-62.0	3.8	7.45e-01	0	34	104	0	77	10291
2026-01-17 22:42:38.09	19.64	7.02	-53.1	-62.0	3.8	7.45e-01	0	35	104	0	77	10191
2026-01-17 22:42:41.11	19.56	7.29	-53.3	-62.2	3.8	7.45e-01	0	35	104	0	77	10415
2026-01-17 22:42:44.14	19.48	7.57	-53.3	-62.1	3.8	7.46e-01	0	35	104	0	77	10337
2026-01-17 22:42:47.16	19.39	7.84	-53.4	-62.2	3.8	7.45e-01	0	35	104	0	77	10465
2026-01-17 22:42:50.18	19.31	8.13	-53.3	-62.1	3.8	7.46e-01	0	35	104	0	77	10361
2026-01-17 22:42:53.20	19.22	8.41	-53.4	-62.3	3.8	7.45e-01	0	35	104	0	77	10554
2026-01-17 22:42:56.23	19.13	8.71	-53.4	-62.2	3.8	7.46e-01	0	35	104	0	77	10482
2026-01-17 22:42:59.25	19.04	9.00	-53.5	-62.3	3.8	7.46e-01	0	35	104	0	77	10613
2026-01-17 22:43:02.28	18.94	9.30	-53.4	-62.2	3.8	7.45e-01	0	35	104	0	77	10530
2026-01-17 22:43:05.30	18.84	9.61	-53.5	-62.4	3.8	7.45e-01	0	35	104	0	77	10736
2026-01-17 22:43:08.32	18.74	9.92	-53.5	-62.3	3.8	7.46e-01	0	35	104	0	77	10643
2026-01-17 22:43:11.34	18.64	10.23	-53.5	-62.3	3.8	7.46e-01	0	35	104	0	77	10652
2026-01-17 22:43:14.37	18.53	10.56	-53.5	-62.4	3.8	7.46e-01	0	35	104	0	77	10677
2026-01-17 22:43:17.39	18.42	10.88	-53.6	-62.4	3.8	7.44e-01	0	35	104	0	77	10765
2026-01-17 22:43:20.42	18.30	11.21	-53.6	-62.4	3.8	7.45e-01	0	35	104	0	77	10752
2026-01-17 22:43:23.44	18.18	11.55	-53.6	-62.4	3.8	7.46e-01	0	35	104	0	77	10767
2026-01-17 22:43:26.46	18.06	11.90	-53.6	-62.5	3.8	7.45e-01	0	35	104	0	77	10791
2026-01-17 22:43:29.49	17.93	12.25	-53.7	-62.5	3.8	7.46e-01	0	35	104	0	77	10864
2026-01-17 22:43:32.51	17.80	12.61	-53.7	-62.6	3.8	7.44e-01	0	35	104	0	77	10923
2026-01-17 22:43:35.54	17.67	12.97	-53.7	-62.6	3.8	7.45e-01	0	35	104	0	78	10305
2026-01-17 22:43:38.56	17.53	13.35	-53.7	-62.6	3.8	7.44e-01	0	35	104	0	78	10322
2026-01-17 22:43:41.59	17.39	13.73	-53.8	-62.6	3.8	7.46e-01	0	35	104	0	78	10334
2026-01-17 22:43:44.61	17.24	14.11	-53.8	-62.6	3.8	7.46e-01	0	35	104	0	78	10407
2026-01-17 22:43:47.64	17.08	14.51	-53.8	-62.7	3.8	7.45e-01	0	35	104	0	78	10441
2026-01-17 22:43:50.66	16.92	14.91	-53.8	-62.7	3.8	7.45e-01	0	35	104	0	78	10433
2026-01-17 22:43:53.68	16.76	15.33	-53.8	-62.7	3.8	7.47e-01	0	35	104	0	78	10452
2026-01-17 22:43:56.71	16.59	15.75	-53.9	-62.7	3.8	7.46e-01	0	35	104	0	78	10521
2026-01-17 22:43:59.73	16.41	16.18	-53.9	-62.7	3.8	7.45e-01	0	35	104	0	78	10502
2026-01-17 22:44:02.75	16.23	16.62	-53.9	-62.7	3.8	7.48e-01	0	35	104	0	78	10531
2026-01-17 22:44:05.78	16.04	17.07	-53.9	-62.8	3.8	7.46e-01	0	35	104	0	78	10558
2026-01-17 22:44:08.80	15.84	17.53	-54.0	-62.8	3.8	7.45e-01	0	36	104	0	78	10613
2026-01-17 22:44:11.82	15.63	18.01	-53.9	-62.8	3.8	7.44e-01	0	35	104	0	78	10601
2026-01-17 22:44:14.85	15.42	18.49	-54.0	-62.8	3.8	7.45e-01	0	35	104	0	78	10613
2026-01-17 22:44:17.87	15.20	18.99	-54.0	-62.8	3.8	7.44e-01	0	35	104	0	78	10612
2026-01-17 22:44:20.89	14.96	19.50	-54.0	-62.9	3.8	7.43e-01	0	35	104	0	78	10707
2026-01-17 22:44:23.92	14.72	20.02	-54.0	-62.9	3.8	7.46e-01	0	35	104	0	78	10680
2026-01-17 22:44:26.94	14.47	20.56	-54.1	-62.9	3.8	7.45e-01	0	35	104	0	78	10720
2026-01-17 22:44:29.96	14.21	21.11	-54.0	-62.9	3.8	7.44e-01	0	35	104	0	78	10734
2026-01-17 22:44:32.99	13.94	21.68	-54.1	-62.9	3.8	7.45e-01	0	35	104	0	78	10761
2026-01-17 22:44:36.01	13.65	22.26	-54.1	-62.9	3.8	7.47e-01	0	35	104	0	78	10768
2026-01-17 22:44:39.03	13.35	22.85	-54.1	-63.0	3.8	7.46e-01	0	35	104	0	78	10809
2026-01-17 22:44:42.06	13.04	23.47	-54.1	-62.9	3.8	7.44e-01	0	35	104	0	78	10761
2026-01-17 22:44:45.08	12.71	24.10	-54.2	-63.0	3.8	7.45e-01	0	35	104	0	78	10854
2026-01-17 22:44:48.10	12.37	24.75	-54.1	-63.0	3.8	7.44e-01	0	35	104	0	78	10814
2026-01-17 22:44:51.12	12.01	25.42	-54.2	-63.0	3.8	7.45e-01	0	35	104	0	78	10872
2026-01-17 22:44:54.15	11.63	26.11	-54.2	-63.0	3.8	7.46e-01	0	35	104	0	78	10852
2026-01-17 22:44:57.17	11.23	26.82	-54.2	-63.1	3.8	7.45e-01	0	35	104	0	79	10318
2026-01-17 22:45:00.19	10.81	27.56	-54.2	-63.1	3.8	7.46e-01	0	35	104	0	79	10323
2026-01-17 22:45:03.22	10.37	28.31	-54.3	-63.1	3.8	7.45e-01	0	35	104	0	79	10364
2026-01-17 22:45:06.24	9.90	29.09	-54.3	-63.1	3.8	7.44e-01	0	35	104	0	79	10342
2026-01-17 22:45:09.26	9.41	29.89	-54.3	-63.2	3.8	7.46e-01	0	36	104	0	79	10449
2026-01-17 22:45:12.29	8.89	30.73	-54.3	-63.2	3.8	7.46e-01	0	35	104	0	79	10432
2026-01-17 22:45:15.31	8.33	31.58	-54.3	-63.2	3.8	7.45e-01	0	35	104	0	79	10454
2026-01-17 22:45:18.33	7.75	32.46	-54.3	-63.2	3.8	7.46e-01	0	35	104	0	79	10431
2026-01-17 22:45:21.36	7.13	33.37	-54.4	-63.2	3.8	7.46e-01	0	35	104	0	79	10468
2026-01-17 22:45:24.38	6.46	34.31	-54.4	-63.2	3.8	7.43e-01	0	35	104	0	79	10516
2026-01-17 22:45:27.40	5.76	35.28	-54.4	-63.3	3.8	7.46e-01	0	35	104	0	79	10546
2026-01-17 22:45:30.42	5.01	36.28	-54.4	-63.2	3.8	7.44e-01	0	36	104	0	79	10520
2026-01-17 22:45:33.45	4.20	37.32	-54.5	-63.3	3.8	7.45e-01	0	35	104	0	79	10591
2026-01-17 22:45:36.47	3.34	38.38	-54.5	-63.3	3.8	7.46e-01	0	35	104	0	79	10640
2026-01-17 22:45:39.50	2.41	39.48	-54.5	-63.3	3.8	7.47e-01	0	35	104	0	79	10610
2026-01-17 22:45:42.52	1.42	40.60	-54.5	-63.3	3.8	7.47e-01	0	35	104	0	79	10610
2026-01-17 22:45:45.54	0.35	41.76	-54.5	-63.4	3.8	7.45e-01	0	36	104	0	79	10694
2026-01-17 22:45:48.57	359.18	42.95	-54.6	-63.5	3.8	7.46e-01	0	36	104	0	79	10791
2026-01-17 22:45:51.59	357.93	44.17	-54.6	-63.5	3.8	7.45e-01	0	35	104	0	79	10793
2026-01-17 22:45:54.62	356.57	45.42	-54.6	-63.5	3.8	7.47e-01	0	35	104	0	79	10779
2026-01-17 22:45:57.64	355.10	46.69	-54.6	-63.5	3.8	7.45e-01	0	35	104	0	79	10836
2026-01-17 22:46:00.66	353.49	47.98	-54.7	-63.5	3.8	7.46e-01	0	36	104	0	79	10888
2026-01-17 22:46:03.69	351.73	49.30	-54.7	-63.5	3.8	7.45e-01	0	35	104	0	79	10857
2026-01-17 22:46:06.72	349.81	50.62	-54.7	-63.6	3.8	7.45e-01	0	35	104	0	79	10926
2026-01-17 22:46:09.74	347.71	51.95	-54.7	-63.6	3.8	7.46e-01	0	35	104	0	79	10907
2026-01-17 22:46:12.76	345.41	53.28	-54.7	-63.5	3.8	7.46e-01	0	35	104	0	80	10272
2026-01-17 22:46:15.79	342.88	54.60	-54.7	-63.5	3.8	7.45e-01	0	35	104	0	80	10285
2026-01-17 22:46:18.81	340.10	55.89	-54.7	-63.5	3.8	7.45e-01	0	35	104	0	80	10277
2026-01-17 22:46:21.83	337.06	57.14	-54.7	-63.5	3.8	7.45e-01	0	35	104	0	80	10266
2026-01-17 22:46:24.86	333.71	58.34	-54.7	-63.6	3.8	7.45e-01	0	35	104	0	80	10306
2026-01-17 22:46:27.88	330.06	59.46	-54.7	-63.6	3.8	7.44e-01	0	35	104	0	80	10338
2026-01-17 22:46:30.91	326.08	60.49	-54.7	-63.6	3.8	7.45e-01	0	35	104	0	80	10336
2026-01-17 22:46:33.93	321.80	61.41	-54.7	-63.6	3.8	7.46e-01	0	35	104	0	80	10334
2026-01-17 22:46:36.96	317.18	62.19	-54.8	-63.6	3.8	7.45e-01	0	35	104	0	80	10353
2026-01-17 22:46:39.98	312.31	62.81	-54.8	-63.6	3.8	7.45e-01	0	36	104	0	80	10326
2026-01-17 22:46:43.00	307.22	63.25	-54.7	-63.6	3.8	7.47e-01	0	35	104	0	80	10360
2026-01-17 22:46:46.03	301.95	63.51	-54.7	-63.6	3.8	7.45e-01	0	35	104	0	80	10312
2026-01-17 22:46:49.05	296.63	63.56	-54.8	-63.6	3.8	7.46e-01	0	36	104	0	80	10340
2026-01-17 22:46:52.07	291.33	63.41	-54.8	-63.6	3.8	7.45e-01	0	36	104	0	80	10375
2026-01-17 22:46:55.10	286.12	63.07	-54.7	-63.6	3.8	7.45e-01	0	35	104	0	80	10349
2026-01-17 22:46:58.12	281.12	62.54	-54.7	-63.6	3.8	7.44e-01	0	35	104	0	80	10344
2026-01-17 22:47:01.15	276.35	61.84	-54.7	-63.6	3.8	7.46e-01	0	35	104	0	80	10360
2026-01-17 22:47:04.17	271.89	61.00	-54.8	-63.6	3.8	7.44e-01	0	35	104	0	80	10369
2026-01-17 22:47:07.20	267.73	60.02	-54.7	-63.5	3.8	7.45e-01	0	36	104	0	80	10291
2026-01-17 22:47:10.22	263.91	58.94	-54.7	-63.6	3.8	7.45e-01	0	35	104	0	80	10328
2026-01-17 22:47:13.24	260.41	57.78	-54.7	-63.5	3.8	7.45e-01	0	36	104	0	80	10293
2026-01-17 22:47:16.27	257.20	56.55	-54.7	-63.6	3.8	7.43e-01	0	36	104	0	80	10323
2026-01-17 22:47:19.29	254.28	55.28	-54.7	-63.6	3.8	7.44e-01	0	36	104	0	80	10314
2026-01-17 22:47:22.31	251.62	53.97	-54.7	-63.6	3.8	7.45e-01	0	36	104	0	80	10330
2026-01-17 22:47:25.34	249.19	52.64	-54.7	-63.5	3.8	7.44e-01	0	36	104	0	80	10287
2026-01-17 22:47:28.36	246.98	51.31	-54.7	-63.5	3.8	7.46e-01	0	36	104	0	80	10246
2026-01-17 22:47:31.38	244.97	49.98	-54.7	-63.5	3.8	7.46e-01	0	36	104	0	80	10221
2026-01-17 22:47:34.40	243.13	48.66	-54.6	-63.5	3.8	7.46e-01	0	36	104	0	80	10217
2026-01-17 22:47:37.43	241.44	47.35	-54.6	-63.5	3.8	7.47e-01	0	36	104	0	80	10231
2026-01-17 22:47:40.45	239.89	46.06	-54.6	-63.5	3.8	7.46e-01	0	36	104	0	80	10230
2026-01-17 22:47:43.48	238.47	44.79	-54.6	-63.5	3.8	7.45e-01	0	36	104	0	80	10178
2026-01-17 22:47:46.50	237.16	43.56	-54.6	-63.4	3.8	7.46e-01	0	36	104	0	80	10165
2026-01-17 22:47:49.52	235.95	42.35	-54.6	-63.5	3.8	7.44e-01	0	36	104	0	80	10179
2026-01-17 22:47:52.54	234.83	41.17	-54.6	-63.4	3.8	7.45e-01	0	36	104	0	80	10170
2026-01-17 22:47:55.57	233.79	40.02	-54.6	-63.5	3.8	7.46e-01	0	36	104	0	80	10176
2026-01-17 22:47:58.59	232.83	38.91	-54.5	-63.4	3.8	7.45e-01	0	36	104	0	80	10105
2026-01-17 22:48:01.62	231.93	37.82	-54.5	-63.4	3.8	7.46e-01	0	36	104	0	80	10093
2026-01-17 22:48:04.64	231.09	36.77	-54.5	-63.4	3.8	7.45e-01	0	36	104	0	80	10073
2026-01-17 22:48:07.66	230.31	35.75	-54.5	-63.4	3.8	7.46e-01	0	36	104	0	80	10081
2026-01-17 22:48:10.69	229.58	34.76	-54.5	-63.3	3.8	7.46e-01	0	36	104	0	80	10045
2026-01-17 22:48:13.71	228.89	33.80	-54.5	-63.3	3.8	7.44e-01	0	36	104	0	80	9995
2026-01-17 22:48:16.73	228.25	32.87	-54.4	-63.3	3.8	7.44e-01	0	36	104	0	80	9992
2026-01-17 22:48:19.76	227.64	31.97	-54.4	-63.3	3.8	7.45e-01	0	36	104	0	80	9951
2026-01-17 22:48:22.78	227.07	31.10	-54.4	-63.3	3.8	7.44e-01	0	36	104	0	80	9952
2026-01-17 22:48:25.81	226.53	30.25	-54.4	-63.3	3.8	7.44e-01	0	36	104	0	80	9977
2026-01-17 22:48:28.83	226.03	29.43	-54.4	-63.2	3.8	7.46e-01	0	36	104	0	80	9936
2026-01-17 22:48:31.85	225.54	28.64	-54.4	-63.2	3.8	7.45e-01	0	36	104	0	80	9904
2026-01-17 22:48:34.88	225.09	27.87	-54.3	-63.2	3.8	7.43e-01	0	36	104	0	80	9864
2026-01-17 22:48:37.90	224.66	27.12	-54.3	-63.2	3.8	7.45e-01	0	36	104	0	80	9832
2026-01-17 22:48:40.93	224.24	26.40	-54.3	-63.1	3.8	7.44e-01	0	36	104	0	80	9824
2026-01-17 22:48:43.95	223.86	25.70	-54.3	-63.2	3.8	7.43e-01	0	36	104	0	80	9842
2026-01-17 22:48:46.97	223.48	25.01	-54.3	-63.1	3.8	7.45e-01	0	36	104	0	80	9767
2026-01-17 22:48:50.00	223.13	24.35	-54.3	-63.1	3.8	7.43e-01	0	36	104	0	80	9784
2026-01-17 22:48:53.02	222.79	23.71	-54.2	-63.0	3.8	7.46e-01	0	36	104	0	80	9714
2026-01-17 22:48:56.04	222.47	23.08	-54.2	-63.0	3.8	7.46e-01	0	36	104	0	80	9694
2026-01-17 22:48:59.06	222.16	22.47	-54.2	-63.1	3.8	7.47e-01	0	36	104	0	80	9731
2026-01-17 22:49:02.09	221.87	21.88	-54.2	-63.0	3.8	7.45e-01	0	36	104	0	80	9672
2026-01-17 22:49:05.10	221.59	21.31	-54.1	-63.0	3.8	7.46e-01	0	36	104	0	80	9653
2026-01-17 22:49:08.13	221.32	20.75	-54.1	-63.0	3.8	7.44e-01	0	36	104	0	80	9646
2026-01-17 22:49:11.15	221.06	20.20	-54.1	-63.0	3.8	7.44e-01	0	36	104	0	80	9619
2026-01-17 22:49:14.18	220.81	19.67	-54.1	-63.0	3.8	7.46e-01	0	36	104	0	80	9611
2026-01-17 22:49:17.20	220.58	19.15	-54.1	-62.9	3.8	7.44e-01	0	36	104	0	80	9602
2026-01-17 22:49:20.22	220.35	18.65	-54.0	-62.9	3.8	7.44e-01	0	36	104	0	80	9584
2026-01-17 22:49:23.25	220.13	18.15	-54.0	-62.9	3.8	7.45e-01	0	36	104	0	80	9559
2026-01-17 22:49:26.27	219.92	17.67	-54.0	-62.9	3.8	7.45e-01	0	36	104	0	80	9536
2026-01-17 22:49:29.29	219.71	17.21	-54.0	-62.9	3.8	7.45e-01	0	36	104	0	80	9515
2026-01-17 22:49:32.32	219.52	16.75	-54.0	-62.8	3.8	7.45e-01	0	36	104	0	80	9455
2026-01-17 22:49:35.34	219.33	16.30	-54.0	-62.8	3.8	7.45e-01	0	36	104	0	80	9464
2026-01-17 22:49:38.36	219.15	15.86	-54.0	-62.9	3.8	7.46e-01	0	36	104	0	79	10081
2026-01-17 22:49:41.39	218.97	15.43	-54.0	-62.9	3.8	7.46e-01	0	36	104	0	79	10077
2026-01-17 22:49:44.41	218.80	15.02	-54.0	-62.8	3.8	7.47e-01	0	36	104	0	79	10028
2026-01-17 22:49:47.43	218.64	14.61	-54.0	-62.8	3.8	7.46e-01	0	36	104	0	79	10018
2026-01-17 22:49:50.46	218.48	14.21	-54.0	-62.8	3.8	7.45e-01	0	36	104	0	79	10023
2026-01-17 22:49:53.48	218.33	13.81	-53.9	-62.8	3.8	7.46e-01	0	36	104	0	79	9977
2026-01-17 22:49:56.50	218.18	13.43	-53.9	-62.7	3.8	7.46e-01	0	36	104	0	79	9936
2026-01-17 22:49:59.53	218.04	13.05	-53.9	-62.7	3.8	7.46e-01	0	36	104	0	79	9902
2026-01-17 22:50:02.56	217.90	12.68	-53.9	-62.7	3.8	7.46e-01	0	36	104	0	79	9929
2026-01-17 22:50:05.58	217.77	12.32	-53.9	-62.7	3.8	7.45e-01	0	36	104	0	79	9910
2026-01-17 22:50:08.60	217.64	11.96	-53.8	-62.7	3.8	7.45e-01	0	36	104	0	79	9852
2026-01-17 22:50:11.62	217.51	11.62	-53.8	-62.6	3.8	7.46e-01	0	36	104	0	79	9829
2026-01-17 22:50:14.65	217.39	11.27	-53.8	-62.7	3.8	7.45e-01	0	36	104	0	79	9847
2026-01-17 22:50:17.67	217.27	10.94	-53.8	-62.6	3.8	7.43e-01	0	36	104	0	79	9797
2026-01-17 22:50:20.70	217.16	10.60	-53.7	-62.5	3.8	7.45e-01	0	36	104	0	79	9690
2026-01-17 22:50:23.72	217.05	10.28	-53.7	-62.5	3.8	7.44e-01	0	36	104	0	79	9693
2026-01-17 22:50:26.74	216.94	9.96	-53.7	-62.5	3.8	7.45e-01	0	36	104	0	79	9717
2026-01-17 22:50:29.76	216.83	9.65	-53.7	-62.5	3.8	7.47e-01	0	36	104	0	79	9682
2026-01-17 22:50:32.78	216.73	9.34	-53.6	-62.4	3.8	7.46e-01	0	36	104	0	79	9574
2026-01-17 22:50:35.80	216.63	9.04	-53.6	-62.4	3.8	7.46e-01	0	36	104	0	79	9584
2026-01-17 22:50:38.83	216.54	8.74	-53.6	-62.4	3.8	7.45e-01	0	36	104	0	79	9592
2026-01-17 22:50:41.85	216.44	8.44	-53.6	-62.5	3.8	7.45e-01	0	36	104	0	79	9615
2026-01-17 22:50:44.87	216.35	8.15	-53.4	-62.3	3.8	7.46e-01	0	36	104	0	78	10004
2026-01-17 22:50:47.89	216.26	7.87	-53.4	-62.3	3.8	7.47e-01	0	36	104	0	78	9959
2026-01-17 22:50:50.92	216.18	7.59	-53.4	-62.3	3.8	7.45e-01	0	36	104	0	78	9968
2026-01-17 22:50:53.95	216.09	7.31	-53.4	-62.3	3.8	7.45e-01	0	36	104	0	78	10023
2026-01-17 22:50:56.97	216.01	7.04	-53.3	-62.1	3.8	7.43e-01	0	36	104	0	78	9790
2026-01-17 22:50:59.99	215.93	6.77	-53.3	-62.1	3.8	7.45e-01	0	36	104	0	78	9807
2026-01-17 22:51:03.02	215.85	6.50	-53.3	-62.1	3.8	7.46e-01	0	36	104	0	78	9818
2026-01-17 22:51:06.04	215.78	6.24	-53.3	-62.2	3.8	7.44e-01	0	36	104	0	78	9861
2026-01-17 22:51:09.06	215.71	5.98	-53.1	-62.0	3.8	7.45e-01	0	36	104	0	78	9618
2026-01-17 22:51:12.09	215.63	5.72	-53.1	-61.9	3.8	7.45e-01	0	36	104	0	78	9600
2026-01-17 22:51:15.11	215.56	5.47	-53.1	-62.0	3.8	7.44e-01	0	36	104	0	78	9623
2026-01-17 22:51:18.14	215.50	5.22	-53.2	-62.0	3.8	7.45e-01	0	36	104	0	78	9659
2026-01-17 22:51:21.16	215.43	4.98	-53.3	-62.2	3.8	7.46e-01	0	36	104	0	78	9867
2026-01-17 22:51:24.19	215.36	4.73	-54.2	-63.0	3.8	7.45e-01	0	36	104	0	78	10875
2026-01-17 22:51:27.21	215.30	4.49	-54.4	-63.3	3.8	7.45e-01	0	36	104	0	79	10557
2026-01-17 22:51:30.23	215.24	4.26	-54.6	-63.5	3.8	7.46e-01	0	36	104	0	79	10789
2026-01-17 22:51:33.26	215.18	4.02	-54.7	-63.5	3.8	7.46e-01	0	36	104	0	79	10891
2026-01-17 22:51:36.28	215.12	3.79	-54.7	-63.6	3.8	7.44e-01	0	36	104	0	80	10303
2026-01-17 22:51:39.30	215.06	3.56	-54.8	-63.6	3.8	7.46e-01	0	36	104	0	80	10371
2026-01-17 22:51:42.32	215.01	3.34	-54.8	-63.7	3.8	7.45e-01	0	36	104	0	80	10443
2026-01-17 22:51:45.35	214.95	3.11	-54.8	-63.6	3.8	7.45e-01	0	36	104	0	80	10350
2026-01-17 22:51:48.37	214.90	2.89	-54.7	-63.6	3.8	7.46e-01	0	36	104	0	80	10321
2026-01-17 22:51:51.40	214.84	2.67	-54.7	-63.6	3.8	7.46e-01	0	36	104	0	80	10340
2026-01-17 22:51:54.42	214.79	2.45	-54.7	-63.6	3.8	7.45e-01	0	36	104	0	80	10318
2026-01-17 22:51:57.45	214.74	2.24	-54.7	-63.6	3.8	7.45e-01	0	36	104	0	80	10301
2026-01-17 22:52:00.48	214.69	2.02	-54.7	-63.6	3.8	7.45e-01	0	36	104	0	80	10314

#Closed at: 2026-01-17 22:52:03
#Recorded file [0 MB]: D:/lorett/data/31041_260118_014134.dat