passes_logs/2026/01/17/R3.2S_Murmansk/R3.2S_Murmansk__20260117_005433_NOAA_20_JPSS-1_rec.log

#Pass ID: 20260117_005433_NOAA 20 (JPSS-1)
#Satellite: NOAA 20 (JPSS-1)
#Configuration: NOAA 20
#almurnet v.1.7.20251203
#Start time: 2026-01-17 00:54:35

#Version: 2.2.20231116
#Station: R3.2S_Murmansk
#Location: 33.079688 lon 68.888172 lat
#TLE: 1 43013U 17073A   26015.89389188  .00000026  00000+0  33113-4 0  9999
#TLE: 2 43013  98.7636 316.8238 0001460  37.8997 322.2282 14.19536128422860

#Time	Az	El	Level	Level2	SNR	BER	BlckErr	Temp	State	Recorded	gain1	gain2
2026-01-17 00:54:35.83	25.38	2.14	-51.3	-66.2	3.8	1.49e+00	0	32	0	0	74	19829
2026-01-17 00:54:39.85	25.37	2.40	-51.3	-66.2	3.8	1.49e+00	0	32	104	0	73	20974
2026-01-17 00:54:43.88	25.36	2.66	-51.3	-66.3	3.8	1.49e+00	0	32	104	0	73	21027
2026-01-17 00:54:47.92	25.35	2.92	-51.3	-66.2	3.8	1.49e+00	0	32	104	0	73	20847
2026-01-17 00:54:51.95	25.34	3.19	-51.2	-65.6	3.8	1.49e+00	0	32	104	0	73	19431
2026-01-17 00:54:55.98	25.33	3.46	-51.0	-62.1	4.4	1.41e+00	134	33	0	0	73	12974
2026-01-17 00:55:00.02	25.32	3.73	-50.6	-58.4	6.5	1.71e-01	0	32	0	7340032	73	8540
2026-01-17 00:55:04.06	25.30	4.01	-49.4	-54.1	11.0	5.15e-03	0	33	0	14680064	70	6160
2026-01-17 00:55:08.09	25.29	4.29	-49.2	-53.5	11.7	5.17e-04	0	33	0	22020096	70	5744
2026-01-17 00:55:12.12	25.28	4.57	-49.8	-55.2	9.8	6.67e-03	0	33	0	29360128	70	7014
2026-01-17 00:55:16.16	25.26	4.85	-50.5	-57.9	7.2	9.24e-02	0	33	0	37748736	71	9027
2026-01-17 00:55:20.19	25.25	5.14	-50.0	-54.8	10.7	3.90e-03	0	33	0	45088768	71	6319
2026-01-17 00:55:24.22	25.23	5.43	-51.1	-64.2	3.8	1.41e+00	0	33	104	51380224	72	17620
2026-01-17 00:55:28.26	25.22	5.72	-50.0	-54.8	10.9	1.16e-03	0	33	0	57671680	71	6314
2026-01-17 00:55:32.29	25.20	6.02	-49.7	-53.9	12.0	4.46e-04	0	33	0	65011712	71	5670
2026-01-17 00:55:36.32	25.19	6.32	-49.2	-52.8	13.1	3.43e-05	0	33	0	72351744	70	5302
2026-01-17 00:55:40.36	25.17	6.62	-48.9	-52.1	13.8	5.30e-06	0	33	0	80740352	69	5203
2026-01-17 00:55:44.40	25.15	6.93	-48.6	-51.5	14.5	0.00e+00	0	33	0	88080384	68	5138
2026-01-17 00:55:48.43	25.13	7.24	-48.5	-51.4	14.8	0.00e+00	0	33	0	95420416	68	5059
2026-01-17 00:55:52.46	25.11	7.55	-48.6	-51.5	14.7	0.00e+00	0	33	0	102760448	68	5118
2026-01-17 00:55:56.50	25.09	7.87	-48.5	-51.4	14.9	0.00e+00	0	33	0	111149056	68	5043
2026-01-17 00:56:00.53	25.07	8.19	-48.3	-51.0	15.3	0.00e+00	0	33	0	118489088	68	4827
2026-01-17 00:56:04.57	25.05	8.52	-48.5	-51.3	15.0	0.00e+00	0	33	0	125829120	68	5022
2026-01-17 00:56:08.60	25.02	8.85	-48.3	-50.9	15.5	0.00e+00	0	33	0	133169152	68	4764
2026-01-17 00:56:12.64	25.00	9.19	-48.3	-50.9	15.5	0.00e+00	0	33	0	141557760	68	4768
2026-01-17 00:56:16.67	24.97	9.53	-48.1	-50.6	15.8	0.00e+00	0	33	0	148897792	68	4624
2026-01-17 00:56:20.70	24.95	9.87	-48.1	-50.5	15.9	0.00e+00	0	34	0	156237824	68	4554
2026-01-17 00:56:24.74	24.92	10.22	-48.1	-50.5	16.0	0.00e+00	0	34	0	163577856	68	4554
2026-01-17 00:56:28.77	24.89	10.58	-47.9	-50.2	16.1	0.00e+00	0	34	0	170917888	67	4702
2026-01-17 00:56:32.81	24.86	10.94	-47.9	-50.2	16.2	0.00e+00	0	33	0	179306496	67	4675
2026-01-17 00:56:36.84	24.83	11.30	-47.9	-50.2	16.3	0.00e+00	0	34	0	186646528	67	4656
2026-01-17 00:56:40.88	24.80	11.67	-47.8	-50.0	16.5	0.00e+00	0	34	0	193986560	67	4572
2026-01-17 00:56:44.91	24.76	12.05	-47.6	-49.8	16.7	0.00e+00	0	34	0	201326592	67	4477
2026-01-17 00:56:48.94	24.73	12.43	-47.6	-49.8	16.7	0.00e+00	0	34	0	208666624	66	4720
2026-01-17 00:56:52.97	24.69	12.82	-47.5	-49.6	16.9	0.00e+00	0	33	0	217055232	66	4622
2026-01-17 00:56:57.00	24.66	13.21	-47.5	-49.5	17.0	0.00e+00	0	34	0	224395264	66	4598
2026-01-17 00:57:01.04	24.62	13.61	-47.5	-49.5	17.0	0.00e+00	0	34	0	231735296	66	4586
2026-01-17 00:57:05.07	24.58	14.02	-47.2	-49.1	17.5	0.00e+00	0	34	0	239075328	66	4360
2026-01-17 00:57:09.10	24.53	14.44	-47.2	-49.1	17.5	0.00e+00	0	34	0	246415360	66	4379
2026-01-17 00:57:13.13	24.49	14.86	-47.0	-48.9	17.7	0.00e+00	0	34	0	254803968	66	4262
2026-01-17 00:57:17.17	24.44	15.29	-46.9	-48.8	17.8	0.00e+00	0	34	0	262144000	65	4467
2026-01-17 00:57:21.21	24.40	15.72	-46.8	-48.6	18.0	0.00e+00	0	34	0	269484032	65	4372
2026-01-17 00:57:25.24	24.35	16.17	-46.8	-48.5	18.1	0.00e+00	0	33	0	276824064	65	4340
2026-01-17 00:57:29.27	24.30	16.62	-46.6	-48.3	18.3	0.00e+00	0	34	0	285212672	65	4234
2026-01-17 00:57:33.31	24.24	17.08	-46.4	-48.1	18.6	0.00e+00	0	34	0	292552704	64	4350
2026-01-17 00:57:37.34	24.19	17.55	-46.3	-47.9	18.8	0.00e+00	0	34	0	299892736	64	4273
2026-01-17 00:57:41.37	24.13	18.03	-46.2	-47.7	19.0	0.00e+00	0	34	0	307232768	64	4187
2026-01-17 00:57:45.40	24.07	18.52	-46.3	-47.9	18.8	0.00e+00	0	34	0	314572800	64	4273
2026-01-17 00:57:49.44	24.01	19.02	-46.0	-47.5	19.3	0.00e+00	0	34	0	322961408	63	4325
2026-01-17 00:57:53.47	23.94	19.53	-46.0	-47.5	19.3	0.00e+00	0	34	0	330301440	63	4313
2026-01-17 00:57:57.51	23.87	20.05	-46.0	-47.5	19.3	0.00e+00	0	34	0	337641472	63	4318
2026-01-17 00:58:01.54	23.80	20.58	-45.8	-47.3	19.6	0.00e+00	0	34	0	344981504	63	4213
2026-01-17 00:58:05.57	23.73	21.12	-45.7	-47.1	19.7	0.00e+00	0	34	0	352321536	63	4136
2026-01-17 00:58:09.60	23.65	21.67	-45.7	-47.1	19.7	0.00e+00	0	34	0	360710144	63	4141
2026-01-17 00:58:13.63	23.57	22.24	-45.8	-47.2	19.7	0.00e+00	0	34	0	368050176	63	4193
2026-01-17 00:58:17.67	23.48	22.82	-45.7	-47.1	19.8	0.00e+00	0	34	0	375390208	63	4137
2026-01-17 00:58:21.70	23.39	23.41	-45.9	-47.3	19.6	0.00e+00	0	34	0	382730240	63	4236
2026-01-17 00:58:25.74	23.30	24.02	-46.0	-47.4	19.5	0.00e+00	0	34	0	391118848	63	4275
2026-01-17 00:58:29.77	23.20	24.64	-46.1	-47.6	19.4	0.00e+00	0	34	0	398458880	63	4346
2026-01-17 00:58:33.80	23.10	25.27	-46.0	-47.5	19.5	0.00e+00	0	34	0	405798912	63	4309
2026-01-17 00:58:37.84	23.00	25.93	-46.1	-47.5	19.4	0.00e+00	0	34	0	413138944	63	4335
2026-01-17 00:58:41.87	22.88	26.59	-46.3	-47.8	19.2	0.00e+00	0	34	0	420478976	63	4473
2026-01-17 00:58:45.91	22.77	27.28	-46.3	-47.9	19.1	0.00e+00	0	34	0	428867584	63	4500
2026-01-17 00:58:49.94	22.64	27.98	-46.7	-48.3	18.7	0.00e+00	0	34	0	436207616	64	4464
2026-01-17 00:58:53.98	22.51	28.70	-46.9	-48.7	18.2	0.00e+00	0	34	0	443547648	64	4660
2026-01-17 00:58:58.01	22.38	29.44	-47.6	-49.5	17.5	0.00e+00	0	34	0	450887680	65	4843
2026-01-17 00:59:02.04	22.23	30.19	-48.0	-50.0	17.0	0.00e+00	0	34	0	459276288	66	4863
2026-01-17 00:59:06.08	22.08	30.97	-48.4	-50.6	16.4	0.00e+00	0	34	0	466616320	67	4909
2026-01-17 00:59:10.11	21.92	31.77	-48.9	-51.3	15.8	0.00e+00	0	34	0	473956352	68	5034
2026-01-17 00:59:14.14	21.75	32.59	-48.6	-50.9	16.3	0.00e+00	0	34	0	481296384	68	4773
2026-01-17 00:59:18.18	21.57	33.44	-48.2	-50.3	16.9	0.00e+00	0	34	0	488636416	68	4445
2026-01-17 00:59:22.22	21.38	34.31	-47.8	-49.7	17.4	0.00e+00	0	34	0	495976448	67	4435
2026-01-17 00:59:26.25	21.18	35.20	-47.0	-48.8	18.3	0.00e+00	0	34	0	504365056	65	4459
2026-01-17 00:59:30.29	20.97	36.12	-46.2	-47.7	19.3	0.00e+00	0	34	0	511705088	64	4173
2026-01-17 00:59:34.32	20.74	37.06	-45.7	-47.1	20.0	0.00e+00	0	34	0	519045120	63	4099
2026-01-17 00:59:38.36	20.50	38.03	-45.6	-46.9	20.2	0.00e+00	0	34	0	526385152	63	4043
2026-01-17 00:59:42.39	20.25	39.03	-45.7	-47.0	20.1	0.00e+00	0	34	0	534773760	62	4339
2026-01-17 00:59:46.43	19.97	40.06	-46.2	-47.6	19.6	0.00e+00	0	34	0	542113792	62	4635
2026-01-17 00:59:50.47	19.68	41.12	-46.6	-48.2	19.0	0.00e+00	0	34	0	549453824	63	4671
2026-01-17 00:59:54.50	19.36	42.21	-46.7	-48.4	18.8	0.00e+00	0	34	0	556793856	64	4496
2026-01-17 00:59:58.53	19.02	43.33	-46.6	-48.1	19.1	0.00e+00	0	34	0	565182464	64	4381
2026-01-17 01:00:02.57	18.66	44.49	-47.1	-48.9	18.3	0.00e+00	0	34	0	572522496	65	4496
2026-01-17 01:00:06.60	18.27	45.68	-48.5	-50.7	16.6	0.00e+00	0	34	0	579862528	67	4942
2026-01-17 01:00:10.63	17.84	46.90	-48.9	-51.3	16.1	0.00e+00	0	34	0	587202560	68	5001
2026-01-17 01:00:14.66	17.38	48.15	-49.2	-51.7	15.6	0.00e+00	0	34	0	594542592	69	4964
2026-01-17 01:00:18.70	16.87	49.45	-48.0	-50.0	17.3	0.00e+00	0	34	0	601882624	68	4316
2026-01-17 01:00:22.74	16.32	50.78	-45.7	-47.0	20.3	0.00e+00	0	34	0	610271232	63	4063
2026-01-17 01:00:26.77	15.72	52.14	-44.7	-45.9	21.4	0.00e+00	0	34	0	617611264	61	4007
2026-01-17 01:00:30.80	15.06	53.54	-45.5	-46.8	20.5	0.00e+00	0	34	0	624951296	61	4452
2026-01-17 01:00:34.84	14.32	54.98	-45.5	-46.8	20.5	0.00e+00	0	34	0	632291328	61	4450
2026-01-17 01:00:38.87	13.51	56.45	-46.9	-48.5	18.8	0.00e+00	0	34	0	640679936	64	4558
2026-01-17 01:00:42.90	12.60	57.95	-48.1	-50.1	17.3	0.00e+00	0	34	0	648019968	66	4876
2026-01-17 01:00:46.94	11.58	59.49	-48.5	-50.6	16.8	0.00e+00	0	34	0	655360000	68	4635
2026-01-17 01:00:50.98	10.43	61.05	-46.8	-48.4	18.8	0.00e+00	0	34	0	662700032	65	4263
2026-01-17 01:00:55.01	9.12	62.64	-45.0	-46.3	21.0	0.00e+00	0	34	0	670040064	62	3963
2026-01-17 01:00:59.04	7.63	64.25	-44.8	-46.0	21.3	0.00e+00	0	34	0	678428672	60	4318
2026-01-17 01:01:03.08	5.90	65.89	-46.3	-47.8	19.5	0.00e+00	0	34	0	685768704	63	4472
2026-01-17 01:01:07.11	3.90	67.53	-46.2	-47.7	19.6	0.00e+00	0	34	0	693108736	64	4147
2026-01-17 01:01:11.14	1.54	69.17	-46.2	-47.6	19.8	0.00e+00	0	34	0	700448768	63	4364
2026-01-17 01:01:15.17	358.75	70.80	-46.3	-47.7	19.7	0.00e+00	0	34	0	708837376	63	4420
2026-01-17 01:01:19.21	355.40	72.41	-45.2	-46.4	20.8	0.00e+00	0	34	0	716177408	62	4047
2026-01-17 01:01:23.24	351.35	73.97	-48.5	-50.8	16.7	0.00e+00	0	34	0	723517440	67	4990
2026-01-17 01:01:27.27	346.40	75.45	-47.9	-49.8	17.5	0.00e+00	0	34	0	730857472	67	4472
2026-01-17 01:01:31.31	340.32	76.82	-47.3	-49.0	18.3	0.00e+00	0	34	0	738197504	66	4306
2026-01-17 01:01:35.34	332.90	78.03	-47.2	-48.9	18.5	0.00e+00	0	34	0	746586112	66	4257
2026-01-17 01:01:39.37	323.95	79.00	-46.6	-48.2	19.1	0.00e+00	0	34	0	753926144	64	4413
2026-01-17 01:01:43.41	313.51	79.66	-47.1	-48.8	18.6	0.00e+00	0	34	0	761266176	64	4714
2026-01-17 01:01:47.44	302.07	79.95	-46.2	-47.6	19.7	0.00e+00	0	34	0	768606208	64	4112
2026-01-17 01:01:51.48	290.40	79.83	-45.3	-46.5	20.8	0.00e+00	0	34	0	775946240	62	4083
2026-01-17 01:01:55.51	279.47	79.32	-45.7	-47.0	20.4	0.00e+00	0	34	0	784334848	62	4308
2026-01-17 01:01:59.54	269.87	78.47	-47.2	-48.8	18.5	0.00e+00	0	34	0	791674880	64	4754
2026-01-17 01:02:03.58	261.79	77.35	-49.5	-52.1	15.3	0.00e+00	0	34	0	799014912	69	5218
2026-01-17 01:02:07.61	255.18	76.04	-48.9	-51.3	16.2	0.00e+00	0	34	0	806354944	69	4713
2026-01-17 01:02:11.65	249.77	74.60	-48.1	-50.1	17.4	0.00e+00	0	34	0	814743552	68	4353
2026-01-17 01:02:15.68	245.37	73.07	-46.1	-47.5	19.8	0.00e+00	0	34	0	822083584	64	4094
2026-01-17 01:02:19.72	241.74	71.47	-45.4	-46.6	20.7	0.00e+00	0	34	0	829423616	62	4130
2026-01-17 01:02:23.75	238.73	69.85	-47.0	-48.7	18.7	0.00e+00	0	34	0	836763648	64	4671
2026-01-17 01:02:27.78	236.20	68.21	-48.3	-50.3	17.1	0.00e+00	0	34	0	844103680	67	4748
2026-01-17 01:02:31.82	234.05	66.56	-48.3	-50.3	17.2	0.00e+00	0	34	0	851443712	68	4470
2026-01-17 01:02:35.86	232.22	64.92	-45.9	-47.2	20.2	0.00e+00	0	34	0	859832320	63	4159
2026-01-17 01:02:39.89	230.63	63.29	-45.0	-46.2	21.2	0.00e+00	0	34	0	867172352	61	4180
2026-01-17 01:02:43.92	229.25	61.69	-45.3	-46.6	20.8	0.00e+00	0	34	0	874512384	61	4367
2026-01-17 01:02:47.96	228.04	60.11	-48.0	-49.9	17.5	0.00e+00	0	34	0	881852416	66	4803
2026-01-17 01:02:51.99	226.96	58.56	-48.8	-51.1	16.4	0.00e+00	0	34	0	890241024	68	4893
2026-01-17 01:02:56.02	226.01	57.04	-48.7	-50.9	16.5	0.00e+00	0	34	0	897581056	68	4785
2026-01-17 01:03:00.06	225.16	55.56	-46.8	-48.3	19.0	0.00e+00	0	34	0	904921088	65	4229
2026-01-17 01:03:04.09	224.39	54.10	-45.4	-46.6	20.7	0.00e+00	0	34	0	912261120	62	4126
2026-01-17 01:03:08.12	223.70	52.69	-45.5	-46.8	20.6	0.00e+00	0	34	0	919601152	61	4445
2026-01-17 01:03:12.16	223.07	51.30	-46.1	-47.5	19.8	0.00e+00	0	34	0	927989760	62	4596
2026-01-17 01:03:16.19	222.50	49.96	-47.6	-49.4	17.8	0.00e+00	0	34	0	935329792	65	4812
2026-01-17 01:03:20.23	221.97	48.65	-48.8	-51.1	16.3	0.00e+00	0	34	0	942669824	68	4906
2026-01-17 01:03:24.26	221.49	47.37	-48.9	-51.2	16.2	0.00e+00	0	34	0	950009856	68	4964
2026-01-17 01:03:28.29	221.05	46.13	-49.0	-51.5	15.8	0.00e+00	0	34	0	958398464	69	4854
2026-01-17 01:03:32.33	220.64	44.93	-48.1	-50.1	17.3	0.00e+00	0	34	0	965738496	68	4362
2026-01-17 01:03:36.36	220.27	43.76	-48.9	-51.3	16.1	0.00e+00	0	34	0	973078528	68	5000
2026-01-17 01:03:40.40	219.92	42.62	-49.1	-51.6	15.8	0.00e+00	0	34	0	980418560	68	5175
2026-01-17 01:03:44.43	219.59	41.51	-48.9	-51.3	16.0	0.00e+00	0	34	0	987758592	68	5036
2026-01-17 01:03:48.46	219.29	40.44	-49.1	-51.5	15.8	0.00e+00	0	34	0	996147200	68	5143
2026-01-17 01:03:52.50	219.00	39.39	-49.7	-52.6	14.7	0.00e+00	0	34	0	1003487232	69	5492
2026-01-17 01:03:56.53	218.74	38.38	-48.8	-51.2	16.1	0.00e+00	0	34	0	1010827264	69	4677
2026-01-17 01:04:00.56	218.49	37.40	-47.5	-49.4	17.7	0.00e+00	0	34	0	1018167296	67	4260
2026-01-17 01:04:04.60	218.26	36.44	-47.5	-49.4	17.8	0.00e+00	0	34	0	1025507328	66	4497
2026-01-17 01:04:08.63	218.04	35.51	-47.9	-49.9	17.3	0.00e+00	0	34	0	1033895936	66	4768
2026-01-17 01:04:12.66	217.83	34.60	-47.7	-49.7	17.4	0.00e+00	0	34	0	1041235968	66	4665
2026-01-17 01:04:16.70	217.64	33.72	-47.7	-49.6	17.5	0.00e+00	0	34	0	1048576000	66	4604
2026-01-17 01:04:20.73	217.45	32.87	-47.8	-49.8	17.3	0.00e+00	0	34	0	1055916032	66	4709
2026-01-17 01:04:24.76	217.28	32.03	-48.4	-50.6	16.5	0.00e+00	0	34	0	1064304640	67	4894
2026-01-17 01:04:28.80	217.11	31.22	-49.0	-51.6	15.6	0.00e+00	0	34	0	1071644672	68	5171
2026-01-17 01:04:32.84	216.96	30.43	-48.9	-51.4	15.8	0.00e+00	0	34	0	1078984704	68	5055
2026-01-17 01:04:36.87	216.81	29.67	-48.6	-50.9	16.2	0.00e+00	0	34	0	1086324736	68	4804
2026-01-17 01:04:40.90	216.67	28.92	-47.7	-49.7	17.3	0.00e+00	0	34	0	1093664768	67	4430
2026-01-17 01:04:44.94	216.53	28.19	-47.6	-49.5	17.5	0.00e+00	0	34	0	1102053376	67	4339
2026-01-17 01:04:48.97	216.41	27.48	-47.6	-49.6	17.4	0.00e+00	0	34	0	1109393408	67	4343
2026-01-17 01:04:53.00	216.29	26.79	-47.5	-49.4	17.5	0.00e+00	0	34	0	1116733440	67	4291
2026-01-17 01:04:57.04	216.17	26.11	-47.2	-49.0	17.9	0.00e+00	0	34	0	1124073472	66	4339
2026-01-17 01:05:01.07	216.06	25.45	-46.8	-48.4	18.5	0.00e+00	0	34	0	1131413504	65	4287
2026-01-17 01:05:05.10	215.96	24.81	-46.6	-48.2	18.7	0.00e+00	0	34	0	1139802112	65	4163
2026-01-17 01:05:09.14	215.85	24.18	-46.6	-48.2	18.7	0.00e+00	0	34	0	1147142144	64	4433
2026-01-17 01:05:13.17	215.76	23.57	-46.9	-48.6	18.2	0.00e+00	0	34	0	1154482176	64	4646
2026-01-17 01:05:17.20	215.67	22.97	-47.1	-48.9	18.0	0.00e+00	0	34	0	1161822208	64	4782
2026-01-17 01:05:21.24	215.58	22.38	-47.1	-48.9	17.9	0.00e+00	0	34	0	1170210816	64	4793
2026-01-17 01:05:25.28	215.49	21.81	-46.8	-48.6	18.3	0.00e+00	0	34	0	1177550848	64	4612
2026-01-17 01:05:29.31	215.41	21.25	-46.7	-48.4	18.5	0.00e+00	0	34	0	1184890880	64	4505
2026-01-17 01:05:33.35	215.34	20.70	-46.8	-48.6	18.3	0.00e+00	0	34	0	1192230912	64	4600
2026-01-17 01:05:37.38	215.26	20.17	-47.2	-49.1	17.7	0.00e+00	0	34	0	1199570944	65	4644
2026-01-17 01:05:41.42	215.19	19.64	-47.4	-49.4	17.4	0.00e+00	0	34	0	1207959552	65	4772
2026-01-17 01:05:45.45	215.12	19.13	-47.5	-49.5	17.2	0.00e+00	0	34	0	1215299584	65	4853
2026-01-17 01:05:49.48	215.06	18.62	-47.4	-49.4	17.4	0.00e+00	0	34	0	1222639616	65	4786
2026-01-17 01:05:53.51	214.99	18.13	-47.4	-49.3	17.4	0.00e+00	0	34	0	1229979648	65	4726
2026-01-17 01:05:57.54	214.93	17.64	-47.4	-49.3	17.4	0.00e+00	0	34	0	1237319680	65	4746
2026-01-17 01:06:01.58	214.87	17.17	-47.8	-49.9	16.8	0.00e+00	0	34	0	1245708288	66	4786
2026-01-17 01:06:05.61	214.82	16.70	-47.7	-49.7	16.9	0.00e+00	0	34	0	1253048320	66	4705
2026-01-17 01:06:09.64	214.76	16.25	-47.9	-50.0	16.6	0.00e+00	0	34	0	1260388352	66	4868
2026-01-17 01:06:13.67	214.71	15.80	-48.0	-50.3	16.4	0.00e+00	0	34	0	1267728384	66	5004
2026-01-17 01:06:17.71	214.66	15.36	-48.1	-50.4	16.3	0.00e+00	0	34	0	1275068416	66	5059
2026-01-17 01:06:21.75	214.61	14.92	-48.1	-50.4	16.2	0.00e+00	0	34	0	1283457024	66	5045
2026-01-17 01:06:25.78	214.57	14.50	-48.0	-50.3	16.3	0.00e+00	0	34	0	1290797056	66	4985
2026-01-17 01:06:29.82	214.52	14.08	-48.1	-50.4	16.2	0.00e+00	0	34	0	1298137088	66	5048
2026-01-17 01:06:33.85	214.48	13.67	-47.7	-49.9	16.7	0.00e+00	0	34	0	1305477120	66	4781
2026-01-17 01:06:37.88	214.44	13.26	-47.7	-49.9	16.7	0.00e+00	0	34	0	1313865728	66	4770
2026-01-17 01:06:41.91	214.40	12.87	-47.6	-49.7	16.9	0.00e+00	0	34	0	1321205760	66	4669
2026-01-17 01:06:45.95	214.36	12.47	-47.5	-49.6	17.0	0.00e+00	0	34	0	1328545792	66	4619
2026-01-17 01:06:49.98	214.32	12.09	-47.6	-49.7	16.8	0.00e+00	0	34	0	1335885824	66	4702
2026-01-17 01:06:54.01	214.28	11.71	-47.4	-49.4	17.1	0.00e+00	0	34	0	1343225856	66	4514
2026-01-17 01:06:58.05	214.25	11.34	-47.4	-49.5	17.0	0.00e+00	0	34	0	1351614464	66	4578
2026-01-17 01:07:02.08	214.21	10.97	-47.5	-49.6	16.8	0.00e+00	0	34	0	1358954496	66	4643
2026-01-17 01:07:06.12	214.18	10.61	-47.7	-49.9	16.5	0.00e+00	0	34	0	1366294528	66	4771
2026-01-17 01:07:10.15	214.15	10.25	-47.7	-50.0	16.4	0.00e+00	0	34	0	1373634560	66	4827
2026-01-17 01:07:14.18	214.12	9.90	-47.9	-50.3	16.0	0.00e+00	0	34	0	1380974592	66	5009
2026-01-17 01:07:18.22	214.09	9.55	-47.8	-50.1	16.1	0.00e+00	0	34	0	1389363200	66	4923
2026-01-17 01:07:22.25	214.06	9.21	-48.3	-50.9	15.4	0.00e+00	0	34	0	1396703232	67	5052
2026-01-17 01:07:26.29	214.04	8.87	-48.5	-51.3	14.9	0.00e+00	0	34	0	1404043264	67	5327
2026-01-17 01:07:30.33	214.01	8.54	-48.3	-50.9	15.4	0.00e+00	0	34	0	1411383296	68	4793
2026-01-17 01:07:34.36	213.98	8.21	-48.2	-50.8	15.4	0.00e+00	0	34	0	1419771904	68	4720
2026-01-17 01:07:38.40	213.96	7.88	-48.4	-51.2	15.0	0.00e+00	0	34	0	1427111936	68	4947
2026-01-17 01:07:42.43	213.94	7.56	-48.6	-51.5	14.5	0.00e+00	0	34	0	1434451968	68	5148
2026-01-17 01:07:46.47	213.91	7.24	-48.6	-51.5	14.6	0.00e+00	0	34	0	1441792000	68	5125
2026-01-17 01:07:50.50	213.89	6.93	-48.6	-51.6	14.4	0.00e+00	0	34	0	1449132032	68	5188
2026-01-17 01:07:54.53	213.87	6.62	-48.3	-51.1	14.8	7.00e-07	0	34	0	1457520640	68	4914
2026-01-17 01:07:58.56	213.85	6.32	-48.4	-51.4	14.5	7.00e-07	0	34	0	1464860672	68	5071
2026-01-17 01:08:02.60	213.83	6.02	-48.6	-51.7	14.1	7.00e-07	0	34	0	1472200704	68	5232
2026-01-17 01:08:06.63	213.81	5.72	-48.5	-51.6	14.1	1.50e-06	0	34	0	1479540736	68	5216
2026-01-17 01:08:10.66	213.79	5.42	-48.2	-51.1	14.7	3.00e-06	0	34	0	1486880768	68	4875
2026-01-17 01:08:14.70	213.77	5.13	-48.4	-51.4	14.3	3.80e-06	0	34	0	1495269376	68	5050
2026-01-17 01:08:18.74	213.75	4.84	-52.7	-67.7	3.8	1.49e+00	0	34	104	1498415104	75	22090
2026-01-17 01:08:22.77	213.74	4.56	-53.2	-68.2	3.8	1.49e+00	0	34	104	1498415104	76	22079
2026-01-17 01:08:26.81	213.72	4.27	-53.4	-68.4	3.8	1.49e+00	0	34	104	1498415104	77	21320
2026-01-17 01:08:30.84	213.71	3.99	-53.5	-68.5	3.8	1.49e+00	0	34	104	1498415104	77	21592
2026-01-17 01:08:34.87	213.69	3.72	-53.5	-68.5	3.8	1.49e+00	0	34	104	1498415104	77	21670
2026-01-17 01:08:38.91	213.68	3.44	-53.5	-68.5	3.8	1.49e+00	0	34	104	1498415104	77	21747
2026-01-17 01:08:42.94	213.66	3.17	-53.4	-68.4	3.8	1.49e+00	0	34	104	1498415104	77	21481
2026-01-17 01:08:46.97	213.65	2.90	-53.4	-68.4	3.8	1.49e+00	0	34	104	1498415104	77	21443
2026-01-17 01:08:51.01	213.63	2.64	-53.4	-68.4	3.8	1.49e+00	0	34	104	1498415104	77	21395
2026-01-17 01:08:55.04	213.62	2.37	-53.3	-68.4	3.8	1.49e+00	0	34	104	1498415104	77	21301
2026-01-17 01:08:59.08	213.61	2.11	-53.4	-68.4	3.8	1.49e+00	0	34	104	1498415104	77	21302

#Closed at: 2026-01-17 01:09:02
#Recorded file [1498 MB]: D:/lorett/data/31041_260117_035435.dat