passes_logs/2026/01/17/R3.2S_Murmansk/R3.2S_Murmansk__20260117_023446_NOAA_20_JPSS-1_rec.log

#Pass ID: 20260117_023446_NOAA 20 (JPSS-1)
#Satellite: NOAA 20 (JPSS-1)
#Configuration: NOAA 20
#almurnet v.1.7.20251203
#Start time: 2026-01-17 02:34:47

#Version: 2.2.20231116
#Station: R3.2S_Murmansk
#Location: 33.079688 lon 68.888172 lat
#TLE: 1 43013U 17073A   26015.89389188  .00000026  00000+0  33113-4 0  9999
#TLE: 2 43013  98.7636 316.8238 0001460  37.8997 322.2282 14.19536128422860

#Time	Az	El	Level	Level2	SNR	BER	BlckErr	Temp	State	Recorded	gain1	gain2
2026-01-17 02:34:47.62	34.44	2.05	-51.4	-66.4	3.8	1.49e+00	0	32	0	0	74	20162
2026-01-17 02:34:51.65	34.28	2.30	-51.4	-66.4	3.8	1.49e+00	0	32	104	0	73	21270
2026-01-17 02:34:55.69	34.11	2.55	-51.4	-66.3	3.8	1.49e+00	0	32	104	0	73	21234
2026-01-17 02:34:59.73	33.94	2.80	-51.4	-66.4	3.8	1.49e+00	0	32	104	0	73	21299
2026-01-17 02:35:03.76	33.77	3.05	-51.4	-66.1	3.8	1.49e+00	0	32	104	0	73	20753
2026-01-17 02:35:07.80	33.60	3.31	-51.4	-65.8	3.8	1.49e+00	0	33	104	0	73	19936
2026-01-17 02:35:11.83	33.42	3.57	-51.3	-65.2	3.8	1.49e+00	0	33	104	0	73	18642
2026-01-17 02:35:15.87	33.24	3.83	-51.4	-66.0	3.8	1.49e+00	0	33	104	0	73	20305
2026-01-17 02:35:19.90	33.06	4.09	-51.2	-62.5	4.3	1.37e+00	0	33	0	0	73	13608
2026-01-17 02:35:23.94	32.87	4.35	-50.4	-57.3	7.8	1.44e-01	0	33	0	7340032	72	7938
2026-01-17 02:35:27.97	32.68	4.62	-50.1	-56.1	9.0	2.37e-02	0	33	0	14680064	72	6900
2026-01-17 02:35:32.01	32.48	4.89	-50.5	-57.4	7.7	7.24e-02	0	33	0	22020096	72	8080
2026-01-17 02:35:36.04	32.28	5.16	-49.5	-53.8	11.7	1.47e-04	0	33	0	29360128	70	5978
2026-01-17 02:35:40.07	32.08	5.44	-48.4	-51.4	14.2	7.08e-02	0	33	0	35651584	68	5051
2026-01-17 02:35:44.11	31.87	5.71	-48.8	-52.0	13.7	2.20e-06	0	33	0	42991616	68	5457
2026-01-17 02:35:48.14	31.66	5.99	-48.4	-51.2	14.7	7.00e-07	0	33	0	51380224	68	4975
2026-01-17 02:35:52.18	31.45	6.27	-48.3	-51.2	14.8	0.00e+00	0	33	0	58720256	68	4946
2026-01-17 02:35:56.21	31.23	6.56	-47.9	-50.5	15.4	0.00e+00	0	33	0	66060288	67	4842
2026-01-17 02:36:00.24	31.00	6.84	-47.7	-50.2	15.8	0.00e+00	0	33	0	73400320	67	4657
2026-01-17 02:36:04.27	30.77	7.13	-48.2	-50.9	15.0	0.00e+00	0	34	0	80740352	67	5077
2026-01-17 02:36:08.30	30.54	7.43	-47.9	-50.4	15.7	0.00e+00	0	34	0	89128960	67	4764
2026-01-17 02:36:12.34	30.29	7.72	-47.9	-50.4	15.7	0.00e+00	0	34	0	96468992	67	4764
2026-01-17 02:36:16.37	30.05	8.02	-47.7	-50.1	16.0	0.00e+00	0	34	0	103809024	66	4877
2026-01-17 02:36:20.41	29.80	8.32	-47.3	-49.5	16.6	0.00e+00	0	33	0	111149056	66	4567
2026-01-17 02:36:24.45	29.54	8.63	-47.4	-49.6	16.6	0.00e+00	0	34	0	119537664	66	4627
2026-01-17 02:36:28.48	29.28	8.94	-47.2	-49.3	16.8	0.00e+00	0	34	0	126877696	66	4493
2026-01-17 02:36:32.52	29.01	9.25	-47.3	-49.4	16.8	0.00e+00	0	34	0	134217728	65	4799
2026-01-17 02:36:36.55	28.74	9.56	-47.0	-49.1	17.2	0.00e+00	0	34	0	141557760	65	4599
2026-01-17 02:36:40.58	28.46	9.88	-46.9	-48.9	17.4	0.00e+00	0	34	0	148897792	65	4497
2026-01-17 02:36:44.62	28.17	10.20	-47.0	-49.0	17.3	0.00e+00	0	34	0	157286400	65	4555
2026-01-17 02:36:48.65	27.87	10.52	-47.5	-49.7	16.7	0.00e+00	0	34	0	164626432	65	4944
2026-01-17 02:36:52.68	27.57	10.85	-47.1	-49.2	17.2	0.00e+00	0	34	0	171966464	65	4653
2026-01-17 02:36:56.71	27.27	11.18	-47.2	-49.3	17.1	0.00e+00	0	34	0	179306496	65	4709
2026-01-17 02:37:00.75	26.95	11.52	-47.1	-49.0	17.4	0.00e+00	0	34	0	186646528	65	4581
2026-01-17 02:37:04.78	26.63	11.86	-46.9	-48.8	17.7	0.00e+00	0	34	0	195035136	65	4474
2026-01-17 02:37:08.81	26.30	12.20	-46.9	-48.7	17.8	0.00e+00	0	34	0	202375168	65	4423
2026-01-17 02:37:12.85	25.96	12.55	-46.9	-48.8	17.7	0.00e+00	0	34	0	209715200	65	4480
2026-01-17 02:37:16.88	25.61	12.90	-46.8	-48.6	17.9	0.00e+00	0	34	0	217055232	65	4382
2026-01-17 02:37:20.92	25.25	13.25	-46.8	-48.6	18.0	0.00e+00	0	34	0	225443840	65	4370
2026-01-17 02:37:24.95	24.89	13.61	-46.7	-48.6	18.0	0.00e+00	0	34	0	232783872	65	4346
2026-01-17 02:37:28.98	24.51	13.97	-46.7	-48.5	18.1	0.00e+00	0	34	0	240123904	65	4302
2026-01-17 02:37:33.02	24.13	14.34	-46.6	-48.3	18.3	0.00e+00	0	34	0	247463936	65	4234
2026-01-17 02:37:37.05	23.73	14.71	-46.6	-48.3	18.3	0.00e+00	0	34	0	254803968	65	4227
2026-01-17 02:37:41.08	23.33	15.08	-46.6	-48.3	18.3	0.00e+00	0	34	0	262144000	64	4467
2026-01-17 02:37:45.12	22.91	15.46	-46.5	-48.2	18.4	0.00e+00	0	34	0	270532608	64	4397
2026-01-17 02:37:49.15	22.48	15.85	-46.5	-48.2	18.4	0.00e+00	0	34	0	277872640	64	4428
2026-01-17 02:37:53.18	22.04	16.24	-46.6	-48.2	18.4	0.00e+00	0	34	0	285212672	64	4439
2026-01-17 02:37:57.22	21.59	16.63	-46.5	-48.2	18.5	0.00e+00	0	34	0	292552704	64	4429
2026-01-17 02:38:01.25	21.13	17.03	-46.7	-48.4	18.3	0.00e+00	0	34	0	300941312	64	4504
2026-01-17 02:38:05.28	20.66	17.43	-46.6	-48.3	18.4	0.00e+00	0	34	0	308281344	64	4466
2026-01-17 02:38:09.31	20.17	17.83	-46.5	-48.2	18.6	0.00e+00	0	34	0	315621376	64	4407
2026-01-17 02:38:13.35	19.66	18.24	-46.4	-48.0	18.8	0.00e+00	0	34	0	322961408	64	4309
2026-01-17 02:38:17.39	19.15	18.66	-46.2	-47.8	19.0	0.00e+00	0	34	0	330301440	64	4220
2026-01-17 02:38:21.43	18.61	19.08	-46.3	-47.9	18.9	0.00e+00	0	34	0	338690048	64	4250
2026-01-17 02:38:25.46	18.07	19.50	-46.4	-48.1	18.7	0.00e+00	0	34	0	346030080	64	4341
2026-01-17 02:38:29.49	17.51	19.93	-46.6	-48.3	18.6	0.00e+00	0	34	0	353370112	64	4452
2026-01-17 02:38:33.52	16.93	20.37	-46.7	-48.4	18.5	0.00e+00	0	34	0	360710144	64	4497
2026-01-17 02:38:37.56	16.33	20.80	-47.0	-48.7	18.2	0.00e+00	0	34	0	369098752	64	4697
2026-01-17 02:38:41.59	15.72	21.24	-47.0	-48.7	18.2	0.00e+00	0	34	0	376438784	64	4686
2026-01-17 02:38:45.62	15.09	21.69	-47.1	-48.9	18.1	0.00e+00	0	34	0	383778816	64	4772
2026-01-17 02:38:49.66	14.43	22.14	-46.9	-48.6	18.4	0.00e+00	0	34	0	391118848	64	4617
2026-01-17 02:38:53.69	13.76	22.59	-46.8	-48.5	18.5	0.00e+00	0	34	0	398458880	64	4578
2026-01-17 02:38:57.73	13.07	23.05	-46.6	-48.2	18.8	0.00e+00	0	34	0	406847488	64	4401
2026-01-17 02:39:01.76	12.36	23.51	-46.5	-48.1	18.9	0.00e+00	0	34	0	414187520	64	4358
2026-01-17 02:39:05.79	11.63	23.98	-46.7	-48.3	18.7	0.00e+00	0	34	0	421527552	64	4463
2026-01-17 02:39:09.83	10.87	24.44	-46.9	-48.6	18.5	0.00e+00	0	34	0	428867584	64	4610
2026-01-17 02:39:13.86	10.09	24.91	-47.0	-48.7	18.3	0.00e+00	0	34	0	436207616	64	4676
2026-01-17 02:39:17.89	9.29	25.38	-46.8	-48.4	18.6	0.00e+00	0	34	0	444596224	64	4537
2026-01-17 02:39:21.92	8.46	25.86	-47.6	-49.5	17.6	0.00e+00	0	34	0	451936256	65	4853
2026-01-17 02:39:25.95	7.61	26.33	-47.9	-49.9	17.2	0.00e+00	0	34	0	459276288	66	4812
2026-01-17 02:39:29.99	6.73	26.81	-48.3	-50.5	16.6	0.00e+00	0	34	0	466616320	67	4824
2026-01-17 02:39:34.02	5.82	27.29	-48.3	-50.4	16.7	0.00e+00	0	34	0	475004928	67	4811
2026-01-17 02:39:38.06	4.89	27.77	-47.9	-50.0	17.2	0.00e+00	0	34	0	482344960	67	4548
2026-01-17 02:39:42.09	3.92	28.24	-48.2	-50.4	16.8	0.00e+00	0	34	0	489684992	67	4784
2026-01-17 02:39:46.12	2.93	28.72	-48.4	-50.6	16.6	0.00e+00	0	34	0	497025024	67	4872
2026-01-17 02:39:50.16	1.91	29.19	-48.1	-50.1	17.1	0.00e+00	0	34	0	504365056	67	4626
2026-01-17 02:39:54.19	0.85	29.66	-48.2	-50.4	16.8	0.00e+00	0	34	0	512753664	67	4779
2026-01-17 02:39:58.23	359.77	30.13	-48.2	-50.3	16.9	0.00e+00	0	34	0	520093696	67	4743
2026-01-17 02:40:02.26	358.65	30.59	-47.8	-49.7	17.5	0.00e+00	0	34	0	527433728	67	4407
2026-01-17 02:40:06.30	357.50	31.05	-47.9	-49.8	17.4	0.00e+00	0	34	0	534773760	66	4736
2026-01-17 02:40:10.33	356.31	31.50	-49.1	-51.6	15.8	0.00e+00	0	34	0	542113792	68	5171
2026-01-17 02:40:14.36	355.10	31.95	-49.4	-52.0	15.3	0.00e+00	0	34	0	550502400	69	5152
2026-01-17 02:40:18.40	353.85	32.38	-49.8	-52.7	14.7	0.00e+00	0	34	0	557842432	70	5220
2026-01-17 02:40:22.43	352.56	32.81	-50.1	-53.2	14.1	0.00e+00	0	34	0	565182464	70	5585
2026-01-17 02:40:26.47	351.24	33.22	-50.5	-54.2	13.0	2.21e-05	0	34	0	572522496	71	5919
2026-01-17 02:40:30.50	349.89	33.62	-50.8	-54.8	12.4	9.76e-05	0	34	0	579862528	72	5937
2026-01-17 02:40:34.53	348.50	34.01	-50.5	-54.0	13.3	3.35e-05	0	34	0	588251136	72	5412
2026-01-17 02:40:38.57	347.08	34.39	-49.6	-52.4	15.0	0.00e+00	0	34	0	595591168	71	4760
2026-01-17 02:40:42.60	345.63	34.75	-49.4	-52.0	15.4	0.00e+00	0	34	0	602931200	70	4829
2026-01-17 02:40:46.64	344.15	35.09	-48.7	-50.9	16.5	0.00e+00	0	34	0	610271232	69	4535
2026-01-17 02:40:50.67	342.63	35.41	-47.1	-48.8	18.5	0.00e+00	0	34	0	618659840	66	4209
2026-01-17 02:40:54.71	341.09	35.71	-47.0	-48.7	18.6	0.00e+00	0	34	0	625999872	65	4396
2026-01-17 02:40:58.74	339.52	35.99	-46.7	-48.3	19.1	0.00e+00	0	34	0	633339904	65	4194
2026-01-17 02:41:02.77	337.92	36.24	-46.5	-48.1	19.3	0.00e+00	0	34	0	640679936	65	4102
2026-01-17 02:41:06.81	336.30	36.48	-46.3	-47.7	19.5	0.00e+00	0	34	0	648019968	64	4179
2026-01-17 02:41:10.85	334.65	36.68	-46.1	-47.5	19.8	0.00e+00	0	34	0	656408576	64	4069
2026-01-17 02:41:14.88	332.99	36.87	-45.9	-47.3	20.1	0.00e+00	0	34	0	663748608	63	4214
2026-01-17 02:41:18.92	331.30	37.02	-45.9	-47.2	20.1	0.00e+00	0	34	0	671088640	63	4189
2026-01-17 02:41:22.95	329.61	37.15	-45.1	-46.4	21.0	0.00e+00	0	34	0	678428672	62	4009
2026-01-17 02:41:26.99	327.90	37.24	-45.3	-46.6	20.8	0.00e+00	0	34	0	685768704	62	4102
2026-01-17 02:41:31.02	326.18	37.31	-46.0	-47.4	20.0	0.00e+00	0	34	0	694157312	62	4532
2026-01-17 02:41:35.06	324.45	37.35	-46.2	-47.6	19.8	0.00e+00	0	34	0	701497344	63	4362
2026-01-17 02:41:39.09	322.73	37.36	-46.8	-48.3	19.0	0.00e+00	0	34	0	708837376	64	4477
2026-01-17 02:41:43.12	321.01	37.34	-47.2	-48.8	18.6	0.00e+00	0	34	0	716177408	64	4752
2026-01-17 02:41:47.15	319.29	37.29	-47.0	-48.7	18.7	0.00e+00	0	34	0	724566016	64	4658
2026-01-17 02:41:51.19	317.57	37.21	-47.2	-48.9	18.5	0.00e+00	0	34	0	731906048	65	4521
2026-01-17 02:41:55.22	315.86	37.11	-47.7	-49.6	17.9	0.00e+00	0	34	0	739246080	66	4624
2026-01-17 02:41:59.25	314.17	36.97	-48.0	-49.9	17.5	0.00e+00	0	34	0	746586112	66	4814
2026-01-17 02:42:03.28	312.50	36.81	-48.0	-50.0	17.4	0.00e+00	0	34	0	753926144	66	4834
2026-01-17 02:42:07.32	310.83	36.62	-48.3	-50.4	17.0	0.00e+00	0	34	0	762314752	67	4785
2026-01-17 02:42:11.35	309.20	36.40	-48.3	-50.4	17.0	0.00e+00	0	34	0	769654784	67	4776
2026-01-17 02:42:15.38	307.58	36.16	-48.1	-50.1	17.2	0.00e+00	0	34	0	776994816	67	4644
2026-01-17 02:42:19.42	305.99	35.90	-47.9	-49.9	17.6	0.00e+00	0	34	0	784334848	67	4499
2026-01-17 02:42:23.44	304.43	35.61	-47.1	-48.7	18.7	0.00e+00	0	34	0	791674880	66	4180
2026-01-17 02:42:27.48	302.89	35.30	-47.3	-48.9	18.5	0.00e+00	0	34	0	800063488	66	4289
2026-01-17 02:42:31.52	301.39	34.97	-46.5	-48.0	19.3	0.00e+00	0	34	0	807403520	65	4069
2026-01-17 02:42:35.55	299.91	34.63	-47.0	-48.6	18.8	0.00e+00	0	34	0	814743552	64	4619
2026-01-17 02:42:39.59	298.47	34.26	-47.3	-49.0	18.3	0.00e+00	0	34	0	822083584	65	4591
2026-01-17 02:42:43.62	297.06	33.88	-47.8	-49.7	17.7	0.00e+00	0	34	0	830472192	66	4692
2026-01-17 02:42:47.66	295.68	33.49	-48.4	-50.6	16.9	0.00e+00	0	34	0	837812224	67	4883
2026-01-17 02:42:51.69	294.34	33.08	-47.8	-49.7	17.7	0.00e+00	0	34	0	845152256	67	4411
2026-01-17 02:42:55.73	293.03	32.66	-48.3	-50.4	17.0	0.00e+00	0	34	0	852492288	67	4769
2026-01-17 02:42:59.76	291.75	32.23	-48.2	-50.2	17.2	0.00e+00	0	34	0	859832320	67	4653
2026-01-17 02:43:03.79	290.51	31.79	-48.1	-50.0	17.3	0.00e+00	0	34	0	868220928	67	4587
2026-01-17 02:43:07.82	289.30	31.35	-48.2	-50.2	17.2	0.00e+00	0	34	0	875560960	67	4679
2026-01-17 02:43:11.86	288.13	30.89	-48.4	-50.5	16.8	0.00e+00	0	34	0	882900992	67	4857
2026-01-17 02:43:15.89	286.99	30.43	-48.7	-51.0	16.4	0.00e+00	0	34	0	890241024	68	4826
2026-01-17 02:43:19.93	285.88	29.96	-48.4	-50.4	17.0	0.00e+00	0	34	0	898629632	68	4538
2026-01-17 02:43:23.96	284.80	29.50	-48.0	-50.0	17.5	0.00e+00	0	34	0	905969664	68	4299
2026-01-17 02:43:27.99	283.76	29.02	-47.5	-49.3	18.0	0.00e+00	0	34	0	913309696	67	4236
2026-01-17 02:43:32.02	282.74	28.55	-47.1	-48.8	18.5	0.00e+00	0	34	0	920649728	66	4215
2026-01-17 02:43:36.06	281.76	28.07	-46.5	-48.1	19.2	0.00e+00	0	34	0	927989760	65	4105
2026-01-17 02:43:40.09	280.80	27.59	-46.4	-48.0	19.3	0.00e+00	0	34	0	935329792	64	4296
2026-01-17 02:43:44.13	279.87	27.11	-46.4	-47.9	19.3	0.00e+00	0	34	0	943718400	64	4280
2026-01-17 02:43:48.16	278.97	26.63	-46.1	-47.5	19.7	0.00e+00	0	34	0	951058432	64	4079
2026-01-17 02:43:52.19	278.10	26.16	-46.1	-47.5	19.8	0.00e+00	0	34	0	958398464	63	4300
2026-01-17 02:43:56.22	277.25	25.68	-45.7	-47.0	20.2	0.00e+00	0	34	0	965738496	63	4096
2026-01-17 02:44:00.26	276.43	25.21	-45.9	-47.3	20.0	0.00e+00	0	34	0	974127104	63	4221
2026-01-17 02:44:04.29	275.64	24.74	-46.0	-47.4	19.9	0.00e+00	0	34	0	981467136	63	4244
2026-01-17 02:44:08.32	274.86	24.27	-46.1	-47.5	19.7	0.00e+00	0	34	0	988807168	63	4331
2026-01-17 02:44:12.36	274.11	23.80	-46.3	-47.8	19.4	0.00e+00	0	34	0	996147200	63	4482
2026-01-17 02:44:16.39	273.38	23.33	-46.5	-48.0	19.2	0.00e+00	0	34	0	1003487232	63	4580
2026-01-17 02:44:20.42	272.68	22.87	-46.5	-48.0	19.2	0.00e+00	0	34	0	1011875840	63	4558
2026-01-17 02:44:24.46	271.99	22.42	-46.3	-47.8	19.5	0.00e+00	0	34	0	1019215872	63	4446
2026-01-17 02:44:28.49	271.33	21.96	-46.5	-48.0	19.2	0.00e+00	0	34	0	1026555904	63	4591
2026-01-17 02:44:32.53	270.68	21.51	-46.7	-48.2	18.8	0.00e+00	0	34	0	1033895936	64	4440
2026-01-17 02:44:36.57	270.05	21.07	-46.6	-48.2	18.9	0.00e+00	0	34	0	1041235968	64	4434
2026-01-17 02:44:40.60	269.44	20.63	-47.1	-48.8	18.3	0.00e+00	0	34	0	1049624576	64	4735
2026-01-17 02:44:44.63	268.85	20.19	-47.3	-49.1	18.0	0.00e+00	0	34	0	1056964608	65	4615
2026-01-17 02:44:48.67	268.27	19.76	-47.0	-48.7	18.3	0.00e+00	0	34	0	1064304640	65	4437
2026-01-17 02:44:52.70	267.71	19.33	-47.2	-48.9	18.2	0.00e+00	0	34	0	1071644672	65	4526
2026-01-17 02:44:56.73	267.17	18.91	-47.2	-49.0	18.0	0.00e+00	0	34	0	1080033280	65	4585
2026-01-17 02:45:00.77	266.64	18.49	-47.4	-49.3	17.8	0.00e+00	0	34	0	1087373312	65	4714
2026-01-17 02:45:04.80	266.13	18.07	-47.5	-49.4	17.7	0.00e+00	0	34	0	1094713344	65	4772
2026-01-17 02:45:08.83	265.63	17.66	-47.4	-49.2	17.8	0.00e+00	0	34	0	1102053376	65	4694
2026-01-17 02:45:12.87	265.14	17.26	-47.0	-48.7	18.2	0.00e+00	0	34	0	1109393408	65	4440
2026-01-17 02:45:16.90	264.67	16.86	-47.1	-48.8	18.1	0.00e+00	0	34	0	1117782016	65	4490
2026-01-17 02:45:20.94	264.21	16.46	-47.2	-49.0	18.0	0.00e+00	0	34	0	1125122048	65	4559
2026-01-17 02:45:24.97	263.76	16.07	-47.1	-48.9	18.0	0.00e+00	0	34	0	1132462080	65	4525
2026-01-17 02:45:29.00	263.33	15.68	-47.1	-48.9	18.0	0.00e+00	0	34	0	1139802112	65	4494
2026-01-17 02:45:33.04	262.90	15.30	-47.3	-49.2	17.8	0.00e+00	0	34	0	1148190720	65	4655
2026-01-17 02:45:37.07	262.49	14.92	-47.4	-49.3	17.6	0.00e+00	0	34	0	1155530752	65	4722
2026-01-17 02:45:41.10	262.08	14.55	-47.3	-49.1	17.8	0.00e+00	0	34	0	1162870784	65	4627
2026-01-17 02:45:45.13	261.69	14.18	-47.1	-48.9	18.0	0.00e+00	0	34	0	1170210816	65	4499
2026-01-17 02:45:49.16	261.31	13.81	-47.3	-49.1	17.8	0.00e+00	0	34	0	1177550848	65	4631
2026-01-17 02:45:53.20	260.93	13.45	-47.5	-49.4	17.4	0.00e+00	0	34	0	1184890880	65	4805
2026-01-17 02:45:57.23	260.57	13.09	-47.8	-49.9	17.0	0.00e+00	0	34	0	1193279488	66	4780
2026-01-17 02:46:01.24	260.22	12.74	-47.8	-49.9	16.9	0.00e+00	0	34	0	1200619520	66	4798
2026-01-17 02:46:05.27	259.87	12.39	-47.9	-50.0	16.8	0.00e+00	0	34	0	1207959552	66	4853
2026-01-17 02:46:09.31	259.53	12.04	-47.8	-49.9	16.9	0.00e+00	0	34	0	1215299584	66	4799
2026-01-17 02:46:13.34	259.20	11.70	-47.9	-50.1	16.7	0.00e+00	0	34	0	1223688192	66	4885
2026-01-17 02:46:17.38	258.88	11.36	-47.7	-49.8	16.9	0.00e+00	0	34	0	1231028224	66	4734
2026-01-17 02:46:21.41	258.56	11.03	-47.9	-50.1	16.6	0.00e+00	0	34	0	1238368256	66	4884
2026-01-17 02:46:25.44	258.26	10.70	-48.2	-50.5	16.2	0.00e+00	0	34	0	1245708288	67	4841
2026-01-17 02:46:29.48	257.95	10.37	-48.3	-50.8	15.9	0.00e+00	0	34	0	1253048320	67	5001
2026-01-17 02:46:33.51	257.66	10.05	-48.4	-50.9	15.7	0.00e+00	0	34	0	1261436928	67	5072
2026-01-17 02:46:37.54	257.37	9.73	-48.3	-50.8	15.8	0.00e+00	0	34	0	1268776960	67	4996
2026-01-17 02:46:41.58	257.09	9.41	-48.4	-50.9	15.6	0.00e+00	0	34	0	1276116992	67	5089
2026-01-17 02:46:45.61	256.82	9.10	-48.6	-51.2	15.3	0.00e+00	0	34	0	1283457024	67	5223
2026-01-17 02:46:49.64	256.55	8.79	-48.5	-51.1	15.3	0.00e+00	0	34	0	1290797056	67	5212
2026-01-17 02:46:53.68	256.29	8.48	-48.6	-51.3	15.1	0.00e+00	0	34	0	1299185664	67	5334
2026-01-17 02:46:57.71	256.03	8.17	-48.8	-51.6	14.9	0.00e+00	0	34	0	1306525696	68	5181
2026-01-17 02:47:01.75	255.78	7.87	-48.8	-51.6	14.8	7.00e-07	0	34	0	1313865728	68	5198
2026-01-17 02:47:05.78	255.54	7.58	-48.9	-51.8	14.6	7.00e-07	0	34	0	1321205760	68	5335
2026-01-17 02:47:09.81	255.30	7.28	-48.8	-51.6	14.8	0.00e+00	0	34	0	1329594368	68	5193
2026-01-17 02:47:13.85	255.06	6.99	-48.8	-51.6	14.7	0.00e+00	0	34	0	1336934400	68	5211
2026-01-17 02:47:17.88	254.83	6.70	-48.8	-51.7	14.6	0.00e+00	0	34	0	1344274432	68	5260
2026-01-17 02:47:21.91	254.60	6.41	-48.8	-51.7	14.6	0.00e+00	0	34	0	1351614464	68	5230
2026-01-17 02:47:25.95	254.38	6.13	-48.9	-52.0	14.2	3.00e-06	0	34	0	1358954496	68	5433
2026-01-17 02:47:29.98	254.17	5.85	-49.3	-52.8	13.3	1.98e-05	0	34	0	1367343104	69	5642
2026-01-17 02:47:34.02	253.95	5.57	-49.3	-52.8	13.3	1.29e-05	0	34	0	1374683136	69	5640
2026-01-17 02:47:38.05	253.75	5.29	-49.3	-52.8	13.2	1.67e-05	0	34	0	1382023168	69	5655
2026-01-17 02:47:42.09	253.54	5.02	-49.1	-52.4	13.5	6.10e-06	0	34	0	1389363200	69	5399
2026-01-17 02:47:46.12	253.34	4.75	-53.1	-68.1	3.8	1.49e+00	0	34	104	1390411776	76	21884
2026-01-17 02:47:50.15	253.15	4.48	-53.5	-68.5	3.8	1.49e+00	0	34	104	1390411776	77	21580
2026-01-17 02:47:54.18	252.95	4.21	-53.6	-68.7	3.8	1.49e+00	0	35	104	1390411776	77	22008
2026-01-17 02:47:58.22	252.76	3.95	-53.7	-68.7	3.8	1.49e+00	0	35	104	1390411776	77	22128
2026-01-17 02:48:02.24	252.58	3.69	-53.6	-68.6	3.8	1.49e+00	0	34	104	1390411776	77	21987
2026-01-17 02:48:06.28	252.40	3.43	-53.6	-68.6	3.8	1.49e+00	0	34	104	1390411776	77	21952
2026-01-17 02:48:10.31	252.22	3.17	-53.6	-68.6	3.8	1.49e+00	0	34	104	1390411776	77	21929
2026-01-17 02:48:14.34	252.05	2.91	-53.6	-68.6	3.8	1.49e+00	0	34	104	1390411776	77	21902
2026-01-17 02:48:18.37	251.87	2.66	-53.5	-68.6	3.8	1.49e+00	0	34	104	1390411776	77	21771
2026-01-17 02:48:22.41	251.71	2.41	-53.5	-68.6	3.8	1.49e+00	0	34	104	1390411776	77	21793
2026-01-17 02:48:26.44	251.54	2.16	-53.5	-68.5	3.8	1.49e+00	0	34	104	1390411776	77	21696

#Closed at: 2026-01-17 02:48:29
#Recorded file [1390 MB]: D:/lorett/data/31041_260117_053447.dat