passes_logs/2026/01/17/R3.2S_Murmansk/R3.2S_Murmansk__20260117_205929_TY-42_rec.log

#Pass ID: 20260117_205929_TY-42
#Satellite: TY-42
#Configuration: TY-42_900M
#almurnet v.1.7.20251203
#Start time: 2026-01-17 20:59:30

#Version: 2.2.20231116
#Station: R3.2S_Murmansk
#Location: 33.079688 lon 68.888172 lat
#TLE: 1 64048U 25103A   26017.54141204  .00008008  00000-0  38191-3 0 09991
#TLE: 2 64048 097.4124 092.9111 0001919 092.8629 297.5859 15.19160543 37202

#Time	Az	El	Level	Level2	SNR	BER	BlckErr	Temp	State	Recorded	gain1	gain2
2026-01-17 20:59:30.71	220.94	2.08	-52.8	-55.0	6.2	0.00e+00	0	41	0	0	77	18217
2026-01-17 20:59:33.73	221.27	2.26	-52.8	-55.0	6.2	0.00e+00	0	41	104	0	77	18196
2026-01-17 20:59:36.75	221.61	2.43	-52.8	-55.0	6.2	0.00e+00	0	41	104	0	77	18226
2026-01-17 20:59:39.77	221.95	2.60	-52.8	-55.0	6.2	0.00e+00	0	42	104	0	77	18193
2026-01-17 20:59:42.80	222.30	2.78	-52.8	-55.0	6.2	0.00e+00	0	42	104	0	77	18208
2026-01-17 20:59:45.82	222.65	2.95	-52.8	-55.0	6.2	0.00e+00	0	42	104	0	77	18185
2026-01-17 20:59:48.84	223.01	3.12	-52.8	-54.9	6.2	0.00e+00	0	42	104	0	77	18179
2026-01-17 20:59:51.86	223.37	3.30	-52.8	-55.0	6.2	0.00e+00	0	42	104	0	77	18210
2026-01-17 20:59:54.89	223.74	3.48	-52.8	-55.0	6.2	0.00e+00	0	42	104	0	77	18237
2026-01-17 20:59:57.92	224.11	3.66	-52.8	-54.9	6.2	0.00e+00	0	42	104	0	77	18160
2026-01-17 21:00:00.94	224.49	3.83	-52.8	-54.9	6.2	0.00e+00	0	43	104	0	77	18131
2026-01-17 21:00:03.96	224.87	4.01	-52.8	-55.0	6.2	0.00e+00	0	43	104	0	77	18225
2026-01-17 21:00:06.99	225.26	4.19	-52.8	-55.0	6.2	0.00e+00	0	43	104	0	77	18210
2026-01-17 21:00:10.01	225.66	4.37	-52.8	-55.0	6.2	0.00e+00	0	43	104	0	77	18192
2026-01-17 21:00:13.04	226.06	4.55	-52.8	-55.0	6.2	0.00e+00	0	43	104	0	77	18212
2026-01-17 21:00:16.06	226.46	4.73	-52.8	-55.0	6.2	0.00e+00	0	43	104	0	77	18229
2026-01-17 21:00:19.08	226.88	4.91	-52.8	-55.0	6.2	0.00e+00	0	43	104	0	77	18204
2026-01-17 21:00:22.11	227.30	5.10	-52.9	-55.1	6.2	0.00e+00	0	43	104	0	77	18444
2026-01-17 21:00:25.14	227.73	5.28	-51.2	-53.4	6.2	0.00e+00	0	43	104	0	74	18023
2026-01-17 21:00:28.16	228.16	5.46	-51.2	-53.4	6.2	0.00e+00	0	43	104	0	74	18019
2026-01-17 21:00:31.19	228.60	5.65	-51.2	-53.3	6.2	0.00e+00	0	43	104	0	74	17895
2026-01-17 21:00:34.21	229.05	5.83	-51.2	-53.3	6.2	0.00e+00	0	44	104	0	74	17801
2026-01-17 21:00:37.24	229.50	6.02	-51.2	-53.3	6.2	0.00e+00	0	44	104	0	74	17936
2026-01-17 21:00:40.26	229.96	6.20	-51.2	-53.3	6.2	0.00e+00	0	44	104	0	74	17962
2026-01-17 21:00:43.29	230.43	6.39	-51.2	-53.3	6.2	0.00e+00	0	44	104	0	74	17934
2026-01-17 21:00:46.32	230.90	6.58	-51.2	-53.3	6.2	0.00e+00	0	44	104	0	74	17920
2026-01-17 21:00:49.34	231.39	6.76	-51.2	-53.4	6.2	0.00e+00	0	44	104	0	74	17979
2026-01-17 21:00:52.37	231.88	6.95	-51.2	-53.3	6.2	0.00e+00	0	44	104	0	74	17852
2026-01-17 21:00:55.39	232.37	7.14	-51.2	-53.3	6.2	0.00e+00	0	44	104	0	74	17900
2026-01-17 21:00:58.42	232.88	7.32	-51.2	-53.3	6.2	0.00e+00	0	44	104	0	74	17950
2026-01-17 21:01:01.43	233.39	7.51	-51.2	-53.3	6.2	0.00e+00	0	44	104	0	74	17920
2026-01-17 21:01:04.46	233.91	7.70	-51.2	-53.4	6.2	0.00e+00	0	44	104	0	74	17974
2026-01-17 21:01:07.48	234.44	7.89	-52.0	-54.2	6.2	0.00e+00	0	44	104	0	74	19750
2026-01-17 21:01:10.50	234.98	8.07	-53.6	-55.7	6.2	0.00e+00	0	44	104	0	77	19897
2026-01-17 21:01:13.53	235.53	8.26	-54.0	-56.2	6.2	0.00e+00	0	45	104	0	78	19706
2026-01-17 21:01:16.55	236.08	8.45	-54.2	-56.3	6.2	0.00e+00	0	44	104	0	78	20089
2026-01-17 21:01:19.58	236.64	8.64	-54.2	-56.4	6.2	0.00e+00	0	44	104	0	79	19129
2026-01-17 21:01:22.60	237.22	8.82	-54.2	-56.3	6.2	0.00e+00	0	44	104	0	79	19024
2026-01-17 21:01:25.62	237.80	9.01	-54.3	-56.4	6.2	0.00e+00	0	44	104	0	79	19198
2026-01-17 21:01:28.65	238.39	9.20	-54.4	-56.6	6.2	0.00e+00	0	44	104	0	79	19501
2026-01-17 21:01:31.67	238.98	9.38	-54.4	-56.6	6.2	0.00e+00	0	45	104	0	79	19550
2026-01-17 21:01:34.70	239.59	9.57	-54.4	-56.5	6.2	0.00e+00	0	45	104	0	79	19471
2026-01-17 21:01:37.72	240.21	9.76	-54.4	-56.6	6.2	0.00e+00	0	45	104	0	79	19520
2026-01-17 21:01:40.74	240.84	9.94	-54.4	-56.5	6.2	0.00e+00	0	45	104	0	79	19420
2026-01-17 21:01:43.76	241.47	10.12	-54.4	-56.5	6.2	0.00e+00	0	44	104	0	79	19451
2026-01-17 21:01:46.79	242.12	10.30	-54.3	-56.5	6.2	0.00e+00	0	45	104	0	79	19311
2026-01-17 21:01:49.82	242.77	10.49	-54.3	-56.4	6.2	0.00e+00	0	45	104	0	79	19250
2026-01-17 21:01:52.84	243.44	10.67	-54.3	-56.5	6.2	0.00e+00	0	45	104	0	79	19279
2026-01-17 21:01:55.86	244.11	10.85	-54.3	-56.4	6.2	0.00e+00	0	45	104	0	79	19185
2026-01-17 21:01:58.88	244.79	11.02	-54.3	-56.4	6.2	0.00e+00	0	45	104	0	79	19175
2026-01-17 21:02:01.91	245.49	11.20	-54.3	-56.4	6.2	0.00e+00	0	45	104	0	79	19129
2026-01-17 21:02:04.93	246.19	11.37	-54.3	-56.4	6.2	0.00e+00	0	45	104	0	79	19108
2026-01-17 21:02:07.95	246.90	11.55	-54.4	-56.5	6.2	0.00e+00	0	45	104	0	79	19445
2026-01-17 21:02:10.98	247.63	11.72	-54.5	-56.6	6.2	0.00e+00	0	45	104	0	79	19614
2026-01-17 21:02:14.00	248.36	11.88	-54.4	-56.6	6.2	0.00e+00	0	45	104	0	79	19493
2026-01-17 21:02:17.02	249.10	12.05	-54.3	-56.5	6.2	0.00e+00	0	45	104	0	79	19326
2026-01-17 21:02:20.05	249.86	12.21	-54.2	-56.3	6.2	0.00e+00	0	45	104	0	79	18977
2026-01-17 21:02:23.07	250.62	12.38	-53.8	-55.9	6.2	0.00e+00	0	45	104	0	79	18141
2026-01-17 21:02:26.10	251.39	12.53	-35.8	-35.6	14.5	1.75e-02	0	46	0	100663296	43	13855
2026-01-17 21:02:29.12	252.18	12.69	-43.4	-43.4	11.0	3.72e-02	11005	48	0	452984832	58	14372
2026-01-17 21:02:32.15	252.97	12.84	-34.2	-34.1	15.2	3.54e-02	0	47	0	788529152	40	13911
2026-01-17 21:02:35.17	253.77	12.99	-33.9	-33.8	15.3	4.53e-03	0	47	0	1124073472	39	14151
2026-01-17 21:02:38.20	254.58	13.14	-33.9	-33.8	15.3	3.59e-03	0	47	0	1459617792	39	14195
2026-01-17 21:02:41.23	255.40	13.28	-33.8	-33.8	15.3	3.30e-03	0	47	0	1811939328	39	14121
2026-01-17 21:02:44.25	256.23	13.42	-33.8	-33.7	15.4	3.05e-03	0	47	0	2147483648	39	14034
2026-01-17 21:02:47.27	257.07	13.55	-33.8	-33.7	15.4	2.79e-03	0	48	0	2483027968	39	14068
2026-01-17 21:02:50.29	257.91	13.69	-33.7	-33.6	15.4	3.23e-03	0	48	0	2826960896	39	13914
2026-01-17 21:02:53.31	258.77	13.81	-33.7	-33.6	15.4	2.86e-03	0	48	0	3162505216	39	13837
2026-01-17 21:02:56.34	259.63	13.93	-33.6	-33.5	15.4	2.86e-03	0	48	0	3506438144	39	13765
2026-01-17 21:02:59.36	260.50	14.05	-33.7	-33.6	15.4	2.67e-03	0	48	0	3850371072	39	13835
2026-01-17 21:03:02.38	261.38	14.16	-33.5	-33.4	15.5	2.82e-03	0	48	0	4185915392	39	13584
2026-01-17 21:03:05.41	262.27	14.27	-33.5	-33.4	15.5	2.56e-03	0	48	0	4521459712	39	13507
2026-01-17 21:03:08.42	263.16	14.37	-33.6	-33.5	15.4	2.54e-03	0	48	0	4873781248	39	13658
2026-01-17 21:03:11.45	264.07	14.47	-33.6	-33.5	15.4	2.78e-03	0	49	0	5209325568	39	13712
2026-01-17 21:03:14.47	264.97	14.56	-33.6	-33.5	15.4	2.79e-03	0	49	0	5544869888	39	13716
2026-01-17 21:03:17.49	265.89	14.65	-33.6	-33.5	15.4	2.72e-03	0	49	0	5880414208	39	13784
2026-01-17 21:03:20.52	266.81	14.73	-33.7	-33.6	15.4	2.96e-03	0	49	0	6232735744	39	13881
2026-01-17 21:03:23.54	267.73	14.81	-33.7	-33.6	15.4	3.29e-03	0	49	0	6568280064	39	13866
2026-01-17 21:03:26.56	268.66	14.88	-33.6	-33.5	15.4	2.99e-03	0	49	0	6903824384	39	13783
2026-01-17 21:03:29.58	269.60	14.94	-33.6	-33.5	15.5	3.14e-03	0	49	0	7247757312	39	13664
2026-01-17 21:03:32.61	270.54	15.00	-33.6	-33.5	15.4	3.08e-03	0	49	0	7583301632	39	13754
2026-01-17 21:03:35.63	271.48	15.05	-33.7	-33.6	15.4	2.92e-03	0	49	0	7935623168	39	13872
2026-01-17 21:03:38.66	272.43	15.09	-33.7	-33.6	15.4	3.17e-03	0	49	0	8271167488	39	13814
2026-01-17 21:03:41.68	273.38	15.13	-33.8	-33.7	15.3	3.18e-03	0	49	0	8606711808	39	13976
2026-01-17 21:03:44.70	274.33	15.16	-33.7	-33.6	15.4	3.02e-03	0	49	0	8942256128	39	13868
2026-01-17 21:03:47.72	275.28	15.19	-33.7	-33.6	15.3	3.44e-03	0	49	0	9294577664	39	13870
2026-01-17 21:03:50.75	276.24	15.20	-33.7	-33.6	15.3	3.23e-03	0	49	0	9630121984	39	13889
2026-01-17 21:03:53.77	277.20	15.22	-33.8	-33.7	15.3	3.12e-03	0	49	0	9965666304	39	14025
2026-01-17 21:03:56.80	278.16	15.22	-33.7	-33.6	15.3	3.12e-03	0	49	0	10309599232	39	13892
2026-01-17 21:03:59.82	279.11	15.22	-33.7	-33.6	15.3	2.98e-03	0	49	0	10653532160	39	13890
2026-01-17 21:04:02.84	280.07	15.21	-33.8	-33.7	15.3	3.03e-03	0	49	0	10989076480	39	13970
2026-01-17 21:04:05.86	281.02	15.20	-33.8	-33.7	15.3	3.39e-03	0	50	0	11333009408	39	14106
2026-01-17 21:04:08.88	281.98	15.17	-34.0	-33.9	15.2	3.46e-03	0	49	0	11668553728	39	14325
2026-01-17 21:04:11.91	282.93	15.15	-34.0	-33.9	15.2	3.91e-03	0	49	0	12004098048	39	14382
2026-01-17 21:04:14.93	283.88	15.11	-34.0	-33.9	15.2	3.70e-03	0	49	0	12356419584	39	14403
2026-01-17 21:04:17.96	284.83	15.07	-34.0	-34.0	15.2	4.18e-03	0	50	0	12691963904	39	14441
2026-01-17 21:04:20.98	285.77	15.02	-34.2	-34.1	15.1	4.38e-03	0	49	0	13027508224	39	14682
2026-01-17 21:04:24.00	286.71	14.97	-34.2	-34.1	15.1	4.17e-03	0	49	0	13363052544	39	14735
2026-01-17 21:04:27.03	287.65	14.91	-34.2	-34.1	15.1	4.58e-03	0	50	0	13715374080	39	14688
2026-01-17 21:04:30.06	288.58	14.84	-34.2	-34.1	15.1	3.96e-03	0	49	0	14050918400	39	14649
2026-01-17 21:04:33.08	289.51	14.77	-34.2	-34.1	15.1	4.35e-03	0	50	0	14386462720	39	14769
2026-01-17 21:04:36.10	290.43	14.69	-34.3	-34.2	15.1	4.52e-03	0	49	0	14730395648	39	14800
2026-01-17 21:04:39.12	291.34	14.61	-34.2	-34.1	15.1	4.36e-03	0	50	0	15074328576	39	14629
2026-01-17 21:04:42.15	292.25	14.52	-34.3	-34.2	15.1	4.36e-03	0	50	0	15409872896	39	14842
2026-01-17 21:04:45.18	293.16	14.42	-34.2	-34.1	15.2	4.35e-03	0	49	0	15753805824	39	14692
2026-01-17 21:04:48.20	294.05	14.32	-34.4	-34.3	15.1	4.53e-03	0	50	0	16089350144	39	15098
2026-01-17 21:04:51.22	294.94	14.22	-34.3	-34.2	15.1	4.22e-03	0	49	0	16433283072	39	14907
2026-01-17 21:04:54.25	295.82	14.11	-34.4	-34.3	15.2	4.34e-03	0	50	0	16777216000	39	15067
2026-01-17 21:04:57.27	296.69	13.99	-34.5	-34.4	15.2	4.62e-03	0	50	0	17112760320	39	15144
2026-01-17 21:05:00.29	297.56	13.88	-34.4	-34.3	15.2	4.07e-03	0	50	0	17448304640	39	14989
2026-01-17 21:05:03.32	298.42	13.75	-34.4	-34.2	15.2	4.66e-03	0	50	0	17800626176	39	14945
2026-01-17 21:05:06.34	299.26	13.62	-34.5	-34.4	15.2	4.12e-03	0	50	0	18136170496	39	15178
2026-01-17 21:05:09.36	300.10	13.49	-34.7	-34.6	15.1	4.15e-03	0	50	0	18471714816	39	15490
2026-01-17 21:05:12.39	300.93	13.35	-34.5	-34.4	15.2	4.21e-03	0	50	0	18807259136	39	15131
2026-01-17 21:05:15.41	301.75	13.22	-34.6	-34.5	15.2	4.84e-03	0	50	0	19151192064	39	15427
2026-01-17 21:05:18.43	302.56	13.07	-34.7	-34.6	15.1	5.20e-03	0	50	0	19495124992	40	14723
2026-01-17 21:05:21.46	303.37	12.92	-34.7	-34.6	15.2	5.40e-03	0	50	0	19830669312	40	14661
2026-01-17 21:05:24.48	304.16	12.77	-34.9	-34.8	15.0	5.04e-03	0	50	0	20174602240	40	15079
2026-01-17 21:05:27.50	304.94	12.62	-34.7	-34.5	15.2	5.22e-03	0	50	0	20510146560	40	14603
2026-01-17 21:05:30.52	305.72	12.47	-34.7	-34.6	15.2	5.10e-03	0	50	0	20854079488	40	14633
2026-01-17 21:05:33.54	306.48	12.31	-34.7	-34.6	15.2	4.69e-03	0	50	0	21198012416	40	14686
2026-01-17 21:05:36.57	307.23	12.14	-34.7	-34.6	15.2	4.98e-03	0	50	0	21533556736	40	14638
2026-01-17 21:05:39.58	307.98	11.98	-34.9	-34.8	15.1	4.93e-03	0	50	0	21869101056	40	15114
2026-01-17 21:05:42.60	308.71	11.82	-34.8	-34.7	15.2	4.93e-03	0	50	0	22204645376	40	14871
2026-01-17 21:05:45.62	309.43	11.65	-34.9	-34.8	15.1	5.13e-03	0	50	0	22556966912	40	15056
2026-01-17 21:05:48.64	310.15	11.48	-35.0	-34.9	15.0	6.13e-03	0	50	0	22892511232	40	15245
2026-01-17 21:05:51.67	310.86	11.30	-35.0	-34.9	15.1	6.13e-03	0	50	0	23228055552	40	15278
2026-01-17 21:05:54.69	311.55	11.13	-35.1	-35.0	15.0	6.40e-03	0	50	0	23571988480	40	15430
2026-01-17 21:05:57.71	312.23	10.96	-35.1	-35.0	15.0	6.96e-03	0	50	0	23907532800	40	15445
2026-01-17 21:06:00.74	312.91	10.78	-35.1	-35.0	15.0	6.93e-03	0	50	0	24251465728	40	15402
2026-01-17 21:06:03.76	313.58	10.60	-35.2	-35.1	14.9	7.14e-03	0	50	0	24595398656	40	15547
2026-01-17 21:06:06.78	314.23	10.42	-35.2	-35.1	14.9	7.32e-03	0	50	0	24930942976	41	14695
2026-01-17 21:06:09.80	314.88	10.24	-35.3	-35.2	14.9	7.80e-03	0	50	0	25266487296	41	14905
2026-01-17 21:06:12.83	315.52	10.06	-35.4	-35.2	14.8	7.72e-03	0	50	0	25618808832	41	14943
2026-01-17 21:06:15.85	316.15	9.88	-35.4	-35.3	14.8	8.08e-03	0	51	0	25954353152	41	15032
2026-01-17 21:06:18.88	316.77	9.69	-35.4	-35.3	14.8	8.13e-03	0	51	0	26289897472	41	15032
2026-01-17 21:06:21.90	317.37	9.51	-35.4	-35.3	14.8	8.04e-03	0	51	0	26625441792	41	14977
2026-01-17 21:06:24.93	317.98	9.32	-35.5	-35.4	14.8	7.47e-03	0	50	0	26977763328	41	15205
2026-01-17 21:06:27.95	318.57	9.14	-35.5	-35.4	14.7	8.44e-03	0	50	0	27313307648	41	15287
2026-01-17 21:06:30.98	319.15	8.95	-35.4	-35.3	14.8	8.72e-03	0	51	0	27648851968	41	15101
2026-01-17 21:06:34.00	319.72	8.77	-35.5	-35.4	14.7	8.22e-03	0	51	0	27992784896	41	15162
2026-01-17 21:06:37.02	320.29	8.58	-35.5	-35.4	14.7	8.59e-03	0	51	0	28336717824	41	15168
2026-01-17 21:06:40.05	320.85	8.40	-35.7	-35.6	14.6	8.85e-03	0	51	0	28672262144	41	15522
2026-01-17 21:06:43.07	321.39	8.21	-35.7	-35.6	14.6	9.61e-03	0	51	0	29016195072	41	15517
2026-01-17 21:06:46.10	321.93	8.02	-35.8	-35.7	14.5	1.02e-02	0	51	0	29351739392	42	14926
2026-01-17 21:06:49.12	322.46	7.84	-35.9	-35.8	14.5	1.06e-02	0	51	0	29704060928	42	15091
2026-01-17 21:06:52.15	322.99	7.65	-36.0	-35.9	14.4	1.15e-02	0	51	0	30039605248	42	15214
2026-01-17 21:06:55.17	323.50	7.46	-36.0	-35.9	14.4	1.31e-02	0	51	0	30375149568	42	15190
2026-01-17 21:06:58.20	324.01	7.28	-36.2	-36.1	14.3	1.37e-02	0	51	0	30710693888	43	14725
2026-01-17 21:07:01.22	324.51	7.09	-36.1	-36.0	14.4	1.34e-02	0	51	0	31063015424	43	14477
2026-01-17 21:07:04.24	325.00	6.91	-36.3	-36.2	14.2	1.61e-02	0	51	0	31398559744	43	14862
2026-01-17 21:07:07.26	325.48	6.72	-36.5	-36.4	14.1	1.77e-02	0	51	0	31734104064	43	15178
2026-01-17 21:07:10.29	325.96	6.54	-36.5	-36.4	14.0	1.95e-02	0	51	0	32078036992	43	15230
2026-01-17 21:07:13.31	326.43	6.35	-36.5	-36.4	14.0	2.08e-02	0	51	0	32413581312	43	15185
2026-01-17 21:07:16.33	326.89	6.17	-36.6	-36.5	13.9	2.27e-02	0	51	0	32757514240	43	15414
2026-01-17 21:07:19.35	327.35	5.98	-36.7	-36.6	13.9	2.35e-02	0	51	0	33101447168	43	15610
2026-01-17 21:07:22.38	327.80	5.80	-36.4	-36.3	14.0	2.52e-02	0	51	0	33436991488	44	14243
2026-01-17 21:07:25.40	328.24	5.62	-36.6	-36.5	13.9	2.55e-02	0	51	0	33772535808	44	14506
2026-01-17 21:07:28.42	328.67	5.44	-36.9	-36.8	13.7	2.66e-02	0	51	0	34124857344	44	15060
2026-01-17 21:07:31.44	329.10	5.25	-36.9	-36.8	13.6	3.06e-02	0	51	0	34460401664	44	15100
2026-01-17 21:07:34.46	329.52	5.07	-36.9	-36.8	13.6	3.17e-02	0	51	0	34795945984	44	15035
2026-01-17 21:07:37.49	329.94	4.89	-53.4	-55.6	6.2	6.90e-02	0	50	104	34972106752	77	19576
2026-01-17 21:07:40.51	330.35	4.71	-54.0	-56.1	6.2	6.90e-02	0	50	104	34972106752	78	19594
2026-01-17 21:07:43.54	330.75	4.53	-54.3	-56.4	6.2	0.00e+00	0	50	104	34972106752	79	19098
2026-01-17 21:07:46.56	331.15	4.35	-54.4	-56.6	6.2	0.00e+00	0	49	104	34972106752	79	19531
2026-01-17 21:07:49.59	331.54	4.17	-54.5	-56.6	6.2	0.00e+00	0	49	104	34972106752	79	19655
2026-01-17 21:07:52.61	331.93	4.00	-54.5	-56.7	6.2	0.00e+00	0	49	104	34972106752	79	19786
2026-01-17 21:07:55.64	332.31	3.82	-54.5	-56.6	6.2	0.00e+00	0	49	104	34972106752	79	19657
2026-01-17 21:07:58.66	332.68	3.64	-54.5	-56.6	6.2	0.00e+00	0	49	104	34972106752	79	19607
2026-01-17 21:08:01.68	333.05	3.47	-54.5	-56.6	6.2	0.00e+00	0	49	104	34972106752	79	19558
2026-01-17 21:08:04.71	333.42	3.29	-54.4	-56.6	6.2	0.00e+00	0	49	104	34972106752	79	19536
2026-01-17 21:08:07.74	333.78	3.12	-54.4	-56.5	6.2	0.00e+00	0	49	104	34972106752	79	19458
2026-01-17 21:08:10.76	334.13	2.95	-54.4	-56.6	6.2	0.00e+00	0	49	104	34972106752	79	19529
2026-01-17 21:08:13.79	334.48	2.77	-54.4	-56.5	6.2	0.00e+00	0	49	104	34972106752	79	19436
2026-01-17 21:08:16.81	334.82	2.60	-54.4	-56.6	6.2	0.00e+00	0	49	104	34972106752	79	19494
2026-01-17 21:08:19.83	335.16	2.43	-54.4	-56.5	6.2	0.00e+00	0	49	104	34972106752	79	19412
2026-01-17 21:08:22.86	335.50	2.26	-54.4	-56.5	6.2	0.00e+00	0	48	104	34972106752	79	19466
2026-01-17 21:08:25.88	335.83	2.09	-54.4	-56.5	6.2	0.00e+00	0	49	104	34972106752	79	19388
2026-01-17 21:08:28.90	336.15	1.92	-54.4	-56.5	6.2	0.00e+00	0	48	104	34972106752	79	19425

#Closed at: 2026-01-17 21:08:29
#Recorded file [34972 MB]: D:/lorett/data/31041_260117_235930.dat