passes_logs/2026/01/17/R3.2S_Murmansk/R3.2S_Murmansk__20260117_000410_NOAA_21_JPSS-2_rec.log

#Pass ID: 20260117_000410_NOAA 21 (JPSS-2)
#Satellite: NOAA 21 (JPSS-2)
#Configuration: NOAA-21
#almurnet v.1.7.20251203
#Start time: 2026-01-17 00:04:11

#Version: 2.2.20231116
#Station: R3.2S_Murmansk
#Location: 33.079688 lon 68.888172 lat
#TLE: 1 54234U 22150A   26015.92901934  .00000025  00000+0  32700-4 0  9991
#TLE: 2 54234  98.7499 316.8175 0000634 284.8145  75.2961 14.19534841164946

#Time	Az	El	Level	Level2	SNR	BER	BlckErr	Temp	State	Recorded	gain1	gain2
2026-01-17 00:04:11.58	22.41	2.09	-51.2	-62.3	3.8	1.49e+00	0	32	0	0	74	12614
2026-01-17 00:04:15.61	22.49	2.35	-51.3	-63.2	3.8	1.49e+00	0	32	104	0	73	14714
2026-01-17 00:04:19.64	22.58	2.61	-51.2	-61.6	4.0	1.49e+00	0	32	104	0	73	12340
2026-01-17 00:04:23.68	22.66	2.87	-50.8	-59.0	4.8	1.47e+00	2	32	104	1048576	73	9098
2026-01-17 00:04:27.71	22.75	3.13	-50.3	-56.3	6.5	2.29e-01	0	32	0	8388608	72	7088
2026-01-17 00:04:31.74	22.84	3.40	-49.9	-55.0	7.8	8.70e-02	0	32	0	20971520	71	6494
2026-01-17 00:04:35.78	22.93	3.67	-48.9	-52.5	10.4	8.37e-03	0	32	0	33554432	69	5439
2026-01-17 00:04:39.81	23.02	3.94	-46.9	-49.2	13.8	1.29e-05	0	32	0	46137344	65	4672
2026-01-17 00:04:43.85	23.11	4.21	-46.8	-49.0	13.9	9.90e-06	0	32	0	58720256	65	4551
2026-01-17 00:04:47.88	23.20	4.49	-47.6	-50.4	12.5	5.18e-05	0	33	0	71303168	65	5352
2026-01-17 00:04:51.92	23.30	4.77	-49.4	-53.7	9.2	1.15e-02	0	33	0	83886080	69	6215
2026-01-17 00:04:55.96	23.39	5.05	-50.3	-56.5	6.4	1.63e-01	0	33	0	96468992	71	7680
2026-01-17 00:04:59.99	23.49	5.33	-51.1	-60.1	4.4	1.48e+00	0	33	104	105906176	72	10969
2026-01-17 00:05:04.03	23.59	5.62	-45.9	-47.6	15.9	0.00e+00	0	33	0	117440512	63	4361
2026-01-17 00:05:08.07	23.69	5.91	-45.5	-47.1	16.4	0.00e+00	0	33	0	130023424	62	4364
2026-01-17 00:05:12.10	23.80	6.21	-46.0	-47.6	15.9	0.00e+00	0	33	0	142606336	62	4650
2026-01-17 00:05:16.13	23.90	6.51	-45.6	-47.1	16.5	0.00e+00	0	33	0	155189248	62	4374
2026-01-17 00:05:20.16	24.01	6.81	-45.3	-46.7	17.0	0.00e+00	0	33	0	167772160	62	4190
2026-01-17 00:05:24.20	24.11	7.11	-45.1	-46.5	17.2	0.00e+00	0	33	0	180355072	61	4329
2026-01-17 00:05:28.23	24.22	7.42	-45.1	-46.4	17.3	0.00e+00	0	33	0	192937984	61	4284
2026-01-17 00:05:32.26	24.34	7.73	-44.9	-46.2	17.5	0.00e+00	0	33	0	205520896	61	4181
2026-01-17 00:05:36.29	24.45	8.05	-44.9	-46.2	17.6	0.00e+00	0	33	0	218103808	61	4179
2026-01-17 00:05:40.33	24.57	8.37	-44.9	-46.2	17.6	0.00e+00	0	33	0	230686720	61	4164
2026-01-17 00:05:44.37	24.68	8.69	-44.4	-45.6	18.2	0.00e+00	0	33	0	243269632	60	4115
2026-01-17 00:05:48.40	24.80	9.02	-44.5	-45.7	18.1	0.00e+00	0	33	0	255852544	60	4189
2026-01-17 00:05:52.44	24.93	9.35	-44.2	-45.4	18.5	0.00e+00	0	33	0	268435456	60	4028
2026-01-17 00:05:56.47	25.05	9.69	-44.1	-45.3	18.6	0.00e+00	0	33	0	281018368	60	3985
2026-01-17 00:06:00.51	25.18	10.03	-44.1	-45.3	18.6	0.00e+00	0	33	0	293601280	60	3981
2026-01-17 00:06:04.55	25.31	10.38	-44.4	-45.6	18.6	0.00e+00	0	33	0	306184192	59	4371
2026-01-17 00:06:08.59	25.45	10.73	-44.3	-45.5	18.8	0.00e+00	0	33	0	318767104	59	4299
2026-01-17 00:06:12.62	25.58	11.09	-44.2	-45.3	19.0	0.00e+00	0	34	0	331350016	59	4216
2026-01-17 00:06:16.65	25.72	11.45	-44.3	-45.5	18.8	0.00e+00	0	34	0	343932928	59	4310
2026-01-17 00:06:20.69	25.86	11.81	-43.9	-45.0	19.3	0.00e+00	0	33	0	356515840	59	4057
2026-01-17 00:06:24.72	26.01	12.18	-43.8	-44.8	19.5	0.00e+00	0	33	0	369098752	59	3990
2026-01-17 00:06:28.76	26.15	12.56	-43.7	-44.8	19.6	0.00e+00	0	34	0	381681664	59	3963
2026-01-17 00:06:32.79	26.31	12.94	-43.9	-45.0	19.4	0.00e+00	0	34	0	394264576	59	4068
2026-01-17 00:06:36.82	26.46	13.33	-43.9	-44.9	19.4	0.00e+00	0	33	0	406847488	59	4047
2026-01-17 00:06:40.85	26.62	13.73	-43.6	-44.6	19.8	0.00e+00	0	34	0	419430400	59	3889
2026-01-17 00:06:44.89	26.78	14.13	-43.5	-44.5	19.9	0.00e+00	0	34	0	432013312	58	4068
2026-01-17 00:06:48.92	26.95	14.54	-43.5	-44.5	19.9	0.00e+00	0	34	0	444596224	58	4098
2026-01-17 00:06:52.96	27.12	14.95	-43.6	-44.6	19.8	0.00e+00	0	34	0	457179136	58	4134
2026-01-17 00:06:57.00	27.30	15.38	-43.6	-44.6	19.9	0.00e+00	0	34	0	469762048	58	4131
2026-01-17 00:07:01.03	27.48	15.80	-43.7	-44.8	19.7	0.00e+00	0	34	0	482344960	58	4204
2026-01-17 00:07:05.06	27.66	16.24	-43.6	-44.7	19.8	0.00e+00	0	34	0	494927872	58	4152
2026-01-17 00:07:09.09	27.85	16.68	-43.7	-44.7	19.8	0.00e+00	0	34	0	507510784	58	4183
2026-01-17 00:07:13.12	28.04	17.14	-43.8	-44.8	19.7	0.00e+00	0	34	0	520093696	58	4235
2026-01-17 00:07:17.16	28.24	17.60	-43.9	-44.9	19.6	0.00e+00	0	34	0	532676608	58	4287
2026-01-17 00:07:21.19	28.45	18.07	-43.9	-45.0	19.6	0.00e+00	0	34	0	546308096	58	4311
2026-01-17 00:07:25.23	28.66	18.54	-43.9	-45.0	19.7	0.00e+00	0	34	0	557842432	58	4305
2026-01-17 00:07:29.27	28.88	19.03	-43.8	-44.8	19.8	0.00e+00	0	33	0	570425344	58	4242
2026-01-17 00:07:33.30	29.10	19.53	-43.7	-44.8	19.9	0.00e+00	0	34	0	584056832	58	4196
2026-01-17 00:07:37.34	29.33	20.03	-43.3	-44.3	20.3	0.00e+00	0	34	0	596639744	58	3988
2026-01-17 00:07:41.37	29.57	20.55	-43.1	-44.0	20.6	0.00e+00	0	34	0	608174080	58	3860
2026-01-17 00:07:45.40	29.82	21.08	-42.7	-43.6	20.9	0.00e+00	0	34	0	621805568	57	3884
2026-01-17 00:07:49.45	30.07	21.62	-42.6	-43.5	21.0	0.00e+00	0	34	0	634388480	57	3842
2026-01-17 00:07:53.48	30.34	22.16	-42.5	-43.4	21.1	0.00e+00	0	34	0	646971392	56	4023
2026-01-17 00:07:57.52	30.61	22.72	-42.4	-43.2	21.2	0.00e+00	0	34	0	659554304	56	3958
2026-01-17 00:08:01.55	30.89	23.30	-42.3	-43.2	21.3	0.00e+00	0	34	0	672137216	56	3940
2026-01-17 00:08:05.59	31.18	23.88	-42.4	-43.3	21.3	0.00e+00	0	34	0	684720128	56	3965
2026-01-17 00:08:09.62	31.48	24.48	-42.5	-43.4	21.2	0.00e+00	0	34	0	697303040	56	4022
2026-01-17 00:08:13.66	31.79	25.09	-42.6	-43.5	21.2	0.00e+00	0	34	0	709885952	56	4058
2026-01-17 00:08:17.69	32.11	25.71	-42.7	-43.7	21.0	0.00e+00	0	34	0	722468864	56	4148
2026-01-17 00:08:21.73	32.45	26.35	-43.1	-44.1	20.6	0.00e+00	0	34	0	735051776	56	4361
2026-01-17 00:08:25.77	32.80	27.00	-43.5	-44.5	20.3	0.00e+00	0	34	0	747634688	57	4306
2026-01-17 00:08:29.80	33.16	27.67	-43.7	-44.7	20.1	0.00e+00	0	34	0	760217600	58	4184
2026-01-17 00:08:33.84	33.54	28.35	-43.8	-44.8	20.0	0.00e+00	0	34	0	772800512	58	4239
2026-01-17 00:08:37.87	33.94	29.05	-43.7	-44.7	20.1	0.00e+00	0	34	0	785383424	58	4150
2026-01-17 00:08:41.91	34.35	29.77	-43.7	-44.6	20.2	0.00e+00	0	34	0	797966336	58	4140
2026-01-17 00:08:45.94	34.78	30.50	-43.4	-44.3	20.5	0.00e+00	0	34	0	810549248	58	4003
2026-01-17 00:08:49.97	35.22	31.24	-43.0	-43.9	20.9	0.00e+00	0	34	0	823132160	58	3793
2026-01-17 00:08:54.01	35.69	32.01	-43.1	-44.0	20.8	0.00e+00	0	34	0	835715072	57	4076
2026-01-17 00:08:58.04	36.18	32.80	-43.8	-44.8	20.0	0.00e+00	0	34	0	848297984	58	4224
2026-01-17 00:09:02.07	36.70	33.60	-43.9	-44.9	20.0	0.00e+00	0	34	0	860880896	58	4267
2026-01-17 00:09:06.11	37.24	34.42	-44.0	-45.0	19.9	0.00e+00	0	34	0	873463808	58	4308
2026-01-17 00:09:10.14	37.81	35.27	-44.7	-45.8	19.2	0.00e+00	0	34	0	886046720	59	4456
2026-01-17 00:09:14.18	38.40	36.13	-44.7	-45.8	18.9	0.00e+00	0	34	0	898629632	60	4232
2026-01-17 00:09:18.21	39.03	37.01	-45.0	-46.2	18.6	0.00e+00	0	34	0	911212544	60	4400
2026-01-17 00:09:22.24	39.69	37.91	-45.5	-46.7	18.1	0.00e+00	0	34	0	923795456	61	4436
2026-01-17 00:09:26.28	40.40	38.84	-45.4	-46.6	18.1	0.00e+00	0	34	0	936378368	62	4130
2026-01-17 00:09:30.31	41.13	39.78	-45.4	-46.6	18.2	0.00e+00	0	34	0	948961280	62	4114
2026-01-17 00:09:34.34	41.92	40.74	-45.2	-46.3	18.5	0.00e+00	0	34	0	961544192	61	4241
2026-01-17 00:09:38.37	42.75	41.73	-45.3	-46.5	18.4	0.00e+00	0	34	0	974127104	61	4295
2026-01-17 00:09:42.40	43.63	42.73	-45.1	-46.3	18.5	0.00e+00	0	34	0	986710016	61	4216
2026-01-17 00:09:46.43	44.57	43.76	-45.7	-47.0	17.9	0.00e+00	0	34	0	999292928	62	4323
2026-01-17 00:09:50.46	45.57	44.80	-45.2	-46.4	18.4	0.00e+00	0	34	0	1011875840	62	4024
2026-01-17 00:09:54.50	46.64	45.86	-45.1	-46.3	18.6	0.00e+00	0	34	0	1024458752	61	4196
2026-01-17 00:09:58.54	47.79	46.94	-45.7	-47.1	17.9	0.00e+00	0	34	0	1037041664	62	4343
2026-01-17 00:10:02.57	49.01	48.04	-45.3	-46.5	18.4	0.00e+00	0	34	0	1049624576	62	4086
2026-01-17 00:10:06.60	50.32	49.15	-45.3	-46.6	18.3	0.00e+00	0	34	0	1062207488	62	4111
2026-01-17 00:10:10.64	51.73	50.27	-45.3	-46.5	18.2	0.00e+00	0	34	0	1074790400	62	4098
2026-01-17 00:10:14.68	53.25	51.40	-44.1	-45.1	19.6	0.00e+00	0	34	0	1087373312	60	3904
2026-01-17 00:10:18.71	54.89	52.53	-44.3	-45.3	19.8	0.00e+00	0	34	0	1101004800	59	4214
2026-01-17 00:10:22.74	56.65	53.66	-43.5	-44.4	20.6	0.00e+00	0	34	0	1112539136	58	4022
2026-01-17 00:10:26.78	58.56	54.79	-43.9	-44.9	20.2	0.00e+00	0	34	0	1125122048	58	4274
2026-01-17 00:10:30.81	60.62	55.91	-42.8	-43.7	21.2	0.00e+00	0	34	0	1138753536	57	3922
2026-01-17 00:10:34.84	62.85	57.02	-42.9	-43.8	21.2	0.00e+00	0	34	0	1151336448	57	3963
2026-01-17 00:10:38.87	65.27	58.10	-42.7	-43.6	21.2	0.00e+00	0	34	0	1162870784	57	3891
2026-01-17 00:10:42.91	67.89	59.15	-42.4	-43.2	21.6	0.00e+00	0	34	0	1176502272	56	3939
2026-01-17 00:10:46.94	70.71	60.16	-41.7	-42.4	22.2	0.00e+00	0	34	0	1189085184	55	3821
2026-01-17 00:10:50.97	73.77	61.12	-42.0	-42.8	22.0	0.00e+00	0	34	0	1201668096	55	3971
2026-01-17 00:10:55.01	77.06	62.02	-41.7	-42.5	22.1	0.00e+00	0	34	0	1214251008	55	3858
2026-01-17 00:10:59.04	80.58	62.84	-41.6	-42.3	22.2	0.00e+00	0	34	0	1226833920	55	3778
2026-01-17 00:11:03.08	84.35	63.58	-42.3	-43.1	21.6	0.00e+00	0	34	0	1239416832	55	4142
2026-01-17 00:11:07.11	88.33	64.21	-41.9	-42.7	21.8	0.00e+00	0	34	0	1251999744	55	3929
2026-01-17 00:11:11.14	92.52	64.73	-41.6	-42.3	22.2	0.00e+00	0	34	0	1264582656	55	3780
2026-01-17 00:11:15.17	96.89	65.14	-41.3	-42.1	22.4	0.00e+00	0	34	0	1277165568	54	3887
2026-01-17 00:11:19.20	101.38	65.41	-41.7	-42.5	22.1	0.00e+00	0	34	0	1289748480	54	4081
2026-01-17 00:11:23.23	105.96	65.54	-42.2	-43.0	21.8	0.00e+00	0	34	0	1302331392	54	4313
2026-01-17 00:11:27.26	110.56	65.53	-42.4	-43.3	21.5	0.00e+00	0	34	0	1314914304	55	4204
2026-01-17 00:11:31.30	115.15	65.38	-41.8	-42.6	22.1	0.00e+00	0	34	0	1327497216	55	3880
2026-01-17 00:11:35.33	119.63	65.09	-42.3	-43.1	21.6	0.00e+00	0	34	0	1340080128	55	4137
2026-01-17 00:11:39.36	123.98	64.67	-41.9	-42.7	21.8	0.00e+00	0	34	0	1352663040	54	4172
2026-01-17 00:11:43.40	128.15	64.13	-42.0	-42.9	21.7	0.00e+00	0	34	0	1365245952	55	4012
2026-01-17 00:11:47.43	132.11	63.48	-42.5	-43.3	21.5	0.00e+00	0	34	0	1377828864	55	4235
2026-01-17 00:11:51.47	135.85	62.73	-42.0	-42.8	21.8	0.00e+00	0	34	0	1390411776	54	4233
2026-01-17 00:11:55.50	139.35	61.90	-42.7	-43.6	21.0	0.00e+00	0	34	0	1402994688	56	4117
2026-01-17 00:11:59.54	142.61	60.99	-43.4	-44.4	20.5	0.00e+00	0	34	0	1415577600	57	4268
2026-01-17 00:12:03.57	145.64	60.03	-41.3	-42.0	22.4	0.00e+00	0	34	0	1428160512	54	3854
2026-01-17 00:12:07.60	148.44	59.01	-44.0	-45.0	20.1	0.00e+00	0	34	0	1440743424	58	4305
2026-01-17 00:12:11.63	151.03	57.95	-41.6	-42.4	22.2	0.00e+00	0	34	0	1453326336	54	4013
2026-01-17 00:12:15.67	153.43	56.86	-44.1	-45.1	19.8	0.00e+00	0	34	0	1465909248	59	4144
2026-01-17 00:12:19.70	155.64	55.75	-42.7	-43.5	21.3	0.00e+00	0	34	0	1478492160	56	4074
2026-01-17 00:12:23.73	157.68	54.63	-44.5	-45.6	19.0	0.00e+00	0	34	0	1491075072	60	4104
2026-01-17 00:12:27.77	159.58	53.49	-43.3	-44.2	20.6	0.00e+00	0	34	0	1503657984	58	3949
2026-01-17 00:12:31.81	161.33	52.35	-44.6	-45.7	19.0	0.00e+00	0	34	0	1516240896	59	4419
2026-01-17 00:12:35.84	162.95	51.21	-44.3	-45.4	19.2	0.00e+00	0	34	0	1528823808	60	4019
2026-01-17 00:12:39.87	164.45	50.09	-45.6	-46.8	18.0	0.00e+00	0	34	0	1541406720	61	4483
2026-01-17 00:12:43.91	165.85	48.96	-45.0	-46.2	18.6	0.00e+00	0	34	0	1553989632	62	3918
2026-01-17 00:12:47.94	167.15	47.85	-45.1	-46.3	18.4	0.00e+00	0	34	0	1566572544	60	4457
2026-01-17 00:12:51.98	168.36	46.75	-45.4	-46.6	18.0	0.00e+00	0	34	0	1579155456	62	4141
2026-01-17 00:12:56.01	169.50	45.67	-45.2	-46.4	18.3	0.00e+00	0	34	0	1591738368	62	4025
2026-01-17 00:13:00.05	170.56	44.61	-45.9	-47.2	17.6	0.00e+00	0	34	0	1604321280	62	4412
2026-01-17 00:13:04.08	171.55	43.56	-46.3	-47.7	17.1	0.00e+00	0	34	0	1616904192	63	4415
2026-01-17 00:13:08.11	172.48	42.54	-45.5	-46.7	18.1	0.00e+00	0	34	0	1629487104	62	4193
2026-01-17 00:13:12.15	173.36	41.53	-44.8	-46.0	18.8	0.00e+00	0	34	0	1642070016	61	4067
2026-01-17 00:13:16.18	174.18	40.55	-44.6	-45.7	19.0	0.00e+00	0	34	0	1654652928	61	3956
2026-01-17 00:13:20.21	174.96	39.58	-45.3	-46.5	18.2	0.00e+00	0	34	0	1667235840	61	4300
2026-01-17 00:13:24.24	175.69	38.64	-45.1	-46.3	18.3	0.00e+00	0	34	0	1679818752	61	4239
2026-01-17 00:13:28.28	176.39	37.71	-44.8	-46.0	18.4	0.00e+00	0	34	0	1692401664	61	4070
2026-01-17 00:13:32.31	177.05	36.81	-44.1	-45.2	19.3	0.00e+00	0	34	0	1706033152	60	3938
2026-01-17 00:13:36.35	177.67	35.93	-43.7	-44.7	20.0	0.00e+00	0	34	0	1717567488	59	3956
2026-01-17 00:13:40.38	178.26	35.07	-43.8	-44.8	19.9	0.00e+00	0	34	0	1730150400	59	4002
2026-01-17 00:13:44.42	178.83	34.22	-44.2	-45.2	19.6	0.00e+00	0	34	0	1743781888	59	4188
2026-01-17 00:13:48.45	179.36	33.40	-44.7	-45.9	18.7	0.00e+00	0	34	0	1756364800	60	4246
2026-01-17 00:13:52.49	179.87	32.60	-44.0	-45.1	19.6	0.00e+00	0	34	0	1768947712	59	4102
2026-01-17 00:13:56.52	180.36	31.81	-43.0	-43.9	20.6	0.00e+00	0	34	0	1781530624	57	4041
2026-01-17 00:14:00.56	180.83	31.04	-43.1	-44.0	20.6	0.00e+00	0	34	0	1794113536	57	4067
2026-01-17 00:14:04.59	181.27	30.29	-42.9	-43.9	20.7	0.00e+00	0	34	0	1806696448	57	4006
2026-01-17 00:14:08.63	181.70	29.56	-43.5	-44.4	20.2	0.00e+00	0	34	0	1819279360	57	4282
2026-01-17 00:14:12.66	182.10	28.85	-43.9	-44.9	19.9	0.00e+00	0	34	0	1831862272	58	4263
2026-01-17 00:14:16.69	182.49	28.15	-43.8	-44.9	19.9	0.00e+00	0	34	0	1844445184	58	4251
2026-01-17 00:14:20.72	182.87	27.47	-43.7	-44.7	20.0	0.00e+00	0	34	0	1857028096	58	4181
2026-01-17 00:14:24.76	183.23	26.80	-43.2	-44.1	20.5	0.00e+00	0	34	0	1869611008	58	3894
2026-01-17 00:14:28.79	183.58	26.15	-42.6	-43.5	21.1	0.00e+00	0	34	0	1882193920	57	3828
2026-01-17 00:14:32.83	183.91	25.51	-41.9	-42.7	21.5	0.00e+00	0	34	0	1894776832	55	3946
2026-01-17 00:14:36.87	184.23	24.89	-42.2	-43.0	21.3	0.00e+00	0	34	0	1907359744	55	4098
2026-01-17 00:14:40.90	184.54	24.28	-42.5	-43.4	21.0	0.00e+00	0	34	0	1919942656	55	4261
2026-01-17 00:14:44.94	184.84	23.68	-42.6	-43.5	20.9	0.00e+00	0	34	0	1932525568	55	4329
2026-01-17 00:14:48.97	185.12	23.09	-42.9	-43.8	20.7	0.00e+00	0	34	0	1945108480	56	4239
2026-01-17 00:14:53.01	185.40	22.52	-43.0	-43.9	20.6	0.00e+00	0	34	0	1957691392	56	4269
2026-01-17 00:14:57.04	185.67	21.96	-43.1	-44.1	20.4	0.00e+00	0	34	0	1970274304	56	4358
2026-01-17 00:15:01.08	185.93	21.41	-43.0	-44.0	20.5	0.00e+00	0	34	0	1982857216	56	4317
2026-01-17 00:15:05.11	186.18	20.88	-43.0	-43.9	20.6	0.00e+00	0	34	0	1995440128	56	4290
2026-01-17 00:15:09.15	186.43	20.35	-43.1	-44.1	20.4	0.00e+00	0	34	0	2008023040	56	4361
2026-01-17 00:15:13.18	186.66	19.83	-43.0	-43.9	20.5	0.00e+00	0	34	0	2020605952	57	4050
2026-01-17 00:15:17.21	186.89	19.33	-43.0	-44.0	20.4	0.00e+00	0	34	0	2033188864	57	4080
2026-01-17 00:15:21.25	187.11	18.83	-43.1	-44.1	20.3	0.00e+00	0	34	0	2045771776	57	4119
2026-01-17 00:15:25.29	187.33	18.34	-43.1	-44.1	20.2	0.00e+00	0	34	0	2058354688	57	4110
2026-01-17 00:15:29.32	187.54	17.87	-43.2	-44.2	20.1	0.00e+00	0	34	0	2070937600	57	4154
2026-01-17 00:15:33.35	187.74	17.40	-43.2	-44.1	20.2	0.00e+00	0	34	0	2083520512	57	4143
2026-01-17 00:15:37.39	187.94	16.94	-43.3	-44.3	20.0	0.00e+00	0	34	0	2096103424	57	4217
2026-01-17 00:15:41.43	188.13	16.48	-43.4	-44.4	20.0	0.00e+00	0	34	0	2108686336	57	4275
2026-01-17 00:15:45.46	188.31	16.04	-43.5	-44.5	19.9	0.00e+00	0	34	0	2121269248	57	4317
2026-01-17 00:15:49.50	188.50	15.60	-43.7	-44.7	19.7	0.00e+00	0	34	0	2133852160	58	4175
2026-01-17 00:15:53.54	188.67	15.17	-43.5	-44.5	19.9	0.00e+00	0	34	0	2146435072	58	4056
2026-01-17 00:15:57.58	188.85	14.75	-43.6	-44.6	19.7	0.00e+00	0	34	0	2159017984	58	4144
2026-01-17 00:16:01.62	189.02	14.33	-43.8	-44.8	19.6	0.00e+00	0	34	0	2171600896	58	4220
2026-01-17 00:16:05.65	189.18	13.93	-44.0	-45.1	19.3	0.00e+00	0	34	0	2184183808	58	4345
2026-01-17 00:16:09.69	189.34	13.52	-44.1	-45.3	19.1	0.00e+00	0	34	0	2197815296	58	4451
2026-01-17 00:16:13.73	189.50	13.13	-44.3	-45.5	18.9	0.00e+00	0	34	0	2210398208	59	4294
2026-01-17 00:16:17.76	189.65	12.74	-44.4	-45.5	18.9	0.00e+00	0	34	0	2221932544	59	4331
2026-01-17 00:16:21.79	189.80	12.36	-44.3	-45.5	18.9	0.00e+00	0	34	0	2235564032	59	4298
2026-01-17 00:16:25.83	189.94	11.98	-44.3	-45.4	18.9	0.00e+00	0	34	0	2248146944	59	4276
2026-01-17 00:16:29.86	190.08	11.61	-44.4	-45.5	18.7	0.00e+00	0	34	0	2260729856	59	4336
2026-01-17 00:16:33.90	190.22	11.24	-44.4	-45.6	18.7	0.00e+00	0	34	0	2273312768	59	4359
2026-01-17 00:16:37.94	190.36	10.88	-44.5	-45.7	18.5	0.00e+00	0	34	0	2285895680	59	4428
2026-01-17 00:16:41.97	190.49	10.52	-44.3	-45.5	18.4	0.00e+00	0	34	0	2298478592	60	4063
2026-01-17 00:16:46.01	190.62	10.17	-44.3	-45.5	18.4	0.00e+00	0	34	0	2311061504	60	4073
2026-01-17 00:16:50.04	190.75	9.83	-44.3	-45.5	18.4	0.00e+00	0	34	0	2323644416	60	4067
2026-01-17 00:16:54.08	190.87	9.48	-44.4	-45.7	18.1	0.00e+00	0	34	0	2336227328	60	4154
2026-01-17 00:16:58.11	191.00	9.15	-44.6	-45.8	17.9	0.00e+00	0	34	0	2348810240	60	4228
2026-01-17 00:17:02.14	191.12	8.82	-44.5	-45.8	18.0	0.00e+00	0	34	0	2361393152	60	4198
2026-01-17 00:17:06.18	191.23	8.49	-44.6	-45.9	17.8	0.00e+00	0	34	0	2373976064	60	4262
2026-01-17 00:17:10.21	191.35	8.16	-44.8	-46.1	17.6	0.00e+00	0	34	0	2386558976	60	4383
2026-01-17 00:17:14.25	191.46	7.84	-44.9	-46.3	17.4	0.00e+00	0	34	0	2399141888	60	4458
2026-01-17 00:17:18.28	191.57	7.53	-45.0	-46.4	17.3	0.00e+00	0	34	0	2411724800	60	4508
2026-01-17 00:17:22.31	191.68	7.21	-45.1	-46.5	17.1	0.00e+00	0	34	0	2424307712	60	4559
2026-01-17 00:17:26.34	191.79	6.91	-45.3	-46.8	16.8	0.00e+00	0	34	0	2436890624	61	4467
2026-01-17 00:17:30.38	191.89	6.60	-45.2	-46.7	16.9	0.00e+00	0	34	0	2449473536	61	4411
2026-01-17 00:17:34.42	192.00	6.30	-45.8	-47.4	16.1	0.00e+00	0	34	0	2462056448	62	4529
2026-01-17 00:17:38.45	192.10	6.00	-45.5	-47.1	16.5	0.00e+00	0	34	0	2474639360	62	4343
2026-01-17 00:17:42.48	192.20	5.71	-45.4	-47.0	16.5	0.00e+00	0	34	0	2487222272	62	4317
2026-01-17 00:17:46.52	192.30	5.41	-45.5	-47.0	16.4	0.00e+00	0	34	0	2499805184	62	4321
2026-01-17 00:17:50.56	192.39	5.13	-45.8	-47.4	16.0	0.00e+00	0	34	0	2512388096	62	4544
2026-01-17 00:17:54.59	192.49	4.84	-52.5	-65.3	3.8	1.49e+00	0	34	104	2519728128	75	16834
2026-01-17 00:17:58.63	192.58	4.56	-53.0	-65.8	3.8	1.49e+00	0	34	104	2519728128	76	16859
2026-01-17 00:18:02.66	192.67	4.28	-53.3	-66.1	3.8	1.49e+00	0	34	104	2519728128	77	16363
2026-01-17 00:18:06.70	192.76	4.00	-53.4	-66.2	3.8	1.49e+00	0	34	104	2519728128	77	16624
2026-01-17 00:18:10.74	192.85	3.73	-53.4	-66.3	3.8	1.49e+00	0	34	104	2519728128	77	16698
2026-01-17 00:18:14.77	192.94	3.46	-53.4	-66.2	3.8	1.49e+00	0	34	104	2519728128	77	16653
2026-01-17 00:18:18.81	193.02	3.19	-53.4	-66.1	3.8	1.49e+00	0	34	104	2519728128	77	16496
2026-01-17 00:18:22.84	193.11	2.92	-53.3	-66.2	3.8	1.49e+00	0	34	104	2519728128	77	16517
2026-01-17 00:18:26.88	193.19	2.66	-53.3	-66.1	3.8	1.49e+00	0	34	104	2519728128	77	16387
2026-01-17 00:18:30.92	193.27	2.40	-53.3	-66.1	3.8	1.49e+00	0	34	104	2519728128	77	16386
2026-01-17 00:18:34.95	193.35	2.14	-53.3	-66.0	3.8	1.49e+00	0	34	104	2519728128	77	16276

#Closed at: 2026-01-17 00:18:38
#Recorded file [2519 MB]: D:/lorett/data/31041_260117_030411.dat