passes_logs/2026/01/17/R3.2S_Murmansk/R3.2S_Murmansk__20260117_055327_NOAA_20_JPSS-1_rec.log

#Pass ID: 20260117_055327_NOAA 20 (JPSS-1)
#Satellite: NOAA 20 (JPSS-1)
#Configuration: NOAA 20
#almurnet v.1.7.20251203
#Start time: 2026-01-17 05:53:27

#Version: 2.2.20231116
#Station: R3.2S_Murmansk
#Location: 33.079688 lon 68.888172 lat
#TLE: 1 43013U 17073A   26016.52825843  .00000039  00000+0  39346-4 0  9991
#TLE: 2 43013  98.7637 317.4515 0001446  37.2648 322.8628 14.19536276422951

#Time	Az	El	Level	Level2	SNR	BER	BlckErr	Temp	State	Recorded	gain1	gain2
2026-01-17 05:53:27.88	73.86	2.04	-51.6	-66.6	3.8	1.49e+00	0	32	0	0	75	19399
2026-01-17 05:53:31.92	73.61	2.27	-51.6	-66.6	3.8	1.49e+00	0	32	104	0	73	21762
2026-01-17 05:53:35.96	73.35	2.50	-51.6	-66.5	3.8	1.49e+00	0	32	104	0	73	21715
2026-01-17 05:53:39.99	73.09	2.74	-51.6	-66.5	3.8	1.49e+00	0	32	104	0	73	21749
2026-01-17 05:53:44.02	72.83	2.97	-51.6	-66.5	3.8	1.49e+00	0	33	104	0	73	21645
2026-01-17 05:53:48.06	72.56	3.21	-51.6	-66.5	3.8	1.49e+00	0	33	104	0	73	21667
2026-01-17 05:53:52.09	72.28	3.45	-51.6	-66.5	3.8	1.49e+00	0	33	104	0	73	21538
2026-01-17 05:53:56.12	72.01	3.69	-51.6	-66.5	3.8	1.49e+00	0	33	104	0	73	21646
2026-01-17 05:54:00.16	71.72	3.93	-51.5	-66.2	3.8	1.49e+00	0	33	104	0	73	20832
2026-01-17 05:54:04.19	71.44	4.17	-51.4	-64.1	3.8	1.49e+00	0	33	104	0	73	16317
2026-01-17 05:54:08.22	71.14	4.42	-51.2	-60.8	5.1	7.60e-01	0	33	0	4194304	73	11180
2026-01-17 05:54:12.26	70.85	4.66	-50.9	-58.8	6.5	2.41e-01	0	33	0	11534336	73	8939
2026-01-17 05:54:16.30	70.54	4.91	-51.0	-59.8	5.8	3.91e-01	0	33	0	18874368	73	9993
2026-01-17 05:54:20.33	70.23	5.16	-50.8	-57.6	8.0	6.11e-03	0	33	0	27262976	72	8268
2026-01-17 05:54:24.36	69.92	5.41	-49.6	-53.8	11.9	5.52e-03	0	33	0	30408704	71	5606
2026-01-17 05:54:28.39	69.60	5.66	-49.5	-53.5	12.4	9.91e-05	0	34	0	38797312	70	5741
2026-01-17 05:54:32.43	69.27	5.91	-48.8	-51.9	14.1	5.30e-06	0	33	0	46137344	69	5054
2026-01-17 05:54:36.46	68.94	6.17	-48.7	-51.6	14.5	7.00e-07	0	34	0	53477376	69	4913
2026-01-17 05:54:40.49	68.60	6.43	-48.5	-51.4	14.7	0.00e+00	0	34	0	60817408	68	5073
2026-01-17 05:54:44.53	68.26	6.68	-48.3	-51.0	15.1	0.00e+00	0	34	0	69206016	68	4867
2026-01-17 05:54:48.56	67.91	6.94	-48.3	-50.9	15.3	0.00e+00	0	34	0	76546048	68	4803
2026-01-17 05:54:52.59	67.55	7.20	-48.4	-51.0	15.2	0.00e+00	0	34	0	83886080	68	4851
2026-01-17 05:54:56.62	67.19	7.47	-48.4	-51.0	15.2	0.00e+00	0	34	0	91226112	68	4870
2026-01-17 05:55:00.66	66.82	7.73	-48.2	-50.8	15.5	0.00e+00	0	34	0	98566144	68	4730
2026-01-17 05:55:04.69	66.44	8.00	-48.3	-50.9	15.5	0.00e+00	0	34	0	106954752	68	4779
2026-01-17 05:55:08.72	66.06	8.26	-48.3	-50.9	15.5	0.00e+00	0	34	0	114294784	68	4776
2026-01-17 05:55:12.76	65.67	8.53	-48.2	-50.7	15.7	0.00e+00	0	34	0	121634816	68	4692
2026-01-17 05:55:16.80	65.26	8.81	-48.1	-50.5	15.9	0.00e+00	0	34	0	128974848	68	4591
2026-01-17 05:55:20.83	64.86	9.08	-47.8	-50.1	16.2	0.00e+00	0	34	0	136314880	67	4625
2026-01-17 05:55:24.87	64.44	9.35	-47.8	-50.1	16.2	0.00e+00	0	34	0	144703488	67	4643
2026-01-17 05:55:28.90	64.02	9.63	-47.8	-50.0	16.4	0.00e+00	0	34	0	152043520	67	4575
2026-01-17 05:55:32.93	63.59	9.90	-47.8	-50.0	16.3	0.00e+00	0	34	0	159383552	67	4597
2026-01-17 05:55:36.97	63.15	10.18	-47.9	-50.1	16.3	0.00e+00	0	34	0	166723584	67	4648
2026-01-17 05:55:41.00	62.70	10.46	-48.0	-50.4	16.0	0.00e+00	0	34	0	175112192	67	4769
2026-01-17 05:55:45.04	62.24	10.74	-47.9	-50.2	16.3	0.00e+00	0	34	0	182452224	67	4654
2026-01-17 05:55:49.07	61.77	11.03	-47.9	-50.2	16.3	0.00e+00	0	34	0	189792256	67	4691
2026-01-17 05:55:53.11	61.30	11.31	-47.7	-49.8	16.7	0.00e+00	0	34	0	197132288	67	4485
2026-01-17 05:55:57.14	60.81	11.60	-47.7	-49.8	16.7	0.00e+00	0	34	0	204472320	67	4471
2026-01-17 05:56:01.17	60.31	11.88	-47.5	-49.6	16.9	0.00e+00	0	34	0	211812352	66	4634
2026-01-17 05:56:05.21	59.81	12.17	-47.4	-49.4	17.1	0.00e+00	0	34	0	220200960	66	4514
2026-01-17 05:56:09.24	59.29	12.46	-47.2	-49.2	17.3	0.00e+00	0	34	0	227540992	66	4395
2026-01-17 05:56:13.27	58.77	12.75	-47.2	-49.2	17.3	0.00e+00	0	34	0	234881024	66	4402
2026-01-17 05:56:17.31	58.23	13.04	-47.3	-49.3	17.3	0.00e+00	0	34	0	242221056	66	4476
2026-01-17 05:56:21.34	57.68	13.33	-47.2	-49.2	17.4	0.00e+00	0	34	0	250609664	66	4395
2026-01-17 05:56:25.37	57.12	13.62	-46.9	-48.8	17.6	0.00e+00	0	34	0	257949696	65	4485
2026-01-17 05:56:29.40	56.55	13.92	-46.9	-48.7	17.5	0.00e+00	0	34	0	265289728	65	4406
2026-01-17 05:56:33.43	55.97	14.21	-46.7	-48.5	17.6	0.00e+00	0	34	0	272629760	65	4292
2026-01-17 05:56:37.46	55.38	14.50	-44.6	-47.5	5.7	8.77e-02	0	34	0	279969792	61	4846
2026-01-17 05:56:41.49	54.77	14.80	-46.9	-48.7	16.4	3.00e-06	0	34	0	288358400	64	4688
2026-01-17 05:56:45.53	54.15	15.09	-47.0	-48.9	17.1	0.00e+00	0	34	0	295698432	64	4778
2026-01-17 05:56:49.56	53.52	15.39	-47.1	-49.0	17.3	0.00e+00	0	34	0	303038464	64	4828
2026-01-17 05:56:53.59	52.88	15.68	-47.2	-49.1	17.5	0.00e+00	0	34	0	310378496	64	4899
2026-01-17 05:56:57.63	52.22	15.98	-47.3	-49.2	17.2	0.00e+00	0	34	0	318767104	65	4704
2026-01-17 05:57:01.66	51.55	16.27	-47.3	-49.2	17.4	0.00e+00	0	34	0	326107136	65	4700
2026-01-17 05:57:05.70	50.87	16.57	-47.4	-49.4	17.3	0.00e+00	0	34	0	333447168	65	4768
2026-01-17 05:57:09.73	50.17	16.86	-47.5	-49.5	17.2	0.00e+00	0	34	0	340787200	65	4831
2026-01-17 05:57:13.77	49.46	17.15	-47.4	-49.4	17.4	0.00e+00	0	34	0	348127232	65	4789
2026-01-17 05:57:17.80	48.73	17.44	-47.5	-49.5	17.3	0.00e+00	0	34	0	356515840	65	4815
2026-01-17 05:57:21.83	47.99	17.73	-47.3	-49.3	17.5	0.00e+00	0	34	0	363855872	65	4714
2026-01-17 05:57:25.87	47.24	18.02	-47.2	-49.1	17.7	0.00e+00	0	34	0	371195904	65	4630
2026-01-17 05:57:29.90	46.47	18.30	-46.9	-48.7	18.0	0.00e+00	0	34	0	378535936	65	4422
2026-01-17 05:57:33.93	45.69	18.59	-46.6	-48.2	18.6	0.00e+00	0	34	0	385875968	65	4172
2026-01-17 05:57:37.96	44.89	18.87	-46.2	-47.7	19.1	0.00e+00	0	34	0	394264576	64	4181
2026-01-17 05:57:42.00	44.08	19.15	-45.8	-47.2	19.7	0.00e+00	0	34	0	401604608	63	4157
2026-01-17 05:57:46.02	43.25	19.42	-45.6	-47.1	19.8	0.00e+00	0	34	0	408944640	63	4101
2026-01-17 05:57:50.06	42.41	19.69	-45.4	-46.8	20.1	0.00e+00	0	34	0	416284672	62	4209
2026-01-17 05:57:54.09	41.55	19.96	-45.4	-46.8	20.1	0.00e+00	0	34	0	424673280	62	4201
2026-01-17 05:57:58.12	40.68	20.23	-45.2	-46.5	20.3	0.00e+00	0	34	0	432013312	62	4082
2026-01-17 05:58:02.16	39.79	20.49	-45.1	-46.3	20.5	0.00e+00	0	34	0	439353344	62	4000
2026-01-17 05:58:06.19	38.88	20.74	-45.0	-46.2	20.6	0.00e+00	0	35	0	446693376	61	4185
2026-01-17 05:58:10.23	37.96	20.99	-45.0	-46.3	20.6	0.00e+00	0	34	0	454033408	61	4229
2026-01-17 05:58:14.27	37.03	21.24	-45.2	-46.4	20.4	0.00e+00	0	34	0	461373440	61	4289
2026-01-17 05:58:18.30	36.08	21.47	-45.1	-46.4	20.5	0.00e+00	0	34	0	469762048	61	4274
2026-01-17 05:58:22.33	35.12	21.71	-45.3	-46.6	20.3	0.00e+00	0	34	0	477102080	61	4384
2026-01-17 05:58:26.37	34.14	21.93	-45.2	-46.5	20.4	0.00e+00	0	34	0	484442112	61	4301
2026-01-17 05:58:30.40	33.15	22.15	-45.1	-46.4	20.5	0.00e+00	0	34	0	491782144	61	4247
2026-01-17 05:58:34.44	32.14	22.36	-45.0	-46.3	20.6	0.00e+00	0	34	0	500170752	61	4209
2026-01-17 05:58:38.47	31.12	22.56	-44.9	-46.1	20.8	0.00e+00	0	34	0	507510784	61	4127
2026-01-17 05:58:42.50	30.09	22.76	-44.6	-45.8	21.1	0.00e+00	0	34	0	514850816	61	3978
2026-01-17 05:58:46.54	29.04	22.94	-44.7	-45.9	21.0	0.00e+00	0	34	0	522190848	61	4043
2026-01-17 05:58:50.57	27.98	23.12	-44.8	-46.1	20.9	0.00e+00	0	34	0	529530880	61	4109
2026-01-17 05:58:54.61	26.91	23.29	-44.9	-46.2	20.7	0.00e+00	0	34	0	537919488	61	4168
2026-01-17 05:58:58.64	25.83	23.44	-45.0	-46.3	20.7	0.00e+00	0	34	0	545259520	61	4197
2026-01-17 05:59:02.68	24.74	23.59	-45.6	-46.9	20.1	0.00e+00	0	34	0	552599552	61	4525
2026-01-17 05:59:06.71	23.64	23.73	-46.1	-47.6	19.4	0.00e+00	0	34	0	559939584	62	4617
2026-01-17 05:59:10.75	22.53	23.85	-46.5	-48.0	19.0	0.00e+00	0	34	0	568328192	63	4597
2026-01-17 05:59:14.78	21.41	23.97	-46.5	-48.0	19.0	0.00e+00	0	34	0	575668224	63	4597
2026-01-17 05:59:18.82	20.28	24.07	-46.5	-48.1	18.9	0.00e+00	0	34	0	583008256	63	4628
2026-01-17 05:59:22.86	19.15	24.16	-46.6	-48.3	18.7	0.00e+00	0	34	0	590348288	64	4454
2026-01-17 05:59:26.89	18.01	24.24	-46.9	-48.6	18.4	0.00e+00	0	34	0	597688320	64	4641
2026-01-17 05:59:30.92	16.86	24.30	-46.6	-48.2	18.8	0.00e+00	0	34	0	606076928	64	4408
2026-01-17 05:59:34.95	15.71	24.36	-46.5	-48.1	18.9	0.00e+00	0	34	0	613416960	64	4363
2026-01-17 05:59:38.98	14.56	24.40	-46.6	-48.2	18.7	0.00e+00	0	34	0	620756992	64	4417
2026-01-17 05:59:43.01	13.41	24.43	-46.5	-48.1	18.9	0.00e+00	0	34	0	628097024	64	4361
2026-01-17 05:59:47.05	12.25	24.44	-46.3	-47.8	19.2	0.00e+00	0	34	0	635437056	64	4210
2026-01-17 05:59:51.08	11.09	24.45	-46.2	-47.7	19.3	0.00e+00	0	34	0	643825664	64	4146
2026-01-17 05:59:55.12	9.93	24.44	-46.0	-47.5	19.6	0.00e+00	0	34	0	651165696	63	4305
2026-01-17 05:59:59.15	8.77	24.42	-45.7	-47.1	19.9	0.00e+00	0	34	0	658505728	63	4135
2026-01-17 06:00:03.19	7.62	24.38	-45.4	-46.7	20.3	0.00e+00	0	34	0	665845760	62	4156
2026-01-17 06:00:07.22	6.47	24.34	-44.9	-46.2	20.8	0.00e+00	0	34	0	674234368	61	4160
2026-01-17 06:00:11.25	5.32	24.28	-44.8	-46.0	21.0	0.00e+00	0	34	0	681574400	61	4056
2026-01-17 06:00:15.29	4.18	24.20	-44.3	-45.5	21.5	0.00e+00	0	34	0	688914432	60	4063
2026-01-17 06:00:19.32	3.04	24.12	-44.4	-45.5	21.4	0.00e+00	0	34	0	696254464	60	4086
2026-01-17 06:00:23.35	1.91	24.02	-44.4	-45.5	21.4	0.00e+00	0	34	0	703594496	60	4091
2026-01-17 06:00:27.39	0.79	23.92	-44.6	-45.7	21.2	0.00e+00	0	34	0	711983104	60	4186
2026-01-17 06:00:31.43	359.67	23.80	-44.7	-45.9	21.1	0.00e+00	0	34	0	719323136	60	4266
2026-01-17 06:00:35.46	358.57	23.67	-44.9	-46.2	20.8	0.00e+00	0	34	0	726663168	60	4396
2026-01-17 06:00:39.49	357.47	23.53	-45.3	-46.6	20.4	0.00e+00	0	34	0	734003200	61	4364
2026-01-17 06:00:43.52	356.38	23.38	-45.6	-47.0	20.0	0.00e+00	0	34	0	741343232	61	4576
2026-01-17 06:00:47.56	355.31	23.21	-45.7	-47.1	20.0	0.00e+00	0	34	0	749731840	61	4601
2026-01-17 06:00:51.59	354.25	23.04	-45.9	-47.3	19.7	0.00e+00	0	34	0	757071872	62	4482
2026-01-17 06:00:55.63	353.19	22.86	-46.2	-47.7	19.3	0.00e+00	0	34	0	764411904	63	4413
2026-01-17 06:00:59.66	352.15	22.67	-46.1	-47.5	19.5	0.00e+00	0	34	0	771751936	63	4329
2026-01-17 06:01:03.70	351.13	22.48	-46.5	-48.1	19.0	0.00e+00	0	34	0	780140544	63	4606
2026-01-17 06:01:07.73	350.11	22.27	-46.6	-48.2	18.8	0.00e+00	0	34	0	787480576	63	4704
2026-01-17 06:01:11.77	349.11	22.06	-46.4	-47.9	19.2	0.00e+00	0	34	0	794820608	63	4537
2026-01-17 06:01:15.80	348.13	21.83	-46.7	-48.3	18.6	0.00e+00	0	34	0	802160640	64	4471
2026-01-17 06:01:19.83	347.16	21.61	-46.2	-47.7	19.2	0.00e+00	0	34	0	809500672	64	4180
2026-01-17 06:01:23.86	346.20	21.37	-46.4	-48.0	18.9	0.00e+00	0	34	0	817889280	64	4313
2026-01-17 06:01:27.90	345.26	21.13	-46.2	-47.8	19.0	0.00e+00	0	34	0	825229312	64	4201
2026-01-17 06:01:31.93	344.34	20.89	-46.1	-47.6	19.4	0.00e+00	0	34	0	832569344	63	4350
2026-01-17 06:01:35.96	343.43	20.63	-46.1	-47.6	19.4	0.00e+00	0	34	0	839909376	63	4372
2026-01-17 06:01:39.99	342.53	20.38	-45.9	-47.3	19.7	0.00e+00	0	34	0	847249408	63	4223
2026-01-17 06:01:44.02	341.65	20.12	-46.0	-47.5	19.5	0.00e+00	0	34	0	855638016	63	4295
2026-01-17 06:01:48.05	340.78	19.85	-45.9	-47.3	19.7	0.00e+00	0	34	0	862978048	63	4208
2026-01-17 06:01:52.09	339.93	19.58	-45.8	-47.3	19.7	0.00e+00	0	34	0	870318080	63	4200
2026-01-17 06:01:56.12	339.10	19.31	-46.0	-47.5	19.5	0.00e+00	0	34	0	877658112	63	4302
2026-01-17 06:02:00.15	338.28	19.03	-46.1	-47.6	19.4	0.00e+00	0	34	0	884998144	63	4363
2026-01-17 06:02:04.18	337.47	18.75	-45.9	-47.4	19.6	0.00e+00	0	34	0	893386752	63	4255
2026-01-17 06:02:08.22	336.68	18.47	-45.8	-47.2	19.7	0.00e+00	0	34	0	900726784	63	4193
2026-01-17 06:02:12.25	335.91	18.19	-45.9	-47.4	19.6	0.00e+00	0	34	0	908066816	63	4252
2026-01-17 06:02:16.28	335.15	17.90	-45.8	-47.2	19.7	0.00e+00	0	34	0	915406848	63	4168
2026-01-17 06:02:20.31	334.40	17.61	-45.6	-46.9	20.0	0.00e+00	0	34	0	923795456	63	4045
2026-01-17 06:02:24.34	333.67	17.32	-45.2	-46.5	20.3	0.00e+00	0	34	0	931135488	62	4087
2026-01-17 06:02:28.38	332.95	17.03	-45.4	-46.7	20.1	0.00e+00	0	34	0	938475520	62	4176
2026-01-17 06:02:32.41	332.25	16.74	-45.3	-46.6	20.3	0.00e+00	0	34	0	945815552	62	4124
2026-01-17 06:02:36.44	331.56	16.45	-45.0	-46.2	20.6	0.00e+00	0	34	0	953155584	61	4184
2026-01-17 06:02:40.48	330.88	16.15	-45.1	-46.4	20.4	0.00e+00	0	34	0	961544192	61	4278
2026-01-17 06:02:44.51	330.22	15.86	-45.3	-46.6	20.2	0.00e+00	0	34	0	968884224	61	4383
2026-01-17 06:02:48.54	329.57	15.56	-45.1	-46.5	20.3	0.00e+00	0	34	0	976224256	61	4297
2026-01-17 06:02:52.57	328.93	15.27	-45.2	-46.6	20.2	0.00e+00	0	34	0	983564288	61	4345
2026-01-17 06:02:56.61	328.30	14.97	-45.2	-46.6	20.2	0.00e+00	0	34	0	990904320	61	4353
2026-01-17 06:03:00.64	327.69	14.68	-45.5	-46.9	19.8	0.00e+00	0	34	0	999292928	61	4545
2026-01-17 06:03:04.67	327.09	14.39	-45.9	-47.4	19.4	0.00e+00	0	34	0	1006632960	62	4538
2026-01-17 06:03:08.71	326.50	14.09	-46.0	-47.5	19.3	0.00e+00	0	34	0	1013972992	62	4560
2026-01-17 06:03:12.74	325.93	13.80	-45.9	-47.4	19.4	0.00e+00	0	34	0	1021313024	62	4517
2026-01-17 06:03:16.77	325.36	13.51	-46.0	-47.5	19.2	0.00e+00	0	34	0	1028653056	62	4584
2026-01-17 06:03:20.81	324.81	13.21	-46.3	-47.9	18.9	0.00e+00	0	34	0	1037041664	63	4509
2026-01-17 06:03:24.84	324.27	12.92	-46.2	-47.7	19.0	0.00e+00	0	34	0	1044381696	63	4440
2026-01-17 06:03:28.87	323.74	12.63	-46.3	-47.9	18.8	0.00e+00	0	34	0	1051721728	63	4516
2026-01-17 06:03:32.90	323.22	12.34	-46.4	-48.1	18.6	0.00e+00	0	34	0	1059061760	63	4614
2026-01-17 06:03:36.93	322.71	12.06	-46.6	-48.3	18.4	0.00e+00	0	34	0	1067450368	63	4741
2026-01-17 06:03:40.96	322.21	11.77	-46.6	-48.3	18.4	0.00e+00	0	34	0	1074790400	63	4730
2026-01-17 06:03:44.99	321.72	11.49	-46.7	-48.5	18.1	0.00e+00	0	34	0	1082130432	64	4585
2026-01-17 06:03:49.03	321.23	11.20	-46.6	-48.4	18.2	0.00e+00	0	34	0	1089470464	64	4495
2026-01-17 06:03:53.06	320.76	10.92	-46.9	-48.7	17.8	0.00e+00	0	34	0	1096810496	64	4676
2026-01-17 06:03:57.09	320.30	10.64	-47.1	-49.0	17.5	0.00e+00	0	34	0	1105199104	64	4845
2026-01-17 06:04:01.13	319.85	10.36	-47.2	-49.2	17.3	0.00e+00	0	34	0	1112539136	64	4955
2026-01-17 06:04:05.16	319.40	10.08	-47.2	-49.2	17.3	0.00e+00	0	34	0	1119879168	65	4662
2026-01-17 06:04:09.20	318.97	9.80	-47.4	-49.5	17.0	0.00e+00	0	34	0	1127219200	65	4846
2026-01-17 06:04:13.23	318.54	9.52	-47.4	-49.5	16.9	0.00e+00	0	34	0	1134559232	65	4855
2026-01-17 06:04:17.27	318.12	9.25	-47.7	-50.0	16.5	0.00e+00	0	34	0	1142947840	66	4822
2026-01-17 06:04:21.30	317.71	8.98	-47.8	-50.0	16.5	0.00e+00	0	34	0	1150287872	66	4832
2026-01-17 06:04:25.33	317.31	8.71	-47.9	-50.2	16.2	0.00e+00	0	34	0	1157627904	66	4979
2026-01-17 06:04:29.36	316.91	8.44	-47.7	-49.9	16.5	0.00e+00	0	34	0	1164967936	66	4813
2026-01-17 06:04:33.40	316.52	8.17	-47.7	-50.0	16.4	0.00e+00	0	34	0	1173356544	66	4837
2026-01-17 06:04:37.43	316.14	7.90	-48.0	-50.4	15.9	0.00e+00	0	34	0	1180696576	66	5091
2026-01-17 06:04:41.47	315.77	7.64	-48.1	-50.6	15.8	0.00e+00	0	34	0	1188036608	67	4875
2026-01-17 06:04:45.50	315.40	7.37	-48.1	-50.6	15.8	0.00e+00	0	34	0	1195376640	67	4871
2026-01-17 06:04:49.53	315.04	7.11	-48.1	-50.6	15.7	0.00e+00	0	34	0	1202716672	67	4913
2026-01-17 06:04:53.57	314.69	6.85	-48.3	-50.8	15.4	0.00e+00	0	34	0	1210056704	67	5030
2026-01-17 06:04:57.60	314.34	6.59	-48.6	-51.4	14.8	0.00e+00	0	34	0	1218445312	67	5353
2026-01-17 06:05:01.64	314.00	6.33	-49.1	-52.2	14.1	0.00e+00	0	34	0	1225785344	68	5548
2026-01-17 06:05:05.68	313.67	6.08	-48.6	-51.5	14.8	0.00e+00	0	34	0	1233125376	68	5122
2026-01-17 06:05:09.72	313.34	5.82	-48.8	-51.8	14.4	0.00e+00	0	34	0	1240465408	68	5312
2026-01-17 06:05:13.75	313.02	5.57	-48.8	-51.7	14.4	7.00e-07	0	34	0	1248854016	68	5267
2026-01-17 06:05:17.79	312.70	5.32	-48.1	-50.6	15.5	7.00e-07	0	34	0	1256194048	68	4645
2026-01-17 06:05:21.83	312.39	5.07	-48.6	-51.4	14.7	1.50e-06	0	34	0	1263534080	68	5098
2026-01-17 06:05:25.86	312.08	4.82	-52.8	-67.8	3.8	1.49e+00	0	34	104	1265631232	76	21217
2026-01-17 06:05:29.89	311.78	4.58	-53.3	-68.4	3.8	1.49e+00	0	34	104	1265631232	77	21273
2026-01-17 06:05:33.92	311.49	4.33	-53.6	-68.6	3.8	1.49e+00	0	34	104	1265631232	77	21939
2026-01-17 06:05:37.95	311.20	4.09	-53.7	-68.7	3.8	1.49e+00	0	35	104	1265631232	77	22193
2026-01-17 06:05:41.98	310.91	3.85	-53.7	-68.7	3.8	1.49e+00	0	34	104	1265631232	77	22228
2026-01-17 06:05:46.02	310.63	3.61	-53.6	-68.7	3.8	1.49e+00	0	35	104	1265631232	77	22016
2026-01-17 06:05:50.05	310.36	3.37	-53.6	-68.6	3.8	1.49e+00	0	35	104	1265631232	77	21886
2026-01-17 06:05:54.08	310.09	3.13	-53.5	-68.6	3.8	1.49e+00	0	35	104	1265631232	77	21805
2026-01-17 06:05:58.12	309.82	2.89	-53.5	-68.6	3.8	1.49e+00	0	35	104	1265631232	77	21769
2026-01-17 06:06:02.15	309.56	2.66	-53.5	-68.5	3.8	1.49e+00	0	35	104	1265631232	77	21693
2026-01-17 06:06:06.18	309.31	2.43	-53.5	-68.5	3.8	1.49e+00	0	35	104	1265631232	77	21618
2026-01-17 06:06:10.21	309.05	2.19	-53.5	-68.5	3.8	1.49e+00	0	35	104	1265631232	77	21658
2026-01-17 06:06:14.24	308.80	1.96	-53.5	-68.5	3.8	1.49e+00	0	35	104	1265631232	77	21652

#Closed at: 2026-01-17 06:06:15
#Recorded file [1265 MB]: D:/lorett/data/31041_260117_085327.dat