passes_logs/2026/01/12/PlanumMoscow/PlanumMoscow__20260112_190925_METOP-C_rec.log

#Pass ID: 20260112_190925_METOP-C
#Satellite: METOP-C
#Configuration: METOP-C
#Start time: 2026-01-12 19:09:30.592358

#LorettStation: 1.0.0 05.05.2024
#Station: PlanumMoscow
#Location: 37.6253844 lon 55.6713361 lat
#TLE: 1 43689U 18087A   25293.88981035  .00000265  00000+0  14109-3 0  9997
#TLE: 2 43689  98.7006 352.4487 0002041 122.1097 238.0279 14.21482740360838

#Time	Az	El	Level	SNR
2026-01-12 19:13:09.028258	223.0	23.2	-64.2	0.0
2026-01-12 19:13:10.143014	223.2	23.3	-64.2	0.0
2026-01-12 19:13:11.256265	223.4	23.4	-63.9	0.0
2026-01-12 19:13:12.376038	223.7	23.5	-63.3	0.0
2026-01-12 19:13:13.491290	223.9	23.6	-64.3	0.0
2026-01-12 19:13:14.608047	224.2	23.7	-63.3	0.0
2026-01-12 19:13:15.722298	224.4	23.8	-63.8	0.0
2026-01-12 19:13:16.840551	224.6	23.9	-63.9	0.0
2026-01-12 19:13:17.955306	224.9	24.0	-63.0	0.0
2026-01-12 19:13:19.072568	225.1	24.1	-63.4	0.0
2026-01-12 19:13:20.186819	225.4	24.3	-64.2	0.0
2026-01-12 19:13:21.301575	225.6	24.4	-63.2	0.0
2026-01-12 19:13:22.417332	225.9	24.5	-62.9	0.0
2026-01-12 19:13:23.534584	226.2	24.6	-63.3	0.0
2026-01-12 19:13:24.649340	226.4	24.7	-64.0	0.0
2026-01-12 19:13:25.765601	226.7	24.8	-63.7	0.0
2026-01-12 19:13:26.881852	226.9	24.9	-63.1	0.0
2026-01-12 19:13:27.999105	227.2	25.0	-63.7	0.0
2026-01-12 19:13:29.116357	227.5	25.1	-64.6	0.0
2026-01-12 19:13:30.231609	227.7	25.2	-64.6	0.0
2026-01-12 19:13:31.346870	228.0	25.3	-64.7	0.0
2026-01-12 19:13:32.462130	228.3	25.5	-62.6	0.0
2026-01-12 19:13:33.578886	228.5	25.6	-63.7	0.0
2026-01-12 19:13:34.694642	228.8	25.7	-63.1	0.0
2026-01-12 19:13:35.810903	229.1	25.8	-62.5	0.0
2026-01-12 19:13:36.926155	229.4	25.9	-64.1	0.0
2026-01-12 19:13:38.042407	229.6	26.0	-62.8	0.0
2026-01-12 19:13:39.157659	229.9	26.1	-62.0	0.0
2026-01-12 19:13:40.272414	230.2	26.2	-63.0	0.0
2026-01-12 19:13:41.387666	230.5	26.3	-62.6	0.0
2026-01-12 19:13:42.503918	230.8	26.4	-62.7	0.0
2026-01-12 19:13:43.621171	231.1	26.5	-61.7	0.0
2026-01-12 19:13:44.736927	231.3	26.6	-61.8	0.0
2026-01-12 19:13:45.854685	231.6	26.7	-61.4	0.0
2026-01-12 19:13:46.970937	231.9	26.8	-60.8	0.0
2026-01-12 19:13:48.087189	232.2	26.9	-60.4	0.0
2026-01-12 19:13:49.201946	232.5	27.0	-60.7	0.0
2026-01-12 19:13:50.318198	232.8	27.1	-62.1	0.0
2026-01-12 19:13:51.433963	233.1	27.2	-62.2	0.0
2026-01-12 19:13:52.551215	233.4	27.3	-62.6	0.0
2026-01-12 19:13:53.666467	233.7	27.4	-62.8	0.0
2026-01-12 19:13:54.781727	234.0	27.5	-61.5	0.0
2026-01-12 19:13:55.897484	234.3	27.6	-60.2	0.0
2026-01-12 19:13:57.014241	234.7	27.7	-61.8	0.0
2026-01-12 19:13:58.130493	235.0	27.8	-62.5	0.0
2026-01-12 19:13:59.245745	235.3	27.9	-63.4	0.0
2026-01-12 19:14:00.361005	235.6	28.0	-61.4	0.0
2026-01-12 19:14:01.478762	235.9	28.1	-63.0	0.0
2026-01-12 19:14:02.595014	236.2	28.2	-61.1	0.0
2026-01-12 19:14:03.711266	236.6	28.3	-59.3	0.0
2026-01-12 19:14:04.828022	236.9	28.4	-63.2	0.0
2026-01-12 19:14:05.943274	237.2	28.5	-63.6	0.0
2026-01-12 19:14:07.059030	237.5	28.6	-61.1	0.0
2026-01-12 19:14:08.176788	237.9	28.7	-60.6	0.0
2026-01-12 19:14:09.292543	238.2	28.8	-58.8	0.0
2026-01-12 19:14:10.409300	238.5	28.9	-60.5	0.0
2026-01-12 19:14:11.524552	238.9	29.0	-59.4	0.0
2026-01-12 19:14:12.646805	239.2	29.1	-59.1	0.0
2026-01-12 19:14:13.769068	239.5	29.2	-59.5	0.0
2026-01-12 19:14:14.890330	239.9	29.3	-57.7	0.0
2026-01-12 19:14:16.012584	240.2	29.4	-61.5	0.0
2026-01-12 19:14:17.133845	240.6	29.4	-59.6	0.0
2026-01-12 19:14:18.256099	240.9	29.5	-61.0	0.0
2026-01-12 19:14:19.374360	241.3	29.6	-61.0	0.0
2026-01-12 19:14:20.496613	241.6	29.7	-58.4	0.0
2026-01-12 19:14:21.618371	242.0	29.8	-61.5	0.0
2026-01-12 19:14:22.740129	242.3	29.9	-59.1	0.0
2026-01-12 19:14:23.858382	242.7	29.9	-59.9	0.0
2026-01-12 19:14:24.980140	243.0	30.0	-59.3	0.0
2026-01-12 19:14:26.101898	243.4	30.1	-62.0	0.0
2026-01-12 19:14:27.223655	243.8	30.2	-59.4	0.0
2026-01-12 19:14:28.343908	244.1	30.3	-60.3	0.0
2026-01-12 19:14:29.460665	244.5	30.3	-61.5	0.0
2026-01-12 19:14:30.576429	244.9	30.4	-61.7	0.0
2026-01-12 19:14:31.689185	245.2	30.5	-59.6	0.0
2026-01-12 19:14:32.806437	245.6	30.6	-59.8	0.0
2026-01-12 19:14:33.923194	246.0	30.6	-57.4	0.0
2026-01-12 19:14:35.041455	246.3	30.7	-58.7	0.0
2026-01-12 19:14:36.155707	246.7	30.8	-59.2	0.0
2026-01-12 19:14:37.271959	247.1	30.9	-61.3	0.0
2026-01-12 19:14:38.387715	247.5	30.9	-60.7	0.0
2026-01-12 19:14:39.503472	247.8	31.0	-60.9	0.0
2026-01-12 19:14:40.619724	248.2	31.1	-61.2	0.0
2026-01-12 19:14:41.736984	248.6	31.1	-61.2	0.0
2026-01-12 19:14:42.851740	249.0	31.2	-61.5	0.0
2026-01-12 19:14:43.966992	249.4	31.3	-61.4	0.0
2026-01-12 19:14:45.084254	249.8	31.3	-60.6	0.0
2026-01-12 19:14:46.200515	250.2	31.4	-61.2	0.0
2026-01-12 19:14:47.314775	250.5	31.4	-60.8	0.0
2026-01-12 19:14:48.429532	250.9	31.5	-61.8	0.0
2026-01-12 19:14:49.545784	251.3	31.5	-62.6	0.0
2026-01-12 19:14:50.663045	251.7	31.6	-61.1	0.0
2026-01-12 19:14:51.778800	252.1	31.7	-61.3	0.0
2026-01-12 19:14:52.898054	252.5	31.7	-61.8	0.0
2026-01-12 19:14:54.020307	252.9	31.8	-61.8	0.0
2026-01-12 19:14:55.136559	253.3	31.8	-62.1	0.0
2026-01-12 19:14:56.251821	253.7	31.9	-61.5	0.0
2026-01-12 19:14:57.373083	254.1	31.9	-62.5	0.0
2026-01-12 19:14:58.488839	254.5	31.9	-62.1	0.0
2026-01-12 19:14:59.604596	254.9	32.0	-60.9	0.0
2026-01-12 19:15:00.722353	255.3	32.0	-65.1	0.0
2026-01-12 19:15:01.838614	255.7	32.1	-63.9	0.0
2026-01-12 19:15:02.960867	256.1	32.1	-64.0	0.0
2026-01-12 19:15:04.082625	256.5	32.1	-62.2	0.0
2026-01-12 19:15:05.203429	256.9	32.2	-63.0	0.0
2026-01-12 19:15:06.329701	257.4	32.2	-62.6	0.0
2026-01-12 19:15:07.450507	257.8	32.2	-62.4	0.0
2026-01-12 19:15:08.571769	258.2	32.3	-64.1	0.0
2026-01-12 19:15:09.693534	258.6	32.3	-64.7	0.0
2026-01-12 19:15:10.816293	259.0	32.3	-64.5	0.0
2026-01-12 19:15:11.938050	259.4	32.4	-62.7	0.0
2026-01-12 19:15:13.059839	259.8	32.4	-62.0	0.0
2026-01-12 19:15:14.182093	260.2	32.4	-61.5	0.0
2026-01-12 19:15:15.303401	260.7	32.4	-62.8	0.0
2026-01-12 19:15:16.425654	261.1	32.4	-62.0	0.0
2026-01-12 19:15:17.546467	261.5	32.5	-62.7	0.0
2026-01-12 19:15:18.668225	261.9	32.5	-63.2	0.0
2026-01-12 19:15:19.790486	262.3	32.5	-63.1	0.0
2026-01-12 19:15:20.911749	262.7	32.5	-63.2	0.0
2026-01-12 19:15:22.034003	263.2	32.5	-62.7	0.0
2026-01-12 19:15:23.155761	263.6	32.5	-62.2	0.0
2026-01-12 19:15:24.278014	264.0	32.5	-62.3	0.0
2026-01-12 19:15:25.400267	264.4	32.5	-61.7	0.0
2026-01-12 19:15:26.521573	264.8	32.6	-61.1	0.0
2026-01-12 19:15:27.643826	265.3	32.6	-63.1	0.0
2026-01-12 19:15:28.765584	265.7	32.6	-62.4	0.0
2026-01-12 19:15:29.887859	266.1	32.6	-62.7	0.0
2026-01-12 19:15:31.009122	266.5	32.6	-63.3	0.0
2026-01-12 19:15:32.131384	266.9	32.6	-63.6	0.0
2026-01-12 19:15:33.252678	267.4	32.5	-61.7	0.0
2026-01-12 19:15:34.374931	267.8	32.5	-63.0	0.0
2026-01-12 19:15:35.494212	268.2	32.5	-60.6	0.0
2026-01-12 19:15:36.615981	268.6	32.5	-61.6	0.0
2026-01-12 19:15:37.738273	269.0	32.5	-61.2	0.0
2026-01-12 19:15:38.860030	269.4	32.5	-63.5	0.0
2026-01-12 19:15:39.981299	269.9	32.5	-63.3	0.0
2026-01-12 19:15:41.103552	270.3	32.5	-61.9	0.0
2026-01-12 19:15:42.225310	270.7	32.4	-62.2	0.0
2026-01-12 19:15:43.347112	271.1	32.4	-62.8	0.0
2026-01-12 19:15:44.468869	271.5	32.4	-62.3	0.0
2026-01-12 19:15:45.589140	271.9	32.4	-62.5	0.0
2026-01-12 19:15:46.710458	272.3	32.4	-61.9	0.0
2026-01-12 19:15:47.831719	272.8	32.3	-60.8	0.0
2026-01-12 19:15:48.953476	273.2	32.3	-64.5	0.0
2026-01-12 19:15:50.075234	273.6	32.3	-63.1	0.0
2026-01-12 19:15:51.197487	274.0	32.2	-65.9	0.0
2026-01-12 19:15:52.319245	274.4	32.2	-64.0	0.0
2026-01-12 19:15:53.441002	274.8	32.2	-63.7	0.0
2026-01-12 19:15:54.563769	275.2	32.1	-64.9	0.0
2026-01-12 19:15:55.686031	275.6	32.1	-63.6	0.0
2026-01-12 19:15:56.807789	276.0	32.1	-66.0	0.0
2026-01-12 19:15:57.928595	276.4	32.0	-65.0	0.0
2026-01-12 19:15:59.050848	276.9	32.0	-64.9	0.0
2026-01-12 19:16:00.171623	277.3	31.9	-65.3	0.0
2026-01-12 19:16:01.292887	277.7	31.9	-61.6	0.0
2026-01-12 19:16:02.415156	278.1	31.8	-61.8	0.0
2026-01-12 19:16:03.535970	278.5	31.8	-65.3	0.0
2026-01-12 19:16:04.658223	278.9	31.8	-65.9	0.0
2026-01-12 19:16:05.780476	279.3	31.7	-64.8	0.0
2026-01-12 19:16:06.902243	279.7	31.6	-62.9	0.0
2026-01-12 19:16:08.022546	280.0	31.6	-63.3	0.0
2026-01-12 19:16:09.145305	280.4	31.5	-61.7	0.0
2026-01-12 19:16:10.266112	280.8	31.5	-63.3	0.0
2026-01-12 19:16:11.387869	281.2	31.4	-62.3	0.0
2026-01-12 19:16:12.510130	281.6	31.4	-61.4	0.0
2026-01-12 19:16:13.631936	282.0	31.3	-62.2	0.0
2026-01-12 19:16:14.753199	282.4	31.2	-63.3	0.0
2026-01-12 19:16:15.874965	282.8	31.2	-63.6	0.0
2026-01-12 19:16:16.996722	283.2	31.1	-63.6	0.0
2026-01-12 19:16:18.117039	283.5	31.1	-64.3	0.0
2026-01-12 19:16:19.239308	283.9	31.0	-64.3	0.0
2026-01-12 19:16:20.362066	284.3	30.9	-64.1	0.0
2026-01-12 19:16:21.483328	284.7	30.9	-65.0	0.0
2026-01-12 19:16:22.605582	285.1	30.8	-66.9	0.0
2026-01-12 19:16:23.727874	285.4	30.7	-63.8	0.0
2026-01-12 19:16:24.849136	285.8	30.6	-65.1	0.0
2026-01-12 19:16:25.969910	286.2	30.6	-65.0	0.0
2026-01-12 19:16:27.094669	286.5	30.5	-64.6	0.0
2026-01-12 19:16:28.216465	286.9	30.4	-64.6	0.0
2026-01-12 19:16:29.338223	287.3	30.3	-64.1	0.0
2026-01-12 19:16:30.459980	287.6	30.3	-64.1	0.0
2026-01-12 19:16:31.582233	288.0	30.2	-66.6	0.0
2026-01-12 19:16:32.703991	288.4	30.1	-66.7	0.0
2026-01-12 19:16:33.825749	288.7	30.0	-65.8	0.0
2026-01-12 19:16:34.947011	289.1	29.9	-65.1	0.0
2026-01-12 19:16:36.068280	289.4	29.9	-65.5	0.0
2026-01-12 19:16:37.190039	289.8	29.8	-65.6	0.0
2026-01-12 19:16:38.312329	290.1	29.7	-65.2	0.0
2026-01-12 19:16:39.434583	290.5	29.6	-64.5	0.0
2026-01-12 19:16:40.555853	290.8	29.5	-67.9	0.0
2026-01-12 19:16:41.678106	291.2	29.4	-66.4	0.0
2026-01-12 19:16:42.800903	291.5	29.3	-66.1	0.0
2026-01-12 19:16:43.922660	291.9	29.3	-67.0	0.0
2026-01-12 19:16:45.043921	292.2	29.2	-67.6	0.0
2026-01-12 19:16:46.165686	292.6	29.1	-66.7	0.0
2026-01-12 19:16:47.286500	292.9	29.0	-69.1	0.0
2026-01-12 19:16:48.408273	293.2	28.9	-68.0	0.0
2026-01-12 19:16:49.530031	293.6	28.8	-67.5	0.0
2026-01-12 19:16:50.651789	293.9	28.7	-67.5	0.0
2026-01-12 19:16:51.774042	294.2	28.6	-66.7	0.0
2026-01-12 19:16:52.895363	294.6	28.5	-68.8	0.0
2026-01-12 19:16:54.016624	294.9	28.4	-68.8	0.0
2026-01-12 19:16:55.138877	295.2	28.3	-68.8	0.0
2026-01-12 19:16:56.260147	295.5	28.2	-69.2	0.0
2026-01-12 19:16:57.381407	295.8	28.1	-68.8	0.0
2026-01-12 19:16:58.503211	296.2	28.0	-69.0	0.0
2026-01-12 19:16:59.625970	296.5	27.9	-69.0	0.0
2026-01-12 19:17:00.748231	296.8	27.8	-69.0	0.0
2026-01-12 19:17:01.869987	297.1	27.7	-67.4	0.0
2026-01-12 19:17:02.991745	297.4	27.6	-69.0	0.0
2026-01-12 19:17:04.113558	297.7	27.5	-67.5	0.0
2026-01-12 19:17:05.234821	298.0	27.4	-68.8	0.0
2026-01-12 19:17:06.355597	298.3	27.3	-69.6	0.0
2026-01-12 19:17:07.475373	298.6	27.2	-69.8	0.0
2026-01-12 19:17:08.596680	298.9	27.1	-68.9	0.0
2026-01-12 19:17:09.717942	299.2	27.0	-69.8	0.0
2026-01-12 19:17:10.838221	299.5	26.9	-69.8	0.0
2026-01-12 19:17:11.959978	299.8	26.8	-68.7	0.0
2026-01-12 19:17:13.081240	300.1	26.7	-69.3	0.0
2026-01-12 19:17:14.201544	300.4	26.6	-69.8	0.0
2026-01-12 19:17:15.322311	300.7	26.5	-69.1	0.0
2026-01-12 19:17:16.445574	301.0	26.4	-69.5	0.0
2026-01-12 19:17:17.567828	301.3	26.3	-68.9	0.0
2026-01-12 19:17:18.689135	301.6	26.2	-69.5	0.0
2026-01-12 19:17:19.811388	301.8	26.1	-69.2	0.0
2026-01-12 19:17:20.932650	302.1	26.0	-69.0	0.0
2026-01-12 19:17:22.054407	302.4	25.9	-69.5	0.0
2026-01-12 19:17:23.176165	302.7	25.8	-69.6	0.0
2026-01-12 19:17:24.300953	303.0	25.7	-70.2	0.0
2026-01-12 19:17:25.423206	303.2	25.6	-70.0	0.0
2026-01-12 19:17:26.544476	303.5	25.5	-69.7	0.0
2026-01-12 19:17:27.665738	303.8	25.3	-69.1	0.0
2026-01-12 19:17:28.788495	304.0	25.2	-69.9	0.0
2026-01-12 19:17:29.910291	304.3	25.1	-69.9	0.0
2026-01-12 19:17:31.031058	304.6	25.0	-69.9	0.0
2026-01-12 19:17:32.151336	304.8	24.9	-70.0	0.0
2026-01-12 19:17:33.272597	305.1	24.8	-69.8	0.0
2026-01-12 19:17:34.393403	305.3	24.7	-69.8	0.0
2026-01-12 19:17:35.514665	305.6	24.6	-69.1	0.0
2026-01-12 19:17:36.635935	305.9	24.5	-69.5	0.0
2026-01-12 19:17:37.757219	306.1	24.4	-70.3	0.0
2026-01-12 19:17:38.878976	306.4	24.3	-69.9	0.0
2026-01-12 19:17:40.000743	306.6	24.2	-69.3	0.0
2026-01-12 19:17:41.122997	306.9	24.0	-69.9	0.0
2026-01-12 19:17:42.244258	307.1	23.9	-70.1	0.0
2026-01-12 19:17:43.366016	307.4	23.8	-69.9	0.0
2026-01-12 19:17:44.488306	307.6	23.7	-69.2	0.0
2026-01-12 19:17:45.610064	307.8	23.6	-69.7	0.0
2026-01-12 19:17:46.731334	308.1	23.5	-69.4	0.0
2026-01-12 19:17:47.852100	308.3	23.4	-69.5	0.0
2026-01-12 19:17:48.973362	308.6	23.3	-69.8	0.0
2026-01-12 19:17:50.095655	308.8	23.2	-69.4	0.0
2026-01-12 19:17:51.217414	309.0	23.1	-68.9	0.0
2026-01-12 19:17:52.339675	309.3	22.9	-69.1	0.0
2026-01-12 19:17:53.461928	309.5	22.8	-69.5	0.0
2026-01-12 19:17:54.584182	309.7	22.7	-69.7	0.0
2026-01-12 19:17:55.705988	309.9	22.6	-70.1	0.0
2026-01-12 19:17:56.827746	310.2	22.5	-69.1	0.0
2026-01-12 19:17:57.949513	310.4	22.4	-69.8	0.0
2026-01-12 19:17:59.070775	310.6	22.3	-69.4	0.0
2026-01-12 19:18:00.192565	310.8	22.2	-69.8	0.0
2026-01-12 19:18:01.312835	311.0	22.1	-70.2	0.0
2026-01-12 19:18:02.435089	311.3	22.0	-69.7	0.0
2026-01-12 19:18:03.557342	311.5	21.8	-69.4	0.0
2026-01-12 19:18:04.679643	311.7	21.7	-69.8	0.0
2026-01-12 19:18:05.801400	311.9	21.6	-69.4	0.0
2026-01-12 19:18:06.923654	312.1	21.5	-70.0	0.0
2026-01-12 19:18:08.045916	312.3	21.4	-69.6	0.0
2026-01-12 19:18:09.168208	312.5	21.3	-69.9	0.0
2026-01-12 19:18:10.289966	312.7	21.2	-70.0	0.0
2026-01-12 19:18:11.412219	313.0	21.1	-69.7	0.0
2026-01-12 19:18:12.533984	313.2	21.0	-69.8	0.0
2026-01-12 19:18:13.655742	313.4	20.9	-70.7	0.0
2026-01-12 19:18:14.777995	313.6	20.8	-69.8	0.0
2026-01-12 19:18:15.900289	313.8	20.6	-69.3	0.0
2026-01-12 19:18:17.022542	314.0	20.5	-69.2	0.0
2026-01-12 19:18:18.144300	314.2	20.4	-69.3	0.0
2026-01-12 19:18:19.266553	314.4	20.3	-69.7	0.0
2026-01-12 19:18:20.389311	314.6	20.2	-69.8	0.0
2026-01-12 19:18:21.511604	314.7	20.1	-69.8	0.0
2026-01-12 19:18:22.633857	314.9	20.0	-69.5	0.0
2026-01-12 19:18:23.756119	315.1	19.9	-69.9	0.0
2026-01-12 19:18:24.878372	315.3	19.8	-70.0	0.0
2026-01-12 19:18:25.999691	315.5	19.7	-69.2	0.0
2026-01-12 19:18:27.121448	315.7	19.6	-69.7	0.0
2026-01-12 19:18:28.242717	315.9	19.5	-69.9	0.0
2026-01-12 19:18:29.364970	316.1	19.4	-69.7	0.0
2026-01-12 19:18:30.487224	316.2	19.3	-69.6	0.0
2026-01-12 19:18:31.609517	316.4	19.1	-69.5	0.0
2026-01-12 19:18:32.731770	316.6	19.0	-69.5	0.0
2026-01-12 19:18:33.854032	316.8	18.9	-69.4	0.0
2026-01-12 19:18:34.976285	317.0	18.8	-69.0	0.0
2026-01-12 19:18:36.097548	317.1	18.7	-69.8	0.0
2026-01-12 19:18:37.219840	317.3	18.6	-69.8	0.0
2026-01-12 19:18:38.342093	317.5	18.5	-69.4	0.0
2026-01-12 19:18:39.464363	317.7	18.4	-69.8	0.0
2026-01-12 19:18:40.586616	317.8	18.3	-69.8	0.0
2026-01-12 19:18:41.708405	318.0	18.2	-69.6	0.0
2026-01-12 19:18:42.830659	318.2	18.1	-70.0	0.0
2026-01-12 19:18:43.951921	318.4	18.0	-69.3	0.0
2026-01-12 19:18:45.074686	318.5	17.9	-69.8	0.0
2026-01-12 19:18:46.196940	318.7	17.8	-69.3	0.0
2026-01-12 19:18:47.319235	318.9	17.7	-69.7	0.0
2026-01-12 19:18:48.441488	319.0	17.6	-69.2	0.0
2026-01-12 19:18:49.563750	319.2	17.5	-68.8	0.0
2026-01-12 19:18:50.686003	319.3	17.4	-69.1	0.0
2026-01-12 19:18:51.808296	319.5	17.3	-69.0	0.0
2026-01-12 19:18:52.931053	319.7	17.2	-69.0	0.0
2026-01-12 19:18:54.052849	319.8	17.1	-68.9	0.0
2026-01-12 19:18:55.174606	320.0	17.0	-68.9	0.0
2026-01-12 19:18:56.296364	320.1	16.9	-69.6	0.0
2026-01-12 19:18:57.418151	320.3	16.8	-69.1	0.0
2026-01-12 19:18:58.540404	320.5	16.7	-69.0	0.0
2026-01-12 19:18:59.662169	320.6	16.6	-69.5	0.0
2026-01-12 19:19:00.784423	320.8	16.5	-68.7	0.0
2026-01-12 19:19:01.906709	320.9	16.4	-68.9	0.0
2026-01-12 19:19:03.028962	321.1	16.3	-68.6	0.0
2026-01-12 19:19:04.151216	321.2	16.2	-68.6	0.0
2026-01-12 19:19:05.272995	321.4	16.1	-68.5	0.0
2026-01-12 19:19:06.395249	321.5	16.0	-68.8	0.0
2026-01-12 19:19:07.517502	321.7	15.9	-69.1	0.0
2026-01-12 19:19:08.639260	321.8	15.8	-69.3	0.0
2026-01-12 19:19:09.761522	322.0	15.7	-69.4	0.0
2026-01-12 19:19:10.883775	322.1	15.6	-69.1	0.0
2026-01-12 19:19:12.005564	322.2	15.5	-68.8	0.0
2026-01-12 19:19:13.127818	322.4	15.4	-69.2	0.0
2026-01-12 19:19:14.249079	322.5	15.3	-69.5	0.0
2026-01-12 19:19:15.371333	322.7	15.2	-69.3	0.0
2026-01-12 19:19:16.493090	322.8	15.1	-69.5	0.0
2026-01-12 19:19:17.615878	322.9	15.0	-68.8	0.0
2026-01-12 19:19:18.738131	323.1	14.9	-69.0	0.0
2026-01-12 19:19:19.860385	323.2	14.8	-69.4	0.0
2026-01-12 19:19:20.982638	323.4	14.7	-68.8	0.0
2026-01-12 19:19:22.104427	323.5	14.6	-68.4	0.0
2026-01-12 19:19:23.226681	323.6	14.5	-69.1	0.0
2026-01-12 19:19:24.347950	323.8	14.4	-68.7	0.0
2026-01-12 19:19:25.470203	323.9	14.3	-68.5	0.0
2026-01-12 19:19:26.592007	324.0	14.2	-68.8	0.0
2026-01-12 19:19:27.714261	324.2	14.1	-68.4	0.0
2026-01-12 19:19:28.836514	324.3	14.0	-68.9	0.0
2026-01-12 19:19:29.958776	324.4	13.9	-69.1	0.0
2026-01-12 19:19:31.081029	324.6	13.8	-69.0	0.0
2026-01-12 19:19:32.202324	324.7	13.7	-68.9	0.0
2026-01-12 19:19:33.324577	324.8	13.6	-69.0	0.0
2026-01-12 19:19:34.446831	324.9	13.5	-68.5	0.0
2026-01-12 19:19:35.568596	325.1	13.5	-69.0	0.0
2026-01-12 19:19:36.690850	325.2	13.4	-68.8	0.0
2026-01-12 19:19:37.812639	325.3	13.3	-68.6	0.0
2026-01-12 19:19:38.934892	325.4	13.2	-68.2	0.0
2026-01-12 19:19:40.055169	325.6	13.1	-68.9	0.0
2026-01-12 19:19:41.177423	325.7	13.0	-68.5	0.0
2026-01-12 19:19:42.299210	325.8	12.9	-69.0	0.0
2026-01-12 19:19:43.421464	325.9	12.8	-68.8	0.0
2026-01-12 19:19:44.542741	326.0	12.7	-68.9	0.0
2026-01-12 19:19:45.664994	326.2	12.6	-68.9	0.0
2026-01-12 19:19:46.787248	326.3	12.5	-68.7	0.0
2026-01-12 19:19:47.909037	326.4	12.4	-68.4	0.0
2026-01-12 19:19:49.030299	326.5	12.3	-67.8	0.0
2026-01-12 19:19:50.152552	326.6	12.3	-68.5	0.0
2026-01-12 19:19:51.273814	326.7	12.2	-68.7	0.0
2026-01-12 19:19:52.395602	326.9	12.1	-68.1	0.0
2026-01-12 19:19:53.517864	327.0	12.0	-68.1	0.0
2026-01-12 19:19:54.640118	327.1	11.9	-68.0	0.0
2026-01-12 19:19:55.762371	327.2	11.8	-68.4	0.0
2026-01-12 19:19:56.883634	327.3	11.7	-68.4	0.0
2026-01-12 19:19:58.005421	327.4	11.6	-68.3	0.0
2026-01-12 19:19:59.127674	327.5	11.5	-67.8	0.0
2026-01-12 19:20:00.249936	327.7	11.5	-68.1	0.0
2026-01-12 19:20:01.372189	327.8	11.4	-68.0	0.0
2026-01-12 19:20:02.493979	327.9	11.3	-68.1	0.0
2026-01-12 19:20:03.616232	328.0	11.2	-67.6	0.0
2026-01-12 19:20:04.737997	328.1	11.1	-67.2	0.0
2026-01-12 19:20:05.860250	328.2	11.0	-67.1	0.0
2026-01-12 19:20:06.982541	328.3	10.9	-67.4	0.0
2026-01-12 19:20:08.104795	328.4	10.8	-67.5	0.0
2026-01-12 19:20:09.227048	328.5	10.8	-67.5	0.0
2026-01-12 19:20:10.347855	328.6	10.7	-67.8	0.0
2026-01-12 19:20:11.470108	328.7	10.6	-68.4	0.0
2026-01-12 19:20:12.591418	328.8	10.5	-68.0	0.0
2026-01-12 19:20:13.712680	328.9	10.4	-68.0	0.0
2026-01-12 19:20:14.834941	329.0	10.3	-67.8	0.0
2026-01-12 19:20:15.956722	329.1	10.2	-67.8	0.0
2026-01-12 19:20:17.078480	329.2	10.2	-67.9	0.0
2026-01-12 19:20:18.200733	329.3	10.1	-68.0	0.0
2026-01-12 19:20:19.322987	329.4	10.0	-67.8	0.0
2026-01-12 19:20:20.444249	329.5	9.9	-68.1	0.0
2026-01-12 19:20:21.570504	329.6	9.8	-68.1	0.0
2026-01-12 19:20:22.692292	329.7	9.7	-67.0	0.0
2026-01-12 19:20:23.814545	329.8	9.7	-67.9	0.0
2026-01-12 19:20:24.936808	329.9	9.6	-67.1	0.0
2026-01-12 19:20:26.059061	330.0	9.5	-67.7	0.0
2026-01-12 19:20:27.181315	330.1	9.4	-67.2	0.0
2026-01-12 19:20:28.303103	330.2	9.3	-67.5	0.0
2026-01-12 19:20:29.426861	330.3	9.2	-67.8	0.0
2026-01-12 19:20:30.549122	330.4	9.2	-68.2	0.0
2026-01-12 19:20:31.671375	330.5	9.1	-67.4	0.0
2026-01-12 19:20:32.793156	330.6	9.0	-68.0	0.0
2026-01-12 19:20:33.915410	330.7	8.9	-67.2	0.0
2026-01-12 19:20:35.037671	330.8	8.8	-67.7	0.0
2026-01-12 19:20:36.159925	330.9	8.8	-67.4	0.0
2026-01-12 19:20:37.285187	331.0	8.7	-67.5	0.0
2026-01-12 19:20:38.406975	331.1	8.6	-67.6	0.0
2026-01-12 19:20:39.529229	331.2	8.5	-66.4	0.0
2026-01-12 19:20:40.651491	331.3	8.4	-66.7	0.0
2026-01-12 19:20:41.773744	331.3	8.3	-67.0	0.0
2026-01-12 19:20:42.896036	331.4	8.3	-66.4	0.0
2026-01-12 19:20:44.018439	331.5	8.2	-66.5	0.0
2026-01-12 19:20:45.140558	331.6	8.1	-65.9	0.0
2026-01-12 19:20:46.262812	331.7	8.0	-67.2	0.0
2026-01-12 19:20:47.385065	331.8	7.9	-66.9	0.0
2026-01-12 19:20:48.506854	331.9	7.9	-66.9	0.0
2026-01-12 19:20:49.629107	332.0	7.8	-66.5	0.0
2026-01-12 19:20:50.751371	332.1	7.7	-67.4	0.0
2026-01-12 19:20:51.873632	332.1	7.6	-67.0	0.0
2026-01-12 19:20:52.995389	332.2	7.6	-67.3	0.0
2026-01-12 19:20:54.118683	332.3	7.5	-66.7	0.0
2026-01-12 19:20:55.240440	332.4	7.4	-67.4	0.0
2026-01-12 19:20:56.362702	332.5	7.3	-66.7	0.0
2026-01-12 19:20:57.484955	332.6	7.2	-67.0	0.0
2026-01-12 19:20:58.607241	332.6	7.2	-66.7	0.0
2026-01-12 19:20:59.728999	332.7	7.1	-66.7	0.0
2026-01-12 19:21:00.850756	332.8	7.0	-66.7	0.0
2026-01-12 19:21:01.975010	332.9	6.9	-66.7	0.0
2026-01-12 19:21:03.097264	333.0	6.9	-66.7	0.0
2026-01-12 19:21:04.219050	333.1	6.8	-66.8	0.0
2026-01-12 19:21:05.341303	333.1	6.7	-66.5	0.0
2026-01-12 19:21:06.463557	333.2	6.6	-66.9	0.0
2026-01-12 19:21:07.585314	333.3	6.6	-65.9	0.0
2026-01-12 19:21:08.707122	333.4	6.5	-67.0	0.0
2026-01-12 19:21:09.830880	333.5	6.4	-65.4	0.0
2026-01-12 19:21:10.953142	333.5	6.3	-63.9	0.0
2026-01-12 19:21:12.075395	333.6	6.3	-63.4	0.0
2026-01-12 19:21:13.197649	333.7	6.2	-62.8	0.0
2026-01-12 19:21:14.319437	333.8	6.1	-66.2	0.0
2026-01-12 19:21:15.441691	333.9	6.0	-66.5	0.0
2026-01-12 19:21:16.563944	333.9	6.0	-67.5	0.0
2026-01-12 19:21:17.685709	334.0	5.9	-68.2	0.0
2026-01-12 19:21:18.807498	334.1	5.8	-69.0	0.0
2026-01-12 19:21:19.929751	334.2	5.7	-69.7	0.0
2026-01-12 19:21:21.051517	334.2	5.7	-68.9	0.0
2026-01-12 19:21:22.173770	334.3	5.6	-69.3	0.0
2026-01-12 19:21:23.296024	334.4	5.5	-70.3	0.0
2026-01-12 19:21:24.418315	334.5	5.4	-69.1	0.0
2026-01-12 19:21:25.545570	334.5	5.4	-70.2	0.0
2026-01-12 19:21:26.667831	334.6	5.3	-69.8	0.0
2026-01-12 19:21:27.790084	334.7	5.2	-69.9	0.0
2026-01-12 19:21:28.911892	334.8	5.1	-69.3	0.0
2026-01-12 19:21:30.034146	334.8	5.1	-69.7	0.0
2026-01-12 19:21:31.155903	334.9	5.0	-70.6	0.0
#Closed at: 2026-01-12 19:09:25.593321