passes_logs/2026/01/12/PlanumMoscow/PlanumMoscow__20260112_010119_METEOR-M2_4_rec.log

#Pass ID: 20260112_010119_METEOR-M2 4
#Satellite: METEOR-M2 4
#Configuration: METEOR-M2 4
#Start time: 2026-01-12 01:01:24.720608

#LorettStation: 1.0.0 05.05.2024
#Station: PlanumMoscow
#Location: 37.6253844 lon 55.6713361 lat
#TLE: 1 59051U 24039A   25293.94737965  .00000087  00000+0  58459-4 0  9998
#TLE: 2 59051  98.6671 251.7071 0007726 135.4772 224.7028 14.22388966 85257

#Time	Az	El	Level	SNR
2026-01-12 01:05:03.113072	17.2	29.3	-63.3	10.1
2026-01-12 01:05:05.357627	17.2	29.7	-63.6	11.2
2026-01-12 01:05:07.601639	17.2	30.2	-63.9	11.3
2026-01-12 01:05:09.844697	17.2	30.6	-63.8	11.2
2026-01-12 01:05:12.091757	17.2	31.0	-63.6	11.2
2026-01-12 01:05:14.335777	17.3	31.5	-63.3	9.1
2026-01-12 01:05:16.577861	17.3	31.9	-63.4	10.9
2026-01-12 01:05:18.821872	17.3	32.4	-63.7	10.6
2026-01-12 01:05:21.065387	17.3	32.9	-61.6	6.2
2026-01-12 01:05:23.308911	17.3	33.4	-62.8	9.5
2026-01-12 01:05:25.552922	17.3	33.8	-63.7	11.0
2026-01-12 01:05:27.796496	17.3	34.3	-64.3	9.8
2026-01-12 01:05:30.043008	17.3	34.8	-63.4	10.3
2026-01-12 01:05:32.286557	17.4	35.3	-63.2	9.4
2026-01-12 01:05:34.529587	17.4	35.9	-63.7	9.8
2026-01-12 01:05:36.774142	17.4	36.4	-64.3	9.4
2026-01-12 01:05:39.018666	17.4	36.9	-63.8	10.0
2026-01-12 01:05:41.262206	17.4	37.5	-63.5	8.8
2026-01-12 01:05:43.507235	17.4	38.0	-61.3	6.2
2026-01-12 01:05:45.751837	17.4	38.6	-63.7	7.8
2026-01-12 01:05:47.995849	17.4	39.1	-63.2	8.2
2026-01-12 01:05:50.239872	17.5	39.7	-63.2	8.5
2026-01-12 01:05:52.486419	17.5	40.3	-63.3	8.4
2026-01-12 01:05:54.730933	17.5	40.9	-63.2	8.1
2026-01-12 01:05:56.974490	17.5	41.5	-63.3	9.3
2026-01-12 01:05:59.217022	17.5	42.2	-63.4	6.7
2026-01-12 01:06:01.463082	17.5	42.8	-63.1	8.6
2026-01-12 01:06:03.706112	17.6	43.4	-62.9	7.8
2026-01-12 01:06:05.949636	17.6	44.1	-62.1	6.1
2026-01-12 01:06:08.193190	17.6	44.7	-63.6	8.6
2026-01-12 01:06:10.437713	17.6	45.4	-63.5	9.0
2026-01-12 01:06:12.681270	17.6	46.1	-61.9	6.4
2026-01-12 01:06:14.925280	17.6	46.8	-63.4	8.7
2026-01-12 01:06:17.167358	17.7	47.5	-63.7	9.1
2026-01-12 01:06:19.411873	17.7	48.2	-63.9	8.5
2026-01-12 01:06:21.655388	17.7	49.0	-63.4	9.0
2026-01-12 01:06:23.899944	17.7	49.7	-63.8	9.1
2026-01-12 01:06:26.143027	17.7	50.5	-64.3	9.5
2026-01-12 01:06:28.387038	17.8	51.3	-63.1	5.6
2026-01-12 01:06:30.628579	17.8	52.1	-64.6	7.7
2026-01-12 01:06:32.872157	17.8	52.9	-65.1	8.4
2026-01-12 01:06:35.118187	17.8	53.7	-65.5	8.5
2026-01-12 01:06:37.361231	17.8	54.5	-65.4	7.9
2026-01-12 01:06:39.605243	17.9	55.3	-65.7	7.2
2026-01-12 01:06:41.848767	17.9	56.2	-65.4	6.6
2026-01-12 01:06:44.091827	17.9	57.1	-65.8	6.3
2026-01-12 01:06:46.333863	18.0	58.0	-66.1	6.9
2026-01-12 01:06:48.576427	18.0	58.8	-65.8	7.5
2026-01-12 01:06:50.818961	18.0	59.8	-66.1	6.4
2026-01-12 01:06:53.061981	18.0	60.7	-66.7	7.0
2026-01-12 01:06:55.289230	18.1	61.6	-66.8	7.1
2026-01-12 01:06:57.531811	18.1	62.6	-66.6	7.6
2026-01-12 01:06:59.773840	18.2	63.5	-66.7	7.9
2026-01-12 01:07:02.016868	18.2	64.5	-66.6	7.1
2026-01-12 01:07:04.260425	18.2	65.5	-66.5	8.2
2026-01-12 01:07:06.504436	18.3	66.5	-66.4	8.8
2026-01-12 01:07:08.747991	18.4	67.5	-65.7	8.8
2026-01-12 01:07:10.992507	18.4	68.5	-66.1	9.8
2026-01-12 01:07:13.235527	18.5	69.6	-65.9	10.5
2026-01-12 01:07:15.478092	18.5	70.6	-66.6	11.2
2026-01-12 01:07:17.722111	18.6	71.7	-66.6	11.4
2026-01-12 01:07:19.965651	18.7	72.8	-67.1	10.9
2026-01-12 01:07:22.209188	18.8	73.8	-66.9	11.1
2026-01-12 01:07:24.452705	18.9	74.9	-66.7	11.0
2026-01-12 01:07:26.695757	19.0	76.0	-66.8	10.8
2026-01-12 01:07:28.938323	19.2	77.2	-67.5	10.9
2026-01-12 01:07:31.182334	19.4	78.3	-67.6	10.7
2026-01-12 01:07:33.425363	19.6	79.4	-67.7	10.3
2026-01-12 01:07:35.668909	19.8	80.5	-67.6	11.6
2026-01-12 01:07:37.913929	20.2	81.7	-67.5	12.3
2026-01-12 01:07:40.159446	20.6	82.8	-67.2	13.7
2026-01-12 01:07:42.401519	21.2	84.0	-67.2	14.1
2026-01-12 01:07:44.645051	22.1	85.1	-67.5	13.9
2026-01-12 01:07:46.887607	23.6	86.3	-67.3	14.2
2026-01-12 01:07:49.130132	26.3	87.4	-67.6	13.9
2026-01-12 01:07:51.373688	33.5	88.6	-67.9	13.9
2026-01-12 01:07:53.615725	79.3	89.6	-67.7	14.7
2026-01-12 01:07:55.857803	175.2	89.0	-67.4	14.9
2026-01-12 01:07:58.104327	187.1	87.8	-67.6	15.4
2026-01-12 01:08:00.347842	190.8	86.7	-67.7	15.7
2026-01-12 01:08:02.589913	192.5	85.5	-67.4	15.6
2026-01-12 01:08:04.832933	193.6	84.4	-67.8	15.4
2026-01-12 01:08:07.078002	194.3	83.2	-67.7	16.0
2026-01-12 01:08:09.322022	194.8	82.1	-67.7	15.6
2026-01-12 01:08:11.565588	195.1	80.9	-68.4	14.8
2026-01-12 01:08:13.809121	195.4	79.8	-68.7	15.0
2026-01-12 01:08:16.052668	195.7	78.7	-68.5	15.1
2026-01-12 01:08:18.296680	195.9	77.5	-68.5	15.0
2026-01-12 01:08:20.539699	196.0	76.4	-68.2	15.3
2026-01-12 01:08:22.783247	196.1	75.3	-68.1	16.0
2026-01-12 01:08:25.026298	196.3	74.2	-68.2	16.3
2026-01-12 01:08:27.269814	196.4	73.1	-68.6	15.6
2026-01-12 01:08:29.513339	196.5	72.0	-68.7	15.0
2026-01-12 01:08:31.758391	196.5	71.0	-68.9	14.7
2026-01-12 01:08:34.004403	196.6	69.9	-69.3	14.2
2026-01-12 01:08:36.248455	196.7	68.9	-69.3	13.7
2026-01-12 01:08:38.493980	196.7	67.8	-69.1	13.9
2026-01-12 01:08:40.738000	196.8	66.8	-68.9	14.6
2026-01-12 01:08:42.981548	196.8	65.8	-69.0	14.2
2026-01-12 01:08:45.225071	196.9	64.8	-69.0	14.4
2026-01-12 01:08:47.472627	196.9	63.8	-68.7	14.1
2026-01-12 01:08:49.716159	197.0	62.8	-68.7	14.2
2026-01-12 01:08:51.957725	197.0	61.9	-69.1	13.8
2026-01-12 01:08:54.200745	197.0	60.9	-69.0	13.4
2026-01-12 01:08:56.444807	197.1	60.0	-68.8	12.8
2026-01-12 01:08:58.688818	197.1	59.1	-69.2	12.4
2026-01-12 01:09:00.931848	197.1	58.2	-68.8	11.3
2026-01-12 01:09:03.173909	197.2	57.3	-69.0	12.5
2026-01-12 01:09:05.418424	197.2	56.4	-69.0	12.6
2026-01-12 01:09:07.662467	197.2	55.6	-68.7	13.2
2026-01-12 01:09:09.906479	197.2	54.7	-68.8	12.2
2026-01-12 01:09:12.150995	197.3	53.9	-68.9	12.0
2026-01-12 01:09:14.395006	197.3	53.0	-69.2	12.2
2026-01-12 01:09:16.639017	197.3	52.2	-68.4	9.8
2026-01-12 01:09:18.883028	197.3	51.4	-68.6	11.2
2026-01-12 01:09:21.126544	197.3	50.7	-68.4	11.2
2026-01-12 01:09:23.370564	197.4	49.9	-68.6	10.7
2026-01-12 01:09:25.614575	197.4	49.1	-68.6	10.8
2026-01-12 01:09:27.858596	197.4	48.4	-68.4	11.7
2026-01-12 01:09:30.103103	197.4	47.7	-68.3	12.7
2026-01-12 01:09:32.345626	197.4	46.9	-68.0	12.3
2026-01-12 01:09:34.588647	197.5	46.2	-68.1	12.3
2026-01-12 01:09:36.831171	197.5	45.5	-66.1	10.2
2026-01-12 01:09:39.074686	197.5	44.8	-67.7	12.1
2026-01-12 01:09:41.318203	197.5	44.2	-67.9	13.4
2026-01-12 01:09:43.561718	197.5	43.5	-67.1	12.2
2026-01-12 01:09:45.809236	197.5	42.9	-65.9	11.4
2026-01-12 01:09:48.052258	197.6	42.2	-67.1	12.8
2026-01-12 01:09:50.296270	197.6	41.6	-66.8	10.7
2026-01-12 01:09:52.538298	197.6	41.0	-66.9	11.8
2026-01-12 01:09:54.782318	197.6	40.4	-66.2	9.5
2026-01-12 01:09:57.026329	197.6	39.8	-67.1	12.8
2026-01-12 01:09:59.270341	197.6	39.2	-66.6	11.3
2026-01-12 01:10:01.513856	197.6	38.6	-65.6	10.2
2026-01-12 01:10:03.755885	197.7	38.0	-66.8	12.9
2026-01-12 01:10:06.001401	197.7	37.5	-66.7	13.2
2026-01-12 01:10:08.244917	197.7	36.9	-66.1	11.9
2026-01-12 01:10:10.493434	197.7	36.4	-66.7	11.7
2026-01-12 01:10:12.736950	197.7	35.9	-65.0	9.8
2026-01-12 01:10:14.980465	197.7	35.3	-66.7	13.7
2026-01-12 01:10:17.223981	197.7	34.8	-65.4	11.3
2026-01-12 01:10:19.467011	197.7	34.3	-66.5	13.6
2026-01-12 01:10:21.711032	197.8	33.8	-65.9	13.7
2026-01-12 01:10:23.953556	197.8	33.3	-65.8	12.5
2026-01-12 01:10:26.197072	197.8	32.9	-66.1	11.7
2026-01-12 01:10:28.441084	197.8	32.4	-65.9	13.1
2026-01-12 01:10:30.685094	197.8	31.9	-64.7	10.4
2026-01-12 01:10:32.928115	197.8	31.5	-65.0	10.4
2026-01-12 01:10:35.171155	197.8	31.0	-65.9	12.8
2026-01-12 01:10:37.413185	197.8	30.6	-66.1	13.9
2026-01-12 01:10:39.655711	197.8	30.1	-65.9	12.7
2026-01-12 01:10:41.898254	197.9	29.7	-66.1	14.0
2026-01-12 01:10:44.140789	197.9	29.3	-66.0	12.9
2026-01-12 01:10:46.384808	197.9	28.8	-65.7	14.1
2026-01-12 01:10:48.629316	197.9	28.4	-63.6	12.7
2026-01-12 01:10:50.873353	197.9	28.0	-66.0	13.7
2026-01-12 01:10:53.117365	197.9	27.6	-65.8	13.8
2026-01-12 01:10:55.360386	197.9	27.2	-66.2	13.5
2026-01-12 01:10:57.602417	197.9	26.8	-66.4	14.4
2026-01-12 01:10:59.844448	197.9	26.4	-66.0	13.5
2026-01-12 01:11:02.085983	197.9	26.1	-64.6	11.7
2026-01-12 01:11:04.331519	198.0	25.7	-65.5	13.6
2026-01-12 01:11:06.573549	198.0	25.3	-64.8	10.1
2026-01-12 01:11:08.815084	198.0	25.0	-65.8	13.0
2026-01-12 01:11:11.059096	198.0	24.6	-66.0	12.4
2026-01-12 01:11:13.303108	198.0	24.3	-65.1	12.9
2026-01-12 01:11:15.547623	198.0	23.9	-65.4	13.7
2026-01-12 01:11:17.790150	198.0	23.6	-65.6	12.6
2026-01-12 01:11:20.033169	198.0	23.2	-66.2	12.8
2026-01-12 01:11:22.276694	198.0	22.9	-66.1	13.1
2026-01-12 01:11:24.520706	198.0	22.6	-65.7	13.0
2026-01-12 01:11:26.764717	198.0	22.2	-66.4	13.7
2026-01-12 01:11:29.008233	198.1	21.9	-66.2	13.3
2026-01-12 01:11:31.251748	198.1	21.6	-65.4	13.1
2026-01-12 01:11:33.495760	198.1	21.3	-65.7	13.3
2026-01-12 01:11:35.739276	198.1	21.0	-66.0	13.8
2026-01-12 01:11:37.981315	198.1	20.7	-66.1	13.4
2026-01-12 01:11:40.225326	198.1	20.4	-66.6	13.5
2026-01-12 01:11:42.469338	198.1	20.1	-65.7	11.9
2026-01-12 01:11:44.713348	198.1	19.8	-66.8	12.6
2026-01-12 01:11:46.957359	198.1	19.5	-66.7	12.7
2026-01-12 01:11:49.201370	198.1	19.2	-65.6	8.0
2026-01-12 01:11:51.445897	198.1	18.9	-66.4	13.6
2026-01-12 01:11:53.689908	198.2	18.6	-66.5	13.3
2026-01-12 01:11:55.932929	198.2	18.3	-66.4	13.4
2026-01-12 01:11:58.176940	198.2	18.1	-66.5	13.8
2026-01-12 01:12:00.421457	198.2	17.8	-64.4	7.1
2026-01-12 01:12:02.664477	198.2	17.5	-65.9	12.3
2026-01-12 01:12:04.907992	198.2	17.2	-66.1	13.0
2026-01-12 01:12:07.152004	198.2	17.0	-65.7	11.8
2026-01-12 01:12:09.395529	198.2	16.7	-65.6	12.5
2026-01-12 01:12:11.638062	198.2	16.5	-66.5	12.5
2026-01-12 01:12:13.881578	198.2	16.2	-66.4	12.3
2026-01-12 01:12:16.125095	198.2	16.0	-66.2	11.8
2026-01-12 01:12:18.369602	198.2	15.7	-66.4	12.2
2026-01-12 01:12:20.613127	198.3	15.5	-66.0	11.1
2026-01-12 01:12:22.856643	198.3	15.2	-66.2	10.8
2026-01-12 01:12:25.100168	198.3	15.0	-66.5	11.5
2026-01-12 01:12:27.345198	198.3	14.7	-65.8	11.8
2026-01-12 01:12:29.589210	198.3	14.5	-65.8	12.6
2026-01-12 01:12:31.833221	198.3	14.2	-65.0	5.3
2026-01-12 01:12:34.076737	198.3	14.0	-66.1	11.4
2026-01-12 01:12:36.319262	198.3	13.8	-66.6	11.2
2026-01-12 01:12:38.561794	198.3	13.6	-66.8	11.2
2026-01-12 01:12:40.804318	198.3	13.3	-66.8	11.9
2026-01-12 01:12:43.048834	198.3	13.1	-67.1	11.2
2026-01-12 01:12:45.292846	198.3	12.9	-66.0	4.1
2026-01-12 01:12:47.536857	198.4	12.7	-66.5	10.7
2026-01-12 01:12:49.779877	198.4	12.4	-66.8	10.2
2026-01-12 01:12:52.023888	198.4	12.2	-66.4	10.6
2026-01-12 01:12:54.267403	198.4	12.0	-65.9	10.3
2026-01-12 01:12:56.510919	198.4	11.8	-65.4	9.9
2026-01-12 01:12:58.755949	198.4	11.6	-65.1	9.5
2026-01-12 01:13:00.998473	198.4	11.4	-62.6	5.6
2026-01-12 01:13:03.242484	198.4	11.2	-65.2	9.5
2026-01-12 01:13:05.486495	198.4	11.0	-65.8	10.2
2026-01-12 01:13:07.730020	198.4	10.8	-65.7	9.7
2026-01-12 01:13:09.974527	198.4	10.6	-66.2	9.4
2026-01-12 01:13:12.217052	198.4	10.4	-66.7	10.6
2026-01-12 01:13:14.461082	198.4	10.2	-66.9	8.8
2026-01-12 01:13:16.703615	198.5	10.0	-66.9	9.5
2026-01-12 01:13:18.947627	198.5	9.8	-66.1	9.7
2026-01-12 01:13:21.189657	198.5	9.6	-66.0	8.4
2026-01-12 01:13:23.433668	198.5	9.4	-65.6	8.4
2026-01-12 01:13:25.679184	198.5	9.2	-66.1	9.1
2026-01-12 01:13:27.923194	198.5	9.0	-65.3	8.1
2026-01-12 01:13:30.166214	198.5	8.8	-65.5	8.2
2026-01-12 01:13:32.410226	198.5	8.6	-65.1	8.0
2026-01-12 01:13:34.654237	198.5	8.4	-64.1	6.5
2026-01-12 01:13:36.898753	198.5	8.2	-65.6	7.7
2026-01-12 01:13:39.143273	198.5	8.1	-65.9	6.9
2026-01-12 01:13:41.387790	198.5	7.9	-65.3	6.8
2026-01-12 01:13:43.630811	198.5	7.7	-66.6	7.4
2026-01-12 01:13:45.874328	198.5	7.5	-65.8	6.2
2026-01-12 01:13:48.117844	198.6	7.3	-66.4	5.9
2026-01-12 01:13:50.361856	198.6	7.2	-65.9	3.6
2026-01-12 01:13:52.605867	198.6	7.0	-64.7	7.1
2026-01-12 01:13:54.849879	198.6	6.8	-65.6	4.5
2026-01-12 01:13:57.093405	198.6	6.6	-64.8	6.0
2026-01-12 01:13:59.336425	198.6	6.5	-64.1	5.5
2026-01-12 01:14:01.579453	198.6	6.3	-64.3	5.8
2026-01-12 01:14:03.822969	198.6	6.1	-65.4	3.3
2026-01-12 01:14:06.066486	198.6	6.0	-68.3	6.3
2026-01-12 01:14:08.310497	198.6	5.8	-71.3	0.0
2026-01-12 01:14:10.555518	198.6	5.6	-72.3	0.0
2026-01-12 01:14:12.799035	198.6	5.5	-72.6	0.0
2026-01-12 01:14:15.043046	198.6	5.3	-72.7	0.0
2026-01-12 01:14:17.287058	198.6	5.1	-72.2	0.0
2026-01-12 01:14:19.529592	198.7	5.0	-72.0	0.0
#Closed at: 2026-01-12 01:01:19.722807