passes_logs/2026/01/12/PlanumMoscow/PlanumMoscow__20260112_073850_METOP-C_rec.log

#Pass ID: 20260112_073850_METOP-C
#Satellite: METOP-C
#Configuration: METOP-C
#Start time: 2026-01-12 07:38:55.724941

#LorettStation: 1.0.0 05.05.2024
#Station: PlanumMoscow
#Location: 37.6253844 lon 55.6713361 lat
#TLE: 1 43689U 18087A   25293.88981035  .00000265  00000+0  14109-3 0  9997
#TLE: 2 43689  98.7006 352.4487 0002041 122.1097 238.0279 14.21482740360838

#Time	Az	El	Level	SNR
2026-01-12 07:42:34.149551	20.9	29.2	-60.8	0.0
2026-01-12 07:42:36.393074	21.0	29.7	-63.3	0.0
2026-01-12 07:42:38.637590	21.1	30.1	-63.7	0.0
2026-01-12 07:42:40.881106	21.2	30.5	-60.5	0.0
2026-01-12 07:42:43.127126	21.3	31.0	-61.4	0.0
2026-01-12 07:42:45.371137	21.4	31.4	-61.8	0.0
2026-01-12 07:42:47.613664	21.5	31.9	-61.2	0.0
2026-01-12 07:42:49.857179	21.5	32.3	-60.8	0.0
2026-01-12 07:42:52.101191	21.6	32.8	-60.8	0.0
2026-01-12 07:42:54.344215	21.7	33.3	-62.0	0.0
2026-01-12 07:42:56.587730	21.8	33.7	-61.0	0.0
2026-01-12 07:42:58.831742	21.9	34.2	-61.1	0.0
2026-01-12 07:43:01.075259	22.1	34.7	-59.2	0.0
2026-01-12 07:43:03.319774	22.2	35.2	-60.3	0.0
2026-01-12 07:43:05.562803	22.3	35.7	-60.5	0.0
2026-01-12 07:43:07.804834	22.4	36.2	-61.6	0.0
2026-01-12 07:43:10.047872	22.5	36.8	-61.0	0.0
2026-01-12 07:43:12.289405	22.6	37.3	-60.6	0.0
2026-01-12 07:43:14.534416	22.8	37.9	-60.2	0.0
2026-01-12 07:43:16.778427	22.9	38.4	-59.9	0.0
2026-01-12 07:43:19.022438	23.0	39.0	-60.4	0.0
2026-01-12 07:43:21.268963	23.2	39.6	-59.0	0.0
2026-01-12 07:43:23.511486	23.3	40.1	-60.1	0.0
2026-01-12 07:43:25.753514	23.5	40.7	-60.4	0.0
2026-01-12 07:43:27.996542	23.6	41.3	-60.3	0.0
2026-01-12 07:43:30.244058	23.8	41.9	-59.6	0.0
2026-01-12 07:43:32.488565	23.9	42.6	-59.9	0.0
2026-01-12 07:43:34.732576	24.1	43.2	-59.0	0.0
2026-01-12 07:43:36.976595	24.3	43.8	-60.5	0.0
2026-01-12 07:43:39.219615	24.5	44.5	-60.1	0.0
2026-01-12 07:43:41.463626	24.7	45.2	-60.1	0.0
2026-01-12 07:43:43.707637	24.9	45.8	-59.4	0.0
2026-01-12 07:43:45.950161	25.1	46.5	-59.8	0.0
2026-01-12 07:43:48.194172	25.3	47.2	-61.6	0.0
2026-01-12 07:43:50.438183	25.5	47.9	-61.2	0.0
2026-01-12 07:43:52.683699	25.8	48.7	-61.5	0.0
2026-01-12 07:43:54.927223	26.0	49.4	-58.9	0.0
2026-01-12 07:43:57.171242	26.3	50.1	-60.6	0.0
2026-01-12 07:43:59.415748	26.5	50.9	-61.2	0.0
2026-01-12 07:44:01.659264	26.8	51.7	-62.1	0.0
2026-01-12 07:44:03.903275	27.1	52.4	-61.9	0.0
2026-01-12 07:44:06.146791	27.5	53.2	-62.3	0.0
2026-01-12 07:44:08.390306	27.8	54.0	-61.9	0.0
2026-01-12 07:44:10.633822	28.2	54.8	-61.9	0.0
2026-01-12 07:44:12.876840	28.5	55.7	-62.7	0.0
2026-01-12 07:44:15.120870	28.9	56.5	-62.5	0.0
2026-01-12 07:44:17.363889	29.4	57.4	-63.2	0.0
2026-01-12 07:44:19.608405	29.8	58.2	-61.4	0.0
2026-01-12 07:44:21.851920	30.3	59.1	-63.8	0.0
2026-01-12 07:44:24.094940	30.8	60.0	-64.4	0.0
2026-01-12 07:44:26.337960	31.4	60.9	-63.5	0.0
2026-01-12 07:44:28.581476	31.9	61.8	-64.1	0.0
2026-01-12 07:44:30.824991	32.6	62.7	-64.6	0.0
2026-01-12 07:44:33.068010	33.3	63.6	-64.3	0.0
2026-01-12 07:44:35.312021	34.0	64.5	-64.8	0.0
2026-01-12 07:44:37.556528	34.8	65.5	-65.7	0.0
2026-01-12 07:44:39.799548	35.7	66.4	-65.3	0.0
2026-01-12 07:44:42.043559	36.6	67.4	-65.9	0.0
2026-01-12 07:44:44.286578	37.7	68.3	-65.8	0.0
2026-01-12 07:44:46.529597	38.8	69.3	-66.1	0.0
2026-01-12 07:44:48.777122	40.1	70.3	-66.3	0.0
2026-01-12 07:44:51.021151	41.5	71.2	-66.2	0.0
2026-01-12 07:44:53.264668	43.1	72.2	-67.7	0.0
2026-01-12 07:44:55.506698	44.8	73.1	-66.6	0.0
2026-01-12 07:44:57.749717	46.8	74.1	-67.2	0.0
2026-01-12 07:44:59.993233	49.1	75.0	-67.5	0.0
2026-01-12 07:45:02.236252	51.6	75.9	-66.9	0.0
2026-01-12 07:45:04.479768	54.5	76.8	-67.2	0.0
2026-01-12 07:45:06.723293	57.8	77.7	-67.5	0.0
2026-01-12 07:45:08.965361	61.6	78.5	-67.9	0.0
2026-01-12 07:45:11.208381	66.0	79.2	-68.2	0.0
2026-01-12 07:45:13.451925	71.1	79.9	-68.1	0.0
2026-01-12 07:45:15.696441	76.8	80.5	-68.2	0.0
2026-01-12 07:45:17.939508	83.3	81.0	-68.8	0.0
2026-01-12 07:45:20.182535	90.4	81.4	-69.1	0.0
2026-01-12 07:45:22.426555	98.1	81.7	-69.4	0.0
2026-01-12 07:45:24.670604	106.1	81.7	-68.9	0.0
2026-01-12 07:45:26.915120	114.1	81.7	-69.6	0.0
2026-01-12 07:45:29.158682	121.8	81.4	-69.4	0.0
2026-01-12 07:45:31.402701	129.0	81.1	-69.6	0.0
2026-01-12 07:45:33.646256	135.5	80.6	-70.5	0.0
2026-01-12 07:45:35.888292	141.3	80.0	-70.4	0.0
2026-01-12 07:45:38.131848	146.3	79.3	-70.5	0.0
2026-01-12 07:45:40.375372	150.7	78.5	-70.5	0.0
2026-01-12 07:45:42.617897	154.6	77.7	-70.6	0.6
2026-01-12 07:45:44.863446	157.9	76.8	-70.3	0.9
2026-01-12 07:45:47.106528	160.8	75.9	-70.3	3.5
2026-01-12 07:45:49.350045	163.4	75.0	-70.2	1.5
2026-01-12 07:45:51.594064	165.6	74.1	-70.3	0.0
2026-01-12 07:45:53.837114	167.6	73.2	-71.0	0.0
2026-01-12 07:45:56.079648	169.4	72.2	-70.9	0.0
2026-01-12 07:45:58.322214	170.9	71.2	-70.5	0.0
2026-01-12 07:46:00.564244	172.4	70.3	-71.2	0.0
2026-01-12 07:46:02.807768	173.6	69.3	-71.6	0.0
2026-01-12 07:46:05.050342	174.8	68.4	-71.3	0.0
2026-01-12 07:46:07.293857	175.8	67.4	-71.0	0.0
2026-01-12 07:46:09.537916	176.8	66.4	-71.2	0.0
2026-01-12 07:46:11.780448	177.7	65.5	-70.9	0.0
2026-01-12 07:46:14.021517	178.5	64.5	-70.8	0.0
2026-01-12 07:46:16.264547	179.2	63.6	-70.6	0.0
2026-01-12 07:46:18.507597	179.9	62.7	-70.5	0.0
2026-01-12 07:46:20.751649	180.5	61.8	-70.3	0.0
2026-01-12 07:46:22.995679	181.1	60.9	-70.3	0.0
2026-01-12 07:46:25.239719	181.7	60.0	-69.8	0.0
2026-01-12 07:46:27.482276	182.2	59.1	-70.2	0.0
2026-01-12 07:46:29.725819	182.7	58.2	-69.9	0.0
2026-01-12 07:46:31.969335	183.1	57.3	-69.5	0.0
2026-01-12 07:46:34.213355	183.6	56.5	-69.7	0.0
2026-01-12 07:46:36.455909	184.0	55.6	-69.5	0.0
2026-01-12 07:46:38.699927	184.3	54.8	-69.4	0.0
2026-01-12 07:46:40.942976	184.7	54.0	-68.9	0.0
2026-01-12 07:46:43.186005	185.0	53.2	-69.0	0.0
2026-01-12 07:46:45.428561	185.3	52.4	-68.4	0.0
2026-01-12 07:46:47.672085	185.7	51.6	-68.9	0.0
2026-01-12 07:46:49.916095	185.9	50.8	-68.7	0.0
2026-01-12 07:46:52.158154	186.2	50.1	-69.1	0.0
2026-01-12 07:46:54.402166	186.5	49.3	-68.5	0.0
2026-01-12 07:46:56.646672	186.7	48.6	-68.8	0.0
2026-01-12 07:46:58.890196	187.0	47.9	-68.6	0.0
2026-01-12 07:47:01.135254	187.2	47.1	-66.8	0.0
2026-01-12 07:47:03.379274	187.4	46.4	-67.9	0.0
2026-01-12 07:47:05.622789	187.6	45.8	-68.1	0.0
2026-01-12 07:47:07.869365	187.8	45.1	-68.3	0.0
2026-01-12 07:47:10.114384	188.0	44.4	-68.5	0.0
2026-01-12 07:47:12.356940	188.2	43.8	-67.3	0.0
2026-01-12 07:47:14.599988	188.4	43.1	-66.9	0.0
2026-01-12 07:47:16.842017	188.6	42.5	-66.2	0.0
2026-01-12 07:47:19.085541	188.7	41.8	-66.6	0.0
2026-01-12 07:47:21.328630	188.9	41.2	-68.0	0.0
2026-01-12 07:47:23.572650	189.0	40.6	-68.0	0.0
2026-01-12 07:47:25.817157	189.2	40.0	-67.2	0.0
2026-01-12 07:47:28.062206	189.3	39.4	-66.4	0.0
2026-01-12 07:47:30.305723	189.5	38.9	-66.6	0.0
2026-01-12 07:47:32.548295	189.6	38.3	-65.2	0.0
2026-01-12 07:47:34.792810	189.7	37.7	-66.1	0.0
2026-01-12 07:47:37.037347	189.8	37.2	-66.4	0.0
2026-01-12 07:47:39.280375	190.0	36.7	-66.1	0.0
2026-01-12 07:47:41.527892	190.1	36.1	-65.5	0.0
2026-01-12 07:47:43.771445	190.2	35.6	-64.9	0.0
2026-01-12 07:47:46.015959	190.3	35.1	-65.4	0.0
2026-01-12 07:47:48.263018	190.4	34.6	-65.7	0.0
2026-01-12 07:47:50.506541	190.5	34.1	-66.4	0.0
2026-01-12 07:47:52.749111	190.6	33.6	-66.0	0.0
2026-01-12 07:47:54.993627	190.7	33.1	-61.2	0.0
2026-01-12 07:47:57.236703	190.8	32.6	-60.6	0.0
2026-01-12 07:47:59.480220	190.9	32.2	-66.5	0.0
2026-01-12 07:48:01.723752	191.0	31.7	-66.6	0.0
2026-01-12 07:48:03.967313	191.1	31.3	-61.5	0.0
2026-01-12 07:48:06.210829	191.2	30.8	-66.0	0.0
2026-01-12 07:48:08.454903	191.3	30.4	-65.4	0.0
2026-01-12 07:48:10.698955	191.4	29.9	-66.1	0.0
2026-01-12 07:48:12.942966	191.4	29.5	-66.0	0.0
2026-01-12 07:48:15.190986	191.5	29.1	-65.4	0.0
2026-01-12 07:48:17.435036	191.6	28.7	-65.4	0.0
2026-01-12 07:48:19.679543	191.7	28.3	-64.9	0.0
2026-01-12 07:48:21.930556	191.7	27.9	-60.2	0.0
2026-01-12 07:48:24.174566	191.8	27.5	-61.7	0.0
2026-01-12 07:48:26.418083	191.9	27.1	-65.0	0.0
2026-01-12 07:48:28.661629	192.0	26.7	-64.4	0.0
2026-01-12 07:48:30.905648	192.0	26.3	-65.9	1.1
2026-01-12 07:48:33.149193	192.1	25.9	-63.6	0.0
2026-01-12 07:48:35.393708	192.2	25.6	-62.1	0.0
2026-01-12 07:48:37.637255	192.2	25.2	-64.8	2.6
2026-01-12 07:48:39.883770	192.3	24.8	-63.7	3.0
2026-01-12 07:48:42.127803	192.3	24.5	-63.8	0.0
2026-01-12 07:48:44.371318	192.4	24.1	-64.9	2.1
2026-01-12 07:48:46.615872	192.5	23.8	-62.8	0.0
2026-01-12 07:48:48.860418	192.5	23.4	-62.0	0.0
2026-01-12 07:48:51.104933	192.6	23.1	-61.8	0.0
2026-01-12 07:48:53.349478	192.6	22.8	-65.7	2.6
2026-01-12 07:48:55.597509	192.7	22.4	-60.8	0.0
2026-01-12 07:48:57.841521	192.7	22.1	-65.1	4.5
2026-01-12 07:49:00.086066	192.8	21.8	-65.4	3.2
2026-01-12 07:49:02.330085	192.8	21.5	-64.4	2.0
2026-01-12 07:49:04.572640	192.9	21.2	-65.0	0.0
2026-01-12 07:49:06.817156	192.9	20.9	-64.3	4.7
2026-01-12 07:49:09.061198	193.0	20.6	-64.5	3.3
2026-01-12 07:49:11.304721	193.0	20.3	-63.9	4.9
2026-01-12 07:49:13.549228	193.1	20.0	-62.6	2.2
2026-01-12 07:49:15.795269	193.1	19.7	-64.7	2.4
2026-01-12 07:49:18.039785	193.2	19.4	-64.0	2.2
2026-01-12 07:49:20.282840	193.2	19.1	-63.8	2.1
2026-01-12 07:49:22.527355	193.3	18.8	-63.9	2.7
2026-01-12 07:49:24.771899	193.3	18.5	-64.5	0.0
2026-01-12 07:49:27.016406	193.3	18.3	-63.9	4.9
2026-01-12 07:49:29.259929	193.4	18.0	-64.0	4.2
2026-01-12 07:49:31.504475	193.4	17.7	-63.4	4.9
2026-01-12 07:49:33.748982	193.5	17.4	-62.6	1.0
2026-01-12 07:49:35.998042	193.5	17.2	-62.9	0.0
2026-01-12 07:49:38.241070	193.6	16.9	-64.0	3.9
2026-01-12 07:49:40.485110	193.6	16.7	-63.7	2.8
2026-01-12 07:49:42.729625	193.6	16.4	-64.2	4.6
2026-01-12 07:49:44.973140	193.7	16.1	-64.0	3.3
2026-01-12 07:49:47.217191	193.7	15.9	-64.4	3.3
2026-01-12 07:49:49.460714	193.7	15.6	-64.0	3.8
2026-01-12 07:49:51.704258	193.8	15.4	-64.0	4.1
2026-01-12 07:49:53.948278	193.8	15.2	-64.1	3.7
2026-01-12 07:49:56.192822	193.8	14.9	-64.0	3.1
2026-01-12 07:49:58.437329	193.9	14.7	-64.5	4.8
2026-01-12 07:50:00.681340	193.9	14.4	-63.5	3.6
2026-01-12 07:50:02.926391	194.0	14.2	-63.6	3.9
2026-01-12 07:50:05.169951	194.0	14.0	-64.3	3.5
2026-01-12 07:50:07.412016	194.0	13.7	-64.6	5.0
2026-01-12 07:50:09.661533	194.1	13.5	-63.0	3.7
2026-01-12 07:50:11.905544	194.1	13.3	-61.5	0.7
2026-01-12 07:50:14.148593	194.1	13.1	-63.0	0.4
2026-01-12 07:50:16.393109	194.1	12.8	-64.6	4.5
2026-01-12 07:50:18.640673	194.2	12.6	-62.6	0.0
2026-01-12 07:50:20.885180	194.2	12.4	-62.8	2.2
2026-01-12 07:50:23.128726	194.2	12.2	-60.6	0.0
2026-01-12 07:50:25.374746	194.3	12.0	-61.3	0.0
2026-01-12 07:50:27.619795	194.3	11.8	-61.0	0.0
2026-01-12 07:50:29.864311	194.3	11.5	-63.9	3.3
2026-01-12 07:50:32.108345	194.4	11.3	-63.9	4.5
2026-01-12 07:50:34.356357	194.4	11.1	-63.3	2.3
2026-01-12 07:50:36.600872	194.4	10.9	-62.9	1.6
2026-01-12 07:50:38.845416	194.4	10.7	-62.6	4.4
2026-01-12 07:50:41.089435	194.5	10.5	-60.2	0.0
2026-01-12 07:50:43.331494	194.5	10.3	-63.4	1.9
2026-01-12 07:50:45.576000	194.5	10.1	-62.8	0.0
2026-01-12 07:50:47.820019	194.6	9.9	-63.0	2.0
2026-01-12 07:50:50.063068	194.6	9.7	-62.2	0.0
2026-01-12 07:50:52.310089	194.6	9.5	-62.9	3.2
2026-01-12 07:50:54.595133	194.6	9.3	-63.7	0.0
2026-01-12 07:50:56.838161	194.7	9.2	-63.7	1.8
2026-01-12 07:50:59.081698	194.7	9.0	-63.6	0.0
2026-01-12 07:51:01.325221	194.7	8.8	-62.9	0.0
2026-01-12 07:51:03.569728	194.7	8.6	-62.7	0.5
2026-01-12 07:51:05.814282	194.8	8.4	-62.4	0.0
2026-01-12 07:51:08.058796	194.8	8.2	-60.8	0.0
2026-01-12 07:51:10.302837	194.8	8.0	-61.4	0.0
2026-01-12 07:51:12.546857	194.8	7.9	-62.7	0.0
2026-01-12 07:51:14.792364	194.9	7.7	-62.1	0.0
2026-01-12 07:51:17.036409	194.9	7.5	-62.3	0.0
2026-01-12 07:51:19.280924	194.9	7.3	-61.5	0.0
2026-01-12 07:51:21.524484	194.9	7.1	-62.5	0.0
2026-01-12 07:51:23.769007	195.0	7.0	-62.5	0.0
2026-01-12 07:51:26.013551	195.0	6.8	-63.4	0.0
2026-01-12 07:51:28.257570	195.0	6.6	-63.7	0.0
2026-01-12 07:51:30.503116	195.0	6.5	-63.1	0.0
2026-01-12 07:51:32.747134	195.0	6.3	-60.8	0.0
2026-01-12 07:51:34.991146	195.1	6.1	-62.1	0.0
2026-01-12 07:51:37.235196	195.1	6.0	-65.0	1.7
2026-01-12 07:51:39.478718	195.1	5.8	-69.7	0.0
2026-01-12 07:51:41.722758	195.1	5.6	-71.0	0.0
2026-01-12 07:51:43.967272	195.2	5.5	-71.7	0.0
2026-01-12 07:51:46.210324	195.2	5.3	-70.8	0.0
2026-01-12 07:51:48.454343	195.2	5.1	-71.2	0.0
2026-01-12 07:51:50.698386	195.2	5.0	-71.4	0.0
#Closed at: 2026-01-12 07:38:50.726907