passes_logs/2026/01/12/PlanumMoscow/PlanumMoscow__20260112_180554_METEOR-M2_3_rec.log

#Pass ID: 20260112_180554_METEOR-M2 3
#Satellite: METEOR-M2 3
#Configuration: METEOR-M2 3
#Start time: 2026-01-12 18:05:59.182306

#LorettStation: 1.0.0 05.05.2024
#Station: PlanumMoscow
#Location: 37.6253844 lon 55.6713361 lat
#TLE: 1 57166U 23091A   25293.99389264  .00000062  00000+0  46113-4 0  9997
#TLE: 2 57166  98.6457 348.4330 0004759 135.3141 224.8422 14.24016546120475

#Time	Az	El	Level	SNR
2026-01-12 18:09:37.594260	181.4	29.2	-64.1	13.8
2026-01-12 18:09:39.839272	181.6	29.6	-65.3	14.9
2026-01-12 18:09:42.084284	181.8	30.0	-65.2	13.5
2026-01-12 18:09:44.327808	182.0	30.4	-65.5	14.5
2026-01-12 18:09:46.570829	182.3	30.9	-65.6	14.8
2026-01-12 18:09:48.815336	182.5	31.3	-65.5	14.9
2026-01-12 18:09:51.057860	182.7	31.7	-64.3	11.2
2026-01-12 18:09:53.301888	183.0	32.2	-64.8	14.1
2026-01-12 18:09:55.545899	183.2	32.6	-65.3	14.8
2026-01-12 18:09:57.789454	183.5	33.1	-65.2	14.5
2026-01-12 18:10:00.031483	183.8	33.6	-65.6	14.2
2026-01-12 18:10:02.272535	184.1	34.0	-66.1	15.1
2026-01-12 18:10:04.513553	184.4	34.5	-65.3	13.8
2026-01-12 18:10:06.757060	184.7	35.0	-65.4	11.3
2026-01-12 18:10:09.000575	185.0	35.5	-65.2	13.5
2026-01-12 18:10:11.244586	185.3	36.0	-65.7	14.0
2026-01-12 18:10:13.488102	185.6	36.5	-64.3	13.0
2026-01-12 18:10:15.731618	185.9	37.0	-65.2	12.9
2026-01-12 18:10:17.975630	186.3	37.5	-63.9	12.1
2026-01-12 18:10:20.219146	186.6	38.0	-65.4	13.4
2026-01-12 18:10:22.463666	187.0	38.6	-65.4	12.6
2026-01-12 18:10:24.707677	187.4	39.1	-65.2	12.4
2026-01-12 18:10:26.951202	187.8	39.6	-65.9	13.0
2026-01-12 18:10:29.191231	188.2	40.2	-65.5	12.1
2026-01-12 18:10:31.431736	188.6	40.8	-66.4	11.7
2026-01-12 18:10:33.677748	189.0	41.3	-65.5	10.4
2026-01-12 18:10:35.919263	189.5	41.9	-65.7	9.8
2026-01-12 18:10:38.163273	189.9	42.5	-65.3	11.8
2026-01-12 18:10:40.405788	190.4	43.1	-65.5	12.8
2026-01-12 18:10:42.649305	190.9	43.7	-65.6	13.6
2026-01-12 18:10:44.893315	191.4	44.3	-66.3	13.7
2026-01-12 18:10:47.137326	192.0	44.9	-65.7	13.2
2026-01-12 18:10:49.385337	192.5	45.5	-65.8	12.7
2026-01-12 18:10:51.628356	193.1	46.1	-66.0	12.7
2026-01-12 18:10:53.872873	193.7	46.7	-66.3	13.6
2026-01-12 18:10:56.116884	194.3	47.4	-66.1	13.5
2026-01-12 18:10:58.360896	195.0	48.0	-65.4	12.2
2026-01-12 18:11:00.603916	195.7	48.7	-66.6	12.9
2026-01-12 18:11:02.851928	196.4	49.3	-66.5	11.8
2026-01-12 18:11:05.095939	197.1	50.0	-66.5	11.3
2026-01-12 18:11:07.338958	197.9	50.6	-66.7	10.4
2026-01-12 18:11:09.581493	198.7	51.3	-65.9	9.0
2026-01-12 18:11:11.823513	199.5	52.0	-67.1	11.1
2026-01-12 18:11:14.067525	200.4	52.6	-67.3	11.5
2026-01-12 18:11:16.311536	201.3	53.3	-67.2	11.3
2026-01-12 18:11:18.554557	202.3	54.0	-67.5	11.4
2026-01-12 18:11:20.797576	203.3	54.7	-66.8	10.6
2026-01-12 18:11:23.040106	204.4	55.3	-66.3	9.8
2026-01-12 18:11:25.280640	205.5	56.0	-66.5	9.4
2026-01-12 18:11:27.524164	206.6	56.7	-67.1	9.7
2026-01-12 18:11:29.767679	207.9	57.3	-67.3	10.3
2026-01-12 18:11:32.011691	209.1	58.0	-66.8	9.0
2026-01-12 18:11:34.255206	210.5	58.7	-67.9	10.9
2026-01-12 18:11:36.498226	211.9	59.3	-67.5	11.1
2026-01-12 18:11:38.742237	213.4	59.9	-68.0	10.1
2026-01-12 18:11:40.986248	214.9	60.6	-67.6	8.5
2026-01-12 18:11:43.230268	216.6	61.2	-67.7	7.8
2026-01-12 18:11:45.474279	218.3	61.8	-67.5	7.0
2026-01-12 18:11:47.718291	220.1	62.4	-68.1	10.0
2026-01-12 18:11:49.962301	222.0	62.9	-67.3	10.3
2026-01-12 18:11:52.205826	223.9	63.4	-67.4	9.7
2026-01-12 18:11:54.449837	226.0	64.0	-67.1	10.5
2026-01-12 18:11:56.691848	228.2	64.4	-67.9	11.1
2026-01-12 18:11:58.935363	230.4	64.9	-68.1	10.2
2026-01-12 18:12:01.176896	232.7	65.3	-67.4	9.3
2026-01-12 18:12:03.420412	235.1	65.7	-67.9	9.7
2026-01-12 18:12:05.663431	237.6	66.0	-68.6	11.2
2026-01-12 18:12:07.910443	240.2	66.3	-67.9	10.4
2026-01-12 18:12:10.153454	242.8	66.6	-68.2	11.0
2026-01-12 18:12:12.395969	245.5	66.8	-68.0	10.5
2026-01-12 18:12:14.640989	248.3	67.0	-67.5	10.7
2026-01-12 18:12:16.884000	251.1	67.1	-67.6	10.9
2026-01-12 18:12:19.127507	253.9	67.2	-67.8	10.6
2026-01-12 18:12:21.370527	256.7	67.2	-67.5	9.3
2026-01-12 18:12:23.612042	259.5	67.2	-67.7	9.2
2026-01-12 18:12:25.855062	262.3	67.1	-67.5	7.9
2026-01-12 18:12:28.098072	265.1	67.0	-67.2	7.7
2026-01-12 18:12:30.339091	267.8	66.8	-68.4	10.0
2026-01-12 18:12:32.582606	270.5	66.6	-68.4	9.9
2026-01-12 18:12:34.826121	273.1	66.3	-68.2	10.2
2026-01-12 18:12:37.070132	275.7	66.0	-68.2	10.0
2026-01-12 18:12:39.318154	278.2	65.6	-67.6	9.2
2026-01-12 18:12:41.561660	280.6	65.3	-67.9	8.4
2026-01-12 18:12:43.805680	282.9	64.8	-67.7	9.3
2026-01-12 18:12:46.049197	285.1	64.4	-66.4	8.4
2026-01-12 18:12:48.292208	287.3	63.9	-67.4	7.6
2026-01-12 18:12:50.536724	289.3	63.4	-68.1	9.1
2026-01-12 18:12:52.781745	291.3	62.8	-68.4	8.3
2026-01-12 18:12:55.025278	293.1	62.3	-68.4	9.9
2026-01-12 18:12:57.268793	294.9	61.7	-67.9	9.5
2026-01-12 18:12:59.512804	296.6	61.1	-68.4	9.6
2026-01-12 18:13:01.756319	298.2	60.5	-68.1	9.1
2026-01-12 18:13:04.000330	299.8	59.9	-67.4	10.2
2026-01-12 18:13:06.243349	301.3	59.2	-68.3	9.7
2026-01-12 18:13:08.486368	302.7	58.6	-68.4	9.8
2026-01-12 18:13:10.729884	304.0	57.9	-66.6	10.5
2026-01-12 18:13:12.970913	305.3	57.3	-67.5	8.9
2026-01-12 18:13:15.210940	306.5	56.6	-67.3	9.6
2026-01-12 18:13:17.451960	307.6	55.9	-67.8	10.5
2026-01-12 18:13:19.695475	308.7	55.3	-67.3	10.8
2026-01-12 18:13:21.939487	309.8	54.6	-67.8	10.2
2026-01-12 18:13:24.183010	310.8	53.9	-67.3	9.2
2026-01-12 18:13:26.428031	311.7	53.3	-66.0	6.9
2026-01-12 18:13:28.672041	312.7	52.6	-67.7	9.7
2026-01-12 18:13:30.915557	313.5	51.9	-67.8	10.3
2026-01-12 18:13:33.158081	314.4	51.3	-67.2	10.9
2026-01-12 18:13:35.401597	315.2	50.6	-66.1	7.9
2026-01-12 18:13:37.643625	315.9	49.9	-65.9	7.0
2026-01-12 18:13:39.887150	316.7	49.3	-67.4	11.0
2026-01-12 18:13:42.130664	317.4	48.6	-66.4	8.8
2026-01-12 18:13:44.373180	318.0	48.0	-66.7	8.2
2026-01-12 18:13:46.617191	318.7	47.4	-66.1	10.0
2026-01-12 18:13:48.862202	319.3	46.7	-66.4	10.0
2026-01-12 18:13:51.106213	319.9	46.1	-67.0	11.1
2026-01-12 18:13:53.348728	320.5	45.5	-67.7	11.7
2026-01-12 18:13:55.594236	321.0	44.9	-67.6	12.6
2026-01-12 18:13:57.837256	321.6	44.3	-67.3	11.7
2026-01-12 18:14:00.081267	322.1	43.7	-66.7	10.5
2026-01-12 18:14:02.323278	322.6	43.1	-67.4	11.3
2026-01-12 18:14:04.566298	323.1	42.5	-67.1	12.2
2026-01-12 18:14:06.810319	323.5	41.9	-66.8	11.2
2026-01-12 18:14:09.054329	324.0	41.3	-66.7	11.3
2026-01-12 18:14:11.296349	324.4	40.8	-66.6	11.3
2026-01-12 18:14:13.543369	324.8	40.2	-66.3	11.8
2026-01-12 18:14:15.786389	325.2	39.7	-66.2	11.5
2026-01-12 18:14:18.029915	325.6	39.1	-66.4	11.8
2026-01-12 18:14:20.272934	326.0	38.6	-65.8	10.5
2026-01-12 18:14:22.519450	326.4	38.1	-66.3	11.0
2026-01-12 18:14:24.760470	326.7	37.6	-66.3	12.4
2026-01-12 18:14:27.003976	327.1	37.0	-65.3	9.3
2026-01-12 18:14:29.247987	327.4	36.5	-66.0	12.0
2026-01-12 18:14:31.490008	327.7	36.0	-66.4	11.0
2026-01-12 18:14:33.733020	328.0	35.5	-66.4	11.0
2026-01-12 18:14:35.975049	328.3	35.1	-65.6	11.3
2026-01-12 18:14:38.218068	328.6	34.6	-66.0	11.2
2026-01-12 18:14:40.460592	328.9	34.1	-65.9	11.8
2026-01-12 18:14:42.701610	329.2	33.6	-66.3	11.8
2026-01-12 18:14:44.944134	329.5	33.2	-65.9	11.2
2026-01-12 18:14:47.190155	329.7	32.7	-64.0	7.7
2026-01-12 18:14:49.432661	330.0	32.3	-63.6	8.0
2026-01-12 18:14:51.676682	330.2	31.8	-64.7	8.8
2026-01-12 18:14:53.920693	330.5	31.4	-65.5	10.2
2026-01-12 18:14:56.164209	330.7	31.0	-65.6	11.1
2026-01-12 18:14:58.408716	331.0	30.5	-64.9	10.3
2026-01-12 18:15:00.656241	331.2	30.1	-65.0	10.5
2026-01-12 18:15:02.899755	331.4	29.7	-66.0	11.0
2026-01-12 18:15:05.143270	331.6	29.3	-65.7	11.3
2026-01-12 18:15:07.386786	331.8	28.9	-65.5	10.7
2026-01-12 18:15:09.630798	332.0	28.5	-65.9	11.6
2026-01-12 18:15:11.874314	332.2	28.1	-65.7	11.6
2026-01-12 18:15:14.117829	332.4	27.7	-65.6	11.6
2026-01-12 18:15:16.359856	332.6	27.3	-65.9	11.8
2026-01-12 18:15:18.605868	332.8	27.0	-65.6	11.8
2026-01-12 18:15:20.849879	333.0	26.6	-65.5	10.0
2026-01-12 18:15:23.093890	333.2	26.2	-66.1	10.9
2026-01-12 18:15:25.336414	333.3	25.9	-66.5	12.0
2026-01-12 18:15:27.579432	333.5	25.5	-66.0	9.3
2026-01-12 18:15:29.823444	333.7	25.2	-65.9	13.1
2026-01-12 18:15:32.065968	333.9	24.8	-66.5	12.6
2026-01-12 18:15:34.312484	334.0	24.5	-66.4	12.4
2026-01-12 18:15:36.558000	334.2	24.1	-65.6	11.4
2026-01-12 18:15:38.801028	334.3	23.8	-66.3	12.1
2026-01-12 18:15:41.045553	334.5	23.5	-66.2	11.1
2026-01-12 18:15:43.288573	334.6	23.1	-66.6	11.7
2026-01-12 18:15:45.532583	334.8	22.8	-65.3	9.0
2026-01-12 18:15:47.777595	334.9	22.5	-66.2	10.2
2026-01-12 18:15:50.023134	335.1	22.2	-66.1	10.9
2026-01-12 18:15:52.266154	335.2	21.9	-66.1	10.7
2026-01-12 18:15:54.509670	335.3	21.6	-66.1	10.8
2026-01-12 18:15:56.752194	335.5	21.3	-65.9	10.5
2026-01-12 18:15:58.996214	335.6	21.0	-65.9	10.9
2026-01-12 18:16:01.238739	335.7	20.7	-66.3	11.9
2026-01-12 18:16:03.482253	335.8	20.4	-66.2	10.8
2026-01-12 18:16:05.726264	336.0	20.1	-66.7	11.4
2026-01-12 18:16:07.973276	336.1	19.8	-66.1	9.8
2026-01-12 18:16:10.216296	336.2	19.5	-66.1	10.7
2026-01-12 18:16:12.459315	336.3	19.2	-66.2	10.3
2026-01-12 18:16:14.705832	336.4	18.9	-65.9	9.4
2026-01-12 18:16:16.949843	336.6	18.7	-65.9	10.1
2026-01-12 18:16:19.193868	336.7	18.4	-65.4	9.2
2026-01-12 18:16:21.437383	336.8	18.1	-65.7	8.8
2026-01-12 18:16:23.682403	336.9	17.9	-65.6	9.1
2026-01-12 18:16:25.926414	337.0	17.6	-66.5	10.1
2026-01-12 18:16:28.170921	337.1	17.3	-66.0	9.9
2026-01-12 18:16:30.414437	337.2	17.1	-66.0	8.4
2026-01-12 18:16:32.657952	337.3	16.8	-65.7	9.5
2026-01-12 18:16:34.901467	337.4	16.6	-66.1	9.6
2026-01-12 18:16:37.144992	337.5	16.3	-65.7	9.1
2026-01-12 18:16:39.389011	337.6	16.1	-66.0	9.4
2026-01-12 18:16:41.633527	337.7	15.8	-66.1	9.2
2026-01-12 18:16:43.878034	337.8	15.6	-65.9	10.0
2026-01-12 18:16:46.122054	337.9	15.4	-65.7	9.0
2026-01-12 18:16:48.366074	338.0	15.1	-65.8	8.4
2026-01-12 18:16:50.608598	338.1	14.9	-66.1	9.1
2026-01-12 18:16:52.852114	338.1	14.6	-66.2	9.0
2026-01-12 18:16:55.095134	338.2	14.4	-65.8	8.3
2026-01-12 18:16:57.336665	338.3	14.2	-66.0	9.3
2026-01-12 18:16:59.578694	338.4	14.0	-66.2	7.9
2026-01-12 18:17:01.820724	338.5	13.7	-65.8	7.4
2026-01-12 18:17:04.067744	338.6	13.5	-66.0	9.0
2026-01-12 18:17:06.310286	338.7	13.3	-66.1	9.0
2026-01-12 18:17:08.553307	338.7	13.1	-65.8	8.1
2026-01-12 18:17:10.799847	338.8	12.9	-65.4	7.2
2026-01-12 18:17:13.041875	338.9	12.6	-65.3	6.5
2026-01-12 18:17:15.284903	339.0	12.4	-65.5	7.2
2026-01-12 18:17:17.528419	339.1	12.2	-65.5	7.1
2026-01-12 18:17:19.779432	339.1	12.0	-66.1	8.0
2026-01-12 18:17:22.023442	339.2	11.8	-65.3	7.9
2026-01-12 18:17:24.265965	339.3	11.6	-65.1	6.5
2026-01-12 18:17:26.509991	339.3	11.4	-66.1	7.9
2026-01-12 18:17:28.754498	339.4	11.2	-65.1	7.8
2026-01-12 18:17:30.999016	339.5	11.0	-65.6	7.3
2026-01-12 18:17:33.243522	339.6	10.8	-65.7	7.0
2026-01-12 18:17:35.488037	339.6	10.6	-65.0	6.5
2026-01-12 18:17:37.731553	339.7	10.4	-65.8	7.8
2026-01-12 18:17:39.973580	339.8	10.2	-64.0	5.5
2026-01-12 18:17:42.216103	339.8	10.0	-65.6	7.0
2026-01-12 18:17:44.462619	339.9	9.8	-66.1	7.0
2026-01-12 18:17:46.706630	340.0	9.6	-65.5	6.0
2026-01-12 18:17:48.950145	340.0	9.4	-65.8	6.4
2026-01-12 18:17:51.195175	340.1	9.2	-64.7	3.1
2026-01-12 18:17:53.439186	340.2	9.1	-66.0	7.5
2026-01-12 18:17:55.683197	340.2	8.9	-66.0	7.7
2026-01-12 18:17:57.926712	340.3	8.7	-65.5	5.5
2026-01-12 18:18:00.174742	340.3	8.5	-66.2	6.0
2026-01-12 18:18:02.418753	340.4	8.3	-66.2	6.0
2026-01-12 18:18:04.662277	340.5	8.1	-65.6	3.5
2026-01-12 18:18:06.907794	340.5	8.0	-64.4	5.2
2026-01-12 18:18:09.151806	340.6	7.8	-64.1	4.4
2026-01-12 18:18:11.396313	340.6	7.6	-65.3	6.1
2026-01-12 18:18:13.640820	340.7	7.4	-65.1	5.1
2026-01-12 18:18:15.890327	340.8	7.3	-64.5	5.0
2026-01-12 18:18:18.134834	340.8	7.1	-65.7	5.1
2026-01-12 18:18:20.379341	340.9	6.9	-65.6	3.8
2026-01-12 18:18:22.623352	340.9	6.8	-66.4	3.9
2026-01-12 18:18:24.867859	341.0	6.6	-65.9	4.8
2026-01-12 18:18:27.112366	341.0	6.4	-64.8	4.1
2026-01-12 18:18:29.356377	341.1	6.3	-64.4	3.1
2026-01-12 18:18:31.600389	341.1	6.1	-65.2	1.3
2026-01-12 18:18:33.844896	341.2	5.9	-66.2	4.1
2026-01-12 18:18:36.088411	341.3	5.8	-68.5	0.0
2026-01-12 18:18:38.332918	341.3	5.6	-68.2	0.0
2026-01-12 18:18:40.576929	341.4	5.4	-69.0	0.0
2026-01-12 18:18:42.821436	341.4	5.3	-67.3	0.0
2026-01-12 18:18:45.065943	341.5	5.1	-66.6	0.0
#Closed at: 2026-01-12 18:05:54.183210