passes_logs/2026/01/12/PlanumMoscow/PlanumMoscow__20260112_183119_METOP-B_rec.log

#Pass ID: 20260112_183119_METOP-B
#Satellite: METOP-B
#Configuration: METOP-B
#Start time: 2026-01-12 18:31:24.312782

#LorettStation: 1.0.0 05.05.2024
#Station: PlanumMoscow
#Location: 37.6253844 lon 55.6713361 lat
#TLE: 1 38771U 12049A   25293.92766658  .00000266  00000+0  14193-3 0  9996
#TLE: 2 38771  98.6882 344.7603 0001609 341.5209  18.5909 14.21379342679275

#Time	Az	El	Level	SNR
2026-01-12 18:35:02.799609	217.4	24.2	-62.6	3.2
2026-01-12 18:35:05.043638	217.9	24.5	-63.9	4.4
2026-01-12 18:35:07.287194	218.4	24.7	-63.6	3.3
2026-01-12 18:35:09.531254	218.8	25.0	-62.5	0.5
2026-01-12 18:35:11.775280	219.3	25.2	-61.9	0.9
2026-01-12 18:35:14.018825	219.8	25.5	-62.8	3.6
2026-01-12 18:35:16.263339	220.3	25.8	-62.4	0.0
2026-01-12 18:35:18.506388	220.8	26.0	-62.4	1.5
2026-01-12 18:35:20.750406	221.3	26.3	-62.2	0.0
2026-01-12 18:35:22.993456	221.9	26.5	-62.4	0.0
2026-01-12 18:35:25.236980	222.4	26.8	-62.4	0.0
2026-01-12 18:35:27.480030	222.9	27.0	-60.9	0.0
2026-01-12 18:35:29.723552	223.5	27.3	-62.5	0.8
2026-01-12 18:35:31.966594	224.0	27.5	-62.7	1.6
2026-01-12 18:35:34.214606	224.6	27.8	-62.2	0.0
2026-01-12 18:35:36.458625	225.2	28.0	-62.4	0.0
2026-01-12 18:35:38.702179	225.7	28.3	-61.5	0.0
2026-01-12 18:35:40.946207	226.3	28.5	-62.8	0.0
2026-01-12 18:35:43.188760	226.9	28.8	-63.4	0.6
2026-01-12 18:35:45.431835	227.5	29.0	-63.2	0.0
2026-01-12 18:35:47.674416	228.1	29.2	-63.0	0.0
2026-01-12 18:35:49.919932	228.8	29.5	-63.5	0.2
2026-01-12 18:35:52.163447	229.4	29.7	-62.0	0.0
2026-01-12 18:35:54.406490	230.1	30.0	-62.6	0.0
2026-01-12 18:35:56.649517	230.7	30.2	-62.2	0.0
2026-01-12 18:35:58.892087	231.4	30.4	-62.5	0.0
2026-01-12 18:36:01.135114	232.0	30.7	-61.4	0.0
2026-01-12 18:36:03.378678	232.7	30.9	-62.0	0.0
2026-01-12 18:36:05.621697	233.4	31.1	-61.3	0.0
2026-01-12 18:36:07.867741	234.1	31.4	-62.1	0.0
2026-01-12 18:36:10.110761	234.8	31.6	-59.9	0.0
2026-01-12 18:36:12.353781	235.5	31.8	-61.5	0.0
2026-01-12 18:36:14.598338	236.3	32.0	-60.6	0.0
2026-01-12 18:36:16.840869	237.0	32.2	-61.8	0.0
2026-01-12 18:36:19.085416	237.8	32.4	-61.2	0.0
2026-01-12 18:36:21.329436	238.5	32.6	-59.7	0.0
2026-01-12 18:36:23.572514	239.3	32.8	-59.8	0.0
2026-01-12 18:36:25.815542	240.1	33.0	-61.4	0.0
2026-01-12 18:36:28.057075	240.9	33.2	-62.4	0.0
2026-01-12 18:36:30.301126	241.6	33.4	-62.8	0.0
2026-01-12 18:36:32.545153	242.5	33.6	-62.2	0.0
2026-01-12 18:36:34.787235	243.3	33.8	-62.4	0.0
2026-01-12 18:36:37.030288	244.1	33.9	-59.3	0.0
2026-01-12 18:36:39.273324	244.9	34.1	-61.8	0.0
2026-01-12 18:36:41.516840	245.8	34.3	-60.9	0.0
2026-01-12 18:36:43.757916	246.6	34.4	-60.5	0.0
2026-01-12 18:36:46.001442	247.4	34.6	-60.9	0.0
2026-01-12 18:36:48.250454	248.3	34.7	-63.2	0.0
2026-01-12 18:36:50.494512	249.2	34.8	-60.7	0.0
2026-01-12 18:36:52.739027	250.1	35.0	-60.2	0.0
2026-01-12 18:36:54.982582	250.9	35.1	-60.4	0.0
2026-01-12 18:36:57.227601	251.8	35.2	-61.8	0.0
2026-01-12 18:36:59.471158	252.7	35.3	-60.5	0.0
2026-01-12 18:37:01.714696	253.6	35.4	-63.4	0.0
2026-01-12 18:37:03.957755	254.5	35.5	-62.1	0.0
2026-01-12 18:37:06.201296	255.4	35.6	-62.4	0.0
2026-01-12 18:37:08.445306	256.3	35.7	-62.2	0.0
2026-01-12 18:37:10.689357	257.3	35.7	-61.1	0.0
2026-01-12 18:37:12.932401	258.2	35.8	-59.8	0.0
2026-01-12 18:37:15.176468	259.1	35.8	-60.2	0.0
2026-01-12 18:37:17.419504	260.0	35.9	-62.1	0.0
2026-01-12 18:37:19.663554	261.0	35.9	-62.2	0.0
2026-01-12 18:37:21.907566	261.9	36.0	-62.8	0.0
2026-01-12 18:37:24.151099	262.8	36.0	-63.9	2.1
2026-01-12 18:37:26.394653	263.8	36.0	-64.0	0.0
2026-01-12 18:37:28.638705	264.7	36.0	-61.8	0.0
2026-01-12 18:37:30.882221	265.6	36.0	-62.0	0.0
2026-01-12 18:37:33.126240	266.6	36.0	-61.6	0.0
2026-01-12 18:37:35.370787	267.5	35.9	-63.7	0.0
2026-01-12 18:37:37.617320	268.4	35.9	-61.4	0.0
2026-01-12 18:37:39.860868	269.3	35.9	-60.6	0.0
2026-01-12 18:37:42.104879	270.3	35.8	-61.9	0.0
2026-01-12 18:37:44.352909	271.2	35.8	-60.7	0.0
2026-01-12 18:37:46.595966	272.1	35.7	-59.6	0.0
2026-01-12 18:37:48.839490	273.0	35.6	-62.0	0.0
2026-01-12 18:37:51.066643	273.9	35.6	-62.1	0.0
2026-01-12 18:37:53.311678	274.8	35.5	-61.9	0.1
2026-01-12 18:37:55.555232	275.7	35.4	-61.4	0.0
2026-01-12 18:37:57.797757	276.6	35.3	-63.4	2.0
2026-01-12 18:38:00.041837	277.5	35.2	-63.0	0.0
2026-01-12 18:38:02.284368	278.4	35.1	-63.3	0.0
2026-01-12 18:38:04.526892	279.3	34.9	-60.1	0.0
2026-01-12 18:38:06.769424	280.2	34.8	-61.2	0.0
2026-01-12 18:38:09.015453	281.0	34.7	-62.6	0.5
2026-01-12 18:38:11.258543	281.9	34.5	-62.3	0.0
2026-01-12 18:38:13.500082	282.7	34.4	-62.5	1.2
2026-01-12 18:38:15.742150	283.6	34.2	-62.3	0.0
2026-01-12 18:38:17.988658	284.4	34.1	-64.9	2.4
2026-01-12 18:38:20.232706	285.2	33.9	-64.7	3.3
2026-01-12 18:38:22.476222	286.0	33.7	-63.8	0.0
2026-01-12 18:38:24.718787	286.8	33.5	-64.6	1.8
2026-01-12 18:38:26.962302	287.6	33.4	-62.6	0.0
2026-01-12 18:38:29.206321	288.4	33.2	-60.9	0.0
2026-01-12 18:38:31.447886	289.2	33.0	-64.2	3.6
2026-01-12 18:38:33.695898	290.0	32.8	-64.6	0.8
2026-01-12 18:38:35.938925	290.7	32.6	-64.2	1.0
2026-01-12 18:38:38.181983	291.5	32.4	-64.7	3.7
2026-01-12 18:38:40.429531	292.2	32.2	-64.2	2.3
2026-01-12 18:38:42.672091	293.0	32.0	-64.4	1.2
2026-01-12 18:38:44.914120	293.7	31.7	-64.1	0.8
2026-01-12 18:38:47.158674	294.4	31.5	-65.5	1.7
2026-01-12 18:38:49.404217	295.1	31.3	-65.2	0.6
2026-01-12 18:38:51.647299	295.8	31.1	-65.6	3.4
2026-01-12 18:38:53.891814	296.5	30.8	-65.5	2.1
2026-01-12 18:38:56.139384	297.2	30.6	-66.0	3.8
2026-01-12 18:38:58.382952	297.8	30.4	-66.0	3.8
2026-01-12 18:39:00.626995	298.5	30.2	-66.0	4.2
2026-01-12 18:39:02.871006	299.2	29.9	-65.4	4.0
2026-01-12 18:39:05.114034	299.8	29.7	-65.7	4.2
2026-01-12 18:39:07.358084	300.4	29.4	-65.6	3.1
2026-01-12 18:39:09.600616	301.0	29.2	-65.8	4.8
2026-01-12 18:39:11.843636	301.7	29.0	-66.1	5.4
2026-01-12 18:39:14.085168	302.3	28.7	-66.8	6.4
2026-01-12 18:39:16.329228	302.8	28.5	-66.6	7.2
2026-01-12 18:39:18.572752	303.4	28.2	-66.6	5.9
2026-01-12 18:39:20.817821	304.0	28.0	-65.6	5.2
2026-01-12 18:39:23.059849	304.6	27.7	-66.5	6.7
2026-01-12 18:39:25.302868	305.1	27.5	-66.2	5.8
2026-01-12 18:39:27.545402	305.7	27.2	-66.2	6.2
2026-01-12 18:39:29.789926	306.2	27.0	-65.9	5.6
2026-01-12 18:39:32.032450	306.8	26.7	-66.3	6.5
2026-01-12 18:39:34.276478	307.3	26.5	-66.2	6.6
2026-01-12 18:39:36.523013	307.8	26.2	-65.7	6.3
2026-01-12 18:39:38.766042	308.3	26.0	-66.1	6.1
2026-01-12 18:39:41.008069	308.8	25.7	-65.4	5.8
2026-01-12 18:39:43.251089	309.3	25.5	-66.1	6.5
2026-01-12 18:39:45.498622	309.8	25.2	-66.1	7.0
2026-01-12 18:39:47.740650	310.3	25.0	-66.6	7.2
2026-01-12 18:39:49.983670	310.7	24.7	-66.5	6.2
2026-01-12 18:39:52.226698	311.2	24.5	-66.6	6.1
2026-01-12 18:39:54.475214	311.7	24.2	-66.4	5.4
2026-01-12 18:39:56.720243	312.1	24.0	-66.5	5.9
2026-01-12 18:39:58.962271	312.5	23.7	-66.3	5.8
2026-01-12 18:40:01.207794	313.0	23.5	-66.0	6.1
2026-01-12 18:40:03.448821	313.4	23.2	-66.0	5.7
2026-01-12 18:40:05.691335	313.8	23.0	-66.0	4.6
2026-01-12 18:40:07.933354	314.2	22.7	-66.5	4.4
2026-01-12 18:40:10.174869	314.7	22.5	-67.0	5.2
2026-01-12 18:40:12.415887	315.1	22.3	-66.7	5.4
2026-01-12 18:40:14.658394	315.5	22.0	-66.8	5.3
2026-01-12 18:40:16.902909	315.9	21.8	-66.7	4.8
2026-01-12 18:40:19.145425	316.2	21.5	-66.5	4.9
2026-01-12 18:40:21.387451	316.6	21.3	-66.8	4.8
2026-01-12 18:40:23.629957	317.0	21.1	-66.9	4.5
2026-01-12 18:40:25.875472	317.4	20.8	-66.9	4.1
2026-01-12 18:40:28.118987	317.7	20.6	-66.0	3.8
2026-01-12 18:40:30.362998	318.1	20.4	-66.6	4.8
2026-01-12 18:40:32.605520	318.4	20.1	-66.4	5.3
2026-01-12 18:40:34.848531	318.8	19.9	-66.0	3.5
2026-01-12 18:40:37.092541	319.1	19.7	-66.5	4.3
2026-01-12 18:40:39.336552	319.5	19.4	-66.4	3.9
2026-01-12 18:40:41.580068	319.8	19.2	-66.7	5.4
2026-01-12 18:40:43.825079	320.1	19.0	-67.0	4.3
2026-01-12 18:40:46.069090	320.4	18.8	-66.5	5.6
2026-01-12 18:40:48.312605	320.8	18.5	-67.1	4.5
2026-01-12 18:40:50.556616	321.1	18.3	-66.8	5.3
2026-01-12 18:40:52.799130	321.4	18.1	-66.3	5.6
2026-01-12 18:40:55.042149	321.7	17.9	-66.4	4.7
2026-01-12 18:40:57.290161	322.0	17.6	-66.0	4.0
2026-01-12 18:40:59.532684	322.3	17.4	-66.0	5.7
2026-01-12 18:41:01.775198	322.6	17.2	-66.3	5.5
2026-01-12 18:41:04.017714	322.9	17.0	-66.4	5.2
2026-01-12 18:41:06.261229	323.1	16.8	-66.4	5.8
2026-01-12 18:41:08.503247	323.4	16.6	-66.7	6.2
2026-01-12 18:41:10.747258	323.7	16.4	-66.0	4.5
2026-01-12 18:41:12.994278	324.0	16.1	-66.4	4.4
2026-01-12 18:41:15.237298	324.2	15.9	-66.5	5.0
2026-01-12 18:41:17.480317	324.5	15.7	-66.6	4.2
2026-01-12 18:41:19.723328	324.8	15.5	-66.4	5.0
2026-01-12 18:41:21.965339	325.0	15.3	-66.5	3.9
2026-01-12 18:41:24.205357	325.3	15.1	-67.3	3.7
2026-01-12 18:41:26.446376	325.5	14.9	-66.5	4.7
2026-01-12 18:41:28.686386	325.8	14.7	-66.6	3.7
2026-01-12 18:41:30.928397	326.0	14.5	-66.5	4.3
2026-01-12 18:41:33.170903	326.3	14.3	-67.0	4.0
2026-01-12 18:41:35.413922	326.5	14.1	-66.3	3.9
2026-01-12 18:41:37.657933	326.8	13.9	-66.7	3.8
2026-01-12 18:41:39.901956	327.0	13.7	-66.9	4.1
2026-01-12 18:41:42.143471	327.2	13.5	-67.2	4.4
2026-01-12 18:41:44.382481	327.4	13.3	-67.1	3.6
2026-01-12 18:41:46.623997	327.7	13.1	-66.7	1.2
2026-01-12 18:41:48.866503	327.9	12.9	-66.6	2.1
2026-01-12 18:41:51.109514	328.1	12.7	-67.2	3.5
2026-01-12 18:41:53.350524	328.3	12.6	-66.4	2.2
2026-01-12 18:41:55.593534	328.5	12.4	-66.8	2.3
2026-01-12 18:41:57.836049	328.7	12.2	-66.3	2.4
2026-01-12 18:42:00.078059	329.0	12.0	-66.2	0.5
2026-01-12 18:42:02.321079	329.2	11.8	-66.9	3.2
2026-01-12 18:42:04.563594	329.4	11.6	-66.7	2.4
2026-01-12 18:42:06.807612	329.6	11.4	-66.4	2.7
2026-01-12 18:42:09.050623	329.8	11.3	-66.4	0.7
2026-01-12 18:42:11.294634	330.0	11.1	-66.5	2.4
2026-01-12 18:42:13.538149	330.2	10.9	-66.4	1.5
2026-01-12 18:42:15.782168	330.3	10.7	-66.5	3.1
2026-01-12 18:42:18.026179	330.5	10.5	-66.5	2.7
2026-01-12 18:42:20.270191	330.7	10.4	-66.7	2.4
2026-01-12 18:42:22.514201	330.9	10.2	-66.2	2.4
2026-01-12 18:42:24.761717	331.1	10.0	-66.4	2.6
2026-01-12 18:42:27.005242	331.3	9.8	-66.7	1.5
2026-01-12 18:42:29.249261	331.5	9.7	-66.5	1.2
2026-01-12 18:42:31.489783	331.6	9.5	-66.6	2.0
2026-01-12 18:42:33.733794	331.8	9.3	-66.4	1.5
2026-01-12 18:42:35.977309	332.0	9.2	-66.3	2.2
2026-01-12 18:42:38.217822	332.2	9.0	-66.6	1.8
2026-01-12 18:42:40.461361	332.3	8.8	-66.4	0.0
2026-01-12 18:42:42.699378	332.5	8.7	-65.9	0.0
2026-01-12 18:42:44.936388	332.7	8.5	-66.6	0.3
2026-01-12 18:42:47.176902	332.8	8.3	-66.1	0.0
2026-01-12 18:42:49.416912	333.0	8.2	-66.3	0.0
2026-01-12 18:42:51.657923	333.1	8.0	-66.3	0.0
2026-01-12 18:42:53.899951	333.3	7.8	-66.6	0.0
2026-01-12 18:42:56.139465	333.5	7.7	-66.6	0.0
2026-01-12 18:42:58.379980	333.6	7.5	-66.3	0.0
2026-01-12 18:43:00.622494	333.8	7.4	-66.0	0.0
2026-01-12 18:43:02.862016	333.9	7.2	-65.5	0.2
2026-01-12 18:43:05.106531	334.1	7.0	-65.5	0.0
2026-01-12 18:43:07.348541	334.2	6.9	-63.3	0.0
2026-01-12 18:43:09.590055	334.4	6.7	-64.2	0.0
2026-01-12 18:43:11.832569	334.5	6.6	-64.3	0.0
2026-01-12 18:43:14.077581	334.7	6.4	-64.6	0.0
2026-01-12 18:43:16.321087	334.8	6.3	-64.9	0.0
2026-01-12 18:43:18.564602	334.9	6.1	-64.8	0.0
2026-01-12 18:43:20.805124	335.1	6.0	-67.8	0.0
2026-01-12 18:43:23.046638	335.2	5.8	-68.7	0.0
2026-01-12 18:43:25.288657	335.4	5.7	-68.3	0.0
2026-01-12 18:43:27.531668	335.5	5.5	-69.7	0.0
2026-01-12 18:43:29.777182	335.6	5.4	-69.3	0.0
2026-01-12 18:43:32.018712	335.8	5.2	-70.8	0.0
2026-01-12 18:43:34.261226	335.9	5.1	-69.6	0.0
#Closed at: 2026-01-12 18:31:19.314466