passes_logs/2026/01/12/PlanumMoscow/PlanumMoscow__20260112_172844_METOP-C_rec.log

#Pass ID: 20260112_172844_METOP-C
#Satellite: METOP-C
#Configuration: METOP-C
#Start time: 2026-01-12 17:28:49.962172

#LorettStation: 1.0.0 05.05.2024
#Station: PlanumMoscow
#Location: 37.6253844 lon 55.6713361 lat
#TLE: 1 43689U 18087A   25293.88981035  .00000265  00000+0  14109-3 0  9997
#TLE: 2 43689  98.7006 352.4487 0002041 122.1097 238.0279 14.21482740360838

#Time	Az	El	Level	SNR
2026-01-12 17:32:28.430565	129.4	28.1	-65.9	5.0
2026-01-12 17:32:30.677142	129.1	28.5	-65.1	1.9
2026-01-12 17:32:32.920668	128.7	28.8	-66.0	2.9
2026-01-12 17:32:35.164680	128.4	29.2	-65.7	0.0
2026-01-12 17:32:37.408721	128.1	29.6	-66.2	3.7
2026-01-12 17:32:39.652742	127.7	30.0	-66.6	3.4
2026-01-12 17:32:41.895308	127.4	30.4	-66.2	0.0
2026-01-12 17:32:44.139328	127.0	30.8	-66.5	1.7
2026-01-12 17:32:46.382377	126.6	31.2	-66.6	0.0
2026-01-12 17:32:48.625422	126.3	31.6	-65.7	0.0
2026-01-12 17:32:50.869433	125.9	32.0	-66.1	1.5
2026-01-12 17:32:53.112494	125.5	32.4	-65.7	0.0
2026-01-12 17:32:55.355521	125.1	32.8	-65.4	0.0
2026-01-12 17:32:57.599089	124.6	33.2	-65.9	0.0
2026-01-12 17:32:59.843614	124.2	33.6	-66.6	2.0
2026-01-12 17:33:02.087670	123.7	34.0	-65.8	0.0
2026-01-12 17:33:04.334682	123.3	34.5	-66.9	1.9
2026-01-12 17:33:06.577741	122.8	34.9	-66.6	2.0
2026-01-12 17:33:08.820274	122.3	35.3	-66.7	1.4
2026-01-12 17:33:11.064819	121.8	35.8	-66.5	0.0
2026-01-12 17:33:13.312831	121.3	36.2	-67.5	1.1
2026-01-12 17:33:15.556365	120.8	36.6	-66.6	0.0
2026-01-12 17:33:17.800406	120.3	37.1	-67.0	0.0
2026-01-12 17:33:20.047952	119.7	37.5	-66.1	0.0
2026-01-12 17:33:22.292459	119.1	38.0	-66.7	0.0
2026-01-12 17:33:24.536966	118.6	38.5	-66.2	0.0
2026-01-12 17:33:26.781511	118.0	38.9	-66.8	0.0
2026-01-12 17:33:29.026035	117.3	39.4	-67.0	0.0
2026-01-12 17:33:31.271046	116.7	39.8	-66.3	0.0
2026-01-12 17:33:33.515097	116.0	40.3	-66.5	0.0
2026-01-12 17:33:35.758620	115.4	40.8	-65.4	0.0
2026-01-12 17:33:38.006167	114.7	41.3	-67.6	0.0
2026-01-12 17:33:40.250186	113.9	41.7	-67.5	0.0
2026-01-12 17:33:42.494220	113.2	42.2	-66.0	0.0
2026-01-12 17:33:44.742239	112.4	42.7	-67.5	0.0
2026-01-12 17:33:46.986784	111.7	43.1	-68.8	0.0
2026-01-12 17:33:49.231299	110.9	43.6	-67.0	0.0
2026-01-12 17:33:51.475806	110.0	44.1	-67.6	0.0
2026-01-12 17:33:53.721854	109.2	44.6	-68.8	0.0
2026-01-12 17:33:55.965369	108.3	45.0	-68.0	0.0
2026-01-12 17:33:58.209409	107.4	45.5	-68.6	0.0
2026-01-12 17:34:00.453429	106.4	45.9	-67.5	0.0
2026-01-12 17:34:02.697970	105.5	46.4	-67.7	0.0
2026-01-12 17:34:04.942477	104.5	46.9	-68.8	0.0
2026-01-12 17:34:07.186527	103.5	47.3	-68.1	0.0
2026-01-12 17:34:09.430547	102.4	47.8	-68.6	0.0
2026-01-12 17:34:11.674558	101.3	48.2	-68.3	0.0
2026-01-12 17:34:13.919103	100.2	48.6	-68.2	0.0
2026-01-12 17:34:16.163152	99.1	49.0	-68.9	0.0
2026-01-12 17:34:18.411708	97.9	49.5	-67.5	0.0
2026-01-12 17:34:20.656214	96.7	49.9	-65.8	0.0
2026-01-12 17:34:22.900257	95.4	50.3	-68.2	0.0
2026-01-12 17:34:25.144268	94.2	50.6	-67.5	0.0
2026-01-12 17:34:27.392775	92.9	51.0	-67.0	0.0
2026-01-12 17:34:29.636321	91.5	51.4	-66.9	0.0
2026-01-12 17:34:31.880835	90.2	51.7	-67.2	0.0
2026-01-12 17:34:34.128877	88.8	52.0	-67.1	0.0
2026-01-12 17:34:36.373408	87.3	52.4	-66.4	0.0
2026-01-12 17:34:38.617450	85.9	52.6	-67.0	0.0
2026-01-12 17:34:40.861965	84.4	52.9	-65.3	0.0
2026-01-12 17:34:43.106012	82.9	53.2	-64.6	0.0
2026-01-12 17:34:45.349536	81.3	53.4	-66.0	0.0
2026-01-12 17:34:47.622082	79.7	53.6	-65.7	0.0
2026-01-12 17:34:49.866589	78.1	53.8	-63.6	0.0
2026-01-12 17:34:52.110112	76.5	54.0	-65.2	0.0
2026-01-12 17:34:54.354153	74.9	54.2	-64.6	0.0
2026-01-12 17:34:56.603669	73.3	54.3	-64.3	0.0
2026-01-12 17:34:58.847710	71.6	54.4	-65.5	0.0
2026-01-12 17:35:01.092225	69.9	54.5	-64.7	0.0
2026-01-12 17:35:03.335274	68.3	54.5	-63.8	0.0
2026-01-12 17:35:05.581789	66.6	54.6	-63.3	0.0
2026-01-12 17:35:07.826296	64.9	54.6	-65.5	0.0
2026-01-12 17:35:10.070338	63.2	54.6	-63.7	0.0
2026-01-12 17:35:12.315892	61.5	54.5	-64.4	0.0
2026-01-12 17:35:14.560399	59.9	54.5	-62.5	0.0
2026-01-12 17:35:16.804915	58.2	54.4	-64.8	0.0
2026-01-12 17:35:19.048957	56.5	54.3	-63.8	0.0
2026-01-12 17:35:21.294481	54.9	54.1	-63.8	0.0
2026-01-12 17:35:23.538525	53.3	54.0	-64.0	0.0
2026-01-12 17:35:25.783032	51.7	53.8	-63.8	0.0
2026-01-12 17:35:28.026556	50.1	53.6	-62.4	0.0
2026-01-12 17:35:30.270103	48.6	53.3	-61.7	0.0
2026-01-12 17:35:32.514618	47.0	53.1	-60.9	0.0
2026-01-12 17:35:34.759162	45.5	52.8	-62.6	0.0
2026-01-12 17:35:37.007182	44.0	52.5	-63.2	0.0
2026-01-12 17:35:39.251223	42.6	52.2	-61.6	0.0
2026-01-12 17:35:41.495738	41.2	51.9	-61.4	0.0
2026-01-12 17:35:43.738786	39.8	51.6	-61.4	0.0
2026-01-12 17:35:45.987311	38.4	51.2	-62.3	0.0
2026-01-12 17:35:48.230858	37.1	50.9	-60.6	0.0
2026-01-12 17:35:50.474410	35.8	50.5	-61.0	0.0
2026-01-12 17:35:52.717481	34.6	50.1	-60.3	0.0
2026-01-12 17:35:54.962033	33.3	49.7	-60.8	0.0
2026-01-12 17:35:57.206548	32.2	49.3	-61.0	0.0
2026-01-12 17:35:59.450589	31.0	48.9	-60.8	0.0
2026-01-12 17:36:01.700104	29.9	48.5	-59.6	0.0
2026-01-12 17:36:03.944611	28.8	48.0	-60.8	0.0
2026-01-12 17:36:06.188653	27.7	47.6	-59.5	0.0
2026-01-12 17:36:08.433169	26.7	47.2	-61.3	0.0
2026-01-12 17:36:10.680716	25.6	46.7	-60.0	0.0
2026-01-12 17:36:12.924231	24.7	46.3	-60.4	0.0
2026-01-12 17:36:15.168263	23.7	45.8	-59.9	0.0
2026-01-12 17:36:17.413282	22.8	45.3	-60.2	0.0
2026-01-12 17:36:19.657789	21.9	44.9	-62.5	0.0
2026-01-12 17:36:21.901830	21.0	44.4	-60.7	0.0
2026-01-12 17:36:24.148346	20.2	43.9	-61.1	0.0
2026-01-12 17:36:26.394397	19.4	43.5	-60.9	0.0
2026-01-12 17:36:28.638415	18.6	43.0	-61.3	0.0
2026-01-12 17:36:30.882962	17.8	42.5	-59.2	0.0
2026-01-12 17:36:33.126981	17.0	42.1	-61.4	0.0
2026-01-12 17:36:35.371020	16.3	41.6	-60.5	0.0
2026-01-12 17:36:37.615032	15.6	41.1	-61.2	0.0
2026-01-12 17:36:39.859547	14.9	40.7	-61.2	0.0
2026-01-12 17:36:42.108094	14.3	40.2	-61.0	0.0
2026-01-12 17:36:44.352112	13.6	39.7	-61.0	0.0
2026-01-12 17:36:46.596656	13.0	39.3	-60.6	0.0
2026-01-12 17:36:48.841173	12.4	38.8	-60.4	0.0
2026-01-12 17:36:51.085717	11.8	38.3	-63.6	0.0
2026-01-12 17:36:53.330233	11.2	37.9	-62.2	0.0
2026-01-12 17:36:55.574740	10.6	37.4	-64.6	0.0
2026-01-12 17:36:57.820295	10.1	37.0	-63.1	0.0
2026-01-12 17:37:00.063851	9.5	36.5	-63.0	0.0
2026-01-12 17:37:02.308358	9.0	36.1	-63.2	0.0
2026-01-12 17:37:04.552874	8.5	35.7	-63.5	0.0
2026-01-12 17:37:06.795443	8.0	35.2	-64.1	0.0
2026-01-12 17:37:09.039462	7.6	34.8	-63.4	0.0
2026-01-12 17:37:11.283969	7.1	34.4	-63.7	0.0
2026-01-12 17:37:13.528514	6.6	33.9	-62.5	0.0
2026-01-12 17:37:15.773543	6.2	33.5	-64.8	0.0
2026-01-12 17:37:18.017611	5.8	33.1	-64.7	0.0
2026-01-12 17:37:20.293684	5.4	32.7	-66.5	0.0
2026-01-12 17:37:22.538238	4.9	32.3	-62.0	0.0
2026-01-12 17:37:24.782745	4.5	31.9	-63.7	0.0
2026-01-12 17:37:27.027795	4.2	31.5	-63.3	0.0
2026-01-12 17:37:29.271814	3.8	31.1	-64.7	0.0
2026-01-12 17:37:31.515826	3.4	30.7	-65.0	0.0
2026-01-12 17:37:33.760369	3.1	30.3	-64.1	0.0
2026-01-12 17:37:36.004885	2.7	29.9	-61.5	0.0
2026-01-12 17:37:38.248927	2.4	29.5	-63.3	0.0
2026-01-12 17:37:40.493443	2.0	29.2	-63.1	0.0
2026-01-12 17:37:42.737485	1.7	28.8	-62.7	0.0
2026-01-12 17:37:44.981496	1.4	28.4	-63.8	0.0
2026-01-12 17:37:47.227027	1.1	28.1	-63.7	0.0
2026-01-12 17:37:49.470572	0.8	27.7	-64.2	0.0
2026-01-12 17:37:51.699576	0.5	27.3	-62.7	0.0
2026-01-12 17:37:53.943099	0.2	27.0	-63.8	0.0
2026-01-12 17:37:56.187140	359.9	26.6	-63.4	0.0
2026-01-12 17:37:58.431654	359.6	26.3	-63.2	0.2
2026-01-12 17:38:00.675208	359.4	26.0	-62.5	0.0
2026-01-12 17:38:02.924229	359.1	25.6	-63.2	0.0
2026-01-12 17:38:05.168774	358.8	25.3	-64.1	0.0
2026-01-12 17:38:07.413281	358.6	24.9	-63.2	0.0
2026-01-12 17:38:09.657298	358.3	24.6	-62.7	0.0
2026-01-12 17:38:11.904354	358.1	24.3	-62.7	0.0
2026-01-12 17:38:14.147898	357.8	24.0	-63.3	0.0
2026-01-12 17:38:16.391909	357.6	23.7	-62.8	0.0
2026-01-12 17:38:18.635920	357.4	23.3	-62.0	0.0
2026-01-12 17:38:20.879987	357.2	23.0	-64.1	0.0
2026-01-12 17:38:23.123532	356.9	22.7	-62.7	0.0
2026-01-12 17:38:25.374040	356.7	22.4	-63.3	0.4
2026-01-12 17:38:27.618556	356.5	22.1	-63.6	0.0
2026-01-12 17:38:29.863062	356.3	21.8	-63.2	0.0
2026-01-12 17:38:32.107074	356.1	21.5	-61.3	0.0
2026-01-12 17:38:34.350133	355.9	21.2	-62.7	0.0
2026-01-12 17:38:36.592672	355.7	20.9	-62.8	2.0
2026-01-12 17:38:38.843218	355.5	20.7	-63.1	0.0
2026-01-12 17:38:41.086246	355.3	20.4	-61.9	2.8
2026-01-12 17:38:43.329770	355.2	20.1	-62.1	0.1
2026-01-12 17:38:45.572827	355.0	19.8	-62.0	0.0
2026-01-12 17:38:47.829860	354.8	19.5	-62.9	1.7
2026-01-12 17:38:50.073886	354.6	19.3	-63.7	1.3
2026-01-12 17:38:52.315922	354.5	19.0	-63.2	0.3
2026-01-12 17:38:54.560926	354.3	18.7	-62.0	2.1
2026-01-12 17:38:56.804938	354.1	18.5	-62.1	0.1
2026-01-12 17:38:59.048453	354.0	18.2	-62.8	1.4
2026-01-12 17:39:01.297496	353.8	17.9	-62.8	4.6
2026-01-12 17:39:03.541067	353.6	17.7	-62.4	1.6
2026-01-12 17:39:05.784584	353.5	17.4	-62.8	3.3
2026-01-12 17:39:08.027116	353.3	17.2	-63.2	3.0
2026-01-12 17:39:10.269672	353.2	16.9	-63.3	2.7
2026-01-12 17:39:12.514195	353.1	16.7	-63.1	1.0
2026-01-12 17:39:14.758246	352.9	16.4	-60.8	0.0
2026-01-12 17:39:17.001762	352.8	16.2	-62.9	1.0
2026-01-12 17:39:19.245277	352.6	16.0	-62.3	0.8
2026-01-12 17:39:21.488296	352.5	15.7	-61.6	0.0
2026-01-12 17:39:23.731316	352.4	15.5	-62.0	0.0
2026-01-12 17:39:25.977832	352.2	15.3	-62.4	0.7
2026-01-12 17:39:28.220852	352.1	15.0	-62.7	2.4
2026-01-12 17:39:30.463881	352.0	14.8	-61.1	0.0
2026-01-12 17:39:32.710901	351.9	14.6	-62.3	1.3
2026-01-12 17:39:34.953920	351.7	14.3	-62.4	2.3
2026-01-12 17:39:37.197932	351.6	14.1	-62.9	2.5
2026-01-12 17:39:39.441448	351.5	13.9	-63.4	0.0
2026-01-12 17:39:41.689479	351.4	13.7	-62.8	0.0
2026-01-12 17:39:43.933985	351.3	13.5	-63.3	1.8
2026-01-12 17:39:46.177509	351.2	13.2	-62.4	1.2
2026-01-12 17:39:48.422024	351.0	13.0	-62.1	0.9
2026-01-12 17:39:50.668540	350.9	12.8	-62.5	1.5
2026-01-12 17:39:52.912561	350.8	12.6	-62.0	0.6
2026-01-12 17:39:55.156572	350.7	12.4	-62.8	2.1
2026-01-12 17:39:57.403088	350.6	12.2	-62.7	0.7
2026-01-12 17:39:59.646108	350.5	12.0	-62.7	0.0
2026-01-12 17:40:01.890119	350.4	11.8	-62.8	0.5
2026-01-12 17:40:04.132625	350.3	11.6	-62.5	0.0
2026-01-12 17:40:06.379647	350.2	11.4	-62.9	0.0
2026-01-12 17:40:08.622170	350.1	11.2	-63.2	0.1
2026-01-12 17:40:10.867181	350.0	11.0	-62.0	0.0
2026-01-12 17:40:13.110201	349.9	10.8	-63.1	0.0
2026-01-12 17:40:15.352220	349.8	10.6	-62.1	0.0
2026-01-12 17:40:17.596239	349.7	10.4	-63.0	3.8
2026-01-12 17:40:19.839755	349.6	10.2	-63.5	0.7
2026-01-12 17:40:22.084270	349.6	10.0	-63.1	0.0
2026-01-12 17:40:24.325795	349.5	9.8	-63.0	0.0
2026-01-12 17:40:26.569310	349.4	9.6	-62.2	0.0
2026-01-12 17:40:28.809320	349.3	9.4	-63.3	0.0
2026-01-12 17:40:31.051835	349.2	9.3	-62.7	0.0
2026-01-12 17:40:33.293341	349.1	9.1	-63.8	0.0
2026-01-12 17:40:35.535361	349.1	8.9	-63.5	0.0
2026-01-12 17:40:37.780876	349.0	8.7	-62.3	0.0
2026-01-12 17:40:40.024896	348.9	8.5	-63.9	0.0
2026-01-12 17:40:42.268412	348.8	8.4	-62.8	0.0
2026-01-12 17:40:44.510432	348.7	8.2	-63.5	2.2
2026-01-12 17:40:46.753946	348.7	8.0	-63.8	3.3
2026-01-12 17:40:48.995452	348.6	7.8	-63.6	1.9
2026-01-12 17:40:51.240959	348.5	7.7	-63.2	0.0
2026-01-12 17:40:53.482979	348.4	7.5	-62.5	0.5
2026-01-12 17:40:55.723502	348.4	7.3	-63.2	0.0
2026-01-12 17:40:57.966026	348.3	7.1	-63.1	0.0
2026-01-12 17:41:00.213542	348.2	7.0	-63.5	0.1
2026-01-12 17:41:02.457058	348.2	6.8	-63.4	1.5
2026-01-12 17:41:04.701069	348.1	6.6	-63.2	0.1
2026-01-12 17:41:06.944079	348.0	6.5	-63.9	2.3
2026-01-12 17:41:09.184602	348.0	6.3	-64.2	3.3
2026-01-12 17:41:11.427613	347.9	6.1	-64.6	3.6
2026-01-12 17:41:13.668632	347.8	6.0	-62.7	0.5
2026-01-12 17:41:15.910643	347.8	5.8	-65.9	0.0
2026-01-12 17:41:18.153149	347.7	5.6	-67.2	0.0
2026-01-12 17:41:20.395169	347.6	5.5	-66.3	0.0
2026-01-12 17:41:22.637179	347.6	5.3	-64.7	0.0
2026-01-12 17:41:24.880206	347.5	5.2	-65.6	0.0
2026-01-12 17:41:27.122731	347.5	5.0	-66.7	0.0
#Closed at: 2026-01-12 17:28:44.963764