passes_logs/2026/01/12/PlanumMoscow/PlanumMoscow__20260112_063717_METEOR-M2_3_rec.log

#Pass ID: 20260112_063717_METEOR-M2 3
#Satellite: METEOR-M2 3
#Configuration: METEOR-M2 3
#Start time: 2026-01-12 06:37:22.817443

#LorettStation: 1.0.0 05.05.2024
#Station: PlanumMoscow
#Location: 37.6253844 lon 55.6713361 lat
#TLE: 1 57166U 23091A   25293.99389264  .00000062  00000+0  46113-4 0  9997
#TLE: 2 57166  98.6457 348.4330 0004759 135.3141 224.8422 14.24016546120475

#Time	Az	El	Level	SNR
2026-01-12 06:41:01.212911	44.3	25.2	-60.1	4.3
2026-01-12 06:41:03.457428	44.8	25.5	-60.2	2.5
2026-01-12 06:41:05.705450	45.2	25.8	-60.9	5.7
2026-01-12 06:41:07.947974	45.6	26.1	-60.8	5.7
2026-01-12 06:41:10.191996	46.1	26.3	-61.2	6.3
2026-01-12 06:41:12.435016	46.5	26.6	-61.7	5.4
2026-01-12 06:41:14.677539	47.0	26.9	-61.2	4.4
2026-01-12 06:41:16.920560	47.5	27.2	-60.7	3.9
2026-01-12 06:41:19.164075	48.0	27.5	-61.4	6.2
2026-01-12 06:41:21.406104	48.4	27.8	-60.4	3.8
2026-01-12 06:41:23.649619	48.9	28.1	-60.6	4.1
2026-01-12 06:41:25.893631	49.5	28.4	-61.1	6.7
2026-01-12 06:41:28.137148	50.0	28.7	-60.6	3.8
2026-01-12 06:41:30.380169	50.5	29.0	-60.4	4.4
2026-01-12 06:41:32.624676	51.0	29.3	-61.1	6.5
2026-01-12 06:41:34.867706	51.6	29.6	-61.1	5.3
2026-01-12 06:41:37.111221	52.1	29.9	-62.3	7.0
2026-01-12 06:41:39.355232	52.7	30.2	-61.1	4.2
2026-01-12 06:41:41.599251	53.3	30.5	-60.2	4.8
2026-01-12 06:41:43.843263	53.9	30.8	-61.5	6.1
2026-01-12 06:41:46.087274	54.5	31.0	-61.2	5.5
2026-01-12 06:41:48.330790	55.1	31.3	-63.1	8.3
2026-01-12 06:41:50.574801	55.7	31.6	-59.9	4.4
2026-01-12 06:41:52.819316	56.3	31.9	-63.1	7.0
2026-01-12 06:41:55.062832	57.0	32.2	-60.3	5.2
2026-01-12 06:41:57.305851	57.6	32.5	-60.1	4.6
2026-01-12 06:41:59.549366	58.3	32.8	-60.1	5.2
2026-01-12 06:42:01.791394	59.0	33.1	-60.8	6.1
2026-01-12 06:42:04.035422	59.6	33.4	-60.9	6.1
2026-01-12 06:42:06.277449	60.3	33.7	-60.2	4.8
2026-01-12 06:42:08.520964	61.1	34.0	-59.9	4.4
2026-01-12 06:42:10.763984	61.8	34.3	-60.0	3.6
2026-01-12 06:42:13.007005	62.5	34.5	-59.2	2.0
2026-01-12 06:42:15.251016	63.3	34.8	-60.7	5.4
2026-01-12 06:42:17.495027	64.0	35.1	-60.6	5.9
2026-01-12 06:42:19.739037	64.8	35.4	-60.4	5.5
2026-01-12 06:42:21.982561	65.6	35.6	-59.4	5.1
2026-01-12 06:42:24.227077	66.4	35.9	-59.2	4.5
2026-01-12 06:42:26.472089	67.2	36.2	-59.9	6.5
2026-01-12 06:42:28.714116	68.1	36.4	-59.2	4.7
2026-01-12 06:42:30.958632	68.9	36.7	-59.0	3.7
2026-01-12 06:42:33.202154	69.8	36.9	-60.1	4.1
2026-01-12 06:42:35.446165	70.6	37.2	-60.6	5.5
2026-01-12 06:42:37.690176	71.5	37.4	-58.5	1.3
2026-01-12 06:42:39.933691	72.4	37.6	-60.9	4.1
2026-01-12 06:42:42.177720	73.3	37.8	-61.2	3.6
2026-01-12 06:42:44.420245	74.2	38.1	-60.8	2.4
2026-01-12 06:42:46.663266	75.2	38.3	-60.5	4.5
2026-01-12 06:42:48.906781	76.1	38.5	-58.9	1.8
2026-01-12 06:42:51.151793	77.0	38.7	-59.4	1.3
2026-01-12 06:42:53.395803	78.0	38.9	-60.1	3.8
2026-01-12 06:42:55.639815	79.0	39.0	-60.3	2.8
2026-01-12 06:42:57.882835	80.0	39.2	-59.6	2.0
2026-01-12 06:43:00.126846	81.0	39.4	-61.4	6.6
2026-01-12 06:43:02.370857	82.0	39.5	-61.4	4.5
2026-01-12 06:43:04.613382	83.0	39.7	-62.3	6.9
2026-01-12 06:43:06.855906	84.0	39.8	-62.2	7.5
2026-01-12 06:43:09.098429	85.1	39.9	-62.3	7.0
2026-01-12 06:43:11.342441	86.1	40.0	-61.6	6.5
2026-01-12 06:43:13.590453	87.1	40.2	-62.9	8.6
2026-01-12 06:43:15.834464	88.2	40.3	-62.8	7.2
2026-01-12 06:43:18.078476	89.3	40.3	-62.7	4.5
2026-01-12 06:43:20.322486	90.3	40.4	-62.6	7.3
2026-01-12 06:43:22.565506	91.4	40.5	-63.6	8.5
2026-01-12 06:43:24.809517	92.5	40.5	-62.6	5.7
2026-01-12 06:43:27.053033	93.5	40.6	-63.5	9.0
2026-01-12 06:43:29.295556	94.6	40.6	-63.5	9.5
2026-01-12 06:43:31.539568	95.7	40.6	-64.5	10.8
2026-01-12 06:43:33.783083	96.8	40.6	-64.6	9.9
2026-01-12 06:43:36.026599	97.9	40.6	-63.9	9.4
2026-01-12 06:43:38.270113	99.0	40.6	-64.1	10.1
2026-01-12 06:43:40.514125	100.0	40.6	-63.5	8.6
2026-01-12 06:43:42.757153	101.1	40.5	-64.1	8.2
2026-01-12 06:43:45.002174	102.2	40.5	-62.9	6.7
2026-01-12 06:43:47.245204	103.3	40.4	-62.9	6.4
2026-01-12 06:43:49.489214	104.3	40.4	-62.1	5.6
2026-01-12 06:43:51.733226	105.4	40.3	-62.4	6.2
2026-01-12 06:43:53.978237	106.5	40.2	-64.0	10.1
2026-01-12 06:43:56.221753	107.5	40.1	-62.5	7.5
2026-01-12 06:43:58.464773	108.6	40.0	-63.8	8.4
2026-01-12 06:44:00.707297	109.6	39.9	-62.9	6.7
2026-01-12 06:44:02.950814	110.6	39.7	-62.1	6.8
2026-01-12 06:44:05.194825	111.6	39.6	-62.7	8.8
2026-01-12 06:44:07.438341	112.7	39.4	-63.6	6.1
2026-01-12 06:44:09.682361	113.7	39.3	-64.4	9.1
2026-01-12 06:44:11.925876	114.7	39.1	-63.7	7.9
2026-01-12 06:44:14.169391	115.6	38.9	-64.2	9.9
2026-01-12 06:44:16.412907	116.6	38.8	-64.0	8.5
2026-01-12 06:44:18.655927	117.6	38.6	-63.5	8.4
2026-01-12 06:44:20.898946	118.5	38.4	-63.6	8.4
2026-01-12 06:44:23.142966	119.5	38.2	-63.9	9.3
2026-01-12 06:44:25.385491	120.4	37.9	-64.6	10.5
2026-01-12 06:44:27.629007	121.3	37.7	-64.3	11.6
2026-01-12 06:44:29.872545	122.2	37.5	-64.0	12.1
2026-01-12 06:44:32.115573	123.1	37.3	-64.8	12.2
2026-01-12 06:44:34.359088	124.0	37.0	-64.4	10.7
2026-01-12 06:44:36.602107	124.8	36.8	-64.9	11.8
2026-01-12 06:44:38.845623	125.7	36.5	-64.6	10.4
2026-01-12 06:44:41.090140	126.5	36.3	-64.9	10.7
2026-01-12 06:44:43.335151	127.4	36.0	-64.1	8.8
2026-01-12 06:44:45.578666	128.2	35.7	-65.6	11.9
2026-01-12 06:44:47.823173	129.0	35.5	-65.1	12.2
2026-01-12 06:44:50.066193	129.7	35.2	-64.7	11.5
2026-01-12 06:44:52.310700	130.5	34.9	-64.8	11.5
2026-01-12 06:44:54.553719	131.3	34.6	-64.7	11.8
2026-01-12 06:44:56.797234	132.0	34.4	-65.3	13.3
2026-01-12 06:44:59.041741	132.8	34.1	-64.3	11.1
2026-01-12 06:45:01.286753	133.5	33.8	-64.6	12.0
2026-01-12 06:45:03.531269	134.2	33.5	-65.2	13.1
2026-01-12 06:45:05.774290	134.9	33.2	-65.3	12.3
2026-01-12 06:45:08.018301	135.6	32.9	-65.2	11.3
2026-01-12 06:45:10.261816	136.3	32.6	-64.7	12.0
2026-01-12 06:45:12.504845	136.9	32.3	-65.2	11.9
2026-01-12 06:45:14.747867	137.6	32.0	-65.0	12.0
2026-01-12 06:45:16.991879	138.2	31.7	-65.4	12.0
2026-01-12 06:45:19.235899	138.8	31.4	-65.7	12.6
2026-01-12 06:45:21.480406	139.5	31.1	-65.4	12.5
2026-01-12 06:45:23.722932	140.1	30.8	-65.6	13.4
2026-01-12 06:45:25.965952	140.6	30.5	-65.1	12.7
2026-01-12 06:45:28.208488	141.2	30.2	-65.6	13.6
2026-01-12 06:45:30.452013	141.8	29.9	-65.4	13.4
2026-01-12 06:45:32.695035	142.4	29.6	-65.5	12.9
2026-01-12 06:45:34.938054	142.9	29.3	-65.6	13.2
2026-01-12 06:45:37.181570	143.5	29.0	-66.0	14.7
2026-01-12 06:45:39.425103	144.0	28.7	-65.4	13.8
2026-01-12 06:45:41.668124	144.5	28.4	-65.6	13.6
2026-01-12 06:45:43.912631	145.0	28.1	-65.9	14.4
2026-01-12 06:45:46.157146	145.5	27.8	-66.0	14.1
2026-01-12 06:45:48.400670	146.0	27.5	-66.2	14.0
2026-01-12 06:45:50.644681	146.5	27.3	-65.8	13.1
2026-01-12 06:45:52.889188	147.0	27.0	-65.7	11.9
2026-01-12 06:45:55.133695	147.5	26.7	-65.6	12.7
2026-01-12 06:45:57.379211	147.9	26.4	-65.9	13.7
2026-01-12 06:45:59.623718	148.4	26.1	-65.4	12.2
2026-01-12 06:46:01.867729	148.8	25.8	-65.0	11.2
2026-01-12 06:46:04.110749	149.3	25.5	-65.3	12.4
2026-01-12 06:46:06.354275	149.7	25.2	-65.4	11.1
2026-01-12 06:46:08.597790	150.1	24.9	-65.3	11.8
2026-01-12 06:46:10.841306	150.5	24.7	-66.0	13.3
2026-01-12 06:46:13.084822	150.9	24.4	-66.0	13.1
2026-01-12 06:46:15.327847	151.3	24.1	-65.5	12.0
2026-01-12 06:46:17.571858	151.7	23.8	-66.0	13.2
2026-01-12 06:46:19.815384	152.1	23.5	-66.1	13.8
2026-01-12 06:46:22.059395	152.5	23.3	-66.1	13.9
2026-01-12 06:46:24.302428	152.9	23.0	-66.2	13.2
2026-01-12 06:46:26.546439	153.2	22.7	-66.4	13.3
2026-01-12 06:46:28.790459	153.6	22.5	-66.2	13.1
2026-01-12 06:46:31.034472	153.9	22.2	-66.4	13.0
2026-01-12 06:46:33.280484	154.3	21.9	-66.0	12.5
2026-01-12 06:46:35.523999	154.6	21.7	-66.2	13.0
2026-01-12 06:46:37.768010	155.0	21.4	-66.4	12.7
2026-01-12 06:46:40.011526	155.3	21.1	-66.3	12.9
2026-01-12 06:46:42.255042	155.6	20.9	-66.3	12.9
2026-01-12 06:46:44.499567	155.9	20.6	-66.2	13.0
2026-01-12 06:46:46.742587	156.3	20.4	-66.2	12.0
2026-01-12 06:46:48.986104	156.6	20.1	-66.1	12.6
2026-01-12 06:46:51.230115	156.9	19.9	-66.5	13.2
2026-01-12 06:46:53.474137	157.2	19.6	-66.3	12.6
2026-01-12 06:46:55.717654	157.5	19.4	-66.7	13.4
2026-01-12 06:46:57.961170	157.8	19.1	-66.6	12.0
2026-01-12 06:47:00.205199	158.1	18.9	-66.7	12.1
2026-01-12 06:47:02.449220	158.3	18.6	-66.6	12.0
2026-01-12 06:47:04.692736	158.6	18.4	-66.7	12.0
2026-01-12 06:47:06.934764	158.9	18.1	-67.0	11.9
2026-01-12 06:47:09.178785	159.2	17.9	-66.6	11.2
2026-01-12 06:47:11.422300	159.4	17.7	-66.4	10.7
2026-01-12 06:47:13.664330	159.7	17.4	-66.4	11.2
2026-01-12 06:47:15.904371	159.9	17.2	-66.6	10.9
2026-01-12 06:47:18.147389	160.2	17.0	-66.7	11.2
2026-01-12 06:47:20.389419	160.4	16.7	-66.1	10.5
2026-01-12 06:47:22.632438	160.7	16.5	-66.8	12.2
2026-01-12 06:47:24.878946	160.9	16.3	-66.5	11.4
2026-01-12 06:47:27.123462	161.2	16.1	-65.6	9.0
2026-01-12 06:47:29.366491	161.4	15.8	-66.4	10.2
2026-01-12 06:47:31.610502	161.6	15.6	-66.8	11.3
2026-01-12 06:47:33.854018	161.9	15.4	-66.4	10.9
2026-01-12 06:47:36.097038	162.1	15.2	-66.1	10.8
2026-01-12 06:47:38.340553	162.3	15.0	-66.4	9.9
2026-01-12 06:47:40.582583	162.5	14.7	-65.9	10.3
2026-01-12 06:47:42.826594	162.8	14.5	-66.6	10.8
2026-01-12 06:47:45.070109	163.0	14.3	-65.9	9.4
2026-01-12 06:47:47.314120	163.2	14.1	-65.5	9.5
2026-01-12 06:47:49.557637	163.4	13.9	-65.9	9.4
2026-01-12 06:47:51.805153	163.6	13.7	-66.2	10.2
2026-01-12 06:47:54.047679	163.8	13.5	-66.2	10.1
2026-01-12 06:47:56.291195	164.0	13.3	-66.0	9.7
2026-01-12 06:47:58.534720	164.2	13.1	-66.0	10.3
2026-01-12 06:48:00.780244	164.4	12.9	-66.6	10.3
2026-01-12 06:48:03.022770	164.6	12.7	-66.6	10.6
2026-01-12 06:48:05.266286	164.8	12.5	-66.3	10.3
2026-01-12 06:48:07.509801	165.0	12.3	-66.5	9.9
2026-01-12 06:48:09.753813	165.2	12.1	-66.7	9.5
2026-01-12 06:48:11.997329	165.3	11.9	-66.2	10.7
2026-01-12 06:48:14.240844	165.5	11.7	-66.0	9.6
2026-01-12 06:48:16.484361	165.7	11.5	-66.4	10.5
2026-01-12 06:48:18.728372	165.9	11.3	-66.1	10.2
2026-01-12 06:48:20.971889	166.0	11.1	-66.4	10.1
2026-01-12 06:48:23.215899	166.2	10.9	-66.0	9.9
2026-01-12 06:48:25.460911	166.4	10.7	-65.9	10.0
2026-01-12 06:48:27.702944	166.5	10.6	-66.1	8.8
2026-01-12 06:48:29.946954	166.7	10.4	-66.2	8.7
2026-01-12 06:48:32.189485	166.9	10.2	-66.3	8.7
2026-01-12 06:48:34.433497	167.0	10.0	-65.9	8.9
2026-01-12 06:48:36.676518	167.2	9.8	-66.2	8.5
2026-01-12 06:48:38.920529	167.4	9.6	-66.3	8.6
2026-01-12 06:48:41.164044	167.5	9.5	-65.9	8.9
2026-01-12 06:48:43.407065	167.7	9.3	-65.7	7.7
2026-01-12 06:48:45.651086	167.8	9.1	-66.2	8.5
2026-01-12 06:48:47.894106	168.0	8.9	-66.1	8.2
2026-01-12 06:48:50.138118	168.1	8.8	-66.1	8.5
2026-01-12 06:48:52.381138	168.3	8.6	-65.9	7.7
2026-01-12 06:48:54.624655	168.4	8.4	-65.3	7.5
2026-01-12 06:48:56.868666	168.6	8.2	-66.1	7.8
2026-01-12 06:48:59.111696	168.7	8.1	-65.1	6.6
2026-01-12 06:49:01.356212	168.8	7.9	-65.9	6.5
2026-01-12 06:49:03.599728	169.0	7.7	-65.8	7.9
2026-01-12 06:49:05.844235	169.1	7.6	-66.0	7.3
2026-01-12 06:49:08.091752	169.2	7.4	-65.5	6.6
2026-01-12 06:49:10.336268	169.4	7.2	-65.6	7.2
2026-01-12 06:49:12.579785	169.5	7.1	-65.8	7.5
2026-01-12 06:49:14.822804	169.6	6.9	-65.1	7.0
2026-01-12 06:49:17.066320	169.8	6.7	-65.6	6.1
2026-01-12 06:49:19.309341	169.9	6.6	-65.4	5.7
2026-01-12 06:49:21.553352	170.0	6.4	-65.1	6.3
2026-01-12 06:49:23.796867	170.2	6.3	-65.0	5.1
2026-01-12 06:49:26.044890	170.3	6.1	-65.9	5.6
2026-01-12 06:49:28.287919	170.4	5.9	-68.8	1.3
2026-01-12 06:49:30.530940	170.5	5.8	-70.0	0.0
2026-01-12 06:49:32.774456	170.6	5.6	-70.3	0.0
2026-01-12 06:49:35.016980	170.8	5.5	-70.3	0.0
2026-01-12 06:49:37.260495	170.9	5.3	-71.8	0.0
2026-01-12 06:49:39.503515	171.0	5.2	-71.5	0.0
2026-01-12 06:49:41.748032	171.1	5.0	-71.7	0.0
#Closed at: 2026-01-12 06:37:17.819830