passes_logs/2026/01/12/PlanumMoscow/PlanumMoscow__20260112_081719_METEOR-M2_3_rec.log

#Pass ID: 20260112_081719_METEOR-M2 3
#Satellite: METEOR-M2 3
#Configuration: METEOR-M2 3
#Start time: 2026-01-12 08:17:24.657134

#LorettStation: 1.0.0 05.05.2024
#Station: PlanumMoscow
#Location: 37.6253844 lon 55.6713361 lat
#TLE: 1 57166U 23091A   25293.99389264  .00000062  00000+0  46113-4 0  9997
#TLE: 2 57166  98.6457 348.4330 0004759 135.3141 224.8422 14.24016546120475

#Time	Az	El	Level	SNR
2026-01-12 08:21:03.065565	352.2	26.3	-60.6	7.9
2026-01-12 08:21:05.310623	351.8	26.6	-61.2	7.2
2026-01-12 08:21:07.554635	351.3	27.0	-62.3	9.5
2026-01-12 08:21:09.798654	350.9	27.3	-61.9	8.4
2026-01-12 08:21:12.042695	350.5	27.6	-63.1	11.7
2026-01-12 08:21:14.286242	350.1	27.9	-61.9	9.3
2026-01-12 08:21:16.530749	349.6	28.2	-63.2	9.7
2026-01-12 08:21:18.776768	349.2	28.6	-62.7	10.6
2026-01-12 08:21:21.021334	348.7	28.9	-62.9	10.7
2026-01-12 08:21:23.265849	348.2	29.2	-62.9	7.7
2026-01-12 08:21:25.512357	347.8	29.5	-63.7	10.6
2026-01-12 08:21:27.755903	347.3	29.9	-64.0	11.3
2026-01-12 08:21:29.999921	346.8	30.2	-63.6	10.2
2026-01-12 08:21:32.243964	346.3	30.5	-62.0	10.3
2026-01-12 08:21:34.491488	345.7	30.9	-63.3	10.9
2026-01-12 08:21:36.736028	345.2	31.2	-63.3	11.3
2026-01-12 08:21:38.979543	344.6	31.5	-63.0	10.8
2026-01-12 08:21:41.223563	344.1	31.9	-63.3	12.2
2026-01-12 08:21:43.467607	343.5	32.2	-63.8	11.6
2026-01-12 08:21:45.711130	342.9	32.5	-63.7	12.2
2026-01-12 08:21:47.955202	342.3	32.9	-63.0	10.2
2026-01-12 08:21:50.199223	341.7	33.2	-62.6	9.0
2026-01-12 08:21:52.442770	341.1	33.5	-63.2	9.6
2026-01-12 08:21:54.687277	340.5	33.9	-62.5	8.0
2026-01-12 08:21:56.930824	339.8	34.2	-62.2	8.2
2026-01-12 08:21:59.178837	339.2	34.6	-63.7	10.8
2026-01-12 08:22:01.422888	338.5	34.9	-63.6	10.3
2026-01-12 08:22:03.666899	337.8	35.2	-63.8	10.6
2026-01-12 08:22:05.911415	337.1	35.6	-64.3	10.1
2026-01-12 08:22:08.154962	336.4	35.9	-63.9	9.3
2026-01-12 08:22:10.398973	335.7	36.2	-64.2	11.3
2026-01-12 08:22:12.642520	334.9	36.6	-64.2	11.5
2026-01-12 08:22:14.886531	334.2	36.9	-64.4	11.3
2026-01-12 08:22:17.131048	333.4	37.2	-64.7	12.1
2026-01-12 08:22:19.375100	332.6	37.5	-64.7	11.5
2026-01-12 08:22:21.619614	331.8	37.8	-63.7	11.1
2026-01-12 08:22:23.864666	330.9	38.2	-64.4	11.6
2026-01-12 08:22:26.111687	330.1	38.5	-64.5	12.0
2026-01-12 08:22:28.356194	329.2	38.8	-64.3	10.2
2026-01-12 08:22:30.600740	328.4	39.1	-64.6	12.5
2026-01-12 08:22:32.875295	327.5	39.4	-63.8	11.2
2026-01-12 08:22:35.121307	326.6	39.7	-64.0	11.5
2026-01-12 08:22:37.365814	325.6	39.9	-64.4	12.5
2026-01-12 08:22:39.608865	324.7	40.2	-64.6	13.0
2026-01-12 08:22:41.854395	323.7	40.5	-64.7	12.9
2026-01-12 08:22:44.099414	322.8	40.8	-64.7	12.5
2026-01-12 08:22:46.341475	321.8	41.0	-65.0	12.7
2026-01-12 08:22:48.585991	320.8	41.3	-65.0	12.3
2026-01-12 08:22:50.832045	319.7	41.5	-64.9	11.7
2026-01-12 08:22:53.075579	318.7	41.7	-64.8	11.4
2026-01-12 08:22:55.319118	317.7	42.0	-63.7	8.9
2026-01-12 08:22:57.563129	316.6	42.2	-64.6	9.5
2026-01-12 08:22:59.806156	315.5	42.4	-65.0	10.9
2026-01-12 08:23:02.048712	314.4	42.6	-65.4	11.8
2026-01-12 08:23:04.293219	313.3	42.7	-65.0	10.8
2026-01-12 08:23:06.536238	312.2	42.9	-65.3	11.5
2026-01-12 08:23:08.780249	311.1	43.1	-64.7	11.5
2026-01-12 08:23:11.023814	309.9	43.2	-64.1	11.3
2026-01-12 08:23:13.269842	308.8	43.3	-64.6	11.4
2026-01-12 08:23:15.522371	307.6	43.5	-64.5	11.3
2026-01-12 08:23:17.766925	306.5	43.6	-64.3	11.5
2026-01-12 08:23:20.010953	305.3	43.7	-64.7	11.7
2026-01-12 08:23:22.257509	304.1	43.7	-64.5	10.6
2026-01-12 08:23:24.502025	302.9	43.8	-64.4	10.6
2026-01-12 08:23:26.747580	301.7	43.9	-64.1	11.9
2026-01-12 08:23:28.991601	300.5	43.9	-64.9	12.0
2026-01-12 08:23:31.235117	299.3	43.9	-64.7	11.8
2026-01-12 08:23:33.477216	298.1	43.9	-64.0	11.1
2026-01-12 08:23:35.721731	296.9	43.9	-64.0	10.8
2026-01-12 08:23:37.964784	295.8	43.9	-64.0	11.0
2026-01-12 08:23:40.209328	294.6	43.9	-64.3	11.6
2026-01-12 08:23:42.451890	293.4	43.8	-64.6	13.4
2026-01-12 08:23:44.695911	292.2	43.8	-63.4	10.0
2026-01-12 08:23:46.939478	291.0	43.7	-63.9	11.3
2026-01-12 08:23:49.184489	289.8	43.6	-64.3	12.0
2026-01-12 08:23:51.428013	288.6	43.5	-64.0	12.5
2026-01-12 08:23:53.671533	287.5	43.4	-63.4	11.5
2026-01-12 08:23:55.914560	286.3	43.3	-64.3	11.5
2026-01-12 08:23:58.164109	285.2	43.2	-62.0	7.5
2026-01-12 08:24:00.407633	284.0	43.0	-63.1	9.5
2026-01-12 08:24:02.651198	282.9	42.9	-62.9	8.7
2026-01-12 08:24:04.895217	281.8	42.7	-63.7	9.8
2026-01-12 08:24:07.139228	280.7	42.5	-62.3	6.1
2026-01-12 08:24:09.383279	279.6	42.3	-62.7	8.8
2026-01-12 08:24:11.627335	278.5	42.1	-64.2	10.8
2026-01-12 08:24:13.870850	277.5	41.9	-64.2	9.6
2026-01-12 08:24:16.119367	276.4	41.7	-64.3	9.5
2026-01-12 08:24:18.363379	275.4	41.4	-63.5	9.4
2026-01-12 08:24:20.606894	274.4	41.2	-63.1	9.9
2026-01-12 08:24:22.851401	273.4	40.9	-63.1	9.1
2026-01-12 08:24:25.095412	272.4	40.7	-63.0	9.8
2026-01-12 08:24:27.340424	271.4	40.4	-62.2	6.7
2026-01-12 08:24:29.583940	270.4	40.1	-63.6	9.5
2026-01-12 08:24:31.827474	269.5	39.9	-63.3	9.1
2026-01-12 08:24:34.071981	268.6	39.6	-62.9	8.8
2026-01-12 08:24:36.317497	267.7	39.3	-63.8	8.0
2026-01-12 08:24:38.559031	266.8	39.0	-63.4	8.1
2026-01-12 08:24:40.800565	265.9	38.7	-62.5	8.3
2026-01-12 08:24:43.044585	265.1	38.4	-62.5	6.3
2026-01-12 08:24:45.289093	264.2	38.1	-63.0	7.4
2026-01-12 08:24:47.532609	263.4	37.7	-62.9	8.6
2026-01-12 08:24:49.775133	262.6	37.4	-61.0	6.2
2026-01-12 08:24:52.018698	261.8	37.1	-63.1	8.3
2026-01-12 08:24:54.262213	261.0	36.8	-61.5	5.9
2026-01-12 08:24:56.504738	260.2	36.4	-62.5	9.0
2026-01-12 08:24:58.748309	259.5	36.1	-62.5	7.4
2026-01-12 08:25:00.992369	258.8	35.8	-62.2	8.4
2026-01-12 08:25:03.237381	258.1	35.4	-61.9	7.3
2026-01-12 08:25:05.481402	257.4	35.1	-60.5	7.3
2026-01-12 08:25:07.724974	256.7	34.8	-61.8	8.1
2026-01-12 08:25:09.968490	256.0	34.4	-62.3	7.0
2026-01-12 08:25:12.212559	255.3	34.1	-60.8	4.7
2026-01-12 08:25:14.478586	254.7	33.7	-61.7	6.4
2026-01-12 08:25:16.721166	254.1	33.4	-59.3	4.5
2026-01-12 08:25:18.963691	253.4	33.1	-59.5	3.6
2026-01-12 08:25:21.206216	252.8	32.7	-58.8	1.9
2026-01-12 08:25:23.449235	252.2	32.4	-58.2	2.6
2026-01-12 08:25:25.692257	251.7	32.1	-60.1	4.1
2026-01-12 08:25:27.938269	251.1	31.7	-60.6	4.7
2026-01-12 08:25:30.182280	250.5	31.4	-60.0	4.8
2026-01-12 08:25:32.426787	250.0	31.0	-60.1	5.2
2026-01-12 08:25:34.670798	249.4	30.7	-59.5	3.2
2026-01-12 08:25:36.913820	248.9	30.4	-58.2	2.0
2026-01-12 08:25:39.157336	248.4	30.0	-60.3	3.3
2026-01-12 08:25:41.400356	247.9	29.7	-57.7	1.8
2026-01-12 08:25:43.644367	247.4	29.4	-59.5	4.1
2026-01-12 08:25:45.892884	246.9	29.0	-58.1	0.1
2026-01-12 08:25:48.136401	246.5	28.7	-59.6	0.3
2026-01-12 08:25:50.380421	246.0	28.4	-61.0	4.9
2026-01-12 08:25:52.623945	245.6	28.1	-59.0	1.8
2026-01-12 08:25:54.867461	245.1	27.7	-58.9	4.9
2026-01-12 08:25:57.111968	244.7	27.4	-60.4	4.4
2026-01-12 08:25:59.355980	244.2	27.1	-61.5	4.4
2026-01-12 08:26:01.601496	243.8	26.8	-58.9	2.5
2026-01-12 08:26:03.846508	243.4	26.5	-59.8	3.6
2026-01-12 08:26:06.090519	243.0	26.2	-60.4	3.0
2026-01-12 08:26:08.337045	242.6	25.9	-59.1	0.0
2026-01-12 08:26:10.579075	242.2	25.5	-59.3	3.5
2026-01-12 08:26:12.822095	241.9	25.2	-60.9	3.6
2026-01-12 08:26:15.065611	241.5	24.9	-59.5	1.9
2026-01-12 08:26:17.309135	241.1	24.6	-58.8	2.2
2026-01-12 08:26:19.552651	240.8	24.3	-59.6	3.9
2026-01-12 08:26:21.796663	240.4	24.0	-60.1	4.6
2026-01-12 08:26:24.042180	240.1	23.7	-59.1	2.0
2026-01-12 08:26:26.286696	239.7	23.5	-58.9	1.9
2026-01-12 08:26:28.530707	239.4	23.2	-57.7	1.7
2026-01-12 08:26:30.774718	239.1	22.9	-58.0	2.5
2026-01-12 08:26:33.018757	238.8	22.6	-57.4	1.1
2026-01-12 08:26:35.261776	238.5	22.3	-57.2	0.0
2026-01-12 08:26:37.506283	238.1	22.0	-57.5	0.0
2026-01-12 08:26:39.749303	237.8	21.7	-57.5	0.0
2026-01-12 08:26:41.992819	237.6	21.5	-58.0	1.0
2026-01-12 08:26:44.235343	237.3	21.2	-57.4	0.7
2026-01-12 08:26:46.478868	237.0	20.9	-58.4	1.3
2026-01-12 08:26:48.723900	236.7	20.6	-58.7	0.0
2026-01-12 08:26:50.965930	236.4	20.4	-58.5	0.0
2026-01-12 08:26:53.209446	236.2	20.1	-59.0	0.2
2026-01-12 08:26:55.451474	235.9	19.9	-57.8	0.0
2026-01-12 08:26:57.696485	235.6	19.6	-58.1	0.7
2026-01-12 08:26:59.940001	235.4	19.3	-58.7	0.4
2026-01-12 08:27:02.183516	235.1	19.1	-58.6	0.0
2026-01-12 08:27:04.426040	234.9	18.8	-54.4	0.0
2026-01-12 08:27:06.669565	234.6	18.6	-55.6	0.0
2026-01-12 08:27:08.914072	234.4	18.3	-57.2	0.0
2026-01-12 08:27:11.157588	234.2	18.1	-57.8	0.0
2026-01-12 08:27:13.400609	233.9	17.8	-59.0	0.0
2026-01-12 08:27:15.645126	233.7	17.6	-59.9	1.3
2026-01-12 08:27:17.889137	233.5	17.3	-59.2	0.9
2026-01-12 08:27:20.131661	233.3	17.1	-59.6	0.8
2026-01-12 08:27:22.376177	233.0	16.9	-59.1	0.0
2026-01-12 08:27:24.619206	232.8	16.6	-59.1	0.2
2026-01-12 08:27:26.863724	232.6	16.4	-57.9	0.0
2026-01-12 08:27:29.105753	232.4	16.1	-59.4	0.9
2026-01-12 08:27:31.349764	232.2	15.9	-59.7	0.2
2026-01-12 08:27:33.593775	232.0	15.7	-57.5	0.0
2026-01-12 08:27:35.837787	231.8	15.5	-59.6	0.0
2026-01-12 08:27:38.079320	231.6	15.2	-59.2	0.0
2026-01-12 08:27:40.322836	231.4	15.0	-61.2	2.7
2026-01-12 08:27:42.566856	231.2	14.8	-59.6	0.4
2026-01-12 08:27:44.811373	231.0	14.6	-60.4	0.0
2026-01-12 08:27:47.055889	230.9	14.3	-60.3	0.5
2026-01-12 08:27:49.299900	230.7	14.1	-58.7	0.0
2026-01-12 08:27:51.544407	230.5	13.9	-59.9	0.0
2026-01-12 08:27:53.787922	230.3	13.7	-61.4	2.3
2026-01-12 08:27:56.031439	230.2	13.5	-59.9	0.0
2026-01-12 08:27:58.275450	230.0	13.3	-61.7	1.2
2026-01-12 08:28:00.519471	229.8	13.1	-62.1	2.9
2026-01-12 08:28:02.764491	229.7	12.9	-62.2	1.9
2026-01-12 08:28:05.007510	229.5	12.6	-61.5	0.0
2026-01-12 08:28:07.251522	229.3	12.4	-61.8	1.2
2026-01-12 08:28:09.499534	229.2	12.2	-61.8	2.2
2026-01-12 08:28:11.743050	229.0	12.0	-62.5	2.8
2026-01-12 08:28:13.987061	228.9	11.8	-61.2	2.2
2026-01-12 08:28:16.230082	228.7	11.6	-61.5	1.0
2026-01-12 08:28:18.475599	228.6	11.4	-61.6	1.5
2026-01-12 08:28:20.720105	228.4	11.2	-60.8	0.8
2026-01-12 08:28:22.964621	228.3	11.1	-58.9	1.8
2026-01-12 08:28:25.208136	228.1	10.9	-61.9	1.8
2026-01-12 08:28:27.451652	228.0	10.7	-60.8	1.1
2026-01-12 08:28:29.695673	227.9	10.5	-61.8	2.1
2026-01-12 08:28:31.940180	227.7	10.3	-63.1	4.1
2026-01-12 08:28:34.183696	227.6	10.1	-61.3	0.8
2026-01-12 08:28:36.427212	227.5	9.9	-62.5	2.3
2026-01-12 08:28:38.671224	227.3	9.7	-62.4	2.6
2026-01-12 08:28:40.913749	227.2	9.5	-62.0	1.4
2026-01-12 08:28:43.157769	227.1	9.4	-62.4	2.7
2026-01-12 08:28:45.401286	226.9	9.2	-62.4	1.4
2026-01-12 08:28:47.644802	226.8	9.0	-62.5	2.5
2026-01-12 08:28:49.888327	226.7	8.8	-62.5	1.9
2026-01-12 08:28:52.130851	226.6	8.6	-61.4	0.0
2026-01-12 08:28:54.372879	226.5	8.5	-62.7	2.0
2026-01-12 08:28:56.615899	226.3	8.3	-63.3	3.2
2026-01-12 08:28:58.861424	226.2	8.1	-63.3	3.9
2026-01-12 08:29:01.105931	226.1	7.9	-63.8	3.3
2026-01-12 08:29:03.348951	226.0	7.8	-63.5	4.7
2026-01-12 08:29:05.595477	225.9	7.6	-63.3	3.0
2026-01-12 08:29:07.839001	225.8	7.4	-64.0	4.3
2026-01-12 08:29:10.083508	225.7	7.3	-63.7	3.0
2026-01-12 08:29:12.327023	225.5	7.1	-64.1	4.3
2026-01-12 08:29:14.570538	225.4	6.9	-64.1	5.2
2026-01-12 08:29:16.813072	225.3	6.8	-63.7	3.3
2026-01-12 08:29:19.054606	225.2	6.6	-64.6	4.8
2026-01-12 08:29:21.297626	225.1	6.4	-64.4	5.1
2026-01-12 08:29:23.541142	225.0	6.3	-64.1	4.4
2026-01-12 08:29:25.785154	224.9	6.1	-64.3	4.5
2026-01-12 08:29:28.028678	224.8	5.9	-65.4	0.0
2026-01-12 08:29:30.271203	224.7	5.8	-64.6	0.0
2026-01-12 08:29:32.515215	224.6	5.6	-64.1	0.0
2026-01-12 08:29:34.757740	224.5	5.5	-65.7	0.0
2026-01-12 08:29:37.001264	224.4	5.3	-70.5	0.0
2026-01-12 08:29:39.243787	224.3	5.1	-71.4	0.0
2026-01-12 08:29:41.486807	224.3	5.0	-71.5	0.0
#Closed at: 2026-01-12 08:17:19.659001