passes_logs/2026/01/12/PlanumMoscow/PlanumMoscow__20260112_105047_METEOR-M2_4_rec.log

#Pass ID: 20260112_105047_METEOR-M2 4
#Satellite: METEOR-M2 4
#Configuration: METEOR-M2 4
#Start time: 2026-01-12 10:50:52.350462

#LorettStation: 1.0.0 05.05.2024
#Station: PlanumMoscow
#Location: 37.6253844 lon 55.6713361 lat
#TLE: 1 59051U 24039A   25293.94737965  .00000087  00000+0  58459-4 0  9998
#TLE: 2 59051  98.6671 251.7071 0007726 135.4772 224.7028 14.22388966 85257

#Time	Az	El	Level	SNR
2026-01-12 10:54:30.791257	134.8	28.6	-63.3	10.7
2026-01-12 10:54:33.035763	134.5	29.0	-63.7	11.3
2026-01-12 10:54:35.279775	134.2	29.4	-64.4	11.3
2026-01-12 10:54:37.523291	133.9	29.8	-63.2	11.0
2026-01-12 10:54:39.767798	133.7	30.2	-63.9	12.4
2026-01-12 10:54:42.011810	133.4	30.6	-63.3	12.0
2026-01-12 10:54:44.257326	133.0	31.0	-63.5	11.6
2026-01-12 10:54:46.503855	132.7	31.4	-63.8	10.1
2026-01-12 10:54:48.747370	132.4	31.9	-64.0	10.9
2026-01-12 10:54:50.990399	132.1	32.3	-63.9	10.8
2026-01-12 10:54:53.233915	131.7	32.7	-63.8	10.9
2026-01-12 10:54:55.477933	131.4	33.1	-64.3	12.1
2026-01-12 10:54:57.721945	131.0	33.6	-63.8	10.6
2026-01-12 10:54:59.966471	130.7	34.0	-64.0	10.8
2026-01-12 10:55:02.209491	130.3	34.5	-64.5	11.8
2026-01-12 10:55:04.453502	129.9	34.9	-63.6	11.6
2026-01-12 10:55:06.697514	129.5	35.4	-64.0	10.4
2026-01-12 10:55:08.941040	129.1	35.9	-62.9	8.3
2026-01-12 10:55:11.185051	128.6	36.3	-63.4	10.9
2026-01-12 10:55:13.429072	128.2	36.8	-64.3	10.9
2026-01-12 10:55:15.673083	127.8	37.3	-63.7	10.1
2026-01-12 10:55:17.917094	127.3	37.8	-63.0	9.3
2026-01-12 10:55:20.164611	126.8	38.3	-63.6	8.5
2026-01-12 10:55:22.408631	126.3	38.8	-63.6	8.1
2026-01-12 10:55:24.652642	125.8	39.3	-64.0	9.8
2026-01-12 10:55:26.897160	125.3	39.8	-64.1	10.5
2026-01-12 10:55:29.143686	124.7	40.3	-62.9	8.1
2026-01-12 10:55:31.386705	124.2	40.8	-63.4	8.6
2026-01-12 10:55:33.630717	123.6	41.3	-63.5	7.7
2026-01-12 10:55:35.874737	123.0	41.8	-63.5	8.1
2026-01-12 10:55:38.118768	122.4	42.4	-63.2	10.2
2026-01-12 10:55:40.360806	121.7	42.9	-63.4	9.5
2026-01-12 10:55:42.603827	121.1	43.4	-62.7	8.1
2026-01-12 10:55:44.848848	120.4	44.0	-63.4	7.2
2026-01-12 10:55:47.093355	119.7	44.5	-62.9	7.2
2026-01-12 10:55:49.336390	119.0	45.0	-62.9	5.3
2026-01-12 10:55:51.580402	118.2	45.6	-63.3	7.8
2026-01-12 10:55:53.824413	117.4	46.1	-63.2	8.5
2026-01-12 10:55:56.068425	116.6	46.7	-63.7	8.8
2026-01-12 10:55:58.312445	115.8	47.2	-63.1	8.7
2026-01-12 10:56:00.555961	114.9	47.8	-63.4	7.7
2026-01-12 10:56:02.799476	114.0	48.3	-62.2	4.3
2026-01-12 10:56:05.042992	113.1	48.8	-63.8	7.2
2026-01-12 10:56:07.287508	112.1	49.4	-61.7	5.2
2026-01-12 10:56:09.529538	111.1	49.9	-62.4	6.4
2026-01-12 10:56:11.772559	110.1	50.5	-62.2	5.9
2026-01-12 10:56:14.017066	109.0	51.0	-62.5	5.7
2026-01-12 10:56:16.260591	107.9	51.5	-63.3	8.2
2026-01-12 10:56:18.504602	106.7	52.0	-62.4	4.7
2026-01-12 10:56:20.748118	105.5	52.5	-63.1	5.1
2026-01-12 10:56:22.991138	104.3	53.1	-62.6	6.1
2026-01-12 10:56:25.235150	103.0	53.6	-62.6	4.6
2026-01-12 10:56:27.478666	101.7	54.0	-62.5	4.3
2026-01-12 10:56:29.722181	100.3	54.5	-62.8	4.3
2026-01-12 10:56:31.965697	98.9	55.0	-62.4	1.6
2026-01-12 10:56:34.209709	97.4	55.4	-63.0	3.8
2026-01-12 10:56:36.453225	95.9	55.9	-63.1	4.7
2026-01-12 10:56:38.696741	94.4	56.3	-63.1	3.7
2026-01-12 10:56:40.939762	92.8	56.7	-63.0	4.7
2026-01-12 10:56:43.182286	91.1	57.0	-61.6	0.8
2026-01-12 10:56:45.426793	89.5	57.4	-63.1	3.8
2026-01-12 10:56:47.670804	87.7	57.7	-62.7	1.8
2026-01-12 10:56:49.914320	85.9	58.0	-62.4	0.1
2026-01-12 10:56:52.157837	84.1	58.3	-63.2	0.3
2026-01-12 10:56:54.401849	82.3	58.6	-63.4	0.7
2026-01-12 10:56:56.645859	80.4	58.8	-62.8	2.1
2026-01-12 10:56:58.890871	78.5	59.0	-62.8	1.8
2026-01-12 10:57:01.134393	76.5	59.2	-63.5	2.8
2026-01-12 10:57:03.377909	74.5	59.3	-63.6	1.8
2026-01-12 10:57:05.622425	72.6	59.5	-64.6	5.3
2026-01-12 10:57:07.865941	70.5	59.5	-64.2	3.2
2026-01-12 10:57:10.107971	68.5	59.6	-63.4	0.0
2026-01-12 10:57:12.351487	66.5	59.6	-63.8	3.4
2026-01-12 10:57:14.595499	64.5	59.6	-63.0	3.3
2026-01-12 10:57:16.839014	62.5	59.5	-63.8	2.8
2026-01-12 10:57:19.083521	60.5	59.5	-63.7	3.7
2026-01-12 10:57:21.328532	58.5	59.3	-63.5	4.3
2026-01-12 10:57:23.572544	56.5	59.2	-62.3	3.6
2026-01-12 10:57:25.816555	54.6	59.0	-62.8	4.2
2026-01-12 10:57:28.061567	52.7	58.8	-63.9	4.8
2026-01-12 10:57:30.306082	50.8	58.6	-63.2	3.3
2026-01-12 10:57:32.549598	48.9	58.3	-62.5	2.6
2026-01-12 10:57:34.794105	47.1	58.1	-63.4	2.5
2026-01-12 10:57:37.038117	45.3	57.7	-63.0	1.7
2026-01-12 10:57:39.281633	43.6	57.4	-63.6	0.8
2026-01-12 10:57:41.525149	41.9	57.1	-62.3	1.9
2026-01-12 10:57:43.766685	40.3	56.7	-63.0	1.8
2026-01-12 10:57:46.010724	38.7	56.3	-63.1	4.0
2026-01-12 10:57:48.255745	37.1	55.9	-62.3	2.2
2026-01-12 10:57:50.498775	35.6	55.4	-62.7	1.3
2026-01-12 10:57:52.740804	34.2	55.0	-62.2	2.8
2026-01-12 10:57:54.985338	32.7	54.5	-62.3	1.2
2026-01-12 10:57:57.227863	31.4	54.1	-59.1	0.0
2026-01-12 10:57:59.472391	30.0	53.6	-60.8	0.0
2026-01-12 10:58:01.716402	28.8	53.1	-62.0	0.6
2026-01-12 10:58:03.960413	27.5	52.6	-61.6	2.0
2026-01-12 10:58:06.204424	26.3	52.1	-61.8	0.0
2026-01-12 10:58:08.448930	25.2	51.5	-62.2	3.3
2026-01-12 10:58:10.692447	24.1	51.0	-61.9	1.1
2026-01-12 10:58:12.934476	23.0	50.5	-61.5	0.0
2026-01-12 10:58:15.177002	22.0	50.0	-60.6	0.5
2026-01-12 10:58:17.421555	21.0	49.4	-60.6	0.0
2026-01-12 10:58:19.665576	20.0	48.9	-62.0	1.0
2026-01-12 10:58:21.908100	19.1	48.3	-60.8	0.0
2026-01-12 10:58:24.150624	18.2	47.8	-60.5	0.9
2026-01-12 10:58:26.396140	17.3	47.3	-60.8	0.0
2026-01-12 10:58:28.640152	16.5	46.7	-61.2	2.8
2026-01-12 10:58:30.883668	15.7	46.2	-60.7	0.0
2026-01-12 10:58:33.127185	14.9	45.6	-61.5	0.0
2026-01-12 10:58:35.369711	14.1	45.1	-62.1	0.6
2026-01-12 10:58:37.612245	13.4	44.6	-61.0	1.2
2026-01-12 10:58:39.854275	12.7	44.0	-61.7	1.0
2026-01-12 10:58:42.097790	12.0	43.5	-59.6	0.0
2026-01-12 10:58:44.342297	11.4	43.0	-61.0	5.3
2026-01-12 10:58:46.586309	10.7	42.4	-57.9	0.0
2026-01-12 10:58:48.829824	10.1	41.9	-62.2	4.6
2026-01-12 10:58:51.074835	9.5	41.4	-61.0	3.6
2026-01-12 10:58:53.317359	8.9	40.9	-60.9	4.1
2026-01-12 10:58:55.559894	8.4	40.4	-61.9	3.6
2026-01-12 10:58:57.804409	7.8	39.9	-59.2	1.4
2026-01-12 10:59:00.047430	7.3	39.3	-61.4	5.1
2026-01-12 10:59:02.290451	6.8	38.9	-60.4	1.2
2026-01-12 10:59:04.534958	6.3	38.4	-61.7	5.5
2026-01-12 10:59:06.781487	5.8	37.9	-61.4	3.1
2026-01-12 10:59:09.025498	5.4	37.4	-61.7	4.1
2026-01-12 10:59:11.271510	4.9	36.9	-59.5	0.7
2026-01-12 10:59:13.514531	4.5	36.4	-62.1	4.7
2026-01-12 10:59:15.757551	4.0	36.0	-61.7	5.2
2026-01-12 10:59:18.002058	3.6	35.5	-61.2	4.3
2026-01-12 10:59:20.245079	3.2	35.0	-62.1	5.1
2026-01-12 10:59:22.488595	2.8	34.6	-60.8	3.5
2026-01-12 10:59:24.732606	2.5	34.1	-60.7	3.2
2026-01-12 10:59:26.976618	2.1	33.7	-59.8	2.8
2026-01-12 10:59:29.219638	1.7	33.3	-61.5	7.0
2026-01-12 10:59:31.462163	1.4	32.8	-60.3	3.0
2026-01-12 10:59:33.706174	1.1	32.4	-62.5	6.2
2026-01-12 10:59:35.950681	0.7	32.0	-61.8	6.2
2026-01-12 10:59:38.193207	0.4	31.6	-61.5	5.9
2026-01-12 10:59:40.436724	0.1	31.1	-61.8	6.2
2026-01-12 10:59:42.680736	359.8	30.7	-62.1	5.5
2026-01-12 10:59:44.924251	359.5	30.3	-62.6	6.4
2026-01-12 10:59:47.167271	359.2	29.9	-61.6	5.1
2026-01-12 10:59:49.411777	358.9	29.5	-61.7	5.9
2026-01-12 10:59:51.655302	358.6	29.1	-61.6	5.1
2026-01-12 10:59:53.897828	358.4	28.8	-61.2	4.5
2026-01-12 10:59:56.141839	358.1	28.4	-61.2	5.5
2026-01-12 10:59:58.385354	357.9	28.0	-61.2	2.8
2026-01-12 11:00:00.629861	357.6	27.6	-61.8	5.5
2026-01-12 11:00:02.873872	357.4	27.3	-62.4	4.3
2026-01-12 11:00:05.117386	357.1	26.9	-61.9	4.2
2026-01-12 11:00:07.360933	356.9	26.5	-60.7	1.9
2026-01-12 11:00:09.604954	356.7	26.2	-62.1	5.2
2026-01-12 11:00:11.852013	356.4	25.8	-61.9	5.1
2026-01-12 11:00:14.096050	356.2	25.5	-63.6	6.0
2026-01-12 11:00:16.340108	356.0	25.2	-61.1	3.0
2026-01-12 11:00:18.588633	355.8	24.8	-62.4	5.6
2026-01-12 11:00:20.831694	355.6	24.5	-63.3	6.8
2026-01-12 11:00:23.074720	355.4	24.1	-61.7	3.8
2026-01-12 11:00:25.319260	355.2	23.8	-61.9	0.3
2026-01-12 11:00:27.562288	355.0	23.5	-61.1	0.0
2026-01-12 11:00:29.804819	354.8	23.2	-63.2	7.2
2026-01-12 11:00:32.048861	354.6	22.9	-63.0	5.4
2026-01-12 11:00:34.291395	354.5	22.6	-62.4	5.6
2026-01-12 11:00:36.534438	354.3	22.2	-63.1	4.2
2026-01-12 11:00:38.777962	354.1	21.9	-62.8	5.0
2026-01-12 11:00:41.021974	354.0	21.6	-63.4	4.1
2026-01-12 11:00:43.265528	353.8	21.3	-63.2	4.8
2026-01-12 11:00:45.510053	353.6	21.0	-62.6	3.3
2026-01-12 11:00:47.753106	353.5	20.7	-63.3	5.7
2026-01-12 11:00:49.997117	353.3	20.5	-63.0	4.5
2026-01-12 11:00:52.241186	353.2	20.2	-61.6	4.3
2026-01-12 11:00:54.488213	353.0	19.9	-62.5	5.5
2026-01-12 11:00:56.731274	352.9	19.6	-61.9	4.5
2026-01-12 11:00:58.975293	352.7	19.3	-63.2	3.0
2026-01-12 11:01:01.219818	352.6	19.1	-62.5	3.6
2026-01-12 11:01:03.464366	352.5	18.8	-62.2	1.6
2026-01-12 11:01:05.708426	352.3	18.5	-62.9	3.8
2026-01-12 11:01:07.952486	352.2	18.3	-62.9	4.4
2026-01-12 11:01:10.198003	352.1	18.0	-62.9	3.8
2026-01-12 11:01:12.442559	351.9	17.7	-62.5	4.8
2026-01-12 11:01:14.686075	351.8	17.5	-61.7	0.4
2026-01-12 11:01:16.929591	351.7	17.2	-62.7	4.6
2026-01-12 11:01:19.176652	351.6	17.0	-63.1	4.5
2026-01-12 11:01:21.421167	351.4	16.7	-61.7	2.2
2026-01-12 11:01:23.664715	351.3	16.5	-63.2	2.7
2026-01-12 11:01:25.906257	351.2	16.2	-62.2	2.5
2026-01-12 11:01:28.149814	351.1	16.0	-63.3	3.2
2026-01-12 11:01:30.392834	351.0	15.7	-63.0	2.7
2026-01-12 11:01:32.636392	350.9	15.5	-61.1	0.0
2026-01-12 11:01:34.878428	350.8	15.3	-62.3	0.1
2026-01-12 11:01:37.122935	350.7	15.0	-63.1	1.3
2026-01-12 11:01:39.366986	350.6	14.8	-63.2	1.4
2026-01-12 11:01:41.611518	350.5	14.6	-61.1	0.0
2026-01-12 11:01:43.855073	350.4	14.3	-62.3	0.9
2026-01-12 11:01:46.099084	350.3	14.1	-62.4	1.9
2026-01-12 11:01:48.342640	350.2	13.9	-62.6	2.4
2026-01-12 11:01:50.586205	350.1	13.7	-62.0	1.7
2026-01-12 11:01:52.829225	350.0	13.4	-61.7	1.4
2026-01-12 11:01:55.072741	349.9	13.2	-63.3	3.5
2026-01-12 11:01:57.314780	349.8	13.0	-61.3	1.8
2026-01-12 11:01:59.558355	349.7	12.8	-62.1	1.3
2026-01-12 11:02:01.802374	349.6	12.6	-62.2	4.9
2026-01-12 11:02:04.044930	349.5	12.4	-63.0	3.9
2026-01-12 11:02:06.288942	349.4	12.2	-64.1	3.3
2026-01-12 11:02:08.534019	349.4	12.0	-62.5	2.2
2026-01-12 11:02:10.778039	349.3	11.7	-63.2	3.0
2026-01-12 11:02:13.020603	349.2	11.5	-61.9	1.5
2026-01-12 11:02:15.265110	349.1	11.3	-60.7	0.0
2026-01-12 11:02:17.508152	349.0	11.1	-62.7	2.8
2026-01-12 11:02:19.750717	349.0	10.9	-62.9	1.4
2026-01-12 11:02:21.994262	348.9	10.7	-61.4	0.0
2026-01-12 11:02:24.237314	348.8	10.5	-63.8	3.9
2026-01-12 11:02:26.482848	348.7	10.4	-61.3	0.0
2026-01-12 11:02:28.726908	348.7	10.2	-64.6	1.7
2026-01-12 11:02:30.968945	348.6	10.0	-63.8	2.0
2026-01-12 11:02:33.211024	348.5	9.8	-63.0	0.0
2026-01-12 11:02:35.454548	348.4	9.6	-63.8	0.0
2026-01-12 11:02:37.697600	348.4	9.4	-63.7	0.0
2026-01-12 11:02:39.941126	348.3	9.2	-61.8	0.0
2026-01-12 11:02:42.184154	348.2	9.0	-62.3	0.0
2026-01-12 11:02:44.428205	348.2	8.8	-63.8	0.0
2026-01-12 11:02:46.671235	348.1	8.7	-63.8	0.0
2026-01-12 11:02:48.915304	348.0	8.5	-63.1	0.0
2026-01-12 11:02:51.158821	348.0	8.3	-63.6	0.0
2026-01-12 11:02:53.401850	347.9	8.1	-63.2	0.0
2026-01-12 11:02:55.645902	347.9	7.9	-63.0	0.2
2026-01-12 11:02:57.889458	347.8	7.8	-62.7	0.0
2026-01-12 11:03:00.132479	347.7	7.6	-64.1	0.5
2026-01-12 11:03:02.375499	347.7	7.4	-61.9	0.0
2026-01-12 11:03:04.618559	347.6	7.3	-62.9	0.0
2026-01-12 11:03:06.859605	347.6	7.1	-62.9	0.0
2026-01-12 11:03:09.105172	347.5	6.9	-62.5	0.0
2026-01-12 11:03:11.349679	347.5	6.7	-63.2	0.0
2026-01-12 11:03:13.594193	347.4	6.6	-62.6	0.0
2026-01-12 11:03:15.838244	347.3	6.4	-63.9	0.0
2026-01-12 11:03:18.082262	347.3	6.2	-62.4	0.0
2026-01-12 11:03:20.325809	347.2	6.1	-63.8	0.0
2026-01-12 11:03:22.570316	347.2	5.9	-64.4	0.0
2026-01-12 11:03:24.812383	347.1	5.7	-67.4	0.0
2026-01-12 11:03:27.056899	347.1	5.6	-68.0	0.0
2026-01-12 11:03:29.301445	347.0	5.4	-69.3	0.0
2026-01-12 11:03:31.544985	347.0	5.3	-70.0	0.0
2026-01-12 11:03:33.789493	346.9	5.1	-71.4	0.0
#Closed at: 2026-01-12 10:50:47.351535