passes_logs/2025/01/10/PPK-1/PPK-1__20250110_001016_TY-39_rec.log

#Pass ID: 20250110_001016_TY-39
#Satellite: TY-39
#Configuration: TY-39
#almurnet v.1.7.20230919.trace
#Start time: 2025-01-10 00:10:15

#Version: 2.2.20231116
#Station: PPK-1
#Location: 158.6 lon 53.06666 lat
#TLE: 1 51832U 22019J   25009.19533040  .00003868  00000+0  19941-3 0  9995
#TLE: 2 51832  97.4109  79.5300 0007705 256.8141 103.2233 15.16924175158268

#Time	Az	El	Level	Level2	SNR	BER	BlckErr	Temp	State
2025-01-10 00:10:15.11	11.46	7.88	-66.5	-72.3	3.5	0.00e+00	0	46	0
2025-01-10 00:10:17.00	11.44	8.05	-66.5	-72.4	3.6	0.00e+00	0	47	104
2025-01-10 00:10:18.90	11.42	8.23	-66.5	-72.3	3.6	0.00e+00	0	47	104
2025-01-10 00:10:20.80	11.40	8.41	-66.6	-72.6	3.7	0.00e+00	0	47	104
2025-01-10 00:10:22.70	11.38	8.59	-66.5	-72.4	3.7	0.00e+00	0	48	104
2025-01-10 00:10:24.59	11.35	8.77	-66.4	-72.2	3.6	0.00e+00	0	48	104
2025-01-10 00:10:26.49	11.33	8.95	-66.1	-71.4	3.5	0.00e+00	0	48	104
2025-01-10 00:10:28.39	11.30	9.14	-65.7	-70.2	3.4	0.00e+00	0	48	104
2025-01-10 00:10:30.29	11.28	9.33	-65.1	-69.3	3.3	0.00e+00	0	49	104
2025-01-10 00:10:32.18	11.25	9.51	-64.8	-68.8	3.7	0.00e+00	0	49	104
2025-01-10 00:10:34.08	11.23	9.71	-64.7	-68.6	3.7	0.00e+00	0	49	104
2025-01-10 00:10:35.98	11.20	9.90	-65.0	-69.2	3.5	0.00e+00	0	50	104
2025-01-10 00:10:37.88	11.18	10.09	-65.6	-70.6	3.4	0.00e+00	0	50	104
2025-01-10 00:10:39.78	11.15	10.29	-66.3	-71.6	3.4	0.00e+00	0	50	104
2025-01-10 00:10:41.68	11.12	10.49	-67.0	-72.9	3.6	0.00e+00	0	51	104
2025-01-10 00:10:43.58	11.09	10.69	-67.2	-73.4	3.7	0.00e+00	0	51	104
2025-01-10 00:10:45.48	11.06	10.90	-67.3	-73.4	3.7	0.00e+00	0	51	104
2025-01-10 00:10:47.38	11.03	11.10	-67.1	-73.1	3.6	0.00e+00	0	51	104
2025-01-10 00:10:49.28	11.00	11.31	-66.9	-72.5	3.6	0.00e+00	0	52	104
2025-01-10 00:10:51.18	10.97	11.52	-66.7	-71.9	3.5	0.00e+00	0	52	104
2025-01-10 00:10:53.07	10.94	11.73	-66.6	-71.7	3.5	0.00e+00	0	52	104
2025-01-10 00:10:54.97	10.91	11.95	-66.8	-72.4	3.7	0.00e+00	0	52	104
2025-01-10 00:10:56.87	10.87	12.16	-67.1	-73.2	3.7	0.00e+00	0	53	104
2025-01-10 00:10:58.77	10.84	12.38	-67.3	-73.2	3.7	0.00e+00	0	53	104
2025-01-10 00:11:00.67	10.80	12.61	-67.3	-72.9	3.6	0.00e+00	0	53	104
2025-01-10 00:11:02.57	10.77	12.83	-67.0	-71.9	3.5	0.00e+00	0	54	104
2025-01-10 00:11:04.47	10.73	13.06	-66.5	-71.2	3.4	0.00e+00	0	54	104
2025-01-10 00:11:06.37	10.69	13.29	-66.1	-70.3	3.7	0.00e+00	0	54	104
2025-01-10 00:11:08.27	10.66	13.52	-66.0	-70.5	3.7	0.00e+00	0	54	104
2025-01-10 00:11:10.17	10.62	13.76	-66.2	-70.8	3.5	0.00e+00	0	54	104
2025-01-10 00:11:12.07	10.58	14.00	-66.5	-71.7	3.4	0.00e+00	0	54	104
2025-01-10 00:11:13.96	10.54	14.24	-56.7	-59.3	10.6	4.27e-03	0	55	104
2025-01-10 00:11:15.86	10.50	14.49	-56.7	-59.3	11.1	1.84e-03	0	55	0
2025-01-10 00:11:17.76	10.45	14.74	-56.1	-58.6	11.7	4.85e-04	0	56	0
2025-01-10 00:11:19.66	10.41	14.99	-55.9	-58.6	11.4	6.80e-04	0	56	0
2025-01-10 00:11:21.55	10.37	15.24	-55.7	-58.2	10.9	2.09e-03	0	56	0
2025-01-10 00:11:23.45	10.32	15.50	-55.5	-58.4	10.3	3.97e-03	0	56	0
2025-01-10 00:11:25.34	10.27	15.77	-56.0	-59.4	9.5	1.31e-02	0	57	0
2025-01-10 00:11:27.24	10.23	16.03	-56.0	-59.3	9.2	2.23e-02	0	57	0
2025-01-10 00:11:29.13	10.18	16.30	-56.1	-59.6	8.8	3.20e-02	0	57	0
2025-01-10 00:11:31.02	10.13	16.57	-56.0	-59.3	8.9	3.80e-02	0	57	0
2025-01-10 00:11:32.91	10.08	16.85	-55.9	-59.1	9.1	3.01e-02	0	58	0
2025-01-10 00:11:34.81	10.02	17.13	-55.5	-58.3	9.8	1.87e-02	0	58	0
2025-01-10 00:11:36.71	9.97	17.42	-55.6	-58.6	9.8	1.15e-02	0	58	0
2025-01-10 00:11:38.61	9.91	17.71	-55.5	-58.2	9.8	1.40e-02	0	58	0
2025-01-10 00:11:40.51	9.86	18.00	-55.6	-58.4	10.2	6.87e-03	0	58	0
2025-01-10 00:11:42.40	9.80	18.30	-57.5	-60.8	8.9	3.58e-02	0	58	0
2025-01-10 00:11:44.30	9.74	18.61	-57.8	-60.9	8.8	3.40e-02	0	59	0
2025-01-10 00:11:46.20	9.68	18.91	-57.1	-59.4	9.8	3.48e-02	0	59	0
2025-01-10 00:11:48.10	9.62	19.23	-55.1	-57.4	11.7	9.36e-04	0	59	0
2025-01-10 00:11:49.99	9.55	19.54	-54.2	-56.6	12.2	3.67e-04	0	59	0
2025-01-10 00:11:51.89	9.49	19.87	-53.8	-56.3	13.1	4.16e-05	0	59	0
2025-01-10 00:11:53.78	9.42	20.20	-53.5	-56.3	13.4	1.38e-05	0	60	0
2025-01-10 00:11:55.67	9.35	20.53	-53.9	-57.0	12.7	0.00e+00	0	60	0
2025-01-10 00:11:57.56	9.28	20.87	-54.0	-57.4	11.8	3.26e-04	0	60	0
2025-01-10 00:11:59.45	9.20	21.21	-54.4	-57.5	11.4	1.50e-03	0	60	0
2025-01-10 00:12:01.34	9.13	21.56	-54.0	-56.7	12.2	2.57e-04	0	60	0
2025-01-10 00:12:03.24	9.05	21.92	-53.2	-55.7	13.4	2.08e-05	0	61	0
2025-01-10 00:12:05.13	8.97	22.28	-52.7	-55.2	13.8	0.00e+00	0	61	0
2025-01-10 00:12:07.02	8.89	22.65	-52.6	-55.5	13.7	0.00e+00	0	61	0
2025-01-10 00:12:08.92	8.80	23.02	-53.0	-56.3	13.5	0.00e+00	0	61	0
2025-01-10 00:12:10.81	8.72	23.41	-53.1	-56.5	13.5	1.38e-05	0	61	0
2025-01-10 00:12:12.70	8.63	23.79	-53.3	-56.3	13.6	0.00e+00	0	61	0
2025-01-10 00:12:14.60	8.53	24.19	-52.5	-55.2	14.0	0.00e+00	0	62	0
2025-01-10 00:12:16.49	8.44	24.60	-51.8	-54.4	14.3	0.00e+00	0	62	0
2025-01-10 00:12:18.38	8.34	25.01	-51.7	-54.2	14.3	0.00e+00	0	62	0
2025-01-10 00:12:20.28	8.24	25.43	-51.8	-54.3	14.2	0.00e+00	0	62	0
2025-01-10 00:12:22.18	8.13	25.86	-52.2	-55.1	13.9	0.00e+00	0	62	0
2025-01-10 00:12:24.08	8.02	26.29	-52.0	-54.7	14.2	0.00e+00	0	62	0
2025-01-10 00:12:25.98	7.91	26.74	-51.3	-53.8	14.4	0.00e+00	0	62	0
2025-01-10 00:12:27.88	7.80	27.19	-50.8	-53.3	14.5	0.00e+00	0	62	0
2025-01-10 00:12:29.78	7.68	27.66	-51.0	-53.7	14.6	0.00e+00	0	62	0
2025-01-10 00:12:31.68	7.55	28.13	-51.0	-53.8	14.7	0.00e+00	0	63	0
2025-01-10 00:12:33.58	7.42	28.61	-51.2	-54.1	14.6	0.00e+00	0	63	0
2025-01-10 00:12:35.48	7.29	29.10	-50.6	-52.9	14.7	0.00e+00	0	63	0
2025-01-10 00:12:37.37	7.15	29.60	-50.2	-52.7	15.0	0.00e+00	0	63	0
2025-01-10 00:12:39.27	7.01	30.12	-50.3	-53.2	15.1	0.00e+00	0	63	0
2025-01-10 00:12:41.17	6.86	30.64	-50.6	-53.8	14.9	0.00e+00	0	63	0
2025-01-10 00:12:43.07	6.71	31.18	-50.3	-53.2	15.0	0.00e+00	0	63	0
2025-01-10 00:12:44.96	6.55	31.72	-49.8	-52.4	15.1	0.00e+00	0	63	0
2025-01-10 00:12:46.86	6.39	32.28	-49.6	-52.4	15.2	0.00e+00	0	63	0
2025-01-10 00:12:48.76	6.22	32.85	-49.9	-53.0	15.1	0.00e+00	0	64	0
2025-01-10 00:12:50.66	6.04	33.44	-50.0	-53.1	15.0	0.00e+00	0	64	0
2025-01-10 00:12:52.56	5.85	34.03	-49.4	-52.0	15.3	0.00e+00	0	64	0
2025-01-10 00:12:54.46	5.66	34.64	-49.2	-51.5	15.5	0.00e+00	0	64	0
2025-01-10 00:12:56.36	5.45	35.27	-49.3	-51.9	15.4	0.00e+00	0	64	0
2025-01-10 00:12:58.26	5.24	35.90	-49.3	-51.7	15.5	0.00e+00	0	64	0
2025-01-10 00:13:00.15	5.03	36.55	-47.7	-50.1	15.4	0.00e+00	0	64	0
2025-01-10 00:13:02.04	4.80	37.22	-47.6	-50.3	15.6	0.00e+00	0	65	0
2025-01-10 00:13:03.94	4.56	37.90	-47.8	-50.7	15.5	0.00e+00	0	65	0
2025-01-10 00:13:05.84	4.30	38.60	-47.7	-50.5	15.5	0.00e+00	0	65	0
2025-01-10 00:13:07.73	4.04	39.31	-47.1	-49.8	15.5	0.00e+00	0	65	0
2025-01-10 00:13:09.63	3.77	40.04	-47.3	-50.3	15.4	0.00e+00	0	65	0
2025-01-10 00:13:11.53	3.48	40.78	-47.5	-50.6	15.5	0.00e+00	0	65	0
2025-01-10 00:13:13.43	3.17	41.55	-47.1	-50.0	15.7	0.00e+00	0	65	0
2025-01-10 00:13:15.33	2.85	42.33	-47.0	-49.6	15.7	0.00e+00	0	65	0
2025-01-10 00:13:17.23	2.51	43.13	-47.0	-49.6	15.7	0.00e+00	0	65	0
2025-01-10 00:13:19.12	2.16	43.94	-46.5	-49.3	15.9	0.00e+00	0	65	0
2025-01-10 00:13:21.02	1.78	44.78	-46.5	-49.2	15.9	0.00e+00	0	65	0
2025-01-10 00:13:22.92	1.38	45.63	-46.7	-49.6	15.8	0.00e+00	0	65	0
2025-01-10 00:13:24.82	0.96	46.51	-46.2	-48.6	15.9	0.00e+00	0	66	0
2025-01-10 00:13:26.72	0.51	47.40	-46.4	-49.0	16.0	0.00e+00	0	66	0
2025-01-10 00:13:28.62	0.04	48.31	-45.9	-48.5	16.1	0.00e+00	0	66	0
2025-01-10 00:13:30.51	359.54	49.24	-45.5	-48.1	16.1	0.00e+00	0	66	0
2025-01-10 00:13:32.41	359.00	50.19	-45.2	-47.5	16.1	0.00e+00	0	66	0
2025-01-10 00:13:34.31	358.42	51.16	-44.7	-47.1	16.2	0.00e+00	0	66	0
2025-01-10 00:13:36.21	357.80	52.15	-44.5	-47.2	16.2	0.00e+00	0	66	0
2025-01-10 00:13:38.11	357.14	53.16	-44.2	-46.5	16.3	0.00e+00	0	66	0
2025-01-10 00:13:40.01	356.43	54.19	-43.9	-46.5	16.3	0.00e+00	0	66	0
2025-01-10 00:13:41.91	355.67	55.24	-43.7	-46.0	16.4	0.00e+00	0	66	0
2025-01-10 00:13:43.81	354.84	56.30	-43.5	-46.2	16.5	0.00e+00	0	67	0
2025-01-10 00:13:45.71	353.95	57.38	-43.3	-45.8	16.5	0.00e+00	0	67	0
2025-01-10 00:13:47.61	352.98	58.48	-43.2	-45.6	16.5	0.00e+00	0	67	0
2025-01-10 00:13:49.51	351.93	59.59	-43.0	-45.7	16.6	0.00e+00	0	67	0
2025-01-10 00:13:51.40	350.78	60.70	-43.0	-45.7	16.6	0.00e+00	0	67	0
2025-01-10 00:13:53.30	349.52	61.84	-43.0	-45.6	16.6	0.00e+00	0	67	0
2025-01-10 00:13:55.20	348.13	62.98	-43.0	-45.6	16.5	0.00e+00	0	67	0
2025-01-10 00:13:57.10	346.61	64.12	-43.2	-46.0	16.5	0.00e+00	0	67	0
2025-01-10 00:13:59.00	344.92	65.27	-42.9	-45.4	16.6	0.00e+00	0	67	0
2025-01-10 00:14:00.90	343.04	66.41	-43.2	-46.0	16.5	0.00e+00	0	67	0
2025-01-10 00:14:02.80	340.96	67.55	-42.8	-45.3	16.6	0.00e+00	0	67	0
2025-01-10 00:14:04.70	338.62	68.67	-43.3	-46.3	16.5	0.00e+00	0	67	0
2025-01-10 00:14:06.60	336.01	69.77	-42.9	-45.4	16.6	0.00e+00	0	67	0
2025-01-10 00:14:08.50	333.08	70.84	-43.1	-45.9	16.6	0.00e+00	0	67	0
2025-01-10 00:14:10.40	329.78	71.87	-43.4	-46.4	16.5	0.00e+00	0	67	0
2025-01-10 00:14:12.29	326.09	72.84	-43.0	-45.6	16.5	0.00e+00	0	68	0
2025-01-10 00:14:14.19	321.92	73.74	-43.3	-46.3	16.5	0.00e+00	0	68	0
2025-01-10 00:14:16.08	317.29	74.56	-42.8	-45.3	16.6	0.00e+00	0	67	0
2025-01-10 00:14:17.98	312.13	75.28	-43.0	-45.6	16.6	0.00e+00	0	68	0
2025-01-10 00:14:19.88	306.46	75.87	-43.3	-46.4	16.5	0.00e+00	0	68	0
2025-01-10 00:14:21.78	300.34	76.32	-42.9	-45.4	16.5	0.00e+00	0	68	0
2025-01-10 00:14:23.68	293.86	76.61	-43.1	-45.9	16.5	0.00e+00	0	68	0
2025-01-10 00:14:25.58	287.18	76.73	-42.8	-45.2	16.6	0.00e+00	0	68	0
2025-01-10 00:14:27.48	280.46	76.68	-42.8	-45.2	16.5	0.00e+00	0	68	0
2025-01-10 00:14:29.37	273.92	76.45	-43.2	-46.2	16.4	0.00e+00	0	68	0
2025-01-10 00:14:31.27	267.65	76.05	-42.9	-45.6	16.5	0.00e+00	0	68	0
2025-01-10 00:14:33.17	261.81	75.50	-43.0	-45.7	16.4	0.00e+00	0	68	0
2025-01-10 00:14:35.07	256.45	74.83	-42.8	-45.2	16.5	0.00e+00	0	68	0
2025-01-10 00:14:36.97	251.61	74.04	-42.9	-45.4	16.5	0.00e+00	0	68	0
2025-01-10 00:14:38.86	247.29	73.17	-43.2	-46.1	16.5	0.00e+00	0	68	0
2025-01-10 00:14:40.76	243.42	72.21	-43.1	-45.8	16.4	0.00e+00	0	68	0
2025-01-10 00:14:42.66	239.98	71.20	-43.3	-46.3	16.5	0.00e+00	0	68	0
2025-01-10 00:14:44.56	236.91	70.14	-43.1	-45.9	16.6	0.00e+00	0	69	0
2025-01-10 00:14:46.46	234.19	69.05	-43.1	-45.8	16.7	0.00e+00	0	69	0
2025-01-10 00:14:48.36	231.76	67.93	-43.3	-46.3	16.6	0.00e+00	0	68	0
2025-01-10 00:14:50.26	229.59	66.79	-43.3	-46.4	16.5	0.00e+00	0	69	0
2025-01-10 00:14:52.16	227.64	65.65	-43.5	-46.6	16.6	0.00e+00	0	69	0
2025-01-10 00:14:54.06	225.88	64.50	-43.4	-46.5	16.6	0.00e+00	0	69	0
2025-01-10 00:14:55.96	224.30	63.35	-44.3	-47.3	16.5	0.00e+00	0	69	0
2025-01-10 00:14:57.86	222.86	62.20	-43.6	-46.3	16.6	0.00e+00	0	69	0
2025-01-10 00:14:59.75	221.57	61.06	-43.9	-47.0	16.6	0.00e+00	0	69	0
2025-01-10 00:15:01.65	220.38	59.93	-43.7	-46.5	16.5	0.00e+00	0	69	0
2025-01-10 00:15:03.55	219.29	58.81	-44.3	-47.7	16.5	0.00e+00	0	69	0
2025-01-10 00:15:05.45	218.29	57.71	-44.1	-47.3	16.5	0.00e+00	0	69	0
2025-01-10 00:15:07.35	217.36	56.62	-44.6	-47.8	16.4	0.00e+00	0	69	0
2025-01-10 00:15:09.25	216.51	55.54	-44.2	-47.1	16.5	0.00e+00	0	69	0
2025-01-10 00:15:11.15	215.73	54.48	-44.7	-48.1	16.2	0.00e+00	0	69	0
2025-01-10 00:15:13.05	215.00	53.44	-44.5	-47.2	16.3	0.00e+00	0	69	0
2025-01-10 00:15:14.95	214.32	52.42	-44.9	-48.0	16.2	0.00e+00	0	69	0
2025-01-10 00:15:16.85	213.69	51.42	-44.8	-47.7	16.3	0.00e+00	0	69	0
2025-01-10 00:15:18.75	213.10	50.44	-44.8	-47.8	16.2	0.00e+00	0	69	0
2025-01-10 00:15:20.65	212.55	49.47	-45.2	-48.5	16.2	0.00e+00	0	69	0
2025-01-10 00:15:22.54	212.03	48.53	-45.1	-48.4	16.2	0.00e+00	0	69	0
2025-01-10 00:15:24.44	211.54	47.61	-45.5	-48.7	16.2	0.00e+00	0	69	0
2025-01-10 00:15:26.34	211.09	46.71	-45.3	-48.2	16.2	0.00e+00	0	69	0
2025-01-10 00:15:28.24	210.66	45.82	-45.3	-48.3	16.2	0.00e+00	0	69	0
2025-01-10 00:15:30.14	210.25	44.95	-45.8	-48.8	16.0	0.00e+00	0	69	0
2025-01-10 00:15:32.04	209.86	44.11	-45.3	-47.7	16.2	0.00e+00	0	69	0
2025-01-10 00:15:33.94	209.50	43.28	-45.3	-47.7	16.1	0.00e+00	0	69	0
2025-01-10 00:15:35.84	209.15	42.47	-45.7	-48.5	16.0	0.00e+00	0	69	0
2025-01-10 00:15:37.74	208.83	41.68	-45.4	-48.0	16.1	0.00e+00	0	69	0
2025-01-10 00:15:39.63	208.52	40.91	-45.5	-48.2	16.0	0.00e+00	0	69	0
2025-01-10 00:15:41.53	208.22	40.15	-45.8	-48.7	16.0	0.00e+00	0	69	0
2025-01-10 00:15:43.43	207.94	39.41	-45.7	-48.6	16.0	0.00e+00	0	70	0
2025-01-10 00:15:45.32	207.67	38.69	-45.8	-48.8	16.0	0.00e+00	0	69	0
2025-01-10 00:15:47.22	207.42	37.98	-46.0	-49.1	16.0	0.00e+00	0	69	0
2025-01-10 00:15:49.12	207.17	37.29	-46.2	-49.6	15.9	0.00e+00	0	70	0
2025-01-10 00:15:51.02	206.94	36.62	-46.1	-49.3	15.9	0.00e+00	0	70	0
2025-01-10 00:15:52.92	206.71	35.96	-46.2	-49.5	15.9	0.00e+00	0	70	0
2025-01-10 00:15:54.82	206.50	35.31	-46.3	-49.3	15.9	0.00e+00	0	70	0
2025-01-10 00:15:56.71	206.29	34.68	-46.5	-49.7	15.9	0.00e+00	0	70	0
2025-01-10 00:15:58.61	206.10	34.06	-46.5	-49.7	15.9	0.00e+00	0	70	0
2025-01-10 00:16:00.51	205.91	33.46	-46.6	-49.9	15.8	0.00e+00	0	70	0
2025-01-10 00:16:02.41	205.73	32.87	-46.8	-49.8	15.7	0.00e+00	0	70	0
2025-01-10 00:16:04.31	205.55	32.29	-46.9	-50.0	15.6	0.00e+00	0	70	0
2025-01-10 00:16:06.21	205.38	31.72	-46.9	-50.1	15.6	0.00e+00	0	70	0
2025-01-10 00:16:08.10	205.22	31.17	-47.1	-50.3	15.6	0.00e+00	0	70	0
2025-01-10 00:16:10.00	205.06	30.63	-47.2	-50.5	15.7	0.00e+00	0	70	0
2025-01-10 00:16:11.90	204.91	30.10	-47.3	-50.3	15.7	0.00e+00	0	70	0
2025-01-10 00:16:13.80	204.77	29.58	-47.5	-50.6	15.5	0.00e+00	0	70	0
2025-01-10 00:16:15.70	204.63	29.07	-47.7	-51.0	15.5	0.00e+00	0	70	0
2025-01-10 00:16:17.60	204.49	28.57	-47.6	-50.9	15.6	0.00e+00	0	70	0
2025-01-10 00:16:19.50	204.36	28.09	-47.7	-51.1	15.5	0.00e+00	0	70	0
2025-01-10 00:16:21.40	204.24	27.61	-47.7	-51.2	15.4	0.00e+00	0	70	0
2025-01-10 00:16:23.30	204.12	27.14	-48.0	-51.2	15.4	0.00e+00	0	70	0
2025-01-10 00:16:25.20	204.00	26.68	-48.2	-51.6	15.3	0.00e+00	0	70	0
2025-01-10 00:16:27.10	203.88	26.23	-48.2	-51.5	15.3	0.00e+00	0	70	0
2025-01-10 00:16:29.00	203.77	25.79	-48.2	-51.6	15.3	0.00e+00	0	70	0
2025-01-10 00:16:30.90	203.67	25.35	-48.3	-51.8	15.3	0.00e+00	0	70	0
2025-01-10 00:16:32.79	203.56	24.93	-48.5	-51.7	15.3	0.00e+00	0	70	0
2025-01-10 00:16:34.69	203.46	24.51	-48.7	-52.1	15.1	0.00e+00	0	70	0
2025-01-10 00:16:36.59	203.36	24.10	-48.8	-52.2	15.1	0.00e+00	0	71	0
2025-01-10 00:16:38.49	203.27	23.70	-48.8	-52.2	15.1	0.00e+00	0	71	0
2025-01-10 00:16:40.39	203.18	23.31	-48.8	-52.2	15.1	0.00e+00	0	71	0
2025-01-10 00:16:42.29	203.09	22.92	-48.9	-51.9	14.9	0.00e+00	0	70	0
2025-01-10 00:16:44.19	203.00	22.54	-49.1	-52.4	14.8	0.00e+00	0	71	0
2025-01-10 00:16:46.09	202.92	22.16	-49.3	-52.7	14.7	0.00e+00	0	71	0
2025-01-10 00:16:47.99	202.83	21.80	-49.4	-52.4	14.8	0.00e+00	0	71	0
2025-01-10 00:16:49.89	202.75	21.44	-49.3	-52.3	14.9	0.00e+00	0	70	0
2025-01-10 00:16:51.79	202.68	21.08	-49.4	-52.5	14.9	0.00e+00	0	71	0
2025-01-10 00:16:53.68	202.60	20.73	-49.5	-52.6	14.8	0.00e+00	0	71	0
2025-01-10 00:16:55.58	202.53	20.39	-49.6	-52.8	14.7	0.00e+00	0	71	0
2025-01-10 00:16:57.48	202.46	20.05	-49.7	-53.1	14.6	0.00e+00	0	71	0
2025-01-10 00:16:59.38	202.39	19.72	-51.0	-54.1	14.7	0.00e+00	0	71	0
2025-01-10 00:17:01.28	202.32	19.40	-51.0	-54.3	14.6	0.00e+00	0	71	0
2025-01-10 00:17:03.18	202.25	19.07	-51.1	-54.3	14.4	0.00e+00	0	71	0
2025-01-10 00:17:05.08	202.19	18.76	-51.1	-54.4	14.5	0.00e+00	0	71	0
2025-01-10 00:17:06.97	202.13	18.45	-51.2	-54.6	14.6	0.00e+00	0	71	0
2025-01-10 00:17:08.87	202.07	18.14	-51.3	-54.4	14.6	0.00e+00	0	71	0
2025-01-10 00:17:10.77	202.01	17.84	-51.3	-54.4	14.6	0.00e+00	0	71	0
2025-01-10 00:17:12.67	201.95	17.54	-51.5	-54.6	14.6	0.00e+00	0	71	0
2025-01-10 00:17:14.57	201.89	17.25	-51.6	-54.9	14.4	0.00e+00	0	71	0
2025-01-10 00:17:16.46	201.83	16.96	-51.7	-55.1	14.3	0.00e+00	0	71	0
2025-01-10 00:17:18.36	201.78	16.68	-51.7	-55.1	14.3	0.00e+00	0	71	0
2025-01-10 00:17:20.26	201.73	16.40	-51.7	-55.2	14.3	0.00e+00	0	71	0
2025-01-10 00:17:22.16	201.68	16.12	-51.8	-54.8	14.3	0.00e+00	0	71	0
2025-01-10 00:17:24.05	201.63	15.85	-51.8	-54.9	14.3	0.00e+00	0	71	0
2025-01-10 00:17:25.95	201.58	15.58	-52.0	-55.2	14.3	0.00e+00	0	71	0
2025-01-10 00:17:27.85	201.53	15.32	-52.0	-55.2	14.3	0.00e+00	0	71	0
2025-01-10 00:17:29.75	201.48	15.06	-52.2	-55.6	14.1	0.00e+00	0	71	0
2025-01-10 00:17:31.65	201.43	14.80	-52.3	-55.8	14.1	0.00e+00	0	71	0
2025-01-10 00:17:33.55	201.39	14.55	-52.3	-55.4	14.0	0.00e+00	0	71	0
2025-01-10 00:17:35.45	201.35	14.30	-52.3	-55.4	14.1	0.00e+00	0	71	0
2025-01-10 00:17:37.35	201.30	14.05	-52.4	-55.4	14.1	0.00e+00	0	71	0
2025-01-10 00:17:39.25	201.26	13.80	-52.4	-55.5	14.0	0.00e+00	0	71	0
2025-01-10 00:17:41.15	201.22	13.56	-52.5	-55.7	13.9	0.00e+00	0	71	0
2025-01-10 00:17:43.04	201.18	13.33	-52.5	-55.8	13.9	0.00e+00	0	71	0
2025-01-10 00:17:44.94	201.14	13.09	-52.6	-55.9	13.9	0.00e+00	0	72	0
2025-01-10 00:17:46.84	201.10	12.86	-52.7	-56.1	13.9	0.00e+00	0	71	0
2025-01-10 00:17:48.74	201.06	12.63	-52.9	-55.9	13.8	0.00e+00	0	72	0
2025-01-10 00:17:50.64	201.03	12.40	-53.0	-56.1	13.7	0.00e+00	0	72	0
2025-01-10 00:17:52.54	200.99	12.18	-53.0	-56.2	13.7	0.00e+00	0	71	0
2025-01-10 00:17:54.44	200.95	11.96	-53.1	-56.4	13.6	6.90e-06	0	71	0
2025-01-10 00:17:56.34	200.92	11.74	-53.1	-56.5	13.7	0.00e+00	0	71	0
2025-01-10 00:17:58.24	200.88	11.52	-53.1	-56.5	13.7	0.00e+00	0	72	0
2025-01-10 00:18:00.14	200.85	11.31	-53.2	-56.2	13.6	6.90e-06	0	72	0
2025-01-10 00:18:02.04	200.82	11.09	-53.2	-56.2	13.5	0.00e+00	0	72	0
2025-01-10 00:18:03.93	200.79	10.89	-53.4	-56.6	13.4	0.00e+00	0	72	0
2025-01-10 00:18:05.83	200.75	10.68	-67.7	-73.1	3.6	0.00e+00	0	72	104
2025-01-10 00:18:07.73	200.72	10.47	-67.7	-73.3	3.6	0.00e+00	0	71	104
2025-01-10 00:18:09.63	200.69	10.27	-67.5	-72.9	3.6	0.00e+00	0	71	104
2025-01-10 00:18:11.53	200.66	10.07	-67.6	-73.1	3.7	0.00e+00	0	71	104
2025-01-10 00:18:13.43	200.63	9.87	-67.6	-73.1	3.7	0.00e+00	0	71	104
2025-01-10 00:18:15.33	200.61	9.68	-67.7	-73.2	3.6	0.00e+00	0	71	104
2025-01-10 00:18:17.22	200.58	9.48	-67.8	-73.3	3.6	0.00e+00	0	71	104
2025-01-10 00:18:19.12	200.55	9.29	-67.8	-73.3	3.6	0.00e+00	0	71	104
2025-01-10 00:18:21.02	200.52	9.10	-67.8	-73.4	3.6	0.00e+00	0	71	104
2025-01-10 00:18:22.92	200.50	8.91	-67.7	-73.3	3.7	0.00e+00	0	71	104
2025-01-10 00:18:24.82	200.47	8.73	-67.6	-73.1	3.7	0.00e+00	0	71	104
2025-01-10 00:18:26.71	200.44	8.54	-67.6	-73.0	3.7	0.00e+00	0	71	104
2025-01-10 00:18:28.61	200.42	8.36	-67.6	-73.1	3.6	0.00e+00	0	71	104
2025-01-10 00:18:30.51	200.39	8.18	-67.6	-73.0	3.6	0.00e+00	0	71	104
2025-01-10 00:18:32.41	200.37	8.00	-67.1	-72.6	3.5	0.00e+00	0	71	104

#Closed at: 2025-01-10 00:18:33
#Recorded file [30761 MB]: D:/data/31015_250110_121804.dat