passes_logs/2026/01/21/R2.0S_Moscow/R2.0S_Moscow__20260121_052433_FENGYUN_3E_rec.log

#Pass ID: 20260121_052433_FENGYUN 3E
#Satellite: FENGYUN 3E
#Configuration: FENGYUN 3E
#almurnet v.1.7.20251203
#Start time: 2026-01-21 05:24:33

#Version: 2.2.20231116
#Station: R2.0S_Moscow
#Location: 37.707566 lon 55.798166 lat
#TLE: 1 49008U 21062A   26020.29079360  .00000161  00000+0  96807-4 0  9999
#TLE: 2 49008  98.7481  25.3569 0002259 127.4136 232.7246 14.19885851235592

#Time	Az	El	Level	Level2	SNR	BER	BlckErr	Temp	State	Recorded	gain1	gain2
2026-01-21 05:24:33.91	10.76	2.05	-40.4	-51.3	3.8	8.47e-01	0	48	0	0	51	12581
2026-01-21 05:24:37.95	10.53	2.28	-40.4	-51.3	3.8	8.46e-01	0	49	104	0	51	12544
2026-01-21 05:24:41.99	10.29	2.52	-40.4	-51.3	3.8	8.46e-01	0	49	104	0	51	12531
2026-01-21 05:24:46.03	10.05	2.76	-40.3	-51.3	3.8	8.46e-01	0	50	104	0	51	12560
2026-01-21 05:24:50.07	9.81	3.00	-40.3	-51.2	3.8	8.46e-01	0	50	104	0	51	12510
2026-01-21 05:24:54.12	9.56	3.24	-40.4	-51.3	3.8	8.45e-01	0	50	104	0	51	12536
2026-01-21 05:24:58.16	9.31	3.48	-40.3	-51.3	3.8	8.46e-01	0	50	104	0	51	12524
2026-01-21 05:25:02.19	9.05	3.73	-40.3	-51.3	3.8	8.46e-01	0	51	104	0	51	12534
2026-01-21 05:25:06.23	8.79	3.97	-40.3	-51.3	3.8	8.47e-01	0	51	104	0	51	12532
2026-01-21 05:25:10.28	8.53	4.22	-40.3	-51.3	3.8	8.47e-01	0	51	104	0	51	12533
2026-01-21 05:25:14.32	8.26	4.47	-40.3	-51.3	3.8	8.47e-01	0	52	104	0	51	12526
2026-01-21 05:25:18.36	7.98	4.72	-40.3	-51.3	3.8	8.47e-01	0	52	104	0	51	12525
2026-01-21 05:25:22.40	7.70	4.98	-40.3	-51.3	3.8	8.47e-01	0	52	104	0	51	12529
2026-01-21 05:25:26.44	7.41	5.23	-40.3	-51.2	3.8	8.46e-01	0	52	104	0	51	12512
2026-01-21 05:25:30.48	7.12	5.49	-40.3	-51.2	3.8	8.45e-01	0	52	104	0	51	12495
2026-01-21 05:25:34.52	6.83	5.75	-40.3	-51.3	3.8	8.46e-01	0	53	104	0	51	12530
2026-01-21 05:25:38.56	6.52	6.01	-40.3	-51.3	3.8	8.46e-01	0	53	104	0	51	12529
2026-01-21 05:25:42.61	6.22	6.27	-40.3	-51.2	3.8	8.46e-01	0	53	104	0	51	12491
2026-01-21 05:25:46.65	5.90	6.54	-40.3	-51.2	3.8	8.47e-01	0	53	104	0	51	12487
2026-01-21 05:25:50.69	5.58	6.80	-40.3	-51.2	3.8	8.46e-01	0	54	104	0	51	12475
2026-01-21 05:25:54.74	5.25	7.07	-40.3	-51.2	3.8	8.46e-01	0	54	104	0	51	12446
2026-01-21 05:25:58.78	4.92	7.34	-40.3	-51.2	3.8	8.46e-01	0	54	104	0	51	12463
2026-01-21 05:26:02.82	4.58	7.61	-40.3	-51.2	3.8	8.46e-01	0	54	104	0	51	12487
2026-01-21 05:26:06.86	4.24	7.89	-40.3	-51.3	3.8	8.45e-01	0	54	104	0	51	12530
2026-01-21 05:26:10.90	3.88	8.16	-40.3	-51.3	3.8	8.46e-01	0	54	104	0	51	12632
2026-01-21 05:26:14.94	3.52	8.44	-40.3	-51.3	3.8	8.46e-01	0	54	104	0	51	12615
2026-01-21 05:26:18.98	3.16	8.72	-40.4	-51.3	3.8	8.46e-01	0	54	104	0	51	12659
2026-01-21 05:26:23.01	2.78	9.00	-40.5	-51.4	3.8	8.46e-01	0	55	104	0	51	12758
2026-01-21 05:26:27.05	2.40	9.28	-40.5	-51.4	3.8	8.47e-01	0	55	104	0	51	12759
2026-01-21 05:26:31.09	2.01	9.57	-40.4	-51.4	3.8	8.46e-01	0	55	104	0	51	12725
2026-01-21 05:26:35.13	1.61	9.86	-40.4	-51.4	3.8	8.47e-01	0	55	104	0	51	12759
2026-01-21 05:26:39.17	1.21	10.15	-40.4	-51.4	3.8	8.47e-01	0	55	104	0	51	12795
2026-01-21 05:26:43.20	0.79	10.44	-40.6	-51.4	3.8	8.47e-01	0	55	104	0	51	12771
2026-01-21 05:26:47.24	0.37	10.73	-40.6	-51.5	3.8	8.47e-01	0	56	104	0	51	12898
2026-01-21 05:26:51.28	359.94	11.03	-40.6	-51.6	3.8	8.46e-01	0	55	104	0	51	13034
2026-01-21 05:26:55.32	359.50	11.32	-40.0	-51.3	3.8	8.45e-01	0	56	104	0	50	13374
2026-01-21 05:26:59.35	359.05	11.62	-40.1	-51.4	3.8	8.46e-01	0	56	104	0	50	13539
2026-01-21 05:27:03.39	358.59	11.92	-40.1	-51.4	3.8	8.45e-01	0	56	104	0	51	12721
2026-01-21 05:27:07.43	358.12	12.22	-40.6	-51.6	3.8	8.45e-01	0	56	104	0	51	13102
2026-01-21 05:27:11.47	357.64	12.53	-40.5	-45.7	6.1	3.61e-01	0	56	0	2097152	52	6242
2026-01-21 05:27:15.51	357.15	12.84	-38.3	-41.0	10.9	2.56e-03	0	56	0	30408704	47	4834
2026-01-21 05:27:19.54	356.65	13.14	-38.3	-40.8	11.2	1.11e-03	0	56	0	59768832	46	5030
2026-01-21 05:27:23.58	356.13	13.45	-39.7	-43.3	8.7	2.07e-02	0	56	0	89128960	48	5972
2026-01-21 05:27:27.61	355.61	13.76	-40.8	-47.0	5.2	7.23e-01	0	56	0	115343360	51	7647
2026-01-21 05:27:31.65	355.08	14.08	-41.2	-50.8	3.8	8.46e-01	0	56	104	115343360	52	11251
2026-01-21 05:27:35.69	354.53	14.39	-41.3	-51.9	3.8	8.46e-01	0	56	104	115343360	52	12673
2026-01-21 05:27:39.72	353.97	14.71	-40.7	-51.9	3.8	8.46e-01	0	57	104	115343360	52	12693
2026-01-21 05:27:43.76	353.40	15.02	-40.9	-51.9	3.8	8.47e-01	0	56	104	115343360	52	12731
2026-01-21 05:27:47.80	352.82	15.34	-40.8	-51.9	3.8	8.47e-01	0	56	104	115343360	52	12689
2026-01-21 05:27:51.84	352.22	15.66	-40.9	-52.1	3.8	8.46e-01	0	57	104	115343360	51	13884
2026-01-21 05:27:55.87	351.61	15.98	-41.0	-52.3	3.8	8.45e-01	0	57	104	115343360	51	14050
2026-01-21 05:27:59.91	350.99	16.30	-40.5	-52.1	3.8	8.47e-01	0	57	104	115343360	50	14653
2026-01-21 05:28:03.95	350.35	16.63	-39.9	-52.2	3.8	8.46e-01	0	57	104	115343360	50	14789
2026-01-21 05:28:07.99	349.70	16.95	-40.0	-52.3	3.8	8.47e-01	0	57	104	115343360	50	14942
2026-01-21 05:28:12.02	349.04	17.27	-40.8	-52.2	3.8	8.46e-01	0	57	104	115343360	52	13166
2026-01-21 05:28:16.06	348.36	17.59	-41.3	-52.2	3.8	8.47e-01	0	57	104	115343360	53	12479
2026-01-21 05:28:20.10	347.66	17.92	-41.1	-52.3	3.8	8.45e-01	0	57	104	115343360	53	12552
2026-01-21 05:28:24.14	346.95	18.24	-41.2	-52.3	3.8	8.45e-01	0	57	104	115343360	53	12568
2026-01-21 05:28:28.17	346.23	18.56	-41.4	-52.4	3.8	8.45e-01	0	57	104	115343360	53	12691
2026-01-21 05:28:32.21	345.49	18.88	-41.3	-52.1	3.8	8.47e-01	0	57	104	115343360	53	12273
2026-01-21 05:28:36.25	344.73	19.20	-41.3	-52.2	3.8	8.46e-01	0	57	104	115343360	53	12377
2026-01-21 05:28:40.28	343.95	19.52	-41.2	-52.0	3.8	8.46e-01	0	57	104	115343360	53	12186
2026-01-21 05:28:44.33	343.16	19.84	-41.7	-52.1	3.8	8.47e-01	0	57	104	115343360	53	12352
2026-01-21 05:28:48.36	342.36	20.16	-42.1	-49.0	4.6	8.19e-01	0	57	0	115343360	53	8592
2026-01-21 05:28:52.40	341.53	20.47	-41.1	-46.2	6.2	7.71e-01	0	57	0	122683392	53	6210
2026-01-21 05:28:56.43	340.69	20.78	-37.2	-39.1	13.7	1.14e-05	0	58	0	140509184	45	4374
2026-01-21 05:29:00.48	339.83	21.09	-36.3	-37.9	15.5	0.00e+00	0	57	0	169869312	43	4253
2026-01-21 05:29:04.52	338.95	21.40	-36.3	-37.8	16.0	0.00e+00	0	57	0	199229440	43	4206
2026-01-21 05:29:08.55	338.06	21.70	-36.5	-37.9	16.3	0.00e+00	0	57	0	228589568	43	4266
2026-01-21 05:29:12.59	337.15	22.00	-36.3	-37.6	16.8	0.00e+00	0	58	0	257949696	43	4136
2026-01-21 05:29:16.63	336.22	22.29	-36.0	-37.3	17.3	0.00e+00	0	58	0	286261248	43	3967
2026-01-21 05:29:20.67	335.27	22.58	-35.7	-36.9	17.8	0.00e+00	0	57	0	315621376	42	4043
2026-01-21 05:29:24.71	334.30	22.86	-36.0	-37.2	17.6	0.00e+00	0	58	0	344981504	42	4173
2026-01-21 05:29:28.75	333.32	23.14	-36.0	-37.3	17.5	0.00e+00	0	58	0	374341632	42	4196
2026-01-21 05:29:32.79	332.32	23.41	-35.9	-37.2	17.7	0.00e+00	0	58	0	403701760	42	4149
2026-01-21 05:29:36.82	331.30	23.67	-35.6	-36.8	18.0	0.00e+00	0	57	0	433061888	42	4000
2026-01-21 05:29:40.86	330.26	23.93	-35.7	-36.9	18.0	0.00e+00	0	58	0	461373440	42	4005
2026-01-21 05:29:44.90	329.21	24.18	-36.1	-37.3	17.6	0.00e+00	0	58	0	490733568	42	4225
2026-01-21 05:29:48.94	328.14	24.42	-35.9	-37.2	17.7	0.00e+00	0	58	0	520093696	42	4165
2026-01-21 05:29:52.98	327.05	24.65	-35.8	-37.1	17.9	0.00e+00	0	58	0	549453824	42	4100
2026-01-21 05:29:57.01	325.95	24.87	-35.6	-36.8	18.1	0.00e+00	0	58	0	577765376	42	3968
2026-01-21 05:30:01.05	324.83	25.09	-35.6	-36.7	18.2	0.00e+00	0	58	0	607125504	42	3952
2026-01-21 05:30:05.09	323.70	25.29	-35.8	-37.1	17.8	0.00e+00	0	58	0	636485632	42	4106
2026-01-21 05:30:09.13	322.55	25.48	-35.8	-37.0	17.9	0.00e+00	0	58	0	665845760	42	4091
2026-01-21 05:30:13.17	321.39	25.66	-35.8	-37.0	17.9	0.00e+00	0	58	0	695205888	42	4063
2026-01-21 05:30:17.21	320.21	25.83	-35.7	-36.9	18.0	0.00e+00	0	58	0	723517440	42	4048
2026-01-21 05:30:21.25	319.03	25.98	-35.7	-36.9	18.0	0.00e+00	0	58	0	752877568	42	4021
2026-01-21 05:30:25.29	317.83	26.13	-35.9	-37.1	17.8	0.00e+00	0	58	0	782237696	42	4113
2026-01-21 05:30:29.33	316.62	26.26	-35.9	-37.1	17.9	0.00e+00	0	58	0	811597824	42	4106
2026-01-21 05:30:33.37	315.40	26.37	-35.5	-36.7	18.2	0.00e+00	0	58	0	840957952	41	4170
2026-01-21 05:30:37.41	314.17	26.47	-35.3	-36.4	18.4	0.00e+00	0	58	0	869269504	41	4043
2026-01-21 05:30:41.45	312.94	26.56	-35.5	-36.7	18.2	0.00e+00	0	58	0	898629632	41	4174
2026-01-21 05:30:45.49	311.70	26.63	-35.5	-36.6	18.2	0.00e+00	0	58	0	927989760	41	4139
2026-01-21 05:30:49.53	310.45	26.69	-35.5	-36.7	18.2	0.00e+00	0	58	0	957349888	41	4165
2026-01-21 05:30:53.57	309.20	26.74	-35.5	-36.7	18.2	0.00e+00	0	58	0	986710016	41	4159
2026-01-21 05:30:57.61	307.95	26.77	-35.3	-36.4	18.5	0.00e+00	0	58	0	1015021568	41	4036
2026-01-21 05:31:01.64	306.70	26.78	-35.3	-36.5	18.4	0.00e+00	0	58	0	1044381696	41	4071
2026-01-21 05:31:05.68	305.44	26.78	-35.4	-36.5	18.4	0.00e+00	0	58	0	1073741824	41	4086
2026-01-21 05:31:09.72	304.19	26.76	-35.3	-36.4	18.5	0.00e+00	0	58	0	1103101952	41	4026
2026-01-21 05:31:13.76	302.93	26.73	-35.4	-36.6	18.3	0.00e+00	0	58	0	1132462080	41	4123
2026-01-21 05:31:17.80	301.68	26.68	-35.4	-36.6	18.3	0.00e+00	0	58	0	1161822208	41	4122
2026-01-21 05:31:21.84	300.44	26.62	-35.4	-36.5	18.4	0.00e+00	0	58	0	1190133760	41	4088
2026-01-21 05:31:25.88	299.19	26.54	-35.3	-36.4	18.5	0.00e+00	0	58	0	1219493888	41	4048
2026-01-21 05:31:29.91	297.96	26.45	-35.3	-36.4	18.5	0.00e+00	0	58	0	1248854016	41	4033
2026-01-21 05:31:33.95	296.74	26.35	-35.2	-36.3	18.6	0.00e+00	0	58	0	1278214144	41	3997
2026-01-21 05:31:37.99	295.52	26.23	-35.3	-36.4	18.5	0.00e+00	0	58	0	1307574272	41	4048
2026-01-21 05:31:42.03	294.31	26.10	-35.5	-36.6	18.3	0.00e+00	0	58	0	1335885824	41	4136
2026-01-21 05:31:46.06	293.11	25.95	-35.4	-36.5	18.4	0.00e+00	0	58	0	1365245952	41	4083
2026-01-21 05:31:50.11	291.92	25.79	-35.8	-37.0	18.0	0.00e+00	0	58	0	1394606080	41	4299
2026-01-21 05:31:54.15	290.75	25.62	-35.7	-36.8	18.1	0.00e+00	0	58	0	1423966208	41	4242
2026-01-21 05:31:58.19	289.59	25.44	-35.7	-36.9	18.1	0.00e+00	0	58	0	1453326336	41	4265
2026-01-21 05:32:02.23	288.44	25.25	-35.7	-36.9	18.0	0.00e+00	0	58	0	1482686464	41	4267
2026-01-21 05:32:06.26	287.31	25.04	-35.5	-36.7	18.2	0.00e+00	0	58	0	1510998016	41	4174
2026-01-21 05:32:10.31	286.19	24.83	-35.7	-36.9	18.0	0.00e+00	0	58	0	1540358144	41	4248
2026-01-21 05:32:14.35	285.08	24.60	-35.6	-36.7	18.2	0.00e+00	0	58	0	1569718272	41	4183
2026-01-21 05:32:18.39	284.00	24.37	-35.5	-36.7	18.2	0.00e+00	0	58	0	1599078400	41	4153
2026-01-21 05:32:22.42	282.93	24.13	-35.7	-36.9	18.0	0.00e+00	0	58	0	1628438528	41	4254
2026-01-21 05:32:26.46	281.87	23.87	-35.7	-36.9	17.9	0.00e+00	0	58	0	1656750080	41	4282
2026-01-21 05:32:30.50	280.84	23.61	-35.8	-37.0	17.8	0.00e+00	0	58	0	1686110208	41	4327
2026-01-21 05:32:34.54	279.82	23.35	-35.6	-36.9	18.0	0.00e+00	0	58	0	1715470336	41	4243
2026-01-21 05:32:38.58	278.82	23.07	-35.6	-36.8	18.1	0.00e+00	0	58	0	1744830464	41	4201
2026-01-21 05:32:42.62	277.83	22.80	-35.8	-37.0	17.8	0.00e+00	0	58	0	1774190592	41	4337
2026-01-21 05:32:46.66	276.86	22.51	-35.8	-37.1	17.8	0.00e+00	0	58	0	1802502144	41	4365
2026-01-21 05:32:50.70	275.92	22.22	-35.7	-36.9	17.9	0.00e+00	0	58	0	1831862272	41	4283
2026-01-21 05:32:54.74	274.98	21.92	-36.0	-37.2	17.6	0.00e+00	0	58	0	1861222400	41	4435
2026-01-21 05:32:58.78	274.07	21.62	-36.0	-37.3	17.5	0.00e+00	0	58	0	1890582528	41	4462
2026-01-21 05:33:02.81	273.18	21.32	-36.1	-37.3	17.4	0.00e+00	0	58	0	1919942656	41	4491
2026-01-21 05:33:06.85	272.30	21.01	-36.0	-37.2	17.6	0.00e+00	0	58	0	1948254208	41	4432
2026-01-21 05:33:10.88	271.44	20.70	-35.9	-37.1	17.6	0.00e+00	0	58	0	1977614336	41	4390
2026-01-21 05:33:14.92	270.60	20.39	-36.1	-37.4	17.3	0.00e+00	0	58	0	2006974464	41	4533
2026-01-21 05:33:18.96	269.77	20.07	-36.2	-37.5	17.2	0.00e+00	0	58	0	2036334592	42	4334
2026-01-21 05:33:23.00	268.96	19.75	-36.2	-37.5	17.3	0.00e+00	0	58	0	2064646144	42	4292
2026-01-21 05:33:27.04	268.17	19.43	-36.4	-37.7	17.1	0.00e+00	0	58	0	2094006272	42	4414
2026-01-21 05:33:31.08	267.40	19.11	-36.5	-37.8	16.9	0.00e+00	0	58	0	2123366400	42	4489
2026-01-21 05:33:35.11	266.64	18.79	-36.7	-38.0	16.7	0.00e+00	0	58	0	2152726528	42	4593
2026-01-21 05:33:39.15	265.90	18.47	-36.3	-37.6	17.1	0.00e+00	0	58	0	2182086656	42	4389
2026-01-21 05:33:43.19	265.17	18.14	-36.6	-38.0	16.7	0.00e+00	0	58	0	2210398208	42	4547
2026-01-21 05:33:47.23	264.46	17.82	-37.0	-38.4	16.3	0.00e+00	0	58	0	2239758336	43	4496
2026-01-21 05:33:51.26	263.76	17.50	-37.1	-38.5	16.1	0.00e+00	0	58	0	2269118464	43	4582
2026-01-21 05:33:55.29	263.08	17.17	-37.1	-38.5	16.1	0.00e+00	0	58	0	2298478592	43	4591
2026-01-21 05:33:59.33	262.42	16.85	-37.1	-38.6	16.1	0.00e+00	0	58	0	2327838720	43	4602
2026-01-21 05:34:03.37	261.76	16.52	-36.9	-38.3	16.3	0.00e+00	0	58	0	2357198848	43	4469
2026-01-21 05:34:07.40	261.13	16.20	-37.0	-38.4	16.2	0.00e+00	0	58	0	2385510400	43	4536
2026-01-21 05:34:11.44	260.50	15.88	-37.5	-38.9	15.8	0.00e+00	0	58	0	2414870528	44	4545
2026-01-21 05:34:15.48	259.89	15.56	-37.5	-39.1	15.7	0.00e+00	0	58	0	2444230656	44	4601
2026-01-21 05:34:19.51	259.29	15.24	-37.6	-39.2	15.6	0.00e+00	0	58	0	2472542208	44	4664
2026-01-21 05:34:23.55	258.71	14.92	-37.8	-39.3	15.3	0.00e+00	0	58	0	2501902336	45	4479
2026-01-21 05:34:27.58	258.14	14.60	-37.9	-39.6	15.1	0.00e+00	0	58	0	2531262464	45	4604
2026-01-21 05:34:31.62	257.58	14.28	-38.1	-39.7	15.0	0.00e+00	0	58	0	2560622592	45	4683
2026-01-21 05:34:35.66	257.03	13.97	-38.2	-39.9	14.7	0.00e+00	0	58	0	2589982720	46	4530
2026-01-21 05:34:39.69	256.49	13.65	-38.0	-39.6	15.0	0.00e+00	0	58	0	2618294272	46	4363
2026-01-21 05:34:43.73	255.97	13.34	-38.1	-39.7	14.9	0.00e+00	0	58	0	2647654400	46	4413
2026-01-21 05:34:47.77	255.45	13.03	-38.4	-40.2	14.5	1.10e-06	0	58	0	2677014528	46	4655
2026-01-21 05:34:51.81	254.95	12.72	-38.4	-40.1	14.4	0.00e+00	0	58	0	2706374656	46	4650
2026-01-21 05:34:55.84	254.46	12.41	-38.3	-40.1	14.5	0.00e+00	0	58	0	2735734784	46	4613
2026-01-21 05:34:59.88	253.97	12.11	-38.0	-39.7	14.9	0.00e+00	0	58	0	2764046336	46	4397
2026-01-21 05:35:03.91	253.50	11.80	-38.2	-39.9	14.7	0.00e+00	0	58	0	2793406464	46	4495
2026-01-21 05:35:07.95	253.04	11.50	-38.3	-40.0	14.5	0.00e+00	0	58	0	2822766592	46	4579
2026-01-21 05:35:11.99	252.59	11.20	-38.2	-40.0	14.5	0.00e+00	0	58	0	2852126720	46	4556
2026-01-21 05:35:16.03	252.14	10.90	-38.5	-40.4	14.1	2.20e-06	0	58	0	2881486848	46	4774
2026-01-21 05:35:20.07	251.71	10.61	-38.6	-40.5	13.9	0.00e+00	0	58	0	2910846976	46	4847
2026-01-21 05:35:24.11	251.28	10.31	-38.8	-40.7	13.7	5.70e-06	0	58	0	2939158528	47	4671
2026-01-21 05:35:28.15	250.87	10.02	-38.8	-40.7	13.7	6.80e-06	0	59	0	2968518656	47	4662
2026-01-21 05:35:32.18	250.46	9.73	-38.6	-40.4	14.0	1.10e-06	0	58	0	2997878784	47	4524
2026-01-21 05:35:36.22	250.06	9.44	-38.4	-40.2	14.2	2.20e-06	0	58	0	3027238912	47	4412
2026-01-21 05:35:40.26	249.66	9.16	-38.4	-40.2	14.1	1.10e-06	0	58	0	3055550464	47	4398
2026-01-21 05:35:44.30	249.28	8.87	-38.4	-40.3	14.0	5.70e-06	0	58	0	3084910592	47	4456
2026-01-21 05:35:48.33	248.90	8.59	-38.9	-40.9	13.3	1.02e-05	0	58	0	3114270720	47	4771
2026-01-21 05:35:52.37	248.53	8.31	-39.4	-41.6	12.8	5.83e-05	0	59	0	3143630848	48	4894
2026-01-21 05:35:56.40	248.17	8.04	-39.7	-41.9	12.5	6.40e-05	0	58	0	3171942400	48	5071
2026-01-21 05:36:00.44	247.82	7.76	-45.4	-56.8	3.8	8.45e-01	0	59	104	3175088128	60	14074
2026-01-21 05:36:04.49	247.47	7.48	-45.6	-57.0	3.8	8.46e-01	0	58	104	3175088128	60	14432
2026-01-21 05:36:08.53	247.12	7.21	-45.6	-57.0	3.8	8.47e-01	0	59	104	3175088128	60	14397
2026-01-21 05:36:12.57	246.79	6.94	-45.6	-57.0	3.8	8.47e-01	0	59	104	3175088128	60	14437
2026-01-21 05:36:16.61	246.46	6.67	-45.6	-56.9	3.8	8.45e-01	0	59	104	3175088128	60	14319
2026-01-21 05:36:20.65	246.14	6.41	-45.5	-56.9	3.8	8.46e-01	0	58	104	3175088128	60	14259
2026-01-21 05:36:24.70	245.82	6.14	-45.5	-56.9	3.8	8.48e-01	0	59	104	3175088128	60	14269
2026-01-21 05:36:28.74	245.51	5.88	-45.5	-56.9	3.8	8.46e-01	0	59	104	3175088128	60	14282
2026-01-21 05:36:32.78	245.20	5.62	-45.5	-56.8	3.8	8.46e-01	0	59	104	3175088128	60	14190
2026-01-21 05:36:36.82	244.90	5.36	-45.5	-56.9	3.8	8.47e-01	0	58	104	3175088128	60	14269
2026-01-21 05:36:40.86	244.61	5.10	-45.5	-56.9	3.8	8.45e-01	0	59	104	3175088128	60	14279
2026-01-21 05:36:44.91	244.32	4.84	-45.5	-56.9	3.8	8.46e-01	0	58	104	3175088128	60	14231
2026-01-21 05:36:48.95	244.03	4.59	-45.5	-56.9	3.8	8.46e-01	0	59	104	3175088128	60	14252
2026-01-21 05:36:52.99	243.75	4.34	-45.5	-56.8	3.8	8.46e-01	0	59	104	3175088128	60	14195
2026-01-21 05:36:57.03	243.48	4.09	-45.5	-56.8	3.8	8.46e-01	0	59	104	3175088128	60	14209
2026-01-21 05:37:01.07	243.21	3.84	-45.2	-56.8	3.8	8.47e-01	0	59	104	3175088128	60	14188
2026-01-21 05:37:05.11	242.94	3.59	-45.5	-56.8	3.8	8.47e-01	0	59	104	3175088128	60	14178
2026-01-21 05:37:09.16	242.68	3.35	-45.4	-56.8	3.8	8.46e-01	0	59	104	3175088128	60	14192
2026-01-21 05:37:13.20	242.43	3.10	-45.5	-56.8	3.8	8.47e-01	0	59	104	3175088128	60	14184
2026-01-21 05:37:17.24	242.18	2.86	-45.5	-56.9	3.8	8.47e-01	0	59	104	3175088128	60	14253
2026-01-21 05:37:21.29	241.93	2.62	-45.5	-56.8	3.8	8.46e-01	0	59	104	3175088128	60	14208
2026-01-21 05:37:25.33	241.69	2.38	-45.5	-56.8	3.8	8.45e-01	0	59	104	3175088128	60	14136
2026-01-21 05:37:29.37	241.45	2.14	-45.5	-56.8	3.8	8.45e-01	0	59	104	3175088128	60	14180

#Closed at: 2026-01-21 05:37:33
#Recorded file [3175 MB]: D:/lorett/data/31039_260121_082433.dat