passes_logs/2026/01/21/R2.0S_Moscow/R2.0S_Moscow__20260121_084340_NOAA_21_JPSS-2_rec.log

#Pass ID: 20260121_084340_NOAA 21 (JPSS-2)
#Satellite: NOAA 21 (JPSS-2)
#Configuration: NOAA-21
#almurnet v.1.7.20251203
#Start time: 2026-01-21 08:43:43

#Version: 2.2.20231116
#Station: R2.0S_Moscow
#Location: 37.707566 lon 55.798166 lat
#TLE: 1 54234U 22150A   26020.29910383  .00000141  00000+0  87571-4 0  9990
#TLE: 2 54234  98.7506 321.1348 0000615 250.8428 109.2682 14.19536295165564

#Time	Az	El	Level	Level2	SNR	BER	BlckErr	Temp	State	Recorded	gain1	gain2
2026-01-21 08:43:43.10	125.71	2.14	-21.5	-39.7	3.0	1.50e+00	0	51	0	0	2	58737
2026-01-21 08:43:47.12	125.52	2.38	-24.4	-43.9	3.8	1.51e+00	0	52	104	0	15	45337
2026-01-21 08:43:51.16	125.31	2.63	-22.4	-43.0	3.3	1.50e+00	0	52	104	0	11	51497
2026-01-21 08:43:55.21	125.11	2.88	-23.2	-44.9	3.9	1.51e+00	0	52	104	0	16	48040
2026-01-21 08:43:59.24	124.90	3.13	-22.0	-40.9	3.4	1.51e+00	0	52	104	0	11	40165
2026-01-21 08:44:03.29	124.68	3.38	-21.7	-41.6	4.0	1.51e+00	0	53	104	0	11	43486
2026-01-21 08:44:07.33	124.46	3.64	-21.8	-43.6	3.7	1.51e+00	0	53	104	0	16	41331
2026-01-21 08:44:11.37	124.24	3.89	-21.3	-42.3	3.2	1.50e+00	0	53	104	0	12	44612
2026-01-21 08:44:15.41	124.02	4.15	-23.4	-45.2	3.9	1.50e+00	0	54	104	0	18	44359
2026-01-21 08:44:19.45	123.79	4.41	-23.4	-45.6	4.0	1.50e+00	0	54	104	0	17	48809
2026-01-21 08:44:23.49	123.55	4.67	-23.3	-43.4	3.7	1.51e+00	0	54	104	0	17	38120
2026-01-21 08:44:27.54	123.31	4.94	-20.6	-42.1	3.3	1.50e+00	0	54	104	0	11	46138
2026-01-21 08:44:31.57	123.07	5.21	-20.6	-42.9	3.7	1.51e+00	0	54	104	0	12	47874
2026-01-21 08:44:35.62	122.82	5.48	-21.3	-44.3	4.0	1.51e+00	0	55	104	0	18	39917
2026-01-21 08:44:39.66	122.57	5.75	-20.2	-40.5	3.6	1.51e+00	0	55	104	0	11	38363
2026-01-21 08:44:43.70	122.31	6.02	-21.2	-42.6	3.7	1.51e+00	0	55	104	0	12	46098
2026-01-21 08:44:47.75	122.05	6.30	-22.6	-41.6	3.9	1.51e+00	0	55	104	0	13	39111
2026-01-21 08:44:51.79	121.78	6.58	-17.3	-40.0	4.5	1.50e+00	0	56	104	0	6	48589
2026-01-21 08:44:55.83	121.51	6.86	-13.8	-33.7	4.0	1.51e+00	0	55	104	0	13	15587
2026-01-21 08:44:59.87	121.23	7.14	-20.8	-34.1	3.3	1.51e+00	0	56	104	0	1	32639
2026-01-21 08:45:03.91	120.94	7.43	-22.9	-42.7	4.0	1.50e+00	0	56	104	0	12	46722
2026-01-21 08:45:07.95	120.65	7.71	-19.3	-37.8	3.6	1.50e+00	0	56	104	0	10	30023
2026-01-21 08:45:12.00	120.35	8.01	-22.6	-40.2	4.2	1.49e+00	0	56	104	0	13	32990
2026-01-21 08:45:16.04	120.05	8.30	-20.7	-36.6	3.6	1.50e+00	0	56	104	0	9	27636
2026-01-21 08:45:20.07	119.74	8.59	-7.6	-29.5	3.5	1.50e+00	0	57	104	0	0	20519
2026-01-21 08:45:24.11	119.43	8.89	-14.4	-33.0	3.9	1.50e+00	0	57	104	0	5	22812
2026-01-21 08:45:28.15	119.10	9.19	-21.3	-35.8	3.7	1.50e+00	0	57	104	0	8	26521
2026-01-21 08:45:32.19	118.77	9.50	-21.5	-37.7	3.5	1.51e+00	0	57	104	0	18	18711
2026-01-21 08:45:36.22	118.44	9.81	-22.5	-40.2	4.0	1.51e+00	0	57	104	0	17	26221
2026-01-21 08:45:40.26	118.10	10.12	-28.2	-44.4	3.7	1.51e+00	0	57	104	0	27	23862
2026-01-21 08:45:44.29	117.74	10.43	-22.1	-37.1	3.8	1.50e+00	0	57	104	0	15	20718
2026-01-21 08:45:48.31	117.39	10.74	-28.1	-40.0	3.7	1.50e+00	0	57	104	0	19	23028
2026-01-21 08:45:52.34	117.02	11.06	-24.2	-41.2	4.0	1.47e+00	0	57	104	0	25	18685
2026-01-21 08:45:56.38	116.64	11.38	-34.8	-48.2	3.9	1.49e+00	0	57	104	0	39	18730
2026-01-21 08:46:00.42	116.26	11.71	-27.8	-41.6	3.5	1.50e+00	0	58	104	0	16	32552
2026-01-21 08:46:04.45	115.87	12.03	-34.0	-44.7	4.6	1.45e+00	0	58	104	0	39	12475
2026-01-21 08:46:08.49	115.47	12.36	-31.4	-46.9	3.8	1.51e+00	0	58	104	0	31	25330
2026-01-21 08:46:12.53	115.06	12.70	-32.8	-43.5	9.9	1.47e+00	5	58	104	1048576	43	8565
2026-01-21 08:46:16.57	114.63	13.03	-32.9	-42.0	7.0	7.34e-01	13	58	0	5242880	20	27171
2026-01-21 08:46:20.60	114.20	13.37	-36.1	-42.5	9.5	1.82e-02	0	58	0	16777216	34	12869
2026-01-21 08:46:24.64	113.76	13.72	-40.1	-43.3	11.9	1.97e-02	0	58	0	29360128	51	5319
2026-01-21 08:46:28.68	113.31	14.06	-40.2	-43.0	12.4	2.09e-04	0	58	0	41943040	51	5139
2026-01-21 08:46:32.71	112.85	14.41	-40.2	-43.0	12.4	3.04e-04	0	58	0	54525952	51	5112
2026-01-21 08:46:36.75	112.38	14.77	-40.0	-42.9	12.2	9.29e-03	0	58	0	67108864	50	5393
2026-01-21 08:46:40.79	111.89	15.12	-39.5	-42.9	12.4	3.08e-04	0	58	0	79691776	50	5375
2026-01-21 08:46:44.83	111.39	15.48	-40.3	-43.0	12.6	2.78e-04	0	58	0	92274688	51	5136
2026-01-21 08:46:48.87	110.88	15.84	-40.3	-43.0	12.6	1.20e-04	0	58	0	104857600	51	5140
2026-01-21 08:46:52.90	110.36	16.21	-40.4	-43.2	12.5	9.91e-05	0	59	0	117440512	51	5228
2026-01-21 08:46:56.94	109.83	16.57	-40.5	-43.2	12.4	1.20e-04	0	59	0	130023424	51	5267
2026-01-21 08:47:00.98	109.28	16.95	-40.4	-43.1	12.6	9.30e-05	0	59	0	142606336	51	5163
2026-01-21 08:47:05.02	108.71	17.32	-40.4	-43.0	12.7	8.85e-05	0	59	0	155189248	51	5135
2026-01-21 08:47:09.06	108.14	17.70	-40.3	-42.8	12.9	3.66e-05	0	59	0	167772160	51	5034
2026-01-21 08:47:13.09	107.55	18.07	-40.3	-42.9	12.9	4.65e-05	0	59	0	180355072	51	5046
2026-01-21 08:47:17.14	106.94	18.46	-40.2	-42.8	13.0	2.89e-05	0	59	0	192937984	51	5013
2026-01-21 08:47:21.18	106.31	18.84	-40.2	-42.7	13.1	3.35e-05	0	59	0	205520896	51	4936
2026-01-21 08:47:25.22	105.67	19.23	-40.0	-42.5	13.3	1.67e-05	0	59	0	219152384	51	4840
2026-01-21 08:47:29.25	105.02	19.62	-40.0	-42.4	13.5	1.29e-05	0	59	0	231735296	51	4767
2026-01-21 08:47:33.29	104.35	20.01	-40.0	-42.4	13.5	1.22e-05	0	59	0	243269632	51	4782
2026-01-21 08:47:37.33	103.66	20.40	-39.9	-42.3	13.6	9.10e-06	0	59	0	256901120	51	4716
2026-01-21 08:47:41.37	102.95	20.80	-39.7	-41.9	13.9	4.50e-06	0	59	0	269484032	51	4545
2026-01-21 08:47:45.40	102.22	21.19	-39.8	-42.2	13.7	3.00e-06	0	59	0	282066944	51	4658
2026-01-21 08:47:49.44	101.47	21.59	-39.7	-42.0	13.9	1.50e-06	0	59	0	294649856	51	4590
2026-01-21 08:47:53.48	100.71	21.99	-39.7	-42.0	14.0	7.00e-07	0	59	0	307232768	51	4548
2026-01-21 08:47:57.52	99.92	22.39	-39.9	-42.2	13.7	6.80e-06	0	59	0	319815680	51	4703
2026-01-21 08:48:01.56	99.12	22.78	-39.7	-41.9	14.1	2.20e-06	0	59	0	332398592	51	4502
2026-01-21 08:48:05.60	98.29	23.18	-39.7	-42.0	13.9	1.50e-06	0	60	0	344981504	51	4568
2026-01-21 08:48:09.64	97.44	23.58	-39.7	-42.0	13.9	2.20e-06	0	59	0	357564416	51	4569
2026-01-21 08:48:13.68	96.57	23.98	-39.6	-41.8	14.1	2.20e-06	0	59	0	370147328	51	4481
2026-01-21 08:48:17.72	95.67	24.38	-39.5	-41.7	14.3	7.00e-07	0	60	0	382730240	50	4670
2026-01-21 08:48:21.76	94.76	24.77	-39.6	-41.9	14.1	3.00e-06	0	60	0	395313152	50	4762
2026-01-21 08:48:25.80	93.82	25.16	-39.9	-42.2	13.8	4.50e-06	0	60	0	407896064	50	4940
2026-01-21 08:48:29.84	92.85	25.55	-40.1	-42.5	13.5	1.90e-05	0	60	0	420478976	50	5152
2026-01-21 08:48:33.88	91.87	25.94	-40.0	-42.3	13.7	8.30e-06	0	59	0	433061888	51	4734
2026-01-21 08:48:37.92	90.85	26.32	-39.9	-42.2	13.8	3.00e-06	0	60	0	445644800	51	4694
2026-01-21 08:48:41.96	89.82	26.70	-40.1	-42.5	13.6	1.06e-05	0	60	0	458227712	51	4830
2026-01-21 08:48:46.00	88.76	27.07	-40.3	-42.7	13.3	2.74e-05	0	60	0	470810624	51	4981
2026-01-21 08:48:50.03	87.67	27.43	-40.2	-42.7	13.4	1.06e-05	0	59	0	483393536	51	4930
2026-01-21 08:48:54.07	86.56	27.79	-40.1	-42.5	13.6	5.30e-06	0	60	0	495976448	51	4849
2026-01-21 08:48:58.11	85.43	28.14	-40.1	-42.5	13.6	1.06e-05	0	60	0	508559360	51	4841
2026-01-21 08:49:02.15	84.27	28.48	-40.2	-42.5	13.6	9.90e-06	0	60	0	521142272	51	4862
2026-01-21 08:49:06.19	83.08	28.82	-40.4	-42.8	13.3	1.60e-05	0	60	0	533725184	51	5024
2026-01-21 08:49:10.22	81.87	29.14	-40.2	-42.6	13.5	1.06e-05	0	59	0	546308096	51	4913
2026-01-21 08:49:14.26	80.64	29.45	-40.1	-42.5	13.7	3.80e-06	0	60	0	559939584	51	4818
2026-01-21 08:49:18.30	79.38	29.75	-40.2	-42.6	13.6	1.44e-05	0	60	0	571473920	51	4879
2026-01-21 08:49:22.34	78.10	30.04	-40.4	-42.8	13.3	2.13e-05	0	60	0	584056832	52	4753
2026-01-21 08:49:26.37	76.80	30.31	-40.5	-43.0	13.2	2.59e-05	0	60	0	597688320	52	4837
2026-01-21 08:49:30.41	75.48	30.57	-40.4	-42.8	13.4	1.60e-05	0	60	0	610271232	52	4715
2026-01-21 08:49:34.45	74.13	30.81	-40.3	-42.7	13.4	1.67e-05	0	60	0	622854144	52	4694
2026-01-21 08:49:38.50	72.76	31.04	-40.6	-43.1	13.1	2.13e-05	0	60	0	635437056	52	4903
2026-01-21 08:49:42.53	71.38	31.25	-40.8	-43.4	12.8	6.48e-05	0	60	0	648019968	52	5071
2026-01-21 08:49:46.58	69.98	31.44	-40.8	-43.4	12.7	8.23e-05	0	60	0	660602880	52	5093
2026-01-21 08:49:50.62	68.56	31.62	-40.6	-43.2	13.0	3.28e-05	0	60	0	673185792	52	4944
2026-01-21 08:49:54.66	67.13	31.77	-40.6	-43.2	13.0	2.74e-05	0	60	0	685768704	52	4939
2026-01-21 08:49:58.70	65.68	31.91	-40.5	-43.0	13.2	2.51e-05	0	60	0	698351616	52	4860
2026-01-21 08:50:02.74	64.23	32.03	-40.9	-43.7	12.6	8.85e-05	0	60	0	710934528	52	5226
2026-01-21 08:50:06.78	62.76	32.12	-40.8	-43.5	12.7	8.69e-05	0	60	0	723517440	52	5136
2026-01-21 08:50:10.82	61.29	32.19	-40.7	-43.3	12.9	4.88e-05	0	60	0	736100352	52	5013
2026-01-21 08:50:14.85	59.81	32.25	-40.9	-43.5	12.7	6.79e-05	0	60	0	748683264	52	5147
2026-01-21 08:50:18.89	58.33	32.28	-40.9	-43.5	12.7	8.31e-05	0	60	0	761266176	52	5148
2026-01-21 08:50:22.94	56.84	32.29	-40.9	-43.5	12.7	7.70e-05	0	60	0	773849088	52	5156
2026-01-21 08:50:26.98	55.36	32.27	-40.7	-43.3	13.0	5.03e-05	0	60	0	786432000	52	5015
2026-01-21 08:50:31.01	53.88	32.24	-40.6	-43.1	13.1	4.19e-05	0	60	0	799014912	52	4925
2026-01-21 08:50:35.05	52.41	32.18	-40.7	-43.2	13.0	2.74e-05	0	61	0	811597824	52	4964
2026-01-21 08:50:39.09	50.94	32.11	-40.6	-43.1	13.2	2.44e-05	0	60	0	824180736	52	4874
2026-01-21 08:50:43.13	49.47	32.01	-40.8	-43.4	12.9	4.11e-05	0	60	0	836763648	52	5055
2026-01-21 08:50:47.17	48.02	31.89	-40.8	-43.3	12.9	5.41e-05	0	60	0	849346560	52	5029
2026-01-21 08:50:51.20	46.58	31.75	-40.7	-43.2	13.1	2.67e-05	0	60	0	861929472	52	4969
2026-01-21 08:50:55.24	45.16	31.59	-40.9	-43.5	12.8	7.01e-05	0	60	0	874512384	52	5131
2026-01-21 08:50:59.28	43.74	31.42	-40.8	-43.4	12.9	6.56e-05	0	60	0	887095296	52	5050
2026-01-21 08:51:03.32	42.35	31.22	-40.7	-43.3	13.0	3.73e-05	0	60	0	899678208	52	4999
2026-01-21 08:51:07.36	40.97	31.01	-41.0	-43.8	12.5	1.56e-04	0	60	0	913309696	53	4995
2026-01-21 08:51:11.39	39.61	30.78	-40.4	-42.8	13.4	1.52e-05	0	60	0	924844032	52	4736
2026-01-21 08:51:15.43	38.27	30.54	-40.8	-43.5	12.7	7.32e-05	0	60	0	938475520	52	5126
2026-01-21 08:51:19.47	36.95	30.28	-40.7	-43.3	12.9	4.34e-05	0	60	0	951058432	52	5006
2026-01-21 08:51:23.51	35.66	30.00	-40.7	-43.3	12.9	5.87e-05	0	60	0	963641344	52	5017
2026-01-21 08:51:27.55	34.38	29.71	-40.4	-42.8	13.4	1.14e-05	0	60	0	976224256	52	4740
2026-01-21 08:51:31.59	33.13	29.41	-40.8	-43.5	12.7	8.16e-05	0	60	0	988807168	52	5136
2026-01-21 08:51:35.63	31.91	29.10	-40.1	-42.3	13.9	5.30e-06	0	60	0	1001390080	52	4474
2026-01-21 08:51:39.66	30.71	28.78	-40.6	-43.2	13.0	3.58e-05	0	60	0	1013972992	52	4949
2026-01-21 08:51:43.71	29.53	28.44	-40.3	-42.7	13.4	1.44e-05	0	61	0	1026555904	52	4669
2026-01-21 08:51:47.75	28.37	28.10	-40.5	-43.0	13.2	2.89e-05	0	60	0	1039138816	52	4851
2026-01-21 08:51:51.79	27.25	27.75	-40.2	-42.6	13.5	1.29e-05	0	60	0	1051721728	52	4625
2026-01-21 08:51:55.82	26.15	27.39	-40.2	-42.5	13.8	3.00e-06	0	60	0	1064304640	51	4838
2026-01-21 08:51:59.86	25.07	27.03	-40.4	-42.7	13.5	4.50e-06	0	60	0	1076887552	51	4979
2026-01-21 08:52:03.90	24.01	26.66	-40.1	-42.4	13.9	3.80e-06	0	60	0	1089470464	51	4760
2026-01-21 08:52:07.94	22.99	26.28	-40.3	-42.6	13.6	6.80e-06	0	61	0	1102053376	51	4907
2026-01-21 08:52:11.98	21.98	25.90	-40.1	-42.4	13.9	3.00e-06	0	60	0	1114636288	51	4786
2026-01-21 08:52:16.02	21.00	25.52	-40.5	-43.0	13.2	2.28e-05	0	60	0	1127219200	51	5108
2026-01-21 08:52:20.06	20.05	25.13	-40.2	-42.5	13.6	1.60e-05	0	61	0	1139802112	51	4863
2026-01-21 08:52:24.09	19.12	24.74	-40.2	-42.5	13.7	2.20e-06	0	60	0	1152385024	51	4823
2026-01-21 08:52:28.13	18.21	24.35	-40.2	-42.5	13.6	7.60e-06	0	61	0	1164967936	51	4830
2026-01-21 08:52:32.17	17.32	23.95	-40.0	-42.2	13.9	3.80e-06	0	61	0	1177550848	51	4683
2026-01-21 08:52:36.20	16.46	23.56	-40.0	-42.3	13.8	6.10e-06	0	61	0	1190133760	51	4721
2026-01-21 08:52:40.24	15.62	23.16	-40.1	-42.5	13.5	9.90e-06	0	60	0	1202716672	51	4836
2026-01-21 08:52:44.28	14.80	22.76	-40.5	-43.1	13.0	2.59e-05	0	61	0	1215299584	51	5169
2026-01-21 08:52:48.32	14.00	22.37	-40.6	-43.2	12.8	6.02e-05	0	60	0	1227882496	51	5259
2026-01-21 08:52:52.36	13.22	21.97	-40.3	-42.7	13.4	1.29e-05	0	61	0	1240465408	51	4944
2026-01-21 08:52:56.40	12.46	21.57	-40.3	-42.8	13.2	1.98e-05	0	61	0	1254096896	51	5018
2026-01-21 08:53:00.43	11.72	21.18	-40.2	-42.6	13.4	1.67e-05	0	61	0	1265631232	51	4890
2026-01-21 08:53:04.47	11.00	20.78	-39.8	-42.0	14.0	7.00e-07	0	60	0	1279262720	51	4593
2026-01-21 08:53:08.52	10.30	20.39	-39.9	-42.2	13.8	4.50e-06	0	61	0	1291845632	51	4670
2026-01-21 08:53:12.56	9.61	20.00	-40.0	-42.3	13.7	6.80e-06	0	61	0	1304428544	51	4712
2026-01-21 08:53:16.59	8.95	19.61	-39.6	-41.8	14.1	1.50e-06	0	61	0	1317011456	51	4451
2026-01-21 08:53:20.63	8.30	19.22	-39.8	-42.1	13.7	4.50e-06	0	60	0	1329594368	51	4634
2026-01-21 08:53:24.67	7.67	18.84	-40.2	-42.6	13.1	2.74e-05	0	61	0	1342177280	51	4915
2026-01-21 08:53:28.71	7.05	18.46	-40.0	-42.4	13.3	1.90e-05	0	60	0	1354760192	51	4791
2026-01-21 08:53:32.75	6.45	18.08	-40.1	-42.6	13.1	2.51e-05	0	61	0	1367343104	51	4894
2026-01-21 08:53:36.79	5.86	17.70	-40.3	-42.9	12.7	7.32e-05	0	61	0	1379926016	51	5053
2026-01-21 08:53:40.83	5.29	17.33	-40.4	-43.1	12.4	1.51e-04	0	61	0	1392508928	51	5191
2026-01-21 08:53:44.87	4.73	16.95	-40.3	-43.0	12.4	1.51e-04	0	61	0	1405091840	51	5139
2026-01-21 08:53:48.91	4.19	16.59	-40.0	-42.6	12.7	8.77e-05	0	61	0	1417674752	51	4896
2026-01-21 08:53:52.95	3.66	16.22	-40.3	-43.1	12.1	2.52e-04	0	60	0	1430257664	51	5184
2026-01-21 08:53:56.99	3.14	15.86	-40.4	-43.4	11.7	5.58e-04	0	61	0	1442840576	51	5376
2026-01-21 08:54:01.03	2.64	15.50	-40.2	-43.1	11.9	4.67e-04	0	61	0	1455423488	51	5203
2026-01-21 08:54:05.06	2.15	15.14	-40.0	-42.9	11.8	3.95e-04	0	61	0	1468006400	51	5067
2026-01-21 08:54:09.10	1.67	14.79	-40.0	-42.9	11.6	6.62e-04	0	61	0	1480589312	51	5094
2026-01-21 08:54:13.15	1.20	14.43	-40.2	-43.7	10.4	4.25e-03	0	61	0	1493172224	51	5562
2026-01-21 08:54:17.19	0.74	14.09	-39.9	-43.2	10.7	2.91e-03	0	61	0	1505755136	51	5258
2026-01-21 08:54:21.22	0.30	13.74	-39.8	-43.4	10.1	5.14e-03	0	61	0	1518338048	51	5399
2026-01-21 08:54:25.26	359.86	13.40	-40.8	-46.3	6.9	1.53e-01	0	61	0	1530920960	52	7064
2026-01-21 08:54:29.30	359.44	13.06	-41.3	-49.7	4.5	1.08e+00	11	61	104	1539309568	53	9884
2026-01-21 08:54:33.34	359.02	12.73	-41.7	-52.9	3.8	1.49e+00	0	61	104	1539309568	53	14316
2026-01-21 08:54:37.37	358.62	12.40	-41.8	-53.4	3.8	1.49e+00	0	61	104	1539309568	55	13444
2026-01-21 08:54:41.41	358.22	12.07	-40.7	-53.1	3.8	1.49e+00	0	61	104	1539309568	53	14615
2026-01-21 08:54:45.45	357.83	11.74	-40.3	-52.7	3.8	1.49e+00	0	61	104	1539309568	52	14836
2026-01-21 08:54:49.49	357.45	11.42	-40.3	-52.7	3.8	1.49e+00	0	61	104	1539309568	52	14751
2026-01-21 08:54:53.53	357.08	11.10	-40.3	-52.7	3.8	1.49e+00	0	61	104	1539309568	52	14861
2026-01-21 08:54:57.57	356.72	10.78	-40.2	-52.6	3.8	1.49e+00	0	61	104	1539309568	52	14556
2026-01-21 08:55:01.61	356.37	10.47	-40.2	-52.6	3.8	1.49e+00	0	61	104	1539309568	52	14610
2026-01-21 08:55:05.65	356.02	10.16	-40.1	-52.5	3.8	1.49e+00	0	61	104	1539309568	52	14509
2026-01-21 08:55:09.69	355.68	9.85	-40.3	-52.7	3.8	1.49e+00	0	61	104	1539309568	52	14734
2026-01-21 08:55:13.72	355.35	9.54	-40.3	-52.6	3.8	1.49e+00	0	61	104	1539309568	52	14707
2026-01-21 08:55:17.76	355.03	9.24	-40.3	-52.6	3.8	1.49e+00	0	61	104	1539309568	52	14620
2026-01-21 08:55:21.79	354.71	8.94	-40.2	-52.6	3.8	1.49e+00	0	61	104	1539309568	52	14615
2026-01-21 08:55:25.83	354.40	8.64	-40.2	-52.6	3.8	1.49e+00	0	61	104	1539309568	52	14594
2026-01-21 08:55:29.87	354.10	8.35	-40.3	-52.6	3.8	1.49e+00	0	61	104	1539309568	52	14691
2026-01-21 08:55:33.91	353.80	8.06	-40.3	-52.7	3.8	1.49e+00	0	61	104	1539309568	52	14778
2026-01-21 08:55:37.95	353.51	7.77	-44.9	-57.4	3.8	1.49e+00	0	61	104	1539309568	60	16043
2026-01-21 08:55:41.99	353.22	7.48	-45.4	-57.8	3.8	1.49e+00	0	61	104	1539309568	61	15889
2026-01-21 08:55:46.03	352.94	7.19	-45.4	-57.8	3.8	1.49e+00	0	61	104	1539309568	61	15876
2026-01-21 08:55:50.07	352.67	6.91	-45.4	-57.7	3.8	1.49e+00	0	61	104	1539309568	61	15654
2026-01-21 08:55:54.11	352.40	6.63	-45.1	-57.6	3.8	1.49e+00	0	61	104	1539309568	61	15531
2026-01-21 08:55:58.15	352.14	6.36	-45.3	-57.6	3.8	1.49e+00	0	61	104	1539309568	61	15547
2026-01-21 08:56:02.20	351.88	6.08	-45.2	-57.6	3.8	1.49e+00	0	61	104	1539309568	61	15533
2026-01-21 08:56:06.24	351.63	5.81	-45.1	-57.6	3.8	1.49e+00	0	61	104	1539309568	61	15526
2026-01-21 08:56:10.28	351.38	5.54	-44.0	-57.6	3.8	1.49e+00	0	61	104	1539309568	61	15445
2026-01-21 08:56:14.32	351.14	5.27	-45.2	-57.6	3.8	1.49e+00	0	61	104	1539309568	61	15512
2026-01-21 08:56:18.36	350.90	5.00	-45.2	-57.6	3.8	1.49e+00	0	61	104	1539309568	61	15468
2026-01-21 08:56:22.40	350.67	4.74	-45.3	-57.6	3.8	1.49e+00	0	61	104	1539309568	61	15418
2026-01-21 08:56:26.45	350.44	4.48	-45.2	-57.6	3.8	1.49e+00	0	61	104	1539309568	61	15426
2026-01-21 08:56:30.49	350.21	4.22	-45.2	-57.6	3.8	1.49e+00	0	61	104	1539309568	61	15459
2026-01-21 08:56:34.53	349.99	3.96	-44.9	-57.6	3.8	1.49e+00	0	61	104	1539309568	60	16329
2026-01-21 08:56:38.57	349.77	3.71	-45.2	-57.6	3.8	1.49e+00	0	61	104	1539309568	61	15464
2026-01-21 08:56:42.61	349.56	3.45	-45.2	-57.6	3.8	1.49e+00	0	61	104	1539309568	61	15462
2026-01-21 08:56:46.66	349.35	3.20	-45.2	-57.6	3.8	1.49e+00	0	61	104	1539309568	61	15405
2026-01-21 08:56:50.70	349.15	2.95	-45.2	-57.5	3.8	1.49e+00	0	61	104	1539309568	61	15300
2026-01-21 08:56:54.74	348.95	2.70	-45.2	-57.5	3.8	1.49e+00	0	61	104	1539309568	61	15387
2026-01-21 08:56:58.78	348.75	2.46	-45.1	-57.5	3.8	1.49e+00	0	61	104	1539309568	60	16281
2026-01-21 08:57:02.82	348.56	2.21	-45.2	-57.5	3.8	1.49e+00	0	61	104	1539309568	60	16285

#Closed at: 2026-01-21 08:57:06
#Recorded file [1539 MB]: D:/lorett/data/31039_260121_114342.dat