passes_logs/2026/01/21/R2.0S_Moscow/R2.0S_Moscow__20260121_193051_FENGYUN_3G_rec.log

#Pass ID: 20260121_193051_FENGYUN 3G
#Satellite: FENGYUN 3G
#Configuration: FENGYUN 3G
#almurnet v.1.7.20251203
#Start time: 2026-01-21 19:30:52

#Version: 2.2.20231116
#Station: R2.0S_Moscow
#Location: 37.707566 lon 55.798166 lat
#TLE: 1 56232U 23055A   26020.45159834  .00088200  00000+0  13354-2 0  9997
#TLE: 2 56232  49.9936  27.7990 0004112  56.3402 303.7958 15.53862613157044

#Time	Az	El	Level	Level2	SNR	BER	BlckErr	Temp	State	Recorded	gain1	gain2
2026-01-21 19:30:52.25	233.00	2.08	-44.0	-62.1	3.8	8.46e-01	0	48	0	0	60	27692
2026-01-21 19:30:55.26	232.77	2.27	-44.1	-62.1	3.8	8.46e-01	0	49	104	0	59	29179
2026-01-21 19:30:58.29	232.53	2.47	-44.1	-61.9	3.8	8.47e-01	0	49	104	0	59	28654
2026-01-21 19:31:01.31	232.29	2.66	-44.1	-62.0	3.8	8.47e-01	0	49	104	0	59	28934
2026-01-21 19:31:04.32	232.05	2.86	-44.1	-62.0	3.8	8.46e-01	0	50	104	0	59	28846
2026-01-21 19:31:07.35	231.80	3.07	-44.1	-62.1	3.8	8.47e-01	0	50	104	0	59	29145
2026-01-21 19:31:10.36	231.54	3.27	-44.1	-62.2	3.8	8.46e-01	0	50	104	0	59	29355
2026-01-21 19:31:13.38	231.28	3.47	-44.1	-62.1	3.8	8.46e-01	0	50	104	0	59	29033
2026-01-21 19:31:16.41	231.02	3.68	-44.1	-62.0	3.8	8.46e-01	0	50	104	0	59	28765
2026-01-21 19:31:19.43	230.75	3.89	-44.1	-62.0	3.8	8.46e-01	0	51	104	0	59	28844
2026-01-21 19:31:22.46	230.47	4.10	-44.1	-62.1	3.8	8.46e-01	0	51	104	0	59	29309
2026-01-21 19:31:25.48	230.19	4.31	-44.1	-62.2	3.8	8.46e-01	0	51	104	0	59	29368
2026-01-21 19:31:28.50	229.90	4.53	-44.1	-62.1	3.8	8.46e-01	0	51	104	0	59	29331
2026-01-21 19:31:31.52	229.60	4.75	-44.1	-62.1	3.8	8.44e-01	0	51	104	0	59	29318
2026-01-21 19:31:34.54	229.30	4.97	-44.1	-61.8	3.8	8.46e-01	0	52	104	0	59	28034
2026-01-21 19:31:37.56	228.99	5.19	-44.1	-61.3	3.8	8.47e-01	0	52	104	0	59	26661
2026-01-21 19:31:40.58	228.68	5.41	-44.1	-61.3	3.8	8.46e-01	0	52	104	0	59	26686
2026-01-21 19:31:43.60	228.36	5.64	-44.1	-61.7	3.8	8.45e-01	0	52	104	0	59	27938
2026-01-21 19:31:46.62	228.03	5.87	-44.1	-60.6	3.8	8.46e-01	0	52	104	0	59	24619
2026-01-21 19:31:49.65	227.69	6.10	-44.0	-59.4	4.0	8.44e-01	0	52	104	0	59	21444
2026-01-21 19:31:52.67	227.34	6.33	-44.0	-59.0	4.1	8.41e-01	0	52	0	0	59	20368
2026-01-21 19:31:55.69	226.99	6.57	-44.0	-58.5	4.2	8.39e-01	0	52	0	0	59	19382
2026-01-21 19:31:58.73	226.63	6.81	-43.8	-54.9	6.0	8.04e-01	0	52	0	0	59	12770
2026-01-21 19:32:01.75	226.26	7.05	-43.3	-51.7	9.1	1.20e-01	0	53	0	3670016	58	9289
2026-01-21 19:32:04.79	225.88	7.29	-43.2	-51.3	9.6	1.19e-02	0	53	0	6815744	58	8912
2026-01-21 19:32:07.81	225.49	7.54	-43.9	-57.2	4.8	5.63e-02	0	53	0	9961472	58	17544
2026-01-21 19:32:10.83	225.09	7.79	-43.6	-53.7	7.0	8.43e-01	0	53	0	9961472	58	11733
2026-01-21 19:32:13.85	224.69	8.04	-41.7	-46.5	14.4	2.06e-02	0	53	0	13631488	55	6081
2026-01-21 19:32:16.87	224.27	8.29	-43.6	-53.9	7.6	7.13e-02	0	53	0	15728640	57	12744
2026-01-21 19:32:19.90	223.84	8.55	-41.4	-45.8	15.1	8.94e-03	0	53	0	18350080	54	5973
2026-01-21 19:32:22.93	223.40	8.81	-41.3	-45.5	15.6	0.00e+00	0	53	0	21495808	54	5744
2026-01-21 19:32:25.96	222.95	9.08	-41.1	-45.0	16.1	0.00e+00	0	54	0	25165824	54	5429
2026-01-21 19:32:28.98	222.50	9.34	-40.8	-44.5	16.7	0.00e+00	0	53	0	28311552	53	5430
2026-01-21 19:32:32.01	222.02	9.61	-40.7	-44.3	16.8	0.00e+00	0	54	0	31981568	53	5322
2026-01-21 19:32:35.04	221.54	9.89	-40.7	-44.3	16.9	0.00e+00	0	54	0	35127296	53	5312
2026-01-21 19:32:38.06	221.04	10.16	-40.8	-44.4	16.8	0.00e+00	0	54	0	38797312	53	5395
2026-01-21 19:32:41.10	220.53	10.44	-40.9	-44.6	16.6	0.00e+00	0	54	0	41943040	53	5490
2026-01-21 19:32:44.12	220.01	10.72	-40.6	-44.1	17.1	0.00e+00	0	54	0	45613056	53	5175
2026-01-21 19:32:47.15	219.47	11.01	-40.5	-43.8	17.5	0.00e+00	0	54	0	48758784	52	5325
2026-01-21 19:32:50.18	218.92	11.29	-40.5	-43.8	17.5	0.00e+00	0	54	0	52428800	52	5332
2026-01-21 19:32:53.21	218.35	11.58	-40.4	-43.7	17.7	0.00e+00	0	54	0	55574528	52	5259
2026-01-21 19:32:56.23	217.77	11.88	-40.3	-43.5	17.9	0.00e+00	0	54	0	58720256	52	5126
2026-01-21 19:32:59.26	217.17	12.17	-40.0	-43.0	18.4	0.00e+00	0	55	0	62390272	52	4870
2026-01-21 19:33:02.29	216.56	12.47	-40.0	-42.9	18.6	0.00e+00	0	54	0	65536000	51	5073
2026-01-21 19:33:05.32	215.93	12.78	-40.0	-42.9	18.6	0.00e+00	0	55	0	69206016	51	5090
2026-01-21 19:33:08.34	215.28	13.08	-40.1	-43.1	18.5	0.00e+00	0	55	0	72351744	51	5172
2026-01-21 19:33:11.37	214.61	13.39	-39.9	-42.8	18.8	0.00e+00	0	55	0	76021760	51	5008
2026-01-21 19:33:14.40	213.93	13.70	-39.7	-42.4	19.2	0.00e+00	0	55	0	79691776	51	4796
2026-01-21 19:33:17.43	213.23	14.01	-39.9	-42.8	18.9	0.00e+00	0	55	0	82837504	51	4985
2026-01-21 19:33:20.46	212.50	14.33	-40.0	-42.8	18.8	0.00e+00	0	55	0	86507520	51	5015
2026-01-21 19:33:23.49	211.76	14.65	-39.6	-42.2	19.4	0.00e+00	0	55	0	89653248	51	4694
2026-01-21 19:33:26.52	210.99	14.97	-39.5	-42.1	19.6	0.00e+00	0	55	0	93323264	50	4891
2026-01-21 19:33:29.55	210.21	15.29	-39.5	-42.2	19.6	0.00e+00	0	55	0	96468992	50	4932
2026-01-21 19:33:32.58	209.40	15.61	-39.5	-42.1	19.7	0.00e+00	0	55	0	99614720	50	4902
2026-01-21 19:33:35.60	208.57	15.93	-39.0	-41.4	20.4	0.00e+00	0	55	0	103284736	50	4506
2026-01-21 19:33:38.63	207.72	16.26	-38.9	-41.2	20.6	0.00e+00	0	55	0	106430464	49	4685
2026-01-21 19:33:41.66	206.84	16.59	-39.2	-41.7	20.0	0.00e+00	0	55	0	110100480	49	4967
2026-01-21 19:33:44.69	205.94	16.91	-39.2	-41.7	20.1	0.00e+00	0	55	0	113246208	49	4934
2026-01-21 19:33:47.72	205.02	17.24	-38.9	-41.2	20.6	0.00e+00	0	55	0	116916224	49	4687
2026-01-21 19:33:50.75	204.07	17.57	-38.9	-41.2	20.6	0.00e+00	0	55	0	120061952	49	4682
2026-01-21 19:33:53.77	203.09	17.89	-39.1	-41.5	20.3	0.00e+00	0	55	0	123731968	49	4831
2026-01-21 19:33:56.80	202.09	18.22	-39.1	-41.5	20.3	0.00e+00	0	56	0	127401984	49	4843
2026-01-21 19:33:59.83	201.06	18.54	-38.7	-40.9	20.9	0.00e+00	0	55	0	130547712	49	4519
2026-01-21 19:34:02.86	200.00	18.86	-38.1	-40.2	21.6	0.00e+00	0	55	0	133693440	48	4430
2026-01-21 19:34:05.88	198.92	19.18	-38.4	-40.6	21.2	0.00e+00	0	56	0	137363456	48	4645
2026-01-21 19:34:08.91	197.81	19.49	-38.6	-40.8	21.0	0.00e+00	0	56	0	140509184	48	4737
2026-01-21 19:34:11.94	196.67	19.80	-38.5	-40.6	21.2	0.00e+00	0	56	0	144179200	48	4646
2026-01-21 19:34:14.97	195.50	20.11	-38.2	-40.4	21.5	0.00e+00	0	56	0	147324928	48	4498
2026-01-21 19:34:18.00	194.30	20.41	-38.1	-40.2	21.7	0.00e+00	0	56	0	150994944	48	4392
2026-01-21 19:34:21.02	193.08	20.70	-38.1	-40.2	21.6	0.00e+00	0	56	0	154140672	48	4400
2026-01-21 19:34:24.05	191.83	20.98	-38.3	-40.5	21.4	0.00e+00	0	56	0	157810688	47	4821
2026-01-21 19:34:27.08	190.55	21.26	-38.2	-40.3	21.5	0.00e+00	0	56	0	160956416	47	4736
2026-01-21 19:34:30.11	189.24	21.53	-37.9	-40.0	21.8	0.00e+00	0	56	0	164626432	47	4579
2026-01-21 19:34:33.14	187.91	21.79	-37.9	-39.9	22.0	0.00e+00	0	56	0	167772160	47	4523
2026-01-21 19:34:36.17	186.54	22.03	-37.5	-39.4	22.3	0.00e+00	0	56	0	171442176	46	4528
2026-01-21 19:34:39.20	185.16	22.27	-37.5	-39.4	22.4	0.00e+00	0	56	0	174587904	46	4542
2026-01-21 19:34:42.23	183.75	22.49	-37.4	-39.3	22.5	0.00e+00	0	56	0	178257920	46	4486
2026-01-21 19:34:45.26	182.32	22.70	-37.6	-39.6	22.2	0.00e+00	0	56	0	181403648	46	4622
2026-01-21 19:34:48.28	180.87	22.89	-37.6	-39.6	22.2	0.00e+00	0	56	0	185073664	46	4630
2026-01-21 19:34:51.31	179.39	23.07	-37.4	-39.3	22.5	0.00e+00	0	56	0	188219392	46	4465
2026-01-21 19:34:54.34	177.90	23.23	-37.5	-39.4	22.4	0.00e+00	0	56	0	191889408	46	4543
2026-01-21 19:34:57.37	176.39	23.37	-37.1	-38.9	23.0	0.00e+00	0	56	0	195035136	46	4258
2026-01-21 19:35:00.40	174.86	23.50	-37.1	-39.0	22.9	0.00e+00	0	56	0	198705152	46	4299
2026-01-21 19:35:03.43	173.32	23.60	-37.4	-39.3	22.8	0.00e+00	0	56	0	201850880	46	4443
2026-01-21 19:35:06.45	171.77	23.69	-37.1	-39.0	23.0	0.00e+00	0	56	0	205520896	46	4307
2026-01-21 19:35:09.48	170.21	23.76	-38.0	-40.0	22.0	0.00e+00	0	56	0	208666624	46	4842
2026-01-21 19:35:12.51	168.65	23.81	-38.2	-40.3	21.7	0.00e+00	0	56	0	212336640	47	4731
2026-01-21 19:35:15.54	167.07	23.84	-38.4	-40.6	21.5	0.00e+00	0	56	0	215482368	47	4871
2026-01-21 19:35:18.57	165.50	23.85	-38.0	-40.1	22.0	0.00e+00	0	56	0	219152384	47	4607
2026-01-21 19:35:21.60	163.93	23.84	-37.8	-39.7	22.3	0.00e+00	0	57	0	222298112	47	4435
2026-01-21 19:35:24.62	162.36	23.81	-37.9	-39.9	22.2	0.00e+00	0	56	0	225968128	47	4523
2026-01-21 19:35:27.65	160.80	23.75	-37.9	-40.0	22.0	0.00e+00	0	57	0	229113856	47	4563
2026-01-21 19:35:30.69	159.23	23.68	-37.7	-39.7	22.4	0.00e+00	0	56	0	232783872	46	4697
2026-01-21 19:35:33.71	157.69	23.59	-37.7	-39.7	22.4	0.00e+00	0	56	0	235929600	46	4671
2026-01-21 19:35:36.75	156.15	23.48	-37.6	-39.5	22.6	0.00e+00	0	56	0	239599616	46	4587
2026-01-21 19:35:39.78	154.62	23.35	-37.8	-39.8	22.3	0.00e+00	0	56	0	242745344	46	4710
2026-01-21 19:35:42.80	153.12	23.21	-37.5	-39.4	22.7	0.00e+00	0	57	0	246415360	46	4518
2026-01-21 19:35:45.83	151.63	23.05	-37.8	-39.8	22.3	0.00e+00	0	56	0	249561088	46	4753
2026-01-21 19:35:48.86	150.16	22.87	-37.5	-39.5	22.6	0.00e+00	0	57	0	253231104	46	4562
2026-01-21 19:35:51.89	148.71	22.67	-37.3	-39.2	22.9	0.00e+00	0	57	0	256376832	46	4416
2026-01-21 19:35:54.92	147.28	22.46	-37.6	-39.6	22.6	0.00e+00	0	57	0	260046848	46	4607
2026-01-21 19:35:57.94	145.88	22.24	-37.5	-39.5	22.6	0.00e+00	0	57	0	263192576	46	4569
2026-01-21 19:36:00.97	144.50	22.01	-37.7	-39.7	22.4	0.00e+00	0	57	0	266862592	46	4677
2026-01-21 19:36:04.00	143.14	21.76	-37.7	-39.7	22.4	0.00e+00	0	56	0	270008320	46	4686
2026-01-21 19:36:07.03	141.81	21.50	-38.0	-40.1	22.0	0.00e+00	0	57	0	273678336	46	4909
2026-01-21 19:36:10.06	140.51	21.23	-38.2	-40.3	21.8	0.00e+00	0	57	0	276824064	47	4750
2026-01-21 19:36:13.09	139.24	20.96	-38.3	-40.5	21.7	0.00e+00	0	57	0	280494080	47	4838
2026-01-21 19:36:16.11	137.99	20.67	-37.9	-39.9	22.2	0.00e+00	0	57	0	283639808	47	4530
2026-01-21 19:36:19.14	136.77	20.38	-39.1	-41.4	20.9	0.00e+00	0	57	0	287309824	48	5068
2026-01-21 19:36:22.17	135.58	20.08	-38.7	-40.9	21.3	0.00e+00	0	56	0	290455552	48	4778
2026-01-21 19:36:25.20	134.42	19.77	-38.5	-40.6	21.5	0.00e+00	0	57	0	294125568	48	4636
2026-01-21 19:36:28.22	133.29	19.47	-38.7	-40.9	21.3	0.00e+00	0	56	0	297271296	48	4782
2026-01-21 19:36:31.25	132.18	19.15	-38.7	-41.0	21.2	0.00e+00	0	57	0	300941312	48	4817
2026-01-21 19:36:34.28	131.10	18.83	-38.6	-41.1	20.4	0.00e+00	0	57	0	304087040	48	4885
2026-01-21 19:36:37.31	130.05	18.51	-38.8	-41.3	20.4	3.40e-06	0	57	0	307757056	48	5030
2026-01-21 19:36:40.33	129.03	18.19	-38.8	-41.1	20.9	1.10e-06	0	57	0	310902784	48	4883
2026-01-21 19:36:43.36	128.03	17.87	-38.4	-41.2	20.5	1.10e-06	0	57	0	314572800	48	4954
2026-01-21 19:36:46.40	127.05	17.54	-38.7	-41.1	20.8	1.02e-05	0	57	0	317718528	48	4899
2026-01-21 19:36:49.42	126.11	17.22	-38.9	-41.3	20.7	2.20e-06	0	57	0	321388544	48	5002
2026-01-21 19:36:52.45	125.19	16.89	-39.0	-41.4	20.2	0.00e+00	0	57	0	324534272	48	5088
2026-01-21 19:36:55.48	124.29	16.56	-39.0	-41.6	20.3	0.00e+00	0	57	0	328204288	48	5160
2026-01-21 19:36:58.51	123.42	16.24	-39.0	-41.5	20.3	0.00e+00	0	57	0	331350016	48	5105
2026-01-21 19:37:01.54	122.57	15.91	-39.1	-41.6	20.2	0.00e+00	0	57	0	335020032	48	5181
2026-01-21 19:37:04.56	121.75	15.59	-38.0	-42.0	18.6	0.00e+00	0	57	0	338165760	47	5751
2026-01-21 19:37:07.59	120.95	15.27	-38.3	-42.4	18.3	2.20e-06	0	57	0	341835776	48	5698
2026-01-21 19:37:10.62	120.17	14.95	-38.8	-42.3	18.1	1.83e-05	0	57	0	344981504	48	5651
2026-01-21 19:37:13.65	119.41	14.63	-35.7	-41.9	15.6	2.63e-04	0	57	0	348651520	42	7544
2026-01-21 19:37:16.67	118.67	14.31	-38.5	-42.6	16.8	2.22e-03	0	57	0	351797248	48	5807
2026-01-21 19:37:19.70	117.95	14.00	-38.9	-42.8	17.3	2.22e-03	0	57	0	355467264	47	6282
2026-01-21 19:37:22.73	117.25	13.69	-35.7	-43.1	17.0	1.91e-03	0	57	0	358612992	47	6508
2026-01-21 19:37:25.75	116.57	13.38	-36.7	-42.5	16.2	8.22e-04	0	57	0	362283008	41	8584
2026-01-21 19:37:28.78	115.91	13.07	-35.6	-42.9	16.0	1.12e-03	0	57	0	365428736	44	7622
2026-01-21 19:37:31.81	115.27	12.77	-35.5	-43.3	16.5	9.67e-04	0	57	0	369098752	46	7058
2026-01-21 19:37:34.84	114.64	12.47	-37.6	-42.9	17.2	6.48e-04	0	57	0	372244480	45	7183
2026-01-21 19:37:37.86	114.03	12.17	-38.9	-43.2	17.2	2.25e-04	0	57	0	375914496	48	6251
2026-01-21 19:37:40.90	113.43	11.87	-38.7	-43.9	15.5	3.48e-04	0	57	0	379060224	47	7189
2026-01-21 19:37:43.93	112.85	11.58	-35.5	-43.0	14.9	1.88e-03	0	57	0	382730240	45	7246
2026-01-21 19:37:46.96	112.29	11.29	-36.6	-43.6	13.7	2.38e-02	0	57	0	385875968	43	8701
2026-01-21 19:37:49.99	111.74	11.00	-34.8	-43.6	12.8	8.36e-02	0	57	0	389545984	43	8743
2026-01-21 19:37:53.02	111.21	10.72	-32.9	-43.8	9.1	2.86e-02	0	57	0	392691712	36	13274
2026-01-21 19:37:56.05	110.69	10.44	-34.3	-43.6	10.9	4.90e-02	0	57	0	395837440	36	12999
2026-01-21 19:37:59.07	110.18	10.16	-34.2	-43.9	13.1	1.07e-01	0	57	0	398983168	42	9524
2026-01-21 19:38:02.10	109.69	9.89	-34.8	-44.4	10.6	3.14e-01	0	57	0	402128896	39	12072
2026-01-21 19:38:05.13	109.20	9.61	-34.8	-44.6	11.5	2.48e-01	0	57	0	405274624	41	10910
2026-01-21 19:38:08.16	108.73	9.35	-35.0	-44.0	11.7	3.80e-02	0	57	0	408420352	40	10889
2026-01-21 19:38:11.19	108.27	9.08	-37.5	-44.1	14.0	2.34e-02	0	57	0	411566080	45	8214
2026-01-21 19:38:14.21	107.83	8.82	-38.4	-44.8	14.0	1.43e-02	0	57	0	415236096	47	7956
2026-01-21 19:38:17.24	107.39	8.56	-38.0	-44.7	13.6	1.68e-02	0	57	0	418381824	47	7871
2026-01-21 19:38:20.27	106.97	8.30	-38.6	-45.0	14.0	6.17e-03	0	57	0	422051840	48	7659
2026-01-21 19:38:23.30	106.55	8.05	-38.8	-44.9	13.0	1.65e-03	0	57	0	425721856	48	7610
2026-01-21 19:38:26.33	106.15	7.80	-44.9	-63.1	3.8	8.38e-01	0	57	104	425721856	60	31082
2026-01-21 19:38:29.35	105.75	7.55	-45.5	-63.8	3.8	8.47e-01	0	57	104	425721856	61	31646
2026-01-21 19:38:32.38	105.37	7.30	-45.8	-64.1	3.8	8.46e-01	0	57	104	425721856	62	30867
2026-01-21 19:38:35.41	104.99	7.06	-45.6	-63.8	3.8	8.47e-01	0	57	104	425721856	62	29877
2026-01-21 19:38:38.43	104.62	6.82	-45.5	-63.6	3.8	8.46e-01	0	57	104	425721856	62	29215
2026-01-21 19:38:41.45	104.26	6.58	-45.4	-63.5	3.8	8.45e-01	0	57	104	425721856	62	28720
2026-01-21 19:38:44.48	103.91	6.34	-45.3	-63.4	3.8	8.47e-01	0	57	104	425721856	62	28668
2026-01-21 19:38:47.49	103.57	6.11	-45.3	-63.4	3.8	8.46e-01	0	57	104	425721856	62	28576
2026-01-21 19:38:50.51	103.23	5.88	-45.4	-63.4	3.8	8.47e-01	0	57	104	425721856	62	28521
2026-01-21 19:38:53.53	102.91	5.65	-45.3	-63.4	3.8	8.48e-01	0	57	104	425721856	62	28577
2026-01-21 19:38:56.56	102.59	5.43	-45.3	-63.4	3.8	8.46e-01	0	57	104	425721856	62	28550
2026-01-21 19:38:59.58	102.27	5.20	-45.3	-63.4	3.8	8.46e-01	0	57	104	425721856	61	30235
2026-01-21 19:39:02.60	101.97	4.98	-45.3	-63.4	3.8	8.46e-01	0	57	104	425721856	61	30213
2026-01-21 19:39:05.62	101.67	4.77	-45.3	-63.4	3.8	8.46e-01	0	57	104	425721856	61	30078
2026-01-21 19:39:08.64	101.37	4.55	-45.3	-63.4	3.8	8.46e-01	0	57	104	425721856	61	30055
2026-01-21 19:39:11.66	101.09	4.33	-45.3	-63.4	3.8	8.46e-01	0	57	104	425721856	61	30056
2026-01-21 19:39:14.68	100.81	4.12	-45.3	-63.4	3.8	8.46e-01	0	57	104	425721856	61	30113
2026-01-21 19:39:17.71	100.53	3.91	-45.2	-63.3	3.8	8.46e-01	0	58	104	425721856	61	30001
2026-01-21 19:39:20.73	100.26	3.70	-45.3	-63.3	3.8	8.47e-01	0	57	104	425721856	61	29910
2026-01-21 19:39:23.75	100.00	3.50	-45.3	-63.3	3.8	8.46e-01	0	57	104	425721856	61	30004
2026-01-21 19:39:26.77	99.74	3.29	-45.3	-63.4	3.8	8.47e-01	0	58	104	425721856	61	30036
2026-01-21 19:39:29.79	99.49	3.09	-45.3	-63.4	3.8	8.47e-01	0	57	104	425721856	61	30043
2026-01-21 19:39:32.81	99.24	2.89	-45.3	-63.4	3.8	8.47e-01	0	57	104	425721856	61	30032
2026-01-21 19:39:35.83	98.99	2.69	-45.3	-63.3	3.8	8.45e-01	0	57	104	425721856	61	29940
2026-01-21 19:39:38.85	98.76	2.49	-45.3	-63.3	3.8	8.46e-01	0	57	104	425721856	61	29988
2026-01-21 19:39:41.87	98.52	2.30	-45.3	-63.3	3.8	8.47e-01	0	58	104	425721856	61	29931
2026-01-21 19:39:44.89	98.29	2.10	-45.3	-63.3	3.8	8.45e-01	0	58	104	425721856	61	29930
2026-01-21 19:39:47.92	98.07	1.91	-45.3	-63.3	3.8	8.46e-01	0	57	104	425721856	61	29977

#Closed at: 2026-01-21 19:39:48
#Recorded file [425 MB]: D:/lorett/data/31039_260121_223052.dat