passes_logs/2026/01/21/R2.0S_Moscow/R2.0S_Moscow__20260121_230310_SUOMI_NPP_rec.log

#Pass ID: 20260121_230310_SUOMI NPP
#Satellite: SUOMI NPP
#Configuration: NPP
#almurnet v.1.7.20251203
#Start time: 2026-01-21 23:03:12

#Version: 2.2.20231116
#Station: R2.0S_Moscow
#Location: 37.707566 lon 55.798166 lat
#TLE: 1 37849U 11061A   26021.51818991  .00000201  00000+0  11636-3 0  9995
#TLE: 2 37849  98.7819 323.5108 0002300  52.3548 307.7836 14.19527793737637

#Time	Az	El	Level	Level2	SNR	BER	BlckErr	Temp	State	Recorded	gain1	gain2
2026-01-21 23:03:12.44	19.80	2.14	-42.3	-56.9	3.8	1.49e+00	0	49	0	0	56	19098
2026-01-21 23:03:16.47	19.94	2.39	-42.4	-56.9	3.8	1.49e+00	0	49	104	0	56	19127
2026-01-21 23:03:20.52	20.09	2.65	-42.3	-56.9	3.8	1.49e+00	0	50	104	0	56	19092
2026-01-21 23:03:24.56	20.23	2.90	-42.3	-56.9	3.8	1.49e+00	0	50	104	0	56	19127
2026-01-21 23:03:28.60	20.38	3.16	-42.3	-56.9	3.8	1.49e+00	0	50	104	0	56	19083
2026-01-21 23:03:32.64	20.54	3.42	-42.4	-56.9	3.8	1.49e+00	0	50	104	0	56	19128
2026-01-21 23:03:36.69	20.69	3.68	-42.3	-56.9	3.8	1.49e+00	0	50	104	0	56	19107
2026-01-21 23:03:40.72	20.85	3.95	-42.3	-56.9	3.8	1.49e+00	0	51	104	0	56	19139
2026-01-21 23:03:44.76	21.01	4.22	-42.3	-56.9	3.8	1.49e+00	0	51	104	0	56	19119
2026-01-21 23:03:48.81	21.17	4.49	-42.3	-56.9	3.8	1.49e+00	0	51	104	0	56	19069
2026-01-21 23:03:52.85	21.34	4.76	-42.3	-56.9	3.8	1.49e+00	0	52	104	0	56	19076
2026-01-21 23:03:56.89	21.51	5.03	-42.3	-56.9	3.8	1.49e+00	0	52	104	0	56	19068
2026-01-21 23:04:00.93	21.68	5.31	-42.3	-56.9	3.8	1.49e+00	0	52	104	0	56	19083
2026-01-21 23:04:04.97	21.85	5.59	-42.3	-56.9	3.8	1.49e+00	0	52	104	0	56	19088
2026-01-21 23:04:09.01	22.03	5.87	-42.3	-56.9	3.8	1.49e+00	0	52	104	0	56	19096
2026-01-21 23:04:13.05	22.21	6.16	-42.3	-56.9	3.8	1.49e+00	0	53	104	0	56	19134
2026-01-21 23:04:17.10	22.39	6.45	-42.3	-56.9	3.8	1.49e+00	0	52	104	0	56	19040
2026-01-21 23:04:21.14	22.58	6.74	-42.3	-56.9	3.8	1.49e+00	0	53	104	0	56	19075
2026-01-21 23:04:25.18	22.77	7.04	-42.3	-56.9	3.8	1.49e+00	0	53	104	0	56	18979
2026-01-21 23:04:29.22	22.97	7.34	-42.3	-56.4	3.8	1.49e+00	0	53	104	0	56	18094
2026-01-21 23:04:33.26	23.16	7.64	-42.3	-56.0	3.8	1.49e+00	0	53	104	0	56	17225
2026-01-21 23:04:37.31	23.36	7.95	-42.1	-53.6	4.1	1.47e+00	0	54	0	0	56	13088
2026-01-21 23:04:41.35	23.57	8.25	-42.0	-49.1	7.0	4.48e-01	0	54	0	5242880	56	7740
2026-01-21 23:04:45.39	23.78	8.57	-41.7	-47.7	8.6	2.99e-02	0	54	0	8388608	55	7028
2026-01-21 23:04:49.42	23.99	8.88	-41.8	-47.5	8.9	4.22e-02	0	54	0	16777216	55	6811
2026-01-21 23:04:53.46	24.21	9.20	-42.0	-47.8	8.7	4.29e-02	0	54	0	24117248	55	7102
2026-01-21 23:04:57.50	24.43	9.52	-41.9	-47.4	9.3	2.69e-02	0	54	0	31457280	55	6765
2026-01-21 23:05:01.54	24.66	9.85	-42.1	-47.8	9.0	2.35e-02	0	54	0	38797312	55	7078
2026-01-21 23:05:05.58	24.89	10.18	-42.2	-47.7	9.3	1.57e-02	0	55	0	47185920	55	7017
2026-01-21 23:05:09.61	25.13	10.52	-42.1	-47.2	10.0	1.03e-02	0	55	0	54525952	55	6593
2026-01-21 23:05:13.65	25.37	10.86	-42.2	-47.2	10.0	8.66e-03	0	55	0	61865984	55	6645
2026-01-21 23:05:17.69	25.61	11.20	-41.9	-46.6	10.8	3.19e-03	0	55	0	69206016	55	6158
2026-01-21 23:05:21.73	25.87	11.55	-41.9	-46.5	10.9	1.95e-03	0	55	0	76546048	55	6096
2026-01-21 23:05:25.77	26.12	11.90	-41.9	-46.3	11.2	1.29e-03	0	55	0	84934656	55	5951
2026-01-21 23:05:29.81	26.39	12.26	-41.8	-46.2	11.3	1.40e-03	0	55	0	92274688	55	5875
2026-01-21 23:05:33.84	26.66	12.62	-41.8	-46.0	11.5	9.92e-04	0	55	0	99614720	55	5771
2026-01-21 23:05:37.88	26.93	12.99	-41.7	-45.9	11.8	5.17e-04	0	55	0	106954752	55	5667
2026-01-21 23:05:41.92	27.22	13.36	-41.7	-45.8	11.9	3.94e-04	0	55	0	115343360	55	5608
2026-01-21 23:05:45.95	27.51	13.74	-41.6	-45.6	12.2	2.15e-04	0	55	0	122683392	55	5466
2026-01-21 23:05:49.99	27.80	14.13	-41.5	-45.3	12.4	1.52e-04	0	55	0	130023424	55	5321
2026-01-21 23:05:54.02	28.11	14.51	-41.6	-45.4	12.4	1.46e-04	0	56	0	137363456	55	5389
2026-01-21 23:05:58.06	28.42	14.91	-41.6	-45.4	12.4	9.76e-05	0	56	0	144703488	54	5660
2026-01-21 23:06:02.10	28.74	15.31	-41.6	-45.3	12.6	9.53e-05	0	56	0	153092096	54	5617
2026-01-21 23:06:06.13	29.06	15.71	-41.6	-45.4	12.5	9.61e-05	0	56	0	160432128	54	5671
2026-01-21 23:06:10.17	29.40	16.13	-41.8	-45.8	12.1	2.10e-04	0	56	0	167772160	54	5933
2026-01-21 23:06:14.20	29.74	16.54	-41.9	-45.8	12.1	2.99e-04	0	56	0	175112192	54	5991
2026-01-21 23:06:18.24	30.10	16.97	-41.9	-45.9	12.1	1.85e-04	0	56	0	183500800	54	6044
2026-01-21 23:06:22.28	30.46	17.40	-42.0	-46.0	12.0	3.30e-04	0	56	0	190840832	54	6108
2026-01-21 23:06:26.31	30.84	17.84	-42.2	-46.3	11.7	4.13e-04	0	56	0	198180864	54	6321
2026-01-21 23:06:30.35	31.22	18.28	-42.2	-46.3	11.8	5.90e-04	0	56	0	205520896	55	5951
2026-01-21 23:06:34.37	31.62	18.73	-42.1	-46.1	12.0	3.93e-04	0	56	0	212860928	55	5835
2026-01-21 23:06:38.38	32.02	19.19	-42.3	-46.4	11.7	6.61e-04	0	56	0	220200960	55	6056
2026-01-21 23:06:42.40	32.44	19.65	-42.4	-46.7	11.4	9.79e-04	0	56	0	228589568	55	6260
2026-01-21 23:06:46.42	32.87	20.12	-42.4	-46.8	11.3	8.28e-04	0	56	0	235929600	55	6294
2026-01-21 23:06:50.44	33.31	20.60	-42.1	-46.0	12.2	2.52e-04	0	56	0	243269632	55	5748
2026-01-21 23:06:54.48	33.77	21.09	-42.2	-46.2	12.0	2.72e-04	0	56	0	250609664	55	5898
2026-01-21 23:06:58.50	34.24	21.58	-42.2	-46.2	11.9	3.99e-04	0	57	0	258998272	55	5867
2026-01-21 23:07:02.52	34.72	22.08	-42.3	-46.5	11.7	7.22e-04	0	56	0	266338304	55	6086
2026-01-21 23:07:06.56	35.23	22.60	-42.5	-46.8	11.4	7.41e-04	0	57	0	273678336	55	6298
2026-01-21 23:07:10.60	35.75	23.12	-42.2	-46.3	12.0	4.29e-04	0	57	0	281018368	55	5924
2026-01-21 23:07:14.64	36.28	23.65	-42.2	-46.2	12.1	2.95e-04	0	57	0	288358400	55	5868
2026-01-21 23:07:18.67	36.84	24.18	-42.2	-46.1	12.2	3.44e-04	0	57	0	296747008	55	5807
2026-01-21 23:07:22.71	37.41	24.73	-42.3	-46.3	12.1	2.34e-04	0	57	0	304087040	55	5927
2026-01-21 23:07:26.75	38.00	25.28	-42.3	-46.3	12.0	2.54e-04	0	57	0	311427072	55	5939
2026-01-21 23:07:30.79	38.62	25.85	-42.1	-45.9	12.4	1.66e-04	0	57	0	318767104	55	5678
2026-01-21 23:07:34.82	39.25	26.42	-42.2	-46.1	12.2	2.16e-04	0	57	0	326107136	55	5842
2026-01-21 23:07:38.86	39.91	27.00	-42.4	-46.5	11.9	2.68e-04	0	57	0	334495744	55	6095
2026-01-21 23:07:42.90	40.59	27.59	-42.1	-45.8	12.6	1.46e-04	0	57	0	341835776	55	5594
2026-01-21 23:07:46.94	41.30	28.18	-42.2	-46.1	12.2	3.38e-04	0	57	0	349175808	55	5821
2026-01-21 23:07:50.98	42.04	28.79	-43.0	-47.6	10.9	1.36e-03	0	57	0	356515840	56	6551
2026-01-21 23:07:55.01	42.80	29.40	-43.4	-48.5	9.9	4.61e-03	0	57	0	364904448	57	6834
2026-01-21 23:07:59.05	43.59	30.03	-43.3	-48.3	10.3	4.42e-03	0	57	0	372244480	57	6665
2026-01-21 23:08:03.09	44.41	30.66	-43.3	-48.2	10.3	9.20e-03	0	57	0	379584512	57	6615
2026-01-21 23:08:07.13	45.26	31.29	-43.1	-47.7	10.9	2.61e-03	0	57	0	386924544	57	6211
2026-01-21 23:08:11.17	46.15	31.94	-43.0	-47.6	11.0	1.75e-03	0	57	0	394264576	57	6137
2026-01-21 23:08:15.20	47.07	32.59	-43.3	-48.4	10.2	5.40e-03	0	57	0	402653184	57	6752
2026-01-21 23:08:19.24	48.03	33.25	-43.4	-48.5	10.1	7.76e-03	0	57	0	409993216	57	6847
2026-01-21 23:08:23.28	49.03	33.91	-43.0	-47.5	11.0	1.89e-03	0	57	0	417333248	57	6130
2026-01-21 23:08:27.31	50.07	34.57	-43.0	-47.4	11.2	1.16e-03	0	57	0	424673280	57	6033
2026-01-21 23:08:31.35	51.15	35.25	-43.1	-47.7	10.9	2.51e-03	0	57	0	433061888	57	6254
2026-01-21 23:08:35.39	52.28	35.92	-42.4	-46.1	12.6	1.23e-04	0	57	0	440401920	56	5479
2026-01-21 23:08:39.43	53.45	36.60	-42.5	-46.3	12.4	9.99e-05	0	57	0	447741952	56	5643
2026-01-21 23:08:43.47	54.68	37.27	-42.4	-46.1	12.6	1.29e-04	0	57	0	455081984	56	5500
2026-01-21 23:08:47.51	55.95	37.95	-42.1	-45.5	13.1	2.51e-05	0	57	0	462422016	56	5134
2026-01-21 23:08:51.54	57.28	38.62	-42.3	-45.9	12.8	8.39e-05	0	58	0	470810624	56	5388
2026-01-21 23:08:55.58	58.66	39.29	-42.5	-46.3	12.4	1.70e-04	0	57	0	478150656	56	5631
2026-01-21 23:08:59.62	60.10	39.95	-41.8	-45.2	13.4	1.52e-05	0	58	0	485490688	55	5231
2026-01-21 23:09:03.66	61.60	40.60	-42.1	-45.7	12.8	6.94e-05	0	57	0	492830720	55	5584
2026-01-21 23:09:07.70	63.16	41.24	-42.7	-46.8	11.8	2.84e-04	0	58	0	501219328	55	6324
2026-01-21 23:09:11.74	64.79	41.87	-42.5	-46.2	12.6	1.01e-04	0	57	0	508559360	56	5574
2026-01-21 23:09:15.78	66.47	42.49	-43.0	-47.2	11.5	8.55e-04	0	57	0	515899392	56	6274
2026-01-21 23:09:19.82	68.22	43.08	-42.9	-47.2	11.5	6.81e-04	0	57	0	523239424	57	5891
2026-01-21 23:09:23.86	70.04	43.66	-43.1	-47.5	11.2	9.30e-04	0	57	0	530579456	57	6065
2026-01-21 23:09:27.90	71.92	44.21	-43.4	-48.3	10.4	5.54e-03	0	58	0	538968064	57	6667
2026-01-21 23:09:31.94	73.86	44.74	-43.5	-48.5	10.3	2.97e-03	0	57	0	546308096	57	6825
2026-01-21 23:09:35.98	75.86	45.23	-43.8	-49.3	9.2	1.31e-02	0	58	0	553648128	58	7107
2026-01-21 23:09:40.01	77.93	45.69	-43.8	-49.2	9.5	2.27e-02	0	58	0	560988160	59	6587
2026-01-21 23:09:44.05	80.05	46.11	-44.0	-50.0	8.6	5.26e-02	0	57	0	569376768	59	7212
2026-01-21 23:09:48.09	82.23	46.50	-44.6	-52.0	6.7	2.03e-01	0	58	0	576716800	59	9145
2026-01-21 23:09:52.13	84.46	46.84	-43.7	-48.9	9.7	1.61e-02	0	58	0	584056832	59	6371
2026-01-21 23:09:56.17	86.74	47.14	-43.5	-48.3	10.3	3.11e-03	0	57	0	591396864	58	6327
2026-01-21 23:10:00.20	89.05	47.39	-43.7	-48.8	9.9	1.58e-02	0	58	0	598736896	58	6701
2026-01-21 23:10:04.24	91.40	47.59	-43.7	-48.9	9.9	1.27e-02	0	58	0	607125504	58	6766
2026-01-21 23:10:08.28	93.78	47.74	-43.9	-49.6	9.1	4.28e-02	0	57	0	614465536	59	6918
2026-01-21 23:10:12.32	96.18	47.83	-44.2	-50.5	8.2	3.83e-02	0	58	0	621805568	58	8105
2026-01-21 23:10:16.35	98.58	47.88	-43.7	-49.1	9.6	1.01e-02	0	58	0	629145600	58	6882
2026-01-21 23:10:20.39	100.99	47.87	-43.8	-49.2	9.5	1.18e-02	0	58	0	637534208	58	7025
2026-01-21 23:10:24.43	103.39	47.80	-42.7	-46.6	12.2	1.92e-04	0	58	0	644874240	57	5470
2026-01-21 23:10:28.47	105.78	47.69	-43.8	-49.3	9.4	1.68e-02	0	58	0	652214272	58	7088
2026-01-21 23:10:32.51	108.15	47.52	-43.9	-49.7	9.0	1.77e-02	0	58	0	659554304	58	7395
2026-01-21 23:10:36.55	110.49	47.30	-43.9	-49.4	9.3	2.00e-02	0	58	0	666894336	58	7148
2026-01-21 23:10:40.59	112.80	47.03	-42.7	-46.6	12.2	2.80e-04	0	58	0	675282944	57	5507
2026-01-21 23:10:44.63	115.06	46.71	-44.0	-49.9	8.9	3.66e-02	0	58	0	682622976	58	7554
2026-01-21 23:10:48.67	117.28	46.35	-43.5	-48.6	10.2	3.44e-03	0	58	0	689963008	58	6512
2026-01-21 23:10:52.71	119.44	45.95	-43.3	-47.9	10.8	1.03e-03	0	58	0	697303040	57	6381
2026-01-21 23:10:56.75	121.55	45.51	-43.0	-47.2	11.5	1.81e-03	0	58	0	705691648	58	5583
2026-01-21 23:11:00.79	123.60	45.04	-42.9	-47.0	11.8	1.30e-03	0	58	0	713031680	57	5765
2026-01-21 23:11:04.83	125.58	44.53	-43.3	-47.9	10.9	1.74e-03	0	58	0	720371712	57	6377
2026-01-21 23:11:08.86	127.50	44.00	-42.4	-46.1	12.7	4.04e-05	0	58	0	727711744	55	5836
2026-01-21 23:11:12.90	129.36	43.43	-41.7	-44.8	13.9	0.00e+00	0	58	0	735051776	54	5329
2026-01-21 23:11:16.94	131.15	42.85	-41.8	-45.0	13.6	1.90e-05	0	58	0	743440384	55	5159
2026-01-21 23:11:20.98	132.88	42.24	-41.5	-44.6	14.1	6.80e-06	0	58	0	750780416	54	5188
2026-01-21 23:11:25.01	134.54	41.62	-42.0	-45.3	13.3	1.37e-05	0	58	0	758120448	54	5637
2026-01-21 23:11:29.04	136.14	40.98	-40.8	-43.5	15.1	0.00e+00	0	58	0	765460480	52	5112
2026-01-21 23:11:33.08	137.68	40.33	-41.9	-45.3	13.3	5.34e-05	0	58	0	773849088	55	5320
2026-01-21 23:11:37.12	139.16	39.67	-43.6	-48.8	9.8	6.32e-03	0	58	0	781189120	57	7097
2026-01-21 23:11:41.16	140.58	39.00	-43.4	-48.2	10.5	2.54e-03	0	58	0	788529152	57	6576
2026-01-21 23:11:45.20	141.95	38.33	-43.8	-49.4	9.1	1.98e-02	0	58	0	795869184	59	6773
2026-01-21 23:11:49.23	143.26	37.65	-44.2	-50.8	7.7	3.62e-02	0	58	0	803209216	59	7942
2026-01-21 23:11:53.27	144.52	36.98	-43.6	-48.9	9.6	3.50e-02	0	58	0	811597824	59	6365
2026-01-21 23:11:57.31	145.72	36.30	-44.4	-51.5	7.0	1.33e-01	0	58	0	818937856	59	8639
2026-01-21 23:12:01.34	146.88	35.62	-44.2	-50.8	7.7	7.37e-02	0	58	0	826277888	59	7943
2026-01-21 23:12:05.38	147.99	34.94	-44.5	-52.4	6.3	1.76e-01	0	58	0	833617920	59	9523
2026-01-21 23:12:09.42	149.06	34.27	-42.8	-47.0	11.6	3.33e-03	0	58	0	840957952	57	5782
2026-01-21 23:12:13.46	150.09	33.60	-43.8	-49.5	9.0	5.95e-03	0	58	0	849346560	58	7218
2026-01-21 23:12:17.49	151.07	32.94	-43.8	-49.5	8.9	3.00e-02	0	58	0	856686592	59	6841
2026-01-21 23:12:21.53	152.02	32.28	-43.1	-47.6	11.0	1.37e-03	0	58	0	864026624	57	6186
2026-01-21 23:12:25.57	152.93	31.62	-43.0	-47.5	11.0	2.60e-03	0	58	0	871366656	57	6128
2026-01-21 23:12:29.61	153.81	30.98	-42.4	-46.2	12.4	1.70e-04	0	58	0	879755264	56	5552
2026-01-21 23:12:33.64	154.65	30.34	-43.5	-48.7	9.7	9.75e-03	0	58	0	887095296	57	7035
2026-01-21 23:12:37.68	155.46	29.71	-42.7	-46.9	11.5	9.22e-04	0	58	0	894435328	57	5711
2026-01-21 23:12:41.72	156.24	29.09	-42.8	-47.2	11.3	7.09e-04	0	58	0	901775360	57	5859
2026-01-21 23:12:45.76	156.99	28.47	-42.8	-47.1	11.4	8.63e-04	0	58	0	909115392	57	5791
2026-01-21 23:12:49.80	157.71	27.87	-42.9	-47.2	11.1	1.47e-03	0	58	0	917504000	57	5916
2026-01-21 23:12:53.84	158.41	27.27	-42.1	-45.7	12.7	7.01e-05	0	58	0	924844032	56	5236
2026-01-21 23:12:57.87	159.08	26.68	-42.1	-45.8	12.4	9.68e-05	0	58	0	932184064	55	5620
2026-01-21 23:13:01.91	159.73	26.10	-42.5	-46.7	11.4	5.83e-04	0	58	0	939524096	55	6265
2026-01-21 23:13:05.95	160.36	25.53	-41.9	-45.5	12.7	9.99e-05	0	58	0	947912704	55	5453
2026-01-21 23:13:09.99	160.97	24.97	-42.0	-45.6	12.6	1.15e-04	0	58	0	955252736	55	5523
2026-01-21 23:13:14.03	161.55	24.41	-42.3	-46.4	11.8	6.53e-04	0	58	0	962592768	55	5997
2026-01-21 23:13:18.06	162.11	23.87	-41.9	-45.6	12.6	1.58e-04	0	58	0	969932800	55	5465
2026-01-21 23:13:22.10	162.66	23.33	-42.0	-45.8	12.3	1.96e-04	0	58	0	977272832	55	5623
2026-01-21 23:13:26.14	163.19	22.80	-42.4	-46.5	11.5	6.18e-04	0	58	0	985661440	55	6130
2026-01-21 23:13:30.18	163.70	22.28	-42.6	-47.0	11.0	1.80e-03	0	58	0	993001472	55	6453
2026-01-21 23:13:34.21	164.20	21.77	-42.1	-46.0	12.0	3.81e-04	0	58	0	1000341504	55	5761
2026-01-21 23:13:38.25	164.68	21.26	-41.8	-45.3	12.7	1.27e-04	0	58	0	1007681536	55	5335
2026-01-21 23:13:42.27	165.14	20.77	-42.2	-46.4	11.6	4.23e-04	0	58	0	1015021568	55	5999
2026-01-21 23:13:46.29	165.59	20.28	-43.0	-47.9	10.2	5.20e-03	0	58	0	1023410176	56	6760
2026-01-21 23:13:50.31	166.03	19.81	-42.9	-47.8	10.2	5.11e-03	0	58	0	1030750208	56	6675
2026-01-21 23:13:54.34	166.45	19.33	-42.6	-47.0	11.1	2.15e-03	0	58	0	1038090240	56	6080
2026-01-21 23:13:58.36	166.86	18.87	-42.2	-46.2	11.8	4.53e-04	0	58	0	1045430272	56	5585
2026-01-21 23:14:02.39	167.26	18.41	-42.4	-46.5	11.5	7.86e-04	0	58	0	1053818880	56	5773
2026-01-21 23:14:06.41	167.65	17.97	-42.4	-46.7	11.4	9.73e-04	0	58	0	1061158912	56	5860
2026-01-21 23:14:10.44	168.03	17.52	-42.5	-46.8	11.2	1.37e-03	0	58	0	1068498944	56	5965
2026-01-21 23:14:14.46	168.39	17.09	-42.2	-46.3	11.8	4.82e-04	0	58	0	1075838976	56	5595
2026-01-21 23:14:18.49	168.75	16.66	-41.7	-45.3	12.5	7.93e-05	0	58	0	1083179008	55	5335
2026-01-21 23:14:22.52	169.10	16.23	-41.5	-45.0	12.9	4.65e-05	0	58	0	1090519040	54	5426
2026-01-21 23:14:26.54	169.44	15.82	-41.4	-44.9	13.0	1.98e-05	0	58	0	1098907648	54	5366
2026-01-21 23:14:30.57	169.77	15.41	-41.6	-45.3	12.5	1.01e-04	0	58	0	1106247680	54	5644
2026-01-21 23:14:34.59	170.09	15.00	-42.0	-46.1	11.7	4.82e-04	0	58	0	1113587712	54	6152
2026-01-21 23:14:38.63	170.40	14.60	-42.4	-47.0	10.6	2.89e-03	0	58	0	1120927744	55	6490
2026-01-21 23:14:42.67	170.71	14.21	-42.5	-47.4	10.2	6.52e-03	0	58	0	1128267776	55	6761
2026-01-21 23:14:46.71	171.00	13.82	-42.6	-47.7	9.9	1.09e-02	0	58	0	1136656384	55	7022
2026-01-21 23:14:50.74	171.29	13.44	-42.3	-46.9	10.7	3.05e-03	0	58	0	1143996416	55	6413
2026-01-21 23:14:54.78	171.58	13.06	-41.9	-46.0	11.6	9.04e-04	0	58	0	1151336448	55	5787
2026-01-21 23:14:58.82	171.85	12.69	-41.7	-45.6	12.0	3.29e-04	0	58	0	1158676480	55	5469
2026-01-21 23:15:02.86	172.13	12.32	-41.5	-45.2	12.4	1.64e-04	0	58	0	1167065088	54	5562
2026-01-21 23:15:06.90	172.39	11.96	-41.6	-45.6	12.0	2.66e-04	0	58	0	1174405120	54	5789
2026-01-21 23:15:10.94	172.65	11.60	-41.7	-45.8	11.7	5.74e-04	0	58	0	1181745152	54	5950
2026-01-21 23:15:14.97	172.90	11.25	-41.8	-46.1	11.4	8.96e-04	0	58	0	1189085184	54	6165
2026-01-21 23:15:19.01	173.15	10.90	-42.0	-46.6	10.9	2.28e-03	0	58	0	1196425216	54	6501
2026-01-21 23:15:23.06	173.39	10.55	-42.1	-46.7	10.6	2.93e-03	0	58	0	1204813824	54	6641
2026-01-21 23:15:27.09	173.62	10.21	-42.0	-46.7	10.6	3.49e-03	0	58	0	1212153856	54	6594
2026-01-21 23:15:31.13	173.85	9.88	-42.3	-47.3	9.9	8.13e-03	0	58	0	1219493888	55	6721
2026-01-21 23:15:35.17	174.08	9.55	-42.2	-47.4	9.8	1.04e-02	0	58	0	1226833920	55	6742
2026-01-21 23:15:39.21	174.30	9.22	-42.2	-47.5	9.5	8.37e-03	0	58	0	1235222528	55	6847
2026-01-21 23:15:43.25	174.52	8.90	-42.0	-47.4	9.5	1.33e-02	0	58	0	1242562560	55	6727
2026-01-21 23:15:47.28	174.73	8.58	-42.0	-47.6	9.1	2.36e-02	0	58	0	1249902592	55	6908
2026-01-21 23:15:51.32	174.94	8.26	-41.9	-47.7	8.9	2.70e-02	0	58	0	1257242624	55	6974
2026-01-21 23:15:55.36	175.14	7.95	-44.5	-58.6	3.8	7.73e-01	0	58	104	1264582656	59	19467
2026-01-21 23:15:59.40	175.34	7.64	-45.2	-59.8	3.8	1.49e+00	0	58	104	1264582656	60	21236
2026-01-21 23:16:03.44	175.54	7.33	-45.3	-60.0	3.8	1.49e+00	0	58	104	1264582656	61	20336
2026-01-21 23:16:07.48	175.73	7.03	-45.3	-59.9	3.8	1.49e+00	0	58	104	1264582656	61	20186
2026-01-21 23:16:11.52	175.92	6.73	-45.3	-59.8	3.8	1.49e+00	0	58	104	1264582656	61	19985
2026-01-21 23:16:15.56	176.10	6.44	-45.2	-59.8	3.8	1.49e+00	0	58	104	1264582656	61	19988
2026-01-21 23:16:19.61	176.28	6.15	-45.2	-59.8	3.8	1.49e+00	0	58	104	1264582656	61	19959
2026-01-21 23:16:23.65	176.46	5.86	-45.2	-59.8	3.8	1.49e+00	0	58	104	1264582656	61	20027
2026-01-21 23:16:27.69	176.64	5.57	-45.2	-59.8	3.8	1.49e+00	0	58	104	1264582656	61	19924
2026-01-21 23:16:31.73	176.81	5.29	-45.2	-59.8	3.8	1.49e+00	0	58	104	1264582656	61	19949
2026-01-21 23:16:35.77	176.98	5.01	-45.2	-59.8	3.8	1.49e+00	0	58	104	1264582656	61	19930
2026-01-21 23:16:39.81	177.14	4.73	-45.2	-59.8	3.8	1.49e+00	0	58	104	1264582656	61	19951
2026-01-21 23:16:43.85	177.30	4.45	-45.2	-59.8	3.8	1.49e+00	0	58	104	1264582656	61	19949
2026-01-21 23:16:47.90	177.46	4.18	-45.2	-59.7	3.8	1.49e+00	0	58	104	1264582656	61	19835
2026-01-21 23:16:51.94	177.62	3.91	-45.2	-59.7	3.8	1.49e+00	0	58	104	1264582656	61	19798
2026-01-21 23:16:55.98	177.77	3.64	-45.2	-59.8	3.8	1.49e+00	0	58	104	1264582656	61	19872
2026-01-21 23:17:00.02	177.93	3.38	-45.2	-59.7	3.8	1.49e+00	0	58	104	1264582656	61	19823
2026-01-21 23:17:04.07	178.08	3.11	-45.2	-59.7	3.8	1.49e+00	0	58	104	1264582656	61	19793
2026-01-21 23:17:08.11	178.22	2.85	-45.2	-59.8	3.8	1.49e+00	0	58	104	1264582656	61	19878
2026-01-21 23:17:12.15	178.37	2.59	-45.2	-59.7	3.8	1.49e+00	0	58	104	1264582656	61	19835
2026-01-21 23:17:16.19	178.51	2.34	-45.2	-59.8	3.8	1.49e+00	0	58	104	1264582656	61	19844
2026-01-21 23:17:20.23	178.65	2.09	-45.2	-59.7	3.8	1.49e+00	0	58	104	1264582656	61	19779

#Closed at: 2026-01-21 23:17:24
#Recorded file [1264 MB]: D:/lorett/data/31039_260122_020312.dat