passes_logs/2026/01/21/R2.0S_Moscow/R2.0S_Moscow__20260121_011909_AQUA_rec.log

#Pass ID: 20260121_011909_AQUA
#Satellite: AQUA
#Configuration: AQUA
#almurnet v.1.7.20251203
#Start time: 2026-01-21 01:19:12

#Version: 2.2.20231116
#Station: R2.0S_Moscow
#Location: 37.707566 lon 55.798166 lat
#TLE: 1 27424U 02022A   26020.30984080  .00001497  00000+0  30942-3 0  9998
#TLE: 2 27424  98.4092 346.8266 0001984  71.7888  69.0903 14.61835321261661

#Time	Az	El	Level	Level2	SNR	BER	BlckErr	Temp	State	Recorded	gain1	gain2
2026-01-21 01:19:12.00	15.93	2.15	-42.8	-62.6	3.8	7.48e-01	0	51	0	0	57	34745
2026-01-21 01:19:15.02	15.94	2.35	-42.6	-62.5	3.8	7.46e-01	0	52	104	0	55	38511
2026-01-21 01:19:18.05	15.96	2.56	-42.6	-62.5	3.8	7.43e-01	0	52	104	0	55	38528
2026-01-21 01:19:21.08	15.98	2.76	-42.6	-62.5	3.8	7.45e-01	0	52	104	0	55	38477
2026-01-21 01:19:24.12	16.00	2.97	-42.6	-62.5	3.8	7.47e-01	0	52	104	0	55	38431
2026-01-21 01:19:27.15	16.02	3.18	-42.7	-62.5	3.8	7.45e-01	0	52	104	0	55	38443
2026-01-21 01:19:30.17	16.04	3.39	-42.6	-62.5	3.8	7.46e-01	0	53	104	0	55	38431
2026-01-21 01:19:33.21	16.06	3.60	-42.6	-62.5	3.8	7.44e-01	0	53	104	0	55	38534
2026-01-21 01:19:36.24	16.07	3.81	-42.6	-62.5	3.8	7.46e-01	0	53	104	0	55	38469
2026-01-21 01:19:39.27	16.09	4.03	-42.6	-62.5	3.8	7.42e-01	0	53	104	0	55	38392
2026-01-21 01:19:42.30	16.11	4.25	-42.6	-62.5	3.8	7.44e-01	0	53	104	0	55	38425
2026-01-21 01:19:45.33	16.13	4.47	-42.6	-62.5	3.8	7.47e-01	0	53	104	0	55	38417
2026-01-21 01:19:48.36	16.15	4.69	-42.6	-62.5	3.8	7.46e-01	0	53	104	0	55	38296
2026-01-21 01:19:51.39	16.17	4.91	-42.7	-62.5	3.8	7.41e-01	0	53	104	0	55	38364
2026-01-21 01:19:54.43	16.19	5.14	-42.6	-62.5	3.8	7.42e-01	0	54	104	0	55	38454
2026-01-21 01:19:57.45	16.21	5.37	-42.6	-62.5	3.8	7.44e-01	0	54	104	0	55	38356
2026-01-21 01:20:00.49	16.23	5.60	-42.7	-62.5	3.8	7.46e-01	0	54	104	0	55	38401
2026-01-21 01:20:03.52	16.25	5.83	-42.6	-62.5	3.8	7.44e-01	0	54	104	0	55	38467
2026-01-21 01:20:06.55	16.27	6.07	-42.6	-62.4	3.8	7.48e-01	0	54	104	0	55	38241
2026-01-21 01:20:09.58	16.29	6.30	-42.6	-62.4	3.8	7.46e-01	0	54	104	0	55	37986
2026-01-21 01:20:12.61	16.31	6.54	-42.6	-62.4	3.8	7.45e-01	0	54	104	0	55	37899
2026-01-21 01:20:15.64	16.33	6.79	-42.6	-62.3	3.8	7.45e-01	0	54	104	0	55	37423
2026-01-21 01:20:18.68	16.35	7.03	-42.5	-61.8	3.8	7.45e-01	0	54	104	0	55	35382
2026-01-21 01:20:21.71	16.37	7.28	-42.3	-60.3	3.8	7.42e-01	0	55	104	0	55	29882
2026-01-21 01:20:24.74	16.39	7.53	-41.8	-58.3	3.8	7.47e-01	0	55	104	0	55	23584
2026-01-21 01:20:27.77	16.41	7.78	-41.0	-55.9	3.8	7.45e-01	0	55	104	0	54	18996
2026-01-21 01:20:30.80	16.43	8.04	-41.4	-57.2	3.8	7.46e-01	0	55	104	0	54	22035
2026-01-21 01:20:33.83	16.46	8.30	-42.2	-62.0	3.8	7.51e-01	0	55	104	0	56	34334
2026-01-21 01:20:36.86	16.48	8.56	-42.2	-56.4	3.8	7.46e-01	0	55	104	0	56	17911
2026-01-21 01:20:39.89	16.50	8.83	-42.1	-56.0	3.8	7.45e-01	0	55	104	0	56	17136
2026-01-21 01:20:42.92	16.52	9.09	-42.9	-57.4	3.8	7.43e-01	0	55	104	0	57	19062
2026-01-21 01:20:45.95	16.54	9.36	-42.1	-55.7	3.8	7.48e-01	0	55	104	0	56	16688
2026-01-21 01:20:48.97	16.56	9.64	-43.3	-57.8	3.8	7.44e-01	0	55	104	0	58	18927
2026-01-21 01:20:52.00	16.59	9.92	-42.9	-57.5	3.8	7.44e-01	0	56	104	0	56	20343
2026-01-21 01:20:55.03	16.61	10.20	-42.1	-55.6	3.8	7.47e-01	0	56	104	0	56	16373
2026-01-21 01:20:58.05	16.63	10.48	-44.5	-59.7	4.0	7.40e-01	0	55	104	524288	59	22096
2026-01-21 01:21:01.08	16.65	10.77	-42.0	-46.0	16.9	6.04e-01	0	55	0	4718592	56	5430
2026-01-21 01:21:04.11	16.68	11.07	-41.9	-45.7	17.1	6.03e-01	0	56	0	10485760	55	5573
2026-01-21 01:21:07.14	16.70	11.36	-41.9	-45.7	17.2	6.02e-01	0	56	0	16252928	55	5537
2026-01-21 01:21:10.17	16.73	11.66	-41.9	-45.6	17.3	6.03e-01	0	56	0	22020096	55	5501
2026-01-21 01:21:13.20	16.75	11.97	-41.9	-45.6	17.4	6.03e-01	0	56	0	27787264	55	5479
2026-01-21 01:21:16.23	16.77	12.28	-41.9	-45.6	17.4	6.03e-01	0	56	0	33554432	55	5509
2026-01-21 01:21:19.26	16.80	12.59	-41.8	-45.5	17.5	6.03e-01	0	56	0	38797312	55	5445
2026-01-21 01:21:22.29	16.82	12.91	-41.9	-45.6	17.4	6.03e-01	0	56	0	44564480	55	5487
2026-01-21 01:21:25.31	16.85	13.23	-41.9	-45.5	17.6	6.01e-01	0	56	0	50331648	55	5451
2026-01-21 01:21:28.34	16.87	13.56	-41.8	-45.4	17.7	6.04e-01	0	56	0	56098816	55	5398
2026-01-21 01:21:31.37	16.90	13.89	-41.8	-45.3	17.9	6.04e-01	0	56	0	61865984	55	5283
2026-01-21 01:21:34.40	16.92	14.23	-41.7	-45.1	18.1	6.04e-01	0	56	0	67633152	55	5218
2026-01-21 01:21:37.43	16.95	14.58	-41.6	-44.9	18.4	6.05e-01	0	56	0	72876032	55	5055
2026-01-21 01:21:40.46	16.98	14.93	-41.7	-45.0	18.3	6.03e-01	0	56	0	78643200	55	5157
2026-01-21 01:21:43.48	17.00	15.28	-41.6	-44.8	18.5	6.05e-01	0	56	0	84410368	55	5040
2026-01-21 01:21:46.51	17.03	15.64	-41.6	-44.8	18.5	6.03e-01	0	56	0	90177536	55	5029
2026-01-21 01:21:49.54	17.06	16.01	-41.6	-44.9	18.4	6.03e-01	0	56	0	95944704	55	5076
2026-01-21 01:21:52.57	17.09	16.38	-41.6	-44.9	18.5	6.02e-01	0	56	0	101711872	55	5063
2026-01-21 01:21:55.59	17.12	16.76	-41.7	-44.9	18.5	6.03e-01	0	56	0	106954752	55	5056
2026-01-21 01:21:58.62	17.15	17.14	-41.7	-44.9	18.5	6.04e-01	0	56	0	112721920	55	5090
2026-01-21 01:22:01.65	17.18	17.54	-41.6	-44.8	18.7	6.04e-01	0	57	0	118489088	55	5010
2026-01-21 01:22:04.68	17.21	17.93	-41.6	-44.7	18.8	6.04e-01	0	57	0	124256256	55	4946
2026-01-21 01:22:07.71	17.24	18.34	-41.6	-44.7	18.8	6.03e-01	0	57	0	130023424	55	4960
2026-01-21 01:22:10.74	17.27	18.76	-41.7	-44.7	18.8	6.03e-01	0	57	0	135266304	55	4972
2026-01-21 01:22:13.76	17.30	19.18	-41.7	-44.8	18.8	6.02e-01	0	57	0	141033472	55	5012
2026-01-21 01:22:16.79	17.33	19.61	-41.8	-44.9	18.7	6.02e-01	0	57	0	146800640	55	5092
2026-01-21 01:22:19.82	17.36	20.05	-41.9	-45.0	18.6	6.06e-01	0	57	0	152567808	55	5144
2026-01-21 01:22:22.85	17.40	20.49	-41.8	-44.9	18.7	6.02e-01	0	57	0	158334976	55	5071
2026-01-21 01:22:25.88	17.43	20.95	-41.9	-45.0	18.7	6.03e-01	0	57	0	164102144	55	5148
2026-01-21 01:22:28.91	17.47	21.42	-41.8	-45.0	18.8	6.03e-01	0	57	0	169869312	55	5108
2026-01-21 01:22:31.94	17.50	21.89	-41.9	-45.0	18.7	6.05e-01	0	57	0	175112192	55	5156
2026-01-21 01:22:34.97	17.54	22.38	-41.9	-44.9	18.8	6.04e-01	0	57	0	180879360	55	5099
2026-01-21 01:22:37.99	17.58	22.87	-41.9	-45.0	18.8	6.04e-01	0	57	0	186646528	55	5108
2026-01-21 01:22:41.02	17.61	23.38	-41.9	-45.0	18.8	6.03e-01	0	57	0	192413696	55	5102
2026-01-21 01:22:44.05	17.65	23.89	-42.1	-45.3	18.5	6.02e-01	0	57	0	198180864	55	5283
2026-01-21 01:22:47.08	17.69	24.42	-42.1	-45.3	18.4	6.04e-01	0	57	0	203423744	55	5335
2026-01-21 01:22:50.11	17.73	24.96	-42.2	-45.4	18.4	6.02e-01	0	57	0	209190912	55	5390
2026-01-21 01:22:53.14	17.78	25.51	-42.2	-45.4	18.4	6.03e-01	0	57	0	214958080	55	5354
2026-01-21 01:22:56.17	17.82	26.08	-42.0	-45.1	18.7	6.04e-01	0	57	0	220725248	55	5170
2026-01-21 01:22:59.20	17.86	26.66	-41.9	-45.0	18.9	6.00e-01	0	57	0	226492416	55	5101
2026-01-21 01:23:02.20	17.91	27.24	-41.7	-44.6	19.2	6.02e-01	0	57	0	232259584	55	4898
2026-01-21 01:23:05.23	17.96	27.85	-41.6	-44.5	19.4	6.02e-01	0	57	0	237502464	55	4825
2026-01-21 01:23:08.26	18.01	28.47	-41.7	-44.7	19.2	6.04e-01	0	57	0	243269632	55	4937
2026-01-21 01:23:11.29	18.06	29.11	-41.9	-44.8	19.1	6.03e-01	0	57	0	249036800	55	5038
2026-01-21 01:23:14.32	18.11	29.76	-41.7	-44.5	19.4	6.02e-01	0	57	0	254803968	55	4862
2026-01-21 01:23:17.35	18.16	30.43	-41.7	-44.6	19.4	6.03e-01	0	57	0	260571136	55	4874
2026-01-21 01:23:20.38	18.22	31.11	-41.6	-44.4	19.5	6.04e-01	0	58	0	266338304	55	4774
2026-01-21 01:23:23.41	18.27	31.82	-41.7	-44.6	19.4	6.03e-01	0	57	0	271581184	55	4891
2026-01-21 01:23:26.44	18.33	32.54	-41.8	-44.7	19.2	6.03e-01	0	57	0	277348352	55	4979
2026-01-21 01:23:29.46	18.39	33.28	-42.1	-45.1	18.8	6.03e-01	0	57	0	283115520	55	5204
2026-01-21 01:23:32.49	18.46	34.04	-42.1	-45.2	18.8	6.05e-01	0	57	0	288882688	55	5265
2026-01-21 01:23:35.52	18.53	34.82	-42.3	-45.4	18.6	6.01e-01	0	58	0	294649856	55	5397
2026-01-21 01:23:38.55	18.59	35.62	-42.5	-45.9	18.0	6.02e-01	0	58	0	300417024	55	5722
2026-01-21 01:23:41.58	18.67	36.45	-43.0	-46.6	17.5	6.03e-01	0	57	0	305659904	56	5838
2026-01-21 01:23:44.61	18.74	37.30	-43.1	-46.8	17.3	6.04e-01	0	58	0	311427072	56	5985
2026-01-21 01:23:47.63	18.82	38.16	-43.5	-47.7	16.5	6.03e-01	0	57	0	317194240	57	6211
2026-01-21 01:23:50.66	18.91	39.06	-43.4	-47.3	16.8	6.03e-01	0	57	0	322961408	57	5948
2026-01-21 01:23:53.69	18.99	39.98	-43.5	-47.6	16.5	6.05e-01	0	58	0	328728576	57	6174
2026-01-21 01:23:56.72	19.09	40.93	-43.3	-47.1	17.0	6.03e-01	0	57	0	334495744	57	5829
2026-01-21 01:23:59.74	19.18	41.90	-42.9	-46.4	17.7	6.04e-01	0	57	0	339738624	57	5379
2026-01-21 01:24:02.77	19.29	42.90	-42.8	-46.2	18.0	6.00e-01	0	57	0	345505792	57	5233
2026-01-21 01:24:05.80	19.39	43.93	-42.4	-45.6	18.6	6.05e-01	0	58	0	351272960	56	5182
2026-01-21 01:24:08.83	19.51	44.99	-42.1	-45.1	19.1	6.05e-01	0	58	0	357040128	56	4903
2026-01-21 01:24:11.86	19.63	46.09	-42.2	-45.1	19.1	6.03e-01	0	57	0	362807296	56	4919
2026-01-21 01:24:14.89	19.76	47.21	-42.4	-45.6	18.6	6.04e-01	0	57	0	368050176	56	5183
2026-01-21 01:24:17.92	19.91	48.36	-42.1	-45.0	19.2	6.03e-01	0	57	0	373817344	56	4844
2026-01-21 01:24:20.95	20.06	49.55	-42.2	-45.2	19.1	6.02e-01	0	57	0	379584512	56	4934
2026-01-21 01:24:23.97	20.22	50.77	-41.8	-44.7	19.4	6.04e-01	0	57	0	385351680	55	4951
2026-01-21 01:24:27.00	20.39	52.02	-41.7	-44.5	19.6	6.05e-01	0	58	0	391118848	55	4850
2026-01-21 01:24:30.03	20.58	53.31	-41.6	-44.3	19.8	6.00e-01	0	58	0	396886016	55	4710
2026-01-21 01:24:33.06	20.79	54.64	-41.7	-44.5	19.6	6.02e-01	0	58	0	402653184	54	5143
2026-01-21 01:24:36.09	21.02	56.00	-41.8	-44.6	19.5	6.02e-01	0	58	0	407896064	54	5207
2026-01-21 01:24:39.12	21.27	57.40	-42.2	-45.3	18.8	6.04e-01	0	58	0	413663232	55	5308
2026-01-21 01:24:42.15	21.54	58.83	-42.6	-46.0	18.1	6.04e-01	0	58	0	419430400	55	5752
2026-01-21 01:24:45.17	21.85	60.29	-43.0	-46.5	17.8	6.02e-01	0	58	0	425197568	56	5739
2026-01-21 01:24:48.20	22.19	61.80	-43.3	-47.1	17.1	6.04e-01	0	58	0	430964736	57	5852
2026-01-21 01:24:51.23	22.58	63.34	-43.7	-47.8	16.4	6.03e-01	0	58	0	436207616	58	5962
2026-01-21 01:24:54.26	23.02	64.91	-44.3	-49.2	15.0	6.04e-01	0	58	0	441974784	59	6628
2026-01-21 01:24:57.28	23.53	66.51	-44.5	-50.1	13.6	6.06e-01	0	58	0	447741952	60	6950
2026-01-21 01:25:00.32	24.12	68.15	-44.8	-51.2	12.6	6.09e-01	0	58	0	453509120	60	7818
2026-01-21 01:25:03.34	24.81	69.82	-44.5	-50.1	13.7	6.05e-01	0	58	0	459276288	60	6900
2026-01-21 01:25:06.36	25.63	71.51	-44.4	-49.9	13.8	6.05e-01	0	58	0	465043456	60	6791
2026-01-21 01:25:09.39	26.64	73.23	-44.1	-49.1	14.6	6.03e-01	0	58	0	470286336	60	6174
2026-01-21 01:25:12.42	27.88	74.97	-44.3	-49.3	14.8	6.06e-01	0	58	0	476053504	59	6694
2026-01-21 01:25:15.45	29.46	76.72	-43.9	-48.3	15.8	6.02e-01	0	58	0	481820672	59	5948
2026-01-21 01:25:18.47	31.54	78.48	-43.5	-47.5	16.6	6.02e-01	0	58	0	487587840	58	5775
2026-01-21 01:25:21.50	34.39	80.25	-43.0	-46.7	17.5	6.01e-01	0	58	0	493355008	58	5239
2026-01-21 01:25:24.53	38.51	81.99	-42.5	-45.7	18.5	6.04e-01	0	58	0	499122176	56	5248
2026-01-21 01:25:27.56	44.92	83.69	-42.4	-45.6	18.5	6.03e-01	0	58	0	504365056	56	5189
2026-01-21 01:25:30.59	55.81	85.26	-42.7	-46.1	18.0	6.04e-01	0	58	0	510132224	56	5474
2026-01-21 01:25:33.61	75.76	86.51	-42.4	-45.6	18.5	6.03e-01	0	58	0	515899392	56	5194
2026-01-21 01:25:36.64	108.57	87.00	-42.4	-45.7	18.4	6.03e-01	0	58	0	521666560	56	5220
2026-01-21 01:25:39.67	140.31	86.40	-42.4	-45.6	18.4	6.05e-01	0	58	0	527433728	56	5172
2026-01-21 01:25:42.70	159.07	85.10	-42.5	-45.8	18.3	6.04e-01	0	58	0	533200896	56	5301
2026-01-21 01:25:45.73	169.32	83.51	-43.0	-46.6	17.4	6.01e-01	0	58	0	538443776	56	5855
2026-01-21 01:25:48.76	175.40	81.80	-42.8	-46.3	17.7	6.02e-01	0	58	0	544210944	56	5612
2026-01-21 01:25:51.79	179.36	80.05	-42.8	-46.2	17.8	6.02e-01	0	58	0	549978112	56	5577
2026-01-21 01:25:54.82	182.11	78.29	-43.5	-47.7	16.4	6.03e-01	0	58	0	555745280	57	6246
2026-01-21 01:25:57.84	184.12	76.52	-43.9	-48.3	15.5	6.03e-01	0	58	0	561512448	58	6339
2026-01-21 01:26:00.87	185.66	74.77	-43.9	-48.5	15.6	6.04e-01	0	58	0	567279616	59	6076
2026-01-21 01:26:03.90	186.87	73.03	-43.8	-48.3	15.8	6.03e-01	0	58	0	572522496	59	5926
2026-01-21 01:26:06.93	187.85	71.30	-44.3	-49.4	14.7	6.02e-01	0	58	0	578289664	59	6727
2026-01-21 01:26:09.95	188.66	69.61	-44.6	-50.6	13.0	6.05e-01	0	58	0	584056832	60	7308
2026-01-21 01:26:12.98	189.34	67.95	-44.4	-50.2	13.5	6.06e-01	0	58	0	589824000	60	6969
2026-01-21 01:26:16.01	189.92	66.31	-44.0	-48.8	14.8	6.04e-01	0	58	0	595591168	60	5983
2026-01-21 01:26:19.03	190.41	64.71	-44.3	-49.2	14.8	6.05e-01	0	58	0	600834048	59	6621
2026-01-21 01:26:22.06	190.85	63.13	-43.5	-47.6	16.5	6.03e-01	0	58	0	606601216	59	5473
2026-01-21 01:26:25.09	191.23	61.59	-43.5	-47.6	16.5	6.04e-01	0	58	0	612368384	59	5474
2026-01-21 01:26:28.12	191.57	60.09	-43.5	-47.6	16.5	6.03e-01	0	57	0	618135552	58	5802
2026-01-21 01:26:31.15	191.87	58.62	-43.0	-46.6	17.5	6.03e-01	0	58	0	623902720	58	5215
2026-01-21 01:26:34.18	192.15	57.19	-42.8	-46.3	17.8	6.05e-01	0	58	0	629669888	57	5298
2026-01-21 01:26:37.21	192.39	55.79	-42.1	-45.1	18.9	6.04e-01	0	58	0	635437056	56	4921
2026-01-21 01:26:40.24	192.62	54.43	-41.7	-44.5	19.5	6.03e-01	0	58	0	640679936	55	4854
2026-01-21 01:26:43.27	192.82	53.10	-41.2	-43.8	20.2	6.05e-01	0	58	0	646447104	54	4732
2026-01-21 01:26:46.30	193.01	51.81	-41.5	-44.3	19.7	6.02e-01	0	58	0	652214272	54	4999
2026-01-21 01:26:49.33	193.18	50.56	-42.1	-45.1	18.9	6.03e-01	0	58	0	657981440	54	5491
2026-01-21 01:26:52.36	193.34	49.34	-42.2	-45.3	18.7	6.05e-01	0	58	0	663748608	54	5620
2026-01-21 01:26:55.39	193.49	48.15	-42.1	-45.1	18.8	6.01e-01	0	58	0	668991488	55	5209
2026-01-21 01:26:58.42	193.63	46.99	-42.2	-45.3	18.6	6.03e-01	0	58	0	674758656	55	5306
2026-01-21 01:27:01.44	193.76	45.87	-42.2	-45.4	18.5	6.03e-01	0	58	0	680525824	55	5379
2026-01-21 01:27:04.47	193.88	44.78	-42.2	-45.4	18.6	6.05e-01	0	58	0	686292992	55	5347
2026-01-21 01:27:07.50	194.00	43.72	-42.2	-45.3	18.6	6.05e-01	0	58	0	692060160	55	5310
2026-01-21 01:27:10.52	194.10	42.69	-42.2	-45.3	18.7	6.03e-01	0	58	0	697827328	55	5281
2026-01-21 01:27:13.55	194.20	41.69	-42.6	-46.1	17.8	6.05e-01	0	58	0	703594496	55	5808
2026-01-21 01:27:16.58	194.30	40.72	-43.1	-46.8	17.3	6.03e-01	0	58	0	708837376	56	5935
2026-01-21 01:27:19.61	194.39	39.77	-42.9	-46.5	17.5	6.06e-01	0	58	0	714604544	56	5762
2026-01-21 01:27:22.64	194.48	38.85	-43.0	-46.5	17.5	6.03e-01	0	58	0	720371712	56	5781
2026-01-21 01:27:25.67	194.56	37.95	-43.1	-46.9	17.1	6.02e-01	0	58	0	726138880	56	6004
2026-01-21 01:27:28.69	194.64	37.08	-43.0	-46.7	17.3	6.02e-01	0	58	0	731906048	56	5895
2026-01-21 01:27:31.72	194.71	36.24	-42.5	-45.8	18.1	6.05e-01	0	58	0	737148928	56	5326
2026-01-21 01:27:34.75	194.78	35.41	-42.4	-45.7	18.3	6.03e-01	0	58	0	742916096	56	5225
2026-01-21 01:27:37.77	194.85	34.61	-42.4	-45.7	18.3	6.03e-01	0	58	0	748683264	56	5233
2026-01-21 01:27:40.80	194.92	33.83	-42.0	-45.1	18.9	6.05e-01	0	58	0	754450432	56	4880
2026-01-21 01:27:43.83	194.98	33.07	-41.8	-44.8	19.0	6.01e-01	0	58	0	760217600	55	4995
2026-01-21 01:27:46.85	195.04	32.33	-41.5	-44.3	19.5	6.02e-01	0	58	0	765984768	55	4728
2026-01-21 01:27:49.88	195.10	31.61	-41.4	-44.1	19.8	6.01e-01	0	58	0	771227648	54	4885
2026-01-21 01:27:52.91	195.15	30.90	-41.4	-44.2	19.6	6.01e-01	0	58	0	776994816	54	4948
2026-01-21 01:27:55.94	195.21	30.22	-41.4	-44.3	19.6	6.04e-01	0	58	0	782761984	54	4987
2026-01-21 01:27:58.97	195.26	29.55	-41.4	-44.2	19.5	6.05e-01	0	58	0	788529152	54	4974
2026-01-21 01:28:02.00	195.31	28.90	-41.4	-44.1	19.6	6.06e-01	0	58	0	794296320	54	4911
2026-01-21 01:28:05.03	195.36	28.26	-41.2	-43.9	19.8	6.01e-01	0	58	0	799539200	54	4790
2026-01-21 01:28:08.06	195.40	27.64	-41.2	-43.8	19.9	6.03e-01	0	58	0	805306368	54	4749
2026-01-21 01:28:11.08	195.45	27.03	-41.4	-44.2	19.6	6.05e-01	0	58	0	811073536	54	4961
2026-01-21 01:28:14.11	195.49	26.44	-41.7	-44.6	19.2	6.04e-01	0	58	0	816840704	54	5176
2026-01-21 01:28:17.14	195.54	25.86	-41.8	-44.9	18.9	6.05e-01	0	58	0	822607872	54	5343
2026-01-21 01:28:20.17	195.58	25.30	-41.8	-44.9	18.9	6.02e-01	0	58	0	828375040	54	5343
2026-01-21 01:28:23.20	195.62	24.74	-42.0	-45.1	18.6	6.03e-01	0	58	0	834142208	54	5512
2026-01-21 01:28:26.23	195.66	24.20	-42.1	-45.3	18.4	6.01e-01	0	58	0	839385088	54	5636
2026-01-21 01:28:29.25	195.70	23.68	-42.1	-45.3	18.4	6.05e-01	0	58	0	845152256	54	5642
2026-01-21 01:28:32.28	195.73	23.16	-42.1	-45.3	18.4	6.04e-01	0	58	0	850919424	54	5613
2026-01-21 01:28:35.31	195.77	22.65	-42.0	-45.2	18.4	6.04e-01	0	58	0	856686592	54	5592
2026-01-21 01:28:38.34	195.80	22.16	-42.0	-45.1	18.5	6.03e-01	0	58	0	862453760	54	5525
2026-01-21 01:28:41.37	195.84	21.67	-42.0	-45.1	18.6	6.04e-01	0	58	0	867696640	54	5484
2026-01-21 01:28:44.40	195.87	21.20	-41.9	-45.0	18.6	6.04e-01	0	58	0	873463808	54	5453
2026-01-21 01:28:47.42	195.91	20.73	-41.9	-45.0	18.6	6.02e-01	0	58	0	879230976	54	5464
2026-01-21 01:28:50.45	195.94	20.28	-42.0	-45.2	18.5	6.04e-01	0	58	0	884998144	54	5539
2026-01-21 01:28:53.48	195.97	19.83	-42.0	-45.2	18.4	6.03e-01	0	58	0	890765312	54	5573
2026-01-21 01:28:56.51	196.00	19.39	-41.9	-45.1	18.5	6.02e-01	0	58	0	896532480	54	5523
2026-01-21 01:28:59.54	196.03	18.96	-42.0	-45.2	18.5	6.04e-01	0	58	0	901775360	54	5530
2026-01-21 01:29:02.57	196.06	18.54	-41.9	-45.1	18.5	6.02e-01	0	58	0	907542528	54	5516
2026-01-21 01:29:05.59	196.09	18.12	-41.9	-45.1	18.5	6.01e-01	0	58	0	913309696	54	5522
2026-01-21 01:29:08.62	196.12	17.72	-41.9	-45.0	18.6	6.02e-01	0	58	0	919076864	54	5452
2026-01-21 01:29:11.65	196.15	17.32	-41.9	-45.2	18.4	6.02e-01	0	58	0	924844032	54	5542
2026-01-21 01:29:14.68	196.17	16.92	-41.9	-45.1	18.5	6.04e-01	0	58	0	930611200	54	5505
2026-01-21 01:29:17.71	196.20	16.54	-42.0	-45.3	18.4	6.02e-01	0	58	0	935854080	54	5597
2026-01-21 01:29:20.74	196.23	16.16	-42.0	-45.3	18.3	6.03e-01	0	58	0	941621248	54	5607
2026-01-21 01:29:23.76	196.25	15.79	-41.9	-45.1	18.4	6.05e-01	0	58	0	947388416	54	5525
2026-01-21 01:29:26.79	196.28	15.42	-41.8	-45.0	18.5	6.03e-01	0	58	0	953155584	54	5421
2026-01-21 01:29:29.82	196.30	15.06	-41.9	-45.1	18.4	6.03e-01	0	58	0	958922752	54	5476
2026-01-21 01:29:32.85	196.33	14.71	-41.7	-44.9	18.6	6.05e-01	0	58	0	964689920	54	5356
2026-01-21 01:29:35.88	196.35	14.36	-41.7	-44.8	18.7	6.03e-01	0	58	0	969932800	54	5297
2026-01-21 01:29:38.91	196.38	14.01	-41.6	-44.7	18.7	6.04e-01	0	58	0	975699968	54	5270
2026-01-21 01:29:41.94	196.40	13.67	-41.7	-44.8	18.3	6.02e-01	0	58	0	981467136	54	5333
2026-01-21 01:29:44.97	196.42	13.34	-41.6	-44.7	18.7	6.06e-01	0	58	0	987234304	54	5233
2026-01-21 01:29:48.00	196.45	13.01	-41.7	-44.8	18.5	6.05e-01	0	58	0	993001472	54	5339
2026-01-21 01:29:51.03	196.47	12.69	-41.6	-44.8	18.6	6.05e-01	0	58	0	998768640	54	5294
2026-01-21 01:29:54.06	196.49	12.37	-41.6	-44.8	18.6	6.01e-01	0	58	0	1004011520	54	5282
2026-01-21 01:29:57.08	196.51	12.06	-41.7	-44.9	18.4	6.04e-01	0	58	0	1009778688	54	5375
2026-01-21 01:30:00.12	196.53	11.75	-41.7	-45.0	18.3	6.02e-01	0	58	0	1015545856	54	5442
2026-01-21 01:30:03.14	196.56	11.44	-41.8	-45.1	18.2	6.04e-01	0	58	0	1021313024	54	5510
2026-01-21 01:30:06.17	196.58	11.14	-41.9	-45.3	18.0	6.04e-01	0	58	0	1027080192	54	5624
2026-01-21 01:30:09.20	196.60	10.84	-41.9	-45.4	17.8	6.05e-01	0	58	0	1032847360	54	5691
2026-01-21 01:30:12.23	196.62	10.55	-42.0	-45.5	17.7	6.03e-01	0	58	0	1038090240	54	5769
2026-01-21 01:30:15.26	196.64	10.26	-41.9	-45.4	17.7	6.05e-01	0	58	0	1043857408	54	5715
2026-01-21 01:30:18.28	196.66	9.98	-42.0	-45.5	17.6	6.03e-01	0	58	0	1049624576	54	5761
2026-01-21 01:30:21.31	196.68	9.70	-42.1	-45.7	17.4	6.05e-01	0	58	0	1055391744	54	5902
2026-01-21 01:30:24.34	196.70	9.42	-42.1	-45.8	17.3	6.03e-01	0	58	0	1061158912	54	5929
2026-01-21 01:30:27.37	196.72	9.14	-42.1	-45.9	17.1	6.04e-01	0	58	0	1066926080	54	6009
2026-01-21 01:30:30.40	196.74	8.87	-42.1	-46.0	17.0	6.01e-01	0	58	0	1072168960	54	6062
2026-01-21 01:30:33.43	196.75	8.60	-42.1	-46.0	16.9	6.04e-01	0	58	0	1077936128	54	6128
2026-01-21 01:30:36.46	196.77	8.34	-42.2	-46.2	16.7	6.04e-01	0	58	0	1083703296	54	6233
2026-01-21 01:30:39.49	196.79	8.07	-42.2	-46.2	16.5	6.03e-01	0	58	0	1089470464	54	6271
2026-01-21 01:30:42.52	196.81	7.81	-45.9	-64.4	3.8	7.44e-01	0	58	104	1092091904	62	31906
2026-01-21 01:30:45.55	196.83	7.56	-46.3	-64.9	3.8	7.45e-01	0	58	104	1092091904	63	31911
2026-01-21 01:30:48.58	196.85	7.31	-46.4	-64.9	3.8	7.43e-01	0	58	104	1092091904	63	32088
2026-01-21 01:30:51.61	196.86	7.05	-46.3	-64.9	3.8	7.46e-01	0	58	104	1092091904	63	31945
2026-01-21 01:30:54.64	196.88	6.81	-46.3	-64.9	3.8	7.47e-01	0	58	104	1092091904	63	31896
2026-01-21 01:30:57.67	196.90	6.56	-46.3	-64.8	3.8	7.44e-01	0	58	104	1092091904	63	31702
2026-01-21 01:31:00.70	196.92	6.32	-46.3	-64.8	3.8	7.42e-01	0	58	104	1092091904	63	31729
2026-01-21 01:31:03.73	196.93	6.08	-46.3	-64.8	3.8	7.45e-01	0	58	104	1092091904	63	31613
2026-01-21 01:31:06.77	196.95	5.84	-46.3	-64.8	3.8	7.43e-01	0	58	104	1092091904	63	31550
2026-01-21 01:31:09.80	196.97	5.61	-46.3	-64.8	3.8	7.43e-01	0	58	104	1092091904	63	31516
2026-01-21 01:31:12.83	196.98	5.37	-46.2	-64.8	3.8	7.46e-01	0	58	104	1092091904	63	31476
2026-01-21 01:31:15.86	197.00	5.14	-46.2	-64.8	3.8	7.43e-01	0	58	104	1092091904	63	31589
2026-01-21 01:31:18.89	197.01	4.91	-46.2	-64.8	3.8	7.48e-01	0	58	104	1092091904	63	31476
2026-01-21 01:31:21.92	197.03	4.69	-46.2	-64.8	3.8	7.46e-01	0	58	104	1092091904	63	31461
2026-01-21 01:31:24.95	197.05	4.46	-46.2	-64.8	3.8	7.44e-01	0	58	104	1092091904	63	31465
2026-01-21 01:31:27.98	197.06	4.24	-46.2	-64.7	3.8	7.46e-01	0	59	104	1092091904	63	31430
2026-01-21 01:31:31.01	197.08	4.02	-46.2	-64.8	3.8	7.47e-01	0	58	104	1092091904	63	31467
2026-01-21 01:31:34.05	197.09	3.80	-46.2	-64.7	3.8	7.45e-01	0	58	104	1092091904	63	31392
2026-01-21 01:31:37.08	197.11	3.59	-46.2	-64.8	3.8	7.45e-01	0	59	104	1092091904	63	31483
2026-01-21 01:31:40.11	197.12	3.37	-46.2	-64.7	3.8	7.46e-01	0	58	104	1092091904	63	31423
2026-01-21 01:31:43.14	197.14	3.16	-46.2	-64.8	3.8	7.47e-01	0	58	104	1092091904	63	31466
2026-01-21 01:31:46.17	197.16	2.95	-46.2	-64.7	3.8	7.44e-01	0	58	104	1092091904	63	31433
2026-01-21 01:31:49.20	197.17	2.74	-46.2	-64.7	3.8	7.42e-01	0	58	104	1092091904	63	31424
2026-01-21 01:31:52.23	197.19	2.53	-46.2	-64.7	3.8	7.45e-01	0	58	104	1092091904	63	31400
2026-01-21 01:31:55.26	197.20	2.33	-46.2	-64.7	3.8	7.45e-01	0	58	104	1092091904	63	31393
2026-01-21 01:31:58.29	197.21	2.12	-46.2	-64.7	3.8	7.46e-01	0	58	104	1092091904	63	31323

#Closed at: 2026-01-21 01:32:00
#Recorded file [1092 MB]: D:/lorett/data/31039_260121_041911.dat