passes_logs/2026/01/21/R2.0S_Moscow/R2.0S_Moscow__20260121_111422_NOAA_20_JPSS-1_rec.log

#Pass ID: 20260121_111422_NOAA 20 (JPSS-1)
#Satellite: NOAA 20 (JPSS-1)
#Configuration: NOAA 20
#almurnet v.1.7.20251203
#Start time: 2026-01-21 11:14:22

#Version: 2.2.20231116
#Station: R2.0S_Moscow
#Location: 37.707566 lon 55.798166 lat
#TLE: 1 43013U 17073A   26020.26397077  .00000127  00000+0  80954-4 0  9999
#TLE: 2 43013  98.7643 321.1479 0001288  31.3158 328.8095 14.19537595423482

#Time	Az	El	Level	Level2	SNR	BER	BlckErr	Temp	State	Recorded	gain1	gain2
2026-01-21 11:14:22.23	200.14	1.98	-44.0	-58.5	3.8	1.49e+00	0	52	0	0	59	19180
2026-01-21 11:14:26.27	200.39	2.21	-44.0	-58.4	3.8	1.49e+00	0	52	104	0	59	19141
2026-01-21 11:14:30.31	200.64	2.44	-44.0	-58.4	3.8	1.49e+00	0	53	104	0	59	19140
2026-01-21 11:14:34.35	200.90	2.68	-44.0	-58.4	3.8	1.49e+00	0	53	104	0	59	19141
2026-01-21 11:14:38.40	201.16	2.92	-44.0	-58.4	3.8	1.49e+00	0	53	104	0	59	19140
2026-01-21 11:14:42.44	201.43	3.16	-44.0	-58.4	3.8	1.49e+00	0	54	104	0	59	19059
2026-01-21 11:14:46.48	201.70	3.40	-44.0	-58.4	3.8	1.49e+00	0	54	104	0	59	19106
2026-01-21 11:14:50.52	201.98	3.64	-44.0	-58.4	3.8	1.49e+00	0	54	104	0	59	19084
2026-01-21 11:14:54.56	202.25	3.89	-44.0	-58.4	3.8	1.49e+00	0	54	104	0	59	19124
2026-01-21 11:14:58.60	202.54	4.13	-44.0	-58.4	3.8	1.49e+00	0	55	104	0	59	19102
2026-01-21 11:15:02.64	202.83	4.38	-44.0	-58.4	3.8	1.49e+00	0	55	104	0	59	19085
2026-01-21 11:15:06.68	203.12	4.63	-44.0	-58.4	3.8	1.49e+00	0	55	104	0	59	19147
2026-01-21 11:15:10.73	203.42	4.88	-44.0	-58.4	3.8	1.49e+00	0	55	104	0	59	19136
2026-01-21 11:15:14.77	203.72	5.13	-44.0	-58.4	3.8	1.49e+00	0	56	104	0	59	19150
2026-01-21 11:15:18.81	204.03	5.39	-44.0	-58.4	3.8	1.49e+00	0	56	104	0	59	18967
2026-01-21 11:15:22.85	204.34	5.64	-44.0	-58.1	3.8	1.49e+00	0	56	104	0	59	18365
2026-01-21 11:15:26.89	204.66	5.90	-43.9	-57.3	3.8	1.49e+00	0	56	104	0	59	16800
2026-01-21 11:15:30.93	204.99	6.16	-43.8	-55.8	4.0	1.48e+00	0	56	104	0	59	14067
2026-01-21 11:15:34.97	205.32	6.42	-43.6	-53.8	4.5	1.04e+00	3	56	0	1048576	59	11270
2026-01-21 11:15:39.02	205.65	6.69	-43.6	-53.2	4.8	8.06e-01	0	56	0	8388608	59	10488
2026-01-21 11:15:43.06	205.99	6.95	-43.6	-53.7	4.6	9.30e-01	0	57	0	16777216	59	11081
2026-01-21 11:15:47.09	206.34	7.22	-43.5	-52.9	5.0	8.37e-01	0	57	0	24117248	59	10153
2026-01-21 11:15:51.13	206.70	7.49	-43.0	-49.9	7.2	1.69e-01	0	57	0	31457280	58	7549
2026-01-21 11:15:55.17	207.06	7.76	-42.4	-47.9	9.2	2.20e-02	0	57	0	38797312	56	6772
2026-01-21 11:15:59.21	207.42	8.04	-42.4	-47.9	9.2	1.59e-02	0	57	0	47185920	56	6756
2026-01-21 11:16:03.25	207.80	8.31	-43.0	-49.5	7.7	1.98e-01	0	57	0	51380224	57	7643
2026-01-21 11:16:07.29	208.18	8.59	-42.5	-48.0	9.2	2.27e-02	0	57	0	58720256	57	6478
2026-01-21 11:16:11.32	208.56	8.87	-42.3	-47.3	10.0	9.89e-03	0	58	0	66060288	56	6344
2026-01-21 11:16:15.36	208.96	9.15	-42.2	-47.0	10.5	5.88e-03	0	58	0	73400320	56	6070
2026-01-21 11:16:19.40	209.36	9.43	-42.2	-47.0	10.5	4.33e-03	0	58	0	81788928	56	6108
2026-01-21 11:16:23.44	209.77	9.72	-42.2	-46.9	10.6	4.44e-03	0	58	0	89128960	56	6056
2026-01-21 11:16:27.48	210.19	10.00	-42.3	-46.9	10.6	3.28e-03	0	58	0	96468992	56	6056
2026-01-21 11:16:31.51	210.61	10.29	-42.3	-46.9	10.7	2.47e-03	0	58	0	103809024	56	6032
2026-01-21 11:16:35.55	211.04	10.59	-42.3	-46.9	10.8	2.13e-03	0	58	0	111149056	56	6017
2026-01-21 11:16:39.59	211.49	10.88	-42.1	-46.5	11.3	1.08e-03	0	58	0	119537664	56	5729
2026-01-21 11:16:43.63	211.94	11.17	-42.1	-46.4	11.4	1.20e-03	0	58	0	126877696	56	5691
2026-01-21 11:16:47.67	212.40	11.47	-42.2	-46.6	11.2	1.47e-03	0	58	0	134217728	56	5815
2026-01-21 11:16:51.71	212.86	11.77	-42.2	-46.7	11.1	1.75e-03	0	59	0	141557760	56	5875
2026-01-21 11:16:55.75	213.34	12.07	-42.3	-46.7	11.1	1.48e-03	0	58	0	149946368	56	5880
2026-01-21 11:16:59.78	213.83	12.38	-42.2	-46.5	11.3	1.27e-03	0	59	0	157286400	56	5786
2026-01-21 11:17:03.82	214.33	12.68	-42.1	-46.4	11.3	1.27e-03	0	59	0	164626432	55	6023
2026-01-21 11:17:07.86	214.83	12.99	-42.1	-46.3	11.4	9.47e-04	0	59	0	171966464	55	5977
2026-01-21 11:17:11.89	215.35	13.30	-42.1	-46.3	11.4	9.27e-04	0	59	0	179306496	55	5990
2026-01-21 11:17:15.93	215.88	13.61	-42.0	-46.1	11.7	6.23e-04	0	59	0	187695104	55	5807
2026-01-21 11:17:19.97	216.42	13.92	-42.1	-46.2	11.6	7.03e-04	0	59	0	195035136	55	5923
2026-01-21 11:17:24.01	216.97	14.23	-42.2	-46.6	11.3	1.14e-03	0	59	0	202375168	55	6152
2026-01-21 11:17:28.04	217.53	14.55	-42.3	-46.6	11.2	1.39e-03	0	59	0	209715200	55	6190
2026-01-21 11:17:32.08	218.10	14.87	-42.2	-46.4	11.5	9.25e-04	0	59	0	218103808	55	5997
2026-01-21 11:17:36.12	218.69	15.19	-42.2	-46.4	11.5	8.83e-04	0	59	0	225443840	55	6014
2026-01-21 11:17:40.16	219.29	15.51	-42.2	-46.3	11.6	9.39e-04	0	59	0	232783872	55	5970
2026-01-21 11:17:44.20	219.90	15.83	-42.1	-46.3	11.7	6.15e-04	0	59	0	240123904	55	5935
2026-01-21 11:17:48.24	220.52	16.15	-42.0	-46.0	12.0	3.55e-04	0	59	0	247463936	55	5775
2026-01-21 11:17:52.27	221.16	16.47	-42.0	-46.0	12.0	3.09e-04	0	59	0	255852544	55	5732
2026-01-21 11:17:56.31	221.81	16.80	-41.9	-45.8	12.2	2.56e-04	0	59	0	263192576	55	5630
2026-01-21 11:18:00.35	222.47	17.12	-41.8	-45.8	12.1	2.01e-04	0	60	0	270532608	55	5646
2026-01-21 11:18:04.39	223.15	17.45	-41.7	-45.6	12.4	1.42e-04	0	59	0	277872640	55	5499
2026-01-21 11:18:08.43	223.84	17.78	-41.7	-45.6	12.4	1.62e-04	0	60	0	285212672	55	5489
2026-01-21 11:18:12.46	224.55	18.10	-41.7	-45.5	12.5	8.69e-05	0	60	0	293601280	55	5441
2026-01-21 11:18:16.50	225.27	18.43	-41.6	-45.4	12.7	8.23e-05	0	60	0	300941312	55	5379
2026-01-21 11:18:20.54	226.01	18.75	-41.7	-45.3	12.8	6.56e-05	0	60	0	308281344	55	5311
2026-01-21 11:18:24.57	226.76	19.08	-41.6	-45.2	12.9	5.64e-05	0	60	0	315621376	54	5530
2026-01-21 11:18:28.61	227.53	19.40	-41.6	-45.1	13.1	4.19e-05	0	60	0	324009984	54	5468
2026-01-21 11:18:32.65	228.31	19.73	-41.6	-45.1	13.0	3.05e-05	0	60	0	331350016	54	5523
2026-01-21 11:18:36.69	229.11	20.05	-41.5	-45.0	13.1	3.35e-05	0	60	0	338690048	54	5444
2026-01-21 11:18:40.73	229.93	20.37	-41.5	-44.9	13.2	2.36e-05	0	60	0	346030080	54	5344
2026-01-21 11:18:44.77	230.76	20.69	-41.4	-44.7	13.5	1.06e-05	0	60	0	353370112	54	5245
2026-01-21 11:18:48.80	231.61	21.01	-41.5	-44.9	13.2	9.90e-06	0	60	0	361758720	54	5384
2026-01-21 11:18:52.84	232.48	21.33	-41.4	-44.9	13.3	2.05e-05	0	60	0	369098752	54	5355
2026-01-21 11:18:56.88	233.37	21.64	-41.4	-44.8	13.3	1.37e-05	0	60	0	376438784	54	5336
2026-01-21 11:19:00.92	234.27	21.95	-41.3	-44.7	13.5	1.37e-05	0	60	0	383778816	54	5253
2026-01-21 11:19:04.95	235.19	22.26	-41.3	-44.6	13.5	9.90e-06	0	60	0	392167424	54	5203
2026-01-21 11:19:08.99	236.13	22.56	-41.3	-44.5	13.7	7.60e-06	0	60	0	399507456	54	5110
2026-01-21 11:19:13.03	237.09	22.85	-41.5	-44.9	13.3	2.05e-05	0	60	0	406847488	54	5345
2026-01-21 11:19:17.07	238.06	23.15	-41.5	-44.9	13.3	1.67e-05	0	60	0	414187520	54	5375
2026-01-21 11:19:21.11	239.05	23.43	-41.9	-45.5	12.7	5.49e-05	0	60	0	421527552	54	5770
2026-01-21 11:19:25.14	240.06	23.72	-42.0	-45.9	12.3	1.62e-04	0	60	0	429916160	54	5996
2026-01-21 11:19:29.18	241.09	23.99	-41.9	-45.6	12.6	9.53e-05	0	60	0	437256192	54	5811
2026-01-21 11:19:33.22	242.13	24.26	-41.9	-45.5	12.7	6.63e-05	0	60	0	444596224	54	5755
2026-01-21 11:19:37.25	243.19	24.52	-42.0	-45.6	12.5	1.38e-04	0	60	0	451936256	54	5851
2026-01-21 11:19:41.30	244.28	24.77	-42.0	-45.8	12.5	1.37e-04	0	60	0	460324864	54	5927
2026-01-21 11:19:45.33	245.37	25.02	-42.2	-46.1	12.0	3.15e-04	0	60	0	467664896	54	6179
2026-01-21 11:19:49.37	246.48	25.25	-42.4	-46.6	11.5	7.07e-04	0	60	0	475004928	55	6176
2026-01-21 11:19:53.41	247.61	25.48	-42.5	-46.7	11.4	1.09e-03	0	60	0	482344960	55	6252
2026-01-21 11:19:57.44	248.75	25.70	-42.6	-47.1	11.0	1.89e-03	0	60	0	489684992	55	6538
2026-01-21 11:20:01.48	249.91	25.90	-43.1	-47.9	10.3	5.26e-03	0	61	0	498073600	56	6771
2026-01-21 11:20:05.52	251.09	26.10	-43.2	-48.3	9.9	7.47e-03	0	60	0	505413632	57	6685
2026-01-21 11:20:09.56	252.27	26.28	-43.4	-48.8	9.4	1.49e-02	0	61	0	512753664	57	7075
2026-01-21 11:20:13.60	253.47	26.46	-43.3	-48.6	9.7	1.16e-02	0	60	0	520093696	57	6889
2026-01-21 11:20:17.64	254.69	26.62	-43.3	-48.5	9.7	1.05e-02	0	60	0	528482304	57	6860
2026-01-21 11:20:21.67	255.91	26.76	-43.4	-48.7	9.5	1.46e-02	0	60	0	535822336	57	7030
2026-01-21 11:20:25.71	257.14	26.90	-43.4	-48.9	9.3	1.77e-02	0	60	0	543162368	57	7150
2026-01-21 11:20:29.75	258.39	27.02	-43.3	-48.6	9.6	1.46e-02	0	60	0	550502400	57	6910
2026-01-21 11:20:33.79	259.64	27.12	-42.9	-47.6	10.7	3.61e-03	0	60	0	557842432	57	6149
2026-01-21 11:20:37.82	260.90	27.22	-43.0	-47.8	10.5	3.46e-03	0	61	0	566231040	57	6277
2026-01-21 11:20:41.86	262.17	27.29	-43.2	-48.4	9.9	1.10e-02	0	60	0	573571072	57	6736
2026-01-21 11:20:45.90	263.44	27.36	-43.1	-48.1	10.1	6.78e-03	0	61	0	580911104	57	6549
2026-01-21 11:20:49.94	264.71	27.41	-43.1	-48.1	10.1	7.08e-03	0	60	0	588251136	57	6558
2026-01-21 11:20:53.98	265.99	27.44	-43.0	-47.7	10.6	3.23e-03	0	60	0	596639744	57	6219
2026-01-21 11:20:58.01	267.27	27.46	-42.7	-47.0	11.3	1.56e-03	0	60	0	603979776	57	5737
2026-01-21 11:21:02.05	268.56	27.46	-42.7	-47.1	11.2	1.11e-03	0	60	0	611319808	57	5829
2026-01-21 11:21:06.09	269.84	27.45	-42.7	-47.0	11.3	1.39e-03	0	60	0	618659840	57	5748
2026-01-21 11:21:10.13	271.12	27.42	-42.4	-46.4	11.9	3.29e-04	0	61	0	625999872	56	5713
2026-01-21 11:21:14.17	272.39	27.38	-42.7	-47.0	11.3	1.11e-03	0	60	0	634388480	56	6120
2026-01-21 11:21:18.21	273.67	27.32	-42.7	-47.1	11.2	1.31e-03	0	60	0	641728512	56	6146
2026-01-21 11:21:22.25	274.94	27.25	-42.8	-47.3	11.0	1.68e-03	0	61	0	649068544	56	6293
2026-01-21 11:21:26.28	276.19	27.16	-43.1	-47.9	10.3	4.94e-03	0	61	0	656408576	56	6789
2026-01-21 11:21:30.32	277.45	27.06	-42.7	-47.0	11.3	1.42e-03	0	61	0	663748608	56	6104
2026-01-21 11:21:34.36	278.70	26.95	-42.7	-47.0	11.3	8.95e-04	0	61	0	672137216	56	6102
2026-01-21 11:21:38.40	279.93	26.82	-42.8	-47.2	11.0	1.74e-03	0	60	0	679477248	56	6266
2026-01-21 11:21:42.43	281.15	26.68	-42.6	-46.8	11.5	1.03e-03	0	61	0	686817280	56	5946
2026-01-21 11:21:46.47	282.37	26.53	-42.7	-47.0	11.3	1.06e-03	0	61	0	694157312	56	6073
2026-01-21 11:21:50.51	283.57	26.36	-42.7	-47.0	11.2	1.28e-03	0	61	0	702545920	56	6117
2026-01-21 11:21:54.55	284.76	26.18	-42.4	-46.4	11.9	4.46e-04	0	60	0	709885952	56	5680
2026-01-21 11:21:58.58	285.94	25.99	-42.3	-46.2	12.2	2.49e-04	0	61	0	717225984	56	5537
2026-01-21 11:22:02.62	287.10	25.79	-41.8	-45.4	12.7	7.09e-05	0	60	0	724566016	55	5385
2026-01-21 11:22:06.65	288.24	25.58	-41.9	-45.5	12.6	1.02e-04	0	61	0	731906048	55	5428
2026-01-21 11:22:10.69	289.37	25.36	-41.9	-45.6	12.5	1.15e-04	0	61	0	740294656	55	5516
2026-01-21 11:22:14.73	290.49	25.13	-41.5	-44.8	13.4	1.14e-05	0	60	0	747634688	54	5316
2026-01-21 11:22:18.77	291.59	24.89	-41.8	-45.3	12.9	4.57e-05	0	61	0	754974720	54	5608
2026-01-21 11:22:22.81	292.67	24.64	-41.7	-45.1	13.0	3.05e-05	0	61	0	762314752	54	5501
2026-01-21 11:22:26.84	293.73	24.39	-41.5	-44.9	13.2	2.89e-05	0	61	0	770703360	54	5377
2026-01-21 11:22:30.88	294.78	24.12	-41.7	-45.3	12.8	5.49e-05	0	60	0	778043392	54	5621
2026-01-21 11:22:34.92	295.81	23.85	-42.2	-46.2	11.9	3.93e-04	0	61	0	785383424	54	6232
2026-01-21 11:22:38.95	296.83	23.58	-42.1	-46.0	12.0	3.12e-04	0	61	0	792723456	55	5779
2026-01-21 11:22:42.99	297.82	23.29	-42.1	-46.0	12.1	2.80e-04	0	60	0	800063488	55	5733
2026-01-21 11:22:47.03	298.80	23.00	-42.1	-46.1	11.9	4.06e-04	0	60	0	808452096	55	5846
2026-01-21 11:22:51.06	299.76	22.71	-42.0	-45.9	12.1	2.81e-04	0	61	0	815792128	55	5695
2026-01-21 11:22:55.10	300.70	22.41	-42.0	-45.8	12.3	1.65e-04	0	61	0	823132160	55	5605
2026-01-21 11:22:59.15	301.63	22.11	-42.1	-46.0	12.0	3.38e-04	0	61	0	830472192	55	5766
2026-01-21 11:23:03.19	302.53	21.81	-42.0	-45.9	12.1	2.30e-04	0	61	0	838860800	55	5675
2026-01-21 11:23:07.22	303.42	21.50	-42.0	-45.8	12.2	2.32e-04	0	61	0	846200832	55	5616
2026-01-21 11:23:11.26	304.29	21.19	-41.8	-45.5	12.4	1.32e-04	0	61	0	853540864	55	5455
2026-01-21 11:23:15.30	305.15	20.87	-42.1	-46.0	11.9	3.74e-04	0	60	0	860880896	55	5776
2026-01-21 11:23:19.34	305.99	20.56	-42.2	-46.3	11.6	4.96e-04	0	61	0	868220928	55	5954
2026-01-21 11:23:23.38	306.81	20.24	-42.9	-47.8	10.2	7.01e-03	0	61	0	876609536	56	6716
2026-01-21 11:23:27.41	307.61	19.92	-42.4	-46.6	11.5	8.45e-04	0	61	0	883949568	56	5813
2026-01-21 11:23:31.45	308.40	19.60	-42.7	-47.4	10.6	2.85e-03	0	61	0	891289600	56	6394
2026-01-21 11:23:35.49	309.17	19.28	-42.4	-46.6	11.4	1.08e-03	0	61	0	898629632	56	5826
2026-01-21 11:23:39.53	309.93	18.95	-42.4	-46.8	11.3	9.67e-04	0	61	0	907018240	56	5928
2026-01-21 11:23:43.57	310.67	18.63	-42.4	-46.6	11.4	1.23e-03	0	61	0	914358272	56	5818
2026-01-21 11:23:47.60	311.40	18.31	-42.4	-46.7	11.2	8.07e-04	0	61	0	921698304	56	5913
2026-01-21 11:23:51.64	312.11	17.98	-42.7	-47.5	10.5	4.58e-03	0	61	0	929038336	56	6434
2026-01-21 11:23:55.68	312.80	17.66	-42.5	-46.9	11.1	1.45e-03	0	61	0	936378368	56	6000
2026-01-21 11:23:59.72	313.49	17.34	-42.6	-47.2	10.7	1.96e-03	0	61	0	944766976	56	6274
2026-01-21 11:24:03.73	314.15	17.02	-42.8	-47.7	10.2	7.81e-03	0	61	0	952107008	56	6593
2026-01-21 11:24:07.77	314.80	16.69	-42.4	-46.8	11.2	1.34e-03	0	61	0	959447040	56	5928
2026-01-21 11:24:11.81	315.44	16.37	-42.5	-47.1	10.8	2.37e-03	0	61	0	966787072	56	6163
2026-01-21 11:24:15.85	316.07	16.05	-42.2	-46.5	11.4	9.80e-04	0	61	0	975175680	56	5759
2026-01-21 11:24:19.89	316.69	15.73	-42.2	-46.5	11.4	8.90e-04	0	61	0	982515712	56	5754
2026-01-21 11:24:23.93	317.29	15.42	-42.4	-47.0	10.8	2.74e-03	0	61	0	989855744	56	6106
2026-01-21 11:24:27.96	317.88	15.10	-42.4	-46.9	10.9	2.16e-03	0	61	0	997195776	56	6005
2026-01-21 11:24:32.00	318.46	14.79	-42.2	-46.6	11.2	1.20e-03	0	61	0	1004535808	56	5800
2026-01-21 11:24:36.04	319.02	14.47	-42.4	-47.0	10.8	2.12e-03	0	61	0	1012924416	56	6090
2026-01-21 11:24:40.07	319.58	14.16	-42.2	-46.7	11.1	1.67e-03	0	61	0	1020264448	56	5891
2026-01-21 11:24:44.11	320.12	13.85	-42.2	-46.5	11.2	1.41e-03	0	61	0	1027604480	56	5784
2026-01-21 11:24:48.15	320.65	13.54	-42.2	-46.7	11.0	1.87e-03	0	61	0	1034944512	56	5894
2026-01-21 11:24:52.19	321.17	13.24	-42.4	-47.1	10.6	3.60e-03	0	61	0	1043333120	56	6183
2026-01-21 11:24:56.22	321.69	12.93	-42.4	-47.2	10.4	4.26e-03	0	61	0	1050673152	56	6217
2026-01-21 11:25:00.26	322.19	12.63	-42.4	-47.3	10.4	4.52e-03	0	61	0	1058013184	56	6278
2026-01-21 11:25:04.29	322.68	12.33	-42.4	-47.4	10.2	6.09e-03	0	61	0	1065353216	56	6352
2026-01-21 11:25:08.33	323.16	12.03	-42.5	-47.5	10.0	6.43e-03	0	61	0	1072693248	56	6487
2026-01-21 11:25:12.37	323.63	11.73	-42.4	-47.3	10.3	5.48e-03	0	61	0	1081081856	56	6310
2026-01-21 11:25:16.40	324.10	11.43	-42.4	-47.4	10.1	6.28e-03	0	61	0	1088421888	56	6386
2026-01-21 11:25:20.44	324.55	11.14	-42.6	-47.9	9.5	1.19e-02	0	61	0	1095761920	56	6789
2026-01-21 11:25:24.48	325.00	10.85	-42.8	-48.5	9.0	2.34e-02	0	61	0	1103101952	56	7243
2026-01-21 11:25:28.52	325.44	10.56	-42.9	-49.0	8.4	4.64e-02	0	61	0	1110441984	56	7675
2026-01-21 11:25:32.56	325.87	10.27	-43.0	-49.1	8.2	5.32e-02	0	61	0	1118830592	56	7794
2026-01-21 11:25:36.60	326.29	9.99	-42.8	-48.9	8.4	4.36e-02	0	61	0	1126170624	56	7571
2026-01-21 11:25:40.64	326.70	9.70	-42.8	-48.7	8.6	4.31e-02	0	61	0	1133510656	56	7390
2026-01-21 11:25:44.67	327.11	9.42	-42.8	-48.7	8.6	4.15e-02	0	61	0	1140850688	56	7422
2026-01-21 11:25:48.71	327.51	9.14	-42.6	-48.3	8.9	3.14e-02	0	61	0	1149239296	56	7120
2026-01-21 11:25:52.75	327.90	8.86	-42.6	-48.3	8.9	2.66e-02	0	61	0	1156579328	56	7077
2026-01-21 11:25:56.79	328.29	8.59	-42.7	-48.6	8.6	3.43e-02	0	61	0	1163919360	56	7303
2026-01-21 11:26:00.82	328.66	8.32	-42.8	-49.0	8.1	6.15e-02	0	61	0	1171259392	56	7691
2026-01-21 11:26:04.85	329.03	8.04	-42.7	-48.9	8.2	6.34e-02	0	61	0	1178599424	56	7598
2026-01-21 11:26:08.89	329.40	7.77	-44.9	-59.5	3.8	1.49e+00	0	61	104	1180696576	60	20380
2026-01-21 11:26:12.92	329.76	7.51	-45.3	-59.9	3.8	1.49e+00	0	61	104	1180696576	61	20167
2026-01-21 11:26:16.94	330.11	7.24	-44.3	-59.8	3.8	1.49e+00	0	61	104	1180696576	60	21207
2026-01-21 11:26:20.97	330.45	6.98	-45.2	-59.8	3.8	1.49e+00	0	61	104	1180696576	61	19979
2026-01-21 11:26:25.00	330.79	6.72	-45.2	-59.8	3.8	1.49e+00	0	61	104	1180696576	61	19895
2026-01-21 11:26:29.04	331.13	6.46	-45.2	-59.8	3.8	1.49e+00	0	61	104	1180696576	61	19929
2026-01-21 11:26:33.07	331.46	6.20	-45.2	-59.8	3.8	1.49e+00	0	61	104	1180696576	61	19948
2026-01-21 11:26:37.10	331.78	5.94	-45.2	-59.8	3.8	1.49e+00	0	61	104	1180696576	60	21089
2026-01-21 11:26:41.12	332.10	5.69	-45.2	-59.8	3.8	1.49e+00	0	61	104	1180696576	60	21042
2026-01-21 11:26:45.15	332.41	5.44	-45.2	-59.8	3.8	1.49e+00	0	61	104	1180696576	60	21035
2026-01-21 11:26:49.18	332.72	5.19	-45.2	-59.7	3.8	1.49e+00	0	61	104	1180696576	60	21011
2026-01-21 11:26:53.21	333.02	4.94	-45.2	-59.8	3.8	1.49e+00	0	61	104	1180696576	60	21033
2026-01-21 11:26:57.24	333.32	4.69	-45.2	-59.8	3.8	1.49e+00	0	61	104	1180696576	60	21070
2026-01-21 11:27:01.27	333.61	4.44	-45.2	-59.7	3.8	1.49e+00	0	61	104	1180696576	60	21014
2026-01-21 11:27:05.31	333.90	4.20	-45.2	-59.8	3.8	1.49e+00	0	61	104	1180696576	60	21028
2026-01-21 11:27:09.33	334.19	3.96	-45.2	-59.8	3.8	1.49e+00	0	61	104	1180696576	60	21078
2026-01-21 11:27:13.36	334.47	3.72	-45.2	-59.8	3.8	1.49e+00	0	61	104	1180696576	60	21025
2026-01-21 11:27:17.39	334.74	3.48	-45.2	-59.7	3.8	1.49e+00	0	61	104	1180696576	60	20998
2026-01-21 11:27:21.42	335.01	3.24	-45.1	-59.7	3.8	1.49e+00	0	61	104	1180696576	60	20985
2026-01-21 11:27:25.46	335.28	3.01	-45.2	-59.7	3.8	1.49e+00	0	61	104	1180696576	60	20990
2026-01-21 11:27:29.49	335.54	2.77	-45.2	-59.7	3.8	1.49e+00	0	61	104	1180696576	60	20973
2026-01-21 11:27:33.52	335.80	2.54	-45.1	-59.7	3.8	1.49e+00	0	61	104	1180696576	60	21000
2026-01-21 11:27:37.55	336.06	2.31	-45.2	-59.7	3.8	1.49e+00	0	61	104	1180696576	60	20986
2026-01-21 11:27:41.58	336.31	2.08	-44.8	-59.7	3.8	1.49e+00	0	61	104	1180696576	60	20881

#Closed at: 2026-01-21 11:27:43
#Recorded file [1180 MB]: D:/lorett/data/31039_260121_141422.dat