passes_logs/2026/01/21/R2.0S_Moscow/R2.0S_Moscow__20260121_020017_FENGYUN_3D_rec.log

#Pass ID: 20260121_020017_FENGYUN 3D
#Satellite: FENGYUN 3D
#Configuration: FENGYUN 3D
#almurnet v.1.7.20251203
#Start time: 2026-01-21 02:00:17

#Version: 2.2.20231116
#Station: R2.0S_Moscow
#Location: 37.707566 lon 55.798166 lat
#TLE: 1 43010U 17072A   26020.28933472  .00000051  00000+0  46008-4 0  9990
#TLE: 2 43010  98.9944 352.1871 0002476  99.7001 260.4455 14.19696838424006

#Time	Az	El	Level	Level2	SNR	BER	BlckErr	Temp	State	Recorded	gain1	gain2
2026-01-21 02:00:17.57	15.57	2.00	-42.9	-54.7	3.8	8.46e-01	0	49	0	0	57	13922
2026-01-21 02:00:21.60	15.54	2.26	-42.9	-54.6	3.8	8.46e-01	0	49	104	0	57	13880
2026-01-21 02:00:25.65	15.51	2.52	-42.9	-54.7	3.8	8.47e-01	0	49	104	0	57	13916
2026-01-21 02:00:29.69	15.48	2.78	-42.9	-54.7	3.8	8.46e-01	0	49	104	0	57	13893
2026-01-21 02:00:33.73	15.45	3.05	-42.9	-54.6	3.8	8.47e-01	0	50	104	0	57	13856
2026-01-21 02:00:37.78	15.42	3.32	-42.9	-54.7	3.8	8.46e-01	0	50	104	0	57	13898
2026-01-21 02:00:41.82	15.39	3.59	-42.9	-54.6	3.8	8.47e-01	0	50	104	0	57	13871
2026-01-21 02:00:45.86	15.36	3.86	-42.9	-54.7	3.8	8.45e-01	0	51	104	0	57	13913
2026-01-21 02:00:49.90	15.33	4.14	-42.9	-54.6	3.8	8.46e-01	0	51	104	0	57	13883
2026-01-21 02:00:53.94	15.29	4.42	-42.9	-54.6	3.8	8.46e-01	0	51	104	0	57	13834
2026-01-21 02:00:57.98	15.26	4.70	-42.9	-54.6	3.8	8.46e-01	0	51	104	0	57	13872
2026-01-21 02:01:02.03	15.22	4.99	-42.9	-54.6	3.8	8.46e-01	0	52	104	0	57	13736
2026-01-21 02:01:06.07	15.19	5.27	-42.9	-54.4	3.8	8.47e-01	0	52	104	0	57	13512
2026-01-21 02:01:10.11	15.15	5.57	-42.8	-54.2	3.8	8.46e-01	0	52	104	0	57	13201
2026-01-21 02:01:14.16	15.11	5.86	-42.8	-54.1	3.8	8.46e-01	0	52	104	0	57	13102
2026-01-21 02:01:18.20	15.07	6.16	-42.9	-54.5	3.8	8.46e-01	0	53	104	0	57	13583
2026-01-21 02:01:22.24	15.03	6.46	-42.8	-53.7	3.8	8.46e-01	0	53	104	0	57	12400
2026-01-21 02:01:26.28	14.98	6.77	-42.6	-52.5	3.8	8.45e-01	0	53	104	0	57	10823
2026-01-21 02:01:30.32	14.94	7.07	-41.4	-47.0	6.3	3.76e-01	0	53	0	4194304	54	6827
2026-01-21 02:01:34.37	14.90	7.39	-39.5	-42.7	10.6	5.74e-03	0	53	0	26214400	51	4971
2026-01-21 02:01:38.41	14.85	7.70	-40.0	-43.6	9.7	1.04e-02	0	53	0	49283072	50	5839
2026-01-21 02:01:42.45	14.80	8.03	-40.4	-44.4	8.8	2.95e-02	0	53	0	72351744	51	6061
2026-01-21 02:01:46.50	14.75	8.35	-42.3	-51.5	3.9	8.44e-01	0	53	104	90177536	55	10870
2026-01-21 02:01:50.53	14.70	8.68	-39.6	-42.6	11.2	1.77e-03	0	54	0	109051904	50	5163
2026-01-21 02:01:54.58	14.65	9.01	-39.5	-42.3	11.6	1.23e-03	0	54	0	131072000	50	5028
2026-01-21 02:01:58.61	14.59	9.35	-39.4	-42.1	12.0	6.81e-04	0	54	0	154140672	50	4872
2026-01-21 02:02:02.65	14.54	9.69	-39.4	-42.1	12.0	4.78e-04	0	54	0	177209344	50	4893
2026-01-21 02:02:06.69	14.48	10.04	-39.3	-41.9	12.2	2.56e-04	0	54	0	199229440	50	4785
2026-01-21 02:02:10.72	14.42	10.39	-39.1	-41.5	12.7	1.04e-04	0	54	0	222298112	50	4581
2026-01-21 02:02:14.76	14.36	10.75	-39.1	-41.6	12.7	1.15e-04	0	54	0	245366784	50	4611
2026-01-21 02:02:18.80	14.30	11.11	-39.2	-41.6	12.7	1.15e-04	0	54	0	267386880	50	4620
2026-01-21 02:02:22.84	14.23	11.48	-39.2	-41.6	12.8	1.25e-04	0	55	0	290455552	50	4631
2026-01-21 02:02:26.88	14.16	11.85	-39.1	-41.5	12.9	7.78e-05	0	55	0	313524224	50	4571
2026-01-21 02:02:30.92	14.09	12.23	-39.1	-41.4	13.0	5.83e-05	0	55	0	335544320	50	4524
2026-01-21 02:02:34.96	14.02	12.61	-39.0	-41.4	13.1	3.77e-05	0	55	0	358612992	49	4760
2026-01-21 02:02:39.00	13.95	13.00	-38.9	-41.1	13.4	2.17e-05	0	55	0	381681664	49	4633
2026-01-21 02:02:43.03	13.87	13.40	-38.8	-41.0	13.6	1.48e-05	0	55	0	403701760	49	4557
2026-01-21 02:02:47.07	13.79	13.80	-38.8	-40.9	13.8	8.00e-06	0	55	0	426770432	49	4516
2026-01-21 02:02:51.11	13.71	14.21	-38.7	-40.8	14.0	6.80e-06	0	55	0	449839104	49	4452
2026-01-21 02:02:55.15	13.63	14.63	-38.5	-40.5	14.3	1.10e-06	0	55	0	471859200	48	4561
2026-01-21 02:02:59.19	13.54	15.06	-38.5	-40.5	14.4	2.20e-06	0	55	0	494927872	48	4565
2026-01-21 02:03:03.23	13.45	15.49	-38.4	-40.4	14.5	0.00e+00	0	56	0	517996544	48	4504
2026-01-21 02:03:07.26	13.35	15.93	-38.5	-40.4	14.5	0.00e+00	0	56	0	540016640	48	4540
2026-01-21 02:03:11.30	13.26	16.37	-38.4	-40.4	14.7	1.10e-06	0	56	0	563085312	48	4507
2026-01-21 02:03:15.34	13.16	16.83	-38.3	-40.1	15.0	0.00e+00	0	56	0	586153984	48	4381
2026-01-21 02:03:19.39	13.05	17.30	-38.1	-39.9	15.3	0.00e+00	0	56	0	608174080	48	4271
2026-01-21 02:03:23.43	12.95	17.77	-37.8	-39.6	15.5	0.00e+00	0	56	0	631242752	47	4364
2026-01-21 02:03:27.47	12.83	18.25	-37.6	-39.3	15.8	0.00e+00	0	56	0	654311424	47	4211
2026-01-21 02:03:31.51	12.72	18.75	-37.5	-39.2	15.9	0.00e+00	0	56	0	676331520	47	4172
2026-01-21 02:03:35.55	12.60	19.25	-37.4	-39.1	16.1	0.00e+00	0	56	0	699400192	46	4350
2026-01-21 02:03:39.59	12.47	19.76	-37.4	-39.0	16.2	0.00e+00	0	56	0	722468864	46	4335
2026-01-21 02:03:43.63	12.34	20.29	-37.4	-39.1	16.1	0.00e+00	0	56	0	744488960	46	4365
2026-01-21 02:03:47.67	12.21	20.82	-37.4	-39.0	16.2	0.00e+00	0	56	0	767557632	46	4338
2026-01-21 02:03:51.71	12.07	21.37	-37.3	-38.9	16.4	0.00e+00	0	56	0	790626304	46	4246
2026-01-21 02:03:55.75	11.92	21.92	-37.2	-38.8	16.5	0.00e+00	0	56	0	812646400	46	4213
2026-01-21 02:03:59.79	11.77	22.49	-37.0	-38.5	16.8	0.00e+00	0	56	0	835715072	45	4331
2026-01-21 02:04:03.83	11.61	23.08	-37.0	-38.5	16.8	0.00e+00	0	56	0	858783744	45	4319
2026-01-21 02:04:07.87	11.45	23.67	-36.9	-38.4	16.9	0.00e+00	0	57	0	880803840	45	4273
2026-01-21 02:04:11.91	11.28	24.28	-36.8	-38.3	17.0	0.00e+00	0	57	0	903872512	45	4234
2026-01-21 02:04:15.95	11.10	24.91	-36.7	-38.2	17.1	0.00e+00	0	57	0	926941184	45	4167
2026-01-21 02:04:19.99	10.91	25.55	-36.7	-38.2	17.2	0.00e+00	0	56	0	948961280	45	4148
2026-01-21 02:04:24.02	10.71	26.20	-36.5	-38.0	17.4	0.00e+00	0	57	0	972029952	45	4055
2026-01-21 02:04:28.06	10.51	26.87	-36.5	-37.9	17.5	0.00e+00	0	57	0	995098624	44	4276
2026-01-21 02:04:32.11	10.29	27.56	-36.6	-38.1	17.3	0.00e+00	0	57	0	1017118720	44	4353
2026-01-21 02:04:36.15	10.07	28.26	-36.7	-38.2	17.2	0.00e+00	0	57	0	1040187392	44	4420
2026-01-21 02:04:40.19	9.83	28.99	-36.6	-38.1	17.3	0.00e+00	0	57	0	1063256064	44	4378
2026-01-21 02:04:44.23	9.59	29.73	-36.3	-37.7	17.7	0.00e+00	0	57	0	1086324736	44	4174
2026-01-21 02:04:48.26	9.33	30.49	-36.4	-37.8	17.6	0.00e+00	0	57	0	1108344832	44	4227
2026-01-21 02:04:52.30	9.06	31.27	-36.3	-37.7	17.7	0.00e+00	0	57	0	1131413504	44	4179
2026-01-21 02:04:56.34	8.77	32.07	-36.3	-37.7	17.8	0.00e+00	0	57	0	1153433600	44	4149
2026-01-21 02:05:00.38	8.47	32.89	-36.3	-37.7	17.8	0.00e+00	0	57	0	1176502272	44	4162
2026-01-21 02:05:04.42	8.15	33.73	-36.2	-37.6	17.9	0.00e+00	0	57	0	1199570944	44	4102
2026-01-21 02:05:08.46	7.81	34.60	-36.1	-37.4	18.0	0.00e+00	0	57	0	1221591040	44	4050
2026-01-21 02:05:12.50	7.45	35.49	-35.4	-36.7	18.6	0.00e+00	0	57	0	1244659712	42	4182
2026-01-21 02:05:16.54	7.07	36.40	-35.6	-36.9	18.4	0.00e+00	0	57	0	1267728384	42	4284
2026-01-21 02:05:20.58	6.67	37.34	-35.5	-36.8	18.5	0.00e+00	0	57	0	1290797056	42	4241
2026-01-21 02:05:24.62	6.25	38.31	-35.8	-37.1	18.2	0.00e+00	0	57	0	1312817152	42	4367
2026-01-21 02:05:28.65	5.79	39.30	-36.0	-37.4	17.9	0.00e+00	0	57	0	1335885824	42	4522
2026-01-21 02:05:32.69	5.31	40.32	-35.9	-37.3	18.1	0.00e+00	0	57	0	1357905920	42	4460
2026-01-21 02:05:36.73	4.80	41.36	-36.4	-37.8	17.6	0.00e+00	0	57	0	1380974592	43	4463
2026-01-21 02:05:40.77	4.24	42.44	-36.6	-38.1	17.3	0.00e+00	0	57	0	1404043264	43	4606
2026-01-21 02:05:44.81	3.65	43.54	-36.3	-37.7	17.7	0.00e+00	0	57	0	1426063360	43	4420
2026-01-21 02:05:48.84	3.02	44.67	-36.6	-38.0	17.4	0.00e+00	0	57	0	1449132032	43	4594
2026-01-21 02:05:52.88	2.33	45.83	-36.9	-38.4	17.2	0.00e+00	0	57	0	1472200704	44	4527
2026-01-21 02:05:56.92	1.60	47.02	-36.2	-37.5	18.0	0.00e+00	0	57	0	1495269376	44	4087
2026-01-21 02:06:00.97	0.80	48.24	-36.2	-37.6	17.7	0.00e+00	0	57	0	1517289472	43	4388
2026-01-21 02:06:05.01	359.93	49.49	-36.5	-37.9	17.5	0.00e+00	0	57	0	1540358144	43	4534
2026-01-21 02:06:09.04	358.99	50.76	-37.0	-38.5	17.0	0.00e+00	0	57	0	1562378240	44	4595
2026-01-21 02:06:13.08	357.96	52.07	-37.8	-39.5	16.1	0.00e+00	0	58	0	1585446912	46	4562
2026-01-21 02:06:17.12	356.84	53.39	-37.5	-39.1	16.5	0.00e+00	0	57	0	1608515584	46	4354
2026-01-21 02:06:21.16	355.61	54.75	-37.5	-39.3	16.1	0.00e+00	0	57	0	1630535680	46	4449
2026-01-21 02:06:25.20	354.25	56.12	-37.1	-38.7	16.6	0.00e+00	0	57	0	1653604352	46	4191
2026-01-21 02:06:29.24	352.75	57.51	-36.6	-38.1	17.2	0.00e+00	0	57	0	1676673024	45	4134
2026-01-21 02:06:33.28	351.08	58.91	-36.6	-38.1	17.3	0.00e+00	0	57	0	1699741696	45	4101
2026-01-21 02:06:37.31	349.23	60.31	-36.5	-38.1	17.3	0.00e+00	0	57	0	1721761792	44	4343
2026-01-21 02:06:41.35	347.15	61.73	-36.4	-37.9	17.4	0.00e+00	0	57	0	1744830464	44	4290
2026-01-21 02:06:45.39	344.83	63.13	-36.6	-38.1	17.3	0.00e+00	0	58	0	1766850560	44	4363
2026-01-21 02:06:49.43	342.21	64.52	-36.0	-37.5	17.8	0.00e+00	0	58	0	1789919232	44	4055
2026-01-21 02:06:53.46	339.26	65.87	-35.5	-36.9	18.1	0.00e+00	0	57	0	1812987904	43	4051
2026-01-21 02:06:57.50	335.92	67.19	-35.1	-36.4	18.6	0.00e+00	0	57	0	1835008000	42	4034
2026-01-21 02:07:01.54	332.13	68.44	-34.9	-36.2	18.9	0.00e+00	0	58	0	1858076672	41	4159
2026-01-21 02:07:05.58	327.86	69.61	-35.3	-36.7	18.3	0.00e+00	0	58	0	1881145344	41	4418
2026-01-21 02:07:09.61	323.06	70.68	-35.4	-36.9	18.1	0.00e+00	0	58	0	1903165440	41	4512
2026-01-21 02:07:13.65	317.68	71.61	-34.7	-36.0	18.9	0.00e+00	0	57	0	1926234112	41	4088
2026-01-21 02:07:17.70	311.74	72.38	-34.8	-36.1	18.8	0.00e+00	0	57	0	1949302784	41	4121
2026-01-21 02:07:21.74	305.31	72.95	-34.7	-36.0	18.9	0.00e+00	0	58	0	1971322880	41	4060
2026-01-21 02:07:25.77	298.52	73.31	-34.9	-36.3	18.7	0.00e+00	0	58	0	1994391552	41	4207
2026-01-21 02:07:29.81	291.49	73.44	-34.8	-36.2	18.7	0.00e+00	0	58	0	2017460224	41	4170
2026-01-21 02:07:33.85	284.46	73.33	-34.8	-36.1	18.8	0.00e+00	0	58	0	2039480320	41	4142
2026-01-21 02:07:37.89	277.63	72.98	-34.7	-36.0	18.9	0.00e+00	0	58	0	2062548992	41	4087
2026-01-21 02:07:41.93	271.17	72.42	-34.8	-36.1	18.8	0.00e+00	0	58	0	2085617664	41	4138
2026-01-21 02:07:45.97	265.21	71.66	-34.5	-35.8	19.1	0.00e+00	0	58	0	2107637760	41	3993
2026-01-21 02:07:50.01	259.79	70.74	-34.9	-36.3	18.6	0.00e+00	0	58	0	2130706432	40	4474
2026-01-21 02:07:54.04	254.95	69.68	-34.9	-36.3	18.7	0.00e+00	0	58	0	2153775104	40	4457
2026-01-21 02:07:58.08	250.64	68.51	-34.9	-36.2	18.8	0.00e+00	0	58	0	2175795200	40	4399
2026-01-21 02:08:02.12	246.82	67.26	-34.6	-35.9	19.0	0.00e+00	0	58	0	2198863872	40	4278
2026-01-21 02:08:06.16	243.45	65.95	-35.1	-36.4	18.6	0.00e+00	0	58	0	2221932544	40	4523
2026-01-21 02:08:10.20	240.46	64.59	-35.1	-36.5	18.6	0.00e+00	0	58	0	2243952640	41	4295
2026-01-21 02:08:14.24	237.82	63.20	-35.2	-36.5	18.5	0.00e+00	0	58	0	2267021312	41	4331
2026-01-21 02:08:18.28	235.47	61.79	-35.5	-36.9	18.1	0.00e+00	0	58	0	2290089984	41	4532
2026-01-21 02:08:22.32	233.38	60.38	-35.9	-37.4	17.7	0.00e+00	0	58	0	2312110080	42	4522
2026-01-21 02:08:26.36	231.51	58.96	-35.9	-37.4	17.7	0.00e+00	0	58	0	2335178752	42	4504
2026-01-21 02:08:30.39	229.84	57.56	-35.9	-37.3	17.8	0.00e+00	0	58	0	2358247424	42	4486
2026-01-21 02:08:34.43	228.32	56.16	-36.3	-37.9	17.2	0.00e+00	0	58	0	2380267520	43	4499
2026-01-21 02:08:38.48	226.95	54.78	-36.9	-38.6	16.8	0.00e+00	0	58	0	2403336192	44	4606
2026-01-21 02:08:42.52	225.71	53.43	-36.8	-38.3	17.0	0.00e+00	0	58	0	2426404864	44	4487
2026-01-21 02:08:46.56	224.58	52.09	-36.8	-38.4	16.9	0.00e+00	0	58	0	2448424960	44	4514
2026-01-21 02:08:50.60	223.54	50.79	-36.3	-37.8	17.5	0.00e+00	0	58	0	2471493632	44	4221
2026-01-21 02:08:54.64	222.60	49.50	-36.2	-37.6	17.7	0.00e+00	0	58	0	2494562304	44	4136
2026-01-21 02:08:58.69	221.72	48.25	-35.7	-37.1	18.0	0.00e+00	0	58	0	2516582400	43	4106
2026-01-21 02:09:02.73	220.92	47.02	-35.9	-37.4	17.7	0.00e+00	0	58	0	2539651072	43	4246
2026-01-21 02:09:06.77	220.18	45.83	-35.8	-37.3	17.7	0.00e+00	0	58	0	2562719744	43	4221
2026-01-21 02:09:10.81	219.49	44.66	-35.6	-37.0	18.0	0.00e+00	0	58	0	2584739840	43	4091
2026-01-21 02:09:14.85	218.85	43.52	-35.5	-36.9	18.1	0.00e+00	0	58	0	2607808512	43	4038
2026-01-21 02:09:18.88	218.25	42.42	-35.9	-37.4	17.7	0.00e+00	0	58	0	2630877184	42	4496
2026-01-21 02:09:22.92	217.70	41.34	-35.5	-36.9	18.1	0.00e+00	0	58	0	2653945856	42	4266
2026-01-21 02:09:26.96	217.18	40.28	-35.3	-36.7	18.3	0.00e+00	0	58	0	2675965952	42	4170
2026-01-21 02:09:31.00	216.69	39.26	-35.2	-36.6	18.4	0.00e+00	0	58	0	2699034624	42	4126
2026-01-21 02:09:35.03	216.24	38.27	-35.0	-36.4	18.6	0.00e+00	0	58	0	2721054720	42	4035
2026-01-21 02:09:39.07	215.81	37.30	-35.1	-36.5	18.5	0.00e+00	0	58	0	2744123392	42	4063
2026-01-21 02:09:43.11	215.40	36.35	-35.0	-36.4	18.6	0.00e+00	0	58	0	2767192064	42	4019
2026-01-21 02:09:47.15	215.02	35.43	-35.2	-36.6	18.3	0.00e+00	0	58	0	2789212160	42	4140
2026-01-21 02:09:51.19	214.66	34.54	-35.5	-37.0	18.0	0.00e+00	0	58	0	2812280832	42	4303
2026-01-21 02:09:55.22	214.32	33.67	-35.6	-37.0	18.0	0.00e+00	0	58	0	2835349504	42	4326
2026-01-21 02:09:59.26	214.00	32.82	-35.5	-36.9	18.1	0.00e+00	0	58	0	2857369600	42	4282
2026-01-21 02:10:03.30	213.69	31.99	-35.5	-37.0	18.0	0.00e+00	0	58	0	2880438272	42	4316
2026-01-21 02:10:07.34	213.40	31.19	-35.7	-37.1	17.8	0.00e+00	0	58	0	2903506944	42	4387
2026-01-21 02:10:11.37	213.13	30.41	-35.7	-37.2	17.7	0.00e+00	0	58	0	2925527040	42	4395
2026-01-21 02:10:15.41	212.87	29.65	-35.5	-37.0	17.9	0.00e+00	0	58	0	2948595712	42	4300
2026-01-21 02:10:19.45	212.62	28.90	-35.6	-37.1	17.8	0.00e+00	0	58	0	2971664384	42	4349
2026-01-21 02:10:23.49	212.38	28.17	-35.9	-37.4	17.5	0.00e+00	0	58	0	2993684480	42	4540
2026-01-21 02:10:27.53	212.15	27.47	-35.9	-37.4	17.5	0.00e+00	0	58	0	3016753152	42	4543
2026-01-21 02:10:31.57	211.93	26.78	-35.6	-37.1	17.8	0.00e+00	0	58	0	3039821824	42	4341
2026-01-21 02:10:35.61	211.73	26.10	-35.6	-37.1	17.8	0.00e+00	0	58	0	3061841920	42	4365
2026-01-21 02:10:39.65	211.53	25.45	-35.8	-37.3	17.6	0.00e+00	0	58	0	3084910592	42	4487
2026-01-21 02:10:43.69	211.34	24.80	-36.0	-37.6	17.3	0.00e+00	0	58	0	3107979264	42	4627
2026-01-21 02:10:47.73	211.16	24.18	-36.1	-37.6	17.3	0.00e+00	0	58	0	3129999360	42	4640
2026-01-21 02:10:51.77	210.98	23.56	-36.0	-37.6	17.4	0.00e+00	0	58	0	3153068032	42	4602
2026-01-21 02:10:55.81	210.81	22.96	-36.1	-37.6	17.3	0.00e+00	0	58	0	3176136704	42	4641
2026-01-21 02:10:59.84	210.65	22.38	-36.1	-37.6	17.3	0.00e+00	0	58	0	3198156800	42	4641
2026-01-21 02:11:03.88	210.50	21.81	-36.2	-37.8	17.1	0.00e+00	0	58	0	3221225472	42	4719
2026-01-21 02:11:07.92	210.35	21.25	-36.3	-37.9	17.0	0.00e+00	0	58	0	3244294144	43	4530
2026-01-21 02:11:11.96	210.21	20.70	-36.4	-38.1	16.8	0.00e+00	0	58	0	3267362816	43	4599
2026-01-21 02:11:16.00	210.07	20.16	-36.6	-38.2	16.6	0.00e+00	0	58	0	3289382912	43	4673
2026-01-21 02:11:20.04	209.93	19.64	-36.9	-38.6	16.4	0.00e+00	0	58	0	3312451584	44	4624
2026-01-21 02:11:24.08	209.81	19.12	-37.0	-38.7	16.2	0.00e+00	0	58	0	3334471680	44	4704
2026-01-21 02:11:28.12	209.68	18.62	-37.1	-38.9	16.1	0.00e+00	0	58	0	3357540352	45	4507
2026-01-21 02:11:32.16	209.56	18.12	-37.3	-39.1	15.8	0.00e+00	0	58	0	3380609024	45	4624
2026-01-21 02:11:36.20	209.45	17.64	-37.4	-39.3	15.7	0.00e+00	0	58	0	3402629120	45	4708
2026-01-21 02:11:40.23	209.34	17.16	-37.5	-39.3	15.6	0.00e+00	0	58	0	3425697792	45	4759
2026-01-21 02:11:44.27	209.23	16.70	-37.6	-39.5	15.5	0.00e+00	0	58	0	3448766464	45	4825
2026-01-21 02:11:48.31	209.13	16.24	-37.7	-39.7	15.3	0.00e+00	0	58	0	3471835136	46	4657
2026-01-21 02:11:52.35	209.03	15.79	-37.9	-39.8	15.1	0.00e+00	0	58	0	3493855232	46	4748
2026-01-21 02:11:56.39	208.93	15.35	-37.9	-39.9	15.0	0.00e+00	0	58	0	3516923904	46	4787
2026-01-21 02:12:00.43	208.84	14.92	-38.0	-40.0	14.8	0.00e+00	0	58	0	3538944000	46	4861
2026-01-21 02:12:04.47	208.74	14.49	-38.1	-40.1	14.8	0.00e+00	0	58	0	3562012672	46	4886
2026-01-21 02:12:08.51	208.66	14.07	-38.1	-40.2	14.7	0.00e+00	0	58	0	3585081344	46	4932
2026-01-21 02:12:12.54	208.57	13.66	-38.2	-40.3	14.5	0.00e+00	0	58	0	3607101440	47	4727
2026-01-21 02:12:16.58	208.49	13.25	-38.2	-40.2	14.6	1.10e-06	0	58	0	3630170112	47	4658
2026-01-21 02:12:20.61	208.41	12.86	-38.2	-40.2	14.5	0.00e+00	0	58	0	3653238784	47	4678
2026-01-21 02:12:24.65	208.33	12.46	-38.2	-40.2	14.4	5.70e-06	0	58	0	3675258880	47	4682
2026-01-21 02:12:28.69	208.25	12.08	-38.3	-40.4	14.3	1.10e-06	0	58	0	3698327552	47	4781
2026-01-21 02:12:32.73	208.18	11.70	-38.4	-40.5	14.1	1.10e-06	0	58	0	3721396224	47	4869
2026-01-21 02:12:36.77	208.11	11.32	-38.4	-40.5	14.2	2.20e-06	0	58	0	3743416320	47	4831
2026-01-21 02:12:40.81	208.04	10.96	-38.5	-40.7	13.9	3.40e-06	0	58	0	3766484992	47	4948
2026-01-21 02:12:44.86	207.97	10.59	-38.6	-40.8	13.7	1.60e-05	0	58	0	3789553664	47	5032
2026-01-21 02:12:48.89	207.91	10.23	-38.7	-40.9	13.7	1.25e-05	0	58	0	3811573760	48	4811
2026-01-21 02:12:52.93	207.84	9.88	-38.9	-41.1	13.5	1.83e-05	0	58	0	3834642432	48	4905
2026-01-21 02:12:56.97	207.78	9.53	-39.0	-41.3	13.3	4.92e-05	0	58	0	3857711104	48	5023
2026-01-21 02:13:01.01	207.72	9.19	-39.0	-41.3	13.2	3.31e-05	0	58	0	3879731200	48	5041
2026-01-21 02:13:05.05	207.66	8.85	-39.1	-41.5	13.0	6.63e-05	0	58	0	3902799872	48	5122
2026-01-21 02:13:09.09	207.61	8.52	-39.2	-41.7	12.8	1.01e-04	0	58	0	3925868544	49	4939
2026-01-21 02:13:13.13	207.55	8.19	-39.3	-41.8	12.6	1.40e-04	0	58	0	3947888640	49	5016
2026-01-21 02:13:17.17	207.50	7.86	-44.8	-56.6	3.8	8.46e-01	0	58	104	3963617280	60	14556
2026-01-21 02:13:21.22	207.45	7.54	-45.3	-57.1	3.8	8.45e-01	0	58	104	3963617280	61	14659
2026-01-21 02:13:25.26	207.39	7.22	-45.3	-57.1	3.8	8.47e-01	0	58	104	3963617280	61	14667
2026-01-21 02:13:29.30	207.34	6.91	-45.3	-57.0	3.8	8.46e-01	0	58	104	3963617280	61	14489
2026-01-21 02:13:33.35	207.30	6.60	-45.3	-57.0	3.8	8.46e-01	0	58	104	3963617280	61	14428
2026-01-21 02:13:37.39	207.25	6.29	-45.3	-57.0	3.8	8.47e-01	0	58	104	3963617280	61	14458
2026-01-21 02:13:41.43	207.20	5.99	-45.2	-57.0	3.8	8.47e-01	0	58	104	3963617280	61	14398
2026-01-21 02:13:45.47	207.16	5.69	-45.2	-57.0	3.8	8.45e-01	0	58	104	3963617280	61	14389
2026-01-21 02:13:49.51	207.11	5.40	-45.2	-56.9	3.8	8.46e-01	0	58	104	3963617280	61	14332
2026-01-21 02:13:53.56	207.07	5.10	-45.2	-57.0	3.8	8.46e-01	0	58	104	3963617280	61	14427
2026-01-21 02:13:57.60	207.03	4.81	-45.2	-56.9	3.8	8.46e-01	0	58	104	3963617280	61	14277
2026-01-21 02:14:01.64	206.99	4.53	-45.2	-56.9	3.8	8.47e-01	0	59	104	3963617280	61	14276
2026-01-21 02:14:05.68	206.95	4.25	-45.2	-56.9	3.8	8.45e-01	0	58	104	3963617280	61	14352
2026-01-21 02:14:09.73	206.91	3.96	-45.2	-56.9	3.8	8.46e-01	0	59	104	3963617280	61	14362
2026-01-21 02:14:13.77	206.87	3.69	-45.2	-56.9	3.8	8.46e-01	0	58	104	3963617280	61	14343
2026-01-21 02:14:17.81	206.83	3.41	-45.2	-56.9	3.8	8.47e-01	0	58	104	3963617280	61	14266
2026-01-21 02:14:21.85	206.80	3.14	-45.2	-56.9	3.8	8.46e-01	0	58	104	3963617280	61	14344
2026-01-21 02:14:25.89	206.76	2.87	-45.2	-56.9	3.8	8.45e-01	0	59	104	3963617280	61	14275
2026-01-21 02:14:29.93	206.73	2.61	-45.2	-56.9	3.8	8.46e-01	0	58	104	3963617280	61	14257
2026-01-21 02:14:33.98	206.69	2.34	-45.2	-57.0	3.8	8.46e-01	0	58	104	3963617280	61	14387
2026-01-21 02:14:38.02	206.66	2.08	-45.2	-56.9	3.8	8.45e-01	0	58	104	3963617280	61	14259

#Closed at: 2026-01-21 02:14:41
#Recorded file [3963 MB]: D:/lorett/data/31039_260121_050017.dat