passes_logs/2026/01/21/R2.0S_Moscow/R2.0S_Moscow__20260121_151520_FENGYUN_3E_rec.log

#Pass ID: 20260121_151520_FENGYUN 3E
#Satellite: FENGYUN 3E
#Configuration: FENGYUN 3E
#almurnet v.1.7.20251203
#Start time: 2026-01-21 15:15:20

#Version: 2.2.20231116
#Station: R2.0S_Moscow
#Location: 37.707566 lon 55.798166 lat
#TLE: 1 49008U 21062A   26020.99547197  .00000101  00000+0  68509-4 0  9996
#TLE: 2 49008  98.7483  26.0531 0002292 127.4634 232.6751 14.19886023235694

#Time	Az	El	Level	Level2	SNR	BER	BlckErr	Temp	State	Recorded	gain1	gain2
2026-01-21 15:15:20.90	191.96	2.01	-44.1	-55.2	3.8	8.47e-01	0	49	0	0	59	12384
2026-01-21 15:15:24.94	192.16	2.26	-44.1	-55.2	3.8	8.47e-01	0	50	104	0	59	12386
2026-01-21 15:15:28.99	192.37	2.50	-44.1	-55.1	3.8	8.46e-01	0	50	104	0	59	12312
2026-01-21 15:15:33.03	192.58	2.75	-44.1	-55.2	3.8	8.46e-01	0	50	104	0	59	12389
2026-01-21 15:15:37.07	192.79	3.00	-44.1	-55.1	3.8	8.46e-01	0	51	104	0	59	12341
2026-01-21 15:15:41.11	193.01	3.25	-44.1	-55.2	3.8	8.46e-01	0	51	104	0	59	12392
2026-01-21 15:15:45.15	193.23	3.50	-44.1	-55.1	3.8	8.46e-01	0	51	104	0	59	12324
2026-01-21 15:15:49.19	193.45	3.76	-44.1	-55.2	3.8	8.46e-01	0	51	104	0	59	12381
2026-01-21 15:15:53.23	193.68	4.01	-44.1	-55.1	3.8	8.47e-01	0	52	104	0	59	12351
2026-01-21 15:15:57.28	193.91	4.27	-44.1	-55.2	3.8	8.46e-01	0	52	104	0	59	12377
2026-01-21 15:16:01.32	194.15	4.53	-44.1	-55.1	3.8	8.48e-01	0	52	104	0	59	12260
2026-01-21 15:16:05.36	194.39	4.80	-44.1	-54.9	3.8	8.45e-01	0	52	104	0	59	12037
2026-01-21 15:16:09.40	194.63	5.06	-44.1	-54.7	3.8	8.47e-01	0	53	104	0	59	11793
2026-01-21 15:16:13.45	194.88	5.33	-44.0	-54.1	3.8	8.45e-01	0	53	104	0	59	11004
2026-01-21 15:16:17.49	195.13	5.60	-43.8	-52.7	4.0	8.44e-01	0	53	104	0	58	9858
2026-01-21 15:16:21.53	195.39	5.88	-43.3	-50.6	4.5	8.24e-01	0	53	0	0	57	8233
2026-01-21 15:16:25.56	195.65	6.15	-42.8	-48.8	5.5	7.19e-01	0	54	0	0	56	7043
2026-01-21 15:16:29.60	195.92	6.43	-42.2	-47.4	6.4	2.72e-01	0	54	0	26214400	55	6381
2026-01-21 15:16:33.64	196.19	6.71	-42.3	-47.8	6.0	3.60e-01	0	54	0	54525952	55	6718
2026-01-21 15:16:37.68	196.46	6.99	-42.2	-47.3	6.4	2.62e-01	0	54	0	83886080	55	6338
2026-01-21 15:16:41.71	196.74	7.27	-40.7	-44.3	9.4	2.09e-02	0	54	0	113246208	52	5287
2026-01-21 15:16:45.75	197.03	7.56	-39.1	-41.8	12.0	5.39e-04	0	55	0	142606336	49	4723
2026-01-21 15:16:49.78	197.32	7.85	-38.6	-41.0	12.8	9.38e-05	0	55	0	171966464	48	4588
2026-01-21 15:16:53.82	197.62	8.14	-43.0	-50.0	4.6	9.51e-02	0	55	0	200278016	55	8649
2026-01-21 15:16:57.86	197.92	8.44	-38.5	-40.9	13.0	1.09e-03	0	55	0	222298112	48	4531
2026-01-21 15:17:01.90	198.23	8.74	-38.3	-40.7	13.1	2.51e-05	0	55	0	251658240	47	4660
2026-01-21 15:17:05.94	198.55	9.04	-38.0	-40.3	13.6	1.48e-05	0	55	0	279969792	47	4473
2026-01-21 15:17:09.98	198.87	9.35	-38.0	-40.3	13.6	8.00e-06	0	55	0	309329920	46	4733
2026-01-21 15:17:14.02	199.20	9.65	-38.0	-40.2	13.7	3.40e-06	0	56	0	338690048	46	4675
2026-01-21 15:17:18.06	199.54	9.96	-37.9	-40.1	13.9	2.20e-06	0	55	0	368050176	46	4619
2026-01-21 15:17:22.10	199.88	10.28	-37.8	-40.0	14.0	3.40e-06	0	56	0	397410304	46	4575
2026-01-21 15:17:26.13	200.23	10.59	-37.9	-40.1	13.9	6.80e-06	0	56	0	425721856	46	4645
2026-01-21 15:17:30.17	200.59	10.91	-37.8	-40.0	14.1	4.50e-06	0	56	0	455081984	46	4558
2026-01-21 15:17:34.21	200.95	11.24	-37.9	-40.1	14.0	2.20e-06	0	56	0	484442112	46	4622
2026-01-21 15:17:38.25	201.32	11.56	-37.9	-40.0	14.2	2.20e-06	0	56	0	513802240	46	4563
2026-01-21 15:17:42.28	201.70	11.89	-37.9	-40.0	14.2	1.10e-06	0	56	0	542113792	46	4597
2026-01-21 15:17:46.32	202.09	12.23	-37.9	-40.0	14.2	0.00e+00	0	56	0	571473920	46	4569
2026-01-21 15:17:50.36	202.49	12.56	-37.8	-39.9	14.4	0.00e+00	0	56	0	600834048	46	4503
2026-01-21 15:17:54.40	202.90	12.90	-37.6	-39.6	14.8	1.10e-06	0	56	0	630194176	46	4367
2026-01-21 15:17:58.44	203.31	13.25	-37.6	-39.5	14.8	0.00e+00	0	56	0	659554304	46	4319
2026-01-21 15:18:02.48	203.74	13.60	-37.4	-39.3	15.1	0.00e+00	0	56	0	688914432	45	4455
2026-01-21 15:18:06.52	204.17	13.95	-37.4	-39.4	15.0	0.00e+00	0	56	0	717225984	45	4520
2026-01-21 15:18:10.56	204.62	14.30	-37.4	-39.4	15.0	0.00e+00	0	57	0	746586112	45	4506
2026-01-21 15:18:14.60	205.07	14.66	-37.2	-39.1	15.3	0.00e+00	0	57	0	775946240	45	4381
2026-01-21 15:18:18.65	205.54	15.02	-37.2	-39.2	15.3	0.00e+00	0	57	0	805306368	45	4408
2026-01-21 15:18:22.69	206.02	15.39	-37.0	-39.0	15.4	0.00e+00	0	57	0	834666496	44	4587
2026-01-21 15:18:26.73	206.51	15.76	-37.1	-39.1	15.3	0.00e+00	0	57	0	862978048	44	4637
2026-01-21 15:18:30.77	207.01	16.13	-36.8	-38.8	15.6	0.00e+00	0	57	0	892338176	44	4470
2026-01-21 15:18:34.82	207.52	16.51	-36.8	-38.7	15.7	0.00e+00	0	57	0	921698304	44	4433
2026-01-21 15:18:38.85	208.04	16.89	-36.6	-38.6	15.9	0.00e+00	0	57	0	951058432	44	4348
2026-01-21 15:18:42.89	208.58	17.27	-36.3	-38.2	16.1	0.00e+00	0	57	0	980418560	43	4393
2026-01-21 15:18:46.93	209.14	17.66	-36.3	-38.1	16.2	0.00e+00	0	57	0	1009778688	43	4378
2026-01-21 15:18:50.97	209.70	18.05	-36.3	-38.2	16.1	0.00e+00	0	57	0	1038090240	43	4394
2026-01-21 15:18:55.01	210.28	18.44	-36.4	-38.2	16.1	0.00e+00	0	57	0	1067450368	43	4439
2026-01-21 15:18:59.04	210.88	18.84	-36.2	-38.0	16.3	0.00e+00	0	57	0	1096810496	43	4310
2026-01-21 15:19:03.08	211.49	19.24	-36.1	-37.9	16.5	0.00e+00	0	57	0	1126170624	43	4252
2026-01-21 15:19:07.13	212.12	19.65	-36.0	-37.7	16.7	0.00e+00	0	57	0	1155530752	42	4411
2026-01-21 15:19:11.17	212.76	20.06	-35.8	-37.5	16.9	0.00e+00	0	57	0	1183842304	42	4314
2026-01-21 15:19:15.21	213.42	20.47	-35.9	-37.6	16.8	0.00e+00	0	58	0	1213202432	42	4373
2026-01-21 15:19:19.25	214.10	20.88	-35.9	-37.7	16.7	0.00e+00	0	58	0	1242562560	42	4406
2026-01-21 15:19:23.30	214.80	21.30	-35.8	-37.6	16.8	0.00e+00	0	58	0	1271922688	42	4374
2026-01-21 15:19:27.34	215.51	21.72	-35.8	-37.6	16.8	0.00e+00	0	58	0	1301282816	42	4357
2026-01-21 15:19:31.38	216.24	22.14	-35.7	-37.4	17.0	0.00e+00	0	58	0	1330642944	42	4259
2026-01-21 15:19:35.41	217.00	22.56	-35.5	-37.2	17.2	0.00e+00	0	58	0	1358954496	42	4190
2026-01-21 15:19:39.45	217.77	22.99	-35.4	-37.1	17.3	0.00e+00	0	58	0	1388314624	41	4352
2026-01-21 15:19:43.49	218.56	23.42	-35.2	-36.8	17.5	0.00e+00	0	58	0	1417674752	41	4229
2026-01-21 15:19:47.53	219.38	23.85	-35.3	-37.0	17.4	0.00e+00	0	58	0	1447034880	41	4303
2026-01-21 15:19:51.57	220.22	24.28	-35.4	-37.2	17.3	0.00e+00	0	58	0	1476395008	41	4396
2026-01-21 15:19:55.61	221.08	24.71	-35.3	-37.0	17.4	0.00e+00	0	58	0	1504706560	41	4307
2026-01-21 15:19:59.65	221.96	25.14	-35.4	-37.1	17.3	0.00e+00	0	58	0	1534066688	41	4385
2026-01-21 15:20:03.69	222.87	25.57	-35.4	-37.1	17.4	0.00e+00	0	58	0	1563426816	41	4341
2026-01-21 15:20:07.73	223.80	26.00	-35.2	-36.8	17.7	0.00e+00	0	58	0	1592786944	41	4213
2026-01-21 15:20:11.77	224.76	26.43	-35.1	-36.7	17.7	0.00e+00	0	58	0	1622147072	41	4174
2026-01-21 15:20:15.81	225.75	26.85	-35.0	-36.6	17.8	0.00e+00	0	58	0	1651507200	40	4377
2026-01-21 15:20:19.85	226.76	27.28	-35.0	-36.7	17.8	0.00e+00	0	58	0	1679818752	40	4395
2026-01-21 15:20:23.89	227.79	27.70	-35.0	-36.6	17.9	0.00e+00	0	58	0	1709178880	40	4374
2026-01-21 15:20:27.93	228.85	28.12	-35.1	-36.8	17.7	0.00e+00	0	58	0	1738539008	40	4452
2026-01-21 15:20:31.97	229.94	28.53	-34.8	-36.4	18.0	0.00e+00	0	58	0	1767899136	40	4258
2026-01-21 15:20:36.01	231.06	28.94	-34.7	-36.3	18.1	0.00e+00	0	58	0	1797259264	40	4235
2026-01-21 15:20:40.05	232.21	29.34	-34.9	-36.5	18.0	0.00e+00	0	58	0	1825570816	40	4298
2026-01-21 15:20:44.09	233.38	29.73	-35.0	-36.7	17.8	0.00e+00	0	58	0	1854930944	40	4403
2026-01-21 15:20:48.13	234.59	30.12	-34.8	-36.4	18.0	0.00e+00	0	58	0	1884291072	40	4287
2026-01-21 15:20:52.17	235.82	30.50	-34.8	-36.4	18.0	0.00e+00	0	58	0	1913651200	40	4289
2026-01-21 15:20:56.21	237.07	30.87	-34.7	-36.4	18.0	0.00e+00	0	59	0	1943011328	40	4264
2026-01-21 15:21:00.25	238.36	31.23	-34.7	-36.3	18.1	0.00e+00	0	58	0	1972371456	40	4224
2026-01-21 15:21:04.29	239.68	31.57	-34.8	-36.4	18.0	0.00e+00	0	58	0	2000683008	40	4259
2026-01-21 15:21:08.33	241.02	31.91	-34.9	-36.5	17.9	0.00e+00	0	58	0	2030043136	40	4331
2026-01-21 15:21:12.37	242.39	32.22	-34.9	-36.5	18.0	0.00e+00	0	58	0	2059403264	40	4321
2026-01-21 15:21:16.40	243.78	32.53	-34.6	-36.2	18.3	0.00e+00	0	59	0	2088763392	40	4180
2026-01-21 15:21:20.44	245.20	32.82	-34.9	-36.6	17.8	0.00e+00	0	58	0	2117074944	40	4389
2026-01-21 15:21:24.48	246.64	33.09	-34.8	-36.4	18.1	0.00e+00	0	59	0	2146435072	40	4281
2026-01-21 15:21:28.52	248.11	33.34	-34.7	-36.3	18.2	0.00e+00	0	58	0	2175795200	40	4195
2026-01-21 15:21:32.56	249.60	33.58	-34.6	-36.1	18.4	0.00e+00	0	58	0	2205155328	39	4378
2026-01-21 15:21:36.59	251.10	33.79	-34.9	-36.6	18.0	0.00e+00	0	58	0	2233466880	39	4604
2026-01-21 15:21:40.63	252.63	33.99	-35.0	-36.6	17.9	0.00e+00	0	58	0	2262827008	39	4648
2026-01-21 15:21:44.66	254.17	34.16	-34.8	-36.4	18.1	0.00e+00	0	59	0	2292187136	39	4537
2026-01-21 15:21:48.70	255.73	34.31	-34.5	-36.0	18.5	0.00e+00	0	59	0	2321547264	39	4321
2026-01-21 15:21:52.75	257.31	34.44	-34.9	-36.5	18.2	0.00e+00	0	59	0	2350907392	39	4564
2026-01-21 15:21:56.79	258.90	34.54	-35.3	-36.4	18.6	0.00e+00	0	59	0	2380267520	40	4270
2026-01-21 15:22:00.82	260.48	34.62	-35.6	-36.7	18.3	0.00e+00	0	59	0	2408579072	40	4440
2026-01-21 15:22:04.86	262.08	34.68	-35.3	-36.4	18.6	0.00e+00	0	59	0	2437939200	40	4281
2026-01-21 15:22:08.90	263.69	34.71	-35.4	-36.6	18.4	0.00e+00	0	59	0	2467299328	40	4350
2026-01-21 15:22:12.94	265.29	34.72	-35.2	-36.4	18.6	0.00e+00	0	59	0	2496659456	40	4256
2026-01-21 15:22:16.97	266.89	34.70	-35.3	-36.5	18.6	0.00e+00	0	59	0	2526019584	40	4295
2026-01-21 15:22:21.01	268.49	34.66	-35.2	-36.4	18.6	0.00e+00	0	59	0	2554331136	40	4255
2026-01-21 15:22:25.05	270.09	34.60	-35.2	-36.4	18.6	0.00e+00	0	59	0	2583691264	40	4253
2026-01-21 15:22:29.09	271.68	34.51	-35.3	-36.5	18.5	0.00e+00	0	59	0	2613051392	40	4299
2026-01-21 15:22:33.13	273.26	34.39	-35.4	-36.6	18.4	0.00e+00	0	59	0	2642411520	40	4366
2026-01-21 15:22:37.18	274.83	34.25	-35.1	-36.2	18.8	0.00e+00	0	59	0	2671771648	40	4162
2026-01-21 15:22:41.22	276.38	34.09	-35.3	-36.5	18.6	0.00e+00	0	59	0	2701131776	40	4298
2026-01-21 15:22:45.26	277.92	33.91	-35.3	-36.4	18.6	0.00e+00	0	59	0	2729443328	40	4258
2026-01-21 15:22:49.30	279.43	33.71	-35.3	-36.5	18.5	0.00e+00	0	59	0	2758803456	40	4312
2026-01-21 15:22:53.33	280.93	33.49	-35.3	-36.4	18.6	0.00e+00	0	59	0	2788163584	40	4260
2026-01-21 15:22:57.37	282.41	33.25	-35.3	-36.4	18.6	0.00e+00	0	58	0	2817523712	40	4268
2026-01-21 15:23:01.41	283.86	32.99	-35.2	-36.3	18.7	0.00e+00	0	59	0	2846883840	40	4218
2026-01-21 15:23:05.45	285.29	32.71	-35.3	-36.5	18.5	0.00e+00	0	59	0	2875195392	40	4311
2026-01-21 15:23:09.49	286.70	32.42	-35.3	-36.4	18.6	0.00e+00	0	58	0	2904555520	40	4260
2026-01-21 15:23:13.52	288.08	32.11	-35.4	-36.5	18.5	0.00e+00	0	59	0	2933915648	40	4334
2026-01-21 15:23:17.56	289.43	31.78	-35.3	-36.5	18.5	0.00e+00	0	58	0	2963275776	40	4321
2026-01-21 15:23:21.60	290.76	31.45	-35.6	-36.8	18.2	0.00e+00	0	59	0	2992635904	40	4461
2026-01-21 15:23:25.63	292.06	31.10	-35.6	-36.8	18.2	0.00e+00	0	59	0	3020947456	41	4201
2026-01-21 15:23:29.67	293.33	30.74	-35.5	-36.7	18.3	0.00e+00	0	59	0	3050307584	41	4155
2026-01-21 15:23:33.71	294.57	30.37	-35.4	-36.5	18.4	0.00e+00	0	59	0	3079667712	41	4086
2026-01-21 15:23:37.75	295.79	29.99	-35.1	-36.2	18.7	0.00e+00	0	59	0	3109027840	41	3954
2026-01-21 15:23:41.79	296.97	29.60	-35.4	-36.6	18.3	0.00e+00	0	59	0	3137339392	41	4110
2026-01-21 15:23:45.83	298.13	29.21	-35.7	-36.9	18.0	0.00e+00	0	59	0	3166699520	41	4269
2026-01-21 15:23:49.86	299.26	28.80	-35.6	-36.8	18.1	0.00e+00	0	59	0	3196059648	41	4231
2026-01-21 15:23:53.90	300.37	28.40	-35.4	-36.6	18.3	0.00e+00	0	59	0	3225419776	41	4126
2026-01-21 15:23:57.94	301.44	27.98	-35.6	-36.8	18.1	0.00e+00	0	59	0	3254779904	41	4197
2026-01-21 15:24:01.96	302.49	27.57	-35.6	-36.7	18.1	0.00e+00	0	59	0	3283091456	41	4193
2026-01-21 15:24:06.00	303.51	27.15	-35.4	-36.5	18.3	0.00e+00	0	59	0	3312451584	41	4098
2026-01-21 15:24:10.04	304.51	26.73	-35.5	-36.6	18.2	0.00e+00	0	59	0	3341811712	41	4137
2026-01-21 15:24:14.08	305.48	26.30	-35.7	-36.9	17.9	0.00e+00	0	58	0	3371171840	41	4271
2026-01-21 15:24:18.11	306.42	25.88	-35.8	-37.0	17.8	0.00e+00	0	59	0	3400531968	41	4334
2026-01-21 15:24:22.15	307.34	25.45	-35.6	-36.8	18.0	0.00e+00	0	59	0	3428843520	41	4236
2026-01-21 15:24:26.20	308.24	25.02	-35.7	-36.9	17.9	0.00e+00	0	59	0	3458203648	41	4255
2026-01-21 15:24:30.24	309.11	24.59	-36.0	-37.2	17.6	0.00e+00	0	59	0	3487563776	41	4438
2026-01-21 15:24:34.28	309.96	24.17	-35.9	-37.2	17.6	0.00e+00	0	59	0	3516923904	41	4417
2026-01-21 15:24:38.32	310.79	23.74	-35.9	-37.1	17.7	0.00e+00	0	59	0	3546284032	41	4371
2026-01-21 15:24:42.36	311.60	23.31	-36.0	-37.3	17.5	0.00e+00	0	59	0	3575644160	41	4445
2026-01-21 15:24:46.40	312.38	22.89	-36.3	-37.6	17.1	0.00e+00	0	59	0	3603955712	42	4388
2026-01-21 15:24:50.44	313.15	22.47	-36.3	-37.5	17.2	0.00e+00	0	59	0	3633315840	42	4334
2026-01-21 15:24:54.48	313.89	22.05	-36.1	-37.3	17.4	0.00e+00	0	59	0	3662675968	42	4242
2026-01-21 15:24:58.52	314.62	21.63	-36.2	-37.5	17.3	0.00e+00	0	59	0	3692036096	42	4298
2026-01-21 15:25:02.57	315.32	21.21	-36.3	-37.6	17.1	0.00e+00	0	59	0	3721396224	42	4391
2026-01-21 15:25:06.61	316.01	20.80	-36.5	-37.9	16.9	0.00e+00	0	59	0	3749707776	42	4511
2026-01-21 15:25:10.65	316.68	20.39	-36.5	-37.9	16.8	0.00e+00	0	59	0	3779067904	42	4506
2026-01-21 15:25:14.68	317.33	19.98	-36.3	-37.6	17.1	0.00e+00	0	59	0	3808428032	42	4379
2026-01-21 15:25:18.72	317.97	19.58	-36.4	-37.7	17.0	0.00e+00	0	59	0	3837788160	42	4423
2026-01-21 15:25:22.76	318.59	19.18	-36.7	-38.0	16.6	0.00e+00	0	59	0	3867148288	42	4597
2026-01-21 15:25:26.80	319.20	18.78	-36.7	-38.1	16.5	0.00e+00	0	58	0	3896508416	43	4374
2026-01-21 15:25:30.84	319.79	18.39	-36.9	-38.3	16.4	0.00e+00	0	59	0	3924819968	43	4442
2026-01-21 15:25:34.88	320.36	18.00	-37.0	-38.4	16.2	0.00e+00	0	59	0	3954180096	43	4519
2026-01-21 15:25:38.92	320.92	17.61	-36.9	-38.4	16.2	0.00e+00	0	59	0	3983540224	43	4499
2026-01-21 15:25:42.96	321.47	17.23	-36.9	-38.3	16.3	0.00e+00	0	59	0	4012900352	43	4455
2026-01-21 15:25:47.00	322.00	16.85	-36.9	-38.3	16.2	0.00e+00	0	59	0	4042260480	43	4474
2026-01-21 15:25:51.04	322.53	16.47	-37.1	-38.6	15.9	0.00e+00	0	59	0	4070572032	43	4641
2026-01-21 15:25:55.09	323.04	16.10	-37.5	-39.0	15.7	0.00e+00	0	59	0	4099932160	44	4582
2026-01-21 15:25:59.12	323.53	15.73	-37.4	-38.9	15.8	0.00e+00	0	59	0	4129292288	44	4535
2026-01-21 15:26:03.16	324.02	15.37	-37.4	-38.9	15.8	0.00e+00	0	59	0	4158652416	44	4509
2026-01-21 15:26:07.20	324.49	15.01	-37.5	-39.1	15.6	1.10e-06	0	59	0	4188012544	44	4618
2026-01-21 15:26:11.24	324.95	14.65	-37.8	-39.4	15.3	0.00e+00	0	59	0	4216324096	45	4500
2026-01-21 15:26:15.28	325.41	14.29	-37.9	-39.5	15.1	0.00e+00	0	59	0	4245684224	45	4558
2026-01-21 15:26:19.32	325.85	13.94	-38.0	-39.7	14.9	0.00e+00	0	59	0	4275044352	45	4668
2026-01-21 15:26:23.36	326.28	13.60	-38.0	-39.7	14.8	0.00e+00	0	59	0	4304404480	45	4693
2026-01-21 15:26:27.40	326.71	13.25	-38.1	-39.8	14.8	1.10e-06	0	59	0	4333764608	45	4711
2026-01-21 15:26:31.43	327.12	12.91	-37.9	-39.6	14.9	0.00e+00	0	59	0	4362076160	45	4631
2026-01-21 15:26:35.48	327.53	12.57	-38.1	-39.8	14.6	1.10e-06	0	59	0	4391436288	45	4758
2026-01-21 15:26:39.52	327.92	12.24	-38.3	-40.1	14.4	3.40e-06	0	59	0	4420796416	46	4611
2026-01-21 15:26:43.56	328.31	11.91	-38.3	-40.1	14.3	3.40e-06	0	59	0	4450156544	46	4620
2026-01-21 15:26:47.59	328.69	11.59	-38.4	-40.2	14.2	2.20e-06	0	59	0	4478468096	46	4696
2026-01-21 15:26:51.63	329.06	11.26	-38.5	-40.3	14.0	2.20e-06	0	59	0	4507828224	46	4729
2026-01-21 15:26:55.67	329.42	10.94	-38.5	-40.4	14.0	0.00e+00	0	59	0	4537188352	46	4768
2026-01-21 15:26:59.71	329.78	10.63	-38.5	-40.4	13.8	4.50e-06	0	59	0	4566548480	46	4804
2026-01-21 15:27:03.75	330.13	10.31	-38.6	-40.5	13.8	4.50e-06	0	59	0	4595908608	46	4819
2026-01-21 15:27:07.79	330.47	10.00	-38.5	-40.4	13.8	4.50e-06	0	59	0	4624220160	46	4789
2026-01-21 15:27:11.83	330.81	9.69	-38.7	-40.6	13.5	1.48e-05	0	59	0	4653580288	46	4923
2026-01-21 15:27:15.86	331.14	9.39	-38.7	-40.7	13.4	2.28e-05	0	59	0	4682940416	47	4695
2026-01-21 15:27:19.90	331.46	9.09	-38.7	-40.7	13.3	1.37e-05	0	59	0	4712300544	47	4663
2026-01-21 15:27:23.94	331.78	8.79	-38.7	-40.7	13.3	2.28e-05	0	59	0	4741660672	47	4668
2026-01-21 15:27:27.98	332.09	8.49	-38.7	-40.7	13.2	2.86e-05	0	59	0	4771020800	47	4672
2026-01-21 15:27:32.02	332.39	8.20	-38.9	-41.0	12.8	5.37e-05	0	59	0	4799332352	47	4840
2026-01-21 15:27:36.06	332.69	7.91	-44.9	-55.9	3.8	8.46e-01	0	59	104	4818206720	59	13483
2026-01-21 15:27:40.10	332.98	7.62	-45.5	-56.8	3.8	8.45e-01	0	59	104	4818206720	60	14174
2026-01-21 15:27:44.15	333.27	7.34	-45.6	-56.9	3.8	8.44e-01	0	59	104	4818206720	60	14266
2026-01-21 15:27:48.19	333.56	7.06	-45.5	-56.9	3.8	8.47e-01	0	59	104	4818206720	60	14252
2026-01-21 15:27:52.22	333.83	6.78	-45.5	-56.9	3.8	8.47e-01	0	59	104	4818206720	60	14233
2026-01-21 15:27:56.26	334.11	6.50	-45.5	-56.8	3.8	8.46e-01	0	59	104	4818206720	60	14139
2026-01-21 15:28:00.30	334.37	6.22	-45.4	-56.8	3.8	8.46e-01	0	59	104	4818206720	60	14133
2026-01-21 15:28:04.34	334.64	5.95	-45.4	-56.8	3.8	8.47e-01	0	59	104	4818206720	60	14057
2026-01-21 15:28:08.38	334.90	5.68	-45.4	-56.8	3.8	8.46e-01	0	59	104	4818206720	60	14062
2026-01-21 15:28:12.42	335.15	5.41	-45.4	-56.8	3.8	8.47e-01	0	59	104	4818206720	60	14093
2026-01-21 15:28:16.47	335.40	5.15	-45.4	-56.8	3.8	8.45e-01	0	59	104	4818206720	60	14078
2026-01-21 15:28:20.51	335.65	4.89	-45.4	-56.8	3.8	8.46e-01	0	59	104	4818206720	60	14083
2026-01-21 15:28:24.55	335.89	4.62	-45.4	-56.8	3.8	8.45e-01	0	59	104	4818206720	60	14064
2026-01-21 15:28:28.59	336.13	4.37	-45.4	-56.8	3.8	8.47e-01	0	59	104	4818206720	60	14068
2026-01-21 15:28:32.62	336.36	4.11	-45.4	-56.7	3.8	8.47e-01	0	59	104	4818206720	60	14035
2026-01-21 15:28:36.66	336.59	3.86	-45.4	-56.8	3.8	8.46e-01	0	59	104	4818206720	60	14087
2026-01-21 15:28:40.71	336.82	3.60	-45.4	-56.8	3.8	8.46e-01	0	59	104	4818206720	60	14056
2026-01-21 15:28:44.75	337.04	3.35	-45.4	-56.7	3.8	8.47e-01	0	59	104	4818206720	60	14025
2026-01-21 15:28:48.79	337.26	3.10	-45.4	-56.8	3.8	8.46e-01	0	59	104	4818206720	60	14081
2026-01-21 15:28:52.83	337.48	2.86	-45.4	-56.7	3.8	8.46e-01	0	59	104	4818206720	60	14009
2026-01-21 15:28:56.86	337.69	2.61	-45.4	-56.8	3.8	8.47e-01	0	60	104	4818206720	60	14097
2026-01-21 15:29:00.90	337.90	2.37	-45.4	-56.7	3.8	8.47e-01	0	59	104	4818206720	60	14019
2026-01-21 15:29:04.94	338.11	2.13	-45.4	-56.7	3.8	8.46e-01	0	59	104	4818206720	60	14046

#Closed at: 2026-01-21 15:29:08
#Recorded file [4818 MB]: D:/lorett/data/31039_260121_181520.dat