passes_logs/2026/01/21/R2.0S_Moscow/R2.0S_Moscow__20260121_091255_SUOMI_NPP_rec.log

#Pass ID: 20260121_091255_SUOMI NPP
#Satellite: SUOMI NPP
#Configuration: NPP
#almurnet v.1.7.20251203
#Start time: 2026-01-21 09:12:57

#Version: 2.2.20231116
#Station: R2.0S_Moscow
#Location: 37.707566 lon 55.798166 lat
#TLE: 1 37849U 11061A   26020.31993517  .00000142  00000+0  88240-4 0  9990
#TLE: 2 37849  98.7818 322.3228 0002330  54.3778 305.7615 14.19527005737466

#Time	Az	El	Level	Level2	SNR	BER	BlckErr	Temp	State	Recorded	gain1	gain2
2026-01-21 09:12:57.44	137.78	2.14	-20.9	-38.7	3.9	1.51e+00	0	51	0	0	7	39151
2026-01-21 09:13:01.47	137.65	2.40	-17.4	-39.3	3.8	1.51e+00	0	52	104	0	7	42162
2026-01-21 09:13:05.52	137.51	2.66	-18.1	-32.3	3.7	1.51e+00	0	52	104	0	8	17757
2026-01-21 09:13:09.56	137.38	2.92	-19.4	-35.6	3.9	1.51e+00	0	52	104	0	4	32704
2026-01-21 09:13:13.60	137.24	3.18	-16.5	-36.9	3.6	1.51e+00	0	53	104	0	6	34073
2026-01-21 09:13:17.64	137.10	3.44	-17.1	-36.8	3.9	1.51e+00	0	53	104	0	4	37497
2026-01-21 09:13:21.68	136.96	3.71	-19.4	-37.3	4.1	1.51e+00	0	53	104	0	9	29699
2026-01-21 09:13:25.72	136.81	3.98	-17.5	-38.5	3.7	1.51e+00	0	53	0	0	8	36158
2026-01-21 09:13:29.76	136.66	4.25	-28.8	-47.2	4.0	1.51e+00	0	53	104	0	20	49415
2026-01-21 09:13:33.80	136.51	4.53	-21.7	-44.8	3.8	1.51e+00	0	54	104	0	11	62953
2026-01-21 09:13:37.85	136.36	4.80	-24.0	-44.2	4.0	1.51e+00	0	54	104	0	23	29520
2026-01-21 09:13:41.89	136.20	5.08	-17.1	-38.1	4.8	1.51e+00	0	54	0	0	6	38869
2026-01-21 09:13:45.93	136.04	5.37	-19.5	-35.1	3.9	1.51e+00	0	54	104	0	7	25870
2026-01-21 09:13:49.97	135.87	5.65	-15.7	-29.8	3.8	1.50e+00	0	54	104	0	3	17780
2026-01-21 09:13:54.01	135.70	5.94	-22.9	-41.2	4.3	1.51e+00	0	55	0	0	22	22010
2026-01-21 09:13:58.06	135.53	6.23	-23.7	-42.2	3.7	1.51e+00	0	55	104	0	9	52453
2026-01-21 09:14:02.10	135.35	6.52	-23.8	-37.6	4.2	1.51e+00	0	55	104	0	15	21887
2026-01-21 09:14:06.14	135.18	6.82	-19.7	-37.4	4.0	1.51e+00	0	55	104	0	9	30115
2026-01-21 09:14:10.18	134.99	7.12	-16.8	-32.9	3.6	1.51e+00	0	56	104	0	4	23874
2026-01-21 09:14:14.23	134.80	7.43	-22.2	-42.0	3.9	1.51e+00	0	56	104	0	23	22838
2026-01-21 09:14:18.26	134.61	7.73	-24.2	-41.6	4.0	1.51e+00	0	56	104	0	23	21911
2026-01-21 09:14:22.30	134.42	8.04	-17.1	-34.4	3.8	1.50e+00	0	56	104	0	14	16016
2026-01-21 09:14:26.34	134.22	8.36	-22.0	-39.7	3.7	1.51e+00	0	56	104	0	17	24908
2026-01-21 09:14:30.39	134.01	8.68	-22.6	-33.2	3.7	1.50e+00	0	56	104	0	6	22161
2026-01-21 09:14:34.43	133.80	9.00	-15.9	-30.4	3.7	1.50e+00	0	56	104	0	3	19126
2026-01-21 09:14:38.46	133.59	9.32	-16.4	-31.4	3.6	1.50e+00	0	56	104	0	14	11305
2026-01-21 09:14:42.50	133.37	9.65	-16.1	-26.3	3.6	1.50e+00	0	57	104	0	3	11910
2026-01-21 09:14:46.54	133.14	9.99	-16.2	-30.5	3.5	1.51e+00	0	57	104	0	7	15247
2026-01-21 09:14:50.58	132.91	10.32	-26.9	-38.4	3.9	1.51e+00	0	57	104	0	11	30306
2026-01-21 09:14:54.62	132.68	10.66	-15.9	-30.3	3.6	1.50e+00	0	57	104	0	3	18795
2026-01-21 09:14:58.66	132.44	11.01	-20.8	-37.4	3.9	1.50e+00	0	57	104	0	12	25330
2026-01-21 09:15:02.70	132.19	11.36	-22.7	-38.2	4.0	1.50e+00	0	57	104	0	13	26181
2026-01-21 09:15:06.74	131.93	11.72	-16.8	-28.4	3.7	1.50e+00	0	57	104	0	1	16982
2026-01-21 09:15:10.77	131.67	12.07	-15.5	-29.4	3.9	1.50e+00	0	57	104	0	0	20302
2026-01-21 09:15:14.81	131.41	12.44	-27.5	-40.2	4.3	1.49e+00	0	57	104	0	20	22008
2026-01-21 09:15:18.85	131.13	12.81	-21.0	-38.7	4.0	1.50e+00	0	57	104	0	17	22020
2026-01-21 09:15:22.89	130.85	13.18	-21.2	-37.8	4.0	1.50e+00	0	58	104	0	15	22275
2026-01-21 09:15:26.93	130.56	13.56	-29.6	-44.2	3.9	1.50e+00	0	58	0	0	20	35231
2026-01-21 09:15:30.96	130.27	13.94	-25.3	-38.9	3.6	1.49e+00	0	58	104	0	18	21451
2026-01-21 09:15:35.00	129.96	14.33	-30.3	-44.9	4.4	1.51e+00	0	58	104	0	27	25467
2026-01-21 09:15:39.04	129.65	14.73	-38.5	-50.8	4.6	5.51e-01	0	58	104	1048576	36	29873
2026-01-21 09:15:43.08	129.33	15.13	-32.8	-48.1	4.1	1.12e+00	0	58	104	1048576	35	23082
2026-01-21 09:15:47.12	128.99	15.54	-38.1	-49.7	7.0	4.30e-01	0	58	0	2097152	54	9294
2026-01-21 09:15:51.15	128.65	15.95	-42.2	-47.3	9.5	5.91e-02	0	58	0	10485760	55	6655
2026-01-21 09:15:55.19	128.30	16.37	-42.9	-49.1	8.5	4.69e-02	0	58	0	17825792	56	7796
2026-01-21 09:15:59.22	127.94	16.79	-42.1	-46.9	10.1	2.33e-02	0	58	0	25165824	54	6727
2026-01-21 09:16:03.26	127.57	17.22	-39.9	-47.0	10.3	6.40e-03	0	58	0	32505856	55	6487
2026-01-21 09:16:07.30	127.19	17.66	-42.5	-47.5	10.2	1.54e-02	0	59	0	39845888	55	6867
2026-01-21 09:16:11.34	126.80	18.10	-40.9	-46.6	11.2	1.49e-03	0	59	0	48234496	54	6528
2026-01-21 09:16:15.38	126.39	18.55	-42.3	-47.3	10.6	4.41e-03	0	58	0	55574528	55	6706
2026-01-21 09:16:19.41	125.97	19.01	-42.3	-46.6	11.4	8.94e-04	0	59	0	62914560	55	6194
2026-01-21 09:16:23.45	125.54	19.47	-42.5	-47.1	10.9	1.69e-03	0	59	0	70254592	55	6552
2026-01-21 09:16:27.49	125.10	19.94	-42.4	-46.9	11.1	2.12e-03	0	59	0	78643200	55	6400
2026-01-21 09:16:31.53	124.64	20.42	-42.2	-46.4	11.7	5.23e-04	0	59	0	85983232	55	6039
2026-01-21 09:16:35.57	124.16	20.91	-42.0	-46.0	12.0	2.52e-04	0	59	0	93323264	55	5740
2026-01-21 09:16:39.60	123.67	21.40	-42.4	-46.8	11.2	1.45e-03	0	59	0	100663296	55	6318
2026-01-21 09:16:43.64	123.17	21.90	-42.5	-47.0	11.1	1.10e-03	0	59	0	108003328	55	6433
2026-01-21 09:16:47.68	122.64	22.41	-42.7	-47.2	11.0	3.70e-03	0	59	0	116391936	56	6263
2026-01-21 09:16:51.71	122.10	22.92	-42.8	-47.6	10.7	2.07e-03	0	59	0	123731968	56	6550
2026-01-21 09:16:55.75	121.54	23.45	-42.7	-47.1	11.2	2.63e-03	0	59	0	131072000	56	6169
2026-01-21 09:16:59.79	120.97	23.98	-43.1	-48.1	10.1	5.08e-03	0	59	0	138412032	56	6934
2026-01-21 09:17:03.83	120.37	24.51	-42.6	-46.9	11.5	1.26e-03	0	59	0	146800640	56	6008
2026-01-21 09:17:07.87	119.75	25.06	-42.8	-47.3	11.1	2.28e-03	0	59	0	154140672	56	6328
2026-01-21 09:17:11.91	119.10	25.61	-42.7	-47.2	11.2	7.66e-04	0	59	0	161480704	56	6206
2026-01-21 09:17:15.94	118.44	26.17	-42.8	-47.3	11.1	1.76e-03	0	59	0	168820736	56	6314
2026-01-21 09:17:19.98	117.75	26.74	-42.8	-47.4	11.0	1.56e-03	0	59	0	176160768	56	6362
2026-01-21 09:17:24.01	117.03	27.32	-43.1	-47.9	10.5	2.68e-03	0	59	0	184549376	56	6772
2026-01-21 09:17:28.05	116.29	27.90	-43.1	-47.8	10.6	4.12e-03	0	59	0	191889408	57	6339
2026-01-21 09:17:32.09	115.52	28.49	-43.2	-48.2	10.2	6.63e-03	0	59	0	199229440	57	6646
2026-01-21 09:17:36.13	114.72	29.08	-43.2	-48.1	10.4	5.46e-03	0	60	0	206569472	57	6526
2026-01-21 09:17:40.17	113.89	29.69	-43.5	-48.9	9.6	1.65e-02	0	59	0	214958080	58	6741
2026-01-21 09:17:44.20	113.03	30.29	-43.8	-50.0	8.5	3.93e-02	0	60	0	222298112	58	7640
2026-01-21 09:17:48.24	112.13	30.91	-43.8	-49.9	8.5	3.98e-02	0	60	0	229638144	58	7614
2026-01-21 09:17:52.28	111.20	31.52	-43.9	-50.0	8.4	6.92e-02	0	59	0	236978176	58	7711
2026-01-21 09:17:56.32	110.23	32.15	-44.0	-50.6	7.8	6.54e-02	0	60	0	244318208	58	8238
2026-01-21 09:18:00.36	109.22	32.77	-43.7	-49.5	8.9	2.42e-02	0	60	0	252706816	58	7231
2026-01-21 09:18:04.39	108.18	33.40	-44.3	-51.7	6.8	1.71e-01	0	60	0	260046848	59	8780
2026-01-21 09:18:08.43	107.09	34.03	-43.4	-48.5	9.9	1.41e-02	0	59	0	267386880	58	6446
2026-01-21 09:18:12.47	105.96	34.66	-42.8	-47.0	11.5	6.25e-04	0	60	0	274726912	57	5767
2026-01-21 09:18:16.50	104.79	35.29	-43.3	-48.4	10.1	3.55e-03	0	60	0	283115520	57	6736
2026-01-21 09:18:20.54	103.57	35.91	-43.4	-48.6	9.9	8.20e-03	0	60	0	290455552	57	6954
2026-01-21 09:18:24.57	102.30	36.54	-43.4	-48.7	9.8	1.61e-02	0	60	0	297795584	57	6983
2026-01-21 09:18:28.61	100.98	37.16	-43.4	-48.5	10.1	7.10e-03	0	60	0	305135616	57	6834
2026-01-21 09:18:32.65	99.61	37.77	-43.9	-50.2	8.4	4.80e-02	0	60	0	312475648	58	7809
2026-01-21 09:18:36.68	98.19	38.37	-43.9	-50.0	8.6	3.82e-02	0	60	0	320864256	58	7649
2026-01-21 09:18:40.72	96.72	38.97	-43.6	-49.1	9.5	1.39e-02	0	60	0	328204288	58	6912
2026-01-21 09:18:44.76	95.18	39.55	-42.9	-47.7	11.0	2.84e-03	0	60	0	335544320	57	6209
2026-01-21 09:18:48.80	93.60	40.12	-43.0	-48.0	10.6	2.95e-03	0	60	0	342884352	57	6424
2026-01-21 09:18:52.83	91.96	40.67	-43.0	-47.9	10.5	5.55e-03	0	60	0	350224384	57	6419
2026-01-21 09:18:56.87	90.26	41.20	-42.6	-47.1	11.4	6.28e-04	0	60	0	358612992	57	5829
2026-01-21 09:19:00.91	88.51	41.71	-42.0	-46.0	12.5	4.95e-05	0	60	0	365953024	55	5750
2026-01-21 09:19:04.95	86.70	42.19	-42.5	-47.1	11.3	1.24e-03	0	60	0	373293056	55	6538
2026-01-21 09:19:08.99	84.84	42.65	-42.4	-46.7	11.9	4.68e-04	0	60	0	380633088	56	5914
2026-01-21 09:19:13.03	82.93	43.08	-42.4	-46.7	12.0	2.73e-04	0	60	0	389021696	56	5892
2026-01-21 09:19:17.06	80.97	43.47	-42.7	-47.3	11.4	1.50e-03	0	60	0	396361728	56	6309
2026-01-21 09:19:21.10	78.96	43.83	-42.7	-47.1	11.6	9.05e-04	0	60	0	403701760	56	6150
2026-01-21 09:19:25.14	76.90	44.15	-42.9	-47.6	11.1	1.03e-03	0	60	0	411041792	56	6569
2026-01-21 09:19:29.18	74.81	44.44	-43.3	-48.7	10.0	9.44e-03	0	60	0	418381824	57	6988
2026-01-21 09:19:33.22	72.68	44.68	-42.9	-47.6	11.1	2.22e-03	0	60	0	426770432	57	6140
2026-01-21 09:19:37.25	70.53	44.88	-43.4	-48.9	9.7	3.28e-03	0	60	0	434110464	57	7195
2026-01-21 09:19:41.28	68.36	45.03	-43.5	-49.6	8.9	2.22e-02	0	60	0	441450496	57	7804
2026-01-21 09:19:45.32	66.16	45.14	-43.2	-48.6	10.1	7.65e-03	0	60	0	448790528	58	6513
2026-01-21 09:19:49.36	63.95	45.20	-43.3	-48.9	9.7	1.08e-02	0	60	0	457179136	57	7197
2026-01-21 09:19:53.40	61.73	45.21	-42.9	-47.9	10.9	4.58e-04	0	60	0	464519168	56	6731
2026-01-21 09:19:57.44	59.52	45.18	-43.3	-49.1	9.5	1.48e-02	0	60	0	471859200	57	7290
2026-01-21 09:20:01.47	57.32	45.10	-43.1	-48.5	10.1	7.14e-03	0	60	0	479199232	57	6825
2026-01-21 09:20:05.51	55.13	44.97	-43.4	-49.2	9.4	2.18e-02	0	60	0	486539264	57	7373
2026-01-21 09:20:09.55	52.96	44.79	-42.7	-47.4	11.3	2.60e-03	0	60	0	494927872	57	6011
2026-01-21 09:20:13.59	50.82	44.58	-43.0	-48.3	10.4	5.67e-03	0	60	0	502267904	57	6649
2026-01-21 09:20:17.63	48.71	44.32	-42.6	-47.4	11.2	1.62e-03	0	60	0	509607936	57	6007
2026-01-21 09:20:21.66	46.64	44.02	-42.7	-47.4	11.1	1.39e-03	0	60	0	516947968	57	6053
2026-01-21 09:20:25.70	44.61	43.68	-42.8	-47.8	10.8	1.28e-03	0	60	0	525336576	57	6295
2026-01-21 09:20:29.74	42.62	43.30	-42.0	-45.7	12.9	8.39e-05	0	60	0	532676608	56	5278
2026-01-21 09:20:33.78	40.68	42.89	-43.0	-48.2	10.4	4.59e-03	0	60	0	540016640	56	7018
2026-01-21 09:20:37.81	38.80	42.45	-42.0	-45.8	12.7	6.79e-05	0	60	0	547356672	55	5639
2026-01-21 09:20:41.85	36.97	41.98	-41.4	-44.7	13.8	5.30e-06	0	60	0	554696704	54	5253
2026-01-21 09:20:45.89	35.19	41.49	-40.7	-43.4	15.0	0.00e+00	0	60	0	563085312	53	4799
2026-01-21 09:20:49.93	33.47	40.97	-41.1	-44.2	14.3	7.00e-07	0	60	0	570425344	53	5272
2026-01-21 09:20:53.97	31.80	40.43	-41.1	-44.1	14.3	7.00e-07	0	60	0	577765376	53	5213
2026-01-21 09:20:58.00	30.19	39.88	-42.1	-46.0	12.5	2.05e-05	0	60	0	585105408	54	6096
2026-01-21 09:21:02.04	28.63	39.31	-41.9	-45.6	12.9	5.11e-05	0	60	0	592445440	55	5476
2026-01-21 09:21:06.08	27.13	38.72	-42.1	-45.9	12.5	8.23e-05	0	60	0	600834048	55	5712
2026-01-21 09:21:10.12	25.69	38.12	-42.2	-46.0	12.4	1.83e-04	0	60	0	608174080	55	5742
2026-01-21 09:21:14.16	24.29	37.52	-42.3	-46.4	12.0	3.26e-04	0	60	0	615514112	55	5993
2026-01-21 09:21:18.19	22.95	36.91	-42.3	-46.2	12.2	1.11e-04	0	60	0	622854144	55	5875
2026-01-21 09:21:22.23	21.66	36.29	-43.3	-48.6	9.7	1.79e-02	0	60	0	631242752	57	6912
2026-01-21 09:21:26.27	20.42	35.66	-43.7	-49.6	8.8	2.18e-02	0	60	0	638582784	57	7764
2026-01-21 09:21:30.30	19.22	35.04	-44.1	-51.2	7.2	7.79e-02	0	60	0	645922816	58	8772
2026-01-21 09:21:34.34	18.07	34.41	-43.3	-48.4	10.0	7.39e-03	0	60	0	653262848	58	6377
2026-01-21 09:21:38.38	16.97	33.78	-44.3	-52.0	6.4	3.40e-01	0	60	0	660602880	59	9106
2026-01-21 09:21:42.42	15.90	33.16	-43.8	-50.2	8.2	6.37e-02	0	60	0	668991488	59	7375
2026-01-21 09:21:46.46	14.88	32.53	-43.7	-49.8	8.4	4.95e-02	0	60	0	676331520	59	7114
2026-01-21 09:21:50.49	13.89	31.91	-42.8	-47.2	11.2	1.58e-03	0	60	0	683671552	57	5914
2026-01-21 09:21:54.53	12.95	31.30	-43.7	-49.8	8.5	6.65e-02	0	60	0	691011584	58	7488
2026-01-21 09:21:58.57	12.04	30.68	-43.5	-49.2	9.1	2.21e-02	0	60	0	699400192	58	7005
2026-01-21 09:22:02.61	11.16	30.07	-43.1	-48.0	10.4	9.26e-03	0	60	0	706740224	58	6096
2026-01-21 09:22:06.64	10.32	29.47	-43.1	-48.2	10.2	4.17e-03	0	61	0	714080256	57	6590
2026-01-21 09:22:10.68	9.50	28.88	-43.2	-48.5	9.8	1.52e-02	0	60	0	721420288	57	6805
2026-01-21 09:22:14.72	8.72	28.29	-42.6	-46.9	11.4	1.19e-03	0	60	0	728760320	57	5722
2026-01-21 09:22:18.76	7.97	27.70	-43.4	-49.1	9.2	1.41e-02	0	60	0	737148928	57	7302
2026-01-21 09:22:22.80	7.24	27.13	-43.5	-49.5	8.8	5.05e-02	0	60	0	744488960	58	7246
2026-01-21 09:22:26.83	6.54	26.56	-42.9	-47.7	10.5	4.71e-03	0	60	0	751828992	57	6270
2026-01-21 09:22:30.87	5.86	26.00	-43.1	-48.3	9.9	8.93e-03	0	60	0	759169024	57	6690
2026-01-21 09:22:34.90	5.21	25.44	-42.9	-47.7	10.5	5.17e-03	0	60	0	767557632	57	6259
2026-01-21 09:22:38.94	4.58	24.89	-43.2	-48.8	9.4	1.29e-02	0	60	0	774897664	57	7074
2026-01-21 09:22:42.98	3.98	24.35	-43.5	-49.7	8.4	5.60e-02	0	60	0	782237696	57	7832
2026-01-21 09:22:47.02	3.39	23.82	-42.8	-47.6	10.5	5.23e-03	0	61	0	789577728	57	6187
2026-01-21 09:22:51.05	2.82	23.30	-42.8	-47.6	10.5	2.87e-03	0	61	0	796917760	57	6175
2026-01-21 09:22:55.09	2.28	22.78	-42.7	-47.5	10.6	2.75e-03	0	60	0	805306368	57	6111
2026-01-21 09:22:59.13	1.75	22.27	-42.8	-48.0	10.1	9.14e-03	0	60	0	812646400	57	6445
2026-01-21 09:23:03.17	1.23	21.77	-42.5	-47.1	10.9	2.38e-03	0	60	0	819986432	57	5849
2026-01-21 09:23:07.21	0.74	21.27	-42.7	-47.8	10.2	5.15e-03	0	60	0	827326464	56	6659
2026-01-21 09:23:11.24	0.26	20.79	-43.4	-50.0	7.8	7.23e-02	0	60	0	834666496	57	8120
2026-01-21 09:23:15.28	359.80	20.31	-43.2	-49.6	8.1	7.28e-02	0	61	0	843055104	57	7788
2026-01-21 09:23:19.32	359.35	19.83	-42.9	-48.7	8.9	3.25e-02	0	60	0	850395136	57	7023
2026-01-21 09:23:23.36	358.91	19.37	-42.8	-48.5	9.1	2.31e-02	0	61	0	857735168	57	6811
2026-01-21 09:23:27.39	358.49	18.91	-42.6	-48.1	9.2	2.03e-02	0	61	0	865075200	57	6566
2026-01-21 09:23:31.43	358.08	18.46	-42.4	-48.0	9.2	1.66e-02	0	61	0	873463808	56	6844
2026-01-21 09:23:35.47	357.68	18.01	-42.2	-47.9	9.1	2.43e-02	0	60	0	880803840	56	6724
2026-01-21 09:23:39.51	357.30	17.57	-41.8	-47.4	9.1	2.51e-02	0	61	0	888143872	55	6775
2026-01-21 09:23:43.55	356.92	17.14	-41.8	-47.9	8.3	4.70e-02	0	61	0	895483904	55	7189
2026-01-21 09:23:47.59	356.56	16.71	-41.7	-48.4	7.6	7.87e-02	0	61	0	902823936	55	7627
2026-01-21 09:23:51.63	356.21	16.29	-41.6	-49.2	6.5	2.18e-01	0	61	0	911212544	55	8366
2026-01-21 09:23:55.67	355.87	15.88	-41.7	-54.9	3.8	1.48e+00	0	61	104	916455424	55	16114
2026-01-21 09:23:59.71	355.53	15.47	-42.0	-53.8	4.0	1.42e+00	0	61	0	916455424	55	14083
2026-01-21 09:24:03.73	355.21	15.07	-41.9	-55.3	3.8	1.49e+00	0	60	104	916455424	54	17864
2026-01-21 09:24:07.77	354.90	14.67	-41.0	-55.6	3.8	1.49e+00	0	61	104	916455424	53	19545
2026-01-21 09:24:11.80	354.59	14.28	-40.9	-55.5	3.8	1.49e+00	0	61	104	916455424	53	19195
2026-01-21 09:24:15.84	354.29	13.90	-40.7	-55.3	3.8	1.49e+00	0	61	104	916455424	53	18884
2026-01-21 09:24:19.87	354.01	13.52	-40.7	-55.3	3.8	1.49e+00	0	61	104	916455424	53	18754
2026-01-21 09:24:23.91	353.72	13.14	-40.7	-55.2	3.8	1.49e+00	0	61	104	916455424	53	18697
2026-01-21 09:24:27.95	353.45	12.77	-40.7	-55.2	3.8	1.49e+00	0	61	104	916455424	53	18690
2026-01-21 09:24:31.98	353.18	12.41	-40.8	-55.4	3.8	1.49e+00	0	61	104	916455424	53	18951
2026-01-21 09:24:36.02	352.92	12.05	-40.8	-55.4	3.8	1.49e+00	0	61	104	916455424	53	19034
2026-01-21 09:24:40.06	352.67	11.69	-40.8	-55.3	3.8	1.49e+00	0	61	104	916455424	53	18891
2026-01-21 09:24:44.10	352.42	11.34	-40.7	-55.2	3.8	1.49e+00	0	61	104	916455424	53	18683
2026-01-21 09:24:48.14	352.18	10.99	-40.6	-55.1	3.8	1.49e+00	0	61	104	916455424	53	18509
2026-01-21 09:24:52.18	351.94	10.65	-40.6	-55.1	3.8	1.49e+00	0	61	104	916455424	53	18516
2026-01-21 09:24:56.22	351.72	10.31	-40.6	-55.2	3.8	1.49e+00	0	61	104	916455424	53	18719
2026-01-21 09:25:00.26	351.49	9.97	-40.8	-55.4	3.8	1.49e+00	0	61	104	916455424	53	18994
2026-01-21 09:25:04.29	351.27	9.64	-40.8	-55.4	3.8	1.49e+00	0	60	104	916455424	53	19028
2026-01-21 09:25:08.33	351.06	9.32	-40.8	-55.4	3.8	1.49e+00	0	61	104	916455424	53	18989
2026-01-21 09:25:12.37	350.85	9.00	-40.7	-55.3	3.8	1.49e+00	0	60	104	916455424	53	18858
2026-01-21 09:25:16.41	350.65	8.68	-40.7	-55.3	3.8	1.49e+00	0	61	104	916455424	53	18820
2026-01-21 09:25:20.45	350.45	8.36	-40.7	-55.3	3.8	1.49e+00	0	61	104	916455424	53	18820
2026-01-21 09:25:24.48	350.26	8.05	-40.8	-55.3	3.8	1.49e+00	0	60	104	916455424	53	18909
2026-01-21 09:25:28.52	350.07	7.74	-44.4	-58.9	3.8	1.49e+00	0	60	104	916455424	59	20093
2026-01-21 09:25:32.56	349.88	7.44	-45.2	-59.9	3.8	1.49e+00	0	61	104	916455424	60	21405
2026-01-21 09:25:36.60	349.70	7.14	-43.6	-59.3	3.8	1.49e+00	0	60	104	916455424	59	21075
2026-01-21 09:25:40.64	349.52	6.84	-45.3	-59.9	3.8	1.49e+00	0	61	104	916455424	61	20150
2026-01-21 09:25:44.68	349.35	6.54	-45.2	-59.8	3.8	1.49e+00	0	61	104	916455424	61	19944
2026-01-21 09:25:48.72	349.18	6.25	-45.3	-59.8	3.8	1.49e+00	0	60	104	916455424	61	19920
2026-01-21 09:25:52.76	349.02	5.96	-45.2	-59.8	3.8	1.49e+00	0	61	104	916455424	61	19974
2026-01-21 09:25:56.80	348.85	5.67	-45.2	-59.8	3.8	1.49e+00	0	60	104	916455424	61	19886
2026-01-21 09:26:00.84	348.69	5.39	-45.2	-59.8	3.8	1.49e+00	0	60	104	916455424	61	19855
2026-01-21 09:26:04.88	348.54	5.11	-45.2	-59.8	3.8	1.49e+00	0	61	104	916455424	61	19867
2026-01-21 09:26:08.93	348.39	4.83	-45.2	-59.8	3.8	1.49e+00	0	61	104	916455424	61	19870
2026-01-21 09:26:12.96	348.24	4.56	-45.2	-59.8	3.8	1.49e+00	0	61	104	916455424	61	19889
2026-01-21 09:26:17.00	348.09	4.28	-45.2	-59.8	3.8	1.49e+00	0	60	104	916455424	61	19935
2026-01-21 09:26:21.04	347.95	4.01	-45.2	-59.8	3.8	1.49e+00	0	60	104	916455424	60	21024
2026-01-21 09:26:25.09	347.81	3.75	-45.2	-59.8	3.8	1.49e+00	0	61	104	916455424	60	21088
2026-01-21 09:26:29.13	347.67	3.48	-45.1	-59.7	3.8	1.49e+00	0	61	104	916455424	60	20960
2026-01-21 09:26:33.17	347.54	3.22	-45.2	-59.7	3.8	1.49e+00	0	61	104	916455424	60	20987
2026-01-21 09:26:37.21	347.41	2.96	-45.2	-59.8	3.8	1.49e+00	0	61	104	916455424	60	21050
2026-01-21 09:26:41.25	347.28	2.70	-45.2	-59.8	3.8	1.49e+00	0	61	104	916455424	60	21041
2026-01-21 09:26:45.29	347.15	2.44	-45.2	-59.7	3.8	1.49e+00	0	61	104	916455424	60	20944
2026-01-21 09:26:49.33	347.03	2.19	-45.2	-59.7	3.8	1.49e+00	0	60	104	916455424	60	20991
2026-01-21 09:26:53.37	346.90	1.94	-45.2	-59.7	3.8	1.49e+00	0	60	104	916455424	60	20997

#Closed at: 2026-01-21 09:26:54
#Recorded file [916 MB]: D:/lorett/data/31039_260121_121257.dat