passes_logs/2026/01/21/R2.0S_Moscow/R2.0S_Moscow__20260121_223332_NOAA_21_JPSS-2_rec.log

#Pass ID: 20260121_223332_NOAA 21 (JPSS-2)
#Satellite: NOAA 21 (JPSS-2)
#Configuration: NOAA-21
#almurnet v.1.7.20251203
#Start time: 2026-01-21 22:33:31

#Version: 2.2.20231116
#Station: R2.0S_Moscow
#Location: 37.707566 lon 55.798166 lat
#TLE: 1 54234U 22150A   26020.93347024  .00000206  00000+0  11859-3 0  9994
#TLE: 2 54234  98.7506 321.7615 0000627 245.8100 114.3011 14.19536899165654

#Time	Az	El	Level	Level2	SNR	BER	BlckErr	Temp	State	Recorded	gain1	gain2
2026-01-21 22:33:31.93	22.20	1.98	-43.0	-55.3	3.8	1.49e+00	0	48	0	0	58	14074
2026-01-21 22:33:35.97	22.42	2.21	-43.0	-55.2	3.8	1.49e+00	0	49	104	0	57	14874
2026-01-21 22:33:40.02	22.64	2.45	-43.0	-55.3	3.8	1.49e+00	0	49	104	0	57	14898
2026-01-21 22:33:44.06	22.86	2.69	-43.0	-55.2	3.8	1.49e+00	0	49	104	0	57	14874
2026-01-21 22:33:48.10	23.09	2.94	-43.0	-55.3	3.8	1.49e+00	0	49	104	0	57	14890
2026-01-21 22:33:52.14	23.32	3.18	-43.0	-55.3	3.8	1.49e+00	0	50	104	0	57	14906
2026-01-21 22:33:56.19	23.56	3.43	-43.0	-55.2	3.8	1.49e+00	0	50	104	0	57	14879
2026-01-21 22:34:00.23	23.80	3.67	-43.0	-55.3	3.8	1.49e+00	0	50	104	0	57	14912
2026-01-21 22:34:04.27	24.04	3.92	-43.0	-55.3	3.8	1.49e+00	0	51	104	0	57	14888
2026-01-21 22:34:08.31	24.28	4.18	-43.0	-55.3	3.8	1.49e+00	0	51	104	0	57	14911
2026-01-21 22:34:12.36	24.53	4.43	-43.0	-55.3	3.8	1.49e+00	0	51	104	0	57	14884
2026-01-21 22:34:16.40	24.79	4.69	-43.0	-55.2	3.8	1.49e+00	0	51	104	0	57	14857
2026-01-21 22:34:20.44	25.04	4.94	-43.0	-55.2	3.8	1.49e+00	0	52	104	0	57	14847
2026-01-21 22:34:24.48	25.31	5.20	-43.0	-55.2	3.8	1.49e+00	0	52	104	0	57	14856
2026-01-21 22:34:28.52	25.57	5.47	-43.0	-55.2	3.8	1.49e+00	0	52	104	0	57	14811
2026-01-21 22:34:32.56	25.84	5.73	-42.9	-55.2	3.8	1.49e+00	0	52	104	0	57	14867
2026-01-21 22:34:36.61	26.12	6.00	-43.0	-55.2	3.8	1.49e+00	0	52	104	0	57	14786
2026-01-21 22:34:40.65	26.40	6.27	-42.9	-55.1	3.8	1.49e+00	0	53	104	0	57	14699
2026-01-21 22:34:44.70	26.69	6.54	-42.9	-55.1	3.8	1.49e+00	0	53	104	0	57	14696
2026-01-21 22:34:48.74	26.98	6.81	-42.9	-55.1	3.8	1.49e+00	0	53	104	0	57	14634
2026-01-21 22:34:52.78	27.27	7.09	-42.9	-55.2	3.8	1.49e+00	0	53	104	0	57	14764
2026-01-21 22:34:56.83	27.57	7.36	-42.3	-49.9	4.8	1.20e+00	0	53	104	0	56	8542
2026-01-21 22:35:00.86	27.88	7.64	-41.2	-46.3	7.4	1.27e-01	0	53	0	11534336	54	6343
2026-01-21 22:35:04.91	28.19	7.93	-40.7	-45.0	8.7	4.27e-02	0	53	0	24117248	53	5767
2026-01-21 22:35:08.94	28.51	8.21	-42.2	-51.6	3.9	2.22e-01	0	54	104	36700160	54	11566
2026-01-21 22:35:12.98	28.83	8.50	-41.3	-45.6	9.0	2.53e-02	0	54	0	41943040	54	5805
2026-01-21 22:35:17.02	29.16	8.79	-41.1	-44.9	9.6	1.25e-02	0	54	0	54525952	53	5716
2026-01-21 22:35:21.05	29.50	9.08	-40.8	-44.4	10.2	6.49e-03	0	54	0	67108864	53	5383
2026-01-21 22:35:25.09	29.84	9.38	-40.7	-44.2	10.4	4.40e-03	0	54	0	79691776	53	5272
2026-01-21 22:35:29.13	30.19	9.68	-40.7	-44.0	10.8	2.65e-03	0	54	0	93323264	53	5155
2026-01-21 22:35:33.18	30.54	9.98	-40.7	-43.9	11.0	2.09e-03	0	54	0	105906176	53	5094
2026-01-21 22:35:37.22	30.91	10.28	-40.7	-43.9	11.1	1.40e-03	0	54	0	118489088	53	5066
2026-01-21 22:35:41.26	31.28	10.59	-40.7	-43.9	11.2	1.34e-03	0	55	0	131072000	53	5057
2026-01-21 22:35:45.30	31.65	10.90	-40.6	-43.6	11.5	7.86e-04	0	55	0	143654912	53	4924
2026-01-21 22:35:49.34	32.04	11.21	-40.6	-43.7	11.6	7.23e-04	0	55	0	156237824	53	4935
2026-01-21 22:35:53.38	32.43	11.53	-40.4	-43.3	12.0	3.71e-04	0	55	0	168820736	52	5003
2026-01-21 22:35:57.42	32.83	11.85	-40.2	-43.0	12.3	1.59e-04	0	55	0	181403648	52	4827
2026-01-21 22:36:01.46	33.24	12.17	-40.2	-42.9	12.4	1.56e-04	0	55	0	193986560	52	4807
2026-01-21 22:36:05.49	33.66	12.49	-40.4	-43.2	12.2	1.98e-04	0	55	0	206569472	52	4953
2026-01-21 22:36:09.53	34.09	12.82	-40.3	-43.1	12.4	1.50e-04	0	55	0	219152384	52	4875
2026-01-21 22:36:13.57	34.53	13.15	-40.3	-43.0	12.5	1.28e-04	0	55	0	231735296	52	4816
2026-01-21 22:36:17.61	34.97	13.48	-40.2	-42.9	12.6	9.61e-05	0	55	0	244318208	52	4785
2026-01-21 22:36:21.65	35.43	13.82	-40.3	-42.9	12.6	9.38e-05	0	55	0	256901120	52	4805
2026-01-21 22:36:25.69	35.89	14.16	-40.4	-43.1	12.5	1.27e-04	0	55	0	269484032	52	4881
2026-01-21 22:36:29.72	36.37	14.50	-40.2	-42.8	12.8	7.55e-05	0	55	0	282066944	52	4730
2026-01-21 22:36:33.76	36.86	14.84	-40.3	-43.0	12.6	1.08e-04	0	56	0	294649856	52	4859
2026-01-21 22:36:37.80	37.36	15.19	-40.4	-43.0	12.6	1.04e-04	0	56	0	307232768	52	4868
2026-01-21 22:36:41.84	37.87	15.54	-40.5	-43.2	12.4	1.29e-04	0	56	0	319815680	52	4961
2026-01-21 22:36:45.88	38.39	15.90	-40.4	-43.1	12.6	7.93e-05	0	56	0	332398592	52	4898
2026-01-21 22:36:49.92	38.92	16.26	-40.6	-43.3	12.3	1.61e-04	0	56	0	344981504	52	5017
2026-01-21 22:36:53.96	39.47	16.62	-40.6	-43.3	12.4	1.58e-04	0	56	0	357564416	52	5019
2026-01-21 22:36:58.00	40.03	16.98	-40.5	-43.2	12.5	9.23e-05	0	56	0	370147328	52	4982
2026-01-21 22:37:02.04	40.60	17.35	-40.4	-43.0	12.8	6.56e-05	0	56	0	382730240	52	4828
2026-01-21 22:37:06.08	41.18	17.72	-40.2	-42.7	13.0	3.66e-05	0	56	0	396361728	52	4704
2026-01-21 22:37:10.11	41.78	18.09	-40.2	-42.6	13.2	3.73e-05	0	56	0	407896064	52	4649
2026-01-21 22:37:14.16	42.40	18.46	-40.0	-42.4	13.4	8.30e-06	0	56	0	420478976	52	4498
2026-01-21 22:37:18.19	43.03	18.84	-40.0	-42.4	13.5	1.22e-05	0	56	0	434110464	51	4787
2026-01-21 22:37:22.23	43.67	19.22	-40.1	-42.4	13.5	1.29e-05	0	56	0	446693376	51	4801
2026-01-21 22:37:26.27	44.33	19.60	-40.2	-42.6	13.3	1.67e-05	0	56	0	459276288	51	4887
2026-01-21 22:37:30.31	45.01	19.99	-40.1	-42.5	13.4	1.29e-05	0	57	0	471859200	51	4849
2026-01-21 22:37:34.35	45.70	20.37	-40.0	-42.4	13.5	9.10e-06	0	56	0	484442112	51	4787
2026-01-21 22:37:38.39	46.41	20.76	-39.9	-42.2	13.7	6.80e-06	0	56	0	497025024	51	4687
2026-01-21 22:37:42.43	47.14	21.15	-39.7	-41.8	14.1	7.00e-07	0	56	0	509607936	51	4487
2026-01-21 22:37:46.47	47.89	21.54	-39.6	-41.7	14.2	1.50e-06	0	57	0	522190848	51	4423
2026-01-21 22:37:50.51	48.65	21.93	-39.8	-42.1	13.9	6.80e-06	0	56	0	534773760	51	4607
2026-01-21 22:37:54.55	49.44	22.33	-39.7	-41.9	14.0	3.00e-06	0	57	0	547356672	51	4538
2026-01-21 22:37:58.59	50.24	22.72	-39.7	-41.9	14.1	7.00e-07	0	56	0	559939584	51	4519
2026-01-21 22:38:02.63	51.07	23.12	-39.6	-41.8	14.2	1.50e-06	0	57	0	572522496	51	4462
2026-01-21 22:38:06.67	51.91	23.51	-39.7	-41.9	14.1	2.20e-06	0	56	0	585105408	51	4538
2026-01-21 22:38:10.71	52.78	23.90	-39.8	-42.1	13.9	3.00e-06	0	57	0	597688320	51	4599
2026-01-21 22:38:14.75	53.67	24.30	-40.0	-42.3	13.7	3.00e-06	0	57	0	610271232	51	4745
2026-01-21 22:38:18.78	54.58	24.69	-39.9	-42.2	13.9	3.00e-06	0	57	0	622854144	51	4671
2026-01-21 22:38:22.82	55.51	25.08	-39.8	-42.1	14.0	2.20e-06	0	57	0	635437056	51	4602
2026-01-21 22:38:26.85	56.46	25.46	-39.9	-42.1	13.9	6.10e-06	0	57	0	648019968	51	4630
2026-01-21 22:38:30.89	57.44	25.85	-40.1	-42.4	13.6	9.90e-06	0	57	0	660602880	51	4793
2026-01-21 22:38:34.93	58.44	26.23	-40.1	-42.4	13.6	1.06e-05	0	57	0	673185792	51	4800
2026-01-21 22:38:38.97	59.47	26.61	-40.0	-42.2	13.9	2.20e-06	0	57	0	685768704	51	4682
2026-01-21 22:38:43.01	60.52	26.98	-40.1	-42.4	13.7	5.30e-06	0	57	0	698351616	51	4811
2026-01-21 22:38:47.05	61.59	27.35	-40.0	-42.2	13.9	2.20e-06	0	57	0	710934528	51	4698
2026-01-21 22:38:51.09	62.69	27.71	-39.9	-42.1	14.0	2.20e-06	0	57	0	723517440	51	4641
2026-01-21 22:38:55.13	63.81	28.06	-39.8	-41.9	14.3	7.00e-07	0	57	0	737148928	51	4519
2026-01-21 22:38:59.17	64.96	28.41	-39.9	-42.1	14.0	7.00e-07	0	57	0	748683264	51	4622
2026-01-21 22:39:03.21	66.13	28.75	-39.8	-42.0	14.2	7.00e-07	0	57	0	761266176	51	4558
2026-01-21 22:39:07.24	67.33	29.08	-39.8	-42.0	14.1	3.00e-06	0	57	0	774897664	51	4560
2026-01-21 22:39:11.28	68.55	29.40	-40.1	-42.4	13.8	4.50e-06	0	57	0	787480576	51	4769
2026-01-21 22:39:15.32	69.79	29.71	-40.0	-42.2	14.0	2.20e-06	0	57	0	800063488	51	4693
2026-01-21 22:39:19.37	71.06	30.01	-40.0	-42.2	13.9	5.30e-06	0	57	0	812646400	51	4705
2026-01-21 22:39:23.40	72.35	30.29	-40.1	-42.3	13.9	5.30e-06	0	57	0	825229312	51	4749
2026-01-21 22:39:27.43	73.66	30.57	-40.1	-42.4	13.8	7.60e-06	0	57	0	837812224	51	4788
2026-01-21 22:39:31.45	74.99	30.82	-40.5	-43.0	13.2	2.13e-05	0	57	0	850395136	51	5126
2026-01-21 22:39:35.47	76.34	31.07	-40.3	-42.6	13.6	8.30e-06	0	57	0	862978048	51	4916
2026-01-21 22:39:39.49	77.71	31.30	-40.5	-43.0	13.2	1.67e-05	0	57	0	875560960	51	5101
2026-01-21 22:39:43.51	79.10	31.51	-40.3	-42.6	13.5	9.10e-06	0	57	0	888143872	51	4907
2026-01-21 22:39:47.53	80.50	31.70	-40.4	-42.8	13.4	9.10e-06	0	57	0	900726784	51	5024
2026-01-21 22:39:51.56	81.93	31.88	-40.6	-43.1	13.1	1.90e-05	0	57	0	913309696	51	5214
2026-01-21 22:39:55.58	83.36	32.04	-40.4	-42.7	13.5	6.80e-06	0	57	0	925892608	51	4982
2026-01-21 22:39:59.61	84.81	32.18	-40.6	-43.0	13.3	1.44e-05	0	57	0	938475520	51	5126
2026-01-21 22:40:03.64	86.28	32.30	-40.5	-43.0	13.3	2.13e-05	0	57	0	951058432	51	5109
2026-01-21 22:40:07.67	87.75	32.40	-40.6	-43.0	13.2	2.36e-05	0	57	0	963641344	51	5152
2026-01-21 22:40:11.69	89.23	32.48	-40.6	-43.0	13.1	3.58e-05	0	57	0	976224256	52	4864
2026-01-21 22:40:15.72	90.72	32.54	-40.5	-43.0	13.2	2.36e-05	0	57	0	988807168	52	4849
2026-01-21 22:40:19.74	92.21	32.57	-40.8	-43.5	12.7	6.10e-05	0	57	0	1001390080	52	5101
2026-01-21 22:40:23.77	93.71	32.59	-40.6	-43.1	13.1	1.83e-05	0	57	0	1013972992	52	4888
2026-01-21 22:40:27.80	95.20	32.59	-40.3	-42.7	13.6	8.30e-06	0	57	0	1026555904	52	4653
2026-01-21 22:40:31.83	96.70	32.56	-40.5	-42.9	13.4	6.80e-06	0	57	0	1039138816	52	4787
2026-01-21 22:40:35.86	98.19	32.51	-40.1	-42.4	13.8	1.50e-06	0	57	0	1051721728	52	4512
2026-01-21 22:40:39.89	99.68	32.44	-40.5	-42.9	13.3	2.05e-05	0	57	0	1064304640	52	4784
2026-01-21 22:40:43.92	101.16	32.36	-40.4	-42.7	13.5	9.10e-06	0	57	0	1076887552	52	4692
2026-01-21 22:40:47.94	102.63	32.25	-40.5	-43.0	13.2	2.05e-05	0	57	0	1089470464	52	4852
2026-01-21 22:40:51.96	104.09	32.12	-40.4	-42.8	13.4	1.52e-05	0	57	0	1102053376	52	4740
2026-01-21 22:40:55.99	105.53	31.97	-40.6	-43.1	13.1	2.28e-05	0	57	0	1114636288	52	4896
2026-01-21 22:41:00.01	106.97	31.80	-40.5	-42.9	13.3	1.52e-05	0	57	0	1127219200	52	4782
2026-01-21 22:41:04.04	108.39	31.62	-40.6	-43.1	13.2	2.13e-05	0	58	0	1139802112	52	4881
2026-01-21 22:41:08.06	109.79	31.41	-40.4	-42.8	13.4	1.52e-05	0	57	0	1152385024	52	4714
2026-01-21 22:41:12.09	111.17	31.19	-40.4	-42.8	13.5	1.29e-05	0	57	0	1164967936	52	4736
2026-01-21 22:41:16.12	112.54	30.96	-40.4	-42.9	13.4	1.50e-06	0	58	0	1177550848	52	4769
2026-01-21 22:41:20.14	113.89	30.71	-40.2	-42.5	13.7	2.20e-06	0	58	0	1190133760	52	4578
2026-01-21 22:41:24.16	115.21	30.44	-40.5	-42.9	13.3	1.75e-05	0	58	0	1202716672	52	4805
2026-01-21 22:41:28.19	116.51	30.16	-40.0	-42.2	14.1	2.20e-06	0	58	0	1215299584	51	4685
2026-01-21 22:41:32.24	117.80	29.87	-40.1	-42.3	14.0	3.00e-06	0	58	0	1227882496	51	4732
2026-01-21 22:41:36.27	119.06	29.56	-40.0	-42.2	14.1	7.00e-07	0	57	0	1240465408	51	4697
2026-01-21 22:41:40.31	120.30	29.25	-39.8	-41.9	14.3	0.00e+00	0	58	0	1253048320	51	4540
2026-01-21 22:41:44.35	121.51	28.92	-40.1	-42.3	14.0	7.00e-07	0	58	0	1265631232	51	4724
2026-01-21 22:41:48.39	122.71	28.58	-39.8	-41.9	14.4	0.00e+00	0	58	0	1278214144	51	4514
2026-01-21 22:41:52.42	123.87	28.24	-39.8	-41.8	14.4	7.00e-07	0	58	0	1290797056	51	4490
2026-01-21 22:41:56.46	125.01	27.88	-39.7	-41.7	14.6	0.00e+00	0	58	0	1303379968	51	4434
2026-01-21 22:42:00.50	126.13	27.52	-39.8	-42.0	14.3	0.00e+00	0	58	0	1315962880	51	4578
2026-01-21 22:42:04.54	127.22	27.16	-39.5	-41.5	14.8	0.00e+00	0	58	0	1328545792	51	4331
2026-01-21 22:42:08.58	128.29	26.78	-39.6	-41.6	14.6	7.00e-07	0	58	0	1341128704	51	4386
2026-01-21 22:42:12.61	129.33	26.41	-39.6	-41.7	14.6	0.00e+00	0	58	0	1353711616	51	4421
2026-01-21 22:42:16.65	130.35	26.03	-39.5	-41.5	14.8	7.00e-07	0	58	0	1366294528	50	4563
2026-01-21 22:42:20.68	131.34	25.64	-39.6	-41.6	14.7	7.00e-07	0	58	0	1378877440	50	4638
2026-01-21 22:42:24.73	132.31	25.25	-39.8	-42.0	14.3	3.00e-06	0	58	0	1391460352	50	4839
2026-01-21 22:42:28.76	133.26	24.86	-40.0	-42.2	14.0	1.50e-06	0	58	0	1404043264	50	4959
2026-01-21 22:42:32.80	134.18	24.47	-40.1	-42.4	13.9	3.80e-06	0	58	0	1416626176	50	5050
2026-01-21 22:42:36.84	135.09	24.07	-39.9	-42.1	14.2	1.50e-06	0	57	0	1429209088	50	4871
2026-01-21 22:42:40.88	135.97	23.67	-39.9	-42.1	14.1	2.20e-06	0	58	0	1441792000	50	4907
2026-01-21 22:42:44.92	136.83	23.28	-40.0	-42.2	13.9	2.20e-06	0	58	0	1454374912	50	4963
2026-01-21 22:42:48.97	137.67	22.88	-39.9	-42.1	14.0	4.50e-06	0	57	0	1466957824	50	4912
2026-01-21 22:42:53.00	138.49	22.48	-40.0	-42.2	13.9	1.50e-06	0	58	0	1479540736	50	4977
2026-01-21 22:42:57.05	139.29	22.09	-40.0	-42.3	13.9	6.80e-06	0	58	0	1492123648	50	5023
2026-01-21 22:43:01.09	140.07	21.69	-40.2	-42.5	13.6	6.10e-06	0	58	0	1504706560	50	5159
2026-01-21 22:43:05.13	140.83	21.29	-40.1	-42.4	13.7	9.10e-06	0	58	0	1518338048	50	5061
2026-01-21 22:43:09.17	141.57	20.90	-39.9	-42.2	13.9	3.80e-06	0	58	0	1530920960	50	4946
2026-01-21 22:43:13.21	142.29	20.51	-39.9	-42.1	14.0	4.50e-06	0	58	0	1543503872	50	4904
2026-01-21 22:43:17.24	142.99	20.12	-40.0	-42.2	13.8	2.20e-06	0	58	0	1556086784	50	4979
2026-01-21 22:43:21.28	143.68	19.73	-39.9	-42.1	13.9	6.10e-06	0	58	0	1568669696	50	4911
2026-01-21 22:43:25.32	144.35	19.34	-39.8	-42.1	13.9	7.00e-07	0	58	0	1581252608	50	4882
2026-01-21 22:43:29.36	145.01	18.96	-39.8	-42.1	13.9	2.20e-06	0	58	0	1593835520	50	4900
2026-01-21 22:43:33.41	145.65	18.57	-39.7	-41.8	14.1	2.20e-06	0	58	0	1606418432	50	4748
2026-01-21 22:43:37.45	146.27	18.20	-39.9	-42.2	13.7	6.80e-06	0	58	0	1619001344	50	4967
2026-01-21 22:43:41.49	146.88	17.82	-40.1	-42.6	13.4	1.60e-05	0	58	0	1631584256	50	5162
2026-01-21 22:43:45.54	147.47	17.44	-40.1	-42.5	13.5	1.14e-05	0	58	0	1644167168	50	5127
2026-01-21 22:43:49.58	148.05	17.07	-40.2	-42.7	13.2	2.21e-05	0	58	0	1656750080	51	4955
2026-01-21 22:43:53.62	148.62	16.70	-40.2	-42.7	13.2	2.67e-05	0	58	0	1669332992	51	4979
2026-01-21 22:43:57.65	149.17	16.34	-40.4	-43.0	12.9	4.57e-05	0	58	0	1681915904	51	5108
2026-01-21 22:44:01.69	149.71	15.98	-40.5	-43.1	12.8	6.63e-05	0	58	0	1694498816	51	5192
2026-01-21 22:44:05.73	150.24	15.62	-40.6	-43.3	12.5	1.16e-04	0	58	0	1707081728	51	5318
2026-01-21 22:44:09.77	150.76	15.26	-40.6	-43.4	12.4	1.33e-04	0	58	0	1719664640	51	5352
2026-01-21 22:44:13.81	151.26	14.91	-40.7	-43.5	12.2	1.96e-04	0	58	0	1732247552	52	5124
2026-01-21 22:44:17.85	151.75	14.56	-40.6	-43.4	12.3	2.01e-04	0	58	0	1744830464	52	5078
2026-01-21 22:44:21.88	152.23	14.21	-40.5	-43.3	12.4	1.74e-04	0	58	0	1757413376	52	4994
2026-01-21 22:44:25.93	152.71	13.87	-40.6	-43.3	12.3	1.52e-04	0	58	0	1769996288	52	5034
2026-01-21 22:44:29.96	153.17	13.53	-40.6	-43.4	12.2	2.07e-04	0	58	0	1782579200	52	5078
2026-01-21 22:44:34.00	153.62	13.19	-40.6	-43.5	12.1	2.95e-04	0	58	0	1795162112	52	5116
2026-01-21 22:44:38.04	154.06	12.85	-40.5	-43.3	12.2	2.53e-04	0	58	0	1807745024	52	5038
2026-01-21 22:44:42.08	154.49	12.52	-40.5	-43.2	12.3	2.04e-04	0	58	0	1820327936	52	4983
2026-01-21 22:44:46.12	154.91	12.19	-40.4	-43.2	12.3	1.77e-04	0	58	0	1833959424	52	4940
2026-01-21 22:44:50.16	155.32	11.87	-40.4	-43.2	12.3	1.69e-04	0	58	0	1845493760	52	4942
2026-01-21 22:44:54.20	155.73	11.55	-40.4	-43.1	12.3	1.88e-04	0	58	0	1859125248	52	4921
2026-01-21 22:44:58.24	156.12	11.23	-40.5	-43.3	12.1	2.94e-04	0	58	0	1871708160	52	5025
2026-01-21 22:45:02.27	156.51	10.91	-40.5	-43.4	12.0	3.42e-04	0	58	0	1884291072	52	5057
2026-01-21 22:45:06.31	156.89	10.60	-40.5	-43.5	11.8	5.96e-04	0	58	0	1896873984	52	5119
2026-01-21 22:45:10.35	157.26	10.29	-40.7	-43.8	11.4	9.25e-04	0	58	0	1909456896	52	5311
2026-01-21 22:45:14.39	157.63	9.98	-40.6	-43.7	11.5	1.15e-03	0	58	0	1922039808	52	5269
2026-01-21 22:45:18.43	157.98	9.67	-40.8	-44.1	11.1	1.69e-03	0	58	0	1934622720	52	5475
2026-01-21 22:45:22.47	158.33	9.37	-40.8	-44.1	11.0	1.83e-03	0	58	0	1947205632	52	5494
2026-01-21 22:45:26.51	158.68	9.07	-40.8	-44.2	10.9	2.22e-03	0	58	0	1959788544	52	5544
2026-01-21 22:45:30.55	159.02	8.77	-40.8	-44.1	10.9	2.30e-03	0	58	0	1972371456	52	5522
2026-01-21 22:45:34.59	159.35	8.48	-40.7	-44.1	10.9	2.29e-03	0	58	0	1984954368	52	5474
2026-01-21 22:45:38.63	159.67	8.19	-41.1	-44.8	10.1	4.87e-03	0	58	0	1997537280	52	5958
2026-01-21 22:45:42.67	159.99	7.90	-44.7	-57.1	3.8	1.49e+00	0	58	104	2006974464	60	15569
2026-01-21 22:45:46.71	160.30	7.61	-45.4	-57.9	3.8	1.49e+00	0	58	104	2006974464	61	16032
2026-01-21 22:45:50.75	160.61	7.33	-45.4	-57.8	3.8	1.49e+00	0	58	104	2006974464	61	15930
2026-01-21 22:45:54.80	160.91	7.05	-45.3	-57.7	3.8	1.49e+00	0	58	104	2006974464	61	15581
2026-01-21 22:45:58.84	161.20	6.77	-45.2	-57.6	3.8	1.49e+00	0	58	104	2006974464	61	15480
2026-01-21 22:46:02.88	161.49	6.49	-45.2	-57.6	3.8	1.49e+00	0	58	104	2006974464	61	15456
2026-01-21 22:46:06.92	161.78	6.22	-45.2	-57.6	3.8	1.49e+00	0	58	104	2006974464	61	15509
2026-01-21 22:46:10.96	162.06	5.95	-45.2	-57.6	3.8	1.49e+00	0	58	104	2006974464	61	15488
2026-01-21 22:46:15.00	162.33	5.68	-45.2	-57.5	3.8	1.49e+00	0	58	104	2006974464	61	15394
2026-01-21 22:46:19.05	162.60	5.41	-45.2	-57.5	3.8	1.49e+00	0	58	104	2006974464	61	15373
2026-01-21 22:46:23.09	162.87	5.14	-45.2	-57.6	3.8	1.49e+00	0	58	104	2006974464	61	15421
2026-01-21 22:46:27.13	163.13	4.88	-45.2	-57.5	3.8	1.49e+00	0	58	104	2006974464	61	15401
2026-01-21 22:46:31.17	163.38	4.62	-45.2	-57.5	3.8	1.49e+00	0	58	104	2006974464	61	15356
2026-01-21 22:46:35.21	163.63	4.36	-45.2	-57.5	3.8	1.49e+00	0	58	104	2006974464	61	15311
2026-01-21 22:46:39.25	163.88	4.10	-45.2	-57.6	3.8	1.49e+00	0	58	104	2006974464	61	15408
2026-01-21 22:46:43.30	164.13	3.85	-45.1	-57.5	3.8	1.49e+00	0	58	104	2006974464	61	15329
2026-01-21 22:46:47.34	164.37	3.60	-45.1	-57.5	3.8	1.49e+00	0	58	104	2006974464	61	15309
2026-01-21 22:46:51.38	164.60	3.34	-45.2	-57.6	3.8	1.49e+00	0	58	104	2006974464	61	15413
2026-01-21 22:46:55.42	164.83	3.10	-45.2	-57.5	3.8	1.49e+00	0	58	104	2006974464	61	15318
2026-01-21 22:46:59.46	165.06	2.85	-45.1	-57.5	3.8	1.49e+00	0	58	104	2006974464	61	15296
2026-01-21 22:47:03.51	165.29	2.60	-45.1	-57.5	3.8	1.49e+00	0	58	104	2006974464	61	15353
2026-01-21 22:47:07.55	165.51	2.36	-45.1	-57.5	3.8	1.49e+00	0	58	104	2006974464	61	15307
2026-01-21 22:47:11.58	165.73	2.12	-45.1	-57.5	3.8	1.49e+00	0	58	104	2006974464	61	15307

#Closed at: 2026-01-21 22:47:13
#Recorded file [2006 MB]: D:/lorett/data/31039_260122_013331.dat