passes_logs/2026/01/21/R2.0S_Moscow/R2.0S_Moscow__20260121_232344_NOAA_20_JPSS-1_rec.log

#Pass ID: 20260121_232344_NOAA 20 (JPSS-1)
#Satellite: NOAA 20 (JPSS-1)
#Configuration: NOAA 20
#almurnet v.1.7.20251203
#Start time: 2026-01-21 23:23:44

#Version: 2.2.20231116
#Station: R2.0S_Moscow
#Location: 37.707566 lon 55.798166 lat
#TLE: 1 43013U 17073A   26021.46221703  .00000173  00000+0  10299-3 0  9999
#TLE: 2 43013  98.7644 322.3335 0001238  29.7597 330.3649 14.19538314423652

#Time	Az	El	Level	Level2	SNR	BER	BlckErr	Temp	State	Recorded	gain1	gain2
2026-01-21 23:23:44.40	17.46	2.00	-42.2	-56.9	3.8	1.49e+00	0	49	0	0	56	18971
2026-01-21 23:23:48.43	17.53	2.26	-42.0	-56.6	3.8	1.49e+00	0	50	104	0	55	19614
2026-01-21 23:23:52.47	17.59	2.52	-42.0	-56.7	3.8	1.49e+00	0	50	104	0	55	19673
2026-01-21 23:23:56.51	17.66	2.78	-42.0	-56.7	3.8	1.49e+00	0	50	104	0	55	19652
2026-01-21 23:24:00.55	17.73	3.05	-42.0	-56.6	3.8	1.49e+00	0	50	104	0	55	19613
2026-01-21 23:24:04.59	17.80	3.31	-42.0	-56.7	3.8	1.49e+00	0	51	104	0	55	19632
2026-01-21 23:24:08.63	17.87	3.58	-42.0	-56.7	3.8	1.49e+00	0	51	104	0	55	19640
2026-01-21 23:24:12.67	17.94	3.85	-42.0	-56.7	3.8	1.49e+00	0	51	104	0	55	19649
2026-01-21 23:24:16.71	18.01	4.13	-42.0	-56.7	3.8	1.49e+00	0	51	104	0	55	19624
2026-01-21 23:24:20.75	18.09	4.40	-42.0	-56.7	3.8	1.49e+00	0	52	104	0	55	19646
2026-01-21 23:24:24.79	18.16	4.68	-42.0	-56.6	3.8	1.49e+00	0	52	104	0	55	19609
2026-01-21 23:24:28.84	18.24	4.97	-42.0	-56.6	3.8	1.49e+00	0	52	104	0	55	19599
2026-01-21 23:24:32.88	18.31	5.25	-42.0	-56.6	3.8	1.49e+00	0	52	104	0	55	19595
2026-01-21 23:24:36.92	18.39	5.54	-42.0	-56.6	3.8	1.49e+00	0	53	104	0	55	19564
2026-01-21 23:24:40.96	18.47	5.84	-42.0	-56.6	3.8	1.49e+00	0	53	104	0	55	19553
2026-01-21 23:24:45.00	18.55	6.13	-42.0	-56.6	3.8	1.49e+00	0	53	104	0	55	19575
2026-01-21 23:24:49.04	18.63	6.43	-42.0	-56.7	3.8	1.49e+00	0	53	104	0	55	19619
2026-01-21 23:24:53.08	18.72	6.73	-42.0	-56.6	3.8	1.49e+00	0	53	104	0	55	19523
2026-01-21 23:24:57.12	18.80	7.04	-42.0	-56.5	3.8	1.49e+00	0	53	104	0	55	19367
2026-01-21 23:25:01.15	18.89	7.35	-42.0	-56.3	3.8	1.49e+00	0	54	104	0	55	18934
2026-01-21 23:25:05.19	18.97	7.66	-42.0	-56.0	3.8	1.49e+00	0	54	104	0	55	18287
2026-01-21 23:25:09.24	19.06	7.98	-41.9	-54.4	3.8	1.49e+00	0	54	104	0	55	15103
2026-01-21 23:25:13.28	19.15	8.30	-42.1	-49.3	6.9	2.24e-01	0	54	0	1048576	55	8455
2026-01-21 23:25:17.32	19.24	8.63	-41.5	-46.9	9.4	1.61e-02	0	54	0	8388608	54	6750
2026-01-21 23:25:21.36	19.34	8.96	-41.8	-47.4	9.1	2.36e-02	0	54	0	15728640	54	7186
2026-01-21 23:25:25.39	19.43	9.29	-41.8	-47.2	9.4	1.68e-02	0	54	0	23068672	54	7037
2026-01-21 23:25:29.43	19.53	9.63	-41.6	-46.5	10.3	5.79e-03	0	55	0	30408704	54	6425
2026-01-21 23:25:33.47	19.63	9.97	-41.6	-46.4	10.6	3.32e-03	0	55	0	38797312	54	6355
2026-01-21 23:25:37.51	19.73	10.32	-41.7	-46.4	10.7	2.99e-03	0	55	0	46137344	54	6367
2026-01-21 23:25:41.55	19.83	10.67	-41.7	-46.2	11.0	2.64e-03	0	55	0	53477376	54	6225
2026-01-21 23:25:45.59	19.94	11.03	-41.7	-46.2	11.1	1.50e-03	0	55	0	60817408	54	6212
2026-01-21 23:25:49.62	20.05	11.40	-41.7	-46.0	11.4	1.34e-03	0	55	0	69206016	54	6092
2026-01-21 23:25:53.66	20.16	11.76	-41.7	-46.0	11.4	8.27e-04	0	55	0	76546048	54	6127
2026-01-21 23:25:57.70	20.27	12.14	-41.8	-46.2	11.4	8.49e-04	0	55	0	83886080	54	6219
2026-01-21 23:26:01.74	20.38	12.52	-41.8	-46.0	11.5	8.64e-04	0	55	0	91226112	54	6130
2026-01-21 23:26:05.77	20.50	12.90	-41.8	-46.0	11.6	6.13e-04	0	55	0	98566144	54	6094
2026-01-21 23:26:09.81	20.62	13.30	-41.8	-46.0	11.6	6.51e-04	0	55	0	106954752	54	6111
2026-01-21 23:26:13.85	20.74	13.70	-41.9	-46.1	11.6	7.68e-04	0	56	0	114294784	54	6146
2026-01-21 23:26:17.89	20.87	14.10	-41.9	-46.1	11.6	6.73e-04	0	56	0	121634816	54	6160
2026-01-21 23:26:21.93	20.99	14.51	-41.9	-46.1	11.6	7.47e-04	0	56	0	128974848	54	6172
2026-01-21 23:26:25.97	21.12	14.93	-41.9	-46.1	11.6	7.78e-04	0	56	0	137363456	54	6196
2026-01-21 23:26:30.00	21.26	15.36	-41.9	-46.1	11.7	5.89e-04	0	56	0	144703488	54	6133
2026-01-21 23:26:34.04	21.40	15.79	-42.0	-46.2	11.7	7.43e-04	0	56	0	152043520	54	6229
2026-01-21 23:26:38.08	21.54	16.23	-42.1	-46.3	11.6	7.13e-04	0	56	0	159383552	54	6310
2026-01-21 23:26:42.12	21.68	16.68	-42.2	-46.4	11.5	9.07e-04	0	56	0	166723584	54	6414
2026-01-21 23:26:46.16	21.83	17.14	-42.2	-46.5	11.4	1.01e-03	0	56	0	175112192	54	6440
2026-01-21 23:26:50.20	21.99	17.61	-42.2	-46.5	11.4	8.73e-04	0	56	0	182452224	55	6130
2026-01-21 23:26:54.24	22.15	18.08	-42.2	-46.4	11.6	6.57e-04	0	56	0	189792256	55	6017
2026-01-21 23:26:58.27	22.31	18.57	-42.2	-46.4	11.6	6.87e-04	0	56	0	197132288	55	6055
2026-01-21 23:27:02.31	22.47	19.06	-42.3	-46.5	11.6	6.45e-04	0	56	0	205520896	55	6080
2026-01-21 23:27:06.35	22.65	19.56	-42.3	-46.5	11.6	7.22e-04	0	56	0	212860928	55	6086
2026-01-21 23:27:10.39	22.82	20.08	-42.4	-46.7	11.4	9.76e-04	0	56	0	220200960	55	6235
2026-01-21 23:27:14.42	23.01	20.60	-42.5	-46.9	11.2	1.22e-03	0	57	0	227540992	55	6376
2026-01-21 23:27:18.46	23.19	21.14	-42.4	-46.8	11.3	1.20e-03	0	57	0	234881024	55	6308
2026-01-21 23:27:22.50	23.39	21.68	-42.4	-46.8	11.3	1.11e-03	0	56	0	243269632	55	6298
2026-01-21 23:27:26.54	23.59	22.24	-42.4	-46.7	11.4	9.24e-04	0	57	0	250609664	55	6273
2026-01-21 23:27:30.58	23.80	22.82	-42.4	-46.7	11.5	9.47e-04	0	57	0	257949696	55	6244
2026-01-21 23:27:34.62	24.01	23.40	-42.4	-46.7	11.5	8.42e-04	0	57	0	265289728	55	6256
2026-01-21 23:27:38.65	24.24	24.00	-42.4	-46.6	11.6	6.37e-04	0	57	0	273678336	55	6158
2026-01-21 23:27:42.69	24.47	24.61	-42.4	-46.6	11.7	6.54e-04	0	57	0	281018368	55	6138
2026-01-21 23:27:46.73	24.71	25.23	-42.4	-46.5	11.7	5.52e-04	0	57	0	288358400	55	6124
2026-01-21 23:27:50.77	24.96	25.87	-42.4	-46.5	11.8	4.97e-04	0	57	0	295698432	55	6086
2026-01-21 23:27:54.81	25.22	26.53	-42.3	-46.4	11.9	3.97e-04	0	57	0	303038464	55	6010
2026-01-21 23:27:58.84	25.48	27.19	-42.2	-46.1	12.2	2.68e-04	0	57	0	311427072	55	5841
2026-01-21 23:28:02.88	25.76	27.88	-42.2	-46.1	12.2	2.27e-04	0	57	0	318767104	55	5852
2026-01-21 23:28:06.92	26.05	28.59	-42.4	-46.5	11.9	3.62e-04	0	57	0	326107136	55	6085
2026-01-21 23:28:10.95	26.36	29.31	-42.6	-46.9	11.4	1.15e-03	0	57	0	333447168	55	6405
2026-01-21 23:28:14.99	26.68	30.05	-43.0	-47.6	10.9	1.78e-03	0	57	0	341835776	56	6498
2026-01-21 23:28:19.03	27.01	30.80	-43.2	-48.1	10.4	4.81e-03	0	57	0	349175808	57	6519
2026-01-21 23:28:23.07	27.35	31.58	-43.5	-48.7	9.7	1.14e-02	0	57	0	356515840	57	7034
2026-01-21 23:28:27.10	27.72	32.38	-43.4	-48.5	9.9	1.03e-02	0	57	0	363855872	57	6871
2026-01-21 23:28:31.14	28.10	33.20	-43.3	-48.2	10.2	6.68e-03	0	57	0	371195904	57	6644
2026-01-21 23:28:35.18	28.50	34.04	-43.1	-47.9	10.7	3.27e-03	0	57	0	379584512	57	6353
2026-01-21 23:28:39.22	28.92	34.90	-43.3	-48.1	10.4	4.42e-03	0	57	0	386924544	57	6543
2026-01-21 23:28:43.26	29.36	35.78	-43.4	-48.4	10.1	5.59e-03	0	57	0	394264576	57	6766
2026-01-21 23:28:47.29	29.83	36.69	-43.5	-48.8	9.7	1.19e-02	0	57	0	401604608	57	7100
2026-01-21 23:28:51.33	30.32	37.62	-43.7	-49.3	9.2	1.82e-02	0	57	0	409993216	57	7478
2026-01-21 23:28:55.37	30.84	38.57	-43.9	-49.7	8.7	2.92e-02	0	57	0	417333248	58	7454
2026-01-21 23:28:59.41	31.39	39.56	-44.0	-50.2	8.4	4.84e-02	0	57	0	424673280	58	7817
2026-01-21 23:29:03.44	31.98	40.56	-44.0	-50.1	8.4	4.77e-02	0	57	0	432013312	58	7771
2026-01-21 23:29:07.48	32.60	41.59	-43.9	-49.8	8.7	3.40e-02	0	58	0	439353344	58	7479
2026-01-21 23:29:11.52	33.27	42.65	-43.7	-49.1	9.5	1.65e-02	0	58	0	447741952	58	6920
2026-01-21 23:29:15.57	33.98	43.74	-43.8	-49.3	9.2	1.82e-02	0	57	0	455081984	58	7091
2026-01-21 23:29:19.61	34.74	44.85	-44.0	-50.0	8.6	3.44e-02	0	57	0	462422016	58	7649
2026-01-21 23:29:23.64	35.55	45.99	-43.7	-49.2	9.4	1.57e-02	0	57	0	469762048	58	6997
2026-01-21 23:29:27.68	36.42	47.15	-44.0	-49.9	8.6	3.82e-02	0	58	0	478150656	58	7607
2026-01-21 23:29:31.72	37.36	48.34	-43.9	-49.6	9.0	2.64e-02	0	58	0	485490688	58	7325
2026-01-21 23:29:35.76	38.38	49.55	-43.4	-48.2	10.4	8.81e-03	0	58	0	492830720	58	6255
2026-01-21 23:29:39.80	39.48	50.79	-42.4	-46.1	12.6	1.24e-04	0	58	0	500170752	56	5520
2026-01-21 23:29:43.83	40.66	52.05	-41.5	-44.5	14.1	3.00e-06	0	57	0	507510784	54	5128
2026-01-21 23:29:47.87	41.96	53.33	-40.4	-42.9	15.8	0.00e+00	0	57	0	515899392	52	4790
2026-01-21 23:29:51.91	43.38	54.62	-40.8	-43.4	15.3	0.00e+00	0	58	0	523239424	52	5069
2026-01-21 23:29:55.95	44.93	55.94	-41.6	-44.8	13.7	6.10e-06	0	58	0	530579456	53	5650
2026-01-21 23:29:59.98	46.63	57.25	-42.0	-45.4	13.1	2.44e-05	0	58	0	537919488	54	5705
2026-01-21 23:30:04.02	48.50	58.58	-42.4	-46.2	12.3	2.23e-04	0	58	0	546308096	55	5871
2026-01-21 23:30:08.06	50.57	59.90	-41.5	-44.5	14.1	5.30e-06	0	58	0	553648128	54	5122
2026-01-21 23:30:12.10	52.87	61.22	-41.5	-44.5	14.1	0.00e+00	0	58	0	560988160	54	5111
2026-01-21 23:30:16.13	55.40	62.51	-41.1	-44.0	14.7	0.00e+00	0	58	0	568328192	54	4821
2026-01-21 23:30:20.17	58.23	63.78	-41.9	-45.3	13.3	1.37e-05	0	58	0	575668224	54	5609
2026-01-21 23:30:24.21	61.37	65.01	-42.0	-45.5	13.1	5.26e-05	0	58	0	584056832	54	5746
2026-01-21 23:30:28.25	64.87	66.19	-42.5	-46.4	12.0	3.33e-04	0	58	0	591396864	55	6059
2026-01-21 23:30:32.28	68.75	67.29	-42.3	-46.1	12.4	1.02e-04	0	58	0	598736896	55	5823
2026-01-21 23:30:36.32	73.05	68.30	-43.2	-47.8	10.7	2.00e-03	0	58	0	606076928	56	6696
2026-01-21 23:30:40.36	77.78	69.19	-43.0	-47.5	11.1	1.16e-03	0	58	0	614465536	57	6076
2026-01-21 23:30:44.40	82.93	69.95	-43.1	-47.6	10.8	2.72e-03	0	58	0	621805568	57	6154
2026-01-21 23:30:48.44	88.47	70.56	-43.0	-47.4	11.1	2.16e-03	0	58	0	629145600	57	6044
2026-01-21 23:30:52.47	94.32	70.98	-42.0	-45.3	13.3	2.74e-05	0	58	0	636485632	56	5038
2026-01-21 23:30:56.51	100.40	71.22	-42.0	-45.5	12.9	6.94e-05	0	58	0	643825664	55	5457
2026-01-21 23:31:00.55	106.57	71.25	-41.7	-44.9	13.5	1.37e-05	0	58	0	652214272	54	5397
2026-01-21 23:31:04.59	112.70	71.08	-42.3	-46.1	12.4	8.39e-05	0	58	0	659554304	55	5838
2026-01-21 23:31:08.63	118.65	70.71	-42.5	-46.6	11.7	5.53e-04	0	58	0	666894336	55	6142
2026-01-21 23:31:12.66	124.29	70.17	-43.1	-47.6	10.8	2.70e-03	0	58	0	674234368	56	6564
2026-01-21 23:31:16.70	129.58	69.45	-43.1	-47.5	11.0	1.76e-03	0	58	0	682622976	56	6483
2026-01-21 23:31:20.74	134.45	68.59	-42.9	-47.1	11.3	1.14e-03	0	58	0	689963008	56	6196
2026-01-21 23:31:24.78	138.89	67.62	-43.6	-48.8	9.6	1.65e-02	0	58	0	697303040	57	7109
2026-01-21 23:31:28.82	142.91	66.54	-43.7	-49.0	9.4	2.02e-02	0	58	0	704643072	58	6843
2026-01-21 23:31:32.86	146.53	65.39	-43.1	-47.7	10.8	2.51e-03	0	58	0	711983104	58	5875
2026-01-21 23:31:36.90	149.79	64.17	-41.6	-44.9	13.6	2.28e-05	0	58	0	720371712	55	5043
2026-01-21 23:31:40.94	152.72	62.91	-40.6	-43.1	15.4	0.00e+00	0	58	0	727711744	52	4902
2026-01-21 23:31:44.98	155.35	61.61	-40.1	-42.3	16.2	0.00e+00	0	58	0	735051776	51	4753
2026-01-21 23:31:49.02	157.72	60.30	-40.4	-42.8	15.8	0.00e+00	0	58	0	742391808	51	5031
2026-01-21 23:31:53.06	159.86	58.97	-41.5	-44.5	13.9	6.10e-06	0	58	0	750780416	54	5156
2026-01-21 23:31:57.10	161.79	57.64	-43.5	-48.7	9.7	1.08e-02	0	58	0	758120448	57	7019
2026-01-21 23:32:01.13	163.54	56.31	-41.4	-44.3	14.2	0.00e+00	0	58	0	765460480	53	5339
2026-01-21 23:32:05.17	165.14	55.00	-40.4	-42.8	15.6	0.00e+00	0	58	0	772800512	52	4745
2026-01-21 23:32:09.21	166.60	53.69	-40.7	-43.3	15.3	0.00e+00	0	58	0	780140544	51	5320
2026-01-21 23:32:13.25	167.93	52.40	-39.9	-42.1	16.4	0.00e+00	0	58	0	788529152	51	4649
2026-01-21 23:32:17.28	169.16	51.13	-41.8	-45.1	13.3	6.80e-06	0	58	0	795869184	54	5519
2026-01-21 23:32:21.32	170.28	49.88	-42.3	-46.1	12.3	1.07e-04	0	58	0	803209216	55	5802
2026-01-21 23:32:25.36	171.32	48.66	-44.2	-51.1	7.2	2.05e-01	0	58	0	810549248	59	8250
2026-01-21 23:32:29.40	172.29	47.45	-42.8	-47.0	11.5	9.18e-04	0	58	0	818937856	57	5758
2026-01-21 23:32:33.44	173.18	46.28	-43.7	-49.3	9.0	2.24e-02	0	58	0	826277888	57	7526
2026-01-21 23:32:37.47	174.01	45.13	-41.7	-45.0	13.4	3.66e-05	0	58	0	833617920	55	5123
2026-01-21 23:32:41.51	174.78	44.00	-42.6	-46.8	11.6	5.40e-04	0	58	0	840957952	55	6276
2026-01-21 23:32:45.55	175.51	42.91	-41.7	-45.1	13.2	3.89e-05	0	58	0	848297984	55	5190
2026-01-21 23:32:49.59	176.18	41.83	-41.5	-44.6	13.8	3.00e-06	0	58	0	856686592	54	5178
2026-01-21 23:32:53.63	176.82	40.79	-43.6	-49.2	9.1	1.63e-02	0	58	0	864026624	57	7411
2026-01-21 23:32:57.67	177.41	39.77	-42.2	-45.9	12.5	1.29e-04	0	58	0	871366656	56	5374
2026-01-21 23:33:01.70	177.97	38.78	-42.6	-46.7	11.7	4.07e-04	0	58	0	878706688	56	5882
2026-01-21 23:33:05.74	178.50	37.81	-43.2	-48.3	10.0	7.51e-03	0	58	0	886046720	57	6665
2026-01-21 23:33:09.78	179.01	36.87	-42.5	-46.6	11.8	9.11e-04	0	58	0	894435328	57	5468
2026-01-21 23:33:13.82	179.48	35.95	-42.2	-45.9	12.5	1.02e-04	0	58	0	901775360	56	5383
2026-01-21 23:33:17.85	179.93	35.06	-42.7	-47.0	11.3	7.03e-04	0	58	0	909115392	56	6131
2026-01-21 23:33:21.89	180.35	34.19	-42.9	-47.5	10.8	2.12e-03	0	58	0	916455424	56	6465
2026-01-21 23:33:25.93	180.76	33.34	-42.9	-47.4	10.9	2.39e-03	0	58	0	924844032	56	6369
2026-01-21 23:33:29.97	181.14	32.51	-42.6	-46.8	11.5	8.06e-04	0	58	0	932184064	56	5952
2026-01-21 23:33:34.01	181.51	31.70	-42.9	-47.5	10.8	2.47e-03	0	58	0	939524096	56	6482
2026-01-21 23:33:38.05	181.86	30.91	-43.1	-48.0	10.2	6.02e-03	0	58	0	946864128	56	6822
2026-01-21 23:33:42.09	182.20	30.15	-42.9	-47.6	10.7	3.54e-03	0	58	0	954204160	56	6530
2026-01-21 23:33:46.12	182.51	29.40	-42.5	-46.5	11.8	5.57e-04	0	58	0	962592768	56	5751
2026-01-21 23:33:50.16	182.82	28.67	-42.1	-45.7	12.6	9.23e-05	0	58	0	969932800	56	5237
2026-01-21 23:33:54.20	183.11	27.96	-41.6	-45.0	13.1	3.35e-05	0	58	0	977272832	55	5151
2026-01-21 23:33:58.23	183.39	27.26	-41.7	-45.1	13.0	3.12e-05	0	58	0	984612864	55	5199
2026-01-21 23:34:02.27	183.66	26.59	-41.8	-45.4	12.7	4.88e-05	0	58	0	993001472	55	5386
2026-01-21 23:34:06.31	183.92	25.92	-41.9	-45.6	12.5	1.25e-04	0	58	0	1000341504	55	5497
2026-01-21 23:34:10.35	184.17	25.28	-41.7	-45.3	12.8	6.63e-05	0	58	0	1007681536	55	5308
2026-01-21 23:34:14.39	184.41	24.65	-41.6	-45.1	13.0	3.73e-05	0	58	0	1015021568	55	5176
2026-01-21 23:34:18.43	184.64	24.03	-41.4	-44.7	13.4	2.13e-05	0	58	0	1022361600	54	5277
2026-01-21 23:34:22.47	184.87	23.42	-41.3	-44.5	13.6	9.10e-06	0	58	0	1030750208	54	5147
2026-01-21 23:34:26.50	185.08	22.84	-41.2	-44.4	13.8	3.00e-06	0	58	0	1038090240	54	5065
2026-01-21 23:34:30.54	185.29	22.26	-41.2	-44.3	13.9	1.50e-06	0	58	0	1045430272	54	5008
2026-01-21 23:34:34.58	185.49	21.69	-41.2	-44.3	13.8	8.30e-06	0	58	0	1052770304	54	5008
2026-01-21 23:34:38.62	185.69	21.14	-41.2	-44.4	13.7	4.50e-06	0	58	0	1061158912	54	5085
2026-01-21 23:34:42.65	185.87	20.60	-41.3	-44.5	13.6	7.60e-06	0	58	0	1068498944	54	5119
2026-01-21 23:34:46.69	186.05	20.07	-41.4	-44.7	13.4	1.37e-05	0	58	0	1075838976	54	5250
2026-01-21 23:34:50.73	186.23	19.55	-41.5	-45.0	13.1	1.60e-05	0	58	0	1083179008	54	5436
2026-01-21 23:34:54.77	186.40	19.04	-41.6	-45.1	13.0	3.28e-05	0	58	0	1090519040	54	5506
2026-01-21 23:34:58.80	186.57	18.54	-41.6	-45.2	12.9	4.65e-05	0	58	0	1098907648	54	5557
2026-01-21 23:35:02.85	186.73	18.05	-41.6	-45.1	12.9	6.02e-05	0	58	0	1106247680	54	5525
2026-01-21 23:35:06.89	186.88	17.57	-41.7	-45.3	12.8	7.85e-05	0	58	0	1113587712	54	5600
2026-01-21 23:35:10.92	187.04	17.11	-41.8	-45.5	12.5	1.01e-04	0	58	0	1120927744	54	5737
2026-01-21 23:35:14.97	187.18	16.64	-41.9	-45.7	12.3	1.74e-04	0	58	0	1129316352	54	5878
2026-01-21 23:35:19.00	187.33	16.19	-41.8	-45.7	12.3	1.64e-04	0	58	0	1136656384	54	5864
2026-01-21 23:35:23.04	187.47	15.74	-42.0	-45.9	12.1	2.92e-04	0	58	0	1143996416	54	6024
2026-01-21 23:35:27.08	187.60	15.31	-41.9	-45.8	12.2	3.09e-04	0	58	0	1151336448	54	5946
2026-01-21 23:35:31.12	187.73	14.88	-41.9	-45.9	12.1	2.49e-04	0	58	0	1158676480	54	5996
2026-01-21 23:35:35.16	187.86	14.45	-41.9	-45.9	12.0	2.96e-04	0	58	0	1167065088	54	6030
2026-01-21 23:35:39.20	187.99	14.04	-41.9	-45.8	12.1	2.74e-04	0	58	0	1174405120	54	5983
2026-01-21 23:35:43.23	188.11	13.63	-41.9	-45.9	12.0	3.01e-04	0	58	0	1181745152	54	6022
2026-01-21 23:35:47.27	188.23	13.23	-41.8	-45.7	12.2	2.34e-04	0	58	0	1189085184	54	5866
2026-01-21 23:35:51.31	188.35	12.83	-41.8	-45.8	12.0	2.82e-04	0	58	0	1197473792	54	5960
2026-01-21 23:35:55.35	188.46	12.44	-41.9	-46.0	11.8	5.20e-04	0	58	0	1204813824	54	6084
2026-01-21 23:35:59.38	188.57	12.06	-41.9	-45.9	11.9	3.28e-04	0	58	0	1212153856	54	5997
2026-01-21 23:36:03.42	188.68	11.69	-41.9	-46.1	11.7	4.99e-04	0	58	0	1219493888	54	6138
2026-01-21 23:36:07.46	188.79	11.31	-42.0	-46.1	11.6	6.72e-04	0	58	0	1226833920	54	6180
2026-01-21 23:36:11.50	188.89	10.95	-42.1	-46.4	11.3	1.17e-03	0	58	0	1235222528	54	6400
2026-01-21 23:36:15.54	188.99	10.59	-42.1	-46.5	11.2	1.25e-03	0	58	0	1242562560	54	6426
2026-01-21 23:36:19.58	189.09	10.23	-42.1	-46.6	11.0	1.64e-03	0	58	0	1249902592	54	6540
2026-01-21 23:36:23.63	189.19	9.88	-42.2	-46.7	10.9	1.99e-03	0	58	0	1257242624	54	6616
2026-01-21 23:36:27.66	189.29	9.53	-42.2	-46.9	10.6	2.88e-03	0	58	0	1265631232	55	6413
2026-01-21 23:36:31.70	189.38	9.19	-42.3	-47.0	10.5	3.50e-03	0	58	0	1272971264	55	6485
2026-01-21 23:36:35.74	189.47	8.86	-42.1	-46.8	10.7	3.15e-03	0	58	0	1280311296	55	6288
2026-01-21 23:36:39.79	189.56	8.52	-42.3	-47.3	10.1	5.30e-03	0	58	0	1287651328	55	6672
2026-01-21 23:36:43.82	189.65	8.20	-42.2	-47.1	10.3	6.01e-03	0	58	0	1294991360	55	6533
2026-01-21 23:36:47.86	189.74	7.87	-44.7	-59.4	3.8	1.49e+00	0	58	104	1301282816	60	20079
2026-01-21 23:36:51.91	189.82	7.55	-45.2	-59.9	3.8	1.49e+00	0	58	104	1301282816	60	21398
2026-01-21 23:36:55.95	189.90	7.24	-45.4	-60.1	3.8	1.49e+00	0	58	104	1301282816	61	20664
2026-01-21 23:36:59.99	189.98	6.93	-45.4	-60.0	3.8	1.49e+00	0	58	104	1301282816	61	20498
2026-01-21 23:37:04.03	190.06	6.62	-45.3	-59.9	3.8	1.49e+00	0	58	104	1301282816	61	20163
2026-01-21 23:37:08.07	190.14	6.31	-45.3	-59.9	3.8	1.49e+00	0	58	104	1301282816	61	20131
2026-01-21 23:37:12.11	190.22	6.01	-45.3	-59.9	3.8	1.49e+00	0	58	104	1301282816	61	20112
2026-01-21 23:37:16.15	190.30	5.71	-45.3	-59.9	3.8	1.49e+00	0	58	104	1301282816	61	20076
2026-01-21 23:37:20.19	190.37	5.42	-45.2	-59.8	3.8	1.49e+00	0	58	104	1301282816	61	19997
2026-01-21 23:37:24.24	190.44	5.13	-45.3	-59.8	3.8	1.49e+00	0	58	104	1301282816	61	20016
2026-01-21 23:37:28.28	190.52	4.84	-45.2	-59.8	3.8	1.49e+00	0	58	104	1301282816	61	20031
2026-01-21 23:37:32.32	190.59	4.56	-45.2	-59.8	3.8	1.49e+00	0	58	104	1301282816	61	19931
2026-01-21 23:37:36.36	190.66	4.27	-45.2	-59.8	3.8	1.49e+00	0	58	104	1301282816	61	20017
2026-01-21 23:37:40.40	190.73	3.99	-45.2	-59.8	3.8	1.49e+00	0	58	104	1301282816	61	19975
2026-01-21 23:37:44.44	190.79	3.72	-45.2	-59.8	3.8	1.49e+00	0	58	104	1301282816	61	19875
2026-01-21 23:37:48.49	190.86	3.44	-45.2	-59.8	3.8	1.49e+00	0	58	104	1301282816	61	19946
2026-01-21 23:37:52.53	190.92	3.17	-45.2	-59.8	3.8	1.49e+00	0	58	104	1301282816	61	19938
2026-01-21 23:37:56.57	190.99	2.91	-45.2	-59.8	3.8	1.49e+00	0	58	104	1301282816	61	19934
2026-01-21 23:38:00.61	191.05	2.64	-45.2	-59.8	3.8	1.49e+00	0	58	104	1301282816	61	19927
2026-01-21 23:38:04.65	191.12	2.38	-45.2	-59.8	3.8	1.49e+00	0	58	104	1301282816	61	19917
2026-01-21 23:38:08.69	191.18	2.12	-45.2	-59.8	3.8	1.49e+00	0	58	104	1301282816	61	19901

#Closed at: 2026-01-21 23:38:11
#Recorded file [1301 MB]: D:/lorett/data/31039_260122_022344.dat