passes_logs/2026/01/21/R2.0S_Moscow/R2.0S_Moscow__20260121_101219_FENGYUN_3D_rec.log

#Pass ID: 20260121_101219_FENGYUN 3D
#Satellite: FENGYUN 3D
#Configuration: FENGYUN 3D
#almurnet v.1.7.20251203
#Start time: 2026-01-21 10:12:22

#Version: 2.2.20231116
#Station: R2.0S_Moscow
#Location: 37.707566 lon 55.798166 lat
#TLE: 1 43010U 17072A   26020.28933472  .00000051  00000+0  46008-4 0  9990
#TLE: 2 43010  98.9944 352.1871 0002476  99.7001 260.4455 14.19696838424006

#Time	Az	El	Level	Level2	SNR	BER	BlckErr	Temp	State	Recorded	gain1	gain2
2026-01-21 10:12:22.20	108.31	2.13	-15.4	-39.0	3.6	8.33e-01	0	51	0	0	4	48413
2026-01-21 10:12:25.24	108.10	2.29	-32.1	-45.9	4.0	8.36e-01	0	51	104	0	31	22750
2026-01-21 10:12:28.27	107.88	2.46	-28.9	-44.6	3.9	8.39e-01	0	52	104	0	29	21786
2026-01-21 10:12:31.30	107.66	2.63	-27.8	-42.3	3.9	8.40e-01	0	52	0	0	14	39943
2026-01-21 10:12:34.33	107.44	2.80	-23.7	-40.2	4.1	8.40e-01	0	52	104	0	16	27882
2026-01-21 10:12:37.36	107.21	2.97	-15.3	-36.0	3.8	8.43e-01	0	52	104	0	6	30678
2026-01-21 10:12:40.39	106.98	3.15	-28.1	-45.3	4.4	8.42e-01	0	52	104	0	22	35641
2026-01-21 10:12:43.42	106.75	3.32	-26.0	-40.5	3.6	8.34e-01	0	53	104	0	24	18106
2026-01-21 10:12:46.45	106.52	3.49	-26.4	-42.1	4.1	8.38e-01	0	53	104	0	24	21869
2026-01-21 10:12:49.48	106.28	3.66	-22.7	-37.9	3.9	8.41e-01	0	53	104	0	14	23857
2026-01-21 10:12:52.51	106.04	3.84	-32.8	-46.1	4.1	8.37e-01	0	53	104	0	33	20626
2026-01-21 10:12:55.54	105.80	4.01	-17.0	-36.6	3.7	8.39e-01	0	54	104	0	9	27552
2026-01-21 10:12:58.58	105.55	4.19	-20.6	-36.8	3.8	8.42e-01	0	54	104	0	11	25131
2026-01-21 10:13:01.61	105.30	4.36	-30.5	-44.5	3.8	8.36e-01	0	54	104	0	23	30385
2026-01-21 10:13:04.64	105.05	4.54	-26.5	-42.6	4.1	8.41e-01	0	54	104	0	19	30731
2026-01-21 10:13:07.67	104.79	4.72	-15.8	-37.0	4.1	8.40e-01	0	54	104	0	8	30577
2026-01-21 10:13:10.70	104.53	4.90	-15.4	-36.3	3.8	8.45e-01	0	54	104	0	10	25186
2026-01-21 10:13:13.74	104.27	5.08	-14.2	-37.0	3.8	8.39e-01	0	54	104	0	1	45820
2026-01-21 10:13:16.77	104.01	5.25	-16.8	-35.6	3.8	8.41e-01	0	54	104	0	2	36649
2026-01-21 10:13:19.80	103.74	5.43	-16.0	-40.2	3.9	8.38e-01	0	55	104	0	11	37091
2026-01-21 10:13:22.83	103.47	5.62	-15.6	-36.0	3.6	8.40e-01	0	55	104	0	10	24297
2026-01-21 10:13:25.86	103.19	5.80	-25.3	-39.8	3.8	8.36e-01	0	55	0	0	13	31610
2026-01-21 10:13:28.89	102.91	5.98	-26.3	-42.4	3.9	8.39e-01	0	55	104	0	26	20147
2026-01-21 10:13:31.92	102.63	6.16	-17.2	-37.4	3.8	8.42e-01	0	55	0	0	14	22766
2026-01-21 10:13:34.96	102.34	6.34	-18.5	-36.2	3.6	8.46e-01	0	55	104	0	1	41653
2026-01-21 10:13:37.99	102.05	6.53	-23.3	-38.3	3.9	8.39e-01	0	55	104	0	11	30031
2026-01-21 10:13:41.01	101.76	6.71	-23.3	-41.3	3.7	8.42e-01	0	56	104	0	11	42267
2026-01-21 10:13:44.04	101.46	6.90	-14.5	-37.3	3.7	8.39e-01	0	56	104	0	2	44620
2026-01-21 10:13:47.08	101.16	7.08	-26.3	-41.4	4.1	8.44e-01	0	56	104	0	21	24043
2026-01-21 10:13:50.11	100.85	7.27	-18.8	-36.3	3.9	8.43e-01	0	56	104	0	7	29910
2026-01-21 10:13:53.14	100.55	7.46	-29.6	-44.5	4.1	8.39e-01	0	56	104	0	27	24287
2026-01-21 10:13:56.17	100.23	7.64	-13.3	-36.6	3.9	8.39e-01	0	56	104	0	6	32826
2026-01-21 10:13:59.20	99.91	7.83	-17.2	-37.7	4.1	8.39e-01	0	56	104	0	23	13982
2026-01-21 10:14:02.24	99.59	8.02	-31.1	-42.1	4.0	8.39e-01	0	56	104	0	18	30952
2026-01-21 10:14:05.26	99.27	8.21	-21.7	-38.2	3.8	8.42e-01	0	56	104	0	13	26167
2026-01-21 10:14:08.29	98.94	8.40	-25.1	-39.6	4.2	8.40e-01	0	56	104	0	23	17337
2026-01-21 10:14:11.32	98.60	8.59	-32.1	-41.8	4.5	7.97e-01	0	57	0	0	27	17745
2026-01-21 10:14:14.35	98.26	8.78	-24.5	-41.0	4.4	8.43e-01	0	57	104	0	21	22973
2026-01-21 10:14:17.37	97.92	8.97	-22.6	-37.8	4.7	8.22e-01	0	57	0	0	19	17852
2026-01-21 10:14:20.40	97.57	9.16	-25.0	-38.6	4.7	7.46e-01	0	57	0	0	24	14596
2026-01-21 10:14:23.43	97.22	9.35	-25.1	-40.6	4.3	8.43e-01	0	57	104	1048576	23	19514
2026-01-21 10:14:26.46	96.86	9.54	-23.4	-40.0	4.0	8.43e-01	0	57	104	1048576	22	19181
2026-01-21 10:14:29.49	96.50	9.74	-32.6	-47.4	3.8	8.42e-01	0	57	104	1048576	40	16008
2026-01-21 10:14:32.52	96.13	9.93	-40.4	-48.1	4.8	8.20e-01	0	57	0	1048576	49	10377
2026-01-21 10:14:35.55	95.76	10.12	-38.2	-51.2	3.9	8.44e-01	0	57	104	1048576	44	19730
2026-01-21 10:14:38.58	95.38	10.32	-35.4	-46.8	4.0	8.41e-01	0	57	104	1048576	40	15027
2026-01-21 10:14:41.61	95.00	10.51	-36.4	-42.3	9.3	4.11e-02	0	58	0	9437184	47	5970
2026-01-21 10:14:44.64	94.61	10.70	-36.7	-41.3	10.2	7.07e-03	0	58	0	20971520	45	5965
2026-01-21 10:14:47.66	94.22	10.90	-37.6	-42.1	9.5	1.38e-02	0	58	0	38797312	46	6156
2026-01-21 10:14:50.69	93.82	11.09	-38.1	-42.4	9.7	1.27e-02	0	58	0	55574528	47	6029
2026-01-21 10:14:53.72	93.41	11.29	-39.0	-42.2	10.5	3.41e-03	0	58	0	72351744	48	5579
2026-01-21 10:14:56.76	93.00	11.48	-38.7	-42.2	10.5	4.30e-03	0	58	0	89128960	48	5540
2026-01-21 10:14:59.79	92.59	11.68	-39.0	-42.3	10.4	4.60e-03	0	58	0	105906176	48	5616
2026-01-21 10:15:02.81	92.17	11.87	-39.2	-42.8	9.8	5.76e-03	0	58	0	123731968	49	5600
2026-01-21 10:15:05.84	91.74	12.07	-38.9	-42.0	10.8	1.57e-03	0	58	0	140509184	48	5451
2026-01-21 10:15:08.87	91.31	12.27	-38.4	-41.3	11.4	8.47e-04	0	58	0	157286400	48	5041
2026-01-21 10:15:11.90	90.87	12.46	-38.9	-42.2	10.6	1.76e-03	0	58	0	175112192	48	5543
2026-01-21 10:15:14.93	90.43	12.66	-41.1	-47.8	5.3	3.25e-01	0	58	0	190840832	52	8375
2026-01-21 10:15:17.96	89.98	12.85	-41.7	-52.0	3.8	8.45e-01	0	59	104	190840832	54	12172
2026-01-21 10:15:20.99	89.52	13.05	-42.7	-53.7	3.8	8.47e-01	0	58	104	190840832	55	14028
2026-01-21 10:15:24.02	89.06	13.24	-41.3	-53.0	3.8	8.46e-01	0	58	104	190840832	53	14475
2026-01-21 10:15:27.05	88.59	13.43	-40.9	-52.7	3.8	8.47e-01	0	58	104	190840832	53	13971
2026-01-21 10:15:30.08	88.12	13.63	-42.1	-52.1	3.8	8.45e-01	0	59	104	190840832	55	11628
2026-01-21 10:15:33.11	87.64	13.82	-41.2	-47.4	5.6	7.19e-01	0	58	0	190840832	54	7185
2026-01-21 10:15:36.13	87.15	14.01	-40.0	-44.4	8.0	8.24e-02	0	59	0	206569472	52	5671
2026-01-21 10:15:39.17	86.65	14.21	-39.5	-43.4	9.0	3.26e-02	0	59	0	224395264	51	5389
2026-01-21 10:15:42.20	86.15	14.40	-39.2	-43.0	9.3	2.12e-02	0	59	0	241172480	50	5414
2026-01-21 10:15:45.23	85.65	14.59	-39.8	-44.4	7.8	9.20e-02	0	59	0	257949696	50	6371
2026-01-21 10:15:48.25	85.14	14.78	-40.0	-45.1	7.0	1.57e-01	0	59	0	274726912	50	6928
2026-01-21 10:15:51.28	84.61	14.97	-40.2	-45.5	6.8	1.64e-01	0	59	0	291504128	51	6808
2026-01-21 10:15:54.31	84.09	15.16	-39.6	-43.6	8.8	8.86e-02	0	59	0	296747008	51	5514
2026-01-21 10:15:57.34	83.55	15.34	-39.3	-42.9	9.5	1.83e-02	0	59	0	309329920	50	5391
2026-01-21 10:16:00.36	83.02	15.53	-39.1	-42.5	10.0	1.11e-02	0	59	0	326107136	50	5153
2026-01-21 10:16:03.39	82.47	15.72	-39.0	-42.4	10.2	7.31e-03	0	59	0	343932928	49	5359
2026-01-21 10:16:06.42	81.91	15.90	-39.3	-42.7	10.0	1.05e-02	0	59	0	360710144	49	5583
2026-01-21 10:16:09.45	81.35	16.08	-39.2	-42.5	10.3	7.53e-03	0	59	0	377487360	49	5442
2026-01-21 10:16:12.47	80.79	16.26	-39.0	-42.2	10.4	5.36e-03	0	59	0	394264576	49	5267
2026-01-21 10:16:15.50	80.21	16.44	-39.2	-42.8	9.7	1.23e-02	0	59	0	412090368	49	5610
2026-01-21 10:16:18.53	79.63	16.62	-39.4	-43.1	9.4	2.00e-02	0	59	0	428867584	49	5847
2026-01-21 10:16:21.56	79.04	16.80	-39.3	-42.9	9.7	1.37e-02	0	59	0	445644800	49	5676
2026-01-21 10:16:24.59	78.45	16.97	-39.2	-42.9	9.5	1.59e-02	0	59	0	462422016	49	5718
2026-01-21 10:16:27.61	77.85	17.14	-39.3	-43.1	9.2	2.67e-02	0	59	0	480247808	49	5833
2026-01-21 10:16:30.64	77.24	17.31	-39.2	-43.0	9.3	2.02e-02	0	59	0	497025024	49	5764
2026-01-21 10:16:33.68	76.62	17.48	-38.8	-42.1	10.3	7.19e-03	0	59	0	513802240	49	5212
2026-01-21 10:16:36.71	76.00	17.65	-38.7	-42.0	10.5	5.32e-03	0	59	0	530579456	49	5114
2026-01-21 10:16:39.74	75.37	17.81	-38.9	-42.2	10.3	6.53e-03	0	60	0	548405248	49	5275
2026-01-21 10:16:42.77	74.73	17.97	-39.2	-42.8	9.7	1.28e-02	0	59	0	565182464	49	5619
2026-01-21 10:16:45.80	74.09	18.13	-39.1	-42.7	9.8	1.37e-02	0	59	0	581959680	49	5546
2026-01-21 10:16:48.83	73.44	18.28	-39.0	-42.2	10.6	4.73e-03	0	60	0	598736896	49	5252
2026-01-21 10:16:51.86	72.78	18.44	-38.9	-42.0	11.0	2.94e-03	0	60	0	616562688	49	5128
2026-01-21 10:16:54.90	72.11	18.59	-38.7	-41.6	11.6	1.25e-03	0	59	0	633339904	49	4905
2026-01-21 10:16:57.93	71.44	18.73	-38.6	-41.4	11.9	5.74e-04	0	60	0	650117120	49	4782
2026-01-21 10:17:00.95	70.77	18.88	-38.6	-41.3	12.3	4.50e-04	0	60	0	667942912	49	4721
2026-01-21 10:17:03.99	70.08	19.02	-38.4	-40.8	13.3	3.77e-05	0	60	0	684720128	48	4721
2026-01-21 10:17:07.01	69.40	19.15	-37.8	-40.0	14.1	1.02e-05	0	59	0	701497344	47	4561
2026-01-21 10:17:10.04	68.70	19.28	-37.8	-39.9	14.3	2.20e-06	0	60	0	718274560	47	4509
2026-01-21 10:17:13.07	68.00	19.41	-37.7	-39.7	14.6	0.00e+00	0	60	0	735051776	47	4439
2026-01-21 10:17:16.10	67.29	19.54	-37.5	-39.4	15.0	0.00e+00	0	59	0	752877568	47	4289
2026-01-21 10:17:19.13	66.58	19.66	-36.9	-38.7	15.9	0.00e+00	0	60	0	769654784	45	4419
2026-01-21 10:17:22.16	65.86	19.78	-36.9	-38.7	16.0	0.00e+00	0	60	0	786432000	45	4425
2026-01-21 10:17:25.19	65.14	19.89	-36.9	-38.7	16.0	0.00e+00	0	60	0	803209216	45	4420
2026-01-21 10:17:28.22	64.41	20.00	-36.9	-38.7	16.1	0.00e+00	0	60	0	821035008	45	4400
2026-01-21 10:17:31.24	63.68	20.10	-37.0	-38.7	16.1	0.00e+00	0	60	0	837812224	45	4420
2026-01-21 10:17:34.27	62.94	20.20	-36.9	-38.6	16.2	0.00e+00	0	60	0	854589440	45	4361
2026-01-21 10:17:37.30	62.20	20.29	-37.0	-38.8	16.0	0.00e+00	0	60	0	871366656	45	4480
2026-01-21 10:17:40.33	61.45	20.38	-37.0	-38.7	16.1	0.00e+00	0	60	0	889192448	45	4428
2026-01-21 10:17:43.36	60.70	20.47	-37.3	-39.1	15.7	0.00e+00	0	60	0	905969664	45	4647
2026-01-21 10:17:46.39	59.94	20.55	-37.2	-39.0	15.9	0.00e+00	0	60	0	922746880	45	4577
2026-01-21 10:17:49.41	59.18	20.63	-37.0	-38.7	16.1	0.00e+00	0	60	0	939524096	45	4421
2026-01-21 10:17:52.44	58.42	20.70	-37.0	-38.8	16.1	0.00e+00	0	60	0	957349888	45	4477
2026-01-21 10:17:55.47	57.65	20.76	-37.1	-38.8	16.4	0.00e+00	0	60	0	974127104	45	4444
2026-01-21 10:17:58.50	56.88	20.82	-37.0	-38.6	16.5	0.00e+00	0	60	0	990904320	45	4374
2026-01-21 10:18:01.53	56.11	20.87	-37.0	-38.6	16.5	0.00e+00	0	60	0	1007681536	45	4366
2026-01-21 10:18:04.56	55.33	20.92	-37.0	-38.6	16.5	0.00e+00	0	60	0	1025507328	45	4378
2026-01-21 10:18:07.59	54.55	20.97	-37.2	-38.8	16.3	0.00e+00	0	60	0	1042284544	45	4458
2026-01-21 10:18:10.62	53.77	21.00	-37.4	-39.1	16.0	0.00e+00	0	60	0	1059061760	45	4637
2026-01-21 10:18:13.65	52.99	21.04	-37.4	-39.1	16.1	0.00e+00	0	60	0	1076887552	45	4600
2026-01-21 10:18:16.68	52.21	21.06	-37.2	-38.9	16.3	0.00e+00	0	60	0	1093664768	45	4505
2026-01-21 10:18:19.71	51.42	21.08	-37.1	-38.7	16.5	0.00e+00	0	60	0	1110441984	45	4398
2026-01-21 10:18:22.74	50.64	21.10	-37.1	-38.8	16.4	0.00e+00	0	60	0	1127219200	45	4445
2026-01-21 10:18:25.78	49.85	21.11	-37.1	-38.7	16.5	0.00e+00	0	60	0	1143996416	45	4419
2026-01-21 10:18:28.80	49.07	21.11	-37.2	-38.9	16.3	0.00e+00	0	60	0	1161822208	45	4513
2026-01-21 10:18:31.83	48.28	21.11	-37.3	-38.9	16.2	0.00e+00	0	60	0	1178599424	45	4541
2026-01-21 10:18:34.86	47.50	21.10	-37.3	-38.9	16.2	0.00e+00	0	60	0	1195376640	45	4533
2026-01-21 10:18:37.89	46.71	21.09	-37.2	-38.9	16.3	0.00e+00	0	60	0	1212153856	45	4501
2026-01-21 10:18:40.92	45.93	21.07	-37.1	-38.7	16.5	0.00e+00	0	60	0	1229979648	45	4399
2026-01-21 10:18:43.95	45.14	21.05	-37.1	-38.7	16.5	0.00e+00	0	60	0	1246756864	45	4427
2026-01-21 10:18:46.98	44.36	21.02	-37.2	-38.9	16.3	0.00e+00	0	60	0	1263534080	45	4502
2026-01-21 10:18:50.00	43.58	20.98	-37.2	-38.8	16.3	0.00e+00	0	60	0	1281359872	45	4492
2026-01-21 10:18:53.03	42.80	20.94	-36.9	-38.5	16.7	0.00e+00	0	60	0	1298137088	45	4322
2026-01-21 10:18:56.06	42.03	20.89	-36.9	-38.5	16.7	0.00e+00	0	60	0	1314914304	45	4332
2026-01-21 10:18:59.09	41.26	20.84	-36.9	-38.5	16.7	0.00e+00	0	60	0	1331691520	45	4305
2026-01-21 10:19:02.12	40.49	20.78	-37.0	-38.6	16.6	0.00e+00	0	60	0	1348468736	45	4363
2026-01-21 10:19:05.15	39.72	20.72	-37.0	-38.6	16.6	0.00e+00	0	60	0	1366294528	45	4360
2026-01-21 10:19:08.18	38.95	20.65	-37.2	-38.9	16.3	0.00e+00	0	60	0	1383071744	45	4502
2026-01-21 10:19:11.21	38.19	20.58	-37.1	-38.7	16.5	0.00e+00	0	60	0	1399848960	45	4407
2026-01-21 10:19:14.24	37.44	20.50	-37.0	-38.5	16.7	0.00e+00	0	60	0	1416626176	45	4325
2026-01-21 10:19:17.27	36.68	20.42	-37.2	-38.8	16.4	0.00e+00	0	60	0	1434451968	45	4472
2026-01-21 10:19:20.30	35.94	20.33	-37.3	-38.9	16.3	0.00e+00	0	60	0	1451229184	45	4504
2026-01-21 10:19:23.32	35.19	20.24	-37.4	-39.1	16.2	0.00e+00	0	60	0	1468006400	45	4602
2026-01-21 10:19:26.35	34.46	20.14	-37.4	-39.1	16.1	0.00e+00	0	60	0	1485832192	45	4620
2026-01-21 10:19:29.38	33.72	20.04	-37.3	-38.9	16.3	0.00e+00	0	60	0	1502609408	45	4513
2026-01-21 10:19:32.42	32.99	19.93	-37.1	-38.7	16.5	0.00e+00	0	60	0	1519386624	45	4426
2026-01-21 10:19:35.45	32.27	19.82	-37.3	-39.0	16.2	0.00e+00	0	60	0	1536163840	45	4566
2026-01-21 10:19:38.48	31.55	19.70	-37.4	-39.0	16.2	0.00e+00	0	60	0	1552941056	45	4578
2026-01-21 10:19:41.51	30.83	19.59	-37.4	-39.1	16.1	0.00e+00	0	60	0	1570766848	45	4633
2026-01-21 10:19:44.54	30.13	19.46	-37.5	-39.2	16.0	0.00e+00	0	60	0	1587544064	45	4669
2026-01-21 10:19:47.57	29.42	19.33	-37.6	-39.3	15.9	0.00e+00	0	60	0	1604321280	45	4715
2026-01-21 10:19:50.60	28.73	19.20	-37.4	-39.1	16.0	0.00e+00	0	60	0	1622147072	45	4631
2026-01-21 10:19:53.63	28.04	19.07	-37.5	-39.2	16.0	0.00e+00	0	60	0	1638924288	45	4664
2026-01-21 10:19:56.66	27.36	18.93	-37.6	-39.3	15.9	0.00e+00	0	60	0	1655701504	45	4715
2026-01-21 10:19:59.68	26.68	18.79	-37.7	-39.5	15.7	0.00e+00	0	60	0	1672478720	46	4567
2026-01-21 10:20:02.71	26.01	18.65	-37.7	-39.5	15.7	0.00e+00	0	60	0	1690304512	46	4557
2026-01-21 10:20:05.74	25.35	18.50	-37.8	-39.6	15.6	0.00e+00	0	60	0	1707081728	46	4627
2026-01-21 10:20:08.77	24.69	18.35	-37.8	-39.6	15.6	0.00e+00	0	60	0	1723858944	46	4614
2026-01-21 10:20:11.80	24.04	18.19	-37.9	-39.7	15.4	0.00e+00	0	60	0	1740636160	46	4693
2026-01-21 10:20:14.82	23.40	18.04	-38.0	-39.8	15.3	0.00e+00	0	60	0	1757413376	46	4740
2026-01-21 10:20:17.85	22.76	17.88	-37.8	-39.5	15.6	0.00e+00	0	60	0	1775239168	46	4568
2026-01-21 10:20:20.88	22.13	17.72	-37.9	-39.6	15.5	0.00e+00	0	60	0	1792016384	46	4649
2026-01-21 10:20:23.91	21.51	17.55	-37.9	-39.7	15.4	0.00e+00	0	60	0	1808793600	46	4653
2026-01-21 10:20:26.94	20.89	17.38	-38.0	-39.8	15.2	0.00e+00	0	60	0	1825570816	46	4755
2026-01-21 10:20:29.97	20.28	17.22	-38.0	-39.8	15.3	0.00e+00	0	60	0	1843396608	46	4713
2026-01-21 10:20:33.00	19.68	17.04	-38.2	-40.2	14.9	0.00e+00	0	60	0	1860173824	47	4655
2026-01-21 10:20:36.03	19.08	16.87	-38.0	-39.9	15.2	0.00e+00	0	60	0	1876951040	47	4504
2026-01-21 10:20:39.06	18.50	16.70	-38.3	-40.2	14.9	0.00e+00	0	60	0	1894776832	47	4677
2026-01-21 10:20:42.09	17.91	16.52	-38.2	-40.0	15.0	0.00e+00	0	60	0	1911554048	47	4594
2026-01-21 10:20:45.12	17.34	16.34	-38.1	-39.9	15.1	0.00e+00	0	60	0	1928331264	47	4513
2026-01-21 10:20:48.14	16.77	16.16	-38.1	-39.9	15.1	0.00e+00	0	60	0	1945108480	47	4543
2026-01-21 10:20:51.17	16.21	15.98	-38.0	-39.9	15.1	1.10e-06	0	60	0	1961885696	47	4498
2026-01-21 10:20:54.20	15.66	15.80	-38.0	-39.9	15.1	0.00e+00	0	60	0	1979711488	47	4499
2026-01-21 10:20:57.23	15.11	15.61	-38.3	-40.2	14.7	0.00e+00	0	60	0	1996488704	47	4698
2026-01-21 10:21:00.26	14.57	15.43	-38.2	-40.1	14.9	3.40e-06	0	60	0	2013265920	47	4610
2026-01-21 10:21:03.29	14.04	15.24	-38.3	-40.2	14.6	0.00e+00	0	60	0	2030043136	47	4699
2026-01-21 10:21:06.32	13.51	15.05	-38.2	-40.1	14.7	0.00e+00	0	60	0	2047868928	47	4609
2026-01-21 10:21:09.35	12.99	14.87	-38.2	-40.1	14.6	1.10e-06	0	60	0	2064646144	47	4650
2026-01-21 10:21:12.38	12.48	14.68	-38.3	-40.2	14.5	1.10e-06	0	60	0	2081423360	47	4697
2026-01-21 10:21:15.40	11.97	14.49	-38.3	-40.3	14.3	1.10e-06	0	60	0	2099249152	47	4747
2026-01-21 10:21:18.43	11.47	14.30	-38.5	-40.6	13.9	4.50e-06	0	61	0	2116026368	47	4921
2026-01-21 10:21:21.46	10.98	14.10	-38.6	-40.8	13.7	1.25e-05	0	60	0	2132803584	47	4995
2026-01-21 10:21:24.49	10.49	13.91	-38.6	-40.7	13.7	1.71e-05	0	60	0	2149580800	47	4965
2026-01-21 10:21:27.52	10.01	13.72	-38.4	-40.6	13.8	4.50e-06	0	60	0	2166358016	47	4890
2026-01-21 10:21:30.55	9.54	13.53	-38.7	-41.0	13.1	4.23e-05	0	60	0	2184183808	47	5134
2026-01-21 10:21:33.57	9.07	13.33	-38.6	-40.7	13.6	8.00e-06	0	60	0	2200961024	48	4670
2026-01-21 10:21:36.60	8.61	13.14	-38.5	-40.8	13.2	2.40e-05	0	60	0	2217738240	48	4734
2026-01-21 10:21:39.63	8.16	12.95	-39.0	-41.6	12.1	3.65e-04	0	61	0	2234515456	48	5187
2026-01-21 10:21:42.66	7.71	12.75	-38.6	-41.1	12.4	2.54e-04	0	60	0	2252341248	48	4885
2026-01-21 10:21:45.69	7.26	12.56	-38.2	-40.7	12.5	1.88e-04	0	60	0	2269118464	48	4665
2026-01-21 10:21:48.72	6.83	12.36	-38.5	-41.2	11.9	3.64e-04	0	60	0	2285895680	48	4933
2026-01-21 10:21:51.75	6.39	12.17	-39.7	-43.5	9.0	2.20e-02	0	60	0	2303721472	49	6108
2026-01-21 10:21:54.78	5.97	11.97	-40.3	-45.5	6.8	1.42e-01	0	60	0	2320498688	51	6811
2026-01-21 10:21:57.81	5.55	11.78	-40.6	-47.1	5.3	7.04e-01	0	60	0	2335178752	52	7793
2026-01-21 10:22:00.84	5.13	11.58	-41.3	-49.1	4.5	8.20e-01	0	61	0	2335178752	53	9189
2026-01-21 10:22:03.87	4.73	11.39	-41.9	-52.7	3.8	8.46e-01	0	60	104	2335178752	54	13244
2026-01-21 10:22:06.90	4.32	11.19	-41.1	-52.6	3.8	8.46e-01	0	60	104	2335178752	54	12970
2026-01-21 10:22:09.93	3.92	11.00	-40.4	-52.0	3.8	8.45e-01	0	60	104	2335178752	52	13650
2026-01-21 10:22:12.95	3.53	10.81	-40.3	-51.9	3.8	8.47e-01	0	60	104	2335178752	52	13483
2026-01-21 10:22:15.98	3.15	10.61	-40.2	-51.8	3.8	8.45e-01	0	61	104	2335178752	52	13293
2026-01-21 10:22:19.00	2.77	10.42	-40.3	-51.9	3.8	8.46e-01	0	61	104	2335178752	52	13467
2026-01-21 10:22:22.03	2.39	10.23	-40.2	-51.8	3.8	8.45e-01	0	61	104	2335178752	52	13350
2026-01-21 10:22:25.06	2.02	10.03	-40.4	-52.0	3.8	8.45e-01	0	60	104	2335178752	52	13678
2026-01-21 10:22:28.08	1.65	9.84	-40.3	-51.9	3.8	8.47e-01	0	60	104	2335178752	52	13464
2026-01-21 10:22:31.11	1.29	9.65	-40.1	-51.7	3.8	8.47e-01	0	60	104	2335178752	52	13246
2026-01-21 10:22:34.14	0.93	9.46	-40.1	-51.7	3.8	8.45e-01	0	61	104	2335178752	52	13257
2026-01-21 10:22:37.17	0.58	9.27	-40.2	-51.8	3.8	8.47e-01	0	61	104	2335178752	52	13373
2026-01-21 10:22:40.20	0.23	9.08	-40.1	-51.7	3.8	8.46e-01	0	61	104	2335178752	52	13201
2026-01-21 10:22:43.22	359.89	8.89	-40.1	-51.7	3.8	8.46e-01	0	61	104	2335178752	52	13259
2026-01-21 10:22:46.25	359.55	8.70	-40.1	-51.7	3.8	8.46e-01	0	61	104	2335178752	52	13179
2026-01-21 10:22:49.28	359.22	8.51	-40.1	-51.8	3.8	8.46e-01	0	60	104	2335178752	52	13274
2026-01-21 10:22:52.31	358.89	8.32	-40.1	-51.7	3.8	8.45e-01	0	61	104	2335178752	52	13226
2026-01-21 10:22:55.34	358.57	8.13	-40.0	-51.6	3.8	8.46e-01	0	61	104	2335178752	52	12996
2026-01-21 10:22:58.37	358.25	7.94	-41.6	-53.2	3.8	8.46e-01	0	61	104	2335178752	53	14801
2026-01-21 10:23:01.40	357.93	7.75	-45.1	-56.9	3.8	8.47e-01	0	61	104	2335178752	60	15170
2026-01-21 10:23:04.43	357.62	7.57	-45.4	-57.2	3.8	8.46e-01	0	61	104	2335178752	61	14805
2026-01-21 10:23:07.46	357.31	7.38	-45.4	-57.1	3.8	8.46e-01	0	60	104	2335178752	61	14682
2026-01-21 10:23:10.49	357.01	7.19	-45.4	-57.1	3.8	8.46e-01	0	60	104	2335178752	61	14591
2026-01-21 10:23:13.52	356.71	7.01	-45.3	-57.0	3.8	8.46e-01	0	61	104	2335178752	61	14490
2026-01-21 10:23:16.55	356.41	6.82	-45.2	-57.0	3.8	8.46e-01	0	61	104	2335178752	61	14443
2026-01-21 10:23:19.58	356.12	6.64	-45.3	-57.0	3.8	8.47e-01	0	61	104	2335178752	61	14436
2026-01-21 10:23:22.61	355.83	6.46	-45.3	-57.0	3.8	8.46e-01	0	60	104	2335178752	61	14438
2026-01-21 10:23:25.65	355.55	6.27	-45.3	-57.0	3.8	8.45e-01	0	61	104	2335178752	61	14384
2026-01-21 10:23:28.68	355.26	6.09	-45.3	-56.9	3.8	8.47e-01	0	61	104	2335178752	61	14349
2026-01-21 10:23:31.71	354.99	5.91	-45.2	-56.9	3.8	8.46e-01	0	61	104	2335178752	61	14343
2026-01-21 10:23:34.74	354.71	5.73	-45.3	-57.0	3.8	8.47e-01	0	61	104	2335178752	61	14379
2026-01-21 10:23:37.77	354.44	5.55	-45.3	-57.0	3.8	8.46e-01	0	61	104	2335178752	61	14455
2026-01-21 10:23:40.80	354.18	5.37	-45.3	-57.0	3.8	8.46e-01	0	61	104	2335178752	61	14401
2026-01-21 10:23:43.83	353.91	5.19	-45.2	-56.9	3.8	8.46e-01	0	61	104	2335178752	61	14345
2026-01-21 10:23:46.87	353.65	5.01	-45.2	-56.9	3.8	8.46e-01	0	61	104	2335178752	61	14358
2026-01-21 10:23:49.89	353.40	4.83	-45.0	-57.0	3.8	8.46e-01	0	61	104	2335178752	61	14375
2026-01-21 10:23:52.93	353.14	4.65	-44.8	-56.9	3.8	8.45e-01	0	61	104	2335178752	61	14283
2026-01-21 10:23:55.96	352.89	4.48	-45.2	-56.9	3.8	8.46e-01	0	61	104	2335178752	61	14368
2026-01-21 10:23:58.99	352.65	4.30	-45.2	-56.9	3.8	8.45e-01	0	61	104	2335178752	61	14290
2026-01-21 10:24:01.98	352.41	4.13	-45.2	-56.9	3.8	8.47e-01	0	61	104	2335178752	61	14318
2026-01-21 10:24:05.01	352.16	3.95	-45.2	-56.9	3.8	8.46e-01	0	61	104	2335178752	61	14349
2026-01-21 10:24:08.04	351.93	3.78	-45.2	-56.9	3.8	8.47e-01	0	60	104	2335178752	61	14328
2026-01-21 10:24:11.07	351.69	3.61	-45.2	-56.9	3.8	8.47e-01	0	61	104	2335178752	61	14308
2026-01-21 10:24:14.11	351.46	3.43	-45.1	-56.9	3.8	8.47e-01	0	61	104	2335178752	61	14303
2026-01-21 10:24:17.14	351.23	3.26	-45.2	-56.9	3.8	8.47e-01	0	61	104	2335178752	61	14289
2026-01-21 10:24:20.17	351.00	3.09	-45.2	-56.9	3.8	8.46e-01	0	61	104	2335178752	60	15196
2026-01-21 10:24:23.20	350.78	2.92	-45.2	-56.9	3.8	8.45e-01	0	61	104	2335178752	61	14289
2026-01-21 10:24:26.23	350.56	2.75	-45.2	-56.9	3.8	8.47e-01	0	61	104	2335178752	61	14237
2026-01-21 10:24:29.26	350.34	2.58	-45.2	-56.9	3.8	8.46e-01	0	61	104	2335178752	61	14270
2026-01-21 10:24:32.29	350.13	2.41	-45.2	-56.9	3.8	8.46e-01	0	61	104	2335178752	61	14256
2026-01-21 10:24:35.32	349.91	2.24	-45.2	-56.9	3.8	8.45e-01	0	60	104	2335178752	61	14321
2026-01-21 10:24:38.35	349.70	2.08	-45.2	-56.9	3.8	8.46e-01	0	61	104	2335178752	60	15119
2026-01-21 10:24:41.38	349.49	1.91	-45.2	-56.9	3.8	8.47e-01	0	61	104	2335178752	60	15089

#Closed at: 2026-01-21 10:24:42
#Recorded file [2335 MB]: D:/lorett/data/31039_260121_131222.dat