passes_logs/2026/01/21/R2.0S_Moscow/R2.0S_Moscow__20260121_105313_SUOMI_NPP_rec.log

#Pass ID: 20260121_105313_SUOMI NPP
#Satellite: SUOMI NPP
#Configuration: NPP
#almurnet v.1.7.20251203
#Start time: 2026-01-21 10:53:13

#Version: 2.2.20231116
#Station: R2.0S_Moscow
#Location: 37.707566 lon 55.798166 lat
#TLE: 1 37849U 11061A   26020.31993517  .00000142  00000+0  88240-4 0  9990
#TLE: 2 37849  98.7818 322.3228 0002330  54.3778 305.7615 14.19527005737466

#Time	Az	El	Level	Level2	SNR	BER	BlckErr	Temp	State	Recorded	gain1	gain2
2026-01-21 10:53:13.91	186.96	2.00	-44.0	-58.5	3.8	1.49e+00	0	51	0	0	59	19249
2026-01-21 10:53:17.94	187.14	2.25	-44.0	-58.5	3.8	1.49e+00	0	51	104	0	59	19229
2026-01-21 10:53:21.99	187.31	2.50	-44.0	-58.5	3.8	1.49e+00	0	52	104	0	59	19264
2026-01-21 10:53:26.03	187.49	2.75	-44.0	-58.5	3.8	1.49e+00	0	52	104	0	59	19179
2026-01-21 10:53:30.07	187.68	3.01	-44.0	-58.5	3.8	1.49e+00	0	52	104	0	59	19224
2026-01-21 10:53:34.11	187.86	3.27	-44.0	-58.5	3.8	1.49e+00	0	52	104	0	59	19237
2026-01-21 10:53:38.15	188.05	3.52	-44.0	-58.5	3.8	1.49e+00	0	53	104	0	59	19262
2026-01-21 10:53:42.19	188.24	3.79	-44.0	-58.5	3.8	1.49e+00	0	53	104	0	59	19263
2026-01-21 10:53:46.23	188.44	4.05	-44.0	-58.5	3.8	1.49e+00	0	53	104	0	59	19234
2026-01-21 10:53:50.27	188.64	4.31	-44.0	-58.4	3.8	1.49e+00	0	53	104	0	59	19138
2026-01-21 10:53:54.31	188.84	4.58	-44.0	-58.4	3.8	1.49e+00	0	54	104	0	59	18994
2026-01-21 10:53:58.36	189.04	4.85	-44.0	-58.3	3.8	1.49e+00	0	54	104	0	59	18915
2026-01-21 10:54:02.40	189.25	5.13	-44.0	-58.2	3.8	1.49e+00	0	54	104	0	59	18522
2026-01-21 10:54:06.44	189.46	5.40	-44.0	-57.5	3.8	1.49e+00	0	54	104	0	59	17237
2026-01-21 10:54:10.48	189.68	5.68	-43.9	-56.6	3.8	1.49e+00	0	55	104	0	59	15526
2026-01-21 10:54:14.52	189.90	5.96	-43.8	-55.2	4.1	1.42e+00	0	55	0	0	59	13224
2026-01-21 10:54:18.56	190.13	6.25	-43.7	-54.4	4.4	1.33e+00	0	55	0	2097152	59	12048
2026-01-21 10:54:22.60	190.35	6.53	-43.7	-54.5	4.3	1.23e+00	0	55	0	9437184	59	12150
2026-01-21 10:54:26.64	190.59	6.82	-43.8	-54.6	4.3	1.36e+00	0	55	0	10485760	59	12368
2026-01-21 10:54:30.68	190.83	7.11	-43.6	-53.0	5.0	7.88e-01	0	56	0	17825792	59	10246
2026-01-21 10:54:34.72	191.07	7.41	-43.1	-50.1	7.1	1.76e-01	0	55	0	25165824	58	7784
2026-01-21 10:54:38.77	191.32	7.71	-42.6	-48.4	8.7	4.34e-02	0	56	0	32505856	57	6797
2026-01-21 10:54:42.81	191.57	8.01	-42.6	-48.6	8.5	3.75e-02	0	56	0	39845888	57	6944
2026-01-21 10:54:46.84	191.82	8.31	-43.3	-50.7	6.8	2.66e-01	0	56	0	42991616	58	8273
2026-01-21 10:54:50.88	192.08	8.62	-42.7	-48.7	8.6	3.80e-02	0	56	0	50331648	57	6983
2026-01-21 10:54:54.92	192.35	8.93	-42.6	-48.3	8.9	3.15e-02	0	56	0	57671680	57	6688
2026-01-21 10:54:58.96	192.62	9.24	-42.6	-48.0	9.3	2.06e-02	0	56	0	65011712	57	6494
2026-01-21 10:55:03.00	192.90	9.56	-42.5	-48.2	9.0	2.14e-02	0	57	0	73400320	57	6588
2026-01-21 10:55:07.04	193.19	9.88	-42.3	-48.0	8.9	2.53e-02	0	57	0	80740352	56	6833
2026-01-21 10:55:11.08	193.48	10.21	-42.1	-47.6	9.1	2.05e-02	0	57	0	88080384	56	6504
2026-01-21 10:55:15.12	193.77	10.54	-41.9	-46.9	9.9	9.20e-03	0	57	0	95420416	55	6414
2026-01-21 10:55:19.15	194.08	10.87	-42.0	-46.7	10.6	4.69e-03	0	57	0	102760448	55	6223
2026-01-21 10:55:23.19	194.39	11.21	-42.1	-46.7	10.7	2.62e-03	0	57	0	111149056	55	6245
2026-01-21 10:55:27.23	194.70	11.55	-41.8	-46.6	10.4	4.19e-03	0	57	0	118489088	55	6164
2026-01-21 10:55:31.27	195.03	11.89	-41.5	-46.5	10.0	7.67e-03	0	58	0	125829120	54	6468
2026-01-21 10:55:35.30	195.36	12.24	-40.4	-46.2	9.2	1.87e-02	0	57	0	133169152	52	6970
2026-01-21 10:55:39.34	195.70	12.59	-39.7	-45.5	9.0	2.49e-02	0	58	0	141557760	51	6874
2026-01-21 10:55:43.38	196.04	12.95	-38.9	-45.1	8.1	6.24e-02	0	58	0	148897792	49	7362
2026-01-21 10:55:47.41	196.40	13.31	-39.2	-45.3	8.3	4.71e-02	0	58	0	156237824	49	7516
2026-01-21 10:55:51.45	196.76	13.67	-40.2	-45.5	9.8	1.12e-02	0	58	0	163577856	51	6837
2026-01-21 10:55:55.49	197.13	14.04	-41.0	-45.5	11.2	2.73e-03	0	58	0	170917888	52	6460
2026-01-21 10:55:59.53	197.52	14.42	-41.3	-45.6	11.4	8.35e-04	0	58	0	179306496	53	6152
2026-01-21 10:56:03.56	197.91	14.80	-41.0	-45.7	10.4	3.55e-03	0	58	0	186646528	53	6266
2026-01-21 10:56:07.60	198.31	15.18	-41.0	-45.8	10.1	6.62e-03	0	58	0	193986560	53	6324
2026-01-21 10:56:11.64	198.72	15.57	-41.6	-46.2	10.6	3.29e-03	0	58	0	201326592	53	6593
2026-01-21 10:56:15.68	199.14	15.96	-42.0	-46.1	11.5	7.98e-04	0	58	0	209715200	54	6188
2026-01-21 10:56:19.72	199.57	16.36	-42.0	-46.2	11.4	9.59e-04	0	58	0	217055232	54	6257
2026-01-21 10:56:23.75	200.01	16.77	-42.1	-46.4	11.3	1.09e-03	0	58	0	224395264	54	6366
2026-01-21 10:56:27.79	200.47	17.18	-42.1	-46.2	11.6	8.89e-04	0	58	0	231735296	55	5919
2026-01-21 10:56:31.83	200.94	17.59	-42.0	-46.0	12.0	4.03e-04	0	58	0	239075328	55	5752
2026-01-21 10:56:35.87	201.42	18.01	-42.0	-46.0	11.9	2.37e-04	0	58	0	247463936	55	5770
2026-01-21 10:56:39.91	201.91	18.44	-42.0	-45.9	12.0	3.75e-04	0	58	0	254803968	55	5697
2026-01-21 10:56:43.95	202.42	18.87	-42.1	-46.2	11.9	4.08e-04	0	59	0	262144000	55	5870
2026-01-21 10:56:47.98	202.94	19.30	-42.2	-46.4	11.5	4.98e-04	0	59	0	269484032	55	6048
2026-01-21 10:56:52.02	203.47	19.74	-42.3	-46.6	11.5	7.73e-04	0	59	0	277872640	55	6136
2026-01-21 10:56:56.06	204.02	20.19	-42.4	-46.6	11.4	9.06e-04	0	59	0	285212672	55	6182
2026-01-21 10:57:00.09	204.59	20.64	-42.3	-46.4	11.7	8.86e-04	0	59	0	292552704	55	6013
2026-01-21 10:57:04.13	205.17	21.10	-42.5	-47.0	11.1	1.14e-03	0	59	0	299892736	55	6432
2026-01-21 10:57:08.17	205.77	21.56	-42.4	-46.7	11.4	9.76e-04	0	59	0	307232768	55	6207
2026-01-21 10:57:12.21	206.39	22.03	-42.6	-47.1	11.0	2.08e-03	0	59	0	315621376	55	6524
2026-01-21 10:57:16.24	207.02	22.50	-42.8	-47.4	10.8	2.13e-03	0	59	0	322961408	56	6402
2026-01-21 10:57:20.28	207.68	22.98	-42.7	-47.1	11.2	1.02e-03	0	59	0	330301440	56	6176
2026-01-21 10:57:24.32	208.36	23.46	-42.5	-46.6	11.7	5.33e-04	0	59	0	337641472	56	5816
2026-01-21 10:57:28.36	209.05	23.95	-41.8	-45.4	12.8	5.41e-05	0	59	0	346030080	55	5362
2026-01-21 10:57:32.39	209.77	24.44	-42.0	-45.7	12.4	1.57e-04	0	59	0	353370112	55	5579
2026-01-21 10:57:36.44	210.51	24.94	-42.5	-46.8	11.4	8.73e-04	0	59	0	360710144	55	6301
2026-01-21 10:57:40.48	211.28	25.45	-42.2	-46.0	12.1	2.88e-04	0	59	0	368050176	55	5772
2026-01-21 10:57:44.51	212.06	25.95	-42.4	-46.4	11.7	2.73e-04	0	59	0	375390208	55	6050
2026-01-21 10:57:48.55	212.87	26.46	-42.9	-47.6	10.8	2.76e-03	0	59	0	383778816	56	6510
2026-01-21 10:57:52.59	213.71	26.98	-43.0	-47.6	10.7	2.79e-03	0	60	0	391118848	56	6569
2026-01-21 10:57:56.62	214.58	27.49	-43.0	-47.6	10.7	2.25e-03	0	59	0	398458880	56	6523
2026-01-21 10:58:00.66	215.47	28.01	-43.2	-48.3	10.1	5.26e-03	0	59	0	405798912	57	6655
2026-01-21 10:58:04.70	216.40	28.54	-42.8	-47.2	11.2	1.53e-03	0	59	0	414187520	57	5867
2026-01-21 10:58:08.73	217.35	29.06	-42.7	-46.8	11.5	6.45e-04	0	59	0	421527552	56	5990
2026-01-21 10:58:12.77	218.33	29.58	-43.0	-47.6	10.7	3.01e-03	0	59	0	428867584	56	6555
2026-01-21 10:58:16.81	219.35	30.11	-42.7	-47.0	11.4	9.23e-04	0	60	0	436207616	56	6072
2026-01-21 10:58:20.85	220.39	30.64	-43.1	-47.8	10.6	3.64e-03	0	59	0	443547648	56	6706
2026-01-21 10:58:24.89	221.48	31.16	-42.7	-47.0	11.4	1.10e-03	0	60	0	451936256	57	5748
2026-01-21 10:58:28.92	222.59	31.68	-43.0	-47.5	10.8	1.67e-03	0	59	0	459276288	57	6076
2026-01-21 10:58:32.96	223.75	32.20	-44.0	-50.5	8.0	3.33e-02	0	59	0	466616320	58	8105
2026-01-21 10:58:37.00	224.94	32.71	-43.8	-49.6	8.7	5.20e-02	0	60	0	473956352	59	6957
2026-01-21 10:58:41.04	226.16	33.22	-43.7	-49.5	8.8	2.02e-02	0	60	0	482344960	58	7265
2026-01-21 10:58:45.07	227.43	33.73	-43.9	-50.0	8.2	5.73e-02	0	60	0	489684992	58	7689
2026-01-21 10:58:49.11	228.73	34.22	-43.8	-49.6	8.8	4.82e-02	0	60	0	497025024	58	7307
2026-01-21 10:58:53.15	230.07	34.71	-44.1	-50.6	7.6	9.51e-02	0	60	0	504365056	58	8265
2026-01-21 10:58:57.19	231.46	35.19	-44.0	-50.6	7.8	1.28e-01	0	60	0	511705088	59	7804
2026-01-21 10:59:01.23	232.88	35.65	-44.0	-50.3	8.0	4.80e-02	0	60	0	520093696	59	7491
2026-01-21 10:59:05.27	234.34	36.10	-43.9	-49.9	8.3	6.37e-02	0	60	0	527433728	59	7202
2026-01-21 10:59:09.31	235.84	36.54	-43.9	-50.0	8.3	3.97e-02	0	60	0	534773760	59	7227
2026-01-21 10:59:13.35	237.39	36.96	-43.4	-48.6	9.8	2.13e-02	0	60	0	542113792	58	6533
2026-01-21 10:59:17.39	238.97	37.36	-43.2	-47.8	10.6	3.32e-03	0	60	0	550502400	58	5981
2026-01-21 10:59:21.43	240.58	37.74	-43.2	-48.1	10.4	3.49e-03	0	60	0	557842432	58	6145
2026-01-21 10:59:25.47	242.24	38.10	-43.1	-47.8	10.6	4.59e-03	0	60	0	565182464	57	6276
2026-01-21 10:59:29.51	243.93	38.44	-43.3	-48.3	10.1	8.44e-03	0	60	0	572522496	57	6712
2026-01-21 10:59:33.55	245.65	38.75	-42.8	-47.2	11.3	1.21e-03	0	60	0	579862528	57	5868
2026-01-21 10:59:37.58	247.40	39.04	-44.0	-50.3	8.0	5.75e-02	0	60	0	588251136	58	7937
2026-01-21 10:59:41.62	249.19	39.29	-43.2	-47.9	10.5	3.70e-03	0	60	0	595591168	58	6009
2026-01-21 10:59:45.66	251.00	39.52	-43.6	-49.2	9.2	1.93e-02	0	60	0	602931200	58	6966
2026-01-21 10:59:49.69	252.83	39.72	-43.5	-48.8	9.5	1.29e-02	0	60	0	610271232	58	6674
2026-01-21 10:59:53.73	254.68	39.88	-42.9	-47.3	11.2	1.56e-03	0	60	0	618659840	57	5931
2026-01-21 10:59:57.77	256.55	40.02	-43.8	-49.6	8.8	3.52e-02	0	60	0	625999872	58	7307
2026-01-21 11:00:01.80	258.43	40.11	-43.5	-48.7	9.7	1.13e-02	0	60	0	633339904	58	6609
2026-01-21 11:00:05.84	260.32	40.18	-44.4	-52.0	6.5	1.53e-01	0	60	0	640679936	59	9081
2026-01-21 11:00:09.88	262.22	40.21	-43.8	-49.6	8.7	4.75e-02	0	60	0	648019968	59	6893
2026-01-21 11:00:13.92	264.12	40.21	-43.9	-49.8	8.6	2.43e-02	0	60	0	656408576	58	7462
2026-01-21 11:00:17.96	266.01	40.17	-43.7	-49.3	9.0	3.87e-02	0	60	0	663748608	59	6648
2026-01-21 11:00:21.99	267.90	40.10	-42.6	-46.6	11.9	5.00e-04	0	60	0	671088640	57	5502
2026-01-21 11:00:26.03	269.78	39.99	-42.1	-45.6	12.9	1.05e-04	0	60	0	678428672	56	5181
2026-01-21 11:00:30.07	271.64	39.85	-43.2	-48.1	10.3	5.03e-03	0	60	0	686817280	57	6498
2026-01-21 11:00:34.11	273.49	39.68	-43.0	-47.5	10.8	2.48e-03	0	60	0	694157312	57	6102
2026-01-21 11:00:38.15	275.31	39.47	-43.0	-47.6	10.8	2.12e-03	0	60	0	701497344	57	6194
2026-01-21 11:00:42.19	277.12	39.24	-42.2	-45.9	12.7	1.58e-04	0	60	0	708837376	56	5348
2026-01-21 11:00:46.23	278.89	38.98	-42.7	-46.8	11.7	6.29e-04	0	60	0	716177408	56	5935
2026-01-21 11:00:50.27	280.63	38.69	-42.1	-45.6	12.9	1.20e-04	0	60	0	724566016	56	5211
2026-01-21 11:00:54.31	282.35	38.37	-41.7	-45.1	13.2	1.90e-05	0	60	0	731906048	55	5193
2026-01-21 11:00:58.35	284.03	38.03	-42.2	-46.0	12.3	7.17e-05	0	60	0	739246080	54	6081
2026-01-21 11:01:02.39	285.67	37.67	-42.5	-46.4	12.0	3.28e-04	0	60	0	746586112	56	5679
2026-01-21 11:01:06.44	287.28	37.28	-41.2	-44.2	14.0	8.30e-06	0	60	0	754974720	54	4979
2026-01-21 11:01:10.48	288.84	36.88	-42.6	-46.9	11.4	4.55e-04	0	60	0	762314752	55	6350
2026-01-21 11:01:14.52	290.37	36.46	-41.7	-45.1	13.1	4.27e-05	0	60	0	769654784	55	5203
2026-01-21 11:01:18.55	291.86	36.02	-40.6	-43.2	15.0	0.00e+00	0	60	0	776994816	53	4683
2026-01-21 11:01:22.60	293.31	35.57	-42.3	-46.2	12.1	1.88e-04	0	60	0	784334848	55	5871
2026-01-21 11:01:26.64	294.72	35.10	-42.6	-46.8	11.4	8.21e-04	0	60	0	792723456	55	6297
2026-01-21 11:01:30.68	296.09	34.63	-43.1	-47.7	10.6	8.59e-03	0	60	0	800063488	57	6253
2026-01-21 11:01:34.71	297.42	34.14	-44.0	-50.4	7.9	3.40e-02	0	60	0	807403520	58	8009
2026-01-21 11:01:38.75	298.71	33.65	-43.7	-49.3	9.0	2.55e-02	0	60	0	814743552	58	7043
2026-01-21 11:01:42.79	299.96	33.14	-44.4	-52.3	6.0	4.45e-01	0	60	0	823132160	59	9463
2026-01-21 11:01:46.83	301.18	32.64	-43.4	-48.4	9.9	6.31e-03	0	61	0	830472192	58	6418
2026-01-21 11:01:50.87	302.36	32.12	-44.1	-51.2	7.1	2.47e-01	0	60	0	837812224	59	8306
2026-01-21 11:01:54.90	303.50	31.61	-43.3	-48.2	10.1	5.66e-03	0	60	0	845152256	58	6264
2026-01-21 11:01:58.94	304.60	31.09	-42.4	-46.3	12.0	4.74e-04	0	60	0	852492288	56	5614
2026-01-21 11:02:02.98	305.67	30.57	-43.4	-48.7	9.5	1.17e-02	0	60	0	860880896	57	7038
2026-01-21 11:02:07.02	306.71	30.05	-42.6	-46.7	11.6	1.51e-03	0	60	0	868220928	57	5570
2026-01-21 11:02:11.06	307.72	29.52	-43.1	-48.1	10.1	8.56e-03	0	61	0	875560960	57	6507
2026-01-21 11:02:15.10	308.69	29.00	-41.5	-44.7	13.5	1.06e-05	0	60	0	882900992	54	5278
2026-01-21 11:02:19.13	309.63	28.48	-42.2	-46.1	12.0	4.82e-04	0	60	0	891289600	55	5802
2026-01-21 11:02:23.17	310.55	27.97	-41.6	-45.0	13.1	5.26e-05	0	60	0	898629632	55	5142
2026-01-21 11:02:27.20	311.43	27.45	-43.1	-48.2	10.0	7.45e-03	0	60	0	905969664	56	7016
2026-01-21 11:02:31.24	312.29	26.94	-41.1	-44.1	14.0	5.30e-06	0	60	0	913309696	54	4921
2026-01-21 11:02:35.28	313.12	26.43	-41.4	-44.7	13.5	1.50e-06	0	61	0	920649728	53	5536
2026-01-21 11:02:39.32	313.93	25.92	-41.1	-44.2	13.9	5.30e-06	0	60	0	929038336	53	5220
2026-01-21 11:02:43.36	314.71	25.42	-41.4	-44.6	13.4	4.50e-06	0	60	0	936378368	53	5512
2026-01-21 11:02:47.40	315.47	24.92	-41.8	-45.6	12.5	1.36e-04	0	60	0	943718400	54	5789
2026-01-21 11:02:51.44	316.20	24.43	-40.8	-43.7	14.3	7.00e-07	0	61	0	951058432	53	4970
2026-01-21 11:02:55.48	316.91	23.94	-41.0	-44.0	14.0	3.00e-06	0	60	0	959447040	53	5120
2026-01-21 11:02:59.52	317.61	23.46	-41.3	-44.5	13.5	9.90e-06	0	61	0	966787072	53	5431
2026-01-21 11:03:03.56	318.28	22.98	-41.0	-44.1	13.9	7.00e-07	0	60	0	974127104	53	5201
2026-01-21 11:03:07.59	318.93	22.50	-41.1	-44.3	13.7	6.10e-06	0	60	0	981467136	53	5298
2026-01-21 11:03:11.63	319.56	22.03	-41.4	-44.8	13.2	3.35e-05	0	60	0	988807168	53	5603
2026-01-21 11:03:15.67	320.17	21.57	-41.3	-44.6	13.3	2.13e-05	0	60	0	997195776	53	5514
2026-01-21 11:03:19.70	320.77	21.11	-41.4	-44.8	13.1	3.73e-05	0	60	0	1004535808	53	5648
2026-01-21 11:03:23.74	321.35	20.66	-41.4	-44.9	13.0	5.03e-05	0	60	0	1011875840	53	5675
2026-01-21 11:03:27.78	321.91	20.21	-41.6	-45.1	12.7	3.96e-05	0	60	0	1019215872	53	5835
2026-01-21 11:03:31.82	322.46	19.77	-41.9	-45.8	12.1	3.60e-04	0	60	0	1027604480	54	5941
2026-01-21 11:03:35.85	322.99	19.33	-41.8	-45.8	12.0	3.55e-04	0	61	0	1034944512	54	5957
2026-01-21 11:03:39.89	323.51	18.90	-42.6	-47.6	10.1	6.13e-03	0	60	0	1042284544	55	6902
2026-01-21 11:03:43.93	324.01	18.48	-43.0	-48.4	9.4	1.58e-02	0	60	0	1049624576	56	7191
2026-01-21 11:03:47.97	324.50	18.06	-42.3	-46.9	11.0	4.03e-03	0	60	0	1056964608	56	6001
2026-01-21 11:03:52.00	324.98	17.64	-42.1	-46.3	11.5	7.35e-04	0	61	0	1065353216	56	5649
2026-01-21 11:03:56.04	325.45	17.23	-41.9	-46.3	11.4	7.62e-04	0	61	0	1072693248	55	5927
2026-01-21 11:04:00.08	325.90	16.83	-42.1	-46.8	10.9	2.09e-03	0	60	0	1080033280	55	6285
2026-01-21 11:04:04.11	326.34	16.43	-41.8	-46.3	11.3	1.32e-03	0	61	0	1087373312	55	5934
2026-01-21 11:04:08.16	326.78	16.03	-41.7	-45.9	11.7	4.58e-04	0	60	0	1094713344	55	5703
2026-01-21 11:04:12.19	327.19	15.64	-41.7	-46.1	11.4	8.25e-04	0	60	0	1103101952	55	5845
2026-01-21 11:04:16.23	327.61	15.25	-41.9	-46.4	11.1	1.34e-03	0	60	0	1110441984	55	6061
2026-01-21 11:04:20.26	328.00	14.87	-41.8	-46.4	11.1	1.48e-03	0	60	0	1117782016	55	6007
2026-01-21 11:04:24.30	328.40	14.50	-41.7	-46.0	11.4	7.76e-04	0	60	0	1125122048	55	5786
2026-01-21 11:04:28.34	328.78	14.13	-41.7	-46.0	11.5	7.26e-04	0	60	0	1133510656	55	5754
2026-01-21 11:04:32.38	329.15	13.76	-41.9	-46.4	11.0	1.21e-03	0	61	0	1140850688	55	6028
2026-01-21 11:04:36.42	329.51	13.40	-42.4	-47.6	9.8	6.44e-03	0	60	0	1148190720	55	6908
2026-01-21 11:04:40.45	329.87	13.04	-42.6	-48.3	9.0	2.27e-02	0	61	0	1155530752	55	7490
2026-01-21 11:04:44.49	330.22	12.69	-42.7	-48.5	8.7	3.58e-02	0	60	0	1162870784	55	7690
2026-01-21 11:04:48.53	330.56	12.34	-42.4	-47.8	9.4	1.54e-02	0	61	0	1171259392	55	7096
2026-01-21 11:04:52.56	330.89	11.99	-42.2	-47.1	10.1	6.45e-03	0	61	0	1178599424	55	6568
2026-01-21 11:04:56.60	331.21	11.65	-42.0	-46.7	10.6	2.87e-03	0	60	0	1185939456	55	6232
2026-01-21 11:05:00.63	331.53	11.32	-41.8	-46.3	11.0	1.81e-03	0	60	0	1193279488	55	5933
2026-01-21 11:05:04.67	331.84	10.98	-41.6	-46.0	11.2	1.59e-03	0	61	0	1201668096	55	5755
2026-01-21 11:05:08.71	332.15	10.65	-41.8	-46.3	10.8	2.15e-03	0	60	0	1209008128	55	5980
2026-01-21 11:05:12.75	332.44	10.33	-41.8	-46.3	10.8	2.00e-03	0	60	0	1216348160	55	5964
2026-01-21 11:05:16.79	332.74	10.00	-41.9	-46.7	10.4	4.57e-03	0	61	0	1223688192	55	6215
2026-01-21 11:05:20.83	333.02	9.69	-42.0	-47.1	9.9	7.64e-03	0	61	0	1231028224	55	6517
2026-01-21 11:05:24.86	333.30	9.37	-42.1	-47.5	9.3	1.05e-02	0	60	0	1239416832	55	6839
2026-01-21 11:05:28.90	333.58	9.06	-42.1	-47.8	9.0	2.38e-02	0	61	0	1246756864	55	7054
2026-01-21 11:05:32.94	333.85	8.75	-42.2	-48.2	8.4	4.45e-02	0	61	0	1254096896	55	7392
2026-01-21 11:05:36.97	334.11	8.45	-42.2	-48.4	8.1	6.00e-02	0	60	0	1261436928	55	7614
2026-01-21 11:05:41.01	334.37	8.14	-42.2	-48.4	8.0	6.57e-02	0	60	0	1268776960	55	7629
2026-01-21 11:05:45.05	334.62	7.85	-44.7	-59.4	3.8	1.49e+00	0	60	104	1271922688	60	20089
2026-01-21 11:05:49.09	334.87	7.55	-45.2	-59.8	3.8	1.49e+00	0	61	104	1271922688	61	20021
2026-01-21 11:05:53.14	335.12	7.26	-45.1	-59.8	3.8	1.49e+00	0	61	104	1271922688	60	21250
2026-01-21 11:05:57.18	335.36	6.97	-45.3	-59.8	3.8	1.49e+00	0	61	104	1271922688	61	20065
2026-01-21 11:06:01.21	335.60	6.68	-45.2	-59.8	3.8	1.49e+00	0	61	104	1271922688	61	19980
2026-01-21 11:06:05.25	335.83	6.40	-45.2	-59.8	3.8	1.49e+00	0	61	104	1271922688	61	19984
2026-01-21 11:06:09.29	336.06	6.12	-44.8	-59.8	3.8	1.49e+00	0	61	104	1271922688	61	19930
2026-01-21 11:06:13.33	336.28	5.84	-45.2	-59.8	3.8	1.49e+00	0	60	104	1271922688	61	19919
2026-01-21 11:06:17.37	336.50	5.56	-45.2	-59.8	3.8	1.49e+00	0	61	104	1271922688	60	21115
2026-01-21 11:06:21.41	336.72	5.29	-45.2	-59.7	3.8	1.49e+00	0	61	104	1271922688	60	21012
2026-01-21 11:06:25.45	336.93	5.02	-45.2	-59.8	3.8	1.49e+00	0	60	104	1271922688	60	21096
2026-01-21 11:06:29.50	337.14	4.75	-45.2	-59.8	3.8	1.49e+00	0	61	104	1271922688	60	21048
2026-01-21 11:06:33.54	337.34	4.48	-45.2	-59.8	3.8	1.49e+00	0	61	104	1271922688	60	21060
2026-01-21 11:06:37.58	337.55	4.22	-45.1	-59.8	3.8	1.49e+00	0	61	104	1271922688	60	21029
2026-01-21 11:06:41.62	337.74	3.96	-45.1	-59.7	3.8	1.49e+00	0	61	104	1271922688	60	21004
2026-01-21 11:06:45.66	337.94	3.70	-44.9	-59.8	3.8	1.49e+00	0	61	104	1271922688	60	21256
2026-01-21 11:06:49.71	338.13	3.44	-45.2	-59.7	3.8	1.49e+00	0	60	104	1271922688	60	21011
2026-01-21 11:06:53.74	338.32	3.19	-45.1	-59.8	3.8	1.49e+00	0	61	104	1271922688	60	21023
2026-01-21 11:06:57.78	338.51	2.93	-45.2	-59.8	3.8	1.49e+00	0	61	104	1271922688	60	21020
2026-01-21 11:07:01.82	338.69	2.68	-45.2	-59.8	3.8	1.49e+00	0	61	104	1271922688	60	21038
2026-01-21 11:07:05.86	338.87	2.43	-45.1	-59.8	3.8	1.49e+00	0	61	104	1271922688	60	21053
2026-01-21 11:07:09.91	339.05	2.19	-45.1	-59.7	3.8	1.49e+00	0	60	104	1271922688	60	21008

#Closed at: 2026-01-21 11:07:13
#Recorded file [1271 MB]: D:/lorett/data/31039_260121_135313.dat