passes_logs/2026/01/21/R2.0S_Moscow/R2.0S_Moscow__20260121_034051_FENGYUN_3D_rec.log

#Pass ID: 20260121_034051_FENGYUN 3D
#Satellite: FENGYUN 3D
#Configuration: FENGYUN 3D
#almurnet v.1.7.20251203
#Start time: 2026-01-21 03:40:53

#Version: 2.2.20231116
#Station: R2.0S_Moscow
#Location: 37.707566 lon 55.798166 lat
#TLE: 1 43010U 17072A   26020.28933472  .00000051  00000+0  46008-4 0  9990
#TLE: 2 43010  98.9944 352.1871 0002476  99.7001 260.4455 14.19696838424006

#Time	Az	El	Level	Level2	SNR	BER	BlckErr	Temp	State	Recorded	gain1	gain2
2026-01-21 03:40:53.55	9.95	2.11	-39.8	-51.7	3.8	8.46e-01	0	49	0	0	51	13927
2026-01-21 03:40:56.58	9.72	2.27	-39.8	-51.7	3.8	8.47e-01	0	49	104	0	50	14730
2026-01-21 03:40:59.60	9.50	2.44	-39.8	-51.7	3.8	8.46e-01	0	49	104	0	50	14746
2026-01-21 03:41:02.63	9.27	2.60	-39.8	-51.7	3.8	8.45e-01	0	49	104	0	50	14730
2026-01-21 03:41:05.66	9.04	2.77	-39.8	-51.7	3.8	8.47e-01	0	50	104	0	50	14828
2026-01-21 03:41:08.69	8.81	2.94	-39.8	-51.7	3.8	8.47e-01	0	50	104	0	50	14730
2026-01-21 03:41:11.72	8.57	3.10	-39.8	-51.7	3.8	8.47e-01	0	50	104	0	50	14729
2026-01-21 03:41:14.75	8.33	3.27	-39.8	-51.7	3.8	8.46e-01	0	50	104	0	50	14715
2026-01-21 03:41:17.79	8.09	3.44	-39.8	-51.6	3.8	8.45e-01	0	51	104	0	50	14706
2026-01-21 03:41:20.82	7.84	3.61	-39.8	-51.7	3.8	8.45e-01	0	51	104	0	50	14744
2026-01-21 03:41:23.85	7.59	3.78	-39.8	-51.7	3.8	8.46e-01	0	51	104	0	50	14759
2026-01-21 03:41:26.88	7.34	3.95	-39.8	-51.7	3.8	8.47e-01	0	51	104	0	50	14733
2026-01-21 03:41:29.91	7.09	4.12	-39.8	-51.7	3.8	8.46e-01	0	51	104	0	50	14764
2026-01-21 03:41:32.94	6.83	4.29	-39.8	-51.7	3.8	8.46e-01	0	51	104	0	50	14749
2026-01-21 03:41:35.97	6.57	4.46	-39.8	-51.7	3.8	8.46e-01	0	52	104	0	50	14725
2026-01-21 03:41:39.01	6.30	4.63	-39.8	-51.7	3.8	8.45e-01	0	52	104	0	50	14740
2026-01-21 03:41:42.04	6.04	4.80	-39.8	-51.7	3.8	8.46e-01	0	52	104	0	50	14714
2026-01-21 03:41:45.07	5.77	4.98	-39.8	-51.7	3.8	8.46e-01	0	52	104	0	50	14737
2026-01-21 03:41:48.10	5.49	5.15	-39.8	-51.7	3.8	8.47e-01	0	52	104	0	50	14742
2026-01-21 03:41:51.13	5.22	5.32	-39.8	-51.7	3.8	8.46e-01	0	53	104	0	50	14737
2026-01-21 03:41:54.17	4.93	5.50	-39.8	-51.7	3.8	8.46e-01	0	53	104	0	50	14736
2026-01-21 03:41:57.20	4.65	5.67	-39.8	-51.7	3.8	8.45e-01	0	53	104	0	50	14755
2026-01-21 03:42:00.23	4.36	5.85	-39.7	-51.7	3.8	8.47e-01	0	53	104	0	50	14758
2026-01-21 03:42:03.26	4.07	6.02	-39.8	-51.6	3.8	8.48e-01	0	53	104	0	50	14708
2026-01-21 03:42:06.29	3.77	6.20	-39.8	-51.7	3.8	8.47e-01	0	53	104	0	50	14751
2026-01-21 03:42:09.32	3.48	6.38	-39.8	-51.7	3.8	8.47e-01	0	53	104	0	50	14753
2026-01-21 03:42:12.35	3.17	6.55	-39.8	-51.7	3.8	8.47e-01	0	53	104	0	50	14755
2026-01-21 03:42:15.39	2.87	6.73	-39.8	-51.7	3.8	8.46e-01	0	54	104	0	50	14724
2026-01-21 03:42:18.42	2.56	6.91	-39.7	-51.6	3.8	8.46e-01	0	54	104	0	50	14696
2026-01-21 03:42:21.45	2.24	7.09	-39.8	-51.7	3.8	8.48e-01	0	54	104	0	50	14746
2026-01-21 03:42:24.48	1.92	7.27	-39.8	-51.7	3.8	8.46e-01	0	54	104	0	50	14755
2026-01-21 03:42:27.51	1.60	7.45	-39.8	-51.7	3.8	8.46e-01	0	54	104	0	50	14712
2026-01-21 03:42:30.55	1.27	7.63	-39.8	-51.7	3.8	8.47e-01	0	54	104	0	50	14724
2026-01-21 03:42:33.58	0.94	7.81	-39.8	-51.6	3.8	8.45e-01	0	54	104	0	50	14705
2026-01-21 03:42:36.61	0.61	7.99	-39.8	-51.6	3.8	8.46e-01	0	54	104	0	50	14690
2026-01-21 03:42:39.64	0.27	8.17	-39.9	-51.8	3.8	8.47e-01	0	54	104	0	50	14940
2026-01-21 03:42:42.67	359.92	8.35	-39.9	-51.8	3.8	8.46e-01	0	55	104	0	50	15017
2026-01-21 03:42:45.70	359.57	8.53	-39.8	-51.8	3.8	8.47e-01	0	55	104	0	50	14995
2026-01-21 03:42:48.72	359.22	8.71	-39.6	-51.8	3.8	8.46e-01	0	55	104	0	50	14970
2026-01-21 03:42:51.75	358.87	8.89	-39.6	-51.7	3.8	8.46e-01	0	55	104	0	50	14773
2026-01-21 03:42:54.78	358.50	9.08	-39.6	-51.8	3.8	8.46e-01	0	55	104	0	50	14984
2026-01-21 03:42:57.81	358.14	9.26	-39.6	-51.7	3.8	8.44e-01	0	55	104	0	50	14850
2026-01-21 03:43:00.83	357.77	9.44	-39.4	-51.8	3.8	8.46e-01	0	55	104	0	50	14917
2026-01-21 03:43:03.86	357.39	9.62	-39.4	-51.7	3.8	8.46e-01	0	56	104	0	50	14872
2026-01-21 03:43:06.89	357.01	9.81	-40.0	-51.9	3.8	8.45e-01	0	55	104	0	50	15191
2026-01-21 03:43:09.92	356.62	9.99	-39.3	-51.7	3.8	8.47e-01	0	55	104	0	50	14877
2026-01-21 03:43:12.95	356.23	10.17	-40.1	-52.0	3.8	8.45e-01	0	55	104	0	50	15357
2026-01-21 03:43:15.98	355.84	10.35	-39.8	-51.7	3.8	8.46e-01	0	55	104	0	51	14017
2026-01-21 03:43:19.01	355.43	10.54	-40.2	-52.3	3.8	8.47e-01	0	56	104	0	51	14884
2026-01-21 03:43:22.04	355.03	10.72	-40.0	-52.0	3.8	8.46e-01	0	56	104	0	51	14408
2026-01-21 03:43:25.07	354.62	10.90	-40.4	-52.1	3.8	8.46e-01	0	56	104	0	51	14607
2026-01-21 03:43:28.10	354.20	11.09	-40.2	-52.0	3.8	8.45e-01	0	56	104	0	51	14422
2026-01-21 03:43:31.12	353.78	11.27	-40.6	-52.3	3.8	8.46e-01	0	56	104	0	51	14893
2026-01-21 03:43:34.15	353.35	11.45	-40.3	-52.0	3.8	8.45e-01	0	56	104	0	51	14476
2026-01-21 03:43:37.18	352.92	11.63	-40.7	-52.4	3.8	8.46e-01	0	56	104	0	52	14251
2026-01-21 03:43:40.21	352.48	11.82	-40.4	-52.3	3.8	8.47e-01	0	56	104	0	52	14084
2026-01-21 03:43:43.23	352.04	12.00	-40.7	-52.3	3.8	8.47e-01	0	56	104	0	52	14155
2026-01-21 03:43:46.26	351.59	12.18	-40.7	-52.3	3.8	8.45e-01	0	56	104	0	52	14193
2026-01-21 03:43:49.29	351.13	12.36	-40.7	-52.5	3.8	8.45e-01	0	56	104	0	52	14435
2026-01-21 03:43:52.31	350.67	12.54	-40.8	-52.5	3.8	8.46e-01	0	56	104	0	52	14389
2026-01-21 03:43:55.34	350.20	12.72	-41.0	-52.6	3.8	8.47e-01	0	56	104	0	52	14670
2026-01-21 03:43:58.37	349.73	12.90	-40.8	-52.6	3.8	8.46e-01	0	57	104	0	52	14573
2026-01-21 03:44:01.40	349.25	13.08	-41.0	-52.8	3.8	8.46e-01	0	56	104	0	52	14965
2026-01-21 03:44:04.42	348.77	13.25	-41.1	-52.9	3.8	8.47e-01	0	57	104	0	52	15055
2026-01-21 03:44:07.45	348.28	13.43	-41.2	-52.9	3.8	8.47e-01	0	57	104	0	52	15141
2026-01-21 03:44:10.48	347.78	13.61	-41.1	-52.9	3.8	8.46e-01	0	57	104	0	52	15161
2026-01-21 03:44:13.51	347.27	13.78	-41.2	-53.0	3.8	8.46e-01	0	57	104	0	53	14392
2026-01-21 03:44:16.53	346.77	13.96	-41.1	-52.8	3.8	8.46e-01	0	57	104	0	53	14196
2026-01-21 03:44:19.56	346.25	14.13	-41.1	-52.8	3.8	8.47e-01	0	57	104	0	53	14121
2026-01-21 03:44:22.59	345.73	14.30	-41.2	-52.9	3.8	8.46e-01	0	57	104	0	53	14302
2026-01-21 03:44:25.62	345.20	14.47	-40.8	-52.6	3.8	8.45e-01	0	57	104	0	53	13732
2026-01-21 03:44:28.65	344.67	14.64	-40.6	-52.4	3.8	8.46e-01	0	57	104	0	53	13520
2026-01-21 03:44:31.68	344.13	14.81	-40.6	-52.4	3.8	8.47e-01	0	57	104	0	53	13491
2026-01-21 03:44:34.71	343.58	14.98	-40.7	-52.5	3.8	8.46e-01	0	57	104	0	53	13624
2026-01-21 03:44:37.74	343.03	15.15	-40.7	-52.4	3.8	8.47e-01	0	57	104	0	52	14314
2026-01-21 03:44:40.76	342.47	15.31	-40.7	-52.3	3.8	8.45e-01	0	57	104	0	52	14112
2026-01-21 03:44:43.79	341.91	15.47	-40.6	-52.2	3.8	8.46e-01	0	57	104	0	52	14036
2026-01-21 03:44:46.82	341.34	15.63	-40.4	-52.3	3.8	8.45e-01	0	57	104	0	52	14128
2026-01-21 03:44:49.85	340.76	15.79	-40.6	-52.3	3.8	8.47e-01	0	57	104	0	52	14169
2026-01-21 03:44:52.88	340.17	15.95	-41.4	-51.1	3.8	8.45e-01	0	57	104	0	53	11595
2026-01-21 03:44:55.90	339.59	16.10	-41.2	-47.6	5.4	7.72e-01	0	57	0	0	53	7725
2026-01-21 03:44:58.93	338.99	16.25	-40.7	-44.9	8.2	7.25e-02	0	57	0	15728640	53	5705
2026-01-21 03:45:01.96	338.39	16.40	-39.2	-41.9	11.7	2.26e-03	0	57	0	32505856	50	4804
2026-01-21 03:45:04.99	337.78	16.55	-38.0	-40.1	13.8	5.70e-06	0	57	0	49283072	47	4638
2026-01-21 03:45:08.02	337.16	16.70	-38.6	-40.8	13.4	1.02e-05	0	57	0	67108864	47	5017
2026-01-21 03:45:11.05	336.54	16.84	-38.1	-40.1	14.2	1.10e-06	0	57	0	83886080	47	4616
2026-01-21 03:45:14.07	335.92	16.98	-37.5	-39.3	15.1	0.00e+00	0	57	0	100663296	47	4233
2026-01-21 03:45:17.10	335.29	17.12	-37.6	-39.3	15.2	0.00e+00	0	57	0	117440512	47	4238
2026-01-21 03:45:20.13	334.65	17.25	-37.6	-39.4	15.2	0.00e+00	0	57	0	134217728	46	4516
2026-01-21 03:45:23.16	334.00	17.39	-37.5	-39.3	15.4	0.00e+00	0	57	0	152043520	46	4468
2026-01-21 03:45:26.19	333.35	17.51	-37.4	-39.1	15.6	0.00e+00	0	57	0	168820736	46	4366
2026-01-21 03:45:29.22	332.70	17.64	-37.5	-39.2	15.5	0.00e+00	0	57	0	185597952	46	4424
2026-01-21 03:45:32.24	332.04	17.76	-37.4	-39.1	15.7	0.00e+00	0	58	0	202375168	46	4351
2026-01-21 03:45:35.27	331.37	17.88	-37.3	-38.9	15.9	0.00e+00	0	57	0	220200960	46	4284
2026-01-21 03:45:38.30	330.70	18.00	-37.4	-39.1	15.7	0.00e+00	0	57	0	236978176	46	4376
2026-01-21 03:45:41.33	330.02	18.11	-37.5	-39.2	15.7	0.00e+00	0	57	0	253755392	46	4394
2026-01-21 03:45:44.37	329.34	18.22	-37.4	-39.1	15.7	0.00e+00	0	57	0	270532608	46	4387
2026-01-21 03:45:47.39	328.66	18.32	-37.2	-38.9	16.0	0.00e+00	0	57	0	288358400	46	4255
2026-01-21 03:45:50.42	327.96	18.42	-37.4	-39.0	15.8	0.00e+00	0	57	0	305135616	46	4331
2026-01-21 03:45:53.45	327.27	18.52	-37.2	-38.8	16.1	0.00e+00	0	58	0	321912832	46	4207
2026-01-21 03:45:56.48	326.57	18.61	-37.1	-38.7	16.1	0.00e+00	0	57	0	338690048	46	4186
2026-01-21 03:45:59.51	325.86	18.70	-37.0	-38.6	16.3	0.00e+00	0	57	0	356515840	46	4122
2026-01-21 03:46:02.54	325.15	18.78	-36.9	-38.5	16.4	0.00e+00	0	57	0	373293056	45	4326
2026-01-21 03:46:05.57	324.44	18.86	-37.0	-38.6	16.3	0.00e+00	0	57	0	390070272	45	4360
2026-01-21 03:46:08.60	323.72	18.94	-37.0	-38.6	16.3	0.00e+00	0	57	0	407896064	45	4364
2026-01-21 03:46:11.63	323.00	19.01	-37.0	-38.6	16.3	0.00e+00	0	58	0	424673280	45	4366
2026-01-21 03:46:14.66	322.28	19.08	-36.8	-38.4	16.5	0.00e+00	0	57	0	441450496	45	4266
2026-01-21 03:46:17.69	321.55	19.14	-36.9	-38.4	16.5	0.00e+00	0	58	0	458227712	45	4284
2026-01-21 03:46:20.72	320.83	19.20	-36.7	-38.2	16.7	0.00e+00	0	57	0	475004928	45	4154
2026-01-21 03:46:23.75	320.09	19.25	-36.8	-38.4	16.5	0.00e+00	0	57	0	492830720	45	4264
2026-01-21 03:46:26.78	319.36	19.30	-36.9	-38.5	16.4	0.00e+00	0	57	0	509607936	45	4312
2026-01-21 03:46:29.81	318.62	19.34	-36.8	-38.4	16.6	0.00e+00	0	58	0	526385152	45	4244
2026-01-21 03:46:32.84	317.88	19.38	-36.8	-38.4	16.6	0.00e+00	0	57	0	543162368	45	4258
2026-01-21 03:46:35.87	317.14	19.41	-36.8	-38.3	16.6	0.00e+00	0	57	0	560988160	45	4224
2026-01-21 03:46:38.89	316.40	19.44	-36.7	-38.3	16.7	0.00e+00	0	57	0	577765376	45	4205
2026-01-21 03:46:41.93	315.66	19.46	-36.8	-38.3	16.6	0.00e+00	0	57	0	594542592	45	4231
2026-01-21 03:46:44.96	314.91	19.48	-36.8	-38.4	16.6	0.00e+00	0	58	0	612368384	45	4247
2026-01-21 03:46:47.98	314.17	19.50	-36.8	-38.3	16.6	0.00e+00	0	57	0	629145600	45	4235
2026-01-21 03:46:51.01	313.42	19.50	-36.8	-38.4	16.5	0.00e+00	0	58	0	645922816	45	4260
2026-01-21 03:46:54.04	312.68	19.51	-36.8	-38.4	16.6	0.00e+00	0	57	0	662700032	45	4243
2026-01-21 03:46:57.07	311.93	19.50	-36.8	-38.3	16.6	0.00e+00	0	58	0	679477248	45	4235
2026-01-21 03:47:00.10	311.18	19.50	-36.8	-38.3	16.6	0.00e+00	0	57	0	697303040	45	4214
2026-01-21 03:47:03.13	310.44	19.49	-36.8	-38.3	16.6	0.00e+00	0	58	0	714080256	45	4215
2026-01-21 03:47:06.17	309.69	19.47	-36.9	-38.5	16.4	0.00e+00	0	58	0	730857472	45	4320
2026-01-21 03:47:09.19	308.95	19.45	-36.8	-38.4	16.6	0.00e+00	0	58	0	747634688	45	4257
2026-01-21 03:47:12.22	308.21	19.42	-36.8	-38.3	16.6	0.00e+00	0	58	0	765460480	45	4233
2026-01-21 03:47:15.25	307.46	19.39	-36.6	-38.2	16.8	0.00e+00	0	58	0	782237696	45	4152
2026-01-21 03:47:18.28	306.72	19.35	-36.8	-38.4	16.6	0.00e+00	0	58	0	799014912	45	4253
2026-01-21 03:47:21.31	305.99	19.31	-36.7	-38.3	16.7	0.00e+00	0	58	0	816840704	45	4204
2026-01-21 03:47:24.34	305.25	19.26	-36.7	-38.2	16.8	0.00e+00	0	58	0	833617920	45	4150
2026-01-21 03:47:27.37	304.52	19.21	-36.7	-38.3	16.7	0.00e+00	0	58	0	850395136	45	4205
2026-01-21 03:47:30.40	303.79	19.15	-36.9	-38.5	16.5	0.00e+00	0	58	0	867172352	45	4296
2026-01-21 03:47:33.43	303.06	19.09	-36.8	-38.4	16.6	0.00e+00	0	58	0	883949568	45	4249
2026-01-21 03:47:36.46	302.33	19.03	-36.9	-38.5	16.5	0.00e+00	0	58	0	901775360	45	4292
2026-01-21 03:47:39.49	301.61	18.96	-37.1	-38.7	16.2	0.00e+00	0	58	0	918552576	45	4429
2026-01-21 03:47:42.52	300.89	18.88	-37.0	-38.6	16.3	0.00e+00	0	58	0	935329792	45	4363
2026-01-21 03:47:45.55	300.18	18.80	-36.9	-38.5	16.5	0.00e+00	0	58	0	953155584	45	4307
2026-01-21 03:47:48.58	299.47	18.72	-37.0	-38.5	16.4	0.00e+00	0	58	0	969932800	45	4336
2026-01-21 03:47:51.62	298.76	18.63	-37.1	-38.7	16.3	0.00e+00	0	58	0	986710016	45	4397
2026-01-21 03:47:54.64	298.05	18.54	-37.3	-38.9	16.0	0.00e+00	0	58	0	1003487232	45	4510
2026-01-21 03:47:57.67	297.36	18.44	-37.0	-38.5	16.4	0.00e+00	0	58	0	1021313024	45	4329
2026-01-21 03:48:00.70	296.66	18.34	-36.9	-38.5	16.4	0.00e+00	0	58	0	1038090240	45	4333
2026-01-21 03:48:03.74	295.97	18.24	-36.9	-38.5	16.4	0.00e+00	0	58	0	1054867456	45	4314
2026-01-21 03:48:06.77	295.29	18.13	-37.0	-38.6	16.4	0.00e+00	0	58	0	1071644672	45	4356
2026-01-21 03:48:09.79	294.61	18.02	-37.2	-38.8	16.1	0.00e+00	0	58	0	1088421888	45	4463
2026-01-21 03:48:12.82	293.93	17.91	-37.2	-38.9	16.1	0.00e+00	0	58	0	1106247680	45	4501
2026-01-21 03:48:15.85	293.26	17.79	-37.3	-39.0	16.0	0.00e+00	0	58	0	1123024896	45	4547
2026-01-21 03:48:18.88	292.60	17.67	-37.2	-38.8	16.1	0.00e+00	0	58	0	1139802112	45	4482
2026-01-21 03:48:21.91	291.94	17.54	-37.1	-38.8	16.1	0.00e+00	0	58	0	1157627904	45	4450
2026-01-21 03:48:24.94	291.29	17.41	-37.2	-38.8	16.1	0.00e+00	0	58	0	1174405120	45	4469
2026-01-21 03:48:27.96	290.64	17.28	-37.3	-39.0	15.9	0.00e+00	0	58	0	1191182336	45	4562
2026-01-21 03:48:30.99	290.00	17.15	-37.3	-38.9	15.9	0.00e+00	0	58	0	1207959552	45	4545
2026-01-21 03:48:34.02	289.36	17.01	-37.4	-39.1	15.8	0.00e+00	0	58	0	1225785344	45	4617
2026-01-21 03:48:37.04	288.73	16.87	-37.6	-39.4	15.4	0.00e+00	0	58	0	1242562560	45	4788
2026-01-21 03:48:40.07	288.11	16.73	-37.5	-39.2	15.6	0.00e+00	0	58	0	1259339776	45	4681
2026-01-21 03:48:43.10	287.49	16.58	-37.5	-39.3	15.5	0.00e+00	0	58	0	1276116992	45	4726
2026-01-21 03:48:46.13	286.88	16.44	-37.6	-39.3	15.5	0.00e+00	0	58	0	1292894208	45	4747
2026-01-21 03:48:49.16	286.27	16.29	-37.5	-39.3	15.5	0.00e+00	0	58	0	1310720000	45	4725
2026-01-21 03:48:52.19	285.67	16.13	-37.6	-39.4	15.4	0.00e+00	0	58	0	1327497216	45	4771
2026-01-21 03:48:55.22	285.08	15.98	-37.8	-39.7	15.1	0.00e+00	0	58	0	1344274432	46	4659
2026-01-21 03:48:58.25	284.49	15.82	-37.8	-39.7	15.1	0.00e+00	0	58	0	1362100224	46	4655
2026-01-21 03:49:01.28	283.91	15.66	-37.9	-39.7	15.1	0.00e+00	0	58	0	1378877440	46	4674
2026-01-21 03:49:04.30	283.33	15.50	-38.0	-39.9	14.9	0.00e+00	0	58	0	1395654656	46	4767
2026-01-21 03:49:07.33	282.77	15.34	-37.8	-39.7	15.0	0.00e+00	0	58	0	1412431872	46	4667
2026-01-21 03:49:10.36	282.20	15.18	-37.8	-39.6	15.1	0.00e+00	0	58	0	1430257664	46	4648
2026-01-21 03:49:13.39	281.65	15.01	-37.8	-39.7	15.0	0.00e+00	0	58	0	1447034880	46	4657
2026-01-21 03:49:16.42	281.10	14.84	-38.0	-39.8	14.9	0.00e+00	0	58	0	1463812096	46	4754
2026-01-21 03:49:19.45	280.55	14.67	-38.1	-40.0	14.7	1.10e-06	0	58	0	1480589312	46	4831
2026-01-21 03:49:22.48	280.01	14.50	-37.9	-39.8	14.9	0.00e+00	0	58	0	1497366528	46	4746
2026-01-21 03:49:25.51	279.48	14.33	-38.1	-40.1	14.6	0.00e+00	0	58	0	1515192320	46	4885
2026-01-21 03:49:28.54	278.96	14.16	-38.0	-39.9	14.7	1.10e-06	0	58	0	1531969536	47	4528
2026-01-21 03:49:31.56	278.44	13.99	-37.9	-39.7	14.9	1.10e-06	0	58	0	1548746752	47	4440
2026-01-21 03:49:34.59	277.92	13.81	-38.2	-40.1	14.5	1.10e-06	0	58	0	1566572544	47	4629
2026-01-21 03:49:37.62	277.42	13.64	-38.2	-40.1	14.5	1.10e-06	0	58	0	1583349760	47	4627
2026-01-21 03:49:40.65	276.91	13.46	-38.1	-40.0	14.6	2.20e-06	0	58	0	1600126976	47	4577
2026-01-21 03:49:43.68	276.42	13.28	-38.2	-40.2	14.4	1.10e-06	0	58	0	1616904192	47	4660
2026-01-21 03:49:46.71	275.93	13.10	-38.2	-40.2	14.3	2.20e-06	0	58	0	1634729984	47	4693
2026-01-21 03:49:49.74	275.45	12.92	-38.2	-40.2	14.2	2.20e-06	0	58	0	1651507200	47	4703
2026-01-21 03:49:52.76	274.97	12.74	-38.5	-40.6	13.8	5.70e-06	0	58	0	1668284416	47	4910
2026-01-21 03:49:55.79	274.50	12.56	-38.5	-40.6	13.8	6.80e-06	0	58	0	1685061632	47	4909
2026-01-21 03:49:58.82	274.03	12.38	-38.5	-40.6	13.7	1.02e-05	0	58	0	1701838848	47	4922
2026-01-21 03:50:01.85	273.57	12.20	-38.6	-40.8	13.6	1.37e-05	0	58	0	1719664640	47	4993
2026-01-21 03:50:04.87	273.12	12.02	-38.5	-40.7	13.6	1.14e-05	0	58	0	1736441856	47	4927
2026-01-21 03:50:07.90	272.67	11.84	-38.4	-40.5	13.7	1.02e-05	0	58	0	1753219072	47	4856
2026-01-21 03:50:10.93	272.23	11.66	-38.5	-40.7	13.5	1.94e-05	0	58	0	1769996288	47	4950
2026-01-21 03:50:13.96	271.79	11.47	-38.6	-40.8	13.4	3.08e-05	0	58	0	1787822080	47	5000
2026-01-21 03:50:16.99	271.36	11.29	-38.7	-40.9	13.1	3.89e-05	0	58	0	1804599296	47	5099
2026-01-21 03:50:20.02	270.93	11.11	-38.8	-41.1	13.0	5.83e-05	0	58	0	1821376512	48	4900
2026-01-21 03:50:23.05	270.51	10.92	-38.8	-41.1	13.0	6.17e-05	0	58	0	1839202304	48	4890
2026-01-21 03:50:26.08	270.10	10.74	-38.5	-40.7	13.3	2.63e-05	0	58	0	1855979520	48	4673
2026-01-21 03:50:29.11	269.69	10.56	-38.7	-41.0	12.9	6.40e-05	0	58	0	1872756736	48	4837
2026-01-21 03:50:32.14	269.28	10.37	-38.7	-41.1	12.7	9.49e-05	0	58	0	1889533952	48	4873
2026-01-21 03:50:35.17	268.88	10.19	-38.6	-41.0	12.8	1.09e-04	0	58	0	1906311168	48	4830
2026-01-21 03:50:38.20	268.48	10.01	-38.8	-41.3	12.4	2.21e-04	0	58	0	1924136960	48	4994
2026-01-21 03:50:41.23	268.09	9.82	-39.2	-41.9	11.7	6.72e-04	0	58	0	1940914176	48	5352
2026-01-21 03:50:44.25	267.71	9.64	-39.3	-42.1	11.3	1.42e-03	0	58	0	1957691392	49	5200
2026-01-21 03:50:47.28	267.33	9.46	-39.4	-42.3	11.0	2.61e-03	0	58	0	1974468608	49	5331
2026-01-21 03:50:50.31	266.95	9.27	-39.5	-42.5	10.7	3.75e-03	0	58	0	1992294400	49	5449
2026-01-21 03:50:53.34	266.58	9.09	-39.5	-42.7	10.3	5.95e-03	0	59	0	2009071616	49	5592
2026-01-21 03:50:56.37	266.22	8.91	-39.6	-42.9	10.1	8.67e-03	0	58	0	2025848832	49	5700
2026-01-21 03:50:59.40	265.86	8.72	-40.0	-43.6	9.4	1.86e-02	0	58	0	2043674624	50	5843
2026-01-21 03:51:02.43	265.50	8.54	-40.2	-44.2	8.7	4.28e-02	0	58	0	2060451840	50	6209
2026-01-21 03:51:05.46	265.15	8.36	-40.3	-44.4	8.6	4.57e-02	0	58	0	2077229056	51	6003
2026-01-21 03:51:08.49	264.80	8.18	-40.4	-44.4	8.5	5.42e-02	0	58	0	2094006272	51	6053
2026-01-21 03:51:11.53	264.45	8.00	-41.4	-46.5	7.1	5.73e-02	0	58	0	2110783488	53	6823
2026-01-21 03:51:14.56	264.12	7.82	-44.9	-56.7	3.8	8.46e-01	0	58	104	2111832064	60	14857
2026-01-21 03:51:17.59	263.78	7.63	-45.1	-56.9	3.8	8.46e-01	0	58	104	2111832064	60	15123
2026-01-21 03:51:20.62	263.45	7.45	-45.2	-56.9	3.8	8.46e-01	0	58	104	2111832064	60	15155
2026-01-21 03:51:23.65	263.12	7.27	-45.1	-56.9	3.8	8.46e-01	0	58	104	2111832064	60	15166
2026-01-21 03:51:26.69	262.80	7.09	-45.2	-57.0	3.8	8.46e-01	0	58	104	2111832064	60	15258
2026-01-21 03:51:29.72	262.48	6.92	-45.2	-57.0	3.8	8.46e-01	0	58	104	2111832064	61	14403
2026-01-21 03:51:32.75	262.17	6.74	-45.2	-56.9	3.8	8.46e-01	0	59	104	2111832064	61	14275
2026-01-21 03:51:35.78	261.86	6.56	-45.1	-56.8	3.8	8.46e-01	0	59	104	2111832064	61	14178
2026-01-21 03:51:38.81	261.55	6.38	-45.2	-56.8	3.8	8.46e-01	0	58	104	2111832064	61	14161
2026-01-21 03:51:41.84	261.25	6.20	-45.2	-56.8	3.8	8.46e-01	0	58	104	2111832064	61	14160
2026-01-21 03:51:44.88	260.95	6.03	-45.2	-56.9	3.8	8.46e-01	0	59	104	2111832064	61	14216
2026-01-21 03:51:47.91	260.65	5.85	-45.1	-56.8	3.8	8.46e-01	0	59	104	2111832064	61	14206
2026-01-21 03:51:50.94	260.36	5.67	-45.1	-56.8	3.8	8.46e-01	0	58	104	2111832064	61	14144
2026-01-21 03:51:53.97	260.07	5.50	-45.1	-56.8	3.8	8.46e-01	0	58	104	2111832064	61	14188
2026-01-21 03:51:57.00	259.79	5.32	-45.1	-56.8	3.8	8.47e-01	0	58	104	2111832064	61	14193
2026-01-21 03:52:00.03	259.51	5.15	-45.1	-56.8	3.8	8.47e-01	0	59	104	2111832064	61	14197
2026-01-21 03:52:03.06	259.23	4.98	-45.1	-56.8	3.8	8.45e-01	0	59	104	2111832064	61	14119
2026-01-21 03:52:06.10	258.95	4.80	-45.1	-56.8	3.8	8.47e-01	0	59	104	2111832064	61	14184
2026-01-21 03:52:09.13	258.68	4.63	-45.1	-56.8	3.8	8.46e-01	0	59	104	2111832064	61	14146
2026-01-21 03:52:12.16	258.41	4.46	-45.1	-56.8	3.8	8.46e-01	0	59	104	2111832064	61	14109
2026-01-21 03:52:15.19	258.15	4.28	-45.1	-56.8	3.8	8.47e-01	0	59	104	2111832064	61	14152
2026-01-21 03:52:18.22	257.89	4.11	-45.1	-56.8	3.8	8.47e-01	0	59	104	2111832064	61	14125
2026-01-21 03:52:21.26	257.63	3.94	-45.1	-56.8	3.8	8.46e-01	0	58	104	2111832064	61	14154
2026-01-21 03:52:24.29	257.37	3.77	-45.1	-56.8	3.8	8.46e-01	0	58	104	2111832064	61	14124
2026-01-21 03:52:27.32	257.12	3.60	-45.1	-56.8	3.8	8.45e-01	0	59	104	2111832064	61	14152
2026-01-21 03:52:30.35	256.87	3.43	-45.1	-56.8	3.8	8.45e-01	0	59	104	2111832064	61	14162
2026-01-21 03:52:33.38	256.63	3.26	-45.1	-56.8	3.8	8.46e-01	0	58	104	2111832064	61	14168
2026-01-21 03:52:36.41	256.38	3.10	-45.1	-56.8	3.8	8.46e-01	0	59	104	2111832064	61	14141
2026-01-21 03:52:39.44	256.14	2.93	-45.1	-56.8	3.8	8.45e-01	0	59	104	2111832064	61	14145
2026-01-21 03:52:42.48	255.90	2.76	-45.1	-56.8	3.8	8.47e-01	0	59	104	2111832064	61	14113
2026-01-21 03:52:45.51	255.67	2.60	-45.1	-56.8	3.8	8.46e-01	0	59	104	2111832064	61	14160
2026-01-21 03:52:48.54	255.44	2.43	-45.1	-56.8	3.8	8.46e-01	0	59	104	2111832064	61	14163
2026-01-21 03:52:51.57	255.21	2.26	-45.1	-56.8	3.8	8.46e-01	0	58	104	2111832064	61	14177
2026-01-21 03:52:54.60	254.98	2.10	-45.1	-56.8	3.8	8.47e-01	0	59	104	2111832064	61	14127
2026-01-21 03:52:57.63	254.75	1.94	-45.1	-56.9	3.8	8.46e-01	0	59	104	2111832064	61	14225

#Closed at: 2026-01-21 03:52:58
#Recorded file [2111 MB]: D:/lorett/data/31039_260121_064053.dat