passes_logs/2026/01/21/R2.0S_Moscow/R2.0S_Moscow__20260121_102312_NOAA_21_JPSS-2_rec.log

#Pass ID: 20260121_102312_NOAA 21 (JPSS-2)
#Satellite: NOAA 21 (JPSS-2)
#Configuration: NOAA-21
#almurnet v.1.7.20251203
#Start time: 2026-01-21 10:24:49

#Version: 2.2.20231116
#Station: R2.0S_Moscow
#Location: 37.707566 lon 55.798166 lat
#TLE: 1 54234U 22150A   26020.29910383  .00000141  00000+0  87571-4 0  9990
#TLE: 2 54234  98.7506 321.1348 0000615 250.8428 109.2682 14.19536295165564

#Time	Az	El	Level	Level2	SNR	BER	BlckErr	Temp	State	Recorded	gain1	gain2
2026-01-21 10:24:49.52	177.08	8.96	-45.2	-56.9	3.8	8.47e-01	0	60	0	0	60	15113
2026-01-21 10:24:53.55	177.23	9.29	-45.4	-57.8	3.8	1.49e+00	0	61	104	0	62	14945
2026-01-21 10:24:57.58	177.38	9.63	-45.1	-57.5	3.8	1.49e+00	0	60	104	0	62	14464
2026-01-21 10:25:01.62	177.53	9.97	-44.4	-55.4	3.9	1.49e+00	0	60	104	0	60	12691
2026-01-21 10:25:05.67	177.69	10.32	-44.3	-54.3	4.0	1.48e+00	0	61	104	0	60	11244
2026-01-21 10:25:09.71	177.85	10.67	-44.1	-53.0	4.3	1.46e+00	0	61	104	0	60	9700
2026-01-21 10:25:13.75	178.01	11.03	-43.9	-51.4	5.0	7.19e-01	0	60	0	0	59	8478
2026-01-21 10:25:17.79	178.18	11.39	-43.6	-49.9	6.0	3.57e-01	0	61	0	12582912	59	7128
2026-01-21 10:25:21.83	178.35	11.76	-43.4	-49.3	6.4	2.40e-01	0	60	0	26214400	58	7091
2026-01-21 10:25:25.88	178.53	12.13	-43.5	-49.8	6.0	3.15e-01	0	60	0	38797312	58	7469
2026-01-21 10:25:29.92	178.71	12.51	-43.6	-50.0	5.8	3.99e-01	0	61	0	51380224	58	7702
2026-01-21 10:25:33.96	178.89	12.89	-42.6	-47.2	8.3	5.86e-02	0	61	0	63963136	57	5899
2026-01-21 10:25:38.00	179.08	13.28	-40.9	-44.0	11.5	1.11e-03	0	60	0	76546048	53	5115
2026-01-21 10:25:42.04	179.28	13.68	-40.4	-43.0	12.5	1.28e-04	0	60	0	89128960	52	4859
2026-01-21 10:25:46.08	179.47	14.08	-42.3	-46.4	9.0	3.97e-03	0	60	0	99614720	55	6059
2026-01-21 10:25:50.12	179.68	14.49	-40.2	-42.8	12.7	7.24e-05	0	60	0	109051904	52	4745
2026-01-21 10:25:54.16	179.89	14.90	-40.1	-42.7	12.8	4.42e-05	0	61	0	121634816	52	4672
2026-01-21 10:25:58.20	180.10	15.33	-40.1	-42.6	13.0	4.27e-05	0	60	0	134217728	52	4633
2026-01-21 10:26:02.23	180.32	15.75	-40.2	-42.7	12.9	4.34e-05	0	60	0	146800640	52	4679
2026-01-21 10:26:06.28	180.55	16.19	-40.2	-42.7	12.9	4.34e-05	0	61	0	159383552	52	4674
2026-01-21 10:26:10.32	180.78	16.64	-40.3	-43.0	12.7	6.63e-05	0	60	0	171966464	52	4823
2026-01-21 10:26:14.36	181.02	17.09	-40.4	-43.1	12.5	1.08e-04	0	61	0	184549376	52	4886
2026-01-21 10:26:18.40	181.27	17.55	-40.6	-43.3	12.3	1.49e-04	0	61	0	197132288	52	5011
2026-01-21 10:26:22.43	181.52	18.01	-40.5	-43.2	12.4	1.41e-04	0	60	0	210763776	52	4969
2026-01-21 10:26:26.47	181.78	18.49	-40.5	-43.1	12.5	9.84e-05	0	61	0	222298112	52	4915
2026-01-21 10:26:30.51	182.05	18.98	-40.4	-43.0	12.7	6.56e-05	0	61	0	234881024	52	4831
2026-01-21 10:26:34.55	182.33	19.47	-40.3	-42.8	13.0	4.42e-05	0	61	0	248512512	52	4708
2026-01-21 10:26:38.59	182.61	19.97	-40.2	-42.6	13.1	3.20e-05	0	61	0	261095424	52	4633
2026-01-21 10:26:42.63	182.91	20.49	-40.0	-42.3	13.5	1.52e-05	0	60	0	273678336	51	4732
2026-01-21 10:26:46.67	183.21	21.01	-39.8	-42.0	13.8	5.30e-06	0	61	0	286261248	51	4597
2026-01-21 10:26:50.71	183.53	21.55	-39.5	-41.7	14.2	7.00e-07	0	61	0	298844160	51	4405
2026-01-21 10:26:54.74	183.85	22.09	-39.4	-41.5	14.4	1.50e-06	0	61	0	311427072	50	4590
2026-01-21 10:26:58.78	184.19	22.64	-39.4	-41.5	14.4	7.00e-07	0	61	0	324009984	50	4579
2026-01-21 10:27:02.82	184.54	23.21	-39.5	-41.6	14.3	7.00e-07	0	61	0	336592896	50	4606
2026-01-21 10:27:06.86	184.90	23.79	-39.4	-41.5	14.5	0.00e+00	0	61	0	349175808	50	4571
2026-01-21 10:27:10.90	185.28	24.38	-39.5	-41.5	14.4	0.00e+00	0	61	0	361758720	50	4592
2026-01-21 10:27:14.94	185.66	24.98	-39.6	-41.7	14.2	5.30e-06	0	60	0	374341632	50	4683
2026-01-21 10:27:18.98	186.07	25.60	-39.8	-42.0	14.0	4.50e-06	0	61	0	386924544	50	4820
2026-01-21 10:27:23.02	186.49	26.23	-40.0	-42.4	13.3	3.08e-03	0	60	0	399507456	50	5061
2026-01-21 10:27:27.06	186.92	26.87	-40.3	-42.8	13.2	2.51e-05	0	61	0	412090368	51	4991
2026-01-21 10:27:31.11	187.38	27.52	-40.5	-43.0	13.0	4.88e-05	0	60	0	424673280	51	5131
2026-01-21 10:27:35.15	187.85	28.19	-40.6	-43.2	12.8	5.34e-05	0	60	0	437256192	51	5255
2026-01-21 10:27:39.19	188.34	28.88	-40.6	-43.1	13.0	4.34e-05	0	61	0	449839104	51	5173
2026-01-21 10:27:43.23	188.85	29.58	-40.5	-43.0	13.0	3.12e-05	0	61	0	462422016	51	5145
2026-01-21 10:27:47.27	189.38	30.29	-40.3	-42.7	13.4	1.29e-05	0	61	0	475004928	51	4938
2026-01-21 10:27:51.31	189.94	31.02	-40.1	-42.4	13.7	4.50e-06	0	61	0	487587840	51	4764
2026-01-21 10:27:55.35	190.52	31.77	-40.1	-42.4	13.7	6.10e-06	0	61	0	500170752	51	4775
2026-01-21 10:27:59.39	191.13	32.53	-40.2	-42.5	13.6	1.22e-05	0	61	0	512753664	51	4850
2026-01-21 10:28:03.43	191.77	33.30	-40.3	-42.7	13.4	1.44e-05	0	61	0	526385152	51	4944
2026-01-21 10:28:07.46	192.44	34.09	-40.6	-43.0	13.1	2.44e-05	0	60	0	537919488	51	5158
2026-01-21 10:28:11.50	193.14	34.90	-40.9	-43.7	12.4	1.38e-04	0	61	0	551550976	52	5219
2026-01-21 10:28:15.54	193.88	35.73	-41.5	-44.6	11.4	7.74e-04	0	61	0	564133888	53	5511
2026-01-21 10:28:19.58	194.65	36.57	-41.6	-44.8	11.2	1.23e-03	0	60	0	576716800	53	5636
2026-01-21 10:28:23.62	195.47	37.43	-41.5	-44.5	11.5	7.83e-04	0	61	0	589299712	53	5461
2026-01-21 10:28:27.66	196.33	38.30	-41.5	-44.5	11.6	8.96e-04	0	61	0	601882624	53	5432
2026-01-21 10:28:31.70	197.23	39.19	-41.1	-43.9	12.2	2.68e-04	0	61	0	614465536	53	5053
2026-01-21 10:28:35.74	198.19	40.10	-41.3	-44.1	11.9	3.16e-04	0	61	0	627048448	53	5193
2026-01-21 10:28:39.78	199.20	41.02	-41.6	-44.7	11.4	9.47e-04	0	61	0	639631360	54	5273
2026-01-21 10:28:43.82	200.27	41.95	-41.8	-45.0	11.1	1.38e-03	0	61	0	652214272	54	5416
2026-01-21 10:28:47.85	201.40	42.89	-42.2	-45.7	10.3	4.60e-03	0	61	0	664797184	55	5558
2026-01-21 10:28:51.89	202.60	43.85	-42.3	-45.9	10.0	6.80e-03	0	61	0	677380096	55	5713
2026-01-21 10:28:55.93	203.87	44.81	-42.2	-46.0	10.0	8.15e-03	0	61	0	689963008	55	5766
2026-01-21 10:28:59.97	205.23	45.78	-41.8	-45.1	11.0	1.95e-03	0	61	0	702545920	54	5496
2026-01-21 10:29:04.01	206.66	46.76	-41.8	-45.1	11.0	2.08e-03	0	61	0	715128832	54	5478
2026-01-21 10:29:08.05	208.19	47.74	-41.6	-44.6	11.5	5.62e-04	0	61	0	727711744	54	5173
2026-01-21 10:29:12.08	209.81	48.72	-42.0	-45.3	10.8	2.68e-03	0	61	0	740294656	54	5648
2026-01-21 10:29:16.12	211.55	49.70	-41.6	-44.6	11.5	1.05e-03	0	61	0	752877568	54	5173
2026-01-21 10:29:20.16	213.39	50.66	-41.3	-44.1	12.0	2.85e-04	0	61	0	765460480	54	4877
2026-01-21 10:29:24.20	215.35	51.62	-41.5	-44.5	11.6	5.71e-04	0	61	0	778043392	54	5106
2026-01-21 10:29:28.24	217.45	52.55	-41.1	-43.8	12.3	2.06e-04	0	61	0	790626304	53	5022
2026-01-21 10:29:32.27	219.67	53.46	-41.1	-43.8	12.4	1.72e-04	0	61	0	803209216	53	5020
2026-01-21 10:29:36.31	222.03	54.35	-40.7	-43.2	12.9	5.26e-05	0	61	0	815792128	53	4663
2026-01-21 10:29:40.35	224.55	55.19	-40.7	-43.2	12.9	4.65e-05	0	61	0	828375040	52	4972
2026-01-21 10:29:44.39	227.21	56.00	-40.7	-43.2	13.0	2.74e-05	0	61	0	840957952	52	4944
2026-01-21 10:29:48.42	230.01	56.74	-40.1	-42.3	13.9	2.20e-06	0	61	0	853540864	51	4739
2026-01-21 10:29:52.46	232.98	57.43	-40.6	-43.0	13.1	2.89e-05	0	61	0	866123776	51	5141
2026-01-21 10:29:56.50	236.09	58.06	-40.4	-42.7	13.4	3.28e-05	0	61	0	878706688	51	4975
2026-01-21 10:30:00.54	239.33	58.60	-40.3	-42.7	13.5	9.10e-06	0	61	0	892338176	51	4939
2026-01-21 10:30:04.58	242.70	59.07	-40.0	-42.2	14.0	2.20e-06	0	61	0	904921088	50	4951
2026-01-21 10:30:08.62	246.18	59.44	-39.9	-42.0	14.2	1.50e-06	0	61	0	916455424	50	4841
2026-01-21 10:30:12.66	249.75	59.72	-40.2	-42.5	13.7	5.30e-06	0	61	0	930086912	51	4844
2026-01-21 10:30:16.70	253.37	59.90	-40.1	-42.3	13.9	2.20e-06	0	61	0	942669824	51	4712
2026-01-21 10:30:20.74	257.04	59.97	-39.8	-42.0	14.2	1.50e-06	0	61	0	955252736	51	4546
2026-01-21 10:30:24.78	260.71	59.94	-40.1	-42.3	13.9	1.50e-06	0	61	0	967835648	51	4715
2026-01-21 10:30:28.81	264.34	59.81	-39.5	-41.4	14.7	7.00e-07	0	61	0	980418560	50	4533
2026-01-21 10:30:32.85	267.94	59.57	-39.8	-42.0	14.1	7.00e-07	0	61	0	993001472	50	4841
2026-01-21 10:30:36.89	271.45	59.24	-40.3	-42.5	13.7	6.80e-06	0	61	0	1005584384	51	4852
2026-01-21 10:30:40.93	274.87	58.81	-40.1	-42.4	13.8	4.50e-06	0	61	0	1018167296	51	4789
2026-01-21 10:30:44.96	278.16	58.31	-40.2	-42.4	13.8	2.20e-06	0	61	0	1030750208	51	4803
2026-01-21 10:30:49.00	281.32	57.72	-40.4	-42.7	13.5	3.80e-06	0	61	0	1043333120	51	4930
2026-01-21 10:30:53.04	284.34	57.06	-40.4	-42.8	13.3	2.05e-05	0	61	0	1055916032	52	4735
2026-01-21 10:30:57.08	287.22	56.33	-40.5	-42.8	13.3	1.44e-05	0	61	0	1068498944	52	4746
2026-01-21 10:31:01.12	289.94	55.55	-40.2	-42.5	13.6	5.30e-06	0	61	0	1081081856	52	4548
2026-01-21 10:31:05.17	292.52	54.73	-40.9	-43.5	12.6	1.04e-04	0	61	0	1093664768	52	5155
2026-01-21 10:31:09.21	294.94	53.86	-40.6	-43.0	13.1	3.35e-05	0	61	0	1106247680	52	4830
2026-01-21 10:31:13.25	297.22	52.96	-40.7	-43.1	13.0	4.80e-05	0	61	0	1118830592	52	4923
2026-01-21 10:31:17.29	299.37	52.04	-41.0	-43.6	12.3	1.52e-04	0	61	0	1131413504	53	4924
2026-01-21 10:31:21.33	301.38	51.10	-40.8	-43.2	12.8	7.09e-05	0	61	0	1143996416	53	4694
2026-01-21 10:31:25.36	303.27	50.14	-41.4	-44.3	11.7	5.88e-04	0	61	0	1156579328	53	5286
2026-01-21 10:31:29.40	305.05	49.17	-41.3	-44.1	11.9	4.26e-04	0	61	0	1169162240	53	5204
2026-01-21 10:31:33.44	306.71	48.20	-41.7	-44.8	11.3	1.07e-03	0	61	0	1181745152	53	5602
2026-01-21 10:31:37.48	308.28	47.22	-41.8	-45.1	10.9	2.27e-03	0	61	0	1194328064	54	5477
2026-01-21 10:31:41.52	309.75	46.25	-41.5	-44.3	11.8	4.37e-04	0	61	0	1206910976	54	5040
2026-01-21 10:31:45.56	311.14	45.28	-42.1	-45.5	10.5	4.03e-03	0	61	0	1219493888	54	5778
2026-01-21 10:31:49.60	312.44	44.32	-41.3	-44.0	11.8	4.65e-04	0	61	0	1232076800	54	4868
2026-01-21 10:31:53.64	313.67	43.36	-41.8	-44.9	11.1	1.15e-03	0	61	0	1245708288	54	5383
2026-01-21 10:31:57.67	314.83	42.42	-42.3	-45.9	10.0	7.61e-03	0	61	0	1258291200	55	5679
2026-01-21 10:32:01.71	315.92	41.48	-42.0	-45.4	10.5	4.42e-03	0	61	0	1270874112	55	5392
2026-01-21 10:32:05.76	316.96	40.56	-42.0	-45.3	10.7	2.62e-03	0	61	0	1283457024	55	5312
2026-01-21 10:32:09.80	317.94	39.66	-41.9	-45.2	10.9	2.54e-03	0	61	0	1296039936	55	5237
2026-01-21 10:32:13.83	318.86	38.77	-41.2	-43.9	12.1	2.85e-04	0	61	0	1308622848	54	4784
2026-01-21 10:32:17.87	319.74	37.89	-41.2	-43.9	12.1	2.55e-04	0	61	0	1321205760	54	4806
2026-01-21 10:32:21.91	320.58	37.03	-41.0	-43.7	12.4	1.88e-04	0	61	0	1333788672	54	4668
2026-01-21 10:32:25.95	321.37	36.19	-40.9	-43.6	12.4	1.59e-04	0	61	0	1346371584	53	4896
2026-01-21 10:32:29.99	322.12	35.36	-40.8	-43.4	12.6	8.08e-05	0	61	0	1358954496	53	4761
2026-01-21 10:32:34.03	322.84	34.54	-41.1	-43.8	12.1	2.06e-04	0	61	0	1371537408	53	5008
2026-01-21 10:32:38.07	323.52	33.75	-41.2	-44.0	11.8	5.42e-04	0	61	0	1384120320	53	5122
2026-01-21 10:32:42.11	324.17	32.97	-40.9	-43.5	12.4	2.06e-04	0	61	0	1396703232	53	4855
2026-01-21 10:32:46.15	324.80	32.21	-40.9	-43.6	12.4	1.34e-04	0	61	0	1409286144	53	4885
2026-01-21 10:32:50.19	325.39	31.46	-40.7	-43.3	12.7	7.40e-05	0	61	0	1421869056	53	4742
2026-01-21 10:32:54.23	325.96	30.73	-40.4	-42.9	13.1	3.50e-05	0	61	0	1434451968	52	4767
2026-01-21 10:32:58.27	326.51	30.01	-40.0	-42.3	13.6	7.60e-06	0	61	0	1447034880	52	4481
2026-01-21 10:33:02.30	327.03	29.31	-40.0	-42.3	13.7	9.10e-06	0	61	0	1459617792	51	4715
2026-01-21 10:33:06.34	327.53	28.62	-40.1	-42.3	13.6	1.37e-05	0	61	0	1472200704	51	4751
2026-01-21 10:33:10.38	328.01	27.95	-39.9	-42.2	13.7	3.80e-06	0	61	0	1484783616	51	4662
2026-01-21 10:33:14.42	328.47	27.29	-40.0	-42.2	13.8	3.00e-06	0	61	0	1497366528	51	4660
2026-01-21 10:33:18.46	328.92	26.65	-39.9	-42.1	13.9	4.50e-06	0	61	0	1509949440	51	4642
2026-01-21 10:33:22.50	329.34	26.02	-39.8	-41.9	14.0	1.50e-06	0	61	0	1522532352	51	4540
2026-01-21 10:33:26.53	329.75	25.40	-39.9	-42.1	13.8	4.50e-06	0	61	0	1535115264	51	4624
2026-01-21 10:33:30.57	330.15	24.79	-39.8	-42.0	13.9	3.80e-06	0	61	0	1547698176	51	4576
2026-01-21 10:33:34.61	330.53	24.20	-39.6	-41.8	14.2	7.00e-07	0	61	0	1560281088	51	4455
2026-01-21 10:33:38.65	330.90	23.62	-39.7	-41.9	14.0	3.80e-06	0	61	0	1572864000	51	4516
2026-01-21 10:33:42.69	331.26	23.05	-39.8	-41.9	13.9	4.50e-06	0	61	0	1586495488	51	4544
2026-01-21 10:33:46.73	331.60	22.49	-39.7	-41.9	13.9	3.80e-06	0	61	0	1599078400	51	4542
2026-01-21 10:33:50.77	331.93	21.95	-39.7	-41.9	13.8	3.00e-06	0	61	0	1611661312	51	4544
2026-01-21 10:33:54.80	332.26	21.41	-39.8	-42.0	13.8	2.20e-06	0	61	0	1624244224	51	4555
2026-01-21 10:33:58.84	332.57	20.89	-39.8	-42.1	13.7	6.80e-06	0	61	0	1636827136	51	4626
2026-01-21 10:34:02.88	332.87	20.37	-39.8	-42.1	13.6	7.60e-06	0	61	0	1649410048	51	4643
2026-01-21 10:34:06.93	333.16	19.86	-39.9	-42.2	13.5	1.22e-05	0	61	0	1661992960	51	4673
2026-01-21 10:34:10.97	333.45	19.37	-40.0	-42.4	13.2	3.50e-05	0	61	0	1674575872	51	4789
2026-01-21 10:34:15.00	333.72	18.88	-39.9	-42.3	13.3	1.83e-05	0	61	0	1687158784	51	4725
2026-01-21 10:34:19.04	333.99	18.40	-40.1	-42.6	12.9	4.42e-05	0	61	0	1699741696	51	4890
2026-01-21 10:34:23.08	334.25	17.93	-40.1	-42.6	12.8	4.88e-05	0	61	0	1712324608	51	4889
2026-01-21 10:34:27.12	334.50	17.47	-40.1	-42.7	12.7	6.56e-05	0	61	0	1724907520	51	4936
2026-01-21 10:34:31.16	334.75	17.02	-40.2	-42.8	12.6	9.00e-05	0	61	0	1737490432	51	5009
2026-01-21 10:34:35.20	334.98	16.57	-40.3	-43.0	12.2	1.72e-04	0	61	0	1750073344	51	5158
2026-01-21 10:34:39.24	335.22	16.13	-40.3	-43.0	12.3	1.77e-04	0	61	0	1762656256	51	5130
2026-01-21 10:34:43.28	335.44	15.70	-40.3	-43.1	12.1	2.80e-04	0	61	0	1775239168	51	5177
2026-01-21 10:34:47.32	335.66	15.28	-40.4	-43.3	11.8	4.45e-04	0	61	0	1787822080	51	5312
2026-01-21 10:34:51.35	335.88	14.87	-40.4	-43.3	11.8	4.72e-04	0	61	0	1800404992	51	5281
2026-01-21 10:34:55.39	336.09	14.46	-40.4	-43.3	11.7	4.94e-04	0	61	0	1812987904	51	5288
2026-01-21 10:34:59.43	336.29	14.05	-40.4	-43.3	11.6	6.90e-04	0	61	0	1825570816	51	5327
2026-01-21 10:35:03.47	336.49	13.66	-40.2	-43.1	11.8	4.83e-04	0	61	0	1838153728	51	5191
2026-01-21 10:35:07.51	336.68	13.26	-40.2	-43.2	11.6	6.43e-04	0	61	0	1850736640	51	5237
2026-01-21 10:35:11.55	336.87	12.88	-40.4	-43.5	11.3	1.18e-03	0	61	0	1863319552	51	5415
2026-01-21 10:35:15.58	337.06	12.50	-40.3	-43.3	11.4	9.40e-04	0	61	0	1875902464	51	5311
2026-01-21 10:35:19.62	337.24	12.13	-40.0	-42.9	11.6	6.21e-04	0	61	0	1888485376	51	5079
2026-01-21 10:35:23.66	337.42	11.76	-40.3	-43.5	10.8	2.54e-03	0	61	0	1901068288	51	5462
2026-01-21 10:35:27.70	337.59	11.40	-40.6	-44.2	10.0	7.71e-03	0	61	0	1913651200	51	5893
2026-01-21 10:35:31.73	337.76	11.04	-40.4	-44.0	10.0	6.81e-03	0	61	0	1927282688	51	5769
2026-01-21 10:35:35.76	337.92	10.69	-40.2	-43.7	10.3	4.39e-03	0	61	0	1938817024	51	5550
2026-01-21 10:35:39.80	338.09	10.34	-39.9	-43.2	10.7	2.69e-03	0	61	0	1952448512	51	5239
2026-01-21 10:35:43.84	338.25	10.00	-39.8	-43.2	10.6	3.68e-03	0	61	0	1965031424	51	5235
2026-01-21 10:35:47.87	338.40	9.66	-40.0	-43.5	10.1	6.43e-03	0	61	0	1977614336	51	5429
2026-01-21 10:35:51.91	338.55	9.33	-40.0	-43.8	9.8	1.08e-02	0	61	0	1990197248	51	5599
2026-01-21 10:35:55.95	338.70	9.00	-40.3	-44.5	8.8	2.70e-02	0	61	0	2002780160	51	6090
2026-01-21 10:35:59.99	338.85	8.67	-40.5	-45.3	7.9	7.74e-02	0	61	0	2015363072	51	6683
2026-01-21 10:36:04.03	338.99	8.35	-40.7	-46.2	6.7	1.80e-01	0	61	0	2027945984	52	6997
2026-01-21 10:36:08.07	339.13	8.03	-42.0	-52.1	3.8	1.38e+00	0	61	104	2035286016	54	12290
2026-01-21 10:36:12.11	339.27	7.72	-45.0	-57.4	3.8	1.49e+00	0	61	104	2035286016	60	15969
2026-01-21 10:36:16.15	339.41	7.41	-45.3	-57.7	3.8	1.49e+00	0	61	104	2035286016	61	15695
2026-01-21 10:36:20.18	339.54	7.10	-45.3	-57.7	3.8	1.49e+00	0	61	104	2035286016	61	15707
2026-01-21 10:36:24.22	339.67	6.80	-45.3	-57.7	3.8	1.49e+00	0	61	104	2035286016	61	15710
2026-01-21 10:36:28.26	339.80	6.50	-45.3	-57.7	3.9	1.49e+00	0	61	104	2035286016	61	15636
2026-01-21 10:36:32.30	339.93	6.20	-45.3	-57.7	3.8	1.49e+00	0	61	104	2035286016	61	15614
2026-01-21 10:36:36.34	340.05	5.91	-45.1	-57.6	3.8	1.49e+00	0	61	104	2035286016	61	15566
2026-01-21 10:36:40.38	340.17	5.62	-45.3	-57.6	3.8	1.49e+00	0	61	104	2035286016	61	15566
2026-01-21 10:36:44.41	340.29	5.33	-45.3	-57.7	3.8	1.49e+00	0	61	104	2035286016	61	15598
2026-01-21 10:36:48.46	340.41	5.05	-45.3	-57.6	3.8	1.49e+00	0	61	104	2035286016	61	15580
2026-01-21 10:36:52.50	340.53	4.77	-45.2	-57.6	3.8	1.49e+00	0	61	104	2035286016	61	15565
2026-01-21 10:36:56.54	340.64	4.49	-45.3	-57.6	3.8	1.49e+00	0	61	104	2035286016	61	15484
2026-01-21 10:37:00.59	340.76	4.21	-45.3	-57.6	3.8	1.49e+00	0	61	104	2035286016	61	15556
2026-01-21 10:37:04.63	340.87	3.94	-45.3	-57.6	3.8	1.49e+00	0	61	104	2035286016	61	15437
2026-01-21 10:37:08.67	340.98	3.67	-45.3	-57.6	3.8	1.49e+00	0	61	104	2035286016	61	15539
2026-01-21 10:37:12.71	341.08	3.41	-45.3	-57.6	3.8	1.49e+00	0	61	104	2035286016	61	15520
2026-01-21 10:37:16.76	341.19	3.14	-45.2	-57.6	3.8	1.49e+00	0	61	104	2035286016	61	15527
2026-01-21 10:37:20.80	341.29	2.88	-45.1	-57.6	3.8	1.49e+00	0	61	104	2035286016	61	15442
2026-01-21 10:37:24.84	341.40	2.62	-45.2	-57.5	3.8	1.49e+00	0	61	104	2035286016	61	15401
2026-01-21 10:37:28.88	341.50	2.36	-45.2	-57.6	3.8	1.49e+00	0	61	104	2035286016	61	15414
2026-01-21 10:37:32.92	341.60	2.11	-45.2	-57.5	3.8	1.49e+00	0	61	104	2035286016	61	15379
2026-01-21 10:37:36.96	341.70	1.85	-45.2	-57.6	3.8	1.49e+00	0	61	104	2035286016	61	15452

#Closed at: 2026-01-21 10:37:37
#Recorded file [2035 MB]: D:/lorett/data/31039_260121_132449.dat