passes_logs/2026/01/21/R2.0S_Moscow/R2.0S_Moscow__20260121_093313_NOAA_20_JPSS-1_rec.log

#Pass ID: 20260121_093313_NOAA 20 (JPSS-1)
#Satellite: NOAA 20 (JPSS-1)
#Configuration: NOAA 20
#almurnet v.1.7.20251203
#Start time: 2026-01-21 09:33:14

#Version: 2.2.20231116
#Station: R2.0S_Moscow
#Location: 37.707566 lon 55.798166 lat
#TLE: 1 43013U 17073A   26020.26397077  .00000127  00000+0  80954-4 0  9999
#TLE: 2 43013  98.7643 321.1479 0001288  31.3158 328.8095 14.19537595423482

#Time	Az	El	Level	Level2	SNR	BER	BlckErr	Temp	State	Recorded	gain1	gain2
2026-01-21 09:33:14.45	149.85	2.06	-43.8	-58.4	3.8	1.49e+00	0	52	0	0	58	20163
2026-01-21 09:33:18.46	149.79	2.32	-43.8	-58.4	3.8	1.49e+00	0	53	104	0	58	20189
2026-01-21 09:33:22.48	149.73	2.58	-43.8	-58.4	3.8	1.49e+00	0	53	104	0	58	20188
2026-01-21 09:33:26.50	149.67	2.84	-43.8	-58.4	3.8	1.49e+00	0	53	104	0	58	20218
2026-01-21 09:33:30.53	149.61	3.11	-43.8	-58.4	3.8	1.49e+00	0	53	104	0	58	20121
2026-01-21 09:33:34.55	149.55	3.38	-43.6	-58.4	3.8	1.49e+00	0	54	104	0	58	20081
2026-01-21 09:33:38.56	149.49	3.65	-43.7	-58.4	3.8	1.49e+00	0	54	104	0	58	20154
2026-01-21 09:33:42.59	149.43	3.92	-43.7	-58.4	3.8	1.49e+00	0	54	104	0	58	20130
2026-01-21 09:33:46.62	149.36	4.20	-43.8	-58.4	3.8	1.49e+00	0	54	104	0	58	20096
2026-01-21 09:33:50.64	149.29	4.48	-43.8	-58.4	3.8	1.49e+00	0	55	104	0	58	20113
2026-01-21 09:33:54.66	149.22	4.77	-43.8	-58.4	3.8	1.49e+00	0	55	104	0	58	20119
2026-01-21 09:33:58.69	149.15	5.05	-43.8	-58.3	3.8	1.49e+00	0	55	104	0	58	20071
2026-01-21 09:34:02.71	149.08	5.34	-43.8	-58.3	3.8	1.49e+00	0	55	104	0	58	19844
2026-01-21 09:34:06.73	149.01	5.63	-43.7	-57.7	3.8	1.49e+00	0	56	104	0	58	18602
2026-01-21 09:34:10.75	148.93	5.93	-43.7	-56.3	3.8	1.49e+00	0	55	104	0	58	15775
2026-01-21 09:34:14.78	148.85	6.23	-43.5	-55.1	4.1	1.43e+00	0	56	0	0	58	13859
2026-01-21 09:34:18.79	148.78	6.53	-43.6	-55.1	4.1	1.41e+00	0	56	0	0	57	14575
2026-01-21 09:34:22.82	148.70	6.83	-43.7	-57.4	3.8	1.49e+00	0	56	104	0	58	17992
2026-01-21 09:34:26.84	148.61	7.14	-43.7	-57.2	3.8	1.49e+00	0	56	104	0	58	17491
2026-01-21 09:34:30.87	148.53	7.46	-43.1	-51.7	5.7	5.20e-01	0	56	0	3145728	58	9314
2026-01-21 09:34:34.90	148.44	7.78	-42.4	-48.4	8.7	4.53e-02	0	57	0	10485760	56	7136
2026-01-21 09:34:38.93	148.35	8.10	-43.9	-54.4	4.0	1.39e+00	0	57	104	17825792	58	12665
2026-01-21 09:34:42.97	148.26	8.42	-42.6	-49.4	7.8	2.22e-02	0	57	0	19922944	56	8004
2026-01-21 09:34:47.00	148.17	8.75	-41.7	-46.4	10.6	3.49e-03	0	57	0	27262976	55	6034
2026-01-21 09:34:51.04	148.07	9.09	-41.5	-46.1	11.0	3.19e-03	0	57	0	34603008	54	6194
2026-01-21 09:34:55.07	147.97	9.43	-41.4	-46.2	11.0	2.09e-03	0	57	0	42991616	54	6207
2026-01-21 09:34:59.11	147.87	9.77	-41.6	-46.1	11.3	1.42e-03	0	57	0	50331648	54	6132
2026-01-21 09:35:03.14	147.77	10.12	-41.5	-45.8	11.6	9.80e-04	0	57	0	57671680	53	6283
2026-01-21 09:35:07.18	147.66	10.47	-41.5	-45.6	11.8	4.91e-04	0	57	0	65011712	53	6190
2026-01-21 09:35:11.22	147.55	10.83	-41.6	-45.8	11.7	5.30e-04	0	58	0	73400320	53	6305
2026-01-21 09:35:15.26	147.44	11.19	-41.5	-45.6	11.8	2.32e-03	0	58	0	80740352	53	6157
2026-01-21 09:35:19.29	147.32	11.56	-41.6	-45.6	11.9	1.32e-03	0	58	0	88080384	53	6172
2026-01-21 09:35:23.33	147.21	11.94	-41.7	-45.8	11.9	4.11e-04	0	58	0	95420416	53	6286
2026-01-21 09:35:27.36	147.08	12.32	-41.5	-45.4	12.3	7.73e-04	0	58	0	102760448	53	6030
2026-01-21 09:35:31.40	146.96	12.70	-41.6	-45.4	12.4	3.33e-04	0	58	0	111149056	53	6018
2026-01-21 09:35:35.43	146.83	13.10	-41.5	-45.3	12.5	1.50e-04	0	58	0	118489088	53	5960
2026-01-21 09:35:39.47	146.70	13.49	-41.4	-45.1	12.2	3.20e-04	0	58	0	125829120	53	5838
2026-01-21 09:35:43.51	146.56	13.90	-41.6	-45.4	12.5	3.47e-04	0	58	0	133169152	53	6036
2026-01-21 09:35:47.54	146.42	14.31	-41.6	-45.5	12.4	1.72e-04	0	58	0	140509184	54	5785
2026-01-21 09:35:51.58	146.27	14.73	-41.6	-45.3	12.6	1.38e-04	0	58	0	148897792	53	5976
2026-01-21 09:35:55.61	146.12	15.15	-41.6	-45.4	12.5	1.73e-04	0	58	0	156237824	53	6036
2026-01-21 09:35:59.65	145.97	15.59	-41.6	-45.4	12.4	8.31e-04	0	58	0	163577856	53	6013
2026-01-21 09:36:03.69	145.81	16.03	-41.5	-45.2	12.8	1.57e-04	0	58	0	170917888	53	5915
2026-01-21 09:36:07.72	145.64	16.48	-41.5	-45.1	12.8	1.36e-04	0	59	0	179306496	53	5850
2026-01-21 09:36:11.76	145.47	16.93	-41.6	-45.2	12.7	4.11e-04	0	59	0	186646528	53	5923
2026-01-21 09:36:15.80	145.30	17.40	-41.4	-45.1	12.7	1.67e-03	0	59	0	193986560	53	5818
2026-01-21 09:36:19.84	145.12	17.87	-41.3	-45.2	12.9	4.80e-05	0	59	0	201326592	53	5881
2026-01-21 09:36:23.87	144.93	18.35	-41.5	-45.1	13.1	5.56e-05	0	59	0	208666624	53	5795
2026-01-21 09:36:27.91	144.74	18.85	-41.5	-44.9	13.3	2.67e-05	0	59	0	217055232	53	5690
2026-01-21 09:36:31.95	144.54	19.35	-41.5	-45.0	13.2	1.90e-05	0	59	0	224395264	53	5723
2026-01-21 09:36:35.99	144.33	19.86	-41.6	-45.1	13.2	1.98e-05	0	59	0	231735296	53	5802
2026-01-21 09:36:40.03	144.11	20.38	-41.6	-45.2	13.1	2.97e-05	0	59	0	239075328	53	5857
2026-01-21 09:36:44.06	143.89	20.92	-41.4	-44.8	13.6	1.06e-05	0	59	0	247463936	53	5593
2026-01-21 09:36:48.10	143.66	21.46	-41.4	-44.7	13.6	7.60e-06	0	59	0	254803968	53	5557
2026-01-21 09:36:52.13	143.42	22.01	-41.5	-44.8	13.6	1.22e-05	0	59	0	262144000	53	5600
2026-01-21 09:36:56.17	143.17	22.58	-41.5	-44.9	13.4	9.90e-06	0	59	0	269484032	53	5693
2026-01-21 09:37:00.21	142.91	23.16	-41.8	-45.3	13.1	1.83e-05	0	59	0	276824064	54	5636
2026-01-21 09:37:04.25	142.64	23.75	-41.9	-45.4	12.9	6.10e-05	0	59	0	285212672	54	5722
2026-01-21 09:37:08.29	142.36	24.36	-42.0	-45.7	12.7	3.96e-05	0	59	0	292552704	54	5867
2026-01-21 09:37:12.33	142.07	24.97	-42.2	-46.0	12.4	1.76e-04	0	59	0	299892736	54	6122
2026-01-21 09:37:16.36	141.76	25.61	-42.2	-46.0	12.3	1.65e-04	0	60	0	307232768	55	5780
2026-01-21 09:37:20.40	141.45	26.25	-42.4	-46.5	11.9	3.13e-04	0	59	0	315621376	55	6098
2026-01-21 09:37:24.44	141.12	26.91	-42.9	-47.3	11.2	1.20e-03	0	59	0	322961408	56	6345
2026-01-21 09:37:28.47	140.77	27.59	-43.1	-47.9	10.6	2.48e-03	0	59	0	330301440	56	6776
2026-01-21 09:37:32.51	140.41	28.28	-43.3	-48.2	10.3	5.09e-03	0	60	0	337641472	57	6613
2026-01-21 09:37:36.55	140.03	28.99	-43.4	-48.5	10.1	5.62e-03	0	60	0	344981504	57	6808
2026-01-21 09:37:40.59	139.64	29.72	-43.5	-48.8	9.8	1.07e-02	0	60	0	353370112	57	7087
2026-01-21 09:37:44.62	139.23	30.46	-43.6	-49.1	9.4	1.56e-02	0	60	0	360710144	57	7299
2026-01-21 09:37:48.66	138.79	31.22	-43.6	-49.1	9.5	1.22e-02	0	60	0	368050176	57	7290
2026-01-21 09:37:52.70	138.34	32.00	-43.8	-49.7	8.9	2.32e-02	0	60	0	375390208	58	7387
2026-01-21 09:37:56.74	137.86	32.80	-43.8	-49.5	9.1	2.58e-02	0	60	0	382730240	58	7250
2026-01-21 09:38:00.77	137.35	33.61	-43.8	-49.5	9.1	2.08e-02	0	60	0	391118848	58	7251
2026-01-21 09:38:04.81	136.82	34.45	-43.8	-49.5	9.2	1.96e-02	0	60	0	398458880	58	7224
2026-01-21 09:38:08.85	136.26	35.30	-44.0	-50.0	8.7	3.24e-02	0	60	0	405798912	58	7639
2026-01-21 09:38:12.88	135.67	36.18	-43.9	-49.9	8.7	3.66e-02	0	60	0	413138944	58	7600
2026-01-21 09:38:16.92	135.05	37.08	-43.8	-49.5	9.1	2.48e-02	0	60	0	421527552	58	7262
2026-01-21 09:38:20.96	134.39	37.99	-43.5	-48.6	10.0	8.30e-03	0	60	0	428867584	58	6562
2026-01-21 09:38:25.00	133.69	38.93	-43.7	-49.0	9.7	9.96e-03	0	60	0	436207616	58	6855
2026-01-21 09:38:29.03	132.95	39.89	-43.2	-47.8	11.0	2.29e-03	0	60	0	443547648	58	5959
2026-01-21 09:38:33.07	132.16	40.87	-43.2	-47.8	11.0	2.10e-03	0	60	0	450887680	58	5960
2026-01-21 09:38:37.11	131.32	41.87	-43.5	-48.6	10.1	6.52e-03	0	60	0	459276288	58	6539
2026-01-21 09:38:41.15	130.43	42.89	-43.4	-48.2	10.6	4.39e-03	0	60	0	466616320	58	6224
2026-01-21 09:38:45.18	129.48	43.93	-43.3	-47.9	10.8	2.59e-03	0	60	0	473956352	58	6057
2026-01-21 09:38:49.22	128.46	44.99	-43.0	-47.4	11.5	9.92e-04	0	60	0	481296384	58	5665
2026-01-21 09:38:53.26	127.37	46.07	-42.7	-46.7	12.1	3.13e-04	0	60	0	489684992	57	5579
2026-01-21 09:38:57.30	126.20	47.16	-43.1	-47.6	11.2	1.62e-03	0	60	0	497025024	57	6153
2026-01-21 09:39:01.34	124.95	48.27	-43.1	-47.5	11.2	1.48e-03	0	60	0	504365056	57	6126
2026-01-21 09:39:05.37	123.60	49.39	-42.8	-46.9	11.9	4.79e-04	0	60	0	511705088	57	5660
2026-01-21 09:39:09.41	122.15	50.52	-42.6	-46.5	12.3	1.56e-04	0	60	0	519045120	57	5411
2026-01-21 09:39:13.45	120.58	51.66	-42.7	-46.6	12.2	3.59e-04	0	60	0	527433728	57	5517
2026-01-21 09:39:17.49	118.89	52.80	-42.3	-45.8	13.1	3.89e-05	0	60	0	534773760	56	5311
2026-01-21 09:39:21.53	117.06	53.94	-42.3	-46.0	12.9	2.82e-05	0	60	0	542113792	56	5403
2026-01-21 09:39:25.56	115.08	55.07	-42.6	-46.4	12.4	2.00e-04	0	60	0	549453824	56	5706
2026-01-21 09:39:29.60	112.94	56.18	-42.7	-46.7	12.0	2.85e-04	0	60	0	557842432	56	5875
2026-01-21 09:39:33.64	110.62	57.28	-43.1	-47.6	11.2	1.59e-03	0	60	0	565182464	56	6532
2026-01-21 09:39:37.68	108.10	58.35	-43.6	-48.8	9.9	9.44e-03	0	60	0	572522496	57	7068
2026-01-21 09:39:41.71	105.39	59.38	-43.0	-47.3	11.5	1.11e-03	0	60	0	579862528	57	5944
2026-01-21 09:39:45.75	102.45	60.37	-42.8	-46.7	12.1	2.68e-04	0	60	0	587202560	57	5588
2026-01-21 09:39:49.79	99.28	61.29	-42.1	-45.4	13.5	1.75e-05	0	60	0	595591168	56	5097
2026-01-21 09:39:53.83	95.87	62.15	-41.3	-44.2	14.5	7.00e-07	0	60	0	602931200	54	4950
2026-01-21 09:39:57.86	92.24	62.92	-41.2	-44.0	14.8	0.00e+00	0	60	0	610271232	54	4821
2026-01-21 09:40:01.90	88.37	63.59	-41.6	-44.7	14.1	7.00e-07	0	60	0	617611264	54	5226
2026-01-21 09:40:05.94	84.29	64.16	-41.8	-45.1	13.7	5.30e-06	0	60	0	624951296	54	5496
2026-01-21 09:40:09.98	80.03	64.61	-41.7	-44.9	13.9	3.00e-06	0	61	0	633339904	54	5341
2026-01-21 09:40:14.01	75.63	64.93	-41.4	-44.4	14.4	0.00e+00	0	60	0	640679936	54	5046
2026-01-21 09:40:18.05	71.12	65.11	-41.6	-44.7	14.0	3.80e-06	0	60	0	648019968	54	5271
2026-01-21 09:40:22.09	66.57	65.16	-41.4	-44.4	14.3	1.50e-06	0	60	0	655360000	54	5058
2026-01-21 09:40:26.13	62.02	65.06	-42.1	-45.6	13.0	2.89e-05	0	60	0	663748608	54	5834
2026-01-21 09:40:30.17	57.55	64.82	-42.1	-45.6	13.1	3.81e-05	0	60	0	671088640	54	5789
2026-01-21 09:40:34.21	53.20	64.45	-41.8	-45.1	13.6	1.14e-05	0	60	0	678428672	55	5168
2026-01-21 09:40:38.25	49.01	63.95	-41.3	-44.2	14.5	1.50e-06	0	60	0	685768704	54	4973
2026-01-21 09:40:42.28	45.02	63.34	-40.8	-43.3	15.3	0.00e+00	0	60	0	693108736	53	4759
2026-01-21 09:40:46.32	41.25	62.63	-41.5	-44.7	14.0	1.50e-06	0	60	0	701497344	53	5533
2026-01-21 09:40:50.36	37.71	61.82	-42.6	-46.5	12.1	2.49e-04	0	60	0	708837376	55	6107
2026-01-21 09:40:54.40	34.40	60.94	-43.2	-47.7	10.9	1.17e-03	0	60	0	716177408	56	6633
2026-01-21 09:40:58.43	31.33	59.99	-43.7	-48.9	9.7	1.23e-02	0	61	0	723517440	58	6755
2026-01-21 09:41:02.47	28.49	58.99	-44.0	-49.9	8.7	2.48e-02	0	60	0	731906048	58	7570
2026-01-21 09:41:06.51	25.85	57.95	-43.7	-48.9	9.7	1.23e-02	0	60	0	739246080	58	6741
2026-01-21 09:41:10.54	23.42	56.87	-43.5	-48.5	10.1	8.18e-03	0	61	0	746586112	58	6446
2026-01-21 09:41:14.58	21.18	55.77	-42.4	-46.0	12.7	1.19e-04	0	60	0	753926144	56	5449
2026-01-21 09:41:18.62	19.10	54.65	-42.6	-46.4	12.3	1.35e-04	0	61	0	761266176	56	5715
2026-01-21 09:41:22.66	17.19	53.52	-42.7	-46.6	12.2	2.20e-04	0	60	0	769654784	56	5794
2026-01-21 09:41:26.69	15.42	52.38	-43.1	-47.5	11.2	1.34e-03	0	60	0	776994816	56	6421
2026-01-21 09:41:30.72	13.79	51.25	-43.1	-47.5	11.1	1.34e-03	0	60	0	784334848	56	6469
2026-01-21 09:41:34.76	12.27	50.12	-43.5	-48.6	10.0	6.32e-03	0	60	0	791674880	57	6905
2026-01-21 09:41:38.79	10.87	49.00	-43.2	-47.9	10.7	3.49e-03	0	60	0	800063488	57	6407
2026-01-21 09:41:42.83	9.56	47.89	-43.4	-48.3	10.2	5.11e-03	0	61	0	807403520	57	6709
2026-01-21 09:41:46.87	8.34	46.79	-43.3	-48.2	10.4	3.90e-03	0	60	0	814743552	57	6646
2026-01-21 09:41:50.91	7.21	45.70	-43.2	-48.1	10.4	3.44e-03	0	61	0	822083584	57	6552
2026-01-21 09:41:54.94	6.15	44.64	-43.5	-48.9	9.6	1.24e-02	0	60	0	829423616	57	7200
2026-01-21 09:41:58.98	5.16	43.59	-43.5	-48.9	9.5	1.35e-02	0	60	0	837812224	57	7169
2026-01-21 09:42:03.01	4.24	42.57	-43.8	-50.0	8.5	2.97e-02	0	60	0	845152256	58	7652
2026-01-21 09:42:07.05	3.37	41.56	-43.8	-50.0	8.4	4.84e-02	0	60	0	852492288	58	7677
2026-01-21 09:42:11.09	2.55	40.57	-44.0	-50.9	7.5	7.44e-02	0	60	0	859832320	58	8520
2026-01-21 09:42:15.12	1.79	39.60	-44.0	-51.3	7.1	1.39e-01	0	61	0	868220928	58	8890
2026-01-21 09:42:19.16	1.06	38.65	-44.6	-54.5	4.8	7.75e-01	0	60	0	873463808	60	11506
2026-01-21 09:42:23.18	0.39	37.73	-43.5	-49.5	8.8	2.69e-02	0	60	0	878706688	59	6852
2026-01-21 09:42:27.20	359.74	36.83	-43.4	-49.1	9.3	1.81e-02	0	60	0	886046720	58	6884
2026-01-21 09:42:31.22	359.14	35.95	-43.2	-48.5	9.9	9.40e-03	0	61	0	893386752	58	6448
2026-01-21 09:42:35.24	358.57	35.09	-43.2	-48.5	9.9	8.79e-03	0	60	0	901775360	58	6487
2026-01-21 09:42:39.27	358.02	34.24	-43.2	-48.7	9.7	1.09e-02	0	60	0	909115392	58	6611
2026-01-21 09:42:43.29	357.50	33.42	-43.5	-49.4	9.0	2.66e-02	0	60	0	916455424	58	7147
2026-01-21 09:42:47.31	357.01	32.62	-43.8	-50.1	8.2	5.17e-02	0	60	0	923795456	58	7805
2026-01-21 09:42:51.34	356.55	31.83	-43.9	-50.7	7.6	9.54e-02	0	60	0	931135488	58	8279
2026-01-21 09:42:55.36	356.10	31.07	-44.1	-51.4	6.9	1.34e-01	0	61	0	939524096	58	9030
2026-01-21 09:42:59.38	355.68	30.32	-44.3	-53.4	5.3	1.37e+00	0	61	0	943718400	60	10152
2026-01-21 09:43:03.41	355.28	29.59	-43.8	-50.4	7.8	8.94e-02	0	60	0	950009856	59	7629
2026-01-21 09:43:07.43	354.89	28.87	-43.7	-50.2	7.9	8.28e-02	0	60	0	957349888	59	7419
2026-01-21 09:43:11.46	354.52	28.17	-43.7	-50.2	7.9	7.42e-02	0	60	0	964689920	59	7431
2026-01-21 09:43:15.48	354.17	27.49	-43.6	-50.5	7.6	9.75e-02	0	61	0	972029952	59	7668
2026-01-21 09:43:19.50	353.84	26.83	-43.5	-50.7	7.5	3.24e-01	0	61	0	979369984	58	8354
2026-01-21 09:43:23.54	353.51	26.17	-43.2	-49.9	8.0	9.09e-02	0	61	0	983564288	58	7623
2026-01-21 09:43:27.57	353.20	25.53	-42.8	-49.1	8.7	3.88e-02	0	61	0	990904320	57	7292
2026-01-21 09:43:31.61	352.91	24.91	-42.6	-48.4	9.4	2.05e-02	0	61	0	999292928	57	6743
2026-01-21 09:43:35.65	352.62	24.30	-42.5	-48.3	9.3	1.65e-02	0	61	0	1006632960	57	6691
2026-01-21 09:43:39.69	352.35	23.70	-42.4	-48.1	9.3	1.97e-02	0	61	0	1013972992	56	6941
2026-01-21 09:43:43.73	352.08	23.11	-42.1	-47.7	9.6	1.49e-02	0	61	0	1021313024	56	6573
2026-01-21 09:43:47.76	351.83	22.54	-41.5	-47.3	9.4	1.84e-02	0	61	0	1028653056	55	6655
2026-01-21 09:43:51.80	351.59	21.98	-41.5	-47.4	8.9	2.22e-02	0	61	0	1037041664	54	7139
2026-01-21 09:43:55.84	351.35	21.43	-41.7	-48.2	7.7	6.06e-02	0	61	0	1044381696	54	7883
2026-01-21 09:43:59.88	351.13	20.89	-42.0	-52.1	4.6	6.94e-01	0	61	0	1051721728	54	12349
2026-01-21 09:44:03.91	350.91	20.37	-41.4	-56.0	3.8	1.49e+00	0	61	104	1052770304	54	19182
2026-01-21 09:44:07.94	350.70	19.85	-41.8	-55.9	3.8	1.49e+00	0	61	104	1052770304	55	17918
2026-01-21 09:44:11.97	350.50	19.34	-41.4	-56.0	3.8	1.49e+00	0	61	104	1052770304	54	19255
2026-01-21 09:44:16.00	350.30	18.85	-41.3	-55.9	3.8	1.49e+00	0	61	104	1052770304	54	19063
2026-01-21 09:44:20.03	350.12	18.36	-41.2	-55.8	3.8	1.49e+00	0	61	104	1052770304	54	18766
2026-01-21 09:44:24.06	349.93	17.88	-41.1	-55.7	3.8	1.49e+00	0	61	104	1052770304	54	18532
2026-01-21 09:44:28.08	349.76	17.42	-41.2	-55.7	3.8	1.49e+00	0	61	104	1052770304	54	18651
2026-01-21 09:44:32.12	349.59	16.95	-41.4	-55.9	3.8	1.49e+00	0	61	104	1052770304	54	18997
2026-01-21 09:44:36.14	349.42	16.50	-41.5	-56.0	3.8	1.49e+00	0	61	104	1052770304	53	20390
2026-01-21 09:44:40.16	349.26	16.06	-41.5	-56.0	3.8	1.49e+00	0	61	104	1052770304	53	20534
2026-01-21 09:44:44.19	349.11	15.62	-41.5	-56.0	3.8	1.49e+00	0	61	104	1052770304	53	20430
2026-01-21 09:44:48.22	348.96	15.20	-41.5	-56.1	3.8	1.49e+00	0	61	104	1052770304	53	20544
2026-01-21 09:44:52.24	348.82	14.78	-41.5	-56.0	3.8	1.49e+00	0	61	104	1052770304	53	20530
2026-01-21 09:44:56.29	348.67	14.36	-41.5	-56.0	3.8	1.49e+00	0	61	104	1052770304	53	20495
2026-01-21 09:45:00.33	348.54	13.95	-41.4	-56.0	3.8	1.49e+00	0	61	104	1052770304	53	20401
2026-01-21 09:45:04.37	348.41	13.55	-41.4	-55.9	3.8	1.49e+00	0	61	104	1052770304	53	20188
2026-01-21 09:45:08.41	348.28	13.15	-41.4	-55.9	3.8	1.49e+00	0	61	104	1052770304	53	20175
2026-01-21 09:45:12.44	348.15	12.76	-41.3	-55.9	3.8	1.49e+00	0	61	104	1052770304	53	20084
2026-01-21 09:45:16.48	348.03	12.38	-41.3	-55.8	3.8	1.49e+00	0	61	104	1052770304	53	19922
2026-01-21 09:45:20.52	347.91	12.00	-41.2	-55.8	3.8	1.49e+00	0	61	104	1052770304	53	19897
2026-01-21 09:45:24.56	347.80	11.63	-41.2	-55.7	3.8	1.49e+00	0	61	104	1052770304	53	19815
2026-01-21 09:45:28.60	347.69	11.26	-41.1	-55.7	3.8	1.49e+00	0	61	104	1052770304	53	19687
2026-01-21 09:45:32.64	347.58	10.90	-41.1	-55.7	3.8	1.49e+00	0	61	104	1052770304	53	19634
2026-01-21 09:45:36.68	347.48	10.55	-41.1	-55.7	3.8	1.49e+00	0	61	104	1052770304	53	19617
2026-01-21 09:45:40.72	347.38	10.19	-41.1	-55.7	3.8	1.49e+00	0	61	104	1052770304	53	19680
2026-01-21 09:45:44.76	347.28	9.85	-41.1	-55.7	3.8	1.49e+00	0	61	104	1052770304	53	19722
2026-01-21 09:45:48.80	347.18	9.51	-41.1	-55.7	3.8	1.49e+00	0	61	104	1052770304	53	19682
2026-01-21 09:45:52.83	347.09	9.17	-41.1	-55.7	3.8	1.49e+00	0	61	104	1052770304	53	19637
2026-01-21 09:45:56.87	347.00	8.84	-41.1	-55.6	3.8	1.49e+00	0	61	104	1052770304	53	19513
2026-01-21 09:46:00.90	346.91	8.51	-41.0	-55.6	3.8	1.49e+00	0	61	104	1052770304	53	19476
2026-01-21 09:46:04.94	346.82	8.18	-41.0	-55.6	3.8	1.49e+00	0	61	104	1052770304	53	19479
2026-01-21 09:46:08.98	346.74	7.86	-41.6	-56.1	3.8	1.49e+00	0	61	104	1052770304	53	20684
2026-01-21 09:46:13.03	346.65	7.55	-45.1	-59.7	3.8	1.49e+00	0	61	104	1052770304	60	20980
2026-01-21 09:46:17.06	346.57	7.24	-45.2	-59.9	3.8	1.49e+00	0	61	104	1052770304	61	20155
2026-01-21 09:46:21.10	346.50	6.93	-45.2	-59.8	3.8	1.49e+00	0	61	104	1052770304	61	20033
2026-01-21 09:46:25.14	346.42	6.62	-45.2	-59.7	3.8	1.49e+00	0	61	104	1052770304	61	19793
2026-01-21 09:46:29.18	346.35	6.32	-45.2	-59.8	3.8	1.49e+00	0	61	104	1052770304	60	21149
2026-01-21 09:46:33.22	346.27	6.02	-45.2	-59.8	3.8	1.49e+00	0	61	104	1052770304	60	21074
2026-01-21 09:46:37.26	346.20	5.73	-45.2	-59.8	3.8	1.49e+00	0	61	104	1052770304	60	21024
2026-01-21 09:46:41.31	346.14	5.43	-45.2	-59.7	3.8	1.49e+00	0	61	104	1052770304	60	20996
2026-01-21 09:46:45.35	346.07	5.15	-45.2	-59.7	3.8	1.49e+00	0	61	104	1052770304	60	20995
2026-01-21 09:46:49.39	346.00	4.86	-45.2	-59.7	3.8	1.49e+00	0	61	104	1052770304	60	20993
2026-01-21 09:46:53.43	345.94	4.58	-45.2	-59.7	3.8	1.49e+00	0	61	104	1052770304	60	20995
2026-01-21 09:46:57.47	345.88	4.30	-45.2	-59.7	3.8	1.49e+00	0	61	104	1052770304	60	21008
2026-01-21 09:47:01.51	345.82	4.02	-45.0	-59.7	3.8	1.49e+00	0	61	104	1052770304	60	20929
2026-01-21 09:47:05.55	345.76	3.75	-45.1	-59.7	3.8	1.49e+00	0	61	104	1052770304	60	20920
2026-01-21 09:47:09.60	345.70	3.47	-45.1	-59.7	3.8	1.49e+00	0	61	104	1052770304	60	20898
2026-01-21 09:47:13.64	345.64	3.21	-45.1	-59.7	3.8	1.49e+00	0	61	104	1052770304	60	20886
2026-01-21 09:47:17.68	345.59	2.94	-45.1	-59.7	3.8	1.49e+00	0	61	104	1052770304	60	20809
2026-01-21 09:47:21.72	345.53	2.68	-45.0	-59.7	3.8	1.49e+00	0	61	104	1052770304	60	20885
2026-01-21 09:47:25.76	345.48	2.41	-45.1	-59.7	3.8	1.49e+00	0	61	104	1052770304	60	20824
2026-01-21 09:47:29.80	345.43	2.16	-45.1	-59.7	3.8	1.49e+00	0	61	104	1052770304	60	20917
2026-01-21 09:47:33.85	345.38	1.90	-45.1	-59.7	3.8	1.49e+00	0	61	104	1052770304	60	20905

#Closed at: 2026-01-21 09:47:35
#Recorded file [1052 MB]: D:/lorett/data/31039_260121_123314.dat