passes_logs/2026/01/21/R2.0S_Moscow/R2.0S_Moscow__20260121_115048_FENGYUN_3D_rec.log

#Pass ID: 20260121_115048_FENGYUN 3D
#Satellite: FENGYUN 3D
#Configuration: FENGYUN 3D
#almurnet v.1.7.20251203
#Start time: 2026-01-21 11:50:47

#Version: 2.2.20231116
#Station: R2.0S_Moscow
#Location: 37.707566 lon 55.798166 lat
#TLE: 1 43010U 17072A   26020.28933472  .00000051  00000+0  46008-4 0  9990
#TLE: 2 43010  98.9944 352.1871 0002476  99.7001 260.4455 14.19696838424006

#Time	Az	El	Level	Level2	SNR	BER	BlckErr	Temp	State	Recorded	gain1	gain2
2026-01-21 11:50:47.96	156.63	1.97	-44.0	-55.7	3.8	8.46e-01	0	51	0	0	59	13928
2026-01-21 11:50:52.00	156.62	2.23	-44.0	-55.7	3.8	8.45e-01	0	51	104	0	59	13935
2026-01-21 11:50:56.04	156.60	2.50	-44.0	-55.7	3.8	8.46e-01	0	52	104	0	59	13916
2026-01-21 11:51:00.08	156.59	2.76	-44.0	-55.7	3.8	8.46e-01	0	52	104	0	59	13906
2026-01-21 11:51:04.12	156.58	3.03	-44.0	-55.6	3.8	8.46e-01	0	52	104	0	59	13854
2026-01-21 11:51:08.17	156.56	3.30	-44.0	-55.6	3.8	8.46e-01	0	52	104	0	59	13873
2026-01-21 11:51:12.21	156.55	3.58	-44.0	-55.7	3.8	8.46e-01	0	53	104	0	59	13936
2026-01-21 11:51:16.25	156.53	3.85	-44.0	-55.6	3.8	8.46e-01	0	53	104	0	59	13879
2026-01-21 11:51:20.29	156.52	4.13	-44.0	-55.6	3.8	8.47e-01	0	53	104	0	59	13880
2026-01-21 11:51:24.34	156.50	4.41	-44.0	-55.6	3.8	8.45e-01	0	54	104	0	59	13876
2026-01-21 11:51:28.38	156.49	4.70	-44.0	-55.6	3.8	8.46e-01	0	54	104	0	59	13880
2026-01-21 11:51:32.42	156.47	4.99	-44.0	-55.6	3.8	8.46e-01	0	54	104	0	59	13853
2026-01-21 11:51:36.46	156.45	5.28	-44.0	-55.5	3.8	8.46e-01	0	54	104	0	59	13650
2026-01-21 11:51:40.50	156.43	5.57	-43.9	-54.6	3.8	8.47e-01	0	55	104	0	59	12306
2026-01-21 11:51:44.55	156.42	5.87	-43.6	-52.0	4.2	8.39e-01	0	55	0	0	59	9149
2026-01-21 11:51:48.59	156.40	6.17	-43.4	-51.1	4.5	8.18e-01	0	55	0	0	58	8701
2026-01-21 11:51:52.63	156.38	6.48	-43.3	-50.9	4.6	8.16e-01	0	55	0	0	58	8475
2026-01-21 11:51:56.67	156.36	6.79	-43.8	-53.4	3.9	8.44e-01	0	55	104	0	58	11370
2026-01-21 11:52:00.71	156.34	7.10	-43.9	-54.5	3.8	8.46e-01	0	56	104	0	58	12844
2026-01-21 11:52:04.76	156.31	7.42	-42.7	-48.7	5.9	5.99e-01	0	56	0	1048576	57	6969
2026-01-21 11:52:08.80	156.29	7.74	-40.7	-44.2	9.9	1.47e-02	0	56	0	24117248	53	5260
2026-01-21 11:52:12.84	156.27	8.06	-39.9	-42.8	11.5	1.01e-03	0	56	0	46137344	51	5003
2026-01-21 11:52:16.87	156.24	8.39	-43.5	-51.0	4.7	3.25e-01	0	56	0	68157440	57	9149
2026-01-21 11:52:20.91	156.22	8.72	-39.9	-42.7	11.6	9.28e-04	0	56	0	87031808	51	4978
2026-01-21 11:52:24.95	156.19	9.06	-39.8	-42.5	11.9	5.70e-04	0	57	0	110100480	51	4860
2026-01-21 11:52:28.99	156.17	9.40	-39.4	-42.0	12.6	1.72e-04	0	56	0	133169152	50	4815
2026-01-21 11:52:33.03	156.14	9.75	-39.3	-41.8	12.8	6.40e-05	0	57	0	155189248	50	4750
2026-01-21 11:52:37.07	156.11	10.10	-39.1	-41.5	13.2	7.09e-05	0	57	0	178257920	50	4556
2026-01-21 11:52:41.11	156.08	10.46	-39.1	-41.4	13.3	3.54e-05	0	57	0	201326592	50	4534
2026-01-21 11:52:45.15	156.05	10.82	-39.1	-41.5	13.3	2.17e-05	0	57	0	223346688	50	4553
2026-01-21 11:52:49.19	156.02	11.19	-39.1	-41.4	13.4	2.97e-05	0	57	0	246415360	50	4507
2026-01-21 11:52:53.23	155.99	11.56	-39.0	-41.3	13.6	1.60e-05	0	57	0	269484032	49	4731
2026-01-21 11:52:57.27	155.96	11.94	-39.0	-41.3	13.6	2.51e-05	0	58	0	292552704	49	4712
2026-01-21 11:53:01.31	155.92	12.33	-39.0	-41.2	13.7	5.70e-06	0	58	0	314572800	49	4675
2026-01-21 11:53:05.35	155.89	12.72	-38.9	-41.1	13.8	8.00e-06	0	58	0	337641472	49	4630
2026-01-21 11:53:09.39	155.85	13.12	-38.9	-41.1	13.9	4.50e-06	0	58	0	359661568	49	4613
2026-01-21 11:53:13.43	155.81	13.52	-38.8	-40.9	14.1	3.40e-06	0	58	0	382730240	49	4512
2026-01-21 11:53:17.47	155.77	13.93	-38.7	-40.8	14.2	2.20e-06	0	58	0	405798912	49	4479
2026-01-21 11:53:21.51	155.73	14.35	-38.6	-40.7	14.4	1.10e-06	0	58	0	427819008	49	4401
2026-01-21 11:53:25.54	155.69	14.78	-38.5	-40.5	14.6	1.10e-06	0	58	0	450887680	48	4593
2026-01-21 11:53:29.59	155.64	15.21	-38.4	-40.4	14.8	0.00e+00	0	58	0	473956352	48	4504
2026-01-21 11:53:33.62	155.60	15.65	-38.6	-40.6	14.5	0.00e+00	0	58	0	497025024	48	4626
2026-01-21 11:53:37.66	155.55	16.10	-38.2	-40.1	15.0	0.00e+00	0	58	0	519045120	48	4370
2026-01-21 11:53:41.70	155.50	16.56	-37.9	-39.7	15.3	0.00e+00	0	58	0	542113792	47	4436
2026-01-21 11:53:45.74	155.45	17.02	-37.8	-39.7	15.4	0.00e+00	0	58	0	564133888	47	4406
2026-01-21 11:53:49.77	155.40	17.50	-37.6	-39.4	15.7	0.00e+00	0	59	0	587202560	47	4246
2026-01-21 11:53:53.81	155.34	17.98	-37.5	-39.2	15.9	1.10e-06	0	59	0	610271232	46	4432
2026-01-21 11:53:57.85	155.28	18.48	-37.4	-39.2	15.9	0.00e+00	0	58	0	632291328	46	4404
2026-01-21 11:54:01.89	155.22	18.98	-37.5	-39.3	15.8	0.00e+00	0	59	0	655360000	46	4485
2026-01-21 11:54:05.93	155.16	19.50	-37.5	-39.3	15.8	0.00e+00	0	59	0	678428672	46	4452
2026-01-21 11:54:09.98	155.10	20.02	-37.4	-39.2	15.8	0.00e+00	0	59	0	701497344	46	4429
2026-01-21 11:54:14.02	155.03	20.56	-37.3	-39.1	16.0	0.00e+00	0	59	0	723517440	46	4373
2026-01-21 11:54:18.06	154.96	21.11	-37.1	-38.8	16.3	0.00e+00	0	59	0	746586112	46	4200
2026-01-21 11:54:22.10	154.88	21.67	-37.0	-38.7	16.4	0.00e+00	0	59	0	768606208	46	4180
2026-01-21 11:54:26.13	154.81	22.24	-37.0	-38.7	16.4	0.00e+00	0	59	0	791674880	46	4181
2026-01-21 11:54:30.17	154.73	22.83	-36.8	-38.5	16.6	0.00e+00	0	59	0	814743552	45	4292
2026-01-21 11:54:34.21	154.65	23.43	-36.8	-38.4	16.7	0.00e+00	0	59	0	836763648	45	4277
2026-01-21 11:54:38.25	154.56	24.05	-36.8	-38.4	16.7	0.00e+00	0	59	0	859832320	45	4261
2026-01-21 11:54:42.29	154.47	24.68	-36.7	-38.3	16.8	0.00e+00	0	59	0	882900992	45	4211
2026-01-21 11:54:46.34	154.37	25.32	-36.6	-38.2	17.0	0.00e+00	0	59	0	905969664	45	4155
2026-01-21 11:54:50.38	154.27	25.98	-36.4	-38.0	17.2	0.00e+00	0	59	0	927989760	44	4295
2026-01-21 11:54:54.42	154.17	26.66	-36.4	-38.0	17.2	0.00e+00	0	59	0	951058432	44	4292
2026-01-21 11:54:58.46	154.06	27.36	-36.4	-38.0	17.2	0.00e+00	0	59	0	973078528	44	4311
2026-01-21 11:55:02.49	153.94	28.07	-36.7	-38.3	16.8	0.00e+00	0	59	0	996147200	44	4490
2026-01-21 11:55:06.54	153.82	28.80	-36.7	-38.3	16.9	0.00e+00	0	60	0	1019215872	44	4465
2026-01-21 11:55:10.57	153.69	29.55	-36.2	-37.7	17.4	0.00e+00	0	59	0	1042284544	44	4169
2026-01-21 11:55:14.61	153.56	30.32	-36.2	-37.7	17.4	0.00e+00	0	60	0	1064304640	44	4192
2026-01-21 11:55:18.65	153.42	31.11	-36.4	-37.9	17.3	0.00e+00	0	60	0	1087373312	44	4269
2026-01-21 11:55:22.69	153.27	31.93	-36.3	-37.9	17.3	0.00e+00	0	59	0	1110441984	44	4260
2026-01-21 11:55:26.73	153.11	32.76	-35.8	-37.3	17.7	0.00e+00	0	60	0	1132462080	43	4220
2026-01-21 11:55:30.77	152.95	33.63	-35.8	-37.3	17.7	0.00e+00	0	60	0	1155530752	43	4228
2026-01-21 11:55:34.81	152.77	34.51	-35.5	-36.9	18.1	0.00e+00	0	60	0	1177550848	43	4042
2026-01-21 11:55:38.85	152.58	35.42	-35.3	-36.7	18.3	0.00e+00	0	60	0	1200619520	42	4189
2026-01-21 11:55:42.89	152.39	36.36	-35.8	-37.3	17.8	0.00e+00	0	60	0	1223688192	42	4448
2026-01-21 11:55:46.93	152.18	37.32	-35.8	-37.3	17.7	0.00e+00	0	60	0	1246756864	42	4485
2026-01-21 11:55:50.96	151.95	38.31	-35.8	-37.3	17.8	0.00e+00	0	60	0	1268776960	42	4448
2026-01-21 11:55:55.00	151.71	39.34	-35.8	-37.3	17.8	0.00e+00	0	60	0	1291845632	42	4444
2026-01-21 11:55:59.05	151.45	40.39	-36.4	-38.0	17.1	0.00e+00	0	60	0	1314914304	43	4556
2026-01-21 11:56:03.08	151.18	41.47	-36.4	-37.9	17.2	0.00e+00	0	60	0	1336934400	43	4539
2026-01-21 11:56:07.12	150.89	42.59	-36.2	-37.7	17.5	0.00e+00	0	60	0	1360003072	43	4433
2026-01-21 11:56:11.17	150.57	43.74	-36.3	-37.8	17.3	0.00e+00	0	60	0	1383071744	43	4488
2026-01-21 11:56:15.20	150.23	44.92	-36.6	-38.2	17.0	0.00e+00	0	60	0	1405091840	43	4655
2026-01-21 11:56:19.24	149.86	46.14	-36.6	-38.1	17.3	0.00e+00	0	60	0	1428160512	44	4366
2026-01-21 11:56:23.28	149.46	47.40	-36.3	-37.8	17.6	0.00e+00	0	60	0	1451229184	44	4219
2026-01-21 11:56:27.32	149.02	48.69	-36.1	-37.6	17.8	0.00e+00	0	60	0	1473249280	44	4111
2026-01-21 11:56:31.36	148.54	50.01	-36.8	-38.4	17.0	0.00e+00	0	60	0	1496317952	44	4529
2026-01-21 11:56:35.40	148.02	51.38	-37.2	-38.9	16.6	0.00e+00	0	60	0	1519386624	45	4497
2026-01-21 11:56:39.44	147.45	52.78	-37.4	-39.1	16.3	0.00e+00	0	60	0	1541406720	45	4628
2026-01-21 11:56:43.47	146.82	54.22	-37.4	-39.1	16.3	0.00e+00	0	60	0	1564475392	45	4609
2026-01-21 11:56:47.51	146.12	55.70	-37.6	-39.3	16.1	0.00e+00	0	60	0	1586495488	45	4743
2026-01-21 11:56:51.54	145.34	57.20	-36.6	-38.1	17.2	0.00e+00	0	60	0	1609564160	45	4136
2026-01-21 11:56:55.58	144.46	58.75	-36.8	-38.4	17.0	0.00e+00	0	60	0	1632632832	45	4264
2026-01-21 11:56:59.62	143.47	60.33	-36.6	-38.1	17.3	0.00e+00	0	60	0	1655701504	45	4137
2026-01-21 11:57:03.66	142.35	61.95	-36.1	-37.5	17.9	0.00e+00	0	60	0	1677721600	44	4065
2026-01-21 11:57:07.69	141.08	63.59	-36.1	-37.6	17.5	0.00e+00	0	60	0	1700790272	43	4370
2026-01-21 11:57:11.73	139.60	65.25	-36.0	-37.6	17.5	0.00e+00	0	60	0	1723858944	43	4351
2026-01-21 11:57:15.77	137.88	66.93	-35.2	-36.6	18.5	0.00e+00	0	60	0	1745879040	42	4109
2026-01-21 11:57:19.81	135.86	68.63	-35.1	-36.5	18.5	0.00e+00	0	60	0	1768947712	42	4069
2026-01-21 11:57:23.85	133.46	70.33	-35.1	-36.5	18.6	0.00e+00	0	60	0	1790967808	42	4055
2026-01-21 11:57:27.89	130.57	72.02	-35.2	-36.6	18.4	0.00e+00	0	60	0	1814036480	42	4113
2026-01-21 11:57:31.93	127.05	73.68	-35.1	-36.5	18.5	0.00e+00	0	60	0	1837105152	42	4090
2026-01-21 11:57:35.97	122.70	75.29	-34.4	-35.7	19.3	0.00e+00	0	60	0	1860173824	40	4157
2026-01-21 11:57:40.01	117.27	76.81	-34.3	-35.5	19.3	0.00e+00	0	60	0	1882193920	40	4093
2026-01-21 11:57:44.04	110.46	78.20	-33.8	-35.0	19.9	0.00e+00	0	60	0	1905262592	39	4088
2026-01-21 11:57:48.08	101.91	79.40	-33.4	-34.6	20.3	0.00e+00	0	60	0	1928331264	38	4115
2026-01-21 11:57:52.12	91.43	80.31	-33.5	-34.7	20.1	0.00e+00	0	60	0	1950351360	38	4188
2026-01-21 11:57:56.15	79.27	80.85	-33.7	-34.9	20.0	0.00e+00	0	60	0	1973420032	38	4290
2026-01-21 11:58:00.18	66.23	80.94	-33.7	-35.0	19.8	0.00e+00	0	60	0	1995440128	38	4324
2026-01-21 11:58:04.20	53.61	80.58	-33.4	-34.6	20.3	0.00e+00	0	60	0	2018508800	38	4116
2026-01-21 11:58:08.22	42.44	79.81	-33.4	-34.6	20.2	0.00e+00	0	60	0	2041577472	38	4145
2026-01-21 11:58:12.25	33.14	78.72	-33.8	-35.1	19.8	0.00e+00	0	60	0	2063597568	38	4348
2026-01-21 11:58:16.27	25.67	77.41	-34.1	-35.3	19.6	0.00e+00	0	60	0	2086666240	38	4485
2026-01-21 11:58:20.29	19.73	75.94	-34.1	-35.4	19.7	0.00e+00	0	60	0	2108686336	38	4506
2026-01-21 11:58:24.31	14.99	74.38	-34.7	-36.0	19.1	0.00e+00	0	60	0	2131755008	40	4297
2026-01-21 11:58:28.35	11.14	72.74	-35.1	-36.5	18.5	0.00e+00	0	60	0	2153775104	40	4553
2026-01-21 11:58:32.37	8.02	71.07	-35.1	-36.5	18.5	0.00e+00	0	60	0	2176843776	40	4590
2026-01-21 11:58:36.39	5.44	69.39	-35.3	-36.8	18.3	0.00e+00	0	60	0	2199912448	41	4452
2026-01-21 11:58:40.42	3.27	67.70	-35.3	-36.8	18.3	0.00e+00	0	60	0	2221932544	41	4447
2026-01-21 11:58:44.44	1.43	66.02	-35.2	-36.6	18.6	0.00e+00	0	60	0	2245001216	41	4343
2026-01-21 11:58:48.47	359.86	64.35	-35.4	-36.9	18.2	1.10e-06	0	61	0	2268069888	41	4508
2026-01-21 11:58:52.49	358.51	62.71	-35.5	-36.9	18.3	0.00e+00	0	60	0	2290089984	41	4538
2026-01-21 11:58:56.53	357.32	61.09	-35.0	-36.9	18.1	1.60e-05	0	60	0	2313158656	41	4536
2026-01-21 11:59:00.57	356.28	59.50	-36.2	-37.7	17.5	1.10e-06	0	61	0	2335178752	43	4436
2026-01-21 11:59:04.61	355.35	57.94	-36.6	-38.2	17.0	0.00e+00	0	60	0	2358247424	43	4684
2026-01-21 11:59:08.64	354.53	56.42	-37.2	-38.8	16.6	0.00e+00	0	60	0	2381316096	44	4720
2026-01-21 11:59:12.68	353.80	54.93	-37.3	-39.0	16.4	0.00e+00	0	60	0	2403336192	45	4571
2026-01-21 11:59:16.72	353.14	53.48	-36.8	-38.3	17.0	0.00e+00	0	60	0	2426404864	45	4231
2026-01-21 11:59:20.76	352.54	52.06	-36.7	-38.3	17.1	0.00e+00	0	60	0	2449473536	45	4226
2026-01-21 11:59:24.80	352.00	50.68	-36.3	-37.7	17.9	0.00e+00	0	60	0	2471493632	44	4169
2026-01-21 11:59:28.84	351.51	49.34	-36.5	-37.9	17.7	0.00e+00	0	60	0	2494562304	44	4261
2026-01-21 11:59:32.88	351.05	48.04	-36.2	-37.6	18.0	0.00e+00	0	60	0	2517630976	44	4119
2026-01-21 11:59:36.92	350.64	46.77	-36.1	-37.4	18.1	0.00e+00	0	60	0	2539651072	44	4047
2026-01-21 11:59:40.96	350.26	45.54	-36.4	-37.7	17.8	0.00e+00	0	60	0	2562719744	44	4188
2026-01-21 11:59:45.00	349.90	44.35	-36.5	-37.9	17.6	0.00e+00	0	61	0	2585788416	44	4268
2026-01-21 11:59:49.05	349.58	43.18	-36.3	-37.7	17.8	0.00e+00	0	60	0	2607808512	44	4177
2026-01-21 11:59:53.09	349.27	42.06	-36.2	-37.6	18.0	0.00e+00	0	60	0	2630877184	44	4109
2026-01-21 11:59:57.13	348.99	40.96	-36.1	-37.5	18.1	0.00e+00	0	60	0	2653945856	44	4052
2026-01-21 12:00:01.17	348.73	39.90	-35.7	-37.0	18.3	0.00e+00	0	61	0	2677014528	43	4093
2026-01-21 12:00:05.21	348.48	38.87	-35.5	-36.8	18.5	0.00e+00	0	60	0	2699034624	43	4000
2026-01-21 12:00:09.25	348.25	37.86	-35.5	-36.8	18.5	0.00e+00	0	60	0	2722103296	42	4196
2026-01-21 12:00:13.29	348.04	36.89	-35.5	-36.8	18.5	0.00e+00	0	61	0	2744123392	42	4226
2026-01-21 12:00:17.33	347.84	35.94	-36.0	-37.4	17.9	0.00e+00	0	61	0	2767192064	42	4536
2026-01-21 12:00:21.37	347.65	35.02	-36.0	-37.4	17.8	0.00e+00	0	61	0	2790260736	42	4517
2026-01-21 12:00:25.40	347.47	34.13	-35.8	-37.1	18.1	0.00e+00	0	61	0	2812280832	42	4383
2026-01-21 12:00:29.44	347.30	33.26	-36.0	-37.4	17.8	0.00e+00	0	60	0	2835349504	42	4519
2026-01-21 12:00:33.48	347.14	32.42	-36.2	-37.6	17.6	0.00e+00	0	60	0	2858418176	43	4390
2026-01-21 12:00:37.52	346.99	31.60	-36.2	-37.6	17.5	0.00e+00	0	61	0	2881486848	43	4389
2026-01-21 12:00:41.56	346.85	30.80	-36.2	-37.6	17.6	0.00e+00	0	60	0	2903506944	43	4352
2026-01-21 12:00:45.60	346.71	30.02	-36.3	-37.7	17.4	0.00e+00	0	61	0	2926575616	43	4411
2026-01-21 12:00:49.64	346.58	29.26	-36.3	-37.8	17.3	0.00e+00	0	61	0	2948595712	43	4466
2026-01-21 12:00:53.68	346.46	28.52	-36.2	-37.6	17.4	0.00e+00	0	60	0	2971664384	43	4374
2026-01-21 12:00:57.72	346.35	27.81	-35.9	-37.3	17.7	0.00e+00	0	61	0	2994733056	43	4197
2026-01-21 12:01:01.77	346.24	27.10	-35.8	-37.2	17.7	0.00e+00	0	61	0	3017801728	43	4170
2026-01-21 12:01:05.80	346.13	26.42	-36.0	-37.4	17.4	0.00e+00	0	61	0	3039821824	43	4270
2026-01-21 12:01:09.84	346.03	25.76	-36.1	-37.6	17.1	0.00e+00	0	60	0	3062890496	43	4385
2026-01-21 12:01:13.87	345.94	25.11	-36.3	-37.8	16.8	0.00e+00	0	61	0	3085959168	43	4473
2026-01-21 12:01:17.91	345.85	24.47	-36.3	-37.8	16.7	0.00e+00	0	61	0	3107979264	43	4462
2026-01-21 12:01:21.96	345.76	23.85	-36.3	-37.9	16.5	0.00e+00	0	61	0	3131047936	43	4515
2026-01-21 12:01:26.00	345.68	23.25	-36.2	-37.8	16.2	0.00e+00	0	60	0	3153068032	43	4466
2026-01-21 12:01:30.04	345.60	22.65	-36.4	-38.1	15.6	0.00e+00	0	61	0	3176136704	43	4637
2026-01-21 12:01:34.08	345.53	22.08	-36.2	-37.9	15.3	0.00e+00	0	61	0	3199205376	43	4534
2026-01-21 12:01:38.12	345.45	21.51	-38.0	-40.4	12.5	1.13e-04	0	61	0	3222274048	46	5068
2026-01-21 12:01:42.16	345.38	20.96	-40.6	-46.1	6.3	1.91e-01	0	61	0	3244294144	51	7334
2026-01-21 12:01:46.19	345.32	20.42	-41.3	-51.8	3.8	8.45e-01	0	61	104	3248488448	53	12522
2026-01-21 12:01:50.23	345.26	19.89	-41.1	-52.2	3.8	8.46e-01	0	61	104	3248488448	53	13115
2026-01-21 12:01:54.26	345.20	19.37	-41.2	-52.5	3.8	8.46e-01	0	61	104	3248488448	53	13698
2026-01-21 12:01:58.30	345.14	18.86	-41.1	-52.6	3.8	8.45e-01	0	61	104	3248488448	53	13871
2026-01-21 12:02:02.33	345.08	18.37	-41.2	-52.7	3.8	8.46e-01	0	61	104	3248488448	53	14030
2026-01-21 12:02:06.37	345.03	17.88	-41.2	-52.8	3.8	8.45e-01	0	61	104	3248488448	53	14107
2026-01-21 12:02:10.41	344.98	17.40	-41.2	-52.7	3.8	8.46e-01	0	61	104	3248488448	53	14003
2026-01-21 12:02:14.45	344.93	16.93	-41.0	-52.6	3.8	8.46e-01	0	61	104	3248488448	53	13834
2026-01-21 12:02:18.49	344.88	16.47	-41.0	-52.5	3.8	8.46e-01	0	61	104	3248488448	53	13690
2026-01-21 12:02:22.52	344.84	16.02	-41.0	-52.6	3.8	8.45e-01	0	61	104	3248488448	53	13816
2026-01-21 12:02:26.57	344.79	15.58	-41.1	-52.7	3.8	8.46e-01	0	61	104	3248488448	53	13992
2026-01-21 12:02:30.61	344.75	15.14	-41.2	-52.8	3.8	8.46e-01	0	61	104	3248488448	53	14202
2026-01-21 12:02:34.65	344.71	14.71	-41.2	-52.8	3.8	8.45e-01	0	61	104	3248488448	53	14127
2026-01-21 12:02:38.69	344.67	14.29	-41.1	-52.6	3.8	8.47e-01	0	61	104	3248488448	53	13884
2026-01-21 12:02:42.73	344.64	13.88	-40.9	-52.5	3.8	8.46e-01	0	61	104	3248488448	53	13654
2026-01-21 12:02:46.77	344.60	13.47	-40.9	-52.5	3.8	8.47e-01	0	61	104	3248488448	53	13610
2026-01-21 12:02:50.81	344.57	13.07	-41.0	-52.6	3.8	8.48e-01	0	61	104	3248488448	53	13841
2026-01-21 12:02:54.85	344.54	12.68	-41.1	-52.7	3.8	8.46e-01	0	61	104	3248488448	53	13964
2026-01-21 12:02:58.88	344.50	12.29	-41.1	-52.7	3.8	8.46e-01	0	61	104	3248488448	53	13890
2026-01-21 12:03:02.92	344.47	11.91	-41.0	-52.5	3.8	8.46e-01	0	61	104	3248488448	53	13683
2026-01-21 12:03:06.96	344.44	11.54	-40.8	-52.4	3.8	8.47e-01	0	61	104	3248488448	53	13441
2026-01-21 12:03:11.00	344.42	11.17	-40.8	-52.4	3.8	8.45e-01	0	61	104	3248488448	53	13472
2026-01-21 12:03:15.03	344.39	10.80	-40.9	-52.5	3.8	8.46e-01	0	61	104	3248488448	53	13582
2026-01-21 12:03:19.07	344.36	10.44	-41.0	-52.5	3.8	8.46e-01	0	61	104	3248488448	53	13685
2026-01-21 12:03:23.11	344.34	10.09	-40.9	-52.5	3.8	8.46e-01	0	61	104	3248488448	52	14484
2026-01-21 12:03:27.15	344.32	9.74	-40.7	-52.3	3.8	8.46e-01	0	61	104	3248488448	52	14142
2026-01-21 12:03:31.18	344.29	9.40	-40.6	-52.2	3.8	8.46e-01	0	61	104	3248488448	52	13929
2026-01-21 12:03:35.22	344.27	9.06	-40.7	-52.2	3.8	8.47e-01	0	61	104	3248488448	52	14035
2026-01-21 12:03:39.26	344.25	8.73	-40.8	-52.3	3.8	8.47e-01	0	61	104	3248488448	52	14171
2026-01-21 12:03:43.30	344.23	8.40	-40.8	-52.4	3.8	8.47e-01	0	61	104	3248488448	52	14222
2026-01-21 12:03:47.33	344.21	8.07	-40.7	-52.2	3.8	8.47e-01	0	61	104	3248488448	52	14017
2026-01-21 12:03:51.37	344.19	7.75	-44.3	-55.8	3.8	8.46e-01	0	61	104	3248488448	59	14103
2026-01-21 12:03:55.41	344.18	7.43	-45.2	-57.0	3.8	8.46e-01	0	61	104	3248488448	61	14389
2026-01-21 12:03:59.45	344.16	7.12	-45.2	-57.0	3.8	8.47e-01	0	61	104	3248488448	61	14463
2026-01-21 12:04:03.49	344.14	6.81	-45.2	-56.9	3.8	8.46e-01	0	61	104	3248488448	61	14284
2026-01-21 12:04:07.54	344.13	6.50	-45.2	-56.9	3.8	8.46e-01	0	61	104	3248488448	60	15068
2026-01-21 12:04:11.58	344.11	6.20	-45.1	-56.9	3.8	8.47e-01	0	61	104	3248488448	60	15092
2026-01-21 12:04:15.62	344.10	5.90	-45.1	-56.8	3.8	8.46e-01	0	61	104	3248488448	60	15038
2026-01-21 12:04:19.66	344.09	5.60	-45.1	-56.8	3.8	8.47e-01	0	61	104	3248488448	60	15018
2026-01-21 12:04:23.70	344.07	5.31	-45.1	-56.9	3.8	8.46e-01	0	61	104	3248488448	60	15093
2026-01-21 12:04:27.74	344.06	5.02	-45.1	-56.8	3.8	8.47e-01	0	61	104	3248488448	60	15000
2026-01-21 12:04:31.79	344.05	4.73	-45.1	-56.8	3.8	8.46e-01	0	61	104	3248488448	60	14954
2026-01-21 12:04:35.83	344.04	4.45	-45.1	-56.8	3.8	8.47e-01	0	61	104	3248488448	60	14994
2026-01-21 12:04:39.87	344.03	4.17	-45.1	-56.8	3.8	8.46e-01	0	61	104	3248488448	60	15011
2026-01-21 12:04:43.92	344.02	3.89	-45.1	-56.8	3.8	8.46e-01	0	61	104	3248488448	60	15017
2026-01-21 12:04:47.96	344.01	3.62	-45.1	-56.9	3.8	8.45e-01	0	61	104	3248488448	60	15066
2026-01-21 12:04:52.00	344.00	3.35	-45.1	-56.8	3.8	8.46e-01	0	61	104	3248488448	60	15016
2026-01-21 12:04:56.04	343.99	3.08	-44.3	-56.8	3.8	8.45e-01	0	61	104	3248488448	60	14946
2026-01-21 12:05:00.08	343.98	2.81	-45.1	-56.8	3.8	8.46e-01	0	61	104	3248488448	60	14930
2026-01-21 12:05:04.12	343.97	2.55	-45.1	-56.8	3.8	8.46e-01	0	61	104	3248488448	60	14975
2026-01-21 12:05:08.17	343.97	2.29	-45.1	-56.8	3.8	8.46e-01	0	61	104	3248488448	60	14925
2026-01-21 12:05:12.21	343.96	2.03	-45.1	-56.8	3.8	8.46e-01	0	61	104	3248488448	60	14946

#Closed at: 2026-01-21 12:05:14
#Recorded file [3248 MB]: D:/lorett/data/31039_260121_145047.dat